passes_logs/2025/01/06/XPeterburg/XPeterburg__20250106_043350_FENGYUN_3E_rec.log

#Pass ID: 20250106_043350_FENGYUN 3E
#Satellite: FENGYUN 3E
#Configuration: FENGYUN 3E
#Start time: 2025-01-06 04:33:43

#Version: 1.5.20200625
#Station: XPeterburg
#Location: 30.318091 lon 59.932769 lat
#TLE: 1 49008U 21062A   24362.16046100  .00000127  00000+0  80596-4 0  9998
#TLE: 2 49008  98.7386   0.9208 0001625 158.3591 201.7655 14.19826678180376

#Time	Az	El	Level	Level2	SNR	BER	Gain	Gain2
2025-01-06 04:33:43.64	30.26	67.36	-38.6	-41.4	3.3	8383655	94	6734
2025-01-06 04:33:44.05	30.37	67.54	-38.2	-52.5	3.5	8259773	72	25658
2025-01-06 04:33:44.45	30.48	67.71	-38.5	-41.3	3.3	8407951	94	6729
2025-01-06 04:33:44.85	30.59	67.89	-38.8	-42.7	3.6	8364784	95	7654
2025-01-06 04:33:45.25	30.70	68.07	-38.8	-41.3	3.3	8412368	95	6514
2025-01-06 04:33:45.65	30.81	68.25	-38.8	-42.7	3.6	8436023	95	7705
2025-01-06 04:33:46.06	30.93	68.43	-38.8	-41.3	3.3	8429592	95	6532
2025-01-06 04:33:46.46	31.05	68.61	-38.8	-42.7	3.6	8391506	95	7707
2025-01-06 04:33:46.86	31.17	68.79	-38.8	-41.3	3.3	8431560	95	6532
2025-01-06 04:33:47.26	31.29	68.97	-38.8	-42.7	3.6	8414760	95	7681
2025-01-06 04:33:47.67	31.42	69.15	-38.8	-41.3	3.3	8439708	95	6591
2025-01-06 04:33:48.07	31.54	69.33	-38.8	-42.7	3.6	8395271	95	7676
2025-01-06 04:33:48.47	31.67	69.51	-38.8	-41.5	3.4	8441093	95	6695
2025-01-06 04:33:48.87	31.80	69.69	-38.8	-42.7	3.6	8388931	95	7722
2025-01-06 04:33:49.27	31.94	69.87	-38.8	-41.7	3.4	8428092	95	6823
2025-01-06 04:33:49.68	32.07	70.06	-38.8	-41.2	3.3	8394630	95	6496
2025-01-06 04:33:50.08	32.21	70.24	-38.8	-41.8	3.4	8442832	95	6952
2025-01-06 04:33:50.48	32.36	70.42	-38.8	-41.2	3.3	8387397	95	6488
2025-01-06 04:33:50.88	32.50	70.60	-38.8	-42.1	3.5	8451896	95	7186
2025-01-06 04:33:51.29	32.65	70.79	-38.8	-41.2	3.3	8405593	95	6506
2025-01-06 04:33:51.69	32.80	70.97	-38.8	-42.5	3.6	8420322	95	7512
2025-01-06 04:33:52.09	32.95	71.15	-38.8	-41.4	3.3	8398853	95	6580
2025-01-06 04:33:52.49	33.11	71.33	-38.8	-42.8	3.6	8440235	95	7739
2025-01-06 04:33:52.89	33.27	71.52	-38.9	-41.3	3.3	8366958	95	6536
2025-01-06 04:33:53.30	33.44	71.70	-38.8	-42.6	3.6	8341873	95	7604
2025-01-06 04:33:53.70	33.61	71.89	-38.8	-41.1	3.3	8365814	95	6402
2025-01-06 04:33:54.10	33.78	72.07	-38.8	-42.6	3.6	8356384	95	7656
2025-01-06 04:33:54.50	33.95	72.25	-38.8	-41.2	3.3	8422416	95	6531
2025-01-06 04:33:54.90	34.13	72.44	-38.8	-42.6	3.6	8389812	95	7647
2025-01-06 04:33:55.31	34.31	72.62	-38.8	-41.0	3.4	8382419	96	6322
2025-01-06 04:33:55.71	34.50	72.81	-38.8	-42.8	3.6	8394824	95	7739
2025-01-06 04:33:56.11	34.69	72.99	-38.8	-41.8	3.4	8441230	95	6890
2025-01-06 04:33:56.51	34.88	73.17	-38.8	-41.3	3.3	8405902	95	6562
2025-01-06 04:33:56.91	35.08	73.36	-38.9	-41.6	3.5	8441219	96	6715
2025-01-06 04:33:57.31	35.29	73.54	-38.8	-40.7	3.3	8386676	96	6116
2025-01-06 04:33:57.72	35.50	73.73	-38.8	-42.2	3.5	8450077	95	7262
2025-01-06 04:33:58.12	35.71	73.92	-38.8	-41.2	3.3	8401943	95	6487
2025-01-06 04:33:58.52	35.93	74.10	-38.8	-42.5	3.6	8415424	95	7519
2025-01-06 04:33:58.92	36.15	74.28	-38.8	-41.2	3.3	8399265	95	6520
2025-01-06 04:33:59.32	36.38	74.47	-38.8	-42.8	3.6	8426834	95	7798
2025-01-06 04:33:59.73	36.63	74.66	-38.8	-41.3	3.3	8400341	95	6519
2025-01-06 04:34:00.13	36.87	74.84	-38.8	-42.7	3.6	8386974	95	7699
2025-01-06 04:34:00.53	37.11	75.03	-38.8	-40.6	3.3	8378505	96	6097
2025-01-06 04:34:00.93	37.37	75.21	-38.8	-42.1	3.6	8347778	96	7219
2025-01-06 04:34:01.33	37.63	75.40	-38.8	-40.9	3.3	8420917	96	6256
2025-01-06 04:34:01.74	37.90	75.59	-38.8	-42.2	3.6	8395202	96	7259
2025-01-06 04:34:02.14	38.18	75.77	-38.8	-41.4	3.4	8379032	95	6668
2025-01-06 04:34:02.54	38.46	75.95	-38.8	-42.7	3.6	8392993	95	7734
2025-01-06 04:34:02.94	38.75	76.14	-38.8	-41.8	3.4	8436309	95	6921
2025-01-06 04:34:03.34	39.04	76.32	-38.8	-41.2	3.3	8405181	95	6465
2025-01-06 04:34:03.75	39.36	76.51	-38.8	-41.6	3.4	8436962	95	6766
2025-01-06 04:34:04.15	39.67	76.69	-38.8	-41.2	3.3	8386550	95	6497
2025-01-06 04:34:04.55	40.00	76.88	-38.8	-41.9	3.4	8451347	95	7009
2025-01-06 04:34:04.95	40.33	77.06	-38.8	-41.2	3.3	8384662	95	6504
2025-01-06 04:34:05.35	40.67	77.24	-38.8	-42.1	3.5	8424350	95	7202
2025-01-06 04:34:05.76	41.04	77.43	-38.8	-41.1	3.3	8410926	95	6446
2025-01-06 04:34:06.16	41.40	77.62	-38.8	-42.4	3.6	8435932	95	7464
2025-01-06 04:34:06.56	41.77	77.80	-38.8	-41.2	3.3	8392856	95	6461
2025-01-06 04:34:06.96	42.16	77.98	-38.8	-42.6	3.6	8439491	95	7623
2025-01-06 04:34:07.36	42.56	78.16	-38.8	-41.0	3.3	8380668	95	6357
2025-01-06 04:34:07.77	42.98	78.35	-38.8	-42.6	3.6	8341941	95	7614
2025-01-06 04:34:08.17	43.41	78.53	-38.8	-41.1	3.3	8419338	95	6428
2025-01-06 04:34:08.57	43.85	78.71	-38.8	-42.5	3.6	8421020	95	7575
2025-01-06 04:34:08.97	44.30	78.89	-38.8	-41.2	3.3	8433746	95	6488
2025-01-06 04:34:09.37	44.77	79.07	-38.8	-42.6	3.6	8397514	95	7611
2025-01-06 04:34:09.77	45.26	79.25	-38.8	-41.4	3.4	8375713	95	6627
2025-01-06 04:34:10.18	45.77	79.43	-38.8	-42.5	3.6	8349964	95	7570
2025-01-06 04:34:10.58	46.29	79.61	-38.7	-41.5	3.4	8440464	95	6771
2025-01-06 04:34:10.98	46.83	79.79	-38.7	-40.9	3.3	8407997	95	6347
2025-01-06 04:34:11.38	47.39	79.96	-38.8	-41.7	3.4	8378494	95	6905
2025-01-06 04:34:11.79	47.98	80.14	-38.8	-41.1	3.3	8391586	95	6385
2025-01-06 04:34:12.19	48.58	80.32	-38.8	-42.2	3.5	8377086	95	7252
2025-01-06 04:34:12.59	49.20	80.49	-38.8	-41.3	3.3	8414005	95	6533
2025-01-06 04:34:12.99	49.84	80.66	-38.8	-42.5	3.6	8434535	95	7479
2025-01-06 04:34:13.39	50.51	80.84	-38.8	-41.1	3.3	8394035	95	6416
2025-01-06 04:34:13.80	51.23	81.01	-38.6	-42.1	3.6	8436298	95	7314
2025-01-06 04:34:14.20	51.95	81.18	-38.6	-40.6	3.3	8363777	95	6188
2025-01-06 04:34:14.60	52.70	81.35	-38.7	-42.1	3.6	8347286	95	7346
2025-01-06 04:34:15.00	53.48	81.51	-38.7	-40.9	3.3	8413135	95	6341
2025-01-06 04:34:15.40	54.30	81.68	-38.7	-42.5	3.6	8422096	95	7589
2025-01-06 04:34:15.81	55.16	81.85	-38.8	-40.7	3.3	8381916	96	6101
2025-01-06 04:34:16.21	56.04	82.01	-38.8	-42.6	3.6	8381252	95	7656
2025-01-06 04:34:16.61	56.96	82.17	-38.8	-41.2	3.4	8429454	95	6502
2025-01-06 04:34:17.01	57.92	82.33	-38.7	-42.3	3.6	8391643	95	7460
2025-01-06 04:34:17.41	58.92	82.48	-38.6	-40.9	3.4	8421443	95	6372
2025-01-06 04:34:17.82	59.98	82.64	-38.6	-41.9	3.6	8385074	95	7188
2025-01-06 04:34:18.22	61.07	82.79	-38.6	-40.8	3.4	8446266	95	6382
2025-01-06 04:34:18.62	62.20	82.94	-38.6	-40.3	3.3	8397296	95	6013
2025-01-06 04:34:19.02	63.38	83.08	-38.6	-41.1	3.5	8384227	95	6556
2025-01-06 04:34:19.43	64.64	83.23	-38.6	-40.3	3.3	8413959	95	5993
2025-01-06 04:34:19.83	65.92	83.37	-38.4	-41.1	3.5	8396163	95	6708
2025-01-06 04:34:20.23	67.26	83.51	-38.4	-39.9	3.3	8400569	95	5810
2025-01-06 04:34:20.63	68.66	83.64	-38.4	-41.3	3.6	8374374	95	6883
2025-01-06 04:34:21.03	70.11	83.77	-38.4	-39.7	3.3	8432682	95	5739
2025-01-06 04:34:21.44	71.67	83.90	-38.3	-40.9	3.6	8394538	95	6658
2025-01-06 04:34:21.84	73.25	84.02	-38.0	-39.4	3.3	8424133	94	5753
2025-01-06 04:34:22.24	74.89	84.13	-38.0	-40.7	3.6	8409873	94	6691
2025-01-06 04:34:22.64	76.60	84.24	-37.9	-39.2	3.3	8446918	94	5683
2025-01-06 04:34:23.04	78.38	84.35	-38.0	-40.6	3.6	8400341	94	6683
2025-01-06 04:34:23.45	80.26	84.45	-38.0	-39.4	3.3	8441402	94	5765
2025-01-06 04:34:23.85	82.17	84.54	-38.1	-41.0	3.6	8389698	94	6866
2025-01-06 04:34:24.25	84.14	84.63	-38.2	-40.1	3.4	8438129	94	6155
2025-01-06 04:34:24.65	86.18	84.71	-38.3	-41.6	3.6	8394653	94	7256
2025-01-06 04:34:25.05	88.27	84.79	-38.4	-40.9	3.4	8427246	94	6589
2025-01-06 04:34:25.46	90.48	84.86	-38.4	-40.6	3.3	8392490	94	6348
2025-01-06 04:34:25.86	92.69	84.91	-38.4	-41.2	3.4	8439388	94	6802
2025-01-06 04:34:26.26	94.95	84.97	-38.4	-40.5	3.3	8387809	94	6276
2025-01-06 04:34:26.66	97.25	85.01	-38.4	-41.4	3.5	8424339	94	7005
2025-01-06 04:34:27.06	99.59	85.05	-38.3	-40.3	3.3	8394424	94	6170
2025-01-06 04:34:27.47	102.02	85.07	-38.4	-41.3	3.6	8392250	95	6873
2025-01-06 04:34:27.87	104.42	85.09	-38.4	-39.8	3.3	8399379	95	5790
2025-01-06 04:34:28.27	106.82	85.10	-38.3	-40.9	3.6	8394618	95	6637
2025-01-06 04:34:28.67	109.24	85.11	-37.9	-39.0	3.3	8418239	94	5594
2025-01-06 04:34:29.08	111.71	85.10	-37.9	-40.2	3.6	8409255	94	6462
2025-01-06 04:34:29.48	114.11	85.08	-37.8	-39.1	3.4	8402744	93	5733
2025-01-06 04:34:29.88	116.49	85.06	-37.7	-40.2	3.6	8375885	93	6587
2025-01-06 04:34:30.28	118.84	85.03	-37.7	-38.7	3.5	8431892	93	5542
2025-01-06 04:34:30.68	121.15	84.98	-37.5	-39.7	3.6	8374534	93	6278
2025-01-06 04:34:31.09	123.49	84.93	-37.6	-38.6	3.6	8403854	93	5531
2025-01-06 04:34:31.49	125.71	84.88	-37.6	-39.9	3.6	8377372	93	6427
2025-01-06 04:34:31.89	127.89	84.81	-37.8	-39.3	3.5	8434043	93	5886
2025-01-06 04:34:32.29	130.01	84.74	-37.9	-39.4	3.4	8389789	93	5871
2025-01-06 04:34:32.69	132.07	84.66	-38.1	-40.5	3.4	8431480	93	6540
2025-01-06 04:34:33.09	134.06	84.58	-38.2	-40.2	3.3	8416042	93	6254
2025-01-06 04:34:33.50	136.04	84.48	-38.4	-41.1	3.4	8449939	94	6742
2025-01-06 04:34:33.90	137.91	84.39	-38.5	-40.9	3.3	8402206	94	6434
2025-01-06 04:34:34.30	139.71	84.28	-38.7	-42.1	3.5	8384113	95	7225
2025-01-06 04:34:34.70	141.44	84.17	-38.8	-41.2	3.3	8401691	95	6506
2025-01-06 04:34:35.11	143.15	84.06	-38.8	-42.3	3.6	8444137	95	7417
2025-01-06 04:34:35.51	144.75	83.94	-38.7	-40.8	3.3	8423778	95	6302
2025-01-06 04:34:35.91	146.29	83.81	-38.6	-41.8	3.6	8414772	95	7168
2025-01-06 04:34:36.31	147.77	83.69	-38.4	-40.0	3.3	8409564	95	5880
2025-01-06 04:34:36.71	149.19	83.56	-38.3	-41.1	3.6	8435817	95	6750
2025-01-06 04:34:37.11	150.55	83.42	-38.4	-39.5	3.3	8375461	95	5631
2025-01-06 04:34:37.52	151.89	83.28	-38.4	-41.2	3.6	8393417	95	6819
2025-01-06 04:34:37.92	153.14	83.14	-38.5	-40.1	3.3	8434558	95	5949
2025-01-06 04:34:38.32	154.33	82.99	-38.6	-42.0	3.6	8401245	95	7230
2025-01-06 04:34:38.72	155.48	82.84	-38.8	-41.4	3.4	8383655	95	6596
2025-01-06 04:34:39.13	156.61	82.69	-38.8	-42.5	3.6	8394412	95	7588
2025-01-06 04:34:39.53	157.67	82.54	-38.8	-41.6	3.4	8433952	95	6807
2025-01-06 04:34:39.93	158.68	82.38	-38.8	-41.1	3.3	8397010	95	6456
2025-01-06 04:34:40.33	159.65	82.23	-38.8	-41.7	3.4	8441402	95	6891
2025-01-06 04:34:40.73	160.58	82.07	-38.7	-40.9	3.3	8397022	95	6329
2025-01-06 04:34:41.14	161.50	81.90	-38.7	-41.8	3.5	8436447	95	7016
2025-01-06 04:34:41.54	162.36	81.74	-38.7	-41.0	3.3	8396095	95	6370
2025-01-06 04:34:41.94	163.19	81.57	-38.7	-42.3	3.6	8408935	95	7390
2025-01-06 04:34:42.34	163.98	81.41	-38.8	-41.1	3.3	8421134	95	6416
2025-01-06 04:34:42.74	164.74	81.24	-38.7	-42.5	3.6	8430107	95	7588
2025-01-06 04:34:43.15	165.49	81.07	-38.7	-41.0	3.3	8412712	95	6383
2025-01-06 04:34:43.55	166.20	80.90	-38.7	-42.4	3.6	8429328	95	7499
2025-01-06 04:34:43.95	166.88	80.72	-38.7	-40.8	3.3	8433780	95	6293
2025-01-06 04:34:44.35	167.53	80.55	-38.7	-42.3	3.6	8405570	95	7425
2025-01-06 04:34:44.76	168.18	80.37	-38.8	-41.1	3.3	8371284	95	6399
2025-01-06 04:34:45.16	168.78	80.20	-38.8	-42.5	3.6	8357894	95	7577
2025-01-06 04:34:45.56	169.37	80.02	-38.8	-40.8	3.4	8421352	96	6210
2025-01-06 04:34:45.96	169.93	79.85	-38.8	-42.7	3.6	8396427	95	7690
2025-01-06 04:34:46.37	170.49	79.67	-38.8	-41.7	3.4	8441780	95	6881
2025-01-06 04:34:46.77	171.02	79.49	-38.8	-41.3	3.3	8398933	95	6517
2025-01-06 04:34:47.17	171.53	79.31	-38.8	-41.8	3.4	8432750	95	6964
2025-01-06 04:34:47.57	172.02	79.13	-38.8	-41.2	3.3	8404552	95	6471
2025-01-06 04:34:47.97	172.49	78.95	-38.8	-42.1	3.5	8439994	95	7209
2025-01-06 04:34:48.38	172.96	78.77	-38.8	-41.1	3.3	8402286	95	6404
2025-01-06 04:34:48.78	173.41	78.59	-38.8	-42.5	3.6	8446117	95	7555
2025-01-06 04:34:49.18	173.84	78.40	-38.8	-41.0	3.3	8421249	95	6390
2025-01-06 04:34:49.58	174.26	78.22	-38.7	-42.4	3.6	8409187	95	7474
2025-01-06 04:34:49.99	174.67	78.04	-38.8	-41.1	3.3	8405227	95	6411
2025-01-06 04:34:50.39	175.06	77.85	-38.8	-42.6	3.6	8423389	95	7649
2025-01-06 04:34:50.79	175.44	77.67	-38.8	-41.3	3.3	8438541	95	6535
2025-01-06 04:34:51.19	175.81	77.49	-38.8	-42.7	3.6	8401142	95	7696
2025-01-06 04:34:51.59	176.17	77.31	-38.9	-41.1	3.3	8389114	96	6320
2025-01-06 04:34:52.00	176.52	77.12	-38.9	-42.7	3.6	8337192	95	7706
2025-01-06 04:34:52.40	176.86	76.93	-38.8	-41.4	3.3	8430931	95	6616
2025-01-06 04:34:52.80	177.18	76.75	-38.8	-42.8	3.6	8393749	95	7724
2025-01-06 04:34:53.20	177.50	76.57	-38.8	-41.5	3.4	8443004	95	6692
2025-01-06 04:34:53.60	177.81	76.38	-38.8	-42.8	3.6	8396038	95	7730
2025-01-06 04:34:54.01	178.12	76.19	-38.8	-41.7	3.4	8434513	95	6835
2025-01-06 04:34:54.41	178.41	76.01	-38.8	-41.3	3.3	8389514	95	6541
2025-01-06 04:34:54.81	178.70	75.82	-38.8	-41.9	3.4	8448715	95	7016
2025-01-06 04:34:55.21	178.97	75.64	-38.8	-41.3	3.3	8411853	95	6552
2025-01-06 04:34:55.61	179.24	75.45	-38.8	-41.7	3.5	8390670	96	6868
2025-01-06 04:34:56.02	179.51	75.26	-38.8	-40.6	3.3	8404289	96	6089
2025-01-06 04:34:56.42	179.77	75.08	-38.9	-42.8	3.6	8348018	95	7721
2025-01-06 04:34:56.82	180.02	74.90	-38.8	-41.3	3.3	8418594	95	6538
2025-01-06 04:34:57.22	180.26	74.71	-38.8	-42.7	3.6	8420677	95	7657
2025-01-06 04:34:57.63	180.50	74.52	-38.8	-41.2	3.3	8402091	95	6505
2025-01-06 04:34:58.03	180.73	74.34	-38.8	-42.7	3.6	8386013	95	7715
2025-01-06 04:34:58.43	180.96	74.15	-38.8	-41.2	3.3	8440818	95	6517
2025-01-06 04:34:58.83	181.18	73.97	-38.8	-42.7	3.6	8403911	95	7660
2025-01-06 04:34:59.23	181.40	73.78	-38.7	-41.2	3.3	8425300	95	6539
2025-01-06 04:34:59.64	181.61	73.59	-38.8	-42.1	3.6	8389995	96	7241
2025-01-06 04:35:00.04	181.82	73.41	-38.8	-41.0	3.4	8444046	96	6364
2025-01-06 04:35:00.44	182.02	73.22	-38.8	-42.2	3.6	8405879	96	7268
2025-01-06 04:35:00.84	182.21	73.04	-38.8	-41.1	3.4	8429855	96	6411
2025-01-06 04:35:01.25	182.41	72.85	-38.8	-42.7	3.6	8392307	95	7723
2025-01-06 04:35:01.65	182.60	72.67	-38.8	-41.7	3.4	8438930	95	6849
2025-01-06 04:35:02.05	182.78	72.48	-38.9	-41.3	3.3	8389343	95	6540
2025-01-06 04:35:02.45	182.96	72.30	-38.8	-42.0	3.4	8428379	95	7039
2025-01-06 04:35:02.85	183.13	72.12	-38.9	-41.3	3.3	8393714	95	6532
2025-01-06 04:35:03.26	183.31	71.93	-38.8	-42.2	3.5	8440200	95	7221
2025-01-06 04:35:03.66	183.48	71.74	-38.8	-41.3	3.3	8412895	95	6530
2025-01-06 04:35:04.06	183.64	71.56	-38.8	-42.5	3.6	8428596	95	7502
2025-01-06 04:35:04.46	183.80	71.38	-38.8	-41.3	3.3	8406131	95	6510
2025-01-06 04:35:04.86	183.96	71.20	-38.8	-42.7	3.6	8443862	95	7723
2025-01-06 04:35:05.26	184.11	71.01	-38.8	-41.2	3.3	8436435	95	6488
2025-01-06 04:35:05.67	184.27	70.83	-38.8	-42.7	3.6	8396324	95	7675
2025-01-06 04:35:06.07	184.42	70.64	-38.8	-41.3	3.3	8414417	95	6511
2025-01-06 04:35:06.47	184.56	70.46	-38.8	-42.7	3.6	8416912	95	7702
2025-01-06 04:35:06.87	184.71	70.28	-38.8	-41.3	3.3	8443382	95	6546
2025-01-06 04:35:07.28	184.85	70.09	-38.8	-42.7	3.6	8393840	95	7725

#Closed at: 2025-01-06 04:35:07