passes_logs/2025/01/06/XPeterburg/XPeterburg__20250106_142629_FENGYUN_3E_rec.log

#Pass ID: 20250106_142629_FENGYUN 3E
#Satellite: FENGYUN 3E
#Configuration: FENGYUN 3E
#Start time: 2025-01-06 14:26:24

#Version: 1.5.20200625
#Station: XPeterburg
#Location: 30.318091 lon 59.932769 lat
#TLE: 1 49008U 21062A   24362.16046100  .00000127  00000+0  80596-4 0  9998
#TLE: 2 49008  98.7386   0.9208 0001625 158.3591 201.7655 14.19826678180376

#Time	Az	El	Level	Level2	SNR	BER	Gain	Gain2
2025-01-06 14:26:24.61	132.52	68.19	-37.7	-39.0	3.3	8394332	93	5733
2025-01-06 14:26:25.01	132.29	68.36	-36.0	-45.3	4.3	8354782	73	14324
2025-01-06 14:26:25.42	132.05	68.53	-35.7	-35.6	4.7	8128463	89	4855
2025-01-06 14:26:25.82	131.82	68.69	-35.0	-34.4	5.4	7457611	88	4613
2025-01-06 14:26:26.22	131.58	68.86	-34.3	-33.4	6.3	3900844	87	4450
2025-01-06 14:26:26.62	131.33	69.02	-33.6	-33.1	6.9	1630233	85	4625
2025-01-06 14:26:27.02	131.09	69.19	-32.5	-31.7	8.2	1416744	83	4516
2025-01-06 14:26:27.43	130.83	69.36	-32.0	-31.2	9.1	647186	82	4487
2025-01-06 14:26:27.83	130.57	69.52	-31.8	-30.8	9.3	326213	82	4386
2025-01-06 14:26:28.23	130.31	69.68	-31.3	-30.8	9.9	93738	80	4659
2025-01-06 14:26:28.63	130.05	69.85	-31.1	-30.4	10.2	74111	80	4559
2025-01-06 14:26:29.04	129.77	70.02	-30.6	-29.9	10.5	57838	79	4557
2025-01-06 14:26:29.44	129.49	70.18	-30.7	-30.1	10.5	36323	79	4603
2025-01-06 14:26:29.84	129.21	70.34	-30.7	-30.1	10.5	41645	79	4610
2025-01-06 14:26:30.24	128.93	70.51	-31.1	-30.9	10.0	68298	79	4842
2025-01-06 14:26:30.65	128.63	70.67	-31.5	-31.8	9.5	87615	79	5085
2025-01-06 14:26:31.05	128.34	70.84	-32.3	-32.5	8.6	231674	81	5011
2025-01-06 14:26:31.45	128.04	71.00	-33.2	-33.4	7.4	704841	83	5009
2025-01-06 14:26:31.85	127.73	71.16	-34.3	-34.7	6.0	2303833	85	5134
2025-01-06 14:26:32.25	127.42	71.33	-35.9	-36.8	4.4	7829761	88	5413
2025-01-06 14:26:32.66	127.09	71.49	-37.6	-40.6	3.6	8195148	92	6985
2025-01-06 14:26:33.06	126.77	71.65	-38.1	-40.4	3.3	8413593	93	6440
2025-01-06 14:26:33.46	126.44	71.82	-37.8	-40.9	3.6	8398075	93	7021
2025-01-06 14:26:33.86	126.10	71.98	-37.5	-38.5	3.4	8408100	93	5546
2025-01-06 14:26:34.27	125.75	72.14	-36.7	-38.6	3.8	8384994	91	6128
2025-01-06 14:26:34.67	125.40	72.30	-36.0	-36.4	4.3	8336013	90	5114
2025-01-06 14:26:35.07	125.04	72.46	-36.1	-36.2	4.2	8113105	90	4979
2025-01-06 14:26:35.47	124.68	72.62	-36.3	-36.8	4.0	8211547	90	5196
2025-01-06 14:26:35.87	124.31	72.78	-36.7	-39.4	3.7	8271812	90	6674
2025-01-06 14:26:36.28	123.92	72.94	-37.3	-39.3	3.6	8414955	91	6204
2025-01-06 14:26:36.68	123.54	73.10	-37.5	-39.0	3.5	8374328	92	5863
2025-01-06 14:26:37.08	123.14	73.26	-37.6	-39.8	3.5	8439182	92	6372
2025-01-06 14:26:37.48	122.74	73.41	-37.6	-39.3	3.4	8388645	92	6020
2025-01-06 14:26:37.89	122.32	73.58	-37.6	-40.2	3.6	8425540	92	6598
2025-01-06 14:26:38.29	121.91	73.73	-37.6	-39.5	3.4	8379581	92	6067
2025-01-06 14:26:38.69	121.48	73.89	-37.8	-41.1	3.6	8434741	92	7248
2025-01-06 14:26:39.09	121.05	74.04	-38.0	-40.6	3.3	8400123	92	6639
2025-01-06 14:26:39.50	120.59	74.20	-38.1	-42.0	3.6	8397010	93	7687
2025-01-06 14:26:39.90	120.14	74.35	-38.2	-40.9	3.3	8410778	93	6712
2025-01-06 14:26:40.30	119.68	74.50	-38.3	-42.6	3.6	8398979	93	8065
2025-01-06 14:26:40.70	119.21	74.65	-38.4	-41.5	3.3	8403224	93	7003
2025-01-06 14:26:41.10	118.72	74.81	-38.5	-43.0	3.6	8391883	93	8326
2025-01-06 14:26:41.51	118.22	74.96	-38.5	-41.6	3.3	8447067	93	7056
2025-01-06 14:26:41.91	117.72	75.11	-38.4	-43.0	3.6	8397960	93	8309
2025-01-06 14:26:42.31	117.21	75.25	-38.4	-41.6	3.3	8427921	93	7113
2025-01-06 14:26:42.71	116.68	75.40	-38.4	-42.9	3.6	8395568	93	8298
2025-01-06 14:26:43.11	116.15	75.55	-38.4	-41.6	3.3	8445419	93	7119
2025-01-06 14:26:43.52	115.59	75.70	-38.4	-42.8	3.6	8388507	93	8231
2025-01-06 14:26:43.92	115.03	75.84	-38.3	-41.2	3.4	8385761	94	6907
2025-01-06 14:26:44.32	114.47	75.98	-38.3	-40.8	3.3	8404243	94	6556
2025-01-06 14:26:44.72	113.88	76.12	-38.3	-41.4	3.4	8374145	94	7050
2025-01-06 14:26:45.13	113.28	76.27	-38.2	-40.5	3.3	8395465	94	6417
2025-01-06 14:26:45.53	112.67	76.40	-38.2	-41.3	3.5	8453727	94	7036
2025-01-06 14:26:45.93	112.05	76.54	-38.1	-40.3	3.3	8391448	94	6310
2025-01-06 14:26:46.33	111.42	76.68	-38.2	-41.6	3.6	8400627	94	7302
2025-01-06 14:26:46.74	110.76	76.81	-38.2	-40.5	3.3	8414211	94	6418
2025-01-06 14:26:47.14	110.10	76.95	-38.2	-42.0	3.6	8422576	94	7598
2025-01-06 14:26:47.54	109.43	77.08	-38.2	-40.5	3.3	8415996	94	6428
2025-01-06 14:26:47.94	108.74	77.21	-38.2	-41.9	3.6	8426914	94	7560
2025-01-06 14:26:48.34	108.04	77.33	-38.2	-40.4	3.3	8425312	94	6381
2025-01-06 14:26:48.74	107.32	77.46	-38.2	-41.9	3.6	8390819	94	7571
2025-01-06 14:26:49.15	106.57	77.59	-38.2	-40.5	3.3	8425975	94	6458
2025-01-06 14:26:49.55	105.83	77.71	-38.2	-42.0	3.6	8401325	94	7649
2025-01-06 14:26:49.95	105.06	77.83	-38.5	-41.0	3.4	8397285	95	6545
2025-01-06 14:26:50.35	104.29	77.95	-38.5	-42.1	3.6	8396255	95	7491
2025-01-06 14:26:50.76	103.47	78.06	-38.5	-40.9	3.4	8442272	95	6530
2025-01-06 14:26:51.16	102.67	78.18	-38.4	-42.1	3.6	8399036	95	7501
2025-01-06 14:26:51.56	101.84	78.29	-38.5	-41.1	3.4	8427314	95	6698
2025-01-06 14:26:51.96	101.00	78.40	-38.5	-40.7	3.3	8402046	95	6364
2025-01-06 14:26:52.37	100.12	78.51	-38.5	-41.4	3.4	8449333	95	6846
2025-01-06 14:26:52.77	99.25	78.61	-38.5	-40.6	3.3	8385887	95	6310
2025-01-06 14:26:53.17	98.36	78.71	-38.5	-41.8	3.5	8391345	95	7144
2025-01-06 14:26:53.57	97.45	78.81	-38.5	-40.6	3.3	8416751	95	6299
2025-01-06 14:26:53.97	96.53	78.91	-38.7	-42.5	1.6	8376113	95	7670
2025-01-06 14:26:54.38	95.57	79.00	-38.5	-40.5	3.3	8419200	95	6249
2025-01-06 14:26:54.78	94.61	79.09	-38.2	-41.9	3.6	8372886	94	7554
2025-01-06 14:26:55.18	93.64	79.18	-38.2	-40.6	3.3	8429626	94	6487
2025-01-06 14:26:55.58	92.66	79.26	-38.2	-42.0	3.6	8384891	94	7597
2025-01-06 14:26:55.98	91.66	79.34	-38.2	-40.5	3.3	8441917	94	6445
2025-01-06 14:26:56.39	90.61	79.42	-38.2	-41.9	3.6	8397296	94	7582
2025-01-06 14:26:56.79	89.58	79.50	-38.2	-40.7	3.4	8425586	94	6573
2025-01-06 14:26:57.19	88.53	79.57	-38.2	-42.0	3.6	8392501	94	7631
2025-01-06 14:26:57.59	87.47	79.64	-38.3	-41.1	3.4	8447113	94	6806
2025-01-06 14:26:57.99	86.40	79.70	-38.3	-40.8	3.3	8384880	94	6566
2025-01-06 14:26:58.40	85.28	79.76	-38.3	-41.5	3.4	8446048	94	7085
2025-01-06 14:26:58.80	84.18	79.82	-38.3	-40.9	3.3	8416007	94	6606
2025-01-06 14:26:59.20	83.06	79.87	-38.3	-41.7	3.5	8452972	94	7240
2025-01-06 14:26:59.60	81.94	79.92	-38.3	-40.7	3.3	8394859	94	6519
2025-01-06 14:27:00.01	80.77	79.97	-38.5	-41.7	3.5	8388622	95	7109
2025-01-06 14:27:00.41	79.63	80.01	-38.5	-40.6	3.3	8389068	95	6297
2025-01-06 14:27:00.81	78.47	80.04	-38.3	-42.2	3.6	8352893	94	7687
2025-01-06 14:27:01.21	77.31	80.08	-38.3	-40.8	3.3	8416625	94	6574
2025-01-06 14:27:01.62	76.11	80.11	-38.3	-42.2	3.6	8416843	94	7751
2025-01-06 14:27:02.02	74.93	80.13	-38.6	-40.9	3.3	8408935	95	6414
2025-01-06 14:27:02.42	73.75	80.15	-38.5	-42.1	3.6	8398269	95	7474
2025-01-06 14:27:02.82	72.56	80.17	-38.5	-40.8	3.4	8382453	95	6441
2025-01-06 14:27:03.22	71.37	80.18	-38.5	-42.1	3.6	8393817	95	7494
2025-01-06 14:27:03.63	70.14	80.19	-38.5	-41.3	3.4	8436332	95	6775
2025-01-06 14:27:04.03	68.95	80.19	-38.5	-40.7	3.3	8394779	95	6337
2025-01-06 14:27:04.43	67.75	80.19	-38.5	-41.4	3.4	8438301	95	6855
2025-01-06 14:27:04.83	66.56	80.19	-38.5	-40.7	3.3	8406177	95	6360
2025-01-06 14:27:05.23	65.36	80.18	-38.5	-41.5	3.5	8451622	95	7005
2025-01-06 14:27:05.64	64.14	80.17	-38.4	-40.6	3.3	8393028	95	6300
2025-01-06 14:27:06.04	62.95	80.15	-38.4	-41.8	3.6	8421512	95	7274
2025-01-06 14:27:06.44	61.77	80.13	-38.4	-40.6	3.3	8401485	95	6293
2025-01-06 14:27:06.84	60.59	80.10	-38.4	-41.9	3.6	8421478	95	7365
2025-01-06 14:27:07.24	59.42	80.07	-38.4	-40.5	3.3	8396278	95	6271
2025-01-06 14:27:07.65	58.23	80.04	-38.4	-42.0	3.6	8393589	95	7400
2025-01-06 14:27:08.05	57.08	80.00	-38.4	-40.6	3.3	8416145	95	6272
2025-01-06 14:27:08.45	55.93	79.96	-38.5	-42.1	3.6	8410526	95	7436
2025-01-06 14:27:08.85	54.80	79.91	-38.5	-40.9	3.4	8411705	95	6446
2025-01-06 14:27:09.26	53.65	79.86	-38.4	-42.1	3.6	8371444	95	7464
2025-01-06 14:27:09.66	52.54	79.81	-38.5	-40.8	3.3	8432796	95	6457
2025-01-06 14:27:10.06	51.44	79.75	-38.5	-42.1	3.6	8396438	95	7462
2025-01-06 14:27:10.46	50.35	79.69	-38.5	-40.9	3.4	8388473	95	6533
2025-01-06 14:27:10.86	49.28	79.63	-38.3	-42.2	3.6	8367221	94	7721
2025-01-06 14:27:11.27	48.19	79.56	-38.5	-41.2	3.4	8399036	95	6720
2025-01-06 14:27:11.67	47.14	79.49	-38.5	-40.7	3.3	8403385	95	6332
2025-01-06 14:27:12.07	46.11	79.41	-38.3	-41.8	3.5	8455421	94	7369
2025-01-06 14:27:12.47	45.10	79.34	-38.3	-40.7	3.3	8400672	94	6562
2025-01-06 14:27:12.88	44.07	79.25	-38.5	-41.9	3.6	8411842	95	7337
2025-01-06 14:27:13.28	43.09	79.17	-38.6	-40.8	3.3	8417049	95	6362
2025-01-06 14:27:13.68	42.12	79.08	-38.6	-42.3	3.6	8376754	95	7559
2025-01-06 14:27:14.08	41.17	78.99	-38.5	-40.8	3.3	8407871	95	6373
2025-01-06 14:27:14.49	40.21	78.89	-38.5	-42.3	3.6	8399711	95	7556
2025-01-06 14:27:14.89	39.29	78.80	-38.5	-40.8	3.3	8441825	95	6421
2025-01-06 14:27:15.29	38.39	78.70	-38.5	-42.3	3.6	8395774	95	7563
2025-01-06 14:27:15.69	37.50	78.60	-38.5	-40.8	3.3	8426616	95	6424
2025-01-06 14:27:16.09	36.63	78.49	-38.5	-42.2	3.6	8418216	95	7545
2025-01-06 14:27:16.50	35.76	78.38	-38.5	-41.0	3.3	8446197	95	6546
2025-01-06 14:27:16.90	34.92	78.28	-38.5	-42.3	3.6	8397045	95	7582
2025-01-06 14:27:17.30	34.10	78.16	-38.5	-41.2	3.4	8441631	95	6713
2025-01-06 14:27:17.70	33.29	78.05	-38.5	-40.8	3.3	8389022	95	6412
2025-01-06 14:27:18.10	32.50	77.93	-38.5	-41.3	3.4	8439537	95	6814
2025-01-06 14:27:18.51	31.70	77.81	-38.5	-40.7	3.3	8401840	95	6351
2025-01-06 14:27:18.91	30.95	77.69	-38.5	-41.4	3.4	8436504	95	6842
2025-01-06 14:27:19.31	30.20	77.57	-38.5	-40.7	3.3	8396152	95	6329
2025-01-06 14:27:19.71	29.47	77.45	-38.5	-41.7	3.5	8446678	95	7095
2025-01-06 14:27:20.11	28.76	77.32	-38.5	-40.8	3.3	8406589	95	6436
2025-01-06 14:27:20.51	28.06	77.19	-38.5	-42.0	3.6	8415641	95	7335
2025-01-06 14:27:20.92	27.36	77.06	-38.5	-40.8	3.3	8402927	95	6395
2025-01-06 14:27:21.32	26.69	76.93	-38.5	-42.2	3.6	8436161	95	7552
2025-01-06 14:27:21.72	26.03	76.80	-38.5	-40.8	3.3	8435554	95	6429
2025-01-06 14:27:22.12	25.39	76.66	-38.5	-42.2	3.6	8407035	95	7525
2025-01-06 14:27:22.53	24.74	76.52	-38.5	-40.7	3.3	8417518	95	6374
2025-01-06 14:27:22.93	24.12	76.39	-38.5	-42.2	3.6	8411853	95	7507
2025-01-06 14:27:23.33	23.52	76.25	-38.6	-41.1	3.3	8390956	95	6533
2025-01-06 14:27:23.73	22.93	76.11	-38.5	-42.1	3.6	8385360	95	7452
2025-01-06 14:27:24.13	22.35	75.97	-38.5	-41.0	3.4	8381263	95	6577
2025-01-06 14:27:24.54	21.77	75.82	-38.5	-40.7	3.3	8383609	95	6340
2025-01-06 14:27:24.94	21.21	75.68	-38.4	-41.3	3.5	8435771	95	6864
2025-01-06 14:27:25.34	20.67	75.54	-38.4	-40.6	3.3	8408603	95	6319
2025-01-06 14:27:25.74	20.14	75.39	-38.5	-41.7	3.5	8445453	95	7134
2025-01-06 14:27:26.14	19.62	75.24	-38.5	-40.8	3.3	8386287	95	6384
2025-01-06 14:27:26.55	19.09	75.09	-38.5	-42.1	3.6	8448383	95	7444
2025-01-06 14:27:26.95	18.59	74.94	-38.5	-40.6	3.3	8423927	95	6306
2025-01-06 14:27:27.35	18.10	74.79	-38.5	-42.1	3.6	8424602	95	7451
2025-01-06 14:27:27.75	17.62	74.64	-38.5	-40.7	3.3	8405914	95	6324
2025-01-06 14:27:28.15	17.15	74.49	-38.2	-42.1	3.6	8367279	94	7674
2025-01-06 14:27:28.56	16.68	74.34	-38.2	-40.6	3.3	8400226	94	6460
2025-01-06 14:27:28.96	16.23	74.18	-38.2	-42.1	3.6	8386196	94	7722
2025-01-06 14:27:29.36	15.79	74.03	-38.2	-40.7	3.3	8432487	94	6544
2025-01-06 14:27:29.76	15.35	73.88	-38.2	-42.1	3.6	8407253	94	7715
2025-01-06 14:27:30.16	14.93	73.72	-38.3	-40.7	3.3	8428127	94	6547
2025-01-06 14:27:30.57	14.50	73.56	-38.3	-42.1	3.6	8396369	94	7670
2025-01-06 14:27:30.97	14.10	73.40	-38.2	-40.9	3.4	8447307	94	6696
2025-01-06 14:27:31.37	13.70	73.25	-38.2	-42.2	3.6	8398853	94	7738
2025-01-06 14:27:31.77	13.30	73.09	-38.2	-41.1	3.4	8441619	94	6803
2025-01-06 14:27:32.17	12.92	72.93	-38.3	-40.7	3.3	8407608	94	6536
2025-01-06 14:27:32.58	12.53	72.77	-38.5	-41.4	3.5	8443210	95	6894
2025-01-06 14:27:32.98	12.16	72.61	-38.5	-40.7	3.3	8401805	95	6368
2025-01-06 14:27:33.38	11.80	72.45	-38.2	-41.7	3.5	8437099	94	7326
2025-01-06 14:27:33.78	11.45	72.29	-38.2	-40.6	3.3	8401966	94	6499
2025-01-06 14:27:34.18	11.10	72.13	-38.2	-41.9	3.6	8405181	94	7508
2025-01-06 14:27:34.59	10.75	71.97	-38.2	-40.6	3.3	8396701	94	6491
2025-01-06 14:27:34.99	10.41	71.81	-38.2	-42.2	3.6	8436607	94	7786
2025-01-06 14:27:35.39	10.08	71.65	-38.2	-40.7	3.3	8388038	94	6522
2025-01-06 14:27:35.79	9.76	71.48	-38.2	-42.2	3.6	8399002	94	7772
2025-01-06 14:27:36.19	9.44	71.32	-38.2	-40.7	3.3	8419086	94	6552
2025-01-06 14:27:36.59	9.13	71.16	-38.2	-42.1	3.6	8407379	94	7694
2025-01-06 14:27:37.00	8.82	70.99	-38.3	-40.8	3.3	8412860	94	6569
2025-01-06 14:27:37.40	8.52	70.83	-38.4	-42.4	3.6	8391540	94	7831
2025-01-06 14:27:37.80	8.22	70.67	-38.4	-41.1	3.4	8438278	94	6745
2025-01-06 14:27:38.20	7.93	70.50	-38.3	-42.3	3.6	8396793	94	7751
2025-01-06 14:27:38.60	7.65	70.34	-38.3	-41.3	3.4	8430484	94	6893

#Closed at: 2025-01-06 14:27:38