passes_logs/2026/01/27/R3.2S_Murmansk_2ch/R3.2S_Murmansk_2ch__20260127_215551_JL1KF02B04_rec.log

#Pass ID: 20260127_215551_JL1KF02B04
#Satellite: JL1KF02B04
#Configuration: 01B_900M
#almurnet v.1.7.20251203
#Start time: 2026-01-27 21:55:53

#Version: 2.2.20231116
#Station: R3.2S_Murmansk_2ch
#Location: 33.079688 lon 68.888172 lat
#TLE: 1 61189U 24169A   26027.44052764  .00007828  00000+0  49016-3 0  9993
#TLE: 2 61189  97.5621 119.0017 0007750 128.8311 231.3611 15.09629304 74590

#Time	Az	El	Level	Level2	SNR	BER	BlckErr	Temp	State	Recorded	gain1	gain2
2026-01-27 21:55:53.01	215.61	2.08	-48.0	-50.5	6.2	0.00e+00	0	45	0	0	66	20525
2026-01-27 21:55:56.04	215.91	2.26	-48.0	-50.5	6.2	0.00e+00	0	45	104	0	67	19382
2026-01-27 21:55:59.08	216.21	2.43	-48.2	-50.8	6.2	0.00e+00	0	45	104	0	67	19938
2026-01-27 21:56:02.11	216.52	2.61	-48.3	-50.9	6.2	0.00e+00	0	45	104	0	67	20243
2026-01-27 21:56:05.14	216.83	2.79	-48.3	-50.8	6.2	0.00e+00	0	45	104	0	67	20083
2026-01-27 21:56:08.17	217.15	2.97	-48.1	-50.7	6.2	0.00e+00	0	45	104	0	67	19761
2026-01-27 21:56:11.20	217.47	3.15	-48.0	-50.6	6.2	0.00e+00	0	46	104	0	67	19542
2026-01-27 21:56:14.23	217.79	3.33	-47.8	-50.4	6.2	0.00e+00	0	46	104	0	67	19061
2026-01-27 21:56:17.26	218.12	3.52	-47.6	-50.1	6.2	0.00e+00	0	46	104	0	67	18539
2026-01-27 21:56:20.29	218.46	3.70	-46.9	-49.4	6.2	0.00e+00	0	46	104	0	65	19210
2026-01-27 21:56:23.32	218.80	3.89	-46.6	-49.1	6.2	0.00e+00	0	46	104	0	65	18566
2026-01-27 21:56:26.35	219.14	4.07	-46.5	-49.1	6.2	0.00e+00	0	46	104	0	65	18442
2026-01-27 21:56:29.38	219.49	4.26	-46.5	-49.1	6.2	0.00e+00	0	46	104	0	65	18434
2026-01-27 21:56:32.41	219.85	4.45	-46.5	-49.0	6.2	0.00e+00	0	46	104	0	65	18384
2026-01-27 21:56:35.44	220.21	4.63	-46.5	-49.0	6.2	0.00e+00	0	46	104	0	65	18376
2026-01-27 21:56:38.47	220.58	4.82	-46.5	-49.1	6.2	0.00e+00	0	46	104	0	65	18407
2026-01-27 21:56:41.50	220.95	5.01	-46.5	-49.0	6.2	0.00e+00	0	46	104	0	65	18381
2026-01-27 21:56:44.53	221.33	5.20	-46.6	-49.1	6.2	0.00e+00	0	46	104	0	64	19685
2026-01-27 21:56:47.57	221.71	5.40	-46.4	-49.0	6.2	0.00e+00	0	46	104	0	64	19280
2026-01-27 21:56:50.60	222.10	5.59	-46.4	-49.0	6.2	0.00e+00	0	47	104	0	64	19368
2026-01-27 21:56:53.63	222.50	5.78	-46.5	-49.1	6.2	0.00e+00	0	47	104	0	64	19522
2026-01-27 21:56:56.66	222.90	5.98	-46.6	-49.1	6.2	0.00e+00	0	47	104	0	64	19642
2026-01-27 21:56:59.69	223.31	6.17	-46.4	-48.9	6.2	0.00e+00	0	47	104	0	64	19238
2026-01-27 21:57:02.73	223.73	6.37	-46.4	-49.0	6.2	0.00e+00	0	47	104	0	64	19377
2026-01-27 21:57:05.76	224.15	6.57	-46.5	-49.1	6.2	0.00e+00	0	47	104	0	64	19508
2026-01-27 21:57:08.79	224.58	6.76	-46.6	-49.1	6.2	0.00e+00	0	47	104	0	64	19694
2026-01-27 21:57:11.82	225.01	6.96	-46.5	-49.0	6.2	0.00e+00	0	47	104	0	64	19397
2026-01-27 21:57:14.85	225.46	7.16	-46.5	-49.1	6.2	0.00e+00	0	47	104	0	64	19490
2026-01-27 21:57:17.88	225.91	7.36	-46.6	-49.1	6.2	0.00e+00	0	47	104	0	64	19660
2026-01-27 21:57:20.91	226.36	7.56	-46.6	-49.2	6.2	0.00e+00	0	47	104	0	64	19833
2026-01-27 21:57:23.94	226.83	7.76	-46.5	-49.1	6.2	0.00e+00	0	47	104	0	64	19526
2026-01-27 21:57:26.97	227.30	7.97	-46.5	-49.1	6.2	0.00e+00	0	47	104	0	64	19605
2026-01-27 21:57:30.01	227.78	8.17	-46.6	-49.2	6.2	0.00e+00	0	47	104	0	64	19761
2026-01-27 21:57:33.04	228.27	8.37	-46.7	-49.2	6.2	0.00e+00	0	47	104	0	64	19808
2026-01-27 21:57:36.07	228.77	8.58	-46.6	-49.1	6.2	0.00e+00	0	47	104	0	64	19695
2026-01-27 21:57:39.10	229.27	8.78	-46.4	-48.8	6.2	0.00e+00	0	47	104	0	64	19006
2026-01-27 21:57:42.13	229.79	8.99	-45.5	-47.5	6.2	0.00e+00	0	47	104	0	62	18243
2026-01-27 21:57:45.16	230.31	9.19	-46.4	-48.9	6.2	0.00e+00	0	47	104	0	64	19074
2026-01-27 21:57:48.19	230.84	9.40	-46.1	-48.4	6.2	0.00e+00	0	47	104	0	63	19195
2026-01-27 21:57:51.22	231.38	9.60	-46.0	-48.1	6.2	0.00e+00	0	47	104	0	63	18539
2026-01-27 21:57:54.25	231.92	9.81	-45.4	-47.3	6.3	0.00e+00	0	47	104	0	62	17890
2026-01-27 21:57:57.28	232.48	10.01	-22.3	-22.4	18.7	0.00e+00	0	47	0	159383552	16	14302
2026-01-27 21:58:00.32	233.05	10.22	-21.9	-22.0	18.7	0.00e+00	0	47	0	503316480	15	14489
2026-01-27 21:58:03.35	233.62	10.43	-21.7	-21.7	18.7	0.00e+00	0	48	0	847249408	15	14071
2026-01-27 21:58:06.38	234.21	10.63	-21.4	-21.5	18.8	0.00e+00	0	47	0	1191182336	14	14541
2026-01-27 21:58:09.41	234.80	10.84	-21.4	-21.4	18.7	0.00e+00	0	48	0	1526726656	14	14415
2026-01-27 21:58:12.45	235.41	11.05	-21.3	-21.4	18.8	0.00e+00	0	48	0	1870659584	14	14291
2026-01-27 21:58:15.48	236.02	11.25	-21.1	-21.2	18.8	0.00e+00	0	48	0	2206203904	14	14035
2026-01-27 21:58:18.51	236.65	11.46	-21.0	-21.1	18.9	0.00e+00	0	48	0	2550136832	14	13851
2026-01-27 21:58:21.54	237.28	11.66	-21.1	-21.1	18.7	0.00e+00	0	48	0	2894069760	14	13937
2026-01-27 21:58:24.58	237.93	11.86	-20.9	-21.0	18.7	0.00e+00	0	48	0	3238002688	13	14458
2026-01-27 21:58:27.61	238.58	12.07	-20.9	-21.0	18.6	0.00e+00	0	48	0	3581935616	13	14559
2026-01-27 21:58:30.64	239.25	12.27	-20.8	-20.9	18.6	0.00e+00	0	48	0	3917479936	13	14411
2026-01-27 21:58:33.67	239.93	12.47	-20.8	-20.9	18.6	0.00e+00	0	48	0	4261412864	13	14312
2026-01-27 21:58:36.70	240.61	12.67	-20.7	-20.8	18.5	0.00e+00	0	48	0	4596957184	13	14217
2026-01-27 21:58:39.74	241.31	12.87	-20.8	-20.8	18.6	0.00e+00	0	48	0	4940890112	13	14251
2026-01-27 21:58:42.77	242.02	13.07	-20.7	-20.7	18.6	0.00e+00	0	48	0	5284823040	13	14093
2026-01-27 21:58:45.80	242.74	13.26	-20.6	-20.7	18.6	0.00e+00	0	48	0	5620367360	13	14032
2026-01-27 21:58:48.83	243.47	13.46	-20.5	-20.6	18.5	0.00e+00	0	48	0	5964300288	13	13838
2026-01-27 21:58:51.86	244.21	13.65	-20.3	-20.4	18.4	0.00e+00	0	48	0	6308233216	12	14322
2026-01-27 21:58:54.90	244.96	13.84	-20.3	-20.4	18.4	0.00e+00	0	48	0	6643777536	12	14298
2026-01-27 21:58:57.93	245.73	14.03	-20.3	-20.4	18.3	0.00e+00	0	48	0	6987710464	12	14277
2026-01-27 21:59:00.96	246.50	14.21	-20.4	-20.4	18.2	0.00e+00	0	48	0	7331643392	12	14401
2026-01-27 21:59:03.99	247.29	14.39	-20.2	-20.3	18.1	0.00e+00	0	48	0	7667187712	12	14194
2026-01-27 21:59:07.02	248.08	14.57	-20.1	-20.2	18.0	0.00e+00	0	48	0	8011120640	12	14017
2026-01-27 21:59:10.06	248.89	14.75	-20.0	-20.1	17.9	0.00e+00	0	48	0	8346664960	12	13855
2026-01-27 21:59:13.09	249.71	14.92	-20.2	-20.3	17.7	0.00e+00	0	48	0	8690597888	11	14990
2026-01-27 21:59:16.12	250.54	15.09	-20.1	-20.2	17.5	0.00e+00	0	48	0	9034530816	11	14823
2026-01-27 21:59:19.15	251.38	15.26	-20.1	-20.1	17.4	0.00e+00	0	48	0	9370075136	11	14771
2026-01-27 21:59:22.18	252.23	15.42	-20.1	-20.2	17.1	0.00e+00	0	48	0	9714008064	11	14836
2026-01-27 21:59:25.21	253.09	15.58	-20.0	-20.0	17.2	0.00e+00	0	48	0	10057940992	11	14594
2026-01-27 21:59:28.24	253.96	15.73	-20.0	-20.1	16.9	0.00e+00	0	48	0	10393485312	11	14633
2026-01-27 21:59:31.27	254.84	15.88	-19.8	-19.9	16.9	0.00e+00	0	48	0	10737418240	11	14383
2026-01-27 21:59:34.30	255.73	16.03	-19.8	-19.9	16.8	0.00e+00	0	48	0	11072962560	11	14286
2026-01-27 21:59:37.34	256.63	16.17	-19.7	-19.8	16.8	0.00e+00	0	48	0	11416895488	11	14196
2026-01-27 21:59:40.37	257.54	16.30	-19.7	-19.8	16.8	0.00e+00	0	48	0	11760828416	11	14172
2026-01-27 21:59:43.40	258.45	16.43	-19.6	-19.7	16.8	0.00e+00	0	48	0	12096372736	11	13991
2026-01-27 21:59:46.43	259.38	16.56	-19.7	-19.7	17.0	0.00e+00	0	48	0	12440305664	11	14088
2026-01-27 21:59:49.46	260.32	16.68	-19.6	-19.6	16.8	0.00e+00	0	48	0	12784238592	11	13915
2026-01-27 21:59:52.49	261.26	16.79	-19.6	-19.6	16.9	0.00e+00	0	48	0	13119782912	11	13948
2026-01-27 21:59:55.52	262.21	16.89	-19.7	-19.7	16.9	0.00e+00	0	48	0	13463715840	11	14051
2026-01-27 21:59:58.55	263.17	16.99	-19.6	-19.7	17.0	0.00e+00	0	48	0	13807648768	11	13982
2026-01-27 22:00:01.58	264.13	17.09	-19.5	-19.6	17.1	0.00e+00	0	48	0	14143193088	11	13882
2026-01-27 22:00:04.61	265.10	17.17	-19.6	-19.7	17.2	0.00e+00	0	48	0	14487126016	11	14023
2026-01-27 22:00:07.64	266.08	17.25	-19.6	-19.7	17.2	0.00e+00	0	48	0	14831058944	11	13996
2026-01-27 22:00:10.67	267.06	17.32	-19.6	-19.7	17.3	0.00e+00	0	48	0	15174991872	11	14037
2026-01-27 22:00:13.70	268.05	17.39	-19.6	-19.6	17.4	0.00e+00	0	48	0	15510536192	11	13939
2026-01-27 22:00:16.74	269.05	17.45	-19.6	-19.7	17.5	0.00e+00	0	48	0	15854469120	11	14017
2026-01-27 22:00:19.77	270.04	17.50	-19.7	-19.7	17.8	0.00e+00	0	48	0	16198402048	11	14066
2026-01-27 22:00:22.80	271.04	17.54	-19.7	-19.7	18.0	0.00e+00	0	48	0	16533946368	11	14111
2026-01-27 22:00:25.83	272.05	17.58	-19.7	-19.7	18.4	0.00e+00	0	48	0	16877879296	11	14093
2026-01-27 22:00:28.86	273.05	17.61	-19.7	-19.8	18.5	0.00e+00	0	48	0	17221812224	11	14179
2026-01-27 22:00:31.89	274.06	17.63	-19.8	-19.8	18.7	0.00e+00	0	48	0	17557356544	11	14265
2026-01-27 22:00:34.92	275.07	17.64	-19.9	-20.0	19.0	0.00e+00	0	49	0	17901289472	11	14502
2026-01-27 22:00:37.95	276.07	17.64	-19.9	-19.9	19.2	0.00e+00	0	49	0	18236833792	11	14415
2026-01-27 22:00:40.98	277.08	17.64	-19.8	-19.8	19.5	0.00e+00	0	48	0	18580766720	11	14249
2026-01-27 22:00:44.01	278.09	17.63	-19.9	-20.0	19.7	0.00e+00	0	49	0	18924699648	11	14551
2026-01-27 22:00:47.05	279.10	17.61	-20.0	-20.1	19.8	0.00e+00	0	48	0	19260243968	11	14610
2026-01-27 22:00:50.08	280.11	17.59	-20.0	-20.1	19.8	0.00e+00	0	48	0	19604176896	11	14630
2026-01-27 22:00:53.11	281.11	17.55	-20.0	-20.1	19.9	0.00e+00	0	48	0	19948109824	11	14708
2026-01-27 22:00:56.14	282.11	17.51	-20.1	-20.2	19.9	0.00e+00	0	48	0	20283654144	11	14885
2026-01-27 22:00:59.17	283.10	17.46	-20.2	-20.2	19.8	0.00e+00	0	49	0	20627587072	11	14885
2026-01-27 22:01:02.20	284.10	17.41	-20.3	-20.3	19.7	0.00e+00	0	49	0	20963131392	11	15050
2026-01-27 22:01:05.24	285.09	17.34	-20.4	-20.5	19.6	0.00e+00	0	49	0	21307064320	11	15299
2026-01-27 22:01:08.27	286.07	17.27	-20.3	-20.3	19.7	0.00e+00	0	49	0	21650997248	11	15091
2026-01-27 22:01:11.30	287.05	17.19	-20.5	-20.5	19.6	0.00e+00	0	49	0	21986541568	11	15433
2026-01-27 22:01:14.33	288.02	17.11	-20.4	-20.5	19.5	0.00e+00	0	49	0	22330474496	11	15322
2026-01-27 22:01:17.36	288.99	17.02	-20.5	-20.6	19.6	0.00e+00	0	49	0	22674407424	11	15602
2026-01-27 22:01:20.39	289.95	16.92	-20.3	-20.4	19.4	0.00e+00	0	49	0	23009951744	12	14368
2026-01-27 22:01:23.43	290.90	16.82	-20.4	-20.4	19.1	0.00e+00	0	49	0	23353884672	12	14421
2026-01-27 22:01:26.46	291.84	16.71	-20.6	-20.6	18.8	0.00e+00	0	49	0	23689428992	12	14724
2026-01-27 22:01:29.49	292.78	16.59	-20.5	-20.6	18.7	0.00e+00	0	49	0	24033361920	12	14651
2026-01-27 22:01:32.52	293.71	16.47	-20.6	-20.6	18.7	0.00e+00	0	49	0	24377294848	12	14770
2026-01-27 22:01:35.55	294.63	16.34	-20.7	-20.7	18.8	0.00e+00	0	48	0	24712839168	12	14925
2026-01-27 22:01:38.58	295.53	16.21	-20.7	-20.8	18.7	0.00e+00	0	49	0	25056772096	12	15013
2026-01-27 22:01:41.62	296.44	16.07	-20.7	-20.8	18.7	0.00e+00	0	49	0	25400705024	12	14991
2026-01-27 22:01:44.65	297.33	15.92	-20.7	-20.7	18.7	0.00e+00	0	49	0	25736249344	12	14923
2026-01-27 22:01:47.69	298.21	15.78	-20.7	-20.8	18.6	0.00e+00	0	49	0	26080182272	12	14993
2026-01-27 22:01:50.72	299.08	15.62	-20.7	-20.7	18.7	0.00e+00	0	49	0	26424115200	12	14915
2026-01-27 22:01:53.75	299.94	15.47	-20.7	-20.8	18.9	0.00e+00	0	49	0	26768048128	12	14974
2026-01-27 22:01:56.78	300.79	15.31	-20.7	-20.8	19.0	0.00e+00	0	49	0	27103592448	12	14949
2026-01-27 22:01:59.81	301.63	15.14	-21.1	-21.2	18.9	0.00e+00	0	48	0	27447525376	12	15680
2026-01-27 22:02:02.84	302.46	14.97	-20.8	-20.9	19.0	0.00e+00	0	49	0	27791458304	12	15130
2026-01-27 22:02:05.87	303.28	14.80	-20.8	-20.9	19.1	0.00e+00	0	49	0	28127002624	12	15163
2026-01-27 22:02:08.91	304.09	14.62	-20.9	-21.0	19.1	0.00e+00	0	49	0	28470935552	12	15400
2026-01-27 22:02:11.94	304.89	14.45	-20.8	-20.9	19.0	0.00e+00	0	49	0	28814868480	12	15146
2026-01-27 22:02:14.97	305.68	14.27	-20.9	-20.9	18.9	0.00e+00	0	49	0	29150412800	12	15292
2026-01-27 22:02:18.00	306.45	14.08	-20.9	-21.0	18.9	0.00e+00	0	49	0	29494345728	12	15363
2026-01-27 22:02:21.03	307.21	13.90	-20.9	-21.0	18.9	0.00e+00	0	49	0	29838278656	12	15327
2026-01-27 22:02:24.06	307.97	13.71	-21.0	-21.0	18.8	0.00e+00	0	49	0	30182211584	12	15435
2026-01-27 22:02:27.09	308.71	13.52	-21.1	-21.2	18.8	0.00e+00	0	49	0	30517755904	12	15658
2026-01-27 22:02:30.13	309.44	13.32	-21.2	-21.3	18.8	0.00e+00	0	49	0	30861688832	13	14971
2026-01-27 22:02:33.16	310.16	13.13	-21.2	-21.3	19.0	0.00e+00	0	49	0	31205621760	13	14982
2026-01-27 22:02:36.19	310.87	12.93	-21.3	-21.4	19.0	0.00e+00	0	49	0	31541166080	13	15217
2026-01-27 22:02:39.22	311.57	12.74	-21.7	-21.7	19.0	0.00e+00	0	49	0	31885099008	13	15811
2026-01-27 22:02:42.26	312.26	12.54	-21.6	-21.6	18.9	0.00e+00	0	49	0	32229031936	13	15630
2026-01-27 22:02:45.29	312.94	12.34	-21.7	-21.7	18.9	0.00e+00	0	48	0	32564576256	14	14913
2026-01-27 22:02:48.32	313.60	12.14	-21.8	-21.9	18.9	0.00e+00	0	49	0	32908509184	14	15196
2026-01-27 22:02:51.35	314.26	11.93	-21.7	-21.8	18.9	0.00e+00	0	49	0	33244053504	14	14997
2026-01-27 22:02:54.38	314.91	11.73	-22.0	-22.0	18.8	0.00e+00	0	49	0	33587986432	14	15465
2026-01-27 22:02:57.41	315.54	11.53	-21.9	-21.9	19.0	0.00e+00	0	49	0	33931919360	14	15270
2026-01-27 22:03:00.45	316.17	11.32	-22.0	-22.1	18.8	0.00e+00	0	49	0	34267463680	14	15527
2026-01-27 22:03:03.48	316.78	11.12	-22.0	-22.1	18.9	0.00e+00	0	49	0	34611396608	14	15591
2026-01-27 22:03:06.51	317.39	10.92	-22.2	-22.2	18.9	0.00e+00	0	49	0	34955329536	15	14945
2026-01-27 22:03:09.54	317.99	10.71	-22.3	-22.4	18.7	0.00e+00	0	49	0	35290873856	15	15175
2026-01-27 22:03:12.58	318.57	10.50	-46.8	-49.4	6.2	0.00e+00	0	48	104	35508977664	64	20231
2026-01-27 22:03:15.61	319.15	10.30	-46.8	-49.4	6.2	0.00e+00	0	49	104	35508977664	64	20221
2026-01-27 22:03:18.64	319.72	10.09	-46.9	-49.4	6.2	0.00e+00	0	49	104	35508977664	64	20348
2026-01-27 22:03:21.67	320.28	9.89	-46.8	-49.3	6.2	0.00e+00	0	49	104	35508977664	64	20052
2026-01-27 22:03:24.70	320.83	9.68	-46.8	-49.3	6.2	0.00e+00	0	48	104	35508977664	64	20062
2026-01-27 22:03:27.73	321.37	9.48	-46.7	-49.2	6.2	0.00e+00	0	49	104	35508977664	64	19874
2026-01-27 22:03:30.77	321.90	9.27	-46.7	-49.3	6.2	0.00e+00	0	49	104	35508977664	64	20051
2026-01-27 22:03:33.80	322.42	9.07	-46.6	-49.1	6.2	0.00e+00	0	48	104	35508977664	64	19598
2026-01-27 22:03:36.83	322.94	8.87	-46.6	-49.2	6.2	0.00e+00	0	48	104	35508977664	64	19715
2026-01-27 22:03:39.86	323.44	8.66	-46.6	-49.1	6.2	0.00e+00	0	48	104	35508977664	64	19599
2026-01-27 22:03:42.90	323.94	8.46	-46.5	-49.1	6.2	0.00e+00	0	48	104	35508977664	64	19646
2026-01-27 22:03:45.93	324.43	8.26	-46.5	-49.1	6.2	0.00e+00	0	48	104	35508977664	64	19508
2026-01-27 22:03:48.96	324.91	8.05	-46.5	-49.0	6.2	0.00e+00	0	48	104	35508977664	64	19444
2026-01-27 22:03:51.99	325.39	7.85	-46.5	-49.0	6.2	0.00e+00	0	48	104	35508977664	64	19428
2026-01-27 22:03:55.02	325.85	7.65	-46.5	-49.0	6.2	0.00e+00	0	48	104	35508977664	64	19376
2026-01-27 22:03:58.04	326.31	7.45	-46.4	-49.0	6.2	0.00e+00	0	48	104	35508977664	64	19286
2026-01-27 22:04:01.07	326.76	7.25	-46.4	-48.9	6.2	0.00e+00	0	48	104	35508977664	64	19203
2026-01-27 22:04:04.10	327.21	7.06	-46.4	-48.9	6.2	0.00e+00	0	48	104	35508977664	64	19224
2026-01-27 22:04:07.13	327.65	6.86	-46.3	-48.9	6.2	0.00e+00	0	48	104	35508977664	64	19185
2026-01-27 22:04:10.16	328.08	6.66	-46.3	-48.9	6.2	0.00e+00	0	48	104	35508977664	64	19167
2026-01-27 22:04:13.20	328.50	6.46	-46.3	-48.8	6.2	0.00e+00	0	48	104	35508977664	64	18913
2026-01-27 22:04:16.23	328.92	6.27	-46.3	-48.8	6.2	0.00e+00	0	48	104	35508977664	64	18929
2026-01-27 22:04:19.26	329.33	6.07	-46.2	-48.8	6.2	0.00e+00	0	48	104	35508977664	64	18865
2026-01-27 22:04:22.29	329.73	5.88	-46.2	-48.7	6.2	0.00e+00	0	48	104	35508977664	64	18813
2026-01-27 22:04:25.32	330.13	5.69	-46.1	-48.6	6.2	0.00e+00	0	48	104	35508977664	64	18587
2026-01-27 22:04:28.35	330.52	5.50	-46.1	-48.7	6.2	0.00e+00	0	48	104	35508977664	64	18649
2026-01-27 22:04:31.38	330.91	5.30	-46.1	-48.6	6.2	0.00e+00	0	48	104	35508977664	64	18519
2026-01-27 22:04:34.41	331.29	5.11	-46.2	-48.7	6.2	0.00e+00	0	48	104	35508977664	63	19827
2026-01-27 22:04:37.44	331.66	4.92	-46.6	-49.1	6.2	0.00e+00	0	48	104	35508977664	63	20829
2026-01-27 22:04:40.47	332.03	4.74	-47.1	-49.7	6.2	0.00e+00	0	48	104	35508977664	64	20934
2026-01-27 22:04:43.50	332.40	4.55	-47.4	-49.9	6.2	0.00e+00	0	48	104	35508977664	65	20334
2026-01-27 22:04:46.54	332.75	4.36	-47.3	-49.8	6.2	0.00e+00	0	48	104	35508977664	65	20039
2026-01-27 22:04:49.57	333.11	4.17	-47.2	-49.7	6.2	0.00e+00	0	48	104	35508977664	65	19919
2026-01-27 22:04:52.59	333.45	3.99	-47.3	-49.8	6.2	0.00e+00	0	48	104	35508977664	65	20101
2026-01-27 22:04:55.63	333.79	3.81	-47.4	-50.0	6.2	0.00e+00	0	48	104	35508977664	65	20405
2026-01-27 22:04:58.66	334.13	3.62	-47.4	-49.9	6.2	0.00e+00	0	48	104	35508977664	65	20299
2026-01-27 22:05:01.69	334.46	3.44	-47.3	-49.9	6.2	0.00e+00	0	48	104	35508977664	65	20203
2026-01-27 22:05:04.72	334.79	3.26	-47.3	-49.8	6.2	0.00e+00	0	48	104	35508977664	65	20153
2026-01-27 22:05:07.75	335.11	3.08	-47.3	-49.8	6.2	0.00e+00	0	48	104	35508977664	65	20130
2026-01-27 22:05:10.78	335.43	2.90	-47.3	-49.8	6.2	0.00e+00	0	48	104	35508977664	65	20076
2026-01-27 22:05:13.81	335.74	2.72	-47.3	-49.8	6.2	0.00e+00	0	48	104	35508977664	65	20066
2026-01-27 22:05:16.85	336.05	2.54	-47.3	-49.8	6.2	0.00e+00	0	48	104	35508977664	65	20003
2026-01-27 22:05:19.87	336.36	2.36	-47.2	-49.8	6.2	0.00e+00	0	48	104	35508977664	65	19961
2026-01-27 22:05:22.91	336.66	2.19	-47.3	-49.7	6.2	0.00e+00	0	48	104	35508977664	65	19915
2026-01-27 22:05:25.94	336.95	2.01	-47.2	-49.8	6.2	0.00e+00	0	48	104	35508977664	65	19938

#Closed at: 2026-01-27 22:05:27
#Recorded file [35508 MB]: D:/lorett/data/31045_260128_005552.dat