passes_logs/2026/01/27/R3.2S_Murmansk_2ch/R3.2S_Murmansk_2ch__20260127_205218_JL1KF02B07_rec.log

#Pass ID: 20260127_205218_JL1KF02B07
#Satellite: JL1KF02B07
#Configuration: 01B_900M
#almurnet v.1.7.20251203
#Start time: 2026-01-27 20:52:20

#Version: 2.2.20231116
#Station: R3.2S_Murmansk_2ch
#Location: 33.079688 lon 68.888172 lat
#TLE: 1 65939U 25226B   26027.52903943  .00007360  00000+0  46461-3 0  9990
#TLE: 2 65939  97.6523 106.5104 0017825 255.4078 104.5174 15.09253118 16359

#Time	Az	El	Level	Level2	SNR	BER	BlckErr	Temp	State	Recorded	gain1	gain2
2026-01-27 20:52:20.88	208.81	2.14	-48.0	-50.5	6.2	0.00e+00	0	44	0	0	67	19350
2026-01-27 20:52:23.80	209.07	2.32	-47.9	-50.5	6.2	0.00e+00	0	44	104	0	67	19322
2026-01-27 20:52:26.70	209.32	2.49	-48.2	-50.7	6.2	0.00e+00	0	44	104	0	67	19810
2026-01-27 20:52:29.60	209.58	2.67	-48.3	-50.9	6.2	0.00e+00	0	44	104	0	67	20224
2026-01-27 20:52:32.51	209.85	2.85	-48.2	-50.8	6.2	0.00e+00	0	44	104	0	67	20003
2026-01-27 20:52:35.42	210.12	3.03	-48.1	-50.7	6.2	0.00e+00	0	45	104	0	67	19748
2026-01-27 20:52:38.32	210.39	3.22	-48.0	-50.5	6.2	0.00e+00	0	45	104	0	67	19414
2026-01-27 20:52:41.23	210.66	3.40	-47.8	-50.4	6.2	0.00e+00	0	45	104	0	67	19046
2026-01-27 20:52:44.14	210.95	3.58	-47.6	-50.1	6.2	0.00e+00	0	45	104	0	67	18561
2026-01-27 20:52:47.06	211.23	3.77	-47.1	-49.7	6.2	0.00e+00	0	45	104	0	66	18641
2026-01-27 20:52:49.97	211.52	3.96	-46.4	-49.0	6.2	0.00e+00	0	45	104	0	64	19297
2026-01-27 20:52:52.87	211.81	4.14	-46.4	-48.9	6.2	0.00e+00	0	45	104	0	64	19210
2026-01-27 20:52:55.78	212.11	4.33	-46.4	-48.9	6.2	0.00e+00	0	45	104	0	64	19212
2026-01-27 20:52:58.69	212.41	4.52	-46.4	-48.9	6.2	0.00e+00	0	45	104	0	64	19187
2026-01-27 20:53:01.59	212.72	4.71	-46.4	-48.9	6.2	0.00e+00	0	45	104	0	64	19197
2026-01-27 20:53:04.50	213.03	4.90	-46.3	-48.9	6.2	0.00e+00	0	45	104	0	64	19154
2026-01-27 20:53:07.41	213.35	5.10	-46.5	-49.0	6.2	0.00e+00	0	46	104	0	64	19476
2026-01-27 20:53:10.32	213.67	5.29	-46.4	-48.9	6.2	0.00e+00	0	46	104	0	64	19183
2026-01-27 20:53:13.23	213.99	5.49	-46.4	-49.0	6.2	0.00e+00	0	46	104	0	64	19359
2026-01-27 20:53:16.14	214.33	5.68	-46.3	-48.8	6.2	0.00e+00	0	46	104	0	64	18992
2026-01-27 20:53:19.05	214.66	5.88	-46.3	-48.9	6.2	0.00e+00	0	46	104	0	64	19103
2026-01-27 20:53:21.96	215.00	6.08	-46.4	-49.0	6.2	0.00e+00	0	46	104	0	64	19385
2026-01-27 20:53:24.87	215.35	6.28	-46.3	-48.9	6.2	0.00e+00	0	46	104	0	64	19217
2026-01-27 20:53:27.77	215.70	6.48	-46.3	-48.9	6.2	0.00e+00	0	46	104	0	64	19134
2026-01-27 20:53:30.68	216.06	6.68	-46.4	-49.0	6.2	0.00e+00	0	46	104	0	64	19317
2026-01-27 20:53:33.59	216.43	6.89	-46.5	-49.1	6.2	0.00e+00	0	46	104	0	64	19516
2026-01-27 20:53:36.50	216.80	7.09	-46.4	-49.0	6.2	0.00e+00	0	46	104	0	64	19293
2026-01-27 20:53:39.40	217.17	7.30	-46.4	-49.0	6.2	0.00e+00	0	46	104	0	64	19352
2026-01-27 20:53:42.31	217.56	7.50	-46.5	-49.0	6.2	0.00e+00	0	46	104	0	64	19472
2026-01-27 20:53:45.21	217.94	7.71	-46.5	-49.1	6.2	0.00e+00	0	46	104	0	64	19504
2026-01-27 20:53:48.12	218.34	7.92	-46.4	-49.0	6.2	0.00e+00	0	46	104	0	64	19391
2026-01-27 20:53:51.03	218.74	8.13	-46.4	-49.1	6.2	0.00e+00	0	46	104	0	64	19491
2026-01-27 20:53:53.94	219.15	8.34	-46.6	-49.1	6.2	0.00e+00	0	46	104	0	64	19601
2026-01-27 20:53:56.87	219.57	8.56	-46.5	-49.1	6.2	0.00e+00	0	46	104	0	64	19500
2026-01-27 20:53:59.78	219.99	8.77	-44.0	-45.4	6.4	0.00e+00	0	46	104	0	59	17017
2026-01-27 20:54:02.68	220.42	8.99	-43.9	-45.3	6.4	0.00e+00	0	46	104	0	59	16854
2026-01-27 20:54:05.59	220.86	9.20	-46.0	-48.2	6.2	0.00e+00	0	46	104	0	63	18768
2026-01-27 20:54:08.51	221.31	9.42	-43.5	-44.7	6.5	0.00e+00	0	46	104	0	59	15775
2026-01-27 20:54:11.41	221.76	9.64	-43.6	-44.8	6.7	0.00e+00	0	46	104	0	58	16836
2026-01-27 20:54:14.32	222.22	9.86	-34.1	-34.3	10.5	3.08e-03	0	46	104	0	38	15964
2026-01-27 20:54:17.23	222.69	10.08	-24.5	-24.6	17.7	0.00e+00	0	47	0	285212672	21	13825
2026-01-27 20:54:20.14	223.16	10.30	-24.2	-24.3	17.9	0.00e+00	0	47	0	603979776	19	15077
2026-01-27 20:54:23.05	223.65	10.52	-24.2	-24.3	17.8	0.00e+00	0	47	0	931135488	19	14968
2026-01-27 20:54:25.95	224.14	10.75	-24.0	-24.1	17.8	0.00e+00	0	47	0	1258291200	19	14703
2026-01-27 20:54:28.86	224.64	10.97	-23.9	-24.0	17.9	1.90e-06	0	47	0	1585446912	19	14509
2026-01-27 20:54:31.76	225.15	11.20	-23.7	-23.8	18.0	0.00e+00	0	47	0	1912602624	19	14236
2026-01-27 20:54:34.66	225.67	11.42	-23.7	-23.8	18.2	0.00e+00	0	47	0	2239758336	19	14122
2026-01-27 20:54:37.57	226.20	11.65	-23.6	-23.7	18.3	0.00e+00	0	47	0	2566914048	19	13959
2026-01-27 20:54:40.48	226.74	11.87	-23.5	-23.6	18.2	0.00e+00	0	47	0	2894069760	18	14717
2026-01-27 20:54:43.39	227.29	12.10	-23.4	-23.5	18.3	0.00e+00	0	47	0	3221225472	18	14448
2026-01-27 20:54:46.30	227.85	12.33	-23.2	-23.3	18.2	0.00e+00	0	47	0	3548381184	18	14200
2026-01-27 20:54:49.21	228.42	12.56	-23.2	-23.3	18.1	0.00e+00	0	47	0	3875536896	18	14180
2026-01-27 20:54:52.12	228.99	12.79	-23.0	-23.1	18.2	0.00e+00	0	47	0	4202692608	18	13858
2026-01-27 20:54:55.03	229.58	13.02	-22.9	-23.0	18.1	0.00e+00	0	47	0	4538236928	17	14548
2026-01-27 20:54:57.93	230.18	13.25	-22.8	-22.9	18.0	0.00e+00	0	47	0	4857004032	17	14417
2026-01-27 20:55:00.84	230.79	13.48	-22.9	-23.0	18.1	0.00e+00	0	47	0	5184159744	17	14475
2026-01-27 20:55:03.75	231.41	13.71	-22.7	-22.8	18.3	0.00e+00	0	47	0	5511315456	17	14202
2026-01-27 20:55:06.66	232.04	13.94	-22.8	-22.8	18.2	0.00e+00	0	47	0	5838471168	17	14267
2026-01-27 20:55:09.57	232.68	14.17	-22.7	-22.8	18.3	0.00e+00	0	47	0	6165626880	17	14131
2026-01-27 20:55:12.48	233.33	14.39	-22.6	-22.7	18.5	0.00e+00	0	47	0	6501171200	17	14003
2026-01-27 20:55:15.39	234.00	14.62	-22.6	-22.7	18.4	0.00e+00	0	47	0	6819938304	17	14081
2026-01-27 20:55:18.30	234.67	14.85	-22.5	-22.6	18.5	0.00e+00	0	47	0	7147094016	16	14746
2026-01-27 20:55:21.21	235.36	15.08	-22.3	-22.4	18.6	0.00e+00	0	47	0	7474249728	16	14344
2026-01-27 20:55:24.17	236.07	15.31	-22.3	-22.4	18.4	0.00e+00	0	47	0	7809794048	16	14388
2026-01-27 20:55:27.12	236.80	15.54	-22.2	-22.3	18.5	0.00e+00	0	47	0	8136949760	16	14121
2026-01-27 20:55:30.08	237.53	15.76	-22.2	-22.2	18.3	0.00e+00	0	47	0	8472494080	16	14083
2026-01-27 20:55:33.03	238.28	15.99	-22.0	-22.0	18.3	0.00e+00	0	47	0	8808038400	15	14583
2026-01-27 20:55:35.98	239.04	16.21	-21.8	-21.9	18.4	0.00e+00	0	47	0	9143582720	15	14352
2026-01-27 20:55:38.93	239.81	16.43	-21.8	-21.8	18.1	0.00e+00	0	47	0	9470738432	15	14242
2026-01-27 20:55:41.87	240.59	16.65	-21.7	-21.8	18.0	0.00e+00	0	47	0	9797894144	15	14169
2026-01-27 20:55:44.83	241.39	16.87	-21.8	-21.9	18.2	0.00e+00	0	47	0	10133438464	15	14308
2026-01-27 20:55:47.78	242.20	17.09	-21.8	-21.8	18.1	0.00e+00	0	48	0	10460594176	15	14246
2026-01-27 20:55:50.73	243.02	17.30	-21.7	-21.8	17.6	0.00e+00	0	47	0	10804527104	15	14115
2026-01-27 20:55:53.69	243.86	17.51	-21.6	-21.7	17.7	0.00e+00	0	47	0	11131682816	15	14027
2026-01-27 20:55:56.64	244.71	17.71	-21.5	-21.5	17.3	0.00e+00	0	47	0	11467227136	14	14589
2026-01-27 20:55:59.59	245.57	17.92	-21.3	-21.4	17.5	0.00e+00	0	48	0	11794382848	14	14293
2026-01-27 20:56:02.55	246.45	18.11	-21.2	-21.3	17.6	0.00e+00	0	47	0	12129927168	14	14233
2026-01-27 20:56:05.50	247.33	18.31	-21.2	-21.3	17.3	0.00e+00	0	48	0	12457082880	14	14156
2026-01-27 20:56:08.45	248.23	18.50	-21.2	-21.2	17.2	0.00e+00	0	48	0	12792627200	14	14091
2026-01-27 20:56:11.41	249.14	18.68	-21.0	-21.1	16.7	0.00e+00	0	48	0	13119782912	14	13854
2026-01-27 20:56:14.36	250.07	18.86	-20.9	-21.0	17.0	0.00e+00	0	48	0	13455327232	13	14546
2026-01-27 20:56:17.33	251.01	19.04	-20.9	-21.0	16.8	0.00e+00	0	48	0	13790871552	13	14466
2026-01-27 20:56:20.28	251.95	19.21	-20.7	-20.8	16.5	0.00e+00	0	48	0	14126415872	13	14215
2026-01-27 20:56:23.23	252.91	19.37	-20.8	-20.8	16.3	0.00e+00	0	48	0	14453571584	13	14274
2026-01-27 20:56:26.18	253.88	19.53	-20.7	-20.8	16.6	0.00e+00	0	48	0	14789115904	13	14132
2026-01-27 20:56:29.14	254.86	19.68	-20.7	-20.8	16.7	0.00e+00	0	48	0	15116271616	13	14187
2026-01-27 20:56:32.09	255.85	19.83	-20.8	-20.8	16.3	0.00e+00	0	48	0	15451815936	13	14233
2026-01-27 20:56:35.05	256.85	19.97	-20.7	-20.8	16.7	0.00e+00	0	48	0	15787360256	13	14190
2026-01-27 20:56:38.00	257.86	20.10	-20.6	-20.7	16.6	0.00e+00	0	48	0	16114515968	13	14000
2026-01-27 20:56:40.95	258.88	20.22	-20.8	-20.8	17.1	0.00e+00	0	48	0	16450060288	13	14241
2026-01-27 20:56:43.91	259.91	20.33	-20.8	-20.8	16.6	0.00e+00	0	48	0	16777216000	13	14258
2026-01-27 20:56:46.86	260.95	20.44	-20.6	-20.7	17.3	0.00e+00	0	48	0	17112760320	13	13994
2026-01-27 20:56:49.81	261.99	20.54	-20.6	-20.7	17.3	0.00e+00	0	48	0	17439916032	13	13957
2026-01-27 20:56:52.77	263.04	20.63	-20.6	-20.6	17.0	0.00e+00	0	48	0	17775460352	13	13928
2026-01-27 20:56:55.73	264.10	20.72	-20.6	-20.7	17.5	0.00e+00	0	48	0	18111004672	13	14001
2026-01-27 20:56:58.68	265.16	20.79	-20.8	-20.9	18.1	0.00e+00	0	48	0	18446548992	13	14363
2026-01-27 20:57:01.63	266.23	20.85	-20.8	-20.9	17.6	0.00e+00	0	48	0	18773704704	13	14289
2026-01-27 20:57:04.58	267.30	20.91	-20.8	-20.8	18.2	0.00e+00	0	48	0	19109249024	13	14266
2026-01-27 20:57:07.53	268.38	20.96	-20.9	-20.9	18.2	0.00e+00	0	48	0	19436404736	13	14387
2026-01-27 20:57:10.48	269.45	20.99	-20.8	-20.8	18.6	0.00e+00	0	48	0	19771949056	13	14239
2026-01-27 20:57:13.42	270.53	21.02	-20.9	-21.0	18.7	0.00e+00	0	48	0	20099104768	13	14442
2026-01-27 20:57:16.38	271.62	21.04	-20.9	-21.0	18.9	0.00e+00	0	48	0	20426260480	13	14474
2026-01-27 20:57:19.33	272.70	21.05	-20.8	-20.9	19.0	0.00e+00	0	47	0	20770193408	13	14362
2026-01-27 20:57:22.27	273.78	21.05	-21.0	-21.1	19.4	0.00e+00	0	48	0	21097349120	13	14705
2026-01-27 20:57:25.23	274.87	21.04	-20.8	-20.9	19.3	0.00e+00	0	48	0	21424504832	13	14326
2026-01-27 20:57:28.19	275.95	21.02	-20.9	-21.0	19.4	0.00e+00	0	48	0	21760049152	13	14522
2026-01-27 20:57:31.14	277.03	20.99	-20.9	-20.9	19.5	0.00e+00	0	48	0	22095593472	13	14399
2026-01-27 20:57:34.09	278.11	20.95	-21.0	-21.0	19.2	0.00e+00	0	48	0	22431137792	13	14575
2026-01-27 20:57:37.05	279.19	20.90	-21.1	-21.2	19.1	0.00e+00	0	48	0	22758293504	13	14786
2026-01-27 20:57:40.00	280.25	20.85	-21.4	-21.4	19.0	0.00e+00	0	48	0	23093837824	13	15292
2026-01-27 20:57:42.96	281.32	20.78	-21.3	-21.4	19.2	0.00e+00	0	48	0	23420993536	13	15152
2026-01-27 20:57:45.92	282.39	20.71	-21.3	-21.4	19.1	0.00e+00	0	48	0	23756537856	13	15219
2026-01-27 20:57:48.87	283.44	20.62	-21.3	-21.4	18.8	0.00e+00	0	48	0	24083693568	13	15188
2026-01-27 20:57:51.83	284.49	20.53	-21.4	-21.5	19.1	0.00e+00	0	48	0	24419237888	13	15296
2026-01-27 20:57:54.78	285.53	20.43	-21.3	-21.4	19.1	0.00e+00	0	48	0	24754782208	13	15186
2026-01-27 20:57:57.73	286.56	20.32	-21.4	-21.5	18.7	0.00e+00	0	48	0	25090326528	13	15382
2026-01-27 20:58:00.69	287.59	20.21	-21.5	-21.5	18.7	0.00e+00	0	48	0	25417482240	13	15436
2026-01-27 20:58:03.63	288.60	20.08	-21.5	-21.5	18.6	0.00e+00	0	48	0	25753026560	13	15465
2026-01-27 20:58:06.57	289.60	19.95	-21.5	-21.6	18.6	0.00e+00	0	48	0	26080182272	13	15538
2026-01-27 20:58:09.53	290.60	19.82	-21.6	-21.7	18.5	0.00e+00	0	48	0	26415726592	13	15740
2026-01-27 20:58:12.48	291.58	19.67	-21.6	-21.7	19.1	0.00e+00	0	48	0	26751270912	14	14881
2026-01-27 20:58:15.44	292.56	19.52	-21.7	-21.8	19.0	0.00e+00	0	48	0	27078426624	14	15025
2026-01-27 20:58:18.40	293.53	19.36	-21.8	-21.9	19.3	0.00e+00	0	48	0	27413970944	14	15174
2026-01-27 20:58:21.34	294.48	19.20	-21.8	-21.9	19.0	0.00e+00	0	48	0	27741126656	14	15248
2026-01-27 20:58:24.29	295.42	19.03	-21.7	-21.8	19.2	0.00e+00	0	48	0	28076670976	14	15010
2026-01-27 20:58:27.25	296.35	18.85	-21.9	-21.9	19.7	0.00e+00	0	48	0	28403826688	14	15256
2026-01-27 20:58:30.20	297.27	18.67	-21.8	-21.9	19.6	0.00e+00	0	48	0	28739371008	14	15204
2026-01-27 20:58:33.14	298.17	18.49	-21.9	-22.0	19.8	0.00e+00	0	48	0	29066526720	14	15341
2026-01-27 20:58:36.09	299.07	18.30	-21.9	-22.0	19.3	0.00e+00	0	48	0	29402071040	14	15325
2026-01-27 20:58:39.04	299.95	18.11	-21.9	-22.0	19.2	0.00e+00	0	48	0	29737615360	14	15364
2026-01-27 20:58:41.99	300.81	17.91	-21.9	-22.0	19.4	0.00e+00	0	48	0	30064771072	14	15371
2026-01-27 20:58:44.95	301.67	17.71	-22.1	-22.1	19.2	0.00e+00	0	48	0	30400315392	15	14744
2026-01-27 20:58:47.91	302.52	17.50	-22.3	-22.4	19.2	0.00e+00	0	48	0	30727471104	15	15167
2026-01-27 20:58:50.86	303.35	17.30	-22.2	-22.3	18.4	0.00e+00	0	48	0	31063015424	15	14950
2026-01-27 20:58:53.81	304.17	17.09	-22.5	-22.5	17.3	0.00e+00	0	48	0	31390171136	15	15431
2026-01-27 20:58:56.76	304.97	16.87	-22.1	-22.2	12.8	9.50e-04	0	48	0	31725715456	15	14848
2026-01-27 20:58:59.71	305.76	16.66	-22.0	-22.1	10.8	6.94e-03	0	48	0	32061259776	15	14734
2026-01-27 20:59:02.67	306.54	16.44	-22.1	-22.2	10.7	7.84e-03	0	48	0	32388415488	15	14915
2026-01-27 20:59:05.62	307.31	16.22	-22.2	-22.4	10.7	7.89e-03	0	48	0	32707182592	15	15124
2026-01-27 20:59:08.58	308.07	15.99	-22.5	-22.6	11.5	4.10e-03	0	48	0	33042726912	15	15484
2026-01-27 20:59:11.52	308.81	15.77	-23.0	-23.1	13.0	1.04e-03	0	48	0	33369882624	16	15505
2026-01-27 20:59:14.48	309.54	15.55	-22.9	-23.0	14.0	2.35e-04	0	48	0	33705426944	16	15329
2026-01-27 20:59:17.43	310.26	15.32	-23.1	-23.1	14.7	1.01e-04	0	48	0	34032582656	16	15643
2026-01-27 20:59:20.38	310.96	15.09	-23.1	-23.2	15.6	2.47e-05	0	48	0	34359738368	16	15752
2026-01-27 20:59:23.33	311.65	14.86	-23.2	-23.3	16.3	3.80e-06	0	48	0	34695282688	16	15858
2026-01-27 20:59:26.28	312.33	14.63	-23.5	-23.6	17.2	0.00e+00	0	48	0	35030827008	17	15575
2026-01-27 20:59:29.23	313.00	14.40	-23.5	-23.5	17.5	1.90e-06	0	48	0	35366371328	17	15467
2026-01-27 20:59:32.18	313.66	14.17	-23.5	-23.6	17.7	0.00e+00	0	48	0	35693527040	17	15551
2026-01-27 20:59:35.13	314.31	13.94	-23.5	-23.6	17.7	0.00e+00	0	48	0	36029071360	17	15617
2026-01-27 20:59:38.09	314.94	13.71	-23.8	-23.9	17.6	0.00e+00	0	48	0	36356227072	18	15121
2026-01-27 20:59:41.03	315.56	13.48	-23.8	-23.9	17.4	0.00e+00	0	48	0	36691771392	18	15191
2026-01-27 20:59:43.98	316.18	13.25	-23.9	-23.9	17.2	0.00e+00	0	48	0	37027315712	18	15273
2026-01-27 20:59:46.94	316.78	13.02	-46.5	-48.9	6.2	0.00e+00	0	48	104	37153144832	63	20203
2026-01-27 20:59:49.89	317.37	12.79	-46.6	-49.0	6.2	0.00e+00	0	48	104	37153144832	64	19323
2026-01-27 20:59:52.84	317.95	12.56	-46.8	-49.3	6.2	0.00e+00	0	48	104	37153144832	64	20092
2026-01-27 20:59:55.79	318.52	12.33	-46.8	-49.3	6.2	0.00e+00	0	48	104	37153144832	64	20123
2026-01-27 20:59:58.75	319.09	12.10	-46.6	-49.0	6.2	0.00e+00	0	48	104	37153144832	64	19356
2026-01-27 21:00:01.71	319.64	11.87	-46.6	-49.1	6.2	0.00e+00	0	48	104	37153144832	64	19561
2026-01-27 21:00:04.66	320.18	11.64	-46.6	-49.2	6.2	0.00e+00	0	48	104	37153144832	64	19919
2026-01-27 21:00:07.62	320.71	11.41	-46.7	-49.2	6.2	0.00e+00	0	48	104	37153144832	64	19762
2026-01-27 21:00:10.58	321.24	11.18	-46.7	-49.2	6.2	0.00e+00	0	47	104	37153144832	64	19755
2026-01-27 21:00:13.53	321.75	10.96	-46.5	-48.9	6.2	0.00e+00	0	47	104	37153144832	64	19129
2026-01-27 21:00:16.48	322.25	10.73	-46.6	-49.2	6.2	0.00e+00	0	48	104	37153144832	64	19779
2026-01-27 21:00:19.45	322.75	10.51	-46.6	-49.1	6.2	0.00e+00	0	48	104	37153144832	64	19603
2026-01-27 21:00:22.41	323.24	10.28	-46.6	-49.1	6.2	0.00e+00	0	48	104	37153144832	64	19696
2026-01-27 21:00:25.35	323.72	10.06	-46.4	-48.9	6.2	0.00e+00	0	47	104	37153144832	64	19128
2026-01-27 21:00:28.29	324.18	9.84	-46.4	-48.9	6.2	0.00e+00	0	48	104	37153144832	64	19227
2026-01-27 21:00:31.23	324.65	9.62	-46.5	-48.9	6.2	0.00e+00	0	48	104	37153144832	64	19184
2026-01-27 21:00:34.18	325.10	9.40	-46.4	-48.9	6.2	0.00e+00	0	48	104	37153144832	64	19120
2026-01-27 21:00:37.14	325.55	9.18	-46.4	-48.8	6.2	0.00e+00	0	48	104	37153144832	64	18904
2026-01-27 21:00:40.09	325.99	8.96	-46.3	-48.7	6.2	0.00e+00	0	47	104	37153144832	64	18812
2026-01-27 21:00:43.03	326.42	8.75	-46.4	-48.8	6.2	0.00e+00	0	47	104	37153144832	64	18953
2026-01-27 21:00:45.98	326.84	8.53	-46.3	-48.7	6.2	0.00e+00	0	47	104	37153144832	64	18773
2026-01-27 21:00:48.94	327.26	8.32	-46.3	-48.7	6.2	0.00e+00	0	47	104	37153144832	64	18713
2026-01-27 21:00:51.88	327.67	8.11	-46.2	-48.7	6.2	0.00e+00	0	48	104	37153144832	64	18636
2026-01-27 21:00:54.83	328.07	7.90	-46.3	-48.7	6.2	0.00e+00	0	47	104	37153144832	64	18747
2026-01-27 21:00:57.78	328.47	7.69	-46.2	-48.6	6.2	0.00e+00	0	47	104	37153144832	64	18543
2026-01-27 21:01:00.73	328.86	7.48	-46.2	-48.6	6.2	0.00e+00	0	47	104	37153144832	64	18593
2026-01-27 21:01:03.69	329.24	7.27	-46.2	-48.6	6.2	0.00e+00	0	47	104	37153144832	64	18591
2026-01-27 21:01:06.64	329.62	7.06	-46.2	-48.7	6.2	0.00e+00	0	47	104	37153144832	64	18656
2026-01-27 21:01:09.58	329.99	6.86	-46.1	-48.6	6.2	0.00e+00	0	47	104	37153144832	64	18555
2026-01-27 21:01:12.53	330.35	6.65	-46.0	-48.5	6.2	0.00e+00	0	47	104	37153144832	64	18312
2026-01-27 21:01:15.48	330.71	6.45	-46.1	-48.6	6.2	0.00e+00	0	47	104	37153144832	64	18432
2026-01-27 21:01:18.44	331.07	6.25	-46.1	-48.6	6.2	0.00e+00	0	48	104	37153144832	64	18485
2026-01-27 21:01:21.39	331.42	6.05	-46.0	-48.6	6.2	0.00e+00	0	47	104	37153144832	64	18438
2026-01-27 21:01:24.34	331.76	5.85	-46.0	-48.5	6.2	0.00e+00	0	47	104	37153144832	63	19367
2026-01-27 21:01:27.29	332.10	5.65	-46.0	-48.5	6.2	0.00e+00	0	47	104	37153144832	63	19352
2026-01-27 21:01:30.25	332.43	5.45	-46.0	-48.5	6.2	0.00e+00	0	48	104	37153144832	63	19422
2026-01-27 21:01:33.20	332.76	5.26	-46.0	-48.5	6.2	0.00e+00	0	48	104	37153144832	63	19419
2026-01-27 21:01:36.15	333.08	5.06	-45.9	-48.3	6.2	0.00e+00	0	47	104	37153144832	63	18984
2026-01-27 21:01:39.11	333.39	4.87	-46.9	-49.5	6.2	0.00e+00	0	47	104	37153144832	64	20467
2026-01-27 21:01:42.06	333.71	4.67	-47.5	-50.1	6.2	0.00e+00	0	47	104	37153144832	65	20660
2026-01-27 21:01:45.02	334.02	4.48	-47.9	-50.4	6.2	0.00e+00	0	47	104	37153144832	66	20259
2026-01-27 21:01:47.97	334.32	4.29	-48.0	-50.5	6.2	0.00e+00	0	47	104	37153144832	66	20621
2026-01-27 21:01:50.93	334.62	4.10	-48.2	-50.7	6.2	0.00e+00	0	47	104	37153144832	66	21032
2026-01-27 21:01:53.87	334.91	3.92	-48.3	-50.8	6.2	0.00e+00	0	47	104	37153144832	67	20091
2026-01-27 21:01:56.83	335.20	3.73	-48.3	-50.9	6.2	0.00e+00	0	47	104	37153144832	67	20235
2026-01-27 21:01:59.78	335.49	3.54	-48.3	-50.8	6.2	0.00e+00	0	47	104	37153144832	67	20089
2026-01-27 21:02:02.73	335.77	3.36	-48.3	-50.8	6.2	0.00e+00	0	47	104	37153144832	67	20010
2026-01-27 21:02:05.68	336.04	3.18	-48.2	-50.8	6.2	0.00e+00	0	47	104	37153144832	67	19998
2026-01-27 21:02:08.62	336.32	2.99	-48.2	-50.8	6.2	0.00e+00	0	47	104	37153144832	67	19953
2026-01-27 21:02:11.58	336.59	2.81	-48.2	-50.8	6.2	0.00e+00	0	47	104	37153144832	67	19934
2026-01-27 21:02:14.53	336.85	2.63	-48.2	-50.7	6.2	0.00e+00	0	48	104	37153144832	67	19828
2026-01-27 21:02:17.48	337.11	2.45	-48.2	-50.7	6.2	0.00e+00	0	48	104	37153144832	67	19828
2026-01-27 21:02:20.43	337.37	2.27	-48.2	-50.7	6.2	0.00e+00	0	47	104	37153144832	67	19863
2026-01-27 21:02:23.38	337.63	2.10	-48.2	-50.7	6.2	0.00e+00	0	47	104	37153144832	67	19809

#Closed at: 2026-01-27 21:02:25
#Recorded file [37153 MB]: D:/lorett/data/31045_260127_235220.dat