passes_logs/2026/01/27/R3.2S_Murmansk_2ch/R3.2S_Murmansk_2ch__20260127_161751_JL1KF02B05_rec.log

#Pass ID: 20260127_161751_JL1KF02B05
#Satellite: JL1KF02B05
#Configuration: 01B_900M
#almurnet v.1.7.20251203
#Start time: 2026-01-27 16:17:51

#Version: 2.2.20231116
#Station: R3.2S_Murmansk_2ch
#Location: 33.079688 lon 68.888172 lat
#TLE: 1 61194U 24169F   26026.80503862  .00008208  00000+0  50948-3 0  9997
#TLE: 2 61194  97.5598 118.4623 0018068 119.0393 241.2649 15.09820916 74516

#Time	Az	El	Level	Level2	SNR	BER	BlckErr	Temp	State	Recorded	gain1	gain2
2026-01-27 16:17:51.64	68.56	2.01	-46.6	-49.2	6.2	0.00e+00	0	44	0	0	63	20939
2026-01-27 16:17:53.66	68.34	2.12	-46.5	-49.1	6.2	0.00e+00	0	44	104	0	64	19539
2026-01-27 16:17:55.68	68.11	2.24	-46.5	-49.1	6.2	0.00e+00	0	44	104	0	64	19512
2026-01-27 16:17:57.70	67.89	2.35	-46.5	-49.1	6.2	0.00e+00	0	44	104	0	64	19522
2026-01-27 16:17:59.72	67.67	2.46	-46.5	-49.1	6.2	0.00e+00	0	44	104	0	64	19544
2026-01-27 16:18:01.74	67.44	2.57	-46.5	-49.1	6.2	0.00e+00	0	44	104	0	64	19545
2026-01-27 16:18:03.76	67.21	2.68	-46.5	-49.1	6.2	0.00e+00	0	44	104	0	64	19510
2026-01-27 16:18:05.79	66.97	2.80	-46.5	-49.1	6.2	0.00e+00	0	44	104	0	64	19555
2026-01-27 16:18:07.81	66.74	2.91	-46.5	-49.0	6.2	0.00e+00	0	44	104	0	64	19475
2026-01-27 16:18:09.83	66.50	3.02	-46.5	-49.1	6.2	0.00e+00	0	44	104	0	64	19493
2026-01-27 16:18:11.85	66.26	3.14	-46.5	-49.0	6.2	0.00e+00	0	45	104	0	64	19458
2026-01-27 16:18:13.87	66.02	3.25	-46.5	-49.1	6.2	0.00e+00	0	45	104	0	64	19543
2026-01-27 16:18:15.89	65.77	3.36	-46.5	-49.1	6.2	0.00e+00	0	45	104	0	64	19606
2026-01-27 16:18:17.91	65.53	3.48	-46.5	-49.1	6.2	0.00e+00	0	45	104	0	64	19552
2026-01-27 16:18:19.93	65.28	3.59	-46.5	-49.1	6.2	0.00e+00	0	45	104	0	64	19607
2026-01-27 16:18:21.95	65.03	3.70	-46.5	-49.1	6.2	0.00e+00	0	45	104	0	64	19508
2026-01-27 16:18:23.97	64.77	3.82	-46.5	-49.1	6.2	0.00e+00	0	45	104	0	64	19491
2026-01-27 16:18:26.00	64.51	3.93	-46.5	-49.1	6.2	0.00e+00	0	45	104	0	64	19573
2026-01-27 16:18:28.01	64.26	4.05	-46.5	-49.1	6.2	0.00e+00	0	45	104	0	64	19552
2026-01-27 16:18:30.04	63.99	4.16	-46.5	-49.1	6.2	0.00e+00	0	45	104	0	64	19502
2026-01-27 16:18:32.05	63.73	4.28	-46.5	-49.1	6.2	0.00e+00	0	45	104	0	64	19584
2026-01-27 16:18:34.08	63.46	4.39	-46.5	-49.1	6.2	0.00e+00	0	45	104	0	64	19566
2026-01-27 16:18:36.10	63.19	4.51	-46.5	-49.1	6.2	0.00e+00	0	45	104	0	64	19515
2026-01-27 16:18:38.12	62.92	4.62	-46.5	-49.1	6.2	0.00e+00	0	45	104	0	64	19573
2026-01-27 16:18:40.14	62.64	4.74	-46.5	-49.1	6.2	0.00e+00	0	45	104	0	64	19532
2026-01-27 16:18:42.16	62.36	4.85	-46.5	-49.1	6.2	0.00e+00	0	45	104	0	64	19580
2026-01-27 16:18:44.18	62.08	4.97	-46.5	-49.1	6.2	0.00e+00	0	45	104	0	64	19554
2026-01-27 16:18:46.20	61.80	5.09	-46.5	-49.1	6.2	0.00e+00	0	45	104	0	64	19559
2026-01-27 16:18:48.22	61.51	5.20	-46.5	-49.1	6.2	0.00e+00	0	45	104	0	64	19548
2026-01-27 16:18:50.24	61.22	5.32	-46.5	-49.1	6.2	0.00e+00	0	45	104	0	64	19603
2026-01-27 16:18:52.26	60.93	5.43	-46.5	-49.1	6.2	0.00e+00	0	45	104	0	64	19577
2026-01-27 16:18:54.28	60.63	5.55	-46.5	-49.1	6.2	0.00e+00	0	46	104	0	64	19551
2026-01-27 16:18:56.30	60.34	5.67	-46.5	-49.1	6.2	0.00e+00	0	46	104	0	64	19587
2026-01-27 16:18:58.32	60.03	5.78	-46.5	-49.1	6.2	0.00e+00	0	46	104	0	64	19518
2026-01-27 16:19:00.33	59.73	5.90	-46.5	-49.1	6.2	0.00e+00	0	46	104	0	64	19584
2026-01-27 16:19:02.35	59.42	6.01	-46.5	-49.1	6.2	0.00e+00	0	46	104	0	64	19595
2026-01-27 16:19:04.38	59.11	6.13	-46.5	-49.1	6.2	0.00e+00	0	45	104	0	64	19557
2026-01-27 16:19:06.39	58.80	6.25	-46.5	-49.1	6.2	0.00e+00	0	46	104	0	64	19560
2026-01-27 16:19:08.41	58.48	6.36	-46.5	-49.1	6.2	0.00e+00	0	46	104	0	64	19569
2026-01-27 16:19:10.43	58.16	6.48	-46.5	-49.1	6.2	0.00e+00	0	46	104	0	64	19557
2026-01-27 16:19:12.45	57.84	6.59	-46.5	-49.1	6.2	0.00e+00	0	46	104	0	64	19560
2026-01-27 16:19:14.47	57.51	6.71	-46.5	-49.1	6.2	0.00e+00	0	46	104	0	64	19575
2026-01-27 16:19:16.49	57.18	6.83	-46.5	-49.1	6.2	0.00e+00	0	46	104	0	64	19598
2026-01-27 16:19:18.51	56.85	6.94	-46.5	-49.1	6.2	0.00e+00	0	46	104	0	64	19586
2026-01-27 16:19:20.54	56.51	7.06	-46.5	-49.1	6.2	0.00e+00	0	46	104	0	64	19587
2026-01-27 16:19:22.55	56.17	7.17	-46.5	-49.1	6.2	0.00e+00	0	46	104	0	64	19586
2026-01-27 16:19:24.58	55.83	7.29	-46.5	-49.1	6.2	0.00e+00	0	46	104	0	64	19553
2026-01-27 16:19:26.59	55.48	7.40	-46.5	-49.1	6.2	0.00e+00	0	46	104	0	64	19615
2026-01-27 16:19:28.62	55.13	7.52	-46.5	-49.1	6.2	0.00e+00	0	46	104	0	64	19550
2026-01-27 16:19:30.64	54.78	7.63	-46.5	-49.1	6.2	0.00e+00	0	46	104	0	64	19589
2026-01-27 16:19:32.66	54.42	7.75	-46.5	-49.1	6.2	0.00e+00	0	46	104	0	64	19579
2026-01-27 16:19:34.68	54.06	7.86	-46.5	-49.1	6.2	0.00e+00	0	46	104	0	64	19627
2026-01-27 16:19:36.70	53.69	7.98	-46.5	-49.1	6.2	0.00e+00	0	46	104	0	64	19516
2026-01-27 16:19:38.72	53.33	8.09	-46.5	-49.1	6.2	0.00e+00	0	46	104	0	64	19567
2026-01-27 16:19:40.74	52.96	8.21	-46.5	-49.1	6.2	0.00e+00	0	46	104	0	64	19552
2026-01-27 16:19:42.76	52.58	8.32	-46.5	-49.1	6.2	0.00e+00	0	46	104	0	64	19566
2026-01-27 16:19:44.78	52.20	8.43	-46.5	-49.1	6.2	0.00e+00	0	46	104	0	64	19608
2026-01-27 16:19:46.80	51.82	8.54	-46.5	-49.1	6.2	0.00e+00	0	46	104	0	64	19569
2026-01-27 16:19:48.83	51.43	8.66	-46.5	-49.1	6.2	0.00e+00	0	46	104	0	64	19560
2026-01-27 16:19:50.85	51.04	8.77	-46.5	-49.1	6.2	0.00e+00	0	46	104	0	64	19593
2026-01-27 16:19:52.87	50.65	8.88	-46.5	-49.1	6.2	0.00e+00	0	46	104	0	64	19586
2026-01-27 16:19:54.89	50.25	8.99	-46.5	-49.1	6.2	0.00e+00	0	46	104	0	64	19652
2026-01-27 16:19:56.91	49.85	9.10	-46.5	-49.1	6.2	0.00e+00	0	46	104	0	64	19659
2026-01-27 16:19:58.93	49.45	9.21	-46.5	-49.1	6.2	0.00e+00	0	46	104	0	64	19638
2026-01-27 16:20:00.95	49.04	9.32	-46.5	-49.1	6.2	0.00e+00	0	46	104	0	64	19589
2026-01-27 16:20:02.97	48.63	9.43	-46.5	-49.1	6.2	0.00e+00	0	46	104	0	64	19602
2026-01-27 16:20:04.99	48.21	9.54	-46.5	-49.1	6.2	0.00e+00	0	46	104	0	64	19579
2026-01-27 16:20:07.02	47.79	9.65	-46.5	-49.1	6.2	0.00e+00	0	46	104	0	64	19619
2026-01-27 16:20:09.04	47.37	9.75	-46.5	-49.1	6.2	0.00e+00	0	46	104	0	64	19603
2026-01-27 16:20:11.06	46.94	9.86	-46.5	-49.1	6.2	0.00e+00	0	46	104	0	64	19596
2026-01-27 16:20:13.08	46.51	9.96	-46.5	-49.1	6.2	0.00e+00	0	46	104	0	64	19632
2026-01-27 16:20:15.10	46.08	10.07	-46.5	-49.1	6.2	0.00e+00	0	46	104	0	64	19635
2026-01-27 16:20:17.12	45.64	10.17	-46.5	-49.1	6.2	0.00e+00	0	46	104	0	64	19606
2026-01-27 16:20:19.14	45.20	10.27	-46.5	-49.1	6.2	0.00e+00	0	46	104	0	64	19595
2026-01-27 16:20:21.16	44.75	10.38	-46.5	-49.1	6.2	0.00e+00	0	47	104	0	64	19593
2026-01-27 16:20:23.18	44.30	10.48	-46.5	-49.1	6.2	0.00e+00	0	47	104	0	64	19606
2026-01-27 16:20:25.20	43.85	10.58	-46.5	-49.1	6.2	0.00e+00	0	47	104	0	64	19534
2026-01-27 16:20:27.22	43.39	10.68	-46.5	-49.1	6.2	0.00e+00	0	46	104	0	64	19592
2026-01-27 16:20:29.24	42.93	10.78	-46.5	-49.1	6.2	0.00e+00	0	46	104	0	64	19567
2026-01-27 16:20:31.27	42.46	10.87	-46.5	-49.1	6.2	0.00e+00	0	46	104	0	64	19625
2026-01-27 16:20:33.29	41.99	10.97	-46.5	-49.1	6.2	0.00e+00	0	46	104	0	64	19632
2026-01-27 16:20:35.31	41.52	11.06	-46.5	-49.1	6.2	0.00e+00	0	46	104	0	64	19646
2026-01-27 16:20:37.33	41.04	11.16	-46.5	-49.1	6.2	0.00e+00	0	47	104	0	64	19619
2026-01-27 16:20:39.35	40.56	11.25	-46.5	-49.1	6.2	0.00e+00	0	46	104	0	64	19588
2026-01-27 16:20:41.37	40.08	11.34	-46.5	-49.1	6.2	0.00e+00	0	46	104	0	64	19674
2026-01-27 16:20:43.39	39.59	11.43	-46.5	-49.1	6.2	0.00e+00	0	46	104	0	64	19569
2026-01-27 16:20:45.42	39.10	11.52	-46.5	-49.1	6.2	0.00e+00	0	47	104	0	64	19623
2026-01-27 16:20:47.44	38.61	11.61	-46.5	-49.1	6.2	0.00e+00	0	46	104	0	64	19621
2026-01-27 16:20:49.46	38.11	11.69	-46.5	-49.1	6.2	0.00e+00	0	46	104	0	64	19633
2026-01-27 16:20:51.47	37.61	11.78	-46.5	-49.1	6.2	0.00e+00	0	46	104	0	64	19586
2026-01-27 16:20:53.49	37.11	11.86	-46.5	-49.1	6.2	0.00e+00	0	46	104	0	64	19613
2026-01-27 16:20:55.51	36.60	11.94	-46.5	-49.1	6.2	0.00e+00	0	47	104	0	64	19682
2026-01-27 16:20:57.53	36.09	12.02	-46.5	-49.1	6.2	0.00e+00	0	47	104	0	64	19653
2026-01-27 16:20:59.55	35.57	12.10	-46.5	-49.1	6.2	0.00e+00	0	47	104	0	64	19596
2026-01-27 16:21:01.58	35.05	12.17	-46.5	-49.1	6.2	0.00e+00	0	46	104	0	64	19622
2026-01-27 16:21:03.60	34.53	12.25	-46.5	-49.1	6.2	0.00e+00	0	46	104	0	64	19631
2026-01-27 16:21:05.62	34.01	12.32	-46.5	-49.1	6.2	0.00e+00	0	47	104	0	64	19582
2026-01-27 16:21:07.64	33.48	12.39	-46.5	-49.1	6.2	0.00e+00	0	47	104	0	64	19591
2026-01-27 16:21:09.66	32.95	12.46	-46.5	-49.1	6.2	0.00e+00	0	47	104	0	64	19598
2026-01-27 16:21:11.68	32.42	12.53	-46.5	-49.1	6.2	0.00e+00	0	47	104	0	64	19592
2026-01-27 16:21:13.70	31.88	12.59	-46.5	-49.1	6.2	0.00e+00	0	46	104	0	64	19608
2026-01-27 16:21:15.72	31.34	12.66	-46.5	-49.1	6.2	0.00e+00	0	46	104	0	64	19590
2026-01-27 16:21:17.74	30.80	12.72	-46.5	-49.1	6.2	0.00e+00	0	46	104	0	64	19599
2026-01-27 16:21:19.76	30.26	12.78	-46.5	-49.1	6.2	0.00e+00	0	46	104	0	64	19605
2026-01-27 16:21:21.78	29.71	12.84	-46.5	-49.1	6.2	0.00e+00	0	47	104	0	64	19614
2026-01-27 16:21:23.80	29.16	12.89	-46.5	-49.1	6.2	0.00e+00	0	46	104	0	64	19605
2026-01-27 16:21:25.82	28.61	12.95	-46.5	-49.1	6.2	0.00e+00	0	47	104	0	64	19564
2026-01-27 16:21:27.84	28.05	13.00	-46.5	-49.1	6.2	0.00e+00	0	46	104	0	64	19620
2026-01-27 16:21:29.87	27.49	13.05	-46.5	-49.1	6.2	0.00e+00	0	47	104	0	64	19623
2026-01-27 16:21:31.89	26.94	13.09	-46.5	-49.1	6.2	0.00e+00	0	46	104	0	64	19620
2026-01-27 16:21:33.91	26.38	13.14	-46.5	-49.1	6.2	0.00e+00	0	47	104	0	64	19658
2026-01-27 16:21:35.93	25.81	13.18	-46.5	-49.1	6.2	0.00e+00	0	47	104	0	64	19669
2026-01-27 16:21:37.95	25.25	13.22	-46.5	-49.1	6.2	0.00e+00	0	46	104	0	64	19652
2026-01-27 16:21:39.97	24.68	13.26	-46.5	-49.1	6.2	0.00e+00	0	47	104	0	64	19616
2026-01-27 16:21:41.99	24.11	13.29	-46.5	-49.1	6.2	0.00e+00	0	47	104	0	64	19614
2026-01-27 16:21:44.01	23.54	13.33	-46.5	-49.1	6.2	0.00e+00	0	47	104	0	64	19639
2026-01-27 16:21:46.03	22.97	13.36	-46.5	-49.1	6.2	0.00e+00	0	47	104	0	64	19576
2026-01-27 16:21:48.05	22.40	13.38	-46.5	-49.1	6.2	0.00e+00	0	47	104	0	64	19589
2026-01-27 16:21:50.07	21.83	13.41	-46.5	-49.1	6.2	0.00e+00	0	47	104	0	64	19615
2026-01-27 16:21:52.09	21.25	13.43	-46.5	-49.1	6.2	0.00e+00	0	47	104	0	64	19663
2026-01-27 16:21:54.12	20.67	13.45	-46.5	-49.1	6.2	0.00e+00	0	47	104	0	64	19601
2026-01-27 16:21:56.14	20.10	13.47	-46.5	-49.1	6.2	0.00e+00	0	47	104	0	64	19586
2026-01-27 16:21:58.16	19.52	13.49	-46.5	-49.1	6.2	0.00e+00	0	46	104	0	64	19529
2026-01-27 16:22:00.18	18.94	13.50	-46.5	-49.1	6.2	0.00e+00	0	47	104	0	64	19563
2026-01-27 16:22:02.20	18.36	13.51	-46.5	-49.1	6.2	0.00e+00	0	47	104	0	64	19580
2026-01-27 16:22:04.22	17.78	13.52	-46.5	-49.1	6.2	0.00e+00	0	47	104	0	64	19631
2026-01-27 16:22:06.25	17.20	13.53	-46.5	-49.1	6.2	0.00e+00	0	47	104	0	64	19607
2026-01-27 16:22:08.26	16.62	13.53	-46.5	-49.1	6.2	0.00e+00	0	47	104	0	64	19617
2026-01-27 16:22:10.29	16.04	13.53	-46.5	-49.1	6.2	0.00e+00	0	47	104	0	64	19591
2026-01-27 16:22:12.31	15.46	13.53	-46.5	-49.1	6.2	0.00e+00	0	47	104	0	64	19598
2026-01-27 16:22:14.33	14.88	13.52	-46.5	-49.1	6.2	0.00e+00	0	47	104	0	64	19602
2026-01-27 16:22:16.35	14.30	13.52	-46.5	-49.1	6.2	0.00e+00	0	47	104	0	64	19628
2026-01-27 16:22:18.37	13.72	13.51	-46.5	-49.1	6.2	0.00e+00	0	47	104	0	64	19588
2026-01-27 16:22:20.39	13.14	13.49	-46.5	-49.1	6.2	0.00e+00	0	47	104	0	64	19608
2026-01-27 16:22:22.41	12.56	13.48	-46.5	-49.1	6.2	0.00e+00	0	47	104	0	64	19637
2026-01-27 16:22:24.43	11.99	13.46	-46.5	-49.1	6.2	0.00e+00	0	47	104	0	64	19572
2026-01-27 16:22:26.45	11.41	13.44	-46.5	-49.1	6.2	0.00e+00	0	47	104	0	64	19584
2026-01-27 16:22:28.46	10.84	13.42	-46.5	-49.1	6.2	0.00e+00	0	47	104	0	64	19574
2026-01-27 16:22:30.49	10.26	13.40	-46.5	-49.1	6.2	0.00e+00	0	47	104	0	64	19641
2026-01-27 16:22:32.51	9.69	13.37	-46.5	-49.1	6.2	0.00e+00	0	47	104	0	64	19625
2026-01-27 16:22:34.53	9.11	13.34	-46.5	-49.1	6.2	0.00e+00	0	47	104	0	64	19605
2026-01-27 16:22:36.55	8.54	13.31	-46.5	-49.1	6.2	0.00e+00	0	47	104	0	64	19623
2026-01-27 16:22:38.57	7.97	13.27	-46.5	-49.1	6.2	0.00e+00	0	47	104	0	64	19573
2026-01-27 16:22:40.59	7.41	13.24	-46.5	-49.1	6.2	0.00e+00	0	47	104	0	64	19632
2026-01-27 16:22:42.61	6.84	13.20	-46.5	-49.1	6.2	0.00e+00	0	47	104	0	64	19566
2026-01-27 16:22:44.63	6.28	13.16	-46.5	-49.1	6.2	0.00e+00	0	47	104	0	64	19669
2026-01-27 16:22:46.65	5.72	13.11	-46.5	-49.1	6.2	0.00e+00	0	47	104	0	64	19676
2026-01-27 16:22:48.67	5.16	13.07	-46.5	-49.1	6.2	0.00e+00	0	47	104	0	64	19652
2026-01-27 16:22:50.69	4.60	13.02	-46.5	-49.1	6.2	0.00e+00	0	47	104	0	64	19638
2026-01-27 16:22:52.71	4.04	12.97	-46.5	-49.1	6.2	0.00e+00	0	47	104	0	64	19587
2026-01-27 16:22:54.74	3.48	12.92	-46.5	-49.1	6.2	0.00e+00	0	47	104	0	64	19591
2026-01-27 16:22:56.75	2.94	12.86	-46.5	-49.1	6.2	0.00e+00	0	47	104	0	64	19605
2026-01-27 16:22:58.78	2.38	12.81	-46.5	-49.1	6.2	0.00e+00	0	47	104	0	64	19616
2026-01-27 16:23:00.80	1.84	12.75	-46.5	-49.1	6.2	0.00e+00	0	47	104	0	64	19662
2026-01-27 16:23:02.82	1.30	12.69	-46.5	-49.1	6.2	0.00e+00	0	47	104	0	64	19613
2026-01-27 16:23:04.84	0.75	12.62	-46.5	-49.1	6.2	0.00e+00	0	47	104	0	64	19673
2026-01-27 16:23:06.86	0.22	12.56	-46.5	-49.1	6.2	0.00e+00	0	47	104	0	64	19622
2026-01-27 16:23:08.88	359.68	12.49	-46.5	-49.1	6.2	0.00e+00	0	47	104	0	64	19638
2026-01-27 16:23:10.90	359.15	12.42	-46.5	-49.1	6.2	0.00e+00	0	47	104	0	64	19630
2026-01-27 16:23:12.92	358.62	12.35	-46.5	-49.1	6.2	0.00e+00	0	47	104	0	64	19653
2026-01-27 16:23:14.95	358.09	12.28	-46.5	-49.1	6.2	0.00e+00	0	47	104	0	64	19639
2026-01-27 16:23:16.97	357.57	12.21	-46.5	-49.1	6.2	0.00e+00	0	47	104	0	64	19627
2026-01-27 16:23:18.99	357.05	12.13	-46.5	-49.1	6.2	0.00e+00	0	47	104	0	64	19671
2026-01-27 16:23:21.01	356.53	12.05	-46.5	-49.1	6.2	0.00e+00	0	47	104	0	64	19644
2026-01-27 16:23:23.03	356.02	11.97	-46.5	-49.1	6.2	0.00e+00	0	47	104	0	64	19604
2026-01-27 16:23:25.05	355.51	11.89	-46.5	-49.1	6.2	0.00e+00	0	47	104	0	64	19628
2026-01-27 16:23:27.07	355.00	11.81	-46.5	-49.1	6.2	0.00e+00	0	47	104	0	64	19672
2026-01-27 16:23:29.09	354.50	11.73	-46.5	-49.2	6.2	0.00e+00	0	47	104	0	64	19728
2026-01-27 16:23:31.11	354.00	11.64	-46.5	-49.2	6.2	0.00e+00	0	47	104	0	64	19708
2026-01-27 16:23:33.13	353.50	11.56	-46.5	-49.1	6.2	0.00e+00	0	47	104	0	64	19643
2026-01-27 16:23:35.15	353.01	11.47	-46.5	-49.1	6.2	0.00e+00	0	47	104	0	64	19629
2026-01-27 16:23:37.18	352.52	11.38	-46.5	-49.1	6.2	0.00e+00	0	47	104	0	64	19615
2026-01-27 16:23:39.20	352.03	11.29	-46.5	-49.1	6.2	0.00e+00	0	47	104	0	64	19629
2026-01-27 16:23:41.22	351.55	11.19	-46.5	-49.1	6.2	0.00e+00	0	47	104	0	64	19645
2026-01-27 16:23:43.24	351.07	11.10	-46.5	-49.1	6.2	0.00e+00	0	47	104	0	64	19648
2026-01-27 16:23:45.26	350.59	11.01	-46.5	-49.1	6.2	0.00e+00	0	47	104	0	64	19614
2026-01-27 16:23:47.28	350.12	10.91	-46.5	-49.1	6.2	0.00e+00	0	47	104	0	64	19612
2026-01-27 16:23:49.30	349.66	10.81	-46.5	-49.1	6.2	0.00e+00	0	47	104	0	64	19588
2026-01-27 16:23:51.32	349.19	10.72	-46.5	-49.1	6.2	0.00e+00	0	47	104	0	64	19606
2026-01-27 16:23:53.34	348.73	10.62	-46.5	-49.1	6.2	0.00e+00	0	47	104	0	64	19586
2026-01-27 16:23:55.36	348.28	10.52	-46.5	-49.1	6.2	0.00e+00	0	47	104	0	64	19648
2026-01-27 16:23:57.38	347.82	10.42	-46.5	-49.1	6.2	0.00e+00	0	47	104	0	64	19586
2026-01-27 16:23:59.40	347.38	10.32	-46.5	-49.1	6.2	0.00e+00	0	47	104	0	64	19657
2026-01-27 16:24:01.42	346.93	10.21	-46.5	-49.1	6.2	0.00e+00	0	47	104	0	64	19620
2026-01-27 16:24:03.44	346.49	10.11	-46.5	-49.1	6.2	0.00e+00	0	47	104	0	64	19640
2026-01-27 16:24:05.46	346.05	10.00	-46.5	-49.2	6.2	0.00e+00	0	47	104	0	64	19707
2026-01-27 16:24:07.48	345.62	9.90	-46.5	-49.1	6.2	0.00e+00	0	47	104	0	64	19611
2026-01-27 16:24:09.51	345.19	9.79	-46.5	-49.1	6.2	0.00e+00	0	47	104	0	64	19627
2026-01-27 16:24:11.53	344.76	9.69	-46.5	-49.1	6.2	0.00e+00	0	47	104	0	64	19600
2026-01-27 16:24:13.55	344.34	9.58	-46.5	-49.1	6.2	0.00e+00	0	47	104	0	64	19600
2026-01-27 16:24:15.57	343.92	9.47	-46.5	-49.1	6.2	0.00e+00	0	47	104	0	64	19608
2026-01-27 16:24:17.59	343.51	9.36	-46.5	-49.1	6.2	0.00e+00	0	47	104	0	64	19685
2026-01-27 16:24:19.61	343.10	9.25	-46.5	-49.1	6.2	0.00e+00	0	47	104	0	64	19671
2026-01-27 16:24:21.63	342.69	9.14	-46.5	-49.1	6.2	0.00e+00	0	47	104	0	64	19622
2026-01-27 16:24:23.65	342.29	9.03	-46.5	-49.1	6.2	0.00e+00	0	47	104	0	64	19520
2026-01-27 16:24:25.67	341.89	8.92	-46.5	-49.0	6.2	0.00e+00	0	47	104	0	64	19434
2026-01-27 16:24:27.69	341.49	8.81	-46.5	-49.0	6.2	0.00e+00	0	47	104	0	64	19343
2026-01-27 16:24:29.71	341.10	8.70	-46.4	-49.0	6.2	0.00e+00	0	47	104	0	64	19385
2026-01-27 16:24:31.73	340.71	8.59	-46.5	-49.1	6.2	0.00e+00	0	47	104	0	64	19547
2026-01-27 16:24:33.76	340.33	8.47	-46.5	-49.1	6.2	0.00e+00	0	47	104	0	64	19541
2026-01-27 16:24:35.78	339.94	8.36	-46.5	-49.1	6.2	0.00e+00	0	47	104	0	64	19675
2026-01-27 16:24:37.80	339.57	8.25	-46.5	-49.1	6.2	0.00e+00	0	47	104	0	64	19523
2026-01-27 16:24:39.82	339.19	8.13	-46.5	-49.1	6.2	0.00e+00	0	47	104	0	64	19511
2026-01-27 16:24:41.84	338.82	8.02	-46.5	-49.1	6.2	0.00e+00	0	47	104	0	64	19523
2026-01-27 16:24:43.86	338.46	7.90	-46.5	-49.1	6.2	0.00e+00	0	47	104	0	64	19560
2026-01-27 16:24:45.88	338.09	7.79	-46.5	-49.1	6.2	0.00e+00	0	47	104	0	64	19652
2026-01-27 16:24:47.90	337.73	7.67	-46.5	-49.1	6.2	0.00e+00	0	47	104	0	64	19640
2026-01-27 16:24:49.92	337.38	7.56	-46.5	-49.1	6.2	0.00e+00	0	47	104	0	64	19660
2026-01-27 16:24:51.94	337.03	7.44	-46.5	-49.1	6.2	0.00e+00	0	47	104	0	64	19566
2026-01-27 16:24:53.96	336.68	7.33	-46.5	-49.1	6.2	0.00e+00	0	47	104	0	64	19600
2026-01-27 16:24:55.99	336.33	7.21	-46.5	-49.1	6.2	0.00e+00	0	47	104	0	64	19639
2026-01-27 16:24:58.01	335.99	7.10	-46.5	-49.1	6.2	0.00e+00	0	47	104	0	64	19648
2026-01-27 16:25:00.03	335.65	6.98	-46.5	-49.1	6.2	0.00e+00	0	47	104	0	64	19616
2026-01-27 16:25:02.05	335.31	6.86	-46.5	-49.1	6.2	0.00e+00	0	47	104	0	64	19664
2026-01-27 16:25:04.07	334.98	6.75	-46.5	-49.1	6.2	0.00e+00	0	47	104	0	64	19608
2026-01-27 16:25:06.09	334.65	6.63	-46.5	-49.1	6.2	0.00e+00	0	47	104	0	64	19658
2026-01-27 16:25:08.11	334.33	6.51	-46.5	-49.1	6.2	0.00e+00	0	47	104	0	64	19617
2026-01-27 16:25:10.13	334.00	6.40	-46.5	-49.1	6.2	0.00e+00	0	47	104	0	64	19553
2026-01-27 16:25:12.15	333.69	6.28	-46.5	-49.1	6.2	0.00e+00	0	47	104	0	64	19597
2026-01-27 16:25:14.17	333.37	6.16	-46.5	-49.1	6.2	0.00e+00	0	47	104	0	64	19597
2026-01-27 16:25:16.20	333.05	6.05	-46.5	-49.1	6.2	0.00e+00	0	47	104	0	64	19540
2026-01-27 16:25:18.22	332.75	5.93	-46.5	-49.1	6.2	0.00e+00	0	47	104	0	64	19556
2026-01-27 16:25:20.24	332.44	5.81	-46.5	-49.1	6.2	0.00e+00	0	47	104	0	64	19606
2026-01-27 16:25:22.26	332.14	5.70	-46.5	-49.1	6.2	0.00e+00	0	47	104	0	64	19638
2026-01-27 16:25:24.28	331.83	5.58	-46.5	-49.1	6.2	0.00e+00	0	47	104	0	64	19610
2026-01-27 16:25:26.30	331.54	5.46	-46.5	-49.1	6.2	0.00e+00	0	47	104	0	64	19622
2026-01-27 16:25:28.32	331.24	5.35	-46.5	-49.1	6.2	0.00e+00	0	47	104	0	64	19577
2026-01-27 16:25:30.34	330.95	5.23	-46.5	-49.1	6.2	0.00e+00	0	47	104	0	64	19641
2026-01-27 16:25:32.36	330.66	5.12	-46.5	-49.1	6.2	0.00e+00	0	47	104	0	64	19611
2026-01-27 16:25:34.38	330.38	5.00	-46.5	-49.2	6.2	0.00e+00	0	47	104	0	64	19718
2026-01-27 16:25:36.40	330.09	4.88	-46.5	-49.1	6.2	0.00e+00	0	47	104	0	64	19630
2026-01-27 16:25:38.42	329.81	4.77	-46.5	-49.1	6.2	0.00e+00	0	47	104	0	64	19678
2026-01-27 16:25:40.45	329.54	4.65	-46.5	-49.1	6.2	0.00e+00	0	47	104	0	64	19626
2026-01-27 16:25:42.47	329.26	4.54	-46.5	-49.1	6.2	0.00e+00	0	47	104	0	64	19633
2026-01-27 16:25:44.49	328.99	4.42	-46.5	-49.1	6.2	0.00e+00	0	47	104	0	64	19626
2026-01-27 16:25:46.51	328.72	4.30	-46.5	-49.1	6.2	0.00e+00	0	47	104	0	64	19642
2026-01-27 16:25:48.52	328.46	4.19	-46.5	-49.1	6.2	0.00e+00	0	47	104	0	64	19607
2026-01-27 16:25:50.54	328.19	4.08	-46.5	-49.1	6.2	0.00e+00	0	47	104	0	64	19631
2026-01-27 16:25:52.56	327.93	3.96	-46.5	-49.1	6.2	0.00e+00	0	47	104	0	64	19627
2026-01-27 16:25:54.58	327.67	3.85	-46.5	-49.1	6.2	0.00e+00	0	47	104	0	64	19643
2026-01-27 16:25:56.60	327.42	3.73	-46.5	-49.1	6.2	0.00e+00	0	47	104	0	64	19664
2026-01-27 16:25:58.62	327.16	3.62	-46.5	-49.1	6.2	0.00e+00	0	47	104	0	64	19623
2026-01-27 16:26:00.65	326.91	3.50	-46.5	-49.1	6.2	0.00e+00	0	47	104	0	64	19658
2026-01-27 16:26:02.66	326.66	3.39	-46.5	-49.1	6.2	0.00e+00	0	47	104	0	64	19655
2026-01-27 16:26:04.68	326.42	3.27	-46.5	-49.1	6.2	0.00e+00	0	47	104	0	64	19627
2026-01-27 16:26:06.70	326.17	3.16	-46.5	-49.1	6.2	0.00e+00	0	47	104	0	64	19637
2026-01-27 16:26:08.72	325.93	3.05	-46.5	-49.1	6.2	0.00e+00	0	47	104	0	64	19631
2026-01-27 16:26:10.75	325.69	2.93	-46.5	-49.1	6.2	0.00e+00	0	47	104	0	64	19646
2026-01-27 16:26:12.77	325.46	2.82	-46.5	-49.1	6.2	0.00e+00	0	47	104	0	64	19644
2026-01-27 16:26:14.79	325.22	2.71	-46.5	-49.1	6.2	0.00e+00	0	47	104	0	64	19623
2026-01-27 16:26:16.81	324.99	2.59	-46.5	-49.2	6.2	0.00e+00	0	47	104	0	64	19710
2026-01-27 16:26:18.83	324.76	2.48	-46.5	-49.1	6.2	0.00e+00	0	47	104	0	64	19591
2026-01-27 16:26:20.85	324.53	2.37	-46.5	-49.1	6.2	0.00e+00	0	47	104	0	64	19613
2026-01-27 16:26:22.87	324.31	2.26	-46.5	-49.1	6.2	0.00e+00	0	47	104	0	64	19604
2026-01-27 16:26:24.89	324.09	2.15	-46.5	-49.1	6.2	0.00e+00	0	47	104	0	64	19645
2026-01-27 16:26:26.91	323.87	2.03	-46.5	-49.1	6.2	0.00e+00	0	47	104	0	64	19628

#Closed at: 2026-01-27 16:26:28
#Recorded file [0 MB]: D:/lorett/data/31045_260127_191751.dat