passes_logs/2026/01/27/R3.2S_Murmansk_2ch/R3.2S_Murmansk_2ch__20260127_164352_JL1KF02B03_rec.log

#Pass ID: 20260127_164352_JL1KF02B03
#Satellite: JL1KF02B03
#Configuration: 01B_900M
#almurnet v.1.7.20251203
#Start time: 2026-01-27 16:43:53

#Version: 2.2.20231116
#Station: R3.2S_Murmansk_2ch
#Location: 33.079688 lon 68.888172 lat
#TLE: 1 61190U 24169B   26026.82354794  .00007267  00000+0  45535-3 0  9993
#TLE: 2 61190  97.5615 117.7873 0015016 142.5189 217.7090 15.09562084 74501

#Time	Az	El	Level	Level2	SNR	BER	BlckErr	Temp	State	Recorded	gain1	gain2
2026-01-27 16:43:53.55	78.87	2.04	-46.6	-49.2	6.2	0.00e+00	0	44	0	0	63	20884
2026-01-27 16:43:55.57	78.66	2.16	-46.5	-49.1	6.2	0.00e+00	0	44	104	0	64	19495
2026-01-27 16:43:57.59	78.46	2.27	-46.5	-49.1	6.2	0.00e+00	0	44	104	0	64	19524
2026-01-27 16:43:59.61	78.25	2.39	-46.5	-49.1	6.2	0.00e+00	0	44	104	0	64	19503
2026-01-27 16:44:01.64	78.05	2.51	-46.5	-49.1	6.2	0.00e+00	0	44	104	0	64	19501
2026-01-27 16:44:03.66	77.84	2.62	-46.5	-49.1	6.2	0.00e+00	0	44	104	0	64	19510
2026-01-27 16:44:05.68	77.62	2.74	-46.5	-49.0	6.2	0.00e+00	0	44	104	0	64	19462
2026-01-27 16:44:07.70	77.41	2.86	-46.5	-49.1	6.2	0.00e+00	0	44	104	0	64	19546
2026-01-27 16:44:09.72	77.19	2.98	-46.5	-49.1	6.2	0.00e+00	0	44	104	0	64	19515
2026-01-27 16:44:11.75	76.97	3.10	-46.5	-49.1	6.2	0.00e+00	0	45	104	0	64	19509
2026-01-27 16:44:13.76	76.75	3.21	-46.5	-49.1	6.2	0.00e+00	0	45	104	0	64	19503
2026-01-27 16:44:15.79	76.53	3.33	-46.5	-49.1	6.2	0.00e+00	0	45	104	0	64	19524
2026-01-27 16:44:17.81	76.31	3.45	-46.5	-49.0	6.2	0.00e+00	0	45	104	0	64	19467
2026-01-27 16:44:19.83	76.08	3.57	-46.5	-49.0	6.2	0.00e+00	0	45	104	0	64	19460
2026-01-27 16:44:21.85	75.85	3.69	-46.5	-49.1	6.2	0.00e+00	0	45	104	0	64	19512
2026-01-27 16:44:23.87	75.61	3.81	-46.5	-49.1	6.2	0.00e+00	0	45	104	0	64	19542
2026-01-27 16:44:25.89	75.38	3.93	-46.5	-49.1	6.2	0.00e+00	0	45	104	0	64	19537
2026-01-27 16:44:27.91	75.14	4.05	-46.5	-49.1	6.2	0.00e+00	0	45	104	0	64	19521
2026-01-27 16:44:29.93	74.90	4.17	-46.5	-49.1	6.2	0.00e+00	0	45	104	0	64	19523
2026-01-27 16:44:31.95	74.66	4.30	-46.5	-49.1	6.2	0.00e+00	0	45	104	0	64	19528
2026-01-27 16:44:33.97	74.41	4.42	-46.5	-49.1	6.2	0.00e+00	0	45	104	0	64	19542
2026-01-27 16:44:35.99	74.17	4.54	-46.5	-49.1	6.2	0.00e+00	0	45	104	0	64	19541
2026-01-27 16:44:38.01	73.92	4.66	-46.5	-49.1	6.2	0.00e+00	0	45	104	0	64	19518
2026-01-27 16:44:40.03	73.66	4.78	-46.5	-49.0	6.2	0.00e+00	0	45	104	0	64	19476
2026-01-27 16:44:42.05	73.41	4.91	-46.5	-49.1	6.2	0.00e+00	0	45	104	0	64	19592
2026-01-27 16:44:44.07	73.15	5.03	-46.5	-49.1	6.2	0.00e+00	0	45	104	0	64	19537
2026-01-27 16:44:46.10	72.89	5.15	-46.5	-49.1	6.2	0.00e+00	0	46	104	0	64	19536
2026-01-27 16:44:48.12	72.62	5.28	-46.5	-49.1	6.2	0.00e+00	0	45	104	0	64	19529
2026-01-27 16:44:50.14	72.36	5.40	-46.5	-49.1	6.2	0.00e+00	0	45	104	0	64	19537
2026-01-27 16:44:52.16	72.09	5.53	-46.5	-49.1	6.2	0.00e+00	0	45	104	0	64	19577
2026-01-27 16:44:54.18	71.81	5.65	-46.5	-49.1	6.2	0.00e+00	0	45	104	0	64	19500
2026-01-27 16:44:56.20	71.54	5.78	-46.5	-49.1	6.2	0.00e+00	0	45	104	0	64	19480
2026-01-27 16:44:58.22	71.26	5.90	-46.5	-49.1	6.2	0.00e+00	0	46	104	0	64	19557
2026-01-27 16:45:00.24	70.98	6.03	-46.5	-49.1	6.2	0.00e+00	0	46	104	0	64	19557
2026-01-27 16:45:02.26	70.69	6.15	-46.5	-49.1	6.2	0.00e+00	0	45	104	0	64	19565
2026-01-27 16:45:04.28	70.41	6.28	-46.5	-49.1	6.2	0.00e+00	0	46	104	0	64	19515
2026-01-27 16:45:06.30	70.11	6.40	-46.5	-49.1	6.2	0.00e+00	0	46	104	0	64	19553
2026-01-27 16:45:08.32	69.82	6.53	-46.5	-49.1	6.2	0.00e+00	0	46	104	0	64	19598
2026-01-27 16:45:10.35	69.52	6.65	-46.5	-49.1	6.2	0.00e+00	0	46	104	0	64	19523
2026-01-27 16:45:12.37	69.22	6.78	-46.5	-49.1	6.2	0.00e+00	0	46	104	0	64	19527
2026-01-27 16:45:14.39	68.92	6.91	-46.5	-49.1	6.2	0.00e+00	0	46	104	0	64	19522
2026-01-27 16:45:16.41	68.61	7.03	-46.5	-49.1	6.2	0.00e+00	0	46	104	0	64	19554
2026-01-27 16:45:18.43	68.30	7.16	-46.5	-49.1	6.2	0.00e+00	0	46	104	0	64	19585
2026-01-27 16:45:20.45	67.99	7.29	-46.5	-49.1	6.2	0.00e+00	0	46	104	0	64	19545
2026-01-27 16:45:22.47	67.67	7.41	-46.5	-49.1	6.2	0.00e+00	0	46	104	0	64	19592
2026-01-27 16:45:24.49	67.35	7.54	-46.5	-49.1	6.2	0.00e+00	0	46	104	0	64	19568
2026-01-27 16:45:26.52	67.02	7.67	-46.5	-49.1	6.2	0.00e+00	0	46	104	0	64	19556
2026-01-27 16:45:28.54	66.70	7.80	-46.5	-49.1	6.2	0.00e+00	0	46	104	0	64	19570
2026-01-27 16:45:30.56	66.37	7.92	-46.5	-49.1	6.2	0.00e+00	0	46	104	0	64	19617
2026-01-27 16:45:32.58	66.03	8.05	-46.5	-49.1	6.2	0.00e+00	0	46	104	0	64	19557
2026-01-27 16:45:34.60	65.69	8.18	-46.5	-49.1	6.2	0.00e+00	0	46	104	0	64	19526
2026-01-27 16:45:36.62	65.35	8.30	-46.5	-49.1	6.2	0.00e+00	0	46	104	0	64	19602
2026-01-27 16:45:38.64	65.00	8.43	-46.5	-49.1	6.2	0.00e+00	0	46	104	0	64	19562
2026-01-27 16:45:40.66	64.66	8.56	-46.5	-49.1	6.2	0.00e+00	0	46	104	0	64	19520
2026-01-27 16:45:42.68	64.30	8.69	-46.5	-49.1	6.2	0.00e+00	0	46	104	0	64	19550
2026-01-27 16:45:44.70	63.95	8.81	-46.5	-49.1	6.2	0.00e+00	0	46	104	0	64	19546
2026-01-27 16:45:46.73	63.58	8.94	-46.5	-49.1	6.2	0.00e+00	0	46	104	0	64	19537
2026-01-27 16:45:48.74	63.22	9.07	-46.5	-49.1	6.2	0.00e+00	0	46	104	0	64	19594
2026-01-27 16:45:50.76	62.85	9.19	-46.5	-49.1	6.2	0.00e+00	0	46	104	0	64	19628
2026-01-27 16:45:52.79	62.48	9.32	-46.5	-49.1	6.2	0.00e+00	0	46	104	0	64	19584
2026-01-27 16:45:54.81	62.10	9.45	-46.5	-49.1	6.2	0.00e+00	0	46	104	0	64	19515
2026-01-27 16:45:56.83	61.72	9.57	-46.5	-49.1	6.2	0.00e+00	0	46	104	0	64	19573
2026-01-27 16:45:58.85	61.34	9.70	-46.5	-49.1	6.2	0.00e+00	0	46	104	0	64	19566
2026-01-27 16:46:00.87	60.95	9.82	-46.5	-49.1	6.2	0.00e+00	0	46	104	0	64	19603
2026-01-27 16:46:02.89	60.55	9.95	-46.5	-49.1	6.2	0.00e+00	0	46	104	0	64	19613
2026-01-27 16:46:04.92	60.15	10.08	-46.5	-49.1	6.2	0.00e+00	0	46	104	0	64	19643
2026-01-27 16:46:06.94	59.75	10.20	-46.5	-49.1	6.2	0.00e+00	0	46	104	0	64	19602
2026-01-27 16:46:08.96	59.35	10.32	-46.5	-49.1	6.2	0.00e+00	0	46	104	0	64	19511
2026-01-27 16:46:10.98	58.94	10.45	-46.5	-49.1	6.2	0.00e+00	0	46	104	0	64	19583
2026-01-27 16:46:13.00	58.53	10.57	-46.5	-49.1	6.2	0.00e+00	0	46	104	0	64	19568
2026-01-27 16:46:15.02	58.11	10.69	-46.5	-49.1	6.2	0.00e+00	0	46	104	0	64	19570
2026-01-27 16:46:17.04	57.69	10.82	-46.5	-49.1	6.2	0.00e+00	0	46	104	0	64	19577
2026-01-27 16:46:19.06	57.26	10.94	-46.5	-49.1	6.2	0.00e+00	0	46	104	0	64	19590
2026-01-27 16:46:21.09	56.83	11.06	-46.5	-49.1	6.2	0.00e+00	0	46	104	0	64	19597
2026-01-27 16:46:23.11	56.39	11.18	-46.5	-49.1	6.2	0.00e+00	0	46	104	0	64	19547
2026-01-27 16:46:25.13	55.95	11.30	-46.5	-49.1	6.2	0.00e+00	0	46	104	0	64	19567
2026-01-27 16:46:27.15	55.51	11.42	-46.5	-49.1	6.2	0.00e+00	0	46	104	0	64	19610
2026-01-27 16:46:29.17	55.06	11.54	-46.5	-49.1	6.2	0.00e+00	0	47	104	0	64	19604
2026-01-27 16:46:31.19	54.61	11.66	-46.5	-49.1	6.2	0.00e+00	0	46	104	0	64	19542
2026-01-27 16:46:33.21	54.15	11.77	-46.5	-49.1	6.2	0.00e+00	0	46	104	0	64	19567
2026-01-27 16:46:35.23	53.69	11.89	-46.5	-49.1	6.2	0.00e+00	0	46	104	0	64	19637
2026-01-27 16:46:37.25	53.22	12.01	-46.5	-49.1	6.2	0.00e+00	0	46	104	0	64	19549
2026-01-27 16:46:39.27	52.75	12.12	-46.5	-49.1	6.2	0.00e+00	0	46	104	0	64	19587
2026-01-27 16:46:41.29	52.28	12.23	-46.5	-49.1	6.2	0.00e+00	0	46	104	0	64	19548
2026-01-27 16:46:43.31	51.80	12.35	-46.5	-49.1	6.2	0.00e+00	0	46	104	0	64	19572
2026-01-27 16:46:45.33	51.32	12.46	-46.5	-49.1	6.2	0.00e+00	0	46	104	0	64	19591
2026-01-27 16:46:47.35	50.83	12.57	-46.5	-49.1	6.2	0.00e+00	0	46	104	0	64	19540
2026-01-27 16:46:49.37	50.34	12.68	-46.5	-49.1	6.2	0.00e+00	0	46	104	0	64	19582
2026-01-27 16:46:51.39	49.84	12.78	-46.5	-49.1	6.2	0.00e+00	0	46	104	0	64	19639
2026-01-27 16:46:53.42	49.34	12.89	-46.5	-49.1	6.2	0.00e+00	0	46	104	0	64	19593
2026-01-27 16:46:55.44	48.84	13.00	-46.5	-49.1	6.2	0.00e+00	0	46	104	0	64	19587
2026-01-27 16:46:57.46	48.33	13.10	-46.5	-49.1	6.2	0.00e+00	0	46	104	0	64	19522
2026-01-27 16:46:59.48	47.81	13.20	-46.5	-49.1	6.2	0.00e+00	0	46	104	0	64	19626
2026-01-27 16:47:01.50	47.30	13.30	-46.5	-49.1	6.2	0.00e+00	0	46	104	0	64	19622
2026-01-27 16:47:03.52	46.77	13.40	-46.5	-49.1	6.2	0.00e+00	0	47	104	0	64	19589
2026-01-27 16:47:05.54	46.25	13.50	-46.5	-49.1	6.2	0.00e+00	0	47	104	0	64	19614
2026-01-27 16:47:07.56	45.72	13.60	-46.5	-49.1	6.2	0.00e+00	0	46	104	0	64	19581
2026-01-27 16:47:09.58	45.18	13.69	-46.5	-49.1	6.2	0.00e+00	0	46	104	0	64	19645
2026-01-27 16:47:11.61	44.64	13.78	-46.5	-49.1	6.2	0.00e+00	0	46	104	0	64	19582
2026-01-27 16:47:13.63	44.10	13.88	-46.5	-49.1	6.2	0.00e+00	0	46	104	0	64	19575
2026-01-27 16:47:15.65	43.56	13.96	-46.5	-49.1	6.2	0.00e+00	0	47	104	0	64	19600
2026-01-27 16:47:17.67	43.01	14.05	-46.5	-49.1	6.2	0.00e+00	0	46	104	0	64	19603
2026-01-27 16:47:19.69	42.45	14.14	-46.5	-49.1	6.2	0.00e+00	0	46	104	0	64	19633
2026-01-27 16:47:21.71	41.90	14.22	-46.5	-49.1	6.2	0.00e+00	0	46	104	0	64	19626
2026-01-27 16:47:23.73	41.33	14.30	-46.5	-49.1	6.2	0.00e+00	0	46	104	0	64	19625
2026-01-27 16:47:25.75	40.77	14.38	-46.5	-49.1	6.2	0.00e+00	0	46	104	0	64	19572
2026-01-27 16:47:27.77	40.20	14.46	-46.5	-49.1	6.2	0.00e+00	0	47	104	0	64	19605
2026-01-27 16:47:29.79	39.63	14.53	-46.5	-49.1	6.2	0.00e+00	0	46	104	0	64	19607
2026-01-27 16:47:31.81	39.06	14.61	-46.5	-49.1	6.2	0.00e+00	0	46	104	0	64	19622
2026-01-27 16:47:33.83	38.48	14.68	-46.5	-49.1	6.2	0.00e+00	0	47	104	0	64	19628
2026-01-27 16:47:35.85	37.90	14.74	-46.5	-49.1	6.2	0.00e+00	0	46	104	0	64	19607
2026-01-27 16:47:37.87	37.31	14.81	-46.5	-49.1	6.2	0.00e+00	0	47	104	0	64	19552
2026-01-27 16:47:39.89	36.72	14.87	-46.5	-49.1	6.2	0.00e+00	0	47	104	0	64	19570
2026-01-27 16:47:41.92	36.13	14.93	-46.5	-49.1	6.2	0.00e+00	0	46	104	0	64	19637
2026-01-27 16:47:43.94	35.54	14.99	-46.5	-49.1	6.2	0.00e+00	0	46	104	0	64	19612
2026-01-27 16:47:45.96	34.94	15.05	-46.5	-49.1	6.2	0.00e+00	0	47	104	0	64	19589
2026-01-27 16:47:47.98	34.34	15.10	-46.5	-49.1	6.2	0.00e+00	0	47	104	0	64	19601
2026-01-27 16:47:50.00	33.74	15.15	-46.5	-49.1	6.2	0.00e+00	0	47	104	0	64	19546
2026-01-27 16:47:52.02	33.14	15.20	-46.5	-49.1	6.2	0.00e+00	0	46	104	0	64	19663
2026-01-27 16:47:54.04	32.54	15.24	-46.5	-49.1	6.2	0.00e+00	0	47	104	0	64	19591
2026-01-27 16:47:56.06	31.93	15.29	-46.5	-49.1	6.2	0.00e+00	0	46	104	0	64	19616
2026-01-27 16:47:58.08	31.32	15.32	-46.5	-49.1	6.2	0.00e+00	0	46	104	0	64	19691
2026-01-27 16:48:00.10	30.71	15.36	-46.5	-49.1	6.2	0.00e+00	0	47	104	0	64	19637
2026-01-27 16:48:02.13	30.09	15.40	-46.5	-49.1	6.2	0.00e+00	0	46	104	0	64	19643
2026-01-27 16:48:04.15	29.48	15.43	-46.5	-49.1	6.2	0.00e+00	0	46	104	0	64	19661
2026-01-27 16:48:06.17	28.86	15.45	-46.5	-49.1	6.2	0.00e+00	0	46	104	0	64	19630
2026-01-27 16:48:08.19	28.24	15.48	-46.5	-49.1	6.2	0.00e+00	0	46	104	0	64	19606
2026-01-27 16:48:10.21	27.63	15.50	-46.5	-49.1	6.2	0.00e+00	0	47	104	0	64	19604
2026-01-27 16:48:12.23	27.01	15.52	-46.5	-49.1	6.2	0.00e+00	0	47	104	0	64	19594
2026-01-27 16:48:14.25	26.39	15.54	-46.5	-49.1	6.2	0.00e+00	0	47	104	0	64	19571
2026-01-27 16:48:16.27	25.77	15.55	-46.5	-49.1	6.2	0.00e+00	0	46	104	0	64	19639
2026-01-27 16:48:18.29	25.14	15.56	-46.5	-49.1	6.2	0.00e+00	0	47	104	0	64	19611
2026-01-27 16:48:20.31	24.52	15.57	-46.5	-49.1	6.2	0.00e+00	0	47	104	0	64	19527
2026-01-27 16:48:22.33	23.90	15.57	-46.5	-49.1	6.2	0.00e+00	0	47	104	0	64	19627
2026-01-27 16:48:24.35	23.28	15.57	-46.5	-49.1	6.2	0.00e+00	0	47	104	0	64	19686
2026-01-27 16:48:26.37	22.65	15.57	-46.5	-49.1	6.2	0.00e+00	0	47	104	0	64	19612
2026-01-27 16:48:28.40	22.03	15.57	-46.5	-49.1	6.2	0.00e+00	0	47	104	0	64	19639
2026-01-27 16:48:30.42	21.41	15.56	-46.5	-49.1	6.2	0.00e+00	0	47	104	0	64	19663
2026-01-27 16:48:32.44	20.79	15.55	-46.5	-49.1	6.2	0.00e+00	0	47	104	0	64	19669
2026-01-27 16:48:34.46	20.16	15.53	-46.5	-49.1	6.2	0.00e+00	0	47	104	0	64	19663
2026-01-27 16:48:36.48	19.54	15.52	-46.5	-49.1	6.2	0.00e+00	0	47	104	0	64	19610
2026-01-27 16:48:38.50	18.92	15.50	-46.5	-49.1	6.2	0.00e+00	0	47	104	0	64	19655
2026-01-27 16:48:40.52	18.31	15.47	-46.5	-49.1	6.2	0.00e+00	0	47	104	0	64	19581
2026-01-27 16:48:42.54	17.69	15.45	-46.5	-49.1	6.2	0.00e+00	0	47	104	0	64	19671
2026-01-27 16:48:44.56	17.07	15.42	-46.5	-49.1	6.2	0.00e+00	0	47	104	0	64	19655
2026-01-27 16:48:46.58	16.46	15.39	-46.5	-49.1	6.2	0.00e+00	0	47	104	0	64	19650
2026-01-27 16:48:48.61	15.84	15.35	-46.5	-49.1	6.2	0.00e+00	0	46	104	0	64	19637
2026-01-27 16:48:50.62	15.23	15.32	-46.5	-49.1	6.2	0.00e+00	0	47	104	0	64	19624
2026-01-27 16:48:52.64	14.63	15.28	-46.5	-49.1	6.2	0.00e+00	0	46	104	0	64	19638
2026-01-27 16:48:54.66	14.02	15.23	-46.5	-49.1	6.2	0.00e+00	0	47	104	0	64	19657
2026-01-27 16:48:56.69	13.41	15.19	-46.5	-49.1	6.2	0.00e+00	0	47	104	0	64	19661
2026-01-27 16:48:58.70	12.81	15.14	-46.5	-49.1	6.2	0.00e+00	0	47	104	0	64	19664
2026-01-27 16:49:00.73	12.21	15.09	-46.5	-49.1	6.2	0.00e+00	0	47	104	0	64	19698
2026-01-27 16:49:02.75	11.61	15.03	-46.5	-49.1	6.2	0.00e+00	0	47	104	0	64	19566
2026-01-27 16:49:04.77	11.01	14.98	-46.5	-49.1	6.2	0.00e+00	0	46	104	0	64	19673
2026-01-27 16:49:06.79	10.42	14.92	-46.5	-49.1	6.2	0.00e+00	0	47	104	0	64	19560
2026-01-27 16:49:08.81	9.83	14.86	-46.5	-49.1	6.2	0.00e+00	0	47	104	0	64	19674
2026-01-27 16:49:10.83	9.24	14.79	-46.5	-49.1	6.2	0.00e+00	0	47	104	0	64	19621
2026-01-27 16:49:12.85	8.66	14.73	-46.5	-49.1	6.2	0.00e+00	0	47	104	0	64	19644
2026-01-27 16:49:14.87	8.07	14.66	-46.5	-49.1	6.2	0.00e+00	0	46	104	0	64	19634
2026-01-27 16:49:16.89	7.50	14.59	-46.5	-49.1	6.2	0.00e+00	0	47	104	0	64	19637
2026-01-27 16:49:18.91	6.92	14.51	-46.6	-49.1	6.2	0.00e+00	0	47	104	0	64	19681
2026-01-27 16:49:20.93	6.35	14.44	-46.5	-49.1	6.2	0.00e+00	0	47	104	0	64	19613
2026-01-27 16:49:22.95	5.78	14.36	-46.5	-49.1	6.2	0.00e+00	0	47	104	0	64	19660
2026-01-27 16:49:24.97	5.22	14.28	-46.5	-49.1	6.2	0.00e+00	0	47	104	0	64	19648
2026-01-27 16:49:26.99	4.66	14.20	-46.5	-49.1	6.2	0.00e+00	0	47	104	0	64	19631
2026-01-27 16:49:29.01	4.10	14.11	-46.5	-49.1	6.2	0.00e+00	0	46	104	0	64	19647
2026-01-27 16:49:31.03	3.54	14.03	-46.5	-49.1	6.2	0.00e+00	0	47	104	0	64	19684
2026-01-27 16:49:33.06	2.99	13.94	-46.5	-49.1	6.2	0.00e+00	0	47	104	0	64	19660
2026-01-27 16:49:35.08	2.45	13.85	-46.5	-49.1	6.2	0.00e+00	0	47	104	0	64	19668
2026-01-27 16:49:37.10	1.90	13.76	-46.5	-49.1	6.2	0.00e+00	0	47	104	0	64	19632
2026-01-27 16:49:39.12	1.37	13.67	-46.5	-49.1	6.2	0.00e+00	0	47	104	0	64	19651
2026-01-27 16:49:41.14	0.83	13.57	-46.5	-49.1	6.2	0.00e+00	0	47	104	0	64	19644
2026-01-27 16:49:43.16	0.30	13.47	-46.5	-49.1	6.2	0.00e+00	0	46	104	0	64	19639
2026-01-27 16:49:45.18	359.78	13.37	-46.5	-49.1	6.2	0.00e+00	0	47	104	0	64	19664
2026-01-27 16:49:47.20	359.25	13.27	-46.5	-49.2	6.2	0.00e+00	0	47	104	0	64	19707
2026-01-27 16:49:49.22	358.74	13.17	-46.5	-49.1	6.2	0.00e+00	0	47	104	0	64	19627
2026-01-27 16:49:51.24	358.22	13.07	-46.5	-49.1	6.2	0.00e+00	0	47	104	0	64	19703
2026-01-27 16:49:53.26	357.71	12.97	-46.5	-49.1	6.2	0.00e+00	0	47	104	0	64	19680
2026-01-27 16:49:55.28	357.21	12.86	-46.5	-49.1	6.2	0.00e+00	0	47	104	0	64	19641
2026-01-27 16:49:57.30	356.71	12.75	-46.5	-49.1	6.2	0.00e+00	0	47	104	0	64	19647
2026-01-27 16:49:59.32	356.21	12.64	-46.5	-49.1	6.2	0.00e+00	0	47	104	0	64	19698
2026-01-27 16:50:01.34	355.72	12.53	-46.5	-49.1	6.2	0.00e+00	0	47	104	0	64	19657
2026-01-27 16:50:03.37	355.23	12.42	-46.5	-49.1	6.2	0.00e+00	0	47	104	0	64	19655
2026-01-27 16:50:05.39	354.75	12.31	-46.6	-49.2	6.2	0.00e+00	0	47	104	0	64	19724
2026-01-27 16:50:07.41	354.27	12.20	-46.5	-49.1	6.2	0.00e+00	0	47	104	0	64	19595
2026-01-27 16:50:09.43	353.79	12.08	-46.5	-49.1	6.2	0.00e+00	0	47	104	0	64	19669
2026-01-27 16:50:11.45	353.32	11.97	-46.5	-49.1	6.2	0.00e+00	0	47	104	0	64	19602
2026-01-27 16:50:13.47	352.86	11.85	-46.5	-49.1	6.2	0.00e+00	0	47	104	0	64	19644
2026-01-27 16:50:15.49	352.40	11.74	-46.5	-49.1	6.2	0.00e+00	0	47	104	0	64	19671
2026-01-27 16:50:17.52	351.94	11.62	-46.5	-49.1	6.2	0.00e+00	0	47	104	0	64	19617
2026-01-27 16:50:19.53	351.49	11.50	-46.5	-49.1	6.2	0.00e+00	0	47	104	0	64	19683
2026-01-27 16:50:21.56	351.04	11.38	-46.5	-49.1	6.2	0.00e+00	0	46	104	0	64	19671
2026-01-27 16:50:23.58	350.59	11.26	-46.5	-49.1	6.2	0.00e+00	0	47	104	0	64	19607
2026-01-27 16:50:25.60	350.15	11.14	-46.5	-49.1	6.2	0.00e+00	0	47	104	0	64	19647
2026-01-27 16:50:27.62	349.72	11.02	-46.5	-49.1	6.2	0.00e+00	0	47	104	0	64	19620
2026-01-27 16:50:29.64	349.29	10.90	-46.5	-49.1	6.2	0.00e+00	0	47	104	0	64	19626
2026-01-27 16:50:31.66	348.86	10.78	-46.5	-49.1	6.2	0.00e+00	0	47	104	0	64	19686
2026-01-27 16:50:33.68	348.44	10.65	-46.5	-49.1	6.2	0.00e+00	0	47	104	0	64	19666
2026-01-27 16:50:35.70	348.02	10.53	-46.5	-49.1	6.2	0.00e+00	0	47	104	0	64	19612
2026-01-27 16:50:37.72	347.61	10.40	-46.5	-49.1	6.2	0.00e+00	0	46	104	0	64	19644
2026-01-27 16:50:39.74	347.20	10.28	-46.5	-49.1	6.2	0.00e+00	0	47	104	0	64	19664
2026-01-27 16:50:41.76	346.79	10.16	-46.5	-49.1	6.2	0.00e+00	0	47	104	0	64	19598
2026-01-27 16:50:43.78	346.39	10.03	-46.5	-49.1	6.2	0.00e+00	0	47	104	0	64	19644
2026-01-27 16:50:45.80	346.00	9.90	-46.5	-49.1	6.2	0.00e+00	0	47	104	0	64	19645
2026-01-27 16:50:47.83	345.60	9.78	-46.5	-49.1	6.2	0.00e+00	0	47	104	0	64	19588
2026-01-27 16:50:49.84	345.21	9.65	-46.5	-49.1	6.2	0.00e+00	0	47	104	0	64	19604
2026-01-27 16:50:51.86	344.83	9.53	-46.5	-49.1	6.2	0.00e+00	0	47	104	0	64	19657
2026-01-27 16:50:53.88	344.45	9.40	-46.5	-49.1	6.2	0.00e+00	0	47	104	0	64	19600
2026-01-27 16:50:55.91	344.07	9.27	-46.5	-49.1	6.2	0.00e+00	0	47	104	0	64	19665
2026-01-27 16:50:57.93	343.70	9.15	-46.5	-49.1	6.2	0.00e+00	0	47	104	0	64	19666
2026-01-27 16:50:59.95	343.33	9.02	-46.5	-49.1	6.2	0.00e+00	0	47	104	0	64	19598
2026-01-27 16:51:01.97	342.96	8.89	-46.5	-49.1	6.2	0.00e+00	0	47	104	0	64	19624
2026-01-27 16:51:03.99	342.60	8.76	-46.5	-49.1	6.2	0.00e+00	0	47	104	0	64	19660
2026-01-27 16:51:06.01	342.25	8.64	-46.5	-49.1	6.2	0.00e+00	0	47	104	0	64	19640
2026-01-27 16:51:08.03	341.89	8.51	-46.5	-49.1	6.2	0.00e+00	0	47	104	0	64	19636
2026-01-27 16:51:10.05	341.54	8.38	-46.5	-49.1	6.2	0.00e+00	0	47	104	0	64	19674
2026-01-27 16:51:12.07	341.20	8.25	-46.5	-49.1	6.2	0.00e+00	0	47	104	0	64	19638
2026-01-27 16:51:14.10	340.85	8.12	-46.5	-49.1	6.2	0.00e+00	0	47	104	0	64	19637
2026-01-27 16:51:16.12	340.52	8.00	-46.5	-49.2	6.2	0.00e+00	0	47	104	0	64	19705
2026-01-27 16:51:18.14	340.18	7.87	-46.5	-49.1	6.2	0.00e+00	0	47	104	0	64	19646
2026-01-27 16:51:20.16	339.85	7.74	-46.5	-49.1	6.2	0.00e+00	0	47	104	0	64	19633
2026-01-27 16:51:22.18	339.52	7.61	-46.5	-49.1	6.2	0.00e+00	0	47	104	0	64	19602
2026-01-27 16:51:24.20	339.20	7.49	-46.5	-49.1	6.2	0.00e+00	0	47	104	0	64	19673
2026-01-27 16:51:26.22	338.88	7.36	-46.5	-49.1	6.2	0.00e+00	0	47	104	0	64	19628
2026-01-27 16:51:28.24	338.56	7.23	-46.5	-49.1	6.2	0.00e+00	0	47	104	0	64	19665
2026-01-27 16:51:30.26	338.25	7.10	-46.5	-49.1	6.2	0.00e+00	0	47	104	0	64	19663
2026-01-27 16:51:32.29	337.94	6.98	-46.5	-49.2	6.2	0.00e+00	0	47	104	0	64	19713
2026-01-27 16:51:34.31	337.63	6.85	-46.5	-49.1	6.2	0.00e+00	0	47	104	0	64	19586
2026-01-27 16:51:36.33	337.33	6.72	-46.5	-49.1	6.2	0.00e+00	0	47	104	0	64	19637
2026-01-27 16:51:38.35	337.03	6.60	-46.5	-49.1	6.2	0.00e+00	0	47	104	0	64	19685
2026-01-27 16:51:40.37	336.73	6.47	-46.5	-49.1	6.2	0.00e+00	0	47	104	0	64	19619
2026-01-27 16:51:42.39	336.44	6.34	-46.5	-49.1	6.2	0.00e+00	0	47	104	0	64	19666
2026-01-27 16:51:44.41	336.14	6.22	-46.5	-49.1	6.2	0.00e+00	0	47	104	0	64	19655
2026-01-27 16:51:46.43	335.86	6.09	-46.5	-49.1	6.2	0.00e+00	0	47	104	0	64	19689
2026-01-27 16:51:48.45	335.57	5.97	-46.5	-49.1	6.2	0.00e+00	0	47	104	0	64	19684
2026-01-27 16:51:50.47	335.29	5.84	-46.5	-49.1	6.2	0.00e+00	0	47	104	0	64	19620
2026-01-27 16:51:52.49	335.01	5.71	-46.5	-49.1	6.2	0.00e+00	0	47	104	0	64	19652
2026-01-27 16:51:54.51	334.74	5.59	-46.5	-49.1	6.2	0.00e+00	0	47	104	0	64	19650
2026-01-27 16:51:56.53	334.47	5.47	-46.5	-49.1	6.2	0.00e+00	0	47	104	0	64	19678
2026-01-27 16:51:58.55	334.20	5.34	-46.5	-49.1	6.2	0.00e+00	0	47	104	0	64	19658
2026-01-27 16:52:00.57	333.93	5.22	-46.5	-49.1	6.2	0.00e+00	0	47	104	0	64	19597
2026-01-27 16:52:02.59	333.67	5.09	-46.5	-49.1	6.2	0.00e+00	0	47	104	0	64	19597
2026-01-27 16:52:04.61	333.40	4.97	-46.5	-49.1	6.2	0.00e+00	0	47	104	0	64	19569
2026-01-27 16:52:06.64	333.14	4.84	-46.5	-49.1	6.2	0.00e+00	0	47	104	0	64	19642
2026-01-27 16:52:08.65	332.89	4.72	-46.5	-49.1	6.2	0.00e+00	0	47	104	0	64	19654
2026-01-27 16:52:10.68	332.64	4.60	-46.5	-49.1	6.2	0.00e+00	0	47	104	0	64	19660
2026-01-27 16:52:12.70	332.39	4.48	-46.5	-49.1	6.2	0.00e+00	0	47	104	0	64	19686
2026-01-27 16:52:14.72	332.14	4.35	-46.5	-49.1	6.2	0.00e+00	0	47	104	0	64	19622
2026-01-27 16:52:16.74	331.89	4.23	-46.5	-49.1	6.2	0.00e+00	0	47	104	0	64	19658
2026-01-27 16:52:18.76	331.65	4.11	-46.5	-49.1	6.2	0.00e+00	0	47	104	0	64	19667
2026-01-27 16:52:20.78	331.41	3.99	-46.5	-49.1	6.2	0.00e+00	0	47	104	0	64	19662
2026-01-27 16:52:22.80	331.17	3.87	-46.5	-49.1	6.2	0.00e+00	0	47	104	0	64	19622
2026-01-27 16:52:24.82	330.94	3.75	-46.5	-49.1	6.2	0.00e+00	0	47	104	0	64	19677
2026-01-27 16:52:26.84	330.71	3.63	-46.5	-49.1	6.2	0.00e+00	0	47	104	0	64	19666
2026-01-27 16:52:28.86	330.48	3.50	-46.5	-49.1	6.2	0.00e+00	0	47	104	0	64	19636
2026-01-27 16:52:30.88	330.25	3.38	-46.5	-49.1	6.2	0.00e+00	0	47	104	0	64	19671
2026-01-27 16:52:32.90	330.02	3.27	-46.5	-49.1	6.2	0.00e+00	0	47	104	0	64	19622
2026-01-27 16:52:34.92	329.80	3.15	-46.5	-49.1	6.2	0.00e+00	0	47	104	0	64	19701
2026-01-27 16:52:36.94	329.58	3.03	-46.5	-49.1	6.2	0.00e+00	0	47	104	0	64	19623
2026-01-27 16:52:38.96	329.36	2.91	-46.5	-49.1	6.2	0.00e+00	0	47	104	0	64	19668
2026-01-27 16:52:40.99	329.15	2.79	-46.5	-49.1	6.2	0.00e+00	0	47	104	0	64	19637
2026-01-27 16:52:43.01	328.93	2.67	-46.5	-49.1	6.2	0.00e+00	0	47	104	0	64	19697
2026-01-27 16:52:45.03	328.72	2.55	-46.6	-49.1	6.2	0.00e+00	0	47	104	0	64	19654
2026-01-27 16:52:47.05	328.51	2.44	-46.5	-49.1	6.2	0.00e+00	0	47	104	0	64	19602
2026-01-27 16:52:49.07	328.30	2.32	-46.5	-49.1	6.2	0.00e+00	0	47	104	0	64	19653
2026-01-27 16:52:51.09	328.10	2.20	-46.6	-49.1	6.2	0.00e+00	0	47	104	0	64	19634
2026-01-27 16:52:53.11	327.90	2.09	-46.5	-49.1	6.2	0.00e+00	0	47	104	0	64	19677

#Closed at: 2026-01-27 16:52:55
#Recorded file [0 MB]: D:/lorett/data/31045_260127_194353.dat