passes_logs/2026/01/27/R3.2S_Murmansk_2ch/R3.2S_Murmansk_2ch__20260127_200549_JL1KF02B01_rec.log

#Pass ID: 20260127_200549_JL1KF02B01
#Satellite: JL1KF02B01
#Configuration: 01B_900M
#almurnet v.1.7.20251203
#Start time: 2026-01-27 20:05:50

#Version: 2.2.20231116
#Station: R3.2S_Murmansk_2ch
#Location: 33.079688 lon 68.888172 lat
#TLE: 1 61191U 24169C   26027.49698189  .00007214  00000+0  45035-3 0  9994
#TLE: 2 61191  97.5610 118.8922 0014755  84.4927 275.7985 15.09703311 74605

#Time	Az	El	Level	Level2	SNR	BER	BlckErr	Temp	State	Recorded	gain1	gain2
2026-01-27 20:05:50.16	163.09	2.08	-47.5	-50.0	6.2	0.00e+00	0	44	0	0	67	18337
2026-01-27 20:05:53.18	163.13	2.29	-46.3	-48.8	6.2	0.00e+00	0	44	104	0	64	19033
2026-01-27 20:05:56.21	163.18	2.50	-46.3	-48.8	6.2	0.00e+00	0	44	104	0	64	19008
2026-01-27 20:05:59.25	163.22	2.72	-46.3	-48.8	6.2	0.00e+00	0	44	104	0	64	19024
2026-01-27 20:06:02.27	163.27	2.93	-46.3	-48.8	6.2	0.00e+00	0	44	104	0	64	18957
2026-01-27 20:06:05.30	163.32	3.15	-46.3	-48.8	6.2	0.00e+00	0	44	104	0	64	18979
2026-01-27 20:06:08.34	163.37	3.38	-46.3	-48.8	6.2	0.00e+00	0	44	104	0	64	18981
2026-01-27 20:06:11.37	163.42	3.60	-46.3	-48.8	6.2	0.00e+00	0	44	104	0	64	18965
2026-01-27 20:06:14.40	163.47	3.83	-46.2	-48.8	6.2	0.00e+00	0	45	104	0	64	18912
2026-01-27 20:06:17.43	163.52	4.06	-46.2	-48.8	6.2	0.00e+00	0	45	104	0	64	18927
2026-01-27 20:06:20.46	163.57	4.29	-46.2	-48.8	6.2	0.00e+00	0	45	104	0	64	18923
2026-01-27 20:06:23.50	163.62	4.53	-46.2	-48.8	6.2	0.00e+00	0	45	104	0	64	18856
2026-01-27 20:06:26.53	163.68	4.76	-46.2	-48.8	6.2	0.00e+00	0	45	104	0	64	18876
2026-01-27 20:06:29.56	163.73	5.00	-46.2	-48.7	6.2	0.00e+00	0	45	104	0	64	18807
2026-01-27 20:06:32.59	163.79	5.25	-46.2	-48.7	6.2	0.00e+00	0	45	104	0	64	18781
2026-01-27 20:06:35.62	163.84	5.49	-46.4	-48.9	6.2	0.00e+00	0	45	104	0	64	19191
2026-01-27 20:06:38.65	163.90	5.74	-46.3	-48.9	6.2	0.00e+00	0	45	104	0	64	19038
2026-01-27 20:06:41.68	163.96	5.99	-46.3	-48.8	6.2	0.00e+00	0	45	104	0	64	18975
2026-01-27 20:06:44.72	164.02	6.25	-46.2	-48.8	6.2	0.00e+00	0	45	104	0	64	18852
2026-01-27 20:06:47.74	164.08	6.51	-46.4	-49.0	6.2	0.00e+00	0	45	104	0	64	19299
2026-01-27 20:06:50.77	164.14	6.77	-46.3	-48.9	6.2	0.00e+00	0	46	104	0	64	19117
2026-01-27 20:06:53.80	164.20	7.04	-46.3	-48.9	6.2	0.00e+00	0	46	104	0	64	19043
2026-01-27 20:06:56.83	164.27	7.30	-46.3	-48.9	6.2	0.00e+00	0	46	104	0	64	19042
2026-01-27 20:06:59.86	164.33	7.58	-46.4	-49.0	6.2	0.00e+00	0	46	104	0	64	19403
2026-01-27 20:07:02.89	164.40	7.85	-46.4	-49.0	6.2	0.00e+00	0	46	104	0	64	19346
2026-01-27 20:07:05.92	164.47	8.13	-46.4	-48.9	6.2	0.00e+00	0	46	104	0	64	19246
2026-01-27 20:07:08.95	164.53	8.42	-39.7	-40.4	7.0	0.00e+00	0	46	104	0	51	15192
2026-01-27 20:07:11.98	164.60	8.71	-39.4	-40.1	7.1	0.00e+00	0	46	104	0	50	15637
2026-01-27 20:07:14.99	164.68	9.00	-40.6	-41.3	6.9	0.00e+00	0	46	104	0	53	15112
2026-01-27 20:07:18.02	164.75	9.30	-38.9	-39.5	7.1	0.00e+00	0	46	104	0	49	15449
2026-01-27 20:07:21.05	164.82	9.60	-41.9	-42.8	7.0	0.00e+00	0	46	104	0	55	15999
2026-01-27 20:07:24.08	164.90	9.91	-28.6	-28.7	13.6	6.37e-04	0	46	0	134217728	29	14027
2026-01-27 20:07:27.12	164.98	10.22	-29.2	-29.3	13.1	1.39e-03	0	46	0	469762048	29	15013
2026-01-27 20:07:30.15	165.06	10.54	-27.2	-27.3	14.4	2.63e-04	0	46	0	813694976	26	14137
2026-01-27 20:07:33.18	165.14	10.86	-27.3	-27.4	14.3	2.76e-04	0	46	0	1157627904	26	14316
2026-01-27 20:07:36.22	165.22	11.19	-26.0	-26.0	14.8	4.38e-05	0	46	0	1493172224	23	14579
2026-01-27 20:07:39.25	165.31	11.52	-26.0	-26.1	15.1	3.05e-05	0	46	0	1837105152	22	15479
2026-01-27 20:07:42.28	165.40	11.86	-23.3	-23.4	16.5	1.90e-06	0	46	0	2181038080	18	14396
2026-01-27 20:07:45.31	165.49	12.21	-22.8	-22.9	16.9	3.80e-06	0	46	0	2516582400	17	14370
2026-01-27 20:07:48.34	165.58	12.56	-22.7	-22.8	17.0	1.90e-06	0	47	0	2860515328	17	14191
2026-01-27 20:07:51.38	165.67	12.92	-22.6	-22.7	16.5	0.00e+00	0	47	0	3204448256	17	13970
2026-01-27 20:07:54.41	165.77	13.29	-22.4	-22.5	16.4	1.90e-06	0	46	0	3539992576	16	14464
2026-01-27 20:07:57.44	165.87	13.66	-22.3	-22.3	16.3	0.00e+00	0	46	0	3883925504	16	14261
2026-01-27 20:08:00.47	165.97	14.04	-22.1	-22.2	16.4	0.00e+00	0	46	0	4227858432	16	14003
2026-01-27 20:08:03.50	166.08	14.43	-21.8	-21.9	16.9	0.00e+00	0	47	0	4563402752	15	14368
2026-01-27 20:08:06.54	166.18	14.82	-21.8	-21.9	16.8	0.00e+00	0	47	0	4907335680	15	14337
2026-01-27 20:08:09.57	166.30	15.23	-21.6	-21.7	16.8	0.00e+00	0	47	0	5251268608	15	13956
2026-01-27 20:08:12.60	166.41	15.64	-21.3	-21.4	16.7	3.80e-06	0	47	0	5595201536	14	14284
2026-01-27 20:08:15.63	166.53	16.06	-21.3	-21.4	16.8	1.90e-06	0	47	0	5930745856	14	14307
2026-01-27 20:08:18.67	166.65	16.50	-21.0	-21.1	17.1	0.00e+00	0	47	0	6274678784	14	13873
2026-01-27 20:08:21.70	166.77	16.94	-21.0	-21.1	17.2	0.00e+00	0	47	0	6618611712	13	14678
2026-01-27 20:08:24.73	166.90	17.39	-20.7	-20.8	17.4	0.00e+00	0	46	0	6954156032	13	14145
2026-01-27 20:08:27.76	167.03	17.85	-20.4	-20.5	17.3	0.00e+00	0	47	0	7298088960	12	14475
2026-01-27 20:08:30.79	167.17	18.32	-20.4	-20.5	17.6	0.00e+00	0	47	0	7642021888	12	14519
2026-01-27 20:08:33.82	167.31	18.81	-20.4	-20.5	17.9	0.00e+00	0	47	0	7977566208	12	14453
2026-01-27 20:08:36.85	167.46	19.30	-20.0	-20.1	18.0	0.00e+00	0	47	0	8321499136	12	13877
2026-01-27 20:08:39.88	167.61	19.81	-20.0	-20.1	18.0	0.00e+00	0	47	0	8665432064	11	14634
2026-01-27 20:08:42.92	167.77	20.33	-20.0	-20.0	17.8	0.00e+00	0	47	0	9000976384	11	14605
2026-01-27 20:08:45.95	167.93	20.87	-19.6	-19.7	17.9	0.00e+00	0	47	0	9344909312	11	13956
2026-01-27 20:08:48.98	168.10	21.42	-19.5	-19.6	18.2	0.00e+00	0	47	0	9680453632	11	13822
2026-01-27 20:08:52.01	168.27	21.98	-19.2	-19.3	18.0	0.00e+00	0	47	0	10024386560	10	14204
2026-01-27 20:08:55.04	168.46	22.56	-19.0	-19.1	18.0	0.00e+00	0	47	0	10368319488	10	13862
2026-01-27 20:08:58.07	168.65	23.15	-18.8	-18.9	18.0	0.00e+00	0	47	0	10703863808	9	14344
2026-01-27 20:09:01.11	168.84	23.77	-18.7	-18.8	17.8	0.00e+00	0	47	0	11047796736	9	14167
2026-01-27 20:09:04.14	169.05	24.40	-18.3	-18.4	17.9	0.00e+00	0	47	0	11391729664	8	14385
2026-01-27 20:09:07.17	169.26	25.04	-18.2	-18.2	18.4	0.00e+00	0	47	0	11727273984	8	14100
2026-01-27 20:09:10.21	169.49	25.71	-18.0	-18.0	17.9	0.00e+00	0	47	0	12071206912	8	13777
2026-01-27 20:09:13.23	169.72	26.40	-17.9	-17.9	18.0	0.00e+00	0	47	0	12415139840	7	14415
2026-01-27 20:09:16.27	169.97	27.11	-17.7	-17.7	18.0	0.00e+00	0	47	0	12750684160	7	14104
2026-01-27 20:09:19.30	170.22	27.84	-17.4	-17.4	18.4	0.00e+00	0	47	0	13094617088	6	14410
2026-01-27 20:09:22.33	170.49	28.59	-17.4	-17.4	18.1	0.00e+00	0	47	0	13430161408	6	14412
2026-01-27 20:09:25.36	170.78	29.37	-16.9	-17.0	18.6	0.00e+00	0	47	0	13774094336	5	14516
2026-01-27 20:09:28.39	171.07	30.17	-17.0	-17.1	18.4	0.00e+00	0	47	0	14118027264	5	14636
2026-01-27 20:09:31.42	171.39	31.00	-16.7	-16.7	18.3	0.00e+00	0	47	0	14453571584	5	14072
2026-01-27 20:09:34.45	171.72	31.85	-16.3	-16.4	18.5	0.00e+00	0	47	0	14797504512	4	14362
2026-01-27 20:09:37.49	172.07	32.74	-16.0	-16.1	18.6	0.00e+00	0	47	0	15141437440	4	13858
2026-01-27 20:09:40.52	172.44	33.66	-15.9	-16.0	19.0	0.00e+00	0	47	0	15476981760	3	14510
2026-01-27 20:09:43.55	172.83	34.60	-15.7	-15.8	19.0	0.00e+00	0	47	0	15820914688	3	14147
2026-01-27 20:09:46.59	173.25	35.58	-15.5	-15.6	19.4	0.00e+00	0	47	0	16164847616	3	13861
2026-01-27 20:09:49.62	173.69	36.60	-15.4	-15.4	19.2	0.00e+00	0	47	0	16500391936	2	14432
2026-01-27 20:09:52.65	174.16	37.64	-15.1	-15.1	19.0	0.00e+00	0	47	0	16844324864	2	13912
2026-01-27 20:09:55.68	174.67	38.73	-14.9	-15.0	19.2	0.00e+00	0	47	0	17188257792	1	14458
2026-01-27 20:09:58.71	175.21	39.85	-14.7	-14.7	19.4	0.00e+00	0	47	0	17532190720	1	14061
2026-01-27 20:10:01.74	175.79	41.01	-14.6	-14.6	19.4	0.00e+00	0	47	0	17867735040	1	13913
2026-01-27 20:10:04.77	176.42	42.21	-14.1	-14.2	19.9	0.00e+00	0	47	0	18211667968	0	13972
2026-01-27 20:10:07.80	177.10	43.45	-13.9	-14.0	20.1	0.00e+00	0	47	0	18555600896	0	13678
2026-01-27 20:10:10.83	177.83	44.73	-13.8	-13.8	20.1	0.00e+00	0	47	0	18891145216	0	13451
2026-01-27 20:10:13.87	178.63	46.06	-13.4	-13.4	20.1	0.00e+00	0	47	0	19235078144	0	12818
2026-01-27 20:10:16.90	179.50	47.43	-13.2	-13.3	20.1	0.00e+00	0	47	0	19579011072	0	12651
2026-01-27 20:10:19.93	180.45	48.84	-13.1	-13.1	20.1	0.00e+00	0	47	0	19914555392	0	12392
2026-01-27 20:10:22.96	181.50	50.29	-13.0	-13.1	20.1	0.00e+00	0	47	0	20258488320	0	12301
2026-01-27 20:10:25.99	182.65	51.78	-12.8	-12.8	20.2	0.00e+00	0	47	0	20602421248	0	11987
2026-01-27 20:10:29.02	183.93	53.32	-12.6	-12.7	20.0	0.00e+00	0	47	0	20937965568	0	11803
2026-01-27 20:10:32.05	185.35	54.89	-12.6	-12.6	19.7	0.00e+00	0	47	0	21281898496	0	11673
2026-01-27 20:10:35.08	186.95	56.49	-12.4	-12.5	19.3	0.00e+00	0	47	0	21617442816	0	11502
2026-01-27 20:10:38.11	188.74	58.12	-12.0	-12.1	18.9	0.00e+00	0	47	0	21961375744	0	11018
2026-01-27 20:10:41.15	190.77	59.78	-11.9	-12.0	18.4	0.00e+00	0	47	0	22305308672	0	10877
2026-01-27 20:10:44.17	193.07	61.43	-11.8	-11.8	17.9	0.00e+00	0	47	0	22640852992	0	10700
2026-01-27 20:10:47.21	195.72	63.10	-11.6	-11.7	17.7	0.00e+00	0	47	0	22984785920	0	10514
2026-01-27 20:10:50.24	198.76	64.75	-11.5	-11.6	17.7	0.00e+00	0	47	0	23328718848	0	10374
2026-01-27 20:10:53.27	202.27	66.36	-11.3	-11.4	17.9	0.00e+00	0	47	0	23664263168	0	10152
2026-01-27 20:10:56.30	206.34	67.91	-11.5	-11.5	17.7	0.00e+00	0	47	0	24008196096	0	10282
2026-01-27 20:10:59.33	211.06	69.37	-11.4	-11.4	17.8	0.00e+00	0	47	0	24343740416	0	10208
2026-01-27 20:11:02.36	216.53	70.71	-11.4	-11.4	18.1	0.00e+00	0	47	0	24687673344	0	10200
2026-01-27 20:11:05.39	222.81	71.87	-11.4	-11.4	17.9	0.00e+00	0	47	0	25031606272	0	10162
2026-01-27 20:11:08.43	229.93	72.82	-11.2	-11.3	18.3	0.00e+00	0	47	0	25367150592	0	10052
2026-01-27 20:11:11.46	237.77	73.49	-11.2	-11.3	18.0	0.00e+00	0	48	0	25711083520	0	10028
2026-01-27 20:11:14.49	246.14	73.85	-11.1	-11.2	18.2	0.00e+00	0	47	0	26055016448	0	9924
2026-01-27 20:11:17.52	254.71	73.87	-11.3	-11.4	18.3	0.00e+00	0	47	0	26390560768	0	10142
2026-01-27 20:11:20.55	263.12	73.55	-11.3	-11.4	18.6	0.00e+00	0	47	0	26734493696	0	10111
2026-01-27 20:11:23.59	271.05	72.91	-11.3	-11.4	18.6	0.00e+00	0	47	0	27078426624	0	10133
2026-01-27 20:11:26.62	278.24	71.99	-11.3	-11.4	18.8	0.00e+00	0	47	0	27413970944	0	10133
2026-01-27 20:11:29.65	284.61	70.85	-11.5	-11.6	18.9	0.00e+00	0	47	0	27757903872	0	10368
2026-01-27 20:11:32.69	290.18	69.53	-11.8	-11.8	19.3	0.00e+00	0	47	0	28101836800	0	10678
2026-01-27 20:11:35.72	294.98	68.08	-11.9	-11.9	19.2	0.00e+00	0	47	0	28437381120	0	10799
2026-01-27 20:11:38.75	299.12	66.54	-11.8	-11.9	19.3	0.00e+00	0	47	0	28781314048	0	10746
2026-01-27 20:11:41.78	302.68	64.94	-12.0	-12.1	19.8	0.00e+00	0	48	0	29125246976	0	10982
2026-01-27 20:11:44.81	305.77	63.30	-12.1	-12.2	19.9	0.00e+00	0	47	0	29460791296	0	11111
2026-01-27 20:11:47.85	308.46	61.63	-12.3	-12.3	20.1	0.00e+00	0	47	0	29804724224	0	11313
2026-01-27 20:11:50.88	310.80	59.97	-12.4	-12.4	20.1	0.00e+00	0	47	0	30148657152	0	11413
2026-01-27 20:11:53.91	312.85	58.32	-12.5	-12.5	20.4	0.00e+00	0	47	0	30484201472	0	11600
2026-01-27 20:11:56.94	314.67	56.69	-12.7	-12.7	20.2	0.00e+00	0	47	0	30828134400	0	11865
2026-01-27 20:11:59.97	316.29	55.09	-12.7	-12.7	20.0	0.00e+00	0	47	0	31172067328	0	11855
2026-01-27 20:12:03.00	317.73	53.52	-12.9	-13.0	20.0	0.00e+00	0	48	0	31507611648	0	12188
2026-01-27 20:12:06.04	319.02	51.98	-13.2	-13.2	20.0	0.00e+00	0	48	0	31851544576	0	12534
2026-01-27 20:12:09.07	320.19	50.49	-13.3	-13.4	20.0	0.00e+00	0	47	0	32195477504	0	12789
2026-01-27 20:12:12.10	321.25	49.03	-13.5	-13.6	20.3	0.00e+00	0	47	0	32539410432	0	13071
2026-01-27 20:12:15.13	322.21	47.62	-13.6	-13.7	19.6	0.00e+00	0	47	0	32874954752	0	13238
2026-01-27 20:12:18.16	323.09	46.25	-14.0	-14.1	19.4	0.00e+00	0	47	0	33218887680	0	13880
2026-01-27 20:12:21.20	323.89	44.92	-14.2	-14.3	19.4	0.00e+00	0	48	0	33562820608	0	14120
2026-01-27 20:12:24.23	324.63	43.64	-14.3	-14.4	19.1	0.00e+00	0	47	0	33898364928	0	14298
2026-01-27 20:12:27.26	325.32	42.39	-14.5	-14.6	19.1	0.00e+00	0	47	0	34242297856	0	14684
2026-01-27 20:12:30.29	325.95	41.19	-14.7	-14.8	18.9	0.00e+00	0	48	0	34586230784	0	14998
2026-01-27 20:12:33.32	326.54	40.03	-15.0	-15.1	18.5	0.00e+00	0	47	0	34921775104	0	15530
2026-01-27 20:12:36.35	327.08	38.91	-15.2	-15.3	18.6	0.00e+00	0	47	0	35265708032	0	15843
2026-01-27 20:12:39.39	327.59	37.82	-15.6	-15.6	18.0	0.00e+00	0	47	0	35609640960	1	15586
2026-01-27 20:12:42.42	328.07	36.77	-15.8	-15.8	17.8	0.00e+00	0	47	0	35945185280	2	15092
2026-01-27 20:12:45.45	328.52	35.76	-16.0	-16.1	17.9	0.00e+00	0	47	0	36289118208	2	15500
2026-01-27 20:12:48.48	328.94	34.78	-16.4	-16.5	18.2	0.00e+00	0	47	0	36633051136	3	15311
2026-01-27 20:12:51.52	329.33	33.83	-16.6	-16.6	18.0	0.00e+00	0	47	0	36968595456	3	15577
2026-01-27 20:12:54.55	329.71	32.91	-16.6	-16.7	18.0	0.00e+00	0	47	0	37312528384	4	14798
2026-01-27 20:12:57.58	330.06	32.03	-16.8	-16.9	18.0	0.00e+00	0	48	0	37648072704	4	15155
2026-01-27 20:13:00.61	330.39	31.17	-17.0	-17.0	17.8	0.00e+00	0	48	0	37992005632	4	15418
2026-01-27 20:13:03.64	330.71	30.34	-17.3	-17.4	17.9	0.00e+00	0	48	0	38335938560	5	15140
2026-01-27 20:13:06.67	331.01	29.54	-17.6	-17.7	18.3	0.00e+00	0	47	0	38671482880	5	15660
2026-01-27 20:13:09.70	331.29	28.76	-17.9	-18.0	18.7	0.00e+00	0	48	0	39015415808	6	15351
2026-01-27 20:13:12.74	331.56	28.00	-18.3	-18.3	18.9	0.00e+00	0	47	0	39359348736	7	15071
2026-01-27 20:13:15.77	331.82	27.27	-18.4	-18.4	18.6	0.00e+00	0	48	0	39694893056	7	15282
2026-01-27 20:13:18.80	332.07	26.56	-18.6	-18.7	18.6	0.00e+00	0	48	0	40038825984	7	15736
2026-01-27 20:13:21.83	332.30	25.87	-18.8	-18.8	18.2	0.00e+00	0	48	0	40374370304	8	15117
2026-01-27 20:13:24.86	332.53	25.21	-19.0	-19.0	18.1	0.00e+00	0	48	0	40718303232	8	15454
2026-01-27 20:13:27.90	332.75	24.56	-19.2	-19.2	18.3	0.00e+00	0	48	0	41062236160	8	15799
2026-01-27 20:13:30.93	332.95	23.92	-19.4	-19.5	18.5	0.00e+00	0	48	0	41397780480	9	15375
2026-01-27 20:13:33.96	333.15	23.31	-19.7	-19.8	18.6	0.00e+00	0	48	0	41741713408	9	15879
2026-01-27 20:13:36.99	333.34	22.72	-19.9	-20.0	18.4	0.00e+00	0	47	0	42085646336	10	15332
2026-01-27 20:13:40.02	333.53	22.14	-20.1	-20.2	17.9	0.00e+00	0	47	0	42421190656	10	15765
2026-01-27 20:13:43.06	333.70	21.57	-20.4	-20.4	17.7	0.00e+00	0	48	0	42765123584	11	15245
2026-01-27 20:13:46.09	333.87	21.02	-20.5	-20.5	17.5	0.00e+00	0	48	0	43109056512	11	15424
2026-01-27 20:13:49.12	334.04	20.49	-20.7	-20.8	17.2	0.00e+00	0	48	0	43444600832	11	15897
2026-01-27 20:13:52.15	334.20	19.97	-20.7	-20.8	16.8	0.00e+00	0	47	0	43788533760	12	14993
2026-01-27 20:13:55.19	334.35	19.45	-20.8	-20.9	16.7	0.00e+00	0	47	0	44132466688	12	15169
2026-01-27 20:13:58.22	334.50	18.96	-21.0	-21.1	17.1	0.00e+00	0	48	0	44468011008	12	15485
2026-01-27 20:14:01.25	334.64	18.47	-21.1	-21.2	17.1	0.00e+00	0	47	0	44811943936	12	15788
2026-01-27 20:14:04.28	334.78	18.00	-21.4	-21.5	17.0	1.90e-06	0	47	0	45155876864	13	15378
2026-01-27 20:14:07.31	334.91	17.54	-21.6	-21.6	17.6	0.00e+00	0	47	0	45491421184	14	14756
2026-01-27 20:14:10.34	335.04	17.09	-21.8	-21.8	17.9	0.00e+00	0	47	0	45835354112	14	15114
2026-01-27 20:14:13.37	335.17	16.65	-22.0	-22.1	17.5	0.00e+00	0	47	0	46179287040	14	15577
2026-01-27 20:14:16.41	335.29	16.21	-22.3	-22.3	17.4	0.00e+00	0	48	0	46514831360	15	15119
2026-01-27 20:14:19.44	335.41	15.79	-22.4	-22.5	17.6	0.00e+00	0	47	0	46858764288	15	15366
2026-01-27 20:14:22.47	335.53	15.38	-22.5	-22.6	17.8	0.00e+00	0	48	0	47194308608	15	15542
2026-01-27 20:14:25.50	335.64	14.97	-22.8	-22.8	17.8	0.00e+00	0	48	0	47546630144	16	15099
2026-01-27 20:14:28.53	335.75	14.58	-23.0	-23.0	17.6	0.00e+00	0	47	0	47882174464	16	15424
2026-01-27 20:14:31.56	335.86	14.19	-23.1	-23.2	17.1	0.00e+00	0	48	0	48226107392	16	15732
2026-01-27 20:14:34.59	335.96	13.81	-23.3	-23.4	17.3	0.00e+00	0	48	0	48570040320	17	15140
2026-01-27 20:14:37.62	336.06	13.44	-23.3	-23.4	17.4	0.00e+00	0	48	0	48905584640	17	15178
2026-01-27 20:14:40.66	336.16	13.07	-23.4	-23.5	17.2	1.90e-06	0	47	0	49249517568	17	15340
2026-01-27 20:14:43.69	336.25	12.71	-23.5	-23.6	17.2	0.00e+00	0	47	0	49593450496	17	15563
2026-01-27 20:14:46.72	336.35	12.36	-23.6	-23.7	17.3	0.00e+00	0	48	0	49928994816	17	15667
2026-01-27 20:14:49.76	336.44	12.01	-23.8	-23.8	17.3	0.00e+00	0	48	0	50272927744	18	15091
2026-01-27 20:14:52.79	336.53	11.67	-23.9	-24.0	17.2	0.00e+00	0	47	0	50616860672	18	15382
2026-01-27 20:14:55.82	336.62	11.34	-24.2	-24.3	17.0	0.00e+00	0	48	0	50952404992	18	15836
2026-01-27 20:14:58.85	336.70	11.01	-46.7	-49.3	6.2	0.00e+00	0	47	104	51111788544	64	20113
2026-01-27 20:15:01.88	336.78	10.68	-46.8	-49.3	6.2	0.00e+00	0	47	104	51111788544	64	20060
2026-01-27 20:15:04.92	336.87	10.37	-46.7	-49.3	6.2	0.00e+00	0	47	104	51111788544	64	20018
2026-01-27 20:15:07.95	336.95	10.05	-46.7	-49.2	6.2	0.00e+00	0	47	104	51111788544	64	19808
2026-01-27 20:15:10.98	337.02	9.75	-46.7	-49.2	6.2	0.00e+00	0	47	104	51111788544	64	19840
2026-01-27 20:15:14.01	337.10	9.44	-46.6	-49.2	6.2	0.00e+00	0	47	104	51111788544	64	19729
2026-01-27 20:15:17.04	337.18	9.15	-46.6	-49.1	6.2	0.00e+00	0	47	104	51111788544	64	19633
2026-01-27 20:15:20.08	337.25	8.85	-46.5	-49.1	6.2	0.00e+00	0	47	104	51111788544	64	19574
2026-01-27 20:15:23.11	337.32	8.56	-46.5	-49.1	6.2	0.00e+00	0	47	104	51111788544	64	19496
2026-01-27 20:15:26.14	337.39	8.28	-46.5	-49.1	6.2	0.00e+00	0	47	104	51111788544	64	19566
2026-01-27 20:15:29.17	337.46	8.00	-46.4	-48.9	6.2	0.00e+00	0	47	104	51111788544	64	19251
2026-01-27 20:15:32.20	337.53	7.72	-46.4	-49.0	6.2	0.00e+00	0	47	104	51111788544	64	19313
2026-01-27 20:15:35.23	337.60	7.45	-46.4	-48.9	6.2	0.00e+00	0	47	104	51111788544	64	19154
2026-01-27 20:15:38.26	337.66	7.18	-46.4	-49.0	6.2	0.00e+00	0	47	104	51111788544	64	19329
2026-01-27 20:15:41.29	337.73	6.91	-46.2	-48.8	6.2	0.00e+00	0	47	104	51111788544	64	18820
2026-01-27 20:15:44.32	337.79	6.65	-46.3	-48.8	6.2	0.00e+00	0	47	104	51111788544	64	18937
2026-01-27 20:15:47.35	337.85	6.39	-46.2	-48.7	6.2	0.00e+00	0	47	104	51111788544	64	18643
2026-01-27 20:15:50.38	337.91	6.14	-46.2	-48.8	6.2	0.00e+00	0	47	104	51111788544	64	18914
2026-01-27 20:15:53.42	337.97	5.89	-46.0	-48.6	6.2	0.00e+00	0	47	104	51111788544	63	19516
2026-01-27 20:15:56.45	338.03	5.64	-46.1	-48.7	6.2	0.00e+00	0	47	104	51111788544	63	19764
2026-01-27 20:15:59.48	338.09	5.39	-46.0	-48.5	6.2	0.00e+00	0	47	104	51111788544	63	19455
2026-01-27 20:16:02.51	338.15	5.15	-46.1	-48.6	6.2	0.00e+00	0	47	104	51111788544	63	19674
2026-01-27 20:16:05.54	338.20	4.91	-46.7	-49.2	6.2	0.00e+00	0	47	104	51111788544	64	19833
2026-01-27 20:16:08.58	338.26	4.67	-47.3	-49.8	6.2	0.00e+00	0	47	104	51111788544	65	20060
2026-01-27 20:16:11.61	338.31	4.43	-47.5	-50.1	6.2	0.00e+00	0	47	104	51111788544	65	20723
2026-01-27 20:16:14.64	338.37	4.20	-47.5	-50.1	6.2	0.00e+00	0	47	104	51111788544	65	20639
2026-01-27 20:16:17.67	338.42	3.97	-47.2	-49.8	6.2	0.00e+00	0	47	104	51111788544	65	19974
2026-01-27 20:16:20.70	338.47	3.75	-47.3	-49.9	6.2	0.00e+00	0	47	104	51111788544	65	20259
2026-01-27 20:16:23.73	338.52	3.52	-47.4	-49.9	6.2	0.00e+00	0	47	104	51111788544	65	20384
2026-01-27 20:16:26.76	338.58	3.30	-47.3	-49.9	6.2	0.00e+00	0	47	104	51111788544	65	20220
2026-01-27 20:16:29.79	338.63	3.08	-47.3	-49.8	6.2	0.00e+00	0	47	104	51111788544	65	20029
2026-01-27 20:16:32.82	338.68	2.86	-47.2	-49.8	6.2	0.00e+00	0	47	104	51111788544	65	20018
2026-01-27 20:16:35.85	338.72	2.65	-47.2	-49.8	6.2	0.00e+00	0	47	104	51111788544	65	20006
2026-01-27 20:16:38.89	338.77	2.43	-47.2	-49.7	6.2	0.00e+00	0	47	104	51111788544	65	19908
2026-01-27 20:16:41.92	338.82	2.22	-47.2	-49.7	6.2	0.00e+00	0	47	104	51111788544	65	19897
2026-01-27 20:16:44.95	338.87	2.01	-47.2	-49.7	6.2	0.00e+00	0	47	104	51111788544	65	19828

#Closed at: 2026-01-27 20:16:45
#Recorded file [51111 MB]: D:/lorett/data/31045_260127_230549.dat