passes_logs/2026/01/03/R4.6S_Anadyr_2ch/R4.6S_Anadyr_2ch__20260103_072626_2025-108B_rec.log

#Pass ID: 20260103_072626_2025-108B
#Satellite: 2025-108B
#Configuration: 3PB_600M
#almurnet v.1.7.20251203
#Start time: 2026-01-03 07:26:29

#Version: 2.2.20231116
#Station: R4.6S_Anadyr_2ch
#Location: 177.4865 lon 64.73178 lat
#TLE: 1 64088U 25108B   25351.01672131  .00008460  00000+0  43413-3 0  9994
#TLE: 2 64088  97.4940  63.8579 0011684 285.1423  74.8517 15.16717580 31720

#Time	Az	El	Level	Level2	SNR	BER	BlckErr	Temp	State	Recorded	gain1	gain2
2026-01-03 07:26:29.53	101.73	0.19	-53.6	-54.6	3.3	0.00e+00	0	36	0	0	60	91104
2026-01-03 07:26:32.56	101.48	0.36	-53.5	-55.9	3.6	0.00e+00	0	36	104	0	60	105615
2026-01-03 07:26:35.59	101.22	0.53	-53.8	-56.2	3.6	0.00e+00	0	36	104	0	60	109678
2026-01-03 07:26:38.62	100.96	0.70	-53.7	-56.1	3.6	0.00e+00	0	36	104	0	60	107622
2026-01-03 07:26:41.65	100.70	0.87	-53.2	-55.7	3.6	0.00e+00	0	36	104	0	60	103026
2026-01-03 07:26:44.68	100.43	1.05	-53.2	-55.6	3.6	0.00e+00	0	36	104	0	60	102201
2026-01-03 07:26:47.70	100.16	1.22	-53.2	-55.7	3.6	0.00e+00	0	36	104	0	60	102519
2026-01-03 07:26:50.73	99.89	1.39	-53.1	-55.5	3.6	0.00e+00	0	37	104	0	60	100543
2026-01-03 07:26:53.76	99.61	1.57	-53.3	-55.8	3.6	0.00e+00	0	37	104	0	60	103969
2026-01-03 07:26:56.79	99.32	1.74	-53.5	-55.9	3.6	0.00e+00	0	37	104	0	60	105929
2026-01-03 07:26:59.82	99.03	1.92	-53.6	-56.0	3.6	0.00e+00	0	37	104	0	60	106894
2026-01-03 07:27:02.85	98.74	2.10	-53.2	-55.7	3.6	0.00e+00	0	37	104	0	60	102518
2026-01-03 07:27:05.89	98.44	2.28	-52.7	-55.2	3.6	0.00e+00	0	37	104	0	60	96879
2026-01-03 07:27:08.92	98.14	2.46	-53.0	-55.4	3.6	0.00e+00	0	37	104	0	60	100123
2026-01-03 07:27:11.95	97.83	2.64	-52.8	-55.3	3.6	0.00e+00	0	37	104	0	60	98457
2026-01-03 07:27:14.98	97.52	2.82	-53.0	-55.4	3.6	0.00e+00	0	37	104	0	60	99778
2026-01-03 07:27:18.01	97.20	3.00	-53.0	-55.5	3.6	0.00e+00	0	37	104	0	60	100632
2026-01-03 07:27:21.04	96.88	3.18	-52.8	-55.2	3.6	0.00e+00	0	37	104	0	60	97745
2026-01-03 07:27:24.07	96.55	3.37	-52.8	-55.3	3.5	0.00e+00	0	37	104	0	60	98167
2026-01-03 07:27:27.10	96.22	3.55	-53.0	-55.5	3.6	0.00e+00	0	37	104	0	60	100174
2026-01-03 07:27:30.13	95.88	3.74	-53.1	-55.6	3.6	0.00e+00	0	37	104	0	60	101461
2026-01-03 07:27:33.16	95.54	3.92	-53.1	-55.6	3.6	0.00e+00	0	37	104	0	60	101545
2026-01-03 07:27:36.19	95.19	4.11	-53.1	-55.5	3.6	0.00e+00	0	38	104	0	60	100290
2026-01-03 07:27:39.22	94.83	4.30	-53.3	-55.7	3.6	0.00e+00	0	38	104	0	60	103496
2026-01-03 07:27:42.26	94.47	4.49	-53.0	-55.5	3.6	0.00e+00	0	38	104	0	60	100432
2026-01-03 07:27:45.29	94.10	4.67	-53.3	-55.8	3.6	0.00e+00	0	38	104	0	60	103972
2026-01-03 07:27:48.31	93.73	4.86	-53.1	-55.6	3.6	0.00e+00	0	38	104	0	60	101583
2026-01-03 07:27:51.34	93.35	5.06	-53.0	-55.4	3.6	0.00e+00	0	38	104	0	60	100082
2026-01-03 07:27:54.37	92.96	5.25	-53.0	-55.4	3.6	0.00e+00	0	38	104	0	60	100093
2026-01-03 07:27:57.40	92.57	5.44	-53.1	-55.5	3.6	0.00e+00	0	38	104	0	60	100994
2026-01-03 07:28:00.43	92.17	5.63	-53.2	-55.6	3.6	0.00e+00	0	38	104	0	60	102205
2026-01-03 07:28:03.46	91.77	5.83	-52.9	-55.4	3.6	0.00e+00	0	38	104	0	60	99484
2026-01-03 07:28:06.49	91.35	6.02	-53.1	-55.6	3.6	0.00e+00	0	38	104	0	60	101491
2026-01-03 07:28:09.52	90.93	6.22	-53.1	-55.5	3.6	0.00e+00	0	38	104	0	60	100885
2026-01-03 07:28:12.55	90.51	6.41	-52.8	-55.3	3.6	0.00e+00	0	38	104	0	60	98600
2026-01-03 07:28:15.58	90.07	6.61	-52.7	-55.2	3.6	0.00e+00	0	38	104	0	60	97414
2026-01-03 07:28:18.61	89.63	6.81	-52.8	-55.3	3.6	0.00e+00	0	38	104	0	60	98162
2026-01-03 07:28:21.64	89.18	7.01	-52.7	-55.2	3.5	0.00e+00	0	38	104	0	60	96922
2026-01-03 07:28:24.68	88.73	7.20	-52.9	-55.4	3.6	0.00e+00	0	38	104	0	60	99626
2026-01-03 07:28:27.71	88.26	7.40	-52.9	-55.4	3.6	0.00e+00	0	38	104	0	60	99384
2026-01-03 07:28:30.74	87.79	7.60	-52.9	-55.3	3.6	0.00e+00	0	38	104	0	60	98396
2026-01-03 07:28:33.77	87.31	7.80	-53.0	-55.5	3.6	0.00e+00	0	38	104	0	60	100197
2026-01-03 07:28:36.80	86.82	8.00	-52.8	-55.2	3.6	0.00e+00	0	38	104	0	60	97405
2026-01-03 07:28:39.83	86.32	8.20	-52.7	-55.1	3.6	0.00e+00	0	38	104	0	60	95925
2026-01-03 07:28:42.87	85.81	8.41	-52.7	-55.1	3.6	0.00e+00	0	38	104	0	60	96308
2026-01-03 07:28:45.89	85.30	8.61	-52.6	-55.1	3.6	0.00e+00	0	39	104	0	60	95984
2026-01-03 07:28:48.92	84.78	8.81	-52.7	-55.1	3.6	0.00e+00	0	38	104	0	60	96277
2026-01-03 07:28:51.96	84.24	9.01	-52.6	-55.1	3.5	0.00e+00	0	38	104	0	60	95640
2026-01-03 07:28:54.99	83.70	9.21	-52.6	-55.1	3.6	0.00e+00	0	38	104	0	60	96059
2026-01-03 07:28:58.02	83.15	9.41	-52.9	-55.4	3.6	0.00e+00	0	39	104	0	60	99343
2026-01-03 07:29:01.05	82.59	9.61	-53.1	-55.5	3.6	0.00e+00	0	39	104	0	60	100719
2026-01-03 07:29:04.09	82.02	9.82	-53.0	-55.5	3.6	0.00e+00	0	39	104	0	60	100525
2026-01-03 07:29:07.12	81.44	10.02	-53.1	-55.6	3.6	0.00e+00	0	39	104	0	60	101298
2026-01-03 07:29:10.15	80.85	10.22	-53.1	-55.6	3.6	0.00e+00	0	39	104	0	60	101384
2026-01-03 07:29:13.18	80.25	10.42	-53.5	-56.0	3.6	0.00e+00	0	39	104	0	60	106120
2026-01-03 07:29:16.21	79.64	10.62	-53.1	-55.6	3.6	0.00e+00	0	39	104	0	60	101687
2026-01-03 07:29:19.24	79.02	10.82	-53.2	-55.7	3.6	0.00e+00	0	39	104	0	60	102669
2026-01-03 07:29:22.27	78.39	11.02	-52.7	-55.2	3.6	0.00e+00	0	39	104	0	60	97006
2026-01-03 07:29:25.30	77.75	11.21	-52.8	-55.3	3.6	0.00e+00	0	39	104	0	60	98007
2026-01-03 07:29:28.34	77.10	11.41	-52.8	-55.2	3.6	0.00e+00	0	39	104	0	60	97618
2026-01-03 07:29:31.37	76.44	11.61	-52.9	-55.4	3.6	0.00e+00	0	39	104	0	60	99051
2026-01-03 07:29:34.40	75.77	11.80	-52.9	-55.4	3.6	0.00e+00	0	39	104	0	60	99352
2026-01-03 07:29:37.43	75.08	11.99	-52.9	-55.4	3.6	0.00e+00	0	39	104	0	60	99232
2026-01-03 07:29:40.46	74.39	12.18	-52.7	-55.2	3.6	0.00e+00	0	39	104	0	60	97359
2026-01-03 07:29:43.50	73.68	12.37	-52.8	-55.3	3.6	0.00e+00	0	39	104	0	60	98076
2026-01-03 07:29:46.53	72.97	12.56	-52.9	-55.3	3.6	0.00e+00	0	39	104	0	60	98298
2026-01-03 07:29:49.56	72.24	12.75	-52.8	-55.2	3.6	0.00e+00	0	39	104	0	60	97481
2026-01-03 07:29:52.59	71.51	12.93	-52.7	-55.2	3.6	0.00e+00	0	39	104	0	60	96759
2026-01-03 07:29:55.62	70.76	13.11	-52.7	-55.2	3.6	0.00e+00	0	39	104	0	60	97054
2026-01-03 07:29:58.65	70.00	13.29	-52.6	-55.1	3.6	0.00e+00	0	39	104	0	60	95991
2026-01-03 07:30:01.68	69.23	13.46	-52.6	-55.1	3.6	0.00e+00	0	39	104	0	60	95978
2026-01-03 07:30:04.71	68.45	13.64	-52.6	-55.1	3.6	0.00e+00	0	39	104	0	60	96192
2026-01-03 07:30:07.75	67.65	13.81	-52.6	-55.1	3.6	0.00e+00	0	39	104	0	60	95690
2026-01-03 07:30:10.78	66.85	13.97	-52.5	-55.0	3.6	0.00e+00	0	39	104	0	60	95217
2026-01-03 07:30:13.81	66.04	14.13	-52.6	-55.0	3.6	0.00e+00	0	39	104	0	60	95207
2026-01-03 07:30:16.84	65.22	14.29	-52.6	-55.1	3.6	0.00e+00	0	39	104	0	60	95841
2026-01-03 07:30:19.87	64.38	14.45	-52.6	-55.0	3.6	0.00e+00	0	39	104	0	60	95449
2026-01-03 07:30:22.90	63.54	14.60	-52.6	-55.1	3.6	0.00e+00	0	39	104	0	60	96276
2026-01-03 07:30:25.93	62.69	14.74	-52.6	-55.0	3.6	0.00e+00	0	39	104	0	60	95482
2026-01-03 07:30:28.96	61.82	14.89	-52.5	-55.0	3.6	0.00e+00	0	39	104	0	60	94804
2026-01-03 07:30:31.99	60.95	15.02	-52.5	-55.0	3.6	0.00e+00	0	39	104	0	60	94706
2026-01-03 07:30:35.02	60.07	15.16	-52.8	-55.3	3.5	0.00e+00	0	39	104	0	60	98033
2026-01-03 07:30:38.05	59.18	15.28	-52.9	-55.4	3.6	0.00e+00	0	39	104	0	60	99506
2026-01-03 07:30:41.09	58.28	15.40	-52.8	-55.2	3.6	0.00e+00	0	39	104	0	60	97599
2026-01-03 07:30:44.12	57.37	15.52	-52.7	-55.1	3.6	0.00e+00	0	39	104	0	60	96433
2026-01-03 07:30:47.15	56.45	15.63	-53.0	-55.5	3.6	0.00e+00	0	39	104	0	60	100148
2026-01-03 07:30:50.18	55.53	15.73	-53.1	-55.5	3.6	0.00e+00	0	39	104	0	60	100467
2026-01-03 07:30:53.22	54.59	15.83	-53.0	-55.5	3.6	0.00e+00	0	39	104	0	60	100133
2026-01-03 07:30:56.25	53.66	15.92	-53.1	-55.5	3.6	0.00e+00	0	39	104	0	60	100531
2026-01-03 07:30:59.28	52.71	16.01	-53.2	-55.7	3.6	0.00e+00	0	39	104	0	60	102550
2026-01-03 07:31:02.31	51.76	16.09	-53.2	-55.6	3.5	0.00e+00	0	39	104	0	60	102160
2026-01-03 07:31:05.35	50.80	16.16	-52.9	-55.4	3.6	0.00e+00	0	39	104	0	60	99427
2026-01-03 07:31:08.38	49.84	16.22	-53.1	-55.5	3.6	0.00e+00	0	39	104	0	60	101260
2026-01-03 07:31:11.42	48.87	16.28	-53.1	-55.5	3.6	0.00e+00	0	39	104	0	60	100323
2026-01-03 07:31:14.45	47.90	16.33	-53.0	-55.4	3.6	0.00e+00	0	39	104	0	60	99466
2026-01-03 07:31:17.48	46.93	16.38	-53.3	-55.7	3.6	0.00e+00	0	39	104	0	60	103596
2026-01-03 07:31:20.52	45.95	16.41	-53.5	-55.9	3.6	0.00e+00	0	39	104	0	60	105697
2026-01-03 07:31:23.55	44.97	16.44	-53.4	-55.8	3.6	0.00e+00	0	39	104	0	60	104210
2026-01-03 07:31:26.58	43.99	16.46	-53.3	-55.8	3.6	0.00e+00	0	39	104	0	60	104586
2026-01-03 07:31:29.62	43.00	16.47	-53.2	-55.7	3.6	0.00e+00	0	39	104	0	60	102803
2026-01-03 07:31:32.65	42.02	16.48	-53.1	-55.6	3.6	0.00e+00	0	39	104	0	60	101835
2026-01-03 07:31:35.68	41.04	16.48	-53.5	-55.9	3.6	0.00e+00	0	39	104	0	60	105543
2026-01-03 07:31:38.71	40.06	16.47	-53.3	-55.8	3.6	0.00e+00	0	39	104	0	60	104572
2026-01-03 07:31:41.74	39.08	16.45	-53.4	-55.9	3.6	0.00e+00	0	39	104	0	60	105198
2026-01-03 07:31:44.77	38.10	16.43	-53.3	-55.8	3.6	0.00e+00	0	39	104	0	60	104135
2026-01-03 07:31:47.80	37.12	16.40	-53.4	-55.9	3.6	0.00e+00	0	39	104	0	60	105058
2026-01-03 07:31:50.84	36.14	16.36	-53.3	-55.6	3.5	0.00e+00	0	39	104	0	60	102461
2026-01-03 07:31:53.87	35.17	16.31	-53.4	-55.9	3.6	0.00e+00	0	39	104	0	60	105490
2026-01-03 07:31:56.90	34.20	16.26	-53.2	-55.6	3.6	0.00e+00	0	39	104	0	60	102214
2026-01-03 07:31:59.94	33.24	16.19	-53.6	-56.1	3.6	0.00e+00	0	39	104	0	60	107551
2026-01-03 07:32:02.97	32.28	16.13	-53.7	-56.2	3.6	0.00e+00	0	39	104	0	60	109323
2026-01-03 07:32:06.00	31.33	16.05	-53.5	-55.9	3.6	0.00e+00	0	39	104	0	60	105739
2026-01-03 07:32:09.03	30.38	15.97	-53.6	-56.0	3.6	0.00e+00	0	39	104	0	60	106374
2026-01-03 07:32:12.07	29.44	15.88	-53.4	-55.9	3.6	0.00e+00	0	39	104	0	60	105129
2026-01-03 07:32:15.10	28.50	15.79	-53.7	-56.2	3.6	0.00e+00	0	39	104	0	60	108580
2026-01-03 07:32:18.13	27.58	15.69	-53.4	-55.9	3.6	0.00e+00	0	39	104	0	60	105010
2026-01-03 07:32:21.17	26.65	15.58	-53.8	-56.2	3.6	0.00e+00	0	39	104	0	60	109354
2026-01-03 07:32:24.20	25.74	15.47	-53.4	-55.9	3.6	0.00e+00	0	39	104	0	60	104991
2026-01-03 07:32:27.23	24.84	15.35	-53.5	-56.0	3.6	0.00e+00	0	39	104	0	60	106623
2026-01-03 07:32:30.27	23.94	15.22	-53.2	-55.6	3.6	0.00e+00	0	39	104	0	60	101996
2026-01-03 07:32:33.30	23.06	15.09	-53.4	-55.9	3.6	0.00e+00	0	39	104	0	60	104898
2026-01-03 07:32:36.33	22.18	14.96	-53.6	-56.1	3.6	0.00e+00	0	39	104	0	60	108034
2026-01-03 07:32:39.37	21.31	14.82	-53.5	-56.0	3.6	0.00e+00	0	39	104	0	60	107162
2026-01-03 07:32:42.40	20.45	14.68	-53.4	-55.8	3.6	0.00e+00	0	39	104	0	60	104521
2026-01-03 07:32:45.43	19.61	14.53	-53.6	-56.0	3.6	0.00e+00	0	39	104	0	60	106349
2026-01-03 07:32:48.46	18.77	14.37	-53.3	-55.8	3.6	0.00e+00	0	39	104	0	60	103651
2026-01-03 07:32:51.50	17.94	14.22	-53.1	-55.6	3.6	0.00e+00	0	39	104	0	60	101491
2026-01-03 07:32:54.53	17.12	14.06	-53.5	-55.9	3.6	0.00e+00	0	39	104	0	60	106055
2026-01-03 07:32:57.56	16.32	13.89	-53.3	-55.7	3.6	0.00e+00	0	39	104	0	60	102715
2026-01-03 07:33:00.59	15.52	13.73	-53.2	-55.6	3.6	0.00e+00	0	39	104	0	60	101769
2026-01-03 07:33:03.63	14.73	13.55	-53.2	-55.7	3.6	0.00e+00	0	39	104	0	60	102683
2026-01-03 07:33:06.66	13.96	13.38	-53.5	-55.9	3.6	0.00e+00	0	39	104	0	60	105527
2026-01-03 07:33:09.69	13.20	13.20	-53.4	-55.9	3.6	0.00e+00	0	39	104	0	60	105047
2026-01-03 07:33:12.73	12.44	13.02	-53.4	-55.9	3.6	0.00e+00	0	39	104	0	60	105202
2026-01-03 07:33:15.76	11.70	12.84	-53.0	-55.4	3.6	0.00e+00	0	39	104	0	60	99919
2026-01-03 07:33:18.79	10.97	12.66	-53.4	-55.9	3.6	0.00e+00	0	39	104	0	60	105417
2026-01-03 07:33:21.83	10.25	12.47	-53.2	-55.6	3.6	0.00e+00	0	39	104	0	60	102206
2026-01-03 07:33:24.86	9.54	12.28	-53.5	-56.0	3.6	0.00e+00	0	39	104	0	60	106332
2026-01-03 07:33:27.89	8.85	12.09	-53.8	-56.2	3.6	0.00e+00	0	39	104	0	60	109404
2026-01-03 07:33:30.92	8.16	11.90	-53.9	-56.3	3.6	0.00e+00	0	39	104	0	60	110806
2026-01-03 07:33:33.96	7.48	11.71	-53.9	-56.3	3.6	0.00e+00	0	39	104	0	60	110500
2026-01-03 07:33:36.99	6.82	11.51	-53.7	-56.2	3.5	0.00e+00	0	39	104	0	60	108958
2026-01-03 07:33:40.02	6.16	11.32	-53.3	-55.7	3.6	0.00e+00	0	39	104	0	60	102816
2026-01-03 07:33:43.06	5.52	11.12	-53.6	-56.1	3.6	0.00e+00	0	39	104	0	60	108423
2026-01-03 07:33:46.09	4.88	10.92	-53.4	-55.9	3.6	0.00e+00	0	39	104	0	60	105475
2026-01-03 07:33:49.12	4.26	10.73	-53.5	-55.9	3.6	0.00e+00	0	39	104	0	60	105422
2026-01-03 07:33:52.15	3.65	10.53	-53.9	-56.4	3.6	0.00e+00	0	39	104	0	60	111750
2026-01-03 07:33:55.19	3.04	10.33	-53.7	-56.1	3.6	0.00e+00	0	39	104	0	60	108518
2026-01-03 07:33:58.22	2.45	10.13	-53.5	-56.0	3.6	0.00e+00	0	39	104	0	60	106445
2026-01-03 07:34:01.25	1.87	9.93	-53.1	-55.6	3.6	0.00e+00	0	39	104	0	60	101485
2026-01-03 07:34:04.29	1.29	9.72	-53.8	-56.2	3.6	0.00e+00	0	39	104	0	60	108874
2026-01-03 07:34:07.32	0.73	9.52	-54.1	-56.5	3.6	0.00e+00	0	39	104	0	60	113283
2026-01-03 07:34:10.35	0.18	9.32	-53.9	-56.3	3.6	0.00e+00	0	39	104	0	60	110173
2026-01-03 07:34:13.38	359.63	9.12	-53.5	-55.9	3.6	0.00e+00	0	39	104	0	60	106020
2026-01-03 07:34:16.42	359.10	8.92	-53.4	-55.9	3.6	0.00e+00	0	39	104	0	60	105124
2026-01-03 07:34:19.45	358.57	8.72	-53.4	-55.9	3.6	0.00e+00	0	39	104	0	60	105259
2026-01-03 07:34:22.48	358.05	8.52	-53.7	-56.1	3.6	0.00e+00	0	39	104	0	60	108150
2026-01-03 07:34:25.51	357.54	8.32	-53.9	-56.4	3.6	0.00e+00	0	39	104	0	60	111662
2026-01-03 07:34:28.55	357.04	8.11	-53.5	-56.0	3.5	0.00e+00	0	39	104	0	60	106634
2026-01-03 07:34:31.58	356.55	7.91	-53.7	-56.1	3.6	0.00e+00	0	39	104	0	60	108475
2026-01-03 07:34:34.61	356.07	7.71	-53.5	-56.0	3.5	0.00e+00	0	39	104	0	60	106272
2026-01-03 07:34:37.65	355.59	7.51	-53.3	-55.8	3.6	0.00e+00	0	39	104	0	60	104459
2026-01-03 07:34:40.68	355.12	7.32	-53.3	-55.7	3.6	0.00e+00	0	39	104	0	60	103487
2026-01-03 07:34:43.71	354.67	7.12	-53.2	-55.6	3.6	0.00e+00	0	39	104	0	60	102439
2026-01-03 07:34:46.74	354.22	6.92	-53.2	-55.6	3.5	0.00e+00	0	39	104	0	60	101984
2026-01-03 07:34:49.78	353.77	6.72	-53.1	-55.6	3.6	0.00e+00	0	39	104	0	60	102013
2026-01-03 07:34:52.81	353.33	6.52	-53.0	-55.5	3.6	0.00e+00	0	39	104	0	60	100922
2026-01-03 07:34:55.84	352.91	6.33	-53.3	-55.8	3.6	0.00e+00	0	39	104	0	60	104070
2026-01-03 07:34:58.88	352.48	6.13	-53.1	-55.6	3.6	0.00e+00	0	39	104	0	60	101746
2026-01-03 07:35:01.91	352.07	5.94	-53.3	-55.8	3.6	0.00e+00	0	39	104	0	60	103851
2026-01-03 07:35:04.94	351.66	5.74	-53.2	-55.7	3.6	0.00e+00	0	39	104	0	60	102722
2026-01-03 07:35:07.97	351.26	5.55	-53.3	-55.8	3.6	0.00e+00	0	39	104	0	60	103759
2026-01-03 07:35:11.01	350.87	5.36	-53.5	-55.9	3.6	0.00e+00	0	39	104	0	60	105486
2026-01-03 07:35:14.04	350.48	5.16	-53.1	-55.5	3.6	0.00e+00	0	39	104	0	60	100696
2026-01-03 07:35:17.07	350.10	4.97	-53.5	-55.9	3.6	0.00e+00	0	39	104	0	60	106061
2026-01-03 07:35:20.10	349.72	4.78	-53.5	-56.0	3.6	0.00e+00	0	39	104	0	60	106327
2026-01-03 07:35:23.13	349.36	4.59	-53.8	-56.3	3.6	0.00e+00	0	39	104	0	60	110499
2026-01-03 07:35:26.16	348.99	4.40	-54.0	-56.4	3.6	0.00e+00	0	39	104	0	60	112079
2026-01-03 07:35:29.20	348.64	4.22	-53.2	-55.7	3.6	0.00e+00	0	39	104	0	60	102815
2026-01-03 07:35:32.23	348.29	4.03	-53.8	-56.2	3.6	0.00e+00	0	39	104	0	60	108823
2026-01-03 07:35:35.26	347.94	3.84	-53.7	-56.1	3.6	0.00e+00	0	39	104	0	60	108117
2026-01-03 07:35:38.29	347.60	3.66	-53.7	-56.1	3.6	0.00e+00	0	39	104	0	60	108514
2026-01-03 07:35:41.33	347.27	3.47	-53.8	-56.2	3.6	0.00e+00	0	39	104	0	60	109744
2026-01-03 07:35:44.35	346.94	3.29	-53.9	-56.3	3.6	0.00e+00	0	39	104	0	60	110765
2026-01-03 07:35:47.39	346.62	3.11	-54.0	-56.5	3.6	0.00e+00	0	39	104	0	60	112355
2026-01-03 07:35:50.42	346.30	2.92	-53.3	-55.8	3.6	0.00e+00	0	39	104	0	60	103794
2026-01-03 07:35:53.45	345.98	2.74	-53.3	-55.7	3.6	0.00e+00	0	39	104	0	60	103391
2026-01-03 07:35:56.48	345.68	2.56	-53.6	-56.0	3.6	0.00e+00	0	39	104	0	60	107076
2026-01-03 07:35:59.51	345.37	2.38	-53.8	-56.2	3.6	0.00e+00	0	39	104	0	60	109434
2026-01-03 07:36:02.54	345.08	2.20	-53.4	-55.9	3.6	0.00e+00	0	39	104	0	60	105584
2026-01-03 07:36:05.57	344.78	2.03	-53.3	-55.7	3.6	0.00e+00	0	39	104	0	60	103599
2026-01-03 07:36:08.61	344.49	1.85	-53.8	-56.2	3.6	0.00e+00	0	39	104	0	60	109493
2026-01-03 07:36:11.64	344.21	1.67	-53.7	-56.2	3.6	0.00e+00	0	39	104	0	60	109038
2026-01-03 07:36:14.67	343.93	1.50	-53.5	-56.0	3.6	0.00e+00	0	39	104	0	60	106322
2026-01-03 07:36:17.70	343.65	1.32	-53.6	-56.0	3.5	0.00e+00	0	39	104	0	60	107100
2026-01-03 07:36:20.74	343.38	1.15	-54.0	-56.4	3.6	0.00e+00	0	39	104	0	60	112058
2026-01-03 07:36:23.77	343.11	0.98	-53.6	-56.1	3.6	0.00e+00	0	39	104	0	60	107306
2026-01-03 07:36:26.80	342.85	0.80	-53.8	-56.2	3.6	0.00e+00	0	39	104	0	60	109471
2026-01-03 07:36:29.83	342.59	0.63	-53.6	-56.0	3.5	0.00e+00	0	39	104	0	60	106550
2026-01-03 07:36:32.86	342.33	0.46	-53.6	-56.1	3.6	0.00e+00	0	39	104	0	60	107689
2026-01-03 07:36:35.89	342.08	0.29	-53.5	-55.9	3.6	0.00e+00	0	39	104	0	60	105467
2026-01-03 07:36:38.92	341.83	0.12	-53.8	-56.2	3.6	0.00e+00	0	39	104	0	60	108817
2026-01-03 07:36:41.95	341.59	-0.05	-54.0	-56.5	3.6	0.00e+00	0	39	104	0	60	112615

#Closed at: 2026-01-03 07:36:43
#Recorded file [0 MB]: D:/lorett/data/35034_260103_102629.dat