passes_logs/2026/01/03/R4.6S_Anadyr_2ch/R4.6S_Anadyr_2ch__20260103_024939_2025-108B_rec.log

#Pass ID: 20260103_024939_2025-108B
#Satellite: 2025-108B
#Configuration: 3PB_600M
#almurnet v.1.7.20251203
#Start time: 2026-01-03 02:49:42

#Version: 2.2.20231116
#Station: R4.6S_Anadyr_2ch
#Location: 177.4865 lon 64.73178 lat
#TLE: 1 64088U 25108B   25351.01672131  .00008460  00000+0  43413-3 0  9994
#TLE: 2 64088  97.4940  63.8579 0011684 285.1423  74.8517 15.16717580 31720

#Time	Az	El	Level	Level2	SNR	BER	BlckErr	Temp	State	Recorded	gain1	gain2
2026-01-03 02:49:42.11	21.45	0.12	-52.1	-53.4	3.4	0.00e+00	0	34	0	0	60	79055
2026-01-03 02:49:44.13	21.22	0.21	-52.5	-54.9	3.6	0.00e+00	0	35	104	0	60	93964
2026-01-03 02:49:46.15	21.00	0.31	-52.6	-55.1	3.6	0.00e+00	0	36	104	0	60	95661
2026-01-03 02:49:48.17	20.77	0.40	-52.5	-55.0	3.6	0.00e+00	0	36	104	0	60	94548
2026-01-03 02:49:50.19	20.54	0.50	-52.6	-55.1	3.6	0.00e+00	0	36	104	0	60	95795
2026-01-03 02:49:52.21	20.31	0.60	-52.5	-55.0	3.6	0.00e+00	0	36	104	0	60	94652
2026-01-03 02:49:54.24	20.08	0.69	-52.4	-54.8	3.5	0.00e+00	0	36	104	0	60	92748
2026-01-03 02:49:56.26	19.85	0.79	-52.4	-54.8	3.6	0.00e+00	0	36	104	0	60	93028
2026-01-03 02:49:58.28	19.61	0.89	-52.5	-54.9	3.6	0.00e+00	0	36	104	0	60	94314
2026-01-03 02:50:00.30	19.37	0.98	-52.6	-55.0	3.6	0.00e+00	0	36	104	0	60	94568
2026-01-03 02:50:02.33	19.13	1.08	-52.6	-55.1	3.6	0.00e+00	0	36	104	0	60	96126
2026-01-03 02:50:04.35	18.89	1.18	-52.6	-55.0	3.6	0.00e+00	0	36	104	0	60	95242
2026-01-03 02:50:06.37	18.65	1.27	-52.6	-55.0	3.6	0.00e+00	0	36	104	0	60	95562
2026-01-03 02:50:08.39	18.40	1.37	-52.6	-55.0	3.6	0.00e+00	0	36	104	0	60	95460
2026-01-03 02:50:10.41	18.15	1.47	-52.6	-55.0	3.6	0.00e+00	0	36	104	0	60	95519
2026-01-03 02:50:12.44	17.90	1.56	-52.6	-55.0	3.6	0.00e+00	0	37	104	0	60	95538
2026-01-03 02:50:14.46	17.65	1.66	-52.6	-55.0	3.6	0.00e+00	0	37	104	0	60	95347
2026-01-03 02:50:16.48	17.39	1.76	-52.6	-55.1	3.6	0.00e+00	0	37	104	0	60	95728
2026-01-03 02:50:18.50	17.13	1.85	-52.6	-55.0	3.6	0.00e+00	0	37	104	0	60	95349
2026-01-03 02:50:20.52	16.88	1.95	-52.6	-55.0	3.6	0.00e+00	0	37	104	0	60	95229
2026-01-03 02:50:22.54	16.61	2.04	-52.6	-55.0	3.6	0.00e+00	0	37	104	0	60	95235
2026-01-03 02:50:24.57	16.35	2.14	-52.5	-54.9	3.6	0.00e+00	0	37	104	0	60	94384
2026-01-03 02:50:26.59	16.08	2.24	-52.6	-55.1	3.6	0.00e+00	0	37	104	0	60	95656
2026-01-03 02:50:28.61	15.82	2.33	-52.5	-55.0	3.6	0.00e+00	0	37	104	0	60	94682
2026-01-03 02:50:30.63	15.55	2.43	-52.5	-54.9	3.6	0.00e+00	0	37	104	0	60	94118
2026-01-03 02:50:32.65	15.27	2.53	-52.7	-55.1	3.6	0.00e+00	0	37	104	0	60	96551
2026-01-03 02:50:34.67	15.00	2.62	-52.6	-55.1	3.5	0.00e+00	0	37	104	0	60	96222
2026-01-03 02:50:36.69	14.72	2.72	-52.4	-54.9	3.6	0.00e+00	0	37	104	0	60	93486
2026-01-03 02:50:38.72	14.44	2.81	-52.7	-55.2	3.6	0.00e+00	0	37	104	0	60	96972
2026-01-03 02:50:40.74	14.16	2.91	-52.6	-55.0	3.6	0.00e+00	0	37	104	0	60	95517
2026-01-03 02:50:42.76	13.87	3.01	-52.6	-55.0	3.6	0.00e+00	0	37	104	0	60	95239
2026-01-03 02:50:44.78	13.59	3.10	-52.5	-55.0	3.6	0.00e+00	0	37	104	0	60	94909
2026-01-03 02:50:46.80	13.30	3.20	-52.4	-54.8	3.6	0.00e+00	0	37	104	0	60	93428
2026-01-03 02:50:48.82	13.01	3.29	-52.5	-54.9	3.6	0.00e+00	0	37	104	0	60	94211
2026-01-03 02:50:50.84	12.71	3.39	-52.8	-55.2	3.6	0.00e+00	0	37	104	0	60	97429
2026-01-03 02:50:52.86	12.42	3.48	-52.6	-55.0	3.6	0.00e+00	0	37	104	0	60	94715
2026-01-03 02:50:54.88	12.12	3.58	-52.5	-55.0	3.6	0.00e+00	0	37	104	0	60	95523
2026-01-03 02:50:56.91	11.81	3.67	-52.6	-55.0	3.6	0.00e+00	0	37	104	0	60	95333
2026-01-03 02:50:58.93	11.51	3.76	-52.6	-55.0	3.6	0.00e+00	0	37	104	0	60	95105
2026-01-03 02:51:00.95	11.20	3.86	-52.5	-54.9	3.6	0.00e+00	0	38	104	0	60	94327
2026-01-03 02:51:02.97	10.90	3.95	-52.6	-55.0	3.6	0.00e+00	0	38	104	0	60	95280
2026-01-03 02:51:04.99	10.58	4.05	-52.5	-54.9	3.6	0.00e+00	0	38	104	0	60	94049
2026-01-03 02:51:07.01	10.27	4.14	-52.5	-54.9	3.6	0.00e+00	0	38	104	0	60	93785
2026-01-03 02:51:09.04	9.95	4.23	-52.6	-55.0	3.6	0.00e+00	0	38	104	0	60	95328
2026-01-03 02:51:11.06	9.63	4.32	-52.4	-54.9	3.6	0.00e+00	0	38	104	0	60	93595
2026-01-03 02:51:13.08	9.31	4.42	-52.6	-55.0	3.6	0.00e+00	0	38	104	0	60	95380
2026-01-03 02:51:15.10	8.99	4.51	-52.7	-55.1	3.6	0.00e+00	0	38	104	0	60	96443
2026-01-03 02:51:17.12	8.66	4.60	-52.5	-55.0	3.6	0.00e+00	0	38	104	0	60	94879
2026-01-03 02:51:19.14	8.33	4.69	-52.5	-54.9	3.6	0.00e+00	0	38	104	0	60	94117
2026-01-03 02:51:21.16	8.00	4.78	-52.4	-54.8	3.6	0.00e+00	0	38	104	0	60	93342
2026-01-03 02:51:23.19	7.66	4.88	-52.4	-54.9	3.6	0.00e+00	0	38	104	0	60	93714
2026-01-03 02:51:25.21	7.32	4.97	-52.4	-54.8	3.6	0.00e+00	0	38	104	0	60	93140
2026-01-03 02:51:27.23	6.98	5.06	-52.4	-54.9	3.6	0.00e+00	0	38	104	0	60	93540
2026-01-03 02:51:29.24	6.64	5.14	-52.5	-54.9	3.6	0.00e+00	0	38	104	0	60	94284
2026-01-03 02:51:31.27	6.30	5.23	-52.7	-55.2	3.6	0.00e+00	0	38	104	0	60	96878
2026-01-03 02:51:33.29	5.95	5.32	-52.5	-55.0	3.6	0.00e+00	0	38	104	0	60	94717
2026-01-03 02:51:35.31	5.60	5.41	-52.6	-55.0	3.6	0.00e+00	0	38	104	0	60	95377
2026-01-03 02:51:37.33	5.24	5.50	-52.6	-55.0	3.5	0.00e+00	0	38	104	0	60	95444
2026-01-03 02:51:39.35	4.89	5.59	-52.6	-55.1	3.6	0.00e+00	0	38	104	0	60	95643
2026-01-03 02:51:41.37	4.53	5.67	-52.6	-55.0	3.6	0.00e+00	0	38	104	0	60	95135
2026-01-03 02:51:43.39	4.17	5.76	-52.6	-55.1	3.6	0.00e+00	0	38	104	0	60	95769
2026-01-03 02:51:45.41	3.80	5.85	-52.6	-55.1	3.6	0.00e+00	0	38	104	0	60	95788
2026-01-03 02:51:47.43	3.43	5.93	-52.6	-55.1	3.6	0.00e+00	0	38	104	0	60	95837
2026-01-03 02:51:49.45	3.06	6.02	-52.5	-54.9	3.6	0.00e+00	0	38	104	0	60	94016
2026-01-03 02:51:51.47	2.69	6.10	-52.7	-55.1	3.6	0.00e+00	0	38	104	0	60	96500
2026-01-03 02:51:53.49	2.32	6.18	-52.7	-55.1	3.6	0.00e+00	0	38	104	0	60	96101
2026-01-03 02:51:55.51	1.94	6.27	-52.9	-55.3	3.6	0.00e+00	0	38	104	0	60	98265
2026-01-03 02:51:57.54	1.56	6.35	-52.5	-54.9	3.6	0.00e+00	0	38	104	0	60	94420
2026-01-03 02:51:59.56	1.17	6.43	-52.4	-54.8	3.6	0.00e+00	0	38	104	0	60	93442
2026-01-03 02:52:01.58	0.79	6.51	-52.5	-55.0	3.6	0.00e+00	0	38	104	0	60	95038
2026-01-03 02:52:03.60	0.40	6.59	-52.5	-54.9	3.6	0.00e+00	0	38	104	0	60	94388
2026-01-03 02:52:05.62	0.01	6.67	-52.6	-55.0	3.6	0.00e+00	0	38	104	0	60	95308
2026-01-03 02:52:07.64	359.61	6.75	-52.5	-54.9	3.6	0.00e+00	0	38	104	0	60	94408
2026-01-03 02:52:09.66	359.21	6.83	-52.5	-55.0	3.6	0.00e+00	0	38	104	0	60	95374
2026-01-03 02:52:11.68	358.81	6.90	-52.6	-55.1	3.6	0.00e+00	0	38	104	0	60	95679
2026-01-03 02:52:13.70	358.41	6.98	-52.6	-55.0	3.5	0.00e+00	0	38	104	0	60	95161
2026-01-03 02:52:15.71	358.01	7.06	-52.8	-55.3	3.6	0.00e+00	0	38	104	0	60	98116
2026-01-03 02:52:17.73	357.60	7.13	-52.7	-55.1	3.6	0.00e+00	0	38	104	0	60	96325
2026-01-03 02:52:19.75	357.19	7.20	-52.8	-55.3	3.6	0.00e+00	0	38	104	0	60	98145
2026-01-03 02:52:21.77	356.78	7.28	-52.7	-55.1	3.6	0.00e+00	0	38	104	0	60	96311
2026-01-03 02:52:23.79	356.36	7.35	-52.6	-55.0	3.6	0.00e+00	0	38	104	0	60	95616
2026-01-03 02:52:25.81	355.94	7.42	-52.7	-55.1	3.6	0.00e+00	0	38	104	0	60	96596
2026-01-03 02:52:27.83	355.52	7.49	-52.7	-55.1	3.6	0.00e+00	0	38	104	0	60	96013
2026-01-03 02:52:29.85	355.10	7.56	-52.6	-55.0	3.6	0.00e+00	0	39	104	0	60	95146
2026-01-03 02:52:31.87	354.68	7.63	-52.6	-55.1	3.6	0.00e+00	0	38	104	0	60	96194
2026-01-03 02:52:33.89	354.25	7.69	-52.6	-55.1	3.6	0.00e+00	0	39	104	0	60	95747
2026-01-03 02:52:35.91	353.82	7.76	-52.7	-55.2	3.6	0.00e+00	0	39	104	0	60	96745
2026-01-03 02:52:37.93	353.38	7.82	-52.6	-55.1	3.6	0.00e+00	0	39	104	0	60	96218
2026-01-03 02:52:39.95	352.95	7.89	-52.8	-55.3	3.6	0.00e+00	0	39	104	0	60	98082
2026-01-03 02:52:41.97	352.51	7.95	-52.8	-55.2	3.6	0.00e+00	0	39	104	0	60	97576
2026-01-03 02:52:43.99	352.07	8.01	-52.6	-55.1	3.6	0.00e+00	0	38	104	0	60	95718
2026-01-03 02:52:46.01	351.63	8.07	-52.6	-55.1	3.6	0.00e+00	0	39	104	0	60	96326
2026-01-03 02:52:48.03	351.18	8.13	-52.8	-55.2	3.6	0.00e+00	0	39	104	0	60	97604
2026-01-03 02:52:50.04	350.74	8.19	-52.7	-55.1	3.6	0.00e+00	0	39	104	0	60	96499
2026-01-03 02:52:52.07	350.29	8.24	-52.7	-55.1	3.6	0.00e+00	0	39	104	0	60	96367
2026-01-03 02:52:54.08	349.84	8.30	-52.5	-54.9	3.6	0.00e+00	0	39	104	0	60	93837
2026-01-03 02:52:56.10	349.39	8.35	-52.6	-55.0	3.6	0.00e+00	0	39	104	0	60	95241
2026-01-03 02:52:58.13	348.93	8.41	-52.8	-55.2	3.6	0.00e+00	0	39	104	0	60	97651
2026-01-03 02:53:00.15	348.47	8.46	-52.8	-55.2	3.6	0.00e+00	0	39	104	0	60	96733
2026-01-03 02:53:02.17	348.01	8.51	-52.6	-55.0	3.6	0.00e+00	0	39	104	0	60	95086
2026-01-03 02:53:04.19	347.55	8.56	-52.9	-55.3	3.6	0.00e+00	0	39	104	0	60	98753
2026-01-03 02:53:06.21	347.09	8.60	-52.6	-55.0	3.6	0.00e+00	0	39	104	0	60	95474
2026-01-03 02:53:08.23	346.62	8.65	-52.6	-55.1	3.6	0.00e+00	0	39	104	0	60	95827
2026-01-03 02:53:10.25	346.15	8.69	-52.6	-55.0	3.6	0.00e+00	0	39	104	0	60	95519
2026-01-03 02:53:12.27	345.69	8.74	-52.7	-55.1	3.6	0.00e+00	0	39	104	0	60	96480
2026-01-03 02:53:14.29	345.22	8.78	-52.7	-55.1	3.6	0.00e+00	0	39	104	0	60	96486
2026-01-03 02:53:16.31	344.74	8.82	-52.8	-55.2	3.5	0.00e+00	0	39	104	0	60	97509
2026-01-03 02:53:18.33	344.27	8.86	-52.7	-55.2	3.6	0.00e+00	0	39	104	0	60	97170
2026-01-03 02:53:20.35	343.79	8.89	-52.7	-55.2	3.6	0.00e+00	0	39	104	0	60	97037
2026-01-03 02:53:22.37	343.32	8.93	-52.6	-55.1	3.6	0.00e+00	0	39	104	0	60	95792
2026-01-03 02:53:24.38	342.84	8.96	-52.8	-55.2	3.5	0.00e+00	0	39	104	0	60	97451
2026-01-03 02:53:26.41	342.36	8.99	-52.8	-55.2	3.6	0.00e+00	0	39	104	0	60	97538
2026-01-03 02:53:28.43	341.88	9.02	-52.6	-55.1	3.6	0.00e+00	0	39	104	0	60	95646
2026-01-03 02:53:30.45	341.40	9.05	-52.8	-55.3	3.6	0.00e+00	0	39	104	0	60	97856
2026-01-03 02:53:32.47	340.91	9.08	-52.8	-55.2	3.6	0.00e+00	0	39	104	0	60	97578
2026-01-03 02:53:34.49	340.43	9.11	-52.7	-55.1	3.6	0.00e+00	0	39	104	0	60	96615
2026-01-03 02:53:36.51	339.94	9.13	-52.9	-55.3	3.6	0.00e+00	0	39	104	0	60	98667
2026-01-03 02:53:38.53	339.46	9.15	-52.7	-55.1	3.6	0.00e+00	0	39	104	0	60	96320
2026-01-03 02:53:40.55	338.97	9.18	-52.7	-55.2	3.6	0.00e+00	0	39	104	0	60	96844
2026-01-03 02:53:42.58	338.48	9.19	-52.8	-55.2	3.6	0.00e+00	0	39	104	0	60	97531
2026-01-03 02:53:44.60	337.99	9.21	-52.7	-55.2	3.6	0.00e+00	0	39	104	0	60	96831
2026-01-03 02:53:46.62	337.50	9.23	-52.6	-55.1	3.6	0.00e+00	0	39	104	0	60	96128
2026-01-03 02:53:48.65	337.01	9.24	-52.6	-55.1	3.6	0.00e+00	0	39	104	0	60	96233
2026-01-03 02:53:50.67	336.52	9.25	-52.6	-55.1	3.6	0.00e+00	0	39	104	0	60	95975
2026-01-03 02:53:52.69	336.03	9.27	-52.6	-55.0	3.6	0.00e+00	0	39	104	0	60	95311
2026-01-03 02:53:54.71	335.53	9.27	-52.6	-55.1	3.6	0.00e+00	0	39	104	0	60	95672
2026-01-03 02:53:56.74	335.04	9.28	-52.8	-55.3	3.6	0.00e+00	0	39	104	0	60	98308
2026-01-03 02:53:58.76	334.55	9.29	-52.6	-55.0	3.6	0.00e+00	0	39	104	0	60	95019
2026-01-03 02:54:00.78	334.05	9.29	-52.7	-55.1	3.6	0.00e+00	0	39	104	0	60	96581
2026-01-03 02:54:02.80	333.56	9.29	-52.7	-55.1	3.6	0.00e+00	0	39	104	0	60	96459
2026-01-03 02:54:04.82	333.07	9.29	-52.6	-55.0	3.6	0.00e+00	0	39	104	0	60	95578
2026-01-03 02:54:06.84	332.57	9.29	-52.6	-55.1	3.6	0.00e+00	0	39	104	0	60	96190
2026-01-03 02:54:08.87	332.08	9.29	-52.6	-55.0	3.6	0.00e+00	0	39	104	0	60	95356
2026-01-03 02:54:10.89	331.59	9.28	-52.8	-55.2	3.6	0.00e+00	0	39	104	0	60	97690
2026-01-03 02:54:12.91	331.09	9.28	-52.6	-55.0	3.6	0.00e+00	0	39	104	0	60	95445
2026-01-03 02:54:14.93	330.60	9.27	-52.6	-55.1	3.6	0.00e+00	0	39	104	0	60	95810
2026-01-03 02:54:16.95	330.11	9.26	-52.8	-55.2	3.6	0.00e+00	0	39	104	0	60	97661
2026-01-03 02:54:18.97	329.62	9.25	-52.8	-55.3	3.6	0.00e+00	0	39	104	0	60	97878
2026-01-03 02:54:21.00	329.12	9.24	-52.6	-55.1	3.6	0.00e+00	0	39	104	0	60	95922
2026-01-03 02:54:23.02	328.63	9.22	-52.9	-55.3	3.6	0.00e+00	0	39	104	0	60	98613
2026-01-03 02:54:25.04	328.14	9.20	-52.7	-55.1	3.6	0.00e+00	0	39	104	0	60	96126
2026-01-03 02:54:27.06	327.65	9.18	-52.9	-55.4	3.6	0.00e+00	0	39	104	0	60	99530
2026-01-03 02:54:29.08	327.17	9.16	-52.7	-55.2	3.6	0.00e+00	0	39	104	0	60	96811
2026-01-03 02:54:31.10	326.68	9.14	-52.8	-55.2	3.6	0.00e+00	0	39	104	0	60	97609
2026-01-03 02:54:33.12	326.19	9.12	-53.0	-55.4	3.6	0.00e+00	0	39	104	0	60	99361
2026-01-03 02:54:35.15	325.70	9.09	-52.6	-55.1	3.6	0.00e+00	0	39	104	0	60	95646
2026-01-03 02:54:37.17	325.22	9.07	-52.7	-55.2	3.6	0.00e+00	0	39	104	0	60	97137
2026-01-03 02:54:39.19	324.73	9.04	-52.8	-55.2	3.6	0.00e+00	0	39	104	0	60	97234
2026-01-03 02:54:41.21	324.25	9.01	-52.7	-55.1	3.6	0.00e+00	0	39	104	0	60	96304
2026-01-03 02:54:43.23	323.77	8.98	-52.7	-55.2	3.6	0.00e+00	0	39	104	0	60	96928
2026-01-03 02:54:45.26	323.29	8.94	-52.6	-55.1	3.6	0.00e+00	0	39	104	0	60	95994
2026-01-03 02:54:47.28	322.81	8.91	-52.7	-55.1	3.6	0.00e+00	0	39	104	0	60	96620
2026-01-03 02:54:49.30	322.33	8.87	-52.8	-55.3	3.6	0.00e+00	0	39	104	0	60	98243
2026-01-03 02:54:51.32	321.86	8.84	-52.9	-55.3	3.6	0.00e+00	0	39	104	0	60	98841
2026-01-03 02:54:53.34	321.38	8.80	-52.8	-55.2	3.6	0.00e+00	0	39	104	0	60	97645
2026-01-03 02:54:55.36	320.91	8.76	-52.9	-55.3	3.6	0.00e+00	0	39	104	0	60	98582
2026-01-03 02:54:57.39	320.43	8.71	-52.7	-55.2	3.6	0.00e+00	0	39	104	0	60	96812
2026-01-03 02:54:59.41	319.97	8.67	-52.7	-55.1	3.6	0.00e+00	0	39	104	0	60	96545
2026-01-03 02:55:01.43	319.50	8.62	-52.7	-55.1	3.6	0.00e+00	0	39	104	0	60	96010
2026-01-03 02:55:03.45	319.03	8.58	-52.8	-55.2	3.6	0.00e+00	0	39	104	0	60	97119
2026-01-03 02:55:05.47	318.57	8.53	-52.6	-55.0	3.6	0.00e+00	0	39	104	0	60	94985
2026-01-03 02:55:07.50	318.10	8.48	-52.6	-55.0	3.6	0.00e+00	0	39	104	0	60	94904
2026-01-03 02:55:09.52	317.64	8.43	-52.5	-55.0	3.6	0.00e+00	0	39	104	0	60	94920
2026-01-03 02:55:11.54	317.18	8.38	-52.6	-55.0	3.6	0.00e+00	0	39	104	0	60	94943
2026-01-03 02:55:13.56	316.73	8.32	-52.8	-55.2	3.6	0.00e+00	0	39	104	0	60	97296
2026-01-03 02:55:15.58	316.27	8.27	-52.8	-55.2	3.6	0.00e+00	0	39	104	0	60	97154
2026-01-03 02:55:17.61	315.82	8.21	-52.7	-55.1	3.6	0.00e+00	0	39	104	0	60	96404
2026-01-03 02:55:19.63	315.37	8.15	-52.8	-55.2	3.6	0.00e+00	0	39	104	0	60	97201
2026-01-03 02:55:21.65	314.92	8.10	-52.6	-55.0	3.6	0.00e+00	0	39	104	0	60	95495
2026-01-03 02:55:23.67	314.48	8.04	-52.8	-55.3	3.6	0.00e+00	0	39	104	0	60	98305
2026-01-03 02:55:25.69	314.03	7.97	-52.6	-55.0	3.6	0.00e+00	0	39	104	0	60	95329
2026-01-03 02:55:27.71	313.59	7.91	-52.7	-55.1	3.6	0.00e+00	0	39	104	0	60	96638
2026-01-03 02:55:29.74	313.15	7.85	-52.5	-55.0	3.6	0.00e+00	0	39	104	0	60	95057
2026-01-03 02:55:31.76	312.71	7.78	-52.7	-55.1	3.6	0.00e+00	0	39	104	0	60	96138
2026-01-03 02:55:33.78	312.28	7.72	-52.7	-55.1	3.6	0.00e+00	0	39	104	0	60	96406
2026-01-03 02:55:35.80	311.85	7.65	-52.9	-55.3	3.6	0.00e+00	0	39	104	0	60	98727
2026-01-03 02:55:37.82	311.42	7.58	-52.9	-55.4	3.6	0.00e+00	0	39	104	0	60	99142
2026-01-03 02:55:39.84	310.99	7.52	-52.6	-55.1	3.6	0.00e+00	0	39	104	0	60	95940
2026-01-03 02:55:41.87	310.57	7.45	-52.6	-55.1	3.6	0.00e+00	0	39	104	0	60	95643
2026-01-03 02:55:43.89	310.14	7.37	-52.7	-55.1	3.6	0.00e+00	0	39	104	0	60	96080
2026-01-03 02:55:45.91	309.72	7.30	-52.6	-55.0	3.6	0.00e+00	0	39	104	0	60	95289
2026-01-03 02:55:47.93	309.31	7.23	-52.6	-55.0	3.6	0.00e+00	0	39	104	0	60	95608
2026-01-03 02:55:49.95	308.89	7.16	-52.8	-55.2	3.6	0.00e+00	0	39	104	0	60	97563
2026-01-03 02:55:51.98	308.48	7.08	-52.5	-54.9	3.6	0.00e+00	0	39	104	0	60	94510
2026-01-03 02:55:54.00	308.07	7.01	-53.0	-55.5	3.6	0.00e+00	0	39	104	0	60	100279
2026-01-03 02:55:56.02	307.67	6.93	-52.9	-55.4	3.6	0.00e+00	0	39	104	0	60	99307
2026-01-03 02:55:58.04	307.26	6.85	-52.7	-55.1	3.6	0.00e+00	0	39	104	0	60	96611
2026-01-03 02:56:00.06	306.86	6.77	-52.9	-55.4	3.6	0.00e+00	0	39	104	0	60	99529
2026-01-03 02:56:02.09	306.46	6.70	-52.9	-55.4	3.6	0.00e+00	0	39	104	0	60	99391
2026-01-03 02:56:04.11	306.07	6.62	-53.0	-55.5	3.6	0.00e+00	0	39	104	0	60	100637
2026-01-03 02:56:06.13	305.67	6.54	-52.8	-55.3	3.6	0.00e+00	0	39	104	0	60	98229
2026-01-03 02:56:08.15	305.28	6.45	-52.7	-55.2	3.6	0.00e+00	0	39	104	0	60	96810
2026-01-03 02:56:10.17	304.89	6.37	-52.7	-55.1	3.6	0.00e+00	0	39	104	0	60	96389
2026-01-03 02:56:12.19	304.51	6.29	-52.7	-55.2	3.6	0.00e+00	0	39	104	0	60	97048
2026-01-03 02:56:14.22	304.13	6.21	-52.6	-55.1	3.6	0.00e+00	0	39	104	0	60	96190
2026-01-03 02:56:16.24	303.75	6.12	-52.9	-55.3	3.6	0.00e+00	0	39	104	0	60	98777
2026-01-03 02:56:18.26	303.37	6.04	-52.7	-55.2	3.6	0.00e+00	0	39	104	0	60	97680
2026-01-03 02:56:20.28	303.00	5.95	-52.9	-55.3	3.6	0.00e+00	0	39	104	0	60	98272
2026-01-03 02:56:22.30	302.62	5.87	-52.8	-55.3	3.6	0.00e+00	0	39	104	0	60	98502
2026-01-03 02:56:24.32	302.26	5.78	-52.6	-55.0	3.6	0.00e+00	0	39	104	0	60	94922
2026-01-03 02:56:26.34	301.89	5.70	-52.8	-55.2	3.6	0.00e+00	0	39	104	0	60	97525
2026-01-03 02:56:28.36	301.53	5.61	-52.7	-55.2	3.6	0.00e+00	0	39	104	0	60	97135
2026-01-03 02:56:30.38	301.17	5.52	-52.7	-55.1	3.6	0.00e+00	0	39	104	0	60	96449
2026-01-03 02:56:32.40	300.81	5.43	-52.6	-55.0	3.6	0.00e+00	0	39	104	0	60	95233
2026-01-03 02:56:34.42	300.45	5.34	-52.8	-55.2	3.6	0.00e+00	0	39	104	0	60	97259
2026-01-03 02:56:36.44	300.10	5.25	-52.7	-55.1	3.6	0.00e+00	0	39	104	0	60	96235
2026-01-03 02:56:38.47	299.75	5.16	-52.9	-55.3	3.6	0.00e+00	0	39	104	0	60	98130
2026-01-03 02:56:40.49	299.40	5.07	-52.7	-55.2	3.6	0.00e+00	0	39	104	0	60	97019
2026-01-03 02:56:42.51	299.06	4.98	-53.0	-55.5	3.6	0.00e+00	0	39	104	0	60	100153
2026-01-03 02:56:44.53	298.72	4.89	-52.9	-55.4	3.5	0.00e+00	0	39	104	0	60	99257
2026-01-03 02:56:46.55	298.38	4.80	-52.9	-55.4	3.6	0.00e+00	0	39	104	0	60	99450
2026-01-03 02:56:48.57	298.04	4.71	-52.6	-55.0	3.6	0.00e+00	0	39	104	0	60	95048
2026-01-03 02:56:50.59	297.71	4.62	-52.7	-55.2	3.6	0.00e+00	0	39	104	0	60	96855
2026-01-03 02:56:52.61	297.38	4.53	-52.7	-55.2	3.6	0.00e+00	0	39	104	0	60	97439
2026-01-03 02:56:54.63	297.05	4.43	-52.8	-55.3	3.6	0.00e+00	0	39	104	0	60	98096
2026-01-03 02:56:56.65	296.73	4.34	-52.7	-55.1	3.6	0.00e+00	0	39	104	0	60	95888
2026-01-03 02:56:58.67	296.40	4.25	-52.9	-55.4	3.6	0.00e+00	0	39	104	0	60	99006
2026-01-03 02:57:00.70	296.08	4.15	-52.9	-55.3	3.5	0.00e+00	0	39	104	0	60	98434
2026-01-03 02:57:02.72	295.76	4.06	-52.9	-55.4	3.6	0.00e+00	0	39	104	0	60	99241
2026-01-03 02:57:04.74	295.45	3.97	-52.7	-55.1	3.6	0.00e+00	0	39	104	0	60	95842
2026-01-03 02:57:06.76	295.13	3.87	-52.6	-55.0	3.6	0.00e+00	0	39	104	0	60	95050
2026-01-03 02:57:08.78	294.82	3.78	-52.7	-55.1	3.6	0.00e+00	0	39	104	0	60	96723
2026-01-03 02:57:10.80	294.52	3.68	-52.9	-55.3	3.6	0.00e+00	0	39	104	0	60	98569
2026-01-03 02:57:12.82	294.21	3.59	-52.7	-55.1	3.6	0.00e+00	0	39	104	0	60	96601
2026-01-03 02:57:14.85	293.91	3.49	-52.8	-55.2	3.6	0.00e+00	0	39	104	0	60	97435
2026-01-03 02:57:16.87	293.61	3.40	-52.8	-55.3	3.6	0.00e+00	0	39	104	0	60	97854
2026-01-03 02:57:18.89	293.31	3.30	-52.7	-55.1	3.6	0.00e+00	0	39	104	0	60	96280
2026-01-03 02:57:20.91	293.01	3.20	-52.8	-55.2	3.6	0.00e+00	0	39	104	0	60	96984
2026-01-03 02:57:22.93	292.72	3.11	-52.5	-54.9	3.6	0.00e+00	0	39	104	0	60	94138
2026-01-03 02:57:24.95	292.43	3.01	-52.7	-55.2	3.6	0.00e+00	0	39	104	0	60	96972
2026-01-03 02:57:26.97	292.14	2.92	-52.9	-55.3	3.6	0.00e+00	0	39	104	0	60	98889
2026-01-03 02:57:29.00	291.86	2.82	-52.9	-55.3	3.6	0.00e+00	0	39	104	0	60	98715
2026-01-03 02:57:31.02	291.57	2.72	-52.7	-55.1	3.6	0.00e+00	0	39	104	0	60	96447
2026-01-03 02:57:33.04	291.29	2.63	-52.7	-55.1	3.6	0.00e+00	0	39	104	0	60	96028
2026-01-03 02:57:35.06	291.01	2.53	-52.7	-55.2	3.6	0.00e+00	0	39	104	0	60	97291
2026-01-03 02:57:37.08	290.74	2.43	-53.0	-55.4	3.6	0.00e+00	0	39	104	0	60	99991
2026-01-03 02:57:39.10	290.46	2.34	-52.7	-55.2	3.6	0.00e+00	0	39	104	0	60	97174
2026-01-03 02:57:41.13	290.19	2.24	-52.8	-55.2	3.6	0.00e+00	0	39	104	0	60	97426
2026-01-03 02:57:43.15	289.92	2.14	-52.7	-55.2	3.6	0.00e+00	0	39	104	0	60	97602
2026-01-03 02:57:45.17	289.65	2.05	-52.7	-55.2	3.6	0.00e+00	0	39	104	0	60	97036
2026-01-03 02:57:47.19	289.39	1.95	-52.8	-55.2	3.5	0.00e+00	0	39	104	0	60	96759
2026-01-03 02:57:49.21	289.13	1.85	-52.7	-55.2	3.6	0.00e+00	0	39	104	0	60	97309
2026-01-03 02:57:51.24	288.87	1.76	-52.8	-55.3	3.6	0.00e+00	0	40	104	0	60	97861
2026-01-03 02:57:53.26	288.61	1.66	-52.8	-55.3	3.6	0.00e+00	0	39	104	0	60	98066
2026-01-03 02:57:55.28	288.35	1.56	-52.8	-55.3	3.6	0.00e+00	0	39	104	0	60	98184
2026-01-03 02:57:57.30	288.10	1.46	-52.9	-55.4	3.6	0.00e+00	0	39	104	0	60	99144
2026-01-03 02:57:59.33	287.84	1.37	-52.9	-55.4	3.6	0.00e+00	0	39	104	0	60	98999
2026-01-03 02:58:01.35	287.59	1.27	-52.8	-55.2	3.6	0.00e+00	0	39	104	0	60	97092
2026-01-03 02:58:03.37	287.35	1.17	-53.0	-55.4	3.6	0.00e+00	0	39	104	0	60	99868
2026-01-03 02:58:05.39	287.10	1.08	-53.0	-55.4	3.6	0.00e+00	0	39	104	0	60	99619
2026-01-03 02:58:07.41	286.86	0.98	-53.3	-55.7	3.6	0.00e+00	0	39	104	0	60	102647
2026-01-03 02:58:09.43	286.62	0.88	-52.9	-55.4	3.6	0.00e+00	0	39	104	0	60	99021
2026-01-03 02:58:11.46	286.38	0.78	-52.9	-55.4	3.6	0.00e+00	0	39	104	0	60	99266
2026-01-03 02:58:13.48	286.14	0.69	-52.8	-55.2	3.6	0.00e+00	0	39	104	0	60	97302
2026-01-03 02:58:15.50	285.90	0.59	-53.0	-55.4	3.6	0.00e+00	0	39	104	0	60	99804
2026-01-03 02:58:17.52	285.67	0.49	-52.6	-55.0	3.6	0.00e+00	0	39	104	0	60	95248
2026-01-03 02:58:19.54	285.44	0.40	-52.9	-55.4	3.6	0.00e+00	0	39	104	0	60	99185
2026-01-03 02:58:21.56	285.21	0.30	-52.8	-55.3	3.6	0.00e+00	0	39	104	0	60	98073
2026-01-03 02:58:23.59	284.98	0.20	-52.7	-55.1	3.6	0.00e+00	0	39	104	0	60	96195
2026-01-03 02:58:25.61	284.75	0.10	-52.6	-55.0	3.6	0.00e+00	0	39	104	0	60	95445
2026-01-03 02:58:27.63	284.53	0.01	-52.7	-55.1	3.6	0.00e+00	0	39	104	0	60	96519

#Closed at: 2026-01-03 02:58:28
#Recorded file [0 MB]: D:/lorett/data/35034_260103_054942.dat