passes_logs/2026/01/03/R4.6S_Anadyr_2ch/R4.6S_Anadyr_2ch__20260103_085905_2025-108B_rec.log

#Pass ID: 20260103_085905_2025-108B
#Satellite: 2025-108B
#Configuration: 3PB_600M
#almurnet v.1.7.20251203
#Start time: 2026-01-03 08:59:07

#Version: 2.2.20231116
#Station: R4.6S_Anadyr_2ch
#Location: 177.4865 lon 64.73178 lat
#TLE: 1 64088U 25108B   25351.01672131  .00008460  00000+0  43413-3 0  9994
#TLE: 2 64088  97.4940  63.8579 0011684 285.1423  74.8517 15.16717580 31720

#Time	Az	El	Level	Level2	SNR	BER	BlckErr	Temp	State	Recorded	gain1	gain2
2026-01-03 08:59:07.68	144.20	0.12	-53.5	-54.9	3.3	0.00e+00	0	34	0	0	60	93492
2026-01-03 08:59:10.71	144.13	0.31	-54.5	-57.0	3.6	0.00e+00	0	36	104	0	60	119448
2026-01-03 08:59:13.74	144.06	0.51	-53.9	-56.3	3.6	0.00e+00	0	36	104	0	60	110919
2026-01-03 08:59:16.78	144.00	0.70	-54.2	-56.6	3.6	0.00e+00	0	36	104	0	60	114720
2026-01-03 08:59:19.81	143.93	0.90	-54.6	-57.0	3.6	0.00e+00	0	36	104	0	60	120284
2026-01-03 08:59:22.84	143.86	1.10	-54.2	-56.6	3.6	0.00e+00	0	36	104	0	60	114811
2026-01-03 08:59:25.87	143.78	1.30	-53.6	-56.1	3.6	0.00e+00	0	36	104	0	60	107475
2026-01-03 08:59:28.91	143.71	1.51	-53.9	-56.4	3.6	0.00e+00	0	36	104	0	60	111271
2026-01-03 08:59:31.94	143.63	1.71	-53.7	-56.1	3.6	0.00e+00	0	37	104	0	60	108092
2026-01-03 08:59:34.97	143.56	1.92	-54.0	-56.5	3.6	0.00e+00	0	36	104	0	60	112518
2026-01-03 08:59:38.00	143.48	2.13	-54.6	-57.1	3.6	0.00e+00	0	37	104	0	60	120889
2026-01-03 08:59:41.03	143.40	2.34	-54.2	-56.7	3.6	0.00e+00	0	37	104	0	60	115042
2026-01-03 08:59:44.06	143.32	2.55	-54.3	-56.7	3.6	0.00e+00	0	37	104	0	60	115885
2026-01-03 08:59:47.10	143.24	2.77	-54.8	-57.2	3.6	0.00e+00	0	37	104	0	60	122774
2026-01-03 08:59:50.13	143.15	2.99	-53.9	-56.3	3.6	0.00e+00	0	37	104	0	60	110495
2026-01-03 08:59:53.16	143.06	3.21	-54.0	-56.4	3.6	0.00e+00	0	37	104	0	60	111615
2026-01-03 08:59:56.20	142.98	3.43	-54.7	-57.1	3.6	0.00e+00	0	37	104	0	60	121267
2026-01-03 08:59:59.23	142.89	3.65	-53.4	-55.9	3.6	0.00e+00	0	37	104	0	60	105200
2026-01-03 09:00:02.26	142.79	3.88	-54.2	-56.7	3.6	0.00e+00	0	37	104	0	60	115833
2026-01-03 09:00:05.29	142.70	4.11	-54.5	-57.0	3.6	0.00e+00	0	37	104	0	60	119776
2026-01-03 09:00:08.32	142.60	4.34	-54.1	-56.6	3.6	0.00e+00	0	37	104	0	60	114135
2026-01-03 09:00:11.35	142.51	4.57	-53.6	-56.0	3.6	0.00e+00	0	37	104	0	60	107192
2026-01-03 09:00:14.38	142.41	4.81	-54.0	-56.5	3.6	0.00e+00	0	37	104	0	60	112905
2026-01-03 09:00:17.42	142.30	5.05	-54.0	-56.5	3.6	0.00e+00	0	37	104	0	60	112742
2026-01-03 09:00:20.45	142.20	5.29	-53.7	-56.2	3.6	0.00e+00	0	37	104	0	60	108665
2026-01-03 09:00:23.48	142.09	5.54	-53.5	-56.0	3.6	0.00e+00	0	37	104	0	60	106383
2026-01-03 09:00:26.51	141.98	5.78	-54.2	-56.6	3.6	0.00e+00	0	37	104	0	60	114667
2026-01-03 09:00:29.54	141.87	6.04	-53.4	-55.9	3.6	0.00e+00	0	37	104	0	60	105336
2026-01-03 09:00:32.57	141.75	6.29	-54.6	-57.1	3.6	0.00e+00	0	37	104	0	60	120582
2026-01-03 09:00:35.60	141.64	6.55	-54.4	-56.9	3.6	0.00e+00	0	38	104	0	60	117922
2026-01-03 09:00:38.64	141.52	6.81	-53.7	-56.2	3.6	0.00e+00	0	37	104	0	60	109100
2026-01-03 09:00:41.67	141.39	7.07	-54.4	-56.9	3.6	0.00e+00	0	38	104	0	60	118395
2026-01-03 09:00:44.70	141.27	7.34	-54.1	-56.6	3.6	0.00e+00	0	38	104	0	60	114434
2026-01-03 09:00:47.73	141.14	7.61	-54.4	-56.9	3.6	0.00e+00	0	38	104	0	60	118120
2026-01-03 09:00:50.77	141.00	7.88	-53.9	-56.4	3.6	0.00e+00	0	38	104	0	60	111379
2026-01-03 09:00:53.80	140.87	8.16	-53.6	-56.0	3.6	0.00e+00	0	38	104	0	60	106700
2026-01-03 09:00:56.83	140.73	8.44	-53.8	-56.2	3.6	0.00e+00	0	38	104	0	60	109646
2026-01-03 09:00:59.87	140.59	8.73	-53.6	-56.1	3.6	0.00e+00	0	38	104	0	60	107683
2026-01-03 09:01:02.90	140.44	9.02	-54.9	-57.3	3.6	0.00e+00	0	38	104	0	60	123751
2026-01-03 09:01:05.93	140.29	9.31	-54.4	-56.8	3.6	0.00e+00	0	38	104	0	60	117642
2026-01-03 09:01:08.96	140.13	9.61	-53.8	-56.3	3.6	0.00e+00	0	38	104	0	60	110770
2026-01-03 09:01:11.99	139.98	9.92	-53.7	-56.2	3.6	0.00e+00	0	38	104	0	60	108825
2026-01-03 09:01:15.02	139.81	10.22	-54.1	-56.6	3.6	0.00e+00	0	38	104	0	60	113696
2026-01-03 09:01:18.05	139.65	10.54	-53.5	-55.9	3.6	0.00e+00	0	38	104	0	60	105974
2026-01-03 09:01:21.09	139.47	10.86	-54.3	-56.7	3.6	0.00e+00	0	38	104	0	60	116158
2026-01-03 09:01:24.12	139.30	11.18	-54.5	-57.0	3.6	0.00e+00	0	38	104	0	60	120207
2026-01-03 09:01:27.15	139.11	11.51	-53.9	-56.3	3.6	0.00e+00	0	38	104	0	60	110640
2026-01-03 09:01:30.18	138.93	11.84	-54.7	-57.1	3.6	0.00e+00	0	38	104	0	60	121506
2026-01-03 09:01:33.21	138.73	12.18	-53.4	-55.8	3.6	0.00e+00	0	38	104	0	60	104302
2026-01-03 09:01:36.25	138.54	12.53	-53.5	-56.0	3.6	0.00e+00	0	38	104	0	60	106474
2026-01-03 09:01:39.28	138.33	12.88	-53.6	-56.1	3.6	0.00e+00	0	38	104	0	60	107744
2026-01-03 09:01:42.31	138.12	13.24	-54.2	-56.7	3.6	0.00e+00	0	38	104	0	60	115434
2026-01-03 09:01:45.34	137.91	13.60	-54.5	-56.9	3.6	0.00e+00	0	38	104	0	60	118485
2026-01-03 09:01:48.38	137.68	13.98	-53.8	-56.3	3.6	0.00e+00	0	38	104	0	60	110300
2026-01-03 09:01:51.41	137.45	14.35	-53.9	-56.4	3.6	0.00e+00	0	38	104	0	60	111875
2026-01-03 09:01:54.44	137.21	14.74	-53.7	-56.2	3.6	0.00e+00	0	38	104	0	60	109106
2026-01-03 09:01:57.47	136.97	15.13	-53.0	-55.5	3.6	0.00e+00	0	38	104	0	60	100143
2026-01-03 09:02:00.50	136.71	15.53	-53.8	-56.3	3.6	0.00e+00	0	38	104	0	60	110428
2026-01-03 09:02:03.53	136.45	15.94	-54.0	-56.4	3.6	0.00e+00	0	38	104	0	60	112061
2026-01-03 09:02:06.56	136.18	16.36	-54.0	-56.5	3.6	0.00e+00	0	38	104	0	60	113351
2026-01-03 09:02:09.60	135.90	16.79	-52.9	-55.3	3.6	0.00e+00	0	38	104	0	60	98605
2026-01-03 09:02:12.63	135.61	17.22	-54.2	-56.7	3.6	0.00e+00	0	38	104	0	60	115062
2026-01-03 09:02:15.66	135.31	17.66	-54.4	-56.9	3.6	0.00e+00	0	38	104	0	60	118307
2026-01-03 09:02:18.69	135.00	18.12	-54.0	-56.4	3.6	0.00e+00	0	38	104	0	60	111524
2026-01-03 09:02:21.72	134.68	18.58	-54.2	-56.6	3.6	0.00e+00	0	38	104	0	60	113724
2026-01-03 09:02:24.75	134.35	19.05	-53.7	-56.1	3.6	0.00e+00	0	38	104	0	60	108345
2026-01-03 09:02:27.78	134.00	19.54	-54.1	-56.6	3.6	0.00e+00	0	38	104	0	60	113753
2026-01-03 09:02:30.81	133.64	20.03	-54.7	-57.2	3.6	0.00e+00	0	38	104	0	60	121907
2026-01-03 09:02:33.84	133.27	20.54	-54.5	-56.9	3.6	0.00e+00	0	38	104	0	60	118829
2026-01-03 09:02:36.88	132.88	21.05	-54.4	-56.8	3.6	0.00e+00	0	38	104	0	60	117165
2026-01-03 09:02:39.91	132.48	21.58	-53.7	-56.2	3.6	0.00e+00	0	38	104	0	60	108556
2026-01-03 09:02:42.95	132.06	22.13	-54.5	-57.0	3.6	0.00e+00	0	38	104	0	60	119158
2026-01-03 09:02:45.98	131.62	22.68	-53.6	-56.1	3.6	0.00e+00	0	39	104	0	60	107896
2026-01-03 09:02:49.01	131.17	23.25	-53.9	-56.4	3.6	0.00e+00	0	38	104	0	60	111676
2026-01-03 09:02:52.04	130.70	23.83	-53.1	-55.6	3.5	0.00e+00	0	38	104	0	60	101770
2026-01-03 09:02:55.07	130.20	24.43	-54.5	-57.0	3.6	0.00e+00	0	39	104	0	60	119006
2026-01-03 09:02:58.11	129.69	25.04	-54.0	-56.4	3.6	0.00e+00	0	39	104	0	60	112256
2026-01-03 09:03:01.14	129.15	25.66	-54.5	-57.0	3.6	0.00e+00	0	38	104	0	60	119721
2026-01-03 09:03:04.17	128.58	26.30	-54.6	-57.0	3.6	0.00e+00	0	39	104	0	60	119401
2026-01-03 09:03:07.21	127.99	26.96	-54.7	-57.2	3.6	0.00e+00	0	38	104	0	60	121786
2026-01-03 09:03:10.23	127.38	27.63	-54.0	-56.4	3.6	0.00e+00	0	39	104	0	60	112274
2026-01-03 09:03:13.27	126.73	28.32	-54.4	-56.9	3.6	0.00e+00	0	39	104	0	60	117897
2026-01-03 09:03:16.30	126.05	29.02	-54.4	-56.9	3.6	0.00e+00	0	39	104	0	60	117959
2026-01-03 09:03:19.33	125.34	29.74	-53.6	-56.1	3.6	0.00e+00	0	39	104	0	60	107507
2026-01-03 09:03:22.36	124.59	30.48	-53.9	-56.4	3.6	0.00e+00	0	39	104	0	60	111632
2026-01-03 09:03:25.39	123.80	31.23	-54.3	-56.7	3.6	0.00e+00	0	39	104	0	60	116236
2026-01-03 09:03:28.42	122.98	32.01	-54.0	-56.5	3.6	0.00e+00	0	39	104	0	60	112462
2026-01-03 09:03:31.46	122.10	32.80	-53.0	-55.5	3.6	0.00e+00	0	39	104	0	60	100495
2026-01-03 09:03:34.49	121.18	33.60	-54.2	-56.6	3.6	0.00e+00	0	39	104	0	60	113811
2026-01-03 09:03:37.52	120.22	34.43	-54.3	-56.8	3.6	0.00e+00	0	39	104	0	60	116933
2026-01-03 09:03:40.56	119.19	35.27	-53.7	-56.2	3.6	0.00e+00	0	39	104	0	60	108783
2026-01-03 09:03:43.59	118.11	36.12	-54.5	-57.0	3.6	0.00e+00	0	39	104	0	60	119443
2026-01-03 09:03:46.62	116.96	36.99	-53.5	-56.0	3.6	0.00e+00	0	39	104	0	60	106169
2026-01-03 09:03:49.66	115.75	37.87	-53.3	-55.8	3.6	0.00e+00	0	39	104	0	60	104462
2026-01-03 09:03:52.69	114.47	38.76	-52.9	-55.3	3.6	0.00e+00	0	39	104	0	60	98835
2026-01-03 09:03:55.72	113.11	39.67	-54.0	-56.4	3.6	0.00e+00	0	39	104	0	60	111590
2026-01-03 09:03:58.75	111.67	40.58	-53.8	-56.2	3.6	0.00e+00	0	39	104	0	60	109084
2026-01-03 09:04:01.79	110.13	41.50	-53.7	-56.1	3.6	0.00e+00	0	39	104	0	60	107590
2026-01-03 09:04:04.82	108.51	42.41	-53.2	-55.7	3.6	0.00e+00	0	39	104	0	60	103127
2026-01-03 09:04:07.85	106.79	43.33	-53.7	-56.1	3.6	0.00e+00	0	39	104	0	60	108427
2026-01-03 09:04:10.88	104.96	44.24	-53.9	-56.4	3.6	0.00e+00	0	39	104	0	60	112228
2026-01-03 09:04:13.92	103.02	45.15	-54.3	-56.8	3.6	0.00e+00	0	39	104	0	60	117061
2026-01-03 09:04:16.95	100.96	46.03	-53.6	-56.1	3.6	0.00e+00	0	39	104	0	60	108171
2026-01-03 09:04:19.98	98.79	46.90	-54.2	-56.7	3.6	0.00e+00	0	39	104	0	60	115243
2026-01-03 09:04:23.02	96.48	47.73	-54.9	-57.4	3.6	0.00e+00	0	39	104	0	60	125157
2026-01-03 09:04:26.05	94.05	48.54	-54.5	-57.0	3.6	0.00e+00	0	39	104	0	60	119011
2026-01-03 09:04:29.08	91.49	49.30	-54.1	-56.5	3.6	0.00e+00	0	39	104	0	60	113300
2026-01-03 09:04:32.11	88.80	50.01	-54.0	-56.4	3.6	0.00e+00	0	39	104	0	60	112048
2026-01-03 09:04:35.14	85.98	50.66	-54.7	-57.1	3.6	0.00e+00	0	39	104	0	60	121627
2026-01-03 09:04:38.17	83.04	51.24	-54.4	-56.9	3.6	0.00e+00	0	39	104	0	60	118858
2026-01-03 09:04:41.21	79.99	51.76	-54.1	-56.6	3.6	0.00e+00	0	39	104	0	60	113670
2026-01-03 09:04:44.24	76.83	52.19	-53.2	-55.6	3.6	0.00e+00	0	39	104	0	60	102035
2026-01-03 09:04:47.27	73.60	52.54	-54.7	-57.2	3.6	0.00e+00	0	39	104	0	60	122742
2026-01-03 09:04:50.30	70.30	52.79	-54.9	-57.4	3.6	0.00e+00	0	39	104	0	60	125357
2026-01-03 09:04:53.34	66.93	52.95	-54.1	-56.5	3.6	0.00e+00	0	39	104	0	60	113524
2026-01-03 09:04:56.37	63.56	53.00	-54.2	-56.6	3.6	0.00e+00	0	39	104	0	60	114840
2026-01-03 09:04:59.40	60.18	52.96	-54.0	-56.4	3.6	0.00e+00	0	39	104	0	60	111879
2026-01-03 09:05:02.43	56.83	52.82	-54.6	-57.0	3.6	0.00e+00	0	39	104	0	60	119295
2026-01-03 09:05:05.47	53.51	52.57	-54.5	-56.9	3.6	0.00e+00	0	39	104	0	60	118577
2026-01-03 09:05:08.50	50.26	52.24	-52.9	-55.3	3.6	0.00e+00	0	39	104	0	60	98790
2026-01-03 09:05:11.53	47.10	51.82	-53.8	-56.3	3.6	0.00e+00	0	39	104	0	60	110504
2026-01-03 09:05:14.56	44.04	51.32	-54.0	-56.5	3.6	0.00e+00	0	39	104	0	60	113079
2026-01-03 09:05:17.60	41.08	50.74	-54.5	-57.0	3.6	0.00e+00	0	39	104	0	60	119581
2026-01-03 09:05:20.63	38.26	50.09	-54.1	-56.6	3.6	0.00e+00	0	39	104	0	60	114296
2026-01-03 09:05:23.66	35.55	49.39	-55.1	-57.6	3.6	0.00e+00	0	39	104	0	60	128725
2026-01-03 09:05:26.69	32.98	48.64	-53.5	-56.0	3.6	0.00e+00	0	39	104	0	60	106600
2026-01-03 09:05:29.72	30.54	47.84	-54.0	-56.4	3.6	0.00e+00	0	39	104	0	60	112182
2026-01-03 09:05:32.75	28.22	47.01	-54.3	-56.8	3.6	0.00e+00	0	39	104	0	60	116405
2026-01-03 09:05:35.78	26.03	46.16	-53.7	-56.2	3.6	0.00e+00	0	39	104	0	60	108702
2026-01-03 09:05:38.82	23.96	45.27	-53.9	-56.4	3.6	0.00e+00	0	39	104	0	60	111321
2026-01-03 09:05:41.85	22.01	44.37	-54.1	-56.6	3.6	0.00e+00	0	39	104	0	60	113822
2026-01-03 09:05:44.89	20.17	43.46	-54.5	-57.0	3.6	0.00e+00	0	39	104	0	60	119332
2026-01-03 09:05:47.92	18.44	42.55	-54.5	-56.9	3.6	0.00e+00	0	39	104	0	60	118606
2026-01-03 09:05:50.95	16.80	41.63	-53.5	-55.9	3.6	0.00e+00	0	39	104	0	60	105762
2026-01-03 09:05:53.98	15.27	40.72	-53.9	-56.4	3.6	0.00e+00	0	39	104	0	60	112301
2026-01-03 09:05:57.02	13.81	39.81	-53.8	-56.3	3.6	0.00e+00	0	39	104	0	60	110084
2026-01-03 09:06:00.05	12.44	38.91	-54.5	-56.9	3.5	0.00e+00	0	39	104	0	60	118228
2026-01-03 09:06:03.07	11.16	38.02	-53.9	-56.4	3.6	0.00e+00	0	39	104	0	60	111145
2026-01-03 09:06:06.10	9.94	37.14	-54.3	-56.8	3.5	0.00e+00	0	39	104	0	60	116506
2026-01-03 09:06:09.13	8.79	36.27	-53.9	-56.3	3.6	0.00e+00	0	39	104	0	60	110444
2026-01-03 09:06:12.14	7.71	35.42	-53.8	-56.3	3.6	0.00e+00	0	39	104	0	60	110332
2026-01-03 09:06:15.18	6.68	34.58	-54.1	-56.5	3.6	0.00e+00	0	39	104	0	60	113640
2026-01-03 09:06:18.21	5.70	33.76	-54.5	-56.9	3.6	0.00e+00	0	39	104	0	60	118558
2026-01-03 09:06:21.24	4.78	32.96	-53.7	-56.1	3.6	0.00e+00	0	39	104	0	60	108481
2026-01-03 09:06:24.27	3.90	32.17	-54.0	-56.5	3.6	0.00e+00	0	39	104	0	60	112563
2026-01-03 09:06:27.31	3.07	31.39	-53.5	-55.9	3.6	0.00e+00	0	39	104	0	60	105566
2026-01-03 09:06:30.34	2.28	30.64	-54.7	-57.2	3.6	0.00e+00	0	39	104	0	60	121887
2026-01-03 09:06:33.37	1.53	29.90	-54.0	-56.5	3.6	0.00e+00	0	39	104	0	60	113010
2026-01-03 09:06:36.41	0.81	29.18	-54.6	-57.1	3.6	0.00e+00	0	39	104	0	60	120742
2026-01-03 09:06:39.44	0.13	28.47	-54.4	-56.9	3.6	0.00e+00	0	39	104	0	60	118900
2026-01-03 09:06:42.47	359.48	27.78	-54.3	-56.7	3.6	0.00e+00	0	39	104	0	60	115510
2026-01-03 09:06:45.50	358.86	27.11	-54.0	-56.4	3.6	0.00e+00	0	39	104	0	60	112179
2026-01-03 09:06:48.53	358.27	26.46	-53.5	-56.0	3.6	0.00e+00	0	39	104	0	60	106168
2026-01-03 09:06:51.56	357.70	25.82	-54.2	-56.7	3.6	0.00e+00	0	39	104	0	60	115375
2026-01-03 09:06:54.59	357.16	25.19	-54.0	-56.4	3.6	0.00e+00	0	39	104	0	60	111382
2026-01-03 09:06:57.62	356.64	24.58	-53.2	-55.6	3.6	0.00e+00	0	39	104	0	60	102032
2026-01-03 09:07:00.65	356.15	23.98	-53.9	-56.3	3.6	0.00e+00	0	39	104	0	60	111059
2026-01-03 09:07:03.68	355.67	23.40	-54.0	-56.5	3.6	0.00e+00	0	39	104	0	60	112904
2026-01-03 09:07:06.71	355.22	22.83	-54.5	-57.0	3.6	0.00e+00	0	39	104	0	60	119557
2026-01-03 09:07:09.74	354.78	22.28	-52.9	-55.3	3.6	0.00e+00	0	39	104	0	60	98649
2026-01-03 09:07:12.77	354.36	21.74	-54.1	-56.5	3.6	0.00e+00	0	39	104	0	60	113359
2026-01-03 09:07:15.80	353.96	21.21	-54.6	-57.1	3.6	0.00e+00	0	39	104	0	60	120912
2026-01-03 09:07:18.83	353.57	20.69	-54.3	-56.8	3.6	0.00e+00	0	39	104	0	60	116327
2026-01-03 09:07:21.86	353.20	20.18	-53.8	-56.2	3.6	0.00e+00	0	39	104	0	60	109521
2026-01-03 09:07:24.90	352.84	19.69	-54.6	-57.1	3.5	0.00e+00	0	39	104	0	60	121015
2026-01-03 09:07:27.93	352.49	19.20	-54.3	-56.8	3.6	0.00e+00	0	39	104	0	60	116671
2026-01-03 09:07:30.96	352.16	18.73	-54.3	-56.8	3.6	0.00e+00	0	39	104	0	60	116362
2026-01-03 09:07:33.99	351.84	18.27	-54.6	-57.0	3.6	0.00e+00	0	39	104	0	60	119948
2026-01-03 09:07:37.02	351.52	17.81	-54.7	-57.2	3.6	0.00e+00	0	39	104	0	60	121979
2026-01-03 09:07:40.05	351.23	17.37	-54.3	-56.8	3.6	0.00e+00	0	39	104	0	60	116459
2026-01-03 09:07:43.08	350.94	16.93	-54.2	-56.6	3.6	0.00e+00	0	39	104	0	60	114838
2026-01-03 09:07:46.12	350.65	16.51	-54.0	-56.5	3.6	0.00e+00	0	39	104	0	60	112356
2026-01-03 09:07:49.15	350.38	16.09	-54.3	-56.7	3.6	0.00e+00	0	39	104	0	60	116001
2026-01-03 09:07:52.18	350.12	15.68	-54.8	-57.3	3.6	0.00e+00	0	39	104	0	60	123865
2026-01-03 09:07:55.21	349.87	15.28	-54.3	-56.8	3.6	0.00e+00	0	39	104	0	60	116627
2026-01-03 09:07:58.25	349.62	14.88	-54.4	-56.8	3.6	0.00e+00	0	39	104	0	60	117263
2026-01-03 09:08:01.28	349.39	14.50	-53.9	-56.4	3.6	0.00e+00	0	39	104	0	60	111339
2026-01-03 09:08:04.31	349.16	14.12	-53.6	-56.0	3.6	0.00e+00	0	39	104	0	60	106454
2026-01-03 09:08:07.34	348.93	13.75	-54.9	-57.3	3.6	0.00e+00	0	39	104	0	60	124607
2026-01-03 09:08:10.37	348.72	13.38	-54.3	-56.8	3.6	0.00e+00	0	39	104	0	60	117518
2026-01-03 09:08:13.40	348.51	13.03	-54.8	-57.3	3.6	0.00e+00	0	39	104	0	60	123766
2026-01-03 09:08:16.43	348.31	12.67	-54.5	-56.9	3.6	0.00e+00	0	39	104	0	60	118283
2026-01-03 09:08:19.46	348.11	12.33	-54.0	-56.4	3.6	0.00e+00	0	39	104	0	60	111863
2026-01-03 09:08:22.49	347.92	11.99	-54.1	-56.6	3.6	0.00e+00	0	39	104	0	60	113652
2026-01-03 09:08:25.52	347.73	11.65	-54.0	-56.5	3.6	0.00e+00	0	39	104	0	60	113102
2026-01-03 09:08:28.55	347.55	11.32	-52.9	-55.4	3.6	0.00e+00	0	39	104	0	60	99036
2026-01-03 09:08:31.58	347.37	11.00	-53.3	-55.8	3.6	0.00e+00	0	39	104	0	60	103791
2026-01-03 09:08:34.61	347.20	10.68	-53.5	-55.9	3.5	0.00e+00	0	39	104	0	60	105833
2026-01-03 09:08:37.64	347.04	10.37	-53.0	-55.5	3.6	0.00e+00	0	39	104	0	60	100739
2026-01-03 09:08:40.67	346.87	10.06	-53.4	-55.8	3.6	0.00e+00	0	39	104	0	60	104069
2026-01-03 09:08:43.70	346.72	9.76	-54.3	-56.7	3.6	0.00e+00	0	39	104	0	60	115792
2026-01-03 09:08:46.73	346.56	9.46	-53.7	-56.2	3.6	0.00e+00	0	39	104	0	60	109080
2026-01-03 09:08:49.77	346.41	9.16	-53.1	-55.6	3.6	0.00e+00	0	39	104	0	60	101577
2026-01-03 09:08:52.80	346.27	8.87	-54.5	-57.0	3.6	0.00e+00	0	39	104	0	60	119722
2026-01-03 09:08:55.83	346.13	8.59	-54.7	-57.2	3.6	0.00e+00	0	39	104	0	60	122811
2026-01-03 09:08:58.86	345.99	8.30	-54.5	-57.0	3.6	0.00e+00	0	39	104	0	60	120359
2026-01-03 09:09:01.89	345.85	8.03	-54.6	-57.0	3.6	0.00e+00	0	39	104	0	60	120160
2026-01-03 09:09:04.92	345.72	7.75	-53.6	-56.1	3.6	0.00e+00	0	39	104	0	60	108094
2026-01-03 09:09:07.95	345.59	7.48	-54.5	-57.0	3.6	0.00e+00	0	39	104	0	60	119233
2026-01-03 09:09:10.98	345.47	7.21	-53.3	-55.8	3.6	0.00e+00	0	39	104	0	60	104549
2026-01-03 09:09:14.02	345.35	6.95	-54.3	-56.7	3.6	0.00e+00	0	39	104	0	60	115442
2026-01-03 09:09:17.05	345.23	6.69	-54.4	-56.8	3.6	0.00e+00	0	39	104	0	60	117386
2026-01-03 09:09:20.08	345.11	6.43	-54.0	-56.4	3.6	0.00e+00	0	39	104	0	60	111833
2026-01-03 09:09:23.11	345.00	6.18	-54.5	-56.9	3.6	0.00e+00	0	39	104	0	60	118890
2026-01-03 09:09:26.14	344.89	5.93	-53.6	-56.1	3.6	0.00e+00	0	39	104	0	60	107766
2026-01-03 09:09:29.17	344.78	5.68	-54.6	-57.0	3.6	0.00e+00	0	39	104	0	60	119126
2026-01-03 09:09:32.21	344.68	5.43	-54.6	-57.0	3.6	0.00e+00	0	39	104	0	60	120196
2026-01-03 09:09:35.24	344.57	5.19	-53.9	-56.3	3.6	0.00e+00	0	39	104	0	60	109849
2026-01-03 09:09:38.27	344.47	4.95	-54.3	-56.8	3.6	0.00e+00	0	39	104	0	60	116517
2026-01-03 09:09:41.30	344.37	4.72	-54.3	-56.7	3.6	0.00e+00	0	39	104	0	60	116169
2026-01-03 09:09:44.33	344.28	4.48	-54.3	-56.9	3.6	0.00e+00	0	39	104	0	60	117962
2026-01-03 09:09:47.36	344.18	4.25	-54.4	-56.9	3.6	0.00e+00	0	39	104	0	60	118207
2026-01-03 09:09:50.39	344.09	4.02	-54.8	-57.2	3.6	0.00e+00	0	39	104	0	60	123020
2026-01-03 09:09:53.42	344.00	3.80	-54.2	-56.6	3.6	0.00e+00	0	39	104	0	60	114100
2026-01-03 09:09:56.45	343.91	3.57	-53.8	-56.2	3.6	0.00e+00	0	39	104	0	60	109201
2026-01-03 09:09:59.48	343.83	3.35	-54.1	-56.5	3.6	0.00e+00	0	39	104	0	60	113552
2026-01-03 09:10:02.52	343.74	3.13	-53.8	-56.2	3.6	0.00e+00	0	39	104	0	60	109579
2026-01-03 09:10:05.55	343.66	2.91	-54.1	-56.6	3.6	0.00e+00	0	39	104	0	60	113732
2026-01-03 09:10:08.58	343.58	2.70	-53.1	-55.6	3.6	0.00e+00	0	39	104	0	60	101651
2026-01-03 09:10:11.61	343.50	2.48	-54.0	-56.4	3.6	0.00e+00	0	39	104	0	60	111581
2026-01-03 09:10:14.64	343.42	2.27	-53.6	-56.1	3.6	0.00e+00	0	39	104	0	60	107512
2026-01-03 09:10:17.67	343.34	2.06	-54.2	-56.7	3.6	0.00e+00	0	39	104	0	60	116070
2026-01-03 09:10:20.70	343.27	1.85	-54.7	-57.1	3.6	0.00e+00	0	39	104	0	60	120546
2026-01-03 09:10:23.73	343.20	1.65	-54.5	-56.9	3.5	0.00e+00	0	39	104	0	60	118450
2026-01-03 09:10:26.76	343.13	1.45	-54.2	-56.7	3.6	0.00e+00	0	39	104	0	60	116211
2026-01-03 09:10:29.79	343.06	1.24	-54.7	-57.2	3.6	0.00e+00	0	39	104	0	60	122054
2026-01-03 09:10:32.83	342.99	1.04	-54.6	-57.0	3.6	0.00e+00	0	39	104	0	60	119675
2026-01-03 09:10:35.86	342.92	0.84	-54.3	-56.8	3.6	0.00e+00	0	39	104	0	60	116831
2026-01-03 09:10:38.90	342.85	0.65	-53.6	-56.1	3.6	0.00e+00	0	39	104	0	60	107833
2026-01-03 09:10:41.93	342.79	0.45	-54.2	-56.7	3.6	0.00e+00	0	39	104	0	60	116223
2026-01-03 09:10:44.96	342.73	0.26	-53.9	-56.3	3.6	0.00e+00	0	39	104	0	60	110334
2026-01-03 09:10:48.00	342.66	0.06	-54.1	-56.4	3.6	0.00e+00	0	39	104	0	60	112152
2026-01-03 09:10:51.03	342.60	-0.13	-52.8	-55.2	3.6	0.00e+00	0	39	104	0	60	97713

#Closed at: 2026-01-03 09:10:51
#Recorded file [0 MB]: D:/lorett/data/35034_260103_115907.dat