passes_logs/2026/01/03/R4.6S_Anadyr_2ch/R4.6S_Anadyr_2ch__20260103_011543_2025-108B_rec.log

#Pass ID: 20260103_011543_2025-108B
#Satellite: 2025-108B
#Configuration: 3PB_600M
#almurnet v.1.7.20251203
#Start time: 2026-01-03 01:15:47

#Version: 2.2.20231116
#Station: R4.6S_Anadyr_2ch
#Location: 177.4865 lon 64.73178 lat
#TLE: 1 64088U 25108B   25351.01672131  .00008460  00000+0  43413-3 0  9994
#TLE: 2 64088  97.4940  63.8579 0011684 285.1423  74.8517 15.16717580 31720

#Time	Az	El	Level	Level2	SNR	BER	BlckErr	Temp	State	Recorded	gain1	gain2
2026-01-03 01:15:47.03	17.37	0.21	-52.8	-53.8	3.3	0.00e+00	0	36	0	0	60	82394
2026-01-03 01:15:50.06	17.18	0.39	-52.8	-55.2	3.6	0.00e+00	0	36	104	0	60	97604
2026-01-03 01:15:53.09	16.98	0.57	-52.9	-55.3	3.6	0.00e+00	0	36	104	0	60	98789
2026-01-03 01:15:56.12	16.79	0.75	-52.7	-55.2	3.6	0.00e+00	0	36	104	0	60	97059
2026-01-03 01:15:59.15	16.58	0.93	-52.7	-55.2	3.6	0.00e+00	0	36	104	0	60	96875
2026-01-03 01:16:02.18	16.38	1.11	-52.8	-55.2	3.6	0.00e+00	0	36	104	0	60	97282
2026-01-03 01:16:05.21	16.17	1.30	-52.8	-55.2	3.6	0.00e+00	0	37	104	0	60	97503
2026-01-03 01:16:08.25	15.95	1.49	-52.8	-55.2	3.6	0.00e+00	0	37	104	0	60	97387
2026-01-03 01:16:11.28	15.74	1.67	-52.7	-55.2	3.6	0.00e+00	0	37	104	0	60	96999
2026-01-03 01:16:14.31	15.52	1.86	-52.7	-55.2	3.6	0.00e+00	0	37	104	0	60	97088
2026-01-03 01:16:17.34	15.29	2.05	-52.8	-55.2	3.6	0.00e+00	0	37	104	0	60	97196
2026-01-03 01:16:20.38	15.06	2.24	-52.7	-55.2	3.6	0.00e+00	0	37	104	0	60	96990
2026-01-03 01:16:23.41	14.83	2.44	-52.8	-55.3	3.6	0.00e+00	0	37	104	0	60	98490
2026-01-03 01:16:26.44	14.60	2.63	-52.9	-55.3	3.6	0.00e+00	0	37	104	0	60	98789
2026-01-03 01:16:29.48	14.36	2.83	-52.8	-55.3	3.6	0.00e+00	0	37	104	0	60	97913
2026-01-03 01:16:32.51	14.11	3.02	-52.8	-55.3	3.6	0.00e+00	0	37	104	0	60	98242
2026-01-03 01:16:35.54	13.86	3.22	-52.8	-55.3	3.6	0.00e+00	0	37	104	0	60	98080
2026-01-03 01:16:38.57	13.61	3.42	-52.8	-55.2	3.6	0.00e+00	0	37	104	0	60	97724
2026-01-03 01:16:41.60	13.35	3.62	-52.8	-55.3	3.6	0.00e+00	0	37	104	0	60	98462
2026-01-03 01:16:44.62	13.09	3.82	-52.8	-55.2	3.6	0.00e+00	0	37	104	0	60	97503
2026-01-03 01:16:47.66	12.82	4.03	-52.8	-55.2	3.6	0.00e+00	0	38	104	0	60	97205
2026-01-03 01:16:50.69	12.55	4.23	-52.8	-55.3	3.6	0.00e+00	0	38	104	0	60	98050
2026-01-03 01:16:53.72	12.27	4.44	-52.8	-55.3	3.6	0.00e+00	0	38	104	0	60	98052
2026-01-03 01:16:56.75	11.99	4.65	-52.8	-55.2	3.6	0.00e+00	0	38	104	0	60	97424
2026-01-03 01:16:59.78	11.70	4.86	-52.8	-55.3	3.6	0.00e+00	0	38	104	0	60	98024
2026-01-03 01:17:02.81	11.41	5.07	-52.8	-55.3	3.6	0.00e+00	0	38	104	0	60	98513
2026-01-03 01:17:05.84	11.11	5.28	-52.8	-55.3	3.6	0.00e+00	0	38	104	0	60	98033
2026-01-03 01:17:08.87	10.81	5.50	-52.8	-55.3	3.6	0.00e+00	0	38	104	0	60	98613
2026-01-03 01:17:11.90	10.50	5.71	-52.9	-55.3	3.6	0.00e+00	0	38	104	0	60	98303
2026-01-03 01:17:14.93	10.18	5.93	-52.9	-55.3	3.6	0.00e+00	0	38	104	0	60	98272
2026-01-03 01:17:17.97	9.86	6.15	-52.8	-55.3	3.6	0.00e+00	0	38	104	0	60	98063
2026-01-03 01:17:21.00	9.53	6.37	-52.8	-55.3	3.6	0.00e+00	0	38	104	0	60	98081
2026-01-03 01:17:24.03	9.19	6.59	-52.8	-55.3	3.6	0.00e+00	0	38	104	0	60	97976
2026-01-03 01:17:27.06	8.85	6.82	-52.8	-55.3	3.6	0.00e+00	0	38	104	0	60	98059
2026-01-03 01:17:30.09	8.50	7.05	-52.8	-55.3	3.6	0.00e+00	0	38	104	0	60	98359
2026-01-03 01:17:33.13	8.15	7.27	-52.9	-55.3	3.6	0.00e+00	0	38	104	0	60	98612
2026-01-03 01:17:36.16	7.78	7.50	-52.9	-55.3	3.6	0.00e+00	0	38	104	0	60	98429
2026-01-03 01:17:39.19	7.41	7.74	-52.8	-55.2	3.6	0.00e+00	0	38	104	0	60	97468
2026-01-03 01:17:42.22	7.04	7.97	-52.8	-55.3	3.6	0.00e+00	0	38	104	0	60	98152
2026-01-03 01:17:45.25	6.65	8.20	-52.8	-55.2	3.6	0.00e+00	0	38	104	0	60	97387
2026-01-03 01:17:48.28	6.26	8.44	-52.8	-55.2	3.6	0.00e+00	0	38	104	0	60	97653
2026-01-03 01:17:51.31	5.85	8.68	-52.8	-55.2	3.6	0.00e+00	0	38	104	0	60	97406
2026-01-03 01:17:54.34	5.44	8.92	-52.8	-55.2	3.6	0.00e+00	0	38	104	0	60	97658
2026-01-03 01:17:57.37	5.03	9.16	-52.8	-55.2	3.6	0.00e+00	0	38	104	0	60	97242
2026-01-03 01:18:00.41	4.60	9.41	-52.8	-55.2	3.6	0.00e+00	0	39	104	0	60	96952
2026-01-03 01:18:03.44	4.16	9.65	-52.8	-55.2	3.6	0.00e+00	0	39	104	0	60	97399
2026-01-03 01:18:06.47	3.71	9.90	-52.8	-55.2	3.6	0.00e+00	0	39	104	0	60	97424
2026-01-03 01:18:09.51	3.26	10.15	-52.8	-55.3	3.6	0.00e+00	0	39	104	0	60	98169
2026-01-03 01:18:12.54	2.79	10.40	-52.8	-55.3	3.6	0.00e+00	0	39	104	0	60	98477
2026-01-03 01:18:15.57	2.32	10.66	-52.8	-55.3	3.6	0.00e+00	0	39	104	0	60	98168
2026-01-03 01:18:18.60	1.83	10.91	-52.8	-55.2	3.6	0.00e+00	0	39	104	0	60	97656
2026-01-03 01:18:21.64	1.33	11.17	-52.8	-55.3	3.6	0.00e+00	0	39	104	0	60	98192
2026-01-03 01:18:24.67	0.83	11.43	-52.8	-55.2	3.6	0.00e+00	0	39	104	0	60	97456
2026-01-03 01:18:27.70	0.31	11.69	-52.9	-55.3	3.6	0.00e+00	0	39	104	0	60	98695
2026-01-03 01:18:30.74	359.78	11.95	-52.8	-55.3	3.6	0.00e+00	0	39	104	0	60	97985
2026-01-03 01:18:33.77	359.24	12.21	-52.9	-55.3	3.6	0.00e+00	0	39	104	0	60	98229
2026-01-03 01:18:36.80	358.68	12.48	-52.8	-55.2	3.6	0.00e+00	0	39	104	0	60	97298
2026-01-03 01:18:39.83	358.12	12.74	-52.8	-55.3	3.6	0.00e+00	0	39	104	0	60	97881
2026-01-03 01:18:42.87	357.54	13.01	-52.8	-55.2	3.6	0.00e+00	0	39	104	0	60	97734
2026-01-03 01:18:45.90	356.95	13.28	-52.8	-55.2	3.6	0.00e+00	0	39	104	0	60	97366
2026-01-03 01:18:48.93	356.34	13.55	-52.9	-55.3	3.5	0.00e+00	0	39	104	0	60	98448
2026-01-03 01:18:51.96	355.73	13.82	-52.8	-55.2	3.6	0.00e+00	0	39	104	0	60	97241
2026-01-03 01:18:54.99	355.10	14.09	-52.8	-55.2	3.6	0.00e+00	0	39	104	0	60	97699
2026-01-03 01:18:58.03	354.45	14.36	-52.8	-55.2	3.5	0.00e+00	0	39	104	0	60	97601
2026-01-03 01:19:01.06	353.79	14.63	-52.9	-55.3	3.6	0.00e+00	0	39	104	0	60	98489
2026-01-03 01:19:04.09	353.12	14.91	-52.9	-55.3	3.6	0.00e+00	0	39	104	0	60	98361
2026-01-03 01:19:07.12	352.43	15.18	-52.8	-55.3	3.6	0.00e+00	0	39	104	0	60	97932
2026-01-03 01:19:10.15	351.72	15.46	-52.8	-55.3	3.6	0.00e+00	0	39	104	0	60	98456
2026-01-03 01:19:13.18	351.00	15.73	-52.8	-55.2	3.6	0.00e+00	0	39	104	0	60	97095
2026-01-03 01:19:16.22	350.27	16.00	-52.8	-55.2	3.6	0.00e+00	0	39	104	0	60	97254
2026-01-03 01:19:19.25	349.51	16.28	-52.8	-55.2	3.5	0.00e+00	0	39	104	0	60	97600
2026-01-03 01:19:22.28	348.75	16.55	-52.8	-55.3	3.6	0.00e+00	0	39	104	0	60	98114
2026-01-03 01:19:25.31	347.96	16.82	-52.8	-55.2	3.6	0.00e+00	0	39	104	0	60	97439
2026-01-03 01:19:28.35	347.16	17.09	-52.9	-55.3	3.6	0.00e+00	0	39	104	0	60	98367
2026-01-03 01:19:31.38	346.34	17.36	-52.8	-55.3	3.6	0.00e+00	0	39	104	0	60	98454
2026-01-03 01:19:34.41	345.50	17.63	-52.8	-55.2	3.6	0.00e+00	0	39	104	0	60	97332
2026-01-03 01:19:37.45	344.65	17.89	-52.7	-55.2	3.6	0.00e+00	0	39	104	0	60	96966
2026-01-03 01:19:40.47	343.78	18.16	-52.9	-55.3	3.6	0.00e+00	0	39	104	0	60	98403
2026-01-03 01:19:43.50	342.89	18.42	-52.9	-55.3	3.6	0.00e+00	0	39	104	0	60	98977
2026-01-03 01:19:46.54	341.99	18.67	-52.8	-55.3	3.6	0.00e+00	0	39	104	0	60	98042
2026-01-03 01:19:49.57	341.06	18.93	-52.8	-55.2	3.6	0.00e+00	0	39	104	0	60	97540
2026-01-03 01:19:52.60	340.12	19.18	-52.9	-55.3	3.6	0.00e+00	0	39	104	0	60	98603
2026-01-03 01:19:55.63	339.16	19.42	-52.8	-55.2	3.6	0.00e+00	0	39	104	0	60	97639
2026-01-03 01:19:58.67	338.18	19.66	-52.9	-55.3	3.6	0.00e+00	0	39	104	0	60	98377
2026-01-03 01:20:01.70	337.19	19.90	-52.9	-55.3	3.6	0.00e+00	0	39	104	0	60	98772
2026-01-03 01:20:04.73	336.17	20.13	-52.9	-55.4	3.6	0.00e+00	0	39	104	0	60	99077
2026-01-03 01:20:07.76	335.14	20.35	-52.9	-55.3	3.6	0.00e+00	0	39	104	0	60	98760
2026-01-03 01:20:10.80	334.09	20.57	-52.9	-55.4	3.6	0.00e+00	0	39	104	0	60	99211
2026-01-03 01:20:13.83	333.03	20.78	-52.8	-55.2	3.6	0.00e+00	0	39	104	0	60	97849
2026-01-03 01:20:16.87	331.95	20.99	-52.8	-55.2	3.6	0.00e+00	0	39	104	0	60	97457
2026-01-03 01:20:19.90	330.85	21.18	-52.8	-55.3	3.6	0.00e+00	0	39	104	0	60	98062
2026-01-03 01:20:22.93	329.74	21.37	-53.0	-55.5	3.6	0.00e+00	0	39	104	0	60	100560
2026-01-03 01:20:25.97	328.61	21.55	-52.8	-55.3	3.6	0.00e+00	0	39	104	0	60	98047
2026-01-03 01:20:29.00	327.46	21.71	-52.8	-55.2	3.6	0.00e+00	0	39	104	0	60	97780
2026-01-03 01:20:32.03	326.31	21.87	-52.9	-55.3	3.6	0.00e+00	0	39	104	0	60	98506
2026-01-03 01:20:35.07	325.14	22.02	-52.9	-55.3	3.6	0.00e+00	0	39	104	0	60	98484
2026-01-03 01:20:38.10	323.95	22.16	-52.9	-55.4	3.6	0.00e+00	0	39	104	0	60	99986
2026-01-03 01:20:41.13	322.76	22.29	-52.8	-55.3	3.6	0.00e+00	0	39	104	0	60	97879
2026-01-03 01:20:44.16	321.56	22.40	-52.9	-55.3	3.6	0.00e+00	0	39	104	0	60	98834
2026-01-03 01:20:47.19	320.34	22.51	-52.9	-55.3	3.6	0.00e+00	0	39	104	0	60	98610
2026-01-03 01:20:50.23	319.12	22.60	-52.9	-55.3	3.6	0.00e+00	0	39	104	0	60	98654
2026-01-03 01:20:53.26	317.89	22.68	-52.9	-55.4	3.6	0.00e+00	0	39	104	0	60	99525
2026-01-03 01:20:56.29	316.65	22.74	-52.9	-55.3	3.5	0.00e+00	0	39	104	0	60	98817
2026-01-03 01:20:59.32	315.41	22.80	-52.8	-55.3	3.6	0.00e+00	0	39	104	0	60	98106
2026-01-03 01:21:02.36	314.16	22.84	-53.0	-55.4	3.6	0.00e+00	0	39	104	0	60	99601
2026-01-03 01:21:05.39	312.91	22.86	-52.9	-55.4	3.6	0.00e+00	0	39	104	0	60	99083
2026-01-03 01:21:08.42	311.66	22.88	-52.9	-55.3	3.6	0.00e+00	0	39	104	0	60	98514
2026-01-03 01:21:11.46	310.40	22.88	-52.9	-55.4	3.6	0.00e+00	0	39	104	0	60	99181
2026-01-03 01:21:14.49	309.15	22.86	-52.9	-55.3	3.6	0.00e+00	0	39	104	0	60	98915
2026-01-03 01:21:17.52	307.90	22.84	-53.0	-55.4	3.6	0.00e+00	0	39	104	0	60	100113
2026-01-03 01:21:20.56	306.65	22.80	-52.9	-55.3	3.6	0.00e+00	0	39	104	0	60	98681
2026-01-03 01:21:23.59	305.40	22.75	-52.9	-55.3	3.6	0.00e+00	0	39	104	0	60	98187
2026-01-03 01:21:26.62	304.16	22.68	-52.9	-55.4	3.6	0.00e+00	0	39	104	0	60	99100
2026-01-03 01:21:29.65	302.93	22.60	-52.8	-55.3	3.6	0.00e+00	0	39	104	0	60	98576
2026-01-03 01:21:32.69	301.70	22.51	-53.0	-55.5	3.6	0.00e+00	0	39	104	0	60	100533
2026-01-03 01:21:35.72	300.48	22.41	-52.8	-55.3	3.6	0.00e+00	0	39	104	0	60	98171
2026-01-03 01:21:38.75	299.27	22.29	-52.9	-55.3	3.6	0.00e+00	0	39	104	0	60	98954
2026-01-03 01:21:41.78	298.08	22.17	-52.9	-55.3	3.6	0.00e+00	0	39	104	0	60	98475
2026-01-03 01:21:44.82	296.89	22.03	-53.0	-55.4	3.6	0.00e+00	0	39	104	0	60	99657
2026-01-03 01:21:47.85	295.71	21.88	-53.0	-55.4	3.6	0.00e+00	0	39	104	0	60	99322
2026-01-03 01:21:50.88	294.55	21.72	-52.9	-55.3	3.6	0.00e+00	0	39	104	0	60	98793
2026-01-03 01:21:53.91	293.40	21.55	-52.9	-55.4	3.6	0.00e+00	0	39	104	0	60	99376
2026-01-03 01:21:56.95	292.27	21.37	-52.9	-55.3	3.6	0.00e+00	0	39	104	0	60	98957
2026-01-03 01:21:59.98	291.15	21.18	-52.9	-55.3	3.6	0.00e+00	0	39	104	0	60	98330
2026-01-03 01:22:03.01	290.04	20.99	-52.9	-55.3	3.6	0.00e+00	0	39	104	0	60	98341
2026-01-03 01:22:06.05	288.95	20.78	-52.9	-55.4	3.6	0.00e+00	0	39	104	0	60	99233
2026-01-03 01:22:09.08	287.88	20.57	-52.9	-55.4	3.6	0.00e+00	0	39	104	0	60	99343
2026-01-03 01:22:12.11	286.83	20.35	-52.9	-55.4	3.6	0.00e+00	0	39	104	0	60	99494
2026-01-03 01:22:15.14	285.79	20.13	-53.1	-55.6	3.6	0.00e+00	0	39	104	0	60	101647
2026-01-03 01:22:18.17	284.77	19.90	-53.1	-55.5	3.6	0.00e+00	0	39	104	0	60	100878
2026-01-03 01:22:21.21	283.77	19.66	-53.0	-55.5	3.6	0.00e+00	0	39	104	0	60	100542
2026-01-03 01:22:24.24	282.78	19.42	-53.0	-55.5	3.6	0.00e+00	0	39	104	0	60	100407
2026-01-03 01:22:27.27	281.81	19.17	-52.8	-55.3	3.6	0.00e+00	0	39	104	0	60	98629
2026-01-03 01:22:30.30	280.87	18.92	-53.0	-55.4	3.6	0.00e+00	0	39	104	0	60	99948
2026-01-03 01:22:33.33	279.93	18.66	-53.0	-55.4	3.6	0.00e+00	0	39	104	0	60	99933
2026-01-03 01:22:36.37	279.02	18.40	-53.1	-55.5	3.6	0.00e+00	0	39	104	0	60	101133
2026-01-03 01:22:39.40	278.12	18.14	-53.0	-55.5	3.6	0.00e+00	0	39	104	0	60	100189
2026-01-03 01:22:42.43	277.24	17.88	-52.9	-55.3	3.6	0.00e+00	0	39	104	0	60	98633
2026-01-03 01:22:45.46	276.38	17.61	-52.9	-55.4	3.6	0.00e+00	0	39	104	0	60	99256
2026-01-03 01:22:48.50	275.54	17.34	-52.9	-55.4	3.6	0.00e+00	0	39	104	0	60	99310
2026-01-03 01:22:51.53	274.71	17.07	-53.0	-55.4	3.6	0.00e+00	0	39	104	0	60	99509
2026-01-03 01:22:54.56	273.90	16.79	-53.0	-55.5	3.6	0.00e+00	0	39	104	0	60	100286
2026-01-03 01:22:57.59	273.11	16.52	-52.9	-55.3	3.6	0.00e+00	0	39	104	0	60	98905
2026-01-03 01:23:00.63	272.33	16.24	-53.0	-55.5	3.6	0.00e+00	0	39	104	0	60	100631
2026-01-03 01:23:03.66	271.58	15.97	-53.0	-55.4	3.6	0.00e+00	0	39	104	0	60	99742
2026-01-03 01:23:06.69	270.83	15.69	-53.0	-55.4	3.6	0.00e+00	0	39	104	0	60	100100
2026-01-03 01:23:09.72	270.11	15.42	-52.9	-55.3	3.6	0.00e+00	0	39	104	0	60	98822
2026-01-03 01:23:12.76	269.39	15.14	-52.9	-55.3	3.6	0.00e+00	0	39	104	0	60	98779
2026-01-03 01:23:15.79	268.70	14.86	-52.8	-55.3	3.6	0.00e+00	0	39	104	0	60	97996
2026-01-03 01:23:18.82	268.02	14.59	-52.8	-55.2	3.6	0.00e+00	0	39	104	0	60	97292
2026-01-03 01:23:21.85	267.35	14.31	-52.9	-55.4	3.6	0.00e+00	0	39	104	0	60	99223
2026-01-03 01:23:24.88	266.70	14.04	-53.0	-55.4	3.6	0.00e+00	0	39	104	0	60	99580
2026-01-03 01:23:27.92	266.06	13.76	-52.8	-55.2	3.6	0.00e+00	0	39	104	0	60	97177
2026-01-03 01:23:30.94	265.44	13.49	-52.8	-55.2	3.6	0.00e+00	0	39	104	0	60	97830
2026-01-03 01:23:33.97	264.83	13.22	-53.0	-55.4	3.6	0.00e+00	0	39	104	0	60	99925
2026-01-03 01:23:37.00	264.23	12.95	-53.1	-55.5	3.6	0.00e+00	0	39	104	0	60	101076
2026-01-03 01:23:40.03	263.65	12.68	-52.9	-55.3	3.6	0.00e+00	0	39	104	0	60	98655
2026-01-03 01:23:43.07	263.07	12.41	-52.9	-55.3	3.6	0.00e+00	0	39	104	0	60	98929
2026-01-03 01:23:45.81	262.57	12.17	-52.9	-55.4	3.6	0.00e+00	0	39	104	0	60	99552
2026-01-03 01:23:49.13	261.97	11.88	-52.9	-55.3	3.6	0.00e+00	0	39	104	0	60	98572
2026-01-03 01:23:51.87	261.48	11.64	-52.9	-55.3	3.6	0.00e+00	0	39	104	0	60	98521
2026-01-03 01:23:55.19	260.91	11.35	-52.7	-55.2	3.6	0.00e+00	0	39	104	0	60	97203
2026-01-03 01:23:57.93	260.45	11.11	-52.6	-55.1	3.6	0.00e+00	0	39	104	0	60	96413
2026-01-03 01:24:01.25	259.90	10.83	-52.7	-55.1	3.6	0.00e+00	0	39	104	0	60	96477
2026-01-03 01:24:04.00	259.45	10.60	-52.4	-54.9	3.6	0.00e+00	0	39	104	0	60	94441
2026-01-03 01:24:07.32	258.92	10.32	-51.5	-54.0	3.6	0.00e+00	0	39	104	0	60	84934
2026-01-03 01:24:10.06	258.50	10.09	-51.4	-53.8	3.6	0.00e+00	0	39	104	0	60	83263
2026-01-03 01:24:13.38	257.99	9.81	-51.4	-53.8	3.6	0.00e+00	0	39	104	0	60	82933
2026-01-03 01:24:16.13	257.58	9.58	-51.4	-53.8	3.6	0.00e+00	0	39	104	0	60	83127
2026-01-03 01:24:19.45	257.10	9.31	-51.4	-53.8	3.6	0.00e+00	0	39	104	0	60	83069
2026-01-03 01:24:22.19	256.71	9.09	-51.4	-53.8	3.6	0.00e+00	0	39	104	0	60	83036
2026-01-03 01:24:25.51	256.24	8.82	-51.3	-53.8	3.6	0.00e+00	0	39	104	0	60	82727
2026-01-03 01:24:28.26	255.87	8.60	-51.3	-53.8	3.6	0.00e+00	0	39	104	0	60	82402
2026-01-03 01:24:31.58	255.42	8.34	-51.3	-53.8	3.5	0.00e+00	0	39	104	0	60	82621
2026-01-03 01:24:34.32	255.06	8.12	-51.3	-53.8	3.6	0.00e+00	0	39	104	0	60	82984
2026-01-03 01:24:37.64	254.63	7.86	-51.3	-53.8	3.5	0.00e+00	0	39	104	0	60	82636
2026-01-03 01:24:40.38	254.29	7.65	-51.3	-53.8	3.6	0.00e+00	0	39	104	0	60	82840
2026-01-03 01:24:43.70	253.87	7.39	-51.3	-53.7	3.6	0.00e+00	0	39	104	0	60	82021
2026-01-03 01:24:46.44	253.54	7.18	-51.3	-53.7	3.6	0.00e+00	0	39	104	0	60	82224
2026-01-03 01:24:49.77	253.15	6.93	-51.3	-53.7	3.6	0.00e+00	0	39	104	0	60	82049
2026-01-03 01:24:52.51	252.83	6.72	-51.3	-53.8	3.6	0.00e+00	0	39	104	0	60	82599
2026-01-03 01:24:55.83	252.45	6.47	-51.3	-53.9	3.6	0.00e+00	0	39	104	0	60	83810
2026-01-03 01:24:58.58	252.14	6.27	-51.2	-53.8	3.6	0.00e+00	0	39	104	0	60	83038
2026-01-03 01:25:01.90	251.77	6.03	-51.4	-53.9	3.6	0.00e+00	0	39	104	0	60	83877
2026-01-03 01:25:04.64	251.48	5.83	-51.3	-53.9	3.6	0.00e+00	0	39	104	0	60	83604
2026-01-03 01:25:07.96	251.13	5.58	-51.3	-53.9	3.6	0.00e+00	0	39	104	0	60	83865
2026-01-03 01:25:10.70	250.84	5.39	-51.2	-53.9	3.6	0.00e+00	0	39	104	0	60	83726
2026-01-03 01:25:14.03	250.50	5.15	-51.2	-53.9	3.6	0.00e+00	0	39	104	0	60	83788
2026-01-03 01:25:16.77	250.23	4.96	-51.1	-53.8	3.6	0.00e+00	0	39	104	0	60	83193
2026-01-03 01:25:20.09	249.91	4.72	-51.2	-53.9	3.6	0.00e+00	0	39	104	0	60	83560
2026-01-03 01:25:22.83	249.64	4.53	-51.2	-53.9	3.6	0.00e+00	0	39	104	0	60	83596
2026-01-03 01:25:26.15	249.33	4.30	-51.3	-54.0	3.6	0.00e+00	0	39	104	0	60	84883
2026-01-03 01:25:28.89	249.07	4.11	-51.3	-54.1	3.6	0.00e+00	0	39	104	0	60	85726
2026-01-03 01:25:32.22	248.77	3.89	-51.4	-54.1	3.6	0.00e+00	0	39	104	0	60	85968
2026-01-03 01:25:34.96	248.53	3.70	-51.4	-54.1	3.6	0.00e+00	0	39	104	0	60	85741
2026-01-03 01:25:38.28	248.23	3.48	-51.4	-54.0	3.6	0.00e+00	0	39	104	0	60	84796
2026-01-03 01:25:41.02	248.00	3.29	-51.4	-54.1	3.6	0.00e+00	0	39	104	0	60	85654
2026-01-03 01:25:44.34	247.72	3.07	-51.4	-54.1	3.6	0.00e+00	0	39	104	0	60	85681
2026-01-03 01:25:47.08	247.49	2.89	-51.4	-54.1	3.6	0.00e+00	0	39	104	0	60	85837
2026-01-03 01:25:50.41	247.22	2.68	-51.7	-54.2	3.6	0.00e+00	0	39	104	0	60	86945
2026-01-03 01:25:53.15	247.00	2.50	-51.8	-54.3	3.6	0.00e+00	0	39	104	0	60	87874
2026-01-03 01:25:56.47	246.73	2.29	-51.7	-54.3	3.6	0.00e+00	0	39	104	0	60	87543
2026-01-03 01:25:59.22	246.52	2.11	-51.7	-54.3	3.6	0.00e+00	0	39	104	0	60	87730
2026-01-03 01:26:02.54	246.27	1.90	-51.8	-54.4	3.6	0.00e+00	0	39	104	0	60	88248
2026-01-03 01:26:05.28	246.06	1.73	-51.9	-54.4	3.6	0.00e+00	0	39	104	0	60	88788
2026-01-03 01:26:08.60	245.81	1.52	-52.0	-54.5	3.6	0.00e+00	0	39	104	0	60	89930
2026-01-03 01:26:11.35	245.61	1.35	-52.1	-54.5	3.6	0.00e+00	0	39	104	0	60	89917
2026-01-03 01:26:14.67	245.38	1.14	-52.1	-54.5	3.6	0.00e+00	0	39	104	0	60	90127
2026-01-03 01:26:17.41	245.19	0.97	-52.1	-54.6	3.6	0.00e+00	0	39	104	0	60	90315
2026-01-03 01:26:20.73	244.96	0.77	-52.1	-54.5	3.6	0.00e+00	0	39	104	0	60	89866
2026-01-03 01:26:23.48	244.77	0.60	-52.0	-54.5	3.5	0.00e+00	0	39	104	0	60	89937
2026-01-03 01:26:26.80	244.55	0.40	-52.0	-54.5	3.6	0.00e+00	0	39	104	0	60	90263
2026-01-03 01:26:29.54	244.37	0.24	-52.1	-54.6	3.6	0.00e+00	0	39	104	0	60	90331
2026-01-03 01:26:32.87	244.15	0.04	-52.1	-54.6	3.6	0.00e+00	0	39	104	0	60	90307
2026-01-03 01:26:35.61	243.98	-0.12	-52.1	-54.6	3.6	0.00e+00	0	39	104	0	60	90516

#Closed at: 2026-01-03 01:26:36
#Recorded file [0 MB]: D:/lorett/data/35034_260103_041547.dat