passes_logs/2026/01/03/R4.6S_Anadyr_2ch/R4.6S_Anadyr_2ch__20260103_103328_2025-108B_rec.log

#Pass ID: 20260103_103328_2025-108B
#Satellite: 2025-108B
#Configuration: 3PB_600M
#almurnet v.1.7.20251203
#Start time: 2026-01-03 10:33:29

#Version: 2.2.20231116
#Station: R4.6S_Anadyr_2ch
#Location: 177.4865 lon 64.73178 lat
#TLE: 1 64088U 25108B   25351.01672131  .00008460  00000+0  43413-3 0  9994
#TLE: 2 64088  97.4940  63.8579 0011684 285.1423  74.8517 15.16717580 31720

#Time	Az	El	Level	Level2	SNR	BER	BlckErr	Temp	State	Recorded	gain1	gain2
2026-01-03 10:33:29.21	189.10	0.05	-52.8	-54.1	3.3	0.00e+00	0	34	0	0	60	85642
2026-01-03 10:33:32.23	189.26	0.24	-54.2	-56.7	3.5	0.00e+00	0	36	104	0	60	115005
2026-01-03 10:33:35.27	189.42	0.43	-55.0	-57.4	3.6	0.00e+00	0	36	104	0	60	125175
2026-01-03 10:33:38.30	189.58	0.61	-54.3	-56.8	3.6	0.00e+00	0	36	104	0	60	116831
2026-01-03 10:33:41.33	189.74	0.80	-54.8	-57.2	3.6	0.00e+00	0	36	104	0	60	123147
2026-01-03 10:33:44.36	189.91	0.99	-53.8	-56.3	3.6	0.00e+00	0	36	104	0	60	110238
2026-01-03 10:33:47.40	190.08	1.19	-54.2	-56.6	3.6	0.00e+00	0	36	104	0	60	114753
2026-01-03 10:33:50.43	190.25	1.38	-54.0	-56.5	3.6	0.00e+00	0	36	104	0	60	112421
2026-01-03 10:33:53.46	190.43	1.57	-53.9	-56.4	3.6	0.00e+00	0	36	104	0	60	111295
2026-01-03 10:33:56.50	190.61	1.77	-53.3	-55.7	3.6	0.00e+00	0	37	104	0	60	103417
2026-01-03 10:33:59.53	190.79	1.97	-54.2	-56.6	3.6	0.00e+00	0	37	104	0	60	114378
2026-01-03 10:34:02.56	190.97	2.17	-54.1	-56.5	3.6	0.00e+00	0	37	104	0	60	113562
2026-01-03 10:34:05.59	191.16	2.37	-53.7	-56.2	3.6	0.00e+00	0	37	104	0	60	109064
2026-01-03 10:34:08.63	191.35	2.58	-54.3	-56.8	3.6	0.00e+00	0	37	104	0	60	117001
2026-01-03 10:34:11.66	191.54	2.78	-55.2	-57.7	3.6	0.00e+00	0	37	104	0	60	129773
2026-01-03 10:34:14.69	191.74	2.99	-54.3	-56.8	3.6	0.00e+00	0	37	104	0	60	117146
2026-01-03 10:34:17.72	191.94	3.19	-53.9	-56.3	3.6	0.00e+00	0	37	104	0	60	110994
2026-01-03 10:34:20.76	192.14	3.41	-54.5	-56.9	3.6	0.00e+00	0	37	104	0	60	118925
2026-01-03 10:34:23.79	192.35	3.62	-53.7	-56.2	3.6	0.00e+00	0	37	104	0	60	109004
2026-01-03 10:34:26.82	192.56	3.83	-53.9	-56.4	3.6	0.00e+00	0	37	104	0	60	111426
2026-01-03 10:34:29.85	192.77	4.05	-54.2	-56.6	3.6	0.00e+00	0	37	104	0	60	114913
2026-01-03 10:34:32.89	192.99	4.27	-54.2	-56.7	3.6	0.00e+00	0	37	104	0	60	115485
2026-01-03 10:34:35.92	193.21	4.49	-54.2	-56.6	3.6	0.00e+00	0	37	104	0	60	114069
2026-01-03 10:34:38.95	193.44	4.71	-54.5	-57.0	3.6	0.00e+00	0	38	104	0	60	119618
2026-01-03 10:34:41.98	193.66	4.93	-54.4	-56.8	3.6	0.00e+00	0	38	104	0	60	117256
2026-01-03 10:34:45.02	193.90	5.16	-53.9	-56.3	3.6	0.00e+00	0	38	104	0	60	110492
2026-01-03 10:34:48.05	194.14	5.39	-54.2	-56.7	3.6	0.00e+00	0	38	104	0	60	115145
2026-01-03 10:34:51.08	194.38	5.62	-53.9	-56.4	3.6	0.00e+00	0	38	104	0	60	111660
2026-01-03 10:34:54.12	194.63	5.85	-54.7	-57.2	3.6	0.00e+00	0	38	104	0	60	121900
2026-01-03 10:34:57.15	194.88	6.09	-54.1	-56.6	3.6	0.00e+00	0	38	104	0	60	113717
2026-01-03 10:35:00.18	195.14	6.32	-53.8	-56.3	3.6	0.00e+00	0	38	104	0	60	110254
2026-01-03 10:35:03.22	195.40	6.57	-54.5	-56.9	3.6	0.00e+00	0	38	104	0	60	118842
2026-01-03 10:35:06.25	195.66	6.81	-54.0	-56.4	3.6	0.00e+00	0	38	104	0	60	112122
2026-01-03 10:35:09.28	195.94	7.05	-54.2	-56.7	3.6	0.00e+00	0	38	104	0	60	115330
2026-01-03 10:35:12.32	196.21	7.30	-54.3	-56.8	3.6	0.00e+00	0	38	104	0	60	117504
2026-01-03 10:35:15.35	196.50	7.55	-53.4	-55.9	3.6	0.00e+00	0	38	104	0	60	104899
2026-01-03 10:35:18.38	196.79	7.81	-54.4	-56.9	3.6	0.00e+00	0	38	104	0	60	118453
2026-01-03 10:35:21.41	197.08	8.06	-53.8	-56.2	3.6	0.00e+00	0	38	104	0	60	109704
2026-01-03 10:35:24.45	197.38	8.32	-54.1	-56.6	3.6	0.00e+00	0	38	104	0	60	113743
2026-01-03 10:35:27.48	197.69	8.58	-54.0	-56.5	3.6	0.00e+00	0	38	104	0	60	113016
2026-01-03 10:35:30.50	198.00	8.85	-54.3	-56.8	3.6	0.00e+00	0	38	104	0	60	116869
2026-01-03 10:35:33.54	198.33	9.12	-53.4	-55.9	3.6	0.00e+00	0	38	104	0	60	105185
2026-01-03 10:35:36.57	198.65	9.39	-54.0	-56.5	3.6	0.00e+00	0	38	104	0	60	113194
2026-01-03 10:35:39.60	198.99	9.66	-54.7	-57.1	3.6	0.00e+00	0	38	104	0	60	121754
2026-01-03 10:35:42.63	199.33	9.94	-54.2	-56.7	3.6	0.00e+00	0	38	104	0	60	114968
2026-01-03 10:35:45.67	199.68	10.22	-55.1	-57.6	3.6	0.00e+00	0	38	104	0	60	127649
2026-01-03 10:35:48.70	200.04	10.51	-54.1	-56.6	3.6	0.00e+00	0	38	104	0	60	114084
2026-01-03 10:35:51.74	200.41	10.79	-53.8	-56.3	3.6	0.00e+00	0	38	104	0	60	110339
2026-01-03 10:35:54.77	200.78	11.09	-54.0	-56.5	3.6	0.00e+00	0	38	104	0	60	112446
2026-01-03 10:35:57.80	201.17	11.38	-54.7	-57.2	3.6	0.00e+00	0	38	104	0	60	122486
2026-01-03 10:36:00.83	201.56	11.68	-54.1	-56.6	3.6	0.00e+00	0	39	104	0	60	114306
2026-01-03 10:36:03.87	201.96	11.98	-54.0	-56.4	3.6	0.00e+00	0	39	104	0	60	112286
2026-01-03 10:36:06.90	202.37	12.29	-54.1	-56.6	3.6	0.00e+00	0	39	104	0	60	114111
2026-01-03 10:36:09.93	202.80	12.60	-54.1	-56.6	3.6	0.00e+00	0	39	104	0	60	113712
2026-01-03 10:36:12.97	203.23	12.91	-53.9	-56.4	3.6	0.00e+00	0	39	104	0	60	112186
2026-01-03 10:36:16.00	203.67	13.23	-53.9	-56.4	3.6	0.00e+00	0	39	104	0	60	112243
2026-01-03 10:36:19.03	204.13	13.55	-53.8	-56.3	3.6	0.00e+00	0	39	104	0	60	109876
2026-01-03 10:36:22.07	204.59	13.88	-53.9	-56.3	3.6	0.00e+00	0	39	104	0	60	110882
2026-01-03 10:36:25.10	205.07	14.21	-53.8	-56.3	3.6	0.00e+00	0	39	104	0	60	109838
2026-01-03 10:36:28.13	205.56	14.54	-54.0	-56.5	3.6	0.00e+00	0	39	104	0	60	112403
2026-01-03 10:36:31.16	206.06	14.88	-53.9	-56.3	3.5	0.00e+00	0	39	104	0	60	110586
2026-01-03 10:36:34.19	206.58	15.22	-53.8	-56.3	3.6	0.00e+00	0	39	104	0	60	110463
2026-01-03 10:36:37.23	207.11	15.57	-53.5	-55.9	3.6	0.00e+00	0	39	104	0	60	105797
2026-01-03 10:36:40.26	207.66	15.92	-54.0	-56.5	3.6	0.00e+00	0	39	104	0	60	112487
2026-01-03 10:36:43.29	208.21	16.27	-53.9	-56.3	3.6	0.00e+00	0	39	104	0	60	110330
2026-01-03 10:36:46.33	208.79	16.64	-53.5	-56.0	3.6	0.00e+00	0	39	104	0	60	106141
2026-01-03 10:36:49.36	209.38	17.00	-54.0	-56.4	3.6	0.00e+00	0	39	104	0	60	111539
2026-01-03 10:36:52.39	209.98	17.37	-54.0	-56.4	3.6	0.00e+00	0	39	104	0	60	111580
2026-01-03 10:36:55.42	210.61	17.74	-53.7	-56.2	3.6	0.00e+00	0	39	104	0	60	108680
2026-01-03 10:36:58.46	211.25	18.11	-54.0	-56.5	3.6	0.00e+00	0	39	104	0	60	112775
2026-01-03 10:37:01.49	211.91	18.49	-54.1	-56.6	3.6	0.00e+00	0	39	104	0	60	114395
2026-01-03 10:37:04.52	212.58	18.88	-54.0	-56.4	3.6	0.00e+00	0	39	104	0	60	112081
2026-01-03 10:37:07.56	213.28	19.27	-54.5	-57.0	3.6	0.00e+00	0	39	104	0	60	119382
2026-01-03 10:37:10.59	214.00	19.66	-54.3	-56.8	3.6	0.00e+00	0	39	104	0	60	117103
2026-01-03 10:37:13.62	214.74	20.05	-53.9	-56.4	3.6	0.00e+00	0	39	104	0	60	112006
2026-01-03 10:37:16.65	215.49	20.45	-54.2	-56.6	3.6	0.00e+00	0	39	104	0	60	114749
2026-01-03 10:37:19.69	216.28	20.86	-54.8	-57.2	3.6	0.00e+00	0	39	104	0	60	122568
2026-01-03 10:37:22.72	217.08	21.26	-54.5	-57.0	3.6	0.00e+00	0	39	104	0	60	119688
2026-01-03 10:37:25.75	217.91	21.67	-54.0	-56.5	3.6	0.00e+00	0	39	104	0	60	112826
2026-01-03 10:37:28.78	218.76	22.08	-54.1	-56.5	3.6	0.00e+00	0	39	104	0	60	113185
2026-01-03 10:37:31.81	219.63	22.49	-53.8	-56.2	3.6	0.00e+00	0	39	104	0	60	109480
2026-01-03 10:37:34.84	220.54	22.90	-53.4	-55.8	3.6	0.00e+00	0	39	104	0	60	104503
2026-01-03 10:37:37.88	221.47	23.32	-53.5	-56.0	3.6	0.00e+00	0	39	104	0	60	106840
2026-01-03 10:37:40.91	222.42	23.73	-54.0	-56.4	3.6	0.00e+00	0	39	104	0	60	112174
2026-01-03 10:37:43.94	223.41	24.15	-54.3	-56.7	3.6	0.00e+00	0	39	104	0	60	115898
2026-01-03 10:37:46.98	224.43	24.57	-54.1	-56.6	3.6	0.00e+00	0	39	104	0	60	113987
2026-01-03 10:37:50.01	225.47	24.98	-54.2	-56.5	3.6	0.00e+00	0	39	104	0	60	113517
2026-01-03 10:37:53.05	226.54	25.39	-54.3	-56.8	3.6	0.00e+00	0	39	104	0	60	116622
2026-01-03 10:37:56.08	227.65	25.80	-54.3	-56.8	3.6	0.00e+00	0	39	104	0	60	116868
2026-01-03 10:37:59.11	228.78	26.21	-54.0	-56.5	3.6	0.00e+00	0	39	104	0	60	112615
2026-01-03 10:38:02.14	229.95	26.62	-54.3	-56.7	3.5	0.00e+00	0	39	104	0	60	115551
2026-01-03 10:38:05.18	231.15	27.01	-54.5	-57.0	3.6	0.00e+00	0	39	104	0	60	119351
2026-01-03 10:38:08.21	232.38	27.41	-54.2	-56.6	3.6	0.00e+00	0	39	104	0	60	114343
2026-01-03 10:38:11.24	233.64	27.79	-54.0	-56.5	3.6	0.00e+00	0	39	104	0	60	112550
2026-01-03 10:38:14.27	234.93	28.17	-54.2	-56.7	3.6	0.00e+00	0	39	104	0	60	115180
2026-01-03 10:38:17.31	236.27	28.54	-54.5	-56.9	3.6	0.00e+00	0	39	104	0	60	118532
2026-01-03 10:38:20.34	237.63	28.90	-54.5	-57.0	3.6	0.00e+00	0	39	104	0	60	119820
2026-01-03 10:38:23.37	239.02	29.24	-53.8	-56.3	3.6	0.00e+00	0	39	104	0	60	109950
2026-01-03 10:38:26.41	240.45	29.58	-53.8	-56.3	3.6	0.00e+00	0	39	104	0	60	109937
2026-01-03 10:38:29.44	241.90	29.90	-53.7	-56.2	3.6	0.00e+00	0	39	104	0	60	108573
2026-01-03 10:38:32.47	243.39	30.20	-54.5	-57.0	3.6	0.00e+00	0	39	104	0	60	119478
2026-01-03 10:38:35.50	244.91	30.49	-53.5	-55.9	3.6	0.00e+00	0	39	104	0	60	105738
2026-01-03 10:38:38.53	246.45	30.76	-54.6	-57.1	3.6	0.00e+00	0	39	104	0	60	120775
2026-01-03 10:38:41.57	248.02	31.02	-54.4	-56.8	3.6	0.00e+00	0	39	104	0	60	117245
2026-01-03 10:38:44.60	249.62	31.25	-54.6	-57.0	3.6	0.00e+00	0	39	104	0	60	120023
2026-01-03 10:38:47.63	251.23	31.46	-54.6	-57.0	3.6	0.00e+00	0	39	104	0	60	119730
2026-01-03 10:38:50.67	252.88	31.65	-54.4	-56.8	3.6	0.00e+00	0	39	104	0	60	117318
2026-01-03 10:38:53.70	254.54	31.81	-54.6	-57.1	3.6	0.00e+00	0	39	104	0	60	120685
2026-01-03 10:38:56.73	256.21	31.95	-54.4	-56.9	3.6	0.00e+00	0	39	104	0	60	118127
2026-01-03 10:38:59.76	257.90	32.07	-54.3	-56.8	3.6	0.00e+00	0	39	104	0	60	116692
2026-01-03 10:39:02.80	259.60	32.16	-54.0	-56.5	3.6	0.00e+00	0	39	104	0	60	113148
2026-01-03 10:39:05.83	261.31	32.22	-54.5	-56.9	3.6	0.00e+00	0	39	104	0	60	118553
2026-01-03 10:39:08.86	263.02	32.26	-54.2	-56.6	3.6	0.00e+00	0	39	104	0	60	114449
2026-01-03 10:39:11.89	264.74	32.27	-54.7	-57.2	3.6	0.00e+00	0	39	104	0	60	122214
2026-01-03 10:39:14.92	266.45	32.25	-54.3	-56.8	3.6	0.00e+00	0	39	104	0	60	116823
2026-01-03 10:39:17.95	268.16	32.21	-54.4	-56.9	3.6	0.00e+00	0	39	104	0	60	118403
2026-01-03 10:39:20.99	269.88	32.14	-53.7	-56.3	3.6	0.00e+00	0	39	104	0	60	109971
2026-01-03 10:39:24.02	271.57	32.05	-54.3	-56.8	3.6	0.00e+00	0	39	104	0	60	116761
2026-01-03 10:39:27.05	273.26	31.93	-54.1	-56.6	3.6	0.00e+00	0	39	104	0	60	114260
2026-01-03 10:39:30.08	274.93	31.78	-54.6	-57.0	3.6	0.00e+00	0	39	104	0	60	119746
2026-01-03 10:39:33.11	276.58	31.62	-54.3	-56.7	3.6	0.00e+00	0	39	104	0	60	115599
2026-01-03 10:39:36.14	278.21	31.42	-54.4	-56.8	3.6	0.00e+00	0	39	104	0	60	117108
2026-01-03 10:39:39.18	279.83	31.21	-54.1	-56.5	3.6	0.00e+00	0	39	104	0	60	113544
2026-01-03 10:39:42.21	281.41	30.98	-54.3	-56.7	3.6	0.00e+00	0	39	104	0	60	115494
2026-01-03 10:39:45.24	282.98	30.72	-53.7	-56.2	3.6	0.00e+00	0	39	104	0	60	108708
2026-01-03 10:39:48.28	284.52	30.45	-54.1	-56.6	3.6	0.00e+00	0	39	104	0	60	114218
2026-01-03 10:39:51.31	286.02	30.16	-53.7	-56.2	3.6	0.00e+00	0	39	104	0	60	108918
2026-01-03 10:39:54.34	287.50	29.85	-54.2	-56.7	3.6	0.00e+00	0	39	104	0	60	115285
2026-01-03 10:39:57.38	288.95	29.53	-53.8	-56.3	3.6	0.00e+00	0	39	104	0	60	110317
2026-01-03 10:40:00.41	290.37	29.19	-54.2	-56.6	3.6	0.00e+00	0	39	104	0	60	114341
2026-01-03 10:40:03.44	291.75	28.85	-54.2	-56.6	3.6	0.00e+00	0	39	104	0	60	114543
2026-01-03 10:40:06.47	293.10	28.49	-53.9	-56.4	3.6	0.00e+00	0	39	104	0	60	111900
2026-01-03 10:40:09.50	294.42	28.12	-54.1	-56.6	3.6	0.00e+00	0	39	104	0	60	114277
2026-01-03 10:40:12.53	295.71	27.74	-54.6	-57.0	3.6	0.00e+00	0	39	104	0	60	119578
2026-01-03 10:40:15.56	296.96	27.36	-54.3	-56.8	3.6	0.00e+00	0	39	104	0	60	116757
2026-01-03 10:40:18.60	298.19	26.96	-54.6	-57.1	3.6	0.00e+00	0	39	104	0	60	120799
2026-01-03 10:40:21.63	299.37	26.57	-54.1	-56.6	3.6	0.00e+00	0	39	104	0	60	114506
2026-01-03 10:40:24.66	300.53	26.16	-53.8	-56.3	3.6	0.00e+00	0	39	104	0	60	109875
2026-01-03 10:40:27.69	301.66	25.76	-54.1	-56.6	3.6	0.00e+00	0	39	104	0	60	113705
2026-01-03 10:40:30.72	302.75	25.35	-54.1	-56.6	3.6	0.00e+00	0	39	104	0	60	113864
2026-01-03 10:40:33.75	303.82	24.94	-54.6	-57.0	3.6	0.00e+00	0	39	104	0	60	120193
2026-01-03 10:40:36.79	304.85	24.52	-54.4	-56.9	3.6	0.00e+00	0	40	104	0	60	118499
2026-01-03 10:40:39.82	305.86	24.11	-53.7	-56.1	3.6	0.00e+00	0	39	104	0	60	108454
2026-01-03 10:40:42.86	306.84	23.70	-54.5	-56.9	3.6	0.00e+00	0	39	104	0	60	118345
2026-01-03 10:40:45.89	307.79	23.28	-53.9	-56.4	3.6	0.00e+00	0	39	104	0	60	111428
2026-01-03 10:40:48.92	308.71	22.87	-54.3	-56.8	3.6	0.00e+00	0	39	104	0	60	117052
2026-01-03 10:40:51.96	309.61	22.46	-54.1	-56.5	3.6	0.00e+00	0	39	104	0	60	113571
2026-01-03 10:40:54.99	310.48	22.05	-54.2	-56.7	3.5	0.00e+00	0	39	104	0	60	115719
2026-01-03 10:40:58.02	311.32	21.64	-54.8	-57.3	3.6	0.00e+00	0	39	104	0	60	123253
2026-01-03 10:41:01.05	312.14	21.24	-54.7	-57.2	3.6	0.00e+00	0	39	104	0	60	121866
2026-01-03 10:41:04.08	312.94	20.84	-54.1	-56.6	3.6	0.00e+00	0	39	104	0	60	113935
2026-01-03 10:41:07.12	313.72	20.44	-54.0	-56.5	3.6	0.00e+00	0	39	104	0	60	113226
2026-01-03 10:41:10.15	314.47	20.04	-54.1	-56.5	3.6	0.00e+00	0	39	104	0	60	113576
2026-01-03 10:41:13.18	315.20	19.65	-53.7	-56.2	3.6	0.00e+00	0	39	104	0	60	108552
2026-01-03 10:41:16.22	315.92	19.26	-54.2	-56.7	3.6	0.00e+00	0	39	104	0	60	115395
2026-01-03 10:41:19.25	316.61	18.87	-54.2	-56.7	3.6	0.00e+00	0	39	104	0	60	115761
2026-01-03 10:41:22.28	317.28	18.49	-54.5	-57.0	3.6	0.00e+00	0	39	104	0	60	119069
2026-01-03 10:41:25.31	317.93	18.11	-53.9	-56.3	3.6	0.00e+00	0	39	104	0	60	110276
2026-01-03 10:41:28.34	318.57	17.74	-54.6	-57.0	3.6	0.00e+00	0	40	104	0	60	120205
2026-01-03 10:41:31.38	319.19	17.37	-53.9	-56.4	3.6	0.00e+00	0	40	104	0	60	111531
2026-01-03 10:41:34.41	319.79	17.01	-54.4	-56.9	3.6	0.00e+00	0	39	104	0	60	118377
2026-01-03 10:41:37.44	320.38	16.65	-54.4	-56.9	3.6	0.00e+00	0	39	104	0	60	117958
2026-01-03 10:41:40.48	320.95	16.29	-54.3	-56.8	3.6	0.00e+00	0	40	104	0	60	117024
2026-01-03 10:41:43.51	321.51	15.94	-54.2	-56.6	3.6	0.00e+00	0	40	104	0	60	114256
2026-01-03 10:41:46.54	322.05	15.59	-54.6	-57.0	3.6	0.00e+00	0	40	104	0	60	120202
2026-01-03 10:41:49.58	322.57	15.24	-53.8	-56.2	3.6	0.00e+00	0	40	104	0	60	109699
2026-01-03 10:41:52.61	323.09	14.90	-53.9	-56.4	3.6	0.00e+00	0	40	104	0	60	111194
2026-01-03 10:41:55.64	323.59	14.57	-54.2	-56.7	3.6	0.00e+00	0	39	104	0	60	115534
2026-01-03 10:41:58.68	324.08	14.23	-53.8	-56.3	3.5	0.00e+00	0	40	104	0	60	110255
2026-01-03 10:42:01.71	324.55	13.91	-53.9	-56.4	3.6	0.00e+00	0	40	104	0	60	111593
2026-01-03 10:42:04.74	325.02	13.58	-54.0	-56.4	3.6	0.00e+00	0	39	104	0	60	112126
2026-01-03 10:42:07.77	325.47	13.26	-54.5	-56.9	3.6	0.00e+00	0	39	104	0	60	118958
2026-01-03 10:42:10.80	325.91	12.95	-54.1	-56.5	3.6	0.00e+00	0	39	104	0	60	112568
2026-01-03 10:42:13.84	326.34	12.64	-54.0	-56.5	3.6	0.00e+00	0	39	104	0	60	113120
2026-01-03 10:42:16.87	326.76	12.33	-54.3	-56.8	3.6	0.00e+00	0	40	104	0	60	116590
2026-01-03 10:42:19.90	327.17	12.03	-54.0	-56.4	3.6	0.00e+00	0	39	104	0	60	112158
2026-01-03 10:42:22.93	327.57	11.73	-54.0	-56.4	3.6	0.00e+00	0	39	104	0	60	111730
2026-01-03 10:42:25.96	327.97	11.43	-53.7	-56.1	3.6	0.00e+00	0	40	104	0	60	108053
2026-01-03 10:42:29.00	328.35	11.14	-54.4	-56.9	3.6	0.00e+00	0	39	104	0	60	118209
2026-01-03 10:42:32.03	328.72	10.85	-54.6	-57.0	3.6	0.00e+00	0	39	104	0	60	119757
2026-01-03 10:42:35.06	329.09	10.56	-54.2	-56.7	3.6	0.00e+00	0	39	104	0	60	115600
2026-01-03 10:42:38.10	329.45	10.28	-53.9	-56.4	3.6	0.00e+00	0	39	104	0	60	111535
2026-01-03 10:42:41.13	329.80	10.00	-54.2	-56.7	3.6	0.00e+00	0	39	104	0	60	115052
2026-01-03 10:42:44.16	330.14	9.72	-54.3	-56.7	3.6	0.00e+00	0	40	104	0	60	115677
2026-01-03 10:42:47.20	330.47	9.45	-54.3	-56.8	3.5	0.00e+00	0	40	104	0	60	117198
2026-01-03 10:42:50.23	330.80	9.18	-54.4	-56.8	3.6	0.00e+00	0	40	104	0	60	117233
2026-01-03 10:42:53.26	331.12	8.91	-54.5	-57.0	3.6	0.00e+00	0	39	104	0	60	119759
2026-01-03 10:42:56.29	331.44	8.65	-54.4	-56.9	3.6	0.00e+00	0	39	104	0	60	117981
2026-01-03 10:42:59.32	331.74	8.39	-54.3	-56.8	3.6	0.00e+00	0	40	104	0	60	116706
2026-01-03 10:43:02.35	332.04	8.13	-54.6	-57.1	3.6	0.00e+00	0	39	104	0	60	120538
2026-01-03 10:43:05.39	332.34	7.88	-54.4	-56.9	3.6	0.00e+00	0	39	104	0	60	118170
2026-01-03 10:43:08.42	332.63	7.62	-54.0	-56.4	3.6	0.00e+00	0	39	104	0	60	112134
2026-01-03 10:43:11.45	332.91	7.37	-54.0	-56.5	3.6	0.00e+00	0	40	104	0	60	112824
2026-01-03 10:43:14.48	333.19	7.13	-54.2	-56.7	3.6	0.00e+00	0	40	104	0	60	115426
2026-01-03 10:43:17.51	333.46	6.88	-54.0	-56.5	3.6	0.00e+00	0	40	104	0	60	113078
2026-01-03 10:43:20.54	333.73	6.64	-54.5	-57.0	3.6	0.00e+00	0	40	104	0	60	119897
2026-01-03 10:43:23.57	333.99	6.40	-53.8	-56.2	3.6	0.00e+00	0	39	104	0	60	109529
2026-01-03 10:43:26.60	334.25	6.17	-54.5	-56.9	3.6	0.00e+00	0	40	104	0	60	118276
2026-01-03 10:43:29.63	334.50	5.93	-53.9	-56.3	3.6	0.00e+00	0	39	104	0	60	110820
2026-01-03 10:43:32.66	334.75	5.70	-54.0	-56.4	3.6	0.00e+00	0	39	104	0	60	111859
2026-01-03 10:43:35.70	334.99	5.47	-54.3	-56.8	3.6	0.00e+00	0	39	104	0	60	116944
2026-01-03 10:43:38.73	335.23	5.24	-54.8	-57.3	3.6	0.00e+00	0	39	104	0	60	124385
2026-01-03 10:43:41.76	335.47	5.02	-54.1	-56.5	3.6	0.00e+00	0	39	104	0	60	113371
2026-01-03 10:43:44.80	335.70	4.80	-54.2	-56.7	3.6	0.00e+00	0	40	104	0	60	116131
2026-01-03 10:43:47.83	335.92	4.58	-54.3	-56.7	3.6	0.00e+00	0	39	104	0	60	116000
2026-01-03 10:43:50.87	336.15	4.36	-54.5	-56.9	3.6	0.00e+00	0	39	104	0	60	118725
2026-01-03 10:43:53.90	336.37	4.14	-54.1	-56.6	3.6	0.00e+00	0	40	104	0	60	113767
2026-01-03 10:43:56.93	336.58	3.92	-54.4	-56.8	3.6	0.00e+00	0	39	104	0	60	117537
2026-01-03 10:43:59.96	336.79	3.71	-54.2	-56.6	3.6	0.00e+00	0	40	104	0	60	114898
2026-01-03 10:44:02.99	337.00	3.50	-54.0	-56.5	3.6	0.00e+00	0	40	104	0	60	112682
2026-01-03 10:44:06.03	337.20	3.29	-54.2	-56.7	3.6	0.00e+00	0	39	104	0	60	115769
2026-01-03 10:44:09.06	337.41	3.08	-54.3	-56.7	3.6	0.00e+00	0	40	104	0	60	115714
2026-01-03 10:44:12.09	337.60	2.88	-53.8	-56.2	3.6	0.00e+00	0	40	104	0	60	109585
2026-01-03 10:44:15.12	337.80	2.68	-53.8	-56.2	3.6	0.00e+00	0	40	104	0	60	109256
2026-01-03 10:44:18.15	337.99	2.47	-54.4	-56.9	3.6	0.00e+00	0	40	104	0	60	117674
2026-01-03 10:44:21.18	338.18	2.27	-54.2	-56.7	3.6	0.00e+00	0	40	104	0	60	115389
2026-01-03 10:44:24.21	338.36	2.07	-54.7	-57.1	3.6	0.00e+00	0	39	104	0	60	121668
2026-01-03 10:44:27.24	338.55	1.88	-54.7	-57.2	3.6	0.00e+00	0	40	104	0	60	121849
2026-01-03 10:44:30.28	338.73	1.68	-54.2	-56.6	3.5	0.00e+00	0	40	104	0	60	114557
2026-01-03 10:44:33.31	338.90	1.49	-54.2	-56.6	3.6	0.00e+00	0	40	104	0	60	114513
2026-01-03 10:44:36.34	339.08	1.29	-53.9	-56.3	3.6	0.00e+00	0	40	104	0	60	110677
2026-01-03 10:44:39.37	339.25	1.10	-53.8	-56.3	3.6	0.00e+00	0	40	104	0	60	110317
2026-01-03 10:44:42.40	339.42	0.91	-54.6	-57.1	3.6	0.00e+00	0	40	104	0	60	121089
2026-01-03 10:44:45.44	339.59	0.72	-54.2	-56.7	3.6	0.00e+00	0	40	104	0	60	115665
2026-01-03 10:44:48.47	339.75	0.54	-54.3	-56.8	3.6	0.00e+00	0	40	104	0	60	116987
2026-01-03 10:44:51.50	339.91	0.35	-53.9	-56.4	3.6	0.00e+00	0	40	104	0	60	111764
2026-01-03 10:44:54.53	340.07	0.17	-54.0	-56.5	3.5	0.00e+00	0	40	104	0	60	112572

#Closed at: 2026-01-03 10:44:57
#Recorded file [0 MB]: D:/lorett/data/35034_260103_133329.dat