passes_logs/2026/01/03/R4.6S_Anadyr_2ch/R4.6S_Anadyr_2ch__20260103_215226_2025-108B_rec.log

#Pass ID: 20260103_215226_2025-108B
#Satellite: 2025-108B
#Configuration: 3PB_600M
#almurnet v.1.7.20251203
#Start time: 2026-01-03 21:52:27

#Version: 2.2.20231116
#Station: R4.6S_Anadyr_2ch
#Location: 177.4865 lon 64.73178 lat
#TLE: 1 64088U 25108B   25351.01672131  .00008460  00000+0  43413-3 0  9994
#TLE: 2 64088  97.4940  63.8579 0011684 285.1423  74.8517 15.16717580 31720

#Time	Az	El	Level	Level2	SNR	BER	BlckErr	Temp	State	Recorded	gain1	gain2
2026-01-03 21:52:27.60	22.76	0.05	-54.1	-55.4	3.4	0.00e+00	0	34	0	0	60	99122
2026-01-03 21:52:30.63	23.03	0.21	-52.2	-55.1	3.6	0.00e+00	0	36	104	0	60	96049
2026-01-03 21:52:33.66	23.31	0.38	-53.1	-55.6	3.6	0.00e+00	0	36	104	0	60	101614
2026-01-03 21:52:36.69	23.58	0.54	-53.3	-55.8	3.6	0.00e+00	0	36	104	0	60	104732
2026-01-03 21:52:39.72	23.86	0.70	-52.9	-55.4	3.6	0.00e+00	0	36	104	0	60	99091
2026-01-03 21:52:42.75	24.15	0.87	-53.7	-56.2	3.6	0.00e+00	0	36	104	0	60	108769
2026-01-03 21:52:45.78	24.44	1.03	-53.7	-56.3	3.6	0.00e+00	0	37	104	0	60	109846
2026-01-03 21:52:48.81	24.73	1.20	-43.4	-43.7	5.4	0.00e+00	0	37	104	0	60	25913
2026-01-03 21:52:51.84	25.03	1.37	-44.9	-45.3	5.3	0.00e+00	0	37	104	0	60	31085
2026-01-03 21:52:54.87	25.33	1.54	-43.1	-43.3	5.5	0.00e+00	0	37	104	0	60	24834
2026-01-03 21:52:57.90	25.63	1.70	-46.1	-46.5	3.9	0.00e+00	0	37	104	0	60	35757
2026-01-03 21:53:00.93	25.94	1.87	-45.7	-46.2	4.6	0.00e+00	0	37	104	0	60	34482
2026-01-03 21:53:03.96	26.26	2.04	-44.2	-44.5	5.5	0.00e+00	0	37	104	0	60	28293
2026-01-03 21:53:06.99	26.58	2.21	-46.8	-47.4	4.6	0.00e+00	0	37	104	0	60	39502
2026-01-03 21:53:10.02	26.90	2.39	-47.6	-48.1	4.8	0.00e+00	0	37	104	0	60	42968
2026-01-03 21:53:13.05	27.23	2.56	-46.5	-47.0	4.7	0.00e+00	0	37	104	0	60	37984
2026-01-03 21:53:16.08	27.56	2.73	-46.4	-46.8	4.8	0.00e+00	0	37	104	0	60	36911
2026-01-03 21:53:19.11	27.89	2.90	-50.4	-51.5	4.3	0.00e+00	0	37	104	0	60	63735
2026-01-03 21:53:22.14	28.23	3.08	-47.9	-48.6	4.5	0.00e+00	0	38	104	0	60	45369
2026-01-03 21:53:25.17	28.58	3.25	-46.3	-46.9	4.8	0.00e+00	0	38	104	0	60	37484
2026-01-03 21:53:28.19	28.93	3.43	-45.2	-45.8	5.0	0.00e+00	0	38	104	0	60	32955
2026-01-03 21:53:31.22	29.29	3.61	-45.5	-46.0	5.0	0.00e+00	0	38	104	0	60	33817
2026-01-03 21:53:34.25	29.65	3.78	-45.4	-45.8	5.1	0.00e+00	0	38	104	0	60	33119
2026-01-03 21:53:37.28	30.02	3.96	-46.9	-47.4	5.2	0.00e+00	0	38	104	0	60	39800
2026-01-03 21:53:40.31	30.39	4.14	-46.8	-47.3	5.2	0.00e+00	0	38	104	0	60	39401
2026-01-03 21:53:43.34	30.77	4.32	-45.2	-45.6	5.2	0.00e+00	0	38	104	0	60	32234
2026-01-03 21:53:46.37	31.15	4.50	-45.7	-46.2	5.1	0.00e+00	0	38	104	0	60	34328
2026-01-03 21:53:49.18	31.51	4.67	-46.3	-46.9	4.9	0.00e+00	0	38	104	0	60	37605
2026-01-03 21:53:52.35	31.92	4.86	-47.8	-48.5	4.6	0.00e+00	0	38	104	0	60	44760
2026-01-03 21:53:55.23	32.30	5.03	-45.8	-46.2	5.0	0.00e+00	0	38	104	0	60	34709
2026-01-03 21:53:58.41	32.73	5.22	-43.6	-44.0	5.3	0.00e+00	0	38	104	0	60	26949
2026-01-03 21:54:01.29	33.12	5.40	-43.8	-44.2	5.1	0.00e+00	0	38	104	0	60	27288
2026-01-03 21:54:04.47	33.56	5.59	-46.0	-46.5	4.8	0.00e+00	0	38	104	0	60	35876
2026-01-03 21:54:07.35	33.97	5.76	-45.2	-45.6	5.0	0.00e+00	0	38	104	0	60	32279
2026-01-03 21:54:10.53	34.42	5.96	-43.8	-44.0	5.4	0.00e+00	0	38	104	0	60	26873
2026-01-03 21:54:13.41	34.84	6.14	-43.6	-44.0	5.4	0.00e+00	0	38	104	0	60	26733
2026-01-03 21:54:16.59	35.31	6.33	-44.0	-44.3	5.4	0.00e+00	0	38	104	0	60	27827
2026-01-03 21:54:19.47	35.74	6.51	-42.2	-42.4	5.5	0.00e+00	0	38	104	0	60	22220
2026-01-03 21:54:22.65	36.22	6.71	-42.3	-42.6	5.6	0.00e+00	0	38	104	0	60	22780
2026-01-03 21:54:25.54	36.67	6.88	-42.7	-43.0	5.5	0.00e+00	0	38	104	0	60	23819
2026-01-03 21:54:28.71	37.16	7.08	-42.6	-43.0	5.6	0.00e+00	0	38	104	0	60	23815
2026-01-03 21:54:31.60	37.62	7.26	-43.3	-43.6	5.5	0.00e+00	0	38	104	0	60	25519
2026-01-03 21:54:34.77	38.13	7.46	-42.9	-43.3	5.7	0.00e+00	0	38	104	0	60	24631
2026-01-03 21:54:37.66	38.61	7.64	-41.9	-42.3	5.7	0.00e+00	0	38	104	0	60	21955
2026-01-03 21:54:40.84	39.14	7.84	-41.6	-41.9	5.7	0.00e+00	0	38	104	0	60	21019
2026-01-03 21:54:43.73	39.63	8.02	-41.7	-42.0	5.7	0.00e+00	0	38	104	0	60	21244
2026-01-03 21:54:46.90	40.17	8.22	-41.3	-41.7	5.6	0.00e+00	0	38	104	0	60	20529
2026-01-03 21:54:49.79	40.68	8.40	-42.0	-42.2	5.6	0.00e+00	0	38	104	0	60	21763
2026-01-03 21:54:52.97	41.24	8.60	-41.0	-41.3	5.7	0.00e+00	0	38	104	0	60	19540
2026-01-03 21:54:55.86	41.76	8.78	-42.9	-43.3	5.6	0.00e+00	0	38	104	0	60	24708
2026-01-03 21:54:59.04	42.34	8.98	-43.3	-43.5	5.7	0.00e+00	0	38	104	0	60	25370
2026-01-03 21:55:01.92	42.88	9.16	-41.9	-42.1	5.6	0.00e+00	0	38	104	0	60	21645
2026-01-03 21:55:05.10	43.48	9.36	-42.3	-42.6	5.5	0.00e+00	0	38	104	0	60	22797
2026-01-03 21:55:07.99	44.03	9.54	-42.1	-42.4	5.5	0.00e+00	0	38	104	0	60	22226
2026-01-03 21:55:11.17	44.65	9.74	-42.6	-42.9	5.5	0.00e+00	0	38	104	0	60	23563
2026-01-03 21:55:14.05	45.22	9.92	-43.6	-44.0	5.4	0.00e+00	0	38	104	0	60	26820
2026-01-03 21:55:17.23	45.86	10.11	-42.9	-43.3	5.3	0.00e+00	0	38	104	0	60	24587
2026-01-03 21:55:20.12	46.45	10.29	-43.5	-43.8	5.3	0.00e+00	0	38	104	0	60	26256
2026-01-03 21:55:23.29	47.10	10.49	-43.5	-43.8	5.4	0.00e+00	0	39	104	0	60	26201
2026-01-03 21:55:26.18	47.71	10.66	-44.2	-44.5	5.3	0.00e+00	0	38	104	0	60	28471
2026-01-03 21:55:29.36	48.39	10.86	-43.7	-44.1	5.3	0.00e+00	0	38	104	0	60	26983
2026-01-03 21:55:32.25	49.02	11.03	-44.2	-44.5	5.1	0.00e+00	0	38	104	0	60	28421
2026-01-03 21:55:35.43	49.71	11.22	-44.9	-45.3	5.2	0.00e+00	0	38	104	0	60	31278
2026-01-03 21:55:38.32	50.36	11.40	-46.3	-46.8	5.1	0.00e+00	0	38	104	0	60	36954
2026-01-03 21:55:41.49	51.08	11.58	-46.9	-47.2	5.1	0.00e+00	0	38	104	0	60	38789
2026-01-03 21:55:44.38	51.74	11.75	-46.4	-46.9	5.0	0.00e+00	0	38	104	0	60	37359
2026-01-03 21:55:47.56	52.48	11.94	-45.9	-46.4	4.9	0.00e+00	0	38	104	0	60	35215
2026-01-03 21:55:50.45	53.16	12.11	-47.2	-47.8	4.7	0.00e+00	0	38	104	0	60	41545
2026-01-03 21:55:53.63	53.92	12.29	-47.4	-48.0	4.8	0.00e+00	0	38	104	0	60	42511
2026-01-03 21:55:56.51	54.62	12.45	-46.8	-47.4	4.6	0.00e+00	0	38	104	0	60	39530
2026-01-03 21:55:59.69	55.41	12.63	-47.7	-48.3	4.5	0.00e+00	0	39	104	0	60	44019
2026-01-03 21:56:02.58	56.13	12.78	-45.7	-46.2	5.0	0.00e+00	0	38	104	0	60	34525
2026-01-03 21:56:05.75	56.93	12.96	-44.7	-45.3	5.1	0.00e+00	0	38	104	0	60	31012
2026-01-03 21:56:08.64	57.67	13.11	-46.4	-46.8	4.9	0.00e+00	0	38	104	0	60	37054
2026-01-03 21:56:11.82	58.49	13.27	-46.3	-46.7	5.0	0.00e+00	0	39	104	0	60	36752
2026-01-03 21:56:14.71	59.25	13.42	-45.8	-46.3	4.8	0.00e+00	0	39	104	0	60	35033
2026-01-03 21:56:17.88	60.09	13.58	-46.2	-46.8	5.0	0.00e+00	0	38	104	0	60	36915
2026-01-03 21:56:20.77	60.87	13.72	-45.4	-45.9	4.9	0.00e+00	0	39	104	0	60	33379
2026-01-03 21:56:23.95	61.74	13.87	-45.4	-45.9	4.9	0.00e+00	0	39	104	0	60	33521
2026-01-03 21:56:26.83	62.53	14.00	-46.7	-47.2	4.8	0.00e+00	0	38	104	0	60	38865
2026-01-03 21:56:30.01	63.41	14.15	-47.4	-48.0	4.8	0.00e+00	0	39	104	0	60	42546
2026-01-03 21:56:32.90	64.23	14.27	-46.9	-47.5	4.8	0.00e+00	0	39	104	0	60	40183
2026-01-03 21:56:36.07	65.13	14.41	-47.1	-47.8	4.7	0.00e+00	0	39	104	0	60	41322
2026-01-03 21:56:38.96	65.96	14.52	-47.2	-47.8	4.6	0.00e+00	0	39	104	0	60	41656
2026-01-03 21:56:42.13	66.87	14.65	-47.0	-47.6	4.5	0.00e+00	0	39	104	0	60	40692
2026-01-03 21:56:45.02	67.72	14.76	-47.1	-47.9	4.5	0.00e+00	0	39	104	0	60	41985
2026-01-03 21:56:48.20	68.66	14.87	-45.6	-46.1	4.8	0.00e+00	0	39	104	0	60	34214
2026-01-03 21:56:51.09	69.52	14.97	-45.6	-46.1	4.8	0.00e+00	0	39	104	0	60	34161
2026-01-03 21:56:54.26	70.47	15.07	-46.8	-47.3	4.7	0.00e+00	0	39	104	0	60	39030
2026-01-03 21:56:57.15	71.34	15.16	-45.7	-46.2	4.8	0.00e+00	0	39	104	0	60	34693
2026-01-03 21:57:00.33	72.31	15.25	-45.7	-46.2	4.9	0.00e+00	0	39	104	0	60	34578
2026-01-03 21:57:03.22	73.19	15.33	-46.8	-47.3	4.8	0.00e+00	0	39	104	0	60	39026
2026-01-03 21:57:06.39	74.17	15.41	-46.6	-47.1	4.8	0.00e+00	0	39	104	0	60	38275
2026-01-03 21:57:09.28	75.06	15.47	-47.9	-48.5	4.7	0.00e+00	0	39	104	0	60	45093
2026-01-03 21:57:12.46	76.05	15.54	-49.0	-49.8	4.2	0.00e+00	0	39	104	0	60	52385
2026-01-03 21:57:15.35	76.96	15.59	-48.7	-49.4	4.4	0.00e+00	0	39	104	0	60	49958
2026-01-03 21:57:18.52	77.96	15.64	-48.6	-49.3	4.5	0.00e+00	0	39	104	0	60	49311
2026-01-03 21:57:21.41	78.87	15.68	-49.5	-50.5	4.3	0.00e+00	0	39	104	0	60	56426
2026-01-03 21:57:24.59	79.87	15.72	-49.6	-50.3	4.2	0.00e+00	0	39	104	0	60	55534
2026-01-03 21:57:27.47	80.79	15.75	-49.1	-49.8	4.2	0.00e+00	0	39	104	0	60	52303
2026-01-03 21:57:30.65	81.80	15.77	-50.1	-50.9	4.5	0.00e+00	0	39	104	0	60	59522
2026-01-03 21:57:33.54	82.72	15.79	-48.5	-49.2	4.3	0.00e+00	0	39	104	0	60	48651
2026-01-03 21:57:36.71	83.73	15.80	-48.2	-48.9	4.4	0.00e+00	0	39	104	0	60	47116
2026-01-03 21:57:39.60	84.65	15.80	-48.0	-48.7	4.4	0.00e+00	0	39	104	0	60	46077
2026-01-03 21:57:42.78	85.67	15.79	-48.1	-48.9	4.3	0.00e+00	0	39	104	0	60	47267
2026-01-03 21:57:45.66	86.59	15.78	-47.3	-47.9	4.5	0.00e+00	0	39	104	0	60	42210
2026-01-03 21:57:48.84	87.60	15.76	-48.3	-49.0	4.4	0.00e+00	0	39	104	0	60	47756
2026-01-03 21:57:51.73	88.52	15.74	-49.5	-50.4	4.4	0.00e+00	0	39	104	0	60	56054
2026-01-03 21:57:54.91	89.53	15.70	-47.2	-47.8	4.6	0.00e+00	0	39	104	0	60	41632
2026-01-03 21:57:57.80	90.44	15.67	-48.0	-49.0	4.3	0.00e+00	0	39	104	0	60	47439
2026-01-03 21:58:00.97	91.44	15.62	-49.6	-51.0	3.8	0.00e+00	0	39	104	0	60	59875
2026-01-03 21:58:03.86	92.35	15.57	-48.3	-49.3	4.0	0.00e+00	0	39	104	0	60	49305
2026-01-03 21:58:07.03	93.35	15.51	-49.8	-51.4	3.7	0.00e+00	0	39	104	0	60	62920
2026-01-03 21:58:09.91	94.24	15.45	-48.3	-49.9	3.6	0.00e+00	0	39	104	0	60	53132
2026-01-03 21:58:13.09	95.23	15.37	-49.8	-52.1	3.6	0.00e+00	0	39	104	0	60	68388
2026-01-03 21:58:15.97	96.12	15.30	-50.7	-53.1	3.6	0.00e+00	0	39	104	0	60	76245
2026-01-03 21:58:19.15	97.10	15.21	-49.9	-52.4	3.5	0.00e+00	0	39	104	0	60	70453
2026-01-03 21:58:22.03	97.97	15.12	-49.3	-51.8	3.6	0.00e+00	0	39	104	0	60	65506
2026-01-03 21:58:25.21	98.94	15.02	-49.5	-52.0	3.6	0.00e+00	0	39	104	0	60	67449
2026-01-03 21:58:28.09	99.80	14.93	-49.6	-52.1	3.6	0.00e+00	0	39	104	0	60	67930
2026-01-03 21:58:31.26	100.75	14.82	-49.6	-52.1	3.6	0.00e+00	0	39	104	0	60	68363
2026-01-03 21:58:34.15	101.60	14.71	-49.1	-51.6	3.6	0.00e+00	0	39	104	0	60	64340
2026-01-03 21:58:37.32	102.53	14.59	-48.9	-51.4	3.5	0.00e+00	0	39	104	0	60	63129
2026-01-03 21:58:40.20	103.37	14.47	-49.8	-52.2	3.6	0.00e+00	0	39	104	0	60	68981
2026-01-03 21:58:43.38	104.28	14.34	-49.4	-51.9	3.6	0.00e+00	0	39	104	0	60	66457
2026-01-03 21:58:46.26	105.10	14.22	-49.1	-51.5	3.6	0.00e+00	0	39	104	0	60	63604
2026-01-03 21:58:49.44	106.00	14.07	-49.7	-52.1	3.6	0.00e+00	0	39	104	0	60	68313
2026-01-03 21:58:52.32	106.80	13.94	-52.7	-55.2	3.6	0.00e+00	0	39	104	0	60	97194
2026-01-03 21:58:55.49	107.68	13.79	-53.0	-55.5	3.6	0.00e+00	0	39	104	0	60	100200
2026-01-03 21:58:58.38	108.47	13.65	-53.5	-56.1	3.6	0.00e+00	0	39	104	0	60	107497
2026-01-03 21:59:01.55	109.32	13.49	-53.7	-56.2	3.6	0.00e+00	0	39	104	0	60	109611
2026-01-03 21:59:04.44	110.09	13.35	-53.8	-56.2	3.6	0.00e+00	0	39	104	0	60	109186
2026-01-03 21:59:07.61	110.93	13.18	-54.2	-56.6	3.6	0.00e+00	0	39	104	0	60	114227
2026-01-03 21:59:10.50	111.68	13.03	-53.9	-56.4	3.6	0.00e+00	0	39	104	0	60	111897
2026-01-03 21:59:13.67	112.50	12.86	-54.4	-56.9	3.6	0.00e+00	0	39	104	0	60	118268
2026-01-03 21:59:16.56	113.23	12.70	-54.7	-57.3	3.6	0.00e+00	0	39	104	0	60	123977
2026-01-03 21:59:19.73	114.02	12.52	-53.9	-56.4	3.6	0.00e+00	0	39	104	0	60	111461
2026-01-03 21:59:22.62	114.74	12.36	-54.2	-56.8	3.6	0.00e+00	0	39	104	0	60	116394
2026-01-03 21:59:25.79	115.51	12.18	-53.7	-56.2	3.5	0.00e+00	0	39	104	0	60	109218
2026-01-03 21:59:28.68	116.20	12.01	-54.8	-57.3	3.6	0.00e+00	0	39	104	0	60	123728
2026-01-03 21:59:31.85	116.96	11.82	-54.1	-56.6	3.6	0.00e+00	0	39	104	0	60	114443
2026-01-03 21:59:34.73	117.63	11.65	-54.2	-56.7	3.6	0.00e+00	0	39	104	0	60	115515
2026-01-03 21:59:37.91	118.36	11.46	-53.8	-56.3	3.6	0.00e+00	0	39	104	0	60	110271
2026-01-03 21:59:40.80	119.02	11.29	-54.9	-57.4	3.6	0.00e+00	0	39	104	0	60	125455
2026-01-03 21:59:43.97	119.73	11.09	-53.8	-56.3	3.6	0.00e+00	0	39	104	0	60	110087
2026-01-03 21:59:46.85	120.36	10.92	-54.4	-56.9	3.6	0.00e+00	0	39	104	0	60	118000
2026-01-03 21:59:50.03	121.06	10.72	-54.2	-56.7	3.6	0.00e+00	0	39	104	0	60	115187
2026-01-03 21:59:52.92	121.67	10.54	-53.7	-56.2	3.6	0.00e+00	0	39	104	0	60	109598
2026-01-03 21:59:56.10	122.35	10.35	-54.1	-56.6	3.6	0.00e+00	0	39	104	0	60	114161
2026-01-03 21:59:58.98	122.94	10.17	-53.2	-55.7	3.6	0.00e+00	0	39	104	0	60	102765
2026-01-03 22:00:02.16	123.59	9.97	-54.5	-57.0	3.6	0.00e+00	0	39	104	0	60	120006
2026-01-03 22:00:05.04	124.17	9.78	-54.4	-56.9	3.6	0.00e+00	0	39	104	0	60	118477
2026-01-03 22:00:08.22	124.81	9.58	-54.1	-56.5	3.6	0.00e+00	0	39	104	0	60	113421
2026-01-03 22:00:11.10	125.37	9.40	-54.4	-56.9	3.6	0.00e+00	0	39	104	0	60	117859
2026-01-03 22:00:14.28	125.98	9.20	-54.8	-57.2	3.6	0.00e+00	0	39	104	0	60	122678
2026-01-03 22:00:17.16	126.53	9.02	-54.2	-56.6	3.6	0.00e+00	0	39	104	0	60	114637
2026-01-03 22:00:20.33	127.12	8.82	-53.7	-56.2	3.6	0.00e+00	0	39	104	0	60	109530
2026-01-03 22:00:23.22	127.65	8.63	-53.4	-55.9	3.6	0.00e+00	0	39	104	0	60	105281
2026-01-03 22:00:26.39	128.22	8.43	-53.4	-56.0	3.6	0.00e+00	0	39	104	0	60	106161
2026-01-03 22:00:29.27	128.73	8.25	-53.6	-56.1	3.6	0.00e+00	0	39	104	0	60	107869
2026-01-03 22:00:32.45	129.29	8.04	-53.6	-56.0	3.6	0.00e+00	0	39	104	0	60	107036
2026-01-03 22:00:35.33	129.79	7.86	-54.0	-56.5	3.6	0.00e+00	0	39	104	0	60	112533
2026-01-03 22:00:38.50	130.33	7.66	-53.3	-55.8	3.6	0.00e+00	0	39	104	0	60	103938
2026-01-03 22:00:41.39	130.81	7.48	-54.3	-56.7	3.6	0.00e+00	0	39	104	0	60	115900
2026-01-03 22:00:44.56	131.33	7.28	-54.2	-56.7	3.6	0.00e+00	0	39	104	0	60	115468
2026-01-03 22:00:47.45	131.80	7.09	-54.2	-56.7	3.6	0.00e+00	0	39	104	0	60	115184
2026-01-03 22:00:50.63	132.31	6.89	-54.0	-56.4	3.6	0.00e+00	0	39	104	0	60	112330
2026-01-03 22:00:53.51	132.76	6.71	-53.7	-56.2	3.6	0.00e+00	0	39	104	0	60	108694
2026-01-03 22:00:56.69	133.25	6.51	-54.2	-56.7	3.6	0.00e+00	0	39	104	0	60	115044
2026-01-03 22:00:59.57	133.69	6.33	-55.1	-57.6	3.6	0.00e+00	0	39	104	0	60	128813
2026-01-03 22:01:02.75	134.16	6.13	-53.6	-56.1	3.6	0.00e+00	0	39	104	0	60	107579
2026-01-03 22:01:05.63	134.59	5.95	-54.3	-56.8	3.6	0.00e+00	0	39	104	0	60	116393
2026-01-03 22:01:08.80	135.05	5.76	-53.8	-56.3	3.6	0.00e+00	0	39	104	0	60	110517
2026-01-03 22:01:11.69	135.46	5.58	-53.3	-55.7	3.6	0.00e+00	0	39	104	0	60	103541
2026-01-03 22:01:14.87	135.91	5.38	-54.4	-56.9	3.6	0.00e+00	0	39	104	0	60	118940
2026-01-03 22:01:17.75	136.31	5.20	-53.8	-56.3	3.6	0.00e+00	0	39	104	0	60	109809
2026-01-03 22:01:20.93	136.74	5.01	-54.3	-56.7	3.6	0.00e+00	0	39	104	0	60	115890
2026-01-03 22:01:23.82	137.13	4.83	-54.8	-57.4	3.6	0.00e+00	0	39	104	0	60	125837
2026-01-03 22:01:26.99	137.55	4.64	-54.5	-56.9	3.6	0.00e+00	0	39	104	0	60	118272
2026-01-03 22:01:29.88	137.93	4.46	-54.4	-56.9	3.6	0.00e+00	0	39	104	0	60	118354
2026-01-03 22:01:33.06	138.34	4.27	-53.4	-55.9	3.6	0.00e+00	0	39	104	0	60	104946
2026-01-03 22:01:35.94	138.70	4.10	-53.1	-55.6	3.6	0.00e+00	0	39	104	0	60	101986
2026-01-03 22:01:39.12	139.10	3.91	-53.4	-55.8	3.5	0.00e+00	0	39	104	0	60	104434
2026-01-03 22:01:42.01	139.46	3.74	-54.6	-57.0	3.6	0.00e+00	0	39	104	0	60	120246
2026-01-03 22:01:45.19	139.84	3.55	-54.8	-57.2	3.6	0.00e+00	0	39	104	0	60	121782
2026-01-03 22:01:48.08	140.19	3.38	-54.5	-56.9	3.6	0.00e+00	0	39	104	0	60	118747
2026-01-03 22:01:51.25	140.56	3.19	-55.0	-57.6	3.6	0.00e+00	0	39	104	0	60	127748
2026-01-03 22:01:54.14	140.89	3.02	-53.8	-56.3	3.6	0.00e+00	0	39	104	0	60	109934
2026-01-03 22:01:57.32	141.26	2.83	-53.3	-55.8	3.6	0.00e+00	0	39	104	0	60	103833
2026-01-03 22:02:00.20	141.58	2.67	-54.5	-57.0	3.6	0.00e+00	0	39	104	0	60	119374
2026-01-03 22:02:03.38	141.93	2.48	-53.6	-56.1	3.6	0.00e+00	0	39	104	0	60	108188
2026-01-03 22:02:06.27	142.25	2.31	-53.5	-56.1	3.6	0.00e+00	0	39	104	0	60	107573
2026-01-03 22:02:09.45	142.59	2.13	-53.5	-55.9	3.6	0.00e+00	0	39	104	0	60	105945
2026-01-03 22:02:12.33	142.90	1.97	-53.4	-55.9	3.6	0.00e+00	0	39	104	0	60	104894
2026-01-03 22:02:15.51	143.23	1.79	-54.7	-57.1	3.6	0.00e+00	0	39	104	0	60	121231
2026-01-03 22:02:18.40	143.53	1.62	-55.0	-57.5	3.6	0.00e+00	0	39	104	0	60	126369
2026-01-03 22:02:21.57	143.85	1.44	-54.9	-57.5	3.6	0.00e+00	0	39	104	0	60	126262
2026-01-03 22:02:24.46	144.14	1.28	-54.8	-57.2	3.6	0.00e+00	0	39	104	0	60	122726
2026-01-03 22:02:27.64	144.45	1.10	-54.4	-56.9	3.6	0.00e+00	0	39	104	0	60	117963
2026-01-03 22:02:30.52	144.74	0.94	-54.4	-56.9	3.6	0.00e+00	0	39	104	0	60	118530
2026-01-03 22:02:33.70	145.04	0.77	-54.8	-57.2	3.6	0.00e+00	0	39	104	0	60	123170
2026-01-03 22:02:36.59	145.32	0.61	-54.9	-57.5	3.6	0.00e+00	0	39	104	0	60	126144
2026-01-03 22:02:39.76	145.61	0.43	-53.7	-56.1	3.6	0.00e+00	0	39	104	0	60	108466
2026-01-03 22:02:42.65	145.88	0.27	-53.2	-55.8	3.6	0.00e+00	0	39	104	0	60	103816
2026-01-03 22:02:45.83	146.17	0.10	-53.4	-55.8	3.6	0.00e+00	0	39	104	0	60	104592

#Closed at: 2026-01-03 22:02:48
#Recorded file [0 MB]: D:/lorett/data/35034_260104_005227.dat