passes_logs/2026/01/29/R2M6_AANII_01/R2M6_AANII_01__20260129_015312_SUOMI_NPP_rec.log

#Pass ID: 20260129_015312_SUOMI NPP
#Satellite: SUOMI NPP
#Configuration: NPP
#almurnet v.1.7.20240730
#Start time: 2026-01-29 01:53:14

#Version: 2.2.20231116
#Station: R2M6_AANII_01
#Location: 30.233357 lon 59.946436 lat
#TLE: 1 37849U 11061A   26027.86188320  .00000172  00000+0  10275-3 0  9990
#TLE: 2 37849  98.7823 329.8005 0002088  41.4184 318.7150 14.19530883738530

#Time	Az	El	Level	Level2	SNR	BER	BlckErr	Temp	State	Recorded	gain1	gain2
2026-01-29 01:53:14.14	11.84	7.12	-32.1	-39.5	4.2	1.43e+00	0	41	0	0	24	8377
2026-01-29 01:53:17.14	11.63	7.33	-32.1	-38.9	5.4	5.16e-01	0	41	0	1048576	24	7881
2026-01-29 01:53:20.15	11.41	7.54	-32.3	-40.3	4.7	7.67e-01	0	41	0	7340032	24	9072
2026-01-29 01:53:23.16	11.19	7.75	-32.0	-38.2	6.2	3.68e-01	0	42	0	12582912	23	7408
2026-01-29 01:53:26.18	10.97	7.97	-31.4	-36.0	8.2	7.22e-02	0	42	0	17825792	22	6104
2026-01-29 01:53:29.19	10.74	8.18	-30.9	-34.4	9.8	1.00e-02	0	41	0	24117248	21	5404
2026-01-29 01:53:32.20	10.51	8.40	-30.7	-33.7	10.4	4.14e-03	0	42	0	29360128	21	5099
2026-01-29 01:53:35.21	10.27	8.62	-30.3	-33.1	11.3	3.89e-03	0	42	0	35651584	20	4933
2026-01-29 01:53:38.22	10.03	8.84	-30.4	-33.1	11.2	3.71e-03	0	42	0	40894464	20	4962
2026-01-29 01:53:41.23	9.79	9.06	-30.4	-33.2	11.3	3.59e-03	0	42	0	46137344	20	4967
2026-01-29 01:53:44.24	9.54	9.28	-30.2	-32.7	11.6	3.03e-03	0	42	0	52428800	20	4799
2026-01-29 01:53:47.24	9.29	9.50	-30.2	-32.6	11.7	2.73e-03	0	42	0	57671680	20	4762
2026-01-29 01:53:50.26	9.04	9.73	-30.2	-32.5	11.8	4.22e-04	0	42	0	63963136	20	4716
2026-01-29 01:53:53.26	8.78	9.95	-30.3	-32.8	11.6	2.77e-03	0	42	0	69206016	20	4812
2026-01-29 01:53:56.27	8.52	10.18	-30.2	-32.5	11.8	2.56e-03	0	42	0	74448896	20	4692
2026-01-29 01:53:59.28	8.25	10.41	-30.2	-32.7	11.8	3.11e-03	0	42	0	80740352	20	4761
2026-01-29 01:54:02.30	7.98	10.64	-30.4	-33.1	11.5	2.93e-03	0	42	0	85983232	20	4907
2026-01-29 01:54:05.31	7.70	10.88	-30.3	-32.7	11.7	3.00e-03	0	42	0	91226112	20	4767
2026-01-29 01:54:08.31	7.42	11.11	-30.3	-32.7	11.7	3.08e-03	0	42	0	97517568	20	4771
2026-01-29 01:54:11.32	7.14	11.34	-30.2	-32.4	11.9	4.28e-04	0	42	0	102760448	20	4653
2026-01-29 01:54:14.32	6.85	11.58	-30.2	-32.4	12.0	2.27e-03	0	42	0	109051904	20	4649
2026-01-29 01:54:17.32	6.55	11.82	-30.2	-32.6	11.9	2.58e-03	0	42	0	114294784	20	4724
2026-01-29 01:54:20.32	6.26	12.06	-30.1	-32.1	12.2	2.54e-03	0	43	0	119537664	20	4561
2026-01-29 01:54:23.34	5.95	12.30	-30.3	-32.9	11.6	2.87e-03	0	43	0	125829120	20	4821
2026-01-29 01:54:26.36	5.64	12.55	-30.4	-33.0	11.6	5.49e-04	0	43	0	131072000	20	4866
2026-01-29 01:54:29.37	5.32	12.79	-29.9	-31.5	12.7	1.38e-04	0	43	0	136314880	20	4336
2026-01-29 01:54:32.38	5.00	13.04	-30.1	-32.1	12.3	3.17e-04	0	43	0	142606336	20	4541
2026-01-29 01:54:35.38	4.67	13.28	-29.9	-31.6	12.7	8.23e-05	0	42	0	147849216	20	4356
2026-01-29 01:54:38.39	4.34	13.53	-30.0	-31.9	12.5	1.04e-04	0	43	0	154140672	20	4447
2026-01-29 01:54:41.40	4.00	13.79	-30.0	-31.9	12.6	2.21e-03	0	43	0	159383552	20	4457
2026-01-29 01:54:44.41	3.66	14.04	-30.0	-31.8	12.6	1.19e-04	0	43	0	164626432	20	4420
2026-01-29 01:54:47.42	3.31	14.29	-29.9	-32.0	12.9	4.04e-05	0	43	0	170917888	19	4572
2026-01-29 01:54:50.44	2.95	14.55	-30.3	-32.5	12.1	3.25e-04	0	43	0	176160768	20	4678
2026-01-29 01:54:53.44	2.59	14.81	-29.9	-31.5	12.8	5.79e-05	0	43	0	182452224	20	4321
2026-01-29 01:54:56.45	2.22	15.07	-29.9	-31.5	12.8	5.95e-05	0	43	0	187695104	20	4341
2026-01-29 01:54:59.45	1.84	15.33	-29.9	-31.6	12.7	9.07e-05	0	43	0	192937984	20	4372
2026-01-29 01:55:02.47	1.46	15.59	-30.1	-32.1	11.7	1.23e-04	0	43	0	199229440	20	4534
2026-01-29 01:55:05.48	1.07	15.85	-30.0	-31.7	12.1	8.62e-05	0	43	0	204472320	20	4387
2026-01-29 01:55:08.49	0.67	16.12	-30.0	-32.0	12.9	2.84e-04	0	43	0	209715200	19	4573
2026-01-29 01:55:11.49	0.27	16.39	-29.8	-31.6	13.3	1.13e-04	0	43	0	216006656	19	4432
2026-01-29 01:55:14.50	359.85	16.65	-30.2	-32.1	12.6	4.02e-04	0	43	0	221249536	20	4507
2026-01-29 01:55:17.50	359.44	16.92	-30.3	-32.6	12.2	2.50e-04	0	43	0	227540992	20	4692
2026-01-29 01:55:20.52	359.01	17.19	-30.7	-33.1	11.5	4.54e-04	0	43	0	232783872	21	4770
2026-01-29 01:55:23.53	358.57	17.47	-30.9	-33.9	11.0	3.98e-03	0	43	0	238026752	21	5084
2026-01-29 01:55:26.54	358.13	17.74	-30.8	-33.6	11.2	4.20e-03	0	43	0	244318208	21	4959
2026-01-29 01:55:29.55	357.67	18.01	-30.4	-33.0	12.0	2.70e-03	0	43	0	249561088	20	4820
2026-01-29 01:55:32.57	357.21	18.29	-30.0	-31.8	12.7	2.13e-03	0	43	0	254803968	20	4426
2026-01-29 01:55:35.56	356.75	18.57	-29.9	-31.8	13.1	4.36e-04	0	43	0	261095424	19	4492
2026-01-29 01:55:38.56	356.27	18.84	-29.9	-31.6	13.0	3.43e-05	0	43	0	266338304	20	4364
2026-01-29 01:55:41.57	355.78	19.12	-30.3	-32.4	12.3	1.68e-03	0	43	0	272629760	20	4617
2026-01-29 01:55:44.59	355.29	19.40	-30.1	-32.0	12.7	1.58e-03	0	43	0	277872640	20	4464
2026-01-29 01:55:47.60	354.78	19.68	-29.8	-31.6	13.4	1.01e-03	0	43	0	283115520	19	4423
2026-01-29 01:55:50.62	354.26	19.97	-30.2	-32.2	12.7	8.79e-04	0	43	0	289406976	20	4516
2026-01-29 01:55:53.64	353.74	20.25	-30.3	-32.6	11.9	1.04e-03	0	43	0	294649856	20	4662
2026-01-29 01:55:56.65	353.20	20.53	-30.5	-32.4	12.1	4.32e-04	0	43	0	300941312	21	4499
2026-01-29 01:55:59.66	352.66	20.82	-30.3	-32.4	12.4	5.02e-04	0	43	0	306184192	20	4586
2026-01-29 01:56:02.68	352.10	21.10	-30.4	-32.9	12.1	1.10e-03	0	43	0	311427072	20	4766
2026-01-29 01:56:05.69	351.53	21.39	-29.6	-31.1	13.6	3.15e-04	0	43	0	317718528	19	4271
2026-01-29 01:56:08.71	350.96	21.67	-29.5	-30.7	13.9	4.27e-04	0	43	0	322961408	19	4125
2026-01-29 01:56:11.71	350.37	21.95	-29.8	-31.5	13.5	1.03e-03	0	43	0	329252864	19	4373
2026-01-29 01:56:14.72	349.77	22.24	-30.0	-31.6	13.1	1.06e-04	0	43	0	334495744	20	4321
2026-01-29 01:56:17.73	349.16	22.52	-29.8	-31.0	13.5	1.75e-05	0	43	0	339738624	20	4121
2026-01-29 01:56:20.74	348.54	22.81	-29.7	-31.3	13.7	5.30e-06	0	43	0	346030080	19	4290
2026-01-29 01:56:23.75	347.91	23.09	-30.1	-32.0	12.8	2.36e-05	0	43	0	351272960	20	4433
2026-01-29 01:56:26.76	347.26	23.37	-29.8	-30.9	13.5	1.37e-05	0	43	0	356515840	20	4109
2026-01-29 01:56:29.77	346.61	23.65	-30.0	-31.6	13.1	3.66e-05	0	43	0	362807296	20	4325
2026-01-29 01:56:32.78	345.94	23.93	-30.4	-32.3	12.3	1.08e-04	0	43	0	368050176	21	4455
2026-01-29 01:56:35.80	345.26	24.21	-30.2	-32.2	12.7	9.30e-05	0	44	0	374341632	20	4523
2026-01-29 01:56:38.81	344.56	24.49	-30.4	-32.0	12.5	1.17e-04	0	44	0	379584512	21	4355
2026-01-29 01:56:41.82	343.86	24.76	-30.3	-32.2	12.7	8.69e-05	0	43	0	384827392	20	4520
2026-01-29 01:56:44.82	343.14	25.04	-30.0	-31.5	13.2	2.76e-04	0	43	0	391118848	20	4268
2026-01-29 01:56:47.83	342.41	25.31	-29.7	-31.1	13.9	3.00e-06	0	43	0	396361728	19	4243
2026-01-29 01:56:50.84	341.67	25.58	-29.4	-30.4	14.2	2.20e-06	0	43	0	402653184	19	4052
2026-01-29 01:56:53.85	340.91	25.84	-29.0	-29.8	14.9	0.00e+00	0	43	0	407896064	18	3969
2026-01-29 01:56:56.86	340.15	26.11	-29.2	-30.4	14.6	3.56e-04	0	43	0	413138944	18	4150
2026-01-29 01:56:59.87	339.36	26.37	-30.1	-31.8	13.0	1.01e-03	0	43	0	419430400	20	4384
2026-01-29 01:57:02.88	338.57	26.62	-30.2	-32.3	12.7	1.74e-03	0	43	0	424673280	20	4553
2026-01-29 01:57:05.88	337.76	26.87	-30.1	-31.9	13.0	7.70e-05	0	43	0	429916160	20	4406
2026-01-29 01:57:08.89	336.94	27.12	-30.1	-31.9	13.0	3.05e-05	0	43	0	436207616	20	4428
2026-01-29 01:57:11.90	336.11	27.37	-30.2	-32.2	12.7	1.15e-04	0	43	0	441450496	20	4502
2026-01-29 01:57:14.91	335.26	27.61	-30.0	-31.7	13.1	2.51e-05	0	43	0	447741952	20	4339
2026-01-29 01:57:17.92	334.40	27.84	-30.1	-31.8	12.9	6.02e-05	0	43	0	452984832	20	4398
2026-01-29 01:57:20.93	333.53	28.07	-30.2	-32.3	12.7	7.47e-05	0	43	0	458227712	20	4552
2026-01-29 01:57:23.95	332.64	28.29	-30.8	-33.3	11.5	4.68e-04	0	43	0	464519168	21	4835
2026-01-29 01:57:26.96	331.75	28.51	-31.1	-33.7	11.0	2.05e-03	0	44	0	469762048	22	4885
2026-01-29 01:57:29.97	330.84	28.72	-30.5	-31.9	12.3	5.22e-04	0	44	0	475004928	22	4221
2026-01-29 01:57:32.99	329.91	28.93	-30.1	-31.8	13.0	2.70e-04	0	43	0	481296384	20	4388
2026-01-29 01:57:35.99	328.98	29.13	-30.1	-32.0	12.9	2.17e-04	0	43	0	486539264	20	4444
2026-01-29 01:57:38.99	328.04	29.32	-30.8	-33.5	11.6	5.48e-04	0	43	0	492830720	21	4892
2026-01-29 01:57:42.01	327.08	29.50	-31.2	-34.1	10.8	1.62e-03	0	44	0	498073600	22	5030
2026-01-29 01:57:45.02	326.12	29.67	-30.4	-32.2	12.4	1.85e-04	0	43	0	503316480	21	4424
2026-01-29 01:57:48.02	325.15	29.84	-30.5	-32.4	12.2	1.19e-04	0	44	0	509607936	21	4492
2026-01-29 01:57:51.03	324.16	30.00	-29.9	-31.4	13.4	1.24e-04	0	44	0	514850816	20	4254
2026-01-29 01:57:54.04	323.16	30.15	-29.8	-31.6	13.5	6.10e-06	0	43	0	520093696	19	4397
2026-01-29 01:57:57.05	322.16	30.29	-30.1	-31.7	13.0	3.50e-05	0	43	0	526385152	20	4371
2026-01-29 01:58:00.06	321.14	30.42	-29.7	-30.6	13.9	1.37e-05	0	43	0	531628032	20	4010
2026-01-29 01:58:03.07	320.12	30.54	-29.6	-30.8	14.1	1.50e-06	0	44	0	537919488	19	4150
2026-01-29 01:58:06.07	319.09	30.65	-30.3	-32.4	12.7	4.50e-05	0	43	0	543162368	20	4572
2026-01-29 01:58:09.09	318.05	30.75	-31.2	-34.0	10.9	2.12e-03	0	43	0	548405248	22	4999
2026-01-29 01:58:12.10	317.01	30.84	-30.7	-32.6	11.8	4.78e-04	0	44	0	554696704	22	4474
2026-01-29 01:58:15.10	315.97	30.93	-30.7	-33.0	11.9	3.49e-04	0	43	0	559939584	21	4721
2026-01-29 01:58:18.12	314.91	31.00	-30.1	-31.4	12.9	1.52e-04	0	44	0	566231040	21	4162
2026-01-29 01:58:21.12	313.86	31.05	-29.4	-30.4	14.4	7.00e-07	0	44	0	571473920	19	4037
2026-01-29 01:58:24.13	312.80	31.10	-30.4	-32.8	12.3	4.95e-05	0	44	0	576716800	20	4713
2026-01-29 01:58:27.13	311.73	31.14	-30.2	-31.5	12.9	2.04e-04	0	43	0	583008256	21	4194
2026-01-29 01:58:30.14	310.67	31.17	-30.3	-32.3	12.7	3.58e-05	0	43	0	588251136	20	4545
2026-01-29 01:58:33.17	309.59	31.18	-31.0	-33.6	11.2	1.44e-03	0	44	0	593494016	22	4831
2026-01-29 01:58:36.17	308.53	31.18	-30.7	-33.0	11.9	4.73e-04	0	44	0	599785472	21	4714
2026-01-29 01:58:39.18	307.46	31.18	-30.7	-33.0	11.9	2.25e-03	0	44	0	605028352	21	4698
2026-01-29 01:58:42.19	306.39	31.16	-30.8	-33.4	11.6	2.74e-03	0	44	0	611319808	21	4844
2026-01-29 01:58:45.20	305.33	31.13	-30.5	-32.5	12.3	1.65e-04	0	44	0	616562688	21	4509
2026-01-29 01:58:48.22	304.26	31.09	-30.0	-31.3	13.4	2.28e-05	0	43	0	621805568	20	4225
2026-01-29 01:58:51.24	303.20	31.03	-30.9	-33.5	11.7	2.52e-04	0	44	0	628097024	21	4862
2026-01-29 01:58:54.25	302.14	30.97	-31.0	-33.5	11.3	4.18e-03	0	44	0	633339904	22	4767
2026-01-29 01:58:57.26	301.09	30.90	-31.0	-33.4	11.3	3.27e-03	0	43	0	639631360	22	4748
2026-01-29 01:59:00.27	300.04	30.81	-30.6	-32.7	12.2	1.53e-03	0	44	0	644874240	21	4569
2026-01-29 01:59:03.27	299.00	30.72	-30.3	-32.3	12.7	1.67e-03	0	44	0	650117120	20	4532
2026-01-29 01:59:06.29	297.96	30.61	-30.5	-32.8	12.4	1.29e-03	0	44	0	656408576	20	4733
2026-01-29 01:59:09.29	296.94	30.50	-31.0	-33.9	11.2	2.81e-03	0	44	0	661651456	21	5044
2026-01-29 01:59:12.31	295.91	30.37	-29.3	-30.2	14.3	2.17e-03	0	44	0	666894336	19	3995
2026-01-29 01:59:15.31	294.91	30.24	-29.5	-30.6	14.1	1.59e-03	0	44	0	673185792	19	4118
2026-01-29 01:59:18.33	293.90	30.09	-29.8	-31.5	13.6	1.41e-03	0	44	0	678428672	19	4371
2026-01-29 01:59:21.34	292.90	29.94	-30.1	-31.9	12.9	1.73e-03	0	44	0	684720128	20	4437
2026-01-29 01:59:24.34	291.92	29.78	-29.9	-31.3	13.3	1.72e-03	0	44	0	689963008	20	4234
2026-01-29 01:59:27.36	290.94	29.61	-30.4	-32.4	12.8	2.28e-03	0	44	0	695205888	20	4555
2026-01-29 01:59:30.38	289.98	29.43	-29.8	-30.9	13.7	1.47e-04	0	43	0	701497344	20	4066
2026-01-29 01:59:33.38	289.03	29.25	-30.2	-32.0	13.0	7.70e-05	0	43	0	706740224	20	4427
2026-01-29 01:59:36.38	288.09	29.05	-30.7	-32.9	12.0	3.76e-04	0	43	0	711983104	21	4620
2026-01-29 01:59:39.39	287.16	28.85	-30.8	-33.1	11.9	5.72e-04	0	43	0	718274560	21	4702
2026-01-29 01:59:42.40	286.24	28.64	-31.2	-33.8	11.1	2.48e-03	0	44	0	723517440	22	4878
2026-01-29 01:59:45.41	285.33	28.43	-31.1	-33.5	11.3	9.12e-04	0	44	0	729808896	22	4763
2026-01-29 01:59:48.43	284.43	28.21	-31.3	-34.2	10.7	3.99e-03	0	44	0	735051776	22	5035
2026-01-29 01:59:51.43	283.55	27.98	-31.3	-34.2	10.8	1.88e-03	0	43	0	740294656	22	5061
2026-01-29 01:59:54.43	282.69	27.75	-31.0	-33.3	11.4	7.71e-04	0	44	0	746586112	22	4685
2026-01-29 01:59:57.45	281.83	27.52	-29.9	-30.6	13.5	4.42e-05	0	43	0	751828992	21	3911
2026-01-29 02:00:00.45	280.99	27.27	-29.1	-29.9	14.9	0.00e+00	0	44	0	758120448	18	3980
2026-01-29 02:00:03.46	280.15	27.03	-29.3	-30.0	14.6	7.00e-07	0	43	0	763363328	19	3895
2026-01-29 02:00:06.47	279.34	26.78	-29.5	-30.6	14.2	6.56e-05	0	44	0	768606208	19	4084
2026-01-29 02:00:09.48	278.53	26.52	-30.1	-31.6	13.1	3.92e-04	0	44	0	774897664	20	4294
2026-01-29 02:00:12.48	277.74	26.26	-30.0	-31.4	13.3	1.98e-04	0	43	0	780140544	20	4249
2026-01-29 02:00:15.51	276.96	26.00	-31.2	-33.9	11.0	1.17e-03	0	44	0	785383424	22	4944
2026-01-29 02:00:18.52	276.19	25.74	-30.7	-33.0	11.9	9.36e-04	0	43	0	791674880	21	4673
2026-01-29 02:00:21.53	275.44	25.47	-29.3	-29.6	14.4	1.50e-06	0	44	0	796917760	20	3727
2026-01-29 02:00:24.53	274.70	25.20	-29.2	-30.3	14.6	0.00e+00	0	43	0	803209216	18	4103
2026-01-29 02:00:27.54	273.97	24.93	-28.7	-29.6	15.3	0.00e+00	0	44	0	808452096	17	4001
2026-01-29 02:00:30.55	273.25	24.65	-28.8	-29.8	15.2	0.00e+00	0	43	0	813694976	17	4052
2026-01-29 02:00:33.57	272.55	24.37	-28.7	-29.6	15.3	0.00e+00	0	44	0	819986432	17	3994
2026-01-29 02:00:36.58	271.86	24.09	-28.4	-29.4	15.7	0.00e+00	0	44	0	825229312	16	4024
2026-01-29 02:00:39.58	271.18	23.81	-28.7	-29.7	15.3	0.00e+00	0	44	0	830472192	17	4023
2026-01-29 02:00:42.59	270.51	23.53	-29.2	-30.4	14.2	1.50e-06	0	44	0	836763648	18	4131
2026-01-29 02:00:45.60	269.86	23.25	-29.8	-31.3	13.5	5.78e-04	0	44	0	842006528	19	4317
2026-01-29 02:00:48.61	269.22	22.97	-29.3	-30.6	14.4	3.55e-04	0	44	0	848297984	18	4189
2026-01-29 02:00:51.62	268.59	22.68	-29.0	-29.9	14.8	3.33e-04	0	43	0	853540864	18	3997
2026-01-29 02:00:54.63	267.97	22.40	-28.4	-29.4	15.6	3.50e-03	0	43	0	858783744	16	4053
2026-01-29 02:00:57.63	267.36	22.11	-27.8	-28.6	16.3	3.77e-03	0	43	0	865075200	15	3928
2026-01-29 02:01:00.64	266.76	21.83	-28.3	-29.1	15.8	2.33e-03	0	43	0	870318080	16	3960
2026-01-29 02:01:03.66	266.18	21.54	-28.6	-29.4	15.3	2.25e-03	0	44	0	876609536	17	3946
2026-01-29 02:01:06.67	265.60	21.26	-28.4	-29.3	15.6	2.45e-03	0	43	0	881852416	16	4030
2026-01-29 02:01:09.68	265.04	20.97	-28.6	-29.4	15.3	2.47e-03	0	43	0	887095296	17	3935
2026-01-29 02:01:12.69	264.48	20.69	-28.5	-29.3	15.3	3.29e-03	0	44	0	893386752	17	3922
2026-01-29 02:01:15.70	263.94	20.40	-28.8	-29.9	15.0	1.18e-03	0	43	0	898629632	17	4085
2026-01-29 02:01:18.72	263.40	20.12	-28.6	-29.4	15.3	3.97e-04	0	43	0	903872512	17	3955
2026-01-29 02:01:21.73	262.88	19.84	-28.3	-29.1	15.8	3.80e-06	0	43	0	910163968	16	3951
2026-01-29 02:01:24.74	262.36	19.55	-28.4	-29.5	15.5	1.72e-04	0	43	0	915406848	16	4087
2026-01-29 02:01:27.74	261.86	19.27	-29.2	-30.5	14.3	1.50e-06	0	44	0	921698304	18	4162
2026-01-29 02:01:30.75	261.37	18.99	-29.3	-30.6	14.2	7.08e-04	0	44	0	926941184	18	4210
2026-01-29 02:01:33.77	260.88	18.71	-29.3	-30.6	14.2	4.73e-04	0	44	0	932184064	18	4209
2026-01-29 02:01:36.79	260.40	18.43	-28.6	-29.4	15.2	0.00e+00	0	44	0	938475520	17	3964
2026-01-29 02:01:39.80	259.93	18.15	-28.8	-29.9	14.9	0.00e+00	0	44	0	943718400	17	4112
2026-01-29 02:01:42.81	259.47	17.88	-29.4	-31.0	13.9	2.20e-06	0	43	0	950009856	18	4323
2026-01-29 02:01:45.82	259.02	17.60	-29.9	-32.0	12.9	2.51e-05	0	44	0	955252736	19	4558
2026-01-29 02:01:48.83	258.58	17.33	-29.7	-31.4	13.3	1.83e-05	0	43	0	960495616	19	4360
2026-01-29 02:01:51.85	258.14	17.06	-29.4	-30.4	13.9	5.30e-06	0	43	0	966787072	19	4071
2026-01-29 02:01:54.87	257.71	16.78	-29.8	-31.5	13.2	1.22e-05	0	44	0	972029952	19	4397
2026-01-29 02:01:57.88	257.29	16.51	-30.0	-31.7	12.7	2.24e-04	0	43	0	977272832	20	4394
2026-01-29 02:02:00.88	256.88	16.25	-30.3	-32.5	12.1	2.33e-04	0	44	0	983564288	20	4669
2026-01-29 02:02:03.89	256.48	15.98	-29.7	-30.8	13.3	5.56e-05	0	43	0	988807168	20	4095
2026-01-29 02:02:06.90	256.08	15.71	-29.2	-30.5	14.1	0.00e+00	0	44	0	995098624	18	4177
2026-01-29 02:02:09.91	255.69	15.45	-29.3	-30.6	14.0	4.50e-06	0	44	0	1000341504	18	4229
2026-01-29 02:02:12.90	255.31	15.19	-29.3	-30.7	13.9	0.00e+00	0	44	0	1005584384	18	4247
2026-01-29 02:02:15.91	254.93	14.93	-29.5	-30.9	13.6	3.48e-04	0	43	0	1011875840	19	4202
2026-01-29 02:02:18.92	254.56	14.67	-29.6	-31.1	13.4	3.86e-04	0	43	0	1017118720	19	4274
2026-01-29 02:02:21.92	254.20	14.41	-29.6	-31.3	13.3	1.29e-05	0	44	0	1022361600	19	4333
2026-01-29 02:02:24.94	253.84	14.15	-29.4	-30.7	13.6	6.10e-06	0	44	0	1028653056	19	4151
2026-01-29 02:02:27.95	253.49	13.90	-29.8	-31.7	12.9	2.05e-05	0	43	0	1033895936	19	4475
2026-01-29 02:02:30.96	253.14	13.64	-30.1	-32.2	12.2	5.65e-04	0	44	0	1040187392	20	4557
2026-01-29 02:02:33.97	252.81	13.39	-30.7	-33.3	11.0	1.87e-03	0	44	0	1045430272	21	4897
2026-01-29 02:02:36.98	252.47	13.14	-30.3	-32.7	11.8	8.21e-04	0	44	0	1050673152	20	4748
2026-01-29 02:02:39.98	252.15	12.90	-29.5	-30.6	13.1	1.86e-04	0	44	0	1056964608	20	4058
2026-01-29 02:02:42.99	251.82	12.65	-29.2	-30.6	13.9	2.20e-06	0	43	0	1062207488	18	4225
2026-01-29 02:02:46.01	251.51	12.40	-29.2	-30.7	13.8	1.90e-05	0	44	0	1068498944	18	4252
2026-01-29 02:02:49.02	251.20	12.16	-29.8	-31.8	12.7	1.24e-04	0	44	0	1073741824	19	4515
2026-01-29 02:02:52.04	250.89	11.92	-30.5	-32.9	11.1	7.92e-04	0	44	0	1078984704	21	4767
2026-01-29 02:02:55.05	250.59	11.68	-30.8	-33.8	10.5	3.53e-03	0	44	0	1085276160	21	5119
2026-01-29 02:02:58.07	250.29	11.44	-30.7	-33.5	10.6	3.79e-03	0	44	0	1090519040	21	5000
2026-01-29 02:03:01.07	250.00	11.20	-30.8	-34.1	10.2	4.82e-03	0	44	0	1095761920	21	5237
2026-01-29 02:03:04.08	249.72	10.96	-30.4	-32.8	11.1	1.72e-03	0	43	0	1102053376	21	4728
2026-01-29 02:03:07.10	249.43	10.73	-30.4	-32.8	11.0	1.68e-03	0	44	0	1107296256	21	4740
2026-01-29 02:03:10.10	249.16	10.50	-30.3	-33.1	11.3	1.12e-03	0	44	0	1113587712	20	4915
2026-01-29 02:03:13.11	248.89	10.27	-30.5	-32.9	11.0	2.13e-03	0	44	0	1118830592	21	4790
2026-01-29 02:03:16.13	248.62	10.04	-30.5	-33.0	10.9	2.32e-03	0	44	0	1124073472	21	4832
2026-01-29 02:03:19.14	248.35	9.81	-30.6	-33.3	10.7	3.08e-03	0	44	0	1130364928	21	4936
2026-01-29 02:03:22.15	248.09	9.58	-30.4	-33.3	11.1	1.78e-03	0	44	0	1135607808	20	5037
2026-01-29 02:03:25.16	247.84	9.36	-30.4	-33.2	11.0	1.85e-03	0	44	0	1141899264	20	4972
2026-01-29 02:03:28.17	247.59	9.13	-30.1	-32.5	11.5	6.26e-04	0	44	0	1147142144	20	4729
2026-01-29 02:03:31.18	247.34	8.91	-29.8	-31.9	12.3	2.50e-04	0	44	0	1152385024	19	4604
2026-01-29 02:03:34.19	247.10	8.69	-29.8	-31.4	12.2	2.37e-04	0	44	0	1158676480	20	4358
2026-01-29 02:03:37.20	246.86	8.47	-29.9	-32.2	12.1	2.75e-04	0	43	0	1163919360	19	4718
2026-01-29 02:03:40.21	246.62	8.25	-29.1	-31.5	11.4	8.70e-04	0	43	0	1169162240	20	4746
2026-01-29 02:03:43.21	246.39	8.04	-30.4	-33.4	10.5	3.47e-03	0	43	0	1175453696	20	5092
2026-01-29 02:03:46.23	246.16	7.82	-30.5	-33.3	10.4	4.28e-03	0	44	0	1180696576	21	4978
2026-01-29 02:03:49.25	245.93	7.61	-30.6	-33.9	9.9	6.72e-03	0	44	0	1186988032	21	5223
2026-01-29 02:03:52.26	245.71	7.39	-30.8	-34.4	9.5	1.31e-02	0	44	0	1192230912	21	5492
2026-01-29 02:03:55.27	245.49	7.18	-29.7	-33.7	9.5	1.35e-02	0	44	0	1197473792	20	5672
2026-01-29 02:03:58.27	245.27	6.97	-33.3	-45.8	3.8	1.49e+00	0	44	104	1199570944	26	15221

#Closed at: 2026-01-29 02:04:00
#Recorded file [1199 MB]: D:/data/31010_260129_045316.dat