passes_logs/2026/01/29/R2M6_AANII_01/R2M6_AANII_01__20260129_114651_SUOMI_NPP_rec.log

#Pass ID: 20260129_114651_SUOMI NPP
#Satellite: SUOMI NPP
#Configuration: NPP
#almurnet v.1.7.20240730
#Start time: 2026-01-29 11:46:52

#Version: 2.2.20231116
#Station: R2M6_AANII_01
#Location: 30.233357 lon 59.946436 lat
#TLE: 1 37849U 11061A   26027.93236865  .00000148  00000+0  91411-4 0  9991
#TLE: 2 37849  98.7823 329.8704 0002085  41.3231 318.8102 14.19530777738546

#Time	Az	El	Level	Level2	SNR	BER	BlckErr	Temp	State	Recorded	gain1	gain2
2026-01-29 11:46:52.05	204.96	7.05	-30.9	-34.0	5.4	1.19e+00	0	39	0	0	22	5160
2026-01-29 11:46:55.05	205.21	7.26	-31.5	-35.8	8.1	5.01e-02	0	39	0	1048576	23	5887
2026-01-29 11:46:58.07	205.46	7.46	-30.7	-33.6	9.9	1.22e-02	0	39	0	7340032	22	5018
2026-01-29 11:47:01.08	205.72	7.67	-30.1	-32.1	11.3	1.92e-03	0	39	0	12582912	21	4527
2026-01-29 11:47:04.09	205.98	7.87	-30.3	-32.2	11.7	4.99e-04	0	40	0	17825792	21	4502
2026-01-29 11:47:07.10	206.25	8.08	-30.2	-32.1	11.9	2.24e-04	0	40	0	24117248	21	4436
2026-01-29 11:47:10.10	206.51	8.29	-30.2	-31.8	12.1	2.72e-04	0	40	0	29360128	21	4337
2026-01-29 11:47:13.11	206.78	8.50	-30.1	-31.6	12.2	2.06e-04	0	40	0	35651584	21	4268
2026-01-29 11:47:16.12	207.06	8.71	-30.1	-31.6	12.3	1.15e-04	0	40	0	40894464	21	4260
2026-01-29 11:47:19.13	207.34	8.92	-29.9	-31.0	12.7	7.55e-05	0	40	0	46137344	21	4091
2026-01-29 11:47:22.15	207.62	9.13	-30.0	-31.2	12.5	1.36e-04	0	40	0	52428800	21	4140
2026-01-29 11:47:25.16	207.91	9.35	-30.0	-31.4	12.4	1.50e-04	0	40	0	57671680	21	4212
2026-01-29 11:47:28.17	208.20	9.56	-30.2	-31.8	12.1	2.26e-04	0	40	0	63963136	21	4370
2026-01-29 11:47:31.17	208.49	9.78	-30.1	-31.7	12.3	1.86e-04	0	40	0	69206016	21	4302
2026-01-29 11:47:34.18	208.79	10.00	-30.1	-31.5	12.5	1.54e-04	0	41	0	74448896	21	4229
2026-01-29 11:47:37.20	209.09	10.22	-29.9	-30.8	13.0	8.01e-05	0	40	0	80740352	21	4030
2026-01-29 11:47:40.22	209.40	10.44	-29.9	-30.8	13.0	4.34e-05	0	40	0	85983232	21	4028
2026-01-29 11:47:43.22	209.71	10.66	-29.8	-31.1	13.1	3.05e-05	0	41	0	91226112	20	4199
2026-01-29 11:47:46.23	210.03	10.88	-29.7	-30.8	13.2	2.74e-05	0	41	0	97517568	20	4113
2026-01-29 11:47:49.24	210.35	11.11	-29.7	-30.8	13.4	2.74e-05	0	41	0	102760448	20	4088
2026-01-29 11:47:52.25	210.68	11.34	-29.8	-31.3	13.1	2.82e-05	0	41	0	109051904	20	4235
2026-01-29 11:47:55.26	211.01	11.56	-29.9	-31.5	12.9	4.34e-05	0	41	0	114294784	20	4325
2026-01-29 11:47:58.27	211.35	11.79	-30.0	-31.7	12.8	7.01e-05	0	40	0	119537664	20	4369
2026-01-29 11:48:01.28	211.69	12.02	-30.1	-31.9	12.8	5.64e-05	0	41	0	125829120	20	4426
2026-01-29 11:48:04.29	212.04	12.25	-29.9	-31.3	13.1	2.89e-05	0	41	0	131072000	20	4246
2026-01-29 11:48:07.30	212.39	12.48	-29.8	-31.2	13.3	2.67e-05	0	41	0	137363456	20	4205
2026-01-29 11:48:10.32	212.75	12.72	-29.9	-31.3	13.2	2.13e-05	0	41	0	142606336	20	4230
2026-01-29 11:48:13.33	213.11	12.95	-29.9	-31.2	13.3	1.22e-05	0	41	0	147849216	20	4213
2026-01-29 11:48:16.34	213.48	13.19	-30.1	-31.8	12.9	4.73e-05	0	41	0	154140672	20	4385
2026-01-29 11:48:19.36	213.85	13.43	-30.1	-32.0	12.8	6.33e-05	0	41	0	159383552	20	4468
2026-01-29 11:48:22.37	214.23	13.67	-30.1	-31.9	12.9	6.56e-05	0	41	0	164626432	20	4419
2026-01-29 11:48:25.37	214.62	13.90	-30.2	-32.3	12.6	8.16e-05	0	41	0	170917888	20	4537
2026-01-29 11:48:28.38	215.01	14.15	-30.3	-32.4	12.6	9.38e-05	0	41	0	176160768	20	4582
2026-01-29 11:48:31.39	215.41	14.39	-30.2	-32.1	12.8	5.41e-05	0	41	0	182452224	20	4477
2026-01-29 11:48:34.40	215.81	14.63	-30.5	-32.5	12.2	1.50e-04	0	41	0	187695104	21	4526
2026-01-29 11:48:37.40	216.22	14.87	-30.3	-32.0	12.6	1.14e-04	0	41	0	192937984	21	4336
2026-01-29 11:48:40.40	216.64	15.12	-30.5	-32.3	12.3	1.58e-04	0	41	0	199229440	21	4451
2026-01-29 11:48:43.43	217.07	15.37	-30.4	-32.1	12.5	7.70e-05	0	41	0	204472320	21	4377
2026-01-29 11:48:46.44	217.50	15.61	-30.1	-31.2	13.2	2.13e-05	0	41	0	209715200	21	4093
2026-01-29 11:48:49.45	217.94	15.86	-30.1	-31.2	13.1	3.81e-05	0	41	0	216006656	21	4092
2026-01-29 11:48:52.46	218.38	16.11	-29.7	-30.7	13.8	3.80e-06	0	41	0	221249536	20	4042
2026-01-29 11:48:55.47	218.83	16.36	-29.8	-31.0	13.7	4.50e-06	0	41	0	227540992	20	4103
2026-01-29 11:48:58.47	219.29	16.61	-29.8	-30.9	13.7	4.50e-06	0	41	0	232783872	20	4080
2026-01-29 11:49:01.49	219.76	16.86	-30.0	-31.3	13.5	7.60e-06	0	41	0	238026752	20	4221
2026-01-29 11:49:04.50	220.24	17.12	-29.9	-31.1	13.7	1.14e-05	0	41	0	244318208	20	4133
2026-01-29 11:49:07.50	220.72	17.37	-29.7	-30.7	13.9	2.20e-06	0	41	0	249561088	20	4022
2026-01-29 11:49:10.52	221.21	17.62	-29.8	-30.8	13.8	5.30e-06	0	41	0	255852544	20	4051
2026-01-29 11:49:13.51	221.71	17.88	-29.7	-30.5	14.0	3.80e-06	0	41	0	261095424	20	3967
2026-01-29 11:49:16.53	222.22	18.13	-29.6	-30.2	14.2	1.50e-06	0	41	0	266338304	20	3896
2026-01-29 11:49:19.54	222.73	18.39	-29.2	-29.9	14.8	0.00e+00	0	41	0	272629760	19	3868
2026-01-29 11:49:22.56	223.26	18.65	-29.0	-29.4	15.1	0.00e+00	0	41	0	277872640	19	3747
2026-01-29 11:49:25.57	223.79	18.90	-29.0	-29.2	15.2	0.00e+00	0	41	0	283115520	19	3699
2026-01-29 11:49:28.58	224.33	19.16	-29.2	-29.7	15.0	0.00e+00	0	41	0	289406976	19	3841
2026-01-29 11:49:31.60	224.88	19.42	-29.1	-29.4	15.2	0.00e+00	0	41	0	294649856	19	3758
2026-01-29 11:49:34.61	225.44	19.67	-29.2	-29.7	15.1	0.00e+00	0	41	0	300941312	19	3831
2026-01-29 11:49:37.63	226.01	19.93	-29.3	-29.9	14.9	0.00e+00	0	41	0	306184192	19	3879
2026-01-29 11:49:40.63	226.59	20.19	-29.4	-30.2	14.7	0.00e+00	0	41	0	311427072	19	3967
2026-01-29 11:49:43.63	227.18	20.44	-29.4	-30.4	14.7	0.00e+00	0	41	0	317718528	19	4002
2026-01-29 11:49:46.65	227.78	20.70	-29.5	-30.5	14.5	7.00e-07	0	41	0	322961408	19	4039
2026-01-29 11:49:49.67	228.38	20.95	-29.2	-29.7	15.1	0.00e+00	0	41	0	329252864	19	3816
2026-01-29 11:49:52.67	229.00	21.21	-29.0	-29.1	15.4	0.00e+00	0	41	0	334495744	19	3679
2026-01-29 11:49:55.69	229.63	21.46	-29.1	-29.5	15.2	7.00e-07	0	41	0	339738624	19	3776
2026-01-29 11:49:58.69	230.26	21.71	-28.7	-29.1	15.7	1.50e-06	0	41	0	346030080	18	3766
2026-01-29 11:50:01.69	230.91	21.97	-28.8	-29.3	15.5	7.00e-07	0	41	0	351272960	18	3816
2026-01-29 11:50:04.69	231.56	22.22	-29.0	-29.7	15.4	0.00e+00	0	41	0	356515840	18	3907
2026-01-29 11:50:07.71	232.23	22.46	-29.1	-30.0	15.2	7.00e-07	0	41	0	362807296	18	3999
2026-01-29 11:50:10.72	232.91	22.71	-29.2	-30.2	15.1	0.00e+00	0	41	0	368050176	18	4039
2026-01-29 11:50:13.72	233.60	22.96	-29.3	-30.5	15.0	7.00e-07	0	41	0	374341632	18	4128
2026-01-29 11:50:16.72	234.29	23.20	-29.4	-30.3	14.9	0.00e+00	0	41	0	379584512	19	3953
2026-01-29 11:50:19.72	235.00	23.44	-29.4	-30.2	14.9	1.50e-06	0	41	0	384827392	19	3946
2026-01-29 11:50:22.73	235.72	23.68	-29.6	-30.6	14.6	0.00e+00	0	41	0	391118848	19	4050
2026-01-29 11:50:25.75	236.46	23.92	-29.7	-31.0	14.4	0.00e+00	0	41	0	396361728	19	4153
2026-01-29 11:50:28.77	237.20	24.15	-29.7	-31.0	14.3	0.00e+00	0	41	0	402653184	19	4171
2026-01-29 11:50:31.78	237.95	24.38	-29.6	-30.8	14.6	0.00e+00	0	41	0	407896064	19	4093
2026-01-29 11:50:34.79	238.72	24.61	-29.6	-30.5	14.7	0.00e+00	0	41	0	413138944	19	4027
2026-01-29 11:50:37.80	239.49	24.84	-29.8	-31.1	14.3	0.00e+00	0	41	0	419430400	19	4200
2026-01-29 11:50:40.82	240.28	25.06	-29.6	-30.7	14.6	0.00e+00	0	41	0	424673280	19	4071
2026-01-29 11:50:43.82	241.07	25.28	-29.5	-30.3	14.9	7.00e-07	0	41	0	429916160	19	3971
2026-01-29 11:50:46.83	241.88	25.49	-29.4	-30.1	15.0	7.00e-07	0	41	0	436207616	19	3902
2026-01-29 11:50:49.84	242.70	25.70	-29.7	-30.9	14.5	2.20e-06	0	41	0	441450496	19	4129
2026-01-29 11:50:52.85	243.53	25.90	-29.9	-31.0	14.1	0.00e+00	0	41	0	447741952	20	4062
2026-01-29 11:50:55.86	244.36	26.10	-29.5	-29.9	14.8	0.00e+00	0	41	0	452984832	20	3765
2026-01-29 11:50:58.86	245.21	26.30	-30.5	-32.4	13.2	1.67e-05	0	41	0	458227712	20	4520
2026-01-29 11:51:01.88	246.07	26.49	-30.3	-31.4	13.6	1.14e-05	0	41	0	464519168	21	4080
2026-01-29 11:51:04.89	246.94	26.67	-29.9	-30.9	14.1	2.20e-06	0	41	0	469762048	20	4056
2026-01-29 11:51:07.90	247.82	26.85	-30.5	-32.0	13.1	1.83e-05	0	41	0	476053504	21	4291
2026-01-29 11:51:10.90	248.70	27.02	-30.6	-32.2	13.0	5.41e-05	0	41	0	481296384	21	4355
2026-01-29 11:51:13.91	249.60	27.18	-30.1	-31.0	13.8	1.14e-05	0	41	0	486539264	21	3994
2026-01-29 11:51:16.91	250.50	27.34	-29.8	-30.7	14.3	7.00e-07	0	41	0	492830720	20	3986
2026-01-29 11:51:19.92	251.41	27.49	-30.3	-32.0	13.4	2.21e-05	0	41	0	498073600	20	4385
2026-01-29 11:51:22.92	252.33	27.64	-30.3	-31.4	13.5	1.37e-05	0	41	0	503316480	21	4107
2026-01-29 11:51:25.93	253.26	27.78	-30.0	-31.2	14.0	7.00e-07	0	41	0	509607936	20	4133
2026-01-29 11:51:28.94	254.20	27.91	-31.2	-33.4	12.0	1.86e-04	0	41	0	514850816	22	4654
2026-01-29 11:51:31.95	255.15	28.03	-31.1	-33.2	12.1	3.11e-04	0	41	0	521142272	22	4582
2026-01-29 11:51:34.96	256.10	28.15	-31.7	-34.4	10.9	1.18e-03	0	41	0	526385152	23	4927
2026-01-29 11:51:37.96	257.06	28.25	-31.5	-33.9	11.3	2.43e-03	0	41	0	531628032	23	4758
2026-01-29 11:51:40.97	258.02	28.35	-31.8	-35.0	10.5	2.91e-03	0	41	0	537919488	23	5172
2026-01-29 11:51:43.98	258.99	28.44	-31.6	-33.7	11.0	1.59e-03	0	41	0	543162368	24	4581
2026-01-29 11:51:47.00	259.97	28.53	-31.7	-34.2	10.7	2.56e-03	0	41	0	548405248	24	4771
2026-01-29 11:51:50.01	260.95	28.60	-32.0	-35.1	9.9	9.22e-03	0	41	0	554696704	24	5129
2026-01-29 11:51:53.01	261.93	28.66	-31.7	-34.2	10.6	2.39e-03	0	41	0	559939584	24	4765
2026-01-29 11:51:56.02	262.92	28.72	-31.4	-33.0	11.5	2.19e-03	0	41	0	566231040	24	4332
2026-01-29 11:51:59.01	263.90	28.77	-30.5	-31.4	13.3	2.59e-05	0	41	0	571473920	22	3987
2026-01-29 11:52:02.02	264.89	28.80	-30.6	-31.8	13.0	4.04e-05	0	41	0	576716800	22	4131
2026-01-29 11:52:05.04	265.89	28.83	-30.9	-32.5	12.6	7.32e-05	0	41	0	583008256	22	4329
2026-01-29 11:52:08.05	266.89	28.85	-31.0	-32.8	12.4	1.76e-04	0	41	0	588251136	22	4427
2026-01-29 11:52:11.07	267.89	28.86	-30.9	-32.6	12.5	9.46e-05	0	41	0	593494016	22	4369
2026-01-29 11:52:14.07	268.88	28.86	-30.8	-32.4	12.6	7.17e-05	0	41	0	599785472	22	4310
2026-01-29 11:52:17.07	269.88	28.86	-30.6	-31.8	13.1	7.01e-05	0	41	0	605028352	22	4126
2026-01-29 11:52:20.09	270.88	28.84	-31.0	-32.9	12.3	4.57e-05	0	41	0	611319808	22	4483
2026-01-29 11:52:23.10	271.87	28.81	-31.3	-33.7	11.7	6.80e-04	0	41	0	616562688	22	4765
2026-01-29 11:52:26.11	272.87	28.77	-31.4	-34.0	11.6	4.33e-04	0	41	0	621805568	22	4891
2026-01-29 11:52:29.13	273.86	28.73	-30.8	-32.4	12.7	1.12e-04	0	41	0	628097024	22	4289
2026-01-29 11:52:32.14	274.85	28.68	-30.6	-31.7	13.1	2.36e-05	0	41	0	633339904	22	4086
2026-01-29 11:52:35.15	275.83	28.61	-31.4	-34.0	11.5	6.98e-04	0	41	0	639631360	22	4883
2026-01-29 11:52:38.16	276.81	28.54	-32.0	-35.1	10.0	5.30e-03	0	41	0	644874240	24	5138
2026-01-29 11:52:41.16	277.78	28.46	-32.1	-35.4	9.7	1.20e-02	0	41	0	650117120	24	5275
2026-01-29 11:52:44.18	278.75	28.37	-31.9	-34.8	10.3	4.34e-03	0	41	0	656408576	24	5011
2026-01-29 11:52:47.19	279.72	28.27	-32.7	-37.1	8.1	5.30e-02	0	41	0	661651456	25	5979
2026-01-29 11:52:50.20	280.68	28.17	-32.5	-36.3	8.6	5.75e-02	0	41	0	666894336	25	5612
2026-01-29 11:52:53.22	281.63	28.06	-32.4	-35.9	9.0	2.42e-02	0	41	0	673185792	25	5385
2026-01-29 11:52:56.23	282.58	27.93	-31.5	-33.3	11.3	1.66e-03	0	41	0	678428672	24	4432
2026-01-29 11:52:59.24	283.51	27.81	-31.9	-34.8	10.2	5.98e-03	0	41	0	684720128	24	5026
2026-01-29 11:53:02.24	284.44	27.67	-30.8	-31.8	12.6	2.32e-04	0	41	0	689963008	23	4041
2026-01-29 11:53:05.24	285.36	27.53	-30.8	-32.3	12.7	6.63e-05	0	41	0	695205888	22	4275
2026-01-29 11:53:08.25	286.27	27.38	-30.3	-30.9	13.6	1.29e-05	0	41	0	701497344	22	3858
2026-01-29 11:53:11.26	287.18	27.22	-30.5	-32.1	13.1	2.28e-05	0	41	0	706740224	21	4304
2026-01-29 11:53:14.27	288.07	27.06	-31.2	-33.6	11.8	5.21e-04	0	41	0	711983104	22	4721
2026-01-29 11:53:17.27	288.96	26.89	-30.1	-30.9	13.9	1.22e-05	0	41	0	718274560	21	3946
2026-01-29 11:53:20.28	289.83	26.71	-29.9	-30.3	14.3	3.00e-06	0	41	0	723517440	21	3793
2026-01-29 11:53:23.29	290.70	26.53	-29.8	-30.6	14.3	7.00e-07	0	41	0	729808896	20	3962
2026-01-29 11:53:26.29	291.55	26.34	-29.8	-30.7	14.3	7.00e-07	0	41	0	735051776	20	3976
2026-01-29 11:53:29.30	292.40	26.15	-29.8	-30.7	14.3	3.00e-06	0	41	0	740294656	20	3982
2026-01-29 11:53:32.31	293.24	25.95	-29.3	-29.8	15.2	0.00e+00	0	41	0	746586112	19	3822
2026-01-29 11:53:35.33	294.07	25.75	-29.5	-30.3	14.9	0.00e+00	0	41	0	751828992	19	3939
2026-01-29 11:53:38.35	294.89	25.54	-29.7	-30.9	14.5	7.00e-07	0	41	0	757071872	19	4133
2026-01-29 11:53:41.36	295.69	25.33	-30.1	-31.4	13.8	1.50e-06	0	41	0	763363328	20	4191
2026-01-29 11:53:44.37	296.49	25.12	-29.6	-30.1	14.6	7.00e-07	0	41	0	768606208	20	3815
2026-01-29 11:53:47.38	297.27	24.90	-29.5	-29.9	14.8	7.00e-07	0	41	0	774897664	20	3772
2026-01-29 11:53:50.40	298.05	24.67	-30.4	-31.7	13.3	1.52e-05	0	41	0	780140544	21	4181
2026-01-29 11:53:53.41	298.81	24.45	-30.0	-30.8	13.9	3.00e-06	0	41	0	785383424	21	3918
2026-01-29 11:53:56.43	299.57	24.22	-30.3	-31.5	13.5	7.60e-06	0	41	0	791674880	21	4133
2026-01-29 11:53:59.44	300.31	23.99	-29.4	-29.7	14.9	7.00e-07	0	41	0	796917760	20	3718
2026-01-29 11:54:02.45	301.04	23.75	-29.3	-29.9	15.2	0.00e+00	0	41	0	803209216	19	3849
2026-01-29 11:54:05.45	301.76	23.52	-29.3	-29.9	15.1	0.00e+00	0	41	0	808452096	19	3858
2026-01-29 11:54:08.46	302.46	23.28	-29.7	-30.8	14.6	0.00e+00	0	41	0	813694976	19	4086
2026-01-29 11:54:11.47	303.16	23.03	-29.6	-30.0	14.7	1.50e-06	0	41	0	819986432	20	3808
2026-01-29 11:54:14.48	303.85	22.79	-29.3	-29.8	15.2	0.00e+00	0	41	0	825229312	19	3823
2026-01-29 11:54:17.50	304.53	22.55	-29.8	-31.1	14.4	3.80e-06	0	41	0	831520768	19	4200
2026-01-29 11:54:20.50	305.20	22.30	-29.7	-30.8	14.5	7.00e-07	0	41	0	836763648	19	4108
2026-01-29 11:54:23.50	305.85	22.05	-29.7	-30.5	14.4	7.00e-07	0	41	0	842006528	20	3936
2026-01-29 11:54:26.51	306.50	21.80	-30.6	-32.4	12.8	3.96e-05	0	41	0	848297984	21	4411
2026-01-29 11:54:29.52	307.13	21.55	-30.1	-31.0	13.7	9.10e-06	0	41	0	853540864	21	3994
2026-01-29 11:54:32.53	307.76	21.30	-29.7	-30.3	14.5	0.00e+00	0	41	0	858783744	20	3885
2026-01-29 11:54:35.55	308.38	21.05	-29.9	-31.0	14.1	3.00e-06	0	41	0	865075200	20	4063
2026-01-29 11:54:38.56	308.98	20.79	-30.0	-31.2	13.9	5.30e-06	0	41	0	870318080	20	4140
2026-01-29 11:54:41.57	309.58	20.54	-30.3	-32.0	13.4	4.50e-06	0	41	0	876609536	20	4375
2026-01-29 11:54:44.56	310.16	20.29	-30.2	-31.9	13.4	1.90e-05	0	41	0	881852416	20	4343
2026-01-29 11:54:47.58	310.74	20.03	-29.7	-30.4	14.5	7.00e-07	0	41	0	887095296	20	3892
2026-01-29 11:54:50.60	311.31	19.78	-29.8	-30.7	14.2	7.00e-07	0	41	0	893386752	20	3995
2026-01-29 11:54:53.61	311.87	19.52	-30.7	-32.5	12.7	5.03e-05	0	41	0	898629632	21	4456
2026-01-29 11:54:56.62	312.42	19.27	-30.8	-33.1	12.4	1.52e-04	0	41	0	903872512	21	4647
2026-01-29 11:54:59.62	312.96	19.02	-29.9	-30.5	14.0	1.50e-06	0	41	0	910163968	21	3850
2026-01-29 11:55:02.62	313.49	18.76	-29.8	-30.8	14.1	1.50e-06	0	41	0	915406848	20	4029
2026-01-29 11:55:05.63	314.02	18.51	-29.8	-30.6	14.3	7.00e-07	0	41	0	921698304	20	3964
2026-01-29 11:55:08.64	314.53	18.25	-29.5	-30.0	14.5	0.00e+00	0	41	0	926941184	20	3804
2026-01-29 11:55:11.66	315.04	18.00	-29.5	-29.9	14.6	0.00e+00	0	41	0	932184064	20	3791
2026-01-29 11:55:14.65	315.54	17.75	-29.8	-30.6	14.2	1.50e-06	0	41	0	938475520	20	3968
2026-01-29 11:55:17.67	316.03	17.50	-30.0	-31.2	13.8	7.60e-06	0	41	0	943718400	20	4141
2026-01-29 11:55:20.67	316.51	17.25	-29.9	-31.1	13.8	3.80e-06	0	41	0	948961280	20	4123
2026-01-29 11:55:23.67	316.99	17.00	-30.5	-32.1	12.9	5.18e-05	0	41	0	955252736	21	4342
2026-01-29 11:55:26.68	317.46	16.75	-30.5	-32.2	12.7	9.99e-05	0	41	0	960495616	21	4381
2026-01-29 11:55:29.69	317.92	16.50	-30.3	-31.5	13.2	1.52e-05	0	41	0	966787072	21	4169
2026-01-29 11:55:32.70	318.37	16.25	-30.2	-31.4	13.3	1.14e-05	0	41	0	972029952	21	4112
2026-01-29 11:55:35.71	318.82	16.00	-29.7	-30.5	14.1	2.20e-06	0	41	0	977272832	20	3957
2026-01-29 11:55:38.72	319.25	15.76	-29.7	-30.5	14.1	2.20e-06	0	41	0	983564288	20	3948
2026-01-29 11:55:41.74	319.69	15.51	-29.5	-30.0	14.4	7.00e-07	0	41	0	988807168	20	3818
2026-01-29 11:55:44.75	320.11	15.27	-29.6	-30.3	14.2	7.00e-07	0	41	0	995098624	20	3907
2026-01-29 11:55:47.76	320.53	15.02	-30.0	-31.3	13.5	1.06e-05	0	41	0	1000341504	20	4208
2026-01-29 11:55:50.77	320.94	14.78	-30.5	-32.7	12.7	5.64e-05	0	41	0	1005584384	20	4646
2026-01-29 11:55:53.77	321.35	14.54	-30.4	-32.1	12.6	9.38e-05	0	41	0	1011875840	21	4376
2026-01-29 11:55:56.78	321.75	14.30	-30.4	-32.1	12.6	1.44e-04	0	41	0	1017118720	21	4357
2026-01-29 11:55:59.80	322.14	14.06	-30.2	-31.6	13.0	4.42e-05	0	41	0	1022361600	21	4204
2026-01-29 11:56:02.81	322.53	13.82	-29.9	-30.6	13.5	1.06e-05	0	41	0	1028653056	21	3920
2026-01-29 11:56:05.82	322.91	13.59	-29.8	-30.9	13.7	1.22e-05	0	41	0	1033895936	20	4075
2026-01-29 11:56:08.83	323.29	13.35	-29.7	-30.6	13.8	8.30e-06	0	41	0	1040187392	20	4003
2026-01-29 11:56:11.85	323.66	13.12	-29.5	-30.1	14.1	7.00e-07	0	41	0	1045430272	20	3865
2026-01-29 11:56:14.86	324.02	12.88	-29.6	-30.3	14.0	7.00e-07	0	41	0	1050673152	20	3915
2026-01-29 11:56:17.88	324.38	12.65	-29.8	-30.9	13.6	3.00e-06	0	41	0	1056964608	20	4081
2026-01-29 11:56:20.88	324.73	12.42	-30.2	-32.1	12.8	4.80e-05	0	41	0	1062207488	20	4462
2026-01-29 11:56:23.89	325.08	12.19	-30.4	-32.2	12.4	1.59e-04	0	41	0	1067450368	21	4424
2026-01-29 11:56:26.89	325.42	11.96	-30.5	-32.5	12.2	3.07e-04	0	41	0	1073741824	21	4507
2026-01-29 11:56:29.90	325.76	11.74	-30.4	-32.1	12.4	1.82e-04	0	41	0	1078984704	21	4394
2026-01-29 11:56:32.92	326.09	11.51	-30.3	-31.9	12.5	1.14e-04	0	41	0	1085276160	21	4320
2026-01-29 11:56:35.92	326.42	11.29	-30.6	-32.7	12.0	1.72e-04	0	41	0	1090519040	21	4592
2026-01-29 11:56:38.93	326.74	11.06	-30.4	-32.1	12.4	1.54e-04	0	41	0	1095761920	21	4381
2026-01-29 11:56:41.94	327.06	10.84	-30.3	-31.8	12.5	1.07e-04	0	41	0	1102053376	21	4308
2026-01-29 11:56:44.96	327.38	10.62	-30.0	-31.0	13.0	4.80e-05	0	41	0	1107296256	21	4054
2026-01-29 11:56:47.99	327.69	10.40	-29.8	-30.6	13.3	2.59e-05	0	41	0	1113587712	21	3928
2026-01-29 11:56:50.99	327.99	10.18	-29.9	-30.8	13.2	3.58e-05	0	41	0	1118830592	21	3998
2026-01-29 11:56:53.99	328.29	9.97	-30.3	-32.0	12.4	1.04e-04	0	41	0	1124073472	21	4359
2026-01-29 11:56:57.00	328.59	9.75	-30.7	-33.1	11.5	4.78e-04	0	41	0	1130364928	21	4753
2026-01-29 11:57:00.02	328.88	9.54	-31.0	-34.0	10.8	1.33e-03	0	41	0	1135607808	21	5117
2026-01-29 11:57:03.04	329.17	9.32	-30.7	-33.1	11.4	8.44e-04	0	41	0	1140850688	21	4768
2026-01-29 11:57:06.05	329.46	9.11	-30.7	-33.2	11.4	8.33e-04	0	41	0	1147142144	21	4800
2026-01-29 11:57:09.05	329.74	8.90	-30.2	-31.7	12.5	2.10e-04	0	41	0	1152385024	21	4262
2026-01-29 11:57:12.06	330.01	8.69	-30.4	-32.2	12.1	3.07e-04	0	41	0	1158676480	21	4447
2026-01-29 11:57:15.07	330.29	8.48	-30.5	-32.7	11.7	5.84e-04	0	41	0	1163919360	21	4620
2026-01-29 11:57:18.07	330.55	8.28	-30.7	-33.3	11.2	1.38e-03	0	41	0	1169162240	21	4860
2026-01-29 11:57:21.08	330.82	8.07	-31.1	-34.2	10.2	3.33e-03	0	41	0	1175453696	22	5138
2026-01-29 11:57:24.09	331.08	7.87	-31.2	-34.3	10.0	5.60e-03	0	41	0	1180696576	22	5175
2026-01-29 11:57:27.09	331.34	7.66	-31.1	-34.1	10.2	5.79e-03	0	41	0	1185939456	22	5107
2026-01-29 11:57:30.10	331.60	7.46	-31.0	-33.6	10.4	3.33e-03	0	41	0	1192230912	22	4906
2026-01-29 11:57:33.10	331.85	7.26	-30.7	-33.0	11.0	2.72e-03	0	41	0	1197473792	22	4653
2026-01-29 11:57:36.10	332.10	7.06	-30.5	-32.4	11.4	1.16e-03	0	41	0	1203765248	22	4448

#Closed at: 2026-01-29 11:57:38
#Recorded file [1203 MB]: D:/data/31010_260129_144653.dat