passes_logs/2026/01/29/R2M6_AANII_01/R2M6_AANII_01__20260129_084652_NOAA_20_JPSS-1_rec.log

#Pass ID: 20260129_084652_NOAA 20 (JPSS-1)
#Satellite: NOAA 20 (JPSS-1)
#Configuration: NOAA 20
#almurnet v.1.7.20240730
#Start time: 2026-01-29 08:46:53

#Version: 2.2.20231116
#Station: R2M6_AANII_01
#Location: 30.233357 lon 59.946436 lat
#TLE: 1 43013U 17073A   26027.94683596  .00000137  00000+0  85741-4 0  9995
#TLE: 2 43013  98.7648 328.7503 0000940  21.3928 338.7287 14.19541154424576

#Time	Az	El	Level	Level2	SNR	BER	BlckErr	Temp	State	Recorded	gain1	gain2
2026-01-29 08:46:53.60	112.39	7.11	-32.6	-39.8	4.6	1.36e+00	0	40	0	0	26	8255
2026-01-29 08:46:56.61	112.16	7.32	-32.3	-38.0	7.5	1.09e-01	0	40	0	1048576	26	6924
2026-01-29 08:46:59.62	111.93	7.53	-32.2	-38.0	7.9	1.05e-01	0	40	0	7340032	25	7024
2026-01-29 08:47:02.63	111.69	7.74	-31.5	-35.7	10.2	1.07e-02	0	40	0	12582912	24	5795
2026-01-29 08:47:05.63	111.45	7.95	-31.4	-35.1	10.7	2.71e-03	0	40	0	17825792	24	5516
2026-01-29 08:47:08.62	111.21	8.16	-31.4	-35.2	10.6	3.37e-03	0	41	0	24117248	24	5562
2026-01-29 08:47:11.65	110.97	8.38	-31.5	-35.5	10.5	3.78e-03	0	41	0	29360128	24	5674
2026-01-29 08:47:14.66	110.72	8.59	-31.3	-35.2	11.1	1.60e-03	0	41	0	35651584	23	5638
2026-01-29 08:47:17.65	110.47	8.81	-31.4	-35.6	10.8	2.68e-03	0	41	0	40894464	23	5844
2026-01-29 08:47:20.66	110.21	9.03	-31.3	-35.3	11.0	2.09e-03	0	41	0	46137344	23	5697
2026-01-29 08:47:23.65	109.95	9.25	-31.2	-35.0	11.3	1.08e-03	0	41	0	52428800	23	5541
2026-01-29 08:47:26.67	109.68	9.47	-31.4	-35.4	11.0	1.90e-03	0	41	0	57671680	23	5736
2026-01-29 08:47:29.67	109.41	9.69	-31.4	-35.4	11.1	2.26e-03	0	41	0	62914560	23	5725
2026-01-29 08:47:32.68	109.14	9.91	-31.5	-35.7	10.9	2.50e-03	0	41	0	69206016	23	5833
2026-01-29 08:47:35.70	108.86	10.14	-31.4	-35.5	11.0	2.17e-03	0	41	0	74448896	23	5778
2026-01-29 08:47:38.71	108.58	10.37	-31.4	-35.5	11.1	1.45e-03	0	41	0	80740352	23	5762
2026-01-29 08:47:41.72	108.29	10.60	-31.3	-35.0	11.4	1.02e-03	0	41	0	85983232	23	5537
2026-01-29 08:47:44.73	108.00	10.83	-31.4	-35.3	11.3	1.24e-03	0	41	0	91226112	23	5655
2026-01-29 08:47:47.73	107.70	11.06	-31.3	-35.1	11.5	8.71e-04	0	41	0	97517568	23	5543
2026-01-29 08:47:50.73	107.40	11.29	-31.4	-35.5	11.2	1.26e-03	0	41	0	102760448	23	5732
2026-01-29 08:47:53.74	107.10	11.52	-31.5	-35.6	11.0	2.08e-03	0	42	0	108003328	23	5817
2026-01-29 08:47:56.75	106.78	11.76	-31.4	-35.5	11.1	2.52e-03	0	42	0	114294784	23	5753
2026-01-29 08:47:59.76	106.47	11.99	-31.3	-35.2	11.4	8.13e-04	0	42	0	119537664	23	5598
2026-01-29 08:48:02.76	106.15	12.23	-31.4	-35.2	11.5	9.43e-04	0	42	0	125829120	23	5579
2026-01-29 08:48:05.77	105.82	12.47	-31.4	-35.4	11.3	1.49e-03	0	42	0	131072000	23	5690
2026-01-29 08:48:08.78	105.49	12.71	-31.2	-34.7	11.8	4.29e-04	0	42	0	136314880	23	5384
2026-01-29 08:48:11.78	105.15	12.95	-31.2	-34.6	11.9	4.38e-04	0	42	0	142606336	23	5343
2026-01-29 08:48:14.79	104.81	13.20	-31.1	-34.4	12.0	3.60e-04	0	42	0	147849216	23	5267
2026-01-29 08:48:17.81	104.46	13.44	-31.2	-34.5	12.0	3.64e-04	0	42	0	154140672	23	5305
2026-01-29 08:48:20.81	104.10	13.69	-31.0	-34.1	12.3	2.06e-04	0	42	0	159383552	23	5109
2026-01-29 08:48:23.81	103.74	13.94	-31.1	-34.4	12.1	2.49e-04	0	42	0	164626432	23	5251
2026-01-29 08:48:26.81	103.37	14.19	-31.1	-34.3	12.2	3.45e-04	0	42	0	170917888	23	5205
2026-01-29 08:48:29.82	103.00	14.44	-31.1	-34.3	12.2	2.13e-04	0	42	0	176160768	23	5194
2026-01-29 08:48:32.83	102.62	14.69	-31.2	-34.5	12.1	2.43e-04	0	42	0	181403648	23	5266
2026-01-29 08:48:35.84	102.23	14.94	-31.2	-34.5	12.1	3.03e-04	0	42	0	187695104	23	5280
2026-01-29 08:48:38.85	101.83	15.20	-31.0	-33.8	12.6	9.76e-05	0	42	0	192937984	23	5009
2026-01-29 08:48:41.85	101.43	15.45	-30.9	-33.5	12.8	5.72e-05	0	42	0	198180864	23	4893
2026-01-29 08:48:44.85	101.03	15.71	-30.9	-33.6	12.8	5.11e-05	0	42	0	204472320	23	4927
2026-01-29 08:48:47.86	100.61	15.97	-30.9	-33.7	12.8	5.56e-05	0	42	0	209715200	23	4935
2026-01-29 08:48:50.87	100.19	16.23	-30.8	-33.2	13.1	3.28e-05	0	42	0	216006656	23	4773
2026-01-29 08:48:53.88	99.76	16.49	-30.8	-33.7	13.2	3.05e-05	0	42	0	221249536	22	5035
2026-01-29 08:48:56.87	99.32	16.75	-30.9	-34.1	12.9	5.41e-05	0	42	0	226492416	22	5182
2026-01-29 08:48:59.87	98.88	17.01	-30.8	-33.8	13.2	1.98e-05	0	42	0	232783872	22	5051
2026-01-29 08:49:02.88	98.43	17.27	-30.8	-33.8	13.1	2.36e-05	0	42	0	238026752	22	5082
2026-01-29 08:49:05.89	97.96	17.54	-30.8	-33.6	13.3	1.52e-05	0	42	0	244318208	22	4989
2026-01-29 08:49:08.91	97.49	17.80	-30.8	-33.7	13.2	1.37e-05	0	42	0	249561088	22	5042
2026-01-29 08:49:11.92	97.01	18.07	-30.8	-33.7	13.3	2.67e-05	0	42	0	254803968	22	5014
2026-01-29 08:49:14.93	96.53	18.34	-30.8	-33.7	13.2	1.22e-05	0	42	0	261095424	22	5043
2026-01-29 08:49:17.95	96.03	18.61	-31.0	-34.2	13.0	2.51e-05	0	42	0	266338304	22	5203
2026-01-29 08:49:20.97	95.52	18.88	-30.9	-34.1	13.1	1.75e-05	0	42	0	272629760	22	5154
2026-01-29 08:49:23.99	95.01	19.15	-31.0	-34.3	13.0	4.80e-05	0	42	0	277872640	22	5246
2026-01-29 08:49:26.99	94.48	19.42	-31.1	-34.5	12.9	4.50e-05	0	42	0	283115520	22	5306
2026-01-29 08:49:29.99	93.95	19.69	-31.1	-34.5	12.8	4.95e-05	0	42	0	289406976	22	5335
2026-01-29 08:49:33.00	93.41	19.96	-31.0	-34.3	13.0	3.81e-05	0	42	0	294649856	22	5220
2026-01-29 08:49:36.01	92.86	20.23	-31.1	-34.4	13.0	3.43e-05	0	42	0	299892736	22	5259
2026-01-29 08:49:39.02	92.30	20.50	-30.8	-33.7	13.4	2.74e-05	0	42	0	306184192	22	5027
2026-01-29 08:49:42.02	91.73	20.77	-30.9	-34.0	13.3	1.06e-05	0	42	0	311427072	22	5106
2026-01-29 08:49:45.04	91.14	21.04	-31.1	-34.3	13.0	2.44e-05	0	42	0	317718528	22	5252
2026-01-29 08:49:48.05	90.55	21.31	-30.8	-33.7	13.5	1.22e-05	0	42	0	322961408	22	4996
2026-01-29 08:49:51.06	89.95	21.58	-30.7	-33.4	13.7	9.10e-06	0	42	0	328204288	22	4909
2026-01-29 08:49:54.07	89.33	21.85	-30.6	-33.1	13.9	3.00e-06	0	42	0	334495744	22	4773
2026-01-29 08:49:57.09	88.70	22.12	-30.7	-33.3	13.8	4.50e-06	0	42	0	339738624	22	4846
2026-01-29 08:50:00.10	88.07	22.38	-30.5	-32.8	14.1	4.50e-06	0	42	0	344981504	22	4680
2026-01-29 08:50:03.11	87.42	22.65	-30.3	-32.2	14.5	0.00e+00	0	42	0	351272960	22	4483
2026-01-29 08:50:06.11	86.77	22.91	-30.2	-32.5	14.6	0.00e+00	0	42	0	356515840	21	4669
2026-01-29 08:50:09.12	86.10	23.18	-30.4	-32.9	14.4	7.00e-07	0	42	0	362807296	21	4823
2026-01-29 08:50:12.13	85.42	23.44	-30.3	-32.8	14.4	1.50e-06	0	43	0	368050176	21	4787
2026-01-29 08:50:15.14	84.72	23.70	-30.1	-32.1	14.8	0.00e+00	0	43	0	373293056	21	4556
2026-01-29 08:50:18.15	84.02	23.96	-30.1	-32.2	14.8	0.00e+00	0	42	0	379584512	21	4578
2026-01-29 08:50:21.16	83.31	24.21	-30.1	-32.1	14.9	0.00e+00	0	43	0	384827392	21	4562
2026-01-29 08:50:24.17	82.58	24.47	-30.3	-32.8	14.5	0.00e+00	0	42	0	391118848	21	4765
2026-01-29 08:50:27.18	81.84	24.72	-30.3	-32.7	14.5	0.00e+00	0	43	0	396361728	21	4755
2026-01-29 08:50:30.20	81.09	24.97	-30.4	-33.0	14.3	0.00e+00	0	42	0	401604608	21	4857
2026-01-29 08:50:33.21	80.32	25.21	-30.6	-33.4	14.1	1.50e-06	0	43	0	407896064	21	4962
2026-01-29 08:50:36.21	79.55	25.45	-30.6	-33.5	14.1	1.50e-06	0	43	0	413138944	21	5016
2026-01-29 08:50:39.23	78.76	25.69	-30.4	-33.0	14.3	7.00e-07	0	42	0	418381824	21	4855
2026-01-29 08:50:42.24	77.96	25.92	-30.7	-33.7	13.9	2.20e-06	0	42	0	424673280	21	5100
2026-01-29 08:50:45.25	77.15	26.15	-30.7	-33.6	14.0	3.80e-06	0	42	0	429916160	21	5060
2026-01-29 08:50:48.25	76.33	26.38	-30.5	-33.1	14.3	7.00e-07	0	43	0	436207616	21	4884
2026-01-29 08:50:51.26	75.50	26.60	-30.4	-32.9	14.5	0.00e+00	0	43	0	441450496	21	4784
2026-01-29 08:50:54.27	74.65	26.81	-30.3	-32.6	14.7	0.00e+00	0	42	0	446693376	21	4688
2026-01-29 08:50:57.28	73.80	27.02	-30.5	-33.1	14.3	1.50e-06	0	42	0	452984832	21	4869
2026-01-29 08:51:00.29	72.93	27.23	-30.6	-33.4	14.2	1.50e-06	0	43	0	458227712	21	4976
2026-01-29 08:51:03.31	72.05	27.43	-30.7	-33.6	14.0	3.00e-06	0	43	0	464519168	21	5030
2026-01-29 08:51:06.32	71.16	27.62	-30.7	-33.7	14.0	3.00e-06	0	43	0	469762048	21	5081
2026-01-29 08:51:09.33	70.26	27.80	-30.9	-34.1	13.6	1.37e-05	0	42	0	475004928	21	5240
2026-01-29 08:51:12.33	69.35	27.98	-30.8	-34.0	13.8	5.30e-06	0	43	0	481296384	21	5189
2026-01-29 08:51:15.34	68.43	28.15	-30.9	-34.3	13.6	6.80e-06	0	43	0	486539264	21	5295
2026-01-29 08:51:18.35	67.50	28.32	-31.4	-35.2	12.7	6.79e-05	0	43	0	491782144	22	5548
2026-01-29 08:51:21.38	66.56	28.48	-31.6	-35.2	12.3	2.34e-04	0	43	0	498073600	23	5465
2026-01-29 08:51:24.38	65.61	28.63	-31.8	-35.9	11.9	3.94e-04	0	43	0	503316480	23	5741
2026-01-29 08:51:27.39	64.65	28.77	-31.4	-34.6	12.7	1.01e-04	0	42	0	509607936	23	5223
2026-01-29 08:51:30.40	63.69	28.90	-31.6	-35.1	12.4	9.30e-05	0	42	0	514850816	23	5406
2026-01-29 08:51:33.41	62.71	29.02	-31.4	-34.6	12.7	8.54e-05	0	43	0	520093696	23	5221
2026-01-29 08:51:36.42	61.73	29.14	-31.2	-34.0	13.2	2.82e-05	0	43	0	526385152	23	4963
2026-01-29 08:51:39.43	60.75	29.25	-31.4	-34.6	12.7	7.24e-05	0	43	0	531628032	23	5196
2026-01-29 08:51:42.45	59.75	29.34	-31.5	-34.9	12.6	1.08e-04	0	42	0	536870912	23	5308
2026-01-29 08:51:45.46	58.75	29.43	-31.7	-35.4	12.2	1.80e-04	0	43	0	543162368	23	5529
2026-01-29 08:51:48.47	57.75	29.51	-31.8	-35.7	12.1	3.46e-04	0	43	0	548405248	23	5634
2026-01-29 08:51:51.48	56.74	29.58	-31.9	-36.1	11.7	5.16e-04	0	43	0	554696704	23	5830
2026-01-29 08:51:54.50	55.72	29.64	-31.9	-36.1	11.7	3.84e-04	0	43	0	559939584	23	5838
2026-01-29 08:51:57.52	54.70	29.69	-32.1	-36.2	11.3	8.14e-04	0	43	0	565182464	24	5762
2026-01-29 08:52:00.52	53.69	29.72	-32.2	-36.6	11.0	1.53e-03	0	42	0	571473920	24	5947
2026-01-29 08:52:03.53	52.67	29.75	-32.1	-36.2	11.3	1.14e-03	0	42	0	576716800	24	5761
2026-01-29 08:52:06.53	51.65	29.77	-32.0	-36.0	11.4	9.02e-04	0	43	0	583008256	24	5674
2026-01-29 08:52:09.55	50.62	29.78	-31.8	-35.2	12.0	4.65e-04	0	42	0	588251136	24	5338
2026-01-29 08:52:12.55	49.60	29.78	-31.5	-34.5	12.5	1.33e-04	0	42	0	593494016	24	5054
2026-01-29 08:52:15.56	48.58	29.76	-31.5	-34.3	12.6	8.46e-05	0	43	0	599785472	24	4982
2026-01-29 08:52:18.56	47.56	29.74	-31.5	-34.3	12.6	8.16e-05	0	42	0	605028352	24	4999
2026-01-29 08:52:21.57	46.54	29.71	-31.1	-33.9	13.2	3.66e-05	0	43	0	610271232	23	4924
2026-01-29 08:52:24.57	45.53	29.67	-31.2	-34.1	13.0	3.28e-05	0	43	0	616562688	23	5013
2026-01-29 08:52:27.59	44.51	29.61	-31.4	-34.6	12.7	7.47e-05	0	43	0	621805568	23	5217
2026-01-29 08:52:30.60	43.50	29.55	-31.2	-34.1	13.1	6.94e-05	0	43	0	628097024	23	5022
2026-01-29 08:52:33.62	42.49	29.48	-31.0	-33.5	13.4	1.29e-05	0	43	0	633339904	23	4805
2026-01-29 08:52:36.63	41.49	29.40	-31.1	-33.8	13.3	1.52e-05	0	43	0	638582784	23	4905
2026-01-29 08:52:39.64	40.49	29.30	-31.2	-34.0	13.1	3.05e-05	0	43	0	644874240	23	4979
2026-01-29 08:52:42.64	39.51	29.20	-30.8	-33.0	13.8	6.10e-06	0	43	0	650117120	23	4640
2026-01-29 08:52:45.65	38.53	29.09	-31.1	-33.9	13.2	1.90e-05	0	43	0	656408576	23	4935
2026-01-29 08:52:48.66	37.55	28.97	-31.3	-34.5	12.7	5.95e-05	0	43	0	661651456	23	5170
2026-01-29 08:52:51.67	36.58	28.85	-31.6	-35.2	12.3	1.72e-04	0	43	0	666894336	23	5467
2026-01-29 08:52:54.69	35.62	28.71	-31.9	-36.2	11.5	4.94e-04	0	43	0	673185792	23	5886
2026-01-29 08:52:57.70	34.67	28.57	-31.5	-34.5	12.3	2.10e-04	0	43	0	678428672	24	5093
2026-01-29 08:53:00.71	33.72	28.41	-31.4	-34.3	12.5	1.15e-04	0	43	0	683671552	24	5001
2026-01-29 08:53:03.71	32.79	28.25	-31.5	-34.6	12.3	2.16e-04	0	42	0	689963008	24	5118
2026-01-29 08:53:06.73	31.87	28.09	-31.6	-34.8	12.1	2.61e-04	0	42	0	695205888	24	5204
2026-01-29 08:53:09.74	30.95	27.91	-31.7	-35.1	11.9	4.58e-04	0	42	0	701497344	24	5323
2026-01-29 08:53:12.76	30.04	27.73	-31.8	-35.6	11.5	8.98e-04	0	43	0	706740224	24	5518
2026-01-29 08:53:15.77	29.15	27.54	-31.5	-34.5	12.3	2.06e-04	0	43	0	711983104	24	5087
2026-01-29 08:53:18.78	28.27	27.35	-31.3	-34.1	12.6	9.38e-05	0	43	0	718274560	24	4916
2026-01-29 08:53:21.78	27.40	27.15	-31.4	-34.4	12.4	1.12e-04	0	43	0	723517440	24	5033
2026-01-29 08:53:24.79	26.54	26.94	-31.4	-34.3	12.4	1.44e-04	0	42	0	728760320	24	5028
2026-01-29 08:53:27.78	25.70	26.73	-31.4	-34.2	12.5	1.36e-04	0	43	0	735051776	24	4970
2026-01-29 08:53:30.79	24.86	26.52	-31.2	-34.1	12.9	6.02e-05	0	43	0	740294656	23	5032
2026-01-29 08:53:33.80	24.03	26.29	-31.5	-34.9	12.3	1.70e-04	0	43	0	746586112	23	5360
2026-01-29 08:53:36.80	23.22	26.07	-31.4	-34.6	12.5	1.23e-04	0	43	0	751828992	23	5249
2026-01-29 08:53:39.81	22.42	25.84	-31.5	-35.0	12.2	1.37e-04	0	43	0	757071872	23	5420
2026-01-29 08:53:42.82	21.63	25.60	-30.9	-33.4	13.2	3.66e-05	0	43	0	763363328	23	4791
2026-01-29 08:53:45.82	20.85	25.37	-30.9	-33.3	13.3	1.83e-05	0	43	0	768606208	23	4741
2026-01-29 08:53:48.83	20.08	25.13	-30.5	-32.7	14.0	3.00e-06	0	43	0	773849088	22	4642
2026-01-29 08:53:51.84	19.33	24.88	-30.6	-33.0	13.8	4.50e-06	0	43	0	780140544	22	4761
2026-01-29 08:53:54.86	18.58	24.63	-30.4	-32.6	14.0	3.80e-06	0	42	0	785383424	22	4622
2026-01-29 08:53:57.87	17.85	24.38	-30.2	-32.6	14.3	1.50e-06	0	43	0	791674880	21	4725
2026-01-29 08:54:00.87	17.13	24.13	-30.1	-32.2	14.6	0.00e+00	0	43	0	796917760	21	4587
2026-01-29 08:54:03.87	16.43	23.87	-29.7	-31.8	15.1	0.00e+00	0	43	0	802160640	20	4578
2026-01-29 08:54:06.88	15.73	23.62	-29.6	-31.6	15.3	0.00e+00	0	42	0	808452096	20	4500
2026-01-29 08:54:09.90	15.05	23.35	-29.6	-31.4	15.4	0.00e+00	0	43	0	813694976	20	4453
2026-01-29 08:54:12.91	14.37	23.09	-29.4	-31.1	15.5	0.00e+00	0	43	0	819986432	20	4358
2026-01-29 08:54:15.92	13.71	22.83	-29.7	-31.7	15.2	0.00e+00	0	43	0	825229312	20	4532
2026-01-29 08:54:18.94	13.06	22.56	-29.4	-31.6	15.6	0.00e+00	0	43	0	830472192	19	4601
2026-01-29 08:54:21.94	12.42	22.30	-29.3	-31.3	15.7	0.00e+00	0	43	0	836763648	19	4525
2026-01-29 08:54:24.95	11.79	22.03	-28.8	-30.1	16.4	0.00e+00	0	43	0	842006528	19	4169
2026-01-29 08:54:27.95	11.18	21.77	-28.9	-30.7	16.4	0.00e+00	0	43	0	847249408	18	4443
2026-01-29 08:54:30.97	10.57	21.50	-28.9	-30.8	16.3	0.00e+00	0	43	0	853540864	18	4493
2026-01-29 08:54:33.98	9.97	21.23	-29.1	-31.4	15.9	0.00e+00	0	43	0	858783744	18	4659
2026-01-29 08:54:36.99	9.39	20.96	-29.1	-31.3	16.0	0.00e+00	0	43	0	865075200	18	4636
2026-01-29 08:54:40.01	8.81	20.69	-29.3	-31.7	15.7	0.00e+00	0	43	0	870318080	18	4768
2026-01-29 08:54:43.02	8.24	20.42	-29.4	-32.1	15.5	0.00e+00	0	43	0	875560960	18	4896
2026-01-29 08:54:46.02	7.69	20.15	-29.5	-31.9	15.3	0.00e+00	0	43	0	881852416	19	4707
2026-01-29 08:54:49.03	7.15	19.88	-29.5	-31.9	15.3	0.00e+00	0	43	0	887095296	19	4718
2026-01-29 08:54:52.03	6.61	19.61	-29.7	-32.3	15.0	0.00e+00	0	43	0	892338176	19	4869
2026-01-29 08:54:55.05	6.08	19.34	-29.9	-32.7	14.7	0.00e+00	0	43	0	898629632	19	5008
2026-01-29 08:54:58.06	5.57	19.08	-29.9	-32.4	14.6	0.00e+00	0	43	0	903872512	20	4795
2026-01-29 08:55:01.07	5.06	18.81	-30.0	-32.6	14.4	0.00e+00	0	43	0	910163968	20	4875
2026-01-29 08:55:04.08	4.56	18.54	-30.1	-32.9	14.2	1.50e-06	0	43	0	915406848	20	4983
2026-01-29 08:55:07.10	4.07	18.27	-30.1	-32.8	14.3	1.50e-06	0	43	0	920649728	20	4930
2026-01-29 08:55:10.10	3.59	18.01	-30.0	-32.6	14.4	0.00e+00	0	43	0	926941184	20	4871
2026-01-29 08:55:13.11	3.12	17.74	-30.1	-33.0	14.1	2.20e-06	0	43	0	932184064	20	5012
2026-01-29 08:55:16.12	2.65	17.48	-30.3	-33.4	13.9	2.20e-06	0	42	0	938475520	20	5145
2026-01-29 08:55:19.13	2.20	17.21	-30.3	-33.4	13.8	7.00e-07	0	43	0	943718400	20	5138
2026-01-29 08:55:22.14	1.75	16.95	-30.3	-33.5	13.7	2.20e-06	0	43	0	948961280	20	5199
2026-01-29 08:55:25.13	1.31	16.69	-30.4	-33.7	13.6	6.80e-06	0	42	0	955252736	20	5274
2026-01-29 08:55:28.14	0.88	16.43	-30.5	-33.6	13.3	1.60e-05	0	43	0	960495616	21	5143
2026-01-29 08:55:31.16	0.45	16.17	-30.6	-33.9	13.2	1.83e-05	0	43	0	965738496	21	5235
2026-01-29 08:55:34.17	0.04	15.91	-30.7	-34.0	13.0	3.35e-05	0	43	0	972029952	21	5297
2026-01-29 08:55:37.17	359.63	15.66	-30.8	-34.2	12.9	4.57e-05	0	43	0	977272832	21	5377
2026-01-29 08:55:40.17	359.23	15.40	-30.9	-34.6	12.6	7.78e-05	0	43	0	983564288	21	5511
2026-01-29 08:55:43.18	358.83	15.15	-31.1	-34.8	12.2	1.86e-04	0	43	0	988807168	22	5489
2026-01-29 08:55:46.20	358.44	14.89	-31.2	-35.2	11.8	4.23e-04	0	43	0	994050048	22	5691
2026-01-29 08:55:49.22	358.06	14.64	-31.2	-35.1	11.9	5.10e-04	0	43	0	1000341504	22	5656
2026-01-29 08:55:52.22	357.68	14.39	-31.2	-35.2	11.8	4.36e-04	0	43	0	1005584384	22	5683
2026-01-29 08:55:55.23	357.31	14.14	-31.1	-34.8	12.1	3.84e-04	0	43	0	1010827264	22	5496
2026-01-29 08:55:58.25	356.95	13.89	-30.9	-34.2	12.4	1.18e-04	0	43	0	1017118720	22	5283
2026-01-29 08:56:01.26	356.59	13.65	-30.8	-34.1	12.5	8.92e-05	0	43	0	1022361600	22	5226
2026-01-29 08:56:04.27	356.24	13.40	-30.8	-33.9	12.6	6.86e-05	0	43	0	1028653056	22	5146
2026-01-29 08:56:07.28	355.90	13.16	-30.9	-34.3	12.4	1.56e-04	0	43	0	1033895936	22	5302
2026-01-29 08:56:10.29	355.56	12.92	-31.1	-34.8	12.0	3.49e-04	0	43	0	1039138816	22	5533
2026-01-29 08:56:13.28	355.23	12.68	-31.1	-35.0	11.8	4.93e-04	0	43	0	1045430272	22	5625
2026-01-29 08:56:16.29	354.90	12.44	-31.1	-35.0	11.8	4.87e-04	0	43	0	1050673152	22	5601
2026-01-29 08:56:19.29	354.58	12.20	-31.2	-35.2	11.6	6.45e-04	0	43	0	1055916032	22	5731
2026-01-29 08:56:22.31	354.26	11.96	-31.3	-35.4	11.4	1.17e-03	0	43	0	1062207488	22	5830
2026-01-29 08:56:25.32	353.95	11.73	-31.2	-35.2	11.6	6.87e-04	0	43	0	1067450368	22	5739
2026-01-29 08:56:28.33	353.64	11.49	-31.2	-35.3	11.5	8.15e-04	0	43	0	1073741824	22	5786
2026-01-29 08:56:31.34	353.34	11.26	-31.2	-35.3	11.4	9.07e-04	0	43	0	1078984704	22	5775
2026-01-29 08:56:34.35	353.04	11.03	-31.2	-35.4	11.4	9.30e-04	0	43	0	1084227584	22	5822
2026-01-29 08:56:37.37	352.75	10.80	-31.0	-34.7	11.8	5.17e-04	0	43	0	1090519040	22	5509
2026-01-29 08:56:40.37	352.46	10.57	-31.0	-34.6	11.9	3.94e-04	0	43	0	1095761920	22	5475
2026-01-29 08:56:43.40	352.18	10.34	-31.0	-34.9	11.6	6.82e-04	0	43	0	1102053376	22	5615
2026-01-29 08:56:46.41	351.90	10.12	-31.1	-35.0	11.5	7.16e-04	0	43	0	1107296256	22	5673
2026-01-29 08:56:49.42	351.63	9.89	-31.1	-35.2	11.4	9.50e-04	0	43	0	1112539136	22	5744
2026-01-29 08:56:52.42	351.36	9.67	-31.2	-35.4	11.2	1.52e-03	0	43	0	1118830592	22	5851
2026-01-29 08:56:55.43	351.09	9.45	-31.3	-35.7	10.9	1.58e-03	0	43	0	1124073472	22	6003
2026-01-29 08:56:58.45	350.83	9.23	-31.5	-36.4	10.4	3.20e-03	0	43	0	1129316352	22	6336
2026-01-29 08:57:01.45	350.58	9.01	-31.4	-35.7	10.6	3.67e-03	0	43	0	1135607808	23	5881
2026-01-29 08:57:04.46	350.32	8.79	-31.4	-35.6	10.6	3.49e-03	0	43	0	1140850688	23	5832
2026-01-29 08:57:07.47	350.07	8.58	-31.4	-35.8	10.4	4.13e-03	0	43	0	1147142144	23	5945
2026-01-29 08:57:10.49	349.83	8.36	-31.4	-35.7	10.5	4.14e-03	0	43	0	1152385024	23	5892
2026-01-29 08:57:13.50	349.59	8.15	-31.3	-35.5	10.5	3.84e-03	0	43	0	1157627904	23	5845
2026-01-29 08:57:16.51	349.35	7.94	-31.3	-35.5	10.5	3.75e-03	0	43	0	1163919360	23	5828
2026-01-29 08:57:19.52	349.12	7.73	-31.3	-35.6	10.4	4.55e-03	0	43	0	1169162240	23	5913
2026-01-29 08:57:22.53	348.88	7.52	-31.4	-35.8	10.3	5.25e-03	0	43	0	1175453696	23	5984
2026-01-29 08:57:25.54	348.66	7.31	-31.5	-36.4	9.8	8.12e-03	0	43	0	1180696576	23	6304
2026-01-29 08:57:28.55	348.43	7.10	-31.5	-36.3	9.9	8.78e-03	0	43	0	1185939456	23	6236

#Closed at: 2026-01-29 08:57:31
#Recorded file [1188 MB]: D:/data/31010_260129_114655.dat