passes_logs/2026/01/29/R2M6_AANII_01/R2M6_AANII_01__20260129_120815_NOAA_20_JPSS-1_rec.log

#Pass ID: 20260129_120815_NOAA 20 (JPSS-1)
#Satellite: NOAA 20 (JPSS-1)
#Configuration: NOAA 20
#almurnet v.1.7.20240730
#Start time: 2026-01-29 12:08:16

#Version: 2.2.20231116
#Station: R2M6_AANII_01
#Location: 30.233357 lon 59.946436 lat
#TLE: 1 43013U 17073A   26027.94683596  .00000137  00000+0  85741-4 0  9995
#TLE: 2 43013  98.7648 328.7503 0000940  21.3928 338.7287 14.19541154424576

#Time	Az	El	Level	Level2	SNR	BER	BlckErr	Temp	State	Recorded	gain1	gain2
2026-01-29 12:08:16.88	220.60	7.11	-31.5	-36.6	5.1	1.18e+00	0	38	0	0	24	6502
2026-01-29 12:08:19.89	220.92	7.29	-31.7	-37.5	7.9	8.58e-02	0	38	0	1048576	24	7017
2026-01-29 12:08:22.89	221.25	7.47	-31.5	-36.4	8.9	3.49e-02	0	39	0	7340032	24	6313
2026-01-29 12:08:25.89	221.57	7.65	-31.4	-35.9	9.4	1.88e-02	0	39	0	12582912	24	6041
2026-01-29 12:08:28.90	221.91	7.83	-31.2	-35.7	9.9	1.29e-02	0	39	0	17825792	23	6044
2026-01-29 12:08:31.91	222.24	8.01	-30.8	-34.3	11.0	2.20e-03	0	39	0	24117248	23	5354
2026-01-29 12:08:34.92	222.58	8.19	-30.8	-34.8	11.0	1.62e-03	0	39	0	29360128	22	5670
2026-01-29 12:08:37.92	222.93	8.37	-30.8	-34.6	11.2	1.37e-03	0	39	0	35651584	22	5579
2026-01-29 12:08:40.94	223.28	8.55	-30.8	-34.8	11.1	1.48e-03	0	39	0	40894464	22	5663
2026-01-29 12:08:43.93	223.63	8.73	-30.6	-34.1	11.5	6.61e-04	0	39	0	46137344	22	5392
2026-01-29 12:08:46.93	223.99	8.91	-30.5	-33.8	11.8	5.34e-04	0	39	0	52428800	22	5241
2026-01-29 12:08:49.94	224.35	9.09	-30.6	-34.0	11.7	7.23e-04	0	39	0	57671680	22	5320
2026-01-29 12:08:52.95	224.71	9.28	-30.5	-33.7	11.9	4.03e-04	0	39	0	62914560	22	5226
2026-01-29 12:08:55.96	225.09	9.46	-30.7	-34.4	11.5	5.49e-04	0	39	0	69206016	22	5489
2026-01-29 12:08:58.97	225.46	9.64	-30.4	-33.5	12.1	2.94e-04	0	40	0	74448896	22	5118
2026-01-29 12:09:01.97	225.84	9.83	-30.5	-33.7	12.0	3.78e-04	0	40	0	80740352	22	5187
2026-01-29 12:09:04.99	226.23	10.01	-30.5	-33.5	12.1	2.55e-04	0	39	0	85983232	22	5120
2026-01-29 12:09:07.99	226.61	10.20	-30.5	-33.7	12.1	2.90e-04	0	39	0	91226112	22	5169
2026-01-29 12:09:10.99	227.01	10.38	-30.6	-34.0	11.9	3.71e-04	0	40	0	97517568	22	5290
2026-01-29 12:09:14.00	227.41	10.57	-30.4	-33.3	12.3	1.51e-04	0	40	0	102760448	22	5018
2026-01-29 12:09:17.02	227.81	10.75	-30.3	-33.1	12.4	1.07e-04	0	40	0	108003328	22	4966
2026-01-29 12:09:20.03	228.22	10.94	-30.2	-33.3	12.6	8.62e-05	0	40	0	114294784	21	5142
2026-01-29 12:09:23.03	228.63	11.12	-30.2	-33.3	12.7	8.01e-05	0	40	0	119537664	21	5137
2026-01-29 12:09:26.04	229.05	11.31	-30.2	-33.3	12.7	9.53e-05	0	40	0	125829120	21	5132
2026-01-29 12:09:29.05	229.47	11.49	-30.3	-33.4	12.6	1.23e-04	0	40	0	131072000	21	5170
2026-01-29 12:09:32.06	229.90	11.68	-30.2	-33.2	12.8	6.63e-05	0	40	0	136314880	21	5087
2026-01-29 12:09:35.08	230.34	11.86	-30.2	-33.1	12.9	6.02e-05	0	40	0	142606336	21	5055
2026-01-29 12:09:38.09	230.78	12.05	-30.3	-33.4	12.7	9.38e-05	0	40	0	147849216	21	5171
2026-01-29 12:09:41.10	231.23	12.23	-30.3	-33.4	12.7	6.56e-05	0	40	0	154140672	21	5145
2026-01-29 12:09:44.10	231.67	12.42	-30.4	-33.8	12.4	9.46e-05	0	40	0	159383552	21	5297
2026-01-29 12:09:47.10	232.13	12.60	-30.6	-34.2	12.1	1.76e-04	0	40	0	164626432	21	5470
2026-01-29 12:09:50.11	232.59	12.78	-30.8	-34.9	11.6	4.87e-04	0	40	0	170917888	21	5786
2026-01-29 12:09:53.12	233.06	12.97	-30.9	-35.3	11.3	8.87e-04	0	40	0	176160768	21	5962
2026-01-29 12:09:56.13	233.53	13.15	-30.3	-33.4	12.8	9.23e-05	0	40	0	181403648	21	5140
2026-01-29 12:09:59.13	234.01	13.34	-30.5	-34.0	12.3	1.48e-04	0	40	0	187695104	21	5374
2026-01-29 12:10:02.14	234.49	13.52	-30.1	-32.8	13.2	2.82e-05	0	40	0	192937984	21	4926
2026-01-29 12:10:05.15	234.98	13.70	-30.1	-32.8	13.2	2.21e-05	0	40	0	199229440	21	4920
2026-01-29 12:10:08.16	235.48	13.88	-30.1	-32.9	13.2	2.13e-05	0	40	0	204472320	21	4953
2026-01-29 12:10:11.18	235.98	14.06	-30.3	-33.2	13.0	3.35e-05	0	40	0	209715200	21	5048
2026-01-29 12:10:14.18	236.49	14.24	-30.3	-33.4	12.8	5.87e-05	0	40	0	216006656	21	5148
2026-01-29 12:10:17.19	237.00	14.42	-30.4	-33.7	12.6	7.40e-05	0	40	0	221249536	21	5241
2026-01-29 12:10:20.19	237.52	14.60	-30.4	-33.6	12.7	7.32e-05	0	40	0	226492416	21	5212
2026-01-29 12:10:23.20	238.05	14.78	-30.5	-34.0	12.5	1.45e-04	0	40	0	232783872	21	5359
2026-01-29 12:10:26.21	238.58	14.96	-30.3	-33.2	13.1	3.96e-05	0	40	0	238026752	21	5028
2026-01-29 12:10:29.22	239.12	15.13	-30.1	-32.8	13.3	1.44e-05	0	41	0	244318208	21	4879
2026-01-29 12:10:32.23	239.66	15.31	-29.8	-32.0	13.9	2.20e-06	0	40	0	249561088	21	4605
2026-01-29 12:10:35.24	240.21	15.48	-29.6	-31.9	14.2	7.00e-07	0	40	0	254803968	20	4694
2026-01-29 12:10:38.24	240.77	15.65	-29.6	-31.9	14.3	1.50e-06	0	40	0	261095424	20	4669
2026-01-29 12:10:41.26	241.33	15.82	-29.5	-31.6	14.5	0.00e+00	0	40	0	266338304	20	4570
2026-01-29 12:10:44.27	241.90	15.99	-29.6	-31.7	14.4	0.00e+00	0	41	0	272629760	20	4626
2026-01-29 12:10:47.28	242.48	16.16	-29.7	-32.0	14.2	7.00e-07	0	40	0	277872640	20	4712
2026-01-29 12:10:50.29	243.06	16.33	-29.7	-32.0	14.2	3.00e-06	0	40	0	283115520	20	4715
2026-01-29 12:10:53.29	243.65	16.49	-29.4	-31.4	14.6	2.20e-06	0	41	0	289406976	20	4509
2026-01-29 12:10:56.30	244.24	16.65	-29.6	-31.7	14.5	7.00e-07	0	41	0	294649856	20	4617
2026-01-29 12:10:59.31	244.84	16.82	-29.7	-32.1	14.2	1.50e-06	0	40	0	299892736	20	4756
2026-01-29 12:11:02.32	245.45	16.97	-29.9	-32.7	13.8	4.50e-06	0	41	0	306184192	20	4966
2026-01-29 12:11:05.33	246.06	17.13	-30.0	-32.8	13.7	4.50e-06	0	40	0	311427072	20	4988
2026-01-29 12:11:08.33	246.68	17.29	-30.1	-33.0	13.6	1.22e-05	0	41	0	317718528	20	5071
2026-01-29 12:11:11.34	247.30	17.44	-30.0	-32.9	13.7	6.10e-06	0	41	0	322961408	20	5035
2026-01-29 12:11:14.36	247.94	17.59	-30.2	-33.3	13.6	5.30e-06	0	40	0	328204288	20	5155
2026-01-29 12:11:17.37	248.58	17.74	-30.1	-33.2	13.5	6.80e-06	0	40	0	334495744	20	5144
2026-01-29 12:11:20.39	249.22	17.88	-30.2	-33.5	13.4	1.44e-05	0	41	0	339738624	20	5248
2026-01-29 12:11:23.40	249.87	18.02	-30.5	-33.7	12.9	3.12e-05	0	40	0	346030080	21	5216
2026-01-29 12:11:26.40	250.52	18.16	-30.7	-34.2	12.6	1.28e-04	0	41	0	351272960	21	5414
2026-01-29 12:11:29.41	251.19	18.30	-30.7	-34.2	12.6	8.69e-05	0	41	0	356515840	21	5409
2026-01-29 12:11:32.41	251.85	18.43	-30.8	-34.6	12.3	1.75e-04	0	41	0	362807296	21	5561
2026-01-29 12:11:35.43	252.52	18.56	-30.8	-34.6	12.3	2.30e-04	0	41	0	368050176	21	5578
2026-01-29 12:11:38.43	253.20	18.69	-30.8	-34.5	12.4	2.04e-04	0	41	0	373293056	21	5537
2026-01-29 12:11:41.44	253.88	18.82	-30.6	-34.0	12.7	6.17e-05	0	41	0	379584512	21	5320
2026-01-29 12:11:44.45	254.57	18.94	-30.7	-34.2	12.6	1.07e-04	0	41	0	384827392	21	5410
2026-01-29 12:11:47.47	255.27	19.05	-30.8	-34.6	12.3	2.11e-04	0	41	0	391118848	21	5559
2026-01-29 12:11:50.48	255.97	19.17	-30.5	-33.7	12.9	5.18e-05	0	41	0	396361728	21	5219
2026-01-29 12:11:53.49	256.67	19.28	-30.5	-33.6	13.1	2.89e-05	0	41	0	401604608	21	5167
2026-01-29 12:11:56.49	257.38	19.38	-30.5	-33.8	12.9	5.34e-05	0	41	0	407896064	21	5232
2026-01-29 12:11:59.51	258.10	19.49	-30.5	-33.5	13.1	3.12e-05	0	41	0	413138944	21	5142
2026-01-29 12:12:02.52	258.81	19.58	-30.6	-34.0	12.8	5.64e-05	0	41	0	418381824	21	5305
2026-01-29 12:12:05.52	259.53	19.68	-30.7	-34.4	12.5	9.30e-05	0	41	0	424673280	21	5491
2026-01-29 12:12:08.53	260.26	19.77	-30.3	-33.2	13.3	2.51e-05	0	41	0	429916160	21	5004
2026-01-29 12:12:11.54	260.99	19.85	-30.4	-33.3	13.3	1.37e-05	0	41	0	436207616	21	5032
2026-01-29 12:12:14.54	261.72	19.94	-30.4	-33.3	13.3	1.44e-05	0	41	0	441450496	21	5036
2026-01-29 12:12:17.55	262.46	20.01	-30.3	-33.1	13.4	2.21e-05	0	40	0	446693376	21	4986
2026-01-29 12:12:20.56	263.21	20.08	-30.1	-32.6	13.8	4.50e-06	0	41	0	452984832	21	4804
2026-01-29 12:12:23.58	263.95	20.15	-29.9	-32.1	14.1	2.20e-06	0	41	0	458227712	21	4604
2026-01-29 12:12:26.58	264.70	20.22	-30.0	-32.3	14.0	3.80e-06	0	41	0	463470592	21	4678
2026-01-29 12:12:29.59	265.45	20.27	-30.1	-32.6	13.7	5.30e-06	0	41	0	469762048	21	4798
2026-01-29 12:12:32.58	266.20	20.33	-29.9	-32.1	14.1	1.50e-06	0	41	0	475004928	21	4619
2026-01-29 12:12:35.59	266.95	20.38	-30.1	-32.4	13.9	3.00e-06	0	41	0	481296384	21	4732
2026-01-29 12:12:38.61	267.72	20.42	-30.4	-33.4	13.3	1.06e-05	0	41	0	486539264	21	5075
2026-01-29 12:12:41.62	268.48	20.46	-30.7	-34.2	12.7	7.62e-05	0	40	0	491782144	21	5390
2026-01-29 12:12:44.61	269.23	20.49	-30.6	-33.9	12.9	5.41e-05	0	40	0	498073600	21	5247
2026-01-29 12:12:47.62	270.00	20.52	-30.3	-33.1	13.5	1.06e-05	0	41	0	503316480	21	4953
2026-01-29 12:12:50.62	270.76	20.55	-30.4	-33.4	13.3	1.67e-05	0	41	0	508559360	21	5090
2026-01-29 12:12:53.64	271.53	20.57	-30.8	-34.6	12.4	7.40e-05	0	41	0	514850816	21	5572
2026-01-29 12:12:56.64	272.29	20.58	-30.6	-34.0	12.9	5.34e-05	0	41	0	520093696	21	5297
2026-01-29 12:12:59.65	273.06	20.59	-30.5	-33.7	13.1	2.74e-05	0	41	0	526385152	21	5185
2026-01-29 12:13:02.66	273.83	20.59	-30.8	-34.5	12.5	7.78e-05	0	41	0	531628032	21	5516
2026-01-29 12:13:05.67	274.59	20.59	-30.9	-34.6	12.5	1.32e-04	0	41	0	536870912	21	5563
2026-01-29 12:13:08.68	275.36	20.59	-30.7	-34.3	12.8	6.33e-05	0	41	0	543162368	21	5404
2026-01-29 12:13:11.69	276.13	20.58	-30.5	-33.5	13.2	1.14e-05	0	41	0	548405248	21	5120
2026-01-29 12:13:14.69	276.89	20.56	-30.2	-32.8	13.6	5.30e-06	0	41	0	554696704	21	4857
2026-01-29 12:13:17.69	277.65	20.54	-30.1	-32.5	13.8	1.50e-06	0	40	0	559939584	21	4766
2026-01-29 12:13:20.69	278.41	20.51	-30.3	-33.2	13.4	9.90e-06	0	41	0	565182464	21	4999
2026-01-29 12:13:23.71	279.18	20.48	-30.6	-33.9	12.9	4.27e-05	0	41	0	571473920	21	5247
2026-01-29 12:13:26.70	279.93	20.44	-30.5	-33.7	13.1	2.67e-05	0	40	0	576716800	21	5200
2026-01-29 12:13:29.71	280.69	20.40	-30.6	-33.9	13.0	3.12e-05	0	40	0	581959680	21	5247
2026-01-29 12:13:32.71	281.45	20.36	-30.7	-34.1	12.8	3.96e-05	0	41	0	588251136	21	5339
2026-01-29 12:13:35.70	282.19	20.31	-30.8	-34.4	12.6	1.07e-04	0	41	0	593494016	21	5455
2026-01-29 12:13:38.70	282.94	20.25	-30.9	-34.7	12.4	1.98e-04	0	41	0	598736896	21	5601
2026-01-29 12:13:41.72	283.69	20.19	-30.7	-34.1	12.8	9.07e-05	0	41	0	605028352	21	5337
2026-01-29 12:13:44.74	284.44	20.12	-30.5	-33.7	13.1	3.28e-05	0	41	0	610271232	21	5199
2026-01-29 12:13:47.74	285.18	20.05	-30.7	-34.3	12.7	4.88e-05	0	40	0	616562688	21	5406
2026-01-29 12:13:50.74	285.92	19.98	-30.4	-33.3	13.3	1.75e-05	0	41	0	621805568	21	5047
2026-01-29 12:13:53.75	286.65	19.90	-30.1	-32.4	14.0	3.00e-06	0	41	0	627048448	21	4705
2026-01-29 12:13:56.75	287.38	19.82	-30.0	-32.2	14.0	2.20e-06	0	41	0	633339904	21	4653
2026-01-29 12:13:59.77	288.11	19.73	-29.6	-31.6	14.7	0.00e+00	0	40	0	638582784	20	4562
2026-01-29 12:14:02.77	288.83	19.64	-29.8	-32.3	14.3	1.50e-06	0	40	0	643825664	20	4774
2026-01-29 12:14:05.78	289.55	19.54	-30.2	-33.3	13.7	4.50e-06	0	41	0	650117120	20	5128
2026-01-29 12:14:08.79	290.26	19.44	-30.0	-32.7	14.1	1.50e-06	0	41	0	655360000	20	4919
2026-01-29 12:14:11.79	290.97	19.34	-29.9	-32.6	14.1	3.00e-06	0	41	0	661651456	20	4894
2026-01-29 12:14:14.80	291.68	19.23	-29.8	-32.3	14.3	7.00e-07	0	41	0	666894336	20	4780
2026-01-29 12:14:17.81	292.38	19.12	-29.7	-31.9	14.6	7.00e-07	0	41	0	672137216	20	4652
2026-01-29 12:14:20.82	293.07	19.01	-29.6	-31.6	14.7	0.00e+00	0	41	0	678428672	20	4562
2026-01-29 12:14:23.84	293.76	18.89	-29.7	-32.0	14.5	7.00e-07	0	41	0	683671552	20	4686
2026-01-29 12:14:26.84	294.44	18.77	-29.8	-32.1	14.3	2.20e-06	0	40	0	689963008	20	4741
2026-01-29 12:14:29.85	295.12	18.64	-29.5	-31.5	14.7	0.00e+00	0	41	0	695205888	20	4535
2026-01-29 12:14:32.86	295.80	18.52	-29.3	-31.0	15.0	0.00e+00	0	41	0	700448768	20	4388
2026-01-29 12:14:35.88	296.47	18.39	-29.2	-31.1	15.3	0.00e+00	0	41	0	706740224	19	4522
2026-01-29 12:14:38.88	297.13	18.25	-29.1	-31.0	15.3	0.00e+00	0	41	0	711983104	19	4486
2026-01-29 12:14:41.90	297.78	18.11	-29.2	-31.1	15.3	0.00e+00	0	41	0	717225984	19	4513
2026-01-29 12:14:44.91	298.43	17.97	-29.4	-31.6	15.0	0.00e+00	0	40	0	723517440	19	4676
2026-01-29 12:14:47.92	299.08	17.83	-29.5	-32.0	14.7	1.50e-06	0	41	0	728760320	19	4791
2026-01-29 12:14:50.94	299.72	17.69	-29.5	-32.0	14.7	7.00e-07	0	41	0	735051776	19	4797
2026-01-29 12:14:53.94	300.35	17.54	-29.9	-33.0	14.2	2.20e-06	0	41	0	740294656	19	5135
2026-01-29 12:14:56.94	300.97	17.39	-30.0	-32.8	13.8	8.30e-06	0	41	0	745537536	20	4992
2026-01-29 12:14:59.95	301.59	17.24	-29.9	-32.7	13.9	3.00e-06	0	41	0	751828992	20	4932
2026-01-29 12:15:02.95	302.20	17.08	-30.1	-33.0	13.7	9.10e-06	0	40	0	757071872	20	5068
2026-01-29 12:15:05.97	302.81	16.93	-30.1	-33.2	13.6	1.14e-05	0	41	0	762314752	20	5116
2026-01-29 12:15:08.98	303.42	16.77	-30.1	-33.0	13.6	9.90e-06	0	41	0	768606208	20	5075
2026-01-29 12:15:12.00	304.01	16.61	-30.2	-33.4	13.4	9.10e-06	0	41	0	773849088	20	5208
2026-01-29 12:15:15.01	304.60	16.44	-30.6	-34.1	12.6	7.17e-05	0	40	0	780140544	21	5380
2026-01-29 12:15:18.02	305.19	16.28	-30.6	-34.0	12.7	8.01e-05	0	40	0	785383424	21	5326
2026-01-29 12:15:21.03	305.76	16.11	-30.4	-33.6	12.9	6.25e-05	0	41	0	790626304	21	5187
2026-01-29 12:15:24.05	306.33	15.95	-30.4	-33.6	12.9	5.79e-05	0	41	0	796917760	21	5180
2026-01-29 12:15:27.05	306.90	15.78	-30.5	-33.8	12.7	7.93e-05	0	40	0	802160640	21	5280
2026-01-29 12:15:30.07	307.46	15.61	-30.6	-34.2	12.5	1.26e-04	0	41	0	808452096	21	5432
2026-01-29 12:15:33.08	308.01	15.44	-30.5	-33.8	12.7	1.15e-04	0	41	0	813694976	21	5263
2026-01-29 12:15:36.10	308.56	15.26	-30.1	-32.7	13.4	1.67e-05	0	41	0	818937856	21	4856
2026-01-29 12:15:39.11	309.09	15.09	-30.1	-32.7	13.4	1.06e-05	0	41	0	825229312	21	4853
2026-01-29 12:15:42.13	309.63	14.92	-30.1	-32.7	13.5	1.52e-05	0	40	0	830472192	21	4836
2026-01-29 12:15:45.14	310.16	14.74	-30.2	-32.9	13.3	1.52e-05	0	41	0	836763648	21	4908
2026-01-29 12:15:48.14	310.68	14.56	-30.7	-34.3	12.4	1.16e-04	0	41	0	842006528	21	5458
2026-01-29 12:15:51.16	311.19	14.39	-30.9	-35.0	11.9	4.03e-04	0	41	0	847249408	21	5768
2026-01-29 12:15:54.16	311.70	14.21	-30.5	-33.8	12.7	8.62e-05	0	41	0	853540864	21	5260
2026-01-29 12:15:57.16	312.20	14.03	-30.4	-33.7	12.7	8.08e-05	0	41	0	858783744	21	5226
2026-01-29 12:16:00.18	312.70	13.85	-30.4	-33.5	12.6	7.78e-05	0	41	0	864026624	21	5174
2026-01-29 12:16:03.19	313.19	13.67	-30.4	-33.7	12.7	8.92e-05	0	41	0	870318080	21	5222
2026-01-29 12:16:06.19	313.68	13.49	-30.0	-32.5	13.5	1.60e-05	0	41	0	875560960	21	4785
2026-01-29 12:16:09.20	314.16	13.31	-30.0	-32.5	13.4	1.22e-05	0	41	0	881852416	21	4804
2026-01-29 12:16:12.21	314.63	13.13	-30.2	-33.1	13.0	5.26e-05	0	41	0	887095296	21	5017
2026-01-29 12:16:15.23	315.10	12.94	-30.1	-32.7	13.4	1.60e-05	0	41	0	892338176	21	4865
2026-01-29 12:16:18.24	315.56	12.76	-29.9	-32.2	13.5	1.22e-05	0	41	0	898629632	21	4704
2026-01-29 12:16:21.25	316.02	12.58	-29.9	-32.2	13.3	1.90e-05	0	41	0	903872512	21	4705
2026-01-29 12:16:24.24	316.47	12.40	-30.1	-32.9	13.0	4.11e-05	0	41	0	909115392	21	4957
2026-01-29 12:16:27.26	316.92	12.21	-30.2	-32.9	13.1	3.89e-05	0	41	0	915406848	21	4959
2026-01-29 12:16:30.27	317.36	12.03	-30.1	-32.7	13.3	1.60e-05	0	41	0	920649728	21	4852
2026-01-29 12:16:33.29	317.80	11.85	-30.1	-32.6	13.3	1.75e-05	0	41	0	926941184	21	4846
2026-01-29 12:16:36.30	318.23	11.66	-30.4	-33.5	12.6	7.78e-05	0	40	0	932184064	21	5182
2026-01-29 12:16:39.30	318.65	11.48	-30.4	-33.7	12.6	1.19e-04	0	41	0	937426944	21	5234
2026-01-29 12:16:42.31	319.07	11.30	-30.4	-33.7	12.5	1.16e-04	0	41	0	943718400	21	5257
2026-01-29 12:16:45.32	319.49	11.11	-30.3	-33.2	12.9	4.73e-05	0	41	0	948961280	21	5071
2026-01-29 12:16:48.34	319.90	10.93	-30.4	-33.8	12.5	9.53e-05	0	41	0	955252736	21	5286
2026-01-29 12:16:51.35	320.31	10.75	-30.5	-33.8	12.4	1.50e-04	0	41	0	960495616	21	5315
2026-01-29 12:16:54.35	320.71	10.56	-30.5	-33.9	12.3	2.08e-04	0	41	0	965738496	21	5342
2026-01-29 12:16:57.36	321.10	10.38	-30.3	-33.5	12.7	6.48e-05	0	41	0	972029952	21	5163
2026-01-29 12:17:00.38	321.49	10.20	-30.5	-34.0	12.3	1.68e-04	0	41	0	977272832	21	5368
2026-01-29 12:17:03.40	321.88	10.01	-30.7	-34.6	11.9	4.03e-04	0	41	0	982515712	21	5643
2026-01-29 12:17:06.42	322.27	9.83	-30.8	-35.0	11.5	8.48e-04	0	41	0	988807168	21	5841
2026-01-29 12:17:09.43	322.64	9.65	-30.8	-35.0	11.6	6.68e-04	0	41	0	994050048	21	5823
2026-01-29 12:17:12.45	323.02	9.47	-30.7	-34.7	11.8	4.28e-04	0	41	0	1000341504	21	5665
2026-01-29 12:17:15.45	323.38	9.29	-30.8	-35.0	11.5	7.21e-04	0	41	0	1005584384	21	5814
2026-01-29 12:17:18.46	323.75	9.11	-30.9	-35.2	11.4	1.10e-03	0	40	0	1010827264	21	5926
2026-01-29 12:17:21.47	324.11	8.93	-30.9	-35.2	11.3	9.06e-04	0	41	0	1017118720	21	5948
2026-01-29 12:17:24.48	324.46	8.75	-30.7	-34.6	11.8	5.55e-04	0	41	0	1022361600	21	5667
2026-01-29 12:17:27.47	324.81	8.57	-30.8	-34.9	11.6	7.31e-04	0	41	0	1027604480	21	5796
2026-01-29 12:17:30.47	325.16	8.39	-31.0	-35.5	11.1	1.36e-03	0	41	0	1033895936	21	6093
2026-01-29 12:17:33.48	325.50	8.21	-31.1	-35.6	10.7	2.84e-03	0	41	0	1039138816	22	6007
2026-01-29 12:17:36.48	325.84	8.03	-31.1	-35.5	10.8	2.55e-03	0	41	0	1045430272	22	5952
2026-01-29 12:17:39.50	326.18	7.85	-31.1	-35.4	10.7	2.34e-03	0	41	0	1050673152	22	5951
2026-01-29 12:17:42.50	326.51	7.67	-31.1	-35.4	10.8	3.19e-03	0	41	0	1055916032	22	5932
2026-01-29 12:17:45.51	326.83	7.50	-31.1	-35.6	10.6	3.24e-03	0	41	0	1062207488	22	6023
2026-01-29 12:17:48.51	327.16	7.32	-31.1	-35.7	10.5	5.20e-03	0	41	0	1067450368	22	6069
2026-01-29 12:17:51.52	327.47	7.14	-31.0	-35.2	10.9	2.53e-03	0	41	0	1073741824	22	5827

#Closed at: 2026-01-29 12:17:54
#Recorded file [1074 MB]: D:/data/31010_260129_150818.dat