passes_logs/2026/01/29/R2M6_AANII_01/R2M6_AANII_01__20260129_235353_SUOMI_NPP_rec.log

#Pass ID: 20260129_235353_SUOMI NPP
#Satellite: SUOMI NPP
#Configuration: NPP
#almurnet v.1.7.20240730
#Start time: 2026-01-29 23:53:53

#Version: 2.2.20231116
#Station: R2M6_AANII_01
#Location: 30.233357 lon 59.946436 lat
#TLE: 1 37849U 11061A   26028.91916408  .00000155  00000+0  94467-4 0  9990
#TLE: 2 37849  98.7824 330.8488 0002045  39.4457 320.6868 14.19531289738686

#Time	Az	El	Level	Level2	SNR	BER	BlckErr	Temp	State	Recorded	gain1	gain2
2026-01-29 23:53:53.79	21.18	7.02	-30.9	-34.8	5.3	1.24e+00	0	41	0	0	21	5619
2026-01-29 23:53:56.79	21.28	7.24	-31.3	-35.6	8.4	4.27e-02	0	41	0	1048576	22	5940
2026-01-29 23:53:59.80	21.38	7.47	-31.2	-35.0	8.9	2.98e-02	0	41	0	7340032	22	5617
2026-01-29 23:54:02.81	21.49	7.70	-30.8	-34.4	9.7	1.77e-02	0	41	0	12582912	21	5425
2026-01-29 23:54:05.82	21.59	7.94	-30.5	-33.2	10.6	5.45e-03	0	41	0	17825792	21	4912
2026-01-29 23:54:08.83	21.70	8.17	-30.6	-33.5	10.4	5.06e-03	0	41	0	24117248	21	5048
2026-01-29 23:54:11.85	21.80	8.41	-30.5	-33.1	10.8	3.81e-03	0	41	0	29360128	21	4875
2026-01-29 23:54:14.87	21.91	8.65	-30.5	-33.6	10.8	2.33e-03	0	41	0	35651584	20	5153
2026-01-29 23:54:17.88	22.02	8.89	-30.5	-33.5	10.9	2.01e-03	0	41	0	40894464	20	5117
2026-01-29 23:54:20.89	22.14	9.14	-30.7	-33.7	10.4	4.26e-03	0	42	0	46137344	21	5077
2026-01-29 23:54:23.91	22.25	9.39	-30.5	-33.2	10.8	2.32e-03	0	42	0	52428800	21	4877
2026-01-29 23:54:26.92	22.37	9.64	-30.7	-33.7	10.5	3.85e-03	0	42	0	57671680	21	5097
2026-01-29 23:54:29.93	22.48	9.89	-30.4	-33.2	11.2	1.52e-03	0	42	0	63963136	20	4982
2026-01-29 23:54:32.94	22.60	10.14	-30.4	-33.0	11.4	8.71e-04	0	42	0	69206016	20	4894
2026-01-29 23:54:35.94	22.72	10.40	-30.1	-32.4	11.7	4.07e-04	0	42	0	74448896	20	4664
2026-01-29 23:54:38.94	22.85	10.66	-30.0	-32.1	11.6	4.58e-04	0	42	0	80740352	20	4544
2026-01-29 23:54:41.96	22.97	10.92	-30.0	-31.8	12.3	1.98e-04	0	42	0	85983232	20	4456
2026-01-29 23:54:44.97	23.10	11.18	-30.1	-32.2	12.0	2.59e-04	0	42	0	91226112	20	4590
2026-01-29 23:54:47.98	23.23	11.45	-30.0	-32.3	12.5	7.10e-04	0	42	0	97517568	19	4688
2026-01-29 23:54:50.98	23.36	11.72	-30.1	-32.1	12.1	7.12e-04	0	42	0	102760448	20	4552
2026-01-29 23:54:53.98	23.49	11.99	-29.9	-32.0	12.7	7.24e-05	0	42	0	109051904	19	4587
2026-01-29 23:54:56.99	23.63	12.27	-29.8	-31.7	12.9	9.15e-05	0	42	0	114294784	19	4486
2026-01-29 23:54:59.99	23.77	12.55	-29.7	-31.4	13.0	3.35e-05	0	42	0	119537664	19	4396
2026-01-29 23:55:03.00	23.91	12.83	-29.7	-31.3	13.1	3.96e-05	0	42	0	125829120	19	4366
2026-01-29 23:55:06.00	24.05	13.11	-29.6	-31.1	13.2	1.08e-03	0	42	0	131072000	19	4303
2026-01-29 23:55:09.01	24.19	13.40	-29.6	-31.1	13.2	1.20e-03	0	43	0	136314880	19	4298
2026-01-29 23:55:12.02	24.34	13.69	-29.6	-31.3	13.2	1.36e-03	0	43	0	142606336	19	4340
2026-01-29 23:55:15.03	24.49	13.99	-29.6	-31.1	13.3	1.81e-03	0	42	0	147849216	19	4295
2026-01-29 23:55:18.04	24.65	14.29	-29.5	-30.9	13.5	1.70e-03	0	43	0	154140672	19	4226
2026-01-29 23:55:21.04	24.80	14.59	-29.6	-31.1	13.4	9.32e-04	0	43	0	159383552	19	4275
2026-01-29 23:55:24.05	24.96	14.90	-29.5	-31.3	13.6	3.94e-04	0	42	0	164626432	18	4439
2026-01-29 23:55:27.06	25.12	15.21	-29.5	-31.3	13.6	2.30e-04	0	43	0	170917888	18	4423
2026-01-29 23:55:30.08	25.29	15.52	-29.4	-31.0	13.8	3.16e-04	0	43	0	176160768	18	4351
2026-01-29 23:55:33.08	25.46	15.84	-29.3	-30.8	14.0	3.18e-04	0	43	0	181403648	18	4272
2026-01-29 23:55:36.09	25.63	16.16	-29.3	-30.7	14.1	4.04e-04	0	43	0	187695104	18	4234
2026-01-29 23:55:39.09	25.81	16.48	-29.1	-30.4	14.2	4.47e-04	0	43	0	192937984	18	4147
2026-01-29 23:55:42.10	25.99	16.81	-29.2	-30.6	14.1	4.76e-04	0	43	0	199229440	18	4208
2026-01-29 23:55:45.11	26.17	17.15	-29.3	-30.8	14.0	8.37e-04	0	43	0	204472320	18	4265
2026-01-29 23:55:48.12	26.35	17.49	-29.3	-30.7	14.1	1.75e-03	0	43	0	209715200	18	4228
2026-01-29 23:55:51.14	26.55	17.83	-29.3	-30.7	14.1	1.40e-03	0	43	0	216006656	18	4253
2026-01-29 23:55:54.15	26.74	18.18	-29.2	-30.5	14.3	4.06e-04	0	43	0	221249536	18	4188
2026-01-29 23:55:57.16	26.94	18.53	-29.1	-30.2	14.5	3.78e-04	0	43	0	227540992	18	4078
2026-01-29 23:56:00.17	27.14	18.89	-28.9	-29.8	14.7	3.13e-04	0	43	0	232783872	18	3966
2026-01-29 23:56:03.18	27.35	19.25	-28.8	-29.5	14.9	0.00e+00	0	43	0	238026752	18	3880
2026-01-29 23:56:06.19	27.56	19.62	-28.5	-29.1	15.4	0.00e+00	0	43	0	244318208	17	3872
2026-01-29 23:56:09.20	27.78	19.99	-28.6	-29.4	15.2	0.00e+00	0	43	0	249561088	17	3968
2026-01-29 23:56:12.20	28.00	20.36	-28.7	-29.6	15.1	0.00e+00	0	43	0	254803968	17	4023
2026-01-29 23:56:15.23	28.23	20.75	-28.9	-30.1	14.8	2.39e-04	0	43	0	261095424	17	4150
2026-01-29 23:56:18.22	28.46	21.13	-29.0	-29.9	14.8	0.00e+00	0	43	0	266338304	18	3986
2026-01-29 23:56:21.24	28.70	21.53	-28.7	-29.6	15.2	0.00e+00	0	43	0	272629760	17	3999
2026-01-29 23:56:24.25	28.95	21.93	-28.7	-29.6	15.2	0.00e+00	0	43	0	277872640	17	3998
2026-01-29 23:56:27.25	29.20	22.33	-28.7	-29.6	15.2	0.00e+00	0	43	0	283115520	17	4009
2026-01-29 23:56:30.27	29.46	22.75	-28.7	-29.6	15.3	0.00e+00	0	43	0	289406976	17	3991
2026-01-29 23:56:33.27	29.72	23.16	-28.6	-29.4	15.3	0.00e+00	0	43	0	294649856	17	3946
2026-01-29 23:56:36.29	29.99	23.59	-28.5	-29.1	15.5	0.00e+00	0	43	0	300941312	17	3880
2026-01-29 23:56:39.29	30.27	24.02	-28.3	-29.3	15.7	1.82e-04	0	43	0	306184192	16	4013
2026-01-29 23:56:42.30	30.55	24.46	-28.8	-29.8	15.2	0.00e+00	0	43	0	311427072	17	4050
2026-01-29 23:56:45.31	30.85	24.90	-28.3	-29.1	15.8	0.00e+00	0	43	0	317718528	16	3972
2026-01-29 23:56:48.32	31.15	25.35	-28.1	-28.7	16.1	0.00e+00	0	43	0	322961408	16	3845
2026-01-29 23:56:51.33	31.46	25.81	-28.3	-29.1	15.9	0.00e+00	0	43	0	328204288	16	3950
2026-01-29 23:56:54.35	31.77	26.27	-28.2	-29.0	16.0	3.20e-05	0	43	0	334495744	16	3921
2026-01-29 23:56:57.35	32.10	26.74	-28.2	-28.8	16.1	1.25e-04	0	43	0	339738624	16	3872
2026-01-29 23:57:00.37	32.44	27.23	-28.1	-28.7	16.2	1.67e-04	0	43	0	346030080	16	3847
2026-01-29 23:57:03.38	32.78	27.71	-28.5	-29.0	15.7	1.87e-04	0	43	0	351272960	17	3844
2026-01-29 23:57:06.38	33.14	28.21	-28.7	-29.6	15.4	0.00e+00	0	43	0	356515840	17	3995
2026-01-29 23:57:09.38	33.51	28.71	-29.2	-30.3	14.7	0.00e+00	0	43	0	362807296	18	4096
2026-01-29 23:57:12.39	33.89	29.22	-29.6	-30.9	14.0	1.72e-04	0	43	0	368050176	19	4173
2026-01-29 23:57:15.40	34.28	29.74	-29.9	-31.2	13.4	1.58e-04	0	43	0	374341632	20	4188
2026-01-29 23:57:18.41	34.68	30.26	-30.3	-32.4	12.7	1.57e-04	0	43	0	379584512	20	4548
2026-01-29 23:57:21.41	35.10	30.80	-30.6	-32.6	12.2	3.47e-04	0	43	0	384827392	21	4554
2026-01-29 23:57:24.42	35.53	31.34	-31.0	-33.2	11.5	1.12e-03	0	43	0	391118848	22	4650
2026-01-29 23:57:27.43	35.97	31.89	-30.9	-32.9	11.6	5.31e-04	0	43	0	396361728	22	4563
2026-01-29 23:57:30.43	36.43	32.45	-30.8	-33.1	11.9	7.05e-04	0	43	0	401604608	21	4691
2026-01-29 23:57:33.44	36.90	33.02	-31.1	-33.6	11.4	1.28e-03	0	43	0	407896064	22	4784
2026-01-29 23:57:36.43	37.39	33.60	-30.5	-31.8	12.5	2.55e-04	0	43	0	413138944	22	4188
2026-01-29 23:57:39.44	37.90	34.18	-30.5	-32.3	12.5	1.30e-04	0	43	0	418381824	21	4423
2026-01-29 23:57:42.46	38.43	34.78	-30.4	-31.9	12.8	1.14e-04	0	43	0	424673280	21	4284
2026-01-29 23:57:45.47	38.98	35.39	-30.3	-31.8	12.9	6.17e-05	0	43	0	429916160	21	4247
2026-01-29 23:57:48.48	39.55	36.00	-30.1	-31.2	13.3	1.75e-05	0	43	0	436207616	21	4060
2026-01-29 23:57:51.48	40.13	36.62	-30.0	-30.8	13.5	4.50e-06	0	43	0	441450496	21	3943
2026-01-29 23:57:54.48	40.74	37.25	-29.9	-31.1	13.7	3.80e-06	0	43	0	446693376	20	4140
2026-01-29 23:57:57.48	41.38	37.89	-30.3	-32.2	13.0	3.81e-05	0	43	0	452984832	20	4464
2026-01-29 23:58:00.48	42.03	38.53	-31.1	-33.5	11.4	1.09e-03	0	43	0	458227712	22	4749
2026-01-29 23:58:03.49	42.72	39.19	-30.4	-31.5	12.8	1.78e-04	0	43	0	463470592	22	4083
2026-01-29 23:58:06.49	43.43	39.85	-29.6	-30.3	14.3	0.00e+00	0	43	0	469762048	20	3897
2026-01-29 23:58:09.51	44.18	40.53	-29.3	-29.8	15.0	7.00e-07	0	43	0	475004928	19	3854
2026-01-29 23:58:12.51	44.95	41.20	-29.6	-30.7	14.5	0.00e+00	0	43	0	481296384	19	4091
2026-01-29 23:58:15.52	45.76	41.89	-30.0	-31.3	13.5	6.10e-06	0	43	0	486539264	20	4188
2026-01-29 23:58:18.53	46.60	42.58	-29.6	-30.8	14.3	7.00e-07	0	43	0	491782144	19	4107
2026-01-29 23:58:21.54	47.48	43.28	-29.7	-31.0	14.3	7.00e-07	0	43	0	498073600	19	4180
2026-01-29 23:58:24.55	48.40	43.99	-30.1	-31.7	13.4	3.80e-06	0	43	0	503316480	20	4289
2026-01-29 23:58:27.56	49.36	44.70	-30.2	-31.8	13.4	7.60e-06	0	43	0	509607936	20	4321
2026-01-29 23:58:30.57	50.36	45.41	-30.8	-33.1	12.1	1.19e-04	0	43	0	514850816	21	4689
2026-01-29 23:58:33.59	51.42	46.13	-30.7	-32.3	12.4	1.17e-04	0	43	0	520093696	22	4323
2026-01-29 23:58:36.60	52.51	46.85	-31.3	-33.9	11.3	7.23e-04	0	43	0	526385152	22	4887
2026-01-29 23:58:39.61	53.66	47.57	-32.2	-36.1	9.0	1.97e-02	0	43	0	531628032	24	5645
2026-01-29 23:58:42.62	54.86	48.28	-32.6	-37.2	7.8	7.08e-02	0	43	0	536870912	25	6131
2026-01-29 23:58:45.64	56.12	49.00	-31.6	-34.1	10.4	6.78e-03	0	43	0	543162368	24	4774
2026-01-29 23:58:48.65	57.44	49.71	-31.7	-34.8	10.3	3.31e-03	0	43	0	548405248	23	5130
2026-01-29 23:58:51.66	58.82	50.42	-30.6	-31.8	12.8	2.55e-04	0	43	0	554696704	22	4152
2026-01-29 23:58:54.68	60.27	51.12	-30.4	-31.8	13.2	6.63e-05	0	43	0	559939584	21	4238
2026-01-29 23:58:57.68	61.78	51.81	-30.8	-32.5	12.3	2.32e-04	0	43	0	565182464	22	4374
2026-01-29 23:59:00.69	63.36	52.49	-30.8	-32.4	12.5	1.62e-04	0	43	0	571473920	22	4324
2026-01-29 23:59:03.70	65.02	53.16	-30.0	-30.9	13.7	5.79e-05	0	43	0	576716800	21	3964
2026-01-29 23:59:06.72	66.76	53.81	-29.5	-30.4	14.8	0.00e+00	0	43	0	583008256	19	3989
2026-01-29 23:59:09.72	68.57	54.44	-30.0	-31.2	14.0	1.35e-04	0	43	0	588251136	20	4124
2026-01-29 23:59:12.73	70.46	55.05	-30.2	-31.3	13.6	1.67e-05	0	43	0	593494016	21	4077
2026-01-29 23:59:15.73	72.42	55.63	-29.6	-30.2	14.6	7.00e-07	0	43	0	599785472	20	3852
2026-01-29 23:59:18.74	74.48	56.18	-29.6	-30.3	14.5	7.00e-07	0	43	0	605028352	20	3867
2026-01-29 23:59:21.74	76.60	56.71	-30.3	-31.4	13.4	3.39e-04	0	43	0	610271232	21	4116
2026-01-29 23:59:24.74	78.81	57.19	-30.0	-31.2	14.1	3.89e-05	0	43	0	616562688	20	4125
2026-01-29 23:59:27.74	81.09	57.65	-31.0	-32.8	12.2	4.35e-04	0	43	0	621805568	22	4455
2026-01-29 23:59:30.76	83.46	58.06	-30.3	-31.0	13.5	5.11e-05	0	43	0	628097024	22	3906
2026-01-29 23:59:33.76	85.89	58.43	-30.3	-31.5	13.4	2.21e-05	0	43	0	633339904	21	4127
2026-01-29 23:59:36.77	88.39	58.75	-31.8	-34.8	10.4	4.28e-03	0	43	0	638582784	23	5113
2026-01-29 23:59:39.79	90.95	59.02	-31.4	-34.1	11.5	7.67e-04	0	43	0	644874240	22	4922
2026-01-29 23:59:42.81	93.56	59.24	-31.8	-34.8	10.6	1.81e-03	0	43	0	650117120	23	5107
2026-01-29 23:59:45.82	96.20	59.41	-30.8	-32.4	12.6	4.60e-04	0	43	0	655360000	22	4310
2026-01-29 23:59:48.82	98.86	59.52	-30.6	-32.4	13.0	2.27e-04	0	43	0	661651456	21	4414
2026-01-29 23:59:51.84	101.56	59.57	-31.2	-33.6	11.8	8.65e-04	0	43	0	666894336	22	4729
2026-01-29 23:59:54.85	104.25	59.57	-29.9	-30.8	14.3	2.20e-06	0	43	0	673185792	20	4010
2026-01-29 23:59:57.87	106.95	59.51	-29.9	-31.0	14.3	9.10e-06	0	43	0	678428672	20	4057
2026-01-30 00:00:00.88	109.62	59.40	-30.4	-32.3	13.3	5.30e-06	0	43	0	683671552	20	4489
2026-01-30 00:00:03.89	112.26	59.23	-31.1	-33.2	12.2	9.07e-05	0	43	0	689963008	22	4593
2026-01-30 00:00:06.90	114.86	59.01	-30.2	-31.2	13.7	3.80e-06	0	43	0	695205888	21	4024
2026-01-30 00:00:09.90	117.41	58.73	-31.2	-33.5	11.9	3.13e-04	0	43	0	701497344	22	4708
2026-01-30 00:00:12.92	119.91	58.41	-31.6	-34.1	11.1	1.28e-03	0	43	0	706740224	23	4830
2026-01-30 00:00:15.92	122.34	58.04	-29.9	-30.3	14.3	6.80e-06	0	43	0	711983104	21	3772
2026-01-30 00:00:18.93	124.70	57.62	-29.9	-30.9	14.3	3.80e-06	0	43	0	718274560	20	4027
2026-01-30 00:00:21.94	126.99	57.17	-28.3	-28.6	16.5	0.00e+00	0	44	0	723517440	17	3685
2026-01-30 00:00:24.96	129.21	56.67	-28.5	-28.9	16.3	0.00e+00	0	43	0	728760320	17	3790
2026-01-30 00:00:27.96	131.33	56.15	-28.3	-28.9	16.6	0.00e+00	0	43	0	735051776	16	3871
2026-01-30 00:00:30.97	133.38	55.59	-27.9	-28.5	17.0	1.09e-03	0	43	0	740294656	15	3883
2026-01-30 00:00:33.99	135.36	55.00	-28.3	-28.5	16.5	1.32e-03	0	43	0	746586112	17	3668
2026-01-30 00:00:37.00	137.25	54.39	-28.8	-29.7	15.9	1.05e-03	0	43	0	751828992	17	3988
2026-01-30 00:00:40.01	139.06	53.76	-30.0	-31.1	14.0	7.00e-07	0	43	0	757071872	20	4116
2026-01-30 00:00:43.02	140.79	53.10	-29.8	-31.1	14.5	6.10e-06	0	43	0	763363328	19	4199
2026-01-30 00:00:46.02	142.44	52.44	-28.1	-28.6	16.7	1.93e-03	0	43	0	768606208	16	3803
2026-01-30 00:00:49.04	144.03	51.75	-29.0	-30.1	15.7	1.38e-03	0	43	0	774897664	17	4103
2026-01-30 00:00:52.05	145.54	51.06	-29.1	-29.9	15.4	1.07e-03	0	43	0	780140544	18	3941
2026-01-30 00:00:55.05	146.98	50.36	-29.6	-30.7	14.6	3.20e-04	0	43	0	785383424	19	4063
2026-01-30 00:00:58.05	148.35	49.65	-30.7	-32.5	12.8	1.67e-05	0	43	0	791674880	21	4441
2026-01-30 00:01:01.06	149.67	48.93	-32.7	-37.2	7.5	1.95e-01	0	43	0	796917760	26	6049
2026-01-30 00:01:04.06	150.92	48.22	-32.2	-36.0	9.2	1.42e-02	0	43	0	802160640	24	5548
2026-01-30 00:01:07.07	152.12	47.50	-31.9	-35.1	9.9	8.70e-03	0	43	0	808452096	24	5160
2026-01-30 00:01:10.08	153.27	46.77	-30.5	-31.5	13.0	4.47e-04	0	43	0	813694976	22	4051
2026-01-30 00:01:13.09	154.36	46.05	-30.6	-32.3	12.9	6.94e-05	0	43	0	819986432	21	4382
2026-01-30 00:01:16.10	155.41	45.33	-29.3	-29.8	15.2	0.00e+00	0	43	0	825229312	19	3821
2026-01-30 00:01:19.12	156.42	44.62	-31.4	-34.2	11.4	1.05e-03	0	44	0	830472192	22	4966
2026-01-30 00:01:22.14	157.38	43.90	-30.3	-31.4	13.5	8.30e-06	0	43	0	836763648	21	4120
2026-01-30 00:01:25.14	158.29	43.20	-30.0	-31.3	13.8	5.30e-06	0	43	0	842006528	20	4169
2026-01-30 00:01:28.15	159.17	42.49	-30.2	-31.2	13.6	1.14e-05	0	44	0	847249408	21	4052
2026-01-30 00:01:31.16	160.01	41.80	-30.1	-31.7	13.6	1.22e-05	0	43	0	853540864	20	4292
2026-01-30 00:01:34.17	160.82	41.11	-30.4	-32.4	13.1	6.03e-04	0	43	0	858783744	20	4531
2026-01-30 00:01:37.17	161.59	40.43	-30.4	-31.8	13.1	4.50e-05	0	43	0	865075200	21	4263
2026-01-30 00:01:40.19	162.33	39.75	-30.5	-32.1	12.8	1.91e-04	0	43	0	870318080	21	4348
2026-01-30 00:01:43.20	163.05	39.09	-29.9	-31.1	13.9	7.00e-07	0	43	0	875560960	20	4112
2026-01-30 00:01:46.21	163.73	38.43	-30.7	-32.9	12.4	6.10e-05	0	43	0	881852416	21	4589
2026-01-30 00:01:49.23	164.39	37.77	-30.6	-32.6	12.5	1.43e-04	0	43	0	887095296	21	4512
2026-01-30 00:01:52.24	165.03	37.13	-30.6	-32.3	12.8	1.05e-04	0	44	0	893386752	21	4414
2026-01-30 00:01:55.26	165.64	36.50	-30.2	-31.8	13.4	1.90e-05	0	43	0	898629632	20	4338
2026-01-30 00:01:58.27	166.23	35.87	-31.7	-35.0	10.2	4.56e-03	0	44	0	903872512	23	5239
2026-01-30 00:02:01.28	166.79	35.26	-31.5	-34.3	10.6	7.10e-03	0	43	0	910163968	23	4956
2026-01-30 00:02:04.29	167.34	34.65	-30.9	-33.0	12.0	6.14e-04	0	43	0	915406848	22	4581
2026-01-30 00:02:07.29	167.86	34.05	-31.1	-33.4	11.7	4.40e-04	0	43	0	920649728	22	4698
2026-01-30 00:02:10.31	168.37	33.46	-31.2	-33.9	11.3	7.93e-04	0	44	0	926941184	22	4872
2026-01-30 00:02:13.31	168.86	32.88	-31.1	-33.3	11.8	7.22e-04	0	44	0	932184064	22	4653
2026-01-30 00:02:16.32	169.33	32.31	-30.7	-32.9	12.4	2.82e-04	0	43	0	938475520	21	4599
2026-01-30 00:02:19.32	169.79	31.75	-30.8	-32.9	12.4	9.68e-05	0	43	0	943718400	21	4621
2026-01-30 00:02:22.32	170.23	31.20	-30.7	-32.7	12.5	1.40e-04	0	43	0	948961280	21	4530
2026-01-30 00:02:25.32	170.66	30.66	-30.7	-32.6	12.5	2.59e-04	0	43	0	955252736	21	4516
2026-01-30 00:02:28.33	171.07	30.12	-30.8	-33.0	12.2	1.63e-04	0	44	0	960495616	21	4658
2026-01-30 00:02:31.34	171.48	29.59	-31.0	-33.2	11.8	4.97e-04	0	43	0	965738496	22	4622
2026-01-30 00:02:34.34	171.86	29.07	-30.9	-33.3	12.0	2.36e-04	0	43	0	972029952	21	4777
2026-01-30 00:02:37.35	172.24	28.56	-30.8	-33.1	12.1	2.01e-04	0	43	0	977272832	21	4697
2026-01-30 00:02:40.35	172.61	28.06	-30.8	-33.2	12.1	2.83e-04	0	43	0	983564288	21	4707
2026-01-30 00:02:43.35	172.96	27.56	-30.9	-32.8	12.0	6.64e-04	0	44	0	988807168	22	4489
2026-01-30 00:02:46.36	173.31	27.07	-30.8	-33.2	12.0	4.32e-04	0	43	0	994050048	21	4728
2026-01-30 00:02:49.37	173.64	26.59	-30.0	-31.4	13.6	1.06e-05	0	43	0	1000341504	20	4213
2026-01-30 00:02:52.37	173.96	26.12	-29.8	-30.9	13.8	5.30e-06	0	43	0	1005584384	20	4065
2026-01-30 00:02:55.37	174.28	25.66	-29.5	-30.4	14.5	3.00e-06	0	43	0	1010827264	19	4021
2026-01-30 00:02:58.39	174.59	25.20	-29.3	-30.1	14.7	1.50e-06	0	44	0	1017118720	19	3935
2026-01-30 00:03:01.40	174.89	24.74	-29.3	-30.6	14.7	0.00e+00	0	43	0	1022361600	18	4156
2026-01-30 00:03:04.40	175.18	24.30	-29.6	-30.7	14.3	0.00e+00	0	44	0	1028653056	19	4104
2026-01-30 00:03:07.41	175.46	23.86	-29.9	-31.5	13.8	3.00e-06	0	43	0	1033895936	19	4339
2026-01-30 00:03:10.42	175.74	23.43	-29.4	-30.4	14.5	7.00e-07	0	44	0	1039138816	19	4010
2026-01-30 00:03:13.42	176.00	23.01	-28.9	-29.5	15.3	0.00e+00	0	43	0	1045430272	18	3875
2026-01-30 00:03:16.42	176.27	22.59	-28.3	-28.7	16.0	0.00e+00	0	43	0	1050673152	17	3733
2026-01-30 00:03:19.44	176.52	22.17	-27.8	-27.9	16.7	0.00e+00	0	44	0	1055916032	16	3653
2026-01-30 00:03:22.45	176.77	21.77	-28.2	-28.8	16.3	0.00e+00	0	44	0	1062207488	16	3856
2026-01-30 00:03:25.45	177.01	21.37	-28.4	-29.3	15.9	0.00e+00	0	43	0	1067450368	16	4006
2026-01-30 00:03:28.44	177.25	20.98	-28.5	-29.0	15.8	0.00e+00	0	43	0	1073741824	17	3841
2026-01-30 00:03:31.45	177.48	20.59	-28.6	-29.3	15.6	0.00e+00	0	43	0	1078984704	17	3903
2026-01-30 00:03:34.46	177.70	20.20	-28.3	-28.5	16.1	0.00e+00	0	43	0	1084227584	17	3713
2026-01-30 00:03:37.47	177.93	19.82	-28.4	-28.8	15.9	1.50e-06	0	44	0	1090519040	17	3783
2026-01-30 00:03:40.48	178.14	19.45	-28.5	-29.5	15.7	0.00e+00	0	44	0	1095761920	16	4077
2026-01-30 00:03:43.48	178.35	19.08	-28.8	-29.4	15.3	0.00e+00	0	43	0	1101004800	18	3841
2026-01-30 00:03:46.49	178.56	18.72	-28.6	-29.3	15.5	0.00e+00	0	44	0	1107296256	17	3937
2026-01-30 00:03:49.49	178.76	18.36	-28.9	-30.1	15.1	4.50e-06	0	44	0	1112539136	17	4142
2026-01-30 00:03:52.49	178.95	18.01	-29.2	-30.3	14.7	6.80e-06	0	43	0	1118830592	18	4110
2026-01-30 00:03:55.50	179.15	17.66	-29.3	-30.7	14.4	9.10e-06	0	44	0	1124073472	18	4237
2026-01-30 00:03:58.51	179.34	17.32	-29.3	-30.3	14.4	8.30e-06	0	43	0	1129316352	19	4008
2026-01-30 00:04:01.52	179.52	16.98	-29.3	-30.6	14.4	4.50e-06	0	43	0	1135607808	18	4197
2026-01-30 00:04:04.52	179.70	16.65	-29.1	-30.3	14.7	0.00e+00	0	44	0	1140850688	18	4095
2026-01-30 00:04:07.53	179.88	16.31	-28.9	-30.1	15.0	3.00e-06	0	43	0	1146093568	17	4144
2026-01-30 00:04:10.54	180.05	15.99	-28.8	-29.9	15.0	1.50e-06	0	43	0	1152385024	17	4101
2026-01-30 00:04:13.56	180.22	15.66	-28.7	-29.6	15.2	7.00e-07	0	43	0	1157627904	17	4023
2026-01-30 00:04:16.56	180.39	15.35	-28.8	-30.1	15.0	0.00e+00	0	43	0	1163919360	17	4140
2026-01-30 00:04:19.56	180.55	15.03	-29.0	-30.0	14.7	0.00e+00	0	43	0	1169162240	18	4037
2026-01-30 00:04:22.58	180.71	14.72	-29.3	-30.7	14.3	1.50e-06	0	43	0	1174405120	18	4221
2026-01-30 00:04:25.59	180.87	14.41	-29.4	-30.9	14.1	5.56e-05	0	43	0	1180696576	18	4305
2026-01-30 00:04:28.60	181.02	14.11	-29.6	-31.1	13.7	4.42e-05	0	43	0	1185939456	19	4247
2026-01-30 00:04:31.60	181.17	13.81	-29.7	-31.2	13.7	3.35e-05	0	43	0	1191182336	19	4275
2026-01-30 00:04:34.62	181.32	13.52	-29.5	-30.7	13.9	7.00e-07	0	44	0	1197473792	19	4126
2026-01-30 00:04:37.62	181.47	13.22	-29.5	-30.8	13.8	6.10e-06	0	43	0	1202716672	19	4160
2026-01-30 00:04:40.64	181.61	12.93	-29.8	-31.6	13.3	1.06e-05	0	43	0	1209008128	19	4407
2026-01-30 00:04:43.64	181.75	12.65	-29.9	-31.8	12.8	4.11e-05	0	44	0	1214251008	19	4497
2026-01-30 00:04:46.66	181.89	12.36	-29.9	-31.5	12.9	8.54e-05	0	43	0	1219493888	20	4313
2026-01-30 00:04:49.66	182.02	12.08	-29.9	-31.4	13.0	1.07e-04	0	43	0	1225785344	20	4289
2026-01-30 00:04:52.69	182.16	11.81	-30.0	-31.6	12.9	1.18e-04	0	43	0	1231028224	20	4343
2026-01-30 00:04:55.70	182.29	11.53	-30.2	-32.4	12.3	4.50e-04	0	43	0	1237319680	20	4607
2026-01-30 00:04:58.72	182.42	11.26	-30.0	-31.7	12.8	3.05e-04	0	43	0	1242562560	20	4360
2026-01-30 00:05:01.72	182.54	10.99	-30.0	-31.8	12.6	1.43e-04	0	43	0	1247805440	20	4408
2026-01-30 00:05:04.73	182.67	10.73	-30.0	-31.6	12.7	1.33e-04	0	43	0	1254096896	20	4359
2026-01-30 00:05:07.74	182.79	10.46	-29.9	-31.8	13.0	1.08e-04	0	43	0	1259339776	19	4485
2026-01-30 00:05:10.75	182.91	10.21	-29.8	-31.5	13.2	3.40e-04	0	44	0	1264582656	19	4404
2026-01-30 00:05:13.76	183.03	9.95	-29.9	-31.9	12.9	4.16e-04	0	44	0	1270874112	19	4526
2026-01-30 00:05:16.75	183.14	9.69	-29.9	-31.8	13.0	2.88e-04	0	43	0	1276116992	19	4496
2026-01-30 00:05:19.77	183.26	9.44	-29.8	-31.8	13.0	3.23e-04	0	43	0	1282408448	19	4499
2026-01-30 00:05:22.78	183.37	9.19	-30.1	-32.0	12.3	4.42e-04	0	43	0	1287651328	20	4510
2026-01-30 00:05:25.79	183.48	8.94	-29.9	-32.1	12.7	7.78e-05	0	43	0	1292894208	19	4599
2026-01-30 00:05:28.81	183.59	8.70	-30.1	-32.1	12.2	1.05e-03	0	43	0	1299185664	20	4544
2026-01-30 00:05:31.82	183.70	8.46	-30.2	-32.3	12.0	1.67e-03	0	43	0	1304428544	20	4621
2026-01-30 00:05:34.83	183.81	8.22	-30.2	-32.5	11.9	6.13e-04	0	43	0	1309671424	20	4707
2026-01-30 00:05:37.84	183.91	7.98	-30.3	-32.7	11.8	6.73e-04	0	43	0	1315962880	20	4756
2026-01-30 00:05:40.86	184.01	7.74	-30.4	-33.0	11.6	7.74e-04	0	44	0	1321205760	20	4879
2026-01-30 00:05:43.86	184.12	7.51	-30.1	-32.2	12.0	3.00e-04	0	43	0	1327497216	20	4591
2026-01-30 00:05:46.87	184.22	7.27	-30.2	-32.5	11.8	4.58e-04	0	43	0	1332740096	20	4683
2026-01-30 00:05:49.89	184.31	7.04	-33.1	-45.4	3.8	1.49e+00	0	44	104	1337982976	26	14868

#Closed at: 2026-01-30 00:05:52
#Recorded file [1337 MB]: D:/data/31010_260130_025355.dat