passes_logs/2026/01/29/R2M6_AANII_01/R2M6_AANII_01__20260129_124221_FENGYUN_3D_rec.log

#Pass ID: 20260129_124221_FENGYUN 3D
#Satellite: FENGYUN 3D
#Configuration: FENGYUN 3D
#almurnet v.1.7.20240730
#Start time: 2026-01-29 12:42:22

#Version: 2.2.20231116
#Station: R2M6_AANII_01
#Location: 30.233357 lon 59.946436 lat
#TLE: 1 43010U 17072A   26027.97130493  .00000326  00000+0  17586-3 0  9998
#TLE: 2 43010  98.9960 359.9900 0002514  87.8428 272.3036 14.19701925425097

#Time	Az	El	Level	Level2	SNR	BER	BlckErr	Temp	State	Recorded	gain1	gain2
2026-01-29 12:42:22.40	169.86	7.09	-28.2	-30.9	5.7	7.75e-01	0	38	0	0	16	4873
2026-01-29 12:42:25.41	169.93	7.32	-29.1	-32.1	10.8	2.50e-03	0	38	0	5242880	18	5053
2026-01-29 12:42:28.42	170.00	7.56	-27.8	-29.3	12.9	6.40e-05	0	38	0	22020096	17	4257
2026-01-29 12:42:31.43	170.07	7.79	-26.7	-28.3	14.2	0.00e+00	0	38	0	38797312	14	4308
2026-01-29 12:42:34.43	170.14	8.03	-26.7	-28.2	14.3	0.00e+00	0	38	0	55574528	14	4271
2026-01-29 12:42:37.43	170.22	8.27	-26.7	-28.1	14.4	0.00e+00	0	39	0	73400320	14	4240
2026-01-29 12:42:40.43	170.29	8.52	-26.7	-28.1	14.4	0.00e+00	0	39	0	90177536	14	4254
2026-01-29 12:42:43.44	170.37	8.76	-26.5	-27.7	14.7	1.10e-06	0	39	0	106954752	14	4127
2026-01-29 12:42:46.45	170.44	9.01	-26.4	-27.5	14.8	0.00e+00	0	39	0	123731968	14	4077
2026-01-29 12:42:49.46	170.52	9.26	-26.3	-27.3	15.0	0.00e+00	0	39	0	140509184	14	4008
2026-01-29 12:42:52.46	170.60	9.52	-26.2	-27.6	15.1	0.00e+00	0	39	0	157286400	13	4190
2026-01-29 12:42:55.48	170.68	9.77	-26.1	-27.4	15.3	0.00e+00	0	39	0	174063616	13	4138
2026-01-29 12:42:58.48	170.77	10.03	-26.1	-27.3	15.3	0.00e+00	0	39	0	190840832	13	4127
2026-01-29 12:43:01.48	170.85	10.29	-26.4	-27.9	15.0	0.00e+00	0	39	0	208666624	13	4276
2026-01-29 12:43:04.47	170.93	10.56	-26.5	-28.2	14.8	0.00e+00	0	40	0	225443840	13	4369
2026-01-29 12:43:07.49	171.02	10.82	-26.4	-27.9	15.0	0.00e+00	0	40	0	242221056	13	4275
2026-01-29 12:43:10.50	171.11	11.09	-26.5	-28.2	14.9	0.00e+00	0	40	0	258998272	13	4361
2026-01-29 12:43:13.51	171.20	11.37	-26.1	-27.1	15.5	0.00e+00	0	40	0	275775488	13	4072
2026-01-29 12:43:16.53	171.29	11.64	-26.2	-27.3	15.4	0.00e+00	0	40	0	292552704	13	4123
2026-01-29 12:43:19.53	171.38	11.92	-26.2	-27.4	15.4	2.20e-06	0	40	0	309329920	13	4133
2026-01-29 12:43:22.55	171.47	12.21	-26.3	-27.7	15.2	1.10e-06	0	40	0	326107136	13	4213
2026-01-29 12:43:25.56	171.57	12.49	-26.5	-28.0	15.1	0.00e+00	0	40	0	343932928	13	4295
2026-01-29 12:43:28.58	171.66	12.78	-26.2	-27.4	15.4	0.00e+00	0	40	0	360710144	13	4155
2026-01-29 12:43:31.59	171.76	13.08	-26.1	-27.1	15.6	6.80e-06	0	40	0	377487360	13	4075
2026-01-29 12:43:34.60	171.86	13.37	-25.8	-27.0	15.9	6.80e-06	0	40	0	394264576	12	4165
2026-01-29 12:43:37.61	171.97	13.67	-25.7	-26.8	16.0	0.00e+00	0	40	0	411041792	12	4109
2026-01-29 12:43:40.63	172.07	13.98	-25.6	-26.8	16.1	0.00e+00	0	40	0	428867584	12	4091
2026-01-29 12:43:43.64	172.18	14.28	-25.5	-26.5	16.3	0.00e+00	0	40	0	445644800	12	4018
2026-01-29 12:43:46.64	172.28	14.59	-25.3	-26.0	16.5	0.00e+00	0	40	0	462422016	12	3915
2026-01-29 12:43:49.66	172.40	14.91	-25.3	-26.5	16.6	0.00e+00	0	40	0	479199232	11	4119
2026-01-29 12:43:52.67	172.51	15.23	-25.0	-25.8	17.0	0.00e+00	0	40	0	495976448	11	3950
2026-01-29 12:43:55.68	172.62	15.55	-24.9	-25.5	17.1	0.00e+00	0	40	0	512753664	11	3889
2026-01-29 12:43:58.69	172.74	15.88	-24.7	-25.7	17.3	0.00e+00	0	40	0	529530880	10	4042
2026-01-29 12:44:01.69	172.86	16.21	-24.7	-25.7	17.3	0.00e+00	0	40	0	547356672	10	4041
2026-01-29 12:44:04.70	172.98	16.55	-24.7	-25.7	17.3	0.00e+00	0	40	0	564133888	10	4036
2026-01-29 12:44:07.70	173.10	16.89	-24.9	-26.1	17.2	0.00e+00	0	40	0	580911104	10	4121
2026-01-29 12:44:10.72	173.23	17.23	-24.9	-26.1	17.2	0.00e+00	0	40	0	597688320	10	4128
2026-01-29 12:44:13.73	173.36	17.58	-24.9	-26.1	17.2	0.00e+00	0	40	0	614465536	10	4126
2026-01-29 12:44:16.74	173.49	17.94	-24.7	-25.6	17.5	0.00e+00	0	40	0	631242752	10	4004
2026-01-29 12:44:19.74	173.63	18.30	-24.5	-25.3	17.7	0.00e+00	0	40	0	648019968	10	3911
2026-01-29 12:44:22.74	173.77	18.66	-24.4	-25.0	17.8	0.00e+00	0	40	0	664797184	10	3845
2026-01-29 12:44:25.74	173.91	19.03	-24.4	-25.0	17.8	0.00e+00	0	40	0	681574400	10	3839
2026-01-29 12:44:28.75	174.05	19.41	-24.4	-24.9	17.9	0.00e+00	0	40	0	699400192	10	3830
2026-01-29 12:44:31.76	174.20	19.79	-24.2	-25.1	18.0	0.00e+00	0	41	0	716177408	9	3977
2026-01-29 12:44:34.78	174.35	20.18	-24.0	-24.5	18.4	0.00e+00	0	41	0	732954624	9	3840
2026-01-29 12:44:37.78	174.51	20.57	-23.8	-24.2	18.5	0.00e+00	0	40	0	749731840	9	3771
2026-01-29 12:44:40.79	174.67	20.97	-23.8	-24.6	18.6	0.00e+00	0	41	0	766509056	8	3971
2026-01-29 12:44:43.80	174.83	21.38	-23.7	-24.5	18.6	0.00e+00	0	40	0	784334848	8	3940
2026-01-29 12:44:46.81	175.00	21.79	-23.9	-24.8	18.5	0.00e+00	0	40	0	801112064	8	4014
2026-01-29 12:44:49.82	175.17	22.21	-24.0	-25.1	18.4	0.00e+00	0	41	0	817889280	8	4071
2026-01-29 12:44:52.84	175.35	22.64	-24.2	-25.5	18.2	0.00e+00	0	41	0	834666496	8	4185
2026-01-29 12:44:55.85	175.53	23.07	-23.9	-25.0	18.5	0.00e+00	0	41	0	851443712	8	4054
2026-01-29 12:44:58.86	175.71	23.51	-23.8	-24.7	18.6	0.00e+00	0	41	0	868220928	8	3993
2026-01-29 12:45:01.87	175.90	23.96	-23.6	-24.3	18.8	0.00e+00	0	40	0	884998144	8	3893
2026-01-29 12:45:04.87	176.10	24.42	-23.6	-24.2	18.9	0.00e+00	0	41	0	902823936	8	3872
2026-01-29 12:45:07.88	176.30	24.88	-23.6	-24.2	18.9	0.00e+00	0	41	0	919601152	8	3879
2026-01-29 12:45:10.89	176.51	25.35	-23.5	-24.0	19.0	0.00e+00	0	41	0	936378368	8	3830
2026-01-29 12:45:13.91	176.72	25.83	-23.4	-23.8	19.1	0.00e+00	0	41	0	953155584	8	3764
2026-01-29 12:45:16.92	176.94	26.32	-23.3	-23.7	19.2	0.00e+00	0	41	0	969932800	8	3748
2026-01-29 12:45:19.93	177.17	26.81	-23.5	-24.0	19.1	0.00e+00	0	41	0	986710016	8	3811
2026-01-29 12:45:22.94	177.40	27.32	-23.4	-23.8	19.2	0.00e+00	0	41	0	1004535808	8	3768
2026-01-29 12:45:25.95	177.64	27.83	-23.3	-23.7	19.2	0.00e+00	0	41	0	1021313024	8	3750
2026-01-29 12:45:28.96	177.89	28.35	-23.2	-23.8	19.4	0.00e+00	0	41	0	1038090240	7	3886
2026-01-29 12:45:31.96	178.14	28.88	-23.1	-23.7	19.5	0.00e+00	0	41	0	1054867456	7	3854
2026-01-29 12:45:34.96	178.40	29.42	-23.2	-24.0	19.3	0.00e+00	0	41	0	1071644672	7	3921
2026-01-29 12:45:37.96	178.67	29.97	-23.2	-23.9	19.4	0.00e+00	0	41	0	1088421888	7	3895
2026-01-29 12:45:40.98	178.96	30.54	-23.2	-24.0	19.3	0.00e+00	0	41	0	1105199104	7	3930
2026-01-29 12:45:43.99	179.25	31.11	-23.4	-24.4	19.1	0.00e+00	0	41	0	1121976320	7	4021
2026-01-29 12:45:47.00	179.55	31.69	-23.2	-23.9	19.3	0.00e+00	0	41	0	1139802112	7	3907
2026-01-29 12:45:50.02	179.86	32.29	-23.2	-23.9	19.4	0.00e+00	0	41	0	1156579328	7	3917
2026-01-29 12:45:53.03	180.18	32.90	-23.2	-23.9	19.4	0.00e+00	0	41	0	1173356544	7	3912
2026-01-29 12:45:56.04	180.52	33.51	-23.0	-23.5	19.6	0.00e+00	0	41	0	1190133760	7	3817
2026-01-29 12:45:59.06	180.87	34.14	-23.1	-23.6	19.6	0.00e+00	0	41	0	1206910976	7	3835
2026-01-29 12:46:02.07	181.23	34.78	-23.3	-24.1	19.3	0.00e+00	0	41	0	1223688192	7	3951
2026-01-29 12:46:05.08	181.61	35.44	-22.9	-23.2	19.8	0.00e+00	0	41	0	1240465408	7	3748
2026-01-29 12:46:08.09	182.00	36.10	-23.2	-24.0	19.4	0.00e+00	0	41	0	1258291200	7	3922
2026-01-29 12:46:11.10	182.40	36.78	-23.1	-23.6	19.6	0.00e+00	0	41	0	1275068416	7	3839
2026-01-29 12:46:14.11	182.82	37.47	-22.9	-23.8	19.8	0.00e+00	0	41	0	1291845632	6	3978
2026-01-29 12:46:17.13	183.27	38.17	-23.0	-24.1	19.6	0.00e+00	0	41	0	1308622848	6	4047
2026-01-29 12:46:20.13	183.73	38.88	-22.6	-23.1	20.2	0.00e+00	0	41	0	1325400064	6	3809
2026-01-29 12:46:23.14	184.21	39.61	-22.9	-23.8	19.8	0.00e+00	0	41	0	1342177280	6	3988
2026-01-29 12:46:26.15	184.71	40.35	-23.0	-23.9	19.8	0.00e+00	0	41	0	1360003072	6	4008
2026-01-29 12:46:29.17	185.23	41.11	-23.1	-24.2	19.6	0.00e+00	0	41	0	1376780288	6	4068
2026-01-29 12:46:32.18	185.78	41.88	-23.0	-23.9	19.8	0.00e+00	0	41	0	1393557504	6	4010
2026-01-29 12:46:35.19	186.36	42.66	-23.2	-24.4	19.5	0.00e+00	0	41	0	1410334720	6	4122
2026-01-29 12:46:38.20	186.96	43.46	-23.2	-24.4	19.5	0.00e+00	0	41	0	1427111936	6	4137
2026-01-29 12:46:41.21	187.60	44.27	-23.5	-24.6	19.3	0.00e+00	0	41	0	1443889152	7	4056
2026-01-29 12:46:44.22	188.27	45.09	-23.6	-24.7	19.2	0.00e+00	0	41	0	1460666368	7	4077
2026-01-29 12:46:47.23	188.97	45.92	-23.1	-23.7	19.7	0.00e+00	0	41	0	1478492160	7	3848
2026-01-29 12:46:50.26	189.72	46.77	-23.7	-24.9	19.1	0.00e+00	0	41	0	1495269376	7	4150
2026-01-29 12:46:53.27	190.50	47.63	-23.3	-24.2	19.5	0.00e+00	0	41	0	1512046592	7	3957
2026-01-29 12:46:56.27	191.32	48.50	-23.2	-23.9	19.7	0.00e+00	0	41	0	1528823808	7	3894
2026-01-29 12:46:59.28	192.19	49.38	-23.2	-23.8	19.6	0.00e+00	0	41	0	1545601024	7	3874
2026-01-29 12:47:02.30	193.12	50.28	-23.4	-24.4	19.4	0.00e+00	0	41	0	1563426816	7	4005
2026-01-29 12:47:05.32	194.10	51.18	-23.5	-24.6	19.4	0.00e+00	0	41	0	1580204032	7	4053
2026-01-29 12:47:08.32	195.14	52.09	-23.8	-25.1	19.1	0.00e+00	0	41	0	1596981248	7	4197
2026-01-29 12:47:11.33	196.25	53.00	-24.4	-25.8	18.5	0.00e+00	0	41	0	1613758464	8	4248
2026-01-29 12:47:14.33	197.42	53.92	-25.1	-26.3	17.8	0.00e+00	0	41	0	1630535680	10	4138
2026-01-29 12:47:17.33	198.67	54.85	-24.5	-25.1	18.4	0.00e+00	0	41	0	1647312896	10	3855
2026-01-29 12:47:20.34	200.00	55.77	-24.3	-24.6	18.6	0.00e+00	0	41	0	1664090112	10	3749
2026-01-29 12:47:23.35	201.43	56.70	-23.9	-24.3	19.1	0.00e+00	0	41	0	1680867328	9	3778
2026-01-29 12:47:26.37	202.96	57.63	-24.3	-25.6	18.6	0.00e+00	0	41	0	1698693120	8	4203
2026-01-29 12:47:29.38	204.59	58.55	-23.6	-24.1	19.5	0.00e+00	0	41	0	1715470336	8	3836
2026-01-29 12:47:32.38	206.33	59.46	-23.7	-24.4	19.3	0.00e+00	0	41	0	1732247552	8	3908
2026-01-29 12:47:35.41	208.22	60.36	-23.3	-24.0	19.9	0.00e+00	0	41	0	1749024768	7	3910
2026-01-29 12:47:38.42	210.23	61.24	-22.9	-23.2	20.3	0.00e+00	0	41	0	1765801984	7	3728
2026-01-29 12:47:41.44	212.38	62.11	-23.0	-23.5	20.1	0.00e+00	0	41	0	1782579200	7	3784
2026-01-29 12:47:44.45	214.69	62.94	-22.8	-23.5	20.4	0.00e+00	0	41	0	1800404992	6	3894
2026-01-29 12:47:47.46	217.16	63.75	-22.8	-23.4	20.5	0.00e+00	0	41	0	1817182208	6	3871
2026-01-29 12:47:50.47	219.80	64.51	-22.9	-23.6	20.3	0.00e+00	0	41	0	1833959424	6	3923
2026-01-29 12:47:53.49	222.62	65.24	-22.7	-23.2	20.5	0.00e+00	0	41	0	1850736640	6	3833
2026-01-29 12:47:56.51	225.63	65.91	-22.7	-23.3	20.5	0.00e+00	0	41	0	1867513856	6	3854
2026-01-29 12:47:59.51	228.80	66.52	-22.5	-22.9	20.7	0.00e+00	0	41	0	1884291072	6	3760
2026-01-29 12:48:02.51	232.14	67.07	-23.2	-24.3	20.0	0.00e+00	0	41	0	1902116864	6	4080
2026-01-29 12:48:05.51	235.65	67.55	-22.5	-22.9	20.7	0.00e+00	0	41	0	1918894080	6	3760
2026-01-29 12:48:08.53	239.34	67.95	-22.5	-22.8	20.8	0.00e+00	0	41	0	1935671296	6	3733
2026-01-29 12:48:11.54	243.14	68.26	-22.1	-22.6	21.1	0.00e+00	0	41	0	1952448512	5	3796
2026-01-29 12:48:14.55	247.05	68.49	-22.4	-23.1	20.9	0.00e+00	0	41	0	1969225728	5	3915
2026-01-29 12:48:17.55	251.01	68.62	-22.2	-22.8	21.0	0.00e+00	0	41	0	1986002944	5	3847
2026-01-29 12:48:20.56	255.03	68.66	-22.2	-22.6	21.1	0.00e+00	0	41	0	2002780160	5	3801
2026-01-29 12:48:23.58	259.04	68.60	-22.6	-23.6	20.6	0.00e+00	0	41	0	2019557376	5	4032
2026-01-29 12:48:26.60	263.02	68.44	-22.5	-22.9	20.8	0.00e+00	0	41	0	2037383168	6	3757
2026-01-29 12:48:29.62	266.92	68.19	-22.7	-23.3	20.6	0.00e+00	0	41	0	2054160384	6	3839
2026-01-29 12:48:32.63	270.69	67.85	-23.1	-24.0	20.2	0.00e+00	0	41	0	2070937600	6	4021
2026-01-29 12:48:35.64	274.32	67.43	-23.3	-24.5	20.0	0.00e+00	0	41	0	2087714816	6	4135
2026-01-29 12:48:38.65	277.80	66.94	-22.6	-23.0	20.7	0.00e+00	0	41	0	2104492032	6	3785
2026-01-29 12:48:41.67	281.12	66.37	-22.8	-23.5	20.4	0.00e+00	0	41	0	2122317824	6	3905
2026-01-29 12:48:44.68	284.25	65.74	-23.3	-24.4	20.0	0.00e+00	0	41	0	2139095040	6	4124
2026-01-29 12:48:47.70	287.20	65.06	-22.7	-23.3	20.5	0.00e+00	0	41	0	2155872256	6	3856
2026-01-29 12:48:50.71	289.97	64.32	-22.6	-23.0	20.7	0.00e+00	0	41	0	2172649472	6	3781
2026-01-29 12:48:53.72	292.56	63.55	-22.8	-23.4	20.5	0.00e+00	0	41	0	2189426688	6	3864
2026-01-29 12:48:56.74	294.99	62.73	-22.9	-23.7	20.3	0.00e+00	0	41	0	2206203904	6	3956
2026-01-29 12:48:59.76	297.26	61.89	-23.2	-24.4	20.0	0.00e+00	0	41	0	2224029696	6	4104
2026-01-29 12:49:02.76	299.36	61.03	-23.4	-24.8	19.8	0.00e+00	0	41	0	2240806912	6	4198
2026-01-29 12:49:05.77	301.33	60.15	-23.5	-24.3	19.8	0.00e+00	0	41	0	2257584128	7	3975
2026-01-29 12:49:08.79	303.17	59.24	-23.8	-25.0	19.5	0.00e+00	0	41	0	2274361344	7	4135
2026-01-29 12:49:11.79	304.88	58.34	-23.8	-25.0	19.5	0.00e+00	0	41	0	2291138560	7	4150
2026-01-29 12:49:14.80	306.48	57.42	-23.9	-25.2	19.4	0.00e+00	0	42	0	2307915776	7	4191
2026-01-29 12:49:17.82	307.99	56.49	-24.6	-25.8	18.6	0.00e+00	0	41	0	2324692992	9	4120
2026-01-29 12:49:20.83	309.39	55.57	-24.3	-25.2	18.9	0.00e+00	0	41	0	2342518784	9	3955
2026-01-29 12:49:23.85	310.71	54.64	-24.8	-26.2	18.4	0.00e+00	0	41	0	2359296000	9	4207
2026-01-29 12:49:26.86	311.94	53.72	-24.0	-24.5	19.3	0.00e+00	0	41	0	2376073216	9	3791
2026-01-29 12:49:29.87	313.09	52.80	-24.5	-25.5	18.7	0.00e+00	0	41	0	2392850432	9	4047
2026-01-29 12:49:32.89	314.18	51.89	-23.9	-24.2	19.4	0.00e+00	0	41	0	2409627648	9	3725
2026-01-29 12:49:35.89	315.20	50.98	-23.9	-24.3	19.3	0.00e+00	0	41	0	2426404864	9	3764
2026-01-29 12:49:38.90	316.17	50.09	-23.5	-23.9	19.8	0.00e+00	0	41	0	2444230656	8	3772
2026-01-29 12:49:41.90	317.07	49.21	-23.6	-24.1	19.7	0.00e+00	0	41	0	2461007872	8	3816
2026-01-29 12:49:44.91	317.93	48.33	-23.4	-23.8	19.8	0.00e+00	0	41	0	2477785088	8	3756
2026-01-29 12:49:47.93	318.75	47.46	-23.8	-24.5	19.4	0.00e+00	0	41	0	2494562304	8	3926
2026-01-29 12:49:50.95	319.52	46.61	-23.6	-24.1	19.7	0.00e+00	0	41	0	2511339520	8	3815
2026-01-29 12:49:53.96	320.25	45.77	-23.3	-23.5	19.9	0.00e+00	0	41	0	2528116736	8	3686
2026-01-29 12:49:56.96	320.94	44.94	-23.4	-24.1	19.8	0.00e+00	0	41	0	2544893952	7	3939
2026-01-29 12:49:59.98	321.61	44.13	-23.3	-24.0	19.9	0.00e+00	0	41	0	2562719744	7	3911
2026-01-29 12:50:02.98	322.23	43.33	-23.3	-23.9	19.9	0.00e+00	0	41	0	2579496960	7	3890
2026-01-29 12:50:06.00	322.83	42.54	-23.4	-24.2	19.8	0.00e+00	0	41	0	2596274176	7	3943
2026-01-29 12:50:09.01	323.40	41.76	-23.0	-23.5	20.1	0.00e+00	0	41	0	2613051392	7	3782
2026-01-29 12:50:12.02	323.94	41.00	-23.0	-23.4	20.2	0.00e+00	0	41	0	2629828608	7	3769
2026-01-29 12:50:15.03	324.46	40.25	-23.0	-23.3	20.2	0.00e+00	0	41	0	2646605824	7	3755
2026-01-29 12:50:18.04	324.96	39.51	-23.0	-23.5	20.1	0.00e+00	0	41	0	2663383040	7	3789
2026-01-29 12:50:21.06	325.44	38.79	-22.8	-23.1	20.3	0.00e+00	0	41	0	2681208832	7	3702
2026-01-29 12:50:24.07	325.89	38.08	-22.8	-23.0	20.3	0.00e+00	0	42	0	2697986048	7	3677
2026-01-29 12:50:27.09	326.33	37.38	-22.8	-23.6	20.3	0.00e+00	0	41	0	2714763264	6	3917
2026-01-29 12:50:30.09	326.75	36.70	-23.0	-24.0	20.1	0.00e+00	0	41	0	2731540480	6	4006
2026-01-29 12:50:33.11	327.15	36.03	-23.0	-23.8	20.1	0.00e+00	0	41	0	2748317696	6	3967
2026-01-29 12:50:36.12	327.54	35.37	-22.9	-23.7	20.2	0.00e+00	0	41	0	2765094912	6	3947
2026-01-29 12:50:39.14	327.91	34.72	-23.1	-24.2	20.0	0.00e+00	0	41	0	2782920704	6	4065
2026-01-29 12:50:42.15	328.27	34.09	-23.2	-24.3	19.9	0.00e+00	0	41	0	2799697920	6	4083
2026-01-29 12:50:45.16	328.62	33.46	-23.3	-24.5	19.8	0.00e+00	0	41	0	2816475136	6	4134
2026-01-29 12:50:48.16	328.95	32.85	-23.2	-24.3	19.9	0.00e+00	0	41	0	2833252352	6	4081
2026-01-29 12:50:51.17	329.27	32.25	-23.4	-24.8	19.7	0.00e+00	0	41	0	2850029568	6	4200
2026-01-29 12:50:54.18	329.58	31.66	-23.8	-25.1	19.2	0.00e+00	0	41	0	2866806784	7	4188
2026-01-29 12:50:57.20	329.88	31.08	-23.7	-24.8	19.4	0.00e+00	0	41	0	2884632576	7	4094
2026-01-29 12:51:00.20	330.17	30.52	-23.9	-25.2	19.2	0.00e+00	0	41	0	2901409792	7	4197
2026-01-29 12:51:03.22	330.45	29.96	-23.4	-24.1	19.7	0.00e+00	0	41	0	2918187008	7	3941
2026-01-29 12:51:06.23	330.72	29.41	-23.5	-24.5	19.5	0.00e+00	0	41	0	2934964224	7	4020
2026-01-29 12:51:09.24	330.98	28.87	-23.5	-24.5	19.5	0.00e+00	0	41	0	2951741440	7	4027
2026-01-29 12:51:12.26	331.24	28.34	-23.6	-24.6	19.4	0.00e+00	0	41	0	2968518656	7	4055
2026-01-29 12:51:15.26	331.48	27.83	-23.3	-24.1	19.7	0.00e+00	0	41	0	2985295872	7	3943
2026-01-29 12:51:18.27	331.72	27.32	-23.3	-24.0	19.7	0.00e+00	0	41	0	3003121664	7	3905
2026-01-29 12:51:21.28	331.95	26.82	-23.3	-24.0	19.7	0.00e+00	0	42	0	3019898880	7	3906
2026-01-29 12:51:24.30	332.18	26.32	-23.4	-24.3	19.6	0.00e+00	0	41	0	3036676096	7	3969
2026-01-29 12:51:27.31	332.40	25.84	-23.6	-24.6	19.4	0.00e+00	0	41	0	3053453312	7	4060
2026-01-29 12:51:30.32	332.61	25.37	-23.7	-24.9	19.2	0.00e+00	0	41	0	3070230528	7	4128
2026-01-29 12:51:33.33	332.82	24.90	-23.7	-24.9	19.2	0.00e+00	0	42	0	3087007744	7	4125
2026-01-29 12:51:36.34	333.02	24.44	-23.9	-25.2	19.1	0.00e+00	0	41	0	3103784960	7	4205
2026-01-29 12:51:39.36	333.22	23.99	-24.0	-25.1	18.9	0.00e+00	0	41	0	3121610752	8	4051
2026-01-29 12:51:42.38	333.41	23.54	-24.2	-25.5	18.7	0.00e+00	0	41	0	3138387968	8	4150
2026-01-29 12:51:45.39	333.59	23.10	-24.2	-25.4	18.7	0.00e+00	0	41	0	3155165184	8	4146
2026-01-29 12:51:48.41	333.78	22.67	-24.3	-25.6	18.6	0.00e+00	0	41	0	3171942400	8	4197
2026-01-29 12:51:51.43	333.95	22.25	-24.3	-25.7	18.5	0.00e+00	0	41	0	3188719616	8	4213
2026-01-29 12:51:54.45	334.13	21.83	-24.5	-25.6	18.3	0.00e+00	0	41	0	3206545408	9	4083
2026-01-29 12:51:57.46	334.29	21.42	-24.7	-26.0	18.1	0.00e+00	0	41	0	3223322624	9	4171
2026-01-29 12:52:00.45	334.46	21.02	-24.8	-26.1	18.0	0.00e+00	0	41	0	3240099840	9	4207
2026-01-29 12:52:03.47	334.62	20.62	-24.8	-25.6	18.1	0.00e+00	0	42	0	3256877056	10	3962
2026-01-29 12:52:06.48	334.77	20.23	-24.6	-25.2	18.3	0.00e+00	0	41	0	3273654272	10	3873
2026-01-29 12:52:09.49	334.93	19.85	-24.8	-25.7	18.0	0.00e+00	0	42	0	3290431488	10	3980
2026-01-29 12:52:12.50	335.08	19.47	-24.9	-26.0	17.8	0.00e+00	0	42	0	3308257280	10	4051
2026-01-29 12:52:15.51	335.22	19.09	-25.1	-26.3	17.6	0.00e+00	0	41	0	3325034496	10	4142
2026-01-29 12:52:18.52	335.36	18.72	-25.2	-26.6	17.5	0.00e+00	0	41	0	3341811712	10	4206
2026-01-29 12:52:21.52	335.50	18.36	-25.2	-26.6	17.4	0.00e+00	0	41	0	3358588928	10	4225
2026-01-29 12:52:24.53	335.64	18.00	-25.3	-26.9	17.3	0.00e+00	0	41	0	3375366144	10	4292
2026-01-29 12:52:27.55	335.77	17.65	-25.4	-26.9	17.2	0.00e+00	0	42	0	3392143360	10	4308
2026-01-29 12:52:30.56	335.91	17.30	-25.2	-26.7	17.4	0.00e+00	0	42	0	3408920576	10	4233
2026-01-29 12:52:33.57	336.03	16.96	-25.3	-26.7	17.3	0.00e+00	0	42	0	3426746368	10	4237
2026-01-29 12:52:36.59	336.16	16.62	-25.4	-27.0	17.2	0.00e+00	0	41	0	3443523584	10	4316
2026-01-29 12:52:39.60	336.28	16.28	-25.3	-26.8	17.3	0.00e+00	0	42	0	3460300800	10	4272
2026-01-29 12:52:42.61	336.40	15.96	-25.4	-27.1	17.1	0.00e+00	0	41	0	3477078016	10	4343
2026-01-29 12:52:45.62	336.52	15.63	-25.5	-27.1	17.1	0.00e+00	0	41	0	3493855232	10	4355
2026-01-29 12:52:48.63	336.64	15.31	-25.6	-27.0	16.8	0.00e+00	0	42	0	3510632448	11	4207
2026-01-29 12:52:51.66	336.75	14.99	-25.6	-26.9	16.9	0.00e+00	0	41	0	3528458240	11	4179
2026-01-29 12:52:54.68	336.87	14.68	-25.7	-27.2	16.7	0.00e+00	0	42	0	3545235456	11	4261
2026-01-29 12:52:57.69	336.98	14.37	-25.8	-27.5	16.5	0.00e+00	0	42	0	3562012672	11	4339
2026-01-29 12:53:00.70	337.08	14.06	-26.2	-27.8	16.0	0.00e+00	0	42	0	3578789888	12	4312
2026-01-29 12:53:03.72	337.19	13.76	-25.9	-27.0	16.4	0.00e+00	0	42	0	3595567104	12	4109
2026-01-29 12:53:06.73	337.29	13.46	-26.0	-27.2	16.3	0.00e+00	0	41	0	3612344320	12	4166
2026-01-29 12:53:09.76	337.40	13.17	-25.9	-27.1	16.3	0.00e+00	0	42	0	3630170112	12	4140
2026-01-29 12:53:12.76	337.50	12.88	-26.0	-27.4	16.2	1.10e-06	0	42	0	3646947328	12	4218
2026-01-29 12:53:15.77	337.60	12.59	-26.1	-27.5	16.1	0.00e+00	0	42	0	3663724544	12	4231
2026-01-29 12:53:18.78	337.69	12.30	-26.2	-27.7	16.0	0.00e+00	0	41	0	3680501760	12	4281
2026-01-29 12:53:21.79	337.79	12.02	-26.3	-28.1	15.8	0.00e+00	0	42	0	3697278976	12	4389
2026-01-29 12:53:24.81	337.88	11.74	-26.3	-27.9	15.9	0.00e+00	0	42	0	3714056192	12	4346
2026-01-29 12:53:27.82	337.98	11.47	-26.3	-28.0	15.8	0.00e+00	0	42	0	3731881984	12	4374
2026-01-29 12:53:30.83	338.07	11.20	-26.4	-28.3	15.6	0.00e+00	0	42	0	3748659200	12	4460
2026-01-29 12:53:33.84	338.16	10.93	-26.7	-28.3	15.3	0.00e+00	0	42	0	3765436416	13	4347
2026-01-29 12:53:36.85	338.25	10.66	-26.7	-28.3	15.3	0.00e+00	0	42	0	3782213632	13	4332
2026-01-29 12:53:39.85	338.33	10.40	-26.6	-28.1	15.4	0.00e+00	0	42	0	3798990848	13	4284
2026-01-29 12:53:42.87	338.42	10.14	-26.7	-28.3	15.2	0.00e+00	0	42	0	3815768064	13	4358
2026-01-29 12:53:45.88	338.50	9.88	-26.8	-28.6	15.0	0.00e+00	0	42	0	3832545280	13	4424
2026-01-29 12:53:48.89	338.59	9.63	-26.9	-28.8	14.9	1.10e-06	0	42	0	3849322496	13	4490
2026-01-29 12:53:51.90	338.67	9.38	-26.9	-29.0	14.8	0.00e+00	0	41	0	3867148288	13	4538
2026-01-29 12:53:54.91	338.75	9.13	-27.1	-28.8	14.6	0.00e+00	0	42	0	3883925504	14	4384
2026-01-29 12:53:57.93	338.83	8.88	-27.2	-29.0	14.5	0.00e+00	0	42	0	3900702720	14	4431
2026-01-29 12:54:00.94	338.91	8.63	-27.2	-29.0	14.5	0.00e+00	0	42	0	3917479936	14	4439
2026-01-29 12:54:03.95	338.98	8.39	-27.2	-29.1	14.3	0.00e+00	0	42	0	3934257152	14	4486
2026-01-29 12:54:06.96	339.06	8.15	-27.4	-29.4	14.1	2.20e-06	0	42	0	3952082944	14	4569
2026-01-29 12:54:09.98	339.14	7.91	-27.4	-29.6	14.0	1.10e-06	0	42	0	3968860160	14	4616
2026-01-29 12:54:12.99	339.21	7.67	-27.5	-29.7	14.0	1.10e-06	0	42	0	3985637376	14	4644
2026-01-29 12:54:15.99	339.28	7.44	-27.4	-29.2	13.7	0.00e+00	0	42	0	4002414592	15	4382
2026-01-29 12:54:19.00	339.36	7.21	-27.4	-29.2	13.0	1.83e-05	0	42	0	4019191808	15	4402
2026-01-29 12:54:22.01	339.43	6.98	-33.8	-45.2	3.8	8.45e-01	0	42	104	4027580416	27	13298

#Closed at: 2026-01-29 12:54:24
#Recorded file [4027 MB]: D:/data/31010_260129_154224.dat