passes_logs/2026/01/29/R2M6_AANII_01/R2M6_AANII_01__20260129_223431_NOAA_20_JPSS-1_rec.log

#Pass ID: 20260129_223431_NOAA 20 (JPSS-1)
#Satellite: NOAA 20 (JPSS-1)
#Configuration: NOAA 20
#almurnet v.1.7.20240730
#Start time: 2026-01-29 22:34:31

#Version: 2.2.20231116
#Station: R2M6_AANII_01
#Location: 30.233357 lon 59.946436 lat
#TLE: 1 43013U 17073A   26028.86313978  .00000144  00000+0  89200-4 0  9993
#TLE: 2 43013  98.7648 329.6571 0000891  20.0014 340.1197 14.19541559424709

#Time	Az	El	Level	Level2	SNR	BER	BlckErr	Temp	State	Recorded	gain1	gain2
2026-01-29 22:34:31.81	31.87	7.02	-31.9	-39.2	4.8	1.25e+00	0	41	0	0	23	8317
2026-01-29 22:34:34.81	32.18	7.20	-32.1	-39.7	6.3	2.57e-01	0	41	0	1048576	24	8609
2026-01-29 22:34:37.82	32.50	7.38	-32.0	-38.6	7.2	1.51e-01	0	41	0	7340032	24	7707
2026-01-29 22:34:40.83	32.82	7.55	-32.0	-38.5	7.5	9.95e-02	0	41	0	12582912	24	7596
2026-01-29 22:34:43.85	33.14	7.74	-31.8	-37.9	8.3	8.31e-02	0	41	0	17825792	23	7292
2026-01-29 22:34:46.86	33.47	7.92	-31.2	-35.8	10.3	7.04e-03	0	41	0	24117248	22	6166
2026-01-29 22:34:49.87	33.80	8.10	-30.8	-35.2	11.2	1.50e-03	0	41	0	29360128	21	5959
2026-01-29 22:34:52.88	34.13	8.28	-30.9	-35.4	11.1	1.67e-03	0	41	0	35651584	21	6063
2026-01-29 22:34:55.90	34.47	8.46	-30.9	-35.3	11.2	1.91e-03	0	41	0	40894464	21	6028
2026-01-29 22:34:58.91	34.81	8.64	-30.8	-35.0	11.4	9.51e-04	0	41	0	46137344	21	5878
2026-01-29 22:35:01.92	35.16	8.83	-30.9	-35.4	11.1	1.31e-03	0	41	0	52428800	21	6041
2026-01-29 22:35:04.93	35.51	9.01	-30.7	-34.8	11.6	6.90e-04	0	41	0	57671680	21	5747
2026-01-29 22:35:07.94	35.87	9.19	-30.7	-34.8	11.6	5.63e-04	0	42	0	63963136	21	5733
2026-01-29 22:35:10.95	36.23	9.38	-30.5	-34.1	12.1	3.48e-04	0	42	0	69206016	21	5448
2026-01-29 22:35:13.95	36.59	9.56	-30.4	-33.7	12.4	1.55e-04	0	42	0	74448896	21	5286
2026-01-29 22:35:16.95	36.96	9.75	-30.5	-34.0	12.2	1.91e-04	0	42	0	80740352	21	5401
2026-01-29 22:35:19.97	37.33	9.93	-30.4	-33.8	12.4	1.81e-04	0	42	0	85983232	21	5318
2026-01-29 22:35:22.97	37.71	10.12	-30.4	-33.7	12.5	1.17e-04	0	42	0	91226112	21	5281
2026-01-29 22:35:25.98	38.09	10.30	-30.5	-34.0	12.2	2.16e-04	0	42	0	97517568	21	5409
2026-01-29 22:35:28.99	38.47	10.49	-30.6	-34.3	12.1	2.84e-04	0	42	0	102760448	21	5550
2026-01-29 22:35:31.99	38.86	10.67	-30.7	-34.5	11.9	4.49e-04	0	42	0	109051904	21	5632
2026-01-29 22:35:35.01	39.26	10.86	-30.7	-34.6	11.9	5.07e-04	0	42	0	114294784	21	5648
2026-01-29 22:35:38.01	39.66	11.05	-30.5	-34.2	12.2	2.26e-04	0	42	0	119537664	21	5466
2026-01-29 22:35:41.01	40.07	11.24	-30.5	-34.0	12.3	1.77e-04	0	42	0	125829120	21	5386
2026-01-29 22:35:44.02	40.48	11.42	-30.5	-34.0	12.4	1.65e-04	0	42	0	131072000	21	5366
2026-01-29 22:35:47.03	40.89	11.61	-30.6	-34.2	12.2	2.30e-04	0	42	0	136314880	21	5450
2026-01-29 22:35:50.04	41.31	11.80	-30.8	-34.8	11.8	3.99e-04	0	42	0	142606336	21	5729
2026-01-29 22:35:53.05	41.74	11.99	-30.4	-33.8	12.5	1.27e-04	0	42	0	147849216	21	5299
2026-01-29 22:35:56.07	42.17	12.17	-30.2	-33.2	13.0	4.27e-05	0	42	0	154140672	21	5036
2026-01-29 22:35:59.07	42.61	12.36	-30.3	-33.3	13.0	4.88e-05	0	42	0	159383552	21	5095
2026-01-29 22:36:02.08	43.05	12.55	-30.4	-33.6	12.7	6.17e-05	0	42	0	164626432	21	5199
2026-01-29 22:36:05.10	43.50	12.74	-30.4	-33.8	12.6	1.14e-04	0	42	0	170917888	21	5281
2026-01-29 22:36:08.12	43.96	12.93	-30.4	-34.1	12.9	3.04e-04	0	42	0	176160768	20	5489
2026-01-29 22:36:11.13	44.42	13.11	-30.8	-34.8	12.0	4.71e-04	0	42	0	182452224	21	5682
2026-01-29 22:36:14.14	44.88	13.30	-30.7	-34.4	12.2	3.37e-04	0	43	0	187695104	21	5521
2026-01-29 22:36:17.15	45.35	13.49	-30.5	-33.8	12.6	8.77e-05	0	42	0	192937984	21	5306
2026-01-29 22:36:20.15	45.83	13.67	-30.5	-33.9	12.7	9.46e-05	0	43	0	199229440	21	5321
2026-01-29 22:36:23.15	46.31	13.86	-30.3	-33.1	13.2	3.35e-05	0	43	0	204472320	21	4998
2026-01-29 22:36:26.16	46.80	14.04	-30.3	-33.2	13.2	5.49e-05	0	42	0	209715200	21	5039
2026-01-29 22:36:29.17	47.29	14.23	-30.3	-33.2	13.2	2.51e-05	0	43	0	216006656	21	5028
2026-01-29 22:36:32.18	47.79	14.41	-30.2	-33.0	13.3	2.05e-05	0	43	0	221249536	21	4948
2026-01-29 22:36:35.19	48.30	14.60	-30.0	-32.5	13.6	4.50e-06	0	43	0	227540992	21	4761
2026-01-29 22:36:38.19	48.81	14.78	-30.1	-33.2	13.5	6.40e-05	0	43	0	232783872	20	5147
2026-01-29 22:36:41.22	49.33	14.96	-29.8	-32.3	14.1	7.00e-07	0	43	0	238026752	20	4817
2026-01-29 22:36:44.23	49.86	15.15	-29.7	-32.1	14.2	7.00e-07	0	43	0	244318208	20	4750
2026-01-29 22:36:47.24	50.39	15.33	-29.9	-32.6	14.0	1.50e-06	0	43	0	249561088	20	4897
2026-01-29 22:36:50.25	50.93	15.51	-30.0	-32.7	13.9	1.50e-06	0	43	0	254803968	20	4963
2026-01-29 22:36:53.26	51.47	15.69	-29.9	-32.6	14.1	9.90e-04	0	43	0	261095424	20	4888
2026-01-29 22:36:56.27	52.02	15.86	-29.9	-33.0	14.2	5.31e-04	0	43	0	266338304	19	5162
2026-01-29 22:36:59.28	52.58	16.04	-30.1	-33.0	13.8	1.06e-05	0	43	0	272629760	20	5055
2026-01-29 22:37:02.29	53.14	16.22	-30.1	-33.0	13.8	5.30e-06	0	43	0	277872640	20	5057
2026-01-29 22:37:05.30	53.71	16.39	-30.2	-33.3	13.7	6.10e-06	0	43	0	283115520	20	5149
2026-01-29 22:37:08.31	54.29	16.56	-30.1	-33.1	13.8	3.80e-06	0	43	0	289406976	20	5061
2026-01-29 22:37:11.32	54.87	16.73	-30.1	-33.1	13.7	5.30e-06	0	43	0	294649856	20	5095
2026-01-29 22:37:14.33	55.46	16.90	-30.1	-33.0	13.8	4.50e-06	0	43	0	300941312	20	5046
2026-01-29 22:37:17.35	56.06	17.07	-30.2	-33.4	13.6	1.52e-05	0	43	0	306184192	20	5201
2026-01-29 22:37:20.36	56.66	17.24	-30.2	-33.4	13.6	1.06e-05	0	43	0	311427072	20	5190
2026-01-29 22:37:23.36	57.26	17.40	-30.3	-33.6	13.5	6.10e-06	0	43	0	317718528	20	5268
2026-01-29 22:37:26.37	57.88	17.56	-30.3	-33.7	13.4	1.06e-05	0	43	0	322961408	20	5291
2026-01-29 22:37:29.39	58.50	17.72	-30.6	-33.8	13.0	3.05e-05	0	43	0	329252864	21	5232
2026-01-29 22:37:32.39	59.13	17.88	-30.7	-34.1	12.8	5.87e-05	0	43	0	334495744	21	5327
2026-01-29 22:37:35.40	59.76	18.03	-30.8	-34.5	12.6	7.01e-05	0	43	0	339738624	21	5501
2026-01-29 22:37:38.41	60.40	18.19	-30.9	-34.8	12.4	1.67e-04	0	43	0	346030080	21	5629
2026-01-29 22:37:41.41	61.05	18.34	-30.9	-34.8	12.3	1.66e-04	0	43	0	351272960	21	5653
2026-01-29 22:37:44.42	61.70	18.48	-30.8	-34.5	12.6	1.12e-04	0	43	0	356515840	21	5514
2026-01-29 22:37:47.44	62.36	18.63	-31.0	-34.5	12.3	1.74e-04	0	43	0	362807296	22	5397
2026-01-29 22:37:50.45	63.03	18.77	-30.9	-34.1	12.6	1.33e-04	0	43	0	368050176	22	5234
2026-01-29 22:37:53.46	63.70	18.91	-30.8	-34.4	12.7	9.91e-05	0	43	0	374341632	21	5454
2026-01-29 22:37:56.46	64.37	19.04	-30.5	-33.7	13.1	2.82e-05	0	43	0	379584512	21	5191
2026-01-29 22:37:59.47	65.06	19.18	-30.7	-34.1	12.9	5.41e-05	0	43	0	384827392	21	5342
2026-01-29 22:38:02.48	65.74	19.31	-30.6	-33.8	13.1	2.67e-05	0	43	0	391118848	21	5205
2026-01-29 22:38:05.48	66.44	19.43	-30.5	-33.6	13.2	2.67e-05	0	43	0	396361728	21	5132
2026-01-29 22:38:08.49	67.14	19.55	-30.7	-34.1	12.9	3.28e-05	0	43	0	401604608	21	5338
2026-01-29 22:38:11.50	67.84	19.67	-30.6	-33.8	13.1	3.28e-05	0	43	0	407896064	21	5214
2026-01-29 22:38:14.50	68.55	19.79	-30.5	-33.6	13.3	1.37e-05	0	43	0	413138944	21	5134
2026-01-29 22:38:17.52	69.27	19.90	-30.5	-33.7	13.2	1.90e-05	0	43	0	419430400	21	5171
2026-01-29 22:38:20.54	69.99	20.01	-30.6	-33.8	13.2	1.98e-05	0	43	0	424673280	21	5214
2026-01-29 22:38:23.53	70.72	20.11	-30.6	-33.8	13.1	4.27e-05	0	43	0	429916160	21	5238
2026-01-29 22:38:26.53	71.44	20.21	-30.3	-33.1	13.6	6.80e-06	0	43	0	436207616	21	4944
2026-01-29 22:38:29.53	72.18	20.30	-30.1	-32.5	13.9	4.50e-06	0	43	0	441450496	21	4759
2026-01-29 22:38:32.55	72.92	20.39	-29.9	-31.9	14.3	1.50e-06	0	43	0	446693376	21	4553
2026-01-29 22:38:35.55	73.66	20.48	-30.1	-32.6	13.9	4.50e-06	0	43	0	452984832	21	4789
2026-01-29 22:38:38.55	74.41	20.56	-30.1	-32.4	14.0	6.80e-06	0	43	0	458227712	21	4705
2026-01-29 22:38:41.56	75.16	20.64	-30.1	-32.5	14.0	3.80e-06	0	43	0	464519168	21	4744
2026-01-29 22:38:44.58	75.92	20.71	-30.3	-32.9	13.7	2.20e-06	0	43	0	469762048	21	4898
2026-01-29 22:38:47.59	76.68	20.78	-30.6	-34.0	13.0	2.97e-05	0	43	0	475004928	21	5303
2026-01-29 22:38:50.61	77.44	20.84	-30.6	-34.0	13.0	4.57e-05	0	43	0	481296384	21	5299
2026-01-29 22:38:53.62	78.21	20.90	-30.3	-32.9	13.7	1.06e-05	0	43	0	486539264	21	4888
2026-01-29 22:38:56.64	78.98	20.95	-30.4	-33.2	13.5	9.90e-06	0	43	0	492830720	21	5007
2026-01-29 22:38:59.65	79.75	21.00	-30.7	-34.1	12.9	3.81e-05	0	43	0	498073600	21	5359
2026-01-29 22:39:02.66	80.52	21.04	-30.8	-34.5	12.7	6.86e-05	0	43	0	503316480	21	5480
2026-01-29 22:39:05.66	81.29	21.08	-30.5	-33.5	13.3	2.59e-05	0	43	0	509607936	21	5093
2026-01-29 22:39:08.68	82.07	21.11	-30.5	-33.5	13.3	2.44e-05	0	43	0	514850816	21	5120
2026-01-29 22:39:11.69	82.85	21.14	-30.7	-34.0	13.0	3.81e-05	0	43	0	520093696	21	5299
2026-01-29 22:39:14.70	83.63	21.16	-30.6	-33.9	13.1	4.11e-05	0	43	0	526385152	21	5272
2026-01-29 22:39:17.71	84.41	21.18	-30.4	-33.2	13.6	1.67e-05	0	43	0	531628032	21	4989
2026-01-29 22:39:20.71	85.19	21.19	-30.2	-32.6	13.9	4.50e-06	0	43	0	537919488	21	4794
2026-01-29 22:39:23.72	85.97	21.19	-30.1	-32.4	14.0	3.00e-06	0	43	0	543162368	21	4709
2026-01-29 22:39:26.74	86.75	21.19	-30.3	-33.1	13.5	3.80e-06	0	43	0	548405248	21	4969
2026-01-29 22:39:29.75	87.53	21.19	-30.6	-33.9	13.1	4.73e-05	0	43	0	554696704	21	5247
2026-01-29 22:39:32.76	88.32	21.18	-30.6	-33.8	13.1	8.39e-05	0	43	0	559939584	21	5230
2026-01-29 22:39:35.77	89.10	21.16	-30.5	-33.6	13.3	2.28e-05	0	43	0	566231040	21	5167
2026-01-29 22:39:38.77	89.87	21.14	-30.4	-33.5	13.4	2.36e-05	0	43	0	571473920	21	5093
2026-01-29 22:39:41.78	90.65	21.12	-30.5	-33.7	13.2	1.98e-05	0	43	0	576716800	21	5193
2026-01-29 22:39:44.79	91.43	21.09	-30.7	-34.0	12.9	9.15e-05	0	43	0	583008256	21	5311
2026-01-29 22:39:47.80	92.21	21.05	-30.4	-33.4	13.4	9.90e-06	0	43	0	588251136	21	5082
2026-01-29 22:39:50.81	92.98	21.01	-30.7	-34.3	12.8	4.88e-05	0	43	0	593494016	21	5405
2026-01-29 22:39:53.83	93.75	20.96	-30.8	-34.5	12.7	7.17e-05	0	43	0	599785472	21	5499
2026-01-29 22:39:56.83	94.52	20.91	-30.7	-34.2	12.8	9.15e-05	0	43	0	605028352	21	5386
2026-01-29 22:39:59.84	95.29	20.85	-30.0	-32.2	14.1	1.50e-06	0	43	0	611319808	21	4651
2026-01-29 22:40:02.86	96.05	20.79	-30.0	-32.1	14.2	7.00e-07	0	43	0	616562688	21	4630
2026-01-29 22:40:05.87	96.82	20.72	-29.7	-32.0	14.6	0.00e+00	0	43	0	621805568	20	4678
2026-01-29 22:40:08.88	97.57	20.65	-30.2	-33.3	13.8	3.80e-06	0	43	0	628097024	20	5141
2026-01-29 22:40:11.89	98.33	20.57	-30.1	-32.9	14.0	4.50e-06	0	43	0	633339904	20	5010
2026-01-29 22:40:14.91	99.08	20.49	-29.9	-32.5	14.2	7.70e-05	0	43	0	639631360	20	4867
2026-01-29 22:40:17.92	99.83	20.41	-29.4	-31.3	14.9	0.00e+00	0	43	0	644874240	20	4473
2026-01-29 22:40:20.93	100.57	20.32	-29.3	-31.0	15.2	0.00e+00	0	43	0	650117120	20	4372
2026-01-29 22:40:23.94	101.31	20.22	-29.7	-32.5	14.6	7.00e-07	0	43	0	656408576	19	4963
2026-01-29 22:40:26.95	102.04	20.12	-30.0	-32.7	14.1	1.50e-06	0	43	0	661651456	20	4927
2026-01-29 22:40:29.95	102.77	20.02	-29.7	-32.0	14.5	7.00e-07	0	43	0	666894336	20	4687
2026-01-29 22:40:32.96	103.49	19.92	-29.6	-31.7	14.7	2.51e-05	0	43	0	673185792	20	4593
2026-01-29 22:40:35.97	104.21	19.80	-29.1	-30.9	15.5	0.00e+00	0	43	0	678428672	19	4451
2026-01-29 22:40:38.97	104.92	19.69	-28.9	-30.5	15.8	0.00e+00	0	43	0	684720128	19	4313
2026-01-29 22:40:41.98	105.63	19.57	-28.9	-30.9	15.8	0.00e+00	0	43	0	689963008	18	4560
2026-01-29 22:40:44.99	106.34	19.45	-29.0	-31.1	15.6	0.00e+00	0	43	0	695205888	18	4624
2026-01-29 22:40:47.99	107.03	19.32	-29.4	-32.2	15.0	0.00e+00	0	43	0	701497344	18	4985
2026-01-29 22:40:51.01	107.73	19.19	-29.6	-32.2	14.6	7.00e-07	0	43	0	706740224	19	4879
2026-01-29 22:40:54.01	108.41	19.06	-29.4	-31.7	15.0	0.00e+00	0	43	0	711983104	19	4706
2026-01-29 22:40:57.02	109.09	18.92	-29.4	-31.9	14.8	7.00e-07	0	43	0	718274560	19	4749
2026-01-29 22:41:00.02	109.76	18.79	-29.4	-31.8	14.9	0.00e+00	0	43	0	723517440	19	4730
2026-01-29 22:41:03.03	110.43	18.64	-30.0	-33.2	14.0	2.20e-06	0	43	0	729808896	19	5235
2026-01-29 22:41:06.04	111.09	18.50	-30.2	-33.5	13.2	1.14e-05	0	43	0	735051776	20	5234
2026-01-29 22:41:09.05	111.75	18.35	-30.5	-34.2	12.9	3.20e-05	0	43	0	740294656	20	5511
2026-01-29 22:41:12.06	112.40	18.20	-30.4	-33.9	13.1	2.36e-05	0	43	0	746586112	20	5406
2026-01-29 22:41:15.07	113.05	18.05	-30.7	-34.5	12.3	1.65e-04	0	43	0	751828992	21	5584
2026-01-29 22:41:18.07	113.68	17.89	-30.6	-34.2	12.5	1.38e-04	0	43	0	757071872	21	5427
2026-01-29 22:41:21.08	114.31	17.73	-30.6	-34.2	12.5	1.15e-04	0	43	0	763363328	21	5457
2026-01-29 22:41:24.10	114.94	17.57	-30.4	-33.4	13.1	2.97e-05	0	43	0	768606208	21	5126
2026-01-29 22:41:27.12	115.56	17.41	-30.5	-33.9	12.6	5.64e-05	0	43	0	774897664	21	5330
2026-01-29 22:41:30.14	116.17	17.24	-30.4	-33.5	13.0	5.72e-05	0	43	0	780140544	21	5143
2026-01-29 22:41:33.14	116.78	17.08	-30.1	-32.9	13.3	1.98e-05	0	43	0	785383424	21	4969
2026-01-29 22:41:36.15	117.38	16.91	-30.0	-32.5	13.5	7.60e-06	0	43	0	791674880	21	4818
2026-01-29 22:41:39.17	117.97	16.74	-30.1	-32.7	13.5	1.06e-05	0	43	0	796917760	21	4847
2026-01-29 22:41:42.18	118.56	16.56	-30.0	-32.5	13.6	1.29e-05	0	43	0	803209216	21	4802
2026-01-29 22:41:45.19	119.14	16.39	-30.3	-33.3	13.0	1.33e-04	0	43	0	808452096	21	5079
2026-01-29 22:41:48.20	119.71	16.22	-30.6	-34.2	12.5	1.37e-04	0	43	0	813694976	21	5427
2026-01-29 22:41:51.21	120.27	16.04	-30.5	-33.8	12.7	1.04e-04	0	43	0	819986432	21	5305
2026-01-29 22:41:54.22	120.83	15.86	-30.3	-33.5	12.9	3.43e-05	0	43	0	825229312	21	5177
2026-01-29 22:41:57.24	121.39	15.68	-30.3	-33.5	12.9	4.19e-05	0	43	0	830472192	21	5149
2026-01-29 22:42:00.23	121.93	15.50	-30.0	-32.4	13.6	7.01e-05	0	43	0	836763648	21	4760
2026-01-29 22:42:03.22	122.47	15.32	-30.0	-32.6	13.5	4.50e-05	0	43	0	842006528	21	4811
2026-01-29 22:42:06.23	123.00	15.14	-30.3	-33.4	12.9	4.11e-05	0	43	0	848297984	21	5118
2026-01-29 22:42:09.23	123.53	14.96	-30.1	-32.8	13.3	2.05e-05	0	43	0	853540864	21	4910
2026-01-29 22:42:12.23	124.05	14.77	-29.9	-32.8	13.6	6.80e-06	0	43	0	858783744	20	5008
2026-01-29 22:42:15.24	124.57	14.59	-30.1	-33.3	13.3	1.01e-03	0	43	0	865075200	20	5227
2026-01-29 22:42:18.22	125.07	14.41	-30.3	-33.8	13.0	6.71e-04	0	43	0	870318080	20	5387
2026-01-29 22:42:21.25	125.58	14.22	-29.8	-32.4	13.8	6.02e-05	0	43	0	875560960	20	4875
2026-01-29 22:42:24.27	126.08	14.03	-29.8	-32.5	13.8	5.30e-06	0	43	0	881852416	20	4912
2026-01-29 22:42:27.29	126.57	13.84	-30.4	-34.1	12.7	4.57e-05	0	43	0	887095296	20	5511
2026-01-29 22:42:30.30	127.06	13.65	-30.4	-33.5	12.7	7.70e-05	0	43	0	893386752	21	5181
2026-01-29 22:42:33.31	127.53	13.47	-30.1	-32.9	13.1	2.28e-05	0	43	0	898629632	21	4957
2026-01-29 22:42:36.31	128.01	13.28	-30.2	-33.3	12.8	4.57e-05	0	43	0	903872512	21	5115
2026-01-29 22:42:39.31	128.47	13.09	-30.4	-33.8	12.4	1.47e-04	0	43	0	910163968	21	5345
2026-01-29 22:42:42.32	128.93	12.90	-30.3	-33.6	12.6	1.01e-04	0	43	0	915406848	21	5229
2026-01-29 22:42:45.31	129.39	12.71	-30.3	-33.6	12.6	1.37e-04	0	43	0	920649728	21	5212
2026-01-29 22:42:48.33	129.84	12.52	-30.6	-34.3	12.0	2.72e-04	0	43	0	926941184	21	5546
2026-01-29 22:42:51.34	130.28	12.33	-30.8	-35.1	11.5	7.73e-04	0	43	0	932184064	21	5896
2026-01-29 22:42:54.34	130.72	12.14	-30.4	-33.8	12.3	2.37e-04	0	43	0	938475520	21	5343
2026-01-29 22:42:57.34	131.16	11.96	-30.2	-33.1	12.8	7.93e-05	0	43	0	943718400	21	5071
2026-01-29 22:43:00.34	131.58	11.77	-30.3	-34.1	12.4	1.14e-04	0	43	0	948961280	20	5571
2026-01-29 22:43:03.36	132.01	11.58	-30.4	-34.4	12.2	2.23e-04	0	43	0	955252736	20	5716
2026-01-29 22:43:06.37	132.43	11.39	-30.3	-34.3	12.2	2.18e-04	0	43	0	960495616	20	5704
2026-01-29 22:43:09.37	132.84	11.20	-30.4	-34.3	12.3	1.56e-04	0	43	0	965738496	20	5642
2026-01-29 22:43:12.36	133.24	11.01	-30.7	-34.8	11.6	5.29e-04	0	43	0	972029952	21	5761
2026-01-29 22:43:15.37	133.64	10.82	-30.8	-35.5	10.9	1.99e-03	0	43	0	977272832	21	6176
2026-01-29 22:43:18.38	134.04	10.63	-30.5	-34.8	11.3	1.41e-03	0	43	0	983564288	21	5884
2026-01-29 22:43:21.40	134.44	10.44	-30.6	-34.9	11.2	1.68e-03	0	43	0	988807168	21	5907
2026-01-29 22:43:24.41	134.83	10.26	-30.3	-33.7	12.2	2.36e-04	0	43	0	994050048	21	5320
2026-01-29 22:43:27.41	135.21	10.07	-30.4	-33.9	12.0	3.42e-04	0	43	0	1000341504	21	5417
2026-01-29 22:43:30.41	135.58	9.88	-30.5	-34.2	11.8	4.85e-04	0	43	0	1005584384	21	5553
2026-01-29 22:43:33.42	135.96	9.69	-30.5	-34.2	11.8	5.43e-04	0	43	0	1010827264	21	5533
2026-01-29 22:43:36.42	136.33	9.51	-30.6	-34.6	11.4	7.27e-04	0	43	0	1017118720	21	5736
2026-01-29 22:43:39.44	136.69	9.32	-30.6	-35.2	10.9	1.70e-03	0	43	0	1022361600	21	6058
2026-01-29 22:43:42.45	137.05	9.13	-30.7	-35.5	10.6	3.79e-03	0	43	0	1028653056	21	6254
2026-01-29 22:43:45.45	137.41	8.95	-30.7	-35.4	10.7	3.44e-03	0	43	0	1033895936	21	6187
2026-01-29 22:43:48.47	137.76	8.76	-30.7	-35.3	10.8	3.49e-03	0	43	0	1039138816	21	6076
2026-01-29 22:43:51.48	138.11	8.58	-30.7	-35.1	10.9	2.51e-03	0	43	0	1045430272	21	5998
2026-01-29 22:43:54.50	138.45	8.39	-30.7	-35.4	10.6	3.09e-03	0	43	0	1050673152	21	6165
2026-01-29 22:43:57.49	138.79	8.21	-30.8	-35.8	10.3	5.12e-03	0	43	0	1055916032	21	6372
2026-01-29 22:44:00.49	139.12	8.03	-30.9	-36.2	9.9	7.64e-03	0	43	0	1062207488	21	6620
2026-01-29 22:44:03.50	139.45	7.85	-31.1	-36.3	9.5	1.03e-02	0	43	0	1067450368	22	6526
2026-01-29 22:44:06.50	139.78	7.66	-31.2	-36.5	9.3	1.73e-02	0	43	0	1073741824	22	6651
2026-01-29 22:44:09.52	140.10	7.48	-31.0	-36.6	9.1	2.25e-02	0	43	0	1078984704	22	6799
2026-01-29 22:44:12.54	140.42	7.30	-30.7	-36.0	9.2	1.99e-02	0	43	0	1084227584	22	6654
2026-01-29 22:44:15.54	140.74	7.12	-30.7	-36.7	9.0	2.68e-02	0	43	0	1090519040	21	7226

#Closed at: 2026-01-29 22:44:18
#Recorded file [1091 MB]: D:/data/31010_260130_013433.dat