passes_logs/2026/01/29/R2M6_AANII_01/R2M6_AANII_01__20260129_021350_NOAA_20_JPSS-1_rec.log

#Pass ID: 20260129_021350_NOAA 20 (JPSS-1)
#Satellite: NOAA 20 (JPSS-1)
#Configuration: NOAA 20
#almurnet v.1.7.20240730
#Start time: 2026-01-29 02:13:51

#Version: 2.2.20231116
#Station: R2M6_AANII_01
#Location: 30.233357 lon 59.946436 lat
#TLE: 1 43013U 17073A   26027.80586608  .00000156  00000+0  94940-4 0  9998
#TLE: 2 43013  98.7647 328.6108 0000947  21.3465 338.7750 14.19541216424550

#Time	Az	El	Level	Level2	SNR	BER	BlckErr	Temp	State	Recorded	gain1	gain2
2026-01-29 02:13:51.41	10.40	7.08	-32.3	-41.8	4.2	1.42e+00	0	41	0	0	24	10766
2026-01-29 02:13:54.43	10.13	7.28	-32.2	-41.0	5.4	5.37e-01	0	41	0	1048576	24	9838
2026-01-29 02:13:57.44	9.86	7.47	-32.2	-40.8	5.5	4.90e-01	0	41	0	7340032	24	9616
2026-01-29 02:14:00.45	9.58	7.67	-32.2	-40.1	5.9	4.31e-01	0	41	0	12582912	24	8998
2026-01-29 02:14:03.47	9.30	7.87	-31.6	-37.5	8.2	7.79e-02	0	41	0	18874368	23	7118
2026-01-29 02:14:06.48	9.02	8.06	-31.1	-35.8	10.0	1.34e-02	0	41	0	24117248	22	6220
2026-01-29 02:14:09.49	8.73	8.26	-31.0	-35.5	10.2	8.80e-03	0	42	0	29360128	22	6069
2026-01-29 02:14:12.50	8.44	8.46	-30.9	-35.8	10.4	7.34e-03	0	42	0	35651584	21	6334
2026-01-29 02:14:15.51	8.14	8.66	-31.1	-35.7	10.2	7.78e-03	0	42	0	40894464	22	6170
2026-01-29 02:14:18.51	7.84	8.86	-30.9	-35.6	10.7	3.52e-03	0	42	0	46137344	21	6203
2026-01-29 02:14:21.53	7.53	9.07	-30.9	-35.6	10.6	3.35e-03	0	42	0	52428800	21	6200
2026-01-29 02:14:24.54	7.22	9.27	-30.9	-35.7	10.6	3.25e-03	0	42	0	57671680	21	6215
2026-01-29 02:14:27.56	6.90	9.47	-31.0	-35.5	10.4	6.24e-03	0	42	0	63963136	22	6025
2026-01-29 02:14:30.56	6.59	9.68	-31.0	-35.2	10.7	6.22e-03	0	42	0	69206016	22	5880
2026-01-29 02:14:33.58	6.26	9.88	-30.8	-35.4	10.9	5.16e-03	0	42	0	74448896	21	6058
2026-01-29 02:14:36.59	5.93	10.09	-30.8	-35.1	11.2	1.80e-03	0	42	0	80740352	21	5912
2026-01-29 02:14:39.60	5.60	10.29	-30.7	-34.9	11.2	1.28e-03	0	42	0	85983232	21	5856
2026-01-29 02:14:42.60	5.26	10.50	-30.7	-34.9	11.3	1.13e-03	0	42	0	91226112	21	5852
2026-01-29 02:14:45.61	4.92	10.71	-30.7	-34.9	11.3	1.01e-03	0	42	0	97517568	21	5807
2026-01-29 02:14:48.62	4.57	10.92	-30.7	-34.7	11.4	7.89e-04	0	42	0	102760448	21	5755
2026-01-29 02:14:51.63	4.22	11.13	-30.7	-34.9	11.3	1.14e-03	0	42	0	109051904	21	5842
2026-01-29 02:14:54.65	3.86	11.34	-30.7	-34.9	11.4	8.96e-04	0	42	0	114294784	21	5808
2026-01-29 02:14:57.65	3.49	11.55	-30.7	-34.7	11.5	8.44e-04	0	42	0	119537664	21	5748
2026-01-29 02:15:00.65	3.12	11.76	-30.7	-34.7	11.5	1.09e-03	0	43	0	125829120	21	5727
2026-01-29 02:15:03.67	2.75	11.97	-30.5	-34.3	11.9	5.09e-04	0	43	0	131072000	21	5534
2026-01-29 02:15:06.68	2.37	12.18	-30.5	-34.2	11.9	4.12e-04	0	43	0	137363456	21	5510
2026-01-29 02:15:09.70	1.98	12.40	-30.5	-34.1	12.1	3.26e-04	0	43	0	142606336	21	5468
2026-01-29 02:15:12.71	1.59	12.61	-30.4	-34.4	12.2	1.75e-03	0	43	0	147849216	20	5696
2026-01-29 02:15:15.73	1.19	12.83	-30.6	-34.4	11.9	2.94e-03	0	43	0	154140672	21	5575
2026-01-29 02:15:18.74	0.78	13.04	-30.4	-34.4	12.2	2.73e-03	0	43	0	159383552	20	5704
2026-01-29 02:15:21.76	0.37	13.26	-30.5	-34.2	12.0	2.39e-04	0	43	0	164626432	21	5480
2026-01-29 02:15:24.76	359.96	13.47	-30.5	-34.1	12.1	3.10e-04	0	43	0	170917888	21	5464
2026-01-29 02:15:27.78	359.53	13.69	-30.6	-34.3	11.9	3.23e-04	0	43	0	176160768	21	5536
2026-01-29 02:15:30.79	359.10	13.91	-30.4	-34.4	12.2	2.41e-03	0	43	0	182452224	20	5665
2026-01-29 02:15:33.79	358.67	14.12	-30.5	-34.5	12.2	2.82e-03	0	43	0	187695104	20	5706
2026-01-29 02:15:36.80	358.23	14.34	-30.3	-34.0	12.6	2.75e-03	0	43	0	192937984	20	5491
2026-01-29 02:15:39.80	357.78	14.56	-30.4	-34.1	12.5	2.39e-03	0	43	0	199229440	20	5529
2026-01-29 02:15:42.81	357.32	14.77	-30.3	-34.0	12.5	2.76e-03	0	43	0	204472320	20	5494
2026-01-29 02:15:45.82	356.86	14.99	-30.3	-33.9	12.7	2.57e-03	0	43	0	210763776	20	5444
2026-01-29 02:15:48.83	356.39	15.21	-30.8	-34.8	11.7	2.72e-03	0	43	0	216006656	21	5735
2026-01-29 02:15:51.84	355.92	15.43	-30.4	-34.4	12.4	2.43e-03	0	43	0	221249536	20	5648
2026-01-29 02:15:54.84	355.43	15.64	-30.6	-34.3	12.0	2.55e-03	0	43	0	227540992	21	5512
2026-01-29 02:15:57.85	354.94	15.86	-30.5	-34.4	12.3	2.17e-03	0	43	0	232783872	20	5685
2026-01-29 02:16:00.86	354.44	16.08	-30.6	-34.3	12.1	1.76e-03	0	43	0	238026752	21	5499
2026-01-29 02:16:03.88	353.94	16.29	-30.4	-34.1	12.6	1.03e-04	0	43	0	244318208	20	5547
2026-01-29 02:16:06.89	353.42	16.51	-30.4	-34.4	12.4	1.45e-04	0	43	0	249561088	20	5676
2026-01-29 02:16:09.90	352.90	16.72	-30.5	-34.0	12.3	1.49e-04	0	43	0	255852544	21	5392
2026-01-29 02:16:12.91	352.38	16.94	-30.4	-34.2	12.6	1.23e-04	0	43	0	261095424	20	5570
2026-01-29 02:16:15.92	351.84	17.15	-30.7	-34.6	11.9	9.70e-04	0	43	0	266338304	21	5636
2026-01-29 02:16:18.93	351.30	17.37	-30.7	-34.7	11.9	9.96e-04	0	43	0	272629760	21	5664
2026-01-29 02:16:21.95	350.74	17.58	-30.8	-34.7	11.9	5.10e-04	0	43	0	277872640	21	5673
2026-01-29 02:16:24.96	350.18	17.79	-30.7	-34.7	11.9	3.18e-04	0	43	0	283115520	21	5653
2026-01-29 02:16:27.96	349.62	18.00	-30.7	-34.6	12.0	4.08e-04	0	43	0	289406976	21	5643
2026-01-29 02:16:30.97	349.04	18.21	-30.6	-34.1	12.4	1.76e-04	0	43	0	294649856	21	5402
2026-01-29 02:16:33.98	348.46	18.42	-30.5	-34.0	12.4	1.34e-04	0	43	0	300941312	21	5380
2026-01-29 02:16:37.00	347.87	18.63	-30.4	-33.7	12.6	1.04e-04	0	43	0	306184192	21	5267
2026-01-29 02:16:40.02	347.26	18.84	-30.2	-33.2	13.0	4.34e-05	0	43	0	312475648	21	5051
2026-01-29 02:16:43.03	346.65	19.04	-30.1	-32.8	13.2	3.05e-05	0	43	0	317718528	21	4925
2026-01-29 02:16:46.04	346.04	19.24	-29.7	-32.3	14.0	6.10e-06	0	43	0	322961408	20	4821
2026-01-29 02:16:49.04	345.42	19.44	-29.4	-32.3	14.6	0.00e+00	0	43	0	329252864	18	5028
2026-01-29 02:16:52.06	344.78	19.64	-29.4	-32.2	14.7	0.00e+00	0	43	0	334495744	18	5014
2026-01-29 02:16:55.07	344.14	19.84	-29.3	-32.0	14.8	0.00e+00	0	43	0	339738624	18	4932
2026-01-29 02:16:58.09	343.49	20.03	-29.2	-31.8	14.9	0.00e+00	0	43	0	346030080	18	4862
2026-01-29 02:17:01.10	342.83	20.22	-29.2	-31.8	14.9	0.00e+00	0	43	0	351272960	18	4882
2026-01-29 02:17:04.10	342.16	20.41	-29.0	-31.4	15.2	0.00e+00	0	43	0	357564416	18	4730
2026-01-29 02:17:07.11	341.49	20.59	-29.0	-31.4	15.2	0.00e+00	0	43	0	362807296	18	4723
2026-01-29 02:17:10.12	340.81	20.78	-29.0	-31.4	15.2	0.00e+00	0	43	0	368050176	18	4732
2026-01-29 02:17:13.12	340.12	20.96	-29.2	-31.8	14.9	0.00e+00	0	43	0	374341632	18	4878
2026-01-29 02:17:16.13	339.42	21.13	-29.1	-31.5	15.2	0.00e+00	0	43	0	379584512	18	4748
2026-01-29 02:17:19.14	338.71	21.31	-29.1	-31.7	15.1	0.00e+00	0	43	0	384827392	18	4823
2026-01-29 02:17:22.16	337.99	21.48	-29.2	-31.8	15.0	0.00e+00	0	43	0	391118848	18	4870
2026-01-29 02:17:25.17	337.27	21.64	-29.2	-31.8	15.0	0.00e+00	0	43	0	396361728	18	4868
2026-01-29 02:17:28.18	336.54	21.81	-29.1	-31.6	15.1	0.00e+00	0	43	0	402653184	18	4794
2026-01-29 02:17:31.19	335.80	21.96	-29.3	-32.2	14.8	0.00e+00	0	43	0	407896064	18	4989
2026-01-29 02:17:34.20	335.05	22.12	-29.2	-31.7	15.0	0.00e+00	0	43	0	413138944	18	4831
2026-01-29 02:17:37.20	334.30	22.27	-28.9	-31.6	15.4	0.00e+00	0	43	0	419430400	17	4905
2026-01-29 02:17:40.21	333.54	22.41	-29.2	-31.8	15.1	7.00e-07	0	44	0	424673280	18	4846
2026-01-29 02:17:43.22	332.77	22.55	-28.7	-31.1	15.7	0.00e+00	0	43	0	430964736	17	4742
2026-01-29 02:17:46.23	332.00	22.69	-28.7	-31.1	15.7	0.00e+00	0	43	0	436207616	17	4722
2026-01-29 02:17:49.23	331.22	22.82	-28.5	-30.6	16.0	0.00e+00	0	43	0	441450496	17	4593
2026-01-29 02:17:52.24	330.43	22.94	-28.5	-30.5	16.1	0.00e+00	0	43	0	447741952	17	4549
2026-01-29 02:17:55.25	329.63	23.06	-28.5	-30.7	16.0	0.00e+00	0	43	0	452984832	17	4600
2026-01-29 02:17:58.26	328.83	23.18	-29.0	-31.3	15.3	0.00e+00	0	43	0	458227712	18	4696
2026-01-29 02:18:01.27	328.02	23.29	-28.6	-30.8	15.9	0.00e+00	0	43	0	464519168	17	4635
2026-01-29 02:18:04.28	327.21	23.39	-28.9	-31.4	15.5	7.00e-07	0	43	0	469762048	17	4848
2026-01-29 02:18:07.29	326.39	23.49	-29.1	-31.5	15.2	7.00e-07	0	43	0	476053504	18	4759
2026-01-29 02:18:10.30	325.57	23.58	-29.4	-32.3	14.7	0.00e+00	0	43	0	481296384	18	5027
2026-01-29 02:18:13.32	324.74	23.67	-29.9	-33.2	13.9	8.30e-06	0	43	0	486539264	19	5250
2026-01-29 02:18:16.34	323.91	23.75	-29.7	-32.6	14.3	7.00e-07	0	43	0	492830720	19	5000
2026-01-29 02:18:19.35	323.07	23.82	-29.9	-33.1	13.3	4.50e-06	0	44	0	498073600	19	5198
2026-01-29 02:18:22.37	322.23	23.88	-30.0	-32.9	13.6	1.06e-05	0	43	0	504365056	20	5046
2026-01-29 02:18:25.38	321.38	23.94	-30.0	-33.3	13.8	3.80e-06	0	43	0	509607936	19	5278
2026-01-29 02:18:28.39	320.54	24.00	-30.0	-32.8	13.7	3.62e-03	0	43	0	514850816	20	5010
2026-01-29 02:18:31.41	319.69	24.04	-30.3	-33.7	13.2	3.24e-03	0	43	0	521142272	20	5313
2026-01-29 02:18:34.41	318.84	24.08	-30.2	-33.4	13.3	1.67e-05	0	43	0	526385152	20	5228
2026-01-29 02:18:37.43	317.98	24.12	-30.2	-33.3	13.4	1.14e-05	0	43	0	531628032	20	5172
2026-01-29 02:18:40.44	317.13	24.14	-30.1	-33.1	13.5	8.30e-06	0	43	0	537919488	20	5106
2026-01-29 02:18:43.45	316.27	24.16	-30.2	-33.6	13.2	4.13e-04	0	43	0	543162368	20	5277
2026-01-29 02:18:46.47	315.41	24.17	-30.2	-33.3	13.4	2.60e-03	0	43	0	549453824	20	5182
2026-01-29 02:18:49.47	314.55	24.18	-30.1	-33.2	13.5	2.09e-03	0	43	0	554696704	20	5157
2026-01-29 02:18:52.49	313.69	24.18	-30.2	-33.5	13.3	2.59e-03	0	44	0	559939584	20	5241
2026-01-29 02:18:55.50	312.83	24.17	-30.1	-33.1	13.5	2.65e-03	0	43	0	566231040	20	5112
2026-01-29 02:18:58.51	311.98	24.15	-30.2	-33.5	13.3	1.98e-03	0	43	0	571473920	20	5244
2026-01-29 02:19:01.51	311.12	24.13	-29.9	-33.0	14.0	2.64e-03	0	44	0	576716800	19	5167
2026-01-29 02:19:04.53	310.27	24.10	-29.8	-32.8	14.1	2.28e-03	0	43	0	583008256	19	5104
2026-01-29 02:19:07.55	309.41	24.06	-29.4	-32.3	14.7	1.98e-03	0	44	0	588251136	18	5007
2026-01-29 02:19:10.55	308.56	24.02	-29.1	-31.5	15.2	1.79e-03	0	44	0	594542592	18	4743
2026-01-29 02:19:13.56	307.71	23.97	-28.8	-31.4	15.5	5.55e-04	0	43	0	599785472	17	4842
2026-01-29 02:19:16.57	306.87	23.91	-28.6	-30.7	16.0	1.82e-03	0	43	0	605028352	17	4605
2026-01-29 02:19:19.58	306.02	23.85	-28.5	-30.6	16.0	0.00e+00	0	44	0	611319808	17	4593
2026-01-29 02:19:22.59	305.19	23.78	-28.6	-30.8	15.9	0.00e+00	0	44	0	616562688	17	4642
2026-01-29 02:19:25.60	304.35	23.71	-28.5	-30.7	16.0	0.00e+00	0	44	0	622854144	17	4598
2026-01-29 02:19:28.61	303.52	23.62	-28.5	-30.6	16.0	2.50e-03	0	43	0	628097024	17	4583
2026-01-29 02:19:31.63	302.69	23.53	-28.4	-30.8	16.1	2.31e-03	0	44	0	633339904	16	4766
2026-01-29 02:19:34.64	301.87	23.44	-28.4	-31.0	16.1	2.16e-03	0	44	0	639631360	16	4815
2026-01-29 02:19:37.65	301.05	23.34	-28.4	-30.8	16.1	0.00e+00	0	43	0	644874240	16	4754
2026-01-29 02:19:40.67	300.24	23.23	-28.4	-30.8	16.2	0.00e+00	0	44	0	651165696	16	4770
2026-01-29 02:19:43.68	299.43	23.12	-28.7	-31.2	15.6	0.00e+00	0	43	0	656408576	17	4772
2026-01-29 02:19:46.69	298.63	23.00	-29.0	-31.3	15.3	0.00e+00	0	44	0	661651456	18	4696
2026-01-29 02:19:49.68	297.85	22.88	-29.1	-31.6	15.1	0.00e+00	0	43	0	667942912	18	4790
2026-01-29 02:19:52.68	297.06	22.75	-29.1	-31.6	15.1	0.00e+00	0	44	0	673185792	18	4796
2026-01-29 02:19:55.69	296.28	22.62	-29.0	-31.4	15.2	0.00e+00	0	44	0	678428672	18	4731
2026-01-29 02:19:58.70	295.51	22.48	-29.5	-32.1	14.5	0.00e+00	0	43	0	684720128	19	4843
2026-01-29 02:20:01.71	294.74	22.34	-29.7	-32.5	14.2	2.20e-06	0	44	0	689963008	19	4988
2026-01-29 02:20:04.72	293.98	22.19	-29.8	-32.9	13.9	3.00e-06	0	44	0	696254464	19	5155
2026-01-29 02:20:07.72	293.23	22.04	-30.0	-32.9	13.5	7.60e-06	0	43	0	701497344	20	5037
2026-01-29 02:20:10.73	292.49	21.88	-30.2	-33.6	13.1	1.60e-03	0	44	0	706740224	20	5298
2026-01-29 02:20:13.74	291.75	21.72	-30.0	-33.0	13.4	1.13e-03	0	43	0	713031680	20	5080
2026-01-29 02:20:16.75	291.02	21.55	-29.9	-33.1	13.7	5.63e-04	0	44	0	718274560	19	5237
2026-01-29 02:20:19.76	290.30	21.39	-29.8	-33.0	13.8	4.80e-04	0	43	0	723517440	19	5193
2026-01-29 02:20:22.77	289.59	21.21	-30.0	-33.0	13.4	4.50e-06	0	43	0	729808896	20	5101
2026-01-29 02:20:25.78	288.88	21.04	-30.1	-33.2	13.3	2.97e-05	0	44	0	735051776	20	5157
2026-01-29 02:20:28.78	288.19	20.86	-29.8	-32.9	13.9	3.39e-04	0	44	0	741343232	19	5142
2026-01-29 02:20:31.78	287.50	20.68	-29.8	-32.9	13.8	1.00e-03	0	43	0	746586112	19	5161
2026-01-29 02:20:34.79	286.82	20.49	-29.9	-32.7	13.5	9.10e-06	0	44	0	751828992	20	4974
2026-01-29 02:20:37.78	286.15	20.31	-29.6	-32.1	14.0	1.83e-04	0	44	0	758120448	20	4757
2026-01-29 02:20:40.79	285.48	20.12	-29.6	-32.5	14.1	4.29e-04	0	43	0	763363328	19	4991
2026-01-29 02:20:43.81	284.83	19.92	-29.7	-32.8	13.9	6.80e-06	0	43	0	768606208	19	5118
2026-01-29 02:20:46.82	284.18	19.73	-29.8	-32.9	13.8	6.10e-06	0	44	0	774897664	19	5159
2026-01-29 02:20:49.83	283.54	19.53	-29.6	-32.5	14.1	1.55e-03	0	43	0	780140544	19	5002
2026-01-29 02:20:52.83	282.91	19.33	-29.7	-32.6	14.0	2.40e-03	0	43	0	786432000	19	5041
2026-01-29 02:20:55.84	282.29	19.13	-29.7	-32.8	13.8	2.88e-03	0	44	0	791674880	19	5131
2026-01-29 02:20:58.86	281.67	18.93	-29.7	-32.8	13.8	9.26e-04	0	44	0	796917760	19	5137
2026-01-29 02:21:01.87	281.06	18.72	-30.1	-33.2	13.1	4.42e-05	0	43	0	803209216	20	5190
2026-01-29 02:21:04.89	280.46	18.51	-30.0	-33.0	13.3	2.51e-05	0	43	0	808452096	20	5094
2026-01-29 02:21:07.90	279.87	18.30	-30.0	-33.0	13.3	1.29e-05	0	43	0	813694976	20	5104
2026-01-29 02:21:10.90	279.29	18.10	-29.8	-32.5	13.5	7.60e-06	0	44	0	819986432	20	4927
2026-01-29 02:21:13.91	278.72	17.88	-29.6	-32.4	14.1	7.00e-07	0	44	0	825229312	19	4982
2026-01-29 02:21:16.93	278.15	17.67	-29.7	-32.8	13.8	1.63e-03	0	44	0	831520768	19	5145
2026-01-29 02:21:19.94	277.59	17.46	-29.8	-32.9	13.7	4.50e-06	0	43	0	836763648	19	5165
2026-01-29 02:21:22.94	277.04	17.25	-29.8	-32.9	13.7	5.30e-06	0	44	0	842006528	19	5163
2026-01-29 02:21:25.95	276.50	17.03	-29.6	-32.4	14.0	7.00e-07	0	44	0	848297984	19	4978
2026-01-29 02:21:28.96	275.97	16.82	-29.7	-32.7	13.8	1.50e-06	0	44	0	853540864	19	5094
2026-01-29 02:21:31.97	275.44	16.60	-29.5	-32.1	14.1	5.30e-06	0	44	0	859832320	19	4897
2026-01-29 02:21:34.99	274.92	16.38	-29.2	-31.9	14.6	0.00e+00	0	44	0	865075200	18	4914
2026-01-29 02:21:38.00	274.41	16.17	-29.2	-32.0	14.5	0.00e+00	0	44	0	870318080	18	4945
2026-01-29 02:21:41.02	273.90	15.95	-29.3	-32.1	14.4	0.00e+00	0	44	0	876609536	18	5013
2026-01-29 02:21:44.03	273.40	15.73	-29.3	-32.1	14.4	7.00e-07	0	44	0	881852416	18	5016
2026-01-29 02:21:47.04	272.91	15.51	-29.3	-32.2	14.4	0.00e+00	0	43	0	887095296	18	5042
2026-01-29 02:21:50.05	272.43	15.29	-29.2	-31.9	14.5	7.00e-07	0	44	0	893386752	18	4951
2026-01-29 02:21:53.07	271.96	15.07	-29.5	-32.4	13.9	5.30e-06	0	44	0	898629632	19	5000
2026-01-29 02:21:56.05	271.49	14.86	-29.3	-32.2	14.3	7.00e-07	0	43	0	904921088	18	5051
2026-01-29 02:21:59.05	271.03	14.64	-29.2	-31.9	14.5	1.20e-04	0	44	0	910163968	18	4939
2026-01-29 02:22:02.07	270.58	14.42	-29.4	-32.5	14.2	3.03e-04	0	44	0	915406848	18	5131
2026-01-29 02:22:05.07	270.13	14.21	-29.3	-32.2	14.2	3.52e-04	0	44	0	921698304	18	5049
2026-01-29 02:22:08.09	269.69	13.99	-29.4	-32.4	14.1	3.55e-04	0	44	0	926941184	18	5136
2026-01-29 02:22:11.10	269.25	13.77	-29.2	-32.1	14.3	1.50e-06	0	43	0	932184064	18	5011
2026-01-29 02:22:14.11	268.82	13.55	-29.3	-32.3	14.2	7.00e-07	0	44	0	938475520	18	5086
2026-01-29 02:22:17.12	268.40	13.34	-29.5	-32.3	13.8	7.60e-06	0	44	0	943718400	19	4991
2026-01-29 02:22:20.13	267.98	13.12	-29.6	-32.7	13.5	1.06e-05	0	44	0	950009856	19	5130
2026-01-29 02:22:23.14	267.57	12.90	-29.8	-33.1	13.3	2.13e-05	0	44	0	955252736	19	5292
2026-01-29 02:22:26.16	267.17	12.69	-29.6	-32.6	13.6	1.14e-05	0	44	0	960495616	19	5084
2026-01-29 02:22:29.17	266.77	12.47	-29.4	-32.2	13.8	5.30e-06	0	44	0	966787072	19	4961
2026-01-29 02:22:32.19	266.38	12.26	-29.7	-32.9	13.4	6.10e-06	0	44	0	972029952	19	5203
2026-01-29 02:22:35.20	265.99	12.04	-29.6	-32.7	13.5	7.60e-06	0	44	0	978321408	19	5125
2026-01-29 02:22:38.21	265.61	11.83	-29.7	-32.9	13.3	1.75e-05	0	44	0	983564288	19	5202
2026-01-29 02:22:41.23	265.24	11.62	-29.6	-32.8	13.4	2.51e-05	0	44	0	988807168	19	5190
2026-01-29 02:22:44.23	264.87	11.41	-29.8	-33.1	13.1	2.04e-04	0	44	0	995098624	19	5321
2026-01-29 02:22:47.24	264.50	11.20	-29.8	-33.4	13.0	6.37e-04	0	44	0	1000341504	19	5415
2026-01-29 02:22:50.25	264.14	10.99	-29.9	-33.5	12.8	5.56e-05	0	44	0	1005584384	19	5457
2026-01-29 02:22:53.25	263.79	10.78	-29.8	-33.3	12.9	2.97e-05	0	43	0	1011875840	19	5378
2026-01-29 02:22:56.26	263.44	10.57	-29.8	-33.3	12.9	4.42e-05	0	43	0	1017118720	19	5411
2026-01-29 02:22:59.28	263.10	10.36	-29.9	-33.7	12.6	7.09e-05	0	44	0	1023410176	19	5580
2026-01-29 02:23:02.28	262.76	10.15	-30.0	-33.5	12.3	1.62e-04	0	44	0	1028653056	20	5386
2026-01-29 02:23:05.29	262.43	9.94	-30.1	-33.7	12.1	2.12e-04	0	44	0	1033895936	20	5482
2026-01-29 02:23:08.30	262.10	9.74	-30.1	-33.8	12.1	2.36e-04	0	44	0	1040187392	20	5513
2026-01-29 02:23:11.31	261.77	9.53	-29.9	-33.9	12.4	1.53e-04	0	44	0	1045430272	19	5645
2026-01-29 02:23:14.31	261.46	9.33	-30.0	-33.9	12.4	1.33e-04	0	44	0	1050673152	19	5656
2026-01-29 02:23:17.33	261.14	9.13	-29.4	-33.0	12.2	1.79e-04	0	44	0	1056964608	20	5422
2026-01-29 02:23:20.34	260.83	8.92	-30.2	-34.2	11.1	5.83e-04	0	44	0	1062207488	20	5718
2026-01-29 02:23:23.34	260.52	8.72	-30.3	-34.5	11.2	1.22e-03	0	44	0	1068498944	20	5863
2026-01-29 02:23:26.35	260.22	8.52	-30.2	-34.4	11.4	5.96e-03	0	44	0	1073741824	20	5820
2026-01-29 02:23:29.36	259.92	8.32	-30.2	-34.4	11.4	1.23e-03	0	44	0	1078984704	20	5805
2026-01-29 02:23:32.38	259.63	8.12	-30.3	-34.7	11.2	1.31e-03	0	44	0	1085276160	20	5944
2026-01-29 02:23:35.38	259.34	7.92	-30.4	-35.0	10.9	1.86e-03	0	44	0	1090519040	20	6132
2026-01-29 02:23:38.40	259.05	7.72	-30.5	-34.9	10.6	3.81e-03	0	44	0	1096810496	21	5972
2026-01-29 02:23:41.41	258.77	7.53	-30.6	-35.2	10.4	4.94e-03	0	44	0	1102053376	21	6110
2026-01-29 02:23:44.42	258.50	7.33	-30.5	-34.9	10.6	7.87e-03	0	44	0	1107296256	21	5972
2026-01-29 02:23:47.43	258.22	7.14	-30.5	-34.9	10.5	8.19e-03	0	44	0	1113587712	21	5982

#Closed at: 2026-01-29 02:23:49
#Recorded file [1114 MB]: D:/data/31010_260129_051353.dat