passes_logs/2026/01/29/R2M6_AANII_01/R2M6_AANII_01__20260129_102558_NOAA_20_JPSS-1_rec.log

#Pass ID: 20260129_102558_NOAA 20 (JPSS-1)
#Satellite: NOAA 20 (JPSS-1)
#Configuration: NOAA 20
#almurnet v.1.7.20240730
#Start time: 2026-01-29 10:25:57

#Version: 2.2.20231116
#Station: R2M6_AANII_01
#Location: 30.233357 lon 59.946436 lat
#TLE: 1 43013U 17073A   26027.94683596  .00000137  00000+0  85741-4 0  9995
#TLE: 2 43013  98.7648 328.7503 0000940  21.3928 338.7287 14.19541154424576

#Time	Az	El	Level	Level2	SNR	BER	BlckErr	Temp	State	Recorded	gain1	gain2
2026-01-29 10:25:57.97	163.51	6.99	-32.1	-39.7	4.5	1.39e+00	0	40	0	0	25	8626
2026-01-29 10:26:00.98	163.54	7.22	-32.0	-38.7	6.5	2.27e-01	0	40	0	1048576	25	7806
2026-01-29 10:26:03.99	163.58	7.46	-31.9	-38.4	6.8	1.90e-01	0	40	0	7340032	25	7568
2026-01-29 10:26:06.99	163.61	7.69	-31.9	-38.1	7.1	1.82e-01	0	40	0	12582912	25	7316
2026-01-29 10:26:10.01	163.64	7.93	-31.4	-36.3	8.8	4.06e-02	0	40	0	17825792	24	6343
2026-01-29 10:26:13.01	163.68	8.18	-31.0	-35.3	10.0	9.89e-03	0	40	0	24117248	23	5915
2026-01-29 10:26:16.03	163.71	8.42	-30.8	-34.7	10.4	4.52e-03	0	40	0	29360128	23	5664
2026-01-29 10:26:19.04	163.75	8.67	-30.8	-35.0	10.6	3.73e-03	0	40	0	35651584	22	5891
2026-01-29 10:26:22.04	163.78	8.92	-30.8	-35.1	10.6	3.52e-03	0	41	0	40894464	22	5911
2026-01-29 10:26:25.04	163.82	9.17	-30.8	-35.0	10.6	3.32e-03	0	41	0	46137344	22	5874
2026-01-29 10:26:28.05	163.85	9.43	-30.8	-35.2	10.5	3.81e-03	0	41	0	52428800	22	5962
2026-01-29 10:26:31.06	163.89	9.68	-31.0	-35.6	10.3	5.36e-03	0	41	0	57671680	22	6132
2026-01-29 10:26:34.08	163.93	9.94	-30.9	-35.4	10.5	4.50e-03	0	41	0	63963136	22	6026
2026-01-29 10:26:37.09	163.97	10.21	-30.9	-35.4	10.5	4.46e-03	0	41	0	69206016	22	6050
2026-01-29 10:26:40.10	164.00	10.47	-30.8	-35.0	10.7	3.28e-03	0	41	0	74448896	22	5873
2026-01-29 10:26:43.10	164.04	10.74	-30.4	-34.0	11.5	9.67e-04	0	41	0	80740352	22	5447
2026-01-29 10:26:46.10	164.08	11.01	-30.4	-33.9	11.6	7.27e-04	0	41	0	85983232	22	5383
2026-01-29 10:26:49.10	164.12	11.29	-30.4	-33.9	11.6	7.60e-04	0	41	0	91226112	22	5379
2026-01-29 10:26:52.12	164.16	11.57	-30.5	-33.9	11.7	5.87e-04	0	41	0	97517568	22	5347
2026-01-29 10:26:55.11	164.20	11.84	-30.5	-33.9	11.7	4.87e-04	0	41	0	102760448	22	5334
2026-01-29 10:26:58.12	164.25	12.13	-30.4	-33.8	11.8	6.00e-04	0	41	0	109051904	22	5295
2026-01-29 10:27:01.13	164.29	12.42	-30.4	-33.6	11.9	3.79e-04	0	41	0	114294784	22	5224
2026-01-29 10:27:04.14	164.33	12.71	-30.4	-33.5	12.0	3.08e-04	0	41	0	119537664	22	5186
2026-01-29 10:27:07.16	164.38	13.00	-30.3	-33.3	12.3	1.88e-04	0	41	0	125829120	22	5054
2026-01-29 10:27:10.17	164.42	13.30	-30.3	-33.6	12.4	1.33e-04	0	41	0	131072000	21	5264
2026-01-29 10:27:13.18	164.47	13.60	-30.4	-33.9	12.3	1.46e-04	0	41	0	136314880	21	5361
2026-01-29 10:27:16.19	164.51	13.91	-30.4	-33.9	12.2	2.28e-04	0	42	0	142606336	21	5396
2026-01-29 10:27:19.20	164.56	14.22	-30.5	-34.1	12.1	2.93e-04	0	42	0	147849216	21	5469
2026-01-29 10:27:22.21	164.61	14.53	-30.1	-32.9	12.9	8.62e-05	0	41	0	154140672	21	5005
2026-01-29 10:27:25.22	164.65	14.85	-30.0	-32.7	13.1	2.82e-05	0	42	0	159383552	21	4911
2026-01-29 10:27:28.23	164.70	15.17	-30.2	-33.1	12.9	5.64e-05	0	42	0	164626432	21	5043
2026-01-29 10:27:31.22	164.75	15.50	-30.1	-33.0	12.9	4.42e-05	0	42	0	170917888	21	5020
2026-01-29 10:27:34.23	164.80	15.83	-30.2	-33.1	12.9	4.88e-05	0	42	0	176160768	21	5061
2026-01-29 10:27:37.23	164.86	16.16	-30.3	-33.5	12.7	7.24e-05	0	42	0	181403648	21	5194
2026-01-29 10:27:40.26	164.91	16.51	-30.1	-33.1	12.9	5.87e-05	0	42	0	187695104	21	5051
2026-01-29 10:27:43.26	164.96	16.85	-30.0	-32.6	13.3	2.44e-05	0	42	0	192937984	21	4861
2026-01-29 10:27:46.27	165.02	17.20	-30.0	-32.5	13.5	1.83e-05	0	42	0	199229440	21	4803
2026-01-29 10:27:49.28	165.07	17.55	-29.9	-32.4	13.5	1.22e-05	0	42	0	204472320	21	4762
2026-01-29 10:27:52.29	165.13	17.91	-29.9	-32.2	13.7	7.60e-06	0	42	0	209715200	21	4689
2026-01-29 10:27:55.28	165.19	18.28	-30.0	-32.5	13.5	6.80e-06	0	42	0	216006656	21	4808
2026-01-29 10:27:58.30	165.25	18.65	-30.2	-33.0	13.2	1.29e-05	0	42	0	221249536	21	4968
2026-01-29 10:28:01.30	165.31	19.02	-30.1	-32.9	13.3	1.90e-05	0	42	0	226492416	21	4932
2026-01-29 10:28:04.31	165.37	19.41	-30.1	-32.7	13.5	1.14e-05	0	42	0	232783872	21	4855
2026-01-29 10:28:07.31	165.43	19.79	-30.1	-32.8	13.4	1.60e-05	0	42	0	238026752	21	4902
2026-01-29 10:28:10.32	165.50	20.19	-29.7	-32.2	14.1	1.50e-06	0	42	0	244318208	20	4791
2026-01-29 10:28:13.33	165.57	20.59	-29.9	-32.8	13.7	6.10e-06	0	42	0	249561088	20	5024
2026-01-29 10:28:16.35	165.63	21.00	-30.0	-33.1	13.4	1.22e-05	0	42	0	254803968	20	5139
2026-01-29 10:28:19.36	165.70	21.41	-29.9	-32.7	13.7	5.30e-06	0	42	0	261095424	20	5011
2026-01-29 10:28:22.36	165.77	21.83	-29.6	-32.0	14.2	4.50e-06	0	42	0	266338304	20	4769
2026-01-29 10:28:25.36	165.85	22.26	-29.7	-32.4	14.0	2.20e-06	0	42	0	272629760	20	4896
2026-01-29 10:28:28.38	165.92	22.69	-29.7	-32.3	14.1	2.20e-06	0	42	0	277872640	20	4828
2026-01-29 10:28:31.40	166.00	23.14	-29.7	-32.3	14.1	2.20e-06	0	42	0	283115520	20	4842
2026-01-29 10:28:34.41	166.07	23.59	-29.9	-32.7	13.9	3.00e-06	0	42	0	289406976	20	4964
2026-01-29 10:28:37.42	166.15	24.04	-30.1	-33.2	13.5	5.30e-06	0	42	0	294649856	20	5151
2026-01-29 10:28:40.42	166.24	24.51	-30.2	-33.5	13.4	1.90e-05	0	42	0	300941312	20	5269
2026-01-29 10:28:43.43	166.32	24.98	-30.4	-34.0	13.1	3.05e-05	0	42	0	306184192	20	5445
2026-01-29 10:28:46.44	166.41	25.47	-30.5	-33.9	12.8	8.01e-05	0	42	0	311427072	21	5326
2026-01-29 10:28:49.45	166.50	25.96	-30.1	-32.7	13.6	7.60e-06	0	42	0	317718528	21	4846
2026-01-29 10:28:52.47	166.59	26.46	-30.3	-33.4	13.2	1.83e-05	0	42	0	322961408	21	5099
2026-01-29 10:28:55.46	166.68	26.97	-30.5	-33.8	12.9	4.27e-05	0	42	0	328204288	21	5267
2026-01-29 10:28:58.46	166.78	27.49	-30.7	-34.4	12.6	9.23e-05	0	42	0	334495744	21	5484
2026-01-29 10:29:01.48	166.88	28.02	-30.9	-34.9	12.2	1.39e-04	0	42	0	339738624	21	5710
2026-01-29 10:29:04.50	166.98	28.56	-30.9	-35.0	12.2	2.20e-04	0	42	0	346030080	21	5746
2026-01-29 10:29:07.51	167.09	29.11	-31.2	-35.4	11.6	5.81e-04	0	42	0	351272960	22	5780
2026-01-29 10:29:10.51	167.20	29.67	-31.4	-35.7	11.4	1.19e-03	0	42	0	356515840	22	5937
2026-01-29 10:29:13.51	167.31	30.24	-31.5	-35.6	11.1	1.56e-03	0	42	0	362807296	23	5812
2026-01-29 10:29:16.51	167.42	30.82	-31.5	-35.5	11.1	1.64e-03	0	42	0	368050176	23	5760
2026-01-29 10:29:19.54	167.55	31.43	-31.4	-35.4	11.3	1.52e-03	0	42	0	373293056	23	5679
2026-01-29 10:29:22.55	167.67	32.03	-31.4	-35.4	11.3	1.24e-03	0	42	0	379584512	23	5692
2026-01-29 10:29:25.56	167.80	32.66	-31.4	-35.2	11.5	9.25e-04	0	42	0	384827392	23	5605
2026-01-29 10:29:28.56	167.93	33.29	-31.2	-34.8	11.8	6.93e-04	0	42	0	391118848	23	5421
2026-01-29 10:29:31.57	168.07	33.94	-30.9	-33.9	12.4	1.76e-04	0	42	0	396361728	23	5067
2026-01-29 10:29:34.57	168.22	34.59	-30.9	-33.9	12.4	2.15e-04	0	42	0	401604608	23	5062
2026-01-29 10:29:37.58	168.37	35.27	-30.5	-33.1	13.3	1.44e-05	0	42	0	407896064	22	4845
2026-01-29 10:29:40.58	168.52	35.96	-30.2	-32.7	13.9	5.30e-06	0	42	0	413138944	21	4825
2026-01-29 10:29:43.59	168.68	36.66	-29.9	-31.8	14.4	7.00e-07	0	42	0	418381824	21	4523
2026-01-29 10:29:46.61	168.85	37.39	-29.8	-32.2	14.6	7.00e-07	0	42	0	424673280	20	4751
2026-01-29 10:29:49.62	169.03	38.12	-29.6	-31.6	14.9	7.00e-07	0	42	0	429916160	20	4559
2026-01-29 10:29:52.64	169.21	38.88	-29.6	-31.6	14.9	0.00e+00	0	42	0	436207616	20	4542
2026-01-29 10:29:55.66	169.40	39.65	-29.8	-32.2	14.6	1.50e-06	0	42	0	441450496	20	4735
2026-01-29 10:29:58.67	169.60	40.43	-30.1	-33.0	14.1	1.50e-06	0	42	0	446693376	20	5017
2026-01-29 10:30:01.68	169.81	41.24	-30.6	-33.7	13.4	1.37e-05	0	42	0	452984832	21	5165
2026-01-29 10:30:04.70	170.04	42.06	-30.8	-34.4	12.9	6.02e-05	0	42	0	458227712	21	5438
2026-01-29 10:30:07.70	170.27	42.90	-30.8	-34.3	13.0	2.13e-05	0	42	0	464519168	21	5376
2026-01-29 10:30:10.71	170.51	43.75	-30.7	-34.1	13.1	3.81e-05	0	42	0	469762048	21	5300
2026-01-29 10:30:13.73	170.77	44.63	-30.7	-34.2	13.1	2.13e-05	0	42	0	475004928	21	5335
2026-01-29 10:30:16.73	171.04	45.52	-30.8	-34.4	13.0	5.03e-05	0	42	0	481296384	21	5417
2026-01-29 10:30:19.73	171.32	46.44	-31.5	-35.4	11.7	6.37e-04	0	42	0	486539264	23	5617
2026-01-29 10:30:22.74	171.62	47.37	-31.4	-35.1	11.8	5.24e-04	0	42	0	491782144	23	5512
2026-01-29 10:30:25.75	171.94	48.33	-31.6	-35.6	11.5	9.76e-04	0	42	0	498073600	23	5724
2026-01-29 10:30:28.76	172.28	49.30	-31.7	-35.8	11.4	9.40e-04	0	42	0	503316480	23	5790
2026-01-29 10:30:31.76	172.64	50.30	-31.1	-34.2	12.4	1.83e-04	0	42	0	509607936	23	5131
2026-01-29 10:30:34.77	173.03	51.31	-30.7	-33.5	13.2	9.00e-05	0	42	0	514850816	22	4970
2026-01-29 10:30:37.78	173.44	52.35	-30.2	-32.7	14.1	7.00e-07	0	42	0	520093696	21	4780
2026-01-29 10:30:40.78	173.89	53.41	-29.4	-31.0	15.5	0.00e+00	0	42	0	526385152	20	4347
2026-01-29 10:30:43.80	174.36	54.49	-28.6	-30.2	16.6	0.00e+00	0	42	0	531628032	18	4294
2026-01-29 10:30:46.80	174.87	55.58	-28.3	-30.0	17.0	0.00e+00	0	42	0	536870912	17	4362
2026-01-29 10:30:49.80	175.42	56.70	-28.5	-30.3	16.9	0.00e+00	0	42	0	543162368	17	4437
2026-01-29 10:30:52.80	176.02	57.84	-30.0	-32.6	14.6	0.00e+00	0	42	0	548405248	20	4845
2026-01-29 10:30:55.81	176.67	59.00	-29.4	-30.9	15.6	0.00e+00	0	42	0	554696704	20	4311
2026-01-29 10:30:58.82	177.38	60.18	-29.0	-30.6	16.2	0.00e+00	0	42	0	559939584	19	4302
2026-01-29 10:31:01.84	178.17	61.38	-28.8	-30.1	16.5	0.00e+00	0	42	0	565182464	19	4168
2026-01-29 10:31:04.85	179.02	62.59	-28.3	-29.8	17.3	0.00e+00	0	42	0	571473920	17	4286
2026-01-29 10:31:07.86	179.97	63.82	-29.0	-31.0	16.3	0.00e+00	0	42	0	576716800	18	4526
2026-01-29 10:31:10.87	181.02	65.07	-30.6	-33.7	13.8	7.00e-07	0	42	0	581959680	21	5102
2026-01-29 10:31:13.87	182.20	66.32	-30.6	-33.6	13.9	3.80e-06	0	42	0	588251136	21	5065
2026-01-29 10:31:16.88	183.52	67.58	-30.6	-33.5	13.9	3.80e-06	0	42	0	593494016	21	5041
2026-01-29 10:31:19.88	185.00	68.85	-30.8	-34.0	13.5	1.60e-05	0	42	0	599785472	21	5236
2026-01-29 10:31:22.90	186.71	70.13	-30.3	-32.8	14.4	3.80e-06	0	42	0	605028352	21	4779
2026-01-29 10:31:25.90	188.64	71.40	-31.2	-34.7	12.9	1.75e-05	0	42	0	610271232	22	5370
2026-01-29 10:31:28.91	190.89	72.66	-30.9	-33.8	13.5	1.37e-05	0	42	0	616562688	22	5039
2026-01-29 10:31:31.92	193.50	73.91	-31.6	-35.4	12.2	5.64e-05	0	42	0	621805568	23	5527
2026-01-29 10:31:34.92	196.56	75.13	-31.2	-34.0	13.1	4.95e-05	0	42	0	628097024	23	4981
2026-01-29 10:31:37.93	200.19	76.32	-32.1	-36.1	11.3	4.94e-04	0	42	0	633339904	24	5734
2026-01-29 10:31:40.94	204.51	77.46	-32.6	-37.3	10.1	7.50e-03	0	42	0	638582784	25	6186
2026-01-29 10:31:43.93	209.65	78.51	-32.2	-36.1	11.0	2.82e-03	0	42	0	644874240	25	5626
2026-01-29 10:31:46.94	215.83	79.46	-31.1	-33.7	13.5	7.40e-05	0	42	0	650117120	23	4858
2026-01-29 10:31:49.95	223.16	80.28	-31.3	-34.2	13.1	8.77e-05	0	42	0	655360000	23	5018
2026-01-29 10:31:52.97	231.73	80.92	-31.1	-33.6	13.5	2.13e-05	0	42	0	661651456	23	4812
2026-01-29 10:31:55.98	241.32	81.33	-31.2	-33.9	13.4	1.83e-05	0	42	0	666894336	23	4929
2026-01-29 10:31:58.98	251.53	81.49	-30.7	-33.1	14.2	5.30e-06	0	42	0	673185792	22	4750
2026-01-29 10:32:01.98	261.79	81.37	-31.6	-35.1	12.6	7.47e-05	0	42	0	678428672	23	5366
2026-01-29 10:32:05.00	271.52	80.99	-31.5	-34.2	12.8	1.08e-04	0	42	0	683671552	24	4939
2026-01-29 10:32:08.00	280.18	80.38	-31.1	-33.6	13.6	1.06e-05	0	42	0	689963008	23	4797
2026-01-29 10:32:11.01	287.68	79.59	-30.8	-34.0	14.0	4.50e-06	0	42	0	695205888	21	5170
2026-01-29 10:32:14.01	293.98	78.65	-30.6	-33.4	14.3	0.00e+00	0	42	0	700448768	21	4966
2026-01-29 10:32:17.01	299.26	77.61	-32.7	-37.7	9.8	4.32e-03	0	42	0	706740224	25	6425
2026-01-29 10:32:20.02	303.69	76.49	-31.6	-34.7	12.5	9.46e-05	0	42	0	711983104	24	5123
2026-01-29 10:32:23.03	307.41	75.31	-31.5	-34.4	12.5	7.93e-05	0	42	0	718274560	24	5036
2026-01-29 10:32:26.05	310.55	74.08	-32.2	-36.5	11.0	2.11e-03	0	42	0	723517440	24	5930
2026-01-29 10:32:29.06	313.22	72.84	-31.7	-35.0	12.1	2.64e-04	0	42	0	728760320	24	5282
2026-01-29 10:32:32.08	315.51	71.57	-31.0	-33.4	13.5	2.28e-05	0	42	0	735051776	23	4755
2026-01-29 10:32:35.07	317.48	70.31	-31.6	-35.2	12.2	1.43e-04	0	42	0	740294656	23	5477
2026-01-29 10:32:38.08	319.21	69.04	-31.2	-34.0	13.0	1.83e-05	0	42	0	745537536	23	5001
2026-01-29 10:32:41.10	320.73	67.77	-32.5	-37.5	9.8	7.18e-03	0	42	0	751828992	25	6344
2026-01-29 10:32:44.11	322.07	66.50	-31.9	-35.4	11.3	9.42e-04	0	42	0	757071872	25	5342
2026-01-29 10:32:47.10	323.25	65.26	-31.1	-33.8	13.1	9.68e-05	0	42	0	763363328	23	4941
2026-01-29 10:32:50.12	324.32	64.01	-30.4	-32.6	14.2	5.30e-06	0	42	0	768606208	22	4605
2026-01-29 10:32:53.12	325.28	62.79	-29.6	-31.4	15.4	0.00e+00	0	42	0	773849088	20	4452
2026-01-29 10:32:56.14	326.15	61.57	-30.0	-32.4	14.9	0.00e+00	0	42	0	780140544	20	4764
2026-01-29 10:32:59.15	326.94	60.37	-30.8	-34.0	13.5	5.30e-06	0	42	0	785383424	21	5235
2026-01-29 10:33:02.16	327.66	59.20	-30.5	-32.8	14.1	0.00e+00	0	42	0	790626304	22	4664
2026-01-29 10:33:05.17	328.32	58.04	-31.8	-36.1	11.4	1.23e-03	0	42	0	796917760	23	5901
2026-01-29 10:33:08.19	328.93	56.89	-30.7	-33.2	13.6	3.20e-05	0	42	0	802160640	22	4842
2026-01-29 10:33:11.21	329.49	55.77	-30.9	-33.9	13.1	2.67e-05	0	42	0	808452096	22	5092
2026-01-29 10:33:14.21	330.00	54.68	-28.7	-30.3	16.6	0.00e+00	0	42	0	813694976	18	4336
2026-01-29 10:33:17.23	330.49	53.59	-29.4	-31.9	15.7	0.00e+00	0	42	0	818937856	18	4829
2026-01-29 10:33:20.24	330.93	52.54	-30.2	-33.1	14.3	0.00e+00	0	42	0	825229312	20	5018
2026-01-29 10:33:23.26	331.35	51.50	-30.7	-34.0	13.4	7.60e-06	0	42	0	830472192	21	5221
2026-01-29 10:33:26.26	331.74	50.49	-32.9	-39.5	8.0	4.19e-02	0	42	0	836763648	25	7635
2026-01-29 10:33:29.26	332.10	49.49	-32.7	-37.7	8.9	3.21e-02	0	42	0	842006528	26	6424
2026-01-29 10:33:32.28	332.45	48.52	-32.4	-36.8	9.6	1.94e-02	0	42	0	847249408	26	5942
2026-01-29 10:33:35.29	332.77	47.56	-32.3	-36.7	10.0	5.16e-03	0	42	0	853540864	25	6029
2026-01-29 10:33:38.28	333.07	46.63	-31.9	-35.4	10.9	5.87e-03	0	42	0	858783744	25	5399
2026-01-29 10:33:41.29	333.36	45.72	-30.7	-33.3	13.5	1.29e-05	0	42	0	864026624	22	4880
2026-01-29 10:33:44.30	333.64	44.83	-30.2	-32.6	14.2	3.80e-06	0	42	0	870318080	21	4738
2026-01-29 10:33:47.31	333.89	43.95	-30.6	-33.6	13.5	6.80e-06	0	42	0	875560960	21	5109
2026-01-29 10:33:50.32	334.14	43.09	-31.1	-34.7	12.4	1.40e-04	0	42	0	881852416	22	5444
2026-01-29 10:33:53.32	334.37	42.26	-29.8	-31.6	14.8	0.00e+00	0	42	0	887095296	21	4437
2026-01-29 10:33:56.33	334.59	41.44	-29.6	-31.6	15.1	7.00e-07	0	42	0	892338176	20	4516
2026-01-29 10:33:59.34	334.81	40.64	-30.5	-33.5	13.6	3.00e-06	0	42	0	898629632	21	5069
2026-01-29 10:34:02.36	335.01	39.85	-31.0	-34.7	12.8	5.11e-05	0	42	0	903872512	21	5542
2026-01-29 10:34:05.37	335.20	39.08	-31.1	-34.6	12.5	8.54e-05	0	42	0	909115392	22	5367
2026-01-29 10:34:08.36	335.39	38.34	-30.8	-33.8	13.0	5.18e-05	0	42	0	915406848	22	5050
2026-01-29 10:34:11.37	335.57	37.60	-30.9	-33.9	12.9	5.64e-05	0	42	0	920649728	22	5122
2026-01-29 10:34:14.38	335.74	36.88	-31.6	-35.6	11.4	6.35e-04	0	42	0	926941184	23	5737
2026-01-29 10:34:17.39	335.90	36.18	-31.4	-35.1	11.8	4.66e-04	0	42	0	932184064	23	5478
2026-01-29 10:34:20.40	336.06	35.49	-31.3	-34.7	12.0	4.55e-04	0	42	0	937426944	23	5318
2026-01-29 10:34:23.41	336.21	34.81	-30.8	-33.7	13.1	4.04e-05	0	42	0	943718400	22	5021
2026-01-29 10:34:26.42	336.36	34.15	-31.1	-34.7	12.2	1.36e-04	0	42	0	948961280	22	5430
2026-01-29 10:34:29.42	336.50	33.51	-31.8	-36.4	10.7	1.78e-03	0	42	0	954204160	23	6133
2026-01-29 10:34:32.44	336.63	32.87	-32.2	-37.4	9.5	1.17e-02	0	42	0	960495616	24	6542
2026-01-29 10:34:35.45	336.76	32.25	-32.0	-36.7	9.9	9.73e-03	0	42	0	965738496	24	6196
2026-01-29 10:34:38.46	336.89	31.64	-32.0	-36.5	10.2	8.52e-03	0	42	0	972029952	24	6082
2026-01-29 10:34:41.48	337.01	31.04	-31.6	-35.1	11.2	1.69e-03	0	42	0	977272832	24	5426
2026-01-29 10:34:44.47	337.13	30.46	-31.4	-34.7	11.5	7.64e-04	0	42	0	982515712	24	5259
2026-01-29 10:34:47.48	337.24	29.89	-31.1	-34.2	12.1	2.66e-04	0	42	0	988807168	23	5163
2026-01-29 10:34:50.50	337.36	29.33	-31.1	-34.2	12.2	1.98e-04	0	42	0	994050048	23	5143
2026-01-29 10:34:53.50	337.46	28.78	-31.1	-34.4	12.1	3.36e-04	0	42	0	1000341504	23	5217
2026-01-29 10:34:56.50	337.57	28.24	-30.7	-33.5	13.0	4.73e-05	0	42	0	1005584384	22	4996
2026-01-29 10:34:59.51	337.67	27.71	-30.9	-34.1	12.6	1.30e-04	0	42	0	1010827264	22	5220
2026-01-29 10:35:02.53	337.77	27.19	-30.6	-33.5	13.0	6.33e-05	0	42	0	1017118720	22	5001
2026-01-29 10:35:05.53	337.86	26.68	-30.5	-33.2	13.2	1.67e-05	0	42	0	1022361600	22	4878
2026-01-29 10:35:08.54	337.96	26.18	-30.1	-32.4	13.9	4.50e-06	0	42	0	1027604480	21	4711
2026-01-29 10:35:11.55	338.05	25.69	-29.9	-31.9	14.3	2.20e-06	0	42	0	1033895936	21	4559
2026-01-29 10:35:14.55	338.14	25.21	-29.9	-31.9	14.3	1.50e-06	0	42	0	1039138816	21	4552
2026-01-29 10:35:17.56	338.22	24.73	-29.8	-32.2	14.4	1.50e-06	0	42	0	1045430272	20	4766
2026-01-29 10:35:20.58	338.31	24.27	-29.6	-31.6	14.7	0.00e+00	0	42	0	1050673152	20	4569
2026-01-29 10:35:23.58	338.39	23.81	-29.6	-31.7	14.7	0.00e+00	0	42	0	1055916032	20	4591
2026-01-29 10:35:26.59	338.47	23.36	-29.2	-31.1	15.4	0.00e+00	0	42	0	1062207488	19	4498
2026-01-29 10:35:29.60	338.55	22.92	-29.2	-31.1	15.4	0.00e+00	0	42	0	1067450368	19	4506
2026-01-29 10:35:32.60	338.62	22.49	-29.1	-30.9	15.5	1.22e-05	0	42	0	1072693248	19	4423
2026-01-29 10:35:35.60	338.70	22.06	-29.1	-31.0	15.4	0.00e+00	0	42	0	1078984704	19	4459
2026-01-29 10:35:38.61	338.77	21.64	-29.2	-31.2	15.3	0.00e+00	0	42	0	1084227584	19	4532
2026-01-29 10:35:41.61	338.84	21.23	-29.4	-31.7	15.0	0.00e+00	0	42	0	1090519040	19	4691
2026-01-29 10:35:44.63	338.91	20.82	-29.6	-32.1	14.7	7.00e-07	0	42	0	1095761920	19	4843
2026-01-29 10:35:47.64	338.98	20.42	-29.7	-32.6	14.4	0.00e+00	0	42	0	1101004800	19	5002
2026-01-29 10:35:50.65	339.05	20.03	-29.8	-32.7	14.3	0.00e+00	0	42	0	1107296256	19	5040
2026-01-29 10:35:53.66	339.11	19.64	-29.7	-32.5	14.4	0.00e+00	0	42	0	1112539136	19	4972
2026-01-29 10:35:56.67	339.17	19.26	-29.8	-32.9	14.2	2.20e-06	0	42	0	1117782016	19	5117
2026-01-29 10:35:59.68	339.24	18.88	-29.8	-32.7	14.2	1.50e-06	0	42	0	1124073472	19	5066
2026-01-29 10:36:02.68	339.30	18.51	-29.8	-32.8	14.2	1.50e-06	0	42	0	1129316352	19	5079
2026-01-29 10:36:05.70	339.36	18.14	-29.8	-32.4	14.0	3.00e-06	0	42	0	1135607808	20	4859
2026-01-29 10:36:08.71	339.42	17.78	-29.9	-32.6	13.9	1.50e-06	0	42	0	1140850688	20	4911
2026-01-29 10:36:11.72	339.48	17.43	-30.1	-33.1	13.6	6.80e-06	0	42	0	1146093568	20	5085
2026-01-29 10:36:14.73	339.53	17.08	-30.0	-32.9	13.7	4.50e-06	0	42	0	1152385024	20	5025
2026-01-29 10:36:17.74	339.59	16.74	-30.1	-33.1	13.6	1.06e-05	0	42	0	1157627904	20	5093
2026-01-29 10:36:20.75	339.65	16.40	-30.1	-33.1	13.6	6.10e-06	0	42	0	1163919360	20	5095
2026-01-29 10:36:23.75	339.70	16.06	-30.2	-33.5	13.3	1.98e-05	0	42	0	1169162240	20	5246
2026-01-29 10:36:26.76	339.75	15.73	-30.3	-33.8	13.1	2.36e-05	0	42	0	1174405120	20	5371
2026-01-29 10:36:29.78	339.81	15.41	-30.2	-33.6	13.2	2.89e-05	0	42	0	1180696576	20	5280
2026-01-29 10:36:32.79	339.86	15.08	-30.3	-33.8	13.1	4.19e-05	0	42	0	1185939456	20	5366
2026-01-29 10:36:35.80	339.91	14.77	-30.4	-34.1	12.8	5.49e-05	0	42	0	1192230912	20	5521
2026-01-29 10:36:38.82	339.96	14.45	-30.1	-33.2	13.4	1.37e-05	0	42	0	1197473792	20	5133
2026-01-29 10:36:41.83	340.01	14.14	-30.1	-33.2	13.4	2.28e-05	0	42	0	1202716672	20	5173
2026-01-29 10:36:44.84	340.06	13.84	-30.1	-33.3	13.3	3.05e-05	0	42	0	1209008128	20	5208
2026-01-29 10:36:47.85	340.10	13.53	-30.0	-33.0	13.5	6.80e-06	0	42	0	1214251008	20	5085
2026-01-29 10:36:50.85	340.15	13.24	-30.1	-33.2	13.3	7.60e-06	0	42	0	1219493888	20	5167
2026-01-29 10:36:53.86	340.20	12.94	-30.0	-33.1	13.4	1.75e-05	0	42	0	1225785344	20	5116
2026-01-29 10:36:56.86	340.24	12.65	-30.1	-33.3	13.3	1.52e-05	0	42	0	1231028224	20	5187
2026-01-29 10:36:59.87	340.29	12.37	-30.1	-33.1	13.4	2.13e-05	0	42	0	1237319680	20	5135
2026-01-29 10:37:02.87	340.33	12.08	-30.1	-33.3	13.2	1.29e-05	0	42	0	1242562560	20	5210
2026-01-29 10:37:05.88	340.38	11.80	-30.3	-33.9	12.8	5.79e-05	0	42	0	1247805440	20	5439
2026-01-29 10:37:08.89	340.42	11.52	-30.4	-34.0	12.7	8.08e-05	0	42	0	1254096896	20	5504
2026-01-29 10:37:11.90	340.46	11.25	-30.6	-34.2	12.2	1.67e-04	0	42	0	1259339776	21	5454
2026-01-29 10:37:14.91	340.50	10.98	-30.7	-34.7	11.8	3.76e-04	0	42	0	1264582656	21	5671
2026-01-29 10:37:17.92	340.55	10.71	-30.9	-35.1	11.5	6.58e-04	0	42	0	1270874112	21	5882
2026-01-29 10:37:20.93	340.59	10.44	-31.1	-35.4	11.0	1.46e-03	0	42	0	1276116992	22	5899
2026-01-29 10:37:23.93	340.63	10.18	-31.0	-35.2	11.1	1.55e-03	0	42	0	1282408448	22	5793
2026-01-29 10:37:26.95	340.67	9.92	-31.1	-35.4	10.9	2.33e-03	0	42	0	1287651328	22	5931
2026-01-29 10:37:29.95	340.71	9.66	-30.6	-33.8	12.0	3.97e-04	0	42	0	1292894208	22	5236
2026-01-29 10:37:32.96	340.75	9.41	-30.4	-33.3	12.4	1.31e-04	0	42	0	1299185664	22	5017
2026-01-29 10:37:35.96	340.79	9.16	-30.3	-33.1	12.4	1.33e-04	0	42	0	1304428544	22	4944
2026-01-29 10:37:38.97	340.82	8.91	-30.3	-33.4	12.5	1.21e-04	0	42	0	1309671424	21	5166
2026-01-29 10:37:41.98	340.86	8.66	-30.4	-33.8	12.3	1.53e-04	0	42	0	1315962880	21	5329
2026-01-29 10:37:44.99	340.90	8.42	-30.5	-34.1	12.0	2.92e-04	0	42	0	1321205760	21	5483
2026-01-29 10:37:48.00	340.94	8.17	-30.3	-33.7	12.2	1.88e-04	0	42	0	1327497216	21	5288
2026-01-29 10:37:51.01	340.97	7.93	-30.4	-33.8	12.1	2.29e-04	0	42	0	1332740096	21	5350
2026-01-29 10:37:54.02	341.01	7.70	-30.4	-33.9	12.0	2.94e-04	0	42	0	1337982976	21	5392
2026-01-29 10:37:57.03	341.05	7.46	-30.4	-33.8	12.1	3.11e-04	0	42	0	1344274432	21	5375
2026-01-29 10:38:00.04	341.08	7.23	-30.4	-34.0	12.0	3.80e-04	0	42	0	1349517312	21	5427
2026-01-29 10:38:03.05	341.12	7.00	-33.7	-47.9	3.8	1.49e+00	0	42	104	1352663040	27	18493

#Closed at: 2026-01-29 10:38:05
#Recorded file [1352 MB]: D:/data/31010_260129_132559.dat