passes_logs/2026/01/29/R2M6_AANII_01/R2M6_AANII_01__20260129_030404_NOAA_21_JPSS-2_rec.log

#Pass ID: 20260129_030404_NOAA 21 (JPSS-2)
#Satellite: NOAA 21 (JPSS-2)
#Configuration: NOAA 21
#almurnet v.1.7.20240730
#Start time: 2026-01-29 03:04:06

#Version: 2.2.20231116
#Station: R2M6_AANII_01
#Location: 30.233357 lon 59.946436 lat
#TLE: 1 54234U 22150A   26027.77052245  .00000166  00000+0  99439-4 0  9997
#TLE: 2 54234  98.7510 328.5165 0000872 203.6403 156.4733 14.19540252166628

#Time	Az	El	Level	Level2	SNR	BER	BlckErr	Temp	State	Recorded	gain1	gain2
2026-01-29 03:04:06.37	7.80	7.11	-31.7	-38.6	4.2	1.44e+00	0	42	0	0	23	7933
2026-01-29 03:04:08.36	7.56	7.21	-31.5	-37.2	6.8	1.89e-01	0	42	0	0	22	6983
2026-01-29 03:04:10.35	7.32	7.31	-31.5	-36.7	6.8	1.86e-01	0	42	0	5242880	23	6532
2026-01-29 03:04:12.35	7.07	7.41	-31.1	-35.6	7.9	9.47e-02	0	42	0	11534336	22	6062
2026-01-29 03:04:14.35	6.83	7.52	-30.3	-34.1	9.7	1.39e-02	0	43	0	17825792	20	5562
2026-01-29 03:04:16.35	6.58	7.62	-29.5	-32.3	11.4	4.83e-03	0	43	0	24117248	19	4973
2026-01-29 03:04:18.35	6.33	7.72	-28.9	-31.2	12.5	1.69e-04	0	43	0	30408704	18	4679
2026-01-29 03:04:20.37	6.07	7.82	-28.7	-31.2	12.8	3.81e-03	0	43	0	36700160	17	4792
2026-01-29 03:04:22.37	5.82	7.93	-28.7	-31.0	12.9	3.80e-03	0	43	0	42991616	17	4743
2026-01-29 03:04:24.38	5.56	8.03	-28.7	-31.2	12.8	5.87e-05	0	43	0	49283072	17	4784
2026-01-29 03:04:26.38	5.30	8.13	-28.6	-31.0	13.0	3.92e-03	0	43	0	55574528	17	4727
2026-01-29 03:04:28.38	5.04	8.23	-28.7	-31.1	12.9	3.98e-03	0	43	0	61865984	17	4768
2026-01-29 03:04:30.38	4.78	8.33	-28.5	-30.6	13.2	6.63e-05	0	43	0	68157440	17	4595
2026-01-29 03:04:32.39	4.52	8.44	-28.4	-30.8	13.4	3.48e-03	0	43	0	74448896	16	4766
2026-01-29 03:04:34.40	4.25	8.54	-28.2	-30.5	13.5	3.43e-03	0	43	0	80740352	16	4676
2026-01-29 03:04:36.41	3.98	8.64	-28.3	-30.6	13.5	9.90e-06	0	43	0	87031808	16	4717
2026-01-29 03:04:38.41	3.71	8.74	-28.2	-30.5	13.6	3.74e-03	0	43	0	93323264	16	4682
2026-01-29 03:04:40.42	3.44	8.84	-28.3	-30.6	13.6	1.22e-05	0	43	0	99614720	16	4699
2026-01-29 03:04:42.42	3.16	8.94	-28.2	-30.3	13.7	6.10e-06	0	43	0	105906176	16	4596
2026-01-29 03:04:44.43	2.89	9.04	-27.6	-29.7	13.7	5.30e-06	0	43	0	112197632	16	4583
2026-01-29 03:04:46.44	2.61	9.14	-28.3	-30.6	13.6	3.89e-03	0	43	0	118489088	16	4698
2026-01-29 03:04:48.45	2.33	9.24	-28.3	-30.6	13.6	6.10e-06	0	43	0	124780544	16	4706
2026-01-29 03:04:50.46	2.05	9.34	-28.2	-30.5	13.7	1.50e-04	0	43	0	131072000	16	4657
2026-01-29 03:04:52.47	1.76	9.44	-28.2	-30.3	13.7	3.43e-03	0	43	0	137363456	16	4605
2026-01-29 03:04:54.48	1.48	9.54	-28.2	-30.3	13.8	3.80e-06	0	43	0	143654912	16	4606
2026-01-29 03:04:56.49	1.19	9.64	-28.3	-30.6	13.6	6.33e-05	0	43	0	149946368	16	4685
2026-01-29 03:04:58.50	0.90	9.74	-28.4	-30.9	13.4	9.10e-06	0	43	0	156237824	16	4799
2026-01-29 03:05:00.51	0.60	9.84	-28.5	-30.7	13.2	2.88e-04	0	43	0	162529280	17	4621
2026-01-29 03:05:02.51	0.31	9.94	-28.5	-30.7	13.3	3.01e-04	0	43	0	168820736	17	4625
2026-01-29 03:05:04.52	0.02	10.03	-28.7	-31.0	13.1	2.36e-05	0	43	0	175112192	17	4709
2026-01-29 03:05:06.52	359.72	10.13	-28.5	-30.6	13.3	1.94e-04	0	43	0	181403648	17	4581
2026-01-29 03:05:08.54	359.42	10.23	-28.4	-30.9	13.5	2.19e-04	0	44	0	187695104	16	4781
2026-01-29 03:05:10.55	359.11	10.32	-28.5	-31.0	13.4	1.37e-05	0	43	0	193986560	16	4837
2026-01-29 03:05:12.55	358.81	10.42	-28.7	-31.0	13.0	1.61e-04	0	44	0	200278016	17	4732
2026-01-29 03:05:14.56	358.50	10.52	-28.5	-31.1	13.4	1.14e-05	0	43	0	206569472	16	4849
2026-01-29 03:05:16.57	358.20	10.61	-28.5	-30.6	13.4	1.37e-05	0	44	0	212860928	17	4575
2026-01-29 03:05:18.57	357.89	10.71	-28.4	-30.4	13.5	7.62e-05	0	43	0	219152384	17	4534
2026-01-29 03:05:20.57	357.58	10.80	-28.3	-30.7	13.6	1.06e-05	0	43	0	225443840	16	4723
2026-01-29 03:05:22.57	357.26	10.89	-28.3	-30.7	13.6	4.50e-06	0	43	0	231735296	16	4721
2026-01-29 03:05:24.58	356.95	10.99	-28.2	-30.5	13.8	9.10e-06	0	43	0	238026752	16	4649
2026-01-29 03:05:26.58	356.63	11.08	-28.3	-30.6	13.7	9.90e-06	0	43	0	244318208	16	4686
2026-01-29 03:05:28.58	356.31	11.17	-28.1	-30.1	14.0	7.00e-07	0	44	0	250609664	16	4528
2026-01-29 03:05:30.58	355.99	11.26	-28.1	-30.2	13.9	3.00e-06	0	44	0	256901120	16	4556
2026-01-29 03:05:32.58	355.66	11.35	-28.3	-30.6	13.7	2.62e-04	0	44	0	263192576	16	4704
2026-01-29 03:05:34.59	355.34	11.44	-28.4	-30.8	13.6	9.10e-06	0	44	0	269484032	16	4746
2026-01-29 03:05:36.60	355.01	11.53	-28.3	-30.7	13.7	4.50e-06	0	44	0	275775488	16	4727
2026-01-29 03:05:38.61	354.68	11.62	-28.3	-30.5	13.8	7.60e-06	0	44	0	281018368	16	4645
2026-01-29 03:05:40.61	354.34	11.71	-28.3	-30.5	13.8	5.30e-06	0	44	0	287309824	16	4665
2026-01-29 03:05:42.62	354.01	11.80	-28.3	-30.5	13.8	3.80e-06	0	44	0	294649856	16	4648
2026-01-29 03:05:44.63	353.67	11.89	-28.2	-30.4	13.9	3.80e-06	0	43	0	300941312	16	4628
2026-01-29 03:05:46.64	353.33	11.98	-28.2	-30.3	13.9	7.00e-07	0	44	0	306184192	16	4588
2026-01-29 03:05:48.64	352.99	12.06	-28.1	-30.1	14.0	2.20e-06	0	44	0	312475648	16	4534
2026-01-29 03:05:50.65	352.65	12.15	-28.2	-30.4	13.9	3.00e-06	0	44	0	318767104	16	4624
2026-01-29 03:05:52.65	352.30	12.23	-28.2	-30.3	13.8	5.30e-06	0	44	0	325058560	16	4580
2026-01-29 03:05:54.66	351.96	12.32	-28.3	-30.5	13.8	4.94e-04	0	44	0	331350016	16	4667
2026-01-29 03:05:56.67	351.61	12.40	-28.3	-30.5	13.8	3.80e-06	0	44	0	337641472	16	4641
2026-01-29 03:05:58.68	351.26	12.48	-28.0	-30.0	14.2	1.50e-06	0	44	0	343932928	16	4488
2026-01-29 03:06:00.70	350.90	12.56	-27.9	-29.6	14.4	7.54e-04	0	44	0	350224384	16	4372
2026-01-29 03:06:02.70	350.55	12.64	-27.7	-29.6	14.5	7.00e-07	0	44	0	356515840	15	4504
2026-01-29 03:06:04.72	350.19	12.72	-27.7	-29.6	14.4	1.53e-03	0	44	0	362807296	15	4510
2026-01-29 03:06:06.73	349.83	12.80	-27.7	-29.8	14.4	1.86e-03	0	44	0	369098752	15	4574
2026-01-29 03:06:08.73	349.47	12.88	-27.8	-30.0	14.3	7.00e-07	0	44	0	375390208	15	4626
2026-01-29 03:06:10.74	349.10	12.96	-27.9	-30.1	14.2	1.78e-03	0	44	0	381681664	15	4663
2026-01-29 03:06:12.75	348.74	13.04	-27.9	-30.3	14.1	1.30e-03	0	44	0	387973120	15	4717
2026-01-29 03:06:14.76	348.37	13.11	-27.9	-30.2	14.2	2.20e-06	0	44	0	394264576	15	4676
2026-01-29 03:06:16.77	348.00	13.19	-27.9	-30.1	14.2	9.88e-04	0	44	0	400556032	15	4645
2026-01-29 03:06:18.77	347.63	13.26	-27.8	-29.9	14.4	0.00e+00	0	44	0	406847488	15	4590
2026-01-29 03:06:20.78	347.26	13.33	-27.4	-29.6	14.2	1.50e-06	0	44	0	413138944	15	4644
2026-01-29 03:06:22.79	346.88	13.41	-27.7	-29.6	14.3	7.88e-04	0	44	0	419430400	15	4508
2026-01-29 03:06:24.80	346.51	13.48	-27.7	-29.8	14.4	7.00e-07	0	44	0	425721856	15	4569
2026-01-29 03:06:26.80	346.13	13.55	-27.8	-30.0	14.3	1.50e-06	0	44	0	432013312	15	4632
2026-01-29 03:06:28.79	345.75	13.61	-27.7	-29.7	14.5	1.50e-06	0	44	0	438304768	15	4524
2026-01-29 03:06:30.80	345.37	13.68	-27.9	-30.2	14.2	2.33e-03	0	44	0	444596224	15	4673
2026-01-29 03:06:32.80	344.99	13.75	-28.1	-30.2	14.0	4.50e-06	0	44	0	450887680	16	4551
2026-01-29 03:06:34.81	344.60	13.81	-28.3	-30.6	13.8	2.96e-04	0	44	0	457179136	16	4682
2026-01-29 03:06:36.81	344.22	13.88	-28.2	-30.3	14.1	2.75e-03	0	44	0	463470592	16	4579
2026-01-29 03:06:38.82	343.83	13.94	-28.1	-30.2	14.1	3.80e-06	0	44	0	469762048	16	4546
2026-01-29 03:06:40.83	343.44	14.00	-28.2	-30.3	14.0	2.42e-04	0	44	0	476053504	16	4577
2026-01-29 03:06:42.84	343.04	14.06	-27.8	-29.9	14.4	1.50e-06	0	44	0	482344960	15	4588
2026-01-29 03:06:44.85	342.65	14.12	-27.7	-29.7	14.5	1.64e-04	0	44	0	488636416	15	4522
2026-01-29 03:06:46.85	342.26	14.18	-27.5	-29.2	14.8	2.72e-04	0	44	0	494927872	15	4385
2026-01-29 03:06:48.85	341.86	14.24	-27.6	-29.5	14.6	0.00e+00	0	44	0	501219328	15	4464
2026-01-29 03:06:50.86	341.46	14.30	-27.6	-29.4	14.6	3.49e-04	0	44	0	507510784	15	4450
2026-01-29 03:06:52.86	341.06	14.35	-27.6	-29.4	14.6	2.36e-04	0	44	0	513802240	15	4440
2026-01-29 03:06:54.86	340.66	14.40	-27.5	-29.3	14.7	7.00e-07	0	44	0	520093696	15	4412
2026-01-29 03:06:56.86	340.26	14.46	-27.5	-29.2	14.7	0.00e+00	0	44	0	526385152	15	4393
2026-01-29 03:06:58.86	339.86	14.51	-27.6	-29.5	14.6	0.00e+00	0	44	0	532676608	15	4471
2026-01-29 03:07:00.86	339.46	14.56	-27.7	-29.7	14.5	0.00e+00	0	44	0	538968064	15	4518
2026-01-29 03:07:02.87	339.05	14.60	-27.7	-29.7	14.5	3.00e-06	0	44	0	545259520	15	4525
2026-01-29 03:07:04.88	338.64	14.65	-27.7	-29.7	14.5	7.00e-07	0	44	0	551550976	15	4530
2026-01-29 03:07:06.89	338.23	14.70	-27.8	-29.9	14.4	0.00e+00	0	44	0	557842432	15	4578
2026-01-29 03:07:08.88	337.82	14.74	-27.8	-30.0	14.4	7.00e-07	0	44	0	564133888	15	4601
2026-01-29 03:07:10.89	337.41	14.78	-27.6	-29.5	14.6	7.00e-07	0	44	0	570425344	15	4464
2026-01-29 03:07:12.89	337.00	14.82	-27.6	-29.5	14.6	0.00e+00	0	44	0	576716800	15	4480
2026-01-29 03:07:14.90	336.58	14.86	-27.4	-29.0	14.9	0.00e+00	0	44	0	581959680	15	4324
2026-01-29 03:07:16.90	336.17	14.90	-27.4	-29.5	14.8	7.00e-07	0	44	0	588251136	14	4595
2026-01-29 03:07:18.91	335.75	14.94	-27.6	-29.4	14.6	0.00e+00	0	44	0	594542592	15	4453
2026-01-29 03:07:20.91	335.33	14.97	-27.7	-29.6	14.6	0.00e+00	0	44	0	600834048	15	4502
2026-01-29 03:07:22.91	334.92	15.01	-27.8	-30.0	14.3	0.00e+00	0	44	0	607125504	15	4618
2026-01-29 03:07:24.92	334.50	15.04	-27.5	-29.2	14.8	0.00e+00	0	44	0	613416960	15	4391
2026-01-29 03:07:26.93	334.08	15.07	-27.5	-29.2	14.8	0.00e+00	0	44	0	619708416	15	4372
2026-01-29 03:07:28.94	333.65	15.10	-27.4	-29.1	14.9	0.00e+00	0	44	0	625999872	15	4360
2026-01-29 03:07:30.94	333.23	15.13	-27.4	-29.4	14.9	0.00e+00	0	44	0	632291328	14	4556
2026-01-29 03:07:32.95	332.81	15.16	-27.4	-29.0	14.9	0.00e+00	0	44	0	638582784	15	4317
2026-01-29 03:07:34.96	332.39	15.18	-27.3	-29.2	15.0	0.00e+00	0	44	0	644874240	14	4494
2026-01-29 03:07:36.97	331.96	15.20	-27.4	-29.4	14.9	0.00e+00	0	44	0	651165696	14	4543
2026-01-29 03:07:38.98	331.53	15.23	-27.3	-29.2	15.1	3.33e-03	0	44	0	657457152	14	4500
2026-01-29 03:07:40.99	331.11	15.25	-27.3	-29.3	15.0	0.00e+00	0	44	0	663748608	14	4518
2026-01-29 03:07:43.00	330.68	15.27	-27.4	-29.4	15.0	0.00e+00	0	44	0	670040064	14	4539
2026-01-29 03:07:45.00	330.26	15.28	-27.5	-29.2	14.8	3.86e-03	0	44	0	676331520	15	4378
2026-01-29 03:07:47.01	329.83	15.30	-27.7	-29.6	14.5	7.00e-07	0	44	0	682622976	15	4503
2026-01-29 03:07:49.01	329.40	15.31	-27.6	-29.4	14.7	3.42e-03	0	44	0	688914432	15	4437
2026-01-29 03:07:51.01	328.98	15.32	-27.6	-29.6	14.6	0.00e+00	0	44	0	695205888	15	4485
2026-01-29 03:07:53.02	328.55	15.33	-27.6	-29.4	14.7	0.00e+00	0	44	0	701497344	15	4451
2026-01-29 03:07:55.03	328.12	15.34	-27.5	-29.7	14.8	3.77e-03	0	44	0	707788800	14	4626
2026-01-29 03:07:57.03	327.69	15.35	-27.6	-29.5	14.6	0.00e+00	0	44	0	714080256	15	4468
2026-01-29 03:07:59.04	327.26	15.36	-27.5	-29.2	14.8	7.00e-07	0	44	0	720371712	15	4384
2026-01-29 03:08:01.04	326.83	15.36	-27.6	-29.3	14.7	3.63e-03	0	44	0	726663168	15	4409
2026-01-29 03:08:03.04	326.40	15.36	-27.6	-29.4	14.7	3.80e-03	0	44	0	732954624	15	4446
2026-01-29 03:08:05.05	325.97	15.36	-27.6	-29.5	14.6	0.00e+00	0	44	0	739246080	15	4481
2026-01-29 03:08:07.06	325.54	15.36	-27.7	-29.6	14.5	3.48e-03	0	44	0	745537536	15	4505
2026-01-29 03:08:09.06	325.11	15.36	-27.5	-29.3	14.7	3.42e-03	0	44	0	751828992	15	4419
2026-01-29 03:08:11.06	324.69	15.36	-27.8	-29.9	14.4	5.30e-06	0	44	0	758120448	15	4590
2026-01-29 03:08:13.07	324.26	15.35	-27.5	-29.3	14.8	3.17e-04	0	44	0	764411904	15	4403
2026-01-29 03:08:15.07	323.83	15.34	-27.6	-29.5	14.6	3.71e-03	0	44	0	770703360	15	4480
2026-01-29 03:08:17.09	323.40	15.34	-27.8	-29.9	14.4	0.00e+00	0	44	0	776994816	15	4577
2026-01-29 03:08:19.08	322.97	15.33	-27.8	-29.8	14.4	6.55e-04	0	44	0	783286272	15	4572
2026-01-29 03:08:21.10	322.54	15.31	-27.6	-29.5	14.6	3.98e-03	0	44	0	789577728	15	4469
2026-01-29 03:08:23.10	322.11	15.30	-27.5	-29.3	14.7	3.68e-04	0	44	0	795869184	15	4401
2026-01-29 03:08:25.10	321.69	15.28	-27.5	-29.3	14.7	2.69e-03	0	44	0	802160640	15	4418
2026-01-29 03:08:27.11	321.26	15.27	-27.6	-29.5	14.7	0.00e+00	0	44	0	808452096	15	4455
2026-01-29 03:08:29.12	320.83	15.25	-27.5	-29.2	14.8	5.21e-04	0	44	0	814743552	15	4378
2026-01-29 03:08:31.13	320.41	15.23	-27.6	-29.4	14.7	6.52e-04	0	44	0	821035008	15	4433
2026-01-29 03:08:33.15	319.98	15.21	-27.7	-29.7	14.5	0.00e+00	0	44	0	827326464	15	4532
2026-01-29 03:08:35.16	319.55	15.18	-27.9	-30.1	14.3	3.81e-04	0	44	0	833617920	15	4654
2026-01-29 03:08:37.16	319.13	15.16	-27.6	-29.5	14.6	3.78e-04	0	44	0	839909376	15	4467
2026-01-29 03:08:39.18	318.70	15.13	-27.7	-29.7	14.5	7.00e-07	0	44	0	846200832	15	4536
2026-01-29 03:08:41.18	318.28	15.11	-27.5	-29.2	14.8	0.00e+00	0	44	0	852492288	15	4380
2026-01-29 03:08:43.19	317.86	15.08	-27.7	-29.6	14.5	2.20e-06	0	44	0	858783744	15	4505
2026-01-29 03:08:45.20	317.44	15.05	-27.4	-29.6	14.8	0.00e+00	0	44	0	865075200	14	4613
2026-01-29 03:08:47.21	317.02	15.01	-27.6	-29.4	14.6	0.00e+00	0	44	0	871366656	15	4451
2026-01-29 03:08:49.22	316.60	14.98	-27.7	-29.6	14.5	0.00e+00	0	44	0	877658112	15	4492
2026-01-29 03:08:51.23	316.18	14.94	-27.6	-29.4	14.6	0.00e+00	0	44	0	883949568	15	4442
2026-01-29 03:08:53.23	315.76	14.91	-27.6	-29.4	14.6	1.50e-06	0	44	0	890241024	15	4436
2026-01-29 03:08:55.25	315.34	14.87	-27.5	-29.2	14.8	1.44e-04	0	44	0	896532480	15	4373
2026-01-29 03:08:57.25	314.93	14.83	-27.4	-29.4	14.9	0.00e+00	0	44	0	901775360	14	4563
2026-01-29 03:08:59.26	314.52	14.79	-27.4	-29.6	14.8	0.00e+00	0	44	0	908066816	14	4608
2026-01-29 03:09:01.26	314.10	14.75	-27.4	-29.5	14.9	0.00e+00	0	44	0	914358272	14	4577
2026-01-29 03:09:03.27	313.69	14.70	-27.7	-29.6	14.5	0.00e+00	0	44	0	921698304	15	4507
2026-01-29 03:09:05.28	313.28	14.66	-27.3	-29.4	14.9	0.00e+00	0	44	0	926941184	14	4543
2026-01-29 03:09:07.29	312.87	14.61	-27.4	-29.6	14.8	0.00e+00	0	44	0	933232640	14	4616
2026-01-29 03:09:09.30	312.46	14.56	-27.4	-29.6	14.8	7.00e-07	0	44	0	939524096	14	4612
2026-01-29 03:09:11.31	312.06	14.51	-27.4	-29.6	14.8	0.00e+00	0	44	0	945815552	14	4606
2026-01-29 03:09:13.32	311.65	14.46	-27.7	-29.6	14.5	7.00e-07	0	44	0	952107008	15	4497
2026-01-29 03:09:15.33	311.25	14.41	-27.5	-29.3	14.5	0.00e+00	0	44	0	958398464	15	4418
2026-01-29 03:09:17.33	310.84	14.36	-27.4	-29.6	14.8	7.00e-07	0	44	0	964689920	14	4612
2026-01-29 03:09:19.34	310.44	14.30	-27.7	-29.7	14.4	0.00e+00	0	44	0	970981376	15	4529
2026-01-29 03:09:21.35	310.04	14.25	-27.8	-29.9	14.3	2.20e-06	0	44	0	977272832	15	4587
2026-01-29 03:09:23.35	309.65	14.19	-27.7	-29.8	14.4	2.03e-03	0	44	0	983564288	15	4572
2026-01-29 03:09:25.36	309.25	14.13	-27.6	-29.5	14.5	7.00e-07	0	44	0	989855744	15	4485
2026-01-29 03:09:27.36	308.86	14.07	-27.5	-29.3	14.6	7.00e-07	0	44	0	996147200	15	4413
2026-01-29 03:09:29.36	308.46	14.01	-27.5	-29.4	14.5	1.41e-03	0	44	0	1002438656	15	4440
2026-01-29 03:09:31.37	308.07	13.95	-27.7	-29.7	14.4	2.20e-06	0	44	0	1008730112	15	4537
2026-01-29 03:09:33.38	307.68	13.88	-27.6	-29.6	14.5	2.00e-03	0	44	0	1015021568	15	4496
2026-01-29 03:09:35.39	307.29	13.82	-27.5	-29.4	14.6	2.69e-03	0	44	0	1021313024	15	4439
2026-01-29 03:09:37.40	306.91	13.75	-27.4	-29.5	14.8	0.00e+00	0	44	0	1027604480	14	4592
2026-01-29 03:09:39.40	306.52	13.69	-27.3	-29.2	14.9	2.45e-03	0	44	0	1033895936	14	4503
2026-01-29 03:09:41.41	306.14	13.62	-27.4	-29.5	14.8	2.50e-03	0	44	0	1040187392	14	4585
2026-01-29 03:09:43.41	305.76	13.55	-27.4	-29.5	14.7	0.00e+00	0	44	0	1046478848	14	4609
2026-01-29 03:09:45.42	305.38	13.48	-27.4	-29.6	14.7	3.26e-03	0	44	0	1052770304	14	4618
2026-01-29 03:09:47.43	305.00	13.41	-27.5	-29.4	14.5	0.00e+00	0	44	0	1059061760	15	4443
2026-01-29 03:09:49.43	304.63	13.34	-27.6	-29.4	14.5	0.00e+00	0	44	0	1065353216	15	4461
2026-01-29 03:09:51.44	304.25	13.27	-27.7	-29.7	14.3	2.75e-03	0	44	0	1071644672	15	4533
2026-01-29 03:09:53.45	303.88	13.19	-27.7	-29.7	14.3	1.50e-06	0	44	0	1077936128	15	4550
2026-01-29 03:09:55.46	303.51	13.12	-27.8	-29.9	14.2	3.00e-06	0	44	0	1084227584	15	4605
2026-01-29 03:09:57.48	303.14	13.04	-27.8	-29.9	14.2	6.26e-04	0	44	0	1090519040	15	4592
2026-01-29 03:09:59.49	302.77	12.96	-27.7	-29.6	14.3	1.50e-06	0	44	0	1096810496	15	4524
2026-01-29 03:10:01.50	302.41	12.89	-27.8	-30.1	14.1	4.57e-04	0	44	0	1103101952	15	4655
2026-01-29 03:10:03.50	302.05	12.81	-27.6	-29.5	14.4	3.09e-04	0	44	0	1109393408	15	4491
2026-01-29 03:10:05.51	301.68	12.73	-27.7	-29.7	14.3	1.99e-03	0	44	0	1115684864	15	4559
2026-01-29 03:10:07.52	301.33	12.65	-27.7	-29.8	14.2	1.82e-03	0	44	0	1121976320	15	4584
2026-01-29 03:10:09.54	300.97	12.57	-27.8	-30.0	14.1	2.14e-03	0	44	0	1128267776	15	4638
2026-01-29 03:10:11.54	300.61	12.49	-27.7	-29.8	14.2	2.20e-06	0	44	0	1134559232	15	4577
2026-01-29 03:10:13.55	300.26	12.40	-27.5	-29.4	14.5	7.80e-04	0	44	0	1140850688	15	4449
2026-01-29 03:10:15.57	299.91	12.32	-27.6	-29.4	14.4	7.00e-07	0	44	0	1147142144	15	4466
2026-01-29 03:10:17.58	299.56	12.23	-27.6	-29.4	14.4	7.00e-07	0	44	0	1153433600	15	4463
2026-01-29 03:10:19.59	299.21	12.15	-27.7	-29.7	14.3	7.00e-07	0	44	0	1159725056	15	4538
2026-01-29 03:10:21.60	298.87	12.06	-27.9	-30.2	13.9	1.50e-06	0	44	0	1166016512	15	4694
2026-01-29 03:10:23.61	298.52	11.98	-27.9	-30.2	13.9	2.20e-06	0	44	0	1172307968	15	4697
2026-01-29 03:10:25.61	298.18	11.89	-27.9	-30.2	13.9	3.80e-06	0	44	0	1178599424	15	4712
2026-01-29 03:10:27.62	297.84	11.80	-28.2	-30.4	13.7	2.20e-06	0	44	0	1184890880	16	4635
2026-01-29 03:10:29.62	297.51	11.71	-28.2	-30.3	13.8	7.60e-06	0	44	0	1191182336	16	4607
2026-01-29 03:10:31.64	297.17	11.62	-28.1	-30.2	13.8	3.80e-06	0	44	0	1197473792	16	4584
2026-01-29 03:10:33.64	296.84	11.54	-28.3	-30.7	13.5	8.30e-06	0	44	0	1203765248	16	4744
2026-01-29 03:10:35.65	296.51	11.45	-28.0	-30.0	13.9	3.00e-06	0	44	0	1210056704	16	4530
2026-01-29 03:10:37.64	296.19	11.36	-27.7	-29.8	14.1	1.50e-06	0	44	0	1216348160	15	4584
2026-01-29 03:10:39.66	295.86	11.26	-27.7	-29.9	14.1	4.50e-06	0	44	0	1222639616	15	4612
2026-01-29 03:10:41.67	295.53	11.17	-27.7	-29.8	14.1	3.00e-06	0	44	0	1228931072	15	4585
2026-01-29 03:10:43.68	295.21	11.08	-27.8	-30.1	14.0	3.00e-06	0	44	0	1235222528	15	4664
2026-01-29 03:10:45.69	294.89	10.99	-27.9	-30.3	13.8	3.00e-06	0	44	0	1241513984	15	4737
2026-01-29 03:10:47.69	294.57	10.89	-28.2	-30.5	13.5	7.60e-06	0	44	0	1247805440	16	4691
2026-01-29 03:10:49.69	294.26	10.80	-28.2	-30.5	13.6	1.06e-05	0	44	0	1254096896	16	4691
2026-01-29 03:10:51.70	293.94	10.70	-28.2	-30.4	13.6	6.10e-06	0	44	0	1260388352	16	4647
2026-01-29 03:10:53.70	293.63	10.61	-28.3	-30.7	13.4	1.14e-05	0	44	0	1266679808	16	4749
2026-01-29 03:10:55.70	293.32	10.51	-28.4	-31.1	13.2	2.44e-05	0	44	0	1272971264	16	4868
2026-01-29 03:10:57.71	293.02	10.42	-28.6	-30.9	13.0	3.89e-05	0	44	0	1278214144	17	4699
2026-01-29 03:10:59.72	292.71	10.32	-28.7	-31.1	12.8	4.95e-05	0	44	0	1285554176	17	4781
2026-01-29 03:11:01.72	292.41	10.23	-28.8	-31.5	12.6	1.17e-04	0	44	0	1291845632	17	4912
2026-01-29 03:11:03.72	292.11	10.13	-28.7	-31.3	12.6	8.54e-05	0	44	0	1297088512	17	4819
2026-01-29 03:11:05.73	291.81	10.03	-28.8	-31.6	12.5	1.35e-04	0	44	0	1303379968	17	4959
2026-01-29 03:11:07.73	291.51	9.93	-28.8	-31.5	12.5	5.70e-04	0	44	0	1309671424	17	4910
2026-01-29 03:11:09.75	291.21	9.84	-28.7	-31.3	12.6	6.45e-04	0	44	0	1315962880	17	4850
2026-01-29 03:11:11.75	290.92	9.74	-28.7	-31.2	12.7	6.40e-05	0	44	0	1322254336	17	4804
2026-01-29 03:11:13.75	290.63	9.64	-28.6	-31.1	12.8	2.87e-03	0	44	0	1328545792	17	4764
2026-01-29 03:11:15.76	290.34	9.54	-28.3	-30.9	13.2	2.44e-05	0	44	0	1334837248	16	4813
2026-01-29 03:11:17.78	290.05	9.44	-28.5	-31.2	13.0	2.80e-03	0	44	0	1341128704	16	4911
2026-01-29 03:11:19.79	289.76	9.34	-28.3	-30.8	13.2	1.83e-03	0	44	0	1347420160	16	4787
2026-01-29 03:11:21.80	289.48	9.24	-28.4	-30.9	13.0	8.03e-04	0	44	0	1353711616	16	4836
2026-01-29 03:11:23.81	289.20	9.14	-28.4	-31.1	12.9	9.09e-04	0	44	0	1360003072	16	4880
2026-01-29 03:11:25.81	288.92	9.04	-28.6	-31.1	12.6	7.48e-04	0	44	0	1366294528	17	4769
2026-01-29 03:11:27.82	288.64	8.94	-28.7	-31.3	12.4	1.63e-04	0	44	0	1372585984	17	4863
2026-01-29 03:11:29.82	288.37	8.84	-28.4	-31.1	12.9	2.99e-03	0	44	0	1378877440	16	4902
2026-01-29 03:11:31.83	288.09	8.74	-28.6	-31.0	12.6	6.79e-05	0	44	0	1385168896	17	4753
2026-01-29 03:11:33.85	287.82	8.63	-28.5	-30.9	12.7	9.07e-05	0	44	0	1391460352	17	4713
2026-01-29 03:11:35.86	287.55	8.53	-28.5	-30.9	12.6	2.56e-03	0	44	0	1397751808	17	4717
2026-01-29 03:11:37.87	287.28	8.43	-28.6	-31.2	12.5	1.32e-04	0	44	0	1404043264	17	4825
2026-01-29 03:11:39.88	287.01	8.33	-28.8	-31.7	12.1	1.99e-04	0	44	0	1410334720	17	4995
2026-01-29 03:11:41.89	286.75	8.23	-28.9	-32.0	11.9	2.45e-03	0	44	0	1416626176	17	5110
2026-01-29 03:11:43.90	286.49	8.12	-29.1	-31.9	11.6	5.57e-04	0	44	0	1422917632	18	4981
2026-01-29 03:11:45.91	286.23	8.02	-29.4	-32.8	11.1	2.42e-03	0	44	0	1429209088	18	5297
2026-01-29 03:11:47.92	285.97	7.92	-29.2	-32.3	11.3	1.28e-03	0	44	0	1435500544	18	5128
2026-01-29 03:11:49.93	285.71	7.81	-29.3	-32.5	11.1	1.45e-03	0	44	0	1441792000	18	5215
2026-01-29 03:11:51.93	285.45	7.71	-29.4	-32.7	10.9	1.64e-03	0	44	0	1448083456	18	5296
2026-01-29 03:11:53.93	285.20	7.61	-28.9	-31.5	11.8	5.95e-04	0	44	0	1454374912	18	4833
2026-01-29 03:11:55.94	284.95	7.51	-28.7	-31.3	12.1	2.60e-04	0	44	0	1460666368	17	4887
2026-01-29 03:11:57.95	284.70	7.40	-29.0	-32.1	11.6	5.55e-04	0	44	0	1466957824	17	5186
2026-01-29 03:11:59.95	284.45	7.30	-28.7	-31.5	12.0	3.71e-04	0	44	0	1473249280	17	4969
2026-01-29 03:12:01.96	284.21	7.20	-28.8	-31.8	11.9	3.87e-04	0	44	0	1479540736	17	5054
2026-01-29 03:12:03.96	283.96	7.09	-28.7	-31.4	12.1	3.63e-04	0	44	0	1485832192	17	4928
2026-01-29 03:12:05.97	283.72	6.99	-33.4	-45.6	3.8	1.49e+00	0	44	104	1486880768	26	14766

#Closed at: 2026-01-29 03:12:07
#Recorded file [1486 MB]: D:/data/31010_260129_060408.dat