passes_logs/2026/01/29/R2M6_AANII_01/R2M6_AANII_01__20260129_024938_FENGYUN_3D_rec.log

#Pass ID: 20260129_024938_FENGYUN 3D
#Satellite: FENGYUN 3D
#Configuration: FENGYUN 3D
#almurnet v.1.7.20240730
#Start time: 2026-01-29 02:49:39

#Version: 2.2.20231116
#Station: R2M6_AANII_01
#Location: 30.233357 lon 59.946436 lat
#TLE: 1 43010U 17072A   26027.90082829  .00000305  00000+0  16579-3 0  9998
#TLE: 2 43010  98.9960 359.9183 0002511  88.1058 272.0405 14.19701796425082

#Time	Az	El	Level	Level2	SNR	BER	BlckErr	Temp	State	Recorded	gain1	gain2
2026-01-29 02:49:39.34	16.80	7.06	-30.4	-34.5	5.1	7.99e-01	0	41	0	0	20	5826
2026-01-29 02:49:42.36	16.75	7.29	-30.8	-35.2	7.6	9.14e-02	0	41	0	5242880	21	5984
2026-01-29 02:49:45.38	16.70	7.53	-30.1	-33.7	9.1	1.60e-02	0	41	0	22020096	20	5397
2026-01-29 02:49:48.38	16.65	7.76	-30.2	-33.9	9.0	2.54e-02	0	41	0	38797312	20	5493
2026-01-29 02:49:51.40	16.60	8.00	-29.4	-32.4	10.8	1.50e-03	0	41	0	56623104	18	5133
2026-01-29 02:49:54.41	16.54	8.24	-28.6	-30.9	12.0	3.50e-04	0	41	0	73400320	17	4721
2026-01-29 02:49:57.43	16.49	8.48	-27.9	-29.7	13.1	9.10e-06	0	41	0	90177536	16	4458
2026-01-29 02:50:00.43	16.44	8.73	-27.8	-30.0	13.1	1.02e-05	0	42	0	106954752	15	4649
2026-01-29 02:50:03.45	16.38	8.98	-27.4	-29.1	13.6	1.02e-05	0	42	0	123731968	15	4398
2026-01-29 02:50:06.46	16.32	9.23	-26.7	-28.1	14.6	1.10e-06	0	42	0	140509184	14	4200
2026-01-29 02:50:09.48	16.26	9.48	-26.5	-28.1	14.8	0.00e+00	0	42	0	158334976	13	4335
2026-01-29 02:50:12.49	16.20	9.73	-26.4	-27.9	15.0	0.00e+00	0	42	0	175112192	13	4263
2026-01-29 02:50:15.51	16.14	9.99	-26.4	-27.9	15.0	0.00e+00	0	42	0	191889408	13	4249
2026-01-29 02:50:18.52	16.08	10.25	-26.1	-27.7	15.4	0.00e+00	0	42	0	208666624	12	4304
2026-01-29 02:50:21.53	16.02	10.52	-26.2	-27.8	15.3	0.00e+00	0	42	0	225443840	12	4340
2026-01-29 02:50:24.55	15.95	10.78	-26.1	-27.6	15.5	0.00e+00	0	42	0	243269632	12	4299
2026-01-29 02:50:27.56	15.88	11.05	-25.3	-26.7	15.4	0.00e+00	0	42	0	260046848	12	4187
2026-01-29 02:50:30.57	15.82	11.32	-26.2	-27.8	15.1	0.00e+00	0	42	0	276824064	12	4340
2026-01-29 02:50:33.58	15.75	11.60	-26.0	-27.3	15.7	3.28e-04	0	42	0	293601280	12	4212
2026-01-29 02:50:36.59	15.68	11.87	-26.0	-27.4	15.7	0.00e+00	0	42	0	310378496	12	4239
2026-01-29 02:50:39.60	15.60	12.16	-26.2	-27.8	15.4	1.57e-03	0	43	0	327155712	12	4341
2026-01-29 02:50:42.61	15.53	12.44	-26.0	-27.4	15.7	1.54e-03	0	42	0	343932928	12	4237
2026-01-29 02:50:45.63	15.45	12.73	-26.1	-27.5	15.6	4.10e-04	0	42	0	360710144	12	4269
2026-01-29 02:50:48.63	15.38	13.02	-26.0	-27.4	15.8	0.00e+00	0	42	0	378535936	12	4225
2026-01-29 02:50:51.65	15.30	13.31	-26.1	-27.5	15.7	1.79e-03	0	43	0	395313152	12	4271
2026-01-29 02:50:54.66	15.21	13.61	-26.1	-27.6	15.7	1.77e-03	0	43	0	412090368	12	4271
2026-01-29 02:50:57.67	15.13	13.91	-26.0	-27.4	15.8	0.00e+00	0	43	0	428867584	12	4244
2026-01-29 02:51:00.69	15.05	14.22	-26.0	-27.9	15.9	1.16e-03	0	43	0	445644800	11	4479
2026-01-29 02:51:03.70	14.96	14.53	-25.9	-27.6	16.1	1.65e-03	0	43	0	463470592	11	4390
2026-01-29 02:51:06.71	14.87	14.84	-25.8	-27.4	16.2	0.00e+00	0	43	0	480247808	11	4331
2026-01-29 02:51:09.72	14.78	15.16	-25.8	-27.5	16.2	0.00e+00	0	43	0	497025024	11	4366
2026-01-29 02:51:12.72	14.68	15.48	-25.5	-26.8	16.5	1.21e-03	0	43	0	513802240	11	4172
2026-01-29 02:51:15.73	14.59	15.80	-25.3	-26.9	16.8	0.00e+00	0	43	0	530579456	10	4316
2026-01-29 02:51:18.74	14.49	16.13	-25.1	-26.5	17.0	0.00e+00	0	43	0	547356672	10	4212
2026-01-29 02:51:21.75	14.39	16.46	-25.2	-26.7	16.9	0.00e+00	0	43	0	564133888	10	4250
2026-01-29 02:51:24.76	14.28	16.80	-25.0	-26.1	17.2	0.00e+00	0	43	0	580911104	10	4110
2026-01-29 02:51:27.77	14.18	17.15	-24.8	-26.2	17.4	0.00e+00	0	43	0	598736896	9	4247
2026-01-29 02:51:30.78	14.07	17.49	-24.8	-26.2	17.4	0.00e+00	0	43	0	615514112	9	4244
2026-01-29 02:51:33.80	13.96	17.85	-24.5	-25.5	17.8	0.00e+00	0	43	0	632291328	9	4070
2026-01-29 02:51:36.80	13.84	18.20	-24.3	-25.3	18.0	0.00e+00	0	43	0	649068544	9	4002
2026-01-29 02:51:39.81	13.73	18.57	-24.3	-25.8	18.0	0.00e+00	0	43	0	665845760	8	4248
2026-01-29 02:51:42.81	13.61	18.93	-24.2	-25.5	18.1	0.00e+00	0	43	0	682622976	8	4176
2026-01-29 02:51:45.81	13.48	19.31	-24.1	-25.3	18.2	0.00e+00	0	43	0	699400192	8	4133
2026-01-29 02:51:48.82	13.35	19.69	-24.2	-25.4	18.2	0.00e+00	0	43	0	716177408	8	4159
2026-01-29 02:51:51.84	13.22	20.07	-24.3	-25.6	18.1	0.00e+00	0	43	0	734003200	8	4207
2026-01-29 02:51:54.84	13.09	20.46	-24.3	-25.7	18.1	0.00e+00	0	43	0	750780416	8	4218
2026-01-29 02:51:57.85	12.95	20.86	-24.4	-25.9	18.0	0.00e+00	0	43	0	767557632	8	4278
2026-01-29 02:52:00.85	12.81	21.26	-24.4	-25.9	18.0	0.00e+00	0	43	0	784334848	8	4274
2026-01-29 02:52:03.86	12.66	21.67	-24.3	-25.6	18.1	0.00e+00	0	43	0	801112064	8	4195
2026-01-29 02:52:06.87	12.51	22.08	-24.0	-25.1	18.4	0.00e+00	0	43	0	817889280	8	4066
2026-01-29 02:52:09.88	12.36	22.51	-24.0	-25.0	18.5	0.00e+00	0	43	0	834666496	8	4045
2026-01-29 02:52:12.90	12.19	22.94	-23.7	-24.9	18.8	0.00e+00	0	43	0	852492288	7	4124
2026-01-29 02:52:15.90	12.03	23.37	-23.7	-24.9	18.8	0.00e+00	0	43	0	869269504	7	4134
2026-01-29 02:52:18.92	11.86	23.82	-23.5	-24.5	19.0	0.00e+00	0	43	0	886046720	7	4025
2026-01-29 02:52:21.92	11.69	24.27	-23.6	-24.6	18.9	6.32e-04	0	43	0	902823936	7	4069
2026-01-29 02:52:24.93	11.51	24.72	-23.4	-24.7	19.1	0.00e+00	0	43	0	919601152	6	4194
2026-01-29 02:52:27.95	11.32	25.19	-23.5	-25.0	19.0	6.87e-04	0	43	0	937426944	6	4260
2026-01-29 02:52:30.95	11.13	25.67	-23.3	-24.1	19.2	5.60e-04	0	43	0	954204160	7	3934
2026-01-29 02:52:33.97	10.93	26.15	-23.5	-24.5	19.0	4.87e-04	0	43	0	970981376	7	4041
2026-01-29 02:52:36.97	10.72	26.64	-22.9	-23.8	19.6	0.00e+00	0	43	0	987758592	6	3968
2026-01-29 02:52:40.00	10.51	27.14	-23.3	-24.5	19.3	6.51e-04	0	43	0	1004535808	6	4154
2026-01-29 02:52:43.00	10.29	27.65	-23.3	-24.6	19.2	6.34e-04	0	43	0	1021313024	6	4171
2026-01-29 02:52:46.01	10.07	28.17	-23.4	-24.7	19.2	0.00e+00	0	43	0	1038090240	6	4199
2026-01-29 02:52:49.01	9.83	28.69	-23.3	-24.7	19.2	3.25e-04	0	43	0	1054867456	6	4186
2026-01-29 02:52:52.02	9.59	29.23	-23.3	-24.6	19.3	3.65e-04	0	43	0	1072693248	6	4168
2026-01-29 02:52:55.03	9.34	29.77	-23.3	-24.6	19.2	3.84e-04	0	43	0	1089470464	6	4181
2026-01-29 02:52:58.05	9.08	30.33	-23.5	-24.9	19.1	0.00e+00	0	43	0	1106247680	6	4263
2026-01-29 02:53:01.05	8.81	30.90	-23.7	-24.8	18.9	0.00e+00	0	43	0	1123024896	7	4121
2026-01-29 02:53:04.06	8.53	31.48	-23.2	-24.0	19.3	0.00e+00	0	43	0	1139802112	7	3905
2026-01-29 02:53:07.07	8.24	32.06	-23.0	-23.9	19.6	0.00e+00	0	43	0	1156579328	6	4008
2026-01-29 02:53:10.08	7.94	32.66	-22.8	-23.5	19.8	0.00e+00	0	43	0	1173356544	6	3900
2026-01-29 02:53:13.09	7.62	33.27	-22.7	-23.3	20.0	0.00e+00	0	43	0	1190133760	6	3849
2026-01-29 02:53:16.10	7.30	33.89	-22.8	-23.5	19.8	0.00e+00	0	43	0	1207959552	6	3908
2026-01-29 02:53:19.11	6.96	34.53	-22.9	-23.8	19.7	0.00e+00	0	43	0	1224736768	6	3969
2026-01-29 02:53:22.12	6.60	35.17	-22.6	-23.6	20.0	0.00e+00	0	43	0	1241513984	5	4051
2026-01-29 02:53:25.12	6.24	35.83	-22.3	-23.0	20.4	0.00e+00	0	43	0	1258291200	5	3887
2026-01-29 02:53:28.13	5.85	36.50	-22.2	-23.3	20.4	0.00e+00	0	43	0	1275068416	4	4090
2026-01-29 02:53:31.15	5.45	37.18	-22.5	-23.9	20.2	0.00e+00	0	43	0	1292894208	4	4233
2026-01-29 02:53:34.16	5.03	37.88	-22.5	-23.3	20.2	0.00e+00	0	43	0	1309671424	5	3978
2026-01-29 02:53:37.17	4.59	38.58	-22.3	-22.9	18.7	0.00e+00	0	43	0	1326448640	5	3879
2026-01-29 02:53:40.18	4.13	39.30	-22.6	-23.6	20.1	0.00e+00	0	43	0	1343225856	5	4033
2026-01-29 02:53:43.19	3.66	40.04	-23.0	-24.0	19.7	0.00e+00	0	44	0	1360003072	6	4018
2026-01-29 02:53:46.20	3.15	40.79	-23.1	-24.1	19.6	0.00e+00	0	43	0	1376780288	6	4039
2026-01-29 02:53:49.21	2.63	41.55	-23.2	-24.4	19.5	0.00e+00	0	43	0	1393557504	6	4112
2026-01-29 02:53:52.22	2.07	42.32	-23.3	-24.4	19.5	0.00e+00	0	43	0	1410334720	6	4130
2026-01-29 02:53:55.24	1.49	43.11	-23.2	-24.4	19.5	0.00e+00	0	43	0	1428160512	6	4117
2026-01-29 02:53:58.25	0.88	43.91	-22.7	-23.2	20.1	0.00e+00	0	43	0	1444937728	6	3840
2026-01-29 02:54:01.26	0.24	44.72	-23.1	-24.1	19.7	2.20e-06	0	43	0	1461714944	6	4042
2026-01-29 02:54:04.27	359.56	45.55	-23.3	-24.5	19.4	8.00e-06	0	43	0	1478492160	6	4140
2026-01-29 02:54:07.27	358.85	46.38	-23.3	-24.6	19.4	3.40e-06	0	43	0	1495269376	6	4167
2026-01-29 02:54:10.29	358.09	47.23	-23.0	-23.8	19.8	3.40e-06	0	43	0	1512046592	6	3978
2026-01-29 02:54:13.29	357.30	48.09	-23.4	-24.7	19.4	0.00e+00	0	43	0	1528823808	6	4189
2026-01-29 02:54:16.30	356.45	48.97	-24.3	-25.7	18.4	0.00e+00	0	44	0	1546649600	8	4213
2026-01-29 02:54:19.32	355.55	49.85	-23.8	-24.6	19.0	0.00e+00	0	43	0	1563426816	8	3943
2026-01-29 02:54:22.33	354.61	50.74	-23.9	-24.7	19.0	0.00e+00	0	43	0	1580204032	8	3968
2026-01-29 02:54:25.34	353.60	51.64	-24.6	-25.8	18.1	0.00e+00	0	43	0	1596981248	9	4121
2026-01-29 02:54:28.36	352.52	52.55	-23.6	-24.2	19.2	0.00e+00	0	43	0	1613758464	8	3849
2026-01-29 02:54:31.37	351.38	53.47	-23.6	-24.8	19.2	0.00e+00	0	43	0	1630535680	7	4090
2026-01-29 02:54:34.37	350.17	54.38	-23.5	-24.4	19.3	0.00e+00	0	43	0	1648361472	7	4013
2026-01-29 02:54:37.38	348.87	55.30	-23.8	-25.0	19.0	0.00e+00	0	43	0	1665138688	7	4160
2026-01-29 02:54:40.39	347.49	56.22	-23.5	-24.5	19.3	0.00e+00	0	44	0	1681915904	7	4034
2026-01-29 02:54:43.40	346.01	57.14	-24.0	-25.1	18.7	0.00e+00	0	43	0	1698693120	8	4068
2026-01-29 02:54:46.40	344.43	58.05	-23.3	-24.0	19.5	0.00e+00	0	44	0	1715470336	7	3921
2026-01-29 02:54:49.41	342.73	58.96	-23.5	-24.6	19.3	0.00e+00	0	43	0	1732247552	7	4046
2026-01-29 02:54:52.43	340.91	59.86	-23.6	-24.8	19.2	0.00e+00	0	43	0	1749024768	7	4101
2026-01-29 02:54:55.44	338.96	60.74	-23.2	-23.8	19.6	0.00e+00	0	43	0	1765801984	7	3875
2026-01-29 02:54:58.45	336.87	61.59	-23.5	-24.4	19.4	0.00e+00	0	44	0	1783627776	7	4002
2026-01-29 02:55:01.47	334.63	62.43	-23.0	-23.4	19.9	0.00e+00	0	44	0	1800404992	7	3764
2026-01-29 02:55:04.48	332.23	63.24	-23.0	-24.0	19.8	0.00e+00	0	43	0	1817182208	6	4034
2026-01-29 02:55:07.48	329.68	64.00	-22.6	-23.1	20.2	0.00e+00	0	43	0	1833959424	6	3810
2026-01-29 02:55:10.50	326.95	64.73	-22.0	-22.4	20.8	0.00e+00	0	43	0	1851785216	5	3757
2026-01-29 02:55:13.50	324.05	65.41	-21.9	-22.6	21.0	0.00e+00	0	43	0	1868562432	4	3909
2026-01-29 02:55:16.51	320.97	66.03	-22.1	-23.1	20.7	0.00e+00	0	44	0	1885339648	4	4029
2026-01-29 02:55:19.52	317.71	66.59	-21.7	-22.3	21.1	9.10e-06	0	43	0	1902116864	4	3841
2026-01-29 02:55:22.53	314.29	67.08	-21.8	-22.3	21.1	0.00e+00	0	44	0	1918894080	4	3847
2026-01-29 02:55:25.54	310.72	67.50	-21.6	-22.1	21.3	0.00e+00	0	43	0	1935671296	4	3787
2026-01-29 02:55:28.57	306.99	67.83	-21.8	-22.5	21.0	0.00e+00	0	43	0	1952448512	4	3881
2026-01-29 02:55:31.57	303.19	68.08	-21.7	-22.3	21.1	1.10e-06	0	43	0	1969225728	4	3834
2026-01-29 02:55:34.59	299.29	68.23	-21.7	-22.3	21.0	2.13e-04	0	44	0	1987051520	4	3848
2026-01-29 02:55:37.59	295.37	68.29	-21.5	-21.8	21.4	2.29e-04	0	43	0	2003828736	4	3732
2026-01-29 02:55:40.62	291.41	68.26	-21.7	-22.3	21.2	1.26e-04	0	44	0	2020605952	4	3832
2026-01-29 02:55:43.64	287.49	68.13	-21.7	-22.3	21.2	1.03e-04	0	44	0	2037383168	4	3848
2026-01-29 02:55:46.64	283.67	67.91	-21.5	-22.3	21.4	5.54e-04	0	44	0	2054160384	3	3939
2026-01-29 02:55:49.65	279.93	67.60	-21.5	-22.3	21.4	7.47e-04	0	43	0	2071986176	3	3949
2026-01-29 02:55:52.67	276.31	67.20	-22.0	-23.3	21.0	2.44e-04	0	43	0	2088763392	3	4181
2026-01-29 02:55:55.69	272.83	66.73	-22.2	-23.4	20.6	6.69e-04	0	43	0	2105540608	4	4091
2026-01-29 02:55:58.71	269.52	66.18	-22.3	-23.5	20.6	4.93e-04	0	43	0	2122317824	4	4122
2026-01-29 02:56:01.73	266.38	65.57	-22.7	-23.7	20.2	6.59e-04	0	43	0	2139095040	5	4067
2026-01-29 02:56:04.74	263.43	64.90	-22.3	-23.4	20.5	6.27e-04	0	44	0	2155872256	4	4116
2026-01-29 02:56:07.75	260.65	64.19	-22.2	-23.2	20.7	6.06e-04	0	44	0	2173698048	4	4056
2026-01-29 02:56:10.76	258.04	63.43	-22.4	-23.1	20.5	6.38e-04	0	44	0	2190475264	5	3911
2026-01-29 02:56:13.77	255.61	62.63	-22.9	-24.1	20.0	0.00e+00	0	43	0	2207252480	5	4174
2026-01-29 02:56:16.78	253.33	61.80	-22.5	-23.3	20.4	0.00e+00	0	43	0	2224029696	5	3965
2026-01-29 02:56:19.80	251.19	60.94	-22.5	-23.5	20.3	0.00e+00	0	43	0	2240806912	5	4003
2026-01-29 02:56:22.81	249.21	60.07	-22.9	-24.1	19.9	0.00e+00	0	44	0	2257584128	5	4172
2026-01-29 02:56:25.82	247.36	59.17	-23.0	-23.9	19.8	0.00e+00	0	44	0	2274361344	6	3991
2026-01-29 02:56:28.83	245.63	58.27	-23.7	-25.0	19.0	0.00e+00	0	43	0	2292187136	7	4160
2026-01-29 02:56:31.85	244.01	57.35	-22.7	-23.2	20.1	0.00e+00	0	43	0	2308964352	6	3831
2026-01-29 02:56:34.86	242.50	56.43	-23.2	-24.2	19.6	0.00e+00	0	44	0	2325741568	6	4077
2026-01-29 02:56:37.87	241.09	55.51	-23.5	-24.5	19.2	0.00e+00	0	44	0	2342518784	7	4045
2026-01-29 02:56:40.88	239.77	54.59	-23.2	-23.9	19.5	0.00e+00	0	44	0	2359296000	7	3889
2026-01-29 02:56:43.89	238.53	53.66	-23.7	-24.9	19.0	0.00e+00	0	43	0	2376073216	7	4122
2026-01-29 02:56:46.90	237.37	52.75	-23.7	-24.8	19.0	0.00e+00	0	43	0	2393899008	7	4111
2026-01-29 02:56:49.91	236.28	51.83	-23.4	-24.2	19.3	0.00e+00	0	43	0	2410676224	7	3954
2026-01-29 02:56:52.92	235.26	50.93	-23.6	-24.7	19.0	0.00e+00	0	44	0	2427453440	7	4100
2026-01-29 02:56:55.92	234.29	50.03	-23.3	-24.0	19.4	0.00e+00	0	44	0	2444230656	7	3906
2026-01-29 02:56:58.94	233.38	49.14	-23.6	-24.7	19.0	0.00e+00	0	44	0	2461007872	7	4084
2026-01-29 02:57:01.94	232.53	48.27	-23.2	-23.8	19.5	0.00e+00	0	44	0	2477785088	7	3864
2026-01-29 02:57:04.95	231.72	47.40	-22.5	-22.8	20.2	0.00e+00	0	43	0	2494562304	6	3740
2026-01-29 02:57:07.97	230.95	46.54	-22.3	-23.1	20.3	0.00e+00	0	44	0	2512388096	5	3923
2026-01-29 02:57:10.97	230.22	45.70	-22.2	-22.8	17.8	0.00e+00	0	44	0	2529165312	5	3854
2026-01-29 02:57:13.99	229.53	44.87	-22.9	-24.2	19.7	0.00e+00	0	44	0	2545942528	5	4196
2026-01-29 02:57:16.99	228.88	44.05	-22.7	-23.8	19.9	0.00e+00	0	43	0	2562719744	5	4081
2026-01-29 02:57:19.99	228.26	43.25	-22.4	-23.2	20.2	0.00e+00	0	44	0	2579496960	5	3949
2026-01-29 02:57:23.00	227.68	42.46	-22.5	-23.3	20.1	0.00e+00	0	44	0	2596274176	5	3976
2026-01-29 02:57:26.01	227.11	41.68	-22.4	-23.2	20.2	1.91e-04	0	44	0	2613051392	5	3941
2026-01-29 02:57:29.02	226.58	40.91	-22.3	-22.9	20.3	0.00e+00	0	44	0	2629828608	5	3876
2026-01-29 02:57:32.03	226.07	40.16	-22.3	-23.0	20.3	0.00e+00	0	43	0	2647654400	5	3889
2026-01-29 02:57:35.03	225.59	39.42	-22.3	-23.1	20.2	3.54e-04	0	43	0	2664431616	5	3912
2026-01-29 02:57:38.05	225.12	38.69	-22.5	-23.3	20.1	3.36e-04	0	43	0	2681208832	5	3983
2026-01-29 02:57:41.07	224.67	37.98	-22.4	-23.2	20.1	0.00e+00	0	44	0	2697986048	5	3956
2026-01-29 02:57:44.07	224.25	37.28	-22.4	-23.2	20.1	0.00e+00	0	44	0	2714763264	5	3958
2026-01-29 02:57:47.07	223.85	36.59	-22.3	-22.9	20.3	0.00e+00	0	44	0	2731540480	5	3882
2026-01-29 02:57:50.08	223.46	35.92	-22.1	-22.6	20.4	0.00e+00	0	44	0	2748317696	5	3815
2026-01-29 02:57:53.09	223.08	35.25	-22.2	-23.3	20.3	0.00e+00	0	43	0	2765094912	4	4086
2026-01-29 02:57:56.10	222.72	34.60	-22.3	-23.5	20.2	0.00e+00	0	43	0	2782920704	4	4123
2026-01-29 02:57:59.12	222.38	33.96	-22.1	-23.2	20.3	1.46e-04	0	44	0	2799697920	4	4044
2026-01-29 02:58:02.15	222.04	33.33	-22.2	-23.4	20.3	0.00e+00	0	44	0	2816475136	4	4099
2026-01-29 02:58:05.16	221.73	32.72	-22.4	-23.7	20.0	0.00e+00	0	44	0	2833252352	4	4195
2026-01-29 02:58:08.17	221.42	32.11	-22.9	-24.2	19.6	0.00e+00	0	44	0	2850029568	5	4199
2026-01-29 02:58:11.18	221.12	31.52	-22.0	-22.9	18.5	0.00e+00	0	44	0	2867855360	5	4026
2026-01-29 02:58:14.19	220.84	30.94	-22.6	-23.7	19.7	0.00e+00	0	44	0	2884632576	5	4060
2026-01-29 02:58:17.19	220.57	30.37	-22.6	-23.7	19.8	0.00e+00	0	44	0	2901409792	5	4059
2026-01-29 02:58:20.21	220.30	29.81	-22.6	-23.5	19.9	0.00e+00	0	44	0	2918187008	5	4030
2026-01-29 02:58:23.22	220.05	29.26	-22.6	-23.7	19.8	0.00e+00	0	44	0	2934964224	5	4079
2026-01-29 02:58:26.22	219.80	28.72	-22.8	-24.0	19.6	0.00e+00	0	43	0	2951741440	5	4139
2026-01-29 02:58:29.23	219.56	28.19	-22.9	-24.2	19.5	0.00e+00	0	44	0	2968518656	5	4194
2026-01-29 02:58:32.24	219.33	27.67	-22.9	-24.2	19.4	0.00e+00	0	44	0	2985295872	5	4201
2026-01-29 02:58:35.26	219.11	27.15	-23.4	-24.8	19.0	1.02e-05	0	44	0	3003121664	6	4219
2026-01-29 02:58:38.26	218.90	26.65	-22.9	-23.7	19.5	2.72e-04	0	44	0	3019898880	6	3946
2026-01-29 02:58:41.27	218.69	26.16	-22.9	-23.8	19.4	3.04e-04	0	44	0	3036676096	6	3973
2026-01-29 02:58:44.29	218.49	25.67	-22.9	-24.3	19.4	4.35e-04	0	44	0	3053453312	5	4217
2026-01-29 02:58:47.31	218.29	25.19	-23.4	-24.8	18.9	5.52e-04	0	44	0	3070230528	6	4237
2026-01-29 02:58:50.32	218.10	24.72	-23.1	-24.1	19.2	5.05e-04	0	44	0	3088056320	6	4068
2026-01-29 02:58:53.33	217.92	24.26	-23.2	-24.5	19.0	0.00e+00	0	44	0	3104833536	6	4154
2026-01-29 02:58:56.35	217.74	23.80	-23.1	-24.1	19.2	0.00e+00	0	44	0	3121610752	6	4050
2026-01-29 02:58:59.36	217.57	23.36	-23.2	-24.3	19.1	5.83e-04	0	44	0	3138387968	6	4101
2026-01-29 02:59:02.38	217.40	22.92	-23.2	-24.4	19.0	0.00e+00	0	44	0	3155165184	6	4141
2026-01-29 02:59:05.39	217.24	22.48	-23.4	-24.8	18.9	0.00e+00	0	44	0	3171942400	6	4230
2026-01-29 02:59:08.40	217.08	22.06	-23.5	-25.0	18.8	0.00e+00	0	44	0	3189768192	6	4279
2026-01-29 02:59:11.42	216.92	21.64	-23.6	-24.7	18.6	0.00e+00	0	44	0	3206545408	7	4093
2026-01-29 02:59:14.42	216.78	21.23	-23.5	-24.6	18.6	0.00e+00	0	44	0	3223322624	7	4078
2026-01-29 02:59:17.43	216.63	20.82	-23.4	-24.4	18.8	0.00e+00	0	44	0	3240099840	7	4022
2026-01-29 02:59:20.44	216.49	20.42	-23.4	-24.3	18.8	0.00e+00	0	44	0	3256877056	7	4002
2026-01-29 02:59:23.46	216.35	20.03	-23.4	-24.8	18.8	0.00e+00	0	44	0	3273654272	6	4226
2026-01-29 02:59:26.47	216.22	19.64	-23.7	-24.9	18.4	0.00e+00	0	44	0	3291480064	7	4138
2026-01-29 02:59:29.47	216.09	19.26	-23.6	-24.7	18.5	0.00e+00	0	44	0	3308257280	7	4100
2026-01-29 02:59:32.49	215.96	18.88	-23.8	-25.2	18.3	0.00e+00	0	44	0	3325034496	7	4214
2026-01-29 02:59:35.50	215.84	18.51	-24.1	-25.2	18.0	0.00e+00	0	44	0	3341811712	8	4113
2026-01-29 02:59:38.52	215.72	18.15	-24.3	-25.9	17.7	0.00e+00	0	44	0	3358588928	8	4279
2026-01-29 02:59:41.53	215.60	17.79	-24.3	-25.8	17.7	0.00e+00	0	44	0	3375366144	8	4262
2026-01-29 02:59:44.54	215.48	17.43	-24.5	-26.1	15.9	0.00e+00	0	44	0	3392143360	8	4356
2026-01-29 02:59:47.54	215.37	17.09	-24.6	-25.8	17.4	0.00e+00	0	44	0	3408920576	9	4146
2026-01-29 02:59:50.55	215.26	16.74	-24.7	-26.0	17.3	0.00e+00	0	44	0	3426746368	9	4201
2026-01-29 02:59:53.57	215.16	16.40	-24.8	-26.3	17.1	0.00e+00	0	44	0	3443523584	9	4287
2026-01-29 02:59:56.59	215.05	16.06	-24.8	-26.4	17.0	1.79e-04	0	44	0	3460300800	9	4299
2026-01-29 02:59:59.60	214.95	15.73	-24.8	-26.2	17.1	1.70e-04	0	44	0	3477078016	9	4262
2026-01-29 03:00:02.61	214.85	15.40	-24.9	-26.5	17.0	0.00e+00	0	44	0	3493855232	9	4327
2026-01-29 03:00:05.62	214.76	15.08	-24.9	-26.5	16.9	2.10e-04	0	44	0	3511681024	9	4345
2026-01-29 03:00:08.63	214.66	14.76	-25.0	-26.3	16.8	2.45e-04	0	43	0	3528458240	10	4175
2026-01-29 03:00:11.64	214.57	14.45	-25.1	-26.5	16.7	1.86e-04	0	44	0	3545235456	10	4213
2026-01-29 03:00:14.66	214.48	14.14	-25.2	-26.6	16.6	1.40e-04	0	44	0	3562012672	10	4250
2026-01-29 03:00:17.67	214.39	13.83	-25.4	-27.1	16.3	1.02e-04	0	44	0	3578789888	10	4379
2026-01-29 03:00:20.68	214.31	13.53	-25.5	-27.3	16.2	4.69e-05	0	44	0	3595567104	10	4430
2026-01-29 03:00:23.69	214.22	13.23	-25.5	-27.2	14.6	0.00e+00	0	44	0	3612344320	11	4403
2026-01-29 03:00:26.71	214.14	12.93	-25.4	-26.7	16.2	0.00e+00	0	44	0	3630170112	11	4182
2026-01-29 03:00:29.73	214.06	12.64	-25.5	-27.3	16.1	3.54e-04	0	44	0	3646947328	10	4462
2026-01-29 03:00:32.75	213.98	12.35	-25.4	-26.6	16.2	3.09e-04	0	44	0	3663724544	11	4148
2026-01-29 03:00:35.76	213.90	12.06	-25.5	-26.9	16.0	0.00e+00	0	44	0	3680501760	11	4234
2026-01-29 03:00:38.77	213.83	11.78	-25.5	-26.8	16.1	2.01e-04	0	44	0	3697278976	11	4198
2026-01-29 03:00:41.78	213.75	11.50	-25.5	-27.0	16.0	2.05e-04	0	44	0	3714056192	11	4251
2026-01-29 03:00:44.78	213.68	11.23	-25.6	-27.2	15.8	2.72e-04	0	44	0	3731881984	11	4311
2026-01-29 03:00:47.79	213.61	10.96	-25.7	-27.3	15.7	2.63e-04	0	44	0	3748659200	11	4342
2026-01-29 03:00:50.80	213.54	10.69	-25.8	-27.6	15.5	2.05e-04	0	44	0	3765436416	11	4427
2026-01-29 03:00:53.80	213.47	10.42	-25.7	-27.4	15.6	2.08e-04	0	44	0	3782213632	11	4372
2026-01-29 03:00:56.81	213.41	10.16	-25.8	-27.5	15.5	1.10e-06	0	44	0	3798990848	11	4396
2026-01-29 03:00:59.82	213.34	9.89	-25.9	-27.7	15.4	2.16e-04	0	44	0	3815768064	11	4432
2026-01-29 03:01:02.83	213.28	9.64	-25.8	-27.0	15.5	2.20e-04	0	44	0	3832545280	12	4139
2026-01-29 03:01:05.84	213.22	9.38	-25.8	-27.1	15.4	2.63e-04	0	44	0	3849322496	12	4177
2026-01-29 03:01:08.85	213.15	9.13	-25.9	-27.3	15.2	3.40e-06	0	44	0	3867148288	12	4242
2026-01-29 03:01:11.87	213.09	8.87	-26.0	-27.5	15.1	3.40e-06	0	44	0	3883925504	12	4272
2026-01-29 03:01:14.89	213.03	8.63	-26.0	-27.4	15.1	0.00e+00	0	44	0	3900702720	12	4259
2026-01-29 03:01:17.89	212.98	8.38	-25.9	-27.4	15.1	4.50e-06	0	44	0	3917479936	12	4243
2026-01-29 03:01:20.90	212.92	8.14	-26.0	-27.6	15.0	4.50e-06	0	44	0	3934257152	12	4308
2026-01-29 03:01:23.92	212.86	7.89	-26.2	-27.9	14.8	0.00e+00	0	44	0	3952082944	12	4406
2026-01-29 03:01:26.93	212.81	7.66	-26.1	-27.9	14.8	0.00e+00	0	44	0	3968860160	12	4386
2026-01-29 03:01:29.94	212.76	7.42	-26.6	-28.3	14.2	0.00e+00	0	44	0	3985637376	13	4413
2026-01-29 03:01:32.95	212.70	7.18	-26.5	-28.3	14.2	0.00e+00	0	44	0	4002414592	13	4400
2026-01-29 03:01:35.96	212.65	6.95	-33.2	-44.5	3.8	8.47e-01	0	44	104	4010803200	26	13148

#Closed at: 2026-01-29 03:01:38
#Recorded file [4010 MB]: D:/data/31010_260129_054941.dat