passes_logs/2026/01/29/R2M6_AANII_01/R2M6_AANII_01__20260129_061227_FENGYUN_3E_rec.log

#Pass ID: 20260129_061227_FENGYUN 3E
#Satellite: FENGYUN 3E
#Configuration: FENGYUN 3E
#almurnet v.1.7.20240730
#Start time: 2026-01-29 06:12:26

#Version: 2.2.20231116
#Station: R2M6_AANII_01
#Location: 30.233357 lon 59.946436 lat
#TLE: 1 49008U 21062A   26027.97178348  .00000209  00000+0  11900-3 0  9990
#TLE: 2 49008  98.7501  32.9491 0002537 114.6782 245.4659 14.19888434236687

#Time	Az	El	Level	Level2	SNR	BER	BlckErr	Temp	State	Recorded	gain1	gain2
2026-01-29 06:12:26.79	11.47	6.95	-31.6	-36.6	4.3	8.32e-01	0	40	0	0	23	6404
2026-01-29 06:12:29.80	11.24	7.15	-30.8	-34.5	6.7	2.08e-01	0	40	0	7340032	21	5514
2026-01-29 06:12:32.81	11.01	7.36	-31.0	-35.0	6.5	2.13e-01	0	40	0	28311552	21	5719
2026-01-29 06:12:35.82	10.77	7.57	-30.0	-32.5	8.4	6.64e-02	0	40	0	50331648	20	4811
2026-01-29 06:12:38.81	10.53	7.77	-28.4	-30.2	11.4	3.72e-03	0	41	0	72351744	16	4452
2026-01-29 06:12:41.82	10.29	7.98	-26.9	-28.3	13.3	1.79e-03	0	41	0	93323264	13	4212
2026-01-29 06:12:44.82	10.04	8.19	-26.6	-28.0	13.7	1.51e-03	0	41	0	115343360	12	4241
2026-01-29 06:12:47.84	9.79	8.41	-26.7	-27.8	13.6	1.67e-03	0	41	0	137363456	13	4098
2026-01-29 06:12:50.86	9.54	8.62	-26.5	-27.9	13.8	2.27e-04	0	41	0	159383552	12	4218
2026-01-29 06:12:53.87	9.28	8.83	-26.3	-27.4	14.2	1.46e-03	0	41	0	180355072	12	4069
2026-01-29 06:12:56.88	9.02	9.05	-26.2	-27.1	14.3	1.80e-03	0	41	0	202375168	12	4007
2026-01-29 06:12:59.89	8.75	9.27	-26.3	-27.3	14.3	1.62e-03	0	41	0	224395264	12	4041
2026-01-29 06:13:02.89	8.48	9.48	-26.0	-26.6	14.6	2.74e-05	0	41	0	245366784	12	3876
2026-01-29 06:13:05.90	8.21	9.70	-26.1	-26.9	14.5	8.69e-05	0	41	0	267386880	12	3945
2026-01-29 06:13:08.91	7.93	9.92	-26.0	-26.7	14.6	1.45e-04	0	41	0	289406976	12	3894
2026-01-29 06:13:11.92	7.64	10.15	-26.2	-27.2	14.3	4.57e-05	0	42	0	311427072	12	4034
2026-01-29 06:13:14.93	7.35	10.37	-26.4	-27.5	14.2	3.40e-06	0	41	0	332398592	12	4099
2026-01-29 06:13:17.94	7.06	10.59	-26.6	-27.9	13.9	3.40e-06	0	41	0	354418688	12	4218
2026-01-29 06:13:20.96	6.76	10.82	-26.1	-26.9	14.5	0.00e+00	0	42	0	376438784	12	3953
2026-01-29 06:13:23.97	6.46	11.05	-26.2	-27.2	14.4	0.00e+00	0	42	0	397410304	12	4013
2026-01-29 06:13:26.99	6.15	11.28	-26.1	-26.9	14.6	0.00e+00	0	42	0	419430400	12	3943
2026-01-29 06:13:30.00	5.84	11.51	-26.1	-26.9	14.6	0.00e+00	0	42	0	441450496	12	3941
2026-01-29 06:13:33.00	5.52	11.74	-26.0	-26.7	14.7	1.10e-06	0	42	0	463470592	12	3893
2026-01-29 06:13:36.01	5.20	11.97	-25.8	-26.6	15.1	0.00e+00	0	42	0	484442112	11	3981
2026-01-29 06:13:39.02	4.87	12.20	-25.7	-26.5	15.2	1.10e-06	0	42	0	506462208	11	3943
2026-01-29 06:13:42.04	4.54	12.44	-25.7	-26.4	15.2	0.00e+00	0	42	0	528482304	11	3920
2026-01-29 06:13:45.04	4.20	12.67	-25.6	-26.2	15.4	0.00e+00	0	42	0	550502400	11	3878
2026-01-29 06:13:48.05	3.86	12.91	-25.7	-26.5	15.3	0.00e+00	0	42	0	571473920	11	3929
2026-01-29 06:13:51.06	3.51	13.15	-25.4	-26.4	15.6	0.00e+00	0	42	0	593494016	10	4035
2026-01-29 06:13:54.06	3.15	13.39	-25.4	-26.2	15.7	0.00e+00	0	42	0	615514112	10	3975
2026-01-29 06:13:57.08	2.79	13.63	-25.3	-26.0	15.8	0.00e+00	0	42	0	636485632	10	3923
2026-01-29 06:14:00.09	2.42	13.88	-25.4	-26.3	15.7	0.00e+00	0	42	0	658505728	10	3990
2026-01-29 06:14:03.11	2.04	14.12	-25.2	-25.9	15.9	0.00e+00	0	42	0	680525824	10	3903
2026-01-29 06:14:06.12	1.66	14.37	-25.2	-25.9	15.9	0.00e+00	0	42	0	702545920	10	3895
2026-01-29 06:14:09.13	1.27	14.61	-25.2	-25.9	16.0	0.00e+00	0	42	0	723517440	10	3907
2026-01-29 06:14:12.14	0.88	14.86	-25.1	-25.6	16.1	0.00e+00	0	42	0	745537536	10	3820
2026-01-29 06:14:15.15	0.48	15.11	-25.1	-25.6	16.1	0.00e+00	0	42	0	767557632	10	3814
2026-01-29 06:14:18.16	0.07	15.36	-25.2	-25.9	16.0	0.00e+00	0	42	0	789577728	10	3895
2026-01-29 06:14:21.17	359.65	15.61	-25.2	-25.9	16.0	0.00e+00	0	42	0	810549248	10	3887
2026-01-29 06:14:24.18	359.23	15.86	-25.1	-25.6	16.2	0.00e+00	0	42	0	832569344	10	3823
2026-01-29 06:14:27.20	358.80	16.11	-24.7	-25.2	16.6	0.00e+00	0	42	0	854589440	9	3840
2026-01-29 06:14:30.21	358.36	16.37	-24.6	-25.1	16.7	0.00e+00	0	42	0	876609536	9	3799
2026-01-29 06:14:33.23	357.91	16.62	-24.2	-24.8	17.1	0.00e+00	0	42	0	897581056	8	3831
2026-01-29 06:14:36.24	357.46	16.88	-24.4	-25.1	17.0	0.00e+00	0	43	0	919601152	8	3916
2026-01-29 06:14:39.26	357.00	17.13	-24.6	-25.1	16.7	0.00e+00	0	42	0	941621248	9	3806
2026-01-29 06:14:42.27	356.53	17.39	-24.8	-25.5	16.5	0.00e+00	0	43	0	963641344	9	3906
2026-01-29 06:14:45.27	356.05	17.65	-24.5	-24.9	16.8	0.00e+00	0	43	0	984612864	9	3766
2026-01-29 06:14:48.29	355.57	17.91	-24.4	-25.1	17.0	0.00e+00	0	42	0	1006632960	8	3911
2026-01-29 06:14:51.29	355.07	18.16	-24.2	-24.8	17.1	0.00e+00	0	43	0	1028653056	8	3841
2026-01-29 06:14:54.31	354.57	18.42	-24.3	-24.9	17.1	0.00e+00	0	43	0	1049624576	8	3867
2026-01-29 06:14:57.31	354.06	18.68	-24.4	-25.2	16.9	0.00e+00	0	42	0	1071644672	8	3948
2026-01-29 06:15:00.32	353.54	18.94	-24.2	-24.7	17.2	0.00e+00	0	43	0	1093664768	8	3817
2026-01-29 06:15:03.34	353.01	19.20	-24.4	-25.2	17.0	1.10e-06	0	43	0	1115684864	8	3945
2026-01-29 06:15:06.35	352.47	19.46	-24.5	-25.3	16.9	0.00e+00	0	42	0	1136656384	8	3963
2026-01-29 06:15:09.37	351.92	19.73	-24.5	-25.3	16.9	0.00e+00	0	42	0	1158676480	8	3967
2026-01-29 06:15:12.37	351.36	19.99	-24.6	-25.0	16.8	0.00e+00	0	42	0	1180696576	9	3794
2026-01-29 06:15:15.38	350.79	20.25	-25.1	-25.6	16.3	0.00e+00	0	43	0	1201668096	10	3826
2026-01-29 06:15:18.40	350.21	20.51	-25.0	-25.8	16.4	0.00e+00	0	43	0	1223688192	9	3979
2026-01-29 06:15:21.41	349.63	20.76	-25.0	-25.5	16.3	0.00e+00	0	42	0	1245708288	10	3798
2026-01-29 06:15:24.41	349.03	21.02	-24.8	-24.9	16.6	0.00e+00	0	43	0	1267728384	10	3664
2026-01-29 06:15:27.41	348.42	21.28	-24.1	-24.0	17.4	0.00e+00	0	43	0	1288699904	9	3556
2026-01-29 06:15:30.43	347.80	21.54	-23.9	-24.2	17.6	0.00e+00	0	43	0	1310720000	8	3693
2026-01-29 06:15:33.43	347.18	21.79	-24.0	-24.3	17.5	0.00e+00	0	43	0	1332740096	8	3715
2026-01-29 06:15:36.45	346.54	22.05	-24.2	-24.7	17.3	0.00e+00	0	43	0	1354760192	8	3813
2026-01-29 06:15:39.47	345.88	22.30	-24.3	-25.0	17.2	0.00e+00	0	43	0	1375731712	8	3889
2026-01-29 06:15:42.48	345.22	22.55	-23.5	-23.7	16.9	0.00e+00	0	43	0	1397751808	8	3707
2026-01-29 06:15:45.49	344.55	22.80	-23.8	-23.9	17.7	0.00e+00	0	43	0	1419771904	8	3635
2026-01-29 06:15:48.50	343.87	23.05	-23.6	-23.9	18.0	0.00e+00	0	43	0	1441792000	7	3725
2026-01-29 06:15:51.51	343.17	23.30	-23.6	-23.9	18.0	1.24e-03	0	43	0	1462763520	7	3749
2026-01-29 06:15:54.53	342.46	23.54	-23.5	-23.6	18.1	1.18e-03	0	43	0	1484783616	7	3679
2026-01-29 06:15:57.54	341.75	23.78	-23.5	-23.8	18.0	7.74e-04	0	43	0	1506803712	7	3725
2026-01-29 06:16:00.55	341.02	24.02	-23.4	-23.5	18.2	1.33e-03	0	43	0	1528823808	7	3660
2026-01-29 06:16:03.57	340.28	24.26	-23.2	-23.7	18.3	1.25e-03	0	43	0	1549795328	6	3785
2026-01-29 06:16:06.57	339.53	24.49	-23.3	-23.7	18.3	1.49e-03	0	43	0	1571815424	6	3806
2026-01-29 06:16:09.59	338.77	24.72	-23.4	-24.1	18.2	1.74e-03	0	43	0	1593835520	6	3878
2026-01-29 06:16:12.60	337.99	24.95	-23.2	-23.7	18.4	0.00e+00	0	43	0	1615855616	6	3785
2026-01-29 06:16:15.60	337.21	25.17	-23.4	-24.0	18.2	0.00e+00	0	43	0	1636827136	6	3865
2026-01-29 06:16:18.60	336.42	25.39	-23.7	-24.1	17.9	8.65e-04	0	43	0	1658847232	7	3791
2026-01-29 06:16:21.61	335.61	25.60	-23.5	-23.7	18.1	1.67e-03	0	43	0	1679818752	7	3693
2026-01-29 06:16:24.62	334.79	25.81	-23.3	-23.7	18.3	0.00e+00	0	43	0	1701838848	6	3804
2026-01-29 06:16:27.63	333.97	26.01	-23.3	-23.9	18.3	0.00e+00	0	43	0	1723858944	6	3848
2026-01-29 06:16:30.63	333.13	26.21	-23.3	-23.8	18.3	0.00e+00	0	43	0	1744830464	6	3821
2026-01-29 06:16:33.64	332.28	26.40	-23.4	-24.0	18.2	0.00e+00	0	43	0	1766850560	6	3863
2026-01-29 06:16:36.65	331.42	26.59	-23.4	-24.1	18.2	0.00e+00	0	43	0	1788870656	6	3882
2026-01-29 06:16:39.66	330.55	26.77	-23.3	-23.8	18.3	0.00e+00	0	43	0	1810890752	6	3825
2026-01-29 06:16:42.66	329.68	26.94	-23.3	-23.9	18.3	0.00e+00	0	43	0	1831862272	6	3832
2026-01-29 06:16:45.68	328.78	27.11	-23.3	-23.8	18.3	0.00e+00	0	43	0	1853882368	6	3810
2026-01-29 06:16:48.69	327.88	27.28	-23.3	-23.7	18.4	0.00e+00	0	43	0	1875902464	6	3802
2026-01-29 06:16:51.68	326.98	27.43	-23.4	-24.0	18.3	0.00e+00	0	43	0	1897922560	6	3859
2026-01-29 06:16:54.70	326.06	27.58	-23.2	-23.5	18.5	0.00e+00	0	43	0	1918894080	6	3753
2026-01-29 06:16:57.71	325.14	27.72	-23.2	-23.6	18.4	0.00e+00	0	43	0	1940914176	6	3781
2026-01-29 06:17:00.74	324.20	27.85	-23.2	-23.7	18.4	0.00e+00	0	43	0	1962934272	6	3785
2026-01-29 06:17:03.73	323.26	27.98	-23.1	-23.3	18.6	0.00e+00	0	43	0	1984954368	6	3708
2026-01-29 06:17:06.76	322.31	28.10	-23.2	-23.6	18.4	0.00e+00	0	43	0	2005925888	6	3780
2026-01-29 06:17:09.78	321.35	28.20	-23.3	-23.9	18.3	0.00e+00	0	43	0	2027945984	6	3841
2026-01-29 06:17:12.78	320.39	28.30	-23.8	-24.3	17.9	0.00e+00	0	43	0	2049966080	7	3837
2026-01-29 06:17:15.80	319.42	28.40	-23.2	-23.7	18.4	0.00e+00	0	43	0	2071986176	6	3784
2026-01-29 06:17:18.81	318.45	28.48	-23.3	-23.8	18.4	0.00e+00	0	43	0	2092957696	6	3828
2026-01-29 06:17:21.82	317.47	28.55	-23.1	-23.4	18.6	0.00e+00	0	43	0	2114977792	6	3730
2026-01-29 06:17:24.83	316.49	28.61	-23.1	-23.3	18.6	0.00e+00	0	43	0	2136997888	6	3706
2026-01-29 06:17:27.85	315.50	28.67	-23.1	-23.8	18.6	0.00e+00	0	43	0	2159017984	5	3920
2026-01-29 06:17:30.85	314.52	28.72	-23.4	-24.0	18.3	0.00e+00	0	43	0	2179989504	6	3853
2026-01-29 06:17:33.87	313.52	28.75	-23.4	-24.1	18.2	1.26e-04	0	43	0	2202009600	6	3877
2026-01-29 06:17:36.88	312.53	28.78	-23.2	-23.5	18.5	1.64e-04	0	43	0	2224029696	6	3749
2026-01-29 06:17:39.90	311.53	28.79	-23.4	-24.0	18.3	1.06e-03	0	43	0	2246049792	6	3867
2026-01-29 06:17:42.91	310.54	28.80	-23.3	-23.9	18.3	1.41e-03	0	43	0	2267021312	6	3837
2026-01-29 06:17:45.93	309.54	28.80	-23.1	-23.4	18.6	1.43e-03	0	43	0	2289041408	6	3733
2026-01-29 06:17:48.94	308.54	28.79	-23.5	-24.2	18.2	1.31e-03	0	43	0	2311061504	6	3920
2026-01-29 06:17:51.96	307.54	28.77	-23.4	-24.0	18.3	1.66e-03	0	43	0	2332033024	6	3860
2026-01-29 06:17:54.97	306.55	28.73	-23.4	-24.0	18.3	0.00e+00	0	43	0	2354053120	6	3862
2026-01-29 06:17:57.99	305.56	28.69	-23.1	-23.3	18.6	0.00e+00	0	43	0	2376073216	6	3705
2026-01-29 06:18:00.99	304.57	28.64	-23.1	-23.9	18.6	0.00e+00	0	43	0	2398093312	5	3949
2026-01-29 06:18:03.99	303.59	28.58	-23.2	-23.5	18.5	8.55e-04	0	43	0	2419064832	6	3758
2026-01-29 06:18:07.00	302.61	28.51	-23.1	-23.5	18.5	0.00e+00	0	43	0	2441084928	6	3745
2026-01-29 06:18:10.01	301.64	28.44	-23.1	-23.4	18.6	0.00e+00	0	43	0	2463105024	6	3719
2026-01-29 06:18:13.03	300.66	28.35	-23.1	-23.5	18.5	0.00e+00	0	43	0	2484076544	6	3751
2026-01-29 06:18:16.04	299.70	28.25	-23.1	-23.5	18.6	0.00e+00	0	43	0	2506096640	6	3740
2026-01-29 06:18:19.06	298.73	28.15	-23.1	-23.3	18.6	0.00e+00	0	43	0	2528116736	6	3715
2026-01-29 06:18:22.08	297.78	28.04	-22.9	-23.0	18.7	0.00e+00	0	43	0	2550136832	6	3645
2026-01-29 06:18:25.09	296.83	27.91	-22.9	-22.9	18.8	0.00e+00	0	43	0	2572156928	6	3615
2026-01-29 06:18:28.11	295.89	27.78	-23.0	-23.2	18.6	0.00e+00	0	43	0	2593128448	6	3694
2026-01-29 06:18:31.12	294.96	27.65	-23.3	-23.8	18.4	0.00e+00	0	43	0	2615148544	6	3813
2026-01-29 06:18:34.13	294.04	27.50	-23.3	-23.7	18.3	0.00e+00	0	43	0	2637168640	6	3806
2026-01-29 06:18:37.15	293.12	27.35	-23.3	-23.9	18.3	0.00e+00	0	43	0	2659188736	6	3843
2026-01-29 06:18:40.17	292.21	27.19	-23.1	-23.4	18.5	0.00e+00	0	43	0	2680160256	6	3720
2026-01-29 06:18:43.18	291.31	27.02	-23.1	-23.3	18.6	0.00e+00	0	43	0	2702180352	6	3708
2026-01-29 06:18:46.20	290.42	26.85	-22.9	-23.0	18.7	0.00e+00	0	43	0	2724200448	6	3648
2026-01-29 06:18:49.20	289.55	26.67	-23.0	-23.2	18.6	0.00e+00	0	43	0	2746220544	6	3681
2026-01-29 06:18:52.22	288.68	26.49	-23.2	-23.7	18.4	0.00e+00	0	43	0	2767192064	6	3788
2026-01-29 06:18:55.24	287.82	26.30	-23.2	-23.6	18.4	0.00e+00	0	43	0	2789212160	6	3772
2026-01-29 06:18:58.26	286.97	26.10	-23.2	-23.6	18.4	0.00e+00	0	43	0	2811232256	6	3767
2026-01-29 06:19:01.27	286.14	25.90	-23.0	-23.2	18.5	0.00e+00	0	43	0	2833252352	6	3678
2026-01-29 06:19:04.28	285.31	25.69	-22.8	-22.8	18.7	0.00e+00	0	43	0	2854223872	6	3599
2026-01-29 06:19:07.28	284.50	25.48	-22.8	-23.3	18.7	0.00e+00	0	43	0	2876243968	5	3812
2026-01-29 06:19:10.29	283.70	25.26	-22.9	-23.5	18.6	0.00e+00	0	43	0	2898264064	5	3853
2026-01-29 06:19:13.30	282.91	25.04	-22.9	-23.5	18.6	0.00e+00	0	43	0	2919235584	5	3858
2026-01-29 06:19:16.32	282.12	24.82	-23.0	-23.3	18.5	0.00e+00	0	43	0	2941255680	6	3707
2026-01-29 06:19:19.33	281.35	24.59	-23.2	-23.6	18.3	0.00e+00	0	43	0	2963275776	6	3783
2026-01-29 06:19:22.35	280.59	24.36	-23.0	-23.2	18.6	0.00e+00	0	43	0	2985295872	6	3677
2026-01-29 06:19:25.37	279.84	24.12	-23.1	-23.4	18.4	0.00e+00	0	43	0	3006267392	6	3730
2026-01-29 06:19:28.37	279.11	23.88	-23.2	-23.5	18.4	0.00e+00	0	43	0	3028287488	6	3754
2026-01-29 06:19:31.39	278.38	23.64	-23.0	-23.3	18.4	0.00e+00	0	43	0	3050307584	6	3709
2026-01-29 06:19:34.40	277.67	23.40	-23.1	-23.4	18.4	0.00e+00	0	43	0	3072327680	6	3725
2026-01-29 06:19:37.40	276.97	23.15	-23.0	-23.8	18.4	0.00e+00	0	43	0	3093299200	5	3918
2026-01-29 06:19:40.40	276.28	22.90	-23.5	-23.8	17.9	0.00e+00	0	43	0	3115319296	7	3728
2026-01-29 06:19:43.41	275.60	22.65	-23.4	-24.0	18.0	0.00e+00	0	43	0	3137339392	6	3872
2026-01-29 06:19:46.43	274.93	22.40	-23.4	-24.1	18.0	0.00e+00	0	43	0	3158310912	6	3882
2026-01-29 06:19:49.44	274.27	22.15	-23.4	-24.0	18.0	0.00e+00	0	43	0	3180331008	6	3879
2026-01-29 06:19:52.45	273.62	21.89	-23.2	-23.1	18.2	0.00e+00	0	43	0	3202351104	7	3574
2026-01-29 06:19:55.46	272.99	21.64	-23.3	-23.8	18.1	0.00e+00	0	43	0	3224371200	6	3822
2026-01-29 06:19:58.47	272.36	21.38	-23.5	-24.2	17.9	0.00e+00	0	43	0	3245342720	6	3913
2026-01-29 06:20:01.49	271.74	21.12	-23.8	-24.3	17.6	0.00e+00	0	43	0	3267362816	7	3832
2026-01-29 06:20:04.50	271.14	20.86	-23.7	-24.2	17.6	0.00e+00	0	43	0	3289382912	7	3813
2026-01-29 06:20:07.51	270.54	20.60	-23.7	-24.3	17.5	0.00e+00	0	43	0	3311403008	7	3830
2026-01-29 06:20:10.53	269.96	20.34	-23.5	-23.7	17.8	0.00e+00	0	43	0	3332374528	7	3696
2026-01-29 06:20:13.51	269.39	20.08	-23.5	-24.3	17.8	0.00e+00	0	43	0	3354394624	6	3952
2026-01-29 06:20:16.52	268.82	19.82	-23.8	-24.5	17.5	0.00e+00	0	43	0	3376414720	7	3874
2026-01-29 06:20:19.53	268.26	19.56	-23.9	-24.7	17.3	0.00e+00	0	43	0	3397386240	7	3919
2026-01-29 06:20:22.54	267.72	19.30	-24.3	-25.1	16.8	0.00e+00	0	43	0	3419406336	8	3918
2026-01-29 06:20:25.55	267.18	19.04	-24.0	-24.7	15.9	0.00e+00	0	43	0	3441426432	7	3936
2026-01-29 06:20:28.56	266.65	18.77	-24.1	-25.0	17.1	0.00e+00	0	43	0	3463446528	7	3993
2026-01-29 06:20:31.57	266.13	18.51	-24.1	-24.6	17.1	1.10e-03	0	43	0	3484418048	8	3796
2026-01-29 06:20:34.58	265.62	18.25	-24.1	-25.0	17.1	5.48e-04	0	43	0	3506438144	7	4002
2026-01-29 06:20:37.60	265.12	17.99	-24.2	-24.8	16.9	0.00e+00	0	43	0	3528458240	8	3849
2026-01-29 06:20:40.62	264.63	17.73	-24.3	-25.0	16.8	0.00e+00	0	43	0	3549429760	8	3894
2026-01-29 06:20:43.63	264.14	17.47	-24.3	-25.1	16.7	3.16e-04	0	43	0	3571449856	8	3915
2026-01-29 06:20:46.65	263.67	17.21	-24.4	-25.3	16.7	5.62e-04	0	43	0	3593469952	8	3971
2026-01-29 06:20:49.66	263.20	16.96	-24.6	-25.6	16.5	6.00e-04	0	43	0	3615490048	8	4029
2026-01-29 06:20:52.67	262.74	16.70	-24.8	-25.6	16.2	1.70e-03	0	43	0	3636461568	9	3932
2026-01-29 06:20:55.67	262.29	16.44	-24.8	-25.5	16.3	1.45e-03	0	43	0	3658481664	9	3909
2026-01-29 06:20:58.68	261.85	16.19	-24.9	-25.8	16.1	7.87e-04	0	43	0	3680501760	9	3983
2026-01-29 06:21:01.70	261.41	15.93	-25.0	-25.9	16.1	1.42e-03	0	43	0	3702521856	9	4019
2026-01-29 06:21:04.71	260.98	15.68	-24.8	-25.6	16.2	8.20e-04	0	43	0	3723493376	9	3933
2026-01-29 06:21:07.72	260.56	15.43	-24.8	-25.5	16.2	8.07e-04	0	43	0	3745513472	9	3899
2026-01-29 06:21:10.74	260.14	15.18	-25.0	-25.9	16.0	1.66e-03	0	43	0	3767533568	9	4019
2026-01-29 06:21:13.75	259.74	14.93	-25.2	-25.9	15.7	2.17e-03	0	43	0	3789553664	10	3908
2026-01-29 06:21:16.76	259.34	14.68	-25.2	-25.9	15.7	4.50e-06	0	43	0	3810525184	10	3909
2026-01-29 06:21:19.78	258.94	14.43	-25.0	-26.0	15.9	4.50e-06	0	43	0	3832545280	9	4023
2026-01-29 06:21:22.79	258.55	14.18	-25.3	-26.1	15.6	3.40e-06	0	43	0	3854565376	10	3945
2026-01-29 06:21:25.80	258.17	13.94	-25.1	-25.8	15.7	1.10e-06	0	43	0	3876585472	10	3886
2026-01-29 06:21:28.81	257.80	13.69	-25.4	-26.5	15.3	1.14e-05	0	43	0	3897556992	10	4046
2026-01-29 06:21:31.83	257.43	13.45	-25.6	-26.8	15.2	3.40e-06	0	43	0	3919577088	10	4123
2026-01-29 06:21:34.84	257.07	13.21	-25.7	-26.5	15.0	3.40e-06	0	43	0	3941597184	11	3960
2026-01-29 06:21:37.85	256.71	12.97	-25.7	-26.5	15.0	0.00e+00	0	43	0	3963617280	11	3961
2026-01-29 06:21:40.85	256.36	12.73	-25.7	-26.6	15.0	0.00e+00	0	43	0	3984588800	11	3969
2026-01-29 06:21:43.87	256.02	12.49	-25.6	-26.3	15.1	0.00e+00	0	43	0	4006608896	11	3912
2026-01-29 06:21:46.88	255.68	12.25	-25.4	-26.4	15.3	0.00e+00	0	43	0	4028628992	10	4034
2026-01-29 06:21:49.89	255.35	12.02	-25.4	-26.3	15.3	1.10e-06	0	43	0	4050649088	10	4004
2026-01-29 06:21:52.90	255.02	11.79	-25.5	-26.6	15.2	0.00e+00	0	43	0	4071620608	10	4074
2026-01-29 06:21:55.92	254.70	11.55	-25.4	-26.4	15.2	0.00e+00	0	43	0	4093640704	10	4043
2026-01-29 06:21:58.93	254.38	11.32	-24.9	-26.0	13.2	0.00e+00	0	43	0	4115660800	10	4072
2026-01-29 06:22:01.94	254.07	11.09	-25.4	-26.4	15.2	2.20e-06	0	43	0	4137680896	10	4048
2026-01-29 06:22:04.96	253.76	10.86	-25.6	-26.7	15.0	0.00e+00	0	43	0	4158652416	10	4125
2026-01-29 06:22:07.97	253.45	10.63	-26.1	-27.0	14.2	1.10e-06	0	43	0	4180672512	12	3989
2026-01-29 06:22:10.97	253.16	10.41	-26.1	-27.0	14.2	2.20e-06	0	43	0	4201644032	12	3979
2026-01-29 06:22:13.97	252.87	10.19	-26.4	-27.7	13.8	3.22e-04	0	43	0	4223664128	12	4166
2026-01-29 06:22:16.99	252.58	9.96	-26.4	-27.7	13.7	9.10e-06	0	43	0	4245684224	12	4182
2026-01-29 06:22:19.99	252.29	9.74	-26.7	-28.0	11.4	2.05e-05	0	43	0	4267704320	13	4141
2026-01-29 06:22:23.01	252.01	9.52	-26.4	-27.7	13.6	3.22e-03	0	43	0	4288675840	12	4191
2026-01-29 06:22:26.03	251.74	9.30	-26.3	-27.4	13.9	3.40e-06	0	43	0	4310695936	12	4093
2026-01-29 06:22:29.03	251.47	9.08	-26.3	-27.4	13.8	1.10e-06	0	43	0	4332716032	12	4100
2026-01-29 06:22:32.04	251.20	8.86	-26.3	-27.4	13.8	4.50e-06	0	43	0	4354736128	12	4108
2026-01-29 06:22:35.06	250.94	8.65	-26.3	-27.4	13.8	1.11e-03	0	43	0	4375707648	12	4115
2026-01-29 06:22:38.06	250.68	8.43	-26.3	-27.6	13.6	2.24e-03	0	43	0	4397727744	12	4163
2026-01-29 06:22:41.07	250.42	8.22	-26.4	-27.7	13.6	2.67e-03	0	43	0	4419747840	12	4194
2026-01-29 06:22:44.09	250.17	8.01	-26.4	-27.7	13.5	1.14e-05	0	43	0	4441767936	12	4206
2026-01-29 06:22:47.11	249.92	7.80	-26.4	-27.8	13.4	2.57e-03	0	43	0	4462739456	12	4213
2026-01-29 06:22:50.13	249.68	7.59	-26.4	-27.8	13.4	1.83e-03	0	43	0	4484759552	12	4230
2026-01-29 06:22:53.14	249.44	7.38	-26.4	-27.8	13.4	1.18e-03	0	43	0	4506779648	12	4212
2026-01-29 06:22:56.15	249.20	7.17	-26.6	-28.1	13.1	2.40e-05	0	43	0	4528799744	12	4315
2026-01-29 06:22:59.16	248.97	6.97	-33.3	-43.1	3.8	8.46e-01	0	43	104	4537188352	26	11073

#Closed at: 2026-01-29 06:23:01
#Recorded file [4537 MB]: D:/data/31010_260129_091228.dat