passes_logs/2026/01/29/R2M6_AANII_01/R2M6_AANII_01__20260129_010930_FENGYUN_3D_rec.log

#Pass ID: 20260129_010930_FENGYUN 3D
#Satellite: FENGYUN 3D
#Configuration: FENGYUN 3D
#almurnet v.1.7.20240730
#Start time: 2026-01-29 01:09:31

#Version: 2.2.20231116
#Station: R2M6_AANII_01
#Location: 30.233357 lon 59.946436 lat
#TLE: 1 43010U 17072A   26027.90082829  .00000305  00000+0  16579-3 0  9998
#TLE: 2 43010  98.9960 359.9183 0002511  88.1058 272.0405 14.19701796425082

#Time	Az	El	Level	Level2	SNR	BER	BlckErr	Temp	State	Recorded	gain1	gain2
2026-01-29 01:09:31.88	27.49	7.09	-29.7	-33.3	5.3	7.84e-01	0	41	0	0	19	5416
2026-01-29 01:09:34.88	27.73	7.29	-30.4	-34.2	8.1	9.46e-02	0	41	0	5242880	21	5569
2026-01-29 01:09:37.90	27.96	7.50	-29.2	-32.3	10.5	8.01e-03	0	41	0	22020096	18	5098
2026-01-29 01:09:40.90	28.20	7.70	-27.9	-29.9	12.7	4.28e-04	0	41	0	38797312	16	4531
2026-01-29 01:09:43.92	28.45	7.91	-27.0	-28.7	13.9	1.25e-05	0	41	0	55574528	14	4405
2026-01-29 01:09:46.92	28.69	8.12	-26.5	-28.1	14.5	1.10e-06	0	41	0	73400320	13	4344
2026-01-29 01:09:49.93	28.94	8.33	-26.4	-28.5	14.6	8.06e-04	0	41	0	90177536	12	4554
2026-01-29 01:09:52.93	29.19	8.55	-26.6	-28.4	14.4	8.47e-04	0	42	0	106954752	13	4425
2026-01-29 01:09:55.94	29.45	8.76	-26.5	-28.2	14.5	2.20e-06	0	42	0	123731968	13	4354
2026-01-29 01:09:58.96	29.71	8.98	-26.3	-28.0	15.0	7.85e-04	0	42	0	140509184	12	4417
2026-01-29 01:10:01.97	29.98	9.19	-26.2	-28.0	15.0	8.35e-04	0	42	0	157286400	12	4419
2026-01-29 01:10:04.98	30.24	9.41	-26.2	-28.0	15.0	8.16e-04	0	42	0	174063616	12	4414
2026-01-29 01:10:07.99	30.51	9.63	-26.3	-28.1	14.9	3.31e-05	0	42	0	191889408	12	4435
2026-01-29 01:10:11.00	30.79	9.85	-26.0	-27.4	15.4	4.51e-04	0	42	0	208666624	12	4255
2026-01-29 01:10:14.01	31.07	10.07	-25.9	-27.7	15.5	4.83e-04	0	42	0	225443840	11	4453
2026-01-29 01:10:17.02	31.35	10.30	-25.9	-27.4	15.4	2.04e-04	0	42	0	242221056	12	4234
2026-01-29 01:10:20.03	31.64	10.52	-26.0	-27.5	15.3	1.84e-04	0	42	0	258998272	12	4290
2026-01-29 01:10:23.04	31.93	10.75	-26.0	-27.5	15.4	4.78e-04	0	42	0	275775488	12	4269
2026-01-29 01:10:26.05	32.23	10.98	-26.1	-27.7	15.3	1.67e-04	0	42	0	293601280	12	4322
2026-01-29 01:10:29.05	32.53	11.21	-25.8	-27.0	15.6	1.41e-04	0	42	0	310378496	12	4141
2026-01-29 01:10:32.07	32.84	11.44	-25.7	-27.3	15.8	8.35e-05	0	42	0	327155712	11	4327
2026-01-29 01:10:35.08	33.14	11.67	-25.7	-27.3	15.9	0.00e+00	0	42	0	343932928	11	4334
2026-01-29 01:10:38.10	33.46	11.91	-25.5	-26.9	16.1	3.40e-06	0	43	0	360710144	11	4221
2026-01-29 01:10:41.11	33.78	12.14	-25.6	-27.0	16.1	6.86e-05	0	42	0	377487360	11	4242
2026-01-29 01:10:44.12	34.10	12.38	-25.4	-26.5	16.3	0.00e+00	0	43	0	394264576	11	4116
2026-01-29 01:10:47.13	34.43	12.62	-25.4	-27.1	16.4	0.00e+00	0	43	0	412090368	10	4376
2026-01-29 01:10:50.14	34.77	12.86	-25.4	-26.6	16.3	4.50e-06	0	43	0	428867584	11	4126
2026-01-29 01:10:53.16	35.11	13.10	-25.4	-27.2	16.3	0.00e+00	0	43	0	445644800	10	4422
2026-01-29 01:10:56.17	35.46	13.34	-25.4	-26.5	16.4	0.00e+00	0	43	0	462422016	11	4123
2026-01-29 01:10:59.18	35.81	13.59	-25.2	-26.2	16.6	0.00e+00	0	43	0	479199232	11	4023
2026-01-29 01:11:02.19	36.16	13.84	-25.4	-27.0	16.4	0.00e+00	0	43	0	495976448	10	4364
2026-01-29 01:11:05.21	36.53	14.08	-25.3	-26.8	16.5	0.00e+00	0	43	0	513802240	10	4298
2026-01-29 01:11:08.23	36.90	14.33	-25.2	-26.6	16.7	0.00e+00	0	43	0	530579456	10	4249
2026-01-29 01:11:11.25	37.27	14.59	-25.1	-26.4	16.7	0.00e+00	0	43	0	547356672	10	4200
2026-01-29 01:11:14.25	37.65	14.84	-24.7	-25.6	17.2	0.00e+00	0	43	0	564133888	10	3994
2026-01-29 01:11:17.25	38.04	15.09	-24.8	-25.9	17.0	0.00e+00	0	43	0	580911104	10	4051
2026-01-29 01:11:20.27	38.43	15.35	-24.9	-26.0	17.0	0.00e+00	0	43	0	597688320	10	4077
2026-01-29 01:11:23.29	38.83	15.61	-24.7	-25.5	17.3	0.00e+00	0	43	0	615514112	10	3965
2026-01-29 01:11:26.31	39.24	15.86	-24.7	-25.5	17.3	0.00e+00	0	43	0	632291328	10	3966
2026-01-29 01:11:29.32	39.65	16.12	-24.5	-25.2	17.5	0.00e+00	0	43	0	649068544	10	3887
2026-01-29 01:11:32.33	40.07	16.39	-24.5	-25.2	17.5	0.00e+00	0	43	0	665845760	10	3893
2026-01-29 01:11:35.34	40.50	16.65	-24.4	-25.0	17.6	0.00e+00	0	43	0	682622976	10	3836
2026-01-29 01:11:38.36	40.94	16.91	-24.5	-25.1	17.6	0.00e+00	0	43	0	699400192	10	3871
2026-01-29 01:11:41.38	41.38	17.18	-24.5	-25.2	17.5	0.00e+00	0	43	0	717225984	10	3887
2026-01-29 01:11:44.39	41.83	17.45	-24.4	-25.0	17.7	0.00e+00	0	43	0	734003200	10	3833
2026-01-29 01:11:47.40	42.29	17.71	-24.5	-25.1	17.8	0.00e+00	0	43	0	750780416	10	3870
2026-01-29 01:11:50.40	42.75	17.98	-24.2	-25.0	18.0	0.00e+00	0	43	0	767557632	9	3952
2026-01-29 01:11:53.42	43.23	18.25	-24.2	-25.0	18.0	0.00e+00	0	43	0	784334848	9	3942
2026-01-29 01:11:56.44	43.71	18.53	-24.2	-25.0	18.1	0.00e+00	0	43	0	801112064	9	3935
2026-01-29 01:11:59.46	44.20	18.80	-24.1	-24.7	18.2	0.00e+00	0	43	0	818937856	9	3869
2026-01-29 01:12:02.46	44.70	19.07	-24.0	-24.6	18.2	0.00e+00	0	43	0	835715072	9	3849
2026-01-29 01:12:05.46	45.21	19.34	-23.9	-24.4	18.4	0.00e+00	0	43	0	852492288	9	3803
2026-01-29 01:12:08.48	45.73	19.62	-23.8	-24.7	18.5	0.00e+00	0	43	0	869269504	8	3978
2026-01-29 01:12:11.50	46.26	19.90	-23.9	-24.9	18.4	0.00e+00	0	43	0	886046720	8	4019
2026-01-29 01:12:14.52	46.79	20.17	-23.8	-24.7	18.5	0.00e+00	0	43	0	902823936	8	3977
2026-01-29 01:12:17.53	47.34	20.45	-23.8	-24.7	18.5	0.00e+00	0	43	0	920649728	8	3968
2026-01-29 01:12:20.54	47.89	20.73	-23.8	-24.6	18.6	0.00e+00	0	43	0	937426944	8	3947
2026-01-29 01:12:23.56	48.46	21.01	-23.6	-24.2	18.8	0.00e+00	0	43	0	954204160	8	3851
2026-01-29 01:12:26.58	49.04	21.29	-23.8	-24.7	18.5	0.00e+00	0	43	0	970981376	8	3971
2026-01-29 01:12:29.60	49.62	21.57	-23.9	-24.9	18.5	0.00e+00	0	43	0	987758592	8	4011
2026-01-29 01:12:32.61	50.22	21.85	-23.8	-24.6	18.6	0.00e+00	0	43	0	1004535808	8	3961
2026-01-29 01:12:35.60	50.82	22.12	-23.8	-24.5	18.6	0.00e+00	0	43	0	1022361600	8	3936
2026-01-29 01:12:38.62	51.44	22.40	-23.5	-24.0	18.9	0.00e+00	0	43	0	1039138816	8	3803
2026-01-29 01:12:41.62	52.06	22.68	-23.4	-23.7	19.1	0.00e+00	0	43	0	1055916032	8	3743
2026-01-29 01:12:44.63	52.70	22.96	-23.6	-24.2	18.8	0.00e+00	0	43	0	1072693248	8	3849
2026-01-29 01:12:47.64	53.35	23.23	-23.5	-24.1	18.9	0.00e+00	0	43	0	1089470464	8	3840
2026-01-29 01:12:50.65	54.01	23.51	-23.4	-23.8	19.0	0.00e+00	0	43	0	1106247680	8	3767
2026-01-29 01:12:53.65	54.68	23.79	-23.2	-23.8	19.2	0.00e+00	0	43	0	1123024896	7	3879
2026-01-29 01:12:56.67	55.37	24.06	-23.3	-24.0	19.2	0.00e+00	0	43	0	1139802112	7	3912
2026-01-29 01:12:59.68	56.07	24.33	-23.2	-23.9	19.2	0.00e+00	0	43	0	1157627904	7	3887
2026-01-29 01:13:02.69	56.77	24.60	-23.0	-23.3	19.5	0.00e+00	0	43	0	1174405120	7	3760
2026-01-29 01:13:05.70	57.49	24.87	-23.2	-24.0	19.2	0.00e+00	0	43	0	1191182336	7	3912
2026-01-29 01:13:08.70	58.22	25.14	-23.2	-23.8	19.3	0.00e+00	0	43	0	1207959552	7	3865
2026-01-29 01:13:11.72	58.97	25.41	-22.8	-23.1	19.7	0.00e+00	0	43	0	1224736768	7	3709
2026-01-29 01:13:14.73	59.73	25.67	-22.9	-23.7	19.6	0.00e+00	0	43	0	1242562560	6	3952
2026-01-29 01:13:17.75	60.50	25.93	-22.9	-23.7	19.6	0.00e+00	0	43	0	1259339776	6	3955
2026-01-29 01:13:20.76	61.28	26.19	-22.5	-22.9	20.0	0.00e+00	0	43	0	1276116992	6	3770
2026-01-29 01:13:23.75	62.07	26.44	-22.4	-23.2	20.0	3.39e-04	0	43	0	1292894208	5	3955
2026-01-29 01:13:26.77	62.88	26.69	-22.4	-23.1	20.1	0.00e+00	0	43	0	1309671424	5	3920
2026-01-29 01:13:29.78	63.70	26.94	-22.3	-23.0	20.2	4.57e-05	0	43	0	1326448640	5	3896
2026-01-29 01:13:32.79	64.53	27.18	-22.3	-22.9	20.2	5.49e-05	0	44	0	1343225856	5	3871
2026-01-29 01:13:35.81	65.38	27.42	-22.5	-23.3	20.0	6.06e-05	0	43	0	1360003072	5	3973
2026-01-29 01:13:38.81	66.23	27.65	-22.4	-23.2	20.1	0.00e+00	0	43	0	1377828864	5	3954
2026-01-29 01:13:41.83	67.10	27.88	-22.6	-23.7	19.9	1.48e-05	0	44	0	1394606080	5	4061
2026-01-29 01:13:44.84	67.98	28.11	-22.3	-22.9	20.3	0.00e+00	0	44	0	1411383296	5	3881
2026-01-29 01:13:47.85	68.88	28.33	-22.5	-23.4	20.0	1.37e-05	0	43	0	1428160512	5	3998
2026-01-29 01:13:50.86	69.78	28.54	-22.4	-23.2	20.1	0.00e+00	0	43	0	1444937728	5	3942
2026-01-29 01:13:53.87	70.70	28.75	-22.4	-23.2	20.0	0.00e+00	0	44	0	1462763520	5	3949
2026-01-29 01:13:56.89	71.63	28.95	-22.4	-23.3	19.9	0.00e+00	0	43	0	1479540736	5	3981
2026-01-29 01:13:59.89	72.57	29.14	-22.4	-23.3	19.9	0.00e+00	0	44	0	1496317952	5	3981
2026-01-29 01:14:02.90	73.52	29.33	-22.3	-23.0	20.0	0.00e+00	0	44	0	1513095168	5	3917
2026-01-29 01:14:05.91	74.48	29.51	-22.5	-23.6	19.8	0.00e+00	0	44	0	1529872384	5	4053
2026-01-29 01:14:08.93	75.46	29.68	-22.7	-23.9	19.6	0.00e+00	0	44	0	1546649600	5	4129
2026-01-29 01:14:11.94	76.44	29.84	-22.5	-23.6	19.8	0.00e+00	0	43	0	1563426816	5	4049
2026-01-29 01:14:14.94	77.43	30.00	-22.3	-23.1	20.0	0.00e+00	0	44	0	1580204032	5	3935
2026-01-29 01:14:17.94	78.43	30.14	-22.2	-22.8	20.1	0.00e+00	0	43	0	1598029824	5	3860
2026-01-29 01:14:20.95	79.44	30.28	-22.5	-23.5	19.8	0.00e+00	0	44	0	1614807040	5	4032
2026-01-29 01:14:23.95	80.45	30.41	-22.5	-23.4	19.8	0.00e+00	0	44	0	1631584256	5	4022
2026-01-29 01:14:26.96	81.48	30.53	-22.5	-23.4	19.8	0.00e+00	0	44	0	1648361472	5	4019
2026-01-29 01:14:29.98	82.51	30.64	-22.7	-23.8	19.6	0.00e+00	0	43	0	1665138688	5	4111
2026-01-29 01:14:32.97	83.55	30.74	-22.7	-23.8	19.6	0.00e+00	0	43	0	1681915904	5	4113
2026-01-29 01:14:35.98	84.59	30.83	-22.4	-23.3	19.9	0.00e+00	0	43	0	1698693120	5	3992
2026-01-29 01:14:39.00	85.65	30.91	-22.3	-23.1	20.0	0.00e+00	0	44	0	1715470336	5	3932
2026-01-29 01:14:42.00	86.70	30.98	-22.2	-22.9	20.1	0.00e+00	0	43	0	1733296128	5	3883
2026-01-29 01:14:45.01	87.76	31.04	-22.4	-23.3	19.9	0.00e+00	0	44	0	1750073344	5	3980
2026-01-29 01:14:48.02	88.83	31.09	-22.4	-23.3	19.9	0.00e+00	0	43	0	1766850560	5	3979
2026-01-29 01:14:51.02	89.89	31.13	-22.4	-23.2	19.9	0.00e+00	0	43	0	1783627776	5	3969
2026-01-29 01:14:54.03	90.96	31.16	-22.2	-22.9	20.1	0.00e+00	0	43	0	1800404992	5	3885
2026-01-29 01:14:57.04	92.03	31.18	-22.4	-23.2	19.9	0.00e+00	0	44	0	1817182208	5	3966
2026-01-29 01:15:00.06	93.11	31.18	-22.3	-23.1	19.6	0.00e+00	0	43	0	1833959424	5	3949
2026-01-29 01:15:03.07	94.18	31.18	-22.6	-23.7	19.7	0.00e+00	0	43	0	1851785216	5	4074
2026-01-29 01:15:06.09	95.26	31.16	-22.5	-23.6	19.8	0.00e+00	0	43	0	1868562432	5	4054
2026-01-29 01:15:09.10	96.33	31.14	-22.6	-23.8	19.7	0.00e+00	0	43	0	1885339648	5	4111
2026-01-29 01:15:12.11	97.40	31.10	-22.3	-23.2	20.0	0.00e+00	0	44	0	1902116864	5	3951
2026-01-29 01:15:15.12	98.46	31.05	-22.5	-23.4	19.8	0.00e+00	0	43	0	1918894080	5	4006
2026-01-29 01:15:18.13	99.53	30.99	-22.5	-23.4	19.8	1.10e-06	0	44	0	1935671296	5	4006
2026-01-29 01:15:21.14	100.59	30.93	-22.4	-23.3	19.9	5.70e-06	0	44	0	1953497088	5	3974
2026-01-29 01:15:24.16	101.64	30.85	-22.4	-23.3	19.9	2.20e-06	0	43	0	1970274304	5	3974
2026-01-29 01:15:27.18	102.70	30.76	-22.9	-24.4	19.4	0.00e+00	0	43	0	1987051520	5	4259
2026-01-29 01:15:30.19	103.74	30.66	-22.8	-24.1	19.5	2.28e-05	0	44	0	2003828736	5	4191
2026-01-29 01:15:33.21	104.78	30.55	-22.6	-23.6	19.7	1.10e-04	0	44	0	2020605952	5	4051
2026-01-29 01:15:36.22	105.81	30.43	-22.5	-23.5	19.7	0.00e+00	0	44	0	2038431744	5	4048
2026-01-29 01:15:39.23	106.83	30.30	-22.4	-23.3	19.9	0.00e+00	0	43	0	2055208960	5	3978
2026-01-29 01:15:42.24	107.84	30.17	-22.5	-23.5	19.7	0.00e+00	0	44	0	2071986176	5	4044
2026-01-29 01:15:45.25	108.85	30.02	-22.5	-23.5	19.7	0.00e+00	0	44	0	2088763392	5	4038
2026-01-29 01:15:48.27	109.85	29.86	-22.8	-24.1	19.4	0.00e+00	0	44	0	2105540608	5	4185
2026-01-29 01:15:51.28	110.83	29.70	-22.7	-23.9	19.5	0.00e+00	0	44	0	2122317824	5	4135
2026-01-29 01:15:54.29	111.81	29.53	-22.8	-24.1	19.5	0.00e+00	0	44	0	2139095040	5	4178
2026-01-29 01:15:57.30	112.78	29.35	-22.8	-24.2	19.4	0.00e+00	0	44	0	2156920832	5	4198
2026-01-29 01:16:00.31	113.73	29.17	-22.4	-23.4	19.8	0.00e+00	0	43	0	2173698048	5	3999
2026-01-29 01:16:03.33	114.68	28.97	-22.6	-23.7	19.6	0.00e+00	0	44	0	2190475264	5	4089
2026-01-29 01:16:06.33	115.61	28.77	-22.6	-23.7	19.6	0.00e+00	0	44	0	2207252480	5	4080
2026-01-29 01:16:09.33	116.53	28.57	-22.7	-23.9	19.5	0.00e+00	0	44	0	2224029696	5	4136
2026-01-29 01:16:12.34	117.44	28.35	-22.7	-24.0	19.5	0.00e+00	0	44	0	2240806912	5	4147
2026-01-29 01:16:15.34	118.33	28.14	-22.7	-24.0	19.5	0.00e+00	0	44	0	2257584128	5	4159
2026-01-29 01:16:18.35	119.22	27.91	-22.6	-23.7	19.6	0.00e+00	0	44	0	2274361344	5	4072
2026-01-29 01:16:21.36	120.09	27.68	-22.7	-23.9	19.5	0.00e+00	0	44	0	2292187136	5	4140
2026-01-29 01:16:24.38	120.96	27.45	-22.6	-23.6	19.6	0.00e+00	0	44	0	2308964352	5	4064
2026-01-29 01:16:27.38	121.80	27.21	-22.6	-23.7	19.5	0.00e+00	0	44	0	2325741568	5	4088
2026-01-29 01:16:30.40	122.64	26.96	-22.7	-23.9	19.4	0.00e+00	0	44	0	2342518784	5	4133
2026-01-29 01:16:33.41	123.47	26.72	-22.8	-24.2	19.3	0.00e+00	0	43	0	2359296000	5	4205
2026-01-29 01:16:36.42	124.28	26.46	-23.1	-24.2	19.0	0.00e+00	0	44	0	2377121792	6	4111
2026-01-29 01:16:39.43	125.08	26.21	-22.8	-23.5	19.4	0.00e+00	0	44	0	2393899008	6	3926
2026-01-29 01:16:42.45	125.86	25.95	-22.9	-23.8	19.2	0.00e+00	0	44	0	2410676224	6	4012
2026-01-29 01:16:45.45	126.64	25.69	-22.8	-23.6	19.3	0.00e+00	0	44	0	2427453440	6	3953
2026-01-29 01:16:48.46	127.40	25.43	-22.7	-23.4	19.4	0.00e+00	0	44	0	2444230656	6	3906
2026-01-29 01:16:51.47	128.15	25.16	-22.8	-23.5	19.4	0.00e+00	0	44	0	2461007872	6	3926
2026-01-29 01:16:54.47	128.88	24.89	-22.9	-23.9	19.2	0.00e+00	0	43	0	2477785088	6	4019
2026-01-29 01:16:57.48	129.61	24.62	-23.2	-24.5	18.9	0.00e+00	0	44	0	2494562304	6	4167
2026-01-29 01:17:00.49	130.32	24.35	-23.3	-24.7	18.7	0.00e+00	0	44	0	2512388096	6	4224
2026-01-29 01:17:03.49	131.02	24.07	-23.0	-24.0	19.1	0.00e+00	0	44	0	2529165312	6	4047
2026-01-29 01:17:06.50	131.70	23.80	-23.2	-24.4	18.8	0.00e+00	0	44	0	2545942528	6	4146
2026-01-29 01:17:09.50	132.38	23.52	-23.2	-24.4	18.9	0.00e+00	0	44	0	2562719744	6	4143
2026-01-29 01:17:12.51	133.04	23.24	-23.1	-24.2	18.9	0.00e+00	0	44	0	2579496960	6	4100
2026-01-29 01:17:15.52	133.70	22.96	-23.1	-24.3	18.9	0.00e+00	0	44	0	2596274176	6	4127
2026-01-29 01:17:18.54	134.34	22.68	-23.3	-24.8	18.6	0.00e+00	0	44	0	2613051392	6	4244
2026-01-29 01:17:21.53	134.97	22.41	-23.5	-24.7	18.4	0.00e+00	0	44	0	2629828608	7	4111
2026-01-29 01:17:24.55	135.59	22.12	-23.6	-24.8	18.3	0.00e+00	0	44	0	2647654400	7	4134
2026-01-29 01:17:27.57	136.20	21.84	-23.6	-24.8	18.3	0.00e+00	0	44	0	2664431616	7	4145
2026-01-29 01:17:30.58	136.80	21.56	-23.9	-25.5	18.0	0.00e+00	0	44	0	2681208832	7	4310
2026-01-29 01:17:33.59	137.39	21.28	-24.4	-26.0	17.4	0.00e+00	0	44	0	2697986048	8	4347
2026-01-29 01:17:36.59	137.97	21.00	-24.1	-25.4	17.7	0.00e+00	0	44	0	2714763264	8	4177
2026-01-29 01:17:39.61	138.54	20.72	-24.1	-25.5	17.7	0.00e+00	0	43	0	2731540480	8	4206
2026-01-29 01:17:42.63	139.10	20.44	-24.2	-25.8	17.4	0.00e+00	0	44	0	2749366272	8	4292
2026-01-29 01:17:45.65	139.65	20.16	-24.6	-26.1	17.1	0.00e+00	0	44	0	2766143488	9	4269
2026-01-29 01:17:48.66	140.18	19.88	-24.3	-25.4	17.4	1.37e-05	0	44	0	2782920704	9	4069
2026-01-29 01:17:51.66	140.71	19.60	-24.6	-26.1	17.1	0.00e+00	0	44	0	2799697920	9	4244
2026-01-29 01:17:54.68	141.23	19.32	-24.2	-25.1	17.6	2.20e-06	0	44	0	2816475136	9	3991
2026-01-29 01:17:57.69	141.74	19.05	-24.4	-25.5	17.3	0.00e+00	0	43	0	2833252352	9	4106
2026-01-29 01:18:00.70	142.24	18.77	-24.4	-25.6	17.2	0.00e+00	0	44	0	2850029568	9	4131
2026-01-29 01:18:03.73	142.74	18.50	-24.7	-26.2	16.9	0.00e+00	0	44	0	2867855360	9	4272
2026-01-29 01:18:06.74	143.23	18.22	-24.7	-26.2	16.9	0.00e+00	0	44	0	2884632576	9	4276
2026-01-29 01:18:09.74	143.70	17.95	-24.7	-26.3	16.8	0.00e+00	0	43	0	2901409792	9	4304
2026-01-29 01:18:12.76	144.17	17.68	-24.9	-26.7	16.5	0.00e+00	0	44	0	2918187008	9	4417
2026-01-29 01:18:15.76	144.63	17.41	-24.9	-26.6	16.6	0.00e+00	0	44	0	2934964224	9	4395
2026-01-29 01:18:18.78	145.08	17.14	-25.1	-26.5	16.2	0.00e+00	0	44	0	2952790016	10	4250
2026-01-29 01:18:21.80	145.53	16.87	-25.0	-26.4	16.4	0.00e+00	0	44	0	2969567232	10	4233
2026-01-29 01:18:24.81	145.96	16.61	-24.9	-26.2	16.5	0.00e+00	0	44	0	2986344448	10	4157
2026-01-29 01:18:27.83	146.39	16.34	-25.0	-26.4	16.4	9.09e-04	0	43	0	3003121664	10	4222
2026-01-29 01:18:30.84	146.81	16.08	-25.0	-26.3	16.4	0.00e+00	0	44	0	3019898880	10	4213
2026-01-29 01:18:33.85	147.23	15.81	-25.0	-26.5	16.3	0.00e+00	0	44	0	3036676096	10	4254
2026-01-29 01:18:36.86	147.64	15.55	-24.9	-26.3	16.4	1.11e-03	0	44	0	3053453312	10	4199
2026-01-29 01:18:39.87	148.04	15.29	-24.9	-26.2	16.5	1.27e-03	0	44	0	3071279104	10	4181
2026-01-29 01:18:42.89	148.43	15.04	-24.8	-26.5	16.5	1.28e-03	0	44	0	3088056320	9	4365
2026-01-29 01:18:45.90	148.82	14.78	-25.0	-26.4	16.3	1.13e-03	0	44	0	3104833536	10	4232
2026-01-29 01:18:48.91	149.20	14.52	-25.3	-27.0	16.0	1.13e-03	0	44	0	3121610752	10	4379
2026-01-29 01:18:51.92	149.58	14.27	-25.3	-27.0	16.0	6.52e-05	0	44	0	3138387968	10	4378
2026-01-29 01:18:54.94	149.95	14.02	-25.3	-27.0	15.9	1.25e-05	0	44	0	3155165184	10	4390
2026-01-29 01:18:57.95	150.31	13.77	-25.4	-27.3	15.7	9.78e-04	0	44	0	3172990976	10	4490
2026-01-29 01:19:00.96	150.67	13.52	-25.8	-27.6	15.3	1.20e-03	0	44	0	3189768192	11	4452
2026-01-29 01:19:03.97	151.02	13.27	-25.5	-27.0	15.5	3.89e-05	0	44	0	3206545408	11	4297
2026-01-29 01:19:06.99	151.37	13.03	-25.6	-27.4	15.4	0.00e+00	0	44	0	3223322624	11	4391
2026-01-29 01:19:10.00	151.71	12.78	-25.7	-27.4	15.3	1.23e-03	0	44	0	3240099840	11	4408
2026-01-29 01:19:13.01	152.04	12.54	-25.6	-27.3	15.4	0.00e+00	0	44	0	3256877056	11	4353
2026-01-29 01:19:16.01	152.37	12.30	-25.8	-27.6	15.2	1.32e-04	0	44	0	3273654272	11	4449
2026-01-29 01:19:19.02	152.69	12.06	-25.8	-27.8	15.1	0.00e+00	0	44	0	3291480064	11	4498
2026-01-29 01:19:22.02	153.01	11.82	-26.0	-27.6	14.8	0.00e+00	0	43	0	3308257280	12	4345
2026-01-29 01:19:25.03	153.33	11.59	-26.0	-28.1	14.8	0.00e+00	0	44	0	3325034496	11	4623
2026-01-29 01:19:28.04	153.64	11.35	-26.1	-27.8	14.6	1.10e-06	0	43	0	3341811712	12	4420
2026-01-29 01:19:31.04	153.94	11.12	-26.0	-27.6	14.8	0.00e+00	0	44	0	3358588928	12	4342
2026-01-29 01:19:34.05	154.24	10.89	-26.0	-27.8	14.6	0.00e+00	0	44	0	3375366144	12	4417
2026-01-29 01:19:37.05	154.54	10.66	-26.2	-28.4	14.3	0.00e+00	0	44	0	3392143360	12	4596
2026-01-29 01:19:40.05	154.83	10.43	-26.2	-28.3	14.4	2.20e-06	0	44	0	3408920576	12	4558
2026-01-29 01:19:43.07	155.12	10.20	-26.4	-28.6	14.2	2.20e-06	0	44	0	3426746368	12	4649
2026-01-29 01:19:46.08	155.40	9.98	-26.3	-28.4	14.3	1.10e-06	0	44	0	3443523584	12	4598
2026-01-29 01:19:49.10	155.68	9.75	-26.2	-28.3	14.3	2.20e-06	0	43	0	3460300800	12	4570
2026-01-29 01:19:52.11	155.95	9.53	-26.3	-28.4	14.3	0.00e+00	0	44	0	3477078016	12	4587
2026-01-29 01:19:55.13	156.22	9.31	-26.3	-28.5	14.2	1.10e-06	0	44	0	3493855232	12	4609
2026-01-29 01:19:58.14	156.49	9.09	-26.4	-28.5	14.2	0.00e+00	0	44	0	3511681024	12	4600
2026-01-29 01:20:01.15	156.75	8.87	-26.6	-28.6	13.8	1.37e-05	0	44	0	3528458240	13	4523
2026-01-29 01:20:04.15	157.01	8.65	-26.3	-28.3	14.3	1.10e-06	0	44	0	3545235456	12	4571
2026-01-29 01:20:07.17	157.27	8.44	-26.3	-28.4	14.1	9.57e-04	0	44	0	3562012672	12	4624
2026-01-29 01:20:10.18	157.52	8.22	-26.3	-28.6	14.1	0.00e+00	0	44	0	3578789888	12	4656
2026-01-29 01:20:13.19	157.77	8.01	-26.4	-28.6	14.0	3.40e-06	0	44	0	3595567104	12	4662
2026-01-29 01:20:16.19	158.01	7.80	-26.9	-29.3	13.2	1.12e-03	0	44	0	3612344320	13	4760
2026-01-29 01:20:19.21	158.26	7.59	-26.8	-29.0	13.4	1.03e-03	0	44	0	3629121536	13	4676
2026-01-29 01:20:22.21	158.49	7.38	-26.8	-29.2	13.3	9.58e-04	0	44	0	3646947328	13	4729
2026-01-29 01:20:25.22	158.73	7.17	-27.0	-29.1	13.1	1.10e-03	0	44	0	3663724544	14	4603
2026-01-29 01:20:28.23	158.96	6.97	-33.0	-44.6	3.8	8.46e-01	0	44	104	3670016000	25	13751

#Closed at: 2026-01-29 01:20:30
#Recorded file [3670 MB]: D:/data/31010_260129_040933.dat