passes_logs/2026/01/29/R2M6_AANII_01/R2M6_AANII_01__20260129_093556_NOAA_21_JPSS-2_rec.log

#Pass ID: 20260129_093556_NOAA 21 (JPSS-2)
#Satellite: NOAA 21 (JPSS-2)
#Configuration: NOAA 21
#almurnet v.1.7.20240730
#Start time: 2026-01-29 09:35:58

#Version: 2.2.20231116
#Station: R2M6_AANII_01
#Location: 30.233357 lon 59.946436 lat
#TLE: 1 54234U 22150A   26027.91149249  .00000141  00000+0  87546-4 0  9993
#TLE: 2 54234  98.7510 328.6558 0000880 202.8718 157.2419 14.19540177166642

#Time	Az	El	Level	Level2	SNR	BER	BlckErr	Temp	State	Recorded	gain1	gain2
2026-01-29 09:35:58.13	137.82	7.13	-29.8	-33.6	4.9	1.36e+00	0	40	0	0	20	5547
2026-01-29 09:36:01.13	137.72	7.36	-30.3	-33.7	9.5	1.32e-02	0	40	0	2097152	21	5370
2026-01-29 09:36:04.15	137.61	7.60	-29.4	-31.8	11.1	1.91e-03	0	40	0	12582912	20	4794
2026-01-29 09:36:07.16	137.50	7.83	-29.5	-32.8	10.9	2.16e-03	0	40	0	22020096	19	5277
2026-01-29 09:36:10.17	137.39	8.07	-29.0	-31.2	12.0	3.71e-04	0	40	0	30408704	19	4670
2026-01-29 09:36:13.17	137.28	8.30	-28.9	-30.9	12.3	1.65e-04	0	40	0	39845888	19	4530
2026-01-29 09:36:16.17	137.16	8.54	-28.7	-30.8	12.7	8.46e-05	0	40	0	49283072	18	4613
2026-01-29 09:36:19.19	137.05	8.79	-28.7	-30.7	12.8	6.02e-05	0	41	0	58720256	18	4574
2026-01-29 09:36:22.20	136.93	9.03	-28.8	-31.1	12.6	9.61e-05	0	41	0	68157440	18	4680
2026-01-29 09:36:25.21	136.81	9.28	-28.5	-30.2	13.2	2.51e-05	0	41	0	77594624	18	4411
2026-01-29 09:36:28.22	136.69	9.53	-28.5	-30.4	13.1	1.83e-05	0	41	0	87031808	18	4446
2026-01-29 09:36:31.22	136.56	9.78	-28.4	-30.0	13.4	2.13e-05	0	41	0	96468992	18	4326
2026-01-29 09:36:34.24	136.43	10.03	-28.4	-29.9	13.5	9.90e-06	0	41	0	105906176	18	4297
2026-01-29 09:36:37.25	136.30	10.29	-28.2	-30.0	13.7	6.10e-06	0	41	0	115343360	17	4431
2026-01-29 09:36:40.27	136.17	10.55	-28.2	-30.0	13.8	2.20e-06	0	41	0	124780544	17	4418
2026-01-29 09:36:43.27	136.04	10.81	-28.0	-29.6	14.0	2.20e-06	0	41	0	134217728	17	4300
2026-01-29 09:36:46.29	135.90	11.08	-28.0	-29.4	14.2	2.20e-06	0	41	0	143654912	17	4246
2026-01-29 09:36:49.30	135.76	11.34	-28.1	-29.7	14.0	1.50e-06	0	41	0	153092096	17	4324
2026-01-29 09:36:52.31	135.62	11.61	-27.8	-29.0	14.4	7.00e-07	0	41	0	162529280	17	4152
2026-01-29 09:36:55.32	135.47	11.89	-27.7	-29.3	14.5	1.50e-06	0	41	0	171966464	16	4337
2026-01-29 09:36:58.34	135.32	12.16	-27.7	-29.2	14.6	7.00e-07	0	41	0	181403648	16	4296
2026-01-29 09:37:01.34	135.17	12.44	-27.6	-29.1	14.7	7.00e-07	0	41	0	190840832	16	4266
2026-01-29 09:37:04.35	135.02	12.72	-27.6	-29.0	14.8	0.00e+00	0	42	0	200278016	16	4240
2026-01-29 09:37:07.36	134.86	13.01	-27.7	-29.1	14.7	0.00e+00	0	42	0	209715200	16	4264
2026-01-29 09:37:10.37	134.70	13.30	-27.6	-29.0	14.8	0.00e+00	0	41	0	219152384	16	4237
2026-01-29 09:37:13.37	134.53	13.59	-27.6	-29.1	14.8	0.00e+00	0	42	0	228589568	16	4246
2026-01-29 09:37:16.38	134.37	13.88	-27.7	-29.2	14.7	0.00e+00	0	42	0	238026752	16	4279
2026-01-29 09:37:19.39	134.20	14.18	-27.7	-29.3	14.6	0.00e+00	0	41	0	247463936	16	4333
2026-01-29 09:37:22.39	134.02	14.48	-27.8	-29.5	14.5	0.00e+00	0	42	0	256901120	16	4411
2026-01-29 09:37:25.41	133.84	14.78	-27.7	-29.3	14.7	7.00e-07	0	42	0	266338304	16	4320
2026-01-29 09:37:28.43	133.66	15.09	-27.8	-29.3	14.8	1.50e-06	0	42	0	275775488	16	4308
2026-01-29 09:37:31.44	133.47	15.40	-27.8	-29.3	14.9	0.00e+00	0	42	0	285212672	16	4286
2026-01-29 09:37:34.45	133.28	15.72	-27.8	-29.3	14.8	0.00e+00	0	42	0	294649856	16	4287
2026-01-29 09:37:37.46	133.09	16.04	-27.7	-29.1	15.0	7.00e-07	0	42	0	304087040	16	4229
2026-01-29 09:37:40.47	132.89	16.36	-27.7	-29.1	15.0	0.00e+00	0	42	0	313524224	16	4243
2026-01-29 09:37:43.48	132.68	16.69	-27.9	-29.5	14.8	0.00e+00	0	42	0	322961408	16	4344
2026-01-29 09:37:46.50	132.48	17.02	-28.1	-30.0	14.6	7.00e-07	0	42	0	332398592	16	4485
2026-01-29 09:37:49.51	132.26	17.36	-28.3	-30.4	14.4	7.00e-07	0	42	0	341835776	16	4580
2026-01-29 09:37:52.52	132.04	17.70	-28.2	-30.1	14.5	7.00e-07	0	42	0	350224384	16	4516
2026-01-29 09:37:55.54	131.82	18.04	-28.2	-30.1	14.6	7.00e-07	0	42	0	360710144	16	4514
2026-01-29 09:37:58.56	131.59	18.39	-28.2	-30.2	14.6	0.00e+00	0	42	0	370147328	16	4520
2026-01-29 09:38:01.57	131.36	18.74	-28.0	-29.8	14.8	0.00e+00	0	42	0	378535936	16	4426
2026-01-29 09:38:04.58	131.12	19.10	-27.9	-29.5	15.0	0.00e+00	0	42	0	389021696	16	4341
2026-01-29 09:38:07.59	130.87	19.46	-27.7	-29.2	15.2	0.00e+00	0	42	0	397410304	16	4243
2026-01-29 09:38:10.60	130.62	19.83	-27.7	-29.0	15.3	0.00e+00	0	42	0	406847488	16	4197
2026-01-29 09:38:13.61	130.36	20.20	-27.6	-28.9	15.4	0.00e+00	0	42	0	416284672	16	4151
2026-01-29 09:38:16.61	130.10	20.58	-27.6	-28.7	15.5	0.00e+00	0	42	0	425721856	16	4114
2026-01-29 09:38:19.62	129.83	20.96	-27.5	-28.5	15.7	0.00e+00	0	42	0	435159040	16	4057
2026-01-29 09:38:22.63	129.55	21.34	-27.3	-28.2	15.9	0.00e+00	0	42	0	444596224	16	3962
2026-01-29 09:38:25.64	129.26	21.74	-26.9	-27.8	16.2	0.00e+00	0	42	0	454033408	15	3968
2026-01-29 09:38:28.64	128.97	22.13	-26.8	-28.0	16.4	0.00e+00	0	42	0	463470592	14	4118
2026-01-29 09:38:31.66	128.67	22.53	-26.8	-27.9	16.5	0.00e+00	0	42	0	472907776	14	4119
2026-01-29 09:38:34.68	128.36	22.94	-26.7	-27.8	16.5	0.00e+00	0	42	0	482344960	14	4073
2026-01-29 09:38:37.69	128.04	23.36	-27.0	-28.4	16.2	0.00e+00	0	42	0	491782144	14	4248
2026-01-29 09:38:40.70	127.71	23.78	-27.0	-28.5	16.2	0.00e+00	0	42	0	501219328	14	4257
2026-01-29 09:38:43.71	127.37	24.20	-26.9	-28.3	16.3	0.00e+00	0	42	0	510656512	14	4199
2026-01-29 09:38:46.72	127.03	24.63	-26.9	-28.3	16.3	0.00e+00	0	42	0	520093696	14	4197
2026-01-29 09:38:49.73	126.67	25.07	-27.2	-28.8	16.1	0.00e+00	0	42	0	529530880	14	4355
2026-01-29 09:38:52.75	126.31	25.51	-27.5	-29.5	15.7	0.00e+00	0	42	0	538968064	14	4534
2026-01-29 09:38:55.75	125.93	25.96	-27.8	-29.6	15.4	0.00e+00	0	42	0	548405248	15	4452
2026-01-29 09:38:58.76	125.55	26.42	-27.6	-29.2	15.7	0.00e+00	0	42	0	557842432	15	4325
2026-01-29 09:39:01.78	125.15	26.88	-27.7	-29.5	15.5	0.00e+00	0	42	0	567279616	15	4406
2026-01-29 09:39:04.79	124.74	27.35	-27.7	-29.4	15.6	0.00e+00	0	42	0	576716800	15	4381
2026-01-29 09:39:07.80	124.31	27.82	-27.6	-29.1	15.7	0.00e+00	0	42	0	586153984	15	4305
2026-01-29 09:39:10.81	123.88	28.30	-27.8	-29.8	15.4	0.00e+00	0	42	0	595591168	15	4498
2026-01-29 09:39:13.82	123.43	28.79	-27.9	-29.9	15.3	0.00e+00	0	42	0	605028352	15	4547
2026-01-29 09:39:16.82	122.96	29.28	-27.8	-29.6	15.5	0.00e+00	0	42	0	614465536	15	4441
2026-01-29 09:39:19.83	122.48	29.78	-27.6	-29.2	15.7	0.00e+00	0	42	0	623902720	15	4342
2026-01-29 09:39:22.84	121.99	30.29	-27.6	-29.1	15.8	0.00e+00	0	42	0	633339904	15	4307
2026-01-29 09:39:25.85	121.48	30.80	-27.8	-29.8	15.4	0.00e+00	0	42	0	642777088	15	4508
2026-01-29 09:39:28.85	120.96	31.32	-28.1	-29.8	15.4	0.00e+00	0	42	0	652214272	16	4374
2026-01-29 09:39:31.86	120.41	31.85	-28.1	-29.8	15.4	0.00e+00	0	42	0	661651456	16	4376
2026-01-29 09:39:34.87	119.85	32.38	-27.9	-29.3	15.7	0.00e+00	0	42	0	671088640	16	4227
2026-01-29 09:39:37.89	119.26	32.92	-27.9	-29.2	15.7	0.00e+00	0	42	0	680525824	16	4217
2026-01-29 09:39:40.89	118.67	33.46	-28.0	-29.6	15.5	0.00e+00	0	42	0	689963008	16	4324
2026-01-29 09:39:43.90	118.04	34.01	-28.2	-30.0	15.3	3.80e-06	0	42	0	698351616	16	4433
2026-01-29 09:39:46.91	117.40	34.57	-28.7	-30.7	14.6	0.00e+00	0	42	0	707788800	17	4512
2026-01-29 09:39:49.92	116.73	35.13	-28.9	-31.1	14.4	3.80e-06	0	42	0	717225984	17	4651
2026-01-29 09:39:52.94	116.04	35.70	-29.3	-31.7	13.8	6.10e-06	0	42	0	726663168	18	4713
2026-01-29 09:39:55.95	115.32	36.28	-29.3	-31.6	13.9	4.50e-06	0	42	0	736100352	18	4687
2026-01-29 09:39:58.97	114.58	36.86	-29.7	-31.9	13.4	1.22e-05	0	42	0	745537536	19	4656
2026-01-29 09:40:01.94	113.82	37.43	-29.7	-32.0	13.4	1.67e-05	0	42	0	754974720	19	4681
2026-01-29 09:40:04.95	113.02	38.02	-29.6	-31.7	13.5	9.10e-06	0	42	0	764411904	19	4596
2026-01-29 09:40:07.95	112.20	38.61	-29.5	-31.5	13.7	5.30e-06	0	42	0	773849088	19	4529
2026-01-29 09:40:10.97	111.34	39.20	-29.4	-31.2	13.8	2.20e-06	0	42	0	783286272	19	4459
2026-01-29 09:40:13.99	110.45	39.80	-29.3	-31.0	13.9	0.00e+00	0	42	0	792723456	19	4363
2026-01-29 09:40:16.99	109.53	40.40	-29.2	-30.9	14.1	6.10e-06	0	42	0	802160640	19	4342
2026-01-29 09:40:20.00	108.57	41.00	-29.3	-30.9	14.0	4.50e-06	0	42	0	811597824	19	4360
2026-01-29 09:40:23.01	107.58	41.60	-29.9	-32.6	13.1	2.51e-05	0	42	0	821035008	19	4872
2026-01-29 09:40:26.01	106.55	42.20	-30.4	-33.2	12.2	1.81e-04	0	42	0	830472192	20	5001
2026-01-29 09:40:29.02	105.48	42.79	-30.0	-32.2	12.9	3.58e-05	0	42	0	839909376	20	4660
2026-01-29 09:40:32.03	104.37	43.39	-30.2	-32.7	12.7	7.32e-05	0	42	0	849346560	20	4795
2026-01-29 09:40:35.05	103.21	43.99	-30.2	-32.7	12.6	1.04e-04	0	42	0	858783744	20	4828
2026-01-29 09:40:38.06	102.01	44.57	-30.1	-32.5	12.8	8.46e-05	0	42	0	868220928	20	4748
2026-01-29 09:40:41.08	100.76	45.16	-30.0	-32.3	13.0	5.26e-05	0	42	0	877658112	20	4663
2026-01-29 09:40:44.09	99.47	45.73	-29.8	-31.8	13.3	1.37e-05	0	42	0	887095296	20	4515
2026-01-29 09:40:47.11	98.13	46.30	-29.8	-31.8	13.3	1.90e-05	0	42	0	896532480	20	4525
2026-01-29 09:40:50.12	96.74	46.86	-29.7	-31.6	13.4	9.10e-06	0	42	0	905969664	20	4443
2026-01-29 09:40:53.13	95.31	47.40	-29.3	-30.6	14.0	5.30e-06	0	42	0	915406848	20	4149
2026-01-29 09:40:56.12	93.83	47.93	-29.7	-31.5	13.5	1.06e-05	0	42	0	924844032	20	4434
2026-01-29 09:40:59.13	92.30	48.44	-29.6	-31.3	13.7	9.90e-06	0	42	0	934281216	20	4351
2026-01-29 09:41:02.14	90.71	48.94	-29.6	-31.2	13.7	5.30e-06	0	42	0	943718400	20	4332
2026-01-29 09:41:05.15	89.07	49.42	-29.5	-30.9	13.9	6.10e-06	0	42	0	953155584	20	4238
2026-01-29 09:41:08.16	87.38	49.88	-29.9	-31.9	13.3	9.90e-06	0	42	0	962592768	20	4541
2026-01-29 09:41:11.17	85.63	50.31	-29.1	-30.5	14.5	7.00e-07	0	42	0	972029952	19	4223
2026-01-29 09:41:14.18	83.84	50.72	-29.7	-32.0	13.5	9.10e-06	0	42	0	980418560	19	4695
2026-01-29 09:41:17.19	82.01	51.10	-29.5	-31.5	13.9	3.80e-06	0	42	0	990904320	19	4535
2026-01-29 09:41:20.20	80.12	51.46	-29.8	-32.1	13.4	8.30e-06	0	42	0	999292928	19	4712
2026-01-29 09:41:23.21	78.19	51.78	-29.9	-32.5	13.2	1.29e-05	0	42	0	1008730112	19	4856
2026-01-29 09:41:26.22	76.23	52.07	-29.7	-31.9	13.6	1.83e-05	0	42	0	1018167296	19	4653
2026-01-29 09:41:29.22	74.23	52.32	-29.7	-32.0	13.5	1.14e-05	0	43	0	1027604480	19	4670
2026-01-29 09:41:32.23	72.19	52.54	-29.6	-31.6	13.8	6.10e-06	0	42	0	1037041664	19	4547
2026-01-29 09:41:35.24	70.13	52.73	-29.0	-30.3	14.4	2.20e-06	0	42	0	1046478848	19	4183
2026-01-29 09:41:38.26	68.03	52.87	-29.9	-32.4	13.3	1.98e-05	0	42	0	1055916032	19	4808
2026-01-29 09:41:41.26	65.94	52.98	-28.7	-30.2	14.9	0.00e+00	0	42	0	1065353216	18	4262
2026-01-29 09:41:44.27	63.82	53.04	-29.2	-31.4	14.2	7.00e-07	0	42	0	1074790400	18	4606
2026-01-29 09:41:47.27	61.70	53.07	-29.0	-30.8	14.6	7.00e-07	0	42	0	1084227584	18	4425
2026-01-29 09:41:50.28	59.58	53.05	-29.1	-31.0	14.5	7.00e-07	0	42	0	1093664768	18	4481
2026-01-29 09:41:53.30	57.45	53.00	-28.8	-30.3	14.8	0.00e+00	0	43	0	1103101952	18	4290
2026-01-29 09:41:56.31	55.34	52.90	-28.6	-29.7	15.0	0.00e+00	0	42	0	1112539136	18	4124
2026-01-29 09:41:59.31	53.26	52.77	-28.3	-29.1	15.4	0.00e+00	0	42	0	1121976320	18	3972
2026-01-29 09:42:02.32	51.19	52.60	-29.1	-30.9	14.5	0.00e+00	0	42	0	1131413504	18	4463
2026-01-29 09:42:05.33	49.14	52.39	-29.2	-30.8	14.2	1.50e-06	0	43	0	1140850688	19	4312
2026-01-29 09:42:08.35	47.13	52.14	-28.7	-30.2	14.9	0.00e+00	0	42	0	1150287872	18	4242
2026-01-29 09:42:11.36	45.15	51.86	-29.4	-31.3	13.9	4.50e-06	0	42	0	1159725056	19	4467
2026-01-29 09:42:14.37	43.22	51.54	-28.8	-30.4	14.7	0.00e+00	0	42	0	1169162240	18	4311
2026-01-29 09:42:17.38	41.32	51.20	-29.8	-32.1	13.4	1.37e-05	0	43	0	1178599424	19	4717
2026-01-29 09:42:20.39	39.48	50.83	-29.5	-31.5	13.7	4.50e-06	0	42	0	1188036608	19	4512
2026-01-29 09:42:23.41	37.67	50.42	-30.4	-32.7	12.3	2.29e-04	0	42	0	1197473792	21	4699
2026-01-29 09:42:26.43	35.91	49.99	-29.3	-31.0	14.0	7.00e-07	0	42	0	1206910976	19	4372
2026-01-29 09:42:29.43	34.22	49.54	-30.8	-33.8	11.5	9.25e-04	0	42	0	1216348160	21	5095
2026-01-29 09:42:32.45	32.56	49.07	-29.6	-31.3	13.4	2.74e-05	0	42	0	1225785344	20	4358
2026-01-29 09:42:35.45	30.97	48.58	-29.5	-31.9	13.8	2.20e-06	0	43	0	1235222528	18	4772
2026-01-29 09:42:38.46	29.42	48.07	-30.5	-33.1	12.0	3.96e-04	0	42	0	1244659712	21	4845
2026-01-29 09:42:41.47	27.92	47.55	-29.2	-30.7	14.2	0.00e+00	0	42	0	1254096896	19	4283
2026-01-29 09:42:44.48	26.48	47.01	-30.9	-34.1	11.4	8.98e-04	0	43	0	1263534080	21	5219
2026-01-29 09:42:47.49	25.08	46.46	-29.9	-31.6	12.9	6.94e-05	0	43	0	1272971264	21	4349
2026-01-29 09:42:50.50	23.74	45.89	-30.6	-33.2	11.9	2.41e-04	0	42	0	1282408448	21	4895
2026-01-29 09:42:53.51	22.44	45.32	-31.7	-35.4	9.7	1.07e-02	0	43	0	1291845632	23	5518
2026-01-29 09:42:56.52	21.19	44.74	-29.7	-31.4	13.3	5.56e-05	0	42	0	1300234240	20	4387
2026-01-29 09:42:59.54	19.98	44.16	-30.7	-33.7	11.5	3.69e-04	0	42	0	1310720000	21	5061
2026-01-29 09:43:02.54	18.82	43.57	-31.2	-34.0	10.6	5.88e-03	0	43	0	1320157184	23	4976
2026-01-29 09:43:05.54	17.70	42.98	-28.8	-30.2	14.6	3.80e-06	0	42	0	1328545792	18	4269
2026-01-29 09:43:08.54	16.63	42.38	-28.9	-30.6	14.4	0.00e+00	0	42	0	1337982976	18	4378
2026-01-29 09:43:11.55	15.59	41.79	-29.8	-31.8	12.9	6.86e-05	0	42	0	1347420160	20	4548
2026-01-29 09:43:14.58	14.58	41.19	-29.5	-31.5	13.5	4.50e-06	0	42	0	1356857344	19	4533
2026-01-29 09:43:17.59	13.61	40.59	-29.7	-32.1	13.2	2.59e-05	0	42	0	1366294528	19	4747
2026-01-29 09:43:20.61	12.68	39.99	-29.5	-31.5	13.5	1.29e-05	0	42	0	1375731712	19	4557
2026-01-29 09:43:23.60	11.79	39.40	-29.3	-31.1	13.6	7.60e-06	0	42	0	1385168896	19	4413
2026-01-29 09:43:26.61	10.93	38.81	-28.7	-30.2	14.6	0.00e+00	0	42	0	1394606080	18	4254
2026-01-29 09:43:29.63	10.10	38.22	-30.4	-33.4	11.9	2.59e-04	0	42	0	1404043264	20	5091
2026-01-29 09:43:32.65	9.29	37.63	-29.7	-31.5	13.1	4.19e-05	0	42	0	1413480448	20	4446
2026-01-29 09:43:35.65	8.52	37.05	-30.0	-32.3	12.6	7.47e-05	0	43	0	1422917632	20	4709
2026-01-29 09:43:38.66	7.77	36.47	-28.9	-30.1	14.3	4.50e-06	0	43	0	1432354816	19	4139
2026-01-29 09:43:41.67	7.06	35.90	-28.8	-30.3	14.4	0.00e+00	0	43	0	1441792000	18	4313
2026-01-29 09:43:44.67	6.36	35.33	-29.0	-31.0	14.0	2.20e-06	0	42	0	1451229184	18	4499
2026-01-29 09:43:47.68	5.69	34.77	-28.8	-30.4	14.4	1.50e-06	0	43	0	1460666368	18	4334
2026-01-29 09:43:50.70	5.04	34.21	-29.2	-31.4	13.7	3.80e-06	0	42	0	1470103552	18	4631
2026-01-29 09:43:53.71	4.42	33.66	-29.4	-31.8	13.5	8.30e-06	0	42	0	1479540736	18	4776
2026-01-29 09:43:56.71	3.81	33.12	-29.6	-31.9	13.2	1.44e-05	0	43	0	1488977920	19	4670
2026-01-29 09:43:59.72	3.23	32.58	-28.6	-30.0	14.6	1.50e-06	0	43	0	1498415104	18	4224
2026-01-29 09:44:02.73	2.66	32.05	-28.0	-29.1	15.3	0.00e+00	0	43	0	1507852288	17	4087
2026-01-29 09:44:05.74	2.12	31.52	-28.1	-29.2	15.3	0.00e+00	0	42	0	1517289472	17	4117
2026-01-29 09:44:08.74	1.59	31.01	-28.2	-29.6	15.0	0.00e+00	0	42	0	1526726656	17	4222
2026-01-29 09:44:11.76	1.08	30.49	-28.1	-29.4	15.1	0.00e+00	0	43	0	1536163840	17	4161
2026-01-29 09:44:14.78	0.58	29.98	-28.2	-29.4	15.1	0.00e+00	0	43	0	1545601024	17	4174
2026-01-29 09:44:17.79	0.10	29.48	-27.9	-28.8	15.5	0.00e+00	0	43	0	1555038208	17	4008
2026-01-29 09:44:20.81	359.63	28.99	-28.0	-29.2	15.3	0.00e+00	0	42	0	1564475392	17	4105
2026-01-29 09:44:23.82	359.18	28.50	-27.8	-28.7	15.5	0.00e+00	0	42	0	1573912576	17	3992
2026-01-29 09:44:26.84	358.74	28.02	-27.9	-28.9	15.4	0.00e+00	0	42	0	1583349760	17	4029
2026-01-29 09:44:29.84	358.32	27.55	-27.5	-28.5	15.8	0.00e+00	0	43	0	1592786944	16	4047
2026-01-29 09:44:32.85	357.90	27.08	-26.9	-27.7	16.4	0.00e+00	0	42	0	1602224128	15	3943
2026-01-29 09:44:35.86	357.51	26.62	-26.8	-27.5	16.5	0.00e+00	0	42	0	1611661312	15	3901
2026-01-29 09:44:38.87	357.12	26.16	-26.7	-27.8	16.6	0.00e+00	0	43	0	1621098496	14	4069
2026-01-29 09:44:41.88	356.74	25.71	-26.9	-28.2	16.4	0.00e+00	0	42	0	1630535680	14	4175
2026-01-29 09:44:44.89	356.37	25.27	-27.2	-28.9	16.0	0.00e+00	0	42	0	1639972864	14	4354
2026-01-29 09:44:47.90	356.02	24.83	-27.3	-29.0	15.9	7.00e-07	0	42	0	1648361472	14	4397
2026-01-29 09:44:50.91	355.67	24.40	-27.5	-29.0	15.6	0.00e+00	0	42	0	1657798656	15	4291
2026-01-29 09:44:53.92	355.34	23.98	-27.7	-29.4	15.4	0.00e+00	0	42	0	1667235840	15	4412
2026-01-29 09:44:56.94	355.01	23.56	-27.7	-29.5	15.3	0.00e+00	0	42	0	1676673024	15	4447
2026-01-29 09:44:59.95	354.69	23.14	-27.6	-29.3	15.5	7.00e-07	0	43	0	1686110208	15	4365
2026-01-29 09:45:02.96	354.38	22.74	-27.5	-28.9	15.6	0.00e+00	0	43	0	1695547392	15	4270
2026-01-29 09:45:05.97	354.08	22.33	-27.2	-28.2	16.0	0.00e+00	0	43	0	1704984576	15	4082
2026-01-29 09:45:08.98	353.79	21.94	-27.2	-28.3	16.0	0.00e+00	0	42	0	1714421760	15	4089
2026-01-29 09:45:11.98	353.50	21.55	-27.2	-28.4	15.9	0.00e+00	0	43	0	1723858944	15	4116
2026-01-29 09:45:14.99	353.22	21.16	-26.9	-27.6	16.3	0.00e+00	0	42	0	1733296128	15	3926
2026-01-29 09:45:18.01	352.95	20.78	-27.0	-28.0	16.1	0.00e+00	0	43	0	1742733312	15	4014
2026-01-29 09:45:21.00	352.69	20.40	-26.8	-27.9	16.4	0.00e+00	0	43	0	1752170496	14	4099
2026-01-29 09:45:24.00	352.43	20.03	-27.1	-28.6	16.0	0.00e+00	0	43	0	1761607680	14	4296
2026-01-29 09:45:27.02	352.18	19.66	-27.1	-28.6	16.0	7.00e-07	0	42	0	1771044864	14	4288
2026-01-29 09:45:30.04	351.93	19.30	-27.1	-28.6	16.0	0.00e+00	0	42	0	1780482048	14	4302
2026-01-29 09:45:33.04	351.69	18.95	-27.2	-29.0	15.8	0.00e+00	0	43	0	1789919232	14	4398
2026-01-29 09:45:36.04	351.46	18.59	-27.3	-29.2	15.6	0.00e+00	0	42	0	1799356416	14	4475
2026-01-29 09:45:39.04	351.23	18.25	-27.3	-29.2	15.6	0.00e+00	0	43	0	1808793600	14	4468
2026-01-29 09:45:42.05	351.01	17.90	-27.3	-29.2	15.6	0.00e+00	0	43	0	1818230784	14	4470
2026-01-29 09:45:45.07	350.79	17.56	-27.5	-29.5	15.4	0.00e+00	0	43	0	1827667968	14	4551
2026-01-29 09:45:48.07	350.58	17.23	-27.4	-29.4	15.4	0.00e+00	0	43	0	1837105152	14	4512
2026-01-29 09:45:51.09	350.37	16.90	-27.5	-29.0	15.4	0.00e+00	0	43	0	1846542336	15	4294
2026-01-29 09:45:54.10	350.17	16.57	-27.5	-29.1	15.3	0.00e+00	0	43	0	1855979520	15	4318
2026-01-29 09:45:57.12	349.97	16.24	-27.7	-29.5	15.1	0.00e+00	0	43	0	1865416704	15	4444
2026-01-29 09:46:00.13	349.78	15.93	-27.7	-29.7	14.9	0.00e+00	0	43	0	1874853888	15	4491
2026-01-29 09:46:03.14	349.59	15.61	-28.0	-30.2	14.6	0.00e+00	0	43	0	1884291072	15	4650
2026-01-29 09:46:06.15	349.40	15.30	-27.8	-29.9	14.8	0.00e+00	0	43	0	1893728256	15	4550
2026-01-29 09:46:09.17	349.22	14.99	-27.9	-30.1	14.7	7.00e-07	0	43	0	1903165440	15	4629
2026-01-29 09:46:12.18	349.04	14.68	-28.0	-30.2	14.6	1.50e-06	0	42	0	1912602624	15	4641
2026-01-29 09:46:15.17	348.87	14.38	-28.2	-30.1	14.5	7.00e-07	0	43	0	1922039808	16	4506
2026-01-29 09:46:18.20	348.70	14.09	-27.9	-29.6	14.8	0.00e+00	0	43	0	1931476992	16	4361
2026-01-29 09:46:21.20	348.54	13.79	-28.0	-29.8	14.6	0.00e+00	0	43	0	1940914176	16	4405
2026-01-29 09:46:24.21	348.37	13.50	-28.0	-29.8	14.6	0.00e+00	0	42	0	1949302784	16	4418
2026-01-29 09:46:27.23	348.21	13.21	-28.0	-29.8	14.6	0.00e+00	0	43	0	1959788544	16	4420
2026-01-29 09:46:30.24	348.06	12.93	-28.0	-29.7	14.6	0.00e+00	0	43	0	1968177152	16	4380
2026-01-29 09:46:33.25	347.90	12.65	-28.0	-29.7	14.6	0.00e+00	0	43	0	1977614336	16	4393
2026-01-29 09:46:36.27	347.75	12.37	-27.9	-29.6	14.7	1.50e-06	0	43	0	1988100096	16	4368
2026-01-29 09:46:39.28	347.61	12.09	-28.0	-29.8	14.5	0.00e+00	0	42	0	1996488704	16	4427
2026-01-29 09:46:42.28	347.46	11.82	-28.0	-29.8	14.5	1.50e-06	0	43	0	2005925888	16	4435
2026-01-29 09:46:45.29	347.32	11.55	-28.2	-30.2	14.2	2.20e-06	0	43	0	2015363072	16	4536
2026-01-29 09:46:48.29	347.18	11.28	-28.2	-30.2	14.2	0.00e+00	0	43	0	2024800256	16	4544
2026-01-29 09:46:51.31	347.05	11.02	-28.2	-30.4	14.1	4.50e-06	0	43	0	2034237440	16	4593
2026-01-29 09:46:54.31	346.92	10.75	-28.2	-30.3	14.1	1.50e-06	0	43	0	2043674624	16	4589
2026-01-29 09:46:57.32	346.79	10.50	-28.2	-30.3	14.1	7.00e-07	0	43	0	2053111808	16	4571
2026-01-29 09:47:00.33	346.66	10.24	-28.3	-30.4	14.0	3.00e-06	0	43	0	2062548992	16	4623
2026-01-29 09:47:03.34	346.53	9.98	-28.5	-31.0	13.7	2.20e-06	0	43	0	2071986176	16	4810
2026-01-29 09:47:06.35	346.41	9.73	-28.5	-30.9	13.7	8.30e-06	0	43	0	2081423360	16	4788
2026-01-29 09:47:09.37	346.29	9.48	-28.5	-30.5	13.6	6.10e-06	0	43	0	2090860544	17	4532
2026-01-29 09:47:12.38	346.17	9.24	-28.6	-30.7	13.4	1.98e-05	0	43	0	2100297728	17	4597
2026-01-29 09:47:15.39	346.05	8.99	-28.4	-30.4	13.6	1.06e-05	0	43	0	2109734912	17	4517
2026-01-29 09:47:18.40	345.94	8.75	-28.7	-31.0	13.2	2.74e-05	0	42	0	2119172096	17	4704
2026-01-29 09:47:21.40	345.83	8.51	-28.7	-30.9	13.2	1.83e-05	0	42	0	2128609280	17	4682
2026-01-29 09:47:24.42	345.72	8.27	-28.8	-31.3	13.0	2.97e-05	0	43	0	2138046464	17	4790
2026-01-29 09:47:27.43	345.61	8.03	-28.9	-31.6	12.7	7.17e-05	0	43	0	2147483648	17	4921
2026-01-29 09:47:30.44	345.50	7.80	-29.1	-31.5	12.5	9.53e-05	0	43	0	2156920832	18	4775
2026-01-29 09:47:33.46	345.40	7.57	-29.2	-31.9	12.3	2.42e-04	0	43	0	2166358016	18	4904
2026-01-29 09:47:36.47	345.30	7.34	-29.3	-32.1	12.0	2.05e-04	0	43	0	2175795200	18	4988
2026-01-29 09:47:39.49	345.19	7.11	-32.4	-39.6	5.5	6.03e-03	0	43	0	2185232384	24	8238

#Closed at: 2026-01-29 09:47:41
#Recorded file [2185 MB]: D:/data/31010_260129_123600.dat