passes_logs/2026/01/29/R2M6_AANII_01/R2M6_AANII_01__20260129_075805_NOAA_21_JPSS-2_rec.log

#Pass ID: 20260129_075805_NOAA 21 (JPSS-2)
#Satellite: NOAA 21 (JPSS-2)
#Configuration: NOAA 21
#almurnet v.1.7.20240730
#Start time: 2026-01-29 07:58:05

#Version: 2.2.20231116
#Station: R2M6_AANII_01
#Location: 30.233357 lon 59.946436 lat
#TLE: 1 54234U 22150A   26027.91149249  .00000141  00000+0  87546-4 0  9993
#TLE: 2 54234  98.7510 328.6558 0000880 202.8718 157.2419 14.19540177166642

#Time	Az	El	Level	Level2	SNR	BER	BlckErr	Temp	State	Recorded	gain1	gain2
2026-01-29 07:58:05.93	87.00	7.04	-32.1	-39.6	4.0	1.47e+00	0	40	0	0	25	8513
2026-01-29 07:58:08.94	86.67	7.21	-31.5	-36.2	6.9	1.73e-01	0	40	0	3145728	24	6168
2026-01-29 07:58:11.95	86.34	7.39	-31.5	-36.2	6.8	1.81e-01	0	41	0	12582912	24	6198
2026-01-29 07:58:14.96	86.00	7.56	-31.2	-35.7	7.6	1.09e-01	0	41	0	22020096	23	5995
2026-01-29 07:58:17.96	85.66	7.73	-30.0	-32.8	10.3	7.55e-03	0	41	0	30408704	21	4964
2026-01-29 07:58:20.97	85.31	7.91	-28.9	-30.7	12.5	1.18e-04	0	41	0	39845888	19	4443
2026-01-29 07:58:23.98	84.96	8.08	-28.7	-30.7	12.8	5.03e-05	0	41	0	49283072	18	4523
2026-01-29 07:58:26.99	84.61	8.25	-28.8	-30.9	12.8	8.54e-05	0	41	0	58720256	18	4594
2026-01-29 07:58:30.00	84.25	8.43	-29.0	-31.3	12.5	8.62e-05	0	41	0	68157440	18	4715
2026-01-29 07:58:33.02	83.89	8.60	-28.5	-30.2	13.3	2.28e-05	0	41	0	77594624	18	4361
2026-01-29 07:58:36.03	83.52	8.78	-28.5	-30.1	13.3	1.75e-05	0	41	0	87031808	18	4344
2026-01-29 07:58:39.04	83.15	8.95	-28.4	-30.0	13.5	1.67e-05	0	41	0	96468992	18	4293
2026-01-29 07:58:42.07	82.77	9.13	-28.4	-29.8	13.5	1.37e-05	0	41	0	105906176	18	4261
2026-01-29 07:58:45.07	82.39	9.30	-28.3	-29.7	13.6	9.90e-06	0	41	0	115343360	18	4222
2026-01-29 07:58:48.08	82.00	9.48	-28.3	-29.7	13.6	1.14e-05	0	42	0	124780544	18	4221
2026-01-29 07:58:51.09	81.61	9.65	-28.2	-29.9	13.8	6.80e-06	0	42	0	134217728	17	4366
2026-01-29 07:58:54.10	81.22	9.83	-28.0	-29.4	14.1	4.50e-06	0	42	0	143654912	17	4241
2026-01-29 07:58:57.10	80.82	10.00	-28.0	-29.5	14.1	1.50e-06	0	42	0	153092096	17	4254
2026-01-29 07:59:00.11	80.42	10.17	-28.1	-29.5	14.1	3.00e-06	0	42	0	162529280	17	4261
2026-01-29 07:59:03.11	80.01	10.35	-28.0	-29.3	14.2	1.50e-06	0	42	0	171966464	17	4204
2026-01-29 07:59:06.13	79.59	10.52	-28.1	-29.7	14.0	2.20e-06	0	42	0	181403648	17	4302
2026-01-29 07:59:09.15	79.17	10.70	-28.3	-30.2	13.8	3.00e-06	0	42	0	190840832	17	4450
2026-01-29 07:59:12.16	78.75	10.87	-28.4	-30.3	13.7	4.50e-06	0	42	0	200278016	17	4491
2026-01-29 07:59:15.17	78.32	11.04	-28.1	-29.6	14.1	7.00e-07	0	42	0	209715200	17	4275
2026-01-29 07:59:18.17	77.88	11.22	-28.0	-29.4	14.3	1.50e-06	0	42	0	219152384	17	4229
2026-01-29 07:59:21.17	77.44	11.39	-28.1	-29.7	14.1	7.00e-07	0	42	0	228589568	17	4294
2026-01-29 07:59:24.18	77.00	11.56	-28.1	-29.5	14.2	7.00e-07	0	42	0	238026752	17	4253
2026-01-29 07:59:27.19	76.55	11.73	-28.1	-29.6	14.2	3.00e-06	0	42	0	247463936	17	4275
2026-01-29 07:59:30.21	76.09	11.90	-28.1	-29.7	14.2	1.50e-06	0	42	0	256901120	17	4297
2026-01-29 07:59:33.22	75.63	12.07	-28.3	-30.0	14.0	7.00e-07	0	42	0	266338304	17	4378
2026-01-29 07:59:36.24	75.16	12.24	-28.3	-30.0	14.0	3.00e-06	0	42	0	275775488	17	4386
2026-01-29 07:59:39.24	74.69	12.41	-28.2	-29.8	14.1	2.20e-06	0	42	0	285212672	17	4327
2026-01-29 07:59:42.27	74.21	12.58	-28.2	-29.8	14.2	1.50e-06	0	42	0	294649856	17	4326
2026-01-29 07:59:45.27	73.72	12.75	-28.2	-29.8	14.1	2.20e-06	0	42	0	304087040	17	4338
2026-01-29 07:59:48.28	73.23	12.91	-28.3	-30.0	14.1	1.50e-06	0	42	0	313524224	17	4383
2026-01-29 07:59:51.30	72.74	13.08	-28.1	-29.6	14.3	7.00e-07	0	42	0	322961408	17	4284
2026-01-29 07:59:54.32	72.24	13.24	-28.1	-29.6	14.3	7.00e-07	0	42	0	332398592	17	4257
2026-01-29 07:59:57.32	71.73	13.41	-28.1	-29.4	14.4	0.00e+00	0	42	0	341835776	17	4211
2026-01-29 08:00:00.33	71.22	13.57	-27.9	-29.1	14.6	0.00e+00	0	42	0	350224384	17	4139
2026-01-29 08:00:03.34	70.70	13.73	-28.2	-29.8	14.2	0.00e+00	0	42	0	360710144	17	4311
2026-01-29 08:00:06.35	70.18	13.89	-28.3	-30.0	14.2	7.00e-07	0	42	0	370147328	17	4370
2026-01-29 08:00:09.35	69.65	14.05	-28.4	-30.3	14.0	7.60e-06	0	42	0	378535936	17	4470
2026-01-29 08:00:12.37	69.12	14.20	-28.2	-29.6	14.4	7.00e-07	0	43	0	387973120	17	4265
2026-01-29 08:00:15.38	68.58	14.36	-28.1	-29.5	14.5	0.00e+00	0	42	0	397410304	17	4227
2026-01-29 08:00:18.39	68.03	14.51	-28.1	-29.5	14.5	7.00e-07	0	43	0	406847488	17	4241
2026-01-29 08:00:21.40	67.48	14.66	-28.0	-29.4	14.6	0.00e+00	0	42	0	416284672	17	4192
2026-01-29 08:00:24.42	66.92	14.81	-28.1	-29.5	14.5	7.00e-07	0	42	0	425721856	17	4222
2026-01-29 08:00:27.43	66.36	14.96	-28.1	-29.4	14.6	0.00e+00	0	43	0	435159040	17	4200
2026-01-29 08:00:30.42	65.79	15.11	-28.1	-29.4	14.6	0.00e+00	0	43	0	444596224	17	4193
2026-01-29 08:00:33.44	65.22	15.25	-28.1	-29.5	14.6	0.00e+00	0	43	0	454033408	17	4225
2026-01-29 08:00:36.44	64.64	15.39	-28.1	-29.5	14.6	7.00e-07	0	43	0	463470592	17	4237
2026-01-29 08:00:39.46	64.05	15.53	-28.0	-29.2	14.7	0.00e+00	0	43	0	472907776	17	4149
2026-01-29 08:00:42.47	63.46	15.67	-28.2	-29.8	14.4	2.20e-06	0	43	0	482344960	17	4308
2026-01-29 08:00:45.49	62.86	15.81	-28.3	-29.9	14.4	1.50e-06	0	43	0	491782144	17	4328
2026-01-29 08:00:48.49	62.26	15.94	-27.9	-29.0	14.9	0.00e+00	0	43	0	501219328	17	4084
2026-01-29 08:00:51.51	61.66	16.07	-28.2	-29.6	14.6	0.00e+00	0	43	0	510656512	17	4245
2026-01-29 08:00:54.52	61.04	16.20	-27.6	-28.9	15.3	0.00e+00	0	43	0	520093696	16	4149
2026-01-29 08:00:57.55	60.42	16.33	-27.5	-28.5	15.5	0.00e+00	0	43	0	529530880	16	4061
2026-01-29 08:01:00.56	59.80	16.45	-27.6	-28.8	15.3	0.00e+00	0	43	0	538968064	16	4137
2026-01-29 08:01:03.57	59.17	16.57	-27.7	-29.1	15.2	7.00e-07	0	43	0	548405248	16	4216
2026-01-29 08:01:06.58	58.54	16.68	-28.0	-29.7	14.8	0.00e+00	0	43	0	557842432	16	4397
2026-01-29 08:01:09.59	57.90	16.80	-27.9	-29.6	14.9	0.00e+00	0	43	0	567279616	16	4345
2026-01-29 08:01:12.60	57.26	16.91	-27.8	-29.4	15.0	0.00e+00	0	43	0	576716800	16	4287
2026-01-29 08:01:15.62	56.61	17.02	-27.5	-28.6	15.4	0.00e+00	0	43	0	586153984	16	4084
2026-01-29 08:01:18.62	55.96	17.12	-27.4	-28.3	15.6	0.00e+00	0	43	0	595591168	16	3997
2026-01-29 08:01:21.63	55.31	17.22	-27.4	-28.4	15.6	0.00e+00	0	43	0	605028352	16	4026
2026-01-29 08:01:24.63	54.65	17.32	-27.5	-28.6	15.5	0.00e+00	0	43	0	614465536	16	4078
2026-01-29 08:01:27.65	53.98	17.41	-27.6	-28.9	15.3	0.00e+00	0	43	0	623902720	16	4149
2026-01-29 08:01:30.65	53.31	17.50	-27.6	-28.7	15.4	0.00e+00	0	43	0	633339904	16	4111
2026-01-29 08:01:33.67	52.64	17.59	-27.7	-29.1	15.2	0.00e+00	0	43	0	642777088	16	4217
2026-01-29 08:01:36.69	51.96	17.67	-27.7	-29.0	15.3	0.00e+00	0	43	0	652214272	16	4189
2026-01-29 08:01:39.71	51.28	17.75	-27.7	-28.9	15.3	0.00e+00	0	43	0	661651456	16	4170
2026-01-29 08:01:42.72	50.60	17.82	-27.6	-28.8	15.4	0.00e+00	0	43	0	671088640	16	4136
2026-01-29 08:01:45.73	49.91	17.89	-27.7	-29.0	15.3	0.00e+00	0	43	0	680525824	16	4183
2026-01-29 08:01:48.74	49.22	17.96	-27.6	-28.9	15.4	0.00e+00	0	43	0	689963008	16	4145
2026-01-29 08:01:51.73	48.53	18.02	-27.7	-29.1	15.2	0.00e+00	0	43	0	699400192	16	4202
2026-01-29 08:01:54.74	47.84	18.08	-27.8	-29.3	15.1	0.00e+00	0	43	0	708837376	16	4266
2026-01-29 08:01:57.75	47.14	18.13	-27.6	-28.8	15.4	0.00e+00	0	43	0	718274560	16	4124
2026-01-29 08:02:00.75	46.44	18.18	-27.7	-28.9	15.3	0.00e+00	0	43	0	726663168	16	4165
2026-01-29 08:02:03.77	45.74	18.23	-27.6	-28.8	15.4	0.00e+00	0	43	0	736100352	16	4117
2026-01-29 08:02:06.77	45.03	18.27	-27.7	-28.9	15.3	0.00e+00	0	43	0	745537536	16	4164
2026-01-29 08:02:09.78	44.33	18.30	-27.6	-28.9	15.4	7.00e-07	0	43	0	754974720	16	4154
2026-01-29 08:02:12.80	43.62	18.34	-27.7	-28.9	15.3	0.00e+00	0	43	0	764411904	16	4161
2026-01-29 08:02:15.80	42.91	18.36	-27.7	-29.0	15.3	7.00e-07	0	43	0	773849088	16	4181
2026-01-29 08:02:18.81	42.20	18.39	-27.9	-29.5	15.0	0.00e+00	0	43	0	783286272	16	4314
2026-01-29 08:02:21.82	41.49	18.41	-27.8	-29.3	15.1	0.00e+00	0	43	0	792723456	16	4272
2026-01-29 08:02:24.83	40.78	18.42	-27.8	-29.3	15.1	0.00e+00	0	43	0	802160640	16	4258
2026-01-29 08:02:27.83	40.07	18.43	-27.6	-28.8	15.4	0.00e+00	0	43	0	811597824	16	4117
2026-01-29 08:02:30.85	39.35	18.43	-27.9	-29.4	15.0	0.00e+00	0	43	0	821035008	16	4288
2026-01-29 08:02:33.86	38.64	18.43	-27.5	-28.6	15.4	0.00e+00	0	43	0	830472192	16	4077
2026-01-29 08:02:36.87	37.93	18.43	-27.6	-28.9	15.3	0.00e+00	0	43	0	839909376	16	4157
2026-01-29 08:02:39.87	37.22	18.42	-27.6	-28.9	15.3	0.00e+00	0	43	0	849346560	16	4153
2026-01-29 08:02:42.87	36.51	18.41	-27.5	-28.5	15.5	0.00e+00	0	43	0	858783744	16	4062
2026-01-29 08:02:45.90	35.79	18.39	-27.5	-28.5	15.5	0.00e+00	0	43	0	868220928	16	4066
2026-01-29 08:02:48.90	35.09	18.37	-27.5	-28.6	15.4	0.00e+00	0	43	0	877658112	16	4085
2026-01-29 08:02:51.90	34.38	18.34	-27.5	-28.6	15.4	0.00e+00	0	43	0	887095296	16	4093
2026-01-29 08:02:54.91	33.67	18.31	-27.6	-28.8	15.4	0.00e+00	0	43	0	896532480	16	4122
2026-01-29 08:02:57.91	32.97	18.27	-27.6	-28.8	15.4	0.00e+00	0	43	0	905969664	16	4123
2026-01-29 08:03:00.93	32.26	18.23	-27.6	-28.9	15.3	0.00e+00	0	43	0	915406848	16	4151
2026-01-29 08:03:03.95	31.56	18.18	-27.6	-28.8	15.3	0.00e+00	0	43	0	924844032	16	4143
2026-01-29 08:03:06.95	30.86	18.14	-27.5	-28.6	15.4	0.00e+00	0	43	0	934281216	16	4081
2026-01-29 08:03:09.96	30.16	18.08	-27.4	-28.4	15.5	0.00e+00	0	43	0	943718400	16	4030
2026-01-29 08:03:12.97	29.47	18.02	-27.3	-28.2	15.6	0.00e+00	0	43	0	953155584	16	3967
2026-01-29 08:03:15.97	28.78	17.96	-27.1	-28.2	15.7	0.00e+00	0	43	0	962592768	15	4082
2026-01-29 08:03:18.99	28.09	17.90	-27.1	-28.2	15.7	0.00e+00	0	43	0	972029952	15	4096
2026-01-29 08:03:22.00	27.40	17.83	-27.2	-28.4	15.6	0.00e+00	0	43	0	981467136	15	4145
2026-01-29 08:03:25.02	26.72	17.75	-27.3	-28.6	15.5	0.00e+00	0	43	0	990904320	15	4194
2026-01-29 08:03:28.03	26.04	17.67	-27.2	-28.5	15.5	0.00e+00	0	43	0	999292928	15	4175
2026-01-29 08:03:31.04	25.36	17.59	-27.4	-28.9	15.4	0.00e+00	0	43	0	1009778688	15	4264
2026-01-29 08:03:34.06	24.69	17.50	-27.4	-28.9	15.3	0.00e+00	0	43	0	1019215872	15	4270
2026-01-29 08:03:37.07	24.02	17.42	-27.4	-28.9	15.3	0.00e+00	0	43	0	1027604480	15	4266
2026-01-29 08:03:40.08	23.36	17.32	-27.3	-28.6	15.5	0.00e+00	0	43	0	1038090240	15	4190
2026-01-29 08:03:43.10	22.70	17.23	-27.3	-28.7	15.4	0.00e+00	0	43	0	1046478848	15	4216
2026-01-29 08:03:46.10	22.05	17.13	-27.2	-28.5	15.5	0.00e+00	0	43	0	1055916032	15	4173
2026-01-29 08:03:49.11	21.40	17.02	-27.2	-28.4	15.5	0.00e+00	0	43	0	1065353216	15	4151
2026-01-29 08:03:52.13	20.75	16.91	-27.3	-28.7	15.4	0.00e+00	0	43	0	1074790400	15	4232
2026-01-29 08:03:55.13	20.11	16.80	-27.3	-28.7	15.3	0.00e+00	0	43	0	1084227584	15	4235
2026-01-29 08:03:58.14	19.47	16.69	-27.3	-28.6	15.4	0.00e+00	0	43	0	1093664768	15	4205
2026-01-29 08:04:01.15	18.84	16.58	-27.2	-28.5	15.5	0.00e+00	0	43	0	1103101952	15	4159
2026-01-29 08:04:04.16	18.21	16.46	-27.2	-28.5	15.5	0.00e+00	0	43	0	1112539136	15	4172
2026-01-29 08:04:07.18	17.59	16.33	-27.2	-28.6	15.4	7.00e-07	0	43	0	1121976320	15	4187
2026-01-29 08:04:10.19	16.98	16.21	-27.2	-28.5	15.4	0.00e+00	0	43	0	1131413504	15	4178
2026-01-29 08:04:13.20	16.37	16.08	-27.1	-28.2	15.6	0.00e+00	0	43	0	1140850688	15	4084
2026-01-29 08:04:16.20	15.76	15.95	-27.2	-28.5	15.4	0.00e+00	0	43	0	1150287872	15	4179
2026-01-29 08:04:19.21	15.16	15.82	-27.5	-29.2	15.0	0.00e+00	0	43	0	1159725056	15	4377
2026-01-29 08:04:22.22	14.57	15.68	-27.6	-29.4	14.9	7.00e-07	0	43	0	1169162240	15	4415
2026-01-29 08:04:25.24	13.98	15.55	-27.6	-29.4	14.9	0.00e+00	0	43	0	1178599424	15	4416
2026-01-29 08:04:28.25	13.39	15.41	-27.7	-29.7	14.7	0.00e+00	0	43	0	1188036608	15	4502
2026-01-29 08:04:31.27	12.81	15.26	-27.6	-29.5	14.8	0.00e+00	0	43	0	1197473792	15	4451
2026-01-29 08:04:34.29	12.24	15.12	-27.5	-29.1	15.0	0.00e+00	0	43	0	1206910976	15	4354
2026-01-29 08:04:37.31	11.67	14.97	-27.6	-29.4	14.9	0.00e+00	0	43	0	1216348160	15	4421
2026-01-29 08:04:40.31	11.11	14.83	-27.6	-29.5	14.8	7.00e-07	0	43	0	1225785344	15	4442
2026-01-29 08:04:43.34	10.55	14.67	-27.9	-30.1	14.4	7.00e-07	0	43	0	1235222528	15	4630
2026-01-29 08:04:46.35	10.00	14.52	-27.8	-29.8	14.6	0.00e+00	0	43	0	1244659712	15	4537
2026-01-29 08:04:49.36	9.46	14.37	-27.9	-30.1	14.5	0.00e+00	0	43	0	1254096896	15	4627
2026-01-29 08:04:52.36	8.92	14.22	-27.9	-29.5	14.7	0.00e+00	0	43	0	1263534080	16	4329
2026-01-29 08:04:55.38	8.39	14.06	-28.0	-29.7	14.5	0.00e+00	0	43	0	1272971264	16	4412
2026-01-29 08:04:58.39	7.86	13.90	-28.1	-30.1	14.3	3.00e-06	0	43	0	1282408448	16	4512
2026-01-29 08:05:01.41	7.34	13.74	-27.8	-29.5	14.6	7.00e-07	0	43	0	1291845632	16	4335
2026-01-29 08:05:04.42	6.82	13.58	-27.8	-29.3	14.7	1.50e-06	0	43	0	1301282816	16	4278
2026-01-29 08:05:07.42	6.31	13.42	-27.7	-29.2	14.7	0.00e+00	0	43	0	1310720000	16	4271
2026-01-29 08:05:10.43	5.81	13.26	-28.0	-29.9	14.3	7.00e-07	0	43	0	1320157184	16	4473
2026-01-29 08:05:13.43	5.31	13.10	-28.1	-30.0	14.3	1.50e-06	0	43	0	1329594368	16	4495
2026-01-29 08:05:16.46	4.82	12.93	-28.0	-29.8	14.4	1.50e-06	0	43	0	1339031552	16	4433
2026-01-29 08:05:19.48	4.33	12.76	-28.0	-29.9	14.3	7.00e-07	0	43	0	1348468736	16	4478
2026-01-29 08:05:22.49	3.85	12.60	-28.0	-29.8	14.3	1.50e-06	0	43	0	1357905920	16	4450
2026-01-29 08:05:25.49	3.37	12.43	-28.1	-30.0	14.2	0.00e+00	0	43	0	1367343104	16	4501
2026-01-29 08:05:28.51	2.90	12.26	-28.2	-30.3	14.0	1.50e-06	0	43	0	1376780288	16	4583
2026-01-29 08:05:31.52	2.43	12.09	-28.2	-30.3	14.0	7.00e-07	0	43	0	1386217472	16	4600
2026-01-29 08:05:34.54	1.97	11.92	-28.1	-30.0	14.2	1.50e-06	0	43	0	1395654656	16	4502
2026-01-29 08:05:37.54	1.52	11.75	-28.1	-30.0	14.2	2.20e-06	0	43	0	1405091840	16	4490
2026-01-29 08:05:40.55	1.07	11.58	-28.1	-30.2	14.1	7.00e-07	0	43	0	1414529024	16	4554
2026-01-29 08:05:43.57	0.63	11.41	-28.1	-30.2	14.0	3.00e-06	0	43	0	1422917632	16	4561
2026-01-29 08:05:46.56	0.19	11.24	-28.2	-30.4	13.9	2.20e-06	0	43	0	1432354816	16	4616
2026-01-29 08:05:49.57	359.76	11.07	-28.2	-30.4	13.9	6.10e-06	0	43	0	1441792000	16	4624
2026-01-29 08:05:52.58	359.33	10.89	-28.2	-30.5	13.9	3.80e-06	0	43	0	1451229184	16	4643
2026-01-29 08:05:55.58	358.91	10.72	-28.3	-30.5	13.8	6.10e-06	0	43	0	1460666368	16	4668
2026-01-29 08:05:58.59	358.49	10.55	-28.3	-30.5	13.8	2.20e-06	0	43	0	1470103552	16	4647
2026-01-29 08:06:01.60	358.08	10.37	-28.2	-30.5	13.8	3.80e-06	0	43	0	1479540736	16	4656
2026-01-29 08:06:04.61	357.67	10.20	-28.4	-30.9	13.5	9.90e-06	0	43	0	1488977920	16	4778
2026-01-29 08:06:07.62	357.27	10.03	-28.5	-30.6	13.4	1.14e-05	0	43	0	1498415104	17	4580
2026-01-29 08:06:10.63	356.87	9.85	-28.5	-30.6	13.3	1.75e-05	0	43	0	1507852288	17	4596
2026-01-29 08:06:13.63	356.48	9.68	-28.4	-30.4	13.4	1.37e-05	0	43	0	1517289472	17	4528
2026-01-29 08:06:16.64	356.09	9.50	-28.4	-30.4	13.4	9.90e-06	0	43	0	1526726656	17	4528
2026-01-29 08:06:19.64	355.71	9.33	-28.5	-30.7	13.3	2.67e-05	0	43	0	1536163840	17	4604
2026-01-29 08:06:22.65	355.33	9.16	-28.8	-31.3	12.9	4.73e-05	0	43	0	1545601024	17	4805
2026-01-29 08:06:25.66	354.95	8.98	-28.9	-31.7	12.6	7.62e-05	0	43	0	1555038208	17	4953
2026-01-29 08:06:28.66	354.59	8.81	-28.8	-30.9	12.8	6.48e-05	0	43	0	1564475392	18	4566
2026-01-29 08:06:31.67	354.22	8.63	-28.7	-30.7	13.0	4.34e-05	0	43	0	1573912576	18	4498
2026-01-29 08:06:34.69	353.86	8.46	-28.7	-30.7	12.9	5.79e-05	0	43	0	1583349760	18	4512
2026-01-29 08:06:37.70	353.50	8.29	-28.7	-30.6	12.9	4.19e-05	0	43	0	1592786944	18	4492
2026-01-29 08:06:40.72	353.15	8.11	-28.8	-30.9	12.8	7.01e-05	0	43	0	1602224128	18	4573
2026-01-29 08:06:43.74	352.80	7.94	-29.0	-31.3	12.5	1.33e-04	0	43	0	1611661312	18	4707
2026-01-29 08:06:46.75	352.46	7.76	-28.9	-31.1	12.6	1.21e-04	0	43	0	1621098496	18	4650
2026-01-29 08:06:49.76	352.12	7.59	-28.9	-31.1	12.5	1.17e-04	0	43	0	1630535680	18	4665
2026-01-29 08:06:52.77	351.78	7.42	-28.7	-30.6	12.9	5.03e-05	0	43	0	1639972864	18	4481
2026-01-29 08:06:55.79	351.45	7.24	-28.8	-30.8	12.7	6.40e-05	0	43	0	1649410048	18	4549
2026-01-29 08:06:58.81	351.12	7.07	-28.8	-31.0	12.5	1.14e-04	0	43	0	1658847232	18	4639

#Closed at: 2026-01-29 08:07:01
#Recorded file [1660 MB]: D:/data/31010_260129_105807.dat