passes_logs/2026/01/29/R2M6_AANII_01/R2M6_AANII_01__20260129_100529_SUOMI_NPP_rec.log

#Pass ID: 20260129_100529_SUOMI NPP
#Satellite: SUOMI NPP
#Configuration: NPP
#almurnet v.1.7.20240730
#Start time: 2026-01-29 10:05:30

#Version: 2.2.20231116
#Station: R2M6_AANII_01
#Location: 30.233357 lon 59.946436 lat
#TLE: 1 37849U 11061A   26027.93236865  .00000148  00000+0  91411-4 0  9991
#TLE: 2 37849  98.7823 329.8704 0002085  41.3231 318.8102 14.19530777738546

#Time	Az	El	Level	Level2	SNR	BER	BlckErr	Temp	State	Recorded	gain1	gain2
2026-01-29 10:05:30.02	150.62	7.02	-31.2	-35.7	5.0	1.30e+00	0	40	0	0	23	6058
2026-01-29 10:05:33.02	150.58	7.26	-31.6	-36.3	7.7	8.10e-02	0	40	0	1048576	23	6223
2026-01-29 10:05:36.03	150.54	7.49	-31.2	-34.4	9.3	2.61e-02	0	40	0	7340032	23	5232
2026-01-29 10:05:39.04	150.51	7.73	-31.1	-34.2	9.5	1.49e-02	0	40	0	12582912	23	5148
2026-01-29 10:05:42.05	150.47	7.97	-31.2	-34.6	9.1	1.68e-02	0	40	0	17825792	23	5361
2026-01-29 10:05:45.06	150.43	8.21	-30.7	-33.4	10.5	5.58e-03	0	41	0	24117248	22	4913
2026-01-29 10:05:48.07	150.39	8.46	-31.0	-34.0	10.1	5.29e-03	0	40	0	29360128	22	5130
2026-01-29 10:05:51.08	150.35	8.71	-30.8	-33.6	10.5	3.74e-03	0	41	0	35651584	22	4960
2026-01-29 10:05:54.08	150.30	8.96	-30.6	-32.8	11.1	1.95e-03	0	41	0	40894464	22	4642
2026-01-29 10:05:57.08	150.26	9.21	-30.3	-31.8	11.8	6.60e-04	0	41	0	46137344	22	4292
2026-01-29 10:06:00.09	150.22	9.46	-30.1	-31.8	12.2	3.78e-04	0	41	0	52428800	21	4387
2026-01-29 10:06:03.10	150.17	9.72	-30.1	-31.8	12.1	2.32e-04	0	41	0	57671680	21	4414
2026-01-29 10:06:06.11	150.12	9.98	-30.0	-31.9	12.1	2.61e-04	0	41	0	62914560	21	4436
2026-01-29 10:06:09.12	150.08	10.24	-30.1	-32.1	12.0	2.91e-04	0	41	0	69206016	21	4507
2026-01-29 10:06:12.14	150.03	10.51	-30.2	-32.1	12.1	2.80e-04	0	41	0	74448896	21	4485
2026-01-29 10:06:15.14	149.98	10.78	-30.1	-31.7	12.4	1.43e-04	0	41	0	80740352	21	4325
2026-01-29 10:06:18.14	149.93	11.05	-30.0	-31.3	12.8	5.64e-05	0	41	0	85983232	21	4176
2026-01-29 10:06:21.15	149.88	11.33	-29.8	-30.7	13.2	3.73e-05	0	41	0	91226112	21	3980
2026-01-29 10:06:24.15	149.83	11.60	-29.8	-31.1	13.3	1.90e-05	0	41	0	97517568	20	4185
2026-01-29 10:06:27.16	149.77	11.88	-29.9	-31.4	13.1	2.28e-05	0	41	0	102760448	20	4286
2026-01-29 10:06:30.17	149.72	12.17	-30.0	-31.7	12.9	4.19e-05	0	41	0	109051904	20	4404
2026-01-29 10:06:33.18	149.66	12.46	-30.0	-31.7	12.9	4.42e-05	0	42	0	114294784	20	4380
2026-01-29 10:06:36.19	149.60	12.75	-30.1	-32.0	12.8	4.88e-05	0	41	0	119537664	20	4466
2026-01-29 10:06:39.19	149.55	13.04	-29.5	-30.3	13.9	1.37e-05	0	41	0	125829120	20	3927
2026-01-29 10:06:42.20	149.49	13.34	-29.4	-30.0	14.1	6.80e-06	0	42	0	131072000	20	3866
2026-01-29 10:06:45.21	149.42	13.64	-29.5	-30.8	14.0	9.10e-06	0	42	0	136314880	19	4173
2026-01-29 10:06:48.22	149.36	13.95	-29.7	-31.4	13.6	3.00e-06	0	42	0	142606336	19	4389
2026-01-29 10:06:51.23	149.30	14.26	-29.9	-31.9	13.3	9.10e-06	0	41	0	147849216	19	4528
2026-01-29 10:06:54.24	149.23	14.57	-29.7	-30.7	13.8	1.06e-05	0	42	0	154140672	20	4036
2026-01-29 10:06:57.23	149.16	14.89	-29.7	-30.7	13.8	1.06e-05	0	42	0	159383552	20	4021
2026-01-29 10:07:00.24	149.09	15.21	-29.3	-30.1	14.6	4.50e-06	0	42	0	164626432	19	3937
2026-01-29 10:07:03.25	149.02	15.53	-29.4	-30.4	14.4	1.50e-06	0	42	0	170917888	19	4041
2026-01-29 10:07:06.26	148.95	15.86	-29.8	-31.5	13.7	3.00e-06	0	42	0	176160768	19	4378
2026-01-29 10:07:09.27	148.88	16.20	-29.7	-31.1	14.0	3.00e-06	0	42	0	181403648	19	4248
2026-01-29 10:07:12.28	148.80	16.54	-29.5	-30.7	14.2	7.00e-07	0	42	0	187695104	19	4132
2026-01-29 10:07:15.29	148.72	16.88	-29.5	-30.6	14.4	7.00e-07	0	42	0	192937984	19	4094
2026-01-29 10:07:18.31	148.64	17.23	-29.9	-31.5	13.9	2.20e-06	0	42	0	199229440	19	4346
2026-01-29 10:07:21.31	148.56	17.58	-29.8	-31.3	14.0	3.80e-06	0	42	0	204472320	19	4273
2026-01-29 10:07:24.33	148.47	17.94	-29.9	-31.1	13.8	5.30e-06	0	42	0	209715200	20	4147
2026-01-29 10:07:27.34	148.39	18.31	-29.6	-30.2	14.4	7.00e-07	0	42	0	216006656	20	3863
2026-01-29 10:07:30.35	148.30	18.68	-29.4	-29.8	14.7	0.00e+00	0	42	0	221249536	20	3755
2026-01-29 10:07:33.36	148.21	19.05	-29.5	-30.0	14.5	0.00e+00	0	42	0	226492416	20	3824
2026-01-29 10:07:36.37	148.11	19.44	-29.8	-30.9	14.0	3.80e-06	0	42	0	232783872	20	4064
2026-01-29 10:07:39.38	148.02	19.82	-29.9	-31.0	14.0	5.30e-06	0	42	0	238026752	20	4098
2026-01-29 10:07:42.40	147.92	20.22	-29.5	-29.8	14.8	7.00e-07	0	42	0	244318208	20	3758
2026-01-29 10:07:45.41	147.81	20.62	-29.5	-29.9	14.8	0.00e+00	0	42	0	249561088	20	3764
2026-01-29 10:07:48.42	147.71	21.02	-29.5	-29.9	14.8	0.00e+00	0	42	0	254803968	20	3781
2026-01-29 10:07:51.42	147.60	21.43	-29.4	-29.7	14.9	0.00e+00	0	42	0	261095424	20	3719
2026-01-29 10:07:54.43	147.49	21.85	-29.3	-29.9	15.2	0.00e+00	0	42	0	266338304	19	3850
2026-01-29 10:07:57.44	147.37	22.28	-29.3	-29.9	15.3	0.00e+00	0	42	0	272629760	19	3845
2026-01-29 10:08:00.45	147.26	22.71	-29.5	-30.4	14.9	0.00e+00	0	42	0	277872640	19	3999
2026-01-29 10:08:03.46	147.13	23.15	-29.5	-30.5	14.8	0.00e+00	0	42	0	283115520	19	4017
2026-01-29 10:08:06.46	147.01	23.59	-29.7	-30.9	14.7	0.00e+00	0	42	0	289406976	19	4131
2026-01-29 10:08:09.47	146.88	24.05	-29.3	-29.8	15.4	0.00e+00	0	42	0	294649856	19	3825
2026-01-29 10:08:12.49	146.74	24.51	-29.4	-30.1	15.2	0.00e+00	0	42	0	300941312	19	3899
2026-01-29 10:08:15.50	146.61	24.98	-29.9	-30.8	14.3	7.00e-07	0	42	0	306184192	20	4015
2026-01-29 10:08:18.50	146.46	25.46	-30.1	-31.2	14.1	1.50e-06	0	42	0	311427072	20	4113
2026-01-29 10:08:21.52	146.32	25.95	-30.0	-31.2	14.3	0.00e+00	0	42	0	317718528	20	4097
2026-01-29 10:08:24.52	146.17	26.45	-30.2	-31.7	14.0	1.50e-06	0	42	0	322961408	20	4244
2026-01-29 10:08:27.53	146.01	26.95	-30.6	-32.1	13.4	1.14e-05	0	42	0	328204288	21	4289
2026-01-29 10:08:30.54	145.85	27.47	-30.9	-32.9	12.8	5.26e-05	0	42	0	334495744	21	4553
2026-01-29 10:08:33.54	145.68	27.99	-31.1	-33.0	12.5	8.85e-05	0	42	0	339738624	22	4496
2026-01-29 10:08:36.56	145.50	28.53	-31.1	-33.1	12.4	1.01e-04	0	42	0	346030080	22	4502
2026-01-29 10:08:39.56	145.32	29.07	-31.0	-32.9	12.5	1.70e-04	0	42	0	351272960	22	4466
2026-01-29 10:08:42.57	145.14	29.62	-30.9	-32.5	12.8	1.52e-04	0	42	0	356515840	22	4328
2026-01-29 10:08:45.58	144.94	30.19	-31.3	-33.7	12.1	2.13e-04	0	43	0	362807296	22	4731
2026-01-29 10:08:48.60	144.74	30.77	-31.3	-33.6	12.2	2.01e-04	0	42	0	368050176	22	4691
2026-01-29 10:08:51.61	144.53	31.36	-31.3	-33.0	12.2	2.93e-04	0	42	0	373293056	23	4394
2026-01-29 10:08:54.62	144.31	31.96	-31.9	-34.8	11.0	1.88e-03	0	42	0	379584512	23	5031
2026-01-29 10:08:57.63	144.09	32.57	-32.1	-35.0	10.5	5.13e-03	0	42	0	384827392	24	5024
2026-01-29 10:09:00.64	143.85	33.19	-31.9	-34.2	11.1	2.20e-03	0	42	0	391118848	24	4699
2026-01-29 10:09:03.65	143.61	33.83	-32.2	-35.3	10.4	2.35e-03	0	42	0	396361728	24	5145
2026-01-29 10:09:06.66	143.35	34.47	-32.1	-34.6	10.4	1.19e-02	0	42	0	401604608	25	4800
2026-01-29 10:09:09.67	143.09	35.14	-32.2	-34.7	10.4	6.00e-03	0	42	0	407896064	25	4824
2026-01-29 10:09:12.68	142.81	35.81	-31.8	-34.0	11.3	9.93e-04	0	42	0	413138944	24	4614
2026-01-29 10:09:15.69	142.52	36.50	-32.4	-36.0	9.8	7.33e-03	0	42	0	419430400	24	5459
2026-01-29 10:09:18.71	142.22	37.20	-32.1	-35.0	10.7	6.19e-03	0	42	0	424673280	24	4983
2026-01-29 10:09:21.72	141.91	37.92	-31.5	-32.8	12.1	2.17e-04	0	42	0	429916160	24	4221
2026-01-29 10:09:24.73	141.57	38.65	-31.4	-33.2	12.3	1.20e-04	0	43	0	436207616	23	4425
2026-01-29 10:09:27.73	141.23	39.40	-31.8	-34.3	11.5	1.02e-03	0	42	0	441450496	23	4835
2026-01-29 10:09:30.74	140.87	40.16	-31.8	-34.1	11.3	1.58e-03	0	43	0	446693376	24	4655
2026-01-29 10:09:33.75	140.49	40.93	-31.5	-33.0	12.0	3.42e-04	0	42	0	452984832	24	4277
2026-01-29 10:09:36.76	140.09	41.73	-31.4	-33.3	12.3	1.01e-04	0	43	0	458227712	23	4448
2026-01-29 10:09:39.77	139.66	42.53	-31.8	-34.3	11.5	8.79e-04	0	42	0	464519168	23	4828
2026-01-29 10:09:42.78	139.22	43.36	-32.2	-35.2	10.5	3.30e-03	0	42	0	469762048	24	5096
2026-01-29 10:09:45.79	138.75	44.20	-32.3	-35.6	10.3	5.23e-03	0	43	0	475004928	24	5248
2026-01-29 10:09:48.80	138.26	45.05	-31.2	-32.6	12.8	2.07e-04	0	42	0	481296384	23	4222
2026-01-29 10:09:51.80	137.74	45.92	-30.6	-31.4	13.9	3.80e-06	0	43	0	486539264	22	3960
2026-01-29 10:09:54.82	137.19	46.81	-31.0	-32.6	13.1	6.79e-05	0	43	0	491782144	22	4307
2026-01-29 10:09:57.82	136.60	47.71	-30.2	-30.8	14.6	7.00e-07	0	42	0	498073600	21	3883
2026-01-29 10:10:00.82	135.98	48.63	-30.6	-32.0	13.8	2.20e-06	0	42	0	503316480	21	4224
2026-01-29 10:10:03.84	135.32	49.57	-30.4	-31.4	14.2	7.00e-07	0	42	0	509607936	21	4058
2026-01-29 10:10:06.84	134.62	50.51	-30.8	-32.7	13.4	1.14e-05	0	43	0	514850816	21	4466
2026-01-29 10:10:09.85	133.87	51.48	-30.2	-30.9	14.5	7.00e-07	0	43	0	520093696	21	3934
2026-01-29 10:10:12.87	133.07	52.46	-30.9	-32.8	13.3	6.10e-06	0	42	0	526385152	21	4492
2026-01-29 10:10:15.87	132.22	53.45	-29.3	-29.1	15.9	0.00e+00	0	42	0	531628032	20	3522
2026-01-29 10:10:18.87	131.30	54.46	-30.1	-31.2	14.7	7.00e-07	0	42	0	537919488	20	4066
2026-01-29 10:10:21.87	130.32	55.47	-29.8	-30.2	15.3	0.00e+00	0	43	0	543162368	20	3805
2026-01-29 10:10:24.87	129.27	56.49	-31.1	-32.7	13.2	1.22e-05	0	43	0	548405248	22	4342
2026-01-29 10:10:27.89	128.12	57.53	-31.2	-32.9	13.1	5.30e-06	0	43	0	554696704	22	4371
2026-01-29 10:10:30.91	126.88	58.58	-31.2	-32.4	13.1	3.43e-05	0	43	0	559939584	23	4137
2026-01-29 10:10:33.92	125.55	59.63	-31.1	-32.1	13.3	2.28e-05	0	43	0	565182464	23	4046
2026-01-29 10:10:36.91	124.11	60.67	-30.8	-31.9	14.0	2.20e-06	0	43	0	571473920	22	4079
2026-01-29 10:10:39.93	122.53	61.73	-31.3	-33.3	12.9	3.20e-05	0	43	0	576716800	22	4512
2026-01-29 10:10:42.94	120.81	62.77	-30.5	-31.0	14.4	4.50e-06	0	43	0	583008256	22	3827
2026-01-29 10:10:45.95	118.94	63.81	-29.0	-28.8	16.6	0.00e+00	0	43	0	588251136	19	3521
2026-01-29 10:10:48.96	116.90	64.83	-29.4	-30.2	16.1	0.00e+00	0	42	0	593494016	18	3984
2026-01-29 10:10:51.97	114.66	65.84	-29.4	-29.8	16.0	0.00e+00	0	43	0	599785472	19	3767
2026-01-29 10:10:54.98	112.21	66.82	-31.6	-33.5	12.6	3.96e-05	0	43	0	605028352	23	4478
2026-01-29 10:10:57.99	109.52	67.77	-32.4	-35.6	10.7	1.23e-03	0	43	0	610271232	24	5177
2026-01-29 10:11:01.00	106.57	68.68	-32.3	-34.6	11.1	1.19e-03	0	43	0	616562688	25	4704
2026-01-29 10:11:04.01	103.35	69.54	-33.0	-36.8	9.3	1.02e-02	0	43	0	621805568	25	5607
2026-01-29 10:11:07.02	99.84	70.34	-31.9	-33.9	12.0	1.52e-04	0	42	0	628097024	24	4509
2026-01-29 10:11:10.04	96.00	71.08	-32.0	-33.5	11.9	6.17e-04	0	43	0	633339904	25	4291
2026-01-29 10:11:13.04	91.88	71.73	-31.7	-33.2	12.3	4.50e-04	0	43	0	638582784	24	4289
2026-01-29 10:11:16.04	87.46	72.28	-31.7	-33.7	12.5	2.51e-05	0	43	0	644874240	23	4548
2026-01-29 10:11:19.05	82.76	72.74	-32.8	-36.3	9.9	4.44e-03	0	43	0	650117120	25	5381
2026-01-29 10:11:22.06	77.82	73.07	-32.3	-34.4	11.3	1.66e-03	0	43	0	655360000	25	4602
2026-01-29 10:11:25.07	72.71	73.29	-32.5	-35.3	10.6	1.02e-02	0	43	0	661651456	25	4959
2026-01-29 10:11:28.06	67.54	73.37	-32.5	-35.1	10.7	1.72e-03	0	42	0	666894336	25	4867
2026-01-29 10:11:31.08	62.30	73.32	-31.3	-32.5	13.2	1.75e-05	0	43	0	673185792	23	4162
2026-01-29 10:11:34.09	57.16	73.14	-30.3	-30.9	14.8	1.50e-06	0	42	0	678428672	21	3881
2026-01-29 10:11:37.10	52.17	72.84	-31.0	-32.4	13.6	7.60e-06	0	43	0	683671552	22	4230
2026-01-29 10:11:40.11	47.40	72.42	-30.7	-32.2	14.0	7.00e-07	0	43	0	689963008	21	4238
2026-01-29 10:11:43.12	42.90	71.89	-31.7	-33.9	12.3	9.99e-05	0	42	0	695205888	23	4618
2026-01-29 10:11:46.13	38.69	71.26	-33.2	-37.2	8.9	2.60e-02	0	42	0	701497344	26	5691
2026-01-29 10:11:49.14	34.79	70.55	-33.4	-37.8	7.7	4.79e-02	0	43	0	706740224	27	5962
2026-01-29 10:11:52.14	31.20	69.77	-33.0	-36.2	9.0	5.28e-02	0	42	0	711983104	27	5164
2026-01-29 10:11:55.15	27.91	68.92	-31.7	-33.4	12.1	8.75e-04	0	43	0	718274560	24	4376
2026-01-29 10:11:58.16	24.89	68.03	-31.9	-34.0	11.9	3.23e-04	0	43	0	723517440	24	4566
2026-01-29 10:12:01.16	22.15	67.09	-31.6	-33.6	12.4	4.27e-05	0	43	0	728760320	23	4512
2026-01-29 10:12:04.16	19.65	66.12	-30.8	-31.8	13.9	3.80e-06	0	42	0	735051776	22	4053
2026-01-29 10:12:07.18	17.35	65.12	-29.8	-30.7	15.5	0.00e+00	0	42	0	740294656	19	4011
2026-01-29 10:12:10.20	15.25	64.10	-29.4	-29.7	16.1	0.00e+00	0	43	0	746586112	19	3739
2026-01-29 10:12:13.20	13.34	63.07	-30.7	-32.1	14.0	3.00e-06	0	43	0	751828992	21	4235
2026-01-29 10:12:16.20	11.59	62.04	-29.9	-30.1	15.2	0.00e+00	0	42	0	757071872	21	3671
2026-01-29 10:12:19.21	9.98	60.99	-29.9	-30.0	15.2	3.00e-06	0	42	0	763363328	21	3654
2026-01-29 10:12:22.22	8.50	59.94	-29.8	-30.3	15.3	0.00e+00	0	42	0	768606208	20	3819
2026-01-29 10:12:25.23	7.14	58.90	-30.8	-32.5	13.7	3.00e-06	0	43	0	773849088	21	4358
2026-01-29 10:12:28.24	5.88	57.86	-30.5	-31.0	14.3	2.20e-06	0	43	0	780140544	22	3827
2026-01-29 10:12:31.25	4.71	56.82	-30.3	-31.1	14.4	0.00e+00	0	43	0	785383424	21	3950
2026-01-29 10:12:34.26	3.63	55.79	-30.7	-32.2	13.8	3.80e-06	0	43	0	791674880	21	4264
2026-01-29 10:12:37.26	2.63	54.78	-31.3	-33.1	13.0	4.50e-05	0	43	0	796917760	22	4461
2026-01-29 10:12:40.26	1.70	53.78	-30.1	-30.5	14.9	7.00e-07	0	43	0	802160640	21	3781
2026-01-29 10:12:43.28	0.83	52.78	-29.3	-29.6	16.0	0.00e+00	0	43	0	808452096	19	3736
2026-01-29 10:12:46.28	0.02	51.80	-29.8	-30.4	15.0	0.00e+00	0	43	0	813694976	20	3851
2026-01-29 10:12:49.29	359.26	50.84	-30.8	-32.3	13.7	5.30e-06	0	43	0	818937856	21	4290
2026-01-29 10:12:52.30	358.54	49.89	-31.4	-32.6	12.4	3.68e-04	0	42	0	825229312	24	4130
2026-01-29 10:12:55.31	357.87	48.95	-31.7	-34.0	11.8	5.31e-04	0	43	0	830472192	23	4696
2026-01-29 10:12:58.32	357.24	48.03	-32.2	-35.1	10.7	9.89e-04	0	42	0	836763648	24	4999
2026-01-29 10:13:01.33	356.65	47.12	-31.8	-33.6	11.8	7.61e-04	0	43	0	842006528	24	4464
2026-01-29 10:13:04.34	356.09	46.24	-31.3	-32.9	12.7	6.86e-05	0	43	0	847249408	23	4314
2026-01-29 10:13:07.33	355.56	45.37	-31.7	-33.6	11.8	4.61e-04	0	43	0	853540864	24	4446
2026-01-29 10:13:10.34	355.06	44.51	-30.7	-31.7	13.8	1.67e-05	0	43	0	858783744	22	4021
2026-01-29 10:13:13.34	354.59	43.67	-32.4	-35.7	10.2	1.78e-03	0	42	0	864026624	24	5276
2026-01-29 10:13:16.37	354.14	42.84	-32.4	-35.6	10.4	3.14e-03	0	42	0	870318080	24	5202
2026-01-29 10:13:19.37	353.72	42.04	-32.1	-34.3	10.9	2.19e-03	0	43	0	875560960	25	4622
2026-01-29 10:13:22.37	353.31	41.25	-33.0	-37.0	8.4	3.86e-02	0	43	0	881852416	26	5728
2026-01-29 10:13:25.38	352.93	40.47	-33.6	-39.5	6.2	3.01e-01	0	43	0	887095296	27	7098
2026-01-29 10:13:28.38	352.56	39.71	-33.1	-36.8	8.2	7.99e-02	0	43	0	892338176	27	5513
2026-01-29 10:13:31.38	352.21	38.96	-32.9	-36.6	8.8	3.49e-02	0	43	0	898629632	26	5519
2026-01-29 10:13:34.40	351.88	38.23	-32.6	-35.5	9.6	1.76e-02	0	43	0	903872512	26	5032
2026-01-29 10:13:37.41	351.56	37.51	-32.4	-35.2	10.1	5.75e-03	0	43	0	909115392	25	5014
2026-01-29 10:13:40.42	351.26	36.81	-32.0	-34.1	10.9	7.22e-03	0	43	0	915406848	25	4577
2026-01-29 10:13:43.43	350.96	36.12	-31.6	-33.3	11.9	4.13e-04	0	43	0	920649728	24	4379
2026-01-29 10:13:46.44	350.69	35.44	-32.3	-35.0	10.2	9.07e-03	0	43	0	926941184	25	4906
2026-01-29 10:13:49.45	350.42	34.78	-32.2	-34.6	10.5	5.21e-03	0	43	0	932184064	25	4771
2026-01-29 10:13:52.47	350.16	34.12	-31.8	-33.8	11.4	7.62e-04	0	43	0	937426944	24	4555
2026-01-29 10:13:55.49	349.92	33.48	-31.4	-33.2	12.2	1.40e-04	0	43	0	943718400	23	4426
2026-01-29 10:13:58.49	349.68	32.86	-31.1	-32.4	12.8	5.26e-05	0	43	0	948961280	23	4162
2026-01-29 10:14:01.50	349.45	32.25	-31.6	-33.7	11.9	2.23e-04	0	43	0	955252736	23	4599
2026-01-29 10:14:04.51	349.23	31.65	-31.8	-34.0	11.3	1.39e-03	0	43	0	960495616	24	4635
2026-01-29 10:14:07.50	349.03	31.06	-31.5	-32.9	11.8	5.04e-04	0	42	0	965738496	24	4256
2026-01-29 10:14:10.51	348.82	30.49	-31.4	-32.7	12.1	4.23e-04	0	42	0	972029952	24	4196
2026-01-29 10:14:13.52	348.63	29.92	-31.3	-33.0	12.2	1.11e-04	0	43	0	977272832	23	4354
2026-01-29 10:14:16.53	348.44	29.36	-31.5	-33.6	11.9	2.87e-04	0	43	0	982515712	23	4579
2026-01-29 10:14:19.55	348.26	28.82	-31.1	-32.5	12.6	9.46e-05	0	43	0	988807168	23	4213
2026-01-29 10:14:22.56	348.09	28.28	-30.7	-31.7	13.5	3.43e-05	0	43	0	994050048	22	4061
2026-01-29 10:14:25.57	347.92	27.75	-30.8	-32.2	13.2	1.52e-05	0	43	0	1000341504	22	4195
2026-01-29 10:14:28.58	347.76	27.24	-31.1	-32.9	12.7	5.49e-05	0	43	0	1005584384	22	4425
2026-01-29 10:14:31.58	347.60	26.73	-31.2	-33.3	12.4	6.63e-05	0	43	0	1010827264	22	4562
2026-01-29 10:14:34.59	347.45	26.24	-31.1	-32.9	12.7	1.51e-04	0	43	0	1017118720	22	4433
2026-01-29 10:14:37.60	347.30	25.75	-30.8	-32.2	13.2	6.79e-05	0	43	0	1022361600	22	4212
2026-01-29 10:14:40.61	347.16	25.27	-31.1	-33.0	12.6	1.29e-04	0	43	0	1027604480	22	4465
2026-01-29 10:14:43.62	347.02	24.79	-30.8	-32.1	13.2	2.36e-05	0	43	0	1033895936	22	4184
2026-01-29 10:14:46.63	346.89	24.33	-30.8	-32.2	13.1	2.74e-05	0	43	0	1039138816	22	4203
2026-01-29 10:14:49.63	346.76	23.88	-30.9	-32.5	12.8	4.57e-05	0	43	0	1045430272	22	4320
2026-01-29 10:14:52.65	346.63	23.43	-31.0	-32.7	12.7	8.39e-05	0	43	0	1050673152	22	4378
2026-01-29 10:14:55.66	346.51	22.99	-31.6	-33.9	11.5	5.29e-04	0	43	0	1055916032	23	4724
2026-01-29 10:14:58.67	346.39	22.55	-31.4	-33.4	11.8	7.92e-04	0	43	0	1062207488	23	4527
2026-01-29 10:15:01.67	346.28	22.13	-31.0	-32.2	12.6	9.46e-05	0	43	0	1067450368	23	4126
2026-01-29 10:15:04.68	346.17	21.71	-30.6	-31.7	13.3	1.52e-05	0	43	0	1073741824	22	4078
2026-01-29 10:15:07.70	346.06	21.30	-30.4	-31.2	13.6	4.50e-06	0	43	0	1078984704	22	3937
2026-01-29 10:15:10.70	345.96	20.89	-30.4	-31.7	13.5	9.10e-06	0	43	0	1084227584	21	4173
2026-01-29 10:15:13.72	345.86	20.49	-30.5	-32.0	13.3	2.51e-05	0	43	0	1090519040	21	4259
2026-01-29 10:15:16.72	345.76	20.10	-30.3	-31.3	13.7	9.10e-06	0	43	0	1095761920	21	4049
2026-01-29 10:15:19.73	345.66	19.71	-30.1	-30.8	14.0	0.00e+00	0	43	0	1101004800	21	3925
2026-01-29 10:15:22.73	345.57	19.33	-30.1	-30.8	14.0	0.00e+00	0	43	0	1107296256	21	3917
2026-01-29 10:15:25.73	345.48	18.95	-30.1	-30.9	13.9	3.80e-06	0	43	0	1112539136	21	3939
2026-01-29 10:15:28.76	345.39	18.58	-30.2	-31.1	13.8	4.50e-06	0	43	0	1118830592	21	4010
2026-01-29 10:15:31.76	345.31	18.22	-30.9	-33.2	12.4	7.93e-05	0	42	0	1124073472	21	4679
2026-01-29 10:15:34.76	345.22	17.86	-31.4	-34.2	11.3	1.08e-03	0	43	0	1129316352	22	4946
2026-01-29 10:15:37.77	345.14	17.51	-31.8	-35.1	10.2	5.08e-03	0	43	0	1135607808	23	5257
2026-01-29 10:15:40.78	345.06	17.16	-32.1	-35.4	9.6	1.36e-02	0	43	0	1140850688	24	5298
2026-01-29 10:15:43.80	344.98	16.81	-31.9	-35.0	9.9	1.38e-02	0	43	0	1146093568	24	5119
2026-01-29 10:15:46.82	344.91	16.47	-31.9	-34.7	10.1	8.24e-03	0	43	0	1152385024	24	5017
2026-01-29 10:15:49.83	344.84	16.13	-31.8	-34.6	10.1	8.75e-03	0	43	0	1157627904	24	4963
2026-01-29 10:15:52.83	344.77	15.80	-31.7	-34.1	10.5	3.26e-03	0	43	0	1163919360	24	4764
2026-01-29 10:15:55.85	344.70	15.48	-31.7	-34.3	10.3	5.86e-03	0	43	0	1169162240	24	4869
2026-01-29 10:15:58.85	344.63	15.16	-31.8	-34.6	10.1	7.65e-03	0	43	0	1174405120	24	4979
2026-01-29 10:16:01.87	344.56	14.84	-31.8	-34.7	10.0	1.04e-02	0	43	0	1180696576	24	5004
2026-01-29 10:16:04.87	344.50	14.52	-31.8	-34.6	10.0	8.56e-03	0	43	0	1185939456	24	4996
2026-01-29 10:16:07.89	344.44	14.21	-31.7	-34.2	10.3	5.17e-03	0	43	0	1192230912	24	4809
2026-01-29 10:16:10.90	344.38	13.91	-31.5	-33.6	10.8	2.80e-03	0	43	0	1197473792	24	4587
2026-01-29 10:16:13.90	344.32	13.61	-31.3	-33.6	11.1	1.72e-03	0	43	0	1202716672	23	4673
2026-01-29 10:16:16.91	344.26	13.31	-31.2	-33.4	11.2	1.29e-03	0	43	0	1209008128	23	4622
2026-01-29 10:16:19.92	344.20	13.01	-31.0	-32.8	11.5	8.54e-04	0	43	0	1214251008	23	4423
2026-01-29 10:16:22.93	344.15	12.72	-30.9	-32.4	11.9	5.45e-04	0	43	0	1219493888	23	4276
2026-01-29 10:16:25.94	344.09	12.43	-30.9	-32.8	11.9	3.93e-04	0	43	0	1225785344	22	4508
2026-01-29 10:16:28.94	344.04	12.15	-30.8	-32.7	11.9	5.07e-04	0	43	0	1231028224	22	4463
2026-01-29 10:16:31.95	343.99	11.87	-30.9	-33.1	11.6	6.51e-04	0	43	0	1237319680	22	4597
2026-01-29 10:16:34.97	343.94	11.59	-30.9	-33.1	11.6	6.28e-04	0	43	0	1242562560	22	4612
2026-01-29 10:16:37.98	343.89	11.31	-31.1	-33.5	11.3	9.40e-04	0	43	0	1247805440	22	4756
2026-01-29 10:16:40.99	343.84	11.04	-31.1	-33.6	11.2	1.17e-03	0	43	0	1254096896	22	4787
2026-01-29 10:16:43.99	343.79	10.77	-31.2	-34.0	10.9	2.22e-03	0	43	0	1259339776	22	4944
2026-01-29 10:16:47.00	343.75	10.51	-31.4	-34.5	10.5	3.11e-03	0	43	0	1264582656	22	5145
2026-01-29 10:16:50.01	343.70	10.24	-31.5	-34.8	10.2	4.79e-03	0	43	0	1270874112	22	5309
2026-01-29 10:16:53.02	343.66	9.98	-31.3	-34.3	10.6	2.93e-03	0	43	0	1276116992	22	5090
2026-01-29 10:16:56.02	343.62	9.72	-31.4	-34.4	10.1	7.16e-03	0	43	0	1282408448	23	5038
2026-01-29 10:16:59.03	343.57	9.47	-31.5	-34.5	10.0	6.73e-03	0	43	0	1287651328	23	5083
2026-01-29 10:17:02.03	343.53	9.22	-31.4	-34.3	10.1	7.16e-03	0	43	0	1292894208	23	5025
2026-01-29 10:17:05.04	343.49	8.97	-31.2	-33.6	10.6	3.94e-03	0	43	0	1299185664	23	4763
2026-01-29 10:17:08.05	343.46	8.72	-31.4	-34.3	10.0	4.88e-03	0	43	0	1304428544	23	5047
2026-01-29 10:17:11.06	343.42	8.47	-31.4	-34.2	10.0	7.24e-03	0	42	0	1309671424	23	5009
2026-01-29 10:17:14.06	343.38	8.23	-31.3	-33.9	10.3	5.71e-03	0	43	0	1315962880	23	4888
2026-01-29 10:17:17.07	343.34	7.99	-31.3	-34.2	10.0	9.83e-03	0	43	0	1321205760	23	5001
2026-01-29 10:17:20.08	343.31	7.75	-31.0	-33.3	10.7	3.21e-03	0	43	0	1327497216	23	4651
2026-01-29 10:17:23.10	343.27	7.52	-31.1	-33.4	10.5	3.72e-03	0	43	0	1332740096	23	4711
2026-01-29 10:17:26.10	343.24	7.28	-31.2	-33.7	10.3	4.64e-03	0	43	0	1337982976	23	4801
2026-01-29 10:17:29.12	343.21	7.05	-33.5	-45.7	3.8	9.93e-01	0	43	104	1343225856	26	14670

#Closed at: 2026-01-29 10:17:31
#Recorded file [1343 MB]: D:/data/31010_260129_130531.dat