passes_logs/2026/01/29/R2M6_AANII_01/R2M6_AANII_01__20260129_111628_NOAA_21_JPSS-2_rec.log

#Pass ID: 20260129_111628_NOAA 21 (JPSS-2)
#Satellite: NOAA 21 (JPSS-2)
#Configuration: NOAA 21
#almurnet v.1.7.20240730
#Start time: 2026-01-29 11:17:40

#Version: 2.2.20231116
#Station: R2M6_AANII_01
#Location: 30.233357 lon 59.946436 lat
#TLE: 1 54234U 22150A   26027.91149249  .00000141  00000+0  87546-4 0  9993
#TLE: 2 54234  98.7510 328.6558 0000880 202.8718 157.2419 14.19540177166642

#Time	Az	El	Level	Level2	SNR	BER	BlckErr	Temp	State	Recorded	gain1	gain2
2026-01-29 11:17:40.82	195.48	12.76	-34.5	-50.3	4.0	7.38e-01	0	42	0	0	29	22124
2026-01-29 11:17:43.83	195.74	13.03	-34.8	-46.4	3.8	1.49e+00	0	42	104	0	30	13742
2026-01-29 11:17:46.83	196.00	13.30	-34.8	-46.4	3.8	1.49e+00	0	42	104	0	30	13765
2026-01-29 11:17:49.83	196.26	13.57	-34.8	-46.4	3.8	1.49e+00	0	42	104	0	30	13771
2026-01-29 11:17:52.83	196.53	13.84	-34.8	-46.4	3.8	1.49e+00	0	42	104	0	30	13678
2026-01-29 11:17:55.82	196.80	14.12	-34.8	-46.4	3.8	1.49e+00	0	42	104	0	30	13710
2026-01-29 11:17:58.82	197.08	14.40	-34.7	-46.3	3.8	1.49e+00	0	42	104	0	30	13654
2026-01-29 11:18:01.82	197.37	14.68	-34.6	-46.1	3.8	1.49e+00	0	42	104	0	30	13564
2026-01-29 11:18:04.81	197.65	14.96	-34.4	-45.8	3.8	1.49e+00	0	42	104	0	30	13252
2026-01-29 11:18:07.82	197.95	15.25	-34.3	-45.5	3.8	1.49e+00	0	42	104	0	30	13093
2026-01-29 11:18:10.83	198.25	15.54	-34.2	-45.7	3.8	1.49e+00	0	42	104	0	29	13619
2026-01-29 11:18:13.84	198.56	15.83	-33.6	-43.4	3.8	1.49e+00	0	42	104	0	28	11175
2026-01-29 11:18:16.85	198.87	16.13	-33.4	-41.9	3.9	1.48e+00	0	42	104	0	28	9584
2026-01-29 11:18:19.86	199.19	16.43	-33.2	-41.0	4.0	1.30e+00	0	42	104	0	27	8860
2026-01-29 11:18:22.86	199.51	16.73	-33.3	-40.8	4.6	9.57e-01	0	42	104	0	27	8593
2026-01-29 11:18:25.87	199.84	17.03	-32.2	-36.9	7.3	2.01e-01	0	42	0	3145728	25	6140
2026-01-29 11:18:28.87	200.18	17.34	-29.6	-31.5	12.6	1.41e-04	0	42	0	12582912	20	4510
2026-01-29 11:18:31.86	200.52	17.65	-28.4	-29.8	14.4	0.00e+00	0	42	0	22020096	18	4182
2026-01-29 11:18:34.87	200.87	17.96	-29.4	-32.1	13.0	2.44e-05	0	42	0	30408704	18	4888
2026-01-29 11:18:37.88	201.23	18.28	-29.8	-32.4	12.5	6.71e-05	0	42	0	40894464	19	4908
2026-01-29 11:18:40.89	201.60	18.60	-28.8	-30.0	14.1	7.00e-07	0	42	0	49283072	19	4134
2026-01-29 11:18:43.90	201.97	18.92	-28.2	-29.5	14.9	0.00e+00	0	42	0	58720256	17	4216
2026-01-29 11:18:46.91	202.35	19.25	-28.1	-29.4	15.0	7.00e-07	0	42	0	68157440	17	4182
2026-01-29 11:18:49.91	202.74	19.57	-28.1	-29.3	15.0	0.00e+00	0	42	0	77594624	17	4148
2026-01-29 11:18:52.92	203.13	19.91	-27.8	-28.8	15.3	0.00e+00	0	42	0	87031808	17	4013
2026-01-29 11:18:55.93	203.54	20.24	-27.7	-28.9	15.5	0.00e+00	0	42	0	96468992	16	4144
2026-01-29 11:18:58.92	203.95	20.58	-27.5	-28.5	15.8	0.00e+00	0	42	0	105906176	16	4044
2026-01-29 11:19:01.93	204.37	20.92	-27.6	-28.7	15.7	0.00e+00	0	42	0	115343360	16	4089
2026-01-29 11:19:04.94	204.81	21.26	-27.5	-28.5	15.8	0.00e+00	0	42	0	124780544	16	4047
2026-01-29 11:19:07.94	205.25	21.61	-27.3	-28.1	16.1	0.00e+00	0	42	0	134217728	16	3938
2026-01-29 11:19:10.95	205.70	21.96	-27.1	-28.1	16.2	0.00e+00	0	42	0	143654912	15	4038
2026-01-29 11:19:13.96	206.16	22.31	-26.9	-27.8	16.3	0.00e+00	0	42	0	153092096	15	3967
2026-01-29 11:19:16.96	206.63	22.67	-26.8	-27.6	16.5	0.00e+00	0	42	0	162529280	15	3908
2026-01-29 11:19:19.97	207.11	23.03	-26.9	-27.7	16.4	0.00e+00	0	42	0	171966464	15	3943
2026-01-29 11:19:22.96	207.60	23.39	-26.8	-27.4	16.5	0.00e+00	0	42	0	181403648	15	3872
2026-01-29 11:19:25.97	208.11	23.75	-26.9	-28.1	16.5	0.00e+00	0	42	0	190840832	14	4158
2026-01-29 11:19:28.98	208.62	24.12	-26.8	-28.0	16.6	0.00e+00	0	42	0	200278016	14	4127
2026-01-29 11:19:31.99	209.15	24.49	-26.9	-28.3	16.4	0.00e+00	0	42	0	209715200	14	4206
2026-01-29 11:19:35.00	209.69	24.86	-27.0	-28.3	16.4	0.00e+00	0	42	0	219152384	14	4213
2026-01-29 11:19:38.01	210.25	25.24	-27.1	-28.6	16.3	0.00e+00	0	42	0	228589568	14	4272
2026-01-29 11:19:41.01	210.81	25.62	-27.2	-28.8	16.2	0.00e+00	0	42	0	238026752	14	4326
2026-01-29 11:19:44.02	211.39	26.00	-27.3	-29.1	16.0	0.00e+00	0	42	0	247463936	14	4412
2026-01-29 11:19:47.03	211.98	26.38	-27.5	-29.4	15.9	0.00e+00	0	42	0	256901120	14	4498
2026-01-29 11:19:50.05	212.59	26.77	-27.8	-29.7	15.4	0.00e+00	0	42	0	266338304	15	4486
2026-01-29 11:19:53.06	213.21	27.16	-28.2	-30.0	15.2	0.00e+00	0	42	0	275775488	16	4444
2026-01-29 11:19:56.05	213.85	27.55	-28.2	-30.1	15.1	0.00e+00	0	42	0	284164096	16	4481
2026-01-29 11:19:59.05	214.50	27.94	-28.5	-30.3	14.7	0.00e+00	0	42	0	293601280	17	4440
2026-01-29 11:20:02.05	215.16	28.33	-28.4	-30.1	14.9	0.00e+00	0	42	0	303038464	17	4353
2026-01-29 11:20:05.05	215.85	28.72	-28.6	-30.6	14.6	0.00e+00	0	42	0	312475648	17	4496
2026-01-29 11:20:08.06	216.55	29.12	-28.0	-29.2	15.3	0.00e+00	0	42	0	321912832	17	4117
2026-01-29 11:20:11.07	217.26	29.51	-28.0	-29.1	15.4	7.00e-07	0	42	0	331350016	17	4081
2026-01-29 11:20:14.08	218.00	29.91	-28.1	-29.4	15.2	0.00e+00	0	42	0	340787200	17	4170
2026-01-29 11:20:17.10	218.76	30.31	-28.1	-29.3	15.3	0.00e+00	0	42	0	350224384	17	4141
2026-01-29 11:20:20.09	219.52	30.71	-28.1	-29.3	15.3	0.00e+00	0	42	0	359661568	17	4137
2026-01-29 11:20:23.11	220.32	31.10	-27.8	-29.0	15.7	0.00e+00	0	42	0	369098752	16	4169
2026-01-29 11:20:26.11	221.12	31.50	-27.7	-28.8	15.9	7.00e-07	0	42	0	378535936	16	4116
2026-01-29 11:20:29.10	221.95	31.89	-27.8	-29.2	15.7	0.00e+00	0	42	0	387973120	16	4214
2026-01-29 11:20:32.11	222.80	32.29	-28.1	-29.8	15.4	0.00e+00	0	42	0	397410304	16	4376
2026-01-29 11:20:35.10	223.66	32.68	-28.1	-29.8	15.3	0.00e+00	0	42	0	406847488	16	4385
2026-01-29 11:20:38.11	224.55	33.07	-28.1	-29.9	15.3	0.00e+00	0	42	0	416284672	16	4410
2026-01-29 11:20:41.11	225.46	33.45	-28.3	-30.2	15.2	0.00e+00	0	42	0	425721856	16	4489
2026-01-29 11:20:44.13	226.40	33.84	-28.4	-30.6	14.9	0.00e+00	0	42	0	435159040	16	4620
2026-01-29 11:20:47.15	227.36	34.22	-28.5	-30.3	14.8	0.00e+00	0	42	0	444596224	17	4417
2026-01-29 11:20:50.15	228.33	34.60	-28.8	-31.0	14.4	7.00e-07	0	42	0	454033408	17	4628
2026-01-29 11:20:53.15	229.33	34.97	-29.0	-31.3	14.2	1.50e-06	0	42	0	463470592	17	4723
2026-01-29 11:20:56.15	230.34	35.33	-29.1	-31.2	14.0	3.80e-06	0	42	0	472907776	18	4589
2026-01-29 11:20:59.15	231.38	35.69	-29.3	-31.5	13.9	4.50e-06	0	42	0	482344960	18	4674
2026-01-29 11:21:02.16	232.45	36.05	-29.3	-31.6	13.8	4.50e-06	0	42	0	490733568	18	4708
2026-01-29 11:21:05.17	233.54	36.39	-29.0	-31.0	14.3	7.60e-06	0	42	0	500170752	18	4506
2026-01-29 11:21:08.17	234.65	36.73	-29.2	-31.4	14.0	3.00e-06	0	42	0	509607936	18	4618
2026-01-29 11:21:11.18	235.78	37.06	-29.4	-31.7	13.8	4.50e-06	0	42	0	519045120	18	4730
2026-01-29 11:21:14.19	236.94	37.38	-29.2	-31.4	14.0	1.50e-06	0	42	0	528482304	18	4607
2026-01-29 11:21:17.20	238.12	37.69	-29.5	-31.9	13.7	7.60e-06	0	42	0	537919488	18	4785
2026-01-29 11:21:20.22	239.33	37.99	-29.5	-31.6	13.6	7.60e-06	0	42	0	547356672	19	4580
2026-01-29 11:21:23.22	240.55	38.27	-29.2	-30.9	14.0	4.50e-06	0	42	0	556793856	19	4352
2026-01-29 11:21:26.23	241.79	38.55	-29.5	-31.5	13.7	6.80e-06	0	42	0	566231040	19	4539
2026-01-29 11:21:29.23	243.05	38.81	-29.6	-31.8	13.5	9.90e-06	0	42	0	575668224	19	4626
2026-01-29 11:21:32.24	244.33	39.06	-29.9	-32.0	13.0	4.42e-05	0	42	0	585105408	20	4575
2026-01-29 11:21:35.25	245.63	39.29	-29.9	-31.9	13.1	2.97e-05	0	42	0	594542592	20	4545
2026-01-29 11:21:38.26	246.96	39.51	-30.0	-32.3	12.9	7.62e-05	0	42	0	603979776	20	4691
2026-01-29 11:21:41.26	248.29	39.71	-29.6	-31.3	13.4	1.44e-05	0	42	0	613416960	20	4375
2026-01-29 11:21:44.28	249.65	39.90	-29.5	-30.9	13.7	4.50e-06	0	43	0	622854144	20	4262
2026-01-29 11:21:47.28	251.01	40.07	-29.8	-31.7	13.2	2.21e-05	0	42	0	632291328	20	4497
2026-01-29 11:21:50.28	252.39	40.22	-29.5	-31.0	13.6	8.30e-06	0	42	0	641728512	20	4300
2026-01-29 11:21:53.27	253.77	40.36	-29.9	-32.0	13.0	3.12e-05	0	42	0	651165696	20	4601
2026-01-29 11:21:56.29	255.18	40.47	-29.6	-31.2	13.5	1.29e-05	0	42	0	660602880	20	4355
2026-01-29 11:21:59.29	256.59	40.57	-29.5	-31.1	13.6	7.60e-06	0	42	0	670040064	20	4313
2026-01-29 11:22:02.29	258.00	40.65	-29.3	-30.6	13.9	3.00e-06	0	42	0	679477248	20	4161
2026-01-29 11:22:05.30	259.43	40.71	-30.3	-33.0	12.4	1.14e-04	0	43	0	688914432	20	4908
2026-01-29 11:22:08.31	260.86	40.75	-30.5	-33.4	12.2	2.14e-04	0	43	0	698351616	20	5073
2026-01-29 11:22:11.32	262.29	40.77	-30.6	-33.3	12.0	4.45e-04	0	43	0	707788800	21	4900
2026-01-29 11:22:14.33	263.73	40.77	-30.0	-31.8	12.9	4.95e-05	0	43	0	717225984	21	4406
2026-01-29 11:22:17.34	265.16	40.75	-30.1	-32.1	12.7	7.62e-05	0	42	0	726663168	21	4512
2026-01-29 11:22:20.35	266.59	40.71	-30.0	-31.6	13.0	4.42e-05	0	42	0	736100352	21	4365
2026-01-29 11:22:23.37	268.02	40.65	-30.3	-32.4	12.4	1.16e-04	0	43	0	744488960	21	4618
2026-01-29 11:22:26.36	269.43	40.58	-29.9	-31.6	13.0	4.42e-05	0	42	0	753926144	21	4352
2026-01-29 11:22:29.38	270.85	40.48	-29.9	-31.4	13.0	4.34e-05	0	43	0	763363328	21	4305
2026-01-29 11:22:32.39	272.25	40.36	-29.8	-31.2	13.2	2.67e-05	0	42	0	772800512	21	4242
2026-01-29 11:22:35.40	273.64	40.23	-29.8	-31.7	13.3	1.83e-05	0	43	0	782237696	20	4475
2026-01-29 11:22:38.41	275.02	40.08	-30.3	-33.1	12.4	1.95e-04	0	43	0	791674880	20	4969
2026-01-29 11:22:41.42	276.39	39.91	-30.1	-32.5	12.8	7.70e-05	0	43	0	801112064	20	4741
2026-01-29 11:22:44.43	277.74	39.73	-30.0	-32.3	12.9	5.72e-05	0	43	0	810549248	20	4673
2026-01-29 11:22:47.44	279.08	39.52	-29.8	-31.8	13.2	1.44e-05	0	43	0	819986432	20	4513
2026-01-29 11:22:50.45	280.40	39.31	-29.2	-30.8	14.1	0.00e+00	0	43	0	829423616	19	4304
2026-01-29 11:22:53.46	281.70	39.07	-29.5	-31.5	13.7	9.10e-06	0	43	0	838860800	19	4524
2026-01-29 11:22:56.47	282.98	38.83	-28.6	-29.9	14.9	0.00e+00	0	43	0	848297984	18	4178
2026-01-29 11:22:59.47	284.24	38.57	-28.9	-30.5	14.6	0.00e+00	0	43	0	857735168	18	4356
2026-01-29 11:23:02.48	285.48	38.29	-29.6	-31.7	13.5	1.37e-05	0	43	0	867172352	19	4598
2026-01-29 11:23:05.49	286.70	38.01	-29.1	-30.5	14.3	7.00e-07	0	43	0	876609536	19	4243
2026-01-29 11:23:08.50	287.90	37.71	-29.4	-31.2	13.9	1.50e-06	0	43	0	886046720	19	4436
2026-01-29 11:23:11.50	289.07	37.40	-29.2	-30.9	14.1	4.50e-06	0	43	0	895483904	19	4346
2026-01-29 11:23:14.52	290.23	37.08	-29.0	-30.3	14.3	0.00e+00	0	43	0	904921088	19	4196
2026-01-29 11:23:17.52	291.36	36.76	-29.2	-30.7	14.1	1.50e-06	0	43	0	914358272	19	4302
2026-01-29 11:23:20.54	292.48	36.42	-29.1	-30.5	14.3	7.00e-07	0	43	0	923795456	19	4233
2026-01-29 11:23:23.53	293.56	36.08	-28.9	-30.0	14.5	0.00e+00	0	42	0	933232640	19	4110
2026-01-29 11:23:26.55	294.63	35.73	-28.9	-30.5	14.5	7.00e-07	0	43	0	942669824	18	4346
2026-01-29 11:23:29.56	295.67	35.37	-28.9	-30.5	14.5	1.50e-06	0	43	0	952107008	18	4357
2026-01-29 11:23:32.57	296.69	35.00	-28.6	-30.0	14.9	0.00e+00	0	43	0	961544192	18	4198
2026-01-29 11:23:35.58	297.68	34.64	-28.7	-30.1	14.7	7.00e-07	0	43	0	970981376	18	4239
2026-01-29 11:23:38.59	298.66	34.26	-29.1	-31.1	14.3	2.20e-06	0	43	0	980418560	18	4535
2026-01-29 11:23:41.60	299.61	33.88	-28.7	-30.0	14.9	0.00e+00	0	43	0	989855744	18	4204
2026-01-29 11:23:44.62	300.55	33.50	-28.5	-29.7	15.0	0.00e+00	0	43	0	999292928	18	4118
2026-01-29 11:23:47.63	301.46	33.11	-28.5	-29.7	15.0	0.00e+00	0	42	0	1008730112	18	4128
2026-01-29 11:23:50.65	302.35	32.72	-28.3	-29.2	15.4	0.00e+00	0	42	0	1018167296	18	3980
2026-01-29 11:23:53.67	303.22	32.33	-28.3	-29.7	15.3	0.00e+00	0	43	0	1027604480	17	4219
2026-01-29 11:23:56.67	304.07	31.94	-28.3	-29.8	15.3	0.00e+00	0	43	0	1037041664	17	4252
2026-01-29 11:23:59.68	304.89	31.55	-28.4	-29.9	15.1	0.00e+00	0	42	0	1046478848	17	4285
2026-01-29 11:24:02.69	305.70	31.15	-28.5	-30.2	15.0	0.00e+00	0	42	0	1055916032	17	4361
2026-01-29 11:24:05.70	306.49	30.76	-28.8	-30.8	14.6	0.00e+00	0	42	0	1064304640	17	4535
2026-01-29 11:24:08.71	307.26	30.36	-28.7	-30.6	14.7	0.00e+00	0	43	0	1073741824	17	4502
2026-01-29 11:24:11.72	308.01	29.97	-28.6	-30.4	14.9	0.00e+00	0	43	0	1083179008	17	4434
2026-01-29 11:24:14.73	308.75	29.57	-28.4	-30.0	15.1	0.00e+00	0	42	0	1092616192	17	4320
2026-01-29 11:24:17.74	309.46	29.18	-28.2	-29.5	15.3	0.00e+00	0	43	0	1102053376	17	4190
2026-01-29 11:24:20.75	310.16	28.79	-28.0	-28.9	15.7	0.00e+00	0	42	0	1111490560	17	4032
2026-01-29 11:24:23.76	310.85	28.40	-27.9	-28.8	15.7	0.00e+00	0	42	0	1120927744	17	4003
2026-01-29 11:24:26.77	311.51	28.00	-27.6	-28.6	16.1	0.00e+00	0	42	0	1130364928	16	4032
2026-01-29 11:24:29.77	312.16	27.62	-27.5	-28.5	16.2	0.00e+00	0	42	0	1139802112	16	4011
2026-01-29 11:24:32.79	312.80	27.23	-27.7	-28.8	16.0	0.00e+00	0	42	0	1149239296	16	4109
2026-01-29 11:24:35.81	313.42	26.84	-27.6	-28.6	16.1	0.00e+00	0	42	0	1158676480	16	4050
2026-01-29 11:24:38.82	314.03	26.46	-27.6	-28.7	16.0	0.00e+00	0	42	0	1168113664	16	4090
2026-01-29 11:24:41.83	314.62	26.08	-27.6	-28.8	16.0	0.00e+00	0	42	0	1177550848	16	4089
2026-01-29 11:24:44.85	315.20	25.70	-27.5	-28.5	16.1	0.00e+00	0	42	0	1186988032	16	4034
2026-01-29 11:24:47.86	315.77	25.32	-27.5	-28.4	16.2	0.00e+00	0	42	0	1196425216	16	3990
2026-01-29 11:24:50.87	316.32	24.95	-27.4	-28.3	16.2	0.00e+00	0	42	0	1205862400	16	3975
2026-01-29 11:24:53.88	316.86	24.57	-27.5	-28.4	16.2	0.00e+00	0	42	0	1215299584	16	3995
2026-01-29 11:24:56.89	317.39	24.21	-27.5	-28.4	16.1	0.00e+00	0	42	0	1224736768	16	4012
2026-01-29 11:24:59.90	317.90	23.84	-27.5	-28.5	16.1	0.00e+00	0	42	0	1234173952	16	4023
2026-01-29 11:25:02.91	318.41	23.48	-27.6	-28.6	16.0	0.00e+00	0	43	0	1243611136	16	4045
2026-01-29 11:25:05.93	318.90	23.12	-27.8	-29.1	15.8	0.00e+00	0	42	0	1253048320	16	4176
2026-01-29 11:25:08.94	319.39	22.76	-28.0	-29.6	15.4	0.00e+00	0	43	0	1262485504	16	4316
2026-01-29 11:25:11.94	319.86	22.41	-28.1	-29.9	15.2	0.00e+00	0	42	0	1271922688	16	4412
2026-01-29 11:25:14.95	320.32	22.06	-28.1	-29.9	15.3	0.00e+00	0	42	0	1281359872	16	4407
2026-01-29 11:25:17.95	320.77	21.71	-28.1	-29.7	15.3	0.00e+00	0	42	0	1290797056	16	4359
2026-01-29 11:25:20.95	321.21	21.36	-28.0	-29.5	15.5	0.00e+00	0	42	0	1300234240	16	4290
2026-01-29 11:25:23.95	321.64	21.02	-28.0	-29.5	15.5	0.00e+00	0	42	0	1309671424	16	4293
2026-01-29 11:25:26.97	322.06	20.68	-27.7	-28.9	15.8	0.00e+00	0	42	0	1319108608	16	4125
2026-01-29 11:25:29.97	322.47	20.35	-27.8	-29.1	15.7	0.00e+00	0	42	0	1328545792	16	4179
2026-01-29 11:25:32.99	322.88	20.01	-27.6	-28.7	15.8	0.00e+00	0	42	0	1337982976	16	4093
2026-01-29 11:25:35.99	323.28	19.69	-27.7	-28.9	15.8	0.00e+00	0	42	0	1347420160	16	4131
2026-01-29 11:25:38.99	323.67	19.36	-27.6	-28.8	15.8	0.00e+00	0	42	0	1356857344	16	4111
2026-01-29 11:25:42.00	324.05	19.04	-27.8	-29.2	15.6	0.00e+00	0	42	0	1365245952	16	4218
2026-01-29 11:25:45.00	324.42	18.72	-27.8	-29.1	15.6	0.00e+00	0	42	0	1374683136	16	4184
2026-01-29 11:25:48.01	324.79	18.40	-27.8	-29.1	15.6	7.00e-07	0	42	0	1384120320	16	4196
2026-01-29 11:25:51.02	325.14	18.09	-27.7	-28.9	15.7	0.00e+00	0	42	0	1393557504	16	4131
2026-01-29 11:25:54.03	325.50	17.77	-27.9	-29.4	15.4	0.00e+00	0	42	0	1402994688	16	4285
2026-01-29 11:25:57.04	325.84	17.47	-27.9	-29.5	15.3	0.00e+00	0	42	0	1412431872	16	4305
2026-01-29 11:26:00.04	326.18	17.16	-28.1	-29.7	15.1	0.00e+00	0	42	0	1421869056	16	4373
2026-01-29 11:26:03.04	326.51	16.86	-28.0	-29.7	15.2	0.00e+00	0	42	0	1431306240	16	4350
2026-01-29 11:26:06.06	326.84	16.56	-27.9	-29.4	15.3	0.00e+00	0	42	0	1440743424	16	4279
2026-01-29 11:26:09.06	327.16	16.26	-28.0	-29.6	15.2	0.00e+00	0	42	0	1450180608	16	4350
2026-01-29 11:26:12.06	327.47	15.97	-28.0	-29.7	15.1	0.00e+00	0	42	0	1459617792	16	4367
2026-01-29 11:26:15.07	327.78	15.68	-28.3	-30.3	14.7	0.00e+00	0	42	0	1469054976	16	4542
2026-01-29 11:26:18.09	328.08	15.39	-28.4	-30.6	14.6	0.00e+00	0	42	0	1478492160	16	4626
2026-01-29 11:26:21.11	328.38	15.10	-28.6	-30.5	14.3	7.00e-07	0	42	0	1487929344	17	4492
2026-01-29 11:26:24.12	328.67	14.82	-28.4	-30.0	14.6	0.00e+00	0	42	0	1497366528	17	4349
2026-01-29 11:26:27.13	328.95	14.54	-28.4	-30.1	14.5	2.20e-06	0	42	0	1506803712	17	4369
2026-01-29 11:26:30.14	329.23	14.26	-28.5	-30.2	14.4	1.50e-06	0	42	0	1516240896	17	4411
2026-01-29 11:26:33.15	329.51	13.98	-28.5	-30.3	14.3	7.00e-07	0	42	0	1525678080	17	4443
2026-01-29 11:26:36.17	329.78	13.71	-28.5	-30.4	14.3	1.50e-06	0	42	0	1535115264	17	4470
2026-01-29 11:26:39.17	330.05	13.44	-28.5	-30.5	14.2	1.50e-06	0	42	0	1544552448	17	4484
2026-01-29 11:26:42.18	330.31	13.17	-28.6	-30.7	14.1	1.50e-06	0	42	0	1553989632	17	4545
2026-01-29 11:26:45.19	330.57	12.91	-28.7	-30.7	14.0	3.00e-06	0	42	0	1563426816	17	4568
2026-01-29 11:26:48.20	330.82	12.64	-28.8	-31.0	13.8	6.10e-06	0	42	0	1572864000	17	4664
2026-01-29 11:26:51.20	331.07	12.38	-28.7	-30.9	13.9	1.50e-06	0	42	0	1582301184	17	4624
2026-01-29 11:26:54.22	331.31	12.12	-29.0	-31.4	13.5	9.90e-06	0	42	0	1591738368	17	4796
2026-01-29 11:26:57.23	331.56	11.87	-28.6	-30.7	14.0	3.80e-06	0	42	0	1601175552	17	4549
2026-01-29 11:27:00.25	331.79	11.61	-28.8	-31.0	13.8	5.30e-06	0	42	0	1610612736	17	4659
2026-01-29 11:27:03.26	332.03	11.36	-28.8	-31.2	13.7	1.06e-05	0	42	0	1620049920	17	4701
2026-01-29 11:27:06.28	332.26	11.11	-28.9	-31.3	13.6	6.80e-06	0	42	0	1629487104	17	4753
2026-01-29 11:27:09.28	332.48	10.86	-28.9	-30.9	13.6	1.06e-05	0	42	0	1638924288	18	4512
2026-01-29 11:27:12.29	332.70	10.62	-29.1	-31.3	13.3	2.36e-05	0	42	0	1648361472	18	4646
2026-01-29 11:27:15.29	332.92	10.37	-29.2	-31.5	13.1	2.97e-05	0	42	0	1657798656	18	4724
2026-01-29 11:27:18.31	333.14	10.13	-29.3	-31.9	12.8	5.79e-05	0	42	0	1666187264	18	4855
2026-01-29 11:27:21.32	333.35	9.89	-29.3	-31.9	12.8	4.19e-05	0	42	0	1675624448	18	4842
2026-01-29 11:27:24.32	333.56	9.66	-29.4	-32.1	12.7	7.24e-05	0	42	0	1685061632	18	4913
2026-01-29 11:27:27.34	333.77	9.42	-29.3	-31.8	12.9	5.56e-05	0	42	0	1694498816	18	4803
2026-01-29 11:27:30.35	333.97	9.19	-29.3	-32.0	12.7	8.01e-05	0	42	0	1703936000	18	4871
2026-01-29 11:27:33.35	334.17	8.96	-29.4	-32.0	12.7	7.40e-05	0	42	0	1713373184	18	4885
2026-01-29 11:27:36.34	334.36	8.73	-29.3	-32.0	12.6	1.01e-04	0	42	0	1722810368	18	4891
2026-01-29 11:27:39.37	334.56	8.50	-29.4	-32.1	12.6	9.76e-05	0	42	0	1732247552	18	4919
2026-01-29 11:27:42.37	334.75	8.27	-29.3	-32.0	12.6	1.03e-04	0	42	0	1741684736	18	4880
2026-01-29 11:27:45.37	334.94	8.05	-29.3	-32.0	12.6	9.07e-05	0	42	0	1751121920	18	4881
2026-01-29 11:27:48.38	335.12	7.83	-29.3	-31.8	12.7	8.85e-05	0	42	0	1760559104	18	4834
2026-01-29 11:27:51.39	335.31	7.61	-29.2	-31.7	12.7	7.78e-05	0	42	0	1769996288	18	4801
2026-01-29 11:27:54.40	335.49	7.39	-29.4	-32.1	12.5	1.24e-04	0	42	0	1779433472	18	4936
2026-01-29 11:27:57.41	335.67	7.17	-29.5	-31.9	12.2	2.19e-04	0	42	0	1788870656	19	4768
2026-01-29 11:28:00.43	335.84	6.95	-34.0	-45.9	3.8	1.49e+00	0	42	104	1792016384	28	14074

#Closed at: 2026-01-29 11:28:00
#Recorded file [1792 MB]: D:/data/31010_260129_141824.dat