passes_logs/2026/01/29/R2M6_AANII_01/R2M6_AANII_01__20260129_030858_AQUA_rec.log

#Pass ID: 20260129_030858_AQUA
#Satellite: AQUA
#Configuration: AQUA
#almurnet v.1.7.20240730
#Start time: 2026-01-29 03:12:14

#Version: 2.2.20231116
#Station: R2M6_AANII_01
#Location: 30.233357 lon 59.946436 lat
#TLE: 1 27424U 02022A   26027.88561574  .00001798  00000+0  36942-3 0  9997
#TLE: 2 27424  98.4102 354.5311 0001840  63.5604 322.5877 14.61868111262779

#Time	Az	El	Level	Level2	SNR	BER	BlckErr	Temp	State	Recorded	gain1	gain2
2026-01-29 03:12:14.22	341.31	26.80	-33.9	-46.1	3.8	1.49e+00	0	44	0	0	27	14702
2026-01-29 03:12:16.22	340.73	27.04	-34.6	-54.2	3.8	7.44e-01	0	44	104	0	29	34504
2026-01-29 03:12:18.23	340.14	27.28	-34.6	-53.8	3.8	7.46e-01	0	44	104	0	30	32697
2026-01-29 03:12:20.24	339.54	27.52	-34.6	-53.8	3.8	7.47e-01	0	44	104	0	30	32709
2026-01-29 03:12:22.25	338.93	27.76	-34.5	-54.1	3.8	7.43e-01	0	44	104	0	29	34476
2026-01-29 03:12:24.26	338.31	28.00	-34.5	-54.1	3.8	7.43e-01	0	44	104	0	29	34366
2026-01-29 03:12:26.26	337.69	28.23	-34.5	-54.1	3.8	7.44e-01	0	44	104	0	29	34316
2026-01-29 03:12:28.27	337.05	28.47	-34.5	-54.0	3.8	7.43e-01	0	44	104	0	29	34237
2026-01-29 03:12:30.28	336.40	28.70	-34.6	-54.2	3.8	7.47e-01	0	44	104	0	29	34438
2026-01-29 03:12:32.28	335.74	28.93	-34.5	-54.1	3.8	7.48e-01	0	44	104	0	29	34348
2026-01-29 03:12:34.29	335.07	29.16	-34.5	-54.1	3.8	7.44e-01	0	44	104	0	29	34278
2026-01-29 03:12:36.30	334.39	29.39	-34.5	-54.0	3.8	7.47e-01	0	44	104	0	29	34003
2026-01-29 03:12:38.31	333.70	29.61	-34.5	-53.8	3.8	7.43e-01	0	44	104	0	29	33445
2026-01-29 03:12:40.32	333.00	29.83	-34.4	-53.5	3.8	7.44e-01	0	44	104	0	29	32422
2026-01-29 03:12:42.32	332.30	30.05	-34.3	-53.4	3.8	7.47e-01	0	44	104	0	29	32511
2026-01-29 03:12:44.33	331.58	30.27	-34.3	-53.4	3.8	7.44e-01	0	44	104	0	29	32514
2026-01-29 03:12:46.33	330.85	30.48	-34.3	-52.9	3.8	7.42e-01	0	44	104	0	29	30673
2026-01-29 03:12:48.34	330.11	30.69	-34.3	-52.0	3.8	7.44e-01	0	44	104	0	29	27788
2026-01-29 03:12:50.35	329.37	30.89	-34.2	-52.1	3.8	7.42e-01	0	44	104	0	29	27995
2026-01-29 03:12:52.36	328.61	31.09	-34.3	-52.8	3.8	7.41e-01	0	44	104	0	29	30546
2026-01-29 03:12:54.37	327.84	31.29	-34.2	-51.1	3.8	7.43e-01	0	44	104	0	29	25299
2026-01-29 03:12:56.38	327.06	31.48	-34.1	-49.5	4.0	7.40e-01	0	44	104	0	29	21028
2026-01-29 03:12:58.39	326.27	31.67	-34.2	-51.0	3.9	7.45e-01	0	44	104	0	29	24793
2026-01-29 03:13:00.40	325.48	31.85	-34.2	-52.9	3.8	7.43e-01	0	44	104	0	29	30989
2026-01-29 03:13:02.40	324.67	32.03	-34.2	-53.5	3.8	7.44e-01	0	44	104	0	29	32947
2026-01-29 03:13:04.41	323.86	32.20	-34.2	-50.9	3.9	7.42e-01	0	44	104	0	29	24619
2026-01-29 03:13:06.42	323.03	32.37	-34.0	-46.6	5.5	6.92e-01	0	44	104	0	29	15297
2026-01-29 03:13:08.42	322.20	32.53	-32.2	-36.5	15.4	6.06e-01	0	44	0	2621440	26	5923
2026-01-29 03:13:10.43	321.36	32.69	-31.9	-36.5	16.2	6.04e-01	0	44	0	6291456	24	6118
2026-01-29 03:13:12.43	320.52	32.84	-31.8	-36.3	16.4	6.04e-01	0	44	0	9961472	24	6013
2026-01-29 03:13:14.44	319.66	32.98	-32.0	-36.7	16.1	6.05e-01	0	44	0	13631488	24	6252
2026-01-29 03:13:16.45	318.79	33.12	-31.1	-34.5	17.9	6.04e-01	0	44	0	17301504	23	5358
2026-01-29 03:13:18.47	317.91	33.25	-30.3	-32.8	19.3	6.03e-01	0	44	0	21495808	22	4823
2026-01-29 03:13:20.46	317.04	33.37	-29.4	-31.7	20.5	6.01e-01	0	44	0	25165824	20	4684
2026-01-29 03:13:22.46	316.16	33.49	-29.3	-31.9	20.7	6.02e-01	0	44	0	28835840	19	4861
2026-01-29 03:13:24.47	315.27	33.60	-29.4	-32.1	20.7	6.06e-01	0	44	0	32505856	19	4906
2026-01-29 03:13:26.47	314.37	33.70	-29.6	-32.5	20.4	6.04e-01	0	44	0	36175872	19	5054
2026-01-29 03:13:28.49	313.46	33.80	-29.5	-32.3	20.5	6.03e-01	0	44	0	40370176	19	4997
2026-01-29 03:13:30.49	312.55	33.88	-29.6	-32.1	20.3	6.03e-01	0	44	0	44040192	20	4795
2026-01-29 03:13:32.49	311.64	33.96	-30.0	-32.6	19.6	6.05e-01	0	44	0	47710208	21	4859
2026-01-29 03:13:34.50	310.72	34.03	-29.4	-31.5	20.7	6.01e-01	0	44	0	51380224	20	4619
2026-01-29 03:13:36.50	309.80	34.10	-29.6	-32.3	20.2	6.07e-01	0	44	0	55050240	20	4859
2026-01-29 03:13:38.51	308.88	34.15	-29.5	-32.3	20.5	6.04e-01	0	44	0	58720256	19	4974
2026-01-29 03:13:40.52	307.95	34.20	-29.6	-32.1	20.3	6.04e-01	0	44	0	62914560	20	4801
2026-01-29 03:13:42.52	307.02	34.24	-29.3	-31.4	20.7	6.02e-01	0	44	0	66584576	20	4594
2026-01-29 03:13:44.54	306.08	34.27	-29.8	-32.7	19.9	6.02e-01	0	44	0	70254592	20	5002
2026-01-29 03:13:46.55	305.14	34.29	-29.7	-32.5	20.2	6.05e-01	0	44	0	73924608	20	4936
2026-01-29 03:13:48.56	304.21	34.30	-29.2	-31.2	20.8	6.04e-01	0	44	0	77594624	20	4519
2026-01-29 03:13:50.56	303.27	34.30	-29.5	-32.4	19.9	6.04e-01	0	44	0	81264640	19	5006
2026-01-29 03:13:52.56	302.34	34.30	-30.1	-33.0	18.6	6.08e-01	0	44	0	85458944	21	5033
2026-01-29 03:13:54.57	301.40	34.29	-29.6	-32.1	18.9	6.08e-01	0	44	0	89128960	20	4807
2026-01-29 03:13:56.57	300.47	34.27	-29.2	-31.6	21.0	6.03e-01	0	44	0	92798976	19	4743
2026-01-29 03:13:58.58	299.53	34.24	-29.7	-32.4	20.0	6.04e-01	0	44	0	96468992	20	4891
2026-01-29 03:14:00.59	298.60	34.20	-30.1	-33.0	19.3	6.06e-01	0	44	0	100139008	21	5013
2026-01-29 03:14:02.60	297.67	34.15	-29.9	-33.0	19.8	6.05e-01	0	44	0	104333312	20	5126
2026-01-29 03:14:04.61	296.74	34.10	-29.9	-32.8	19.8	6.04e-01	0	44	0	108003328	20	5056
2026-01-29 03:14:06.61	295.82	34.04	-30.0	-33.2	19.6	6.01e-01	0	44	0	111673344	20	5217
2026-01-29 03:14:08.61	294.90	33.97	-29.9	-32.3	19.9	6.01e-01	0	44	0	115343360	21	4771
2026-01-29 03:14:10.61	293.99	33.89	-29.3	-31.8	20.8	6.05e-01	0	44	0	119013376	19	4808
2026-01-29 03:14:12.62	293.08	33.80	-29.6	-32.1	20.2	6.02e-01	0	44	0	122683392	20	4832
2026-01-29 03:14:14.63	292.17	33.71	-29.0	-31.0	21.3	6.05e-01	0	44	0	126877696	19	4551
2026-01-29 03:14:16.63	291.28	33.61	-29.7	-32.4	19.9	6.03e-01	0	44	0	130547712	20	4903
2026-01-29 03:14:18.64	290.38	33.50	-29.8	-32.8	19.7	6.02e-01	0	44	0	134217728	20	5078
2026-01-29 03:14:20.65	289.49	33.38	-29.8	-32.6	20.0	6.02e-01	0	44	0	137887744	20	4978
2026-01-29 03:14:22.65	288.61	33.26	-28.9	-30.9	21.2	6.05e-01	0	44	0	141557760	19	4520
2026-01-29 03:14:24.66	287.74	33.13	-29.5	-32.0	20.1	6.05e-01	0	44	0	145227776	20	4789
2026-01-29 03:14:26.67	286.87	32.99	-29.3	-31.8	20.7	6.03e-01	0	44	0	149422080	19	4836
2026-01-29 03:14:28.66	286.02	32.85	-29.3	-31.4	20.5	6.03e-01	0	44	0	153092096	20	4580
2026-01-29 03:14:30.66	285.17	32.70	-29.7	-32.6	19.9	6.02e-01	0	44	0	156762112	20	4991
2026-01-29 03:14:32.67	284.33	32.54	-29.0	-30.7	20.9	6.05e-01	0	44	0	160432128	20	4368
2026-01-29 03:14:34.68	283.49	32.38	-29.8	-32.8	19.8	6.02e-01	0	44	0	164102144	20	5062
2026-01-29 03:14:36.69	282.66	32.21	-29.4	-31.7	20.3	6.03e-01	0	44	0	167772160	20	4684
2026-01-29 03:14:38.70	281.85	32.04	-29.6	-32.1	20.1	6.05e-01	0	44	0	171966464	20	4818
2026-01-29 03:14:40.71	281.04	31.86	-29.8	-32.6	19.8	6.03e-01	0	44	0	175636480	20	4989
2026-01-29 03:14:42.72	280.24	31.68	-29.5	-32.4	20.3	6.03e-01	0	44	0	179306496	19	5034
2026-01-29 03:14:44.71	279.45	31.49	-30.1	-33.1	19.2	6.03e-01	0	44	0	182976512	21	5052
2026-01-29 03:14:46.72	278.67	31.30	-29.5	-31.9	20.2	6.04e-01	0	44	0	186646528	20	4743
2026-01-29 03:14:48.73	277.90	31.10	-29.2	-31.3	20.5	6.04e-01	0	44	0	190840832	20	4549
2026-01-29 03:14:50.73	277.14	30.90	-29.2	-31.3	20.6	6.05e-01	0	44	0	194510848	20	4550
2026-01-29 03:14:52.75	276.39	30.70	-29.6	-32.3	19.9	6.06e-01	0	44	0	198180864	20	4892
2026-01-29 03:14:54.76	275.65	30.49	-29.4	-32.2	20.4	6.03e-01	0	44	0	201850880	19	4964
2026-01-29 03:14:56.76	274.92	30.28	-29.4	-32.3	20.4	6.03e-01	0	44	0	205520896	19	4983
2026-01-29 03:14:58.76	274.20	30.06	-29.3	-31.8	20.6	6.03e-01	0	44	0	209190912	19	4840
2026-01-29 03:15:00.76	273.49	29.84	-29.1	-31.4	20.8	6.02e-01	0	44	0	212860928	19	4708
2026-01-29 03:15:02.76	272.79	29.62	-29.1	-31.0	20.7	6.02e-01	0	44	0	217055232	20	4458
2026-01-29 03:15:04.77	272.10	29.40	-29.1	-31.0	20.7	6.03e-01	0	44	0	220725248	20	4467
2026-01-29 03:15:06.78	271.42	29.17	-29.2	-31.3	20.4	6.04e-01	0	44	0	224395264	20	4560
2026-01-29 03:15:08.79	270.74	28.94	-29.4	-31.8	20.1	6.05e-01	0	44	0	228065280	20	4749
2026-01-29 03:15:10.79	270.09	28.71	-29.7	-32.6	19.8	6.02e-01	0	44	0	231735296	20	5022
2026-01-29 03:15:12.79	269.44	28.48	-30.0	-33.4	19.3	6.01e-01	0	44	0	235929600	20	5298
2026-01-29 03:15:14.80	268.79	28.24	-29.4	-31.2	20.3	6.01e-01	0	44	0	239599616	21	4420
2026-01-29 03:15:16.80	268.16	28.01	-29.5	-32.0	19.8	6.03e-01	0	44	0	243269632	20	4813
2026-01-29 03:15:18.81	267.54	27.77	-29.9	-33.0	19.4	6.03e-01	0	44	0	246939648	20	5173
2026-01-29 03:15:20.81	266.93	27.53	-29.7	-32.4	19.8	6.04e-01	0	43	0	250609664	20	4928
2026-01-29 03:15:22.82	266.33	27.29	-30.0	-32.9	19.0	6.04e-01	0	44	0	254279680	21	5012
2026-01-29 03:15:24.82	265.73	27.04	-30.8	-34.4	17.9	6.04e-01	0	44	0	258473984	22	5498
2026-01-29 03:15:26.83	265.15	26.80	-29.9	-32.5	19.4	6.05e-01	0	44	0	262144000	21	4845
2026-01-29 03:15:28.84	264.57	26.56	-30.5	-34.3	17.0	6.06e-01	0	44	0	265814016	21	5564
2026-01-29 03:15:30.86	264.00	26.31	-29.1	-31.5	18.1	6.03e-01	0	44	0	269484032	19	4733
2026-01-29 03:15:32.86	263.45	26.07	-30.2	-33.5	18.8	6.04e-01	0	44	0	273154048	21	5247
2026-01-29 03:15:34.86	262.90	25.82	-29.3	-32.1	19.8	6.03e-01	0	44	0	276824064	19	4935
2026-01-29 03:15:36.87	262.36	25.58	-29.7	-32.6	19.5	6.02e-01	0	44	0	281018368	20	5025
2026-01-29 03:15:38.88	261.83	25.33	-29.4	-32.3	20.0	6.03e-01	0	44	0	284688384	19	5001
2026-01-29 03:15:40.90	261.31	25.08	-29.6	-32.4	19.7	6.01e-01	0	44	0	288358400	20	4939
2026-01-29 03:15:42.90	260.79	24.84	-29.6	-32.4	19.6	6.03e-01	0	44	0	292028416	20	4966
2026-01-29 03:15:44.91	260.29	24.59	-29.5	-32.5	19.9	6.02e-01	0	44	0	295698432	19	5104
2026-01-29 03:15:46.92	259.79	24.34	-29.8	-32.9	19.4	6.04e-01	0	44	0	299892736	20	5133
2026-01-29 03:15:48.93	259.30	24.10	-29.7	-32.6	19.5	6.04e-01	0	44	0	303562752	20	5041
2026-01-29 03:15:50.93	258.82	23.85	-29.5	-32.1	19.8	6.05e-01	0	44	0	307232768	20	4843
2026-01-29 03:15:52.93	258.35	23.61	-29.8	-32.9	19.4	6.04e-01	0	44	0	310902784	20	5136
2026-01-29 03:15:54.93	257.89	23.37	-29.8	-32.9	19.3	6.03e-01	0	44	0	314572800	20	5133
2026-01-29 03:15:56.93	257.43	23.12	-29.7	-32.7	19.4	6.04e-01	0	44	0	318242816	20	5071
2026-01-29 03:15:58.94	256.98	22.88	-29.6	-32.3	19.7	6.03e-01	0	44	0	322437120	20	4935
2026-01-29 03:16:00.95	256.54	22.64	-29.5	-32.6	19.9	6.05e-01	0	44	0	326107136	19	5133
2026-01-29 03:16:02.96	256.10	22.40	-29.6	-32.8	19.7	6.03e-01	0	44	0	329777152	19	5213
2026-01-29 03:16:04.95	255.68	22.16	-29.5	-32.5	19.9	6.06e-01	0	44	0	333447168	19	5098
2026-01-29 03:16:06.97	255.25	21.92	-29.6	-32.4	19.6	6.05e-01	0	44	0	337117184	20	4961
2026-01-29 03:16:08.97	254.84	21.68	-29.7	-32.6	19.4	6.00e-01	0	44	0	341311488	20	5044
2026-01-29 03:16:10.98	254.43	21.44	-29.7	-32.7	19.3	6.02e-01	0	44	0	344981504	20	5068
2026-01-29 03:16:12.99	254.03	21.20	-29.5	-32.7	19.7	6.02e-01	0	44	0	348651520	19	5186
2026-01-29 03:16:15.00	253.63	20.96	-29.5	-32.8	19.7	6.03e-01	0	44	0	352321536	19	5211
2026-01-29 03:16:17.01	253.24	20.73	-29.5	-32.6	19.8	6.02e-01	0	44	0	355991552	19	5162
2026-01-29 03:16:19.01	252.86	20.50	-29.4	-32.4	19.9	6.02e-01	0	44	0	359661568	19	5075
2026-01-29 03:16:21.02	252.48	20.26	-29.3	-32.2	20.0	6.04e-01	0	44	0	363855872	19	5011
2026-01-29 03:16:23.04	252.11	20.03	-29.5	-32.6	19.8	6.04e-01	0	44	0	367525888	19	5151
2026-01-29 03:16:25.04	251.75	19.80	-29.6	-32.9	19.6	6.05e-01	0	44	0	371195904	19	5249
2026-01-29 03:16:27.05	251.39	19.57	-29.4	-32.4	19.8	6.03e-01	0	44	0	374865920	19	5075
2026-01-29 03:16:29.05	251.04	19.34	-29.4	-32.4	19.8	6.03e-01	0	44	0	378535936	19	5099
2026-01-29 03:16:31.06	250.69	19.11	-29.4	-32.4	19.8	6.04e-01	0	44	0	382205952	19	5074
2026-01-29 03:16:33.07	250.35	18.89	-29.4	-32.3	19.9	6.02e-01	0	44	0	386400256	19	5046
2026-01-29 03:16:35.06	250.01	18.66	-29.4	-32.5	19.8	6.06e-01	0	44	0	390070272	19	5120
2026-01-29 03:16:37.06	249.68	18.44	-29.5	-32.7	19.6	6.03e-01	0	44	0	393740288	19	5218
2026-01-29 03:16:39.07	249.36	18.22	-29.3	-32.1	19.9	6.03e-01	0	44	0	397410304	19	4997
2026-01-29 03:16:41.07	249.04	18.00	-29.3	-32.1	19.9	6.01e-01	0	44	0	401080320	19	4995
2026-01-29 03:16:43.08	248.72	17.78	-29.4	-32.4	19.7	6.04e-01	0	44	0	405274624	19	5079
2026-01-29 03:16:45.08	248.41	17.56	-29.1	-31.8	20.0	6.04e-01	0	44	0	408944640	19	4864
2026-01-29 03:16:47.08	248.11	17.35	-29.2	-32.0	19.9	6.05e-01	0	44	0	412614656	19	4963
2026-01-29 03:16:49.08	247.80	17.13	-29.5	-32.7	19.6	6.03e-01	0	44	0	416284672	19	5204
2026-01-29 03:16:51.09	247.51	16.92	-29.5	-32.7	19.5	6.03e-01	0	44	0	419954688	19	5186
2026-01-29 03:16:53.10	247.21	16.70	-29.6	-32.6	19.2	6.05e-01	0	43	0	423624704	20	5048
2026-01-29 03:16:55.11	246.93	16.49	-29.6	-32.6	19.2	6.03e-01	0	44	0	427294720	20	5072
2026-01-29 03:16:57.12	246.64	16.28	-29.7	-32.8	19.0	6.04e-01	0	44	0	431489024	20	5157
2026-01-29 03:16:59.12	246.36	16.07	-29.7	-32.7	19.1	6.05e-01	0	44	0	435159040	20	5113
2026-01-29 03:17:01.13	246.09	15.86	-29.9	-33.5	18.6	6.05e-01	0	44	0	438829056	20	5408
2026-01-29 03:17:03.14	245.81	15.66	-29.9	-32.9	18.6	6.05e-01	0	44	0	442499072	21	5083
2026-01-29 03:17:05.15	245.55	15.45	-30.0	-33.6	18.4	6.03e-01	0	44	0	446169088	20	5461
2026-01-29 03:17:07.15	245.28	15.25	-29.6	-32.5	19.0	6.02e-01	0	44	0	450363392	20	5050
2026-01-29 03:17:09.16	245.02	15.04	-29.4	-33.1	19.4	6.03e-01	0	44	0	454033408	18	5472
2026-01-29 03:17:11.16	244.77	14.84	-29.7	-32.8	18.9	6.04e-01	0	44	0	457703424	20	5165
2026-01-29 03:17:13.17	244.52	14.64	-29.7	-32.8	18.9	6.04e-01	0	44	0	461373440	20	5147
2026-01-29 03:17:15.18	244.27	14.44	-29.4	-32.7	19.4	6.04e-01	0	44	0	465043456	19	5213
2026-01-29 03:17:17.19	244.02	14.25	-28.3	-31.7	17.8	6.04e-01	0	44	0	468713472	19	5283
2026-01-29 03:17:19.20	243.78	14.05	-29.6	-32.5	18.8	6.05e-01	0	44	0	472907776	20	5065
2026-01-29 03:17:21.20	243.54	13.85	-29.7	-32.9	16.8	6.09e-01	0	44	0	476577792	20	5202
2026-01-29 03:17:23.21	243.31	13.66	-29.5	-32.9	16.9	6.02e-01	0	44	0	480247808	19	5298
2026-01-29 03:17:25.22	243.08	13.47	-29.4	-32.7	19.3	6.03e-01	0	44	0	483917824	19	5234
2026-01-29 03:17:27.22	242.85	13.28	-29.4	-32.6	19.3	6.03e-01	0	44	0	487587840	19	5190
2026-01-29 03:17:29.23	242.63	13.09	-29.4	-32.6	19.3	6.02e-01	0	44	0	491782144	19	5211
2026-01-29 03:17:31.23	242.40	12.90	-29.6	-33.0	19.0	6.01e-01	0	44	0	495452160	19	5367
2026-01-29 03:17:33.24	242.19	12.71	-29.6	-33.0	19.0	6.04e-01	0	44	0	499122176	19	5362
2026-01-29 03:17:35.25	241.97	12.52	-29.6	-32.7	18.8	6.03e-01	0	44	0	502792192	20	5139
2026-01-29 03:17:37.25	241.76	12.34	-29.6	-33.0	18.9	6.06e-01	0	44	0	506462208	19	5358
2026-01-29 03:17:39.26	241.55	12.16	-29.6	-33.1	18.9	6.05e-01	0	44	0	510132224	19	5385
2026-01-29 03:17:41.27	241.34	11.97	-29.7	-33.0	18.5	6.01e-01	0	44	0	514326528	20	5273
2026-01-29 03:17:43.28	241.14	11.79	-29.6	-32.7	18.8	6.04e-01	0	44	0	517996544	20	5135
2026-01-29 03:17:45.29	240.94	11.61	-29.5	-32.5	18.9	6.04e-01	0	44	0	521666560	20	5089
2026-01-29 03:17:47.29	240.74	11.43	-29.5	-32.9	19.0	6.04e-01	0	43	0	525336576	19	5315
2026-01-29 03:17:49.30	240.54	11.25	-29.5	-33.0	18.9	6.06e-01	0	44	0	529006592	19	5382
2026-01-29 03:17:51.30	240.35	11.08	-29.7	-33.1	18.5	6.06e-01	0	44	0	532676608	20	5306
2026-01-29 03:17:53.32	240.16	10.90	-29.7	-33.1	18.4	6.02e-01	0	44	0	536870912	20	5322
2026-01-29 03:17:55.33	239.97	10.72	-29.8	-33.2	18.4	6.03e-01	0	44	0	540540928	20	5365
2026-01-29 03:17:57.33	239.78	10.55	-29.8	-33.5	18.1	6.05e-01	0	43	0	544210944	20	5478
2026-01-29 03:17:59.34	239.60	10.38	-29.7	-33.1	18.4	6.03e-01	0	44	0	547880960	20	5339
2026-01-29 03:18:01.34	239.42	10.21	-29.8	-33.4	18.2	6.02e-01	0	43	0	551550976	20	5420
2026-01-29 03:18:03.35	239.24	10.04	-29.8	-33.3	18.3	6.06e-01	0	44	0	555220992	20	5393
2026-01-29 03:18:05.35	239.06	9.87	-29.7	-33.0	18.4	6.02e-01	0	44	0	559415296	20	5291
2026-01-29 03:18:07.35	238.89	9.70	-29.9	-33.6	18.0	6.03e-01	0	44	0	563085312	20	5512
2026-01-29 03:18:09.36	238.72	9.53	-29.9	-33.6	18.0	6.05e-01	0	44	0	566755328	20	5525
2026-01-29 03:18:11.36	238.55	9.37	-30.1	-34.2	17.6	6.03e-01	0	44	0	570425344	20	5777
2026-01-29 03:18:13.37	238.38	9.20	-30.1	-34.3	17.5	6.05e-01	0	43	0	574095360	20	5834
2026-01-29 03:18:15.37	238.22	9.04	-30.4	-34.7	16.8	6.03e-01	0	44	0	578289664	21	5905
2026-01-29 03:18:17.38	238.05	8.87	-30.1	-33.9	17.4	6.02e-01	0	44	0	581959680	21	5535
2026-01-29 03:18:19.39	237.89	8.71	-30.4	-34.8	16.7	6.03e-01	0	43	0	585629696	21	5960
2026-01-29 03:18:21.39	237.73	8.55	-30.2	-34.1	17.2	6.01e-01	0	44	0	589299712	21	5629
2026-01-29 03:18:23.40	237.58	8.39	-30.1	-34.1	17.2	6.04e-01	0	44	0	592969728	21	5643
2026-01-29 03:18:25.40	237.42	8.23	-30.1	-34.0	17.2	6.04e-01	0	44	0	596639744	21	5635
2026-01-29 03:18:27.41	237.27	8.07	-29.9	-33.9	17.6	6.06e-01	0	44	0	600834048	20	5690
2026-01-29 03:18:29.42	237.12	7.91	-29.8	-33.5	17.9	6.05e-01	0	43	0	604504064	20	5508
2026-01-29 03:18:31.42	236.97	7.75	-29.8	-33.6	17.8	6.04e-01	0	43	0	608174080	20	5580
2026-01-29 03:18:33.43	236.82	7.60	-29.9	-33.9	17.6	6.06e-01	0	44	0	611844096	20	5693
2026-01-29 03:18:35.44	236.67	7.44	-29.9	-34.0	17.5	6.05e-01	0	44	0	615514112	20	5732
2026-01-29 03:18:37.45	236.53	7.29	-30.0	-34.2	17.3	6.02e-01	0	44	0	619184128	20	5840
2026-01-29 03:18:39.46	236.38	7.14	-29.9	-34.0	17.4	6.02e-01	0	44	0	623378432	20	5772
2026-01-29 03:18:41.47	236.24	6.98	-32.6	-52.1	3.8	7.45e-01	0	44	104	624951296	27	33773

#Closed at: 2026-01-29 03:18:42
#Recorded file [624 MB]: D:/data/31010_260129_061306.dat