passes_logs/2026/01/29/R2M6_AANII_01/R2M6_AANII_01__20260129_001240_SUOMI_NPP_rec.log

#Pass ID: 20260129_001240_SUOMI NPP
#Satellite: SUOMI NPP
#Configuration: NPP
#almurnet v.1.7.20240730
#Start time: 2026-01-29 00:12:42

#Version: 2.2.20231116
#Station: R2M6_AANII_01
#Location: 30.233357 lon 59.946436 lat
#TLE: 1 37849U 11061A   26027.86188320  .00000172  00000+0  10275-3 0  9990
#TLE: 2 37849  98.7823 329.8005 0002088  41.4184 318.7150 14.19530883738530

#Time	Az	El	Level	Level2	SNR	BER	BlckErr	Temp	State	Recorded	gain1	gain2
2026-01-29 00:12:42.50	19.35	7.16	-31.4	-37.3	4.7	1.36e+00	0	41	0	0	22	7073
2026-01-29 00:12:45.49	19.40	7.39	-31.5	-36.8	6.6	2.21e-01	0	41	0	1048576	23	6674
2026-01-29 00:12:48.49	19.45	7.62	-31.5	-37.1	6.9	1.74e-01	0	41	0	7340032	22	6887
2026-01-29 00:12:51.49	19.50	7.86	-31.8	-38.2	5.8	3.98e-01	0	41	0	12582912	23	7587
2026-01-29 00:12:54.50	19.55	8.10	-31.1	-35.4	8.2	8.17e-02	0	41	0	17825792	22	5915
2026-01-29 00:12:57.50	19.60	8.34	-30.3	-33.6	10.4	7.50e-03	0	41	0	24117248	20	5213
2026-01-29 00:13:00.50	19.65	8.58	-30.4	-33.8	10.1	7.43e-03	0	41	0	29360128	20	5301
2026-01-29 00:13:03.53	19.70	8.83	-30.4	-33.6	10.3	7.26e-03	0	41	0	35651584	20	5203
2026-01-29 00:13:06.53	19.75	9.08	-30.4	-33.5	10.4	6.12e-03	0	41	0	40894464	20	5191
2026-01-29 00:13:09.54	19.80	9.33	-30.3	-33.2	10.7	4.50e-03	0	41	0	46137344	20	5032
2026-01-29 00:13:12.55	19.86	9.58	-29.8	-32.2	11.9	9.32e-04	0	42	0	52428800	19	4733
2026-01-29 00:13:15.56	19.91	9.84	-29.8	-32.1	12.0	2.41e-03	0	42	0	57671680	19	4697
2026-01-29 00:13:18.57	19.97	10.10	-29.8	-32.1	12.0	2.21e-03	0	42	0	62914560	19	4685
2026-01-29 00:13:21.58	20.02	10.36	-29.8	-32.1	12.0	2.50e-03	0	42	0	69206016	19	4709
2026-01-29 00:13:24.59	20.08	10.62	-29.4	-31.3	12.9	2.25e-03	0	42	0	74448896	18	4519
2026-01-29 00:13:27.60	20.13	10.89	-29.4	-31.4	12.9	4.85e-04	0	42	0	80740352	18	4547
2026-01-29 00:13:30.61	20.19	11.16	-29.2	-31.0	13.2	4.49e-04	0	42	0	85983232	18	4388
2026-01-29 00:13:33.62	20.25	11.43	-29.2	-30.8	13.3	4.65e-04	0	42	0	91226112	18	4329
2026-01-29 00:13:36.62	20.31	11.71	-28.9	-30.6	13.7	5.29e-04	0	42	0	97517568	17	4373
2026-01-29 00:13:39.63	20.37	11.99	-29.0	-30.7	13.7	1.38e-03	0	42	0	102760448	17	4390
2026-01-29 00:13:42.65	20.43	12.27	-28.9	-30.5	13.9	6.07e-04	0	42	0	109051904	17	4319
2026-01-29 00:13:45.66	20.50	12.56	-28.8	-30.2	14.0	6.09e-04	0	42	0	114294784	17	4234
2026-01-29 00:13:48.67	20.56	12.84	-28.8	-30.4	14.0	6.98e-04	0	42	0	119537664	17	4288
2026-01-29 00:13:51.69	20.62	13.14	-28.8	-30.2	14.1	5.36e-04	0	42	0	125829120	17	4241
2026-01-29 00:13:54.69	20.69	13.43	-29.0	-30.2	13.8	5.67e-04	0	42	0	131072000	18	4139
2026-01-29 00:13:57.70	20.75	13.73	-28.8	-30.3	14.1	3.80e-06	0	42	0	136314880	17	4266
2026-01-29 00:14:00.71	20.82	14.04	-29.1	-30.4	13.8	4.50e-06	0	42	0	142606336	18	4193
2026-01-29 00:14:03.72	20.89	14.34	-28.9	-30.0	13.9	3.00e-06	0	42	0	147849216	18	4092
2026-01-29 00:14:06.73	20.96	14.66	-28.8	-30.3	14.1	7.34e-04	0	43	0	154140672	17	4258
2026-01-29 00:14:09.74	21.03	14.97	-28.9	-30.4	14.0	8.06e-04	0	43	0	159383552	17	4285
2026-01-29 00:14:12.76	21.10	15.29	-29.2	-30.6	13.6	8.19e-04	0	43	0	164626432	18	4268
2026-01-29 00:14:15.76	21.18	15.61	-29.2	-30.8	13.6	6.80e-06	0	43	0	170917888	18	4316
2026-01-29 00:14:18.76	21.25	15.94	-29.1	-30.4	13.8	1.06e-05	0	43	0	176160768	18	4189
2026-01-29 00:14:21.76	21.33	16.27	-29.3	-31.0	13.4	1.06e-05	0	43	0	181403648	18	4369
2026-01-29 00:14:24.77	21.41	16.61	-29.4	-30.7	13.3	2.21e-05	0	43	0	187695104	19	4187
2026-01-29 00:14:27.79	21.48	16.95	-29.4	-30.8	13.3	2.13e-05	0	43	0	192937984	19	4223
2026-01-29 00:14:30.81	21.57	17.30	-29.5	-31.0	13.1	3.35e-05	0	43	0	199229440	19	4293
2026-01-29 00:14:33.82	21.65	17.65	-29.4	-30.9	13.3	2.97e-05	0	43	0	204472320	19	4235
2026-01-29 00:14:36.83	21.73	18.01	-29.5	-31.0	13.2	2.67e-05	0	43	0	209715200	19	4261
2026-01-29 00:14:39.84	21.82	18.37	-29.7	-31.6	12.8	6.48e-05	0	43	0	216006656	19	4481
2026-01-29 00:14:42.85	21.91	18.74	-29.9	-32.1	12.4	8.16e-05	0	43	0	221249536	19	4643
2026-01-29 00:14:45.86	21.99	19.11	-30.1	-32.1	12.1	2.44e-04	0	43	0	227540992	20	4569
2026-01-29 00:14:48.87	22.09	19.49	-30.1	-32.3	12.0	3.84e-04	0	43	0	232783872	20	4625
2026-01-29 00:14:51.89	22.18	19.87	-30.2	-32.4	11.8	3.09e-04	0	43	0	238026752	20	4675
2026-01-29 00:14:54.90	22.27	20.26	-30.1	-32.3	12.0	3.77e-04	0	43	0	244318208	20	4610
2026-01-29 00:14:57.91	22.37	20.66	-29.7	-31.1	12.8	8.85e-05	0	43	0	249561088	20	4218
2026-01-29 00:15:00.93	22.47	21.06	-30.0	-31.8	12.4	7.70e-05	0	43	0	254803968	20	4433
2026-01-29 00:15:03.94	22.57	21.47	-30.0	-32.0	12.2	2.26e-04	0	43	0	261095424	20	4490
2026-01-29 00:15:06.96	22.68	21.89	-30.2	-32.3	12.1	5.68e-04	0	43	0	266338304	20	4594
2026-01-29 00:15:09.98	22.78	22.31	-29.8	-31.8	12.8	4.34e-05	0	43	0	272629760	19	4532
2026-01-29 00:15:12.98	22.89	22.74	-29.7	-31.6	13.0	3.81e-05	0	43	0	277872640	19	4438
2026-01-29 00:15:15.99	23.01	23.18	-29.6	-31.3	13.2	3.43e-05	0	43	0	283115520	19	4339
2026-01-29 00:15:19.00	23.12	23.62	-29.6	-31.2	13.3	2.21e-05	0	43	0	289406976	19	4313
2026-01-29 00:15:22.00	23.24	24.07	-29.8	-31.6	12.9	2.44e-05	0	43	0	294649856	19	4455
2026-01-29 00:15:25.01	23.36	24.53	-29.4	-30.7	13.6	6.80e-06	0	43	0	300941312	19	4158
2026-01-29 00:15:28.00	23.48	25.00	-29.3	-30.7	13.9	3.80e-06	0	43	0	306184192	18	4265
2026-01-29 00:15:31.01	23.61	25.47	-29.6	-31.2	13.3	9.10e-06	0	43	0	311427072	19	4330
2026-01-29 00:15:34.02	23.74	25.96	-29.4	-30.5	13.8	3.80e-06	0	43	0	317718528	19	4099
2026-01-29 00:15:37.04	23.88	26.45	-29.6	-31.2	13.4	3.80e-06	0	43	0	322961408	19	4301
2026-01-29 00:15:40.05	24.02	26.96	-29.5	-31.2	13.6	6.80e-06	0	43	0	329252864	18	4419
2026-01-29 00:15:43.06	24.16	27.47	-29.5	-30.9	13.6	8.30e-06	0	43	0	334495744	19	4224
2026-01-29 00:15:46.07	24.31	27.99	-29.5	-30.9	13.6	1.14e-05	0	43	0	339738624	19	4218
2026-01-29 00:15:49.08	24.46	28.52	-29.6	-31.0	13.5	1.06e-05	0	43	0	346030080	19	4243
2026-01-29 00:15:52.09	24.62	29.07	-29.4	-30.5	13.8	1.98e-04	0	43	0	351272960	19	4098
2026-01-29 00:15:55.09	24.78	29.62	-29.3	-30.8	14.0	2.03e-04	0	43	0	356515840	18	4256
2026-01-29 00:15:58.11	24.94	30.18	-29.5	-30.7	13.7	5.30e-06	0	43	0	362807296	19	4147
2026-01-29 00:16:01.12	25.12	30.76	-29.6	-31.1	13.6	7.60e-06	0	43	0	368050176	19	4268
2026-01-29 00:16:04.14	25.29	31.34	-29.7	-31.3	13.4	9.10e-06	0	43	0	374341632	19	4323
2026-01-29 00:16:07.15	25.48	31.94	-29.8	-31.1	13.2	2.91e-04	0	43	0	379584512	20	4177
2026-01-29 00:16:10.17	25.67	32.55	-29.9	-31.2	13.0	3.42e-04	0	43	0	384827392	20	4228
2026-01-29 00:16:13.18	25.87	33.17	-29.9	-31.4	13.0	1.59e-04	0	43	0	391118848	20	4275
2026-01-29 00:16:16.19	26.07	33.81	-30.4	-32.3	12.0	3.42e-04	0	43	0	396361728	21	4494
2026-01-29 00:16:19.20	26.29	34.46	-30.4	-32.2	12.1	5.53e-04	0	43	0	402653184	21	4432
2026-01-29 00:16:22.21	26.51	35.12	-30.6	-32.8	11.8	4.55e-04	0	43	0	407896064	21	4643
2026-01-29 00:16:25.22	26.74	35.79	-30.5	-32.5	12.0	3.45e-04	0	43	0	413138944	21	4528
2026-01-29 00:16:28.23	26.98	36.48	-30.4	-32.2	12.2	2.76e-04	0	43	0	419430400	21	4434
2026-01-29 00:16:31.23	27.22	37.18	-30.7	-33.0	11.6	4.11e-04	0	43	0	424673280	21	4714
2026-01-29 00:16:34.25	27.48	37.90	-30.3	-31.9	12.4	1.67e-04	0	43	0	429916160	21	4337
2026-01-29 00:16:37.27	27.76	38.64	-30.4	-32.3	12.1	2.32e-04	0	43	0	436207616	21	4483
2026-01-29 00:16:40.29	28.04	39.39	-31.1	-33.8	10.7	1.60e-03	0	43	0	441450496	22	4937
2026-01-29 00:16:43.29	28.33	40.15	-31.3	-34.2	10.1	1.27e-02	0	43	0	447741952	23	4994
2026-01-29 00:16:46.30	28.64	40.93	-31.4	-34.5	9.9	7.26e-03	0	43	0	452984832	23	5120
2026-01-29 00:16:49.31	28.97	41.73	-31.2	-33.6	10.5	3.04e-03	0	43	0	458227712	23	4754
2026-01-29 00:16:52.31	29.31	42.54	-30.5	-32.1	12.0	2.77e-04	0	43	0	464519168	22	4292
2026-01-29 00:16:55.33	29.67	43.37	-29.9	-30.8	13.3	8.46e-05	0	43	0	469762048	21	3988
2026-01-29 00:16:58.34	30.04	44.22	-30.5	-32.6	12.1	1.01e-04	0	43	0	475004928	21	4556
2026-01-29 00:17:01.34	30.44	45.09	-30.8	-33.5	11.4	4.72e-04	0	43	0	481296384	21	4902
2026-01-29 00:17:04.34	30.86	45.97	-30.9	-33.2	11.3	1.21e-03	0	43	0	486539264	22	4687
2026-01-29 00:17:07.35	31.30	46.87	-30.7	-32.7	11.7	5.77e-04	0	43	0	492830720	22	4495
2026-01-29 00:17:10.36	31.76	47.79	-31.4	-34.7	10.3	3.63e-03	0	43	0	498073600	22	5290
2026-01-29 00:17:13.36	32.26	48.72	-31.1	-33.4	10.8	5.50e-03	0	43	0	503316480	23	4674
2026-01-29 00:17:16.37	32.78	49.68	-30.1	-31.3	13.0	3.20e-05	0	43	0	509607936	21	4145
2026-01-29 00:17:19.39	33.35	50.65	-29.8	-31.0	13.4	1.87e-04	0	43	0	514850816	20	4140
2026-01-29 00:17:22.40	33.94	51.65	-29.0	-29.8	15.0	7.00e-07	0	43	0	521142272	18	3953
2026-01-29 00:17:25.41	34.58	52.66	-28.7	-29.0	15.4	0.00e+00	0	43	0	526385152	18	3747
2026-01-29 00:17:28.43	35.26	53.69	-27.6	-28.1	16.7	0.00e+00	0	43	0	531628032	15	3796
2026-01-29 00:17:31.45	36.00	54.73	-27.1	-27.0	17.2	0.00e+00	0	43	0	537919488	15	3524
2026-01-29 00:17:34.46	36.79	55.79	-26.9	-27.4	17.6	2.13e-05	0	43	0	543162368	13	3825
2026-01-29 00:17:37.46	37.63	56.87	-26.9	-26.9	17.6	3.43e-04	0	43	0	548405248	14	3611
2026-01-29 00:17:40.47	38.55	57.96	-27.0	-27.2	17.5	3.54e-04	0	44	0	554696704	14	3668
2026-01-29 00:17:43.49	39.55	59.06	-27.7	-28.3	16.7	2.75e-04	0	43	0	559939584	15	3836
2026-01-29 00:17:46.51	40.64	60.18	-28.0	-28.0	16.4	3.89e-05	0	43	0	566231040	17	3584
2026-01-29 00:17:49.51	41.81	61.31	-27.3	-27.7	17.2	0.00e+00	0	44	0	571473920	14	3803
2026-01-29 00:17:52.52	43.10	62.44	-27.2	-27.6	17.3	5.84e-04	0	43	0	576716800	14	3779
2026-01-29 00:17:55.53	44.52	63.58	-26.4	-26.3	18.3	7.02e-04	0	43	0	583008256	13	3552
2026-01-29 00:17:58.55	46.09	64.73	-26.5	-26.5	18.2	9.73e-04	0	43	0	588251136	13	3593
2026-01-29 00:18:01.56	47.81	65.87	-27.0	-27.6	17.6	1.23e-03	0	43	0	594542592	13	3847
2026-01-29 00:18:04.58	49.73	67.01	-28.6	-29.4	15.7	1.31e-03	0	43	0	599785472	17	3923
2026-01-29 00:18:07.59	51.86	68.13	-29.3	-30.6	14.7	4.87e-04	0	43	0	605028352	18	4153
2026-01-29 00:18:10.61	54.25	69.25	-30.1	-31.6	13.4	1.88e-04	0	43	0	611319808	20	4269
2026-01-29 00:18:13.62	56.92	70.33	-30.6	-32.6	12.5	4.12e-04	0	43	0	616562688	21	4502
2026-01-29 00:18:16.62	59.91	71.38	-31.6	-34.7	10.2	5.00e-03	0	43	0	621805568	23	5142
2026-01-29 00:18:19.63	63.27	72.39	-31.0	-33.0	11.8	2.24e-03	0	43	0	628097024	22	4570
2026-01-29 00:18:22.64	67.06	73.34	-30.4	-32.0	12.9	1.09e-03	0	43	0	633339904	21	4307
2026-01-29 00:18:25.65	71.30	74.23	-29.5	-30.5	14.5	0.00e+00	0	43	0	639631360	19	4038
2026-01-29 00:18:28.66	76.05	75.03	-30.3	-31.7	13.1	3.00e-04	0	43	0	644874240	21	4226
2026-01-29 00:18:31.68	81.33	75.72	-30.6	-32.0	12.6	1.04e-04	0	43	0	650117120	22	4238
2026-01-29 00:18:34.68	87.08	76.28	-30.8	-32.9	12.4	2.89e-05	0	43	0	656408576	21	4592
2026-01-29 00:18:37.70	93.31	76.71	-31.0	-33.0	11.9	5.32e-04	0	43	0	661651456	22	4544
2026-01-29 00:18:40.71	99.86	76.97	-31.8	-35.4	10.0	6.49e-03	0	43	0	667942912	23	5408
2026-01-29 00:18:43.72	106.60	77.07	-31.1	-32.9	11.7	7.02e-04	0	43	0	673185792	23	4422
2026-01-29 00:18:46.73	113.35	76.99	-30.7	-32.2	12.5	2.89e-04	0	43	0	678428672	22	4278
2026-01-29 00:18:49.75	119.95	76.74	-32.3	-36.0	8.5	6.27e-02	0	43	0	684720128	25	5502
2026-01-29 00:18:52.77	126.21	76.32	-32.2	-36.2	8.9	3.16e-02	0	43	0	689963008	24	5710
2026-01-29 00:18:55.78	132.02	75.77	-32.5	-37.1	7.7	1.04e-01	0	44	0	695205888	25	6084
2026-01-29 00:18:58.80	137.34	75.08	-32.6	-37.4	7.5	4.84e-02	0	43	0	701497344	25	6265
2026-01-29 00:19:01.81	142.13	74.29	-32.2	-36.0	8.5	4.19e-02	0	43	0	706740224	25	5566
2026-01-29 00:19:04.82	146.41	73.41	-30.8	-32.4	12.3	2.27e-04	0	43	0	713031680	22	4352
2026-01-29 00:19:07.83	150.23	72.46	-31.6	-34.7	10.3	3.54e-03	0	43	0	718274560	23	5136
2026-01-29 00:19:10.85	153.64	71.45	-32.3	-37.0	8.1	4.11e-02	0	43	0	723517440	24	6141
2026-01-29 00:19:13.85	156.65	70.40	-31.0	-33.2	11.7	1.29e-03	0	43	0	729808896	22	4655
2026-01-29 00:19:16.86	159.35	69.32	-30.5	-32.1	12.8	9.76e-05	0	43	0	735051776	21	4358
2026-01-29 00:19:19.87	161.75	68.21	-30.0	-31.3	13.7	4.50e-06	0	43	0	741343232	20	4199
2026-01-29 00:19:22.87	163.89	67.08	-29.0	-29.7	15.4	0.00e+00	0	44	0	746586112	18	3913
2026-01-29 00:19:25.89	165.83	65.94	-28.0	-27.8	16.6	0.00e+00	0	43	0	751828992	17	3522
2026-01-29 00:19:28.91	167.58	64.79	-26.7	-26.4	18.0	0.00e+00	0	43	0	758120448	14	3472
2026-01-29 00:19:31.91	169.14	63.65	-26.5	-26.6	18.2	0.00e+00	0	43	0	763363328	13	3608
2026-01-29 00:19:34.91	170.57	62.51	-27.7	-28.2	16.8	0.00e+00	0	43	0	768606208	15	3809
2026-01-29 00:19:37.91	171.87	61.38	-28.5	-29.1	15.9	0.00e+00	0	43	0	774897664	17	3841
2026-01-29 00:19:40.91	173.05	60.25	-29.9	-31.1	13.9	3.80e-06	0	43	0	780140544	20	4131
2026-01-29 00:19:43.92	174.14	59.13	-30.1	-31.6	13.3	3.43e-05	0	43	0	786432000	20	4293
2026-01-29 00:19:46.93	175.14	58.02	-29.4	-30.7	14.6	0.00e+00	0	44	0	791674880	18	4195
2026-01-29 00:19:49.93	176.07	56.93	-28.1	-28.1	16.4	0.00e+00	0	43	0	796917760	17	3597
2026-01-29 00:19:52.94	176.92	55.85	-27.1	-26.8	17.4	0.00e+00	0	44	0	803209216	15	3482
2026-01-29 00:19:55.96	177.72	54.78	-29.3	-30.1	14.6	0.00e+00	0	43	0	808452096	19	3941
2026-01-29 00:19:58.98	178.46	53.73	-29.2	-30.4	14.7	0.00e+00	0	44	0	813694976	18	4105
2026-01-29 00:20:01.99	179.14	52.70	-29.2	-30.3	14.7	0.00e+00	0	43	0	819986432	18	4101
2026-01-29 00:20:05.01	179.79	51.68	-31.5	-35.0	10.2	3.52e-03	0	43	0	825229312	22	5409
2026-01-29 00:20:08.01	180.38	50.69	-30.3	-31.9	12.7	8.08e-05	0	43	0	831520768	21	4306
2026-01-29 00:20:11.02	180.95	49.71	-29.7	-30.8	13.7	3.00e-06	0	43	0	836763648	20	4060
2026-01-29 00:20:14.03	181.47	48.75	-31.4	-34.5	10.6	6.14e-04	0	44	0	842006528	22	5172
2026-01-29 00:20:17.05	181.97	47.80	-30.5	-31.9	12.3	6.47e-04	0	43	0	848297984	22	4230
2026-01-29 00:20:20.07	182.45	46.88	-31.9	-35.8	9.1	6.77e-03	0	44	0	853540864	23	5671
2026-01-29 00:20:23.08	182.89	45.97	-32.9	-39.8	5.1	7.97e-01	0	43	0	859832320	26	7903
2026-01-29 00:20:26.09	183.31	45.08	-31.7	-34.8	9.4	2.33e-02	0	44	0	865075200	24	5123
2026-01-29 00:20:29.10	183.71	44.21	-31.2	-33.5	10.8	2.81e-03	0	43	0	870318080	23	4700
2026-01-29 00:20:32.12	184.08	43.36	-32.3	-37.2	7.6	5.61e-02	0	44	0	876609536	24	6336
2026-01-29 00:20:35.13	184.44	42.52	-32.2	-36.6	8.1	1.04e-01	0	43	0	881852416	24	5987
2026-01-29 00:20:38.13	184.78	41.71	-29.3	-30.1	14.5	6.10e-06	0	44	0	887095296	19	3954
2026-01-29 00:20:41.14	185.11	40.91	-30.5	-32.5	12.2	6.79e-05	0	44	0	893386752	21	4517
2026-01-29 00:20:44.15	185.42	40.12	-30.2	-31.5	12.8	1.92e-04	0	43	0	898629632	21	4194
2026-01-29 00:20:47.16	185.71	39.35	-29.3	-30.2	14.4	0.00e+00	0	44	0	904921088	19	3990
2026-01-29 00:20:50.17	186.00	38.60	-30.6	-32.7	12.1	3.06e-04	0	43	0	910163968	21	4601
2026-01-29 00:20:53.18	186.27	37.86	-30.6	-32.7	12.0	1.30e-03	0	43	0	915406848	21	4597
2026-01-29 00:20:56.20	186.53	37.14	-30.6	-32.8	11.9	7.14e-04	0	43	0	921698304	21	4641
2026-01-29 00:20:59.21	186.77	36.43	-30.9	-33.7	11.3	1.34e-03	0	43	0	926941184	21	4977
2026-01-29 00:21:02.21	187.01	35.74	-30.8	-33.3	11.5	1.07e-03	0	43	0	933232640	21	4832
2026-01-29 00:21:05.22	187.24	35.06	-29.9	-31.3	13.2	5.66e-04	0	44	0	938475520	20	4244
2026-01-29 00:21:08.23	187.46	34.40	-29.7	-31.3	13.6	4.54e-04	0	44	0	943718400	19	4339
2026-01-29 00:21:11.24	187.68	33.75	-31.5	-35.0	9.6	5.44e-03	0	43	0	950009856	23	5359
2026-01-29 00:21:14.24	187.88	33.11	-31.9	-35.7	8.6	5.01e-02	0	43	0	955252736	24	5583
2026-01-29 00:21:17.24	188.08	32.49	-31.4	-34.3	10.1	1.05e-02	0	43	0	960495616	23	5056
2026-01-29 00:21:20.25	188.27	31.88	-30.9	-33.2	11.2	4.39e-03	0	44	0	966787072	22	4700
2026-01-29 00:21:23.28	188.45	31.27	-30.2	-32.2	12.6	8.69e-05	0	43	0	972029952	20	4515
2026-01-29 00:21:26.28	188.63	30.69	-29.3	-30.8	14.2	2.20e-06	0	44	0	978321408	18	4241
2026-01-29 00:21:29.28	188.80	30.11	-29.1	-30.1	14.7	1.06e-03	0	44	0	983564288	18	4063
2026-01-29 00:21:32.29	188.96	29.55	-29.4	-31.0	14.1	1.46e-03	0	43	0	988807168	18	4321
2026-01-29 00:21:35.31	189.13	28.99	-30.1	-32.0	12.7	2.02e-03	0	43	0	995098624	20	4464
2026-01-29 00:21:38.32	189.28	28.44	-31.1	-34.0	10.6	2.95e-03	0	44	0	1000341504	22	5019
2026-01-29 00:21:41.34	189.43	27.91	-31.4	-34.4	9.9	1.02e-02	0	44	0	1006632960	23	5085
2026-01-29 00:21:44.36	189.58	27.38	-30.5	-32.5	12.0	2.22e-04	0	44	0	1011875840	21	4558
2026-01-29 00:21:47.37	189.72	26.87	-29.8	-31.2	13.2	3.89e-05	0	44	0	1017118720	20	4194
2026-01-29 00:21:50.37	189.86	26.36	-29.3	-30.7	14.2	7.00e-07	0	43	0	1023410176	18	4238
2026-01-29 00:21:53.38	189.99	25.87	-29.1	-30.3	14.4	1.50e-06	0	43	0	1028653056	18	4118
2026-01-29 00:21:56.40	190.12	25.38	-29.1	-30.3	14.4	1.50e-06	0	43	0	1033895936	18	4124
2026-01-29 00:21:59.40	190.25	24.90	-29.0	-29.9	14.6	7.00e-07	0	43	0	1040187392	18	4005
2026-01-29 00:22:02.42	190.37	24.43	-28.5	-29.4	14.9	0.00e+00	0	44	0	1045430272	17	3953
2026-01-29 00:22:05.43	190.49	23.97	-28.1	-28.8	15.6	0.00e+00	0	43	0	1051721728	16	3900
2026-01-29 00:22:08.43	190.61	23.52	-27.6	-28.1	15.4	0.00e+00	0	43	0	1056964608	15	3835
2026-01-29 00:22:11.45	190.72	23.07	-28.0	-29.0	15.8	0.00e+00	0	43	0	1062207488	15	4070
2026-01-29 00:22:14.46	190.83	22.63	-28.6	-29.6	15.0	2.58e-04	0	43	0	1068498944	17	4033
2026-01-29 00:22:17.46	190.94	22.20	-29.1	-30.2	14.4	3.68e-04	0	43	0	1073741824	18	4101
2026-01-29 00:22:20.47	191.05	21.78	-29.1	-30.4	14.4	3.22e-04	0	43	0	1078984704	18	4151
2026-01-29 00:22:23.48	191.15	21.36	-29.0	-30.0	14.5	0.00e+00	0	43	0	1085276160	18	4033
2026-01-29 00:22:26.48	191.25	20.95	-29.0	-30.1	14.4	0.00e+00	0	44	0	1090519040	18	4087
2026-01-29 00:22:29.50	191.35	20.54	-29.2	-30.5	14.2	1.50e-06	0	43	0	1096810496	18	4188
2026-01-29 00:22:32.51	191.44	20.15	-29.9	-32.0	12.8	2.24e-04	0	44	0	1102053376	19	4568
2026-01-29 00:22:35.51	191.53	19.76	-29.5	-30.8	13.6	2.47e-04	0	43	0	1107296256	19	4185
2026-01-29 00:22:38.51	191.63	19.37	-29.2	-30.5	14.1	2.21e-04	0	43	0	1113587712	18	4194
2026-01-29 00:22:41.53	191.72	18.99	-28.9	-29.7	14.6	2.68e-04	0	44	0	1118830592	18	3962
2026-01-29 00:22:44.53	191.80	18.62	-28.7	-29.3	14.9	2.78e-04	0	44	0	1124073472	18	3841
2026-01-29 00:22:47.55	191.89	18.25	-28.6	-29.6	15.0	5.18e-05	0	44	0	1130364928	17	4034
2026-01-29 00:22:50.55	191.97	17.89	-28.6	-29.6	14.9	2.51e-04	0	44	0	1135607808	17	4039
2026-01-29 00:22:53.56	192.05	17.53	-28.8	-30.0	14.6	2.77e-04	0	43	0	1141899264	17	4145
2026-01-29 00:22:56.57	192.13	17.17	-29.0	-30.1	14.3	2.99e-04	0	43	0	1147142144	18	4076
2026-01-29 00:22:59.58	192.21	16.83	-29.1	-30.3	14.2	3.84e-04	0	44	0	1152385024	18	4136
2026-01-29 00:23:02.59	192.29	16.48	-29.1	-30.4	14.0	3.78e-04	0	44	0	1158676480	18	4182
2026-01-29 00:23:05.60	192.37	16.15	-29.1	-30.5	14.0	3.66e-04	0	43	0	1163919360	18	4198
2026-01-29 00:23:08.61	192.44	15.81	-29.2	-30.8	13.8	4.50e-06	0	44	0	1170210816	18	4288
2026-01-29 00:23:11.63	192.51	15.48	-29.2	-30.6	13.9	4.50e-06	0	44	0	1175453696	18	4244
2026-01-29 00:23:14.64	192.58	15.16	-29.4	-31.1	13.5	1.06e-05	0	44	0	1180696576	18	4410
2026-01-29 00:23:17.65	192.65	14.84	-29.4	-30.8	13.4	5.11e-04	0	44	0	1186988032	19	4214
2026-01-29 00:23:20.67	192.72	14.52	-29.6	-31.3	13.1	2.71e-04	0	43	0	1192230912	19	4378
2026-01-29 00:23:23.67	192.79	14.21	-29.6	-31.3	13.0	1.20e-04	0	43	0	1197473792	19	4384
2026-01-29 00:23:26.67	192.86	13.90	-29.9	-32.1	12.5	5.18e-05	0	44	0	1203765248	19	4636
2026-01-29 00:23:29.69	192.92	13.59	-29.6	-31.3	13.1	3.20e-05	0	44	0	1209008128	19	4359
2026-01-29 00:23:32.69	192.99	13.29	-29.5	-31.1	13.1	3.35e-05	0	44	0	1215299584	19	4318
2026-01-29 00:23:35.69	193.05	13.00	-29.5	-31.1	13.1	3.12e-05	0	43	0	1220542464	19	4327
2026-01-29 00:23:38.70	193.11	12.70	-29.6	-31.3	13.0	6.86e-05	0	44	0	1225785344	19	4370
2026-01-29 00:23:41.71	193.17	12.41	-29.6	-31.3	13.0	3.12e-05	0	44	0	1232076800	19	4367
2026-01-29 00:23:44.73	193.23	12.13	-29.6	-31.3	12.9	7.55e-05	0	44	0	1237319680	19	4394
2026-01-29 00:23:47.74	193.29	11.84	-29.4	-31.3	13.2	2.28e-05	0	43	0	1243611136	18	4484
2026-01-29 00:23:50.75	193.35	11.56	-29.5	-31.0	13.0	3.58e-05	0	43	0	1248854016	19	4306
2026-01-29 00:23:53.76	193.41	11.29	-29.5	-31.5	13.0	3.12e-05	0	44	0	1254096896	18	4557
2026-01-29 00:23:56.76	193.46	11.01	-29.6	-31.3	12.8	5.11e-05	0	44	0	1260388352	19	4392
2026-01-29 00:23:59.77	193.52	10.74	-29.7	-31.7	12.5	8.46e-05	0	44	0	1265631232	19	4534
2026-01-29 00:24:02.77	193.57	10.47	-29.8	-31.9	12.4	1.63e-04	0	44	0	1270874112	19	4603
2026-01-29 00:24:05.79	193.63	10.21	-29.9	-31.9	12.0	3.23e-04	0	44	0	1277165568	20	4524
2026-01-29 00:24:08.80	193.68	9.95	-30.0	-32.3	11.6	5.84e-04	0	44	0	1282408448	20	4669
2026-01-29 00:24:11.81	193.73	9.69	-29.8	-31.6	12.1	4.67e-04	0	43	0	1288699904	20	4437
2026-01-29 00:24:14.82	193.78	9.43	-29.9	-32.3	12.1	2.18e-04	0	44	0	1293942784	19	4735
2026-01-29 00:24:17.82	193.83	9.18	-29.9	-31.8	12.0	3.46e-04	0	44	0	1299185664	20	4483
2026-01-29 00:24:20.83	193.88	8.92	-29.8	-32.2	12.0	2.71e-04	0	43	0	1305477120	19	4700
2026-01-29 00:24:23.85	193.93	8.67	-30.0	-32.3	11.6	5.03e-04	0	44	0	1310720000	20	4665
2026-01-29 00:24:26.86	193.98	8.43	-29.9	-32.0	11.7	7.97e-04	0	44	0	1315962880	20	4567
2026-01-29 00:24:29.86	194.03	8.18	-30.0	-32.4	11.4	7.87e-04	0	43	0	1322254336	20	4717
2026-01-29 00:24:32.87	194.07	7.94	-30.0	-32.3	11.5	8.85e-04	0	43	0	1327497216	20	4685
2026-01-29 00:24:35.88	194.12	7.70	-30.0	-32.5	11.3	1.22e-03	0	44	0	1333788672	20	4771
2026-01-29 00:24:38.88	194.17	7.46	-30.1	-32.5	11.2	1.70e-03	0	43	0	1339031552	20	4794
2026-01-29 00:24:41.90	194.21	7.23	-29.8	-31.9	11.7	6.05e-04	0	44	0	1344274432	20	4556
2026-01-29 00:24:44.90	194.26	7.00	-32.9	-45.6	3.8	1.49e+00	0	44	104	1347420160	25	15539

#Closed at: 2026-01-29 00:24:47
#Recorded file [1347 MB]: D:/data/31010_260129_031244.dat