passes_logs/2026/01/29/R2M6_AANII_01/R2M6_AANII_01__20260129_043014_FENGYUN_3D_rec.log

#Pass ID: 20260129_043014_FENGYUN 3D
#Satellite: FENGYUN 3D
#Configuration: FENGYUN 3D
#almurnet v.1.7.20240730
#Start time: 2026-01-29 04:30:13

#Version: 2.2.20231116
#Station: R2M6_AANII_01
#Location: 30.233357 lon 59.946436 lat
#TLE: 1 43010U 17072A   26027.90082829  .00000305  00000+0  16579-3 0  9998
#TLE: 2 43010  98.9960 359.9183 0002511  88.1058 272.0405 14.19701796425082

#Time	Az	El	Level	Level2	SNR	BER	BlckErr	Temp	State	Recorded	gain1	gain2
2026-01-29 04:30:13.95	10.65	6.99	-31.1	-35.9	4.8	8.10e-01	0	40	0	0	22	6279
2026-01-29 04:30:16.95	10.36	7.18	-30.6	-34.6	8.0	8.60e-02	0	40	0	5242880	21	5720
2026-01-29 04:30:19.97	10.07	7.37	-30.4	-34.2	8.3	6.28e-02	0	40	0	22020096	21	5518
2026-01-29 04:30:22.98	9.78	7.56	-30.7	-35.1	7.7	9.11e-02	0	40	0	38797312	21	5952
2026-01-29 04:30:25.98	9.48	7.75	-29.4	-32.2	10.6	6.54e-03	0	40	0	55574528	19	4921
2026-01-29 04:30:28.98	9.18	7.93	-28.0	-30.1	12.9	1.46e-04	0	41	0	73400320	16	4557
2026-01-29 04:30:31.99	8.87	8.13	-27.5	-29.9	13.4	2.74e-05	0	41	0	90177536	14	4743
2026-01-29 04:30:35.00	8.56	8.32	-27.5	-29.3	13.5	1.94e-05	0	41	0	106954752	15	4440
2026-01-29 04:30:38.01	8.24	8.51	-27.4	-29.7	13.6	1.02e-05	0	41	0	123731968	14	4673
2026-01-29 04:30:41.02	7.92	8.70	-27.9	-29.8	13.1	6.86e-05	0	41	0	140509184	16	4461
2026-01-29 04:30:44.02	7.60	8.90	-27.0	-28.6	14.3	2.20e-06	0	41	0	157286400	14	4350
2026-01-29 04:30:47.03	7.27	9.09	-27.0	-28.7	14.2	0.00e+00	0	41	0	174063616	14	4380
2026-01-29 04:30:50.04	6.94	9.28	-27.1	-29.0	14.1	2.20e-06	0	41	0	190840832	14	4458
2026-01-29 04:30:53.06	6.60	9.48	-27.0	-28.6	14.3	0.00e+00	0	41	0	208666624	14	4354
2026-01-29 04:30:56.07	6.26	9.68	-26.9	-29.0	14.3	1.10e-06	0	41	0	225443840	13	4576
2026-01-29 04:30:59.09	5.91	9.87	-26.5	-28.1	14.9	0.00e+00	0	41	0	242221056	13	4316
2026-01-29 04:31:02.10	5.55	10.07	-26.5	-28.1	14.9	0.00e+00	0	41	0	258998272	13	4325
2026-01-29 04:31:05.11	5.20	10.27	-26.6	-28.4	14.7	1.10e-06	0	41	0	275775488	13	4389
2026-01-29 04:31:08.13	4.83	10.47	-26.6	-28.2	14.6	0.00e+00	0	41	0	293601280	13	4346
2026-01-29 04:31:11.14	4.47	10.66	-26.4	-27.9	15.1	0.00e+00	0	41	0	310378496	13	4254
2026-01-29 04:31:14.15	4.09	10.86	-26.3	-28.1	15.2	0.00e+00	0	41	0	327155712	12	4417
2026-01-29 04:31:17.17	3.71	11.06	-26.2	-27.8	15.4	2.28e-05	0	42	0	343932928	12	4355
2026-01-29 04:31:20.18	3.33	11.26	-26.3	-28.2	15.2	5.70e-06	0	42	0	360710144	12	4450
2026-01-29 04:31:23.19	2.94	11.46	-26.3	-28.1	15.2	0.00e+00	0	41	0	377487360	12	4437
2026-01-29 04:31:26.19	2.55	11.66	-26.8	-28.8	14.5	1.18e-04	0	42	0	394264576	13	4522
2026-01-29 04:31:29.20	2.15	11.86	-26.4	-27.7	15.2	6.63e-05	0	42	0	412090368	13	4211
2026-01-29 04:31:32.21	1.75	12.06	-26.2	-27.9	15.4	1.37e-04	0	42	0	428867584	12	4369
2026-01-29 04:31:35.22	1.34	12.26	-26.0	-27.5	15.7	1.11e-04	0	42	0	445644800	12	4249
2026-01-29 04:31:38.22	0.92	12.46	-25.8	-27.1	15.9	1.09e-04	0	42	0	462422016	12	4145
2026-01-29 04:31:41.23	0.50	12.67	-25.7	-27.2	16.2	1.50e-04	0	42	0	479199232	11	4288
2026-01-29 04:31:44.25	0.07	12.87	-25.7	-27.1	16.3	0.00e+00	0	42	0	495976448	11	4268
2026-01-29 04:31:47.26	359.63	13.07	-25.9	-27.7	15.9	2.05e-05	0	42	0	513802240	11	4416
2026-01-29 04:31:50.26	359.19	13.27	-26.0	-27.4	15.7	1.51e-04	0	42	0	530579456	12	4226
2026-01-29 04:31:53.27	358.75	13.47	-25.9	-27.6	14.0	0.00e+00	0	42	0	547356672	11	4387
2026-01-29 04:31:56.28	358.29	13.67	-26.0	-27.4	15.7	0.00e+00	0	42	0	564133888	12	4227
2026-01-29 04:31:59.29	357.83	13.87	-25.8	-27.3	16.2	0.00e+00	0	42	0	580911104	11	4320
2026-01-29 04:32:02.31	357.37	14.07	-25.6	-27.0	16.3	9.06e-04	0	42	0	597688320	11	4235
2026-01-29 04:32:05.32	356.90	14.28	-25.4	-27.0	16.6	0.00e+00	0	42	0	614465536	10	4338
2026-01-29 04:32:08.32	356.42	14.47	-25.5	-26.7	16.5	0.00e+00	0	42	0	631242752	11	4149
2026-01-29 04:32:11.32	355.93	14.67	-25.5	-27.2	16.5	7.44e-04	0	42	0	649068544	10	4405
2026-01-29 04:32:14.33	355.44	14.87	-25.6	-27.0	16.4	7.84e-04	0	42	0	665845760	11	4217
2026-01-29 04:32:17.33	354.94	15.07	-25.4	-27.1	16.6	6.04e-04	0	42	0	682622976	10	4359
2026-01-29 04:32:20.35	354.44	15.27	-25.6	-27.1	16.4	5.09e-04	0	42	0	699400192	11	4243
2026-01-29 04:32:23.35	353.93	15.47	-25.6	-27.0	16.4	3.82e-04	0	42	0	716177408	11	4238
2026-01-29 04:32:26.37	353.41	15.66	-25.7	-27.3	16.2	3.84e-04	0	42	0	732954624	11	4317
2026-01-29 04:32:29.37	352.88	15.86	-25.5	-26.8	16.5	0.00e+00	0	42	0	749731840	11	4187
2026-01-29 04:32:32.39	352.34	16.06	-25.1	-26.5	17.0	3.52e-04	0	42	0	766509056	10	4197
2026-01-29 04:32:35.41	351.80	16.25	-25.1	-26.4	17.0	3.03e-04	0	42	0	784334848	10	4178
2026-01-29 04:32:38.43	351.25	16.44	-25.2	-26.5	17.0	0.00e+00	0	42	0	801112064	10	4211
2026-01-29 04:32:41.44	350.70	16.64	-25.1	-26.5	17.0	0.00e+00	0	42	0	817889280	10	4197
2026-01-29 04:32:44.45	350.14	16.83	-24.9	-26.0	17.3	7.24e-04	0	42	0	834666496	10	4076
2026-01-29 04:32:47.46	349.57	17.01	-25.0	-26.2	17.2	0.00e+00	0	42	0	851443712	10	4123
2026-01-29 04:32:50.48	348.99	17.20	-25.0	-26.6	17.2	0.00e+00	0	42	0	869269504	9	4343
2026-01-29 04:32:53.49	348.40	17.39	-25.0	-26.3	17.2	0.00e+00	0	42	0	886046720	10	4144
2026-01-29 04:32:56.50	347.81	17.57	-24.9	-26.0	17.3	0.00e+00	0	42	0	902823936	10	4073
2026-01-29 04:32:59.50	347.21	17.75	-24.9	-26.0	17.3	0.00e+00	0	42	0	919601152	10	4072
2026-01-29 04:33:02.51	346.61	17.94	-24.9	-26.0	17.3	0.00e+00	0	42	0	936378368	10	4076
2026-01-29 04:33:05.51	346.00	18.11	-24.6	-25.4	17.6	0.00e+00	0	43	0	953155584	10	3922
2026-01-29 04:33:08.52	345.38	18.29	-24.3	-25.2	18.0	0.00e+00	0	42	0	969932800	9	3981
2026-01-29 04:33:11.53	344.75	18.46	-24.5	-25.6	17.8	0.00e+00	0	43	0	987758592	9	4093
2026-01-29 04:33:14.54	344.11	18.63	-24.6	-25.9	17.6	0.00e+00	0	42	0	1004535808	9	4164
2026-01-29 04:33:17.56	343.47	18.80	-24.6	-25.8	17.7	0.00e+00	0	42	0	1021313024	9	4131
2026-01-29 04:33:20.57	342.82	18.97	-24.5	-25.5	17.8	0.00e+00	0	42	0	1038090240	9	4067
2026-01-29 04:33:23.58	342.16	19.13	-24.2	-24.9	18.1	0.00e+00	0	42	0	1054867456	9	3918
2026-01-29 04:33:26.58	341.50	19.29	-24.1	-25.2	18.2	0.00e+00	0	42	0	1071644672	8	4112
2026-01-29 04:33:29.60	340.82	19.45	-24.2	-25.4	18.2	0.00e+00	0	42	0	1088421888	8	4151
2026-01-29 04:33:32.60	340.15	19.61	-24.0	-25.1	13.5	0.00e+00	0	42	0	1105199104	8	4086
2026-01-29 04:33:35.60	339.46	19.76	-23.9	-24.9	18.5	0.00e+00	0	42	0	1123024896	8	4016
2026-01-29 04:33:38.61	338.77	19.90	-23.6	-24.8	18.7	0.00e+00	0	43	0	1139802112	7	4098
2026-01-29 04:33:41.62	338.07	20.05	-23.7	-24.9	18.6	1.20e-03	0	42	0	1156579328	7	4141
2026-01-29 04:33:44.64	337.37	20.19	-23.6	-24.8	18.7	1.14e-03	0	42	0	1173356544	7	4104
2026-01-29 04:33:47.65	336.65	20.33	-23.8	-25.1	18.6	0.00e+00	0	42	0	1190133760	7	4185
2026-01-29 04:33:50.65	335.94	20.46	-23.9	-25.3	18.5	1.16e-03	0	43	0	1206910976	7	4231
2026-01-29 04:33:53.66	335.21	20.59	-23.6	-24.8	18.7	1.09e-03	0	42	0	1224736768	7	4114
2026-01-29 04:33:56.68	334.48	20.71	-23.8	-25.1	18.6	1.02e-03	0	43	0	1241513984	7	4176
2026-01-29 04:33:59.70	333.74	20.83	-23.8	-25.1	18.6	1.14e-03	0	42	0	1258291200	7	4191
2026-01-29 04:34:02.71	333.00	20.95	-23.8	-25.2	18.5	9.03e-04	0	42	0	1275068416	7	4225
2026-01-29 04:34:05.72	332.25	21.06	-24.1	-25.2	18.3	7.83e-04	0	42	0	1291845632	8	4090
2026-01-29 04:34:08.74	331.50	21.16	-23.8	-24.7	18.6	0.00e+00	0	42	0	1308622848	8	3967
2026-01-29 04:34:11.75	330.74	21.26	-23.7	-24.9	18.7	0.00e+00	0	42	0	1326448640	7	4147
2026-01-29 04:34:14.77	329.97	21.36	-23.5	-24.5	18.9	7.68e-04	0	43	0	1343225856	7	4028
2026-01-29 04:34:17.78	329.20	21.45	-23.3	-24.5	19.2	6.28e-04	0	42	0	1360003072	6	4154
2026-01-29 04:34:20.79	328.43	21.54	-23.4	-24.7	19.1	0.00e+00	0	42	0	1376780288	6	4200
2026-01-29 04:34:23.80	327.65	21.62	-23.4	-24.7	19.1	0.00e+00	0	42	0	1393557504	6	4204
2026-01-29 04:34:26.81	326.87	21.69	-23.7	-25.0	18.7	2.85e-04	0	42	0	1410334720	7	4158
2026-01-29 04:34:29.82	326.09	21.76	-23.5	-24.5	18.9	2.73e-04	0	42	0	1428160512	7	4029
2026-01-29 04:34:32.84	325.30	21.83	-23.7	-24.9	18.7	0.00e+00	0	42	0	1444937728	7	4127
2026-01-29 04:34:35.85	324.51	21.89	-23.5	-24.4	19.0	0.00e+00	0	42	0	1461714944	7	4021
2026-01-29 04:34:38.86	323.71	21.94	-23.6	-24.6	18.8	0.00e+00	0	42	0	1478492160	7	4061
2026-01-29 04:34:41.88	322.91	21.99	-23.4	-24.3	19.0	0.00e+00	0	42	0	1495269376	7	3986
2026-01-29 04:34:44.89	322.11	22.03	-23.4	-24.2	19.0	0.00e+00	0	42	0	1512046592	7	3973
2026-01-29 04:34:47.90	321.31	22.06	-23.2	-24.4	19.2	2.48e-04	0	42	0	1528823808	6	4136
2026-01-29 04:34:50.91	320.51	22.09	-23.2	-24.3	19.3	0.00e+00	0	42	0	1546649600	6	4090
2026-01-29 04:34:53.93	319.70	22.11	-23.2	-24.4	19.2	0.00e+00	0	42	0	1563426816	6	4131
2026-01-29 04:34:56.94	318.90	22.13	-23.4	-24.8	19.0	0.00e+00	0	43	0	1580204032	6	4235
2026-01-29 04:34:59.94	318.10	22.14	-23.4	-24.8	19.0	7.19e-04	0	42	0	1596981248	6	4228
2026-01-29 04:35:02.95	317.29	22.15	-23.0	-24.0	18.9	0.00e+00	0	42	0	1613758464	6	4022
2026-01-29 04:35:05.96	316.48	22.15	-23.0	-24.0	19.4	0.00e+00	0	42	0	1630535680	6	4029
2026-01-29 04:35:08.98	315.67	22.14	-23.1	-24.2	19.3	1.10e-06	0	42	0	1648361472	6	4086
2026-01-29 04:35:11.98	314.87	22.13	-23.2	-24.4	19.2	0.00e+00	0	42	0	1665138688	6	4111
2026-01-29 04:35:15.00	314.06	22.11	-23.5	-24.9	19.0	0.00e+00	0	43	0	1681915904	6	4257
2026-01-29 04:35:18.00	313.26	22.08	-23.4	-24.9	19.0	0.00e+00	0	42	0	1698693120	6	4240
2026-01-29 04:35:21.01	312.46	22.05	-24.0	-25.5	18.4	0.00e+00	0	43	0	1715470336	7	4275
2026-01-29 04:35:24.03	311.66	22.01	-23.2	-24.0	19.2	0.00e+00	0	42	0	1732247552	7	3910
2026-01-29 04:35:27.04	310.86	21.97	-23.3	-24.6	19.1	0.00e+00	0	43	0	1749024768	6	4182
2026-01-29 04:35:30.05	310.06	21.92	-23.1	-24.2	19.3	0.00e+00	0	43	0	1765801984	6	4071
2026-01-29 04:35:33.06	309.27	21.87	-23.2	-24.5	19.2	0.00e+00	0	43	0	1783627776	6	4140
2026-01-29 04:35:36.07	308.48	21.81	-23.3	-24.5	19.2	0.00e+00	0	42	0	1800404992	6	4143
2026-01-29 04:35:39.08	307.69	21.74	-23.1	-24.2	19.3	0.00e+00	0	43	0	1817182208	6	4087
2026-01-29 04:35:42.09	306.90	21.67	-23.1	-24.1	19.4	0.00e+00	0	42	0	1833959424	6	4049
2026-01-29 04:35:45.10	306.12	21.59	-23.1	-24.1	19.4	0.00e+00	0	43	0	1850736640	6	4044
2026-01-29 04:35:48.11	305.35	21.51	-23.2	-24.4	19.2	0.00e+00	0	43	0	1868562432	6	4125
2026-01-29 04:35:51.12	304.57	21.42	-23.2	-24.4	19.2	0.00e+00	0	43	0	1885339648	6	4132
2026-01-29 04:35:54.12	303.81	21.33	-23.2	-24.3	19.2	1.48e-05	0	43	0	1902116864	6	4101
2026-01-29 04:35:57.15	303.04	21.23	-23.2	-24.3	19.2	0.00e+00	0	42	0	1918894080	6	4109
2026-01-29 04:36:00.15	302.29	21.13	-23.1	-24.1	19.3	0.00e+00	0	43	0	1935671296	6	4051
2026-01-29 04:36:03.15	301.53	21.02	-23.5	-24.6	18.8	0.00e+00	0	42	0	1952448512	7	4066
2026-01-29 04:36:06.16	300.79	20.91	-23.4	-24.2	19.0	0.00e+00	0	43	0	1969225728	7	3967
2026-01-29 04:36:09.17	300.05	20.79	-23.5	-24.9	18.9	5.70e-04	0	43	0	1987051520	6	4252
2026-01-29 04:36:12.17	299.31	20.67	-23.7	-25.0	18.6	0.00e+00	0	43	0	2003828736	7	4151
2026-01-29 04:36:15.18	298.58	20.55	-23.5	-24.5	18.9	0.00e+00	0	43	0	2020605952	7	4029
2026-01-29 04:36:18.19	297.86	20.42	-23.4	-24.3	18.9	2.20e-06	0	43	0	2037383168	7	3990
2026-01-29 04:36:21.19	297.14	20.28	-23.4	-24.3	18.9	0.00e+00	0	43	0	2054160384	7	3999
2026-01-29 04:36:24.19	296.43	20.15	-23.4	-24.2	19.0	2.20e-06	0	43	0	2070937600	7	3957
2026-01-29 04:36:27.20	295.73	20.01	-23.6	-24.7	18.7	0.00e+00	0	43	0	2087714816	7	4088
2026-01-29 04:36:30.22	295.02	19.86	-23.7	-25.0	18.5	3.40e-06	0	42	0	2104492032	7	4164
2026-01-29 04:36:33.23	294.33	19.71	-23.8	-25.1	18.5	1.10e-06	0	43	0	2122317824	7	4202
2026-01-29 04:36:36.24	293.65	19.56	-23.6	-24.6	18.7	0.00e+00	0	43	0	2139095040	7	4075
2026-01-29 04:36:39.25	292.97	19.40	-23.6	-24.6	18.7	0.00e+00	0	43	0	2155872256	7	4071
2026-01-29 04:36:42.26	292.30	19.24	-23.3	-24.5	16.2	0.00e+00	0	43	0	2172649472	7	4154
2026-01-29 04:36:45.28	291.63	19.08	-23.9	-25.4	18.2	0.00e+00	0	43	0	2189426688	7	4255
2026-01-29 04:36:48.30	290.97	18.92	-24.4	-25.9	17.8	0.00e+00	0	43	0	2206203904	8	4270
2026-01-29 04:36:51.31	290.32	18.75	-24.3	-25.7	17.9	0.00e+00	0	43	0	2224029696	8	4227
2026-01-29 04:36:54.32	289.68	18.58	-24.5	-26.1	17.7	0.00e+00	0	43	0	2240806912	8	4318
2026-01-29 04:36:57.34	289.04	18.40	-24.4	-25.3	17.8	1.16e-03	0	43	0	2257584128	9	4025
2026-01-29 04:37:00.35	288.41	18.23	-24.6	-25.9	17.5	1.19e-03	0	43	0	2274361344	9	4165
2026-01-29 04:37:03.36	287.79	18.05	-24.0	-25.1	18.2	4.69e-04	0	43	0	2291138560	8	4068
2026-01-29 04:37:06.38	287.18	17.87	-23.9	-24.9	18.3	1.07e-03	0	43	0	2307915776	8	4027
2026-01-29 04:37:09.38	286.57	17.69	-24.1	-25.4	18.0	1.25e-03	0	43	0	2324692992	8	4144
2026-01-29 04:37:12.40	285.97	17.51	-24.1	-25.3	18.0	7.71e-04	0	43	0	2342518784	8	4137
2026-01-29 04:37:15.41	285.38	17.32	-24.1	-25.4	18.0	0.00e+00	0	42	0	2359296000	8	4143
2026-01-29 04:37:18.41	284.80	17.14	-24.2	-25.5	17.9	7.85e-04	0	43	0	2376073216	8	4181
2026-01-29 04:37:21.42	284.22	16.95	-24.6	-25.9	17.4	7.37e-04	0	43	0	2392850432	9	4169
2026-01-29 04:37:24.42	283.65	16.76	-24.2	-25.5	17.9	0.00e+00	0	43	0	2409627648	8	4182
2026-01-29 04:37:27.42	283.09	16.57	-24.4	-26.0	17.7	0.00e+00	0	43	0	2426404864	8	4300
2026-01-29 04:37:30.42	282.54	16.37	-24.4	-25.9	17.7	2.40e-05	0	43	0	2443182080	8	4280
2026-01-29 04:37:33.42	281.99	16.18	-24.5	-25.6	17.6	6.50e-04	0	43	0	2459959296	9	4089
2026-01-29 04:37:36.45	281.45	15.99	-24.6	-25.8	17.5	0.00e+00	0	42	0	2477785088	9	4156
2026-01-29 04:37:39.46	280.92	15.79	-24.6	-25.8	17.4	0.00e+00	0	43	0	2494562304	9	4137
2026-01-29 04:37:42.47	280.39	15.59	-24.6	-25.9	17.4	0.00e+00	0	43	0	2511339520	9	4161
2026-01-29 04:37:45.47	279.87	15.40	-24.9	-26.5	17.1	0.00e+00	0	43	0	2528116736	9	4320
2026-01-29 04:37:48.48	279.36	15.20	-24.6	-25.8	17.4	0.00e+00	0	43	0	2544893952	9	4141
2026-01-29 04:37:51.48	278.85	15.00	-24.7	-26.0	17.3	0.00e+00	0	43	0	2561671168	9	4203
2026-01-29 04:37:54.50	278.35	14.80	-24.7	-26.0	17.3	0.00e+00	0	43	0	2578448384	9	4198
2026-01-29 04:37:57.51	277.86	14.60	-24.6	-25.9	17.3	0.00e+00	0	43	0	2596274176	9	4180
2026-01-29 04:38:00.53	277.37	14.40	-24.9	-26.5	17.0	0.00e+00	0	43	0	2613051392	9	4326
2026-01-29 04:38:03.54	276.89	14.20	-25.0	-26.7	16.9	0.00e+00	0	43	0	2629828608	9	4395
2026-01-29 04:38:06.55	276.42	14.00	-25.2	-26.8	16.6	0.00e+00	0	43	0	2646605824	10	4285
2026-01-29 04:38:09.56	275.95	13.79	-25.3	-26.9	16.5	0.00e+00	0	43	0	2663383040	10	4325
2026-01-29 04:38:12.58	275.49	13.59	-25.2	-26.7	16.6	0.00e+00	0	43	0	2680160256	10	4283
2026-01-29 04:38:15.58	275.04	13.39	-25.1	-26.5	16.7	0.00e+00	0	43	0	2697986048	10	4238
2026-01-29 04:38:18.59	274.59	13.19	-25.2	-26.8	16.5	0.00e+00	0	43	0	2714763264	10	4325
2026-01-29 04:38:21.59	274.15	12.99	-25.3	-26.9	16.4	0.00e+00	0	43	0	2731540480	10	4336
2026-01-29 04:38:24.58	273.72	12.79	-25.2	-26.6	16.6	0.00e+00	0	43	0	2748317696	10	4250
2026-01-29 04:38:27.61	273.29	12.58	-25.4	-27.1	16.3	9.20e-04	0	43	0	2765094912	10	4392
2026-01-29 04:38:30.61	272.87	12.38	-25.7	-27.3	15.9	0.00e+00	0	43	0	2781872128	11	4319
2026-01-29 04:38:33.62	272.45	12.18	-25.5	-26.7	16.2	0.00e+00	0	43	0	2798649344	11	4175
2026-01-29 04:38:36.64	272.04	11.98	-25.6	-27.0	16.1	0.00e+00	0	43	0	2815426560	11	4232
2026-01-29 04:38:39.64	271.63	11.78	-25.5	-26.9	16.1	3.88e-04	0	43	0	2833252352	11	4223
2026-01-29 04:38:42.66	271.23	11.58	-25.6	-27.0	16.1	0.00e+00	0	43	0	2850029568	11	4243
2026-01-29 04:38:45.67	270.84	11.38	-25.6	-27.1	16.0	2.40e-04	0	43	0	2866806784	11	4274
2026-01-29 04:38:48.68	270.45	11.18	-25.7	-27.3	15.8	3.46e-04	0	43	0	2883584000	11	4332
2026-01-29 04:38:51.70	270.06	10.97	-25.7	-27.3	12.7	1.09e-03	0	43	0	2900361216	11	4329
2026-01-29 04:38:54.70	269.68	10.78	-25.9	-27.8	15.5	1.10e-03	0	43	0	2918187008	11	4470
2026-01-29 04:38:57.72	269.31	10.58	-26.1	-27.8	15.2	2.16e-03	0	43	0	2934964224	12	4350
2026-01-29 04:39:00.72	268.94	10.38	-26.0	-27.4	15.4	1.58e-03	0	43	0	2951741440	12	4236
2026-01-29 04:39:03.73	268.58	10.18	-26.1	-27.8	15.1	1.38e-03	0	43	0	2968518656	12	4346
2026-01-29 04:39:06.74	268.22	9.98	-26.0	-27.4	15.3	1.48e-03	0	43	0	2985295872	12	4248
2026-01-29 04:39:09.74	267.87	9.79	-26.2	-28.0	15.0	3.48e-03	0	43	0	3002073088	12	4419
2026-01-29 04:39:12.76	267.52	9.59	-26.3	-28.1	15.0	1.55e-03	0	43	0	3018850304	12	4429
2026-01-29 04:39:15.77	267.18	9.39	-26.3	-28.1	14.9	1.36e-03	0	43	0	3035627520	12	4427
2026-01-29 04:39:18.78	266.84	9.20	-26.4	-28.5	14.6	8.69e-04	0	43	0	3053453312	12	4553
2026-01-29 04:39:21.79	266.50	9.00	-26.5	-28.1	14.6	2.44e-03	0	43	0	3070230528	13	4342
2026-01-29 04:39:24.80	266.17	8.81	-26.3	-28.1	14.8	1.23e-03	0	43	0	3087007744	12	4449
2026-01-29 04:39:27.82	265.85	8.61	-26.2	-28.0	14.9	1.27e-03	0	42	0	3103784960	12	4419
2026-01-29 04:39:30.84	265.52	8.42	-26.5	-28.5	14.5	0.00e+00	0	43	0	3120562176	12	4576
2026-01-29 04:39:33.85	265.21	8.23	-26.6	-28.3	14.4	1.10e-06	0	43	0	3137339392	13	4406
2026-01-29 04:39:36.87	264.89	8.03	-26.5	-28.2	14.4	0.00e+00	0	43	0	3155165184	13	4361
2026-01-29 04:39:39.87	264.59	7.84	-26.6	-28.4	14.3	9.10e-06	0	43	0	3171942400	13	4429
2026-01-29 04:39:42.88	264.28	7.65	-26.8	-28.8	14.0	3.40e-06	0	43	0	3188719616	13	4550
2026-01-29 04:39:45.90	263.98	7.46	-26.8	-28.8	14.0	9.10e-06	0	43	0	3205496832	13	4558
2026-01-29 04:39:48.91	263.68	7.27	-27.0	-29.2	13.7	1.37e-05	0	43	0	3222274048	13	4685
2026-01-29 04:39:51.92	263.39	7.08	-26.7	-28.7	14.0	1.10e-06	0	43	0	3239051264	13	4510

#Closed at: 2026-01-29 04:39:54
#Recorded file [3242 MB]: D:/data/31010_260129_073015.dat