passes_logs/2026/01/29/R2M6_AANII_01/R2M6_AANII_01__20260129_160607_FENGYUN_3E_rec.log

#Pass ID: 20260129_160607_FENGYUN 3E
#Satellite: FENGYUN 3E
#Configuration: FENGYUN 3E
#almurnet v.1.7.20240730
#Start time: 2026-01-29 16:06:08

#Version: 2.2.20231116
#Station: R2M6_AANII_01
#Location: 30.233357 lon 59.946436 lat
#TLE: 1 49008U 21062A   26028.95833242 -.00000015  00000+0  13843-4 0  9995
#TLE: 2 49008  98.7500  33.9242 0002547 112.2873 247.8573 14.19887818236829

#Time	Az	El	Level	Level2	SNR	BER	BlckErr	Temp	State	Recorded	gain1	gain2
2026-01-29 16:06:08.32	209.05	7.04	-28.2	-30.0	5.6	7.51e-01	0	41	0	0	16	4383
2026-01-29 16:06:11.32	209.31	7.23	-30.0	-32.7	8.3	6.57e-02	0	41	0	7340032	20	4882
2026-01-29 16:06:14.33	209.59	7.43	-28.9	-30.4	10.6	5.67e-03	0	41	0	28311552	18	4308
2026-01-29 16:06:17.34	209.86	7.63	-27.9	-29.1	12.0	3.55e-04	0	41	0	50331648	16	4131
2026-01-29 16:06:20.35	210.14	7.83	-27.6	-28.3	12.6	1.28e-04	0	41	0	72351744	16	3913
2026-01-29 16:06:23.37	210.43	8.03	-27.2	-27.9	13.0	3.66e-05	0	41	0	94371840	15	3905
2026-01-29 16:06:26.37	210.71	8.23	-27.2	-27.8	13.0	8.69e-05	0	41	0	115343360	15	3886
2026-01-29 16:06:29.38	211.00	8.43	-26.6	-27.1	13.7	8.00e-06	0	41	0	137363456	14	3811
2026-01-29 16:06:32.40	211.30	8.64	-26.7	-27.2	13.7	8.00e-06	0	42	0	159383552	14	3833
2026-01-29 16:06:35.41	211.60	8.84	-26.6	-27.1	13.8	2.20e-06	0	42	0	180355072	14	3795
2026-01-29 16:06:38.42	211.90	9.05	-26.4	-27.1	14.1	1.10e-06	0	42	0	202375168	13	3889
2026-01-29 16:06:41.43	212.21	9.25	-26.4	-27.0	14.2	3.40e-06	0	42	0	224395264	13	3867
2026-01-29 16:06:44.45	212.52	9.46	-26.3	-26.9	14.2	2.20e-06	0	42	0	246415360	13	3856
2026-01-29 16:06:47.45	212.83	9.67	-26.5	-27.3	14.0	2.20e-06	0	42	0	267386880	13	3948
2026-01-29 16:06:50.46	213.15	9.88	-26.3	-27.0	14.2	1.10e-06	0	42	0	289406976	13	3869
2026-01-29 16:06:53.47	213.48	10.09	-26.4	-27.1	14.1	0.00e+00	0	42	0	311427072	13	3910
2026-01-29 16:06:56.48	213.81	10.30	-26.2	-26.7	14.4	0.00e+00	0	42	0	333447168	13	3811
2026-01-29 16:06:59.50	214.14	10.52	-26.2	-26.7	14.4	0.00e+00	0	42	0	354418688	13	3793
2026-01-29 16:07:02.50	214.48	10.73	-26.3	-26.8	14.4	2.20e-06	0	42	0	376438784	13	3813
2026-01-29 16:07:05.51	214.82	10.94	-25.9	-26.0	14.8	0.00e+00	0	42	0	398458880	13	3635
2026-01-29 16:07:08.52	215.17	11.16	-26.0	-26.1	14.8	0.00e+00	0	42	0	420478976	13	3662
2026-01-29 16:07:11.53	215.52	11.38	-26.0	-26.3	14.7	0.00e+00	0	42	0	441450496	13	3696
2026-01-29 16:07:14.52	215.88	11.59	-26.1	-26.5	14.6	0.00e+00	0	42	0	463470592	13	3737
2026-01-29 16:07:17.52	216.24	11.81	-26.1	-26.3	14.7	0.00e+00	0	43	0	484442112	13	3703
2026-01-29 16:07:20.54	216.61	12.03	-26.1	-26.4	14.7	0.00e+00	0	43	0	506462208	13	3730
2026-01-29 16:07:23.55	216.99	12.25	-26.2	-26.6	14.6	1.10e-06	0	42	0	528482304	13	3767
2026-01-29 16:07:26.55	217.36	12.47	-25.9	-26.5	14.9	0.00e+00	0	43	0	549453824	12	3840
2026-01-29 16:07:29.57	217.75	12.69	-25.8	-26.2	15.0	0.00e+00	0	43	0	571473920	12	3788
2026-01-29 16:07:32.59	218.14	12.92	-25.8	-26.1	15.1	0.00e+00	0	43	0	593494016	12	3753
2026-01-29 16:07:35.60	218.54	13.14	-25.8	-26.2	15.1	0.00e+00	0	43	0	615514112	12	3774
2026-01-29 16:07:38.61	218.94	13.37	-25.8	-26.3	15.1	0.00e+00	0	43	0	636485632	12	3795
2026-01-29 16:07:41.62	219.35	13.59	-25.9	-26.4	15.0	0.00e+00	0	43	0	658505728	12	3816
2026-01-29 16:07:44.64	219.76	13.82	-25.7	-26.1	15.2	0.00e+00	0	43	0	680525824	12	3738
2026-01-29 16:07:47.65	220.18	14.05	-25.7	-26.0	15.2	0.00e+00	0	43	0	702545920	12	3728
2026-01-29 16:07:50.66	220.61	14.27	-25.6	-25.7	15.4	0.00e+00	0	43	0	723517440	12	3661
2026-01-29 16:07:53.68	221.05	14.50	-25.6	-25.8	15.4	0.00e+00	0	43	0	745537536	12	3683
2026-01-29 16:07:56.69	221.49	14.73	-25.6	-25.7	15.5	0.00e+00	0	43	0	767557632	12	3657
2026-01-29 16:07:59.69	221.93	14.96	-25.4	-25.9	15.7	0.00e+00	0	43	0	789577728	11	3809
2026-01-29 16:08:02.70	222.38	15.19	-25.4	-25.8	15.8	0.00e+00	0	43	0	810549248	11	3768
2026-01-29 16:08:05.71	222.84	15.42	-25.3	-25.5	16.0	0.00e+00	0	43	0	832569344	11	3702
2026-01-29 16:08:08.72	223.31	15.65	-24.9	-24.8	16.3	0.00e+00	0	43	0	854589440	11	3549
2026-01-29 16:08:11.73	223.78	15.88	-24.9	-25.3	16.4	0.00e+00	0	43	0	876609536	10	3743
2026-01-29 16:08:14.73	224.26	16.12	-24.9	-25.1	16.5	0.00e+00	0	43	0	897581056	10	3713
2026-01-29 16:08:17.74	224.75	16.35	-25.0	-25.5	16.3	0.00e+00	0	43	0	919601152	10	3792
2026-01-29 16:08:20.75	225.25	16.58	-24.9	-25.1	16.5	0.00e+00	0	43	0	941621248	10	3719
2026-01-29 16:08:23.76	225.75	16.81	-24.5	-24.4	16.9	0.00e+00	0	43	0	962592768	10	3549
2026-01-29 16:08:26.77	226.26	17.05	-24.8	-25.0	16.6	0.00e+00	0	43	0	984612864	10	3693
2026-01-29 16:08:29.77	226.78	17.28	-24.6	-24.7	16.8	0.00e+00	0	43	0	1006632960	10	3603
2026-01-29 16:08:32.79	227.31	17.51	-24.5	-24.4	16.9	0.00e+00	0	43	0	1028653056	10	3549
2026-01-29 16:08:35.80	227.84	17.74	-24.5	-24.4	16.9	0.00e+00	0	43	0	1049624576	10	3544
2026-01-29 16:08:38.81	228.38	17.98	-24.4	-24.7	17.0	0.00e+00	0	43	0	1071644672	9	3721
2026-01-29 16:08:41.81	228.93	18.21	-24.7	-25.3	16.7	0.00e+00	0	43	0	1092616192	9	3862
2026-01-29 16:08:44.81	229.49	18.44	-24.4	-24.7	17.1	0.00e+00	0	43	0	1114636288	9	3712
2026-01-29 16:08:47.83	230.06	18.67	-24.4	-24.6	17.1	0.00e+00	0	43	0	1136656384	9	3703
2026-01-29 16:08:50.85	230.63	18.90	-24.3	-24.4	17.2	0.00e+00	0	43	0	1158676480	9	3655
2026-01-29 16:08:53.85	231.22	19.13	-24.3	-24.5	17.2	0.00e+00	0	43	0	1179648000	9	3664
2026-01-29 16:08:56.86	231.81	19.36	-24.1	-24.1	17.4	0.00e+00	0	43	0	1201668096	9	3573
2026-01-29 16:08:59.88	232.41	19.59	-24.2	-24.2	17.4	0.00e+00	0	43	0	1223688192	9	3602
2026-01-29 16:09:02.90	233.02	19.82	-24.1	-24.0	17.4	0.00e+00	0	43	0	1245708288	9	3567
2026-01-29 16:09:05.91	233.64	20.04	-24.0	-23.8	17.6	0.00e+00	0	43	0	1266679808	9	3523
2026-01-29 16:09:08.92	234.27	20.27	-24.1	-23.9	17.5	0.00e+00	0	43	0	1288699904	9	3548
2026-01-29 16:09:11.93	234.91	20.49	-24.2	-24.3	17.4	0.00e+00	0	43	0	1310720000	9	3618
2026-01-29 16:09:14.93	235.55	20.71	-24.0	-23.7	17.6	0.00e+00	0	43	0	1332740096	9	3500
2026-01-29 16:09:17.94	236.21	20.93	-23.8	-23.9	17.8	0.00e+00	0	43	0	1353711616	8	3635
2026-01-29 16:09:20.95	236.87	21.15	-23.6	-23.5	18.0	0.00e+00	0	43	0	1375731712	8	3539
2026-01-29 16:09:23.97	237.55	21.36	-23.8	-23.8	17.9	0.00e+00	0	43	0	1397751808	8	3621
2026-01-29 16:09:26.99	238.23	21.58	-24.0	-24.2	17.7	0.00e+00	0	43	0	1419771904	8	3707
2026-01-29 16:09:29.99	238.92	21.79	-23.9	-24.1	17.8	0.00e+00	0	43	0	1440743424	8	3680
2026-01-29 16:09:33.00	239.62	22.00	-24.0	-24.2	17.7	0.00e+00	0	43	0	1462763520	8	3702
2026-01-29 16:09:36.01	240.33	22.20	-24.2	-24.8	17.4	0.00e+00	0	43	0	1484783616	8	3831
2026-01-29 16:09:39.02	241.05	22.41	-23.9	-24.1	17.7	0.00e+00	0	43	0	1506803712	8	3682
2026-01-29 16:09:42.04	241.78	22.61	-24.0	-24.2	17.7	0.00e+00	0	43	0	1527775232	8	3711
2026-01-29 16:09:45.05	242.52	22.80	-23.5	-23.2	18.2	0.00e+00	0	43	0	1549795328	8	3473
2026-01-29 16:09:48.06	243.26	23.00	-23.5	-23.2	18.2	0.00e+00	0	43	0	1571815424	8	3491
2026-01-29 16:09:51.06	244.02	23.19	-23.4	-23.1	18.3	0.00e+00	0	43	0	1592786944	8	3459
2026-01-29 16:09:54.07	244.78	23.37	-23.6	-23.4	18.2	0.00e+00	0	43	0	1614807040	8	3514
2026-01-29 16:09:57.08	245.55	23.56	-23.6	-23.4	18.2	0.00e+00	0	43	0	1636827136	8	3531
2026-01-29 16:10:00.09	246.34	23.73	-23.7	-23.6	18.1	0.00e+00	0	43	0	1658847232	8	3567
2026-01-29 16:10:03.09	247.12	23.91	-23.5	-23.3	18.2	0.00e+00	0	43	0	1679818752	8	3512
2026-01-29 16:10:06.10	247.92	24.08	-23.7	-23.8	18.0	0.00e+00	0	43	0	1701838848	8	3604
2026-01-29 16:10:09.11	248.73	24.24	-23.4	-23.5	18.3	0.00e+00	0	43	0	1722810368	7	3650
2026-01-29 16:10:12.13	249.55	24.40	-23.2	-23.1	18.5	0.00e+00	0	43	0	1744830464	7	3554
2026-01-29 16:10:15.14	250.37	24.56	-23.1	-22.8	18.7	0.00e+00	0	43	0	1766850560	7	3500
2026-01-29 16:10:18.16	251.21	24.71	-23.4	-23.5	18.3	0.00e+00	0	43	0	1788870656	7	3641
2026-01-29 16:10:21.18	252.05	24.85	-23.3	-23.3	18.5	0.00e+00	0	43	0	1810890752	7	3596
2026-01-29 16:10:24.19	252.90	24.99	-23.1	-23.0	18.6	0.00e+00	0	43	0	1831862272	7	3527
2026-01-29 16:10:27.21	253.75	25.12	-23.3	-23.3	18.5	0.00e+00	0	44	0	1853882368	7	3605
2026-01-29 16:10:30.22	254.61	25.25	-23.2	-23.0	18.6	0.00e+00	0	43	0	1875902464	7	3541
2026-01-29 16:10:33.23	255.48	25.37	-23.1	-22.8	18.7	0.00e+00	0	43	0	1897922560	7	3501
2026-01-29 16:10:36.25	256.36	25.48	-23.2	-23.1	18.6	0.00e+00	0	43	0	1918894080	7	3553
2026-01-29 16:10:39.27	257.24	25.59	-23.3	-23.3	18.5	0.00e+00	0	43	0	1940914176	7	3611
2026-01-29 16:10:42.28	258.12	25.69	-23.1	-22.8	18.7	0.00e+00	0	43	0	1962934272	7	3503
2026-01-29 16:10:45.29	259.01	25.79	-23.1	-22.9	18.7	0.00e+00	0	43	0	1984954368	7	3525
2026-01-29 16:10:48.31	259.91	25.87	-23.2	-23.1	18.6	0.00e+00	0	43	0	2006974464	7	3558
2026-01-29 16:10:51.33	260.81	25.95	-23.4	-23.6	18.4	0.00e+00	0	43	0	2027945984	7	3664
2026-01-29 16:10:54.34	261.72	26.02	-23.2	-23.1	18.6	0.00e+00	0	43	0	2049966080	7	3557
2026-01-29 16:10:57.34	262.62	26.09	-23.0	-22.7	18.8	0.00e+00	0	43	0	2071986176	7	3470
2026-01-29 16:11:00.34	263.53	26.15	-23.0	-22.7	18.8	0.00e+00	0	44	0	2092957696	7	3475
2026-01-29 16:11:03.36	264.45	26.20	-22.9	-22.9	18.9	0.00e+00	0	43	0	2114977792	6	3609
2026-01-29 16:11:06.37	265.36	26.24	-23.0	-23.2	18.8	0.00e+00	0	43	0	2136997888	6	3675
2026-01-29 16:11:09.37	266.28	26.28	-23.0	-23.2	18.8	0.00e+00	0	43	0	2159017984	6	3681
2026-01-29 16:11:12.38	267.20	26.30	-23.0	-23.2	18.8	0.00e+00	0	43	0	2179989504	6	3681
2026-01-29 16:11:15.39	268.12	26.32	-22.9	-23.0	18.9	0.00e+00	0	43	0	2202009600	6	3631
2026-01-29 16:11:18.40	269.04	26.33	-22.9	-23.0	18.9	0.00e+00	0	44	0	2224029696	6	3623
2026-01-29 16:11:21.41	269.97	26.34	-23.0	-23.2	18.8	0.00e+00	0	43	0	2245001216	6	3690
2026-01-29 16:11:24.42	270.89	26.34	-23.1	-23.4	18.7	0.00e+00	0	43	0	2267021312	6	3726
2026-01-29 16:11:27.44	271.81	26.32	-23.1	-23.5	18.6	0.00e+00	0	43	0	2289041408	6	3739
2026-01-29 16:11:30.45	272.74	26.30	-23.1	-23.4	18.7	0.00e+00	0	43	0	2311061504	6	3723
2026-01-29 16:11:33.46	273.66	26.28	-23.1	-23.4	18.7	0.00e+00	0	44	0	2332033024	6	3727
2026-01-29 16:11:36.46	274.57	26.24	-22.8	-22.6	19.1	0.00e+00	0	43	0	2354053120	6	3557
2026-01-29 16:11:39.46	275.48	26.20	-23.0	-23.2	18.8	0.00e+00	0	44	0	2375024640	6	3689
2026-01-29 16:11:42.48	276.40	26.15	-23.1	-23.3	18.7	0.00e+00	0	43	0	2397044736	6	3707
2026-01-29 16:11:45.49	277.31	26.09	-23.1	-23.3	18.8	0.00e+00	0	43	0	2419064832	6	3702
2026-01-29 16:11:48.49	278.22	26.03	-23.3	-23.7	18.5	0.00e+00	0	44	0	2441084928	6	3802
2026-01-29 16:11:51.50	279.12	25.96	-23.4	-24.1	18.4	0.00e+00	0	43	0	2462056448	6	3883
2026-01-29 16:11:54.51	280.02	25.88	-23.2	-23.2	18.6	0.00e+00	0	43	0	2484076544	7	3568
2026-01-29 16:11:57.52	280.91	25.79	-23.1	-22.9	18.7	0.00e+00	0	43	0	2506096640	7	3504
2026-01-29 16:12:00.53	281.80	25.70	-23.0	-22.8	18.8	0.00e+00	0	43	0	2528116736	7	3488
2026-01-29 16:12:03.54	282.68	25.60	-23.1	-22.8	18.7	0.00e+00	0	44	0	2549088256	7	3493
2026-01-29 16:12:06.54	283.56	25.49	-23.2	-23.1	18.6	0.00e+00	0	44	0	2571108352	7	3570
2026-01-29 16:12:09.56	284.43	25.38	-23.3	-23.3	18.5	0.00e+00	0	43	0	2593128448	7	3609
2026-01-29 16:12:12.57	285.30	25.26	-23.3	-23.3	18.5	0.00e+00	0	43	0	2615148544	7	3589
2026-01-29 16:12:15.58	286.16	25.14	-23.5	-23.7	18.3	0.00e+00	0	43	0	2636120064	7	3695
2026-01-29 16:12:18.58	287.01	25.01	-23.8	-24.3	18.0	0.00e+00	0	43	0	2658140160	7	3823
2026-01-29 16:12:21.60	287.85	24.87	-23.5	-23.7	18.3	0.00e+00	0	44	0	2680160256	7	3686
2026-01-29 16:12:24.61	288.69	24.73	-23.5	-23.7	18.2	0.00e+00	0	43	0	2701131776	7	3693
2026-01-29 16:12:27.62	289.52	24.58	-23.5	-23.7	18.2	0.00e+00	0	43	0	2723151872	7	3690
2026-01-29 16:12:30.63	290.34	24.42	-23.5	-23.7	18.2	0.00e+00	0	44	0	2745171968	7	3696
2026-01-29 16:12:33.64	291.16	24.27	-23.6	-24.0	18.0	0.00e+00	0	43	0	2767192064	7	3755
2026-01-29 16:12:36.66	291.97	24.10	-23.8	-24.4	17.9	0.00e+00	0	44	0	2788163584	7	3846
2026-01-29 16:12:39.67	292.76	23.93	-23.9	-24.5	17.9	0.00e+00	0	43	0	2810183680	7	3880
2026-01-29 16:12:42.68	293.55	23.76	-23.3	-23.4	18.4	0.00e+00	0	43	0	2832203776	7	3629
2026-01-29 16:12:45.68	294.33	23.58	-23.4	-23.6	18.3	0.00e+00	0	43	0	2854223872	7	3675
2026-01-29 16:12:48.67	295.10	23.40	-23.5	-23.7	18.1	0.00e+00	0	43	0	2875195392	7	3689
2026-01-29 16:12:51.68	295.86	23.22	-23.8	-24.5	17.6	0.00e+00	0	43	0	2897215488	7	3867
2026-01-29 16:12:54.69	296.62	23.03	-23.9	-24.7	17.7	0.00e+00	0	43	0	2919235584	7	3915
2026-01-29 16:12:57.70	297.36	22.84	-24.0	-24.3	17.7	0.00e+00	0	43	0	2940207104	8	3720
2026-01-29 16:13:00.72	298.10	22.64	-24.1	-24.5	17.6	0.00e+00	0	44	0	2962227200	8	3771
2026-01-29 16:13:03.74	298.83	22.44	-23.9	-24.1	17.8	0.00e+00	0	43	0	2984247296	8	3674
2026-01-29 16:13:06.75	299.55	22.24	-24.0	-24.3	17.6	0.00e+00	0	43	0	3005218816	8	3732
2026-01-29 16:13:09.76	300.25	22.04	-24.1	-24.5	17.5	0.00e+00	0	43	0	3027238912	8	3764
2026-01-29 16:13:12.77	300.95	21.83	-24.1	-24.5	17.5	0.00e+00	0	44	0	3049259008	8	3770
2026-01-29 16:13:15.78	301.64	21.62	-24.1	-24.5	17.5	0.00e+00	0	43	0	3071279104	8	3773
2026-01-29 16:13:18.79	302.32	21.41	-24.2	-24.7	17.1	0.00e+00	0	43	0	3092250624	8	3805
2026-01-29 16:13:21.80	303.00	21.19	-24.2	-24.7	17.2	1.10e-06	0	43	0	3114270720	8	3824
2026-01-29 16:13:24.81	303.66	20.98	-24.3	-25.0	17.3	0.00e+00	0	43	0	3136290816	8	3884
2026-01-29 16:13:27.82	304.31	20.76	-24.3	-24.8	17.4	0.00e+00	0	43	0	3158310912	8	3847
2026-01-29 16:13:30.82	304.96	20.54	-24.5	-25.4	17.1	0.00e+00	0	43	0	3179282432	8	3965
2026-01-29 16:13:33.84	305.59	20.32	-24.2	-24.2	17.5	0.00e+00	0	44	0	3201302528	9	3594
2026-01-29 16:13:36.85	306.22	20.10	-24.6	-25.0	17.0	0.00e+00	0	44	0	3223322624	9	3781
2026-01-29 16:13:39.86	306.84	19.87	-24.7	-25.2	16.9	0.00e+00	0	43	0	3244294144	9	3826
2026-01-29 16:13:42.87	307.45	19.65	-24.8	-25.6	16.7	0.00e+00	0	43	0	3266314240	9	3918
2026-01-29 16:13:45.88	308.05	19.42	-24.9	-25.6	16.7	0.00e+00	0	43	0	3288334336	9	3927
2026-01-29 16:13:48.90	308.64	19.19	-25.0	-25.4	16.6	0.00e+00	0	43	0	3310354432	10	3763
2026-01-29 16:13:51.91	309.22	18.97	-24.9	-25.1	16.7	0.00e+00	0	43	0	3331325952	10	3711
2026-01-29 16:13:54.91	309.80	18.74	-24.9	-25.3	16.6	0.00e+00	0	43	0	3353346048	10	3737
2026-01-29 16:13:57.93	310.36	18.51	-25.2	-25.8	16.3	0.00e+00	0	43	0	3375366144	10	3856
2026-01-29 16:14:00.93	310.92	18.28	-25.0	-25.5	16.5	0.00e+00	0	44	0	3397386240	10	3788
2026-01-29 16:14:03.92	311.47	18.05	-25.1	-25.6	16.4	0.00e+00	0	44	0	3418357760	10	3824
2026-01-29 16:14:06.93	312.01	17.82	-24.9	-25.1	16.6	0.00e+00	0	44	0	3440377856	10	3712
2026-01-29 16:14:09.94	312.54	17.59	-24.7	-24.6	16.9	0.00e+00	0	43	0	3462397952	10	3598
2026-01-29 16:14:12.95	313.07	17.36	-24.6	-24.5	17.0	0.00e+00	0	43	0	3483369472	10	3574
2026-01-29 16:14:15.96	313.59	17.13	-24.9	-25.2	16.6	0.00e+00	0	44	0	3505389568	10	3729
2026-01-29 16:14:18.98	314.10	16.90	-25.3	-26.1	16.1	0.00e+00	0	43	0	3527409664	10	3930
2026-01-29 16:14:21.98	314.60	16.67	-25.8	-26.6	15.6	0.00e+00	0	43	0	3549429760	11	3950
2026-01-29 16:14:25.00	315.10	16.44	-25.6	-26.3	15.8	0.00e+00	0	44	0	3570401280	11	3878
2026-01-29 16:14:28.01	315.58	16.20	-25.4	-25.7	16.0	0.00e+00	0	44	0	3592421376	11	3740
2026-01-29 16:14:31.02	316.06	15.97	-25.1	-25.2	16.3	0.00e+00	0	43	0	3614441472	11	3628
2026-01-29 16:14:34.03	316.54	15.75	-25.2	-25.3	16.2	0.00e+00	0	43	0	3635412992	11	3652
2026-01-29 16:14:37.04	317.00	15.52	-25.0	-24.8	16.5	0.00e+00	0	44	0	3657433088	11	3545
2026-01-29 16:14:40.04	317.46	15.29	-25.3	-25.5	16.1	0.00e+00	0	43	0	3679453184	11	3695
2026-01-29 16:14:43.06	317.92	15.06	-25.9	-26.9	15.4	0.00e+00	0	43	0	3700424704	11	4026
2026-01-29 16:14:46.07	318.36	14.83	-26.1	-27.2	15.2	0.00e+00	0	43	0	3722444800	11	4114
2026-01-29 16:14:49.09	318.81	14.60	-26.1	-26.8	15.1	0.00e+00	0	44	0	3744464896	12	3912
2026-01-29 16:14:52.10	319.24	14.38	-26.0	-26.6	15.2	0.00e+00	0	44	0	3766484992	12	3859
2026-01-29 16:14:55.12	319.67	14.15	-25.6	-25.7	15.7	0.00e+00	0	43	0	3788505088	12	3639
2026-01-29 16:14:58.14	320.09	13.92	-25.4	-25.9	15.9	0.00e+00	0	44	0	3809476608	11	3780
2026-01-29 16:15:01.15	320.50	13.70	-25.5	-26.0	15.8	0.00e+00	0	44	0	3831496704	11	3811
2026-01-29 16:15:04.15	320.91	13.48	-25.6	-26.2	15.7	0.00e+00	0	44	0	3853516800	11	3862
2026-01-29 16:15:07.15	321.31	13.25	-25.9	-26.8	15.4	0.00e+00	0	43	0	3874488320	11	3995
2026-01-29 16:15:10.15	321.71	13.03	-26.0	-27.1	15.1	0.00e+00	0	44	0	3896508416	11	4082
2026-01-29 16:15:13.16	322.10	12.81	-26.2	-27.0	14.8	0.00e+00	0	44	0	3918528512	12	3960
2026-01-29 16:15:16.18	322.49	12.59	-26.1	-26.9	14.9	0.00e+00	0	44	0	3940548608	12	3935
2026-01-29 16:15:19.18	322.86	12.37	-26.3	-27.3	14.6	0.00e+00	0	43	0	3961520128	12	4033
2026-01-29 16:15:22.19	323.24	12.15	-26.0	-26.6	15.0	0.00e+00	0	44	0	3983540224	12	3867
2026-01-29 16:15:25.19	323.61	11.93	-26.0	-26.7	15.0	0.00e+00	0	44	0	4005560320	12	3883
2026-01-29 16:15:28.20	323.97	11.72	-26.0	-26.6	15.0	0.00e+00	0	44	0	4026531840	12	3861
2026-01-29 16:15:31.20	324.33	11.50	-26.1	-26.9	14.9	1.10e-06	0	44	0	4048551936	12	3924
2026-01-29 16:15:34.21	324.68	11.29	-26.1	-26.9	14.9	1.10e-06	0	43	0	4070572032	12	3928
2026-01-29 16:15:37.22	325.03	11.07	-26.0	-26.7	14.9	0.00e+00	0	43	0	4092592128	12	3890
2026-01-29 16:15:40.24	325.38	10.86	-26.2	-27.1	14.7	0.00e+00	0	43	0	4113563648	12	3977
2026-01-29 16:15:43.25	325.72	10.65	-26.2	-27.2	14.6	0.00e+00	0	43	0	4135583744	12	4005
2026-01-29 16:15:46.25	326.05	10.44	-26.4	-27.5	14.4	1.10e-06	0	43	0	4156555264	12	4101
2026-01-29 16:15:49.28	326.38	10.23	-26.5	-27.7	14.3	1.10e-06	0	43	0	4178575360	12	4147
2026-01-29 16:15:52.29	326.71	10.02	-27.0	-28.3	13.7	1.25e-05	0	44	0	4200595456	13	4199
2026-01-29 16:15:55.31	327.03	9.81	-26.7	-27.7	14.0	1.10e-06	0	43	0	4222615552	13	4034
2026-01-29 16:15:58.32	327.35	9.60	-26.9	-28.1	13.8	9.10e-06	0	43	0	4244635648	13	4138
2026-01-29 16:16:01.33	327.66	9.39	-26.8	-28.0	13.8	4.50e-06	0	43	0	4265607168	13	4116
2026-01-29 16:16:04.34	327.97	9.19	-27.0	-28.4	13.6	2.05e-05	0	43	0	4287627264	13	4216
2026-01-29 16:16:07.35	328.27	8.98	-26.8	-27.9	13.8	5.70e-06	0	43	0	4309647360	13	4098
2026-01-29 16:16:10.36	328.57	8.78	-26.8	-27.9	13.8	5.70e-06	0	43	0	4331667456	13	4102
2026-01-29 16:16:13.37	328.87	8.58	-26.8	-27.8	13.8	5.70e-06	0	43	0	4352638976	13	4071
2026-01-29 16:16:16.38	329.16	8.38	-26.9	-28.2	13.6	1.25e-05	0	44	0	4374659072	13	4171
2026-01-29 16:16:19.39	329.45	8.18	-27.1	-28.5	13.3	1.14e-05	0	44	0	4396679168	13	4266
2026-01-29 16:16:22.40	329.74	7.98	-27.2	-28.4	13.2	1.60e-05	0	44	0	4417650688	14	4124
2026-01-29 16:16:25.41	330.02	7.78	-27.0	-28.0	13.5	6.80e-06	0	43	0	4439670784	14	4006
2026-01-29 16:16:28.43	330.30	7.58	-27.2	-28.4	13.2	2.97e-05	0	43	0	4461690880	14	4124
2026-01-29 16:16:31.46	330.57	7.39	-27.1	-28.2	13.3	3.31e-05	0	43	0	4483710976	14	4071
2026-01-29 16:16:34.47	330.84	7.19	-27.3	-28.5	13.1	4.11e-05	0	43	0	4505731072	14	4169
2026-01-29 16:16:37.49	331.11	7.00	-33.5	-43.4	3.8	8.46e-01	0	44	104	4519362560	26	11232

#Closed at: 2026-01-29 16:16:39
#Recorded file [4519 MB]: D:/data/31010_260129_190610.dat