passes_logs/2026/01/29/R2M6_AANII_01/R2M6_AANII_01__20260129_012321_NOAA_21_JPSS-2_rec.log

#Pass ID: 20260129_012321_NOAA 21 (JPSS-2)
#Satellite: NOAA 21 (JPSS-2)
#Configuration: NOAA 21
#almurnet v.1.7.20240730
#Start time: 2026-01-29 01:23:23

#Version: 2.2.20231116
#Station: R2M6_AANII_01
#Location: 30.233357 lon 59.946436 lat
#TLE: 1 54234U 22150A   26027.77052245  .00000166  00000+0  99439-4 0  9997
#TLE: 2 54234  98.7510 328.5165 0000872 203.6403 156.4733 14.19540252166628

#Time	Az	El	Level	Level2	SNR	BER	BlckErr	Temp	State	Recorded	gain1	gain2
2026-01-29 01:23:23.05	13.35	7.11	-31.2	-37.1	4.4	1.43e+00	0	42	0	0	22	7138
2026-01-29 01:23:26.06	13.19	7.34	-31.4	-37.0	6.7	2.03e-01	0	42	0	3145728	22	6913
2026-01-29 01:23:29.07	13.04	7.56	-31.0	-35.6	7.7	8.85e-02	0	42	0	12582912	22	6087
2026-01-29 01:23:32.07	12.88	7.78	-30.6	-34.6	8.8	3.95e-02	0	42	0	22020096	21	5714
2026-01-29 01:23:35.08	12.71	8.01	-29.4	-32.1	11.4	5.53e-03	0	42	0	30408704	19	4890
2026-01-29 01:23:38.09	12.55	8.24	-28.5	-30.7	12.9	4.65e-05	0	42	0	39845888	17	4644
2026-01-29 01:23:41.10	12.38	8.47	-28.1	-30.2	13.6	3.43e-03	0	42	0	49283072	16	4606
2026-01-29 01:23:44.11	12.21	8.70	-27.9	-30.3	13.7	7.60e-06	0	42	0	58720256	15	4762
2026-01-29 01:23:47.13	12.04	8.93	-28.0	-30.0	13.7	2.20e-06	0	43	0	68157440	16	4532
2026-01-29 01:23:50.13	11.86	9.17	-27.8	-30.1	13.8	2.20e-06	0	42	0	77594624	15	4689
2026-01-29 01:23:53.15	11.68	9.41	-27.8	-29.9	13.9	2.20e-06	0	43	0	87031808	15	4633
2026-01-29 01:23:56.15	11.50	9.64	-28.0	-30.4	13.6	9.10e-06	0	43	0	96468992	15	4776
2026-01-29 01:23:59.16	11.31	9.89	-27.9	-30.3	13.8	9.10e-06	0	43	0	105906176	15	4736
2026-01-29 01:24:02.17	11.12	10.13	-28.0	-30.5	13.7	3.00e-06	0	43	0	115343360	15	4794
2026-01-29 01:24:05.18	10.93	10.38	-27.8	-30.1	13.9	3.00e-06	0	43	0	124780544	15	4686
2026-01-29 01:24:08.19	10.73	10.62	-27.9	-30.2	13.8	3.80e-06	0	43	0	134217728	15	4698
2026-01-29 01:24:11.21	10.53	10.87	-28.2	-30.4	13.6	6.10e-06	0	43	0	143654912	16	4648
2026-01-29 01:24:14.22	10.33	11.13	-27.6	-29.5	14.3	1.50e-06	0	43	0	153092096	15	4477
2026-01-29 01:24:17.22	10.12	11.38	-27.5	-29.3	14.4	1.50e-06	0	43	0	162529280	15	4432
2026-01-29 01:24:20.24	9.91	11.64	-27.5	-29.7	14.5	0.00e+00	0	43	0	171966464	14	4654
2026-01-29 01:24:23.24	9.70	11.90	-27.4	-29.0	14.6	7.00e-07	0	43	0	181403648	15	4348
2026-01-29 01:24:26.26	9.48	12.16	-27.3	-29.2	14.8	7.00e-07	0	43	0	190840832	14	4510
2026-01-29 01:24:29.27	9.25	12.42	-27.3	-29.2	14.8	1.50e-06	0	43	0	200278016	14	4512
2026-01-29 01:24:32.29	9.03	12.69	-27.1	-28.8	15.0	0.00e+00	0	43	0	209715200	14	4405
2026-01-29 01:24:35.29	8.79	12.96	-27.2	-29.0	12.9	0.00e+00	0	43	0	219152384	14	4445
2026-01-29 01:24:38.31	8.56	13.23	-27.1	-28.9	15.0	3.76e-03	0	43	0	228589568	14	4423
2026-01-29 01:24:41.32	8.32	13.50	-27.2	-29.1	14.9	7.00e-07	0	43	0	238026752	14	4478
2026-01-29 01:24:44.34	8.07	13.78	-27.2	-29.1	14.9	3.83e-03	0	43	0	247463936	14	4482
2026-01-29 01:24:47.35	7.82	14.06	-27.2	-29.1	15.0	2.25e-03	0	43	0	256901120	14	4475
2026-01-29 01:24:50.35	7.56	14.34	-27.0	-28.7	15.2	0.00e+00	0	43	0	266338304	14	4348
2026-01-29 01:24:53.36	7.30	14.62	-26.9	-28.9	15.4	3.88e-03	0	43	0	275775488	13	4527
2026-01-29 01:24:56.37	7.04	14.91	-26.9	-29.0	15.4	3.69e-03	0	43	0	285212672	13	4549
2026-01-29 01:24:59.38	6.77	15.20	-27.0	-28.7	15.3	3.40e-03	0	43	0	294649856	14	4348
2026-01-29 01:25:02.39	6.49	15.49	-27.3	-29.4	14.9	3.94e-03	0	43	0	304087040	14	4546
2026-01-29 01:25:05.39	6.21	15.79	-27.4	-29.5	14.9	3.76e-03	0	43	0	313524224	14	4590
2026-01-29 01:25:08.39	5.92	16.08	-27.5	-29.3	14.7	3.39e-03	0	43	0	322961408	15	4415
2026-01-29 01:25:11.41	5.62	16.39	-27.6	-29.4	14.6	3.12e-03	0	43	0	332398592	15	4434
2026-01-29 01:25:14.42	5.32	16.69	-27.2	-29.1	15.1	3.83e-03	0	43	0	341835776	14	4463
2026-01-29 01:25:17.43	5.02	17.00	-27.4	-29.1	14.8	0.00e+00	0	43	0	350224384	15	4344
2026-01-29 01:25:20.43	4.70	17.31	-27.4	-29.5	14.9	3.78e-03	0	43	0	359661568	14	4586
2026-01-29 01:25:23.44	4.38	17.62	-27.5	-29.7	14.8	0.00e+00	0	43	0	369098752	14	4637
2026-01-29 01:25:26.44	4.06	17.93	-27.6	-29.4	14.7	7.00e-07	0	44	0	378535936	15	4438
2026-01-29 01:25:29.46	3.72	18.25	-27.6	-29.3	14.7	0.00e+00	0	43	0	387973120	15	4420
2026-01-29 01:25:32.46	3.38	18.57	-27.4	-29.5	15.0	0.00e+00	0	43	0	397410304	14	4566
2026-01-29 01:25:35.46	3.03	18.90	-27.2	-29.1	15.2	0.00e+00	0	43	0	406847488	14	4461
2026-01-29 01:25:38.46	2.68	19.23	-27.2	-28.9	15.3	0.00e+00	0	44	0	416284672	14	4413
2026-01-29 01:25:41.47	2.31	19.56	-27.3	-29.2	15.2	0.00e+00	0	43	0	425721856	14	4485
2026-01-29 01:25:44.48	1.94	19.89	-27.2	-29.1	15.3	0.00e+00	0	43	0	435159040	14	4450
2026-01-29 01:25:47.49	1.55	20.23	-27.0	-28.6	15.5	0.00e+00	0	43	0	444596224	14	4331
2026-01-29 01:25:50.50	1.16	20.57	-27.2	-29.0	15.3	0.00e+00	0	43	0	454033408	14	4439
2026-01-29 01:25:53.50	0.77	20.92	-26.9	-28.8	15.6	0.00e+00	0	44	0	463470592	13	4492
2026-01-29 01:25:56.51	0.36	21.26	-26.8	-28.6	15.7	0.00e+00	0	43	0	472907776	13	4433
2026-01-29 01:25:59.52	359.94	21.61	-26.6	-28.0	16.1	0.00e+00	0	44	0	482344960	13	4272
2026-01-29 01:26:02.53	359.51	21.97	-26.1	-27.6	16.6	0.00e+00	0	44	0	491782144	12	4274
2026-01-29 01:26:05.54	359.07	22.33	-26.3	-28.0	16.4	0.00e+00	0	44	0	501219328	12	4360
2026-01-29 01:26:08.56	358.62	22.69	-26.1	-27.6	16.7	9.10e-06	0	44	0	510656512	12	4259
2026-01-29 01:26:11.57	358.16	23.05	-25.9	-27.2	16.9	0.00e+00	0	44	0	520093696	12	4155
2026-01-29 01:26:14.57	357.69	23.42	-25.9	-27.2	16.8	1.21e-04	0	43	0	529530880	12	4160
2026-01-29 01:26:17.57	357.21	23.79	-26.2	-27.7	16.6	2.27e-04	0	43	0	538968064	12	4284
2026-01-29 01:26:20.58	356.71	24.16	-26.2	-27.8	16.6	2.59e-04	0	43	0	548405248	12	4321
2026-01-29 01:26:23.60	356.20	24.54	-26.3	-28.0	16.4	6.71e-05	0	43	0	557842432	12	4358
2026-01-29 01:26:26.61	355.68	24.91	-26.2	-27.8	16.6	0.00e+00	0	44	0	567279616	12	4313
2026-01-29 01:26:29.63	355.15	25.30	-26.3	-27.9	16.5	0.00e+00	0	44	0	576716800	12	4353
2026-01-29 01:26:32.64	354.60	25.68	-26.5	-27.9	16.3	0.00e+00	0	44	0	586153984	13	4223
2026-01-29 01:26:35.65	354.04	26.07	-26.9	-28.8	15.8	0.00e+00	0	44	0	595591168	13	4463
2026-01-29 01:26:38.67	353.47	26.46	-27.0	-28.4	15.8	0.00e+00	0	44	0	605028352	14	4264
2026-01-29 01:26:41.67	352.88	26.85	-27.0	-28.6	15.7	0.00e+00	0	44	0	614465536	14	4307
2026-01-29 01:26:44.69	352.28	27.25	-27.4	-29.5	15.2	0.00e+00	0	44	0	623902720	14	4555
2026-01-29 01:26:47.70	351.66	27.64	-27.5	-29.1	15.1	0.00e+00	0	44	0	632291328	15	4327
2026-01-29 01:26:50.69	351.03	28.04	-27.1	-28.7	15.6	0.00e+00	0	44	0	641728512	14	4342
2026-01-29 01:26:53.71	350.38	28.44	-26.8	-28.6	16.0	0.00e+00	0	44	0	651165696	13	4407
2026-01-29 01:26:56.72	349.71	28.84	-26.8	-28.6	15.9	0.00e+00	0	44	0	660602880	13	4434
2026-01-29 01:26:59.73	349.03	29.24	-27.2	-28.9	15.5	1.26e-04	0	44	0	670040064	14	4388
2026-01-29 01:27:02.73	348.33	29.65	-27.2	-28.9	15.5	0.00e+00	0	44	0	679477248	14	4399
2026-01-29 01:27:05.74	347.61	30.05	-27.3	-29.3	15.3	0.00e+00	0	44	0	688914432	14	4494
2026-01-29 01:27:08.74	346.87	30.45	-26.8	-28.0	16.0	0.00e+00	0	44	0	698351616	14	4154
2026-01-29 01:27:11.77	346.11	30.86	-26.7	-28.4	16.1	0.00e+00	0	44	0	707788800	13	4356
2026-01-29 01:27:14.77	345.33	31.27	-27.0	-28.6	15.7	0.00e+00	0	44	0	717225984	14	4314
2026-01-29 01:27:17.78	344.54	31.67	-27.2	-29.0	15.5	0.00e+00	0	44	0	726663168	14	4410
2026-01-29 01:27:20.78	343.72	32.07	-27.1	-28.7	15.6	0.00e+00	0	44	0	736100352	14	4325
2026-01-29 01:27:23.80	342.88	32.48	-27.2	-29.0	15.6	0.00e+00	0	44	0	745537536	14	4406
2026-01-29 01:27:26.81	342.02	32.88	-27.3	-29.1	15.5	0.00e+00	0	44	0	754974720	14	4454
2026-01-29 01:27:29.82	341.14	33.27	-27.7	-29.7	14.8	0.00e+00	0	44	0	764411904	15	4500
2026-01-29 01:27:32.83	340.24	33.67	-27.9	-30.1	14.6	0.00e+00	0	44	0	773849088	15	4620
2026-01-29 01:27:35.84	339.31	34.06	-28.5	-30.8	14.1	1.50e-06	0	44	0	783286272	16	4727
2026-01-29 01:27:38.86	338.36	34.45	-28.5	-30.5	14.0	1.50e-06	0	44	0	792723456	17	4531
2026-01-29 01:27:41.87	337.39	34.84	-28.6	-30.8	13.8	3.00e-06	0	44	0	802160640	17	4592
2026-01-29 01:27:44.88	336.40	35.22	-28.8	-31.0	13.7	9.10e-06	0	44	0	811597824	17	4683
2026-01-29 01:27:47.90	335.37	35.59	-28.2	-29.6	14.5	2.53e-04	0	44	0	821035008	17	4242
2026-01-29 01:27:50.91	334.33	35.96	-28.2	-30.2	14.4	2.42e-04	0	44	0	830472192	16	4536
2026-01-29 01:27:53.91	333.27	36.32	-28.1	-30.0	14.6	7.00e-07	0	44	0	839909376	16	4470
2026-01-29 01:27:56.93	332.18	36.67	-28.3	-30.4	14.3	2.63e-04	0	44	0	849346560	16	4590
2026-01-29 01:27:59.95	331.06	37.02	-28.7	-30.9	13.8	3.80e-06	0	44	0	858783744	17	4636
2026-01-29 01:28:02.94	329.93	37.35	-27.9	-29.6	14.8	6.87e-04	0	44	0	868220928	16	4350
2026-01-29 01:28:05.96	328.77	37.68	-27.7	-29.7	14.9	9.99e-05	0	44	0	877658112	15	4489
2026-01-29 01:28:08.96	327.59	37.99	-28.2	-30.1	14.6	0.00e+00	0	44	0	887095296	16	4510
2026-01-29 01:28:11.98	326.38	38.29	-28.6	-30.6	13.9	2.18e-03	0	44	0	896532480	17	4554
2026-01-29 01:28:14.99	325.15	38.59	-28.4	-30.6	14.2	0.00e+00	0	44	0	905969664	16	4654
2026-01-29 01:28:18.01	323.90	38.87	-29.1	-31.4	13.1	3.31e-03	0	44	0	915406848	18	4694
2026-01-29 01:28:21.01	322.63	39.13	-29.1	-31.4	13.2	2.34e-03	0	44	0	924844032	18	4687
2026-01-29 01:28:24.01	321.34	39.38	-29.3	-31.9	12.9	1.85e-03	0	44	0	934281216	18	4843
2026-01-29 01:28:27.01	320.03	39.61	-28.7	-30.8	13.8	9.73e-04	0	44	0	943718400	17	4610
2026-01-29 01:28:30.02	318.70	39.83	-28.8	-31.0	13.6	6.80e-06	0	44	0	952107008	17	4665
2026-01-29 01:28:33.03	317.35	40.04	-29.2	-31.6	13.1	3.48e-04	0	44	0	961544192	18	4733
2026-01-29 01:28:36.05	315.98	40.22	-28.9	-31.3	13.5	4.50e-04	0	44	0	970981376	17	4766
2026-01-29 01:28:39.05	314.61	40.39	-28.8	-31.1	13.6	3.60e-04	0	44	0	980418560	17	4710
2026-01-29 01:28:42.06	313.22	40.54	-28.5	-30.4	14.0	7.60e-06	0	44	0	989855744	17	4485
2026-01-29 01:28:45.07	311.81	40.67	-28.4	-30.6	14.3	7.00e-07	0	44	0	999292928	16	4637
2026-01-29 01:28:48.08	310.39	40.78	-28.4	-30.7	14.1	2.21e-03	0	44	0	1008730112	16	4693
2026-01-29 01:28:51.10	308.96	40.87	-28.9	-31.3	13.6	1.14e-05	0	44	0	1018167296	17	4744
2026-01-29 01:28:54.12	307.53	40.95	-29.1	-31.3	13.2	1.98e-05	0	44	0	1027604480	18	4656
2026-01-29 01:28:57.13	306.09	41.00	-29.0	-31.2	13.4	1.29e-05	0	44	0	1037041664	18	4598
2026-01-29 01:29:00.14	304.64	41.03	-29.3	-31.7	13.0	2.74e-05	0	44	0	1046478848	18	4782
2026-01-29 01:29:03.15	303.20	41.04	-29.2	-31.5	13.2	3.73e-05	0	44	0	1055916032	18	4698
2026-01-29 01:29:06.15	301.76	41.03	-29.3	-31.8	13.0	4.50e-05	0	44	0	1065353216	18	4794
2026-01-29 01:29:09.17	300.31	41.00	-29.6	-32.0	12.5	9.99e-05	0	44	0	1074790400	19	4765
2026-01-29 01:29:12.18	298.87	40.95	-29.0	-30.5	13.4	1.75e-05	0	44	0	1084227584	19	4304
2026-01-29 01:29:15.19	297.44	40.87	-29.9	-32.9	12.0	2.89e-04	0	44	0	1093664768	19	5082
2026-01-29 01:29:18.20	296.01	40.78	-29.4	-31.6	12.8	1.11e-04	0	44	0	1103101952	19	4622
2026-01-29 01:29:21.22	294.59	40.67	-29.0	-31.2	13.3	1.22e-05	0	44	0	1112539136	18	4611
2026-01-29 01:29:24.23	293.18	40.54	-29.2	-31.5	13.2	2.13e-05	0	44	0	1121976320	18	4713
2026-01-29 01:29:27.25	291.78	40.39	-28.6	-30.6	14.0	5.30e-06	0	44	0	1131413504	17	4531
2026-01-29 01:29:30.27	290.40	40.22	-29.0	-31.2	13.4	6.80e-06	0	44	0	1140850688	18	4602
2026-01-29 01:29:33.29	289.03	40.03	-29.0	-31.2	13.3	1.98e-05	0	44	0	1150287872	18	4604
2026-01-29 01:29:36.30	287.67	39.83	-28.0	-29.3	14.7	0.00e+00	0	44	0	1159725056	17	4147
2026-01-29 01:29:39.30	286.35	39.61	-28.9	-31.3	13.5	5.30e-06	0	44	0	1169162240	17	4755
2026-01-29 01:29:42.32	285.03	39.37	-29.1	-31.5	13.1	3.28e-05	0	44	0	1178599424	18	4711
2026-01-29 01:29:45.33	283.73	39.12	-28.3	-29.9	14.3	1.50e-06	0	44	0	1188036608	17	4342
2026-01-29 01:29:48.34	282.46	38.86	-29.5	-31.8	12.5	1.04e-04	0	44	0	1197473792	19	4715
2026-01-29 01:29:51.34	281.21	38.58	-28.4	-30.3	14.1	2.55e-03	0	44	0	1206910976	17	4438
2026-01-29 01:29:54.36	279.97	38.29	-28.3	-30.4	14.3	7.00e-07	0	44	0	1216348160	16	4592
2026-01-29 01:29:57.38	278.76	37.98	-28.7	-30.9	13.7	1.98e-05	0	44	0	1225785344	17	4639
2026-01-29 01:30:00.37	277.58	37.67	-28.3	-30.5	14.2	1.63e-03	0	44	0	1235222528	16	4632
2026-01-29 01:30:03.37	276.42	37.34	-29.5	-32.0	12.5	1.21e-03	0	44	0	1244659712	19	4767
2026-01-29 01:30:06.39	275.28	37.00	-28.3	-29.9	14.3	1.62e-03	0	44	0	1254096896	17	4326
2026-01-29 01:30:09.39	274.17	36.66	-27.5	-29.2	15.1	0.00e+00	0	44	0	1263534080	15	4354
2026-01-29 01:30:12.40	273.08	36.30	-29.4	-32.1	12.6	4.20e-04	0	44	0	1272971264	18	4921
2026-01-29 01:30:15.41	272.01	35.94	-28.3	-30.1	14.1	1.50e-06	0	44	0	1282408448	17	4388
2026-01-29 01:30:18.43	270.96	35.57	-28.2	-30.2	14.4	1.81e-03	0	44	0	1291845632	16	4539
2026-01-29 01:30:21.44	269.94	35.20	-29.2	-31.8	12.8	6.63e-05	0	44	0	1300234240	18	4809
2026-01-29 01:30:24.45	268.94	34.82	-29.0	-31.1	13.3	2.36e-05	0	44	0	1310720000	18	4592
2026-01-29 01:30:27.46	267.97	34.43	-28.5	-30.9	12.9	4.34e-05	0	44	0	1320157184	18	4736
2026-01-29 01:30:30.48	267.01	34.04	-29.5	-32.0	12.2	2.48e-04	0	44	0	1328545792	19	4781
2026-01-29 01:30:33.49	266.08	33.65	-28.5	-30.4	14.0	4.50e-06	0	44	0	1337982976	17	4481
2026-01-29 01:30:36.50	265.18	33.25	-28.4	-30.2	14.0	3.80e-06	0	44	0	1347420160	17	4432
2026-01-29 01:30:39.51	264.29	32.85	-28.5	-30.5	13.9	3.69e-04	0	44	0	1356857344	17	4519
2026-01-29 01:30:42.52	263.43	32.45	-27.1	-28.7	15.5	1.48e-03	0	44	0	1366294528	14	4343
2026-01-29 01:30:45.54	262.59	32.04	-26.7	-28.3	16.1	0.00e+00	0	44	0	1375731712	13	4325
2026-01-29 01:30:48.56	261.77	31.63	-27.4	-29.5	15.1	3.44e-03	0	44	0	1385168896	14	4567
2026-01-29 01:30:51.57	260.97	31.23	-27.2	-29.0	15.3	7.00e-07	0	44	0	1394606080	14	4431
2026-01-29 01:30:54.59	260.18	30.82	-27.1	-28.8	15.5	1.69e-03	0	44	0	1404043264	14	4361
2026-01-29 01:30:57.59	259.43	30.41	-27.1	-28.8	15.5	2.60e-04	0	44	0	1413480448	14	4361
2026-01-29 01:31:00.60	258.68	30.01	-26.5	-27.9	16.2	7.47e-04	0	44	0	1422917632	13	4218
2026-01-29 01:31:03.61	257.96	29.60	-26.9	-28.8	15.8	1.80e-04	0	44	0	1432354816	13	4475
2026-01-29 01:31:06.62	257.26	29.20	-27.3	-29.3	15.2	0.00e+00	0	44	0	1441792000	14	4515
2026-01-29 01:31:09.63	256.57	28.79	-27.2	-28.9	15.4	0.00e+00	0	44	0	1451229184	14	4396
2026-01-29 01:31:12.65	255.90	28.39	-26.3	-27.5	16.4	0.00e+00	0	44	0	1460666368	13	4119
2026-01-29 01:31:15.65	255.25	27.99	-26.4	-28.2	16.3	0.00e+00	0	44	0	1470103552	12	4418
2026-01-29 01:31:18.66	254.61	27.59	-26.9	-28.9	15.6	0.00e+00	0	44	0	1479540736	13	4515
2026-01-29 01:31:21.67	253.99	27.19	-27.1	-28.8	15.4	0.00e+00	0	44	0	1488977920	14	4378
2026-01-29 01:31:24.68	253.38	26.79	-26.6	-28.1	16.0	0.00e+00	0	44	0	1498415104	13	4288
2026-01-29 01:31:27.69	252.79	26.40	-26.6	-28.2	15.9	0.00e+00	0	44	0	1507852288	13	4323
2026-01-29 01:31:30.70	252.22	26.01	-27.6	-29.4	14.7	0.00e+00	0	44	0	1517289472	15	4453
2026-01-29 01:31:33.71	251.66	25.62	-27.2	-28.5	15.2	0.00e+00	0	44	0	1526726656	15	4202
2026-01-29 01:31:36.73	251.11	25.23	-26.8	-27.7	15.6	0.00e+00	0	44	0	1536163840	15	3988
2026-01-29 01:31:39.74	250.57	24.85	-26.7	-27.9	15.9	0.00e+00	0	44	0	1545601024	14	4118
2026-01-29 01:31:42.75	250.05	24.47	-27.0	-29.0	15.5	0.00e+00	0	44	0	1555038208	13	4546
2026-01-29 01:31:45.75	249.54	24.09	-26.8	-28.7	15.6	3.14e-04	0	44	0	1564475392	13	4457
2026-01-29 01:31:48.77	249.04	23.71	-26.7	-28.4	15.8	7.03e-04	0	44	0	1573912576	13	4384
2026-01-29 01:31:51.77	248.56	23.34	-26.9	-28.8	15.6	4.13e-04	0	44	0	1583349760	13	4498
2026-01-29 01:31:54.79	248.08	22.97	-27.1	-28.8	15.3	0.00e+00	0	44	0	1592786944	14	4376
2026-01-29 01:31:57.80	247.62	22.61	-26.9	-28.8	15.6	0.00e+00	0	44	0	1602224128	13	4488
2026-01-29 01:32:00.81	247.17	22.25	-27.3	-29.3	15.0	0.00e+00	0	44	0	1611661312	14	4525
2026-01-29 01:32:03.82	246.73	21.89	-26.5	-28.0	15.7	0.00e+00	0	44	0	1621098496	13	4258
2026-01-29 01:32:06.83	246.30	21.53	-26.5	-28.0	15.9	3.58e-04	0	44	0	1630535680	13	4268
2026-01-29 01:32:09.84	245.88	21.18	-26.5	-27.9	15.9	0.00e+00	0	44	0	1639972864	13	4258
2026-01-29 01:32:12.86	245.46	20.83	-26.7	-28.4	15.7	3.04e-04	0	44	0	1649410048	13	4376
2026-01-29 01:32:15.86	245.06	20.49	-26.7	-28.4	15.6	1.50e-06	0	44	0	1658847232	13	4386
2026-01-29 01:32:18.87	244.67	20.14	-26.8	-28.8	15.4	2.38e-03	0	44	0	1668284416	13	4489
2026-01-29 01:32:21.86	244.29	19.81	-26.7	-28.4	15.6	2.45e-03	0	44	0	1676673024	13	4395
2026-01-29 01:32:24.86	243.91	19.47	-26.8	-28.7	15.4	0.00e+00	0	44	0	1686110208	13	4481
2026-01-29 01:32:27.88	243.54	19.14	-26.9	-28.9	15.3	1.88e-03	0	44	0	1695547392	13	4542
2026-01-29 01:32:30.90	243.18	18.80	-27.2	-29.0	15.0	1.07e-03	0	44	0	1704984576	14	4446
2026-01-29 01:32:33.90	242.83	18.48	-27.3	-29.2	14.9	6.40e-04	0	44	0	1714421760	14	4503
2026-01-29 01:32:36.89	242.49	18.16	-26.9	-28.8	15.3	6.26e-04	0	44	0	1723858944	13	4492
2026-01-29 01:32:39.90	242.15	17.84	-27.0	-28.6	15.2	7.00e-07	0	44	0	1733296128	14	4338
2026-01-29 01:32:42.93	241.82	17.52	-27.1	-29.0	15.0	9.74e-04	0	44	0	1742733312	14	4435
2026-01-29 01:32:45.95	241.50	17.20	-26.9	-29.0	15.2	0.00e+00	0	44	0	1752170496	13	4555
2026-01-29 01:32:48.95	241.18	16.89	-27.1	-28.9	14.9	1.03e-03	0	44	0	1761607680	14	4419
2026-01-29 01:32:51.97	240.87	16.58	-27.4	-29.6	14.5	7.00e-07	0	44	0	1771044864	14	4626
2026-01-29 01:32:54.99	240.57	16.28	-27.2	-29.1	14.8	0.00e+00	0	44	0	1780482048	14	4482
2026-01-29 01:32:58.00	240.27	15.98	-27.1	-29.0	14.9	0.00e+00	0	44	0	1789919232	14	4442
2026-01-29 01:33:01.02	239.98	15.68	-26.9	-29.0	14.9	0.00e+00	0	44	0	1799356416	13	4586
2026-01-29 01:33:04.03	239.69	15.38	-26.9	-28.8	15.1	0.00e+00	0	44	0	1808793600	13	4527
2026-01-29 01:33:07.04	239.42	15.09	-26.9	-28.9	15.1	0.00e+00	0	44	0	1818230784	13	4556
2026-01-29 01:33:10.06	239.14	14.79	-27.0	-29.2	14.9	3.23e-04	0	44	0	1827667968	13	4624
2026-01-29 01:33:13.07	238.87	14.51	-26.9	-29.0	15.0	0.00e+00	0	44	0	1837105152	13	4560
2026-01-29 01:33:16.08	238.61	14.22	-27.4	-29.7	14.3	1.58e-04	0	44	0	1846542336	14	4678
2026-01-29 01:33:19.10	238.35	13.94	-27.1	-28.9	14.8	2.05e-03	0	44	0	1855979520	14	4435
2026-01-29 01:33:22.11	238.10	13.66	-27.4	-29.5	14.4	3.34e-03	0	44	0	1865416704	14	4622
2026-01-29 01:33:25.11	237.85	13.38	-27.5	-29.4	14.1	4.14e-03	0	44	0	1874853888	15	4475
2026-01-29 01:33:28.11	237.61	13.11	-27.5	-29.8	14.1	3.96e-03	0	44	0	1884291072	14	4721
2026-01-29 01:33:31.12	237.37	12.84	-27.5	-29.4	14.1	3.81e-03	0	44	0	1893728256	15	4486
2026-01-29 01:33:34.14	237.13	12.57	-27.3	-29.4	14.3	3.00e-06	0	44	0	1903165440	14	4598
2026-01-29 01:33:37.15	236.90	12.30	-27.2	-29.2	14.4	4.03e-03	0	44	0	1912602624	14	4542
2026-01-29 01:33:40.15	236.68	12.04	-27.4	-29.7	14.1	3.48e-03	0	44	0	1922039808	14	4694
2026-01-29 01:33:43.15	236.46	11.77	-27.3	-29.5	14.3	2.20e-06	0	44	0	1931476992	14	4622
2026-01-29 01:33:46.16	236.24	11.51	-27.5	-29.8	14.1	3.80e-06	0	44	0	1940914176	14	4716
2026-01-29 01:33:49.17	236.03	11.26	-27.8	-30.3	13.5	1.22e-05	0	44	0	1950351360	15	4756
2026-01-29 01:33:52.19	235.82	11.00	-27.4	-29.3	14.0	1.13e-03	0	44	0	1959788544	15	4455
2026-01-29 01:33:55.20	235.61	10.75	-27.5	-29.5	13.9	3.80e-06	0	44	0	1969225728	15	4507
2026-01-29 01:33:58.22	235.41	10.50	-27.6	-29.7	13.7	3.00e-06	0	44	0	1978662912	15	4586
2026-01-29 01:34:01.24	235.21	10.25	-27.8	-30.1	13.5	9.10e-06	0	44	0	1988100096	15	4719
2026-01-29 01:34:04.25	235.01	10.00	-27.8	-30.1	13.5	1.06e-05	0	44	0	1997537280	15	4714
2026-01-29 01:34:07.28	234.82	9.75	-28.2	-30.6	13.1	3.20e-05	0	44	0	2006974464	16	4748
2026-01-29 01:34:10.30	234.63	9.51	-28.2	-30.7	13.0	3.50e-05	0	44	0	2015363072	16	4786
2026-01-29 01:34:13.31	234.45	9.27	-28.4	-31.0	12.7	6.10e-05	0	44	0	2025848832	16	4887
2026-01-29 01:34:16.33	234.26	9.03	-28.2	-30.2	12.9	3.81e-05	0	44	0	2035286016	17	4517
2026-01-29 01:34:19.34	234.08	8.80	-28.3	-30.9	12.8	7.09e-05	0	44	0	2043674624	16	4862
2026-01-29 01:34:22.36	233.91	8.56	-28.4	-31.2	12.5	1.06e-04	0	44	0	2054160384	16	4962
2026-01-29 01:34:25.38	233.73	8.33	-28.6	-31.2	12.2	2.28e-04	0	44	0	2062548992	17	4853
2026-01-29 01:34:28.38	233.56	8.10	-28.7	-31.4	12.0	3.29e-04	0	44	0	2071986176	17	4931
2026-01-29 01:34:31.40	233.40	7.87	-28.7	-31.5	12.0	3.06e-04	0	44	0	2081423360	17	4955
2026-01-29 01:34:34.41	233.23	7.64	-28.7	-31.4	12.0	1.70e-03	0	44	0	2090860544	17	4922
2026-01-29 01:34:37.42	233.07	7.42	-28.8	-31.6	11.9	3.91e-04	0	44	0	2100297728	17	4988
2026-01-29 01:34:40.44	232.91	7.19	-28.8	-31.6	11.8	3.16e-03	0	44	0	2109734912	17	5015
2026-01-29 01:34:43.45	232.75	6.97	-32.9	-45.2	3.8	1.49e+00	0	44	104	2116026368	25	14741

#Closed at: 2026-01-29 01:34:45
#Recorded file [2116 MB]: D:/data/31010_260129_042324.dat