passes_logs/2026/01/29/R2M6_AANII_01/R2M6_AANII_01__20260129_110255_FENGYUN_3D_rec.log

#Pass ID: 20260129_110255_FENGYUN 3D
#Satellite: FENGYUN 3D
#Configuration: FENGYUN 3D
#almurnet v.1.7.20240730
#Start time: 2026-01-29 11:02:57

#Version: 2.2.20231116
#Station: R2M6_AANII_01
#Location: 30.233357 lon 59.946436 lat
#TLE: 1 43010U 17072A   26027.97130493  .00000326  00000+0  17586-3 0  9998
#TLE: 2 43010  98.9960 359.9900 0002514  87.8428 272.3036 14.19701925425097

#Time	Az	El	Level	Level2	SNR	BER	BlckErr	Temp	State	Recorded	gain1	gain2
2026-01-29 11:02:57.99	118.57	7.15	-30.6	-33.7	5.2	7.92e-01	0	40	0	0	22	5167
2026-01-29 11:03:00.98	118.37	7.36	-30.3	-33.3	9.6	1.01e-02	0	40	0	5242880	21	5087
2026-01-29 11:03:03.99	118.17	7.58	-29.3	-31.5	11.5	9.25e-04	0	40	0	22020096	19	4656
2026-01-29 11:03:06.99	117.96	7.80	-28.2	-29.9	13.2	1.71e-05	0	40	0	38797312	17	4377
2026-01-29 11:03:10.00	117.76	8.02	-27.9	-29.3	13.6	2.20e-06	0	40	0	55574528	17	4193
2026-01-29 11:03:13.01	117.55	8.24	-27.9	-29.1	13.7	2.20e-06	0	40	0	73400320	17	4138
2026-01-29 11:03:16.02	117.33	8.46	-27.8	-28.9	13.9	0.00e+00	0	40	0	90177536	17	4100
2026-01-29 11:03:19.03	117.12	8.69	-27.8	-29.3	14.0	4.50e-06	0	40	0	106954752	16	4306
2026-01-29 11:03:22.01	116.90	8.91	-27.6	-29.0	14.2	0.00e+00	0	41	0	123731968	16	4225
2026-01-29 11:03:25.03	116.67	9.14	-27.6	-29.1	14.2	0.00e+00	0	41	0	140509184	16	4233
2026-01-29 11:03:28.04	116.44	9.37	-27.6	-28.9	14.3	2.20e-06	0	41	0	157286400	16	4179
2026-01-29 11:03:31.05	116.21	9.60	-27.6	-29.0	14.3	0.00e+00	0	41	0	174063616	16	4217
2026-01-29 11:03:34.06	115.98	9.84	-27.8	-29.3	14.1	1.10e-06	0	41	0	190840832	16	4298
2026-01-29 11:03:37.06	115.74	10.07	-27.5	-28.8	14.4	1.10e-06	0	41	0	208666624	16	4154
2026-01-29 11:03:40.07	115.49	10.31	-27.4	-28.4	14.7	0.00e+00	0	41	0	225443840	16	4060
2026-01-29 11:03:43.07	115.25	10.55	-27.0	-28.2	14.9	0.00e+00	0	41	0	242221056	15	4110
2026-01-29 11:03:46.08	114.99	10.79	-27.3	-28.7	14.7	3.40e-06	0	41	0	258998272	15	4233
2026-01-29 11:03:49.09	114.74	11.03	-27.1	-28.3	14.9	1.10e-06	0	41	0	275775488	15	4134
2026-01-29 11:03:52.11	114.48	11.27	-27.3	-28.8	14.6	5.70e-06	0	41	0	292552704	15	4261
2026-01-29 11:03:55.11	114.21	11.52	-27.0	-28.2	15.0	0.00e+00	0	41	0	309329920	15	4113
2026-01-29 11:03:58.11	113.94	11.77	-27.2	-28.6	14.7	0.00e+00	0	41	0	326107136	15	4225
2026-01-29 11:04:01.12	113.67	12.01	-27.1	-28.3	15.0	1.10e-06	0	41	0	343932928	15	4128
2026-01-29 11:04:04.13	113.39	12.27	-27.1	-28.4	14.9	0.00e+00	0	41	0	360710144	15	4150
2026-01-29 11:04:07.15	113.10	12.52	-27.1	-28.3	15.0	0.00e+00	0	41	0	377487360	15	4126
2026-01-29 11:04:10.14	112.81	12.77	-27.3	-28.7	14.7	1.10e-06	0	41	0	394264576	15	4254
2026-01-29 11:04:13.15	112.52	13.03	-26.6	-27.7	15.6	0.00e+00	0	41	0	411041792	14	4091
2026-01-29 11:04:16.15	112.22	13.29	-26.6	-27.7	15.6	0.00e+00	0	41	0	427819008	14	4068
2026-01-29 11:04:19.17	111.91	13.55	-26.6	-27.6	15.7	0.00e+00	0	41	0	444596224	14	4049
2026-01-29 11:04:22.18	111.60	13.82	-26.6	-27.6	15.7	0.00e+00	0	42	0	461373440	14	4047
2026-01-29 11:04:25.19	111.28	14.08	-26.3	-27.4	16.1	0.00e+00	0	42	0	479199232	13	4118
2026-01-29 11:04:28.20	110.96	14.35	-26.3	-27.5	16.1	0.00e+00	0	41	0	495976448	13	4123
2026-01-29 11:04:31.21	110.63	14.62	-26.3	-27.5	16.0	0.00e+00	0	41	0	512753664	13	4141
2026-01-29 11:04:34.23	110.30	14.89	-26.2	-27.3	16.2	0.00e+00	0	41	0	529530880	13	4095
2026-01-29 11:04:37.25	109.95	15.17	-26.2	-27.3	16.2	0.00e+00	0	41	0	546308096	13	4085
2026-01-29 11:04:40.26	109.61	15.44	-26.1	-27.1	16.3	0.00e+00	0	42	0	564133888	13	4032
2026-01-29 11:04:43.27	109.25	15.72	-26.1	-27.1	16.4	0.00e+00	0	42	0	580911104	13	4027
2026-01-29 11:04:46.27	108.89	16.00	-26.3	-27.5	16.1	0.00e+00	0	42	0	597688320	13	4129
2026-01-29 11:04:49.28	108.52	16.28	-26.3	-27.5	16.2	0.00e+00	0	42	0	614465536	13	4123
2026-01-29 11:04:52.30	108.15	16.56	-26.3	-27.5	16.1	0.00e+00	0	42	0	631242752	13	4147
2026-01-29 11:04:55.31	107.76	16.85	-25.5	-26.2	17.2	0.00e+00	0	42	0	648019968	12	3908
2026-01-29 11:04:58.33	107.37	17.14	-25.3	-25.9	17.3	0.00e+00	0	42	0	664797184	12	3839
2026-01-29 11:05:01.34	106.97	17.43	-25.5	-26.3	17.1	0.00e+00	0	42	0	682622976	12	3938
2026-01-29 11:05:04.34	106.57	17.72	-25.8	-26.8	16.9	0.00e+00	0	42	0	699400192	12	4059
2026-01-29 11:05:07.35	106.16	18.01	-25.5	-26.3	17.1	0.00e+00	0	42	0	716177408	12	3951
2026-01-29 11:05:10.37	105.73	18.31	-25.4	-26.1	17.3	0.00e+00	0	42	0	732954624	12	3881
2026-01-29 11:05:13.38	105.30	18.61	-25.4	-26.0	17.3	0.00e+00	0	42	0	749731840	12	3871
2026-01-29 11:05:16.38	104.87	18.90	-25.2	-26.2	17.6	0.00e+00	0	42	0	766509056	11	4013
2026-01-29 11:05:19.40	104.42	19.21	-25.3	-26.2	17.5	0.00e+00	0	42	0	784334848	11	4027
2026-01-29 11:05:22.41	103.96	19.51	-25.4	-26.5	17.4	0.00e+00	0	42	0	801112064	11	4081
2026-01-29 11:05:25.43	103.49	19.82	-25.1	-25.8	17.8	0.00e+00	0	42	0	817889280	11	3928
2026-01-29 11:05:28.44	103.01	20.12	-25.0	-25.7	17.9	0.00e+00	0	42	0	834666496	11	3885
2026-01-29 11:05:31.45	102.53	20.43	-24.8	-25.3	18.1	0.00e+00	0	42	0	851443712	11	3788
2026-01-29 11:05:34.45	102.03	20.74	-24.9	-25.5	18.0	0.00e+00	0	42	0	868220928	11	3833
2026-01-29 11:05:37.46	101.53	21.05	-25.2	-26.0	17.7	0.00e+00	0	42	0	884998144	11	3964
2026-01-29 11:05:40.47	101.01	21.36	-25.1	-25.8	17.8	0.00e+00	0	42	0	902823936	11	3925
2026-01-29 11:05:43.48	100.48	21.68	-25.0	-25.8	17.9	0.00e+00	0	42	0	919601152	11	3913
2026-01-29 11:05:46.49	99.95	21.99	-24.7	-25.5	18.3	0.00e+00	0	42	0	936378368	10	3955
2026-01-29 11:05:49.51	99.40	22.31	-24.6	-25.4	18.3	0.00e+00	0	42	0	953155584	10	3918
2026-01-29 11:05:52.49	98.84	22.62	-24.6	-25.4	18.4	0.00e+00	0	42	0	969932800	10	3919
2026-01-29 11:05:55.50	98.27	22.94	-24.6	-25.3	18.4	0.00e+00	0	42	0	986710016	10	3903
2026-01-29 11:05:58.52	97.68	23.26	-24.4	-24.9	18.6	0.00e+00	0	42	0	1003487232	10	3819
2026-01-29 11:06:01.53	97.09	23.58	-24.4	-24.9	18.6	0.00e+00	0	42	0	1020264448	10	3800
2026-01-29 11:06:04.53	96.48	23.90	-24.3	-25.1	18.7	0.00e+00	0	42	0	1038090240	9	3973
2026-01-29 11:06:07.54	95.86	24.22	-24.5	-25.6	18.5	0.00e+00	0	42	0	1054867456	9	4078
2026-01-29 11:06:10.55	95.22	24.54	-24.5	-25.6	18.5	0.00e+00	0	42	0	1071644672	9	4074
2026-01-29 11:06:13.56	94.57	24.86	-24.3	-25.2	18.8	0.00e+00	0	42	0	1088421888	9	3983
2026-01-29 11:06:16.57	93.91	25.19	-24.0	-24.5	19.1	0.00e+00	0	42	0	1105199104	9	3825
2026-01-29 11:06:19.57	93.24	25.50	-24.0	-24.5	19.1	0.00e+00	0	42	0	1121976320	9	3832
2026-01-29 11:06:22.58	92.55	25.82	-24.0	-24.5	19.1	0.00e+00	0	42	0	1138753536	9	3825
2026-01-29 11:06:25.59	91.85	26.14	-23.8	-24.2	19.3	0.00e+00	0	42	0	1155530752	9	3748
2026-01-29 11:06:28.60	91.13	26.46	-23.9	-24.4	19.2	0.00e+00	0	42	0	1173356544	9	3784
2026-01-29 11:06:31.61	90.40	26.78	-23.9	-24.7	19.3	0.00e+00	0	42	0	1190133760	8	3983
2026-01-29 11:06:34.63	89.65	27.09	-23.9	-24.9	19.2	0.00e+00	0	42	0	1206910976	8	4010
2026-01-29 11:06:37.64	88.89	27.41	-24.1	-25.3	19.0	0.00e+00	0	42	0	1223688192	8	4129
2026-01-29 11:06:40.65	88.11	27.72	-23.7	-24.4	19.4	0.00e+00	0	42	0	1240465408	8	3907
2026-01-29 11:06:43.65	87.33	28.02	-23.8	-24.6	19.4	0.00e+00	0	42	0	1258291200	8	3943
2026-01-29 11:06:46.67	86.52	28.33	-24.1	-25.2	19.1	0.00e+00	0	42	0	1275068416	8	4096
2026-01-29 11:06:49.69	85.69	28.63	-24.0	-25.1	19.1	0.00e+00	0	42	0	1291845632	8	4073
2026-01-29 11:06:52.70	84.85	28.93	-23.8	-24.5	19.4	0.00e+00	0	42	0	1308622848	8	3936
2026-01-29 11:06:55.71	84.00	29.23	-23.6	-24.1	19.7	0.00e+00	0	42	0	1325400064	8	3826
2026-01-29 11:06:58.72	83.13	29.52	-23.7	-24.5	19.4	0.00e+00	0	42	0	1342177280	8	3920
2026-01-29 11:07:01.72	82.25	29.80	-23.7	-24.5	19.4	0.00e+00	0	42	0	1358954496	8	3922
2026-01-29 11:07:04.74	81.34	30.09	-23.6	-24.3	19.5	0.00e+00	0	42	0	1376780288	8	3875
2026-01-29 11:07:07.77	80.42	30.36	-23.5	-24.0	19.7	0.00e+00	0	42	0	1393557504	8	3809
2026-01-29 11:07:10.78	79.49	30.63	-23.4	-23.8	19.8	0.00e+00	0	42	0	1410334720	8	3770
2026-01-29 11:07:13.78	78.54	30.90	-23.5	-24.0	19.7	0.00e+00	0	42	0	1427111936	8	3804
2026-01-29 11:07:16.79	77.58	31.15	-23.4	-23.7	19.8	0.00e+00	0	42	0	1443889152	8	3744
2026-01-29 11:07:19.79	76.60	31.40	-23.3	-24.1	19.9	0.00e+00	0	42	0	1460666368	7	3933
2026-01-29 11:07:22.79	75.61	31.64	-23.2	-23.8	20.1	0.00e+00	0	42	0	1478492160	7	3861
2026-01-29 11:07:25.81	74.60	31.88	-23.5	-24.5	19.7	0.00e+00	0	42	0	1495269376	7	4038
2026-01-29 11:07:28.81	73.58	32.10	-23.5	-24.4	19.8	0.00e+00	0	42	0	1512046592	7	3999
2026-01-29 11:07:31.81	72.54	32.32	-23.3	-24.1	19.9	0.00e+00	0	42	0	1528823808	7	3935
2026-01-29 11:07:34.81	71.50	32.53	-23.4	-24.3	19.8	0.00e+00	0	42	0	1545601024	7	3991
2026-01-29 11:07:37.82	70.43	32.72	-23.5	-24.6	19.7	0.00e+00	0	42	0	1562378240	7	4049
2026-01-29 11:07:40.83	69.36	32.91	-23.1	-23.7	20.2	0.00e+00	0	42	0	1579155456	7	3840
2026-01-29 11:07:43.84	68.27	33.09	-22.8	-23.0	20.5	0.00e+00	0	42	0	1595932672	7	3694
2026-01-29 11:07:46.85	67.17	33.26	-23.3	-24.0	20.2	0.00e+00	0	42	0	1613758464	7	3905
2026-01-29 11:07:49.87	66.05	33.41	-23.0	-23.4	20.5	0.00e+00	0	42	0	1630535680	7	3750
2026-01-29 11:07:52.88	64.93	33.56	-23.0	-23.4	20.5	0.00e+00	0	42	0	1647312896	7	3767
2026-01-29 11:07:55.89	63.80	33.69	-23.4	-24.2	20.1	0.00e+00	0	42	0	1664090112	7	3936
2026-01-29 11:07:58.90	62.66	33.81	-23.0	-23.3	20.5	0.00e+00	0	42	0	1680867328	7	3744
2026-01-29 11:08:01.92	61.51	33.92	-23.3	-24.1	20.1	0.00e+00	0	42	0	1697644544	7	3917
2026-01-29 11:08:04.92	60.35	34.01	-23.4	-24.2	20.1	0.00e+00	0	42	0	1714421760	7	3946
2026-01-29 11:08:07.94	59.19	34.09	-23.2	-23.7	20.3	0.00e+00	0	42	0	1732247552	7	3839
2026-01-29 11:08:10.94	58.03	34.16	-23.1	-23.6	20.4	0.00e+00	0	42	0	1749024768	7	3801
2026-01-29 11:08:13.96	56.85	34.21	-23.2	-23.7	20.3	0.00e+00	0	42	0	1765801984	7	3835
2026-01-29 11:08:16.97	55.68	34.25	-23.0	-23.4	20.5	0.00e+00	0	42	0	1782579200	7	3756
2026-01-29 11:08:19.98	54.50	34.28	-23.2	-23.8	20.3	0.00e+00	0	42	0	1799356416	7	3863
2026-01-29 11:08:22.99	53.32	34.29	-22.9	-23.5	20.7	0.00e+00	0	42	0	1816133632	6	3897
2026-01-29 11:08:25.99	52.15	34.29	-23.0	-23.8	20.5	0.00e+00	0	42	0	1832910848	6	3965
2026-01-29 11:08:29.00	50.97	34.28	-23.2	-24.3	20.2	0.00e+00	0	42	0	1850736640	6	4080
2026-01-29 11:08:32.00	49.80	34.25	-23.4	-24.7	20.0	0.00e+00	0	42	0	1867513856	6	4185
2026-01-29 11:08:35.01	48.62	34.21	-23.1	-24.1	20.3	0.00e+00	0	42	0	1884291072	6	4038
2026-01-29 11:08:38.00	47.46	34.16	-22.9	-23.7	20.5	0.00e+00	0	42	0	1901068288	6	3933
2026-01-29 11:08:41.01	46.30	34.09	-23.0	-23.9	20.4	0.00e+00	0	42	0	1917845504	6	3987
2026-01-29 11:08:44.02	45.14	34.01	-22.8	-23.4	20.7	0.00e+00	0	42	0	1934622720	6	3875
2026-01-29 11:08:47.04	43.98	33.91	-23.0	-23.9	20.4	0.00e+00	0	42	0	1951399936	6	3988
2026-01-29 11:08:50.04	42.84	33.80	-23.1	-24.1	20.4	0.00e+00	0	42	0	1969225728	6	4029
2026-01-29 11:08:53.06	41.69	33.68	-23.0	-23.9	20.4	0.00e+00	0	42	0	1986002944	6	3986
2026-01-29 11:08:56.06	40.57	33.55	-23.1	-24.2	20.3	0.00e+00	0	42	0	2002780160	6	4055
2026-01-29 11:08:59.07	39.45	33.41	-22.9	-23.7	20.5	0.00e+00	0	42	0	2019557376	6	3937
2026-01-29 11:09:02.09	38.34	33.25	-22.7	-23.3	20.7	0.00e+00	0	42	0	2036334592	6	3854
2026-01-29 11:09:05.10	37.24	33.08	-23.1	-24.0	20.3	0.00e+00	0	42	0	2053111808	6	4020
2026-01-29 11:09:08.12	36.15	32.91	-23.4	-24.7	20.0	0.00e+00	0	42	0	2069889024	6	4185
2026-01-29 11:09:11.12	35.08	32.72	-23.4	-24.3	19.9	0.00e+00	0	42	0	2087714816	7	3969
2026-01-29 11:09:14.13	34.01	32.52	-23.3	-23.9	20.1	0.00e+00	0	42	0	2104492032	7	3886
2026-01-29 11:09:17.14	32.97	32.31	-23.4	-24.2	20.0	0.00e+00	0	42	0	2121269248	7	3940
2026-01-29 11:09:20.15	31.93	32.10	-23.1	-23.6	20.3	0.00e+00	0	42	0	2138046464	7	3797
2026-01-29 11:09:23.16	30.91	31.87	-23.3	-23.9	20.1	0.00e+00	0	42	0	2154823680	7	3882
2026-01-29 11:09:26.16	29.91	31.64	-23.6	-24.6	19.8	0.00e+00	0	42	0	2171600896	7	4048
2026-01-29 11:09:29.17	28.92	31.39	-23.2	-23.7	20.2	0.00e+00	0	42	0	2188378112	7	3833
2026-01-29 11:09:32.20	27.94	31.14	-23.3	-24.1	20.0	0.00e+00	0	42	0	2206203904	7	3917
2026-01-29 11:09:35.21	26.98	30.89	-23.5	-24.4	19.9	0.00e+00	0	42	0	2222981120	7	3988
2026-01-29 11:09:38.22	26.03	30.62	-23.2	-23.8	20.1	0.00e+00	0	42	0	2239758336	7	3851
2026-01-29 11:09:41.23	25.10	30.35	-23.2	-23.8	20.1	0.00e+00	0	42	0	2256535552	7	3850
2026-01-29 11:09:44.24	24.19	30.08	-23.1	-23.5	20.3	0.00e+00	0	42	0	2273312768	7	3786
2026-01-29 11:09:47.23	23.30	29.80	-23.2	-23.7	20.2	0.00e+00	0	42	0	2290089984	7	3833
2026-01-29 11:09:50.24	22.41	29.51	-23.2	-23.7	20.2	0.00e+00	0	42	0	2307915776	7	3837
2026-01-29 11:09:53.25	21.55	29.22	-23.3	-24.0	20.0	0.00e+00	0	42	0	2324692992	7	3908
2026-01-29 11:09:56.27	20.70	28.93	-23.4	-24.2	19.9	0.00e+00	0	42	0	2341470208	7	3943
2026-01-29 11:09:59.27	19.86	28.63	-23.4	-24.1	19.9	0.00e+00	0	42	0	2358247424	7	3930
2026-01-29 11:10:02.27	19.05	28.33	-23.2	-23.9	20.1	0.00e+00	0	42	0	2375024640	7	3873
2026-01-29 11:10:05.27	18.25	28.03	-23.3	-24.0	20.0	0.00e+00	0	42	0	2391801856	7	3890
2026-01-29 11:10:08.28	17.46	27.72	-23.4	-24.1	19.9	0.00e+00	0	42	0	2408579072	7	3931
2026-01-29 11:10:11.29	16.68	27.41	-23.6	-24.7	19.6	0.00e+00	0	42	0	2425356288	7	4071
2026-01-29 11:10:14.29	15.93	27.10	-23.8	-25.0	19.5	0.00e+00	0	42	0	2442133504	7	4132
2026-01-29 11:10:17.31	15.18	26.79	-23.8	-24.9	19.4	0.00e+00	0	42	0	2459959296	7	4125
2026-01-29 11:10:20.32	14.46	26.47	-23.8	-25.0	19.4	0.00e+00	0	42	0	2476736512	7	4149
2026-01-29 11:10:23.32	13.74	26.16	-24.0	-25.1	19.1	0.00e+00	0	42	0	2493513728	8	4056
2026-01-29 11:10:26.34	13.04	25.84	-23.9	-24.8	19.3	0.00e+00	0	42	0	2510290944	8	3987
2026-01-29 11:10:29.34	12.36	25.52	-23.8	-24.5	19.4	0.00e+00	0	42	0	2527068160	8	3911
2026-01-29 11:10:32.36	11.69	25.20	-24.0	-24.9	19.2	0.00e+00	0	41	0	2543845376	8	4007
2026-01-29 11:10:35.36	11.03	24.88	-24.3	-25.6	18.9	0.00e+00	0	42	0	2560622592	8	4172
2026-01-29 11:10:38.37	10.39	24.56	-24.1	-25.2	19.0	0.00e+00	0	42	0	2578448384	8	4074
2026-01-29 11:10:41.38	9.75	24.24	-24.2	-25.5	18.9	0.00e+00	0	42	0	2595225600	8	4149
2026-01-29 11:10:44.40	9.13	23.92	-24.3	-25.7	18.8	0.00e+00	0	42	0	2612002816	8	4196
2026-01-29 11:10:47.41	8.53	23.60	-24.8	-26.1	18.3	0.00e+00	0	42	0	2628780032	9	4185
2026-01-29 11:10:50.40	7.94	23.29	-24.9	-26.3	18.1	0.00e+00	0	42	0	2645557248	9	4243
2026-01-29 11:10:53.41	7.36	22.97	-24.8	-26.2	18.2	0.00e+00	0	42	0	2662334464	9	4215
2026-01-29 11:10:56.42	6.79	22.65	-25.3	-26.3	17.6	0.00e+00	0	42	0	2679111680	11	4017
2026-01-29 11:10:59.44	6.23	22.33	-24.3	-24.7	18.7	0.00e+00	0	42	0	2695888896	10	3744
2026-01-29 11:11:02.44	5.68	22.02	-24.2	-25.0	18.8	0.00e+00	0	41	0	2713714688	9	3915
2026-01-29 11:11:05.46	5.15	21.70	-24.1	-24.7	18.9	0.00e+00	0	42	0	2730491904	9	3862
2026-01-29 11:11:08.46	4.62	21.39	-24.1	-24.8	18.9	0.00e+00	0	42	0	2747269120	9	3867
2026-01-29 11:11:11.47	4.11	21.08	-24.2	-25.0	18.7	0.00e+00	0	42	0	2764046336	9	3925
2026-01-29 11:11:14.48	3.61	20.77	-24.4	-25.2	18.6	0.00e+00	0	42	0	2780823552	9	3984
2026-01-29 11:11:17.49	3.12	20.46	-24.3	-25.2	18.6	0.00e+00	0	42	0	2798649344	9	3983
2026-01-29 11:11:20.50	2.63	20.16	-24.5	-25.6	18.4	0.00e+00	0	41	0	2815426560	9	4069
2026-01-29 11:11:23.51	2.16	19.85	-24.5	-25.6	18.4	0.00e+00	0	42	0	2832203776	9	4082
2026-01-29 11:11:26.53	1.69	19.55	-24.6	-25.9	18.2	0.00e+00	0	42	0	2848980992	9	4135
2026-01-29 11:11:29.54	1.24	19.24	-24.6	-25.8	18.2	0.00e+00	0	42	0	2865758208	9	4131
2026-01-29 11:11:32.56	0.79	18.94	-24.6	-25.7	18.3	0.00e+00	0	42	0	2882535424	9	4103
2026-01-29 11:11:35.56	0.36	18.65	-24.8	-26.2	18.1	0.00e+00	0	42	0	2899312640	9	4237
2026-01-29 11:11:38.57	359.93	18.35	-25.1	-26.4	17.7	0.00e+00	0	42	0	2917138432	10	4161
2026-01-29 11:11:41.58	359.51	18.06	-25.3	-26.8	17.5	0.00e+00	0	42	0	2933915648	10	4256
2026-01-29 11:11:44.59	359.10	17.76	-25.2	-26.5	17.6	0.00e+00	0	42	0	2950692864	10	4189
2026-01-29 11:11:47.60	358.70	17.47	-25.7	-27.1	17.0	0.00e+00	0	42	0	2967470080	11	4228
2026-01-29 11:11:50.62	358.30	17.18	-25.5	-26.8	17.2	0.00e+00	0	42	0	2984247296	11	4147
2026-01-29 11:11:53.63	357.91	16.90	-25.6	-26.8	17.1	0.00e+00	0	42	0	3001024512	11	4166
2026-01-29 11:11:56.63	357.54	16.61	-25.6	-26.9	17.1	0.00e+00	0	42	0	3017801728	11	4169
2026-01-29 11:11:59.64	357.16	16.33	-25.6	-26.8	17.1	0.00e+00	0	42	0	3034578944	11	4153
2026-01-29 11:12:02.64	356.80	16.05	-25.5	-26.8	17.1	0.00e+00	0	42	0	3052404736	11	4151
2026-01-29 11:12:05.66	356.44	15.77	-25.6	-27.0	17.0	0.00e+00	0	42	0	3069181952	11	4198
2026-01-29 11:12:08.67	356.09	15.49	-25.8	-27.2	16.8	0.00e+00	0	42	0	3085959168	11	4265
2026-01-29 11:12:11.68	355.74	15.22	-25.9	-27.6	16.6	0.00e+00	0	42	0	3102736384	11	4365
2026-01-29 11:12:14.69	355.40	14.95	-26.1	-27.5	16.2	0.00e+00	0	42	0	3119513600	12	4216
2026-01-29 11:12:17.70	355.07	14.68	-25.8	-26.9	16.5	0.00e+00	0	42	0	3137339392	12	4080
2026-01-29 11:12:20.71	354.74	14.41	-26.0	-27.2	16.4	0.00e+00	0	42	0	3154116608	12	4161
2026-01-29 11:12:23.73	354.42	14.14	-26.1	-27.6	16.1	2.20e-06	0	41	0	3170893824	12	4249
2026-01-29 11:12:26.74	354.11	13.88	-26.1	-27.5	16.1	0.00e+00	0	42	0	3187671040	12	4243
2026-01-29 11:12:29.75	353.80	13.61	-26.2	-27.7	16.0	0.00e+00	0	42	0	3204448256	12	4299
2026-01-29 11:12:32.76	353.50	13.35	-26.2	-27.8	15.9	0.00e+00	0	42	0	3221225472	12	4310
2026-01-29 11:12:35.76	353.20	13.10	-26.1	-27.5	16.0	0.00e+00	0	42	0	3238002688	12	4237
2026-01-29 11:12:38.77	352.91	12.84	-26.3	-27.9	15.9	0.00e+00	0	42	0	3254779904	12	4329
2026-01-29 11:12:41.78	352.62	12.58	-26.2	-27.8	15.8	0.00e+00	0	42	0	3272605696	12	4316
2026-01-29 11:12:44.79	352.34	12.33	-26.2	-27.9	15.7	0.00e+00	0	42	0	3289382912	12	4332
2026-01-29 11:12:47.80	352.06	12.08	-26.2	-27.8	15.5	0.00e+00	0	42	0	3306160128	12	4332
2026-01-29 11:12:50.81	351.79	11.83	-26.3	-28.0	15.1	0.00e+00	0	42	0	3322937344	12	4395
2026-01-29 11:12:53.81	351.52	11.59	-26.4	-28.2	14.4	0.00e+00	0	42	0	3339714560	12	4448
2026-01-29 11:12:56.82	351.26	11.34	-26.8	-28.7	14.1	0.00e+00	0	42	0	3356491776	13	4462
2026-01-29 11:12:59.83	351.00	11.10	-26.8	-28.8	13.4	1.10e-06	0	42	0	3373268992	13	4500
2026-01-29 11:13:02.83	350.75	10.86	-25.9	-27.2	8.8	2.05e-03	0	42	0	3390046208	13	4185
2026-01-29 11:13:05.84	350.50	10.62	-25.1	-26.9	6.6	7.84e-02	0	42	0	3407872000	11	4474
2026-01-29 11:13:08.86	350.26	10.38	-24.7	-26.8	5.7	1.73e-01	0	42	0	3424649216	10	4612
2026-01-29 11:13:11.88	350.01	10.14	-25.1	-27.6	6.5	1.01e-01	0	42	0	3441426432	10	4763
2026-01-29 11:13:14.88	349.78	9.91	-26.0	-27.9	9.6	3.11e-03	0	42	0	3458203648	12	4460
2026-01-29 11:13:17.88	349.54	9.68	-26.7	-28.5	12.6	4.50e-06	0	42	0	3474980864	13	4431
2026-01-29 11:13:20.89	349.32	9.45	-26.9	-28.9	13.4	1.10e-06	0	42	0	3491758080	13	4544
2026-01-29 11:13:23.90	349.09	9.22	-26.9	-28.5	13.4	6.80e-06	0	42	0	3509583872	14	4313
2026-01-29 11:13:26.90	348.87	8.99	-27.0	-28.5	13.5	3.40e-06	0	42	0	3526361088	14	4313
2026-01-29 11:13:29.92	348.65	8.76	-26.9	-28.4	14.0	0.00e+00	0	42	0	3543138304	14	4284
2026-01-29 11:13:32.93	348.44	8.54	-27.0	-28.5	14.1	2.20e-06	0	42	0	3559915520	14	4312
2026-01-29 11:13:35.95	348.22	8.31	-27.1	-28.8	14.2	0.00e+00	0	42	0	3576692736	14	4380
2026-01-29 11:13:38.97	348.01	8.09	-27.1	-28.8	14.5	1.10e-06	0	42	0	3593469952	14	4392
2026-01-29 11:13:41.98	347.81	7.87	-27.3	-29.3	14.3	0.00e+00	0	42	0	3610247168	14	4512
2026-01-29 11:13:44.99	347.61	7.65	-27.3	-29.3	14.3	0.00e+00	0	42	0	3628072960	14	4515
2026-01-29 11:13:48.02	347.41	7.44	-27.2	-29.1	14.3	1.10e-06	0	42	0	3644850176	14	4473
2026-01-29 11:13:51.03	347.21	7.22	-27.4	-29.6	13.9	4.50e-06	0	42	0	3661627392	14	4620
2026-01-29 11:13:54.04	347.02	7.01	-32.9	-40.8	3.9	8.42e-01	0	42	104	3676307456	26	8913

#Closed at: 2026-01-29 11:13:56
#Recorded file [3676 MB]: D:/data/31010_260129_140259.dat