passes_logs/2026/01/29/R2M6_AANII_01/R2M6_AANII_01__20260129_142433_FENGYUN_3E_rec.log

#Pass ID: 20260129_142433_FENGYUN 3E
#Satellite: FENGYUN 3E
#Configuration: FENGYUN 3E
#almurnet v.1.7.20240730
#Start time: 2026-01-29 14:24:32

#Version: 2.2.20231116
#Station: R2M6_AANII_01
#Location: 30.233357 lon 59.946436 lat
#TLE: 1 49008U 21062A   26028.95833242 -.00000015  00000+0  13843-4 0  9995
#TLE: 2 49008  98.7500  33.9242 0002547 112.2873 247.8573 14.19887818236829

#Time	Az	El	Level	Level2	SNR	BER	BlckErr	Temp	State	Recorded	gain1	gain2
2026-01-29 14:24:32.41	154.13	6.92	-27.0	-29.7	5.5	7.70e-01	0	40	0	0	14	4873
2026-01-29 14:24:35.42	154.11	7.16	-28.6	-31.9	8.9	4.05e-02	0	41	0	7340032	17	5286
2026-01-29 14:24:38.42	154.09	7.39	-28.3	-30.7	9.9	1.19e-02	0	41	0	28311552	17	4738
2026-01-29 14:24:41.43	154.07	7.63	-27.0	-28.5	11.8	6.55e-04	0	41	0	50331648	15	4276
2026-01-29 14:24:44.45	154.05	7.87	-27.0	-28.9	11.9	3.70e-04	0	41	0	72351744	14	4498
2026-01-29 14:24:47.46	154.03	8.11	-26.7	-28.1	12.4	1.83e-04	0	41	0	94371840	14	4237
2026-01-29 14:24:50.48	154.01	8.36	-26.2	-27.6	13.0	5.03e-05	0	41	0	115343360	13	4192
2026-01-29 14:24:53.50	153.99	8.60	-26.6	-28.5	12.5	1.37e-04	0	41	0	137363456	13	4458
2026-01-29 14:24:56.50	153.97	8.85	-25.8	-27.2	13.5	1.14e-05	0	41	0	159383552	12	4224
2026-01-29 14:24:59.52	153.95	9.11	-25.6	-26.9	13.6	6.80e-06	0	41	0	181403648	12	4170
2026-01-29 14:25:02.54	153.93	9.36	-25.3	-26.9	14.0	2.20e-06	0	41	0	202375168	11	4302
2026-01-29 14:25:05.55	153.90	9.62	-25.3	-26.8	14.0	0.00e+00	0	41	0	224395264	11	4286
2026-01-29 14:25:08.56	153.88	9.88	-25.4	-26.8	14.1	3.40e-06	0	42	0	246415360	11	4253
2026-01-29 14:25:11.58	153.86	10.14	-25.4	-26.8	14.2	2.20e-06	0	42	0	268435456	11	4223
2026-01-29 14:25:14.57	153.83	10.41	-25.5	-26.9	14.2	0.00e+00	0	42	0	289406976	11	4220
2026-01-29 14:25:17.59	153.81	10.68	-25.5	-26.8	14.3	0.00e+00	0	42	0	311427072	11	4178
2026-01-29 14:25:20.60	153.78	10.95	-25.5	-26.8	14.3	3.40e-06	0	42	0	333447168	11	4167
2026-01-29 14:25:23.61	153.75	11.22	-25.7	-27.3	14.0	2.20e-06	0	42	0	354418688	11	4328
2026-01-29 14:25:26.62	153.73	11.50	-25.5	-26.7	14.4	2.20e-06	0	42	0	376438784	11	4152
2026-01-29 14:25:29.62	153.70	11.78	-25.5	-26.7	14.4	1.10e-06	0	42	0	398458880	11	4141
2026-01-29 14:25:32.64	153.67	12.07	-25.7	-27.2	14.1	2.20e-06	0	42	0	420478976	11	4292
2026-01-29 14:25:35.64	153.64	12.35	-25.3	-26.4	14.6	0.00e+00	0	42	0	441450496	11	4066
2026-01-29 14:25:38.66	153.61	12.64	-25.3	-26.4	14.6	2.20e-06	0	42	0	463470592	11	4085
2026-01-29 14:25:41.67	153.58	12.94	-25.0	-25.8	15.0	0.00e+00	0	42	0	485490688	11	3912
2026-01-29 14:25:44.67	153.55	13.23	-25.1	-25.8	14.9	0.00e+00	0	42	0	506462208	11	3918
2026-01-29 14:25:47.68	153.51	13.54	-25.2	-26.2	14.8	0.00e+00	0	42	0	528482304	11	4015
2026-01-29 14:25:50.70	153.48	13.84	-25.0	-25.6	15.1	0.00e+00	0	42	0	550502400	11	3867
2026-01-29 14:25:53.71	153.44	14.15	-24.9	-25.6	15.2	0.00e+00	0	42	0	571473920	11	3861
2026-01-29 14:25:56.73	153.41	14.47	-24.9	-25.9	15.3	0.00e+00	0	42	0	593494016	10	4048
2026-01-29 14:25:59.74	153.37	14.78	-24.8	-25.8	15.3	0.00e+00	0	42	0	615514112	10	4021
2026-01-29 14:26:02.75	153.33	15.11	-24.7	-25.6	15.4	0.00e+00	0	42	0	637534208	10	3977
2026-01-29 14:26:05.77	153.30	15.43	-24.6	-25.4	15.5	0.00e+00	0	42	0	659554304	10	3919
2026-01-29 14:26:08.78	153.26	15.76	-24.4	-24.8	15.9	0.00e+00	0	42	0	680525824	10	3780
2026-01-29 14:26:11.80	153.22	16.10	-24.5	-25.6	15.7	0.00e+00	0	43	0	702545920	9	4057
2026-01-29 14:26:14.80	153.17	16.44	-24.5	-25.5	15.8	0.00e+00	0	42	0	724566016	9	4030
2026-01-29 14:26:17.82	153.13	16.78	-24.4	-25.2	16.0	0.00e+00	0	42	0	746586112	9	3971
2026-01-29 14:26:20.82	153.09	17.13	-24.4	-25.2	16.1	0.00e+00	0	43	0	767557632	9	3959
2026-01-29 14:26:23.83	153.04	17.49	-24.0	-24.3	16.6	0.00e+00	0	42	0	789577728	9	3747
2026-01-29 14:26:26.85	153.00	17.85	-24.0	-24.9	16.5	0.00e+00	0	43	0	811597824	8	3989
2026-01-29 14:26:29.86	152.95	18.21	-23.8	-24.4	16.8	0.00e+00	0	43	0	832569344	8	3869
2026-01-29 14:26:32.86	152.90	18.58	-23.7	-24.3	16.9	0.00e+00	0	43	0	854589440	8	3836
2026-01-29 14:26:35.88	152.85	18.96	-23.7	-24.2	16.9	0.00e+00	0	43	0	876609536	8	3820
2026-01-29 14:26:38.89	152.79	19.34	-23.6	-24.0	17.1	0.00e+00	0	43	0	898629632	8	3779
2026-01-29 14:26:41.91	152.74	19.73	-23.7	-24.2	16.9	0.00e+00	0	43	0	919601152	8	3826
2026-01-29 14:26:44.91	152.69	20.12	-23.6	-24.1	17.1	0.00e+00	0	43	0	941621248	8	3790
2026-01-29 14:26:47.92	152.63	20.52	-23.7	-24.2	17.0	0.00e+00	0	43	0	963641344	8	3836
2026-01-29 14:26:50.92	152.57	20.93	-23.6	-24.0	17.0	0.00e+00	0	43	0	985661440	8	3788
2026-01-29 14:26:53.92	152.51	21.34	-23.6	-24.1	17.0	0.00e+00	0	43	0	1006632960	8	3817
2026-01-29 14:26:56.93	152.45	21.76	-23.6	-24.1	17.0	0.00e+00	0	43	0	1028653056	8	3804
2026-01-29 14:26:59.94	152.38	22.18	-23.7	-24.4	16.9	0.00e+00	0	43	0	1050673152	8	3882
2026-01-29 14:27:02.94	152.31	22.62	-23.4	-23.8	17.2	0.00e+00	0	43	0	1071644672	8	3742
2026-01-29 14:27:05.95	152.25	23.06	-23.5	-23.9	17.2	0.00e+00	0	43	0	1093664768	8	3764
2026-01-29 14:27:08.95	152.18	23.51	-23.1	-23.6	17.5	0.00e+00	0	43	0	1114636288	7	3807
2026-01-29 14:27:11.97	152.10	23.96	-23.0	-23.4	17.6	0.00e+00	0	43	0	1136656384	7	3769
2026-01-29 14:27:14.98	152.03	24.43	-23.1	-23.5	17.6	0.00e+00	0	43	0	1158676480	7	3770
2026-01-29 14:27:17.98	151.95	24.90	-22.8	-23.5	17.9	0.00e+00	0	43	0	1180696576	6	3879
2026-01-29 14:27:20.99	151.87	25.38	-23.2	-23.6	18.5	0.00e+00	0	43	0	1201668096	6	3779
2026-01-29 14:27:24.00	151.78	25.88	-23.1	-23.4	18.6	0.00e+00	0	43	0	1223688192	6	3734
2026-01-29 14:27:27.01	151.69	26.38	-23.1	-23.4	18.7	0.00e+00	0	43	0	1245708288	6	3726
2026-01-29 14:27:30.02	151.60	26.89	-23.2	-23.6	18.6	0.00e+00	0	43	0	1267728384	6	3765
2026-01-29 14:27:33.03	151.51	27.40	-23.1	-23.5	18.7	0.00e+00	0	43	0	1288699904	6	3746
2026-01-29 14:27:36.03	151.41	27.93	-23.3	-23.9	18.5	0.00e+00	0	43	0	1310720000	6	3834
2026-01-29 14:27:39.04	151.31	28.47	-23.1	-23.4	18.7	0.00e+00	0	43	0	1332740096	6	3723
2026-01-29 14:27:42.06	151.21	29.02	-23.3	-23.7	18.6	0.00e+00	0	43	0	1353711616	6	3808
2026-01-29 14:27:45.07	151.10	29.58	-23.0	-23.2	18.8	0.00e+00	0	43	0	1375731712	6	3692
2026-01-29 14:27:48.09	150.99	30.16	-23.1	-23.5	18.7	0.00e+00	0	43	0	1397751808	6	3749
2026-01-29 14:27:51.11	150.87	30.74	-23.2	-23.6	18.7	0.00e+00	0	43	0	1419771904	6	3772
2026-01-29 14:27:54.12	150.75	31.34	-23.4	-24.0	18.5	0.00e+00	0	43	0	1441792000	6	3861
2026-01-29 14:27:57.12	150.62	31.94	-23.4	-24.0	18.5	0.00e+00	0	43	0	1462763520	6	3854
2026-01-29 14:28:00.13	150.49	32.56	-23.3	-23.8	18.6	0.00e+00	0	43	0	1484783616	6	3811
2026-01-29 14:28:03.15	150.36	33.20	-23.3	-23.7	18.7	0.00e+00	0	43	0	1506803712	6	3801
2026-01-29 14:28:06.15	150.21	33.84	-23.4	-23.9	18.6	0.00e+00	0	43	0	1527775232	6	3852
2026-01-29 14:28:09.17	150.06	34.50	-23.2	-23.6	18.8	0.00e+00	0	43	0	1549795328	6	3775
2026-01-29 14:28:12.19	149.91	35.18	-23.2	-23.6	18.8	0.00e+00	0	43	0	1571815424	6	3780
2026-01-29 14:28:15.19	149.74	35.87	-23.2	-23.6	18.8	0.00e+00	0	43	0	1593835520	6	3778
2026-01-29 14:28:18.20	149.57	36.57	-23.2	-23.7	18.7	0.00e+00	0	43	0	1614807040	6	3784
2026-01-29 14:28:21.21	149.40	37.29	-23.2	-23.7	18.7	0.00e+00	0	43	0	1636827136	6	3785
2026-01-29 14:28:24.22	149.21	38.02	-23.4	-24.0	18.6	0.00e+00	0	43	0	1658847232	6	3864
2026-01-29 14:28:27.23	149.01	38.77	-23.7	-24.2	18.3	0.00e+00	0	43	0	1680867328	7	3803
2026-01-29 14:28:30.25	148.81	39.54	-23.5	-23.7	18.5	0.00e+00	0	43	0	1701838848	7	3685
2026-01-29 14:28:33.26	148.59	40.32	-23.6	-24.0	18.3	0.00e+00	0	43	0	1723858944	7	3765
2026-01-29 14:28:36.27	148.36	41.12	-23.4	-23.5	18.6	0.00e+00	0	43	0	1745879040	7	3642
2026-01-29 14:28:39.29	148.12	41.94	-23.4	-23.5	18.6	0.00e+00	0	43	0	1766850560	7	3649
2026-01-29 14:28:42.30	147.87	42.78	-23.2	-23.0	18.9	0.00e+00	0	43	0	1788870656	7	3533
2026-01-29 14:28:45.31	147.60	43.63	-23.6	-23.9	18.5	0.00e+00	0	43	0	1810890752	7	3731
2026-01-29 14:28:48.31	147.32	44.50	-23.9	-24.5	18.1	0.00e+00	0	43	0	1831862272	7	3880
2026-01-29 14:28:51.32	147.02	45.39	-24.0	-24.3	18.0	0.00e+00	0	43	0	1853882368	8	3723
2026-01-29 14:28:54.33	146.70	46.30	-24.1	-24.4	17.1	2.27e-03	0	43	0	1875902464	8	3763
2026-01-29 14:28:57.35	146.36	47.23	-24.1	-24.5	17.3	3.44e-04	0	43	0	1897922560	8	3781
2026-01-29 14:29:00.36	146.01	48.18	-24.6	-25.2	16.4	2.06e-03	0	43	0	1919942656	9	3821
2026-01-29 14:29:03.38	145.62	49.16	-24.8	-25.4	17.2	1.31e-03	0	43	0	1940914176	9	3874
2026-01-29 14:29:06.39	145.22	50.15	-24.6	-24.9	17.5	0.00e+00	0	43	0	1962934272	9	3755
2026-01-29 14:29:09.40	144.78	51.16	-24.3	-24.4	17.7	0.00e+00	0	43	0	1984954368	9	3641
2026-01-29 14:29:12.41	144.31	52.19	-24.5	-24.8	17.6	0.00e+00	0	43	0	2005925888	9	3730
2026-01-29 14:29:15.41	143.81	53.23	-25.1	-25.5	17.0	0.00e+00	0	43	0	2027945984	10	3795
2026-01-29 14:29:18.43	143.27	54.30	-25.1	-25.5	17.0	0.00e+00	0	43	0	2049966080	10	3792
2026-01-29 14:29:21.43	142.69	55.39	-24.8	-25.0	17.3	0.00e+00	0	43	0	2071986176	10	3664
2026-01-29 14:29:24.42	142.06	56.49	-25.3	-25.4	16.7	0.00e+00	0	43	0	2092957696	11	3673
2026-01-29 14:29:27.43	141.37	57.62	-24.8	-25.0	17.3	0.00e+00	0	43	0	2114977792	10	3659
2026-01-29 14:29:30.42	140.63	58.75	-25.2	-25.7	16.9	0.00e+00	0	43	0	2136997888	10	3835
2026-01-29 14:29:33.43	139.82	59.92	-24.9	-25.2	17.2	0.00e+00	0	43	0	2157969408	10	3713
2026-01-29 14:29:36.45	138.92	61.10	-24.6	-24.9	17.6	0.00e+00	0	43	0	2179989504	9	3763
2026-01-29 14:29:39.46	137.94	62.29	-24.2	-24.1	18.0	0.00e+00	0	43	0	2202009600	9	3580
2026-01-29 14:29:42.47	136.85	63.49	-23.9	-24.1	18.3	0.00e+00	0	43	0	2224029696	8	3663
2026-01-29 14:29:45.48	135.65	64.71	-23.3	-23.2	18.8	0.00e+00	0	43	0	2245001216	7	3586
2026-01-29 14:29:48.49	134.31	65.93	-22.9	-23.5	19.2	0.00e+00	0	43	0	2267021312	5	3857
2026-01-29 14:29:51.50	132.80	67.16	-23.2	-23.6	19.0	0.00e+00	0	43	0	2289041408	6	3772
2026-01-29 14:29:54.51	131.11	68.40	-23.3	-23.8	18.9	0.00e+00	0	43	0	2310012928	6	3818
2026-01-29 14:29:57.52	129.20	69.62	-24.2	-24.7	18.0	0.00e+00	0	43	0	2332033024	8	3802
2026-01-29 14:30:00.54	127.01	70.85	-24.2	-24.6	18.0	0.00e+00	0	43	0	2354053120	8	3786
2026-01-29 14:30:03.55	124.51	72.05	-23.8	-23.8	18.5	0.00e+00	0	43	0	2375024640	8	3607
2026-01-29 14:30:06.55	121.64	73.23	-23.5	-23.7	18.6	0.00e+00	0	43	0	2397044736	7	3693
2026-01-29 14:30:09.57	118.31	74.37	-23.1	-23.4	19.2	0.00e+00	0	43	0	2419064832	6	3712
2026-01-29 14:30:12.57	114.45	75.46	-22.7	-22.5	19.6	0.00e+00	0	43	0	2441084928	6	3524
2026-01-29 14:30:15.57	109.97	76.49	-22.3	-22.3	20.0	0.00e+00	0	43	0	2462056448	5	3581
2026-01-29 14:30:18.59	104.73	77.43	-22.5	-22.6	19.9	0.00e+00	0	43	0	2484076544	5	3653
2026-01-29 14:30:21.60	98.68	78.26	-21.7	-21.5	20.6	0.00e+00	0	43	0	2506096640	4	3519
2026-01-29 14:30:24.62	91.76	78.95	-22.2	-22.5	20.2	0.00e+00	0	43	0	2528116736	4	3716
2026-01-29 14:30:27.63	84.06	79.46	-21.8	-21.6	20.7	0.00e+00	0	43	0	2549088256	4	3519
2026-01-29 14:30:30.63	75.76	79.76	-21.8	-21.8	20.5	0.00e+00	0	43	0	2571108352	4	3568
2026-01-29 14:30:33.65	67.08	79.84	-21.6	-21.3	20.7	0.00e+00	0	43	0	2593128448	4	3478
2026-01-29 14:30:36.66	58.48	79.69	-22.2	-22.5	20.1	0.00e+00	0	43	0	2614099968	4	3749
2026-01-29 14:30:39.67	50.31	79.33	-22.0	-22.1	20.4	0.00e+00	0	43	0	2636120064	4	3645
2026-01-29 14:30:42.69	42.81	78.77	-22.3	-22.8	20.1	0.00e+00	0	43	0	2658140160	4	3788
2026-01-29 14:30:45.70	36.16	78.04	-22.7	-22.5	19.7	0.00e+00	0	43	0	2680160256	6	3523
2026-01-29 14:30:48.71	30.36	77.18	-21.9	-21.8	20.4	0.00e+00	0	43	0	2701131776	4	3581
2026-01-29 14:30:51.73	25.33	76.21	-22.5	-23.0	19.9	0.00e+00	0	43	0	2723151872	4	3840
2026-01-29 14:30:54.74	21.03	75.16	-23.2	-23.5	19.2	0.00e+00	0	43	0	2745171968	6	3735
2026-01-29 14:30:57.73	17.36	74.05	-23.5	-24.1	18.9	0.00e+00	0	43	0	2767192064	6	3886
2026-01-29 14:31:00.74	14.17	72.90	-23.3	-23.3	19.0	0.00e+00	0	43	0	2788163584	7	3600
2026-01-29 14:31:03.76	11.41	71.71	-23.7	-24.1	18.6	0.00e+00	0	43	0	2810183680	7	3771
2026-01-29 14:31:06.77	9.01	70.50	-23.4	-23.6	18.9	0.00e+00	0	43	0	2832203776	7	3651
2026-01-29 14:31:09.76	6.92	69.29	-23.2	-23.0	19.1	0.00e+00	0	43	0	2853175296	7	3532
2026-01-29 14:31:12.76	5.08	68.07	-23.1	-22.8	19.2	0.00e+00	0	43	0	2875195392	7	3487
2026-01-29 14:31:15.76	3.45	66.85	-22.7	-22.5	19.6	0.00e+00	0	43	0	2897215488	6	3513
2026-01-29 14:31:18.77	1.99	65.62	-23.6	-23.9	18.7	0.00e+00	0	43	0	2919235584	7	3721
2026-01-29 14:31:21.78	0.69	64.40	-23.5	-23.6	18.8	0.00e+00	0	43	0	2940207104	7	3667
2026-01-29 14:31:24.80	359.52	63.19	-24.2	-24.7	18.0	0.00e+00	0	43	0	2962227200	8	3817
2026-01-29 14:31:27.81	358.46	61.99	-24.6	-25.0	17.6	0.00e+00	0	43	0	2983198720	9	3768
2026-01-29 14:31:30.82	357.51	60.80	-24.5	-24.8	17.8	0.00e+00	0	43	0	3005218816	9	3714
2026-01-29 14:31:33.83	356.64	59.63	-25.0	-25.3	17.1	0.00e+00	0	43	0	3027238912	10	3745
2026-01-29 14:31:36.83	355.85	58.48	-24.8	-24.9	17.4	0.00e+00	0	43	0	3049259008	10	3643
2026-01-29 14:31:39.85	355.12	57.34	-24.9	-25.2	17.2	0.00e+00	0	43	0	3070230528	10	3712
2026-01-29 14:31:42.87	354.44	56.22	-24.6	-24.5	17.5	0.00e+00	0	43	0	3092250624	10	3561
2026-01-29 14:31:45.88	353.83	55.12	-24.8	-24.9	17.4	0.00e+00	0	43	0	3114270720	10	3650
2026-01-29 14:31:48.91	353.25	54.03	-24.8	-25.0	17.3	0.00e+00	0	43	0	3136290816	10	3656
2026-01-29 14:31:51.92	352.73	52.97	-24.5	-24.7	17.7	0.00e+00	0	43	0	3158310912	9	3708
2026-01-29 14:31:54.93	352.24	51.93	-24.9	-25.5	17.2	0.00e+00	0	43	0	3179282432	9	3898
2026-01-29 14:31:57.95	351.78	50.91	-24.9	-25.7	17.2	0.00e+00	0	43	0	3201302528	9	3935
2026-01-29 14:32:00.96	351.35	49.90	-24.5	-24.8	17.6	0.00e+00	0	43	0	3223322624	9	3715
2026-01-29 14:32:03.97	350.95	48.92	-25.0	-25.8	17.1	0.00e+00	0	43	0	3245342720	9	3948
2026-01-29 14:32:07.00	350.58	47.96	-24.6	-25.0	17.4	0.00e+00	0	43	0	3266314240	9	3782
2026-01-29 14:32:10.01	350.23	47.02	-24.0	-23.7	18.2	0.00e+00	0	43	0	3288334336	9	3486
2026-01-29 14:32:13.02	349.90	46.10	-23.9	-24.0	18.3	0.00e+00	0	43	0	3310354432	8	3640
2026-01-29 14:32:16.03	349.59	45.19	-23.7	-23.6	18.4	0.00e+00	0	43	0	3332374528	8	3572
2026-01-29 14:32:19.04	349.29	44.31	-23.6	-23.3	18.6	0.00e+00	0	43	0	3353346048	8	3497
2026-01-29 14:32:22.05	349.02	43.45	-22.8	-22.8	19.3	0.00e+00	0	43	0	3375366144	6	3586
2026-01-29 14:32:25.06	348.75	42.60	-23.0	-23.2	19.0	0.00e+00	0	43	0	3397386240	6	3681
2026-01-29 14:32:28.06	348.51	41.78	-23.2	-23.6	18.8	0.00e+00	0	43	0	3418357760	6	3771
2026-01-29 14:32:31.07	348.27	40.97	-23.8	-24.4	18.2	0.00e+00	0	43	0	3440377856	7	3837
2026-01-29 14:32:34.08	348.05	40.18	-24.0	-24.7	18.0	0.00e+00	0	43	0	3462397952	7	3911
2026-01-29 14:32:37.09	347.84	39.40	-23.8	-24.4	18.3	0.00e+00	0	43	0	3484418048	7	3841
2026-01-29 14:32:40.10	347.63	38.64	-23.7	-24.1	18.4	0.00e+00	0	43	0	3505389568	7	3773
2026-01-29 14:32:43.11	347.44	37.90	-23.6	-23.9	18.1	0.00e+00	0	43	0	3527409664	7	3734
2026-01-29 14:32:46.11	347.26	37.17	-23.6	-23.9	18.5	0.00e+00	0	43	0	3549429760	7	3730
2026-01-29 14:32:49.12	347.08	36.46	-23.3	-23.2	18.8	0.00e+00	0	43	0	3571449856	7	3584
2026-01-29 14:32:52.14	346.92	35.76	-23.2	-23.0	18.9	0.00e+00	0	44	0	3592421376	7	3545
2026-01-29 14:32:55.16	346.76	35.08	-22.8	-22.8	19.2	0.00e+00	0	43	0	3614441472	6	3598
2026-01-29 14:32:58.16	346.60	34.41	-22.8	-22.7	19.3	0.00e+00	0	43	0	3635412992	6	3562
2026-01-29 14:33:01.18	346.46	33.76	-22.7	-22.6	19.3	0.00e+00	0	43	0	3657433088	6	3558
2026-01-29 14:33:04.19	346.32	33.12	-22.9	-23.0	19.1	0.00e+00	0	43	0	3679453184	6	3625
2026-01-29 14:33:07.21	346.18	32.49	-23.1	-23.3	19.0	0.00e+00	0	43	0	3701473280	6	3698
2026-01-29 14:33:10.21	346.05	31.88	-23.3	-23.7	18.7	0.00e+00	0	43	0	3722444800	6	3797
2026-01-29 14:33:13.21	345.93	31.28	-23.4	-24.0	18.6	0.00e+00	0	43	0	3744464896	6	3866
2026-01-29 14:33:16.21	345.81	30.69	-23.5	-24.1	18.5	0.00e+00	0	43	0	3766484992	6	3894
2026-01-29 14:33:19.22	345.70	30.11	-23.4	-23.5	18.6	0.00e+00	0	43	0	3788505088	7	3643
2026-01-29 14:33:22.24	345.59	29.54	-23.3	-23.4	18.6	0.00e+00	0	43	0	3809476608	7	3618
2026-01-29 14:33:25.25	345.48	28.98	-23.3	-23.4	18.7	0.00e+00	0	43	0	3831496704	7	3613
2026-01-29 14:33:28.26	345.38	28.44	-23.3	-23.3	18.7	0.00e+00	0	43	0	3853516800	7	3603
2026-01-29 14:33:31.27	345.28	27.90	-23.4	-23.4	18.5	0.00e+00	0	43	0	3875536896	7	3631
2026-01-29 14:33:34.28	345.19	27.38	-23.3	-23.4	18.6	0.00e+00	0	43	0	3896508416	7	3614
2026-01-29 14:33:37.29	345.10	26.86	-23.5	-23.8	18.3	0.00e+00	0	43	0	3918528512	7	3710
2026-01-29 14:33:40.30	345.01	26.36	-23.5	-23.7	18.4	0.00e+00	0	43	0	3940548608	7	3686
2026-01-29 14:33:43.31	344.93	25.86	-23.7	-24.1	18.2	0.00e+00	0	43	0	3961520128	7	3789
2026-01-29 14:33:46.33	344.84	25.37	-23.6	-24.0	18.2	0.00e+00	0	43	0	3983540224	7	3750
2026-01-29 14:33:49.34	344.77	24.89	-23.6	-24.0	18.2	0.00e+00	0	43	0	4005560320	7	3745
2026-01-29 14:33:52.35	344.69	24.42	-23.5	-23.7	18.4	0.00e+00	0	43	0	4027580416	7	3681
2026-01-29 14:33:55.36	344.62	23.96	-23.5	-23.7	18.3	0.00e+00	0	43	0	4048551936	7	3686
2026-01-29 14:33:58.37	344.54	23.51	-23.6	-24.0	18.1	0.00e+00	0	43	0	4070572032	7	3762
2026-01-29 14:34:01.38	344.48	23.06	-23.6	-23.9	18.2	0.00e+00	0	43	0	4092592128	7	3730
2026-01-29 14:34:04.39	344.41	22.62	-23.6	-23.9	18.1	0.00e+00	0	43	0	4114612224	7	3745
2026-01-29 14:34:07.40	344.34	22.19	-23.7	-24.1	18.0	0.00e+00	0	43	0	4135583744	7	3778
2026-01-29 14:34:10.42	344.28	21.77	-23.8	-24.2	17.9	0.00e+00	0	43	0	4157603840	7	3812
2026-01-29 14:34:13.43	344.22	21.35	-23.9	-24.6	17.8	0.00e+00	0	43	0	4179623936	7	3883
2026-01-29 14:34:16.45	344.16	20.94	-23.9	-24.5	17.8	0.00e+00	0	43	0	4200595456	7	3870
2026-01-29 14:34:19.46	344.11	20.54	-23.9	-24.6	17.7	0.00e+00	0	43	0	4222615552	7	3894
2026-01-29 14:34:22.47	344.05	20.14	-24.0	-24.8	17.6	0.00e+00	0	43	0	4244635648	7	3933
2026-01-29 14:34:25.48	344.00	19.75	-24.4	-25.0	17.3	0.00e+00	0	43	0	4266655744	8	3894
2026-01-29 14:34:28.50	343.95	19.36	-24.2	-24.6	17.5	0.00e+00	0	43	0	4287627264	8	3801
2026-01-29 14:34:31.52	343.90	18.98	-24.2	-24.7	17.4	0.00e+00	0	43	0	4309647360	8	3819
2026-01-29 14:34:34.53	343.85	18.61	-24.3	-24.9	17.3	0.00e+00	0	43	0	4331667456	8	3872
2026-01-29 14:34:37.54	343.80	18.24	-24.3	-24.9	17.3	0.00e+00	0	43	0	4353687552	8	3856
2026-01-29 14:34:40.56	343.76	17.88	-24.3	-25.0	17.2	0.00e+00	0	43	0	4374659072	8	3879
2026-01-29 14:34:43.57	343.71	17.52	-24.4	-25.2	17.1	0.00e+00	0	43	0	4396679168	8	3939
2026-01-29 14:34:46.57	343.67	17.17	-24.9	-25.6	16.6	0.00e+00	0	43	0	4418699264	9	3925
2026-01-29 14:34:49.58	343.63	16.82	-24.7	-25.3	16.8	0.00e+00	0	43	0	4440719360	9	3855
2026-01-29 14:34:52.60	343.59	16.48	-24.8	-25.4	16.7	0.00e+00	0	43	0	4461690880	9	3875
2026-01-29 14:34:55.59	343.55	16.14	-24.9	-25.7	16.6	0.00e+00	0	43	0	4483710976	9	3942
2026-01-29 14:34:58.60	343.51	15.81	-25.0	-25.9	16.4	0.00e+00	0	43	0	4505731072	9	4000
2026-01-29 14:35:01.60	343.47	15.48	-25.2	-25.8	16.2	0.00e+00	0	43	0	4526702592	10	3862
2026-01-29 14:35:04.61	343.44	15.16	-25.2	-25.9	16.2	0.00e+00	0	43	0	4548722688	10	3894
2026-01-29 14:35:07.62	343.40	14.84	-25.3	-26.1	16.0	0.00e+00	0	43	0	4570742784	10	3945
2026-01-29 14:35:10.62	343.37	14.53	-25.4	-26.4	15.9	0.00e+00	0	43	0	4592762880	10	4010
2026-01-29 14:35:13.63	343.34	14.21	-25.5	-26.6	15.7	0.00e+00	0	43	0	4613734400	10	4053
2026-01-29 14:35:16.65	343.30	13.91	-25.6	-26.2	15.7	0.00e+00	0	43	0	4635754496	11	3858
2026-01-29 14:35:19.67	343.27	13.60	-25.7	-26.5	15.5	0.00e+00	0	43	0	4657774592	11	3930
2026-01-29 14:35:22.68	343.24	13.30	-25.8	-26.6	15.4	0.00e+00	0	43	0	4679794688	11	3951
2026-01-29 14:35:25.68	343.21	13.01	-25.9	-26.8	15.3	0.00e+00	0	43	0	4700766208	11	4007
2026-01-29 14:35:28.69	343.18	12.71	-26.2	-27.1	14.8	0.00e+00	0	43	0	4722786304	12	3980
2026-01-29 14:35:31.69	343.16	12.43	-26.4	-27.5	14.5	1.10e-06	0	43	0	4744806400	12	4086
2026-01-29 14:35:34.71	343.13	12.14	-26.3	-27.2	14.7	1.10e-06	0	43	0	4765777920	12	4002
2026-01-29 14:35:37.72	343.10	11.86	-26.0	-26.7	15.0	0.00e+00	0	43	0	4787798016	12	3889
2026-01-29 14:35:40.73	343.08	11.58	-26.0	-26.5	15.0	0.00e+00	0	43	0	4809818112	12	3853
2026-01-29 14:35:43.74	343.05	11.30	-26.1	-26.8	14.8	1.10e-06	0	43	0	4830789632	12	3923
2026-01-29 14:35:46.75	343.03	11.03	-26.1	-26.8	14.9	2.20e-06	0	43	0	4852809728	12	3918
2026-01-29 14:35:49.77	343.01	10.76	-26.0	-26.7	14.9	0.00e+00	0	43	0	4874829824	12	3896
2026-01-29 14:35:52.79	342.98	10.49	-26.1	-27.0	14.7	0.00e+00	0	43	0	4896849920	12	3954
2026-01-29 14:35:55.81	342.96	10.22	-26.2	-27.1	14.7	0.00e+00	0	43	0	4917821440	12	3988
2026-01-29 14:35:58.81	342.94	9.96	-26.2	-27.1	14.6	0.00e+00	0	43	0	4939841536	12	3992
2026-01-29 14:36:01.82	342.92	9.70	-26.2	-27.1	14.6	1.10e-06	0	43	0	4961861632	12	3995
2026-01-29 14:36:04.83	342.90	9.45	-26.4	-27.5	14.3	2.20e-06	0	43	0	4983881728	12	4102
2026-01-29 14:36:07.84	342.88	9.19	-26.3	-27.4	14.4	0.00e+00	0	43	0	5004853248	12	4069
2026-01-29 14:36:10.85	342.86	8.94	-26.4	-27.6	14.3	0.00e+00	0	43	0	5026873344	12	4119
2026-01-29 14:36:13.85	342.84	8.70	-26.5	-27.7	14.2	0.00e+00	0	43	0	5048893440	12	4146
2026-01-29 14:36:16.86	342.82	8.45	-26.4	-27.6	14.2	4.50e-06	0	43	0	5069864960	12	4116
2026-01-29 14:36:19.87	342.81	8.21	-26.4	-27.6	14.2	1.10e-06	0	43	0	5091885056	12	4125
2026-01-29 14:36:22.88	342.79	7.96	-26.5	-27.2	14.1	2.20e-06	0	43	0	5113905152	13	3917
2026-01-29 14:36:25.90	342.77	7.72	-26.5	-27.3	14.1	4.50e-06	0	43	0	5135925248	13	3935
2026-01-29 14:36:28.90	342.76	7.49	-26.7	-27.7	13.8	3.40e-06	0	43	0	5156896768	13	4043
2026-01-29 14:36:31.90	342.74	7.25	-26.6	-27.5	13.9	8.00e-06	0	44	0	5178916864	13	4005
2026-01-29 14:36:34.90	342.73	7.02	-32.1	-37.4	5.3	5.61e-02	0	43	0	5199888384	23	6638

#Closed at: 2026-01-29 14:36:37
#Recorded file [5199 MB]: D:/data/31010_260129_172434.dat