passes_logs/2026/01/29/R2M6_AANII_01/R2M6_AANII_01__20260129_232410_NOAA_21_JPSS-2_rec.log

#Pass ID: 20260129_232410_NOAA 21 (JPSS-2)
#Satellite: NOAA 21 (JPSS-2)
#Configuration: NOAA 21
#almurnet v.1.7.20240730
#Start time: 2026-01-29 23:24:12

#Version: 2.2.20231116
#Station: R2M6_AANII_01
#Location: 30.233357 lon 59.946436 lat
#TLE: 1 54234U 22150A   26028.89828222  .00000145  00000+0  89569-4 0  9997
#TLE: 2 54234  98.7511 329.6308 0000927 198.8651 161.2491 14.19540676166783

#Time	Az	El	Level	Level2	SNR	BER	BlckErr	Temp	State	Recorded	gain1	gain2
2026-01-29 23:24:12.58	24.03	7.15	-30.1	-34.5	4.7	1.37e+00	0	41	0	0	20	5987
2026-01-29 23:24:15.60	24.21	7.37	-31.0	-35.9	7.4	1.33e-01	0	41	0	3145728	22	6299
2026-01-29 23:24:18.61	24.38	7.59	-30.2	-33.7	9.3	2.29e-02	0	41	0	12582912	21	5337
2026-01-29 23:24:21.61	24.56	7.81	-29.9	-33.3	10.0	9.38e-03	0	41	0	22020096	20	5291
2026-01-29 23:24:24.62	24.73	8.03	-29.9	-33.7	10.1	5.10e-03	0	41	0	30408704	19	5547
2026-01-29 23:24:27.64	24.92	8.26	-29.8	-33.2	10.5	3.23e-03	0	41	0	40894464	19	5329
2026-01-29 23:24:30.65	25.10	8.49	-29.4	-32.1	11.3	1.37e-03	0	41	0	49283072	19	4911
2026-01-29 23:24:33.66	25.29	8.72	-29.2	-32.2	11.6	7.20e-04	0	41	0	58720256	18	5058
2026-01-29 23:24:36.66	25.48	8.95	-29.2	-31.7	11.6	1.03e-03	0	41	0	68157440	19	4772
2026-01-29 23:24:39.67	25.67	9.18	-28.3	-29.8	13.1	3.28e-05	0	42	0	77594624	18	4289
2026-01-29 23:24:42.68	25.87	9.41	-28.3	-30.2	13.1	1.90e-05	0	42	0	87031808	17	4511
2026-01-29 23:24:45.68	26.06	9.65	-28.1	-29.7	13.5	9.90e-06	0	42	0	96468992	17	4355
2026-01-29 23:24:48.69	26.26	9.89	-28.2	-30.0	13.4	1.22e-05	0	42	0	105906176	17	4424
2026-01-29 23:24:51.69	26.47	10.13	-27.8	-29.5	13.9	3.80e-06	0	42	0	115343360	16	4388
2026-01-29 23:24:54.70	26.68	10.37	-27.6	-29.1	14.2	2.20e-06	0	42	0	124780544	16	4268
2026-01-29 23:24:57.70	26.89	10.61	-27.7	-29.4	14.0	7.00e-07	0	42	0	134217728	16	4361
2026-01-29 23:25:00.71	27.10	10.86	-27.5	-28.9	14.3	7.00e-07	0	42	0	143654912	16	4215
2026-01-29 23:25:03.72	27.32	11.11	-27.6	-29.1	14.1	7.00e-07	0	42	0	153092096	16	4272
2026-01-29 23:25:06.73	27.54	11.36	-27.5	-28.8	14.4	1.50e-06	0	42	0	162529280	16	4194
2026-01-29 23:25:09.74	27.76	11.62	-27.5	-28.7	14.4	2.20e-06	0	42	0	171966464	16	4157
2026-01-29 23:25:12.75	27.99	11.87	-27.4	-28.6	14.5	1.50e-06	0	42	0	181403648	16	4139
2026-01-29 23:25:15.75	28.22	12.13	-27.0	-28.1	14.9	0.00e+00	0	42	0	190840832	15	4112
2026-01-29 23:25:18.76	28.46	12.39	-27.1	-28.3	14.8	0.00e+00	0	42	0	200278016	15	4173
2026-01-29 23:25:21.77	28.70	12.65	-27.1	-28.4	14.8	0.00e+00	0	42	0	209715200	15	4191
2026-01-29 23:25:24.78	28.94	12.92	-27.0	-28.8	14.9	5.39e-04	0	42	0	219152384	14	4394
2026-01-29 23:25:27.78	29.19	13.19	-27.0	-28.6	15.0	6.96e-04	0	43	0	228589568	14	4350
2026-01-29 23:25:30.79	29.44	13.46	-26.8	-28.8	15.2	8.20e-04	0	42	0	238026752	13	4508
2026-01-29 23:25:33.82	29.70	13.73	-26.9	-28.5	15.1	1.20e-03	0	42	0	247463936	14	4323
2026-01-29 23:25:36.83	29.96	14.01	-27.0	-28.7	14.9	9.97e-04	0	42	0	256901120	14	4385
2026-01-29 23:25:39.84	30.23	14.28	-26.8	-28.8	15.2	7.03e-04	0	43	0	266338304	13	4530
2026-01-29 23:25:42.84	30.50	14.56	-27.2	-29.1	14.8	1.50e-06	0	43	0	275775488	14	4478
2026-01-29 23:25:45.84	30.78	14.85	-27.1	-29.0	14.9	1.95e-04	0	42	0	285212672	14	4449
2026-01-29 23:25:48.86	31.06	15.13	-27.0	-28.8	15.0	7.00e-07	0	43	0	294649856	14	4388
2026-01-29 23:25:51.86	31.34	15.42	-26.9	-28.4	15.2	0.00e+00	0	43	0	303038464	14	4298
2026-01-29 23:25:54.87	31.64	15.72	-26.8	-28.2	15.3	0.00e+00	0	43	0	312475648	14	4233
2026-01-29 23:25:57.89	31.93	16.01	-26.9	-28.5	15.2	0.00e+00	0	43	0	322961408	14	4320
2026-01-29 23:26:00.90	32.24	16.31	-26.9	-28.5	15.2	7.00e-07	0	43	0	331350016	14	4306
2026-01-29 23:26:03.91	32.55	16.61	-27.0	-28.7	15.1	0.00e+00	0	43	0	340787200	14	4352
2026-01-29 23:26:06.92	32.86	16.91	-26.9	-28.5	15.2	0.00e+00	0	43	0	350224384	14	4297
2026-01-29 23:26:09.93	33.18	17.22	-27.1	-28.8	15.1	7.00e-07	0	43	0	359661568	14	4382
2026-01-29 23:26:12.94	33.51	17.53	-27.1	-28.9	15.0	0.00e+00	0	43	0	369098752	14	4412
2026-01-29 23:26:15.94	33.84	17.84	-27.3	-29.2	14.8	0.00e+00	0	43	0	378535936	14	4522
2026-01-29 23:26:18.95	34.18	18.16	-27.2	-29.1	14.9	0.00e+00	0	43	0	387973120	14	4488
2026-01-29 23:26:21.96	34.53	18.48	-27.2	-29.0	15.0	0.00e+00	0	43	0	397410304	14	4441
2026-01-29 23:26:24.97	34.88	18.80	-27.2	-29.0	15.0	0.00e+00	0	43	0	406847488	14	4434
2026-01-29 23:26:27.98	35.24	19.13	-27.2	-29.1	15.0	0.00e+00	0	43	0	416284672	14	4487
2026-01-29 23:26:30.99	35.61	19.45	-27.2	-29.0	15.0	0.00e+00	0	43	0	425721856	14	4449
2026-01-29 23:26:34.00	35.99	19.79	-27.1	-28.8	15.2	0.00e+00	0	43	0	435159040	14	4387
2026-01-29 23:26:37.01	36.38	20.12	-27.1	-28.8	15.2	0.00e+00	0	43	0	444596224	14	4389
2026-01-29 23:26:40.02	36.77	20.46	-27.0	-28.7	15.2	0.00e+00	0	43	0	454033408	14	4355
2026-01-29 23:26:43.03	37.17	20.80	-27.1	-28.8	15.2	0.00e+00	0	43	0	463470592	14	4386
2026-01-29 23:26:46.04	37.58	21.15	-26.7	-28.0	15.7	0.00e+00	0	43	0	472907776	14	4157
2026-01-29 23:26:49.05	38.00	21.50	-26.8	-28.2	15.6	0.00e+00	0	43	0	482344960	14	4217
2026-01-29 23:26:52.06	38.43	21.85	-26.7	-27.9	15.6	0.00e+00	0	43	0	491782144	14	4141
2026-01-29 23:26:55.08	38.87	22.21	-26.5	-27.6	15.9	0.00e+00	0	43	0	501219328	14	4049
2026-01-29 23:26:58.10	39.32	22.57	-26.5	-27.5	15.9	0.00e+00	0	43	0	510656512	14	4045
2026-01-29 23:27:01.11	39.78	22.93	-26.2	-27.4	16.3	0.00e+00	0	43	0	520093696	13	4104
2026-01-29 23:27:04.12	40.25	23.29	-26.1	-27.1	16.4	7.47e-05	0	43	0	529530880	13	4048
2026-01-29 23:27:07.13	40.73	23.66	-26.1	-27.2	16.4	0.00e+00	0	43	0	538968064	13	4057
2026-01-29 23:27:10.15	41.22	24.04	-26.0	-26.9	16.6	1.50e-06	0	43	0	548405248	13	3982
2026-01-29 23:27:13.16	41.72	24.41	-26.0	-26.8	16.6	0.00e+00	0	43	0	557842432	13	3965
2026-01-29 23:27:16.17	42.24	24.79	-25.8	-26.5	16.8	7.60e-06	0	43	0	567279616	13	3873
2026-01-29 23:27:19.18	42.77	25.17	-26.0	-26.7	16.7	4.27e-05	0	43	0	576716800	13	3934
2026-01-29 23:27:22.19	43.31	25.56	-26.2	-27.2	16.4	7.00e-07	0	43	0	586153984	13	4062
2026-01-29 23:27:25.19	43.86	25.94	-26.6	-28.1	16.0	3.81e-05	0	43	0	595591168	13	4302
2026-01-29 23:27:28.20	44.42	26.33	-26.7	-28.3	15.9	0.00e+00	0	43	0	605028352	13	4360
2026-01-29 23:27:31.21	45.00	26.73	-26.8	-28.7	15.7	4.44e-04	0	43	0	614465536	13	4466
2026-01-29 23:27:34.22	45.59	27.12	-27.0	-28.6	15.5	0.00e+00	0	43	0	623902720	14	4328
2026-01-29 23:27:37.23	46.20	27.52	-27.3	-29.2	15.2	0.00e+00	0	43	0	632291328	14	4485
2026-01-29 23:27:40.22	46.82	27.92	-27.7	-29.7	14.6	8.56e-04	0	43	0	641728512	15	4523
2026-01-29 23:27:43.23	47.46	28.32	-27.5	-29.3	14.9	1.50e-06	0	43	0	651165696	15	4400
2026-01-29 23:27:46.22	48.11	28.72	-27.5	-29.2	14.9	2.13e-05	0	43	0	660602880	15	4362
2026-01-29 23:27:49.23	48.78	29.13	-27.1	-28.2	15.5	0.00e+00	0	43	0	670040064	15	4109
2026-01-29 23:27:52.24	49.47	29.54	-27.0	-28.5	15.6	0.00e+00	0	43	0	679477248	14	4293
2026-01-29 23:27:55.25	50.18	29.95	-27.0	-28.5	15.6	0.00e+00	0	43	0	688914432	14	4284
2026-01-29 23:27:58.26	50.90	30.36	-27.2	-29.1	15.3	0.00e+00	0	43	0	698351616	14	4452
2026-01-29 23:28:01.27	51.64	30.77	-26.8	-28.1	15.8	0.00e+00	0	43	0	707788800	14	4176
2026-01-29 23:28:04.28	52.40	31.19	-26.9	-28.3	15.8	0.00e+00	0	43	0	717225984	14	4227
2026-01-29 23:28:07.28	53.18	31.60	-27.1	-28.9	15.4	0.00e+00	0	43	0	726663168	14	4397
2026-01-29 23:28:10.29	53.98	32.01	-27.1	-28.8	15.4	0.00e+00	0	43	0	736100352	14	4386
2026-01-29 23:28:13.31	54.80	32.43	-27.2	-29.0	15.4	0.00e+00	0	43	0	745537536	14	4436
2026-01-29 23:28:16.32	55.64	32.84	-27.3	-29.3	15.2	0.00e+00	0	43	0	754974720	14	4527
2026-01-29 23:28:19.34	56.51	33.25	-27.7	-29.5	14.8	1.50e-06	0	43	0	764411904	15	4470
2026-01-29 23:28:22.35	57.39	33.66	-27.6	-29.3	15.0	7.00e-07	0	43	0	773849088	15	4407
2026-01-29 23:28:25.36	58.30	34.07	-27.9	-30.0	14.6	7.00e-07	0	43	0	783286272	15	4615
2026-01-29 23:28:28.35	59.22	34.47	-28.1	-30.1	14.4	0.00e+00	0	43	0	792723456	16	4511
2026-01-29 23:28:31.36	60.17	34.87	-28.5	-30.4	14.0	4.50e-06	0	43	0	802160640	17	4473
2026-01-29 23:28:34.38	61.15	35.27	-28.1	-29.5	14.5	1.50e-06	0	43	0	811597824	17	4231
2026-01-29 23:28:37.39	62.15	35.66	-28.5	-30.5	14.0	3.00e-06	0	43	0	821035008	17	4509
2026-01-29 23:28:40.41	63.17	36.05	-28.4	-30.2	14.1	0.00e+00	0	43	0	830472192	17	4439
2026-01-29 23:28:43.41	64.22	36.43	-28.2	-29.7	14.4	7.00e-07	0	43	0	839909376	17	4287
2026-01-29 23:28:46.42	65.29	36.81	-28.5	-30.4	14.0	1.50e-06	0	43	0	849346560	17	4492
2026-01-29 23:28:49.42	66.38	37.18	-28.5	-30.5	13.9	1.50e-06	0	43	0	858783744	17	4529
2026-01-29 23:28:52.44	67.50	37.54	-28.4	-30.1	14.1	7.00e-07	0	43	0	868220928	17	4391
2026-01-29 23:28:55.43	68.64	37.89	-28.7	-30.9	13.7	6.80e-06	0	43	0	877658112	17	4650
2026-01-29 23:28:58.44	69.81	38.24	-28.9	-31.4	13.5	9.90e-06	0	43	0	887095296	17	4792
2026-01-29 23:29:01.44	71.00	38.57	-29.2	-31.5	13.0	2.74e-05	0	43	0	896532480	18	4724
2026-01-29 23:29:04.45	72.22	38.90	-29.2	-31.7	13.0	5.41e-05	0	43	0	904921088	18	4778
2026-01-29 23:29:07.47	73.46	39.21	-29.6	-32.1	12.5	1.01e-04	0	43	0	914358272	19	4810
2026-01-29 23:29:10.46	74.72	39.51	-29.3	-31.4	12.9	6.94e-05	0	43	0	923795456	19	4577
2026-01-29 23:29:13.48	76.01	39.80	-29.0	-30.7	13.3	1.37e-05	0	43	0	933232640	19	4363
2026-01-29 23:29:16.49	77.32	40.07	-29.2	-31.0	13.2	1.90e-05	0	43	0	942669824	19	4466
2026-01-29 23:29:19.50	78.65	40.33	-29.2	-31.0	13.1	4.11e-05	0	43	0	952107008	19	4443
2026-01-29 23:29:22.51	80.00	40.57	-28.9	-30.2	13.6	8.30e-06	0	43	0	961544192	19	4224
2026-01-29 23:29:25.54	81.39	40.80	-29.2	-31.2	13.0	4.27e-05	0	43	0	970981376	19	4523
2026-01-29 23:29:28.55	82.78	41.01	-29.0	-30.7	13.4	1.37e-05	0	43	0	980418560	19	4350
2026-01-29 23:29:31.55	84.18	41.20	-29.1	-30.9	13.2	2.82e-05	0	43	0	989855744	19	4427
2026-01-29 23:29:34.57	85.61	41.37	-28.8	-30.7	13.7	7.60e-06	0	43	0	999292928	18	4449
2026-01-29 23:29:37.58	87.05	41.53	-29.1	-31.3	13.3	1.29e-05	0	43	0	1008730112	18	4651
2026-01-29 23:29:40.59	88.50	41.66	-29.0	-31.0	13.5	1.60e-05	0	43	0	1018167296	18	4539
2026-01-29 23:29:43.60	89.96	41.78	-29.3	-31.7	13.1	2.89e-05	0	43	0	1027604480	18	4778
2026-01-29 23:29:46.62	91.44	41.88	-29.2	-31.6	13.1	2.51e-05	0	43	0	1037041664	18	4731
2026-01-29 23:29:49.62	92.91	41.95	-29.3	-31.7	13.0	3.58e-05	0	43	0	1046478848	18	4786
2026-01-29 23:29:52.63	94.40	42.00	-29.1	-31.4	13.2	1.22e-05	0	43	0	1055916032	18	4661
2026-01-29 23:29:55.64	95.89	42.04	-29.5	-31.9	12.6	9.46e-05	0	44	0	1065353216	19	4741
2026-01-29 23:29:58.65	97.38	42.05	-29.3	-31.4	13.0	3.89e-05	0	43	0	1074790400	19	4575
2026-01-29 23:30:01.67	98.88	42.04	-29.2	-31.0	13.2	1.83e-05	0	43	0	1084227584	19	4431
2026-01-29 23:30:04.67	100.36	42.01	-29.5	-31.8	12.7	8.31e-05	0	43	0	1093664768	19	4702
2026-01-29 23:30:07.67	101.85	41.95	-29.0	-30.7	13.3	1.52e-05	0	43	0	1103101952	19	4354
2026-01-29 23:30:10.70	103.34	41.88	-29.2	-31.1	13.1	2.51e-05	0	43	0	1112539136	19	4484
2026-01-29 23:30:13.71	104.81	41.79	-29.0	-30.5	13.5	1.22e-05	0	43	0	1121976320	19	4294
2026-01-29 23:30:16.74	106.28	41.67	-28.8	-30.5	13.9	2.20e-06	0	43	0	1131413504	18	4381
2026-01-29 23:30:19.74	107.73	41.54	-29.6	-32.0	12.5	7.55e-05	0	43	0	1140850688	19	4776
2026-01-29 23:30:22.75	109.17	41.38	-29.4	-31.6	12.8	8.23e-05	0	43	0	1150287872	19	4633
2026-01-29 23:30:25.75	110.60	41.21	-29.4	-31.5	12.9	7.24e-05	0	43	0	1159725056	19	4597
2026-01-29 23:30:28.75	112.00	41.02	-29.8	-32.5	12.3	1.61e-04	0	43	0	1169162240	19	4947
2026-01-29 23:30:31.77	113.40	40.81	-29.3	-31.2	13.0	4.19e-05	0	43	0	1178599424	19	4508
2026-01-29 23:30:34.78	114.78	40.58	-29.5	-31.9	12.6	1.59e-04	0	43	0	1188036608	19	4741
2026-01-29 23:30:37.79	116.13	40.34	-29.2	-31.1	13.1	4.34e-05	0	43	0	1197473792	19	4488
2026-01-29 23:30:40.79	117.46	40.08	-28.6	-30.1	14.0	1.50e-06	0	43	0	1206910976	18	4280
2026-01-29 23:30:43.79	118.78	39.81	-29.1	-31.4	13.2	1.10e-04	0	43	0	1216348160	18	4680
2026-01-29 23:30:46.80	120.07	39.52	-28.7	-30.3	13.9	2.20e-06	0	43	0	1225785344	18	4343
2026-01-29 23:30:49.82	121.34	39.22	-29.2	-31.6	13.1	2.82e-05	0	43	0	1234173952	18	4730
2026-01-29 23:30:52.84	122.59	38.91	-29.5	-31.9	12.6	2.40e-04	0	43	0	1244659712	19	4742
2026-01-29 23:30:55.85	123.81	38.58	-29.0	-30.7	13.3	3.35e-05	0	43	0	1253048320	19	4354
2026-01-29 23:30:58.85	125.01	38.25	-29.3	-31.4	13.0	8.23e-05	0	43	0	1262485504	19	4568
2026-01-29 23:31:01.86	126.18	37.90	-29.2	-31.0	13.1	2.36e-05	0	43	0	1271922688	19	4444
2026-01-29 23:31:04.88	127.34	37.55	-28.9	-30.3	13.6	2.13e-05	0	43	0	1281359872	19	4231
2026-01-29 23:31:07.89	128.46	37.18	-29.3	-31.8	12.9	4.34e-05	0	43	0	1290797056	18	4823
2026-01-29 23:31:10.90	129.56	36.81	-29.3	-31.3	13.0	5.79e-05	0	43	0	1300234240	19	4548
2026-01-29 23:31:13.92	130.64	36.43	-29.2	-31.1	13.1	3.20e-05	0	43	0	1309671424	19	4463
2026-01-29 23:31:16.92	131.69	36.05	-28.9	-30.4	13.4	6.10e-06	0	43	0	1319108608	19	4299
2026-01-29 23:31:19.95	132.72	35.65	-28.7	-30.5	13.7	3.00e-06	0	43	0	1328545792	18	4425
2026-01-29 23:31:22.96	133.72	35.26	-28.7	-30.4	13.8	1.50e-06	0	43	0	1337982976	18	4378
2026-01-29 23:31:25.97	134.70	34.86	-28.9	-30.9	13.5	9.90e-06	0	44	0	1347420160	18	4530
2026-01-29 23:31:28.99	135.66	34.45	-28.6	-30.1	13.9	4.50e-06	0	43	0	1356857344	18	4310
2026-01-29 23:31:32.00	136.59	34.05	-28.4	-30.2	14.1	1.50e-06	0	43	0	1366294528	17	4434
2026-01-29 23:31:35.00	137.50	33.64	-27.6	-28.7	15.3	0.00e+00	0	43	0	1375731712	16	4120
2026-01-29 23:31:38.00	138.38	33.23	-27.7	-29.2	15.0	0.00e+00	0	43	0	1385168896	16	4249
2026-01-29 23:31:41.01	139.25	32.81	-27.4	-28.9	15.3	0.00e+00	0	43	0	1394606080	15	4278
2026-01-29 23:31:44.02	140.09	32.40	-27.0	-28.1	15.7	0.00e+00	0	43	0	1404043264	15	4053
2026-01-29 23:31:47.03	140.92	31.98	-26.9	-28.2	15.9	0.00e+00	0	43	0	1413480448	14	4211
2026-01-29 23:31:50.04	141.72	31.57	-27.2	-29.0	15.5	0.00e+00	0	43	0	1422917632	14	4416
2026-01-29 23:31:53.04	142.50	31.15	-26.9	-28.7	15.9	0.00e+00	0	43	0	1432354816	13	4448
2026-01-29 23:31:56.04	143.26	30.74	-26.5	-27.8	16.3	0.00e+00	0	43	0	1441792000	13	4210
2026-01-29 23:31:59.05	144.00	30.32	-26.8	-28.6	15.9	0.00e+00	0	43	0	1451229184	13	4419
2026-01-29 23:32:02.05	144.73	29.91	-26.8	-28.7	15.9	0.00e+00	0	43	0	1460666368	13	4448
2026-01-29 23:32:05.06	145.44	29.50	-26.8	-28.5	16.0	0.00e+00	0	43	0	1470103552	13	4390
2026-01-29 23:32:08.07	146.13	29.09	-27.0	-29.0	15.7	0.00e+00	0	43	0	1479540736	13	4544
2026-01-29 23:32:11.09	146.80	28.67	-26.9	-28.3	15.8	0.00e+00	0	43	0	1488977920	14	4217
2026-01-29 23:32:14.10	147.46	28.27	-27.0	-28.9	15.7	0.00e+00	0	43	0	1498415104	13	4520
2026-01-29 23:32:17.11	148.10	27.86	-27.0	-28.6	15.6	0.00e+00	0	43	0	1507852288	14	4353
2026-01-29 23:32:20.12	148.73	27.46	-27.4	-29.4	14.3	0.00e+00	0	43	0	1517289472	14	4535
2026-01-29 23:32:23.13	149.34	27.06	-27.3	-29.3	15.2	7.00e-07	0	43	0	1526726656	14	4526
2026-01-29 23:32:26.14	149.93	26.66	-26.9	-28.7	15.8	2.20e-06	0	43	0	1536163840	13	4469
2026-01-29 23:32:29.17	150.52	26.26	-26.6	-28.2	16.0	3.52e-03	0	43	0	1545601024	13	4317
2026-01-29 23:32:32.17	151.08	25.87	-26.6	-28.2	16.0	0.00e+00	0	43	0	1553989632	13	4326
2026-01-29 23:32:35.18	151.64	25.48	-26.8	-28.6	15.8	3.68e-03	0	43	0	1563426816	13	4427
2026-01-29 23:32:38.19	152.18	25.09	-26.7	-28.3	15.9	3.29e-03	0	43	0	1573912576	13	4355
2026-01-29 23:32:41.20	152.70	24.70	-26.6	-28.1	16.0	3.18e-03	0	43	0	1582301184	13	4292
2026-01-29 23:32:44.22	153.22	24.32	-26.6	-28.2	15.9	3.70e-03	0	43	0	1591738368	13	4333
2026-01-29 23:32:47.24	153.73	23.94	-26.7	-28.5	15.8	3.51e-03	0	43	0	1601175552	13	4412
2026-01-29 23:32:50.25	154.22	23.57	-26.8	-28.6	15.8	3.20e-03	0	43	0	1610612736	13	4432
2026-01-29 23:32:53.26	154.70	23.20	-26.9	-28.9	15.5	0.00e+00	0	43	0	1620049920	13	4538
2026-01-29 23:32:56.28	155.17	22.83	-26.9	-28.9	15.6	3.53e-03	0	43	0	1629487104	13	4514
2026-01-29 23:32:59.29	155.63	22.46	-27.2	-29.0	15.2	0.00e+00	0	43	0	1638924288	14	4436
2026-01-29 23:33:02.29	156.08	22.10	-26.7	-28.5	15.8	0.00e+00	0	43	0	1648361472	13	4409
2026-01-29 23:33:05.30	156.52	21.74	-26.5	-28.4	16.1	0.00e+00	0	43	0	1657798656	12	4483
2026-01-29 23:33:08.31	156.94	21.39	-26.6	-28.2	15.9	0.00e+00	0	43	0	1667235840	13	4337
2026-01-29 23:33:11.31	157.36	21.04	-26.7	-28.6	15.7	0.00e+00	0	44	0	1676673024	13	4450
2026-01-29 23:33:14.31	157.77	20.69	-26.8	-28.7	15.6	0.00e+00	0	43	0	1686110208	13	4475
2026-01-29 23:33:17.32	158.17	20.35	-26.7	-28.4	15.8	0.00e+00	0	43	0	1695547392	13	4380
2026-01-29 23:33:20.34	158.57	20.01	-26.6	-28.1	15.9	0.00e+00	0	43	0	1704984576	13	4313
2026-01-29 23:33:23.35	158.95	19.67	-26.5	-28.1	15.9	0.00e+00	0	44	0	1714421760	13	4293
2026-01-29 23:33:26.36	159.33	19.33	-26.7	-28.4	15.7	0.00e+00	0	43	0	1723858944	13	4398
2026-01-29 23:33:29.38	159.70	19.00	-26.8	-28.8	15.5	0.00e+00	0	43	0	1733296128	13	4492
2026-01-29 23:33:32.38	160.06	18.67	-27.2	-29.0	15.1	0.00e+00	0	44	0	1742733312	14	4455
2026-01-29 23:33:35.39	160.42	18.35	-27.0	-28.6	15.3	0.00e+00	0	43	0	1752170496	14	4347
2026-01-29 23:33:38.40	160.76	18.03	-27.1	-28.9	15.2	0.00e+00	0	43	0	1761607680	14	4416
2026-01-29 23:33:41.42	161.10	17.71	-27.2	-29.1	15.0	0.00e+00	0	44	0	1771044864	14	4484
2026-01-29 23:33:44.42	161.43	17.40	-27.4	-29.6	14.7	0.00e+00	0	43	0	1780482048	14	4635
2026-01-29 23:33:47.44	161.76	17.08	-27.4	-29.0	14.8	0.00e+00	0	43	0	1789919232	15	4343
2026-01-29 23:33:50.46	162.08	16.77	-27.3	-29.2	15.0	0.00e+00	0	43	0	1799356416	14	4512
2026-01-29 23:33:53.48	162.40	16.47	-27.1	-28.9	15.1	7.00e-07	0	43	0	1808793600	14	4448
2026-01-29 23:33:56.49	162.71	16.16	-27.1	-29.1	14.7	0.00e+00	0	43	0	1818230784	14	4512
2026-01-29 23:33:59.49	163.01	15.86	-27.2	-29.3	14.8	0.00e+00	0	44	0	1827667968	14	4588
2026-01-29 23:34:02.51	163.30	15.57	-27.4	-29.7	14.5	1.50e-06	0	43	0	1837105152	14	4701
2026-01-29 23:34:05.52	163.59	15.27	-27.7	-29.9	14.1	1.50e-06	0	43	0	1846542336	15	4647
2026-01-29 23:34:08.53	163.88	14.98	-27.9	-30.3	13.9	3.81e-05	0	43	0	1855979520	15	4745
2026-01-29 23:34:11.55	164.16	14.69	-28.1	-30.4	13.8	2.20e-06	0	43	0	1865416704	16	4645
2026-01-29 23:34:14.56	164.44	14.41	-28.1	-30.2	13.9	1.50e-06	0	43	0	1874853888	16	4578
2026-01-29 23:34:17.56	164.70	14.12	-28.2	-30.5	13.7	7.60e-06	0	43	0	1884291072	16	4679
2026-01-29 23:34:20.58	164.97	13.84	-28.0	-30.1	13.9	8.85e-05	0	43	0	1893728256	16	4561
2026-01-29 23:34:23.60	165.23	13.57	-28.1	-30.2	13.8	1.17e-04	0	43	0	1903165440	16	4615
2026-01-29 23:34:26.61	165.49	13.29	-27.7	-29.9	14.1	1.49e-04	0	43	0	1912602624	15	4630
2026-01-29 23:34:29.62	165.74	13.02	-27.7	-29.9	14.1	1.22e-04	0	43	0	1920991232	15	4608
2026-01-29 23:34:32.63	165.98	12.75	-27.7	-29.8	14.1	2.20e-06	0	43	0	1930428416	15	4613
2026-01-29 23:34:35.64	166.23	12.48	-27.7	-30.0	14.0	1.91e-04	0	43	0	1940914176	15	4669
2026-01-29 23:34:38.65	166.47	12.22	-27.9	-30.4	13.7	1.50e-06	0	43	0	1949302784	15	4817
2026-01-29 23:34:41.67	166.70	11.95	-27.8	-30.3	13.8	2.36e-04	0	43	0	1958739968	15	4746
2026-01-29 23:34:44.69	166.93	11.69	-28.2	-30.5	13.6	9.10e-06	0	43	0	1968177152	16	4699
2026-01-29 23:34:47.69	167.16	11.44	-28.2	-30.6	13.5	6.10e-06	0	43	0	1977614336	16	4727
2026-01-29 23:34:50.70	167.38	11.18	-28.1	-30.3	13.7	9.10e-06	0	43	0	1987051520	16	4644
2026-01-29 23:34:53.71	167.60	10.93	-28.1	-30.2	13.7	6.10e-06	0	43	0	1996488704	16	4593
2026-01-29 23:34:56.72	167.82	10.68	-28.2	-30.5	13.5	1.06e-05	0	43	0	2005925888	16	4695
2026-01-29 23:34:59.74	168.03	10.43	-28.1	-30.2	13.7	3.80e-06	0	43	0	2015363072	16	4604
2026-01-29 23:35:02.75	168.24	10.18	-28.2	-30.5	13.5	2.59e-05	0	43	0	2024800256	16	4683
2026-01-29 23:35:05.76	168.44	9.94	-28.3	-30.9	13.2	2.44e-05	0	44	0	2034237440	16	4837
2026-01-29 23:35:08.78	168.65	9.70	-28.4	-31.0	13.2	4.19e-05	0	43	0	2043674624	16	4867
2026-01-29 23:35:11.79	168.84	9.46	-28.4	-31.1	13.0	5.56e-05	0	43	0	2053111808	16	4913
2026-01-29 23:35:14.80	169.04	9.22	-28.5	-31.3	12.9	5.26e-05	0	43	0	2062548992	16	4999
2026-01-29 23:35:17.81	169.23	8.98	-28.7	-31.4	12.5	1.36e-04	0	43	0	2071986176	17	4910
2026-01-29 23:35:20.82	169.42	8.75	-28.7	-31.6	12.3	1.69e-04	0	43	0	2081423360	17	4979
2026-01-29 23:35:23.83	169.61	8.52	-29.0	-32.1	12.0	3.28e-04	0	44	0	2090860544	17	5193
2026-01-29 23:35:26.83	169.80	8.29	-28.9	-32.1	12.0	2.75e-04	0	43	0	2100297728	17	5166
2026-01-29 23:35:29.84	169.98	8.06	-28.9	-31.9	12.1	2.67e-04	0	43	0	2109734912	17	5080
2026-01-29 23:35:32.86	170.16	7.83	-29.2	-32.3	11.5	9.80e-04	0	43	0	2119172096	18	5138
2026-01-29 23:35:35.87	170.33	7.61	-29.5	-32.5	11.0	2.16e-03	0	44	0	2128609280	19	5084
2026-01-29 23:35:38.87	170.51	7.38	-29.6	-32.7	10.8	2.57e-03	0	44	0	2138046464	19	5174
2026-01-29 23:35:41.87	170.68	7.16	-29.5	-32.4	11.1	1.70e-03	0	44	0	2147483648	19	5058

#Closed at: 2026-01-29 23:35:44
#Recorded file [2151 MB]: D:/data/31010_260130_022414.dat