passes_logs/2026/01/29/R2M6_AANII_01/R2M6_AANII_01__20260129_003313_NOAA_20_JPSS-1_rec.log

#Pass ID: 20260129_003313_NOAA 20 (JPSS-1)
#Satellite: NOAA 20 (JPSS-1)
#Configuration: NOAA 20
#almurnet v.1.7.20240730
#Start time: 2026-01-29 00:33:13

#Version: 2.2.20231116
#Station: R2M6_AANII_01
#Location: 30.233357 lon 59.946436 lat
#TLE: 1 43013U 17073A   26027.80586608  .00000156  00000+0  94940-4 0  9998
#TLE: 2 43013  98.7647 328.6108 0000947  21.3465 338.7750 14.19541216424550

#Time	Az	El	Level	Level2	SNR	BER	BlckErr	Temp	State	Recorded	gain1	gain2
2026-01-29 00:33:13.71	17.09	7.03	-31.8	-40.0	4.5	1.38e+00	0	41	0	0	23	9216
2026-01-29 00:33:16.71	17.07	7.26	-32.1	-40.9	5.2	5.30e-01	0	41	0	1048576	24	9991
2026-01-29 00:33:19.72	17.05	7.50	-31.9	-39.6	6.2	3.54e-01	0	41	0	7340032	23	8824
2026-01-29 00:33:22.72	17.03	7.73	-31.5	-37.6	7.8	9.69e-02	0	41	0	12582912	23	7266
2026-01-29 00:33:25.74	17.00	7.97	-31.7	-38.3	7.4	6.80e-02	0	42	0	17825792	23	7722
2026-01-29 00:33:28.75	16.98	8.21	-31.3	-37.2	8.6	5.40e-02	0	41	0	24117248	22	7119
2026-01-29 00:33:31.75	16.95	8.45	-30.9	-35.6	9.8	1.06e-02	0	41	0	29360128	22	6201
2026-01-29 00:33:34.75	16.93	8.70	-30.8	-35.8	10.1	6.52e-03	0	42	0	35651584	21	6376
2026-01-29 00:33:37.75	16.90	8.95	-30.9	-36.0	10.0	7.33e-03	0	42	0	40894464	21	6496
2026-01-29 00:33:40.77	16.87	9.20	-30.8	-35.5	10.4	4.52e-03	0	42	0	46137344	21	6192
2026-01-29 00:33:43.77	16.85	9.45	-30.8	-35.6	10.4	4.68e-03	0	42	0	52428800	21	6239
2026-01-29 00:33:46.79	16.82	9.71	-30.8	-35.5	10.5	4.81e-03	0	42	0	57671680	21	6196
2026-01-29 00:33:49.80	16.79	9.97	-30.7	-35.2	10.7	2.98e-03	0	42	0	62914560	21	6043
2026-01-29 00:33:52.81	16.76	10.23	-30.7	-35.3	10.6	3.96e-03	0	42	0	69206016	21	6103
2026-01-29 00:33:55.82	16.73	10.49	-30.7	-35.0	10.9	2.49e-03	0	42	0	74448896	21	5949
2026-01-29 00:33:58.84	16.69	10.76	-30.7	-35.1	10.9	2.74e-03	0	42	0	80740352	21	5979
2026-01-29 00:34:01.85	16.66	11.03	-30.7	-35.0	10.9	1.83e-03	0	42	0	85983232	21	5939
2026-01-29 00:34:04.86	16.63	11.30	-30.8	-35.3	10.8	2.90e-03	0	42	0	91226112	21	6074
2026-01-29 00:34:07.88	16.60	11.58	-30.7	-35.2	10.8	2.61e-03	0	42	0	97517568	21	6017
2026-01-29 00:34:10.89	16.56	11.85	-30.8	-35.4	10.7	3.05e-03	0	42	0	102760448	21	6127
2026-01-29 00:34:13.90	16.52	12.14	-30.8	-35.4	10.8	2.24e-03	0	42	0	109051904	21	6092
2026-01-29 00:34:16.91	16.49	12.42	-30.5	-34.5	11.4	9.80e-04	0	43	0	114294784	21	5661
2026-01-29 00:34:19.91	16.45	12.71	-30.5	-34.3	11.6	8.04e-04	0	43	0	119537664	21	5585
2026-01-29 00:34:22.91	16.41	13.00	-30.5	-34.5	11.4	7.90e-04	0	43	0	125829120	21	5682
2026-01-29 00:34:25.91	16.37	13.29	-30.6	-34.7	11.3	1.76e-03	0	43	0	131072000	21	5787
2026-01-29 00:34:28.92	16.33	13.59	-30.6	-34.5	11.5	1.56e-03	0	43	0	136314880	21	5677
2026-01-29 00:34:31.93	16.29	13.90	-30.7	-35.0	11.2	1.75e-03	0	43	0	142606336	21	5882
2026-01-29 00:34:34.92	16.25	14.20	-30.2	-33.9	12.3	8.15e-04	0	43	0	147849216	20	5498
2026-01-29 00:34:37.92	16.20	14.51	-30.1	-33.7	12.5	1.21e-04	0	43	0	154140672	20	5416
2026-01-29 00:34:40.94	16.16	14.83	-30.1	-33.6	12.6	1.04e-04	0	43	0	159383552	20	5383
2026-01-29 00:34:43.95	16.11	15.14	-30.1	-33.6	12.6	6.02e-04	0	43	0	164626432	20	5377
2026-01-29 00:34:46.95	16.06	15.47	-30.3	-34.2	12.2	9.46e-04	0	43	0	170917888	20	5614
2026-01-29 00:34:49.96	16.01	15.79	-30.2	-33.9	12.4	8.92e-04	0	43	0	176160768	20	5511
2026-01-29 00:34:52.96	15.96	16.12	-30.2	-33.7	12.6	8.25e-04	0	43	0	181403648	20	5408
2026-01-29 00:34:55.97	15.91	16.46	-30.1	-33.6	12.7	9.12e-04	0	43	0	187695104	20	5337
2026-01-29 00:34:58.99	15.86	16.80	-29.9	-33.3	13.3	3.28e-05	0	43	0	192937984	19	5355
2026-01-29 00:35:01.99	15.80	17.15	-29.9	-33.3	13.3	1.06e-05	0	43	0	199229440	19	5339
2026-01-29 00:35:05.01	15.74	17.50	-29.8	-33.1	13.4	7.63e-04	0	43	0	204472320	19	5270
2026-01-29 00:35:08.01	15.69	17.85	-29.7	-32.7	13.7	8.06e-04	0	43	0	209715200	19	5096
2026-01-29 00:35:11.02	15.63	18.21	-29.7	-32.7	13.8	7.10e-04	0	43	0	216006656	19	5085
2026-01-29 00:35:14.03	15.56	18.58	-29.8	-32.9	13.6	2.13e-05	0	43	0	221249536	19	5180
2026-01-29 00:35:17.04	15.50	18.95	-29.7	-32.8	13.7	1.14e-05	0	43	0	226492416	19	5120
2026-01-29 00:35:20.05	15.44	19.33	-29.7	-32.8	13.7	9.10e-06	0	43	0	232783872	19	5147
2026-01-29 00:35:23.06	15.37	19.71	-29.8	-33.1	13.5	9.90e-06	0	43	0	238026752	19	5236
2026-01-29 00:35:26.06	15.30	20.10	-29.7	-32.6	13.9	6.80e-06	0	43	0	244318208	19	5075
2026-01-29 00:35:29.07	15.23	20.49	-29.7	-32.7	13.9	3.80e-06	0	43	0	249561088	19	5077
2026-01-29 00:35:32.08	15.15	20.89	-29.9	-33.4	13.4	6.10e-06	0	43	0	254803968	19	5351
2026-01-29 00:35:35.09	15.08	21.30	-29.5	-32.3	14.1	7.00e-07	0	43	0	261095424	19	4930
2026-01-29 00:35:38.10	15.00	21.71	-28.8	-31.8	13.9	7.00e-07	0	43	0	266338304	19	5068
2026-01-29 00:35:41.11	14.92	22.14	-29.3	-32.3	14.4	0.00e+00	0	43	0	272629760	18	5040
2026-01-29 00:35:44.13	14.84	22.56	-29.4	-32.5	14.2	2.20e-06	0	43	0	277872640	18	5107
2026-01-29 00:35:47.14	14.75	23.00	-29.4	-32.5	14.4	7.00e-07	0	43	0	283115520	18	5121
2026-01-29 00:35:50.16	14.66	23.44	-29.4	-32.5	14.4	1.67e-03	0	43	0	289406976	18	5124
2026-01-29 00:35:53.17	14.57	23.89	-29.9	-33.3	13.6	2.01e-03	0	43	0	294649856	19	5307
2026-01-29 00:35:56.18	14.47	24.35	-29.4	-32.4	14.5	1.95e-03	0	43	0	300941312	18	5071
2026-01-29 00:35:59.18	14.38	24.82	-29.5	-32.5	14.4	0.00e+00	0	43	0	306184192	18	5123
2026-01-29 00:36:02.17	14.28	25.29	-29.6	-32.4	14.1	1.50e-06	0	43	0	311427072	19	4984
2026-01-29 00:36:05.19	14.17	25.77	-29.6	-32.5	14.1	0.00e+00	0	43	0	317718528	19	4994
2026-01-29 00:36:08.19	14.06	26.26	-29.9	-33.1	13.8	1.97e-03	0	43	0	322961408	19	5206
2026-01-29 00:36:11.19	13.95	26.76	-30.0	-33.4	13.6	1.88e-03	0	43	0	328204288	19	5316
2026-01-29 00:36:14.20	13.84	27.27	-30.0	-33.0	13.5	1.81e-03	0	43	0	334495744	20	5076
2026-01-29 00:36:17.21	13.72	27.79	-30.1	-33.2	13.3	1.68e-03	0	43	0	339738624	20	5167
2026-01-29 00:36:20.23	13.59	28.32	-30.6	-34.0	12.4	1.15e-03	0	43	0	346030080	21	5368
2026-01-29 00:36:23.25	13.46	28.87	-30.8	-34.9	11.9	3.54e-04	0	43	0	351272960	21	5720
2026-01-29 00:36:26.26	13.33	29.42	-31.0	-35.0	11.4	1.82e-03	0	43	0	356515840	22	5679
2026-01-29 00:36:29.26	13.19	29.98	-31.2	-35.3	11.2	2.89e-03	0	43	0	362807296	22	5819
2026-01-29 00:36:32.27	13.04	30.55	-31.2	-35.4	11.2	2.16e-03	0	43	0	368050176	22	5846
2026-01-29 00:36:35.29	12.89	31.13	-31.4	-35.9	10.8	3.11e-03	0	43	0	373293056	22	6102
2026-01-29 00:36:38.30	12.74	31.73	-31.2	-35.4	11.2	1.77e-03	0	43	0	379584512	22	5837
2026-01-29 00:36:41.31	12.57	32.34	-31.4	-36.1	10.8	2.49e-03	0	43	0	384827392	22	6165
2026-01-29 00:36:44.33	12.40	32.96	-31.4	-36.1	10.7	2.96e-03	0	43	0	391118848	22	6193
2026-01-29 00:36:47.34	12.23	33.59	-31.6	-36.1	10.4	4.53e-03	0	43	0	396361728	23	6062
2026-01-29 00:36:50.35	12.04	34.23	-31.5	-36.2	10.7	3.10e-03	0	43	0	401604608	22	6236
2026-01-29 00:36:53.36	11.85	34.89	-31.0	-34.9	11.7	1.49e-03	0	43	0	407896064	22	5596
2026-01-29 00:36:56.38	11.65	35.57	-31.1	-35.1	11.4	1.56e-03	0	43	0	413138944	22	5715
2026-01-29 00:36:59.39	11.44	36.25	-29.9	-32.5	13.9	6.80e-06	0	43	0	419430400	20	4895
2026-01-29 00:37:02.39	11.22	36.95	-29.3	-31.6	14.9	0.00e+00	0	43	0	424673280	19	4662
2026-01-29 00:37:05.40	10.99	37.67	-29.4	-32.3	14.8	7.00e-07	0	43	0	429916160	18	5006
2026-01-29 00:37:08.41	10.75	38.40	-29.8	-32.7	14.2	0.00e+00	0	43	0	436207616	19	5051
2026-01-29 00:37:11.41	10.50	39.14	-30.0	-32.8	13.8	2.20e-06	0	43	0	441450496	20	4990
2026-01-29 00:37:14.42	10.24	39.91	-30.2	-33.4	13.4	1.44e-05	0	43	0	446693376	20	5215
2026-01-29 00:37:17.43	9.96	40.68	-30.2	-33.3	13.4	1.44e-05	0	44	0	452984832	20	5183
2026-01-29 00:37:20.44	9.67	41.48	-30.4	-33.6	12.9	4.34e-05	0	43	0	458227712	21	5187
2026-01-29 00:37:23.45	9.36	42.29	-30.5	-33.7	12.8	5.56e-05	0	43	0	464519168	21	5232
2026-01-29 00:37:26.46	9.04	43.12	-30.7	-34.3	12.5	1.59e-04	0	43	0	469762048	21	5450
2026-01-29 00:37:29.47	8.70	43.96	-30.9	-34.9	12.0	2.27e-04	0	44	0	475004928	21	5713
2026-01-29 00:37:32.47	8.34	44.83	-30.7	-33.9	12.5	2.78e-04	0	43	0	481296384	22	5163
2026-01-29 00:37:35.48	7.95	45.71	-30.8	-34.7	12.3	1.23e-04	0	44	0	486539264	21	5598
2026-01-29 00:37:38.49	7.55	46.61	-30.8	-34.6	12.2	1.72e-04	0	43	0	491782144	21	5573
2026-01-29 00:37:41.49	7.12	47.52	-31.3	-35.6	11.3	1.42e-03	0	44	0	498073600	22	5899
2026-01-29 00:37:44.50	6.66	48.46	-31.6	-36.0	10.6	4.61e-03	0	44	0	503316480	23	6007
2026-01-29 00:37:47.52	6.17	49.41	-31.1	-34.5	11.7	8.83e-04	0	44	0	509607936	23	5309
2026-01-29 00:37:50.53	5.66	50.39	-30.5	-33.3	12.8	1.23e-04	0	43	0	514850816	22	4944
2026-01-29 00:37:53.53	5.10	51.38	-30.2	-33.3	13.6	8.92e-05	0	43	0	520093696	20	5159
2026-01-29 00:37:56.54	4.51	52.38	-29.7	-32.6	14.3	1.81e-04	0	43	0	526385152	19	5022
2026-01-29 00:37:59.56	3.87	53.42	-29.7	-32.1	14.3	3.15e-04	0	44	0	531628032	20	4745
2026-01-29 00:38:02.58	3.18	54.46	-28.9	-30.9	15.7	7.65e-04	0	44	0	537919488	18	4545
2026-01-29 00:38:05.59	2.45	55.52	-29.4	-32.1	15.0	9.39e-04	0	43	0	543162368	18	4951
2026-01-29 00:38:08.61	1.65	56.61	-29.9	-32.9	14.2	1.21e-03	0	44	0	548405248	19	5116
2026-01-29 00:38:11.63	0.78	57.70	-30.7	-34.2	12.5	1.20e-04	0	44	0	554696704	21	5421
2026-01-29 00:38:14.64	359.84	58.81	-31.1	-34.8	11.8	2.08e-03	0	43	0	559939584	22	5561
2026-01-29 00:38:17.66	358.82	59.93	-30.6	-33.6	12.8	1.22e-03	0	44	0	565182464	22	5045
2026-01-29 00:38:20.67	357.70	61.06	-28.8	-30.7	15.8	6.50e-04	0	44	0	571473920	18	4497
2026-01-29 00:38:23.68	356.48	62.20	-28.1	-30.1	16.7	2.37e-04	0	43	0	576716800	16	4523
2026-01-29 00:38:26.69	355.13	63.35	-28.7	-31.0	15.9	0.00e+00	0	44	0	583008256	17	4685
2026-01-29 00:38:29.68	353.66	64.49	-28.8	-31.4	15.7	0.00e+00	0	44	0	588251136	17	4814
2026-01-29 00:38:32.68	352.02	65.64	-29.1	-31.4	15.4	0.00e+00	0	44	0	593494016	18	4726
2026-01-29 00:38:35.69	350.20	66.79	-30.2	-33.3	13.6	7.60e-06	0	44	0	599785472	20	5147
2026-01-29 00:38:38.69	348.17	67.93	-30.4	-33.3	13.2	3.43e-05	0	43	0	605028352	21	5077
2026-01-29 00:38:41.70	345.90	69.05	-29.8	-32.4	14.1	2.47e-04	0	44	0	610271232	20	4850
2026-01-29 00:38:44.71	343.35	70.16	-29.4	-31.6	15.1	0.00e+00	0	43	0	616562688	19	4671
2026-01-29 00:38:47.73	340.46	71.24	-28.6	-30.2	16.1	0.00e+00	0	43	0	621805568	18	4331
2026-01-29 00:38:50.74	337.23	72.28	-29.3	-31.4	15.1	0.00e+00	0	44	0	628097024	19	4619
2026-01-29 00:38:53.75	333.57	73.26	-30.4	-33.4	13.2	8.08e-05	0	44	0	633339904	21	5093
2026-01-29 00:38:56.75	329.46	74.18	-30.4	-33.9	13.2	4.50e-06	0	43	0	638582784	20	5370
2026-01-29 00:38:59.75	324.85	75.01	-30.7	-34.2	12.7	8.69e-05	0	44	0	644874240	21	5379
2026-01-29 00:39:02.70	319.80	75.73	-31.1	-34.9	12.0	2.43e-04	0	44	0	650117120	22	5576
2026-01-29 00:39:05.72	314.10	76.35	-31.6	-36.0	10.8	1.89e-03	0	44	0	655360000	23	5983
2026-01-29 00:39:08.74	307.90	76.83	-31.5	-35.1	11.1	5.34e-03	0	44	0	661651456	24	5438
2026-01-29 00:39:11.74	301.35	77.15	-32.3	-38.0	9.1	1.12e-02	0	44	0	666894336	24	6913
2026-01-29 00:39:14.76	294.50	77.30	-31.4	-35.2	11.3	1.42e-03	0	44	0	673185792	23	5598
2026-01-29 00:39:17.77	287.61	77.27	-31.5	-35.7	11.1	2.61e-03	0	44	0	678428672	23	5804
2026-01-29 00:39:20.79	280.83	77.06	-31.3	-35.3	11.7	1.03e-03	0	44	0	683671552	22	5734
2026-01-29 00:39:23.80	274.38	76.68	-30.9	-34.7	12.6	4.99e-04	0	44	0	689963008	21	5559
2026-01-29 00:39:26.80	268.39	76.15	-31.6	-35.9	11.1	2.07e-03	0	44	0	695205888	23	5880
2026-01-29 00:39:29.81	262.88	75.49	-31.8	-36.5	10.5	4.29e-03	0	44	0	700448768	23	6186
2026-01-29 00:39:32.82	257.92	74.71	-31.8	-36.5	10.5	2.27e-03	0	44	0	706740224	23	6175
2026-01-29 00:39:35.83	253.48	73.84	-31.1	-34.7	12.2	6.77e-04	0	43	0	711983104	22	5460
2026-01-29 00:39:38.84	249.54	72.90	-30.5	-33.6	13.2	1.81e-04	0	44	0	718274560	21	5160
2026-01-29 00:39:41.85	246.04	71.89	-29.8	-32.8	14.4	1.83e-05	0	43	0	723517440	19	5066
2026-01-29 00:39:44.86	242.94	70.84	-30.0	-32.8	14.0	1.50e-04	0	44	0	728760320	20	4953
2026-01-29 00:39:47.87	240.19	69.75	-30.5	-33.7	13.1	2.19e-04	0	44	0	735051776	21	5203
2026-01-29 00:39:50.88	237.74	68.63	-31.0	-34.7	12.1	1.79e-04	0	43	0	740294656	22	5504
2026-01-29 00:39:53.89	235.56	67.49	-30.6	-34.0	12.9	7.78e-05	0	44	0	746586112	21	5329
2026-01-29 00:39:56.91	233.60	66.34	-30.1	-32.5	13.8	8.30e-06	0	44	0	751828992	21	4742
2026-01-29 00:39:59.92	231.85	65.19	-29.7	-32.5	14.5	1.26e-04	0	44	0	757071872	19	4991
2026-01-29 00:40:02.93	230.27	64.04	-28.7	-30.5	16.0	8.01e-05	0	44	0	763363328	18	4422
2026-01-29 00:40:05.94	228.84	62.88	-28.0	-29.4	16.9	0.00e+00	0	44	0	768606208	17	4225
2026-01-29 00:40:08.95	227.54	61.74	-28.9	-31.5	15.7	0.00e+00	0	44	0	773849088	17	4843
2026-01-29 00:40:11.96	226.36	60.60	-30.3	-33.7	13.3	8.30e-06	0	44	0	780140544	20	5312
2026-01-29 00:40:14.96	225.28	59.47	-31.9	-37.3	9.7	4.72e-03	0	44	0	785383424	23	6689
2026-01-29 00:40:17.97	224.29	58.35	-31.6	-36.0	10.7	3.79e-03	0	44	0	791674880	23	5976
2026-01-29 00:40:20.98	223.38	57.25	-31.7	-36.5	10.2	5.50e-03	0	44	0	796917760	23	6244
2026-01-29 00:40:23.99	222.54	56.16	-31.1	-34.4	11.8	6.96e-04	0	44	0	802160640	23	5287
2026-01-29 00:40:27.00	221.77	55.08	-29.9	-32.0	14.0	9.90e-06	0	44	0	808452096	21	4593
2026-01-29 00:40:30.00	221.05	54.03	-29.9	-33.0	14.1	2.20e-06	0	44	0	813694976	19	5170
2026-01-29 00:40:33.01	220.38	52.99	-30.5	-34.2	12.9	2.21e-05	0	44	0	818937856	20	5535
2026-01-29 00:40:36.01	219.76	51.97	-29.5	-32.0	14.7	1.50e-06	0	44	0	825229312	19	4807
2026-01-29 00:40:39.02	219.18	50.96	-30.0	-33.3	13.9	7.00e-07	0	43	0	830472192	19	5256
2026-01-29 00:40:42.03	218.64	49.97	-31.0	-35.1	11.9	1.79e-04	0	43	0	836763648	21	5821
2026-01-29 00:40:45.04	218.13	49.00	-30.8	-34.2	12.2	5.80e-04	0	44	0	842006528	22	5315
2026-01-29 00:40:48.05	217.66	48.05	-30.5	-33.9	12.7	3.93e-04	0	44	0	847249408	21	5280
2026-01-29 00:40:51.05	217.21	47.12	-30.7	-34.4	12.0	1.45e-04	0	43	0	853540864	21	5505
2026-01-29 00:40:54.07	216.79	46.20	-30.7	-34.5	12.3	2.31e-04	0	44	0	858783744	21	5554
2026-01-29 00:40:57.07	216.39	45.31	-30.9	-34.6	11.8	5.13e-04	0	44	0	865075200	22	5479
2026-01-29 00:41:00.08	216.02	44.43	-30.7	-34.4	12.4	5.69e-04	0	43	0	870318080	21	5517
2026-01-29 00:41:03.09	215.66	43.57	-31.2	-35.4	11.3	1.65e-03	0	44	0	875560960	22	5857
2026-01-29 00:41:06.10	215.33	42.73	-31.6	-36.2	10.3	4.34e-03	0	44	0	881852416	23	6145
2026-01-29 00:41:09.11	215.01	41.91	-31.4	-36.2	10.7	4.45e-03	0	44	0	887095296	22	6231
2026-01-29 00:41:12.11	214.70	41.10	-31.0	-34.9	11.6	2.38e-03	0	44	0	892338176	22	5618
2026-01-29 00:41:15.12	214.42	40.31	-31.0	-34.8	11.7	2.11e-03	0	44	0	898629632	22	5566
2026-01-29 00:41:18.13	214.14	39.54	-31.2	-35.5	11.2	1.01e-03	0	44	0	903872512	22	5872
2026-01-29 00:41:21.13	213.88	38.78	-31.2	-35.3	11.3	1.72e-03	0	44	0	910163968	22	5827
2026-01-29 00:41:24.15	213.63	38.03	-30.9	-35.0	11.8	2.48e-03	0	44	0	915406848	21	5808
2026-01-29 00:41:27.16	213.40	37.31	-30.5	-33.9	12.6	1.40e-03	0	44	0	920649728	21	5313
2026-01-29 00:41:30.17	213.17	36.59	-30.8	-34.8	12.0	1.10e-03	0	43	0	926941184	21	5687
2026-01-29 00:41:33.18	212.95	35.90	-30.7	-34.4	12.3	3.26e-04	0	44	0	932184064	21	5512
2026-01-29 00:41:36.18	212.75	35.21	-30.8	-34.9	11.9	5.39e-04	0	44	0	937426944	21	5731
2026-01-29 00:41:39.19	212.55	34.55	-31.3	-35.8	10.9	2.08e-03	0	44	0	943718400	22	6065
2026-01-29 00:41:42.21	212.36	33.89	-30.9	-34.7	11.7	8.07e-04	0	44	0	948961280	22	5553
2026-01-29 00:41:45.21	212.18	33.25	-30.8	-34.8	11.9	8.29e-04	0	44	0	955252736	21	5734
2026-01-29 00:41:48.22	212.00	32.62	-30.9	-35.1	11.7	7.88e-04	0	44	0	960495616	21	5844
2026-01-29 00:41:51.23	211.83	32.00	-30.9	-35.3	11.5	1.09e-03	0	44	0	965738496	21	5960
2026-01-29 00:41:54.23	211.67	31.40	-31.3	-35.9	10.8	3.37e-03	0	44	0	972029952	22	6104
2026-01-29 00:41:57.24	211.52	30.81	-31.5	-36.5	10.3	5.15e-03	0	44	0	977272832	22	6457
2026-01-29 00:42:00.24	211.37	30.23	-31.6	-36.7	9.7	1.11e-02	0	44	0	982515712	23	6437
2026-01-29 00:42:03.25	211.22	29.66	-31.3	-36.1	10.5	4.63e-03	0	44	0	988807168	22	6254
2026-01-29 00:42:06.26	211.08	29.10	-31.2	-35.7	10.9	2.81e-03	0	44	0	994050048	22	6040
2026-01-29 00:42:09.28	210.95	28.55	-31.3	-36.1	10.6	4.09e-03	0	44	0	1000341504	22	6222
2026-01-29 00:42:12.28	210.82	28.01	-30.9	-35.2	11.5	3.37e-03	0	44	0	1005584384	21	5917
2026-01-29 00:42:15.28	210.70	27.49	-30.7	-34.6	11.9	3.64e-04	0	44	0	1010827264	21	5657
2026-01-29 00:42:18.29	210.58	26.97	-30.6	-34.2	12.2	2.55e-04	0	44	0	1017118720	21	5496
2026-01-29 00:42:21.30	210.46	26.46	-30.8	-34.9	11.7	5.42e-04	0	44	0	1022361600	21	5806
2026-01-29 00:42:24.30	210.35	25.96	-30.7	-34.5	11.9	3.49e-04	0	44	0	1027604480	21	5627
2026-01-29 00:42:27.32	210.24	25.47	-30.8	-34.9	11.7	5.65e-04	0	44	0	1033895936	21	5778
2026-01-29 00:42:30.32	210.14	24.99	-30.3	-34.1	12.6	1.20e-04	0	44	0	1039138816	20	5546
2026-01-29 00:42:33.32	210.03	24.52	-30.1	-33.4	13.0	4.50e-05	0	44	0	1045430272	20	5272
2026-01-29 00:42:36.34	209.94	24.05	-29.8	-32.7	13.5	2.13e-05	0	44	0	1050673152	20	4983
2026-01-29 00:42:39.35	209.84	23.60	-29.7	-32.8	13.7	3.80e-06	0	44	0	1055916032	19	5146
2026-01-29 00:42:42.36	209.75	23.15	-29.7	-32.7	13.8	1.50e-06	0	44	0	1062207488	19	5092
2026-01-29 00:42:45.38	209.66	22.70	-29.7	-32.9	13.7	3.00e-06	0	44	0	1067450368	19	5179
2026-01-29 00:42:48.40	209.57	22.27	-29.9	-33.4	13.4	1.14e-05	0	44	0	1073741824	19	5369
2026-01-29 00:42:51.41	209.49	21.84	-30.0	-33.1	13.1	2.28e-05	0	44	0	1078984704	20	5176
2026-01-29 00:42:54.41	209.41	21.42	-30.2	-33.9	12.6	6.68e-04	0	44	0	1084227584	20	5474
2026-01-29 00:42:57.42	209.33	21.01	-30.1	-33.6	12.8	6.56e-04	0	44	0	1090519040	20	5344
2026-01-29 00:43:00.42	209.25	20.61	-30.1	-33.5	12.8	5.77e-04	0	44	0	1095761920	20	5341
2026-01-29 00:43:03.43	209.18	20.21	-30.2	-33.9	12.5	1.01e-04	0	44	0	1101004800	20	5486
2026-01-29 00:43:06.44	209.10	19.81	-30.3	-33.9	12.5	1.30e-04	0	44	0	1107296256	20	5499
2026-01-29 00:43:09.46	209.03	19.42	-30.4	-34.3	12.2	2.50e-04	0	44	0	1112539136	20	5671
2026-01-29 00:43:12.46	208.96	19.04	-30.2	-33.8	12.6	8.25e-04	0	44	0	1118830592	20	5441
2026-01-29 00:43:15.46	208.90	18.67	-30.2	-33.9	12.4	1.14e-03	0	44	0	1124073472	20	5509
2026-01-29 00:43:18.47	208.83	18.30	-30.4	-34.0	12.0	1.32e-03	0	44	0	1129316352	21	5432
2026-01-29 00:43:21.49	208.77	17.93	-30.5	-34.7	11.9	1.17e-03	0	44	0	1135607808	20	5837
2026-01-29 00:43:24.48	208.71	17.57	-30.4	-34.4	12.0	1.34e-03	0	44	0	1140850688	20	5745
2026-01-29 00:43:27.49	208.65	17.22	-30.4	-34.7	11.8	4.57e-04	0	44	0	1146093568	20	5846
2026-01-29 00:43:30.50	208.59	16.87	-30.5	-34.3	11.7	5.32e-04	0	44	0	1152385024	21	5601
2026-01-29 00:43:33.50	208.53	16.53	-30.8	-35.4	10.9	2.54e-03	0	44	0	1157627904	21	6095
2026-01-29 00:43:36.52	208.48	16.19	-30.8	-35.4	10.8	2.56e-03	0	44	0	1163919360	21	6118
2026-01-29 00:43:39.53	208.43	15.85	-31.0	-35.3	10.5	5.32e-03	0	44	0	1169162240	22	5958
2026-01-29 00:43:42.54	208.37	15.52	-30.5	-34.4	11.5	1.05e-03	0	44	0	1174405120	21	5651
2026-01-29 00:43:45.55	208.32	15.19	-30.6	-34.6	11.4	8.67e-04	0	44	0	1180696576	21	5740
2026-01-29 00:43:48.55	208.27	14.87	-30.6	-34.8	11.2	1.41e-03	0	44	0	1185939456	21	5796
2026-01-29 00:43:51.56	208.22	14.55	-30.8	-35.2	10.9	1.92e-03	0	44	0	1192230912	21	6022
2026-01-29 00:43:54.57	208.18	14.24	-30.6	-34.8	11.2	1.42e-03	0	44	0	1197473792	21	5809
2026-01-29 00:43:57.59	208.13	13.93	-30.7	-35.0	11.0	2.50e-03	0	44	0	1202716672	21	5931
2026-01-29 00:44:00.59	208.09	13.63	-30.7	-35.0	11.0	2.05e-03	0	44	0	1209008128	21	5936
2026-01-29 00:44:03.60	208.04	13.32	-30.7	-35.3	10.7	2.18e-03	0	44	0	1214251008	21	6088
2026-01-29 00:44:06.61	208.00	13.02	-30.5	-34.5	11.3	1.24e-03	0	44	0	1220542464	21	5720
2026-01-29 00:44:09.62	207.96	12.73	-30.5	-34.9	11.3	1.13e-03	0	44	0	1225785344	20	6019
2026-01-29 00:44:12.63	207.92	12.44	-30.5	-34.5	11.3	1.48e-03	0	44	0	1231028224	21	5695
2026-01-29 00:44:15.63	207.88	12.15	-30.5	-35.0	11.3	1.24e-03	0	44	0	1237319680	20	6034
2026-01-29 00:44:18.63	207.84	11.87	-30.5	-34.5	11.3	1.32e-03	0	44	0	1242562560	21	5696
2026-01-29 00:44:21.64	207.80	11.59	-30.5	-34.5	11.2	1.49e-03	0	44	0	1247805440	21	5720
2026-01-29 00:44:24.65	207.76	11.31	-30.5	-34.7	11.0	1.23e-03	0	44	0	1254096896	21	5808
2026-01-29 00:44:27.67	207.73	11.03	-30.5	-34.7	11.0	2.55e-03	0	44	0	1259339776	21	5837
2026-01-29 00:44:30.67	207.69	10.76	-30.4	-34.9	11.2	1.53e-03	0	44	0	1265631232	20	6036
2026-01-29 00:44:33.68	207.66	10.49	-30.6	-35.0	10.7	4.29e-03	0	44	0	1270874112	21	5998
2026-01-29 00:44:36.69	207.62	10.23	-30.5	-35.0	11.1	1.49e-03	0	44	0	1276116992	20	6093
2026-01-29 00:44:39.70	207.59	9.96	-30.5	-35.1	11.0	1.54e-03	0	44	0	1282408448	20	6115
2026-01-29 00:44:42.72	207.56	9.70	-30.6	-35.0	10.7	2.59e-03	0	44	0	1287651328	21	5988
2026-01-29 00:44:45.72	207.52	9.44	-30.7	-35.5	10.3	4.63e-03	0	44	0	1292894208	21	6224
2026-01-29 00:44:48.72	207.49	9.19	-30.8	-35.9	9.9	6.96e-03	0	44	0	1299185664	21	6481
2026-01-29 00:44:51.73	207.46	8.94	-31.0	-36.4	9.5	1.39e-02	0	44	0	1304428544	21	6723
2026-01-29 00:44:54.75	207.43	8.69	-30.7	-35.3	10.3	6.67e-03	0	44	0	1310720000	21	6178
2026-01-29 00:44:57.77	207.40	8.44	-30.8	-35.8	9.9	6.40e-03	0	44	0	1315962880	21	6429
2026-01-29 00:45:00.78	207.38	8.19	-30.7	-35.7	9.9	9.99e-03	0	44	0	1321205760	21	6401
2026-01-29 00:45:03.80	207.35	7.95	-30.8	-36.1	9.6	1.14e-02	0	44	0	1327497216	21	6603
2026-01-29 00:45:06.82	207.32	7.71	-30.9	-36.2	9.5	1.53e-02	0	44	0	1332740096	21	6673
2026-01-29 00:45:09.83	207.29	7.47	-30.9	-36.4	9.3	2.04e-02	0	44	0	1339031552	21	6793
2026-01-29 00:45:12.84	207.27	7.23	-30.9	-36.0	9.2	1.93e-02	0	43	0	1344274432	22	6476
2026-01-29 00:45:15.85	207.24	7.00	-33.0	-47.3	3.8	1.49e+00	0	44	104	1347420160	26	18532

#Closed at: 2026-01-29 00:45:18
#Recorded file [1347 MB]: D:/data/31010_260129_033315.dat