passes_logs/2026/01/29/R2M6_AANII_01/R2M6_AANII_01__20260129_082702_SUOMI_NPP_rec.log

#Pass ID: 20260129_082702_SUOMI NPP
#Satellite: SUOMI NPP
#Configuration: NPP
#almurnet v.1.7.20240730
#Start time: 2026-01-29 08:27:01

#Version: 2.2.20231116
#Station: R2M6_AANII_01
#Location: 30.233357 lon 59.946436 lat
#TLE: 1 37849U 11061A   26027.93236865  .00000148  00000+0  91411-4 0  9991
#TLE: 2 37849  98.7823 329.8704 0002085  41.3231 318.8102 14.19530777738546

#Time	Az	El	Level	Level2	SNR	BER	BlckErr	Temp	State	Recorded	gain1	gain2
2026-01-29 08:27:01.98	99.84	6.99	-31.8	-43.8	3.7	1.50e+00	0	40	0	0	24	14327
2026-01-29 08:27:04.99	99.56	7.18	-31.7	-43.6	3.8	1.49e+00	0	40	104	0	24	14152
2026-01-29 08:27:08.00	99.28	7.37	-31.5	-43.0	3.8	1.49e+00	0	40	104	0	24	13571
2026-01-29 08:27:11.02	98.99	7.57	-31.3	-41.5	3.8	1.49e+00	0	41	104	0	24	11574
2026-01-29 08:27:14.04	98.70	7.76	-31.3	-39.4	4.4	1.31e+00	0	41	0	1048576	23	9155
2026-01-29 08:27:17.04	98.40	7.95	-31.4	-40.2	4.2	1.20e+00	0	41	0	6291456	23	9942
2026-01-29 08:27:20.05	98.10	8.15	-31.7	-43.3	3.8	1.49e+00	0	41	104	6291456	23	13709
2026-01-29 08:27:23.06	97.80	8.35	-31.7	-43.9	3.8	1.49e+00	0	41	104	6291456	23	14654
2026-01-29 08:27:26.08	97.49	8.54	-31.6	-43.9	3.8	1.49e+00	0	41	104	6291456	23	14867
2026-01-29 08:27:29.10	97.17	8.74	-31.4	-43.5	3.8	1.49e+00	0	41	104	6291456	23	14449
2026-01-29 08:27:32.11	96.86	8.94	-31.5	-43.6	3.8	1.49e+00	0	41	104	6291456	23	14551
2026-01-29 08:27:35.11	96.54	9.14	-31.5	-43.5	3.8	1.49e+00	0	41	104	6291456	23	14432
2026-01-29 08:27:38.12	96.21	9.34	-31.3	-43.1	3.8	1.49e+00	0	41	104	6291456	23	14086
2026-01-29 08:27:41.14	95.88	9.54	-31.2	-42.7	3.8	1.49e+00	0	41	104	6291456	23	13550
2026-01-29 08:27:44.14	95.54	9.74	-31.3	-42.7	3.8	1.49e+00	0	41	104	6291456	23	13341
2026-01-29 08:27:47.15	95.20	9.94	-31.5	-41.0	3.9	1.49e+00	0	41	104	6291456	23	10716
2026-01-29 08:27:50.16	94.86	10.15	-31.4	-36.5	6.8	2.97e-01	0	41	104	6291456	23	6498
2026-01-29 08:27:53.17	94.51	10.35	-31.8	-37.0	7.4	9.66e-02	0	41	0	5242880	23	6542
2026-01-29 08:27:56.18	94.16	10.56	-32.2	-38.0	6.4	3.29e-01	0	42	0	10485760	24	7009
2026-01-29 08:27:59.19	93.80	10.76	-32.2	-37.1	7.4	9.42e-02	0	42	0	16777216	24	6391
2026-01-29 08:28:02.21	93.43	10.97	-31.7	-35.1	9.2	2.14e-02	0	42	0	22020096	24	5300
2026-01-29 08:28:05.22	93.06	11.17	-31.0	-32.8	11.3	1.79e-03	0	42	0	27262976	23	4438
2026-01-29 08:28:08.23	92.68	11.38	-30.7	-32.5	12.0	3.84e-04	0	42	0	33554432	22	4413
2026-01-29 08:28:11.25	92.30	11.59	-30.9	-33.0	11.6	6.65e-04	0	42	0	38797312	22	4584
2026-01-29 08:28:14.24	91.92	11.79	-30.8	-32.6	12.0	3.96e-04	0	42	0	44040192	22	4430
2026-01-29 08:28:17.25	91.52	12.00	-31.0	-33.3	11.6	6.68e-04	0	42	0	50331648	22	4663
2026-01-29 08:28:20.27	91.13	12.21	-31.3	-34.2	11.0	1.92e-03	0	42	0	55574528	22	4995
2026-01-29 08:28:23.29	90.72	12.42	-31.4	-34.6	10.7	2.66e-03	0	42	0	61865984	22	5165
2026-01-29 08:28:26.30	90.31	12.63	-31.9	-35.6	9.7	9.20e-03	0	42	0	67108864	23	5523
2026-01-29 08:28:29.32	89.89	12.84	-31.7	-34.9	10.2	7.52e-03	0	42	0	72351744	23	5200
2026-01-29 08:28:32.32	89.47	13.05	-31.4	-33.7	11.1	2.33e-03	0	42	0	78643200	23	4706
2026-01-29 08:28:35.34	89.05	13.26	-31.6	-34.4	10.7	1.89e-03	0	42	0	83886080	23	4952
2026-01-29 08:28:38.35	88.61	13.47	-31.3	-33.3	11.4	1.02e-03	0	42	0	90177536	23	4579
2026-01-29 08:28:41.36	88.17	13.68	-31.2	-33.3	11.3	1.20e-03	0	42	0	95420416	23	4611
2026-01-29 08:28:44.36	87.73	13.89	-31.3	-33.6	11.2	2.04e-03	0	42	0	100663296	23	4704
2026-01-29 08:28:47.37	87.27	14.10	-31.0	-32.7	11.9	5.58e-04	0	42	0	106954752	23	4378
2026-01-29 08:28:50.37	86.82	14.31	-31.1	-33.2	11.5	6.19e-04	0	42	0	112197632	23	4575
2026-01-29 08:28:53.38	86.35	14.52	-31.3	-33.7	11.2	1.85e-03	0	42	0	117440512	23	4740
2026-01-29 08:28:56.40	85.87	14.73	-31.0	-32.8	11.7	4.75e-04	0	42	0	123731968	23	4428
2026-01-29 08:28:59.40	85.40	14.94	-31.1	-33.1	11.6	5.44e-04	0	42	0	128974848	23	4513
2026-01-29 08:29:02.41	84.91	15.15	-31.2	-33.4	11.4	1.26e-03	0	42	0	135266304	23	4635
2026-01-29 08:29:05.42	84.42	15.36	-31.2	-33.2	11.5	8.15e-04	0	42	0	140509184	23	4576
2026-01-29 08:29:08.43	83.92	15.57	-31.4	-33.8	11.1	1.78e-03	0	42	0	145752064	23	4789
2026-01-29 08:29:11.44	83.41	15.78	-31.1	-33.0	11.7	4.32e-04	0	42	0	152043520	23	4477
2026-01-29 08:29:14.44	82.90	15.98	-31.1	-33.1	11.7	6.96e-04	0	42	0	157286400	23	4513
2026-01-29 08:29:17.45	82.37	16.19	-31.2	-33.4	11.5	1.02e-03	0	42	0	162529280	23	4621
2026-01-29 08:29:20.45	81.85	16.40	-31.3	-33.7	11.3	9.17e-04	0	42	0	168820736	23	4725
2026-01-29 08:29:23.47	81.31	16.60	-31.3	-33.5	11.4	1.07e-03	0	42	0	174063616	23	4647
2026-01-29 08:29:26.49	80.76	16.81	-31.0	-32.8	12.0	2.94e-04	0	43	0	180355072	23	4417
2026-01-29 08:29:29.50	80.21	17.01	-30.8	-32.4	12.5	1.88e-04	0	42	0	185597952	22	4366
2026-01-29 08:29:32.51	79.65	17.22	-30.6	-32.1	12.8	1.03e-04	0	42	0	190840832	22	4265
2026-01-29 08:29:35.51	79.08	17.42	-30.6	-32.0	12.7	5.87e-05	0	42	0	197132288	22	4253
2026-01-29 08:29:38.52	78.51	17.62	-30.4	-31.5	13.2	3.50e-05	0	42	0	202375168	22	4083
2026-01-29 08:29:41.53	77.93	17.82	-30.4	-31.5	13.2	2.51e-05	0	42	0	207618048	22	4067
2026-01-29 08:29:44.54	77.34	18.02	-30.5	-31.7	13.1	2.28e-05	0	42	0	213909504	22	4130
2026-01-29 08:29:47.53	76.74	18.21	-30.5	-31.7	13.1	5.18e-05	0	43	0	219152384	22	4123
2026-01-29 08:29:50.54	76.14	18.41	-30.0	-30.7	14.1	7.00e-07	0	42	0	225443840	21	3912
2026-01-29 08:29:53.55	75.52	18.60	-29.8	-30.8	14.4	7.00e-07	0	42	0	230686720	20	4027
2026-01-29 08:29:56.55	74.90	18.79	-29.7	-30.7	14.5	7.00e-07	0	43	0	235929600	20	3997
2026-01-29 08:29:59.56	74.27	18.98	-29.8	-30.9	14.3	2.20e-06	0	42	0	242221056	20	4056
2026-01-29 08:30:02.57	73.64	19.16	-30.1	-31.7	13.8	3.00e-06	0	42	0	247463936	20	4311
2026-01-29 08:30:05.59	72.99	19.35	-30.0	-31.4	14.0	4.50e-06	0	43	0	253755392	20	4200
2026-01-29 08:30:08.60	72.34	19.53	-29.9	-31.0	14.2	3.00e-06	0	42	0	258998272	20	4102
2026-01-29 08:30:11.61	71.68	19.71	-29.9	-30.9	14.3	2.20e-06	0	43	0	264241152	20	4053
2026-01-29 08:30:14.62	71.01	19.88	-29.7	-30.5	14.6	7.00e-07	0	43	0	270532608	20	3954
2026-01-29 08:30:17.63	70.33	20.06	-29.6	-30.2	14.8	0.00e+00	0	43	0	275775488	20	3862
2026-01-29 08:30:20.64	69.65	20.23	-29.5	-29.9	15.0	0.00e+00	0	42	0	281018368	20	3781
2026-01-29 08:30:23.64	68.96	20.39	-29.5	-30.5	15.0	0.00e+00	0	43	0	287309824	19	4005
2026-01-29 08:30:26.64	68.26	20.56	-29.4	-30.1	15.3	0.00e+00	0	43	0	292552704	19	3912
2026-01-29 08:30:29.65	67.56	20.72	-29.6	-30.8	14.9	7.00e-07	0	42	0	298844160	19	4093
2026-01-29 08:30:32.67	66.84	20.87	-29.6	-30.7	14.9	0.00e+00	0	43	0	304087040	19	4057
2026-01-29 08:30:35.68	66.12	21.03	-29.7	-30.8	14.8	0.00e+00	0	43	0	309329920	19	4100
2026-01-29 08:30:38.68	65.40	21.18	-29.5	-30.4	15.1	0.00e+00	0	42	0	315621376	19	3988
2026-01-29 08:30:41.69	64.66	21.32	-29.5	-30.4	15.1	0.00e+00	0	43	0	320864256	19	3989
2026-01-29 08:30:44.70	63.92	21.46	-29.3	-29.9	15.4	0.00e+00	0	43	0	326107136	19	3856
2026-01-29 08:30:47.71	63.17	21.60	-28.9	-29.0	16.0	0.00e+00	0	42	0	332398592	19	3609
2026-01-29 08:30:50.73	62.42	21.73	-29.2	-29.7	15.6	0.00e+00	0	43	0	337641472	19	3778
2026-01-29 08:30:53.73	61.66	21.85	-29.2	-29.4	15.7	0.00e+00	0	42	0	343932928	19	3725
2026-01-29 08:30:56.74	60.89	21.98	-29.6	-30.6	15.1	0.00e+00	0	43	0	349175808	19	4026
2026-01-29 08:30:59.75	60.12	22.09	-30.0	-31.2	14.3	7.00e-07	0	43	0	354418688	20	4106
2026-01-29 08:31:02.76	59.34	22.20	-30.6	-32.2	13.3	1.44e-05	0	43	0	360710144	21	4336
2026-01-29 08:31:05.78	58.55	22.31	-30.8	-32.7	13.1	3.20e-05	0	43	0	365953024	21	4492
2026-01-29 08:31:08.79	57.76	22.41	-30.4	-31.8	13.4	7.60e-06	0	43	0	372244480	21	4230
2026-01-29 08:31:11.80	56.97	22.51	-30.2	-31.2	13.9	6.10e-06	0	43	0	377487360	21	4046
2026-01-29 08:31:14.80	56.17	22.60	-30.2	-31.1	14.0	5.30e-06	0	43	0	382730240	21	4013
2026-01-29 08:31:17.81	55.37	22.68	-30.3	-31.6	13.7	4.50e-06	0	43	0	389021696	21	4163
2026-01-29 08:31:20.82	54.56	22.76	-30.5	-32.1	13.4	2.28e-05	0	43	0	394264576	21	4323
2026-01-29 08:31:23.83	53.75	22.83	-30.4	-31.8	13.6	6.10e-06	0	43	0	399507456	21	4204
2026-01-29 08:31:26.85	52.93	22.90	-30.7	-32.6	13.1	3.05e-05	0	43	0	405798912	21	4478
2026-01-29 08:31:29.86	52.11	22.96	-30.9	-33.1	12.7	6.63e-05	0	43	0	411041792	21	4651
2026-01-29 08:31:32.88	51.29	23.02	-30.7	-32.7	13.1	2.97e-05	0	43	0	417333248	21	4513
2026-01-29 08:31:35.89	50.46	23.06	-30.9	-33.1	12.7	6.71e-05	0	43	0	422576128	21	4640
2026-01-29 08:31:38.92	49.63	23.11	-31.4	-34.2	11.7	5.03e-04	0	43	0	427819008	22	4943
2026-01-29 08:31:41.93	48.80	23.14	-31.4	-33.7	11.6	1.18e-03	0	43	0	434110464	23	4695
2026-01-29 08:31:44.94	47.97	23.17	-30.7	-31.9	13.1	3.20e-05	0	43	0	439353344	22	4177
2026-01-29 08:31:47.95	47.14	23.19	-30.5	-31.4	13.5	8.30e-06	0	43	0	445644800	22	4024
2026-01-29 08:31:50.96	46.31	23.21	-30.6	-31.8	13.2	3.05e-05	0	43	0	450887680	22	4142
2026-01-29 08:31:53.97	45.47	23.22	-30.4	-31.4	13.5	2.21e-05	0	43	0	456130560	22	4027
2026-01-29 08:31:56.97	44.64	23.22	-30.5	-31.6	13.4	1.22e-05	0	43	0	462422016	22	4065
2026-01-29 08:31:59.97	43.81	23.22	-30.4	-31.2	13.6	9.90e-06	0	43	0	467664896	22	3958
2026-01-29 08:32:02.97	42.98	23.21	-30.3	-31.5	13.7	1.50e-06	0	43	0	472907776	21	4136
2026-01-29 08:32:05.97	42.15	23.19	-30.2	-31.1	14.0	5.30e-06	0	43	0	479199232	21	4020
2026-01-29 08:32:08.97	41.32	23.17	-30.2	-31.0	14.0	7.00e-07	0	43	0	484442112	21	3987
2026-01-29 08:32:11.98	40.49	23.14	-30.3	-31.5	13.8	5.30e-06	0	43	0	489684992	21	4105
2026-01-29 08:32:14.99	39.66	23.10	-29.5	-29.9	15.1	0.00e+00	0	43	0	495976448	20	3745
2026-01-29 08:32:18.00	38.84	23.06	-29.6	-30.2	14.9	0.00e+00	0	43	0	501219328	20	3834
2026-01-29 08:32:21.00	38.02	23.01	-28.9	-28.8	16.0	0.00e+00	0	43	0	507510784	19	3569
2026-01-29 08:32:24.01	37.20	22.96	-29.1	-29.4	15.7	0.00e+00	0	43	0	512753664	19	3708
2026-01-29 08:32:27.02	36.38	22.90	-29.2	-29.7	15.5	0.00e+00	0	42	0	517996544	19	3785
2026-01-29 08:32:30.02	35.57	22.83	-29.4	-30.1	15.3	0.00e+00	0	43	0	524288000	19	3899
2026-01-29 08:32:33.03	34.76	22.76	-29.4	-30.0	15.4	0.00e+00	0	43	0	529530880	19	3862
2026-01-29 08:32:36.04	33.95	22.68	-29.3	-29.9	15.4	0.00e+00	0	43	0	535822336	19	3838
2026-01-29 08:32:39.05	33.15	22.60	-29.4	-30.1	15.2	0.00e+00	0	43	0	541065216	19	3888
2026-01-29 08:32:42.06	32.35	22.50	-29.9	-31.3	14.5	7.00e-07	0	42	0	546308096	19	4238
2026-01-29 08:32:45.07	31.56	22.41	-29.7	-30.2	14.8	0.00e+00	0	43	0	552599552	20	3842
2026-01-29 08:32:48.08	30.77	22.31	-29.8	-30.7	14.5	0.00e+00	0	43	0	557842432	20	3984
2026-01-29 08:32:51.09	29.99	22.20	-30.1	-31.5	14.0	3.80e-06	0	43	0	563085312	20	4204
2026-01-29 08:32:54.10	29.21	22.09	-30.5	-32.4	13.4	8.30e-06	0	43	0	569376768	20	4507
2026-01-29 08:32:57.11	28.44	21.97	-31.0	-33.3	12.5	9.53e-05	0	43	0	574619648	21	4699
2026-01-29 08:33:00.11	27.68	21.85	-31.1	-33.2	12.3	1.45e-04	0	43	0	580911104	22	4571
2026-01-29 08:33:03.13	26.92	21.72	-30.9	-32.7	12.5	9.23e-05	0	43	0	586153984	22	4427
2026-01-29 08:33:06.14	26.16	21.59	-30.7	-32.0	13.0	4.11e-05	0	43	0	591396864	22	4210
2026-01-29 08:33:09.15	25.42	21.46	-30.8	-32.4	12.6	1.17e-04	0	43	0	597688320	22	4333
2026-01-29 08:33:12.14	24.68	21.32	-30.2	-31.4	13.6	9.10e-06	0	43	0	602931200	21	4104
2026-01-29 08:33:15.15	23.95	21.17	-30.1	-31.0	13.9	4.50e-06	0	43	0	608174080	21	3981
2026-01-29 08:33:18.16	23.23	21.02	-30.2	-31.4	13.6	3.00e-06	0	43	0	614465536	21	4104
2026-01-29 08:33:21.16	22.51	20.87	-30.9	-33.3	12.4	1.14e-04	0	43	0	619708416	21	4737
2026-01-29 08:33:24.17	21.80	20.72	-31.2	-33.7	11.7	4.34e-04	0	43	0	625999872	22	4776
2026-01-29 08:33:27.19	21.09	20.56	-30.8	-32.4	12.6	9.84e-05	0	43	0	631242752	22	4340
2026-01-29 08:33:30.20	20.40	20.39	-31.3	-33.9	11.5	4.66e-04	0	43	0	636485632	22	4877
2026-01-29 08:33:33.20	19.71	20.23	-31.6	-34.3	10.9	2.29e-03	0	43	0	642777088	23	4940
2026-01-29 08:33:36.22	19.03	20.06	-31.0	-32.6	12.1	2.93e-04	0	43	0	648019968	23	4333
2026-01-29 08:33:39.23	18.36	19.88	-31.2	-33.1	11.8	4.64e-04	0	43	0	654311424	23	4474
2026-01-29 08:33:42.25	17.69	19.71	-30.3	-31.2	13.4	1.83e-05	0	43	0	659554304	22	3960
2026-01-29 08:33:45.25	17.03	19.53	-29.8	-30.3	14.2	7.00e-07	0	43	0	664797184	21	3803
2026-01-29 08:33:48.27	16.38	19.35	-29.3	-29.6	14.9	0.00e+00	0	43	0	671088640	20	3703
2026-01-29 08:33:51.28	15.74	19.16	-29.3	-29.9	15.0	0.00e+00	0	43	0	676331520	19	3876
2026-01-29 08:33:54.29	15.11	18.98	-29.5	-30.6	14.6	0.00e+00	0	43	0	681574400	19	4054
2026-01-29 08:33:57.29	14.48	18.79	-30.2	-31.9	13.5	1.06e-05	0	43	0	687865856	20	4366
2026-01-29 08:34:00.30	13.86	18.60	-30.6	-32.6	12.5	7.17e-05	0	43	0	693108736	21	4533
2026-01-29 08:34:03.30	13.25	18.41	-30.6	-32.6	12.6	8.62e-05	0	43	0	699400192	21	4519
2026-01-29 08:34:06.30	12.65	18.22	-30.4	-31.9	13.0	5.34e-05	0	43	0	704643072	21	4285
2026-01-29 08:34:09.31	12.06	18.02	-29.7	-30.5	14.2	7.00e-07	0	43	0	709885952	20	3966
2026-01-29 08:34:12.33	11.47	17.82	-29.5	-30.1	14.5	0.00e+00	0	43	0	716177408	20	3851
2026-01-29 08:34:15.33	10.89	17.63	-30.0	-31.3	13.8	4.50e-06	0	43	0	721420288	20	4182
2026-01-29 08:34:18.32	10.32	17.43	-30.2	-31.8	13.4	1.14e-05	0	43	0	726663168	20	4345
2026-01-29 08:34:21.34	9.76	17.22	-30.0	-31.3	13.7	5.30e-06	0	43	0	732954624	20	4194
2026-01-29 08:34:24.36	9.20	17.02	-30.2	-31.8	13.4	1.98e-05	0	43	0	738197504	20	4353
2026-01-29 08:34:27.37	8.65	16.82	-30.1	-31.6	13.6	1.22e-05	0	43	0	744488960	20	4291
2026-01-29 08:34:30.37	8.11	16.61	-30.0	-31.5	13.7	1.06e-05	0	43	0	749731840	20	4241
2026-01-29 08:34:33.39	7.58	16.41	-29.8	-30.9	14.0	2.20e-06	0	43	0	754974720	20	4068
2026-01-29 08:34:36.42	7.05	16.20	-29.9	-30.9	14.0	1.50e-06	0	43	0	761266176	20	4080
2026-01-29 08:34:39.43	6.53	15.99	-30.2	-31.8	13.4	6.10e-06	0	43	0	766509056	20	4339
2026-01-29 08:34:42.45	6.01	15.79	-29.6	-30.2	14.5	0.00e+00	0	43	0	772800512	20	3861
2026-01-29 08:34:45.46	5.51	15.58	-29.5	-29.9	14.6	7.00e-07	0	43	0	778043392	20	3776
2026-01-29 08:34:48.47	5.01	15.37	-29.5	-30.5	14.6	7.00e-07	0	43	0	783286272	19	4037
2026-01-29 08:34:51.47	4.52	15.16	-29.9	-31.4	14.1	3.00e-06	0	43	0	789577728	19	4307
2026-01-29 08:34:54.48	4.04	14.95	-29.9	-31.2	13.8	5.30e-06	0	43	0	794820608	20	4142
2026-01-29 08:34:57.49	3.56	14.74	-29.7	-30.6	14.1	2.20e-06	0	43	0	800063488	20	3990
2026-01-29 08:35:00.51	3.09	14.53	-29.3	-29.5	14.8	7.00e-07	0	43	0	806354944	20	3682
2026-01-29 08:35:03.52	2.63	14.32	-29.6	-30.7	14.4	0.00e+00	0	43	0	811597824	19	4107
2026-01-29 08:35:06.53	2.17	14.11	-30.1	-31.7	13.4	1.22e-05	0	43	0	817889280	20	4301
2026-01-29 08:35:09.54	1.72	13.90	-30.3	-32.1	13.1	2.44e-05	0	43	0	823132160	20	4433
2026-01-29 08:35:12.55	1.28	13.69	-30.2	-31.8	13.4	2.21e-05	0	43	0	828375040	20	4341
2026-01-29 08:35:15.57	0.84	13.48	-30.0	-31.4	13.6	7.60e-06	0	43	0	834666496	20	4211
2026-01-29 08:35:18.58	0.41	13.28	-29.6	-30.4	14.1	1.50e-06	0	43	0	839909376	20	3937
2026-01-29 08:35:21.59	359.99	13.07	-29.5	-30.2	14.3	1.50e-06	0	43	0	846200832	20	3862
2026-01-29 08:35:24.60	359.57	12.86	-30.1	-31.6	13.4	5.30e-06	0	43	0	851443712	20	4286
2026-01-29 08:35:27.62	359.15	12.65	-30.5	-32.4	12.5	1.01e-04	0	43	0	856686592	21	4466
2026-01-29 08:35:30.63	358.75	12.44	-30.4	-32.1	12.7	7.32e-05	0	43	0	862978048	21	4364
2026-01-29 08:35:33.64	358.35	12.23	-30.1	-31.2	13.3	3.81e-05	0	43	0	868220928	21	4077
2026-01-29 08:35:36.65	357.95	12.02	-30.0	-30.9	13.4	1.37e-05	0	43	0	873463808	21	4006
2026-01-29 08:35:39.66	357.56	11.82	-30.2	-31.3	13.2	2.05e-05	0	43	0	879755264	21	4122
2026-01-29 08:35:42.67	357.18	11.61	-30.0	-30.8	13.5	1.22e-05	0	43	0	884998144	21	3981
2026-01-29 08:35:45.67	356.80	11.41	-30.0	-30.9	13.4	9.10e-06	0	43	0	891289600	21	3989
2026-01-29 08:35:48.68	356.43	11.20	-30.3	-31.7	12.8	3.50e-05	0	43	0	896532480	21	4254
2026-01-29 08:35:51.68	356.06	11.00	-30.5	-32.5	12.3	2.41e-04	0	43	0	901775360	21	4513
2026-01-29 08:35:54.69	355.70	10.79	-30.4	-32.3	12.4	2.17e-04	0	43	0	908066816	21	4436
2026-01-29 08:35:57.71	355.34	10.59	-30.7	-33.1	11.8	3.13e-04	0	43	0	913309696	21	4730
2026-01-29 08:36:00.72	354.99	10.38	-30.8	-33.4	11.6	7.97e-04	0	43	0	918552576	21	4844
2026-01-29 08:36:03.74	354.65	10.18	-31.1	-33.6	11.1	1.63e-03	0	43	0	924844032	22	4849
2026-01-29 08:36:06.75	354.30	9.98	-30.9	-33.2	11.4	1.35e-03	0	43	0	930086912	22	4676
2026-01-29 08:36:09.76	353.97	9.78	-30.7	-32.4	11.9	4.30e-04	0	43	0	936378368	22	4391
2026-01-29 08:36:12.77	353.63	9.58	-30.7	-32.5	11.9	7.29e-04	0	43	0	941621248	22	4410
2026-01-29 08:36:15.78	353.31	9.38	-30.8	-32.6	11.8	4.27e-04	0	43	0	946864128	22	4456
2026-01-29 08:36:18.79	352.98	9.18	-31.1	-33.8	10.9	1.52e-03	0	43	0	953155584	22	4919
2026-01-29 08:36:21.80	352.67	8.98	-31.2	-34.0	10.8	3.68e-03	0	43	0	958398464	22	5002
2026-01-29 08:36:24.81	352.35	8.78	-31.1	-33.7	11.0	1.78e-03	0	43	0	964689920	22	4866
2026-01-29 08:36:27.82	352.04	8.58	-30.8	-33.0	11.4	1.11e-03	0	43	0	969932800	22	4612
2026-01-29 08:36:30.82	351.74	8.39	-30.5	-32.0	12.1	2.84e-04	0	43	0	975175680	22	4286
2026-01-29 08:36:33.83	351.44	8.19	-30.6	-32.3	11.8	4.14e-04	0	43	0	981467136	22	4382
2026-01-29 08:36:36.85	351.14	8.00	-30.7	-32.5	11.7	6.74e-04	0	43	0	986710016	22	4466
2026-01-29 08:36:39.86	350.85	7.80	-30.9	-33.3	11.1	1.12e-03	0	43	0	991952896	22	4730
2026-01-29 08:36:42.87	350.56	7.61	-31.1	-34.1	10.4	2.86e-03	0	43	0	998244352	22	5071
2026-01-29 08:36:45.88	350.27	7.42	-31.3	-34.7	10.0	6.47e-03	0	43	0	1003487232	22	5308
2026-01-29 08:36:48.89	349.99	7.22	-31.3	-34.8	9.9	8.70e-03	0	43	0	1009778688	22	5374
2026-01-29 08:36:51.89	349.71	7.03	-33.3	-44.1	3.8	9.21e-01	0	43	104	1013972992	26	12468

#Closed at: 2026-01-29 08:36:54
#Recorded file [1013 MB]: D:/data/31010_260129_112750.dat