passes_logs/2025/01/03/PPK-1/PPK-1__20250103_110611_TY-41_rec.log

#Pass ID: 20250103_110611_TY-41
#Satellite: TY-41
#Configuration: TY-39
#almurnet v.1.7.20230919.trace
#Start time: 2025-01-03 11:06:10

#Version: 2.2.20231116
#Station: PPK-1
#Location: 158.6 lon 53.06666 lat
#TLE: 1 61231U 24173E   25002.99805556  .00008016  00000-0  38191-3 0 09996
#TLE: 2 61231 097.4122 080.1133 0001929 100.1647 279.0730 15.19192901000013

#Time	Az	El	Level	Level2	SNR	BER	BlckErr	Temp	State
2025-01-03 11:06:10.42	161.29	7.94	-62.9	-69.0	3.6	0.00e+00	0	46	0
2025-01-03 11:06:12.31	161.27	8.12	-63.1	-69.2	3.6	0.00e+00	0	47	104
2025-01-03 11:06:14.21	161.26	8.31	-63.0	-69.2	3.6	0.00e+00	0	48	104
2025-01-03 11:06:16.10	161.24	8.49	-63.1	-69.2	3.7	0.00e+00	0	48	104
2025-01-03 11:06:18.00	161.23	8.67	-63.1	-69.2	3.7	0.00e+00	0	48	104
2025-01-03 11:06:19.89	161.21	8.86	-63.1	-69.2	3.7	0.00e+00	0	48	104
2025-01-03 11:06:21.79	161.19	9.05	-63.1	-69.2	3.6	0.00e+00	0	49	104
2025-01-03 11:06:23.69	161.18	9.24	-63.1	-69.2	3.6	0.00e+00	0	49	104
2025-01-03 11:06:25.59	161.16	9.43	-63.0	-69.0	3.6	0.00e+00	0	49	104
2025-01-03 11:06:27.49	161.14	9.63	-63.1	-69.1	3.7	0.00e+00	0	50	104
2025-01-03 11:06:29.39	161.13	9.83	-63.1	-69.2	3.7	0.00e+00	0	50	104
2025-01-03 11:06:31.29	161.11	10.02	-63.1	-69.2	3.6	0.00e+00	0	50	104
2025-01-03 11:06:33.19	161.09	10.23	-63.1	-69.2	3.6	0.00e+00	0	50	104
2025-01-03 11:06:35.09	161.07	10.43	-63.1	-69.2	3.6	0.00e+00	0	51	104
2025-01-03 11:06:36.98	161.05	10.63	-63.1	-69.1	3.6	0.00e+00	0	51	104
2025-01-03 11:06:38.88	161.03	10.84	-63.1	-69.2	3.7	0.00e+00	0	51	104
2025-01-03 11:06:40.78	161.01	11.05	-63.1	-69.2	3.7	0.00e+00	0	52	104
2025-01-03 11:06:42.67	160.99	11.26	-63.2	-69.3	3.7	0.00e+00	0	52	104
2025-01-03 11:06:44.57	160.97	11.48	-63.2	-69.2	3.6	0.00e+00	0	52	104
2025-01-03 11:06:46.47	160.95	11.70	-63.2	-69.3	3.6	0.00e+00	0	52	104
2025-01-03 11:06:48.37	160.92	11.92	-63.1	-69.2	3.6	0.00e+00	0	53	104
2025-01-03 11:06:50.27	160.90	12.14	-63.1	-69.2	3.7	0.00e+00	0	53	104
2025-01-03 11:06:52.17	160.88	12.37	-63.2	-69.3	3.7	0.00e+00	0	53	104
2025-01-03 11:06:54.07	160.85	12.59	-63.2	-69.3	3.6	0.00e+00	0	53	104
2025-01-03 11:06:55.97	160.83	12.83	-63.0	-69.1	3.6	0.00e+00	0	53	104
2025-01-03 11:06:57.87	160.81	13.06	-63.1	-69.2	3.6	0.00e+00	0	54	104
2025-01-03 11:06:59.77	160.78	13.30	-63.2	-69.3	3.6	0.00e+00	0	54	104
2025-01-03 11:07:01.67	160.75	13.54	-63.1	-69.2	3.7	0.00e+00	0	54	104
2025-01-03 11:07:03.56	160.73	13.78	-63.0	-69.1	3.7	0.00e+00	0	55	104
2025-01-03 11:07:05.46	160.70	14.03	-63.1	-69.1	3.6	0.00e+00	0	55	104
2025-01-03 11:07:07.36	160.67	14.27	-63.1	-69.2	3.6	0.00e+00	0	55	104
2025-01-03 11:07:09.26	160.64	14.53	-63.1	-69.2	3.6	0.00e+00	0	55	104
2025-01-03 11:07:11.16	160.61	14.78	-63.1	-69.2	3.6	0.00e+00	0	56	104
2025-01-03 11:07:13.06	160.58	15.04	-63.1	-69.2	3.7	0.00e+00	0	56	104
2025-01-03 11:07:14.96	160.55	15.31	-63.1	-69.1	3.7	0.00e+00	0	56	104
2025-01-03 11:07:16.86	160.52	15.58	-63.2	-69.3	3.7	0.00e+00	0	56	104
2025-01-03 11:07:18.76	160.49	15.85	-63.2	-69.3	3.6	0.00e+00	0	56	104
2025-01-03 11:07:20.66	160.46	16.12	-63.1	-69.1	3.6	0.00e+00	0	57	104
2025-01-03 11:07:22.56	160.42	16.40	-63.2	-69.2	3.6	0.00e+00	0	57	104
2025-01-03 11:07:24.45	160.39	16.68	-63.1	-69.1	3.7	0.00e+00	0	57	104
2025-01-03 11:07:26.35	160.35	16.97	-63.1	-69.2	3.7	0.00e+00	0	57	104
2025-01-03 11:07:28.25	160.32	17.26	-63.0	-69.1	3.7	0.00e+00	0	57	104
2025-01-03 11:07:30.14	160.28	17.56	-63.0	-69.2	3.6	0.00e+00	0	58	104
2025-01-03 11:07:32.04	160.24	17.86	-63.1	-69.2	3.6	0.00e+00	0	58	104
2025-01-03 11:07:33.94	160.20	18.17	-63.2	-69.2	3.6	0.00e+00	0	58	104
2025-01-03 11:07:35.84	160.16	18.48	-63.2	-69.3	3.7	0.00e+00	0	58	104
2025-01-03 11:07:37.74	160.12	18.79	-63.2	-69.2	3.7	0.00e+00	0	58	104
2025-01-03 11:07:39.64	160.08	19.11	-63.2	-69.3	3.6	0.00e+00	0	59	104
2025-01-03 11:07:41.54	160.03	19.44	-63.1	-69.1	3.6	0.00e+00	0	59	104
2025-01-03 11:07:43.44	159.99	19.77	-63.2	-69.3	3.6	0.00e+00	0	59	104
2025-01-03 11:07:45.34	159.94	20.11	-63.1	-69.2	3.6	0.00e+00	0	59	104
2025-01-03 11:07:47.23	159.89	20.45	-63.0	-69.1	3.7	0.00e+00	0	59	104
2025-01-03 11:07:49.13	159.84	20.80	-63.1	-69.2	3.7	0.00e+00	0	59	104
2025-01-03 11:07:51.02	159.79	21.15	-63.2	-69.4	3.7	0.00e+00	0	60	104
2025-01-03 11:07:52.92	159.74	21.52	-63.2	-69.3	3.6	0.00e+00	0	60	104
2025-01-03 11:07:54.82	159.69	21.88	-63.1	-69.2	3.6	0.00e+00	0	60	104
2025-01-03 11:07:56.72	159.63	22.26	-63.1	-69.2	3.6	0.00e+00	0	60	104
2025-01-03 11:07:58.62	159.57	22.64	-63.0	-69.1	3.7	0.00e+00	0	60	104
2025-01-03 11:08:00.52	159.52	23.03	-63.1	-69.2	3.7	0.00e+00	0	60	104
2025-01-03 11:08:02.42	159.46	23.43	-63.2	-69.3	3.7	0.00e+00	0	60	104
2025-01-03 11:08:04.32	159.39	23.83	-63.1	-69.3	3.6	0.00e+00	0	60	104
2025-01-03 11:08:06.22	159.33	24.24	-63.1	-69.2	3.6	0.00e+00	0	61	104
2025-01-03 11:08:08.12	159.26	24.66	-63.2	-69.3	3.6	0.00e+00	0	61	104
2025-01-03 11:08:10.02	159.19	25.09	-63.0	-69.1	3.6	0.00e+00	0	61	104
2025-01-03 11:08:11.91	159.12	25.52	-63.1	-69.2	3.7	0.00e+00	0	61	104
2025-01-03 11:08:13.81	159.05	25.97	-63.2	-69.3	3.7	0.00e+00	0	61	104
2025-01-03 11:08:15.71	158.97	26.42	-63.2	-69.3	3.7	0.00e+00	0	62	104
2025-01-03 11:08:17.61	158.89	26.88	-63.2	-69.3	3.6	0.00e+00	0	62	104
2025-01-03 11:08:19.51	158.81	27.36	-63.1	-69.2	3.6	0.00e+00	0	62	104
2025-01-03 11:08:21.41	158.73	27.84	-63.1	-69.2	3.6	0.00e+00	0	62	104
2025-01-03 11:08:23.31	158.64	28.33	-63.1	-69.1	3.7	0.00e+00	0	62	104
2025-01-03 11:08:25.21	158.55	28.84	-63.2	-69.3	3.7	0.00e+00	0	62	104
2025-01-03 11:08:27.11	158.46	29.35	-63.1	-69.3	3.7	0.00e+00	0	62	104
2025-01-03 11:08:29.01	158.36	29.88	-63.1	-69.3	3.6	0.00e+00	0	62	104
2025-01-03 11:08:30.91	158.26	30.42	-63.1	-69.2	3.6	0.00e+00	0	62	104
2025-01-03 11:08:32.80	158.16	30.96	-63.1	-69.3	3.6	0.00e+00	0	62	104
2025-01-03 11:08:34.70	158.05	31.52	-63.1	-69.2	3.7	0.00e+00	0	62	104
2025-01-03 11:08:36.60	157.93	32.10	-63.1	-69.2	3.7	0.00e+00	0	62	104
2025-01-03 11:08:38.50	157.82	32.69	-63.2	-69.3	3.7	0.00e+00	0	62	104
2025-01-03 11:08:40.40	157.69	33.29	-63.2	-69.3	3.7	0.00e+00	0	63	104
2025-01-03 11:08:42.30	157.56	33.90	-63.2	-69.3	3.6	0.00e+00	0	63	104
2025-01-03 11:08:44.20	157.43	34.53	-63.1	-69.3	3.6	0.00e+00	0	63	104
2025-01-03 11:08:46.10	157.29	35.18	-63.1	-69.2	3.7	0.00e+00	0	63	104
2025-01-03 11:08:48.00	157.14	35.84	-63.1	-69.2	3.7	0.00e+00	0	63	104
2025-01-03 11:08:49.90	156.99	36.51	-63.1	-69.3	3.7	0.00e+00	0	64	104
2025-01-03 11:08:51.80	156.83	37.20	-63.2	-69.3	3.6	0.00e+00	0	63	104
2025-01-03 11:08:53.69	156.67	37.91	-63.1	-69.2	3.6	0.00e+00	0	63	104
2025-01-03 11:08:55.59	156.49	38.64	-63.1	-69.2	3.6	0.00e+00	0	64	104
2025-01-03 11:08:57.48	156.31	39.37	-63.2	-69.4	3.7	0.00e+00	0	64	104
2025-01-03 11:08:59.38	156.11	40.14	-63.2	-69.2	3.7	0.00e+00	0	64	104
2025-01-03 11:09:01.28	155.91	40.92	-63.1	-69.2	3.6	0.00e+00	0	64	104
2025-01-03 11:09:03.18	155.69	41.72	-63.2	-69.3	3.6	0.00e+00	0	64	104
2025-01-03 11:09:05.08	155.47	42.54	-63.1	-69.2	3.6	0.00e+00	0	64	104
2025-01-03 11:09:06.98	155.23	43.37	-63.1	-69.2	3.6	0.00e+00	0	64	104
2025-01-03 11:09:08.88	154.97	44.23	-63.2	-69.2	3.7	0.00e+00	0	64	104
2025-01-03 11:09:10.78	154.71	45.11	-63.1	-69.2	3.7	0.00e+00	0	64	104
2025-01-03 11:09:12.68	154.42	46.02	-63.2	-69.3	3.7	0.00e+00	0	65	104
2025-01-03 11:09:14.57	154.12	46.94	-63.2	-69.4	3.6	0.00e+00	0	65	104
2025-01-03 11:09:16.47	153.80	47.88	-63.2	-69.3	3.6	0.00e+00	0	65	104
2025-01-03 11:09:18.37	153.45	48.85	-63.2	-69.2	3.6	0.00e+00	0	65	104
2025-01-03 11:09:20.26	153.09	49.84	-63.2	-69.3	3.7	0.00e+00	0	65	104
2025-01-03 11:09:22.16	152.70	50.85	-63.2	-69.2	3.7	0.00e+00	0	65	104
2025-01-03 11:09:24.06	152.27	51.89	-63.1	-69.2	3.7	0.00e+00	0	65	104
2025-01-03 11:09:25.96	151.82	52.95	-63.2	-69.3	3.6	0.00e+00	0	65	104
2025-01-03 11:09:27.86	151.33	54.04	-63.2	-69.3	3.6	0.00e+00	0	65	104
2025-01-03 11:09:29.76	150.80	55.15	-63.2	-69.2	3.6	0.00e+00	0	65	104
2025-01-03 11:09:31.66	150.23	56.28	-63.2	-69.3	3.7	0.00e+00	0	65	104
2025-01-03 11:09:33.56	149.60	57.43	-63.2	-69.4	3.6	0.00e+00	0	65	104
2025-01-03 11:09:35.46	148.92	58.61	-63.2	-69.3	3.6	0.00e+00	0	66	104
2025-01-03 11:09:37.36	148.17	59.81	-63.2	-69.2	3.6	0.00e+00	0	65	104
2025-01-03 11:09:39.26	147.35	61.02	-63.1	-69.3	3.6	0.00e+00	0	66	104
2025-01-03 11:09:41.15	146.45	62.26	-63.2	-69.3	3.6	0.00e+00	0	65	104
2025-01-03 11:09:43.05	145.44	63.51	-63.2	-69.3	3.7	0.00e+00	0	66	104
2025-01-03 11:09:44.95	144.31	64.78	-63.2	-69.3	3.7	0.00e+00	0	66	104
2025-01-03 11:09:46.85	143.05	66.07	-63.2	-69.3	3.7	0.00e+00	0	66	104
2025-01-03 11:09:48.75	141.63	67.36	-63.2	-69.3	3.6	0.00e+00	0	66	104
2025-01-03 11:09:50.65	140.02	68.66	-63.1	-69.1	3.6	0.00e+00	0	66	104
2025-01-03 11:09:52.55	138.17	69.97	-63.2	-69.3	3.6	0.00e+00	0	66	104
2025-01-03 11:09:54.45	136.05	71.27	-63.0	-69.1	3.7	0.00e+00	0	66	104
2025-01-03 11:09:56.35	133.59	72.56	-63.2	-69.3	3.7	0.00e+00	0	66	104
2025-01-03 11:09:58.25	130.72	73.83	-63.2	-69.3	3.6	0.00e+00	0	66	104
2025-01-03 11:10:00.15	127.34	75.07	-63.2	-69.3	3.6	0.00e+00	0	67	104
2025-01-03 11:10:02.04	123.35	76.25	-63.2	-69.3	3.6	0.00e+00	0	66	104
2025-01-03 11:10:03.94	118.58	77.37	-63.2	-69.3	3.6	0.00e+00	0	67	104
2025-01-03 11:10:05.84	112.89	78.40	-63.2	-69.3	3.7	0.00e+00	0	67	104
2025-01-03 11:10:07.74	106.14	79.31	-63.1	-68.8	3.7	0.00e+00	0	67	104
2025-01-03 11:10:09.64	98.25	80.04	-63.3	-68.9	3.7	0.00e+00	0	67	104
2025-01-03 11:10:11.54	89.29	80.56	-63.2	-68.8	3.6	0.00e+00	0	67	104
2025-01-03 11:10:13.44	79.52	80.84	-63.2	-68.8	3.6	0.00e+00	0	67	104
2025-01-03 11:10:15.34	69.45	80.84	-63.2	-68.8	3.6	0.00e+00	0	67	104
2025-01-03 11:10:17.24	59.68	80.56	-63.3	-68.9	3.7	0.00e+00	0	67	104
2025-01-03 11:10:19.14	50.72	80.04	-63.2	-68.9	3.7	0.00e+00	0	67	104
2025-01-03 11:10:21.04	42.84	79.30	-63.2	-68.9	3.7	0.00e+00	0	67	104
2025-01-03 11:10:22.93	36.13	78.41	-63.2	-68.8	3.6	0.00e+00	0	67	104
2025-01-03 11:10:24.83	30.45	77.38	-63.2	-68.8	3.6	0.00e+00	0	67	104
2025-01-03 11:10:26.72	25.70	76.26	-63.3	-68.9	3.6	0.00e+00	0	67	104
2025-01-03 11:10:28.62	21.69	75.07	-63.2	-68.8	3.7	0.00e+00	0	67	104
2025-01-03 11:10:30.52	18.31	73.84	-63.2	-68.9	3.7	0.00e+00	0	67	104
2025-01-03 11:10:32.42	15.44	72.57	-63.2	-68.8	3.7	0.00e+00	0	67	104
2025-01-03 11:10:34.32	12.98	71.28	-63.2	-68.8	3.6	0.00e+00	0	68	104
2025-01-03 11:10:36.22	10.86	69.99	-63.3	-68.9	3.6	0.00e+00	0	68	104
2025-01-03 11:10:38.12	9.01	68.68	-63.0	-68.7	3.6	0.00e+00	0	68	104
2025-01-03 11:10:40.02	7.40	67.39	-63.2	-68.8	3.7	0.00e+00	0	68	104
2025-01-03 11:10:41.91	5.99	66.10	-63.2	-68.8	3.7	0.00e+00	0	68	104
2025-01-03 11:10:43.81	4.73	64.82	-63.2	-68.9	3.7	0.00e+00	0	68	104
2025-01-03 11:10:45.71	3.60	63.55	-63.2	-68.9	3.7	0.00e+00	0	68	104
2025-01-03 11:10:47.61	2.59	62.30	-63.2	-68.8	3.6	0.00e+00	0	68	104
2025-01-03 11:10:49.50	1.69	61.07	-63.2	-68.8	3.6	0.00e+00	0	68	104
2025-01-03 11:10:51.40	0.87	59.86	-63.1	-68.7	3.6	0.00e+00	0	68	104
2025-01-03 11:10:53.30	0.12	58.66	-63.1	-68.7	3.7	0.00e+00	0	68	104
2025-01-03 11:10:55.20	359.44	57.49	-63.1	-68.8	3.7	0.00e+00	0	68	104
2025-01-03 11:10:57.10	358.81	56.34	-63.2	-68.8	3.7	0.00e+00	0	68	104
2025-01-03 11:10:59.00	358.24	55.21	-63.1	-68.8	3.6	0.00e+00	0	68	104
2025-01-03 11:11:00.90	357.71	54.11	-63.3	-69.0	3.6	0.00e+00	0	68	104
2025-01-03 11:11:02.80	357.22	53.03	-63.2	-68.9	3.6	0.00e+00	0	68	104
2025-01-03 11:11:04.70	356.77	51.97	-63.2	-68.9	3.7	0.00e+00	0	68	104
2025-01-03 11:11:06.60	356.34	50.93	-63.2	-68.8	3.7	0.00e+00	0	69	104
2025-01-03 11:11:08.50	355.95	49.92	-63.2	-68.9	3.6	0.00e+00	0	68	104
2025-01-03 11:11:10.39	355.59	48.94	-63.2	-68.9	3.6	0.00e+00	0	68	104
2025-01-03 11:11:12.29	355.24	47.97	-63.2	-68.8	3.6	0.00e+00	0	68	104
2025-01-03 11:11:14.19	354.92	47.03	-63.2	-68.9	3.6	0.00e+00	0	68	104
2025-01-03 11:11:16.09	354.62	46.11	-63.3	-68.9	3.7	0.00e+00	0	69	104
2025-01-03 11:11:17.99	354.33	45.21	-63.3	-68.9	3.6	0.00e+00	0	69	104
2025-01-03 11:11:19.89	354.07	44.33	-63.2	-68.8	3.6	0.00e+00	0	68	104
2025-01-03 11:11:21.79	353.81	43.47	-63.2	-68.8	3.6	0.00e+00	0	69	104
2025-01-03 11:11:23.69	353.57	42.64	-63.2	-68.8	3.6	0.00e+00	0	69	104
2025-01-03 11:11:25.59	353.35	41.82	-63.2	-68.8	3.6	0.00e+00	0	69	104
2025-01-03 11:11:27.49	353.13	41.02	-63.3	-68.9	3.7	0.00e+00	0	69	104
2025-01-03 11:11:29.39	352.93	40.25	-63.2	-68.9	3.7	0.00e+00	0	69	104
2025-01-03 11:11:31.28	352.74	39.49	-63.2	-68.8	3.6	0.00e+00	0	69	104
2025-01-03 11:11:33.18	352.55	38.75	-63.2	-68.9	3.6	0.00e+00	0	69	104
2025-01-03 11:11:35.08	352.38	38.03	-63.2	-68.8	3.6	0.00e+00	0	69	104
2025-01-03 11:11:36.98	352.21	37.32	-63.3	-68.9	3.6	0.00e+00	0	69	104
2025-01-03 11:11:38.88	352.05	36.63	-63.2	-68.8	3.7	0.00e+00	0	69	104
2025-01-03 11:11:40.78	351.90	35.96	-63.1	-68.7	3.7	0.00e+00	0	69	104
2025-01-03 11:11:42.68	351.76	35.30	-63.3	-68.9	3.7	0.00e+00	0	69	104
2025-01-03 11:11:44.58	351.62	34.66	-63.2	-68.8	3.6	0.00e+00	0	69	104
2025-01-03 11:11:46.48	351.48	34.03	-63.3	-68.9	3.6	0.00e+00	0	69	104
2025-01-03 11:11:48.38	351.36	33.42	-63.2	-68.9	3.6	0.00e+00	0	69	104
2025-01-03 11:11:50.28	351.23	32.82	-63.3	-68.9	3.7	0.00e+00	0	69	104
2025-01-03 11:11:52.17	351.12	32.24	-63.3	-68.9	3.7	0.00e+00	0	69	104
2025-01-03 11:11:54.07	351.00	31.66	-63.2	-68.9	3.6	0.00e+00	0	69	104
2025-01-03 11:11:55.96	350.90	31.11	-63.1	-68.8	3.6	0.00e+00	0	69	104
2025-01-03 11:11:57.86	350.79	30.56	-63.2	-68.9	3.6	0.00e+00	0	69	104
2025-01-03 11:11:59.76	350.69	30.02	-63.3	-69.0	3.6	0.00e+00	0	69	104
2025-01-03 11:12:01.66	350.60	29.50	-63.1	-68.7	3.7	0.00e+00	0	69	104
2025-01-03 11:12:03.56	350.50	28.98	-63.2	-68.8	3.7	0.00e+00	0	69	104
2025-01-03 11:12:05.46	350.41	28.48	-63.2	-68.8	3.7	0.00e+00	0	70	104
2025-01-03 11:12:07.36	350.33	27.99	-63.2	-68.8	3.6	0.00e+00	0	69	104
2025-01-03 11:12:09.25	350.24	27.51	-63.2	-68.9	3.6	0.00e+00	0	70	104
2025-01-03 11:12:11.15	350.16	27.04	-63.2	-68.8	3.6	0.00e+00	0	69	104
2025-01-03 11:12:13.05	350.09	26.58	-63.1	-68.7	3.7	0.00e+00	0	69	104
2025-01-03 11:12:14.95	350.01	26.12	-63.1	-68.7	3.7	0.00e+00	0	69	104
2025-01-03 11:12:16.85	349.94	25.68	-63.2	-68.8	3.7	0.00e+00	0	69	104
2025-01-03 11:12:18.74	349.87	25.25	-63.3	-68.9	3.6	0.00e+00	0	70	104
2025-01-03 11:12:20.64	349.80	24.82	-63.2	-68.8	3.6	0.00e+00	0	70	104
2025-01-03 11:12:22.54	349.73	24.40	-63.2	-68.9	3.6	0.00e+00	0	70	104
2025-01-03 11:12:24.44	349.67	23.99	-63.2	-68.9	3.7	0.00e+00	0	69	104
2025-01-03 11:12:26.34	349.61	23.59	-63.2	-68.8	3.7	0.00e+00	0	69	104
2025-01-03 11:12:28.24	349.55	23.20	-63.2	-68.8	3.6	0.00e+00	0	70	104
2025-01-03 11:12:30.14	349.49	22.81	-63.2	-68.9	3.6	0.00e+00	0	70	104
2025-01-03 11:12:32.04	349.44	22.43	-63.2	-68.9	3.6	0.00e+00	0	69	104
2025-01-03 11:12:33.94	349.38	22.05	-63.2	-68.9	3.6	0.00e+00	0	70	104
2025-01-03 11:12:35.84	349.33	21.69	-63.2	-68.9	3.7	0.00e+00	0	70	104
2025-01-03 11:12:37.74	349.28	21.32	-63.2	-68.9	3.7	0.00e+00	0	70	104
2025-01-03 11:12:39.63	349.23	20.97	-63.3	-69.0	3.6	0.00e+00	0	70	104
2025-01-03 11:12:41.53	349.18	20.62	-63.2	-68.9	3.6	0.00e+00	0	70	104
2025-01-03 11:12:43.43	349.13	20.28	-63.3	-69.0	3.6	0.00e+00	0	70	104
2025-01-03 11:12:45.33	349.09	19.94	-63.3	-69.0	3.6	0.00e+00	0	70	104
2025-01-03 11:12:47.23	349.04	19.61	-63.2	-68.9	3.7	0.00e+00	0	70	104
2025-01-03 11:12:49.13	349.00	19.29	-63.2	-68.8	3.7	0.00e+00	0	70	104
2025-01-03 11:12:51.03	348.96	18.97	-63.2	-68.8	3.7	0.00e+00	0	70	104
2025-01-03 11:12:52.93	348.92	18.65	-63.2	-68.9	3.6	0.00e+00	0	70	104
2025-01-03 11:12:54.83	348.88	18.34	-63.1	-68.8	3.6	0.00e+00	0	70	104
2025-01-03 11:12:56.73	348.84	18.04	-63.2	-68.8	3.6	0.00e+00	0	70	104
2025-01-03 11:12:58.63	348.80	17.74	-63.3	-69.0	3.7	0.00e+00	0	70	104
2025-01-03 11:13:00.52	348.77	17.44	-63.3	-68.9	3.7	0.00e+00	0	70	104
2025-01-03 11:13:02.42	348.73	17.15	-63.2	-68.9	3.7	0.00e+00	0	70	104
2025-01-03 11:13:04.31	348.70	16.87	-63.3	-69.0	3.7	0.00e+00	0	70	104
2025-01-03 11:13:06.21	348.66	16.58	-63.2	-68.9	3.6	0.00e+00	0	70	104
2025-01-03 11:13:08.11	348.63	16.30	-63.2	-68.8	3.6	0.00e+00	0	70	104
2025-01-03 11:13:10.01	348.60	16.03	-63.2	-68.9	3.6	0.00e+00	0	70	104
2025-01-03 11:13:11.91	348.57	15.76	-63.3	-69.0	3.7	0.00e+00	0	70	104
2025-01-03 11:13:13.81	348.54	15.49	-63.3	-68.9	3.7	0.00e+00	0	70	104
2025-01-03 11:13:15.71	348.51	15.23	-63.2	-68.8	3.6	0.00e+00	0	70	104
2025-01-03 11:13:17.61	348.48	14.97	-63.1	-68.8	3.6	0.00e+00	0	70	104
2025-01-03 11:13:19.50	348.45	14.71	-63.2	-68.9	3.6	0.00e+00	0	70	104
2025-01-03 11:13:21.40	348.42	14.46	-63.1	-68.8	3.6	0.00e+00	0	70	104
2025-01-03 11:13:23.30	348.40	14.21	-63.2	-68.9	3.7	0.00e+00	0	70	104
2025-01-03 11:13:25.20	348.37	13.97	-63.3	-68.9	3.7	0.00e+00	0	70	104
2025-01-03 11:13:27.09	348.35	13.72	-63.2	-68.8	3.6	0.00e+00	0	70	104
2025-01-03 11:13:28.99	348.32	13.48	-63.3	-69.0	3.6	0.00e+00	0	70	104
2025-01-03 11:13:30.89	348.30	13.25	-63.3	-68.9	3.6	0.00e+00	0	70	104
2025-01-03 11:13:32.79	348.27	13.01	-63.3	-68.9	3.6	0.00e+00	0	70	104
2025-01-03 11:13:34.69	348.25	12.78	-63.3	-69.0	3.7	0.00e+00	0	70	104
2025-01-03 11:13:36.58	348.23	12.56	-63.3	-69.0	3.7	0.00e+00	0	70	104
2025-01-03 11:13:38.48	348.21	12.33	-63.3	-69.0	3.7	0.00e+00	0	70	104
2025-01-03 11:13:40.38	348.19	12.11	-63.2	-69.0	3.6	0.00e+00	0	70	104
2025-01-03 11:13:42.28	348.16	11.89	-63.2	-68.9	3.6	0.00e+00	0	70	104
2025-01-03 11:13:44.18	348.14	11.67	-63.2	-68.9	3.6	0.00e+00	0	70	104
2025-01-03 11:13:46.08	348.12	11.46	-63.1	-68.8	3.7	0.00e+00	0	70	104
2025-01-03 11:13:47.98	348.10	11.24	-63.1	-68.7	3.7	0.00e+00	0	70	104
2025-01-03 11:13:49.87	348.09	11.04	-63.1	-68.8	3.6	0.00e+00	0	70	104
2025-01-03 11:13:51.77	348.07	10.83	-63.3	-68.9	3.6	0.00e+00	0	70	104
2025-01-03 11:13:53.67	348.05	10.62	-63.3	-69.0	3.6	0.00e+00	0	70	104
2025-01-03 11:13:55.57	348.03	10.42	-63.3	-69.0	3.6	0.00e+00	0	70	104
2025-01-03 11:13:57.47	348.02	10.22	-63.1	-68.8	3.7	0.00e+00	0	70	104
2025-01-03 11:13:59.37	348.00	10.02	-63.2	-68.9	3.7	0.00e+00	0	70	104
2025-01-03 11:14:01.27	347.98	9.82	-63.2	-68.8	3.6	0.00e+00	0	70	104
2025-01-03 11:14:03.17	347.97	9.63	-63.1	-68.7	3.6	0.00e+00	0	70	104
2025-01-03 11:14:05.07	347.95	9.44	-63.2	-68.9	3.6	0.00e+00	0	70	104
2025-01-03 11:14:06.97	347.94	9.25	-63.2	-68.8	3.6	0.00e+00	0	70	104
2025-01-03 11:14:08.87	347.92	9.06	-63.1	-68.7	3.7	0.00e+00	0	70	104
2025-01-03 11:14:10.77	347.91	8.87	-63.2	-68.8	3.7	0.00e+00	0	70	104
2025-01-03 11:14:12.66	347.89	8.69	-63.3	-68.9	3.7	0.00e+00	0	70	104
2025-01-03 11:14:14.56	347.88	8.50	-63.2	-68.9	3.6	0.00e+00	0	70	104
2025-01-03 11:14:16.46	347.87	8.32	-63.3	-68.9	3.6	0.00e+00	0	70	104
2025-01-03 11:14:18.36	347.85	8.14	-63.3	-68.9	3.6	0.00e+00	0	70	104

#Closed at: 2025-01-03 11:14:20
#Recorded file [0 MB]: D:/data/31015_250103_230610.dat