passes_logs/2025/01/03/PPK-1/PPK-1__20250103_093533_TERRA_rec.log

#Pass ID: 20250103_093533_TERRA
#Satellite: TERRA
#Configuration: TERRA
#almurnet v.1.7.20230919.trace
#Start time: 2025-01-03 09:40:34

#Version: 2.2.20231116
#Station: PPK-1
#Location: 158.6 lon 53.06666 lat
#TLE: 1 25994U 99068A   25002.38961419  .00002657  00000+0  55856-3 0  9992
#TLE: 2 25994  98.0232  65.8200 0003593  98.2769  32.3564 14.60366039332118

#Time	Az	El	Level	Level2	SNR	BER	BlckErr	Temp	State
2025-01-03 09:40:34.59	61.09	45.93	-63.3	-69.0	3.7	0.00e+00	0	68	0
2025-01-03 09:40:35.49	60.49	45.89	-64.0	-78.3	3.3	1.49e+00	0	68	104
2025-01-03 09:40:36.48	59.83	45.85	-64.0	-78.3	3.2	1.49e+00	0	68	104
2025-01-03 09:40:37.39	59.23	45.81	-64.0	-78.2	3.3	1.49e+00	0	68	104
2025-01-03 09:40:38.38	58.57	45.75	-64.0	-78.3	3.3	1.49e+00	0	68	104
2025-01-03 09:40:39.28	57.98	45.71	-64.0	-78.1	3.3	1.49e+00	0	68	104
2025-01-03 09:40:40.27	57.33	45.65	-64.0	-78.2	3.3	1.49e+00	0	68	104
2025-01-03 09:40:41.18	56.74	45.59	-64.0	-78.4	3.3	1.49e+00	0	68	104
2025-01-03 09:40:42.17	56.09	45.52	-64.0	-78.4	3.3	1.49e+00	0	68	104
2025-01-03 09:40:43.08	55.50	45.46	-64.0	-78.3	3.3	1.49e+00	0	68	104
2025-01-03 09:40:44.07	54.86	45.39	-64.0	-78.3	3.3	1.49e+00	0	67	104
2025-01-03 09:40:44.98	54.28	45.32	-64.0	-78.3	3.3	1.49e+00	0	67	104
2025-01-03 09:40:45.97	53.64	45.23	-64.0	-78.3	3.3	1.49e+00	0	67	104
2025-01-03 09:40:46.88	53.06	45.16	-64.0	-78.4	3.4	1.49e+00	0	67	104
2025-01-03 09:40:47.87	52.44	45.07	-64.0	-78.3	3.2	1.49e+00	0	67	104
2025-01-03 09:40:48.78	51.86	44.99	-64.0	-78.3	3.3	1.49e+00	0	67	104
2025-01-03 09:40:49.77	51.24	44.89	-64.0	-78.1	3.2	1.49e+00	0	67	104
2025-01-03 09:40:50.68	50.68	44.80	-64.0	-78.4	3.2	1.49e+00	0	67	104
2025-01-03 09:40:51.67	50.07	44.70	-64.0	-78.3	3.3	1.49e+00	0	67	104
2025-01-03 09:40:52.57	49.51	44.61	-64.0	-78.2	3.3	1.49e+00	0	67	104
2025-01-03 09:40:53.57	48.90	44.50	-64.0	-78.2	3.3	1.49e+00	0	67	104
2025-01-03 09:40:54.47	48.36	44.40	-64.0	-78.3	3.2	1.49e+00	0	66	104
2025-01-03 09:40:55.47	47.75	44.29	-63.9	-78.1	3.3	1.49e+00	0	67	104
2025-01-03 09:40:56.37	47.22	44.18	-64.0	-78.1	3.3	1.49e+00	0	66	104
2025-01-03 09:40:57.37	46.62	44.06	-63.9	-78.1	3.3	1.49e+00	0	67	104
2025-01-03 09:40:58.27	46.09	43.95	-64.0	-78.1	3.4	1.49e+00	0	66	104
2025-01-03 09:40:59.27	45.51	43.83	-64.0	-78.4	3.3	1.49e+00	0	66	104
2025-01-03 09:41:00.17	44.98	43.71	-64.0	-78.3	3.4	1.49e+00	0	66	104
2025-01-03 09:41:01.16	44.41	43.58	-64.0	-78.3	3.3	1.49e+00	0	66	104
2025-01-03 09:41:02.06	43.90	43.46	-64.0	-78.2	3.3	1.49e+00	0	66	104
2025-01-03 09:41:03.06	43.33	43.33	-64.0	-78.2	3.4	1.49e+00	0	66	104
2025-01-03 09:41:03.96	42.83	43.20	-64.0	-78.1	3.2	1.49e+00	0	66	104
2025-01-03 09:41:04.96	42.27	43.06	-63.9	-78.3	3.3	1.49e+00	0	66	104
2025-01-03 09:41:05.86	41.77	42.93	-64.0	-78.2	3.3	1.49e+00	0	66	104
2025-01-03 09:41:06.86	41.22	42.79	-64.0	-78.2	3.3	1.49e+00	0	66	104
2025-01-03 09:41:07.76	40.74	42.65	-64.1	-78.5	3.3	1.49e+00	0	66	104
2025-01-03 09:41:08.76	40.20	42.50	-64.0	-78.3	3.3	1.49e+00	0	66	104
2025-01-03 09:41:09.66	39.72	42.37	-64.0	-78.3	3.3	1.49e+00	0	66	104
2025-01-03 09:41:10.66	39.19	42.22	-64.0	-78.1	3.3	1.49e+00	0	66	104
2025-01-03 09:41:11.56	38.72	42.08	-64.0	-78.3	3.3	1.49e+00	0	65	104
2025-01-03 09:41:12.56	38.20	41.92	-64.0	-78.3	3.3	1.49e+00	0	66	104
2025-01-03 09:41:13.46	37.74	41.78	-64.0	-78.4	3.3	1.49e+00	0	66	104
2025-01-03 09:41:14.46	37.23	41.61	-63.9	-78.2	3.4	1.49e+00	0	65	104
2025-01-03 09:41:15.36	36.78	41.47	-64.0	-78.2	3.3	1.49e+00	0	65	104
2025-01-03 09:41:16.36	36.28	41.30	-64.0	-78.3	3.4	1.49e+00	0	65	104
2025-01-03 09:41:17.26	35.83	41.16	-63.9	-78.1	3.2	1.49e+00	0	65	104
2025-01-03 09:41:18.26	35.34	40.99	-63.9	-78.1	3.3	1.49e+00	0	65	104
2025-01-03 09:41:19.16	34.91	40.84	-64.0	-78.1	3.2	1.49e+00	0	65	104
2025-01-03 09:41:20.16	34.43	40.67	-64.0	-78.2	3.2	1.49e+00	0	65	104
2025-01-03 09:41:21.06	34.00	40.51	-64.0	-78.1	3.5	1.49e+00	0	65	104
2025-01-03 09:41:22.05	33.54	40.34	-64.0	-78.0	3.2	1.49e+00	0	65	104
2025-01-03 09:41:22.95	33.12	40.19	-64.0	-78.3	3.3	1.49e+00	0	65	104
2025-01-03 09:41:23.95	32.66	40.01	-64.0	-78.0	3.2	1.49e+00	0	65	104
2025-01-03 09:41:24.85	32.25	39.86	-63.9	-78.1	3.3	1.49e+00	0	65	104
2025-01-03 09:41:25.85	31.80	39.68	-63.9	-78.2	3.5	1.49e+00	0	65	104
2025-01-03 09:41:26.75	31.40	39.52	-64.0	-78.3	3.3	1.49e+00	0	65	104
2025-01-03 09:41:27.75	30.96	39.34	-63.9	-78.1	3.3	1.49e+00	0	65	104
2025-01-03 09:41:28.65	30.56	39.18	-64.0	-78.3	3.2	1.49e+00	0	65	104
2025-01-03 09:41:29.65	30.13	39.00	-64.0	-78.1	3.3	1.49e+00	0	65	104
2025-01-03 09:41:30.55	29.75	38.84	-64.0	-78.2	3.2	1.49e+00	0	65	104
2025-01-03 09:41:31.55	29.33	38.66	-64.0	-78.3	3.4	1.49e+00	0	65	104
2025-01-03 09:41:32.45	28.95	38.49	-64.1	-78.5	3.4	1.49e+00	0	65	104
2025-01-03 09:41:33.45	28.54	38.31	-63.9	-78.2	3.2	1.49e+00	0	65	104
2025-01-03 09:41:34.35	28.17	38.14	-64.0	-78.2	3.3	1.49e+00	0	65	104
2025-01-03 09:41:35.35	27.77	37.96	-64.0	-78.3	3.3	1.49e+00	0	64	104
2025-01-03 09:41:36.25	27.41	37.80	-64.0	-78.2	3.3	1.49e+00	0	64	104
2025-01-03 09:41:37.25	27.01	37.61	-64.0	-78.2	3.4	1.49e+00	0	64	104
2025-01-03 09:41:38.15	26.66	37.44	-63.9	-78.0	3.3	1.49e+00	0	64	104
2025-01-03 09:41:39.15	26.27	37.26	-64.0	-78.2	3.3	1.49e+00	0	64	104
2025-01-03 09:41:40.05	25.93	37.09	-64.0	-78.2	3.3	1.49e+00	0	64	104
2025-01-03 09:41:41.05	25.55	36.91	-63.8	-78.2	3.3	1.49e+00	0	64	104
2025-01-03 09:41:41.95	25.22	36.74	-64.0	-78.3	3.3	1.49e+00	0	64	104
2025-01-03 09:41:42.94	24.85	36.55	-64.0	-78.3	3.2	1.49e+00	0	64	104
2025-01-03 09:41:43.85	24.52	36.38	-64.0	-78.3	3.4	1.49e+00	0	64	104
2025-01-03 09:41:44.84	24.16	36.20	-63.9	-78.0	3.3	1.49e+00	0	64	104
2025-01-03 09:41:45.74	23.84	36.03	-64.0	-78.3	3.3	1.49e+00	0	64	104
2025-01-03 09:41:46.73	23.49	35.84	-64.0	-78.1	3.3	1.49e+00	0	64	104
2025-01-03 09:41:47.64	23.17	35.67	-64.0	-78.4	3.3	1.49e+00	0	64	104
2025-01-03 09:41:48.63	22.83	35.49	-64.0	-78.3	3.4	1.49e+00	0	64	104
2025-01-03 09:41:49.54	22.52	35.32	-64.0	-78.1	3.3	1.49e+00	0	64	104
2025-01-03 09:41:50.53	22.18	35.13	-64.0	-78.3	3.4	1.49e+00	0	64	104
2025-01-03 09:41:51.44	21.88	34.96	-64.0	-78.2	3.3	1.49e+00	0	64	104
2025-01-03 09:41:52.43	21.55	34.78	-63.9	-78.1	3.3	1.49e+00	0	64	104
2025-01-03 09:41:53.34	21.25	34.61	-64.0	-78.1	3.3	1.49e+00	0	64	104
2025-01-03 09:41:54.33	20.93	34.42	-64.0	-78.1	3.2	1.49e+00	0	64	104
2025-01-03 09:41:55.24	20.64	34.25	-64.0	-78.3	3.3	1.49e+00	0	63	104
2025-01-03 09:41:56.23	20.33	34.07	-64.0	-78.4	3.3	1.49e+00	0	63	104
2025-01-03 09:41:57.14	20.05	33.90	-64.0	-78.2	3.3	1.49e+00	0	64	104
2025-01-03 09:41:58.13	19.74	33.72	-64.0	-78.3	3.3	1.49e+00	0	64	104
2025-01-03 09:41:59.04	19.46	33.55	-64.0	-78.3	3.3	1.49e+00	0	64	104
2025-01-03 09:42:00.03	19.16	33.36	-64.0	-78.2	3.4	1.49e+00	0	63	104
2025-01-03 09:42:00.94	18.89	33.20	-64.0	-78.3	3.3	1.49e+00	0	63	104
2025-01-03 09:42:01.92	18.60	33.02	-64.0	-78.2	3.4	1.49e+00	0	63	104
2025-01-03 09:42:02.83	18.34	32.85	-64.0	-78.1	3.3	1.49e+00	0	63	104
2025-01-03 09:42:03.82	18.05	32.67	-64.0	-78.3	3.3	1.49e+00	0	63	104
2025-01-03 09:42:04.73	17.79	32.50	-64.0	-78.3	3.3	1.49e+00	0	63	104
2025-01-03 09:42:05.72	17.51	32.32	-64.0	-78.3	3.3	1.49e+00	0	63	104
2025-01-03 09:42:06.63	17.26	32.15	-64.0	-78.4	3.4	1.49e+00	0	63	104
2025-01-03 09:42:07.62	16.99	31.97	-64.0	-78.4	3.3	1.49e+00	0	63	104
2025-01-03 09:42:08.52	16.74	31.81	-64.0	-78.3	3.3	1.49e+00	0	63	104
2025-01-03 09:42:09.51	16.47	31.63	-64.0	-78.2	3.3	1.49e+00	0	63	104
2025-01-03 09:42:10.42	16.23	31.46	-63.9	-78.1	3.3	1.49e+00	0	63	104
2025-01-03 09:42:11.41	15.97	31.28	-64.0	-78.3	3.3	1.49e+00	0	63	104
2025-01-03 09:42:12.32	15.73	31.12	-63.9	-78.3	3.3	1.49e+00	0	63	104
2025-01-03 09:42:13.31	15.47	30.94	-64.0	-78.3	3.3	1.49e+00	0	63	104
2025-01-03 09:42:14.22	15.24	30.78	-63.9	-78.3	3.3	1.49e+00	0	63	104
2025-01-03 09:42:15.21	14.99	30.60	-64.0	-78.3	3.3	1.49e+00	0	63	104
2025-01-03 09:42:16.12	14.76	30.44	-63.9	-78.2	3.2	1.49e+00	0	63	104
2025-01-03 09:42:17.11	14.52	30.27	-64.0	-78.1	3.3	1.49e+00	0	63	104
2025-01-03 09:42:18.02	14.30	30.11	-63.9	-78.2	3.4	1.49e+00	0	63	104
2025-01-03 09:42:19.01	14.06	29.93	-64.0	-78.3	3.3	1.49e+00	0	63	104
2025-01-03 09:42:19.91	13.84	29.77	-64.0	-78.2	3.3	1.49e+00	0	63	104
2025-01-03 09:42:20.91	13.60	29.60	-64.0	-78.4	3.3	1.49e+00	0	63	104
2025-01-03 09:42:21.81	13.39	29.44	-64.0	-78.3	3.3	1.49e+00	0	63	104
2025-01-03 09:42:22.81	13.16	29.27	-64.0	-78.3	3.5	1.49e+00	0	63	104
2025-01-03 09:42:23.71	12.96	29.11	-64.0	-78.4	3.3	1.49e+00	0	62	104
2025-01-03 09:42:24.71	12.73	28.94	-64.0	-78.2	3.3	1.49e+00	0	63	104
2025-01-03 09:42:25.61	12.53	28.78	-64.0	-78.3	3.3	1.49e+00	0	63	104
2025-01-03 09:42:26.61	12.30	28.61	-64.0	-78.2	3.3	1.49e+00	0	63	104
2025-01-03 09:42:27.51	12.11	28.46	-64.0	-78.2	3.3	1.49e+00	0	62	104
2025-01-03 09:42:28.51	11.89	28.29	-64.0	-78.4	3.3	1.49e+00	0	62	104
2025-01-03 09:42:29.41	11.70	28.14	-64.0	-78.1	3.5	1.49e+00	0	63	104
2025-01-03 09:42:30.40	11.48	27.97	-64.0	-78.4	3.3	1.49e+00	0	63	104
2025-01-03 09:42:31.30	11.30	27.82	-64.0	-78.3	3.3	1.49e+00	0	63	104
2025-01-03 09:42:32.30	11.09	27.65	-64.0	-78.2	3.2	1.49e+00	0	62	104
2025-01-03 09:42:33.20	10.90	27.50	-64.0	-78.1	3.3	1.49e+00	0	62	104
2025-01-03 09:42:34.20	10.70	27.33	-64.0	-78.2	3.4	1.49e+00	0	62	104
2025-01-03 09:42:35.10	10.52	27.19	-64.0	-78.1	3.3	1.49e+00	0	62	104
2025-01-03 09:42:36.10	10.32	27.02	-63.9	-78.2	3.3	1.49e+00	0	62	104
2025-01-03 09:42:37.00	10.14	26.87	-64.0	-78.2	3.3	1.49e+00	0	62	104
2025-01-03 09:42:38.00	9.94	26.71	-64.0	-78.2	3.4	1.49e+00	0	62	104
2025-01-03 09:42:38.90	9.77	26.56	-64.0	-78.2	3.3	1.49e+00	0	62	104
2025-01-03 09:42:39.90	9.57	26.40	-64.0	-78.3	3.3	1.49e+00	0	62	104
2025-01-03 09:42:40.80	9.40	26.26	-64.0	-78.2	3.4	1.49e+00	0	62	104
2025-01-03 09:42:41.80	9.22	26.09	-64.0	-78.4	3.3	1.49e+00	0	62	104
2025-01-03 09:42:42.70	9.05	25.95	-64.0	-78.3	3.3	1.49e+00	0	62	104
2025-01-03 09:42:43.70	8.86	25.79	-64.0	-78.2	3.2	1.49e+00	0	62	104
2025-01-03 09:42:44.60	8.70	25.65	-64.0	-78.2	3.3	1.49e+00	0	62	104
2025-01-03 09:42:45.60	8.52	25.49	-64.0	-78.2	3.4	1.49e+00	0	62	104
2025-01-03 09:42:46.50	8.36	25.35	-64.0	-78.4	3.3	1.49e+00	0	62	104
2025-01-03 09:42:47.50	8.18	25.19	-64.0	-78.2	3.3	1.49e+00	0	62	104
2025-01-03 09:42:48.40	8.02	25.05	-64.0	-78.4	3.3	1.49e+00	0	62	104
2025-01-03 09:42:49.40	7.85	24.90	-64.0	-78.4	3.3	1.49e+00	0	62	104
2025-01-03 09:42:50.30	7.70	24.76	-64.0	-78.3	3.3	1.49e+00	0	62	104
2025-01-03 09:42:51.29	7.53	24.60	-64.0	-78.2	3.3	1.49e+00	0	62	104
2025-01-03 09:42:52.19	7.38	24.47	-64.0	-78.3	3.4	1.49e+00	0	62	104
2025-01-03 09:42:53.19	7.21	24.31	-64.0	-78.3	3.3	1.49e+00	0	62	104
2025-01-03 09:42:54.09	7.06	24.18	-64.0	-78.1	3.3	1.49e+00	0	62	104
2025-01-03 09:42:55.09	6.90	24.02	-64.0	-78.1	3.2	1.49e+00	0	62	104
2025-01-03 09:42:55.99	6.75	23.89	-64.0	-78.3	3.3	1.49e+00	0	62	104
2025-01-03 09:42:56.99	6.59	23.74	-64.0	-78.2	3.5	1.49e+00	0	62	104
2025-01-03 09:42:57.89	6.45	23.60	-64.0	-78.2	3.3	1.49e+00	0	62	104
2025-01-03 09:42:58.89	6.29	23.46	-63.9	-78.1	3.3	1.49e+00	0	62	104
2025-01-03 09:42:59.79	6.15	23.32	-64.0	-78.3	3.3	1.49e+00	0	62	104
2025-01-03 09:43:00.79	6.00	23.18	-64.0	-78.2	3.3	1.49e+00	0	62	104
2025-01-03 09:43:01.69	5.86	23.04	-64.0	-78.3	3.3	1.49e+00	0	62	104
2025-01-03 09:43:02.69	5.71	22.90	-64.0	-78.3	3.3	1.49e+00	0	62	104
2025-01-03 09:43:03.59	5.57	22.77	-64.0	-78.3	3.4	1.49e+00	0	62	104
2025-01-03 09:43:04.59	5.42	22.62	-64.0	-78.1	3.3	1.49e+00	0	62	104
2025-01-03 09:43:05.49	5.29	22.49	-64.0	-78.2	3.4	1.49e+00	0	62	104
2025-01-03 09:43:06.49	5.14	22.35	-64.0	-78.3	3.2	1.49e+00	0	62	104
2025-01-03 09:43:07.39	5.01	22.22	-64.0	-78.3	3.3	1.49e+00	0	62	104
2025-01-03 09:43:08.39	4.87	22.08	-64.0	-78.3	3.3	1.49e+00	0	62	104
2025-01-03 09:43:09.29	4.74	21.95	-64.0	-78.3	3.3	1.49e+00	0	62	104
2025-01-03 09:43:10.29	4.60	21.81	-64.0	-78.3	3.3	1.49e+00	0	62	104
2025-01-03 09:43:11.19	4.48	21.68	-64.0	-78.2	3.3	1.49e+00	0	62	104
2025-01-03 09:43:12.18	4.34	21.54	-64.0	-78.2	3.3	1.49e+00	0	62	104
2025-01-03 09:43:13.09	4.22	21.42	-64.0	-78.3	3.3	1.49e+00	0	62	104
2025-01-03 09:43:14.08	4.08	21.28	-64.1	-78.1	3.3	1.49e+00	0	62	104
2025-01-03 09:43:14.98	3.96	21.16	-64.0	-78.1	3.3	1.49e+00	0	62	104
2025-01-03 09:43:15.97	3.83	21.02	-64.0	-78.4	3.3	1.49e+00	0	62	104
2025-01-03 09:43:16.88	3.71	20.90	-64.0	-78.3	3.4	1.49e+00	0	62	104
2025-01-03 09:43:17.87	3.58	20.76	-64.0	-78.2	3.3	1.49e+00	0	62	104
2025-01-03 09:43:18.78	3.46	20.64	-64.0	-78.3	3.3	1.49e+00	0	62	104
2025-01-03 09:43:19.77	3.34	20.51	-64.0	-78.3	3.3	1.49e+00	0	62	104
2025-01-03 09:43:20.68	3.22	20.38	-64.0	-78.3	3.3	1.49e+00	0	62	104
2025-01-03 09:43:21.67	3.10	20.25	-64.0	-78.1	3.4	1.49e+00	0	62	104
2025-01-03 09:43:22.58	2.98	20.13	-64.0	-78.3	3.3	1.49e+00	0	62	104
2025-01-03 09:43:23.57	2.86	20.00	-64.1	-78.4	3.3	1.49e+00	0	62	104
2025-01-03 09:43:24.48	2.75	19.88	-64.0	-78.3	3.3	1.49e+00	0	62	104
2025-01-03 09:43:25.47	2.63	19.75	-64.0	-78.2	3.4	1.49e+00	0	62	104
2025-01-03 09:43:26.38	2.52	19.63	-64.0	-78.3	3.3	1.49e+00	0	62	104
2025-01-03 09:43:27.37	2.40	19.50	-64.0	-78.1	3.3	1.49e+00	0	62	104
2025-01-03 09:43:28.28	2.29	19.39	-64.0	-78.2	3.3	1.49e+00	0	62	104
2025-01-03 09:43:29.26	2.18	19.26	-64.1	-78.3	3.3	1.49e+00	0	62	104
2025-01-03 09:43:30.17	2.07	19.14	-64.0	-78.2	3.3	1.49e+00	0	62	104
2025-01-03 09:43:31.16	1.96	19.02	-63.9	-78.1	3.3	1.49e+00	0	62	104
2025-01-03 09:43:32.07	1.85	18.90	-64.0	-78.2	3.3	1.49e+00	0	62	104
2025-01-03 09:43:33.06	1.74	18.78	-64.0	-78.3	3.4	1.49e+00	0	62	104
2025-01-03 09:43:33.97	1.64	18.66	-64.0	-78.3	3.2	1.49e+00	0	62	104
2025-01-03 09:43:34.96	1.53	18.54	-64.0	-78.2	3.3	1.49e+00	0	62	104
2025-01-03 09:43:35.87	1.43	18.42	-64.0	-78.1	3.2	1.49e+00	0	62	104
2025-01-03 09:43:36.86	1.32	18.30	-64.0	-78.2	3.3	1.49e+00	0	62	104
2025-01-03 09:43:37.76	1.22	18.19	-64.0	-78.1	3.3	1.49e+00	0	62	104
2025-01-03 09:43:38.75	1.11	18.07	-64.0	-78.3	3.3	1.49e+00	0	62	104
2025-01-03 09:43:39.66	1.02	17.96	-64.0	-78.2	3.3	1.49e+00	0	62	104
2025-01-03 09:43:40.65	0.91	17.84	-64.1	-78.4	3.3	1.49e+00	0	61	104
2025-01-03 09:43:41.56	0.82	17.73	-64.0	-78.2	3.3	1.49e+00	0	62	104
2025-01-03 09:43:42.55	0.71	17.61	-64.0	-78.2	3.3	1.49e+00	0	62	104
2025-01-03 09:43:43.46	0.62	17.50	-64.0	-78.3	3.3	1.49e+00	0	62	104
2025-01-03 09:43:44.45	0.52	17.38	-64.0	-78.3	3.4	1.49e+00	0	61	104
2025-01-03 09:43:45.36	0.42	17.27	-63.9	-78.2	3.2	1.49e+00	0	61	104
2025-01-03 09:43:46.35	0.32	17.15	-64.0	-78.2	3.3	1.49e+00	0	61	104
2025-01-03 09:43:47.25	0.23	17.04	-64.0	-78.0	3.3	1.49e+00	0	61	104
2025-01-03 09:43:48.25	0.14	16.93	-64.0	-78.4	3.3	1.49e+00	0	62	104
2025-01-03 09:43:49.15	0.05	16.82	-64.0	-78.3	3.3	1.49e+00	0	61	104
2025-01-03 09:43:50.15	359.95	16.70	-64.0	-78.3	3.3	1.49e+00	0	61	104
2025-01-03 09:43:51.05	359.86	16.60	-64.0	-78.4	3.4	1.49e+00	0	62	104
2025-01-03 09:43:52.05	359.77	16.48	-64.0	-78.2	3.3	1.49e+00	0	61	104
2025-01-03 09:43:52.95	359.68	16.38	-64.0	-78.3	3.3	1.49e+00	0	61	104
2025-01-03 09:43:53.95	359.59	16.27	-63.9	-78.2	3.3	1.49e+00	0	61	104
2025-01-03 09:43:54.85	359.50	16.16	-64.0	-78.3	3.3	1.49e+00	0	61	104
2025-01-03 09:43:55.85	359.41	16.05	-64.0	-78.2	3.4	1.49e+00	0	61	104
2025-01-03 09:43:56.75	359.33	15.95	-64.0	-78.4	3.3	1.49e+00	0	61	104
2025-01-03 09:43:57.75	359.23	15.83	-64.0	-78.4	3.3	1.49e+00	0	61	104
2025-01-03 09:43:58.65	359.15	15.73	-64.0	-78.4	3.3	1.49e+00	0	61	104
2025-01-03 09:43:59.64	359.06	15.62	-64.0	-78.2	3.3	1.49e+00	0	61	104
2025-01-03 09:44:00.54	358.98	15.52	-63.9	-78.3	3.2	1.49e+00	0	61	104
2025-01-03 09:44:01.54	358.89	15.41	-64.0	-78.3	3.3	1.49e+00	0	61	104
2025-01-03 09:44:02.44	358.81	15.31	-64.0	-78.4	3.3	1.49e+00	0	61	104
2025-01-03 09:44:03.44	358.73	15.20	-64.0	-78.3	3.3	1.49e+00	0	61	104
2025-01-03 09:44:04.34	358.65	15.10	-64.0	-78.4	3.4	1.49e+00	0	61	104
2025-01-03 09:44:05.34	358.56	14.99	-64.0	-78.4	3.3	1.49e+00	0	61	104
2025-01-03 09:44:06.24	358.49	14.90	-64.0	-78.3	3.3	1.49e+00	0	61	104
2025-01-03 09:44:07.24	358.40	14.79	-64.0	-78.2	3.4	1.49e+00	0	61	104
2025-01-03 09:44:08.14	358.33	14.69	-64.0	-78.3	3.3	1.49e+00	0	61	104
2025-01-03 09:44:09.14	358.24	14.58	-64.0	-78.3	3.3	1.49e+00	0	61	104
2025-01-03 09:44:10.04	358.17	14.49	-64.0	-78.3	3.3	1.49e+00	0	61	104
2025-01-03 09:44:11.04	358.09	14.38	-64.0	-78.3	3.4	1.49e+00	0	61	104
2025-01-03 09:44:11.94	358.01	14.28	-63.9	-78.1	3.2	1.49e+00	0	61	104
2025-01-03 09:44:12.94	357.93	14.18	-64.0	-78.2	3.3	1.49e+00	0	61	104
2025-01-03 09:44:13.84	357.86	14.08	-64.0	-78.3	3.3	1.49e+00	0	61	104
2025-01-03 09:44:14.84	357.78	13.98	-64.0	-78.3	3.3	1.49e+00	0	61	104
2025-01-03 09:44:15.74	357.71	13.89	-64.0	-78.4	3.3	1.49e+00	0	61	104
2025-01-03 09:44:16.74	357.63	13.78	-64.0	-78.3	3.3	1.49e+00	0	61	104
2025-01-03 09:44:17.64	357.56	13.69	-64.0	-78.3	3.3	1.49e+00	0	61	104
2025-01-03 09:44:18.64	357.48	13.59	-64.0	-78.4	3.4	1.49e+00	0	61	104
2025-01-03 09:44:19.54	357.41	13.49	-64.0	-78.4	3.3	1.49e+00	0	61	104
2025-01-03 09:44:20.54	357.34	13.39	-64.0	-78.3	3.3	1.49e+00	0	61	104
2025-01-03 09:44:21.44	357.27	13.30	-64.0	-78.3	3.3	1.49e+00	0	61	104
2025-01-03 09:44:22.43	357.19	13.20	-64.0	-78.3	3.3	1.49e+00	0	61	104
2025-01-03 09:44:23.34	357.13	13.11	-64.0	-78.1	3.3	1.49e+00	0	61	104
2025-01-03 09:44:24.33	357.05	13.01	-64.0	-78.1	3.3	1.49e+00	0	61	104
2025-01-03 09:44:25.23	356.99	12.92	-63.9	-78.0	3.4	1.49e+00	0	61	104
2025-01-03 09:44:26.22	356.91	12.82	-64.0	-78.4	3.2	1.49e+00	0	61	104
2025-01-03 09:44:27.13	356.85	12.73	-64.0	-78.2	3.3	1.49e+00	0	61	104
2025-01-03 09:44:28.12	356.78	12.63	-64.0	-78.4	3.3	1.49e+00	0	61	104
2025-01-03 09:44:29.03	356.71	12.54	-64.0	-78.3	3.3	1.49e+00	0	61	104
2025-01-03 09:44:30.02	356.64	12.44	-64.0	-78.3	3.5	1.49e+00	0	61	104
2025-01-03 09:44:30.93	356.58	12.35	-64.0	-78.3	3.2	1.49e+00	0	61	104
2025-01-03 09:44:31.92	356.51	12.26	-64.0	-78.4	3.3	1.49e+00	0	61	104
2025-01-03 09:44:32.83	356.45	12.17	-64.0	-78.3	3.2	1.49e+00	0	61	104
2025-01-03 09:44:33.82	356.38	12.07	-64.0	-78.4	3.3	1.49e+00	0	61	104
2025-01-03 09:44:34.73	356.32	11.98	-63.9	-78.2	3.2	1.49e+00	0	61	104
2025-01-03 09:44:35.72	356.25	11.89	-64.0	-78.3	3.3	1.49e+00	0	61	104
2025-01-03 09:44:36.63	356.19	11.80	-64.0	-78.3	3.4	1.49e+00	0	61	104
2025-01-03 09:44:37.62	356.12	11.71	-64.0	-78.1	3.2	1.49e+00	0	61	104
2025-01-03 09:44:38.53	356.06	11.62	-64.0	-78.3	3.3	1.49e+00	0	61	104
2025-01-03 09:44:39.51	355.99	11.53	-64.0	-78.2	3.3	1.49e+00	0	61	104
2025-01-03 09:44:40.42	355.94	11.44	-64.0	-78.2	3.3	1.49e+00	0	61	104
2025-01-03 09:44:41.41	355.87	11.35	-64.0	-77.8	3.4	1.49e+00	0	61	104
2025-01-03 09:44:42.32	355.81	11.26	-64.0	-78.3	3.3	1.49e+00	0	61	104
2025-01-03 09:44:43.31	355.75	11.17	-64.0	-78.3	3.3	1.49e+00	0	61	104
2025-01-03 09:44:44.22	355.69	11.09	-64.0	-78.4	3.3	1.49e+00	0	61	104
2025-01-03 09:44:45.21	355.63	10.99	-64.0	-78.3	3.3	1.49e+00	0	61	104
2025-01-03 09:44:46.12	355.57	10.91	-64.0	-78.2	3.3	1.49e+00	0	61	104
2025-01-03 09:44:47.11	355.51	10.82	-64.0	-78.2	3.3	1.49e+00	0	61	104
2025-01-03 09:44:48.01	355.45	10.74	-63.9	-78.2	3.4	1.49e+00	0	61	104
2025-01-03 09:44:49.00	355.39	10.65	-64.0	-78.3	3.3	1.49e+00	0	61	104
2025-01-03 09:44:49.91	355.34	10.56	-64.0	-78.3	3.4	1.49e+00	0	61	104
2025-01-03 09:44:50.90	355.27	10.47	-64.0	-78.3	3.3	1.49e+00	0	61	104
2025-01-03 09:44:51.81	355.22	10.39	-64.0	-78.4	3.3	1.49e+00	0	61	104
2025-01-03 09:44:52.80	355.16	10.30	-64.0	-78.3	3.4	1.49e+00	0	61	104
2025-01-03 09:44:53.71	355.11	10.22	-64.0	-78.4	3.3	1.49e+00	0	61	104
2025-01-03 09:44:54.70	355.05	10.13	-64.1	-78.4	3.3	1.49e+00	0	61	104
2025-01-03 09:44:55.61	354.99	10.05	-64.0	-78.4	3.3	1.49e+00	0	61	104
2025-01-03 09:44:56.59	354.94	9.96	-64.0	-78.3	3.3	1.49e+00	0	61	104
2025-01-03 09:44:57.50	354.88	9.88	-64.0	-78.4	3.2	1.49e+00	0	61	104
2025-01-03 09:44:58.49	354.83	9.80	-64.0	-77.9	3.2	1.49e+00	0	61	104
2025-01-03 09:44:59.40	354.77	9.72	-64.0	-78.4	3.4	1.49e+00	0	61	104
2025-01-03 09:45:00.39	354.72	9.63	-64.0	-78.1	3.3	1.49e+00	0	61	104
2025-01-03 09:45:01.30	354.67	9.55	-64.0	-78.3	3.3	1.49e+00	0	61	104
2025-01-03 09:45:02.29	354.61	9.46	-64.0	-78.2	3.3	1.49e+00	0	60	104
2025-01-03 09:45:03.20	354.56	9.39	-64.0	-78.1	3.3	1.49e+00	0	60	104
2025-01-03 09:45:04.19	354.51	9.30	-64.0	-78.2	3.4	1.49e+00	0	60	104
2025-01-03 09:45:05.10	354.45	9.22	-64.0	-78.4	3.3	1.49e+00	0	60	104
2025-01-03 09:45:06.09	354.40	9.14	-64.0	-78.4	3.3	1.49e+00	0	60	104
2025-01-03 09:45:07.00	354.35	9.06	-64.0	-78.4	3.3	1.49e+00	0	60	104
2025-01-03 09:45:07.99	354.30	8.97	-64.0	-78.2	3.3	1.49e+00	0	60	104
2025-01-03 09:45:08.90	354.25	8.90	-64.0	-78.4	3.3	1.49e+00	0	61	104
2025-01-03 09:45:09.89	354.20	8.81	-64.0	-78.4	3.3	1.49e+00	0	60	104
2025-01-03 09:45:10.79	354.15	8.74	-64.0	-78.4	3.4	1.49e+00	0	60	104
2025-01-03 09:45:11.78	354.10	8.65	-64.0	-78.3	3.3	1.49e+00	0	61	104
2025-01-03 09:45:12.69	354.05	8.58	-64.0	-78.3	3.3	1.49e+00	0	60	104
2025-01-03 09:45:13.68	354.00	8.50	-64.0	-78.4	3.2	1.49e+00	0	60	104
2025-01-03 09:45:14.58	353.95	8.42	-64.0	-78.0	3.4	1.49e+00	0	60	104
2025-01-03 09:45:15.58	353.90	8.34	-64.0	-78.2	3.3	1.49e+00	0	61	104
2025-01-03 09:45:16.48	353.85	8.26	-64.0	-78.3	3.3	1.49e+00	0	60	104
2025-01-03 09:45:17.48	353.80	8.18	-64.0	-78.4	3.4	1.49e+00	0	60	104
2025-01-03 09:45:18.38	353.76	8.11	-64.0	-78.3	3.3	1.49e+00	0	60	104
2025-01-03 09:45:19.38	353.71	8.02	-64.0	-78.3	3.3	1.49e+00	0	61	104

#Closed at: 2025-01-03 09:45:19
#Recorded file [0 MB]: D:/data/31015_250103_214034.dat