passes_logs/2025/01/03/PPK-1/PPK-1__20250103_002123_TY-41_rec.log

#Pass ID: 20250103_002123_TY-41
#Satellite: TY-41
#Configuration: TY-39
#almurnet v.1.7.20230919.trace
#Start time: 2025-01-03 00:21:22

#Version: 2.2.20231116
#Station: PPK-1
#Location: 158.6 lon 53.06666 lat
#TLE: 1 61231U 24173E   25001.01854011  .00004267  00000-0  20610-3 0  9999
#TLE: 2 61231  97.4119  78.1707 0001597  89.5700 270.5718 15.19179486 14968

#Time	Az	El	Level	Level2	SNR	BER	BlckErr	Temp	State
2025-01-03 00:21:22.59	16.54	7.93	-65.9	-70.9	3.4	0.00e+00	0	46	0
2025-01-03 00:21:24.48	16.58	8.10	-66.9	-72.5	3.6	0.00e+00	0	46	104
2025-01-03 00:21:26.38	16.63	8.28	-66.9	-72.5	3.6	0.00e+00	0	47	104
2025-01-03 00:21:28.28	16.67	8.46	-65.6	-69.4	3.7	0.00e+00	0	47	104
2025-01-03 00:21:30.17	16.72	8.64	-64.9	-68.8	3.7	0.00e+00	0	47	104
2025-01-03 00:21:32.07	16.76	8.83	-64.3	-67.9	3.4	0.00e+00	0	47	104
2025-01-03 00:21:33.97	16.81	9.01	-63.8	-67.3	3.4	0.00e+00	0	48	104
2025-01-03 00:21:35.87	16.86	9.20	-63.2	-66.3	3.4	0.00e+00	0	48	104
2025-01-03 00:21:37.77	16.91	9.39	-62.6	-65.9	3.4	0.00e+00	0	48	104
2025-01-03 00:21:39.67	16.96	9.58	-62.0	-65.2	3.8	0.00e+00	0	49	104
2025-01-03 00:21:41.56	17.01	9.77	-62.2	-65.6	3.7	0.00e+00	0	49	104
2025-01-03 00:21:43.46	17.06	9.97	-63.1	-67.1	3.4	0.00e+00	0	49	104
2025-01-03 00:21:45.36	17.11	10.16	-63.9	-68.0	3.4	0.00e+00	0	50	104
2025-01-03 00:21:47.26	17.16	10.36	-63.7	-67.7	3.4	0.00e+00	0	50	104
2025-01-03 00:21:49.16	17.21	10.56	-63.1	-66.2	3.4	0.00e+00	0	50	104
2025-01-03 00:21:51.06	17.27	10.77	-63.0	-66.4	3.7	0.00e+00	0	50	104
2025-01-03 00:21:52.95	17.32	10.97	-63.2	-67.1	3.7	0.00e+00	0	51	104
2025-01-03 00:21:54.85	17.38	11.18	-63.9	-68.1	3.4	0.00e+00	0	51	104
2025-01-03 00:21:56.75	17.43	11.39	-65.9	-71.2	3.4	0.00e+00	0	51	104
2025-01-03 00:21:58.64	17.49	11.60	-66.2	-71.6	3.5	0.00e+00	0	52	104
2025-01-03 00:22:00.54	17.55	11.82	-66.7	-72.9	3.6	0.00e+00	0	52	104
2025-01-03 00:22:02.44	17.61	12.04	-66.7	-72.9	3.7	0.00e+00	0	52	104
2025-01-03 00:22:04.34	17.67	12.26	-54.6	-53.6	11.7	0.00e+00	387	53	104
2025-01-03 00:22:06.24	17.73	12.48	-54.4	-57.5	12.8	3.46e-05	0	53	0
2025-01-03 00:22:08.14	17.79	12.70	-54.1	-56.9	12.6	5.54e-05	0	54	0
2025-01-03 00:22:10.04	17.85	12.93	-53.8	-56.3	12.8	3.46e-05	0	54	0
2025-01-03 00:22:11.93	17.91	13.16	-53.7	-56.2	13.0	6.90e-06	0	54	0
2025-01-03 00:22:13.82	17.98	13.40	-53.8	-56.3	13.2	6.90e-06	0	54	0
2025-01-03 00:22:15.72	18.04	13.63	-53.8	-56.3	13.2	6.90e-06	0	55	0
2025-01-03 00:22:17.61	18.11	13.87	-53.9	-56.5	13.1	0.00e+00	0	55	0
2025-01-03 00:22:19.51	18.18	14.11	-53.8	-56.3	13.1	0.00e+00	0	55	0
2025-01-03 00:22:21.40	18.25	14.36	-53.8	-56.4	13.1	0.00e+00	0	55	0
2025-01-03 00:22:23.30	18.32	14.61	-53.7	-56.0	13.3	0.00e+00	0	56	0
2025-01-03 00:22:25.19	18.39	14.86	-53.4	-56.0	13.6	0.00e+00	0	56	0
2025-01-03 00:22:27.08	18.46	15.12	-53.1	-55.4	13.9	0.00e+00	0	56	0
2025-01-03 00:22:28.97	18.54	15.37	-52.8	-55.2	14.0	0.00e+00	0	56	0
2025-01-03 00:22:30.86	18.61	15.64	-52.7	-55.0	14.1	0.00e+00	0	56	0
2025-01-03 00:22:32.75	18.69	15.90	-52.5	-55.2	14.2	0.00e+00	0	57	0
2025-01-03 00:22:34.65	18.77	16.17	-52.6	-55.4	14.2	0.00e+00	0	57	0
2025-01-03 00:22:36.54	18.85	16.45	-52.6	-55.5	14.2	0.00e+00	0	57	0
2025-01-03 00:22:38.44	18.93	16.73	-52.5	-55.2	14.2	0.00e+00	0	58	0
2025-01-03 00:22:40.33	19.01	17.01	-52.4	-55.0	14.2	0.00e+00	0	58	0
2025-01-03 00:22:42.22	19.10	17.29	-52.3	-54.8	14.3	0.00e+00	0	58	0
2025-01-03 00:22:44.11	19.18	17.58	-52.1	-54.4	14.5	0.00e+00	0	58	0
2025-01-03 00:22:46.01	19.27	17.88	-51.7	-54.1	14.7	0.00e+00	0	59	0
2025-01-03 00:22:47.90	19.36	18.18	-51.7	-54.1	14.7	0.00e+00	0	59	0
2025-01-03 00:22:49.79	19.45	18.48	-51.6	-54.3	14.7	0.00e+00	0	59	0
2025-01-03 00:22:51.68	19.55	18.79	-51.6	-54.4	14.6	0.00e+00	0	59	0
2025-01-03 00:22:53.58	19.64	19.10	-51.6	-54.4	14.6	0.00e+00	0	59	0
2025-01-03 00:22:55.47	19.74	19.42	-51.6	-54.4	14.5	0.00e+00	0	59	0
2025-01-03 00:22:57.37	19.84	19.75	-51.5	-54.1	14.5	0.00e+00	0	60	0
2025-01-03 00:22:59.26	19.95	20.08	-51.2	-53.6	14.9	0.00e+00	0	60	0
2025-01-03 00:23:01.15	20.05	20.41	-51.0	-53.7	15.1	0.00e+00	0	60	0
2025-01-03 00:23:03.04	20.16	20.75	-50.8	-53.4	14.7	0.00e+00	0	60	0
2025-01-03 00:23:04.93	20.27	21.09	-50.8	-53.3	14.6	0.00e+00	0	60	0
2025-01-03 00:23:06.83	20.38	21.45	-50.9	-53.4	14.8	0.00e+00	0	61	0
2025-01-03 00:23:08.72	20.50	21.81	-50.7	-53.1	15.1	0.00e+00	0	61	0
2025-01-03 00:23:10.62	20.62	22.17	-50.6	-52.9	15.2	0.00e+00	0	61	0
2025-01-03 00:23:12.51	20.74	22.54	-50.4	-52.9	15.4	0.00e+00	0	61	0
2025-01-03 00:23:14.40	20.86	22.92	-50.3	-52.7	15.4	0.00e+00	0	61	0
2025-01-03 00:23:16.29	20.99	23.30	-50.1	-52.3	15.5	0.00e+00	0	61	0
2025-01-03 00:23:18.19	21.12	23.70	-50.0	-52.6	15.6	0.00e+00	0	62	0
2025-01-03 00:23:20.08	21.26	24.09	-49.9	-52.5	15.7	0.00e+00	0	62	0
2025-01-03 00:23:21.98	21.40	24.50	-49.9	-52.5	15.7	0.00e+00	0	62	0
2025-01-03 00:23:23.87	21.54	24.91	-49.7	-52.1	15.7	0.00e+00	0	62	0
2025-01-03 00:23:25.76	21.68	25.34	-49.6	-51.9	15.5	0.00e+00	0	62	0
2025-01-03 00:23:27.66	21.84	25.77	-49.5	-52.2	15.4	0.00e+00	0	62	0
2025-01-03 00:23:29.56	21.99	26.21	-49.4	-52.0	15.6	0.00e+00	0	62	0
2025-01-03 00:23:31.46	22.15	26.66	-49.3	-51.8	15.7	0.00e+00	0	62	0
2025-01-03 00:23:33.36	22.32	27.11	-49.2	-51.4	15.9	0.00e+00	0	62	0
2025-01-03 00:23:35.26	22.49	27.58	-49.2	-51.5	15.8	0.00e+00	0	63	0
2025-01-03 00:23:37.16	22.66	28.06	-49.2	-51.6	15.9	0.00e+00	0	63	0
2025-01-03 00:23:39.06	22.85	28.54	-49.1	-51.3	15.9	0.00e+00	0	63	0
2025-01-03 00:23:40.96	23.03	29.04	-47.8	-50.2	15.8	0.00e+00	0	63	0
2025-01-03 00:23:42.86	23.23	29.55	-47.7	-50.0	15.9	0.00e+00	0	63	0
2025-01-03 00:23:44.75	23.43	30.06	-47.7	-49.9	15.9	0.00e+00	0	63	0
2025-01-03 00:23:46.65	23.63	30.59	-47.7	-49.9	15.8	0.00e+00	0	63	0
2025-01-03 00:23:48.55	23.85	31.13	-47.6	-49.9	15.7	0.00e+00	0	64	0
2025-01-03 00:23:50.45	24.07	31.68	-47.3	-49.8	16.0	0.00e+00	0	64	0
2025-01-03 00:23:52.35	24.30	32.24	-47.2	-49.4	16.2	0.00e+00	0	64	0
2025-01-03 00:23:54.25	24.54	32.82	-47.3	-49.8	16.1	0.00e+00	0	64	0
2025-01-03 00:23:56.14	24.78	33.40	-47.4	-49.9	16.1	0.00e+00	0	64	0
2025-01-03 00:23:58.04	25.04	34.00	-47.0	-49.6	16.2	0.00e+00	0	64	0
2025-01-03 00:23:59.94	25.31	34.62	-46.8	-49.3	16.2	0.00e+00	0	64	0
2025-01-03 00:24:01.84	25.59	35.25	-47.0	-49.6	16.3	0.00e+00	0	64	0
2025-01-03 00:24:03.74	25.88	35.89	-47.1	-49.9	16.2	0.00e+00	0	64	0
2025-01-03 00:24:05.64	26.18	36.55	-46.7	-49.1	16.3	0.00e+00	0	65	0
2025-01-03 00:24:07.54	26.49	37.22	-46.5	-49.1	16.4	0.00e+00	0	65	0
2025-01-03 00:24:09.43	26.82	37.90	-46.7	-49.6	16.2	0.00e+00	0	65	0
2025-01-03 00:24:11.33	27.16	38.60	-46.9	-49.9	16.2	0.00e+00	0	65	0
2025-01-03 00:24:13.23	27.52	39.32	-46.4	-49.0	16.4	0.00e+00	0	65	0
2025-01-03 00:24:15.13	27.90	40.05	-46.4	-49.0	16.4	0.00e+00	0	65	0
2025-01-03 00:24:17.03	28.29	40.80	-46.8	-49.6	16.3	0.00e+00	0	65	0
2025-01-03 00:24:18.92	28.70	41.57	-46.4	-49.0	16.3	0.00e+00	0	65	0
2025-01-03 00:24:20.82	29.14	42.35	-46.2	-48.5	16.4	0.00e+00	0	65	0
2025-01-03 00:24:22.72	29.59	43.15	-46.5	-49.2	16.4	0.00e+00	0	66	0
2025-01-03 00:24:24.62	30.07	43.97	-46.4	-48.8	16.4	0.00e+00	0	66	0
2025-01-03 00:24:26.52	30.58	44.81	-46.0	-48.5	16.5	0.00e+00	0	66	0
2025-01-03 00:24:28.42	31.11	45.66	-46.5	-49.6	16.3	0.00e+00	0	66	0
2025-01-03 00:24:30.32	31.68	46.54	-46.3	-49.2	16.4	0.00e+00	0	66	0
2025-01-03 00:24:32.21	32.28	47.42	-45.9	-48.5	16.5	0.00e+00	0	66	0
2025-01-03 00:24:34.11	32.91	48.33	-46.6	-49.8	16.2	0.00e+00	0	66	0
2025-01-03 00:24:36.00	33.58	49.25	-46.4	-49.4	16.4	0.00e+00	0	66	0
2025-01-03 00:24:37.90	34.30	50.19	-46.0	-48.7	16.4	0.00e+00	0	66	0
2025-01-03 00:24:39.80	35.07	51.16	-47.3	-50.2	15.8	0.00e+00	0	66	0
2025-01-03 00:24:41.70	35.89	52.13	-47.2	-50.1	16.0	0.00e+00	0	67	0
2025-01-03 00:24:43.60	36.76	53.13	-48.3	-51.7	15.6	0.00e+00	0	67	0
2025-01-03 00:24:45.50	37.70	54.13	-48.8	-51.8	15.4	0.00e+00	0	67	0
2025-01-03 00:24:47.40	38.70	55.16	-49.1	-52.4	15.2	0.00e+00	0	67	0
2025-01-03 00:24:49.30	39.79	56.19	-51.8	-54.8	14.7	0.00e+00	0	67	0
2025-01-03 00:24:51.20	40.96	57.24	-51.7	-54.6	14.6	0.00e+00	0	67	0
2025-01-03 00:24:53.10	42.22	58.29	-53.5	-56.7	13.4	0.00e+00	0	67	0
2025-01-03 00:24:55.00	43.59	59.35	-53.8	-56.7	13.5	0.00e+00	0	67	0
2025-01-03 00:24:56.89	45.07	60.41	-55.2	-58.7	12.4	2.08e-05	0	67	0
2025-01-03 00:24:58.79	46.69	61.48	-56.6	-60.0	11.6	3.19e-04	0	67	0
2025-01-03 00:25:00.69	48.45	62.55	-56.9	-60.1	11.4	4.37e-04	0	67	0
2025-01-03 00:25:02.59	50.38	63.61	-58.7	-62.2	9.4	1.49e-02	0	68	0
2025-01-03 00:25:04.49	52.49	64.65	-59.2	-62.8	9.6	9.00e-03	0	68	0
2025-01-03 00:25:06.39	54.80	65.68	-60.6	-64.1	8.1	3.52e-02	0	68	0
2025-01-03 00:25:08.29	57.34	66.69	-61.5	-65.0	7.2	1.15e-01	2	68	0
2025-01-03 00:25:10.19	60.13	67.66	-61.4	-64.9	7.2	1.15e-01	0	68	0
2025-01-03 00:25:12.09	63.19	68.59	-62.9	-66.6	5.7	2.91e-01	7305	69	0
2025-01-03 00:25:13.99	66.54	69.47	-63.3	-66.8	5.5	4.82e-01	7322	70	0
2025-01-03 00:25:15.89	70.21	70.29	-62.6	-66.1	5.5	4.39e-01	7324	69	0
2025-01-03 00:25:17.78	74.18	71.03	-62.7	-66.8	4.7	5.40e-01	7078	70	0
2025-01-03 00:25:19.68	78.50	71.68	-63.3	-67.0	5.7	5.27e-01	7325	70	0
2025-01-03 00:25:21.58	83.14	72.24	-62.8	-65.8	6.2	2.96e-01	7317	70	0
2025-01-03 00:25:23.48	88.05	72.68	-61.9	-64.9	6.9	1.86e-01	4	69	0
2025-01-03 00:25:25.38	93.20	72.99	-61.9	-64.8	7.2	1.57e-01	0	69	0
2025-01-03 00:25:27.28	98.50	73.17	-61.8	-65.2	7.1	1.33e-01	0	69	0
2025-01-03 00:25:29.18	103.89	73.21	-61.3	-64.1	7.8	9.89e-02	0	69	0
2025-01-03 00:25:31.08	109.25	73.12	-61.6	-64.7	7.5	1.02e-01	0	70	0
2025-01-03 00:25:32.98	114.50	72.88	-61.6	-64.7	7.2	1.13e-01	0	70	0
2025-01-03 00:25:34.88	119.57	72.51	-62.1	-65.7	6.6	2.28e-01	709	70	0
2025-01-03 00:25:36.78	124.38	72.03	-62.4	-66.0	6.0	3.54e-01	7324	71	0
2025-01-03 00:25:38.67	128.87	71.43	-62.7	-66.5	6.2	3.57e-01	7314	71	0
2025-01-03 00:25:40.57	133.06	70.74	-62.9	-66.5	6.0	3.72e-01	7340	71	0
2025-01-03 00:25:42.47	136.92	69.97	-63.2	-67.2	5.9	3.70e-01	7328	71	0
2025-01-03 00:25:44.37	140.47	69.12	-63.4	-67.1	5.7	4.46e-01	7333	72	0
2025-01-03 00:25:46.26	143.69	68.22	-63.3	-66.9	5.7	4.81e-01	7311	72	0
2025-01-03 00:25:48.16	146.64	67.27	-62.8	-65.7	6.0	3.38e-01	7325	72	0
2025-01-03 00:25:50.06	149.33	66.28	-61.6	-64.5	6.6	3.52e-01	814	72	0
2025-01-03 00:25:51.96	151.78	65.26	-59.3	-62.1	9.6	5.02e-02	0	71	0
2025-01-03 00:25:53.86	154.01	64.22	-59.0	-62.3	10.2	2.34e-03	0	71	0
2025-01-03 00:25:55.76	156.05	63.17	-56.2	-58.7	12.5	7.84e-04	0	71	0
2025-01-03 00:25:57.66	157.91	62.10	-67.8	-73.5	3.7	9.71e-05	0	71	104
2025-01-03 00:25:59.56	159.62	61.03	-68.0	-73.8	3.6	9.71e-05	0	71	104
2025-01-03 00:26:01.45	161.18	59.97	-68.1	-74.1	3.6	9.71e-05	0	71	104
2025-01-03 00:26:03.35	162.62	58.90	-68.0	-73.8	3.6	9.71e-05	0	71	104
2025-01-03 00:26:05.24	163.94	57.84	-67.9	-73.7	3.6	9.71e-05	0	71	104
2025-01-03 00:26:07.14	165.16	56.78	-68.0	-73.9	3.7	9.71e-05	0	71	104
2025-01-03 00:26:09.04	166.30	55.74	-68.2	-74.3	3.7	9.71e-05	0	71	104
2025-01-03 00:26:10.94	167.35	54.70	-68.0	-73.9	3.7	9.71e-05	0	71	104
2025-01-03 00:26:12.84	168.33	53.68	-67.4	-72.8	3.6	9.71e-05	0	71	104
2025-01-03 00:26:14.74	169.24	52.68	-67.1	-72.6	3.6	9.71e-05	0	71	104
2025-01-03 00:26:16.64	170.09	51.69	-67.5	-73.2	3.5	9.71e-05	0	71	104
2025-01-03 00:26:18.54	170.89	50.71	-67.8	-73.3	3.7	9.71e-05	0	71	104
2025-01-03 00:26:20.44	171.64	49.76	-67.7	-73.2	3.7	9.71e-05	0	71	104
2025-01-03 00:26:22.34	172.34	48.82	-66.8	-71.7	3.6	9.71e-05	0	71	104
2025-01-03 00:26:24.24	173.00	47.89	-67.2	-72.7	3.5	9.71e-05	0	71	104
2025-01-03 00:26:26.13	173.61	46.99	-67.0	-72.2	3.5	9.71e-05	0	71	104
2025-01-03 00:26:28.03	174.20	46.11	-67.7	-73.6	3.6	9.71e-05	0	71	104
2025-01-03 00:26:29.93	174.75	45.24	-67.5	-73.3	3.7	9.71e-05	0	71	104
2025-01-03 00:26:31.83	175.28	44.39	-68.0	-73.9	3.7	9.71e-05	0	71	104
2025-01-03 00:26:33.73	175.77	43.55	-68.0	-74.0	3.7	9.71e-05	0	71	104
2025-01-03 00:26:35.63	176.24	42.74	-67.8	-73.6	3.6	9.71e-05	0	70	104
2025-01-03 00:26:37.53	176.69	41.94	-67.9	-73.6	3.6	9.71e-05	0	71	104
2025-01-03 00:26:39.43	177.12	41.16	-67.9	-73.8	3.6	9.71e-05	0	71	104
2025-01-03 00:26:41.33	177.52	40.40	-68.0	-73.8	3.7	9.71e-05	0	71	104
2025-01-03 00:26:43.23	177.91	39.65	-67.9	-73.8	3.7	6.90e-06	0	71	104
2025-01-03 00:26:45.13	178.28	38.92	-67.9	-73.8	3.7	6.90e-06	0	71	104
2025-01-03 00:26:47.02	178.63	38.21	-67.9	-73.5	3.6	6.90e-06	0	71	104
2025-01-03 00:26:48.92	178.96	37.51	-67.9	-73.6	3.6	6.90e-06	0	71	104
2025-01-03 00:26:50.82	179.29	36.83	-67.9	-73.8	3.6	6.90e-06	0	71	104
2025-01-03 00:26:52.72	179.60	36.16	-68.0	-74.0	3.7	6.90e-06	0	71	104
2025-01-03 00:26:54.62	179.89	35.51	-67.9	-73.6	3.7	6.90e-06	0	71	104
2025-01-03 00:26:56.52	180.18	34.87	-67.6	-73.1	3.7	6.90e-06	0	71	104
2025-01-03 00:26:58.42	180.45	34.24	-68.0	-73.8	3.6	6.90e-06	0	71	104
2025-01-03 00:27:00.32	180.71	33.63	-68.0	-74.0	3.6	6.90e-06	0	71	104
2025-01-03 00:27:02.22	180.96	33.03	-68.0	-73.8	3.6	6.90e-06	0	71	104
2025-01-03 00:27:04.12	181.21	32.45	-67.9	-73.6	3.7	6.90e-06	0	71	104
2025-01-03 00:27:06.02	181.44	31.87	-67.8	-73.5	3.7	6.90e-06	0	71	104
2025-01-03 00:27:07.91	181.67	31.32	-68.0	-73.9	3.7	6.90e-06	0	71	104
2025-01-03 00:27:09.81	181.89	30.77	-67.9	-73.7	3.6	6.90e-06	0	71	104
2025-01-03 00:27:11.71	182.10	30.23	-67.9	-73.6	3.6	6.90e-06	0	71	104
2025-01-03 00:27:13.60	182.30	29.71	-67.9	-73.7	3.6	6.90e-06	0	71	104
2025-01-03 00:27:15.50	182.50	29.19	-68.0	-73.8	3.7	6.90e-06	0	71	104
2025-01-03 00:27:17.40	182.69	28.69	-68.0	-73.8	3.7	6.90e-06	0	71	104
2025-01-03 00:27:19.30	182.87	28.20	-67.8	-73.5	3.7	6.90e-06	0	71	104
2025-01-03 00:27:21.20	183.05	27.71	-67.8	-73.5	3.6	6.90e-06	0	71	104
2025-01-03 00:27:23.10	183.22	27.24	-67.8	-73.6	3.6	6.90e-06	0	71	104
2025-01-03 00:27:25.00	183.39	26.77	-67.8	-73.6	3.6	6.90e-06	0	71	104
2025-01-03 00:27:26.90	183.55	26.32	-67.8	-73.5	3.7	6.90e-06	0	71	104
2025-01-03 00:27:28.80	183.71	25.87	-67.7	-73.2	3.7	6.90e-06	0	71	104
2025-01-03 00:27:30.69	183.86	25.43	-67.7	-73.1	3.6	6.90e-06	0	71	104
2025-01-03 00:27:32.59	184.01	25.01	-67.8	-73.3	3.7	6.90e-06	0	71	104
2025-01-03 00:27:34.48	184.15	24.59	-67.9	-73.6	3.6	6.90e-06	0	71	104
2025-01-03 00:27:36.38	184.30	24.17	-67.8	-73.5	3.6	6.90e-06	0	71	104
2025-01-03 00:27:38.28	184.43	23.77	-67.7	-73.3	3.6	6.90e-06	0	71	104
2025-01-03 00:27:40.18	184.57	23.37	-67.7	-73.0	3.7	6.90e-06	0	71	104
2025-01-03 00:27:42.08	184.69	22.98	-67.7	-73.1	3.7	6.90e-06	0	71	104
2025-01-03 00:27:43.98	184.82	22.59	-67.6	-73.0	3.7	6.90e-06	0	71	104
2025-01-03 00:27:45.88	184.94	22.22	-67.7	-73.3	3.6	0.00e+00	0	71	104
2025-01-03 00:27:47.78	185.06	21.84	-67.8	-73.5	3.6	0.00e+00	0	71	104
2025-01-03 00:27:49.68	185.18	21.48	-67.8	-73.5	3.6	0.00e+00	0	71	104
2025-01-03 00:27:51.58	185.29	21.12	-67.7	-73.4	3.7	0.00e+00	0	71	104
2025-01-03 00:27:53.48	185.41	20.77	-67.7	-73.4	3.7	0.00e+00	0	71	104
2025-01-03 00:27:55.37	185.51	20.43	-67.7	-73.4	3.6	0.00e+00	0	71	104
2025-01-03 00:27:57.27	185.62	20.09	-67.6	-73.2	3.6	0.00e+00	0	71	104
2025-01-03 00:27:59.17	185.72	19.75	-67.5	-73.1	3.6	0.00e+00	0	71	104
2025-01-03 00:28:01.07	185.82	19.42	-67.3	-72.8	3.6	0.00e+00	0	71	104
2025-01-03 00:28:02.97	185.92	19.10	-67.3	-72.7	3.7	0.00e+00	0	71	104
2025-01-03 00:28:04.87	186.02	18.78	-67.4	-72.8	3.6	0.00e+00	0	71	104
2025-01-03 00:28:06.77	186.11	18.47	-67.5	-72.8	3.7	0.00e+00	0	71	104
2025-01-03 00:28:08.67	186.21	18.16	-67.6	-72.8	3.6	0.00e+00	0	71	104
2025-01-03 00:28:10.57	186.30	17.86	-67.5	-72.7	3.5	0.00e+00	0	71	104
2025-01-03 00:28:12.47	186.39	17.56	-67.5	-72.6	3.5	0.00e+00	0	71	104
2025-01-03 00:28:14.37	186.47	17.26	-67.4	-72.5	3.7	0.00e+00	0	71	104
2025-01-03 00:28:16.26	186.56	16.97	-67.5	-72.7	3.7	0.00e+00	0	71	104
2025-01-03 00:28:18.16	186.64	16.69	-67.4	-72.6	3.6	0.00e+00	0	71	104
2025-01-03 00:28:20.05	186.72	16.41	-67.2	-72.4	3.6	0.00e+00	0	71	104
2025-01-03 00:28:21.95	186.80	16.13	-67.1	-72.2	3.6	0.00e+00	0	71	104
2025-01-03 00:28:23.84	186.88	15.86	-67.1	-72.4	3.6	0.00e+00	0	71	104
2025-01-03 00:28:25.74	186.96	15.59	-67.3	-72.8	3.7	0.00e+00	0	71	104
2025-01-03 00:28:27.64	187.03	15.32	-67.4	-73.0	3.7	0.00e+00	0	71	104
2025-01-03 00:28:29.54	187.11	15.06	-67.5	-72.9	3.7	0.00e+00	0	71	104
2025-01-03 00:28:31.44	187.18	14.80	-67.5	-72.9	3.6	0.00e+00	0	71	104
2025-01-03 00:28:33.34	187.25	14.55	-67.5	-72.8	3.6	0.00e+00	0	71	104
2025-01-03 00:28:35.24	187.32	14.29	-67.5	-72.8	3.6	0.00e+00	0	71	104
2025-01-03 00:28:37.14	187.39	14.04	-67.5	-72.7	3.7	0.00e+00	0	71	104
2025-01-03 00:28:39.04	187.45	13.80	-67.5	-72.7	3.7	0.00e+00	0	71	104
2025-01-03 00:28:40.93	187.52	13.56	-67.4	-72.6	3.7	0.00e+00	0	71	104
2025-01-03 00:28:42.83	187.59	13.32	-67.3	-72.3	3.6	0.00e+00	0	71	104
2025-01-03 00:28:44.73	187.65	13.08	-67.3	-72.3	3.6	0.00e+00	0	71	104
2025-01-03 00:28:46.62	187.71	12.85	-67.2	-72.1	3.6	0.00e+00	0	71	104
2025-01-03 00:28:48.52	187.77	12.62	-67.2	-72.1	3.7	0.00e+00	0	71	104
2025-01-03 00:28:50.42	187.83	12.39	-67.2	-72.1	3.7	0.00e+00	0	71	104
2025-01-03 00:28:52.32	187.89	12.17	-67.2	-72.1	3.6	0.00e+00	0	71	104
2025-01-03 00:28:54.22	187.95	11.95	-67.1	-72.6	3.6	0.00e+00	0	71	104
2025-01-03 00:28:56.12	188.01	11.73	-67.0	-72.6	3.6	0.00e+00	0	71	104
2025-01-03 00:28:58.01	188.07	11.51	-67.0	-72.5	3.6	0.00e+00	0	71	104
2025-01-03 00:28:59.91	188.12	11.30	-67.0	-72.5	3.7	0.00e+00	0	71	104
2025-01-03 00:29:01.81	188.18	11.08	-67.1	-72.5	3.7	0.00e+00	0	71	104
2025-01-03 00:29:03.71	188.23	10.87	-67.1	-72.5	3.7	0.00e+00	0	71	104
2025-01-03 00:29:05.61	188.29	10.67	-67.1	-72.6	3.6	0.00e+00	0	71	104
2025-01-03 00:29:07.51	188.34	10.46	-67.2	-72.8	3.6	0.00e+00	0	71	104
2025-01-03 00:29:09.40	188.39	10.26	-67.3	-72.9	3.6	0.00e+00	0	71	104
2025-01-03 00:29:11.30	188.44	10.06	-67.4	-73.0	3.7	0.00e+00	0	71	104
2025-01-03 00:29:13.20	188.49	9.86	-67.4	-73.0	3.7	0.00e+00	0	71	104
2025-01-03 00:29:15.10	188.54	9.66	-67.5	-73.3	3.6	0.00e+00	0	71	104
2025-01-03 00:29:17.00	188.59	9.47	-67.5	-73.3	3.6	0.00e+00	0	71	104
2025-01-03 00:29:18.90	188.64	9.28	-67.4	-73.2	3.6	0.00e+00	0	71	104
2025-01-03 00:29:20.80	188.68	9.09	-67.3	-73.1	3.6	0.00e+00	0	71	104
2025-01-03 00:29:22.70	188.73	8.90	-67.2	-72.9	3.7	0.00e+00	0	71	104
2025-01-03 00:29:24.60	188.78	8.71	-67.2	-72.7	3.7	0.00e+00	0	71	104
2025-01-03 00:29:26.50	188.82	8.53	-67.2	-72.6	3.6	0.00e+00	0	71	104
2025-01-03 00:29:28.40	188.87	8.34	-67.1	-72.3	3.6	0.00e+00	0	71	104
2025-01-03 00:29:30.29	188.91	8.16	-67.1	-72.3	3.6	0.00e+00	0	71	104

#Closed at: 2025-01-03 00:29:32
#Recorded file [17356 MB]: D:/data/31015_250103_122556.dat