passes_logs/2025/01/03/PPK-1/PPK-1__20250103_093402_TY-39_rec.log

#Pass ID: 20250103_093402_TY-39
#Satellite: TY-39
#Configuration: TY-39
#almurnet v.1.7.20230919.trace
#Start time: 2025-01-03 09:34:02

#Version: 2.2.20231116
#Station: PPK-1
#Location: 158.6 lon 53.06666 lat
#TLE: 1 51832U 22019J   25002.46677434  .00009495  00000+0  48525-3 0  9996
#TLE: 2 51832  97.4114  72.9519 0007671 284.7566  75.2817 15.16856555157245

#Time	Az	El	Level	Level2	SNR	BER	BlckErr	Temp	State
2025-01-03 09:34:02.32	111.61	7.98	-63.1	-69.2	3.6	0.00e+00	0	46	0
2025-01-03 09:34:04.21	111.33	8.12	-63.2	-69.2	3.6	0.00e+00	0	47	104
2025-01-03 09:34:06.11	111.05	8.26	-63.2	-69.2	3.6	0.00e+00	0	47	104
2025-01-03 09:34:08.01	110.76	8.40	-63.2	-69.3	3.7	0.00e+00	0	47	104
2025-01-03 09:34:09.90	110.46	8.54	-63.2	-69.3	3.7	0.00e+00	0	47	104
2025-01-03 09:34:11.80	110.17	8.68	-63.2	-69.3	3.7	0.00e+00	0	48	104
2025-01-03 09:34:13.70	109.87	8.82	-63.2	-69.2	3.6	0.00e+00	0	48	104
2025-01-03 09:34:15.60	109.57	8.96	-63.2	-69.3	3.6	0.00e+00	0	48	104
2025-01-03 09:34:17.50	109.26	9.10	-63.1	-69.2	3.6	0.00e+00	0	49	104
2025-01-03 09:34:19.40	108.95	9.24	-63.2	-69.4	3.7	0.00e+00	0	49	104
2025-01-03 09:34:21.29	108.63	9.38	-63.2	-69.4	3.7	0.00e+00	0	50	104
2025-01-03 09:34:23.19	108.32	9.52	-63.2	-69.3	3.6	0.00e+00	0	50	104
2025-01-03 09:34:25.09	107.99	9.67	-63.2	-69.3	3.6	0.00e+00	0	50	104
2025-01-03 09:34:26.99	107.67	9.81	-63.0	-69.2	3.6	0.00e+00	0	50	104
2025-01-03 09:34:28.89	107.34	9.95	-63.2	-69.4	3.6	0.00e+00	0	51	104
2025-01-03 09:34:30.79	107.00	10.10	-63.1	-69.2	3.7	0.00e+00	0	51	104
2025-01-03 09:34:32.69	106.67	10.24	-63.2	-69.3	3.7	0.00e+00	0	51	104
2025-01-03 09:34:34.59	106.32	10.39	-63.1	-69.2	3.6	0.00e+00	0	51	104
2025-01-03 09:34:36.49	105.98	10.53	-63.1	-69.3	3.6	0.00e+00	0	52	104
2025-01-03 09:34:38.39	105.63	10.68	-63.1	-69.3	3.6	0.00e+00	0	52	104
2025-01-03 09:34:40.29	105.27	10.82	-63.2	-69.3	3.6	0.00e+00	0	52	104
2025-01-03 09:34:42.18	104.92	10.96	-63.1	-69.2	3.7	0.00e+00	0	53	104
2025-01-03 09:34:44.08	104.55	11.11	-63.2	-69.4	3.7	0.00e+00	0	53	104
2025-01-03 09:34:45.98	104.19	11.26	-63.2	-69.3	3.6	0.00e+00	0	53	104
2025-01-03 09:34:47.88	103.81	11.40	-63.1	-69.2	3.6	0.00e+00	0	53	104
2025-01-03 09:34:49.78	103.44	11.55	-63.2	-69.3	3.6	0.00e+00	0	53	104
2025-01-03 09:34:51.68	103.06	11.69	-63.1	-69.1	3.6	0.00e+00	0	54	104
2025-01-03 09:34:53.58	102.67	11.84	-63.2	-69.3	3.7	0.00e+00	0	54	104
2025-01-03 09:34:55.48	102.28	11.98	-63.1	-69.3	3.7	0.00e+00	0	54	104
2025-01-03 09:34:57.38	101.89	12.13	-63.2	-69.4	3.7	0.00e+00	0	54	104
2025-01-03 09:34:59.28	101.49	12.28	-63.2	-69.2	3.6	0.00e+00	0	55	104
2025-01-03 09:35:01.18	101.08	12.42	-63.2	-69.4	3.6	0.00e+00	0	55	104
2025-01-03 09:35:03.08	100.67	12.57	-63.1	-69.2	3.6	0.00e+00	0	55	104
2025-01-03 09:35:04.97	100.26	12.71	-63.2	-69.3	3.7	0.00e+00	0	55	104
2025-01-03 09:35:06.87	99.84	12.86	-63.2	-69.3	3.7	0.00e+00	0	56	104
2025-01-03 09:35:08.77	99.42	13.00	-63.2	-69.4	3.7	0.00e+00	0	56	104
2025-01-03 09:35:10.67	98.99	13.15	-63.2	-69.3	3.6	0.00e+00	0	56	104
2025-01-03 09:35:12.57	98.56	13.29	-63.1	-69.2	3.6	0.00e+00	0	56	104
2025-01-03 09:35:14.47	98.12	13.44	-63.2	-69.3	3.6	0.00e+00	0	56	104
2025-01-03 09:35:16.37	97.67	13.58	-63.2	-69.4	3.7	0.00e+00	0	57	104
2025-01-03 09:35:18.27	97.23	13.73	-63.1	-69.3	3.7	0.00e+00	0	57	104
2025-01-03 09:35:20.16	96.77	13.87	-63.2	-69.4	3.6	0.00e+00	0	57	104
2025-01-03 09:35:22.06	96.31	14.01	-63.1	-69.3	3.6	0.00e+00	0	57	104
2025-01-03 09:35:23.96	95.85	14.15	-63.0	-69.1	3.6	0.00e+00	0	57	104
2025-01-03 09:35:25.86	95.38	14.29	-63.2	-69.3	3.6	0.00e+00	0	58	104
2025-01-03 09:35:27.76	94.90	14.44	-63.1	-69.3	3.7	0.00e+00	0	58	104
2025-01-03 09:35:29.66	94.42	14.58	-63.2	-69.3	3.7	0.00e+00	0	58	104
2025-01-03 09:35:31.56	93.94	14.72	-63.2	-69.3	3.6	0.00e+00	0	58	104
2025-01-03 09:35:33.46	93.45	14.85	-63.2	-69.3	3.6	0.00e+00	0	58	104
2025-01-03 09:35:35.36	92.95	14.99	-63.2	-69.3	3.6	0.00e+00	0	58	104
2025-01-03 09:35:37.25	92.45	15.13	-63.2	-69.3	3.6	0.00e+00	0	59	104
2025-01-03 09:35:39.15	91.94	15.26	-63.2	-69.3	3.7	0.00e+00	0	59	104
2025-01-03 09:35:41.05	91.43	15.40	-63.2	-69.4	3.7	0.00e+00	0	59	104
2025-01-03 09:35:42.95	90.91	15.53	-63.2	-69.0	3.6	0.00e+00	0	59	104
2025-01-03 09:35:44.85	90.39	15.66	-63.1	-68.8	3.6	0.00e+00	0	59	104
2025-01-03 09:35:46.75	89.86	15.80	-63.1	-68.8	3.6	0.00e+00	0	60	104
2025-01-03 09:35:48.65	89.32	15.93	-63.2	-68.9	3.6	0.00e+00	0	60	104
2025-01-03 09:35:50.54	88.79	16.05	-63.2	-68.8	3.7	0.00e+00	0	60	104
2025-01-03 09:35:52.44	88.24	16.18	-63.2	-68.8	3.7	0.00e+00	0	60	104
2025-01-03 09:35:54.34	87.69	16.31	-63.2	-68.9	3.7	0.00e+00	0	60	104
2025-01-03 09:35:56.24	87.14	16.43	-63.3	-69.0	3.6	0.00e+00	0	60	104
2025-01-03 09:35:58.14	86.58	16.55	-63.2	-68.9	3.6	0.00e+00	0	60	104
2025-01-03 09:36:00.04	86.01	16.67	-63.2	-68.8	3.6	0.00e+00	0	61	104
2025-01-03 09:36:01.94	85.44	16.79	-63.2	-68.9	3.7	0.00e+00	0	61	104
2025-01-03 09:36:03.84	84.86	16.91	-63.3	-69.0	3.7	0.00e+00	0	61	104
2025-01-03 09:36:05.74	84.28	17.03	-63.2	-68.8	3.7	0.00e+00	0	61	104
2025-01-03 09:36:07.64	83.69	17.14	-63.2	-68.9	3.6	0.00e+00	0	61	104
2025-01-03 09:36:09.54	83.10	17.25	-63.3	-68.9	3.6	0.00e+00	0	61	104
2025-01-03 09:36:11.44	82.50	17.36	-63.2	-68.8	3.6	0.00e+00	0	62	104
2025-01-03 09:36:13.33	81.90	17.47	-63.3	-68.9	3.7	0.00e+00	0	62	104
2025-01-03 09:36:15.23	81.30	17.57	-63.2	-68.9	3.7	0.00e+00	0	62	104
2025-01-03 09:36:17.13	80.68	17.67	-63.2	-68.8	3.7	0.00e+00	0	62	104
2025-01-03 09:36:19.03	80.07	17.77	-63.1	-68.7	3.6	0.00e+00	0	62	104
2025-01-03 09:36:20.93	79.45	17.87	-63.2	-68.8	3.6	0.00e+00	0	62	104
2025-01-03 09:36:22.83	78.82	17.96	-63.2	-68.8	3.6	0.00e+00	0	62	104
2025-01-03 09:36:24.73	78.19	18.05	-63.3	-68.9	3.7	0.00e+00	0	62	104
2025-01-03 09:36:26.63	77.56	18.14	-63.2	-68.9	3.7	0.00e+00	0	62	104
2025-01-03 09:36:28.53	76.92	18.23	-63.3	-68.9	3.7	0.00e+00	0	62	104
2025-01-03 09:36:30.43	76.28	18.31	-63.2	-68.9	3.6	0.00e+00	0	62	104
2025-01-03 09:36:32.33	75.63	18.39	-63.2	-68.8	3.6	0.00e+00	0	62	104
2025-01-03 09:36:34.22	74.99	18.47	-63.2	-68.9	3.6	0.00e+00	0	63	104
2025-01-03 09:36:36.12	74.33	18.54	-63.1	-68.8	3.7	0.00e+00	0	63	104
2025-01-03 09:36:38.02	73.68	18.61	-63.2	-68.8	3.7	0.00e+00	0	63	104
2025-01-03 09:36:39.92	73.01	18.68	-63.2	-68.8	3.7	0.00e+00	0	63	104
2025-01-03 09:36:41.82	72.35	18.75	-63.1	-68.8	3.6	0.00e+00	0	63	104
2025-01-03 09:36:43.72	71.68	18.81	-63.2	-68.9	3.6	0.00e+00	0	63	104
2025-01-03 09:36:45.62	71.01	18.86	-63.3	-68.9	3.6	0.00e+00	0	63	104
2025-01-03 09:36:47.51	70.35	18.92	-63.2	-68.8	3.6	0.00e+00	0	63	104
2025-01-03 09:36:49.41	69.67	18.97	-63.2	-68.9	3.7	0.00e+00	0	64	104
2025-01-03 09:36:51.31	68.99	19.01	-63.2	-68.9	3.7	0.00e+00	0	63	104
2025-01-03 09:36:53.21	68.31	19.06	-63.1	-68.8	3.6	0.00e+00	0	63	104
2025-01-03 09:36:55.11	67.63	19.10	-63.2	-69.0	3.6	0.00e+00	0	64	104
2025-01-03 09:36:57.00	66.95	19.13	-63.2	-68.8	3.6	0.00e+00	0	64	104
2025-01-03 09:36:58.90	66.27	19.17	-63.1	-68.8	3.6	0.00e+00	0	64	104
2025-01-03 09:37:00.80	65.58	19.19	-63.2	-68.8	3.7	0.00e+00	0	64	104
2025-01-03 09:37:02.70	64.89	19.22	-63.0	-68.6	3.7	0.00e+00	0	64	104
2025-01-03 09:37:04.59	64.21	19.24	-63.1	-68.8	3.7	0.00e+00	0	64	104
2025-01-03 09:37:06.49	63.52	19.26	-63.2	-68.9	3.6	0.00e+00	0	64	104
2025-01-03 09:37:08.39	62.83	19.27	-63.3	-69.0	3.6	0.00e+00	0	64	104
2025-01-03 09:37:10.29	62.13	19.28	-63.1	-68.8	3.6	0.00e+00	0	64	104
2025-01-03 09:37:12.19	61.44	19.28	-63.2	-68.8	3.7	0.00e+00	0	65	104
2025-01-03 09:37:14.09	60.75	19.29	-63.3	-68.9	3.7	0.00e+00	0	65	104
2025-01-03 09:37:15.99	60.06	19.28	-63.2	-68.9	3.6	0.00e+00	0	65	104
2025-01-03 09:37:17.89	59.37	19.28	-63.2	-68.9	3.6	0.00e+00	0	65	104
2025-01-03 09:37:19.78	58.68	19.27	-63.2	-68.8	3.6	0.00e+00	0	65	104
2025-01-03 09:37:21.68	57.99	19.25	-63.2	-68.9	3.6	0.00e+00	0	65	104
2025-01-03 09:37:23.58	57.30	19.23	-63.3	-68.9	3.7	0.00e+00	0	65	104
2025-01-03 09:37:25.48	56.61	19.21	-63.2	-68.9	3.7	0.00e+00	0	65	104
2025-01-03 09:37:27.38	55.93	19.19	-63.2	-68.9	3.6	0.00e+00	0	65	104
2025-01-03 09:37:29.28	55.24	19.16	-63.2	-68.9	3.6	0.00e+00	0	65	104
2025-01-03 09:37:31.18	54.56	19.13	-63.1	-68.7	3.6	0.00e+00	0	65	104
2025-01-03 09:37:33.08	53.88	19.09	-63.2	-68.8	3.6	0.00e+00	0	65	104
2025-01-03 09:37:34.98	53.20	19.05	-63.2	-68.9	3.7	0.00e+00	0	66	104
2025-01-03 09:37:36.88	52.52	19.00	-63.2	-68.8	3.7	0.00e+00	0	66	104
2025-01-03 09:37:38.78	51.84	18.96	-63.2	-68.9	3.6	0.00e+00	0	66	104
2025-01-03 09:37:40.68	51.17	18.91	-63.3	-69.0	3.6	0.00e+00	0	66	104
2025-01-03 09:37:42.57	50.51	18.85	-63.3	-69.0	3.6	0.00e+00	0	66	104
2025-01-03 09:37:44.47	49.84	18.79	-63.2	-68.8	3.6	0.00e+00	0	66	104
2025-01-03 09:37:46.37	49.17	18.73	-63.2	-68.9	3.7	0.00e+00	0	66	104
2025-01-03 09:37:48.27	48.51	18.67	-63.2	-68.9	3.7	0.00e+00	0	66	104
2025-01-03 09:37:50.17	47.86	18.60	-63.2	-68.9	3.7	0.00e+00	0	66	104
2025-01-03 09:37:52.07	47.20	18.53	-63.2	-68.9	3.6	0.00e+00	0	66	104
2025-01-03 09:37:53.97	46.55	18.45	-63.2	-68.9	3.6	0.00e+00	0	66	104
2025-01-03 09:37:55.87	45.91	18.38	-63.1	-68.8	3.6	0.00e+00	0	66	104
2025-01-03 09:37:57.76	45.27	18.30	-63.2	-68.8	3.7	0.00e+00	0	66	104
2025-01-03 09:37:59.66	44.63	18.21	-63.2	-68.9	3.7	0.00e+00	0	66	104
2025-01-03 09:38:01.56	43.99	18.13	-63.2	-68.9	3.7	0.00e+00	0	66	104
2025-01-03 09:38:03.46	43.36	18.04	-63.3	-69.0	3.6	0.00e+00	0	66	104
2025-01-03 09:38:05.35	42.74	17.95	-63.3	-68.9	3.6	0.00e+00	0	66	104
2025-01-03 09:38:07.25	42.12	17.85	-63.2	-68.9	3.6	0.00e+00	0	67	104
2025-01-03 09:38:09.15	41.50	17.76	-63.1	-68.8	3.7	0.00e+00	0	67	104
2025-01-03 09:38:11.05	40.89	17.66	-63.2	-68.9	3.7	0.00e+00	0	67	104
2025-01-03 09:38:12.95	40.29	17.55	-63.2	-68.8	3.6	0.00e+00	0	67	104
2025-01-03 09:38:14.84	39.69	17.45	-63.2	-68.9	3.6	0.00e+00	0	67	104
2025-01-03 09:38:16.74	39.09	17.34	-63.3	-68.9	3.6	0.00e+00	0	67	104
2025-01-03 09:38:18.64	38.50	17.24	-63.2	-68.9	3.6	0.00e+00	0	67	104
2025-01-03 09:38:20.54	37.91	17.12	-63.2	-68.8	3.7	0.00e+00	0	67	104
2025-01-03 09:38:22.44	37.33	17.01	-63.2	-68.8	3.7	0.00e+00	0	67	104
2025-01-03 09:38:24.34	36.75	16.90	-63.3	-69.0	3.7	0.00e+00	0	67	104
2025-01-03 09:38:26.24	36.18	16.78	-63.2	-68.8	3.6	0.00e+00	0	67	104
2025-01-03 09:38:28.13	35.62	16.66	-63.2	-69.0	3.6	0.00e+00	0	67	104
2025-01-03 09:38:30.03	35.05	16.54	-63.2	-68.9	3.6	0.00e+00	0	67	104
2025-01-03 09:38:31.92	34.50	16.42	-63.3	-68.9	3.7	0.00e+00	0	68	104
2025-01-03 09:38:33.82	33.95	16.30	-63.2	-68.9	3.7	0.00e+00	0	67	104
2025-01-03 09:38:35.72	33.40	16.17	-63.2	-68.9	3.7	0.00e+00	0	68	104
2025-01-03 09:38:37.62	32.86	16.05	-63.2	-68.9	3.6	0.00e+00	0	68	104
2025-01-03 09:38:39.52	32.33	15.92	-63.3	-68.9	3.6	0.00e+00	0	68	104
2025-01-03 09:38:41.42	31.80	15.79	-63.2	-68.9	3.6	0.00e+00	0	68	104
2025-01-03 09:38:43.32	31.28	15.66	-63.2	-68.9	3.6	0.00e+00	0	68	104
2025-01-03 09:38:45.22	30.76	15.53	-63.3	-69.0	3.7	0.00e+00	0	68	104
2025-01-03 09:38:47.12	30.25	15.39	-63.3	-68.9	3.7	0.00e+00	0	68	104
2025-01-03 09:38:49.02	29.74	15.26	-63.2	-68.9	3.6	0.00e+00	0	68	104
2025-01-03 09:38:50.92	29.24	15.12	-63.2	-68.9	3.6	0.00e+00	0	68	104
2025-01-03 09:38:52.81	28.74	14.99	-63.2	-68.8	3.6	0.00e+00	0	68	104
2025-01-03 09:38:54.71	28.25	14.85	-63.2	-68.8	3.6	0.00e+00	0	68	104
2025-01-03 09:38:56.61	27.76	14.71	-63.2	-68.8	3.7	0.00e+00	0	68	104
2025-01-03 09:38:58.51	27.28	14.58	-63.1	-68.8	3.7	0.00e+00	0	68	104
2025-01-03 09:39:00.41	26.81	14.44	-62.9	-68.6	3.6	0.00e+00	0	68	104
2025-01-03 09:39:02.31	26.34	14.30	-63.1	-68.8	3.6	0.00e+00	0	68	104
2025-01-03 09:39:04.21	25.87	14.16	-63.2	-68.9	3.6	0.00e+00	0	68	104
2025-01-03 09:39:06.11	25.41	14.02	-63.3	-68.9	3.6	0.00e+00	0	68	104
2025-01-03 09:39:08.01	24.96	13.87	-63.3	-68.9	3.7	0.00e+00	0	68	104
2025-01-03 09:39:09.91	24.51	13.73	-63.2	-68.9	3.7	0.00e+00	0	68	104
2025-01-03 09:39:11.81	24.07	13.59	-63.2	-68.9	3.6	0.00e+00	0	68	104
2025-01-03 09:39:13.70	23.63	13.45	-63.2	-68.9	3.6	0.00e+00	0	69	104
2025-01-03 09:39:15.60	23.20	13.30	-63.3	-69.0	3.6	0.00e+00	0	68	104
2025-01-03 09:39:17.50	22.77	13.16	-63.3	-69.0	3.6	0.00e+00	0	69	104
2025-01-03 09:39:19.40	22.34	13.02	-63.3	-69.0	3.7	0.00e+00	0	69	104
2025-01-03 09:39:21.30	21.93	12.87	-63.3	-69.0	3.7	0.00e+00	0	68	104
2025-01-03 09:39:23.20	21.51	12.73	-63.3	-69.0	3.7	0.00e+00	0	69	104
2025-01-03 09:39:25.09	21.11	12.58	-63.3	-69.0	3.6	0.00e+00	0	69	104
2025-01-03 09:39:26.99	20.70	12.44	-63.3	-69.0	3.6	0.00e+00	0	69	104
2025-01-03 09:39:28.89	20.30	12.30	-63.3	-69.0	3.6	0.00e+00	0	69	104
2025-01-03 09:39:30.79	19.91	12.15	-63.3	-68.9	3.7	0.00e+00	0	69	104
2025-01-03 09:39:32.69	19.52	12.01	-63.2	-68.9	3.7	0.00e+00	0	69	104
2025-01-03 09:39:34.59	19.13	11.86	-63.2	-68.8	3.6	0.00e+00	0	69	104
2025-01-03 09:39:36.48	18.75	11.72	-63.2	-68.9	3.7	0.00e+00	0	69	104
2025-01-03 09:39:38.38	18.38	11.57	-63.3	-68.9	3.6	0.00e+00	0	69	104
2025-01-03 09:39:40.28	18.01	11.43	-63.3	-69.0	3.6	0.00e+00	0	69	104
2025-01-03 09:39:42.17	17.64	11.29	-63.2	-68.9	3.7	0.00e+00	0	69	104
2025-01-03 09:39:44.07	17.28	11.14	-63.2	-68.9	3.7	0.00e+00	0	69	104
2025-01-03 09:39:45.97	16.92	11.00	-63.2	-68.8	3.6	0.00e+00	0	69	104
2025-01-03 09:39:47.87	16.57	10.85	-63.3	-68.9	3.7	0.00e+00	0	69	104
2025-01-03 09:39:49.77	16.22	10.71	-63.2	-68.9	3.6	0.00e+00	0	69	104
2025-01-03 09:39:51.67	15.87	10.57	-63.2	-68.9	3.6	0.00e+00	0	69	104
2025-01-03 09:39:53.57	15.53	10.42	-63.2	-68.8	3.7	0.00e+00	0	69	104
2025-01-03 09:39:55.47	15.19	10.28	-63.3	-69.0	3.7	0.00e+00	0	69	104
2025-01-03 09:39:57.37	14.86	10.14	-63.3	-69.0	3.7	0.00e+00	0	69	104
2025-01-03 09:39:59.27	14.53	9.99	-63.3	-69.1	3.6	0.00e+00	0	69	104
2025-01-03 09:40:01.16	14.20	9.85	-63.3	-69.0	3.6	0.00e+00	0	69	104
2025-01-03 09:40:03.06	13.88	9.71	-63.2	-68.9	3.6	0.00e+00	0	69	104
2025-01-03 09:40:04.96	13.56	9.57	-63.2	-68.9	3.7	0.00e+00	0	69	104
2025-01-03 09:40:06.86	13.25	9.43	-63.3	-68.9	3.7	0.00e+00	0	69	104
2025-01-03 09:40:08.76	12.94	9.29	-63.2	-68.9	3.6	0.00e+00	0	69	104
2025-01-03 09:40:10.66	12.63	9.15	-63.3	-69.0	3.6	0.00e+00	0	69	104
2025-01-03 09:40:12.56	12.33	9.01	-63.2	-68.9	3.6	0.00e+00	0	70	104
2025-01-03 09:40:14.46	12.03	8.87	-63.3	-68.9	3.6	0.00e+00	0	70	104
2025-01-03 09:40:16.36	11.74	8.73	-63.3	-69.0	3.7	0.00e+00	0	69	104
2025-01-03 09:40:18.26	11.44	8.59	-63.3	-69.0	3.7	0.00e+00	0	70	104
2025-01-03 09:40:20.16	11.16	8.45	-63.3	-69.1	3.7	0.00e+00	0	69	104
2025-01-03 09:40:22.05	10.87	8.31	-63.3	-69.0	3.6	0.00e+00	0	70	104
2025-01-03 09:40:23.95	10.59	8.18	-63.1	-68.9	3.6	0.00e+00	0	70	104
2025-01-03 09:40:25.85	10.31	8.04	-63.3	-69.0	3.6	0.00e+00	0	70	104
2025-01-03 09:40:27.75	10.04	7.90	-63.3	-69.0	3.7	0.00e+00	0	69	104

#Closed at: 2025-01-03 09:40:29
#Recorded file [0 MB]: D:/data/31015_250103_213402.dat