passes_logs/2026/01/14/R3.2S_Murmansk/R3.2S_Murmansk__20260114_061602_KANOPUS-V_5_rec.log

#Pass ID: 20260114_061602_KANOPUS-V 5
#Satellite: KANOPUS-V 5
#Configuration: KANOPUS-V_8320
#almurnet v.1.7.20251203
#Start time: 2026-01-14 06:16:04

#Version: 2.2.20231116
#Station: R3.2S_Murmansk
#Location: 33.079688 lon 68.888172 lat
#TLE: 1 43876U 18111A   26013.65992293  .00002361  00000+0  10210-3 0  9995
#TLE: 2 43876  97.3684 282.1984 0001772  87.0401 273.1039 15.23431305391261

#Time	Az	El	Level	Level2	SNR	BER	BlckErr	Temp	State	Recorded	gain1	gain2
2026-01-14 06:16:04.42	118.56	2.14	-55.3	-65.1	3.8	7.46e-01	0	26	0	0	73	12011
2026-01-14 06:16:07.44	118.38	2.35	-55.4	-65.2	3.8	7.47e-01	0	26	104	0	75	10799
2026-01-14 06:16:10.46	118.20	2.55	-55.4	-65.2	3.8	7.45e-01	0	26	104	0	75	10813
2026-01-14 06:16:13.49	118.01	2.76	-55.4	-65.1	3.8	7.46e-01	0	26	104	0	75	10777
2026-01-14 06:16:16.52	117.82	2.97	-55.4	-65.2	3.8	7.43e-01	0	26	104	0	75	10784
2026-01-14 06:16:19.54	117.63	3.18	-55.4	-65.2	3.8	7.46e-01	0	26	104	0	75	10842
2026-01-14 06:16:22.57	117.43	3.39	-55.4	-65.2	3.8	7.46e-01	0	26	104	0	75	10793
2026-01-14 06:16:25.59	117.22	3.61	-55.4	-65.2	3.8	7.45e-01	0	26	104	0	75	10796
2026-01-14 06:16:28.62	117.02	3.82	-55.4	-65.2	3.8	7.46e-01	0	26	104	0	75	10855
2026-01-14 06:16:31.65	116.81	4.04	-55.5	-65.2	3.8	7.46e-01	0	26	104	0	75	10879
2026-01-14 06:16:34.68	116.59	4.26	-55.5	-65.2	3.8	7.45e-01	0	27	104	0	75	10853
2026-01-14 06:16:37.70	116.37	4.49	-55.5	-65.2	3.8	7.46e-01	0	26	104	0	75	10827
2026-01-14 06:16:40.73	116.15	4.71	-55.5	-65.2	3.8	7.44e-01	0	26	104	0	75	10829
2026-01-14 06:16:43.75	115.92	4.94	-55.5	-65.2	3.8	7.45e-01	0	26	104	0	75	10880
2026-01-14 06:16:46.77	115.69	5.17	-55.5	-65.2	3.8	7.47e-01	0	27	104	0	75	10875
2026-01-14 06:16:49.80	115.45	5.40	-55.5	-65.2	3.8	7.46e-01	0	27	104	0	75	10859
2026-01-14 06:16:52.83	115.21	5.63	-55.5	-65.2	3.8	7.45e-01	0	27	104	0	75	10849
2026-01-14 06:16:55.85	114.96	5.87	-55.5	-65.2	3.8	7.46e-01	0	27	104	0	75	10898
2026-01-14 06:16:58.87	114.70	6.11	-55.5	-65.2	3.8	7.45e-01	0	27	104	0	75	10887
2026-01-14 06:17:01.90	114.44	6.35	-55.5	-65.2	3.8	7.46e-01	0	27	104	0	75	10860
2026-01-14 06:17:04.93	114.18	6.60	-55.5	-65.2	3.8	7.45e-01	0	27	104	0	75	10892
2026-01-14 06:17:07.95	113.91	6.84	-55.5	-65.2	3.8	7.44e-01	0	27	104	0	75	10875
2026-01-14 06:17:10.98	113.63	7.09	-55.5	-65.2	3.8	7.45e-01	0	27	104	0	75	10893
2026-01-14 06:17:14.00	113.35	7.35	-55.5	-65.3	3.8	7.45e-01	0	27	104	0	75	10937
2026-01-14 06:17:17.03	113.06	7.60	-55.5	-65.3	3.8	7.45e-01	0	27	104	0	75	10929
2026-01-14 06:17:20.06	112.76	7.86	-55.5	-65.3	3.8	7.46e-01	0	27	104	0	75	10918
2026-01-14 06:17:23.09	112.46	8.12	-55.5	-65.3	3.8	7.46e-01	0	27	104	0	75	10905
2026-01-14 06:17:26.12	112.15	8.39	-55.5	-65.3	3.8	7.46e-01	0	27	104	0	75	10926
2026-01-14 06:17:29.14	111.83	8.65	-55.5	-65.2	3.8	7.45e-01	0	27	104	0	75	10900
2026-01-14 06:17:32.18	111.50	8.92	-55.5	-65.2	3.8	7.46e-01	0	27	104	0	75	10901
2026-01-14 06:17:35.21	111.17	9.20	-55.5	-65.3	3.8	7.45e-01	0	27	104	0	75	10913
2026-01-14 06:17:38.23	110.83	9.47	-55.5	-65.2	3.8	7.46e-01	0	27	104	0	75	10884
2026-01-14 06:17:41.25	110.48	9.75	-55.5	-65.3	3.8	7.46e-01	0	27	104	0	75	10935
2026-01-14 06:17:44.27	110.12	10.04	-55.5	-65.2	3.8	7.45e-01	0	27	104	0	75	10873
2026-01-14 06:17:47.30	109.75	10.32	-55.5	-65.3	3.8	7.45e-01	0	27	104	0	75	10946
2026-01-14 06:17:50.33	109.37	10.61	-55.5	-65.3	3.8	7.46e-01	0	27	104	0	75	10924
2026-01-14 06:17:53.36	108.99	10.91	-55.5	-65.2	3.8	7.46e-01	0	27	104	0	75	10900
2026-01-14 06:17:56.39	108.59	11.21	-55.5	-65.3	3.8	7.45e-01	0	27	104	0	75	10936
2026-01-14 06:17:59.41	108.18	11.51	-55.5	-65.2	3.8	7.46e-01	0	27	104	0	75	10895
2026-01-14 06:18:02.44	107.77	11.81	-55.5	-65.3	3.8	7.46e-01	0	27	104	0	75	10930
2026-01-14 06:18:05.47	107.34	12.12	-55.5	-65.3	3.8	7.46e-01	0	27	104	0	75	10933
2026-01-14 06:18:08.50	106.90	12.43	-55.5	-65.3	3.8	7.48e-01	0	27	104	0	75	10919
2026-01-14 06:18:11.52	106.45	12.75	-55.5	-65.3	3.8	7.46e-01	0	27	104	0	75	10946
2026-01-14 06:18:14.54	105.99	13.07	-55.5	-65.3	3.8	7.45e-01	0	27	104	0	75	10956
2026-01-14 06:18:17.57	105.51	13.40	-55.5	-65.3	3.8	7.46e-01	0	27	104	0	75	10920
2026-01-14 06:18:20.60	105.02	13.72	-55.5	-65.3	3.8	7.46e-01	0	27	104	0	75	10962
2026-01-14 06:18:23.62	104.52	14.06	-55.5	-65.2	3.8	7.44e-01	0	27	104	0	75	10903
2026-01-14 06:18:26.64	104.00	14.39	-55.5	-65.3	3.8	7.46e-01	0	27	104	0	75	10941
2026-01-14 06:18:29.66	103.47	14.73	-55.5	-65.3	3.8	7.44e-01	0	27	104	0	75	10924
2026-01-14 06:18:32.69	102.93	15.08	-55.5	-65.3	3.8	7.47e-01	0	28	104	0	75	10968
2026-01-14 06:18:35.72	102.37	15.43	-55.5	-65.3	3.8	7.45e-01	0	28	104	0	75	10951
2026-01-14 06:18:38.75	101.79	15.78	-55.5	-65.3	3.8	7.45e-01	0	27	104	0	75	10968
2026-01-14 06:18:41.77	101.20	16.14	-55.5	-65.3	3.8	7.46e-01	0	27	104	0	75	10938
2026-01-14 06:18:44.79	100.59	16.50	-55.5	-65.3	3.8	7.44e-01	0	27	104	0	75	10917
2026-01-14 06:18:47.81	99.96	16.86	-55.5	-65.3	3.8	7.45e-01	0	27	104	0	75	10935
2026-01-14 06:18:50.85	99.31	17.23	-55.5	-65.3	3.8	7.45e-01	0	28	104	0	75	10944
2026-01-14 06:18:53.87	98.64	17.60	-55.6	-65.3	3.8	7.47e-01	0	28	104	0	75	10929
2026-01-14 06:18:56.90	97.96	17.98	-55.5	-65.3	3.8	7.46e-01	0	28	104	0	75	10940
2026-01-14 06:18:59.92	97.25	18.36	-55.6	-65.3	3.8	7.45e-01	0	28	104	0	75	10983
2026-01-14 06:19:02.95	96.52	18.74	-55.5	-65.3	3.8	7.46e-01	0	28	104	0	75	10947
2026-01-14 06:19:05.98	95.77	19.13	-55.5	-65.3	3.8	7.45e-01	0	28	104	0	75	10932
2026-01-14 06:19:09.01	95.00	19.52	-55.5	-65.3	3.8	7.44e-01	0	28	104	0	75	10972
2026-01-14 06:19:12.04	94.21	19.92	-55.5	-65.3	3.8	7.47e-01	0	27	104	0	75	10934
2026-01-14 06:19:15.07	93.39	20.31	-55.6	-65.3	3.8	7.45e-01	0	28	104	0	75	10929
2026-01-14 06:19:18.10	92.54	20.71	-55.6	-65.3	3.8	7.45e-01	0	28	104	0	75	10982
2026-01-14 06:19:21.12	91.67	21.11	-55.6	-65.3	3.8	7.46e-01	0	27	104	0	75	10989
2026-01-14 06:19:24.15	90.78	21.51	-55.6	-65.3	3.8	7.44e-01	0	28	104	0	75	10975
2026-01-14 06:19:27.18	89.85	21.91	-55.5	-65.3	3.8	7.45e-01	0	28	104	0	75	10971
2026-01-14 06:19:30.21	88.90	22.31	-55.5	-65.3	3.8	7.45e-01	0	27	104	0	75	10970
2026-01-14 06:19:33.23	87.93	22.72	-55.5	-65.3	3.8	7.45e-01	0	28	104	0	75	10972
2026-01-14 06:19:36.26	86.92	23.12	-55.5	-65.3	3.8	7.47e-01	0	27	104	0	75	10968
2026-01-14 06:19:39.30	85.88	23.52	-55.6	-65.3	3.8	7.44e-01	0	28	104	0	75	10971
2026-01-14 06:19:42.33	84.81	23.92	-55.5	-65.3	3.8	7.44e-01	0	28	104	0	75	10939
2026-01-14 06:19:45.35	83.71	24.32	-55.6	-65.3	3.8	7.46e-01	0	28	104	0	75	10965
2026-01-14 06:19:48.38	82.58	24.71	-55.6	-65.3	3.8	7.47e-01	0	28	104	0	75	10978
2026-01-14 06:19:51.41	81.42	25.10	-55.6	-65.3	3.8	7.47e-01	0	28	104	0	75	10973
2026-01-14 06:19:54.44	80.22	25.48	-55.6	-65.3	3.8	7.43e-01	0	28	104	0	75	10976
2026-01-14 06:19:57.47	78.99	25.86	-55.6	-65.3	3.8	7.45e-01	0	28	104	0	75	10997
2026-01-14 06:20:00.50	77.73	26.23	-55.6	-65.3	3.8	7.45e-01	0	28	104	0	75	10973
2026-01-14 06:20:03.53	76.44	26.59	-55.6	-65.3	3.8	7.45e-01	0	28	104	0	75	10961
2026-01-14 06:20:06.56	75.11	26.95	-55.6	-65.3	3.8	7.45e-01	0	28	104	0	75	11001
2026-01-14 06:20:09.58	73.76	27.29	-55.6	-65.3	3.8	7.46e-01	0	28	104	0	75	11029
2026-01-14 06:20:12.61	72.37	27.62	-55.6	-65.3	3.8	7.46e-01	0	28	104	0	75	10971
2026-01-14 06:20:15.64	70.95	27.94	-55.6	-65.3	3.8	7.49e-01	0	28	104	0	75	10936
2026-01-14 06:20:18.66	69.50	28.24	-55.5	-65.3	3.8	7.46e-01	0	27	104	0	75	10950
2026-01-14 06:20:21.69	68.02	28.53	-55.6	-65.3	3.8	7.46e-01	0	28	104	0	75	10998
2026-01-14 06:20:24.72	66.51	28.80	-55.5	-65.3	3.8	7.47e-01	0	27	104	0	75	10978
2026-01-14 06:20:27.74	64.98	29.05	-55.5	-65.3	3.8	7.45e-01	0	28	104	0	75	10992
2026-01-14 06:20:30.77	63.42	29.29	-55.6	-65.3	3.8	7.47e-01	0	28	104	0	75	10944
2026-01-14 06:20:33.80	61.83	29.50	-55.6	-65.3	3.8	7.46e-01	0	28	104	0	75	10964
2026-01-14 06:20:36.83	60.22	29.69	-55.6	-65.3	3.8	7.45e-01	0	27	104	0	75	10936
2026-01-14 06:20:39.86	58.60	29.86	-55.6	-65.3	3.8	7.45e-01	0	28	104	0	75	11002
2026-01-14 06:20:42.88	56.96	30.01	-55.6	-65.3	3.8	7.45e-01	0	27	104	0	75	10949
2026-01-14 06:20:45.91	55.30	30.13	-55.5	-65.3	3.8	7.46e-01	0	27	104	0	75	10963
2026-01-14 06:20:48.87	53.66	30.23	-55.6	-65.3	3.8	7.45e-01	0	28	104	0	75	10964
2026-01-14 06:20:51.90	51.98	30.30	-55.6	-65.3	3.8	7.46e-01	0	28	104	0	75	11023
2026-01-14 06:20:54.93	50.29	30.35	-55.6	-65.3	3.8	7.45e-01	0	28	104	0	75	11020
2026-01-14 06:20:57.95	48.61	30.37	-55.6	-65.3	3.8	7.48e-01	0	28	104	0	75	10977
2026-01-14 06:21:00.97	46.92	30.37	-55.6	-65.3	3.8	7.46e-01	0	28	104	0	75	10979
2026-01-14 06:21:04.00	45.23	30.33	-55.6	-65.3	3.8	7.47e-01	0	28	104	0	75	10962
2026-01-14 06:21:07.03	43.54	30.28	-55.6	-65.3	3.8	7.46e-01	0	28	104	0	75	11018
2026-01-14 06:21:10.04	41.88	30.20	-55.6	-65.3	3.8	7.45e-01	0	28	104	0	75	10982
2026-01-14 06:21:13.06	40.22	30.09	-55.6	-65.3	3.8	7.47e-01	0	28	104	0	75	11009
2026-01-14 06:21:16.09	38.56	29.96	-55.6	-65.3	3.8	7.45e-01	0	28	104	0	75	10975
2026-01-14 06:21:19.12	36.92	29.80	-55.6	-65.3	3.8	7.45e-01	0	28	104	0	75	11019
2026-01-14 06:21:22.14	35.31	29.63	-55.6	-65.3	3.8	7.45e-01	0	28	104	0	75	10993
2026-01-14 06:21:25.17	33.71	29.43	-55.6	-65.3	3.8	7.45e-01	0	28	104	0	75	10988
2026-01-14 06:21:28.19	32.14	29.21	-55.6	-65.3	3.8	7.46e-01	0	28	104	0	75	10981
2026-01-14 06:21:31.22	30.59	28.97	-55.6	-65.3	3.8	7.46e-01	0	28	104	0	75	10994
2026-01-14 06:21:34.25	29.07	28.71	-55.6	-65.4	3.8	7.47e-01	0	28	104	0	75	11053
2026-01-14 06:21:37.28	27.57	28.43	-55.6	-65.3	3.8	7.45e-01	0	28	104	0	75	10947
2026-01-14 06:21:40.31	26.10	28.14	-55.6	-65.3	3.8	7.45e-01	0	28	104	0	75	11013
2026-01-14 06:21:43.33	24.67	27.83	-55.6	-65.3	3.8	7.44e-01	0	28	104	0	75	10985
2026-01-14 06:21:46.35	23.27	27.51	-55.6	-65.3	3.8	7.45e-01	0	28	104	0	75	11005
2026-01-14 06:21:49.37	21.90	27.18	-55.6	-65.3	3.8	7.45e-01	0	28	104	0	75	10999
2026-01-14 06:21:52.41	20.55	26.83	-55.6	-65.3	3.8	7.44e-01	0	28	104	0	75	10981
2026-01-14 06:21:55.43	19.24	26.48	-55.6	-65.3	3.8	7.46e-01	0	28	104	0	75	11019
2026-01-14 06:21:58.46	17.96	26.11	-55.6	-65.3	3.8	7.45e-01	0	28	104	0	75	10989
2026-01-14 06:22:01.48	16.72	25.74	-55.6	-65.3	3.8	7.45e-01	0	28	104	0	75	11028
2026-01-14 06:22:04.51	15.51	25.36	-55.6	-65.3	3.8	7.45e-01	0	28	104	0	75	11011
2026-01-14 06:22:07.54	14.33	24.98	-55.6	-65.3	3.8	7.44e-01	0	28	104	0	75	11022
2026-01-14 06:22:10.56	13.18	24.59	-55.6	-65.4	3.8	7.46e-01	0	28	104	0	75	11034
2026-01-14 06:22:13.59	12.07	24.20	-55.6	-65.3	3.8	7.47e-01	0	28	104	0	75	11019
2026-01-14 06:22:16.62	10.98	23.80	-55.6	-65.3	3.8	7.46e-01	0	28	104	0	75	10967
2026-01-14 06:22:19.64	9.93	23.40	-55.6	-65.3	3.8	7.45e-01	0	28	104	0	75	11015
2026-01-14 06:22:22.67	8.90	23.00	-55.6	-65.3	3.8	7.46e-01	0	28	104	0	75	11001
2026-01-14 06:22:25.70	7.91	22.60	-55.6	-65.3	3.8	7.46e-01	0	28	104	0	75	11005
2026-01-14 06:22:28.73	6.94	22.20	-55.6	-65.4	3.8	7.46e-01	0	28	104	0	75	11030
2026-01-14 06:22:31.75	6.01	21.80	-55.6	-65.3	3.8	7.45e-01	0	28	104	0	75	11024
2026-01-14 06:22:34.78	5.10	21.40	-55.6	-65.3	3.8	7.46e-01	0	28	104	0	75	11019
2026-01-14 06:22:37.81	4.21	21.00	-55.6	-65.3	3.8	7.44e-01	0	28	104	0	75	11020
2026-01-14 06:22:40.84	3.35	20.60	-55.6	-65.3	3.8	7.46e-01	0	28	104	0	75	11001
2026-01-14 06:22:43.87	2.52	20.21	-55.6	-65.3	3.8	7.45e-01	0	28	104	0	75	11019
2026-01-14 06:22:46.89	1.71	19.81	-55.6	-65.3	3.8	7.47e-01	0	28	104	0	75	11005
2026-01-14 06:22:49.91	0.93	19.43	-55.6	-65.3	3.8	7.44e-01	0	28	104	0	75	11013
2026-01-14 06:22:52.95	0.17	19.04	-55.6	-65.3	3.8	7.47e-01	0	28	104	0	75	11017
2026-01-14 06:22:55.97	359.43	18.65	-55.6	-65.3	3.8	7.44e-01	0	28	104	0	75	11025
2026-01-14 06:22:59.00	358.71	18.27	-55.6	-65.4	3.8	7.45e-01	0	28	104	0	75	11039
2026-01-14 06:23:02.02	358.01	17.89	-55.6	-65.4	3.8	7.48e-01	0	28	104	0	75	11049
2026-01-14 06:23:05.05	357.34	17.52	-55.6	-65.3	3.8	7.46e-01	0	28	104	0	75	11026
2026-01-14 06:23:08.08	356.68	17.15	-55.6	-65.3	3.8	7.46e-01	0	28	104	0	75	11016
2026-01-14 06:23:11.11	356.04	16.78	-55.6	-65.3	3.8	7.46e-01	0	28	104	0	75	11016
2026-01-14 06:23:14.14	355.42	16.42	-55.6	-65.4	3.8	7.45e-01	0	28	104	0	75	11045
2026-01-14 06:23:17.16	354.82	16.06	-55.6	-65.4	3.8	7.45e-01	0	28	104	0	75	11031
2026-01-14 06:23:20.19	354.23	15.71	-55.6	-65.3	3.8	7.47e-01	0	28	104	0	75	10987
2026-01-14 06:23:23.21	353.66	15.36	-55.6	-65.3	3.8	7.44e-01	0	28	104	0	75	11022
2026-01-14 06:23:26.24	353.11	15.01	-55.6	-65.4	3.8	7.46e-01	0	28	104	0	75	11039
2026-01-14 06:23:29.26	352.57	14.67	-55.6	-65.4	3.8	7.45e-01	0	28	104	0	75	11049
2026-01-14 06:23:32.29	352.05	14.33	-55.6	-65.3	3.8	7.46e-01	0	28	104	0	75	11027
2026-01-14 06:23:35.31	351.54	14.00	-55.6	-65.4	3.8	7.45e-01	0	28	104	0	75	11063
2026-01-14 06:23:38.34	351.04	13.67	-55.6	-65.4	3.8	7.46e-01	0	28	104	0	75	11048
2026-01-14 06:23:41.37	350.56	13.34	-55.6	-65.3	3.8	7.47e-01	0	28	104	0	75	11011
2026-01-14 06:23:44.39	350.09	13.02	-55.6	-65.4	3.8	7.45e-01	0	28	104	0	75	11052
2026-01-14 06:23:47.42	349.63	12.70	-55.6	-65.4	3.8	7.45e-01	0	28	104	0	75	11036
2026-01-14 06:23:50.45	349.19	12.39	-55.6	-65.4	3.8	7.46e-01	0	28	104	0	75	11035
2026-01-14 06:23:53.48	348.75	12.08	-55.6	-65.3	3.8	7.47e-01	0	28	104	0	75	10973
2026-01-14 06:23:56.50	348.33	11.77	-55.6	-65.3	3.8	7.47e-01	0	28	104	0	75	10996
2026-01-14 06:23:59.53	347.92	11.47	-55.6	-65.4	3.8	7.45e-01	0	28	104	0	75	11081
2026-01-14 06:24:02.56	347.52	11.17	-55.6	-65.4	3.8	7.45e-01	0	28	104	0	75	11031
2026-01-14 06:24:05.58	347.13	10.87	-55.6	-65.4	3.8	7.45e-01	0	28	104	0	75	11051
2026-01-14 06:24:08.62	346.75	10.58	-55.6	-65.4	3.8	7.45e-01	0	28	104	0	75	11044
2026-01-14 06:24:11.65	346.38	10.29	-55.6	-65.3	3.8	7.47e-01	0	28	104	0	75	11020
2026-01-14 06:24:14.67	346.01	10.01	-55.6	-65.4	3.8	7.46e-01	0	28	104	0	75	11066
2026-01-14 06:24:17.70	345.66	9.72	-55.6	-65.4	3.8	7.49e-01	0	28	104	0	75	11045
2026-01-14 06:24:20.73	345.31	9.45	-55.6	-65.4	3.8	7.48e-01	0	28	104	0	75	11040
2026-01-14 06:24:23.76	344.98	9.17	-55.6	-65.4	3.8	7.45e-01	0	28	104	0	75	11076
2026-01-14 06:24:26.78	344.65	8.90	-55.6	-65.4	3.8	7.45e-01	0	28	104	0	75	11034
2026-01-14 06:24:29.81	344.33	8.63	-55.6	-65.3	3.8	7.46e-01	0	28	104	0	75	11002
2026-01-14 06:24:32.83	344.01	8.37	-55.6	-65.4	3.8	7.44e-01	0	28	104	0	75	11061
2026-01-14 06:24:35.85	343.71	8.10	-55.6	-65.4	3.8	7.45e-01	0	28	104	0	75	11057
2026-01-14 06:24:38.87	343.41	7.85	-55.6	-65.3	3.8	7.45e-01	0	28	104	0	75	11017
2026-01-14 06:24:41.90	343.12	7.59	-55.6	-65.4	3.8	7.46e-01	0	28	104	0	75	11047
2026-01-14 06:24:44.93	342.83	7.33	-55.6	-65.4	3.8	7.47e-01	0	28	104	0	75	11072
2026-01-14 06:24:47.95	342.55	7.08	-55.6	-65.4	3.8	7.46e-01	0	28	104	0	75	11032
2026-01-14 06:24:50.97	342.28	6.84	-55.6	-65.4	3.8	7.46e-01	0	28	104	0	75	11059
2026-01-14 06:24:54.00	342.01	6.59	-55.6	-65.4	3.8	7.46e-01	0	28	104	0	75	11032
2026-01-14 06:24:57.03	341.75	6.35	-55.6	-65.4	3.8	7.46e-01	0	28	104	0	75	11035
2026-01-14 06:25:00.06	341.49	6.11	-55.6	-65.4	3.8	7.45e-01	0	28	104	0	75	11044
2026-01-14 06:25:03.09	341.24	5.87	-55.6	-65.4	3.8	7.45e-01	0	28	104	0	75	11085
2026-01-14 06:25:06.12	341.00	5.63	-55.6	-65.3	3.8	7.44e-01	0	28	104	0	75	11010
2026-01-14 06:25:09.15	340.76	5.40	-55.6	-65.4	3.8	7.45e-01	0	28	104	0	75	11055
2026-01-14 06:25:12.18	340.52	5.17	-55.6	-65.3	3.8	7.45e-01	0	28	104	0	75	11029
2026-01-14 06:25:15.20	340.29	4.94	-55.6	-65.3	3.8	7.45e-01	0	28	104	0	75	11014
2026-01-14 06:25:18.23	340.07	4.72	-55.6	-65.3	3.8	7.47e-01	0	28	104	0	75	10991
2026-01-14 06:25:21.26	339.84	4.49	-55.6	-65.4	3.8	7.46e-01	0	28	104	0	75	11050
2026-01-14 06:25:24.29	339.63	4.27	-55.6	-65.3	3.8	7.47e-01	0	28	104	0	75	11027
2026-01-14 06:25:27.31	339.42	4.05	-55.6	-65.4	3.8	7.45e-01	0	28	104	0	75	11057
2026-01-14 06:25:30.33	339.21	3.83	-55.6	-65.4	3.8	7.45e-01	0	28	104	0	75	11048
2026-01-14 06:25:33.35	339.01	3.62	-55.6	-65.4	3.8	7.47e-01	0	28	104	0	75	11030
2026-01-14 06:25:36.37	338.81	3.40	-55.6	-65.3	3.8	7.45e-01	0	28	104	0	75	11008
2026-01-14 06:25:39.40	338.61	3.19	-55.6	-65.4	3.8	7.45e-01	0	28	104	0	75	11045
2026-01-14 06:25:42.42	338.42	2.98	-55.6	-65.4	3.8	7.46e-01	0	28	104	0	75	11061
2026-01-14 06:25:45.45	338.23	2.77	-55.6	-65.4	3.8	7.46e-01	0	28	104	0	75	11066
2026-01-14 06:25:48.47	338.05	2.57	-55.6	-65.4	3.8	7.45e-01	0	28	104	0	75	11054
2026-01-14 06:25:51.50	337.87	2.36	-55.6	-65.4	3.8	7.46e-01	0	28	104	0	75	11051
2026-01-14 06:25:54.52	337.69	2.16	-55.6	-65.4	3.8	7.46e-01	0	28	104	0	75	11043
2026-01-14 06:25:57.55	337.52	1.96	-55.6	-65.4	3.8	7.46e-01	0	28	104	0	75	11074

#Closed at: 2026-01-14 06:25:57
#Recorded file [0 MB]: D:/lorett/data/31004_260114_091604.dat