passes_logs/2026/01/14/R3.2S_Murmansk/R3.2S_Murmansk__20260114_062840_SUOMI_NPP_rec.log

#Pass ID: 20260114_062840_SUOMI NPP
#Satellite: SUOMI NPP
#Configuration: NPP
#almurnet v.1.7.20251203
#Start time: 2026-01-14 06:28:42

#Version: 2.2.20231116
#Station: R3.2S_Murmansk
#Location: 33.079688 lon 68.888172 lat
#TLE: 1 37849U 11061A   26013.55331121  .00000059  00000+0  48721-4 0  9992
#TLE: 2 37849  98.7808 315.6144 0002478  66.1553 293.9883 14.19524925736509

#Time	Az	El	Level	Level2	SNR	BER	BlckErr	Temp	State	Recorded	gain1	gain2
2026-01-14 06:28:42.37	83.13	2.12	-54.5	-70.4	3.8	1.49e+00	0	26	0	0	74	23528
2026-01-14 06:28:45.40	82.95	2.30	-54.5	-70.5	3.8	1.49e+00	0	26	104	0	74	23614
2026-01-14 06:28:48.43	82.77	2.48	-54.5	-70.5	3.8	1.49e+00	0	26	104	0	74	23615
2026-01-14 06:28:51.46	82.59	2.66	-54.5	-70.5	3.8	1.49e+00	0	26	104	0	74	23591
2026-01-14 06:28:54.49	82.41	2.84	-54.5	-70.5	3.8	1.49e+00	0	26	104	0	74	23586
2026-01-14 06:28:57.52	82.22	3.02	-54.5	-70.4	3.8	1.49e+00	0	26	104	0	74	23556
2026-01-14 06:29:00.54	82.03	3.20	-54.5	-70.4	3.8	1.49e+00	0	26	104	0	74	23524
2026-01-14 06:29:03.57	81.84	3.38	-54.5	-70.5	3.8	1.49e+00	0	26	104	0	74	23613
2026-01-14 06:29:06.60	81.65	3.56	-54.5	-70.4	3.8	1.49e+00	0	26	104	0	74	23561
2026-01-14 06:29:09.62	81.45	3.75	-54.5	-70.5	3.8	1.49e+00	0	26	104	0	74	23706
2026-01-14 06:29:12.66	81.25	3.93	-54.5	-70.5	3.8	1.49e+00	0	26	104	0	74	23583
2026-01-14 06:29:15.69	81.05	4.12	-54.5	-70.5	3.8	1.49e+00	0	26	104	0	74	23620
2026-01-14 06:29:18.72	80.84	4.30	-54.5	-70.5	3.8	1.49e+00	0	27	104	0	74	23615
2026-01-14 06:29:21.74	80.64	4.49	-54.5	-70.5	3.8	1.49e+00	0	26	104	0	74	23608
2026-01-14 06:29:24.77	80.43	4.68	-54.5	-70.5	3.8	1.49e+00	0	26	104	0	74	23694
2026-01-14 06:29:27.79	80.21	4.87	-54.5	-70.5	3.8	1.49e+00	0	27	104	0	74	23670
2026-01-14 06:29:30.81	80.00	5.06	-54.5	-70.5	3.8	1.49e+00	0	27	104	0	74	23671
2026-01-14 06:29:33.84	79.78	5.25	-54.5	-70.5	3.8	1.49e+00	0	27	104	0	74	23737
2026-01-14 06:29:36.87	79.56	5.44	-54.5	-70.5	3.8	1.49e+00	0	27	104	0	74	23602
2026-01-14 06:29:39.90	79.33	5.64	-54.5	-70.5	3.8	1.49e+00	0	27	104	0	74	23648
2026-01-14 06:29:42.93	79.11	5.83	-54.5	-70.5	3.8	1.49e+00	0	27	104	0	74	23688
2026-01-14 06:29:45.95	78.88	6.03	-54.5	-70.5	3.8	1.49e+00	0	27	104	0	74	23688
2026-01-14 06:29:48.97	78.64	6.22	-54.5	-70.5	3.8	1.49e+00	0	27	104	0	74	23671
2026-01-14 06:29:52.00	78.40	6.42	-54.5	-70.5	3.8	1.49e+00	0	27	104	0	74	23706
2026-01-14 06:29:55.02	78.16	6.62	-54.5	-70.5	3.8	1.49e+00	0	27	104	0	74	23686
2026-01-14 06:29:58.05	77.92	6.82	-54.5	-70.5	3.8	1.49e+00	0	27	104	0	74	23654
2026-01-14 06:30:01.08	77.67	7.02	-54.5	-70.5	3.8	1.49e+00	0	27	104	0	74	23693
2026-01-14 06:30:04.11	77.42	7.22	-54.5	-70.5	3.8	1.49e+00	0	27	104	0	74	23743
2026-01-14 06:30:07.14	77.16	7.42	-54.5	-70.5	3.8	1.49e+00	0	27	104	0	74	23688
2026-01-14 06:30:10.17	76.90	7.63	-54.5	-70.5	3.8	1.49e+00	0	27	104	0	74	23657
2026-01-14 06:30:13.20	76.64	7.83	-54.5	-70.5	3.8	1.49e+00	0	27	104	0	74	23688
2026-01-14 06:30:16.23	76.37	8.04	-54.5	-70.5	3.8	1.49e+00	0	27	104	0	74	23643
2026-01-14 06:30:19.26	76.10	8.25	-54.5	-70.5	3.8	1.49e+00	0	27	104	0	74	23720
2026-01-14 06:30:22.28	75.83	8.45	-54.5	-70.5	3.8	1.49e+00	0	27	104	0	74	23689
2026-01-14 06:30:25.31	75.55	8.66	-54.5	-70.5	3.8	1.49e+00	0	27	104	0	74	23689
2026-01-14 06:30:28.34	75.27	8.87	-54.5	-70.5	3.8	1.49e+00	0	27	104	0	74	23681
2026-01-14 06:30:31.35	74.98	9.08	-54.5	-70.5	3.8	1.49e+00	0	27	104	0	74	23712
2026-01-14 06:30:34.38	74.69	9.30	-54.5	-70.5	3.8	1.49e+00	0	27	104	0	74	23702
2026-01-14 06:30:37.40	74.40	9.51	-54.5	-70.5	3.8	1.49e+00	0	27	104	0	74	23730
2026-01-14 06:30:40.43	74.09	9.72	-54.5	-70.5	3.8	1.49e+00	0	27	104	0	74	23719
2026-01-14 06:30:43.46	73.79	9.94	-54.5	-70.5	3.8	1.49e+00	0	27	104	0	74	23733
2026-01-14 06:30:46.49	73.48	10.16	-54.5	-70.5	3.8	1.49e+00	0	27	104	0	74	23790
2026-01-14 06:30:49.52	73.16	10.37	-54.5	-70.5	3.8	1.49e+00	0	27	104	0	74	23798
2026-01-14 06:30:52.54	72.85	10.59	-54.5	-70.5	3.8	1.49e+00	0	27	104	0	74	23776
2026-01-14 06:30:55.57	72.52	10.81	-54.5	-70.5	3.8	1.49e+00	0	27	104	0	74	23736
2026-01-14 06:30:58.60	72.19	11.03	-54.5	-70.5	3.8	1.49e+00	0	27	104	0	74	23699
2026-01-14 06:31:01.61	71.86	11.26	-54.5	-70.5	3.8	1.49e+00	0	27	104	0	74	23763
2026-01-14 06:31:04.64	71.52	11.48	-54.5	-70.5	3.8	1.49e+00	0	27	104	0	74	23748
2026-01-14 06:31:07.66	71.18	11.70	-54.5	-70.5	3.8	1.49e+00	0	27	104	0	74	23742
2026-01-14 06:31:10.69	70.82	11.93	-54.5	-70.5	3.8	1.49e+00	0	27	104	0	74	23792
2026-01-14 06:31:13.73	70.47	12.15	-54.5	-70.5	3.8	1.49e+00	0	27	104	0	74	23794
2026-01-14 06:31:16.75	70.11	12.38	-54.5	-70.5	3.8	1.49e+00	0	27	104	0	74	23743
2026-01-14 06:31:19.78	69.74	12.61	-54.5	-70.5	3.8	1.49e+00	0	27	104	0	74	23713
2026-01-14 06:31:22.81	69.37	12.84	-54.5	-70.5	3.8	1.49e+00	0	27	104	0	74	23798
2026-01-14 06:31:25.84	68.99	13.07	-54.5	-70.5	3.8	1.49e+00	0	27	104	0	74	23745
2026-01-14 06:31:28.87	68.60	13.30	-54.5	-70.6	3.8	1.49e+00	0	27	104	0	74	23871
2026-01-14 06:31:31.90	68.21	13.53	-54.5	-70.5	3.8	1.49e+00	0	27	104	0	74	23833
2026-01-14 06:31:34.92	67.81	13.76	-54.6	-70.5	3.8	1.49e+00	0	27	104	0	74	23799
2026-01-14 06:31:37.94	67.41	14.00	-54.5	-70.5	3.8	1.49e+00	0	27	104	0	74	23765
2026-01-14 06:31:40.97	67.00	14.23	-54.6	-70.5	3.8	1.49e+00	0	27	104	0	74	23839
2026-01-14 06:31:44.00	66.58	14.46	-54.6	-70.6	3.8	1.49e+00	0	27	104	0	74	23863
2026-01-14 06:31:47.02	66.15	14.70	-54.5	-70.5	3.8	1.49e+00	0	27	104	0	74	23776
2026-01-14 06:31:50.05	65.72	14.94	-54.6	-70.5	3.8	1.49e+00	0	27	104	0	74	23828
2026-01-14 06:31:53.08	65.28	15.17	-54.6	-70.6	3.8	1.49e+00	0	27	104	0	74	23922
2026-01-14 06:31:56.10	64.84	15.41	-54.6	-70.5	3.8	1.49e+00	0	27	104	0	74	23827
2026-01-14 06:31:59.12	64.39	15.65	-54.6	-70.5	3.8	1.49e+00	0	27	104	0	74	23823
2026-01-14 06:32:02.15	63.93	15.89	-54.5	-70.5	3.8	1.49e+00	0	27	104	0	74	23836
2026-01-14 06:32:05.18	63.46	16.12	-54.6	-70.5	3.8	1.49e+00	0	27	104	0	74	23818
2026-01-14 06:32:08.20	62.99	16.36	-54.6	-70.5	3.8	1.49e+00	0	27	104	0	74	23797
2026-01-14 06:32:11.23	62.50	16.60	-54.6	-70.5	3.8	1.49e+00	0	27	104	0	74	23794
2026-01-14 06:32:14.26	62.01	16.84	-54.6	-70.5	3.8	1.49e+00	0	27	104	0	74	23791
2026-01-14 06:32:17.29	61.51	17.08	-54.6	-70.5	3.8	1.49e+00	0	27	104	0	74	23849
2026-01-14 06:32:20.32	61.00	17.32	-54.5	-70.5	3.8	1.49e+00	0	27	104	0	74	23840
2026-01-14 06:32:23.33	60.49	17.56	-54.5	-70.6	3.8	1.49e+00	0	27	104	0	74	23855
2026-01-14 06:32:26.36	59.97	17.80	-54.6	-70.5	3.8	1.49e+00	0	27	104	0	74	23819
2026-01-14 06:32:29.39	59.44	18.04	-54.6	-70.5	3.8	1.49e+00	0	27	104	0	74	23792
2026-01-14 06:32:32.41	58.90	18.28	-54.6	-70.5	3.8	1.49e+00	0	27	104	0	74	23850
2026-01-14 06:32:35.44	58.35	18.52	-54.6	-70.5	3.8	1.49e+00	0	27	104	0	74	23808
2026-01-14 06:32:38.47	57.79	18.76	-54.6	-70.6	3.8	1.49e+00	0	27	104	0	74	23889
2026-01-14 06:32:41.49	57.22	18.99	-54.6	-70.5	3.8	1.49e+00	0	27	104	0	74	23837
2026-01-14 06:32:44.52	56.65	19.23	-54.6	-70.5	3.8	1.49e+00	0	27	104	0	74	23824
2026-01-14 06:32:47.55	56.06	19.47	-54.5	-70.6	3.8	1.49e+00	0	27	104	0	74	23864
2026-01-14 06:32:50.58	55.47	19.70	-54.5	-70.5	3.8	1.49e+00	0	27	104	0	74	23833
2026-01-14 06:32:53.60	54.86	19.93	-54.6	-70.5	3.8	1.49e+00	0	27	104	0	74	23829
2026-01-14 06:32:56.62	54.25	20.17	-54.6	-70.5	3.8	1.49e+00	0	27	104	0	74	23835
2026-01-14 06:32:59.65	53.63	20.40	-54.6	-70.5	3.8	1.49e+00	0	27	104	0	74	23852
2026-01-14 06:33:02.68	53.00	20.63	-54.5	-70.6	3.8	1.49e+00	0	27	104	0	74	23867
2026-01-14 06:33:05.71	52.35	20.86	-54.6	-70.5	3.8	1.49e+00	0	27	104	0	74	23825
2026-01-14 06:33:08.73	51.70	21.08	-54.6	-70.6	3.8	1.49e+00	0	27	104	0	74	23865
2026-01-14 06:33:11.76	51.04	21.31	-54.6	-70.6	3.8	1.49e+00	0	27	104	0	74	23857
2026-01-14 06:33:14.79	50.37	21.53	-54.6	-70.5	3.8	1.49e+00	0	27	104	0	74	23819
2026-01-14 06:33:17.81	49.69	21.75	-54.6	-70.5	3.8	1.49e+00	0	27	104	0	74	23825
2026-01-14 06:33:20.84	49.00	21.97	-54.6	-70.5	3.9	1.49e+00	0	27	104	0	74	23791
2026-01-14 06:33:23.87	48.30	22.18	-54.6	-70.6	3.8	1.49e+00	0	27	104	0	74	23883
2026-01-14 06:33:26.90	47.59	22.39	-54.5	-70.6	3.8	1.49e+00	0	27	104	0	74	23858
2026-01-14 06:33:29.93	46.87	22.60	-54.6	-70.5	3.8	1.49e+00	0	27	104	0	74	23824
2026-01-14 06:33:32.96	46.14	22.81	-54.6	-70.6	3.8	1.49e+00	0	27	104	0	74	23858
2026-01-14 06:33:35.98	45.41	23.01	-54.5	-70.5	3.8	1.49e+00	0	27	104	0	74	23824
2026-01-14 06:33:39.00	44.66	23.21	-54.6	-70.5	3.8	1.49e+00	0	27	104	0	74	23816
2026-01-14 06:33:42.03	43.90	23.40	-54.6	-70.5	3.8	1.49e+00	0	27	104	0	74	23834
2026-01-14 06:33:45.05	43.14	23.59	-54.6	-70.5	3.8	1.49e+00	0	27	104	0	74	23832
2026-01-14 06:33:48.08	42.36	23.78	-54.6	-70.5	3.8	1.49e+00	0	27	104	0	74	23833
2026-01-14 06:33:51.11	41.57	23.96	-54.6	-70.5	3.8	1.49e+00	0	27	104	0	74	23844
2026-01-14 06:33:54.14	40.78	24.14	-54.6	-70.6	3.8	1.49e+00	0	27	104	0	74	23868
2026-01-14 06:33:57.16	39.97	24.31	-54.5	-70.6	3.8	1.49e+00	0	27	104	0	74	23870
2026-01-14 06:34:00.20	39.16	24.48	-54.6	-70.5	3.8	1.49e+00	0	27	104	0	74	23774
2026-01-14 06:34:03.22	38.34	24.64	-54.6	-70.6	3.8	1.49e+00	0	27	104	0	74	23877
2026-01-14 06:34:06.25	37.51	24.80	-54.6	-70.6	3.8	1.49e+00	0	27	104	0	74	23888
2026-01-14 06:34:09.27	36.67	24.95	-54.6	-70.6	3.8	1.49e+00	0	27	104	0	74	23865
2026-01-14 06:34:12.30	35.83	25.09	-54.6	-70.5	3.8	1.49e+00	0	27	104	0	74	23811
2026-01-14 06:34:15.33	34.97	25.23	-54.6	-70.5	3.8	1.49e+00	0	27	104	0	74	23842
2026-01-14 06:34:18.35	34.11	25.36	-54.6	-70.6	3.8	1.49e+00	0	27	104	0	74	23882
2026-01-14 06:34:21.38	33.24	25.49	-54.6	-70.5	3.8	1.49e+00	0	28	104	0	74	23797
2026-01-14 06:34:24.41	32.37	25.61	-54.6	-70.6	3.8	1.49e+00	0	27	104	0	74	23877
2026-01-14 06:34:27.44	31.49	25.72	-54.6	-70.6	3.8	1.49e+00	0	27	104	0	74	23888
2026-01-14 06:34:30.47	30.60	25.82	-54.6	-70.6	3.8	1.49e+00	0	27	104	0	74	23876
2026-01-14 06:34:33.50	29.71	25.92	-54.6	-70.6	3.8	1.49e+00	0	28	104	0	74	23902
2026-01-14 06:34:36.52	28.81	26.01	-54.6	-70.5	3.8	1.49e+00	0	27	104	0	74	23835
2026-01-14 06:34:39.55	27.91	26.09	-54.5	-70.5	3.8	1.49e+00	0	27	104	0	74	23787
2026-01-14 06:34:42.58	27.00	26.17	-54.6	-70.5	3.8	1.49e+00	0	27	104	0	74	23849
2026-01-14 06:34:45.61	26.08	26.23	-54.5	-70.5	3.8	1.49e+00	0	27	104	0	74	23778
2026-01-14 06:34:48.63	25.17	26.29	-54.5	-70.5	3.8	1.49e+00	0	27	104	0	74	23797
2026-01-14 06:34:51.66	24.25	26.35	-54.5	-70.5	3.8	1.49e+00	0	27	104	0	74	23779
2026-01-14 06:34:54.69	23.33	26.39	-54.5	-70.5	3.8	1.49e+00	0	27	104	0	74	23813
2026-01-14 06:34:57.71	22.41	26.42	-54.6	-70.5	3.8	1.49e+00	0	28	104	0	74	23797
2026-01-14 06:35:00.74	21.48	26.45	-54.5	-70.5	3.8	1.49e+00	0	27	104	0	74	23831
2026-01-14 06:35:03.77	20.56	26.47	-54.5	-70.5	3.8	1.49e+00	0	27	104	0	74	23808
2026-01-14 06:35:06.79	19.63	26.48	-54.6	-70.6	3.8	1.49e+00	0	28	104	0	74	23902
2026-01-14 06:35:09.82	18.70	26.48	-54.6	-70.5	3.8	1.49e+00	0	27	104	0	74	23805
2026-01-14 06:35:12.85	17.77	26.48	-54.6	-70.6	3.8	1.49e+00	0	27	104	0	74	23863
2026-01-14 06:35:15.87	16.85	26.46	-54.6	-70.6	3.8	1.49e+00	0	27	104	0	74	23892
2026-01-14 06:35:18.90	15.92	26.44	-54.6	-70.5	3.8	1.49e+00	0	27	104	0	74	23844
2026-01-14 06:35:21.92	15.00	26.41	-54.6	-70.6	3.8	1.49e+00	0	27	104	0	74	23886
2026-01-14 06:35:24.94	14.08	26.37	-54.6	-70.6	3.8	1.49e+00	0	27	104	0	74	23878
2026-01-14 06:35:27.97	13.16	26.32	-54.6	-70.6	3.8	1.49e+00	0	27	104	0	74	23877
2026-01-14 06:35:31.00	12.24	26.27	-54.6	-70.6	3.8	1.49e+00	0	28	104	0	74	23889
2026-01-14 06:35:34.03	11.33	26.21	-54.6	-70.5	3.8	1.49e+00	0	27	104	0	74	23841
2026-01-14 06:35:37.05	10.42	26.14	-54.6	-70.6	3.8	1.49e+00	0	27	104	0	74	23902
2026-01-14 06:35:40.08	9.51	26.06	-54.6	-70.6	3.8	1.49e+00	0	27	104	0	74	23895
2026-01-14 06:35:43.10	8.61	25.97	-54.6	-70.6	3.8	1.49e+00	0	27	104	0	74	23915
2026-01-14 06:35:46.13	7.72	25.88	-54.6	-70.6	3.8	1.49e+00	0	27	104	0	74	23912
2026-01-14 06:35:49.16	6.83	25.78	-54.6	-70.6	3.8	1.49e+00	0	27	104	0	74	23881
2026-01-14 06:35:52.19	5.94	25.67	-54.6	-70.6	3.8	1.49e+00	0	27	104	0	74	23921
2026-01-14 06:35:55.21	5.07	25.55	-54.6	-70.6	3.8	1.49e+00	0	27	104	0	74	23883
2026-01-14 06:35:58.24	4.20	25.43	-54.6	-70.6	3.8	1.49e+00	0	27	104	0	74	23902
2026-01-14 06:36:01.26	3.33	25.30	-54.6	-70.6	3.8	1.49e+00	0	27	104	0	74	23871
2026-01-14 06:36:04.29	2.48	25.17	-54.6	-70.6	3.8	1.49e+00	0	27	104	0	74	23900
2026-01-14 06:36:07.31	1.63	25.03	-54.5	-70.5	3.8	1.49e+00	0	27	104	0	74	23811
2026-01-14 06:36:10.33	0.79	24.88	-54.6	-70.6	3.8	1.49e+00	0	27	104	0	74	23874
2026-01-14 06:36:13.35	359.96	24.73	-54.6	-70.6	3.8	1.49e+00	0	28	104	0	74	23886
2026-01-14 06:36:16.38	359.13	24.57	-54.6	-70.5	3.8	1.49e+00	0	28	104	0	74	23830
2026-01-14 06:36:19.41	358.31	24.41	-54.6	-70.5	3.8	1.49e+00	0	28	104	0	74	23838
2026-01-14 06:36:22.44	357.51	24.24	-54.6	-70.6	3.8	1.49e+00	0	27	104	0	74	23897
2026-01-14 06:36:25.46	356.71	24.06	-54.6	-70.6	3.8	1.49e+00	0	28	104	0	74	23915
2026-01-14 06:36:28.49	355.92	23.89	-54.6	-70.6	3.8	1.49e+00	0	27	104	0	74	23864
2026-01-14 06:36:31.52	355.14	23.70	-54.6	-70.6	3.8	1.49e+00	0	27	104	0	74	23913
2026-01-14 06:36:34.55	354.36	23.51	-54.6	-70.6	3.8	1.49e+00	0	27	104	0	74	23875
2026-01-14 06:36:37.57	353.60	23.32	-54.6	-70.6	3.8	1.49e+00	0	27	104	0	74	23870
2026-01-14 06:36:40.60	352.85	23.13	-54.6	-70.5	3.8	1.49e+00	0	27	104	0	74	23824
2026-01-14 06:36:43.62	352.11	22.93	-54.6	-70.6	3.8	1.49e+00	0	27	104	0	74	23881
2026-01-14 06:36:46.65	351.37	22.72	-54.6	-70.5	3.8	1.49e+00	0	27	104	0	74	23851
2026-01-14 06:36:49.68	350.65	22.52	-54.6	-70.6	3.8	1.49e+00	0	27	104	0	74	23866
2026-01-14 06:36:52.70	349.94	22.31	-54.6	-70.6	3.8	1.49e+00	0	27	104	0	74	23857
2026-01-14 06:36:55.73	349.23	22.09	-54.6	-70.6	3.8	1.49e+00	0	28	104	0	74	23921
2026-01-14 06:36:58.75	348.54	21.88	-54.6	-70.6	3.8	1.49e+00	0	27	104	0	74	23871
2026-01-14 06:37:01.78	347.85	21.66	-54.6	-70.6	3.8	1.49e+00	0	27	104	0	74	23917
2026-01-14 06:37:04.81	347.18	21.44	-54.6	-70.6	3.8	1.49e+00	0	27	104	0	74	23862
2026-01-14 06:37:07.83	346.52	21.22	-54.6	-70.6	3.8	1.49e+00	0	27	104	0	74	23865
2026-01-14 06:37:10.87	345.86	20.99	-54.6	-70.6	3.8	1.49e+00	0	27	104	0	74	23858
2026-01-14 06:37:13.89	345.21	20.77	-54.6	-70.5	3.8	1.49e+00	0	27	104	0	74	23847
2026-01-14 06:37:16.92	344.58	20.54	-54.6	-70.5	3.8	1.49e+00	0	28	104	0	74	23842
2026-01-14 06:37:19.94	343.95	20.31	-54.6	-70.5	3.8	1.49e+00	0	27	104	0	74	23839
2026-01-14 06:37:22.98	343.33	20.07	-54.6	-70.5	3.8	1.49e+00	0	28	104	0	74	23839
2026-01-14 06:37:26.00	342.72	19.84	-54.6	-70.5	3.8	1.49e+00	0	27	104	0	74	23817
2026-01-14 06:37:29.03	342.13	19.61	-54.5	-70.5	3.8	1.49e+00	0	27	104	0	74	23792
2026-01-14 06:37:32.06	341.54	19.37	-54.6	-70.5	3.8	1.49e+00	0	27	104	0	74	23834
2026-01-14 06:37:35.08	340.96	19.14	-54.6	-70.6	3.8	1.49e+00	0	27	104	0	74	23874
2026-01-14 06:37:38.11	340.39	18.90	-54.6	-70.5	3.8	1.49e+00	0	27	104	0	74	23848
2026-01-14 06:37:41.13	339.82	18.66	-54.6	-70.6	3.8	1.49e+00	0	27	104	0	74	23889
2026-01-14 06:37:44.16	339.27	18.42	-54.6	-70.6	3.8	1.49e+00	0	27	104	0	74	23923
2026-01-14 06:37:47.19	338.73	18.19	-54.6	-70.6	3.8	1.49e+00	0	27	104	0	74	23879
2026-01-14 06:37:50.22	338.19	17.95	-54.6	-70.6	3.8	1.49e+00	0	27	104	0	74	23861
2026-01-14 06:37:53.24	337.66	17.71	-54.6	-70.6	3.8	1.49e+00	0	27	104	0	74	23914
2026-01-14 06:37:56.27	337.14	17.47	-54.6	-70.5	3.8	1.49e+00	0	27	104	0	74	23843
2026-01-14 06:37:59.29	336.63	17.23	-54.6	-70.5	3.8	1.49e+00	0	27	104	0	74	23840
2026-01-14 06:38:02.30	336.14	16.99	-54.6	-70.5	3.8	1.49e+00	0	27	104	0	74	23841
2026-01-14 06:38:05.32	335.64	16.75	-54.6	-70.6	3.8	1.49e+00	0	27	104	0	74	23865
2026-01-14 06:38:08.35	335.16	16.51	-54.6	-70.6	3.8	1.49e+00	0	27	104	0	74	23898
2026-01-14 06:38:11.38	334.68	16.27	-54.6	-70.5	3.8	1.49e+00	0	27	104	0	74	23854
2026-01-14 06:38:14.40	334.21	16.04	-54.6	-70.6	3.8	1.49e+00	0	27	104	0	74	23894
2026-01-14 06:38:17.43	333.74	15.80	-54.6	-70.6	3.8	1.49e+00	0	27	104	0	74	23911
2026-01-14 06:38:20.46	333.29	15.56	-54.6	-70.6	3.8	1.49e+00	0	27	104	0	74	23893
2026-01-14 06:38:23.49	332.84	15.32	-54.6	-70.6	3.8	1.49e+00	0	27	104	0	74	23870
2026-01-14 06:38:26.51	332.40	15.09	-54.6	-70.5	3.8	1.49e+00	0	27	104	0	74	23831
2026-01-14 06:38:29.54	331.96	14.85	-54.6	-70.6	3.8	1.49e+00	0	28	104	0	74	23917
2026-01-14 06:38:32.57	331.53	14.62	-54.6	-70.6	3.8	1.49e+00	0	27	104	0	74	23885
2026-01-14 06:38:35.60	331.11	14.38	-54.6	-70.6	3.8	1.49e+00	0	27	104	0	74	23910
2026-01-14 06:38:38.63	330.70	14.15	-54.6	-70.6	3.8	1.49e+00	0	27	104	0	74	23949
2026-01-14 06:38:41.66	330.29	13.91	-54.6	-70.5	3.8	1.49e+00	0	27	104	0	74	23807
2026-01-14 06:38:44.69	329.89	13.68	-54.6	-70.5	3.8	1.49e+00	0	28	104	0	74	23814
2026-01-14 06:38:47.72	329.50	13.45	-54.6	-70.6	3.8	1.49e+00	0	28	104	0	74	23877
2026-01-14 06:38:50.74	329.11	13.22	-54.6	-70.6	3.8	1.49e+00	0	27	104	0	74	23925
2026-01-14 06:38:53.77	328.73	12.99	-54.6	-70.6	3.8	1.49e+00	0	27	104	0	74	23884
2026-01-14 06:38:56.79	328.35	12.76	-54.6	-70.5	3.8	1.49e+00	0	28	104	0	74	23839
2026-01-14 06:38:59.82	327.98	12.53	-54.6	-70.5	3.8	1.49e+00	0	27	104	0	74	23847
2026-01-14 06:39:02.85	327.62	12.30	-54.6	-70.5	3.8	1.49e+00	0	27	104	0	74	23830
2026-01-14 06:39:05.87	327.26	12.08	-54.6	-70.6	3.8	1.49e+00	0	28	104	0	74	23898
2026-01-14 06:39:08.91	326.91	11.85	-54.6	-70.6	3.8	1.49e+00	0	27	104	0	74	23884
2026-01-14 06:39:11.93	326.56	11.63	-54.6	-70.6	3.8	1.49e+00	0	27	104	0	74	23912
2026-01-14 06:39:14.96	326.22	11.40	-54.6	-70.5	3.8	1.49e+00	0	27	104	0	74	23847
2026-01-14 06:39:17.98	325.88	11.18	-54.6	-70.5	3.8	1.49e+00	0	27	104	0	74	23845
2026-01-14 06:39:21.00	325.55	10.96	-54.6	-70.6	3.8	1.49e+00	0	28	104	0	74	23860
2026-01-14 06:39:24.03	325.23	10.74	-54.6	-70.5	3.8	1.49e+00	0	27	104	0	74	23804
2026-01-14 06:39:27.05	324.91	10.52	-54.6	-70.6	3.8	1.49e+00	0	27	104	0	74	23914
2026-01-14 06:39:30.09	324.59	10.30	-54.6	-70.6	3.8	1.49e+00	0	28	104	0	74	23936
2026-01-14 06:39:33.11	324.28	10.09	-54.6	-70.5	3.8	1.49e+00	0	27	104	0	74	23818
2026-01-14 06:39:36.14	323.97	9.87	-54.6	-70.6	3.8	1.49e+00	0	28	104	0	74	23861
2026-01-14 06:39:39.17	323.67	9.66	-54.6	-70.6	3.8	1.49e+00	0	27	104	0	74	23882
2026-01-14 06:39:42.19	323.37	9.44	-54.6	-70.5	3.8	1.49e+00	0	27	104	0	74	23809
2026-01-14 06:39:45.22	323.08	9.23	-54.6	-70.6	3.8	1.49e+00	0	28	104	0	74	23877
2026-01-14 06:39:48.24	322.79	9.02	-54.6	-70.5	3.8	1.49e+00	0	27	104	0	74	23848
2026-01-14 06:39:51.27	322.51	8.81	-54.6	-70.5	3.8	1.49e+00	0	27	104	0	74	23831
2026-01-14 06:39:54.31	322.23	8.60	-54.6	-70.5	3.8	1.49e+00	0	27	104	0	74	23821
2026-01-14 06:39:57.33	321.95	8.39	-54.6	-70.5	3.8	1.49e+00	0	28	104	0	74	23845
2026-01-14 06:40:00.36	321.68	8.18	-54.6	-70.6	3.8	1.49e+00	0	27	104	0	74	23940
2026-01-14 06:40:03.37	321.41	7.98	-54.6	-70.6	3.8	1.49e+00	0	27	104	0	74	23899
2026-01-14 06:40:06.39	321.15	7.77	-54.6	-70.6	3.8	1.49e+00	0	27	104	0	74	23914
2026-01-14 06:40:09.42	320.89	7.57	-54.6	-70.5	3.8	1.49e+00	0	27	104	0	74	23836
2026-01-14 06:40:12.45	320.63	7.36	-54.6	-70.5	3.8	1.49e+00	0	28	104	0	74	23767
2026-01-14 06:40:15.48	320.38	7.16	-54.6	-70.5	3.8	1.49e+00	0	27	104	0	74	23828
2026-01-14 06:40:18.50	320.13	6.96	-54.6	-70.5	3.8	1.49e+00	0	27	104	0	74	23800
2026-01-14 06:40:21.53	319.88	6.76	-54.6	-70.5	3.8	1.49e+00	0	27	104	0	74	23833
2026-01-14 06:40:24.56	319.64	6.56	-54.6	-70.5	3.8	1.49e+00	0	27	104	0	74	23830
2026-01-14 06:40:27.58	319.40	6.37	-54.6	-70.5	3.8	1.49e+00	0	27	104	0	74	23764
2026-01-14 06:40:30.61	319.17	6.17	-54.6	-70.5	3.8	1.49e+00	0	27	104	0	74	23822
2026-01-14 06:40:33.64	318.94	5.97	-54.6	-70.6	3.8	1.49e+00	0	27	104	0	74	23882
2026-01-14 06:40:36.67	318.71	5.78	-54.6	-70.5	3.8	1.49e+00	0	27	104	0	74	23848
2026-01-14 06:40:39.69	318.48	5.58	-54.6	-70.5	3.8	1.49e+00	0	28	104	0	74	23788
2026-01-14 06:40:42.71	318.26	5.39	-54.6	-70.5	3.8	1.49e+00	0	27	104	0	74	23827
2026-01-14 06:40:45.74	318.04	5.20	-54.6	-70.6	3.8	1.49e+00	0	27	104	0	74	23881
2026-01-14 06:40:48.77	317.82	5.01	-54.6	-70.5	3.8	1.49e+00	0	27	104	0	74	23799
2026-01-14 06:40:51.80	317.61	4.82	-54.6	-70.5	3.8	1.49e+00	0	27	104	0	74	23824
2026-01-14 06:40:54.83	317.40	4.63	-54.6	-70.5	3.8	1.49e+00	0	28	104	0	74	23799
2026-01-14 06:40:57.85	317.19	4.44	-54.6	-70.5	3.8	1.49e+00	0	27	104	0	74	23844
2026-01-14 06:41:00.88	316.99	4.25	-54.6	-70.5	3.8	1.49e+00	0	27	104	0	74	23822
2026-01-14 06:41:03.90	316.79	4.07	-54.6	-70.6	3.8	1.49e+00	0	27	104	0	74	23876
2026-01-14 06:41:06.93	316.59	3.88	-54.6	-70.5	3.8	1.49e+00	0	27	104	0	74	23852
2026-01-14 06:41:09.97	316.39	3.70	-54.6	-70.6	3.8	1.49e+00	0	27	104	0	74	23896
2026-01-14 06:41:12.99	316.19	3.52	-54.6	-70.5	3.8	1.49e+00	0	27	104	0	74	23821
2026-01-14 06:41:16.02	316.00	3.33	-54.6	-70.5	3.8	1.49e+00	0	27	104	0	74	23827
2026-01-14 06:41:19.05	315.81	3.15	-54.6	-70.6	3.8	1.49e+00	0	27	104	0	74	23871
2026-01-14 06:41:22.07	315.63	2.97	-54.6	-70.5	3.8	1.49e+00	0	27	104	0	74	23846
2026-01-14 06:41:25.10	315.44	2.79	-54.6	-70.5	3.8	1.49e+00	0	27	104	0	74	23838
2026-01-14 06:41:28.12	315.26	2.61	-54.6	-70.5	3.8	1.49e+00	0	27	104	0	74	23807
2026-01-14 06:41:31.15	315.08	2.43	-54.6	-70.5	3.8	1.49e+00	0	27	104	0	74	23835
2026-01-14 06:41:34.18	314.90	2.26	-54.6	-70.5	3.8	1.49e+00	0	27	104	0	74	23831
2026-01-14 06:41:37.20	314.73	2.08	-54.6	-70.5	3.8	1.49e+00	0	27	104	0	74	23800

#Closed at: 2026-01-14 06:41:39
#Recorded file [0 MB]: D:/lorett/data/31004_260114_092842.dat