passes_logs/2026/01/14/R3.2S_Murmansk/R3.2S_Murmansk__20260114_072846_FENGYUN_3D_rec.log

#Pass ID: 20260114_072846_FENGYUN 3D
#Satellite: FENGYUN 3D
#Configuration: FENGYUN 3D
#almurnet v.1.7.20251203
#Start time: 2026-01-14 07:28:48

#Version: 2.2.20231116
#Station: R3.2S_Murmansk
#Location: 33.079688 lon 68.888172 lat
#TLE: 1 43010U 17072A   26013.94640698 -.00000044  00000+0  88349-6 0  9999
#TLE: 2 43010  98.9934 345.7464 0002313 110.9627 249.1796 14.19695403423100

#Time	Az	El	Level	Level2	SNR	BER	BlckErr	Temp	State	Recorded	gain1	gain2
2026-01-14 07:28:48.19	66.55	2.10	-57.9	-70.9	3.8	8.45e-01	0	25	0	0	82	15741
2026-01-14 07:28:52.20	66.29	2.33	-57.9	-70.9	3.8	8.45e-01	0	25	104	0	80	17505
2026-01-14 07:28:56.21	66.03	2.56	-57.9	-70.8	3.8	8.45e-01	0	25	104	0	80	17453
2026-01-14 07:29:00.20	65.77	2.80	-57.9	-70.9	3.8	8.47e-01	0	26	104	0	80	17544
2026-01-14 07:29:04.22	65.51	3.03	-57.9	-70.9	3.8	8.46e-01	0	26	104	0	80	17620
2026-01-14 07:29:08.23	65.23	3.27	-57.9	-70.9	3.8	8.46e-01	0	26	104	0	80	17576
2026-01-14 07:29:12.23	64.96	3.50	-57.9	-70.8	3.8	8.44e-01	0	26	104	0	80	17282
2026-01-14 07:29:16.25	64.68	3.74	-57.9	-70.9	3.8	8.45e-01	0	26	104	0	80	17565
2026-01-14 07:29:20.26	64.39	3.98	-57.9	-70.7	3.8	8.47e-01	0	26	104	0	80	17136
2026-01-14 07:29:24.26	64.10	4.22	-57.9	-70.8	3.8	8.46e-01	0	26	104	0	81	16461
2026-01-14 07:29:28.27	63.81	4.46	-57.7	-67.9	4.1	8.41e-01	0	26	0	0	81	11699
2026-01-14 07:29:32.26	63.51	4.70	-57.0	-63.6	6.0	3.66e-01	0	26	0	4194304	80	7623
2026-01-14 07:29:36.27	63.20	4.95	-55.1	-58.7	9.9	3.01e-03	0	26	0	26214400	76	5462
2026-01-14 07:29:40.26	62.89	5.19	-55.7	-59.8	9.0	1.27e-01	0	26	0	49283072	78	5510
2026-01-14 07:29:44.28	62.57	5.44	-50.8	-52.5	13.8	0.00e+00	0	26	0	71303168	68	4200
2026-01-14 07:29:48.31	62.25	5.69	-50.2	-51.7	14.0	0.00e+00	0	27	0	94371840	66	4337
2026-01-14 07:29:52.32	61.92	5.94	-49.9	-51.4	14.1	0.00e+00	0	27	0	116391936	66	4184
2026-01-14 07:29:56.31	61.59	6.20	-49.7	-51.2	14.3	0.00e+00	0	27	0	139460608	66	4086
2026-01-14 07:30:00.30	61.25	6.45	-49.9	-51.4	14.0	0.00e+00	0	27	0	161480704	65	4439
2026-01-14 07:30:04.28	60.91	6.70	-49.7	-51.2	14.2	0.00e+00	0	27	0	183500800	65	4306
2026-01-14 07:30:08.27	60.56	6.96	-49.7	-51.2	14.2	0.00e+00	0	27	0	206569472	65	4300
2026-01-14 07:30:12.23	60.20	7.21	-49.7	-51.1	14.2	0.00e+00	0	27	0	228589568	65	4284
2026-01-14 07:30:16.23	59.84	7.47	-49.5	-50.9	14.3	0.00e+00	0	27	0	250609664	65	4193
2026-01-14 07:30:20.22	59.47	7.73	-49.5	-50.9	14.3	0.00e+00	0	27	0	273678336	65	4178
2026-01-14 07:30:24.20	59.09	7.99	-49.3	-50.7	14.3	0.00e+00	0	27	0	295698432	64	4316
2026-01-14 07:30:28.21	58.70	8.26	-49.1	-50.5	14.4	0.00e+00	0	27	0	318767104	64	4207
2026-01-14 07:30:32.18	58.31	8.52	-49.1	-50.4	14.5	0.00e+00	0	27	0	340787200	64	4176
2026-01-14 07:30:36.15	57.91	8.78	-49.1	-50.5	14.4	0.00e+00	0	27	0	363855872	64	4211
2026-01-14 07:30:40.13	57.51	9.05	-49.1	-50.5	14.5	0.00e+00	0	27	0	385875968	64	4196
2026-01-14 07:30:44.11	57.09	9.32	-49.0	-50.3	14.5	0.00e+00	0	27	0	407896064	64	4119
2026-01-14 07:30:48.08	56.67	9.59	-48.9	-50.3	14.6	0.00e+00	0	27	0	429916160	64	4103
2026-01-14 07:30:52.06	56.24	9.86	-49.1	-50.5	14.5	0.00e+00	0	27	0	452984832	64	4208
2026-01-14 07:30:56.04	55.80	10.13	-49.0	-50.4	14.5	0.00e+00	0	27	0	475004928	64	4147
2026-01-14 07:31:00.02	55.36	10.41	-48.8	-50.1	14.6	0.00e+00	0	27	0	497025024	64	4051
2026-01-14 07:31:04.02	54.90	10.68	-48.5	-49.8	14.7	0.00e+00	0	27	0	520093696	63	4122
2026-01-14 07:31:08.00	54.43	10.96	-48.6	-49.9	14.6	0.00e+00	0	27	0	542113792	63	4193
2026-01-14 07:31:11.97	53.96	11.24	-48.5	-49.8	14.7	0.00e+00	0	27	0	565182464	63	4103
2026-01-14 07:31:15.95	53.48	11.51	-48.5	-49.8	14.7	0.00e+00	0	27	0	587202560	63	4104
2026-01-14 07:31:19.93	52.99	11.79	-48.2	-49.5	14.8	0.00e+00	0	27	0	609222656	63	3960
2026-01-14 07:31:23.91	52.48	12.08	-48.3	-49.6	14.8	0.00e+00	0	27	0	632291328	63	4031
2026-01-14 07:31:27.89	51.97	12.36	-48.3	-49.6	14.7	0.00e+00	0	27	0	654311424	62	4258
2026-01-14 07:31:31.87	51.45	12.64	-48.1	-49.4	14.7	0.00e+00	0	27	0	676331520	62	4151
2026-01-14 07:31:35.85	50.92	12.92	-48.1	-49.3	14.8	0.00e+00	0	27	0	699400192	62	4133
2026-01-14 07:31:39.84	50.37	13.21	-47.7	-48.9	14.9	0.00e+00	0	27	0	721420288	62	3954
2026-01-14 07:31:43.82	49.82	13.49	-47.8	-49.0	14.9	0.00e+00	0	27	0	743440384	62	3960
2026-01-14 07:31:47.80	49.25	13.78	-47.7	-48.9	14.8	0.00e+00	0	27	0	766509056	61	4149
2026-01-14 07:31:51.78	48.68	14.07	-47.7	-48.9	14.8	0.00e+00	0	27	0	788529152	61	4187
2026-01-14 07:31:55.74	48.09	14.35	-47.6	-48.9	14.8	0.00e+00	0	27	0	811597824	61	4148
2026-01-14 07:31:59.71	47.50	14.64	-47.6	-48.8	14.9	0.00e+00	0	27	0	833617920	61	4111
2026-01-14 07:32:03.69	46.88	14.93	-47.3	-48.5	15.0	0.00e+00	0	27	0	855638016	61	3972
2026-01-14 07:32:07.67	46.26	15.21	-47.1	-48.3	14.9	0.00e+00	0	27	0	877658112	60	4124
2026-01-14 07:32:11.63	45.63	15.50	-47.2	-48.4	14.9	0.00e+00	0	27	0	900726784	60	4182
2026-01-14 07:32:15.63	44.98	15.79	-47.3	-48.5	14.9	0.00e+00	0	27	0	922746880	60	4199
2026-01-14 07:32:19.61	44.32	16.07	-47.3	-48.5	14.9	0.00e+00	0	27	0	944766976	60	4204
2026-01-14 07:32:23.58	43.64	16.36	-47.1	-48.3	14.9	0.00e+00	0	27	0	967835648	60	4109
2026-01-14 07:32:27.57	42.96	16.64	-47.1	-48.3	15.0	0.00e+00	0	27	0	989855744	60	4106
2026-01-14 07:32:31.53	42.26	16.93	-47.1	-48.2	14.9	0.00e+00	0	27	0	1011875840	60	4090
2026-01-14 07:32:35.51	41.54	17.21	-46.9	-48.1	15.0	0.00e+00	0	27	0	1034944512	60	4013
2026-01-14 07:32:39.48	40.82	17.49	-46.9	-48.0	15.0	0.00e+00	0	27	0	1056964608	60	3992
2026-01-14 07:32:43.45	40.08	17.77	-47.0	-48.2	14.9	0.00e+00	0	27	0	1078984704	59	4308
2026-01-14 07:32:47.42	39.33	18.04	-46.8	-48.0	15.0	0.00e+00	0	27	0	1102053376	59	4206
2026-01-14 07:32:51.37	38.56	18.32	-46.8	-48.0	15.0	0.00e+00	0	27	0	1124073472	59	4195
2026-01-14 07:32:55.36	37.78	18.59	-46.5	-47.6	15.1	0.00e+00	0	27	0	1146093568	59	4035
2026-01-14 07:32:59.32	36.98	18.86	-46.6	-47.7	15.0	0.00e+00	0	27	0	1168113664	59	4080
2026-01-14 07:33:03.29	36.17	19.13	-46.6	-47.8	15.0	0.00e+00	0	27	0	1191182336	59	4113
2026-01-14 07:33:07.27	35.35	19.39	-46.5	-47.7	15.1	0.00e+00	0	27	0	1213202432	59	4057
2026-01-14 07:33:11.26	34.50	19.65	-46.5	-47.6	15.1	0.00e+00	0	27	0	1236271104	59	4051
2026-01-14 07:33:15.23	33.65	19.91	-46.5	-47.6	15.1	0.00e+00	0	27	0	1258291200	59	4051
2026-01-14 07:33:19.21	32.78	20.16	-46.4	-47.5	15.1	0.00e+00	0	27	0	1280311296	59	3971
2026-01-14 07:33:23.18	31.90	20.41	-46.3	-47.4	15.2	0.00e+00	0	27	0	1302331392	59	3950
2026-01-14 07:33:27.15	31.00	20.65	-46.7	-47.8	15.0	0.00e+00	0	27	0	1325400064	59	4123
2026-01-14 07:33:31.14	30.09	20.89	-46.5	-47.6	15.1	0.00e+00	0	27	0	1347420160	59	4030
2026-01-14 07:33:35.12	29.16	21.12	-46.2	-47.3	15.1	0.00e+00	0	27	0	1369440256	58	4116
2026-01-14 07:33:39.09	28.22	21.34	-46.1	-47.2	15.1	0.00e+00	0	27	0	1392508928	58	4092
2026-01-14 07:33:43.06	27.27	21.56	-46.2	-47.4	15.1	0.00e+00	0	27	0	1414529024	58	4149
2026-01-14 07:33:47.03	26.30	21.77	-46.1	-47.2	15.1	0.00e+00	0	27	0	1436549120	58	4079
2026-01-14 07:33:51.02	25.32	21.98	-46.2	-47.3	15.1	0.00e+00	0	27	0	1459617792	58	4114
2026-01-14 07:33:54.98	24.33	22.18	-46.1	-47.2	15.1	0.00e+00	0	27	0	1481637888	58	4087
2026-01-14 07:33:58.96	23.32	22.37	-45.8	-46.9	15.2	0.00e+00	0	27	0	1503657984	58	3932
2026-01-14 07:34:02.95	22.30	22.55	-45.9	-47.0	15.2	0.00e+00	0	27	0	1526726656	58	3968
2026-01-14 07:34:06.93	21.27	22.72	-45.9	-46.9	15.2	0.00e+00	0	27	0	1548746752	58	3957
2026-01-14 07:34:10.92	20.22	22.89	-45.8	-46.9	15.2	0.00e+00	0	27	0	1571815424	58	3939
2026-01-14 07:34:14.89	19.17	23.04	-45.7	-46.7	15.1	0.00e+00	0	27	0	1593835520	57	4096
2026-01-14 07:34:18.87	18.11	23.19	-45.9	-47.0	15.1	0.00e+00	0	27	0	1615855616	57	4194
2026-01-14 07:34:22.88	17.03	23.32	-45.9	-47.0	15.1	0.00e+00	0	27	0	1638924288	57	4205
2026-01-14 07:34:26.85	15.95	23.45	-45.7	-46.8	15.1	0.00e+00	0	27	0	1660944384	57	4119
2026-01-14 07:34:30.82	14.86	23.56	-45.5	-46.6	15.2	0.00e+00	0	27	0	1682964480	57	4031
2026-01-14 07:34:34.79	13.77	23.66	-45.3	-46.3	15.3	0.00e+00	0	27	0	1704984576	57	3886
2026-01-14 07:34:38.77	12.66	23.76	-45.3	-46.3	15.1	0.00e+00	0	27	0	1728053248	56	4131
2026-01-14 07:34:42.75	11.55	23.84	-45.6	-46.7	15.0	0.00e+00	0	27	0	1750073344	56	4294
2026-01-14 07:34:46.71	10.44	23.91	-45.5	-46.6	15.1	0.00e+00	0	27	0	1773142016	56	4276
2026-01-14 07:34:50.70	9.31	23.96	-45.3	-46.4	15.1	0.00e+00	0	27	0	1795162112	56	4168
2026-01-14 07:34:54.66	8.19	24.01	-45.3	-46.3	15.1	0.00e+00	0	27	0	1817182208	56	4137
2026-01-14 07:34:58.63	7.07	24.04	-45.3	-46.4	15.1	0.00e+00	0	27	0	1839202304	56	4151
2026-01-14 07:35:02.61	5.94	24.07	-45.3	-46.3	15.1	0.00e+00	0	27	0	1862270976	56	4132
2026-01-14 07:35:06.57	4.81	24.08	-45.4	-46.5	15.1	0.00e+00	0	27	0	1884291072	56	4211
2026-01-14 07:35:10.56	3.68	24.07	-45.2	-46.2	15.1	0.00e+00	0	27	0	1907359744	56	4097
2026-01-14 07:35:14.55	2.55	24.06	-45.3	-46.3	15.1	0.00e+00	0	27	0	1929379840	56	4143
2026-01-14 07:35:18.53	1.42	24.03	-45.5	-46.6	15.1	0.00e+00	0	27	0	1951399936	56	4267
2026-01-14 07:35:22.51	0.29	23.99	-45.4	-46.4	15.1	0.00e+00	0	27	0	1974468608	56	4181
2026-01-14 07:35:26.49	359.17	23.94	-45.3	-46.4	15.1	0.00e+00	0	27	0	1996488704	56	4165
2026-01-14 07:35:30.47	358.05	23.88	-45.3	-46.3	15.1	0.00e+00	0	27	0	2018508800	56	4129
2026-01-14 07:35:34.43	356.94	23.81	-45.3	-46.4	15.1	0.00e+00	0	27	0	2040528896	56	4161
2026-01-14 07:35:38.40	355.83	23.72	-45.3	-46.4	15.1	0.00e+00	0	27	0	2063597568	56	4148
2026-01-14 07:35:42.37	354.73	23.63	-45.3	-46.4	15.1	0.00e+00	0	27	0	2085617664	56	4156
2026-01-14 07:35:46.34	353.64	23.52	-45.3	-46.3	15.1	0.00e+00	0	27	0	2108686336	56	4141
2026-01-14 07:35:50.31	352.55	23.40	-45.5	-46.6	15.1	0.00e+00	0	27	0	2130706432	56	4248
2026-01-14 07:35:54.27	351.48	23.27	-45.5	-46.5	15.1	0.00e+00	0	27	0	2152726528	56	4239
2026-01-14 07:35:58.24	350.41	23.14	-45.3	-46.3	15.1	0.00e+00	0	27	0	2174746624	56	4141
2026-01-14 07:36:02.22	349.35	22.99	-45.3	-46.4	15.1	0.00e+00	0	27	0	2197815296	56	4164
2026-01-14 07:36:06.19	348.31	22.83	-45.5	-46.6	15.1	0.00e+00	0	27	0	2219835392	56	4244
2026-01-14 07:36:10.17	347.27	22.66	-45.3	-46.4	15.1	0.00e+00	0	27	0	2241855488	56	4150
2026-01-14 07:36:14.15	346.24	22.48	-45.4	-46.5	15.1	0.00e+00	0	27	0	2264924160	56	4195
2026-01-14 07:36:18.14	345.22	22.30	-45.5	-46.6	15.1	0.00e+00	0	27	0	2286944256	56	4269
2026-01-14 07:36:22.11	344.22	22.11	-45.5	-46.5	15.1	0.00e+00	0	27	0	2308964352	56	4230
2026-01-14 07:36:26.10	343.23	21.91	-45.6	-46.6	15.0	0.00e+00	0	27	0	2332033024	56	4284
2026-01-14 07:36:30.07	342.26	21.70	-45.6	-46.7	15.1	0.00e+00	0	27	0	2354053120	56	4325
2026-01-14 07:36:34.05	341.29	21.48	-45.7	-46.8	15.0	0.00e+00	0	27	0	2376073216	56	4344
2026-01-14 07:36:38.03	340.34	21.26	-45.6	-46.7	15.0	0.00e+00	0	27	0	2399141888	56	4302
2026-01-14 07:36:42.00	339.41	21.03	-45.7	-46.8	15.0	0.00e+00	0	28	0	2421161984	56	4343
2026-01-14 07:36:45.97	338.49	20.80	-45.8	-46.8	15.0	0.00e+00	0	27	0	2443182080	56	4385
2026-01-14 07:36:49.96	337.58	20.56	-46.1	-47.2	15.0	0.00e+00	0	27	0	2466250752	57	4317
2026-01-14 07:36:53.93	336.69	20.32	-46.1	-47.2	15.0	0.00e+00	0	27	0	2488270848	57	4327
2026-01-14 07:36:57.90	335.81	20.07	-45.9	-47.0	15.0	0.00e+00	0	27	0	2510290944	57	4222
2026-01-14 07:37:01.88	334.95	19.81	-46.2	-47.4	15.0	0.00e+00	0	27	0	2533359616	57	4396
2026-01-14 07:37:05.85	334.10	19.56	-46.4	-47.5	15.0	0.00e+00	0	27	0	2555379712	58	4222
2026-01-14 07:37:09.82	333.27	19.30	-46.6	-47.7	15.0	0.00e+00	0	28	0	2577399808	58	4307
2026-01-14 07:37:13.80	332.44	19.03	-46.6	-47.8	14.9	0.00e+00	0	27	0	2600468480	58	4356
2026-01-14 07:37:17.77	331.64	18.76	-46.7	-47.8	14.9	0.00e+00	0	27	0	2622488576	58	4377
2026-01-14 07:37:21.75	330.85	18.49	-46.5	-47.6	15.0	0.00e+00	0	27	0	2644508672	58	4269
2026-01-14 07:37:25.71	330.07	18.22	-46.7	-47.8	14.9	0.00e+00	0	28	0	2667577344	58	4371
2026-01-14 07:37:29.67	329.31	17.94	-46.7	-47.8	14.9	0.00e+00	0	27	0	2689597440	58	4389
2026-01-14 07:37:33.65	328.56	17.67	-46.5	-47.6	15.0	0.00e+00	0	27	0	2711617536	58	4283
2026-01-14 07:37:37.63	327.83	17.39	-46.6	-47.8	14.9	0.00e+00	0	27	0	2733637632	58	4343
2026-01-14 07:37:41.61	327.10	17.10	-46.6	-47.7	14.9	0.00e+00	0	27	0	2756706304	58	4314
2026-01-14 07:37:45.59	326.40	16.82	-46.6	-47.8	14.9	0.00e+00	0	27	0	2778726400	58	4352
2026-01-14 07:37:49.56	325.70	16.54	-46.8	-48.0	14.9	0.00e+00	0	27	0	2800746496	58	4450
2026-01-14 07:37:53.54	325.02	16.25	-47.1	-48.3	14.8	0.00e+00	0	27	0	2823815168	59	4383
2026-01-14 07:37:57.50	324.35	15.97	-47.1	-48.3	14.8	0.00e+00	0	27	0	2845835264	59	4365
2026-01-14 07:38:01.48	323.70	15.68	-47.2	-48.3	14.8	0.00e+00	0	27	0	2867855360	59	4385
2026-01-14 07:38:05.46	323.05	15.40	-47.1	-48.2	14.9	0.00e+00	0	27	0	2890924032	59	4318
2026-01-14 07:38:09.42	322.43	15.11	-47.2	-48.3	14.8	0.00e+00	0	27	0	2912944128	59	4381
2026-01-14 07:38:13.39	321.81	14.82	-47.3	-48.5	14.8	0.00e+00	0	28	0	2934964224	59	4465
2026-01-14 07:38:17.37	321.20	14.54	-47.1	-48.3	14.9	0.00e+00	0	27	0	2958032896	60	4104
2026-01-14 07:38:21.36	320.61	14.25	-47.0	-48.1	15.0	0.00e+00	0	27	0	2980052992	60	4048
2026-01-14 07:38:25.34	320.02	13.96	-47.2	-48.4	14.9	0.00e+00	0	27	0	3002073088	60	4165
2026-01-14 07:38:29.31	319.45	13.68	-47.1	-48.3	14.9	0.00e+00	0	27	0	3025141760	60	4114
2026-01-14 07:38:33.29	318.89	13.39	-47.4	-48.6	14.8	0.00e+00	0	27	0	3047161856	60	4276
2026-01-14 07:38:37.26	318.34	13.11	-47.5	-48.7	14.8	0.00e+00	0	27	0	3069181952	60	4293
2026-01-14 07:38:41.24	317.80	12.82	-47.3	-48.5	14.8	0.00e+00	0	27	0	3092250624	60	4222
2026-01-14 07:38:45.21	317.28	12.54	-47.6	-48.8	14.7	0.00e+00	0	27	0	3114270720	60	4348
2026-01-14 07:38:49.19	316.76	12.26	-47.7	-48.9	14.7	0.00e+00	0	27	0	3136290816	60	4421
2026-01-14 07:38:53.16	316.25	11.98	-47.7	-48.9	14.6	0.00e+00	0	27	0	3159359488	60	4440
2026-01-14 07:38:57.13	315.75	11.70	-47.8	-49.0	14.6	0.00e+00	0	28	0	3181379584	60	4482
2026-01-14 07:39:01.07	315.27	11.42	-47.8	-49.0	14.6	0.00e+00	0	27	0	3203399680	60	4484
2026-01-14 07:39:05.04	314.79	11.14	-48.0	-49.3	14.6	0.00e+00	0	28	0	3225419776	61	4353
2026-01-14 07:39:09.03	314.32	10.86	-48.3	-49.6	14.5	0.00e+00	0	27	0	3248488448	61	4534
2026-01-14 07:39:13.00	313.86	10.59	-48.3	-49.6	14.5	0.00e+00	0	27	0	3270508544	61	4511
2026-01-14 07:39:16.98	313.41	10.31	-48.4	-49.7	14.5	0.00e+00	0	27	0	3292528640	61	4556
2026-01-14 07:39:20.99	312.96	10.04	-48.2	-49.5	14.7	0.00e+00	0	27	0	3315597312	62	4221
2026-01-14 07:39:24.96	312.52	9.77	-48.3	-49.6	14.6	0.00e+00	0	27	0	3337617408	62	4278
2026-01-14 07:39:28.94	312.10	9.50	-48.5	-49.8	14.5	0.00e+00	0	27	0	3360686080	62	4380
2026-01-14 07:39:32.91	311.68	9.23	-48.7	-50.1	14.4	0.00e+00	0	27	0	3382706176	62	4494
2026-01-14 07:39:36.89	311.27	8.96	-48.8	-50.1	14.5	0.00e+00	0	27	0	3404726272	63	4259
2026-01-14 07:39:40.86	310.87	8.70	-48.6	-49.9	14.6	0.00e+00	0	27	0	3427794944	63	4160
2026-01-14 07:39:44.83	310.47	8.43	-48.8	-50.2	14.4	0.00e+00	0	27	0	3449815040	63	4308
2026-01-14 07:39:48.79	310.08	8.17	-48.8	-50.1	14.4	0.00e+00	0	27	0	3471835136	63	4288
2026-01-14 07:39:52.75	309.70	7.91	-48.7	-50.1	14.5	0.00e+00	0	27	0	3493855232	63	4259
2026-01-14 07:39:56.72	309.33	7.65	-49.0	-50.3	14.4	0.00e+00	0	27	0	3516923904	63	4380
2026-01-14 07:40:00.70	308.96	7.39	-49.2	-50.7	14.2	0.00e+00	0	28	0	3538944000	63	4552
2026-01-14 07:40:04.68	308.60	7.13	-49.2	-50.7	14.2	0.00e+00	0	27	0	3560964096	63	4547
2026-01-14 07:40:08.67	308.25	6.88	-49.4	-50.8	14.1	0.00e+00	0	27	0	3584032768	63	4629
2026-01-14 07:40:12.66	307.90	6.62	-49.3	-50.7	14.3	0.00e+00	0	27	0	3606052864	64	4303
2026-01-14 07:40:16.64	307.56	6.37	-49.3	-50.7	14.3	0.00e+00	0	28	0	3629121536	64	4296
2026-01-14 07:40:20.62	307.22	6.12	-49.3	-50.7	14.2	0.00e+00	0	27	0	3651141632	64	4319
2026-01-14 07:40:24.59	306.89	5.87	-49.5	-50.9	14.1	0.00e+00	0	27	0	3673161728	64	4428
2026-01-14 07:40:28.57	306.57	5.62	-49.3	-50.8	14.2	0.00e+00	0	27	0	3695181824	64	4352
2026-01-14 07:40:32.55	306.25	5.37	-49.3	-50.7	14.2	0.00e+00	0	28	0	3718250496	64	4310
2026-01-14 07:40:36.53	305.94	5.12	-49.6	-51.1	14.0	0.00e+00	0	27	0	3740270592	64	4518
2026-01-14 07:40:40.51	305.63	4.88	-58.9	-71.7	3.8	8.46e-01	0	28	104	3753902080	82	17266
2026-01-14 07:40:44.52	305.33	4.64	-59.8	-72.8	3.8	8.45e-01	0	28	104	3753902080	84	17368
2026-01-14 07:40:48.55	305.03	4.39	-60.2	-73.3	3.8	8.45e-01	0	27	104	3753902080	85	17311
2026-01-14 07:40:52.58	304.73	4.15	-60.5	-73.6	3.8	8.44e-01	0	28	104	3753902080	86	16897
2026-01-14 07:40:56.59	304.44	3.91	-60.6	-73.6	3.8	8.45e-01	0	28	104	3753902080	86	17079
2026-01-14 07:41:00.59	304.16	3.67	-60.6	-73.7	3.8	8.44e-01	0	27	104	3753902080	86	17145
2026-01-14 07:41:04.60	303.88	3.43	-60.5	-73.6	3.8	8.45e-01	0	28	104	3753902080	86	17013
2026-01-14 07:41:08.58	303.61	3.20	-60.4	-73.5	3.8	8.46e-01	0	28	104	3753902080	86	16821
2026-01-14 07:41:12.55	303.34	2.97	-60.4	-73.5	3.8	8.45e-01	0	28	104	3753902080	86	16776
2026-01-14 07:41:16.53	303.08	2.73	-60.4	-73.5	3.8	8.45e-01	0	28	104	3753902080	86	16720
2026-01-14 07:41:20.50	302.82	2.50	-60.3	-73.4	3.8	8.46e-01	0	28	104	3753902080	86	16642
2026-01-14 07:41:24.48	302.56	2.28	-60.3	-73.4	3.8	8.46e-01	0	28	104	3753902080	86	16607
2026-01-14 07:41:28.45	302.31	2.05	-60.3	-73.4	3.8	8.46e-01	0	28	104	3753902080	86	16595

#Closed at: 2026-01-14 07:41:32
#Recorded file [3753 MB]: D:/lorett/data/31004_260114_102848.dat