passes_logs/2026/01/14/R3.2S_Murmansk/R3.2S_Murmansk__20260114_122700_FENGYUN_3D_rec.log

#Pass ID: 20260114_122700_FENGYUN 3D
#Satellite: FENGYUN 3D
#Configuration: FENGYUN 3D
#almurnet v.1.7.20251203
#Start time: 2026-01-14 12:27:01

#Version: 2.2.20231116
#Station: R3.2S_Murmansk
#Location: 33.079688 lon 68.888172 lat
#TLE: 1 43010U 17072A   26013.94640698 -.00000044  00000+0  88349-6 0  9999
#TLE: 2 43010  98.9934 345.7464 0002313 110.9627 249.1796 14.19695403423100

#Time	Az	El	Level	Level2	SNR	BER	BlckErr	Temp	State	Recorded	gain1	gain2
2026-01-14 12:27:01.56	173.26	2.09	-58.3	-71.3	3.8	8.45e-01	0	26	0	0	83	15452
2026-01-14 12:27:05.58	173.38	2.34	-58.2	-70.5	3.8	8.46e-01	0	26	104	0	81	15853
2026-01-14 12:27:09.61	173.50	2.60	-58.2	-70.8	3.8	8.45e-01	0	26	104	0	81	16488
2026-01-14 12:27:13.66	173.61	2.86	-58.2	-71.1	3.8	8.45e-01	0	26	104	0	81	16900
2026-01-14 12:27:17.70	173.74	3.13	-58.2	-71.0	3.8	8.46e-01	0	26	104	0	81	16792
2026-01-14 12:27:21.73	173.86	3.39	-58.2	-70.3	3.8	8.46e-01	0	26	104	0	81	15406
2026-01-14 12:27:25.76	173.98	3.66	-57.5	-65.0	5.3	7.40e-01	0	26	0	0	81	8445
2026-01-14 12:27:29.80	174.11	3.93	-56.8	-62.4	7.2	1.35e-01	0	26	0	18874368	80	6576
2026-01-14 12:27:33.84	174.24	4.20	-55.7	-60.5	8.7	2.50e-02	0	26	0	41943040	78	5971
2026-01-14 12:27:37.88	174.37	4.48	-54.8	-58.0	10.8	6.04e-04	0	26	0	63963136	76	4987
2026-01-14 12:27:41.91	174.50	4.75	-53.9	-56.6	11.7	2.05e-05	0	26	0	87031808	74	4785
2026-01-14 12:27:45.95	174.64	5.04	-54.4	-57.4	11.1	1.17e-04	0	27	0	110100480	74	5248
2026-01-14 12:27:49.97	174.77	5.32	-58.2	-70.5	3.8	8.47e-01	0	26	104	128974848	81	15788
2026-01-14 12:27:54.00	174.91	5.61	-49.7	-51.3	14.1	0.00e+00	0	27	0	146800640	65	4366
2026-01-14 12:27:58.04	175.06	5.90	-50.1	-51.7	13.9	0.00e+00	0	27	0	169869312	65	4592
2026-01-14 12:28:02.07	175.20	6.19	-49.7	-51.3	14.1	0.00e+00	0	27	0	192937984	65	4372
2026-01-14 12:28:06.10	175.35	6.48	-49.5	-51.0	14.3	0.00e+00	0	27	0	214958080	65	4210
2026-01-14 12:28:10.13	175.50	6.78	-49.7	-51.3	14.2	0.00e+00	0	27	0	238026752	65	4345
2026-01-14 12:28:14.17	175.65	7.09	-49.3	-50.8	14.4	0.00e+00	0	27	0	261095424	65	4140
2026-01-14 12:28:18.21	175.81	7.39	-49.1	-50.6	14.4	0.00e+00	0	27	0	283115520	64	4276
2026-01-14 12:28:22.24	175.97	7.70	-49.0	-50.4	14.5	0.00e+00	0	27	0	306184192	64	4170
2026-01-14 12:28:26.28	176.13	8.02	-48.9	-50.3	14.5	0.00e+00	0	27	0	328204288	64	4141
2026-01-14 12:28:30.31	176.30	8.33	-48.8	-50.2	14.5	0.00e+00	0	27	0	351272960	63	4302
2026-01-14 12:28:34.35	176.47	8.66	-48.6	-50.0	14.6	0.00e+00	0	27	0	374341632	63	4214
2026-01-14 12:28:38.38	176.64	8.98	-48.5	-49.8	14.7	0.00e+00	0	27	0	396361728	63	4132
2026-01-14 12:28:42.41	176.82	9.31	-48.6	-50.0	14.6	0.00e+00	0	27	0	419430400	63	4194
2026-01-14 12:28:46.45	177.00	9.64	-48.6	-50.0	14.6	0.00e+00	0	27	0	442499072	63	4201
2026-01-14 12:28:50.50	177.18	9.98	-48.7	-50.1	14.6	0.00e+00	0	27	0	464519168	63	4257
2026-01-14 12:28:54.53	177.37	10.32	-48.6	-50.0	14.6	0.00e+00	0	27	0	487587840	63	4200
2026-01-14 12:28:58.56	177.56	10.67	-48.6	-50.0	14.6	0.00e+00	0	27	0	510656512	63	4204
2026-01-14 12:29:02.58	177.75	11.02	-48.6	-50.0	14.6	0.00e+00	0	27	0	532676608	63	4211
2026-01-14 12:29:06.62	177.96	11.38	-48.3	-49.6	14.8	0.00e+00	0	27	0	555745280	63	4037
2026-01-14 12:29:10.65	178.16	11.74	-48.1	-49.4	14.7	0.00e+00	0	27	0	577765376	62	4178
2026-01-14 12:29:14.68	178.37	12.10	-48.0	-49.4	14.8	0.00e+00	0	27	0	600834048	62	4148
2026-01-14 12:29:18.72	178.59	12.48	-48.0	-49.3	14.8	0.00e+00	0	27	0	623902720	62	4142
2026-01-14 12:29:22.75	178.80	12.85	-47.9	-49.2	14.8	0.00e+00	0	27	0	645922816	62	4062
2026-01-14 12:29:26.79	179.03	13.24	-47.9	-49.2	14.8	0.00e+00	0	27	0	668991488	62	4075
2026-01-14 12:29:30.83	179.26	13.63	-47.8	-49.1	14.9	0.00e+00	0	27	0	692060160	62	4011
2026-01-14 12:29:34.87	179.50	14.02	-47.5	-48.8	14.8	0.00e+00	0	27	0	714080256	61	4145
2026-01-14 12:29:38.91	179.74	14.42	-47.5	-48.8	14.9	0.00e+00	0	27	0	737148928	61	4109
2026-01-14 12:29:42.94	179.99	14.83	-47.3	-48.5	15.0	0.00e+00	0	27	0	760217600	61	4002
2026-01-14 12:29:46.97	180.24	15.24	-47.2	-48.4	14.9	0.00e+00	0	27	0	782237696	60	4186
2026-01-14 12:29:51.00	180.51	15.66	-47.1	-48.4	14.9	0.00e+00	0	27	0	805306368	60	4175
2026-01-14 12:29:55.03	180.78	16.09	-47.2	-48.4	14.9	0.00e+00	0	27	0	828375040	60	4189
2026-01-14 12:29:59.06	181.05	16.52	-46.9	-48.1	15.0	0.00e+00	0	27	0	850395136	60	4036
2026-01-14 12:30:03.09	181.33	16.96	-47.0	-48.3	14.8	0.00e+00	0	27	0	873463808	59	4376
2026-01-14 12:30:07.12	181.63	17.41	-47.0	-48.3	14.8	0.00e+00	0	27	0	895483904	59	4366
2026-01-14 12:30:11.16	181.93	17.86	-47.0	-48.3	14.8	0.00e+00	0	27	0	918552576	59	4360
2026-01-14 12:30:15.20	182.24	18.33	-46.9	-48.2	14.9	0.00e+00	0	27	0	941621248	59	4324
2026-01-14 12:30:19.24	182.56	18.80	-46.8	-48.0	15.0	0.00e+00	0	27	0	963641344	59	4233
2026-01-14 12:30:23.27	182.88	19.28	-46.7	-48.0	15.0	0.00e+00	0	27	0	986710016	59	4194
2026-01-14 12:30:27.31	183.22	19.77	-46.8	-48.1	14.9	0.00e+00	0	27	0	1009778688	59	4271
2026-01-14 12:30:31.34	183.57	20.27	-46.6	-47.9	15.0	0.00e+00	0	27	0	1031798784	59	4165
2026-01-14 12:30:35.37	183.93	20.77	-46.5	-47.7	15.1	0.00e+00	0	27	0	1054867456	59	4076
2026-01-14 12:30:39.40	184.30	21.29	-46.5	-47.7	15.1	0.00e+00	0	27	0	1076887552	59	4091
2026-01-14 12:30:43.44	184.68	21.82	-46.3	-47.5	15.2	0.00e+00	0	27	0	1099956224	59	3988
2026-01-14 12:30:47.47	185.08	22.35	-46.2	-47.4	15.2	0.00e+00	0	27	0	1123024896	59	3946
2026-01-14 12:30:51.51	185.49	22.90	-46.2	-47.5	15.0	0.00e+00	0	27	0	1146093568	58	4206
2026-01-14 12:30:55.55	185.91	23.45	-46.0	-47.2	15.1	0.00e+00	0	27	0	1168113664	58	4097
2026-01-14 12:30:59.59	186.35	24.02	-46.0	-47.2	15.1	0.00e+00	0	27	0	1191182336	58	4070
2026-01-14 12:31:03.61	186.81	24.60	-45.6	-46.8	15.1	0.00e+00	0	27	0	1214251008	57	4134
2026-01-14 12:31:07.64	187.28	25.18	-45.7	-46.9	15.1	0.00e+00	0	27	0	1236271104	57	4148
2026-01-14 12:31:11.68	187.76	25.79	-45.7	-46.9	15.1	0.00e+00	0	28	0	1259339776	57	4160
2026-01-14 12:31:15.72	188.27	26.40	-45.6	-46.8	15.1	0.00e+00	0	27	0	1281359872	57	4108
2026-01-14 12:31:19.76	188.80	27.02	-45.5	-46.7	15.2	0.00e+00	0	27	0	1304428544	57	4087
2026-01-14 12:31:23.79	189.34	27.66	-45.6	-46.8	15.1	0.00e+00	0	27	0	1327497216	57	4110
2026-01-14 12:31:27.83	189.91	28.30	-45.8	-46.9	15.1	0.00e+00	0	27	0	1349517312	57	4155
2026-01-14 12:31:31.85	190.50	28.96	-45.4	-46.5	15.2	0.00e+00	0	27	0	1372585984	57	3961
2026-01-14 12:31:35.89	191.11	29.63	-45.6	-46.6	15.2	0.00e+00	0	27	0	1395654656	57	4048
2026-01-14 12:31:39.93	191.75	30.32	-45.9	-47.0	15.1	0.00e+00	0	27	0	1417674752	57	4194
2026-01-14 12:31:43.96	192.42	31.02	-45.7	-46.7	15.2	0.00e+00	0	27	0	1440743424	57	4089
2026-01-14 12:31:47.99	193.12	31.73	-45.3	-46.3	15.3	0.00e+00	0	28	0	1462763520	57	3890
2026-01-14 12:31:52.02	193.84	32.45	-45.5	-46.6	15.2	0.00e+00	0	27	0	1485832192	57	4018
2026-01-14 12:31:56.05	194.60	33.18	-45.4	-46.5	15.2	0.00e+00	0	27	0	1508900864	57	3962
2026-01-14 12:32:00.09	195.39	33.93	-45.0	-46.1	15.2	0.00e+00	0	27	0	1530920960	56	4007
2026-01-14 12:32:04.11	196.22	34.69	-45.1	-46.2	15.2	0.00e+00	0	28	0	1553989632	56	4062
2026-01-14 12:32:08.14	197.09	35.46	-45.2	-46.3	15.1	0.00e+00	0	27	0	1577058304	56	4117
2026-01-14 12:32:12.17	198.00	36.24	-45.0	-46.1	15.2	0.00e+00	0	27	0	1599078400	56	4010
2026-01-14 12:32:16.21	198.96	37.04	-45.1	-46.2	15.2	0.00e+00	0	27	0	1622147072	56	4066
2026-01-14 12:32:20.25	199.96	37.85	-45.0	-46.1	15.2	0.00e+00	0	27	0	1644167168	56	4013
2026-01-14 12:32:24.28	201.01	38.66	-45.1	-46.1	15.2	0.00e+00	0	27	0	1667235840	56	4021
2026-01-14 12:32:28.31	202.11	39.48	-45.1	-46.1	15.2	0.00e+00	0	27	0	1690304512	56	4031
2026-01-14 12:32:32.35	203.28	40.31	-45.1	-46.1	15.2	0.00e+00	0	28	0	1712324608	56	4039
2026-01-14 12:32:36.39	204.50	41.15	-45.0	-46.0	15.2	0.00e+00	0	27	0	1735393280	56	3977
2026-01-14 12:32:40.42	205.79	41.99	-45.2	-46.2	15.2	0.00e+00	0	27	0	1758461952	56	4094
2026-01-14 12:32:44.45	207.14	42.84	-45.5	-46.5	15.1	0.00e+00	0	28	0	1780482048	56	4238
2026-01-14 12:32:48.49	208.57	43.68	-45.3	-46.4	15.1	0.00e+00	0	27	0	1803550720	56	4161
2026-01-14 12:32:52.52	210.07	44.52	-45.7	-46.8	15.1	0.00e+00	0	27	0	1826619392	57	4105
2026-01-14 12:32:56.56	211.65	45.36	-45.6	-46.6	15.2	0.00e+00	0	28	0	1848639488	57	4028
2026-01-14 12:33:00.59	213.32	46.19	-45.6	-46.7	15.2	0.00e+00	0	28	0	1871708160	57	4059
2026-01-14 12:33:04.61	215.06	47.01	-45.9	-46.9	15.1	0.00e+00	0	28	0	1894776832	57	4186
2026-01-14 12:33:08.64	216.91	47.81	-45.8	-46.8	15.1	0.00e+00	0	28	0	1916796928	57	4127
2026-01-14 12:33:12.69	218.86	48.60	-45.7	-46.7	15.1	0.00e+00	0	27	0	1939865600	57	4088
2026-01-14 12:33:16.72	220.90	49.37	-45.6	-46.7	15.2	0.00e+00	0	28	0	1962934272	57	4052
2026-01-14 12:33:20.76	223.05	50.11	-45.9	-47.0	15.1	0.00e+00	0	28	0	1984954368	57	4213
2026-01-14 12:33:24.79	225.30	50.81	-46.0	-47.0	15.1	0.00e+00	0	27	0	2008023040	57	4242
2026-01-14 12:33:28.83	227.65	51.48	-46.1	-47.2	15.0	0.00e+00	0	28	0	2030043136	57	4305
2026-01-14 12:33:32.87	230.11	52.10	-46.2	-47.3	15.0	0.00e+00	0	27	0	2053111808	57	4365
2026-01-14 12:33:36.90	232.66	52.68	-46.3	-47.3	15.0	0.00e+00	0	27	0	2076180480	57	4386
2026-01-14 12:33:40.94	235.32	53.20	-46.3	-47.4	15.0	0.00e+00	0	27	0	2098200576	57	4436
2026-01-14 12:33:44.97	238.06	53.67	-46.6	-47.7	15.0	0.00e+00	0	27	0	2121269248	58	4298
2026-01-14 12:33:49.01	240.89	54.07	-46.2	-47.3	15.1	0.00e+00	0	28	0	2144337920	58	4122
2026-01-14 12:33:53.04	243.78	54.40	-46.4	-47.5	15.0	0.00e+00	0	27	0	2166358016	58	4229
2026-01-14 12:33:57.08	246.74	54.66	-46.6	-47.7	15.0	0.00e+00	0	27	0	2189426688	58	4303
2026-01-14 12:34:01.11	249.74	54.84	-46.2	-47.3	15.1	0.00e+00	0	27	0	2212495360	58	4116
2026-01-14 12:34:05.15	252.78	54.95	-46.9	-48.0	15.0	0.00e+00	0	28	0	2234515456	59	4217
2026-01-14 12:34:09.18	255.82	54.98	-46.8	-48.0	15.0	0.00e+00	0	27	0	2257584128	59	4196
2026-01-14 12:34:13.21	258.87	54.93	-46.5	-47.5	15.2	0.00e+00	0	28	0	2280652800	59	4002
2026-01-14 12:34:17.24	261.89	54.80	-46.6	-47.7	15.1	0.00e+00	0	28	0	2302672896	59	4059
2026-01-14 12:34:21.28	264.88	54.60	-46.4	-47.5	15.2	0.00e+00	0	28	0	2325741568	59	3974
2026-01-14 12:34:25.31	267.82	54.32	-46.6	-47.7	15.1	0.00e+00	0	27	0	2348810240	59	4074
2026-01-14 12:34:29.35	270.70	53.97	-47.1	-48.3	15.0	0.00e+00	0	28	0	2370830336	59	4343
2026-01-14 12:34:33.39	273.51	53.55	-46.8	-47.8	15.1	0.00e+00	0	28	0	2393899008	59	4144
2026-01-14 12:34:37.43	276.23	53.07	-46.6	-47.7	15.1	0.00e+00	0	27	0	2415919104	59	4065
2026-01-14 12:34:41.46	278.85	52.53	-46.4	-47.5	15.2	0.00e+00	0	27	0	2438987776	59	3977
2026-01-14 12:34:45.50	281.38	51.94	-46.6	-47.7	15.1	0.00e+00	0	27	0	2462056448	59	4057
2026-01-14 12:34:49.53	283.80	51.31	-46.1	-47.2	15.1	0.00e+00	0	27	0	2484076544	58	4075
2026-01-14 12:34:53.57	286.12	50.63	-46.3	-47.3	15.1	0.00e+00	0	28	0	2507145216	58	4140
2026-01-14 12:34:57.61	288.34	49.92	-45.9	-47.0	15.2	0.00e+00	0	27	0	2530213888	58	3984
2026-01-14 12:35:01.64	290.45	49.18	-45.9	-47.0	15.2	0.00e+00	0	27	0	2552233984	58	3981
2026-01-14 12:35:05.68	292.47	48.40	-46.1	-47.1	15.1	0.00e+00	0	28	0	2575302656	58	4023
2026-01-14 12:35:09.71	294.38	47.62	-46.0	-47.1	15.2	0.00e+00	0	28	0	2598371328	58	4017
2026-01-14 12:35:13.75	296.21	46.81	-46.0	-47.1	15.2	0.00e+00	0	27	0	2620391424	58	4024
2026-01-14 12:35:17.79	297.94	45.98	-46.2	-47.2	15.1	0.00e+00	0	28	0	2643460096	58	4083
2026-01-14 12:35:21.82	299.57	45.15	-45.9	-47.0	15.2	0.00e+00	0	28	0	2666528768	58	3963
2026-01-14 12:35:25.85	301.13	44.32	-45.6	-46.7	15.1	0.00e+00	0	28	0	2688548864	57	4060
2026-01-14 12:35:29.89	302.61	43.48	-46.0	-47.0	15.1	0.00e+00	0	28	0	2711617536	57	4228
2026-01-14 12:35:33.93	304.02	42.63	-45.9	-46.9	15.1	0.00e+00	0	28	0	2734686208	57	4192
2026-01-14 12:35:37.96	305.35	41.79	-45.6	-46.7	15.2	0.00e+00	0	28	0	2756706304	57	4059
2026-01-14 12:35:42.00	306.62	40.96	-45.5	-46.5	15.2	0.00e+00	0	27	0	2779774976	57	3989
2026-01-14 12:35:46.03	307.82	40.12	-45.7	-46.7	15.2	0.00e+00	0	27	0	2801795072	57	4092
2026-01-14 12:35:50.07	308.97	39.30	-45.4	-46.4	15.2	0.00e+00	0	28	0	2824863744	57	3934
2026-01-14 12:35:54.10	310.05	38.48	-45.2	-46.2	15.3	0.00e+00	0	27	0	2847932416	57	3862
2026-01-14 12:35:58.14	311.09	37.67	-45.5	-46.5	15.2	0.00e+00	0	28	0	2869952512	57	4002
2026-01-14 12:36:02.18	312.08	36.87	-45.5	-46.5	15.2	0.00e+00	0	27	0	2893021184	57	3982
2026-01-14 12:36:06.21	313.02	36.08	-45.2	-46.3	15.3	0.00e+00	0	27	0	2916089856	57	3881
2026-01-14 12:36:10.25	313.92	35.30	-45.1	-46.1	15.2	0.00e+00	0	27	0	2938109952	56	4026
2026-01-14 12:36:14.29	314.78	34.54	-45.2	-46.3	15.2	0.00e+00	0	28	0	2961178624	56	4103
2026-01-14 12:36:18.33	315.60	33.78	-45.4	-46.4	15.1	0.00e+00	0	28	0	2984247296	56	4170
2026-01-14 12:36:22.37	316.39	33.04	-45.3	-46.3	15.1	0.00e+00	0	27	0	3006267392	56	4126
2026-01-14 12:36:26.40	317.14	32.31	-45.5	-46.5	15.1	0.00e+00	0	27	0	3029336064	56	4240
2026-01-14 12:36:30.44	317.85	31.59	-45.6	-46.7	15.1	0.00e+00	0	27	0	3052404736	56	4315
2026-01-14 12:36:34.47	318.54	30.89	-45.7	-46.8	15.1	0.00e+00	0	28	0	3074424832	56	4352
2026-01-14 12:36:38.51	319.20	30.20	-45.8	-46.9	15.0	0.00e+00	0	27	0	3097493504	56	4395
2026-01-14 12:36:42.54	319.83	29.52	-45.7	-46.8	15.0	0.00e+00	0	28	0	3120562176	56	4356
2026-01-14 12:36:46.56	320.44	28.86	-45.6	-46.7	15.1	0.00e+00	0	28	0	3142582272	56	4306
2026-01-14 12:36:50.60	321.03	28.20	-45.6	-46.7	15.1	0.00e+00	0	27	0	3165650944	56	4296
2026-01-14 12:36:54.63	321.59	27.56	-45.4	-46.4	15.1	0.00e+00	0	27	0	3187671040	56	4191
2026-01-14 12:36:58.66	322.13	26.93	-45.5	-46.6	15.1	0.00e+00	0	28	0	3210739712	56	4248
2026-01-14 12:37:02.70	322.65	26.31	-45.6	-46.7	15.1	0.00e+00	0	27	0	3233808384	56	4294
2026-01-14 12:37:06.73	323.15	25.71	-45.7	-46.8	15.0	0.00e+00	0	28	0	3255828480	56	4368
2026-01-14 12:37:10.76	323.63	25.11	-45.6	-46.7	15.1	0.00e+00	0	28	0	3278897152	56	4293
2026-01-14 12:37:14.80	324.10	24.53	-45.7	-46.7	15.0	0.00e+00	0	27	0	3301965824	56	4333
2026-01-14 12:37:18.84	324.55	23.96	-46.1	-47.2	15.0	0.00e+00	0	28	0	3323985920	57	4293
2026-01-14 12:37:22.88	324.99	23.39	-46.3	-47.5	15.0	0.00e+00	0	28	0	3347054592	57	4446
2026-01-14 12:37:26.90	325.40	22.84	-46.4	-47.5	15.0	0.00e+00	0	27	0	3369074688	58	4227
2026-01-14 12:37:30.94	325.81	22.30	-46.3	-47.4	15.0	0.00e+00	0	28	0	3392143360	58	4192
2026-01-14 12:37:34.98	326.21	21.77	-46.3	-47.4	15.0	0.00e+00	0	27	0	3415212032	58	4172
2026-01-14 12:37:39.02	326.59	21.25	-46.5	-47.6	15.0	0.00e+00	0	28	0	3438280704	58	4287
2026-01-14 12:37:43.05	326.96	20.74	-46.6	-47.7	15.0	0.00e+00	0	27	0	3460300800	58	4327
2026-01-14 12:37:47.08	327.31	20.24	-46.7	-47.9	14.9	0.00e+00	0	28	0	3483369472	58	4406
2026-01-14 12:37:51.12	327.66	19.74	-46.8	-47.9	14.9	0.00e+00	0	28	0	3506438144	58	4403
2026-01-14 12:37:55.16	328.00	19.26	-46.9	-48.1	14.9	0.00e+00	0	28	0	3528458240	59	4257
2026-01-14 12:37:59.19	328.32	18.78	-47.2	-48.3	14.9	0.00e+00	0	27	0	3551526912	59	4382
2026-01-14 12:38:03.23	328.64	18.31	-47.3	-48.4	14.9	0.00e+00	0	28	0	3573547008	59	4431
2026-01-14 12:38:07.26	328.95	17.85	-47.3	-48.4	14.8	0.00e+00	0	28	0	3596615680	59	4432
2026-01-14 12:38:11.29	329.25	17.40	-47.3	-48.5	14.8	0.00e+00	0	28	0	3619684352	59	4445
2026-01-14 12:38:15.33	329.54	16.95	-47.3	-48.5	14.8	0.00e+00	0	28	0	3641704448	59	4473
2026-01-14 12:38:19.37	329.83	16.52	-47.2	-48.3	14.9	0.00e+00	0	28	0	3664773120	60	4120
2026-01-14 12:38:23.40	330.10	16.09	-47.4	-48.5	14.9	0.00e+00	0	28	0	3687841792	60	4242
2026-01-14 12:38:27.42	330.37	15.66	-47.8	-49.0	14.7	0.00e+00	0	28	0	3709861888	60	4464
2026-01-14 12:38:31.46	330.63	15.25	-47.9	-49.1	14.8	0.00e+00	0	28	0	3732930560	61	4289
2026-01-14 12:38:35.50	330.89	14.84	-48.2	-49.4	14.7	0.00e+00	0	27	0	3754950656	61	4431
2026-01-14 12:38:39.54	331.14	14.43	-48.0	-49.3	14.7	0.00e+00	0	28	0	3778019328	61	4362
2026-01-14 12:38:43.58	331.38	14.03	-48.2	-49.4	14.6	0.00e+00	0	28	0	3801088000	61	4427
2026-01-14 12:38:47.61	331.62	13.64	-48.2	-49.4	14.7	0.00e+00	0	28	0	3824156672	61	4432
2026-01-14 12:38:51.64	331.85	13.26	-48.1	-49.3	14.7	0.00e+00	0	27	0	3846176768	61	4372
2026-01-14 12:38:55.68	332.07	12.88	-48.2	-49.4	14.6	0.00e+00	0	28	0	3869245440	61	4417
2026-01-14 12:38:59.71	332.29	12.50	-48.2	-49.5	14.6	0.00e+00	0	28	0	3892314112	61	4462
2026-01-14 12:39:03.75	332.51	12.13	-48.1	-49.4	14.6	1.48e-05	0	28	0	3914334208	61	4405
2026-01-14 12:39:07.77	332.72	11.77	-48.4	-49.6	14.6	0.00e+00	0	28	0	3937402880	61	4521
2026-01-14 12:39:11.81	332.93	11.41	-48.3	-49.5	14.6	0.00e+00	0	28	0	3959422976	61	4461
2026-01-14 12:39:15.85	333.13	11.06	-48.4	-49.6	14.5	0.00e+00	0	28	0	3982491648	61	4529
2026-01-14 12:39:19.89	333.33	10.71	-48.4	-49.6	14.6	0.00e+00	0	28	0	4005560320	62	4278
2026-01-14 12:39:23.92	333.52	10.36	-48.5	-49.7	14.6	0.00e+00	0	28	0	4027580416	62	4335
2026-01-14 12:39:27.95	333.71	10.02	-48.5	-49.8	14.6	0.00e+00	0	28	0	4050649088	62	4360
2026-01-14 12:39:31.99	333.89	9.69	-48.7	-50.0	14.5	0.00e+00	0	28	0	4073717760	62	4487
2026-01-14 12:39:36.03	334.07	9.35	-48.8	-50.1	14.4	0.00e+00	0	27	0	4095737856	62	4528
2026-01-14 12:39:40.07	334.25	9.03	-48.8	-50.1	14.5	0.00e+00	0	28	0	4118806528	63	4284
2026-01-14 12:39:44.10	334.43	8.70	-49.1	-50.4	14.4	0.00e+00	0	28	0	4140826624	63	4402
2026-01-14 12:39:48.13	334.60	8.39	-49.2	-50.5	14.4	0.00e+00	0	28	0	4163895296	63	4460
2026-01-14 12:39:52.17	334.77	8.07	-49.2	-50.6	14.3	0.00e+00	0	27	0	4186963968	63	4502
2026-01-14 12:39:56.20	334.93	7.76	-49.3	-50.7	14.3	0.00e+00	0	28	0	4208984064	63	4574
2026-01-14 12:40:00.24	335.09	7.45	-49.5	-50.9	14.3	0.00e+00	0	28	0	4232052736	64	4406
2026-01-14 12:40:04.27	335.25	7.15	-49.6	-51.0	14.2	0.00e+00	0	28	0	4255121408	64	4450
2026-01-14 12:40:08.30	335.40	6.84	-49.5	-50.9	14.2	1.10e-06	0	28	0	4277141504	64	4441
2026-01-14 12:40:12.34	335.56	6.55	-49.6	-51.1	14.2	0.00e+00	0	28	0	4300210176	64	4510
2026-01-14 12:40:16.37	335.71	6.25	-49.7	-51.2	14.1	1.10e-06	0	28	0	4323278848	64	4556
2026-01-14 12:40:20.41	335.86	5.96	-49.8	-51.2	14.1	0.00e+00	0	27	0	4345298944	65	4336
2026-01-14 12:40:24.44	336.00	5.67	-50.1	-51.6	14.0	0.00e+00	0	28	0	4368367616	65	4524
2026-01-14 12:40:28.47	336.14	5.39	-49.8	-51.3	14.1	0.00e+00	0	28	0	4391436288	65	4351
2026-01-14 12:40:32.51	336.28	5.11	-49.7	-51.2	14.2	0.00e+00	0	27	0	4413456384	66	4073
2026-01-14 12:40:36.53	336.42	4.83	-59.4	-72.4	3.8	8.46e-01	0	28	104	4427087872	83	17542
2026-01-14 12:40:40.57	336.56	4.55	-60.2	-73.3	3.8	8.45e-01	0	28	104	4427087872	85	17363
2026-01-14 12:40:44.61	336.69	4.28	-60.5	-73.6	3.8	8.45e-01	0	28	104	4427087872	86	16986
2026-01-14 12:40:48.64	336.82	4.00	-60.7	-73.7	3.8	8.45e-01	0	28	104	4427087872	86	17252
2026-01-14 12:40:52.68	336.95	3.74	-60.7	-73.8	3.8	8.46e-01	0	28	104	4427087872	86	17371
2026-01-14 12:40:56.71	337.08	3.47	-60.7	-73.8	3.8	8.45e-01	0	28	104	4427087872	86	17480
2026-01-14 12:41:00.71	337.20	3.21	-60.6	-73.7	3.8	8.45e-01	0	28	104	4427087872	86	17200
2026-01-14 12:41:04.74	337.32	2.95	-60.6	-73.7	3.8	8.45e-01	0	28	104	4427087872	86	17143
2026-01-14 12:41:08.77	337.45	2.69	-60.6	-73.6	3.8	8.44e-01	0	28	104	4427087872	86	17071
2026-01-14 12:41:12.80	337.57	2.43	-60.5	-73.6	3.8	8.45e-01	0	28	104	4427087872	86	17045
2026-01-14 12:41:16.83	337.68	2.18	-60.5	-73.6	3.8	8.45e-01	0	28	104	4427087872	86	17023
2026-01-14 12:41:20.87	337.80	1.93	-60.5	-73.6	3.8	8.45e-01	0	28	104	4427087872	86	16936

#Closed at: 2026-01-14 12:41:22
#Recorded file [4427 MB]: D:/lorett/data/31004_260114_152701.dat