passes_logs/2026/01/14/R3.2S_Murmansk/R3.2S_Murmansk__20260114_234445_KANOPUS-V_5_rec.log

#Pass ID: 20260114_234445_KANOPUS-V 5
#Satellite: KANOPUS-V 5
#Configuration: KANOPUS-V_8320
#almurnet v.1.7.20251203
#Start time: 2026-01-14 23:44:47

#Version: 2.2.20231116
#Station: R3.2S_Murmansk
#Location: 33.079688 lon 68.888172 lat
#TLE: 1 43876U 18111A   26014.64517351  .00002226  00000+0  96418-4 0  9998
#TLE: 2 43876  97.3685 283.1659 0001742  85.8061 274.3376 15.23434183391418

#Time	Az	El	Level	Level2	SNR	BER	BlckErr	Temp	State	Recorded	gain1	gain2
2026-01-14 23:44:47.53	22.43	2.15	-59.3	-69.0	3.8	7.46e-01	0	26	0	0	82	11238
2026-01-14 23:44:50.54	22.25	2.36	-59.3	-69.0	3.8	7.47e-01	0	26	104	0	83	10647
2026-01-14 23:44:53.54	22.06	2.56	-59.3	-69.0	3.8	7.45e-01	0	26	104	0	83	10649
2026-01-14 23:44:56.56	21.87	2.76	-59.3	-69.0	3.8	7.46e-01	0	26	104	0	83	10643
2026-01-14 23:44:59.55	21.68	2.97	-59.3	-69.0	3.8	7.45e-01	0	26	104	0	83	10655
2026-01-14 23:45:02.52	21.49	3.17	-59.3	-69.1	3.8	7.48e-01	0	26	104	0	83	10696
2026-01-14 23:45:05.52	21.29	3.38	-59.3	-69.1	3.8	7.44e-01	0	27	104	0	83	10669
2026-01-14 23:45:08.52	21.08	3.59	-59.3	-69.1	3.8	7.47e-01	0	27	104	0	83	10669
2026-01-14 23:45:11.53	20.87	3.81	-59.3	-69.1	3.8	7.45e-01	0	27	104	0	83	10686
2026-01-14 23:45:14.52	20.66	4.02	-59.3	-69.0	3.8	7.46e-01	0	27	104	0	83	10641
2026-01-14 23:45:17.53	20.45	4.24	-59.3	-69.1	3.8	7.46e-01	0	27	104	0	83	10688
2026-01-14 23:45:20.53	20.23	4.45	-59.3	-69.1	3.8	7.45e-01	0	27	104	0	83	10656
2026-01-14 23:45:23.51	20.00	4.67	-59.3	-69.1	3.8	7.46e-01	0	27	104	0	83	10668
2026-01-14 23:45:26.51	19.77	4.90	-59.3	-69.1	3.8	7.46e-01	0	27	104	0	83	10659
2026-01-14 23:45:29.50	19.54	5.12	-59.4	-69.2	3.8	7.46e-01	0	27	104	0	83	10795
2026-01-14 23:45:32.48	19.30	5.35	-59.4	-69.2	3.8	7.47e-01	0	27	104	0	83	10841
2026-01-14 23:45:35.47	19.06	5.57	-59.5	-69.2	3.8	7.45e-01	0	27	104	0	83	10849
2026-01-14 23:45:38.46	18.81	5.81	-59.5	-69.2	3.8	7.46e-01	0	27	104	0	83	10897
2026-01-14 23:45:41.46	18.56	6.04	-59.5	-69.2	3.8	7.46e-01	0	27	104	0	83	10850
2026-01-14 23:45:44.46	18.30	6.28	-59.6	-69.3	3.8	7.47e-01	0	27	104	0	83	10969
2026-01-14 23:45:47.46	18.03	6.51	-59.6	-69.3	3.8	7.45e-01	0	27	104	0	83	10964
2026-01-14 23:45:50.46	17.76	6.76	-59.6	-69.4	3.8	7.47e-01	0	27	104	0	83	11049
2026-01-14 23:45:53.47	17.48	7.00	-59.6	-69.4	3.8	7.46e-01	0	27	104	0	83	11033
2026-01-14 23:45:56.46	17.20	7.25	-59.7	-69.4	3.8	7.45e-01	0	27	104	0	83	11151
2026-01-14 23:45:59.46	16.91	7.49	-59.7	-69.4	3.8	7.46e-01	0	27	104	0	83	11115
2026-01-14 23:46:02.46	16.61	7.75	-59.7	-69.5	3.8	7.46e-01	0	27	104	0	83	11208
2026-01-14 23:46:05.46	16.31	8.00	-59.7	-69.5	3.8	7.47e-01	0	28	104	0	83	11186
2026-01-14 23:46:08.45	16.00	8.26	-59.8	-69.6	3.8	7.46e-01	0	27	104	0	83	11308
2026-01-14 23:46:11.45	15.68	8.52	-59.8	-69.5	3.8	7.46e-01	0	28	104	0	83	11270
2026-01-14 23:46:14.45	15.36	8.78	-59.8	-69.6	3.8	7.47e-01	0	28	104	0	83	11333
2026-01-14 23:46:17.44	15.03	9.05	-59.8	-69.6	3.8	7.45e-01	0	28	104	0	83	11326
2026-01-14 23:46:20.44	14.69	9.31	-59.9	-69.6	3.8	7.46e-01	0	28	104	0	83	11390
2026-01-14 23:46:23.44	14.34	9.59	-59.9	-69.7	3.8	7.44e-01	0	28	104	0	83	11419
2026-01-14 23:46:26.43	13.98	9.86	-59.9	-69.6	3.8	7.47e-01	0	28	104	0	83	11415
2026-01-14 23:46:29.42	13.62	10.14	-59.9	-69.7	3.8	7.45e-01	0	28	104	0	83	11480
2026-01-14 23:46:32.42	13.24	10.42	-60.0	-69.7	3.8	7.45e-01	0	28	104	0	83	11522
2026-01-14 23:46:35.41	12.86	10.70	-59.9	-69.7	3.8	7.47e-01	0	28	104	0	83	11446
2026-01-14 23:46:38.40	12.47	10.99	-60.0	-69.7	3.8	7.45e-01	0	28	104	0	83	11520
2026-01-14 23:46:41.39	12.07	11.28	-60.0	-69.7	3.8	7.45e-01	0	28	104	0	83	11515
2026-01-14 23:46:44.41	11.65	11.58	-60.1	-69.8	3.8	7.44e-01	0	28	104	0	83	11669
2026-01-14 23:46:47.40	11.23	11.88	-60.1	-69.8	3.8	7.45e-01	0	28	104	0	83	11647
2026-01-14 23:46:50.39	10.79	12.18	-60.1	-69.8	3.8	7.46e-01	0	28	104	0	83	11652
2026-01-14 23:46:53.38	10.35	12.48	-60.1	-69.8	3.8	7.45e-01	0	28	104	0	83	11676
2026-01-14 23:46:56.38	9.89	12.79	-60.2	-69.9	3.8	7.46e-01	0	28	104	0	83	11727
2026-01-14 23:46:59.38	9.42	13.10	-60.1	-69.9	3.8	7.45e-01	0	28	104	0	83	11742
2026-01-14 23:47:02.36	8.94	13.42	-60.2	-69.9	3.8	7.44e-01	0	28	104	0	83	11782
2026-01-14 23:47:05.35	8.45	13.74	-60.2	-70.0	3.8	7.46e-01	0	28	104	0	83	11836
2026-01-14 23:47:08.34	7.94	14.06	-60.2	-70.0	3.8	7.47e-01	0	28	104	0	83	11843
2026-01-14 23:47:11.34	7.42	14.39	-60.2	-69.9	3.8	7.47e-01	0	28	104	0	83	11798
2026-01-14 23:47:14.34	6.88	14.72	-60.2	-70.0	3.8	7.47e-01	0	28	104	0	83	11869
2026-01-14 23:47:17.32	6.33	15.05	-60.2	-70.0	3.8	7.45e-01	0	28	104	0	83	11885
2026-01-14 23:47:20.30	5.77	15.39	-60.3	-70.0	3.8	7.44e-01	0	28	104	0	83	11920
2026-01-14 23:47:23.31	5.19	15.73	-60.3	-70.0	3.8	7.46e-01	0	28	104	0	83	11917
2026-01-14 23:47:26.30	4.59	16.07	-60.3	-70.1	3.8	7.45e-01	0	28	104	0	83	11988
2026-01-14 23:47:29.29	3.97	16.42	-60.3	-70.1	3.8	7.45e-01	0	28	104	0	83	12018
2026-01-14 23:47:32.27	3.35	16.77	-60.4	-70.1	3.8	7.46e-01	0	28	104	0	83	12066
2026-01-14 23:47:35.26	2.70	17.13	-60.3	-70.1	3.8	7.46e-01	0	28	104	0	83	12011
2026-01-14 23:47:38.24	2.03	17.49	-60.4	-70.1	3.8	7.46e-01	0	28	104	0	83	12085
2026-01-14 23:47:41.23	1.34	17.85	-60.4	-70.1	3.8	7.45e-01	0	28	104	0	83	12058
2026-01-14 23:47:44.23	0.64	18.21	-60.6	-70.3	3.8	7.45e-01	0	28	104	0	84	11643
2026-01-14 23:47:47.22	359.91	18.58	-60.6	-70.3	3.8	7.44e-01	0	28	104	0	84	11619
2026-01-14 23:47:50.22	359.16	18.95	-60.6	-70.4	3.8	7.45e-01	0	28	104	0	84	11686
2026-01-14 23:47:53.23	358.38	19.33	-60.6	-70.3	3.8	7.46e-01	0	28	104	0	84	11655
2026-01-14 23:47:56.22	357.59	19.70	-60.6	-70.4	3.8	7.47e-01	0	28	104	0	84	11744
2026-01-14 23:47:59.22	356.78	20.08	-60.6	-70.3	3.8	7.45e-01	0	28	104	0	84	11669
2026-01-14 23:48:02.22	355.93	20.46	-60.7	-70.4	3.8	7.45e-01	0	28	104	0	84	11734
2026-01-14 23:48:05.21	355.07	20.84	-60.7	-70.4	3.8	7.46e-01	0	28	104	0	84	11776
2026-01-14 23:48:08.20	354.18	21.22	-60.7	-70.5	3.8	7.46e-01	0	28	104	0	84	11829
2026-01-14 23:48:11.19	353.27	21.60	-60.7	-70.4	3.8	7.45e-01	0	28	104	0	84	11802
2026-01-14 23:48:14.19	352.33	21.98	-60.7	-70.5	3.8	7.45e-01	0	28	104	0	84	11863
2026-01-14 23:48:17.19	351.36	22.36	-60.7	-70.5	3.8	7.45e-01	0	28	104	0	84	11863
2026-01-14 23:48:20.18	350.36	22.74	-60.8	-70.5	3.8	7.46e-01	0	28	104	0	84	11912
2026-01-14 23:48:23.17	349.34	23.12	-60.7	-70.5	3.8	7.44e-01	0	28	104	0	84	11863
2026-01-14 23:48:26.17	348.29	23.50	-60.8	-70.5	3.8	7.45e-01	0	28	104	0	84	11907
2026-01-14 23:48:29.15	347.21	23.87	-60.8	-70.5	3.8	7.47e-01	0	28	104	0	84	11914
2026-01-14 23:48:32.14	346.11	24.24	-60.8	-70.6	3.8	7.45e-01	0	28	104	0	84	12000
2026-01-14 23:48:35.13	344.97	24.60	-60.8	-70.6	3.8	7.44e-01	0	28	104	0	84	11989
2026-01-14 23:48:38.12	343.80	24.96	-60.9	-70.6	3.8	7.46e-01	0	28	104	0	84	12055
2026-01-14 23:48:41.11	342.60	25.31	-60.9	-70.6	3.8	7.45e-01	0	28	104	0	84	12061
2026-01-14 23:48:44.10	341.38	25.66	-60.9	-70.7	3.8	7.46e-01	0	28	104	0	85	11453
2026-01-14 23:48:47.11	340.11	26.00	-60.9	-70.7	3.8	7.44e-01	0	28	104	0	85	11435
2026-01-14 23:48:50.10	338.82	26.33	-61.0	-70.7	3.8	7.45e-01	0	28	104	0	85	11467
2026-01-14 23:48:53.11	337.50	26.65	-60.9	-70.7	3.8	7.46e-01	0	28	104	0	85	11420
2026-01-14 23:48:56.11	336.15	26.96	-61.0	-70.7	3.8	7.44e-01	0	28	104	0	85	11533
2026-01-14 23:48:59.12	334.76	27.25	-61.0	-70.7	3.8	7.46e-01	0	28	104	0	85	11537
2026-01-14 23:49:02.11	333.36	27.53	-61.0	-70.8	3.8	7.46e-01	0	28	104	0	85	11567
2026-01-14 23:49:05.10	331.93	27.80	-61.0	-70.7	3.8	7.45e-01	0	28	104	0	85	11539
2026-01-14 23:49:08.10	330.47	28.05	-61.0	-70.8	3.8	7.46e-01	0	28	104	0	85	11559
2026-01-14 23:49:11.10	328.99	28.28	-61.0	-70.8	3.8	7.45e-01	0	28	104	0	85	11622
2026-01-14 23:49:14.12	327.47	28.50	-61.1	-70.8	3.8	7.46e-01	0	28	104	0	85	11589
2026-01-14 23:49:17.11	325.95	28.70	-61.1	-70.8	3.8	7.47e-01	0	28	104	0	85	11638
2026-01-14 23:49:20.12	324.39	28.88	-61.1	-70.8	3.8	7.45e-01	0	28	104	0	85	11657
2026-01-14 23:49:23.13	322.82	29.03	-61.1	-70.8	3.8	7.45e-01	0	28	104	0	85	11586
2026-01-14 23:49:26.11	321.24	29.17	-61.1	-70.8	3.8	7.46e-01	0	28	104	0	85	11674
2026-01-14 23:49:29.09	319.66	29.28	-61.1	-70.8	3.8	7.45e-01	0	28	104	0	85	11657
2026-01-14 23:49:32.11	318.04	29.37	-61.1	-70.9	3.8	7.46e-01	0	28	104	0	85	11684
2026-01-14 23:49:35.13	316.41	29.44	-61.1	-70.9	3.8	7.46e-01	0	28	104	0	85	11707
2026-01-14 23:49:38.12	314.79	29.49	-61.2	-70.9	3.8	7.44e-01	0	28	104	0	85	11722
2026-01-14 23:49:41.13	313.16	29.51	-61.1	-70.9	3.8	7.44e-01	0	28	104	0	85	11692
2026-01-14 23:49:44.13	311.53	29.50	-61.2	-70.9	3.8	7.46e-01	0	28	104	0	85	11742
2026-01-14 23:49:47.13	309.91	29.47	-61.1	-70.9	3.8	7.46e-01	0	28	104	0	85	11710
2026-01-14 23:49:50.13	308.29	29.42	-61.2	-70.9	3.8	7.46e-01	0	28	104	0	85	11732
2026-01-14 23:49:53.14	306.66	29.35	-61.2	-70.9	3.8	7.45e-01	0	28	104	0	85	11767
2026-01-14 23:49:56.14	305.06	29.25	-61.1	-70.9	3.8	7.44e-01	0	28	104	0	85	11724
2026-01-14 23:49:59.14	303.46	29.13	-61.1	-70.9	3.8	7.45e-01	0	28	104	0	85	11733
2026-01-14 23:50:02.14	301.89	28.98	-61.2	-70.9	3.8	7.44e-01	0	28	104	0	85	11801
2026-01-14 23:50:05.15	300.32	28.82	-61.2	-70.9	3.8	7.46e-01	0	28	104	0	85	11785
2026-01-14 23:50:08.16	298.77	28.63	-61.2	-70.9	3.8	7.47e-01	0	28	104	0	85	11792
2026-01-14 23:50:11.16	297.24	28.43	-61.2	-70.9	3.8	7.44e-01	0	28	104	0	85	11807
2026-01-14 23:50:14.15	295.74	28.20	-61.2	-70.9	3.8	7.47e-01	0	28	104	0	85	11787
2026-01-14 23:50:17.16	294.26	27.96	-61.2	-71.0	3.8	7.45e-01	0	28	104	0	85	11846
2026-01-14 23:50:20.17	292.80	27.70	-61.2	-70.9	3.8	7.46e-01	0	28	104	0	85	11756
2026-01-14 23:50:23.18	291.37	27.43	-61.1	-70.9	3.8	7.46e-01	0	28	104	0	85	11711
2026-01-14 23:50:26.17	289.97	27.14	-61.1	-70.9	3.8	7.47e-01	0	28	104	0	85	11741
2026-01-14 23:50:29.17	288.60	26.84	-61.1	-70.8	3.8	7.46e-01	0	28	104	0	85	11671
2026-01-14 23:50:32.17	287.26	26.53	-61.1	-70.8	3.8	7.47e-01	0	29	104	0	85	11670
2026-01-14 23:50:35.17	285.95	26.21	-61.1	-70.8	3.8	7.46e-01	0	28	104	0	85	11619
2026-01-14 23:50:38.16	284.67	25.87	-61.1	-70.8	3.8	7.44e-01	0	28	104	0	85	11600
2026-01-14 23:50:41.16	283.41	25.53	-61.0	-70.8	3.8	7.45e-01	0	28	104	0	85	11613
2026-01-14 23:50:44.16	282.19	25.18	-61.0	-70.8	3.8	7.46e-01	0	28	104	0	85	11561
2026-01-14 23:50:47.17	280.99	24.82	-61.0	-70.8	3.8	7.44e-01	0	28	104	0	85	11579
2026-01-14 23:50:50.17	279.83	24.46	-61.0	-70.7	3.8	7.44e-01	0	28	104	0	85	11527
2026-01-14 23:50:53.16	278.70	24.09	-61.0	-70.7	3.8	7.44e-01	0	29	104	0	85	11510
2026-01-14 23:50:56.16	277.59	23.72	-61.0	-70.7	3.8	7.44e-01	0	28	104	0	85	11536
2026-01-14 23:50:59.16	276.52	23.34	-61.0	-70.7	3.8	7.46e-01	0	29	104	0	85	11520
2026-01-14 23:51:02.18	275.46	22.96	-61.0	-70.7	3.8	7.46e-01	0	28	104	0	85	11472
2026-01-14 23:51:05.18	274.45	22.58	-61.0	-70.7	3.8	7.46e-01	0	29	104	0	85	11479
2026-01-14 23:51:08.19	273.45	22.20	-60.9	-70.6	3.8	7.46e-01	0	28	104	0	85	11409
2026-01-14 23:51:11.18	272.49	21.81	-60.9	-70.7	3.8	7.45e-01	0	28	104	0	85	11425
2026-01-14 23:51:14.18	271.56	21.43	-60.9	-70.6	3.8	7.45e-01	0	28	104	0	85	11413
2026-01-14 23:51:17.19	270.65	21.05	-60.9	-70.7	3.8	7.47e-01	0	29	104	0	85	11464
2026-01-14 23:51:20.19	269.76	20.66	-60.9	-70.6	3.8	7.46e-01	0	28	104	0	85	11377
2026-01-14 23:51:23.18	268.91	20.28	-60.9	-70.6	3.8	7.46e-01	0	28	104	0	85	11371
2026-01-14 23:51:26.18	268.07	19.90	-60.9	-70.6	3.8	7.47e-01	0	28	104	0	85	11382
2026-01-14 23:51:29.18	267.26	19.52	-60.9	-70.6	3.8	7.47e-01	0	28	104	0	85	11355
2026-01-14 23:51:32.17	266.48	19.15	-60.8	-70.6	3.8	7.46e-01	0	28	104	0	85	11307
2026-01-14 23:51:35.16	265.71	18.77	-60.8	-70.5	3.8	7.46e-01	0	28	104	0	85	11275
2026-01-14 23:51:38.16	264.97	18.40	-60.8	-70.5	3.8	7.46e-01	0	29	104	0	85	11254
2026-01-14 23:51:41.16	264.24	18.03	-60.8	-70.5	3.8	7.46e-01	0	28	104	0	85	11235
2026-01-14 23:51:44.17	263.54	17.67	-60.7	-70.5	3.8	7.47e-01	0	28	104	0	85	11189
2026-01-14 23:51:47.16	262.86	17.31	-60.8	-70.5	3.8	7.46e-01	0	28	104	0	85	11207
2026-01-14 23:51:50.16	262.19	16.95	-60.7	-70.4	3.8	7.46e-01	0	28	104	0	85	11128
2026-01-14 23:51:53.17	261.54	16.59	-60.7	-70.5	3.8	7.45e-01	0	28	104	0	85	11196
2026-01-14 23:51:56.19	260.91	16.23	-60.7	-70.4	3.8	7.46e-01	0	28	104	0	85	11134
2026-01-14 23:51:59.18	260.30	15.89	-60.7	-70.4	3.8	7.45e-01	0	28	104	0	85	11124
2026-01-14 23:52:02.17	259.71	15.54	-60.7	-70.4	3.8	7.45e-01	0	28	104	0	85	11110
2026-01-14 23:52:05.17	259.13	15.20	-60.6	-70.4	3.8	7.45e-01	0	28	104	0	85	11065
2026-01-14 23:52:08.17	258.57	14.86	-60.6	-70.4	3.8	7.47e-01	0	29	104	0	85	11062
2026-01-14 23:52:11.16	258.02	14.53	-60.6	-70.4	3.8	7.45e-01	0	28	104	0	85	11050
2026-01-14 23:52:14.15	257.49	14.20	-60.6	-70.3	3.8	7.46e-01	0	28	104	0	85	10983
2026-01-14 23:52:17.15	256.97	13.87	-60.6	-70.3	3.8	7.46e-01	0	28	104	0	85	11021
2026-01-14 23:52:20.16	256.47	13.55	-60.6	-70.3	3.8	7.44e-01	0	29	104	0	85	10975
2026-01-14 23:52:23.16	255.98	13.23	-60.6	-70.3	3.8	7.46e-01	0	28	104	0	85	10940
2026-01-14 23:52:26.15	255.50	12.91	-60.5	-70.2	3.8	7.46e-01	0	28	104	0	85	10896
2026-01-14 23:52:29.15	255.03	12.60	-60.5	-70.2	3.8	7.46e-01	0	28	104	0	85	10900
2026-01-14 23:52:32.15	254.58	12.29	-60.5	-70.3	3.8	7.45e-01	0	28	104	0	85	10908
2026-01-14 23:52:35.15	254.13	11.99	-60.5	-70.2	3.8	7.46e-01	0	28	104	0	85	10871
2026-01-14 23:52:38.13	253.70	11.69	-60.5	-70.2	3.8	7.45e-01	0	29	104	0	85	10862
2026-01-14 23:52:41.12	253.28	11.39	-60.5	-70.2	3.8	7.46e-01	0	28	104	0	85	10828
2026-01-14 23:52:44.12	252.87	11.09	-60.5	-70.2	3.8	7.46e-01	0	28	104	0	85	10864
2026-01-14 23:52:47.11	252.47	10.80	-60.4	-70.2	3.8	7.48e-01	0	28	104	0	85	10785
2026-01-14 23:52:50.11	252.08	10.52	-60.4	-70.1	3.8	7.46e-01	0	29	104	0	85	10757
2026-01-14 23:52:53.12	251.70	10.23	-60.4	-70.1	3.8	7.46e-01	0	28	104	0	85	10722
2026-01-14 23:52:56.12	251.33	9.95	-60.4	-70.1	3.8	7.47e-01	0	28	104	0	85	10774
2026-01-14 23:52:59.13	250.96	9.67	-60.4	-70.1	3.8	7.48e-01	0	29	104	0	85	10696
2026-01-14 23:53:02.13	250.61	9.40	-60.3	-70.0	3.8	7.47e-01	0	28	104	0	85	10642
2026-01-14 23:53:05.13	250.26	9.13	-60.3	-70.0	3.8	7.45e-01	0	28	104	0	85	10601
2026-01-14 23:53:08.13	249.92	8.86	-60.3	-70.1	3.8	7.46e-01	0	28	104	0	85	10688
2026-01-14 23:53:11.12	249.59	8.59	-60.3	-70.0	3.8	7.46e-01	0	28	104	0	85	10601
2026-01-14 23:53:14.12	249.27	8.33	-60.2	-69.9	3.8	7.47e-01	0	29	104	0	85	10531
2026-01-14 23:53:17.13	248.95	8.07	-60.2	-69.9	3.8	7.46e-01	0	28	104	0	85	10515
2026-01-14 23:53:20.13	248.64	7.81	-60.2	-69.9	3.8	7.46e-01	0	28	104	0	85	10500
2026-01-14 23:53:23.14	248.34	7.56	-60.2	-69.9	3.8	7.44e-01	0	28	104	0	84	11139
2026-01-14 23:53:26.13	248.04	7.31	-60.1	-69.8	3.8	7.48e-01	0	28	104	0	84	11005
2026-01-14 23:53:29.12	247.76	7.06	-60.0	-69.8	3.8	7.45e-01	0	28	104	0	84	10953
2026-01-14 23:53:32.11	247.48	6.82	-60.1	-69.9	3.8	7.46e-01	0	28	104	0	84	11076
2026-01-14 23:53:35.11	247.20	6.57	-60.1	-69.8	3.8	7.45e-01	0	28	104	0	84	10938
2026-01-14 23:53:38.12	246.93	6.33	-60.0	-69.7	3.8	7.44e-01	0	28	104	0	84	10792
2026-01-14 23:53:41.12	246.66	6.09	-59.9	-69.6	3.8	7.46e-01	0	28	104	0	84	10709
2026-01-14 23:53:44.09	246.41	5.86	-60.0	-69.7	3.8	7.45e-01	0	28	104	0	84	10840
2026-01-14 23:53:47.09	246.15	5.63	-59.9	-69.6	3.8	7.46e-01	0	28	104	0	84	10744
2026-01-14 23:53:50.07	245.91	5.40	-59.8	-69.5	3.8	7.45e-01	0	28	104	0	84	10630
2026-01-14 23:53:53.07	245.66	5.17	-59.7	-69.5	3.8	7.47e-01	0	28	104	0	84	10578
2026-01-14 23:53:56.07	245.42	4.94	-60.1	-69.8	3.8	7.45e-01	0	28	104	0	84	10999
2026-01-14 23:53:59.07	245.19	4.72	-60.9	-70.6	3.8	7.47e-01	0	28	104	0	84	12073
2026-01-14 23:54:02.08	244.96	4.50	-61.2	-70.9	3.8	7.45e-01	0	28	104	0	85	11810
2026-01-14 23:54:05.08	244.74	4.28	-61.4	-71.1	3.8	7.46e-01	0	28	104	0	85	12046
2026-01-14 23:54:08.08	244.52	4.06	-61.5	-71.3	3.8	7.46e-01	0	28	104	0	86	11567
2026-01-14 23:54:11.07	244.30	3.84	-61.6	-71.4	3.8	7.45e-01	0	29	104	0	86	11688
2026-01-14 23:54:14.08	244.09	3.63	-61.6	-71.3	3.8	7.45e-01	0	28	104	0	86	11672
2026-01-14 23:54:17.07	243.88	3.42	-61.6	-71.4	3.8	7.44e-01	0	28	104	0	86	11740
2026-01-14 23:54:20.06	243.68	3.21	-61.5	-71.3	3.8	7.45e-01	0	28	104	0	86	11602
2026-01-14 23:54:23.06	243.48	3.00	-61.5	-71.3	3.8	7.47e-01	0	28	104	0	86	11561
2026-01-14 23:54:26.06	243.28	2.79	-61.5	-71.2	3.8	7.46e-01	0	28	104	0	86	11549
2026-01-14 23:54:29.06	243.09	2.59	-61.5	-71.2	3.8	7.47e-01	0	28	104	0	86	11495
2026-01-14 23:54:32.06	242.90	2.38	-61.5	-71.2	3.8	7.46e-01	0	29	104	0	86	11478
2026-01-14 23:54:35.06	242.72	2.18	-61.4	-71.1	3.8	7.45e-01	0	28	104	0	86	11404
2026-01-14 23:54:38.07	242.54	1.98	-61.4	-71.1	3.8	7.46e-01	0	28	104	0	86	11370

#Closed at: 2026-01-14 23:54:40
#Recorded file [0 MB]: D:/lorett/data/31004_260115_024447.dat