passes_logs/2026/01/14/R3.2S_Murmansk/R3.2S_Murmansk__20260114_031937_AQUA_rec.log

#Pass ID: 20260114_031937_AQUA
#Satellite: AQUA
#Configuration: AQUA
#almurnet v.1.7.20251203
#Start time: 2026-01-14 03:19:38

#Version: 2.2.20231116
#Station: R3.2S_Murmansk
#Location: 33.079688 lon 68.888172 lat
#TLE: 1 27424U 02022A   26013.58555111  .00000773  00000+0  16469-3 0  9993
#TLE: 2 27424  98.4079 339.9892 0002045  80.0365 334.6894 14.61818766260681

#Time	Az	El	Level	Level2	SNR	BER	BlckErr	Temp	State	Recorded	gain1	gain2
2026-01-14 03:19:38.70	26.91	2.09	-54.1	-73.5	3.8	7.45e-01	0	25	0	0	75	36570
2026-01-14 03:19:41.72	26.83	2.28	-54.1	-73.5	3.8	7.46e-01	0	25	104	0	75	36628
2026-01-14 03:19:44.74	26.74	2.48	-54.1	-73.5	3.8	7.48e-01	0	25	104	0	75	36714
2026-01-14 03:19:47.76	26.66	2.69	-54.1	-73.5	3.8	7.44e-01	0	26	104	0	75	36769
2026-01-14 03:19:50.79	26.57	2.89	-54.1	-73.5	3.8	7.44e-01	0	26	104	0	75	36631
2026-01-14 03:19:53.82	26.48	3.09	-54.1	-73.5	3.8	7.47e-01	0	26	104	0	75	36757
2026-01-14 03:19:56.84	26.39	3.30	-54.3	-73.7	3.8	7.45e-01	0	26	104	0	76	35307
2026-01-14 03:19:59.87	26.30	3.51	-54.3	-73.6	3.8	7.46e-01	0	26	104	0	76	35141
2026-01-14 03:20:02.86	26.21	3.71	-54.3	-73.7	3.8	7.44e-01	0	26	104	0	76	35297
2026-01-14 03:20:05.88	26.11	3.92	-54.3	-73.7	3.8	7.46e-01	0	26	104	0	76	35327
2026-01-14 03:20:08.90	26.02	4.14	-54.3	-73.7	3.8	7.47e-01	0	26	104	0	76	35310
2026-01-14 03:20:11.94	25.92	4.35	-54.3	-73.7	3.8	7.47e-01	0	26	104	0	76	35391
2026-01-14 03:20:14.96	25.82	4.57	-54.3	-73.7	3.8	7.49e-01	0	26	104	0	76	35382
2026-01-14 03:20:17.99	25.72	4.79	-54.3	-73.7	3.8	7.47e-01	0	26	104	0	76	35418
2026-01-14 03:20:21.02	25.61	5.01	-54.3	-73.7	3.8	7.46e-01	0	26	104	0	76	35299
2026-01-14 03:20:24.05	25.51	5.23	-54.3	-73.7	3.8	7.46e-01	0	26	104	0	76	35449
2026-01-14 03:20:27.08	25.40	5.45	-54.3	-73.7	3.8	7.43e-01	0	26	104	0	76	35367
2026-01-14 03:20:30.11	25.29	5.68	-54.3	-73.7	3.8	7.46e-01	0	26	104	0	76	35413
2026-01-14 03:20:33.13	25.18	5.91	-54.3	-73.7	3.8	7.46e-01	0	26	104	0	76	35405
2026-01-14 03:20:36.16	25.06	6.14	-54.3	-73.7	3.8	7.48e-01	0	26	104	0	76	35493
2026-01-14 03:20:39.19	24.95	6.37	-54.3	-73.7	3.8	7.46e-01	0	27	104	0	76	35327
2026-01-14 03:20:42.22	24.83	6.61	-54.3	-73.7	3.8	7.47e-01	0	26	104	0	76	35531
2026-01-14 03:20:45.24	24.71	6.84	-54.3	-73.7	3.8	7.46e-01	0	26	104	0	76	35425
2026-01-14 03:20:48.27	24.58	7.08	-54.3	-73.7	3.8	7.46e-01	0	26	104	0	76	35521
2026-01-14 03:20:51.30	24.46	7.33	-54.3	-73.7	3.8	7.48e-01	0	27	104	0	76	35401
2026-01-14 03:20:54.32	24.33	7.57	-54.3	-73.7	3.8	7.46e-01	0	27	104	0	76	35558
2026-01-14 03:20:57.35	24.20	7.82	-54.3	-73.7	3.8	7.44e-01	0	27	104	0	76	35490
2026-01-14 03:21:00.38	24.06	8.07	-54.3	-73.7	3.8	7.49e-01	0	27	104	0	76	35434
2026-01-14 03:21:03.40	23.93	8.32	-54.4	-73.7	3.8	7.47e-01	0	27	104	0	76	35627
2026-01-14 03:21:06.43	23.79	8.57	-54.3	-73.7	3.8	7.44e-01	0	27	104	0	76	35592
2026-01-14 03:21:09.45	23.65	8.83	-54.3	-73.7	3.8	7.45e-01	0	27	104	0	76	35660
2026-01-14 03:21:12.48	23.50	9.09	-54.3	-73.7	3.8	7.49e-01	0	27	104	0	76	35600
2026-01-14 03:21:15.51	23.35	9.35	-54.3	-73.7	3.8	7.49e-01	0	27	104	0	76	35547
2026-01-14 03:21:18.53	23.20	9.62	-54.4	-73.7	3.8	7.49e-01	0	27	104	0	76	35644
2026-01-14 03:21:21.56	23.05	9.89	-54.3	-73.7	3.8	7.43e-01	0	27	104	0	76	35599
2026-01-14 03:21:24.59	22.89	10.16	-54.4	-73.8	3.8	7.45e-01	0	27	104	0	76	35698
2026-01-14 03:21:27.61	22.73	10.44	-54.4	-73.7	3.8	7.43e-01	0	27	104	0	76	35679
2026-01-14 03:21:30.64	22.56	10.71	-54.4	-73.8	3.8	7.44e-01	0	27	104	0	76	35700
2026-01-14 03:21:33.66	22.39	11.00	-54.4	-73.8	3.9	7.48e-01	0	27	104	0	76	35716
2026-01-14 03:21:36.68	22.22	11.28	-54.4	-73.8	3.8	7.47e-01	0	27	104	0	76	35727
2026-01-14 03:21:39.71	22.04	11.57	-54.4	-73.8	3.8	7.51e-01	0	27	104	0	76	35759
2026-01-14 03:21:42.74	21.86	11.86	-54.4	-73.7	3.8	7.44e-01	0	27	104	0	76	35642
2026-01-14 03:21:45.77	21.68	12.16	-54.4	-73.8	3.8	7.47e-01	0	27	104	0	76	35786
2026-01-14 03:21:48.78	21.49	12.46	-54.4	-73.8	3.8	7.45e-01	0	27	104	0	76	35783
2026-01-14 03:21:51.81	21.29	12.76	-54.4	-73.8	3.8	7.47e-01	0	27	104	0	76	35716
2026-01-14 03:21:54.84	21.10	13.07	-54.4	-73.8	3.8	7.44e-01	0	27	104	0	76	35709
2026-01-14 03:21:57.86	20.89	13.38	-54.4	-73.8	3.8	7.46e-01	0	27	104	0	76	35739
2026-01-14 03:22:00.89	20.69	13.69	-54.4	-73.8	3.8	7.50e-01	0	27	104	0	76	35699
2026-01-14 03:22:03.91	20.47	14.01	-54.4	-73.8	3.8	7.46e-01	0	27	104	0	76	35794
2026-01-14 03:22:06.94	20.25	14.34	-54.4	-73.8	3.8	7.44e-01	0	27	104	0	76	35759
2026-01-14 03:22:09.97	20.03	14.66	-54.4	-73.8	3.8	7.46e-01	0	27	104	0	76	35822
2026-01-14 03:22:13.00	19.80	15.00	-54.4	-73.8	3.8	7.47e-01	0	27	104	0	76	35783
2026-01-14 03:22:16.02	19.57	15.33	-54.4	-73.8	3.8	7.44e-01	0	27	104	0	76	35789
2026-01-14 03:22:19.05	19.32	15.68	-54.4	-73.8	3.8	7.44e-01	0	27	104	0	76	35830
2026-01-14 03:22:22.07	19.08	16.02	-54.4	-73.8	3.8	7.47e-01	0	27	104	0	76	35802
2026-01-14 03:22:25.11	18.82	16.38	-54.4	-73.8	3.8	7.46e-01	0	27	104	0	76	35756
2026-01-14 03:22:28.14	18.56	16.73	-54.4	-73.8	3.8	7.46e-01	0	27	104	0	76	35721
2026-01-14 03:22:31.17	18.29	17.10	-54.4	-73.8	3.8	7.48e-01	0	27	104	0	76	35872
2026-01-14 03:22:34.19	18.02	17.46	-54.4	-73.8	3.8	7.45e-01	0	27	104	0	76	35860
2026-01-14 03:22:37.22	17.74	17.84	-54.4	-73.8	3.8	7.49e-01	0	27	104	0	76	35848
2026-01-14 03:22:40.25	17.44	18.22	-54.4	-73.8	3.8	7.44e-01	0	27	104	0	76	35771
2026-01-14 03:22:43.27	17.15	18.60	-54.4	-73.8	3.8	7.47e-01	0	27	104	0	76	35836
2026-01-14 03:22:46.30	16.84	18.99	-54.4	-73.8	3.8	7.48e-01	0	27	104	0	76	35879
2026-01-14 03:22:49.32	16.52	19.39	-54.4	-73.8	3.8	7.46e-01	0	27	104	0	76	35743
2026-01-14 03:22:52.35	16.20	19.79	-54.4	-73.8	3.8	7.44e-01	0	27	104	0	76	35910
2026-01-14 03:22:55.38	15.86	20.20	-54.4	-73.8	3.8	7.51e-01	0	27	104	0	76	35848
2026-01-14 03:22:58.41	15.52	20.61	-54.4	-73.8	3.8	7.47e-01	0	27	104	0	76	35790
2026-01-14 03:23:01.44	15.16	21.04	-54.4	-73.8	3.8	7.45e-01	0	27	104	0	76	35856
2026-01-14 03:23:04.46	14.80	21.46	-54.4	-73.8	3.8	7.45e-01	0	27	104	0	76	35959
2026-01-14 03:23:07.49	14.42	21.90	-54.4	-73.8	3.8	7.47e-01	0	27	104	0	76	35907
2026-01-14 03:23:10.51	14.03	22.34	-54.4	-73.8	3.8	7.48e-01	0	27	104	0	76	35962
2026-01-14 03:23:13.54	13.63	22.79	-54.4	-73.8	3.8	7.48e-01	0	27	104	0	76	35899
2026-01-14 03:23:16.57	13.22	23.24	-54.4	-73.8	3.8	7.45e-01	0	27	104	0	76	35853
2026-01-14 03:23:19.59	12.79	23.71	-54.4	-73.8	3.8	7.46e-01	0	27	104	0	76	35853
2026-01-14 03:23:22.62	12.35	24.18	-54.4	-73.8	3.9	7.44e-01	0	27	104	0	76	35844
2026-01-14 03:23:25.65	11.90	24.66	-54.4	-73.8	3.8	7.45e-01	0	27	104	0	76	35824
2026-01-14 03:23:28.68	11.43	25.14	-54.4	-73.8	3.8	7.44e-01	0	27	104	0	76	35878
2026-01-14 03:23:31.71	10.94	25.64	-54.4	-73.8	3.8	7.47e-01	0	27	104	0	76	35774
2026-01-14 03:23:34.73	10.44	26.14	-54.4	-73.8	3.8	7.48e-01	0	27	104	0	76	35942
2026-01-14 03:23:37.76	9.92	26.65	-54.4	-73.8	3.8	7.46e-01	0	27	104	0	76	35847
2026-01-14 03:23:40.79	9.38	27.16	-54.4	-73.8	3.8	7.48e-01	0	27	104	0	76	35815
2026-01-14 03:23:43.82	8.82	27.69	-54.4	-73.8	3.8	7.49e-01	0	27	104	0	76	35801
2026-01-14 03:23:46.84	8.25	28.22	-54.4	-73.8	3.8	7.47e-01	0	27	104	0	76	35872
2026-01-14 03:23:49.87	7.65	28.76	-54.4	-73.8	3.8	7.48e-01	0	27	104	0	76	35861
2026-01-14 03:23:52.90	7.03	29.31	-54.4	-73.8	3.8	7.46e-01	0	27	104	0	76	35824
2026-01-14 03:23:55.93	6.39	29.87	-54.4	-73.8	3.8	7.46e-01	0	27	104	0	76	35797
2026-01-14 03:23:58.95	5.73	30.43	-54.4	-73.8	3.8	7.45e-01	0	27	104	0	76	35907
2026-01-14 03:24:01.98	5.04	31.00	-54.4	-73.8	3.8	7.48e-01	0	27	104	0	76	35882
2026-01-14 03:24:05.00	4.32	31.58	-54.4	-73.8	3.8	7.48e-01	0	27	104	0	76	35898
2026-01-14 03:24:08.04	3.57	32.17	-54.4	-73.8	3.8	7.46e-01	0	27	104	0	76	35848
2026-01-14 03:24:11.06	2.80	32.76	-54.4	-73.8	3.8	7.45e-01	0	27	104	0	76	35818
2026-01-14 03:24:14.08	2.00	33.36	-54.4	-73.8	3.8	7.45e-01	0	27	104	0	76	35822
2026-01-14 03:24:17.11	1.17	33.96	-54.4	-73.8	3.8	7.48e-01	0	27	104	0	76	35858
2026-01-14 03:24:20.13	0.30	34.57	-54.4	-73.8	3.8	7.48e-01	0	27	104	0	76	35857
2026-01-14 03:24:23.16	359.40	35.19	-54.4	-73.8	3.8	7.44e-01	0	27	104	0	76	35887
2026-01-14 03:24:26.19	358.46	35.81	-54.4	-73.8	3.8	7.44e-01	0	27	104	0	76	35898
2026-01-14 03:24:29.21	357.49	36.43	-54.4	-73.8	3.8	7.46e-01	0	27	104	0	76	35894
2026-01-14 03:24:32.24	356.48	37.06	-54.4	-73.8	3.8	7.47e-01	0	27	104	0	76	35942
2026-01-14 03:24:35.27	355.42	37.69	-54.4	-73.8	3.8	7.46e-01	0	27	104	0	76	36021
2026-01-14 03:24:38.29	354.32	38.32	-54.4	-73.8	3.8	7.48e-01	0	27	104	0	76	35896
2026-01-14 03:24:41.32	353.18	38.95	-54.4	-73.8	3.8	7.48e-01	0	27	104	0	76	35881
2026-01-14 03:24:44.34	351.99	39.58	-54.4	-73.8	3.8	7.47e-01	0	27	104	0	76	35968
2026-01-14 03:24:47.37	350.75	40.21	-54.4	-73.8	3.8	7.47e-01	0	27	104	0	76	35923
2026-01-14 03:24:50.39	349.46	40.83	-54.4	-73.8	3.8	7.43e-01	0	27	104	0	76	35985
2026-01-14 03:24:53.42	348.12	41.45	-54.4	-73.8	3.8	7.44e-01	0	27	104	0	76	35978
2026-01-14 03:24:56.44	346.73	42.06	-54.4	-73.8	3.8	7.48e-01	0	28	104	0	76	35873
2026-01-14 03:24:59.47	345.28	42.66	-54.4	-73.8	3.8	7.48e-01	0	27	104	0	76	35977
2026-01-14 03:25:02.49	343.78	43.25	-54.4	-73.8	3.8	7.47e-01	0	27	104	0	76	36002
2026-01-14 03:25:05.52	342.22	43.83	-54.4	-73.8	3.8	7.45e-01	0	27	104	0	76	35870
2026-01-14 03:25:08.54	340.60	44.39	-54.4	-73.8	3.8	7.46e-01	0	27	104	0	76	35857
2026-01-14 03:25:11.57	338.92	44.93	-54.4	-73.8	3.8	7.49e-01	0	27	104	0	76	35916
2026-01-14 03:25:14.59	337.19	45.46	-54.4	-73.8	3.8	7.46e-01	0	27	104	0	76	35963
2026-01-14 03:25:17.62	335.39	45.96	-54.4	-73.8	3.8	7.45e-01	0	27	104	0	76	35989
2026-01-14 03:25:20.65	333.54	46.43	-54.4	-73.8	3.8	7.45e-01	0	27	104	0	76	35930
2026-01-14 03:25:23.67	331.64	46.88	-54.4	-73.8	3.8	7.44e-01	0	27	104	0	76	35955
2026-01-14 03:25:26.70	329.67	47.29	-54.4	-73.8	3.8	7.46e-01	0	27	104	0	76	35989
2026-01-14 03:25:29.73	327.66	47.68	-54.4	-73.8	3.8	7.42e-01	0	27	104	0	76	35945
2026-01-14 03:25:32.75	325.60	48.02	-54.4	-73.8	3.8	7.45e-01	0	27	104	0	76	35941
2026-01-14 03:25:35.78	323.49	48.33	-54.4	-73.8	3.8	7.45e-01	0	27	104	0	76	35914
2026-01-14 03:25:38.80	321.34	48.60	-54.4	-73.8	3.8	7.49e-01	0	27	104	0	76	35839
2026-01-14 03:25:41.83	319.16	48.83	-54.4	-73.8	3.8	7.44e-01	0	27	104	0	76	35987
2026-01-14 03:25:44.86	316.94	49.01	-54.4	-73.8	3.8	7.45e-01	0	27	104	0	76	35974
2026-01-14 03:25:47.89	314.70	49.14	-54.4	-73.8	3.8	7.45e-01	0	27	104	0	76	35881
2026-01-14 03:25:50.91	312.45	49.23	-54.4	-73.8	3.8	7.47e-01	0	27	104	0	76	35830
2026-01-14 03:25:53.95	310.18	49.27	-54.4	-73.8	3.8	7.46e-01	0	27	104	0	76	35941
2026-01-14 03:25:56.98	307.91	49.27	-54.4	-73.8	3.8	7.45e-01	0	27	104	0	76	35861
2026-01-14 03:26:00.00	305.65	49.22	-54.4	-73.8	3.8	7.48e-01	0	27	104	0	76	35736
2026-01-14 03:26:03.02	303.41	49.12	-54.4	-73.8	3.8	7.47e-01	0	27	104	0	76	35998
2026-01-14 03:26:06.05	301.17	48.97	-54.4	-73.8	3.8	7.45e-01	0	27	104	0	76	35811
2026-01-14 03:26:09.08	298.96	48.78	-54.4	-73.8	3.8	7.45e-01	0	27	104	0	76	35861
2026-01-14 03:26:12.10	296.79	48.54	-54.4	-73.8	3.8	7.46e-01	0	27	104	0	76	35904
2026-01-14 03:26:15.13	294.64	48.26	-54.4	-73.8	3.8	7.49e-01	0	27	104	0	76	35949
2026-01-14 03:26:18.16	292.54	47.95	-54.4	-73.8	3.8	7.46e-01	0	27	104	0	76	35895
2026-01-14 03:26:21.18	290.49	47.59	-54.4	-73.8	3.8	7.44e-01	0	27	104	0	76	35928
2026-01-14 03:26:24.22	288.48	47.20	-54.4	-73.8	3.8	7.48e-01	0	27	104	0	76	35971
2026-01-14 03:26:27.24	286.53	46.78	-54.4	-73.8	3.8	7.47e-01	0	27	104	0	76	35834
2026-01-14 03:26:30.27	284.63	46.32	-54.4	-73.8	3.8	7.48e-01	0	27	104	0	76	35730
2026-01-14 03:26:33.29	282.79	45.84	-54.4	-73.8	3.8	7.45e-01	0	27	104	0	76	35732
2026-01-14 03:26:36.32	281.01	45.33	-54.4	-73.8	3.8	7.44e-01	0	27	104	0	76	35955
2026-01-14 03:26:39.35	279.28	44.80	-54.4	-73.8	3.8	7.47e-01	0	27	104	0	76	36045
2026-01-14 03:26:42.38	277.61	44.25	-54.4	-73.8	3.8	7.45e-01	0	27	104	0	76	35973
2026-01-14 03:26:45.40	276.01	43.69	-54.4	-73.8	3.8	7.45e-01	0	27	104	0	76	35696
2026-01-14 03:26:48.42	274.46	43.11	-54.4	-73.8	3.8	7.44e-01	0	27	104	0	76	35911
2026-01-14 03:26:51.44	272.97	42.51	-54.4	-73.7	3.8	7.45e-01	0	27	104	0	76	35473
2026-01-14 03:26:54.47	271.53	41.91	-54.4	-73.7	3.8	7.49e-01	0	27	104	0	76	35658
2026-01-14 03:26:57.49	270.15	41.29	-54.4	-73.8	3.8	7.46e-01	0	27	104	0	76	35884
2026-01-14 03:27:00.52	268.82	40.67	-54.4	-73.7	3.9	7.48e-01	0	27	104	0	76	35631
2026-01-14 03:27:03.55	267.54	40.04	-54.4	-73.8	3.8	7.47e-01	0	27	104	0	76	36025
2026-01-14 03:27:06.58	266.31	39.41	-54.4	-73.8	3.8	7.45e-01	0	27	104	0	76	35958
2026-01-14 03:27:09.60	265.13	38.78	-54.3	-73.5	3.9	7.45e-01	0	27	104	0	76	34585
2026-01-14 03:27:12.63	264.00	38.15	-54.3	-73.6	3.9	7.47e-01	0	27	104	0	76	34906
2026-01-14 03:27:15.65	262.91	37.52	-54.2	-73.3	3.8	7.48e-01	0	27	104	0	76	34058
2026-01-14 03:27:18.68	261.86	36.89	-53.9	-73.0	3.8	7.47e-01	0	27	104	0	76	32627
2026-01-14 03:27:21.71	260.85	36.26	-54.4	-73.6	3.8	7.50e-01	0	28	104	0	76	35150
2026-01-14 03:27:24.74	259.88	35.63	-54.4	-73.7	3.8	7.48e-01	0	28	104	0	76	35525
2026-01-14 03:27:27.77	258.95	35.01	-54.4	-73.8	3.8	7.49e-01	0	28	104	0	76	35821
2026-01-14 03:27:30.79	258.06	34.39	-54.5	-73.8	3.8	7.45e-01	0	27	104	0	76	35984
2026-01-14 03:27:33.82	257.19	33.78	-54.4	-73.8	3.8	7.46e-01	0	28	104	0	76	36038
2026-01-14 03:27:36.84	256.37	33.18	-54.4	-73.8	3.8	7.46e-01	0	27	104	0	76	35922
2026-01-14 03:27:39.87	255.57	32.58	-54.4	-73.8	3.8	7.49e-01	0	27	104	0	76	35798
2026-01-14 03:27:42.89	254.81	31.99	-54.4	-73.8	3.8	7.46e-01	0	28	104	0	76	35962
2026-01-14 03:27:45.92	254.07	31.40	-54.4	-73.8	3.8	7.47e-01	0	27	104	0	76	35986
2026-01-14 03:27:48.95	253.35	30.82	-54.4	-73.8	3.8	7.48e-01	0	28	104	0	76	35935
2026-01-14 03:27:51.97	252.67	30.25	-54.4	-73.8	3.8	7.48e-01	0	27	104	0	76	35922
2026-01-14 03:27:54.99	252.01	29.69	-54.4	-73.8	3.8	7.45e-01	0	27	104	0	76	35957
2026-01-14 03:27:58.01	251.37	29.13	-54.4	-73.8	3.8	7.49e-01	0	27	104	0	76	35866
2026-01-14 03:28:01.04	250.76	28.59	-54.4	-73.8	3.8	7.45e-01	0	27	104	0	76	35906
2026-01-14 03:28:04.07	250.17	28.05	-54.4	-73.8	3.8	7.46e-01	0	27	104	0	76	35944
2026-01-14 03:28:07.09	249.59	27.51	-54.4	-73.8	3.8	7.48e-01	0	27	104	0	76	35876
2026-01-14 03:28:10.12	249.04	26.99	-54.5	-73.8	3.8	7.47e-01	0	27	104	0	76	35967
2026-01-14 03:28:13.14	248.51	26.47	-54.4	-73.8	3.8	7.44e-01	0	27	104	0	76	35929
2026-01-14 03:28:16.17	247.99	25.97	-54.4	-73.8	3.8	7.46e-01	0	28	104	0	76	35990
2026-01-14 03:28:19.19	247.49	25.47	-54.4	-73.8	3.8	7.44e-01	0	27	104	0	76	35951
2026-01-14 03:28:22.21	247.01	24.97	-54.4	-73.8	3.8	7.44e-01	0	27	104	0	76	36007
2026-01-14 03:28:25.24	246.54	24.49	-54.4	-73.8	3.8	7.48e-01	0	28	104	0	76	35923
2026-01-14 03:28:28.27	246.09	24.01	-54.5	-73.8	3.8	7.46e-01	0	27	104	0	76	36075
2026-01-14 03:28:31.30	245.65	23.54	-54.4	-73.8	3.8	7.49e-01	0	28	104	0	76	35905
2026-01-14 03:28:34.32	245.22	23.08	-54.4	-73.8	3.8	7.45e-01	0	27	104	0	76	35908
2026-01-14 03:28:37.35	244.81	22.62	-54.4	-73.8	3.8	7.48e-01	0	27	104	0	76	35847
2026-01-14 03:28:40.38	244.41	22.17	-54.4	-73.8	3.8	7.50e-01	0	27	104	0	76	35879
2026-01-14 03:28:43.41	244.02	21.73	-54.4	-73.8	3.8	7.42e-01	0	27	104	0	76	35960
2026-01-14 03:28:46.42	243.65	21.30	-54.4	-73.8	3.8	7.47e-01	0	27	104	0	76	36018
2026-01-14 03:28:49.45	243.29	20.87	-54.4	-73.8	3.8	7.50e-01	0	27	104	0	76	35962
2026-01-14 03:28:52.47	242.93	20.45	-54.4	-73.8	3.8	7.49e-01	0	28	104	0	76	35867
2026-01-14 03:28:55.50	242.59	20.04	-54.4	-73.8	3.8	7.45e-01	0	27	104	0	76	35934
2026-01-14 03:28:58.53	242.26	19.63	-54.4	-73.8	3.8	7.45e-01	0	27	104	0	76	35913
2026-01-14 03:29:01.55	241.93	19.23	-54.4	-73.8	3.8	7.48e-01	0	27	104	0	76	35933
2026-01-14 03:29:04.58	241.62	18.83	-54.4	-73.8	3.8	7.45e-01	0	27	104	0	76	35905
2026-01-14 03:29:07.60	241.31	18.44	-54.4	-73.8	3.8	7.45e-01	0	28	104	0	76	35950
2026-01-14 03:29:10.63	241.01	18.06	-54.4	-73.8	3.8	7.46e-01	0	27	104	0	76	35986
2026-01-14 03:29:13.65	240.72	17.68	-54.4	-73.8	3.8	7.43e-01	0	28	104	0	76	36025
2026-01-14 03:29:16.68	240.44	17.31	-54.4	-73.8	3.8	7.47e-01	0	27	104	0	76	35911
2026-01-14 03:29:19.70	240.17	16.94	-54.4	-73.8	3.8	7.47e-01	0	28	104	0	76	35931
2026-01-14 03:29:22.73	239.90	16.58	-54.4	-73.8	3.8	7.46e-01	0	27	104	0	76	35943
2026-01-14 03:29:25.76	239.64	16.22	-54.4	-73.8	3.8	7.45e-01	0	28	104	0	76	35824
2026-01-14 03:29:28.79	239.38	15.87	-54.4	-73.8	3.8	7.44e-01	0	28	104	0	76	35932
2026-01-14 03:29:31.82	239.13	15.52	-54.4	-73.8	3.8	7.43e-01	0	27	104	0	76	35882
2026-01-14 03:29:34.84	238.89	15.18	-54.4	-73.8	3.8	7.47e-01	0	28	104	0	76	35990
2026-01-14 03:29:37.86	238.66	14.84	-54.4	-73.8	3.8	7.48e-01	0	27	104	0	76	35905
2026-01-14 03:29:40.89	238.43	14.51	-54.4	-73.8	3.8	7.46e-01	0	27	104	0	76	35861
2026-01-14 03:29:43.93	238.20	14.18	-54.4	-73.8	3.8	7.45e-01	0	27	104	0	76	35780
2026-01-14 03:29:46.95	237.99	13.86	-54.4	-73.8	3.8	7.46e-01	0	28	104	0	76	35766
2026-01-14 03:29:49.98	237.77	13.54	-54.4	-73.8	3.8	7.44e-01	0	28	104	0	76	35902
2026-01-14 03:29:53.01	237.56	13.22	-54.4	-73.8	3.8	7.50e-01	0	28	104	0	76	35907
2026-01-14 03:29:56.04	237.36	12.91	-54.4	-73.8	3.8	7.48e-01	0	28	104	0	76	35875
2026-01-14 03:29:59.07	237.16	12.60	-54.4	-73.8	3.8	7.46e-01	0	28	104	0	76	35953
2026-01-14 03:30:02.10	236.97	12.30	-54.4	-73.8	3.8	7.48e-01	0	28	104	0	76	35940
2026-01-14 03:30:05.13	236.78	12.00	-54.4	-73.8	3.8	7.48e-01	0	28	104	0	76	35935
2026-01-14 03:30:08.15	236.59	11.71	-54.4	-73.8	3.8	7.47e-01	0	28	104	0	76	35948
2026-01-14 03:30:11.17	236.41	11.42	-54.4	-73.8	3.8	7.47e-01	0	28	104	0	76	36071
2026-01-14 03:30:14.20	236.23	11.13	-54.4	-73.8	3.8	7.47e-01	0	27	104	0	76	35871
2026-01-14 03:30:17.22	236.06	10.84	-54.4	-73.8	3.8	7.46e-01	0	27	104	0	76	35919
2026-01-14 03:30:20.25	235.89	10.56	-54.4	-73.8	3.8	7.45e-01	0	28	104	0	76	35851
2026-01-14 03:30:23.27	235.73	10.28	-54.4	-73.8	3.8	7.47e-01	0	27	104	0	76	35752
2026-01-14 03:30:26.30	235.56	10.01	-54.4	-73.8	3.8	7.45e-01	0	27	104	0	76	35828
2026-01-14 03:30:29.33	235.40	9.74	-54.4	-73.8	3.8	7.47e-01	0	27	104	0	76	35865
2026-01-14 03:30:32.35	235.25	9.47	-54.4	-73.8	3.8	7.47e-01	0	27	104	0	76	35787
2026-01-14 03:30:35.38	235.10	9.20	-54.4	-73.8	3.8	7.51e-01	0	28	104	0	76	35913
2026-01-14 03:30:38.41	234.95	8.94	-54.4	-73.8	3.8	7.47e-01	0	27	104	0	76	35841
2026-01-14 03:30:41.44	234.80	8.68	-54.4	-73.8	3.8	7.46e-01	0	27	104	0	76	35942
2026-01-14 03:30:44.47	234.66	8.42	-54.4	-73.8	3.8	7.42e-01	0	27	104	0	76	35946
2026-01-14 03:30:47.49	234.52	8.17	-54.4	-73.8	3.8	7.48e-01	0	28	104	0	76	35882
2026-01-14 03:30:50.52	234.38	7.92	-54.4	-73.8	3.8	7.47e-01	0	28	104	0	76	35999
2026-01-14 03:30:53.55	234.25	7.67	-54.4	-73.8	3.8	7.46e-01	0	28	104	0	76	35886
2026-01-14 03:30:56.57	234.11	7.42	-54.4	-73.8	3.8	7.47e-01	0	28	104	0	76	35934
2026-01-14 03:30:59.59	233.98	7.18	-54.4	-73.8	3.8	7.47e-01	0	28	104	0	76	35946
2026-01-14 03:31:02.61	233.86	6.93	-54.4	-73.8	3.8	7.45e-01	0	28	104	0	76	35896
2026-01-14 03:31:05.64	233.73	6.70	-54.4	-73.8	3.8	7.48e-01	0	28	104	0	76	35835
2026-01-14 03:31:08.67	233.61	6.46	-54.4	-73.8	3.8	7.44e-01	0	28	104	0	76	35814
2026-01-14 03:31:11.70	233.49	6.22	-54.4	-73.8	3.8	7.45e-01	0	27	104	0	76	35775
2026-01-14 03:31:14.72	233.37	5.99	-54.4	-73.8	3.8	7.46e-01	0	28	104	0	76	35804
2026-01-14 03:31:17.75	233.26	5.76	-54.4	-73.8	3.8	7.45e-01	0	27	104	0	76	35753
2026-01-14 03:31:20.77	233.14	5.53	-54.4	-73.8	3.8	7.50e-01	0	28	104	0	76	35830
2026-01-14 03:31:23.80	233.03	5.31	-54.4	-73.8	3.8	7.47e-01	0	27	104	0	76	35754
2026-01-14 03:31:26.82	232.92	5.08	-54.4	-73.8	3.8	7.47e-01	0	27	104	0	76	35771
2026-01-14 03:31:29.85	232.82	4.86	-54.4	-73.8	3.8	7.46e-01	0	27	104	0	76	35939
2026-01-14 03:31:32.88	232.71	4.64	-54.4	-73.8	3.8	7.46e-01	0	28	104	0	76	35923
2026-01-14 03:31:35.91	232.61	4.42	-54.4	-73.8	3.8	7.45e-01	0	27	104	0	76	35852
2026-01-14 03:31:38.93	232.51	4.21	-54.4	-73.8	3.9	7.51e-01	0	28	104	0	76	35824
2026-01-14 03:31:41.97	232.41	3.99	-54.4	-73.8	3.8	7.50e-01	0	27	104	0	76	35778
2026-01-14 03:31:45.00	232.31	3.78	-54.4	-73.8	3.8	7.44e-01	0	28	104	0	76	35874
2026-01-14 03:31:48.03	232.21	3.57	-54.4	-73.8	3.8	7.42e-01	0	28	104	0	76	35794
2026-01-14 03:31:51.05	232.12	3.36	-54.4	-73.8	3.8	7.48e-01	0	28	104	0	76	35932
2026-01-14 03:31:54.07	232.02	3.15	-54.4	-73.8	3.8	7.47e-01	0	28	104	0	76	35781
2026-01-14 03:31:57.09	231.93	2.94	-54.4	-73.8	3.8	7.43e-01	0	27	104	0	76	35942
2026-01-14 03:32:00.12	231.84	2.74	-54.4	-73.8	3.8	7.45e-01	0	28	104	0	76	35946
2026-01-14 03:32:03.15	231.75	2.54	-54.4	-73.8	3.8	7.42e-01	0	27	104	0	76	35835
2026-01-14 03:32:06.17	231.67	2.34	-54.4	-73.8	3.8	7.46e-01	0	28	104	0	76	35856
2026-01-14 03:32:09.19	231.58	2.14	-54.4	-73.8	3.8	7.43e-01	0	27	104	0	76	35800

#Closed at: 2026-01-14 03:32:11
#Recorded file [0 MB]: D:/lorett/data/31004_260114_061938.dat