passes_logs/2026/01/14/R3.2S_Murmansk/R3.2S_Murmansk__20260114_074911_KANOPUS-V_5_rec.log

#Pass ID: 20260114_074911_KANOPUS-V 5
#Satellite: KANOPUS-V 5
#Configuration: KANOPUS-V_8320
#almurnet v.1.7.20251203
#Start time: 2026-01-14 07:49:11

#Version: 2.2.20231116
#Station: R3.2S_Murmansk
#Location: 33.079688 lon 68.888172 lat
#TLE: 1 43876U 18111A   26013.92265638  .00002186  00000+0  94740-4 0  9997
#TLE: 2 43876  97.3685 282.4563 0001771  87.3823 272.7617 15.23432279391301

#Time	Az	El	Level	Level2	SNR	BER	BlckErr	Temp	State	Recorded	gain1	gain2
2026-01-14 07:49:11.37	160.68	2.00	-59.1	-68.9	3.8	7.46e-01	0	26	0	0	82	11047
2026-01-14 07:49:14.34	160.71	2.21	-59.1	-68.8	3.8	7.45e-01	0	26	104	0	82	11010
2026-01-14 07:49:17.32	160.74	2.43	-59.1	-68.8	3.8	7.46e-01	0	26	104	0	82	10958
2026-01-14 07:49:20.30	160.77	2.64	-59.1	-68.6	3.8	7.44e-01	0	26	104	0	82	10720
2026-01-14 07:49:23.27	160.80	2.86	-59.1	-68.7	3.8	7.46e-01	0	26	104	0	82	10865
2026-01-14 07:49:26.25	160.84	3.07	-59.1	-68.8	3.8	7.46e-01	0	26	104	0	82	11012
2026-01-14 07:49:29.22	160.87	3.30	-59.1	-68.7	3.8	7.46e-01	0	26	104	0	82	10843
2026-01-14 07:49:32.19	160.90	3.52	-58.7	-67.1	3.8	7.46e-01	0	26	104	0	82	9011
2026-01-14 07:49:35.17	160.93	3.74	-58.1	-65.0	4.0	7.42e-01	0	26	104	0	80	7914
2026-01-14 07:49:38.16	160.97	3.97	-57.7	-63.8	4.7	7.09e-01	0	26	0	16777216	79	7329
2026-01-14 07:49:41.14	161.00	4.21	-56.6	-61.4	6.2	6.52e-01	0	26	0	62914560	77	6271
2026-01-14 07:49:44.13	161.04	4.44	-55.7	-59.9	7.4	6.06e-01	0	26	0	109051904	76	5547
2026-01-14 07:49:47.12	161.07	4.68	-55.3	-59.4	7.7	6.04e-01	0	26	0	153092096	74	5857
2026-01-14 07:49:50.10	161.11	4.92	-55.8	-60.2	7.0	6.23e-01	0	27	0	199229440	74	6475
2026-01-14 07:49:53.09	161.15	5.16	-55.4	-59.4	7.8	6.10e-01	0	27	0	245366784	74	5893
2026-01-14 07:49:56.08	161.18	5.41	-53.7	-56.9	9.5	6.08e-01	0	27	0	270532608	70	5566
2026-01-14 07:49:59.08	161.22	5.66	-52.9	-56.0	10.3	6.04e-01	0	26	0	316669952	70	5022
2026-01-14 07:50:02.05	161.26	5.91	-52.9	-56.0	10.3	6.03e-01	0	27	0	360710144	70	5034
2026-01-14 07:50:05.05	161.30	6.16	-53.2	-56.3	10.0	6.07e-01	0	27	0	406847488	70	5214
2026-01-14 07:50:08.01	161.34	6.42	-52.8	-55.8	10.5	6.07e-01	0	27	0	452984832	70	4901
2026-01-14 07:50:10.99	161.38	6.68	-52.6	-55.5	10.7	6.06e-01	0	27	0	499122176	69	5037
2026-01-14 07:50:13.96	161.42	6.95	-52.5	-55.5	10.8	6.05e-01	0	27	0	545259520	69	5000
2026-01-14 07:50:16.95	161.46	7.22	-52.3	-55.2	11.0	6.03e-01	0	27	0	589299712	69	4816
2026-01-14 07:50:19.92	161.51	7.49	-52.3	-55.2	11.0	6.04e-01	0	27	0	635437056	69	4859
2026-01-14 07:50:22.90	161.55	7.77	-52.0	-54.8	11.2	6.01e-01	0	27	0	681574400	68	4919
2026-01-14 07:50:25.89	161.59	8.05	-52.0	-54.8	11.2	6.01e-01	0	27	0	727711744	68	4908
2026-01-14 07:50:28.87	161.64	8.34	-52.0	-54.8	11.2	6.07e-01	0	27	0	773849088	68	4917
2026-01-14 07:50:31.85	161.68	8.63	-51.7	-54.5	11.5	6.05e-01	0	27	0	819986432	68	4736
2026-01-14 07:50:34.83	161.73	8.92	-51.7	-54.5	11.5	6.01e-01	0	27	0	866123776	67	5022
2026-01-14 07:50:37.81	161.78	9.22	-51.6	-54.4	11.6	6.01e-01	0	27	0	910163968	67	4963
2026-01-14 07:50:40.80	161.83	9.53	-51.7	-54.5	11.5	6.04e-01	0	27	0	956301312	67	4990
2026-01-14 07:50:43.78	161.88	9.84	-51.4	-54.2	11.8	6.04e-01	0	27	0	1002438656	67	4829
2026-01-14 07:50:46.76	161.93	10.15	-51.1	-53.8	12.0	6.01e-01	0	27	0	1048576000	66	4895
2026-01-14 07:50:49.73	161.98	10.47	-50.9	-53.6	12.1	6.02e-01	0	27	0	1094713344	66	4768
2026-01-14 07:50:52.71	162.03	10.80	-51.0	-53.6	12.1	6.06e-01	0	27	0	1138753536	66	4779
2026-01-14 07:50:55.69	162.08	11.13	-50.8	-53.4	12.2	6.04e-01	0	27	0	1184890880	66	4698
2026-01-14 07:50:58.69	162.14	11.47	-50.5	-53.1	12.4	6.03e-01	0	27	0	1231028224	65	4792
2026-01-14 07:51:01.67	162.20	11.81	-50.4	-53.0	12.4	6.01e-01	0	27	0	1277165568	65	4730
2026-01-14 07:51:04.64	162.25	12.16	-50.3	-52.9	12.5	6.03e-01	0	27	0	1323302912	65	4688
2026-01-14 07:51:07.63	162.31	12.52	-50.3	-52.9	12.6	5.99e-01	0	27	0	1369440256	65	4652
2026-01-14 07:51:10.61	162.37	12.89	-50.1	-52.7	12.6	6.00e-01	0	27	0	1413480448	64	4817
2026-01-14 07:51:13.59	162.44	13.26	-50.0	-52.5	12.7	6.00e-01	0	27	0	1459617792	64	4757
2026-01-14 07:51:16.56	162.50	13.64	-50.0	-52.5	12.7	6.00e-01	0	27	0	1505755136	64	4757
2026-01-14 07:51:19.55	162.56	14.03	-49.7	-52.3	12.8	6.01e-01	0	27	0	1551892480	63	4885
2026-01-14 07:51:22.52	162.63	14.42	-49.6	-52.1	12.9	6.01e-01	0	27	0	1598029824	63	4773
2026-01-14 07:51:25.51	162.70	14.83	-49.5	-52.0	13.0	6.00e-01	0	27	0	1644167168	63	4726
2026-01-14 07:51:28.48	162.77	15.24	-49.3	-51.7	13.2	6.00e-01	0	28	0	1690304512	63	4546
2026-01-14 07:51:31.48	162.84	15.67	-49.0	-51.3	13.3	6.02e-01	0	27	0	1734344704	62	4628
2026-01-14 07:51:34.46	162.92	16.10	-49.0	-51.3	13.3	6.00e-01	0	27	0	1780482048	62	4641
2026-01-14 07:51:37.44	163.00	16.54	-48.9	-51.2	13.3	5.94e-01	0	27	0	1826619392	62	4574
2026-01-14 07:51:40.43	163.08	17.00	-48.4	-50.6	13.6	6.00e-01	0	27	0	1872756736	61	4519
2026-01-14 07:51:43.41	163.16	17.46	-48.3	-50.5	13.6	6.00e-01	0	27	0	1918894080	61	4483
2026-01-14 07:51:46.40	163.24	17.94	-48.0	-50.2	13.7	6.01e-01	0	27	0	1965031424	60	4569
2026-01-14 07:51:49.38	163.33	18.43	-48.0	-50.1	13.7	5.99e-01	0	27	0	2011168768	60	4545
2026-01-14 07:51:52.36	163.42	18.93	-47.7	-49.9	13.8	6.01e-01	0	28	0	2055208960	60	4421
2026-01-14 07:51:55.35	163.52	19.44	-47.7	-49.9	13.7	6.03e-01	0	28	0	2101346304	59	4673
2026-01-14 07:51:58.33	163.61	19.97	-47.6	-49.8	13.8	5.93e-01	0	27	0	2147483648	59	4635
2026-01-14 07:52:01.31	163.71	20.51	-47.4	-49.7	13.9	5.99e-01	0	27	0	2193620992	59	4555
2026-01-14 07:52:04.29	163.82	21.07	-47.2	-49.5	14.0	5.98e-01	0	28	0	2239758336	59	4442
2026-01-14 07:52:07.26	163.92	21.64	-47.2	-49.4	13.9	6.01e-01	0	28	0	2283798528	58	4661
2026-01-14 07:52:10.25	164.04	22.24	-46.9	-49.1	14.0	5.96e-01	0	27	0	2329935872	58	4534
2026-01-14 07:52:13.24	164.15	22.85	-46.9	-49.1	14.0	5.97e-01	0	27	0	2376073216	58	4500
2026-01-14 07:52:16.22	164.27	23.47	-46.7	-48.9	14.0	5.96e-01	0	27	0	2422210560	57	4668
2026-01-14 07:52:19.20	164.40	24.12	-46.5	-48.8	14.1	5.95e-01	0	28	0	2468347904	57	4601
2026-01-14 07:52:22.19	164.53	24.78	-46.5	-48.7	14.1	6.00e-01	0	28	0	2514485248	57	4598
2026-01-14 07:52:25.17	164.67	25.47	-46.2	-48.5	14.3	5.96e-01	0	28	0	2558525440	57	4459
2026-01-14 07:52:28.15	164.82	26.18	-45.9	-48.1	14.3	5.99e-01	0	27	0	2604662784	56	4534
2026-01-14 07:52:31.13	164.97	26.91	-45.8	-47.9	14.3	5.98e-01	0	27	0	2650800128	56	4426
2026-01-14 07:52:34.13	165.13	27.67	-45.9	-48.0	14.3	5.99e-01	0	27	0	2696937472	56	4473
2026-01-14 07:52:37.10	165.29	28.45	-45.8	-47.9	14.3	5.97e-01	0	28	0	2743074816	56	4411
2026-01-14 07:52:40.09	165.47	29.26	-45.8	-47.8	14.4	5.94e-01	0	27	0	2789212160	56	4362
2026-01-14 07:52:43.08	165.65	30.10	-45.9	-47.8	14.3	5.94e-01	0	28	0	2835349504	56	4378
2026-01-14 07:52:46.06	165.85	30.97	-45.9	-47.8	14.4	5.97e-01	0	28	0	2881486848	56	4385
2026-01-14 07:52:49.04	166.05	31.87	-45.9	-47.9	14.3	5.99e-01	0	28	0	2927624192	56	4395
2026-01-14 07:52:52.03	166.27	32.81	-45.9	-47.8	14.3	5.98e-01	0	28	0	2971664384	56	4365
2026-01-14 07:52:55.02	166.50	33.78	-46.0	-47.8	14.3	5.89e-01	0	27	0	3017801728	56	4382
2026-01-14 07:52:57.99	166.75	34.78	-46.0	-48.0	14.3	5.88e-01	0	28	0	3063939072	56	4445
2026-01-14 07:53:00.97	167.01	35.82	-46.1	-48.0	14.2	5.89e-01	0	27	0	3110076416	56	4468
2026-01-14 07:53:03.95	167.29	36.90	-46.8	-47.9	13.9	5.89e-01	0	27	0	3156213760	56	4412
2026-01-14 07:53:06.93	167.59	38.02	-60.7	-70.5	3.8	7.45e-01	0	27	104	3187671040	84	11867
2026-01-14 07:53:09.92	167.91	39.19	-60.7	-70.5	3.8	7.45e-01	0	27	104	3187671040	84	11847
2026-01-14 07:53:12.93	168.26	40.42	-60.7	-70.4	3.8	7.45e-01	0	27	104	3187671040	84	11800
2026-01-14 07:53:15.93	168.64	41.69	-60.8	-70.5	3.8	7.43e-01	0	27	104	3187671040	84	11929
2026-01-14 07:53:18.93	169.05	43.01	-60.7	-70.5	3.8	7.46e-01	0	27	104	3187671040	84	11864
2026-01-14 07:53:21.93	169.49	44.38	-60.8	-70.5	3.8	7.46e-01	0	27	104	3187671040	84	11899
2026-01-14 07:53:24.93	169.98	45.81	-60.8	-70.5	3.8	7.45e-01	0	27	104	3187671040	84	11924
2026-01-14 07:53:27.94	170.51	47.30	-60.8	-70.6	3.8	7.45e-01	0	28	104	3187671040	84	12008
2026-01-14 07:53:30.94	171.10	48.84	-60.8	-70.5	3.8	7.45e-01	0	28	104	3187671040	84	11947
2026-01-14 07:53:33.95	171.76	50.44	-60.8	-70.5	3.8	7.45e-01	0	27	104	3187671040	84	11935
2026-01-14 07:53:36.96	172.49	52.11	-60.8	-70.6	3.8	7.46e-01	0	28	104	3187671040	84	11981
2026-01-14 07:53:39.98	173.31	53.84	-60.9	-70.7	3.8	7.46e-01	0	28	104	3187671040	84	12100
2026-01-14 07:53:42.98	174.23	55.62	-60.9	-70.6	3.8	7.45e-01	0	28	104	3187671040	84	12062
2026-01-14 07:53:45.99	175.29	57.46	-60.9	-70.6	3.8	7.45e-01	0	28	104	3187671040	84	12058
2026-01-14 07:53:48.99	176.49	59.35	-60.9	-70.7	3.8	7.45e-01	0	28	104	3187671040	85	11429
2026-01-14 07:53:52.00	177.90	61.31	-61.0	-70.7	3.8	7.45e-01	0	28	104	3187671040	85	11523
2026-01-14 07:53:54.99	179.53	63.29	-61.0	-70.7	3.8	7.45e-01	0	28	104	3187671040	85	11528
2026-01-14 07:53:58.00	181.49	65.33	-61.0	-70.7	3.8	7.45e-01	0	27	104	3187671040	85	11546
2026-01-14 07:54:01.00	183.83	67.39	-61.0	-70.7	3.8	7.43e-01	0	27	104	3187671040	85	11538
2026-01-14 07:54:04.01	186.70	69.47	-61.1	-70.8	3.8	7.47e-01	0	28	104	3187671040	85	11653
2026-01-14 07:54:07.01	190.26	71.53	-61.1	-70.8	3.8	7.46e-01	0	27	104	3187671040	85	11656
2026-01-14 07:54:10.01	194.76	73.55	-61.1	-70.8	3.8	7.45e-01	0	28	104	3187671040	85	11664
2026-01-14 07:54:13.02	200.59	75.49	-61.1	-70.8	3.8	7.46e-01	0	28	104	3187671040	85	11680
2026-01-14 07:54:16.02	208.17	77.26	-61.1	-70.9	3.8	7.45e-01	0	28	104	3187671040	85	11749
2026-01-14 07:54:19.02	218.05	78.77	-61.1	-70.9	3.8	7.47e-01	0	27	104	3187671040	85	11776
2026-01-14 07:54:22.02	230.57	79.87	-61.1	-70.9	3.8	7.46e-01	0	28	104	3187671040	85	11760
2026-01-14 07:54:25.02	245.31	80.40	-61.1	-70.9	3.8	7.46e-01	0	28	104	3187671040	85	11736
2026-01-14 07:54:28.02	260.67	80.26	-61.2	-70.9	3.8	7.46e-01	0	28	104	3187671040	85	11794
2026-01-14 07:54:31.02	274.64	79.49	-61.2	-70.9	3.8	7.46e-01	0	28	104	3187671040	85	11798
2026-01-14 07:54:34.01	286.05	78.21	-61.2	-70.9	3.8	7.46e-01	0	28	104	3187671040	85	11772
2026-01-14 07:54:37.02	294.97	76.58	-61.2	-70.9	3.8	7.47e-01	0	28	104	3187671040	85	11796
2026-01-14 07:54:40.02	301.77	74.73	-61.2	-71.0	3.8	7.46e-01	0	28	104	3187671040	85	11864
2026-01-14 07:54:43.02	307.00	72.76	-61.2	-71.0	3.8	7.46e-01	0	28	104	3187671040	85	11862
2026-01-14 07:54:46.00	311.07	70.74	-61.2	-71.0	3.8	7.45e-01	0	28	104	3187671040	85	11820
2026-01-14 07:54:49.01	314.34	68.66	-61.2	-70.9	3.8	7.46e-01	0	28	104	3187671040	85	11794
2026-01-14 07:54:52.02	316.98	66.59	-61.2	-71.0	3.8	7.44e-01	0	28	104	3187671040	85	11824
2026-01-14 07:54:55.02	319.15	64.54	-61.2	-71.0	3.8	7.46e-01	0	28	104	3187671040	85	11851
2026-01-14 07:54:58.03	320.98	62.52	-61.2	-71.0	3.8	7.43e-01	0	28	104	3187671040	85	11841
2026-01-14 07:55:01.02	322.51	60.56	-61.2	-70.9	3.8	7.44e-01	0	28	104	3187671040	85	11786
2026-01-14 07:55:04.02	323.83	58.64	-61.2	-70.9	3.8	7.45e-01	0	28	104	3187671040	85	11803
2026-01-14 07:55:07.01	324.97	56.78	-61.2	-71.0	3.8	7.47e-01	0	28	104	3187671040	85	11868
2026-01-14 07:55:10.00	325.96	54.97	-61.2	-70.9	3.8	7.46e-01	0	28	104	3187671040	85	11770
2026-01-14 07:55:12.99	326.84	53.23	-61.1	-70.9	3.8	7.44e-01	0	28	104	3187671040	85	11738
2026-01-14 07:55:15.99	327.62	51.53	-61.2	-70.9	3.8	7.45e-01	0	28	104	3187671040	85	11772
2026-01-14 07:55:18.99	328.32	49.90	-61.2	-70.9	3.8	7.46e-01	0	28	104	3187671040	85	11743
2026-01-14 07:55:21.99	328.95	48.33	-61.1	-70.9	3.8	7.46e-01	0	28	104	3187671040	85	11724
2026-01-14 07:55:24.98	329.51	46.82	-61.1	-70.9	3.8	7.46e-01	0	28	104	3187671040	85	11685
2026-01-14 07:55:27.99	330.03	45.35	-61.1	-70.8	3.8	7.46e-01	0	28	104	3187671040	85	11652
2026-01-14 07:55:30.98	330.50	43.95	-61.1	-70.8	3.8	7.45e-01	0	28	104	3187671040	85	11660
2026-01-14 07:55:33.97	330.93	42.61	-61.1	-70.8	3.8	7.47e-01	0	27	104	3187671040	85	11602
2026-01-14 07:55:36.97	331.33	41.31	-61.0	-70.8	3.8	7.44e-01	0	28	104	3187671040	85	11610
2026-01-14 07:55:39.96	331.69	40.06	-61.0	-70.8	3.8	7.46e-01	0	28	104	3187671040	85	11602
2026-01-14 07:55:42.94	332.03	38.87	-61.0	-70.8	3.8	7.46e-01	0	28	104	3187671040	85	11570
2026-01-14 07:55:45.92	332.35	37.72	-61.0	-70.7	3.8	7.46e-01	0	28	104	3187671040	85	11488
2026-01-14 07:55:48.92	332.64	36.61	-61.0	-70.7	3.8	7.45e-01	0	28	104	3187671040	85	11458
2026-01-14 07:55:51.90	332.91	35.54	-61.0	-70.7	3.8	7.46e-01	0	28	104	3187671040	85	11474
2026-01-14 07:55:54.88	333.17	34.52	-60.9	-70.7	3.8	7.45e-01	0	28	104	3187671040	85	11464
2026-01-14 07:55:57.87	333.41	33.53	-60.9	-70.6	3.8	7.45e-01	0	28	104	3187671040	85	11349
2026-01-14 07:56:00.85	333.64	32.58	-60.9	-70.6	3.8	7.45e-01	0	28	104	3187671040	85	11366
2026-01-14 07:56:03.84	333.85	31.65	-60.8	-70.6	3.8	7.46e-01	0	28	104	3187671040	85	11315
2026-01-14 07:56:06.82	334.06	30.77	-60.8	-70.6	3.8	7.44e-01	0	28	104	3187671040	85	11334
2026-01-14 07:56:09.84	334.25	29.90	-60.8	-70.5	3.8	7.44e-01	0	28	104	3187671040	85	11247
2026-01-14 07:56:12.84	334.43	29.07	-60.8	-70.6	3.8	7.44e-01	0	28	104	3187671040	85	11289
2026-01-14 07:56:15.82	334.61	28.28	-60.8	-70.5	3.8	7.44e-01	0	28	104	3187671040	85	11281
2026-01-14 07:56:18.80	334.77	27.50	-60.8	-70.5	3.8	7.46e-01	0	28	104	3187671040	85	11233
2026-01-14 07:56:21.79	334.93	26.76	-60.7	-70.5	3.8	7.45e-01	0	28	104	3187671040	85	11158
2026-01-14 07:56:24.77	335.08	26.03	-60.7	-70.4	3.8	7.47e-01	0	28	104	3187671040	85	11152
2026-01-14 07:56:27.75	335.22	25.34	-60.7	-70.4	3.8	7.47e-01	0	28	104	3187671040	85	11138
2026-01-14 07:56:30.72	335.35	24.66	-60.7	-70.4	3.8	7.45e-01	0	28	104	3187671040	85	11098
2026-01-14 07:56:33.71	335.49	24.00	-60.6	-70.3	3.8	7.48e-01	0	28	104	3187671040	85	11014
2026-01-14 07:56:36.69	335.61	23.37	-60.6	-70.4	3.8	7.45e-01	0	28	104	3187671040	85	11108
2026-01-14 07:56:39.66	335.73	22.75	-60.6	-70.4	3.8	7.45e-01	0	28	104	3187671040	85	11031
2026-01-14 07:56:42.65	335.85	22.15	-60.6	-70.3	3.8	7.45e-01	0	28	104	3187671040	85	11007
2026-01-14 07:56:45.65	335.96	21.56	-60.5	-70.3	3.8	7.46e-01	0	28	104	3187671040	85	10929
2026-01-14 07:56:48.64	336.07	20.99	-60.6	-70.3	3.8	7.47e-01	0	28	104	3187671040	85	10943
2026-01-14 07:56:51.64	336.17	20.44	-60.5	-70.3	3.8	7.45e-01	0	28	104	3187671040	85	10911
2026-01-14 07:56:54.64	336.27	19.90	-60.5	-70.2	3.8	7.46e-01	0	28	104	3187671040	85	10875
2026-01-14 07:56:57.65	336.37	19.37	-60.5	-70.2	3.8	7.46e-01	0	28	104	3187671040	85	10833
2026-01-14 07:57:00.66	336.46	18.86	-60.5	-70.2	3.8	7.48e-01	0	28	104	3187671040	85	10809
2026-01-14 07:57:03.68	336.55	18.36	-60.4	-70.2	3.8	7.46e-01	0	28	104	3187671040	85	10797
2026-01-14 07:57:06.69	336.64	17.87	-60.4	-70.1	3.8	7.47e-01	0	28	104	3187671040	85	10777
2026-01-14 07:57:09.70	336.73	17.39	-60.4	-70.1	3.8	7.46e-01	0	28	104	3187671040	85	10723
2026-01-14 07:57:12.72	336.81	16.93	-60.4	-70.1	3.8	7.47e-01	0	28	104	3187671040	85	10746
2026-01-14 07:57:15.74	336.89	16.48	-60.4	-70.1	3.8	7.45e-01	0	28	104	3187671040	85	10736
2026-01-14 07:57:18.76	336.97	16.03	-60.3	-70.1	3.8	7.45e-01	0	28	104	3187671040	85	10680
2026-01-14 07:57:21.77	337.04	15.60	-60.3	-70.0	3.8	7.44e-01	0	28	104	3187671040	85	10620
2026-01-14 07:57:24.79	337.12	15.18	-60.3	-70.1	3.8	7.47e-01	0	28	104	3187671040	85	10674
2026-01-14 07:57:27.81	337.19	14.76	-60.3	-70.0	3.8	7.47e-01	0	28	104	3187671040	85	10569
2026-01-14 07:57:30.82	337.26	14.36	-60.3	-70.0	3.8	7.47e-01	0	28	104	3187671040	85	10619
2026-01-14 07:57:33.84	337.33	13.96	-60.2	-69.9	3.8	7.46e-01	0	28	104	3187671040	85	10506
2026-01-14 07:57:36.84	337.39	13.58	-60.2	-70.0	3.8	7.44e-01	0	28	104	3187671040	85	10574
2026-01-14 07:57:39.86	337.46	13.20	-60.1	-69.9	3.8	7.47e-01	0	28	104	3187671040	84	11088
2026-01-14 07:57:42.88	337.52	12.83	-60.1	-69.8	3.8	7.44e-01	0	28	104	3187671040	84	11026
2026-01-14 07:57:45.90	337.58	12.46	-60.1	-69.8	3.8	7.47e-01	0	28	104	3187671040	84	10996
2026-01-14 07:57:48.90	337.64	12.11	-60.1	-69.9	3.8	7.46e-01	0	28	104	3187671040	84	11068
2026-01-14 07:57:51.92	337.70	11.75	-60.1	-69.8	3.8	7.47e-01	0	28	104	3187671040	84	10960
2026-01-14 07:57:54.93	337.76	11.41	-60.0	-69.8	3.8	7.46e-01	0	28	104	3187671040	84	10911
2026-01-14 07:57:57.93	337.82	11.07	-60.0	-69.7	3.8	7.46e-01	0	28	104	3187671040	84	10861
2026-01-14 07:58:00.94	337.87	10.74	-60.0	-69.7	3.8	7.47e-01	0	28	104	3187671040	84	10890
2026-01-14 07:58:03.95	337.93	10.42	-59.9	-69.7	3.8	7.45e-01	0	28	104	3187671040	84	10781
2026-01-14 07:58:06.97	337.98	10.10	-59.9	-69.7	3.8	7.46e-01	0	28	104	3187671040	84	10788
2026-01-14 07:58:09.98	338.03	9.78	-59.9	-69.6	3.8	7.46e-01	0	28	104	3187671040	84	10713
2026-01-14 07:58:12.99	338.08	9.47	-59.9	-69.7	3.8	7.44e-01	0	28	104	3187671040	84	10822
2026-01-14 07:58:15.99	338.13	9.17	-59.8	-69.6	3.8	7.46e-01	0	28	104	3187671040	84	10659
2026-01-14 07:58:19.00	338.18	8.87	-59.8	-69.5	3.8	7.46e-01	0	28	104	3187671040	84	10622
2026-01-14 07:58:22.01	338.23	8.58	-59.8	-69.5	3.8	7.46e-01	0	28	104	3187671040	84	10624
2026-01-14 07:58:25.03	338.28	8.29	-59.8	-69.5	3.8	7.45e-01	0	28	104	3187671040	84	10627
2026-01-14 07:58:28.04	338.32	8.00	-59.5	-69.2	3.8	7.46e-01	0	28	104	3187671040	83	10882
2026-01-14 07:58:31.06	338.37	7.72	-59.5	-69.3	3.8	7.46e-01	0	28	104	3187671040	83	10939
2026-01-14 07:58:34.06	338.41	7.44	-59.5	-69.2	3.8	7.44e-01	0	28	104	3187671040	83	10873
2026-01-14 07:58:37.08	338.46	7.17	-59.6	-69.3	3.8	7.46e-01	0	28	104	3187671040	83	10957
2026-01-14 07:58:40.08	338.50	6.90	-59.4	-69.1	3.8	7.46e-01	0	28	104	3187671040	83	10723
2026-01-14 07:58:43.09	338.54	6.64	-59.4	-69.1	3.8	7.46e-01	0	28	104	3187671040	83	10737
2026-01-14 07:58:46.11	338.58	6.37	-59.3	-69.1	3.8	7.46e-01	0	28	104	3187671040	83	10749
2026-01-14 07:58:49.12	338.63	6.12	-59.4	-69.2	3.8	7.46e-01	0	28	104	3187671040	83	10779
2026-01-14 07:58:52.14	338.67	5.86	-59.2	-69.0	3.8	7.46e-01	0	28	104	3187671040	83	10563
2026-01-14 07:58:55.15	338.71	5.61	-59.3	-69.0	3.8	7.46e-01	0	28	104	3187671040	83	10599
2026-01-14 07:58:58.16	338.75	5.36	-59.2	-68.9	3.8	7.47e-01	0	28	104	3187671040	82	11137
2026-01-14 07:59:01.17	338.78	5.12	-59.3	-69.0	3.8	7.45e-01	0	28	104	3187671040	82	11242
2026-01-14 07:59:04.18	338.82	4.87	-59.9	-69.7	3.8	7.45e-01	0	28	104	3187671040	82	12095
2026-01-14 07:59:07.18	338.86	4.63	-60.8	-70.5	3.8	7.47e-01	0	28	104	3187671040	84	11902
2026-01-14 07:59:10.18	338.90	4.40	-61.1	-70.9	3.8	7.46e-01	0	28	104	3187671040	85	11788
2026-01-14 07:59:13.19	338.93	4.17	-61.3	-71.1	3.8	7.47e-01	0	28	104	3187671040	85	12034
2026-01-14 07:59:16.19	338.97	3.94	-61.5	-71.2	3.8	7.45e-01	0	28	104	3187671040	86	11505
2026-01-14 07:59:19.19	339.01	3.71	-61.5	-71.3	3.8	7.46e-01	0	28	104	3187671040	86	11581
2026-01-14 07:59:22.18	339.04	3.48	-61.6	-71.3	3.8	7.46e-01	0	28	104	3187671040	86	11628
2026-01-14 07:59:25.19	339.08	3.26	-61.6	-71.3	3.8	7.44e-01	0	28	104	3187671040	86	11643
2026-01-14 07:59:28.20	339.11	3.04	-61.5	-71.2	3.8	7.46e-01	0	28	104	3187671040	86	11541
2026-01-14 07:59:31.20	339.15	2.82	-61.5	-71.2	3.8	7.47e-01	0	28	104	3187671040	86	11488
2026-01-14 07:59:34.21	339.18	2.60	-61.5	-71.2	3.8	7.47e-01	0	28	104	3187671040	86	11493
2026-01-14 07:59:37.21	339.21	2.39	-61.4	-71.2	3.8	7.45e-01	0	28	104	3187671040	86	11492
2026-01-14 07:59:40.22	339.25	2.18	-61.4	-71.1	3.8	7.46e-01	0	28	104	3187671040	86	11404

#Closed at: 2026-01-14 07:59:43
#Recorded file [3187 MB]: D:/lorett/data/31004_260114_104911.dat