passes_logs/2026/01/14/R3.2S_Murmansk/R3.2S_Murmansk__20260114_215028_SUOMI_NPP_rec.log

#Pass ID: 20260114_215028_SUOMI NPP
#Satellite: SUOMI NPP
#Configuration: NPP
#almurnet v.1.7.20251203
#Start time: 2026-01-14 21:50:29

#Version: 2.2.20231116
#Station: R3.2S_Murmansk
#Location: 33.079688 lon 68.888172 lat
#TLE: 1 37849U 11061A   26014.61059675  .00000037  00000+0  38639-4 0  9994
#TLE: 2 37849  98.7810 316.6625 0002460  64.3781 295.7649 14.19525105736658

#Time	Az	El	Level	Level2	SNR	BER	BlckErr	Temp	State	Recorded	gain1	gain2
2026-01-14 21:50:29.45	18.53	2.04	-58.2	-74.1	3.8	1.49e+00	0	27	0	0	82	22588
2026-01-14 21:50:32.46	18.78	2.19	-58.2	-73.9	3.8	1.49e+00	0	27	104	0	81	23578
2026-01-14 21:50:35.46	19.05	2.34	-58.2	-74.1	3.8	1.49e+00	0	27	104	0	81	24028
2026-01-14 21:50:38.46	19.31	2.49	-58.2	-74.1	3.8	1.49e+00	0	27	104	0	81	24071
2026-01-14 21:50:41.47	19.58	2.64	-58.2	-74.1	3.8	1.49e+00	0	27	104	0	81	24074
2026-01-14 21:50:44.47	19.84	2.79	-58.2	-74.0	3.8	1.49e+00	0	27	104	0	81	23692
2026-01-14 21:50:47.46	20.12	2.94	-58.2	-74.1	3.8	1.49e+00	0	27	104	0	81	23899
2026-01-14 21:50:50.46	20.39	3.09	-58.2	-74.2	3.8	1.49e+00	0	27	104	0	81	24273
2026-01-14 21:50:53.46	20.67	3.24	-58.2	-74.2	3.8	1.49e+00	0	27	104	0	81	24268
2026-01-14 21:50:56.47	20.95	3.40	-58.2	-74.2	3.8	1.49e+00	0	27	104	0	81	24332
2026-01-14 21:50:59.48	21.23	3.55	-58.2	-73.9	3.8	1.49e+00	0	27	104	0	81	23315
2026-01-14 21:51:02.48	21.51	3.70	-58.2	-73.8	3.8	1.49e+00	0	27	104	0	81	23243
2026-01-14 21:51:05.49	21.80	3.85	-58.2	-73.9	3.8	1.49e+00	0	27	104	0	81	23460
2026-01-14 21:51:08.49	22.09	4.01	-58.2	-73.1	3.8	1.49e+00	0	27	104	0	81	21291
2026-01-14 21:51:11.49	22.39	4.16	-58.2	-72.9	3.8	1.49e+00	0	27	104	0	81	20809
2026-01-14 21:51:14.50	22.68	4.31	-58.0	-70.0	4.4	1.44e+00	58	27	0	0	81	14983
2026-01-14 21:51:17.50	22.98	4.47	-57.1	-63.9	8.3	9.18e-02	0	28	0	5242880	80	7811
2026-01-14 21:51:20.51	23.29	4.62	-56.3	-61.1	10.6	3.93e-04	0	27	0	10485760	79	6013
2026-01-14 21:51:23.51	23.59	4.78	-56.4	-61.4	10.3	1.73e-03	0	28	0	16777216	78	6595
2026-01-14 21:51:26.51	23.90	4.93	-57.1	-63.8	8.4	1.99e-02	0	28	0	22020096	79	8188
2026-01-14 21:51:29.52	24.21	5.09	-57.6	-66.4	6.3	3.42e-02	0	28	0	27262976	80	10494
2026-01-14 21:51:32.52	24.53	5.24	-57.3	-64.1	8.6	2.27e-03	0	28	0	31457280	79	8470
2026-01-14 21:51:35.50	24.84	5.40	-54.9	-58.1	12.7	0.00e+00	0	28	0	36700160	76	5072
2026-01-14 21:51:38.48	25.16	5.55	-54.7	-57.7	13.0	0.00e+00	0	28	0	41943040	76	4828
2026-01-14 21:51:41.48	25.48	5.71	-54.9	-58.0	12.6	0.00e+00	0	28	0	48234496	75	5323
2026-01-14 21:51:44.47	25.81	5.86	-54.3	-57.1	13.2	0.00e+00	0	28	0	53477376	75	4795
2026-01-14 21:51:47.45	26.14	6.02	-54.5	-57.3	13.2	0.00e+00	0	28	0	59768832	75	4895
2026-01-14 21:51:50.45	26.47	6.17	-54.1	-56.7	13.4	0.00e+00	0	28	0	65011712	74	4838
2026-01-14 21:51:53.44	26.81	6.33	-54.0	-56.6	13.5	0.00e+00	0	28	0	70254592	74	4768
2026-01-14 21:51:56.44	27.15	6.48	-53.9	-56.5	13.5	0.00e+00	0	28	0	76546048	74	4706
2026-01-14 21:51:59.44	27.50	6.64	-54.0	-56.5	13.5	0.00e+00	0	28	0	81788928	74	4757
2026-01-14 21:52:02.44	27.85	6.80	-53.9	-56.3	13.7	0.00e+00	0	28	0	87031808	74	4638
2026-01-14 21:52:05.43	28.20	6.95	-53.7	-56.0	13.7	0.00e+00	0	28	0	93323264	73	4759
2026-01-14 21:52:08.43	28.55	7.11	-53.6	-55.9	13.8	0.00e+00	0	28	0	98566144	73	4693
2026-01-14 21:52:11.43	28.91	7.27	-53.4	-55.6	13.9	0.00e+00	0	28	0	103809024	73	4541
2026-01-14 21:52:14.42	29.27	7.42	-53.7	-56.0	13.7	0.00e+00	0	28	0	110100480	73	4740
2026-01-14 21:52:17.42	29.64	7.58	-53.6	-55.9	13.8	0.00e+00	0	28	0	115343360	73	4678
2026-01-14 21:52:20.40	30.01	7.74	-53.7	-56.1	13.7	0.00e+00	0	28	0	120586240	73	4778
2026-01-14 21:52:23.39	30.38	7.89	-53.7	-56.0	13.8	0.00e+00	0	28	0	126877696	73	4741
2026-01-14 21:52:26.40	30.76	8.05	-53.9	-56.3	13.6	0.00e+00	0	28	0	132120576	73	4917
2026-01-14 21:52:29.40	31.14	8.21	-54.0	-56.5	13.5	0.00e+00	0	28	0	138412032	73	5000
2026-01-14 21:52:32.40	31.53	8.36	-54.0	-56.4	13.6	0.00e+00	0	28	0	143654912	73	4973
2026-01-14 21:52:35.39	31.92	8.52	-53.9	-56.3	13.6	0.00e+00	0	28	0	148897792	73	4913
2026-01-14 21:52:38.39	32.31	8.67	-54.0	-56.4	13.6	0.00e+00	0	28	0	155189248	73	4941
2026-01-14 21:52:41.38	32.71	8.83	-54.2	-56.7	13.4	0.00e+00	0	28	0	160432128	73	5121
2026-01-14 21:52:44.37	33.11	8.98	-53.7	-56.1	13.8	0.00e+00	0	28	0	165675008	73	4778
2026-01-14 21:52:47.38	33.52	9.14	-53.5	-55.8	13.9	0.00e+00	0	28	0	171966464	73	4620
2026-01-14 21:52:50.38	33.93	9.30	-53.2	-55.4	14.0	0.00e+00	0	28	0	177209344	72	4658
2026-01-14 21:52:53.37	34.34	9.45	-53.4	-55.6	13.9	0.00e+00	0	28	0	182452224	72	4772
2026-01-14 21:52:56.37	34.76	9.61	-53.0	-55.0	14.2	0.00e+00	0	28	0	188743680	72	4466
2026-01-14 21:52:59.36	35.18	9.76	-52.4	-54.3	14.4	0.00e+00	0	28	0	193986560	71	4366
2026-01-14 21:53:02.35	35.61	9.91	-52.5	-54.3	14.4	0.00e+00	0	28	0	199229440	71	4391
2026-01-14 21:53:05.36	36.04	10.07	-52.6	-54.5	14.3	0.00e+00	0	28	0	205520896	71	4474
2026-01-14 21:53:08.34	36.47	10.22	-52.7	-54.7	14.2	0.00e+00	0	28	0	210763776	71	4576
2026-01-14 21:53:11.35	36.92	10.37	-52.8	-54.8	14.2	0.00e+00	0	28	0	217055232	71	4601
2026-01-14 21:53:14.34	37.36	10.52	-52.7	-54.6	14.3	0.00e+00	0	28	0	222298112	71	4544
2026-01-14 21:53:17.33	37.81	10.67	-52.6	-54.6	14.3	0.00e+00	0	28	0	227540992	71	4494
2026-01-14 21:53:20.33	38.26	10.83	-52.7	-54.6	14.3	0.00e+00	0	28	0	233832448	71	4520
2026-01-14 21:53:23.32	38.72	10.98	-52.7	-54.6	14.3	0.00e+00	0	28	0	239075328	71	4511
2026-01-14 21:53:26.32	39.18	11.12	-52.7	-54.6	14.3	0.00e+00	0	28	0	244318208	71	4544
2026-01-14 21:53:29.31	39.65	11.27	-52.8	-54.7	14.2	0.00e+00	0	28	0	250609664	71	4598
2026-01-14 21:53:32.32	40.12	11.42	-52.9	-54.9	14.2	0.00e+00	0	28	0	255852544	71	4702
2026-01-14 21:53:35.31	40.60	11.57	-52.8	-54.7	14.2	0.00e+00	0	28	0	261095424	71	4580
2026-01-14 21:53:38.29	41.08	11.71	-52.6	-54.5	14.4	0.00e+00	0	28	0	267386880	71	4473
2026-01-14 21:53:41.29	41.56	11.86	-53.0	-55.0	14.1	0.00e+00	0	28	0	272629760	71	4755
2026-01-14 21:53:44.27	42.05	12.00	-53.3	-55.4	14.0	0.00e+00	0	28	0	277872640	71	4949
2026-01-14 21:53:47.26	42.55	12.14	-53.1	-55.1	14.1	0.00e+00	0	28	0	284164096	71	4780
2026-01-14 21:53:50.25	43.04	12.29	-53.1	-55.1	14.0	0.00e+00	0	28	0	289406976	71	4812
2026-01-14 21:53:53.25	43.55	12.43	-53.3	-55.4	14.0	0.00e+00	0	28	0	294649856	71	4933
2026-01-14 21:53:56.23	44.06	12.57	-53.4	-55.6	14.0	0.00e+00	0	28	0	300941312	72	4788
2026-01-14 21:53:59.22	44.57	12.70	-53.4	-55.6	14.0	0.00e+00	0	28	0	306184192	72	4771
2026-01-14 21:54:02.21	45.09	12.84	-53.4	-55.5	14.0	0.00e+00	0	28	0	311427072	72	4747
2026-01-14 21:54:05.19	45.61	12.98	-53.5	-55.6	14.0	0.00e+00	0	28	0	317718528	72	4808
2026-01-14 21:54:08.18	46.13	13.11	-53.5	-55.6	14.0	0.00e+00	0	28	0	322961408	72	4796
2026-01-14 21:54:11.17	46.66	13.24	-53.8	-56.0	13.8	0.00e+00	0	28	0	328204288	72	5028
2026-01-14 21:54:14.16	47.20	13.37	-54.1	-56.5	13.7	0.00e+00	0	28	0	334495744	73	5018
2026-01-14 21:54:17.16	47.74	13.50	-53.9	-56.2	13.8	0.00e+00	0	28	0	339738624	73	4856
2026-01-14 21:54:20.16	48.29	13.63	-54.1	-56.5	13.7	0.00e+00	0	28	0	346030080	73	5006
2026-01-14 21:54:23.15	48.84	13.76	-54.3	-56.7	13.6	0.00e+00	0	28	0	351272960	73	5138
2026-01-14 21:54:26.15	49.40	13.88	-54.3	-56.8	13.6	0.00e+00	0	28	0	356515840	74	4897
2026-01-14 21:54:29.14	49.95	14.01	-54.4	-57.0	13.5	0.00e+00	0	28	0	362807296	74	4984
2026-01-14 21:54:32.14	50.52	14.13	-54.8	-57.6	13.2	0.00e+00	0	28	0	368050176	74	5352
2026-01-14 21:54:35.12	51.09	14.25	-54.6	-57.1	13.4	0.00e+00	0	28	0	373293056	74	5081
2026-01-14 21:54:38.11	51.66	14.36	-54.2	-56.6	13.7	0.00e+00	0	28	0	379584512	74	4766
2026-01-14 21:54:41.12	52.24	14.48	-54.3	-56.8	13.6	0.00e+00	0	28	0	384827392	74	4899
2026-01-14 21:54:44.11	52.82	14.59	-54.4	-56.9	13.5	0.00e+00	0	28	0	390070272	74	4979
2026-01-14 21:54:47.10	53.40	14.70	-54.4	-56.9	13.6	0.00e+00	0	28	0	396361728	74	4946
2026-01-14 21:54:50.09	53.99	14.81	-54.0	-56.3	13.8	0.00e+00	0	28	0	401604608	74	4617
2026-01-14 21:54:53.08	54.59	14.91	-53.4	-55.4	14.2	0.00e+00	0	29	0	406847488	73	4434
2026-01-14 21:54:56.08	55.19	15.02	-52.9	-54.8	14.4	0.00e+00	0	28	0	413138944	72	4352
2026-01-14 21:54:59.08	55.79	15.12	-52.5	-54.3	14.5	0.00e+00	0	28	0	418381824	71	4381
2026-01-14 21:55:02.41	56.46	15.23	-52.8	-54.7	14.4	0.00e+00	0	28	0	424673280	71	4559
2026-01-14 21:55:05.13	57.02	15.31	-52.8	-54.7	14.3	0.00e+00	0	28	0	429916160	71	4593
2026-01-14 21:55:08.43	57.70	15.42	-53.1	-55.1	14.2	0.00e+00	0	28	0	435159040	71	4788
2026-01-14 21:55:11.14	58.26	15.50	-52.9	-54.9	14.3	0.00e+00	0	28	0	440401920	71	4652
2026-01-14 21:55:14.45	58.94	15.59	-53.2	-55.2	14.1	0.00e+00	0	28	0	446693376	71	4855
2026-01-14 21:55:17.17	59.51	15.67	-53.4	-55.5	14.1	0.00e+00	0	28	0	451936256	72	4746
2026-01-14 21:55:20.45	60.20	15.76	-52.8	-54.7	14.4	0.00e+00	0	29	0	458227712	72	4316
2026-01-14 21:55:23.17	60.77	15.83	-52.8	-54.6	14.4	0.00e+00	0	28	0	463470592	71	4542
2026-01-14 21:55:26.45	61.47	15.91	-53.5	-55.5	14.1	0.00e+00	0	28	0	469762048	72	4758
2026-01-14 21:55:29.19	62.05	15.98	-53.5	-55.5	14.1	0.00e+00	0	28	0	475004928	72	4759
2026-01-14 21:55:32.49	62.76	16.06	-53.8	-56.0	13.9	0.00e+00	0	28	0	480247808	72	4994
2026-01-14 21:55:35.20	63.34	16.12	-54.1	-56.5	13.7	0.00e+00	0	28	0	485490688	73	4984
2026-01-14 21:55:38.48	64.05	16.19	-52.6	-54.4	14.4	0.00e+00	0	28	0	491782144	71	4427
2026-01-14 21:55:41.19	64.64	16.24	-52.7	-54.6	14.4	0.00e+00	0	28	0	497025024	71	4498
2026-01-14 21:55:44.47	65.35	16.30	-53.3	-55.4	14.1	0.00e+00	0	28	0	503316480	71	4959
2026-01-14 21:55:47.25	65.96	16.35	-52.8	-54.7	14.3	0.00e+00	0	29	0	508559360	71	4568
2026-01-14 21:55:50.55	66.68	16.40	-52.8	-54.7	14.3	0.00e+00	0	28	0	514850816	71	4570
2026-01-14 21:55:53.30	67.29	16.45	-53.4	-55.4	14.0	0.00e+00	0	29	0	520093696	71	4977
2026-01-14 21:55:56.59	68.01	16.49	-53.3	-55.4	14.1	0.00e+00	0	28	0	526385152	71	4957
2026-01-14 21:55:59.32	68.62	16.53	-53.9	-56.2	13.8	0.00e+00	0	28	0	530579456	73	4847
2026-01-14 21:56:02.61	69.35	16.56	-53.9	-56.1	13.9	0.00e+00	0	28	0	536870912	73	4790
2026-01-14 21:56:05.32	69.95	16.59	-53.9	-56.1	13.9	0.00e+00	0	28	0	542113792	73	4811
2026-01-14 21:56:08.61	70.68	16.62	-54.0	-56.3	13.8	0.00e+00	0	28	0	548405248	73	4923
2026-01-14 21:56:11.35	71.29	16.65	-53.7	-55.8	14.0	0.00e+00	0	28	0	553648128	73	4628
2026-01-14 21:56:14.66	72.03	16.67	-53.7	-55.9	14.0	0.00e+00	0	28	0	559939584	73	4665
2026-01-14 21:56:17.37	72.64	16.68	-53.5	-55.6	14.1	0.00e+00	0	28	0	565182464	73	4525
2026-01-14 21:56:20.66	73.38	16.70	-53.2	-55.2	14.3	0.00e+00	0	28	0	571473920	73	4298
2026-01-14 21:56:23.37	73.98	16.71	-53.3	-55.4	14.1	0.00e+00	0	28	0	575668224	72	4664
2026-01-14 21:56:26.66	74.72	16.71	-52.9	-54.8	14.4	0.00e+00	0	28	0	581959680	72	4355
2026-01-14 21:56:29.36	75.33	16.71	-52.8	-54.7	14.4	0.00e+00	0	28	0	587202560	72	4320
2026-01-14 21:56:32.67	76.07	16.71	-53.3	-55.4	14.1	0.00e+00	0	28	0	593494016	72	4671
2026-01-14 21:56:35.39	76.68	16.71	-53.0	-55.0	14.3	0.00e+00	0	28	0	598736896	72	4444
2026-01-14 21:56:38.68	77.41	16.69	-53.4	-55.5	14.1	0.00e+00	0	29	0	605028352	72	4711
2026-01-14 21:56:41.42	78.03	16.68	-53.4	-55.6	14.1	0.00e+00	0	28	0	610271232	72	4760
2026-01-14 21:56:44.72	78.77	16.66	-53.3	-55.4	14.2	0.00e+00	0	28	0	616562688	72	4653
2026-01-14 21:56:47.46	79.38	16.65	-53.7	-55.9	13.9	0.00e+00	0	28	0	620756992	72	4942
2026-01-14 21:56:50.75	80.11	16.62	-54.0	-56.3	13.8	0.00e+00	0	28	0	627048448	73	4925
2026-01-14 21:56:53.51	80.73	16.59	-53.7	-55.9	14.0	0.00e+00	0	29	0	632291328	73	4652
2026-01-14 21:56:56.81	81.46	16.56	-52.8	-54.8	14.4	0.00e+00	0	28	0	638582784	72	4341
2026-01-14 21:56:59.53	82.06	16.53	-52.9	-54.8	14.4	0.00e+00	0	28	0	643825664	72	4360
2026-01-14 21:57:02.84	82.80	16.48	-53.1	-55.1	14.3	0.00e+00	0	28	0	650117120	72	4517
2026-01-14 21:57:05.58	83.40	16.44	-53.3	-55.4	14.1	0.00e+00	0	28	0	655360000	72	4677
2026-01-14 21:57:08.86	84.12	16.39	-53.3	-55.4	14.1	0.00e+00	0	28	0	661651456	72	4669
2026-01-14 21:57:11.59	84.72	16.35	-53.1	-55.1	14.3	0.00e+00	0	28	0	666894336	72	4504
2026-01-14 21:57:14.88	85.44	16.29	-52.6	-54.4	14.5	0.00e+00	0	28	0	673185792	71	4436
2026-01-14 21:57:17.59	86.03	16.24	-52.6	-54.5	14.4	0.00e+00	0	28	0	677380096	71	4471
2026-01-14 21:57:20.90	86.75	16.17	-52.5	-54.3	14.5	0.00e+00	0	28	0	683671552	71	4379
2026-01-14 21:57:23.61	87.34	16.11	-52.5	-54.4	14.5	0.00e+00	0	28	0	688914432	71	4398
2026-01-14 21:57:26.89	88.04	16.04	-52.9	-54.9	14.3	0.00e+00	0	28	0	695205888	71	4660
2026-01-14 21:57:29.61	88.63	15.98	-52.9	-54.8	14.3	0.00e+00	0	29	0	700448768	71	4630
2026-01-14 21:57:32.90	89.33	15.90	-52.6	-54.5	14.4	0.00e+00	0	28	0	706740224	71	4444
2026-01-14 21:57:35.62	89.91	15.83	-52.8	-54.7	14.4	0.00e+00	0	28	0	711983104	71	4546
2026-01-14 21:57:38.92	90.60	15.74	-52.4	-54.3	14.5	0.00e+00	0	28	0	717225984	71	4347
2026-01-14 21:57:41.64	91.18	15.67	-52.0	-53.7	14.6	0.00e+00	0	28	0	722468864	70	4329
2026-01-14 21:57:44.94	91.87	15.57	-52.0	-53.8	14.6	0.00e+00	0	28	0	728760320	70	4347
2026-01-14 21:57:47.66	92.43	15.49	-52.4	-54.2	14.5	0.00e+00	0	28	0	734003200	70	4549
2026-01-14 21:57:50.95	93.11	15.39	-52.4	-54.1	14.4	0.00e+00	0	28	0	740294656	70	4544
2026-01-14 21:57:53.67	93.67	15.31	-52.3	-54.0	14.5	0.00e+00	0	28	0	745537536	70	4486
2026-01-14 21:57:56.91	94.33	15.20	-52.7	-54.6	14.3	0.00e+00	0	29	0	751828992	70	4799
2026-01-14 21:57:59.76	94.91	15.11	-52.5	-54.3	14.4	0.00e+00	0	29	0	757071872	70	4640
2026-01-14 21:58:02.89	95.54	15.00	-52.3	-54.1	14.5	0.00e+00	0	28	0	762314752	70	4517
2026-01-14 21:58:05.75	96.12	14.91	-52.1	-53.9	14.6	0.00e+00	0	29	0	767557632	70	4405
2026-01-14 21:58:08.89	96.74	14.79	-52.4	-54.3	14.4	0.00e+00	0	28	0	773849088	70	4606
2026-01-14 21:58:11.74	97.30	14.69	-52.5	-54.4	14.4	0.00e+00	0	28	0	779091968	70	4668
2026-01-14 21:58:14.89	97.92	14.57	-52.7	-54.6	14.3	0.00e+00	0	29	0	785383424	70	4796
2026-01-14 21:58:17.75	98.48	14.47	-53.3	-55.4	14.0	0.00e+00	0	29	0	790626304	71	4935
2026-01-14 21:58:20.90	99.09	14.34	-53.8	-56.0	13.8	0.00e+00	0	28	0	796917760	72	5041
2026-01-14 21:58:23.74	99.63	14.23	-53.5	-55.6	14.0	0.00e+00	0	28	0	802160640	72	4780
2026-01-14 21:58:26.89	100.23	14.11	-53.1	-55.2	14.2	0.00e+00	0	29	0	807403520	72	4550
2026-01-14 21:58:29.75	100.77	13.99	-53.3	-55.4	14.1	0.00e+00	0	28	0	812646400	72	4667
2026-01-14 21:58:32.88	101.36	13.86	-53.7	-55.9	13.9	0.00e+00	0	28	0	818937856	72	4975
2026-01-14 21:58:35.72	101.88	13.74	-53.4	-55.5	14.1	0.00e+00	0	29	0	824180736	72	4714
2026-01-14 21:58:38.87	102.47	13.61	-53.6	-55.8	13.9	0.00e+00	0	28	0	830472192	72	4877
2026-01-14 21:58:41.73	102.99	13.49	-54.1	-56.5	13.7	0.00e+00	0	28	0	835715072	73	4996
2026-01-14 21:58:44.87	103.56	13.35	-54.2	-56.6	13.6	0.00e+00	0	28	0	840957952	73	5085
2026-01-14 21:58:47.73	104.07	13.22	-54.2	-56.6	13.6	0.00e+00	0	28	0	847249408	73	5094
2026-01-14 21:58:50.86	104.63	13.08	-54.4	-56.9	13.5	0.00e+00	0	28	0	852492288	74	4930
2026-01-14 21:58:53.72	105.13	12.95	-53.9	-56.1	13.9	0.00e+00	0	29	0	857735168	74	4542
2026-01-14 21:58:56.87	105.68	12.81	-53.5	-55.6	14.1	0.00e+00	0	28	0	864026624	73	4527
2026-01-14 21:58:59.71	106.18	12.68	-53.8	-56.0	13.9	0.00e+00	0	29	0	869269504	73	4753
2026-01-14 21:59:02.85	106.72	12.53	-54.0	-56.3	13.7	0.00e+00	0	29	0	875560960	73	4908
2026-01-14 21:59:05.71	107.20	12.40	-54.2	-56.6	13.6	0.00e+00	0	29	0	880803840	73	5075
2026-01-14 21:59:08.85	107.73	12.25	-54.4	-57.0	13.5	0.00e+00	0	28	0	886046720	74	4986
2026-01-14 21:59:11.70	108.21	12.11	-54.1	-56.5	13.7	0.00e+00	0	29	0	891289600	74	4723
2026-01-14 21:59:14.85	108.73	11.96	-54.0	-56.4	13.8	0.00e+00	0	28	0	897581056	74	4655
2026-01-14 21:59:17.71	109.20	11.82	-54.2	-56.6	13.7	0.00e+00	0	28	0	902823936	74	4800
2026-01-14 21:59:20.85	109.71	11.67	-54.0	-56.3	13.8	0.00e+00	0	28	0	909115392	74	4643
2026-01-14 21:59:23.70	110.17	11.53	-53.8	-56.1	13.9	0.00e+00	0	28	0	914358272	74	4517
2026-01-14 21:59:26.85	110.67	11.37	-53.2	-55.2	14.2	0.00e+00	0	29	0	919601152	72	4595
2026-01-14 21:59:29.68	111.12	11.23	-53.3	-55.3	14.1	0.00e+00	0	28	0	925892608	72	4645
2026-01-14 21:59:32.83	111.61	11.08	-53.4	-55.5	14.0	0.00e+00	0	28	0	931135488	72	4741
2026-01-14 21:59:35.68	112.05	10.93	-53.1	-55.0	14.3	0.00e+00	0	28	0	936378368	72	4492
2026-01-14 21:59:38.81	112.53	10.78	-53.2	-55.2	14.2	0.00e+00	0	28	0	942669824	72	4571
2026-01-14 21:59:41.66	112.96	10.63	-53.5	-55.7	14.0	0.00e+00	0	29	0	947912704	72	4822
2026-01-14 21:59:44.80	113.43	10.47	-53.4	-55.5	14.0	0.00e+00	0	28	0	954204160	72	4743
2026-01-14 21:59:47.64	113.85	10.33	-53.1	-55.2	14.2	0.00e+00	0	28	0	959447040	72	4550
2026-01-14 21:59:50.78	114.32	10.17	-52.5	-54.3	14.5	0.00e+00	0	28	0	964689920	71	4388
2026-01-14 21:59:53.63	114.73	10.02	-52.7	-54.7	14.3	0.00e+00	0	28	0	969932800	71	4554
2026-01-14 21:59:56.77	115.18	9.86	-53.0	-55.0	14.2	0.00e+00	0	29	0	976224256	71	4733
2026-01-14 21:59:59.61	115.59	9.71	-53.3	-55.4	14.0	0.00e+00	0	28	0	981467136	71	4942
2026-01-14 22:00:02.76	116.03	9.55	-53.3	-55.5	13.9	0.00e+00	0	29	0	987758592	71	4987
2026-01-14 22:00:05.62	116.43	9.40	-53.6	-55.8	13.8	0.00e+00	0	28	0	993001472	72	4916
2026-01-14 22:00:08.76	116.87	9.23	-53.6	-55.8	13.9	0.00e+00	0	28	0	998244352	72	4910
2026-01-14 22:00:11.61	117.26	9.09	-53.1	-55.2	14.1	0.00e+00	0	28	0	1003487232	72	4575
2026-01-14 22:00:14.75	117.68	8.92	-52.8	-54.8	14.3	0.00e+00	0	28	0	1009778688	72	4363
2026-01-14 22:00:17.60	118.07	8.77	-53.2	-55.3	14.0	0.00e+00	0	28	0	1015021568	72	4615
2026-01-14 22:00:20.74	118.48	8.61	-53.8	-56.2	13.6	0.00e+00	0	28	0	1021313024	72	5139
2026-01-14 22:00:23.61	118.86	8.46	-53.8	-56.2	13.6	0.00e+00	0	28	0	1026555904	73	4851
2026-01-14 22:00:26.74	119.27	8.29	-53.6	-55.9	13.8	0.00e+00	0	28	0	1032847360	73	4692
2026-01-14 22:00:29.59	119.64	8.14	-53.7	-56.1	13.7	0.00e+00	0	28	0	1038090240	73	4787
2026-01-14 22:00:32.74	120.04	7.98	-54.0	-56.6	13.5	0.00e+00	0	29	0	1043333120	73	5047
2026-01-14 22:00:35.61	120.40	7.83	-54.2	-56.9	13.3	0.00e+00	0	29	0	1048576000	73	5219
2026-01-14 22:00:38.76	120.79	7.66	-54.0	-56.6	13.4	0.00e+00	0	28	0	1054867456	73	5080
2026-01-14 22:00:41.63	121.15	7.51	-54.2	-56.9	13.2	0.00e+00	0	28	0	1060110336	73	5261
2026-01-14 22:00:44.76	121.53	7.34	-54.4	-57.3	13.1	0.00e+00	0	29	0	1066401792	74	5188
2026-01-14 22:00:47.63	121.87	7.19	-54.5	-57.4	13.0	0.00e+00	0	29	0	1071644672	74	5273
2026-01-14 22:00:50.76	122.25	7.03	-54.5	-57.4	13.0	0.00e+00	0	29	0	1076887552	74	5267
2026-01-14 22:00:53.62	122.59	6.88	-54.2	-56.9	13.3	0.00e+00	0	29	0	1083179008	74	4950
2026-01-14 22:00:56.76	122.96	6.71	-53.7	-56.2	13.7	0.00e+00	0	29	0	1088421888	74	4579
2026-01-14 22:00:59.61	123.29	6.56	-53.9	-56.5	13.5	0.00e+00	0	29	0	1093664768	74	4750
2026-01-14 22:01:02.75	123.65	6.40	-54.6	-57.6	12.8	0.00e+00	0	29	0	1099956224	74	5402
2026-01-14 22:01:05.60	123.97	6.25	-54.9	-58.1	12.5	0.00e+00	0	29	0	1105199104	74	5703
2026-01-14 22:01:08.74	124.32	6.08	-54.6	-57.6	12.9	0.00e+00	0	28	0	1111490560	75	5090
2026-01-14 22:01:11.61	124.64	5.93	-54.1	-56.9	13.2	0.00e+00	0	29	0	1116733440	74	4942
2026-01-14 22:01:14.75	124.99	5.77	-54.2	-57.1	13.1	0.00e+00	0	29	0	1121976320	74	5077
2026-01-14 22:01:17.62	125.30	5.62	-54.3	-57.2	13.0	0.00e+00	0	28	0	1127219200	74	5135
2026-01-14 22:01:20.76	125.64	5.45	-54.7	-58.0	12.5	0.00e+00	0	29	0	1133510656	74	5610
2026-01-14 22:01:23.62	125.95	5.30	-54.6	-57.8	12.7	0.00e+00	0	28	0	1138753536	74	5482
2026-01-14 22:01:26.76	126.28	5.14	-54.7	-57.9	12.5	7.00e-07	0	29	0	1145044992	74	5573
2026-01-14 22:01:29.62	126.58	4.99	-54.8	-58.2	12.3	0.00e+00	0	29	0	1150287872	74	5754
2026-01-14 22:01:32.77	126.90	4.83	-59.2	-75.2	3.8	1.49e+00	0	29	104	1151336448	83	24386
2026-01-14 22:01:35.64	127.20	4.68	-59.9	-75.9	3.8	1.49e+00	0	29	104	1151336448	84	24890
2026-01-14 22:01:38.78	127.52	4.52	-60.2	-76.2	3.8	1.49e+00	0	29	104	1151336448	85	24342
2026-01-14 22:01:41.64	127.80	4.37	-60.3	-76.4	3.8	1.49e+00	0	29	104	1151336448	85	24828
2026-01-14 22:01:44.80	128.12	4.21	-60.5	-76.5	3.8	1.49e+00	0	29	104	1151336448	86	23790
2026-01-14 22:01:47.66	128.40	4.06	-60.6	-76.6	3.8	1.49e+00	0	29	104	1151336448	86	24127
2026-01-14 22:01:50.81	128.71	3.90	-60.6	-76.7	3.8	1.49e+00	0	29	104	1151336448	86	24314
2026-01-14 22:01:53.68	128.98	3.75	-60.7	-76.7	3.9	1.49e+00	0	29	104	1151336448	86	24367
2026-01-14 22:01:56.82	129.28	3.59	-60.6	-76.7	3.8	1.49e+00	0	29	104	1151336448	86	24362
2026-01-14 22:01:59.67	129.55	3.44	-60.6	-76.7	3.8	1.49e+00	0	29	104	1151336448	86	24265
2026-01-14 22:02:02.82	129.85	3.28	-60.6	-76.7	3.8	1.49e+00	0	29	104	1151336448	86	24182
2026-01-14 22:02:05.68	130.11	3.14	-60.6	-76.6	3.8	1.49e+00	0	29	104	1151336448	86	24078
2026-01-14 22:02:08.83	130.40	2.98	-60.5	-76.6	3.8	1.49e+00	0	29	104	1151336448	86	24093
2026-01-14 22:02:11.69	130.66	2.83	-60.6	-76.6	3.8	1.49e+00	0	29	104	1151336448	86	24026
2026-01-14 22:02:14.83	130.95	2.67	-60.5	-76.6	3.8	1.49e+00	0	29	104	1151336448	86	23949
2026-01-14 22:02:17.70	131.20	2.53	-60.5	-76.6	3.8	1.49e+00	0	29	104	1151336448	86	23906
2026-01-14 22:02:20.85	131.48	2.37	-60.5	-76.6	3.8	1.49e+00	0	29	104	1151336448	86	23857
2026-01-14 22:02:23.72	131.73	2.22	-60.5	-76.5	3.8	1.49e+00	0	28	104	1151336448	86	23810
2026-01-14 22:02:26.86	132.00	2.06	-60.5	-76.6	3.8	1.49e+00	0	29	104	1151336448	86	23913

#Closed at: 2026-01-14 22:02:28
#Recorded file [1151 MB]: D:/lorett/data/31004_260115_005029.dat