passes_logs/2026/01/14/R3.2S_Murmansk/R3.2S_Murmansk__20260114_045652_AQUA_rec.log

#Pass ID: 20260114_045652_AQUA
#Satellite: AQUA
#Configuration: AQUA
#almurnet v.1.7.20251203
#Start time: 2026-01-14 04:56:54

#Version: 2.2.20231116
#Station: R3.2S_Murmansk
#Location: 33.079688 lon 68.888172 lat
#TLE: 1 27424U 02022A   26013.58555111  .00000773  00000+0  16469-3 0  9993
#TLE: 2 27424  98.4079 339.9892 0002045  80.0365 334.6894 14.61818766260681

#Time	Az	El	Level	Level2	SNR	BER	BlckErr	Temp	State	Recorded	gain1	gain2
2026-01-14 04:56:54.49	36.33	2.14	-54.0	-73.4	3.8	7.47e-01	0	25	0	0	75	36220
2026-01-14 04:56:57.52	36.14	2.32	-54.0	-73.4	3.8	7.46e-01	0	25	104	0	75	36179
2026-01-14 04:57:00.54	35.94	2.51	-54.0	-73.4	3.8	7.48e-01	0	26	104	0	75	36255
2026-01-14 04:57:03.57	35.73	2.69	-54.0	-73.4	3.8	7.44e-01	0	26	104	0	75	36333
2026-01-14 04:57:06.60	35.52	2.88	-54.0	-73.4	3.8	7.46e-01	0	26	104	0	75	36243
2026-01-14 04:57:09.63	35.32	3.07	-54.0	-73.4	3.8	7.50e-01	0	26	104	0	75	36341
2026-01-14 04:57:12.65	35.10	3.25	-54.0	-73.4	3.8	7.47e-01	0	26	104	0	75	36377
2026-01-14 04:57:15.68	34.89	3.44	-54.0	-73.4	3.8	7.47e-01	0	26	104	0	75	36342
2026-01-14 04:57:18.70	34.67	3.63	-54.0	-73.4	3.8	7.46e-01	0	26	104	0	75	36401
2026-01-14 04:57:21.73	34.45	3.82	-54.0	-73.4	3.8	7.49e-01	0	26	104	0	75	36385
2026-01-14 04:57:24.76	34.22	4.02	-54.0	-73.4	3.8	7.46e-01	0	26	104	0	75	36352
2026-01-14 04:57:27.79	33.99	4.21	-54.0	-73.4	3.8	7.46e-01	0	26	104	0	75	36293
2026-01-14 04:57:30.81	33.76	4.41	-54.0	-73.4	3.8	7.43e-01	0	26	104	0	75	36402
2026-01-14 04:57:33.84	33.52	4.60	-54.1	-73.4	3.8	7.49e-01	0	26	104	0	75	36440
2026-01-14 04:57:36.86	33.28	4.80	-54.0	-73.4	3.8	7.47e-01	0	26	104	0	75	36436
2026-01-14 04:57:39.89	33.04	5.00	-54.1	-73.4	3.8	7.49e-01	0	26	104	0	75	36493
2026-01-14 04:57:42.92	32.79	5.20	-54.1	-73.4	3.8	7.45e-01	0	26	104	0	75	36520
2026-01-14 04:57:45.94	32.54	5.40	-54.0	-73.4	3.8	7.47e-01	0	26	104	0	75	36347
2026-01-14 04:57:48.97	32.29	5.60	-54.1	-73.4	3.8	7.47e-01	0	26	104	0	75	36447
2026-01-14 04:57:52.00	32.03	5.80	-54.1	-73.4	3.8	7.49e-01	0	27	104	0	75	36488
2026-01-14 04:57:55.02	31.76	6.00	-54.1	-73.4	3.8	7.46e-01	0	26	104	0	75	36364
2026-01-14 04:57:58.05	31.49	6.21	-54.0	-73.4	3.8	7.45e-01	0	27	104	0	75	36470
2026-01-14 04:58:01.07	31.22	6.42	-54.1	-73.5	3.8	7.48e-01	0	27	104	0	75	36594
2026-01-14 04:58:04.10	30.95	6.62	-54.1	-73.4	3.8	7.48e-01	0	27	104	0	75	36477
2026-01-14 04:58:07.13	30.66	6.83	-54.1	-73.4	3.8	7.47e-01	0	27	104	0	75	36305
2026-01-14 04:58:10.15	30.38	7.04	-54.1	-73.4	3.8	7.45e-01	0	27	104	0	75	36429
2026-01-14 04:58:13.19	30.09	7.26	-54.1	-73.4	3.8	7.45e-01	0	27	104	0	75	36506
2026-01-14 04:58:16.21	29.79	7.47	-54.1	-73.4	3.8	7.44e-01	0	27	104	0	75	36516
2026-01-14 04:58:19.24	29.49	7.68	-54.1	-73.5	3.9	7.45e-01	0	27	104	0	75	36547
2026-01-14 04:58:22.27	29.19	7.90	-54.1	-73.5	3.8	7.47e-01	0	27	104	0	75	36577
2026-01-14 04:58:25.29	28.88	8.12	-54.1	-73.4	3.8	7.50e-01	0	27	104	0	75	36465
2026-01-14 04:58:28.32	28.56	8.33	-54.1	-73.5	3.8	7.48e-01	0	27	104	0	75	36561
2026-01-14 04:58:31.35	28.24	8.55	-54.1	-73.5	3.8	7.48e-01	0	27	104	0	75	36577
2026-01-14 04:58:34.38	27.91	8.77	-54.1	-73.5	3.8	7.44e-01	0	27	104	0	75	36632
2026-01-14 04:58:37.40	27.58	9.00	-54.1	-73.5	3.8	7.47e-01	0	27	104	0	75	36552
2026-01-14 04:58:40.43	27.25	9.22	-54.1	-73.4	3.8	7.47e-01	0	27	104	0	75	36514
2026-01-14 04:58:43.46	26.90	9.45	-54.1	-73.4	3.8	7.45e-01	0	27	104	0	75	36491
2026-01-14 04:58:46.48	26.55	9.67	-54.1	-73.5	3.8	7.45e-01	0	27	104	0	75	36651
2026-01-14 04:58:49.51	26.20	9.90	-54.1	-73.5	3.8	7.47e-01	0	27	104	0	75	36682
2026-01-14 04:58:52.53	25.84	10.13	-54.1	-73.5	3.8	7.46e-01	0	27	104	0	75	36746
2026-01-14 04:58:55.56	25.47	10.36	-54.1	-73.5	3.8	7.47e-01	0	27	104	0	75	36573
2026-01-14 04:58:58.60	25.09	10.59	-54.1	-73.5	3.8	7.44e-01	0	27	104	0	75	36649
2026-01-14 04:59:01.62	24.71	10.82	-54.1	-73.5	3.8	7.48e-01	0	27	104	0	75	36687
2026-01-14 04:59:04.65	24.32	11.05	-54.1	-73.5	3.8	7.47e-01	0	27	104	0	75	36673
2026-01-14 04:59:07.67	23.93	11.29	-54.1	-73.5	3.8	7.46e-01	0	27	104	0	75	36637
2026-01-14 04:59:10.70	23.53	11.53	-54.3	-73.6	3.8	7.46e-01	0	27	104	0	76	35190
2026-01-14 04:59:13.73	23.12	11.76	-54.2	-73.6	3.8	7.46e-01	0	27	104	0	76	35135
2026-01-14 04:59:16.75	22.70	12.00	-54.2	-73.6	3.8	7.43e-01	0	27	104	0	76	35108
2026-01-14 04:59:19.77	22.28	12.24	-54.2	-73.6	3.8	7.48e-01	0	27	104	0	76	35107
2026-01-14 04:59:22.80	21.85	12.48	-54.2	-73.6	3.8	7.48e-01	0	27	104	0	76	35148
2026-01-14 04:59:25.83	21.41	12.72	-54.2	-73.6	3.8	7.45e-01	0	27	104	0	76	35065
2026-01-14 04:59:28.86	20.96	12.97	-54.2	-73.6	3.8	7.46e-01	0	27	104	0	76	35183
2026-01-14 04:59:31.88	20.50	13.21	-54.2	-73.6	3.8	7.45e-01	0	27	104	0	76	35181
2026-01-14 04:59:34.91	20.04	13.46	-54.2	-73.6	3.8	7.45e-01	0	27	104	0	76	35219
2026-01-14 04:59:37.93	19.57	13.70	-54.2	-73.6	3.8	7.46e-01	0	27	104	0	76	35257
2026-01-14 04:59:40.96	19.08	13.95	-54.2	-73.7	3.8	7.46e-01	0	27	104	0	76	35316
2026-01-14 04:59:43.98	18.60	14.19	-54.3	-73.6	3.8	7.45e-01	0	27	104	0	76	35242
2026-01-14 04:59:47.00	18.10	14.44	-54.2	-73.6	3.8	7.45e-01	0	27	104	0	76	35169
2026-01-14 04:59:50.03	17.59	14.69	-54.2	-73.6	3.8	7.43e-01	0	27	104	0	76	35242
2026-01-14 04:59:53.06	17.07	14.94	-54.3	-73.6	3.8	7.45e-01	0	27	104	0	76	35214
2026-01-14 04:59:56.09	16.54	15.19	-54.2	-73.6	3.8	7.46e-01	0	27	104	0	76	35146
2026-01-14 04:59:59.12	16.01	15.44	-54.3	-73.6	3.8	7.44e-01	0	27	104	0	76	35162
2026-01-14 05:00:02.14	15.46	15.69	-54.2	-73.6	3.8	7.46e-01	0	27	104	0	76	35171
2026-01-14 05:00:05.17	14.90	15.94	-54.2	-73.6	3.8	7.47e-01	0	27	104	0	76	35221
2026-01-14 05:00:08.19	14.34	16.19	-54.2	-73.6	3.8	7.48e-01	0	27	104	0	76	35167
2026-01-14 05:00:11.22	13.76	16.45	-54.3	-73.6	3.8	7.46e-01	0	27	104	0	76	35254
2026-01-14 05:00:14.25	13.17	16.70	-54.2	-73.6	3.9	7.48e-01	0	27	104	0	76	35180
2026-01-14 05:00:17.27	12.57	16.95	-54.3	-73.6	3.8	7.46e-01	0	27	104	0	76	35258
2026-01-14 05:00:20.30	11.96	17.20	-54.2	-73.6	3.8	7.46e-01	0	27	104	0	76	35209
2026-01-14 05:00:23.33	11.34	17.45	-54.3	-73.6	3.8	7.47e-01	0	27	104	0	76	35228
2026-01-14 05:00:26.35	10.71	17.70	-54.3	-73.6	3.8	7.47e-01	0	27	104	0	76	35249
2026-01-14 05:00:29.37	10.07	17.95	-54.3	-73.6	3.8	7.48e-01	0	27	104	0	76	35203
2026-01-14 05:00:32.40	9.42	18.20	-54.3	-73.6	3.8	7.50e-01	0	27	104	0	76	35196
2026-01-14 05:00:35.42	8.75	18.44	-54.3	-73.6	3.8	7.49e-01	0	27	104	0	76	35203
2026-01-14 05:00:38.45	8.07	18.69	-54.3	-73.6	3.8	7.44e-01	0	27	104	0	76	35185
2026-01-14 05:00:41.48	7.38	18.94	-54.3	-73.6	3.8	7.48e-01	0	27	104	0	76	35267
2026-01-14 05:00:44.51	6.68	19.18	-54.2	-73.6	3.8	7.45e-01	0	27	104	0	76	35132
2026-01-14 05:00:47.54	5.97	19.42	-54.2	-73.6	3.8	7.44e-01	0	27	104	0	76	35194
2026-01-14 05:00:50.57	5.24	19.66	-54.3	-73.7	3.8	7.50e-01	0	27	104	0	76	35334
2026-01-14 05:00:53.60	4.50	19.90	-54.3	-73.6	3.8	7.45e-01	0	27	104	0	76	35195
2026-01-14 05:00:56.63	3.75	20.13	-54.3	-73.7	3.8	7.50e-01	0	27	104	0	76	35285
2026-01-14 05:00:59.66	2.99	20.37	-54.3	-73.6	3.8	7.42e-01	0	27	104	0	76	35205
2026-01-14 05:01:02.68	2.22	20.59	-54.3	-73.7	3.8	7.45e-01	0	27	104	0	76	35306
2026-01-14 05:01:05.71	1.43	20.82	-54.3	-73.6	3.8	7.46e-01	0	27	104	0	76	35244
2026-01-14 05:01:08.74	0.63	21.04	-54.3	-73.7	3.8	7.47e-01	0	27	104	0	76	35333
2026-01-14 05:01:11.76	359.82	21.26	-54.3	-73.6	3.8	7.44e-01	0	27	104	0	76	35246
2026-01-14 05:01:14.79	359.00	21.48	-54.3	-73.6	3.8	7.48e-01	0	27	104	0	76	35235
2026-01-14 05:01:17.81	358.16	21.69	-54.3	-73.7	3.8	7.47e-01	0	27	104	0	76	35345
2026-01-14 05:01:20.85	357.31	21.90	-54.3	-73.6	3.8	7.49e-01	0	27	104	0	76	35227
2026-01-14 05:01:23.88	356.45	22.10	-54.3	-73.7	3.8	7.48e-01	0	27	104	0	76	35291
2026-01-14 05:01:26.90	355.58	22.29	-54.3	-73.7	3.8	7.46e-01	0	27	104	0	76	35402
2026-01-14 05:01:29.93	354.70	22.49	-54.3	-73.7	3.8	7.48e-01	0	27	104	0	76	35343
2026-01-14 05:01:32.96	353.80	22.67	-54.3	-73.6	3.8	7.43e-01	0	27	104	0	76	35238
2026-01-14 05:01:35.98	352.90	22.85	-54.3	-73.6	3.8	7.47e-01	0	27	104	0	76	35280
2026-01-14 05:01:39.01	351.98	23.03	-54.3	-73.7	3.8	7.45e-01	0	27	104	0	76	35332
2026-01-14 05:01:42.04	351.05	23.19	-54.3	-73.7	3.8	7.46e-01	0	27	104	0	76	35320
2026-01-14 05:01:45.07	350.12	23.35	-54.3	-73.6	3.8	7.44e-01	0	27	104	0	76	35243
2026-01-14 05:01:48.09	349.17	23.51	-54.3	-73.6	3.8	7.44e-01	0	27	104	0	76	35275
2026-01-14 05:01:51.12	348.21	23.65	-54.3	-73.7	3.8	7.45e-01	0	27	104	0	76	35284
2026-01-14 05:01:54.15	347.25	23.79	-54.3	-73.6	3.8	7.45e-01	0	27	104	0	76	35261
2026-01-14 05:01:57.18	346.27	23.92	-54.3	-73.6	3.8	7.45e-01	0	27	104	0	76	35282
2026-01-14 05:02:00.20	345.29	24.05	-54.3	-73.6	3.8	7.46e-01	0	27	104	0	76	35237
2026-01-14 05:02:03.23	344.30	24.16	-54.3	-73.6	3.8	7.48e-01	0	28	104	0	76	35216
2026-01-14 05:02:06.25	343.30	24.27	-54.3	-73.7	3.8	7.44e-01	0	27	104	0	76	35295
2026-01-14 05:02:09.28	342.29	24.36	-54.3	-73.7	3.8	7.47e-01	0	27	104	0	76	35371
2026-01-14 05:02:12.31	341.28	24.45	-54.3	-73.7	3.8	7.46e-01	0	27	104	0	76	35341
2026-01-14 05:02:15.34	340.26	24.53	-54.3	-73.7	3.8	7.48e-01	0	27	104	0	76	35348
2026-01-14 05:02:18.36	339.24	24.60	-54.3	-73.7	3.8	7.47e-01	0	27	104	0	76	35299
2026-01-14 05:02:21.39	338.21	24.66	-54.3	-73.6	3.9	7.46e-01	0	27	104	0	76	35221
2026-01-14 05:02:24.41	337.18	24.71	-54.3	-73.7	3.8	7.44e-01	0	27	104	0	76	35344
2026-01-14 05:02:27.44	336.15	24.75	-54.3	-73.6	3.8	7.44e-01	0	27	104	0	76	35272
2026-01-14 05:02:30.47	335.11	24.78	-54.3	-73.7	3.8	7.50e-01	0	27	104	0	76	35375
2026-01-14 05:02:33.50	334.07	24.80	-54.3	-73.6	3.8	7.49e-01	0	27	104	0	76	35247
2026-01-14 05:02:36.52	333.04	24.82	-54.3	-73.6	3.8	7.49e-01	0	27	104	0	76	35261
2026-01-14 05:02:39.55	331.99	24.82	-54.3	-73.7	3.8	7.45e-01	0	27	104	0	76	35326
2026-01-14 05:02:42.57	330.96	24.81	-54.3	-73.7	3.8	7.46e-01	0	27	104	0	76	35357
2026-01-14 05:02:45.60	329.92	24.79	-54.3	-73.6	3.8	7.45e-01	0	27	104	0	76	35244
2026-01-14 05:02:48.63	328.88	24.76	-54.3	-73.7	3.8	7.48e-01	0	27	104	0	76	35318
2026-01-14 05:02:51.66	327.84	24.72	-54.3	-73.6	3.8	7.49e-01	0	28	104	0	76	35214
2026-01-14 05:02:54.69	326.81	24.68	-54.3	-73.6	3.8	7.46e-01	0	27	104	0	76	35233
2026-01-14 05:02:57.72	325.78	24.62	-54.3	-73.6	3.8	7.47e-01	0	27	104	0	76	35209
2026-01-14 05:03:00.74	324.76	24.55	-54.3	-73.6	3.8	7.46e-01	0	27	104	0	76	35280
2026-01-14 05:03:03.77	323.74	24.48	-54.3	-73.7	3.8	7.47e-01	0	27	104	0	76	35324
2026-01-14 05:03:06.79	322.72	24.39	-54.3	-73.7	3.8	7.47e-01	0	27	104	0	76	35379
2026-01-14 05:03:09.82	321.71	24.30	-54.3	-73.7	3.8	7.47e-01	0	27	104	0	76	35414
2026-01-14 05:03:12.84	320.72	24.19	-54.3	-73.7	3.8	7.46e-01	0	27	104	0	76	35307
2026-01-14 05:03:15.87	319.72	24.08	-54.3	-73.7	3.8	7.47e-01	0	27	104	0	76	35320
2026-01-14 05:03:18.89	318.74	23.96	-54.3	-73.7	3.8	7.46e-01	0	27	104	0	76	35407
2026-01-14 05:03:21.92	317.76	23.83	-54.3	-73.7	3.8	7.49e-01	0	27	104	0	76	35467
2026-01-14 05:03:24.95	316.78	23.70	-54.3	-73.7	3.8	7.48e-01	0	27	104	0	76	35381
2026-01-14 05:03:27.97	315.83	23.55	-54.3	-73.7	3.8	7.45e-01	0	27	104	0	76	35348
2026-01-14 05:03:31.00	314.87	23.40	-54.3	-73.7	3.8	7.46e-01	0	27	104	0	76	35368
2026-01-14 05:03:34.02	313.93	23.24	-54.3	-73.7	3.8	7.47e-01	0	27	104	0	76	35419
2026-01-14 05:03:37.04	313.00	23.08	-54.3	-73.7	3.8	7.47e-01	0	27	104	0	76	35456
2026-01-14 05:03:40.07	312.08	22.91	-54.3	-73.7	3.8	7.45e-01	0	27	104	0	76	35336
2026-01-14 05:03:43.09	311.17	22.73	-54.3	-73.7	3.8	7.46e-01	0	27	104	0	76	35370
2026-01-14 05:03:46.12	310.28	22.54	-54.3	-73.7	3.8	7.46e-01	0	27	104	0	76	35390
2026-01-14 05:03:49.15	309.39	22.35	-54.3	-73.7	3.8	7.47e-01	0	27	104	0	76	35457
2026-01-14 05:03:52.17	308.51	22.16	-54.3	-73.7	3.8	7.44e-01	0	27	104	0	76	35303
2026-01-14 05:03:55.20	307.65	21.96	-54.3	-73.7	3.8	7.50e-01	0	27	104	0	76	35402
2026-01-14 05:03:58.23	306.79	21.75	-54.3	-73.7	3.8	7.51e-01	0	27	104	0	76	35318
2026-01-14 05:04:01.26	305.95	21.54	-54.3	-73.7	3.8	7.45e-01	0	27	104	0	76	35349
2026-01-14 05:04:04.29	305.12	21.33	-54.3	-73.7	3.8	7.46e-01	0	27	104	0	76	35378
2026-01-14 05:04:07.31	304.31	21.11	-54.3	-73.7	3.8	7.47e-01	0	27	104	0	76	35349
2026-01-14 05:04:10.33	303.51	20.89	-54.3	-73.7	3.8	7.45e-01	0	27	104	0	76	35294
2026-01-14 05:04:13.36	302.71	20.66	-54.3	-73.7	3.8	7.49e-01	0	27	104	0	76	35363
2026-01-14 05:04:16.39	301.93	20.43	-54.3	-73.7	3.8	7.41e-01	0	27	104	0	76	35400
2026-01-14 05:04:19.42	301.16	20.20	-54.3	-73.7	3.8	7.42e-01	0	27	104	0	76	35404
2026-01-14 05:04:22.45	300.41	19.97	-54.3	-73.7	3.8	7.45e-01	0	27	104	0	76	35358
2026-01-14 05:04:25.47	299.67	19.73	-54.3	-73.6	3.8	7.47e-01	0	27	104	0	76	35261
2026-01-14 05:04:28.49	298.94	19.49	-54.3	-73.7	3.8	7.45e-01	0	27	104	0	76	35314
2026-01-14 05:04:31.52	298.22	19.25	-54.3	-73.7	3.8	7.47e-01	0	27	104	0	76	35408
2026-01-14 05:04:34.54	297.51	19.01	-54.3	-73.7	3.8	7.47e-01	0	27	104	0	76	35366
2026-01-14 05:04:37.56	296.82	18.76	-54.3	-73.7	3.8	7.47e-01	0	27	104	0	76	35398
2026-01-14 05:04:40.59	296.14	18.52	-54.3	-73.7	3.8	7.47e-01	0	27	104	0	76	35360
2026-01-14 05:04:43.62	295.47	18.27	-54.3	-73.7	3.8	7.47e-01	0	27	104	0	76	35355
2026-01-14 05:04:46.64	294.81	18.02	-54.3	-73.7	3.8	7.46e-01	0	27	104	0	76	35412
2026-01-14 05:04:49.67	294.16	17.77	-54.3	-73.7	3.8	7.45e-01	0	27	104	0	76	35367
2026-01-14 05:04:52.69	293.52	17.52	-54.3	-73.7	3.8	7.45e-01	0	27	104	0	76	35410
2026-01-14 05:04:55.72	292.90	17.27	-54.3	-73.7	3.8	7.45e-01	0	27	104	0	76	35381
2026-01-14 05:04:58.75	292.28	17.02	-54.3	-73.7	3.8	7.44e-01	0	27	104	0	76	35395
2026-01-14 05:05:01.77	291.68	16.77	-54.3	-73.6	3.8	7.47e-01	0	28	104	0	76	35279
2026-01-14 05:05:04.80	291.09	16.52	-54.3	-73.7	3.8	7.43e-01	0	27	104	0	76	35407
2026-01-14 05:05:07.83	290.50	16.26	-54.3	-73.6	3.8	7.48e-01	0	27	104	0	76	35240
2026-01-14 05:05:10.85	289.93	16.01	-54.3	-73.7	3.8	7.46e-01	0	27	104	0	76	35368
2026-01-14 05:05:13.88	289.37	15.76	-54.3	-73.6	3.8	7.44e-01	0	27	104	0	76	35256
2026-01-14 05:05:16.91	288.82	15.51	-54.3	-73.7	3.8	7.48e-01	0	27	104	0	76	35340
2026-01-14 05:05:19.93	288.28	15.26	-54.3	-73.7	3.8	7.45e-01	0	27	104	0	76	35345
2026-01-14 05:05:22.96	287.75	15.01	-54.3	-73.7	3.8	7.49e-01	0	27	104	0	76	35332
2026-01-14 05:05:25.98	287.23	14.76	-54.3	-73.7	3.8	7.47e-01	0	27	104	0	76	35326
2026-01-14 05:05:29.01	286.71	14.51	-54.3	-73.6	3.8	7.46e-01	0	27	104	0	76	35214
2026-01-14 05:05:32.03	286.21	14.26	-54.3	-73.6	3.8	7.47e-01	0	28	104	0	76	35188
2026-01-14 05:05:35.06	285.72	14.01	-54.3	-73.6	3.8	7.48e-01	0	27	104	0	76	35235
2026-01-14 05:05:38.08	285.23	13.76	-54.3	-73.6	3.8	7.50e-01	0	27	104	0	76	35270
2026-01-14 05:05:41.11	284.75	13.52	-54.3	-73.6	3.8	7.44e-01	0	27	104	0	76	35235
2026-01-14 05:05:44.13	284.29	13.27	-54.3	-73.7	3.8	7.46e-01	0	27	104	0	76	35362
2026-01-14 05:05:47.16	283.83	13.03	-54.3	-73.7	3.8	7.42e-01	0	27	104	0	76	35405
2026-01-14 05:05:50.19	283.38	12.78	-54.3	-73.7	3.8	7.48e-01	0	27	104	0	76	35358
2026-01-14 05:05:53.22	282.93	12.54	-54.3	-73.7	3.8	7.47e-01	0	27	104	0	76	35386
2026-01-14 05:05:56.24	282.50	12.30	-54.3	-73.7	3.8	7.48e-01	0	27	104	0	76	35351
2026-01-14 05:05:59.27	282.07	12.06	-54.3	-73.7	3.8	7.46e-01	0	28	104	0	76	35368
2026-01-14 05:06:02.30	281.65	11.82	-54.3	-73.7	3.8	7.48e-01	0	27	104	0	76	35443
2026-01-14 05:06:05.32	281.24	11.58	-54.3	-73.7	3.8	7.50e-01	0	27	104	0	76	35317
2026-01-14 05:06:08.35	280.83	11.34	-54.3	-73.7	3.8	7.45e-01	0	27	104	0	76	35392
2026-01-14 05:06:11.38	280.43	11.11	-54.3	-73.7	3.8	7.47e-01	0	27	104	0	76	35335
2026-01-14 05:06:14.41	280.04	10.87	-54.3	-73.7	3.8	7.47e-01	0	27	104	0	76	35377
2026-01-14 05:06:17.42	279.66	10.64	-54.3	-73.7	3.8	7.46e-01	0	27	104	0	76	35372
2026-01-14 05:06:20.45	279.28	10.41	-54.3	-73.7	3.8	7.48e-01	0	27	104	0	76	35401
2026-01-14 05:06:23.48	278.91	10.18	-54.3	-73.7	3.8	7.45e-01	0	27	104	0	76	35411
2026-01-14 05:06:26.50	278.54	9.95	-54.3	-73.7	3.8	7.46e-01	0	27	104	0	76	35399
2026-01-14 05:06:29.53	278.18	9.72	-54.3	-73.7	3.8	7.46e-01	0	27	104	0	76	35311
2026-01-14 05:06:32.56	277.83	9.49	-54.3	-73.7	3.8	7.48e-01	0	27	104	0	76	35418
2026-01-14 05:06:35.58	277.48	9.27	-54.3	-73.7	3.8	7.47e-01	0	27	104	0	76	35446
2026-01-14 05:06:38.61	277.14	9.04	-54.3	-73.7	3.8	7.47e-01	0	28	104	0	76	35333
2026-01-14 05:06:41.63	276.81	8.82	-54.3	-73.7	3.8	7.47e-01	0	27	104	0	76	35315
2026-01-14 05:06:44.66	276.48	8.60	-54.3	-73.6	3.8	7.47e-01	0	27	104	0	76	35264
2026-01-14 05:06:47.69	276.15	8.38	-54.3	-73.7	3.8	7.46e-01	0	27	104	0	76	35414
2026-01-14 05:06:50.71	275.84	8.16	-54.3	-73.7	3.8	7.48e-01	0	27	104	0	76	35314
2026-01-14 05:06:53.74	275.52	7.94	-54.3	-73.7	3.8	7.46e-01	0	27	104	0	76	35399
2026-01-14 05:06:56.76	275.22	7.73	-54.3	-73.7	3.8	7.44e-01	0	28	104	0	76	35379
2026-01-14 05:06:59.79	274.91	7.51	-54.3	-73.6	3.8	7.44e-01	0	27	104	0	76	35276
2026-01-14 05:07:02.82	274.61	7.30	-54.3	-73.6	3.8	7.43e-01	0	27	104	0	76	35278
2026-01-14 05:07:05.85	274.32	7.09	-54.3	-73.7	3.8	7.46e-01	0	27	104	0	76	35311
2026-01-14 05:07:08.87	274.03	6.87	-54.3	-73.6	3.8	7.47e-01	0	27	104	0	76	35026
2026-01-14 05:07:11.90	273.75	6.66	-54.3	-73.7	3.8	7.46e-01	0	27	104	0	76	35328
2026-01-14 05:07:14.93	273.47	6.46	-54.3	-73.7	3.8	7.45e-01	0	27	104	0	76	35358
2026-01-14 05:07:17.96	273.19	6.25	-54.3	-73.6	3.8	7.44e-01	0	27	104	0	76	35242
2026-01-14 05:07:20.98	272.92	6.04	-54.3	-73.7	3.8	7.50e-01	0	28	104	0	76	35325
2026-01-14 05:07:24.00	272.66	5.84	-54.3	-73.6	3.8	7.44e-01	0	27	104	0	76	35198
2026-01-14 05:07:27.04	272.40	5.63	-54.3	-73.6	3.8	7.45e-01	0	27	104	0	76	35174
2026-01-14 05:07:30.06	272.14	5.43	-54.3	-73.6	3.8	7.47e-01	0	27	104	0	76	35228
2026-01-14 05:07:33.09	271.88	5.23	-54.3	-73.6	3.8	7.44e-01	0	27	104	0	76	35276
2026-01-14 05:07:36.11	271.63	5.03	-54.3	-73.7	3.8	7.46e-01	0	27	104	0	76	35368
2026-01-14 05:07:39.14	271.39	4.83	-54.3	-73.7	3.8	7.46e-01	0	27	104	0	76	35365
2026-01-14 05:07:42.17	271.15	4.63	-54.3	-73.6	3.8	7.48e-01	0	27	104	0	76	35241
2026-01-14 05:07:45.20	270.91	4.44	-54.3	-73.6	3.8	7.47e-01	0	27	104	0	76	35266
2026-01-14 05:07:48.21	270.67	4.24	-54.3	-73.7	3.8	7.48e-01	0	27	104	0	76	35385
2026-01-14 05:07:51.23	270.44	4.05	-54.3	-73.7	3.8	7.47e-01	0	27	104	0	76	35427
2026-01-14 05:07:54.26	270.21	3.86	-54.3	-73.7	3.8	7.46e-01	0	28	104	0	76	35359
2026-01-14 05:07:57.28	269.99	3.66	-54.3	-73.7	3.8	7.44e-01	0	27	104	0	76	35287
2026-01-14 05:08:00.31	269.77	3.47	-54.3	-73.6	3.8	7.50e-01	0	27	104	0	76	35231
2026-01-14 05:08:03.34	269.55	3.28	-54.3	-73.7	3.8	7.48e-01	0	27	104	0	76	35320
2026-01-14 05:08:06.36	269.34	3.09	-54.3	-73.7	3.8	7.47e-01	0	27	104	0	76	35338
2026-01-14 05:08:09.39	269.12	2.91	-54.3	-73.6	3.8	7.45e-01	0	27	104	0	76	35040
2026-01-14 05:08:12.42	268.91	2.72	-54.3	-73.7	3.8	7.47e-01	0	27	104	0	76	35389
2026-01-14 05:08:15.45	268.71	2.53	-54.3	-73.6	3.8	7.43e-01	0	27	104	0	76	35140
2026-01-14 05:08:18.47	268.51	2.35	-54.3	-73.6	3.8	7.48e-01	0	27	104	0	76	35206
2026-01-14 05:08:21.50	268.31	2.17	-54.3	-73.6	3.8	7.45e-01	0	28	104	0	76	35243
2026-01-14 05:08:24.53	268.11	1.98	-54.3	-73.7	3.8	7.47e-01	0	27	104	0	76	35429

#Closed at: 2026-01-14 05:08:27
#Recorded file [0 MB]: D:/lorett/data/31004_260114_075654.dat