passes_logs/2026/01/14/R3.2S_Murmansk/R3.2S_Murmansk__20260114_040947_FENGYUN_3D_rec.log

#Pass ID: 20260114_040947_FENGYUN 3D
#Satellite: FENGYUN 3D
#Configuration: FENGYUN 3D
#almurnet v.1.7.20251203
#Start time: 2026-01-14 04:09:47

#Version: 2.2.20231116
#Station: R3.2S_Murmansk
#Location: 33.079688 lon 68.888172 lat
#TLE: 1 43010U 17072A   26013.59402220  .00000029  00000+0  35477-4 0  9991
#TLE: 2 43010  98.9934 345.3884 0002280 110.7757 249.3663 14.19695359423056

#Time	Az	El	Level	Level2	SNR	BER	BlckErr	Temp	State	Recorded	gain1	gain2
2026-01-14 04:09:47.36	31.89	2.02	-54.5	-67.5	3.8	8.45e-01	0	25	0	0	74	16719
2026-01-14 04:09:51.39	31.77	2.27	-54.5	-67.5	3.8	8.46e-01	0	25	104	0	74	16779
2026-01-14 04:09:55.42	31.65	2.53	-54.5	-67.5	3.8	8.45e-01	0	25	104	0	74	16808
2026-01-14 04:09:59.46	31.52	2.79	-54.5	-67.5	3.8	8.46e-01	0	26	104	0	74	16832
2026-01-14 04:10:03.50	31.40	3.05	-54.5	-67.5	3.8	8.44e-01	0	26	104	0	74	16787
2026-01-14 04:10:07.54	31.27	3.31	-54.5	-67.5	3.8	8.45e-01	0	26	104	0	74	16833
2026-01-14 04:10:11.57	31.14	3.57	-54.5	-67.5	3.8	8.46e-01	0	26	104	0	74	16808
2026-01-14 04:10:15.60	31.00	3.84	-54.5	-67.5	3.8	8.46e-01	0	26	104	0	74	16849
2026-01-14 04:10:19.64	30.87	4.11	-54.5	-67.5	3.8	8.46e-01	0	26	104	0	74	16858
2026-01-14 04:10:23.68	30.73	4.38	-54.5	-67.5	3.8	8.46e-01	0	26	104	0	74	16839
2026-01-14 04:10:27.71	30.58	4.65	-54.5	-67.5	3.8	8.45e-01	0	26	104	0	74	16864
2026-01-14 04:10:31.75	30.44	4.93	-54.6	-67.6	3.8	8.46e-01	0	26	104	0	74	16891
2026-01-14 04:10:35.78	30.29	5.21	-54.6	-67.5	3.8	8.45e-01	0	26	104	0	74	16879
2026-01-14 04:10:39.82	30.14	5.49	-54.6	-67.6	3.8	8.45e-01	0	26	104	0	74	16925
2026-01-14 04:10:43.86	29.98	5.78	-54.6	-67.6	3.8	8.45e-01	0	26	104	0	74	16951
2026-01-14 04:10:47.90	29.82	6.07	-54.6	-67.6	3.8	8.45e-01	0	26	104	0	74	16909
2026-01-14 04:10:51.93	29.66	6.36	-54.6	-67.6	3.8	8.45e-01	0	27	104	0	74	16944
2026-01-14 04:10:55.97	29.50	6.65	-54.6	-67.6	3.8	8.46e-01	0	27	104	0	74	16943
2026-01-14 04:11:00.01	29.33	6.95	-54.6	-67.6	3.8	8.46e-01	0	27	104	0	74	16987
2026-01-14 04:11:04.04	29.15	7.25	-54.6	-67.6	3.8	8.45e-01	0	27	104	0	74	16975
2026-01-14 04:11:08.08	28.98	7.55	-54.6	-67.6	3.9	8.46e-01	0	27	104	0	74	16980
2026-01-14 04:11:12.12	28.80	7.86	-54.6	-67.6	3.8	8.46e-01	0	27	104	0	74	16922
2026-01-14 04:11:16.15	28.61	8.17	-54.6	-67.5	3.8	8.46e-01	0	27	104	0	74	16858
2026-01-14 04:11:20.18	28.42	8.48	-54.6	-67.6	3.8	8.46e-01	0	27	104	0	74	16961
2026-01-14 04:11:24.22	28.23	8.80	-54.6	-67.6	3.8	8.46e-01	0	27	104	0	74	17010
2026-01-14 04:11:28.25	28.03	9.12	-54.6	-67.6	3.8	8.45e-01	0	27	104	0	74	17000
2026-01-14 04:11:32.29	27.82	9.45	-54.6	-67.6	3.8	8.46e-01	0	27	104	0	74	16934
2026-01-14 04:11:36.32	27.61	9.78	-54.6	-67.6	3.8	8.45e-01	0	27	104	0	74	16957
2026-01-14 04:11:40.36	27.40	10.11	-54.6	-67.6	3.8	8.45e-01	0	27	104	0	74	17007
2026-01-14 04:11:44.40	27.18	10.45	-54.6	-67.6	3.8	8.45e-01	0	27	104	0	74	17022
2026-01-14 04:11:48.42	26.96	10.79	-54.6	-67.6	3.8	8.46e-01	0	27	104	0	74	17068
2026-01-14 04:11:52.45	26.73	11.13	-54.6	-67.6	3.8	8.46e-01	0	27	104	0	74	17029
2026-01-14 04:11:56.49	26.49	11.48	-54.6	-67.6	3.8	8.46e-01	0	27	104	0	74	17008
2026-01-14 04:12:00.52	26.25	11.84	-54.6	-67.6	3.8	8.45e-01	0	27	104	0	74	17040
2026-01-14 04:12:04.55	26.00	12.20	-54.6	-67.6	3.8	8.45e-01	0	27	104	0	74	17034
2026-01-14 04:12:08.59	25.74	12.56	-54.6	-67.6	3.8	8.46e-01	0	27	104	0	74	17045
2026-01-14 04:12:12.63	25.48	12.93	-54.6	-67.6	3.8	8.46e-01	0	27	104	0	74	17036
2026-01-14 04:12:16.67	25.21	13.30	-54.6	-67.6	3.8	8.45e-01	0	27	104	0	74	17047
2026-01-14 04:12:20.70	24.93	13.68	-54.6	-67.6	3.8	8.45e-01	0	27	104	0	74	17047
2026-01-14 04:12:24.73	24.65	14.07	-54.6	-67.6	3.8	8.46e-01	0	27	104	0	74	17080
2026-01-14 04:12:28.77	24.36	14.46	-54.6	-67.6	3.8	8.47e-01	0	27	104	0	74	17054
2026-01-14 04:12:32.79	24.06	14.85	-54.6	-67.6	3.8	8.45e-01	0	27	104	0	74	17051
2026-01-14 04:12:36.83	23.75	15.25	-54.6	-67.6	3.8	8.46e-01	0	27	104	0	74	17067
2026-01-14 04:12:40.86	23.43	15.66	-54.6	-67.6	3.8	8.46e-01	0	27	104	0	74	17044
2026-01-14 04:12:44.90	23.10	16.07	-54.6	-67.6	3.8	8.45e-01	0	27	104	0	74	17073
2026-01-14 04:12:48.94	22.77	16.49	-54.6	-67.7	3.8	8.47e-01	0	27	104	0	74	17097
2026-01-14 04:12:52.98	22.42	16.92	-54.6	-67.7	3.8	8.45e-01	0	27	104	0	74	17085
2026-01-14 04:12:57.02	22.06	17.35	-54.6	-67.6	3.8	8.45e-01	0	27	104	0	74	17069
2026-01-14 04:13:01.05	21.69	17.79	-54.6	-67.7	3.8	8.45e-01	0	27	104	0	74	17092
2026-01-14 04:13:05.08	21.31	18.23	-54.6	-67.6	3.8	8.45e-01	0	27	104	0	74	17078
2026-01-14 04:13:09.12	20.92	18.68	-54.6	-67.6	3.8	8.46e-01	0	27	104	0	74	17068
2026-01-14 04:13:13.16	20.52	19.14	-54.6	-67.6	3.8	8.46e-01	0	27	104	0	74	17064
2026-01-14 04:13:17.19	20.10	19.61	-54.6	-67.6	3.8	8.46e-01	0	27	104	0	74	17054
2026-01-14 04:13:21.23	19.67	20.08	-54.6	-67.7	3.8	8.46e-01	0	27	104	0	74	17084
2026-01-14 04:13:25.27	19.23	20.56	-54.7	-67.7	3.8	8.46e-01	0	27	104	0	74	17103
2026-01-14 04:13:29.30	18.77	21.04	-54.6	-67.7	3.8	8.45e-01	0	27	104	0	74	17096
2026-01-14 04:13:33.34	18.29	21.54	-54.6	-67.6	3.8	8.45e-01	0	27	104	0	74	17067
2026-01-14 04:13:37.38	17.80	22.04	-54.6	-67.6	3.8	8.46e-01	0	27	104	0	74	17041
2026-01-14 04:13:41.41	17.30	22.55	-54.6	-67.6	3.8	8.46e-01	0	27	104	0	74	17037
2026-01-14 04:13:45.45	16.77	23.07	-54.6	-67.6	3.8	8.46e-01	0	27	104	0	74	17041
2026-01-14 04:13:49.48	16.23	23.59	-54.6	-67.6	3.8	8.46e-01	0	27	104	0	74	17076
2026-01-14 04:13:53.52	15.67	24.13	-54.7	-67.7	3.8	8.45e-01	0	27	104	0	74	17091
2026-01-14 04:13:57.56	15.09	24.67	-54.7	-67.7	3.8	8.45e-01	0	27	104	0	74	17137
2026-01-14 04:14:01.59	14.48	25.22	-54.7	-67.7	3.8	8.46e-01	0	27	104	0	74	17113
2026-01-14 04:14:05.62	13.86	25.77	-54.6	-67.7	3.8	8.47e-01	0	27	104	0	74	17109
2026-01-14 04:14:09.66	13.21	26.34	-54.6	-67.6	3.8	8.46e-01	0	28	104	0	74	17024
2026-01-14 04:14:13.70	12.54	26.91	-54.6	-67.6	3.8	8.46e-01	0	27	104	0	74	17077
2026-01-14 04:14:17.73	11.84	27.49	-54.7	-67.7	3.8	8.46e-01	0	27	104	0	74	17093
2026-01-14 04:14:21.77	11.12	28.08	-54.7	-67.7	3.8	8.44e-01	0	27	104	0	74	17126
2026-01-14 04:14:25.80	10.37	28.68	-54.7	-67.7	3.8	8.46e-01	0	27	104	0	74	17129
2026-01-14 04:14:29.84	9.59	29.28	-54.7	-67.7	3.8	8.45e-01	0	28	104	0	74	17088
2026-01-14 04:14:33.88	8.78	29.89	-54.7	-67.7	3.8	8.45e-01	0	28	104	0	74	17175
2026-01-14 04:14:37.91	7.94	30.50	-54.7	-67.7	3.8	8.45e-01	0	28	104	0	74	17121
2026-01-14 04:14:41.95	7.06	31.12	-54.7	-67.7	3.8	8.45e-01	0	27	104	0	74	17123
2026-01-14 04:14:45.98	6.15	31.75	-54.7	-67.7	3.8	8.46e-01	0	27	104	0	74	17183
2026-01-14 04:14:50.01	5.20	32.38	-54.7	-67.7	3.8	8.45e-01	0	27	104	0	74	17090
2026-01-14 04:14:54.06	4.21	33.02	-54.7	-67.7	3.8	8.46e-01	0	27	104	0	74	17124
2026-01-14 04:14:58.09	3.19	33.66	-54.7	-67.7	3.8	8.47e-01	0	27	104	0	74	17140
2026-01-14 04:15:02.13	2.12	34.30	-54.7	-67.7	3.8	8.46e-01	0	27	104	0	74	17095
2026-01-14 04:15:06.16	1.01	34.94	-54.6	-67.7	3.8	8.46e-01	0	27	104	0	74	17115
2026-01-14 04:15:10.20	359.85	35.58	-54.6	-67.6	3.8	8.46e-01	0	28	104	0	74	17072
2026-01-14 04:15:14.24	358.65	36.23	-54.7	-67.7	3.8	8.46e-01	0	27	104	0	74	17120
2026-01-14 04:15:18.28	357.40	36.87	-54.7	-67.7	3.8	8.44e-01	0	27	104	0	74	17155
2026-01-14 04:15:22.31	356.09	37.50	-54.7	-67.7	3.8	8.44e-01	0	27	104	0	74	17133
2026-01-14 04:15:26.35	354.74	38.13	-54.7	-67.7	3.8	8.46e-01	0	27	104	0	74	17150
2026-01-14 04:15:30.39	353.33	38.76	-54.6	-67.6	3.8	8.45e-01	0	28	104	0	74	17072
2026-01-14 04:15:34.42	351.87	39.37	-54.7	-67.7	3.8	8.47e-01	0	27	104	0	74	17091
2026-01-14 04:15:38.46	350.35	39.97	-54.7	-67.6	3.8	8.45e-01	0	27	104	0	74	17062
2026-01-14 04:15:42.49	348.77	40.56	-54.7	-67.7	3.8	8.46e-01	0	27	104	0	74	17118
2026-01-14 04:15:46.53	347.14	41.13	-54.7	-67.7	3.8	8.46e-01	0	27	104	0	74	17087
2026-01-14 04:15:50.57	345.44	41.68	-54.7	-67.6	3.8	8.45e-01	0	27	104	0	74	17066
2026-01-14 04:15:54.61	343.69	42.22	-54.6	-67.7	3.8	8.44e-01	0	28	104	0	74	17117
2026-01-14 04:15:58.65	341.88	42.72	-54.6	-67.7	3.8	8.45e-01	0	28	104	0	74	17104
2026-01-14 04:16:02.68	340.01	43.20	-54.7	-67.7	3.8	8.45e-01	0	27	104	0	74	17116
2026-01-14 04:16:06.71	338.09	43.66	-54.7	-67.6	3.8	8.45e-01	0	28	104	0	74	17082
2026-01-14 04:16:10.74	336.12	44.07	-54.7	-67.7	3.8	8.45e-01	0	27	104	0	74	17088
2026-01-14 04:16:14.78	334.09	44.46	-54.6	-67.7	3.8	8.46e-01	0	28	104	0	74	17131
2026-01-14 04:16:18.81	332.02	44.81	-54.7	-67.7	3.8	8.46e-01	0	27	104	0	74	17115
2026-01-14 04:16:22.85	329.90	45.11	-54.7	-67.7	3.8	8.46e-01	0	27	104	0	74	17130
2026-01-14 04:16:26.89	327.74	45.38	-54.7	-67.7	3.8	8.44e-01	0	28	104	0	74	17114
2026-01-14 04:16:30.92	325.56	45.60	-54.7	-67.7	3.8	8.46e-01	0	27	104	0	74	17091
2026-01-14 04:16:34.96	323.34	45.77	-54.7	-67.7	3.8	8.45e-01	0	28	104	0	74	17121
2026-01-14 04:16:39.00	321.09	45.90	-54.6	-67.7	3.8	8.46e-01	0	27	104	0	74	17111
2026-01-14 04:16:43.03	318.84	45.98	-54.7	-67.7	3.8	8.46e-01	0	28	104	0	74	17124
2026-01-14 04:16:47.06	316.59	46.00	-54.7	-67.6	3.8	8.46e-01	0	28	104	0	74	17070
2026-01-14 04:16:51.09	314.33	45.98	-54.6	-67.7	3.8	8.46e-01	0	28	104	0	74	17093
2026-01-14 04:16:55.13	312.07	45.91	-54.7	-67.7	3.8	8.46e-01	0	28	104	0	74	17128
2026-01-14 04:16:59.16	309.83	45.80	-54.7	-67.7	3.8	8.46e-01	0	28	104	0	74	17120
2026-01-14 04:17:03.19	307.61	45.63	-54.7	-67.7	3.8	8.46e-01	0	27	104	0	74	17163
2026-01-14 04:17:07.22	305.42	45.42	-54.7	-67.7	3.8	8.45e-01	0	27	104	0	74	17132
2026-01-14 04:17:11.26	303.25	45.16	-54.7	-67.7	3.8	8.45e-01	0	28	104	0	74	17095
2026-01-14 04:17:15.30	301.12	44.86	-54.7	-67.7	3.8	8.45e-01	0	28	104	0	74	17125
2026-01-14 04:17:19.34	299.03	44.52	-54.7	-67.7	3.8	8.45e-01	0	28	104	0	74	17084
2026-01-14 04:17:23.38	297.00	44.14	-54.7	-67.7	3.8	8.45e-01	0	27	104	0	74	17128
2026-01-14 04:17:27.41	295.01	43.73	-54.7	-67.7	3.8	8.46e-01	0	28	104	0	74	17157
2026-01-14 04:17:31.45	293.08	43.28	-54.7	-67.7	3.8	8.46e-01	0	28	104	0	74	17114
2026-01-14 04:17:35.47	291.20	42.81	-54.7	-67.7	3.8	8.45e-01	0	28	104	0	74	17156
2026-01-14 04:17:39.51	289.38	42.30	-54.7	-67.7	3.8	8.46e-01	0	28	104	0	74	17144
2026-01-14 04:17:43.55	287.61	41.77	-54.7	-67.7	3.8	8.45e-01	0	28	104	0	74	17190
2026-01-14 04:17:47.58	285.91	41.22	-54.7	-67.7	3.8	8.45e-01	0	27	104	0	74	17146
2026-01-14 04:17:51.61	284.26	40.65	-54.7	-67.7	3.8	8.46e-01	0	28	104	0	74	17150
2026-01-14 04:17:55.65	282.67	40.07	-54.6	-67.7	3.8	8.46e-01	0	28	104	0	74	17101
2026-01-14 04:17:59.69	281.14	39.46	-54.6	-67.6	3.8	8.46e-01	0	28	104	0	74	17054
2026-01-14 04:18:03.73	279.66	38.85	-54.6	-67.7	3.8	8.45e-01	0	28	104	0	74	17093
2026-01-14 04:18:07.77	278.24	38.23	-54.7	-67.7	3.8	8.46e-01	0	28	104	0	74	17096
2026-01-14 04:18:11.81	276.87	37.60	-54.7	-67.7	3.8	8.45e-01	0	28	104	0	74	17120
2026-01-14 04:18:15.85	275.56	36.96	-54.7	-67.7	3.8	8.46e-01	0	28	104	0	74	17104
2026-01-14 04:18:19.88	274.29	36.32	-54.7	-67.7	3.8	8.47e-01	0	28	104	0	74	17096
2026-01-14 04:18:23.91	273.08	35.68	-54.7	-67.7	3.8	8.45e-01	0	28	104	0	74	17112
2026-01-14 04:18:27.95	271.91	35.03	-54.7	-67.7	3.8	8.46e-01	0	27	104	0	74	17128
2026-01-14 04:18:31.98	270.80	34.39	-54.7	-67.7	3.8	8.45e-01	0	28	104	0	74	17102
2026-01-14 04:18:36.01	269.72	33.74	-54.7	-67.7	3.8	8.45e-01	0	28	104	0	74	17098
2026-01-14 04:18:40.05	268.68	33.10	-54.7	-67.7	3.8	8.46e-01	0	28	104	0	74	17095
2026-01-14 04:18:44.09	267.69	32.46	-54.7	-67.7	3.8	8.46e-01	0	28	104	0	74	17150
2026-01-14 04:18:48.12	266.73	31.83	-54.7	-67.7	3.8	8.45e-01	0	27	104	0	74	17098
2026-01-14 04:18:52.16	265.81	31.20	-54.7	-67.7	3.8	8.45e-01	0	28	104	0	74	17106
2026-01-14 04:18:56.19	264.93	30.58	-54.7	-67.6	3.8	8.46e-01	0	28	104	0	74	17078
2026-01-14 04:19:00.23	264.08	29.96	-54.7	-67.7	3.8	8.46e-01	0	28	104	0	74	17159
2026-01-14 04:19:04.27	263.26	29.35	-54.7	-67.6	3.8	8.44e-01	0	28	104	0	74	17057
2026-01-14 04:19:08.30	262.47	28.74	-54.7	-67.7	3.8	8.45e-01	0	28	104	0	74	17117
2026-01-14 04:19:12.34	261.71	28.14	-54.7	-67.7	3.8	8.45e-01	0	28	104	0	74	17133
2026-01-14 04:19:16.37	260.98	27.55	-54.7	-67.7	3.8	8.45e-01	0	28	104	0	74	17102
2026-01-14 04:19:20.41	260.28	26.97	-54.7	-67.7	3.8	8.44e-01	0	28	104	0	74	17128
2026-01-14 04:19:24.45	259.60	26.39	-54.7	-67.7	3.8	8.45e-01	0	28	104	0	74	17126
2026-01-14 04:19:28.48	258.95	25.83	-54.7	-67.7	3.8	8.46e-01	0	28	104	0	74	17116
2026-01-14 04:19:32.51	258.32	25.27	-54.7	-67.7	3.8	8.45e-01	0	27	104	0	74	17114
2026-01-14 04:19:36.54	257.71	24.72	-54.7	-67.7	3.8	8.44e-01	0	28	104	0	74	17093
2026-01-14 04:19:40.57	257.12	24.17	-54.7	-67.7	3.8	8.45e-01	0	28	104	0	74	17153
2026-01-14 04:19:44.61	256.56	23.64	-54.7	-67.7	3.8	8.46e-01	0	28	104	0	74	17134
2026-01-14 04:19:48.65	256.01	23.11	-54.7	-67.7	3.8	8.45e-01	0	28	104	0	74	17197
2026-01-14 04:19:52.67	255.48	22.59	-54.7	-67.7	3.8	8.46e-01	0	28	104	0	74	17097
2026-01-14 04:19:56.71	254.97	22.08	-54.7	-67.7	3.8	8.45e-01	0	27	104	0	74	17096
2026-01-14 04:20:00.74	254.47	21.57	-54.7	-67.7	3.8	8.45e-01	0	28	104	0	74	17091
2026-01-14 04:20:04.78	253.99	21.07	-54.7	-67.6	3.8	8.45e-01	0	28	104	0	74	17050
2026-01-14 04:20:08.81	253.53	20.59	-54.7	-67.7	3.8	8.46e-01	0	28	104	0	74	17140
2026-01-14 04:20:12.84	253.08	20.10	-54.7	-67.7	3.8	8.47e-01	0	28	104	0	74	17104
2026-01-14 04:20:16.87	252.65	19.63	-54.7	-67.7	3.8	8.44e-01	0	28	104	0	74	17121
2026-01-14 04:20:20.91	252.23	19.16	-54.7	-67.7	3.8	8.44e-01	0	28	104	0	74	17104
2026-01-14 04:20:24.95	251.82	18.70	-54.7	-67.7	3.8	8.45e-01	0	28	104	0	74	17166
2026-01-14 04:20:28.98	251.43	18.25	-54.7	-67.7	3.8	8.46e-01	0	28	104	0	74	17092
2026-01-14 04:20:33.02	251.04	17.80	-54.7	-67.7	3.8	8.44e-01	0	28	104	0	74	17118
2026-01-14 04:20:37.03	250.67	17.36	-54.7	-67.7	3.8	8.45e-01	0	28	104	0	74	17129
2026-01-14 04:20:41.04	250.31	16.93	-54.7	-67.7	3.8	8.45e-01	0	28	104	0	74	17185
2026-01-14 04:20:45.07	249.96	16.51	-54.7	-67.7	3.8	8.45e-01	0	27	104	0	74	17136
2026-01-14 04:20:49.10	249.62	16.09	-54.7	-67.6	3.8	8.47e-01	0	28	104	0	74	17074
2026-01-14 04:20:53.13	249.29	15.67	-54.7	-67.7	3.8	8.46e-01	0	28	104	0	74	17097
2026-01-14 04:20:57.17	248.97	15.26	-54.7	-67.7	3.8	8.45e-01	0	28	104	0	74	17127
2026-01-14 04:21:01.21	248.66	14.86	-54.7	-67.7	3.8	8.46e-01	0	28	104	0	74	17109
2026-01-14 04:21:05.25	248.35	14.46	-54.7	-67.7	3.8	8.46e-01	0	28	104	0	74	17089
2026-01-14 04:21:09.28	248.06	14.07	-54.7	-67.7	3.8	8.45e-01	0	28	104	0	74	17104
2026-01-14 04:21:13.32	247.77	13.68	-54.7	-67.7	3.8	8.45e-01	0	28	104	0	74	17173
2026-01-14 04:21:17.36	247.49	13.30	-54.7	-67.7	3.8	8.46e-01	0	28	104	0	74	17125
2026-01-14 04:21:21.40	247.21	12.92	-54.7	-67.7	3.8	8.46e-01	0	28	104	0	74	17191
2026-01-14 04:21:25.43	246.95	12.55	-54.6	-67.7	3.8	8.46e-01	0	28	104	0	74	17135
2026-01-14 04:21:29.47	246.69	12.19	-54.7	-67.7	3.8	8.46e-01	0	28	104	0	74	17105
2026-01-14 04:21:33.51	246.44	11.83	-54.7	-67.7	3.8	8.46e-01	0	28	104	0	74	17144
2026-01-14 04:21:37.54	246.19	11.47	-54.7	-67.7	3.8	8.46e-01	0	28	104	0	74	17184
2026-01-14 04:21:41.57	245.95	11.12	-54.7	-67.7	3.8	8.46e-01	0	28	104	0	74	17116
2026-01-14 04:21:45.60	245.72	10.77	-54.7	-67.6	3.8	8.45e-01	0	27	104	0	74	17048
2026-01-14 04:21:49.62	245.49	10.43	-54.7	-67.7	3.8	8.46e-01	0	28	104	0	74	17162
2026-01-14 04:21:53.66	245.27	10.09	-54.7	-67.6	3.8	8.46e-01	0	28	104	0	74	17064
2026-01-14 04:21:57.69	245.05	9.76	-54.7	-67.7	3.8	8.46e-01	0	28	104	0	74	17109
2026-01-14 04:22:01.73	244.84	9.43	-54.7	-67.7	3.8	8.45e-01	0	28	104	0	74	17101
2026-01-14 04:22:05.77	244.63	9.10	-54.7	-67.7	3.8	8.45e-01	0	27	104	0	74	17147
2026-01-14 04:22:09.80	244.43	8.78	-54.7	-67.7	3.8	8.45e-01	0	28	104	0	74	17160
2026-01-14 04:22:13.85	244.23	8.46	-54.7	-67.7	3.8	8.45e-01	0	28	104	0	74	17131
2026-01-14 04:22:17.88	244.04	8.14	-54.7	-67.7	3.8	8.45e-01	0	28	104	0	74	17115
2026-01-14 04:22:21.92	243.85	7.83	-54.7	-67.7	3.8	8.46e-01	0	28	104	0	74	17182
2026-01-14 04:22:25.95	243.67	7.52	-54.7	-67.7	3.8	8.46e-01	0	28	104	0	74	17124
2026-01-14 04:22:29.99	243.49	7.22	-54.7	-67.7	3.8	8.45e-01	0	27	104	0	74	17155
2026-01-14 04:22:34.03	243.31	6.92	-54.7	-67.7	3.8	8.46e-01	0	28	104	0	74	17118
2026-01-14 04:22:38.06	243.14	6.62	-54.7	-67.7	3.8	8.45e-01	0	28	104	0	74	17131
2026-01-14 04:22:42.10	242.97	6.32	-54.7	-67.7	3.8	8.45e-01	0	28	104	0	74	17154
2026-01-14 04:22:46.14	242.81	6.03	-54.6	-67.7	3.8	8.46e-01	0	28	104	0	74	17110
2026-01-14 04:22:50.17	242.64	5.74	-54.7	-67.7	3.8	8.44e-01	0	28	104	0	74	17094
2026-01-14 04:22:54.20	242.49	5.46	-54.6	-67.7	3.8	8.46e-01	0	28	104	0	74	17106
2026-01-14 04:22:58.24	242.33	5.17	-54.7	-67.7	3.8	8.45e-01	0	28	104	0	74	17109
2026-01-14 04:23:02.27	242.18	4.89	-54.7	-67.6	3.8	8.46e-01	0	28	104	0	74	17060
2026-01-14 04:23:06.31	242.03	4.62	-54.6	-67.7	3.8	8.45e-01	0	28	104	0	74	17118
2026-01-14 04:23:10.34	241.89	4.34	-54.6	-67.6	3.8	8.45e-01	0	28	104	0	74	17044
2026-01-14 04:23:14.37	241.74	4.07	-54.6	-67.7	3.8	8.46e-01	0	28	104	0	74	17130
2026-01-14 04:23:18.41	241.60	3.80	-54.7	-67.7	3.8	8.46e-01	0	28	104	0	74	17101
2026-01-14 04:23:22.45	241.47	3.53	-54.7	-67.7	3.8	8.45e-01	0	28	104	0	74	17111
2026-01-14 04:23:26.49	241.33	3.27	-54.7	-67.7	3.8	8.47e-01	0	28	104	0	74	17162
2026-01-14 04:23:30.53	241.20	3.00	-54.7	-67.7	3.8	8.45e-01	0	28	104	0	74	17143
2026-01-14 04:23:34.57	241.07	2.74	-54.7	-67.7	3.8	8.45e-01	0	28	104	0	74	17140
2026-01-14 04:23:38.60	240.95	2.48	-54.7	-67.7	3.8	8.45e-01	0	28	104	0	74	17123
2026-01-14 04:23:42.64	240.82	2.23	-54.7	-67.7	3.8	8.45e-01	0	28	104	0	74	17091
2026-01-14 04:23:46.67	240.70	1.97	-54.7	-67.7	3.8	8.46e-01	0	28	104	0	74	17098

#Closed at: 2026-01-14 04:23:47
#Recorded file [0 MB]: D:/lorett/data/31004_260114_070947.dat