passes_logs/2026/01/14/R3.2S_Murmansk/R3.2S_Murmansk__20260114_010037_NOAA_21_JPSS-2_rec.log

#Pass ID: 20260114_010037_NOAA 21 (JPSS-2)
#Satellite: NOAA 21 (JPSS-2)
#Configuration: NOAA-21
#almurnet v.1.7.20251203
#Start time: 2026-01-14 01:00:39

#Version: 2.2.20231116
#Station: R3.2S_Murmansk
#Location: 33.079688 lon 68.888172 lat
#TLE: 1 54234U 22150A   26013.60300550  .00000047  00000+0  43143-4 0  9998
#TLE: 2 54234  98.7496 314.5197 0000681 301.0337  59.0772 14.19534502164617

#Time	Az	El	Level	Level2	SNR	BER	BlckErr	Temp	State	Recorded	gain1	gain2
2026-01-14 01:00:39.28	25.78	2.08	-57.8	-71.6	3.8	1.49e+00	0	25	0	0	82	16956
2026-01-14 01:00:43.32	25.76	2.34	-57.8	-71.5	3.8	1.49e+00	0	26	104	0	80	18945
2026-01-14 01:00:47.36	25.74	2.60	-57.8	-71.5	3.8	1.49e+00	0	26	104	0	80	18940
2026-01-14 01:00:51.39	25.72	2.87	-57.8	-71.5	3.9	1.49e+00	0	26	104	0	80	18891
2026-01-14 01:00:55.43	25.69	3.14	-57.8	-71.4	3.9	1.49e+00	0	26	104	0	80	18702
2026-01-14 01:00:59.47	25.67	3.40	-57.8	-71.1	3.8	1.49e+00	0	26	104	0	80	17967
2026-01-14 01:01:03.51	25.65	3.68	-57.7	-69.9	3.8	1.49e+00	0	26	104	0	80	15587
2026-01-14 01:01:07.54	25.62	3.95	-56.8	-63.3	6.7	1.88e-01	0	26	0	4194304	80	7288
2026-01-14 01:01:11.57	25.60	4.23	-56.3	-61.7	8.1	3.91e-02	0	26	0	16777216	79	6439
2026-01-14 01:01:15.61	25.57	4.51	-56.3	-61.7	8.0	3.66e-02	0	26	0	29360128	79	6445
2026-01-14 01:01:19.65	25.55	4.79	-56.6	-62.7	7.1	8.10e-02	0	26	0	41943040	79	7265
2026-01-14 01:01:23.69	25.52	5.08	-57.2	-64.1	6.3	1.40e-01	0	27	0	54525952	79	8540
2026-01-14 01:01:27.72	25.49	5.37	-57.2	-63.7	6.7	9.80e-03	0	27	0	62914560	79	8123
2026-01-14 01:01:31.76	25.46	5.66	-53.0	-55.2	12.9	0.00e+00	0	27	0	76546048	72	4570
2026-01-14 01:01:35.79	25.43	5.95	-52.3	-54.2	13.5	0.00e+00	0	27	0	89128960	71	4316
2026-01-14 01:01:39.82	25.40	6.25	-51.8	-53.6	13.7	0.00e+00	0	27	0	101711872	70	4281
2026-01-14 01:01:43.86	25.37	6.55	-51.9	-53.6	13.7	0.00e+00	0	27	0	114294784	70	4283
2026-01-14 01:01:47.90	25.33	6.86	-51.9	-53.7	13.7	0.00e+00	0	27	0	126877696	70	4298
2026-01-14 01:01:51.94	25.30	7.17	-51.5	-53.2	13.9	0.00e+00	0	27	0	139460608	69	4315
2026-01-14 01:01:55.97	25.26	7.48	-51.6	-53.3	13.8	0.00e+00	0	27	0	152043520	69	4353
2026-01-14 01:02:00.00	25.22	7.80	-51.4	-53.1	13.9	0.00e+00	0	27	0	164626432	69	4258
2026-01-14 01:02:04.03	25.19	8.12	-51.4	-53.0	14.0	0.00e+00	0	27	0	177209344	69	4201
2026-01-14 01:02:08.07	25.15	8.45	-51.3	-53.0	14.0	0.00e+00	0	27	0	189792256	69	4198
2026-01-14 01:02:12.10	25.11	8.78	-51.2	-52.8	14.0	0.00e+00	0	27	0	202375168	68	4348
2026-01-14 01:02:16.14	25.06	9.11	-51.2	-52.7	14.0	0.00e+00	0	27	0	214958080	68	4340
2026-01-14 01:02:20.17	25.02	9.45	-51.0	-52.5	14.2	0.00e+00	0	27	0	227540992	68	4214
2026-01-14 01:02:24.20	24.98	9.79	-50.8	-52.3	14.3	0.00e+00	0	27	0	240123904	68	4117
2026-01-14 01:02:28.24	24.93	10.14	-50.5	-52.0	14.2	0.00e+00	0	27	0	252706816	67	4218
2026-01-14 01:02:32.28	24.88	10.49	-50.5	-51.9	14.3	0.00e+00	0	27	0	265289728	67	4179
2026-01-14 01:02:36.32	24.83	10.85	-50.3	-51.7	14.4	0.00e+00	0	27	0	277872640	67	4094
2026-01-14 01:02:40.35	24.78	11.21	-50.3	-51.7	14.4	0.00e+00	0	27	0	290455552	67	4082
2026-01-14 01:02:44.39	24.73	11.58	-50.3	-51.7	14.4	0.00e+00	0	27	0	303038464	67	4087
2026-01-14 01:02:48.42	24.67	11.96	-50.1	-51.5	14.4	0.00e+00	0	27	0	315621376	66	4215
2026-01-14 01:02:52.45	24.62	12.34	-50.0	-51.4	14.4	0.00e+00	0	27	0	328204288	66	4184
2026-01-14 01:02:56.49	24.56	12.72	-50.0	-51.3	14.5	0.00e+00	0	27	0	340787200	66	4145
2026-01-14 01:03:00.53	24.50	13.11	-49.8	-51.2	14.5	0.00e+00	0	27	0	353370112	66	4069
2026-01-14 01:03:04.56	24.44	13.51	-49.8	-51.2	14.6	0.00e+00	0	27	0	365953024	66	4053
2026-01-14 01:03:08.59	24.37	13.92	-49.7	-51.0	14.6	0.00e+00	0	27	0	378535936	66	3987
2026-01-14 01:03:12.62	24.31	14.33	-49.7	-51.0	14.5	0.00e+00	0	27	0	391118848	65	4217
2026-01-14 01:03:16.66	24.24	14.75	-49.6	-50.9	14.6	0.00e+00	0	27	0	403701760	65	4157
2026-01-14 01:03:20.69	24.17	15.17	-49.7	-51.0	14.5	0.00e+00	0	27	0	416284672	65	4233
2026-01-14 01:03:24.73	24.09	15.61	-49.6	-50.8	14.6	0.00e+00	0	27	0	428867584	65	4141
2026-01-14 01:03:28.76	24.01	16.05	-49.6	-50.9	14.6	0.00e+00	0	27	0	441450496	65	4173
2026-01-14 01:03:32.80	23.93	16.50	-49.7	-51.0	14.5	0.00e+00	0	27	0	454033408	65	4222
2026-01-14 01:03:36.84	23.85	16.96	-49.9	-51.3	14.4	0.00e+00	0	27	0	466616320	65	4362
2026-01-14 01:03:40.86	23.77	17.42	-50.0	-51.3	14.4	0.00e+00	0	27	0	479199232	65	4390
2026-01-14 01:03:44.90	23.68	17.90	-50.0	-51.4	14.4	0.00e+00	0	27	0	491782144	65	4397
2026-01-14 01:03:48.94	23.58	18.38	-50.1	-51.5	14.3	0.00e+00	0	27	0	504365056	65	4460
2026-01-14 01:03:52.96	23.49	18.87	-49.9	-51.3	14.4	0.00e+00	0	27	0	516947968	65	4356
2026-01-14 01:03:56.99	23.39	19.38	-49.9	-51.2	14.4	0.00e+00	0	27	0	529530880	65	4332
2026-01-14 01:04:01.03	23.28	19.89	-49.7	-51.0	14.5	0.00e+00	0	27	0	542113792	65	4217
2026-01-14 01:04:05.07	23.18	20.42	-49.5	-50.8	14.6	0.00e+00	0	27	0	554696704	65	4123
2026-01-14 01:04:09.11	23.06	20.96	-49.3	-50.5	14.7	0.00e+00	0	27	0	567279616	65	3978
2026-01-14 01:04:13.14	22.95	21.50	-49.0	-50.2	14.7	0.00e+00	0	27	0	580911104	64	4076
2026-01-14 01:04:17.18	22.83	22.06	-48.8	-50.0	14.8	0.00e+00	0	27	0	593494016	64	3974
2026-01-14 01:04:21.21	22.70	22.64	-48.6	-49.8	14.7	0.00e+00	0	27	0	606076928	63	4127
2026-01-14 01:04:25.24	22.57	23.22	-48.3	-49.5	14.9	0.00e+00	0	28	0	618659840	63	3979
2026-01-14 01:04:29.28	22.43	23.82	-48.4	-49.6	14.8	0.00e+00	0	28	0	631242752	63	4021
2026-01-14 01:04:33.31	22.29	24.43	-48.5	-49.6	14.8	0.00e+00	0	28	0	643825664	63	4042
2026-01-14 01:04:37.35	22.13	25.06	-48.8	-50.0	14.7	0.00e+00	0	27	0	656408576	63	4200
2026-01-14 01:04:41.38	21.98	25.70	-49.1	-50.3	14.6	0.00e+00	0	27	0	668991488	63	4376
2026-01-14 01:04:45.41	21.81	26.36	-49.6	-50.9	14.5	0.00e+00	0	28	0	681574400	64	4413
2026-01-14 01:04:49.44	21.64	27.03	-49.9	-51.3	14.5	0.00e+00	0	28	0	694157312	65	4346
2026-01-14 01:04:53.47	21.46	27.72	-50.1	-51.4	14.4	0.00e+00	0	27	0	706740224	65	4411
2026-01-14 01:04:57.51	21.27	28.43	-50.2	-51.5	14.4	0.00e+00	0	27	0	719323136	65	4471
2026-01-14 01:05:01.54	21.07	29.15	-50.2	-51.5	14.3	0.00e+00	0	27	0	731906048	65	4478
2026-01-14 01:05:05.57	20.87	29.90	-50.0	-51.4	14.4	0.00e+00	0	28	0	744488960	65	4403
2026-01-14 01:05:09.61	20.65	30.66	-49.7	-50.9	14.6	0.00e+00	0	28	0	757071872	65	4191
2026-01-14 01:05:13.63	20.42	31.45	-49.5	-50.8	14.6	0.00e+00	0	27	0	769654784	65	4125
2026-01-14 01:05:17.66	20.17	32.25	-49.3	-50.6	14.7	0.00e+00	0	28	0	782237696	65	4024
2026-01-14 01:05:21.69	19.92	33.08	-49.6	-50.9	14.6	0.00e+00	0	28	0	794820608	65	4165
2026-01-14 01:05:25.73	19.65	33.93	-50.0	-51.4	14.4	0.00e+00	0	28	0	807403520	65	4392
2026-01-14 01:05:29.76	19.36	34.80	-50.2	-51.5	14.5	0.00e+00	0	27	0	819986432	66	4219
2026-01-14 01:05:33.80	19.06	35.70	-50.4	-51.8	14.4	0.00e+00	0	27	0	832569344	66	4345
2026-01-14 01:05:37.83	18.74	36.62	-50.7	-52.1	14.3	0.00e+00	0	28	0	845152256	66	4530
2026-01-14 01:05:41.87	18.39	37.56	-50.9	-52.3	14.3	0.00e+00	0	28	0	857735168	67	4368
2026-01-14 01:05:45.91	18.03	38.54	-51.2	-52.6	14.2	0.00e+00	0	27	0	870318080	67	4513
2026-01-14 01:05:49.95	17.64	39.54	-51.1	-52.5	14.2	0.00e+00	0	27	0	882900992	67	4468
2026-01-14 01:05:53.98	17.23	40.57	-50.9	-52.2	14.3	0.00e+00	0	27	0	895483904	67	4337
2026-01-14 01:05:58.01	16.79	41.63	-51.7	-53.2	14.1	0.00e+00	0	27	0	908066816	68	4570
2026-01-14 01:06:02.05	16.32	42.71	-52.0	-53.5	14.1	0.00e+00	0	27	0	920649728	69	4462
2026-01-14 01:06:06.08	15.81	43.83	-52.2	-53.8	13.9	0.00e+00	0	27	0	933232640	69	4626
2026-01-14 01:06:10.12	15.26	44.98	-52.5	-54.2	13.8	0.00e+00	0	28	0	945815552	70	4587
2026-01-14 01:06:14.15	14.68	46.15	-53.0	-54.8	13.6	0.00e+00	0	27	0	958398464	71	4629
2026-01-14 01:06:18.17	14.04	47.36	-52.0	-53.5	14.2	0.00e+00	0	28	0	970981376	70	4219
2026-01-14 01:06:22.21	13.35	48.60	-52.0	-53.5	14.2	0.00e+00	0	28	0	983564288	70	4211
2026-01-14 01:06:26.24	12.61	49.87	-51.5	-52.9	14.3	0.00e+00	0	28	0	996147200	69	4186
2026-01-14 01:06:30.28	11.79	51.17	-51.5	-52.9	14.3	0.00e+00	0	27	0	1008730112	69	4181
2026-01-14 01:06:34.31	10.90	52.50	-51.2	-52.6	14.5	0.00e+00	0	28	0	1021313024	69	4026
2026-01-14 01:06:38.35	9.92	53.87	-50.4	-51.7	14.6	0.00e+00	0	28	0	1033895936	67	4073
2026-01-14 01:06:42.38	8.84	55.25	-50.5	-51.8	14.5	0.00e+00	0	28	0	1046478848	67	4130
2026-01-14 01:06:46.41	7.65	56.66	-49.2	-50.4	14.9	0.00e+00	0	28	0	1059061760	65	3922
2026-01-14 01:06:50.45	6.33	58.10	-49.5	-50.8	14.6	0.00e+00	0	28	0	1071644672	64	4354
2026-01-14 01:06:54.48	4.85	59.56	-48.9	-50.1	14.9	0.00e+00	0	28	0	1084227584	64	4017
2026-01-14 01:06:58.51	3.20	61.03	-49.2	-50.4	14.7	0.00e+00	0	28	0	1096810496	64	4184
2026-01-14 01:07:02.54	1.34	62.51	-48.7	-49.8	14.8	0.00e+00	0	27	0	1109393408	63	4132
2026-01-14 01:07:06.58	359.22	63.99	-48.7	-49.9	14.8	0.00e+00	0	28	0	1121976320	63	4166
2026-01-14 01:07:10.62	356.82	65.47	-48.7	-49.9	14.8	0.00e+00	0	28	0	1134559232	63	4173
2026-01-14 01:07:14.65	354.08	66.93	-48.4	-49.5	14.9	0.00e+00	0	28	0	1147142144	63	3967
2026-01-14 01:07:18.69	350.93	68.36	-47.9	-48.9	15.0	0.00e+00	0	28	0	1160773632	62	3950
2026-01-14 01:07:22.72	347.31	69.74	-48.1	-49.2	14.9	0.00e+00	0	28	0	1172307968	62	4074
2026-01-14 01:07:26.75	343.13	71.05	-48.3	-49.5	14.8	0.00e+00	0	27	0	1185939456	62	4195
2026-01-14 01:07:30.79	338.30	72.27	-48.5	-49.6	14.8	0.00e+00	0	27	0	1198522368	62	4291
2026-01-14 01:07:34.82	332.76	73.36	-48.8	-50.0	14.7	0.00e+00	0	28	0	1211105280	62	4446
2026-01-14 01:07:38.86	326.45	74.29	-48.4	-49.5	14.9	0.00e+00	0	27	0	1223688192	63	3989
2026-01-14 01:07:42.89	319.43	75.03	-48.8	-49.9	14.8	0.00e+00	0	28	0	1236271104	63	4177
2026-01-14 01:07:46.93	311.76	75.52	-48.9	-50.0	14.8	0.00e+00	0	28	0	1248854016	63	4241
2026-01-14 01:07:50.97	303.68	75.75	-48.8	-50.0	14.8	0.00e+00	0	28	0	1261436928	63	4227
2026-01-14 01:07:54.99	295.53	75.70	-49.5	-50.7	14.7	0.00e+00	0	28	0	1274019840	64	4318
2026-01-14 01:07:59.03	287.56	75.38	-49.0	-50.2	14.8	0.00e+00	0	28	0	1286602752	64	4086
2026-01-14 01:08:03.05	280.13	74.80	-48.5	-49.6	14.9	0.00e+00	0	28	0	1299185664	63	4035
2026-01-14 01:08:07.09	273.33	73.99	-49.1	-50.3	14.7	0.00e+00	0	28	0	1311768576	63	4344
2026-01-14 01:08:11.13	267.28	73.00	-48.9	-50.1	14.8	0.00e+00	0	28	0	1324351488	63	4259
2026-01-14 01:08:15.17	261.99	71.85	-48.0	-49.1	15.0	0.00e+00	0	28	0	1336934400	62	4018
2026-01-14 01:08:19.19	257.41	70.60	-49.2	-50.4	14.7	0.00e+00	0	27	0	1349517312	63	4400
2026-01-14 01:08:23.23	253.42	69.26	-48.7	-49.9	14.7	0.00e+00	0	27	0	1362100224	62	4422
2026-01-14 01:08:27.27	249.96	67.85	-48.6	-49.7	14.9	0.00e+00	0	28	0	1374683136	63	4088
2026-01-14 01:08:31.31	246.96	66.41	-49.1	-50.3	14.7	0.00e+00	0	28	0	1387266048	63	4372
2026-01-14 01:08:35.35	244.34	64.94	-49.0	-50.1	14.8	0.00e+00	0	28	0	1399848960	64	4036
2026-01-14 01:08:39.37	242.06	63.46	-49.2	-50.4	14.7	0.00e+00	0	27	0	1412431872	64	4172
2026-01-14 01:08:43.41	240.03	61.97	-48.1	-49.2	14.9	0.00e+00	0	28	0	1425014784	62	4056
2026-01-14 01:08:47.44	238.25	60.49	-50.0	-51.3	14.4	0.00e+00	0	28	0	1437597696	65	4358
2026-01-14 01:08:51.48	236.66	59.02	-48.7	-49.9	14.9	0.00e+00	0	27	0	1450180608	64	3923
2026-01-14 01:08:55.52	235.23	57.56	-50.5	-51.8	14.4	0.00e+00	0	28	0	1462763520	66	4381
2026-01-14 01:08:59.54	233.96	56.14	-49.7	-50.9	14.8	0.00e+00	0	27	0	1475346432	66	3929
2026-01-14 01:09:03.58	232.81	54.73	-50.2	-51.4	14.5	0.00e+00	0	28	0	1487929344	65	4432
2026-01-14 01:09:07.62	231.76	53.34	-51.1	-52.4	14.4	0.00e+00	0	28	0	1500512256	68	4188
2026-01-14 01:09:11.65	230.82	51.99	-49.7	-50.9	14.8	0.00e+00	0	28	0	1513095168	66	3924
2026-01-14 01:09:15.69	229.95	50.67	-52.4	-54.0	13.9	0.00e+00	0	28	0	1525678080	69	4743
2026-01-14 01:09:19.72	229.16	49.37	-52.3	-53.9	13.9	0.00e+00	0	28	0	1538260992	71	4152
2026-01-14 01:09:23.76	228.43	48.11	-51.4	-52.8	14.4	0.00e+00	0	28	0	1550843904	69	4130
2026-01-14 01:09:27.79	227.76	46.88	-51.6	-53.1	14.3	0.00e+00	0	28	0	1563426816	69	4247
2026-01-14 01:09:31.83	227.14	45.67	-53.5	-55.4	13.4	0.00e+00	0	28	0	1576009728	72	4670
2026-01-14 01:09:35.87	226.57	44.50	-51.5	-52.9	14.3	0.00e+00	0	28	0	1588592640	69	4157
2026-01-14 01:09:39.91	226.03	43.36	-52.3	-53.9	14.0	0.00e+00	0	28	0	1601175552	70	4410
2026-01-14 01:09:43.94	225.54	42.26	-51.8	-53.2	14.3	0.00e+00	0	28	0	1613758464	70	4091
2026-01-14 01:09:47.98	225.08	41.17	-52.9	-54.7	13.6	0.00e+00	0	28	0	1626341376	70	4824
2026-01-14 01:09:52.01	224.65	40.13	-52.4	-54.0	14.0	0.00e+00	0	28	0	1638924288	71	4226
2026-01-14 01:09:56.04	224.24	39.11	-52.1	-53.6	14.1	0.00e+00	0	28	0	1651507200	70	4271
2026-01-14 01:10:00.08	223.86	38.11	-52.4	-54.1	13.9	0.00e+00	0	28	0	1665138688	70	4494
2026-01-14 01:10:04.12	223.51	37.14	-51.2	-52.6	14.4	0.00e+00	0	28	0	1676673024	69	4020
2026-01-14 01:10:08.16	223.17	36.20	-50.3	-51.5	14.6	0.00e+00	0	28	0	1690304512	67	4003
2026-01-14 01:10:12.18	222.86	35.29	-50.9	-52.2	14.3	0.00e+00	0	28	0	1702887424	67	4338
2026-01-14 01:10:16.22	222.56	34.40	-50.9	-52.3	14.3	0.00e+00	0	28	0	1715470336	67	4341
2026-01-14 01:10:20.26	222.28	33.53	-50.6	-51.9	14.5	0.00e+00	0	28	0	1728053248	67	4164
2026-01-14 01:10:24.30	222.01	32.69	-50.8	-52.2	14.3	0.00e+00	0	28	0	1740636160	67	4326
2026-01-14 01:10:28.33	221.76	31.87	-50.8	-52.2	14.3	0.00e+00	0	27	0	1753219072	67	4327
2026-01-14 01:10:32.37	221.52	31.07	-50.4	-51.7	14.6	0.00e+00	0	28	0	1765801984	67	4076
2026-01-14 01:10:36.41	221.29	30.29	-49.6	-50.8	14.6	0.00e+00	0	28	0	1778384896	65	4144
2026-01-14 01:10:40.45	221.07	29.53	-48.9	-50.0	14.8	0.00e+00	0	28	0	1790967808	64	3991
2026-01-14 01:10:44.49	220.87	28.79	-49.1	-50.3	14.7	0.00e+00	0	28	0	1803550720	64	4111
2026-01-14 01:10:48.51	220.67	28.07	-49.4	-50.6	14.6	0.00e+00	0	28	0	1816133632	64	4251
2026-01-14 01:10:52.55	220.48	27.37	-49.3	-50.5	14.6	0.00e+00	0	28	0	1828716544	64	4242
2026-01-14 01:10:56.59	220.30	26.68	-49.4	-50.6	14.6	0.00e+00	0	28	0	1841299456	64	4269
2026-01-14 01:11:00.61	220.13	26.01	-49.3	-50.5	14.7	0.00e+00	0	28	0	1853882368	64	4235
2026-01-14 01:11:04.64	219.97	25.36	-49.4	-50.6	14.6	0.00e+00	0	28	0	1866465280	64	4286
2026-01-14 01:11:08.68	219.82	24.72	-49.6	-50.9	14.5	0.00e+00	0	28	0	1879048192	64	4414
2026-01-14 01:11:12.72	219.67	24.10	-49.7	-51.0	14.5	0.00e+00	0	28	0	1891631104	64	4468
2026-01-14 01:11:16.75	219.52	23.49	-49.8	-51.1	14.5	0.00e+00	0	28	0	1904214016	64	4497
2026-01-14 01:11:20.78	219.39	22.90	-49.7	-50.9	14.5	0.00e+00	0	28	0	1916796928	64	4436
2026-01-14 01:11:24.81	219.25	22.31	-49.2	-50.5	14.6	0.00e+00	0	28	0	1929379840	64	4199
2026-01-14 01:11:28.84	219.13	21.75	-49.1	-50.3	14.7	0.00e+00	0	28	0	1941962752	64	4126
2026-01-14 01:11:32.87	219.01	21.19	-49.0	-50.2	14.7	0.00e+00	0	28	0	1954545664	64	4059
2026-01-14 01:11:36.91	218.89	20.64	-49.1	-50.3	14.7	0.00e+00	0	28	0	1967128576	64	4111
2026-01-14 01:11:40.96	218.78	20.11	-48.9	-50.2	14.7	0.00e+00	0	28	0	1979711488	64	4053
2026-01-14 01:11:44.99	218.67	19.59	-49.0	-50.2	14.7	0.00e+00	0	28	0	1992294400	64	4075
2026-01-14 01:11:49.02	218.57	19.08	-49.1	-50.3	14.7	0.00e+00	0	28	0	2004877312	64	4104
2026-01-14 01:11:53.05	218.47	18.58	-49.1	-50.3	14.7	0.00e+00	0	28	0	2017460224	64	4110
2026-01-14 01:11:57.08	218.37	18.08	-49.1	-50.3	14.7	0.00e+00	0	28	0	2030043136	64	4144
2026-01-14 01:12:01.12	218.28	17.60	-49.2	-50.5	14.6	0.00e+00	0	28	0	2042626048	64	4199
2026-01-14 01:12:05.15	218.19	17.13	-49.4	-50.7	14.6	0.00e+00	0	28	0	2055208960	64	4302
2026-01-14 01:12:09.19	218.10	16.67	-49.6	-50.9	14.5	0.00e+00	0	27	0	2067791872	64	4405
2026-01-14 01:12:13.22	218.02	16.21	-49.8	-51.1	14.4	0.00e+00	0	28	0	2080374784	64	4496
2026-01-14 01:12:17.26	217.94	15.76	-50.0	-51.3	14.4	0.00e+00	0	27	0	2092957696	65	4389
2026-01-14 01:12:21.29	217.86	15.32	-50.3	-51.7	14.3	0.00e+00	0	28	0	2105540608	65	4567
2026-01-14 01:12:25.33	217.78	14.89	-50.3	-51.6	14.3	0.00e+00	0	27	0	2118123520	65	4539
2026-01-14 01:12:29.37	217.71	14.47	-50.4	-51.8	14.3	0.00e+00	0	28	0	2130706432	66	4387
2026-01-14 01:12:33.41	217.64	14.05	-50.4	-51.9	14.3	0.00e+00	0	28	0	2143289344	66	4396
2026-01-14 01:12:37.45	217.57	13.64	-50.3	-51.7	14.3	0.00e+00	0	28	0	2155872256	66	4317
2026-01-14 01:12:41.48	217.50	13.24	-50.4	-51.8	14.3	0.00e+00	0	28	0	2169503744	66	4347
2026-01-14 01:12:45.52	217.44	12.84	-50.6	-52.0	14.2	0.00e+00	0	28	0	2181038080	66	4472
2026-01-14 01:12:49.56	217.38	12.45	-50.3	-51.7	14.3	0.00e+00	0	28	0	2194669568	66	4297
2026-01-14 01:12:53.59	217.32	12.07	-50.6	-52.0	14.2	0.00e+00	0	28	0	2207252480	66	4491
2026-01-14 01:12:57.63	217.26	11.69	-50.4	-51.8	14.3	0.00e+00	0	28	0	2219835392	66	4372
2026-01-14 01:13:01.66	217.21	11.31	-50.5	-51.9	14.2	0.00e+00	0	28	0	2232418304	66	4421
2026-01-14 01:13:05.69	217.15	10.95	-50.6	-52.0	14.1	0.00e+00	0	28	0	2245001216	66	4487
2026-01-14 01:13:09.73	217.10	10.59	-50.5	-52.0	14.2	0.00e+00	0	27	0	2257584128	66	4464
2026-01-14 01:13:13.76	217.05	10.23	-50.6	-52.0	14.1	0.00e+00	0	28	0	2270167040	66	4485
2026-01-14 01:13:17.80	217.00	9.88	-50.7	-52.1	14.1	0.00e+00	0	28	0	2282749952	66	4538
2026-01-14 01:13:21.84	216.95	9.53	-50.7	-52.2	14.1	0.00e+00	0	28	0	2295332864	66	4570
2026-01-14 01:13:25.88	216.90	9.19	-50.8	-52.3	14.0	0.00e+00	0	28	0	2307915776	66	4618
2026-01-14 01:13:29.91	216.86	8.85	-50.8	-52.3	14.0	0.00e+00	0	28	0	2320498688	66	4620
2026-01-14 01:13:33.93	216.81	8.52	-51.0	-52.5	14.0	0.00e+00	0	28	0	2333081600	67	4461
2026-01-14 01:13:37.97	216.77	8.19	-51.0	-52.6	14.0	0.00e+00	0	28	0	2345664512	67	4507
2026-01-14 01:13:42.00	216.73	7.87	-51.1	-52.7	13.9	0.00e+00	0	28	0	2358247424	67	4586
2026-01-14 01:13:46.03	216.69	7.55	-51.3	-52.9	13.8	0.00e+00	0	28	0	2370830336	67	4693
2026-01-14 01:13:50.07	216.65	7.23	-51.6	-53.3	13.7	0.00e+00	0	28	0	2383413248	68	4637
2026-01-14 01:13:54.10	216.61	6.92	-51.8	-53.5	13.6	0.00e+00	0	28	0	2395996160	68	4734
2026-01-14 01:13:58.13	216.58	6.61	-51.7	-53.4	13.7	0.00e+00	0	28	0	2408579072	69	4423
2026-01-14 01:14:02.17	216.54	6.31	-51.9	-53.7	13.6	0.00e+00	0	28	0	2421161984	69	4578
2026-01-14 01:14:06.21	216.51	6.00	-52.0	-53.8	13.5	0.00e+00	0	28	0	2433744896	69	4616
2026-01-14 01:14:10.25	216.47	5.71	-51.9	-53.7	13.6	0.00e+00	0	28	0	2446327808	69	4553
2026-01-14 01:14:14.29	216.44	5.41	-52.1	-54.0	13.4	0.00e+00	0	28	0	2458910720	69	4736
2026-01-14 01:14:18.32	216.41	5.12	-52.4	-54.3	13.3	0.00e+00	0	28	0	2471493632	70	4643
2026-01-14 01:14:22.37	216.38	4.83	-59.7	-73.5	3.8	1.49e+00	0	28	104	2475687936	84	18771
2026-01-14 01:14:26.40	216.35	4.54	-60.0	-73.9	3.8	1.49e+00	0	28	104	2475687936	85	18574
2026-01-14 01:14:30.43	216.32	4.26	-60.2	-74.1	3.8	1.49e+00	0	28	104	2475687936	85	19020
2026-01-14 01:14:34.46	216.29	3.98	-60.3	-74.1	3.8	1.49e+00	0	28	104	2475687936	85	19163
2026-01-14 01:14:38.50	216.26	3.71	-60.4	-74.2	3.8	1.49e+00	0	28	104	2475687936	85	19332
2026-01-14 01:14:42.53	216.23	3.43	-60.4	-74.3	3.8	1.49e+00	0	28	104	2475687936	86	18450
2026-01-14 01:14:46.57	216.21	3.16	-60.4	-74.2	3.8	1.49e+00	0	28	104	2475687936	86	18292
2026-01-14 01:14:50.61	216.18	2.89	-60.3	-74.2	3.8	1.49e+00	0	28	104	2475687936	86	18183
2026-01-14 01:14:54.65	216.16	2.63	-60.3	-74.2	3.8	1.49e+00	0	28	104	2475687936	86	18141
2026-01-14 01:14:58.69	216.13	2.36	-60.3	-74.2	3.8	1.49e+00	0	28	104	2475687936	86	18166
2026-01-14 01:15:02.72	216.11	2.10	-60.3	-74.1	3.8	1.49e+00	0	28	104	2475687936	86	18076

#Closed at: 2026-01-14 01:15:06
#Recorded file [2475 MB]: D:/lorett/data/31004_260114_040039.dat