passes_logs/2026/01/14/R3.2S_Murmansk/R3.2S_Murmansk__20260114_064856_NOAA_20_JPSS-1_rec.log

#Pass ID: 20260114_064856_NOAA 20 (JPSS-1)
#Satellite: NOAA 20 (JPSS-1)
#Configuration: NOAA 20
#almurnet v.1.7.20251203
#Start time: 2026-01-14 06:48:57

#Version: 2.2.20231116
#Station: R3.2S_Murmansk
#Location: 33.079688 lon 68.888172 lat
#TLE: 1 43013U 17073A   26013.84982170  .00000053  00000+0  46215-4 0  9999
#TLE: 2 43013  98.7633 314.8013 0001544  40.9009 319.2282 14.19535753422575

#Time	Az	El	Level	Level2	SNR	BER	BlckErr	Temp	State	Recorded	gain1	gain2
2026-01-14 06:48:57.59	91.20	2.04	-54.3	-70.3	3.8	1.49e+00	0	25	0	0	73	24481
2026-01-14 06:49:00.62	91.04	2.22	-54.3	-70.3	3.8	1.49e+00	0	25	104	0	73	24564
2026-01-14 06:49:03.64	90.87	2.40	-54.3	-70.3	3.8	1.49e+00	0	25	104	0	73	24550
2026-01-14 06:49:06.67	90.71	2.58	-54.3	-70.3	3.8	1.49e+00	0	25	104	0	73	24585
2026-01-14 06:49:09.70	90.54	2.76	-54.3	-70.3	3.8	1.49e+00	0	26	104	0	73	24627
2026-01-14 06:49:12.72	90.37	2.94	-54.3	-70.3	3.8	1.49e+00	0	26	104	0	73	24598
2026-01-14 06:49:15.75	90.19	3.13	-54.4	-70.3	3.8	1.49e+00	0	26	104	0	73	24649
2026-01-14 06:49:18.77	90.02	3.31	-54.4	-70.3	3.8	1.49e+00	0	26	104	0	73	24636
2026-01-14 06:49:21.80	89.84	3.50	-54.4	-70.3	3.8	1.49e+00	0	26	104	0	73	24637
2026-01-14 06:49:24.83	89.66	3.69	-54.4	-70.3	3.8	1.49e+00	0	26	104	0	73	24681
2026-01-14 06:49:27.85	89.48	3.87	-54.4	-70.3	3.8	1.49e+00	0	26	104	0	73	24685
2026-01-14 06:49:30.88	89.29	4.06	-54.4	-70.3	3.8	1.49e+00	0	26	104	0	73	24643
2026-01-14 06:49:33.90	89.11	4.25	-54.4	-70.3	3.8	1.49e+00	0	26	104	0	73	24673
2026-01-14 06:49:36.93	88.92	4.45	-54.4	-70.3	3.8	1.49e+00	0	26	104	0	73	24643
2026-01-14 06:49:39.96	88.72	4.64	-54.4	-70.4	3.8	1.49e+00	0	26	104	0	73	24710
2026-01-14 06:49:42.99	88.53	4.83	-54.4	-70.4	3.8	1.49e+00	0	26	104	0	73	24777
2026-01-14 06:49:46.01	88.33	5.03	-54.4	-70.4	3.8	1.49e+00	0	26	104	0	73	24784
2026-01-14 06:49:49.04	88.13	5.22	-54.4	-70.4	3.8	1.49e+00	0	26	104	0	73	24792
2026-01-14 06:49:52.07	87.92	5.42	-54.4	-70.4	3.8	1.49e+00	0	26	104	0	73	24730
2026-01-14 06:49:55.09	87.72	5.62	-54.4	-70.4	3.8	1.49e+00	0	26	104	0	73	24747
2026-01-14 06:49:58.12	87.51	5.81	-54.4	-70.4	3.8	1.49e+00	0	26	104	0	73	24791
2026-01-14 06:50:01.15	87.29	6.01	-54.4	-70.4	3.8	1.49e+00	0	26	104	0	73	24783
2026-01-14 06:50:04.17	87.08	6.22	-54.4	-70.4	3.8	1.49e+00	0	26	104	0	74	23476
2026-01-14 06:50:07.20	86.86	6.42	-54.4	-70.4	3.8	1.49e+00	0	26	104	0	74	23474
2026-01-14 06:50:10.24	86.64	6.62	-54.4	-70.4	3.8	1.49e+00	0	27	104	0	74	23489
2026-01-14 06:50:13.26	86.41	6.83	-54.4	-70.4	3.8	1.49e+00	0	27	104	0	74	23481
2026-01-14 06:50:16.29	86.18	7.03	-54.5	-70.4	3.8	1.49e+00	0	27	104	0	74	23551
2026-01-14 06:50:19.32	85.95	7.24	-54.5	-70.4	3.8	1.49e+00	0	27	104	0	74	23526
2026-01-14 06:50:22.35	85.71	7.45	-54.5	-70.4	3.8	1.49e+00	0	27	104	0	74	23509
2026-01-14 06:50:25.38	85.48	7.66	-54.4	-70.4	3.8	1.49e+00	0	27	104	0	74	23430
2026-01-14 06:50:28.40	85.23	7.87	-54.5	-70.4	3.8	1.49e+00	0	27	104	0	74	23553
2026-01-14 06:50:31.43	84.99	8.08	-54.5	-70.4	3.8	1.49e+00	0	27	104	0	74	23472
2026-01-14 06:50:34.46	84.74	8.29	-54.5	-70.4	3.8	1.49e+00	0	27	104	0	74	23466
2026-01-14 06:50:37.48	84.48	8.51	-54.5	-70.4	3.8	1.49e+00	0	27	104	0	74	23568
2026-01-14 06:50:40.51	84.22	8.72	-54.5	-70.4	3.8	1.49e+00	0	27	104	0	74	23534
2026-01-14 06:50:43.53	83.96	8.94	-54.5	-70.4	3.8	1.49e+00	0	27	104	0	74	23563
2026-01-14 06:50:46.56	83.70	9.16	-54.5	-70.4	3.8	1.49e+00	0	27	104	0	74	23558
2026-01-14 06:50:49.58	83.43	9.38	-54.5	-70.5	3.8	1.49e+00	0	27	104	0	74	23588
2026-01-14 06:50:52.61	83.15	9.60	-54.5	-70.4	3.8	1.49e+00	0	27	104	0	74	23514
2026-01-14 06:50:55.55	82.88	9.82	-54.5	-70.4	3.8	1.49e+00	0	27	104	0	74	23565
2026-01-14 06:50:58.72	82.59	10.05	-54.5	-70.4	3.8	1.49e+00	0	27	104	0	74	23522
2026-01-14 06:51:01.60	82.31	10.26	-54.5	-70.5	3.8	1.49e+00	0	27	104	0	74	23612
2026-01-14 06:51:04.76	82.01	10.50	-54.5	-70.5	3.8	1.49e+00	0	27	104	0	74	23628
2026-01-14 06:51:07.63	81.72	10.72	-54.5	-70.5	3.8	1.49e+00	0	27	104	0	74	23599
2026-01-14 06:51:10.80	81.41	10.96	-54.5	-70.5	3.8	1.49e+00	0	27	104	0	74	23591
2026-01-14 06:51:13.66	81.12	11.17	-54.5	-70.5	3.8	1.49e+00	0	27	104	0	74	23606
2026-01-14 06:51:16.82	80.79	11.42	-54.5	-70.4	3.8	1.49e+00	0	27	104	0	74	23563
2026-01-14 06:51:19.68	80.49	11.64	-54.5	-70.4	3.8	1.49e+00	0	27	104	0	74	23567
2026-01-14 06:51:22.80	80.16	11.88	-54.5	-70.5	3.8	1.49e+00	0	27	104	0	74	23592
2026-01-14 06:51:25.66	79.85	12.10	-54.5	-70.5	3.8	1.49e+00	0	27	104	0	74	23600
2026-01-14 06:51:28.81	79.51	12.35	-54.5	-70.5	3.8	1.49e+00	0	27	104	0	74	23592
2026-01-14 06:51:31.68	79.19	12.57	-54.5	-70.5	3.8	1.49e+00	0	27	104	0	74	23605
2026-01-14 06:51:34.81	78.83	12.82	-54.5	-70.5	3.8	1.49e+00	0	27	104	0	74	23611
2026-01-14 06:51:37.69	78.50	13.05	-54.5	-70.4	3.8	1.49e+00	0	27	104	0	74	23561
2026-01-14 06:51:40.85	78.13	13.30	-54.5	-70.5	3.8	1.49e+00	0	27	104	0	74	23649
2026-01-14 06:51:43.73	77.78	13.53	-54.5	-70.5	3.8	1.49e+00	0	27	104	0	74	23634
2026-01-14 06:51:46.90	77.40	13.79	-54.5	-70.5	3.8	1.49e+00	0	27	104	0	74	23634
2026-01-14 06:51:49.76	77.05	14.02	-54.5	-70.5	3.8	1.49e+00	0	27	104	0	74	23679
2026-01-14 06:51:52.93	76.65	14.28	-54.5	-70.5	3.8	1.49e+00	0	27	104	0	74	23670
2026-01-14 06:51:55.82	76.28	14.52	-54.5	-70.4	3.8	1.49e+00	0	27	104	0	74	23581
2026-01-14 06:51:58.98	75.87	14.78	-54.5	-70.5	3.8	1.49e+00	0	27	104	0	74	23678
2026-01-14 06:52:01.85	75.49	15.02	-54.5	-70.5	3.8	1.49e+00	0	27	104	0	74	23610
2026-01-14 06:52:05.00	75.07	15.28	-54.5	-70.5	3.8	1.49e+00	0	27	104	0	74	23638
2026-01-14 06:52:07.86	74.67	15.52	-54.5	-70.5	3.8	1.49e+00	0	27	104	0	74	23635
2026-01-14 06:52:11.03	74.23	15.78	-54.5	-70.5	3.8	1.49e+00	0	27	104	0	74	23641
2026-01-14 06:52:13.91	73.83	16.03	-54.5	-70.5	3.8	1.49e+00	0	27	104	0	74	23666
2026-01-14 06:52:17.07	73.37	16.30	-54.5	-70.5	3.8	1.49e+00	0	27	104	0	74	23653
2026-01-14 06:52:19.93	72.95	16.54	-54.5	-70.5	3.8	1.49e+00	0	27	104	0	74	23657
2026-01-14 06:52:23.08	72.48	16.81	-54.5	-70.5	3.8	1.49e+00	0	27	104	0	74	23694
2026-01-14 06:52:25.93	72.05	17.05	-54.5	-70.5	3.8	1.49e+00	0	27	104	0	74	23755
2026-01-14 06:52:29.07	71.56	17.32	-54.5	-70.5	3.8	1.49e+00	0	27	104	0	74	23723
2026-01-14 06:52:31.92	71.12	17.56	-54.5	-70.5	3.8	1.49e+00	0	27	104	0	74	23699
2026-01-14 06:52:35.09	70.61	17.84	-54.5	-70.5	3.8	1.49e+00	0	27	104	0	74	23621
2026-01-14 06:52:37.94	70.15	18.08	-54.5	-70.5	3.8	1.49e+00	0	27	104	0	74	23639
2026-01-14 06:52:41.11	69.62	18.36	-54.5	-70.5	3.8	1.49e+00	0	27	104	0	74	23590
2026-01-14 06:52:43.99	69.14	18.61	-54.5	-70.5	3.8	1.49e+00	0	27	104	0	74	23698
2026-01-14 06:52:47.16	68.59	18.88	-54.5	-70.5	3.8	1.49e+00	0	27	104	0	74	23702
2026-01-14 06:52:50.04	68.09	19.13	-54.5	-70.5	3.8	1.49e+00	0	27	104	0	74	23698
2026-01-14 06:52:53.21	67.53	19.41	-54.5	-70.5	3.8	1.49e+00	0	27	104	0	74	23680
2026-01-14 06:52:56.09	67.01	19.66	-54.5	-70.5	3.8	1.49e+00	0	27	104	0	74	23742
2026-01-14 06:52:59.27	66.42	19.94	-54.5	-70.5	3.8	1.49e+00	0	27	104	0	74	23668
2026-01-14 06:53:02.15	65.88	20.19	-54.5	-70.5	3.8	1.49e+00	0	27	104	0	74	23650
2026-01-14 06:53:05.32	65.28	20.46	-54.5	-70.4	3.8	1.49e+00	0	27	104	0	74	23580
2026-01-14 06:53:08.18	64.73	20.71	-54.5	-70.5	3.8	1.49e+00	0	27	104	0	74	23644
2026-01-14 06:53:11.31	64.11	20.98	-54.5	-70.5	3.8	1.49e+00	0	27	104	0	74	23680
2026-01-14 06:53:14.16	63.54	21.23	-54.5	-70.5	3.8	1.49e+00	0	27	104	0	74	23634
2026-01-14 06:53:17.32	62.90	21.50	-54.5	-70.5	3.8	1.49e+00	0	27	104	0	74	23669
2026-01-14 06:53:20.18	62.30	21.75	-54.5	-70.5	3.8	1.49e+00	0	27	104	0	74	23655
2026-01-14 06:53:23.34	61.64	22.02	-54.5	-70.5	3.8	1.49e+00	0	27	104	0	74	23698
2026-01-14 06:53:26.21	61.02	22.26	-54.5	-70.5	3.8	1.49e+00	0	27	104	0	74	23743
2026-01-14 06:53:29.37	60.33	22.53	-54.5	-70.5	3.8	1.49e+00	0	27	104	0	74	23764
2026-01-14 06:53:32.23	59.70	22.77	-54.5	-70.5	3.8	1.49e+00	0	27	104	0	74	23751
2026-01-14 06:53:35.37	58.99	23.03	-54.5	-70.5	3.8	1.49e+00	0	27	104	0	74	23751
2026-01-14 06:53:38.24	58.34	23.27	-54.5	-70.5	3.8	1.49e+00	0	27	104	0	74	23686
2026-01-14 06:53:41.39	57.60	23.53	-54.5	-70.5	3.8	1.49e+00	0	27	104	0	74	23761
2026-01-14 06:53:44.26	56.93	23.76	-54.5	-70.5	3.8	1.49e+00	0	27	104	0	74	23682
2026-01-14 06:53:47.41	56.17	24.02	-54.5	-70.5	3.8	1.49e+00	0	27	104	0	74	23732
2026-01-14 06:53:50.28	55.47	24.24	-54.5	-70.5	3.8	1.49e+00	0	27	104	0	74	23727
2026-01-14 06:53:53.44	54.69	24.49	-54.5	-70.5	3.8	1.49e+00	0	27	104	0	74	23705
2026-01-14 06:53:56.31	53.97	24.71	-54.5	-70.5	3.8	1.49e+00	0	27	104	0	74	23716
2026-01-14 06:53:59.46	53.17	24.95	-54.5	-70.5	3.8	1.49e+00	0	27	104	0	74	23666
2026-01-14 06:54:02.34	52.42	25.17	-54.5	-70.5	3.8	1.49e+00	0	27	104	0	74	23658
2026-01-14 06:54:05.51	51.59	25.40	-54.5	-70.5	3.8	1.49e+00	0	27	104	0	74	23650
2026-01-14 06:54:08.38	50.82	25.61	-54.5	-70.5	3.8	1.49e+00	0	27	104	0	74	23651
2026-01-14 06:54:11.54	49.97	25.83	-54.5	-70.5	3.8	1.49e+00	0	27	104	0	74	23682
2026-01-14 06:54:14.41	49.19	26.03	-54.5	-70.5	3.8	1.49e+00	0	27	104	0	74	23647
2026-01-14 06:54:17.58	48.31	26.25	-54.5	-70.5	3.8	1.49e+00	0	27	104	0	74	23696
2026-01-14 06:54:20.45	47.50	26.43	-54.5	-70.5	3.8	1.49e+00	0	27	104	0	74	23751
2026-01-14 06:54:23.59	46.61	26.63	-54.5	-70.5	3.8	1.49e+00	0	27	104	0	74	23706
2026-01-14 06:54:26.45	45.79	26.81	-54.5	-70.5	3.8	1.49e+00	0	27	104	0	74	23677
2026-01-14 06:54:29.60	44.87	27.00	-54.5	-70.5	3.8	1.49e+00	0	27	104	0	74	23727
2026-01-14 06:54:32.46	44.03	27.17	-54.5	-70.5	3.8	1.49e+00	0	27	104	0	74	23769
2026-01-14 06:54:35.61	43.10	27.34	-54.5	-70.5	3.8	1.49e+00	0	27	104	0	74	23688
2026-01-14 06:54:38.47	42.24	27.49	-54.5	-70.5	3.8	1.49e+00	0	27	104	0	74	23704
2026-01-14 06:54:41.63	41.28	27.65	-54.5	-70.5	3.8	1.49e+00	0	27	104	0	74	23677
2026-01-14 06:54:44.51	40.40	27.79	-54.5	-70.5	3.8	1.49e+00	0	27	104	0	74	23646
2026-01-14 06:54:47.68	39.42	27.94	-54.5	-70.5	3.9	1.49e+00	0	27	104	0	74	23733
2026-01-14 06:54:50.56	38.52	28.07	-54.5	-70.5	3.8	1.49e+00	0	27	104	0	74	23664
2026-01-14 06:54:53.73	37.53	28.19	-54.5	-70.5	3.8	1.49e+00	0	27	104	0	74	23736
2026-01-14 06:54:56.59	36.62	28.30	-54.5	-70.5	3.8	1.49e+00	0	27	104	0	74	23717
2026-01-14 06:54:59.74	35.62	28.41	-54.5	-70.5	3.8	1.49e+00	0	27	104	0	74	23716
2026-01-14 06:55:02.61	34.70	28.51	-54.5	-70.5	3.8	1.49e+00	0	27	104	0	74	23765
2026-01-14 06:55:05.75	33.69	28.60	-54.5	-70.5	3.8	1.49e+00	0	27	104	0	74	23685
2026-01-14 06:55:08.60	32.76	28.67	-54.5	-70.5	3.8	1.49e+00	0	27	104	0	74	23712
2026-01-14 06:55:11.75	31.74	28.75	-54.5	-70.5	3.8	1.49e+00	0	27	104	0	74	23756
2026-01-14 06:55:14.62	30.80	28.81	-54.5	-70.5	3.8	1.49e+00	0	27	104	0	74	23691
2026-01-14 06:55:17.76	29.77	28.86	-54.5	-70.5	3.8	1.49e+00	0	27	104	0	74	23692
2026-01-14 06:55:20.63	28.82	28.90	-54.5	-70.5	3.8	1.49e+00	0	27	104	0	74	23696
2026-01-14 06:55:23.79	27.78	28.93	-54.5	-70.5	3.8	1.49e+00	0	27	104	0	74	23669
2026-01-14 06:55:26.67	26.83	28.96	-54.5	-70.5	3.8	1.49e+00	0	27	104	0	74	23722
2026-01-14 06:55:29.82	25.79	28.97	-54.5	-70.5	3.8	1.49e+00	0	27	104	0	74	23696
2026-01-14 06:55:32.69	24.84	28.97	-54.5	-70.5	3.8	1.49e+00	0	27	104	0	74	23711
2026-01-14 06:55:35.86	23.79	28.97	-54.5	-70.5	3.8	1.49e+00	0	27	104	0	74	23758
2026-01-14 06:55:38.73	22.84	28.95	-54.5	-70.5	3.8	1.49e+00	0	27	104	0	74	23707
2026-01-14 06:55:41.88	21.80	28.92	-54.5	-70.5	3.8	1.49e+00	0	27	104	0	74	23754
2026-01-14 06:55:44.74	20.86	28.89	-54.5	-70.5	3.8	1.49e+00	0	27	104	0	74	23724
2026-01-14 06:55:47.89	19.82	28.84	-54.5	-70.5	3.8	1.49e+00	0	27	104	0	74	23788
2026-01-14 06:55:50.75	18.89	28.79	-54.5	-70.5	3.8	1.49e+00	0	27	104	0	74	23757
2026-01-14 06:55:53.92	17.85	28.73	-54.5	-70.5	3.8	1.49e+00	0	27	104	0	74	23743
2026-01-14 06:55:56.80	16.91	28.66	-54.5	-70.5	3.8	1.49e+00	0	27	104	0	74	23679
2026-01-14 06:55:59.95	15.90	28.57	-54.5	-70.5	3.8	1.49e+00	0	27	104	0	74	23719
2026-01-14 06:56:02.82	14.97	28.49	-54.5	-70.5	3.8	1.49e+00	0	27	104	0	74	23691
2026-01-14 06:56:05.97	13.96	28.38	-54.5	-70.5	3.8	1.49e+00	0	27	104	0	74	23748
2026-01-14 06:56:08.83	13.06	28.28	-54.5	-70.5	3.8	1.49e+00	0	27	104	0	74	23761
2026-01-14 06:56:11.98	12.06	28.16	-54.5	-70.5	3.8	1.49e+00	0	27	104	0	74	23802
2026-01-14 06:56:14.84	11.17	28.04	-54.5	-70.5	3.8	1.49e+00	0	28	104	0	74	23732
2026-01-14 06:56:17.99	10.19	27.90	-54.5	-70.5	3.8	1.49e+00	0	27	104	0	74	23722
2026-01-14 06:56:20.86	9.30	27.77	-54.5	-70.5	3.8	1.49e+00	0	27	104	0	74	23688
2026-01-14 06:56:24.03	8.34	27.61	-54.5	-70.5	3.8	1.49e+00	0	27	104	0	74	23688
2026-01-14 06:56:26.90	7.47	27.46	-54.5	-70.5	3.8	1.49e+00	0	27	104	0	74	23719
2026-01-14 06:56:30.06	6.52	27.29	-54.5	-70.5	3.8	1.49e+00	0	27	104	0	74	23636
2026-01-14 06:56:32.94	5.67	27.13	-54.5	-70.5	3.8	1.49e+00	0	27	104	0	74	23777
2026-01-14 06:56:36.09	4.75	26.95	-54.5	-70.5	3.8	1.49e+00	0	27	104	0	74	23680
2026-01-14 06:56:38.95	3.92	26.78	-54.6	-70.5	3.8	1.49e+00	0	27	104	0	74	23781
2026-01-14 06:56:42.11	3.02	26.58	-54.5	-70.5	3.8	1.49e+00	0	27	104	0	74	23692
2026-01-14 06:56:44.97	2.21	26.40	-54.5	-70.5	3.8	1.49e+00	0	27	104	0	74	23700
2026-01-14 06:56:48.11	1.33	26.19	-54.6	-70.5	3.8	1.49e+00	0	27	104	0	74	23707
2026-01-14 06:56:50.97	0.54	25.99	-54.5	-70.5	3.8	1.49e+00	0	27	104	0	74	23795
2026-01-14 06:56:54.14	359.68	25.77	-54.5	-70.5	3.8	1.49e+00	0	27	104	0	74	23750
2026-01-14 06:56:57.00	358.91	25.57	-54.5	-70.5	3.8	1.49e+00	0	27	104	0	74	23714
2026-01-14 06:57:00.17	358.07	25.34	-54.6	-70.5	3.8	1.49e+00	0	27	104	0	74	23766
2026-01-14 06:57:03.05	357.32	25.13	-54.5	-70.5	3.8	1.49e+00	0	27	104	0	74	23785
2026-01-14 06:57:06.20	356.51	24.89	-54.6	-70.5	3.8	1.49e+00	0	27	104	0	74	23763
2026-01-14 06:57:09.06	355.79	24.67	-54.5	-70.5	3.8	1.49e+00	0	27	104	0	74	23812
2026-01-14 06:57:12.22	355.00	24.43	-54.6	-70.5	3.9	1.49e+00	0	27	104	0	74	23776
2026-01-14 06:57:15.10	354.29	24.20	-54.5	-70.5	3.8	1.49e+00	0	27	104	0	74	23753
2026-01-14 06:57:18.26	353.52	23.95	-54.5	-70.5	3.8	1.49e+00	0	27	104	0	74	23733
2026-01-14 06:57:21.13	352.84	23.72	-54.5	-70.5	3.8	1.49e+00	0	27	104	0	74	23734
2026-01-14 06:57:24.29	352.10	23.46	-54.6	-70.5	3.8	1.49e+00	0	27	104	0	74	23773
2026-01-14 06:57:27.16	351.43	23.23	-54.6	-70.5	3.8	1.49e+00	0	27	104	0	74	23781
2026-01-14 06:57:30.33	350.71	22.96	-54.5	-70.5	3.8	1.49e+00	0	27	104	0	74	23759
2026-01-14 06:57:33.18	350.07	22.73	-54.5	-70.5	3.8	1.49e+00	0	27	104	0	74	23685
2026-01-14 06:57:36.32	349.38	22.46	-54.5	-70.5	3.8	1.49e+00	0	27	104	0	74	23731
2026-01-14 06:57:39.19	348.76	22.22	-54.5	-70.5	3.8	1.49e+00	0	27	104	0	74	23754
2026-01-14 06:57:42.35	348.09	21.95	-54.6	-70.5	3.8	1.49e+00	0	27	104	0	74	23774
2026-01-14 06:57:45.21	347.49	21.71	-54.5	-70.5	3.8	1.49e+00	0	27	104	0	74	23768
2026-01-14 06:57:48.35	346.84	21.44	-54.5	-70.5	3.8	1.49e+00	0	27	104	0	74	23757
2026-01-14 06:57:51.21	346.26	21.19	-54.5	-70.5	3.8	1.49e+00	0	27	104	0	74	23753
2026-01-14 06:57:54.37	345.63	20.92	-54.5	-70.5	3.8	1.49e+00	0	27	104	0	74	23726
2026-01-14 06:57:57.24	345.07	20.67	-54.6	-70.5	3.8	1.49e+00	0	27	104	0	74	23788
2026-01-14 06:58:00.39	344.47	20.40	-54.6	-70.5	3.8	1.49e+00	0	27	104	0	74	23705
2026-01-14 06:58:03.27	343.92	20.15	-54.5	-70.5	3.8	1.49e+00	0	27	104	0	74	23709
2026-01-14 06:58:06.43	343.34	19.87	-54.6	-70.5	3.8	1.49e+00	0	27	104	0	74	23753
2026-01-14 06:58:09.31	342.81	19.62	-54.5	-70.5	3.8	1.49e+00	0	27	104	0	74	23750
2026-01-14 06:58:12.48	342.24	19.35	-54.5	-70.5	3.8	1.49e+00	0	27	104	0	74	23701
2026-01-14 06:58:15.36	341.73	19.10	-54.5	-70.5	3.8	1.49e+00	0	27	104	0	74	23744
2026-01-14 06:58:18.54	341.18	18.82	-54.6	-70.5	3.8	1.49e+00	0	27	104	0	74	23816
2026-01-14 06:58:21.42	340.69	18.57	-54.5	-70.5	3.8	1.49e+00	0	27	104	0	74	23681
2026-01-14 06:58:24.59	340.16	18.30	-54.5	-70.5	3.8	1.49e+00	0	27	104	0	74	23689
2026-01-14 06:58:27.46	339.69	18.05	-54.6	-70.5	3.8	1.49e+00	0	27	104	0	74	23814
2026-01-14 06:58:30.63	339.18	17.78	-54.5	-70.5	3.8	1.49e+00	0	27	104	0	74	23728
2026-01-14 06:58:33.50	338.72	17.53	-54.5	-70.5	3.8	1.49e+00	0	27	104	0	74	23738
2026-01-14 06:58:36.66	338.23	17.26	-54.5	-70.5	3.8	1.49e+00	0	27	104	0	74	23713
2026-01-14 06:58:39.54	337.79	17.01	-54.5	-70.5	3.8	1.49e+00	0	27	104	0	74	23720
2026-01-14 06:58:42.69	337.32	16.74	-55.0	-71.0	3.8	1.49e+00	0	27	104	0	75	23800
2026-01-14 06:58:45.57	336.89	16.50	-55.0	-71.0	3.8	1.49e+00	0	27	104	0	75	23762
2026-01-14 06:58:48.73	336.43	16.23	-55.0	-71.0	3.8	1.49e+00	0	27	104	0	75	23754
2026-01-14 06:58:51.60	336.02	15.99	-55.0	-71.0	3.8	1.49e+00	0	27	104	0	75	23687
2026-01-14 06:58:54.74	335.58	15.73	-55.0	-71.0	3.8	1.49e+00	0	27	104	0	75	23721
2026-01-14 06:58:57.61	335.18	15.49	-55.0	-71.0	3.9	1.49e+00	0	27	104	0	75	23751
2026-01-14 06:59:00.77	334.75	15.22	-55.0	-71.0	3.8	1.49e+00	0	27	104	0	75	23735
2026-01-14 06:59:03.65	334.37	14.98	-54.6	-70.5	3.8	1.49e+00	0	27	104	0	75	22382
2026-01-14 06:59:06.81	333.95	14.72	-54.7	-70.7	3.8	1.49e+00	0	27	104	0	75	22798
2026-01-14 06:59:09.68	333.59	14.49	-54.7	-70.7	3.8	1.49e+00	0	27	104	0	75	22782
2026-01-14 06:59:12.85	333.18	14.23	-54.7	-70.7	3.8	1.49e+00	0	27	104	0	75	22796
2026-01-14 06:59:15.72	332.83	13.99	-54.7	-70.6	3.8	1.49e+00	0	28	104	0	75	22760
2026-01-14 06:59:18.88	332.44	13.74	-54.7	-70.6	3.8	1.49e+00	0	27	104	0	75	22761
2026-01-14 06:59:21.76	332.09	13.51	-54.7	-70.6	3.8	1.49e+00	0	27	104	0	75	22721
2026-01-14 06:59:24.91	331.72	13.25	-54.7	-70.6	3.8	1.49e+00	0	27	104	0	75	22768
2026-01-14 06:59:27.77	331.39	13.03	-54.7	-70.6	3.8	1.49e+00	0	27	104	0	75	22727
2026-01-14 06:59:30.91	331.03	12.78	-54.7	-70.6	3.9	1.49e+00	0	27	104	0	75	22704
2026-01-14 06:59:33.76	330.71	12.55	-54.7	-70.6	3.8	1.49e+00	0	27	104	0	75	22734
2026-01-14 06:59:36.89	330.36	12.31	-54.7	-70.6	3.8	1.49e+00	0	27	104	0	75	22724
2026-01-14 06:59:39.74	330.05	12.08	-54.7	-70.6	3.8	1.49e+00	0	27	104	0	75	22749
2026-01-14 06:59:42.87	329.71	11.84	-54.7	-70.6	3.8	1.49e+00	0	27	104	0	75	22748
2026-01-14 06:59:45.72	329.41	11.62	-54.7	-70.6	3.8	1.49e+00	0	27	104	0	75	22725
2026-01-14 06:59:48.87	329.08	11.38	-54.7	-70.6	3.8	1.49e+00	0	27	104	0	75	22748
2026-01-14 06:59:51.72	328.79	11.16	-55.0	-71.0	3.8	1.49e+00	0	27	104	0	75	23587
2026-01-14 06:59:54.87	328.48	10.92	-58.3	-74.3	3.8	1.49e+00	0	27	104	0	81	24584
2026-01-14 06:59:57.71	328.20	10.71	-59.3	-75.3	3.8	1.49e+00	0	27	104	0	83	24662
2026-01-14 07:00:00.84	327.89	10.47	-59.8	-75.9	3.8	1.49e+00	0	28	104	0	84	24828
2026-01-14 07:00:03.69	327.62	10.26	-60.1	-76.1	3.8	1.49e+00	0	27	104	0	85	24091
2026-01-14 07:00:06.82	327.32	10.03	-60.2	-76.2	3.8	1.49e+00	0	27	104	0	85	24402
2026-01-14 07:00:09.67	327.06	9.82	-60.1	-76.2	3.8	1.49e+00	0	27	104	0	85	24243
2026-01-14 07:00:12.82	326.77	9.59	-60.2	-76.3	3.8	1.49e+00	0	28	104	0	85	24512
2026-01-14 07:00:15.67	326.51	9.38	-60.3	-76.4	3.8	1.49e+00	0	27	104	0	85	24733
2026-01-14 07:00:18.82	326.23	9.15	-60.4	-76.5	3.8	1.49e+00	0	27	104	0	85	25009
2026-01-14 07:00:21.67	325.99	8.95	-60.4	-76.5	3.8	1.49e+00	0	27	104	0	85	25078
2026-01-14 07:00:24.82	325.71	8.72	-60.4	-76.5	3.8	1.49e+00	0	27	104	0	86	23658
2026-01-14 07:00:27.68	325.47	8.52	-60.4	-76.4	3.8	1.49e+00	0	27	104	0	86	23531
2026-01-14 07:00:30.83	325.21	8.30	-60.5	-76.5	3.8	1.49e+00	0	27	104	0	86	23801
2026-01-14 07:00:33.68	324.98	8.10	-60.3	-76.4	3.8	1.49e+00	0	27	104	0	86	23476
2026-01-14 07:00:36.82	324.72	7.88	-60.3	-76.4	3.8	1.49e+00	0	27	104	0	86	23446
2026-01-14 07:00:39.68	324.49	7.68	-60.3	-76.4	3.8	1.49e+00	0	27	104	0	86	23328
2026-01-14 07:00:42.83	324.25	7.46	-60.2	-76.3	3.8	1.49e+00	0	27	104	0	86	23224
2026-01-14 07:00:45.68	324.03	7.26	-60.2	-76.3	3.8	1.49e+00	0	27	104	0	86	23095
2026-01-14 07:00:48.82	323.79	7.05	-60.2	-76.3	3.8	1.49e+00	0	27	104	0	86	23064
2026-01-14 07:00:51.69	323.57	6.86	-60.2	-76.2	3.8	1.49e+00	0	27	104	0	86	23038
2026-01-14 07:00:54.84	323.34	6.64	-60.2	-76.2	3.8	1.49e+00	0	28	104	0	86	22994
2026-01-14 07:00:57.69	323.13	6.45	-60.1	-76.2	3.8	1.49e+00	0	27	104	0	86	22988
2026-01-14 07:01:00.83	322.91	6.24	-60.1	-76.2	3.8	1.49e+00	0	27	104	0	86	22943
2026-01-14 07:01:03.66	322.70	6.05	-60.2	-76.2	3.8	1.49e+00	0	27	104	0	86	22923
2026-01-14 07:01:06.81	322.48	5.85	-60.2	-76.2	3.8	1.49e+00	0	27	104	0	86	22946
2026-01-14 07:01:09.67	322.29	5.66	-60.1	-76.2	3.8	1.49e+00	0	27	104	0	86	22935
2026-01-14 07:01:12.81	322.07	5.45	-60.1	-76.2	3.8	1.49e+00	0	27	104	0	86	22932
2026-01-14 07:01:15.66	321.88	5.27	-60.1	-76.2	3.8	1.49e+00	0	27	104	0	86	22943
2026-01-14 07:01:18.80	321.68	5.07	-60.1	-76.2	3.8	1.49e+00	0	27	104	0	86	22950
2026-01-14 07:01:21.67	321.49	4.88	-60.1	-76.2	3.8	1.49e+00	0	27	104	0	86	22921
2026-01-14 07:01:24.81	321.29	4.68	-60.1	-76.2	3.8	1.49e+00	0	27	104	0	86	22800
2026-01-14 07:01:27.66	321.11	4.50	-60.1	-76.2	3.8	1.49e+00	0	27	104	0	86	22823
2026-01-14 07:01:30.81	320.91	4.30	-60.1	-76.2	3.8	1.49e+00	0	27	104	0	86	22891
2026-01-14 07:01:33.69	320.73	4.12	-60.1	-76.2	3.8	1.49e+00	0	27	104	0	86	22824
2026-01-14 07:01:36.83	320.54	3.93	-60.1	-76.2	3.8	1.49e+00	0	27	104	0	86	22865
2026-01-14 07:01:39.68	320.37	3.75	-60.1	-76.2	3.8	1.49e+00	0	27	104	0	86	22784
2026-01-14 07:01:42.82	320.19	3.56	-60.1	-76.2	3.8	1.49e+00	0	27	104	0	86	22805
2026-01-14 07:01:45.67	320.02	3.38	-60.1	-76.2	3.8	1.49e+00	0	27	104	0	86	22828
2026-01-14 07:01:48.82	319.84	3.19	-60.1	-76.1	3.8	1.49e+00	0	27	104	0	86	22737
2026-01-14 07:01:51.68	319.68	3.01	-60.1	-76.1	3.8	1.49e+00	0	27	104	0	86	22747
2026-01-14 07:01:54.81	319.50	2.82	-60.1	-76.1	3.8	1.49e+00	0	28	104	0	86	22704
2026-01-14 07:01:57.68	319.34	2.65	-60.1	-76.1	3.8	1.49e+00	0	28	104	0	86	22731
2026-01-14 07:02:00.83	319.17	2.46	-60.1	-76.1	3.8	1.49e+00	0	27	104	0	86	22720
2026-01-14 07:02:03.69	319.02	2.29	-60.1	-76.1	3.8	1.49e+00	0	27	104	0	86	22718
2026-01-14 07:02:06.84	318.85	2.11	-60.0	-76.1	3.8	1.49e+00	0	28	104	0	86	22678

#Closed at: 2026-01-14 07:02:08
#Recorded file [0 MB]: D:/lorett/data/31004_260114_094857.dat