passes_logs/2026/01/14/R3.2S_Murmansk/R3.2S_Murmansk__20260114_000547_KANOPUS-V_5_rec.log

#Pass ID: 20260114_000547_KANOPUS-V 5
#Satellite: KANOPUS-V 5
#Configuration: KANOPUS-V_8320
#almurnet v.1.7.20251203
#Start time: 2026-01-14 00:05:48

#Version: 2.2.20231116
#Station: R3.2S_Murmansk
#Location: 33.079688 lon 68.888172 lat
#TLE: 1 43876U 18111A   26013.65992293  .00002361  00000+0  10210-3 0  9995
#TLE: 2 43876  97.3684 282.1984 0001772  87.0401 273.1039 15.23431305391261

#Time	Az	El	Level	Level2	SNR	BER	BlckErr	Temp	State	Recorded	gain1	gain2
2026-01-14 00:05:48.95	23.42	2.12	-61.0	-70.8	3.8	7.46e-01	0	27	0	0	85	11587
2026-01-14 00:05:51.95	23.20	2.32	-61.1	-70.8	3.8	7.47e-01	0	27	104	0	86	10978
2026-01-14 00:05:54.96	22.98	2.51	-61.1	-70.8	3.8	7.46e-01	0	27	104	0	86	10945
2026-01-14 00:05:57.96	22.75	2.71	-61.1	-70.8	3.8	7.46e-01	0	27	104	0	86	10924
2026-01-14 00:06:00.98	22.52	2.91	-61.1	-70.8	3.8	7.46e-01	0	27	104	0	86	10977
2026-01-14 00:06:03.98	22.28	3.11	-61.0	-70.8	3.8	7.47e-01	0	27	104	0	86	10948
2026-01-14 00:06:06.97	22.04	3.31	-61.0	-70.8	3.8	7.44e-01	0	27	104	0	86	10973
2026-01-14 00:06:09.98	21.79	3.52	-61.0	-70.8	3.8	7.46e-01	0	27	104	0	86	10958
2026-01-14 00:06:12.98	21.54	3.72	-61.1	-70.8	3.8	7.45e-01	0	27	104	0	86	10968
2026-01-14 00:06:15.99	21.29	3.93	-61.1	-70.8	3.8	7.46e-01	0	27	104	0	86	10941
2026-01-14 00:06:18.98	21.03	4.14	-61.0	-70.8	3.8	7.46e-01	0	27	104	0	86	10924
2026-01-14 00:06:21.97	20.77	4.34	-61.0	-70.8	3.8	7.45e-01	0	27	104	0	86	10946
2026-01-14 00:06:24.98	20.50	4.56	-61.0	-70.8	3.8	7.45e-01	0	27	104	0	86	10935
2026-01-14 00:06:27.98	20.22	4.77	-61.0	-70.8	3.8	7.46e-01	0	27	104	0	86	10945
2026-01-14 00:06:30.98	19.94	4.99	-61.1	-70.8	3.8	7.45e-01	0	27	104	0	86	10928
2026-01-14 00:06:33.97	19.66	5.20	-61.1	-70.8	3.8	7.47e-01	0	27	104	0	86	10971
2026-01-14 00:06:36.97	19.36	5.42	-61.0	-70.8	3.8	7.45e-01	0	27	104	0	86	10918
2026-01-14 00:06:39.95	19.07	5.64	-61.0	-70.7	3.8	7.46e-01	0	28	104	0	86	10882
2026-01-14 00:06:42.96	18.77	5.86	-61.0	-70.8	3.8	7.45e-01	0	27	104	0	86	10959
2026-01-14 00:06:45.95	18.46	6.09	-61.0	-70.8	3.8	7.44e-01	0	28	104	0	86	10948
2026-01-14 00:06:48.95	18.14	6.31	-61.1	-70.8	3.8	7.45e-01	0	27	104	0	86	10983
2026-01-14 00:06:51.96	17.82	6.54	-61.0	-70.8	3.8	7.44e-01	0	27	104	0	86	10922
2026-01-14 00:06:54.96	17.49	6.77	-61.0	-70.8	3.8	7.46e-01	0	27	104	0	86	10920
2026-01-14 00:06:57.95	17.15	7.01	-61.0	-70.8	3.8	7.46e-01	0	28	104	0	86	10954
2026-01-14 00:07:00.95	16.81	7.24	-61.0	-70.8	3.8	7.45e-01	0	27	104	0	86	10981
2026-01-14 00:07:03.95	16.46	7.48	-61.0	-70.8	3.8	7.46e-01	0	27	104	0	86	10943
2026-01-14 00:07:06.94	16.10	7.71	-61.0	-70.8	3.8	7.45e-01	0	27	104	0	86	10936
2026-01-14 00:07:09.94	15.74	7.96	-61.0	-70.8	3.8	7.46e-01	0	27	104	0	86	10930
2026-01-14 00:07:12.94	15.37	8.20	-61.0	-70.8	3.8	7.45e-01	0	27	104	0	86	10936
2026-01-14 00:07:15.94	14.98	8.44	-61.0	-70.7	3.8	7.45e-01	0	28	104	0	86	10880
2026-01-14 00:07:18.94	14.59	8.69	-61.0	-70.8	3.8	7.44e-01	0	27	104	0	86	10910
2026-01-14 00:07:21.94	14.20	8.94	-61.0	-70.8	3.8	7.45e-01	0	28	104	0	86	10955
2026-01-14 00:07:24.94	13.79	9.19	-61.0	-70.7	3.8	7.46e-01	0	28	104	0	86	10901
2026-01-14 00:07:27.92	13.37	9.44	-61.0	-70.8	3.8	7.46e-01	0	28	104	0	86	10942
2026-01-14 00:07:30.93	12.95	9.70	-61.0	-70.8	3.8	7.46e-01	0	28	104	0	86	10914
2026-01-14 00:07:33.91	12.52	9.96	-61.0	-70.8	3.8	7.46e-01	0	28	104	0	86	10955
2026-01-14 00:07:36.90	12.07	10.22	-61.0	-70.8	3.8	7.45e-01	0	28	104	0	86	10968
2026-01-14 00:07:39.90	11.62	10.48	-61.0	-70.8	3.8	7.46e-01	0	28	104	0	86	10943
2026-01-14 00:07:42.90	11.15	10.75	-61.0	-70.8	3.8	7.47e-01	0	28	104	0	86	10935
2026-01-14 00:07:45.89	10.68	11.01	-61.0	-70.8	3.8	7.45e-01	0	28	104	0	86	10969
2026-01-14 00:07:48.89	10.19	11.28	-61.0	-70.8	3.8	7.46e-01	0	28	104	0	86	10970
2026-01-14 00:07:51.89	9.69	11.55	-61.0	-70.7	3.8	7.45e-01	0	28	104	0	86	10894
2026-01-14 00:07:54.88	9.18	11.83	-61.0	-70.8	3.8	7.44e-01	0	28	104	0	86	10924
2026-01-14 00:07:57.88	8.66	12.10	-61.0	-70.7	3.8	7.46e-01	0	27	104	0	86	10883
2026-01-14 00:08:00.88	8.13	12.38	-61.0	-70.8	3.8	7.46e-01	0	28	104	0	86	10937
2026-01-14 00:08:03.88	7.58	12.66	-61.0	-70.8	3.8	7.46e-01	0	28	104	0	86	10922
2026-01-14 00:08:06.88	7.02	12.94	-61.0	-70.8	3.8	7.45e-01	0	28	104	0	86	10918
2026-01-14 00:08:09.89	6.44	13.23	-61.0	-70.8	3.8	7.47e-01	0	28	104	0	86	10920
2026-01-14 00:08:12.89	5.85	13.51	-61.0	-70.8	3.8	7.46e-01	0	28	104	0	86	10933
2026-01-14 00:08:15.89	5.25	13.80	-61.0	-70.7	3.8	7.46e-01	0	27	104	0	86	10900
2026-01-14 00:08:18.90	4.64	14.09	-61.0	-70.8	3.8	7.46e-01	0	28	104	0	86	10914
2026-01-14 00:08:21.90	4.00	14.38	-61.0	-70.8	3.8	7.44e-01	0	27	104	0	86	10922
2026-01-14 00:08:24.89	3.36	14.68	-61.0	-70.8	3.8	7.44e-01	0	28	104	0	86	10917
2026-01-14 00:08:27.89	2.70	14.97	-61.0	-70.8	3.8	7.46e-01	0	28	104	0	86	10951
2026-01-14 00:08:30.89	2.02	15.27	-61.0	-70.7	3.8	7.45e-01	0	28	104	0	86	10890
2026-01-14 00:08:33.90	1.33	15.56	-61.0	-70.7	3.8	7.45e-01	0	28	104	0	86	10872
2026-01-14 00:08:36.89	0.62	15.86	-61.0	-70.7	3.8	7.46e-01	0	28	104	0	86	10886
2026-01-14 00:08:39.90	359.89	16.16	-61.0	-70.7	3.8	7.45e-01	0	28	104	0	86	10865
2026-01-14 00:08:42.90	359.14	16.46	-61.0	-70.8	3.8	7.46e-01	0	28	104	0	86	10936
2026-01-14 00:08:45.91	358.38	16.76	-61.0	-70.8	3.8	7.46e-01	0	28	104	0	86	10950
2026-01-14 00:08:48.91	357.59	17.06	-61.0	-70.8	3.8	7.46e-01	0	28	104	0	86	10916
2026-01-14 00:08:51.91	356.79	17.35	-61.0	-70.8	3.8	7.45e-01	0	28	104	0	86	10940
2026-01-14 00:08:54.91	355.97	17.65	-61.0	-70.8	3.8	7.46e-01	0	28	104	0	86	10911
2026-01-14 00:08:57.90	355.14	17.95	-61.0	-70.8	3.8	7.47e-01	0	28	104	0	86	10936
2026-01-14 00:09:00.90	354.28	18.25	-61.0	-70.8	3.8	7.46e-01	0	28	104	0	86	10910
2026-01-14 00:09:03.90	353.40	18.54	-61.0	-70.7	3.8	7.45e-01	0	28	104	0	86	10873
2026-01-14 00:09:06.90	352.50	18.83	-61.0	-70.7	3.8	7.44e-01	0	28	104	0	86	10903
2026-01-14 00:09:09.89	351.59	19.12	-61.0	-70.8	3.8	7.45e-01	0	28	104	0	86	10914
2026-01-14 00:09:12.87	350.66	19.41	-61.0	-70.7	3.8	7.46e-01	0	28	104	0	86	10868
2026-01-14 00:09:15.87	349.70	19.70	-61.0	-70.7	3.8	7.46e-01	0	28	104	0	86	10884
2026-01-14 00:09:18.86	348.72	19.98	-61.0	-70.8	3.8	7.44e-01	0	28	104	0	86	10908
2026-01-14 00:09:21.86	347.72	20.26	-61.0	-70.7	3.8	7.44e-01	0	28	104	0	86	10868
2026-01-14 00:09:24.86	346.70	20.53	-61.0	-70.7	3.8	7.45e-01	0	28	104	0	86	10854
2026-01-14 00:09:27.87	345.65	20.80	-61.0	-70.7	3.8	7.45e-01	0	28	104	0	86	10896
2026-01-14 00:09:30.87	344.59	21.06	-61.0	-70.8	3.8	7.46e-01	0	28	104	0	86	10923
2026-01-14 00:09:33.87	343.50	21.32	-61.0	-70.7	3.8	7.45e-01	0	28	104	0	86	10890
2026-01-14 00:09:36.87	342.40	21.57	-61.0	-70.7	3.8	7.46e-01	0	28	104	0	86	10852
2026-01-14 00:09:39.86	341.27	21.81	-61.0	-70.7	3.8	7.47e-01	0	28	104	0	86	10895
2026-01-14 00:09:42.86	340.13	22.04	-61.0	-70.7	3.8	7.46e-01	0	28	104	0	86	10850
2026-01-14 00:09:45.88	338.96	22.27	-61.0	-70.7	3.8	7.46e-01	0	28	104	0	86	10859
2026-01-14 00:09:48.88	337.77	22.48	-61.0	-70.7	3.8	7.47e-01	0	28	104	0	86	10868
2026-01-14 00:09:51.89	336.56	22.69	-61.0	-70.7	3.8	7.45e-01	0	28	104	0	86	10863
2026-01-14 00:09:54.89	335.34	22.89	-61.0	-70.7	3.8	7.46e-01	0	28	104	0	86	10883
2026-01-14 00:09:57.89	334.10	23.07	-61.0	-70.8	3.8	7.45e-01	0	28	104	0	86	10909
2026-01-14 00:10:00.88	332.85	23.25	-61.0	-70.8	3.8	7.46e-01	0	28	104	0	86	10925
2026-01-14 00:10:03.88	331.59	23.41	-61.0	-70.7	3.8	7.45e-01	0	28	104	0	86	10863
2026-01-14 00:10:06.87	330.31	23.56	-61.0	-70.7	3.8	7.48e-01	0	28	104	0	86	10899
2026-01-14 00:10:09.85	329.02	23.69	-61.0	-70.7	3.8	7.44e-01	0	28	104	0	86	10902
2026-01-14 00:10:12.84	327.71	23.81	-61.0	-70.7	3.8	7.45e-01	0	28	104	0	86	10865
2026-01-14 00:10:15.84	326.39	23.92	-61.0	-70.7	3.8	7.44e-01	0	28	104	0	86	10900
2026-01-14 00:10:18.83	325.07	24.01	-61.0	-70.7	3.8	7.44e-01	0	28	104	0	86	10894
2026-01-14 00:10:21.83	323.73	24.09	-61.0	-70.7	3.8	7.47e-01	0	28	104	0	86	10878
2026-01-14 00:10:24.82	322.39	24.15	-61.0	-70.7	3.8	7.47e-01	0	28	104	0	86	10872
2026-01-14 00:10:27.83	321.03	24.20	-61.0	-70.7	3.8	7.45e-01	0	28	104	0	86	10891
2026-01-14 00:10:30.82	319.68	24.23	-61.0	-70.7	3.8	7.45e-01	0	28	104	0	86	10870
2026-01-14 00:10:33.82	318.33	24.25	-61.0	-70.7	3.8	7.44e-01	0	28	104	0	86	10815
2026-01-14 00:10:36.82	316.97	24.25	-61.0	-70.8	3.8	7.45e-01	0	28	104	0	86	10914
2026-01-14 00:10:39.82	315.61	24.24	-61.0	-70.7	3.8	7.45e-01	0	28	104	0	86	10841
2026-01-14 00:10:42.81	314.26	24.21	-61.0	-70.7	3.8	7.46e-01	0	28	104	0	86	10892
2026-01-14 00:10:45.81	312.91	24.16	-61.0	-70.7	3.8	7.46e-01	0	28	104	0	86	10889
2026-01-14 00:10:48.80	311.57	24.10	-61.0	-70.7	3.8	7.45e-01	0	28	104	0	86	10864
2026-01-14 00:10:51.81	310.22	24.02	-61.0	-70.7	3.8	7.43e-01	0	28	104	0	86	10864
2026-01-14 00:10:54.81	308.89	23.93	-61.0	-70.7	3.8	7.45e-01	0	28	104	0	86	10846
2026-01-14 00:10:57.79	307.58	23.82	-61.0	-70.7	3.8	7.46e-01	0	28	104	0	86	10888
2026-01-14 00:11:00.79	306.27	23.70	-61.0	-70.7	3.8	7.45e-01	0	28	104	0	86	10866
2026-01-14 00:11:03.78	304.97	23.57	-61.0	-70.7	3.8	7.45e-01	0	28	104	0	86	10843
2026-01-14 00:11:06.76	303.69	23.42	-61.0	-70.7	3.8	7.46e-01	0	28	104	0	86	10891
2026-01-14 00:11:09.76	302.42	23.26	-61.0	-70.7	3.8	7.46e-01	0	28	104	0	86	10838
2026-01-14 00:11:12.75	301.17	23.09	-61.0	-70.7	3.8	7.45e-01	0	28	104	0	86	10879
2026-01-14 00:11:15.75	299.92	22.90	-61.0	-70.7	3.8	7.45e-01	0	28	104	0	86	10888
2026-01-14 00:11:18.73	298.71	22.71	-61.0	-70.7	3.8	7.44e-01	0	28	104	0	86	10839
2026-01-14 00:11:21.73	297.50	22.50	-61.0	-70.7	3.8	7.45e-01	0	28	104	0	86	10854
2026-01-14 00:11:24.73	296.31	22.29	-61.0	-70.7	3.8	7.47e-01	0	28	104	0	86	10873
2026-01-14 00:11:27.73	295.14	22.06	-61.0	-70.7	3.8	7.46e-01	0	28	104	0	86	10853
2026-01-14 00:11:30.72	294.00	21.83	-61.0	-70.7	3.8	7.46e-01	0	28	104	0	86	10828
2026-01-14 00:11:33.71	292.87	21.59	-61.0	-70.7	3.8	7.45e-01	0	28	104	0	86	10864
2026-01-14 00:11:36.70	291.76	21.34	-61.0	-70.7	3.8	7.45e-01	0	28	104	0	86	10815
2026-01-14 00:11:39.70	290.67	21.08	-61.0	-70.7	3.8	7.45e-01	0	28	104	0	86	10864
2026-01-14 00:11:42.69	289.61	20.82	-61.0	-70.7	3.8	7.45e-01	0	28	104	0	86	10866
2026-01-14 00:11:45.67	288.56	20.55	-61.0	-70.7	3.8	7.45e-01	0	28	104	0	86	10869
2026-01-14 00:11:48.66	287.54	20.28	-61.0	-70.7	3.8	7.46e-01	0	28	104	0	86	10857
2026-01-14 00:11:51.65	286.54	20.00	-61.0	-70.7	3.8	7.43e-01	0	28	104	0	86	10830
2026-01-14 00:11:54.64	285.55	19.72	-61.0	-70.7	3.8	7.46e-01	0	28	104	0	86	10847
2026-01-14 00:11:57.64	284.59	19.44	-61.0	-70.7	3.8	7.46e-01	0	28	104	0	86	10866
2026-01-14 00:12:00.63	283.65	19.15	-61.0	-70.7	3.8	7.46e-01	0	28	104	0	86	10830
2026-01-14 00:12:03.63	282.73	18.86	-61.0	-70.7	3.8	7.47e-01	0	28	104	0	86	10851
2026-01-14 00:12:06.63	281.82	18.56	-61.0	-70.7	3.8	7.46e-01	0	28	104	0	86	10851
2026-01-14 00:12:09.63	280.94	18.27	-61.0	-70.7	3.8	7.44e-01	0	28	104	0	86	10865
2026-01-14 00:12:12.62	280.08	17.97	-61.0	-70.7	3.8	7.46e-01	0	28	104	0	86	10863
2026-01-14 00:12:15.60	279.24	17.67	-61.0	-70.7	3.8	7.46e-01	0	28	104	0	86	10886
2026-01-14 00:12:18.59	278.42	17.37	-61.0	-70.7	3.8	7.44e-01	0	28	104	0	86	10852
2026-01-14 00:12:21.58	277.62	17.08	-61.0	-70.7	3.8	7.46e-01	0	28	104	0	86	10819
2026-01-14 00:12:24.59	276.83	16.77	-61.0	-70.7	3.8	7.43e-01	0	28	104	0	86	10860
2026-01-14 00:12:27.56	276.07	16.48	-61.0	-70.7	3.8	7.45e-01	0	28	104	0	86	10890
2026-01-14 00:12:30.57	275.31	16.18	-61.0	-70.7	3.8	7.45e-01	0	28	104	0	86	10845
2026-01-14 00:12:33.55	274.59	15.88	-61.0	-70.7	3.8	7.46e-01	0	28	104	0	86	10852
2026-01-14 00:12:36.54	273.87	15.58	-61.0	-70.7	3.8	7.45e-01	0	28	104	0	86	10841
2026-01-14 00:12:39.54	273.17	15.28	-61.0	-70.7	3.8	7.47e-01	0	28	104	0	86	10868
2026-01-14 00:12:42.53	272.49	14.99	-61.0	-70.7	3.8	7.47e-01	0	28	104	0	86	10845
2026-01-14 00:12:45.54	271.82	14.69	-61.0	-70.7	3.8	7.45e-01	0	28	104	0	86	10852
2026-01-14 00:12:48.52	271.18	14.40	-61.0	-70.7	3.8	7.45e-01	0	28	104	0	86	10852
2026-01-14 00:12:51.53	270.54	14.11	-60.9	-70.7	3.8	7.44e-01	0	28	104	0	86	10805
2026-01-14 00:12:54.53	269.92	13.82	-61.0	-70.7	3.8	7.46e-01	0	28	104	0	86	10839
2026-01-14 00:12:57.53	269.31	13.53	-61.0	-70.7	3.8	7.45e-01	0	28	104	0	86	10832
2026-01-14 00:13:00.54	268.72	13.24	-61.0	-70.7	3.8	7.45e-01	0	28	104	0	86	10848
2026-01-14 00:13:03.53	268.14	12.95	-60.9	-70.7	3.8	7.46e-01	0	28	104	0	86	10818
2026-01-14 00:13:06.53	267.58	12.67	-60.9	-70.7	3.8	7.44e-01	0	28	104	0	86	10818
2026-01-14 00:13:09.53	267.03	12.39	-60.9	-70.7	3.8	7.46e-01	0	28	104	0	86	10800
2026-01-14 00:13:12.53	266.49	12.11	-60.9	-70.7	3.8	7.44e-01	0	28	104	0	86	10806
2026-01-14 00:13:15.52	265.96	11.83	-60.9	-70.6	3.8	7.47e-01	0	28	104	0	86	10773
2026-01-14 00:13:18.52	265.45	11.56	-60.9	-70.7	3.8	7.45e-01	0	28	104	0	86	10809
2026-01-14 00:13:21.51	264.95	11.28	-60.9	-70.7	3.8	7.46e-01	0	28	104	0	86	10779
2026-01-14 00:13:24.52	264.45	11.01	-60.9	-70.7	3.8	7.46e-01	0	28	104	0	86	10786
2026-01-14 00:13:27.50	263.98	10.75	-60.9	-70.7	3.8	7.46e-01	0	28	104	0	86	10804
2026-01-14 00:13:30.51	263.51	10.48	-60.9	-70.7	3.8	7.45e-01	0	28	104	0	86	10840
2026-01-14 00:13:33.50	263.05	10.22	-60.9	-70.7	3.8	7.44e-01	0	28	104	0	86	10781
2026-01-14 00:13:36.50	262.60	9.95	-61.0	-70.6	3.8	7.46e-01	0	28	104	0	86	10771
2026-01-14 00:13:39.51	262.16	9.69	-60.9	-70.7	3.8	7.46e-01	0	28	104	0	86	10798
2026-01-14 00:13:42.50	261.73	9.44	-60.9	-70.6	3.8	7.46e-01	0	28	104	0	86	10766
2026-01-14 00:13:45.50	261.31	9.18	-60.9	-70.7	3.8	7.47e-01	0	28	104	0	86	10790
2026-01-14 00:13:48.48	260.91	8.93	-60.9	-70.7	3.8	7.46e-01	0	28	104	0	86	10827
2026-01-14 00:13:51.48	260.50	8.68	-60.9	-70.7	3.8	7.44e-01	0	28	104	0	86	10810
2026-01-14 00:13:54.47	260.11	8.43	-60.9	-70.7	3.8	7.46e-01	0	28	104	0	86	10784
2026-01-14 00:13:57.47	259.73	8.19	-60.9	-70.6	3.8	7.45e-01	0	28	104	0	86	10778
2026-01-14 00:14:00.47	259.35	7.94	-60.9	-70.7	3.8	7.46e-01	0	28	104	0	86	10822
2026-01-14 00:14:03.46	258.98	7.70	-60.9	-70.7	3.8	7.48e-01	0	28	104	0	86	10821
2026-01-14 00:14:06.46	258.62	7.46	-60.9	-70.7	3.8	7.45e-01	0	28	104	0	86	10822
2026-01-14 00:14:09.46	258.27	7.22	-60.9	-70.7	3.8	7.45e-01	0	28	104	0	86	10825
2026-01-14 00:14:12.45	257.93	6.99	-60.9	-70.7	3.8	7.47e-01	0	28	104	0	86	10811
2026-01-14 00:14:15.43	257.59	6.76	-60.9	-70.7	3.8	7.45e-01	0	28	104	0	86	10779
2026-01-14 00:14:18.43	257.26	6.53	-60.9	-70.7	3.8	7.45e-01	0	28	104	0	86	10822
2026-01-14 00:14:21.42	256.93	6.30	-60.9	-70.7	3.8	7.45e-01	0	28	104	0	86	10812
2026-01-14 00:14:24.41	256.61	6.07	-60.9	-70.6	3.8	7.44e-01	0	28	104	0	86	10769
2026-01-14 00:14:27.41	256.30	5.85	-60.9	-70.7	3.8	7.45e-01	0	28	104	0	86	10831
2026-01-14 00:14:30.39	256.00	5.62	-60.9	-70.7	3.8	7.46e-01	0	28	104	0	86	10832
2026-01-14 00:14:33.39	255.70	5.40	-60.9	-70.6	3.8	7.46e-01	0	27	104	0	86	10761
2026-01-14 00:14:36.39	255.40	5.18	-60.9	-70.6	3.8	7.46e-01	0	28	104	0	86	10736
2026-01-14 00:14:39.38	255.12	4.96	-60.9	-70.7	3.8	7.46e-01	0	28	104	0	86	10783
2026-01-14 00:14:42.37	254.83	4.75	-60.9	-70.6	3.8	7.46e-01	0	28	104	0	86	10764
2026-01-14 00:14:45.37	254.56	4.54	-60.9	-70.6	3.8	7.44e-01	0	28	104	0	86	10743
2026-01-14 00:14:48.36	254.28	4.32	-60.9	-70.7	3.8	7.43e-01	0	28	104	0	86	10795
2026-01-14 00:14:51.36	254.02	4.11	-60.9	-70.6	3.8	7.46e-01	0	28	104	0	86	10753
2026-01-14 00:14:54.36	253.76	3.90	-60.9	-70.6	3.8	7.46e-01	0	28	104	0	86	10743
2026-01-14 00:14:57.35	253.50	3.70	-60.9	-70.6	3.8	7.45e-01	0	28	104	0	86	10764
2026-01-14 00:15:00.35	253.25	3.49	-60.9	-70.7	3.8	7.45e-01	0	28	104	0	86	10787
2026-01-14 00:15:03.34	253.00	3.29	-60.9	-70.6	3.8	7.45e-01	0	28	104	0	86	10757
2026-01-14 00:15:06.34	252.76	3.08	-60.9	-70.7	3.8	7.45e-01	0	28	104	0	86	10782
2026-01-14 00:15:09.33	252.52	2.88	-60.9	-70.7	3.8	7.45e-01	0	28	104	0	86	10786
2026-01-14 00:15:12.33	252.28	2.68	-60.9	-70.6	3.8	7.43e-01	0	28	104	0	86	10770
2026-01-14 00:15:15.32	252.05	2.49	-60.9	-70.6	3.8	7.45e-01	0	28	104	0	86	10755
2026-01-14 00:15:18.30	251.83	2.29	-60.9	-70.6	3.8	7.46e-01	0	28	104	0	86	10763
2026-01-14 00:15:21.29	251.61	2.10	-60.9	-70.7	3.8	7.45e-01	0	28	104	0	86	10787

#Closed at: 2026-01-14 00:15:23
#Recorded file [0 MB]: D:/lorett/data/31004_260114_030548.dat