passes_logs/2026/01/14/R3.2S_Murmansk/R3.2S_Murmansk__20260114_105628_TY-42_rec.log

#Pass ID: 20260114_105628_TY-42
#Satellite: TY-42
#Configuration: TY-42_900M
#almurnet v.1.7.20251203
#Start time: 2026-01-14 10:56:29

#Version: 2.2.20231116
#Station: R3.2S_Murmansk
#Location: 33.079688 lon 68.888172 lat
#TLE: 1 64048U 25103A   26014.26833333  .00008011  00000-0  38191-3 0 09992
#TLE: 2 64048 097.4118 089.6996 0001685 091.1025 050.2393 15.19172418 36706

#Time	Az	El	Level	Level2	SNR	BER	BlckErr	Temp	State	Recorded	gain1	gain2
2026-01-14 10:56:29.76	23.07	2.07	-57.7	-61.0	6.1	0.00e+00	0	32	0	0	82	20666
2026-01-14 10:56:32.78	22.89	2.27	-57.8	-61.0	6.2	0.00e+00	0	32	104	0	82	20830
2026-01-14 10:56:35.81	22.70	2.48	-57.8	-61.0	6.2	0.00e+00	0	32	104	0	82	20755
2026-01-14 10:56:38.84	22.51	2.68	-57.8	-61.0	6.2	0.00e+00	0	32	104	0	82	20822
2026-01-14 10:56:41.86	22.32	2.88	-57.8	-61.0	6.2	0.00e+00	0	33	104	0	82	20857
2026-01-14 10:56:44.88	22.12	3.09	-57.8	-61.0	6.1	0.00e+00	0	33	104	0	82	20870
2026-01-14 10:56:47.90	21.92	3.30	-57.8	-61.1	6.2	0.00e+00	0	33	104	0	82	20897
2026-01-14 10:56:50.91	21.72	3.51	-57.8	-61.1	6.2	0.00e+00	0	33	104	0	82	20912
2026-01-14 10:56:53.93	21.51	3.72	-57.8	-61.1	6.2	0.00e+00	0	33	104	0	82	20965
2026-01-14 10:56:56.95	21.29	3.93	-57.8	-61.1	6.1	0.00e+00	0	33	104	0	82	20974
2026-01-14 10:56:59.98	21.08	4.15	-57.8	-61.1	6.2	0.00e+00	0	33	104	0	82	20942
2026-01-14 10:57:03.00	20.86	4.37	-57.8	-61.1	6.2	0.00e+00	0	33	104	0	82	21001
2026-01-14 10:57:06.02	20.63	4.59	-57.9	-61.1	6.2	0.00e+00	0	34	104	0	82	21069
2026-01-14 10:57:09.05	20.40	4.81	-57.9	-61.1	6.2	0.00e+00	0	34	104	0	82	21055
2026-01-14 10:57:12.06	20.17	5.03	-57.9	-61.1	6.1	0.00e+00	0	34	104	0	82	21029
2026-01-14 10:57:15.09	19.92	5.26	-57.9	-61.1	6.2	0.00e+00	0	34	104	0	82	21028
2026-01-14 10:57:18.10	19.68	5.48	-58.1	-61.3	6.2	0.00e+00	0	34	104	0	82	21525
2026-01-14 10:57:21.12	19.43	5.71	-57.9	-61.2	6.2	0.00e+00	0	34	104	0	82	21232
2026-01-14 10:57:24.14	19.18	5.95	-58.1	-61.3	6.2	0.00e+00	0	34	104	0	82	21551
2026-01-14 10:57:27.15	18.92	6.18	-58.0	-61.3	6.1	0.00e+00	0	34	104	0	82	21385
2026-01-14 10:57:30.16	18.65	6.42	-58.2	-61.4	6.2	0.00e+00	0	34	104	0	82	21739
2026-01-14 10:57:33.18	18.38	6.65	-58.1	-61.3	6.1	0.00e+00	0	34	104	0	82	21523
2026-01-14 10:57:36.19	18.10	6.90	-58.2	-61.4	6.2	0.00e+00	0	34	104	0	82	21791
2026-01-14 10:57:39.21	17.82	7.14	-58.1	-61.4	6.2	0.00e+00	0	34	104	0	82	21648
2026-01-14 10:57:42.23	17.53	7.39	-58.3	-61.5	6.1	0.00e+00	0	34	104	0	82	21940
2026-01-14 10:57:45.23	17.24	7.63	-58.2	-61.5	6.2	0.00e+00	0	34	104	0	82	21880
2026-01-14 10:57:48.25	16.93	7.88	-58.3	-61.5	6.2	0.00e+00	0	35	104	0	82	22086
2026-01-14 10:57:51.26	16.63	8.14	-58.2	-61.5	6.2	0.00e+00	0	35	104	0	82	21972
2026-01-14 10:57:54.27	16.31	8.39	-58.4	-61.6	6.2	0.00e+00	0	35	104	0	82	22223
2026-01-14 10:57:57.29	15.99	8.65	-58.3	-61.6	6.1	0.00e+00	0	35	104	0	82	22147
2026-01-14 10:58:00.31	15.66	8.92	-50.3	-51.5	8.7	0.00e+00	0	35	104	0	68	15479
2026-01-14 10:58:03.31	15.32	9.18	-47.2	-47.7	10.5	2.19e-01	8	36	0	268435456	61	14997
2026-01-14 10:58:06.32	14.97	9.45	-46.8	-47.3	10.7	1.52e-01	0	36	0	603979776	59	16149
2026-01-14 10:58:09.33	14.62	9.72	-43.5	-43.9	12.0	9.71e-02	0	37	0	939524096	54	14487
2026-01-14 10:58:12.34	14.26	9.99	-42.0	-42.3	12.4	1.81e-02	0	36	0	1275068416	51	14346
2026-01-14 10:58:15.35	13.89	10.27	-41.7	-42.0	12.4	6.36e-03	0	37	0	1610612736	50	14749
2026-01-14 10:58:18.36	13.51	10.55	-41.6	-41.9	12.5	5.58e-03	0	37	0	1954545664	50	14526
2026-01-14 10:58:21.39	13.12	10.83	-41.4	-41.7	12.4	4.57e-03	0	37	0	2298478592	49	15075
2026-01-14 10:58:24.40	12.72	11.12	-41.2	-41.5	12.5	4.23e-03	0	37	0	2634022912	49	14700
2026-01-14 10:58:27.41	12.31	11.41	-41.2	-41.5	12.6	3.57e-03	0	37	0	2977955840	49	14726
2026-01-14 10:58:30.41	11.89	11.70	-40.9	-41.2	12.7	3.52e-03	0	37	0	3313500160	49	14269
2026-01-14 10:58:33.42	11.46	12.00	-41.0	-41.3	12.7	2.89e-03	0	37	0	3649044480	49	14307
2026-01-14 10:58:36.44	11.02	12.30	-40.6	-41.0	12.7	2.67e-03	0	37	0	3984588800	48	14614
2026-01-14 10:58:39.45	10.57	12.60	-40.5	-40.8	12.8	1.94e-03	0	38	0	4328521728	48	14314
2026-01-14 10:58:42.45	10.11	12.90	-40.5	-40.7	12.8	1.67e-03	0	38	0	4664066048	48	14263
2026-01-14 10:58:45.47	9.63	13.21	-39.5	-39.8	12.8	2.24e-03	0	38	0	5007998976	46	14340
2026-01-14 10:58:48.49	9.14	13.53	-39.2	-39.5	12.7	2.06e-03	0	38	0	5343543296	45	14733
2026-01-14 10:58:51.49	8.64	13.84	-39.2	-39.5	12.8	1.77e-03	0	38	0	5679087616	45	14671
2026-01-14 10:58:54.50	8.13	14.16	-39.0	-39.3	12.9	1.35e-03	0	38	0	6023020544	45	14349
2026-01-14 10:58:57.51	7.61	14.48	-39.0	-39.3	12.9	1.34e-03	0	38	0	6358564864	45	14413
2026-01-14 10:59:00.51	7.07	14.81	-38.7	-39.0	12.9	1.25e-03	0	38	0	6702497792	44	14744
2026-01-14 10:59:03.53	6.51	15.14	-38.8	-39.0	12.9	1.26e-03	0	38	0	7038042112	44	14743
2026-01-14 10:59:06.54	5.94	15.47	-38.6	-38.8	13.0	9.54e-04	0	38	0	7373586432	44	14430
2026-01-14 10:59:09.56	5.35	15.81	-38.5	-38.8	13.0	6.77e-04	0	38	0	7717519360	44	14328
2026-01-14 10:59:12.57	4.75	16.15	-38.5	-38.8	13.0	5.63e-04	0	38	0	8053063680	44	14302
2026-01-14 10:59:15.59	4.13	16.49	-38.4	-38.7	13.1	5.58e-04	0	38	0	8396996608	44	14212
2026-01-14 10:59:18.60	3.49	16.84	-38.2	-38.5	13.1	3.58e-04	0	38	0	8732540928	43	14694
2026-01-14 10:59:21.62	2.84	17.19	-38.2	-38.5	13.1	3.58e-04	0	38	0	9076473856	43	14663
2026-01-14 10:59:24.64	2.17	17.54	-37.9	-38.2	13.2	2.91e-04	0	38	0	9412018176	43	14215
2026-01-14 10:59:27.65	1.48	17.90	-37.9	-38.2	13.2	2.67e-04	0	38	0	9747562496	43	14216
2026-01-14 10:59:30.67	0.76	18.26	-37.8	-38.1	13.1	2.67e-04	0	38	0	10091495424	42	14853
2026-01-14 10:59:33.69	0.03	18.62	-37.6	-37.9	13.2	2.62e-04	0	38	0	10427039744	42	14455
2026-01-14 10:59:36.70	359.28	18.98	-37.5	-37.7	13.3	2.00e-04	0	38	0	10762584064	42	14258
2026-01-14 10:59:39.72	358.51	19.35	-37.1	-37.4	13.2	9.53e-05	0	38	0	11106516992	41	14515
2026-01-14 10:59:42.73	357.72	19.71	-37.0	-37.3	13.3	5.72e-05	0	39	0	11450449920	41	14306
2026-01-14 10:59:45.73	356.91	20.08	-36.9	-37.2	13.2	1.24e-04	0	38	0	11785994240	40	14956
2026-01-14 10:59:48.76	356.06	20.45	-36.8	-37.1	13.2	1.10e-04	0	39	0	12121538560	40	14814
2026-01-14 10:59:51.77	355.20	20.82	-36.7	-36.9	13.3	7.62e-05	0	39	0	12465471488	40	14567
2026-01-14 10:59:54.77	354.32	21.19	-36.5	-36.7	13.3	6.67e-05	0	38	0	12801015808	40	14213
2026-01-14 10:59:57.79	353.41	21.56	-36.6	-36.8	13.3	3.81e-05	0	39	0	13136560128	40	14425
2026-01-14 11:00:00.80	352.47	21.93	-36.3	-36.6	13.3	2.86e-05	0	39	0	13480493056	39	14850
2026-01-14 11:00:03.81	351.51	22.30	-36.1	-36.3	13.4	3.33e-05	0	39	0	13824425984	39	14415
2026-01-14 11:00:06.82	350.52	22.66	-35.9	-36.2	13.4	1.90e-05	0	39	0	14159970304	39	14125
2026-01-14 11:00:09.83	349.51	23.03	-35.9	-36.2	13.3	1.90e-05	0	39	0	14495514624	38	14949
2026-01-14 11:00:12.83	348.47	23.39	-35.9	-36.1	13.3	4.29e-05	0	39	0	14831058944	38	14931
2026-01-14 11:00:15.84	347.41	23.75	-35.8	-36.0	13.4	2.86e-05	0	39	0	15174991872	38	14723
2026-01-14 11:00:18.84	346.31	24.10	-35.6	-35.8	13.4	3.33e-05	0	39	0	15510536192	38	14410
2026-01-14 11:00:21.86	345.19	24.45	-35.5	-35.8	13.4	9.50e-06	0	39	0	15854469120	38	14330
2026-01-14 11:00:24.88	344.03	24.80	-35.6	-35.9	13.4	1.90e-05	0	39	0	16190013440	38	14463
2026-01-14 11:00:27.89	342.85	25.14	-35.5	-35.8	13.5	0.00e+00	0	39	0	16525557760	38	14306
2026-01-14 11:00:30.90	341.65	25.47	-35.3	-35.5	13.4	2.38e-05	0	39	0	16861102080	37	14761
2026-01-14 11:00:33.91	340.41	25.79	-35.2	-35.5	13.4	3.81e-05	0	39	0	17205035008	37	14646
2026-01-14 11:00:36.92	339.14	26.10	-35.2	-35.5	13.4	0.00e+00	0	39	0	17548967936	37	14621
2026-01-14 11:00:39.94	337.85	26.41	-35.1	-35.3	13.5	4.70e-06	0	39	0	17884512256	37	14385
2026-01-14 11:00:42.95	336.53	26.70	-35.1	-35.3	13.5	4.70e-06	0	39	0	18220056576	37	14394
2026-01-14 11:00:45.96	335.19	26.98	-34.8	-35.1	13.4	0.00e+00	0	39	0	18563989504	36	14855
2026-01-14 11:00:48.97	333.81	27.24	-34.8	-35.1	13.4	0.00e+00	0	39	0	18899533824	36	14790
2026-01-14 11:00:51.98	332.42	27.50	-34.8	-35.1	13.4	4.70e-06	0	39	0	19235078144	36	14809
2026-01-14 11:00:54.99	331.00	27.73	-34.8	-35.1	13.4	4.70e-06	0	39	0	19579011072	36	14827
2026-01-14 11:00:58.00	329.56	27.96	-34.7	-34.9	13.4	0.00e+00	0	39	0	19914555392	36	14515
2026-01-14 11:01:01.00	328.10	28.16	-34.6	-34.9	13.4	4.70e-06	0	39	0	20250099712	36	14452
2026-01-14 11:01:04.02	326.61	28.35	-34.5	-34.7	13.4	0.00e+00	0	39	0	20594032640	36	14262
2026-01-14 11:01:07.02	325.11	28.52	-34.6	-34.9	13.4	0.00e+00	0	39	0	20929576960	36	14449
2026-01-14 11:01:10.03	323.59	28.66	-34.4	-34.7	13.4	0.00e+00	0	39	0	21265121280	36	14121
2026-01-14 11:01:13.05	322.06	28.79	-34.5	-34.7	13.4	0.00e+00	0	39	0	21609054208	36	14252
2026-01-14 11:01:16.05	320.52	28.90	-34.5	-34.7	13.3	1.90e-05	0	39	0	21944598528	36	14214
2026-01-14 11:01:19.07	318.95	28.99	-34.5	-34.7	13.3	9.50e-06	0	39	0	22288531456	36	14269
2026-01-14 11:01:22.09	317.39	29.05	-34.4	-34.6	13.3	5.24e-05	0	39	0	22624075776	36	14100
2026-01-14 11:01:25.10	315.82	29.09	-34.4	-34.7	13.4	4.70e-06	0	39	0	22959620096	36	14157
2026-01-14 11:01:28.10	314.25	29.11	-34.5	-34.7	13.4	4.70e-06	0	39	0	23295164416	36	14268
2026-01-14 11:01:31.11	312.67	29.11	-31.9	-32.1	13.3	0.00e+00	0	39	0	23639097344	30	14911
2026-01-14 11:01:34.11	311.11	29.09	-32.0	-32.2	13.3	2.38e-05	0	39	0	23983030272	30	15107
2026-01-14 11:01:37.13	309.53	29.04	-31.9	-32.1	13.3	2.86e-05	0	39	0	24318574592	30	14926
2026-01-14 11:01:40.13	307.98	28.97	-31.9	-32.2	13.2	1.43e-05	0	39	0	24654118912	30	15005
2026-01-14 11:01:43.14	306.42	28.88	-31.9	-32.1	13.2	5.72e-05	0	39	0	24989663232	30	14945
2026-01-14 11:01:46.15	304.88	28.77	-31.9	-32.2	13.3	7.15e-05	0	39	0	25333596160	30	15009
2026-01-14 11:01:49.15	303.35	28.64	-32.0	-32.3	13.3	6.67e-05	0	39	0	25669140480	30	15251
2026-01-14 11:01:52.17	301.83	28.48	-32.1	-32.4	13.3	3.81e-05	0	39	0	26013073408	30	15307
2026-01-14 11:01:55.18	300.33	28.31	-32.0	-32.3	13.3	1.90e-05	0	39	0	26348617728	30	15123
2026-01-14 11:01:58.18	298.85	28.12	-32.1	-32.4	13.3	3.33e-05	0	39	0	26684162048	30	15298
2026-01-14 11:02:01.19	297.39	27.91	-32.1	-32.5	13.2	1.43e-05	0	39	0	27019706368	30	15480
2026-01-14 11:02:04.20	295.95	27.69	-32.2	-32.5	13.3	2.38e-05	0	39	0	27363639296	30	15522
2026-01-14 11:02:07.21	294.53	27.44	-32.2	-32.5	13.3	3.81e-05	0	39	0	27707572224	30	15567
2026-01-14 11:02:10.23	293.13	27.19	-32.2	-32.5	13.3	3.81e-05	0	39	0	28043116544	30	15610
2026-01-14 11:02:13.24	291.77	26.92	-32.4	-32.7	13.3	3.33e-05	0	39	0	28378660864	30	15897
2026-01-14 11:02:16.24	290.43	26.63	-32.4	-32.7	13.3	6.19e-05	0	39	0	28714205184	30	16004
2026-01-14 11:02:19.26	289.11	26.34	-32.3	-32.6	13.3	6.67e-05	0	39	0	29058138112	30	15785
2026-01-14 11:02:22.28	287.81	26.03	-32.3	-32.6	13.3	3.81e-05	0	39	0	29393682432	30	15772
2026-01-14 11:02:25.28	286.56	25.72	-32.4	-32.7	13.3	3.33e-05	0	39	0	29737615360	30	15982
2026-01-14 11:02:28.28	285.33	25.39	-32.4	-32.7	13.3	3.33e-05	0	39	0	30073159680	30	15973
2026-01-14 11:02:31.28	284.13	25.06	-32.7	-33.0	13.4	9.50e-06	0	39	0	30408704000	31	15567
2026-01-14 11:02:34.29	282.95	24.72	-32.7	-33.0	13.4	1.90e-05	0	39	0	30744248320	31	15528
2026-01-14 11:02:37.31	281.80	24.37	-32.9	-33.2	13.3	3.33e-05	0	39	0	31088181248	31	15880
2026-01-14 11:02:40.32	280.68	24.02	-32.8	-33.1	13.3	2.38e-05	0	39	0	31423725568	31	15804
2026-01-14 11:02:43.34	279.58	23.66	-33.0	-33.3	13.3	2.86e-05	0	39	0	31767658496	31	16056
2026-01-14 11:02:46.35	278.51	23.30	-33.1	-33.4	13.4	3.33e-05	0	39	0	32103202816	32	15429
2026-01-14 11:02:49.37	277.47	22.93	-33.2	-33.5	13.3	4.29e-05	0	39	0	32447135744	32	15638
2026-01-14 11:02:52.38	276.46	22.57	-33.4	-33.7	13.3	5.24e-05	0	39	0	32782680064	32	15875
2026-01-14 11:02:55.38	275.48	22.20	-33.5	-33.8	13.3	4.29e-05	0	39	0	33118224384	32	16124
2026-01-14 11:02:58.40	274.52	21.83	-33.7	-34.0	13.3	5.24e-05	0	39	0	33453768704	33	15606
2026-01-14 11:03:01.41	273.59	21.46	-33.8	-34.1	13.3	4.29e-05	0	39	0	33797701632	33	15743
2026-01-14 11:03:04.43	272.68	21.09	-33.8	-34.1	13.3	1.10e-04	0	39	0	34141634560	33	15750
2026-01-14 11:03:07.43	271.80	20.72	-34.1	-34.4	13.2	1.24e-04	0	39	0	34477178880	33	16296
2026-01-14 11:03:10.46	270.93	20.34	-34.2	-34.5	13.3	1.19e-04	0	39	0	34821111808	34	15514
2026-01-14 11:03:13.48	270.09	19.97	-34.3	-34.6	13.2	2.00e-04	0	39	0	35156656128	34	15727
2026-01-14 11:03:16.49	269.28	19.60	-34.5	-34.8	13.2	1.86e-04	0	39	0	35492200448	34	16133
2026-01-14 11:03:19.50	268.49	19.24	-34.6	-34.9	13.2	2.00e-04	0	40	0	35827744768	35	15457
2026-01-14 11:03:22.51	267.72	18.87	-34.8	-35.1	13.2	2.34e-04	0	39	0	36171677696	35	15825
2026-01-14 11:03:25.52	266.97	18.51	-35.0	-35.3	13.2	2.72e-04	0	40	0	36515610624	35	16050
2026-01-14 11:03:28.53	266.25	18.15	-37.7	-38.0	13.3	3.96e-04	0	39	0	36851154944	41	15540
2026-01-14 11:03:31.53	265.54	17.79	-37.7	-38.0	13.3	1.14e-04	0	39	0	37186699264	41	15505
2026-01-14 11:03:34.54	264.85	17.44	-37.9	-38.2	13.2	1.29e-04	0	39	0	37522243584	41	15897
2026-01-14 11:03:37.56	264.18	17.08	-38.0	-38.3	13.2	1.62e-04	0	40	0	37866176512	41	16081
2026-01-14 11:03:40.58	263.53	16.73	-38.1	-38.4	13.2	1.52e-04	0	40	0	38201720832	41	16280
2026-01-14 11:03:43.59	262.89	16.38	-38.4	-38.6	13.2	2.86e-04	0	39	0	38545653760	42	15823
2026-01-14 11:03:46.60	262.28	16.04	-38.5	-38.7	13.2	2.96e-04	0	39	0	38881198080	42	15991
2026-01-14 11:03:49.62	261.67	15.70	-38.6	-38.8	13.1	4.62e-04	0	40	0	39225131008	42	16181
2026-01-14 11:03:52.64	261.09	15.36	-38.8	-39.1	13.1	5.53e-04	0	40	0	39560675328	43	15665
2026-01-14 11:03:55.65	260.52	15.03	-38.9	-39.2	13.1	6.96e-04	0	39	0	39896219648	43	15884
2026-01-14 11:03:58.66	259.96	14.70	-39.1	-39.4	13.1	6.87e-04	0	39	0	40240152576	44	15415
2026-01-14 11:04:01.66	259.42	14.37	-39.2	-39.5	13.0	7.87e-04	0	40	0	40575696896	44	15570
2026-01-14 11:04:04.67	258.90	14.05	-39.4	-39.7	13.0	8.96e-04	0	40	0	40919629824	44	15872
2026-01-14 11:04:07.66	258.39	13.73	-39.6	-39.9	13.0	1.14e-03	0	40	0	41255174144	45	15359
2026-01-14 11:04:10.67	257.89	13.41	-39.9	-40.1	12.9	1.33e-03	0	40	0	41590718464	45	15825
2026-01-14 11:04:13.68	257.40	13.10	-40.1	-40.4	12.9	1.51e-03	0	39	0	41926262784	45	16239
2026-01-14 11:04:16.70	256.93	12.79	-40.2	-40.5	12.9	1.91e-03	0	40	0	42270195712	46	15580
2026-01-14 11:04:19.71	256.46	12.48	-40.2	-40.5	12.9	2.18e-03	0	39	0	42605740032	46	15574
2026-01-14 11:04:22.71	256.02	12.18	-40.5	-40.8	12.8	2.39e-03	0	39	0	42949672960	46	16027
2026-01-14 11:04:25.73	255.57	11.88	-40.3	-40.6	12.9	2.80e-03	0	40	0	43285217280	46	15753
2026-01-14 11:04:28.74	255.15	11.59	-40.7	-41.0	12.8	2.86e-03	0	40	0	43620761600	47	15555
2026-01-14 11:04:31.75	254.73	11.29	-40.5	-40.8	12.9	3.15e-03	0	40	0	43956305920	47	15228
2026-01-14 11:04:34.77	254.32	11.00	-59.0	-62.3	6.2	3.27e-03	0	39	104	44249907200	83	22759
2026-01-14 11:04:37.77	253.92	10.72	-59.0	-62.2	6.2	3.27e-03	0	39	104	44249907200	83	22549
2026-01-14 11:04:40.79	253.53	10.43	-59.0	-62.2	6.2	3.27e-03	0	39	104	44249907200	83	22508
2026-01-14 11:04:43.81	253.15	10.15	-59.0	-62.2	6.2	0.00e+00	0	39	104	44249907200	83	22525
2026-01-14 11:04:46.82	252.78	9.88	-58.9	-62.2	6.2	0.00e+00	0	38	104	44249907200	83	22404
2026-01-14 11:04:49.83	252.41	9.60	-58.9	-62.1	6.2	0.00e+00	0	38	104	44249907200	83	22213
2026-01-14 11:04:52.85	252.06	9.33	-58.8	-62.1	6.2	0.00e+00	0	38	104	44249907200	83	22153
2026-01-14 11:04:55.86	251.71	9.06	-58.9	-62.1	6.2	0.00e+00	0	38	104	44249907200	83	22264
2026-01-14 11:04:58.88	251.37	8.80	-58.8	-62.0	6.2	0.00e+00	0	38	104	44249907200	83	22055
2026-01-14 11:05:01.89	251.04	8.53	-58.7	-62.0	6.2	0.00e+00	0	38	104	44249907200	83	21964
2026-01-14 11:05:04.90	250.72	8.28	-58.7	-61.9	6.2	0.00e+00	0	38	104	44249907200	83	21830
2026-01-14 11:05:07.91	250.41	8.02	-58.7	-62.0	6.2	0.00e+00	0	38	104	44249907200	83	21963
2026-01-14 11:05:10.91	250.10	7.77	-58.7	-61.9	6.2	0.00e+00	0	38	104	44249907200	83	21737
2026-01-14 11:05:13.93	249.79	7.51	-58.6	-61.8	6.2	0.00e+00	0	38	104	44249907200	83	21537
2026-01-14 11:05:16.94	249.50	7.27	-58.6	-61.8	6.2	0.00e+00	0	38	104	44249907200	83	21465
2026-01-14 11:05:19.96	249.21	7.02	-58.6	-61.8	6.2	0.00e+00	0	38	104	44249907200	83	21600
2026-01-14 11:05:22.96	248.93	6.78	-58.5	-61.8	6.2	0.00e+00	0	38	104	44249907200	83	21378
2026-01-14 11:05:25.98	248.65	6.54	-58.4	-61.6	6.2	0.00e+00	0	38	104	44249907200	83	21059
2026-01-14 11:05:28.99	248.38	6.30	-58.3	-61.5	6.2	0.00e+00	0	38	104	44249907200	83	20857
2026-01-14 11:05:32.00	248.11	6.06	-58.5	-61.7	6.2	0.00e+00	0	38	104	44249907200	83	21164
2026-01-14 11:05:35.02	247.85	5.83	-58.4	-61.6	6.2	0.00e+00	0	37	104	44249907200	83	21040
2026-01-14 11:05:38.03	247.60	5.60	-58.3	-61.5	6.2	0.00e+00	0	37	104	44249907200	83	20793
2026-01-14 11:05:41.04	247.35	5.37	-58.2	-61.4	6.2	0.00e+00	0	37	104	44249907200	83	20524
2026-01-14 11:05:44.05	247.10	5.14	-58.3	-61.5	6.2	0.00e+00	0	38	104	44249907200	83	20834
2026-01-14 11:05:47.07	246.86	4.91	-58.9	-62.1	6.2	0.00e+00	0	37	104	44249907200	83	22362
2026-01-14 11:05:50.10	246.63	4.69	-59.7	-63.0	6.2	0.00e+00	0	37	104	44249907200	85	21899
2026-01-14 11:05:53.11	246.40	4.47	-60.0	-63.3	6.1	0.00e+00	0	37	104	44249907200	85	22740
2026-01-14 11:05:56.13	246.17	4.25	-60.3	-63.6	6.2	0.00e+00	0	37	104	44249907200	86	22157
2026-01-14 11:05:59.16	245.95	4.03	-60.4	-63.7	6.2	0.00e+00	0	37	104	44249907200	86	22414
2026-01-14 11:06:02.18	245.73	3.82	-60.5	-63.7	6.2	0.00e+00	0	37	104	44249907200	86	22411
2026-01-14 11:06:05.20	245.52	3.60	-60.5	-63.7	6.2	0.00e+00	0	37	104	44249907200	86	22511
2026-01-14 11:06:08.22	245.31	3.39	-60.5	-63.7	6.2	0.00e+00	0	37	104	44249907200	86	22542
2026-01-14 11:06:11.24	245.10	3.18	-60.4	-63.7	6.2	0.00e+00	0	37	104	44249907200	86	22411
2026-01-14 11:06:14.27	244.90	2.97	-60.4	-63.6	6.1	0.00e+00	0	37	104	44249907200	86	22279
2026-01-14 11:06:17.28	244.70	2.77	-60.3	-63.6	6.2	0.00e+00	0	37	104	44249907200	86	22144
2026-01-14 11:06:20.31	244.51	2.56	-60.3	-63.5	6.2	0.00e+00	0	37	104	44249907200	86	22039
2026-01-14 11:06:23.33	244.31	2.36	-60.3	-63.5	6.1	0.00e+00	0	37	104	44249907200	86	22014
2026-01-14 11:06:26.35	244.13	2.16	-60.3	-63.5	6.2	0.00e+00	0	37	104	44249907200	86	22001
2026-01-14 11:06:29.35	243.94	1.96	-60.3	-63.5	6.2	0.00e+00	0	37	104	44249907200	86	21974

#Closed at: 2026-01-14 11:06:31
#Recorded file [44249 MB]: D:/lorett/data/31004_260114_135629.dat