passes_logs/2026/01/14/R3.2S_Murmansk/R3.2S_Murmansk__20260114_230117_NOAA_21_JPSS-2_rec.log

#Pass ID: 20260114_230117_NOAA 21 (JPSS-2)
#Satellite: NOAA 21 (JPSS-2)
#Configuration: NOAA-21
#almurnet v.1.7.20251203
#Start time: 2026-01-14 23:01:17

#Version: 2.2.20231116
#Station: R3.2S_Murmansk
#Location: 33.079688 lon 68.888172 lat
#TLE: 1 54234U 22150A   26014.58979933  .00000039  00000+0  39403-4 0  9998
#TLE: 2 54234  98.7497 315.4945 0000653 294.6373  65.4735 14.19534652164756

#Time	Az	El	Level	Level2	SNR	BER	BlckErr	Temp	State	Recorded	gain1	gain2
2026-01-14 23:01:17.43	19.77	1.98	-58.3	-72.0	3.8	1.49e+00	0	27	0	0	83	16710
2026-01-14 23:01:21.44	19.97	2.21	-58.2	-71.8	3.8	1.49e+00	0	27	104	0	81	18313
2026-01-14 23:01:25.45	20.18	2.45	-58.2	-71.0	3.8	1.49e+00	0	27	104	0	81	16717
2026-01-14 23:01:29.46	20.39	2.70	-58.1	-70.0	3.9	1.48e+00	0	27	104	0	81	14971
2026-01-14 23:01:33.45	20.60	2.94	-58.1	-70.2	3.9	1.49e+00	0	27	104	0	81	15274
2026-01-14 23:01:37.46	20.81	3.18	-58.0	-68.4	4.0	1.45e+00	0	27	104	0	81	12502
2026-01-14 23:01:41.45	21.03	3.43	-57.7	-66.3	5.0	1.19e+00	0	27	104	4194304	81	9738
2026-01-14 23:01:45.43	21.25	3.68	-57.4	-64.3	6.2	2.40e-01	0	28	0	15728640	81	7783
2026-01-14 23:01:49.44	21.47	3.93	-55.7	-59.6	10.1	2.96e-03	0	28	0	28311552	78	5373
2026-01-14 23:01:53.44	21.70	4.18	-53.9	-56.5	12.2	3.00e-06	0	28	0	40894464	74	4714
2026-01-14 23:01:57.44	21.93	4.44	-53.5	-55.9	12.5	0.00e+00	0	28	0	53477376	72	4928
2026-01-14 23:02:01.45	22.17	4.69	-54.5	-57.4	11.5	1.98e-05	0	28	0	66060288	74	5276
2026-01-14 23:02:05.45	22.41	4.95	-56.6	-61.7	8.3	1.58e-02	0	28	0	78643200	78	6873
2026-01-14 23:02:09.45	22.65	5.21	-56.7	-61.8	8.4	2.65e-03	0	28	0	91226112	78	6904
2026-01-14 23:02:13.45	22.90	5.48	-53.7	-56.1	12.5	0.00e+00	0	28	0	101711872	73	4779
2026-01-14 23:02:17.45	23.15	5.74	-52.9	-55.0	13.0	0.00e+00	0	28	0	113246208	71	4707
2026-01-14 23:02:21.46	23.40	6.01	-52.4	-54.3	13.4	0.00e+00	0	28	0	125829120	71	4388
2026-01-14 23:02:25.44	23.66	6.28	-52.2	-54.0	13.5	0.00e+00	0	28	0	138412032	70	4462
2026-01-14 23:02:29.43	23.93	6.55	-52.1	-53.9	13.6	0.00e+00	0	28	0	150994944	70	4409
2026-01-14 23:02:33.44	24.20	6.83	-52.1	-53.9	13.6	0.00e+00	0	28	0	163577856	70	4396
2026-01-14 23:02:37.44	24.47	7.10	-52.2	-54.0	13.6	0.00e+00	0	28	0	176160768	70	4465
2026-01-14 23:02:41.46	24.75	7.38	-51.7	-53.4	13.9	0.00e+00	0	28	0	188743680	70	4167
2026-01-14 23:02:45.46	25.03	7.67	-51.7	-53.4	13.8	0.00e+00	0	28	0	201326592	69	4412
2026-01-14 23:02:49.45	25.32	7.95	-51.7	-53.4	13.8	0.00e+00	0	28	0	213909504	69	4418
2026-01-14 23:02:53.45	25.62	8.24	-51.7	-53.3	13.8	0.00e+00	0	28	0	226492416	69	4386
2026-01-14 23:02:57.45	25.92	8.53	-51.5	-53.1	14.0	0.00e+00	0	28	0	239075328	69	4272
2026-01-14 23:03:01.45	26.22	8.82	-51.3	-52.9	14.1	0.00e+00	0	28	0	251658240	69	4163
2026-01-14 23:03:05.47	26.53	9.12	-51.4	-53.0	14.0	0.00e+00	0	28	0	264241152	69	4201
2026-01-14 23:03:09.47	26.85	9.42	-51.2	-52.8	14.1	0.00e+00	0	28	0	275775488	68	4357
2026-01-14 23:03:13.49	27.18	9.72	-51.1	-52.7	14.1	0.00e+00	0	28	0	289406976	68	4298
2026-01-14 23:03:17.49	27.51	10.03	-51.1	-52.6	14.1	0.00e+00	0	28	0	300941312	68	4282
2026-01-14 23:03:21.48	27.84	10.33	-50.8	-52.3	14.3	0.00e+00	0	28	0	313524224	68	4113
2026-01-14 23:03:25.49	28.19	10.65	-50.8	-52.2	14.3	0.00e+00	0	28	0	326107136	68	4087
2026-01-14 23:03:29.49	28.54	10.96	-50.9	-52.4	14.3	0.00e+00	0	28	0	338690048	68	4171
2026-01-14 23:03:33.50	28.90	11.28	-50.5	-51.9	14.3	0.00e+00	0	28	0	351272960	67	4175
2026-01-14 23:03:37.49	29.26	11.60	-50.5	-51.9	14.3	0.00e+00	0	28	0	363855872	67	4179
2026-01-14 23:03:41.48	29.63	11.92	-50.4	-51.8	14.4	0.00e+00	0	28	0	376438784	67	4139
2026-01-14 23:03:45.47	30.01	12.24	-50.3	-51.7	14.5	0.00e+00	0	28	0	389021696	67	4053
2026-01-14 23:03:49.44	30.40	12.57	-50.1	-51.4	14.5	0.00e+00	0	28	0	401604608	66	4178
2026-01-14 23:03:53.43	30.79	12.90	-50.2	-51.6	14.4	0.00e+00	0	28	0	413138944	66	4253
2026-01-14 23:03:57.43	31.20	13.24	-50.3	-51.6	14.4	0.00e+00	0	28	0	425721856	66	4286
2026-01-14 23:04:01.42	31.61	13.58	-50.0	-51.4	14.5	0.00e+00	0	28	0	438304768	66	4154
2026-01-14 23:04:05.42	32.03	13.92	-50.0	-51.4	14.5	0.00e+00	0	28	0	450887680	66	4150
2026-01-14 23:04:09.43	32.47	14.27	-50.0	-51.3	14.5	0.00e+00	0	28	0	463470592	66	4106
2026-01-14 23:04:13.43	32.91	14.62	-50.1	-51.4	14.5	0.00e+00	0	28	0	476053504	66	4188
2026-01-14 23:04:17.42	33.36	14.98	-50.1	-51.5	14.5	0.00e+00	0	28	0	488636416	66	4194
2026-01-14 23:04:21.41	33.83	15.33	-50.1	-51.5	14.5	0.00e+00	0	28	0	501219328	66	4194
2026-01-14 23:04:25.41	34.30	15.69	-50.1	-51.4	14.5	0.00e+00	0	28	0	513802240	66	4172
2026-01-14 23:04:29.40	34.78	16.06	-50.1	-51.4	14.5	0.00e+00	0	28	0	526385152	66	4165
2026-01-14 23:04:33.41	35.28	16.43	-50.0	-51.4	14.5	0.00e+00	0	28	0	538968064	66	4159
2026-01-14 23:04:37.40	35.79	16.80	-49.9	-51.2	14.6	0.00e+00	0	28	0	551550976	66	4065
2026-01-14 23:04:41.38	36.31	17.17	-49.9	-51.3	14.6	0.00e+00	0	28	0	563085312	66	4099
2026-01-14 23:04:45.38	36.84	17.55	-50.0	-51.3	14.6	0.00e+00	0	28	0	575668224	66	4126
2026-01-14 23:04:49.39	37.39	17.94	-49.9	-51.2	14.6	0.00e+00	0	28	0	588251136	66	4093
2026-01-14 23:04:53.39	37.95	18.32	-49.8	-51.1	14.6	0.00e+00	0	28	0	600834048	66	4037
2026-01-14 23:04:57.40	38.53	18.71	-50.0	-51.3	14.6	0.00e+00	0	28	0	613416960	66	4105
2026-01-14 23:05:01.39	39.11	19.11	-49.9	-51.2	14.6	0.00e+00	0	28	0	625999872	66	4064
2026-01-14 23:05:05.40	39.72	19.50	-49.5	-50.8	14.6	0.00e+00	0	28	0	638582784	65	4120
2026-01-14 23:05:09.40	40.34	19.90	-49.6	-50.9	14.6	0.00e+00	0	28	0	651165696	65	4179
2026-01-14 23:05:13.40	40.97	20.31	-49.5	-50.8	14.7	0.00e+00	0	29	0	663748608	65	4105
2026-01-14 23:05:17.40	41.63	20.71	-49.1	-50.4	14.7	0.00e+00	0	28	0	676331520	64	4146
2026-01-14 23:05:21.40	42.29	21.12	-49.2	-50.4	14.7	0.00e+00	0	28	0	688914432	64	4186
2026-01-14 23:05:25.39	42.98	21.53	-49.2	-50.4	14.7	0.00e+00	0	28	0	701497344	64	4167
2026-01-14 23:05:29.37	43.68	21.95	-48.7	-49.9	14.9	0.00e+00	0	28	0	713031680	64	3934
2026-01-14 23:05:33.35	44.40	22.36	-48.8	-50.0	14.8	0.00e+00	0	28	0	725614592	64	3981
2026-01-14 23:05:37.34	45.14	22.78	-49.0	-50.2	14.8	0.00e+00	0	28	0	738197504	64	4065
2026-01-14 23:05:41.34	45.90	23.20	-48.7	-49.8	14.8	0.00e+00	0	28	0	750780416	63	4134
2026-01-14 23:05:45.33	46.68	23.62	-49.0	-50.2	14.7	0.00e+00	0	28	0	763363328	63	4312
2026-01-14 23:05:49.34	47.48	24.05	-48.9	-50.1	14.7	0.00e+00	0	28	0	775946240	63	4266
2026-01-14 23:05:53.36	48.31	24.47	-48.8	-50.0	14.7	0.00e+00	0	28	0	788529152	63	4219
2026-01-14 23:05:57.35	49.15	24.90	-49.2	-50.4	14.6	0.00e+00	0	28	0	801112064	63	4419
2026-01-14 23:06:01.34	50.02	25.33	-49.1	-50.3	14.6	0.00e+00	0	29	0	813694976	63	4369
2026-01-14 23:06:05.34	50.91	25.75	-49.4	-50.7	14.6	0.00e+00	0	28	0	826277888	64	4297
2026-01-14 23:06:09.35	51.83	26.18	-49.6	-50.9	14.5	0.00e+00	0	28	0	838860800	64	4425
2026-01-14 23:06:13.35	52.77	26.60	-49.4	-50.6	14.7	0.00e+00	0	28	0	851443712	64	4281
2026-01-14 23:06:17.34	53.73	27.03	-49.7	-51.0	14.5	0.00e+00	0	28	0	862978048	64	4484
2026-01-14 23:06:21.33	54.72	27.45	-49.9	-51.1	14.6	0.00e+00	0	28	0	875560960	65	4285
2026-01-14 23:06:25.33	55.74	27.86	-49.8	-51.1	14.6	0.00e+00	0	28	0	888143872	65	4266
2026-01-14 23:06:29.32	56.78	28.28	-49.6	-50.9	14.7	0.00e+00	0	28	0	900726784	65	4161
2026-01-14 23:06:33.30	57.84	28.69	-49.8	-51.1	14.6	0.00e+00	0	28	0	913309696	65	4268
2026-01-14 23:06:37.29	58.93	29.09	-50.0	-51.2	14.5	0.00e+00	0	28	0	925892608	65	4335
2026-01-14 23:06:41.26	60.05	29.49	-49.6	-50.8	14.7	0.00e+00	0	28	0	938475520	65	4128
2026-01-14 23:06:45.25	61.20	29.88	-49.8	-51.1	14.6	0.00e+00	0	28	0	951058432	65	4269
2026-01-14 23:06:49.25	62.38	30.27	-49.6	-50.8	14.7	0.00e+00	0	29	0	963641344	65	4131
2026-01-14 23:06:53.24	63.58	30.65	-49.6	-50.8	14.7	0.00e+00	0	29	0	975175680	65	4137
2026-01-14 23:06:57.23	64.81	31.02	-49.4	-50.6	14.8	0.00e+00	0	28	0	987758592	65	4016
2026-01-14 23:07:01.23	66.07	31.38	-49.5	-50.7	14.7	0.00e+00	0	29	0	1000341504	65	4069
2026-01-14 23:07:05.21	67.35	31.73	-49.8	-51.1	14.6	0.00e+00	0	28	0	1012924416	65	4276
2026-01-14 23:07:09.20	68.67	32.06	-50.0	-51.2	14.5	0.00e+00	0	28	0	1025507328	65	4336
2026-01-14 23:07:13.20	70.01	32.39	-50.4	-51.8	14.5	0.00e+00	0	28	0	1038090240	66	4346
2026-01-14 23:07:17.21	71.38	32.70	-50.3	-51.7	14.5	0.00e+00	0	28	0	1050673152	66	4303
2026-01-14 23:07:21.20	72.77	32.99	-50.5	-51.9	14.4	0.00e+00	0	28	0	1063256064	66	4403
2026-01-14 23:07:25.19	74.19	33.27	-50.6	-52.0	14.3	0.00e+00	0	28	0	1075838976	66	4473
2026-01-14 23:07:29.18	75.63	33.53	-50.3	-51.6	14.5	0.00e+00	0	28	0	1087373312	66	4282
2026-01-14 23:07:33.17	77.09	33.78	-50.5	-51.8	14.4	0.00e+00	0	28	0	1099956224	66	4376
2026-01-14 23:07:37.15	78.57	34.00	-50.6	-52.0	14.4	0.00e+00	0	28	0	1112539136	66	4463
2026-01-14 23:07:41.15	80.07	34.21	-50.4	-51.7	14.5	0.00e+00	0	29	0	1125122048	66	4330
2026-01-14 23:07:45.15	81.60	34.39	-50.2	-51.5	14.5	0.00e+00	0	29	0	1137704960	66	4230
2026-01-14 23:07:49.14	83.13	34.55	-50.5	-51.9	14.4	0.00e+00	0	28	0	1150287872	66	4415
2026-01-14 23:07:53.15	84.69	34.70	-50.9	-52.3	14.3	0.00e+00	0	28	0	1162870784	66	4602
2026-01-14 23:07:57.14	86.26	34.81	-50.6	-51.9	14.4	0.00e+00	0	28	0	1175453696	66	4424
2026-01-14 23:08:01.12	87.82	34.91	-50.7	-52.1	14.3	0.00e+00	0	28	0	1188036608	66	4497
2026-01-14 23:08:05.13	89.41	34.98	-50.4	-51.7	14.5	0.00e+00	0	28	0	1200619520	66	4314
2026-01-14 23:08:09.13	91.00	35.03	-50.5	-51.9	14.4	0.00e+00	0	28	0	1212153856	66	4398
2026-01-14 23:08:13.13	92.60	35.05	-50.6	-51.9	14.4	0.00e+00	0	28	0	1224736768	66	4421
2026-01-14 23:08:17.13	94.20	35.05	-50.5	-51.8	14.4	0.00e+00	0	29	0	1237319680	66	4376
2026-01-14 23:08:21.13	95.79	35.03	-50.2	-51.5	14.5	0.00e+00	0	28	0	1249902592	66	4215
2026-01-14 23:08:25.13	97.38	34.98	-50.6	-52.0	14.4	0.00e+00	0	28	0	1262485504	66	4450
2026-01-14 23:08:29.12	98.96	34.91	-50.5	-51.9	14.4	0.00e+00	0	28	0	1275068416	66	4409
2026-01-14 23:08:33.09	100.53	34.81	-50.5	-51.8	14.4	0.00e+00	0	28	0	1287651328	66	4373
2026-01-14 23:08:37.08	102.09	34.69	-50.8	-52.2	14.3	0.00e+00	0	28	0	1300234240	66	4584
2026-01-14 23:08:41.07	103.64	34.55	-50.6	-51.9	14.5	0.00e+00	0	29	0	1312817152	67	4161
2026-01-14 23:08:45.06	105.18	34.38	-50.4	-51.7	14.6	0.00e+00	0	28	0	1325400064	67	4096
2026-01-14 23:08:49.06	106.71	34.20	-50.4	-51.7	14.6	0.00e+00	0	28	0	1337982976	67	4074
2026-01-14 23:08:53.07	108.22	33.99	-50.7	-52.1	14.4	0.00e+00	0	28	0	1349517312	67	4249
2026-01-14 23:08:57.07	109.71	33.76	-50.5	-51.8	14.5	0.00e+00	0	28	0	1362100224	67	4129
2026-01-14 23:09:01.06	111.17	33.52	-50.6	-52.0	14.5	0.00e+00	0	28	0	1374683136	67	4202
2026-01-14 23:09:05.06	112.61	33.25	-50.4	-51.7	14.6	0.00e+00	0	28	0	1387266048	67	4081
2026-01-14 23:09:09.07	114.04	32.97	-50.8	-52.1	14.4	0.00e+00	0	28	0	1399848960	67	4288
2026-01-14 23:09:13.07	115.43	32.68	-50.6	-52.0	14.4	0.00e+00	0	28	0	1412431872	67	4207
2026-01-14 23:09:17.07	116.81	32.36	-50.5	-51.9	14.5	0.00e+00	0	29	0	1425014784	67	4146
2026-01-14 23:09:21.06	118.15	32.04	-50.3	-51.6	14.6	0.00e+00	0	28	0	1437597696	67	4025
2026-01-14 23:09:25.05	119.46	31.70	-49.7	-50.9	14.7	0.00e+00	0	29	0	1450180608	65	4175
2026-01-14 23:09:29.05	120.75	31.35	-49.8	-51.0	14.6	0.00e+00	0	28	0	1462763520	65	4236
2026-01-14 23:09:33.05	122.02	30.99	-49.8	-51.1	14.6	0.00e+00	0	29	0	1475346432	65	4261
2026-01-14 23:09:37.03	123.25	30.62	-49.3	-50.6	14.8	0.00e+00	0	29	0	1486880768	65	4011
2026-01-14 23:09:41.02	124.45	30.24	-49.6	-50.9	14.7	0.00e+00	0	28	0	1499463680	65	4164
2026-01-14 23:09:45.02	125.63	29.85	-49.5	-50.7	14.7	0.00e+00	0	28	0	1512046592	65	4080
2026-01-14 23:09:49.03	126.79	29.45	-49.9	-51.2	14.6	0.00e+00	0	29	0	1524629504	65	4302
2026-01-14 23:09:53.03	127.91	29.05	-49.5	-50.8	14.7	0.00e+00	0	29	0	1537212416	65	4111
2026-01-14 23:09:57.02	129.00	28.64	-49.3	-50.5	14.8	0.00e+00	0	28	0	1549795328	65	3980
2026-01-14 23:10:01.02	130.07	28.22	-49.0	-50.2	14.8	0.00e+00	0	28	0	1562378240	64	4093
2026-01-14 23:10:05.03	131.12	27.81	-49.2	-50.4	14.7	0.00e+00	0	28	0	1574961152	64	4159
2026-01-14 23:10:09.04	132.14	27.38	-49.2	-50.5	14.7	0.00e+00	0	28	0	1587544064	64	4199
2026-01-14 23:10:13.04	133.13	26.96	-49.1	-50.3	14.8	0.00e+00	0	29	0	1600126976	64	4129
2026-01-14 23:10:17.06	134.10	26.53	-49.0	-50.2	14.8	0.00e+00	0	28	0	1612709888	64	4098
2026-01-14 23:10:21.06	135.04	26.10	-49.1	-50.3	14.8	0.00e+00	0	28	0	1625292800	64	4104
2026-01-14 23:10:25.06	135.96	25.68	-48.9	-50.1	14.8	0.00e+00	0	28	0	1637875712	64	4036
2026-01-14 23:10:29.04	136.84	25.25	-49.2	-50.4	14.7	0.00e+00	0	28	0	1650458624	64	4187
2026-01-14 23:10:33.03	137.71	24.82	-49.2	-50.4	14.7	0.00e+00	0	28	0	1661992960	64	4186
2026-01-14 23:10:37.01	138.55	24.39	-49.0	-50.1	14.8	0.00e+00	0	28	0	1674575872	64	4050
2026-01-14 23:10:41.00	139.38	23.97	-48.9	-50.1	14.8	0.00e+00	0	28	0	1687158784	64	4051
2026-01-14 23:10:45.00	140.18	23.54	-49.0	-50.2	14.8	0.00e+00	0	29	0	1699741696	64	4088
2026-01-14 23:10:48.99	140.96	23.12	-49.1	-50.4	14.7	0.00e+00	0	28	0	1712324608	64	4153
2026-01-14 23:10:52.98	141.72	22.69	-49.2	-50.5	14.7	0.00e+00	0	28	0	1724907520	64	4202
2026-01-14 23:10:56.99	142.46	22.27	-49.3	-50.6	14.6	0.00e+00	0	29	0	1737490432	64	4262
2026-01-14 23:11:00.99	143.18	21.85	-49.5	-50.8	14.6	0.00e+00	0	29	0	1750073344	64	4364
2026-01-14 23:11:04.99	143.89	21.44	-49.5	-50.8	14.5	0.00e+00	0	28	0	1762656256	64	4389
2026-01-14 23:11:08.99	144.57	21.02	-49.5	-50.8	14.5	0.00e+00	0	28	0	1775239168	64	4368
2026-01-14 23:11:12.98	145.24	20.61	-49.5	-50.7	14.6	0.00e+00	0	28	0	1786773504	64	4328
2026-01-14 23:11:16.98	145.89	20.20	-49.3	-50.5	14.6	0.00e+00	0	28	0	1799356416	64	4240
2026-01-14 23:11:20.96	146.52	19.80	-49.2	-50.4	14.7	0.00e+00	0	28	0	1811939328	64	4184
2026-01-14 23:11:24.96	147.14	19.40	-49.2	-50.5	14.6	0.00e+00	0	28	0	1824522240	64	4217
2026-01-14 23:11:28.95	147.74	19.00	-49.3	-50.5	14.6	0.00e+00	0	28	0	1837105152	64	4219
2026-01-14 23:11:32.95	148.33	18.60	-49.1	-50.3	14.7	0.00e+00	0	29	0	1849688064	64	4124
2026-01-14 23:11:36.93	148.90	18.21	-49.2	-50.4	14.6	0.00e+00	0	28	0	1862270976	64	4193
2026-01-14 23:11:40.93	149.46	17.83	-49.0	-50.2	14.8	0.00e+00	0	28	0	1874853888	64	4052
2026-01-14 23:11:44.93	150.01	17.44	-49.4	-50.6	14.6	0.00e+00	0	28	0	1887436800	64	4282
2026-01-14 23:11:48.91	150.54	17.06	-49.7	-51.0	14.5	0.00e+00	0	29	0	1900019712	64	4467
2026-01-14 23:11:52.91	151.06	16.68	-49.7	-51.0	14.4	0.00e+00	0	29	0	1911554048	64	4459
2026-01-14 23:11:56.90	151.57	16.31	-49.7	-51.0	14.4	0.00e+00	0	28	0	1924136960	64	4465
2026-01-14 23:12:00.89	152.06	15.94	-50.0	-51.3	14.4	0.00e+00	0	28	0	1936719872	65	4377
2026-01-14 23:12:04.90	152.55	15.57	-50.1	-51.4	14.4	0.00e+00	0	28	0	1949302784	65	4419
2026-01-14 23:12:08.90	153.02	15.21	-49.9	-51.2	14.4	0.00e+00	0	28	0	1961885696	65	4328
2026-01-14 23:12:12.89	153.48	14.85	-50.3	-51.7	14.3	0.00e+00	0	28	0	1974468608	65	4551
2026-01-14 23:12:16.90	153.93	14.49	-50.3	-51.7	14.3	0.00e+00	0	28	0	1987051520	65	4547
2026-01-14 23:12:20.89	154.37	14.14	-50.3	-51.7	14.3	0.00e+00	0	28	0	1999634432	66	4334
2026-01-14 23:12:24.89	154.80	13.79	-50.3	-51.7	14.3	0.00e+00	0	28	0	2012217344	66	4331
2026-01-14 23:12:28.89	155.23	13.45	-50.2	-51.6	14.4	0.00e+00	0	29	0	2024800256	66	4249
2026-01-14 23:12:32.89	155.64	13.11	-50.0	-51.4	14.5	0.00e+00	0	28	0	2037383168	66	4151
2026-01-14 23:12:36.88	156.04	12.77	-50.2	-51.6	14.4	0.00e+00	0	29	0	2048917504	66	4272
2026-01-14 23:12:40.88	156.44	12.44	-50.1	-51.5	14.4	0.00e+00	0	29	0	2061500416	66	4206
2026-01-14 23:12:44.89	156.83	12.10	-50.4	-51.8	14.3	0.00e+00	0	28	0	2074083328	66	4389
2026-01-14 23:12:48.89	157.20	11.77	-50.4	-51.8	14.3	0.00e+00	0	28	0	2086666240	66	4364
2026-01-14 23:12:52.90	157.58	11.45	-50.5	-51.9	14.2	0.00e+00	0	29	0	2099249152	66	4437
2026-01-14 23:12:56.91	157.94	11.13	-50.3	-51.7	14.3	0.00e+00	0	28	0	2111832064	66	4339
2026-01-14 23:13:00.90	158.29	10.81	-50.5	-51.9	14.2	0.00e+00	0	28	0	2124414976	66	4424
2026-01-14 23:13:04.91	158.64	10.49	-50.5	-52.0	14.2	0.00e+00	0	28	0	2136997888	66	4451
2026-01-14 23:13:08.90	158.98	10.18	-50.6	-52.0	14.2	0.00e+00	0	28	0	2149580800	66	4475
2026-01-14 23:13:12.87	159.32	9.87	-50.9	-52.4	14.0	0.00e+00	0	28	0	2162163712	66	4693
2026-01-14 23:13:16.86	159.64	9.57	-51.1	-52.7	14.0	0.00e+00	0	28	0	2174746624	67	4560
2026-01-14 23:13:20.85	159.96	9.27	-51.4	-53.1	13.9	0.00e+00	0	29	0	2187329536	68	4504
2026-01-14 23:13:24.85	160.28	8.97	-51.7	-53.5	13.7	0.00e+00	0	28	0	2198863872	68	4707
2026-01-14 23:13:28.85	160.59	8.67	-51.9	-53.6	13.8	0.00e+00	0	29	0	2211446784	69	4520
2026-01-14 23:13:32.85	160.89	8.38	-51.7	-53.5	13.8	0.00e+00	0	29	0	2224029696	69	4447
2026-01-14 23:13:36.84	161.19	8.08	-51.8	-53.6	13.7	0.00e+00	0	28	0	2236612608	69	4514
2026-01-14 23:13:40.83	161.48	7.80	-51.7	-53.4	13.8	0.00e+00	0	29	0	2249195520	69	4410
2026-01-14 23:13:44.82	161.76	7.51	-51.8	-53.6	13.7	0.00e+00	0	28	0	2261778432	69	4512
2026-01-14 23:13:48.82	162.05	7.23	-51.7	-53.4	13.8	0.00e+00	0	28	0	2274361344	69	4440
2026-01-14 23:13:52.83	162.32	6.94	-51.7	-53.4	13.8	0.00e+00	0	28	0	2286944256	69	4402
2026-01-14 23:13:56.83	162.59	6.67	-51.8	-53.6	13.7	0.00e+00	0	29	0	2299527168	69	4520
2026-01-14 23:14:00.84	162.86	6.39	-52.1	-53.9	13.5	0.00e+00	0	28	0	2312110080	69	4676
2026-01-14 23:14:04.86	163.12	6.11	-52.1	-54.0	13.4	0.00e+00	0	29	0	2324692992	69	4711
2026-01-14 23:14:08.85	163.38	5.84	-52.5	-54.4	13.3	0.00e+00	0	28	0	2337275904	70	4695
2026-01-14 23:14:12.85	163.63	5.57	-52.5	-54.5	13.2	0.00e+00	0	28	0	2349858816	70	4727
2026-01-14 23:14:16.87	163.88	5.31	-52.4	-54.3	13.3	0.00e+00	0	28	0	2361393152	70	4639
2026-01-14 23:14:20.87	164.13	5.04	-52.6	-54.7	13.1	0.00e+00	0	29	0	2373976064	70	4838
2026-01-14 23:14:24.88	164.37	4.78	-59.6	-73.4	3.8	1.49e+00	0	29	104	2377121792	84	18694
2026-01-14 23:14:28.87	164.60	4.52	-60.1	-73.9	3.8	1.49e+00	0	29	104	2377121792	85	18642
2026-01-14 23:14:32.87	164.84	4.26	-60.3	-74.2	3.8	1.49e+00	0	29	104	2377121792	85	19223
2026-01-14 23:14:36.86	165.07	4.01	-60.5	-74.4	3.8	1.49e+00	0	29	104	2377121792	86	18572
2026-01-14 23:14:40.86	165.29	3.75	-60.6	-74.4	3.8	1.49e+00	0	29	104	2377121792	86	18630
2026-01-14 23:14:44.85	165.51	3.50	-60.5	-74.4	3.8	1.49e+00	0	29	104	2377121792	86	18537
2026-01-14 23:14:48.85	165.73	3.25	-60.4	-74.3	3.8	1.49e+00	0	29	104	2377121792	86	18389
2026-01-14 23:14:52.83	165.94	3.01	-60.4	-74.2	3.8	1.49e+00	0	29	104	2377121792	86	18260
2026-01-14 23:14:56.82	166.15	2.76	-60.3	-74.2	3.8	1.49e+00	0	29	104	2377121792	86	18174
2026-01-14 23:15:00.82	166.36	2.52	-60.4	-74.3	3.8	1.49e+00	0	29	104	2377121792	86	18333
2026-01-14 23:15:04.83	166.57	2.27	-60.3	-74.2	3.8	1.49e+00	0	29	104	2377121792	86	18123
2026-01-14 23:15:08.84	166.77	2.03	-60.3	-74.1	3.8	1.49e+00	0	29	104	2377121792	86	18045

#Closed at: 2026-01-14 23:15:10
#Recorded file [2377 MB]: D:/lorett/data/31004_260115_020117.dat