passes_logs/2026/01/14/R3.2S_Murmansk/R3.2S_Murmansk__20260114_112224_AQUA_rec.log

#Pass ID: 20260114_112224_AQUA
#Satellite: AQUA
#Configuration: AQUA
#almurnet v.1.7.20251203
#Start time: 2026-01-14 11:22:26

#Version: 2.2.20231116
#Station: R3.2S_Murmansk
#Location: 33.079688 lon 68.888172 lat
#TLE: 1 27424U 02022A   26013.85306262  .00000759  00000+0  16188-3 0  9996
#TLE: 2 27424  98.4079 340.2612 0002043  79.8220 301.8652 14.61819210260728

#Time	Az	El	Level	Level2	SNR	BER	BlckErr	Temp	State	Recorded	gain1	gain2
2026-01-14 11:22:26.82	154.67	2.13	-57.8	-77.1	3.8	7.47e-01	0	26	0	0	84	33116
2026-01-14 11:22:30.74	154.69	2.39	-57.6	-76.8	3.8	7.46e-01	0	26	104	0	82	36097
2026-01-14 11:22:34.67	154.71	2.66	-57.6	-76.7	3.8	7.44e-01	0	26	104	0	82	35526
2026-01-14 11:22:38.61	154.73	2.93	-57.6	-76.4	3.8	7.47e-01	0	26	104	0	82	34125
2026-01-14 11:22:42.57	154.75	3.20	-57.5	-73.9	4.0	7.41e-01	0	26	104	0	82	25712
2026-01-14 11:22:46.49	154.77	3.48	-57.3	-68.9	6.4	6.69e-01	90	26	0	2621440	82	14378
2026-01-14 11:22:50.42	154.80	3.76	-56.6	-63.9	10.5	6.14e-01	0	26	0	9961472	82	8169
2026-01-14 11:22:54.34	154.82	4.04	-55.4	-60.3	13.0	6.07e-01	0	26	0	17301504	80	6053
2026-01-14 11:22:58.27	154.84	4.32	-54.0	-57.4	14.3	6.07e-01	0	26	0	24641536	77	5111
2026-01-14 11:23:02.18	154.86	4.61	-53.0	-55.9	14.7	6.07e-01	0	26	0	31981568	75	4850
2026-01-14 11:23:06.10	154.88	4.90	-53.6	-56.8	14.2	6.06e-01	0	26	0	39321600	74	5686
2026-01-14 11:23:10.01	154.90	5.20	-57.3	-69.0	6.6	6.65e-01	92	26	0	46661632	82	14552
2026-01-14 11:23:13.92	154.92	5.49	-51.4	-53.5	15.2	6.07e-01	0	26	0	54001664	72	4390
2026-01-14 11:23:17.85	154.95	5.80	-51.1	-53.2	15.2	6.07e-01	0	26	0	61341696	71	4466
2026-01-14 11:23:21.77	154.97	6.10	-51.1	-53.1	15.3	6.06e-01	0	26	0	68681728	71	4438
2026-01-14 11:23:25.69	154.99	6.42	-51.0	-53.1	15.3	6.06e-01	0	27	0	76021760	71	4397
2026-01-14 11:23:29.60	155.01	6.73	-51.3	-53.4	15.0	6.07e-01	0	27	0	83361792	70	4842
2026-01-14 11:23:33.51	155.04	7.05	-51.0	-53.0	15.1	6.06e-01	0	26	0	90701824	70	4646
2026-01-14 11:23:37.43	155.06	7.37	-50.9	-52.8	15.2	6.06e-01	0	27	0	98041856	70	4536
2026-01-14 11:23:41.33	155.08	7.70	-51.0	-53.0	15.2	6.07e-01	0	27	0	105381888	70	4614
2026-01-14 11:23:45.22	155.11	8.03	-50.9	-52.9	15.2	6.06e-01	0	27	0	112721920	70	4580
2026-01-14 11:23:49.14	155.13	8.37	-50.7	-52.7	15.3	6.08e-01	0	27	0	120061952	70	4454
2026-01-14 11:23:53.05	155.15	8.71	-50.7	-52.7	15.3	6.07e-01	0	27	0	127401984	70	4453
2026-01-14 11:23:56.97	155.18	9.06	-50.7	-52.6	15.3	6.06e-01	0	27	0	134742016	70	4404
2026-01-14 11:24:00.89	155.20	9.41	-50.6	-52.5	15.3	6.08e-01	0	27	0	142082048	70	4357
2026-01-14 11:24:04.79	155.23	9.77	-50.8	-52.6	15.3	6.07e-01	0	27	0	149422080	70	4441
2026-01-14 11:24:08.70	155.25	10.14	-50.5	-52.3	15.4	6.08e-01	0	27	0	156762112	70	4283
2026-01-14 11:24:12.62	155.28	10.51	-50.3	-52.1	15.3	6.06e-01	0	27	0	164102144	69	4413
2026-01-14 11:24:16.54	155.31	10.89	-50.2	-51.9	15.4	6.07e-01	0	27	0	171442176	69	4335
2026-01-14 11:24:20.44	155.33	11.27	-50.1	-51.8	15.4	6.06e-01	0	27	0	178782208	69	4291
2026-01-14 11:24:24.36	155.36	11.66	-50.1	-51.9	15.4	6.07e-01	0	27	0	186122240	69	4297
2026-01-14 11:24:28.27	155.39	12.06	-50.0	-51.7	15.4	6.05e-01	0	27	0	193462272	69	4213
2026-01-14 11:24:32.17	155.41	12.46	-50.1	-51.8	15.4	6.05e-01	0	27	0	200802304	69	4282
2026-01-14 11:24:36.08	155.44	12.88	-50.1	-51.8	15.4	6.06e-01	0	27	0	208142336	69	4281
2026-01-14 11:24:39.98	155.47	13.30	-49.9	-51.6	15.5	6.09e-01	0	27	0	215482368	69	4190
2026-01-14 11:24:43.86	155.50	13.72	-49.9	-51.6	15.5	6.07e-01	0	27	0	222298112	69	4175
2026-01-14 11:24:47.73	155.53	14.15	-49.8	-51.5	15.4	6.06e-01	0	27	0	229638144	68	4387
2026-01-14 11:24:51.60	155.55	14.60	-49.6	-51.2	15.4	6.06e-01	0	27	0	236978176	68	4236
2026-01-14 11:24:55.47	155.58	15.05	-49.5	-51.2	15.5	6.07e-01	0	27	0	244318208	68	4198
2026-01-14 11:24:59.34	155.62	15.51	-49.5	-51.1	15.5	6.06e-01	0	27	0	251658240	68	4187
2026-01-14 11:25:03.21	155.65	15.98	-49.7	-51.3	15.4	6.08e-01	0	27	0	258998272	68	4282
2026-01-14 11:25:07.07	155.68	16.45	-49.7	-51.4	15.4	6.07e-01	0	27	0	265814016	68	4299
2026-01-14 11:25:10.95	155.71	16.95	-49.6	-51.3	15.4	6.06e-01	0	27	0	273154048	68	4250
2026-01-14 11:25:14.81	155.74	17.45	-49.5	-51.2	15.5	6.05e-01	0	27	0	280494080	68	4194
2026-01-14 11:25:18.69	155.78	17.96	-49.4	-51.0	15.5	6.05e-01	0	27	0	287834112	68	4123
2026-01-14 11:25:22.55	155.81	18.49	-49.7	-51.3	15.4	6.08e-01	0	27	0	295174144	68	4265
2026-01-14 11:25:26.43	155.85	19.03	-49.9	-51.6	15.3	6.08e-01	0	27	0	302514176	68	4417
2026-01-14 11:25:30.30	155.88	19.58	-49.9	-51.6	15.4	6.07e-01	0	27	0	309854208	68	4401
2026-01-14 11:25:34.17	155.92	20.14	-49.8	-51.4	15.4	6.07e-01	0	27	0	316669952	68	4324
2026-01-14 11:25:38.03	155.95	20.72	-49.8	-51.4	15.4	6.07e-01	0	27	0	324009984	68	4330
2026-01-14 11:25:41.90	155.99	21.31	-49.8	-51.5	15.4	6.08e-01	0	27	0	331350016	68	4359
2026-01-14 11:25:45.78	156.03	21.93	-50.0	-51.7	15.3	6.06e-01	0	27	0	338690048	68	4460
2026-01-14 11:25:49.65	156.07	22.55	-50.0	-51.7	15.3	6.07e-01	0	27	0	346030080	68	4473
2026-01-14 11:25:53.53	156.12	23.20	-50.1	-51.8	15.3	6.07e-01	0	27	0	353370112	68	4512
2026-01-14 11:25:57.40	156.16	23.86	-50.2	-51.9	15.3	6.05e-01	0	27	0	360710144	68	4592
2026-01-14 11:26:01.27	156.20	24.54	-49.9	-51.5	15.4	6.06e-01	0	27	0	367525888	68	4390
2026-01-14 11:26:05.14	156.25	25.24	-50.0	-51.7	15.3	6.07e-01	0	27	0	374865920	68	4459
2026-01-14 11:26:09.01	156.29	25.96	-49.9	-51.5	15.3	6.04e-01	0	27	0	382205952	68	4376
2026-01-14 11:26:12.87	156.34	26.70	-49.8	-51.4	15.4	6.05e-01	0	27	0	389545984	68	4338
2026-01-14 11:26:16.75	156.39	27.46	-49.4	-51.0	15.5	6.07e-01	0	27	0	396886016	68	4132
2026-01-14 11:26:20.62	156.45	28.25	-49.5	-51.1	15.5	6.08e-01	0	27	0	403701760	68	4179
2026-01-14 11:26:24.49	156.50	29.07	-49.5	-51.0	15.5	6.06e-01	0	27	0	411041792	68	4140
2026-01-14 11:26:28.36	156.56	29.90	-49.5	-51.1	15.3	6.07e-01	0	27	0	418381824	67	4440
2026-01-14 11:26:32.23	156.62	30.77	-49.3	-50.9	15.4	6.05e-01	0	27	0	425721856	67	4320
2026-01-14 11:26:36.11	156.68	31.67	-49.3	-50.9	15.4	6.06e-01	0	27	0	433061888	67	4302
2026-01-14 11:26:39.99	156.74	32.59	-49.5	-51.1	15.4	6.06e-01	0	27	0	440401920	67	4410
2026-01-14 11:26:43.87	156.81	33.55	-49.7	-51.4	15.3	6.06e-01	0	27	0	447741952	67	4566
2026-01-14 11:26:47.75	156.88	34.54	-49.9	-51.6	15.2	6.06e-01	0	27	0	455081984	67	4684
2026-01-14 11:26:51.62	156.95	35.57	-50.5	-52.2	15.2	6.08e-01	0	27	0	461897728	68	4748
2026-01-14 11:26:55.49	157.03	36.63	-51.2	-53.1	15.2	6.08e-01	0	27	0	469237760	70	4677
2026-01-14 11:26:59.36	157.12	37.73	-51.3	-53.2	15.1	6.06e-01	0	27	0	476577792	70	4713
2026-01-14 11:27:03.23	157.20	38.86	-51.7	-53.7	15.1	6.08e-01	0	27	0	483917824	71	4726
2026-01-14 11:27:07.09	157.30	40.04	-51.2	-53.1	15.3	6.07e-01	0	27	0	491257856	71	4401
2026-01-14 11:27:10.96	157.40	41.26	-50.6	-52.4	15.4	6.08e-01	0	27	0	498597888	70	4292
2026-01-14 11:27:14.82	157.50	42.52	-50.4	-52.1	15.5	6.06e-01	0	27	0	505413632	70	4176
2026-01-14 11:27:18.70	157.62	43.83	-50.2	-51.8	15.4	6.05e-01	0	27	0	512753664	69	4275
2026-01-14 11:27:22.56	157.74	45.19	-49.6	-51.1	15.5	6.08e-01	0	27	0	520093696	68	4183
2026-01-14 11:27:26.44	157.87	46.60	-49.8	-51.5	15.4	6.05e-01	0	27	0	527433728	68	4342
2026-01-14 11:27:30.31	158.02	48.07	-49.9	-51.5	15.4	6.05e-01	0	27	0	534773760	68	4370
2026-01-14 11:27:34.18	158.17	49.58	-49.6	-51.2	15.4	6.06e-01	0	27	0	542113792	68	4226
2026-01-14 11:27:38.05	158.35	51.15	-49.4	-51.0	15.4	6.07e-01	0	27	0	548929536	67	4345
2026-01-14 11:27:41.92	158.54	52.78	-48.7	-50.2	15.4	6.07e-01	0	27	0	556269568	66	4238
2026-01-14 11:27:45.79	158.75	54.46	-48.9	-50.4	15.4	6.09e-01	0	27	0	563609600	66	4337
2026-01-14 11:27:49.67	158.99	56.21	-49.6	-51.2	15.2	6.07e-01	0	27	0	570949632	66	4720
2026-01-14 11:27:53.55	159.25	58.01	-50.0	-51.7	15.3	6.05e-01	0	27	0	578289664	68	4449
2026-01-14 11:27:57.42	159.56	59.87	-50.6	-52.3	15.3	6.07e-01	0	27	0	585629696	69	4543
2026-01-14 11:28:01.29	159.91	61.79	-51.4	-53.2	15.2	6.04e-01	0	27	0	592969728	70	4738
2026-01-14 11:28:05.16	160.32	63.76	-52.5	-54.5	15.0	6.07e-01	0	27	0	599785472	72	4915
2026-01-14 11:28:09.03	160.80	65.79	-53.9	-56.4	14.7	6.08e-01	0	27	0	607125504	75	5121
2026-01-14 11:28:12.91	161.38	67.88	-54.1	-56.6	14.8	6.07e-01	0	27	0	614465536	76	4944
2026-01-14 11:28:16.79	162.10	70.02	-54.5	-57.3	14.5	6.04e-01	0	27	0	621805568	76	5350
2026-01-14 11:28:20.66	162.99	72.20	-54.2	-56.7	14.7	6.05e-01	0	27	0	629145600	76	5025
2026-01-14 11:28:24.53	164.15	74.42	-53.4	-55.7	15.0	6.04e-01	0	27	0	636485632	75	4743
2026-01-14 11:28:28.41	165.71	76.68	-52.5	-54.5	15.3	6.04e-01	0	27	0	643825664	74	4352
2026-01-14 11:28:32.28	167.94	78.96	-51.6	-53.5	15.3	6.03e-01	0	27	0	650641408	72	4348
2026-01-14 11:28:36.15	171.33	81.24	-50.6	-52.2	15.4	6.02e-01	0	27	0	657981440	70	4225
2026-01-14 11:28:40.05	177.20	83.51	-50.4	-52.1	15.3	6.03e-01	0	27	0	665321472	69	4408
2026-01-14 11:28:43.93	189.04	85.65	-50.8	-52.5	15.2	6.03e-01	0	27	0	672661504	69	4639
2026-01-14 11:28:47.80	218.62	87.30	-50.2	-51.8	15.4	6.04e-01	0	27	0	680001536	69	4257
2026-01-14 11:28:51.67	271.85	87.32	-49.6	-51.2	15.4	6.03e-01	0	27	0	687341568	68	4207
2026-01-14 11:28:55.54	301.81	85.68	-50.2	-51.8	15.3	6.04e-01	0	27	0	694681600	68	4519
2026-01-14 11:28:59.42	313.78	83.54	-51.1	-52.8	15.2	6.03e-01	0	27	0	701497344	70	4529
2026-01-14 11:29:03.32	319.70	81.27	-50.6	-52.2	15.5	6.03e-01	0	28	0	708837376	70	4217
2026-01-14 11:29:07.24	323.15	78.97	-51.1	-52.8	15.3	6.04e-01	0	27	0	716177408	70	4512
2026-01-14 11:29:11.14	325.39	76.67	-53.1	-55.2	14.9	6.00e-01	0	27	0	723517440	73	5034
2026-01-14 11:29:15.05	326.96	74.40	-53.3	-55.5	14.9	6.04e-01	0	27	0	730857472	74	4912
2026-01-14 11:29:18.96	328.12	72.16	-53.2	-55.4	15.1	6.03e-01	0	27	0	738197504	75	4591
2026-01-14 11:29:22.86	329.02	69.97	-54.1	-56.5	14.8	6.02e-01	0	27	0	745537536	76	4908
2026-01-14 11:29:26.75	329.73	67.83	-54.0	-56.5	14.9	6.04e-01	0	27	0	752877568	76	4874
2026-01-14 11:29:30.65	330.31	65.74	-53.1	-55.3	15.0	6.02e-01	0	28	0	760217600	74	4762
2026-01-14 11:29:34.57	330.80	63.69	-51.6	-53.4	15.3	6.02e-01	0	27	0	767557632	72	4332
2026-01-14 11:29:38.48	331.21	61.70	-50.8	-52.4	15.4	6.03e-01	0	27	0	774897664	70	4315
2026-01-14 11:29:42.42	331.56	59.75	-51.2	-52.9	15.0	6.03e-01	0	27	0	782237696	70	4586
2026-01-14 11:29:46.40	331.87	57.85	-50.9	-52.6	15.3	6.02e-01	0	27	0	789577728	70	4419
2026-01-14 11:29:50.38	332.14	56.01	-49.5	-51.0	15.5	6.03e-01	0	27	0	797442048	68	4133
2026-01-14 11:29:54.32	332.38	54.25	-49.3	-50.8	15.4	6.04e-01	0	27	0	804782080	67	4255
2026-01-14 11:29:58.25	332.59	52.56	-49.2	-50.7	15.4	6.03e-01	0	27	0	812122112	67	4224
2026-01-14 11:30:02.16	332.78	50.93	-49.9	-51.5	15.3	6.04e-01	0	27	0	819462144	67	4605
2026-01-14 11:30:06.08	332.95	49.35	-50.0	-51.6	15.2	6.03e-01	0	27	0	826802176	67	4652
2026-01-14 11:30:10.01	333.11	47.83	-50.3	-51.9	15.3	6.06e-01	0	28	0	834142208	68	4567
2026-01-14 11:30:13.93	333.25	46.36	-50.4	-52.0	15.2	6.04e-01	0	28	0	841482240	68	4651
2026-01-14 11:30:17.85	333.39	44.95	-50.1	-51.8	15.3	6.03e-01	0	27	0	848822272	68	4494
2026-01-14 11:30:21.80	333.51	43.57	-50.4	-52.1	15.2	6.02e-01	0	27	0	856162304	68	4657
2026-01-14 11:30:25.74	333.63	42.25	-50.7	-52.4	15.3	6.02e-01	0	27	0	863502336	69	4564
2026-01-14 11:30:29.69	333.73	40.98	-50.9	-52.7	15.2	6.03e-01	0	28	0	870842368	69	4728
2026-01-14 11:30:33.66	333.83	39.74	-50.9	-52.7	15.2	6.04e-01	0	28	0	878182400	69	4709
2026-01-14 11:30:37.63	333.93	38.55	-51.2	-53.0	15.2	6.03e-01	0	27	0	886046720	70	4633
2026-01-14 11:30:41.61	334.02	37.40	-51.0	-52.8	15.3	6.04e-01	0	27	0	893386752	70	4509
2026-01-14 11:30:45.60	334.10	36.29	-50.5	-52.1	15.5	6.02e-01	0	27	0	900726784	70	4180
2026-01-14 11:30:49.56	334.18	35.22	-50.0	-51.6	15.5	6.00e-01	0	27	0	908066816	69	4186
2026-01-14 11:30:53.54	334.26	34.19	-49.8	-51.4	15.4	6.05e-01	0	27	0	915931136	68	4318
2026-01-14 11:30:57.52	334.33	33.19	-49.2	-50.8	15.4	6.01e-01	0	28	0	923271168	67	4248
2026-01-14 11:31:01.50	334.40	32.22	-49.1	-50.6	15.5	6.03e-01	0	27	0	930611200	67	4159
2026-01-14 11:31:05.49	334.46	31.29	-49.1	-50.6	15.5	6.04e-01	0	27	0	937951232	67	4151
2026-01-14 11:31:09.50	334.53	30.38	-49.3	-50.9	15.4	6.02e-01	0	28	0	945815552	67	4306
2026-01-14 11:31:13.51	334.59	29.50	-49.4	-51.0	15.4	6.03e-01	0	27	0	953155584	67	4348
2026-01-14 11:31:17.54	334.64	28.65	-49.3	-50.8	15.4	6.03e-01	0	27	0	960495616	67	4282
2026-01-14 11:31:21.54	334.70	27.83	-49.5	-51.1	15.3	6.04e-01	0	28	0	968359936	67	4409
2026-01-14 11:31:25.52	334.75	27.03	-49.6	-51.2	15.3	6.04e-01	0	27	0	975699968	67	4469
2026-01-14 11:31:29.51	334.81	26.26	-49.8	-51.4	15.3	6.02e-01	0	27	0	983040000	67	4590
2026-01-14 11:31:33.49	334.86	25.52	-50.0	-51.7	15.2	6.04e-01	0	28	0	990904320	67	4714
2026-01-14 11:31:37.49	334.91	24.79	-50.2	-51.9	15.3	6.06e-01	0	28	0	998244352	68	4567
2026-01-14 11:31:41.47	334.95	24.09	-50.4	-52.1	15.2	6.03e-01	0	27	0	1005584384	68	4680
2026-01-14 11:31:45.45	335.00	23.41	-50.1	-51.8	15.3	6.01e-01	0	27	0	1012924416	68	4530
2026-01-14 11:31:49.44	335.04	22.75	-50.2	-51.9	15.2	6.05e-01	0	27	0	1020788736	68	4562
2026-01-14 11:31:53.43	335.09	22.10	-50.1	-51.8	15.3	6.01e-01	0	28	0	1028128768	68	4508
2026-01-14 11:31:57.44	335.13	21.47	-49.8	-51.4	15.4	6.02e-01	0	27	0	1035468800	68	4296
2026-01-14 11:32:01.43	335.17	20.86	-49.8	-51.4	15.4	6.04e-01	0	27	0	1042808832	68	4302
2026-01-14 11:32:05.41	335.21	20.26	-49.7	-51.3	15.4	6.02e-01	0	28	0	1050673152	68	4275
2026-01-14 11:32:09.40	335.25	19.68	-49.8	-51.4	15.4	6.02e-01	0	28	0	1058013184	68	4307
2026-01-14 11:32:13.37	335.29	19.12	-49.8	-51.4	15.4	6.04e-01	0	27	0	1065353216	68	4317
2026-01-14 11:32:17.37	335.32	18.56	-49.8	-51.4	15.4	6.02e-01	0	28	0	1072693248	68	4333
2026-01-14 11:32:21.37	335.36	18.02	-50.0	-51.6	15.3	6.03e-01	0	27	0	1080557568	68	4441
2026-01-14 11:32:25.36	335.40	17.50	-50.1	-51.8	15.3	6.02e-01	0	27	0	1087897600	68	4541
2026-01-14 11:32:29.34	335.43	16.98	-50.0	-51.7	15.3	6.02e-01	0	27	0	1095237632	68	4490
2026-01-14 11:32:33.32	335.47	16.48	-49.9	-51.6	15.3	6.04e-01	0	27	0	1102577664	68	4408
2026-01-14 11:32:37.31	335.50	15.99	-49.8	-51.4	15.3	6.01e-01	0	27	0	1110441984	68	4330
2026-01-14 11:32:41.30	335.53	15.51	-49.8	-51.5	15.3	6.00e-01	0	27	0	1117782016	68	4349
2026-01-14 11:32:45.30	335.57	15.04	-49.7	-51.3	15.4	6.06e-01	0	28	0	1125122048	68	4291
2026-01-14 11:32:49.29	335.60	14.58	-49.8	-51.4	15.4	6.03e-01	0	27	0	1132986368	68	4326
2026-01-14 11:32:53.31	335.63	14.12	-49.7	-51.3	15.4	6.02e-01	0	28	0	1140326400	68	4277
2026-01-14 11:32:57.34	335.66	13.68	-49.7	-51.4	15.4	6.02e-01	0	27	0	1147666432	68	4296
2026-01-14 11:33:01.38	335.70	13.24	-49.7	-51.4	15.4	6.05e-01	0	28	0	1155530752	68	4320
2026-01-14 11:33:05.41	335.73	12.81	-49.8	-51.4	15.4	6.04e-01	0	27	0	1162870784	68	4324
2026-01-14 11:33:09.44	335.76	12.39	-49.8	-51.5	15.4	6.02e-01	0	27	0	1170735104	68	4352
2026-01-14 11:33:13.47	335.79	11.97	-49.9	-51.6	15.3	6.04e-01	0	27	0	1178075136	68	4397
2026-01-14 11:33:17.50	335.82	11.57	-50.0	-51.8	15.3	6.06e-01	0	27	0	1185415168	68	4496
2026-01-14 11:33:21.53	335.85	11.17	-50.0	-51.8	15.3	6.03e-01	0	28	0	1193279488	68	4514
2026-01-14 11:33:25.56	335.88	10.78	-50.2	-52.0	15.2	6.04e-01	0	28	0	1200619520	68	4606
2026-01-14 11:33:29.60	335.90	10.40	-50.2	-52.0	15.2	6.04e-01	0	27	0	1208483840	68	4625
2026-01-14 11:33:33.63	335.93	10.02	-50.2	-52.0	15.2	6.01e-01	0	28	0	1215823872	68	4650
2026-01-14 11:33:37.66	335.96	9.65	-50.4	-52.2	15.2	6.05e-01	0	28	0	1223163904	68	4741
2026-01-14 11:33:41.70	335.99	9.28	-50.4	-52.3	15.1	6.03e-01	0	27	0	1231028224	68	4766
2026-01-14 11:33:45.73	336.02	8.92	-50.6	-52.5	15.2	6.03e-01	0	27	0	1238368256	69	4609
2026-01-14 11:33:49.76	336.04	8.57	-50.7	-52.6	15.1	6.03e-01	0	28	0	1246232576	69	4677
2026-01-14 11:33:53.79	336.07	8.22	-50.8	-52.7	15.1	6.05e-01	0	27	0	1253572608	69	4743
2026-01-14 11:33:57.82	336.10	7.88	-51.0	-53.0	15.0	6.02e-01	0	27	0	1261436928	69	4898
2026-01-14 11:34:01.85	336.12	7.54	-50.9	-52.9	15.2	6.02e-01	0	28	0	1268776960	70	4563
2026-01-14 11:34:05.89	336.15	7.21	-51.1	-53.1	15.1	6.04e-01	0	27	0	1276641280	70	4692
2026-01-14 11:34:09.92	336.18	6.88	-51.0	-53.1	15.1	6.02e-01	0	27	0	1283981312	70	4661
2026-01-14 11:34:13.96	336.20	6.56	-51.2	-53.3	15.0	6.05e-01	0	27	0	1291321344	70	4774
2026-01-14 11:34:17.99	336.23	6.24	-51.5	-53.6	14.9	6.02e-01	0	27	0	1299185664	70	4982
2026-01-14 11:34:22.01	336.25	5.92	-51.4	-53.6	14.9	6.07e-01	0	27	0	1306525696	70	4927
2026-01-14 11:34:26.05	336.28	5.61	-51.3	-53.4	15.1	6.04e-01	0	28	0	1314390016	71	4594
2026-01-14 11:34:30.09	336.30	5.30	-51.3	-53.4	15.1	6.03e-01	0	27	0	1321730048	71	4582
2026-01-14 11:34:34.12	336.33	5.00	-52.0	-54.4	14.8	6.00e-01	0	27	0	1329070080	71	5108
2026-01-14 11:34:38.14	336.35	4.70	-59.3	-78.6	3.8	7.46e-01	0	27	104	1331167232	86	35079
2026-01-14 11:34:42.18	336.38	4.41	-59.8	-79.1	3.8	7.47e-01	0	27	104	1331167232	87	35242
2026-01-14 11:34:46.22	336.40	4.12	-60.0	-79.4	3.8	7.42e-01	0	28	104	1331167232	87	36364
2026-01-14 11:34:50.26	336.43	3.83	-60.1	-79.5	3.8	7.48e-01	0	27	104	1331167232	87	36781
2026-01-14 11:34:54.29	336.45	3.54	-60.2	-79.6	3.8	7.50e-01	0	28	104	1331167232	88	35204
2026-01-14 11:34:58.33	336.48	3.26	-60.2	-79.6	3.8	7.46e-01	0	28	104	1331167232	88	34965
2026-01-14 11:35:02.36	336.50	2.98	-60.1	-79.5	3.8	7.45e-01	0	28	104	1331167232	88	34744
2026-01-14 11:35:06.40	336.52	2.71	-60.1	-79.4	3.8	7.47e-01	0	28	104	1331167232	88	34456
2026-01-14 11:35:10.43	336.55	2.43	-60.0	-79.4	3.8	7.45e-01	0	28	104	1331167232	88	34416
2026-01-14 11:35:14.47	336.57	2.17	-60.0	-79.4	3.8	7.48e-01	0	28	104	1331167232	88	34282

#Closed at: 2026-01-14 11:35:17
#Recorded file [1331 MB]: D:/lorett/data/31004_260114_142226.dat