passes_logs/2026/01/14/R3.2S_Murmansk/R3.2S_Murmansk__20260114_203715_KANOPUS-V_5_rec.log

#Pass ID: 20260114_203715_KANOPUS-V 5
#Satellite: KANOPUS-V 5
#Configuration: KANOPUS-V_8320
#almurnet v.1.7.20251203
#Start time: 2026-01-14 20:37:15

#Version: 2.2.20231116
#Station: R3.2S_Murmansk
#Location: 33.079688 lon 68.888172 lat
#TLE: 1 43876U 18111A   26014.64517351  .00002226  00000+0  96418-4 0  9998
#TLE: 2 43876  97.3685 283.1659 0001742  85.8061 274.3376 15.23434183391418

#Time	Az	El	Level	Level2	SNR	BER	BlckErr	Temp	State	Recorded	gain1	gain2
2026-01-14 20:37:15.67	22.69	2.02	-58.7	-68.5	3.8	7.44e-01	0	26	0	0	81	11216
2026-01-14 20:37:18.67	22.95	2.21	-58.8	-68.5	3.8	7.47e-01	0	26	104	0	82	10585
2026-01-14 20:37:21.67	23.21	2.39	-58.8	-68.5	3.8	7.46e-01	0	26	104	0	82	10624
2026-01-14 20:37:24.67	23.48	2.58	-58.8	-68.5	3.8	7.45e-01	0	26	104	0	82	10654
2026-01-14 20:37:27.67	23.75	2.77	-58.8	-68.5	3.8	7.46e-01	0	27	104	0	82	10631
2026-01-14 20:37:30.67	24.02	2.96	-58.8	-68.6	3.8	7.45e-01	0	27	104	0	82	10656
2026-01-14 20:37:33.67	24.30	3.16	-58.8	-68.5	3.8	7.46e-01	0	27	104	0	82	10636
2026-01-14 20:37:36.67	24.59	3.35	-58.8	-68.5	3.8	7.46e-01	0	27	104	0	82	10644
2026-01-14 20:37:39.67	24.87	3.54	-58.8	-68.6	3.8	7.45e-01	0	27	104	0	82	10683
2026-01-14 20:37:42.67	25.17	3.74	-58.8	-68.6	3.8	7.46e-01	0	27	104	0	82	10657
2026-01-14 20:37:45.68	25.47	3.94	-58.8	-68.5	3.8	7.45e-01	0	27	104	0	82	10644
2026-01-14 20:37:48.68	25.77	4.14	-58.8	-68.6	3.8	7.46e-01	0	27	104	0	82	10714
2026-01-14 20:37:51.67	26.08	4.34	-58.8	-68.6	3.8	7.46e-01	0	27	104	0	82	10716
2026-01-14 20:37:54.67	26.39	4.54	-58.8	-68.6	3.8	7.44e-01	0	27	104	0	82	10712
2026-01-14 20:37:57.67	26.71	4.75	-58.8	-68.6	3.8	7.45e-01	0	27	104	0	82	10679
2026-01-14 20:38:00.67	27.03	4.95	-58.8	-68.6	3.8	7.46e-01	0	27	104	0	82	10721
2026-01-14 20:38:03.67	27.36	5.16	-59.1	-68.9	3.8	7.44e-01	0	27	104	0	82	11044
2026-01-14 20:38:06.67	27.70	5.37	-59.3	-69.0	3.8	7.46e-01	0	27	104	0	82	11248
2026-01-14 20:38:09.66	28.04	5.58	-58.9	-68.7	3.8	7.45e-01	0	27	104	0	82	10810
2026-01-14 20:38:12.66	28.38	5.79	-59.4	-69.2	3.8	7.46e-01	0	27	104	0	82	11430
2026-01-14 20:38:15.66	28.74	6.00	-59.2	-69.0	3.8	7.45e-01	0	27	104	0	82	11192
2026-01-14 20:38:18.65	29.10	6.22	-59.4	-69.2	3.8	7.45e-01	0	28	104	0	82	11440
2026-01-14 20:38:21.65	29.46	6.43	-59.5	-69.3	3.8	7.47e-01	0	28	104	0	82	11603
2026-01-14 20:38:24.65	29.84	6.65	-59.5	-69.3	3.8	7.47e-01	0	28	104	0	82	11600
2026-01-14 20:38:27.65	30.22	6.87	-59.4	-69.2	3.8	7.47e-01	0	28	104	0	82	11479
2026-01-14 20:38:30.65	30.60	7.09	-59.5	-69.3	3.8	7.46e-01	0	28	104	0	82	11592
2026-01-14 20:38:33.65	31.00	7.31	-59.6	-69.4	3.8	7.45e-01	0	28	104	0	82	11787
2026-01-14 20:38:36.64	31.40	7.54	-59.7	-69.4	3.8	7.48e-01	0	28	104	0	82	11773
2026-01-14 20:38:39.64	31.81	7.76	-59.6	-69.3	3.8	7.46e-01	0	28	104	0	82	11679
2026-01-14 20:38:42.64	32.22	7.99	-59.7	-69.4	3.8	7.44e-01	0	28	104	0	82	11774
2026-01-14 20:38:45.64	32.65	8.22	-59.7	-69.5	3.8	7.47e-01	0	28	104	0	82	11889
2026-01-14 20:38:48.64	33.08	8.45	-59.7	-69.5	3.8	7.44e-01	0	28	104	0	82	11907
2026-01-14 20:38:51.63	33.52	8.69	-59.7	-69.4	3.8	7.45e-01	0	28	104	0	82	11803
2026-01-14 20:38:54.63	33.97	8.92	-59.8	-69.5	3.8	7.48e-01	0	28	104	0	82	11908
2026-01-14 20:38:57.62	34.43	9.16	-59.8	-69.6	3.8	7.45e-01	0	28	104	0	82	12046
2026-01-14 20:39:00.61	34.89	9.39	-59.8	-69.5	3.8	7.45e-01	0	28	104	0	82	11955
2026-01-14 20:39:03.59	35.37	9.63	-59.8	-69.5	3.8	7.46e-01	0	28	104	0	82	11932
2026-01-14 20:39:06.58	35.85	9.87	-59.8	-69.6	3.8	7.46e-01	0	28	104	0	82	12027
2026-01-14 20:39:09.58	36.35	10.12	-59.9	-69.6	3.8	7.46e-01	0	28	104	0	83	11412
2026-01-14 20:39:12.59	36.86	10.36	-59.9	-69.7	3.8	7.47e-01	0	28	104	0	83	11438
2026-01-14 20:39:15.58	37.37	10.61	-59.9	-69.6	3.8	7.46e-01	0	28	104	0	83	11394
2026-01-14 20:39:18.58	37.90	10.85	-59.9	-69.7	3.8	7.45e-01	0	28	104	0	83	11461
2026-01-14 20:39:21.57	38.44	11.10	-60.0	-69.7	3.8	7.46e-01	0	28	104	0	83	11495
2026-01-14 20:39:24.56	38.98	11.35	-60.0	-69.7	3.8	7.45e-01	0	28	104	0	83	11501
2026-01-14 20:39:27.56	39.54	11.60	-60.0	-69.7	3.8	7.46e-01	0	28	104	0	83	11500
2026-01-14 20:39:30.55	40.11	11.86	-60.0	-69.7	3.8	7.45e-01	0	28	104	0	83	11541
2026-01-14 20:39:33.54	40.70	12.11	-60.0	-69.8	3.8	7.45e-01	0	28	104	0	83	11631
2026-01-14 20:39:36.52	41.29	12.36	-60.0	-69.8	3.8	7.45e-01	0	28	104	0	83	11585
2026-01-14 20:39:39.50	41.89	12.62	-60.0	-69.7	3.8	7.47e-01	0	28	104	0	83	11549
2026-01-14 20:39:42.49	42.51	12.88	-60.1	-69.8	3.8	7.45e-01	0	28	104	0	83	11631
2026-01-14 20:39:45.49	43.14	13.13	-60.1	-69.8	3.8	7.44e-01	0	28	104	0	83	11666
2026-01-14 20:39:48.48	43.79	13.39	-60.1	-69.8	3.8	7.45e-01	0	28	104	0	83	11667
2026-01-14 20:39:51.47	44.45	13.65	-60.1	-69.9	3.8	7.46e-01	0	28	104	0	83	11684
2026-01-14 20:39:54.45	45.12	13.91	-60.1	-69.9	3.8	7.46e-01	0	28	104	0	83	11736
2026-01-14 20:39:57.44	45.80	14.17	-60.1	-69.9	3.8	7.44e-01	0	28	104	0	83	11786
2026-01-14 20:40:00.44	46.51	14.43	-60.1	-69.9	3.8	7.46e-01	0	28	104	0	83	11701
2026-01-14 20:40:03.44	47.22	14.70	-60.1	-69.9	3.8	7.46e-01	0	28	104	0	83	11716
2026-01-14 20:40:06.43	47.95	14.96	-60.2	-69.9	3.8	7.46e-01	0	28	104	0	83	11782
2026-01-14 20:40:09.43	48.70	15.22	-60.2	-70.0	3.8	7.46e-01	0	28	104	0	83	11844
2026-01-14 20:40:12.42	49.46	15.48	-60.2	-69.9	3.8	7.46e-01	0	28	104	0	83	11797
2026-01-14 20:40:15.42	50.24	15.74	-60.2	-69.9	3.8	7.46e-01	0	28	104	0	83	11803
2026-01-14 20:40:18.40	51.03	16.00	-60.2	-70.0	3.8	7.44e-01	0	28	104	0	83	11838
2026-01-14 20:40:21.38	51.83	16.25	-60.3	-70.0	3.8	7.47e-01	0	28	104	0	83	11927
2026-01-14 20:40:24.39	52.66	16.51	-60.2	-70.0	3.8	7.45e-01	0	28	104	0	83	11901
2026-01-14 20:40:27.38	53.50	16.77	-60.3	-70.0	3.8	7.44e-01	0	28	104	0	83	11907
2026-01-14 20:40:30.37	54.36	17.02	-60.3	-70.0	3.8	7.45e-01	0	28	104	0	83	11914
2026-01-14 20:40:33.36	55.23	17.27	-60.3	-70.1	3.8	7.45e-01	0	28	104	0	83	12016
2026-01-14 20:40:36.36	56.12	17.52	-60.3	-70.0	3.8	7.43e-01	0	28	104	0	83	11940
2026-01-14 20:40:39.35	57.03	17.77	-60.3	-70.0	3.8	7.44e-01	0	28	104	0	83	11890
2026-01-14 20:40:42.35	57.96	18.01	-60.3	-70.1	3.8	7.46e-01	0	28	104	0	83	11992
2026-01-14 20:40:45.33	58.90	18.25	-60.4	-70.1	3.8	7.47e-01	0	28	104	0	83	12044
2026-01-14 20:40:48.32	59.85	18.48	-59.0	-70.1	3.8	7.45e-01	0	28	104	0	82	12747
2026-01-14 20:40:51.30	60.82	18.71	-56.4	-60.4	7.9	6.43e-01	0	28	0	31457280	77	5567
2026-01-14 20:40:54.30	61.82	18.94	-47.9	-50.7	13.6	6.08e-01	0	28	0	77594624	60	4848
2026-01-14 20:40:57.28	62.83	19.16	-47.9	-50.6	13.5	6.08e-01	0	28	0	123731968	59	5043
2026-01-14 20:41:00.27	63.85	19.38	-47.9	-50.3	13.6	6.09e-01	0	28	0	167772160	59	4917
2026-01-14 20:41:03.27	64.90	19.59	-47.7	-50.1	13.7	6.09e-01	0	28	0	213909504	59	4782
2026-01-14 20:41:06.25	65.95	19.79	-47.8	-50.4	13.6	6.09e-01	0	28	0	260046848	59	4974
2026-01-14 20:41:09.22	67.02	19.98	-48.0	-50.9	13.4	5.78e-01	0	28	0	306184192	59	5258
2026-01-14 20:41:12.21	68.10	20.17	-48.0	-50.8	13.5	5.78e-01	0	28	0	352321536	59	5190
2026-01-14 20:41:15.20	69.21	20.35	-47.8	-50.5	13.6	5.78e-01	0	28	0	398458880	59	5028
2026-01-14 20:41:18.20	70.33	20.53	-47.9	-50.7	13.5	5.76e-01	0	28	0	444596224	59	5119
2026-01-14 20:41:21.20	71.47	20.69	-47.8	-50.5	13.6	5.77e-01	0	28	0	490733568	59	5017
2026-01-14 20:41:24.20	72.62	20.85	-47.8	-50.4	13.6	5.78e-01	0	28	0	536870912	59	4975
2026-01-14 20:41:27.18	73.77	21.00	-47.8	-50.5	13.6	5.77e-01	0	28	0	583008256	59	5037
2026-01-14 20:41:30.18	74.95	21.14	-47.7	-50.5	13.6	5.77e-01	0	28	0	629145600	59	4995
2026-01-14 20:41:33.17	76.13	21.26	-47.7	-50.5	13.6	5.78e-01	0	28	0	673185792	59	4990
2026-01-14 20:41:36.17	77.33	21.38	-47.8	-50.6	13.6	5.76e-01	0	28	0	719323136	59	5054
2026-01-14 20:41:39.16	78.53	21.48	-47.9	-50.7	13.5	6.04e-01	0	28	0	765460480	59	5101
2026-01-14 20:41:42.16	79.75	21.58	-47.8	-50.6	13.6	6.06e-01	0	29	0	811597824	59	5043
2026-01-14 20:41:45.15	80.97	21.66	-47.8	-50.7	13.6	6.07e-01	0	28	0	857735168	59	5106
2026-01-14 20:41:48.14	82.19	21.73	-47.9	-50.7	13.5	6.03e-01	0	28	0	903872512	59	5145
2026-01-14 20:41:51.12	83.42	21.79	-47.9	-50.7	13.5	5.89e-01	0	28	0	950009856	59	5156
2026-01-14 20:41:54.10	84.65	21.84	-47.9	-50.7	13.5	5.92e-01	0	28	0	996147200	59	5150
2026-01-14 20:41:57.08	85.89	21.88	-47.7	-50.6	13.6	5.76e-01	0	28	0	1042284544	59	5063
2026-01-14 20:42:00.08	87.14	21.90	-47.8	-50.5	13.6	5.98e-01	0	29	0	1088421888	59	5030
2026-01-14 20:42:03.06	88.38	21.91	-47.6	-50.2	13.7	6.02e-01	0	28	0	1132462080	59	4829
2026-01-14 20:42:06.06	89.63	21.91	-47.5	-50.1	13.8	5.93e-01	0	28	0	1178599424	59	4790
2026-01-14 20:42:09.05	90.88	21.89	-47.4	-50.0	13.8	6.04e-01	0	28	0	1224736768	59	4730
2026-01-14 20:42:12.05	92.13	21.87	-47.6	-50.3	13.7	6.04e-01	0	28	0	1270874112	59	4889
2026-01-14 20:42:15.05	93.37	21.83	-47.6	-50.3	13.7	6.03e-01	0	28	0	1317011456	59	4900
2026-01-14 20:42:18.05	94.61	21.78	-47.6	-50.3	13.7	6.02e-01	0	28	0	1363148800	59	4912
2026-01-14 20:42:21.05	95.85	21.71	-47.7	-50.4	13.7	6.03e-01	0	28	0	1409286144	59	4956
2026-01-14 20:42:24.04	97.08	21.64	-47.6	-50.1	13.7	6.06e-01	0	28	0	1455423488	59	4810
2026-01-14 20:42:27.04	98.30	21.55	-47.6	-50.2	13.7	6.02e-01	0	28	0	1501560832	59	4866
2026-01-14 20:42:30.04	99.52	21.45	-47.6	-50.1	13.8	6.03e-01	0	28	0	1547698176	59	4791
2026-01-14 20:42:33.04	100.72	21.34	-47.6	-50.1	13.8	6.04e-01	0	28	0	1593835520	59	4771
2026-01-14 20:42:36.04	101.92	21.22	-47.6	-50.1	13.8	6.04e-01	0	28	0	1639972864	59	4765
2026-01-14 20:42:39.03	103.10	21.09	-47.8	-50.3	13.7	6.06e-01	0	28	0	1686110208	59	4889
2026-01-14 20:42:42.03	104.27	20.95	-47.7	-50.1	13.7	6.04e-01	0	28	0	1732247552	59	4807
2026-01-14 20:42:45.03	105.43	20.80	-47.7	-50.2	13.7	6.01e-01	0	28	0	1778384896	59	4853
2026-01-14 20:42:48.02	106.58	20.64	-47.7	-50.2	13.7	6.05e-01	0	28	0	1824522240	59	4867
2026-01-14 20:42:51.03	107.72	20.47	-47.8	-50.3	13.7	6.01e-01	0	29	0	1870659584	59	4897
2026-01-14 20:42:54.03	108.84	20.29	-47.7	-50.3	13.7	6.02e-01	0	28	0	1916796928	59	4890
2026-01-14 20:42:57.03	109.94	20.10	-47.7	-50.3	13.7	6.03e-01	0	29	0	1962934272	59	4875
2026-01-14 20:43:00.03	111.04	19.91	-47.9	-50.5	13.6	6.00e-01	0	29	0	2009071616	59	5040
2026-01-14 20:43:03.02	112.11	19.71	-47.9	-50.6	13.5	6.01e-01	0	28	0	2055208960	59	5089
2026-01-14 20:43:06.03	113.17	19.50	-47.9	-50.7	13.5	6.05e-01	0	29	0	2101346304	59	5142
2026-01-14 20:43:09.02	114.21	19.29	-48.2	-51.0	13.4	6.02e-01	0	28	0	2145386496	59	5280
2026-01-14 20:43:12.01	115.23	19.07	-48.1	-50.7	13.4	6.01e-01	0	28	0	2191523840	59	5129
2026-01-14 20:43:15.02	116.25	18.85	-47.8	-50.2	13.7	6.03e-01	0	29	0	2237661184	59	4827
2026-01-14 20:43:18.02	117.24	18.62	-47.7	-50.0	13.7	6.04e-01	0	28	0	2283798528	59	4746
2026-01-14 20:43:21.02	118.21	18.38	-47.8	-50.2	13.7	6.02e-01	0	28	0	2329935872	59	4820
2026-01-14 20:43:24.02	119.17	18.14	-48.0	-50.5	13.5	6.02e-01	0	28	0	2376073216	59	5006
2026-01-14 20:43:27.02	120.11	17.90	-48.1	-50.6	13.5	6.05e-01	0	29	0	2424307712	59	5071
2026-01-14 20:43:30.01	121.03	17.65	-48.4	-50.9	13.3	6.01e-01	0	29	0	2468347904	59	5245
2026-01-14 20:43:33.01	121.94	17.41	-48.4	-51.0	13.4	6.04e-01	0	28	0	2514485248	60	5028
2026-01-14 20:43:35.99	122.83	17.16	-48.1	-50.6	13.6	6.04e-01	0	29	0	2560622592	60	4779
2026-01-14 20:43:38.99	123.70	16.90	-48.2	-50.7	13.5	6.03e-01	0	28	0	2606759936	60	4816
2026-01-14 20:43:41.99	124.56	16.65	-48.3	-50.8	13.4	6.06e-01	0	29	0	2652897280	60	4891
2026-01-14 20:43:44.99	125.40	16.39	-48.3	-50.7	13.4	6.07e-01	0	28	0	2699034624	60	4850
2026-01-14 20:43:47.99	126.22	16.13	-48.6	-51.1	13.3	6.04e-01	0	29	0	2745171968	60	5047
2026-01-14 20:43:51.00	127.03	15.87	-48.5	-51.1	13.3	6.06e-01	0	28	0	2791309312	60	5064
2026-01-14 20:43:54.00	127.82	15.60	-48.5	-51.1	13.3	6.05e-01	0	29	0	2837446656	60	5048
2026-01-14 20:43:57.01	128.60	15.34	-48.7	-51.3	13.1	6.04e-01	0	28	0	2883584000	60	5191
2026-01-14 20:44:00.01	129.36	15.08	-48.8	-51.4	13.1	6.06e-01	0	28	0	2929721344	60	5270
2026-01-14 20:44:03.00	130.10	14.81	-48.9	-51.5	13.0	6.04e-01	0	28	0	2975858688	60	5292
2026-01-14 20:44:05.99	130.83	14.55	-48.8	-51.3	13.1	6.02e-01	0	28	0	3021996032	60	5180
2026-01-14 20:44:08.99	131.54	14.29	-48.9	-51.3	13.1	6.07e-01	0	28	0	3068133376	60	5183
2026-01-14 20:44:11.98	132.24	14.03	-48.8	-51.2	13.1	6.04e-01	0	28	0	3114270720	60	5157
2026-01-14 20:44:14.97	132.92	13.76	-49.0	-51.4	13.1	6.02e-01	0	29	0	3160408064	61	4969
2026-01-14 20:44:17.98	133.59	13.50	-49.2	-51.6	13.0	6.03e-01	0	28	0	3206545408	61	5090
2026-01-14 20:44:20.97	134.25	13.24	-49.3	-51.8	12.9	6.04e-01	0	28	0	3250585600	61	5184
2026-01-14 20:44:23.96	134.89	12.98	-49.5	-52.1	12.8	6.05e-01	0	29	0	3296722944	62	5053
2026-01-14 20:44:26.96	135.52	12.72	-49.6	-52.1	12.8	6.03e-01	0	29	0	3342860288	62	5075
2026-01-14 20:44:29.97	136.14	12.46	-49.6	-52.1	12.8	6.04e-01	0	29	0	3388997632	62	5077
2026-01-14 20:44:32.96	136.74	12.20	-49.7	-52.2	12.7	6.03e-01	0	28	0	3435134976	62	5116
2026-01-14 20:44:35.96	137.34	11.94	-49.7	-52.1	12.7	6.03e-01	0	29	0	3481272320	62	5089
2026-01-14 20:44:38.96	137.92	11.69	-49.8	-52.3	12.7	6.05e-01	0	28	0	3527409664	62	5190
2026-01-14 20:44:41.96	138.49	11.43	-49.9	-52.4	12.6	6.02e-01	0	29	0	3573547008	62	5242
2026-01-14 20:44:44.97	139.05	11.18	-50.0	-52.6	12.6	6.05e-01	0	29	0	3619684352	63	5078
2026-01-14 20:44:47.97	139.59	10.93	-50.1	-52.7	12.5	6.04e-01	0	29	0	3665821696	63	5149
2026-01-14 20:44:50.97	140.13	10.68	-50.2	-52.9	12.4	6.02e-01	0	28	0	3711959040	63	5260
2026-01-14 20:44:53.96	140.65	10.43	-50.4	-53.1	12.3	6.03e-01	0	29	0	3758096384	64	5079
2026-01-14 20:44:56.97	141.16	10.18	-50.3	-52.9	12.4	6.04e-01	0	29	0	3804233728	64	4976
2026-01-14 20:44:59.97	141.67	9.94	-50.6	-53.1	12.2	6.04e-01	0	29	0	3850371072	64	5098
2026-01-14 20:45:02.96	142.16	9.69	-50.8	-53.4	12.0	6.10e-01	0	29	0	3896508416	64	5240
2026-01-14 20:45:05.96	142.64	9.45	-50.8	-53.3	12.1	6.08e-01	0	29	0	3942645760	64	5189
2026-01-14 20:45:08.95	143.12	9.21	-50.8	-53.4	12.0	6.09e-01	0	28	0	3988783104	64	5253
2026-01-14 20:45:11.94	143.58	8.97	-50.8	-53.5	12.1	6.09e-01	0	28	0	4034920448	65	4988
2026-01-14 20:45:14.93	144.03	8.74	-50.9	-53.5	12.0	6.10e-01	0	29	0	4081057792	65	5041
2026-01-14 20:45:17.94	144.48	8.50	-51.1	-53.8	11.8	6.09e-01	0	29	0	4127195136	65	5181
2026-01-14 20:45:20.94	144.92	8.27	-51.3	-54.1	11.7	6.11e-01	0	29	0	4173332480	66	5054
2026-01-14 20:45:23.95	145.35	8.03	-51.6	-54.4	11.5	6.11e-01	0	29	0	4219469824	66	5238
2026-01-14 20:45:26.94	145.77	7.80	-51.7	-54.5	11.4	6.07e-01	0	29	0	4265607168	66	5333
2026-01-14 20:45:29.93	146.19	7.58	-51.8	-54.7	11.2	6.08e-01	0	29	0	4311744512	66	5438
2026-01-14 20:45:32.92	146.59	7.35	-51.9	-54.7	11.3	6.08e-01	0	29	0	4355784704	67	5153
2026-01-14 20:45:35.92	146.99	7.12	-51.8	-54.6	11.3	6.06e-01	0	29	0	4401922048	67	5098
2026-01-14 20:45:38.92	147.38	6.90	-51.8	-54.5	11.3	6.05e-01	0	29	0	4448059392	67	5026
2026-01-14 20:45:41.92	147.76	6.68	-52.0	-54.8	11.1	6.08e-01	0	29	0	4494196736	67	5187
2026-01-14 20:45:44.90	148.14	6.46	-52.0	-54.8	11.1	6.08e-01	0	29	0	4540334080	67	5214
2026-01-14 20:45:47.89	148.51	6.24	-51.9	-54.7	11.2	6.07e-01	0	29	0	4586471424	67	5119
2026-01-14 20:45:50.90	148.87	6.02	-52.0	-55.0	11.0	6.08e-01	0	29	0	4632608768	67	5291
2026-01-14 20:45:53.88	149.23	5.81	-52.5	-55.5	10.5	6.11e-01	0	29	0	4678746112	68	5323
2026-01-14 20:45:56.88	149.58	5.60	-52.3	-55.3	10.7	6.16e-01	0	29	0	4724883456	68	5207
2026-01-14 20:45:59.87	149.92	5.39	-52.3	-55.2	10.7	6.14e-01	0	29	0	4771020800	68	5118
2026-01-14 20:46:02.85	150.26	5.18	-52.9	-56.0	10.1	6.16e-01	0	29	0	4817158144	69	5305
2026-01-14 20:46:05.85	150.59	4.97	-58.2	-64.7	4.5	7.23e-01	0	29	0	4863295488	79	8136
2026-01-14 20:46:08.84	150.92	4.76	-60.4	-70.1	3.8	7.45e-01	0	29	104	4863295488	83	12035
2026-01-14 20:46:11.84	151.24	4.55	-60.9	-70.7	3.8	7.46e-01	0	29	104	4863295488	84	12105
2026-01-14 20:46:14.83	151.55	4.35	-61.2	-70.9	3.8	7.44e-01	0	29	104	4863295488	85	11796
2026-01-14 20:46:17.82	151.86	4.15	-61.4	-71.1	3.8	7.45e-01	0	29	104	4863295488	85	12004
2026-01-14 20:46:20.82	152.17	3.95	-61.5	-71.2	3.8	7.46e-01	0	29	104	4863295488	86	11536
2026-01-14 20:46:23.83	152.47	3.75	-61.6	-71.3	3.8	7.44e-01	0	28	104	4863295488	86	11646
2026-01-14 20:46:26.83	152.76	3.55	-61.6	-71.3	3.8	7.48e-01	0	29	104	4863295488	86	11640
2026-01-14 20:46:29.83	153.05	3.35	-61.5	-71.3	3.8	7.44e-01	0	29	104	4863295488	86	11616
2026-01-14 20:46:32.83	153.34	3.15	-61.5	-71.3	3.8	7.45e-01	0	29	104	4863295488	86	11588
2026-01-14 20:46:35.83	153.62	2.96	-61.5	-71.2	3.8	7.46e-01	0	29	104	4863295488	86	11518
2026-01-14 20:46:38.82	153.90	2.77	-61.5	-71.2	3.8	7.46e-01	0	29	104	4863295488	86	11506
2026-01-14 20:46:41.84	154.17	2.57	-61.5	-71.2	3.8	7.45e-01	0	29	104	4863295488	86	11476
2026-01-14 20:46:44.83	154.44	2.38	-61.4	-71.1	3.8	7.47e-01	0	29	104	4863295488	86	11397
2026-01-14 20:46:47.83	154.70	2.19	-61.4	-71.2	3.8	7.45e-01	0	29	104	4863295488	86	11431
2026-01-14 20:46:50.84	154.96	2.01	-61.4	-71.1	3.8	7.46e-01	0	29	104	4863295488	86	11399

#Closed at: 2026-01-14 20:46:53
#Recorded file [4863 MB]: D:/lorett/data/31004_260114_233715.dat