passes_logs/2026/01/14/R3.2S_Murmansk/R3.2S_Murmansk__20260114_092355_KANOPUS-V_5_rec.log

#Pass ID: 20260114_092355_KANOPUS-V 5
#Satellite: KANOPUS-V 5
#Configuration: KANOPUS-V_8320
#almurnet v.1.7.20251203
#Start time: 2026-01-14 09:23:56

#Version: 2.2.20231116
#Station: R3.2S_Murmansk
#Location: 33.079688 lon 68.888172 lat
#TLE: 1 43876U 18111A   26013.92265638  .00002186  00000+0  94740-4 0  9997
#TLE: 2 43876  97.3685 282.4563 0001771  87.3823 272.7617 15.23432279391301

#Time	Az	El	Level	Level2	SNR	BER	BlckErr	Temp	State	Recorded	gain1	gain2
2026-01-14 09:23:56.11	206.64	2.07	-59.5	-69.2	3.8	7.45e-01	0	26	0	0	83	10801
2026-01-14 09:23:59.10	206.91	2.26	-59.5	-69.2	3.8	7.46e-01	0	26	104	0	83	10792
2026-01-14 09:24:02.07	207.18	2.44	-59.4	-69.2	3.8	7.43e-01	0	26	104	0	83	10787
2026-01-14 09:24:05.05	207.45	2.63	-59.4	-69.2	3.8	7.44e-01	0	26	104	0	83	10836
2026-01-14 09:24:08.02	207.73	2.82	-59.5	-69.2	3.8	7.45e-01	0	27	104	0	83	10837
2026-01-14 09:24:11.00	208.02	3.01	-59.5	-69.1	3.8	7.45e-01	0	26	104	0	83	10761
2026-01-14 09:24:13.98	208.30	3.20	-59.5	-69.2	3.8	7.44e-01	0	27	104	0	83	10815
2026-01-14 09:24:16.97	208.60	3.40	-59.5	-69.2	3.8	7.45e-01	0	27	104	0	83	10807
2026-01-14 09:24:19.97	208.90	3.59	-59.4	-69.1	3.8	7.46e-01	0	27	104	0	83	10760
2026-01-14 09:24:22.96	209.20	3.79	-59.4	-69.1	3.8	7.46e-01	0	27	104	0	83	10670
2026-01-14 09:24:25.94	209.51	3.99	-59.4	-68.9	3.8	7.46e-01	0	27	104	0	83	10466
2026-01-14 09:24:28.92	209.82	4.18	-59.4	-69.1	3.8	7.46e-01	0	27	104	0	83	10706
2026-01-14 09:24:31.89	210.14	4.38	-59.3	-68.5	3.8	7.47e-01	0	27	104	0	83	9979
2026-01-14 09:24:34.86	210.46	4.58	-59.0	-67.2	3.8	7.44e-01	0	27	104	0	82	9089
2026-01-14 09:24:37.86	210.79	4.79	-58.8	-66.7	3.8	7.43e-01	0	27	104	0	82	8647
2026-01-14 09:24:40.84	211.13	4.99	-57.3	-62.6	5.5	6.87e-01	0	27	0	25165824	79	6417
2026-01-14 09:24:43.84	211.47	5.20	-57.2	-62.5	5.6	6.79e-01	0	27	0	39845888	78	6655
2026-01-14 09:24:46.83	211.82	5.41	-52.5	-55.5	10.8	6.05e-01	0	27	0	62914560	69	5022
2026-01-14 09:24:49.81	212.17	5.62	-52.4	-55.3	10.9	6.03e-01	0	27	0	109051904	69	4878
2026-01-14 09:24:52.80	212.53	5.83	-52.6	-55.5	10.8	6.05e-01	0	27	0	155189248	69	4994
2026-01-14 09:24:55.79	212.90	6.04	-52.3	-55.1	11.0	6.03e-01	0	27	0	201326592	68	5064
2026-01-14 09:24:58.76	213.27	6.25	-52.2	-55.0	11.2	6.03e-01	0	27	0	247463936	68	4985
2026-01-14 09:25:01.74	213.65	6.47	-52.4	-55.2	11.0	6.03e-01	0	27	0	293601280	68	5123
2026-01-14 09:25:04.71	214.03	6.68	-52.0	-54.7	11.4	6.04e-01	0	27	0	337641472	68	4845
2026-01-14 09:25:07.71	214.43	6.90	-52.1	-54.9	11.3	6.04e-01	0	27	0	383778816	68	4954
2026-01-14 09:25:10.70	214.83	7.12	-51.8	-54.6	11.5	6.05e-01	0	27	0	429916160	67	5044
2026-01-14 09:25:13.68	215.24	7.34	-51.9	-54.6	11.4	6.05e-01	0	27	0	476053504	67	5092
2026-01-14 09:25:16.66	215.65	7.56	-51.5	-54.3	11.7	6.03e-01	0	27	0	522190848	67	4887
2026-01-14 09:25:19.65	216.07	7.79	-51.4	-54.2	11.8	6.04e-01	0	27	0	568328192	67	4832
2026-01-14 09:25:22.64	216.51	8.01	-51.5	-54.3	11.7	6.04e-01	0	27	0	614465536	67	4924
2026-01-14 09:25:25.63	216.95	8.24	-51.4	-54.2	11.8	6.05e-01	0	28	0	660602880	67	4855
2026-01-14 09:25:28.61	217.39	8.47	-51.2	-54.0	11.9	6.01e-01	0	27	0	704643072	66	5015
2026-01-14 09:25:31.59	217.85	8.70	-51.2	-54.0	11.9	6.04e-01	0	28	0	750780416	66	5024
2026-01-14 09:25:34.58	218.32	8.93	-51.0	-53.7	12.1	6.03e-01	0	28	0	796917760	66	4856
2026-01-14 09:25:37.56	218.79	9.16	-50.9	-53.6	12.2	6.04e-01	0	27	0	843055104	66	4814
2026-01-14 09:25:40.54	219.27	9.40	-50.7	-53.4	12.2	6.06e-01	0	28	0	889192448	65	4980
2026-01-14 09:25:43.50	219.76	9.63	-50.6	-53.3	12.3	6.10e-01	0	28	0	933232640	65	4919
2026-01-14 09:25:46.47	220.26	9.87	-50.5	-53.3	12.4	6.07e-01	0	28	0	979369984	65	4872
2026-01-14 09:25:49.45	220.77	10.11	-50.4	-53.2	12.5	6.07e-01	0	28	0	1025507328	65	4820
2026-01-14 09:25:52.44	221.30	10.35	-50.6	-53.4	12.3	6.03e-01	0	28	0	1071644672	65	4958
2026-01-14 09:25:55.43	221.83	10.59	-50.5	-53.2	12.4	6.05e-01	0	28	0	1117782016	65	4832
2026-01-14 09:25:58.40	222.37	10.83	-50.3	-52.9	12.6	6.01e-01	0	28	0	1161822208	65	4665
2026-01-14 09:26:01.38	222.92	11.08	-50.1	-52.7	12.7	6.00e-01	0	28	0	1207959552	64	4825
2026-01-14 09:26:04.37	223.49	11.32	-50.0	-52.6	12.7	6.02e-01	0	28	0	1254096896	64	4798
2026-01-14 09:26:07.35	224.07	11.57	-50.1	-52.6	12.7	6.00e-01	0	28	0	1300234240	64	4789
2026-01-14 09:26:10.35	224.66	11.82	-49.8	-52.4	12.9	6.02e-01	0	28	0	1346371584	64	4653
2026-01-14 09:26:13.34	225.26	12.07	-49.8	-52.4	12.8	6.05e-01	0	28	0	1392508928	64	4678
2026-01-14 09:26:16.33	225.87	12.31	-49.7	-52.4	12.9	6.04e-01	0	28	0	1438646272	64	4654
2026-01-14 09:26:19.33	226.50	12.57	-49.7	-52.3	12.8	6.02e-01	0	28	0	1484783616	63	4917
2026-01-14 09:26:22.32	227.14	12.82	-49.9	-52.5	12.7	6.04e-01	0	28	0	1530920960	63	5040
2026-01-14 09:26:25.29	227.79	13.07	-49.7	-52.3	12.9	6.04e-01	0	28	0	1574961152	63	4893
2026-01-14 09:26:28.27	228.45	13.32	-49.5	-52.1	13.0	6.03e-01	0	28	0	1621098496	63	4773
2026-01-14 09:26:31.25	229.13	13.57	-49.6	-52.3	12.9	5.99e-01	0	28	0	1667235840	63	4921
2026-01-14 09:26:34.24	229.82	13.82	-49.6	-52.4	12.8	6.02e-01	0	28	0	1713373184	63	4974
2026-01-14 09:26:37.21	230.52	14.07	-49.4	-52.2	13.0	6.02e-01	0	28	0	1759510528	63	4855
2026-01-14 09:26:40.19	231.24	14.32	-49.3	-52.1	13.1	6.01e-01	0	28	0	1805647872	63	4782
2026-01-14 09:26:43.17	231.97	14.58	-49.2	-51.9	13.1	6.02e-01	0	28	0	1851785216	62	4941
2026-01-14 09:26:46.15	232.71	14.83	-49.1	-51.7	13.2	6.01e-01	0	28	0	1895825408	62	4833
2026-01-14 09:26:49.15	233.48	15.08	-48.9	-51.5	13.3	6.02e-01	0	28	0	1941962752	62	4708
2026-01-14 09:26:52.14	234.26	15.33	-48.8	-51.3	13.4	6.04e-01	0	28	0	1988100096	62	4601
2026-01-14 09:26:55.13	235.05	15.58	-48.8	-51.3	13.4	6.02e-01	0	28	0	2034237440	62	4649
2026-01-14 09:26:58.11	235.86	15.82	-48.9	-51.5	13.3	6.01e-01	0	28	0	2080374784	62	4737
2026-01-14 09:27:01.10	236.68	16.07	-49.1	-52.0	13.1	6.02e-01	0	28	0	2126512128	62	4987
2026-01-14 09:27:04.07	237.52	16.31	-49.3	-52.2	12.9	6.01e-01	0	28	0	2172649472	62	5152
2026-01-14 09:27:07.06	238.37	16.55	-49.4	-52.1	13.0	6.03e-01	0	28	0	2216689664	62	5068
2026-01-14 09:27:10.03	239.24	16.79	-48.7	-51.3	13.4	6.03e-01	0	28	0	2262827008	62	4630
2026-01-14 09:27:13.01	240.13	17.03	-48.7	-51.4	13.3	6.03e-01	0	28	0	2308964352	61	4928
2026-01-14 09:27:16.00	241.03	17.26	-48.8	-51.6	13.2	6.06e-01	0	28	0	2355101696	61	5084
2026-01-14 09:27:18.98	241.95	17.49	-49.1	-51.8	13.1	5.96e-01	0	28	0	2401239040	61	5171
2026-01-14 09:27:21.96	242.88	17.72	-48.6	-51.1	13.4	6.04e-01	0	28	0	2445279232	61	4767
2026-01-14 09:27:24.95	243.83	17.94	-48.5	-51.0	13.5	6.03e-01	0	28	0	2491416576	61	4723
2026-01-14 09:27:27.93	244.80	18.16	-48.6	-51.2	13.4	6.03e-01	0	28	0	2537553920	61	4853
2026-01-14 09:27:30.91	245.78	18.37	-48.6	-51.4	13.3	6.05e-01	0	28	0	2583691264	61	4932
2026-01-14 09:27:33.89	246.77	18.58	-48.9	-51.9	13.1	6.04e-01	0	28	0	2629828608	61	5242
2026-01-14 09:27:36.87	247.78	18.78	-49.1	-52.0	13.0	6.05e-01	0	28	0	2675965952	61	5304
2026-01-14 09:27:39.84	248.80	18.98	-48.6	-51.5	13.3	6.04e-01	0	28	0	2720006144	61	5030
2026-01-14 09:27:42.82	249.84	19.17	-48.6	-51.4	13.3	6.04e-01	0	28	0	2766143488	61	4980
2026-01-14 09:27:45.80	250.90	19.35	-48.5	-51.4	13.4	6.05e-01	0	28	0	2812280832	61	4933
2026-01-14 09:27:48.79	251.97	19.53	-48.4	-51.2	13.4	6.05e-01	0	28	0	2858418176	61	4852
2026-01-14 09:27:51.78	253.06	19.70	-48.4	-51.3	13.4	6.02e-01	0	28	0	2904555520	61	4886
2026-01-14 09:27:54.76	254.16	19.86	-48.6	-51.3	13.4	6.05e-01	0	28	0	2950692864	61	4905
2026-01-14 09:27:57.77	255.28	20.01	-48.7	-51.3	13.4	6.04e-01	0	28	0	2996830208	61	4881
2026-01-14 09:28:00.74	256.39	20.15	-48.3	-51.0	13.5	6.03e-01	0	28	0	3042967552	61	4712
2026-01-14 09:28:03.73	257.53	20.29	-48.3	-51.0	13.5	6.03e-01	0	28	0	3089104896	61	4753
2026-01-14 09:28:06.71	258.67	20.42	-48.4	-51.2	13.5	6.04e-01	0	28	0	3133145088	61	4838
2026-01-14 09:28:09.71	259.83	20.53	-48.5	-51.3	13.4	6.03e-01	0	28	0	3179282432	61	4874
2026-01-14 09:28:12.70	261.00	20.64	-48.6	-51.5	13.3	6.03e-01	0	28	0	3225419776	61	5012
2026-01-14 09:28:15.68	262.17	20.74	-48.6	-51.4	13.3	6.03e-01	0	28	0	3271557120	61	4941
2026-01-14 09:28:18.67	263.35	20.82	-48.8	-51.7	13.2	6.06e-01	0	28	0	3317694464	61	5115
2026-01-14 09:28:21.65	264.54	20.90	-48.6	-51.4	13.4	6.03e-01	0	28	0	3363831808	61	4936
2026-01-14 09:28:24.64	265.73	20.96	-48.4	-51.2	13.5	6.05e-01	0	28	0	3409969152	61	4849
2026-01-14 09:28:27.62	266.93	21.01	-48.5	-51.5	13.4	5.75e-01	0	28	0	3456106496	61	4994
2026-01-14 09:28:30.60	268.13	21.05	-48.6	-51.4	13.3	5.77e-01	0	28	0	3500146688	61	4980
2026-01-14 09:28:33.59	269.34	21.08	-49.0	-51.9	13.1	5.77e-01	0	28	0	3546284032	61	5246
2026-01-14 09:28:36.57	270.54	21.10	-50.5	-51.8	13.0	5.75e-01	0	28	0	3592421376	64	4349
2026-01-14 09:28:39.55	271.75	21.11	-60.6	-70.4	3.8	7.45e-01	0	28	104	3596615680	84	11712
2026-01-14 09:28:42.56	272.97	21.10	-60.7	-70.4	3.8	7.46e-01	0	28	104	3596615680	84	11773
2026-01-14 09:28:45.56	274.18	21.09	-60.6	-70.4	3.8	7.45e-01	0	28	104	3596615680	84	11687
2026-01-14 09:28:48.57	275.40	21.06	-60.7	-70.4	3.8	7.45e-01	0	28	104	3596615680	84	11770
2026-01-14 09:28:51.57	276.61	21.02	-60.8	-70.5	3.8	7.46e-01	0	28	104	3596615680	84	11893
2026-01-14 09:28:54.57	277.81	20.97	-60.8	-70.5	3.8	7.46e-01	0	28	104	3596615680	84	11870
2026-01-14 09:28:57.57	279.01	20.91	-60.7	-70.4	3.8	7.43e-01	0	28	104	3596615680	84	11787
2026-01-14 09:29:00.57	280.20	20.83	-60.7	-70.5	3.8	7.47e-01	0	28	104	3596615680	84	11829
2026-01-14 09:29:03.57	281.39	20.75	-60.7	-70.5	3.8	7.44e-01	0	28	104	3596615680	84	11852
2026-01-14 09:29:06.58	282.57	20.65	-60.8	-70.5	3.8	7.45e-01	0	28	104	3596615680	84	11891
2026-01-14 09:29:09.57	283.74	20.55	-60.7	-70.4	3.8	7.46e-01	0	28	104	3596615680	84	11790
2026-01-14 09:29:12.58	284.90	20.43	-60.8	-70.5	3.8	7.45e-01	0	28	104	3596615680	84	11871
2026-01-14 09:29:15.57	286.04	20.31	-60.8	-70.5	3.8	7.47e-01	0	28	104	3596615680	84	11938
2026-01-14 09:29:18.56	287.18	20.17	-60.8	-70.5	3.8	7.46e-01	0	28	104	3596615680	84	11947
2026-01-14 09:29:21.57	288.31	20.03	-60.8	-70.5	3.8	7.46e-01	0	28	104	3596615680	84	11884
2026-01-14 09:29:24.56	289.42	19.88	-60.8	-70.6	3.8	7.45e-01	0	28	104	3596615680	84	11976
2026-01-14 09:29:27.54	290.52	19.72	-60.8	-70.6	3.8	7.47e-01	0	28	104	3596615680	84	11989
2026-01-14 09:29:30.54	291.60	19.55	-60.8	-70.6	3.8	7.47e-01	0	28	104	3596615680	84	11967
2026-01-14 09:29:33.53	292.67	19.38	-60.8	-70.5	3.8	7.46e-01	0	28	104	3596615680	84	11918
2026-01-14 09:29:36.54	293.74	19.19	-60.8	-70.6	3.8	7.47e-01	0	28	104	3596615680	84	11962
2026-01-14 09:29:39.54	294.78	19.00	-60.8	-70.5	3.8	7.45e-01	0	28	104	3596615680	84	11941
2026-01-14 09:29:42.52	295.81	18.81	-60.8	-70.5	3.8	7.46e-01	0	28	104	3596615680	84	11912
2026-01-14 09:29:45.51	296.82	18.61	-60.8	-70.5	3.8	7.44e-01	0	28	104	3596615680	84	11906
2026-01-14 09:29:48.49	297.81	18.40	-60.8	-70.5	3.8	7.44e-01	0	28	104	3596615680	84	11865
2026-01-14 09:29:51.47	298.79	18.19	-60.8	-70.6	3.8	7.45e-01	0	28	104	3596615680	84	11985
2026-01-14 09:29:54.45	299.75	17.97	-60.7	-70.4	3.8	7.46e-01	0	28	104	3596615680	84	11810
2026-01-14 09:29:57.45	300.71	17.75	-60.7	-70.4	3.8	7.46e-01	0	28	104	3596615680	84	11734
2026-01-14 09:30:00.43	301.64	17.53	-60.7	-70.4	3.8	7.45e-01	0	28	104	3596615680	84	11779
2026-01-14 09:30:03.42	302.55	17.30	-60.7	-70.4	3.8	7.44e-01	0	28	104	3596615680	84	11814
2026-01-14 09:30:06.38	303.45	17.07	-60.6	-70.4	3.8	7.45e-01	0	28	104	3596615680	84	11692
2026-01-14 09:30:09.37	304.33	16.83	-60.6	-70.3	3.8	7.45e-01	0	28	104	3596615680	84	11636
2026-01-14 09:30:12.37	305.20	16.60	-60.6	-70.3	3.8	7.45e-01	0	28	104	3596615680	84	11659
2026-01-14 09:30:15.36	306.06	16.36	-60.6	-70.3	3.8	7.46e-01	0	28	104	3596615680	84	11680
2026-01-14 09:30:18.35	306.90	16.11	-60.6	-70.3	3.8	7.46e-01	0	28	104	3596615680	84	11554
2026-01-14 09:30:21.34	307.72	15.87	-60.5	-70.2	3.8	7.47e-01	0	28	104	3596615680	84	11539
2026-01-14 09:30:24.32	308.52	15.62	-60.5	-70.3	3.8	7.45e-01	0	28	104	3596615680	84	11588
2026-01-14 09:30:27.31	309.31	15.38	-60.5	-70.3	3.8	7.45e-01	0	28	104	3596615680	84	11590
2026-01-14 09:30:30.30	310.09	15.13	-60.5	-70.2	3.8	7.45e-01	0	28	104	3596615680	84	11464
2026-01-14 09:30:33.29	310.85	14.88	-60.5	-70.2	3.8	7.46e-01	0	28	104	3596615680	84	11465
2026-01-14 09:30:36.29	311.60	14.63	-60.5	-70.2	3.8	7.46e-01	0	28	104	3596615680	84	11456
2026-01-14 09:30:39.26	312.33	14.38	-60.5	-70.2	3.8	7.47e-01	0	28	104	3596615680	84	11520
2026-01-14 09:30:42.25	313.05	14.13	-60.4	-70.1	3.8	7.44e-01	0	28	104	3596615680	84	11407
2026-01-14 09:30:45.22	313.74	13.88	-60.3	-70.1	3.8	7.45e-01	0	28	104	3596615680	84	11326
2026-01-14 09:30:48.21	314.43	13.63	-60.4	-70.1	3.8	7.46e-01	0	28	104	3596615680	84	11337
2026-01-14 09:30:51.20	315.11	13.38	-60.4	-70.1	3.8	7.45e-01	0	28	104	3596615680	84	11355
2026-01-14 09:30:54.18	315.77	13.13	-60.3	-70.0	3.8	7.46e-01	0	28	104	3596615680	84	11266
2026-01-14 09:30:57.17	316.42	12.88	-60.3	-70.0	3.8	7.45e-01	0	28	104	3596615680	84	11254
2026-01-14 09:31:00.16	317.06	12.63	-60.3	-70.0	3.8	7.45e-01	0	28	104	3596615680	84	11228
2026-01-14 09:31:03.15	317.68	12.38	-60.3	-70.1	3.8	7.46e-01	0	28	104	3596615680	84	11346
2026-01-14 09:31:06.13	318.29	12.14	-60.2	-70.0	3.8	7.45e-01	0	28	104	3596615680	84	11206
2026-01-14 09:31:09.13	318.90	11.89	-60.2	-69.9	3.8	7.45e-01	0	28	104	3596615680	84	11144
2026-01-14 09:31:12.12	319.48	11.64	-60.2	-70.0	3.8	7.47e-01	0	28	104	3596615680	84	11193
2026-01-14 09:31:15.11	320.06	11.40	-60.3	-70.0	3.8	7.45e-01	0	28	104	3596615680	84	11201
2026-01-14 09:31:18.09	320.62	11.15	-60.2	-69.9	3.8	7.46e-01	0	28	104	3596615680	84	11063
2026-01-14 09:31:21.09	321.18	10.91	-60.1	-69.9	3.8	7.46e-01	0	28	104	3596615680	84	11059
2026-01-14 09:31:24.08	321.72	10.67	-60.1	-69.8	3.8	7.45e-01	0	28	104	3596615680	84	11020
2026-01-14 09:31:27.05	322.25	10.43	-60.2	-69.9	3.8	7.46e-01	0	28	104	3596615680	84	11100
2026-01-14 09:31:30.04	322.77	10.19	-60.0	-69.8	3.8	7.46e-01	0	28	104	3596615680	84	10934
2026-01-14 09:31:33.02	323.29	9.95	-60.1	-69.8	3.8	7.46e-01	0	28	104	3596615680	84	10985
2026-01-14 09:31:36.00	323.79	9.72	-60.0	-69.8	3.8	7.45e-01	0	28	104	3596615680	84	10915
2026-01-14 09:31:38.97	324.28	9.48	-60.1	-69.8	3.8	7.45e-01	0	28	104	3596615680	84	11007
2026-01-14 09:31:41.95	324.76	9.25	-60.0	-69.7	3.8	7.45e-01	0	28	104	3596615680	84	10819
2026-01-14 09:31:44.93	325.23	9.02	-60.0	-69.7	3.8	7.46e-01	0	28	104	3596615680	84	10831
2026-01-14 09:31:47.91	325.69	8.79	-59.9	-69.7	3.8	7.45e-01	0	28	104	3596615680	84	10782
2026-01-14 09:31:50.90	326.15	8.56	-60.0	-69.8	3.8	7.45e-01	0	28	104	3596615680	84	10912
2026-01-14 09:31:53.89	326.60	8.33	-59.9	-69.6	3.8	7.46e-01	0	28	104	3596615680	84	10684
2026-01-14 09:31:56.88	327.04	8.11	-59.9	-69.6	3.8	7.47e-01	0	28	104	3596615680	84	10764
2026-01-14 09:31:59.88	327.47	7.88	-59.8	-69.5	3.8	7.46e-01	0	28	104	3596615680	84	10641
2026-01-14 09:32:02.87	327.90	7.66	-59.9	-69.6	3.8	7.45e-01	0	28	104	3596615680	84	10748
2026-01-14 09:32:05.86	328.31	7.44	-59.8	-69.5	3.8	7.46e-01	0	28	104	3596615680	84	10629
2026-01-14 09:32:08.85	328.72	7.22	-59.8	-69.5	3.8	7.47e-01	0	28	104	3596615680	84	10610
2026-01-14 09:32:11.85	329.12	7.00	-59.7	-69.5	3.8	7.46e-01	0	28	104	3596615680	84	10544
2026-01-14 09:32:14.84	329.52	6.78	-59.8	-69.6	3.8	7.46e-01	0	28	104	3596615680	84	10662
2026-01-14 09:32:17.83	329.90	6.57	-59.5	-69.2	3.8	7.45e-01	0	28	104	3596615680	83	10829
2026-01-14 09:32:20.81	330.28	6.35	-59.5	-69.2	3.8	7.45e-01	0	28	104	3596615680	83	10903
2026-01-14 09:32:23.80	330.65	6.14	-59.5	-69.2	3.8	7.45e-01	0	28	104	3596615680	83	10855
2026-01-14 09:32:26.79	331.02	5.93	-59.5	-69.2	3.8	7.46e-01	0	28	104	3596615680	83	10895
2026-01-14 09:32:29.78	331.38	5.72	-59.3	-69.0	3.8	7.45e-01	0	28	104	3596615680	83	10655
2026-01-14 09:32:32.77	331.73	5.51	-59.4	-69.1	3.8	7.46e-01	0	28	104	3596615680	83	10767
2026-01-14 09:32:35.76	332.08	5.30	-59.3	-69.1	3.8	7.48e-01	0	28	104	3596615680	83	10668
2026-01-14 09:32:38.74	332.42	5.10	-59.4	-69.1	3.8	7.46e-01	0	28	104	3596615680	83	10776
2026-01-14 09:32:41.74	332.76	4.90	-59.9	-69.6	3.8	7.45e-01	0	28	104	3596615680	83	11335
2026-01-14 09:32:44.76	333.09	4.69	-60.8	-70.5	3.8	7.46e-01	0	28	104	3596615680	84	11919
2026-01-14 09:32:47.78	333.42	4.49	-61.2	-71.0	3.8	7.44e-01	0	28	104	3596615680	85	11849
2026-01-14 09:32:50.79	333.74	4.29	-61.4	-71.1	3.8	7.46e-01	0	28	104	3596615680	85	12076
2026-01-14 09:32:53.81	334.06	4.09	-61.6	-71.3	3.8	7.46e-01	0	28	104	3596615680	86	11643
2026-01-14 09:32:56.82	334.37	3.89	-61.5	-71.3	3.8	7.45e-01	0	28	104	3596615680	86	11604
2026-01-14 09:32:59.83	334.68	3.69	-61.7	-71.4	3.8	7.47e-01	0	28	104	3596615680	86	11741
2026-01-14 09:33:02.85	334.98	3.50	-61.7	-71.4	3.8	7.45e-01	0	28	104	3596615680	86	11761
2026-01-14 09:33:05.83	335.27	3.31	-61.6	-71.3	3.8	7.46e-01	0	28	104	3596615680	86	11670
2026-01-14 09:33:08.80	335.56	3.12	-61.5	-71.3	3.8	7.47e-01	0	28	104	3596615680	86	11569
2026-01-14 09:33:11.78	335.85	2.93	-61.5	-71.3	3.8	7.45e-01	0	28	104	3596615680	86	11570
2026-01-14 09:33:14.77	336.13	2.74	-61.5	-71.3	3.8	7.46e-01	0	28	104	3596615680	86	11577
2026-01-14 09:33:17.75	336.40	2.55	-61.5	-71.2	3.8	7.46e-01	0	28	104	3596615680	86	11521
2026-01-14 09:33:20.72	336.67	2.37	-61.5	-71.2	3.8	7.47e-01	0	28	104	3596615680	86	11486
2026-01-14 09:33:23.71	336.94	2.18	-61.5	-71.2	3.8	7.46e-01	0	28	104	3596615680	86	11470
2026-01-14 09:33:26.70	337.20	2.00	-61.4	-71.2	3.8	7.46e-01	0	28	104	3596615680	86	11480

#Closed at: 2026-01-14 09:33:27
#Recorded file [3596 MB]: D:/lorett/data/31004_260114_122355.dat