passes_logs/2026/01/14/R3.2S_Murmansk/R3.2S_Murmansk__20260114_200357_TY-39_rec.log

#Pass ID: 20260114_200357_TY-39
#Satellite: TY-39
#Configuration: TY-39
#almurnet v.1.7.20251203
#Start time: 2026-01-14 20:03:58

#Version: 2.2.20231116
#Station: R3.2S_Murmansk
#Location: 33.079688 lon 68.888172 lat
#TLE: 1 51832U 22019J   26014.62932459  .00002192  00000-0  10588-3 0  9995
#TLE: 2 51832  97.3653  81.3287 0010081  53.0551 307.1605 15.19638504214474

#Time	Az	El	Level	Level2	SNR	BER	BlckErr	Temp	State	Recorded	gain1	gain2
2026-01-14 20:03:58.69	210.22	2.06	-58.0	-61.2	3.6	0.00e+00	0	30	0	0	83	20156
2026-01-14 20:04:01.68	210.51	2.24	-58.0	-61.2	3.7	0.00e+00	0	30	104	0	83	20140
2026-01-14 20:04:04.67	210.79	2.43	-58.0	-61.3	3.7	0.00e+00	0	30	104	0	83	20225
2026-01-14 20:04:07.66	211.08	2.61	-58.0	-61.3	3.7	0.00e+00	0	30	104	0	83	20190
2026-01-14 20:04:10.65	211.38	2.80	-58.0	-61.3	3.7	0.00e+00	0	31	104	0	83	20290
2026-01-14 20:04:13.63	211.68	2.98	-58.0	-61.3	3.7	0.00e+00	0	31	104	0	83	20205
2026-01-14 20:04:16.64	211.98	3.17	-58.0	-61.3	3.7	0.00e+00	0	31	104	0	83	20245
2026-01-14 20:04:19.63	212.29	3.36	-58.0	-61.3	3.6	0.00e+00	0	31	104	0	83	20296
2026-01-14 20:04:22.64	212.61	3.55	-58.0	-61.3	3.6	0.00e+00	0	31	104	0	83	20185
2026-01-14 20:04:25.64	212.93	3.75	-58.0	-61.3	3.7	0.00e+00	0	31	104	0	83	20208
2026-01-14 20:04:28.62	213.25	3.94	-58.1	-61.3	3.6	0.00e+00	0	31	104	0	83	20309
2026-01-14 20:04:31.62	213.59	4.13	-58.1	-61.3	3.6	0.00e+00	0	31	104	0	83	20306
2026-01-14 20:04:34.61	213.92	4.33	-58.1	-61.3	3.7	0.00e+00	0	31	104	0	83	20280
2026-01-14 20:04:37.60	214.26	4.52	-58.1	-61.3	3.6	0.00e+00	0	31	104	0	83	20275
2026-01-14 20:04:40.59	214.61	4.72	-58.1	-61.3	3.7	0.00e+00	0	31	104	0	83	20301
2026-01-14 20:04:43.59	214.96	4.92	-58.1	-61.3	3.6	0.00e+00	0	31	104	0	83	20351
2026-01-14 20:04:46.58	215.32	5.12	-58.1	-61.3	3.7	0.00e+00	0	31	104	0	83	20366
2026-01-14 20:04:49.57	215.68	5.32	-58.2	-61.4	3.7	0.00e+00	0	31	104	0	83	20501
2026-01-14 20:04:52.56	216.05	5.53	-58.3	-61.5	3.7	0.00e+00	0	31	104	0	83	20709
2026-01-14 20:04:55.56	216.43	5.73	-58.2	-61.4	3.6	0.00e+00	0	31	104	0	83	20617
2026-01-14 20:04:58.55	216.82	5.94	-58.2	-61.4	3.7	0.00e+00	0	31	104	0	83	20536
2026-01-14 20:05:01.54	217.21	6.14	-58.3	-61.5	3.7	0.00e+00	0	32	104	0	83	20734
2026-01-14 20:05:04.54	217.60	6.35	-58.3	-61.5	3.6	0.00e+00	0	32	104	0	83	20859
2026-01-14 20:05:07.54	218.01	6.56	-48.0	-48.4	8.7	0.00e+00	0	32	104	0	63	14480
2026-01-14 20:05:10.51	218.42	6.77	-44.8	-45.2	11.3	1.38e-05	0	32	0	209715200	56	15000
2026-01-14 20:05:13.48	218.83	6.98	-44.7	-45.0	11.4	0.00e+00	0	33	0	427819008	56	14762
2026-01-14 20:05:16.47	219.26	7.19	-44.7	-45.1	11.4	0.00e+00	0	33	0	654311424	56	14782
2026-01-14 20:05:19.44	219.69	7.40	-44.7	-45.1	11.4	1.38e-05	0	33	0	880803840	56	14834
2026-01-14 20:05:22.43	220.13	7.62	-44.5	-44.8	11.5	0.00e+00	0	32	0	1098907648	56	14412
2026-01-14 20:05:25.42	220.58	7.83	-44.4	-44.7	11.7	0.00e+00	0	33	0	1325400064	56	14235
2026-01-14 20:05:28.42	221.04	8.05	-44.5	-44.8	11.7	0.00e+00	0	33	0	1551892480	56	14335
2026-01-14 20:05:31.41	221.50	8.27	-44.4	-44.8	11.6	0.00e+00	0	33	0	1778384896	55	15139
2026-01-14 20:05:34.39	221.97	8.49	-44.4	-44.7	11.6	0.00e+00	0	33	0	2004877312	55	15114
2026-01-14 20:05:37.37	222.45	8.71	-44.2	-44.5	11.7	0.00e+00	0	33	0	2222981120	55	14771
2026-01-14 20:05:40.37	222.95	8.93	-44.3	-44.6	11.7	0.00e+00	0	33	0	2449473536	55	14888
2026-01-14 20:05:43.36	223.45	9.15	-44.2	-44.5	11.8	0.00e+00	0	33	0	2675965952	55	14663
2026-01-14 20:05:46.35	223.96	9.38	-44.1	-44.4	11.8	0.00e+00	0	33	0	2894069760	55	14528
2026-01-14 20:05:49.34	224.48	9.60	-44.1	-44.4	11.8	0.00e+00	0	33	0	3120562176	55	14510
2026-01-14 20:05:52.32	225.00	9.83	-43.8	-44.1	11.9	0.00e+00	0	33	0	3347054592	54	14924
2026-01-14 20:05:55.30	225.54	10.05	-43.7	-44.0	11.9	6.90e-06	0	33	0	3565158400	54	14761
2026-01-14 20:05:58.28	226.09	10.28	-43.7	-44.0	12.0	0.00e+00	0	33	0	3791650816	54	14699
2026-01-14 20:06:01.28	226.65	10.51	-43.7	-44.0	11.9	0.00e+00	0	33	0	4018143232	54	14712
2026-01-14 20:06:04.26	227.21	10.74	-43.5	-43.8	12.1	0.00e+00	0	34	0	4236247040	54	14283
2026-01-14 20:06:07.24	227.79	10.97	-43.4	-43.7	12.1	0.00e+00	0	34	0	4462739456	54	14243
2026-01-14 20:06:10.23	228.38	11.20	-43.3	-43.6	12.0	0.00e+00	0	34	0	4689231872	53	14940
2026-01-14 20:06:13.23	228.99	11.43	-43.3	-43.7	12.0	0.00e+00	0	34	0	4907335680	53	14961
2026-01-14 20:06:16.20	229.60	11.66	-43.1	-43.4	12.1	0.00e+00	0	34	0	5133828096	53	14583
2026-01-14 20:06:19.18	230.22	11.89	-43.1	-43.4	12.2	0.00e+00	0	34	0	5360320512	53	14549
2026-01-14 20:06:22.17	230.85	12.12	-43.0	-43.3	12.2	0.00e+00	0	34	0	5586812928	53	14341
2026-01-14 20:06:25.15	231.50	12.35	-43.0	-43.3	12.2	0.00e+00	0	34	0	5804916736	53	14365
2026-01-14 20:06:28.14	232.16	12.58	-42.9	-43.2	12.3	0.00e+00	0	34	0	6031409152	53	14169
2026-01-14 20:06:31.13	232.83	12.81	-42.9	-43.2	12.3	0.00e+00	0	34	0	6257901568	53	14147
2026-01-14 20:06:34.11	233.52	13.04	-42.9	-43.2	12.2	0.00e+00	0	34	0	6476005376	52	14992
2026-01-14 20:06:37.10	234.21	13.28	-42.7	-43.0	12.3	0.00e+00	0	34	0	6702497792	52	14738
2026-01-14 20:06:40.08	234.92	13.50	-42.7	-43.0	12.3	0.00e+00	0	34	0	6928990208	52	14627
2026-01-14 20:06:43.06	235.64	13.73	-42.6	-42.9	12.4	0.00e+00	0	34	0	7147094016	52	14490
2026-01-14 20:06:46.04	236.38	13.96	-42.5	-42.8	12.4	0.00e+00	0	34	0	7373586432	52	14308
2026-01-14 20:06:49.03	237.12	14.19	-42.5	-42.7	12.4	0.00e+00	0	34	0	7600078848	52	14252
2026-01-14 20:06:52.01	237.89	14.41	-42.4	-42.7	12.3	0.00e+00	0	34	0	7818182656	51	15042
2026-01-14 20:06:54.99	238.66	14.64	-42.3	-42.6	12.4	0.00e+00	0	34	0	8044675072	51	14852
2026-01-14 20:06:57.98	239.45	14.86	-42.3	-42.6	12.4	0.00e+00	0	34	0	8271167488	51	14848
2026-01-14 20:07:00.97	240.25	15.08	-42.2	-42.5	12.5	0.00e+00	0	34	0	8489271296	51	14629
2026-01-14 20:07:03.95	241.07	15.30	-42.3	-42.5	12.5	0.00e+00	0	34	0	8715763712	51	14752
2026-01-14 20:07:06.95	241.90	15.52	-42.2	-42.5	12.5	0.00e+00	0	34	0	8942256128	51	14612
2026-01-14 20:07:09.92	242.74	15.73	-42.1	-42.4	12.5	0.00e+00	0	34	0	9160359936	51	14500
2026-01-14 20:07:12.89	243.59	15.94	-42.1	-42.4	12.5	0.00e+00	0	34	0	9386852352	51	14570
2026-01-14 20:07:15.88	244.47	16.15	-42.0	-42.3	12.6	0.00e+00	0	34	0	9613344768	51	14391
2026-01-14 20:07:18.87	245.35	16.35	-42.0	-42.2	12.6	0.00e+00	0	34	0	9831448576	51	14260
2026-01-14 20:07:21.86	246.25	16.55	-41.9	-42.2	12.5	0.00e+00	0	34	0	10057940992	50	15033
2026-01-14 20:07:24.86	247.17	16.75	-42.0	-42.3	12.5	0.00e+00	0	34	0	10284433408	50	15159
2026-01-14 20:07:27.85	248.10	16.94	-41.8	-42.1	12.6	0.00e+00	0	34	0	10510925824	50	14871
2026-01-14 20:07:30.84	249.04	17.13	-41.7	-41.9	12.6	0.00e+00	0	34	0	10729029632	50	14554
2026-01-14 20:07:33.82	249.99	17.31	-41.7	-41.9	12.6	0.00e+00	0	34	0	10955522048	50	14601
2026-01-14 20:07:36.81	250.96	17.49	-41.7	-42.0	12.6	0.00e+00	0	34	0	11182014464	50	14611
2026-01-14 20:07:39.80	251.94	17.66	-41.6	-41.9	12.7	0.00e+00	0	34	0	11408506880	50	14499
2026-01-14 20:07:42.79	252.93	17.82	-41.6	-41.9	12.7	0.00e+00	0	34	0	11634999296	50	14449
2026-01-14 20:07:45.79	253.94	17.98	-41.5	-41.8	12.7	0.00e+00	0	34	0	11853103104	50	14395
2026-01-14 20:07:48.76	254.95	18.14	-41.5	-41.7	12.8	0.00e+00	0	34	0	12079595520	50	14254
2026-01-14 20:07:51.75	255.98	18.28	-41.5	-41.7	12.7	0.00e+00	0	34	0	12306087936	50	14259
2026-01-14 20:07:54.73	257.01	18.42	-41.5	-41.7	12.7	0.00e+00	0	34	0	12524191744	50	14235
2026-01-14 20:07:57.73	258.07	18.55	-41.3	-41.6	12.7	0.00e+00	0	35	0	12750684160	49	14892
2026-01-14 20:08:00.71	259.12	18.68	-41.3	-41.5	12.7	0.00e+00	0	34	0	12977176576	49	14753
2026-01-14 20:08:03.70	260.19	18.80	-41.3	-41.5	12.7	0.00e+00	0	35	0	13195280384	49	14743
2026-01-14 20:08:06.68	261.26	18.90	-41.3	-41.6	12.7	0.00e+00	0	35	0	13421772800	49	14902
2026-01-14 20:08:09.68	262.35	19.00	-41.3	-41.6	12.7	0.00e+00	0	35	0	13648265216	49	14880
2026-01-14 20:08:12.66	263.44	19.09	-41.2	-41.5	12.7	0.00e+00	0	35	0	13866369024	49	14642
2026-01-14 20:08:15.64	264.54	19.18	-41.2	-41.4	12.7	0.00e+00	0	34	0	14092861440	49	14599
2026-01-14 20:08:18.63	265.65	19.25	-41.2	-41.5	12.7	0.00e+00	0	34	0	14319353856	49	14614
2026-01-14 20:08:21.62	266.76	19.31	-41.2	-41.5	12.8	0.00e+00	0	34	0	14537457664	49	14641
2026-01-14 20:08:24.61	267.88	19.37	-41.2	-41.5	12.7	0.00e+00	0	34	0	14763950080	49	14714
2026-01-14 20:08:27.60	269.00	19.41	-41.2	-41.4	12.8	0.00e+00	0	34	0	14990442496	49	14606
2026-01-14 20:08:30.59	270.12	19.45	-41.2	-41.5	12.7	0.00e+00	0	34	0	15208546304	49	14667
2026-01-14 20:08:33.57	271.24	19.47	-41.2	-41.4	12.7	0.00e+00	0	34	0	15435038720	49	14601
2026-01-14 20:08:36.56	272.37	19.49	-41.3	-41.6	12.7	0.00e+00	0	34	0	15661531136	49	14800
2026-01-14 20:08:39.54	273.50	19.50	-41.3	-41.5	12.7	0.00e+00	0	35	0	15888023552	49	14765
2026-01-14 20:08:42.53	274.63	19.49	-41.3	-41.6	12.7	0.00e+00	0	35	0	16106127360	49	14780
2026-01-14 20:08:45.52	275.75	19.48	-41.4	-41.6	12.7	0.00e+00	0	35	0	16332619776	49	14928
2026-01-14 20:08:48.50	276.88	19.46	-41.4	-41.6	12.7	0.00e+00	0	34	0	16559112192	49	14915
2026-01-14 20:08:51.49	278.00	19.42	-41.5	-41.8	12.6	0.00e+00	0	34	0	16785604608	49	15148
2026-01-14 20:08:54.48	279.12	19.38	-41.4	-41.7	12.7	0.00e+00	0	34	0	17003708416	49	14967
2026-01-14 20:08:57.47	280.24	19.33	-41.3	-41.5	12.7	0.00e+00	0	35	0	17230200832	49	14771
2026-01-14 20:09:00.46	281.35	19.26	-41.4	-41.6	12.7	0.00e+00	0	35	0	17456693248	49	14938
2026-01-14 20:09:03.46	282.46	19.19	-41.4	-41.6	12.7	0.00e+00	0	34	0	17683185664	49	14935
2026-01-14 20:09:06.45	283.56	19.11	-41.4	-41.7	12.7	0.00e+00	0	34	0	17901289472	49	14951
2026-01-14 20:09:09.45	284.65	19.02	-41.4	-41.7	12.6	0.00e+00	0	35	0	18127781888	49	15063
2026-01-14 20:09:12.46	285.75	18.92	-41.4	-41.7	12.7	0.00e+00	0	35	0	18354274304	49	15043
2026-01-14 20:09:15.46	286.83	18.82	-41.6	-41.8	12.6	0.00e+00	0	34	0	18580766720	49	15258
2026-01-14 20:09:18.45	287.89	18.70	-41.6	-41.9	12.6	0.00e+00	0	35	0	18807259136	49	15352
2026-01-14 20:09:21.44	288.95	18.58	-41.7	-42.0	12.6	0.00e+00	0	35	0	19033751552	49	15563
2026-01-14 20:09:24.43	290.00	18.45	-41.6	-41.8	12.7	0.00e+00	0	34	0	19251855360	49	15271
2026-01-14 20:09:27.42	291.04	18.31	-41.7	-42.0	12.6	0.00e+00	0	35	0	19478347776	49	15508
2026-01-14 20:09:30.42	292.07	18.17	-41.7	-42.0	12.6	0.00e+00	0	35	0	19704840192	49	15564
2026-01-14 20:09:33.41	293.08	18.02	-41.7	-42.0	12.6	0.00e+00	0	35	0	19922944000	49	15620
2026-01-14 20:09:36.41	294.09	17.86	-41.8	-42.1	12.6	0.00e+00	0	35	0	20149436416	49	15730
2026-01-14 20:09:39.40	295.08	17.69	-41.8	-42.1	12.6	0.00e+00	0	35	0	20375928832	49	15694
2026-01-14 20:09:42.40	296.06	17.52	-41.8	-42.1	12.6	0.00e+00	0	35	0	20602421248	49	15740
2026-01-14 20:09:45.39	297.02	17.35	-41.9	-42.2	12.5	0.00e+00	0	35	0	20828913664	49	15957
2026-01-14 20:09:48.38	297.97	17.17	-41.9	-42.2	12.6	0.00e+00	0	35	0	21047017472	49	15926
2026-01-14 20:09:51.37	298.91	16.98	-42.1	-42.4	12.5	0.00e+00	0	35	0	21273509888	49	16242
2026-01-14 20:09:54.37	299.84	16.79	-42.0	-42.3	12.5	0.00e+00	0	35	0	21500002304	49	16140
2026-01-14 20:09:57.36	300.75	16.60	-42.1	-42.4	12.6	0.00e+00	0	35	0	21726494720	50	15402
2026-01-14 20:10:00.35	301.65	16.40	-42.2	-42.5	12.5	0.00e+00	0	35	0	21944598528	50	15591
2026-01-14 20:10:03.35	302.54	16.20	-42.2	-42.4	12.5	0.00e+00	0	35	0	22171090944	50	15464
2026-01-14 20:10:06.35	303.41	15.99	-42.3	-42.6	12.5	0.00e+00	0	35	0	22397583360	50	15671
2026-01-14 20:10:09.35	304.27	15.78	-42.3	-42.6	12.5	0.00e+00	0	35	0	22624075776	50	15788
2026-01-14 20:10:12.34	305.11	15.57	-42.4	-42.7	12.5	0.00e+00	0	35	0	22842179584	50	15891
2026-01-14 20:10:15.32	305.94	15.35	-42.5	-42.8	12.4	0.00e+00	0	35	0	23068672000	50	16179
2026-01-14 20:10:18.31	306.76	15.14	-42.6	-42.9	12.5	0.00e+00	0	35	0	23295164416	51	15338
2026-01-14 20:10:21.30	307.56	14.92	-42.6	-42.8	12.5	0.00e+00	0	35	0	23521656832	51	15271
2026-01-14 20:10:24.28	308.34	14.70	-42.7	-43.0	12.4	0.00e+00	0	35	0	23739760640	51	15558
2026-01-14 20:10:27.28	309.12	14.48	-42.9	-43.1	12.4	0.00e+00	0	35	0	23966253056	51	15803
2026-01-14 20:10:30.27	309.88	14.25	-42.9	-43.2	12.3	0.00e+00	0	35	0	24192745472	51	15945
2026-01-14 20:10:33.27	310.63	14.03	-42.9	-43.2	12.3	0.00e+00	0	35	0	24410849280	51	15998
2026-01-14 20:10:36.24	311.36	13.80	-42.9	-43.2	12.3	0.00e+00	0	35	0	24637341696	51	15968
2026-01-14 20:10:39.23	312.08	13.57	-43.0	-43.3	12.3	0.00e+00	0	35	0	24863834112	51	16100
2026-01-14 20:10:42.22	312.79	13.35	-43.3	-43.6	12.2	0.00e+00	0	35	0	25090326528	52	15670
2026-01-14 20:10:45.21	313.48	13.12	-43.2	-43.5	12.3	0.00e+00	0	35	0	25308430336	52	15494
2026-01-14 20:10:48.21	314.17	12.89	-43.1	-43.4	12.3	0.00e+00	0	35	0	25534922752	52	15421
2026-01-14 20:10:51.21	314.84	12.66	-43.2	-43.5	12.2	0.00e+00	0	35	0	25761415168	52	15533
2026-01-14 20:10:54.19	315.49	12.43	-43.3	-43.6	12.2	0.00e+00	0	35	0	25987907584	52	15830
2026-01-14 20:10:57.18	316.14	12.20	-43.3	-43.6	12.2	0.00e+00	0	35	0	26206011392	52	15791
2026-01-14 20:11:00.17	316.77	11.97	-43.4	-43.7	12.2	0.00e+00	0	35	0	26432503808	52	15896
2026-01-14 20:11:03.16	317.40	11.74	-43.5	-43.8	12.1	0.00e+00	0	35	0	26658996224	52	16090
2026-01-14 20:11:06.15	318.01	11.51	-43.5	-43.9	12.2	0.00e+00	0	35	0	26885488640	53	15311
2026-01-14 20:11:09.14	318.61	11.28	-43.7	-44.0	12.1	0.00e+00	0	35	0	27103592448	53	15561
2026-01-14 20:11:12.14	319.20	11.05	-43.7	-44.0	12.1	0.00e+00	0	35	0	27330084864	53	15536
2026-01-14 20:11:15.13	319.78	10.83	-43.8	-44.1	12.0	0.00e+00	0	35	0	27556577280	53	15796
2026-01-14 20:11:18.11	320.34	10.60	-44.0	-44.3	12.0	0.00e+00	0	35	0	27774681088	53	16134
2026-01-14 20:11:21.10	320.90	10.37	-43.9	-44.3	11.9	0.00e+00	0	35	0	28001173504	53	16037
2026-01-14 20:11:24.08	321.44	10.15	-44.1	-44.4	11.9	0.00e+00	0	35	0	28227665920	53	16335
2026-01-14 20:11:27.07	321.98	9.92	-44.0	-44.4	11.9	0.00e+00	0	35	0	28445769728	53	16210
2026-01-14 20:11:30.06	322.51	9.70	-44.2	-44.6	11.9	0.00e+00	0	35	0	28672262144	54	15688
2026-01-14 20:11:33.06	323.03	9.48	-44.3	-44.6	11.8	0.00e+00	0	35	0	28898754560	54	15722
2026-01-14 20:11:36.06	323.54	9.25	-44.4	-44.7	11.8	0.00e+00	0	35	0	29125246976	54	15903
2026-01-14 20:11:39.05	324.04	9.03	-44.5	-44.9	11.8	6.90e-06	0	35	0	29351739392	55	15305
2026-01-14 20:11:42.04	324.53	8.81	-44.5	-44.9	11.8	0.00e+00	0	35	0	29578231808	55	15317
2026-01-14 20:11:45.03	325.01	8.59	-44.5	-44.8	11.8	0.00e+00	0	35	0	29796335616	55	15221
2026-01-14 20:11:48.02	325.48	8.38	-44.6	-45.0	11.7	0.00e+00	0	35	0	30022828032	55	15478
2026-01-14 20:11:51.03	325.95	8.16	-44.9	-45.3	11.5	0.00e+00	0	35	0	30249320448	55	16019
2026-01-14 20:11:54.04	326.41	7.94	-44.8	-45.2	11.6	0.00e+00	0	35	0	30467424256	55	15848
2026-01-14 20:11:57.02	326.85	7.73	-45.0	-45.3	11.5	0.00e+00	0	35	0	30693916672	55	16181
2026-01-14 20:12:00.01	327.29	7.51	-44.9	-45.2	11.5	6.90e-06	0	35	0	30920409088	55	15893
2026-01-14 20:12:02.99	327.72	7.30	-45.0	-45.3	11.4	1.38e-05	0	35	0	31146901504	55	16185
2026-01-14 20:12:05.99	328.15	7.09	-45.2	-45.5	11.4	0.00e+00	0	35	0	31373393920	56	15628
2026-01-14 20:12:08.98	328.57	6.88	-45.2	-45.5	11.4	1.38e-05	0	35	0	31591497728	56	15582
2026-01-14 20:12:11.97	328.98	6.67	-45.3	-45.6	11.4	1.38e-05	0	35	0	31817990144	56	15749
2026-01-14 20:12:14.95	329.38	6.47	-45.2	-45.6	11.4	2.08e-05	0	35	0	32044482560	56	15710
2026-01-14 20:12:17.94	329.77	6.26	-45.5	-45.9	11.2	1.38e-05	0	35	0	32270974976	56	16204
2026-01-14 20:12:20.92	330.16	6.06	-45.6	-46.0	11.2	0.00e+00	0	35	0	32489078784	57	15492
2026-01-14 20:12:23.91	330.55	5.85	-45.5	-45.8	11.3	1.38e-05	0	35	0	32715571200	57	15215
2026-01-14 20:12:26.91	330.92	5.65	-45.8	-46.1	11.1	3.46e-05	0	35	0	32942063616	57	15743
2026-01-14 20:12:29.90	331.29	5.45	-45.7	-46.1	11.1	0.00e+00	0	35	0	33160167424	57	15664
2026-01-14 20:12:32.90	331.66	5.25	-45.7	-46.0	11.1	2.08e-05	0	35	0	33386659840	57	15592
2026-01-14 20:12:35.88	332.02	5.05	-46.2	-46.6	10.8	4.85e-05	0	35	0	33613152256	58	15693
2026-01-14 20:12:38.88	332.37	4.85	-59.5	-62.7	3.7	8.56e-02	0	35	104	33688649728	84	22462
2026-01-14 20:12:41.87	332.72	4.66	-60.0	-63.2	3.7	8.56e-02	0	34	104	33688649728	85	22545
2026-01-14 20:12:44.87	333.06	4.46	-60.3	-63.5	3.7	8.56e-02	0	34	104	33688649728	86	22039
2026-01-14 20:12:47.86	333.39	4.27	-60.4	-63.6	3.7	8.56e-02	0	34	104	33688649728	86	22341
2026-01-14 20:12:50.86	333.72	4.07	-60.5	-63.7	3.7	8.56e-02	0	34	104	33688649728	86	22484
2026-01-14 20:12:53.85	334.05	3.88	-60.4	-63.7	3.7	8.56e-02	0	34	104	33688649728	86	22401
2026-01-14 20:12:56.84	334.37	3.69	-60.4	-63.6	3.7	8.56e-02	0	34	104	33688649728	86	22306
2026-01-14 20:12:59.82	334.68	3.50	-60.3	-63.5	3.7	8.56e-02	0	34	104	33688649728	86	22008
2026-01-14 20:13:02.83	334.99	3.32	-60.2	-63.5	3.7	8.56e-02	0	34	104	33688649728	86	21899
2026-01-14 20:13:05.83	335.30	3.13	-60.2	-63.4	3.7	8.56e-02	0	34	104	33688649728	86	21700
2026-01-14 20:13:08.82	335.60	2.94	-60.1	-63.3	3.7	4.48e-02	0	34	104	33688649728	86	21447
2026-01-14 20:13:11.80	335.90	2.76	-60.0	-63.3	3.7	4.48e-02	0	34	104	33688649728	86	21482
2026-01-14 20:13:14.79	336.19	2.58	-60.0	-63.3	3.7	4.48e-02	0	34	104	33688649728	86	21417
2026-01-14 20:13:17.77	336.47	2.39	-60.0	-63.2	3.7	4.48e-02	0	34	104	33688649728	86	21327
2026-01-14 20:13:20.75	336.75	2.21	-60.0	-63.2	3.7	4.48e-02	0	34	104	33688649728	86	21226
2026-01-14 20:13:23.74	337.03	2.03	-60.0	-63.2	3.7	4.48e-02	0	34	104	33688649728	86	21205

#Closed at: 2026-01-14 20:13:24
#Recorded file [33688 MB]: D:/lorett/data/31004_260114_230358.dat