passes_logs/2026/01/14/R3.2S_Murmansk/R3.2S_Murmansk__20260114_054936_FENGYUN_3D_rec.log

#Pass ID: 20260114_054936_FENGYUN 3D
#Satellite: FENGYUN 3D
#Configuration: FENGYUN 3D
#almurnet v.1.7.20251203
#Start time: 2026-01-14 05:49:36

#Version: 2.2.20231116
#Station: R3.2S_Murmansk
#Location: 33.079688 lon 68.888172 lat
#TLE: 1 43010U 17072A   26013.59402220  .00000029  00000+0  35477-4 0  9991
#TLE: 2 43010  98.9934 345.3884 0002280 110.7757 249.3663 14.19695359423056

#Time	Az	El	Level	Level2	SNR	BER	BlckErr	Temp	State	Recorded	gain1	gain2
2026-01-14 05:49:36.41	45.21	1.99	-54.4	-67.4	3.8	8.46e-01	0	25	0	0	73	17493
2026-01-14 05:49:39.43	45.05	2.17	-54.4	-67.4	3.8	8.45e-01	0	25	104	0	73	17549
2026-01-14 05:49:42.45	44.88	2.34	-54.4	-67.4	3.8	8.46e-01	0	25	104	0	73	17552
2026-01-14 05:49:45.47	44.70	2.52	-54.4	-67.4	3.8	8.46e-01	0	26	104	0	73	17641
2026-01-14 05:49:48.50	44.53	2.70	-54.4	-67.4	3.8	8.44e-01	0	26	104	0	73	17643
2026-01-14 05:49:51.53	44.35	2.88	-54.4	-67.4	3.8	8.45e-01	0	26	104	0	73	17588
2026-01-14 05:49:54.56	44.17	3.07	-54.4	-67.4	3.8	8.45e-01	0	26	104	0	73	17599
2026-01-14 05:49:57.59	43.99	3.25	-54.5	-67.5	3.8	8.44e-01	0	26	104	0	74	16732
2026-01-14 05:50:00.61	43.80	3.43	-54.5	-67.5	3.8	8.46e-01	0	26	104	0	74	16710
2026-01-14 05:50:03.64	43.62	3.62	-54.5	-67.5	3.8	8.45e-01	0	26	104	0	74	16696
2026-01-14 05:50:06.66	43.43	3.80	-54.5	-67.5	3.8	8.45e-01	0	26	104	0	74	16736
2026-01-14 05:50:09.69	43.23	3.99	-54.5	-67.5	3.8	8.45e-01	0	26	104	0	74	16757
2026-01-14 05:50:12.71	43.04	4.17	-54.5	-67.5	3.8	8.46e-01	0	26	104	0	74	16732
2026-01-14 05:50:15.74	42.84	4.36	-54.5	-67.5	3.8	8.45e-01	0	26	104	0	74	16764
2026-01-14 05:50:18.77	42.64	4.55	-54.5	-67.5	3.8	8.44e-01	0	26	104	0	74	16701
2026-01-14 05:50:21.79	42.44	4.74	-54.5	-67.5	3.8	8.45e-01	0	26	104	0	74	16769
2026-01-14 05:50:24.82	42.23	4.93	-54.5	-67.5	3.8	8.46e-01	0	26	104	0	74	16740
2026-01-14 05:50:27.85	42.02	5.12	-54.5	-67.5	3.8	8.46e-01	0	26	104	0	74	16810
2026-01-14 05:50:30.87	41.81	5.32	-54.5	-67.5	3.8	8.46e-01	0	26	104	0	74	16738
2026-01-14 05:50:33.89	41.60	5.51	-54.5	-67.5	3.8	8.46e-01	0	26	104	0	74	16825
2026-01-14 05:50:36.91	41.38	5.71	-54.5	-67.5	3.8	8.45e-01	0	27	104	0	74	16814
2026-01-14 05:50:39.94	41.16	5.90	-54.5	-67.5	3.8	8.47e-01	0	27	104	0	74	16771
2026-01-14 05:50:42.97	40.93	6.10	-54.5	-67.5	3.8	8.46e-01	0	27	104	0	74	16822
2026-01-14 05:50:46.00	40.71	6.30	-54.5	-67.5	3.8	8.45e-01	0	26	104	0	74	16792
2026-01-14 05:50:48.74	40.50	6.48	-54.5	-67.5	3.8	8.45e-01	0	27	104	0	74	16788
2026-01-14 05:50:52.05	40.24	6.70	-54.5	-67.5	3.8	8.46e-01	0	27	104	0	74	16810
2026-01-14 05:50:54.79	40.03	6.88	-54.5	-67.5	3.8	8.45e-01	0	27	104	0	74	16807
2026-01-14 05:50:58.10	39.77	7.10	-54.5	-67.5	3.8	8.47e-01	0	27	104	0	74	16832
2026-01-14 05:51:00.84	39.54	7.29	-54.5	-67.5	3.8	8.46e-01	0	27	104	0	74	16799
2026-01-14 05:51:04.16	39.27	7.51	-54.5	-67.5	3.8	8.45e-01	0	27	104	0	74	16799
2026-01-14 05:51:06.89	39.05	7.70	-54.5	-67.5	3.8	8.46e-01	0	27	104	0	74	16780
2026-01-14 05:51:10.21	38.77	7.93	-54.5	-67.5	3.8	8.45e-01	0	27	104	0	74	16826
2026-01-14 05:51:12.95	38.53	8.11	-54.5	-67.5	3.8	8.46e-01	0	27	104	0	74	16851
2026-01-14 05:51:16.26	38.24	8.34	-54.5	-67.5	3.8	8.45e-01	0	27	104	0	74	16825
2026-01-14 05:51:18.99	38.00	8.53	-54.5	-67.5	3.8	8.45e-01	0	27	104	0	74	16848
2026-01-14 05:51:22.31	37.71	8.77	-54.5	-67.5	3.8	8.46e-01	0	27	104	0	74	16842
2026-01-14 05:51:25.05	37.46	8.96	-54.5	-67.6	3.8	8.46e-01	0	27	104	0	74	16907
2026-01-14 05:51:28.36	37.15	9.19	-54.5	-67.6	3.8	8.45e-01	0	27	104	0	74	16915
2026-01-14 05:51:31.09	36.90	9.39	-54.5	-67.5	3.8	8.46e-01	0	27	104	0	74	16840
2026-01-14 05:51:34.41	36.58	9.62	-54.5	-67.5	3.8	8.45e-01	0	27	104	0	74	16861
2026-01-14 05:51:37.15	36.32	9.82	-54.5	-67.5	3.8	8.45e-01	0	27	104	0	74	16839
2026-01-14 05:51:40.46	35.99	10.06	-54.5	-67.5	3.8	8.45e-01	0	27	104	0	74	16858
2026-01-14 05:51:43.20	35.72	10.26	-54.5	-67.5	3.8	8.46e-01	0	27	104	0	74	16853
2026-01-14 05:51:46.51	35.38	10.50	-54.5	-67.5	3.8	8.46e-01	0	27	104	0	74	16877
2026-01-14 05:51:49.24	35.10	10.70	-54.5	-67.5	3.8	8.45e-01	0	27	104	0	74	16879
2026-01-14 05:51:52.56	34.76	10.95	-54.5	-67.5	3.8	8.45e-01	0	27	104	0	74	16880
2026-01-14 05:51:55.29	34.47	11.15	-54.5	-67.6	3.8	8.45e-01	0	27	104	0	74	16906
2026-01-14 05:51:58.60	34.11	11.40	-54.5	-67.6	3.8	8.46e-01	0	27	104	0	74	16889
2026-01-14 05:52:01.34	33.81	11.60	-54.5	-67.5	3.8	8.45e-01	0	27	104	0	74	16863
2026-01-14 05:52:04.65	33.44	11.85	-54.5	-67.5	3.8	8.45e-01	0	27	104	0	74	16853
2026-01-14 05:52:07.40	33.13	12.06	-54.5	-67.6	3.8	8.45e-01	0	27	104	0	74	16912
2026-01-14 05:52:10.70	32.75	12.31	-54.6	-67.5	3.8	8.46e-01	0	27	104	0	74	16883
2026-01-14 05:52:13.45	32.43	12.52	-54.5	-67.6	3.8	8.45e-01	0	27	104	0	74	16901
2026-01-14 05:52:16.76	32.04	12.77	-54.5	-67.5	3.8	8.44e-01	0	27	104	0	74	16886
2026-01-14 05:52:19.50	31.71	12.99	-54.5	-67.5	3.8	8.46e-01	0	27	104	0	74	16859
2026-01-14 05:52:22.81	31.30	13.24	-54.5	-67.5	3.8	8.45e-01	0	27	104	0	74	16863
2026-01-14 05:52:25.55	30.96	13.46	-54.5	-67.5	3.8	8.46e-01	0	27	104	0	74	16822
2026-01-14 05:52:28.87	30.54	13.72	-54.6	-67.6	3.8	8.46e-01	0	27	104	0	74	16902
2026-01-14 05:52:31.60	30.19	13.93	-54.5	-67.5	3.8	8.45e-01	0	27	104	0	74	16866
2026-01-14 05:52:34.91	29.76	14.19	-54.6	-67.6	3.8	8.45e-01	0	27	104	0	74	16916
2026-01-14 05:52:37.64	29.39	14.41	-54.6	-67.6	3.8	8.45e-01	0	27	104	0	74	16899
2026-01-14 05:52:40.96	28.94	14.67	-54.6	-67.5	3.8	8.46e-01	0	27	104	0	74	16880
2026-01-14 05:52:43.70	28.57	14.89	-54.5	-67.6	3.8	8.45e-01	0	27	104	0	74	16950
2026-01-14 05:52:47.01	28.10	15.15	-54.6	-67.6	3.8	8.45e-01	0	27	104	0	74	16919
2026-01-14 05:52:49.75	27.71	15.37	-54.6	-67.6	3.8	8.45e-01	0	27	104	0	74	16911
2026-01-14 05:52:53.06	27.24	15.64	-54.6	-67.6	3.8	8.45e-01	0	27	104	0	74	16928
2026-01-14 05:52:55.80	26.83	15.86	-54.6	-67.6	3.8	8.46e-01	0	27	104	0	74	16917
2026-01-14 05:52:59.12	26.34	16.13	-54.6	-67.6	3.8	8.45e-01	0	27	104	0	74	16924
2026-01-14 05:53:01.85	25.92	16.35	-54.6	-67.6	3.8	8.46e-01	0	27	104	0	74	16914
2026-01-14 05:53:05.17	25.41	16.62	-54.6	-67.6	3.8	8.47e-01	0	27	104	0	74	16899
2026-01-14 05:53:07.91	24.98	16.84	-54.6	-67.6	3.8	8.46e-01	0	27	104	0	74	16914
2026-01-14 05:53:11.23	24.45	17.12	-54.6	-67.6	3.8	8.46e-01	0	27	104	0	74	16906
2026-01-14 05:53:13.96	24.00	17.34	-54.6	-67.6	3.8	8.46e-01	0	27	104	0	74	16915
2026-01-14 05:53:17.27	23.46	17.61	-54.6	-67.6	3.8	8.46e-01	0	27	104	0	74	16916
2026-01-14 05:53:20.01	23.00	17.83	-54.6	-67.6	3.8	8.45e-01	0	27	104	0	74	16942
2026-01-14 05:53:23.33	22.43	18.11	-54.6	-67.5	3.8	8.45e-01	0	27	104	0	74	16872
2026-01-14 05:53:26.07	21.95	18.33	-54.6	-67.6	3.8	8.45e-01	0	27	104	0	74	16891
2026-01-14 05:53:29.38	21.37	18.60	-54.6	-67.6	3.8	8.46e-01	0	27	104	0	74	16939
2026-01-14 05:53:32.12	20.88	18.83	-54.6	-67.5	3.8	8.46e-01	0	27	104	0	74	16863
2026-01-14 05:53:35.43	20.27	19.10	-54.6	-67.6	3.8	8.45e-01	0	27	104	0	74	16941
2026-01-14 05:53:38.17	19.76	19.32	-54.6	-67.5	3.8	8.46e-01	0	27	104	0	74	16882
2026-01-14 05:53:41.49	19.14	19.59	-54.6	-67.6	3.8	8.47e-01	0	27	104	0	74	16905
2026-01-14 05:53:44.23	18.61	19.81	-54.5	-67.6	3.8	8.46e-01	0	28	104	0	74	16946
2026-01-14 05:53:47.54	17.96	20.08	-54.5	-67.6	3.8	8.46e-01	0	27	104	0	74	16913
2026-01-14 05:53:50.28	17.42	20.30	-54.5	-67.6	3.8	8.45e-01	0	27	104	0	74	16921
2026-01-14 05:53:53.60	16.75	20.57	-54.6	-67.6	3.8	8.45e-01	0	27	104	0	74	16904
2026-01-14 05:53:56.33	16.19	20.79	-54.6	-67.6	3.8	8.46e-01	0	27	104	0	74	16933
2026-01-14 05:53:59.65	15.50	21.05	-54.6	-67.6	3.8	8.46e-01	0	27	104	0	74	16943
2026-01-14 05:54:02.38	14.93	21.27	-54.6	-67.6	3.8	8.46e-01	0	27	104	0	74	16895
2026-01-14 05:54:05.70	14.22	21.53	-54.6	-67.6	3.8	8.46e-01	0	27	104	0	74	16960
2026-01-14 05:54:08.44	13.62	21.74	-54.6	-67.6	3.8	8.45e-01	0	27	104	0	74	16914
2026-01-14 05:54:11.75	12.89	22.00	-54.6	-67.6	3.8	8.45e-01	0	27	104	0	74	16929
2026-01-14 05:54:14.49	12.27	22.21	-54.6	-67.6	3.8	8.46e-01	0	27	104	0	74	16921
2026-01-14 05:54:17.79	11.52	22.46	-54.6	-67.6	3.8	8.45e-01	0	27	104	0	74	16912
2026-01-14 05:54:20.53	10.88	22.67	-54.6	-67.6	3.8	8.45e-01	0	27	104	0	74	16928
2026-01-14 05:54:23.85	10.10	22.91	-54.6	-67.6	3.8	8.45e-01	0	27	104	0	74	16922
2026-01-14 05:54:26.58	9.45	23.11	-54.6	-67.6	3.8	8.46e-01	0	27	104	0	74	16951
2026-01-14 05:54:29.89	8.65	23.35	-54.6	-67.6	3.8	8.45e-01	0	27	104	0	74	16972
2026-01-14 05:54:32.63	7.98	23.55	-54.6	-67.6	3.8	8.45e-01	0	27	104	0	74	16918
2026-01-14 05:54:35.95	7.16	23.78	-54.6	-67.6	3.8	8.46e-01	0	27	104	0	74	16961
2026-01-14 05:54:38.68	6.47	23.96	-54.6	-67.6	3.8	8.45e-01	0	27	104	0	74	16932
2026-01-14 05:54:42.00	5.62	24.19	-54.6	-67.5	3.8	8.45e-01	0	27	104	0	74	16880
2026-01-14 05:54:44.74	4.91	24.37	-54.6	-67.6	3.8	8.46e-01	0	28	104	0	74	16922
2026-01-14 05:54:48.06	4.04	24.58	-54.6	-67.6	3.8	8.46e-01	0	28	104	0	74	16953
2026-01-14 05:54:50.80	3.32	24.76	-54.6	-67.6	3.8	8.44e-01	0	27	104	0	74	16893
2026-01-14 05:54:54.12	2.42	24.96	-54.6	-67.6	3.8	8.46e-01	0	27	104	0	74	16960
2026-01-14 05:54:56.86	1.68	25.12	-54.6	-67.6	3.8	8.45e-01	0	27	104	0	74	16946
2026-01-14 05:55:00.17	0.77	25.31	-54.6	-67.6	3.8	8.45e-01	0	28	104	0	74	16950
2026-01-14 05:55:02.90	0.01	25.47	-54.6	-67.6	3.8	8.44e-01	0	27	104	0	74	16918
2026-01-14 05:55:06.21	359.08	25.65	-54.6	-67.6	3.8	8.46e-01	0	27	104	0	74	16978
2026-01-14 05:55:08.95	358.31	25.79	-54.6	-67.6	3.8	8.44e-01	0	27	104	0	74	16922
2026-01-14 05:55:12.26	357.36	25.96	-54.6	-67.6	3.8	8.46e-01	0	27	104	0	74	16939
2026-01-14 05:55:15.00	356.56	26.09	-54.6	-67.6	3.8	8.44e-01	0	28	104	0	74	16987
2026-01-14 05:55:18.31	355.60	26.24	-54.6	-67.6	3.8	8.47e-01	0	27	104	0	74	16976
2026-01-14 05:55:21.05	354.79	26.36	-54.6	-67.6	3.8	8.46e-01	0	27	104	0	74	16918
2026-01-14 05:55:24.37	353.81	26.49	-54.6	-67.6	3.8	8.46e-01	0	27	104	0	74	16954
2026-01-14 05:55:27.11	352.99	26.60	-54.6	-67.6	3.8	8.46e-01	0	27	104	0	74	16977
2026-01-14 05:55:30.42	351.99	26.72	-54.6	-67.6	3.8	8.46e-01	0	28	104	0	74	17020
2026-01-14 05:55:33.16	351.16	26.81	-54.6	-67.6	3.8	8.46e-01	0	27	104	0	74	16978
2026-01-14 05:55:36.47	350.15	26.92	-54.6	-67.6	3.8	8.46e-01	0	27	104	0	74	16935
2026-01-14 05:55:39.21	349.31	26.99	-54.6	-67.6	3.8	8.45e-01	0	27	104	0	74	16912
2026-01-14 05:55:42.52	348.29	27.08	-54.6	-67.6	3.8	8.46e-01	0	27	104	0	74	16935
2026-01-14 05:55:45.26	347.44	27.14	-54.6	-67.6	3.8	8.47e-01	0	28	104	0	74	16946
2026-01-14 05:55:48.57	346.41	27.21	-54.6	-67.6	3.8	8.45e-01	0	28	104	0	74	16973
2026-01-14 05:55:51.31	345.55	27.26	-54.6	-67.6	3.8	8.46e-01	0	27	104	0	74	16992
2026-01-14 05:55:54.63	344.51	27.31	-54.6	-67.6	3.8	8.46e-01	0	28	104	0	74	16973
2026-01-14 05:55:57.37	343.65	27.34	-54.6	-67.6	3.8	8.46e-01	0	27	104	0	74	16976
2026-01-14 05:56:00.69	342.61	27.37	-54.6	-67.6	3.8	8.46e-01	0	28	104	0	74	16936
2026-01-14 05:56:03.42	341.75	27.39	-54.6	-67.6	3.8	8.45e-01	0	27	104	0	74	16964
2026-01-14 05:56:06.74	340.70	27.40	-54.6	-67.6	3.8	8.46e-01	0	28	104	0	74	17005
2026-01-14 05:56:09.48	339.83	27.40	-54.6	-67.6	3.8	8.44e-01	0	28	104	0	74	16962
2026-01-14 05:56:12.79	338.79	27.39	-54.6	-67.6	3.8	8.46e-01	0	28	104	0	74	16976
2026-01-14 05:56:15.53	337.92	27.37	-54.6	-67.6	3.8	8.46e-01	0	28	104	0	74	16983
2026-01-14 05:56:18.85	336.88	27.34	-54.6	-67.6	3.8	8.46e-01	0	28	104	0	74	16949
2026-01-14 05:56:21.58	336.02	27.31	-54.6	-67.6	3.8	8.45e-01	0	27	104	0	74	16915
2026-01-14 05:56:24.90	334.98	27.27	-54.6	-67.6	3.8	8.46e-01	0	28	104	0	74	16961
2026-01-14 05:56:27.64	334.12	27.22	-54.6	-67.6	3.8	8.45e-01	0	28	104	0	74	16973
2026-01-14 05:56:30.96	333.09	27.15	-54.6	-67.6	3.8	8.45e-01	0	27	104	0	74	16960
2026-01-14 05:56:33.69	332.24	27.09	-54.6	-67.6	3.8	8.45e-01	0	28	104	0	74	16995
2026-01-14 05:56:37.01	331.22	27.01	-54.6	-67.6	3.8	8.45e-01	0	28	104	0	74	16980
2026-01-14 05:56:39.75	330.37	26.93	-54.6	-67.6	3.8	8.46e-01	0	27	104	0	74	17032
2026-01-14 05:56:43.06	329.36	26.83	-54.6	-67.6	3.8	8.45e-01	0	28	104	0	74	16993
2026-01-14 05:56:45.80	328.53	26.73	-54.6	-67.6	3.8	8.46e-01	0	27	104	0	74	16960
2026-01-14 05:56:49.11	327.53	26.62	-54.6	-67.6	3.8	8.45e-01	0	28	104	0	74	16967
2026-01-14 05:56:51.85	326.71	26.51	-54.6	-67.6	3.8	8.46e-01	0	27	104	0	74	17039
2026-01-14 05:56:55.17	325.72	26.37	-54.6	-67.6	3.8	8.45e-01	0	27	104	0	74	16948
2026-01-14 05:56:57.90	324.92	26.26	-54.6	-67.6	3.8	8.46e-01	0	28	104	0	74	16976
2026-01-14 05:57:01.22	323.95	26.11	-54.6	-67.6	3.8	8.45e-01	0	27	104	0	74	16945
2026-01-14 05:57:03.96	323.15	25.97	-54.6	-67.6	3.8	8.45e-01	0	28	104	0	74	17016
2026-01-14 05:57:07.28	322.20	25.81	-54.6	-67.6	3.8	8.44e-01	0	28	104	0	74	16979
2026-01-14 05:57:10.02	321.42	25.67	-54.6	-67.6	3.8	8.45e-01	0	28	104	0	74	16976
2026-01-14 05:57:13.33	320.49	25.49	-54.6	-67.6	3.8	8.46e-01	0	28	104	0	74	16995
2026-01-14 05:57:16.07	319.73	25.33	-54.6	-67.6	3.8	8.45e-01	0	27	104	0	74	17016
2026-01-14 05:57:19.38	318.82	25.14	-54.6	-67.6	3.8	8.45e-01	0	27	104	0	74	16984
2026-01-14 05:57:22.12	318.07	24.98	-54.6	-67.6	3.8	8.45e-01	0	28	104	0	74	16982
2026-01-14 05:57:25.44	317.18	24.78	-54.6	-67.6	3.8	8.46e-01	0	28	104	0	74	16999
2026-01-14 05:57:28.18	316.45	24.61	-54.6	-67.6	3.8	8.46e-01	0	27	104	0	74	17038
2026-01-14 05:57:31.49	315.58	24.39	-54.6	-67.6	3.8	8.46e-01	0	28	104	0	74	17043
2026-01-14 05:57:34.23	314.87	24.21	-54.6	-67.6	3.8	8.47e-01	0	28	104	0	74	17035
2026-01-14 05:57:37.54	314.02	23.99	-54.6	-67.6	3.8	8.46e-01	0	28	104	0	74	17057
2026-01-14 05:57:40.28	313.33	23.80	-54.6	-67.6	3.8	8.46e-01	0	28	104	0	74	17030
2026-01-14 05:57:43.59	312.50	23.57	-54.6	-67.6	3.8	8.45e-01	0	28	104	0	74	17013
2026-01-14 05:57:46.33	311.83	23.37	-54.6	-67.6	3.8	8.47e-01	0	27	104	0	74	16996
2026-01-14 05:57:49.64	311.03	23.14	-54.6	-67.6	3.8	8.45e-01	0	28	104	0	74	16996
2026-01-14 05:57:52.38	310.37	22.94	-54.6	-67.6	3.8	8.45e-01	0	28	104	0	74	16973
2026-01-14 05:57:55.69	309.59	22.69	-54.6	-67.6	3.8	8.47e-01	0	28	104	0	74	17026
2026-01-14 05:57:58.43	308.95	22.48	-54.6	-67.6	3.8	8.46e-01	0	28	104	0	74	17007
2026-01-14 05:58:01.75	308.19	22.23	-54.6	-67.6	3.8	8.46e-01	0	28	104	0	74	16963
2026-01-14 05:58:04.48	307.58	22.02	-54.6	-67.6	3.8	8.46e-01	0	28	104	0	74	17000
2026-01-14 05:58:07.79	306.84	21.77	-54.6	-67.6	3.8	8.45e-01	0	28	104	0	74	17019
2026-01-14 05:58:10.53	306.25	21.55	-54.6	-67.6	3.8	8.44e-01	0	28	104	0	74	17010
2026-01-14 05:58:13.85	305.53	21.29	-54.6	-67.6	3.8	8.45e-01	0	28	104	0	74	17019
2026-01-14 05:58:16.59	304.95	21.08	-54.6	-67.6	3.8	8.46e-01	0	28	104	0	74	17012
2026-01-14 05:58:19.90	304.26	20.81	-54.6	-67.6	3.8	8.46e-01	0	28	104	0	74	17010
2026-01-14 05:58:22.64	303.70	20.59	-54.6	-67.6	3.8	8.46e-01	0	28	104	0	74	16984
2026-01-14 05:58:25.95	303.03	20.33	-54.6	-67.6	3.8	8.45e-01	0	28	104	0	74	17051
2026-01-14 05:58:28.69	302.48	20.10	-54.6	-67.6	3.8	8.45e-01	0	28	104	0	74	16957
2026-01-14 05:58:32.00	301.83	19.84	-54.6	-67.6	3.8	8.46e-01	0	28	104	0	74	17035
2026-01-14 05:58:34.74	301.31	19.61	-54.6	-67.6	3.8	8.46e-01	0	28	104	0	74	16968
2026-01-14 05:58:38.05	300.68	19.34	-54.6	-67.6	3.8	8.45e-01	0	27	104	0	74	17066
2026-01-14 05:58:40.79	300.17	19.12	-54.6	-67.6	3.8	8.45e-01	0	28	104	0	74	16979
2026-01-14 05:58:44.10	299.56	18.85	-54.6	-67.6	3.8	8.46e-01	0	28	104	0	74	16946
2026-01-14 05:58:46.84	299.07	18.62	-54.6	-67.6	3.8	8.44e-01	0	28	104	0	74	16991
2026-01-14 05:58:50.15	298.48	18.35	-54.6	-67.6	3.8	8.45e-01	0	28	104	0	74	17005
2026-01-14 05:58:52.89	298.00	18.13	-54.6	-67.6	3.8	8.47e-01	0	28	104	0	74	17011
2026-01-14 05:58:56.20	297.43	17.86	-54.6	-67.6	3.8	8.45e-01	0	28	104	0	74	16975
2026-01-14 05:58:58.93	296.97	17.63	-54.6	-67.6	3.8	8.44e-01	0	28	104	0	74	17001
2026-01-14 05:59:02.24	296.42	17.36	-54.6	-67.6	3.8	8.45e-01	0	28	104	0	74	16954
2026-01-14 05:59:04.98	295.98	17.14	-54.6	-67.6	3.8	8.44e-01	0	28	104	0	74	16907
2026-01-14 05:59:08.30	295.44	16.86	-54.6	-67.6	3.8	8.46e-01	0	28	104	0	74	17031
2026-01-14 05:59:11.05	295.01	16.64	-54.6	-67.6	3.8	8.46e-01	0	28	104	0	74	17026
2026-01-14 05:59:14.36	294.50	16.37	-54.6	-67.6	3.8	8.45e-01	0	28	104	0	74	17017
2026-01-14 05:59:17.10	294.08	16.15	-54.6	-67.6	3.8	8.45e-01	0	28	104	0	74	16946
2026-01-14 05:59:20.41	293.58	15.88	-54.6	-67.6	3.8	8.44e-01	0	28	104	0	74	16990
2026-01-14 05:59:23.15	293.18	15.66	-54.6	-67.6	3.8	8.44e-01	0	28	104	0	74	16988
2026-01-14 05:59:26.47	292.69	15.39	-54.6	-67.6	3.8	8.45e-01	0	27	104	0	74	17000
2026-01-14 05:59:29.20	292.30	15.17	-54.6	-67.6	3.8	8.46e-01	0	28	104	0	74	17008
2026-01-14 05:59:32.52	291.84	14.90	-54.6	-67.6	3.8	8.44e-01	0	28	104	0	74	17010
2026-01-14 05:59:35.25	291.46	14.68	-54.6	-67.6	3.8	8.45e-01	0	28	104	0	74	17045
2026-01-14 05:59:38.56	291.01	14.42	-54.6	-67.6	3.8	8.45e-01	0	28	104	0	74	16987
2026-01-14 05:59:41.30	290.65	14.20	-54.6	-67.6	3.8	8.45e-01	0	28	104	0	74	16981
2026-01-14 05:59:44.62	290.21	13.94	-54.6	-67.6	3.8	8.46e-01	0	28	104	0	74	16995
2026-01-14 05:59:47.36	289.85	13.73	-54.6	-67.6	3.8	8.46e-01	0	28	104	0	74	17047
2026-01-14 05:59:50.67	289.43	13.47	-54.6	-67.6	3.8	8.46e-01	0	28	104	0	74	16977
2026-01-14 05:59:53.41	289.09	13.25	-54.6	-67.6	3.8	8.45e-01	0	28	104	0	74	16970
2026-01-14 05:59:56.72	288.68	13.00	-54.6	-67.6	3.8	8.45e-01	0	28	104	0	74	16980
2026-01-14 05:59:59.46	288.35	12.78	-54.6	-67.6	3.8	8.45e-01	0	27	104	0	74	16998
2026-01-14 06:00:02.78	287.95	12.53	-54.6	-67.6	3.8	8.45e-01	0	28	104	0	74	16963
2026-01-14 06:00:05.51	287.63	12.32	-54.6	-67.6	3.8	8.45e-01	0	28	104	0	74	16967
2026-01-14 06:00:08.83	287.25	12.07	-54.6	-67.6	3.8	8.46e-01	0	28	104	0	74	16971
2026-01-14 06:00:11.57	286.94	11.86	-54.6	-67.6	3.8	8.45e-01	0	28	104	0	74	17025
2026-01-14 06:00:14.89	286.57	11.61	-54.6	-67.6	3.8	8.46e-01	0	27	104	0	74	16990
2026-01-14 06:00:17.63	286.27	11.40	-54.6	-67.6	3.8	8.45e-01	0	28	104	0	74	16955
2026-01-14 06:00:20.94	285.91	11.15	-54.6	-67.6	3.8	8.46e-01	0	28	104	0	74	16957
2026-01-14 06:00:23.68	285.62	10.95	-54.6	-67.6	3.8	8.44e-01	0	28	104	0	74	17021
2026-01-14 06:00:27.00	285.27	10.71	-54.6	-67.6	3.8	8.46e-01	0	28	104	0	74	16944
2026-01-14 06:00:29.74	284.99	10.50	-54.6	-67.6	3.8	8.45e-01	0	27	104	0	74	16959
2026-01-14 06:00:33.05	284.65	10.26	-54.6	-67.6	3.8	8.46e-01	0	28	104	0	74	16980
2026-01-14 06:00:35.79	284.37	10.06	-54.6	-67.6	3.8	8.46e-01	0	28	104	0	74	16923
2026-01-14 06:00:39.10	284.05	9.82	-54.6	-67.6	3.8	8.46e-01	0	28	104	0	74	16970
2026-01-14 06:00:41.84	283.78	9.62	-54.6	-67.6	3.8	8.45e-01	0	27	104	0	74	16990
2026-01-14 06:00:45.15	283.47	9.39	-54.6	-67.6	3.8	8.45e-01	0	28	104	0	74	16937
2026-01-14 06:00:47.89	283.21	9.19	-54.6	-67.6	3.8	8.45e-01	0	28	104	0	74	17012
2026-01-14 06:00:51.20	282.90	8.96	-54.6	-67.6	3.8	8.44e-01	0	28	104	0	74	16986
2026-01-14 06:00:53.95	282.65	8.76	-54.6	-67.6	3.8	8.45e-01	0	28	104	0	74	16946
2026-01-14 06:00:57.26	282.35	8.53	-54.6	-67.6	3.8	8.45e-01	0	28	104	0	74	16964
2026-01-14 06:01:00.00	282.11	8.34	-54.6	-67.6	3.8	8.45e-01	0	28	104	0	74	17004
2026-01-14 06:01:03.32	281.82	8.11	-54.6	-67.6	3.8	8.45e-01	0	28	104	0	74	16993
2026-01-14 06:01:06.05	281.58	7.92	-54.6	-67.6	3.8	8.45e-01	0	28	104	0	74	16990
2026-01-14 06:01:09.37	281.30	7.69	-54.6	-67.6	3.8	8.46e-01	0	28	104	0	74	17007
2026-01-14 06:01:12.11	281.07	7.51	-54.6	-67.6	3.8	8.46e-01	0	28	104	0	74	16977
2026-01-14 06:01:15.43	280.80	7.28	-54.6	-67.6	3.8	8.45e-01	0	28	104	0	74	17000
2026-01-14 06:01:18.16	280.58	7.10	-54.6	-67.6	3.8	8.45e-01	0	28	104	0	74	16958
2026-01-14 06:01:21.48	280.31	6.88	-54.6	-67.6	3.8	8.46e-01	0	28	104	0	74	16972
2026-01-14 06:01:24.22	280.10	6.69	-54.6	-67.6	3.8	8.45e-01	0	28	104	0	74	16973
2026-01-14 06:01:27.53	279.84	6.47	-54.6	-67.6	3.8	8.46e-01	0	28	104	0	74	16968
2026-01-14 06:01:30.27	279.63	6.29	-54.6	-67.6	3.8	8.46e-01	0	28	104	0	74	16995
2026-01-14 06:01:33.59	279.38	6.07	-54.6	-67.6	3.8	8.46e-01	0	28	104	0	74	16963
2026-01-14 06:01:36.32	279.18	5.90	-54.6	-67.6	3.8	8.44e-01	0	28	104	0	74	17019
2026-01-14 06:01:39.63	278.94	5.68	-54.6	-67.6	3.8	8.45e-01	0	28	104	0	74	16970
2026-01-14 06:01:42.36	278.74	5.50	-54.6	-67.6	3.8	8.46e-01	0	28	104	0	74	16977
2026-01-14 06:01:45.67	278.50	5.29	-54.6	-67.6	3.8	8.46e-01	0	28	104	0	74	17010
2026-01-14 06:01:48.41	278.31	5.12	-54.6	-67.6	3.9	8.45e-01	0	27	104	0	74	17012
2026-01-14 06:01:51.73	278.08	4.91	-54.6	-67.6	3.8	8.47e-01	0	28	104	0	74	16936
2026-01-14 06:01:54.46	277.89	4.73	-54.6	-67.6	3.8	8.45e-01	0	28	104	0	74	17018
2026-01-14 06:01:57.78	277.67	4.52	-54.6	-67.6	3.8	8.46e-01	0	28	104	0	74	16919
2026-01-14 06:02:00.51	277.49	4.35	-54.6	-67.6	3.8	8.45e-01	0	28	104	0	74	17019
2026-01-14 06:02:03.83	277.27	4.15	-54.6	-67.6	3.8	8.44e-01	0	28	104	0	74	16933
2026-01-14 06:02:06.57	277.09	3.98	-54.6	-67.6	3.8	8.46e-01	0	28	104	0	74	16958
2026-01-14 06:02:09.88	276.88	3.77	-54.6	-67.6	3.8	8.45e-01	0	28	104	0	74	16975
2026-01-14 06:02:12.62	276.71	3.60	-54.6	-67.6	3.8	8.46e-01	0	27	104	0	74	17032
2026-01-14 06:02:15.94	276.50	3.40	-54.6	-67.6	3.8	8.45e-01	0	28	104	0	74	17024
2026-01-14 06:02:18.68	276.33	3.24	-54.6	-67.6	3.8	8.45e-01	0	28	104	0	74	16977
2026-01-14 06:02:21.99	276.13	3.04	-54.6	-67.6	3.8	8.46e-01	0	28	104	0	74	16958
2026-01-14 06:02:24.74	275.97	2.87	-54.6	-67.6	3.8	8.46e-01	0	27	104	0	74	16965
2026-01-14 06:02:28.06	275.77	2.67	-54.6	-67.6	3.8	8.45e-01	0	28	104	0	74	16930
2026-01-14 06:02:30.80	275.61	2.51	-54.6	-67.6	3.8	8.45e-01	0	27	104	0	74	17032
2026-01-14 06:02:34.11	275.42	2.31	-54.6	-67.6	3.8	8.45e-01	0	28	104	0	74	16956
2026-01-14 06:02:36.85	275.26	2.15	-54.6	-67.6	3.8	8.45e-01	0	27	104	0	74	16970
2026-01-14 06:02:40.16	275.08	1.96	-54.6	-67.6	3.8	8.47e-01	0	28	104	0	74	16957

#Closed at: 2026-01-14 06:02:42
#Recorded file [0 MB]: D:/lorett/data/31004_260114_084936.dat