passes_logs/2026/01/14/R3.2S_Murmansk/R3.2S_Murmansk__20260114_224940_FENGYUN_3D_rec.log

#Pass ID: 20260114_224940_FENGYUN 3D
#Satellite: FENGYUN 3D
#Configuration: FENGYUN 3D
#almurnet v.1.7.20251203
#Start time: 2026-01-14 22:49:40

#Version: 2.2.20231116
#Station: R3.2S_Murmansk
#Location: 33.079688 lon 68.888172 lat
#TLE: 1 43010U 17072A   26014.65117763 -.00000217  00000+0 -80772-4 0  9993
#TLE: 2 43010  98.9933 346.4618 0002330 108.4699 251.6730 14.19694700423204

#Time	Az	El	Level	Level2	SNR	BER	BlckErr	Temp	State	Recorded	gain1	gain2
2026-01-14 22:49:40.24	20.07	2.00	-57.9	-70.9	3.8	8.46e-01	0	26	0	0	82	15691
2026-01-14 22:49:43.24	20.41	2.11	-57.9	-70.9	3.8	8.46e-01	0	26	104	0	80	17626
2026-01-14 22:49:46.25	20.75	2.22	-57.9	-70.9	3.8	8.46e-01	0	26	104	0	81	16688
2026-01-14 22:49:49.24	21.09	2.33	-57.9	-70.9	3.8	8.46e-01	0	27	104	0	81	16598
2026-01-14 22:49:52.25	21.43	2.44	-57.9	-70.9	3.8	8.45e-01	0	27	104	0	81	16630
2026-01-14 22:49:55.26	21.78	2.55	-57.9	-70.9	3.9	8.47e-01	0	27	104	0	81	16638
2026-01-14 22:49:58.28	22.13	2.65	-57.9	-70.9	3.8	8.46e-01	0	27	104	0	81	16600
2026-01-14 22:50:01.28	22.48	2.76	-57.9	-70.8	3.8	8.46e-01	0	27	104	0	81	16388
2026-01-14 22:50:04.28	22.83	2.87	-57.9	-70.8	3.8	8.45e-01	0	27	104	0	81	16334
2026-01-14 22:50:07.28	23.19	2.98	-57.9	-70.9	3.8	8.45e-01	0	27	104	0	81	16507
2026-01-14 22:50:10.27	23.55	3.08	-57.9	-70.7	3.8	8.45e-01	0	27	104	0	81	16300
2026-01-14 22:50:13.28	23.91	3.19	-57.9	-70.4	3.8	8.46e-01	0	27	104	0	81	15754
2026-01-14 22:50:16.29	24.27	3.29	-57.9	-70.7	3.8	8.45e-01	0	27	104	0	81	16232
2026-01-14 22:50:19.29	24.64	3.40	-58.0	-70.8	3.8	8.45e-01	0	27	104	0	81	16461
2026-01-14 22:50:22.29	25.00	3.50	-57.9	-70.9	3.8	8.45e-01	0	27	104	0	81	16603
2026-01-14 22:50:25.29	25.37	3.60	-58.0	-70.8	3.8	8.44e-01	0	27	104	0	81	16435
2026-01-14 22:50:28.30	25.75	3.71	-57.9	-70.9	3.8	8.46e-01	0	27	104	0	81	16523
2026-01-14 22:50:31.31	26.12	3.81	-57.9	-70.7	3.8	8.44e-01	0	27	104	0	81	16308
2026-01-14 22:50:34.30	26.50	3.91	-57.9	-70.4	3.8	8.45e-01	0	27	104	0	81	15691
2026-01-14 22:50:37.31	26.88	4.01	-58.0	-70.8	3.8	8.46e-01	0	27	104	0	81	16450
2026-01-14 22:50:40.32	27.27	4.11	-58.0	-70.9	3.8	8.44e-01	0	28	104	0	81	16660
2026-01-14 22:50:43.31	27.65	4.21	-58.0	-70.9	3.8	8.46e-01	0	27	104	0	81	16542
2026-01-14 22:50:46.31	28.04	4.31	-58.0	-70.9	3.8	8.45e-01	0	28	104	0	81	16595
2026-01-14 22:50:49.31	28.43	4.41	-58.0	-70.8	3.8	8.45e-01	0	28	104	0	81	16501
2026-01-14 22:50:52.31	28.82	4.51	-57.9	-70.4	3.8	8.47e-01	0	27	104	0	81	15750
2026-01-14 22:50:55.32	29.22	4.60	-57.7	-68.4	4.0	8.44e-01	0	28	104	0	81	12462
2026-01-14 22:50:58.33	29.62	4.70	-57.7	-68.2	3.9	8.44e-01	0	28	104	0	81	12220
2026-01-14 22:51:01.33	30.02	4.80	-54.6	-58.5	9.9	6.47e-03	0	28	0	11534336	76	5283
2026-01-14 22:51:04.32	30.42	4.89	-53.9	-56.7	11.4	4.57e-05	0	28	0	28311552	74	4836
2026-01-14 22:51:07.30	30.82	4.98	-54.4	-57.6	10.6	2.14e-04	0	28	0	45088768	73	5688
2026-01-14 22:51:10.28	31.23	5.08	-53.5	-56.1	11.8	1.10e-06	0	28	0	61865984	72	5047
2026-01-14 22:51:13.28	31.64	5.17	-50.5	-52.1	13.9	0.00e+00	0	28	0	78643200	67	4254
2026-01-14 22:51:16.29	32.05	5.26	-50.1	-51.6	14.0	0.00e+00	0	28	0	95420416	66	4291
2026-01-14 22:51:19.29	32.47	5.35	-50.0	-51.5	14.1	0.00e+00	0	28	0	112197632	66	4225
2026-01-14 22:51:22.30	32.89	5.44	-50.1	-51.6	13.9	0.00e+00	0	28	0	130023424	65	4543
2026-01-14 22:51:25.31	33.31	5.53	-49.9	-51.4	14.1	0.00e+00	0	28	0	146800640	65	4399
2026-01-14 22:51:28.31	33.73	5.62	-49.8	-51.3	14.1	0.00e+00	0	28	0	163577856	65	4351
2026-01-14 22:51:31.31	34.16	5.70	-49.7	-51.2	14.2	0.00e+00	0	28	0	180355072	65	4305
2026-01-14 22:51:34.29	34.58	5.79	-49.7	-51.1	14.2	0.00e+00	0	28	0	197132288	65	4262
2026-01-14 22:51:37.30	35.01	5.87	-49.7	-51.1	14.2	0.00e+00	0	28	0	213909504	65	4290
2026-01-14 22:51:40.30	35.45	5.95	-50.1	-51.6	14.0	0.00e+00	0	28	0	230686720	65	4536
2026-01-14 22:51:43.29	35.88	6.04	-50.2	-51.7	13.9	0.00e+00	0	28	0	247463936	65	4568
2026-01-14 22:51:46.30	36.32	6.12	-50.5	-52.1	13.9	0.00e+00	0	28	0	264241152	66	4508
2026-01-14 22:51:49.30	36.76	6.20	-49.4	-50.8	14.4	0.00e+00	0	28	0	281018368	65	4103
2026-01-14 22:51:52.29	37.20	6.28	-49.6	-51.1	14.2	0.00e+00	0	28	0	297795584	65	4261
2026-01-14 22:51:55.28	37.64	6.35	-49.7	-51.2	14.2	0.00e+00	0	28	0	314572800	65	4292
2026-01-14 22:51:58.29	38.09	6.43	-49.7	-51.1	14.2	0.00e+00	0	28	0	332398592	65	4286
2026-01-14 22:52:01.28	38.54	6.50	-49.5	-50.9	14.4	0.00e+00	0	28	0	348127232	65	4161
2026-01-14 22:52:04.27	38.99	6.58	-49.6	-51.0	14.3	0.00e+00	0	28	0	365953024	65	4206
2026-01-14 22:52:07.27	39.44	6.65	-49.5	-51.0	14.3	0.00e+00	0	28	0	382730240	65	4195
2026-01-14 22:52:10.27	39.89	6.72	-49.7	-51.1	14.3	0.00e+00	0	28	0	399507456	65	4277
2026-01-14 22:52:13.27	40.35	6.79	-49.6	-51.0	14.3	0.00e+00	0	28	0	416284672	65	4231
2026-01-14 22:52:16.26	40.81	6.86	-49.4	-50.7	14.4	0.00e+00	0	28	0	433061888	65	4088
2026-01-14 22:52:19.25	41.27	6.93	-49.7	-51.2	14.3	0.00e+00	0	28	0	449839104	65	4296
2026-01-14 22:52:22.26	41.73	6.99	-49.6	-51.1	14.3	0.00e+00	0	28	0	466616320	65	4245
2026-01-14 22:52:25.25	42.20	7.06	-49.7	-51.2	14.3	0.00e+00	0	28	0	483393536	65	4293
2026-01-14 22:52:28.24	42.67	7.12	-49.4	-50.8	14.4	0.00e+00	0	28	0	500170752	65	4141
2026-01-14 22:52:31.25	43.14	7.18	-49.1	-50.4	14.5	0.00e+00	0	28	0	516947968	64	4189
2026-01-14 22:52:34.24	43.61	7.24	-49.3	-50.7	14.4	0.00e+00	0	28	0	534773760	64	4293
2026-01-14 22:52:37.25	44.08	7.30	-49.2	-50.6	14.4	0.00e+00	0	28	0	551550976	64	4245
2026-01-14 22:52:40.23	44.55	7.36	-49.2	-50.5	14.4	0.00e+00	0	28	0	567279616	64	4228
2026-01-14 22:52:43.22	45.03	7.41	-49.0	-50.4	14.5	0.00e+00	0	28	0	585105408	64	4146
2026-01-14 22:52:46.21	45.51	7.47	-49.1	-50.5	14.5	0.00e+00	0	28	0	601882624	64	4208
2026-01-14 22:52:49.21	45.99	7.52	-49.1	-50.4	14.5	0.00e+00	0	28	0	618659840	64	4190
2026-01-14 22:52:52.20	46.47	7.57	-49.1	-50.4	14.5	0.00e+00	0	28	0	635437056	64	4172
2026-01-14 22:52:55.20	46.95	7.62	-49.3	-50.7	14.4	0.00e+00	0	28	0	652214272	64	4293
2026-01-14 22:52:58.21	47.44	7.67	-49.6	-51.1	14.2	0.00e+00	0	28	0	668991488	64	4507
2026-01-14 22:53:01.21	47.92	7.71	-49.3	-50.7	14.3	0.00e+00	0	28	0	685768704	64	4331
2026-01-14 22:53:04.21	48.41	7.76	-49.1	-50.5	14.5	0.00e+00	0	28	0	702545920	64	4198
2026-01-14 22:53:07.21	48.90	7.80	-49.2	-50.5	14.4	0.00e+00	0	28	0	719323136	64	4218
2026-01-14 22:53:10.21	49.39	7.84	-49.2	-50.5	14.4	0.00e+00	0	28	0	736100352	64	4226
2026-01-14 22:53:13.18	49.88	7.88	-49.1	-50.4	14.5	0.00e+00	0	28	0	752877568	64	4179
2026-01-14 22:53:16.18	50.38	7.92	-49.2	-50.6	14.4	0.00e+00	0	28	0	769654784	64	4255
2026-01-14 22:53:19.19	50.87	7.95	-49.2	-50.6	14.4	0.00e+00	0	28	0	786432000	64	4270
2026-01-14 22:53:22.17	51.36	7.99	-49.1	-50.4	14.5	0.00e+00	0	28	0	803209216	64	4181
2026-01-14 22:53:25.15	51.86	8.02	-49.0	-50.4	14.5	0.00e+00	0	28	0	821035008	64	4156
2026-01-14 22:53:28.15	52.36	8.05	-49.1	-50.4	14.5	0.00e+00	0	28	0	837812224	64	4184
2026-01-14 22:53:31.16	52.86	8.08	-49.0	-50.4	14.5	0.00e+00	0	28	0	854589440	64	4151
2026-01-14 22:53:34.15	53.36	8.10	-49.1	-50.5	14.5	0.00e+00	0	28	0	871366656	64	4195
2026-01-14 22:53:37.15	53.86	8.13	-49.1	-50.5	14.5	0.00e+00	0	28	0	888143872	64	4212
2026-01-14 22:53:40.17	54.36	8.15	-49.1	-50.4	14.5	0.00e+00	0	28	0	904921088	64	4175
2026-01-14 22:53:43.18	54.87	8.17	-49.2	-50.6	14.4	0.00e+00	0	28	0	921698304	64	4271
2026-01-14 22:53:46.19	55.37	8.19	-49.4	-50.8	14.3	0.00e+00	0	28	0	938475520	64	4341
2026-01-14 22:53:49.19	55.88	8.21	-49.2	-50.6	14.4	0.00e+00	0	28	0	956301312	64	4263
2026-01-14 22:53:52.17	56.38	8.22	-49.1	-50.4	14.5	0.00e+00	0	28	0	972029952	64	4178
2026-01-14 22:53:55.16	56.88	8.24	-48.9	-50.2	14.6	0.00e+00	0	28	0	988807168	64	4079
2026-01-14 22:53:58.16	57.39	8.25	-49.1	-50.4	14.5	0.00e+00	0	28	0	1006632960	64	4164
2026-01-14 22:54:01.15	57.89	8.26	-49.0	-50.3	14.6	0.00e+00	0	28	0	1023410176	64	4111
2026-01-14 22:54:04.15	58.40	8.27	-49.1	-50.4	14.5	0.00e+00	0	28	0	1040187392	64	4178
2026-01-14 22:54:07.14	58.90	8.27	-49.0	-50.3	14.5	0.00e+00	0	28	0	1056964608	64	4114
2026-01-14 22:54:10.13	59.41	8.28	-48.9	-50.3	14.6	0.00e+00	0	28	0	1073741824	64	4099
2026-01-14 22:54:13.13	59.91	8.28	-49.2	-50.5	14.5	0.00e+00	0	28	0	1090519040	64	4233
2026-01-14 22:54:16.13	60.42	8.28	-49.3	-50.7	14.4	0.00e+00	0	28	0	1107296256	64	4301
2026-01-14 22:54:19.14	60.93	8.28	-49.2	-50.6	14.4	0.00e+00	0	28	0	1124073472	64	4248
2026-01-14 22:54:22.15	61.44	8.27	-49.0	-50.3	14.5	0.00e+00	0	28	0	1140850688	64	4124
2026-01-14 22:54:25.15	61.94	8.27	-49.0	-50.3	14.5	0.00e+00	0	28	0	1157627904	64	4141
2026-01-14 22:54:28.15	62.45	8.26	-49.1	-50.5	14.5	0.00e+00	0	28	0	1175453696	64	4216
2026-01-14 22:54:31.14	62.95	8.25	-49.0	-50.3	14.5	0.00e+00	0	28	0	1192230912	64	4126
2026-01-14 22:54:34.14	63.46	8.24	-49.1	-50.4	14.5	0.00e+00	0	28	0	1209008128	64	4188
2026-01-14 22:54:37.15	63.97	8.23	-49.2	-50.6	14.4	0.00e+00	0	28	0	1225785344	64	4248
2026-01-14 22:54:40.15	64.47	8.21	-49.2	-50.6	14.4	0.00e+00	0	28	0	1242562560	64	4262
2026-01-14 22:54:43.15	64.98	8.20	-49.2	-50.5	14.5	0.00e+00	0	28	0	1259339776	64	4234
2026-01-14 22:54:46.17	65.48	8.18	-49.4	-50.7	14.4	0.00e+00	0	28	0	1276116992	64	4334
2026-01-14 22:54:49.17	65.99	8.16	-49.2	-50.5	14.5	0.00e+00	0	28	0	1292894208	64	4232
2026-01-14 22:54:52.17	66.49	8.13	-49.2	-50.6	14.4	0.00e+00	0	28	0	1309671424	64	4267
2026-01-14 22:54:55.17	66.99	8.11	-49.1	-50.5	14.4	0.00e+00	0	28	0	1326448640	64	4205
2026-01-14 22:54:58.15	67.49	8.08	-49.0	-50.3	14.5	0.00e+00	0	28	0	1343225856	64	4123
2026-01-14 22:55:01.15	67.99	8.06	-48.9	-50.3	14.6	0.00e+00	0	28	0	1361051648	64	4111
2026-01-14 22:55:04.14	68.49	8.03	-49.2	-50.6	14.4	0.00e+00	0	28	0	1377828864	64	4276
2026-01-14 22:55:07.16	68.99	7.99	-49.2	-50.6	14.4	0.00e+00	0	28	0	1394606080	64	4270
2026-01-14 22:55:10.14	69.48	7.96	-49.0	-50.4	14.5	0.00e+00	0	28	0	1411383296	64	4156
2026-01-14 22:55:13.13	69.98	7.93	-49.0	-50.4	14.5	0.00e+00	0	29	0	1428160512	64	4150
2026-01-14 22:55:16.13	70.47	7.89	-49.3	-50.6	14.4	0.00e+00	0	28	0	1444937728	64	4289
2026-01-14 22:55:19.05	70.95	7.85	-49.2	-50.6	14.4	0.00e+00	0	28	0	1461714944	64	4263
2026-01-14 22:55:22.05	71.44	7.81	-49.1	-50.5	14.5	0.00e+00	0	28	0	1478492160	64	4203
2026-01-14 22:55:25.05	71.94	7.77	-49.1	-50.5	14.5	0.00e+00	0	28	0	1495269376	64	4212
2026-01-14 22:55:28.05	72.43	7.73	-49.2	-50.5	14.4	0.00e+00	0	28	0	1512046592	64	4233
2026-01-14 22:55:31.06	72.92	7.68	-49.1	-50.6	14.4	0.00e+00	0	28	0	1528823808	64	4257
2026-01-14 22:55:34.06	73.40	7.63	-49.1	-50.6	14.4	0.00e+00	0	29	0	1545601024	64	4266
2026-01-14 22:55:37.05	73.89	7.58	-49.3	-50.8	14.3	0.00e+00	0	28	0	1562378240	64	4360
2026-01-14 22:55:40.05	74.37	7.53	-49.1	-50.6	14.3	0.00e+00	0	28	0	1579155456	64	4280
2026-01-14 22:55:43.06	74.85	7.48	-49.1	-50.6	14.3	0.00e+00	0	28	0	1596981248	64	4283
2026-01-14 22:55:46.07	75.34	7.43	-49.1	-50.6	14.3	0.00e+00	0	29	0	1613758464	64	4254
2026-01-14 22:55:49.07	75.81	7.37	-49.2	-50.7	14.3	0.00e+00	0	28	0	1630535680	64	4333
2026-01-14 22:55:52.07	76.29	7.31	-49.4	-51.0	14.2	0.00e+00	0	28	0	1647312896	64	4450
2026-01-14 22:55:55.07	76.77	7.26	-49.4	-51.0	14.2	0.00e+00	0	28	0	1664090112	64	4483
2026-01-14 22:55:58.07	77.24	7.20	-49.5	-51.1	14.1	0.00e+00	0	28	0	1680867328	64	4500
2026-01-14 22:56:01.07	77.71	7.13	-49.7	-51.3	14.0	0.00e+00	0	28	0	1697644544	64	4617
2026-01-14 22:56:04.07	78.18	7.07	-49.7	-51.3	14.0	0.00e+00	0	28	0	1714421760	64	4606
2026-01-14 22:56:07.06	78.65	7.01	-49.7	-51.3	14.0	0.00e+00	0	29	0	1731198976	64	4611
2026-01-14 22:56:10.05	79.11	6.94	-49.5	-51.1	14.1	0.00e+00	0	28	0	1747976192	64	4543
2026-01-14 22:56:13.05	79.57	6.87	-49.7	-51.3	14.0	0.00e+00	0	28	0	1765801984	64	4617
2026-01-14 22:56:16.04	80.03	6.81	-49.7	-51.3	14.0	0.00e+00	0	28	0	1782579200	64	4622
2026-01-14 22:56:19.05	80.49	6.74	-49.5	-51.0	14.1	0.00e+00	0	28	0	1799356416	64	4483
2026-01-14 22:56:22.05	80.95	6.66	-49.2	-50.7	14.3	0.00e+00	0	28	0	1816133632	64	4309
2026-01-14 22:56:25.04	81.41	6.59	-49.4	-50.9	14.2	0.00e+00	0	28	0	1832910848	64	4432
2026-01-14 22:56:28.06	81.86	6.52	-49.6	-51.2	14.1	0.00e+00	0	28	0	1849688064	64	4554
2026-01-14 22:56:31.05	82.31	6.44	-49.8	-51.4	14.0	0.00e+00	0	28	0	1866465280	64	4679
2026-01-14 22:56:34.04	82.76	6.37	-49.6	-51.2	14.0	0.00e+00	0	28	0	1883242496	64	4581
2026-01-14 22:56:37.05	83.20	6.29	-49.8	-51.5	13.9	0.00e+00	0	28	0	1900019712	64	4735
2026-01-14 22:56:40.03	83.65	6.21	-49.8	-51.5	13.9	0.00e+00	0	28	0	1916796928	64	4733
2026-01-14 22:56:43.03	84.09	6.13	-50.0	-51.6	13.9	0.00e+00	0	28	0	1933574144	65	4543
2026-01-14 22:56:46.03	84.53	6.05	-49.8	-51.3	14.1	0.00e+00	0	28	0	1950351360	65	4391
2026-01-14 22:56:49.04	84.96	5.97	-49.7	-51.2	14.1	0.00e+00	0	28	0	1968177152	65	4340
2026-01-14 22:56:52.04	85.40	5.88	-49.9	-51.6	13.9	0.00e+00	0	28	0	1984954368	65	4528
2026-01-14 22:56:55.03	85.83	5.80	-50.1	-51.9	13.8	0.00e+00	0	28	0	2001731584	65	4655
2026-01-14 22:56:58.04	86.26	5.71	-49.9	-51.5	13.9	0.00e+00	0	29	0	2018508800	65	4484
2026-01-14 22:57:01.05	86.69	5.63	-50.1	-51.8	13.8	0.00e+00	0	29	0	2035286016	65	4640
2026-01-14 22:57:04.05	87.11	5.54	-50.2	-51.9	13.8	0.00e+00	0	28	0	2052063232	65	4652
2026-01-14 22:57:07.05	87.54	5.45	-50.0	-51.7	14.0	0.00e+00	0	28	0	2068840448	66	4294
2026-01-14 22:57:10.03	87.95	5.36	-49.7	-51.3	14.0	0.00e+00	0	29	0	2085617664	65	4367
2026-01-14 22:57:13.04	88.37	5.27	-50.1	-51.8	13.8	0.00e+00	0	28	0	2102394880	65	4625
2026-01-14 22:57:16.03	88.79	5.18	-50.1	-51.8	13.8	0.00e+00	0	29	0	2119172096	65	4626
2026-01-14 22:57:19.03	89.20	5.09	-49.9	-51.5	13.9	0.00e+00	0	28	0	2135949312	65	4473
2026-01-14 22:57:22.03	89.61	4.99	-58.5	-71.2	3.8	6.75e-01	0	29	104	2151677952	82	16173
2026-01-14 22:57:25.05	90.02	4.90	-59.3	-72.3	3.8	8.45e-01	0	29	104	2151677952	83	17464
2026-01-14 22:57:28.06	90.43	4.80	-60.1	-73.1	3.8	8.47e-01	0	28	104	2151677952	85	17018
2026-01-14 22:57:31.05	90.83	4.71	-60.2	-73.3	3.8	8.46e-01	0	28	104	2151677952	85	17296
2026-01-14 22:57:34.05	91.23	4.61	-60.3	-73.3	3.8	8.46e-01	0	28	104	2151677952	85	17481
2026-01-14 22:57:37.05	91.62	4.51	-60.4	-73.5	3.8	8.46e-01	0	28	104	2151677952	85	17743
2026-01-14 22:57:40.04	92.02	4.42	-60.5	-73.6	3.8	8.46e-01	0	28	104	2151677952	86	16930
2026-01-14 22:57:43.03	92.41	4.32	-60.6	-73.7	3.8	8.45e-01	0	28	104	2151677952	86	17103
2026-01-14 22:57:46.02	92.80	4.22	-60.6	-73.7	3.8	8.44e-01	0	28	104	2151677952	86	17159
2026-01-14 22:57:49.03	93.18	4.12	-60.5	-73.6	3.8	8.46e-01	0	29	104	2151677952	86	16945
2026-01-14 22:57:52.02	93.57	4.02	-60.5	-73.6	3.8	8.46e-01	0	29	104	2151677952	86	16916
2026-01-14 22:57:55.04	93.95	3.91	-60.4	-73.5	3.8	8.44e-01	0	29	104	2151677952	86	16767
2026-01-14 22:57:58.03	94.33	3.81	-60.3	-73.4	3.8	8.44e-01	0	29	104	2151677952	86	16679
2026-01-14 22:58:01.02	94.71	3.71	-60.3	-73.3	3.8	8.46e-01	0	28	104	2151677952	86	16501
2026-01-14 22:58:04.04	95.08	3.60	-60.2	-73.3	3.8	8.45e-01	0	29	104	2151677952	86	16472
2026-01-14 22:58:07.06	95.46	3.50	-60.2	-73.3	3.8	8.45e-01	0	29	104	2151677952	86	16404
2026-01-14 22:58:10.07	95.83	3.40	-60.2	-73.3	3.8	8.45e-01	0	28	104	2151677952	86	16361
2026-01-14 22:58:13.07	96.20	3.29	-60.2	-73.3	3.8	8.45e-01	0	29	104	2151677952	86	16417
2026-01-14 22:58:16.07	96.56	3.18	-60.2	-73.3	3.8	8.45e-01	0	29	104	2151677952	86	16363
2026-01-14 22:58:19.07	96.92	3.08	-60.2	-73.3	3.8	8.46e-01	0	28	104	2151677952	86	16315
2026-01-14 22:58:22.08	97.28	2.97	-60.2	-73.3	3.8	8.46e-01	0	29	104	2151677952	86	16323
2026-01-14 22:58:25.07	97.64	2.86	-60.2	-73.3	3.8	8.46e-01	0	29	104	2151677952	86	16387
2026-01-14 22:58:28.05	97.99	2.76	-60.2	-73.3	3.8	8.45e-01	0	29	104	2151677952	86	16395
2026-01-14 22:58:31.05	98.34	2.65	-60.2	-73.3	3.8	8.46e-01	0	29	104	2151677952	86	16434
2026-01-14 22:58:34.06	98.69	2.54	-60.2	-73.3	3.8	8.45e-01	0	29	104	2151677952	86	16432
2026-01-14 22:58:37.05	99.04	2.43	-60.2	-73.3	3.8	8.46e-01	0	29	104	2151677952	86	16336
2026-01-14 22:58:40.05	99.38	2.32	-60.3	-73.4	3.8	8.47e-01	0	28	104	2151677952	86	16513
2026-01-14 22:58:43.05	99.73	2.21	-60.2	-73.3	3.8	8.46e-01	0	29	104	2151677952	86	16325
2026-01-14 22:58:46.04	100.06	2.10	-60.2	-73.3	3.8	8.45e-01	0	29	104	2151677952	86	16382
2026-01-14 22:58:49.03	100.40	1.99	-60.2	-73.3	3.8	8.44e-01	0	29	104	2151677952	86	16369

#Closed at: 2026-01-14 22:58:51
#Recorded file [2151 MB]: D:/lorett/data/31004_260115_014940.dat