passes_logs/2026/01/14/R3.2S_Murmansk/R3.2S_Murmansk__20260114_124134_NOAA_21_JPSS-2_rec.log

#Pass ID: 20260114_124134_NOAA 21 (JPSS-2)
#Satellite: NOAA 21 (JPSS-2)
#Configuration: NOAA-21
#almurnet v.1.7.20251203
#Start time: 2026-01-14 12:41:36

#Version: 2.2.20231116
#Station: R3.2S_Murmansk
#Location: 33.079688 lon 68.888172 lat
#TLE: 1 54234U 22150A   26013.88494661  .00000045  00000+0  42271-4 0  9994
#TLE: 2 54234  98.7497 314.7982 0000672 299.1935  60.9174 14.19534564164652

#Time	Az	El	Level	Level2	SNR	BER	BlckErr	Temp	State	Recorded	gain1	gain2
2026-01-14 12:41:36.39	233.94	2.10	-60.7	-74.6	3.8	1.49e+00	0	28	0	0	86	18952
2026-01-14 12:41:39.40	234.22	2.25	-60.4	-74.2	3.8	1.49e+00	0	28	104	0	86	18244
2026-01-14 12:41:42.43	234.50	2.39	-60.2	-74.0	3.8	1.49e+00	0	28	104	0	86	17848
2026-01-14 12:41:45.45	234.79	2.54	-59.8	-73.6	3.8	1.49e+00	0	28	104	0	86	17063
2026-01-14 12:41:48.47	235.07	2.69	-58.9	-72.7	3.8	1.49e+00	0	28	104	0	84	17153
2026-01-14 12:41:51.49	235.36	2.83	-58.9	-72.6	3.8	1.49e+00	0	28	104	0	84	17056
2026-01-14 12:41:54.52	235.65	2.98	-58.9	-72.6	3.8	1.49e+00	0	28	104	0	84	17003
2026-01-14 12:41:57.54	235.94	3.13	-58.9	-72.7	3.8	1.49e+00	0	28	104	0	84	17107
2026-01-14 12:42:00.57	236.24	3.27	-58.9	-72.7	3.8	1.49e+00	0	28	104	0	84	17152
2026-01-14 12:42:03.60	236.54	3.42	-58.9	-72.5	3.8	1.49e+00	0	28	104	0	84	16834
2026-01-14 12:42:06.62	236.85	3.57	-58.8	-72.4	3.8	1.49e+00	0	28	104	0	84	16672
2026-01-14 12:42:09.65	237.15	3.71	-58.9	-72.6	3.8	1.49e+00	0	28	104	0	84	17059
2026-01-14 12:42:12.68	237.46	3.86	-58.9	-72.6	3.8	1.49e+00	0	28	104	0	84	17041
2026-01-14 12:42:15.70	237.77	4.01	-58.8	-72.3	3.8	1.49e+00	0	28	104	0	84	16435
2026-01-14 12:42:18.73	238.09	4.16	-58.7	-72.1	3.8	1.49e+00	0	28	104	0	84	16063
2026-01-14 12:42:21.75	238.40	4.31	-58.4	-72.0	3.8	1.49e+00	0	28	104	0	83	16708
2026-01-14 12:42:24.78	238.73	4.45	-58.4	-72.4	3.8	1.49e+00	0	28	104	0	83	17540
2026-01-14 12:42:27.81	239.05	4.60	-58.1	-69.4	4.1	1.48e+00	0	28	104	0	82	13183
2026-01-14 12:42:30.83	239.38	4.75	-57.8	-67.8	4.0	1.19e+00	0	28	104	0	82	11017
2026-01-14 12:42:33.86	239.71	4.90	-57.0	-63.0	7.5	1.06e-01	0	28	0	5242880	80	7090
2026-01-14 12:42:36.89	240.04	5.05	-55.0	-58.4	11.2	1.01e-04	0	28	0	14680064	76	5226
2026-01-14 12:42:39.91	240.38	5.20	-58.1	-69.1	3.9	1.01e+00	0	28	104	24117248	81	13438
2026-01-14 12:42:42.93	240.72	5.34	-52.4	-54.3	13.5	0.00e+00	0	28	0	31457280	71	4391
2026-01-14 12:42:45.95	241.06	5.49	-52.4	-54.2	13.5	0.00e+00	0	28	0	40894464	71	4338
2026-01-14 12:42:48.97	241.41	5.64	-52.6	-54.6	13.4	0.00e+00	0	28	0	50331648	71	4507
2026-01-14 12:42:51.99	241.76	5.79	-52.4	-54.2	13.5	0.00e+00	0	28	0	59768832	70	4591
2026-01-14 12:42:55.02	242.11	5.94	-52.3	-54.1	13.5	0.00e+00	0	28	0	69206016	70	4542
2026-01-14 12:42:58.05	242.47	6.08	-52.2	-54.0	13.6	0.00e+00	0	28	0	78643200	70	4469
2026-01-14 12:43:01.05	242.82	6.23	-52.2	-54.0	13.6	0.00e+00	0	28	0	88080384	70	4457
2026-01-14 12:43:04.08	243.19	6.38	-52.2	-54.0	13.6	0.00e+00	0	28	0	97517568	70	4475
2026-01-14 12:43:07.10	243.56	6.53	-51.8	-53.6	13.8	0.00e+00	0	28	0	106954752	70	4252
2026-01-14 12:43:10.13	243.93	6.67	-52.0	-53.8	13.7	0.00e+00	0	28	0	116391936	70	4350
2026-01-14 12:43:13.16	244.30	6.82	-51.5	-53.2	13.9	0.00e+00	0	28	0	125829120	69	4297
2026-01-14 12:43:16.18	244.68	6.97	-51.7	-53.4	13.8	0.00e+00	0	28	0	135266304	69	4429
2026-01-14 12:43:19.21	245.06	7.12	-51.5	-53.2	13.9	0.00e+00	0	28	0	144703488	69	4298
2026-01-14 12:43:22.24	245.45	7.26	-51.5	-53.1	14.0	0.00e+00	0	28	0	154140672	69	4289
2026-01-14 12:43:25.26	245.84	7.41	-51.6	-53.2	13.9	0.00e+00	0	28	0	163577856	69	4330
2026-01-14 12:43:28.29	246.23	7.56	-51.4	-53.0	14.0	0.00e+00	0	28	0	173015040	69	4208
2026-01-14 12:43:31.31	246.63	7.70	-51.5	-53.1	14.0	0.00e+00	0	28	0	182452224	69	4263
2026-01-14 12:43:34.34	247.03	7.85	-51.4	-53.0	14.0	0.00e+00	0	28	0	191889408	69	4227
2026-01-14 12:43:37.36	247.43	7.99	-51.4	-53.0	14.0	0.00e+00	0	28	0	201326592	69	4220
2026-01-14 12:43:40.39	247.84	8.14	-51.4	-53.0	14.0	0.00e+00	0	28	0	210763776	69	4219
2026-01-14 12:43:43.42	248.26	8.28	-51.5	-53.1	14.0	0.00e+00	0	28	0	220200960	69	4243
2026-01-14 12:43:46.44	248.67	8.43	-51.4	-53.0	14.0	0.00e+00	0	28	0	229638144	69	4215
2026-01-14 12:43:49.46	249.09	8.57	-51.2	-52.7	14.2	0.00e+00	0	28	0	239075328	69	4087
2026-01-14 12:43:52.49	249.52	8.71	-51.1	-52.6	14.1	0.00e+00	0	28	0	248512512	68	4272
2026-01-14 12:43:55.51	249.94	8.86	-51.0	-52.5	14.2	0.00e+00	0	28	0	257949696	68	4231
2026-01-14 12:43:58.53	250.38	9.00	-51.0	-52.5	14.2	0.00e+00	0	28	0	267386880	68	4219
2026-01-14 12:44:01.55	250.81	9.14	-51.0	-52.5	14.2	0.00e+00	0	28	0	276824064	68	4214
2026-01-14 12:44:04.58	251.25	9.28	-50.8	-52.3	14.3	0.00e+00	0	28	0	286261248	68	4109
2026-01-14 12:44:07.61	251.70	9.42	-51.0	-52.4	14.2	0.00e+00	0	28	0	296747008	68	4187
2026-01-14 12:44:10.64	252.15	9.56	-51.0	-52.5	14.2	0.00e+00	0	28	0	305135616	68	4209
2026-01-14 12:44:13.66	252.60	9.70	-50.8	-52.3	14.3	0.00e+00	0	28	0	315621376	68	4109
2026-01-14 12:44:16.68	253.06	9.83	-50.8	-52.3	14.3	0.00e+00	0	28	0	324009984	68	4120
2026-01-14 12:44:19.71	253.52	9.97	-50.5	-51.9	14.3	0.00e+00	0	28	0	334495744	67	4188
2026-01-14 12:44:22.74	253.98	10.11	-50.4	-51.8	14.4	0.00e+00	0	28	0	343932928	67	4128
2026-01-14 12:44:25.76	254.45	10.24	-50.5	-51.9	14.3	0.00e+00	0	28	0	353370112	67	4182
2026-01-14 12:44:28.79	254.93	10.38	-50.3	-51.7	14.4	0.00e+00	0	28	0	362807296	67	4070
2026-01-14 12:44:31.81	255.40	10.51	-50.3	-51.7	14.4	0.00e+00	0	28	0	372244480	67	4058
2026-01-14 12:44:34.84	255.89	10.64	-50.4	-51.9	14.4	0.00e+00	0	28	0	381681664	67	4150
2026-01-14 12:44:37.86	256.37	10.77	-50.4	-51.9	14.4	0.00e+00	0	28	0	391118848	67	4153
2026-01-14 12:44:40.89	256.86	10.90	-50.3	-51.7	14.4	0.00e+00	0	28	0	400556032	67	4079
2026-01-14 12:44:43.92	257.36	11.03	-50.4	-51.8	14.4	0.00e+00	0	28	0	409993216	67	4110
2026-01-14 12:44:46.93	257.86	11.16	-50.6	-52.0	14.3	0.00e+00	0	28	0	419430400	67	4241
2026-01-14 12:44:49.96	258.36	11.28	-50.6	-52.1	14.3	0.00e+00	0	28	0	428867584	67	4244
2026-01-14 12:44:52.99	258.87	11.41	-50.6	-52.0	14.3	0.00e+00	0	28	0	438304768	67	4241
2026-01-14 12:44:56.01	259.38	11.53	-50.6	-52.0	14.3	0.00e+00	0	28	0	447741952	67	4237
2026-01-14 12:44:59.04	259.89	11.65	-50.3	-51.7	14.4	0.00e+00	0	28	0	457179136	67	4094
2026-01-14 12:45:02.06	260.41	11.77	-50.4	-51.8	14.4	0.00e+00	0	28	0	466616320	67	4104
2026-01-14 12:45:05.09	260.94	11.89	-50.5	-51.9	14.4	0.00e+00	0	28	0	476053504	67	4163
2026-01-14 12:45:08.11	261.46	12.01	-50.5	-52.0	14.3	0.00e+00	0	27	0	485490688	67	4204
2026-01-14 12:45:11.13	261.99	12.13	-50.5	-52.0	14.3	0.00e+00	0	28	0	494927872	67	4195
2026-01-14 12:45:14.15	262.53	12.24	-50.5	-51.9	14.4	0.00e+00	0	28	0	504365056	67	4159
2026-01-14 12:45:17.18	263.07	12.35	-50.5	-51.9	14.4	0.00e+00	0	28	0	513802240	67	4169
2026-01-14 12:45:20.20	263.61	12.46	-50.5	-51.9	14.4	0.00e+00	0	27	0	523239424	67	4154
2026-01-14 12:45:23.23	264.16	12.57	-50.5	-52.0	14.3	0.00e+00	0	28	0	532676608	67	4205
2026-01-14 12:45:26.26	264.71	12.68	-50.5	-52.0	14.3	0.00e+00	0	28	0	542113792	67	4210
2026-01-14 12:45:29.28	265.27	12.78	-50.4	-51.8	14.4	0.00e+00	0	28	0	551550976	67	4127
2026-01-14 12:45:32.31	265.83	12.89	-50.3	-51.7	14.4	0.00e+00	0	28	0	560988160	67	4081
2026-01-14 12:45:35.34	266.39	12.99	-50.2	-51.6	14.4	0.00e+00	0	28	0	570425344	66	4266
2026-01-14 12:45:38.37	266.96	13.09	-50.3	-51.7	14.3	0.00e+00	0	28	0	579862528	66	4336
2026-01-14 12:45:41.39	267.53	13.18	-50.3	-51.7	14.3	0.00e+00	0	28	0	589299712	66	4311
2026-01-14 12:45:44.42	268.10	13.28	-50.2	-51.6	14.4	0.00e+00	0	28	0	598736896	66	4288
2026-01-14 12:45:47.44	268.68	13.37	-50.3	-51.7	14.3	0.00e+00	0	28	0	608174080	66	4303
2026-01-14 12:45:50.47	269.26	13.46	-50.5	-52.0	14.2	0.00e+00	0	28	0	617611264	66	4457
2026-01-14 12:45:53.50	269.84	13.55	-50.3	-51.7	14.4	0.00e+00	0	28	0	627048448	66	4301
2026-01-14 12:45:56.52	270.43	13.63	-50.3	-51.6	14.4	0.00e+00	0	28	0	636485632	66	4283
2026-01-14 12:45:59.55	271.02	13.71	-50.3	-51.7	14.3	0.00e+00	0	28	0	645922816	66	4332
2026-01-14 12:46:02.57	271.61	13.79	-50.2	-51.5	14.4	0.00e+00	0	28	0	655360000	66	4237
2026-01-14 12:46:05.59	272.21	13.87	-50.2	-51.6	14.4	0.00e+00	0	28	0	664797184	66	4276
2026-01-14 12:46:08.61	272.81	13.94	-50.0	-51.3	14.5	0.00e+00	0	28	0	674234368	66	4110
2026-01-14 12:46:11.63	273.41	14.02	-50.1	-51.5	14.4	0.00e+00	0	28	0	683671552	66	4202
2026-01-14 12:46:14.66	274.01	14.08	-50.2	-51.6	14.4	0.00e+00	0	28	0	693108736	66	4270
2026-01-14 12:46:17.68	274.62	14.15	-50.2	-51.6	14.4	0.00e+00	0	28	0	702545920	66	4264
2026-01-14 12:46:20.71	275.23	14.21	-50.0	-51.4	14.5	0.00e+00	0	28	0	711983104	66	4149
2026-01-14 12:46:23.74	275.84	14.28	-50.1	-51.4	14.5	0.00e+00	0	28	0	721420288	66	4164
2026-01-14 12:46:26.76	276.46	14.33	-50.1	-51.4	14.5	0.00e+00	0	27	0	730857472	66	4186
2026-01-14 12:46:29.79	277.08	14.39	-50.1	-51.4	14.5	0.00e+00	0	28	0	740294656	66	4177
2026-01-14 12:46:32.81	277.69	14.44	-50.3	-51.6	14.4	0.00e+00	0	28	0	749731840	66	4284
2026-01-14 12:46:35.84	278.32	14.49	-50.3	-51.6	14.4	0.00e+00	0	28	0	759169024	66	4278
2026-01-14 12:46:38.87	278.94	14.54	-50.1	-51.4	14.5	0.00e+00	0	28	0	768606208	66	4171
2026-01-14 12:46:41.89	279.57	14.58	-50.0	-51.4	14.5	0.00e+00	0	28	0	778043392	66	4154
2026-01-14 12:46:44.92	280.19	14.62	-50.2	-51.5	14.5	0.00e+00	0	28	0	787480576	66	4222
2026-01-14 12:46:47.94	280.82	14.65	-50.0	-51.4	14.5	0.00e+00	0	28	0	796917760	66	4159
2026-01-14 12:46:50.96	281.45	14.69	-50.2	-51.5	14.4	0.00e+00	0	27	0	806354944	66	4226
2026-01-14 12:46:53.99	282.08	14.72	-50.3	-51.6	14.4	0.00e+00	0	28	0	815792128	66	4284
2026-01-14 12:46:57.01	282.71	14.75	-50.1	-51.4	14.5	0.00e+00	0	28	0	825229312	66	4176
2026-01-14 12:47:00.04	283.35	14.77	-50.2	-51.6	14.4	0.00e+00	0	28	0	834666496	66	4260
2026-01-14 12:47:03.06	283.98	14.79	-50.4	-51.8	14.3	0.00e+00	0	28	0	844103680	66	4363
2026-01-14 12:47:06.09	284.61	14.81	-50.3	-51.6	14.4	0.00e+00	0	28	0	853540864	66	4282
2026-01-14 12:47:09.11	285.25	14.82	-50.3	-51.7	14.4	0.00e+00	0	28	0	862978048	66	4304
2026-01-14 12:47:12.13	285.88	14.83	-50.4	-51.8	14.4	0.00e+00	0	28	0	872415232	66	4342
2026-01-14 12:47:15.16	286.52	14.84	-50.5	-51.9	14.3	0.00e+00	0	28	0	881852416	66	4396
2026-01-14 12:47:18.19	287.16	14.85	-50.5	-51.9	14.3	0.00e+00	0	28	0	892338176	66	4416
2026-01-14 12:47:21.22	287.80	14.85	-50.4	-51.8	14.4	0.00e+00	0	28	0	900726784	66	4343
2026-01-14 12:47:24.25	288.43	14.84	-50.5	-51.9	14.3	0.00e+00	0	27	0	911212544	66	4396
2026-01-14 12:47:27.27	289.07	14.84	-50.4	-51.8	14.4	0.00e+00	0	28	0	920649728	66	4342
2026-01-14 12:47:30.30	289.70	14.83	-50.2	-51.6	14.4	0.00e+00	0	27	0	930086912	66	4249
2026-01-14 12:47:33.33	290.34	14.82	-50.2	-51.5	14.5	0.00e+00	0	28	0	939524096	66	4226
2026-01-14 12:47:36.36	290.98	14.80	-50.2	-51.5	14.5	0.00e+00	0	28	0	948961280	66	4225
2026-01-14 12:47:39.39	291.61	14.78	-50.1	-51.4	14.5	0.00e+00	0	28	0	958398464	66	4149
2026-01-14 12:47:42.41	292.24	14.76	-50.1	-51.5	14.5	0.00e+00	0	28	0	967835648	66	4204
2026-01-14 12:47:45.44	292.88	14.74	-50.2	-51.6	14.4	0.00e+00	0	28	0	977272832	66	4246
2026-01-14 12:47:48.46	293.51	14.71	-50.3	-51.6	14.4	0.00e+00	0	28	0	986710016	66	4277
2026-01-14 12:47:51.48	294.14	14.68	-50.2	-51.6	14.4	0.00e+00	0	28	0	996147200	66	4258
2026-01-14 12:47:54.52	294.77	14.64	-50.2	-51.6	14.4	0.00e+00	0	28	0	1005584384	66	4249
2026-01-14 12:47:57.54	295.39	14.61	-50.2	-51.5	14.5	0.00e+00	0	28	0	1015021568	66	4212
2026-01-14 12:48:00.57	296.02	14.57	-50.1	-51.5	14.5	0.00e+00	0	28	0	1024458752	66	4214
2026-01-14 12:48:03.59	296.64	14.52	-50.4	-51.8	14.4	0.00e+00	0	28	0	1033895936	66	4344
2026-01-14 12:48:06.62	297.27	14.48	-50.3	-51.6	14.4	0.00e+00	0	28	0	1043333120	66	4276
2026-01-14 12:48:09.64	297.88	14.43	-50.2	-51.5	14.5	0.00e+00	0	27	0	1052770304	66	4227
2026-01-14 12:48:12.67	298.50	14.37	-50.4	-51.7	14.4	0.00e+00	0	28	0	1062207488	66	4331
2026-01-14 12:48:15.70	299.12	14.32	-50.1	-51.5	14.5	0.00e+00	0	28	0	1071644672	66	4197
2026-01-14 12:48:18.72	299.73	14.26	-50.3	-51.7	14.4	0.00e+00	0	28	0	1081081856	66	4311
2026-01-14 12:48:21.75	300.34	14.20	-50.3	-51.7	14.4	0.00e+00	0	28	0	1090519040	66	4305
2026-01-14 12:48:24.78	300.95	14.13	-50.3	-51.7	14.4	0.00e+00	0	28	0	1099956224	66	4302
2026-01-14 12:48:27.80	301.56	14.07	-50.2	-51.5	14.4	0.00e+00	0	28	0	1109393408	66	4220
2026-01-14 12:48:30.83	302.16	14.00	-50.2	-51.5	14.4	0.00e+00	0	28	0	1118830592	66	4229
2026-01-14 12:48:33.85	302.76	13.92	-50.2	-51.5	14.4	0.00e+00	0	28	0	1128267776	66	4229
2026-01-14 12:48:36.88	303.36	13.85	-50.2	-51.5	14.4	0.00e+00	0	28	0	1137704960	66	4226
2026-01-14 12:48:39.92	303.95	13.77	-50.1	-51.4	14.5	0.00e+00	0	28	0	1147142144	66	4186
2026-01-14 12:48:42.95	304.55	13.69	-50.0	-51.3	14.5	0.00e+00	0	28	0	1156579328	66	4119
2026-01-14 12:48:45.97	305.13	13.61	-50.0	-51.4	14.5	0.00e+00	0	28	0	1166016512	66	4147
2026-01-14 12:48:48.99	305.72	13.52	-50.1	-51.5	14.4	0.00e+00	0	28	0	1175453696	66	4201
2026-01-14 12:48:52.02	306.30	13.43	-50.2	-51.6	14.4	0.00e+00	0	28	0	1184890880	66	4245
2026-01-14 12:48:55.05	306.88	13.34	-50.2	-51.6	14.4	0.00e+00	0	28	0	1194328064	66	4247
2026-01-14 12:48:58.07	307.45	13.25	-50.2	-51.6	14.4	0.00e+00	0	28	0	1203765248	66	4267
2026-01-14 12:49:01.10	308.02	13.16	-50.3	-51.6	14.4	0.00e+00	0	28	0	1213202432	66	4283
2026-01-14 12:49:04.13	308.59	13.06	-50.3	-51.7	14.4	0.00e+00	0	28	0	1222639616	66	4302
2026-01-14 12:49:07.16	309.15	12.96	-50.3	-51.7	14.3	0.00e+00	0	28	0	1232076800	66	4314
2026-01-14 12:49:10.18	309.71	12.86	-50.3	-51.7	14.4	0.00e+00	0	28	0	1241513984	66	4294
2026-01-14 12:49:13.21	310.27	12.76	-50.2	-51.6	14.4	0.00e+00	0	28	0	1250951168	66	4275
2026-01-14 12:49:16.23	310.82	12.65	-50.2	-51.6	14.4	0.00e+00	0	28	0	1260388352	66	4252
2026-01-14 12:49:19.26	311.37	12.55	-50.2	-51.5	14.4	0.00e+00	0	28	0	1269825536	66	4232
2026-01-14 12:49:22.29	311.91	12.44	-50.1	-51.5	14.4	0.00e+00	0	28	0	1279262720	66	4205
2026-01-14 12:49:25.32	312.46	12.33	-50.0	-51.3	14.5	0.00e+00	0	28	0	1288699904	66	4139
2026-01-14 12:49:28.34	312.99	12.22	-49.9	-51.2	14.5	0.00e+00	0	28	0	1298137088	66	4083
2026-01-14 12:49:31.36	313.52	12.10	-50.0	-51.3	14.4	0.00e+00	0	28	0	1307574272	66	4143
2026-01-14 12:49:34.39	314.05	11.99	-50.3	-51.7	14.3	0.00e+00	0	28	0	1317011456	66	4315
2026-01-14 12:49:37.42	314.58	11.87	-50.3	-51.7	14.3	0.00e+00	0	28	0	1326448640	66	4328
2026-01-14 12:49:40.44	315.10	11.75	-50.3	-51.8	14.3	0.00e+00	0	28	0	1335885824	66	4342
2026-01-14 12:49:43.47	315.61	11.63	-50.3	-51.7	14.3	0.00e+00	0	28	0	1345323008	66	4295
2026-01-14 12:49:46.49	316.13	11.51	-50.3	-51.7	14.3	0.00e+00	0	28	0	1354760192	66	4326
2026-01-14 12:49:49.52	316.64	11.39	-50.2	-51.6	14.3	0.00e+00	0	27	0	1364197376	66	4283
2026-01-14 12:49:52.55	317.14	11.26	-50.6	-52.0	14.2	0.00e+00	0	28	0	1374683136	66	4461
2026-01-14 12:49:55.58	317.64	11.14	-50.5	-51.9	14.2	0.00e+00	0	28	0	1383071744	66	4422
2026-01-14 12:49:58.61	318.14	11.01	-50.6	-52.1	14.1	0.00e+00	0	27	0	1393557504	66	4508
2026-01-14 12:50:01.64	318.63	10.88	-50.6	-52.1	14.1	0.00e+00	0	28	0	1402994688	66	4498
2026-01-14 12:50:04.66	319.12	10.75	-50.6	-52.0	14.1	0.00e+00	0	28	0	1412431872	66	4481
2026-01-14 12:50:07.69	319.60	10.62	-50.7	-52.3	14.1	0.00e+00	0	28	0	1421869056	66	4599
2026-01-14 12:50:10.70	320.08	10.49	-50.8	-52.4	14.0	0.00e+00	0	28	0	1431306240	66	4654
2026-01-14 12:50:13.73	320.55	10.36	-50.9	-52.5	14.0	0.00e+00	0	28	0	1440743424	67	4459
2026-01-14 12:50:16.76	321.02	10.23	-51.0	-52.5	14.0	0.00e+00	0	28	0	1450180608	67	4481
2026-01-14 12:50:19.78	321.49	10.09	-50.8	-52.4	14.1	0.00e+00	0	28	0	1459617792	67	4392
2026-01-14 12:50:22.81	321.95	9.96	-50.7	-52.2	14.2	0.00e+00	0	28	0	1469054976	67	4322
2026-01-14 12:50:25.83	322.41	9.82	-50.7	-52.2	14.1	0.00e+00	0	28	0	1478492160	67	4328
2026-01-14 12:50:28.85	322.86	9.68	-51.0	-52.5	14.0	0.00e+00	0	28	0	1487929344	67	4477
2026-01-14 12:50:31.88	323.31	9.55	-51.1	-52.6	14.0	0.00e+00	0	28	0	1497366528	67	4540
2026-01-14 12:50:34.91	323.76	9.41	-51.1	-52.7	13.9	0.00e+00	0	28	0	1506803712	67	4592
2026-01-14 12:50:37.93	324.20	9.27	-51.2	-52.8	13.9	0.00e+00	0	28	0	1516240896	67	4614
2026-01-14 12:50:40.95	324.64	9.13	-51.0	-52.6	14.0	0.00e+00	0	28	0	1525678080	67	4500
2026-01-14 12:50:43.98	325.07	8.99	-51.0	-52.6	14.0	0.00e+00	0	28	0	1535115264	67	4504
2026-01-14 12:50:47.00	325.50	8.85	-51.1	-52.7	13.9	0.00e+00	0	28	0	1544552448	67	4583
2026-01-14 12:50:50.03	325.93	8.71	-51.2	-52.8	13.9	0.00e+00	0	28	0	1553989632	67	4617
2026-01-14 12:50:53.06	326.35	8.56	-51.2	-52.8	13.8	0.00e+00	0	28	0	1563426816	67	4642
2026-01-14 12:50:56.09	326.77	8.42	-51.3	-53.0	13.8	0.00e+00	0	28	0	1572864000	67	4714
2026-01-14 12:50:59.11	327.18	8.28	-51.3	-52.9	13.8	0.00e+00	0	28	0	1582301184	67	4667
2026-01-14 12:51:02.13	327.59	8.13	-51.1	-52.7	13.9	0.00e+00	0	28	0	1591738368	67	4572
2026-01-14 12:51:05.15	328.00	7.99	-51.2	-52.8	13.8	0.00e+00	0	28	0	1601175552	67	4651
2026-01-14 12:51:08.17	328.40	7.85	-51.4	-53.0	13.7	0.00e+00	0	28	0	1610612736	67	4746
2026-01-14 12:51:11.20	328.80	7.70	-51.5	-53.2	13.8	0.00e+00	0	28	0	1620049920	68	4563
2026-01-14 12:51:14.23	329.19	7.56	-51.8	-53.5	13.6	0.00e+00	0	28	0	1629487104	68	4734
2026-01-14 12:51:17.25	329.58	7.41	-51.5	-53.1	13.8	0.00e+00	0	28	0	1638924288	68	4530
2026-01-14 12:51:20.27	329.97	7.27	-51.7	-53.4	13.6	0.00e+00	0	28	0	1648361472	68	4691
2026-01-14 12:51:23.29	330.35	7.12	-51.7	-53.4	13.7	0.00e+00	0	28	0	1657798656	68	4672
2026-01-14 12:51:26.32	330.73	6.98	-51.5	-53.2	13.8	0.00e+00	0	27	0	1667235840	68	4564
2026-01-14 12:51:29.32	331.11	6.83	-51.8	-53.5	13.7	0.00e+00	0	28	0	1676673024	69	4490
2026-01-14 12:51:32.35	331.48	6.68	-51.6	-53.3	13.8	0.00e+00	0	28	0	1686110208	69	4346
2026-01-14 12:51:35.37	331.85	6.54	-51.6	-53.3	13.8	0.00e+00	0	28	0	1695547392	69	4341
2026-01-14 12:51:38.39	332.21	6.39	-51.6	-53.3	13.7	0.00e+00	0	28	0	1704984576	69	4377
2026-01-14 12:51:41.42	332.58	6.24	-51.8	-53.5	13.6	0.00e+00	0	28	0	1714421760	69	4481
2026-01-14 12:51:44.44	332.94	6.10	-51.7	-53.4	13.7	0.00e+00	0	28	0	1723858944	69	4428
2026-01-14 12:51:47.47	333.29	5.95	-51.8	-53.6	13.6	0.00e+00	0	28	0	1733296128	69	4521
2026-01-14 12:51:50.49	333.64	5.80	-52.0	-53.9	13.4	0.00e+00	0	28	0	1742733312	69	4665
2026-01-14 12:51:53.52	333.99	5.66	-52.0	-53.9	13.4	0.00e+00	0	28	0	1752170496	69	4676
2026-01-14 12:51:56.54	334.34	5.51	-52.1	-54.0	13.3	0.00e+00	0	28	0	1761607680	69	4725
2026-01-14 12:51:59.57	334.68	5.36	-51.8	-53.7	13.4	0.00e+00	0	28	0	1771044864	69	4598
2026-01-14 12:52:02.59	335.02	5.22	-52.1	-54.1	13.2	0.00e+00	0	28	0	1780482048	69	4779
2026-01-14 12:52:05.62	335.35	5.07	-52.3	-54.4	13.0	0.00e+00	0	28	0	1789919232	69	4929
2026-01-14 12:52:08.65	335.68	4.92	-59.0	-72.8	3.8	1.49e+00	0	28	104	1797259264	83	18358
2026-01-14 12:52:11.68	336.01	4.78	-59.9	-73.8	3.8	1.49e+00	0	28	104	1797259264	85	18421
2026-01-14 12:52:14.70	336.34	4.63	-60.3	-74.2	3.8	1.49e+00	0	28	104	1797259264	85	19224
2026-01-14 12:52:17.73	336.66	4.48	-60.5	-74.4	3.8	1.49e+00	0	28	104	1797259264	86	18537
2026-01-14 12:52:20.76	336.98	4.34	-60.6	-74.5	3.8	1.49e+00	0	28	104	1797259264	86	18763
2026-01-14 12:52:23.78	337.30	4.19	-60.7	-74.5	3.8	1.49e+00	0	28	104	1797259264	86	18845
2026-01-14 12:52:26.81	337.61	4.04	-60.7	-74.6	3.8	1.49e+00	0	28	104	1797259264	86	19015
2026-01-14 12:52:29.84	337.92	3.90	-60.7	-74.6	3.8	1.49e+00	0	28	104	1797259264	86	19023
2026-01-14 12:52:32.86	338.23	3.75	-60.7	-74.5	3.8	1.49e+00	0	28	104	1797259264	86	18826
2026-01-14 12:52:35.88	338.54	3.60	-60.6	-74.4	3.8	1.49e+00	0	28	104	1797259264	86	18695
2026-01-14 12:52:38.90	338.84	3.46	-60.6	-74.4	3.8	1.49e+00	0	28	104	1797259264	86	18670
2026-01-14 12:52:41.92	339.14	3.31	-60.6	-74.4	3.8	1.49e+00	0	28	104	1797259264	86	18568
2026-01-14 12:52:44.95	339.43	3.17	-60.5	-74.4	3.8	1.49e+00	0	28	104	1797259264	86	18600
2026-01-14 12:52:48.06	339.73	3.02	-60.5	-74.4	3.8	1.49e+00	0	28	104	1797259264	86	18544
2026-01-14 12:52:51.23	340.04	2.87	-60.5	-74.4	3.8	1.49e+00	0	28	104	1797259264	86	18522
2026-01-14 12:52:54.12	340.31	2.73	-60.5	-74.3	3.8	1.49e+00	0	28	104	1797259264	86	18376
2026-01-14 12:52:57.28	340.61	2.58	-60.5	-74.3	3.8	1.49e+00	0	28	104	1797259264	86	18443
2026-01-14 12:53:00.17	340.88	2.44	-60.4	-74.3	3.8	1.49e+00	0	28	104	1797259264	86	18334
2026-01-14 12:53:03.34	341.18	2.29	-60.4	-74.3	3.8	1.49e+00	0	28	104	1797259264	86	18365
2026-01-14 12:53:06.22	341.44	2.15	-60.4	-74.3	3.8	1.49e+00	0	28	104	1797259264	86	18357
2026-01-14 12:53:09.39	341.73	2.00	-60.4	-74.2	3.8	1.49e+00	0	28	104	1797259264	86	18305

#Closed at: 2026-01-14 12:53:11
#Recorded file [1797 MB]: D:/lorett/data/31004_260114_154136.dat