passes_logs/2026/01/14/R3.2S_Murmansk/R3.2S_Murmansk__20260114_051010_NOAA_20_JPSS-1_rec.log

#Pass ID: 20260114_051010_NOAA 20 (JPSS-1)
#Satellite: NOAA 20 (JPSS-1)
#Configuration: NOAA 20
#almurnet v.1.7.20251203
#Start time: 2026-01-14 05:10:11

#Version: 2.2.20231116
#Station: R3.2S_Murmansk
#Location: 33.079688 lon 68.888172 lat
#TLE: 1 43013U 17073A   26013.56788096  .00000060  00000+0  49292-4 0  9995
#TLE: 2 43013  98.7633 314.5224 0001558  41.3934 318.7360 14.19535692422532

#Time	Az	El	Level	Level2	SNR	BER	BlckErr	Temp	State	Recorded	gain1	gain2
2026-01-14 05:10:11.32	62.18	2.05	-54.6	-70.6	3.8	1.49e+00	0	27	0	0	74	23938
2026-01-14 05:10:14.34	61.99	2.22	-54.6	-70.6	3.8	1.49e+00	0	27	104	0	74	23949
2026-01-14 05:10:17.37	61.79	2.39	-54.6	-70.6	3.8	1.49e+00	0	27	104	0	74	24019
2026-01-14 05:10:20.39	61.59	2.57	-54.6	-70.6	3.8	1.49e+00	0	27	104	0	74	23993
2026-01-14 05:10:23.42	61.39	2.74	-54.6	-70.6	3.8	1.49e+00	0	27	104	0	74	24098
2026-01-14 05:10:26.44	61.18	2.92	-54.6	-70.6	3.8	1.49e+00	0	27	104	0	74	24061
2026-01-14 05:10:29.47	60.97	3.09	-54.6	-70.6	3.8	1.49e+00	0	27	104	0	74	24088
2026-01-14 05:10:32.49	60.77	3.27	-54.6	-70.6	3.8	1.49e+00	0	27	104	0	74	24044
2026-01-14 05:10:35.52	60.55	3.44	-54.6	-70.6	3.8	1.49e+00	0	27	104	0	74	23994
2026-01-14 05:10:38.54	60.34	3.62	-54.6	-70.6	3.8	1.49e+00	0	27	104	0	74	23995
2026-01-14 05:10:41.56	60.12	3.80	-54.6	-70.6	3.8	1.49e+00	0	27	104	0	74	24094
2026-01-14 05:10:44.59	59.90	3.98	-54.6	-70.6	3.8	1.49e+00	0	27	104	0	74	24078
2026-01-14 05:10:47.62	59.67	4.16	-54.7	-70.6	3.8	1.49e+00	0	27	104	0	74	24122
2026-01-14 05:10:50.65	59.45	4.34	-54.6	-70.6	3.8	1.49e+00	0	27	104	0	74	24062
2026-01-14 05:10:53.68	59.22	4.52	-54.6	-70.6	3.8	1.49e+00	0	27	104	0	74	24062
2026-01-14 05:10:56.70	58.99	4.70	-54.6	-70.6	3.8	1.49e+00	0	27	104	0	74	24083
2026-01-14 05:10:59.73	58.75	4.89	-54.7	-70.6	3.8	1.49e+00	0	27	104	0	74	24079
2026-01-14 05:11:02.76	58.51	5.07	-54.6	-70.6	3.8	1.49e+00	0	27	104	0	74	24037
2026-01-14 05:11:05.78	58.27	5.26	-54.6	-70.6	3.8	1.49e+00	0	27	104	0	74	24053
2026-01-14 05:11:08.80	58.02	5.44	-54.6	-70.6	3.8	1.49e+00	0	27	104	0	74	24018
2026-01-14 05:11:11.82	57.78	5.63	-54.6	-70.6	3.8	1.49e+00	0	27	104	0	74	24125
2026-01-14 05:11:14.86	57.52	5.81	-54.7	-70.6	3.8	1.49e+00	0	27	104	0	74	24102
2026-01-14 05:11:17.89	57.27	6.00	-54.7	-70.6	3.8	1.49e+00	0	27	104	0	74	24102
2026-01-14 05:11:20.92	57.01	6.19	-54.7	-70.6	3.8	1.49e+00	0	27	104	0	74	24090
2026-01-14 05:11:23.94	56.75	6.38	-54.6	-70.6	3.8	1.49e+00	0	27	104	0	74	24125
2026-01-14 05:11:26.97	56.48	6.57	-54.6	-70.7	3.8	1.49e+00	0	27	104	0	74	24171
2026-01-14 05:11:30.00	56.21	6.76	-54.7	-70.7	3.8	1.49e+00	0	27	104	0	74	24158
2026-01-14 05:11:33.03	55.94	6.95	-54.6	-70.6	3.8	1.49e+00	0	27	104	0	74	24100
2026-01-14 05:11:36.05	55.66	7.15	-54.7	-70.7	3.8	1.49e+00	0	27	104	0	74	24179
2026-01-14 05:11:39.08	55.38	7.34	-54.7	-70.6	3.8	1.49e+00	0	27	104	0	74	24119
2026-01-14 05:11:42.10	55.10	7.53	-54.7	-70.7	3.8	1.49e+00	0	27	104	0	74	24217
2026-01-14 05:11:45.13	54.81	7.73	-54.7	-70.7	3.8	1.49e+00	0	28	104	0	74	24197
2026-01-14 05:11:48.15	54.52	7.93	-54.7	-70.7	3.8	1.49e+00	0	27	104	0	74	24164
2026-01-14 05:11:51.17	54.22	8.12	-54.7	-70.7	3.8	1.49e+00	0	27	104	0	74	24135
2026-01-14 05:11:54.19	53.92	8.32	-54.7	-70.6	3.8	1.49e+00	0	27	104	0	74	24125
2026-01-14 05:11:57.22	53.62	8.52	-54.7	-70.6	3.9	1.49e+00	0	27	104	0	74	24128
2026-01-14 05:12:00.25	53.31	8.72	-54.7	-70.6	3.8	1.49e+00	0	28	104	0	74	24116
2026-01-14 05:12:03.27	52.99	8.92	-54.7	-70.7	3.8	1.49e+00	0	27	104	0	74	24189
2026-01-14 05:12:06.30	52.68	9.12	-54.7	-70.6	3.8	1.49e+00	0	27	104	0	74	24119
2026-01-14 05:12:09.33	52.35	9.32	-54.7	-70.7	3.8	1.49e+00	0	27	104	0	74	24185
2026-01-14 05:12:12.35	52.03	9.52	-54.7	-70.6	3.8	1.49e+00	0	27	104	0	74	24129
2026-01-14 05:12:15.38	51.69	9.72	-54.7	-70.6	3.8	1.49e+00	0	27	104	0	74	24130
2026-01-14 05:12:18.40	51.36	9.93	-54.7	-70.7	3.8	1.49e+00	0	27	104	0	74	24188
2026-01-14 05:12:21.44	51.01	10.13	-54.7	-70.7	3.8	1.49e+00	0	27	104	0	74	24168
2026-01-14 05:12:24.46	50.67	10.33	-54.7	-70.7	3.8	1.49e+00	0	27	104	0	74	24155
2026-01-14 05:12:27.49	50.32	10.54	-54.7	-70.7	3.8	1.49e+00	0	27	104	0	74	24176
2026-01-14 05:12:30.52	49.96	10.75	-54.7	-70.7	3.8	1.49e+00	0	27	104	0	74	24160
2026-01-14 05:12:33.54	49.60	10.95	-54.7	-70.7	3.8	1.49e+00	0	27	104	0	74	24208
2026-01-14 05:12:36.57	49.23	11.16	-54.7	-70.7	3.8	1.49e+00	0	28	104	0	74	24182
2026-01-14 05:12:39.59	48.86	11.37	-54.7	-70.7	3.8	1.49e+00	0	27	104	0	74	24162
2026-01-14 05:12:42.62	48.48	11.58	-54.7	-70.7	3.8	1.49e+00	0	28	104	0	74	24180
2026-01-14 05:12:45.65	48.10	11.79	-54.7	-70.7	3.8	1.49e+00	0	27	104	0	74	24177
2026-01-14 05:12:48.67	47.71	11.99	-54.7	-70.7	3.8	1.49e+00	0	28	104	0	74	24235
2026-01-14 05:12:51.70	47.31	12.20	-54.7	-70.7	3.8	1.49e+00	0	28	104	0	74	24151
2026-01-14 05:12:54.71	46.91	12.41	-54.7	-70.7	3.8	1.49e+00	0	28	104	0	74	24188
2026-01-14 05:12:57.74	46.51	12.62	-54.7	-70.7	3.8	1.49e+00	0	28	104	0	74	24203
2026-01-14 05:13:00.77	46.09	12.84	-54.7	-70.7	3.8	1.49e+00	0	28	104	0	74	24226
2026-01-14 05:13:03.80	45.68	13.05	-54.7	-70.7	3.8	1.49e+00	0	28	104	0	74	24140
2026-01-14 05:13:06.83	45.25	13.26	-54.7	-70.7	3.8	1.49e+00	0	28	104	0	74	24186
2026-01-14 05:13:09.85	44.82	13.47	-54.7	-70.7	3.8	1.49e+00	0	28	104	0	74	24174
2026-01-14 05:13:12.88	44.38	13.68	-54.7	-70.7	3.8	1.49e+00	0	27	104	0	74	24191
2026-01-14 05:13:15.91	43.94	13.89	-54.7	-70.7	3.8	1.49e+00	0	28	104	0	74	24193
2026-01-14 05:13:18.93	43.49	14.11	-54.7	-70.6	3.8	1.49e+00	0	27	104	0	74	24118
2026-01-14 05:13:21.96	43.03	14.32	-54.7	-70.7	3.8	1.49e+00	0	28	104	0	74	24158
2026-01-14 05:13:24.98	42.57	14.53	-54.7	-70.7	3.8	1.49e+00	0	28	104	0	74	24216
2026-01-14 05:13:28.01	42.10	14.74	-54.7	-70.7	3.8	1.49e+00	0	28	104	0	74	24224
2026-01-14 05:13:31.04	41.62	14.96	-54.7	-70.7	3.8	1.49e+00	0	28	104	0	74	24188
2026-01-14 05:13:34.07	41.13	15.17	-54.7	-70.7	3.8	1.49e+00	0	28	104	0	74	24238
2026-01-14 05:13:37.09	40.64	15.38	-54.7	-70.7	3.8	1.49e+00	0	27	104	0	74	24172
2026-01-14 05:13:40.12	40.15	15.59	-54.7	-70.7	3.8	1.49e+00	0	28	104	0	74	24180
2026-01-14 05:13:43.15	39.64	15.80	-54.7	-70.7	3.8	1.49e+00	0	27	104	0	74	24193
2026-01-14 05:13:46.18	39.13	16.01	-54.7	-70.7	3.8	1.49e+00	0	27	104	0	74	24154
2026-01-14 05:13:49.20	38.61	16.22	-54.7	-70.7	3.8	1.49e+00	0	28	104	0	74	24188
2026-01-14 05:13:52.23	38.08	16.43	-54.7	-70.7	3.9	1.49e+00	0	28	104	0	74	24176
2026-01-14 05:13:55.25	37.54	16.64	-54.7	-70.7	3.8	1.49e+00	0	28	104	0	74	24210
2026-01-14 05:13:58.28	37.00	16.85	-54.7	-70.6	3.8	1.49e+00	0	28	104	0	74	24115
2026-01-14 05:14:01.31	36.45	17.05	-54.7	-70.7	3.8	1.49e+00	0	27	104	0	74	24165
2026-01-14 05:14:04.34	35.89	17.26	-54.7	-70.7	3.8	1.49e+00	0	28	104	0	74	24226
2026-01-14 05:14:07.36	35.33	17.46	-54.7	-70.7	3.8	1.49e+00	0	28	104	0	74	24177
2026-01-14 05:14:10.39	34.75	17.67	-54.7	-70.6	3.8	1.49e+00	0	28	104	0	74	24127
2026-01-14 05:14:13.41	34.17	17.87	-54.7	-70.7	3.8	1.49e+00	0	28	104	0	74	24196
2026-01-14 05:14:16.44	33.58	18.07	-54.7	-70.6	3.8	1.49e+00	0	27	104	0	74	24107
2026-01-14 05:14:19.47	32.99	18.27	-54.7	-70.6	3.8	1.49e+00	0	28	104	0	74	24127
2026-01-14 05:14:22.50	32.38	18.46	-54.7	-70.7	3.8	1.49e+00	0	28	104	0	74	24167
2026-01-14 05:14:25.52	31.77	18.66	-54.7	-70.7	3.8	1.49e+00	0	27	104	0	74	24177
2026-01-14 05:14:28.55	31.15	18.85	-54.7	-70.7	3.8	1.49e+00	0	28	104	0	74	24149
2026-01-14 05:14:31.58	30.52	19.04	-54.7	-70.7	3.8	1.49e+00	0	28	104	0	74	24179
2026-01-14 05:14:34.61	29.88	19.23	-54.7	-70.7	3.8	1.49e+00	0	27	104	0	74	24158
2026-01-14 05:14:37.62	29.24	19.42	-54.7	-70.7	3.8	1.49e+00	0	28	104	0	74	24197
2026-01-14 05:14:40.65	28.58	19.60	-54.7	-70.7	3.8	1.49e+00	0	28	104	0	74	24198
2026-01-14 05:14:43.69	27.92	19.79	-54.7	-70.7	3.8	1.49e+00	0	28	104	0	74	24217
2026-01-14 05:14:46.71	27.25	19.96	-54.7	-70.7	3.8	1.49e+00	0	28	104	0	74	24147
2026-01-14 05:14:49.74	26.57	20.14	-54.7	-70.7	3.8	1.49e+00	0	28	104	0	74	24159
2026-01-14 05:14:52.77	25.89	20.31	-54.7	-70.6	3.8	1.49e+00	0	28	104	0	74	24130
2026-01-14 05:14:55.80	25.20	20.48	-54.6	-70.6	3.8	1.49e+00	0	28	104	0	74	24098
2026-01-14 05:14:58.83	24.50	20.65	-54.7	-70.7	3.8	1.49e+00	0	28	104	0	74	24178
2026-01-14 05:15:01.86	23.79	20.81	-54.7	-70.6	3.8	1.49e+00	0	27	104	0	74	24113
2026-01-14 05:15:04.89	23.07	20.97	-54.7	-70.7	3.8	1.49e+00	0	28	104	0	74	24142
2026-01-14 05:15:07.92	22.35	21.13	-54.7	-70.7	3.8	1.49e+00	0	28	104	0	74	24220
2026-01-14 05:15:10.94	21.62	21.28	-54.7	-70.7	3.8	1.49e+00	0	27	104	0	74	24185
2026-01-14 05:15:13.96	20.89	21.43	-54.7	-70.7	3.8	1.49e+00	0	28	104	0	74	24213
2026-01-14 05:15:16.99	20.14	21.57	-54.7	-70.7	3.8	1.49e+00	0	27	104	0	74	24208
2026-01-14 05:15:20.01	19.39	21.71	-54.7	-70.6	3.8	1.49e+00	0	27	104	0	74	24100
2026-01-14 05:15:23.04	18.63	21.84	-54.7	-70.6	3.8	1.49e+00	0	28	104	0	74	24109
2026-01-14 05:15:26.06	17.87	21.97	-54.7	-70.6	3.8	1.49e+00	0	28	104	0	74	24120
2026-01-14 05:15:29.09	17.10	22.09	-54.7	-70.7	3.8	1.49e+00	0	28	104	0	74	24182
2026-01-14 05:15:32.12	16.32	22.21	-54.7	-70.6	3.8	1.49e+00	0	28	104	0	74	24130
2026-01-14 05:15:35.15	15.54	22.33	-54.7	-70.6	3.8	1.49e+00	0	28	104	0	74	24106
2026-01-14 05:15:38.17	14.75	22.44	-54.7	-70.7	3.8	1.49e+00	0	28	104	0	74	24171
2026-01-14 05:15:41.20	13.96	22.54	-54.7	-70.7	3.8	1.49e+00	0	27	104	0	74	24211
2026-01-14 05:15:44.23	13.16	22.64	-54.7	-70.6	3.8	1.49e+00	0	27	104	0	74	24108
2026-01-14 05:15:47.26	12.36	22.73	-54.7	-70.7	3.8	1.49e+00	0	28	104	0	74	24199
2026-01-14 05:15:50.28	11.55	22.82	-54.7	-70.7	3.8	1.49e+00	0	28	104	0	74	24138
2026-01-14 05:15:53.31	10.74	22.90	-54.7	-70.7	3.8	1.49e+00	0	27	104	0	74	24194
2026-01-14 05:15:56.32	9.92	22.97	-54.7	-70.7	3.8	1.49e+00	0	28	104	0	74	24243
2026-01-14 05:15:59.35	9.10	23.04	-54.7	-70.7	3.8	1.49e+00	0	28	104	0	74	24177
2026-01-14 05:16:02.37	8.28	23.10	-54.7	-70.7	3.8	1.49e+00	0	28	104	0	74	24230
2026-01-14 05:16:05.41	7.45	23.16	-54.7	-70.7	3.8	1.49e+00	0	28	104	0	74	24136
2026-01-14 05:16:08.43	6.62	23.21	-54.7	-70.7	3.8	1.49e+00	0	27	104	0	74	24137
2026-01-14 05:16:11.45	5.79	23.25	-54.7	-70.7	3.8	1.49e+00	0	27	104	0	74	24180
2026-01-14 05:16:14.48	4.96	23.29	-54.7	-70.7	3.8	1.49e+00	0	28	104	0	74	24224
2026-01-14 05:16:17.51	4.12	23.32	-54.7	-70.7	3.8	1.49e+00	0	28	104	0	74	24172
2026-01-14 05:16:20.54	3.28	23.34	-54.7	-70.7	3.8	1.49e+00	0	27	104	0	74	24204
2026-01-14 05:16:23.57	2.44	23.36	-54.7	-70.7	3.8	1.49e+00	0	28	104	0	74	24141
2026-01-14 05:16:26.59	1.60	23.37	-54.7	-70.7	3.8	1.49e+00	0	27	104	0	74	24158
2026-01-14 05:16:29.62	0.76	23.37	-54.7	-70.6	3.8	1.49e+00	0	27	104	0	74	24128
2026-01-14 05:16:32.64	359.92	23.37	-54.7	-70.7	3.8	1.49e+00	0	27	104	0	74	24214
2026-01-14 05:16:35.67	359.08	23.36	-54.7	-70.7	3.8	1.49e+00	0	28	104	0	74	24171
2026-01-14 05:16:38.70	358.24	23.35	-54.7	-70.7	3.8	1.49e+00	0	28	104	0	74	24201
2026-01-14 05:16:41.72	357.41	23.32	-54.7	-70.7	3.8	1.49e+00	0	28	104	0	74	24146
2026-01-14 05:16:44.75	356.57	23.29	-54.7	-70.7	3.8	1.49e+00	0	28	104	0	74	24159
2026-01-14 05:16:47.78	355.74	23.26	-54.7	-70.7	3.8	1.49e+00	0	28	104	0	74	24247
2026-01-14 05:16:50.81	354.90	23.21	-54.7	-70.7	3.8	1.49e+00	0	28	104	0	74	24206
2026-01-14 05:16:53.84	354.07	23.17	-54.7	-70.7	3.8	1.49e+00	0	28	104	0	74	24181
2026-01-14 05:16:56.86	353.25	23.11	-54.7	-70.6	3.8	1.49e+00	0	28	104	0	74	24123
2026-01-14 05:16:59.89	352.42	23.05	-54.7	-70.7	3.8	1.49e+00	0	27	104	0	74	24227
2026-01-14 05:17:02.92	351.60	22.98	-54.7	-70.7	3.8	1.49e+00	0	28	104	0	74	24191
2026-01-14 05:17:05.94	350.78	22.91	-54.7	-70.7	3.8	1.49e+00	0	28	104	0	74	24180
2026-01-14 05:17:08.97	349.97	22.83	-54.7	-70.7	3.8	1.49e+00	0	27	104	0	74	24166
2026-01-14 05:17:12.00	349.16	22.74	-54.7	-70.7	3.8	1.49e+00	0	28	104	0	74	24165
2026-01-14 05:17:15.02	348.36	22.65	-54.7	-70.7	3.8	1.49e+00	0	28	104	0	74	24192
2026-01-14 05:17:18.05	347.56	22.55	-54.7	-70.7	3.8	1.49e+00	0	28	104	0	74	24163
2026-01-14 05:17:21.07	346.77	22.45	-54.7	-70.7	3.8	1.49e+00	0	28	104	0	74	24156
2026-01-14 05:17:24.10	345.98	22.34	-54.7	-70.7	3.8	1.49e+00	0	28	104	0	74	24155
2026-01-14 05:17:27.13	345.19	22.23	-54.7	-70.7	3.8	1.49e+00	0	28	104	0	74	24228
2026-01-14 05:17:30.16	344.41	22.11	-54.7	-70.7	3.8	1.49e+00	0	28	104	0	74	24181
2026-01-14 05:17:33.18	343.65	21.99	-54.7	-70.7	3.8	1.49e+00	0	28	104	0	74	24150
2026-01-14 05:17:36.21	342.88	21.86	-54.6	-70.7	3.8	1.49e+00	0	27	104	0	74	24137
2026-01-14 05:17:39.24	342.12	21.72	-54.7	-70.6	3.8	1.49e+00	0	27	104	0	74	24113
2026-01-14 05:17:42.27	341.37	21.59	-54.7	-70.7	3.8	1.49e+00	0	28	104	0	74	24139
2026-01-14 05:17:45.29	340.63	21.44	-54.7	-70.7	3.8	1.49e+00	0	28	104	0	74	24144
2026-01-14 05:17:48.32	339.89	21.30	-54.7	-70.7	3.8	1.49e+00	0	28	104	0	74	24166
2026-01-14 05:17:51.35	339.16	21.15	-54.7	-70.6	3.8	1.49e+00	0	27	104	0	74	24075
2026-01-14 05:17:54.37	338.44	20.99	-54.7	-70.7	3.8	1.49e+00	0	28	104	0	74	24216
2026-01-14 05:17:57.40	337.72	20.83	-54.7	-70.6	3.8	1.49e+00	0	28	104	0	74	24088
2026-01-14 05:18:00.43	337.01	20.67	-54.7	-70.6	3.8	1.49e+00	0	28	104	0	74	24116
2026-01-14 05:18:03.45	336.31	20.51	-54.7	-70.7	3.8	1.49e+00	0	28	104	0	74	24201
2026-01-14 05:18:06.48	335.62	20.34	-54.7	-70.6	3.8	1.49e+00	0	28	104	0	74	24094
2026-01-14 05:18:09.51	334.93	20.16	-54.7	-70.6	3.8	1.49e+00	0	28	104	0	74	24117
2026-01-14 05:18:12.54	334.25	19.99	-54.7	-70.7	3.8	1.49e+00	0	28	104	0	74	24136
2026-01-14 05:18:15.55	333.59	19.81	-54.7	-70.7	3.8	1.49e+00	0	28	104	0	74	24146
2026-01-14 05:18:18.58	332.92	19.63	-54.7	-70.7	3.8	1.49e+00	0	27	104	0	74	24168
2026-01-14 05:18:21.61	332.27	19.45	-54.7	-70.7	3.8	1.49e+00	0	28	104	0	74	24184
2026-01-14 05:18:24.64	331.62	19.26	-54.7	-70.7	3.8	1.49e+00	0	27	104	0	74	24149
2026-01-14 05:18:27.66	330.99	19.07	-54.7	-70.6	3.8	1.49e+00	0	28	104	0	74	24095
2026-01-14 05:18:30.69	330.36	18.88	-54.7	-70.6	3.8	1.49e+00	0	28	104	0	74	24081
2026-01-14 05:18:33.72	329.73	18.69	-54.7	-70.7	3.8	1.49e+00	0	27	104	0	74	24160
2026-01-14 05:18:36.75	329.12	18.49	-54.7	-70.7	3.8	1.49e+00	0	28	104	0	74	24202
2026-01-14 05:18:39.78	328.51	18.29	-54.7	-70.7	3.8	1.49e+00	0	27	104	0	74	24231
2026-01-14 05:18:42.80	327.92	18.10	-54.7	-70.7	3.8	1.49e+00	0	28	104	0	74	24201
2026-01-14 05:18:45.83	327.33	17.90	-54.7	-70.7	3.8	1.49e+00	0	28	104	0	74	24178
2026-01-14 05:18:48.85	326.74	17.70	-54.7	-70.7	3.8	1.49e+00	0	27	104	0	74	24157
2026-01-14 05:18:51.88	326.17	17.49	-54.7	-70.7	3.8	1.49e+00	0	28	104	0	74	24204
2026-01-14 05:18:54.91	325.60	17.29	-54.7	-70.7	3.8	1.49e+00	0	28	104	0	74	24193
2026-01-14 05:18:57.93	325.04	17.08	-54.7	-70.7	3.8	1.49e+00	0	28	104	0	74	24161
2026-01-14 05:19:00.95	324.49	16.88	-54.7	-70.7	3.8	1.49e+00	0	28	104	0	74	24197
2026-01-14 05:19:03.98	323.95	16.67	-54.7	-70.7	3.8	1.49e+00	0	28	104	0	74	24186
2026-01-14 05:19:07.00	323.42	16.46	-54.7	-70.6	3.8	1.49e+00	0	28	104	0	74	24091
2026-01-14 05:19:10.03	322.89	16.25	-54.7	-70.7	3.8	1.49e+00	0	28	104	0	74	24158
2026-01-14 05:19:13.05	322.37	16.04	-54.7	-70.6	3.8	1.49e+00	0	28	104	0	74	24115
2026-01-14 05:19:16.08	321.85	15.83	-54.7	-70.7	3.8	1.49e+00	0	27	104	0	74	24159
2026-01-14 05:19:19.11	321.35	15.62	-54.7	-70.7	3.8	1.49e+00	0	28	104	0	74	24139
2026-01-14 05:19:22.13	320.85	15.41	-54.7	-70.7	3.8	1.49e+00	0	28	104	0	74	24169
2026-01-14 05:19:25.16	320.36	15.20	-54.7	-70.7	3.8	1.49e+00	0	28	104	0	74	24203
2026-01-14 05:19:28.18	319.87	14.99	-54.7	-70.7	3.8	1.49e+00	0	27	104	0	74	24192
2026-01-14 05:19:31.21	319.39	14.78	-54.7	-70.7	3.8	1.49e+00	0	28	104	0	74	24149
2026-01-14 05:19:34.23	318.92	14.57	-54.7	-70.7	3.8	1.49e+00	0	28	104	0	74	24160
2026-01-14 05:19:37.26	318.46	14.35	-54.7	-70.7	3.8	1.49e+00	0	28	104	0	74	24177
2026-01-14 05:19:40.29	318.00	14.14	-54.7	-70.6	3.8	1.49e+00	0	28	104	0	74	24104
2026-01-14 05:19:43.31	317.55	13.93	-54.7	-70.7	3.8	1.49e+00	0	28	104	0	74	24144
2026-01-14 05:19:46.35	317.10	13.72	-54.7	-70.7	3.8	1.49e+00	0	28	104	0	74	24215
2026-01-14 05:19:49.37	316.67	13.50	-54.7	-70.7	3.8	1.49e+00	0	28	104	0	74	24157
2026-01-14 05:19:52.40	316.23	13.29	-54.7	-70.7	3.8	1.49e+00	0	28	104	0	74	24142
2026-01-14 05:19:55.43	315.81	13.08	-54.7	-70.6	3.8	1.49e+00	0	28	104	0	74	24127
2026-01-14 05:19:58.46	315.39	12.87	-54.7	-70.7	3.8	1.49e+00	0	28	104	0	74	24136
2026-01-14 05:20:01.49	314.97	12.66	-54.7	-70.7	3.8	1.49e+00	0	28	104	0	74	24231
2026-01-14 05:20:04.51	314.57	12.45	-54.7	-70.7	3.8	1.49e+00	0	28	104	0	74	24197
2026-01-14 05:20:07.53	314.17	12.24	-54.7	-70.7	3.8	1.49e+00	0	28	104	0	74	24149
2026-01-14 05:20:10.56	313.77	12.03	-54.7	-70.7	3.8	1.49e+00	0	28	104	0	74	24233
2026-01-14 05:20:13.58	313.38	11.82	-54.7	-70.7	3.8	1.49e+00	0	28	104	0	74	24200
2026-01-14 05:20:16.61	313.00	11.61	-54.7	-70.7	3.8	1.49e+00	0	28	104	0	74	24155
2026-01-14 05:20:19.64	312.62	11.40	-54.7	-70.7	3.8	1.49e+00	0	28	104	0	74	24149
2026-01-14 05:20:22.66	312.25	11.19	-54.7	-70.7	3.8	1.49e+00	0	28	104	0	74	24227
2026-01-14 05:20:25.69	311.88	10.99	-54.7	-70.7	3.8	1.49e+00	0	28	104	0	74	24163
2026-01-14 05:20:28.71	311.52	10.78	-54.7	-70.7	3.8	1.49e+00	0	28	104	0	74	24225
2026-01-14 05:20:31.74	311.16	10.57	-54.7	-70.7	3.8	1.49e+00	0	28	104	0	74	24160
2026-01-14 05:20:34.77	310.81	10.37	-54.7	-70.7	3.8	1.49e+00	0	27	104	0	74	24146
2026-01-14 05:20:37.80	310.46	10.16	-54.7	-70.7	3.8	1.49e+00	0	27	104	0	74	24216
2026-01-14 05:20:40.83	310.12	9.96	-54.7	-70.7	3.8	1.49e+00	0	28	104	0	74	24204
2026-01-14 05:20:44.07	309.76	9.74	-54.7	-70.7	3.8	1.49e+00	0	27	104	0	74	24261
2026-01-14 05:20:46.95	309.44	9.55	-54.7	-70.7	3.8	1.49e+00	0	28	104	0	74	24188
2026-01-14 05:20:50.13	309.10	9.34	-54.7	-70.7	3.8	1.49e+00	0	28	104	0	74	24212
2026-01-14 05:20:53.02	308.79	9.14	-54.7	-70.7	3.8	1.49e+00	0	27	104	0	74	24179
2026-01-14 05:20:56.19	308.45	8.93	-54.7	-70.7	3.8	1.49e+00	0	28	104	0	74	24171
2026-01-14 05:20:59.07	308.16	8.74	-54.7	-70.7	3.8	1.49e+00	0	27	104	0	74	24192
2026-01-14 05:21:02.25	307.83	8.54	-54.7	-70.7	3.8	1.49e+00	0	28	104	0	74	24210
2026-01-14 05:21:05.14	307.54	8.35	-54.7	-70.7	3.8	1.49e+00	0	28	104	0	74	24230
2026-01-14 05:21:08.31	307.22	8.14	-54.7	-70.7	3.8	1.49e+00	0	28	104	0	74	24236
2026-01-14 05:21:11.19	306.94	7.95	-54.7	-70.7	3.8	1.49e+00	0	27	104	0	74	24210
2026-01-14 05:21:14.36	306.64	7.75	-54.7	-70.7	3.8	1.49e+00	0	28	104	0	74	24147
2026-01-14 05:21:17.24	306.36	7.56	-54.7	-70.6	3.8	1.49e+00	0	28	104	0	74	24117
2026-01-14 05:21:20.41	306.06	7.36	-54.7	-70.7	3.8	1.49e+00	0	28	104	0	74	24231
2026-01-14 05:21:23.29	305.80	7.17	-54.7	-70.7	3.8	1.49e+00	0	28	104	0	74	24240
2026-01-14 05:21:26.46	305.51	6.97	-54.7	-70.7	3.8	1.49e+00	0	28	104	0	74	24208
2026-01-14 05:21:29.34	305.25	6.79	-54.7	-70.7	3.8	1.49e+00	0	28	104	0	74	24143
2026-01-14 05:21:32.52	304.96	6.59	-54.7	-70.7	3.8	1.49e+00	0	27	104	0	74	24205
2026-01-14 05:21:35.40	304.71	6.41	-54.7	-70.7	3.8	1.49e+00	0	27	104	0	74	24169
2026-01-14 05:21:38.57	304.43	6.21	-54.7	-70.7	3.8	1.49e+00	0	28	104	0	74	24168
2026-01-14 05:21:41.45	304.19	6.03	-54.7	-70.7	3.8	1.49e+00	0	28	104	0	74	24278
2026-01-14 05:21:44.62	303.92	5.83	-54.7	-70.7	3.8	1.49e+00	0	27	104	0	74	24207
2026-01-14 05:21:47.50	303.68	5.65	-54.7	-70.7	3.8	1.49e+00	0	27	104	0	74	24184
2026-01-14 05:21:50.67	303.42	5.46	-54.7	-70.7	3.8	1.49e+00	0	27	104	0	74	24175
2026-01-14 05:21:53.55	303.19	5.28	-54.7	-70.6	3.8	1.49e+00	0	27	104	0	74	24127
2026-01-14 05:21:56.72	302.93	5.09	-54.7	-70.6	3.8	1.49e+00	0	27	104	0	74	24122
2026-01-14 05:21:59.60	302.71	4.91	-54.7	-70.7	3.9	1.49e+00	0	28	104	0	74	24167
2026-01-14 05:22:02.77	302.46	4.72	-54.7	-70.7	3.8	1.49e+00	0	27	104	0	74	24173
2026-01-14 05:22:05.65	302.24	4.55	-54.7	-70.7	3.8	1.49e+00	0	28	104	0	74	24178
2026-01-14 05:22:08.82	302.00	4.36	-54.7	-70.7	3.8	1.49e+00	0	27	104	0	74	24231
2026-01-14 05:22:11.71	301.78	4.19	-54.7	-70.7	3.8	1.49e+00	0	28	104	0	74	24219
2026-01-14 05:22:14.87	301.55	4.00	-54.7	-70.7	3.8	1.49e+00	0	28	104	0	74	24217
2026-01-14 05:22:17.75	301.34	3.83	-54.7	-70.7	3.8	1.49e+00	0	27	104	0	74	24177
2026-01-14 05:22:20.92	301.11	3.64	-54.7	-70.7	3.8	1.49e+00	0	28	104	0	74	24184
2026-01-14 05:22:23.80	300.90	3.47	-54.7	-70.7	3.8	1.49e+00	0	27	104	0	74	24161
2026-01-14 05:22:26.98	300.68	3.29	-54.7	-70.7	3.8	1.49e+00	0	28	104	0	74	24235
2026-01-14 05:22:29.85	300.48	3.12	-54.7	-70.7	3.8	1.49e+00	0	27	104	0	74	24177
2026-01-14 05:22:33.03	300.26	2.93	-54.7	-70.7	3.8	1.49e+00	0	28	104	0	74	24205
2026-01-14 05:22:35.91	300.07	2.77	-54.7	-70.7	3.8	1.49e+00	0	27	104	0	74	24165
2026-01-14 05:22:39.09	299.85	2.59	-54.7	-70.7	3.8	1.49e+00	0	28	104	0	74	24190
2026-01-14 05:22:41.97	299.66	2.42	-54.7	-70.7	3.8	1.49e+00	0	27	104	0	74	24239
2026-01-14 05:22:45.14	299.46	2.24	-54.7	-70.7	3.8	1.49e+00	0	27	104	0	74	24192
2026-01-14 05:22:48.02	299.27	2.08	-54.7	-70.7	3.8	1.49e+00	0	28	104	0	74	24151

#Closed at: 2026-01-14 05:22:50
#Recorded file [0 MB]: D:/lorett/data/31004_260114_081011.dat