passes_logs/2026/01/14/R3.2S_Murmansk/R3.2S_Murmansk__20260114_013017_SUOMI_NPP_rec.log

#Pass ID: 20260114_013017_SUOMI NPP
#Satellite: SUOMI NPP
#Configuration: NPP
#almurnet v.1.7.20251203
#Start time: 2026-01-14 01:30:16

#Version: 2.2.20231116
#Station: R3.2S_Murmansk
#Location: 33.079688 lon 68.888172 lat
#TLE: 1 37849U 11061A   26013.55331121  .00000059  00000+0  48721-4 0  9992
#TLE: 2 37849  98.7808 315.6144 0002478  66.1553 293.9883 14.19524925736509

#Time	Az	El	Level	Level2	SNR	BER	BlckErr	Temp	State	Recorded	gain1	gain2
2026-01-14 01:30:16.87	27.75	1.98	-57.6	-73.6	3.8	1.49e+00	0	25	0	0	81	22567
2026-01-14 01:30:20.89	27.69	2.24	-57.6	-73.6	3.8	1.49e+00	0	25	104	0	80	23902
2026-01-14 01:30:24.92	27.62	2.50	-57.6	-73.6	3.8	1.49e+00	0	25	104	0	80	23870
2026-01-14 01:30:28.95	27.56	2.76	-57.6	-73.5	3.8	1.49e+00	0	26	104	0	80	23695
2026-01-14 01:30:32.99	27.50	3.02	-57.6	-73.3	3.8	1.49e+00	0	26	104	0	80	23128
2026-01-14 01:30:37.03	27.43	3.29	-57.5	-72.6	3.8	1.49e+00	0	26	104	0	80	21319
2026-01-14 01:30:41.07	27.36	3.56	-57.6	-72.8	3.8	1.49e+00	0	26	104	0	80	21812
2026-01-14 01:30:45.10	27.29	3.83	-57.6	-72.4	3.8	1.49e+00	0	26	104	0	80	20819
2026-01-14 01:30:49.14	27.22	4.10	-57.4	-69.2	4.4	1.32e+00	53	26	0	0	80	14538
2026-01-14 01:30:53.18	27.14	4.38	-57.0	-66.1	6.1	3.47e-01	0	26	0	7340032	80	10072
2026-01-14 01:30:57.21	27.07	4.66	-56.9	-65.2	6.7	1.88e-01	0	26	0	15728640	80	9081
2026-01-14 01:31:01.25	26.99	4.94	-57.0	-66.0	6.1	2.28e-01	0	27	0	23068672	80	9961
2026-01-14 01:31:05.29	26.91	5.23	-57.2	-65.0	7.2	1.68e-01	0	26	0	30408704	80	8946
2026-01-14 01:31:09.32	26.83	5.52	-55.7	-60.0	11.4	6.72e-03	0	27	0	34603008	78	5648
2026-01-14 01:31:13.36	26.75	5.81	-54.7	-58.0	12.7	0.00e+00	0	27	0	41943040	76	5023
2026-01-14 01:31:17.39	26.66	6.11	-54.0	-57.0	13.2	0.00e+00	0	27	0	49283072	74	5003
2026-01-14 01:31:21.43	26.58	6.41	-53.6	-56.2	13.5	0.00e+00	0	27	0	57671680	73	4864
2026-01-14 01:31:25.46	26.49	6.71	-53.3	-55.9	13.7	0.00e+00	0	27	0	65011712	73	4671
2026-01-14 01:31:29.49	26.40	7.01	-53.2	-55.8	13.7	0.00e+00	0	27	0	72351744	72	4880
2026-01-14 01:31:33.53	26.30	7.32	-53.1	-55.6	13.8	0.00e+00	0	27	0	79691776	72	4761
2026-01-14 01:31:37.56	26.21	7.63	-52.9	-55.3	14.0	0.00e+00	0	27	0	87031808	72	4644
2026-01-14 01:31:41.60	26.11	7.95	-52.8	-55.2	14.1	0.00e+00	0	27	0	95420416	72	4552
2026-01-14 01:31:45.64	26.01	8.27	-52.8	-55.2	14.1	0.00e+00	0	27	0	102760448	72	4546
2026-01-14 01:31:49.66	25.90	8.59	-52.7	-55.0	14.0	0.00e+00	0	27	0	110100480	71	4722
2026-01-14 01:31:53.69	25.80	8.92	-52.6	-54.8	14.1	0.00e+00	0	27	0	117440512	71	4639
2026-01-14 01:31:57.71	25.69	9.25	-52.6	-54.8	14.1	0.00e+00	0	27	0	124780544	71	4641
2026-01-14 01:32:01.75	25.58	9.59	-52.3	-54.5	14.3	0.00e+00	0	27	0	133169152	71	4476
2026-01-14 01:32:05.78	25.46	9.93	-52.4	-54.5	14.3	0.00e+00	0	27	0	140509184	71	4459
2026-01-14 01:32:09.81	25.34	10.28	-52.1	-54.2	14.3	0.00e+00	0	27	0	147849216	70	4558
2026-01-14 01:32:13.85	25.22	10.63	-52.0	-54.1	14.3	0.00e+00	0	27	0	155189248	70	4511
2026-01-14 01:32:17.88	25.10	10.99	-52.0	-54.0	14.4	0.00e+00	0	27	0	162529280	70	4454
2026-01-14 01:32:21.92	24.97	11.35	-51.8	-53.8	14.5	0.00e+00	0	27	0	170917888	70	4359
2026-01-14 01:32:25.95	24.84	11.71	-51.6	-53.5	14.5	0.00e+00	0	27	0	178257920	69	4485
2026-01-14 01:32:29.98	24.70	12.08	-51.6	-53.5	14.5	0.00e+00	0	27	0	185597952	69	4454
2026-01-14 01:32:34.02	24.56	12.46	-51.5	-53.3	14.6	0.00e+00	0	27	0	192937984	69	4388
2026-01-14 01:32:38.05	24.42	12.84	-51.5	-53.4	14.5	0.00e+00	0	27	0	201326592	69	4416
2026-01-14 01:32:42.09	24.27	13.23	-51.4	-53.2	14.6	0.00e+00	0	27	0	208666624	69	4326
2026-01-14 01:32:46.12	24.12	13.63	-51.5	-53.3	14.6	0.00e+00	0	27	0	216006656	69	4382
2026-01-14 01:32:50.15	23.96	14.03	-51.6	-53.4	14.5	0.00e+00	0	27	0	223346688	69	4429
2026-01-14 01:32:54.18	23.80	14.44	-51.5	-53.4	14.6	0.00e+00	0	27	0	230686720	69	4397
2026-01-14 01:32:58.21	23.63	14.85	-51.5	-53.3	14.6	0.00e+00	0	27	0	239075328	69	4370
2026-01-14 01:33:02.24	23.46	15.27	-51.5	-53.3	14.6	0.00e+00	0	27	0	246415360	69	4391
2026-01-14 01:33:06.27	23.28	15.70	-51.5	-53.3	14.6	0.00e+00	0	27	0	253755392	69	4345
2026-01-14 01:33:10.30	23.10	16.13	-51.4	-53.2	14.6	0.00e+00	0	27	0	261095424	69	4299
2026-01-14 01:33:14.32	22.91	16.58	-51.2	-52.9	14.6	0.00e+00	0	27	0	268435456	68	4409
2026-01-14 01:33:18.35	22.72	17.03	-51.2	-52.9	14.7	0.00e+00	0	27	0	276824064	68	4411
2026-01-14 01:33:22.38	22.51	17.48	-51.2	-52.9	14.7	0.00e+00	0	27	0	284164096	68	4411
2026-01-14 01:33:26.41	22.31	17.95	-51.3	-53.1	14.6	0.00e+00	0	27	0	291504128	68	4524
2026-01-14 01:33:30.44	22.09	18.43	-51.2	-53.0	14.6	0.00e+00	0	27	0	298844160	68	4465
2026-01-14 01:33:34.47	21.87	18.91	-51.7	-53.6	14.4	0.00e+00	0	27	0	306184192	68	4777
2026-01-14 01:33:38.50	21.64	19.40	-51.5	-53.3	14.5	0.00e+00	0	27	0	314572800	68	4634
2026-01-14 01:33:42.54	21.40	19.91	-51.8	-53.7	14.3	0.00e+00	0	27	0	321912832	68	4869
2026-01-14 01:33:46.57	21.15	20.42	-51.5	-53.3	14.5	0.00e+00	0	27	0	329252864	68	4639
2026-01-14 01:33:50.60	20.90	20.94	-51.8	-53.7	14.4	0.00e+00	0	27	0	336592896	68	4846
2026-01-14 01:33:54.62	20.63	21.48	-51.8	-53.7	14.4	0.00e+00	0	27	0	343932928	68	4827
2026-01-14 01:33:58.66	20.35	22.02	-52.1	-54.0	14.3	0.00e+00	0	27	0	352321536	69	4752
2026-01-14 01:34:02.69	20.07	22.58	-51.8	-53.6	14.5	0.00e+00	0	27	0	359661568	69	4520
2026-01-14 01:34:06.73	19.77	23.14	-51.9	-53.8	14.4	0.00e+00	0	27	0	367001600	69	4623
2026-01-14 01:34:10.76	19.46	23.72	-51.8	-53.8	14.5	0.00e+00	0	27	0	374341632	69	4603
2026-01-14 01:34:14.78	19.14	24.31	-52.5	-54.7	14.2	0.00e+00	0	27	0	382730240	70	4830
2026-01-14 01:34:18.82	18.81	24.92	-52.8	-54.9	14.1	0.00e+00	0	27	0	390070272	70	4973
2026-01-14 01:34:22.86	18.46	25.53	-53.0	-55.2	14.1	0.00e+00	0	27	0	397410304	71	4827
2026-01-14 01:34:26.89	18.10	26.16	-52.9	-55.1	14.1	0.00e+00	0	27	0	404750336	71	4781
2026-01-14 01:34:30.93	17.72	26.81	-53.3	-55.6	14.0	0.00e+00	0	27	0	412090368	72	4787
2026-01-14 01:34:34.97	17.32	27.47	-53.3	-55.7	14.0	0.00e+00	0	27	0	420478976	72	4817
2026-01-14 01:34:38.99	16.91	28.14	-52.6	-54.6	14.3	0.00e+00	0	27	0	427819008	71	4516
2026-01-14 01:34:43.03	16.48	28.83	-52.3	-54.3	14.4	0.00e+00	0	27	0	435159040	71	4384
2026-01-14 01:34:47.05	16.03	29.53	-53.2	-55.6	13.9	0.00e+00	0	27	0	442499072	71	5046
2026-01-14 01:34:51.09	15.56	30.25	-54.0	-56.6	13.6	0.00e+00	0	27	0	449839104	73	5094
2026-01-14 01:34:55.13	15.06	30.98	-54.2	-57.0	13.5	0.00e+00	0	27	0	458227712	73	5285
2026-01-14 01:34:59.16	14.55	31.73	-54.9	-57.9	13.2	0.00e+00	0	27	0	465567744	75	5237
2026-01-14 01:35:03.19	14.00	32.50	-54.3	-57.1	13.6	0.00e+00	0	27	0	472907776	75	4766
2026-01-14 01:35:07.23	13.43	33.28	-54.1	-56.9	13.5	0.00e+00	0	27	0	480247808	74	4937
2026-01-14 01:35:11.26	12.83	34.08	-54.8	-58.4	12.7	0.00e+00	0	27	0	487587840	74	5880
2026-01-14 01:35:15.29	12.20	34.90	-54.9	-58.3	12.8	0.00e+00	0	27	0	495976448	75	5509
2026-01-14 01:35:19.32	11.54	35.74	-55.8	-60.1	11.8	7.00e-07	0	27	0	503316480	76	6362
2026-01-14 01:35:23.35	10.84	36.59	-55.0	-58.4	13.0	0.00e+00	0	27	0	510656512	76	5221
2026-01-14 01:35:27.39	10.10	37.47	-54.3	-57.3	13.3	0.00e+00	0	27	0	517996544	74	5212
2026-01-14 01:35:31.42	9.32	38.35	-54.1	-57.2	13.3	0.00e+00	0	27	0	525336576	74	5118
2026-01-14 01:35:35.45	8.49	39.26	-53.8	-56.6	13.5	0.00e+00	0	27	0	533725184	73	5091
2026-01-14 01:35:39.48	7.62	40.18	-53.4	-55.9	13.9	0.00e+00	0	27	0	541065216	72	4970
2026-01-14 01:35:43.52	6.69	41.12	-53.9	-56.5	13.6	0.00e+00	0	27	0	548405248	73	5039
2026-01-14 01:35:47.55	5.71	42.08	-53.5	-55.8	14.0	0.00e+00	0	27	0	555745280	73	4637
2026-01-14 01:35:51.59	4.66	43.05	-54.2	-57.1	13.4	0.00e+00	0	27	0	564133888	73	5383
2026-01-14 01:35:55.63	3.55	44.04	-54.1	-56.9	13.6	0.00e+00	0	27	0	571473920	74	4966
2026-01-14 01:35:59.66	2.36	45.03	-54.4	-57.2	13.4	0.00e+00	0	27	0	578813952	74	5147
2026-01-14 01:36:03.69	1.10	46.04	-53.9	-56.5	13.7	0.00e+00	0	27	0	586153984	73	5034
2026-01-14 01:36:07.73	359.75	47.05	-53.3	-56.0	13.9	0.00e+00	0	27	0	593494016	73	4734
2026-01-14 01:36:11.77	358.31	48.08	-52.8	-55.3	14.1	0.00e+00	0	27	0	601882624	72	4625
2026-01-14 01:36:15.80	356.77	49.10	-52.8	-55.3	14.1	0.00e+00	0	27	0	609222656	71	4882
2026-01-14 01:36:19.83	355.13	50.12	-53.1	-55.5	14.1	0.00e+00	0	28	0	616562688	72	4732
2026-01-14 01:36:23.87	353.36	51.15	-52.6	-55.2	14.1	0.00e+00	0	27	0	623902720	71	4821
2026-01-14 01:36:27.90	351.48	52.16	-50.6	-52.4	14.7	0.00e+00	0	27	0	632291328	67	4432
2026-01-14 01:36:31.93	349.46	53.15	-52.3	-54.6	14.1	0.00e+00	0	27	0	639631360	69	5092
2026-01-14 01:36:35.96	347.30	54.13	-53.3	-56.0	13.8	0.00e+00	0	27	0	646971392	71	5300
2026-01-14 01:36:40.00	344.98	55.08	-52.3	-54.5	14.4	0.00e+00	0	27	0	654311424	71	4475
2026-01-14 01:36:44.03	342.51	56.00	-52.8	-55.1	14.1	0.00e+00	0	27	0	661651456	70	5086
2026-01-14 01:36:48.05	339.89	56.87	-52.8	-55.1	14.2	0.00e+00	0	27	0	670040064	71	4763
2026-01-14 01:36:52.08	337.08	57.70	-52.8	-55.1	14.2	0.00e+00	0	28	0	677380096	71	4789
2026-01-14 01:36:56.12	334.10	58.47	-52.0	-54.0	14.6	0.00e+00	0	27	0	684720128	70	4449
2026-01-14 01:37:00.14	330.96	59.17	-53.2	-55.7	14.0	0.00e+00	0	27	0	692060160	71	5155
2026-01-14 01:37:04.16	327.66	59.80	-52.2	-54.5	14.4	0.00e+00	0	27	0	699400192	70	4727
2026-01-14 01:37:08.20	324.18	60.34	-51.9	-54.1	14.4	0.00e+00	0	27	0	707788800	69	4764
2026-01-14 01:37:12.23	320.58	60.78	-51.8	-54.0	14.5	0.00e+00	0	27	0	715128832	70	4491
2026-01-14 01:37:16.25	316.87	61.13	-51.9	-54.0	14.5	0.00e+00	0	27	0	722468864	70	4454
2026-01-14 01:37:20.29	313.06	61.37	-51.9	-54.0	14.5	0.00e+00	0	27	0	729808896	70	4451
2026-01-14 01:37:24.33	309.19	61.49	-50.7	-52.5	14.7	0.00e+00	0	27	0	737148928	67	4460
2026-01-14 01:37:28.35	305.32	61.50	-50.0	-51.6	15.0	0.00e+00	0	28	0	745537536	66	4273
2026-01-14 01:37:32.38	301.45	61.40	-50.4	-52.1	14.9	0.00e+00	0	28	0	752877568	67	4270
2026-01-14 01:37:36.42	297.62	61.19	-51.8	-53.8	14.4	0.00e+00	0	27	0	760217600	68	4902
2026-01-14 01:37:40.46	293.87	60.86	-50.3	-52.0	15.0	0.00e+00	0	27	0	767557632	67	4213
2026-01-14 01:37:44.49	290.24	60.44	-52.2	-54.2	14.5	0.00e+00	0	27	0	774897664	70	4587
2026-01-14 01:37:48.52	286.75	59.91	-52.7	-55.0	14.1	0.00e+00	0	27	0	783286272	70	5012
2026-01-14 01:37:52.55	283.40	59.30	-52.1	-53.9	14.6	0.00e+00	0	27	0	790626304	70	4441
2026-01-14 01:37:56.58	280.22	58.62	-52.0	-53.8	14.6	0.00e+00	0	27	0	797966336	70	4378
2026-01-14 01:38:00.61	277.20	57.86	-52.7	-54.8	14.3	0.00e+00	0	27	0	805306368	70	4875
2026-01-14 01:38:04.64	274.36	57.04	-52.7	-54.8	14.2	0.00e+00	0	27	0	813694976	70	4891
2026-01-14 01:38:08.68	271.69	56.17	-53.2	-55.4	14.2	0.00e+00	0	27	0	821035008	73	4438
2026-01-14 01:38:12.71	269.18	55.26	-52.8	-54.9	14.4	0.00e+00	0	27	0	828375040	72	4421
2026-01-14 01:38:16.74	266.84	54.31	-52.8	-55.1	14.1	0.00e+00	0	27	0	835715072	70	5049
2026-01-14 01:38:20.79	264.63	53.33	-51.9	-53.9	14.5	0.00e+00	0	27	0	843055104	69	4668
2026-01-14 01:38:24.82	262.59	52.34	-52.4	-54.6	14.3	0.00e+00	0	27	0	851443712	70	4765
2026-01-14 01:38:28.85	260.68	51.33	-52.1	-54.1	14.4	0.00e+00	0	27	0	858783744	69	4793
2026-01-14 01:38:32.88	258.89	50.31	-53.2	-55.8	14.0	0.00e+00	0	28	0	866123776	73	4621
2026-01-14 01:38:36.92	257.22	49.28	-53.6	-56.3	13.6	0.00e+00	0	27	0	873463808	72	5208
2026-01-14 01:38:40.95	255.66	48.25	-53.7	-56.2	14.0	0.00e+00	0	27	0	880803840	74	4593
2026-01-14 01:38:44.98	254.20	47.23	-54.2	-57.1	13.5	0.00e+00	0	27	0	889192448	73	5349
2026-01-14 01:38:49.01	252.83	46.21	-54.0	-56.6	13.8	0.00e+00	0	27	0	896532480	74	4802
2026-01-14 01:38:53.04	251.55	45.20	-54.0	-56.6	13.6	0.00e+00	0	27	0	903872512	73	5062
2026-01-14 01:38:57.07	250.35	44.20	-53.9	-56.4	13.9	0.00e+00	0	27	0	911212544	74	4699
2026-01-14 01:39:01.10	249.23	43.21	-54.5	-57.3	13.5	0.00e+00	0	27	0	918552576	74	5187
2026-01-14 01:39:05.13	248.17	42.24	-53.0	-55.1	14.3	0.00e+00	0	28	0	926941184	72	4536
2026-01-14 01:39:09.16	247.17	41.28	-54.7	-57.7	13.3	0.00e+00	0	28	0	934281216	74	5421
2026-01-14 01:39:13.20	246.23	40.33	-55.6	-58.8	12.9	0.00e+00	0	28	0	941621248	76	5481
2026-01-14 01:39:17.23	245.34	39.40	-55.4	-58.5	13.1	0.00e+00	0	27	0	948961280	76	5281
2026-01-14 01:39:21.27	244.51	38.49	-55.2	-58.2	13.1	0.00e+00	0	27	0	956301312	76	5129
2026-01-14 01:39:25.30	243.71	37.60	-54.2	-56.8	13.8	0.00e+00	0	28	0	964689920	75	4602
2026-01-14 01:39:29.33	242.97	36.72	-55.6	-59.3	12.5	0.00e+00	0	27	0	972029952	76	5802
2026-01-14 01:39:33.36	242.26	35.86	-55.5	-59.0	12.6	0.00e+00	0	27	0	979369984	76	5634
2026-01-14 01:39:37.38	241.59	35.02	-54.3	-57.2	13.5	0.00e+00	0	27	0	986710016	75	4826
2026-01-14 01:39:41.42	240.95	34.20	-55.1	-58.5	12.8	0.00e+00	0	27	0	995098624	75	5612
2026-01-14 01:39:45.45	240.34	33.39	-54.1	-56.8	13.7	0.00e+00	0	28	0	1002438656	74	4916
2026-01-14 01:39:49.47	239.77	32.60	-55.5	-59.3	12.5	0.00e+00	0	28	0	1009778688	76	5804
2026-01-14 01:39:53.51	239.21	31.83	-53.6	-56.2	13.8	0.00e+00	0	28	0	1017118720	73	4857
2026-01-14 01:39:57.55	238.69	31.07	-54.0	-56.7	13.6	0.00e+00	0	28	0	1024458752	73	5113
2026-01-14 01:40:01.58	238.19	30.33	-54.5	-57.5	13.3	0.00e+00	0	28	0	1032847360	74	5315
2026-01-14 01:40:05.60	237.72	29.61	-54.0	-56.7	13.7	0.00e+00	0	27	0	1040187392	74	4831
2026-01-14 01:40:09.64	237.26	28.91	-53.5	-55.8	13.9	0.00e+00	0	27	0	1047527424	72	4907
2026-01-14 01:40:13.68	236.82	28.21	-53.6	-56.1	13.8	0.00e+00	0	28	0	1054867456	72	5056
2026-01-14 01:40:17.70	236.41	27.54	-53.8	-56.3	13.7	0.00e+00	0	27	0	1062207488	72	5166
2026-01-14 01:40:21.74	236.01	26.87	-55.0	-58.1	13.0	0.00e+00	0	27	0	1070596096	75	5365
2026-01-14 01:40:25.77	235.62	26.23	-54.5	-57.3	13.5	0.00e+00	0	28	0	1077936128	75	4901
2026-01-14 01:40:29.81	235.26	25.59	-54.6	-57.4	13.4	0.00e+00	0	28	0	1085276160	75	4937
2026-01-14 01:40:33.84	234.90	24.97	-53.8	-56.2	13.9	0.00e+00	0	28	0	1092616192	74	4571
2026-01-14 01:40:37.87	234.56	24.37	-53.9	-56.3	13.9	0.00e+00	0	27	0	1101004800	74	4624
2026-01-14 01:40:41.91	234.24	23.77	-54.1	-56.7	13.7	0.00e+00	0	27	0	1108344832	74	4821
2026-01-14 01:40:45.94	233.93	23.19	-53.2	-55.3	14.1	0.00e+00	0	28	0	1115684864	72	4635
2026-01-14 01:40:49.97	233.62	22.62	-53.1	-55.2	14.1	0.00e+00	0	28	0	1123024896	71	4867
2026-01-14 01:40:54.01	233.33	22.06	-54.6	-57.5	13.2	0.00e+00	0	27	0	1130364928	74	5330
2026-01-14 01:40:58.03	233.06	21.51	-55.5	-59.1	12.6	0.00e+00	0	28	0	1138753536	76	5683
2026-01-14 01:41:02.07	232.79	20.97	-54.0	-56.7	13.7	0.00e+00	0	28	0	1146093568	74	4825
2026-01-14 01:41:06.10	232.53	20.45	-53.4	-55.8	14.0	0.00e+00	0	28	0	1153433600	73	4641
2026-01-14 01:41:10.13	232.28	19.93	-53.3	-55.6	14.1	0.00e+00	0	28	0	1160773632	73	4532
2026-01-14 01:41:14.16	232.03	19.43	-52.6	-54.7	14.3	0.00e+00	0	28	0	1168113664	71	4548
2026-01-14 01:41:18.19	231.80	18.93	-51.9	-53.8	14.6	0.00e+00	0	28	0	1176502272	70	4362
2026-01-14 01:41:22.22	231.57	18.44	-51.9	-53.8	14.6	0.00e+00	0	28	0	1183842304	70	4348
2026-01-14 01:41:26.26	231.35	17.96	-52.2	-54.2	14.4	0.00e+00	0	27	0	1191182336	70	4549
2026-01-14 01:41:30.29	231.14	17.49	-53.2	-55.4	14.0	0.00e+00	0	28	0	1198522368	71	4939
2026-01-14 01:41:34.32	230.94	17.03	-53.3	-55.6	13.9	0.00e+00	0	27	0	1205862400	71	5091
2026-01-14 01:41:38.35	230.74	16.58	-53.7	-56.1	13.7	0.00e+00	0	28	0	1214251008	72	5077
2026-01-14 01:41:42.39	230.55	16.13	-53.9	-56.4	13.5	0.00e+00	0	28	0	1221591040	72	5274
2026-01-14 01:41:46.41	230.36	15.70	-54.1	-56.8	13.4	0.00e+00	0	28	0	1228931072	73	5217
2026-01-14 01:41:50.45	230.18	15.27	-54.0	-56.7	13.5	0.00e+00	0	28	0	1236271104	73	5128
2026-01-14 01:41:54.47	230.01	14.85	-53.4	-55.7	14.0	0.00e+00	0	28	0	1244659712	73	4569
2026-01-14 01:41:58.50	229.84	14.43	-53.0	-55.2	14.1	0.00e+00	0	28	0	1251999744	72	4591
2026-01-14 01:42:02.54	229.67	14.02	-52.9	-55.0	14.2	0.00e+00	0	28	0	1259339776	72	4488
2026-01-14 01:42:06.57	229.51	13.62	-52.9	-55.1	14.2	0.00e+00	0	28	0	1266679808	72	4534
2026-01-14 01:42:10.61	229.36	13.22	-53.1	-55.4	14.0	0.00e+00	0	27	0	1274019840	72	4682
2026-01-14 01:42:14.64	229.21	12.83	-53.4	-55.7	13.9	0.00e+00	0	28	0	1282408448	72	4862
2026-01-14 01:42:18.67	229.06	12.45	-53.6	-56.1	13.7	0.00e+00	0	28	0	1289748480	72	5080
2026-01-14 01:42:22.71	228.92	12.07	-53.8	-56.3	13.6	0.00e+00	0	27	0	1297088512	72	5203
2026-01-14 01:42:26.73	228.78	11.69	-53.7	-56.2	13.6	0.00e+00	0	28	0	1304428544	72	5116
2026-01-14 01:42:30.77	228.64	11.33	-53.9	-56.5	13.5	0.00e+00	0	27	0	1311768576	72	5319
2026-01-14 01:42:34.80	228.51	10.96	-53.8	-56.4	13.6	0.00e+00	0	28	0	1320157184	73	4939
2026-01-14 01:42:38.83	228.39	10.61	-53.7	-56.3	13.6	0.00e+00	0	28	0	1327497216	73	4898
2026-01-14 01:42:42.86	228.26	10.25	-53.9	-56.5	13.5	0.00e+00	0	28	0	1334837248	73	5003
2026-01-14 01:42:46.89	228.14	9.91	-54.1	-56.9	13.3	0.00e+00	0	28	0	1342177280	73	5248
2026-01-14 01:42:50.92	228.02	9.56	-54.4	-57.4	13.1	0.00e+00	0	27	0	1349517312	74	5224
2026-01-14 01:42:54.96	227.91	9.23	-54.5	-57.5	13.1	0.00e+00	0	28	0	1357905920	74	5285
2026-01-14 01:42:58.99	227.80	8.89	-54.6	-57.7	12.9	0.00e+00	0	28	0	1365245952	74	5414
2026-01-14 01:43:03.02	227.69	8.56	-54.9	-57.9	12.9	0.00e+00	0	28	0	1372585984	75	5237
2026-01-14 01:43:07.05	227.58	8.24	-55.2	-58.3	12.7	0.00e+00	0	27	0	1379926016	75	5481
2026-01-14 01:43:11.09	227.48	7.92	-55.2	-58.4	12.6	0.00e+00	0	28	0	1387266048	75	5552
2026-01-14 01:43:15.13	227.37	7.60	-55.1	-58.3	12.7	0.00e+00	0	27	0	1395654656	75	5501
2026-01-14 01:43:19.16	227.28	7.28	-55.1	-58.2	12.7	0.00e+00	0	28	0	1402994688	75	5445
2026-01-14 01:43:23.20	227.18	6.97	-55.3	-58.6	12.4	0.00e+00	0	28	0	1410334720	75	5690
2026-01-14 01:43:27.24	227.08	6.67	-55.2	-58.4	12.5	0.00e+00	0	27	0	1417674752	75	5590
2026-01-14 01:43:31.27	226.99	6.36	-55.2	-58.5	12.5	0.00e+00	0	28	0	1426063360	75	5621
2026-01-14 01:43:35.30	226.90	6.06	-55.2	-58.6	12.3	0.00e+00	0	28	0	1433403392	75	5721
2026-01-14 01:43:39.33	226.82	5.77	-55.3	-58.6	12.5	0.00e+00	0	28	0	1440743424	76	5382
2026-01-14 01:43:43.36	226.73	5.48	-55.4	-58.9	12.3	0.00e+00	0	28	0	1448083456	76	5560
2026-01-14 01:43:47.39	226.65	5.19	-55.2	-58.5	12.5	0.00e+00	0	27	0	1455423488	76	5335
2026-01-14 01:43:51.43	226.56	4.90	-59.1	-75.1	3.8	1.49e+00	0	27	104	1461714944	83	23983
2026-01-14 01:43:55.46	226.48	4.62	-60.0	-76.0	3.8	1.49e+00	0	27	104	1461714944	85	23843
2026-01-14 01:43:59.50	226.41	4.34	-60.2	-76.3	3.8	1.49e+00	0	28	104	1461714944	85	24606
2026-01-14 01:44:03.53	226.33	4.06	-60.3	-76.4	3.8	1.49e+00	0	27	104	1461714944	85	24873
2026-01-14 01:44:07.57	226.25	3.78	-60.4	-76.5	3.8	1.49e+00	0	27	104	1461714944	85	25077
2026-01-14 01:44:11.61	226.18	3.51	-60.5	-76.6	3.8	1.49e+00	0	28	104	1461714944	86	23880
2026-01-14 01:44:15.64	226.11	3.24	-60.4	-76.5	3.8	1.49e+00	0	28	104	1461714944	86	23736
2026-01-14 01:44:19.67	226.04	2.97	-60.4	-76.5	3.8	1.49e+00	0	28	104	1461714944	86	23635
2026-01-14 01:44:23.71	225.97	2.71	-60.3	-76.4	3.8	1.49e+00	0	28	104	1461714944	86	23505
2026-01-14 01:44:27.75	225.90	2.44	-60.3	-76.4	3.8	1.49e+00	0	28	104	1461714944	86	23498
2026-01-14 01:44:31.78	225.84	2.19	-60.3	-76.4	3.8	1.49e+00	0	28	104	1461714944	86	23409

#Closed at: 2026-01-14 01:44:35
#Recorded file [1461 MB]: D:/lorett/data/31004_260114_043016.dat