passes_logs/2026/01/14/R3.2S_Murmansk/R3.2S_Murmansk__20260114_140912_FENGYUN_3D_rec.log

#Pass ID: 20260114_140912_FENGYUN 3D
#Satellite: FENGYUN 3D
#Configuration: FENGYUN 3D
#almurnet v.1.7.20251203
#Start time: 2026-01-14 14:09:13

#Version: 2.2.20231116
#Station: R3.2S_Murmansk
#Location: 33.079688 lon 68.888172 lat
#TLE: 1 43010U 17072A   26013.94640698 -.00000044  00000+0  88349-6 0  9999
#TLE: 2 43010  98.9934 345.7464 0002313 110.9627 249.1796 14.19695403423100

#Time	Az	El	Level	Level2	SNR	BER	BlckErr	Temp	State	Recorded	gain1	gain2
2026-01-14 14:09:13.84	217.58	2.06	-58.4	-71.4	3.8	8.45e-01	0	25	0	0	83	15681
2026-01-14 14:09:17.87	217.89	2.27	-58.3	-71.3	3.8	8.45e-01	0	26	104	0	81	17383
2026-01-14 14:09:21.91	218.21	2.49	-58.3	-71.2	3.8	8.45e-01	0	26	104	0	81	17272
2026-01-14 14:09:25.94	218.53	2.71	-58.3	-71.3	3.8	8.46e-01	0	26	104	0	81	17321
2026-01-14 14:09:29.98	218.85	2.93	-58.3	-71.3	3.8	8.45e-01	0	26	104	0	81	17341
2026-01-14 14:09:34.02	219.18	3.15	-58.3	-71.3	3.8	8.46e-01	0	26	104	0	81	17336
2026-01-14 14:09:38.05	219.52	3.37	-58.3	-71.3	3.8	8.47e-01	0	26	104	0	81	17402
2026-01-14 14:09:42.08	219.85	3.59	-58.3	-71.3	3.9	8.46e-01	0	26	104	0	81	17305
2026-01-14 14:09:46.12	220.20	3.81	-58.3	-70.8	3.8	8.45e-01	0	26	104	0	81	16362
2026-01-14 14:09:50.15	220.55	4.04	-58.2	-70.4	3.8	8.46e-01	0	26	104	0	81	15694
2026-01-14 14:09:54.18	220.90	4.26	-58.3	-71.3	3.8	8.46e-01	0	26	104	0	81	17298
2026-01-14 14:09:58.22	221.26	4.49	-57.9	-66.9	4.5	8.24e-01	0	27	0	0	81	10486
2026-01-14 14:10:02.26	221.63	4.72	-57.6	-65.2	5.2	7.34e-01	0	27	0	3145728	81	8635
2026-01-14 14:10:06.29	222.00	4.94	-55.2	-58.6	10.4	2.71e-03	0	26	0	24117248	77	5061
2026-01-14 14:10:10.32	222.37	5.17	-57.4	-64.3	5.5	8.43e-01	0	27	104	42991616	81	7794
2026-01-14 14:10:14.36	222.75	5.40	-49.8	-51.2	14.2	0.00e+00	0	27	0	63963136	65	4338
2026-01-14 14:10:18.39	223.14	5.63	-49.5	-50.9	14.3	0.00e+00	0	27	0	87031808	65	4182
2026-01-14 14:10:22.43	223.54	5.87	-49.8	-51.3	14.2	0.00e+00	0	27	0	110100480	65	4346
2026-01-14 14:10:26.46	223.93	6.10	-49.7	-51.1	14.2	0.00e+00	0	27	0	132120576	65	4282
2026-01-14 14:10:30.50	224.34	6.33	-49.5	-50.9	14.4	0.00e+00	0	27	0	155189248	65	4174
2026-01-14 14:10:34.53	224.75	6.57	-49.5	-50.9	14.4	0.00e+00	0	27	0	177209344	65	4191
2026-01-14 14:10:38.57	225.17	6.80	-49.5	-50.9	14.4	0.00e+00	0	27	0	200278016	65	4180
2026-01-14 14:10:42.61	225.60	7.04	-49.5	-50.9	14.4	0.00e+00	0	27	0	223346688	65	4170
2026-01-14 14:10:46.64	226.03	7.28	-49.5	-51.0	14.4	0.00e+00	0	27	0	246415360	65	4201
2026-01-14 14:10:50.67	226.46	7.52	-49.1	-50.5	14.5	0.00e+00	0	27	0	268435456	64	4203
2026-01-14 14:10:54.71	226.91	7.75	-49.0	-50.3	14.6	0.00e+00	0	27	0	291504128	64	4124
2026-01-14 14:10:58.75	227.36	8.00	-49.1	-50.4	14.5	0.00e+00	0	27	0	314572800	64	4191
2026-01-14 14:11:02.79	227.82	8.24	-49.0	-50.3	14.6	0.00e+00	0	27	0	336592896	64	4124
2026-01-14 14:11:06.82	228.29	8.48	-48.8	-50.1	14.7	0.00e+00	0	27	0	359661568	64	4044
2026-01-14 14:11:10.86	228.76	8.72	-48.7	-50.0	14.6	0.00e+00	0	27	0	381681664	63	4229
2026-01-14 14:11:14.89	229.25	8.96	-48.6	-49.9	14.7	0.00e+00	0	27	0	404750336	63	4168
2026-01-14 14:11:18.93	229.74	9.21	-48.6	-49.8	14.7	0.00e+00	0	27	0	427819008	63	4137
2026-01-14 14:11:22.96	230.23	9.45	-48.9	-50.2	14.5	0.00e+00	0	27	0	449839104	63	4325
2026-01-14 14:11:27.00	230.74	9.69	-48.8	-50.1	14.6	0.00e+00	0	27	0	472907776	63	4247
2026-01-14 14:11:31.04	231.25	9.94	-48.4	-49.7	14.8	0.00e+00	0	27	0	495976448	63	4064
2026-01-14 14:11:35.07	231.78	10.19	-48.2	-49.4	14.7	0.00e+00	0	27	0	517996544	62	4180
2026-01-14 14:11:39.11	232.31	10.43	-48.1	-49.4	14.8	0.00e+00	0	27	0	541065216	62	4151
2026-01-14 14:11:43.14	232.85	10.68	-48.3	-49.6	14.7	0.00e+00	0	27	0	564133888	62	4264
2026-01-14 14:11:47.18	233.39	10.92	-48.3	-49.6	14.7	0.00e+00	0	27	0	586153984	62	4267
2026-01-14 14:11:51.21	233.95	11.17	-48.2	-49.4	14.7	0.00e+00	0	27	0	609222656	62	4177
2026-01-14 14:11:55.23	234.52	11.41	-48.2	-49.4	14.7	0.00e+00	0	27	0	631242752	62	4177
2026-01-14 14:11:59.25	235.09	11.66	-48.0	-49.3	14.8	0.00e+00	0	27	0	654311424	62	4112
2026-01-14 14:12:03.28	235.67	11.91	-48.0	-49.2	14.8	0.00e+00	0	27	0	677380096	62	4067
2026-01-14 14:12:07.32	236.27	12.15	-47.8	-49.0	14.9	0.00e+00	0	27	0	699400192	62	3980
2026-01-14 14:12:11.36	236.87	12.40	-47.6	-48.8	14.9	0.00e+00	0	27	0	722468864	61	4113
2026-01-14 14:12:15.39	237.49	12.64	-47.7	-48.9	14.8	0.00e+00	0	27	0	745537536	61	4151
2026-01-14 14:12:19.43	238.11	12.89	-47.6	-48.8	14.9	0.00e+00	0	27	0	767557632	61	4105
2026-01-14 14:12:23.47	238.75	13.13	-47.4	-48.6	15.0	0.00e+00	0	27	0	790626304	61	4017
2026-01-14 14:12:27.50	239.39	13.38	-47.6	-48.7	14.9	0.00e+00	0	27	0	813694976	61	4095
2026-01-14 14:12:31.53	240.04	13.62	-47.7	-48.9	14.8	0.00e+00	0	28	0	835715072	61	4188
2026-01-14 14:12:35.56	240.71	13.86	-47.8	-49.0	14.8	0.00e+00	0	27	0	858783744	61	4205
2026-01-14 14:12:39.60	241.38	14.10	-47.4	-48.6	15.0	0.00e+00	0	27	0	881852416	61	4018
2026-01-14 14:12:43.64	242.07	14.34	-47.4	-48.6	15.0	0.00e+00	0	27	0	903872512	61	4015
2026-01-14 14:12:47.67	242.76	14.58	-47.4	-48.6	15.0	0.00e+00	0	27	0	926941184	61	4027
2026-01-14 14:12:51.70	243.47	14.81	-47.4	-48.5	15.0	0.00e+00	0	28	0	948961280	61	3991
2026-01-14 14:12:55.73	244.19	15.05	-47.2	-48.3	15.1	0.00e+00	0	27	0	972029952	61	3902
2026-01-14 14:12:59.77	244.92	15.28	-46.9	-48.0	15.1	0.00e+00	0	27	0	995098624	60	3978
2026-01-14 14:13:03.82	245.66	15.51	-47.0	-48.2	15.0	0.00e+00	0	27	0	1017118720	60	4064
2026-01-14 14:13:07.85	246.41	15.74	-47.0	-48.1	15.0	0.00e+00	0	27	0	1040187392	60	4036
2026-01-14 14:13:11.89	247.18	15.96	-46.9	-48.0	15.0	0.00e+00	0	28	0	1063256064	60	3992
2026-01-14 14:13:15.92	247.95	16.18	-46.8	-47.9	15.1	0.00e+00	0	28	0	1085276160	60	3921
2026-01-14 14:13:19.96	248.73	16.40	-46.7	-47.8	15.1	0.00e+00	0	28	0	1108344832	60	3894
2026-01-14 14:13:24.00	249.53	16.62	-47.1	-48.3	14.9	0.00e+00	0	27	0	1131413504	59	4359
2026-01-14 14:13:28.02	250.34	16.83	-47.2	-48.4	14.9	0.00e+00	0	27	0	1153433600	59	4409
2026-01-14 14:13:32.06	251.15	17.04	-47.2	-48.3	14.9	0.00e+00	0	28	0	1176502272	59	4382
2026-01-14 14:13:36.08	251.98	17.24	-47.1	-48.3	14.9	0.00e+00	0	27	0	1199570944	59	4345
2026-01-14 14:13:40.12	252.82	17.44	-47.2	-48.3	14.9	0.00e+00	0	27	0	1221591040	59	4380
2026-01-14 14:13:44.16	253.67	17.64	-46.8	-48.0	15.0	0.00e+00	0	28	0	1244659712	59	4204
2026-01-14 14:13:48.19	254.53	17.83	-46.9	-48.1	15.0	0.00e+00	0	27	0	1267728384	59	4247
2026-01-14 14:13:52.22	255.40	18.02	-46.8	-47.9	15.0	0.00e+00	0	28	0	1289748480	59	4173
2026-01-14 14:13:56.26	256.29	18.20	-46.6	-47.7	15.0	0.00e+00	0	27	0	1312817152	59	4092
2026-01-14 14:14:00.29	257.18	18.38	-46.8	-48.0	15.0	0.00e+00	0	28	0	1334837248	59	4211
2026-01-14 14:14:04.33	258.08	18.55	-46.9	-48.1	14.9	0.00e+00	0	28	0	1357905920	59	4270
2026-01-14 14:14:08.37	258.99	18.71	-46.7	-47.8	15.0	0.00e+00	0	27	0	1380974592	59	4141
2026-01-14 14:14:12.40	259.91	18.87	-46.8	-47.9	15.0	0.00e+00	0	27	0	1402994688	59	4182
2026-01-14 14:14:16.44	260.84	19.03	-46.7	-47.9	15.0	0.00e+00	0	28	0	1426063360	59	4152
2026-01-14 14:14:20.47	261.78	19.17	-46.7	-47.9	15.0	0.00e+00	0	28	0	1449132032	59	4158
2026-01-14 14:14:24.50	262.73	19.31	-46.6	-47.7	15.1	0.00e+00	0	28	0	1471152128	59	4095
2026-01-14 14:14:28.54	263.69	19.44	-46.5	-47.6	15.1	0.00e+00	0	28	0	1494220800	59	4031
2026-01-14 14:14:32.58	264.65	19.57	-46.4	-47.4	15.2	0.00e+00	0	28	0	1516240896	59	3958
2026-01-14 14:14:36.60	265.62	19.69	-46.4	-47.5	15.1	0.00e+00	0	28	0	1539309568	59	3990
2026-01-14 14:14:40.64	266.60	19.80	-46.7	-47.8	15.0	0.00e+00	0	28	0	1562378240	59	4102
2026-01-14 14:14:44.68	267.59	19.90	-46.6	-47.7	15.1	0.00e+00	0	28	0	1585446912	59	4078
2026-01-14 14:14:48.72	268.58	19.99	-46.6	-47.7	15.1	0.00e+00	0	27	0	1607467008	59	4055
2026-01-14 14:14:52.76	269.58	20.08	-46.6	-47.8	15.0	0.00e+00	0	28	0	1630535680	59	4102
2026-01-14 14:14:56.79	270.58	20.16	-46.6	-47.7	15.1	0.00e+00	0	28	0	1653604352	59	4088
2026-01-14 14:15:00.83	271.59	20.23	-46.6	-47.7	15.1	0.00e+00	0	27	0	1675624448	59	4077
2026-01-14 14:15:04.87	272.60	20.29	-46.7	-47.8	15.0	0.00e+00	0	27	0	1698693120	59	4128
2026-01-14 14:15:08.90	273.61	20.34	-46.6	-47.8	15.0	0.00e+00	0	27	0	1720713216	59	4106
2026-01-14 14:15:12.94	274.63	20.39	-46.5	-47.5	15.1	0.00e+00	0	28	0	1743781888	59	4004
2026-01-14 14:15:16.98	275.65	20.42	-46.4	-47.5	15.1	0.00e+00	0	27	0	1766850560	59	3986
2026-01-14 14:15:21.00	276.67	20.45	-46.3	-47.4	15.2	0.00e+00	0	27	0	1788870656	59	3942
2026-01-14 14:15:25.03	277.69	20.46	-46.6	-47.7	15.1	0.00e+00	0	28	0	1811939328	59	4064
2026-01-14 14:15:29.06	278.71	20.47	-46.6	-47.7	15.1	0.00e+00	0	27	0	1835008000	59	4057
2026-01-14 14:15:33.10	279.74	20.47	-46.6	-47.7	15.1	0.00e+00	0	28	0	1857028096	59	4079
2026-01-14 14:15:37.13	280.76	20.46	-46.6	-47.7	15.1	0.00e+00	0	27	0	1880096768	59	4068
2026-01-14 14:15:41.16	281.78	20.44	-46.6	-47.6	15.1	0.00e+00	0	28	0	1902116864	59	4046
2026-01-14 14:15:45.20	282.80	20.41	-46.7	-47.8	15.0	0.00e+00	0	27	0	1925185536	59	4113
2026-01-14 14:15:49.24	283.82	20.37	-46.8	-48.0	15.0	0.00e+00	0	28	0	1948254208	59	4195
2026-01-14 14:15:53.28	284.84	20.33	-46.7	-47.8	15.0	0.00e+00	0	27	0	1970274304	59	4138
2026-01-14 14:15:57.31	285.85	20.27	-46.5	-47.6	15.1	0.00e+00	0	27	0	1993342976	59	4015
2026-01-14 14:16:01.35	286.86	20.21	-46.7	-47.8	15.0	0.00e+00	0	27	0	2016411648	59	4126
2026-01-14 14:16:05.38	287.87	20.14	-46.9	-48.0	15.0	0.00e+00	0	27	0	2039480320	59	4221
2026-01-14 14:16:09.42	288.87	20.05	-47.2	-48.4	14.9	0.00e+00	0	28	0	2061500416	59	4407
2026-01-14 14:16:13.46	289.86	19.97	-47.1	-48.2	14.9	0.00e+00	0	27	0	2084569088	59	4330
2026-01-14 14:16:17.49	290.85	19.87	-47.0	-48.1	15.0	0.00e+00	0	28	0	2106589184	59	4264
2026-01-14 14:16:21.52	291.83	19.76	-47.2	-48.3	14.9	0.00e+00	0	28	0	2129657856	59	4381
2026-01-14 14:16:25.56	292.80	19.65	-47.2	-48.3	14.9	0.00e+00	0	27	0	2152726528	59	4380
2026-01-14 14:16:29.60	293.77	19.53	-46.8	-47.9	15.0	0.00e+00	0	27	0	2174746624	59	4191
2026-01-14 14:16:33.63	294.73	19.40	-46.9	-48.0	15.0	0.00e+00	0	27	0	2197815296	59	4227
2026-01-14 14:16:37.66	295.68	19.27	-46.8	-47.9	15.0	0.00e+00	0	28	0	2220883968	59	4169
2026-01-14 14:16:41.70	296.62	19.13	-47.2	-48.3	14.9	0.00e+00	0	28	0	2242904064	59	4366
2026-01-14 14:16:45.73	297.56	18.98	-47.1	-48.3	14.9	0.00e+00	0	28	0	2265972736	59	4342
2026-01-14 14:16:49.77	298.48	18.83	-47.3	-48.4	14.9	0.00e+00	0	27	0	2287992832	59	4421
2026-01-14 14:16:53.80	299.40	18.67	-47.2	-48.3	14.9	0.00e+00	0	28	0	2311061504	59	4375
2026-01-14 14:16:57.84	300.31	18.50	-47.3	-48.5	14.8	0.00e+00	0	27	0	2334130176	59	4474
2026-01-14 14:17:01.88	301.21	18.33	-47.4	-48.6	14.8	0.00e+00	0	27	0	2356150272	59	4503
2026-01-14 14:17:05.91	302.09	18.15	-47.2	-48.3	14.9	0.00e+00	0	28	0	2379218944	60	4140
2026-01-14 14:17:09.95	302.97	17.97	-47.1	-48.2	15.0	0.00e+00	0	28	0	2402287616	60	4071
2026-01-14 14:17:13.98	303.83	17.78	-47.0	-48.1	15.0	0.00e+00	0	28	0	2424307712	60	4042
2026-01-14 14:17:18.01	304.69	17.59	-46.9	-48.0	15.0	0.00e+00	0	28	0	2447376384	60	3996
2026-01-14 14:17:22.05	305.53	17.39	-47.1	-48.2	15.0	0.00e+00	0	28	0	2470445056	60	4069
2026-01-14 14:17:26.07	306.36	17.19	-47.1	-48.2	15.0	0.00e+00	0	28	0	2492465152	60	4093
2026-01-14 14:17:30.12	307.19	16.98	-47.1	-48.2	15.0	0.00e+00	0	28	0	2515533824	60	4098
2026-01-14 14:17:34.15	308.00	16.78	-47.0	-48.1	15.0	0.00e+00	0	28	0	2538602496	60	4021
2026-01-14 14:17:38.19	308.80	16.56	-47.4	-48.6	14.9	0.00e+00	0	27	0	2560622592	60	4245
2026-01-14 14:17:42.22	309.59	16.35	-47.4	-48.6	14.8	0.00e+00	0	28	0	2583691264	60	4268
2026-01-14 14:17:46.26	310.37	16.13	-47.4	-48.5	14.8	0.00e+00	0	27	0	2606759936	60	4238
2026-01-14 14:17:50.30	311.14	15.91	-47.3	-48.5	14.9	0.00e+00	0	27	0	2628780032	60	4202
2026-01-14 14:17:54.33	311.90	15.68	-47.4	-48.6	14.8	0.00e+00	0	27	0	2651848704	60	4261
2026-01-14 14:17:58.35	312.64	15.46	-47.5	-48.7	14.8	0.00e+00	0	28	0	2673868800	60	4313
2026-01-14 14:18:02.38	313.37	15.23	-47.7	-48.9	14.7	0.00e+00	0	28	0	2696937472	60	4432
2026-01-14 14:18:06.42	314.10	15.00	-47.9	-49.1	14.8	0.00e+00	0	27	0	2720006144	61	4270
2026-01-14 14:18:10.45	314.81	14.76	-48.1	-49.3	14.7	0.00e+00	0	28	0	2742026240	61	4377
2026-01-14 14:18:14.48	315.51	14.53	-47.8	-49.1	14.8	0.00e+00	0	28	0	2765094912	61	4243
2026-01-14 14:18:18.51	316.20	14.29	-47.7	-48.9	14.8	0.00e+00	0	28	0	2788163584	61	4153
2026-01-14 14:18:22.54	316.88	14.06	-47.7	-48.8	14.8	0.00e+00	0	28	0	2810183680	61	4144
2026-01-14 14:18:26.58	317.55	13.82	-47.7	-48.9	14.8	0.00e+00	0	28	0	2833252352	61	4150
2026-01-14 14:18:30.62	318.21	13.58	-47.7	-48.9	14.8	0.00e+00	0	28	0	2855272448	61	4181
2026-01-14 14:18:34.65	318.86	13.34	-48.0	-49.2	14.7	0.00e+00	0	28	0	2878341120	61	4299
2026-01-14 14:18:38.68	319.50	13.09	-48.1	-49.3	14.7	0.00e+00	0	28	0	2901409792	61	4385
2026-01-14 14:18:42.71	320.13	12.85	-48.1	-49.3	14.7	0.00e+00	0	28	0	2923429888	61	4388
2026-01-14 14:18:46.74	320.75	12.61	-48.2	-49.5	14.6	0.00e+00	0	28	0	2946498560	61	4463
2026-01-14 14:18:50.77	321.35	12.37	-48.1	-49.4	14.6	0.00e+00	0	28	0	2969567232	61	4400
2026-01-14 14:18:54.81	321.96	12.12	-48.1	-49.3	14.7	0.00e+00	0	28	0	2991587328	61	4354
2026-01-14 14:18:58.83	322.54	11.88	-48.2	-49.5	14.6	0.00e+00	0	28	0	3014656000	61	4442
2026-01-14 14:19:02.87	323.12	11.63	-48.1	-49.4	14.6	0.00e+00	0	28	0	3036676096	61	4397
2026-01-14 14:19:06.90	323.70	11.39	-48.2	-49.5	14.6	0.00e+00	0	28	0	3059744768	61	4458
2026-01-14 14:19:10.94	324.26	11.14	-48.3	-49.5	14.6	0.00e+00	0	28	0	3082813440	61	4480
2026-01-14 14:19:14.97	324.81	10.90	-48.5	-49.7	14.6	0.00e+00	0	28	0	3104833536	62	4336
2026-01-14 14:19:19.01	325.36	10.65	-48.7	-50.0	14.5	0.00e+00	0	28	0	3127902208	62	4467
2026-01-14 14:19:23.04	325.89	10.41	-48.8	-50.1	14.4	0.00e+00	0	28	0	3150970880	62	4541
2026-01-14 14:19:27.08	326.42	10.17	-49.0	-50.3	14.5	0.00e+00	0	28	0	3174039552	63	4361
2026-01-14 14:19:31.12	326.94	9.92	-48.7	-50.0	14.6	0.00e+00	0	28	0	3196059648	63	4199
2026-01-14 14:19:35.16	327.45	9.68	-48.8	-50.1	14.5	0.00e+00	0	27	0	3219128320	63	4258
2026-01-14 14:19:39.19	327.95	9.44	-49.0	-50.4	14.4	0.00e+00	0	28	0	3241148416	63	4413
2026-01-14 14:19:43.23	328.45	9.19	-49.2	-50.6	14.3	0.00e+00	0	28	0	3264217088	63	4502
2026-01-14 14:19:47.27	328.94	8.95	-49.2	-50.6	14.3	0.00e+00	0	28	0	3287285760	63	4519
2026-01-14 14:19:51.30	329.42	8.71	-49.2	-50.6	14.3	0.00e+00	0	28	0	3309305856	63	4523
2026-01-14 14:19:55.34	329.89	8.47	-49.2	-50.6	14.3	0.00e+00	0	28	0	3332374528	63	4519
2026-01-14 14:19:59.37	330.35	8.23	-49.3	-50.7	14.3	0.00e+00	0	28	0	3355443200	63	4578
2026-01-14 14:20:03.41	330.81	7.99	-49.4	-50.8	14.3	0.00e+00	0	28	0	3377463296	64	4363
2026-01-14 14:20:07.45	331.26	7.76	-49.4	-50.7	14.3	0.00e+00	0	28	0	3400531968	64	4325
2026-01-14 14:20:11.48	331.70	7.52	-49.3	-50.6	14.4	0.00e+00	0	28	0	3423600640	64	4266
2026-01-14 14:20:15.52	332.14	7.28	-49.4	-50.8	14.3	0.00e+00	0	28	0	3445620736	64	4353
2026-01-14 14:20:19.56	332.57	7.05	-49.6	-51.0	14.2	0.00e+00	0	28	0	3468689408	64	4468
2026-01-14 14:20:23.59	332.99	6.81	-49.7	-51.1	14.1	0.00e+00	0	28	0	3491758080	64	4537
2026-01-14 14:20:27.62	333.41	6.58	-49.7	-51.2	14.1	0.00e+00	0	28	0	3513778176	64	4551
2026-01-14 14:20:31.65	333.82	6.35	-49.5	-51.0	14.2	0.00e+00	0	28	0	3536846848	64	4442
2026-01-14 14:20:35.68	334.22	6.11	-49.6	-51.0	14.1	0.00e+00	0	28	0	3559915520	64	4489
2026-01-14 14:20:39.72	334.62	5.88	-49.6	-51.0	14.1	0.00e+00	0	27	0	3581935616	64	4487
2026-01-14 14:20:43.74	335.01	5.65	-50.1	-51.7	13.8	0.00e+00	0	28	0	3605004288	65	4571
2026-01-14 14:20:47.78	335.40	5.42	-50.1	-51.7	13.8	0.00e+00	0	28	0	3627024384	65	4578
2026-01-14 14:20:51.81	335.78	5.20	-50.2	-51.8	13.8	0.00e+00	0	28	0	3650093056	65	4639
2026-01-14 14:20:55.84	336.15	4.97	-57.1	-62.9	7.0	2.96e-02	0	28	0	3673161728	79	7400
2026-01-14 14:20:59.87	336.52	4.74	-59.9	-72.9	3.8	8.44e-01	0	28	104	3673161728	84	17668
2026-01-14 14:21:03.90	336.89	4.52	-60.3	-73.4	3.8	8.45e-01	0	28	104	3673161728	85	17506
2026-01-14 14:21:07.94	337.25	4.29	-60.5	-73.6	3.8	8.46e-01	0	28	104	3673161728	86	16908
2026-01-14 14:21:11.98	337.60	4.07	-60.6	-73.6	3.8	8.45e-01	0	28	104	3673161728	86	17072
2026-01-14 14:21:16.01	337.95	3.85	-60.6	-73.7	3.8	8.46e-01	0	28	104	3673161728	86	17169
2026-01-14 14:21:20.04	338.29	3.63	-60.5	-73.6	3.8	8.46e-01	0	28	104	3673161728	86	17010
2026-01-14 14:21:24.07	338.63	3.41	-60.5	-73.6	3.8	8.45e-01	0	28	104	3673161728	86	16921
2026-01-14 14:21:28.11	338.97	3.19	-60.4	-73.5	3.8	8.46e-01	0	28	104	3673161728	86	16827
2026-01-14 14:21:32.15	339.30	2.97	-60.4	-73.5	3.8	8.47e-01	0	28	104	3673161728	86	16712
2026-01-14 14:21:36.18	339.62	2.75	-60.4	-73.4	3.8	8.46e-01	0	28	104	3673161728	86	16659
2026-01-14 14:21:40.22	339.94	2.54	-60.3	-73.4	3.8	8.45e-01	0	28	104	3673161728	86	16626
2026-01-14 14:21:44.25	340.26	2.32	-60.3	-73.4	3.8	8.45e-01	0	28	104	3673161728	86	16594
2026-01-14 14:21:48.27	340.57	2.11	-60.3	-73.4	3.8	8.45e-01	0	28	104	3673161728	86	16534
2026-01-14 14:21:52.30	340.88	1.89	-60.3	-73.4	3.8	8.46e-01	0	28	104	3673161728	86	16543

#Closed at: 2026-01-14 14:21:52
#Recorded file [3673 MB]: D:/lorett/data/31004_260114_170913.dat