passes_logs/2026/01/14/R3.2S_Murmansk/R3.2S_Murmansk__20260114_080732_SUOMI_NPP_rec.log

#Pass ID: 20260114_080732_SUOMI NPP
#Satellite: SUOMI NPP
#Configuration: NPP
#almurnet v.1.7.20251203
#Start time: 2026-01-14 08:07:34

#Version: 2.2.20231116
#Station: R3.2S_Murmansk
#Location: 33.079688 lon 68.888172 lat
#TLE: 1 37849U 11061A   26013.83525404  .00000052  00000+0  45495-4 0  9990
#TLE: 2 37849  98.7808 315.8939 0002471  65.6575 294.4859 14.19524986736544

#Time	Az	El	Level	Level2	SNR	BER	BlckErr	Temp	State	Recorded	gain1	gain2
2026-01-14 08:07:34.41	117.45	2.13	-57.9	-74.0	3.8	1.49e+00	0	25	0	0	82	22303
2026-01-14 08:07:38.39	117.32	2.38	-57.9	-73.9	3.8	1.49e+00	0	25	104	0	80	24829
2026-01-14 08:07:42.34	117.19	2.63	-57.9	-73.9	3.8	1.49e+00	0	26	104	0	80	24810
2026-01-14 08:07:46.33	117.05	2.89	-57.9	-73.9	3.8	1.49e+00	0	26	104	0	80	24770
2026-01-14 08:07:50.33	116.91	3.14	-57.9	-73.8	3.8	1.49e+00	0	26	104	0	81	23273
2026-01-14 08:07:54.30	116.77	3.40	-57.9	-73.8	3.8	1.49e+00	0	26	104	0	81	23059
2026-01-14 08:07:58.28	116.62	3.66	-57.9	-73.7	3.8	1.49e+00	0	26	104	0	81	22876
2026-01-14 08:08:02.25	116.48	3.93	-57.9	-71.7	4.0	1.49e+00	0	26	104	0	81	18227
2026-01-14 08:08:06.23	116.33	4.19	-57.6	-68.0	5.1	6.03e-01	0	26	0	4194304	81	11938
2026-01-14 08:08:10.20	116.18	4.46	-57.0	-64.0	8.0	3.91e-02	0	26	0	11534336	80	7931
2026-01-14 08:08:14.18	116.02	4.73	-55.5	-59.7	11.5	7.70e-05	0	26	0	19922944	77	5724
2026-01-14 08:08:18.13	115.86	5.00	-54.3	-57.6	12.8	0.00e+00	0	26	0	27262976	75	5044
2026-01-14 08:08:22.13	115.70	5.28	-55.7	-60.1	11.0	0.00e+00	0	26	0	34603008	76	6398
2026-01-14 08:08:26.12	115.53	5.56	-54.2	-57.1	13.1	0.00e+00	0	26	0	41943040	75	4788
2026-01-14 08:08:30.10	115.36	5.84	-54.7	-58.1	12.4	0.00e+00	0	26	0	49283072	74	5667
2026-01-14 08:08:34.07	115.19	6.12	-54.4	-57.4	13.0	0.00e+00	0	26	0	56623104	75	4973
2026-01-14 08:08:38.05	115.01	6.41	-54.0	-56.8	13.3	0.00e+00	0	26	0	63963136	74	4884
2026-01-14 08:08:42.01	114.84	6.70	-54.1	-56.8	13.3	0.00e+00	0	26	0	71303168	74	4904
2026-01-14 08:08:45.99	114.65	6.99	-54.2	-57.1	13.1	0.00e+00	0	27	0	78643200	74	5060
2026-01-14 08:08:49.96	114.46	7.29	-53.9	-56.5	13.5	0.00e+00	0	27	0	85983232	74	4741
2026-01-14 08:08:53.94	114.27	7.59	-53.6	-56.0	13.7	0.00e+00	0	26	0	94371840	73	4755
2026-01-14 08:08:57.92	114.07	7.89	-53.7	-56.3	13.5	0.00e+00	0	27	0	101711872	73	4891
2026-01-14 08:09:01.89	113.87	8.19	-53.6	-56.1	13.6	0.00e+00	0	27	0	109051904	73	4788
2026-01-14 08:09:05.85	113.67	8.50	-53.3	-55.6	13.9	0.00e+00	0	27	0	116391936	73	4538
2026-01-14 08:09:09.82	113.46	8.81	-53.2	-55.5	14.0	0.00e+00	0	27	0	123731968	73	4478
2026-01-14 08:09:13.81	113.24	9.13	-53.4	-55.7	13.9	0.00e+00	0	27	0	131072000	73	4568
2026-01-14 08:09:17.77	113.03	9.45	-53.4	-55.7	13.9	0.00e+00	0	27	0	138412032	73	4578
2026-01-14 08:09:21.73	112.80	9.77	-53.2	-55.5	13.9	0.00e+00	0	27	0	145752064	72	4707
2026-01-14 08:09:25.71	112.57	10.10	-53.2	-55.4	14.0	0.00e+00	0	27	0	153092096	72	4670
2026-01-14 08:09:29.68	112.34	10.43	-53.3	-55.5	13.9	0.00e+00	0	27	0	161480704	72	4742
2026-01-14 08:09:33.64	112.10	10.76	-53.1	-55.3	14.0	0.00e+00	0	27	0	168820736	72	4606
2026-01-14 08:09:37.62	111.85	11.10	-53.0	-55.4	14.0	0.00e+00	0	27	0	176160768	72	4705
2026-01-14 08:09:41.60	111.59	11.44	-52.9	-55.3	14.0	0.00e+00	0	27	0	183500800	72	4649
2026-01-14 08:09:45.58	111.33	11.79	-52.8	-55.2	14.1	0.00e+00	0	27	0	190840832	72	4588
2026-01-14 08:09:49.55	111.07	12.14	-52.9	-55.3	14.0	0.00e+00	0	27	0	198180864	72	4644
2026-01-14 08:09:53.53	110.79	12.50	-53.1	-55.5	13.9	0.00e+00	0	27	0	205520896	72	4745
2026-01-14 08:09:57.51	110.51	12.86	-52.8	-55.2	14.1	0.00e+00	0	27	0	212860928	72	4563
2026-01-14 08:10:01.48	110.23	13.22	-52.7	-55.0	14.1	0.00e+00	0	27	0	220200960	71	4747
2026-01-14 08:10:05.45	109.93	13.59	-52.6	-54.9	14.1	0.00e+00	0	27	0	227540992	71	4689
2026-01-14 08:10:09.43	109.63	13.97	-52.6	-54.9	14.2	0.00e+00	0	27	0	235929600	71	4668
2026-01-14 08:10:13.41	109.32	14.35	-52.8	-55.1	14.0	0.00e+00	0	27	0	243269632	71	4781
2026-01-14 08:10:17.38	109.00	14.73	-52.8	-55.1	14.1	0.00e+00	0	27	0	250609664	71	4774
2026-01-14 08:10:21.36	108.67	15.13	-52.9	-55.4	13.9	0.00e+00	0	27	0	257949696	71	4948
2026-01-14 08:10:25.33	108.33	15.52	-53.0	-55.5	13.8	0.00e+00	0	27	0	265289728	71	5032
2026-01-14 08:10:29.30	107.99	15.92	-53.2	-55.8	13.7	0.00e+00	0	27	0	272629760	71	5184
2026-01-14 08:10:33.29	107.63	16.33	-52.6	-55.0	14.1	0.00e+00	0	27	0	279969792	71	4715
2026-01-14 08:10:37.25	107.27	16.74	-52.9	-55.3	14.0	0.00e+00	0	27	0	287309824	71	4921
2026-01-14 08:10:41.22	106.89	17.16	-52.8	-55.2	14.0	0.00e+00	0	27	0	294649856	71	4819
2026-01-14 08:10:45.19	106.50	17.58	-52.5	-54.7	14.2	0.00e+00	0	27	0	303038464	71	4586
2026-01-14 08:10:49.16	106.10	18.01	-52.7	-54.9	14.2	0.00e+00	0	27	0	310378496	71	4671
2026-01-14 08:10:53.15	105.69	18.45	-52.7	-54.9	14.1	0.00e+00	0	27	0	317718528	71	4672
2026-01-14 08:10:57.12	105.27	18.89	-53.0	-55.3	14.0	0.00e+00	0	27	0	325058560	71	4883
2026-01-14 08:11:01.08	104.83	19.34	-53.0	-55.4	13.9	0.00e+00	0	27	0	332398592	71	4937
2026-01-14 08:11:05.06	104.38	19.79	-52.7	-54.8	14.2	0.00e+00	0	27	0	339738624	71	4606
2026-01-14 08:11:09.03	103.92	20.25	-52.6	-54.8	14.2	0.00e+00	0	27	0	347078656	71	4626
2026-01-14 08:11:13.01	103.44	20.72	-52.3	-54.4	14.4	0.00e+00	0	27	0	354418688	71	4411
2026-01-14 08:11:16.98	102.94	21.19	-52.8	-55.0	14.2	0.00e+00	0	27	0	361758720	71	4727
2026-01-14 08:11:20.96	102.43	21.68	-53.0	-55.4	14.0	0.00e+00	0	27	0	369098752	71	4935
2026-01-14 08:11:24.94	101.91	22.16	-53.0	-55.4	13.9	0.00e+00	0	27	0	377487360	71	4975
2026-01-14 08:11:28.92	101.36	22.66	-52.7	-55.0	14.1	0.00e+00	0	27	0	384827392	71	4730
2026-01-14 08:11:32.89	100.80	23.16	-52.8	-55.2	14.0	0.00e+00	0	27	0	392167424	71	4827
2026-01-14 08:11:36.87	100.22	23.67	-53.2	-55.8	13.8	0.00e+00	0	27	0	399507456	71	5182
2026-01-14 08:11:40.85	99.62	24.18	-53.0	-55.6	13.9	0.00e+00	0	27	0	406847488	71	5047
2026-01-14 08:11:44.81	99.00	24.70	-52.9	-55.4	14.0	0.00e+00	0	27	0	414187520	71	4979
2026-01-14 08:11:48.78	98.36	25.23	-52.8	-55.3	14.1	0.00e+00	0	27	0	421527552	71	4896
2026-01-14 08:11:52.75	97.70	25.77	-53.0	-55.4	13.9	0.00e+00	0	27	0	428867584	71	4964
2026-01-14 08:11:56.73	97.01	26.31	-53.0	-55.4	13.9	0.00e+00	0	27	0	437256192	71	4983
2026-01-14 08:12:00.69	96.30	26.85	-53.0	-55.7	13.8	0.00e+00	0	27	0	444596224	71	5104
2026-01-14 08:12:04.67	95.56	27.41	-53.2	-56.0	13.7	0.00e+00	0	27	0	451936256	71	5283
2026-01-14 08:12:08.65	94.80	27.97	-53.0	-55.6	13.9	0.00e+00	0	27	0	459276288	71	5075
2026-01-14 08:12:12.61	94.01	28.53	-53.3	-55.8	13.8	0.00e+00	0	27	0	466616320	71	5206
2026-01-14 08:12:16.59	93.19	29.10	-54.0	-57.0	13.4	0.00e+00	0	27	0	473956352	73	5311
2026-01-14 08:12:20.56	92.34	29.67	-53.9	-57.0	13.4	0.00e+00	0	27	0	481296384	73	5281
2026-01-14 08:12:24.54	91.46	30.25	-54.9	-58.8	12.5	0.00e+00	0	27	0	488636416	75	5849
2026-01-14 08:12:28.52	90.54	30.83	-54.5	-58.0	13.1	0.00e+00	0	27	0	495976448	75	5293
2026-01-14 08:12:32.49	89.60	31.42	-54.5	-58.0	13.0	0.00e+00	0	27	0	503316480	75	5292
2026-01-14 08:12:36.46	88.62	32.00	-54.6	-57.6	13.2	0.00e+00	0	27	0	510656512	75	5074
2026-01-14 08:12:40.43	87.60	32.59	-55.2	-58.8	12.6	0.00e+00	0	27	0	519045120	75	5804
2026-01-14 08:12:44.39	86.55	33.18	-54.5	-57.7	13.2	0.00e+00	0	27	0	526385152	75	5117
2026-01-14 08:12:48.36	85.45	33.77	-53.2	-55.6	14.0	0.00e+00	0	27	0	533725184	72	4809
2026-01-14 08:12:52.34	84.31	34.36	-53.6	-56.3	13.7	0.00e+00	0	27	0	541065216	72	5169
2026-01-14 08:12:56.32	83.13	34.95	-53.5	-56.1	13.8	0.00e+00	0	27	0	548405248	72	5070
2026-01-14 08:13:00.29	81.91	35.53	-53.7	-56.6	13.5	0.00e+00	0	27	0	555745280	72	5401
2026-01-14 08:13:04.27	80.64	36.11	-53.9	-56.7	13.5	0.00e+00	0	27	0	563085312	73	5136
2026-01-14 08:13:08.23	79.33	36.68	-54.6	-57.9	12.9	0.00e+00	0	27	0	570425344	74	5557
2026-01-14 08:13:12.22	77.97	37.24	-55.0	-59.3	12.1	2.20e-06	0	27	0	578813952	75	6184
2026-01-14 08:13:16.21	76.55	37.80	-54.3	-58.0	12.9	0.00e+00	0	27	0	586153984	75	5304
2026-01-14 08:13:20.18	75.10	38.34	-53.5	-56.3	13.6	0.00e+00	0	27	0	593494016	73	4903
2026-01-14 08:13:24.15	73.60	38.87	-53.3	-55.9	13.8	0.00e+00	0	27	0	600834048	72	4941
2026-01-14 08:13:28.13	72.04	39.38	-53.5	-56.3	13.6	0.00e+00	0	27	0	608174080	72	5186
2026-01-14 08:13:32.11	70.43	39.88	-52.9	-55.5	14.0	0.00e+00	0	27	0	615514112	72	4721
2026-01-14 08:13:36.10	68.77	40.36	-52.6	-55.2	14.0	0.00e+00	0	27	0	622854144	71	4857
2026-01-14 08:13:40.06	67.08	40.81	-51.7	-53.9	14.4	0.00e+00	0	27	0	630194176	69	4696
2026-01-14 08:13:44.02	65.34	41.24	-52.9	-55.9	13.6	0.00e+00	0	27	0	637534208	71	5262
2026-01-14 08:13:48.00	63.54	41.64	-51.9	-54.2	14.2	0.00e+00	0	27	0	644874240	69	4869
2026-01-14 08:13:51.98	61.70	42.02	-51.3	-53.3	14.5	0.00e+00	0	27	0	653262848	68	4651
2026-01-14 08:13:55.95	59.82	42.37	-52.8	-55.4	13.8	0.00e+00	0	27	0	660602880	70	5264
2026-01-14 08:13:59.92	57.91	42.68	-52.4	-54.7	14.3	0.00e+00	0	27	0	667942912	71	4556
2026-01-14 08:14:03.91	55.95	42.96	-52.6	-54.8	14.2	0.00e+00	0	27	0	675282944	71	4649
2026-01-14 08:14:07.88	53.96	43.20	-52.9	-55.4	13.9	0.00e+00	0	27	0	682622976	71	4929
2026-01-14 08:14:11.85	51.95	43.40	-53.4	-56.2	13.7	0.00e+00	0	27	0	689963008	72	5139
2026-01-14 08:14:15.83	49.91	43.56	-52.5	-55.0	14.0	0.00e+00	0	27	0	697303040	70	4994
2026-01-14 08:14:19.81	47.85	43.69	-53.4	-56.4	13.5	0.00e+00	0	27	0	704643072	72	5274
2026-01-14 08:14:23.78	45.79	43.77	-53.1	-55.9	13.8	0.00e+00	0	27	0	711983104	72	4958
2026-01-14 08:14:27.76	43.71	43.81	-54.0	-57.5	13.0	0.00e+00	0	27	0	720371712	73	5624
2026-01-14 08:14:31.73	41.63	43.81	-53.2	-56.1	13.6	0.00e+00	0	27	0	727711744	71	5350
2026-01-14 08:14:35.70	39.56	43.76	-54.1	-57.8	12.9	0.00e+00	0	27	0	735051776	73	5792
2026-01-14 08:14:39.67	37.49	43.68	-54.3	-58.1	12.7	0.00e+00	0	27	0	742391808	74	5680
2026-01-14 08:14:43.65	35.44	43.55	-54.0	-57.3	13.2	0.00e+00	0	27	0	749731840	74	5191
2026-01-14 08:14:47.63	33.40	43.38	-54.3	-58.1	12.7	0.00e+00	0	27	0	757071872	74	5664
2026-01-14 08:14:51.60	31.39	43.17	-54.1	-57.7	12.9	0.00e+00	0	27	0	764411904	74	5439
2026-01-14 08:14:55.59	29.41	42.93	-54.5	-58.6	12.5	0.00e+00	0	27	0	771751936	74	6037
2026-01-14 08:14:59.56	27.46	42.65	-52.0	-54.4	14.3	0.00e+00	0	27	0	779091968	70	4669
2026-01-14 08:15:03.55	25.54	42.33	-52.0	-54.2	14.3	0.00e+00	0	27	0	787480576	70	4588
2026-01-14 08:15:07.52	23.67	41.98	-51.7	-53.9	14.3	0.00e+00	0	27	0	794820608	69	4677
2026-01-14 08:15:11.50	21.83	41.61	-51.6	-53.8	14.2	0.00e+00	0	27	0	802160640	68	4876
2026-01-14 08:15:15.48	20.05	41.20	-52.2	-54.5	14.2	0.00e+00	0	27	0	809500672	70	4749
2026-01-14 08:15:19.47	18.30	40.76	-50.7	-52.4	14.8	0.00e+00	0	27	0	816840704	68	4178
2026-01-14 08:15:23.45	16.60	40.31	-50.7	-52.5	14.7	0.00e+00	0	27	0	824180736	67	4461
2026-01-14 08:15:27.42	14.96	39.83	-49.9	-51.5	14.9	0.00e+00	0	27	0	831520768	66	4225
2026-01-14 08:15:31.40	13.36	39.33	-51.5	-53.5	14.4	0.00e+00	0	27	0	838860800	68	4742
2026-01-14 08:15:35.37	11.82	38.82	-50.4	-52.1	14.7	0.00e+00	0	27	0	846200832	66	4512
2026-01-14 08:15:39.34	10.32	38.29	-52.2	-54.3	14.3	0.00e+00	0	27	0	854589440	69	4874
2026-01-14 08:15:43.32	8.87	37.75	-51.9	-53.8	14.5	0.00e+00	0	27	0	861929472	69	4648
2026-01-14 08:15:47.30	7.47	37.19	-52.3	-54.4	14.4	0.00e+00	0	27	0	869269504	70	4672
2026-01-14 08:15:51.27	6.12	36.63	-51.8	-53.6	14.6	0.00e+00	0	27	0	876609536	70	4285
2026-01-14 08:15:55.24	4.82	36.06	-52.1	-53.9	14.6	0.00e+00	0	27	0	883949568	70	4427
2026-01-14 08:15:59.22	3.56	35.48	-52.3	-54.3	14.4	0.00e+00	0	27	0	891289600	70	4602
2026-01-14 08:16:03.21	2.34	34.90	-53.8	-56.3	13.6	0.00e+00	0	27	0	898629632	72	5197
2026-01-14 08:16:07.18	1.16	34.31	-52.7	-54.7	14.3	0.00e+00	0	27	0	905969664	71	4595
2026-01-14 08:16:11.16	0.03	33.73	-54.0	-56.7	13.5	0.00e+00	0	27	0	913309696	73	5134
2026-01-14 08:16:15.13	358.94	33.14	-55.1	-58.4	13.0	0.00e+00	0	27	0	921698304	76	5241
2026-01-14 08:16:19.11	357.89	32.55	-55.1	-58.4	12.7	0.00e+00	0	27	0	929038336	75	5587
2026-01-14 08:16:23.08	356.88	31.96	-54.6	-57.5	13.3	0.00e+00	0	27	0	936378368	75	5027
2026-01-14 08:16:27.05	355.91	31.38	-53.9	-56.4	13.8	0.00e+00	0	27	0	943718400	74	4680
2026-01-14 08:16:31.03	354.96	30.79	-54.2	-56.8	13.6	0.00e+00	0	27	0	951058432	74	4913
2026-01-14 08:16:35.00	354.06	30.21	-53.2	-55.5	14.1	0.00e+00	0	27	0	958398464	72	4718
2026-01-14 08:16:38.98	353.18	29.64	-54.4	-57.3	13.3	0.00e+00	0	27	0	965738496	74	5188
2026-01-14 08:16:42.96	352.34	29.06	-53.3	-55.7	14.0	0.00e+00	0	27	0	973078528	73	4572
2026-01-14 08:16:46.94	351.52	28.50	-53.6	-56.1	13.8	0.00e+00	0	27	0	980418560	72	5073
2026-01-14 08:16:50.90	350.74	27.94	-53.6	-56.0	13.8	0.00e+00	0	27	0	987758592	72	5040
2026-01-14 08:16:54.87	349.98	27.38	-53.4	-55.8	14.0	0.00e+00	0	27	0	996147200	73	4633
2026-01-14 08:16:58.85	349.25	26.83	-52.7	-54.7	14.3	0.00e+00	0	27	0	1003487232	71	4583
2026-01-14 08:17:02.84	348.54	26.28	-53.1	-55.3	14.0	0.00e+00	0	27	0	1010827264	71	4902
2026-01-14 08:17:06.81	347.86	25.74	-53.7	-56.2	13.7	0.00e+00	0	27	0	1018167296	72	5143
2026-01-14 08:17:10.78	347.20	25.21	-52.4	-54.5	14.4	0.00e+00	0	27	0	1025507328	71	4457
2026-01-14 08:17:14.77	346.56	24.69	-52.8	-55.0	14.1	0.00e+00	0	27	0	1032847360	70	5000
2026-01-14 08:17:18.74	345.94	24.17	-53.5	-55.9	13.8	0.00e+00	0	27	0	1040187392	72	4966
2026-01-14 08:17:22.70	345.35	23.66	-53.6	-56.1	13.7	0.00e+00	0	27	0	1047527424	72	5089
2026-01-14 08:17:26.68	344.77	23.15	-54.2	-57.0	13.3	0.00e+00	0	27	0	1054867456	73	5334
2026-01-14 08:17:30.67	344.22	22.65	-53.2	-55.5	14.1	0.00e+00	0	27	0	1063256064	73	4480
2026-01-14 08:17:34.65	343.68	22.16	-52.8	-54.9	14.3	0.00e+00	0	27	0	1070596096	72	4407
2026-01-14 08:17:38.62	343.15	21.67	-52.9	-55.1	14.1	0.00e+00	0	27	0	1077936128	71	4783
2026-01-14 08:17:42.60	342.65	21.19	-53.1	-55.4	14.0	0.00e+00	0	27	0	1085276160	71	4930
2026-01-14 08:17:46.57	342.16	20.72	-53.0	-55.2	14.0	0.00e+00	0	27	0	1092616192	71	4852
2026-01-14 08:17:50.53	341.68	20.26	-52.7	-54.8	14.2	0.00e+00	0	27	0	1099956224	71	4610
2026-01-14 08:17:54.49	341.23	19.80	-53.4	-55.8	13.7	0.00e+00	0	27	0	1107296256	71	5185
2026-01-14 08:17:58.45	340.78	19.35	-54.3	-57.2	13.2	0.00e+00	0	27	0	1114636288	73	5454
2026-01-14 08:18:02.43	340.35	18.90	-54.3	-57.2	13.3	0.00e+00	0	27	0	1121976320	74	5137
2026-01-14 08:18:06.41	339.93	18.46	-53.8	-56.4	13.7	0.00e+00	0	27	0	1129316352	74	4672
2026-01-14 08:18:10.38	339.52	18.02	-53.4	-55.9	13.9	0.00e+00	0	27	0	1137704960	73	4652
2026-01-14 08:18:14.36	339.12	17.60	-53.0	-55.2	14.1	0.00e+00	0	27	0	1145044992	72	4596
2026-01-14 08:18:18.34	338.74	17.17	-53.4	-55.8	13.8	0.00e+00	0	27	0	1152385024	72	4898
2026-01-14 08:18:22.33	338.36	16.76	-53.5	-56.1	13.7	0.00e+00	0	27	0	1159725056	72	5051
2026-01-14 08:18:26.31	338.00	16.34	-53.2	-55.5	13.9	0.00e+00	0	27	0	1167065088	72	4751
2026-01-14 08:18:30.29	337.64	15.94	-53.2	-55.5	14.0	0.00e+00	0	27	0	1174405120	72	4732
2026-01-14 08:18:34.27	337.30	15.54	-53.6	-56.2	13.6	0.00e+00	0	27	0	1181745152	72	5133
2026-01-14 08:18:38.24	336.97	15.15	-54.1	-56.9	13.3	0.00e+00	0	27	0	1189085184	73	5220
2026-01-14 08:18:42.22	336.64	14.76	-54.2	-57.1	13.2	0.00e+00	0	27	0	1197473792	73	5380
2026-01-14 08:18:46.19	336.32	14.37	-53.9	-56.6	13.4	6.80e-06	0	27	0	1204813824	73	5086
2026-01-14 08:18:50.17	336.02	13.99	-53.6	-56.1	13.7	0.00e+00	0	27	0	1212153856	73	4807
2026-01-14 08:18:54.14	335.72	13.62	-53.2	-55.6	13.9	0.00e+00	0	27	0	1219493888	72	4791
2026-01-14 08:18:58.13	335.42	13.25	-53.1	-55.5	13.9	0.00e+00	0	27	0	1226833920	72	4720
2026-01-14 08:19:02.11	335.14	12.89	-53.4	-55.9	13.7	0.00e+00	0	27	0	1234173952	72	4965
2026-01-14 08:19:06.08	334.86	12.53	-53.7	-56.3	13.5	0.00e+00	0	27	0	1241513984	72	5186
2026-01-14 08:19:10.07	334.59	12.17	-54.0	-56.8	13.3	0.00e+00	0	27	0	1248854016	73	5181
2026-01-14 08:19:14.05	334.33	11.82	-54.1	-57.0	13.2	0.00e+00	0	27	0	1256194048	73	5312
2026-01-14 08:19:18.02	334.07	11.48	-54.3	-57.2	13.0	0.00e+00	0	27	0	1264582656	73	5462
2026-01-14 08:19:21.99	333.82	11.13	-54.1	-57.0	13.2	0.00e+00	0	27	0	1271922688	73	5304
2026-01-14 08:19:25.97	333.57	10.80	-54.1	-57.0	13.2	0.00e+00	0	27	0	1279262720	73	5317
2026-01-14 08:19:29.94	333.34	10.46	-54.1	-56.9	13.2	0.00e+00	0	27	0	1286602752	73	5256
2026-01-14 08:19:33.92	333.10	10.13	-54.3	-57.2	13.0	0.00e+00	0	27	0	1293942784	73	5458
2026-01-14 08:19:37.89	332.88	9.81	-54.1	-57.0	13.2	0.00e+00	0	27	0	1301282816	73	5290
2026-01-14 08:19:41.87	332.65	9.49	-54.0	-56.7	13.3	0.00e+00	0	27	0	1308622848	73	5148
2026-01-14 08:19:45.84	332.44	9.17	-54.0	-56.8	13.2	0.00e+00	0	27	0	1315962880	73	5181
2026-01-14 08:19:49.81	332.22	8.85	-54.0	-56.8	13.3	0.00e+00	0	27	0	1323302912	73	5165
2026-01-14 08:19:53.78	332.02	8.54	-53.9	-56.7	13.3	0.00e+00	0	27	0	1331691520	73	5106
2026-01-14 08:19:57.75	331.82	8.24	-54.2	-57.1	13.0	0.00e+00	0	27	0	1339031552	73	5400
2026-01-14 08:20:01.72	331.62	7.93	-54.3	-57.4	12.8	0.00e+00	0	27	0	1346371584	73	5538
2026-01-14 08:20:05.69	331.42	7.63	-54.6	-57.9	12.6	0.00e+00	0	27	0	1353711616	74	5559
2026-01-14 08:20:09.65	331.24	7.33	-54.5	-57.7	12.7	1.67e-05	0	27	0	1361051648	74	5434
2026-01-14 08:20:13.63	331.05	7.04	-54.8	-58.3	12.4	0.00e+00	0	27	0	1368391680	74	5812
2026-01-14 08:20:17.59	330.87	6.75	-55.0	-58.6	12.2	0.00e+00	0	27	0	1375731712	75	5707
2026-01-14 08:20:21.57	330.69	6.46	-54.7	-58.1	12.5	0.00e+00	0	27	0	1383071744	75	5397
2026-01-14 08:20:25.52	330.52	6.18	-54.9	-58.4	12.3	7.00e-07	0	27	0	1390411776	75	5586
2026-01-14 08:20:29.50	330.35	5.89	-54.7	-58.0	12.5	7.00e-07	0	27	0	1397751808	75	5327
2026-01-14 08:20:33.47	330.18	5.61	-55.0	-58.7	12.0	4.50e-06	0	27	0	1406140416	75	5767
2026-01-14 08:20:37.45	330.02	5.33	-54.7	-58.3	12.3	1.50e-06	0	27	0	1413480448	75	5466
2026-01-14 08:20:41.43	329.86	5.06	-54.8	-58.4	12.2	0.00e+00	0	27	0	1420820480	75	5532
2026-01-14 08:20:45.43	329.70	4.78	-59.3	-75.3	3.8	1.49e+00	0	27	104	1422917632	83	24627
2026-01-14 08:20:49.43	329.55	4.51	-60.0	-76.1	3.8	1.49e+00	0	27	104	1422917632	85	23997
2026-01-14 08:20:53.45	329.40	4.24	-60.3	-76.4	3.8	1.49e+00	0	27	104	1422917632	85	24749
2026-01-14 08:20:57.47	329.25	3.98	-60.5	-76.6	3.8	1.49e+00	0	27	104	1422917632	86	23904
2026-01-14 08:21:01.49	329.10	3.71	-60.6	-76.6	3.8	1.49e+00	0	28	104	1422917632	86	24129
2026-01-14 08:21:05.49	328.96	3.45	-60.5	-76.6	3.8	1.49e+00	0	27	104	1422917632	86	24122
2026-01-14 08:21:09.46	328.82	3.19	-60.5	-76.6	3.8	1.49e+00	0	28	104	1422917632	86	23911
2026-01-14 08:21:13.43	328.69	2.94	-60.5	-76.5	3.8	1.49e+00	0	28	104	1422917632	86	23802
2026-01-14 08:21:17.39	328.56	2.68	-60.4	-76.5	3.8	1.49e+00	0	27	104	1422917632	86	23734
2026-01-14 08:21:21.37	328.43	2.43	-60.4	-76.5	3.8	1.49e+00	0	28	104	1422917632	86	23597
2026-01-14 08:21:25.36	328.30	2.18	-60.4	-76.4	3.8	1.49e+00	0	28	104	1422917632	86	23575
2026-01-14 08:21:29.28	328.17	1.94	-60.3	-76.4	3.8	1.49e+00	0	28	104	1422917632	86	23465

#Closed at: 2026-01-14 08:21:30
#Recorded file [1422 MB]: D:/lorett/data/31004_260114_110734.dat