passes_logs/2026/01/14/R3.2S_Murmansk/R3.2S_Murmansk__20260114_114957_NOAA_20_JPSS-1_rec.log

#Pass ID: 20260114_114957_NOAA 20 (JPSS-1)
#Satellite: NOAA 20 (JPSS-1)
#Configuration: NOAA 20
#almurnet v.1.7.20251203
#Start time: 2026-01-14 11:49:58

#Version: 2.2.20231116
#Station: R3.2S_Murmansk
#Location: 33.079688 lon 68.888172 lat
#TLE: 1 43013U 17073A   26013.84982170  .00000053  00000+0  46215-4 0  9999
#TLE: 2 43013  98.7633 314.8013 0001544  40.9009 319.2282 14.19535753422575

#Time	Az	El	Level	Level2	SNR	BER	BlckErr	Temp	State	Recorded	gain1	gain2
2026-01-14 11:49:58.45	210.01	2.07	-58.3	-74.3	3.8	1.49e+00	0	25	0	0	81	24619
2026-01-14 11:50:02.48	210.29	2.29	-58.3	-74.3	3.8	1.49e+00	0	26	104	0	81	24481
2026-01-14 11:50:06.52	210.57	2.52	-58.3	-74.3	3.8	1.49e+00	0	26	104	0	81	24560
2026-01-14 11:50:10.56	210.86	2.75	-58.3	-74.3	3.8	1.49e+00	0	26	104	0	81	24600
2026-01-14 11:50:14.60	211.15	2.98	-58.3	-74.3	3.8	1.49e+00	0	26	104	0	81	24569
2026-01-14 11:50:18.63	211.45	3.21	-58.3	-74.3	3.8	1.49e+00	0	26	104	0	81	24610
2026-01-14 11:50:22.66	211.74	3.44	-58.3	-74.2	3.8	1.49e+00	0	26	104	0	81	24256
2026-01-14 11:50:26.70	212.05	3.68	-58.3	-74.0	3.8	1.49e+00	0	26	104	0	81	23603
2026-01-14 11:50:30.73	212.36	3.91	-58.3	-73.7	3.8	1.49e+00	0	26	104	0	81	22989
2026-01-14 11:50:34.77	212.67	4.15	-58.3	-74.3	3.8	1.49e+00	0	26	104	0	81	24531
2026-01-14 11:50:38.80	212.99	4.39	-58.2	-71.5	4.1	1.46e+00	0	26	0	0	81	17787
2026-01-14 11:50:42.84	213.31	4.63	-58.1	-70.3	4.3	1.37e+00	55	26	0	0	81	15528
2026-01-14 11:50:46.87	213.64	4.87	-57.7	-66.1	6.5	2.78e-01	0	26	0	7340032	81	9557
2026-01-14 11:50:50.91	213.97	5.11	-56.5	-61.1	10.8	8.59e-04	0	26	0	14680064	78	6404
2026-01-14 11:50:54.94	214.31	5.36	-54.6	-57.7	12.9	4.07e-04	0	27	0	18874368	75	5107
2026-01-14 11:50:58.98	214.65	5.60	-54.3	-57.2	13.1	0.00e+00	0	26	0	27262976	74	5120
2026-01-14 11:51:03.00	215.00	5.85	-54.2	-56.9	13.3	0.00e+00	0	27	0	34603008	74	4937
2026-01-14 11:51:07.02	215.35	6.10	-54.2	-56.9	13.3	0.00e+00	0	27	0	41943040	74	4952
2026-01-14 11:51:11.06	215.72	6.35	-54.2	-56.8	13.4	0.00e+00	0	27	0	49283072	74	4917
2026-01-14 11:51:15.09	216.08	6.60	-54.1	-56.7	13.5	0.00e+00	0	27	0	56623104	74	4866
2026-01-14 11:51:19.12	216.45	6.85	-53.9	-56.4	13.6	0.00e+00	0	27	0	65011712	74	4702
2026-01-14 11:51:23.15	216.83	7.11	-54.0	-56.5	13.6	0.00e+00	0	27	0	72351744	74	4715
2026-01-14 11:51:27.19	217.22	7.36	-53.9	-56.3	13.8	0.00e+00	0	27	0	79691776	74	4636
2026-01-14 11:51:31.22	217.61	7.62	-53.7	-56.1	13.9	0.00e+00	0	27	0	87031808	74	4506
2026-01-14 11:51:35.25	218.01	7.88	-53.7	-56.0	13.8	0.00e+00	0	27	0	95420416	73	4741
2026-01-14 11:51:39.28	218.41	8.14	-53.7	-56.1	13.8	0.00e+00	0	27	0	102760448	73	4777
2026-01-14 11:51:43.30	218.82	8.40	-53.8	-56.2	13.7	0.00e+00	0	27	0	110100480	73	4835
2026-01-14 11:51:47.33	219.24	8.66	-53.7	-56.1	13.8	0.00e+00	0	27	0	117440512	73	4788
2026-01-14 11:51:51.37	219.67	8.93	-53.5	-55.8	13.9	0.00e+00	0	27	0	124780544	73	4632
2026-01-14 11:51:55.41	220.11	9.19	-53.4	-55.6	14.1	0.00e+00	0	27	0	133169152	73	4501
2026-01-14 11:51:59.44	220.55	9.46	-53.3	-55.5	14.1	0.00e+00	0	27	0	140509184	73	4456
2026-01-14 11:52:03.46	221.00	9.73	-53.3	-55.4	14.1	0.00e+00	0	27	0	147849216	72	4682
2026-01-14 11:52:07.49	221.45	10.00	-53.3	-55.5	14.0	0.00e+00	0	27	0	155189248	72	4744
2026-01-14 11:52:11.52	221.92	10.27	-53.2	-55.4	14.1	0.00e+00	0	27	0	162529280	72	4655
2026-01-14 11:52:15.55	222.39	10.54	-53.2	-55.4	14.1	0.00e+00	0	27	0	170917888	72	4657
2026-01-14 11:52:19.57	222.88	10.82	-53.3	-55.5	14.0	0.00e+00	0	27	0	178257920	72	4726
2026-01-14 11:52:23.60	223.37	11.09	-53.3	-55.4	14.1	0.00e+00	0	27	0	185597952	72	4694
2026-01-14 11:52:27.64	223.87	11.37	-53.2	-55.2	14.1	0.00e+00	0	27	0	192937984	72	4590
2026-01-14 11:52:31.66	224.38	11.65	-53.1	-55.1	14.2	0.00e+00	0	27	0	200278016	72	4537
2026-01-14 11:52:35.70	224.90	11.93	-53.0	-55.1	14.2	0.00e+00	0	27	0	208666624	72	4498
2026-01-14 11:52:39.74	225.43	12.21	-52.8	-54.7	14.4	0.00e+00	0	27	0	216006656	72	4314
2026-01-14 11:52:43.76	225.96	12.49	-52.8	-54.7	14.4	0.00e+00	0	27	0	223346688	72	4307
2026-01-14 11:52:47.79	226.51	12.77	-52.9	-54.8	14.4	0.00e+00	0	27	0	230686720	72	4388
2026-01-14 11:52:51.83	227.07	13.06	-52.9	-54.8	14.4	0.00e+00	0	27	0	238026752	72	4374
2026-01-14 11:52:55.86	227.64	13.34	-52.8	-54.7	14.4	0.00e+00	0	27	0	246415360	72	4336
2026-01-14 11:52:59.89	228.22	13.62	-52.7	-54.6	14.5	0.00e+00	0	27	0	253755392	72	4276
2026-01-14 11:53:03.92	228.81	13.91	-52.6	-54.5	14.4	0.00e+00	0	27	0	261095424	71	4493
2026-01-14 11:53:07.95	229.41	14.20	-52.6	-54.5	14.4	0.00e+00	0	27	0	268435456	71	4442
2026-01-14 11:53:11.97	230.02	14.48	-52.5	-54.4	14.5	0.00e+00	0	27	0	275775488	71	4429
2026-01-14 11:53:16.00	230.65	14.77	-52.5	-54.4	14.5	0.00e+00	0	27	0	284164096	71	4412
2026-01-14 11:53:20.02	231.28	15.05	-52.4	-54.2	14.5	0.00e+00	0	27	0	291504128	71	4338
2026-01-14 11:53:24.06	231.93	15.34	-52.4	-54.2	14.5	0.00e+00	0	27	0	298844160	71	4334
2026-01-14 11:53:28.09	232.59	15.63	-52.4	-54.2	14.6	0.00e+00	0	27	0	306184192	71	4315
2026-01-14 11:53:32.12	233.27	15.91	-52.3	-54.2	14.6	0.00e+00	0	27	0	314572800	71	4292
2026-01-14 11:53:36.16	233.95	16.20	-52.5	-54.4	14.5	0.00e+00	0	27	0	321912832	71	4405
2026-01-14 11:53:40.19	234.65	16.49	-52.7	-54.6	14.4	0.00e+00	0	27	0	329252864	71	4516
2026-01-14 11:53:44.22	235.36	16.77	-52.7	-54.6	14.4	0.00e+00	0	27	0	336592896	71	4523
2026-01-14 11:53:48.25	236.09	17.05	-52.6	-54.4	14.5	0.00e+00	0	27	0	343932928	71	4420
2026-01-14 11:53:52.28	236.82	17.34	-52.5	-54.3	14.6	0.00e+00	0	27	0	352321536	71	4352
2026-01-14 11:53:56.31	237.57	17.62	-52.4	-54.2	14.6	0.00e+00	0	27	0	359661568	71	4295
2026-01-14 11:54:00.34	238.34	17.90	-52.1	-53.8	14.6	0.00e+00	0	27	0	367001600	70	4349
2026-01-14 11:54:04.37	239.12	18.18	-51.9	-53.6	14.7	0.00e+00	0	27	0	374341632	70	4286
2026-01-14 11:54:08.40	239.91	18.45	-52.0	-53.6	14.7	0.00e+00	0	27	0	381681664	70	4288
2026-01-14 11:54:12.43	240.71	18.73	-51.9	-53.5	14.8	0.00e+00	0	27	0	390070272	70	4241
2026-01-14 11:54:16.46	241.53	19.00	-51.7	-53.3	14.7	0.00e+00	0	27	0	397410304	69	4374
2026-01-14 11:54:20.50	242.37	19.27	-51.7	-53.4	14.7	0.00e+00	0	27	0	404750336	69	4410
2026-01-14 11:54:24.53	243.22	19.53	-51.7	-53.3	14.7	0.00e+00	0	27	0	412090368	69	4385
2026-01-14 11:54:28.57	244.08	19.79	-51.9	-53.6	14.6	0.00e+00	0	27	0	419430400	69	4532
2026-01-14 11:54:32.60	244.96	20.05	-52.0	-53.7	14.6	0.00e+00	0	27	0	427819008	69	4561
2026-01-14 11:54:36.63	245.85	20.30	-52.1	-53.8	14.5	0.00e+00	0	27	0	435159040	69	4620
2026-01-14 11:54:40.67	246.76	20.55	-52.6	-54.5	14.4	0.00e+00	0	27	0	442499072	70	4711
2026-01-14 11:54:44.70	247.68	20.80	-52.7	-54.5	14.3	0.00e+00	0	27	0	449839104	70	4758
2026-01-14 11:54:48.72	248.61	21.04	-53.0	-54.9	14.3	0.00e+00	0	27	0	457179136	71	4693
2026-01-14 11:54:52.76	249.57	21.27	-53.4	-55.5	14.0	0.00e+00	0	27	0	465567744	71	4995
2026-01-14 11:54:56.79	250.53	21.50	-53.0	-55.0	14.2	0.00e+00	0	27	0	472907776	71	4729
2026-01-14 11:55:00.82	251.50	21.72	-52.5	-54.4	14.5	0.00e+00	0	27	0	480247808	71	4394
2026-01-14 11:55:04.86	252.50	21.94	-52.8	-54.7	14.4	0.00e+00	0	27	0	487587840	71	4549
2026-01-14 11:55:08.89	253.50	22.15	-52.8	-54.6	14.4	0.00e+00	0	27	0	495976448	71	4545
2026-01-14 11:55:12.91	254.51	22.35	-52.7	-54.5	14.5	0.00e+00	0	27	0	503316480	71	4477
2026-01-14 11:55:16.94	255.54	22.54	-53.2	-55.3	14.2	0.00e+00	0	27	0	510656512	71	4871
2026-01-14 11:55:20.97	256.58	22.72	-53.5	-55.6	14.1	0.00e+00	0	27	0	517996544	72	4766
2026-01-14 11:55:25.00	257.63	22.90	-53.2	-55.1	14.3	0.00e+00	0	27	0	525336576	72	4541
2026-01-14 11:55:29.03	258.70	23.07	-53.1	-55.1	14.3	0.00e+00	0	27	0	533725184	72	4511
2026-01-14 11:55:33.07	259.77	23.23	-53.2	-55.2	14.3	0.00e+00	0	27	0	541065216	72	4576
2026-01-14 11:55:37.10	260.86	23.38	-53.0	-54.9	14.4	0.00e+00	0	27	0	548405248	72	4398
2026-01-14 11:55:41.13	261.95	23.52	-53.3	-55.4	14.2	0.00e+00	0	27	0	555745280	72	4652
2026-01-14 11:55:45.15	263.05	23.65	-53.5	-55.6	14.1	0.00e+00	0	27	0	563085312	72	4802
2026-01-14 11:55:49.18	264.17	23.77	-53.5	-55.5	14.1	0.00e+00	0	27	0	571473920	72	4746
2026-01-14 11:55:53.22	265.29	23.88	-53.7	-55.9	13.9	0.00e+00	0	27	0	578813952	72	4957
2026-01-14 11:55:57.25	266.42	23.97	-53.8	-55.9	14.0	0.00e+00	0	27	0	586153984	72	4954
2026-01-14 11:56:01.29	267.55	24.06	-53.0	-54.9	14.4	0.00e+00	0	27	0	593494016	72	4438
2026-01-14 11:56:05.32	268.69	24.14	-52.7	-54.5	14.6	0.00e+00	0	27	0	600834048	72	4225
2026-01-14 11:56:09.36	269.84	24.20	-52.8	-54.7	14.5	0.00e+00	0	27	0	609222656	72	4314
2026-01-14 11:56:13.38	270.98	24.25	-52.5	-54.3	14.6	0.00e+00	0	27	0	616562688	71	4380
2026-01-14 11:56:17.42	272.14	24.29	-53.3	-55.3	14.1	0.00e+00	0	27	0	623902720	71	4922
2026-01-14 11:56:21.45	273.29	24.32	-53.2	-55.1	14.3	0.00e+00	0	27	0	631242752	72	4532
2026-01-14 11:56:25.49	274.45	24.34	-52.9	-54.8	14.5	0.00e+00	0	27	0	638582784	72	4376
2026-01-14 11:56:29.53	275.61	24.34	-53.3	-55.2	14.3	0.00e+00	0	27	0	646971392	72	4585
2026-01-14 11:56:33.56	276.77	24.34	-53.0	-55.0	14.4	0.00e+00	0	27	0	654311424	72	4446
2026-01-14 11:56:37.59	277.92	24.32	-53.0	-54.9	14.4	0.00e+00	0	27	0	661651456	72	4418
2026-01-14 11:56:41.63	279.08	24.28	-53.3	-55.2	14.3	0.00e+00	0	27	0	668991488	72	4588
2026-01-14 11:56:45.66	280.23	24.24	-53.0	-54.9	14.4	0.00e+00	0	27	0	677380096	72	4431
2026-01-14 11:56:49.69	281.37	24.19	-52.6	-54.4	14.5	0.00e+00	0	27	0	684720128	71	4422
2026-01-14 11:56:53.72	282.51	24.12	-53.3	-55.3	14.1	0.00e+00	0	27	0	692060160	71	4916
2026-01-14 11:56:57.75	283.65	24.04	-53.6	-55.6	14.1	0.00e+00	0	27	0	699400192	72	4797
2026-01-14 11:57:01.78	284.78	23.95	-53.5	-55.5	14.2	0.00e+00	0	27	0	706740224	72	4723
2026-01-14 11:57:05.81	285.91	23.85	-53.1	-55.0	14.4	0.00e+00	0	27	0	715128832	72	4469
2026-01-14 11:57:09.85	287.03	23.74	-53.4	-55.4	14.2	0.00e+00	0	27	0	722468864	72	4689
2026-01-14 11:57:13.88	288.13	23.62	-53.0	-54.8	14.5	0.00e+00	0	27	0	729808896	72	4377
2026-01-14 11:57:17.92	289.24	23.49	-52.9	-54.8	14.5	0.00e+00	0	27	0	737148928	72	4354
2026-01-14 11:57:21.95	290.33	23.35	-52.4	-54.1	14.7	0.00e+00	0	27	0	744488960	71	4283
2026-01-14 11:57:25.98	291.41	23.20	-52.2	-53.9	14.8	0.00e+00	0	27	0	752877568	71	4160
2026-01-14 11:57:30.02	292.48	23.04	-52.0	-53.6	14.7	0.00e+00	0	27	0	760217600	70	4288
2026-01-14 11:57:34.05	293.54	22.87	-51.9	-53.6	14.8	0.00e+00	0	27	0	767557632	70	4246
2026-01-14 11:57:38.08	294.59	22.69	-51.7	-53.3	14.9	0.00e+00	0	27	0	774897664	70	4123
2026-01-14 11:57:42.12	295.62	22.50	-51.3	-52.8	14.9	0.00e+00	0	27	0	783286272	69	4133
2026-01-14 11:57:46.14	296.64	22.31	-51.0	-52.4	15.0	0.00e+00	0	27	0	790626304	68	4187
2026-01-14 11:57:50.17	297.65	22.11	-51.1	-52.6	14.9	0.00e+00	0	27	0	797966336	68	4277
2026-01-14 11:57:54.20	298.65	21.90	-51.7	-53.3	14.6	0.00e+00	0	27	0	805306368	68	4617
2026-01-14 11:57:58.23	299.63	21.68	-51.8	-53.5	14.7	0.00e+00	0	27	0	812646400	69	4451
2026-01-14 11:58:02.27	300.60	21.46	-51.4	-53.0	14.9	0.00e+00	0	27	0	821035008	69	4204
2026-01-14 11:58:06.29	301.56	21.23	-51.3	-52.9	14.9	0.00e+00	0	27	0	828375040	69	4161
2026-01-14 11:58:10.33	302.50	21.00	-52.3	-54.0	14.4	0.00e+00	0	27	0	835715072	69	4748
2026-01-14 11:58:14.36	303.43	20.76	-53.0	-54.9	14.3	0.00e+00	0	27	0	843055104	71	4670
2026-01-14 11:58:18.38	304.34	20.51	-53.0	-54.9	14.3	0.00e+00	0	27	0	850395136	71	4666
2026-01-14 11:58:22.41	305.24	20.27	-52.5	-54.3	14.6	0.00e+00	0	27	0	858783744	71	4345
2026-01-14 11:58:26.45	306.13	20.01	-52.2	-53.9	14.6	0.00e+00	0	27	0	866123776	70	4412
2026-01-14 11:58:30.47	307.00	19.76	-52.6	-54.5	14.4	0.00e+00	0	27	0	873463808	70	4706
2026-01-14 11:58:34.50	307.86	19.50	-52.9	-54.8	14.2	0.00e+00	0	27	0	880803840	70	4886
2026-01-14 11:58:38.52	308.70	19.23	-52.5	-54.2	14.6	0.00e+00	0	27	0	888143872	71	4338
2026-01-14 11:58:42.56	309.53	18.96	-52.4	-54.2	14.6	0.00e+00	0	27	0	896532480	71	4312
2026-01-14 11:58:46.58	310.34	18.70	-52.5	-54.3	14.5	0.00e+00	0	27	0	903872512	71	4372
2026-01-14 11:58:50.60	311.14	18.42	-52.5	-54.3	14.6	0.00e+00	0	27	0	911212544	71	4345
2026-01-14 11:58:54.63	311.92	18.15	-52.7	-54.5	14.4	0.00e+00	0	27	0	918552576	71	4477
2026-01-14 11:58:58.66	312.70	17.87	-52.8	-54.7	14.3	0.00e+00	0	27	0	925892608	71	4587
2026-01-14 11:59:02.69	313.46	17.60	-53.2	-55.2	14.1	0.00e+00	0	27	0	934281216	71	4862
2026-01-14 11:59:06.71	314.20	17.32	-52.7	-54.5	14.4	0.00e+00	0	27	0	941621248	71	4482
2026-01-14 11:59:10.75	314.93	17.03	-52.9	-54.9	14.3	0.00e+00	0	27	0	948961280	71	4657
2026-01-14 11:59:14.78	315.65	16.75	-53.3	-55.3	14.1	0.00e+00	0	27	0	956301312	71	4912
2026-01-14 11:59:18.81	316.36	16.47	-52.6	-54.5	14.4	0.00e+00	0	27	0	963641344	71	4464
2026-01-14 11:59:22.84	317.05	16.19	-53.1	-55.2	14.1	0.00e+00	0	27	0	972029952	71	4815
2026-01-14 11:59:26.87	317.73	15.90	-52.7	-54.6	14.4	0.00e+00	0	27	0	979369984	71	4507
2026-01-14 11:59:30.91	318.40	15.62	-52.7	-54.6	14.4	0.00e+00	0	27	0	986710016	71	4529
2026-01-14 11:59:34.94	319.06	15.33	-53.2	-55.3	14.0	0.00e+00	0	27	0	994050048	71	4898
2026-01-14 11:59:38.97	319.70	15.05	-52.7	-54.6	14.4	0.00e+00	0	27	0	1001390080	71	4521
2026-01-14 11:59:43.01	320.34	14.76	-53.2	-55.3	14.0	0.00e+00	0	27	0	1009778688	71	4909
2026-01-14 11:59:47.04	320.96	14.48	-53.3	-55.4	14.0	0.00e+00	0	27	0	1017118720	71	4964
2026-01-14 11:59:51.08	321.57	14.19	-52.8	-54.7	14.3	0.00e+00	0	27	0	1024458752	71	4591
2026-01-14 11:59:55.11	322.16	13.91	-53.2	-55.3	14.0	0.00e+00	0	27	0	1031798784	71	4914
2026-01-14 11:59:59.15	322.75	13.63	-53.2	-55.3	14.1	0.00e+00	0	27	0	1040187392	72	4634
2026-01-14 12:00:03.18	323.33	13.34	-52.8	-54.8	14.4	0.00e+00	0	27	0	1047527424	72	4358
2026-01-14 12:00:07.20	323.89	13.06	-53.2	-55.3	14.1	0.00e+00	0	27	0	1054867456	72	4640
2026-01-14 12:00:11.24	324.45	12.78	-53.3	-55.5	14.0	0.00e+00	0	27	0	1062207488	72	4713
2026-01-14 12:00:15.28	325.00	12.50	-53.0	-55.0	14.2	0.00e+00	0	27	0	1069547520	72	4478
2026-01-14 12:00:19.31	325.53	12.22	-53.3	-55.5	14.0	0.00e+00	0	27	0	1077936128	72	4715
2026-01-14 12:00:23.34	326.06	11.94	-53.6	-55.9	13.8	0.00e+00	0	27	0	1085276160	72	4965
2026-01-14 12:00:27.36	326.57	11.67	-53.4	-55.6	13.9	0.00e+00	0	27	0	1092616192	72	4806
2026-01-14 12:00:31.39	327.08	11.39	-53.2	-55.4	14.0	0.00e+00	0	27	0	1099956224	72	4657
2026-01-14 12:00:35.43	327.58	11.12	-53.4	-55.6	13.9	0.00e+00	0	27	0	1107296256	72	4762
2026-01-14 12:00:39.45	328.07	10.84	-53.6	-55.8	13.8	0.00e+00	0	27	0	1115684864	72	4919
2026-01-14 12:00:43.47	328.55	10.57	-53.5	-55.7	13.8	0.00e+00	0	27	0	1123024896	72	4851
2026-01-14 12:00:47.49	329.02	10.30	-53.6	-55.9	13.7	0.00e+00	0	28	0	1130364928	72	4944
2026-01-14 12:00:51.53	329.48	10.03	-53.8	-56.3	13.5	0.00e+00	0	27	0	1137704960	72	5172
2026-01-14 12:00:55.57	329.94	9.76	-53.7	-56.1	13.6	0.00e+00	0	27	0	1145044992	72	5065
2026-01-14 12:00:59.60	330.39	9.50	-53.7	-56.0	13.6	0.00e+00	0	27	0	1153433600	72	5034
2026-01-14 12:01:03.63	330.83	9.23	-53.8	-56.2	13.5	0.00e+00	0	27	0	1160773632	72	5153
2026-01-14 12:01:07.66	331.26	8.97	-54.1	-56.8	13.3	0.00e+00	0	27	0	1168113664	73	5172
2026-01-14 12:01:11.70	331.69	8.71	-54.2	-56.9	13.2	0.00e+00	0	27	0	1175453696	73	5271
2026-01-14 12:01:15.73	332.10	8.45	-54.5	-57.3	13.1	0.00e+00	0	27	0	1182793728	74	5215
2026-01-14 12:01:19.76	332.51	8.19	-54.6	-57.6	12.9	0.00e+00	0	27	0	1191182336	74	5356
2026-01-14 12:01:23.80	332.92	7.93	-54.7	-57.7	12.8	0.00e+00	0	27	0	1198522368	74	5453
2026-01-14 12:01:27.83	333.32	7.67	-54.9	-58.0	12.7	0.00e+00	0	27	0	1205862400	75	5332
2026-01-14 12:01:31.86	333.71	7.42	-54.8	-58.0	12.8	0.00e+00	0	27	0	1213202432	75	5296
2026-01-14 12:01:35.90	334.09	7.16	-54.6	-57.6	13.0	0.00e+00	0	27	0	1221591040	75	5070
2026-01-14 12:01:39.93	334.47	6.91	-54.5	-57.4	13.0	0.00e+00	0	27	0	1228931072	75	4972
2026-01-14 12:01:43.96	334.84	6.66	-54.3	-57.1	13.2	0.00e+00	0	27	0	1236271104	74	5051
2026-01-14 12:01:48.00	335.21	6.41	-54.5	-57.4	12.9	0.00e+00	0	27	0	1243611136	74	5264
2026-01-14 12:01:52.03	335.57	6.16	-54.6	-57.7	12.8	0.00e+00	0	27	0	1250951168	74	5403
2026-01-14 12:01:56.06	335.93	5.92	-54.8	-58.1	12.4	0.00e+00	0	27	0	1259339776	74	5676
2026-01-14 12:02:00.10	336.27	5.67	-54.1	-56.9	13.2	0.00e+00	0	27	0	1266679808	74	4957
2026-01-14 12:02:04.13	336.62	5.43	-54.2	-57.0	13.1	0.00e+00	0	27	0	1274019840	74	5026
2026-01-14 12:02:08.16	336.96	5.19	-53.8	-56.4	13.5	0.00e+00	0	27	0	1281359872	74	4675
2026-01-14 12:02:12.19	337.29	4.95	-58.6	-72.9	3.8	9.74e-01	0	27	104	1288699904	82	19654
2026-01-14 12:02:16.23	337.62	4.71	-59.9	-76.0	3.8	1.49e+00	0	27	104	1288699904	85	23685
2026-01-14 12:02:20.27	337.94	4.47	-60.3	-76.4	3.8	1.49e+00	0	27	104	1288699904	85	24804
2026-01-14 12:02:24.30	338.26	4.23	-60.5	-76.5	3.8	1.49e+00	0	27	104	1288699904	86	23831
2026-01-14 12:02:28.33	338.57	4.00	-60.6	-76.7	3.8	1.49e+00	0	27	104	1288699904	86	24203
2026-01-14 12:02:32.37	338.88	3.76	-60.6	-76.7	3.8	1.49e+00	0	27	104	1288699904	86	24348
2026-01-14 12:02:36.40	339.19	3.53	-60.6	-76.6	3.8	1.49e+00	0	28	104	1288699904	86	24077
2026-01-14 12:02:40.43	339.49	3.30	-60.5	-76.6	3.8	1.49e+00	0	28	104	1288699904	86	23968
2026-01-14 12:02:44.47	339.78	3.07	-60.4	-76.5	3.8	1.49e+00	0	27	104	1288699904	86	23745
2026-01-14 12:02:48.49	340.07	2.84	-60.4	-76.5	3.8	1.49e+00	0	28	104	1288699904	86	23669
2026-01-14 12:02:52.52	340.36	2.62	-60.4	-76.4	3.8	1.49e+00	0	27	104	1288699904	86	23565
2026-01-14 12:02:56.57	340.64	2.39	-60.4	-76.4	3.8	1.49e+00	0	27	104	1288699904	86	23484
2026-01-14 12:03:00.60	340.92	2.17	-60.3	-76.4	3.8	1.49e+00	0	27	104	1288699904	86	23477

#Closed at: 2026-01-14 12:03:03
#Recorded file [1288 MB]: D:/lorett/data/31004_260114_144958.dat