passes_logs/2026/01/14/R3.2S_Murmansk/R3.2S_Murmansk__20260114_221059_KANOPUS-V_5_rec.log

#Pass ID: 20260114_221059_KANOPUS-V 5
#Satellite: KANOPUS-V 5
#Configuration: KANOPUS-V_8320
#almurnet v.1.7.20251203
#Start time: 2026-01-14 22:10:59

#Version: 2.2.20231116
#Station: R3.2S_Murmansk
#Location: 33.079688 lon 68.888172 lat
#TLE: 1 43876U 18111A   26014.64517351  .00002226  00000+0  96418-4 0  9998
#TLE: 2 43876  97.3685 283.1659 0001742  85.8061 274.3376 15.23434183391418

#Time	Az	El	Level	Level2	SNR	BER	BlckErr	Temp	State	Recorded	gain1	gain2
2026-01-14 22:10:59.01	20.72	1.96	-59.4	-69.1	3.8	7.46e-01	0	27	0	0	83	10741
2026-01-14 22:11:02.00	20.75	2.17	-59.4	-69.1	3.8	7.46e-01	0	27	104	0	83	10745
2026-01-14 22:11:05.01	20.77	2.38	-59.4	-69.2	3.8	7.44e-01	0	27	104	0	83	10788
2026-01-14 22:11:08.01	20.80	2.59	-59.4	-69.1	3.8	7.47e-01	0	27	104	0	83	10748
2026-01-14 22:11:11.01	20.82	2.81	-59.4	-69.1	3.8	7.46e-01	0	27	104	0	83	10755
2026-01-14 22:11:14.02	20.85	3.03	-59.4	-69.2	3.8	7.46e-01	0	27	104	0	83	10813
2026-01-14 22:11:17.02	20.88	3.25	-59.4	-69.1	3.8	7.46e-01	0	28	104	0	83	10763
2026-01-14 22:11:20.02	20.90	3.47	-59.4	-69.2	3.8	7.44e-01	0	27	104	0	83	10809
2026-01-14 22:11:23.01	20.93	3.70	-59.4	-69.1	3.8	7.46e-01	0	28	104	0	83	10772
2026-01-14 22:11:26.02	20.96	3.93	-59.4	-69.2	3.8	7.45e-01	0	28	104	0	83	10831
2026-01-14 22:11:29.02	20.99	4.16	-59.4	-69.1	3.8	7.44e-01	0	28	104	0	83	10763
2026-01-14 22:11:32.01	21.02	4.39	-59.4	-69.2	3.8	7.45e-01	0	28	104	0	83	10814
2026-01-14 22:11:35.01	21.04	4.62	-59.4	-69.2	3.8	7.45e-01	0	28	104	0	83	10802
2026-01-14 22:11:38.01	21.07	4.86	-59.4	-69.2	3.8	7.45e-01	0	28	104	0	83	10828
2026-01-14 22:11:41.00	21.10	5.10	-59.5	-69.3	3.8	7.45e-01	0	28	104	0	83	10964
2026-01-14 22:11:44.00	21.13	5.35	-59.5	-69.2	3.8	7.45e-01	0	28	104	0	83	10903
2026-01-14 22:11:46.98	21.16	5.59	-59.4	-69.2	3.8	7.46e-01	0	28	104	0	83	10871
2026-01-14 22:11:49.97	21.19	5.84	-59.7	-69.5	3.8	7.44e-01	0	28	104	0	83	11169
2026-01-14 22:11:52.95	21.22	6.10	-59.6	-69.4	3.8	7.47e-01	0	28	104	0	83	11136
2026-01-14 22:11:55.95	21.25	6.35	-59.6	-69.4	3.8	7.44e-01	0	28	104	0	83	11062
2026-01-14 22:11:58.95	21.29	6.61	-59.6	-69.4	3.8	7.44e-01	0	28	104	0	83	11040
2026-01-14 22:12:01.95	21.32	6.88	-59.8	-69.6	3.8	7.45e-01	0	28	104	0	83	11323
2026-01-14 22:12:04.93	21.35	7.14	-59.8	-69.5	3.8	7.47e-01	0	28	104	0	83	11252
2026-01-14 22:12:07.92	21.38	7.42	-59.8	-69.5	3.8	7.47e-01	0	28	104	0	83	11270
2026-01-14 22:12:10.91	21.42	7.69	-59.8	-69.5	3.8	7.46e-01	0	28	104	0	83	11196
2026-01-14 22:12:13.89	21.45	7.97	-60.0	-69.7	3.8	7.44e-01	0	28	104	0	83	11470
2026-01-14 22:12:16.88	21.48	8.25	-59.9	-69.6	3.8	7.46e-01	0	28	104	0	83	11382
2026-01-14 22:12:19.87	21.52	8.54	-59.9	-69.6	3.8	7.45e-01	0	28	104	0	83	11412
2026-01-14 22:12:22.85	21.55	8.83	-59.9	-69.6	3.8	7.46e-01	0	29	104	0	83	11332
2026-01-14 22:12:25.85	21.59	9.13	-60.0	-69.8	3.8	7.46e-01	0	28	104	0	83	11634
2026-01-14 22:12:28.84	21.63	9.43	-60.0	-69.7	3.8	7.45e-01	0	28	104	0	83	11514
2026-01-14 22:12:31.84	21.66	9.74	-60.0	-69.7	3.8	7.46e-01	0	29	104	0	83	11498
2026-01-14 22:12:34.83	21.70	10.05	-60.0	-69.7	3.8	7.43e-01	0	29	104	0	83	11516
2026-01-14 22:12:37.82	21.74	10.37	-60.1	-69.9	3.8	7.44e-01	0	29	104	0	83	11690
2026-01-14 22:12:40.80	21.78	10.69	-60.1	-69.8	3.8	7.46e-01	0	29	104	0	83	11618
2026-01-14 22:12:43.79	21.82	11.02	-60.1	-69.8	3.8	7.45e-01	0	29	104	0	83	11633
2026-01-14 22:12:46.78	21.86	11.35	-60.1	-69.8	3.8	7.45e-01	0	29	104	0	83	11650
2026-01-14 22:12:49.78	21.90	11.69	-60.2	-69.9	3.8	7.46e-01	0	29	104	0	83	11765
2026-01-14 22:12:52.78	21.94	12.04	-60.1	-69.9	3.8	7.44e-01	0	29	104	0	83	11740
2026-01-14 22:12:55.79	21.99	12.39	-60.2	-69.9	3.8	7.46e-01	0	29	104	0	83	11706
2026-01-14 22:12:58.78	22.03	12.76	-60.2	-69.9	3.8	7.45e-01	0	29	104	0	83	11793
2026-01-14 22:13:01.78	22.07	13.12	-60.3	-70.0	3.8	7.45e-01	0	29	104	0	83	11899
2026-01-14 22:13:04.78	22.12	13.50	-60.2	-70.0	3.8	7.44e-01	0	29	104	0	83	11908
2026-01-14 22:13:07.77	22.17	13.88	-60.2	-70.0	3.8	7.47e-01	0	28	104	0	83	11859
2026-01-14 22:13:10.75	22.22	14.27	-60.3	-70.0	3.8	7.47e-01	0	29	104	0	83	11915
2026-01-14 22:13:13.75	22.26	14.67	-60.4	-70.1	3.8	7.46e-01	0	29	104	0	83	12006
2026-01-14 22:13:16.75	22.32	15.08	-60.3	-70.1	3.8	7.46e-01	0	29	104	0	83	11980
2026-01-14 22:13:19.74	22.37	15.50	-60.3	-70.1	3.8	7.45e-01	0	29	104	0	83	12013
2026-01-14 22:13:22.74	22.42	15.93	-60.3	-70.1	3.8	7.46e-01	0	29	104	0	83	12006
2026-01-14 22:13:25.73	22.47	16.37	-60.4	-70.2	3.8	7.45e-01	0	29	104	0	83	12104
2026-01-14 22:13:28.71	22.53	16.81	-60.4	-70.1	3.8	7.46e-01	0	29	104	0	83	12078
2026-01-14 22:13:31.70	22.59	17.27	-60.5	-70.3	3.8	7.46e-01	0	29	104	0	84	11583
2026-01-14 22:13:34.70	22.65	17.74	-60.6	-70.3	3.8	7.46e-01	0	29	104	0	84	11663
2026-01-14 22:13:37.70	22.71	18.23	-60.6	-70.4	3.8	7.47e-01	0	29	104	0	84	11734
2026-01-14 22:13:40.68	22.77	18.72	-60.6	-70.3	3.8	7.47e-01	0	29	104	0	84	11625
2026-01-14 22:13:43.69	22.84	19.23	-60.6	-70.3	3.8	7.44e-01	0	29	104	0	84	11642
2026-01-14 22:13:46.68	22.90	19.75	-60.6	-70.4	3.8	7.47e-01	0	29	104	0	84	11725
2026-01-14 22:13:49.67	22.97	20.28	-60.7	-70.5	3.8	7.45e-01	0	29	104	0	84	11842
2026-01-14 22:13:52.68	23.04	20.84	-60.7	-70.4	3.8	7.46e-01	0	29	104	0	84	11782
2026-01-14 22:13:55.66	23.12	21.40	-60.7	-70.4	3.8	7.45e-01	0	29	104	0	84	11802
2026-01-14 22:13:58.66	23.19	21.98	-60.7	-70.5	3.8	7.46e-01	0	29	104	0	84	11872
2026-01-14 22:14:01.67	23.27	22.59	-60.8	-70.5	3.8	7.45e-01	0	29	104	0	84	11904
2026-01-14 22:14:04.67	23.35	23.20	-60.8	-70.5	3.8	7.45e-01	0	29	104	0	84	11896
2026-01-14 22:14:07.67	23.44	23.84	-60.7	-70.5	3.8	7.47e-01	0	29	104	0	84	11907
2026-01-14 22:14:10.68	23.53	24.50	-60.8	-70.5	3.8	7.46e-01	0	29	104	0	84	11932
2026-01-14 22:14:13.67	23.62	25.18	-60.8	-70.6	3.8	7.45e-01	0	29	104	0	84	12000
2026-01-14 22:14:16.67	23.72	25.88	-60.8	-70.6	3.8	7.45e-01	0	29	104	0	84	11981
2026-01-14 22:14:19.65	23.82	26.60	-60.8	-70.6	3.8	7.45e-01	0	29	104	0	84	12002
2026-01-14 22:14:22.63	23.92	27.34	-60.9	-70.6	3.8	7.46e-01	0	29	104	0	84	11997
2026-01-14 22:14:25.62	24.03	28.11	-60.9	-70.7	3.8	7.46e-01	0	29	104	0	85	11460
2026-01-14 22:14:28.62	24.15	28.91	-60.9	-70.6	3.8	7.46e-01	0	29	104	0	85	11408
2026-01-14 22:14:31.63	24.27	29.74	-60.9	-70.6	3.8	7.46e-01	0	29	104	0	85	11401
2026-01-14 22:14:34.63	24.40	30.60	-60.9	-70.7	3.8	7.45e-01	0	29	104	0	85	11462
2026-01-14 22:14:37.62	24.54	31.48	-61.0	-70.7	3.8	7.45e-01	0	29	104	0	85	11521
2026-01-14 22:14:40.63	24.68	32.41	-61.0	-70.8	3.8	7.48e-01	0	29	104	0	85	11550
2026-01-14 22:14:43.63	24.83	33.36	-61.0	-70.7	3.8	7.46e-01	0	29	104	0	85	11508
2026-01-14 22:14:46.62	24.99	34.35	-61.0	-70.8	3.8	7.45e-01	0	29	104	0	85	11593
2026-01-14 22:14:49.62	25.16	35.38	-61.1	-70.8	3.8	7.45e-01	0	29	104	0	85	11648
2026-01-14 22:14:52.62	25.34	36.45	-61.1	-70.8	3.8	7.44e-01	0	29	104	0	85	11615
2026-01-14 22:14:55.61	25.54	37.56	-61.1	-70.8	3.8	7.46e-01	0	29	104	0	85	11578
2026-01-14 22:14:58.60	25.74	38.72	-61.1	-70.8	3.8	7.46e-01	0	29	104	0	85	11670
2026-01-14 22:15:01.60	25.97	39.92	-61.1	-70.9	3.8	7.47e-01	0	29	104	0	85	11738
2026-01-14 22:15:04.62	26.21	41.18	-61.1	-70.9	3.8	7.44e-01	0	29	104	0	85	11726
2026-01-14 22:15:07.61	26.47	42.48	-61.1	-70.9	3.8	7.47e-01	0	29	104	0	85	11695
2026-01-14 22:15:10.60	26.75	43.83	-61.1	-70.9	3.8	7.45e-01	0	29	104	0	85	11685
2026-01-14 22:15:13.60	27.06	45.24	-61.2	-71.0	3.8	7.46e-01	0	29	104	0	85	11832
2026-01-14 22:15:16.60	27.40	46.71	-61.2	-70.9	3.8	7.45e-01	0	29	104	0	85	11802
2026-01-14 22:15:19.59	27.77	48.23	-61.2	-70.9	3.8	7.46e-01	0	29	104	0	85	11790
2026-01-14 22:15:22.58	28.18	49.82	-61.2	-71.0	3.8	7.45e-01	0	29	104	0	85	11824
2026-01-14 22:15:25.58	28.64	51.47	-61.2	-71.0	3.8	7.45e-01	0	29	104	0	85	11880
2026-01-14 22:15:28.58	29.15	53.19	-61.3	-71.0	3.8	7.45e-01	0	29	104	0	85	11867
2026-01-14 22:15:31.57	29.72	54.96	-61.3	-71.0	3.8	7.46e-01	0	29	104	0	85	11863
2026-01-14 22:15:34.57	30.38	56.81	-61.3	-71.0	3.8	7.46e-01	0	29	104	0	85	11861
2026-01-14 22:15:37.57	31.13	58.72	-61.3	-71.1	3.8	7.44e-01	0	29	104	0	85	11969
2026-01-14 22:15:40.59	32.01	60.71	-61.3	-71.1	3.8	7.45e-01	0	29	104	0	85	12010
2026-01-14 22:15:43.59	33.03	62.75	-61.3	-71.1	3.8	7.45e-01	0	29	104	0	85	12057
2026-01-14 22:15:46.57	34.23	64.83	-61.3	-71.1	3.8	7.46e-01	0	29	104	0	85	12029
2026-01-14 22:15:49.56	35.69	66.97	-61.4	-71.1	3.8	7.47e-01	0	29	104	0	85	12028
2026-01-14 22:15:52.56	37.49	69.16	-61.4	-71.2	3.8	7.47e-01	0	29	104	0	85	12109
2026-01-14 22:15:55.55	39.74	71.38	-61.4	-71.1	3.8	7.46e-01	0	29	104	0	85	12086
2026-01-14 22:15:58.54	42.65	73.61	-61.4	-71.2	3.8	7.45e-01	0	29	104	0	86	11436
2026-01-14 22:16:01.54	46.54	75.85	-61.4	-71.2	3.8	7.46e-01	0	29	104	0	86	11449
2026-01-14 22:16:04.55	51.96	78.04	-61.4	-71.2	3.8	7.45e-01	0	29	104	0	86	11493
2026-01-14 22:16:07.54	59.73	80.11	-61.4	-71.2	3.8	7.45e-01	0	29	104	0	86	11478
2026-01-14 22:16:10.53	71.34	81.92	-61.4	-71.2	3.8	7.45e-01	0	29	104	0	86	11490
2026-01-14 22:16:13.53	88.64	83.25	-61.5	-71.2	3.8	7.44e-01	0	29	104	0	86	11513
2026-01-14 22:16:16.51	111.10	83.74	-61.5	-71.2	3.8	7.46e-01	0	29	104	0	86	11542
2026-01-14 22:16:19.52	133.66	83.21	-61.5	-71.2	3.8	7.46e-01	0	29	104	0	86	11545
2026-01-14 22:16:22.50	150.62	81.86	-61.5	-71.2	3.8	7.44e-01	0	29	104	0	86	11520
2026-01-14 22:16:25.49	162.09	80.04	-61.5	-71.3	3.8	7.46e-01	0	29	104	0	86	11554
2026-01-14 22:16:28.48	169.76	77.97	-61.5	-71.2	3.8	7.47e-01	0	29	104	0	86	11528
2026-01-14 22:16:31.49	175.12	75.77	-61.5	-71.2	3.8	7.45e-01	0	29	104	0	86	11540
2026-01-14 22:16:34.49	178.97	73.53	-61.5	-71.2	3.8	7.46e-01	0	29	104	0	86	11529
2026-01-14 22:16:37.49	181.86	71.29	-61.5	-71.2	3.8	7.46e-01	0	29	104	0	86	11525
2026-01-14 22:16:40.49	184.10	69.06	-61.5	-71.3	3.8	7.45e-01	0	29	104	0	86	11560
2026-01-14 22:16:43.49	185.89	66.86	-61.5	-71.2	3.8	7.46e-01	0	29	104	0	86	11498
2026-01-14 22:16:46.47	187.33	64.73	-61.5	-71.2	3.8	7.46e-01	0	29	104	0	86	11478
2026-01-14 22:16:49.47	188.53	62.63	-61.5	-71.2	3.8	7.47e-01	0	29	104	0	86	11528
2026-01-14 22:16:52.47	189.55	60.59	-61.5	-71.2	3.8	7.47e-01	0	29	104	0	86	11445
2026-01-14 22:16:55.46	190.41	58.62	-61.4	-71.2	3.8	7.45e-01	0	29	104	0	86	11432
2026-01-14 22:16:58.45	191.16	56.71	-61.4	-71.2	3.8	7.47e-01	0	29	104	0	86	11453
2026-01-14 22:17:01.45	191.81	54.86	-61.4	-71.2	3.8	7.44e-01	0	29	104	0	86	11474
2026-01-14 22:17:04.46	192.38	53.07	-61.4	-71.1	3.8	7.46e-01	0	29	104	0	86	11384
2026-01-14 22:17:07.47	192.90	51.35	-61.4	-71.1	3.8	7.46e-01	0	29	104	0	86	11340
2026-01-14 22:17:10.47	193.35	49.70	-61.4	-71.2	3.8	7.46e-01	0	29	104	0	86	11423
2026-01-14 22:17:13.46	193.76	48.11	-61.4	-71.2	3.8	7.45e-01	0	29	104	0	86	11426
2026-01-14 22:17:16.46	194.13	46.58	-61.4	-71.1	3.8	7.47e-01	0	29	104	0	86	11346
2026-01-14 22:17:19.45	194.46	45.12	-61.3	-71.1	3.8	7.46e-01	0	29	104	0	86	11322
2026-01-14 22:17:22.42	194.77	43.72	-61.3	-71.1	3.8	7.46e-01	0	29	104	0	86	11304
2026-01-14 22:17:25.42	195.05	42.36	-61.3	-71.0	3.8	7.47e-01	0	29	104	0	86	11283
2026-01-14 22:17:28.40	195.31	41.06	-61.3	-71.0	3.8	7.45e-01	0	29	104	0	86	11281
2026-01-14 22:17:31.40	195.55	39.81	-61.2	-71.0	3.8	7.45e-01	0	29	104	0	86	11200
2026-01-14 22:17:34.40	195.77	38.60	-61.2	-71.0	3.8	7.46e-01	0	29	104	0	86	11160
2026-01-14 22:17:37.39	195.98	37.45	-61.2	-71.0	3.8	7.46e-01	0	29	104	0	86	11170
2026-01-14 22:17:40.38	196.17	36.34	-61.2	-71.0	3.8	7.47e-01	0	29	104	0	86	11171
2026-01-14 22:17:43.39	196.35	35.26	-61.2	-70.9	3.8	7.46e-01	0	29	104	0	86	11137
2026-01-14 22:17:46.38	196.52	34.23	-61.2	-70.9	3.8	7.45e-01	0	29	104	0	86	11099
2026-01-14 22:17:49.37	196.68	33.24	-61.1	-70.9	3.8	7.46e-01	0	29	104	0	86	11054
2026-01-14 22:17:52.36	196.83	32.29	-61.1	-70.9	3.8	7.45e-01	0	29	104	0	86	11050
2026-01-14 22:17:55.34	196.97	31.37	-61.1	-70.8	3.8	7.46e-01	0	29	104	0	86	11006
2026-01-14 22:17:58.33	197.11	30.48	-61.1	-70.8	3.8	7.45e-01	0	29	104	0	86	11028
2026-01-14 22:18:01.33	197.23	29.62	-61.1	-70.8	3.8	7.45e-01	0	29	104	0	86	10977
2026-01-14 22:18:04.32	197.35	28.80	-61.0	-70.7	3.8	7.47e-01	0	29	104	0	86	10902
2026-01-14 22:18:07.31	197.47	28.00	-61.0	-70.7	3.8	7.46e-01	0	29	104	0	86	10863
2026-01-14 22:18:10.29	197.58	27.23	-61.0	-70.7	3.8	7.44e-01	0	29	104	0	86	10864
2026-01-14 22:18:13.28	197.68	26.48	-61.0	-70.7	3.8	7.46e-01	0	29	104	0	86	10864
2026-01-14 22:18:16.28	197.78	25.76	-61.0	-70.7	3.8	7.44e-01	0	29	104	0	86	10826
2026-01-14 22:18:19.27	197.88	25.06	-61.0	-70.7	3.8	7.46e-01	0	29	104	0	86	10850
2026-01-14 22:18:22.25	197.97	24.38	-60.9	-70.7	3.8	7.46e-01	0	29	104	0	86	10807
2026-01-14 22:18:25.24	198.06	23.73	-60.9	-70.6	3.8	7.47e-01	0	29	104	0	86	10760
2026-01-14 22:18:28.23	198.14	23.09	-60.9	-70.6	3.8	7.45e-01	0	29	104	0	86	10684
2026-01-14 22:18:31.22	198.22	22.47	-60.9	-70.6	3.8	7.46e-01	0	29	104	0	86	10742
2026-01-14 22:18:34.21	198.30	21.87	-60.8	-70.6	3.8	7.46e-01	0	29	104	0	86	10680
2026-01-14 22:18:37.20	198.38	21.29	-60.8	-70.5	3.8	7.45e-01	0	29	104	0	86	10645
2026-01-14 22:18:40.19	198.45	20.72	-60.8	-70.5	3.8	7.45e-01	0	29	104	0	86	10633
2026-01-14 22:18:43.19	198.52	20.17	-60.8	-70.5	3.8	7.46e-01	0	29	104	0	86	10646
2026-01-14 22:18:46.19	198.59	19.63	-60.8	-70.5	3.8	7.45e-01	0	29	104	0	86	10622
2026-01-14 22:18:49.18	198.66	19.11	-60.8	-70.5	3.8	7.46e-01	0	29	104	0	86	10627
2026-01-14 22:18:52.16	198.72	18.60	-60.7	-70.5	3.8	7.46e-01	0	29	104	0	86	10555
2026-01-14 22:18:55.15	198.78	18.11	-60.7	-70.5	3.8	7.45e-01	0	29	104	0	86	10540
2026-01-14 22:18:58.16	198.84	17.62	-60.7	-70.4	3.8	7.47e-01	0	29	104	0	86	10460
2026-01-14 22:19:01.15	198.90	17.15	-60.7	-70.4	3.8	7.46e-01	0	29	104	0	85	11065
2026-01-14 22:19:04.14	198.96	16.69	-60.6	-70.4	3.8	7.45e-01	0	29	104	0	85	11045
2026-01-14 22:19:07.13	199.01	16.24	-60.6	-70.4	3.8	7.46e-01	0	29	104	0	85	11059
2026-01-14 22:19:10.13	199.06	15.81	-60.6	-70.3	3.8	7.47e-01	0	29	104	0	85	11004
2026-01-14 22:19:13.12	199.12	15.38	-60.6	-70.3	3.8	7.45e-01	0	29	104	0	85	10952
2026-01-14 22:19:16.11	199.17	14.96	-60.5	-70.3	3.8	7.47e-01	0	29	104	0	85	10954
2026-01-14 22:19:19.10	199.22	14.55	-60.5	-70.3	3.8	7.46e-01	0	29	104	0	85	10970
2026-01-14 22:19:22.09	199.26	14.15	-60.5	-70.2	3.8	7.47e-01	0	29	104	0	85	10825
2026-01-14 22:19:25.08	199.31	13.76	-60.5	-70.2	3.8	7.47e-01	0	29	104	0	85	10891
2026-01-14 22:19:28.06	199.36	13.37	-60.5	-70.2	3.8	7.44e-01	0	29	104	0	85	10859
2026-01-14 22:19:31.06	199.40	13.00	-60.5	-70.2	3.8	7.45e-01	0	29	104	0	85	10873
2026-01-14 22:19:34.05	199.44	12.63	-60.4	-70.1	3.8	7.46e-01	0	29	104	0	85	10777
2026-01-14 22:19:37.05	199.49	12.27	-60.4	-70.2	3.8	7.47e-01	0	29	104	0	85	10789
2026-01-14 22:19:40.05	199.53	11.91	-60.4	-70.1	3.8	7.47e-01	0	29	104	0	85	10731
2026-01-14 22:19:43.03	199.57	11.56	-60.4	-70.1	3.8	7.46e-01	0	29	104	0	85	10727
2026-01-14 22:19:46.02	199.61	11.22	-60.3	-70.0	3.8	7.46e-01	0	29	104	0	85	10652
2026-01-14 22:19:49.02	199.65	10.89	-60.3	-70.0	3.8	7.46e-01	0	29	104	0	85	10644
2026-01-14 22:19:52.02	199.69	10.56	-60.3	-70.0	3.8	7.44e-01	0	29	104	0	85	10601
2026-01-14 22:19:55.02	199.73	10.23	-60.3	-70.1	3.8	7.47e-01	0	29	104	0	85	10694
2026-01-14 22:19:58.01	199.76	9.92	-60.2	-69.9	3.8	7.45e-01	0	29	104	0	85	10511
2026-01-14 22:20:01.01	199.80	9.60	-60.2	-70.0	3.8	7.44e-01	0	29	104	0	85	10556
2026-01-14 22:20:04.01	199.84	9.29	-60.2	-69.9	3.8	7.45e-01	0	29	104	0	85	10518
2026-01-14 22:20:07.01	199.87	8.99	-60.2	-70.0	3.8	7.47e-01	0	29	104	0	84	11160
2026-01-14 22:20:10.00	199.90	8.69	-60.1	-69.9	3.8	7.48e-01	0	29	104	0	84	11048
2026-01-14 22:20:12.99	199.94	8.40	-60.1	-69.9	3.8	7.45e-01	0	29	104	0	84	11062
2026-01-14 22:20:15.98	199.97	8.11	-60.1	-69.8	3.8	7.47e-01	0	29	104	0	84	10942
2026-01-14 22:20:18.98	200.00	7.83	-60.1	-69.9	3.8	7.45e-01	0	29	104	0	84	11065
2026-01-14 22:20:21.98	200.04	7.55	-60.0	-69.7	3.8	7.46e-01	0	29	104	0	84	10894
2026-01-14 22:20:24.95	200.07	7.28	-60.0	-69.7	3.8	7.44e-01	0	29	104	0	84	10872
2026-01-14 22:20:27.95	200.10	7.00	-60.0	-69.7	3.8	7.46e-01	0	29	104	0	84	10831
2026-01-14 22:20:30.93	200.13	6.74	-60.0	-69.7	3.8	7.46e-01	0	29	104	0	84	10864
2026-01-14 22:20:33.91	200.16	6.47	-59.8	-69.6	3.8	7.45e-01	0	29	104	0	84	10674
2026-01-14 22:20:36.91	200.19	6.21	-59.9	-69.6	3.8	7.45e-01	0	29	104	0	84	10715
2026-01-14 22:20:39.90	200.22	5.95	-59.8	-69.5	3.8	7.46e-01	0	29	104	0	84	10651
2026-01-14 22:20:42.90	200.25	5.70	-59.9	-69.6	3.8	7.47e-01	0	29	104	0	84	10745
2026-01-14 22:20:45.91	200.28	5.45	-59.5	-69.3	3.8	7.46e-01	0	29	104	0	83	10908
2026-01-14 22:20:48.91	200.31	5.20	-59.6	-69.3	3.8	7.45e-01	0	29	104	0	83	10981
2026-01-14 22:20:51.91	200.33	4.96	-59.8	-69.6	3.8	7.46e-01	0	29	104	0	83	11302
2026-01-14 22:20:54.91	200.36	4.71	-60.8	-70.5	3.8	7.46e-01	0	29	104	0	84	11903
2026-01-14 22:20:57.90	200.39	4.48	-61.1	-70.9	3.8	7.46e-01	0	29	104	0	85	11719
2026-01-14 22:21:00.90	200.41	4.24	-61.4	-71.1	3.8	7.46e-01	0	29	104	0	85	12029
2026-01-14 22:21:03.89	200.44	4.01	-61.4	-71.2	3.8	7.46e-01	0	29	104	0	86	11473
2026-01-14 22:21:06.91	200.47	3.78	-61.4	-71.1	3.8	7.46e-01	0	29	104	0	86	11366
2026-01-14 22:21:09.93	200.49	3.55	-61.5	-71.2	3.8	7.47e-01	0	29	104	0	86	11472
2026-01-14 22:21:12.92	200.52	3.32	-61.5	-71.2	3.8	7.45e-01	0	29	104	0	86	11535
2026-01-14 22:21:15.91	200.54	3.10	-61.7	-71.4	3.8	7.47e-01	0	29	104	0	86	11703
2026-01-14 22:21:18.90	200.57	2.88	-61.7	-71.4	3.8	7.45e-01	0	29	104	0	86	11817
2026-01-14 22:21:21.90	200.59	2.66	-61.7	-71.4	3.8	7.45e-01	0	29	104	0	86	11737
2026-01-14 22:21:24.89	200.62	2.44	-61.6	-71.4	3.8	7.47e-01	0	29	104	0	86	11753
2026-01-14 22:21:27.86	200.64	2.23	-61.7	-71.4	3.8	7.44e-01	0	29	104	0	86	11802
2026-01-14 22:21:30.86	200.67	2.02	-61.6	-71.3	3.8	7.46e-01	0	29	104	0	86	11658

#Closed at: 2026-01-14 22:21:33
#Recorded file [0 MB]: D:/lorett/data/31004_260115_011058.dat