passes_logs/2026/01/14/R3.2S_Murmansk/R3.2S_Murmansk__20260114_015057_NOAA_20_JPSS-1_rec.log

#Pass ID: 20260114_015057_NOAA 20 (JPSS-1)
#Satellite: NOAA 20 (JPSS-1)
#Configuration: NOAA 20
#almurnet v.1.7.20251203
#Start time: 2026-01-14 01:50:58

#Version: 2.2.20231116
#Station: R3.2S_Murmansk
#Location: 33.079688 lon 68.888172 lat
#TLE: 1 43013U 17073A   26013.56788096  .00000060  00000+0  49292-4 0  9995
#TLE: 2 43013  98.7633 314.5224 0001558  41.3934 318.7360 14.19535692422532

#Time	Az	El	Level	Level2	SNR	BER	BlckErr	Temp	State	Recorded	gain1	gain2
2026-01-14 01:50:58.96	29.83	2.12	-57.9	-73.9	3.8	1.49e+00	0	25	0	0	82	22138
2026-01-14 01:51:02.99	29.73	2.38	-57.9	-73.9	3.8	1.49e+00	0	26	104	0	80	24828
2026-01-14 01:51:07.02	29.63	2.64	-57.9	-73.9	3.8	1.49e+00	0	25	104	0	80	24711
2026-01-14 01:51:11.06	29.52	2.90	-57.9	-73.9	3.8	1.49e+00	0	26	104	0	80	24735
2026-01-14 01:51:15.10	29.42	3.16	-57.9	-73.6	3.8	1.49e+00	0	26	104	0	80	23973
2026-01-14 01:51:19.14	29.30	3.42	-57.9	-73.1	3.8	1.49e+00	0	26	104	0	80	22697
2026-01-14 01:51:23.17	29.19	3.69	-57.9	-72.9	3.8	1.49e+00	0	26	104	0	80	22211
2026-01-14 01:51:27.21	29.08	3.96	-57.6	-69.1	4.6	1.24e+00	0	26	0	0	80	14228
2026-01-14 01:51:31.24	28.96	4.23	-57.2	-65.2	6.9	1.44e-01	0	26	0	8388608	80	9152
2026-01-14 01:51:35.28	28.84	4.51	-56.6	-62.8	8.9	1.19e-02	0	26	0	15728640	79	7370
2026-01-14 01:51:39.31	28.72	4.78	-56.8	-63.3	8.5	1.45e-02	0	26	0	23068672	79	7796
2026-01-14 01:51:43.34	28.59	5.06	-57.2	-65.0	7.1	1.20e-01	0	27	0	30408704	79	9446
2026-01-14 01:51:47.37	28.46	5.35	-54.7	-58.0	12.8	0.00e+00	0	26	0	37748736	75	5293
2026-01-14 01:51:51.40	28.33	5.63	-54.3	-57.1	13.2	0.00e+00	0	27	0	45088768	75	4793
2026-01-14 01:51:55.43	28.20	5.92	-53.7	-56.2	13.6	0.00e+00	0	27	0	53477376	73	4843
2026-01-14 01:51:59.47	28.06	6.21	-53.6	-56.0	13.7	0.00e+00	0	27	0	60817408	73	4751
2026-01-14 01:52:03.50	27.92	6.51	-53.3	-55.5	14.0	0.00e+00	0	26	0	68157440	73	4492
2026-01-14 01:52:07.53	27.78	6.81	-53.2	-55.4	13.9	0.00e+00	0	26	0	75497472	72	4677
2026-01-14 01:52:11.56	27.63	7.11	-53.2	-55.4	14.0	0.00e+00	0	27	0	82837504	72	4673
2026-01-14 01:52:15.59	27.48	7.41	-53.2	-55.5	13.9	0.00e+00	0	27	0	91226112	72	4710
2026-01-14 01:52:19.61	27.33	7.72	-53.0	-55.1	14.1	0.00e+00	0	27	0	98566144	72	4533
2026-01-14 01:52:23.65	27.17	8.03	-53.0	-55.1	14.1	0.00e+00	0	27	0	105906176	72	4537
2026-01-14 01:52:27.68	27.01	8.35	-53.2	-55.3	14.0	0.00e+00	0	27	0	113246208	72	4642
2026-01-14 01:52:31.72	26.84	8.67	-53.1	-55.3	14.1	0.00e+00	0	27	0	120586240	72	4599
2026-01-14 01:52:35.75	26.67	8.99	-53.0	-55.1	14.2	0.00e+00	0	27	0	128974848	72	4519
2026-01-14 01:52:39.79	26.50	9.32	-52.9	-54.9	14.3	0.00e+00	0	27	0	136314880	72	4424
2026-01-14 01:52:43.82	26.32	9.65	-52.8	-54.8	14.3	0.00e+00	0	27	0	143654912	72	4374
2026-01-14 01:52:47.86	26.14	9.98	-52.8	-54.8	14.3	0.00e+00	0	27	0	150994944	72	4373
2026-01-14 01:52:51.89	25.95	10.32	-52.6	-54.6	14.3	0.00e+00	0	27	0	159383552	71	4515
2026-01-14 01:52:55.92	25.76	10.67	-52.6	-54.6	14.3	0.00e+00	0	27	0	166723584	71	4524
2026-01-14 01:52:59.95	25.57	11.01	-52.6	-54.6	14.3	0.00e+00	0	27	0	174063616	71	4527
2026-01-14 01:53:03.99	25.37	11.37	-52.6	-54.5	14.4	0.00e+00	0	27	0	181403648	71	4477
2026-01-14 01:53:08.02	25.16	11.73	-52.6	-54.5	14.4	0.00e+00	0	27	0	188743680	71	4463
2026-01-14 01:53:12.05	24.95	12.09	-52.6	-54.5	14.4	0.00e+00	0	27	0	197132288	71	4463
2026-01-14 01:53:16.08	24.73	12.46	-52.6	-54.5	14.4	0.00e+00	0	27	0	204472320	71	4448
2026-01-14 01:53:20.12	24.50	12.83	-52.5	-54.4	14.4	0.00e+00	0	27	0	211812352	71	4429
2026-01-14 01:53:24.15	24.27	13.21	-52.4	-54.3	14.5	0.00e+00	0	27	0	219152384	71	4362
2026-01-14 01:53:28.18	24.04	13.59	-52.4	-54.2	14.5	0.00e+00	0	27	0	226492416	71	4323
2026-01-14 01:53:32.22	23.79	13.98	-52.4	-54.3	14.5	0.00e+00	0	27	0	234881024	71	4347
2026-01-14 01:53:36.25	23.54	14.37	-52.3	-54.1	14.6	0.00e+00	0	27	0	242221056	71	4261
2026-01-14 01:53:40.29	23.29	14.78	-52.3	-54.1	14.6	0.00e+00	0	27	0	249561088	71	4275
2026-01-14 01:53:44.32	23.02	15.18	-52.3	-54.1	14.6	0.00e+00	0	27	0	256901120	71	4251
2026-01-14 01:53:48.35	22.75	15.60	-52.2	-54.0	14.5	0.00e+00	0	27	0	264241152	70	4454
2026-01-14 01:53:52.38	22.47	16.02	-52.2	-54.0	14.5	0.00e+00	0	27	0	272629760	70	4481
2026-01-14 01:53:56.41	22.18	16.44	-52.3	-54.2	14.4	0.00e+00	0	27	0	279969792	70	4552
2026-01-14 01:54:00.44	21.88	16.87	-52.4	-54.2	14.5	0.00e+00	0	27	0	287309824	70	4560
2026-01-14 01:54:04.48	21.57	17.31	-52.4	-54.3	14.4	0.00e+00	0	27	0	294649856	70	4602
2026-01-14 01:54:08.52	21.26	17.76	-52.4	-54.2	14.4	0.00e+00	0	27	0	303038464	70	4570
2026-01-14 01:54:12.54	20.93	18.21	-52.3	-54.0	14.5	0.00e+00	0	27	0	310378496	70	4482
2026-01-14 01:54:16.57	20.59	18.68	-52.2	-54.0	14.5	0.00e+00	0	27	0	317718528	70	4461
2026-01-14 01:54:20.61	20.24	19.15	-52.2	-54.0	14.6	0.00e+00	0	27	0	325058560	70	4450
2026-01-14 01:54:24.64	19.88	19.62	-52.4	-54.2	14.5	0.00e+00	0	27	0	332398592	70	4550
2026-01-14 01:54:28.68	19.51	20.11	-52.5	-54.3	14.4	0.00e+00	0	27	0	340787200	70	4648
2026-01-14 01:54:32.71	19.13	20.60	-52.7	-54.5	14.3	0.00e+00	0	27	0	348127232	70	4755
2026-01-14 01:54:36.74	18.73	21.10	-52.8	-54.7	14.3	0.00e+00	0	27	0	355467264	70	4823
2026-01-14 01:54:40.77	18.32	21.61	-53.0	-54.9	14.2	0.00e+00	0	27	0	362807296	71	4705
2026-01-14 01:54:44.80	17.90	22.13	-52.9	-54.8	14.3	0.00e+00	0	27	0	370147328	71	4649
2026-01-14 01:54:48.84	17.45	22.66	-53.0	-55.0	14.2	0.00e+00	0	27	0	378535936	71	4715
2026-01-14 01:54:52.87	17.00	23.20	-53.2	-55.2	14.2	0.00e+00	0	27	0	385875968	71	4817
2026-01-14 01:54:56.91	16.52	23.74	-53.5	-55.5	14.1	0.00e+00	0	27	0	393216000	72	4755
2026-01-14 01:55:00.94	16.03	24.30	-53.7	-55.9	14.0	0.00e+00	0	27	0	400556032	72	4935
2026-01-14 01:55:04.97	15.53	24.87	-53.8	-56.0	13.9	0.00e+00	0	27	0	408944640	72	5009
2026-01-14 01:55:09.01	15.00	25.44	-54.0	-56.3	13.9	0.00e+00	0	27	0	416284672	73	4890
2026-01-14 01:55:13.04	14.45	26.03	-54.1	-56.3	13.9	0.00e+00	0	27	0	423624704	73	4902
2026-01-14 01:55:17.06	13.88	26.62	-53.9	-56.2	13.9	0.00e+00	0	27	0	430964736	73	4821
2026-01-14 01:55:21.10	13.29	27.22	-53.9	-56.1	14.0	0.00e+00	0	27	0	438304768	73	4766
2026-01-14 01:55:25.13	12.67	27.84	-54.0	-56.2	13.9	0.00e+00	0	27	0	446693376	73	4845
2026-01-14 01:55:29.16	12.03	28.46	-53.8	-55.9	14.0	0.00e+00	0	27	0	454033408	73	4702
2026-01-14 01:55:33.20	11.37	29.10	-53.9	-56.1	14.0	0.00e+00	0	27	0	461373440	73	4764
2026-01-14 01:55:37.22	10.67	29.74	-54.0	-56.3	13.9	0.00e+00	0	27	0	468713472	73	4873
2026-01-14 01:55:41.25	9.95	30.40	-54.2	-56.5	13.8	0.00e+00	0	27	0	476053504	73	5036
2026-01-14 01:55:45.29	9.20	31.06	-54.4	-56.7	13.8	0.00e+00	0	27	0	484442112	74	4832
2026-01-14 01:55:49.33	8.41	31.74	-54.8	-57.3	13.5	0.00e+00	0	27	0	491782144	74	5203
2026-01-14 01:55:53.36	7.59	32.42	-54.7	-57.2	13.6	0.00e+00	0	27	0	499122176	74	5121
2026-01-14 01:55:57.39	6.73	33.11	-55.1	-57.7	13.4	0.00e+00	0	27	0	506462208	75	5150
2026-01-14 01:56:01.43	5.84	33.81	-55.1	-57.7	13.4	0.00e+00	0	27	0	513802240	75	5136
2026-01-14 01:56:05.47	4.90	34.52	-54.8	-57.3	13.6	0.00e+00	0	27	0	522190848	75	4876
2026-01-14 01:56:09.50	3.92	35.24	-54.5	-56.8	13.9	0.00e+00	0	27	0	529530880	75	4624
2026-01-14 01:56:13.54	2.90	35.96	-54.3	-56.5	14.0	0.00e+00	0	27	0	536870912	75	4487
2026-01-14 01:56:17.57	1.83	36.68	-54.6	-56.9	13.8	0.00e+00	0	27	0	544210944	75	4699
2026-01-14 01:56:21.60	0.71	37.41	-54.5	-56.8	13.9	0.00e+00	0	27	0	551550976	75	4613
2026-01-14 01:56:25.64	359.54	38.15	-54.7	-57.1	13.7	0.00e+00	0	27	0	559939584	75	4791
2026-01-14 01:56:29.67	358.32	38.88	-54.7	-57.0	13.8	0.00e+00	0	27	0	567279616	75	4744
2026-01-14 01:56:33.70	357.04	39.62	-54.7	-57.1	13.8	0.00e+00	0	27	0	574619648	75	4786
2026-01-14 01:56:37.74	355.69	40.35	-54.6	-57.0	13.8	0.00e+00	0	27	0	581959680	75	4713
2026-01-14 01:56:41.77	354.29	41.08	-55.3	-58.0	13.3	0.00e+00	0	27	0	590348288	75	5296
2026-01-14 01:56:45.81	352.81	41.81	-55.0	-57.6	13.5	0.00e+00	0	27	0	597688320	75	5047
2026-01-14 01:56:49.84	351.28	42.52	-55.2	-57.8	13.4	0.00e+00	0	27	0	605028352	75	5202
2026-01-14 01:56:53.88	349.67	43.23	-55.1	-57.6	13.6	0.00e+00	0	27	0	612368384	76	4792
2026-01-14 01:56:57.90	347.99	43.92	-55.1	-57.6	13.6	0.00e+00	0	27	0	619708416	76	4788
2026-01-14 01:57:01.94	346.24	44.59	-54.2	-56.3	14.2	0.00e+00	0	27	0	628097024	75	4375
2026-01-14 01:57:05.97	344.41	45.25	-53.8	-55.8	14.3	0.00e+00	0	27	0	635437056	74	4362
2026-01-14 01:57:10.01	342.50	45.88	-53.5	-55.5	14.4	0.00e+00	0	27	0	642777088	73	4447
2026-01-14 01:57:14.04	340.52	46.48	-53.9	-56.0	14.1	0.00e+00	0	27	0	650117120	73	4726
2026-01-14 01:57:18.07	338.46	47.05	-53.8	-55.8	14.2	0.00e+00	0	27	0	658505728	73	4626
2026-01-14 01:57:22.11	336.33	47.59	-54.5	-56.7	13.9	0.00e+00	0	27	0	665845760	74	4851
2026-01-14 01:57:26.14	334.12	48.09	-54.9	-57.3	13.6	0.00e+00	0	27	0	673185792	74	5166
2026-01-14 01:57:30.17	331.85	48.55	-55.2	-57.8	13.4	0.00e+00	0	27	0	680525824	75	5170
2026-01-14 01:57:34.21	329.50	48.96	-56.5	-59.7	12.6	0.00e+00	0	27	0	687865856	78	5440
2026-01-14 01:57:38.24	327.10	49.32	-55.9	-58.7	13.2	0.00e+00	0	27	0	696254464	78	4826
2026-01-14 01:57:42.27	324.65	49.63	-55.3	-57.8	13.6	0.00e+00	0	27	0	703594496	77	4634
2026-01-14 01:57:46.30	322.15	49.88	-54.0	-56.1	14.2	0.00e+00	0	27	0	710934528	74	4496
2026-01-14 01:57:50.33	319.62	50.07	-54.1	-56.3	14.0	0.00e+00	0	27	0	718274560	73	4877
2026-01-14 01:57:54.36	317.05	50.21	-53.1	-54.9	14.5	0.00e+00	0	27	0	725614592	72	4429
2026-01-14 01:57:58.39	314.47	50.28	-52.9	-54.7	14.6	0.00e+00	0	27	0	734003200	72	4295
2026-01-14 01:58:02.41	311.89	50.29	-53.1	-54.9	14.5	0.00e+00	0	27	0	741343232	72	4403
2026-01-14 01:58:06.45	309.30	50.24	-53.4	-55.3	14.3	0.00e+00	0	27	0	748683264	72	4618
2026-01-14 01:58:10.48	306.73	50.13	-53.4	-55.2	14.4	0.00e+00	0	27	0	756023296	72	4597
2026-01-14 01:58:14.51	304.18	49.96	-53.8	-55.8	14.1	0.00e+00	0	27	0	763363328	72	4878
2026-01-14 01:58:18.55	301.66	49.72	-53.6	-55.5	14.3	0.00e+00	0	27	0	771751936	72	4720
2026-01-14 01:58:22.58	299.19	49.43	-53.8	-55.8	14.1	0.00e+00	0	27	0	779091968	72	4900
2026-01-14 01:58:26.62	296.76	49.09	-53.7	-55.7	14.1	0.00e+00	0	27	0	786432000	72	4863
2026-01-14 01:58:30.65	294.40	48.70	-54.3	-56.4	14.0	0.00e+00	0	27	0	793772032	73	4969
2026-01-14 01:58:34.69	292.09	48.26	-54.7	-57.0	13.8	0.00e+00	0	27	0	802160640	74	5025
2026-01-14 01:58:38.71	289.86	47.77	-55.0	-57.5	13.7	0.00e+00	0	27	0	809500672	75	4985
2026-01-14 01:58:42.74	287.70	47.25	-54.7	-57.0	13.8	0.00e+00	0	27	0	816840704	75	4747
2026-01-14 01:58:46.77	285.62	46.69	-54.4	-56.6	14.1	0.00e+00	0	27	0	824180736	75	4532
2026-01-14 01:58:50.81	283.60	46.09	-53.7	-55.6	14.3	0.00e+00	0	27	0	831520768	73	4540
2026-01-14 01:58:54.85	281.66	45.47	-53.8	-55.8	14.2	0.00e+00	0	27	0	839909376	73	4629
2026-01-14 01:58:58.88	279.81	44.82	-53.4	-55.3	14.5	0.00e+00	0	27	0	847249408	73	4358
2026-01-14 01:59:02.92	278.02	44.15	-53.2	-55.1	14.5	0.00e+00	0	27	0	854589440	73	4255
2026-01-14 01:59:06.95	276.31	43.47	-53.5	-55.4	14.3	0.00e+00	0	27	0	861929472	72	4685
2026-01-14 01:59:10.98	274.68	42.77	-53.5	-55.4	14.2	0.00e+00	0	27	0	869269504	72	4701
2026-01-14 01:59:15.01	273.11	42.05	-53.4	-55.4	14.3	0.00e+00	0	27	0	877658112	72	4659
2026-01-14 01:59:19.04	271.62	41.33	-53.3	-55.1	14.4	0.00e+00	0	27	0	884998144	72	4544
2026-01-14 01:59:23.07	270.19	40.60	-53.6	-55.6	14.2	0.00e+00	0	27	0	892338176	72	4780
2026-01-14 01:59:27.10	268.82	39.87	-53.9	-55.9	14.1	0.00e+00	0	27	0	899678208	73	4685
2026-01-14 01:59:31.13	267.52	39.13	-54.7	-57.0	13.7	0.00e+00	0	27	0	907018240	74	5030
2026-01-14 01:59:35.17	266.27	38.39	-54.5	-56.8	13.8	0.00e+00	0	27	0	915406848	74	4886
2026-01-14 01:59:39.20	265.08	37.66	-55.4	-58.1	13.3	0.00e+00	0	27	0	922746880	75	5349
2026-01-14 01:59:43.22	263.94	36.93	-55.1	-57.6	13.6	0.00e+00	0	27	0	930086912	76	4801
2026-01-14 01:59:47.25	262.86	36.20	-55.7	-58.5	13.1	0.00e+00	0	27	0	937426944	76	5306
2026-01-14 01:59:51.29	261.81	35.47	-55.4	-58.0	13.4	0.00e+00	0	27	0	944766976	76	5003
2026-01-14 01:59:55.32	260.82	34.75	-55.4	-58.0	13.4	0.00e+00	0	27	0	953155584	76	5027
2026-01-14 01:59:59.34	259.87	34.04	-55.8	-58.7	13.0	0.00e+00	0	27	0	960495616	76	5438
2026-01-14 02:00:03.37	258.96	33.34	-55.0	-57.5	13.7	0.00e+00	0	27	0	967835648	76	4754
2026-01-14 02:00:07.41	258.08	32.64	-55.0	-57.5	13.7	0.00e+00	0	27	0	975175680	76	4743
2026-01-14 02:00:11.44	257.25	31.95	-54.8	-57.2	13.8	0.00e+00	0	27	0	983564288	76	4587
2026-01-14 02:00:15.47	256.45	31.28	-55.3	-57.9	13.5	0.00e+00	0	27	0	990904320	76	4952
2026-01-14 02:00:19.51	255.68	30.61	-55.1	-57.7	13.5	0.00e+00	0	27	0	998244352	76	4841
2026-01-14 02:00:23.54	254.94	29.95	-54.7	-57.0	13.7	0.00e+00	0	27	0	1005584384	75	4757
2026-01-14 02:00:27.56	254.24	29.30	-54.7	-57.1	13.8	0.00e+00	0	27	0	1012924416	75	4765
2026-01-14 02:00:31.59	253.56	28.66	-54.5	-56.8	13.9	0.00e+00	0	27	0	1021313024	75	4610
2026-01-14 02:00:35.62	252.91	28.03	-53.8	-55.9	14.2	0.00e+00	0	27	0	1028653056	74	4395
2026-01-14 02:00:39.66	252.28	27.41	-54.1	-56.3	14.0	0.00e+00	0	27	0	1035993088	74	4644
2026-01-14 02:00:43.69	251.68	26.80	-54.0	-56.1	14.1	0.00e+00	0	27	0	1043333120	74	4507
2026-01-14 02:00:47.73	251.10	26.20	-53.8	-55.9	14.1	0.00e+00	0	27	0	1050673152	73	4697
2026-01-14 02:00:51.76	250.54	25.61	-54.1	-56.4	13.8	0.00e+00	0	27	0	1059061760	73	4941
2026-01-14 02:00:55.79	250.01	25.03	-53.9	-56.1	14.0	0.00e+00	0	27	0	1066401792	73	4785
2026-01-14 02:00:59.83	249.49	24.46	-53.5	-55.5	14.3	0.00e+00	0	27	0	1073741824	73	4472
2026-01-14 02:01:03.86	248.99	23.90	-53.6	-55.7	14.2	0.00e+00	0	27	0	1081081856	73	4561
2026-01-14 02:01:07.90	248.51	23.34	-53.6	-55.7	14.2	0.00e+00	0	27	0	1088421888	73	4577
2026-01-14 02:01:11.93	248.05	22.80	-53.5	-55.6	14.2	0.00e+00	0	27	0	1096810496	73	4510
2026-01-14 02:01:15.97	247.60	22.27	-53.6	-55.7	14.2	0.00e+00	0	27	0	1104150528	73	4569
2026-01-14 02:01:20.01	247.16	21.74	-53.5	-55.5	14.2	0.00e+00	0	27	0	1111490560	73	4470
2026-01-14 02:01:24.04	246.75	21.23	-53.3	-55.3	14.4	0.00e+00	0	27	0	1118830592	73	4348
2026-01-14 02:01:28.08	246.34	20.72	-53.4	-55.3	14.3	0.00e+00	0	27	0	1127219200	73	4387
2026-01-14 02:01:32.11	245.95	20.23	-53.5	-55.5	14.2	0.00e+00	0	27	0	1134559232	73	4478
2026-01-14 02:01:36.15	245.57	19.74	-53.6	-55.6	14.2	0.00e+00	0	27	0	1141899264	73	4529
2026-01-14 02:01:40.18	245.21	19.26	-53.4	-55.4	14.3	0.00e+00	0	27	0	1149239296	73	4434
2026-01-14 02:01:44.21	244.85	18.78	-53.6	-55.6	14.2	0.00e+00	0	27	0	1156579328	73	4534
2026-01-14 02:01:48.24	244.51	18.32	-53.8	-56.0	14.0	0.00e+00	0	27	0	1164967936	73	4737
2026-01-14 02:01:52.27	244.18	17.86	-53.9	-56.2	13.9	0.00e+00	0	27	0	1172307968	73	4821
2026-01-14 02:01:56.30	243.86	17.41	-53.9	-56.1	13.9	0.00e+00	0	27	0	1179648000	73	4790
2026-01-14 02:02:00.33	243.54	16.97	-53.8	-56.1	13.9	0.00e+00	0	27	0	1186988032	73	4762
2026-01-14 02:02:04.37	243.24	16.53	-53.8	-56.0	13.9	0.00e+00	0	27	0	1194328064	73	4751
2026-01-14 02:02:08.40	242.95	16.10	-53.7	-55.9	14.0	0.00e+00	0	27	0	1202716672	73	4662
2026-01-14 02:02:12.43	242.66	15.68	-53.6	-55.8	14.1	0.00e+00	0	27	0	1210056704	73	4610
2026-01-14 02:02:16.46	242.38	15.26	-53.5	-55.6	14.1	0.00e+00	0	27	0	1217396736	73	4540
2026-01-14 02:02:20.50	242.11	14.85	-53.9	-56.2	13.9	0.00e+00	0	27	0	1224736768	73	4831
2026-01-14 02:02:24.53	241.85	14.45	-54.2	-56.6	13.6	0.00e+00	0	27	0	1233125376	73	5043
2026-01-14 02:02:28.56	241.60	14.05	-54.2	-56.7	13.6	0.00e+00	0	27	0	1240465408	73	5108
2026-01-14 02:02:32.60	241.35	13.66	-54.2	-56.6	13.6	0.00e+00	0	27	0	1247805440	73	5064
2026-01-14 02:02:36.63	241.11	13.27	-54.1	-56.5	13.7	0.00e+00	0	27	0	1255145472	73	4997
2026-01-14 02:02:40.66	240.87	12.89	-54.3	-56.8	13.5	0.00e+00	0	27	0	1262485504	73	5190
2026-01-14 02:02:44.70	240.64	12.52	-54.6	-57.2	13.4	0.00e+00	0	27	0	1270874112	74	5102
2026-01-14 02:02:48.73	240.42	12.15	-54.5	-57.1	13.4	0.00e+00	0	27	0	1278214144	74	5093
2026-01-14 02:02:52.77	240.21	11.78	-54.3	-56.8	13.6	0.00e+00	0	27	0	1285554176	74	4911
2026-01-14 02:02:56.80	240.00	11.42	-54.1	-56.5	13.7	0.00e+00	0	27	0	1292894208	74	4715
2026-01-14 02:03:00.83	239.79	11.07	-54.1	-56.5	13.7	0.00e+00	0	27	0	1300234240	74	4706
2026-01-14 02:03:04.86	239.59	10.72	-54.2	-56.7	13.6	0.00e+00	0	27	0	1308622848	74	4820
2026-01-14 02:03:08.90	239.39	10.37	-54.4	-57.0	13.4	0.00e+00	0	27	0	1315962880	74	5013
2026-01-14 02:03:12.93	239.20	10.03	-54.7	-57.5	13.2	0.00e+00	0	27	0	1323302912	74	5286
2026-01-14 02:03:16.97	239.02	9.69	-54.7	-57.5	13.1	0.00e+00	0	27	0	1330642944	74	5303
2026-01-14 02:03:21.00	238.84	9.36	-54.6	-57.3	13.2	0.00e+00	0	27	0	1337982976	74	5217
2026-01-14 02:03:25.03	238.66	9.03	-54.7	-57.4	13.1	0.00e+00	0	27	0	1346371584	74	5268
2026-01-14 02:03:29.06	238.49	8.70	-54.5	-57.3	13.2	0.00e+00	0	27	0	1353711616	74	5161
2026-01-14 02:03:33.10	238.32	8.38	-54.6	-57.4	13.1	0.00e+00	0	27	0	1361051648	74	5269
2026-01-14 02:03:37.13	238.15	8.07	-54.6	-57.4	13.1	0.00e+00	0	27	0	1368391680	74	5275
2026-01-14 02:03:41.16	237.99	7.75	-54.8	-57.8	12.9	0.00e+00	0	27	0	1376780288	74	5466
2026-01-14 02:03:45.19	237.84	7.44	-54.8	-57.8	12.9	0.00e+00	0	27	0	1384120320	74	5511
2026-01-14 02:03:49.23	237.68	7.14	-54.9	-58.0	12.9	0.00e+00	0	27	0	1391460352	75	5290
2026-01-14 02:03:53.27	237.53	6.83	-55.0	-58.1	12.7	0.00e+00	0	27	0	1398800384	75	5354
2026-01-14 02:03:57.30	237.38	6.53	-55.0	-58.1	12.7	0.00e+00	0	27	0	1406140416	75	5352
2026-01-14 02:04:01.34	237.24	6.24	-54.9	-58.0	12.8	0.00e+00	0	27	0	1414529024	75	5287
2026-01-14 02:04:05.37	237.10	5.94	-54.9	-58.0	12.8	0.00e+00	0	27	0	1421869056	75	5293
2026-01-14 02:04:09.41	236.96	5.65	-55.1	-58.4	12.5	0.00e+00	0	27	0	1429209088	75	5534
2026-01-14 02:04:13.44	236.83	5.36	-55.2	-58.5	12.3	0.00e+00	0	27	0	1436549120	75	5655
2026-01-14 02:04:17.47	236.70	5.08	-55.2	-58.7	12.2	0.00e+00	0	27	0	1443889152	75	5756
2026-01-14 02:04:21.51	236.57	4.80	-59.7	-75.8	3.8	1.49e+00	0	27	104	1447034880	84	24417
2026-01-14 02:04:25.54	236.44	4.52	-60.1	-76.2	3.8	1.49e+00	0	27	104	1447034880	85	24153
2026-01-14 02:04:29.56	236.32	4.25	-60.3	-76.4	3.8	1.49e+00	0	27	104	1447034880	85	24814
2026-01-14 02:04:33.59	236.20	3.97	-60.3	-76.4	3.8	1.49e+00	0	27	104	1447034880	85	24859
2026-01-14 02:04:37.63	236.08	3.70	-60.4	-76.5	3.8	1.49e+00	0	28	104	1447034880	85	24982
2026-01-14 02:04:41.67	235.96	3.43	-60.4	-76.5	3.8	1.49e+00	0	28	104	1447034880	86	23656
2026-01-14 02:04:45.70	235.85	3.17	-60.3	-76.4	3.8	1.49e+00	0	27	104	1447034880	86	23443
2026-01-14 02:04:49.74	235.74	2.90	-60.3	-76.4	3.8	1.49e+00	0	28	104	1447034880	86	23492
2026-01-14 02:04:53.78	235.63	2.64	-60.3	-76.4	3.8	1.49e+00	0	27	104	1447034880	86	23369
2026-01-14 02:04:57.81	235.52	2.38	-60.3	-76.4	3.8	1.49e+00	0	28	104	1447034880	86	23315
2026-01-14 02:05:01.84	235.41	2.13	-60.3	-76.3	3.8	1.49e+00	0	27	104	1447034880	86	23277

#Closed at: 2026-01-14 02:05:04
#Recorded file [1447 MB]: D:/lorett/data/31004_260114_045058.dat