passes_logs/2026/01/14/R3.2S_Murmansk/R3.2S_Murmansk__20260114_133414_NOAA_20_JPSS-1_rec.log

#Pass ID: 20260114_133414_NOAA 20 (JPSS-1)
#Satellite: NOAA 20 (JPSS-1)
#Configuration: NOAA 20
#almurnet v.1.7.20251203
#Start time: 2026-01-14 13:34:17

#Version: 2.2.20231116
#Station: R3.2S_Murmansk
#Location: 33.079688 lon 68.888172 lat
#TLE: 1 43013U 17073A   26013.84982170  .00000053  00000+0  46215-4 0  9999
#TLE: 2 43013  98.7633 314.8013 0001544  40.9009 319.2282 14.19535753422575

#Time	Az	El	Level	Level2	SNR	BER	BlckErr	Temp	State	Recorded	gain1	gain2
2026-01-14 13:34:17.13	260.39	2.09	-58.2	-74.2	3.8	1.49e+00	0	25	0	0	82	23005
2026-01-14 13:34:20.17	260.73	2.20	-58.2	-74.2	3.8	1.49e+00	0	26	104	0	81	24249
2026-01-14 13:34:23.19	261.08	2.31	-58.2	-74.2	3.8	1.49e+00	0	26	104	0	81	24189
2026-01-14 13:34:26.21	261.42	2.42	-58.2	-74.2	3.8	1.49e+00	0	26	104	0	81	24248
2026-01-14 13:34:29.23	261.77	2.53	-58.2	-74.2	3.8	1.49e+00	0	26	104	0	81	24246
2026-01-14 13:34:32.26	262.12	2.64	-58.2	-74.2	3.8	1.49e+00	0	26	104	0	81	24218
2026-01-14 13:34:35.28	262.48	2.75	-58.2	-74.2	3.8	1.49e+00	0	26	104	0	81	24250
2026-01-14 13:34:38.31	262.83	2.86	-58.2	-74.2	3.8	1.49e+00	0	26	104	0	81	24255
2026-01-14 13:34:41.33	263.19	2.97	-58.2	-74.2	3.8	1.49e+00	0	26	104	0	81	24192
2026-01-14 13:34:44.36	263.55	3.08	-58.2	-74.2	3.8	1.49e+00	0	26	104	0	81	24263
2026-01-14 13:34:47.39	263.92	3.19	-58.2	-74.2	3.8	1.49e+00	0	26	104	0	81	24249
2026-01-14 13:34:50.41	264.28	3.29	-58.2	-74.1	3.8	1.49e+00	0	26	104	0	81	24108
2026-01-14 13:34:53.44	264.65	3.40	-58.2	-74.0	3.8	1.49e+00	0	26	104	0	81	23710
2026-01-14 13:34:56.46	265.02	3.51	-58.2	-74.2	3.8	1.49e+00	0	26	104	0	81	24269
2026-01-14 13:34:59.49	265.40	3.61	-58.2	-74.2	3.8	1.49e+00	0	26	104	0	81	24144
2026-01-14 13:35:02.52	265.78	3.72	-58.2	-74.2	3.8	1.49e+00	0	26	104	0	81	24273
2026-01-14 13:35:05.55	266.16	3.82	-58.2	-74.0	3.8	1.49e+00	0	27	104	0	81	23773
2026-01-14 13:35:08.57	266.54	3.92	-58.2	-74.1	3.8	1.49e+00	0	27	104	0	81	23943
2026-01-14 13:35:11.60	266.92	4.03	-58.2	-74.2	3.8	1.49e+00	0	26	104	0	81	24216
2026-01-14 13:35:14.62	267.31	4.13	-58.2	-74.1	3.8	1.49e+00	0	27	104	0	81	24097
2026-01-14 13:35:17.65	267.70	4.23	-58.2	-74.0	3.8	1.49e+00	0	27	104	0	81	23688
2026-01-14 13:35:20.68	268.09	4.33	-58.2	-74.2	3.9	1.49e+00	0	27	104	0	81	24215
2026-01-14 13:35:23.70	268.48	4.43	-58.2	-74.0	3.8	1.49e+00	0	27	104	0	81	23827
2026-01-14 13:35:26.73	268.88	4.53	-58.2	-74.1	3.8	1.49e+00	0	27	104	0	81	24108
2026-01-14 13:35:29.75	269.28	4.63	-58.2	-73.3	3.8	1.49e+00	0	27	104	0	81	21976
2026-01-14 13:35:32.78	269.68	4.73	-58.2	-74.0	3.8	1.49e+00	0	27	104	0	81	23700
2026-01-14 13:35:35.81	270.09	4.83	-58.0	-70.6	4.2	1.43e+00	0	27	0	0	81	15949
2026-01-14 13:35:38.83	270.50	4.92	-57.9	-68.7	4.9	8.28e-01	0	27	0	4194304	81	12932
2026-01-14 13:35:41.85	270.91	5.02	-56.5	-61.7	10.2	6.24e-03	0	27	0	10485760	79	6438
2026-01-14 13:35:44.88	271.32	5.11	-56.8	-62.2	10.0	7.62e-02	0	27	0	15728640	79	6867
2026-01-14 13:35:47.90	271.73	5.21	-54.9	-58.1	12.8	0.00e+00	0	27	0	20971520	76	5057
2026-01-14 13:35:50.93	272.15	5.30	-54.5	-57.5	13.0	0.00e+00	0	27	0	27262976	75	4988
2026-01-14 13:35:53.95	272.57	5.39	-54.3	-57.1	13.3	0.00e+00	0	27	0	32505856	75	4761
2026-01-14 13:35:56.98	273.00	5.48	-54.4	-57.2	13.2	0.00e+00	0	27	0	38797312	75	4846
2026-01-14 13:36:00.00	273.42	5.57	-54.3	-57.1	13.3	0.00e+00	0	27	0	44040192	75	4765
2026-01-14 13:36:03.03	273.85	5.66	-54.2	-57.0	13.3	0.00e+00	0	27	0	49283072	75	4725
2026-01-14 13:36:06.06	274.28	5.75	-54.4	-57.3	13.2	0.00e+00	0	27	0	55574528	75	4888
2026-01-14 13:36:09.07	274.71	5.84	-54.4	-57.3	13.2	0.00e+00	0	27	0	60817408	75	4872
2026-01-14 13:36:12.10	275.15	5.92	-54.4	-57.3	13.2	0.00e+00	0	27	0	67108864	75	4893
2026-01-14 13:36:15.12	275.58	6.01	-54.4	-57.3	13.2	0.00e+00	0	27	0	72351744	75	4912
2026-01-14 13:36:18.14	276.02	6.09	-54.3	-57.2	13.3	0.00e+00	0	27	0	77594624	75	4827
2026-01-14 13:36:21.16	276.47	6.17	-54.5	-57.4	13.1	0.00e+00	0	27	0	83886080	75	4944
2026-01-14 13:36:24.18	276.91	6.25	-54.5	-57.4	13.1	0.00e+00	0	27	0	89128960	75	4980
2026-01-14 13:36:27.21	277.36	6.33	-54.6	-57.5	13.1	0.00e+00	0	27	0	95420416	75	5017
2026-01-14 13:36:30.22	277.81	6.41	-54.6	-57.6	13.0	0.00e+00	0	27	0	100663296	75	5053
2026-01-14 13:36:33.25	278.26	6.49	-54.6	-57.5	13.1	0.00e+00	0	27	0	105906176	75	5010
2026-01-14 13:36:36.27	278.71	6.57	-54.8	-57.8	12.9	0.00e+00	0	27	0	112197632	75	5188
2026-01-14 13:36:39.29	279.17	6.64	-54.6	-57.6	13.0	0.00e+00	0	27	0	117440512	75	5090
2026-01-14 13:36:42.32	279.63	6.72	-54.6	-57.5	13.1	0.00e+00	0	27	0	123731968	75	5003
2026-01-14 13:36:45.35	280.09	6.79	-54.5	-57.3	13.2	0.00e+00	0	27	0	128974848	75	4882
2026-01-14 13:36:48.36	280.55	6.86	-54.5	-57.3	13.2	0.00e+00	0	27	0	134217728	75	4875
2026-01-14 13:36:51.39	281.02	6.93	-54.6	-57.5	13.1	0.00e+00	0	27	0	140509184	75	4994
2026-01-14 13:36:54.41	281.48	7.00	-54.6	-57.5	13.1	0.00e+00	0	27	0	145752064	75	4992
2026-01-14 13:36:57.44	281.95	7.06	-54.8	-57.8	13.0	0.00e+00	0	27	0	152043520	75	5174
2026-01-14 13:37:00.46	282.42	7.13	-54.7	-57.6	13.1	0.00e+00	0	27	0	157286400	75	5091
2026-01-14 13:37:03.49	282.90	7.19	-54.6	-57.5	13.1	0.00e+00	0	27	0	162529280	75	4990
2026-01-14 13:37:06.51	283.37	7.26	-54.6	-57.4	13.2	0.00e+00	0	27	0	168820736	75	4942
2026-01-14 13:37:09.53	283.85	7.32	-54.7	-57.6	13.1	0.00e+00	0	27	0	174063616	75	5053
2026-01-14 13:37:12.55	284.33	7.38	-54.7	-57.6	13.1	0.00e+00	0	27	0	180355072	75	5084
2026-01-14 13:37:15.57	284.81	7.43	-54.7	-57.6	13.1	0.00e+00	0	27	0	185597952	75	5086
2026-01-14 13:37:18.60	285.29	7.49	-54.7	-57.6	13.1	0.00e+00	0	27	0	190840832	75	5084
2026-01-14 13:37:21.62	285.77	7.54	-54.8	-57.8	13.0	0.00e+00	0	27	0	197132288	75	5160
2026-01-14 13:37:24.65	286.26	7.60	-54.8	-57.7	13.1	0.00e+00	0	27	0	202375168	75	5115
2026-01-14 13:37:27.67	286.75	7.65	-54.9	-57.9	12.9	0.00e+00	0	27	0	208666624	75	5263
2026-01-14 13:37:30.69	287.24	7.70	-54.8	-57.8	13.0	0.00e+00	0	27	0	213909504	75	5160
2026-01-14 13:37:33.71	287.73	7.75	-54.9	-57.8	13.0	0.00e+00	0	27	0	219152384	75	5189
2026-01-14 13:37:36.73	288.22	7.79	-54.8	-57.6	13.1	0.00e+00	0	27	0	225443840	75	5074
2026-01-14 13:37:39.76	288.72	7.84	-54.9	-57.8	13.0	0.00e+00	0	27	0	230686720	75	5213
2026-01-14 13:37:42.78	289.21	7.88	-54.9	-57.8	13.0	0.00e+00	0	27	0	236978176	75	5174
2026-01-14 13:37:45.80	289.71	7.92	-54.9	-57.7	13.1	0.00e+00	0	27	0	242221056	75	5149
2026-01-14 13:37:48.82	290.20	7.96	-54.9	-57.8	13.0	0.00e+00	0	27	0	247463936	75	5197
2026-01-14 13:37:51.85	290.70	8.00	-55.0	-58.1	12.9	0.00e+00	0	27	0	253755392	75	5342
2026-01-14 13:37:54.87	291.20	8.03	-54.9	-57.8	13.0	0.00e+00	0	27	0	258998272	75	5196
2026-01-14 13:37:57.89	291.70	8.07	-54.8	-57.6	13.2	0.00e+00	0	27	0	265289728	75	5048
2026-01-14 13:38:00.90	292.21	8.10	-55.0	-58.0	12.9	0.00e+00	0	27	0	270532608	75	5321
2026-01-14 13:38:03.93	292.71	8.13	-54.9	-57.8	13.0	0.00e+00	0	27	0	275775488	75	5217
2026-01-14 13:38:06.95	293.21	8.16	-55.0	-58.1	12.8	0.00e+00	0	27	0	282066944	75	5366
2026-01-14 13:38:09.97	293.72	8.18	-55.3	-58.4	12.6	0.00e+00	0	27	0	287309824	75	5592
2026-01-14 13:38:13.00	294.23	8.21	-55.4	-58.6	12.5	0.00e+00	0	28	0	293601280	75	5715
2026-01-14 13:38:16.02	294.73	8.23	-55.3	-58.5	12.6	0.00e+00	0	27	0	298844160	75	5613
2026-01-14 13:38:19.05	295.24	8.25	-55.0	-58.0	12.9	0.00e+00	0	27	0	305135616	75	5286
2026-01-14 13:38:22.07	295.75	8.27	-55.0	-58.1	12.8	0.00e+00	0	27	0	310378496	75	5375
2026-01-14 13:38:25.09	296.26	8.29	-55.2	-58.4	12.7	0.00e+00	0	27	0	315621376	75	5537
2026-01-14 13:38:28.12	296.77	8.30	-55.5	-58.9	12.4	0.00e+00	0	27	0	321912832	76	5534
2026-01-14 13:38:31.13	297.28	8.31	-55.5	-58.8	12.5	0.00e+00	0	28	0	327155712	76	5493
2026-01-14 13:38:34.16	297.79	8.33	-55.3	-58.4	12.7	0.00e+00	0	27	0	333447168	76	5272
2026-01-14 13:38:37.18	298.30	8.33	-55.1	-58.1	12.9	0.00e+00	0	27	0	338690048	76	5097
2026-01-14 13:38:40.20	298.81	8.34	-55.0	-57.9	13.0	0.00e+00	0	27	0	343932928	76	4978
2026-01-14 13:38:43.22	299.32	8.35	-54.9	-57.7	13.1	0.00e+00	0	27	0	350224384	76	4864
2026-01-14 13:38:46.25	299.83	8.35	-54.8	-57.7	13.2	0.00e+00	0	28	0	355467264	76	4850
2026-01-14 13:38:49.27	300.34	8.35	-55.0	-57.9	13.0	0.00e+00	0	27	0	361758720	76	4954
2026-01-14 13:38:52.30	300.85	8.35	-54.8	-57.8	13.1	0.00e+00	0	27	0	367001600	76	4871
2026-01-14 13:38:55.32	301.36	8.35	-54.5	-57.3	13.3	0.00e+00	0	27	0	372244480	75	4893
2026-01-14 13:38:58.34	301.87	8.34	-54.3	-56.9	13.5	0.00e+00	0	27	0	378535936	75	4702
2026-01-14 13:39:01.35	302.38	8.34	-54.1	-56.7	13.5	0.00e+00	0	28	0	383778816	74	4828
2026-01-14 13:39:04.37	302.89	8.33	-54.2	-56.8	13.5	0.00e+00	0	27	0	390070272	74	4881
2026-01-14 13:39:07.40	303.40	8.32	-54.3	-56.9	13.4	0.00e+00	0	27	0	395313152	74	4959
2026-01-14 13:39:10.43	303.92	8.31	-54.2	-56.8	13.5	0.00e+00	0	28	0	400556032	74	4904
2026-01-14 13:39:13.44	304.42	8.29	-54.0	-56.5	13.6	0.00e+00	0	27	0	406847488	74	4731
2026-01-14 13:39:16.46	304.93	8.28	-53.9	-56.3	13.7	0.00e+00	0	28	0	412090368	74	4643
2026-01-14 13:39:19.49	305.44	8.26	-54.0	-56.5	13.6	0.00e+00	0	27	0	418381824	74	4752
2026-01-14 13:39:22.51	305.95	8.24	-53.9	-56.4	13.7	0.00e+00	0	27	0	423624704	74	4703
2026-01-14 13:39:25.53	306.45	8.22	-51.0	-56.4	13.4	0.00e+00	0	27	0	428867584	68	6620
2026-01-14 13:39:28.55	306.96	8.19	-53.5	-56.1	13.6	0.00e+00	0	27	0	435159040	72	5092
2026-01-14 13:39:31.57	307.46	8.17	-53.7	-56.1	13.6	0.00e+00	0	27	0	440401920	72	5093
2026-01-14 13:39:34.60	307.97	8.14	-53.8	-56.3	13.4	0.00e+00	0	27	0	446693376	72	5204
2026-01-14 13:39:37.63	308.47	8.11	-53.9	-56.5	13.5	0.00e+00	0	27	0	451936256	73	4988
2026-01-14 13:39:40.65	308.98	8.08	-53.8	-56.3	13.6	0.00e+00	0	27	0	457179136	73	4897
2026-01-14 13:39:43.68	309.48	8.05	-53.7	-56.1	13.7	0.00e+00	0	27	0	463470592	73	4807
2026-01-14 13:39:46.70	309.98	8.01	-53.8	-56.3	13.6	0.00e+00	0	27	0	468713472	73	4908
2026-01-14 13:39:49.71	310.47	7.98	-53.9	-56.4	13.5	0.00e+00	0	28	0	475004928	73	4981
2026-01-14 13:39:52.74	310.97	7.94	-54.0	-56.5	13.5	0.00e+00	0	27	0	480247808	73	5023
2026-01-14 13:39:55.76	311.47	7.90	-54.0	-56.5	13.5	0.00e+00	0	27	0	485490688	73	5022
2026-01-14 13:39:58.79	311.96	7.86	-54.0	-56.5	13.5	0.00e+00	0	27	0	491782144	73	5039
2026-01-14 13:40:01.81	312.46	7.81	-54.0	-56.6	13.4	0.00e+00	0	27	0	497025024	73	5061
2026-01-14 13:40:04.84	312.95	7.77	-53.9	-56.5	13.5	0.00e+00	0	28	0	503316480	73	4998
2026-01-14 13:40:07.86	313.44	7.72	-53.8	-56.2	13.6	0.00e+00	0	27	0	508559360	73	4850
2026-01-14 13:40:10.89	313.93	7.67	-53.6	-56.0	13.7	0.00e+00	0	27	0	514850816	73	4757
2026-01-14 13:40:13.91	314.42	7.62	-53.9	-56.4	13.5	0.00e+00	0	28	0	520093696	73	4947
2026-01-14 13:40:16.92	314.90	7.57	-54.0	-56.6	13.4	0.00e+00	0	27	0	525336576	73	5062
2026-01-14 13:40:19.94	315.38	7.52	-54.0	-56.6	13.4	0.00e+00	0	28	0	531628032	73	5085
2026-01-14 13:40:22.96	315.87	7.46	-53.9	-56.5	13.5	0.00e+00	0	27	0	536870912	73	4987
2026-01-14 13:40:25.98	316.35	7.40	-53.7	-56.1	13.6	0.00e+00	0	27	0	543162368	73	4800
2026-01-14 13:40:29.01	316.83	7.34	-53.6	-56.0	13.7	0.00e+00	0	27	0	548405248	73	4717
2026-01-14 13:40:32.03	317.30	7.29	-53.5	-55.9	13.8	0.00e+00	0	27	0	553648128	73	4664
2026-01-14 13:40:35.05	317.78	7.22	-53.4	-55.8	13.8	0.00e+00	0	28	0	559939584	73	4600
2026-01-14 13:40:38.07	318.25	7.16	-53.4	-55.7	13.9	0.00e+00	0	27	0	565182464	73	4556
2026-01-14 13:40:41.08	318.72	7.10	-53.5	-55.9	13.7	0.00e+00	0	27	0	571473920	73	4691
2026-01-14 13:40:44.11	319.19	7.03	-53.7	-56.1	13.6	0.00e+00	0	28	0	576716800	73	4800
2026-01-14 13:40:47.13	319.65	6.96	-53.7	-56.2	13.6	0.00e+00	0	28	0	581959680	73	4815
2026-01-14 13:40:50.15	320.12	6.90	-53.8	-56.4	13.5	0.00e+00	0	28	0	588251136	73	4932
2026-01-14 13:40:53.18	320.58	6.82	-53.8	-56.3	13.5	0.00e+00	0	27	0	593494016	73	4915
2026-01-14 13:40:56.20	321.04	6.75	-53.7	-56.2	13.6	0.00e+00	0	28	0	599785472	73	4818
2026-01-14 13:40:59.22	321.50	6.68	-53.5	-55.9	13.8	0.00e+00	0	27	0	605028352	73	4658
2026-01-14 13:41:02.24	321.95	6.61	-53.5	-55.8	13.8	0.00e+00	0	28	0	610271232	73	4650
2026-01-14 13:41:05.26	322.41	6.53	-53.9	-56.4	13.4	0.00e+00	0	28	0	616562688	73	4982
2026-01-14 13:41:08.29	322.86	6.46	-54.2	-56.9	13.1	0.00e+00	0	27	0	621805568	73	5278
2026-01-14 13:41:11.31	323.31	6.38	-54.4	-57.3	12.9	0.00e+00	0	28	0	628097024	73	5514
2026-01-14 13:41:14.32	323.75	6.30	-54.4	-57.3	13.1	0.00e+00	0	27	0	633339904	74	5167
2026-01-14 13:41:17.34	324.19	6.22	-54.2	-57.1	13.2	0.00e+00	0	27	0	638582784	74	5049
2026-01-14 13:41:20.37	324.64	6.14	-54.1	-56.8	13.3	0.00e+00	0	27	0	644874240	74	4924
2026-01-14 13:41:23.39	325.08	6.05	-54.3	-57.1	13.1	0.00e+00	0	28	0	650117120	74	5066
2026-01-14 13:41:26.41	325.51	5.97	-54.1	-56.9	13.3	0.00e+00	0	28	0	656408576	74	4933
2026-01-14 13:41:29.44	325.95	5.89	-54.3	-57.1	13.1	0.00e+00	0	27	0	661651456	74	5099
2026-01-14 13:41:32.46	326.38	5.80	-54.8	-58.0	12.6	0.00e+00	0	27	0	666894336	74	5605
2026-01-14 13:41:35.48	326.81	5.71	-55.2	-58.8	12.1	1.50e-06	0	28	0	673185792	75	5834
2026-01-14 13:41:38.51	327.24	5.63	-55.5	-59.2	11.9	2.20e-06	0	28	0	678428672	76	5759
2026-01-14 13:41:41.54	327.66	5.54	-55.5	-59.2	11.9	6.10e-06	0	28	0	684720128	76	5786
2026-01-14 13:41:44.55	328.08	5.45	-55.1	-58.6	12.3	3.00e-06	0	28	0	689963008	76	5375
2026-01-14 13:41:47.58	328.51	5.36	-55.2	-58.6	12.3	7.00e-07	0	28	0	695205888	76	5394
2026-01-14 13:41:50.60	328.92	5.26	-54.9	-58.1	12.6	0.00e+00	0	28	0	701497344	76	5094
2026-01-14 13:41:53.63	329.34	5.17	-54.8	-58.0	12.7	0.00e+00	0	27	0	706740224	76	5039
2026-01-14 13:41:56.66	329.75	5.08	-55.3	-58.9	12.1	7.00e-07	0	28	0	713031680	76	5530
2026-01-14 13:41:59.68	330.16	4.98	-57.6	-65.3	7.5	3.20e-05	0	28	0	718274560	80	9259
2026-01-14 13:42:02.70	330.57	4.89	-59.6	-75.4	3.8	1.49e+00	0	28	104	719323136	84	23477
2026-01-14 13:42:05.73	330.97	4.79	-60.1	-76.1	3.8	1.49e+00	0	28	104	719323136	85	24127
2026-01-14 13:42:08.75	331.37	4.70	-60.3	-76.4	3.8	1.49e+00	0	28	104	719323136	85	24745
2026-01-14 13:42:11.78	331.77	4.60	-60.5	-76.6	3.8	1.49e+00	0	28	104	719323136	86	23885
2026-01-14 13:42:14.80	332.17	4.50	-60.6	-76.6	3.8	1.49e+00	0	27	104	719323136	86	24118
2026-01-14 13:42:17.83	332.57	4.40	-60.6	-76.7	3.8	1.49e+00	0	28	104	719323136	86	24168
2026-01-14 13:42:20.86	332.96	4.30	-60.6	-76.7	3.8	1.49e+00	0	28	104	719323136	86	24214
2026-01-14 13:42:23.88	333.35	4.20	-60.5	-76.6	3.8	1.49e+00	0	28	104	719323136	86	23949
2026-01-14 13:42:26.91	333.73	4.10	-60.5	-76.5	3.8	1.49e+00	0	28	104	719323136	86	23829
2026-01-14 13:42:29.94	334.12	4.00	-60.4	-76.5	3.8	1.49e+00	0	28	104	719323136	86	23716
2026-01-14 13:42:32.96	334.50	3.89	-60.4	-76.4	3.8	1.49e+00	0	28	104	719323136	86	23580
2026-01-14 13:42:35.99	334.88	3.79	-60.4	-76.5	3.8	1.49e+00	0	28	104	719323136	86	23594
2026-01-14 13:42:39.01	335.26	3.69	-60.3	-76.4	3.8	1.49e+00	0	28	104	719323136	86	23470
2026-01-14 13:42:42.04	335.63	3.58	-60.3	-76.4	3.8	1.49e+00	0	28	104	719323136	86	23495
2026-01-14 13:42:45.06	336.00	3.48	-60.3	-76.4	3.8	1.49e+00	0	28	104	719323136	86	23433
2026-01-14 13:42:48.09	336.37	3.37	-60.3	-76.4	3.8	1.49e+00	0	28	104	719323136	86	23401
2026-01-14 13:42:51.12	336.74	3.27	-60.3	-76.4	3.8	1.49e+00	0	28	104	719323136	86	23387
2026-01-14 13:42:54.14	337.10	3.16	-60.3	-76.4	3.8	1.49e+00	0	28	104	719323136	86	23438
2026-01-14 13:42:57.17	337.46	3.05	-60.3	-76.4	3.8	1.49e+00	0	28	104	719323136	86	23355
2026-01-14 13:43:00.19	337.82	2.95	-60.3	-76.4	3.8	1.49e+00	0	28	104	719323136	86	23343
2026-01-14 13:43:03.21	338.18	2.84	-60.3	-76.4	3.8	1.49e+00	0	28	104	719323136	86	23324
2026-01-14 13:43:06.23	338.53	2.73	-60.3	-76.3	3.8	1.49e+00	0	28	104	719323136	86	23250
2026-01-14 13:43:09.26	338.88	2.62	-60.3	-76.4	3.8	1.49e+00	0	28	104	719323136	86	23354
2026-01-14 13:43:12.29	339.23	2.51	-60.2	-76.3	3.8	1.49e+00	0	28	104	719323136	86	23205
2026-01-14 13:43:15.31	339.58	2.40	-60.2	-76.3	3.8	1.49e+00	0	28	104	719323136	86	23177
2026-01-14 13:43:18.33	339.92	2.29	-60.2	-76.3	3.8	1.49e+00	0	28	104	719323136	86	23178
2026-01-14 13:43:21.36	340.26	2.18	-60.2	-76.3	3.8	1.49e+00	0	28	104	719323136	86	23199
2026-01-14 13:43:24.39	340.60	2.07	-60.2	-76.3	3.8	1.49e+00	0	28	104	719323136	86	23162
2026-01-14 13:43:27.42	340.94	1.96	-60.2	-76.3	3.8	1.49e+00	0	28	104	719323136	86	23205

#Closed at: 2026-01-14 13:43:27
#Recorded file [719 MB]: D:/lorett/data/31004_260114_163416.dat