passes_logs/2026/01/14/R3.2S_Murmansk/R3.2S_Murmansk__20260114_082757_NOAA_20_JPSS-1_rec.log

#Pass ID: 20260114_082757_NOAA 20 (JPSS-1)
#Satellite: NOAA 20 (JPSS-1)
#Configuration: NOAA 20
#almurnet v.1.7.20251203
#Start time: 2026-01-14 08:27:57

#Version: 2.2.20231116
#Station: R3.2S_Murmansk
#Location: 33.079688 lon 68.888172 lat
#TLE: 1 43013U 17073A   26013.84982170  .00000053  00000+0  46215-4 0  9999
#TLE: 2 43013  98.7633 314.8013 0001544  40.9009 319.2282 14.19535753422575

#Time	Az	El	Level	Level2	SNR	BER	BlckErr	Temp	State	Recorded	gain1	gain2
2026-01-14 08:27:57.65	126.85	2.00	-59.8	-75.9	3.8	1.49e+00	0	25	0	0	84	24872
2026-01-14 08:28:01.64	126.76	2.25	-59.8	-75.9	3.8	1.49e+00	0	25	104	0	84	24895
2026-01-14 08:28:05.61	126.66	2.51	-59.8	-75.9	3.8	1.49e+00	0	25	104	0	84	24786
2026-01-14 08:28:09.58	126.56	2.76	-59.8	-75.9	3.8	1.49e+00	0	25	104	0	84	24883
2026-01-14 08:28:13.57	126.46	3.02	-59.8	-75.9	3.8	1.49e+00	0	26	104	0	84	24806
2026-01-14 08:28:17.55	126.36	3.29	-59.8	-75.9	3.8	1.49e+00	0	26	104	0	84	24839
2026-01-14 08:28:21.53	126.26	3.55	-59.8	-75.9	3.8	1.49e+00	0	26	104	0	84	24840
2026-01-14 08:28:25.50	126.15	3.82	-59.8	-75.9	3.8	1.49e+00	0	26	104	0	84	24823
2026-01-14 08:28:29.47	126.04	4.08	-59.8	-75.9	3.8	1.49e+00	0	26	104	0	84	24787
2026-01-14 08:28:33.45	125.93	4.36	-59.8	-75.9	3.8	1.49e+00	0	26	104	0	84	24853
2026-01-14 08:28:37.43	125.82	4.63	-59.8	-75.9	3.8	1.49e+00	0	26	104	0	84	24813
2026-01-14 08:28:41.39	125.71	4.91	-59.8	-75.9	3.8	1.49e+00	0	26	104	0	84	24835
2026-01-14 08:28:45.37	125.59	5.19	-59.8	-75.9	3.8	1.49e+00	0	26	104	0	84	24759
2026-01-14 08:28:49.35	125.47	5.47	-59.8	-75.9	3.8	1.49e+00	0	26	104	0	84	24747
2026-01-14 08:28:53.33	125.35	5.76	-59.8	-75.9	3.8	1.49e+00	0	26	104	0	84	24854
2026-01-14 08:28:57.32	125.22	6.05	-59.8	-75.9	3.8	1.49e+00	0	26	104	0	84	24805
2026-01-14 08:29:01.28	125.09	6.34	-59.8	-75.9	3.8	1.49e+00	0	26	104	0	84	24765
2026-01-14 08:29:05.25	124.96	6.63	-59.8	-75.9	3.8	1.49e+00	0	26	104	0	84	24837
2026-01-14 08:29:09.21	124.83	6.93	-59.8	-75.9	3.8	1.49e+00	0	26	104	0	84	24814
2026-01-14 08:29:13.20	124.69	7.23	-59.8	-75.9	3.8	1.49e+00	0	26	104	0	84	24790
2026-01-14 08:29:17.19	124.55	7.54	-59.8	-75.9	3.8	1.49e+00	0	26	104	0	84	24713
2026-01-14 08:29:21.15	124.41	7.84	-59.8	-75.9	3.8	1.49e+00	0	27	104	0	84	24733
2026-01-14 08:29:25.12	124.26	8.15	-59.8	-75.8	3.8	1.49e+00	0	27	104	0	84	24652
2026-01-14 08:29:29.08	124.11	8.47	-59.8	-75.9	3.8	1.49e+00	0	27	104	0	84	24701
2026-01-14 08:29:33.07	123.96	8.79	-59.8	-75.9	3.8	1.49e+00	0	27	104	0	84	24738
2026-01-14 08:29:37.05	123.80	9.11	-59.8	-75.9	3.8	1.49e+00	0	27	104	0	84	24733
2026-01-14 08:29:41.04	123.64	9.44	-59.8	-75.9	3.8	1.49e+00	0	27	104	0	84	24761
2026-01-14 08:29:45.03	123.47	9.77	-59.8	-75.8	3.8	1.49e+00	0	27	104	0	84	24683
2026-01-14 08:29:49.01	123.30	10.11	-59.8	-75.9	3.8	1.49e+00	0	27	104	0	84	24723
2026-01-14 08:29:52.99	123.13	10.45	-59.8	-75.8	3.8	1.49e+00	0	27	104	0	84	24640
2026-01-14 08:29:56.96	122.95	10.79	-59.8	-75.9	3.8	1.49e+00	0	27	104	0	84	24761
2026-01-14 08:30:00.94	122.76	11.14	-59.8	-75.8	3.8	1.49e+00	0	27	104	0	84	24692
2026-01-14 08:30:04.91	122.58	11.50	-59.8	-75.9	3.8	1.49e+00	0	27	104	0	84	24699
2026-01-14 08:30:08.89	122.38	11.86	-59.8	-75.8	3.8	1.49e+00	0	27	104	0	84	24657
2026-01-14 08:30:12.89	122.19	12.22	-59.8	-75.9	3.8	1.49e+00	0	27	104	0	84	24749
2026-01-14 08:30:16.85	121.98	12.59	-59.8	-75.8	3.8	1.49e+00	0	27	104	0	84	24654
2026-01-14 08:30:20.83	121.77	12.96	-59.8	-75.8	3.8	1.49e+00	0	27	104	0	84	24644
2026-01-14 08:30:24.81	121.56	13.34	-59.8	-75.8	3.8	1.49e+00	0	27	104	0	84	24587
2026-01-14 08:30:28.78	121.34	13.73	-59.8	-75.8	3.8	1.49e+00	0	27	104	0	84	24628
2026-01-14 08:30:32.75	121.12	14.12	-59.8	-75.8	3.8	1.49e+00	0	27	104	0	84	24604
2026-01-14 08:30:36.72	120.88	14.51	-59.8	-75.8	3.8	1.49e+00	0	27	104	0	84	24659
2026-01-14 08:30:40.70	120.64	14.92	-59.8	-75.8	3.8	1.49e+00	0	27	104	0	84	24680
2026-01-14 08:30:44.68	120.40	15.33	-59.8	-75.9	3.8	1.49e+00	0	27	104	0	84	24727
2026-01-14 08:30:48.65	120.14	15.74	-59.8	-75.8	3.8	1.49e+00	0	27	104	0	84	24640
2026-01-14 08:30:52.63	119.88	16.16	-59.7	-75.8	3.8	1.49e+00	0	27	104	0	84	24596
2026-01-14 08:30:56.61	119.61	16.59	-59.7	-75.8	3.8	1.49e+00	0	27	104	0	84	24598
2026-01-14 08:31:00.59	119.34	17.03	-59.8	-75.8	3.8	1.49e+00	0	27	104	0	84	24665
2026-01-14 08:31:04.58	119.05	17.47	-59.8	-75.8	3.8	1.49e+00	0	27	104	0	84	24595
2026-01-14 08:31:08.54	118.76	17.92	-59.8	-75.8	3.8	1.49e+00	0	27	104	0	84	24644
2026-01-14 08:31:12.52	118.45	18.38	-59.7	-75.8	3.8	1.49e+00	0	27	104	0	84	24577
2026-01-14 08:31:16.51	118.14	18.84	-59.8	-75.8	3.8	1.49e+00	0	27	104	0	84	24615
2026-01-14 08:31:20.48	117.81	19.32	-59.8	-75.8	3.8	1.49e+00	0	27	104	0	84	24608
2026-01-14 08:31:24.44	117.48	19.80	-59.7	-75.8	3.8	1.49e+00	0	27	104	0	84	24603
2026-01-14 08:31:28.41	117.14	20.28	-59.8	-75.8	3.8	1.49e+00	0	27	104	0	84	24643
2026-01-14 08:31:32.38	116.78	20.78	-59.7	-75.8	3.8	1.49e+00	0	27	104	0	84	24583
2026-01-14 08:31:36.36	116.41	21.29	-59.7	-75.8	3.8	1.49e+00	0	27	104	0	84	24573
2026-01-14 08:31:40.33	116.03	21.80	-59.7	-75.8	3.8	1.49e+00	0	27	104	0	84	24578
2026-01-14 08:31:44.31	115.63	22.33	-59.8	-75.8	3.8	1.49e+00	0	27	104	0	84	24583
2026-01-14 08:31:48.27	115.22	22.86	-59.8	-75.8	3.8	1.49e+00	0	27	104	0	84	24535
2026-01-14 08:31:52.26	114.80	23.41	-59.7	-75.8	3.8	1.49e+00	0	27	104	0	84	24525
2026-01-14 08:31:56.24	114.36	23.96	-59.7	-75.8	3.8	1.49e+00	0	27	104	0	84	24604
2026-01-14 08:32:00.22	113.90	24.53	-59.7	-75.8	3.8	1.49e+00	0	27	104	0	84	24578
2026-01-14 08:32:04.20	113.43	25.10	-59.7	-75.8	3.8	1.49e+00	0	27	104	0	84	24550
2026-01-14 08:32:08.16	112.94	25.68	-59.7	-75.8	3.8	1.49e+00	0	27	104	0	84	24569
2026-01-14 08:32:12.12	112.43	26.28	-59.7	-75.8	3.8	1.49e+00	0	27	104	0	84	24530
2026-01-14 08:32:16.09	111.90	26.88	-59.7	-75.8	3.8	1.49e+00	0	27	104	0	84	24541
2026-01-14 08:32:20.08	111.34	27.50	-59.7	-75.8	3.8	1.49e+00	0	27	104	0	84	24578
2026-01-14 08:32:24.05	110.77	28.13	-59.7	-75.8	3.8	1.49e+00	0	27	104	0	84	24551
2026-01-14 08:32:28.04	110.17	28.77	-59.7	-75.8	3.8	1.49e+00	0	27	104	0	84	24527
2026-01-14 08:32:32.02	109.55	29.42	-59.7	-75.8	3.8	1.49e+00	0	27	104	0	84	24539
2026-01-14 08:32:35.99	108.90	30.08	-59.7	-75.8	3.8	1.49e+00	0	27	104	0	84	24539
2026-01-14 08:32:39.98	108.22	30.75	-59.7	-75.8	3.8	1.49e+00	0	27	104	0	84	24561
2026-01-14 08:32:43.94	107.52	31.43	-59.7	-75.8	3.8	1.49e+00	0	27	104	0	84	24420
2026-01-14 08:32:47.92	106.78	32.13	-59.7	-75.8	3.8	1.49e+00	0	27	104	0	84	24471
2026-01-14 08:32:51.92	106.00	32.84	-59.7	-75.8	3.8	1.49e+00	0	27	104	0	84	24533
2026-01-14 08:32:55.89	105.20	33.55	-59.7	-75.8	3.8	1.49e+00	0	27	104	0	84	24452
2026-01-14 08:32:59.85	104.36	34.27	-59.7	-75.8	3.8	1.49e+00	0	27	104	0	84	24511
2026-01-14 08:33:03.81	103.48	35.00	-59.7	-75.8	3.8	1.49e+00	0	27	104	0	84	24534
2026-01-14 08:33:07.80	102.55	35.75	-59.7	-75.8	3.8	1.49e+00	0	27	104	0	84	24548
2026-01-14 08:33:11.77	101.59	36.50	-59.7	-75.8	3.8	1.49e+00	0	27	104	0	84	24538
2026-01-14 08:33:15.74	100.58	37.26	-59.7	-75.8	3.8	1.49e+00	0	27	104	0	84	24579
2026-01-14 08:33:19.72	99.52	38.03	-59.7	-75.8	3.8	1.49e+00	0	27	104	0	84	24490
2026-01-14 08:33:23.69	98.40	38.80	-59.7	-75.8	3.8	1.49e+00	0	27	104	0	84	24436
2026-01-14 08:33:27.67	97.23	39.58	-59.7	-75.8	3.8	1.49e+00	0	27	104	0	84	24425
2026-01-14 08:33:31.65	96.01	40.36	-59.7	-75.8	3.8	1.49e+00	0	27	104	0	84	24462
2026-01-14 08:33:35.63	94.72	41.14	-59.7	-75.8	3.8	1.49e+00	0	27	104	0	84	24413
2026-01-14 08:33:39.60	93.37	41.92	-59.7	-75.8	3.8	1.49e+00	0	27	104	0	84	24491
2026-01-14 08:33:43.58	91.95	42.70	-59.7	-75.8	3.8	1.49e+00	0	27	104	0	84	24445
2026-01-14 08:33:47.57	90.45	43.47	-59.7	-75.7	3.8	1.49e+00	0	27	104	0	84	24361
2026-01-14 08:33:51.55	88.89	44.24	-59.7	-75.8	3.8	1.49e+00	0	27	104	0	84	24418
2026-01-14 08:33:55.53	87.25	44.99	-59.7	-75.8	3.8	1.49e+00	0	27	104	0	84	24432
2026-01-14 08:33:59.50	85.53	45.73	-59.7	-75.8	3.8	1.49e+00	0	27	104	0	84	24462
2026-01-14 08:34:03.47	83.73	46.46	-59.7	-75.7	3.8	1.49e+00	0	27	104	0	84	24307
2026-01-14 08:34:07.47	81.83	47.17	-59.7	-75.7	3.8	1.49e+00	0	27	104	0	84	24339
2026-01-14 08:34:11.44	79.87	47.85	-59.7	-75.7	3.8	1.49e+00	0	27	104	0	84	24398
2026-01-14 08:34:15.42	77.80	48.50	-59.7	-75.7	3.8	1.49e+00	0	27	104	0	84	24393
2026-01-14 08:34:19.39	75.66	49.12	-59.7	-75.8	3.8	1.49e+00	0	27	104	0	84	24412
2026-01-14 08:34:23.35	73.44	49.70	-59.7	-75.8	3.8	1.49e+00	0	27	104	0	84	24417
2026-01-14 08:34:27.32	71.13	50.24	-59.7	-75.7	3.8	1.49e+00	0	27	104	0	84	24360
2026-01-14 08:34:31.31	68.72	50.73	-59.7	-75.8	3.8	1.49e+00	0	27	104	0	84	24430
2026-01-14 08:34:35.30	66.24	51.18	-59.7	-75.7	3.8	1.49e+00	0	27	104	0	84	24367
2026-01-14 08:34:39.27	63.70	51.57	-59.7	-75.7	3.8	1.49e+00	0	27	104	0	84	24356
2026-01-14 08:34:43.25	61.09	51.90	-59.7	-75.7	3.8	1.49e+00	0	27	104	0	84	24338
2026-01-14 08:34:47.23	58.43	52.17	-59.7	-75.7	3.8	1.49e+00	0	27	104	0	84	24385
2026-01-14 08:34:51.20	55.73	52.38	-59.7	-75.7	3.8	1.49e+00	0	27	104	0	84	24401
2026-01-14 08:34:55.16	53.01	52.52	-59.7	-75.7	3.8	1.49e+00	0	27	104	0	84	24367
2026-01-14 08:34:59.14	50.25	52.60	-59.7	-75.7	3.8	1.49e+00	0	27	104	0	84	24368
2026-01-14 08:35:03.11	47.50	52.60	-59.7	-75.7	3.8	1.49e+00	0	27	104	0	84	24321
2026-01-14 08:35:07.08	44.74	52.54	-59.7	-75.8	3.8	1.49e+00	0	27	104	0	84	24439
2026-01-14 08:35:11.05	42.01	52.41	-59.7	-75.7	3.8	1.49e+00	0	27	104	0	84	24345
2026-01-14 08:35:15.03	39.30	52.21	-59.7	-75.7	3.8	1.49e+00	0	28	104	0	84	24347
2026-01-14 08:35:19.02	36.63	51.95	-59.7	-75.7	3.8	1.49e+00	0	27	104	0	84	24364
2026-01-14 08:35:23.00	34.01	51.62	-59.7	-75.7	3.8	1.49e+00	0	27	104	0	84	24328
2026-01-14 08:35:26.98	31.46	51.24	-59.7	-75.7	3.8	1.49e+00	0	27	104	0	84	24343
2026-01-14 08:35:30.94	28.99	50.81	-59.7	-75.7	3.8	1.49e+00	0	27	104	0	84	24329
2026-01-14 08:35:34.91	26.59	50.32	-59.7	-75.7	3.8	1.49e+00	0	27	104	0	84	24299
2026-01-14 08:35:38.89	24.26	49.79	-59.7	-75.7	3.9	1.49e+00	0	27	104	0	84	24372
2026-01-14 08:35:42.88	22.01	49.21	-59.7	-75.7	3.8	1.49e+00	0	27	104	0	84	24360
2026-01-14 08:35:46.86	19.85	48.60	-59.7	-75.7	3.8	1.49e+00	0	27	104	0	84	24300
2026-01-14 08:35:50.83	17.78	47.95	-59.6	-75.7	3.8	1.49e+00	0	27	104	0	84	24259
2026-01-14 08:35:54.82	15.80	47.28	-59.6	-75.7	3.8	1.49e+00	0	28	104	0	84	24295
2026-01-14 08:35:58.79	13.90	46.58	-59.7	-75.7	3.8	1.49e+00	0	27	104	0	84	24302
2026-01-14 08:36:02.77	12.09	45.86	-59.7	-75.7	3.8	1.49e+00	0	27	104	0	84	24271
2026-01-14 08:36:06.76	10.35	45.12	-59.6	-75.7	3.8	1.49e+00	0	28	104	0	84	24300
2026-01-14 08:36:10.75	8.70	44.36	-59.6	-75.7	3.8	1.49e+00	0	27	104	0	84	24340
2026-01-14 08:36:14.71	7.14	43.60	-59.6	-75.7	3.8	1.49e+00	0	27	104	0	84	24283
2026-01-14 08:36:18.68	5.64	42.83	-59.7	-75.7	3.8	1.49e+00	0	27	104	0	84	24366
2026-01-14 08:36:22.66	4.21	42.06	-59.6	-75.7	3.8	1.49e+00	0	28	104	0	84	24325
2026-01-14 08:36:26.64	2.85	41.28	-59.6	-75.7	3.8	1.49e+00	0	27	104	0	84	24317
2026-01-14 08:36:30.62	1.56	40.50	-59.6	-75.7	3.8	1.49e+00	0	27	104	0	84	24211
2026-01-14 08:36:34.61	0.32	39.72	-59.6	-75.7	3.8	1.49e+00	0	27	104	0	84	24235
2026-01-14 08:36:38.59	359.14	38.94	-59.6	-75.7	3.8	1.49e+00	0	27	104	0	84	24290
2026-01-14 08:36:42.55	358.03	38.18	-59.6	-75.7	3.8	1.49e+00	0	27	104	0	84	24242
2026-01-14 08:36:46.54	356.96	37.41	-59.6	-75.7	3.8	1.49e+00	0	27	104	0	84	24219
2026-01-14 08:36:50.53	355.94	36.65	-59.6	-75.7	3.8	1.49e+00	0	27	104	0	84	24289
2026-01-14 08:36:54.49	354.97	35.90	-59.6	-75.7	3.8	1.49e+00	0	28	104	0	84	24246
2026-01-14 08:36:58.49	354.04	35.15	-59.6	-75.7	3.8	1.49e+00	0	27	104	0	84	24244
2026-01-14 08:37:02.47	353.15	34.42	-59.6	-75.7	3.8	1.49e+00	0	27	104	0	84	24225
2026-01-14 08:37:06.45	352.31	33.69	-59.6	-75.7	3.8	1.49e+00	0	27	104	0	84	24272
2026-01-14 08:37:10.43	351.50	32.98	-59.6	-75.7	3.8	1.49e+00	0	27	104	0	84	24259
2026-01-14 08:37:14.41	350.72	32.27	-59.6	-75.7	3.8	1.49e+00	0	28	104	0	84	24226
2026-01-14 08:37:18.38	349.98	31.58	-59.6	-75.7	3.8	1.49e+00	0	27	104	0	84	24272
2026-01-14 08:37:22.35	349.28	30.90	-59.6	-75.7	3.8	1.49e+00	0	28	104	0	84	24236
2026-01-14 08:37:26.33	348.60	30.23	-59.6	-75.7	3.9	1.49e+00	0	27	104	0	84	24200
2026-01-14 08:37:30.32	347.94	29.56	-59.6	-75.7	3.8	1.49e+00	0	28	104	0	84	24193
2026-01-14 08:37:34.29	347.32	28.92	-59.6	-75.7	3.8	1.49e+00	0	27	104	0	84	24227
2026-01-14 08:37:38.27	346.72	28.28	-59.6	-75.7	3.8	1.49e+00	0	27	104	0	84	24185
2026-01-14 08:37:42.24	346.14	27.65	-59.6	-75.7	3.8	1.49e+00	0	27	104	0	84	24223
2026-01-14 08:37:46.23	345.59	27.03	-59.6	-75.7	3.8	1.49e+00	0	27	104	0	84	24279
2026-01-14 08:37:50.21	345.06	26.43	-59.6	-75.7	3.8	1.49e+00	0	27	104	0	84	24232
2026-01-14 08:37:54.20	344.54	25.83	-59.6	-75.7	3.8	1.49e+00	0	28	104	0	84	24197
2026-01-14 08:37:58.18	344.05	25.25	-59.6	-75.7	3.8	1.49e+00	0	27	104	0	84	24210
2026-01-14 08:38:02.15	343.58	24.67	-59.6	-75.7	3.8	1.49e+00	0	27	104	0	84	24181
2026-01-14 08:38:06.12	343.12	24.11	-59.6	-75.7	3.8	1.49e+00	0	27	104	0	84	24179
2026-01-14 08:38:10.11	342.68	23.55	-59.6	-75.7	3.8	1.49e+00	0	27	104	0	84	24163
2026-01-14 08:38:14.10	342.25	23.01	-59.6	-75.7	3.8	1.49e+00	0	28	104	0	84	24166
2026-01-14 08:38:18.08	341.84	22.47	-59.6	-75.7	3.8	1.49e+00	0	27	104	0	84	24246
2026-01-14 08:38:22.07	341.44	21.95	-59.6	-75.7	3.8	1.49e+00	0	27	104	0	84	24169
2026-01-14 08:38:26.05	341.06	21.43	-59.6	-75.7	3.8	1.49e+00	0	27	104	0	84	24187
2026-01-14 08:38:30.03	340.69	20.92	-59.6	-75.7	3.8	1.49e+00	0	27	104	0	84	24193
2026-01-14 08:38:34.00	340.34	20.43	-59.6	-75.7	3.8	1.49e+00	0	28	104	0	84	24192
2026-01-14 08:38:37.99	339.99	19.94	-59.6	-75.7	3.8	1.49e+00	0	27	104	0	84	24160
2026-01-14 08:38:41.96	339.66	19.45	-59.6	-75.7	3.8	1.49e+00	0	27	104	0	84	24138
2026-01-14 08:38:45.94	339.33	18.98	-59.6	-75.6	3.8	1.49e+00	0	27	104	0	84	24097
2026-01-14 08:38:49.90	339.02	18.52	-59.6	-75.6	3.8	1.49e+00	0	27	104	0	84	24127
2026-01-14 08:38:53.89	338.72	18.06	-59.6	-75.6	3.8	1.49e+00	0	27	104	0	84	24070
2026-01-14 08:38:57.86	338.42	17.61	-59.6	-75.6	3.8	1.49e+00	0	27	104	0	84	24113
2026-01-14 08:39:01.82	338.14	17.17	-59.6	-75.6	3.8	1.49e+00	0	28	104	0	84	24071
2026-01-14 08:39:05.80	337.86	16.73	-59.6	-75.7	3.8	1.49e+00	0	27	104	0	84	24138
2026-01-14 08:39:09.79	337.60	16.30	-59.6	-75.6	3.8	1.49e+00	0	27	104	0	84	24081
2026-01-14 08:39:13.79	337.33	15.88	-59.6	-75.6	3.8	1.49e+00	0	27	104	0	84	24055
2026-01-14 08:39:17.78	337.08	15.46	-59.6	-75.6	3.8	1.49e+00	0	27	104	0	84	24097
2026-01-14 08:39:21.76	336.84	15.05	-59.6	-75.6	3.8	1.49e+00	0	27	104	0	84	24063
2026-01-14 08:39:25.73	336.60	14.65	-59.6	-75.6	3.8	1.49e+00	0	27	104	0	84	24078
2026-01-14 08:39:29.70	336.37	14.26	-59.6	-75.6	3.8	1.49e+00	0	27	104	0	84	24117
2026-01-14 08:39:33.68	336.14	13.87	-59.6	-75.6	3.8	1.49e+00	0	27	104	0	84	24021
2026-01-14 08:39:37.65	335.92	13.48	-59.6	-75.6	3.8	1.49e+00	0	27	104	0	84	24119
2026-01-14 08:39:41.62	335.71	13.10	-59.6	-75.6	3.8	1.49e+00	0	27	104	0	84	24025
2026-01-14 08:39:45.60	335.50	12.73	-59.6	-75.6	3.8	1.49e+00	0	27	104	0	84	24074
2026-01-14 08:39:49.57	335.30	12.36	-59.6	-75.6	3.8	1.49e+00	0	27	104	0	84	24091
2026-01-14 08:39:53.55	335.11	12.00	-59.6	-75.6	3.8	1.49e+00	0	27	104	0	84	23983
2026-01-14 08:39:57.51	334.92	11.64	-59.6	-75.6	3.8	1.49e+00	0	27	104	0	84	24102
2026-01-14 08:40:01.49	334.73	11.29	-59.5	-75.6	3.8	1.49e+00	0	28	104	0	84	24001
2026-01-14 08:40:05.47	334.55	10.94	-59.6	-75.6	3.8	1.49e+00	0	27	104	0	84	24072
2026-01-14 08:40:09.45	334.37	10.59	-59.6	-75.6	3.8	1.49e+00	0	27	104	0	84	24046
2026-01-14 08:40:13.46	334.20	10.25	-59.5	-75.6	3.8	1.49e+00	0	27	104	0	84	23958
2026-01-14 08:40:17.43	334.03	9.91	-59.5	-75.6	3.8	1.49e+00	0	27	104	0	84	24012
2026-01-14 08:40:21.40	333.87	9.58	-59.5	-75.6	3.8	1.49e+00	0	27	104	0	84	23998
2026-01-14 08:40:25.36	333.71	9.26	-59.5	-75.6	3.8	1.49e+00	0	27	104	0	84	23991
2026-01-14 08:40:29.33	333.55	8.94	-59.5	-75.6	3.8	1.49e+00	0	27	104	0	84	23990
2026-01-14 08:40:33.31	333.40	8.62	-59.5	-75.6	3.8	1.49e+00	0	27	104	0	84	23925
2026-01-14 08:40:37.29	333.25	8.30	-59.5	-75.6	3.8	1.49e+00	0	27	104	0	84	23948
2026-01-14 08:40:41.26	333.11	7.99	-59.5	-75.6	3.8	1.49e+00	0	27	104	0	84	23921
2026-01-14 08:40:45.23	332.96	7.68	-59.5	-75.6	3.8	1.49e+00	0	27	104	0	84	23943
2026-01-14 08:40:49.22	332.83	7.38	-59.5	-75.6	3.8	1.49e+00	0	27	104	0	84	23934
2026-01-14 08:40:53.20	332.69	7.07	-59.5	-75.6	3.8	1.49e+00	0	27	104	0	84	23970
2026-01-14 08:40:57.18	332.56	6.78	-59.5	-75.6	3.8	1.49e+00	0	27	104	0	84	23912
2026-01-14 08:41:01.15	332.43	6.48	-59.5	-75.6	3.8	1.49e+00	0	28	104	0	84	23883
2026-01-14 08:41:05.12	332.30	6.19	-59.5	-75.6	3.8	1.49e+00	0	27	104	0	84	23860
2026-01-14 08:41:09.11	332.18	5.90	-59.5	-75.5	3.8	1.49e+00	0	27	104	0	84	23831
2026-01-14 08:41:13.10	332.06	5.61	-59.5	-75.6	3.8	1.49e+00	0	27	104	0	84	23868
2026-01-14 08:41:17.09	331.94	5.33	-59.5	-75.6	3.8	1.49e+00	0	28	104	0	84	23883
2026-01-14 08:41:21.06	331.82	5.05	-59.5	-75.6	3.8	1.49e+00	0	27	104	0	84	23978
2026-01-14 08:41:25.03	331.71	4.77	-59.5	-75.5	3.9	1.49e+00	0	27	104	0	84	23840
2026-01-14 08:41:28.99	331.60	4.50	-59.5	-75.6	3.8	1.49e+00	0	27	104	0	84	23873
2026-01-14 08:41:32.96	331.49	4.23	-59.5	-75.6	3.8	1.49e+00	0	28	104	0	84	23855
2026-01-14 08:41:36.94	331.39	3.96	-59.5	-75.6	3.8	1.49e+00	0	27	104	0	84	23899
2026-01-14 08:41:40.91	331.28	3.70	-59.5	-75.6	3.8	1.49e+00	0	27	104	0	84	23903
2026-01-14 08:41:44.89	331.18	3.43	-59.5	-75.6	3.8	1.49e+00	0	27	104	0	84	23858
2026-01-14 08:41:48.88	331.08	3.17	-59.5	-75.5	3.8	1.49e+00	0	27	104	0	84	23763
2026-01-14 08:41:52.86	330.99	2.91	-59.5	-75.6	3.8	1.49e+00	0	27	104	0	84	23904
2026-01-14 08:41:56.84	330.89	2.65	-59.5	-75.6	3.8	1.49e+00	0	28	104	0	84	23861
2026-01-14 08:42:00.81	330.80	2.40	-59.5	-75.5	3.8	1.49e+00	0	27	104	0	84	23805
2026-01-14 08:42:04.79	330.70	2.15	-59.5	-75.6	3.8	1.49e+00	0	27	104	0	84	23893
2026-01-14 08:42:08.77	330.62	1.89	-59.5	-75.6	3.8	1.49e+00	0	27	104	0	84	23893

#Closed at: 2026-01-14 08:42:09
#Recorded file [0 MB]: D:/lorett/data/31004_260114_112757.dat