passes_logs/2026/01/14/R3.2S_Murmansk/R3.2S_Murmansk__20260114_144122_AQUA_rec.log

#Pass ID: 20260114_144122_AQUA
#Satellite: AQUA
#Configuration: AQUA
#almurnet v.1.7.20251203
#Start time: 2026-01-14 14:41:22

#Version: 2.2.20231116
#Station: R3.2S_Murmansk
#Location: 33.079688 lon 68.888172 lat
#TLE: 1 27424U 02022A   26013.85306262  .00000759  00000+0  16188-3 0  9996
#TLE: 2 27424  98.4079 340.2612 0002043  79.8220 301.8652 14.61819210260728

#Time	Az	El	Level	Level2	SNR	BER	BlckErr	Temp	State	Recorded	gain1	gain2
2026-01-14 14:41:22.48	246.80	2.00	-58.1	-77.4	3.8	7.49e-01	0	25	0	0	85	32483
2026-01-14 14:41:25.51	247.16	2.13	-57.9	-77.2	3.8	7.47e-01	0	25	104	0	83	35665
2026-01-14 14:41:28.53	247.51	2.26	-57.9	-77.2	3.8	7.45e-01	0	26	104	0	83	35499
2026-01-14 14:41:31.55	247.87	2.39	-57.9	-77.2	3.8	7.44e-01	0	26	104	0	83	35516
2026-01-14 14:41:34.57	248.24	2.52	-57.9	-77.2	3.8	7.45e-01	0	26	104	0	83	35567
2026-01-14 14:41:37.60	248.61	2.65	-57.9	-77.2	3.8	7.45e-01	0	25	104	0	83	35560
2026-01-14 14:41:40.63	248.98	2.78	-57.9	-77.2	3.8	7.45e-01	0	26	104	0	83	35356
2026-01-14 14:41:43.65	249.35	2.91	-57.9	-77.2	3.8	7.48e-01	0	26	104	0	83	35689
2026-01-14 14:41:46.67	249.73	3.04	-57.9	-77.3	3.8	7.48e-01	0	26	104	0	83	35704
2026-01-14 14:41:49.70	250.11	3.17	-57.9	-77.1	3.8	7.48e-01	0	26	104	0	83	35277
2026-01-14 14:41:52.73	250.49	3.30	-57.9	-77.2	3.8	7.46e-01	0	26	104	0	83	35600
2026-01-14 14:41:55.75	250.88	3.43	-57.9	-77.3	3.8	7.44e-01	0	26	104	0	83	35772
2026-01-14 14:41:58.78	251.28	3.56	-57.9	-76.9	3.8	7.46e-01	0	26	104	0	83	34221
2026-01-14 14:42:01.77	251.67	3.68	-57.9	-76.4	3.8	7.43e-01	0	26	104	0	83	32369
2026-01-14 14:42:04.79	252.06	3.81	-57.9	-76.5	3.8	7.49e-01	0	26	104	0	83	32804
2026-01-14 14:42:07.81	252.47	3.94	-57.9	-77.2	3.8	7.48e-01	0	26	104	0	83	35419
2026-01-14 14:42:10.84	252.87	4.06	-57.9	-76.2	3.8	7.48e-01	0	26	104	0	83	31591
2026-01-14 14:42:13.87	253.28	4.19	-57.9	-77.0	3.8	7.44e-01	0	26	104	0	83	34616
2026-01-14 14:42:16.90	253.70	4.31	-57.9	-77.2	3.8	7.45e-01	0	26	104	0	83	35580
2026-01-14 14:42:19.92	254.12	4.44	-57.9	-76.3	3.8	7.46e-01	0	27	104	0	83	31826
2026-01-14 14:42:22.95	254.54	4.56	-57.9	-74.7	4.0	7.42e-01	0	27	104	0	83	26467
2026-01-14 14:42:25.96	254.96	4.69	-57.9	-77.0	3.8	7.45e-01	0	27	104	0	83	34764
2026-01-14 14:42:28.99	255.39	4.81	-57.4	-67.6	7.6	6.46e-01	62	27	0	1572864	83	11811
2026-01-14 14:42:32.01	255.82	4.93	-56.8	-64.0	10.8	6.14e-01	0	27	0	7340032	82	8217
2026-01-14 14:42:35.04	256.26	5.05	-54.2	-57.6	14.3	6.06e-01	0	27	0	13107200	77	5242
2026-01-14 14:42:38.06	256.70	5.18	-57.1	-65.9	9.0	6.30e-01	0	27	0	18874368	81	10860
2026-01-14 14:42:41.09	257.15	5.30	-51.8	-54.1	15.2	6.05e-01	0	27	0	24641536	72	4669
2026-01-14 14:42:44.11	257.59	5.42	-51.5	-53.7	15.2	6.04e-01	0	27	0	29884416	72	4472
2026-01-14 14:42:47.14	258.05	5.53	-51.9	-54.2	15.0	6.06e-01	0	27	0	35651584	72	4732
2026-01-14 14:42:50.16	258.50	5.65	-51.8	-54.0	15.1	6.09e-01	0	27	0	41418752	72	4640
2026-01-14 14:42:53.19	258.96	5.77	-51.5	-53.7	15.2	6.07e-01	0	27	0	47185920	72	4475
2026-01-14 14:42:56.21	259.42	5.89	-51.7	-53.9	15.1	6.05e-01	0	27	0	52953088	72	4559
2026-01-14 14:42:59.24	259.89	6.00	-51.8	-54.1	15.1	6.06e-01	0	27	0	58195968	72	4660
2026-01-14 14:43:02.26	260.36	6.12	-51.5	-53.6	15.2	6.07e-01	0	27	0	63963136	72	4432
2026-01-14 14:43:05.29	260.84	6.23	-51.5	-53.7	15.2	6.05e-01	0	27	0	69730304	72	4446
2026-01-14 14:43:08.30	261.32	6.34	-51.6	-53.7	15.2	6.05e-01	0	27	0	75497472	72	4491
2026-01-14 14:43:11.32	261.80	6.45	-51.4	-53.4	15.2	6.06e-01	0	27	0	81264640	71	4596
2026-01-14 14:43:14.34	262.28	6.56	-51.3	-53.4	15.2	6.07e-01	0	27	0	86507520	71	4552
2026-01-14 14:43:17.37	262.78	6.67	-51.3	-53.4	15.1	6.06e-01	0	27	0	92274688	71	4574
2026-01-14 14:43:20.39	263.27	6.78	-51.3	-53.4	15.2	6.07e-01	0	27	0	98041856	71	4556
2026-01-14 14:43:23.42	263.77	6.89	-51.5	-53.6	15.1	6.03e-01	0	27	0	103809024	71	4681
2026-01-14 14:43:26.44	264.27	6.99	-51.3	-53.4	15.2	6.06e-01	0	27	0	109576192	71	4559
2026-01-14 14:43:29.47	264.78	7.10	-51.3	-53.3	15.2	6.05e-01	0	27	0	114819072	71	4534
2026-01-14 14:43:32.49	265.29	7.20	-51.3	-53.4	15.2	6.06e-01	0	27	0	120586240	71	4547
2026-01-14 14:43:35.51	265.80	7.30	-51.4	-53.5	15.1	6.06e-01	0	27	0	126353408	71	4605
2026-01-14 14:43:38.54	266.32	7.40	-51.0	-53.0	15.3	6.07e-01	0	27	0	132120576	71	4352
2026-01-14 14:43:41.56	266.84	7.50	-51.1	-53.1	15.2	6.05e-01	0	27	0	137887744	71	4429
2026-01-14 14:43:44.58	267.36	7.60	-51.6	-53.9	15.0	6.09e-01	0	27	0	143654912	71	4842
2026-01-14 14:43:47.61	267.89	7.70	-53.6	-57.1	14.0	6.06e-01	0	27	0	148897792	74	5867
2026-01-14 14:43:50.64	268.42	7.79	-54.7	-59.3	13.2	6.06e-01	0	27	0	154664960	77	6358
2026-01-14 14:43:53.65	268.96	7.88	-55.3	-61.2	12.0	6.09e-01	0	27	0	160432128	78	7476
2026-01-14 14:43:56.68	269.50	7.97	-55.0	-59.9	12.9	6.08e-01	0	27	0	166199296	78	6449
2026-01-14 14:43:59.70	270.04	8.06	-54.2	-57.8	14.1	6.06e-01	0	27	0	171966464	77	5365
2026-01-14 14:44:02.72	270.58	8.15	-53.9	-57.1	14.5	6.09e-01	0	27	0	177209344	77	4943
2026-01-14 14:44:05.74	271.13	8.24	-52.0	-54.3	15.1	6.06e-01	0	27	0	182976512	73	4513
2026-01-14 14:44:08.76	271.69	8.32	-51.2	-53.2	15.2	6.05e-01	0	27	0	188743680	71	4456
2026-01-14 14:44:11.78	272.24	8.40	-50.9	-52.8	15.2	6.06e-01	0	27	0	194510848	70	4535
2026-01-14 14:44:14.81	272.80	8.48	-50.8	-52.8	15.2	6.07e-01	0	27	0	200278016	70	4500
2026-01-14 14:44:17.84	273.36	8.56	-50.9	-52.9	15.2	6.09e-01	0	27	0	206045184	70	4578
2026-01-14 14:44:20.86	273.93	8.63	-50.8	-52.8	15.3	6.07e-01	0	27	0	211288064	70	4498
2026-01-14 14:44:23.89	274.50	8.71	-50.9	-52.8	15.2	6.06e-01	0	27	0	217055232	70	4532
2026-01-14 14:44:26.91	275.07	8.78	-50.8	-52.7	15.3	6.08e-01	0	27	0	222822400	70	4485
2026-01-14 14:44:29.94	275.65	8.85	-50.8	-52.7	15.3	6.07e-01	0	27	0	228589568	70	4451
2026-01-14 14:44:32.96	276.22	8.92	-50.9	-52.8	15.2	6.06e-01	0	27	0	234356736	70	4531
2026-01-14 14:44:35.99	276.80	8.98	-50.8	-52.8	15.2	6.05e-01	0	27	0	239599616	70	4498
2026-01-14 14:44:39.01	277.38	9.05	-51.0	-52.9	15.2	6.05e-01	0	27	0	245366784	70	4572
2026-01-14 14:44:42.04	277.97	9.11	-50.8	-52.7	15.2	6.06e-01	0	27	0	251133952	70	4483
2026-01-14 14:44:45.06	278.56	9.17	-50.8	-52.8	15.2	6.08e-01	0	27	0	256901120	70	4502
2026-01-14 14:44:48.08	279.15	9.22	-51.0	-52.9	15.2	6.07e-01	0	27	0	262668288	70	4597
2026-01-14 14:44:51.11	279.74	9.28	-51.0	-52.9	15.2	6.06e-01	0	27	0	267911168	70	4586
2026-01-14 14:44:54.14	280.34	9.33	-50.8	-52.6	15.3	6.05e-01	0	27	0	273678336	70	4440
2026-01-14 14:44:57.16	280.93	9.38	-50.8	-52.6	15.3	6.05e-01	0	27	0	279445504	70	4438
2026-01-14 14:45:00.18	281.53	9.42	-50.8	-52.7	15.3	6.06e-01	0	27	0	285212672	70	4451
2026-01-14 14:45:03.21	282.13	9.47	-50.9	-52.8	15.2	6.07e-01	0	27	0	290979840	70	4510
2026-01-14 14:45:06.24	282.74	9.51	-50.9	-52.8	15.3	6.06e-01	0	27	0	296747008	70	4499
2026-01-14 14:45:09.27	283.34	9.55	-50.9	-52.8	15.2	6.06e-01	0	27	0	301989888	70	4520
2026-01-14 14:45:12.29	283.95	9.58	-51.0	-52.9	15.2	6.07e-01	0	27	0	307757056	70	4564
2026-01-14 14:45:15.32	284.56	9.62	-51.0	-52.9	15.2	6.06e-01	0	27	0	313524224	70	4583
2026-01-14 14:45:18.34	285.16	9.65	-50.8	-52.7	15.3	6.05e-01	0	27	0	319291392	70	4463
2026-01-14 14:45:21.37	285.78	9.68	-51.0	-52.9	15.2	6.08e-01	0	27	0	325058560	70	4581
2026-01-14 14:45:24.39	286.39	9.70	-50.9	-52.8	15.3	6.07e-01	0	27	0	330825728	70	4529
2026-01-14 14:45:27.41	287.00	9.73	-51.1	-53.0	15.2	6.06e-01	0	27	0	336068608	70	4625
2026-01-14 14:45:30.43	287.61	9.75	-50.9	-52.8	15.2	6.05e-01	0	27	0	341835776	70	4525
2026-01-14 14:45:33.46	288.23	9.77	-51.0	-52.9	15.2	6.01e-01	0	27	0	347602944	70	4590
2026-01-14 14:45:36.48	288.84	9.78	-51.1	-53.0	15.2	6.00e-01	0	27	0	353370112	70	4621
2026-01-14 14:45:39.50	289.45	9.79	-51.0	-52.9	15.2	6.00e-01	0	27	0	359137280	70	4586
2026-01-14 14:45:42.52	290.07	9.80	-51.2	-53.1	15.1	6.00e-01	0	27	0	364380160	70	4681
2026-01-14 14:45:45.55	290.69	9.81	-50.9	-52.8	15.2	6.00e-01	0	27	0	370147328	70	4509
2026-01-14 14:45:48.57	291.30	9.81	-51.1	-53.0	15.2	6.02e-01	0	27	0	375914496	70	4608
2026-01-14 14:45:51.60	291.92	9.81	-51.1	-53.0	15.2	6.01e-01	0	27	0	381681664	70	4620
2026-01-14 14:45:54.62	292.54	9.81	-51.1	-52.9	15.2	6.01e-01	0	27	0	387448832	70	4598
2026-01-14 14:45:57.65	293.15	9.81	-50.9	-52.8	15.3	6.04e-01	0	27	0	392691712	70	4509
2026-01-14 14:46:00.68	293.77	9.80	-51.1	-53.0	15.2	6.04e-01	0	27	0	398458880	70	4632
2026-01-14 14:46:03.70	294.38	9.79	-51.0	-52.9	15.2	6.02e-01	0	27	0	404226048	70	4568
2026-01-14 14:46:06.73	295.00	9.78	-50.9	-52.8	15.2	6.00e-01	0	27	0	409993216	70	4523
2026-01-14 14:46:09.75	295.61	9.76	-51.0	-52.9	15.2	6.00e-01	0	27	0	415760384	70	4555
2026-01-14 14:46:12.78	296.23	9.75	-51.0	-52.9	15.2	6.03e-01	0	27	0	421527552	70	4546
2026-01-14 14:46:15.81	296.84	9.73	-50.9	-52.8	15.2	6.02e-01	0	27	0	426770432	70	4533
2026-01-14 14:46:18.83	297.45	9.70	-51.0	-52.9	15.2	6.01e-01	0	27	0	432537600	70	4591
2026-01-14 14:46:21.86	298.07	9.68	-50.9	-52.8	15.2	6.02e-01	0	27	0	438304768	70	4495
2026-01-14 14:46:24.88	298.67	9.65	-50.8	-52.7	15.3	6.03e-01	0	27	0	444071936	70	4463
2026-01-14 14:46:27.90	299.28	9.62	-50.8	-52.7	15.3	6.01e-01	0	27	0	449839104	70	4479
2026-01-14 14:46:30.93	299.89	9.58	-50.8	-52.7	15.3	6.03e-01	0	27	0	455606272	70	4459
2026-01-14 14:46:33.95	300.49	9.55	-50.8	-52.7	15.3	6.04e-01	0	27	0	460849152	70	4473
2026-01-14 14:46:36.97	301.10	9.51	-51.0	-53.0	15.2	6.01e-01	0	27	0	466616320	70	4618
2026-01-14 14:46:39.99	301.70	9.47	-50.9	-52.8	15.2	6.02e-01	0	27	0	472383488	70	4501
2026-01-14 14:46:43.02	302.30	9.42	-50.8	-52.7	15.3	6.01e-01	0	27	0	478150656	70	4452
2026-01-14 14:46:46.04	302.89	9.38	-50.9	-52.8	15.3	6.00e-01	0	27	0	483917824	70	4496
2026-01-14 14:46:49.06	303.49	9.33	-50.9	-52.8	15.2	6.03e-01	0	27	0	489160704	70	4529
2026-01-14 14:46:52.08	304.08	9.28	-50.9	-52.8	15.3	6.01e-01	0	27	0	494927872	70	4512
2026-01-14 14:46:55.10	304.67	9.22	-50.8	-52.7	15.3	6.01e-01	0	27	0	500695040	70	4478
2026-01-14 14:46:58.12	305.26	9.17	-50.9	-52.8	15.2	6.02e-01	0	27	0	506462208	70	4521
2026-01-14 14:47:01.14	305.85	9.11	-50.8	-52.8	15.2	6.04e-01	0	27	0	512229376	70	4499
2026-01-14 14:47:04.17	306.43	9.05	-50.8	-52.7	15.3	6.01e-01	0	27	0	517472256	70	4483
2026-01-14 14:47:07.20	307.01	8.98	-50.9	-52.8	15.2	6.03e-01	0	27	0	523239424	70	4529
2026-01-14 14:47:10.23	307.59	8.92	-50.8	-52.7	15.2	6.00e-01	0	27	0	529006592	70	4492
2026-01-14 14:47:13.25	308.17	8.85	-50.8	-52.7	15.2	6.00e-01	0	27	0	534773760	70	4482
2026-01-14 14:47:16.28	308.74	8.78	-50.8	-52.7	15.3	6.01e-01	0	27	0	540540928	70	4478
2026-01-14 14:47:19.30	309.31	8.71	-51.0	-52.9	15.2	6.01e-01	0	27	0	545783808	70	4598
2026-01-14 14:47:22.33	309.88	8.64	-50.9	-52.8	15.2	6.02e-01	0	27	0	551550976	70	4526
2026-01-14 14:47:25.35	310.44	8.56	-50.8	-52.7	15.3	6.03e-01	0	27	0	557318144	70	4455
2026-01-14 14:47:28.37	311.00	8.48	-50.8	-52.8	15.2	6.04e-01	0	27	0	563085312	70	4499
2026-01-14 14:47:31.39	311.56	8.40	-50.9	-52.8	15.2	6.03e-01	0	27	0	568852480	70	4544
2026-01-14 14:47:34.41	312.11	8.32	-51.0	-53.0	15.2	6.03e-01	0	27	0	574095360	70	4622
2026-01-14 14:47:37.43	312.66	8.24	-51.0	-52.9	15.2	6.03e-01	0	27	0	579862528	70	4590
2026-01-14 14:47:40.46	313.21	8.15	-50.9	-52.9	15.2	6.04e-01	0	27	0	585629696	70	4553
2026-01-14 14:47:43.49	313.75	8.07	-51.2	-53.2	15.1	6.03e-01	0	27	0	591396864	70	4734
2026-01-14 14:47:46.51	314.29	7.98	-51.0	-53.0	15.2	6.03e-01	0	27	0	597164032	70	4599
2026-01-14 14:47:49.54	314.83	7.89	-50.9	-52.9	15.2	6.04e-01	0	27	0	602931200	70	4557
2026-01-14 14:47:52.57	315.37	7.79	-50.9	-52.9	15.2	6.03e-01	0	27	0	608174080	70	4570
2026-01-14 14:47:55.59	315.90	7.70	-51.0	-53.0	15.2	5.99e-01	0	27	0	613941248	70	4602
2026-01-14 14:47:58.61	316.42	7.61	-51.0	-53.0	15.1	6.01e-01	0	27	0	619708416	70	4636
2026-01-14 14:48:01.63	316.94	7.51	-51.0	-53.0	15.2	6.02e-01	0	27	0	625475584	70	4607
2026-01-14 14:48:04.66	317.46	7.41	-51.0	-53.0	15.1	6.01e-01	0	27	0	631242752	70	4650
2026-01-14 14:48:07.69	317.98	7.31	-51.0	-53.1	15.1	6.03e-01	0	27	0	637009920	70	4685
2026-01-14 14:48:10.72	318.49	7.21	-51.0	-53.2	15.0	6.03e-01	0	27	0	642252800	70	4723
2026-01-14 14:48:13.72	319.00	7.11	-51.1	-53.3	15.0	6.00e-01	0	27	0	648019968	70	4773
2026-01-14 14:48:16.75	319.50	7.00	-51.2	-53.2	15.1	5.99e-01	0	27	0	653787136	70	4752
2026-01-14 14:48:19.78	320.00	6.90	-51.0	-53.0	15.1	6.02e-01	0	27	0	659554304	70	4642
2026-01-14 14:48:22.80	320.50	6.79	-51.0	-53.1	15.1	6.02e-01	0	27	0	665321472	70	4673
2026-01-14 14:48:25.83	320.99	6.69	-51.3	-53.4	15.0	6.05e-01	0	27	0	670564352	70	4839
2026-01-14 14:48:28.85	321.48	6.58	-51.3	-53.5	15.0	6.02e-01	0	27	0	676331520	70	4881
2026-01-14 14:48:31.88	321.96	6.47	-51.2	-53.4	15.0	6.01e-01	0	27	0	682098688	70	4821
2026-01-14 14:48:34.90	322.44	6.36	-51.1	-53.2	15.1	6.03e-01	0	27	0	687865856	70	4742
2026-01-14 14:48:37.92	322.92	6.24	-51.2	-53.3	15.0	6.02e-01	0	27	0	693633024	70	4765
2026-01-14 14:48:40.95	323.40	6.13	-51.5	-53.7	14.8	6.01e-01	0	27	0	698875904	70	5012
2026-01-14 14:48:43.97	323.86	6.02	-51.4	-53.7	14.8	6.02e-01	0	27	0	704643072	70	5009
2026-01-14 14:48:46.99	324.33	5.90	-51.4	-53.7	14.8	6.02e-01	0	27	0	710410240	70	4991
2026-01-14 14:48:50.02	324.79	5.79	-51.5	-53.7	14.9	6.02e-01	0	27	0	716177408	70	4992
2026-01-14 14:48:53.04	325.25	5.67	-51.4	-53.5	14.9	6.02e-01	0	27	0	721944576	70	4926
2026-01-14 14:48:56.06	325.70	5.55	-51.5	-53.8	15.0	6.05e-01	0	27	0	727187456	71	4767
2026-01-14 14:48:59.09	326.15	5.44	-51.6	-53.9	15.0	6.02e-01	0	27	0	732954624	71	4817
2026-01-14 14:49:02.11	326.60	5.32	-51.5	-53.7	15.0	6.03e-01	0	27	0	738721792	71	4713
2026-01-14 14:49:05.14	327.04	5.20	-51.5	-53.7	15.0	6.03e-01	0	27	0	744488960	71	4739
2026-01-14 14:49:08.16	327.48	5.08	-51.5	-53.8	15.0	6.00e-01	0	27	0	750256128	71	4776
2026-01-14 14:49:11.19	327.91	4.96	-57.9	-70.2	5.6	6.81e-01	43	27	0	755499008	83	15778
2026-01-14 14:49:14.22	328.35	4.83	-59.2	-78.6	3.8	7.46e-01	0	27	104	756023296	86	35072
2026-01-14 14:49:17.25	328.77	4.71	-59.7	-79.1	3.8	7.45e-01	0	27	104	756023296	87	34886
2026-01-14 14:49:20.27	329.20	4.59	-59.9	-79.3	3.8	7.46e-01	0	27	104	756023296	87	35723
2026-01-14 14:49:23.30	329.62	4.47	-60.0	-79.4	3.8	7.46e-01	0	27	104	756023296	87	36200
2026-01-14 14:49:26.32	330.03	4.34	-60.0	-79.4	3.8	7.46e-01	0	27	104	756023296	87	36428
2026-01-14 14:49:29.35	330.45	4.22	-60.0	-79.4	3.8	7.47e-01	0	28	104	756023296	87	36472
2026-01-14 14:49:32.37	330.85	4.09	-60.1	-79.5	3.8	7.48e-01	0	27	104	756023296	87	36721
2026-01-14 14:49:35.39	331.26	3.97	-60.0	-79.4	3.8	7.45e-01	0	28	104	756023296	87	36173
2026-01-14 14:49:38.42	331.66	3.84	-59.9	-79.3	3.8	7.44e-01	0	27	104	756023296	87	36060
2026-01-14 14:49:41.44	332.06	3.72	-59.9	-79.3	3.8	7.47e-01	0	27	104	756023296	87	35821
2026-01-14 14:49:44.47	332.45	3.59	-59.9	-79.3	3.8	7.44e-01	0	28	104	756023296	87	35854
2026-01-14 14:49:47.50	332.84	3.46	-59.9	-79.3	3.8	7.49e-01	0	27	104	756023296	87	35809
2026-01-14 14:49:50.53	333.23	3.33	-59.8	-79.2	3.8	7.46e-01	0	28	104	756023296	87	35626
2026-01-14 14:49:53.55	333.61	3.21	-59.8	-79.2	3.8	7.48e-01	0	28	104	756023296	87	35562
2026-01-14 14:49:56.57	333.99	3.08	-59.8	-79.2	3.8	7.45e-01	0	28	104	756023296	87	35577
2026-01-14 14:49:59.60	334.37	2.95	-59.8	-79.2	3.8	7.47e-01	0	28	104	756023296	87	35506
2026-01-14 14:50:02.63	334.74	2.82	-59.8	-79.2	3.8	7.48e-01	0	28	104	756023296	87	35428
2026-01-14 14:50:05.66	335.11	2.69	-59.8	-79.2	3.8	7.47e-01	0	27	104	756023296	87	35398
2026-01-14 14:50:08.68	335.48	2.56	-59.8	-79.2	3.8	7.46e-01	0	27	104	756023296	87	35398
2026-01-14 14:50:11.71	335.84	2.44	-59.8	-79.2	3.8	7.47e-01	0	28	104	756023296	87	35383
2026-01-14 14:50:14.74	336.20	2.31	-59.8	-79.2	3.8	7.46e-01	0	28	104	756023296	87	35310
2026-01-14 14:50:17.77	336.56	2.18	-59.8	-79.1	3.8	7.47e-01	0	28	104	756023296	87	35250
2026-01-14 14:50:20.80	336.92	2.05	-59.7	-79.2	3.8	7.47e-01	0	27	104	756023296	87	35299
2026-01-14 14:50:23.83	337.27	1.92	-59.7	-79.1	3.8	7.49e-01	0	28	104	756023296	87	35267

#Closed at: 2026-01-14 14:50:24
#Recorded file [756 MB]: D:/lorett/data/31004_260114_174122.dat