passes_logs/2026/01/14/R3.2S_Murmansk/R3.2S_Murmansk__20260114_094718_SUOMI_NPP_rec.log

#Pass ID: 20260114_094718_SUOMI NPP
#Satellite: SUOMI NPP
#Configuration: NPP
#almurnet v.1.7.20251203
#Start time: 2026-01-14 09:47:19

#Version: 2.2.20231116
#Station: R3.2S_Murmansk
#Location: 33.079688 lon 68.888172 lat
#TLE: 1 37849U 11061A   26013.83525404  .00000052  00000+0  45495-4 0  9990
#TLE: 2 37849  98.7808 315.8939 0002471  65.6575 294.4859 14.19524986736544

#Time	Az	El	Level	Level2	SNR	BER	BlckErr	Temp	State	Recorded	gain1	gain2
2026-01-14 09:47:19.39	156.28	2.05	-58.1	-74.1	3.8	1.49e+00	0	25	0	0	81	23974
2026-01-14 09:47:23.36	156.32	2.31	-58.1	-74.1	3.8	1.49e+00	0	25	104	0	81	24002
2026-01-14 09:47:27.34	156.35	2.57	-58.1	-74.1	3.8	1.49e+00	0	26	104	0	81	24022
2026-01-14 09:47:31.32	156.38	2.83	-58.1	-74.1	3.8	1.49e+00	0	26	104	0	81	23989
2026-01-14 09:47:35.29	156.42	3.10	-58.1	-73.7	3.8	1.49e+00	0	26	104	0	81	22890
2026-01-14 09:47:39.27	156.45	3.36	-58.0	-72.0	3.9	1.49e+00	0	26	104	0	81	18816
2026-01-14 09:47:43.24	156.48	3.63	-57.9	-69.7	4.5	1.06e+00	9	26	0	1048576	81	14401
2026-01-14 09:47:47.22	156.52	3.90	-57.6	-66.5	6.1	3.05e-01	0	26	0	9437184	81	10032
2026-01-14 09:47:51.21	156.55	4.18	-57.0	-63.6	8.5	4.05e-02	0	26	0	16777216	80	7585
2026-01-14 09:47:55.18	156.59	4.45	-56.6	-62.4	9.5	7.47e-03	0	26	0	24117248	79	6976
2026-01-14 09:47:59.15	156.63	4.73	-56.5	-62.0	9.8	9.79e-04	0	26	0	31457280	79	6721
2026-01-14 09:48:03.13	156.66	5.02	-57.1	-64.0	8.0	1.31e-02	0	26	0	38797312	79	8446
2026-01-14 09:48:07.12	156.70	5.31	-58.0	-70.0	4.4	1.17e+00	13	26	0	44040192	81	14882
2026-01-14 09:48:11.10	156.74	5.60	-55.7	-59.7	11.6	5.30e-06	0	27	0	51380224	77	5787
2026-01-14 09:48:15.07	156.77	5.89	-55.4	-59.1	12.0	3.00e-06	0	26	0	58720256	76	5701
2026-01-14 09:48:19.04	156.81	6.18	-55.4	-59.0	12.1	7.00e-07	0	26	0	67108864	76	5625
2026-01-14 09:48:23.02	156.85	6.48	-55.0	-58.3	12.6	0.00e+00	0	27	0	74448896	76	5196
2026-01-14 09:48:27.00	156.89	6.79	-55.2	-58.6	12.4	7.00e-07	0	27	0	81788928	76	5360
2026-01-14 09:48:30.98	156.93	7.09	-55.3	-58.7	12.4	0.00e+00	0	27	0	89128960	76	5412
2026-01-14 09:48:34.97	156.97	7.40	-55.3	-58.7	12.4	1.50e-06	0	27	0	96468992	76	5432
2026-01-14 09:48:38.96	157.01	7.72	-55.1	-58.2	12.7	0.00e+00	0	27	0	103809024	76	5151
2026-01-14 09:48:42.93	157.05	8.04	-55.2	-58.4	12.6	0.00e+00	0	27	0	111149056	76	5236
2026-01-14 09:48:46.91	157.10	8.36	-55.0	-58.0	12.9	0.00e+00	0	27	0	118489088	76	5033
2026-01-14 09:48:50.88	157.14	8.68	-55.1	-58.3	12.7	0.00e+00	0	27	0	125829120	76	5174
2026-01-14 09:48:54.85	157.18	9.01	-54.9	-57.9	13.0	0.00e+00	0	27	0	134217728	76	4927
2026-01-14 09:48:58.83	157.23	9.35	-54.8	-57.8	13.1	0.00e+00	0	27	0	141557760	76	4871
2026-01-14 09:49:02.81	157.27	9.69	-54.6	-57.4	13.2	0.00e+00	0	27	0	148897792	75	4959
2026-01-14 09:49:06.80	157.32	10.03	-54.5	-57.3	13.3	0.00e+00	0	27	0	156237824	75	4902
2026-01-14 09:49:10.80	157.37	10.39	-54.4	-57.2	13.3	0.00e+00	0	27	0	163577856	75	4828
2026-01-14 09:49:14.79	157.41	10.74	-54.1	-56.7	13.5	0.00e+00	0	27	0	170917888	74	4819
2026-01-14 09:49:18.75	157.46	11.10	-54.1	-56.6	13.6	0.00e+00	0	27	0	178257920	74	4785
2026-01-14 09:49:22.72	157.51	11.46	-53.8	-56.1	13.9	0.00e+00	0	27	0	185597952	74	4529
2026-01-14 09:49:26.70	157.56	11.83	-53.7	-56.0	13.8	0.00e+00	0	27	0	193986560	73	4745
2026-01-14 09:49:30.67	157.61	12.21	-53.4	-55.6	14.0	0.00e+00	0	27	0	201326592	73	4523
2026-01-14 09:49:34.64	157.66	12.59	-53.6	-55.8	13.9	0.00e+00	0	27	0	208666624	73	4632
2026-01-14 09:49:38.62	157.72	12.98	-53.2	-55.3	14.2	0.00e+00	0	27	0	216006656	73	4352
2026-01-14 09:49:42.58	157.77	13.37	-53.0	-55.1	14.2	0.00e+00	0	27	0	223346688	72	4494
2026-01-14 09:49:46.56	157.82	13.77	-52.8	-54.7	14.3	0.00e+00	0	27	0	230686720	72	4331
2026-01-14 09:49:50.55	157.88	14.18	-52.6	-54.5	14.3	0.00e+00	0	27	0	238026752	71	4448
2026-01-14 09:49:54.52	157.94	14.59	-52.4	-54.3	14.4	0.00e+00	0	27	0	245366784	71	4364
2026-01-14 09:49:58.51	158.00	15.02	-52.4	-54.3	14.4	0.00e+00	0	27	0	252706816	71	4376
2026-01-14 09:50:02.48	158.06	15.44	-52.1	-53.8	14.5	0.00e+00	0	27	0	260046848	70	4389
2026-01-14 09:50:06.46	158.12	15.88	-52.2	-54.0	14.5	0.00e+00	0	27	0	268435456	70	4465
2026-01-14 09:50:10.44	158.18	16.33	-52.0	-53.8	14.5	0.00e+00	0	27	0	275775488	70	4365
2026-01-14 09:50:14.39	158.24	16.78	-52.1	-53.9	14.5	0.00e+00	0	27	0	283115520	70	4414
2026-01-14 09:50:18.36	158.31	17.24	-52.0	-53.7	14.6	0.00e+00	0	27	0	290455552	70	4310
2026-01-14 09:50:22.35	158.38	17.71	-51.8	-53.5	14.7	0.00e+00	0	27	0	297795584	70	4225
2026-01-14 09:50:26.32	158.44	18.19	-51.9	-53.6	14.6	0.00e+00	0	27	0	305135616	70	4281
2026-01-14 09:50:30.28	158.51	18.67	-51.9	-53.6	14.6	0.00e+00	0	27	0	312475648	70	4256
2026-01-14 09:50:34.28	158.59	19.17	-52.2	-53.9	14.5	0.00e+00	0	27	0	319815680	70	4435
2026-01-14 09:50:38.25	158.66	19.68	-52.2	-53.9	14.5	0.00e+00	0	27	0	327155712	70	4440
2026-01-14 09:50:42.24	158.74	20.20	-52.3	-54.1	14.4	0.00e+00	0	27	0	335544320	70	4533
2026-01-14 09:50:46.21	158.82	20.73	-52.2	-54.0	14.5	0.00e+00	0	27	0	342884352	70	4463
2026-01-14 09:50:50.17	158.90	21.27	-52.6	-54.5	14.3	0.00e+00	0	27	0	350224384	70	4727
2026-01-14 09:50:54.14	158.98	21.83	-53.0	-55.0	14.2	0.00e+00	0	27	0	357564416	71	4725
2026-01-14 09:50:58.12	159.07	22.39	-53.1	-55.1	14.1	0.00e+00	0	27	0	364904448	71	4786
2026-01-14 09:51:02.10	159.15	22.97	-53.4	-55.4	14.1	0.00e+00	0	27	0	372244480	72	4693
2026-01-14 09:51:06.08	159.24	23.56	-53.4	-55.5	14.0	0.00e+00	0	27	0	379584512	72	4743
2026-01-14 09:51:10.04	159.34	24.17	-53.6	-55.8	13.9	0.00e+00	0	27	0	386924544	72	4891
2026-01-14 09:51:14.01	159.44	24.79	-53.6	-55.8	13.9	0.00e+00	0	27	0	394264576	72	4886
2026-01-14 09:51:17.96	159.54	25.42	-53.8	-56.1	13.8	0.00e+00	0	27	0	401604608	72	5049
2026-01-14 09:51:21.93	159.64	26.06	-54.2	-56.6	13.7	0.00e+00	0	27	0	409993216	73	5062
2026-01-14 09:51:25.90	159.75	26.73	-54.1	-56.5	13.7	0.00e+00	0	27	0	417333248	73	5000
2026-01-14 09:51:29.88	159.86	27.41	-53.9	-56.2	13.9	0.00e+00	0	27	0	424673280	73	4831
2026-01-14 09:51:33.85	159.97	28.11	-54.0	-56.2	13.9	0.00e+00	0	27	0	432013312	73	4869
2026-01-14 09:51:37.84	160.10	28.83	-53.9	-56.1	13.9	0.00e+00	0	27	0	439353344	73	4773
2026-01-14 09:51:41.82	160.22	29.57	-53.5	-55.6	14.1	0.00e+00	0	27	0	446693376	73	4499
2026-01-14 09:51:45.79	160.35	30.33	-54.0	-56.3	13.8	0.00e+00	0	27	0	454033408	73	4899
2026-01-14 09:51:49.76	160.49	31.10	-54.5	-57.0	13.6	0.00e+00	0	27	0	461373440	74	4986
2026-01-14 09:51:53.75	160.63	31.90	-54.4	-56.8	13.7	0.00e+00	0	27	0	468713472	74	4890
2026-01-14 09:51:57.82	160.78	32.74	-54.7	-57.3	13.4	0.00e+00	0	27	0	476053504	74	5164
2026-01-14 09:52:01.79	160.94	33.59	-54.6	-57.0	13.6	0.00e+00	0	27	0	483393536	75	4746
2026-01-14 09:52:05.75	161.10	34.45	-53.9	-56.1	14.0	0.00e+00	0	27	0	491782144	74	4531
2026-01-14 09:52:09.73	161.27	35.34	-52.8	-54.6	14.5	0.00e+00	0	27	0	499122176	72	4290
2026-01-14 09:52:13.71	161.46	36.26	-51.9	-53.6	14.7	0.00e+00	0	27	0	506462208	70	4256
2026-01-14 09:52:17.66	161.65	37.20	-52.0	-53.7	14.6	0.00e+00	0	27	0	513802240	70	4330
2026-01-14 09:52:21.63	161.85	38.17	-51.7	-53.4	14.6	0.00e+00	0	27	0	521142272	69	4409
2026-01-14 09:52:25.60	162.06	39.16	-51.5	-53.1	14.8	0.00e+00	0	27	0	528482304	69	4243
2026-01-14 09:52:29.58	162.28	40.19	-51.6	-53.2	14.7	0.00e+00	0	27	0	535822336	69	4324
2026-01-14 09:52:33.58	162.52	41.26	-52.9	-54.8	14.3	0.00e+00	0	27	0	543162368	71	4631
2026-01-14 09:52:37.56	162.78	42.35	-53.4	-55.4	14.2	0.00e+00	0	27	0	550502400	72	4652
2026-01-14 09:52:41.55	163.05	43.47	-53.4	-55.4	14.1	0.00e+00	0	27	0	558891008	72	4699
2026-01-14 09:52:45.53	163.34	44.63	-52.6	-54.4	14.5	0.00e+00	0	27	0	566231040	71	4394
2026-01-14 09:52:49.52	163.66	45.83	-53.2	-55.1	14.2	0.00e+00	0	27	0	573571072	71	4783
2026-01-14 09:52:53.51	163.99	47.05	-53.9	-56.0	14.0	0.00e+00	0	27	0	580911104	73	4734
2026-01-14 09:52:57.50	164.36	48.32	-54.9	-57.5	13.5	0.00e+00	0	27	0	588251136	75	4987
2026-01-14 09:53:01.48	164.75	49.62	-53.5	-55.4	14.3	0.00e+00	0	27	0	595591168	73	4436
2026-01-14 09:53:05.45	165.17	50.95	-51.9	-53.5	14.7	0.00e+00	0	27	0	602931200	70	4205
2026-01-14 09:53:09.44	165.64	52.33	-51.5	-53.1	14.6	0.00e+00	0	27	0	610271232	68	4510
2026-01-14 09:53:13.42	166.15	53.74	-51.8	-53.4	14.7	0.00e+00	0	27	0	618659840	69	4418
2026-01-14 09:53:17.39	166.71	55.18	-51.2	-52.6	14.9	0.00e+00	0	27	0	625999872	69	4050
2026-01-14 09:53:21.37	167.33	56.66	-50.4	-51.8	15.0	0.00e+00	0	27	0	633339904	67	4125
2026-01-14 09:53:25.36	168.02	58.19	-50.6	-52.0	15.0	0.00e+00	0	27	0	640679936	67	4199
2026-01-14 09:53:29.35	168.79	59.75	-50.3	-51.7	14.9	0.00e+00	0	27	0	648019968	66	4323
2026-01-14 09:53:33.35	169.66	61.35	-52.0	-53.7	14.5	0.00e+00	0	27	0	655360000	69	4577
2026-01-14 09:53:37.31	170.65	62.97	-50.2	-51.6	14.9	0.00e+00	0	27	0	662700032	66	4273
2026-01-14 09:53:41.29	171.78	64.63	-52.0	-53.7	14.6	0.00e+00	0	27	0	670040064	69	4555
2026-01-14 09:53:45.29	173.09	66.32	-52.3	-53.9	14.6	0.00e+00	0	27	0	678428672	70	4431
2026-01-14 09:53:49.30	174.64	68.04	-53.4	-55.4	14.2	0.00e+00	0	27	0	685768704	72	4654
2026-01-14 09:53:53.30	176.46	69.77	-55.0	-57.5	13.4	0.00e+00	0	27	0	693108736	75	5003
2026-01-14 09:53:57.31	178.65	71.51	-53.6	-55.5	14.2	0.00e+00	0	27	0	700448768	73	4491
2026-01-14 09:54:01.31	181.32	73.25	-54.2	-56.5	13.8	0.00e+00	0	27	0	707788800	73	5017
2026-01-14 09:54:05.30	184.62	74.97	-55.8	-58.7	13.0	0.00e+00	0	27	0	715128832	77	5131
2026-01-14 09:54:09.30	188.81	76.65	-55.6	-58.3	13.2	0.00e+00	0	27	0	722468864	76	5177
2026-01-14 09:54:13.30	194.22	78.26	-56.9	-60.6	12.4	7.00e-07	0	27	0	730857472	79	5700
2026-01-14 09:54:17.30	201.31	79.76	-56.9	-60.6	12.0	0.00e+00	0	27	0	738197504	78	6047
2026-01-14 09:54:21.31	210.70	81.06	-54.8	-57.1	13.7	0.00e+00	0	27	0	745537536	75	4800
2026-01-14 09:54:25.31	222.84	82.06	-54.0	-56.1	14.0	0.00e+00	0	27	0	752877568	73	4808
2026-01-14 09:54:29.31	237.62	82.61	-53.7	-55.7	14.1	0.00e+00	0	27	0	760217600	72	4856
2026-01-14 09:54:33.30	253.56	82.63	-51.4	-52.8	14.9	0.00e+00	0	27	0	767557632	69	4140
2026-01-14 09:54:37.29	268.45	82.11	-54.7	-57.0	13.7	0.00e+00	0	27	0	774897664	75	4725
2026-01-14 09:54:41.28	280.76	81.14	-54.5	-56.6	13.8	0.00e+00	0	27	0	783286272	74	4809
2026-01-14 09:54:45.25	290.25	79.87	-56.5	-59.8	12.6	0.00e+00	0	28	0	790626304	78	5506
2026-01-14 09:54:49.25	297.50	78.39	-54.0	-56.0	14.2	0.00e+00	0	27	0	797966336	74	4443
2026-01-14 09:54:53.23	303.00	76.80	-54.9	-57.3	13.5	0.00e+00	0	27	0	805306368	74	5192
2026-01-14 09:54:57.22	307.27	75.13	-53.3	-55.1	14.5	0.00e+00	0	28	0	812646400	73	4278
2026-01-14 09:55:01.21	310.64	73.42	-53.5	-55.4	14.3	0.00e+00	0	28	0	819986432	72	4662
2026-01-14 09:55:05.20	313.35	71.68	-55.4	-58.0	13.4	0.00e+00	0	28	0	827326464	75	5308
2026-01-14 09:55:09.19	315.57	69.95	-55.3	-57.7	13.5	0.00e+00	0	27	0	835715072	76	4864
2026-01-14 09:55:13.18	317.42	68.23	-54.9	-57.2	13.7	7.00e-07	0	27	0	843055104	76	4596
2026-01-14 09:55:17.16	318.98	66.52	-53.1	-54.9	14.4	0.00e+00	0	27	0	850395136	71	4679
2026-01-14 09:55:21.13	320.30	64.84	-54.5	-56.9	13.8	0.00e+00	0	27	0	857735168	74	4948
2026-01-14 09:55:25.10	321.45	63.19	-52.9	-54.7	14.4	0.00e+00	0	27	0	865075200	71	4578
2026-01-14 09:55:29.10	322.46	61.56	-52.7	-54.4	14.7	0.00e+00	0	27	0	872415232	72	4172
2026-01-14 09:55:33.09	323.34	59.96	-52.3	-53.9	14.5	0.00e+00	0	27	0	879755264	69	4671
2026-01-14 09:55:37.07	324.12	58.40	-52.5	-54.2	14.6	0.00e+00	0	27	0	887095296	71	4298
2026-01-14 09:55:41.06	324.82	56.88	-51.6	-53.1	14.8	0.00e+00	0	27	0	895483904	69	4288
2026-01-14 09:55:45.03	325.45	55.39	-52.6	-54.3	14.5	0.00e+00	0	27	0	902823936	70	4632
2026-01-14 09:55:49.01	326.02	53.94	-52.7	-54.4	14.5	0.00e+00	0	27	0	910163968	71	4434
2026-01-14 09:55:53.00	326.53	52.53	-53.5	-55.4	14.3	0.00e+00	0	27	0	917504000	73	4440
2026-01-14 09:55:56.96	327.00	51.16	-54.1	-56.2	14.0	0.00e+00	0	27	0	924844032	73	4849
2026-01-14 09:56:00.96	327.43	49.82	-53.6	-55.6	14.3	0.00e+00	0	27	0	932184064	73	4507
2026-01-14 09:56:04.93	327.83	48.53	-53.2	-55.0	14.4	0.00e+00	0	27	0	939524096	72	4487
2026-01-14 09:56:08.91	328.20	47.26	-56.9	-60.8	11.8	2.20e-06	0	27	0	946864128	79	5835
2026-01-14 09:56:12.89	328.54	46.04	-52.9	-54.7	14.5	0.00e+00	0	27	0	954204160	72	4326
2026-01-14 09:56:16.85	328.85	44.85	-54.9	-57.4	13.6	0.00e+00	0	27	0	961544192	75	4936
2026-01-14 09:56:20.83	329.14	43.69	-54.6	-57.0	13.8	0.00e+00	0	27	0	969932800	75	4737
2026-01-14 09:56:24.82	329.42	42.57	-52.4	-54.0	14.7	0.00e+00	0	27	0	977272832	71	4223
2026-01-14 09:56:28.79	329.68	41.48	-52.6	-54.4	14.4	0.00e+00	0	27	0	984612864	70	4669
2026-01-14 09:56:32.75	329.92	40.42	-53.1	-55.0	14.4	0.00e+00	0	27	0	991952896	72	4491
2026-01-14 09:56:36.73	330.15	39.39	-51.4	-52.9	14.9	0.00e+00	0	27	0	999292928	69	4177
2026-01-14 09:56:40.71	330.36	38.39	-55.0	-57.6	13.5	0.00e+00	0	27	0	1006632960	75	5067
2026-01-14 09:56:44.69	330.56	37.42	-57.2	-61.5	11.4	1.37e-05	0	27	0	1013972992	79	6336
2026-01-14 09:56:48.67	330.76	36.47	-53.3	-55.2	14.4	0.00e+00	0	27	0	1021313024	73	4295
2026-01-14 09:56:52.66	330.94	35.55	-53.3	-55.2	14.2	0.00e+00	0	27	0	1029701632	71	4819
2026-01-14 09:56:56.62	331.11	34.66	-52.7	-54.5	14.4	0.00e+00	0	27	0	1037041664	71	4451
2026-01-14 09:57:00.60	331.28	33.79	-56.1	-59.2	12.7	0.00e+00	0	27	0	1044381696	77	5439
2026-01-14 09:57:04.57	331.44	32.95	-57.0	-61.0	11.5	2.21e-05	0	27	0	1051721728	79	5981
2026-01-14 09:57:08.52	331.59	32.13	-54.8	-57.2	13.7	0.00e+00	0	27	0	1059061760	76	4580
2026-01-14 09:57:12.50	331.73	31.33	-53.8	-55.8	14.1	0.00e+00	0	28	0	1066401792	73	4600
2026-01-14 09:57:16.47	331.87	30.56	-53.1	-55.0	14.4	0.00e+00	0	27	0	1073741824	72	4458
2026-01-14 09:57:20.45	332.01	29.80	-52.4	-54.1	14.6	0.00e+00	0	27	0	1081081856	71	4269
2026-01-14 09:57:24.43	332.13	29.06	-53.3	-55.3	14.1	0.00e+00	0	27	0	1088421888	71	4883
2026-01-14 09:57:28.41	332.26	28.34	-55.3	-58.1	13.0	0.00e+00	0	27	0	1096810496	75	5343
2026-01-14 09:57:32.39	332.37	27.64	-55.0	-57.5	13.6	0.00e+00	0	27	0	1104150528	76	4728
2026-01-14 09:57:36.37	332.49	26.95	-53.1	-55.0	14.3	0.00e+00	0	27	0	1111490560	72	4480
2026-01-14 09:57:40.35	332.60	26.28	-52.2	-53.9	14.5	0.00e+00	0	27	0	1118830592	70	4408
2026-01-14 09:57:44.33	332.70	25.63	-51.5	-53.1	14.8	0.00e+00	0	27	0	1126170624	69	4244
2026-01-14 09:57:48.30	332.81	25.00	-51.2	-52.7	14.9	0.00e+00	0	27	0	1133510656	69	4093
2026-01-14 09:57:52.29	332.91	24.38	-50.7	-52.2	15.0	0.00e+00	0	27	0	1140850688	68	4067
2026-01-14 09:57:56.27	333.00	23.77	-50.2	-51.6	14.9	0.00e+00	0	27	0	1148190720	66	4287
2026-01-14 09:58:00.26	333.10	23.17	-50.3	-51.7	14.9	0.00e+00	0	27	0	1155530752	66	4302
2026-01-14 09:58:04.24	333.19	22.60	-51.0	-52.5	14.7	0.00e+00	0	28	0	1163919360	67	4484
2026-01-14 09:58:08.23	333.27	22.03	-51.5	-53.1	14.6	0.00e+00	0	27	0	1171259392	68	4534
2026-01-14 09:58:12.20	333.36	21.47	-51.3	-52.9	14.7	0.00e+00	0	27	0	1178599424	68	4412
2026-01-14 09:58:16.17	333.44	20.93	-51.2	-52.8	14.7	0.00e+00	0	27	0	1185939456	68	4354
2026-01-14 09:58:20.15	333.52	20.40	-51.4	-53.0	14.6	0.00e+00	0	27	0	1193279488	68	4483
2026-01-14 09:58:24.12	333.60	19.88	-51.7	-53.4	14.5	0.00e+00	0	27	0	1200619520	68	4691
2026-01-14 09:58:28.09	333.68	19.38	-51.7	-53.4	14.5	0.00e+00	0	28	0	1207959552	68	4676
2026-01-14 09:58:32.08	333.75	18.87	-51.7	-53.4	14.5	0.00e+00	0	27	0	1215299584	68	4700
2026-01-14 09:58:36.05	333.82	18.39	-51.9	-53.6	14.4	0.00e+00	0	27	0	1222639616	68	4789
2026-01-14 09:58:40.03	333.89	17.91	-52.1	-53.8	14.4	0.00e+00	0	27	0	1231028224	69	4640
2026-01-14 09:58:43.99	333.96	17.44	-52.4	-54.2	14.3	0.00e+00	0	27	0	1238368256	69	4830
2026-01-14 09:58:47.97	334.03	16.98	-52.6	-54.4	14.3	0.00e+00	0	27	0	1245708288	70	4694
2026-01-14 09:58:51.94	334.10	16.52	-52.9	-54.8	14.1	0.00e+00	0	27	0	1253048320	70	4920
2026-01-14 09:58:55.91	334.16	16.08	-52.9	-54.9	14.1	0.00e+00	0	27	0	1260388352	71	4696
2026-01-14 09:58:59.88	334.22	15.64	-53.0	-55.1	14.0	0.00e+00	0	27	0	1267728384	71	4765
2026-01-14 09:59:03.85	334.29	15.22	-53.1	-55.2	14.0	0.00e+00	0	27	0	1275068416	71	4852
2026-01-14 09:59:07.83	334.35	14.79	-53.4	-55.5	13.9	0.00e+00	0	27	0	1282408448	72	4736
2026-01-14 09:59:11.81	334.41	14.38	-53.6	-55.8	13.8	0.00e+00	0	27	0	1289748480	72	4889
2026-01-14 09:59:15.79	334.46	13.97	-53.4	-55.6	13.9	0.00e+00	0	27	0	1297088512	72	4767
2026-01-14 09:59:19.76	334.52	13.57	-53.3	-55.4	14.0	0.00e+00	0	27	0	1305477120	72	4670
2026-01-14 09:59:23.73	334.58	13.18	-53.1	-55.2	14.1	0.00e+00	0	27	0	1312817152	72	4546
2026-01-14 09:59:27.70	334.63	12.79	-52.8	-54.8	14.3	0.00e+00	0	27	0	1320157184	72	4379
2026-01-14 09:59:31.67	334.69	12.41	-52.8	-54.8	14.3	0.00e+00	0	27	0	1327497216	72	4358
2026-01-14 09:59:35.66	334.74	12.03	-52.9	-55.0	14.2	0.00e+00	0	27	0	1334837248	72	4444
2026-01-14 09:59:39.63	334.79	11.66	-53.0	-55.0	14.1	0.00e+00	0	27	0	1342177280	72	4489
2026-01-14 09:59:43.61	334.84	11.30	-53.0	-55.1	14.1	0.00e+00	0	27	0	1349517312	72	4518
2026-01-14 09:59:47.58	334.90	10.94	-52.9	-55.0	14.1	0.00e+00	0	28	0	1356857344	72	4482
2026-01-14 09:59:51.57	334.95	10.58	-52.9	-55.0	14.1	0.00e+00	0	27	0	1364197376	72	4460
2026-01-14 09:59:55.55	334.99	10.23	-52.9	-55.0	14.1	0.00e+00	0	27	0	1372585984	72	4458
2026-01-14 09:59:59.54	335.04	9.89	-52.8	-54.9	14.2	0.00e+00	0	27	0	1379926016	72	4406
2026-01-14 10:00:03.53	335.09	9.55	-52.8	-54.8	14.2	0.00e+00	0	27	0	1387266048	72	4384
2026-01-14 10:00:07.53	335.14	9.21	-52.7	-54.7	14.2	0.00e+00	0	27	0	1394606080	71	4561
2026-01-14 10:00:11.51	335.18	8.88	-52.6	-54.6	14.2	0.00e+00	0	27	0	1401946112	71	4499
2026-01-14 10:00:15.47	335.23	8.56	-52.7	-54.7	14.1	0.00e+00	0	27	0	1409286144	71	4586
2026-01-14 10:00:19.43	335.27	8.24	-52.4	-54.4	14.3	0.00e+00	0	27	0	1416626176	71	4426
2026-01-14 10:00:23.40	335.32	7.92	-52.4	-54.4	14.3	0.00e+00	0	28	0	1423966208	71	4398
2026-01-14 10:00:27.37	335.36	7.60	-52.5	-54.4	14.2	0.00e+00	0	27	0	1432354816	71	4439
2026-01-14 10:00:31.35	335.41	7.29	-52.4	-54.3	14.3	0.00e+00	0	28	0	1439694848	71	4387
2026-01-14 10:00:35.32	335.45	6.99	-52.4	-54.4	14.2	0.00e+00	0	27	0	1447034880	71	4415
2026-01-14 10:00:39.30	335.49	6.68	-52.4	-54.4	14.2	0.00e+00	0	28	0	1454374912	71	4424
2026-01-14 10:00:43.28	335.53	6.39	-52.2	-54.1	14.2	0.00e+00	0	27	0	1461714944	70	4544
2026-01-14 10:00:47.27	335.57	6.09	-52.6	-54.7	14.0	0.00e+00	0	27	0	1469054976	70	4824
2026-01-14 10:00:51.24	335.62	5.80	-52.5	-54.6	14.1	0.00e+00	0	27	0	1476395008	71	4519
2026-01-14 10:00:55.22	335.66	5.51	-52.6	-54.7	14.0	0.00e+00	0	27	0	1483735040	71	4563
2026-01-14 10:00:59.20	335.70	5.22	-52.6	-54.7	14.0	0.00e+00	0	27	0	1491075072	71	4569
2026-01-14 10:01:03.17	335.74	4.94	-58.3	-70.1	4.7	3.18e-04	5	27	0	1499463680	81	15142
2026-01-14 10:01:07.19	335.78	4.65	-59.8	-75.9	3.8	1.49e+00	0	28	104	1499463680	84	24793
2026-01-14 10:01:11.22	335.81	4.37	-60.3	-76.3	3.8	1.49e+00	0	28	104	1499463680	85	24595
2026-01-14 10:01:15.25	335.85	4.10	-60.5	-76.5	3.8	1.49e+00	0	27	104	1499463680	86	23833
2026-01-14 10:01:19.26	335.89	3.82	-60.6	-76.6	3.8	1.49e+00	0	28	104	1499463680	86	24115
2026-01-14 10:01:23.28	335.93	3.55	-60.7	-76.8	3.8	1.49e+00	0	28	104	1499463680	86	24431
2026-01-14 10:01:27.28	335.97	3.28	-60.6	-76.6	3.8	1.49e+00	0	28	104	1499463680	86	24122
2026-01-14 10:01:31.26	336.00	3.02	-60.5	-76.6	3.8	1.49e+00	0	28	104	1499463680	86	24014
2026-01-14 10:01:35.24	336.04	2.76	-60.5	-76.6	3.8	1.49e+00	0	28	104	1499463680	86	23890
2026-01-14 10:01:39.22	336.08	2.50	-60.5	-76.5	3.8	1.49e+00	0	27	104	1499463680	86	23769
2026-01-14 10:01:43.19	336.11	2.24	-60.4	-76.5	3.8	1.49e+00	0	28	104	1499463680	86	23797
2026-01-14 10:01:47.17	336.15	1.99	-60.4	-76.5	3.8	1.49e+00	0	27	104	1499463680	86	23723

#Closed at: 2026-01-14 10:01:49
#Recorded file [1499 MB]: D:/lorett/data/31004_260114_124719.dat