passes_logs/2026/01/14/R3.2S_Murmansk/R3.2S_Murmansk__20260114_212047_NOAA_21_JPSS-2_rec.log

#Pass ID: 20260114_212047_NOAA 21 (JPSS-2)
#Satellite: NOAA 21 (JPSS-2)
#Configuration: NOAA-21
#almurnet v.1.7.20251203
#Start time: 2026-01-14 21:20:49

#Version: 2.2.20231116
#Station: R3.2S_Murmansk
#Location: 33.079688 lon 68.888172 lat
#TLE: 1 54234U 22150A   26014.58979933  .00000039  00000+0  39403-4 0  9998
#TLE: 2 54234  98.7497 315.4945 0000653 294.6373  65.4735 14.19534652164756

#Time	Az	El	Level	Level2	SNR	BER	BlckErr	Temp	State	Recorded	gain1	gain2
2026-01-14 21:20:49.35	18.51	2.09	-58.0	-71.7	3.8	1.49e+00	0	26	0	0	82	17116
2026-01-14 21:20:52.35	18.80	2.22	-58.0	-71.5	3.8	1.49e+00	0	26	104	0	81	17831
2026-01-14 21:20:55.36	19.09	2.36	-58.0	-71.6	3.8	1.49e+00	0	26	104	0	81	18058
2026-01-14 21:20:58.36	19.39	2.50	-58.0	-71.6	3.8	1.49e+00	0	26	104	0	81	17968
2026-01-14 21:21:01.36	19.69	2.63	-58.0	-71.5	3.8	1.49e+00	0	26	104	0	81	17869
2026-01-14 21:21:04.36	19.99	2.77	-58.0	-71.6	3.8	1.49e+00	0	26	104	0	81	18073
2026-01-14 21:21:07.37	20.29	2.90	-58.0	-71.7	3.8	1.49e+00	0	27	104	0	81	18255
2026-01-14 21:21:10.39	20.60	3.04	-58.0	-71.7	3.8	1.49e+00	0	27	104	0	81	18229
2026-01-14 21:21:13.40	20.91	3.18	-58.0	-71.5	3.8	1.49e+00	0	27	104	0	81	17867
2026-01-14 21:21:16.41	21.22	3.31	-58.0	-71.6	3.8	1.49e+00	0	27	104	0	81	17975
2026-01-14 21:21:19.40	21.54	3.45	-58.0	-71.8	3.8	1.49e+00	0	27	104	0	81	18464
2026-01-14 21:21:22.42	21.86	3.58	-58.0	-71.7	3.8	1.49e+00	0	27	104	0	81	18268
2026-01-14 21:21:25.43	22.18	3.72	-58.0	-71.8	3.8	1.49e+00	0	27	104	0	81	18454
2026-01-14 21:21:28.44	22.50	3.86	-58.0	-71.7	3.8	1.49e+00	0	27	104	0	81	18153
2026-01-14 21:21:31.45	22.83	3.99	-58.0	-71.7	3.8	1.49e+00	0	27	104	0	81	18255
2026-01-14 21:21:34.44	23.16	4.13	-58.0	-71.6	3.8	1.49e+00	0	27	104	0	81	17889
2026-01-14 21:21:37.44	23.49	4.26	-57.9	-70.3	3.9	1.49e+00	0	27	104	0	81	15497
2026-01-14 21:21:40.43	23.82	4.40	-58.0	-71.0	3.8	1.49e+00	0	27	104	0	81	16756
2026-01-14 21:21:43.43	24.16	4.53	-57.4	-65.5	5.3	9.32e-01	0	27	0	0	81	8958
2026-01-14 21:21:46.43	24.50	4.67	-56.3	-61.2	8.6	1.38e-02	0	27	0	9437184	79	6098
2026-01-14 21:21:49.42	24.85	4.80	-55.9	-60.2	9.4	4.86e-03	0	27	0	18874368	77	6116
2026-01-14 21:21:52.42	25.19	4.94	-56.4	-61.6	8.2	2.20e-02	0	27	0	28311552	77	7176
2026-01-14 21:21:55.42	25.54	5.07	-56.3	-61.2	8.8	2.20e-06	0	27	0	37748736	77	6848
2026-01-14 21:21:58.40	25.89	5.21	-55.6	-59.4	10.3	1.75e-05	0	28	0	44040192	76	5900
2026-01-14 21:22:01.41	26.25	5.34	-52.7	-54.7	13.3	0.00e+00	0	27	0	52428800	72	4306
2026-01-14 21:22:04.41	26.61	5.47	-52.6	-54.5	13.3	0.00e+00	0	27	0	61865984	71	4492
2026-01-14 21:22:07.39	26.97	5.61	-52.4	-54.3	13.4	0.00e+00	0	27	0	71303168	71	4369
2026-01-14 21:22:10.40	27.34	5.74	-52.5	-54.4	13.3	0.00e+00	0	28	0	80740352	71	4437
2026-01-14 21:22:13.39	27.70	5.87	-52.0	-53.8	13.6	0.00e+00	0	27	0	90177536	70	4374
2026-01-14 21:22:16.41	28.08	6.01	-51.9	-53.6	13.7	0.00e+00	0	28	0	99614720	70	4289
2026-01-14 21:22:19.42	28.45	6.14	-52.0	-53.8	13.6	0.00e+00	0	28	0	109051904	70	4386
2026-01-14 21:22:22.42	28.83	6.27	-51.9	-53.7	13.7	0.00e+00	0	28	0	118489088	70	4325
2026-01-14 21:22:25.43	29.22	6.41	-52.1	-53.9	13.6	0.00e+00	0	28	0	127926272	70	4439
2026-01-14 21:22:28.44	29.60	6.54	-52.0	-53.8	13.6	0.00e+00	0	28	0	137363456	70	4383
2026-01-14 21:22:31.43	29.99	6.67	-52.1	-53.9	13.6	0.00e+00	0	28	0	146800640	70	4403
2026-01-14 21:22:34.44	30.38	6.80	-51.7	-53.4	13.8	0.00e+00	0	28	0	156237824	69	4412
2026-01-14 21:22:37.44	30.78	6.93	-51.8	-53.6	13.7	0.00e+00	0	28	0	165675008	69	4505
2026-01-14 21:22:40.45	31.18	7.06	-52.1	-53.8	13.6	0.00e+00	0	28	0	175112192	69	4647
2026-01-14 21:22:43.44	31.58	7.19	-51.6	-53.3	13.8	0.00e+00	0	28	0	184549376	69	4375
2026-01-14 21:22:46.45	31.99	7.32	-51.8	-53.6	13.7	0.00e+00	0	28	0	193986560	69	4496
2026-01-14 21:22:49.46	32.40	7.45	-51.4	-53.0	14.0	0.00e+00	0	28	0	203423744	69	4214
2026-01-14 21:22:52.45	32.81	7.58	-51.5	-53.1	13.9	0.00e+00	0	28	0	212860928	69	4273
2026-01-14 21:22:55.46	33.23	7.70	-51.4	-53.0	14.0	0.00e+00	0	28	0	222298112	69	4224
2026-01-14 21:22:58.45	33.64	7.83	-51.5	-53.1	14.0	0.00e+00	0	28	0	231735296	69	4277
2026-01-14 21:23:01.44	34.06	7.96	-51.5	-53.1	13.9	0.00e+00	0	28	0	240123904	69	4282
2026-01-14 21:23:04.44	34.49	8.08	-51.5	-53.1	14.0	0.00e+00	0	28	0	249561088	69	4277
2026-01-14 21:23:07.44	34.92	8.20	-51.5	-53.1	14.0	0.00e+00	0	28	0	258998272	69	4263
2026-01-14 21:23:10.44	35.36	8.33	-51.3	-52.8	14.1	0.00e+00	0	28	0	268435456	69	4142
2026-01-14 21:23:13.44	35.79	8.45	-51.5	-53.1	14.0	0.00e+00	0	28	0	277872640	69	4252
2026-01-14 21:23:16.44	36.23	8.57	-51.3	-52.9	14.1	0.00e+00	0	28	0	287309824	69	4179
2026-01-14 21:23:19.45	36.68	8.69	-51.3	-52.9	14.1	0.00e+00	0	28	0	296747008	69	4174
2026-01-14 21:23:22.47	37.13	8.82	-51.1	-52.6	14.1	0.00e+00	0	28	0	306184192	68	4291
2026-01-14 21:23:25.46	37.58	8.93	-51.2	-52.7	14.1	0.00e+00	0	28	0	315621376	68	4334
2026-01-14 21:23:28.45	38.03	9.05	-51.3	-52.9	14.0	0.00e+00	0	28	0	325058560	68	4418
2026-01-14 21:23:31.47	38.49	9.17	-51.1	-52.6	14.1	0.00e+00	0	28	0	334495744	68	4284
2026-01-14 21:23:34.48	38.96	9.29	-51.1	-52.6	14.2	0.00e+00	0	28	0	343932928	68	4263
2026-01-14 21:23:37.48	39.42	9.40	-51.2	-52.7	14.1	0.00e+00	0	28	0	353370112	68	4308
2026-01-14 21:23:40.48	39.89	9.52	-51.0	-52.5	14.2	0.00e+00	0	28	0	362807296	68	4230
2026-01-14 21:23:43.49	40.37	9.63	-51.1	-52.6	14.1	0.00e+00	0	28	0	372244480	68	4278
2026-01-14 21:23:46.50	40.85	9.74	-51.1	-52.6	14.2	0.00e+00	0	28	0	381681664	68	4260
2026-01-14 21:23:49.49	41.32	9.85	-51.2	-52.8	14.1	0.00e+00	0	28	0	390070272	68	4348
2026-01-14 21:23:52.48	41.81	9.96	-51.0	-52.5	14.2	0.00e+00	0	28	0	399507456	68	4238
2026-01-14 21:23:55.47	42.29	10.07	-51.0	-52.5	14.2	0.00e+00	0	28	0	408944640	68	4242
2026-01-14 21:23:58.48	42.78	10.17	-51.1	-52.7	14.1	0.00e+00	0	28	0	418381824	68	4295
2026-01-14 21:24:01.48	43.28	10.28	-51.2	-52.7	14.1	0.00e+00	0	28	0	427819008	68	4311
2026-01-14 21:24:04.47	43.77	10.38	-51.1	-52.6	14.1	0.00e+00	0	28	0	437256192	68	4288
2026-01-14 21:24:07.46	44.27	10.49	-51.0	-52.5	14.2	0.00e+00	0	28	0	446693376	68	4204
2026-01-14 21:24:10.45	44.77	10.59	-51.0	-52.5	14.2	0.00e+00	0	28	0	456130560	68	4222
2026-01-14 21:24:13.46	45.28	10.69	-51.1	-52.6	14.1	0.00e+00	0	28	0	465567744	68	4280
2026-01-14 21:24:16.45	45.79	10.78	-51.2	-52.8	14.1	0.00e+00	0	28	0	475004928	68	4372
2026-01-14 21:24:19.43	46.30	10.88	-51.2	-52.7	14.1	0.00e+00	0	28	0	484442112	68	4328
2026-01-14 21:24:22.44	46.82	10.97	-51.1	-52.6	14.1	0.00e+00	0	28	0	493879296	68	4291
2026-01-14 21:24:25.44	47.34	11.07	-51.0	-52.5	14.2	0.00e+00	0	28	0	503316480	68	4209
2026-01-14 21:24:28.45	47.87	11.16	-51.0	-52.5	14.2	0.00e+00	0	28	0	512753664	68	4239
2026-01-14 21:24:31.44	48.39	11.25	-51.0	-52.6	14.2	0.00e+00	0	28	0	522190848	68	4243
2026-01-14 21:24:34.43	48.92	11.33	-51.1	-52.6	14.2	0.00e+00	0	28	0	530579456	68	4257
2026-01-14 21:24:37.43	49.45	11.42	-51.1	-52.6	14.2	0.00e+00	0	28	0	540016640	68	4258
2026-01-14 21:24:40.43	49.99	11.50	-51.0	-52.5	14.3	0.00e+00	0	28	0	549453824	68	4200
2026-01-14 21:24:43.44	50.53	11.58	-51.0	-52.5	14.3	0.00e+00	0	28	0	558891008	68	4194
2026-01-14 21:24:46.44	51.07	11.66	-50.9	-52.3	14.3	0.00e+00	0	28	0	568328192	68	4127
2026-01-14 21:24:49.44	51.62	11.74	-50.9	-52.4	14.3	0.00e+00	0	28	0	577765376	68	4178
2026-01-14 21:24:52.44	52.16	11.82	-51.0	-52.5	14.2	0.00e+00	0	28	0	587202560	68	4213
2026-01-14 21:24:55.44	52.71	11.89	-51.1	-52.6	14.2	0.00e+00	0	28	0	596639744	68	4258
2026-01-14 21:24:58.33	53.25	11.96	-50.8	-52.3	14.3	0.00e+00	0	28	0	606076928	68	4119
2026-01-14 21:25:01.45	53.82	12.03	-50.8	-52.3	14.3	0.00e+00	0	28	0	615514112	68	4100
2026-01-14 21:25:04.29	54.35	12.09	-50.8	-52.3	14.3	0.00e+00	0	28	0	624951296	68	4123
2026-01-14 21:25:07.42	54.94	12.16	-50.9	-52.4	14.3	0.00e+00	0	28	0	634388480	68	4184
2026-01-14 21:25:10.28	55.47	12.22	-50.8	-52.2	14.3	0.00e+00	0	28	0	643825664	68	4096
2026-01-14 21:25:13.41	56.06	12.28	-50.8	-52.2	14.4	0.00e+00	0	28	0	653262848	68	4080
2026-01-14 21:25:16.26	56.60	12.34	-51.0	-52.5	14.2	0.00e+00	0	28	0	661651456	68	4228
2026-01-14 21:25:19.41	57.20	12.40	-50.8	-52.2	14.4	0.00e+00	0	28	0	672137216	68	4082
2026-01-14 21:25:22.26	57.74	12.45	-50.5	-51.9	14.4	0.00e+00	0	28	0	680525824	67	4187
2026-01-14 21:25:25.40	58.34	12.50	-50.4	-51.8	14.4	0.00e+00	0	28	0	691011584	67	4129
2026-01-14 21:25:28.26	58.89	12.54	-50.4	-51.8	14.4	0.00e+00	0	28	0	699400192	67	4129
2026-01-14 21:25:31.41	59.50	12.59	-50.6	-52.0	14.3	0.00e+00	0	28	0	709885952	67	4229
2026-01-14 21:25:34.26	60.05	12.63	-50.5	-52.0	14.3	0.00e+00	0	28	0	718274560	67	4205
2026-01-14 21:25:37.40	60.65	12.67	-50.6	-52.0	14.3	0.00e+00	0	28	0	728760320	67	4237
2026-01-14 21:25:40.26	61.21	12.71	-50.7	-52.1	14.3	0.00e+00	0	28	0	737148928	67	4274
2026-01-14 21:25:43.42	61.82	12.75	-50.7	-52.1	14.3	0.00e+00	0	28	0	746586112	67	4268
2026-01-14 21:25:46.27	62.38	12.78	-50.6	-52.0	14.3	0.00e+00	0	28	0	756023296	67	4237
2026-01-14 21:25:49.41	62.99	12.81	-50.4	-51.8	14.4	0.00e+00	0	28	0	765460480	67	4142
2026-01-14 21:25:52.26	63.55	12.83	-50.3	-51.7	14.5	0.00e+00	0	28	0	774897664	67	4071
2026-01-14 21:25:55.40	64.16	12.86	-50.2	-51.6	14.5	0.00e+00	0	28	0	784334848	67	4020
2026-01-14 21:25:58.24	64.72	12.88	-50.4	-51.8	14.4	0.00e+00	0	28	0	793772032	67	4117
2026-01-14 21:26:01.37	65.34	12.90	-50.5	-51.9	14.3	0.00e+00	0	28	0	803209216	67	4190
2026-01-14 21:26:04.22	65.90	12.92	-50.4	-51.8	14.4	0.00e+00	0	28	0	811597824	67	4141
2026-01-14 21:26:07.37	66.52	12.93	-50.4	-51.8	14.4	0.00e+00	0	28	0	822083584	67	4112
2026-01-14 21:26:10.22	67.08	12.94	-50.4	-51.8	14.4	0.00e+00	0	28	0	830472192	67	4110
2026-01-14 21:26:13.35	67.70	12.95	-50.5	-51.9	14.4	0.00e+00	0	28	0	840957952	67	4180
2026-01-14 21:26:16.22	68.26	12.95	-50.4	-51.8	14.4	0.00e+00	0	28	0	849346560	67	4128
2026-01-14 21:26:19.36	68.88	12.96	-50.5	-51.9	14.4	0.00e+00	0	28	0	859832320	67	4170
2026-01-14 21:26:22.20	69.44	12.96	-50.4	-51.8	14.4	0.00e+00	0	28	0	868220928	67	4128
2026-01-14 21:26:25.34	70.06	12.95	-50.3	-51.7	14.5	0.00e+00	0	28	0	877658112	67	4056
2026-01-14 21:26:28.19	70.63	12.95	-50.3	-51.7	14.5	0.00e+00	0	28	0	887095296	67	4082
2026-01-14 21:26:31.33	71.25	12.94	-50.4	-51.7	14.4	0.00e+00	0	28	0	896532480	67	4098
2026-01-14 21:26:34.20	71.81	12.93	-50.5	-51.9	14.4	0.00e+00	0	28	0	905969664	67	4175
2026-01-14 21:26:37.36	72.43	12.91	-50.5	-51.9	14.4	0.00e+00	0	28	0	915406848	67	4170
2026-01-14 21:26:40.22	73.00	12.89	-50.6	-52.1	14.3	0.00e+00	0	28	0	924844032	67	4247
2026-01-14 21:26:43.36	73.61	12.87	-50.6	-52.0	14.3	0.00e+00	0	28	0	934281216	67	4229
2026-01-14 21:26:46.21	74.17	12.85	-50.6	-52.1	14.3	0.00e+00	0	28	0	943718400	67	4251
2026-01-14 21:26:49.34	74.79	12.83	-50.5	-51.9	14.4	0.00e+00	0	28	0	953155584	67	4159
2026-01-14 21:26:52.19	75.34	12.80	-50.5	-51.9	14.4	0.00e+00	0	28	0	961544192	67	4162
2026-01-14 21:26:55.33	75.96	12.77	-50.5	-51.9	14.4	0.00e+00	0	28	0	972029952	67	4186
2026-01-14 21:26:58.19	76.52	12.74	-50.3	-51.6	14.5	0.00e+00	0	28	0	980418560	67	4044
2026-01-14 21:27:01.31	77.12	12.70	-50.6	-52.0	14.3	0.00e+00	0	28	0	990904320	67	4231
2026-01-14 21:27:04.17	77.68	12.66	-50.4	-51.8	14.4	0.00e+00	0	28	0	999292928	67	4130
2026-01-14 21:27:07.30	78.28	12.62	-50.5	-51.9	14.4	0.00e+00	0	28	0	1008730112	67	4188
2026-01-14 21:27:10.15	78.83	12.58	-50.4	-51.9	14.4	0.00e+00	0	28	0	1018167296	67	4152
2026-01-14 21:27:13.29	79.44	12.53	-50.6	-52.0	14.3	0.00e+00	0	28	0	1027604480	67	4220
2026-01-14 21:27:16.13	79.98	12.48	-50.4	-51.7	14.4	0.00e+00	0	28	0	1037041664	67	4097
2026-01-14 21:27:19.28	80.58	12.43	-50.4	-51.8	14.4	0.00e+00	0	28	0	1046478848	67	4105
2026-01-14 21:27:22.13	81.13	12.38	-50.3	-51.6	14.5	0.00e+00	0	28	0	1055916032	67	4050
2026-01-14 21:27:25.29	81.73	12.32	-50.4	-51.9	14.4	0.00e+00	0	28	0	1065353216	67	4149
2026-01-14 21:27:28.13	82.27	12.26	-50.5	-51.9	14.3	0.00e+00	0	28	0	1073741824	67	4193
2026-01-14 21:27:31.27	82.86	12.20	-50.5	-52.0	14.3	0.00e+00	0	28	0	1084227584	67	4195
2026-01-14 21:27:34.13	83.39	12.14	-50.4	-51.9	14.4	0.00e+00	0	28	0	1092616192	67	4162
2026-01-14 21:27:37.27	83.98	12.07	-50.4	-51.9	14.4	0.00e+00	0	28	0	1103101952	67	4146
2026-01-14 21:27:40.12	84.51	12.01	-50.4	-51.8	14.4	0.00e+00	0	28	0	1111490560	67	4136
2026-01-14 21:27:43.25	85.09	11.93	-50.7	-52.1	14.3	0.00e+00	0	28	0	1121976320	67	4273
2026-01-14 21:27:46.11	85.62	11.87	-50.8	-52.3	14.2	0.00e+00	0	28	0	1130364928	67	4346
2026-01-14 21:27:49.25	86.20	11.79	-50.7	-52.2	14.3	0.00e+00	0	28	0	1139802112	67	4300
2026-01-14 21:27:52.11	86.72	11.72	-50.6	-52.1	14.3	0.00e+00	0	28	0	1149239296	67	4262
2026-01-14 21:27:55.26	87.29	11.63	-50.6	-52.1	14.3	0.00e+00	0	28	0	1158676480	67	4253
2026-01-14 21:27:58.12	87.81	11.56	-50.7	-52.1	14.3	0.00e+00	0	28	0	1168113664	67	4283
2026-01-14 21:28:01.25	88.37	11.47	-50.5	-51.9	14.4	0.00e+00	0	28	0	1177550848	67	4171
2026-01-14 21:28:04.11	88.88	11.39	-50.6	-52.0	14.3	0.00e+00	0	28	0	1186988032	67	4239
2026-01-14 21:28:07.24	89.44	11.30	-50.7	-52.2	14.2	0.00e+00	0	28	0	1196425216	67	4318
2026-01-14 21:28:10.10	89.94	11.21	-50.7	-52.2	14.2	0.00e+00	0	28	0	1205862400	67	4305
2026-01-14 21:28:13.24	90.50	11.12	-50.7	-52.2	14.2	0.00e+00	0	28	0	1215299584	67	4315
2026-01-14 21:28:16.09	90.99	11.03	-50.6	-52.1	14.2	0.00e+00	0	28	0	1223688192	67	4272
2026-01-14 21:28:19.23	91.54	10.93	-50.5	-52.0	14.3	0.00e+00	0	28	0	1234173952	67	4207
2026-01-14 21:28:22.10	92.04	10.84	-50.4	-51.9	14.3	0.00e+00	0	28	0	1242562560	67	4158
2026-01-14 21:28:25.25	92.58	10.74	-50.6	-52.1	14.3	0.00e+00	0	28	0	1253048320	67	4264
2026-01-14 21:28:28.10	93.06	10.65	-50.7	-52.2	14.2	0.00e+00	0	28	0	1261436928	67	4303
2026-01-14 21:28:31.24	93.59	10.54	-50.8	-52.3	14.1	0.00e+00	0	28	0	1270874112	67	4389
2026-01-14 21:28:34.09	94.07	10.45	-50.8	-52.3	14.2	0.00e+00	0	28	0	1280311296	67	4352
2026-01-14 21:28:37.23	94.60	10.34	-50.7	-52.2	14.2	0.00e+00	0	28	0	1289748480	67	4305
2026-01-14 21:28:40.09	95.07	10.24	-50.7	-52.2	14.2	0.00e+00	0	28	0	1299185664	67	4322
2026-01-14 21:28:43.24	95.59	10.13	-50.8	-52.3	14.1	0.00e+00	0	28	0	1308622848	67	4378
2026-01-14 21:28:46.11	96.06	10.02	-51.1	-52.7	14.0	0.00e+00	0	28	0	1318060032	67	4552
2026-01-14 21:28:49.26	96.57	9.91	-51.1	-52.7	14.0	0.00e+00	0	28	0	1327497216	67	4547
2026-01-14 21:28:52.11	97.03	9.80	-51.0	-52.6	14.0	0.00e+00	0	28	0	1336934400	67	4495
2026-01-14 21:28:55.26	97.54	9.69	-51.0	-52.5	14.0	0.00e+00	0	28	0	1346371584	67	4491
2026-01-14 21:28:58.13	97.99	9.58	-51.0	-52.5	14.0	0.00e+00	0	28	0	1355808768	67	4484
2026-01-14 21:29:01.28	98.49	9.46	-51.0	-52.6	14.0	0.00e+00	0	28	0	1365245952	67	4503
2026-01-14 21:29:04.13	98.94	9.35	-51.1	-52.7	14.0	0.00e+00	0	29	0	1374683136	67	4581
2026-01-14 21:29:07.28	99.43	9.23	-51.3	-53.0	13.8	0.00e+00	0	28	0	1384120320	67	4716
2026-01-14 21:29:10.14	99.87	9.11	-51.6	-53.2	13.8	0.00e+00	0	28	0	1392508928	68	4589
2026-01-14 21:29:13.28	100.35	8.99	-51.5	-53.1	13.9	0.00e+00	0	28	0	1402994688	68	4519
2026-01-14 21:29:16.13	100.78	8.88	-51.5	-53.2	13.9	0.00e+00	0	28	0	1411383296	68	4557
2026-01-14 21:29:19.29	101.25	8.75	-51.5	-53.1	13.9	0.00e+00	0	28	0	1421869056	68	4514
2026-01-14 21:29:22.15	101.68	8.63	-51.6	-53.2	13.8	0.00e+00	0	28	0	1430257664	68	4598
2026-01-14 21:29:25.30	102.15	8.51	-51.7	-53.4	13.7	0.00e+00	0	28	0	1440743424	68	4692
2026-01-14 21:29:28.15	102.57	8.39	-51.5	-53.2	13.8	0.00e+00	0	29	0	1449132032	68	4564
2026-01-14 21:29:31.30	103.03	8.26	-51.5	-53.2	13.8	0.00e+00	0	28	0	1459617792	68	4560
2026-01-14 21:29:34.17	103.44	8.14	-51.8	-53.5	13.7	0.00e+00	0	28	0	1468006400	68	4721
2026-01-14 21:29:37.32	103.89	8.01	-51.9	-53.6	13.7	0.00e+00	0	28	0	1477443584	68	4789
2026-01-14 21:29:40.19	104.30	7.89	-51.6	-53.3	13.8	0.00e+00	0	28	0	1486880768	68	4625
2026-01-14 21:29:43.33	104.75	7.75	-51.9	-53.6	13.7	0.00e+00	0	28	0	1496317952	68	4812
2026-01-14 21:29:46.18	105.14	7.63	-52.1	-53.9	13.6	0.00e+00	0	28	0	1505755136	69	4673
2026-01-14 21:29:49.32	105.58	7.50	-51.9	-53.7	13.7	0.00e+00	0	29	0	1515192320	69	4554
2026-01-14 21:29:52.17	105.97	7.38	-51.9	-53.7	13.7	0.00e+00	0	28	0	1524629504	69	4556
2026-01-14 21:29:55.32	106.40	7.24	-52.0	-53.8	13.6	0.00e+00	0	28	0	1534066688	69	4617
2026-01-14 21:29:58.18	106.79	7.12	-52.3	-54.1	13.5	0.00e+00	0	28	0	1543503872	69	4793
2026-01-14 21:30:01.33	107.21	6.98	-52.0	-53.8	13.6	0.00e+00	0	29	0	1552941056	69	4645
2026-01-14 21:30:04.20	107.59	6.85	-52.0	-53.8	13.6	0.00e+00	0	28	0	1561329664	69	4621
2026-01-14 21:30:07.33	108.00	6.72	-52.0	-53.8	13.6	0.00e+00	0	28	0	1571815424	69	4632
2026-01-14 21:30:10.19	108.38	6.59	-52.2	-54.0	13.5	0.00e+00	0	28	0	1580204032	69	4739
2026-01-14 21:30:13.33	108.78	6.45	-51.8	-53.5	13.7	0.00e+00	0	28	0	1590689792	69	4488
2026-01-14 21:30:16.19	109.15	6.32	-52.1	-54.0	13.5	0.00e+00	0	28	0	1599078400	69	4706
2026-01-14 21:30:19.34	109.55	6.18	-52.2	-54.0	13.5	0.00e+00	0	28	0	1609564160	69	4727
2026-01-14 21:30:22.19	109.91	6.06	-52.2	-54.0	13.5	0.00e+00	0	28	0	1617952768	69	4733
2026-01-14 21:30:25.35	110.31	5.92	-52.2	-54.1	13.4	0.00e+00	0	28	0	1628438528	69	4774
2026-01-14 21:30:28.21	110.66	5.79	-52.0	-53.9	13.5	0.00e+00	0	28	0	1636827136	69	4652
2026-01-14 21:30:31.36	111.05	5.65	-52.1	-53.9	13.5	0.00e+00	0	28	0	1647312896	69	4683
2026-01-14 21:30:34.22	111.40	5.52	-52.2	-54.1	13.5	0.00e+00	0	28	0	1655701504	70	4505
2026-01-14 21:30:37.37	111.78	5.38	-52.3	-54.2	13.4	0.00e+00	0	28	0	1665138688	70	4592
2026-01-14 21:30:40.22	112.12	5.25	-52.5	-54.5	13.3	0.00e+00	0	29	0	1674575872	70	4719
2026-01-14 21:30:43.36	112.49	5.11	-52.7	-54.7	13.1	0.00e+00	0	28	0	1684013056	70	4841
2026-01-14 21:30:46.20	112.82	4.98	-58.8	-72.3	3.8	1.09e+00	0	29	104	1692401664	82	18311
2026-01-14 21:30:49.34	113.19	4.83	-59.8	-73.6	3.8	1.49e+00	0	29	104	1692401664	84	19024
2026-01-14 21:30:52.19	113.52	4.71	-60.0	-73.8	3.8	1.49e+00	0	28	104	1692401664	85	18436
2026-01-14 21:30:55.32	113.88	4.56	-60.1	-74.0	3.9	1.49e+00	0	28	104	1692401664	85	18740
2026-01-14 21:30:58.19	114.20	4.43	-60.2	-74.0	3.8	1.49e+00	0	29	104	1692401664	85	18927
2026-01-14 21:31:01.34	114.56	4.29	-60.3	-74.1	3.8	1.49e+00	0	28	104	1692401664	85	19056
2026-01-14 21:31:04.19	114.87	4.16	-60.3	-74.1	3.8	1.49e+00	0	29	104	1692401664	85	19156
2026-01-14 21:31:07.34	115.22	4.02	-60.3	-74.2	3.8	1.49e+00	0	29	104	1692401664	85	19370
2026-01-14 21:31:10.20	115.53	3.89	-60.5	-74.4	3.8	1.49e+00	0	29	104	1692401664	86	18521
2026-01-14 21:31:13.35	115.88	3.74	-60.5	-74.4	3.8	1.49e+00	0	29	104	1692401664	86	18645
2026-01-14 21:31:16.20	116.18	3.61	-60.5	-74.4	3.8	1.49e+00	0	28	104	1692401664	86	18618
2026-01-14 21:31:19.34	116.52	3.47	-60.5	-74.3	3.8	1.49e+00	0	29	104	1692401664	86	18430
2026-01-14 21:31:22.19	116.82	3.34	-60.4	-74.3	3.8	1.49e+00	0	29	104	1692401664	86	18343
2026-01-14 21:31:25.34	117.15	3.19	-60.4	-74.3	3.8	1.49e+00	0	29	104	1692401664	86	18352
2026-01-14 21:31:28.19	117.44	3.06	-60.4	-74.2	3.8	1.49e+00	0	28	104	1692401664	86	18226
2026-01-14 21:31:31.34	117.77	2.92	-60.4	-74.2	3.8	1.49e+00	0	28	104	1692401664	86	18242
2026-01-14 21:31:34.19	118.06	2.79	-60.4	-74.2	3.8	1.49e+00	0	29	104	1692401664	86	18132
2026-01-14 21:31:37.34	118.38	2.65	-60.4	-74.2	3.8	1.49e+00	0	29	104	1692401664	86	18251
2026-01-14 21:31:40.20	118.66	2.52	-60.3	-74.2	3.8	1.49e+00	0	29	104	1692401664	86	18196
2026-01-14 21:31:43.34	118.97	2.37	-60.3	-74.2	3.8	1.49e+00	0	29	104	1692401664	86	18143
2026-01-14 21:31:46.20	119.26	2.24	-60.3	-74.2	3.8	1.49e+00	0	29	104	1692401664	86	18139
2026-01-14 21:31:49.35	119.56	2.10	-60.3	-74.2	3.8	1.49e+00	0	29	104	1692401664	86	18108
2026-01-14 21:31:52.21	119.84	1.97	-60.3	-74.2	3.8	1.49e+00	0	29	104	1692401664	86	18123

#Closed at: 2026-01-14 21:31:54
#Recorded file [1692 MB]: D:/lorett/data/31004_260115_002049.dat