passes_logs/2026/01/14/R3.2S_Murmansk/R3.2S_Murmansk__20260114_022929_FENGYUN_3D_rec.log

#Pass ID: 20260114_022929_FENGYUN 3D
#Satellite: FENGYUN 3D
#Configuration: FENGYUN 3D
#almurnet v.1.7.20251203
#Start time: 2026-01-14 02:29:29

#Version: 2.2.20231116
#Station: R3.2S_Murmansk
#Location: 33.079688 lon 68.888172 lat
#TLE: 1 43010U 17072A   26013.59402220  .00000029  00000+0  35477-4 0  9991
#TLE: 2 43010  98.9934 345.3884 0002280 110.7757 249.3663 14.19695359423056

#Time	Az	El	Level	Level2	SNR	BER	BlckErr	Temp	State	Recorded	gain1	gain2
2026-01-14 02:29:29.80	24.12	2.03	-57.9	-70.8	3.8	8.45e-01	0	25	0	0	82	15410
2026-01-14 02:29:33.82	24.17	2.29	-57.8	-70.5	3.8	8.46e-01	0	25	104	0	80	16823
2026-01-14 02:29:37.86	24.22	2.55	-57.7	-69.7	3.8	8.45e-01	0	25	104	0	80	15279
2026-01-14 02:29:41.90	24.27	2.81	-57.7	-68.9	3.8	8.44e-01	0	25	104	0	80	13901
2026-01-14 02:29:45.94	24.32	3.07	-57.3	-65.7	4.8	8.14e-01	0	26	0	0	80	9647
2026-01-14 02:29:49.97	24.37	3.34	-56.0	-60.9	8.1	5.35e-02	0	26	0	13631488	78	6217
2026-01-14 02:29:54.01	24.42	3.61	-53.7	-56.4	11.5	2.74e-05	0	26	0	36700160	73	4953
2026-01-14 02:29:58.05	24.47	3.89	-51.9	-53.9	13.1	0.00e+00	0	26	0	58720256	70	4407
2026-01-14 02:30:02.08	24.52	4.16	-51.4	-53.3	13.3	0.00e+00	0	26	0	81788928	68	4605
2026-01-14 02:30:06.12	24.57	4.44	-52.0	-54.1	12.8	0.00e+00	0	26	0	103809024	69	4783
2026-01-14 02:30:10.16	24.62	4.72	-54.2	-57.2	10.9	8.01e-05	0	26	0	126877696	73	5439
2026-01-14 02:30:14.19	24.68	5.01	-55.7	-60.1	8.7	1.65e-02	0	26	0	149946368	76	6416
2026-01-14 02:30:18.23	24.73	5.30	-56.1	-60.8	8.3	4.81e-02	0	26	0	171966464	78	6174
2026-01-14 02:30:22.27	24.79	5.59	-53.1	-55.3	12.5	0.00e+00	0	26	0	190840832	72	4626
2026-01-14 02:30:26.31	24.84	5.88	-50.8	-52.5	13.9	0.00e+00	0	26	0	212860928	68	4210
2026-01-14 02:30:30.34	24.90	6.18	-50.3	-51.9	14.0	0.00e+00	0	27	0	235929600	67	4169
2026-01-14 02:30:34.38	24.96	6.48	-49.4	-50.8	14.4	0.00e+00	0	26	0	257949696	65	4114
2026-01-14 02:30:38.41	25.01	6.78	-49.5	-50.9	14.4	0.00e+00	0	27	0	281018368	65	4169
2026-01-14 02:30:42.44	25.07	7.09	-49.3	-50.8	14.4	0.00e+00	0	26	0	304087040	65	4103
2026-01-14 02:30:46.47	25.13	7.40	-49.3	-50.7	14.5	0.00e+00	0	27	0	326107136	65	4067
2026-01-14 02:30:50.51	25.19	7.72	-48.9	-50.3	14.6	0.00e+00	0	27	0	349175808	64	4113
2026-01-14 02:30:54.54	25.25	8.04	-48.9	-50.2	14.6	0.00e+00	0	27	0	372244480	64	4098
2026-01-14 02:30:58.58	25.32	8.36	-48.8	-50.1	14.5	0.00e+00	0	27	0	394264576	63	4267
2026-01-14 02:31:02.61	25.38	8.69	-48.7	-50.0	14.6	0.00e+00	0	27	0	417333248	63	4242
2026-01-14 02:31:06.65	25.45	9.02	-48.7	-50.1	14.6	0.00e+00	0	27	0	439353344	63	4249
2026-01-14 02:31:10.69	25.51	9.36	-48.7	-50.0	14.6	0.00e+00	0	27	0	462422016	63	4208
2026-01-14 02:31:14.72	25.58	9.70	-48.7	-50.0	14.6	0.00e+00	0	27	0	485490688	63	4194
2026-01-14 02:31:18.74	25.65	10.05	-48.6	-49.9	14.6	0.00e+00	0	27	0	507510784	63	4167
2026-01-14 02:31:22.78	25.71	10.40	-48.5	-49.7	14.7	0.00e+00	0	27	0	530579456	63	4097
2026-01-14 02:31:26.82	25.78	10.75	-48.4	-49.6	14.8	0.00e+00	0	27	0	553648128	63	4048
2026-01-14 02:31:30.85	25.86	11.11	-48.4	-49.7	14.8	0.00e+00	0	27	0	575668224	63	4052
2026-01-14 02:31:34.88	25.93	11.48	-48.3	-49.5	14.8	0.00e+00	0	27	0	598736896	63	3993
2026-01-14 02:31:38.92	26.00	11.85	-48.4	-49.6	14.8	0.00e+00	0	27	0	621805568	63	4039
2026-01-14 02:31:42.94	26.08	12.23	-48.3	-49.6	14.8	0.00e+00	0	27	0	643825664	63	4010
2026-01-14 02:31:46.97	26.16	12.61	-48.3	-49.5	14.8	0.00e+00	0	27	0	666894336	63	4002
2026-01-14 02:31:51.01	26.24	13.00	-48.2	-49.5	14.9	0.00e+00	0	27	0	689963008	63	3965
2026-01-14 02:31:55.04	26.32	13.40	-48.1	-49.4	14.8	0.00e+00	0	27	0	711983104	62	4146
2026-01-14 02:31:59.08	26.40	13.80	-48.0	-49.3	14.8	0.00e+00	0	27	0	735051776	62	4104
2026-01-14 02:32:03.11	26.48	14.21	-48.0	-49.2	14.8	0.00e+00	0	27	0	758120448	62	4075
2026-01-14 02:32:07.15	26.57	14.63	-47.5	-48.7	14.9	0.00e+00	0	27	0	780140544	61	4085
2026-01-14 02:32:11.19	26.66	15.05	-47.5	-48.7	14.9	0.00e+00	0	27	0	803209216	61	4070
2026-01-14 02:32:15.22	26.75	15.48	-47.2	-48.3	15.1	0.00e+00	0	27	0	825229312	61	3901
2026-01-14 02:32:19.26	26.84	15.92	-47.0	-48.2	15.0	0.00e+00	0	27	0	848297984	60	4059
2026-01-14 02:32:23.29	26.93	16.37	-46.7	-47.8	15.1	0.00e+00	0	27	0	871366656	60	3903
2026-01-14 02:32:27.33	27.03	16.83	-47.0	-48.2	14.9	0.00e+00	0	27	0	893386752	59	4302
2026-01-14 02:32:31.37	27.13	17.29	-47.0	-48.1	14.9	0.00e+00	0	27	0	916455424	59	4271
2026-01-14 02:32:35.40	27.23	17.76	-46.8	-48.0	15.0	0.00e+00	0	27	0	939524096	59	4204
2026-01-14 02:32:39.44	27.34	18.25	-46.7	-47.8	15.0	0.00e+00	0	27	0	961544192	59	4139
2026-01-14 02:32:43.47	27.44	18.74	-46.7	-47.8	15.0	0.00e+00	0	27	0	984612864	59	4113
2026-01-14 02:32:47.51	27.55	19.24	-46.6	-47.7	15.1	0.00e+00	0	27	0	1007681536	59	4086
2026-01-14 02:32:51.54	27.67	19.75	-46.6	-47.7	15.1	0.00e+00	0	27	0	1029701632	59	4064
2026-01-14 02:32:55.58	27.78	20.28	-46.3	-47.4	15.2	0.00e+00	0	27	0	1052770304	59	3928
2026-01-14 02:32:59.61	27.90	20.81	-46.2	-47.3	15.2	0.00e+00	0	27	0	1075838976	59	3889
2026-01-14 02:33:03.65	28.03	21.36	-46.2	-47.2	15.1	0.00e+00	0	27	0	1097859072	58	4098
2026-01-14 02:33:07.68	28.15	21.91	-46.2	-47.3	15.1	0.00e+00	0	27	0	1120927744	58	4129
2026-01-14 02:33:11.71	28.29	22.48	-46.1	-47.2	15.1	0.00e+00	0	27	0	1143996416	58	4076
2026-01-14 02:33:15.75	28.42	23.07	-46.1	-47.2	15.1	0.00e+00	0	27	0	1166016512	58	4081
2026-01-14 02:33:19.78	28.56	23.66	-45.9	-47.0	15.2	0.00e+00	0	27	0	1189085184	58	3969
2026-01-14 02:33:23.81	28.71	24.27	-45.5	-46.6	15.2	0.00e+00	0	27	0	1212153856	57	4023
2026-01-14 02:33:27.85	28.86	24.90	-45.5	-46.6	15.2	0.00e+00	0	27	0	1234173952	57	4006
2026-01-14 02:33:31.89	29.02	25.54	-45.4	-46.4	15.2	0.00e+00	0	27	0	1257242624	57	3947
2026-01-14 02:33:35.92	29.18	26.19	-45.5	-46.6	15.2	0.00e+00	0	27	0	1279262720	57	4032
2026-01-14 02:33:39.96	29.35	26.86	-45.9	-47.0	15.1	0.00e+00	0	27	0	1302331392	57	4196
2026-01-14 02:33:43.98	29.52	27.55	-45.6	-46.7	15.1	0.00e+00	0	27	0	1325400064	57	4071
2026-01-14 02:33:48.02	29.70	28.26	-45.6	-46.7	15.1	0.00e+00	0	27	0	1347420160	57	4054
2026-01-14 02:33:52.06	29.89	28.98	-45.3	-46.3	15.3	0.00e+00	0	27	0	1370488832	57	3912
2026-01-14 02:33:56.10	30.09	29.73	-45.6	-46.7	15.2	0.00e+00	0	27	0	1393557504	57	4067
2026-01-14 02:34:00.14	30.29	30.49	-45.8	-46.8	15.1	0.00e+00	0	27	0	1415577600	57	4138
2026-01-14 02:34:04.17	30.51	31.27	-45.4	-46.5	15.2	0.00e+00	0	27	0	1438646272	57	3978
2026-01-14 02:34:08.20	30.73	32.08	-45.4	-46.5	15.2	0.00e+00	0	27	0	1461714944	57	3969
2026-01-14 02:34:12.24	30.97	32.90	-45.6	-46.7	15.2	0.00e+00	0	27	0	1483735040	57	4082
2026-01-14 02:34:16.28	31.22	33.75	-45.7	-46.8	15.1	0.00e+00	0	27	0	1506803712	57	4122
2026-01-14 02:34:20.32	31.48	34.63	-45.2	-46.2	15.3	0.00e+00	0	27	0	1529872384	57	3863
2026-01-14 02:34:24.36	31.75	35.53	-45.1	-46.2	15.2	0.00e+00	0	27	0	1551892480	56	4061
2026-01-14 02:34:28.39	32.04	36.45	-45.2	-46.3	15.2	0.00e+00	0	27	0	1574961152	56	4117
2026-01-14 02:34:32.43	32.34	37.40	-44.7	-45.8	15.3	0.00e+00	0	27	0	1598029824	56	3869
2026-01-14 02:34:36.46	32.66	38.38	-44.8	-45.8	15.2	0.00e+00	0	27	0	1620049920	55	4130
2026-01-14 02:34:40.50	33.00	39.38	-44.8	-45.8	15.2	0.00e+00	0	27	0	1643118592	55	4131
2026-01-14 02:34:44.53	33.36	40.41	-44.7	-45.7	15.2	0.00e+00	0	27	0	1665138688	55	4093
2026-01-14 02:34:48.57	33.75	41.48	-45.2	-46.2	15.1	0.00e+00	0	27	0	1688207360	55	4328
2026-01-14 02:34:52.59	34.16	42.57	-45.2	-46.2	15.1	0.00e+00	0	27	0	1711276032	55	4340
2026-01-14 02:34:56.64	34.60	43.70	-45.4	-46.4	15.0	0.00e+00	0	27	0	1733296128	55	4439
2026-01-14 02:35:00.68	35.07	44.86	-45.9	-47.0	15.1	0.00e+00	0	27	0	1756364800	57	4207
2026-01-14 02:35:04.71	35.57	46.05	-45.7	-46.8	15.1	0.00e+00	0	27	0	1779433472	57	4115
2026-01-14 02:35:08.74	36.11	47.27	-45.7	-46.8	15.1	0.00e+00	0	27	0	1801453568	57	4103
2026-01-14 02:35:12.78	36.70	48.53	-45.7	-46.7	15.1	0.00e+00	0	27	0	1824522240	57	4079
2026-01-14 02:35:16.81	37.33	49.82	-45.9	-47.0	15.1	0.00e+00	0	27	0	1847590912	57	4216
2026-01-14 02:35:20.85	38.02	51.15	-46.2	-47.3	15.0	0.00e+00	0	27	0	1869611008	57	4352
2026-01-14 02:35:24.88	38.78	52.50	-45.8	-46.9	15.1	0.00e+00	0	27	0	1892679680	57	4175
2026-01-14 02:35:28.92	39.60	53.90	-46.9	-48.0	15.0	0.00e+00	0	27	0	1915748352	59	4218
2026-01-14 02:35:32.95	40.51	55.32	-46.8	-47.9	15.1	0.00e+00	0	27	0	1937768448	60	3953
2026-01-14 02:35:36.98	41.52	56.78	-47.0	-48.2	15.0	0.00e+00	0	27	0	1960837120	59	4297
2026-01-14 02:35:41.02	42.63	58.27	-46.5	-47.6	15.1	0.00e+00	0	27	0	1983905792	59	4032
2026-01-14 02:35:45.06	43.88	59.78	-46.5	-47.6	15.0	0.00e+00	0	27	0	2005925888	58	4279
2026-01-14 02:35:49.09	45.28	61.32	-45.5	-46.6	15.2	0.00e+00	0	27	0	2028994560	57	4025
2026-01-14 02:35:53.12	46.87	62.87	-45.0	-46.0	15.2	0.00e+00	0	27	0	2051014656	56	3996
2026-01-14 02:35:57.16	48.68	64.45	-44.9	-45.9	15.3	0.00e+00	0	27	0	2074083328	56	3937
2026-01-14 02:36:01.19	50.74	66.03	-44.9	-45.9	15.3	0.00e+00	0	27	0	2097152000	56	3933
2026-01-14 02:36:05.23	53.14	67.61	-45.2	-46.3	15.2	0.00e+00	0	27	0	2119172096	56	4104
2026-01-14 02:36:09.26	55.92	69.18	-45.0	-46.0	15.2	0.00e+00	0	27	0	2142240768	56	4004
2026-01-14 02:36:13.30	59.20	70.72	-44.3	-45.3	15.3	0.00e+00	0	27	0	2165309440	55	3884
2026-01-14 02:36:17.33	63.06	72.21	-44.1	-45.1	15.2	0.00e+00	0	27	0	2187329536	54	4021
2026-01-14 02:36:21.36	67.65	73.63	-44.0	-45.0	15.3	0.00e+00	0	27	0	2210398208	54	3984
2026-01-14 02:36:25.39	73.12	74.95	-43.9	-44.9	15.2	0.00e+00	0	27	0	2232418304	53	4171
2026-01-14 02:36:29.43	79.63	76.13	-43.5	-44.5	15.3	0.00e+00	0	27	0	2255486976	53	3976
2026-01-14 02:36:33.47	87.28	77.11	-43.5	-44.5	15.3	0.00e+00	0	27	0	2278555648	53	3983
2026-01-14 02:36:37.50	96.02	77.84	-43.2	-44.1	15.2	0.00e+00	0	28	0	2301624320	52	4047
2026-01-14 02:36:41.54	105.67	78.27	-43.6	-44.6	15.2	0.00e+00	0	27	0	2323644416	52	4283
2026-01-14 02:36:45.57	115.74	78.35	-43.3	-44.3	15.2	0.00e+00	0	27	0	2346713088	52	4113
2026-01-14 02:36:49.60	125.65	78.08	-43.2	-44.2	15.2	0.00e+00	0	27	0	2369781760	52	4086
2026-01-14 02:36:53.64	134.88	77.49	-43.3	-44.2	15.2	0.00e+00	0	27	0	2391801856	52	4097
2026-01-14 02:36:57.67	143.05	76.62	-43.2	-44.1	15.2	0.00e+00	0	27	0	2414870528	52	4037
2026-01-14 02:37:01.67	150.04	75.54	-43.5	-44.5	15.2	0.00e+00	0	27	0	2436890624	52	4210
2026-01-14 02:37:05.71	156.00	74.28	-43.9	-44.9	15.2	0.00e+00	0	27	0	2459959296	53	4172
2026-01-14 02:37:09.75	161.01	72.90	-44.5	-45.5	15.2	0.00e+00	0	27	0	2481979392	54	4222
2026-01-14 02:37:13.78	165.21	71.44	-44.8	-45.8	15.2	0.00e+00	0	27	0	2505048064	55	4130
2026-01-14 02:37:17.81	168.75	69.91	-44.5	-45.5	15.2	0.00e+00	0	27	0	2528116736	55	3973
2026-01-14 02:37:21.86	171.77	68.35	-45.0	-46.1	15.1	0.00e+00	0	27	0	2551185408	55	4252
2026-01-14 02:37:25.90	174.34	66.77	-44.7	-45.7	15.2	0.00e+00	0	27	0	2573205504	55	4087
2026-01-14 02:37:29.93	176.56	65.19	-44.6	-45.6	15.2	0.00e+00	0	27	0	2596274176	55	4011
2026-01-14 02:37:33.98	178.49	63.60	-44.6	-45.6	15.2	0.00e+00	0	27	0	2618294272	55	4015
2026-01-14 02:37:38.01	180.17	62.03	-45.1	-46.1	15.1	0.00e+00	0	27	0	2641362944	55	4291
2026-01-14 02:37:42.05	181.66	60.48	-45.8	-46.9	15.0	0.00e+00	0	27	0	2664431616	56	4412
2026-01-14 02:37:46.08	182.98	58.95	-46.3	-47.4	15.0	0.00e+00	0	27	0	2686451712	57	4401
2026-01-14 02:37:50.12	184.16	57.45	-45.9	-47.0	15.1	0.00e+00	0	27	0	2709520384	57	4204
2026-01-14 02:37:54.15	185.21	55.97	-46.4	-47.5	15.1	0.00e+00	0	27	0	2732589056	58	4217
2026-01-14 02:37:58.19	186.17	54.53	-46.3	-47.4	15.1	0.00e+00	0	27	0	2754609152	58	4178
2026-01-14 02:38:02.22	187.03	53.12	-46.3	-47.3	15.1	0.00e+00	0	27	0	2777677824	58	4143
2026-01-14 02:38:06.26	187.82	51.73	-46.0	-47.0	15.2	0.00e+00	0	27	0	2800746496	58	3997
2026-01-14 02:38:10.30	188.54	50.39	-46.3	-47.4	15.1	0.00e+00	0	27	0	2822766592	58	4162
2026-01-14 02:38:14.33	189.19	49.08	-45.8	-46.8	15.3	0.00e+00	0	27	0	2845835264	58	3901
2026-01-14 02:38:18.36	189.80	47.80	-45.4	-46.5	15.2	0.00e+00	0	27	0	2868903936	57	3968
2026-01-14 02:38:22.39	190.36	46.56	-45.3	-46.3	15.3	0.00e+00	0	27	0	2890924032	57	3902
2026-01-14 02:38:26.42	190.88	45.35	-45.3	-46.3	15.3	0.00e+00	0	27	0	2913992704	57	3907
2026-01-14 02:38:30.47	191.37	44.17	-45.4	-46.5	15.2	0.00e+00	0	27	0	2937061376	57	3970
2026-01-14 02:38:34.50	191.82	43.03	-45.3	-46.4	15.3	0.00e+00	0	27	0	2959081472	57	3930
2026-01-14 02:38:38.54	192.24	41.92	-45.3	-46.4	15.3	0.00e+00	0	28	0	2982150144	57	3922
2026-01-14 02:38:42.57	192.64	40.84	-45.2	-46.2	15.2	0.00e+00	0	28	0	3004170240	56	4070
2026-01-14 02:38:46.61	193.01	39.78	-45.1	-46.1	15.2	0.00e+00	0	27	0	3027238912	56	4033
2026-01-14 02:38:50.65	193.36	38.76	-45.0	-46.0	15.2	0.00e+00	0	27	0	3050307584	56	3975
2026-01-14 02:38:54.68	193.69	37.77	-44.8	-45.9	15.3	0.00e+00	0	27	0	3072327680	56	3919
2026-01-14 02:38:58.71	194.00	36.81	-44.8	-45.8	15.3	0.00e+00	0	27	0	3095396352	56	3901
2026-01-14 02:39:02.74	194.29	35.87	-44.9	-45.9	15.3	0.00e+00	0	27	0	3117416448	56	3951
2026-01-14 02:39:06.78	194.57	34.96	-45.4	-46.4	15.1	0.00e+00	0	27	0	3140485120	56	4190
2026-01-14 02:39:10.83	194.84	34.07	-45.2	-46.3	15.2	0.00e+00	0	28	0	3163553792	56	4116
2026-01-14 02:39:14.85	195.09	33.21	-45.1	-46.1	15.2	0.00e+00	0	27	0	3186622464	56	4033
2026-01-14 02:39:18.89	195.33	32.37	-45.1	-46.1	15.2	0.00e+00	0	28	0	3208642560	56	4027
2026-01-14 02:39:22.93	195.56	31.55	-45.3	-46.3	15.1	0.00e+00	0	27	0	3231711232	56	4129
2026-01-14 02:39:26.96	195.78	30.75	-45.5	-46.6	15.1	0.00e+00	0	27	0	3254779904	56	4254
2026-01-14 02:39:31.00	195.98	29.98	-45.5	-46.5	15.1	0.00e+00	0	27	0	3276800000	56	4241
2026-01-14 02:39:35.05	196.19	29.22	-45.5	-46.5	15.1	0.00e+00	0	27	0	3299868672	56	4211
2026-01-14 02:39:39.07	196.38	28.49	-45.5	-46.6	15.1	0.00e+00	0	27	0	3321888768	56	4265
2026-01-14 02:39:43.11	196.56	27.77	-45.4	-46.5	15.1	0.00e+00	0	27	0	3344957440	56	4225
2026-01-14 02:39:47.14	196.74	27.07	-45.5	-46.6	15.1	0.00e+00	0	27	0	3368026112	56	4250
2026-01-14 02:39:51.18	196.91	26.39	-45.3	-46.3	15.1	0.00e+00	0	27	0	3390046208	56	4117
2026-01-14 02:39:55.21	197.07	25.73	-45.3	-46.4	15.1	0.00e+00	0	27	0	3413114880	56	4150
2026-01-14 02:39:59.26	197.23	25.08	-45.5	-46.6	15.1	0.00e+00	0	27	0	3436183552	56	4268
2026-01-14 02:40:03.29	197.38	24.44	-45.9	-47.0	15.0	0.00e+00	0	27	0	3458203648	56	4449
2026-01-14 02:40:07.33	197.53	23.82	-46.0	-47.1	15.0	0.00e+00	0	27	0	3481272320	57	4262
2026-01-14 02:40:11.37	197.67	23.22	-46.1	-47.2	15.0	0.00e+00	0	27	0	3504340992	57	4327
2026-01-14 02:40:15.41	197.80	22.63	-46.2	-47.3	15.0	0.00e+00	0	28	0	3526361088	57	4348
2026-01-14 02:40:19.45	197.94	22.05	-46.0	-47.1	15.0	0.00e+00	0	27	0	3549429760	57	4271
2026-01-14 02:40:23.49	198.06	21.48	-46.1	-47.2	15.0	0.00e+00	0	27	0	3572498432	57	4333
2026-01-14 02:40:27.53	198.19	20.93	-46.2	-47.3	15.0	0.00e+00	0	27	0	3594518528	57	4362
2026-01-14 02:40:31.57	198.31	20.39	-46.5	-47.6	15.0	0.00e+00	0	27	0	3617587200	58	4289
2026-01-14 02:40:35.61	198.42	19.86	-46.5	-47.6	15.0	0.00e+00	0	27	0	3640655872	58	4247
2026-01-14 02:40:39.64	198.54	19.34	-46.6	-47.7	15.0	0.00e+00	0	28	0	3662675968	58	4324
2026-01-14 02:40:43.68	198.65	18.83	-46.8	-47.9	14.9	0.00e+00	0	27	0	3685744640	58	4430
2026-01-14 02:40:47.71	198.75	18.34	-47.0	-48.1	14.9	0.00e+00	0	27	0	3708813312	59	4290
2026-01-14 02:40:51.74	198.86	17.85	-47.1	-48.3	14.9	0.00e+00	0	28	0	3730833408	59	4366
2026-01-14 02:40:55.77	198.96	17.37	-47.3	-48.5	14.8	0.00e+00	0	27	0	3753902080	59	4473
2026-01-14 02:40:59.81	199.06	16.90	-47.1	-48.3	14.9	0.00e+00	0	27	0	3776970752	60	4115
2026-01-14 02:41:03.85	199.15	16.44	-47.3	-48.4	14.9	0.00e+00	0	27	0	3798990848	60	4189
2026-01-14 02:41:07.88	199.25	15.99	-47.4	-48.6	14.8	0.00e+00	0	27	0	3822059520	60	4257
2026-01-14 02:41:11.91	199.34	15.55	-47.5	-48.7	14.8	0.00e+00	0	27	0	3845128192	60	4299
2026-01-14 02:41:15.96	199.43	15.11	-47.7	-48.8	14.7	0.00e+00	0	27	0	3867148288	60	4383
2026-01-14 02:41:20.00	199.51	14.68	-47.7	-48.9	14.7	0.00e+00	0	27	0	3890216960	60	4427
2026-01-14 02:41:24.03	199.60	14.26	-47.7	-48.9	14.7	0.00e+00	0	27	0	3912237056	60	4420
2026-01-14 02:41:28.07	199.68	13.85	-47.8	-49.0	14.7	0.00e+00	0	27	0	3935305728	60	4449
2026-01-14 02:41:32.10	199.76	13.44	-47.8	-49.0	14.7	0.00e+00	0	28	0	3958374400	60	4451
2026-01-14 02:41:36.13	199.84	13.04	-47.8	-49.0	14.7	0.00e+00	0	27	0	3980394496	60	4483
2026-01-14 02:41:40.17	199.92	12.65	-47.9	-49.1	14.7	0.00e+00	0	27	0	4003463168	61	4250
2026-01-14 02:41:44.20	199.99	12.26	-48.0	-49.2	14.7	0.00e+00	0	27	0	4026531840	61	4311
2026-01-14 02:41:48.23	200.07	11.88	-48.1	-49.3	14.6	0.00e+00	0	27	0	4048551936	61	4378
2026-01-14 02:41:52.27	200.14	11.50	-48.4	-49.6	14.6	0.00e+00	0	27	0	4071620608	61	4531
2026-01-14 02:41:56.31	200.21	11.13	-54.9	-67.8	3.8	8.46e-01	0	27	104	4078960640	76	15552
2026-01-14 02:42:00.35	200.28	10.77	-54.9	-67.7	3.8	8.46e-01	0	27	104	4078960640	76	15365
2026-01-14 02:42:04.39	200.35	10.41	-54.9	-67.9	3.8	8.46e-01	0	27	104	4078960640	76	15628
2026-01-14 02:42:08.42	200.42	10.05	-54.9	-67.8	3.8	8.46e-01	0	27	104	4078960640	76	15528
2026-01-14 02:42:12.45	200.48	9.71	-54.9	-67.8	3.8	8.45e-01	0	28	104	4078960640	76	15428
2026-01-14 02:42:16.49	200.55	9.36	-54.9	-67.9	3.8	8.45e-01	0	27	104	4078960640	76	15610
2026-01-14 02:42:20.53	200.61	9.02	-54.9	-67.9	3.8	8.46e-01	0	27	104	4078960640	76	15624
2026-01-14 02:42:24.56	200.67	8.69	-54.9	-67.9	3.8	8.46e-01	0	27	104	4078960640	76	15654
2026-01-14 02:42:28.59	200.74	8.36	-54.9	-67.9	3.8	8.45e-01	0	27	104	4078960640	76	15633
2026-01-14 02:42:32.63	200.80	8.03	-54.9	-67.8	3.8	8.45e-01	0	27	104	4078960640	76	15573
2026-01-14 02:42:36.66	200.85	7.71	-54.9	-67.8	3.8	8.46e-01	0	28	104	4078960640	76	15474
2026-01-14 02:42:40.70	200.91	7.39	-54.9	-67.8	3.8	8.46e-01	0	28	104	4078960640	76	15539
2026-01-14 02:42:44.74	200.97	7.08	-54.9	-67.7	3.8	8.46e-01	0	28	104	4078960640	76	15281
2026-01-14 02:42:48.77	201.03	6.77	-54.9	-67.9	3.8	8.45e-01	0	28	104	4078960640	76	15638
2026-01-14 02:42:52.80	201.08	6.46	-54.9	-67.9	3.8	8.46e-01	0	28	104	4078960640	76	15692
2026-01-14 02:42:56.84	201.14	6.16	-54.9	-67.9	3.8	8.46e-01	0	28	104	4078960640	76	15630
2026-01-14 02:43:00.87	201.19	5.86	-54.9	-67.9	3.8	8.46e-01	0	28	104	4078960640	76	15648
2026-01-14 02:43:04.91	201.24	5.56	-54.9	-67.9	3.8	8.45e-01	0	28	104	4078960640	76	15721
2026-01-14 02:43:08.95	201.30	5.27	-54.9	-67.9	3.8	8.45e-01	0	28	104	4078960640	76	15632
2026-01-14 02:43:12.98	201.35	4.98	-54.9	-67.8	3.8	8.46e-01	0	28	104	4078960640	76	15458
2026-01-14 02:43:17.02	201.40	4.69	-54.9	-67.9	3.8	8.45e-01	0	28	104	4078960640	76	15669
2026-01-14 02:43:21.06	201.45	4.41	-54.9	-67.8	3.8	8.46e-01	0	27	104	4078960640	76	15573
2026-01-14 02:43:25.09	201.50	4.13	-54.9	-67.8	3.8	8.46e-01	0	27	104	4078960640	76	15491
2026-01-14 02:43:29.13	201.55	3.85	-54.9	-67.9	3.8	8.45e-01	0	27	104	4078960640	76	15606
2026-01-14 02:43:33.16	201.59	3.57	-54.9	-67.6	3.8	8.46e-01	0	28	104	4078960640	76	15076
2026-01-14 02:43:37.20	201.64	3.30	-54.9	-67.8	3.8	8.45e-01	0	28	104	4078960640	76	15488
2026-01-14 02:43:41.24	201.69	3.03	-54.9	-67.7	3.8	8.45e-01	0	28	104	4078960640	76	15256
2026-01-14 02:43:45.27	201.73	2.76	-54.9	-67.7	3.8	8.46e-01	0	27	104	4078960640	76	15245
2026-01-14 02:43:49.30	201.78	2.50	-54.9	-67.7	3.8	8.45e-01	0	28	104	4078960640	76	15312
2026-01-14 02:43:53.33	201.82	2.24	-54.9	-67.7	3.8	8.45e-01	0	27	104	4078960640	76	15398

#Closed at: 2026-01-14 02:43:57
#Recorded file [4078 MB]: D:/lorett/data/31004_260114_052929.dat