passes_logs/2026/01/14/R3.2S_Murmansk/R3.2S_Murmansk__20260114_090731_FENGYUN_3D_rec.log

#Pass ID: 20260114_090731_FENGYUN 3D
#Satellite: FENGYUN 3D
#Configuration: FENGYUN 3D
#almurnet v.1.7.20251203
#Start time: 2026-01-14 09:07:33

#Version: 2.2.20231116
#Station: R3.2S_Murmansk
#Location: 33.079688 lon 68.888172 lat
#TLE: 1 43010U 17072A   26013.94640698 -.00000044  00000+0  88349-6 0  9999
#TLE: 2 43010  98.9934 345.7464 0002313 110.9627 249.1796 14.19695403423100

#Time	Az	El	Level	Level2	SNR	BER	BlckErr	Temp	State	Recorded	gain1	gain2
2026-01-14 09:07:33.19	96.72	2.11	-58.0	-70.9	3.8	8.46e-01	0	25	0	0	82	15738
2026-01-14 09:07:37.15	96.52	2.35	-57.9	-70.9	3.8	8.45e-01	0	25	104	0	81	16574
2026-01-14 09:07:41.14	96.32	2.59	-58.0	-71.0	3.8	8.46e-01	0	26	104	0	81	16767
2026-01-14 09:07:45.11	96.12	2.83	-58.0	-70.9	3.8	8.46e-01	0	26	104	0	81	16672
2026-01-14 09:07:49.09	95.92	3.08	-58.0	-70.9	3.8	8.45e-01	0	26	104	0	81	16603
2026-01-14 09:07:53.07	95.71	3.33	-58.0	-71.0	3.8	8.46e-01	0	26	104	0	81	16736
2026-01-14 09:07:57.06	95.49	3.58	-58.0	-70.8	3.8	8.45e-01	0	26	104	0	81	16329
2026-01-14 09:08:01.03	95.27	3.83	-58.0	-70.9	3.8	8.46e-01	0	26	104	0	81	16533
2026-01-14 09:08:05.00	95.05	4.08	-57.9	-70.2	3.8	8.46e-01	0	26	104	0	81	15228
2026-01-14 09:08:08.98	94.83	4.33	-57.5	-66.2	4.6	8.23e-01	0	26	0	0	81	9668
2026-01-14 09:08:12.96	94.59	4.59	-56.5	-61.9	7.3	9.80e-02	0	26	0	13631488	79	6589
2026-01-14 09:08:16.92	94.36	4.85	-55.5	-59.6	9.2	8.50e-03	0	27	0	35651584	77	5703
2026-01-14 09:08:20.90	94.12	5.11	-51.6	-53.5	13.3	0.00e+00	0	26	0	57671680	69	4464
2026-01-14 09:08:24.88	93.88	5.37	-57.1	-63.7	6.1	7.00e-02	0	26	0	80740352	79	8097
2026-01-14 09:08:28.89	93.63	5.64	-51.0	-52.8	13.6	0.00e+00	0	26	0	102760448	68	4387
2026-01-14 09:08:32.86	93.38	5.91	-50.2	-51.8	14.0	0.00e+00	0	27	0	124780544	67	4134
2026-01-14 09:08:36.84	93.12	6.18	-49.4	-51.0	14.2	0.00e+00	0	27	0	146800640	65	4228
2026-01-14 09:08:40.82	92.85	6.45	-50.1	-51.7	14.0	0.00e+00	0	27	0	169869312	66	4325
2026-01-14 09:08:44.79	92.59	6.72	-49.4	-51.0	14.2	0.00e+00	0	27	0	191889408	65	4220
2026-01-14 09:08:48.78	92.31	7.00	-49.5	-51.0	14.2	0.00e+00	0	27	0	213909504	65	4242
2026-01-14 09:08:52.75	92.03	7.28	-49.4	-50.9	14.2	0.00e+00	0	27	0	236978176	64	4417
2026-01-14 09:08:56.74	91.75	7.56	-49.0	-50.5	14.3	0.00e+00	0	27	0	258998272	64	4239
2026-01-14 09:09:00.71	91.46	7.84	-49.2	-50.7	14.3	0.00e+00	0	27	0	281018368	64	4336
2026-01-14 09:09:04.68	91.16	8.13	-48.8	-50.2	14.5	0.00e+00	0	27	0	304087040	64	4087
2026-01-14 09:09:08.65	90.86	8.42	-49.0	-50.5	14.4	0.00e+00	0	27	0	326107136	64	4218
2026-01-14 09:09:12.63	90.55	8.71	-49.0	-50.5	14.4	0.00e+00	0	27	0	348127232	64	4218
2026-01-14 09:09:16.61	90.23	9.00	-48.9	-50.4	14.4	0.00e+00	0	27	0	371195904	64	4181
2026-01-14 09:09:20.59	89.91	9.30	-48.8	-50.3	14.4	0.00e+00	0	27	0	393216000	63	4350
2026-01-14 09:09:24.56	89.58	9.59	-48.7	-50.2	14.4	0.00e+00	0	27	0	415236096	63	4326
2026-01-14 09:09:28.53	89.25	9.90	-48.8	-50.3	14.4	0.00e+00	0	27	0	438304768	63	4341
2026-01-14 09:09:32.51	88.90	10.20	-48.7	-50.1	14.5	0.00e+00	0	27	0	460324864	63	4277
2026-01-14 09:09:36.48	88.55	10.51	-48.4	-49.9	14.6	0.00e+00	0	27	0	482344960	63	4160
2026-01-14 09:09:40.46	88.19	10.82	-48.3	-49.7	14.7	0.00e+00	0	27	0	505413632	63	4070
2026-01-14 09:09:44.43	87.83	11.13	-48.2	-49.7	14.7	0.00e+00	0	27	0	527433728	63	4055
2026-01-14 09:09:48.41	87.45	11.44	-48.2	-49.6	14.6	0.00e+00	0	27	0	549453824	62	4267
2026-01-14 09:09:52.39	87.07	11.76	-48.1	-49.5	14.6	0.00e+00	0	27	0	572522496	62	4240
2026-01-14 09:09:56.37	86.68	12.08	-48.1	-49.5	14.7	0.00e+00	0	27	0	594542592	62	4198
2026-01-14 09:10:00.36	86.27	12.41	-47.8	-49.1	14.8	0.00e+00	0	27	0	616562688	62	4047
2026-01-14 09:10:04.33	85.86	12.73	-48.0	-49.4	14.7	0.00e+00	0	27	0	639631360	62	4154
2026-01-14 09:10:08.29	85.45	13.06	-47.9	-49.3	14.7	0.00e+00	0	27	0	661651456	62	4105
2026-01-14 09:10:12.26	85.02	13.39	-47.6	-48.9	14.8	0.00e+00	0	27	0	683671552	61	4178
2026-01-14 09:10:16.24	84.58	13.73	-47.5	-48.9	14.8	0.00e+00	0	27	0	705691648	61	4148
2026-01-14 09:10:20.22	84.13	14.07	-47.5	-48.8	14.8	0.00e+00	0	27	0	728760320	61	4121
2026-01-14 09:10:24.20	83.67	14.41	-47.6	-48.8	14.8	0.00e+00	0	27	0	750780416	61	4112
2026-01-14 09:10:28.18	83.20	14.75	-47.5	-48.7	14.9	0.00e+00	0	27	0	773849088	61	4080
2026-01-14 09:10:32.17	82.71	15.10	-47.4	-48.6	14.9	0.00e+00	0	27	0	795869184	61	4008
2026-01-14 09:10:36.15	82.22	15.45	-47.1	-48.2	14.9	0.00e+00	0	27	0	817889280	60	4082
2026-01-14 09:10:40.13	81.71	15.80	-47.2	-48.4	14.9	0.00e+00	0	27	0	840957952	60	4168
2026-01-14 09:10:44.12	81.19	16.16	-47.1	-48.3	14.9	0.00e+00	0	27	0	862978048	60	4127
2026-01-14 09:10:48.12	80.65	16.52	-47.1	-48.3	14.9	0.00e+00	0	27	0	886046720	60	4118
2026-01-14 09:10:52.10	80.11	16.88	-46.9	-48.0	15.0	0.00e+00	0	27	0	908066816	60	3981
2026-01-14 09:10:56.08	79.55	17.24	-46.7	-47.9	15.1	0.00e+00	0	27	0	930086912	60	3914
2026-01-14 09:11:00.05	78.98	17.61	-47.1	-48.3	14.9	0.00e+00	0	27	0	953155584	59	4365
2026-01-14 09:11:04.03	78.39	17.97	-47.0	-48.1	14.9	0.00e+00	0	27	0	975175680	59	4278
2026-01-14 09:11:08.02	77.79	18.35	-46.9	-48.1	14.9	0.00e+00	0	27	0	997195776	59	4256
2026-01-14 09:11:12.01	77.17	18.72	-46.8	-47.9	15.0	0.00e+00	0	27	0	1020264448	59	4176
2026-01-14 09:11:15.97	76.54	19.09	-46.5	-47.6	15.1	0.00e+00	0	27	0	1042284544	59	4048
2026-01-14 09:11:19.93	75.89	19.47	-46.6	-47.8	15.0	0.00e+00	0	27	0	1064304640	59	4099
2026-01-14 09:11:23.92	75.23	19.85	-46.7	-47.8	15.0	0.00e+00	0	27	0	1087373312	59	4114
2026-01-14 09:11:27.90	74.54	20.23	-46.4	-47.5	15.1	0.00e+00	0	27	0	1109393408	59	3999
2026-01-14 09:11:31.88	73.84	20.61	-46.5	-47.6	15.1	0.00e+00	0	27	0	1131413504	59	4030
2026-01-14 09:11:35.87	73.12	20.99	-46.7	-47.8	15.0	0.00e+00	0	27	0	1154482176	59	4135
2026-01-14 09:11:39.85	72.39	21.38	-46.6	-47.7	15.1	0.00e+00	0	27	0	1176502272	59	4063
2026-01-14 09:11:43.81	71.64	21.76	-46.6	-47.7	15.1	0.00e+00	0	27	0	1198522368	59	4083
2026-01-14 09:11:47.81	70.86	22.14	-46.5	-47.6	15.1	0.00e+00	0	27	0	1221591040	59	4014
2026-01-14 09:11:51.78	70.07	22.53	-46.3	-47.5	15.2	0.00e+00	0	27	0	1243611136	59	3961
2026-01-14 09:11:55.76	69.26	22.91	-46.2	-47.3	15.2	0.00e+00	0	27	0	1265631232	59	3891
2026-01-14 09:11:59.74	68.42	23.30	-45.8	-46.9	15.2	0.00e+00	0	27	0	1288699904	58	3947
2026-01-14 09:12:03.72	67.57	23.68	-46.0	-47.1	15.1	0.00e+00	0	27	0	1310720000	58	4012
2026-01-14 09:12:07.70	66.69	24.06	-46.2	-47.3	15.1	0.00e+00	0	27	0	1333788672	58	4105
2026-01-14 09:12:11.67	65.80	24.44	-46.0	-47.0	15.1	0.00e+00	0	27	0	1355808768	58	4001
2026-01-14 09:12:15.68	64.87	24.82	-45.7	-46.8	15.1	0.00e+00	0	27	0	1377828864	57	4100
2026-01-14 09:12:19.66	63.93	25.19	-45.6	-46.7	15.1	0.00e+00	0	27	0	1400897536	57	4074
2026-01-14 09:12:23.63	62.97	25.56	-45.6	-46.7	15.1	0.00e+00	0	27	0	1422917632	57	4086
2026-01-14 09:12:27.61	61.98	25.93	-45.7	-46.7	15.1	0.00e+00	0	27	0	1444937728	57	4091
2026-01-14 09:12:31.59	60.97	26.29	-45.6	-46.7	15.1	0.00e+00	0	28	0	1468006400	57	4079
2026-01-14 09:12:35.56	59.93	26.64	-45.6	-46.7	15.2	0.00e+00	0	27	0	1490026496	57	4059
2026-01-14 09:12:39.54	58.88	26.99	-45.7	-46.8	15.1	0.00e+00	0	27	0	1512046592	57	4139
2026-01-14 09:12:43.52	57.80	27.34	-45.4	-46.5	15.2	0.00e+00	0	27	0	1535115264	57	3979
2026-01-14 09:12:47.52	56.69	27.67	-45.0	-46.1	15.2	0.00e+00	0	27	0	1557135360	56	4022
2026-01-14 09:12:51.51	55.56	28.00	-45.2	-46.2	15.1	0.00e+00	0	28	0	1580204032	56	4089
2026-01-14 09:12:55.48	54.41	28.32	-45.3	-46.3	15.1	0.00e+00	0	28	0	1602224128	56	4145
2026-01-14 09:12:59.47	53.23	28.63	-45.3	-46.3	15.1	0.00e+00	0	27	0	1624244224	56	4139
2026-01-14 09:13:03.45	52.03	28.93	-45.2	-46.3	15.1	0.00e+00	0	27	0	1647312896	56	4118
2026-01-14 09:13:07.43	50.82	29.22	-45.2	-46.4	15.2	0.00e+00	0	27	0	1669332992	56	4146
2026-01-14 09:13:11.39	49.58	29.49	-44.7	-45.7	15.3	0.00e+00	0	27	0	1691353088	56	3847
2026-01-14 09:13:15.38	48.32	29.75	-44.8	-45.9	15.1	0.00e+00	0	28	0	1713373184	55	4168
2026-01-14 09:13:19.36	47.04	30.00	-44.7	-45.8	15.1	0.00e+00	0	27	0	1736441856	55	4111
2026-01-14 09:13:23.34	45.73	30.24	-44.8	-45.8	15.2	0.00e+00	0	27	0	1758461952	55	4121
2026-01-14 09:13:27.31	44.42	30.46	-44.8	-45.8	15.1	0.00e+00	0	27	0	1781530624	55	4137
2026-01-14 09:13:31.30	43.08	30.66	-44.8	-45.9	15.1	0.00e+00	0	27	0	1803550720	55	4167
2026-01-14 09:13:35.28	41.72	30.85	-44.6	-45.6	15.2	0.00e+00	0	27	0	1825570816	55	4023
2026-01-14 09:13:39.25	40.36	31.02	-44.6	-45.6	15.2	0.00e+00	0	27	0	1848639488	55	4040
2026-01-14 09:13:43.24	38.97	31.17	-44.7	-45.7	15.2	0.00e+00	0	27	0	1870659584	55	4086
2026-01-14 09:13:47.22	37.58	31.31	-44.6	-45.6	15.2	0.00e+00	0	27	0	1892679680	55	4019
2026-01-14 09:13:51.20	36.17	31.42	-44.5	-45.5	15.2	0.00e+00	0	27	0	1915748352	55	3995
2026-01-14 09:13:55.19	34.75	31.52	-44.3	-45.4	15.3	0.00e+00	0	27	0	1937768448	55	3915
2026-01-14 09:13:59.18	33.33	31.60	-44.7	-45.7	15.2	0.00e+00	0	27	0	1959788544	55	4065
2026-01-14 09:14:03.17	31.90	31.65	-44.5	-45.6	15.2	0.00e+00	0	28	0	1982857216	55	4012
2026-01-14 09:14:07.13	30.47	31.69	-44.3	-45.3	15.3	0.00e+00	0	27	0	2004877312	55	3908
2026-01-14 09:14:11.13	29.03	31.71	-44.4	-45.4	15.3	0.00e+00	0	28	0	2027945984	55	3951
2026-01-14 09:14:15.11	27.59	31.70	-44.4	-45.4	15.3	0.00e+00	0	27	0	2049966080	55	3935
2026-01-14 09:14:19.09	26.16	31.68	-44.7	-45.7	15.2	0.00e+00	0	27	0	2071986176	55	4079
2026-01-14 09:14:23.06	24.73	31.63	-44.6	-45.6	15.2	0.00e+00	0	27	0	2095054848	55	4025
2026-01-14 09:14:27.04	23.31	31.57	-44.3	-45.3	15.3	0.00e+00	0	28	0	2117074944	55	3889
2026-01-14 09:14:31.04	21.88	31.49	-44.6	-45.6	15.2	0.00e+00	0	27	0	2140143616	55	4019
2026-01-14 09:14:35.01	20.47	31.38	-45.1	-46.2	15.1	0.00e+00	0	27	0	2162163712	55	4301
2026-01-14 09:14:38.97	19.08	31.26	-44.9	-46.0	15.1	0.00e+00	0	27	0	2184183808	55	4194
2026-01-14 09:14:42.94	17.69	31.12	-44.4	-45.5	15.2	0.00e+00	0	28	0	2206203904	55	3965
2026-01-14 09:14:46.93	16.31	30.96	-44.4	-45.4	15.3	0.00e+00	0	27	0	2229272576	55	3946
2026-01-14 09:14:50.91	14.95	30.78	-44.7	-45.7	15.2	0.00e+00	0	27	0	2251292672	55	4082
2026-01-14 09:14:54.88	13.61	30.59	-44.8	-45.9	15.1	0.00e+00	0	27	0	2273312768	55	4156
2026-01-14 09:14:58.88	12.27	30.38	-44.5	-45.5	15.2	0.00e+00	0	27	0	2296381440	55	3975
2026-01-14 09:15:02.86	10.96	30.15	-44.7	-45.8	15.2	0.00e+00	0	27	0	2318401536	55	4099
2026-01-14 09:15:06.83	9.67	29.91	-44.7	-45.8	15.2	0.00e+00	0	27	0	2340421632	55	4107
2026-01-14 09:15:10.81	8.39	29.66	-45.1	-46.2	15.1	0.00e+00	0	27	0	2363490304	55	4294
2026-01-14 09:15:14.80	7.14	29.39	-45.0	-46.0	15.1	0.00e+00	0	27	0	2385510400	55	4228
2026-01-14 09:15:18.79	5.91	29.11	-44.8	-45.8	15.1	0.00e+00	0	27	0	2407530496	55	4140
2026-01-14 09:15:22.77	4.70	28.82	-44.8	-45.8	15.1	0.00e+00	0	27	0	2430599168	55	4142
2026-01-14 09:15:26.76	3.51	28.51	-44.6	-45.6	15.2	0.00e+00	0	27	0	2452619264	55	4029
2026-01-14 09:15:30.75	2.34	28.20	-44.8	-45.8	15.1	0.00e+00	0	27	0	2475687936	55	4145
2026-01-14 09:15:34.72	1.20	27.88	-44.7	-45.8	15.2	0.00e+00	0	27	0	2497708032	55	4100
2026-01-14 09:15:38.70	0.09	27.55	-45.0	-46.0	15.1	0.00e+00	0	27	0	2519728128	55	4224
2026-01-14 09:15:42.67	358.99	27.21	-45.0	-46.1	15.1	0.00e+00	0	27	0	2542796800	55	4251
2026-01-14 09:15:46.64	357.93	26.87	-45.1	-46.2	15.1	0.00e+00	0	28	0	2564816896	55	4295
2026-01-14 09:15:50.64	356.87	26.51	-45.2	-46.2	15.0	0.00e+00	0	27	0	2587885568	55	4331
2026-01-14 09:15:54.62	355.85	26.15	-45.1	-46.2	15.1	0.00e+00	0	27	0	2609905664	55	4302
2026-01-14 09:15:58.59	354.85	25.79	-45.1	-46.2	15.1	0.00e+00	0	27	0	2631925760	55	4294
2026-01-14 09:16:02.57	353.88	25.43	-45.2	-46.2	15.0	0.00e+00	0	28	0	2653945856	55	4316
2026-01-14 09:16:06.54	352.92	25.06	-45.0	-46.0	15.1	0.00e+00	0	28	0	2677014528	55	4234
2026-01-14 09:16:10.52	351.99	24.68	-45.6	-46.7	15.0	0.00e+00	0	28	0	2699034624	56	4334
2026-01-14 09:16:14.49	351.08	24.31	-45.6	-46.7	15.0	0.00e+00	0	28	0	2722103296	56	4294
2026-01-14 09:16:18.45	350.20	23.93	-45.6	-46.6	15.0	0.00e+00	0	28	0	2744123392	56	4291
2026-01-14 09:16:22.42	349.34	23.55	-45.6	-46.6	15.1	0.00e+00	0	28	0	2766143488	56	4286
2026-01-14 09:16:26.39	348.49	23.17	-45.6	-46.7	15.0	0.00e+00	0	27	0	2788163584	56	4310
2026-01-14 09:16:30.37	347.67	22.78	-45.8	-46.9	15.0	0.00e+00	0	28	0	2811232256	56	4419
2026-01-14 09:16:34.33	346.87	22.40	-45.9	-47.0	15.0	0.00e+00	0	27	0	2833252352	57	4215
2026-01-14 09:16:38.31	346.08	22.02	-45.9	-47.0	15.1	0.00e+00	0	27	0	2855272448	57	4197
2026-01-14 09:16:42.27	345.32	21.64	-45.7	-46.8	15.1	0.00e+00	0	27	0	2877292544	57	4124
2026-01-14 09:16:46.25	344.57	21.25	-45.7	-46.8	15.1	0.00e+00	0	27	0	2900361216	57	4099
2026-01-14 09:16:50.24	343.85	20.87	-45.7	-46.8	15.1	0.00e+00	0	27	0	2922381312	57	4113
2026-01-14 09:16:54.21	343.14	20.49	-46.0	-47.0	15.0	0.00e+00	0	27	0	2944401408	57	4242
2026-01-14 09:16:58.19	342.45	20.11	-46.1	-47.2	15.0	0.00e+00	0	28	0	2967470080	57	4329
2026-01-14 09:17:02.18	341.77	19.73	-46.1	-47.2	15.0	0.00e+00	0	27	0	2989490176	57	4305
2026-01-14 09:17:06.16	341.11	19.35	-46.4	-47.5	14.9	0.00e+00	0	28	0	3012558848	57	4473
2026-01-14 09:17:10.14	340.47	18.98	-46.3	-47.4	15.0	0.00e+00	0	27	0	3034578944	58	4185
2026-01-14 09:17:14.12	339.84	18.60	-46.6	-47.7	14.9	0.00e+00	0	28	0	3056599040	58	4330
2026-01-14 09:17:18.10	339.23	18.23	-46.6	-47.7	14.9	0.00e+00	0	27	0	3079667712	58	4308
2026-01-14 09:17:22.08	338.64	17.86	-46.6	-47.7	14.9	0.00e+00	0	28	0	3101687808	58	4322
2026-01-14 09:17:26.05	338.06	17.49	-46.9	-48.0	14.9	0.00e+00	0	27	0	3123707904	58	4479
2026-01-14 09:17:30.02	337.50	17.13	-46.9	-48.0	14.9	0.00e+00	0	28	0	3146776576	59	4215
2026-01-14 09:17:34.01	336.94	16.77	-47.1	-48.3	14.9	0.00e+00	0	28	0	3168796672	59	4346
2026-01-14 09:17:37.98	336.40	16.41	-47.1	-48.2	15.0	0.00e+00	0	28	0	3190816768	60	4085
2026-01-14 09:17:41.95	335.88	16.05	-46.9	-48.0	15.0	0.00e+00	0	27	0	3213885440	60	3998
2026-01-14 09:17:45.94	335.36	15.70	-47.0	-48.1	15.0	0.00e+00	0	28	0	3235905536	60	4033
2026-01-14 09:17:49.92	334.86	15.35	-47.1	-48.2	15.0	0.00e+00	0	28	0	3257925632	60	4074
2026-01-14 09:17:53.89	334.37	15.00	-47.2	-48.3	14.9	0.00e+00	0	27	0	3280994304	60	4142
2026-01-14 09:17:57.89	333.89	14.65	-47.4	-48.5	14.8	0.00e+00	0	27	0	3303014400	60	4222
2026-01-14 09:18:01.86	333.43	14.31	-47.5	-48.6	14.8	0.00e+00	0	28	0	3325034496	60	4281
2026-01-14 09:18:05.85	332.97	13.97	-47.6	-48.8	14.7	0.00e+00	0	27	0	3348103168	60	4356
2026-01-14 09:18:09.81	332.53	13.64	-47.5	-48.7	14.8	0.00e+00	0	28	0	3370123264	60	4295
2026-01-14 09:18:13.80	332.09	13.30	-47.7	-48.9	14.7	0.00e+00	0	28	0	3392143360	60	4418
2026-01-14 09:18:17.78	331.67	12.97	-47.7	-48.9	14.7	0.00e+00	0	28	0	3415212032	60	4431
2026-01-14 09:18:21.75	331.25	12.64	-47.8	-49.0	14.7	0.00e+00	0	27	0	3437232128	60	4474
2026-01-14 09:18:25.73	330.85	12.32	-47.7	-48.9	14.7	0.00e+00	0	27	0	3459252224	60	4414
2026-01-14 09:18:29.70	330.45	12.00	-47.8	-49.0	14.7	0.00e+00	0	28	0	3482320896	60	4472
2026-01-14 09:18:33.67	330.07	11.68	-48.0	-49.2	14.7	0.00e+00	0	28	0	3504340992	61	4310
2026-01-14 09:18:37.66	329.69	11.36	-48.1	-49.4	14.6	0.00e+00	0	28	0	3526361088	61	4407
2026-01-14 09:18:41.63	329.32	11.05	-48.3	-49.6	14.6	0.00e+00	0	27	0	3549429760	61	4495
2026-01-14 09:18:45.63	328.95	10.73	-48.3	-49.5	14.5	0.00e+00	0	28	0	3571449856	61	4480
2026-01-14 09:18:49.62	328.60	10.43	-48.5	-49.7	14.6	0.00e+00	0	28	0	3594518528	62	4336
2026-01-14 09:18:53.59	328.25	10.12	-48.5	-49.7	14.6	0.00e+00	0	28	0	3616538624	62	4328
2026-01-14 09:18:57.57	327.91	9.82	-48.6	-49.8	14.5	0.00e+00	0	27	0	3638558720	62	4389
2026-01-14 09:19:01.55	327.58	9.52	-48.6	-49.9	14.5	0.00e+00	0	27	0	3661627392	62	4402
2026-01-14 09:19:05.53	327.25	9.22	-48.7	-50.0	14.5	0.00e+00	0	28	0	3683647488	62	4466
2026-01-14 09:19:09.51	326.93	8.93	-48.8	-50.1	14.5	0.00e+00	0	27	0	3705667584	63	4282
2026-01-14 09:19:13.48	326.62	8.63	-48.9	-50.2	14.4	0.00e+00	0	28	0	3727687680	63	4339
2026-01-14 09:19:17.47	326.32	8.34	-48.8	-50.1	14.5	0.00e+00	0	28	0	3750756352	63	4265
2026-01-14 09:19:21.46	326.02	8.06	-48.8	-50.1	14.5	0.00e+00	0	28	0	3772776448	63	4279
2026-01-14 09:19:25.43	325.72	7.77	-49.0	-50.3	14.4	0.00e+00	0	27	0	3795845120	63	4383
2026-01-14 09:19:29.40	325.44	7.49	-49.1	-50.4	14.3	0.00e+00	0	28	0	3817865216	63	4441
2026-01-14 09:19:33.38	325.16	7.21	-49.4	-50.7	14.3	0.00e+00	0	27	0	3839885312	64	4339
2026-01-14 09:19:37.36	324.88	6.93	-49.4	-50.8	14.2	0.00e+00	0	27	0	3862953984	64	4390
2026-01-14 09:19:41.33	324.61	6.66	-49.0	-50.3	14.5	0.00e+00	0	28	0	3884974080	64	4134
2026-01-14 09:19:45.29	324.35	6.39	-49.3	-50.7	14.3	0.00e+00	0	27	0	3906994176	64	4324
2026-01-14 09:19:49.27	324.09	6.11	-49.2	-50.6	14.3	0.00e+00	0	27	0	3930062848	64	4263
2026-01-14 09:19:53.26	323.83	5.85	-49.5	-50.9	14.2	0.00e+00	0	27	0	3952082944	64	4416
2026-01-14 09:19:57.22	323.58	5.58	-49.5	-50.9	14.1	0.00e+00	0	27	0	3974103040	64	4436
2026-01-14 09:20:01.21	323.34	5.32	-49.5	-51.0	14.1	0.00e+00	0	28	0	3997171712	64	4448
2026-01-14 09:20:05.19	323.10	5.05	-49.4	-50.8	14.3	0.00e+00	0	27	0	4019191808	65	4115
2026-01-14 09:20:09.19	322.86	4.79	-59.2	-72.3	3.8	8.45e-01	0	27	104	4028628992	83	17364
2026-01-14 09:20:13.21	322.63	4.53	-60.0	-73.1	3.8	8.44e-01	0	28	104	4028628992	85	16985
2026-01-14 09:20:17.24	322.40	4.27	-60.3	-73.4	3.8	8.45e-01	0	28	104	4028628992	85	17575
2026-01-14 09:20:21.25	322.17	4.02	-60.6	-73.6	3.8	8.46e-01	0	28	104	4028628992	86	17076
2026-01-14 09:20:25.25	321.95	3.76	-60.6	-73.7	3.8	8.46e-01	0	28	104	4028628992	86	17185
2026-01-14 09:20:29.26	321.73	3.51	-60.6	-73.7	3.8	8.45e-01	0	28	104	4028628992	86	17087
2026-01-14 09:20:33.23	321.52	3.26	-60.5	-73.6	3.8	8.46e-01	0	28	104	4028628992	86	16944
2026-01-14 09:20:37.21	321.32	3.02	-60.4	-73.3	3.8	8.44e-01	0	27	104	4028628992	86	16472
2026-01-14 09:20:41.19	321.11	2.77	-60.4	-73.4	3.8	8.43e-01	0	28	104	4028628992	86	16621
2026-01-14 09:20:45.17	320.91	2.53	-60.4	-73.4	3.8	8.44e-01	0	28	104	4028628992	86	16525
2026-01-14 09:20:49.14	320.72	2.29	-60.3	-73.4	3.9	8.45e-01	0	28	104	4028628992	86	16517
2026-01-14 09:20:53.10	320.53	2.05	-60.4	-73.5	3.8	8.46e-01	0	28	104	4028628992	86	16755

#Closed at: 2026-01-14 09:20:56
#Recorded file [4028 MB]: D:/lorett/data/31004_260114_120733.dat