passes_logs/2026/01/14/R3.2S_Murmansk/R3.2S_Murmansk__20260114_130049_AQUA_rec.log

#Pass ID: 20260114_130049_AQUA
#Satellite: AQUA
#Configuration: AQUA
#almurnet v.1.7.20251203
#Start time: 2026-01-14 13:00:51

#Version: 2.2.20231116
#Station: R3.2S_Murmansk
#Location: 33.079688 lon 68.888172 lat
#TLE: 1 27424U 02022A   26013.85306262  .00000759  00000+0  16188-3 0  9996
#TLE: 2 27424  98.4079 340.2612 0002043  79.8220 301.8652 14.61819210260728

#Time	Az	El	Level	Level2	SNR	BER	BlckErr	Temp	State	Recorded	gain1	gain2
2026-01-14 13:00:51.03	197.75	2.12	-58.0	-77.1	3.8	7.43e-01	0	25	0	0	85	31406
2026-01-14 13:00:54.06	197.94	2.31	-57.8	-76.9	3.8	7.46e-01	0	26	104	0	83	34368
2026-01-14 13:00:57.08	198.13	2.50	-57.8	-77.0	3.8	7.45e-01	0	26	104	0	83	34781
2026-01-14 13:01:00.11	198.33	2.68	-57.8	-77.0	3.8	7.46e-01	0	26	104	0	83	34795
2026-01-14 13:01:03.14	198.53	2.87	-57.8	-77.0	3.8	7.49e-01	0	26	104	0	83	34505
2026-01-14 13:01:06.16	198.72	3.06	-57.8	-76.9	3.8	7.49e-01	0	26	104	0	83	34360
2026-01-14 13:01:09.19	198.93	3.26	-57.7	-76.7	3.8	7.44e-01	0	26	104	0	83	33610
2026-01-14 13:01:12.22	199.13	3.45	-57.7	-76.0	3.8	7.44e-01	0	26	104	0	83	30777
2026-01-14 13:01:15.24	199.34	3.64	-57.7	-74.5	4.0	7.40e-01	0	26	104	0	83	26063
2026-01-14 13:01:18.27	199.55	3.84	-57.7	-75.7	3.8	7.47e-01	0	26	104	0	83	29950
2026-01-14 13:01:21.29	199.77	4.03	-57.8	-76.1	3.8	7.45e-01	0	26	104	0	83	31191
2026-01-14 13:01:24.32	199.98	4.23	-57.5	-69.1	6.4	6.73e-01	92	26	0	1048576	83	13943
2026-01-14 13:01:27.35	200.20	4.43	-57.3	-67.1	8.0	6.39e-01	7	26	0	6815744	83	11151
2026-01-14 13:01:30.37	200.43	4.63	-57.2	-66.6	8.5	6.34e-01	0	26	0	12582912	83	10472
2026-01-14 13:01:33.39	200.65	4.83	-56.5	-62.9	11.5	6.11e-01	0	26	0	17825792	82	7225
2026-01-14 13:01:36.42	200.88	5.04	-55.9	-61.3	12.5	6.08e-01	0	26	0	23592960	80	6759
2026-01-14 13:01:39.44	201.11	5.24	-57.4	-68.9	7.2	6.61e-01	92	26	0	29360128	82	14376
2026-01-14 13:01:42.47	201.35	5.45	-51.8	-54.1	15.0	6.06e-01	0	27	0	32505856	72	4660
2026-01-14 13:01:45.49	201.59	5.66	-51.9	-54.2	15.0	6.06e-01	0	26	0	38273024	72	4752
2026-01-14 13:01:48.52	201.83	5.87	-51.6	-53.7	15.2	6.06e-01	0	26	0	44040192	72	4482
2026-01-14 13:01:51.54	202.08	6.08	-51.9	-54.1	15.0	6.09e-01	0	27	0	49283072	72	4693
2026-01-14 13:01:54.56	202.33	6.29	-52.0	-54.3	15.0	6.06e-01	0	27	0	55050240	72	4764
2026-01-14 13:01:57.58	202.59	6.50	-51.7	-53.9	15.1	6.08e-01	0	27	0	60817408	72	4559
2026-01-14 13:02:00.60	202.84	6.72	-51.5	-53.7	15.1	6.09e-01	0	27	0	66584576	71	4728
2026-01-14 13:02:03.62	203.11	6.93	-51.7	-53.9	15.0	6.03e-01	0	27	0	72351744	71	4825
2026-01-14 13:02:06.63	203.37	7.15	-51.6	-53.8	15.1	6.07e-01	0	27	0	77594624	71	4768
2026-01-14 13:02:09.66	203.64	7.37	-51.4	-53.5	15.1	6.05e-01	0	27	0	83361792	71	4620
2026-01-14 13:02:12.69	203.92	7.59	-51.3	-53.4	15.2	6.07e-01	0	27	0	89128960	71	4551
2026-01-14 13:02:15.71	204.20	7.81	-51.3	-53.4	15.2	6.06e-01	0	27	0	94896128	71	4566
2026-01-14 13:02:18.73	204.48	8.04	-51.3	-53.4	15.2	6.04e-01	0	27	0	100663296	71	4547
2026-01-14 13:02:21.75	204.77	8.26	-51.1	-53.1	15.3	6.06e-01	0	27	0	105906176	71	4416
2026-01-14 13:02:24.77	205.06	8.49	-51.2	-53.2	15.2	6.06e-01	0	27	0	111673344	71	4479
2026-01-14 13:02:27.79	205.36	8.72	-51.0	-52.9	15.4	6.06e-01	0	27	0	117440512	71	4318
2026-01-14 13:02:30.82	205.66	8.95	-50.9	-52.9	15.4	6.05e-01	0	27	0	123207680	71	4293
2026-01-14 13:02:33.85	205.97	9.19	-51.0	-53.0	15.3	6.06e-01	0	27	0	128974848	71	4341
2026-01-14 13:02:36.88	206.29	9.42	-51.0	-53.0	15.3	6.05e-01	0	27	0	134742016	71	4353
2026-01-14 13:02:39.90	206.60	9.66	-50.8	-52.8	15.2	6.06e-01	0	27	0	139984896	70	4501
2026-01-14 13:02:42.92	206.93	9.90	-50.9	-52.7	15.3	6.08e-01	0	27	0	145752064	70	4493
2026-01-14 13:02:45.94	207.26	10.14	-50.8	-52.7	15.3	6.06e-01	0	27	0	151519232	70	4463
2026-01-14 13:02:48.97	207.59	10.38	-50.7	-52.5	15.3	6.06e-01	0	27	0	157286400	70	4371
2026-01-14 13:02:52.00	207.93	10.63	-50.7	-52.6	15.3	6.05e-01	0	27	0	163053568	70	4399
2026-01-14 13:02:55.03	208.28	10.87	-50.6	-52.5	15.4	6.06e-01	0	27	0	168820736	70	4351
2026-01-14 13:02:58.05	208.63	11.12	-50.6	-52.4	15.4	6.05e-01	0	27	0	174063616	70	4323
2026-01-14 13:03:01.07	208.99	11.37	-50.5	-52.3	15.4	6.07e-01	0	27	0	179830784	70	4261
2026-01-14 13:03:04.09	209.36	11.62	-50.5	-52.3	15.4	6.09e-01	0	27	0	185597952	70	4248
2026-01-14 13:03:07.11	209.73	11.88	-50.4	-52.2	15.3	6.08e-01	0	27	0	191365120	69	4453
2026-01-14 13:03:10.14	210.11	12.13	-50.3	-52.0	15.4	6.06e-01	0	27	0	197132288	69	4381
2026-01-14 13:03:13.16	210.49	12.39	-50.3	-52.0	15.4	6.07e-01	0	27	0	202375168	69	4383
2026-01-14 13:03:16.19	210.89	12.65	-50.2	-51.9	15.4	6.05e-01	0	27	0	208142336	69	4310
2026-01-14 13:03:19.21	211.29	12.91	-50.2	-52.0	15.4	6.08e-01	0	27	0	213909504	69	4362
2026-01-14 13:03:22.23	211.70	13.17	-50.2	-52.0	15.4	6.08e-01	0	27	0	219676672	69	4347
2026-01-14 13:03:25.26	212.11	13.44	-50.2	-51.9	15.4	6.06e-01	0	27	0	225443840	69	4319
2026-01-14 13:03:28.29	212.54	13.71	-50.1	-51.8	15.4	6.07e-01	0	27	0	230686720	69	4258
2026-01-14 13:03:31.32	212.97	13.98	-50.0	-51.7	15.4	6.06e-01	0	27	0	236453888	69	4240
2026-01-14 13:03:34.35	213.41	14.25	-50.1	-51.8	15.4	6.08e-01	0	27	0	242221056	69	4253
2026-01-14 13:03:37.37	213.86	14.52	-50.0	-51.7	15.4	6.05e-01	0	27	0	247988224	69	4242
2026-01-14 13:03:40.39	214.31	14.80	-50.0	-51.7	15.4	6.06e-01	0	27	0	253755392	69	4230
2026-01-14 13:03:43.42	214.78	15.07	-50.1	-51.8	15.4	6.07e-01	0	27	0	258998272	69	4250
2026-01-14 13:03:46.44	215.25	15.35	-50.1	-51.8	15.4	6.07e-01	0	27	0	264765440	69	4253
2026-01-14 13:03:49.47	215.74	15.63	-49.9	-51.6	15.5	6.07e-01	0	27	0	270532608	69	4167
2026-01-14 13:03:52.50	216.23	15.92	-49.9	-51.6	15.3	6.06e-01	0	27	0	276299776	68	4433
2026-01-14 13:03:55.53	216.73	16.20	-49.9	-51.6	15.3	6.05e-01	0	27	0	282066944	68	4436
2026-01-14 13:03:58.54	217.24	16.48	-49.8	-51.5	15.4	6.05e-01	0	27	0	287834112	68	4370
2026-01-14 13:04:01.57	217.77	16.77	-49.8	-51.4	15.4	6.07e-01	0	27	0	293076992	68	4339
2026-01-14 13:04:04.60	218.30	17.06	-49.8	-51.5	15.4	6.08e-01	0	27	0	298844160	68	4363
2026-01-14 13:04:07.61	218.84	17.35	-49.9	-51.6	15.3	6.07e-01	0	27	0	304611328	68	4407
2026-01-14 13:04:10.63	219.40	17.64	-49.7	-51.4	15.4	6.06e-01	0	27	0	310378496	68	4316
2026-01-14 13:04:13.66	219.96	17.93	-49.7	-51.4	15.4	6.09e-01	0	27	0	316145664	68	4304
2026-01-14 13:04:16.68	220.54	18.23	-49.7	-51.3	15.4	6.05e-01	0	27	0	321912832	68	4279
2026-01-14 13:04:19.71	221.13	18.52	-49.7	-51.4	15.4	6.08e-01	0	27	0	327155712	68	4309
2026-01-14 13:04:22.74	221.73	18.82	-49.8	-51.5	15.4	6.06e-01	0	27	0	332922880	68	4347
2026-01-14 13:04:25.77	222.35	19.12	-49.8	-51.4	15.4	6.06e-01	0	27	0	338690048	68	4339
2026-01-14 13:04:28.79	222.97	19.42	-49.8	-51.5	15.4	6.05e-01	0	27	0	344457216	68	4359
2026-01-14 13:04:31.82	223.61	19.71	-49.8	-51.4	15.4	6.07e-01	0	27	0	350224384	68	4327
2026-01-14 13:04:34.84	224.26	20.01	-49.8	-51.5	15.4	6.08e-01	0	27	0	355467264	68	4366
2026-01-14 13:04:37.85	224.92	20.31	-49.8	-51.5	15.4	6.07e-01	0	27	0	361234432	68	4353
2026-01-14 13:04:40.87	225.60	20.61	-50.0	-51.7	15.3	6.05e-01	0	27	0	367001600	68	4443
2026-01-14 13:04:43.90	226.29	20.91	-49.8	-51.5	15.4	6.07e-01	0	27	0	372768768	68	4344
2026-01-14 13:04:46.92	227.00	21.21	-49.9	-51.6	15.3	6.06e-01	0	27	0	378535936	68	4411
2026-01-14 13:04:49.95	227.72	21.51	-49.9	-51.6	15.3	6.09e-01	0	27	0	383778816	68	4419
2026-01-14 13:04:52.97	228.45	21.81	-49.9	-51.5	15.4	6.07e-01	0	27	0	389545984	68	4382
2026-01-14 13:04:56.00	229.20	22.11	-50.1	-51.8	15.3	6.08e-01	0	27	0	395313152	68	4545
2026-01-14 13:04:59.02	229.96	22.40	-50.2	-51.9	15.2	6.07e-01	0	27	0	401080320	68	4592
2026-01-14 13:05:02.05	230.74	22.70	-50.1	-51.8	15.3	6.07e-01	0	27	0	406847488	68	4511
2026-01-14 13:05:05.09	231.54	22.99	-50.1	-51.8	15.3	6.05e-01	0	27	0	412614656	68	4526
2026-01-14 13:05:08.11	232.35	23.28	-50.1	-51.8	15.3	6.04e-01	0	27	0	417857536	68	4532
2026-01-14 13:05:11.13	233.17	23.57	-50.1	-51.8	15.3	6.06e-01	0	27	0	423624704	68	4523
2026-01-14 13:05:14.15	234.01	23.86	-50.1	-51.8	15.3	6.07e-01	0	27	0	429391872	68	4539
2026-01-14 13:05:17.18	234.87	24.14	-50.1	-51.8	15.3	6.06e-01	0	27	0	435159040	68	4511
2026-01-14 13:05:20.20	235.74	24.42	-50.2	-51.9	15.3	6.08e-01	0	27	0	440926208	68	4576
2026-01-14 13:05:23.22	236.62	24.70	-50.3	-52.0	15.3	6.10e-01	0	27	0	446169088	68	4608
2026-01-14 13:05:26.25	237.53	24.98	-50.2	-51.9	15.3	6.04e-01	0	27	0	451936256	68	4564
2026-01-14 13:05:29.27	238.45	25.25	-50.2	-51.9	15.2	6.02e-01	0	27	0	457703424	68	4592
2026-01-14 13:05:32.30	239.38	25.51	-50.2	-51.9	15.3	6.06e-01	0	27	0	463470592	68	4581
2026-01-14 13:05:35.32	240.34	25.77	-50.3	-52.0	15.2	6.06e-01	0	27	0	469237760	68	4606
2026-01-14 13:05:38.35	241.30	26.02	-50.3	-52.0	15.2	6.05e-01	0	27	0	475004928	68	4618
2026-01-14 13:05:41.37	242.29	26.27	-50.2	-51.8	15.3	6.07e-01	0	27	0	480247808	68	4541
2026-01-14 13:05:44.39	243.28	26.51	-50.3	-52.0	15.3	6.05e-01	0	27	0	486014976	68	4606
2026-01-14 13:05:47.42	244.30	26.75	-50.1	-51.8	15.3	6.05e-01	0	27	0	491782144	68	4524
2026-01-14 13:05:50.44	245.33	26.98	-50.3	-52.1	15.2	6.06e-01	0	27	0	497549312	68	4661
2026-01-14 13:05:53.46	246.37	27.20	-50.2	-51.9	15.2	6.06e-01	0	27	0	503316480	68	4586
2026-01-14 13:05:56.49	247.43	27.41	-50.2	-51.8	15.3	6.07e-01	0	27	0	508559360	68	4537
2026-01-14 13:05:59.51	248.50	27.61	-50.2	-51.8	15.3	6.07e-01	0	27	0	514326528	68	4537
2026-01-14 13:06:02.54	249.59	27.81	-50.0	-51.7	15.3	6.06e-01	0	27	0	520093696	68	4470
2026-01-14 13:06:05.56	250.69	28.00	-49.9	-51.5	15.4	6.06e-01	0	27	0	525860864	68	4388
2026-01-14 13:06:08.59	251.80	28.17	-50.0	-51.7	15.3	6.06e-01	0	27	0	531628032	68	4463
2026-01-14 13:06:11.60	252.92	28.34	-49.9	-51.5	15.4	6.07e-01	0	27	0	536870912	68	4374
2026-01-14 13:06:14.62	254.05	28.49	-50.1	-51.8	15.2	6.06e-01	0	27	0	542638080	68	4511
2026-01-14 13:06:17.64	255.20	28.64	-50.0	-51.6	15.3	6.05e-01	0	27	0	548405248	68	4420
2026-01-14 13:06:20.66	256.35	28.77	-49.9	-51.6	15.4	6.06e-01	0	27	0	554172416	68	4402
2026-01-14 13:06:23.69	257.52	28.89	-49.8	-51.5	15.4	6.05e-01	0	27	0	559939584	68	4345
2026-01-14 13:06:26.72	258.70	29.00	-49.9	-51.5	15.4	6.07e-01	0	27	0	565182464	68	4365
2026-01-14 13:06:29.73	259.88	29.10	-49.8	-51.5	15.4	6.06e-01	0	27	0	570949632	68	4356
2026-01-14 13:06:32.76	261.07	29.18	-49.8	-51.4	15.4	6.08e-01	0	27	0	576716800	68	4306
2026-01-14 13:06:35.78	262.26	29.25	-49.7	-51.4	15.4	6.04e-01	0	27	0	582483968	68	4298
2026-01-14 13:06:38.81	263.46	29.31	-49.8	-51.4	15.4	6.06e-01	0	27	0	588251136	68	4331
2026-01-14 13:06:41.83	264.66	29.36	-49.7	-51.3	15.4	6.08e-01	0	27	0	594018304	68	4261
2026-01-14 13:06:44.85	265.87	29.39	-49.7	-51.3	15.4	6.05e-01	0	27	0	599261184	68	4263
2026-01-14 13:06:47.88	267.08	29.41	-49.7	-51.3	15.4	6.06e-01	0	27	0	605028352	68	4259
2026-01-14 13:06:50.90	268.28	29.42	-49.5	-51.0	15.5	6.06e-01	0	27	0	610795520	68	4128
2026-01-14 13:06:53.92	269.49	29.41	-49.5	-51.1	15.5	6.06e-01	0	27	0	616562688	68	4181
2026-01-14 13:06:56.94	270.70	29.39	-49.4	-51.0	15.5	6.08e-01	0	27	0	622329856	68	4112
2026-01-14 13:06:59.96	271.90	29.36	-49.5	-51.1	15.5	6.01e-01	0	27	0	627572736	68	4166
2026-01-14 13:07:02.98	273.10	29.31	-49.6	-51.2	15.4	6.03e-01	0	27	0	633339904	68	4234
2026-01-14 13:07:06.01	274.30	29.25	-49.5	-51.1	15.5	6.02e-01	0	27	0	639107072	68	4149
2026-01-14 13:07:09.03	275.49	29.18	-49.4	-51.0	15.5	6.01e-01	0	27	0	644874240	68	4124
2026-01-14 13:07:12.05	276.68	29.09	-49.6	-51.2	15.5	6.01e-01	0	27	0	650641408	68	4206
2026-01-14 13:07:15.07	277.86	29.00	-49.3	-50.8	15.4	6.04e-01	0	27	0	655884288	67	4274
2026-01-14 13:07:18.10	279.03	28.89	-49.6	-51.2	15.3	6.02e-01	0	27	0	661651456	67	4486
2026-01-14 13:07:21.12	280.20	28.77	-49.3	-50.8	15.4	6.01e-01	0	27	0	667418624	67	4278
2026-01-14 13:07:24.15	281.35	28.63	-49.4	-51.0	15.4	6.01e-01	0	27	0	673185792	67	4349
2026-01-14 13:07:27.17	282.49	28.49	-49.5	-51.0	15.4	6.00e-01	0	27	0	678952960	67	4390
2026-01-14 13:07:30.19	283.63	28.33	-49.4	-51.0	15.4	6.03e-01	0	27	0	684720128	67	4360
2026-01-14 13:07:33.22	284.75	28.17	-49.2	-50.8	15.4	6.02e-01	0	27	0	689963008	67	4262
2026-01-14 13:07:36.24	285.86	27.99	-49.6	-51.2	15.3	6.01e-01	0	27	0	695730176	67	4470
2026-01-14 13:07:39.27	286.96	27.81	-49.7	-51.3	15.3	6.05e-01	0	27	0	701497344	67	4507
2026-01-14 13:07:42.29	288.04	27.61	-49.5	-51.1	15.3	6.01e-01	0	27	0	707264512	67	4413
2026-01-14 13:07:45.31	289.11	27.41	-49.5	-51.1	15.3	6.03e-01	0	27	0	713031680	67	4419
2026-01-14 13:07:48.34	290.16	27.20	-49.3	-50.9	15.4	6.03e-01	0	27	0	718274560	67	4298
2026-01-14 13:07:51.36	291.20	26.98	-49.6	-51.2	15.3	6.05e-01	0	27	0	724041728	67	4445
2026-01-14 13:07:54.39	292.23	26.75	-49.5	-51.1	15.4	6.04e-01	0	27	0	729808896	67	4412
2026-01-14 13:07:57.41	293.24	26.51	-49.7	-51.3	15.3	6.03e-01	0	27	0	735576064	67	4506
2026-01-14 13:08:00.44	294.24	26.27	-49.7	-51.3	15.3	6.04e-01	0	27	0	741343232	67	4509
2026-01-14 13:08:03.46	295.21	26.02	-49.6	-51.2	15.3	6.00e-01	0	27	0	746586112	67	4464
2026-01-14 13:08:06.49	296.18	25.77	-49.8	-51.4	15.2	6.03e-01	0	27	0	752353280	67	4577
2026-01-14 13:08:09.51	297.13	25.51	-49.6	-51.2	15.3	6.01e-01	0	27	0	758120448	67	4477
2026-01-14 13:08:12.54	298.06	25.25	-49.7	-51.3	15.3	6.03e-01	0	27	0	763887616	67	4529
2026-01-14 13:08:15.55	298.97	24.98	-49.5	-51.1	15.3	6.03e-01	0	27	0	769654784	67	4434
2026-01-14 13:08:18.57	299.87	24.71	-49.7	-51.3	15.3	6.03e-01	0	27	0	774897664	67	4511
2026-01-14 13:08:21.60	300.76	24.43	-49.7	-51.3	15.3	6.02e-01	0	27	0	780664832	67	4540
2026-01-14 13:08:24.63	301.63	24.15	-49.8	-51.5	15.2	6.02e-01	0	27	0	786432000	67	4606
2026-01-14 13:08:27.66	302.48	23.87	-49.8	-51.4	15.3	6.02e-01	0	27	0	792199168	67	4558
2026-01-14 13:08:30.68	303.32	23.58	-49.7	-51.3	15.3	6.02e-01	0	27	0	797966336	67	4544
2026-01-14 13:08:33.70	304.14	23.30	-49.8	-51.4	15.3	6.02e-01	0	27	0	803733504	67	4585
2026-01-14 13:08:36.72	304.94	23.01	-49.5	-51.0	15.3	6.03e-01	0	27	0	808976384	67	4391
2026-01-14 13:08:39.75	305.73	22.71	-49.7	-51.3	15.3	6.00e-01	0	27	0	814743552	67	4512
2026-01-14 13:08:42.78	306.51	22.42	-49.5	-51.1	15.3	6.02e-01	0	27	0	820510720	67	4438
2026-01-14 13:08:45.80	307.27	22.13	-49.6	-51.2	15.3	6.00e-01	0	27	0	826277888	67	4449
2026-01-14 13:08:48.82	308.01	21.83	-49.5	-51.1	15.3	6.03e-01	0	27	0	832045056	67	4405
2026-01-14 13:08:51.85	308.75	21.53	-49.5	-51.1	15.3	6.01e-01	0	27	0	837812224	67	4437
2026-01-14 13:08:54.87	309.46	21.24	-49.6	-51.2	15.3	6.00e-01	0	27	0	843055104	67	4471
2026-01-14 13:08:57.90	310.17	20.94	-49.4	-51.0	15.3	6.04e-01	0	27	0	848822272	67	4389
2026-01-14 13:09:00.92	310.85	20.64	-49.5	-51.1	15.3	6.00e-01	0	27	0	854589440	67	4415
2026-01-14 13:09:03.95	311.53	20.34	-49.5	-51.1	15.3	6.03e-01	0	27	0	860356608	67	4420
2026-01-14 13:09:06.97	312.19	20.05	-49.5	-51.1	15.3	5.98e-01	0	27	0	866123776	67	4415
2026-01-14 13:09:10.00	312.84	19.75	-49.4	-51.0	15.4	6.03e-01	0	27	0	871366656	67	4369
2026-01-14 13:09:13.02	313.48	19.45	-49.5	-51.1	15.3	6.02e-01	0	27	0	877133824	67	4404
2026-01-14 13:09:16.05	314.10	19.16	-49.4	-51.0	15.4	6.01e-01	0	27	0	882900992	67	4388
2026-01-14 13:09:19.07	314.71	18.86	-49.5	-51.2	15.3	5.99e-01	0	27	0	888668160	67	4447
2026-01-14 13:09:22.10	315.31	18.57	-49.4	-51.0	15.4	6.02e-01	0	27	0	894435328	67	4355
2026-01-14 13:09:25.12	315.90	18.27	-49.3	-50.9	15.4	6.02e-01	0	27	0	899678208	67	4300
2026-01-14 13:09:28.13	316.47	17.98	-49.4	-51.0	15.4	6.02e-01	0	27	0	905445376	67	4363
2026-01-14 13:09:31.16	317.04	17.69	-49.3	-50.9	15.4	6.03e-01	0	27	0	911212544	67	4309
2026-01-14 13:09:34.18	317.59	17.40	-49.4	-51.0	15.4	6.03e-01	0	27	0	916979712	67	4351
2026-01-14 13:09:37.21	318.13	17.11	-49.4	-51.0	15.4	6.03e-01	0	27	0	922746880	67	4348
2026-01-14 13:09:40.23	318.66	16.83	-49.4	-51.0	15.4	6.04e-01	0	27	0	928514048	67	4357
2026-01-14 13:09:43.25	319.18	16.54	-49.3	-50.9	15.4	6.02e-01	0	27	0	933756928	67	4337
2026-01-14 13:09:46.27	319.69	16.26	-49.5	-51.1	15.3	6.03e-01	0	27	0	939524096	67	4428
2026-01-14 13:09:49.30	320.20	15.98	-49.4	-51.0	15.4	6.04e-01	0	27	0	945291264	67	4348
2026-01-14 13:09:52.33	320.69	15.70	-49.3	-50.9	15.4	6.01e-01	0	27	0	951058432	67	4299
2026-01-14 13:09:55.35	321.17	15.42	-49.3	-51.0	15.4	6.02e-01	0	27	0	956825600	67	4341
2026-01-14 13:09:58.38	321.65	15.14	-49.4	-51.1	15.4	6.02e-01	0	27	0	962592768	67	4395
2026-01-14 13:10:01.40	322.11	14.87	-49.4	-51.0	15.4	6.01e-01	0	27	0	967835648	67	4384
2026-01-14 13:10:04.42	322.56	14.59	-49.5	-51.1	15.3	6.02e-01	0	27	0	973602816	67	4422
2026-01-14 13:10:07.45	323.01	14.32	-49.4	-51.1	15.3	6.01e-01	0	27	0	979369984	67	4394
2026-01-14 13:10:10.47	323.45	14.05	-49.5	-51.1	15.3	6.03e-01	0	27	0	985137152	67	4411
2026-01-14 13:10:13.50	323.88	13.78	-49.6	-51.2	15.3	6.04e-01	0	27	0	990904320	67	4488
2026-01-14 13:10:16.52	324.30	13.52	-49.6	-51.3	15.3	6.04e-01	0	27	0	996147200	67	4538
2026-01-14 13:10:19.54	324.72	13.25	-49.5	-51.2	15.3	5.99e-01	0	27	0	1001914368	67	4482
2026-01-14 13:10:22.57	325.13	12.99	-49.6	-51.3	15.3	6.01e-01	0	27	0	1007681536	67	4503
2026-01-14 13:10:25.59	325.53	12.73	-49.6	-51.3	15.3	6.05e-01	0	27	0	1013448704	67	4545
2026-01-14 13:10:28.62	325.92	12.47	-49.7	-51.4	15.2	6.02e-01	0	27	0	1019215872	67	4590
2026-01-14 13:10:31.64	326.30	12.22	-49.7	-51.4	15.2	6.02e-01	0	27	0	1024458752	67	4559
2026-01-14 13:10:34.67	326.68	11.96	-49.7	-51.4	15.2	6.00e-01	0	27	0	1030225920	67	4586
2026-01-14 13:10:37.70	327.06	11.71	-49.9	-51.7	15.2	6.02e-01	0	27	0	1035993088	67	4731
2026-01-14 13:10:40.72	327.42	11.46	-49.9	-51.6	15.2	6.02e-01	0	27	0	1041760256	67	4704
2026-01-14 13:10:43.74	327.78	11.21	-49.8	-51.5	15.2	6.00e-01	0	27	0	1047527424	67	4609
2026-01-14 13:10:46.76	328.13	10.97	-49.9	-51.6	15.2	6.01e-01	0	27	0	1052770304	67	4673
2026-01-14 13:10:49.79	328.48	10.72	-49.9	-51.7	15.2	6.02e-01	0	27	0	1058537472	67	4719
2026-01-14 13:10:52.81	328.82	10.48	-49.9	-51.7	15.2	6.01e-01	0	27	0	1064304640	67	4728
2026-01-14 13:10:55.83	329.16	10.24	-50.0	-51.8	15.2	5.99e-01	0	27	0	1070071808	67	4761
2026-01-14 13:10:58.86	329.49	10.00	-50.2	-52.0	15.2	6.01e-01	0	27	0	1075838976	68	4615
2026-01-14 13:11:01.88	329.81	9.76	-50.3	-52.1	15.2	6.04e-01	0	27	0	1081606144	68	4689
2026-01-14 13:11:04.90	330.13	9.53	-50.3	-52.2	15.1	6.02e-01	0	27	0	1086849024	68	4714
2026-01-14 13:11:07.92	330.44	9.29	-50.4	-52.2	15.1	6.02e-01	0	27	0	1092616192	68	4739
2026-01-14 13:11:10.95	330.75	9.06	-50.5	-52.4	15.1	6.02e-01	0	27	0	1098383360	68	4816
2026-01-14 13:11:13.98	331.05	8.83	-50.6	-52.5	15.2	6.02e-01	0	27	0	1104150528	69	4640
2026-01-14 13:11:17.00	331.35	8.60	-50.5	-52.3	15.2	6.01e-01	0	27	0	1109917696	69	4533
2026-01-14 13:11:20.03	331.65	8.37	-50.6	-52.5	15.2	6.01e-01	0	27	0	1115684864	69	4617
2026-01-14 13:11:23.05	331.94	8.15	-50.6	-52.5	15.2	6.04e-01	0	27	0	1120927744	69	4611
2026-01-14 13:11:26.07	332.22	7.93	-50.7	-52.6	15.1	6.02e-01	0	27	0	1126694912	69	4670
2026-01-14 13:11:29.10	332.50	7.70	-50.5	-52.4	15.2	6.02e-01	0	27	0	1132462080	69	4594
2026-01-14 13:11:32.12	332.78	7.48	-50.7	-52.6	15.2	6.03e-01	0	27	0	1138229248	69	4678
2026-01-14 13:11:35.15	333.05	7.26	-50.8	-52.7	15.1	6.02e-01	0	27	0	1143996416	69	4740
2026-01-14 13:11:38.18	333.32	7.05	-50.8	-52.8	15.1	6.06e-01	0	27	0	1149239296	69	4773
2026-01-14 13:11:41.20	333.58	6.83	-50.7	-52.7	15.1	6.02e-01	0	27	0	1155006464	69	4717
2026-01-14 13:11:44.22	333.84	6.62	-50.9	-53.0	15.0	6.03e-01	0	27	0	1160773632	69	4878
2026-01-14 13:11:47.24	334.09	6.41	-50.9	-53.0	15.0	6.02e-01	0	27	0	1166540800	69	4873
2026-01-14 13:11:50.26	334.35	6.20	-50.8	-52.7	15.2	6.02e-01	0	27	0	1172307968	70	4485
2026-01-14 13:11:53.29	334.59	5.99	-51.4	-53.5	15.0	6.02e-01	0	27	0	1177550848	70	4891
2026-01-14 13:11:56.31	334.84	5.78	-51.3	-53.5	15.0	6.00e-01	0	27	0	1183318016	70	4911
2026-01-14 13:11:59.34	335.08	5.57	-51.3	-53.5	15.1	6.02e-01	0	27	0	1189085184	71	4633
2026-01-14 13:12:02.36	335.32	5.37	-51.4	-53.6	15.0	6.05e-01	0	27	0	1194852352	71	4672
2026-01-14 13:12:05.39	335.55	5.16	-51.2	-53.3	15.1	5.99e-01	0	27	0	1200619520	71	4540
2026-01-14 13:12:08.41	335.78	4.96	-58.5	-76.6	3.8	7.49e-01	0	27	104	1205862400	84	31143
2026-01-14 13:12:11.44	336.01	4.76	-59.4	-78.8	3.8	7.46e-01	0	27	104	1205862400	86	35809
2026-01-14 13:12:14.47	336.23	4.56	-59.8	-79.1	3.8	7.47e-01	0	27	104	1205862400	87	35172
2026-01-14 13:12:17.48	336.45	4.36	-60.0	-79.3	3.8	7.45e-01	0	27	104	1205862400	87	36091
2026-01-14 13:12:20.50	336.67	4.17	-60.1	-79.5	3.8	7.46e-01	0	27	104	1205862400	87	36570
2026-01-14 13:12:23.53	336.89	3.97	-60.2	-79.5	3.8	7.48e-01	0	27	104	1205862400	88	34864
2026-01-14 13:12:26.56	337.10	3.77	-60.2	-79.6	3.8	7.45e-01	0	27	104	1205862400	88	35029
2026-01-14 13:12:29.59	337.31	3.58	-60.2	-79.6	3.8	7.45e-01	0	27	104	1205862400	88	35129
2026-01-14 13:12:32.62	337.52	3.39	-60.1	-79.5	3.8	7.47e-01	0	27	104	1205862400	88	34697
2026-01-14 13:12:35.64	337.72	3.20	-60.1	-79.5	3.8	7.46e-01	0	28	104	1205862400	88	34536
2026-01-14 13:12:38.67	337.92	3.01	-60.1	-79.4	3.8	7.46e-01	0	27	104	1205862400	88	34471
2026-01-14 13:12:41.68	338.12	2.82	-60.0	-79.4	3.8	7.50e-01	0	28	104	1205862400	88	34405
2026-01-14 13:12:44.71	338.32	2.63	-60.0	-79.4	3.8	7.46e-01	0	28	104	1205862400	88	34242
2026-01-14 13:12:47.73	338.51	2.45	-60.0	-79.4	3.8	7.46e-01	0	28	104	1205862400	88	34208
2026-01-14 13:12:50.76	338.70	2.26	-60.0	-79.4	3.8	7.48e-01	0	27	104	1205862400	88	34145
2026-01-14 13:12:53.79	338.89	2.08	-59.9	-79.3	3.8	7.49e-01	0	28	104	1205862400	88	33945

#Closed at: 2026-01-14 13:12:56
#Recorded file [1205 MB]: D:/lorett/data/31004_260114_160050.dat