passes_logs/2026/01/14/R3.2S_Murmansk/R3.2S_Murmansk__20260114_100804_NOAA_20_JPSS-1_rec.log

#Pass ID: 20260114_100804_NOAA 20 (JPSS-1)
#Satellite: NOAA 20 (JPSS-1)
#Configuration: NOAA 20
#almurnet v.1.7.20251203
#Start time: 2026-01-14 10:08:04

#Version: 2.2.20231116
#Station: R3.2S_Murmansk
#Location: 33.079688 lon 68.888172 lat
#TLE: 1 43013U 17073A   26013.84982170  .00000053  00000+0  46215-4 0  9999
#TLE: 2 43013  98.7633 314.8013 0001544  40.9009 319.2282 14.19535753422575

#Time	Az	El	Level	Level2	SNR	BER	BlckErr	Temp	State	Recorded	gain1	gain2
2026-01-14 10:08:04.01	166.47	1.97	-58.3	-74.2	3.8	1.49e+00	0	25	0	0	83	21681
2026-01-14 10:08:07.99	166.55	2.22	-58.2	-73.8	3.8	1.49e+00	0	26	104	0	81	23138
2026-01-14 10:08:11.96	166.63	2.48	-58.2	-73.9	3.8	1.49e+00	0	26	104	0	81	23576
2026-01-14 10:08:15.95	166.71	2.74	-58.2	-74.0	3.8	1.49e+00	0	25	104	0	81	23650
2026-01-14 10:08:19.91	166.80	3.00	-58.2	-74.1	3.8	1.49e+00	0	26	104	0	81	23892
2026-01-14 10:08:23.89	166.88	3.26	-58.2	-73.8	3.8	1.49e+00	0	26	104	0	81	23115
2026-01-14 10:08:27.87	166.96	3.53	-58.0	-70.3	4.3	1.39e+00	37	26	0	0	81	15487
2026-01-14 10:08:31.85	167.05	3.79	-57.8	-68.1	5.1	1.24e+00	0	26	0	5242880	81	12084
2026-01-14 10:08:35.83	167.14	4.07	-57.5	-65.7	6.8	2.33e-01	0	26	0	12582912	81	9105
2026-01-14 10:08:39.80	167.23	4.34	-57.1	-63.8	8.4	7.49e-03	0	26	0	20971520	80	7771
2026-01-14 10:08:43.77	167.32	4.61	-56.3	-61.2	10.5	4.35e-04	0	26	0	28311552	79	6129
2026-01-14 10:08:47.75	167.41	4.89	-56.3	-61.3	10.4	1.98e-04	0	27	0	35651584	78	6555
2026-01-14 10:08:51.72	167.50	5.18	-58.1	-71.8	4.0	1.01e-02	0	26	0	42991616	81	18473
2026-01-14 10:08:55.68	167.60	5.46	-55.2	-58.7	12.3	1.33e-02	0	26	0	48234496	77	5120
2026-01-14 10:08:59.66	167.69	5.75	-54.2	-57.0	13.2	0.00e+00	0	27	0	55574528	74	5038
2026-01-14 10:09:03.64	167.79	6.04	-54.1	-56.8	13.3	0.00e+00	0	26	0	62914560	74	4926
2026-01-14 10:09:07.62	167.89	6.33	-54.1	-56.9	13.3	0.00e+00	0	26	0	70254592	74	4962
2026-01-14 10:09:11.61	167.99	6.63	-54.0	-56.7	13.4	0.00e+00	0	27	0	77594624	74	4849
2026-01-14 10:09:15.58	168.09	6.93	-54.0	-56.6	13.5	0.00e+00	0	27	0	84934656	74	4785
2026-01-14 10:09:19.54	168.20	7.24	-53.8	-56.3	13.7	0.00e+00	0	27	0	92274688	74	4633
2026-01-14 10:09:23.51	168.31	7.54	-53.5	-55.9	13.8	0.00e+00	0	27	0	99614720	73	4665
2026-01-14 10:09:27.49	168.42	7.86	-53.6	-56.0	13.8	0.00e+00	0	27	0	108003328	73	4712
2026-01-14 10:09:31.46	168.53	8.17	-53.4	-55.7	14.0	0.00e+00	0	27	0	115343360	73	4586
2026-01-14 10:09:35.45	168.64	8.49	-53.2	-55.5	14.1	0.00e+00	0	27	0	122683392	73	4447
2026-01-14 10:09:39.42	168.76	8.82	-53.4	-55.7	14.0	0.00e+00	0	27	0	130023424	73	4552
2026-01-14 10:09:43.39	168.87	9.14	-53.1	-55.2	14.1	0.00e+00	0	27	0	137363456	72	4594
2026-01-14 10:09:47.36	168.99	9.48	-53.0	-55.1	14.1	0.00e+00	0	26	0	144703488	72	4545
2026-01-14 10:09:51.35	169.12	9.81	-52.8	-54.8	14.3	0.00e+00	0	27	0	152043520	72	4388
2026-01-14 10:09:55.32	169.24	10.16	-52.9	-54.9	14.3	0.00e+00	0	27	0	159383552	72	4431
2026-01-14 10:09:59.31	169.37	10.50	-52.6	-54.6	14.3	0.00e+00	0	27	0	166723584	71	4533
2026-01-14 10:10:03.27	169.50	10.85	-52.5	-54.5	14.4	0.00e+00	0	27	0	175112192	71	4447
2026-01-14 10:10:07.26	169.63	11.21	-52.5	-54.4	14.4	0.00e+00	0	27	0	182452224	71	4414
2026-01-14 10:10:11.26	169.77	11.57	-52.5	-54.4	14.4	0.00e+00	0	27	0	189792256	71	4431
2026-01-14 10:10:15.23	169.91	11.94	-52.4	-54.3	14.5	0.00e+00	0	27	0	197132288	71	4369
2026-01-14 10:10:19.22	170.05	12.31	-52.3	-54.1	14.6	0.00e+00	0	27	0	204472320	71	4286
2026-01-14 10:10:23.20	170.20	12.69	-52.4	-54.2	14.5	0.00e+00	0	27	0	211812352	71	4340
2026-01-14 10:10:27.15	170.35	13.07	-52.2	-54.1	14.6	0.00e+00	0	27	0	219152384	71	4246
2026-01-14 10:10:31.12	170.50	13.46	-52.3	-54.1	14.6	0.00e+00	0	27	0	226492416	71	4261
2026-01-14 10:10:35.10	170.66	13.85	-52.4	-54.2	14.5	0.00e+00	0	27	0	233832448	71	4326
2026-01-14 10:10:39.07	170.82	14.25	-52.4	-54.2	14.5	0.00e+00	0	27	0	242221056	71	4332
2026-01-14 10:10:43.04	170.98	14.66	-52.5	-54.3	14.5	0.00e+00	0	27	0	249561088	71	4387
2026-01-14 10:10:47.01	171.15	15.08	-52.6	-54.5	14.4	0.00e+00	0	27	0	256901120	71	4476
2026-01-14 10:10:50.98	171.32	15.50	-52.6	-54.5	14.4	0.00e+00	0	27	0	264241152	71	4482
2026-01-14 10:10:54.95	171.50	15.92	-52.7	-54.6	14.4	0.00e+00	0	27	0	271581184	71	4520
2026-01-14 10:10:58.92	171.68	16.36	-52.7	-54.7	14.4	0.00e+00	0	27	0	278921216	71	4546
2026-01-14 10:11:02.90	171.87	16.81	-52.8	-54.8	14.3	0.00e+00	0	27	0	286261248	71	4618
2026-01-14 10:11:06.87	172.06	17.26	-52.9	-54.9	14.3	0.00e+00	0	27	0	293601280	71	4669
2026-01-14 10:11:10.84	172.26	17.72	-52.9	-54.9	14.3	0.00e+00	0	27	0	300941312	71	4683
2026-01-14 10:11:14.83	172.46	18.19	-53.0	-55.0	14.2	0.00e+00	0	27	0	308281344	71	4717
2026-01-14 10:11:18.80	172.67	18.66	-53.0	-54.9	14.2	0.00e+00	0	27	0	316669952	71	4688
2026-01-14 10:11:22.77	172.88	19.15	-53.0	-55.0	14.2	0.00e+00	0	27	0	324009984	71	4741
2026-01-14 10:11:26.75	173.11	19.65	-53.0	-55.0	14.2	0.00e+00	0	27	0	331350016	71	4749
2026-01-14 10:11:30.71	173.33	20.15	-53.1	-55.1	14.2	0.00e+00	0	27	0	338690048	71	4801
2026-01-14 10:11:34.68	173.57	20.67	-53.1	-55.1	14.2	0.00e+00	0	27	0	346030080	71	4760
2026-01-14 10:11:38.65	173.81	21.19	-53.2	-55.2	14.1	0.00e+00	0	27	0	353370112	71	4842
2026-01-14 10:11:42.62	174.06	21.73	-53.2	-55.2	14.2	0.00e+00	0	27	0	360710144	71	4826
2026-01-14 10:11:46.60	174.32	22.27	-53.1	-55.1	14.2	0.00e+00	0	27	0	368050176	71	4810
2026-01-14 10:11:50.58	174.59	22.83	-53.0	-54.9	14.3	0.00e+00	0	27	0	375390208	71	4690
2026-01-14 10:11:54.57	174.87	23.41	-53.1	-55.0	14.2	0.00e+00	0	27	0	383778816	71	4746
2026-01-14 10:11:58.55	175.16	23.99	-53.0	-54.9	14.3	0.00e+00	0	27	0	391118848	71	4659
2026-01-14 10:12:02.53	175.46	24.59	-52.8	-54.7	14.4	0.00e+00	0	27	0	398458880	71	4573
2026-01-14 10:12:06.51	175.77	25.20	-52.9	-54.8	14.3	0.00e+00	0	27	0	405798912	71	4645
2026-01-14 10:12:10.48	176.09	25.82	-52.9	-54.7	14.4	0.00e+00	0	27	0	413138944	71	4588
2026-01-14 10:12:14.46	176.42	26.46	-52.8	-54.7	14.4	0.00e+00	0	27	0	420478976	71	4571
2026-01-14 10:12:18.43	176.77	27.11	-52.6	-54.4	14.5	0.00e+00	0	27	0	427819008	71	4432
2026-01-14 10:12:22.41	177.13	27.77	-52.4	-54.1	14.6	0.00e+00	0	27	0	435159040	71	4283
2026-01-14 10:12:26.39	177.51	28.46	-52.6	-54.4	14.5	0.00e+00	0	27	0	442499072	71	4437
2026-01-14 10:12:30.36	177.90	29.15	-53.0	-54.9	14.3	0.00e+00	0	27	0	450887680	71	4695
2026-01-14 10:12:34.35	178.31	29.87	-53.4	-55.4	14.1	0.00e+00	0	27	0	458227712	71	4971
2026-01-14 10:12:38.33	178.73	30.60	-53.9	-56.0	13.9	0.00e+00	0	27	0	465567744	72	5030
2026-01-14 10:12:42.30	179.18	31.34	-54.1	-56.4	13.8	0.00e+00	0	27	0	472907776	73	4953
2026-01-14 10:12:46.28	179.64	32.11	-54.1	-56.3	13.9	0.00e+00	0	27	0	480247808	73	4889
2026-01-14 10:12:50.24	180.13	32.89	-54.2	-56.4	13.8	0.00e+00	0	27	0	487587840	73	4976
2026-01-14 10:12:54.22	180.64	33.69	-53.9	-56.1	14.0	0.00e+00	0	27	0	494927872	73	4767
2026-01-14 10:12:58.20	181.17	34.51	-53.9	-56.0	14.0	0.00e+00	0	27	0	502267904	73	4757
2026-01-14 10:13:02.17	181.74	35.35	-54.1	-56.4	13.8	0.00e+00	0	27	0	509607936	73	4949
2026-01-14 10:13:06.14	182.33	36.20	-54.3	-56.6	13.7	0.00e+00	0	27	0	517996544	73	5091
2026-01-14 10:13:10.13	182.95	37.08	-54.8	-57.3	13.5	0.00e+00	0	27	0	525336576	74	5207
2026-01-14 10:13:14.12	183.61	37.99	-55.0	-57.6	13.4	0.00e+00	0	27	0	532676608	75	5049
2026-01-14 10:13:18.08	184.30	38.90	-55.2	-57.9	13.3	0.00e+00	0	27	0	540016640	75	5254
2026-01-14 10:13:22.06	185.04	39.84	-55.5	-58.3	13.1	0.00e+00	0	27	0	547356672	76	5201
2026-01-14 10:13:26.04	185.81	40.80	-55.4	-58.1	13.3	0.00e+00	0	27	0	554696704	76	5078
2026-01-14 10:13:30.02	186.64	41.78	-54.9	-57.4	13.7	0.00e+00	0	27	0	562036736	76	4662
2026-01-14 10:13:34.01	187.51	42.79	-54.3	-56.5	14.0	0.00e+00	0	27	0	569376768	75	4491
2026-01-14 10:13:37.97	188.44	43.80	-54.4	-56.8	13.9	0.00e+00	0	27	0	576716800	75	4600
2026-01-14 10:13:41.93	189.43	44.83	-54.3	-56.5	13.9	0.00e+00	0	27	0	585105408	74	4722
2026-01-14 10:13:45.91	190.48	45.89	-55.1	-57.6	13.4	0.00e+00	0	27	0	592445440	75	5090
2026-01-14 10:13:49.88	191.61	46.96	-54.3	-56.6	14.0	0.00e+00	0	27	0	599785472	75	4511
2026-01-14 10:13:53.86	192.82	48.05	-54.6	-57.0	13.8	0.00e+00	0	27	0	607125504	75	4720
2026-01-14 10:13:57.85	194.12	49.15	-53.8	-55.9	14.3	0.00e+00	0	27	0	614465536	74	4395
2026-01-14 10:14:01.84	195.51	50.27	-52.3	-54.0	14.7	0.00e+00	0	27	0	621805568	71	4222
2026-01-14 10:14:05.82	197.01	51.39	-51.4	-52.9	14.9	0.00e+00	0	27	0	629145600	69	4148
2026-01-14 10:14:09.79	198.62	52.51	-49.8	-51.1	15.2	0.00e+00	0	27	0	636485632	66	4040
2026-01-14 10:14:13.78	200.36	53.65	-49.9	-51.3	15.0	0.00e+00	0	27	0	643825664	65	4358
2026-01-14 10:14:17.76	202.24	54.77	-50.2	-51.6	14.9	0.00e+00	0	27	0	652214272	65	4494
2026-01-14 10:14:21.75	204.28	55.89	-51.6	-53.2	14.7	0.00e+00	0	27	0	659554304	68	4577
2026-01-14 10:14:25.72	206.47	56.99	-52.8	-54.6	14.5	0.00e+00	0	27	0	666894336	71	4534
2026-01-14 10:14:29.72	208.86	58.07	-53.6	-55.6	14.2	0.00e+00	0	27	0	674234368	72	4811
2026-01-14 10:14:33.71	211.44	59.12	-53.4	-55.3	14.3	0.00e+00	0	27	0	681574400	72	4611
2026-01-14 10:14:37.69	214.22	60.13	-52.7	-54.4	14.7	0.00e+00	0	27	0	688914432	72	4184
2026-01-14 10:14:41.67	217.22	61.09	-51.4	-52.9	15.0	0.00e+00	0	27	0	696254464	69	4169
2026-01-14 10:14:45.65	220.46	61.99	-51.4	-52.9	15.0	0.00e+00	0	27	0	703594496	69	4147
2026-01-14 10:14:49.63	223.92	62.82	-51.6	-53.1	14.9	0.00e+00	0	27	0	711983104	69	4268
2026-01-14 10:14:53.60	227.62	63.56	-51.9	-53.5	14.7	0.00e+00	0	27	0	719323136	69	4489
2026-01-14 10:14:57.58	231.54	64.21	-52.8	-54.5	14.4	0.00e+00	0	27	0	726663168	70	4752
2026-01-14 10:15:01.55	235.66	64.75	-52.3	-53.9	14.7	0.00e+00	0	27	0	734003200	70	4435
2026-01-14 10:15:05.56	240.01	65.18	-53.7	-55.7	14.2	0.00e+00	0	27	0	741343232	72	4828
2026-01-14 10:15:09.54	244.46	65.47	-53.9	-56.0	14.1	0.00e+00	0	27	0	748683264	73	4715
2026-01-14 10:15:13.54	249.02	65.63	-53.4	-55.2	14.5	0.00e+00	0	27	0	756023296	73	4327
2026-01-14 10:15:17.55	253.63	65.65	-52.9	-54.7	14.6	0.00e+00	0	27	0	763363328	72	4298
2026-01-14 10:15:21.54	258.20	65.53	-52.8	-54.5	14.6	0.00e+00	0	27	0	771751936	71	4472
2026-01-14 10:15:25.52	262.68	65.27	-53.1	-54.9	14.4	0.00e+00	0	27	0	779091968	71	4678
2026-01-14 10:15:29.49	267.02	64.88	-51.9	-53.5	14.9	0.00e+00	0	27	0	786432000	70	4211
2026-01-14 10:15:33.45	271.18	64.38	-52.0	-53.6	14.8	0.00e+00	0	27	0	793772032	70	4257
2026-01-14 10:15:37.42	275.15	63.76	-51.3	-52.8	15.0	0.00e+00	0	27	0	801112064	69	4111
2026-01-14 10:15:41.40	278.91	63.04	-50.5	-52.1	15.1	0.00e+00	0	27	0	808452096	67	4261
2026-01-14 10:15:45.37	282.43	62.24	-49.9	-51.2	15.2	0.00e+00	0	27	0	815792128	66	4062
2026-01-14 10:15:49.34	285.72	61.37	-50.1	-51.4	15.0	0.00e+00	0	27	0	823132160	65	4421
2026-01-14 10:15:53.30	288.77	60.43	-50.8	-52.2	14.8	0.00e+00	0	27	0	830472192	66	4581
2026-01-14 10:15:57.28	291.61	59.43	-52.2	-53.9	14.6	0.00e+00	0	27	0	838860800	69	4669
2026-01-14 10:16:01.26	294.24	58.40	-53.0	-54.7	14.5	0.00e+00	0	27	0	846200832	71	4598
2026-01-14 10:16:05.24	296.68	57.33	-51.9	-53.4	14.9	0.00e+00	0	27	0	853540864	70	4187
2026-01-14 10:16:09.24	298.94	56.23	-50.2	-51.6	15.0	0.00e+00	0	27	0	860880896	66	4250
2026-01-14 10:16:13.23	301.02	55.12	-49.5	-50.8	15.2	0.00e+00	0	27	0	868220928	65	4109
2026-01-14 10:16:17.21	302.94	54.00	-49.9	-51.2	15.0	0.00e+00	0	27	0	875560960	65	4316
2026-01-14 10:16:21.17	304.71	52.88	-50.5	-52.0	14.9	0.00e+00	0	27	0	882900992	66	4444
2026-01-14 10:16:25.14	306.35	51.76	-52.0	-53.5	14.7	0.00e+00	0	27	0	890241024	69	4492
2026-01-14 10:16:29.11	307.88	50.65	-53.1	-55.0	14.4	0.00e+00	0	27	0	897581056	71	4711
2026-01-14 10:16:33.09	309.30	49.53	-54.8	-57.2	13.6	0.00e+00	0	27	0	905969664	74	5124
2026-01-14 10:16:37.06	310.62	48.44	-55.3	-57.9	13.4	0.00e+00	0	27	0	913309696	75	5224
2026-01-14 10:16:41.02	311.85	47.35	-55.7	-58.4	13.3	0.00e+00	0	27	0	920649728	77	4965
2026-01-14 10:16:44.99	313.00	46.28	-54.5	-56.8	14.0	0.00e+00	0	27	0	927989760	75	4607
2026-01-14 10:16:48.96	314.07	45.22	-54.1	-56.2	14.1	0.00e+00	0	27	0	935329792	74	4587
2026-01-14 10:16:52.94	315.09	44.18	-52.4	-54.0	14.7	0.00e+00	0	27	0	942669824	71	4240
2026-01-14 10:16:56.92	316.03	43.16	-51.6	-53.1	14.9	0.00e+00	0	27	0	950009856	69	4252
2026-01-14 10:17:00.89	316.92	42.16	-52.9	-54.7	14.6	0.00e+00	0	27	0	957349888	72	4311
2026-01-14 10:17:04.86	317.76	41.18	-51.3	-52.8	14.9	0.00e+00	0	27	0	964689920	68	4342
2026-01-14 10:17:08.86	318.56	40.21	-54.0	-56.2	14.0	0.00e+00	0	27	0	973078528	73	4835
2026-01-14 10:17:12.83	319.30	39.27	-52.0	-53.6	14.8	0.00e+00	0	27	0	980418560	70	4267
2026-01-14 10:17:16.80	320.01	38.35	-52.3	-54.0	14.5	0.00e+00	0	27	0	987758592	69	4736
2026-01-14 10:17:20.79	320.68	37.45	-52.6	-54.3	14.6	0.00e+00	0	27	0	995098624	71	4380
2026-01-14 10:17:24.76	321.31	36.57	-51.2	-52.6	14.9	0.00e+00	0	27	0	1002438656	68	4281
2026-01-14 10:17:28.72	321.91	35.71	-53.4	-55.3	14.2	0.00e+00	0	27	0	1009778688	71	4915
2026-01-14 10:17:32.71	322.48	34.86	-53.4	-55.3	14.4	0.00e+00	0	27	0	1017118720	73	4391
2026-01-14 10:17:36.69	323.03	34.04	-52.2	-53.8	14.7	0.00e+00	0	27	0	1024458752	70	4385
2026-01-14 10:17:40.68	323.55	33.23	-53.1	-54.9	14.3	0.00e+00	0	27	0	1031798784	71	4695
2026-01-14 10:17:44.66	324.05	32.45	-53.4	-55.4	14.2	0.00e+00	0	27	0	1040187392	72	4679
2026-01-14 10:17:48.63	324.52	31.68	-54.1	-56.2	14.0	0.00e+00	0	27	0	1047527424	73	4870
2026-01-14 10:17:52.60	324.97	30.93	-54.8	-57.3	13.6	0.00e+00	0	27	0	1054867456	75	4892
2026-01-14 10:17:56.57	325.40	30.20	-53.7	-55.8	14.3	0.00e+00	0	27	0	1062207488	74	4363
2026-01-14 10:18:00.55	325.81	29.48	-53.5	-55.5	14.3	0.00e+00	0	27	0	1069547520	73	4447
2026-01-14 10:18:04.52	326.21	28.79	-53.6	-55.7	14.2	0.00e+00	0	27	0	1076887552	73	4574
2026-01-14 10:18:08.50	326.59	28.10	-53.8	-55.9	14.1	0.00e+00	0	27	0	1084227584	73	4660
2026-01-14 10:18:12.48	326.96	27.43	-53.1	-55.0	14.4	0.00e+00	0	27	0	1091567616	72	4448
2026-01-14 10:18:16.46	327.31	26.78	-52.6	-54.4	14.5	0.00e+00	0	27	0	1098907648	71	4413
2026-01-14 10:18:20.44	327.65	26.14	-52.4	-54.2	14.7	0.00e+00	0	27	0	1107296256	71	4301
2026-01-14 10:18:24.41	327.98	25.51	-52.6	-54.3	14.6	0.00e+00	0	27	0	1114636288	71	4378
2026-01-14 10:18:28.39	328.29	24.90	-52.8	-54.7	14.4	0.00e+00	0	27	0	1121976320	71	4558
2026-01-14 10:18:32.37	328.59	24.30	-52.5	-54.3	14.6	0.00e+00	0	27	0	1129316352	71	4375
2026-01-14 10:18:36.34	328.89	23.72	-51.9	-53.6	14.8	0.00e+00	0	27	0	1136656384	70	4243
2026-01-14 10:18:40.32	329.17	23.14	-51.4	-52.9	14.9	0.00e+00	0	27	0	1143996416	69	4192
2026-01-14 10:18:44.29	329.44	22.58	-51.2	-52.7	15.0	0.00e+00	0	27	0	1151336448	69	4092
2026-01-14 10:18:48.29	329.71	22.03	-51.3	-52.9	14.8	0.00e+00	0	27	0	1158676480	68	4405
2026-01-14 10:18:52.27	329.96	21.49	-51.7	-53.3	14.6	0.00e+00	0	27	0	1166016512	68	4627
2026-01-14 10:18:56.26	330.21	20.96	-51.9	-53.6	14.5	0.00e+00	0	27	0	1174405120	68	4790
2026-01-14 10:19:00.25	330.45	20.44	-51.9	-53.6	14.6	0.00e+00	0	27	0	1181745152	69	4498
2026-01-14 10:19:04.24	330.69	19.93	-51.7	-53.3	14.7	0.00e+00	0	27	0	1189085184	69	4373
2026-01-14 10:19:08.24	330.91	19.43	-51.5	-53.1	14.8	0.00e+00	0	27	0	1196425216	69	4254
2026-01-14 10:19:12.21	331.13	18.95	-51.4	-53.0	14.9	0.00e+00	0	27	0	1203765248	69	4199
2026-01-14 10:19:16.19	331.35	18.47	-51.4	-53.0	14.8	0.00e+00	0	27	0	1211105280	69	4232
2026-01-14 10:19:20.17	331.55	18.00	-51.7	-53.4	14.7	0.00e+00	0	27	0	1218445312	69	4410
2026-01-14 10:19:24.15	331.75	17.53	-51.9	-53.6	14.6	0.00e+00	0	27	0	1225785344	69	4514
2026-01-14 10:19:28.12	331.95	17.08	-52.0	-53.7	14.5	0.00e+00	0	27	0	1234173952	69	4592
2026-01-14 10:19:32.11	332.14	16.64	-52.0	-53.8	14.5	0.00e+00	0	27	0	1241513984	69	4626
2026-01-14 10:19:36.08	332.33	16.20	-52.1	-53.8	14.5	0.00e+00	0	27	0	1248854016	69	4632
2026-01-14 10:19:40.07	332.51	15.77	-52.2	-54.0	14.4	0.00e+00	0	27	0	1256194048	69	4715
2026-01-14 10:19:44.06	332.68	15.34	-52.3	-54.1	14.3	0.00e+00	0	27	0	1263534080	69	4789
2026-01-14 10:19:48.03	332.86	14.93	-52.4	-54.3	14.4	0.00e+00	0	27	0	1270874112	70	4607
2026-01-14 10:19:52.00	333.02	14.52	-52.7	-54.6	14.2	0.00e+00	0	27	0	1278214144	70	4785
2026-01-14 10:19:55.97	333.19	14.12	-52.8	-54.7	14.2	0.00e+00	0	27	0	1285554176	70	4868
2026-01-14 10:19:59.94	333.35	13.72	-52.9	-54.9	14.2	0.00e+00	0	27	0	1292894208	71	4679
2026-01-14 10:20:03.92	333.50	13.33	-53.1	-55.3	14.1	0.00e+00	0	27	0	1301282816	71	4871
2026-01-14 10:20:07.90	333.65	12.95	-53.1	-55.2	14.1	0.00e+00	0	27	0	1308622848	71	4822
2026-01-14 10:20:11.86	333.80	12.57	-53.1	-55.2	14.0	0.00e+00	0	27	0	1315962880	71	4853
2026-01-14 10:20:15.83	333.95	12.20	-53.3	-55.5	13.9	0.00e+00	0	27	0	1323302912	71	5005
2026-01-14 10:20:19.81	334.09	11.83	-53.2	-55.4	14.0	0.00e+00	0	27	0	1330642944	71	4944
2026-01-14 10:20:23.78	334.23	11.47	-53.2	-55.3	14.0	0.00e+00	0	27	0	1337982976	71	4907
2026-01-14 10:20:27.76	334.37	11.12	-53.2	-55.4	13.9	0.00e+00	0	28	0	1345323008	71	4939
2026-01-14 10:20:31.74	334.50	10.76	-53.3	-55.5	13.9	0.00e+00	0	27	0	1352663040	71	5003
2026-01-14 10:20:35.72	334.63	10.42	-53.2	-55.4	13.9	0.00e+00	0	27	0	1360003072	71	4937
2026-01-14 10:20:39.70	334.76	10.07	-53.2	-55.4	13.9	0.00e+00	0	27	0	1368391680	71	4960
2026-01-14 10:20:43.68	334.89	9.74	-53.0	-55.2	14.0	0.00e+00	0	27	0	1375731712	71	4819
2026-01-14 10:20:47.64	335.01	9.41	-53.0	-55.1	14.0	0.00e+00	0	28	0	1383071744	71	4802
2026-01-14 10:20:51.61	335.13	9.08	-53.0	-55.1	14.0	0.00e+00	0	27	0	1390411776	71	4786
2026-01-14 10:20:55.59	335.25	8.75	-52.9	-54.9	14.1	0.00e+00	0	28	0	1397751808	71	4701
2026-01-14 10:20:59.56	335.36	8.43	-52.9	-55.0	14.1	0.00e+00	0	27	0	1405091840	71	4743
2026-01-14 10:21:03.53	335.48	8.12	-52.9	-55.0	14.1	0.00e+00	0	27	0	1412431872	71	4731
2026-01-14 10:21:07.51	335.59	7.80	-52.9	-55.0	14.0	0.00e+00	0	27	0	1419771904	71	4741
2026-01-14 10:21:11.48	335.70	7.50	-53.0	-55.2	14.0	0.00e+00	0	27	0	1427111936	71	4828
2026-01-14 10:21:15.46	335.81	7.19	-52.9	-55.1	14.0	0.00e+00	0	27	0	1435500544	71	4791
2026-01-14 10:21:19.44	335.92	6.89	-53.1	-55.4	13.8	0.00e+00	0	27	0	1442840576	71	4937
2026-01-14 10:21:23.41	336.02	6.59	-53.4	-55.7	13.7	0.00e+00	0	27	0	1450180608	72	4846
2026-01-14 10:21:27.40	336.13	6.30	-53.4	-55.8	13.7	0.00e+00	0	27	0	1457520640	72	4888
2026-01-14 10:21:31.38	336.23	6.00	-53.6	-56.0	13.5	0.00e+00	0	27	0	1464860672	72	5028
2026-01-14 10:21:35.34	336.33	5.72	-53.3	-55.7	13.7	0.00e+00	0	27	0	1472200704	72	4869
2026-01-14 10:21:39.31	336.42	5.43	-53.8	-56.4	13.4	0.00e+00	0	27	0	1479540736	73	4976
2026-01-14 10:21:43.29	336.52	5.15	-53.7	-56.4	13.4	0.00e+00	0	27	0	1486880768	73	4929
2026-01-14 10:21:47.29	336.62	4.87	-59.2	-75.2	3.8	1.49e+00	0	27	104	1492123648	83	24135
2026-01-14 10:21:51.30	336.71	4.59	-60.1	-76.1	3.8	1.49e+00	0	27	104	1492123648	85	24045
2026-01-14 10:21:55.32	336.80	4.31	-60.4	-76.4	3.8	1.49e+00	0	27	104	1492123648	85	24894
2026-01-14 10:21:59.34	336.90	4.04	-60.5	-76.6	3.8	1.49e+00	0	27	104	1492123648	86	23909
2026-01-14 10:22:03.36	336.99	3.77	-60.6	-76.7	3.8	1.49e+00	0	28	104	1492123648	86	24210
2026-01-14 10:22:07.02	337.07	3.52	-60.7	-76.8	3.8	1.49e+00	0	28	104	1492123648	86	24430
2026-01-14 10:22:11.19	337.16	3.25	-60.6	-76.6	3.8	1.49e+00	0	27	104	1492123648	86	24118
2026-01-14 10:22:15.22	337.25	2.98	-60.5	-76.6	3.8	1.49e+00	0	27	104	1492123648	86	24022
2026-01-14 10:22:19.23	337.33	2.72	-60.5	-76.6	3.8	1.49e+00	0	27	104	1492123648	86	23919
2026-01-14 10:22:23.28	337.42	2.46	-60.5	-76.6	3.8	1.49e+00	0	27	104	1492123648	86	23882
2026-01-14 10:22:27.32	337.50	2.21	-60.5	-76.5	3.8	1.49e+00	0	28	104	1492123648	86	23791
2026-01-14 10:22:31.33	337.58	1.95	-60.4	-76.5	3.8	1.49e+00	0	28	104	1492123648	86	23734

#Closed at: 2026-01-14 10:22:33
#Recorded file [1492 MB]: D:/lorett/data/31004_260114_130803.dat