passes_logs/2026/01/21/PlanumMoscow/PlanumMoscow__20260121_075216_METOP-C_rec.log

#Pass ID: 20260121_075216_METOP-C
#Satellite: METOP-C
#Configuration: METOP-C
#Start time: 2026-01-21 07:52:21.103824

#LorettStation: 1.0.0 05.05.2024
#Station: PlanumMoscow
#Location: 37.6253844 lon 55.6713361 lat
#TLE: 1 43689U 18087A   25293.88981035  .00000265  00000+0  14109-3 0  9997
#TLE: 2 43689  98.7006 352.4487 0002041 122.1097 238.0279 14.21482740360838

#Time	Az	El	Level	SNR
2026-01-21 07:55:59.556097	13.5	29.4	-60.1	0.0
2026-01-21 07:56:01.800612	13.5	29.8	-58.2	0.0
2026-01-21 07:56:04.037126	13.4	30.2	-59.5	0.0
2026-01-21 07:56:06.274631	13.3	30.6	-58.4	0.0
2026-01-21 07:56:08.509640	13.3	31.1	-60.0	0.0
2026-01-21 07:56:10.746163	13.2	31.5	-58.7	0.0
2026-01-21 07:56:12.989183	13.2	32.0	-59.6	0.0
2026-01-21 07:56:15.226689	13.1	32.4	-60.0	0.0
2026-01-21 07:56:17.464699	13.0	32.9	-60.0	0.0
2026-01-21 07:56:19.708710	12.9	33.4	-60.4	0.0
2026-01-21 07:56:21.948738	12.9	33.9	-62.1	0.0
2026-01-21 07:56:24.192749	12.8	34.4	-60.1	0.0
2026-01-21 07:56:26.434265	12.7	34.9	-61.3	0.0
2026-01-21 07:56:28.677276	12.6	35.4	-59.8	0.0
2026-01-21 07:56:30.921287	12.5	35.9	-60.5	0.0
2026-01-21 07:56:33.163307	12.4	36.4	-60.1	0.0
2026-01-21 07:56:35.405831	12.3	36.9	-59.8	0.0
2026-01-21 07:56:37.649347	12.2	37.5	-60.5	0.0
2026-01-21 07:56:39.892862	12.1	38.0	-60.3	0.0
2026-01-21 07:56:42.135378	12.0	38.6	-61.1	0.0
2026-01-21 07:56:44.378399	11.9	39.2	-60.9	0.0
2026-01-21 07:56:46.620410	11.8	39.7	-60.7	0.0
2026-01-21 07:56:48.861916	11.7	40.3	-60.1	0.0
2026-01-21 07:56:51.102454	11.6	40.9	-63.3	0.0
2026-01-21 07:56:53.345979	11.5	41.5	-59.7	0.0
2026-01-21 07:56:55.584485	11.3	42.2	-61.0	0.0
2026-01-21 07:56:57.828001	11.2	42.8	-62.8	0.0
2026-01-21 07:57:00.066506	11.0	43.4	-61.0	0.0
2026-01-21 07:57:02.305021	10.9	44.1	-60.5	0.0
2026-01-21 07:57:04.541030	10.7	44.7	-62.2	0.0
2026-01-21 07:57:06.781040	10.6	45.4	-62.2	0.0
2026-01-21 07:57:09.019050	10.4	46.1	-60.9	0.0
2026-01-21 07:57:11.258566	10.2	46.8	-63.3	0.0
2026-01-21 07:57:13.495071	10.0	47.5	-63.6	0.0
2026-01-21 07:57:15.733586	9.8	48.2	-63.3	0.0
2026-01-21 07:57:17.972092	9.6	48.9	-63.5	0.0
2026-01-21 07:57:20.211608	9.4	49.7	-62.4	0.0
2026-01-21 07:57:22.447636	9.2	50.4	-62.6	0.0
2026-01-21 07:57:24.686150	8.9	51.2	-63.4	0.0
2026-01-21 07:57:26.924674	8.7	51.9	-63.4	0.0
2026-01-21 07:57:29.163189	8.4	52.7	-63.6	0.0
2026-01-21 07:57:31.401208	8.1	53.5	-64.0	0.0
2026-01-21 07:57:33.637713	7.8	54.3	-64.0	0.0
2026-01-21 07:57:35.874218	7.5	55.2	-65.0	0.0
2026-01-21 07:57:38.114732	7.2	56.0	-65.8	0.0
2026-01-21 07:57:40.352265	6.8	56.8	-64.4	0.0
2026-01-21 07:57:42.588779	6.4	57.7	-65.8	0.0
2026-01-21 07:57:44.828285	6.0	58.6	-65.4	0.0
2026-01-21 07:57:47.068304	5.6	59.5	-64.9	0.0
2026-01-21 07:57:49.307810	5.1	60.4	-65.0	0.0
2026-01-21 07:57:51.545323	4.6	61.3	-66.3	0.0
2026-01-21 07:57:53.784846	4.1	62.2	-67.1	0.0
2026-01-21 07:57:56.025360	3.5	63.1	-67.2	0.0
2026-01-21 07:57:58.268877	2.9	64.0	-66.6	0.0
2026-01-21 07:58:00.501390	2.2	65.0	-67.0	0.0
2026-01-21 07:58:02.742905	1.4	65.9	-67.0	0.0
2026-01-21 07:58:04.987917	0.6	66.9	-67.5	0.0
2026-01-21 07:58:07.226431	359.7	67.9	-67.8	0.0
2026-01-21 07:58:09.465954	358.7	68.8	-67.9	0.0
2026-01-21 07:58:11.705469	357.6	69.8	-66.9	0.0
2026-01-21 07:58:13.943488	356.4	70.8	-67.9	0.0
2026-01-21 07:58:16.186002	355.1	71.8	-68.3	0.0
2026-01-21 07:58:18.424508	353.6	72.7	-68.3	0.0
2026-01-21 07:58:20.659526	351.9	73.7	-68.5	0.0
2026-01-21 07:58:22.900041	349.9	74.7	-68.3	0.0
2026-01-21 07:58:25.137051	347.7	75.6	-67.7	0.0
2026-01-21 07:58:27.376557	345.2	76.6	-68.4	0.0
2026-01-21 07:58:29.617072	342.3	77.5	-68.5	0.0
2026-01-21 07:58:31.859597	338.9	78.4	-68.1	0.0
2026-01-21 07:58:34.103113	335.0	79.2	-68.4	0.0
2026-01-21 07:58:36.346133	330.4	80.0	-68.2	0.0
2026-01-21 07:58:38.589154	325.0	80.7	-69.4	0.0
2026-01-21 07:58:40.834184	318.8	81.3	-69.2	0.0
2026-01-21 07:58:43.079700	311.7	81.8	-69.7	0.0
2026-01-21 07:58:45.319215	303.9	82.2	-69.3	0.0
2026-01-21 07:58:47.564226	295.4	82.4	-69.7	0.0
2026-01-21 07:58:49.801741	286.6	82.5	-69.4	0.0
2026-01-21 07:58:52.041256	277.9	82.3	-69.7	0.0
2026-01-21 07:58:54.281266	269.7	82.0	-70.0	0.0
2026-01-21 07:58:56.518303	262.3	81.6	-69.8	0.0
2026-01-21 07:58:58.752807	255.7	81.0	-69.2	0.0
2026-01-21 07:59:00.989321	250.0	80.3	-69.8	0.0
2026-01-21 07:59:03.225826	245.1	79.6	-70.3	0.0
2026-01-21 07:59:05.467341	240.8	78.8	-69.3	0.0
2026-01-21 07:59:07.711361	237.2	77.9	-69.7	0.0
2026-01-21 07:59:09.951877	234.1	77.0	-70.0	0.0
2026-01-21 07:59:12.188391	231.4	76.1	-70.0	0.0
2026-01-21 07:59:14.428402	229.0	75.1	-70.3	0.0
2026-01-21 07:59:16.664917	227.0	74.2	-69.5	0.0
2026-01-21 07:59:18.900926	225.2	73.2	-70.0	0.0
2026-01-21 07:59:21.141442	223.6	72.2	-69.9	0.0
2026-01-21 07:59:23.378965	222.2	71.2	-69.6	0.0
2026-01-21 07:59:25.616975	220.9	70.2	-69.3	0.0
2026-01-21 07:59:27.857481	219.7	69.3	-69.3	0.0
2026-01-21 07:59:30.097500	218.7	68.3	-68.6	0.0
2026-01-21 07:59:32.332509	217.8	67.3	-69.0	0.0
2026-01-21 07:59:34.566022	216.9	66.4	-68.8	0.0
2026-01-21 07:59:36.804032	216.1	65.4	-68.2	0.0
2026-01-21 07:59:39.036040	215.4	64.4	-68.4	0.0
2026-01-21 07:59:41.274059	214.8	63.5	-68.9	0.0
2026-01-21 07:59:43.515566	214.2	62.6	-68.9	0.0
2026-01-21 07:59:45.757585	213.6	61.6	-68.5	0.0
2026-01-21 07:59:47.996605	213.1	60.7	-68.6	0.0
2026-01-21 07:59:50.236129	212.6	59.8	-68.2	0.0
2026-01-21 07:59:52.479140	212.1	58.9	-68.5	0.0
2026-01-21 07:59:54.721151	211.7	58.1	-68.3	0.0
2026-01-21 07:59:56.959170	211.3	57.2	-67.5	0.0
2026-01-21 07:59:59.193685	210.9	56.3	-67.4	0.0
2026-01-21 08:00:01.436713	210.6	55.5	-66.2	0.0
2026-01-21 08:00:03.680231	210.3	54.7	-65.7	0.0
2026-01-21 08:00:05.924242	210.0	53.8	-66.1	0.0
2026-01-21 08:00:08.172770	209.7	53.0	-65.7	0.0
2026-01-21 08:00:10.417277	209.4	52.2	-65.5	0.0
2026-01-21 08:00:12.660319	209.1	51.4	-66.0	0.0
2026-01-21 08:00:14.903339	208.9	50.7	-66.4	0.0
2026-01-21 08:00:17.150360	208.7	49.9	-65.4	0.0
2026-01-21 08:00:19.395381	208.4	49.2	-65.6	0.0
2026-01-21 08:00:21.639392	208.2	48.4	-65.1	0.0
2026-01-21 08:00:23.883404	208.0	47.7	-64.0	0.0
2026-01-21 08:00:26.130416	207.8	47.0	-65.3	0.0
2026-01-21 08:00:28.374428	207.6	46.3	-64.6	0.0
2026-01-21 08:00:30.617457	207.5	45.6	-66.1	0.0
2026-01-21 08:00:32.863991	207.3	44.9	-63.9	0.0
2026-01-21 08:00:35.106517	207.1	44.2	-65.0	0.0
2026-01-21 08:00:37.349536	207.0	43.6	-65.2	0.0
2026-01-21 08:00:39.592556	206.8	42.9	-65.0	0.0
2026-01-21 08:00:41.838081	206.7	42.3	-64.1	0.0
2026-01-21 08:00:44.081101	206.6	41.7	-65.1	0.0
2026-01-21 08:00:46.324121	206.4	41.1	-65.6	0.0
2026-01-21 08:00:48.568142	206.3	40.5	-63.1	0.0
2026-01-21 08:00:50.812649	206.2	39.9	-64.0	0.0
2026-01-21 08:00:53.056660	206.1	39.3	-65.1	0.0
2026-01-21 08:00:55.300671	206.0	38.7	-62.5	0.0
2026-01-21 08:00:57.543692	205.8	38.1	-64.8	0.0
2026-01-21 08:00:59.786712	205.7	37.6	-62.5	0.0
2026-01-21 08:01:02.031220	205.6	37.0	-62.2	0.0
2026-01-21 08:01:04.274239	205.5	36.5	-65.3	0.0
2026-01-21 08:01:06.517755	205.5	36.0	-64.8	0.0
2026-01-21 08:01:08.761766	205.4	35.4	-63.0	0.0
2026-01-21 08:01:11.005778	205.3	34.9	-63.4	0.0
2026-01-21 08:01:13.250285	205.2	34.4	-63.4	0.0
2026-01-21 08:01:15.494296	205.1	33.9	-65.2	0.0
2026-01-21 08:01:17.738320	205.0	33.4	-63.2	0.0
2026-01-21 08:01:19.982342	205.0	33.0	-61.5	0.0
2026-01-21 08:01:22.225857	204.9	32.5	-62.4	0.0
2026-01-21 08:01:24.469868	204.8	32.0	-61.3	0.0
2026-01-21 08:01:26.713383	204.7	31.6	-63.4	0.0
2026-01-21 08:01:28.957889	204.7	31.1	-64.2	0.0
2026-01-21 08:01:31.201406	204.6	30.7	-63.8	0.0
2026-01-21 08:01:33.443932	204.5	30.2	-64.6	0.0
2026-01-21 08:01:35.686457	204.5	29.8	-59.3	0.0
2026-01-21 08:01:37.930477	204.4	29.4	-59.9	0.0
2026-01-21 08:01:40.175497	204.4	28.9	-62.3	0.0
2026-01-21 08:01:42.418518	204.3	28.5	-64.0	0.0
2026-01-21 08:01:44.661537	204.3	28.1	-63.7	0.0
2026-01-21 08:01:46.907558	204.2	27.7	-61.8	0.0
2026-01-21 08:01:49.150578	204.2	27.3	-63.1	0.0
2026-01-21 08:01:51.394590	204.1	26.9	-64.4	0.0
2026-01-21 08:01:53.638106	204.1	26.5	-63.6	0.0
2026-01-21 08:01:55.880631	204.0	26.2	-64.3	0.0
2026-01-21 08:01:58.124642	204.0	25.8	-62.0	0.0
2026-01-21 08:02:00.369149	203.9	25.4	-64.0	0.0
2026-01-21 08:02:02.611176	203.9	25.1	-64.0	0.0
2026-01-21 08:02:04.858207	203.8	24.7	-63.0	0.0
2026-01-21 08:02:07.101722	203.8	24.3	-64.2	0.0
2026-01-21 08:02:09.344742	203.7	24.0	-62.6	0.0
2026-01-21 08:02:11.590753	203.7	23.7	-62.4	0.0
2026-01-21 08:02:13.833279	203.7	23.3	-63.9	0.0
2026-01-21 08:02:16.077786	203.6	23.0	-62.8	0.0
2026-01-21 08:02:18.321301	203.6	22.6	-63.3	0.0
2026-01-21 08:02:20.567313	203.6	22.3	-65.0	0.0
2026-01-21 08:02:22.811334	203.5	22.0	-64.2	0.0
2026-01-21 08:02:25.054850	203.5	21.7	-62.4	0.0
2026-01-21 08:02:27.300870	203.5	21.4	-63.6	0.0
2026-01-21 08:02:29.545377	203.4	21.1	-63.0	0.0
2026-01-21 08:02:31.787902	203.4	20.7	-63.8	0.0
2026-01-21 08:02:34.031922	203.4	20.4	-65.2	0.0
2026-01-21 08:02:36.275439	203.3	20.1	-63.1	0.0
2026-01-21 08:02:38.519449	203.3	19.8	-63.1	0.0
2026-01-21 08:02:40.763460	203.3	19.6	-63.6	0.0
2026-01-21 08:02:43.006481	203.2	19.3	-64.0	0.0
2026-01-21 08:02:45.249501	203.2	19.0	-63.4	0.0
2026-01-21 08:02:47.493513	203.2	18.7	-60.9	0.0
2026-01-21 08:02:49.737524	203.2	18.4	-63.8	0.0
2026-01-21 08:02:51.981545	203.1	18.1	-63.0	0.0
2026-01-21 08:02:54.226061	203.1	17.9	-61.2	0.0
2026-01-21 08:02:56.470071	203.1	17.6	-61.3	0.0
2026-01-21 08:02:58.713092	203.1	17.3	-61.9	0.0
2026-01-21 08:03:00.957103	203.0	17.1	-63.8	0.4
2026-01-21 08:03:03.201610	203.0	16.8	-62.8	0.0
2026-01-21 08:03:05.445622	203.0	16.5	-59.5	0.0
2026-01-21 08:03:07.689633	203.0	16.3	-61.8	0.0
2026-01-21 08:03:09.932652	202.9	16.0	-60.1	0.0
2026-01-21 08:03:12.177168	202.9	15.8	-60.6	0.0
2026-01-21 08:03:14.421675	202.9	15.5	-56.7	0.0
2026-01-21 08:03:16.664199	202.9	15.3	-60.3	0.0
2026-01-21 08:03:18.907238	202.9	15.0	-62.8	0.0
2026-01-21 08:03:21.150273	202.8	14.8	-59.6	0.0
2026-01-21 08:03:23.393789	202.8	14.6	-63.7	0.0
2026-01-21 08:03:25.638305	202.8	14.3	-63.3	2.8
2026-01-21 08:03:27.881820	202.8	14.1	-60.3	0.0
2026-01-21 08:03:30.125336	202.8	13.9	-60.4	0.0
2026-01-21 08:03:32.368356	202.8	13.6	-57.2	0.0
2026-01-21 08:03:34.616368	202.7	13.4	-62.9	0.0
2026-01-21 08:03:36.859397	202.7	13.2	-62.6	0.1
2026-01-21 08:03:39.103408	202.7	13.0	-58.1	0.0
2026-01-21 08:03:41.345933	202.7	12.7	-59.2	0.0
2026-01-21 08:03:43.589448	202.7	12.5	-58.9	0.0
2026-01-21 08:03:45.833459	202.7	12.3	-60.0	0.0
2026-01-21 08:03:48.076478	202.6	12.1	-59.6	0.0
2026-01-21 08:03:50.319994	202.6	11.9	-60.2	0.0
2026-01-21 08:03:52.564005	202.6	11.7	-59.4	0.0
2026-01-21 08:03:54.807025	202.6	11.4	-59.9	0.0
2026-01-21 08:03:57.050541	202.6	11.2	-61.4	0.0
2026-01-21 08:03:59.297561	202.6	11.0	-60.0	0.0
2026-01-21 08:04:01.541078	202.6	10.8	-59.5	0.0
2026-01-21 08:04:03.785089	202.5	10.6	-61.8	0.0
2026-01-21 08:04:06.029614	202.5	10.4	-58.6	0.0
2026-01-21 08:04:08.272139	202.5	10.2	-62.2	0.0
2026-01-21 08:04:10.517151	202.5	10.0	-63.1	0.0
2026-01-21 08:04:12.760171	202.5	9.8	-62.0	0.0
2026-01-21 08:04:15.003704	202.5	9.6	-62.1	0.0
2026-01-21 08:04:17.246229	202.5	9.4	-61.6	0.0
2026-01-21 08:04:19.488753	202.5	9.3	-59.7	0.0
2026-01-21 08:04:21.730287	202.5	9.1	-62.3	0.0
2026-01-21 08:04:23.977307	202.4	8.9	-61.9	0.0
2026-01-21 08:04:26.221318	202.4	8.7	-62.3	0.0
2026-01-21 08:04:28.465330	202.4	8.5	-62.0	0.0
2026-01-21 08:04:30.711350	202.4	8.3	-59.1	0.0
2026-01-21 08:04:32.956361	202.4	8.1	-58.8	0.0
2026-01-21 08:04:35.199381	202.4	8.0	-54.8	0.0
2026-01-21 08:04:37.442402	202.4	7.8	-53.1	0.0
2026-01-21 08:04:39.685927	202.4	7.6	-60.4	0.0
2026-01-21 08:04:41.929946	202.4	7.4	-58.1	0.0
2026-01-21 08:04:44.173462	202.4	7.2	-60.2	0.0
2026-01-21 08:04:46.418489	202.3	7.1	-62.6	0.0
2026-01-21 08:04:48.662005	202.3	6.9	-63.0	0.0
2026-01-21 08:04:50.905522	202.3	6.7	-61.4	0.0
2026-01-21 08:04:53.149037	202.3	6.5	-54.9	0.0
2026-01-21 08:04:55.393543	202.3	6.4	-60.5	0.0
2026-01-21 08:04:57.637069	202.3	6.2	-61.3	0.0
2026-01-21 08:04:59.881575	202.3	6.0	-62.4	0.0
2026-01-21 08:05:02.128092	202.3	5.9	-64.7	2.5
2026-01-21 08:05:04.371627	202.3	5.7	-67.8	0.0
2026-01-21 08:05:06.614647	202.3	5.5	-69.7	0.0
2026-01-21 08:05:08.858162	202.3	5.4	-71.0	0.0
2026-01-21 08:05:11.104689	202.3	5.2	-70.7	0.0
2026-01-21 08:05:13.348701	202.3	5.0	-70.7	0.0
#Closed at: 2026-01-21 07:52:16.105124