passes_logs/2026/01/21/PlanumMoscow/PlanumMoscow__20260121_230558_METEOR-M2_4_rec.log

#Pass ID: 20260121_230558_METEOR-M2 4
#Satellite: METEOR-M2 4
#Configuration: METEOR-M2 4
#Start time: 2026-01-21 23:06:03.940853

#LorettStation: 1.0.0 05.05.2024
#Station: PlanumMoscow
#Location: 37.6253844 lon 55.6713361 lat
#TLE: 1 59051U 24039A   25293.94737965  .00000087  00000+0  58459-4 0  9998
#TLE: 2 59051  98.6671 251.7071 0007726 135.4772 224.7028 14.22388966 85257

#Time	Az	El	Level	SNR
2026-01-21 23:09:42.404829	70.1	13.9	-63.8	6.9
2026-01-21 23:09:43.527588	70.3	14.0	-64.5	8.5
2026-01-21 23:09:44.649841	70.6	14.0	-65.0	8.0
2026-01-21 23:09:45.772095	70.8	14.0	-65.1	8.3
2026-01-21 23:09:46.894348	71.0	14.0	-64.3	6.8
2026-01-21 23:09:48.016106	71.3	14.1	-65.2	8.0
2026-01-21 23:09:49.137378	71.5	14.1	-65.3	7.9
2026-01-21 23:09:50.262137	71.7	14.1	-65.0	8.4
2026-01-21 23:09:51.383400	71.9	14.1	-64.5	7.6
2026-01-21 23:09:52.505653	72.2	14.1	-65.2	7.8
2026-01-21 23:09:53.627411	72.4	14.2	-64.7	8.3
2026-01-21 23:09:54.749169	72.6	14.2	-64.8	8.5
2026-01-21 23:09:55.870926	72.9	14.2	-64.8	8.1
2026-01-21 23:09:56.993180	73.1	14.2	-65.1	8.4
2026-01-21 23:09:58.114937	73.3	14.2	-64.9	8.2
2026-01-21 23:09:59.238191	73.6	14.3	-65.0	8.6
2026-01-21 23:10:00.360444	73.8	14.3	-64.7	7.7
2026-01-21 23:10:01.481707	74.0	14.3	-65.0	9.2
2026-01-21 23:10:02.603961	74.2	14.3	-65.1	9.2
2026-01-21 23:10:03.725222	74.5	14.3	-64.9	8.6
2026-01-21 23:10:04.847981	74.7	14.3	-64.7	8.6
2026-01-21 23:10:05.970738	74.9	14.4	-65.1	8.9
2026-01-21 23:10:07.092496	75.2	14.4	-65.0	8.9
2026-01-21 23:10:08.214749	75.4	14.4	-64.6	8.0
2026-01-21 23:10:09.336508	75.6	14.4	-64.7	7.9
2026-01-21 23:10:10.458761	75.9	14.4	-64.3	7.9
2026-01-21 23:10:11.580043	76.1	14.4	-65.2	8.0
2026-01-21 23:10:12.701306	76.3	14.5	-64.1	7.5
2026-01-21 23:10:13.823559	76.6	14.5	-64.8	8.5
2026-01-21 23:10:14.945822	76.8	14.5	-64.4	6.7
2026-01-21 23:10:16.067580	77.0	14.5	-64.3	8.3
2026-01-21 23:10:17.189833	77.3	14.5	-64.1	7.7
2026-01-21 23:10:18.312086	77.5	14.5	-64.1	8.7
2026-01-21 23:10:19.433845	77.8	14.5	-64.1	5.9
2026-01-21 23:10:20.555107	78.0	14.5	-64.4	8.3
2026-01-21 23:10:21.676368	78.2	14.5	-64.6	7.4
2026-01-21 23:10:22.797630	78.5	14.6	-64.5	7.4
2026-01-21 23:10:23.919884	78.7	14.6	-64.9	8.3
2026-01-21 23:10:25.041642	78.9	14.6	-63.2	5.7
2026-01-21 23:10:26.162400	79.2	14.6	-64.6	7.9
2026-01-21 23:10:27.284653	79.4	14.6	-64.4	5.6
2026-01-21 23:10:28.407915	79.6	14.6	-64.6	7.3
2026-01-21 23:10:29.528681	79.9	14.6	-64.6	6.9
2026-01-21 23:10:30.652448	80.1	14.6	-62.7	4.3
2026-01-21 23:10:31.774205	80.3	14.6	-63.0	4.6
2026-01-21 23:10:32.895467	80.6	14.6	-63.9	7.7
2026-01-21 23:10:34.017729	80.8	14.6	-63.4	7.2
2026-01-21 23:10:35.139982	81.1	14.6	-63.8	7.2
2026-01-21 23:10:36.261740	81.3	14.6	-62.6	4.2
2026-01-21 23:10:37.382507	81.5	14.6	-62.5	3.1
2026-01-21 23:10:38.504760	81.8	14.6	-63.6	6.5
2026-01-21 23:10:39.626522	82.0	14.6	-64.6	6.9
2026-01-21 23:10:40.747783	82.2	14.6	-63.1	3.3
2026-01-21 23:10:41.869549	82.5	14.6	-63.9	5.5
2026-01-21 23:10:42.991307	82.7	14.6	-63.6	7.1
2026-01-21 23:10:44.113560	83.0	14.6	-63.7	6.5
2026-01-21 23:10:45.234823	83.2	14.6	-63.9	7.6
2026-01-21 23:10:46.357077	83.4	14.6	-63.0	5.4
2026-01-21 23:10:47.478338	83.7	14.6	-63.9	6.0
2026-01-21 23:10:48.601096	83.9	14.6	-63.0	6.6
2026-01-21 23:10:49.721368	84.1	14.6	-63.7	4.9
2026-01-21 23:10:50.842630	84.4	14.6	-64.6	7.2
2026-01-21 23:10:51.964388	84.6	14.6	-64.2	5.9
2026-01-21 23:10:53.086641	84.9	14.6	-64.1	7.0
2026-01-21 23:10:54.207409	85.1	14.6	-63.6	6.1
2026-01-21 23:10:55.328671	85.3	14.6	-64.5	6.0
2026-01-21 23:10:56.450428	85.6	14.6	-64.8	6.3
2026-01-21 23:10:57.572682	85.8	14.6	-63.6	5.1
2026-01-21 23:10:58.694440	86.0	14.6	-65.0	6.0
2026-01-21 23:10:59.815704	86.3	14.6	-64.3	4.8
2026-01-21 23:11:00.937958	86.5	14.6	-63.2	5.8
2026-01-21 23:11:02.062220	86.7	14.6	-64.6	5.8
2026-01-21 23:11:03.184979	87.0	14.6	-64.6	6.6
2026-01-21 23:11:04.307232	87.2	14.6	-64.2	4.7
2026-01-21 23:11:05.428494	87.5	14.6	-64.6	6.5
2026-01-21 23:11:06.550748	87.7	14.6	-62.0	2.0
2026-01-21 23:11:07.672505	87.9	14.6	-64.4	7.3
2026-01-21 23:11:08.793768	88.2	14.6	-63.6	4.5
2026-01-21 23:11:09.915525	88.4	14.5	-64.6	6.8
2026-01-21 23:11:11.037283	88.6	14.5	-63.9	7.3
2026-01-21 23:11:12.158536	88.9	14.5	-64.4	6.8
2026-01-21 23:11:13.279790	89.1	14.5	-63.0	4.3
2026-01-21 23:11:14.402043	89.3	14.5	-63.2	5.4
2026-01-21 23:11:15.524296	89.6	14.5	-63.4	3.1
2026-01-21 23:11:16.646076	89.8	14.5	-63.8	6.8
2026-01-21 23:11:17.766349	90.0	14.5	-61.8	2.9
2026-01-21 23:11:18.887620	90.3	14.4	-61.9	2.2
2026-01-21 23:11:20.009378	90.5	14.4	-63.5	3.1
2026-01-21 23:11:21.130641	90.8	14.4	-62.9	7.5
2026-01-21 23:11:22.252894	91.0	14.4	-61.8	3.0
2026-01-21 23:11:23.374652	91.2	14.4	-61.5	3.1
2026-01-21 23:11:24.496905	91.5	14.4	-63.1	5.3
2026-01-21 23:11:25.617671	91.7	14.4	-64.6	7.7
2026-01-21 23:11:26.740429	91.9	14.3	-64.6	7.6
2026-01-21 23:11:27.862682	92.2	14.3	-64.0	6.4
2026-01-21 23:11:28.984936	92.4	14.3	-64.6	7.6
2026-01-21 23:11:30.106198	92.6	14.3	-64.4	7.1
2026-01-21 23:11:31.227459	92.8	14.3	-64.5	5.4
2026-01-21 23:11:32.349217	93.1	14.3	-64.5	6.1
2026-01-21 23:11:33.470479	93.3	14.2	-64.5	5.8
2026-01-21 23:11:34.591741	93.5	14.2	-64.8	8.3
2026-01-21 23:11:35.713994	93.8	14.2	-64.8	7.4
2026-01-21 23:11:36.836247	94.0	14.2	-64.3	6.4
2026-01-21 23:11:37.957013	94.2	14.2	-63.9	7.3
2026-01-21 23:11:39.079266	94.5	14.1	-64.7	6.9
2026-01-21 23:11:40.200529	94.7	14.1	-64.7	7.0
2026-01-21 23:11:41.324792	94.9	14.1	-63.9	6.0
2026-01-21 23:11:42.447045	95.2	14.1	-64.5	7.2
2026-01-21 23:11:43.568307	95.4	14.1	-64.4	7.1
2026-01-21 23:11:44.689568	95.6	14.0	-64.5	7.7
2026-01-21 23:11:45.810829	95.8	14.0	-64.5	7.5
2026-01-21 23:11:46.932587	96.1	14.0	-63.1	3.9
2026-01-21 23:11:48.053849	96.3	14.0	-64.8	6.8
2026-01-21 23:11:49.175607	96.5	13.9	-63.8	5.4
2026-01-21 23:11:50.295364	96.7	13.9	-64.5	8.2
2026-01-21 23:11:51.417122	97.0	13.9	-64.4	7.8
2026-01-21 23:11:52.538384	97.2	13.9	-63.3	4.7
2026-01-21 23:11:53.659142	97.4	13.8	-63.0	5.3
2026-01-21 23:11:54.780395	97.7	13.8	-63.0	3.7
2026-01-21 23:11:55.902152	97.9	13.8	-63.2	4.8
2026-01-21 23:11:57.022920	98.1	13.8	-65.1	7.7
2026-01-21 23:11:58.144183	98.3	13.7	-64.9	7.8
2026-01-21 23:11:59.266436	98.5	13.7	-64.2	5.1
2026-01-21 23:12:00.388194	98.8	13.7	-64.6	4.9
2026-01-21 23:12:01.509456	99.0	13.6	-64.7	5.3
2026-01-21 23:12:02.631709	99.2	13.6	-64.9	7.6
2026-01-21 23:12:03.751972	99.4	13.6	-64.0	6.3
2026-01-21 23:12:04.877731	99.7	13.6	-64.2	5.9
2026-01-21 23:12:05.999984	99.9	13.5	-65.2	7.5
2026-01-21 23:12:07.121742	100.1	13.5	-65.0	7.0
2026-01-21 23:12:08.243004	100.3	13.5	-64.1	5.9
2026-01-21 23:12:09.362761	100.5	13.4	-64.4	7.4
2026-01-21 23:12:10.483527	100.8	13.4	-64.8	7.4
2026-01-21 23:12:11.603797	101.0	13.4	-65.0	7.0
2026-01-21 23:12:12.725555	101.2	13.3	-63.7	5.4
2026-01-21 23:12:13.847312	101.4	13.3	-64.3	5.7
2026-01-21 23:12:14.969566	101.6	13.3	-64.9	7.6
2026-01-21 23:12:16.090323	101.9	13.2	-64.6	6.5
2026-01-21 23:12:17.211585	102.1	13.2	-64.3	7.0
2026-01-21 23:12:18.334343	102.3	13.2	-65.0	8.0
2026-01-21 23:12:19.456101	102.5	13.1	-65.2	8.3
2026-01-21 23:12:20.576872	102.7	13.1	-65.4	8.1
2026-01-21 23:12:21.698630	102.9	13.1	-64.4	7.3
2026-01-21 23:12:22.820388	103.1	13.0	-64.7	7.3
2026-01-21 23:12:23.942642	103.4	13.0	-65.4	8.7
2026-01-21 23:12:25.064399	103.6	13.0	-65.4	8.2
2026-01-21 23:12:26.186653	103.8	12.9	-63.3	5.3
2026-01-21 23:12:27.308419	104.0	12.9	-64.7	7.0
2026-01-21 23:12:28.432674	104.2	12.9	-65.5	8.4
2026-01-21 23:12:29.554431	104.4	12.8	-65.4	8.1
2026-01-21 23:12:30.676684	104.6	12.8	-63.5	6.7
2026-01-21 23:12:31.798937	104.8	12.7	-64.0	6.4
2026-01-21 23:12:32.920695	105.1	12.7	-65.5	8.0
2026-01-21 23:12:34.041958	105.3	12.7	-65.7	8.0
2026-01-21 23:12:35.162716	105.5	12.6	-65.0	7.1
2026-01-21 23:12:36.285987	105.7	12.6	-64.2	7.0
2026-01-21 23:12:37.408241	105.9	12.6	-64.2	6.8
2026-01-21 23:12:38.529999	106.1	12.5	-65.1	7.4
2026-01-21 23:12:39.651757	106.3	12.5	-63.6	5.8
2026-01-21 23:12:40.772027	106.5	12.4	-64.1	5.8
2026-01-21 23:12:41.894281	106.7	12.4	-65.5	7.2
2026-01-21 23:12:43.014542	106.9	12.4	-65.7	8.1
2026-01-21 23:12:44.136796	107.1	12.3	-63.5	3.6
2026-01-21 23:12:45.258554	107.3	12.3	-63.5	4.0
2026-01-21 23:12:46.380311	107.5	12.2	-65.7	7.3
2026-01-21 23:12:47.502564	107.7	12.2	-65.7	7.4
2026-01-21 23:12:48.624818	107.9	12.2	-64.0	5.1
2026-01-21 23:12:49.746080	108.1	12.1	-65.0	4.8
2026-01-21 23:12:50.867342	108.3	12.1	-65.6	6.5
2026-01-21 23:12:51.989100	108.5	12.0	-65.6	7.3
2026-01-21 23:12:53.110858	108.7	12.0	-65.7	7.1
2026-01-21 23:12:54.233112	108.9	11.9	-64.7	4.6
2026-01-21 23:12:55.355365	109.1	11.9	-65.7	6.6
2026-01-21 23:12:56.477123	109.3	11.9	-65.9	7.7
2026-01-21 23:12:57.599386	109.5	11.8	-65.7	5.7
2026-01-21 23:12:58.720647	109.7	11.8	-65.1	4.8
2026-01-21 23:12:59.845414	109.9	11.7	-65.9	6.6
2026-01-21 23:13:00.966172	110.1	11.7	-65.7	7.2
2026-01-21 23:13:02.088425	110.3	11.6	-63.1	4.3
2026-01-21 23:13:03.210183	110.5	11.6	-64.2	2.2
2026-01-21 23:13:04.334437	110.7	11.5	-66.0	7.0
2026-01-21 23:13:05.456195	110.9	11.5	-66.2	6.9
2026-01-21 23:13:06.577457	111.1	11.5	-65.8	7.0
2026-01-21 23:13:07.699215	111.3	11.4	-64.4	5.5
2026-01-21 23:13:08.820973	111.5	11.4	-65.6	7.1
2026-01-21 23:13:09.943235	111.7	11.3	-65.6	6.4
2026-01-21 23:13:11.065489	111.9	11.3	-65.5	7.0
2026-01-21 23:13:12.187246	112.0	11.2	-62.7	2.8
2026-01-21 23:13:13.309500	112.2	11.2	-65.5	6.8
2026-01-21 23:13:14.433267	112.4	11.1	-66.0	7.1
2026-01-21 23:13:15.555026	112.6	11.1	-65.8	6.9
2026-01-21 23:13:16.676784	112.8	11.0	-64.6	6.0
2026-01-21 23:13:17.799037	113.0	11.0	-65.7	6.1
2026-01-21 23:13:18.920299	113.2	10.9	-65.7	7.1
2026-01-21 23:13:20.041065	113.4	10.9	-65.9	6.5
2026-01-21 23:13:21.163318	113.6	10.9	-64.8	6.0
2026-01-21 23:13:22.284581	113.7	10.8	-65.9	6.3
2026-01-21 23:13:23.406834	113.9	10.8	-65.6	6.2
2026-01-21 23:13:24.528087	114.1	10.7	-65.6	6.5
2026-01-21 23:13:25.649353	114.3	10.7	-65.5	6.6
2026-01-21 23:13:26.771119	114.5	10.6	-65.9	6.4
2026-01-21 23:13:27.893373	114.7	10.6	-65.8	6.2
2026-01-21 23:13:29.015131	114.8	10.5	-65.6	6.2
2026-01-21 23:13:30.134904	115.0	10.5	-65.5	5.9
2026-01-21 23:13:31.256157	115.2	10.4	-65.4	7.3
2026-01-21 23:13:32.377915	115.4	10.4	-65.4	6.4
2026-01-21 23:13:33.499177	115.6	10.3	-65.0	5.1
2026-01-21 23:13:34.619942	115.7	10.3	-64.0	5.9
2026-01-21 23:13:35.741700	115.9	10.2	-65.3	6.4
2026-01-21 23:13:36.864458	116.1	10.2	-64.0	3.6
2026-01-21 23:13:37.986215	116.3	10.1	-65.2	5.9
2026-01-21 23:13:39.113470	116.4	10.1	-65.3	5.8
2026-01-21 23:13:40.235734	116.6	10.0	-65.1	5.6
2026-01-21 23:13:41.357492	116.8	10.0	-65.2	5.7
2026-01-21 23:13:42.479753	117.0	9.9	-65.3	6.4
2026-01-21 23:13:43.602007	117.1	9.9	-65.4	5.5
2026-01-21 23:13:44.724260	117.3	9.8	-63.3	2.6
2026-01-21 23:13:45.845531	117.5	9.8	-65.2	5.5
2026-01-21 23:13:46.967289	117.7	9.7	-64.5	3.4
2026-01-21 23:13:48.088542	117.8	9.7	-64.8	5.7
2026-01-21 23:13:49.210795	118.0	9.6	-63.1	2.9
2026-01-21 23:13:50.332554	118.2	9.6	-65.3	5.3
2026-01-21 23:13:51.454312	118.3	9.5	-64.9	5.0
2026-01-21 23:13:52.576565	118.5	9.5	-65.0	5.0
2026-01-21 23:13:53.697331	118.7	9.4	-63.6	2.2
2026-01-21 23:13:54.819585	118.9	9.4	-65.0	4.8
2026-01-21 23:13:55.939855	119.0	9.3	-65.2	4.9
2026-01-21 23:13:57.061116	119.2	9.3	-65.3	5.2
2026-01-21 23:13:58.183370	119.4	9.2	-63.5	2.1
2026-01-21 23:13:59.305623	119.5	9.1	-64.9	4.7
2026-01-21 23:14:00.427886	119.7	9.1	-65.0	4.6
2026-01-21 23:14:01.548159	119.8	9.0	-65.2	4.3
2026-01-21 23:14:02.670413	120.0	9.0	-63.0	1.7
2026-01-21 23:14:03.792666	120.2	8.9	-65.2	4.6
2026-01-21 23:14:04.915920	120.3	8.9	-65.2	3.6
2026-01-21 23:14:06.037173	120.5	8.8	-64.9	4.3
2026-01-21 23:14:07.159427	120.7	8.8	-63.4	2.3
2026-01-21 23:14:08.281680	120.8	8.7	-64.8	4.0
2026-01-21 23:14:09.403942	121.0	8.7	-64.4	4.9
2026-01-21 23:14:10.525700	121.1	8.6	-64.4	4.1
2026-01-21 23:14:11.647457	121.3	8.6	-63.0	1.6
2026-01-21 23:14:12.767224	121.5	8.5	-64.3	3.7
2026-01-21 23:14:13.888485	121.6	8.5	-64.7	4.6
2026-01-21 23:14:15.009738	121.8	8.4	-64.8	4.0
2026-01-21 23:14:16.131992	121.9	8.4	-64.7	5.0
2026-01-21 23:14:17.259246	122.1	8.3	-64.9	4.2
2026-01-21 23:14:18.381004	122.3	8.2	-64.7	3.2
2026-01-21 23:14:19.502266	122.4	8.2	-64.8	4.2
2026-01-21 23:14:20.624024	122.6	8.1	-64.2	3.9
2026-01-21 23:14:21.745782	122.7	8.1	-64.8	2.8
2026-01-21 23:14:22.867540	122.9	8.0	-64.2	4.0
2026-01-21 23:14:23.989297	123.0	8.0	-63.4	3.9
2026-01-21 23:14:25.111551	123.2	7.9	-64.3	4.4
2026-01-21 23:14:26.232812	123.3	7.9	-64.5	3.9
2026-01-21 23:14:27.355066	123.5	7.8	-64.7	3.3
2026-01-21 23:14:28.475823	123.6	7.8	-64.8	3.7
2026-01-21 23:14:29.597085	123.8	7.7	-64.7	4.4
2026-01-21 23:14:30.719338	123.9	7.7	-63.9	1.9
2026-01-21 23:14:31.839610	124.1	7.6	-63.7	3.4
2026-01-21 23:14:32.960872	124.2	7.5	-64.1	4.0
2026-01-21 23:14:34.081142	124.4	7.5	-64.7	4.2
2026-01-21 23:14:35.202900	124.5	7.4	-64.5	2.3
2026-01-21 23:14:36.325153	124.7	7.4	-64.7	3.5
2026-01-21 23:14:37.446415	124.8	7.3	-64.2	4.0
2026-01-21 23:14:38.567173	125.0	7.3	-64.6	3.9
2026-01-21 23:14:39.688931	125.1	7.2	-64.6	2.3
2026-01-21 23:14:40.811185	125.3	7.2	-64.8	3.5
2026-01-21 23:14:41.932942	125.4	7.1	-64.4	3.5
2026-01-21 23:14:43.054699	125.6	7.1	-62.8	0.4
2026-01-21 23:14:44.176457	125.7	7.0	-64.4	3.7
2026-01-21 23:14:45.298215	125.8	6.9	-65.0	4.7
2026-01-21 23:14:46.420469	126.0	6.9	-64.5	4.2
2026-01-21 23:14:47.541731	126.1	6.8	-64.3	3.6
2026-01-21 23:14:48.662984	126.3	6.8	-63.5	1.9
2026-01-21 23:14:49.784237	126.4	6.7	-64.7	4.0
2026-01-21 23:14:50.906491	126.5	6.7	-63.8	1.8
2026-01-21 23:14:52.027754	126.7	6.6	-64.7	3.9
2026-01-21 23:14:53.150008	126.8	6.6	-64.2	3.3
2026-01-21 23:14:54.271270	127.0	6.5	-64.6	2.0
2026-01-21 23:14:55.393524	127.1	6.5	-64.5	3.4
2026-01-21 23:14:56.515777	127.2	6.4	-64.7	3.2
2026-01-21 23:14:57.637040	127.4	6.3	-64.6	2.6
2026-01-21 23:14:58.758798	127.5	6.3	-64.5	3.4
2026-01-21 23:14:59.880555	127.7	6.2	-64.7	3.9
2026-01-21 23:15:01.002809	127.8	6.2	-64.7	4.1
2026-01-21 23:15:02.125062	127.9	6.1	-64.7	3.7
2026-01-21 23:15:03.247316	128.1	6.1	-64.9	3.7
2026-01-21 23:15:04.369569	128.2	6.0	-66.9	6.0
2026-01-21 23:15:05.492330	128.3	6.0	-68.4	4.3
2026-01-21 23:15:06.614086	128.5	5.9	-68.4	0.0
2026-01-21 23:15:07.736339	128.6	5.8	-68.5	0.0
2026-01-21 23:15:08.857106	128.7	5.8	-67.1	0.0
2026-01-21 23:15:09.979359	128.9	5.7	-68.3	0.0
2026-01-21 23:15:11.101116	129.0	5.7	-68.6	0.0
2026-01-21 23:15:12.222875	129.1	5.6	-68.5	0.0
2026-01-21 23:15:13.348179	129.3	5.6	-69.5	0.0
2026-01-21 23:15:14.470433	129.4	5.5	-69.6	0.0
2026-01-21 23:15:15.590711	129.5	5.5	-69.6	0.0
2026-01-21 23:15:16.711974	129.6	5.4	-68.2	0.0
2026-01-21 23:15:17.834228	129.8	5.3	-67.4	0.0
2026-01-21 23:15:18.955521	129.9	5.3	-67.2	0.0
2026-01-21 23:15:20.077775	130.0	5.2	-66.7	0.0
2026-01-21 23:15:21.202558	130.2	5.2	-66.9	0.0
2026-01-21 23:15:22.324811	130.3	5.1	-66.6	0.0
2026-01-21 23:15:23.446601	130.4	5.1	-66.5	0.0
2026-01-21 23:15:24.568359	130.5	5.0	-66.7	0.0
#Closed at: 2026-01-21 23:05:58.943360