passes_logs/2026/01/21/PlanumMoscow/PlanumMoscow__20260121_071510_METOP-B_rec.log

#Pass ID: 20260121_071510_METOP-B
#Satellite: METOP-B
#Configuration: METOP-B
#Start time: 2026-01-21 07:15:15.550412

#LorettStation: 1.0.0 05.05.2024
#Station: PlanumMoscow
#Location: 37.6253844 lon 55.6713361 lat
#TLE: 1 38771U 12049A   25293.92766658  .00000266  00000+0  14193-3 0  9996
#TLE: 2 38771  98.6882 344.7603 0001609 341.5209  18.5909 14.21379342679275

#Time	Az	El	Level	SNR
2026-01-21 07:18:53.946122	16.6	29.4	-58.3	0.0
2026-01-21 07:18:56.191647	16.6	29.9	-58.8	0.0
2026-01-21 07:18:58.435161	16.6	30.3	-58.9	0.0
2026-01-21 07:19:00.679172	16.6	30.7	-60.5	0.9
2026-01-21 07:19:02.926184	16.6	31.2	-60.2	0.0
2026-01-21 07:19:05.171700	16.5	31.6	-59.5	1.1
2026-01-21 07:19:07.415712	16.5	32.1	-60.2	1.4
2026-01-21 07:19:09.658237	16.5	32.5	-60.4	0.9
2026-01-21 07:19:11.900762	16.5	33.0	-59.8	0.0
2026-01-21 07:19:14.144287	16.5	33.5	-61.2	1.6
2026-01-21 07:19:16.387802	16.5	34.0	-59.3	0.0
2026-01-21 07:19:18.631813	16.5	34.5	-61.7	0.0
2026-01-21 07:19:20.875328	16.5	35.0	-61.1	0.3
2026-01-21 07:19:23.124341	16.5	35.5	-60.5	0.0
2026-01-21 07:19:25.367364	16.5	36.0	-61.2	1.6
2026-01-21 07:19:27.611375	16.5	36.6	-60.0	0.0
2026-01-21 07:19:29.856899	16.5	37.1	-60.5	2.7
2026-01-21 07:19:32.100415	16.5	37.6	-59.5	0.0
2026-01-21 07:19:34.344426	16.5	38.2	-60.0	2.0
2026-01-21 07:19:36.587941	16.5	38.8	-60.0	0.0
2026-01-21 07:19:38.833961	16.5	39.3	-59.3	0.0
2026-01-21 07:19:41.078468	16.5	39.9	-60.4	3.8
2026-01-21 07:19:43.322480	16.5	40.5	-59.0	3.2
2026-01-21 07:19:45.567994	16.4	41.1	-59.3	0.0
2026-01-21 07:19:47.812501	16.4	41.7	-59.9	0.0
2026-01-21 07:19:50.056016	16.4	42.4	-60.6	3.4
2026-01-21 07:19:52.299531	16.4	43.0	-60.2	0.0
2026-01-21 07:19:54.548544	16.4	43.7	-60.9	2.2
2026-01-21 07:19:56.793051	16.4	44.3	-60.9	3.6
2026-01-21 07:19:59.036566	16.4	45.0	-60.9	2.3
2026-01-21 07:20:01.279587	16.4	45.7	-60.4	2.0
2026-01-21 07:20:03.525118	16.3	46.4	-60.4	1.5
2026-01-21 07:20:05.767642	16.3	47.1	-60.5	0.8
2026-01-21 07:20:08.009173	16.3	47.8	-61.8	3.7
2026-01-21 07:20:10.255201	16.3	48.5	-60.2	0.5
2026-01-21 07:20:12.498220	16.3	49.3	-60.3	1.1
2026-01-21 07:20:14.742727	16.2	50.0	-60.1	0.8
2026-01-21 07:20:16.985747	16.2	50.8	-60.9	3.3
2026-01-21 07:20:19.233281	16.2	51.6	-60.9	1.2
2026-01-21 07:20:21.476301	16.1	52.4	-61.7	4.1
2026-01-21 07:20:23.719824	16.1	53.2	-61.5	4.4
2026-01-21 07:20:25.969850	16.1	54.0	-61.4	2.0
2026-01-21 07:20:28.213366	16.0	54.8	-62.7	3.6
2026-01-21 07:20:30.457376	16.0	55.7	-62.3	3.4
2026-01-21 07:20:32.701388	16.0	56.6	-62.6	4.1
2026-01-21 07:20:34.946905	15.9	57.4	-62.8	3.9
2026-01-21 07:20:37.188441	15.9	58.3	-62.3	3.6
2026-01-21 07:20:39.432452	15.8	59.2	-62.3	4.1
2026-01-21 07:20:41.676960	15.8	60.1	-63.0	6.8
2026-01-21 07:20:43.920980	15.7	61.1	-63.3	6.6
2026-01-21 07:20:46.148581	15.6	62.0	-63.5	6.2
2026-01-21 07:20:48.392592	15.6	63.0	-63.3	6.1
2026-01-21 07:20:50.636108	15.5	63.9	-64.0	5.5
2026-01-21 07:20:52.880615	15.4	64.9	-64.1	5.9
2026-01-21 07:20:55.124635	15.3	65.9	-64.1	3.1
2026-01-21 07:20:57.369180	15.2	66.9	-63.9	1.3
2026-01-21 07:20:59.613734	15.1	68.0	-64.5	5.5
2026-01-21 07:21:01.856258	14.9	69.0	-64.6	6.4
2026-01-21 07:21:04.098832	14.8	70.0	-64.9	7.0
2026-01-21 07:21:06.341362	14.6	71.1	-64.7	5.2
2026-01-21 07:21:08.584886	14.4	72.2	-65.2	5.6
2026-01-21 07:21:10.827915	14.2	73.2	-65.5	7.2
2026-01-21 07:21:13.070945	14.0	74.3	-65.0	5.1
2026-01-21 07:21:15.313974	13.7	75.4	-65.0	4.9
2026-01-21 07:21:17.557490	13.3	76.5	-66.0	7.2
2026-01-21 07:21:19.800024	12.9	77.6	-66.3	7.7
2026-01-21 07:21:22.043072	12.5	78.8	-65.9	5.7
2026-01-21 07:21:24.285606	11.9	79.9	-66.7	6.6
2026-01-21 07:21:26.528625	11.1	81.0	-66.7	5.3
2026-01-21 07:21:28.772149	10.1	82.2	-67.1	2.8
2026-01-21 07:21:31.014673	8.8	83.3	-67.2	5.5
2026-01-21 07:21:33.258684	6.9	84.4	-66.3	4.0
2026-01-21 07:21:35.502696	4.1	85.6	-66.7	4.8
2026-01-21 07:21:37.746707	359.3	86.7	-67.3	5.1
2026-01-21 07:21:39.992286	349.8	87.8	-67.4	5.6
2026-01-21 07:21:42.235803	325.1	88.7	-66.9	5.8
2026-01-21 07:21:44.478363	268.5	88.9	-66.8	5.9
2026-01-21 07:21:46.722382	232.2	88.1	-66.9	5.1
2026-01-21 07:21:48.968938	219.0	87.1	-67.6	6.3
2026-01-21 07:21:51.212948	213.0	86.0	-67.7	6.1
2026-01-21 07:21:53.456472	209.6	84.9	-67.3	5.7
2026-01-21 07:21:55.704005	207.5	83.7	-67.6	6.7
2026-01-21 07:21:57.947520	206.0	82.6	-67.4	6.1
2026-01-21 07:22:00.191044	204.9	81.4	-67.4	6.3
2026-01-21 07:22:02.435596	204.1	80.3	-67.5	6.3
2026-01-21 07:22:04.678121	203.4	79.2	-67.5	6.2
2026-01-21 07:22:06.923132	202.9	78.0	-67.5	6.4
2026-01-21 07:22:09.167683	202.5	76.9	-67.8	7.4
2026-01-21 07:22:11.411704	202.1	75.8	-67.1	6.6
2026-01-21 07:22:13.657220	201.8	74.7	-67.6	6.8
2026-01-21 07:22:15.900240	201.5	73.6	-68.0	7.0
2026-01-21 07:22:18.142268	201.3	72.5	-67.7	7.7
2026-01-21 07:22:20.389289	201.1	71.5	-67.4	7.8
2026-01-21 07:22:22.633806	200.9	70.4	-67.4	6.5
2026-01-21 07:22:24.877817	200.8	69.3	-67.4	6.4
2026-01-21 07:22:27.122323	200.6	68.3	-67.0	7.3
2026-01-21 07:22:29.371335	200.5	67.3	-66.6	6.5
2026-01-21 07:22:31.614850	200.4	66.3	-66.7	7.6
2026-01-21 07:22:33.858860	200.3	65.2	-66.3	7.7
2026-01-21 07:22:36.102376	200.2	64.3	-66.1	6.4
2026-01-21 07:22:38.346403	200.1	63.3	-66.2	7.4
2026-01-21 07:22:40.589424	200.1	62.3	-66.4	7.2
2026-01-21 07:22:42.833939	200.0	61.4	-66.2	6.0
2026-01-21 07:22:45.080968	199.9	60.4	-67.0	6.6
2026-01-21 07:22:47.324978	199.9	59.5	-66.0	5.5
2026-01-21 07:22:49.568492	199.8	58.6	-66.8	5.1
2026-01-21 07:22:51.811024	199.8	57.7	-66.2	5.3
2026-01-21 07:22:54.057045	199.7	56.8	-65.8	6.2
2026-01-21 07:22:56.301552	199.7	55.9	-65.0	5.7
2026-01-21 07:22:58.543580	199.6	55.1	-64.3	4.9
2026-01-21 07:23:00.788618	199.6	54.2	-64.8	8.1
2026-01-21 07:23:03.032143	199.6	53.4	-62.7	5.8
2026-01-21 07:23:05.273673	199.5	52.6	-63.6	6.3
2026-01-21 07:23:07.516691	199.5	51.8	-63.4	7.9
2026-01-21 07:23:09.764208	199.5	51.0	-64.0	5.0
2026-01-21 07:23:12.008218	199.4	50.2	-63.7	6.2
2026-01-21 07:23:14.252732	199.4	49.5	-63.8	3.7
2026-01-21 07:23:16.495752	199.4	48.7	-64.0	1.2
2026-01-21 07:23:18.739764	199.4	48.0	-64.0	4.3
2026-01-21 07:23:20.983279	199.3	47.2	-62.8	0.7
2026-01-21 07:23:23.227291	199.3	46.5	-63.1	2.5
2026-01-21 07:23:25.470806	199.3	45.8	-62.8	4.9
2026-01-21 07:23:27.714816	199.3	45.1	-61.7	4.2
2026-01-21 07:23:29.956846	199.3	44.5	-61.5	5.2
2026-01-21 07:23:32.201372	199.3	43.8	-61.0	1.6
2026-01-21 07:23:34.444391	199.2	43.1	-62.3	7.5
2026-01-21 07:23:36.687907	199.2	42.5	-61.5	4.1
2026-01-21 07:23:38.931432	199.2	41.9	-62.1	6.9
2026-01-21 07:23:41.173461	199.2	41.2	-61.4	6.4
2026-01-21 07:23:43.414498	199.2	40.6	-62.2	5.0
2026-01-21 07:23:45.656526	199.2	40.0	-61.6	5.1
2026-01-21 07:23:47.899059	199.2	39.4	-62.5	2.9
2026-01-21 07:23:50.142088	199.2	38.9	-61.4	4.1
2026-01-21 07:23:52.385105	199.2	38.3	-61.4	5.0
2026-01-21 07:23:54.627636	199.1	37.7	-60.5	1.6
2026-01-21 07:23:56.871152	199.1	37.2	-61.2	5.9
2026-01-21 07:23:59.115163	199.1	36.6	-59.4	0.0
2026-01-21 07:24:01.359174	199.1	36.1	-61.6	2.8
2026-01-21 07:24:03.603681	199.1	35.6	-59.3	1.8
2026-01-21 07:24:05.847195	199.1	35.0	-61.6	3.4
2026-01-21 07:24:08.092208	199.1	34.5	-60.3	4.5
2026-01-21 07:24:10.335721	199.1	34.0	-59.7	0.9
2026-01-21 07:24:12.579732	199.1	33.5	-60.6	0.3
2026-01-21 07:24:14.822752	199.1	33.1	-62.6	6.8
2026-01-21 07:24:17.067265	199.1	32.6	-60.1	5.0
2026-01-21 07:24:19.310780	199.1	32.1	-62.5	5.6
2026-01-21 07:24:21.554296	199.1	31.6	-61.1	0.0
2026-01-21 07:24:23.797810	199.1	31.2	-61.5	2.4
2026-01-21 07:24:26.040837	199.1	30.7	-60.6	0.0
2026-01-21 07:24:28.283855	199.1	30.3	-62.2	6.9
2026-01-21 07:24:30.525386	199.1	29.9	-61.7	6.8
2026-01-21 07:24:32.770405	199.1	29.4	-61.4	7.5
2026-01-21 07:24:35.014416	199.1	29.0	-61.5	2.6
2026-01-21 07:24:37.258427	199.1	28.6	-61.2	6.1
2026-01-21 07:24:39.502438	199.1	28.2	-59.7	1.4
2026-01-21 07:24:41.745955	199.1	27.8	-60.9	6.0
2026-01-21 07:24:43.989471	199.1	27.4	-61.2	4.7
2026-01-21 07:24:46.233482	199.1	27.0	-61.3	0.0
2026-01-21 07:24:48.482494	199.1	26.6	-62.2	6.1
2026-01-21 07:24:50.726019	199.1	26.2	-62.0	4.5
2026-01-21 07:24:52.969546	199.1	25.9	-62.4	6.6
2026-01-21 07:24:55.213558	199.1	25.5	-62.3	6.8
2026-01-21 07:24:57.456578	199.1	25.1	-62.8	5.7
2026-01-21 07:24:59.699597	199.1	24.8	-61.5	4.8
2026-01-21 07:25:01.943608	199.1	24.4	-62.3	6.0
2026-01-21 07:25:04.186140	199.1	24.1	-59.3	0.0
2026-01-21 07:25:06.434656	199.1	23.7	-60.7	5.9
2026-01-21 07:25:08.678172	199.1	23.4	-61.6	2.8
2026-01-21 07:25:10.918687	199.1	23.0	-61.8	3.6
2026-01-21 07:25:13.157705	199.1	22.7	-62.9	4.9
2026-01-21 07:25:15.398219	199.1	22.4	-61.5	3.9
2026-01-21 07:25:17.638733	199.1	22.0	-63.2	5.8
2026-01-21 07:25:19.878752	199.1	21.7	-63.7	6.6
2026-01-21 07:25:22.120258	199.1	21.4	-63.7	3.1
2026-01-21 07:25:24.357780	199.1	21.1	-62.4	5.2
2026-01-21 07:25:26.597294	199.1	20.8	-62.5	0.0
2026-01-21 07:25:28.838818	199.1	20.5	-57.9	0.0
2026-01-21 07:25:31.079324	199.1	20.2	-60.7	0.0
2026-01-21 07:25:33.319334	199.1	19.9	-62.9	3.4
2026-01-21 07:25:35.561850	199.1	19.6	-60.0	0.0
2026-01-21 07:25:37.800867	199.1	19.3	-60.1	0.0
2026-01-21 07:25:40.039895	199.1	19.0	-63.8	5.9
2026-01-21 07:25:42.283410	199.1	18.7	-63.7	4.8
2026-01-21 07:25:44.522933	199.1	18.5	-63.7	5.4
2026-01-21 07:25:46.767448	199.1	18.2	-63.9	0.0
2026-01-21 07:25:49.005962	199.1	17.9	-63.6	3.6
2026-01-21 07:25:51.245972	199.1	17.6	-63.1	3.1
2026-01-21 07:25:53.486000	199.1	17.4	-61.3	0.4
2026-01-21 07:25:55.724018	199.1	17.1	-59.8	0.0
2026-01-21 07:25:57.966045	199.1	16.8	-60.2	0.0
2026-01-21 07:26:00.207558	199.1	16.6	-61.0	2.1
2026-01-21 07:26:02.447064	199.1	16.3	-58.8	0.0
2026-01-21 07:26:04.686074	199.1	16.1	-60.2	0.0
2026-01-21 07:26:06.934128	199.1	15.8	-62.8	4.8
2026-01-21 07:26:09.178149	199.1	15.6	-59.2	0.0
2026-01-21 07:26:11.425160	199.1	15.3	-63.2	1.6
2026-01-21 07:26:13.667674	199.1	15.1	-63.7	3.4
2026-01-21 07:26:15.911190	199.1	14.8	-62.7	3.4
2026-01-21 07:26:18.155713	199.1	14.6	-62.5	1.0
2026-01-21 07:26:20.399723	199.1	14.4	-60.9	0.0
2026-01-21 07:26:22.643734	199.1	14.1	-60.3	0.0
2026-01-21 07:26:24.887250	199.1	13.9	-59.1	0.0
2026-01-21 07:26:27.129270	199.1	13.7	-56.9	0.0
2026-01-21 07:26:29.365280	199.1	13.4	-63.7	0.0
2026-01-21 07:26:31.605291	199.2	13.2	-61.0	0.0
2026-01-21 07:26:33.844796	199.2	13.0	-63.4	1.3
2026-01-21 07:26:36.084815	199.2	12.8	-61.7	0.4
2026-01-21 07:26:38.325329	199.2	12.6	-63.3	1.3
2026-01-21 07:26:40.561834	199.2	12.3	-61.2	0.0
2026-01-21 07:26:42.797355	199.2	12.1	-62.5	0.0
2026-01-21 07:26:45.039871	199.2	11.9	-60.2	0.0
2026-01-21 07:26:47.273375	199.2	11.7	-59.7	0.0
2026-01-21 07:26:49.512394	199.2	11.5	-60.8	0.0
2026-01-21 07:26:51.753405	199.2	11.3	-61.6	0.0
2026-01-21 07:26:53.991910	199.2	11.1	-58.3	0.0
2026-01-21 07:26:56.231425	199.2	10.9	-62.0	0.0
2026-01-21 07:26:58.468444	199.2	10.7	-63.5	0.0
2026-01-21 07:27:00.705949	199.2	10.5	-58.9	0.0
2026-01-21 07:27:02.947959	199.2	10.3	-64.0	1.3
2026-01-21 07:27:05.183464	199.2	10.1	-63.5	0.0
2026-01-21 07:27:07.418977	199.2	9.9	-62.0	0.0
2026-01-21 07:27:09.659501	199.2	9.7	-56.9	0.0
2026-01-21 07:27:11.899014	199.2	9.5	-61.1	0.0
2026-01-21 07:27:14.142026	199.2	9.3	-61.9	0.0
2026-01-21 07:27:16.380531	199.2	9.1	-60.1	0.0
2026-01-21 07:27:18.618550	199.2	8.9	-60.3	0.0
2026-01-21 07:27:20.858569	199.2	8.7	-60.0	0.0
2026-01-21 07:27:23.098579	199.2	8.5	-61.5	0.0
2026-01-21 07:27:25.336093	199.2	8.4	-61.6	0.0
2026-01-21 07:27:27.577600	199.2	8.2	-56.0	0.0
2026-01-21 07:27:29.815609	199.3	8.0	-61.1	0.0
2026-01-21 07:27:32.055126	199.3	7.8	-63.2	0.0
2026-01-21 07:27:34.291136	199.3	7.6	-58.1	0.0
2026-01-21 07:27:36.529641	199.3	7.5	-61.2	0.0
2026-01-21 07:27:38.769156	199.3	7.3	-59.7	0.0
2026-01-21 07:27:41.010671	199.3	7.1	-60.6	0.0
2026-01-21 07:27:43.254187	199.3	6.9	-60.8	0.0
2026-01-21 07:27:45.497703	199.3	6.8	-61.7	0.0
2026-01-21 07:27:47.742714	199.3	6.6	-60.2	0.0
2026-01-21 07:27:49.986725	199.3	6.4	-59.8	0.0
2026-01-21 07:27:52.231752	199.3	6.2	-58.3	0.0
2026-01-21 07:27:54.475268	199.3	6.1	-59.7	0.0
2026-01-21 07:27:56.718288	199.3	5.9	-66.7	0.0
2026-01-21 07:27:58.962299	199.3	5.7	-68.7	0.0
2026-01-21 07:28:01.201309	199.3	5.6	-70.1	0.0
2026-01-21 07:28:03.437822	199.3	5.4	-70.4	0.0
2026-01-21 07:28:05.672327	199.3	5.3	-70.4	0.0
2026-01-21 07:28:07.907832	199.3	5.1	-70.8	0.0
#Closed at: 2026-01-21 07:15:10.551649