passes_logs/2026/01/21/PlanumMoscow/PlanumMoscow__20260121_105616_METEOR-M2_4_rec.log

#Pass ID: 20260121_105616_METEOR-M2 4
#Satellite: METEOR-M2 4
#Configuration: METEOR-M2 4
#Start time: 2026-01-21 10:56:21.696468

#LorettStation: 1.0.0 05.05.2024
#Station: PlanumMoscow
#Location: 37.6253844 lon 55.6713361 lat
#TLE: 1 59051U 24039A   25293.94737965  .00000087  00000+0  58459-4 0  9998
#TLE: 2 59051  98.6671 251.7071 0007726 135.4772 224.7028 14.22388966 85257

#Time	Az	El	Level	SNR
2026-01-21 11:00:00.142971	140.0	29.0	-61.9	10.7
2026-01-21 11:00:02.383486	139.8	29.4	-62.5	11.6
2026-01-21 11:00:04.628497	139.6	29.8	-62.3	11.2
2026-01-21 11:00:06.873507	139.3	30.2	-62.8	11.7
2026-01-21 11:00:09.120532	139.1	30.7	-62.8	8.8
2026-01-21 11:00:11.365544	138.8	31.1	-62.5	10.1
2026-01-21 11:00:13.608068	138.6	31.5	-62.0	7.4
2026-01-21 11:00:15.852106	138.3	31.9	-62.1	8.3
2026-01-21 11:00:18.096623	138.1	32.4	-62.6	8.8
2026-01-21 11:00:20.341634	137.8	32.8	-62.6	7.9
2026-01-21 11:00:22.585150	137.5	33.3	-62.8	7.4
2026-01-21 11:00:24.830674	137.2	33.7	-62.1	7.3
2026-01-21 11:00:27.073693	136.9	34.2	-62.1	6.1
2026-01-21 11:00:29.317704	136.6	34.7	-61.8	7.3
2026-01-21 11:00:31.564212	136.3	35.1	-62.2	5.9
2026-01-21 11:00:33.807232	136.0	35.6	-61.6	8.9
2026-01-21 11:00:36.051738	135.6	36.1	-63.0	10.2
2026-01-21 11:00:38.295750	135.3	36.6	-62.3	6.8
2026-01-21 11:00:40.540274	134.9	37.1	-62.2	8.8
2026-01-21 11:00:42.786285	134.6	37.6	-62.5	6.7
2026-01-21 11:00:45.030297	134.2	38.1	-62.9	6.3
2026-01-21 11:00:47.272823	133.8	38.7	-61.3	6.9
2026-01-21 11:00:49.518339	133.4	39.2	-64.0	9.7
2026-01-21 11:00:51.761361	133.0	39.7	-61.3	8.2
2026-01-21 11:00:54.004876	132.5	40.3	-62.6	10.5
2026-01-21 11:00:56.247896	132.1	40.8	-62.1	6.6
2026-01-21 11:00:58.491908	131.6	41.4	-62.7	6.1
2026-01-21 11:01:00.735424	131.1	41.9	-62.7	8.2
2026-01-21 11:01:02.979435	130.6	42.5	-63.4	7.7
2026-01-21 11:01:05.222961	130.1	43.1	-62.6	6.9
2026-01-21 11:01:07.466478	129.6	43.6	-63.7	8.1
2026-01-21 11:01:09.709010	129.0	44.2	-62.7	7.7
2026-01-21 11:01:11.953526	128.4	44.8	-63.6	9.5
2026-01-21 11:01:14.196547	127.8	45.4	-63.1	7.7
2026-01-21 11:01:16.440062	127.2	46.0	-63.9	7.6
2026-01-21 11:01:18.686073	126.6	46.6	-63.2	6.3
2026-01-21 11:01:20.934591	125.9	47.2	-63.1	5.4
2026-01-21 11:01:23.177114	125.2	47.8	-62.7	5.6
2026-01-21 11:01:25.421621	124.5	48.5	-62.4	6.0
2026-01-21 11:01:27.664144	123.7	49.1	-61.8	3.5
2026-01-21 11:01:29.910155	122.9	49.7	-62.4	6.8
2026-01-21 11:01:32.154167	122.1	50.3	-63.0	6.8
2026-01-21 11:01:34.398177	121.2	51.0	-62.3	6.0
2026-01-21 11:01:36.644189	120.3	51.6	-61.4	5.0
2026-01-21 11:01:38.888199	119.4	52.2	-61.6	2.2
2026-01-21 11:01:41.134707	118.4	52.8	-61.8	4.7
2026-01-21 11:01:43.378719	117.4	53.5	-61.2	3.2
2026-01-21 11:01:45.623730	116.3	54.1	-62.4	1.9
2026-01-21 11:01:47.866263	115.2	54.7	-64.0	6.7
2026-01-21 11:01:50.109788	114.1	55.3	-62.2	5.1
2026-01-21 11:01:52.352322	112.9	56.0	-64.1	7.2
2026-01-21 11:01:54.596829	111.6	56.6	-62.5	4.1
2026-01-21 11:01:56.840840	110.3	57.2	-62.7	2.9
2026-01-21 11:01:59.084357	108.9	57.8	-63.3	6.5
2026-01-21 11:02:01.326385	107.4	58.4	-62.5	5.2
2026-01-21 11:02:03.568414	105.9	58.9	-63.5	6.7
2026-01-21 11:02:05.812424	104.4	59.5	-63.5	5.4
2026-01-21 11:02:08.055942	102.7	60.0	-63.3	2.3
2026-01-21 11:02:10.303457	101.0	60.5	-64.2	3.0
2026-01-21 11:02:12.546477	99.2	61.0	-64.5	4.2
2026-01-21 11:02:14.789994	97.4	61.5	-64.1	4.7
2026-01-21 11:02:17.036005	95.4	62.0	-64.4	0.6
2026-01-21 11:02:19.280016	93.4	62.4	-65.2	2.5
2026-01-21 11:02:21.522541	91.4	62.8	-64.1	2.4
2026-01-21 11:02:23.766562	89.2	63.2	-64.1	5.4
2026-01-21 11:02:26.008093	87.0	63.5	-64.8	5.4
2026-01-21 11:02:28.253105	84.8	63.8	-64.2	5.7
2026-01-21 11:02:30.495627	82.4	64.1	-64.2	5.2
2026-01-21 11:02:32.738649	80.1	64.3	-64.4	6.4
2026-01-21 11:02:34.980676	77.7	64.5	-64.5	5.4
2026-01-21 11:02:37.223200	75.2	64.7	-64.8	6.0
2026-01-21 11:02:39.466716	72.7	64.8	-64.4	6.1
2026-01-21 11:02:41.710243	70.2	64.8	-65.1	5.2
2026-01-21 11:02:43.953758	67.7	64.9	-64.1	6.7
2026-01-21 11:02:46.197769	65.2	64.8	-64.4	8.1
2026-01-21 11:02:48.441284	62.7	64.8	-64.4	7.8
2026-01-21 11:02:50.686304	60.2	64.7	-65.0	6.0
2026-01-21 11:02:52.930811	57.8	64.5	-64.9	5.6
2026-01-21 11:02:55.174327	55.4	64.3	-63.4	2.6
2026-01-21 11:02:57.417856	53.0	64.1	-63.1	1.6
2026-01-21 11:02:59.660380	50.7	63.8	-63.5	1.9
2026-01-21 11:03:01.904887	48.4	63.5	-63.9	1.9
2026-01-21 11:03:04.148403	46.2	63.2	-63.9	4.3
2026-01-21 11:03:06.393432	44.1	62.8	-63.6	2.8
2026-01-21 11:03:08.637443	42.0	62.4	-63.3	4.4
2026-01-21 11:03:10.880462	40.0	62.0	-63.8	5.4
2026-01-21 11:03:13.122491	38.1	61.5	-63.3	2.0
2026-01-21 11:03:15.370513	36.2	61.1	-63.7	5.7
2026-01-21 11:03:17.613037	34.4	60.6	-65.0	4.9
2026-01-21 11:03:19.857544	32.7	60.0	-64.5	4.6
2026-01-21 11:03:22.100565	31.1	59.5	-65.3	6.5
2026-01-21 11:03:24.344081	29.5	59.0	-64.5	4.8
2026-01-21 11:03:26.587597	28.0	58.4	-64.0	5.1
2026-01-21 11:03:28.832112	26.6	57.8	-63.2	5.0
2026-01-21 11:03:31.075133	25.2	57.2	-63.0	3.9
2026-01-21 11:03:33.319152	23.8	56.6	-63.0	3.1
2026-01-21 11:03:35.562668	22.6	56.0	-62.1	0.2
2026-01-21 11:03:37.806183	21.4	55.4	-61.6	0.0
2026-01-21 11:03:40.052203	20.2	54.8	-61.3	0.0
2026-01-21 11:03:42.296215	19.1	54.1	-61.3	0.0
2026-01-21 11:03:44.540730	18.0	53.5	-59.5	0.0
2026-01-21 11:03:46.784246	17.0	52.9	-61.6	0.0
2026-01-21 11:03:49.030265	16.0	52.3	-60.8	0.8
2026-01-21 11:03:51.273780	15.1	51.6	-60.8	0.0
2026-01-21 11:03:53.517791	14.2	51.0	-61.0	0.8
2026-01-21 11:03:55.764815	13.3	50.4	-61.4	2.1
2026-01-21 11:03:58.007836	12.5	49.8	-59.7	0.0
2026-01-21 11:04:00.251352	11.7	49.1	-62.7	1.9
2026-01-21 11:04:02.494381	11.0	48.5	-62.1	0.1
2026-01-21 11:04:04.739889	10.2	47.9	-62.6	1.7
2026-01-21 11:04:06.983900	9.5	47.3	-62.9	2.1
2026-01-21 11:04:09.226430	8.9	46.7	-61.0	1.3
2026-01-21 11:04:11.472945	8.2	46.1	-61.7	1.4
2026-01-21 11:04:13.716957	7.6	45.5	-61.3	0.0
2026-01-21 11:04:15.960976	7.0	44.9	-62.3	0.2
2026-01-21 11:04:18.204988	6.4	44.3	-62.2	0.3
2026-01-21 11:04:20.449504	5.9	43.7	-62.0	3.6
2026-01-21 11:04:22.693020	5.3	43.1	-61.5	0.5
2026-01-21 11:04:24.937031	4.8	42.6	-61.4	0.0
2026-01-21 11:04:27.180060	4.3	42.0	-62.0	2.3
2026-01-21 11:04:29.426577	3.8	41.5	-61.2	2.2
2026-01-21 11:04:31.670588	3.4	40.9	-62.0	1.7
2026-01-21 11:04:33.913111	2.9	40.4	-62.0	3.3
2026-01-21 11:04:36.159619	2.5	39.8	-61.4	3.2
2026-01-21 11:04:38.402638	2.1	39.3	-61.6	3.4
2026-01-21 11:04:40.646649	1.7	38.8	-61.6	2.5
2026-01-21 11:04:42.890671	1.3	38.2	-61.0	2.2
2026-01-21 11:04:45.134702	0.9	37.7	-61.7	5.2
2026-01-21 11:04:47.379714	0.5	37.2	-60.8	3.0
2026-01-21 11:04:49.622733	0.2	36.7	-60.5	2.0
2026-01-21 11:04:51.868259	359.8	36.2	-60.9	4.2
2026-01-21 11:04:54.113271	359.5	35.7	-61.4	5.2
2026-01-21 11:04:56.357282	359.2	35.3	-60.3	2.5
2026-01-21 11:04:58.601789	358.8	34.8	-60.3	3.4
2026-01-21 11:05:00.850306	358.5	34.3	-60.3	3.1
2026-01-21 11:05:03.093822	358.2	33.8	-60.5	2.2
2026-01-21 11:05:05.336346	358.0	33.4	-60.3	2.3
2026-01-21 11:05:07.584872	357.7	32.9	-61.4	3.2
2026-01-21 11:05:09.827397	357.4	32.5	-60.5	2.7
2026-01-21 11:05:12.070417	357.1	32.1	-60.9	4.0
2026-01-21 11:05:14.312448	356.9	31.6	-60.6	3.9
2026-01-21 11:05:16.555964	356.6	31.2	-60.5	2.8
2026-01-21 11:05:18.798488	356.4	30.8	-60.9	2.8
2026-01-21 11:05:21.042003	356.1	30.4	-60.7	3.1
2026-01-21 11:05:23.286014	355.9	29.9	-60.4	0.7
2026-01-21 11:05:25.527547	355.7	29.5	-60.8	1.8
2026-01-21 11:05:27.771063	355.5	29.1	-60.3	3.1
2026-01-21 11:05:30.014084	355.2	28.7	-60.9	2.7
2026-01-21 11:05:32.257607	355.0	28.4	-60.5	2.6
2026-01-21 11:05:34.502131	354.8	28.0	-60.8	3.1
2026-01-21 11:05:36.745647	354.6	27.6	-60.2	0.0
2026-01-21 11:05:38.987675	354.4	27.2	-61.1	1.2
2026-01-21 11:05:41.231192	354.3	26.8	-60.0	0.0
2026-01-21 11:05:43.472726	354.1	26.5	-60.8	0.5
2026-01-21 11:05:45.717233	353.9	26.1	-60.4	1.2
2026-01-21 11:05:47.960757	353.7	25.8	-60.6	1.4
2026-01-21 11:05:50.209770	353.5	25.4	-60.3	0.0
2026-01-21 11:05:52.453782	353.4	25.1	-60.9	0.0
2026-01-21 11:05:54.698288	353.2	24.7	-60.6	0.0
2026-01-21 11:05:56.941309	353.0	24.4	-58.6	0.0
2026-01-21 11:05:59.186816	352.9	24.0	-59.8	0.0
2026-01-21 11:06:01.429339	352.7	23.7	-59.8	0.0
2026-01-21 11:06:03.672855	352.6	23.4	-59.7	0.0
2026-01-21 11:06:05.915884	352.4	23.1	-60.0	0.0
2026-01-21 11:06:08.159400	352.3	22.7	-60.1	0.0
2026-01-21 11:06:10.403918	352.2	22.4	-60.2	0.0
2026-01-21 11:06:12.646938	352.0	22.1	-60.1	0.1
2026-01-21 11:06:14.891959	351.9	21.8	-59.7	0.0
2026-01-21 11:06:17.134998	351.8	21.5	-60.6	0.0
2026-01-21 11:06:19.379026	351.6	21.2	-60.2	0.0
2026-01-21 11:06:21.624552	351.5	20.9	-59.8	0.0
2026-01-21 11:06:23.866580	351.4	20.6	-60.4	0.0
2026-01-21 11:06:26.111087	351.2	20.3	-60.5	0.0
2026-01-21 11:06:28.353612	351.1	20.0	-60.3	0.0
2026-01-21 11:06:30.603129	351.0	19.7	-61.3	0.0
2026-01-21 11:06:32.847140	350.9	19.4	-60.6	0.0
2026-01-21 11:06:35.091151	350.8	19.2	-62.2	3.9
2026-01-21 11:06:37.336164	350.7	18.9	-61.3	2.1
2026-01-21 11:06:39.580176	350.6	18.6	-61.4	0.9
2026-01-21 11:06:41.822700	350.5	18.3	-62.9	3.5
2026-01-21 11:06:44.065732	350.4	18.1	-62.5	2.9
2026-01-21 11:06:46.307761	350.3	17.8	-61.9	2.3
2026-01-21 11:06:48.549789	350.2	17.6	-61.7	2.5
2026-01-21 11:06:50.793800	350.1	17.3	-62.5	2.6
2026-01-21 11:06:53.037319	350.0	17.0	-62.3	3.8
2026-01-21 11:06:55.280844	349.9	16.8	-62.5	4.1
2026-01-21 11:06:57.523368	349.8	16.5	-62.7	3.4
2026-01-21 11:06:59.766884	349.7	16.3	-63.2	4.3
2026-01-21 11:07:02.011401	349.6	16.0	-63.4	5.1
2026-01-21 11:07:04.256928	349.5	15.8	-62.8	1.5
2026-01-21 11:07:06.501434	349.4	15.5	-62.5	1.1
2026-01-21 11:07:08.745445	349.3	15.3	-62.9	0.9
2026-01-21 11:07:10.990962	349.3	15.1	-62.3	2.4
2026-01-21 11:07:13.233982	349.2	14.8	-62.1	1.9
2026-01-21 11:07:15.475020	349.1	14.6	-63.0	2.6
2026-01-21 11:07:17.718040	349.0	14.4	-63.2	2.8
2026-01-21 11:07:19.967052	348.9	14.1	-63.0	3.6
2026-01-21 11:07:22.210072	348.9	13.9	-62.9	2.6
2026-01-21 11:07:24.454084	348.8	13.7	-63.0	1.1
2026-01-21 11:07:26.702600	348.7	13.5	-62.9	3.1
2026-01-21 11:07:28.945126	348.6	13.3	-62.4	1.9
2026-01-21 11:07:31.189633	348.6	13.0	-62.8	3.2
2026-01-21 11:07:33.433149	348.5	12.8	-62.5	3.5
2026-01-21 11:07:35.679172	348.4	12.6	-62.3	1.1
2026-01-21 11:07:37.922687	348.4	12.4	-61.8	1.0
2026-01-21 11:07:40.166209	348.3	12.2	-64.3	5.0
2026-01-21 11:07:42.409726	348.2	12.0	-63.6	5.2
2026-01-21 11:07:44.654250	348.2	11.8	-62.9	3.1
2026-01-21 11:07:46.896280	348.1	11.6	-62.1	1.9
2026-01-21 11:07:49.139795	348.0	11.4	-63.2	3.9
2026-01-21 11:07:51.384319	348.0	11.1	-63.1	4.1
2026-01-21 11:07:53.627339	347.9	10.9	-62.1	3.7
2026-01-21 11:07:55.869864	347.8	10.7	-61.7	0.0
2026-01-21 11:07:58.114883	347.8	10.6	-62.2	0.7
2026-01-21 11:08:00.358407	347.7	10.4	-62.4	0.3
2026-01-21 11:08:02.602914	347.7	10.2	-62.1	0.0
2026-01-21 11:08:04.847430	347.6	10.0	-62.6	0.0
2026-01-21 11:08:07.093441	347.6	9.8	-62.2	0.0
2026-01-21 11:08:09.337461	347.5	9.6	-62.2	0.0
2026-01-21 11:08:11.579990	347.5	9.4	-60.8	0.0
2026-01-21 11:08:13.823505	347.4	9.2	-61.1	0.0
2026-01-21 11:08:16.068040	347.4	9.0	-62.1	0.0
2026-01-21 11:08:18.311059	347.3	8.8	-61.8	0.0
2026-01-21 11:08:20.555565	347.2	8.7	-62.0	0.0
2026-01-21 11:08:22.799082	347.2	8.5	-62.6	0.0
2026-01-21 11:08:25.042597	347.1	8.3	-61.7	0.0
2026-01-21 11:08:27.286112	347.1	8.1	-62.0	0.0
2026-01-21 11:08:29.529628	347.1	7.9	-61.8	0.0
2026-01-21 11:08:31.779136	347.0	7.8	-60.9	0.0
2026-01-21 11:08:34.023147	347.0	7.6	-60.6	0.0
2026-01-21 11:08:36.266662	346.9	7.4	-61.1	0.0
2026-01-21 11:08:38.510674	346.9	7.2	-61.1	0.0
2026-01-21 11:08:40.758695	346.8	7.1	-60.6	0.0
2026-01-21 11:08:43.002210	346.8	6.9	-61.4	0.0
2026-01-21 11:08:45.246727	346.7	6.7	-60.8	0.0
2026-01-21 11:08:47.494243	346.7	6.6	-60.5	0.0
2026-01-21 11:08:49.737758	346.7	6.4	-61.4	0.0
2026-01-21 11:08:51.982265	346.6	6.2	-61.4	0.0
2026-01-21 11:08:54.224799	346.6	6.0	-61.3	0.0
2026-01-21 11:08:56.467322	346.5	5.9	-64.0	0.0
2026-01-21 11:08:58.711342	346.5	5.7	-65.4	0.0
2026-01-21 11:09:00.952875	346.5	5.6	-63.6	0.0
2026-01-21 11:09:03.195915	346.4	5.4	-63.2	0.0
2026-01-21 11:09:05.444433	346.4	5.2	-63.6	0.0
2026-01-21 11:09:07.688949	346.3	5.1	-64.4	0.0
#Closed at: 2026-01-21 10:56:16.697075