passes_logs/2026/01/21/PlanumMoscow/PlanumMoscow__20260121_174201_METOP-C_rec.log

#Pass ID: 20260121_174201_METOP-C
#Satellite: METOP-C
#Configuration: METOP-C
#Start time: 2026-01-21 17:42:06.459267

#LorettStation: 1.0.0 05.05.2024
#Station: PlanumMoscow
#Location: 37.6253844 lon 55.6713361 lat
#TLE: 1 43689U 18087A   25293.88981035  .00000265  00000+0  14109-3 0  9997
#TLE: 2 43689  98.7006 352.4487 0002041 122.1097 238.0279 14.21482740360838

#Time	Az	El	Level	SNR
2026-01-21 17:45:44.906022	141.7	29.2	-66.8	0.9
2026-01-21 17:45:47.151570	141.5	29.6	-67.0	0.0
2026-01-21 17:45:49.395589	141.3	30.0	-66.7	0.0
2026-01-21 17:45:51.639677	141.1	30.4	-66.9	0.0
2026-01-21 17:45:53.881218	140.8	30.8	-66.6	0.0
2026-01-21 17:45:56.124271	140.6	31.3	-66.7	0.0
2026-01-21 17:45:58.368292	140.4	31.7	-66.9	0.0
2026-01-21 17:46:00.611320	140.1	32.1	-67.4	0.0
2026-01-21 17:46:02.853877	139.9	32.6	-67.6	0.0
2026-01-21 17:46:05.095459	139.6	33.0	-67.9	0.0
2026-01-21 17:46:07.338023	139.4	33.5	-67.6	0.0
2026-01-21 17:46:09.579071	139.1	34.0	-67.1	0.0
2026-01-21 17:46:11.826594	138.8	34.4	-67.6	0.0
2026-01-21 17:46:14.070664	138.5	34.9	-67.6	0.0
2026-01-21 17:46:16.313693	138.2	35.4	-68.2	0.0
2026-01-21 17:46:18.556745	137.9	35.9	-68.2	0.0
2026-01-21 17:46:20.801269	137.6	36.4	-68.4	0.0
2026-01-21 17:46:23.044816	137.3	36.9	-67.3	0.0
2026-01-21 17:46:25.288339	137.0	37.4	-67.5	0.0
2026-01-21 17:46:27.532895	136.6	37.9	-67.5	0.0
2026-01-21 17:46:29.776420	136.3	38.5	-65.8	0.0
2026-01-21 17:46:32.020432	135.9	39.0	-68.3	0.0
2026-01-21 17:46:34.264483	135.5	39.5	-68.4	0.0
2026-01-21 17:46:36.511495	135.1	40.1	-67.5	0.0
2026-01-21 17:46:38.756507	134.7	40.6	-67.0	0.0
2026-01-21 17:46:41.001022	134.3	41.2	-68.1	0.0
2026-01-21 17:46:43.244578	133.9	41.8	-68.1	0.0
2026-01-21 17:46:45.488103	133.4	42.3	-68.6	0.0
2026-01-21 17:46:47.730660	132.9	42.9	-68.8	0.0
2026-01-21 17:46:49.972696	132.4	43.5	-68.3	0.0
2026-01-21 17:46:52.219259	131.9	44.1	-68.3	0.6
2026-01-21 17:46:54.462776	131.4	44.7	-68.9	0.6
2026-01-21 17:46:56.704854	130.9	45.3	-67.8	0.0
2026-01-21 17:46:58.947876	130.3	45.9	-67.5	0.0
2026-01-21 17:47:01.193896	129.7	46.6	-67.6	0.0
2026-01-21 17:47:03.437442	129.1	47.2	-67.4	0.0
2026-01-21 17:47:05.681967	128.4	47.8	-67.9	0.0
2026-01-21 17:47:07.926042	127.8	48.5	-68.0	0.0
2026-01-21 17:47:10.168574	127.1	49.1	-67.6	0.0
2026-01-21 17:47:12.412143	126.3	49.8	-68.9	0.0
2026-01-21 17:47:14.655163	125.6	50.4	-67.6	0.0
2026-01-21 17:47:16.898710	124.8	51.1	-67.7	0.0
2026-01-21 17:47:19.142258	124.0	51.7	-68.7	0.0
2026-01-21 17:47:21.385792	123.1	52.4	-66.8	0.0
2026-01-21 17:47:23.627359	122.2	53.0	-65.8	0.0
2026-01-21 17:47:25.868899	121.2	53.7	-67.6	0.0
2026-01-21 17:47:28.111966	120.2	54.4	-67.8	0.0
2026-01-21 17:47:30.354499	119.2	55.0	-67.7	0.0
2026-01-21 17:47:32.597528	118.1	55.7	-67.3	0.0
2026-01-21 17:47:34.840589	117.0	56.4	-67.2	0.0
2026-01-21 17:47:37.084610	115.8	57.0	-67.9	0.0
2026-01-21 17:47:39.327193	114.5	57.7	-66.0	0.0
2026-01-21 17:47:41.569761	113.2	58.3	-66.2	0.0
2026-01-21 17:47:43.812324	111.8	58.9	-66.0	0.0
2026-01-21 17:47:46.055351	110.3	59.6	-67.2	0.0
2026-01-21 17:47:48.298916	108.8	60.2	-67.5	0.0
2026-01-21 17:47:50.542431	107.2	60.8	-67.7	0.0
2026-01-21 17:47:52.786450	105.5	61.4	-66.7	0.0
2026-01-21 17:47:55.030012	103.8	61.9	-67.8	0.0
2026-01-21 17:47:57.273040	101.9	62.5	-68.3	0.0
2026-01-21 17:47:59.517089	100.0	63.0	-68.5	1.2
2026-01-21 17:48:01.761615	98.0	63.5	-67.3	1.0
2026-01-21 17:48:04.005154	95.9	64.0	-66.0	2.6
2026-01-21 17:48:06.251671	93.7	64.4	-67.4	0.4
2026-01-21 17:48:08.494243	91.5	64.8	-68.1	2.9
2026-01-21 17:48:10.738768	89.1	65.2	-68.7	2.7
2026-01-21 17:48:12.981323	86.7	65.5	-66.8	0.5
2026-01-21 17:48:15.225830	84.2	65.8	-68.9	4.0
2026-01-21 17:48:17.470337	81.7	66.1	-68.5	3.4
2026-01-21 17:48:19.714883	79.1	66.3	-68.0	1.2
2026-01-21 17:48:21.958399	76.4	66.5	-69.2	3.5
2026-01-21 17:48:24.201947	73.7	66.6	-69.8	3.2
2026-01-21 17:48:26.446454	71.0	66.7	-69.1	3.0
2026-01-21 17:48:28.690010	68.2	66.7	-67.2	0.6
2026-01-21 17:48:30.939526	65.5	66.7	-67.5	2.5
2026-01-21 17:48:33.184033	62.8	66.6	-67.5	2.4
2026-01-21 17:48:35.428076	60.1	66.5	-67.4	0.0
2026-01-21 17:48:37.673087	57.4	66.4	-67.5	0.0
2026-01-21 17:48:39.917139	54.8	66.1	-68.4	3.5
2026-01-21 17:48:42.161150	52.2	65.9	-69.0	4.2
2026-01-21 17:48:44.405193	49.7	65.6	-69.3	4.2
2026-01-21 17:48:46.651245	47.3	65.3	-67.8	2.2
2026-01-21 17:48:48.895290	45.0	64.9	-68.6	4.1
2026-01-21 17:48:51.139806	42.7	64.5	-67.7	1.8
2026-01-21 17:48:53.384352	40.5	64.1	-68.4	2.2
2026-01-21 17:48:55.628859	38.4	63.6	-68.7	3.4
2026-01-21 17:48:57.873374	36.4	63.1	-68.8	3.4
2026-01-21 17:49:00.116433	34.4	62.6	-65.2	0.0
2026-01-21 17:49:02.361473	32.6	62.0	-68.8	3.6
2026-01-21 17:49:04.606020	30.8	61.5	-67.2	1.8
2026-01-21 17:49:06.850039	29.1	60.9	-67.1	1.5
2026-01-21 17:49:09.096092	27.5	60.3	-66.2	1.8
2026-01-21 17:49:11.343599	26.0	59.7	-65.2	0.0
2026-01-21 17:49:13.589114	24.5	59.0	-66.4	3.4
2026-01-21 17:49:15.833158	23.1	58.4	-64.7	0.3
2026-01-21 17:49:18.078178	21.8	57.8	-65.2	2.4
2026-01-21 17:49:20.322723	20.5	57.1	-66.0	0.3
2026-01-21 17:49:22.567238	19.3	56.5	-65.7	2.2
2026-01-21 17:49:24.811783	18.1	55.8	-65.2	0.9
2026-01-21 17:49:27.060308	17.0	55.2	-65.2	1.5
2026-01-21 17:49:29.304815	16.0	54.5	-65.4	1.6
2026-01-21 17:49:31.549354	15.0	53.8	-64.1	0.0
2026-01-21 17:49:33.793375	14.0	53.2	-63.8	0.0
2026-01-21 17:49:36.036924	13.1	52.5	-64.6	0.3
2026-01-21 17:49:38.281439	12.3	51.9	-64.5	0.0
2026-01-21 17:49:40.525985	11.4	51.2	-64.6	0.0
2026-01-21 17:49:42.774512	10.6	50.5	-64.3	0.0
2026-01-21 17:49:45.019019	9.9	49.9	-64.6	0.0
2026-01-21 17:49:47.263565	9.1	49.2	-65.0	0.0
2026-01-21 17:49:49.511090	8.4	48.6	-63.2	0.0
2026-01-21 17:49:51.755150	7.7	48.0	-64.9	0.0
2026-01-21 17:49:53.999169	7.1	47.3	-64.9	0.0
2026-01-21 17:49:56.243228	6.5	46.7	-65.6	0.0
2026-01-21 17:49:58.487752	5.9	46.1	-62.8	0.0
2026-01-21 17:50:00.732259	5.3	45.5	-65.1	0.0
2026-01-21 17:50:02.977302	4.8	44.9	-63.2	0.0
2026-01-21 17:50:05.221322	4.2	44.3	-63.2	0.0
2026-01-21 17:50:07.464875	3.7	43.7	-62.5	0.0
2026-01-21 17:50:09.708895	3.2	43.1	-64.6	2.4
2026-01-21 17:50:11.952938	2.8	42.5	-63.4	0.3
2026-01-21 17:50:14.198477	2.3	41.9	-63.6	2.3
2026-01-21 17:50:16.441553	1.9	41.4	-62.8	0.0
2026-01-21 17:50:18.685069	1.4	40.8	-65.8	5.1
2026-01-21 17:50:20.929080	1.0	40.2	-63.7	0.0
2026-01-21 17:50:23.177637	0.6	39.7	-64.1	1.1
2026-01-21 17:50:25.422152	0.3	39.2	-64.4	5.4
2026-01-21 17:50:27.666700	359.9	38.6	-63.0	0.0
2026-01-21 17:50:29.911721	359.5	38.1	-65.4	6.8
2026-01-21 17:50:32.155763	359.2	37.6	-63.3	3.4
2026-01-21 17:50:34.400278	358.9	37.1	-65.6	9.4
2026-01-21 17:50:36.644327	358.5	36.6	-63.5	4.8
2026-01-21 17:50:38.890347	358.2	36.1	-65.2	7.7
2026-01-21 17:50:41.134854	357.9	35.6	-64.9	8.0
2026-01-21 17:50:43.378896	357.6	35.1	-65.1	9.7
2026-01-21 17:50:45.622916	357.3	34.6	-65.6	8.9
2026-01-21 17:50:47.866973	357.0	34.1	-63.9	5.9
2026-01-21 17:50:50.110993	356.8	33.7	-64.3	9.0
2026-01-21 17:50:52.355043	356.5	33.2	-64.7	7.5
2026-01-21 17:50:54.600558	356.3	32.8	-65.9	9.9
2026-01-21 17:50:56.845066	356.0	32.3	-64.8	8.1
2026-01-21 17:50:59.089099	355.8	31.9	-65.0	9.5
2026-01-21 17:51:01.332656	355.5	31.4	-63.9	7.9
2026-01-21 17:51:03.577163	355.3	31.0	-64.5	10.1
2026-01-21 17:51:05.820726	355.1	30.6	-64.0	9.3
2026-01-21 17:51:08.064281	354.9	30.2	-64.6	9.6
2026-01-21 17:51:10.308300	354.7	29.7	-64.6	9.5
2026-01-21 17:51:12.551848	354.5	29.3	-65.3	11.5
2026-01-21 17:51:14.796355	354.3	28.9	-63.7	8.3
2026-01-21 17:51:17.040862	354.1	28.5	-63.6	8.5
2026-01-21 17:51:19.272944	353.9	28.2	-64.5	9.2
2026-01-21 17:51:21.517458	353.7	27.8	-63.3	8.7
2026-01-21 17:51:23.762005	353.5	27.4	-63.7	7.1
2026-01-21 17:51:26.005521	353.3	27.0	-63.2	6.4
2026-01-21 17:51:28.250068	353.2	26.6	-64.6	7.1
2026-01-21 17:51:30.494575	353.0	26.3	-64.1	8.9
2026-01-21 17:51:32.738091	352.8	25.9	-64.5	8.9
2026-01-21 17:51:34.984143	352.7	25.6	-63.6	7.0
2026-01-21 17:51:37.228658	352.5	25.2	-64.3	9.7
2026-01-21 17:51:39.472699	352.4	24.9	-63.7	7.3
2026-01-21 17:51:41.716711	352.2	24.5	-64.5	7.2
2026-01-21 17:51:43.959783	352.1	24.2	-64.0	7.6
2026-01-21 17:51:46.204290	351.9	23.8	-65.3	7.9
2026-01-21 17:51:48.448301	351.8	23.5	-65.3	8.4
2026-01-21 17:51:50.692352	351.7	23.2	-62.7	5.7
2026-01-21 17:51:52.936868	351.5	22.9	-64.2	7.2
2026-01-21 17:51:55.180435	351.4	22.5	-63.8	5.3
2026-01-21 17:51:57.424454	351.3	22.2	-63.6	4.3
2026-01-21 17:51:59.667524	351.1	21.9	-64.8	4.7
2026-01-21 17:52:01.912031	351.0	21.6	-64.1	5.4
2026-01-21 17:52:04.156066	350.9	21.3	-63.8	4.6
2026-01-21 17:52:06.400572	350.8	21.0	-64.0	5.7
2026-01-21 17:52:08.647089	350.7	20.7	-64.1	5.4
2026-01-21 17:52:10.890651	350.6	20.4	-64.5	6.0
2026-01-21 17:52:13.134213	350.5	20.1	-64.5	4.6
2026-01-21 17:52:15.377770	350.3	19.8	-65.2	4.9
2026-01-21 17:52:17.627277	350.2	19.5	-65.3	4.0
2026-01-21 17:52:19.871328	350.1	19.3	-64.5	2.5
2026-01-21 17:52:22.115834	350.0	19.0	-65.1	3.3
2026-01-21 17:52:24.364877	349.9	18.7	-64.8	2.8
2026-01-21 17:52:26.608888	349.8	18.4	-65.0	3.7
2026-01-21 17:52:28.853404	349.7	18.2	-65.3	3.0
2026-01-21 17:52:31.096943	349.7	17.9	-65.0	2.2
2026-01-21 17:52:33.340963	349.6	17.6	-63.9	0.0
2026-01-21 17:52:35.584509	349.5	17.4	-64.4	1.0
2026-01-21 17:52:37.829025	349.4	17.1	-64.7	0.0
2026-01-21 17:52:40.073531	349.3	16.9	-64.9	0.4
2026-01-21 17:52:42.317583	349.2	16.6	-65.0	0.0
2026-01-21 17:52:44.562098	349.1	16.4	-65.1	0.0
2026-01-21 17:52:46.806133	349.0	16.1	-64.8	0.0
2026-01-21 17:52:49.050649	349.0	15.9	-64.7	0.0
2026-01-21 17:52:51.298165	348.9	15.6	-64.5	0.0
2026-01-21 17:52:53.542208	348.8	15.4	-65.0	0.0
2026-01-21 17:52:55.786227	348.7	15.1	-64.0	0.0
2026-01-21 17:52:58.031772	348.7	14.9	-64.1	0.0
2026-01-21 17:53:00.276287	348.6	14.7	-64.9	0.0
2026-01-21 17:53:02.520794	348.5	14.4	-64.2	0.0
2026-01-21 17:53:04.764827	348.4	14.2	-63.9	0.0
2026-01-21 17:53:07.008837	348.4	14.0	-64.1	0.0
2026-01-21 17:53:09.252873	348.3	13.7	-64.0	0.0
2026-01-21 17:53:11.497388	348.2	13.5	-64.8	0.0
2026-01-21 17:53:13.741895	348.2	13.3	-63.6	0.0
2026-01-21 17:53:15.985938	348.1	13.1	-64.3	0.0
2026-01-21 17:53:18.230453	348.0	12.9	-65.0	0.0
2026-01-21 17:53:20.474497	348.0	12.6	-63.5	0.0
2026-01-21 17:53:22.717526	347.9	12.4	-64.4	0.0
2026-01-21 17:53:24.961569	347.9	12.2	-63.2	0.0
2026-01-21 17:53:27.257088	347.8	12.0	-64.8	0.0
2026-01-21 17:53:29.502107	347.7	11.8	-65.0	0.0
2026-01-21 17:53:31.746142	347.7	11.6	-64.4	0.0
2026-01-21 17:53:33.990657	347.6	11.4	-63.8	0.0
2026-01-21 17:53:36.261705	347.6	11.2	-63.5	0.0
2026-01-21 17:53:38.506221	347.5	11.0	-63.8	0.0
2026-01-21 17:53:40.750232	347.4	10.8	-64.0	0.0
2026-01-21 17:53:42.996779	347.4	10.6	-64.3	0.0
2026-01-21 17:53:45.240799	347.3	10.4	-64.5	0.0
2026-01-21 17:53:47.485346	347.3	10.2	-65.0	0.2
2026-01-21 17:53:49.730374	347.2	10.0	-64.3	0.0
2026-01-21 17:53:51.972932	347.2	9.8	-64.7	0.6
2026-01-21 17:53:54.215962	347.1	9.6	-63.0	0.0
2026-01-21 17:53:56.457534	347.1	9.4	-63.4	0.0
2026-01-21 17:53:58.706060	347.0	9.2	-64.4	1.7
2026-01-21 17:54:00.949576	347.0	9.0	-64.3	0.8
2026-01-21 17:54:03.193129	346.9	8.9	-63.7	0.4
2026-01-21 17:54:05.437141	346.9	8.7	-63.4	0.9
2026-01-21 17:54:07.681656	346.9	8.5	-64.2	1.4
2026-01-21 17:54:09.924685	346.8	8.3	-63.6	1.9
2026-01-21 17:54:12.168734	346.8	8.1	-63.3	1.0
2026-01-21 17:54:14.410809	346.7	8.0	-64.8	2.2
2026-01-21 17:54:16.653861	346.7	7.8	-64.3	2.6
2026-01-21 17:54:18.897872	346.6	7.6	-64.2	3.0
2026-01-21 17:54:21.141883	346.6	7.4	-63.2	1.3
2026-01-21 17:54:23.386416	346.6	7.3	-63.5	0.0
2026-01-21 17:54:25.629437	346.5	7.1	-63.9	2.1
2026-01-21 17:54:27.871465	346.5	6.9	-63.5	2.8
2026-01-21 17:54:30.114504	346.4	6.7	-64.2	3.9
2026-01-21 17:54:32.363525	346.4	6.6	-63.0	2.3
2026-01-21 17:54:34.607536	346.4	6.4	-64.7	3.7
2026-01-21 17:54:36.853548	346.3	6.2	-64.0	3.3
2026-01-21 17:54:39.098579	346.3	6.1	-64.4	3.9
2026-01-21 17:54:41.342095	346.3	5.9	-65.9	3.2
2026-01-21 17:54:43.586105	346.2	5.7	-67.9	10.7
2026-01-21 17:54:45.830116	346.2	5.6	-68.8	6.9
2026-01-21 17:54:48.077640	346.2	5.4	-68.9	2.6
2026-01-21 17:54:50.321652	346.1	5.3	-69.8	2.4
2026-01-21 17:54:52.565663	346.1	5.1	-71.5	3.8
#Closed at: 2026-01-21 17:42:01.460130