passes_logs/2026/01/21/PlanumMoscow/PlanumMoscow__20260121_010653_METEOR-M2_4_rec.log

#Pass ID: 20260121_010653_METEOR-M2 4
#Satellite: METEOR-M2 4
#Configuration: METEOR-M2 4
#Start time: 2026-01-21 01:06:58.190981

#LorettStation: 1.0.0 05.05.2024
#Station: PlanumMoscow
#Location: 37.6253844 lon 55.6713361 lat
#TLE: 1 59051U 24039A   25293.94737965  .00000087  00000+0  58459-4 0  9998
#TLE: 2 59051  98.6671 251.7071 0007726 135.4772 224.7028 14.22388966 85257

#Time	Az	El	Level	SNR
2026-01-21 01:10:36.598028	14.1	29.3	-63.1	10.2
2026-01-21 01:10:38.841040	14.0	29.8	-62.8	8.5
2026-01-21 01:10:41.085051	14.0	30.2	-63.6	10.2
2026-01-21 01:10:43.328062	13.9	30.6	-63.6	10.5
2026-01-21 01:10:45.573569	13.9	31.1	-63.6	9.3
2026-01-21 01:10:47.818076	13.8	31.5	-63.4	8.1
2026-01-21 01:10:50.062583	13.8	32.0	-64.0	10.6
2026-01-21 01:10:52.306594	13.7	32.4	-63.5	10.3
2026-01-21 01:10:54.551101	13.7	32.9	-64.4	10.3
2026-01-21 01:10:56.795113	13.6	33.4	-64.6	11.6
2026-01-21 01:10:59.037124	13.5	33.9	-64.0	11.7
2026-01-21 01:11:01.280631	13.5	34.4	-63.8	10.8
2026-01-21 01:11:03.524137	13.4	34.9	-64.2	11.5
2026-01-21 01:11:05.767148	13.3	35.4	-64.2	11.6
2026-01-21 01:11:08.010159	13.3	35.9	-63.3	11.0
2026-01-21 01:11:10.252665	13.2	36.4	-64.0	11.7
2026-01-21 01:11:12.497172	13.1	36.9	-64.1	10.9
2026-01-21 01:11:14.740183	13.0	37.5	-64.1	8.8
2026-01-21 01:11:16.984194	13.0	38.0	-64.3	9.9
2026-01-21 01:11:19.228701	12.9	38.6	-64.7	10.8
2026-01-21 01:11:21.473208	12.8	39.2	-63.9	9.0
2026-01-21 01:11:23.719715	12.7	39.8	-64.8	9.3
2026-01-21 01:11:25.964222	12.6	40.3	-62.5	7.6
2026-01-21 01:11:28.207233	12.5	40.9	-60.4	4.1
2026-01-21 01:11:30.456741	12.4	41.6	-61.1	5.7
2026-01-21 01:11:32.701248	12.3	42.2	-61.0	6.2
2026-01-21 01:11:34.944772	12.2	42.8	-61.6	8.0
2026-01-21 01:11:37.188784	12.1	43.4	-64.3	9.6
2026-01-21 01:11:39.435291	11.9	44.1	-64.3	10.2
2026-01-21 01:11:41.679302	11.8	44.8	-62.8	7.5
2026-01-21 01:11:43.923313	11.7	45.4	-64.8	10.3
2026-01-21 01:11:46.167325	11.5	46.1	-63.4	7.7
2026-01-21 01:11:48.411831	11.4	46.8	-64.1	9.6
2026-01-21 01:11:50.656338	11.2	47.5	-64.8	10.8
2026-01-21 01:11:52.900845	11.1	48.3	-64.8	10.2
2026-01-21 01:11:55.145352	10.9	49.0	-64.8	9.4
2026-01-21 01:11:57.390363	10.7	49.7	-65.1	9.6
2026-01-21 01:11:59.635383	10.5	50.5	-64.7	9.7
2026-01-21 01:12:01.879890	10.3	51.3	-64.1	8.9
2026-01-21 01:12:04.124397	10.1	52.0	-64.7	8.9
2026-01-21 01:12:06.366913	9.9	52.8	-64.9	8.6
2026-01-21 01:12:08.611420	9.7	53.6	-64.9	6.7
2026-01-21 01:12:10.855927	9.4	54.5	-65.8	7.6
2026-01-21 01:12:13.099938	9.1	55.3	-66.3	8.1
2026-01-21 01:12:15.346445	8.9	56.1	-66.4	7.8
2026-01-21 01:12:17.589961	8.6	57.0	-66.0	8.1
2026-01-21 01:12:19.833972	8.2	57.9	-66.3	8.4
2026-01-21 01:12:22.077487	7.9	58.8	-65.8	8.5
2026-01-21 01:12:24.321994	7.5	59.7	-65.5	7.8
2026-01-21 01:12:26.566501	7.1	60.6	-65.5	8.2
2026-01-21 01:12:28.813008	6.7	61.5	-66.0	9.5
2026-01-21 01:12:31.056514	6.3	62.4	-66.1	9.7
2026-01-21 01:12:33.299525	5.8	63.4	-66.0	9.9
2026-01-21 01:12:35.543032	5.2	64.3	-66.4	9.8
2026-01-21 01:12:37.786539	4.7	65.3	-66.2	9.4
2026-01-21 01:12:40.031045	4.0	66.2	-66.7	9.2
2026-01-21 01:12:42.275552	3.3	67.2	-67.0	8.9
2026-01-21 01:12:44.519068	2.6	68.2	-66.9	8.2
2026-01-21 01:12:46.763575	1.7	69.2	-66.6	9.5
2026-01-21 01:12:49.008082	0.8	70.2	-66.4	9.9
2026-01-21 01:12:51.252094	359.7	71.2	-66.6	11.1
2026-01-21 01:12:53.496601	358.5	72.2	-66.3	11.9
2026-01-21 01:12:55.741612	357.2	73.2	-66.1	12.3
2026-01-21 01:12:57.986119	355.7	74.3	-66.3	12.6
2026-01-21 01:13:00.234626	353.9	75.3	-66.5	12.5
2026-01-21 01:13:02.478638	352.0	76.3	-66.6	12.6
2026-01-21 01:13:04.723145	349.6	77.3	-66.9	12.4
2026-01-21 01:13:06.972157	346.9	78.2	-66.9	12.5
2026-01-21 01:13:09.216169	343.7	79.2	-67.4	12.0
2026-01-21 01:13:11.460675	339.9	80.1	-67.2	12.2
2026-01-21 01:13:13.705183	335.2	80.9	-67.4	12.4
2026-01-21 01:13:15.949689	329.7	81.7	-67.5	12.4
2026-01-21 01:13:18.194196	323.0	82.4	-67.4	12.8
2026-01-21 01:13:20.438703	315.1	83.0	-67.3	13.4
2026-01-21 01:13:22.687716	305.9	83.5	-67.8	13.0
2026-01-21 01:13:24.932222	295.7	83.7	-67.6	12.8
2026-01-21 01:13:27.176729	285.1	83.7	-67.4	12.9
2026-01-21 01:13:29.421245	274.7	83.6	-67.9	12.7
2026-01-21 01:13:31.665752	265.1	83.2	-67.9	13.1
2026-01-21 01:13:33.909803	256.8	82.6	-67.3	14.1
2026-01-21 01:13:36.156328	249.7	82.0	-67.3	14.6
2026-01-21 01:13:38.400340	243.8	81.2	-67.7	14.7
2026-01-21 01:13:40.643857	238.9	80.4	-67.7	14.8
2026-01-21 01:13:42.888363	234.9	79.5	-67.9	14.4
2026-01-21 01:13:45.131879	231.5	78.5	-68.3	13.5
2026-01-21 01:13:47.374889	228.6	77.6	-68.3	14.0
2026-01-21 01:13:49.616909	226.2	76.6	-68.2	14.7
2026-01-21 01:13:51.863436	224.1	75.6	-68.3	15.2
2026-01-21 01:13:54.106456	222.3	74.6	-67.7	16.1
2026-01-21 01:13:56.348972	220.7	73.6	-67.6	16.1
2026-01-21 01:13:58.590992	219.3	72.5	-68.0	15.7
2026-01-21 01:14:00.834003	218.1	71.5	-67.9	15.9
2026-01-21 01:14:03.076509	217.0	70.5	-68.1	15.6
2026-01-21 01:14:05.318025	216.0	69.5	-68.3	15.4
2026-01-21 01:14:07.557540	215.1	68.5	-68.4	15.6
2026-01-21 01:14:09.799551	214.3	67.5	-68.0	15.4
2026-01-21 01:14:12.042066	213.6	66.5	-68.1	15.5
2026-01-21 01:14:14.284582	212.9	65.5	-68.4	15.3
2026-01-21 01:14:16.526594	212.3	64.6	-68.3	14.6
2026-01-21 01:14:18.768621	211.8	63.6	-68.4	13.7
2026-01-21 01:14:21.012632	211.3	62.7	-68.4	14.1
2026-01-21 01:14:23.257156	210.8	61.7	-69.1	13.6
2026-01-21 01:14:25.500184	210.4	60.8	-68.9	13.2
2026-01-21 01:14:27.743700	210.0	59.9	-69.1	13.3
2026-01-21 01:14:29.988217	209.6	59.0	-69.3	12.8
2026-01-21 01:14:32.231733	209.3	58.1	-69.3	11.8
2026-01-21 01:14:34.478753	208.9	57.2	-69.3	12.4
2026-01-21 01:14:36.719773	208.6	56.4	-69.4	11.7
2026-01-21 01:14:38.963785	208.3	55.5	-69.2	10.9
2026-01-21 01:14:41.207299	208.1	54.7	-69.1	10.5
2026-01-21 01:14:43.450815	207.8	53.8	-69.2	10.9
2026-01-21 01:14:45.693339	207.6	53.0	-69.3	11.1
2026-01-21 01:14:47.936855	207.3	52.2	-68.7	10.8
2026-01-21 01:14:50.180867	207.1	51.4	-68.7	11.0
2026-01-21 01:14:52.423382	206.9	50.6	-69.0	10.3
2026-01-21 01:14:54.666394	206.7	49.9	-69.0	11.1
2026-01-21 01:14:56.908919	206.5	49.1	-68.7	12.4
2026-01-21 01:14:59.152929	206.4	48.4	-68.4	12.4
2026-01-21 01:15:01.396940	206.2	47.7	-68.7	12.0
2026-01-21 01:15:03.638465	206.0	46.9	-69.1	12.7
2026-01-21 01:15:05.882475	205.9	46.2	-68.3	11.8
2026-01-21 01:15:08.125007	205.8	45.5	-68.5	13.2
2026-01-21 01:15:10.368545	205.6	44.9	-68.7	12.5
2026-01-21 01:15:12.611574	205.5	44.2	-68.4	12.8
2026-01-21 01:15:14.856120	205.4	43.5	-68.4	13.7
2026-01-21 01:15:17.100142	205.2	42.9	-67.9	13.5
2026-01-21 01:15:19.343170	205.1	42.2	-68.0	13.5
2026-01-21 01:15:21.594230	205.0	41.6	-67.5	13.5
2026-01-21 01:15:23.838252	204.9	41.0	-67.7	13.5
2026-01-21 01:15:26.081818	204.8	40.4	-67.5	12.1
2026-01-21 01:15:28.325838	204.7	39.8	-67.4	12.0
2026-01-21 01:15:30.568906	204.6	39.2	-67.3	13.1
2026-01-21 01:15:32.812429	204.5	38.6	-67.0	12.5
2026-01-21 01:15:35.055006	204.4	38.1	-67.3	14.2
2026-01-21 01:15:37.297539	204.4	37.5	-67.1	13.8
2026-01-21 01:15:39.541055	204.3	37.0	-67.1	13.2
2026-01-21 01:15:41.784601	204.2	36.4	-67.4	13.7
2026-01-21 01:15:44.028621	204.1	35.9	-67.2	14.0
2026-01-21 01:15:46.271673	204.0	35.4	-66.7	13.6
2026-01-21 01:15:48.515188	204.0	34.8	-66.9	13.6
2026-01-21 01:15:50.757713	203.9	34.3	-66.8	13.6
2026-01-21 01:15:52.999262	203.8	33.8	-66.8	14.0
2026-01-21 01:15:55.242332	203.8	33.4	-66.4	13.6
2026-01-21 01:15:57.486351	203.7	32.9	-66.7	14.0
2026-01-21 01:15:59.729867	203.7	32.4	-66.8	13.7
2026-01-21 01:16:01.973414	203.6	31.9	-67.3	14.3
2026-01-21 01:16:04.217929	203.5	31.5	-67.4	14.1
2026-01-21 01:16:06.461477	203.5	31.0	-67.0	14.0
2026-01-21 01:16:08.703530	203.4	30.6	-66.7	14.4
2026-01-21 01:16:10.945072	203.4	30.1	-66.8	12.1
2026-01-21 01:16:13.190596	203.3	29.7	-66.8	13.6
2026-01-21 01:16:15.434159	203.3	29.3	-67.1	14.3
2026-01-21 01:16:17.677208	203.2	28.9	-67.0	14.9
2026-01-21 01:16:19.924230	203.2	28.4	-66.7	14.7
2026-01-21 01:16:22.167299	203.1	28.0	-66.8	15.4
2026-01-21 01:16:24.410824	203.1	27.6	-66.6	14.8
2026-01-21 01:16:26.652898	203.1	27.2	-67.0	15.1
2026-01-21 01:16:28.897413	203.0	26.8	-66.0	14.0
2026-01-21 01:16:31.140979	203.0	26.5	-66.6	14.7
2026-01-21 01:16:33.384998	202.9	26.1	-67.1	14.8
2026-01-21 01:16:35.628564	202.9	25.7	-67.0	14.5
2026-01-21 01:16:37.872584	202.9	25.3	-66.3	13.3
2026-01-21 01:16:40.116595	202.8	25.0	-66.8	13.2
2026-01-21 01:16:42.364647	202.8	24.6	-66.9	14.8
2026-01-21 01:16:44.605692	202.8	24.3	-66.9	14.5
2026-01-21 01:16:46.848751	202.7	23.9	-66.1	13.6
2026-01-21 01:16:49.093332	202.7	23.6	-66.3	13.1
2026-01-21 01:16:51.335361	202.7	23.2	-66.4	14.6
2026-01-21 01:16:53.578876	202.6	22.9	-66.6	14.9
2026-01-21 01:16:55.821943	202.6	22.6	-65.9	11.2
2026-01-21 01:16:58.065963	202.6	22.2	-66.8	14.9
2026-01-21 01:17:00.309974	202.6	21.9	-66.9	14.2
2026-01-21 01:17:02.553521	202.5	21.6	-67.0	14.6
2026-01-21 01:17:04.796559	202.5	21.3	-66.7	14.6
2026-01-21 01:17:07.040098	202.5	21.0	-67.0	14.3
2026-01-21 01:17:09.284614	202.5	20.7	-66.6	13.5
2026-01-21 01:17:11.529137	202.4	20.4	-66.8	14.5
2026-01-21 01:17:13.772190	202.4	20.1	-66.9	14.0
2026-01-21 01:17:16.015252	202.4	19.8	-66.9	13.4
2026-01-21 01:17:18.258808	202.4	19.5	-66.9	13.8
2026-01-21 01:17:20.501342	202.3	19.2	-66.9	13.6
2026-01-21 01:17:22.746394	202.3	18.9	-67.0	13.8
2026-01-21 01:17:24.990414	202.3	18.6	-66.5	13.2
2026-01-21 01:17:27.234426	202.3	18.3	-66.7	13.6
2026-01-21 01:17:29.479000	202.3	18.1	-66.8	14.1
2026-01-21 01:17:31.723524	202.2	17.8	-66.7	14.0
2026-01-21 01:17:33.966079	202.2	17.5	-66.7	14.0
2026-01-21 01:17:36.208142	202.2	17.2	-66.5	13.7
2026-01-21 01:17:38.451657	202.2	17.0	-66.6	13.8
2026-01-21 01:17:40.696173	202.2	16.7	-66.6	13.1
2026-01-21 01:17:42.939721	202.1	16.5	-66.9	13.6
2026-01-21 01:17:45.188751	202.1	16.2	-66.7	13.8
2026-01-21 01:17:47.432762	202.1	15.9	-66.2	12.5
2026-01-21 01:17:49.675817	202.1	15.7	-67.1	13.1
2026-01-21 01:17:51.919341	202.1	15.4	-66.8	13.9
2026-01-21 01:17:54.163393	202.1	15.2	-67.1	12.6
2026-01-21 01:17:56.406920	202.1	15.0	-67.1	12.3
2026-01-21 01:17:58.649478	202.0	14.7	-67.2	12.6
2026-01-21 01:18:00.898003	202.0	14.5	-67.0	12.2
2026-01-21 01:18:03.141022	202.0	14.2	-67.1	12.6
2026-01-21 01:18:05.386083	202.0	14.0	-67.5	12.7
2026-01-21 01:18:07.629132	202.0	13.8	-67.4	11.3
2026-01-21 01:18:09.873681	202.0	13.5	-67.0	12.6
2026-01-21 01:18:12.118196	202.0	13.3	-67.1	12.5
2026-01-21 01:18:14.363247	201.9	13.1	-67.2	12.5
2026-01-21 01:18:16.612267	201.9	12.9	-67.0	12.4
2026-01-21 01:18:18.855783	201.9	12.7	-67.3	11.9
2026-01-21 01:18:21.100329	201.9	12.4	-66.6	11.4
2026-01-21 01:18:23.343853	201.9	12.2	-66.8	11.9
2026-01-21 01:18:25.588401	201.9	12.0	-67.3	10.5
2026-01-21 01:18:27.832916	201.9	11.8	-67.1	11.2
2026-01-21 01:18:30.076461	201.9	11.6	-67.1	11.8
2026-01-21 01:18:32.320976	201.9	11.4	-66.9	11.8
2026-01-21 01:18:34.565521	201.8	11.2	-66.7	9.9
2026-01-21 01:18:36.809533	201.8	11.0	-67.2	11.2
2026-01-21 01:18:39.054039	201.8	10.7	-67.1	9.9
2026-01-21 01:18:41.298081	201.8	10.5	-67.3	10.9
2026-01-21 01:18:43.543093	201.8	10.3	-67.0	10.5
2026-01-21 01:18:45.788169	201.8	10.1	-66.8	10.5
2026-01-21 01:18:48.032684	201.8	9.9	-66.7	10.2
2026-01-21 01:18:50.275735	201.8	9.8	-66.8	9.8
2026-01-21 01:18:52.520251	201.8	9.6	-66.4	10.6
2026-01-21 01:18:54.766808	201.8	9.4	-66.6	9.6
2026-01-21 01:18:57.011315	201.8	9.2	-66.8	10.6
2026-01-21 01:18:59.255334	201.7	9.0	-66.9	10.5
2026-01-21 01:19:01.497890	201.7	8.8	-67.3	9.9
2026-01-21 01:19:03.741437	201.7	8.6	-67.4	10.4
2026-01-21 01:19:05.987944	201.7	8.4	-67.3	9.7
2026-01-21 01:19:08.231468	201.7	8.2	-66.7	8.6
2026-01-21 01:19:10.475527	201.7	8.1	-67.1	9.4
2026-01-21 01:19:12.720034	201.7	7.9	-66.7	7.2
2026-01-21 01:19:14.963092	201.7	7.7	-67.0	9.5
2026-01-21 01:19:17.206616	201.7	7.5	-66.8	10.4
2026-01-21 01:19:19.451162	201.7	7.3	-67.2	8.5
2026-01-21 01:19:21.695669	201.7	7.2	-66.5	9.8
2026-01-21 01:19:23.939730	201.7	7.0	-66.7	9.1
2026-01-21 01:19:26.184237	201.7	6.8	-66.6	8.3
2026-01-21 01:19:28.428752	201.7	6.6	-66.7	8.3
2026-01-21 01:19:30.673299	201.6	6.5	-67.0	8.7
2026-01-21 01:19:32.917311	201.6	6.3	-66.6	8.0
2026-01-21 01:19:35.161818	201.6	6.1	-66.0	6.1
2026-01-21 01:19:37.406324	201.6	6.0	-68.0	9.3
2026-01-21 01:19:39.649878	201.6	5.8	-71.5	0.0
2026-01-21 01:19:41.894434	201.6	5.6	-71.9	0.0
2026-01-21 01:19:44.137958	201.6	5.5	-72.6	0.0
2026-01-21 01:19:46.381504	201.6	5.3	-73.4	0.0
2026-01-21 01:19:48.628524	201.6	5.1	-72.6	0.0
2026-01-21 01:19:50.873099	201.6	5.0	-72.0	0.0
#Closed at: 2026-01-21 01:06:53.192173