passes_logs/2026/01/21/PlanumMoscow/PlanumMoscow__20260121_170502_METOP-B_rec.log

#Pass ID: 20260121_170502_METOP-B
#Satellite: METOP-B
#Configuration: METOP-B
#Start time: 2026-01-21 17:05:07.596880

#LorettStation: 1.0.0 05.05.2024
#Station: PlanumMoscow
#Location: 37.6253844 lon 55.6713361 lat
#TLE: 1 38771U 12049A   25293.92766658  .00000266  00000+0  14193-3 0  9996
#TLE: 2 38771  98.6882 344.7603 0001609 341.5209  18.5909 14.21379342679275

#Time	Az	El	Level	SNR
2026-01-21 17:08:46.040993	136.4	28.8	-61.5	2.2
2026-01-21 17:08:48.285516	136.2	29.2	-63.3	5.0
2026-01-21 17:08:50.528564	135.9	29.6	-62.8	3.7
2026-01-21 17:08:52.771634	135.6	30.0	-62.9	3.5
2026-01-21 17:08:55.019210	135.3	30.4	-63.8	4.6
2026-01-21 17:08:57.262743	135.1	30.8	-63.1	4.7
2026-01-21 17:08:59.506792	134.8	31.3	-64.2	4.8
2026-01-21 17:09:01.751821	134.5	31.7	-64.1	2.2
2026-01-21 17:09:03.994860	134.2	32.1	-63.5	5.7
2026-01-21 17:09:06.238909	133.8	32.5	-63.3	4.6
2026-01-21 17:09:08.481942	133.5	33.0	-63.7	6.9
2026-01-21 17:09:10.724961	133.2	33.4	-63.4	5.2
2026-01-21 17:09:12.969973	132.8	33.9	-63.7	5.6
2026-01-21 17:09:15.215036	132.5	34.3	-64.5	7.0
2026-01-21 17:09:17.459600	132.1	34.8	-62.5	4.4
2026-01-21 17:09:19.703125	131.8	35.3	-63.4	6.8
2026-01-21 17:09:21.946145	131.4	35.7	-63.7	5.0
2026-01-21 17:09:24.189660	131.0	36.2	-62.6	7.0
2026-01-21 17:09:26.436189	130.6	36.7	-62.6	6.5
2026-01-21 17:09:28.680236	130.1	37.2	-61.4	6.8
2026-01-21 17:09:30.923759	129.7	37.7	-62.0	4.9
2026-01-21 17:09:33.168265	129.3	38.2	-63.0	6.6
2026-01-21 17:09:35.411788	128.8	38.7	-63.1	6.4
2026-01-21 17:09:37.655799	128.3	39.2	-62.6	6.4
2026-01-21 17:09:39.899810	127.8	39.7	-61.3	5.1
2026-01-21 17:09:42.143325	127.3	40.2	-60.7	5.9
2026-01-21 17:09:44.387346	126.8	40.8	-62.6	3.2
2026-01-21 17:09:46.631853	126.2	41.3	-63.9	5.5
2026-01-21 17:09:48.874880	125.7	41.8	-63.7	5.5
2026-01-21 17:09:51.119891	125.1	42.4	-63.0	5.5
2026-01-21 17:09:53.363902	124.5	42.9	-61.6	2.2
2026-01-21 17:09:55.607912	123.9	43.5	-61.9	4.7
2026-01-21 17:09:57.855428	123.2	44.0	-63.0	3.8
2026-01-21 17:10:00.098943	122.6	44.6	-63.3	5.4
2026-01-21 17:10:02.341961	121.9	45.1	-63.2	5.8
2026-01-21 17:10:04.584979	121.2	45.7	-63.0	4.8
2026-01-21 17:10:06.828493	120.4	46.3	-62.8	5.5
2026-01-21 17:10:09.072008	119.6	46.8	-61.5	3.1
2026-01-21 17:10:11.315019	118.8	47.4	-62.6	7.8
2026-01-21 17:10:13.561039	118.0	48.0	-62.2	5.4
2026-01-21 17:10:15.805546	117.2	48.6	-63.2	6.5
2026-01-21 17:10:18.047060	116.3	49.1	-63.6	7.9
2026-01-21 17:10:20.290576	115.3	49.7	-62.9	5.3
2026-01-21 17:10:22.533595	114.4	50.3	-62.8	5.4
2026-01-21 17:10:24.776614	113.4	50.9	-62.6	4.5
2026-01-21 17:10:27.020129	112.3	51.4	-63.2	5.0
2026-01-21 17:10:29.261644	111.2	52.0	-64.2	6.4
2026-01-21 17:10:31.500653	110.1	52.5	-64.1	5.4
2026-01-21 17:10:33.744160	109.0	53.1	-64.0	5.5
2026-01-21 17:10:35.987170	107.8	53.6	-63.8	5.8
2026-01-21 17:10:38.228685	106.5	54.2	-63.7	5.8
2026-01-21 17:10:40.470207	105.2	54.7	-64.1	7.8
2026-01-21 17:10:42.710224	103.8	55.2	-63.5	5.6
2026-01-21 17:10:44.951235	102.4	55.7	-63.8	6.8
2026-01-21 17:10:47.193264	101.0	56.2	-64.6	7.0
2026-01-21 17:10:49.434274	99.5	56.7	-64.5	6.9
2026-01-21 17:10:51.674283	97.9	57.2	-64.0	6.8
2026-01-21 17:10:53.912804	96.3	57.6	-63.0	4.8
2026-01-21 17:10:56.153319	94.7	58.1	-63.9	4.7
2026-01-21 17:10:58.394842	92.9	58.5	-64.7	4.9
2026-01-21 17:11:00.636357	91.2	58.9	-64.3	4.8
2026-01-21 17:11:02.876871	89.3	59.2	-64.0	4.8
2026-01-21 17:11:05.118378	87.5	59.6	-63.7	4.5
2026-01-21 17:11:07.361389	85.6	59.9	-64.0	3.8
2026-01-21 17:11:09.601398	83.6	60.2	-64.2	3.2
2026-01-21 17:11:11.840408	81.6	60.4	-65.1	1.5
2026-01-21 17:11:14.082426	79.6	60.6	-64.2	2.2
2026-01-21 17:11:16.320939	77.5	60.8	-63.8	2.9
2026-01-21 17:11:18.562445	75.4	61.0	-64.5	1.7
2026-01-21 17:11:20.804961	73.2	61.1	-64.5	2.0
2026-01-21 17:11:23.041977	71.1	61.2	-64.5	1.2
2026-01-21 17:11:25.279482	69.0	61.2	-63.5	1.1
2026-01-21 17:11:27.517997	66.8	61.3	-64.1	0.9
2026-01-21 17:11:29.761503	64.6	61.2	-63.7	0.8
2026-01-21 17:11:32.001018	62.5	61.2	-62.3	0.0
2026-01-21 17:11:34.238530	60.3	61.1	-63.3	2.1
2026-01-21 17:11:36.481541	58.2	61.0	-64.8	1.1
2026-01-21 17:11:38.722560	56.1	60.8	-63.2	0.6
2026-01-21 17:11:40.966076	54.0	60.6	-63.6	0.4
2026-01-21 17:11:43.209086	52.0	60.4	-62.8	0.5
2026-01-21 17:11:45.453097	50.0	60.1	-63.1	0.9
2026-01-21 17:11:47.700109	48.0	59.8	-62.1	0.0
2026-01-21 17:11:49.944120	46.1	59.5	-62.3	0.0
2026-01-21 17:11:52.186655	44.3	59.2	-62.8	0.9
2026-01-21 17:11:54.429180	42.4	58.8	-62.1	1.3
2026-01-21 17:11:56.677191	40.7	58.4	-61.6	0.0
2026-01-21 17:11:58.916713	39.0	58.0	-61.6	0.4
2026-01-21 17:12:01.155219	37.3	57.6	-62.2	0.5
2026-01-21 17:12:03.395740	35.7	57.2	-61.5	0.2
2026-01-21 17:12:05.632255	34.2	56.7	-60.9	0.0
2026-01-21 17:12:07.874770	32.7	56.2	-62.8	0.8
2026-01-21 17:12:10.116781	31.2	55.7	-62.4	0.7
2026-01-21 17:12:12.358799	29.8	55.2	-62.0	0.3
2026-01-21 17:12:14.598809	28.5	54.7	-62.0	0.7
2026-01-21 17:12:16.839323	27.2	54.2	-61.8	0.7
2026-01-21 17:12:19.080837	25.9	53.6	-61.6	0.0
2026-01-21 17:12:21.319846	24.7	53.1	-61.5	0.0
2026-01-21 17:12:23.558865	23.6	52.5	-61.3	0.0
2026-01-21 17:12:25.797882	22.5	52.0	-62.5	0.5
2026-01-21 17:12:28.038397	21.4	51.4	-62.4	0.0
2026-01-21 17:12:30.276902	20.4	50.8	-62.0	0.1
2026-01-21 17:12:32.515919	19.4	50.3	-62.6	0.8
2026-01-21 17:12:34.760938	18.4	49.7	-60.1	0.0
2026-01-21 17:12:37.000958	17.5	49.1	-61.7	0.0
2026-01-21 17:12:39.241472	16.6	48.6	-63.0	0.1
2026-01-21 17:12:41.479986	15.7	48.0	-62.6	0.0
2026-01-21 17:12:43.716996	14.9	47.4	-62.1	0.8
2026-01-21 17:12:45.954509	14.1	46.9	-60.5	0.0
2026-01-21 17:12:48.194519	13.3	46.3	-62.3	0.5
2026-01-21 17:12:50.436025	12.6	45.7	-62.1	1.3
2026-01-21 17:12:52.678539	11.9	45.2	-61.6	1.2
2026-01-21 17:12:54.916557	11.2	44.6	-62.2	1.3
2026-01-21 17:12:57.159064	10.5	44.1	-62.3	1.6
2026-01-21 17:12:59.399585	9.9	43.5	-59.4	0.0
2026-01-21 17:13:01.647093	9.3	43.0	-61.9	1.3
2026-01-21 17:13:03.889607	8.7	42.4	-60.4	0.0
2026-01-21 17:13:06.125119	8.1	41.9	-61.0	1.0
2026-01-21 17:13:08.369626	7.5	41.3	-61.0	0.0
2026-01-21 17:13:10.611637	7.0	40.8	-62.0	0.0
2026-01-21 17:13:12.849142	6.5	40.3	-61.4	0.0
2026-01-21 17:13:15.088160	6.0	39.8	-61.8	0.0
2026-01-21 17:13:17.332171	5.5	39.3	-61.8	0.7
2026-01-21 17:13:19.570685	5.0	38.7	-61.6	0.2
2026-01-21 17:13:21.810200	4.6	38.2	-62.3	1.3
2026-01-21 17:13:24.058724	4.1	37.7	-60.8	0.3
2026-01-21 17:13:26.297734	3.7	37.3	-60.3	1.2
2026-01-21 17:13:28.537744	3.3	36.8	-61.0	1.3
2026-01-21 17:13:30.777250	2.8	36.3	-61.7	1.3
2026-01-21 17:13:33.020765	2.5	35.8	-61.3	0.5
2026-01-21 17:13:35.255800	2.1	35.3	-62.1	2.2
2026-01-21 17:13:37.492817	1.7	34.9	-62.6	2.4
2026-01-21 17:13:39.730828	1.3	34.4	-61.0	1.4
2026-01-21 17:13:41.965836	1.0	34.0	-60.7	1.7
2026-01-21 17:13:44.205862	0.6	33.5	-61.5	0.9
2026-01-21 17:13:46.441375	0.3	33.1	-62.2	3.2
2026-01-21 17:13:48.678888	360.0	32.6	-61.5	3.1
2026-01-21 17:13:50.919899	359.7	32.2	-62.5	4.0
2026-01-21 17:13:53.155908	359.4	31.8	-62.7	4.1
2026-01-21 17:13:55.392421	359.1	31.4	-62.0	3.9
2026-01-21 17:13:57.627438	358.8	30.9	-62.7	3.9
2026-01-21 17:13:59.864448	358.5	30.5	-62.1	4.2
2026-01-21 17:14:02.101962	358.2	30.1	-62.1	4.3
2026-01-21 17:14:04.345973	358.0	29.7	-61.5	3.3
2026-01-21 17:14:06.589489	357.7	29.3	-60.6	2.6
2026-01-21 17:14:08.831012	357.4	28.9	-61.5	3.2
2026-01-21 17:14:11.070518	357.2	28.5	-62.2	3.9
2026-01-21 17:14:13.310032	357.0	28.2	-61.9	3.7
2026-01-21 17:14:15.548553	356.7	27.8	-63.0	4.7
2026-01-21 17:14:17.785563	356.5	27.4	-62.2	4.6
2026-01-21 17:14:20.031077	356.3	27.0	-62.1	4.5
2026-01-21 17:14:22.275089	356.0	26.7	-61.6	4.2
2026-01-21 17:14:24.517621	355.8	26.3	-62.7	4.1
2026-01-21 17:14:26.760144	355.6	26.0	-60.7	3.2
2026-01-21 17:14:29.002174	355.4	25.6	-61.1	3.2
2026-01-21 17:14:31.241708	355.2	25.3	-62.3	5.0
2026-01-21 17:14:33.486719	355.0	24.9	-62.3	4.5
2026-01-21 17:14:35.724224	354.8	24.6	-62.7	4.8
2026-01-21 17:14:37.968235	354.6	24.3	-63.8	5.0
2026-01-21 17:14:40.206252	354.5	23.9	-64.1	4.4
2026-01-21 17:14:42.448767	354.3	23.6	-61.3	1.8
2026-01-21 17:14:44.684785	354.1	23.3	-62.3	4.8
2026-01-21 17:14:46.921802	353.9	23.0	-60.9	3.8
2026-01-21 17:14:49.161308	353.8	22.6	-63.6	5.2
2026-01-21 17:14:51.400822	353.6	22.3	-62.9	3.9
2026-01-21 17:14:53.641328	353.4	22.0	-60.8	1.9
2026-01-21 17:14:55.878337	353.3	21.7	-63.4	4.6
2026-01-21 17:14:58.118851	353.1	21.4	-61.7	3.4
2026-01-21 17:15:00.357370	353.0	21.1	-63.0	3.4
2026-01-21 17:15:02.594379	352.8	20.8	-62.5	2.9
2026-01-21 17:15:04.838390	352.7	20.5	-62.4	3.4
2026-01-21 17:15:07.085929	352.5	20.2	-64.5	3.8
2026-01-21 17:15:09.329972	352.4	19.9	-63.5	3.0
2026-01-21 17:15:11.572510	352.3	19.7	-63.6	3.1
2026-01-21 17:15:13.816072	352.1	19.4	-64.0	2.0
2026-01-21 17:15:16.061083	352.0	19.1	-63.5	2.4
2026-01-21 17:15:18.305627	351.9	18.8	-63.3	2.1
2026-01-21 17:15:20.549144	351.7	18.6	-63.0	1.0
2026-01-21 17:15:22.796185	351.6	18.3	-63.9	2.2
2026-01-21 17:15:25.039256	351.5	18.0	-64.6	2.4
2026-01-21 17:15:27.282283	351.4	17.8	-63.2	0.0
2026-01-21 17:15:29.523864	351.2	17.5	-63.2	0.7
2026-01-21 17:15:31.767394	351.1	17.3	-63.3	0.8
2026-01-21 17:15:34.008973	351.0	17.0	-64.0	0.9
2026-01-21 17:15:36.251507	350.9	16.7	-62.5	0.0
2026-01-21 17:15:38.495556	350.8	16.5	-63.6	0.0
2026-01-21 17:15:40.738586	350.7	16.2	-63.3	0.0
2026-01-21 17:15:42.981109	350.6	16.0	-63.8	0.0
2026-01-21 17:15:45.222670	350.5	15.8	-63.5	0.5
2026-01-21 17:15:47.464733	350.4	15.5	-63.9	0.0
2026-01-21 17:15:49.707266	350.3	15.3	-64.7	1.6
2026-01-21 17:15:51.950806	350.2	15.0	-63.3	0.9
2026-01-21 17:15:54.194362	350.1	14.8	-62.3	0.0
2026-01-21 17:15:56.437381	350.0	14.6	-64.1	0.0
2026-01-21 17:15:58.680400	349.9	14.4	-63.5	0.0
2026-01-21 17:16:00.924411	349.8	14.1	-65.3	0.8
2026-01-21 17:16:03.166438	349.7	13.9	-63.5	0.0
2026-01-21 17:16:05.410449	349.6	13.7	-65.3	0.4
2026-01-21 17:16:07.654956	349.5	13.5	-64.6	0.0
2026-01-21 17:16:09.900481	349.5	13.2	-64.7	0.3
2026-01-21 17:16:12.143502	349.4	13.0	-64.5	0.0
2026-01-21 17:16:14.387521	349.3	12.8	-62.2	0.0
2026-01-21 17:16:16.631533	349.2	12.6	-63.2	0.0
2026-01-21 17:16:18.879050	349.1	12.4	-64.5	0.0
2026-01-21 17:16:21.123061	349.0	12.2	-64.5	0.2
2026-01-21 17:16:23.366576	349.0	12.0	-64.5	0.0
2026-01-21 17:16:25.610596	348.9	11.8	-64.5	0.0
2026-01-21 17:16:27.853130	348.8	11.5	-64.8	0.7
2026-01-21 17:16:30.095716	348.7	11.3	-62.5	0.0
2026-01-21 17:16:32.338733	348.7	11.1	-62.2	0.0
2026-01-21 17:16:34.582292	348.6	10.9	-63.9	0.0
2026-01-21 17:16:36.826311	348.5	10.7	-65.0	0.0
2026-01-21 17:16:39.069362	348.4	10.5	-64.2	0.0
2026-01-21 17:16:41.312380	348.4	10.3	-64.0	0.0
2026-01-21 17:16:43.554950	348.3	10.2	-63.6	0.2
2026-01-21 17:16:45.799457	348.2	10.0	-65.0	1.3
2026-01-21 17:16:48.042484	348.2	9.8	-65.0	1.0
2026-01-21 17:16:50.289031	348.1	9.6	-63.2	0.0
2026-01-21 17:16:52.533547	348.0	9.4	-64.1	0.0
2026-01-21 17:16:54.776566	348.0	9.2	-64.7	1.6
2026-01-21 17:16:57.020587	347.9	9.0	-64.3	1.1
2026-01-21 17:16:59.264598	347.9	8.8	-65.2	2.5
2026-01-21 17:17:01.506167	347.8	8.7	-64.6	2.1
2026-01-21 17:17:03.749690	347.7	8.5	-63.7	2.0
2026-01-21 17:17:05.993261	347.7	8.3	-64.8	2.1
2026-01-21 17:17:08.236784	347.6	8.1	-64.7	3.0
2026-01-21 17:17:10.480833	347.6	7.9	-65.5	3.8
2026-01-21 17:17:12.725357	347.5	7.8	-65.4	4.3
2026-01-21 17:17:14.968408	347.5	7.6	-65.3	5.9
2026-01-21 17:17:17.211947	347.4	7.4	-64.4	3.2
2026-01-21 17:17:19.455501	347.3	7.2	-65.6	4.0
2026-01-21 17:17:21.699512	347.3	7.1	-64.9	4.2
2026-01-21 17:17:23.943532	347.2	6.9	-63.1	1.4
2026-01-21 17:17:26.188096	347.2	6.7	-62.3	1.4
2026-01-21 17:17:28.436145	347.1	6.6	-63.7	3.8
2026-01-21 17:17:30.679219	347.1	6.4	-63.7	3.4
2026-01-21 17:17:32.923237	347.0	6.2	-63.5	3.5
2026-01-21 17:17:35.166290	347.0	6.1	-64.1	3.3
2026-01-21 17:17:37.410301	346.9	5.9	-67.4	7.1
2026-01-21 17:17:39.653330	346.9	5.7	-68.8	11.4
2026-01-21 17:17:41.896877	346.8	5.6	-69.2	7.5
2026-01-21 17:17:44.140897	346.8	5.4	-70.5	4.9
2026-01-21 17:17:46.383945	346.8	5.2	-69.2	0.0
2026-01-21 17:17:48.626477	346.7	5.1	-71.0	3.0
#Closed at: 2026-01-21 17:05:02.598765