passes_logs/2026/01/15/planumMaritime01/planumMaritime01__20260115_081907_METOP-C_rec.log

#Pass ID: 20260115_081907_METOP-C
#Satellite: METOP-C
#Configuration: METOP-C
#Start time: 2026-01-15 08:19:12.000638

#LorettStation: 1.0.0 05.05.2024
#Station: planumMaritime01
#Location: 37.49445 lon 55.92918 lat
#TLE: 1 43689U 18087A   26014.12997339  .00000084  00000+0  58125-4 0  9996
#TLE: 2 43689  98.6881  76.3953 0000492 186.3195 173.7977 14.21498107372946

#Time	Az	El	Level	SNR
2026-01-15 08:19:14.167604	11.0	10.2	-62.0	0.0
2026-01-15 08:19:16.412897	10.9	10.4	-64.5	0.0
2026-01-15 08:19:18.662283	10.9	10.6	-63.4	0.0
2026-01-15 08:19:20.913855	10.8	10.8	-61.8	0.0
2026-01-15 08:19:23.162009	10.7	11.0	-64.0	0.0
2026-01-15 08:19:25.412271	10.6	11.2	-62.5	0.0
2026-01-15 08:19:27.661957	10.5	11.4	-62.6	0.0
2026-01-15 08:19:29.909313	10.4	11.6	-60.1	0.0
2026-01-15 08:19:32.162062	10.3	11.8	-63.0	0.0
2026-01-15 08:19:34.407648	10.3	12.0	-64.1	0.0
2026-01-15 08:19:36.660484	10.2	12.2	-63.6	0.0
2026-01-15 08:19:38.909077	10.1	12.4	-65.3	0.0
2026-01-15 08:19:41.161497	10.0	12.6	-62.1	0.0
2026-01-15 08:19:43.409991	9.9	12.8	-64.6	0.0
2026-01-15 08:19:45.661617	9.8	13.0	-63.7	0.0
2026-01-15 08:19:47.907550	9.7	13.3	-60.9	0.0
2026-01-15 08:19:50.157141	9.6	13.5	-60.5	0.0
2026-01-15 08:19:52.405008	9.5	13.7	-60.9	0.0
2026-01-15 08:19:54.653202	9.4	13.9	-61.2	0.0
2026-01-15 08:19:56.906153	9.2	14.1	-61.5	0.0
2026-01-15 08:19:59.152281	9.1	14.4	-61.2	0.0
2026-01-15 08:20:01.398806	9.0	14.6	-59.5	0.0
2026-01-15 08:20:03.648569	8.9	14.8	-61.3	0.0
2026-01-15 08:20:05.901750	8.8	15.1	-60.7	0.0
2026-01-15 08:20:08.149421	8.7	15.3	-60.8	0.0
2026-01-15 08:20:10.398761	8.6	15.5	-60.2	0.0
2026-01-15 08:20:12.645847	8.4	15.8	-60.3	0.0
2026-01-15 08:20:14.897081	8.3	16.0	-60.2	0.0
2026-01-15 08:20:17.149441	8.2	16.2	-60.7	0.0
2026-01-15 08:20:19.400336	8.1	16.5	-61.1	0.0
2026-01-15 08:20:21.649927	7.9	16.7	-60.7	0.0
2026-01-15 08:20:23.899183	7.8	17.0	-61.3	0.0
2026-01-15 08:20:26.148026	7.7	17.2	-61.0	0.0
2026-01-15 08:20:28.398050	7.5	17.5	-60.9	0.0
2026-01-15 08:20:30.649383	7.4	17.8	-59.9	0.0
2026-01-15 08:20:32.898441	7.3	18.0	-61.0	0.0
2026-01-15 08:20:35.149605	7.1	18.3	-60.5	0.0
2026-01-15 08:20:37.399584	7.0	18.5	-60.4	0.0
2026-01-15 08:20:39.647624	6.8	18.8	-60.9	0.0
2026-01-15 08:20:41.896771	6.7	19.1	-61.0	0.0
2026-01-15 08:20:44.150624	6.5	19.4	-54.1	0.0
2026-01-15 08:20:46.398926	6.3	19.6	-56.1	0.0
2026-01-15 08:20:48.647243	6.2	19.9	-54.4	0.0
2026-01-15 08:20:50.895100	6.0	20.2	-61.1	0.0
2026-01-15 08:20:53.143063	5.8	20.5	-60.8	0.0
2026-01-15 08:20:55.393178	5.7	20.8	-61.8	0.0
2026-01-15 08:20:57.643087	5.5	21.1	-61.3	0.0
2026-01-15 08:20:59.890405	5.3	21.4	-61.2	0.0
2026-01-15 08:21:02.139192	5.1	21.7	-60.7	0.0
2026-01-15 08:21:04.391031	5.0	22.0	-60.7	0.0
2026-01-15 08:21:06.638314	4.8	22.3	-60.9	0.0
2026-01-15 08:21:08.886476	4.6	22.6	-61.1	0.0
2026-01-15 08:21:11.129915	4.4	22.9	-60.9	0.0
2026-01-15 08:21:13.377936	4.2	23.2	-60.6	0.0
2026-01-15 08:21:15.622996	4.0	23.5	-60.7	0.0
2026-01-15 08:21:17.868214	3.8	23.8	-60.6	0.0
2026-01-15 08:21:20.113765	3.5	24.1	-60.6	0.0
2026-01-15 08:21:22.359991	3.3	24.5	-59.8	0.0
2026-01-15 08:21:24.605499	3.1	24.8	-61.2	0.0
2026-01-15 08:21:26.849017	2.9	25.1	-60.7	0.0
2026-01-15 08:21:29.097119	2.6	25.5	-61.2	0.0
2026-01-15 08:21:31.345367	2.4	25.8	-62.0	0.0
2026-01-15 08:21:33.589169	2.2	26.2	-61.3	0.0
2026-01-15 08:21:35.834915	1.9	26.5	-60.4	0.0
2026-01-15 08:21:38.080410	1.6	26.9	-60.1	0.0
2026-01-15 08:21:40.324209	1.4	27.2	-58.9	0.0
2026-01-15 08:21:42.570013	1.1	27.6	-60.9	0.0
2026-01-15 08:21:44.816596	0.8	28.0	-60.9	0.0
2026-01-15 08:21:47.061076	0.6	28.3	-63.4	0.0
2026-01-15 08:21:49.305503	0.3	28.7	-65.3	0.0
2026-01-15 08:21:51.548746	360.0	29.1	-66.7	0.0
2026-01-15 08:21:53.795561	359.7	29.5	-62.8	0.0
2026-01-15 08:21:56.038573	359.4	29.9	-66.8	0.0
2026-01-15 08:21:58.289626	359.0	30.3	-65.4	0.0
2026-01-15 08:22:00.534564	358.7	30.7	-66.8	0.0
2026-01-15 08:22:02.780933	358.4	31.1	-66.6	0.0
2026-01-15 08:22:05.026909	358.0	31.5	-67.3	0.0
2026-01-15 08:22:07.274614	357.7	31.9	-66.8	0.0
2026-01-15 08:22:09.517719	357.3	32.3	-67.6	0.0
2026-01-15 08:22:11.763960	357.0	32.7	-67.2	0.0
2026-01-15 08:22:14.008422	356.6	33.1	-64.0	0.0
2026-01-15 08:22:16.251827	356.2	33.6	-67.3	0.0
2026-01-15 08:22:18.497235	355.8	34.0	-67.1	0.0
2026-01-15 08:22:20.742262	355.4	34.4	-65.3	0.0
2026-01-15 08:22:22.985826	354.9	34.9	-65.4	0.0
2026-01-15 08:22:25.233438	354.5	35.3	-66.0	0.0
2026-01-15 08:22:27.478893	354.1	35.8	-65.6	0.0
2026-01-15 08:22:29.723323	353.6	36.2	-64.3	0.0
2026-01-15 08:22:31.966747	353.1	36.7	-65.7	0.0
2026-01-15 08:22:34.212258	352.6	37.2	-65.2	0.0
2026-01-15 08:22:36.462786	352.1	37.6	-66.8	0.0
2026-01-15 08:22:38.705548	351.6	38.1	-66.8	0.0
2026-01-15 08:22:40.953964	351.1	38.6	-66.9	0.0
2026-01-15 08:22:43.198813	350.5	39.1	-66.8	3.4
2026-01-15 08:22:45.442907	350.0	39.5	-68.4	3.0
2026-01-15 08:22:47.686174	349.4	40.0	-68.2	4.9
2026-01-15 08:22:49.929423	348.8	40.5	-69.7	6.0
2026-01-15 08:22:52.175043	348.1	41.0	-63.8	0.0
2026-01-15 08:22:54.417973	347.5	41.5	-63.5	0.0
2026-01-15 08:22:56.662418	346.8	42.0	-64.0	0.0
2026-01-15 08:22:58.910512	346.2	42.5	-63.7	0.0
2026-01-15 08:23:01.152788	345.4	43.0	-63.3	0.0
2026-01-15 08:23:03.398392	344.7	43.5	-64.4	0.0
2026-01-15 08:23:05.644619	344.0	44.0	-64.7	0.0
2026-01-15 08:23:07.889099	343.2	44.5	-64.3	0.0
2026-01-15 08:23:10.134908	342.4	45.0	-64.5	0.0
2026-01-15 08:23:12.379686	341.6	45.5	-64.8	0.0
2026-01-15 08:23:14.623926	340.7	46.1	-64.7	0.0
2026-01-15 08:23:16.868798	339.8	46.6	-65.2	0.0
2026-01-15 08:23:19.113917	338.9	47.1	-65.2	0.0
2026-01-15 08:23:21.362090	338.0	47.6	-65.0	0.0
2026-01-15 08:23:23.608033	337.0	48.1	-65.5	0.0
2026-01-15 08:23:25.850953	336.0	48.6	-64.9	0.0
2026-01-15 08:23:28.099232	335.0	49.1	-65.5	0.0
2026-01-15 08:23:30.342917	333.9	49.5	-65.7	0.0
2026-01-15 08:23:32.587690	332.8	50.0	-65.7	0.0
2026-01-15 08:23:34.832369	331.6	50.5	-66.0	0.0
2026-01-15 08:23:37.079119	330.4	51.0	-66.1	0.0
2026-01-15 08:23:39.326007	329.2	51.4	-66.3	0.0
2026-01-15 08:23:41.570706	328.0	51.9	-66.6	0.0
2026-01-15 08:23:43.814418	326.7	52.3	-66.4	0.0
2026-01-15 08:23:46.056808	325.3	52.7	-67.0	0.0
2026-01-15 08:23:48.300425	324.0	53.2	-66.8	0.0
2026-01-15 08:23:50.546149	322.6	53.6	-67.1	0.0
2026-01-15 08:23:52.794161	321.1	53.9	-67.5	0.0
2026-01-15 08:23:55.041396	319.6	54.3	-68.0	0.0
2026-01-15 08:23:57.285753	318.1	54.7	-67.0	0.0
2026-01-15 08:23:59.531781	316.5	55.0	-66.8	0.0
2026-01-15 08:24:01.777680	314.9	55.3	-68.3	0.0
2026-01-15 08:24:04.024158	313.3	55.6	-67.6	0.0
2026-01-15 08:24:06.267766	311.6	55.9	-67.1	0.0
2026-01-15 08:24:08.513148	309.9	56.1	-69.3	0.0
2026-01-15 08:24:10.756554	308.2	56.3	-69.4	0.0
2026-01-15 08:24:13.000761	306.5	56.5	-69.1	0.0
2026-01-15 08:24:15.243555	304.7	56.7	-69.9	0.0
2026-01-15 08:24:17.486693	302.9	56.9	-70.5	0.0
2026-01-15 08:24:19.733537	301.1	57.0	-70.0	0.0
2026-01-15 08:24:21.978974	299.2	57.1	-69.7	0.0
2026-01-15 08:24:24.227439	297.4	57.1	-70.6	0.0
2026-01-15 08:24:26.475004	295.5	57.2	-69.5	0.0
2026-01-15 08:24:28.715606	293.7	57.2	-71.6	3.1
2026-01-15 08:24:30.964532	291.8	57.1	-71.7	0.5
2026-01-15 08:24:33.209998	290.0	57.1	-71.6	3.0
2026-01-15 08:24:35.457794	288.1	57.0	-71.2	3.4
2026-01-15 08:24:37.707942	286.3	56.9	-71.9	6.3
2026-01-15 08:24:39.956105	284.5	56.8	-71.8	3.3
2026-01-15 08:24:42.198484	282.7	56.6	-71.9	7.0
2026-01-15 08:24:44.443189	281.0	56.4	-72.4	8.6
2026-01-15 08:24:46.690809	279.2	56.2	-71.9	7.1
2026-01-15 08:24:48.936848	277.5	56.0	-72.5	5.7
2026-01-15 08:24:51.180220	275.8	55.7	-72.1	8.1
2026-01-15 08:24:53.423997	274.2	55.4	-72.7	10.0
2026-01-15 08:24:55.671321	272.6	55.1	-72.4	8.5
2026-01-15 08:24:57.912869	271.0	54.8	-72.2	7.3
2026-01-15 08:25:00.157645	269.4	54.4	-72.6	9.5
2026-01-15 08:25:02.401513	267.9	54.1	-73.4	10.7
2026-01-15 08:25:04.646827	266.5	53.7	-73.0	10.4
2026-01-15 08:25:06.891249	265.0	53.3	-73.5	9.8
2026-01-15 08:25:09.135676	263.6	52.9	-72.9	6.2
2026-01-15 08:25:11.378656	262.3	52.5	-73.5	10.3
2026-01-15 08:25:13.623143	261.0	52.0	-73.5	9.5
2026-01-15 08:25:15.867419	259.7	51.6	-72.7	9.0
2026-01-15 08:25:18.114184	258.5	51.1	-73.3	9.9
2026-01-15 08:25:20.359044	257.3	50.7	-73.4	10.2
2026-01-15 08:25:22.604685	256.1	50.2	-73.7	10.5
2026-01-15 08:25:24.844338	255.0	49.7	-73.5	10.9
2026-01-15 08:25:27.088724	253.9	49.2	-73.2	11.5
2026-01-15 08:25:29.337340	252.9	48.7	-73.8	11.5
2026-01-15 08:25:31.582605	251.8	48.2	-73.8	12.4
2026-01-15 08:25:33.834179	250.8	47.7	-73.3	10.6
2026-01-15 08:25:36.079934	249.9	47.2	-73.4	11.2
2026-01-15 08:25:38.328333	249.0	46.7	-73.7	10.0
2026-01-15 08:25:40.577368	248.1	46.2	-73.4	10.4
2026-01-15 08:25:42.822421	247.2	45.7	-73.7	11.2
2026-01-15 08:25:45.067525	246.4	45.2	-73.8	11.1
2026-01-15 08:25:47.310208	245.5	44.7	-73.7	10.1
2026-01-15 08:25:49.555435	244.8	44.2	-74.0	11.7
2026-01-15 08:25:51.803104	244.0	43.7	-73.7	11.3
2026-01-15 08:25:54.046277	243.3	43.2	-74.0	11.7
2026-01-15 08:25:56.290650	242.5	42.7	-73.7	11.9
2026-01-15 08:25:58.534618	241.8	42.1	-74.0	11.7
2026-01-15 08:26:00.781436	241.2	41.6	-74.0	12.0
2026-01-15 08:26:03.022935	240.5	41.1	-73.9	11.8
2026-01-15 08:26:05.267821	239.9	40.7	-73.8	12.1
2026-01-15 08:26:07.515529	239.3	40.2	-73.4	11.0
2026-01-15 08:26:09.761260	238.7	39.7	-72.6	7.8
2026-01-15 08:26:12.008031	238.1	39.2	-72.9	8.2
2026-01-15 08:26:14.250229	237.5	38.7	-72.4	8.4
2026-01-15 08:26:16.498786	237.0	38.2	-72.8	8.0
2026-01-15 08:26:18.747152	236.5	37.7	-72.7	8.5
2026-01-15 08:26:20.988958	236.0	37.3	-72.9	6.4
2026-01-15 08:26:23.235221	235.5	36.8	-73.1	7.1
2026-01-15 08:26:25.480939	235.0	36.3	-73.0	6.6
2026-01-15 08:26:27.726738	234.5	35.9	-73.2	5.9
2026-01-15 08:26:29.970456	234.1	35.4	-72.9	5.9
2026-01-15 08:26:32.215040	233.6	35.0	-72.5	7.4
2026-01-15 08:26:34.464044	233.2	34.5	-72.6	6.2
2026-01-15 08:26:36.706372	232.8	34.1	-72.6	6.3
2026-01-15 08:26:38.955383	232.4	33.6	-72.6	4.6
2026-01-15 08:26:41.199788	232.0	33.2	-72.9	6.3
2026-01-15 08:26:43.446328	231.6	32.8	-72.7	5.1
2026-01-15 08:26:45.693121	231.2	32.4	-73.2	5.2
2026-01-15 08:26:47.940604	230.8	31.9	-73.0	4.4
2026-01-15 08:26:50.188007	230.5	31.5	-73.1	5.4
2026-01-15 08:26:52.431956	230.1	31.1	-73.1	6.5
2026-01-15 08:26:54.677283	229.8	30.7	-72.9	4.1
2026-01-15 08:26:56.926122	229.5	30.3	-72.9	6.9
2026-01-15 08:26:59.170880	229.1	29.9	-72.8	5.7
2026-01-15 08:27:01.418967	228.8	29.5	-73.3	5.7
2026-01-15 08:27:03.664772	228.5	29.1	-73.4	6.8
2026-01-15 08:27:05.908012	228.2	28.7	-73.4	5.5
2026-01-15 08:27:08.154244	227.9	28.4	-73.3	4.7
2026-01-15 08:27:10.398025	227.6	28.0	-73.5	5.6
2026-01-15 08:27:12.643139	227.4	27.6	-73.4	5.6
2026-01-15 08:27:14.890003	227.1	27.3	-73.8	4.4
2026-01-15 08:27:17.135245	226.8	26.9	-73.4	5.8
2026-01-15 08:27:19.378286	226.6	26.5	-73.4	3.6
2026-01-15 08:27:21.623154	226.3	26.2	-73.0	3.0
2026-01-15 08:27:23.866844	226.1	25.8	-73.2	4.5
2026-01-15 08:27:26.114288	225.8	25.5	-73.5	3.5
2026-01-15 08:27:28.362944	225.6	25.1	-73.0	3.7
2026-01-15 08:27:30.607087	225.3	24.8	-73.5	4.6
2026-01-15 08:27:32.852412	225.1	24.5	-72.7	3.7
2026-01-15 08:27:35.094798	224.9	24.1	-72.3	1.2
2026-01-15 08:27:37.338802	224.7	23.8	-72.8	2.5
2026-01-15 08:27:39.580699	224.5	23.5	-73.3	1.8
2026-01-15 08:27:41.828137	224.3	23.2	-73.2	2.2
2026-01-15 08:27:44.071082	224.0	22.9	-73.4	2.5
2026-01-15 08:27:46.316935	223.8	22.5	-73.6	3.8
2026-01-15 08:27:48.562207	223.7	22.2	-73.4	3.3
2026-01-15 08:27:50.811211	223.5	21.9	-73.1	3.3
2026-01-15 08:27:53.055259	223.3	21.6	-73.3	3.7
2026-01-15 08:27:55.301211	223.1	21.3	-72.9	2.7
2026-01-15 08:27:57.548693	222.9	21.0	-73.0	3.9
2026-01-15 08:27:59.792892	222.7	20.7	-73.3	1.1
2026-01-15 08:28:02.038222	222.6	20.5	-73.0	3.2
2026-01-15 08:28:04.287147	222.4	20.2	-72.8	1.6
2026-01-15 08:28:06.533083	222.2	19.9	-72.9	3.1
2026-01-15 08:28:08.777067	222.0	19.6	-72.9	0.0
2026-01-15 08:28:11.024726	221.9	19.3	-73.8	4.7
2026-01-15 08:28:13.268542	221.7	19.0	-73.3	4.3
2026-01-15 08:28:15.512843	221.6	18.8	-73.6	4.7
2026-01-15 08:28:17.756175	221.4	18.5	-73.4	2.9
2026-01-15 08:28:20.000376	221.3	18.2	-73.4	4.0
2026-01-15 08:28:22.244114	221.1	18.0	-72.5	0.0
2026-01-15 08:28:24.487786	221.0	17.7	-72.6	0.0
2026-01-15 08:28:26.733716	220.8	17.5	-72.6	0.0
2026-01-15 08:28:28.978777	220.7	17.2	-72.1	0.0
2026-01-15 08:28:31.222966	220.6	16.9	-72.2	0.0
2026-01-15 08:28:33.465304	220.4	16.7	-71.8	0.0
2026-01-15 08:28:35.706815	220.3	16.4	-72.4	0.0
2026-01-15 08:28:37.950015	220.2	16.2	-72.0	0.0
2026-01-15 08:28:40.193619	220.0	16.0	-72.2	0.0
2026-01-15 08:28:42.438325	219.9	15.7	-71.8	0.0
2026-01-15 08:28:44.682987	219.8	15.5	-71.4	0.0
2026-01-15 08:28:46.930092	219.7	15.2	-71.7	0.0
2026-01-15 08:28:49.175484	219.5	15.0	-71.6	0.0
2026-01-15 08:28:51.419117	219.4	14.8	-71.7	0.0
2026-01-15 08:28:53.665408	219.3	14.5	-71.7	0.0
2026-01-15 08:28:55.915293	219.2	14.3	-71.9	0.0
2026-01-15 08:28:58.161559	219.1	14.1	-71.5	0.0
2026-01-15 08:29:00.404976	219.0	13.9	-71.2	0.0
2026-01-15 08:29:02.649864	218.9	13.6	-71.3	0.0
2026-01-15 08:29:04.892847	218.8	13.4	-71.5	0.0
2026-01-15 08:29:07.135298	218.7	13.2	-72.4	0.0
2026-01-15 08:29:09.376617	218.6	13.0	-72.1	0.0
2026-01-15 08:29:11.619940	218.5	12.8	-72.8	0.0
2026-01-15 08:29:13.863082	218.4	12.5	-73.1	0.0
2026-01-15 08:29:16.110317	218.3	12.3	-72.7	0.0
2026-01-15 08:29:18.358682	218.2	12.1	-70.8	0.0
2026-01-15 08:29:20.602847	218.1	11.9	-70.1	0.0
2026-01-15 08:29:22.851038	218.0	11.7	-71.4	0.0
2026-01-15 08:29:25.097027	217.9	11.5	-70.9	0.0
2026-01-15 08:29:27.341573	217.8	11.3	-70.9	0.0
2026-01-15 08:29:29.589063	217.7	11.1	-71.1	0.0
2026-01-15 08:29:31.832468	217.6	10.9	-72.6	0.0
2026-01-15 08:29:34.077735	217.5	10.7	-75.8	0.0
2026-01-15 08:29:36.323356	217.4	10.5	-76.4	0.0
2026-01-15 08:29:38.568104	217.3	10.3	-76.6	0.0
2026-01-15 08:29:40.812587	217.3	10.1	-77.4	0.0
#Closed at: 2026-01-15 08:19:07.008156