passes_logs/2026/01/15/planumMaritime01/planumMaritime01__20260115_165757_METEOR-M2_3_rec.log

#Pass ID: 20260115_165757_METEOR-M2 3
#Satellite: METEOR-M2 3
#Configuration: METEOR-M2 3
#Start time: 2026-01-15 16:58:02.026074

#LorettStation: 1.0.0 05.05.2024
#Station: planumMaritime01
#Location: 37.49445 lon 55.92918 lat
#TLE: 1 57166U 23091A   26015.20701802 -.00000004  00000+0  17111-4 0  9993
#TLE: 2 57166  98.6327  73.1539 0002947 248.4122 111.6744 14.24030545132744

#Time	Az	El	Level	SNR
2026-01-15 16:58:04.199873	132.0	10.2	-82.1	0.0
2026-01-15 16:58:06.449694	131.9	10.4	-79.8	0.0
2026-01-15 16:58:08.698204	131.7	10.6	-79.2	5.5
2026-01-15 16:58:10.946928	131.6	10.8	-78.2	5.0
2026-01-15 16:58:13.195386	131.5	10.9	-78.3	5.6
2026-01-15 16:58:15.441548	131.3	11.1	-78.1	6.6
2026-01-15 16:58:17.689107	131.2	11.3	-78.2	6.1
2026-01-15 16:58:19.938145	131.0	11.5	-78.5	4.3
2026-01-15 16:58:22.185598	130.9	11.7	-78.3	7.1
2026-01-15 16:58:24.431984	130.7	11.9	-78.4	6.1
2026-01-15 16:58:26.681162	130.6	12.1	-78.5	6.4
2026-01-15 16:58:28.930692	130.4	12.3	-78.3	5.6
2026-01-15 16:58:31.177930	130.3	12.5	-78.2	5.8
2026-01-15 16:58:33.432585	130.1	12.7	-78.2	6.7
2026-01-15 16:58:35.681777	129.9	12.9	-78.7	7.6
2026-01-15 16:58:37.928881	129.8	13.2	-78.5	7.1
2026-01-15 16:58:40.175364	129.6	13.4	-78.7	7.0
2026-01-15 16:58:42.426037	129.4	13.6	-78.4	6.3
2026-01-15 16:58:44.675782	129.2	13.8	-78.6	7.5
2026-01-15 16:58:46.927142	129.1	14.0	-78.1	5.7
2026-01-15 16:58:49.176855	128.9	14.2	-78.4	7.2
2026-01-15 16:58:51.424381	128.7	14.4	-79.0	8.3
2026-01-15 16:58:53.674432	128.5	14.7	-77.7	4.8
2026-01-15 16:58:55.922682	128.3	14.9	-78.6	8.6
2026-01-15 16:58:58.175923	128.1	15.1	-78.2	7.7
2026-01-15 16:59:00.427281	128.0	15.3	-78.0	7.7
2026-01-15 16:59:02.679398	127.8	15.6	-77.9	7.5
2026-01-15 16:59:04.931038	127.6	15.8	-78.2	8.4
2026-01-15 16:59:07.177234	127.4	16.0	-77.5	4.7
2026-01-15 16:59:09.426822	127.1	16.3	-78.5	8.3
2026-01-15 16:59:11.673900	126.9	16.5	-77.6	6.7
2026-01-15 16:59:13.921265	126.7	16.7	-77.4	6.8
2026-01-15 16:59:16.167350	126.5	17.0	-78.5	8.9
2026-01-15 16:59:18.421276	126.3	17.2	-78.6	9.3
2026-01-15 16:59:20.669400	126.1	17.4	-78.4	8.2
2026-01-15 16:59:22.923926	125.8	17.7	-78.4	8.3
2026-01-15 16:59:25.169636	125.6	17.9	-78.4	9.0
2026-01-15 16:59:27.417010	125.4	18.2	-77.9	7.8
2026-01-15 16:59:29.665773	125.1	18.4	-78.1	8.0
2026-01-15 16:59:31.912309	124.9	18.7	-78.4	8.7
2026-01-15 16:59:34.162092	124.6	18.9	-78.7	8.4
2026-01-15 16:59:36.411433	124.4	19.2	-78.2	9.5
2026-01-15 16:59:38.658495	124.1	19.5	-78.4	9.8
2026-01-15 16:59:40.906973	123.9	19.7	-78.3	9.2
2026-01-15 16:59:43.155800	123.6	20.0	-78.8	9.4
2026-01-15 16:59:45.403850	123.3	20.2	-78.5	9.1
2026-01-15 16:59:47.653537	123.1	20.5	-78.2	10.3
2026-01-15 16:59:49.904215	122.8	20.8	-78.2	9.6
2026-01-15 16:59:52.152008	122.5	21.0	-77.9	8.8
2026-01-15 16:59:54.401039	122.2	21.3	-78.3	9.5
2026-01-15 16:59:56.652012	121.9	21.6	-77.2	7.5
2026-01-15 16:59:58.900227	121.6	21.9	-77.8	10.0
2026-01-15 17:00:01.149608	121.3	22.2	-77.7	10.1
2026-01-15 17:00:03.399144	121.0	22.4	-77.4	9.9
2026-01-15 17:00:05.648589	120.7	22.7	-77.5	9.9
2026-01-15 17:00:07.900731	120.4	23.0	-77.8	9.2
2026-01-15 17:00:10.147245	120.0	23.3	-78.1	10.4
2026-01-15 17:00:12.395754	119.7	23.6	-77.7	10.3
2026-01-15 17:00:14.646584	119.4	23.9	-77.6	9.9
2026-01-15 17:00:16.894003	119.0	24.2	-77.8	9.8
2026-01-15 17:00:19.141962	118.7	24.5	-78.4	10.9
2026-01-15 17:00:21.389693	118.3	24.8	-78.0	10.2
2026-01-15 17:00:23.637216	117.9	25.1	-77.7	8.7
2026-01-15 17:00:25.891517	117.5	25.4	-77.6	9.5
2026-01-15 17:00:28.136623	117.2	25.7	-77.2	9.6
2026-01-15 17:00:30.383849	116.8	26.0	-77.4	9.9
2026-01-15 17:00:32.631562	116.4	26.3	-76.7	9.1
2026-01-15 17:00:34.882317	116.0	26.6	-77.3	10.5
2026-01-15 17:00:37.130648	115.5	26.9	-76.6	10.0
2026-01-15 17:00:39.380566	115.1	27.3	-77.4	10.9
2026-01-15 17:00:41.627927	114.7	27.6	-76.6	9.5
2026-01-15 17:00:43.880601	114.2	27.9	-77.4	11.1
2026-01-15 17:00:46.130266	113.8	28.2	-77.4	9.3
2026-01-15 17:00:48.378499	113.3	28.5	-77.5	9.1
2026-01-15 17:00:50.628458	112.9	28.9	-77.2	9.5
2026-01-15 17:00:52.875557	112.4	29.2	-77.3	9.8
2026-01-15 17:00:55.125727	111.9	29.5	-77.1	9.2
2026-01-15 17:00:57.373998	111.4	29.9	-77.1	10.1
2026-01-15 17:00:59.623675	110.9	30.2	-77.2	10.0
2026-01-15 17:01:01.869259	110.4	30.5	-76.5	9.5
2026-01-15 17:01:04.117413	109.8	30.8	-76.7	9.5
2026-01-15 17:01:06.367859	109.3	31.2	-77.4	9.1
2026-01-15 17:01:08.617123	108.7	31.5	-77.0	9.1
2026-01-15 17:01:10.866600	108.2	31.9	-77.4	9.6
2026-01-15 17:01:13.113651	107.6	32.2	-77.5	8.1
2026-01-15 17:01:15.360978	107.0	32.5	-77.0	7.8
2026-01-15 17:01:17.606880	106.4	32.9	-77.3	9.0
2026-01-15 17:01:19.852203	105.8	33.2	-76.9	8.9
2026-01-15 17:01:22.103178	105.2	33.5	-76.4	8.0
2026-01-15 17:01:24.352134	104.5	33.9	-77.4	7.5
2026-01-15 17:01:26.599813	103.9	34.2	-77.3	9.1
2026-01-15 17:01:28.847477	103.2	34.6	-76.8	7.3
2026-01-15 17:01:31.094102	102.5	34.9	-76.6	6.6
2026-01-15 17:01:33.340467	101.8	35.2	-77.0	7.1
2026-01-15 17:01:35.586759	101.1	35.6	-76.8	7.7
2026-01-15 17:01:37.834143	100.4	35.9	-75.6	3.5
2026-01-15 17:01:40.081456	99.6	36.2	-76.4	7.4
2026-01-15 17:01:42.326874	98.9	36.6	-75.6	5.8
2026-01-15 17:01:44.572897	98.1	36.9	-75.7	6.5
2026-01-15 17:01:46.818181	97.3	37.2	-75.0	2.9
2026-01-15 17:01:49.062136	96.5	37.5	-74.4	2.0
2026-01-15 17:01:51.303867	95.7	37.8	-74.9	6.2
2026-01-15 17:01:53.548313	94.9	38.1	-74.4	3.9
2026-01-15 17:01:55.796931	94.0	38.5	-74.8	4.3
2026-01-15 17:01:58.044074	93.2	38.8	-74.4	3.9
2026-01-15 17:02:00.290688	92.3	39.1	-74.9	4.2
2026-01-15 17:02:02.541208	91.4	39.3	-74.7	1.4
2026-01-15 17:02:04.789437	90.5	39.6	-75.4	3.1
2026-01-15 17:02:07.037761	89.5	39.9	-74.8	1.7
2026-01-15 17:02:09.287583	88.6	40.2	-75.0	3.6
2026-01-15 17:02:11.538273	87.6	40.5	-74.4	0.5
2026-01-15 17:02:13.785733	86.6	40.7	-72.6	0.0
2026-01-15 17:02:16.033662	85.6	41.0	-74.7	1.1
2026-01-15 17:02:18.280420	84.6	41.2	-73.4	0.0
2026-01-15 17:02:20.531020	83.6	41.4	-74.7	0.2
2026-01-15 17:02:22.778743	82.5	41.7	-74.7	0.0
2026-01-15 17:02:25.027781	81.5	41.9	-72.5	1.3
2026-01-15 17:02:27.275479	80.4	42.1	-72.1	0.0
2026-01-15 17:02:29.522363	79.3	42.3	-73.9	3.4
2026-01-15 17:02:31.773333	78.2	42.5	-72.4	0.0
2026-01-15 17:02:34.021605	77.1	42.6	-73.3	0.0
2026-01-15 17:02:36.271685	76.0	42.8	-72.7	0.2
2026-01-15 17:02:38.518229	74.9	43.0	-72.4	0.0
2026-01-15 17:02:40.766522	73.7	43.1	-74.0	0.0
2026-01-15 17:02:43.016587	72.6	43.2	-72.2	0.0
2026-01-15 17:02:45.264257	71.4	43.3	-73.3	0.0
2026-01-15 17:02:47.512071	70.3	43.4	-72.0	0.0
2026-01-15 17:02:49.757579	69.1	43.5	-72.3	0.0
2026-01-15 17:02:52.007913	67.9	43.6	-70.9	0.0
2026-01-15 17:02:54.257910	66.7	43.7	-74.2	0.0
2026-01-15 17:02:56.510405	65.5	43.7	-73.1	0.0
2026-01-15 17:02:58.759051	64.3	43.7	-73.5	0.0
2026-01-15 17:03:01.010117	63.1	43.8	-73.6	1.8
2026-01-15 17:03:03.262312	61.9	43.8	-73.5	3.7
2026-01-15 17:03:05.511104	60.8	43.8	-72.5	0.0
2026-01-15 17:03:07.759380	59.6	43.7	-73.3	0.0
2026-01-15 17:03:10.009245	58.4	43.7	-73.1	0.0
2026-01-15 17:03:12.256082	57.2	43.7	-72.7	0.0
2026-01-15 17:03:14.505437	56.0	43.6	-73.0	0.0
2026-01-15 17:03:16.755483	54.8	43.5	-72.2	0.0
2026-01-15 17:03:19.002062	53.6	43.4	-74.3	0.6
2026-01-15 17:03:21.250341	52.5	43.3	-70.6	0.0
2026-01-15 17:03:23.498252	51.3	43.2	-70.7	0.0
2026-01-15 17:03:25.748557	50.2	43.1	-71.8	0.0
2026-01-15 17:03:28.000016	49.0	42.9	-72.5	0.0
2026-01-15 17:03:30.247297	47.9	42.8	-73.2	1.6
2026-01-15 17:03:32.495923	46.8	42.6	-74.8	4.8
2026-01-15 17:03:34.746131	45.7	42.4	-73.6	0.0
2026-01-15 17:03:36.992457	44.6	42.3	-74.7	1.1
2026-01-15 17:03:39.238807	43.5	42.1	-74.8	3.1
2026-01-15 17:03:41.487596	42.5	41.8	-70.6	0.0
2026-01-15 17:03:43.737476	41.4	41.6	-75.5	3.8
2026-01-15 17:03:45.982470	40.4	41.4	-75.0	0.1
2026-01-15 17:03:48.228705	39.3	41.2	-74.8	2.8
2026-01-15 17:03:50.478060	38.3	40.9	-73.5	3.5
2026-01-15 17:03:52.727540	37.4	40.7	-74.6	2.9
2026-01-15 17:03:54.975498	36.4	40.4	-74.6	0.0
2026-01-15 17:03:57.224906	35.4	40.1	-74.7	0.0
2026-01-15 17:03:59.475693	34.5	39.9	-71.4	0.0
2026-01-15 17:04:01.724634	33.5	39.6	-72.3	0.0
2026-01-15 17:04:03.970403	32.6	39.3	-74.5	0.9
2026-01-15 17:04:06.222824	31.7	39.0	-74.5	2.1
2026-01-15 17:04:08.470398	30.9	38.7	-74.5	1.5
2026-01-15 17:04:10.718688	30.0	38.4	-73.3	1.7
2026-01-15 17:04:12.969776	29.2	38.1	-74.2	1.0
2026-01-15 17:04:15.221040	28.3	37.8	-73.7	1.4
2026-01-15 17:04:17.472323	27.5	37.5	-72.7	1.1
2026-01-15 17:04:19.721918	26.7	37.2	-72.6	0.0
2026-01-15 17:04:21.973318	25.9	36.8	-72.5	0.4
2026-01-15 17:04:24.218576	25.2	36.5	-72.7	0.0
2026-01-15 17:04:26.466613	24.4	36.2	-72.6	0.0
2026-01-15 17:04:28.715974	23.7	35.9	-71.8	0.0
2026-01-15 17:04:30.962614	23.0	35.5	-72.3	0.0
2026-01-15 17:04:33.210238	22.2	35.2	-70.4	0.0
2026-01-15 17:04:35.456623	21.6	34.9	-71.9	0.0
2026-01-15 17:04:37.706619	20.9	34.5	-70.8	0.0
2026-01-15 17:04:39.954381	20.2	34.2	-70.4	0.0
2026-01-15 17:04:42.200148	19.6	33.9	-70.6	0.0
2026-01-15 17:04:44.452166	18.9	33.5	-70.9	0.0
2026-01-15 17:04:46.699130	18.3	33.2	-70.4	0.0
2026-01-15 17:04:48.945916	17.7	32.8	-69.1	0.0
2026-01-15 17:04:51.196210	17.1	32.5	-69.1	0.0
2026-01-15 17:04:53.446067	16.5	32.2	-69.4	0.0
2026-01-15 17:04:55.696481	15.9	31.8	-68.8	0.0
2026-01-15 17:04:57.945200	15.4	31.5	-69.6	0.0
2026-01-15 17:05:00.196156	14.8	31.2	-69.2	0.0
2026-01-15 17:05:02.446116	14.3	30.8	-70.3	0.0
2026-01-15 17:05:04.694300	13.8	30.5	-69.2	0.0
2026-01-15 17:05:06.942512	13.2	30.2	-68.9	0.0
2026-01-15 17:05:09.191389	12.7	29.8	-70.9	0.0
2026-01-15 17:05:11.438604	12.2	29.5	-69.0	0.0
2026-01-15 17:05:13.690199	11.8	29.2	-70.7	0.0
2026-01-15 17:05:15.940669	11.3	28.9	-69.7	0.0
2026-01-15 17:05:18.189930	10.8	28.5	-69.1	0.0
2026-01-15 17:05:20.440427	10.4	28.2	-67.9	0.0
2026-01-15 17:05:22.689639	9.9	27.9	-69.8	0.0
2026-01-15 17:05:24.937700	9.5	27.6	-69.2	0.0
2026-01-15 17:05:27.185611	9.0	27.3	-68.3	0.0
2026-01-15 17:05:29.433148	8.6	26.9	-69.8	0.0
2026-01-15 17:05:31.679772	8.2	26.6	-69.5	0.0
2026-01-15 17:05:33.928136	7.8	26.3	-70.1	0.0
2026-01-15 17:05:36.176593	7.4	26.0	-69.2	0.0
2026-01-15 17:05:38.422460	7.0	25.7	-69.8	0.0
2026-01-15 17:05:40.669739	6.6	25.4	-69.2	0.0
2026-01-15 17:05:42.917924	6.3	25.1	-69.6	0.0
2026-01-15 17:05:45.168013	5.9	24.8	-69.8	0.0
2026-01-15 17:05:47.413941	5.6	24.5	-69.7	0.0
2026-01-15 17:05:49.665280	5.2	24.2	-67.2	0.0
2026-01-15 17:05:51.915189	4.9	23.9	-68.2	0.0
2026-01-15 17:05:54.164615	4.5	23.6	-69.4	0.0
2026-01-15 17:05:56.412929	4.2	23.3	-69.4	0.0
2026-01-15 17:05:58.659983	3.9	23.0	-67.4	0.0
2026-01-15 17:06:00.907592	3.5	22.7	-68.9	0.0
2026-01-15 17:06:03.153562	3.2	22.5	-67.6	0.0
2026-01-15 17:06:05.402552	2.9	22.2	-69.6	0.0
2026-01-15 17:06:07.652331	2.6	21.9	-67.9	0.0
2026-01-15 17:06:09.902489	2.3	21.6	-70.1	0.0
2026-01-15 17:06:12.154149	2.0	21.4	-69.0	0.0
2026-01-15 17:06:14.399771	1.7	21.1	-68.2	0.0
2026-01-15 17:06:16.649398	1.5	20.8	-64.9	0.0
2026-01-15 17:06:18.900385	1.2	20.5	-64.9	0.0
2026-01-15 17:06:21.149480	0.9	20.3	-64.6	0.0
2026-01-15 17:06:23.398615	0.6	20.0	-65.3	0.0
2026-01-15 17:06:25.648680	0.4	19.8	-69.3	0.0
2026-01-15 17:06:27.895274	0.1	19.5	-68.2	0.0
2026-01-15 17:06:30.143006	359.9	19.2	-66.0	0.0
2026-01-15 17:06:32.389072	359.6	19.0	-69.6	0.0
2026-01-15 17:06:34.637522	359.4	18.7	-68.8	0.0
2026-01-15 17:06:36.887534	359.1	18.5	-71.1	0.0
2026-01-15 17:06:39.133759	358.9	18.2	-70.2	0.0
2026-01-15 17:06:41.380595	358.7	18.0	-70.1	0.0
2026-01-15 17:06:43.628229	358.4	17.7	-70.0	0.0
2026-01-15 17:06:45.876006	358.2	17.5	-69.6	0.0
2026-01-15 17:06:48.130897	358.0	17.3	-69.8	0.0
2026-01-15 17:06:50.380269	357.8	17.0	-70.1	0.0
2026-01-15 17:06:52.629253	357.6	16.8	-70.9	0.0
2026-01-15 17:06:54.876798	357.4	16.6	-71.1	0.0
2026-01-15 17:06:57.125345	357.1	16.3	-72.0	0.0
2026-01-15 17:06:59.373622	356.9	16.1	-70.4	0.0
2026-01-15 17:07:01.622917	356.7	15.9	-70.8	0.0
2026-01-15 17:07:03.871434	356.5	15.6	-71.9	0.0
2026-01-15 17:07:06.120359	356.4	15.4	-71.7	0.0
2026-01-15 17:07:08.367732	356.2	15.2	-71.9	0.0
2026-01-15 17:07:10.618873	356.0	15.0	-71.7	0.0
2026-01-15 17:07:12.866266	355.8	14.7	-70.5	0.0
2026-01-15 17:07:15.113685	355.6	14.5	-71.8	0.0
2026-01-15 17:07:17.365932	355.4	14.3	-71.0	0.0
2026-01-15 17:07:19.614354	355.3	14.1	-70.2	0.0
2026-01-15 17:07:21.864274	355.1	13.9	-71.9	0.0
2026-01-15 17:07:24.113958	354.9	13.7	-70.9	0.0
2026-01-15 17:07:26.362300	354.7	13.4	-71.1	0.0
2026-01-15 17:07:28.609303	354.6	13.2	-70.8	0.0
2026-01-15 17:07:30.859276	354.4	13.0	-70.1	0.0
2026-01-15 17:07:33.104639	354.2	12.8	-71.0	0.0
2026-01-15 17:07:35.352080	354.1	12.6	-71.5	0.0
2026-01-15 17:07:37.597454	353.9	12.4	-71.0	0.0
2026-01-15 17:07:39.845799	353.8	12.2	-70.7	0.0
2026-01-15 17:07:42.095217	353.6	12.0	-70.6	0.0
2026-01-15 17:07:44.343049	353.5	11.8	-68.9	0.0
2026-01-15 17:07:46.592153	353.3	11.6	-65.8	0.0
2026-01-15 17:07:48.838985	353.2	11.4	-66.4	0.0
2026-01-15 17:07:51.087203	353.0	11.2	-67.6	0.0
2026-01-15 17:07:53.333439	352.9	11.0	-66.8	0.0
2026-01-15 17:07:55.582183	352.8	10.8	-70.7	0.0
2026-01-15 17:07:57.833898	352.6	10.7	-69.8	0.0
2026-01-15 17:08:00.080598	352.5	10.5	-69.1	0.0
2026-01-15 17:08:02.330545	352.4	10.3	-72.7	0.0
2026-01-15 17:08:04.580011	352.2	10.1	-78.1	0.0
#Closed at: 2026-01-15 16:57:57.032275