passes_logs/2026/01/15/planumMaritime01/planumMaritime01__20260115_112706_METEOR-M2_4_rec.log

#Pass ID: 20260115_112706_METEOR-M2 4
#Satellite: METEOR-M2 4
#Configuration: METEOR-M2 4
#Start time: 2026-01-15 11:27:11.368821

#LorettStation: 1.0.0 05.05.2024
#Station: planumMaritime01
#Location: 37.49445 lon 55.92918 lat
#TLE: 1 59051U 24039A   26014.27408039  .00000009  00000+0  23553-4 0  9994
#TLE: 2 59051  98.6812 335.6805 0005983 253.6260 106.4261 14.22407180 97381

#Time	Az	El	Level	SNR
2026-01-15 11:27:13.536753	165.2	10.2	-81.3	0.0
2026-01-15 11:27:15.784744	165.3	10.4	-80.0	0.0
2026-01-15 11:27:18.033501	165.3	10.6	-77.9	6.8
2026-01-15 11:27:20.283708	165.3	10.8	-76.6	5.1
2026-01-15 11:27:22.532545	165.3	11.0	-77.7	7.1
2026-01-15 11:27:24.781171	165.4	11.2	-78.1	6.9
2026-01-15 11:27:27.031800	165.4	11.4	-77.8	7.0
2026-01-15 11:27:29.282244	165.4	11.6	-76.8	7.0
2026-01-15 11:27:31.530116	165.5	11.8	-77.3	5.5
2026-01-15 11:27:33.778175	165.5	12.0	-76.8	3.8
2026-01-15 11:27:36.026747	165.5	12.3	-77.3	8.2
2026-01-15 11:27:38.274520	165.5	12.5	-76.7	6.2
2026-01-15 11:27:40.522409	165.6	12.7	-77.4	7.2
2026-01-15 11:27:42.767304	165.6	12.9	-77.4	7.3
2026-01-15 11:27:45.015838	165.6	13.1	-76.9	8.2
2026-01-15 11:27:47.263891	165.7	13.4	-76.8	7.4
2026-01-15 11:27:49.514186	165.7	13.6	-76.9	6.5
2026-01-15 11:27:51.766425	165.7	13.8	-77.3	6.9
2026-01-15 11:27:54.020260	165.8	14.1	-77.2	7.9
2026-01-15 11:27:56.269664	165.8	14.3	-77.3	6.7
2026-01-15 11:27:58.516471	165.8	14.5	-77.1	6.3
2026-01-15 11:28:00.763826	165.9	14.8	-77.0	7.5
2026-01-15 11:28:03.010661	165.9	15.0	-76.6	7.1
2026-01-15 11:28:05.259866	165.9	15.2	-76.8	5.6
2026-01-15 11:28:07.507690	166.0	15.5	-77.1	6.0
2026-01-15 11:28:09.756920	166.0	15.7	-76.1	7.7
2026-01-15 11:28:12.004377	166.0	16.0	-76.5	5.4
2026-01-15 11:28:14.255084	166.1	16.2	-77.0	7.2
2026-01-15 11:28:16.502798	166.1	16.5	-77.1	7.5
2026-01-15 11:28:18.749878	166.1	16.8	-75.7	5.9
2026-01-15 11:28:20.999138	166.2	17.0	-77.1	8.3
2026-01-15 11:28:23.247867	166.2	17.3	-77.3	7.9
2026-01-15 11:28:25.495308	166.3	17.5	-77.4	9.1
2026-01-15 11:28:27.742482	166.3	17.8	-77.0	9.1
2026-01-15 11:28:29.992259	166.3	18.1	-76.5	7.6
2026-01-15 11:28:32.241315	166.4	18.4	-76.1	5.2
2026-01-15 11:28:34.493429	166.4	18.6	-76.5	6.7
2026-01-15 11:28:36.743813	166.5	18.9	-77.0	8.7
2026-01-15 11:28:38.992912	166.5	19.2	-76.3	7.8
2026-01-15 11:28:41.243442	166.6	19.5	-76.4	7.7
2026-01-15 11:28:43.493622	166.6	19.8	-76.5	8.9
2026-01-15 11:28:45.743911	166.6	20.1	-77.2	9.6
2026-01-15 11:28:47.992150	166.7	20.4	-76.9	9.5
2026-01-15 11:28:50.239513	166.7	20.7	-77.1	7.0
2026-01-15 11:28:52.486727	166.8	21.0	-76.1	6.6
2026-01-15 11:28:54.734273	166.8	21.3	-77.4	9.2
2026-01-15 11:28:56.986826	166.9	21.6	-77.2	10.3
2026-01-15 11:28:59.238643	166.9	21.9	-77.2	10.6
2026-01-15 11:29:01.488162	167.0	22.3	-77.1	10.5
2026-01-15 11:29:03.738233	167.0	22.6	-76.4	7.7
2026-01-15 11:29:05.988542	167.1	22.9	-77.5	10.0
2026-01-15 11:29:08.237871	167.1	23.2	-76.9	10.8
2026-01-15 11:29:10.488473	167.2	23.6	-77.3	9.9
2026-01-15 11:29:12.738572	167.2	23.9	-76.3	10.0
2026-01-15 11:29:14.986178	167.3	24.3	-77.1	9.3
2026-01-15 11:29:17.234781	167.4	24.6	-76.8	9.2
2026-01-15 11:29:19.483253	167.4	25.0	-76.5	9.4
2026-01-15 11:29:21.731542	167.5	25.4	-76.8	7.9
2026-01-15 11:29:23.982172	167.5	25.7	-76.8	7.4
2026-01-15 11:29:26.233138	167.6	26.1	-76.6	8.5
2026-01-15 11:29:28.481940	167.7	26.5	-77.0	9.1
2026-01-15 11:29:30.728235	167.7	26.9	-77.1	8.3
2026-01-15 11:29:32.977328	167.8	27.2	-76.6	7.5
2026-01-15 11:29:35.229025	167.9	27.6	-76.8	10.2
2026-01-15 11:29:37.478592	167.9	28.0	-76.3	7.3
2026-01-15 11:29:39.729132	168.0	28.4	-76.0	6.9
2026-01-15 11:29:41.978964	168.1	28.9	-76.7	8.0
2026-01-15 11:29:44.233114	168.2	29.3	-76.9	8.4
2026-01-15 11:29:46.484441	168.2	29.7	-76.0	8.8
2026-01-15 11:29:48.731981	168.3	30.1	-76.9	6.8
2026-01-15 11:29:50.980795	168.4	30.6	-76.2	8.9
2026-01-15 11:29:53.230844	168.5	31.0	-76.3	6.4
2026-01-15 11:29:55.481178	168.6	31.5	-76.5	6.5
2026-01-15 11:29:57.730360	168.6	31.9	-76.5	9.1
2026-01-15 11:29:59.979240	168.7	32.4	-76.6	6.8
2026-01-15 11:30:02.226992	168.8	32.9	-76.9	10.7
2026-01-15 11:30:04.474899	168.9	33.3	-76.8	10.0
2026-01-15 11:30:06.724787	169.0	33.8	-77.2	10.6
2026-01-15 11:30:08.972971	169.1	34.3	-76.7	7.9
2026-01-15 11:30:11.223757	169.2	34.8	-77.3	10.0
2026-01-15 11:30:13.471539	169.3	35.3	-77.1	8.0
2026-01-15 11:30:15.722937	169.4	35.8	-77.7	9.8
2026-01-15 11:30:17.972579	169.5	36.4	-77.4	8.1
2026-01-15 11:30:20.221780	169.7	36.9	-78.1	10.8
2026-01-15 11:30:22.468029	169.8	37.5	-77.7	9.3
2026-01-15 11:30:24.717826	169.9	38.0	-78.4	11.1
2026-01-15 11:30:26.968841	170.0	38.6	-78.5	11.6
2026-01-15 11:30:29.218275	170.2	39.1	-78.3	10.6
2026-01-15 11:30:31.470836	170.3	39.7	-78.3	11.0
2026-01-15 11:30:33.718135	170.4	40.3	-78.5	11.4
2026-01-15 11:30:35.966946	170.6	40.9	-78.6	12.3
2026-01-15 11:30:38.219184	170.7	41.5	-78.6	11.4
2026-01-15 11:30:40.465913	170.9	42.2	-78.1	11.2
2026-01-15 11:30:42.717177	171.0	42.8	-78.7	11.5
2026-01-15 11:30:44.967161	171.2	43.4	-79.2	11.1
2026-01-15 11:30:47.216202	171.4	44.1	-79.0	12.0
2026-01-15 11:30:49.465105	171.6	44.7	-79.2	11.2
2026-01-15 11:30:51.713506	171.7	45.4	-78.9	11.4
2026-01-15 11:30:53.962068	171.9	46.1	-79.4	10.9
2026-01-15 11:30:56.214757	172.1	46.8	-79.3	10.9
2026-01-15 11:30:58.463277	172.4	47.5	-79.1	10.6
2026-01-15 11:31:00.710995	172.6	48.2	-78.9	9.2
2026-01-15 11:31:02.962281	172.8	49.0	-79.4	10.5
2026-01-15 11:31:05.211737	173.1	49.7	-79.3	10.6
2026-01-15 11:31:07.458767	173.3	50.5	-79.3	10.1
2026-01-15 11:31:09.706901	173.6	51.2	-79.6	10.2
2026-01-15 11:31:11.958548	173.9	52.0	-79.9	9.6
2026-01-15 11:31:14.208405	174.2	52.8	-79.8	10.2
2026-01-15 11:31:16.456355	174.5	53.6	-80.1	9.5
2026-01-15 11:31:18.710539	174.8	54.4	-80.1	8.9
2026-01-15 11:31:20.956834	175.2	55.3	-80.5	8.6
2026-01-15 11:31:23.206386	175.5	56.1	-80.7	8.5
2026-01-15 11:31:25.455479	175.9	57.0	-80.7	8.0
2026-01-15 11:31:27.707526	176.4	57.8	-81.4	7.9
2026-01-15 11:31:29.957811	176.8	58.7	-81.4	7.7
2026-01-15 11:31:32.207706	177.3	59.6	-80.9	6.9
2026-01-15 11:31:34.457900	177.8	60.5	-80.3	6.3
2026-01-15 11:31:36.708347	178.3	61.4	-80.1	8.4
2026-01-15 11:31:38.958911	178.9	62.3	-79.9	8.5
2026-01-15 11:31:41.209016	179.6	63.2	-79.8	9.7
2026-01-15 11:31:43.456708	180.3	64.2	-79.6	10.3
2026-01-15 11:31:45.704899	181.0	65.1	-78.9	8.7
2026-01-15 11:31:47.956268	181.8	66.1	-79.3	10.1
2026-01-15 11:31:50.205314	182.7	67.0	-78.9	10.3
2026-01-15 11:31:52.451980	183.7	68.0	-79.3	10.4
2026-01-15 11:31:54.700692	184.7	69.0	-79.1	10.6
2026-01-15 11:31:56.949348	185.9	69.9	-79.4	9.2
2026-01-15 11:31:59.200556	187.2	70.9	-79.6	9.1
2026-01-15 11:32:01.448900	188.7	71.9	-79.5	8.3
2026-01-15 11:32:03.697263	190.3	72.9	-79.1	6.9
2026-01-15 11:32:05.946841	192.1	73.8	-79.3	8.6
2026-01-15 11:32:08.193530	194.2	74.8	-79.2	8.9
2026-01-15 11:32:10.441240	196.5	75.7	-78.3	7.5
2026-01-15 11:32:12.687321	199.2	76.6	-78.7	7.8
2026-01-15 11:32:14.935537	202.3	77.5	-78.8	8.8
2026-01-15 11:32:17.183474	205.9	78.4	-78.8	8.5
2026-01-15 11:32:19.432407	210.0	79.2	-79.0	9.1
2026-01-15 11:32:21.681640	214.8	79.9	-78.9	9.7
2026-01-15 11:32:23.929519	220.3	80.6	-78.5	8.8
2026-01-15 11:32:26.178557	226.6	81.2	-78.2	6.7
2026-01-15 11:32:28.428423	233.7	81.6	-78.4	8.3
2026-01-15 11:32:30.679077	241.6	82.0	-78.1	8.2
2026-01-15 11:32:32.926869	249.8	82.1	-77.8	6.1
2026-01-15 11:32:35.175529	258.3	82.1	-77.6	7.9
2026-01-15 11:32:37.421529	266.5	81.9	-77.8	8.5
2026-01-15 11:32:39.670707	274.3	81.6	-77.5	7.7
2026-01-15 11:32:41.923693	281.3	81.1	-77.5	8.5
2026-01-15 11:32:44.171961	287.5	80.5	-77.3	6.7
2026-01-15 11:32:46.424625	293.0	79.9	-77.0	8.2
2026-01-15 11:32:48.675187	297.7	79.1	-78.0	7.5
2026-01-15 11:32:50.922741	301.8	78.3	-77.0	5.0
2026-01-15 11:32:53.170512	305.3	77.4	-77.8	6.5
2026-01-15 11:32:55.421238	308.3	76.5	-77.7	5.7
2026-01-15 11:32:57.670371	311.0	75.6	-77.5	4.1
2026-01-15 11:32:59.917511	313.3	74.7	-77.6	3.1
2026-01-15 11:33:02.169016	315.4	73.7	-77.8	3.6
2026-01-15 11:33:04.417122	317.2	72.8	-77.1	3.0
2026-01-15 11:33:06.665084	318.8	71.8	-78.1	4.3
2026-01-15 11:33:08.912159	320.2	70.8	-77.1	3.0
2026-01-15 11:33:11.161129	321.5	69.9	-76.7	2.0
2026-01-15 11:33:13.408284	322.7	68.9	-78.3	5.3
2026-01-15 11:33:15.654317	323.7	67.9	-78.7	5.6
2026-01-15 11:33:17.905643	324.7	67.0	-77.7	0.2
2026-01-15 11:33:20.153007	325.5	66.0	-79.2	3.7
2026-01-15 11:33:22.399368	326.4	65.1	-79.0	2.8
2026-01-15 11:33:24.647124	327.1	64.1	-78.4	3.4
2026-01-15 11:33:26.894797	327.8	63.2	-77.8	3.1
2026-01-15 11:33:29.145543	328.4	62.3	-78.1	1.8
2026-01-15 11:33:31.392987	329.0	61.3	-78.1	3.3
2026-01-15 11:33:33.640333	329.5	60.4	-78.5	4.8
2026-01-15 11:33:35.889732	330.0	59.6	-78.6	2.6
2026-01-15 11:33:38.137111	330.5	58.7	-78.9	3.4
2026-01-15 11:33:40.388217	331.0	57.8	-78.1	1.8
2026-01-15 11:33:42.635059	331.4	56.9	-77.8	0.0
2026-01-15 11:33:44.883596	331.8	56.1	-78.2	2.9
2026-01-15 11:33:47.129021	332.1	55.3	-77.4	3.0
2026-01-15 11:33:49.377256	332.5	54.4	-76.8	0.6
2026-01-15 11:33:51.625116	332.8	53.6	-76.9	0.1
2026-01-15 11:33:53.877520	333.1	52.8	-75.8	0.7
2026-01-15 11:33:56.126178	333.4	52.0	-76.6	4.5
2026-01-15 11:33:58.373894	333.7	51.3	-76.1	0.0
2026-01-15 11:34:00.624970	334.0	50.5	-75.6	1.7
2026-01-15 11:34:02.873198	334.2	49.7	-76.5	0.7
2026-01-15 11:34:05.123061	334.5	49.0	-77.0	2.3
2026-01-15 11:34:07.368465	334.7	48.3	-76.7	2.5
2026-01-15 11:34:09.615773	334.9	47.6	-75.5	0.2
2026-01-15 11:34:11.862616	335.2	46.8	-76.6	3.9
2026-01-15 11:34:14.112966	335.4	46.2	-77.2	3.1
2026-01-15 11:34:16.359849	335.6	45.5	-76.4	4.1
2026-01-15 11:34:18.607071	335.7	44.8	-75.9	1.6
2026-01-15 11:34:20.854118	335.9	44.1	-74.4	0.0
2026-01-15 11:34:23.101137	336.1	43.5	-74.3	1.8
2026-01-15 11:34:25.349296	336.3	42.9	-76.0	3.2
2026-01-15 11:34:27.595199	336.4	42.2	-74.7	2.0
2026-01-15 11:34:29.840747	336.6	41.6	-74.2	0.8
2026-01-15 11:34:32.089811	336.7	41.0	-73.2	0.0
2026-01-15 11:34:34.335184	336.9	40.4	-70.2	0.0
2026-01-15 11:34:36.582409	337.0	39.8	-68.0	0.0
2026-01-15 11:34:38.828728	337.2	39.2	-72.5	0.0
2026-01-15 11:34:41.074272	337.3	38.7	-71.0	0.0
2026-01-15 11:34:43.320516	337.4	38.1	-72.2	0.0
2026-01-15 11:34:45.569900	337.5	37.6	-72.4	0.0
2026-01-15 11:34:47.818779	337.7	37.0	-72.7	0.0
2026-01-15 11:34:50.068755	337.8	36.5	-71.7	0.0
2026-01-15 11:34:52.319990	337.9	36.0	-71.2	0.0
2026-01-15 11:34:54.567651	338.0	35.4	-71.5	0.0
2026-01-15 11:34:56.815673	338.1	34.9	-71.5	0.0
2026-01-15 11:34:59.067918	338.2	34.4	-69.6	0.0
2026-01-15 11:35:01.313815	338.3	33.9	-67.1	0.0
2026-01-15 11:35:03.563555	338.4	33.5	-71.9	0.0
2026-01-15 11:35:05.812374	338.5	33.0	-71.9	0.0
2026-01-15 11:35:08.061117	338.6	32.5	-68.7	0.0
2026-01-15 11:35:10.308354	338.7	32.0	-71.6	0.0
2026-01-15 11:35:12.557082	338.8	31.6	-68.2	0.0
2026-01-15 11:35:14.805228	338.8	31.1	-71.9	0.0
2026-01-15 11:35:17.054228	338.9	30.7	-69.9	0.0
2026-01-15 11:35:19.303225	339.0	30.3	-70.5	0.0
2026-01-15 11:35:21.550737	339.1	29.8	-68.8	0.0
2026-01-15 11:35:23.797562	339.2	29.4	-69.9	0.0
2026-01-15 11:35:26.051418	339.2	29.0	-70.8	0.0
2026-01-15 11:35:28.299937	339.3	28.6	-70.9	0.0
2026-01-15 11:35:30.544149	339.4	28.2	-70.6	0.0
2026-01-15 11:35:32.793725	339.5	27.8	-71.4	0.0
2026-01-15 11:35:35.039048	339.5	27.4	-70.1	0.0
2026-01-15 11:35:37.290076	339.6	27.0	-69.6	0.0
2026-01-15 11:35:39.535823	339.7	26.6	-70.1	0.0
2026-01-15 11:35:41.783166	339.7	26.2	-71.4	0.0
2026-01-15 11:35:44.029274	339.8	25.9	-71.6	0.0
2026-01-15 11:35:46.274867	339.9	25.5	-71.7	0.0
2026-01-15 11:35:48.522425	339.9	25.2	-71.4	0.0
2026-01-15 11:35:50.767943	340.0	24.8	-71.2	0.0
2026-01-15 11:35:53.016294	340.0	24.4	-70.8	0.0
2026-01-15 11:35:55.266222	340.1	24.1	-69.3	0.0
2026-01-15 11:35:57.514040	340.1	23.8	-70.1	0.0
2026-01-15 11:35:59.762892	340.2	23.4	-71.1	0.0
2026-01-15 11:36:02.010539	340.3	23.1	-68.8	0.0
2026-01-15 11:36:04.261241	340.3	22.8	-68.4	0.0
2026-01-15 11:36:06.512197	340.4	22.4	-68.8	0.0
2026-01-15 11:36:08.760277	340.4	22.1	-69.8	0.0
2026-01-15 11:36:11.008331	340.5	21.8	-70.2	0.0
2026-01-15 11:36:13.255770	340.5	21.5	-68.7	0.0
2026-01-15 11:36:15.502711	340.6	21.2	-70.6	0.0
2026-01-15 11:36:17.753080	340.6	20.9	-69.9	0.0
2026-01-15 11:36:20.001459	340.7	20.6	-69.5	0.0
2026-01-15 11:36:22.248346	340.7	20.3	-67.4	0.0
2026-01-15 11:36:24.495987	340.8	20.0	-69.8	0.0
2026-01-15 11:36:26.745032	340.8	19.7	-70.8	0.0
2026-01-15 11:36:28.993448	340.9	19.4	-69.3	0.0
2026-01-15 11:36:31.242958	340.9	19.1	-71.9	0.0
2026-01-15 11:36:33.490264	340.9	18.8	-68.5	0.0
2026-01-15 11:36:35.739749	341.0	18.6	-70.2	0.0
2026-01-15 11:36:37.988728	341.0	18.3	-71.3	0.0
2026-01-15 11:36:40.239875	341.1	18.0	-71.7	0.0
2026-01-15 11:36:42.487038	341.1	17.7	-72.3	0.0
2026-01-15 11:36:44.736780	341.1	17.5	-71.1	0.0
2026-01-15 11:36:46.988073	341.2	17.2	-73.1	0.0
2026-01-15 11:36:49.236280	341.2	16.9	-73.2	0.0
2026-01-15 11:36:51.484629	341.3	16.7	-69.5	0.0
2026-01-15 11:36:53.734939	341.3	16.4	-73.0	0.0
2026-01-15 11:36:55.980638	341.3	16.2	-71.5	0.0
2026-01-15 11:36:58.229871	341.4	15.9	-72.6	0.0
2026-01-15 11:37:00.475626	341.4	15.7	-72.2	0.0
2026-01-15 11:37:02.726886	341.5	15.4	-73.3	0.0
2026-01-15 11:37:04.978022	341.5	15.2	-72.1	0.0
2026-01-15 11:37:07.222592	341.5	15.0	-73.2	0.0
2026-01-15 11:37:09.474339	341.6	14.7	-73.9	0.0
2026-01-15 11:37:11.722923	341.6	14.5	-73.8	0.0
2026-01-15 11:37:13.968602	341.6	14.3	-74.3	0.0
2026-01-15 11:37:16.221365	341.7	14.0	-73.5	0.0
2026-01-15 11:37:18.468591	341.7	13.8	-73.5	0.0
2026-01-15 11:37:20.715877	341.7	13.6	-73.6	0.0
2026-01-15 11:37:22.963885	341.8	13.3	-73.7	0.0
2026-01-15 11:37:25.213934	341.8	13.1	-72.7	0.0
2026-01-15 11:37:27.463889	341.8	12.9	-73.2	0.0
2026-01-15 11:37:29.712893	341.9	12.7	-73.3	0.0
2026-01-15 11:37:31.960573	341.9	12.5	-73.1	0.0
2026-01-15 11:37:34.213213	341.9	12.3	-74.2	0.0
2026-01-15 11:37:36.461672	342.0	12.0	-73.5	0.0
2026-01-15 11:37:38.708447	342.0	11.8	-71.2	0.0
2026-01-15 11:37:40.958362	342.0	11.6	-73.3	0.0
2026-01-15 11:37:43.207948	342.1	11.4	-72.9	0.0
2026-01-15 11:37:45.454950	342.1	11.2	-71.5	0.0
2026-01-15 11:37:47.701757	342.1	11.0	-73.3	0.0
2026-01-15 11:37:49.950633	342.1	10.8	-74.2	0.0
2026-01-15 11:37:52.201125	342.2	10.6	-71.1	0.0
2026-01-15 11:37:54.447649	342.2	10.4	-74.9	0.0
2026-01-15 11:37:56.698400	342.2	10.2	-75.3	0.0
#Closed at: 2026-01-15 11:27:06.374798