passes_logs/2026/01/15/planumMaritime01/planumMaritime01__20260115_013745_METEOR-M2_4_rec.log

#Pass ID: 20260115_013745_METEOR-M2 4
#Satellite: METEOR-M2 4
#Configuration: METEOR-M2 4
#Start time: 2026-01-15 01:37:50.386596

#LorettStation: 1.0.0 05.05.2024
#Station: planumMaritime01
#Location: 37.49445 lon 55.92918 lat
#TLE: 1 59051U 24039A   26014.27408039  .00000009  00000+0  23553-4 0  9994
#TLE: 2 59051  98.6812 335.6805 0005983 253.6260 106.4261 14.22407180 97381

#Time	Az	El	Level	SNR
2026-01-15 01:37:52.552413	10.7	10.2	-76.5	0.0
2026-01-15 01:37:54.800824	10.6	10.4	-76.8	0.0
2026-01-15 01:37:57.052136	10.5	10.6	-76.1	0.0
2026-01-15 01:37:59.301845	10.4	10.8	-75.0	0.0
2026-01-15 01:38:01.547312	10.3	11.0	-74.1	0.7
2026-01-15 01:38:03.796695	10.2	11.2	-71.7	0.0
2026-01-15 01:38:06.045843	10.1	11.4	-74.6	0.0
2026-01-15 01:38:08.295989	10.0	11.6	-71.5	0.0
2026-01-15 01:38:10.544108	9.9	11.8	-74.4	0.0
2026-01-15 01:38:12.793300	9.8	12.0	-74.6	1.9
2026-01-15 01:38:15.044691	9.7	12.2	-74.3	0.0
2026-01-15 01:38:17.292274	9.6	12.4	-71.2	0.0
2026-01-15 01:38:19.543402	9.5	12.6	-75.1	0.0
2026-01-15 01:38:21.793217	9.4	12.8	-71.1	0.0
2026-01-15 01:38:24.039325	9.3	13.0	-72.9	0.0
2026-01-15 01:38:26.288418	9.2	13.2	-74.1	1.7
2026-01-15 01:38:28.538349	9.1	13.5	-75.1	1.8
2026-01-15 01:38:30.784878	9.0	13.7	-74.3	0.0
2026-01-15 01:38:33.032062	8.9	13.9	-74.9	2.5
2026-01-15 01:38:35.280698	8.8	14.1	-74.0	0.0
2026-01-15 01:38:37.529643	8.6	14.3	-73.8	2.4
2026-01-15 01:38:39.778546	8.5	14.6	-72.9	0.0
2026-01-15 01:38:42.029099	8.4	14.8	-74.0	3.8
2026-01-15 01:38:44.277933	8.3	15.0	-74.5	0.8
2026-01-15 01:38:46.525319	8.2	15.3	-74.6	0.3
2026-01-15 01:38:48.773700	8.0	15.5	-73.7	2.5
2026-01-15 01:38:51.021462	7.9	15.7	-74.5	1.2
2026-01-15 01:38:53.268801	7.8	16.0	-74.2	1.8
2026-01-15 01:38:55.519658	7.6	16.2	-74.5	0.8
2026-01-15 01:38:57.770642	7.5	16.5	-71.0	0.0
2026-01-15 01:39:00.018710	7.4	16.7	-74.9	4.0
2026-01-15 01:39:02.270619	7.2	16.9	-72.4	0.3
2026-01-15 01:39:04.521503	7.1	17.2	-75.1	3.0
2026-01-15 01:39:06.770019	6.9	17.5	-74.2	0.0
2026-01-15 01:39:09.020582	6.8	17.7	-75.3	2.4
2026-01-15 01:39:11.269010	6.6	18.0	-75.1	2.6
2026-01-15 01:39:13.517701	6.5	18.2	-75.2	3.3
2026-01-15 01:39:15.766367	6.3	18.5	-74.6	0.0
2026-01-15 01:39:18.015792	6.2	18.8	-74.4	0.0
2026-01-15 01:39:20.265899	6.0	19.0	-74.4	0.2
2026-01-15 01:39:22.513996	5.8	19.3	-72.9	0.0
2026-01-15 01:39:24.761616	5.7	19.6	-75.1	1.1
2026-01-15 01:39:27.009530	5.5	19.8	-75.3	4.2
2026-01-15 01:39:29.259573	5.3	20.1	-75.3	0.0
2026-01-15 01:39:31.506939	5.1	20.4	-74.7	4.4
2026-01-15 01:39:33.755982	5.0	20.7	-74.1	0.0
2026-01-15 01:39:36.004707	4.8	21.0	-75.7	4.1
2026-01-15 01:39:38.253672	4.6	21.3	-76.4	5.0
2026-01-15 01:39:40.502794	4.4	21.6	-76.4	3.6
2026-01-15 01:39:42.752526	4.2	21.9	-75.9	4.1
2026-01-15 01:39:45.002498	4.0	22.2	-75.0	1.4
2026-01-15 01:39:47.254133	3.8	22.5	-76.6	4.0
2026-01-15 01:39:49.503460	3.6	22.8	-76.2	0.0
2026-01-15 01:39:51.752657	3.4	23.1	-76.3	3.1
2026-01-15 01:39:54.002350	3.1	23.4	-75.1	4.9
2026-01-15 01:39:56.252218	2.9	23.7	-76.7	1.5
2026-01-15 01:39:58.502028	2.7	24.0	-77.0	3.8
2026-01-15 01:40:00.752753	2.5	24.4	-76.5	4.1
2026-01-15 01:40:03.001919	2.2	24.7	-76.6	6.0
2026-01-15 01:40:05.252174	2.0	25.0	-74.0	2.6
2026-01-15 01:40:07.503986	1.7	25.3	-76.8	5.9
2026-01-15 01:40:09.751780	1.5	25.7	-75.4	3.5
2026-01-15 01:40:11.999131	1.2	26.0	-74.3	6.1
2026-01-15 01:40:14.243788	1.0	26.4	-76.7	6.5
2026-01-15 01:40:16.495557	0.7	26.7	-76.4	6.1
2026-01-15 01:40:18.741171	0.4	27.1	-76.6	7.7
2026-01-15 01:40:20.988684	0.1	27.4	-75.8	6.6
2026-01-15 01:40:23.235484	359.8	27.8	-73.9	1.1
2026-01-15 01:40:25.481695	359.5	28.2	-76.3	8.1
2026-01-15 01:40:27.732374	359.2	28.5	-74.2	0.4
2026-01-15 01:40:29.978581	358.9	28.9	-74.8	5.7
2026-01-15 01:40:32.228346	358.6	29.3	-74.2	3.6
2026-01-15 01:40:34.474858	358.3	29.7	-76.1	5.2
2026-01-15 01:40:36.720017	357.9	30.0	-76.4	7.3
2026-01-15 01:40:38.971453	357.6	30.4	-75.6	8.0
2026-01-15 01:40:41.219082	357.2	30.8	-74.4	2.8
2026-01-15 01:40:43.468988	356.9	31.2	-76.0	3.7
2026-01-15 01:40:45.718536	356.5	31.6	-76.1	4.8
2026-01-15 01:40:47.967290	356.1	32.0	-75.8	6.4
2026-01-15 01:40:50.217327	355.7	32.4	-75.4	5.1
2026-01-15 01:40:52.464077	355.3	32.9	-75.5	5.9
2026-01-15 01:40:54.713575	354.9	33.3	-75.4	8.6
2026-01-15 01:40:56.965407	354.5	33.7	-74.7	3.2
2026-01-15 01:40:59.212895	354.1	34.1	-75.9	5.7
2026-01-15 01:41:01.460730	353.6	34.6	-73.9	2.1
2026-01-15 01:41:03.714266	353.2	35.0	-76.6	8.3
2026-01-15 01:41:05.964931	352.7	35.4	-75.7	7.1
2026-01-15 01:41:08.216332	352.2	35.9	-75.8	3.9
2026-01-15 01:41:10.464858	351.7	36.3	-75.6	4.5
2026-01-15 01:41:12.713571	351.2	36.8	-77.0	7.0
2026-01-15 01:41:14.961281	350.7	37.2	-77.2	8.8
2026-01-15 01:41:17.209259	350.1	37.7	-75.1	2.5
2026-01-15 01:41:19.457779	349.6	38.1	-76.4	6.4
2026-01-15 01:41:21.706918	349.0	38.6	-77.1	3.0
2026-01-15 01:41:23.952468	348.4	39.1	-77.4	8.0
2026-01-15 01:41:26.200592	347.8	39.5	-77.7	9.7
2026-01-15 01:41:28.448741	347.2	40.0	-77.0	5.8
2026-01-15 01:41:30.699216	346.6	40.5	-78.0	9.8
2026-01-15 01:41:32.947177	345.9	41.0	-78.2	10.8
2026-01-15 01:41:35.194032	345.2	41.4	-78.2	9.2
2026-01-15 01:41:37.439551	344.5	41.9	-78.7	10.4
2026-01-15 01:41:39.689585	343.8	42.4	-78.8	10.5
2026-01-15 01:41:41.936255	343.0	42.9	-78.9	11.3
2026-01-15 01:41:44.184853	342.3	43.4	-78.0	8.7
2026-01-15 01:41:46.438500	341.5	43.9	-78.8	10.3
2026-01-15 01:41:48.688007	340.6	44.3	-79.1	11.2
2026-01-15 01:41:50.938044	339.8	44.8	-77.9	8.4
2026-01-15 01:41:53.185388	338.9	45.3	-79.2	10.8
2026-01-15 01:41:55.432341	338.0	45.8	-77.8	7.2
2026-01-15 01:41:57.684364	337.1	46.3	-79.1	11.1
2026-01-15 01:41:59.932201	336.2	46.7	-79.4	10.0
2026-01-15 01:42:02.179031	335.2	47.2	-78.6	7.9
2026-01-15 01:42:04.429821	334.2	47.7	-79.2	8.8
2026-01-15 01:42:06.678869	333.1	48.1	-79.7	11.1
2026-01-15 01:42:08.928761	332.0	48.6	-79.9	10.4
2026-01-15 01:42:11.174249	330.9	49.0	-80.0	8.8
2026-01-15 01:42:13.424164	329.8	49.5	-79.6	6.6
2026-01-15 01:42:15.670825	328.6	49.9	-79.7	6.7
2026-01-15 01:42:17.918068	327.4	50.3	-79.7	8.5
2026-01-15 01:42:20.167244	326.2	50.7	-79.5	9.6
2026-01-15 01:42:22.416101	324.9	51.1	-80.0	10.9
2026-01-15 01:42:24.662349	323.6	51.5	-79.9	10.9
2026-01-15 01:42:26.912482	322.2	51.9	-79.0	4.8
2026-01-15 01:42:29.160301	320.8	52.3	-79.7	6.2
2026-01-15 01:42:31.411740	319.4	52.6	-80.0	8.6
2026-01-15 01:42:33.662357	318.0	53.0	-79.7	7.6
2026-01-15 01:42:35.912535	316.5	53.3	-79.9	8.6
2026-01-15 01:42:38.158761	315.0	53.6	-79.7	6.9
2026-01-15 01:42:40.407432	313.4	53.8	-79.3	6.3
2026-01-15 01:42:42.655723	311.9	54.1	-78.9	8.0
2026-01-15 01:42:44.903767	310.3	54.3	-79.5	7.1
2026-01-15 01:42:47.150796	308.7	54.6	-78.4	5.4
2026-01-15 01:42:49.399614	307.0	54.7	-79.8	8.1
2026-01-15 01:42:51.645840	305.3	54.9	-79.4	7.7
2026-01-15 01:42:53.893852	303.6	55.1	-79.6	7.1
2026-01-15 01:42:56.142482	301.9	55.2	-79.1	5.9
2026-01-15 01:42:58.391718	300.2	55.3	-80.7	7.1
2026-01-15 01:43:00.641442	298.5	55.3	-80.7	5.7
2026-01-15 01:43:02.890619	296.8	55.4	-79.6	0.0
2026-01-15 01:43:05.140602	295.0	55.4	-80.7	7.1
2026-01-15 01:43:07.391148	293.3	55.4	-80.7	7.9
2026-01-15 01:43:09.639268	291.5	55.4	-80.7	7.6
2026-01-15 01:43:11.887547	289.8	55.3	-80.5	6.5
2026-01-15 01:43:14.137435	288.1	55.2	-80.9	6.7
2026-01-15 01:43:16.385905	286.4	55.1	-80.6	6.7
2026-01-15 01:43:18.634521	284.7	55.0	-80.6	5.8
2026-01-15 01:43:20.881386	283.0	54.8	-81.1	6.0
2026-01-15 01:43:23.130176	281.3	54.6	-81.2	4.0
2026-01-15 01:43:25.377257	279.7	54.4	-81.0	6.8
2026-01-15 01:43:27.626293	278.1	54.2	-81.0	5.5
2026-01-15 01:43:29.872942	276.5	53.9	-80.6	7.7
2026-01-15 01:43:32.122095	275.0	53.7	-80.5	3.0
2026-01-15 01:43:34.370037	273.4	53.4	-80.4	6.9
2026-01-15 01:43:36.621180	271.9	53.1	-80.6	8.2
2026-01-15 01:43:38.872054	270.5	52.7	-80.7	7.3
2026-01-15 01:43:41.118553	269.0	52.4	-80.8	8.6
2026-01-15 01:43:43.365245	267.6	52.0	-81.4	8.3
2026-01-15 01:43:45.612443	266.3	51.7	-81.4	8.3
2026-01-15 01:43:47.863380	264.9	51.3	-81.4	8.4
2026-01-15 01:43:50.116300	263.7	50.9	-81.4	8.8
2026-01-15 01:43:52.364750	262.4	50.5	-81.4	9.4
2026-01-15 01:43:54.613430	261.2	50.0	-81.2	9.2
2026-01-15 01:43:56.860421	260.0	49.6	-81.0	10.1
2026-01-15 01:43:59.108770	258.8	49.2	-80.6	9.9
2026-01-15 01:44:01.353424	257.7	48.7	-81.0	10.8
2026-01-15 01:44:03.601646	256.6	48.3	-80.9	10.5
2026-01-15 01:44:05.852383	255.5	47.8	-80.6	11.0
2026-01-15 01:44:08.106085	254.5	47.3	-80.8	11.0
2026-01-15 01:44:10.353237	253.5	46.9	-80.9	10.8
2026-01-15 01:44:12.605891	252.5	46.4	-81.0	10.9
2026-01-15 01:44:14.856149	251.6	45.9	-80.9	10.9
2026-01-15 01:44:17.105881	250.7	45.4	-80.7	11.0
2026-01-15 01:44:19.355201	249.8	45.0	-80.7	10.9
2026-01-15 01:44:21.606947	249.0	44.5	-80.6	11.2
2026-01-15 01:44:23.858434	248.1	44.0	-80.5	11.3
2026-01-15 01:44:26.109084	247.3	43.5	-80.3	11.2
2026-01-15 01:44:28.358679	246.5	43.0	-80.1	10.8
2026-01-15 01:44:30.607203	245.8	42.5	-80.3	10.5
2026-01-15 01:44:32.856157	245.0	42.0	-80.1	10.3
2026-01-15 01:44:35.103174	244.3	41.6	-79.9	10.6
2026-01-15 01:44:37.349762	243.6	41.1	-79.9	9.8
2026-01-15 01:44:39.597223	243.0	40.6	-80.0	9.4
2026-01-15 01:44:41.844643	242.3	40.1	-79.9	9.0
2026-01-15 01:44:44.091761	241.7	39.7	-79.8	9.4
2026-01-15 01:44:46.340998	241.1	39.2	-79.7	8.8
2026-01-15 01:44:48.589731	240.5	38.7	-79.5	8.4
2026-01-15 01:44:50.838614	239.9	38.2	-79.2	8.8
2026-01-15 01:44:53.087537	239.3	37.8	-79.0	8.8
2026-01-15 01:44:55.332762	238.8	37.3	-78.8	8.7
2026-01-15 01:44:57.582071	238.2	36.9	-78.7	9.2
2026-01-15 01:44:59.834453	237.7	36.4	-78.6	8.5
2026-01-15 01:45:02.082901	237.2	36.0	-78.4	8.5
2026-01-15 01:45:04.334227	236.7	35.5	-78.3	9.3
2026-01-15 01:45:06.582550	236.3	35.1	-78.1	9.2
2026-01-15 01:45:08.831534	235.8	34.6	-78.3	9.5
2026-01-15 01:45:11.079994	235.3	34.2	-78.2	9.2
2026-01-15 01:45:13.328994	234.9	33.8	-78.3	8.6
2026-01-15 01:45:15.577540	234.5	33.3	-78.4	9.1
2026-01-15 01:45:17.824462	234.1	32.9	-78.5	8.8
2026-01-15 01:45:20.069791	233.7	32.5	-78.4	8.7
2026-01-15 01:45:22.315377	233.3	32.1	-78.5	8.4
2026-01-15 01:45:24.565925	232.9	31.7	-78.5	9.3
2026-01-15 01:45:26.813215	232.5	31.3	-78.5	9.1
2026-01-15 01:45:29.060954	232.1	30.9	-78.4	9.5
2026-01-15 01:45:31.308962	231.8	30.5	-78.5	10.1
2026-01-15 01:45:33.555968	231.4	30.1	-78.4	10.6
2026-01-15 01:45:35.805745	231.1	29.7	-78.7	10.0
2026-01-15 01:45:38.056833	230.8	29.3	-78.6	9.2
2026-01-15 01:45:40.302488	230.4	28.9	-78.8	9.3
2026-01-15 01:45:42.553771	230.1	28.5	-79.0	10.2
2026-01-15 01:45:44.801639	229.8	28.2	-79.4	10.0
2026-01-15 01:45:47.051569	229.5	27.8	-79.5	10.7
2026-01-15 01:45:49.303530	229.2	27.4	-79.1	10.1
2026-01-15 01:45:51.550033	228.9	27.1	-78.9	10.4
2026-01-15 01:45:53.798917	228.6	26.7	-79.3	10.8
2026-01-15 01:45:56.046911	228.4	26.4	-79.3	11.6
2026-01-15 01:45:58.298988	228.1	26.0	-79.2	11.7
2026-01-15 01:46:00.547194	227.8	25.7	-79.2	11.5
2026-01-15 01:46:02.795726	227.6	25.3	-79.2	11.0
2026-01-15 01:46:05.045740	227.3	25.0	-78.9	11.7
2026-01-15 01:46:07.294897	227.1	24.7	-79.1	10.7
2026-01-15 01:46:09.542261	226.8	24.3	-79.2	10.8
2026-01-15 01:46:11.791405	226.6	24.0	-79.3	9.9
2026-01-15 01:46:14.040484	226.4	23.7	-79.0	9.9
2026-01-15 01:46:16.292884	226.1	23.4	-79.1	9.6
2026-01-15 01:46:18.538831	225.9	23.0	-79.0	9.6
2026-01-15 01:46:20.786776	225.7	22.7	-78.5	8.9
2026-01-15 01:46:23.035591	225.5	22.4	-78.2	9.3
2026-01-15 01:46:25.282580	225.3	22.1	-78.1	9.4
2026-01-15 01:46:27.530423	225.1	21.8	-78.0	9.1
2026-01-15 01:46:29.778904	224.9	21.5	-77.8	8.7
2026-01-15 01:46:32.026236	224.7	21.2	-77.8	7.6
2026-01-15 01:46:34.276248	224.5	20.9	-77.8	7.7
2026-01-15 01:46:36.524201	224.3	20.6	-77.7	6.9
2026-01-15 01:46:38.771206	224.1	20.3	-77.5	6.1
2026-01-15 01:46:41.019361	223.9	20.1	-77.3	5.1
2026-01-15 01:46:43.266070	223.8	19.8	-77.4	5.3
2026-01-15 01:46:45.514470	223.6	19.5	-77.5	6.0
2026-01-15 01:46:47.762621	223.4	19.2	-77.1	4.7
2026-01-15 01:46:50.010892	223.2	18.9	-76.9	4.3
2026-01-15 01:46:52.259287	223.1	18.7	-76.7	4.4
2026-01-15 01:46:54.509377	222.9	18.4	-76.8	3.8
2026-01-15 01:46:56.756825	222.8	18.1	-76.6	3.7
2026-01-15 01:46:59.005311	222.6	17.9	-76.8	2.2
2026-01-15 01:47:01.253014	222.4	17.6	-76.4	2.6
2026-01-15 01:47:03.505195	222.3	17.4	-76.9	3.1
2026-01-15 01:47:05.753232	222.1	17.1	-76.5	1.9
2026-01-15 01:47:08.002135	222.0	16.9	-76.7	1.1
2026-01-15 01:47:10.251296	221.9	16.6	-79.8	9.8
2026-01-15 01:47:12.503097	221.7	16.4	-79.9	9.4
2026-01-15 01:47:14.751232	221.6	16.1	-80.0	9.9
2026-01-15 01:47:16.998490	221.4	15.9	-80.0	10.7
2026-01-15 01:47:19.247584	221.3	15.6	-79.8	8.6
2026-01-15 01:47:21.494947	221.2	15.4	-79.8	7.3
2026-01-15 01:47:23.745909	221.0	15.2	-80.0	10.1
2026-01-15 01:47:25.994427	220.9	14.9	-79.9	9.5
2026-01-15 01:47:28.242822	220.8	14.7	-79.9	10.2
2026-01-15 01:47:30.493692	220.7	14.5	-80.0	8.9
2026-01-15 01:47:32.742790	220.5	14.2	-79.9	9.8
2026-01-15 01:47:34.992959	220.4	14.0	-80.1	8.9
2026-01-15 01:47:37.241844	220.3	13.8	-80.6	9.9
2026-01-15 01:47:39.491238	220.2	13.6	-80.2	8.3
2026-01-15 01:47:41.742355	220.1	13.3	-80.2	9.6
2026-01-15 01:47:43.991033	220.0	13.1	-80.2	9.6
2026-01-15 01:47:46.240513	219.9	12.9	-80.0	7.7
2026-01-15 01:47:48.491612	219.7	12.7	-80.1	9.4
2026-01-15 01:47:50.741332	219.6	12.5	-80.5	8.3
2026-01-15 01:47:52.989671	219.5	12.3	-80.0	8.3
2026-01-15 01:47:55.238933	219.4	12.1	-80.2	7.4
2026-01-15 01:47:57.486469	219.3	11.8	-80.2	10.0
2026-01-15 01:47:59.737541	219.2	11.6	-80.6	10.4
2026-01-15 01:48:01.983776	219.1	11.4	-80.4	6.7
2026-01-15 01:48:04.232621	219.0	11.2	-80.4	9.1
2026-01-15 01:48:06.483119	218.9	11.0	-80.7	9.6
2026-01-15 01:48:08.733901	218.8	10.8	-80.9	10.2
2026-01-15 01:48:10.981157	218.7	10.6	-84.7	1.8
2026-01-15 01:48:13.230681	218.6	10.4	-86.1	0.0
2026-01-15 01:48:15.482769	218.6	10.2	-85.6	0.0
2026-01-15 01:48:17.728727	218.5	10.0	-85.5	2.1
#Closed at: 2026-01-15 01:37:45.393594