passes_logs/2026/01/15/planumMaritime01/planumMaritime01__20260115_183756_METEOR-M2_3_rec.log

#Pass ID: 20260115_183756_METEOR-M2 3
#Satellite: METEOR-M2 3
#Configuration: METEOR-M2 3
#Start time: 2026-01-15 18:38:01.445545

#LorettStation: 1.0.0 05.05.2024
#Station: planumMaritime01
#Location: 37.49445 lon 55.92918 lat
#TLE: 1 57166U 23091A   26015.20701802 -.00000004  00000+0  17111-4 0  9993
#TLE: 2 57166  98.6327  73.1539 0002947 248.4122 111.6744 14.24030545132744

#Time	Az	El	Level	SNR
2026-01-15 18:38:03.620165	192.5	10.2	-81.0	0.0
2026-01-15 18:38:05.868818	192.7	10.4	-81.0	0.0
2026-01-15 18:38:08.118730	192.8	10.5	-79.4	0.0
2026-01-15 18:38:10.370023	193.0	10.7	-78.7	0.0
2026-01-15 18:38:12.621438	193.2	10.9	-77.6	2.7
2026-01-15 18:38:14.868826	193.3	11.1	-76.5	3.3
2026-01-15 18:38:17.116420	193.5	11.3	-77.1	4.1
2026-01-15 18:38:19.364773	193.7	11.5	-76.7	4.3
2026-01-15 18:38:21.613943	193.8	11.7	-76.9	4.4
2026-01-15 18:38:23.862496	194.0	11.9	-76.8	4.7
2026-01-15 18:38:26.107898	194.2	12.1	-76.4	4.7
2026-01-15 18:38:28.355790	194.4	12.3	-76.9	5.4
2026-01-15 18:38:30.603142	194.6	12.5	-76.9	5.1
2026-01-15 18:38:32.848657	194.7	12.7	-76.6	5.5
2026-01-15 18:38:35.097392	194.9	12.9	-76.8	5.3
2026-01-15 18:38:37.346004	195.1	13.1	-76.5	5.4
2026-01-15 18:38:39.595243	195.3	13.3	-76.5	4.5
2026-01-15 18:38:41.844550	195.5	13.5	-76.7	5.7
2026-01-15 18:38:44.092402	195.7	13.7	-76.6	4.6
2026-01-15 18:38:46.340403	195.9	13.9	-76.7	4.5
2026-01-15 18:38:48.586289	196.1	14.1	-76.6	4.9
2026-01-15 18:38:50.834149	196.3	14.3	-76.6	4.2
2026-01-15 18:38:53.085334	196.5	14.5	-77.3	4.5
2026-01-15 18:38:55.333699	196.8	14.8	-76.4	5.5
2026-01-15 18:38:57.584014	197.0	15.0	-77.0	6.1
2026-01-15 18:38:59.835241	197.2	15.2	-76.7	4.9
2026-01-15 18:39:02.083671	197.4	15.4	-77.1	5.0
2026-01-15 18:39:04.329383	197.6	15.6	-77.3	5.5
2026-01-15 18:39:06.577755	197.9	15.9	-76.2	3.8
2026-01-15 18:39:08.826767	198.1	16.1	-76.4	6.2
2026-01-15 18:39:11.075493	198.3	16.3	-76.7	4.8
2026-01-15 18:39:13.325772	198.6	16.5	-76.6	4.5
2026-01-15 18:39:15.574649	198.8	16.8	-76.9	5.3
2026-01-15 18:39:17.822652	199.1	17.0	-77.0	4.9
2026-01-15 18:39:20.072250	199.3	17.2	-77.1	6.2
2026-01-15 18:39:22.320423	199.6	17.5	-76.4	4.8
2026-01-15 18:39:24.568998	199.8	17.7	-76.8	6.5
2026-01-15 18:39:26.821074	200.1	17.9	-76.0	5.7
2026-01-15 18:39:29.068687	200.4	18.2	-76.3	6.3
2026-01-15 18:39:31.317416	200.6	18.4	-76.9	7.9
2026-01-15 18:39:33.565815	200.9	18.7	-76.9	6.1
2026-01-15 18:39:35.815558	201.2	18.9	-76.0	6.3
2026-01-15 18:39:38.065852	201.5	19.2	-76.7	6.4
2026-01-15 18:39:40.316853	201.7	19.4	-76.4	6.3
2026-01-15 18:39:42.565519	202.0	19.7	-76.6	6.3
2026-01-15 18:39:44.812888	202.3	19.9	-76.2	4.7
2026-01-15 18:39:47.065763	202.6	20.2	-76.6	6.2
2026-01-15 18:39:49.316057	202.9	20.4	-76.4	6.2
2026-01-15 18:39:51.565939	203.3	20.7	-76.4	6.0
2026-01-15 18:39:53.813365	203.6	20.9	-77.4	7.1
2026-01-15 18:39:56.062981	203.9	21.2	-76.5	6.3
2026-01-15 18:39:58.311945	204.2	21.5	-77.4	9.2
2026-01-15 18:40:00.561433	204.6	21.7	-76.3	5.8
2026-01-15 18:40:02.809786	204.9	22.0	-76.3	7.8
2026-01-15 18:40:05.057061	205.2	22.3	-77.2	8.4
2026-01-15 18:40:07.304613	205.6	22.5	-76.8	8.7
2026-01-15 18:40:09.549937	205.9	22.8	-76.8	8.2
2026-01-15 18:40:11.800535	206.3	23.1	-76.7	9.2
2026-01-15 18:40:14.047653	206.7	23.4	-76.9	8.6
2026-01-15 18:40:16.297250	207.0	23.6	-76.9	8.4
2026-01-15 18:40:18.541991	207.4	23.9	-76.8	8.4
2026-01-15 18:40:20.791583	207.8	24.2	-77.0	8.6
2026-01-15 18:40:23.040589	208.2	24.5	-77.4	10.1
2026-01-15 18:40:25.290917	208.6	24.8	-77.2	8.8
2026-01-15 18:40:27.540665	209.0	25.1	-77.4	10.4
2026-01-15 18:40:29.788180	209.4	25.3	-77.3	10.1
2026-01-15 18:40:32.038071	209.9	25.6	-77.2	10.1
2026-01-15 18:40:34.287298	210.3	25.9	-77.9	11.0
2026-01-15 18:40:36.532788	210.7	26.2	-77.2	10.4
2026-01-15 18:40:38.782525	211.2	26.5	-77.5	10.6
2026-01-15 18:40:41.032137	211.6	26.8	-77.5	10.7
2026-01-15 18:40:43.281562	212.1	27.1	-77.7	10.9
2026-01-15 18:40:45.528475	212.6	27.4	-77.7	10.3
2026-01-15 18:40:47.778301	213.1	27.7	-78.1	10.5
2026-01-15 18:40:50.028976	213.6	28.0	-78.0	10.9
2026-01-15 18:40:52.280206	214.1	28.3	-78.0	11.0
2026-01-15 18:40:54.527211	214.6	28.6	-78.2	11.8
2026-01-15 18:40:56.777997	215.1	28.9	-77.9	12.3
2026-01-15 18:40:59.027619	215.6	29.2	-78.2	12.0
2026-01-15 18:41:01.275429	216.2	29.5	-78.2	12.5
2026-01-15 18:41:03.523323	216.7	29.8	-78.0	12.5
2026-01-15 18:41:05.770889	217.3	30.1	-77.6	12.6
2026-01-15 18:41:08.021682	217.8	30.4	-78.0	11.8
2026-01-15 18:41:10.275539	218.4	30.8	-77.9	12.6
2026-01-15 18:41:12.521648	219.0	31.1	-78.0	12.8
2026-01-15 18:41:14.771938	219.6	31.4	-78.2	11.7
2026-01-15 18:41:17.021313	220.2	31.7	-78.4	12.9
2026-01-15 18:41:19.270097	220.8	32.0	-78.4	12.7
2026-01-15 18:41:21.520553	221.5	32.3	-78.4	12.2
2026-01-15 18:41:23.772944	222.1	32.6	-78.3	13.1
2026-01-15 18:41:26.024285	222.8	32.9	-78.1	12.7
2026-01-15 18:41:28.274428	223.5	33.2	-77.8	13.2
2026-01-15 18:41:30.522793	224.2	33.5	-78.1	13.5
2026-01-15 18:41:32.772687	224.9	33.8	-77.9	12.9
2026-01-15 18:41:35.019955	225.6	34.1	-77.9	13.4
2026-01-15 18:41:37.268671	226.3	34.4	-78.2	13.0
2026-01-15 18:41:39.518403	227.0	34.7	-78.1	13.0
2026-01-15 18:41:41.769438	227.8	35.0	-78.0	12.5
2026-01-15 18:41:44.018929	228.5	35.3	-77.9	13.6
2026-01-15 18:41:46.268104	229.3	35.6	-78.2	12.5
2026-01-15 18:41:48.516211	230.1	35.8	-78.3	13.6
2026-01-15 18:41:50.766018	230.9	36.1	-77.9	13.4
2026-01-15 18:41:53.014041	231.7	36.4	-77.8	13.4
2026-01-15 18:41:55.266517	232.6	36.7	-77.6	13.1
2026-01-15 18:41:57.517667	233.4	36.9	-78.0	13.6
2026-01-15 18:41:59.766450	234.3	37.2	-78.0	12.2
2026-01-15 18:42:02.017823	235.1	37.4	-78.0	12.4
2026-01-15 18:42:04.268142	236.0	37.7	-78.1	12.2
2026-01-15 18:42:06.515675	236.9	37.9	-78.3	12.4
2026-01-15 18:42:08.765962	237.8	38.2	-78.4	11.3
2026-01-15 18:42:11.013180	238.8	38.4	-78.5	12.2
2026-01-15 18:42:13.261848	239.7	38.6	-78.5	11.6
2026-01-15 18:42:15.507759	240.7	38.8	-77.6	10.2
2026-01-15 18:42:17.755149	241.6	39.1	-77.7	11.1
2026-01-15 18:42:20.004512	242.6	39.3	-77.3	11.4
2026-01-15 18:42:22.258854	243.6	39.5	-78.0	12.2
2026-01-15 18:42:24.506341	244.6	39.6	-77.6	11.6
2026-01-15 18:42:26.754725	245.6	39.8	-77.8	11.9
2026-01-15 18:42:29.003957	246.6	40.0	-78.0	12.5
2026-01-15 18:42:31.252488	247.6	40.1	-77.5	11.1
2026-01-15 18:42:33.503840	248.7	40.3	-77.7	11.1
2026-01-15 18:42:35.748594	249.7	40.4	-77.8	10.7
2026-01-15 18:42:37.994219	250.8	40.6	-77.8	10.6
2026-01-15 18:42:40.242670	251.8	40.7	-77.7	9.9
2026-01-15 18:42:42.491791	252.9	40.8	-77.7	8.9
2026-01-15 18:42:44.740791	254.0	40.9	-78.3	10.2
2026-01-15 18:42:46.988431	255.1	41.0	-77.7	8.3
2026-01-15 18:42:49.238810	256.2	41.0	-77.3	8.8
2026-01-15 18:42:51.487876	257.3	41.1	-77.1	10.2
2026-01-15 18:42:53.736392	258.4	41.2	-77.1	9.7
2026-01-15 18:42:55.986149	259.5	41.2	-76.6	8.8
2026-01-15 18:42:58.234467	260.6	41.2	-76.5	8.4
2026-01-15 18:43:00.484606	261.7	41.2	-76.0	8.4
2026-01-15 18:43:02.733045	262.8	41.3	-76.5	8.2
2026-01-15 18:43:04.982253	263.9	41.2	-77.1	9.7
2026-01-15 18:43:07.231772	265.0	41.2	-76.9	8.5
2026-01-15 18:43:09.480660	266.1	41.2	-76.7	7.3
2026-01-15 18:43:11.729503	267.2	41.2	-77.2	6.1
2026-01-15 18:43:13.977750	268.3	41.1	-77.4	7.8
2026-01-15 18:43:16.223520	269.4	41.0	-75.0	6.1
2026-01-15 18:43:18.473402	270.5	41.0	-76.1	7.3
2026-01-15 18:43:20.721218	271.6	40.9	-75.9	4.8
2026-01-15 18:43:22.970283	272.6	40.8	-76.9	7.3
2026-01-15 18:43:25.221367	273.7	40.7	-76.8	6.8
2026-01-15 18:43:27.470521	274.8	40.6	-75.5	5.4
2026-01-15 18:43:29.717352	275.8	40.4	-75.4	6.7
2026-01-15 18:43:31.964274	276.9	40.3	-74.0	2.5
2026-01-15 18:43:34.209904	277.9	40.1	-75.7	6.9
2026-01-15 18:43:36.457838	278.9	40.0	-75.2	4.7
2026-01-15 18:43:38.705517	280.0	39.8	-75.1	4.9
2026-01-15 18:43:40.952473	281.0	39.6	-74.6	3.2
2026-01-15 18:43:43.198567	282.0	39.5	-75.6	4.7
2026-01-15 18:43:45.445065	282.9	39.3	-75.1	3.6
2026-01-15 18:43:47.693751	283.9	39.1	-74.6	3.0
2026-01-15 18:43:49.944659	284.9	38.9	-74.5	3.3
2026-01-15 18:43:52.192476	285.8	38.6	-74.9	5.5
2026-01-15 18:43:54.442460	286.8	38.4	-73.9	2.8
2026-01-15 18:43:56.689559	287.7	38.2	-74.3	3.7
2026-01-15 18:43:58.937371	288.6	37.9	-74.4	4.4
2026-01-15 18:44:01.184387	289.5	37.7	-74.6	3.4
2026-01-15 18:44:03.431829	290.4	37.5	-74.2	3.5
2026-01-15 18:44:05.677590	291.2	37.2	-74.6	4.2
2026-01-15 18:44:07.926768	292.1	36.9	-75.4	6.6
2026-01-15 18:44:10.176440	292.9	36.7	-73.9	2.4
2026-01-15 18:44:12.425752	293.8	36.4	-75.4	5.5
2026-01-15 18:44:14.672624	294.6	36.1	-74.6	5.1
2026-01-15 18:44:16.923988	295.4	35.9	-74.3	4.5
2026-01-15 18:44:19.172404	296.2	35.6	-74.9	6.1
2026-01-15 18:44:21.420434	296.9	35.3	-74.3	3.9
2026-01-15 18:44:23.670320	297.7	35.0	-73.8	3.9
2026-01-15 18:44:25.919932	298.5	34.7	-74.7	6.6
2026-01-15 18:44:28.167141	299.2	34.4	-74.4	4.0
2026-01-15 18:44:30.415317	299.9	34.1	-74.2	5.1
2026-01-15 18:44:32.663222	300.6	33.8	-73.5	5.2
2026-01-15 18:44:34.914339	301.3	33.5	-73.7	3.6
2026-01-15 18:44:37.161338	302.0	33.2	-74.3	4.9
2026-01-15 18:44:39.409931	302.7	32.9	-73.7	4.8
2026-01-15 18:44:41.657867	303.3	32.6	-74.9	7.3
2026-01-15 18:44:43.906063	304.0	32.3	-74.3	2.4
2026-01-15 18:44:46.157080	304.6	32.0	-73.7	0.0
2026-01-15 18:44:48.404799	305.2	31.7	-73.6	3.3
2026-01-15 18:44:50.648677	305.8	31.4	-73.3	0.0
2026-01-15 18:44:52.898807	306.4	31.1	-73.8	2.6
2026-01-15 18:44:55.145873	307.0	30.8	-74.0	4.1
2026-01-15 18:44:57.395683	307.6	30.5	-73.7	1.7
2026-01-15 18:44:59.644477	308.2	30.2	-74.2	3.2
2026-01-15 18:45:01.894514	308.7	29.9	-73.0	2.6
2026-01-15 18:45:04.140028	309.3	29.6	-74.9	1.0
2026-01-15 18:45:06.388118	309.8	29.3	-74.2	1.4
2026-01-15 18:45:08.635157	310.4	29.0	-73.8	2.1
2026-01-15 18:45:10.885498	310.9	28.7	-74.4	3.0
2026-01-15 18:45:13.132252	311.4	28.4	-75.0	7.0
2026-01-15 18:45:15.380696	311.9	28.1	-75.4	6.9
2026-01-15 18:45:17.630889	312.4	27.8	-74.1	4.3
2026-01-15 18:45:19.882258	312.9	27.5	-73.7	2.9
2026-01-15 18:45:22.128307	313.3	27.2	-72.9	1.2
2026-01-15 18:45:24.377775	313.8	26.9	-73.4	2.8
2026-01-15 18:45:26.630336	314.2	26.6	-75.1	5.5
2026-01-15 18:45:28.878473	314.7	26.3	-75.5	5.6
2026-01-15 18:45:31.126094	315.1	26.0	-73.9	1.8
2026-01-15 18:45:33.372888	315.6	25.7	-74.0	2.7
2026-01-15 18:45:35.621882	316.0	25.4	-73.9	0.1
2026-01-15 18:45:37.872224	316.4	25.2	-72.9	0.0
2026-01-15 18:45:40.120669	316.8	24.9	-73.6	1.7
2026-01-15 18:45:42.370481	317.2	24.6	-74.1	2.4
2026-01-15 18:45:44.619531	317.6	24.3	-74.2	0.4
2026-01-15 18:45:46.869095	318.0	24.0	-73.2	2.6
2026-01-15 18:45:49.116130	318.4	23.8	-74.2	0.0
2026-01-15 18:45:51.361440	318.8	23.5	-73.5	2.3
2026-01-15 18:45:53.610294	319.1	23.2	-71.8	0.0
2026-01-15 18:45:55.859802	319.5	22.9	-72.9	0.0
2026-01-15 18:45:58.107081	319.8	22.7	-72.2	0.0
2026-01-15 18:46:00.356127	320.2	22.4	-73.7	0.1
2026-01-15 18:46:02.603670	320.5	22.1	-73.1	0.6
2026-01-15 18:46:04.851016	320.9	21.9	-73.3	0.0
2026-01-15 18:46:07.098215	321.2	21.6	-73.4	0.9
2026-01-15 18:46:09.344499	321.5	21.3	-70.3	0.0
2026-01-15 18:46:11.593088	321.9	21.1	-72.1	0.0
2026-01-15 18:46:13.839027	322.2	20.8	-74.2	0.2
2026-01-15 18:46:16.084522	322.5	20.6	-73.8	0.0
2026-01-15 18:46:18.332365	322.8	20.3	-73.7	0.0
2026-01-15 18:46:20.578355	323.1	20.0	-73.7	0.0
2026-01-15 18:46:22.823701	323.4	19.8	-74.7	0.0
2026-01-15 18:46:25.069930	323.7	19.5	-74.0	0.0
2026-01-15 18:46:27.319528	324.0	19.3	-72.4	0.0
2026-01-15 18:46:29.564296	324.3	19.1	-71.6	0.0
2026-01-15 18:46:31.811794	324.5	18.8	-74.0	0.0
2026-01-15 18:46:34.062109	324.8	18.6	-72.9	0.0
2026-01-15 18:46:36.314590	325.1	18.3	-73.9	0.0
2026-01-15 18:46:38.562589	325.4	18.1	-73.4	0.0
2026-01-15 18:46:40.810578	325.6	17.9	-68.7	0.0
2026-01-15 18:46:43.057932	325.9	17.6	-73.4	0.0
2026-01-15 18:46:45.306822	326.1	17.4	-72.1	0.0
2026-01-15 18:46:47.554132	326.4	17.2	-72.0	0.0
2026-01-15 18:46:49.800506	326.6	16.9	-67.5	0.0
2026-01-15 18:46:52.047643	326.9	16.7	-71.9	0.0
2026-01-15 18:46:54.298748	327.1	16.5	-73.2	0.0
2026-01-15 18:46:56.546417	327.3	16.2	-72.7	0.0
2026-01-15 18:46:58.794388	327.6	16.0	-72.2	0.0
2026-01-15 18:47:01.043348	327.8	15.8	-70.2	0.0
2026-01-15 18:47:03.289959	328.0	15.6	-69.2	0.0
2026-01-15 18:47:05.532855	328.3	15.4	-68.9	0.0
2026-01-15 18:47:07.782492	328.5	15.1	-71.7	0.0
2026-01-15 18:47:10.032951	328.7	14.9	-70.6	0.0
2026-01-15 18:47:12.279442	328.9	14.7	-71.7	0.0
2026-01-15 18:47:14.529924	329.1	14.5	-71.1	0.0
2026-01-15 18:47:16.779680	329.3	14.3	-70.1	0.0
2026-01-15 18:47:19.027857	329.5	14.1	-70.1	0.0
2026-01-15 18:47:21.272427	329.7	13.9	-69.7	0.0
2026-01-15 18:47:23.522721	329.9	13.7	-67.6	0.0
2026-01-15 18:47:25.772364	330.1	13.5	-68.4	0.0
2026-01-15 18:47:28.020416	330.3	13.3	-69.1	0.0
2026-01-15 18:47:30.266965	330.5	13.1	-70.0	0.0
2026-01-15 18:47:32.514655	330.7	12.9	-69.7	0.0
2026-01-15 18:47:34.760173	330.9	12.7	-66.6	0.0
2026-01-15 18:47:37.008876	331.1	12.5	-69.4	0.0
2026-01-15 18:47:39.253817	331.3	12.3	-69.0	0.0
2026-01-15 18:47:41.498748	331.5	12.1	-69.8	0.0
2026-01-15 18:47:43.745576	331.6	11.9	-69.8	0.0
2026-01-15 18:47:45.993554	331.8	11.7	-70.8	0.0
2026-01-15 18:47:48.244502	332.0	11.5	-70.1	0.0
2026-01-15 18:47:50.492885	332.2	11.3	-70.9	0.0
2026-01-15 18:47:52.742799	332.3	11.1	-70.6	0.0
2026-01-15 18:47:54.992499	332.5	10.9	-70.7	0.0
2026-01-15 18:47:57.241132	332.7	10.7	-71.9	0.0
2026-01-15 18:47:59.490943	332.8	10.6	-73.6	0.0
2026-01-15 18:48:01.739447	333.0	10.4	-74.5	0.0
2026-01-15 18:48:03.986912	333.1	10.2	-77.4	0.0
2026-01-15 18:48:06.235893	333.3	10.0	-78.4	0.0
#Closed at: 2026-01-15 18:37:56.451128