passes_logs/2026/01/15/planumMaritime01/planumMaritime01__20260115_074025_METOP-B_rec.log

#Pass ID: 20260115_074025_METOP-B
#Satellite: METOP-B
#Configuration: METOP-B
#Start time: 2026-01-15 07:40:30.063462

#LorettStation: 1.0.0 05.05.2024
#Station: planumMaritime01
#Location: 37.49445 lon 55.92918 lat
#TLE: 1 38771U 12049A   26014.10299954  .00000088  00000+0  60141-4 0  9995
#TLE: 2 38771  98.6752  68.5059 0003295  78.6468 281.5080 14.21422114691378

#Time	Az	El	Level	SNR
2026-01-15 07:40:32.228652	12.2	10.2	-67.4	0.0
2026-01-15 07:40:34.476927	12.2	10.4	-66.0	0.0
2026-01-15 07:40:36.723207	12.1	10.6	-62.9	0.0
2026-01-15 07:40:38.969619	12.0	10.8	-65.0	0.0
2026-01-15 07:40:41.218923	12.0	11.0	-63.5	0.0
2026-01-15 07:40:43.460858	11.9	11.2	-62.8	0.0
2026-01-15 07:40:45.705685	11.8	11.4	-61.5	0.0
2026-01-15 07:40:47.949994	11.8	11.6	-61.9	0.0
2026-01-15 07:40:50.198771	11.7	11.8	-59.1	0.0
2026-01-15 07:40:52.441145	11.6	12.0	-61.7	0.0
2026-01-15 07:40:54.685692	11.6	12.2	-61.9	0.0
2026-01-15 07:40:56.934810	11.5	12.4	-58.6	0.0
2026-01-15 07:40:59.184460	11.4	12.6	-61.5	0.0
2026-01-15 07:41:01.432359	11.3	12.9	-62.0	0.0
2026-01-15 07:41:03.675727	11.3	13.1	-60.9	0.0
2026-01-15 07:41:05.919421	11.2	13.3	-61.2	0.0
2026-01-15 07:41:08.166822	11.1	13.5	-63.2	0.0
2026-01-15 07:41:10.411485	11.0	13.7	-63.4	0.0
2026-01-15 07:41:12.657337	11.0	14.0	-64.6	0.0
2026-01-15 07:41:14.901877	10.9	14.2	-62.3	0.0
2026-01-15 07:41:17.147581	10.8	14.4	-64.2	0.0
2026-01-15 07:41:19.392875	10.7	14.6	-60.6	0.0
2026-01-15 07:41:21.636468	10.6	14.9	-64.5	0.0
2026-01-15 07:41:23.879630	10.5	15.1	-65.1	0.0
2026-01-15 07:41:26.125088	10.4	15.3	-63.8	0.0
2026-01-15 07:41:28.372296	10.4	15.6	-63.3	0.0
2026-01-15 07:41:30.616649	10.3	15.8	-63.1	0.0
2026-01-15 07:41:32.863061	10.2	16.1	-62.6	0.0
2026-01-15 07:41:35.109442	10.1	16.3	-61.7	0.0
2026-01-15 07:41:37.354300	10.0	16.6	-60.2	0.0
2026-01-15 07:41:39.599076	9.9	16.8	-61.2	0.0
2026-01-15 07:41:41.846313	9.8	17.1	-62.2	0.0
2026-01-15 07:41:44.093251	9.7	17.3	-61.8	0.0
2026-01-15 07:41:46.339488	9.6	17.6	-62.0	0.0
2026-01-15 07:41:48.585270	9.5	17.9	-63.5	0.0
2026-01-15 07:41:50.831870	9.3	18.1	-63.5	0.0
2026-01-15 07:41:53.075149	9.2	18.4	-62.5	0.0
2026-01-15 07:41:55.321007	9.1	18.7	-64.7	0.0
2026-01-15 07:41:57.565574	9.0	18.9	-64.0	0.0
2026-01-15 07:41:59.809495	8.9	19.2	-63.6	0.0
2026-01-15 07:42:02.055966	8.8	19.5	-61.9	0.0
2026-01-15 07:42:04.298461	8.6	19.8	-64.0	0.0
2026-01-15 07:42:06.543143	8.5	20.1	-64.1	0.0
2026-01-15 07:42:08.787827	8.4	20.4	-64.0	0.0
2026-01-15 07:42:11.031625	8.3	20.6	-65.7	0.0
2026-01-15 07:42:13.277915	8.1	20.9	-63.5	0.0
2026-01-15 07:42:15.520845	8.0	21.2	-67.2	0.0
2026-01-15 07:42:17.765335	7.9	21.5	-65.1	0.0
2026-01-15 07:42:20.014165	7.7	21.9	-65.5	0.0
2026-01-15 07:42:22.259626	7.6	22.2	-67.0	0.0
2026-01-15 07:42:24.505832	7.4	22.5	-66.5	0.0
2026-01-15 07:42:26.748732	7.3	22.8	-66.0	0.0
2026-01-15 07:42:28.993843	7.1	23.1	-66.9	0.0
2026-01-15 07:42:31.238838	7.0	23.4	-64.9	0.0
2026-01-15 07:42:33.483825	6.8	23.8	-56.7	0.0
2026-01-15 07:42:35.730521	6.6	24.1	-66.5	0.0
2026-01-15 07:42:37.976140	6.5	24.4	-65.9	0.0
2026-01-15 07:42:40.223847	6.3	24.8	-66.1	0.0
2026-01-15 07:42:42.468944	6.1	25.1	-63.4	0.0
2026-01-15 07:42:44.717887	5.9	25.5	-64.6	0.0
2026-01-15 07:42:46.962943	5.8	25.8	-64.5	0.0
2026-01-15 07:42:49.207953	5.6	26.2	-65.4	0.0
2026-01-15 07:42:51.455098	5.4	26.5	-66.7	0.0
2026-01-15 07:42:53.703590	5.2	26.9	-65.9	0.0
2026-01-15 07:42:55.949020	5.0	27.3	-66.0	0.0
2026-01-15 07:42:58.191530	4.8	27.7	-66.2	0.0
2026-01-15 07:43:00.436565	4.5	28.0	-65.8	0.0
2026-01-15 07:43:02.680547	4.3	28.4	-62.2	0.0
2026-01-15 07:43:04.927141	4.1	28.8	-64.8	0.0
2026-01-15 07:43:07.172089	3.9	29.2	-66.1	0.0
2026-01-15 07:43:09.416634	3.6	29.6	-66.0	0.0
2026-01-15 07:43:11.663196	3.4	30.0	-64.1	0.0
2026-01-15 07:43:13.909048	3.1	30.4	-63.8	0.0
2026-01-15 07:43:16.153658	2.9	30.8	-63.1	0.0
2026-01-15 07:43:18.398799	2.6	31.3	-62.4	0.0
2026-01-15 07:43:20.644118	2.4	31.7	-62.6	0.0
2026-01-15 07:43:22.888877	2.1	32.1	-63.9	0.0
2026-01-15 07:43:25.135366	1.8	32.6	-64.3	0.0
2026-01-15 07:43:27.378602	1.5	33.0	-63.9	0.0
2026-01-15 07:43:29.622273	1.2	33.5	-62.6	0.0
2026-01-15 07:43:31.868461	0.9	33.9	-61.6	0.0
2026-01-15 07:43:34.112944	0.6	34.4	-64.2	0.0
2026-01-15 07:43:36.357271	0.3	34.9	-62.5	0.0
2026-01-15 07:43:38.600848	359.9	35.3	-66.3	0.0
2026-01-15 07:43:40.848207	359.6	35.8	-66.9	0.0
2026-01-15 07:43:43.095968	359.2	36.3	-67.3	0.0
2026-01-15 07:43:45.339629	358.8	36.8	-65.1	0.0
2026-01-15 07:43:47.588089	358.5	37.3	-64.7	0.0
2026-01-15 07:43:49.832027	358.1	37.8	-67.8	0.0
2026-01-15 07:43:52.079553	357.7	38.3	-67.6	0.0
2026-01-15 07:43:54.326234	357.2	38.8	-68.8	0.9
2026-01-15 07:43:56.568732	356.8	39.3	-68.2	0.0
2026-01-15 07:43:58.813764	356.4	39.9	-68.7	1.5
2026-01-15 07:44:01.060114	355.9	40.4	-66.8	0.0
2026-01-15 07:44:03.303154	355.4	40.9	-69.1	2.7
2026-01-15 07:44:05.549239	354.9	41.5	-69.0	2.2
2026-01-15 07:44:07.794089	354.4	42.0	-66.6	0.0
2026-01-15 07:44:10.040560	353.9	42.6	-67.0	0.4
2026-01-15 07:44:12.284731	353.3	43.2	-68.5	3.6
2026-01-15 07:44:14.530167	352.7	43.7	-65.6	0.0
2026-01-15 07:44:16.777760	352.1	44.3	-67.5	1.5
2026-01-15 07:44:19.025692	351.5	44.9	-68.9	3.5
2026-01-15 07:44:21.269612	350.9	45.5	-67.6	0.6
2026-01-15 07:44:23.519525	350.2	46.1	-69.1	2.0
2026-01-15 07:44:25.765315	349.5	46.7	-69.6	2.7
2026-01-15 07:44:28.011626	348.8	47.3	-70.4	4.3
2026-01-15 07:44:30.254677	348.1	47.9	-70.4	5.2
2026-01-15 07:44:32.499942	347.3	48.5	-70.4	4.5
2026-01-15 07:44:34.748783	346.5	49.1	-70.5	3.7
2026-01-15 07:44:36.992811	345.7	49.7	-72.1	7.0
2026-01-15 07:44:39.235726	344.8	50.3	-71.1	3.9
2026-01-15 07:44:41.482566	343.9	50.9	-71.0	4.9
2026-01-15 07:44:43.727043	342.9	51.5	-70.4	6.7
2026-01-15 07:44:45.974378	342.0	52.1	-70.7	6.3
2026-01-15 07:44:48.220242	340.9	52.7	-71.4	8.6
2026-01-15 07:44:50.467599	339.9	53.3	-70.9	7.9
2026-01-15 07:44:52.713614	338.7	53.9	-70.5	6.2
2026-01-15 07:44:54.955146	337.6	54.5	-69.9	6.7
2026-01-15 07:44:57.201486	336.4	55.1	-70.0	6.0
2026-01-15 07:44:59.446723	335.1	55.7	-70.0	5.7
2026-01-15 07:45:01.694382	333.8	56.3	-70.6	7.3
2026-01-15 07:45:03.940590	332.4	56.8	-70.3	3.3
2026-01-15 07:45:06.191029	331.0	57.4	-69.9	4.3
2026-01-15 07:45:08.435460	329.5	57.9	-68.9	3.0
2026-01-15 07:45:10.677331	327.9	58.5	-70.5	4.8
2026-01-15 07:45:12.922367	326.3	59.0	-71.1	4.9
2026-01-15 07:45:15.168074	324.6	59.5	-70.6	4.7
2026-01-15 07:45:17.413851	322.9	60.0	-70.3	3.8
2026-01-15 07:45:19.664876	321.1	60.4	-70.0	6.0
2026-01-15 07:45:21.909209	319.2	60.9	-69.8	4.9
2026-01-15 07:45:24.154827	317.2	61.3	-70.9	6.4
2026-01-15 07:45:26.398965	315.2	61.6	-71.1	6.7
2026-01-15 07:45:28.643781	313.2	62.0	-71.3	7.0
2026-01-15 07:45:30.890429	311.1	62.3	-71.7	4.2
2026-01-15 07:45:33.133080	308.9	62.6	-70.2	5.7
2026-01-15 07:45:35.381719	306.7	62.8	-69.9	4.0
2026-01-15 07:45:37.626399	304.4	63.1	-71.6	7.1
2026-01-15 07:45:39.870255	302.1	63.2	-70.0	4.4
2026-01-15 07:45:42.113804	299.8	63.4	-69.3	1.3
2026-01-15 07:45:44.360676	297.4	63.5	-69.4	2.9
2026-01-15 07:45:46.605619	295.0	63.5	-72.1	5.4
2026-01-15 07:45:48.852674	292.7	63.6	-71.0	8.1
2026-01-15 07:45:51.098423	290.3	63.5	-69.6	3.6
2026-01-15 07:45:53.343155	287.9	63.5	-71.2	4.7
2026-01-15 07:45:55.591698	285.5	63.4	-70.3	6.0
2026-01-15 07:45:57.837286	283.2	63.2	-72.5	7.8
2026-01-15 07:46:00.081667	280.9	63.0	-72.9	7.5
2026-01-15 07:46:02.326346	278.6	62.8	-72.2	5.2
2026-01-15 07:46:04.570674	276.4	62.6	-72.0	4.8
2026-01-15 07:46:06.815569	274.2	62.3	-72.4	6.6
2026-01-15 07:46:09.059804	272.1	62.0	-72.7	7.0
2026-01-15 07:46:11.304557	270.1	61.6	-72.1	6.0
2026-01-15 07:46:13.552339	268.1	61.2	-73.1	7.5
2026-01-15 07:46:15.798820	266.1	60.8	-73.1	7.8
2026-01-15 07:46:18.043852	264.3	60.4	-73.5	9.5
2026-01-15 07:46:20.289424	262.5	59.9	-72.4	7.5
2026-01-15 07:46:22.537117	260.7	59.4	-72.1	6.5
2026-01-15 07:46:24.783657	259.0	59.0	-73.6	9.4
2026-01-15 07:46:27.029132	257.4	58.4	-73.3	9.6
2026-01-15 07:46:29.276401	255.9	57.9	-73.2	8.1
2026-01-15 07:46:31.521443	254.4	57.4	-73.5	8.3
2026-01-15 07:46:33.765278	252.9	56.8	-73.3	7.5
2026-01-15 07:46:36.010961	251.6	56.2	-73.4	8.6
2026-01-15 07:46:38.257891	250.2	55.6	-73.6	9.0
2026-01-15 07:46:40.506926	249.0	55.1	-73.7	8.5
2026-01-15 07:46:42.756573	247.8	54.5	-73.7	8.9
2026-01-15 07:46:45.002389	246.6	53.9	-73.3	7.7
2026-01-15 07:46:47.246718	245.5	53.3	-73.9	9.9
2026-01-15 07:46:49.493698	244.4	52.7	-73.6	9.3
2026-01-15 07:46:51.737347	243.4	52.0	-73.6	9.3
2026-01-15 07:46:53.981370	242.4	51.4	-73.6	9.0
2026-01-15 07:46:56.224150	241.5	50.8	-73.7	9.6
2026-01-15 07:46:58.470019	240.6	50.2	-73.4	9.4
2026-01-15 07:47:00.712884	239.7	49.6	-74.0	10.6
2026-01-15 07:47:02.959825	238.8	49.0	-73.4	10.2
2026-01-15 07:47:05.209230	238.0	48.4	-73.2	9.9
2026-01-15 07:47:07.452483	237.3	47.8	-73.2	9.8
2026-01-15 07:47:09.698781	236.5	47.2	-73.5	10.0
2026-01-15 07:47:11.948809	235.8	46.6	-73.0	9.0
2026-01-15 07:47:14.194541	235.1	46.0	-73.4	10.5
2026-01-15 07:47:16.442050	234.5	45.4	-73.4	9.6
2026-01-15 07:47:18.690256	233.8	44.8	-73.9	9.0
2026-01-15 07:47:20.936445	233.2	44.2	-73.7	9.1
2026-01-15 07:47:23.180134	232.6	43.6	-73.8	10.4
2026-01-15 07:47:25.427302	232.0	43.1	-73.5	10.2
2026-01-15 07:47:27.672219	231.5	42.5	-74.1	9.4
2026-01-15 07:47:29.914323	231.0	41.9	-73.9	10.2
2026-01-15 07:47:32.159752	230.4	41.4	-73.2	9.5
2026-01-15 07:47:34.407188	230.0	40.8	-73.7	11.3
2026-01-15 07:47:36.652940	229.5	40.3	-73.9	9.9
2026-01-15 07:47:38.897356	229.0	39.8	-73.9	9.9
2026-01-15 07:47:41.140491	228.6	39.2	-74.2	10.6
2026-01-15 07:47:43.386082	228.1	38.7	-74.1	9.4
2026-01-15 07:47:45.633437	227.7	38.2	-74.2	9.9
2026-01-15 07:47:47.879703	227.3	37.7	-74.5	10.3
2026-01-15 07:47:50.126518	226.9	37.2	-74.3	10.3
2026-01-15 07:47:52.370452	226.5	36.7	-74.6	8.9
2026-01-15 07:47:54.617756	226.2	36.2	-74.2	9.3
2026-01-15 07:47:56.860973	225.8	35.7	-74.8	10.1
2026-01-15 07:47:59.109323	225.4	35.2	-74.6	10.3
2026-01-15 07:48:01.354828	225.1	34.7	-74.6	10.0
2026-01-15 07:48:03.597081	224.8	34.3	-74.4	9.1
2026-01-15 07:48:05.845188	224.5	33.8	-74.5	9.3
2026-01-15 07:48:08.091395	224.1	33.3	-74.4	9.7
2026-01-15 07:48:10.337167	223.8	32.9	-75.0	9.7
2026-01-15 07:48:12.586118	223.5	32.4	-74.7	9.7
2026-01-15 07:48:14.831185	223.3	32.0	-74.8	8.5
2026-01-15 07:48:17.075120	223.0	31.6	-74.8	9.5
2026-01-15 07:48:19.322087	222.7	31.1	-74.6	9.4
2026-01-15 07:48:21.567182	222.5	30.7	-74.3	9.1
2026-01-15 07:48:23.809070	222.2	30.3	-74.2	8.6
2026-01-15 07:48:26.052894	222.0	29.9	-73.9	8.2
2026-01-15 07:48:28.300684	221.7	29.5	-74.3	7.8
2026-01-15 07:48:30.548616	221.5	29.1	-74.1	7.6
2026-01-15 07:48:32.793899	221.2	28.7	-74.2	6.7
2026-01-15 07:48:35.036812	221.0	28.3	-74.1	3.9
2026-01-15 07:48:37.280814	220.8	27.9	-74.0	6.3
2026-01-15 07:48:39.527548	220.6	27.5	-73.6	6.0
2026-01-15 07:48:41.770956	220.4	27.1	-73.9	3.8
2026-01-15 07:48:44.015498	220.2	26.8	-73.3	5.7
2026-01-15 07:48:46.261069	220.0	26.4	-73.1	3.9
2026-01-15 07:48:48.504337	219.8	26.0	-72.7	4.8
2026-01-15 07:48:50.749669	219.6	25.7	-73.3	4.1
2026-01-15 07:48:52.990987	219.4	25.3	-73.3	5.5
2026-01-15 07:48:55.236533	219.2	25.0	-73.2	5.2
2026-01-15 07:48:57.482168	219.0	24.6	-73.3	5.5
2026-01-15 07:48:59.728485	218.9	24.3	-73.1	3.2
2026-01-15 07:49:01.973270	218.7	24.0	-73.0	2.7
2026-01-15 07:49:04.219528	218.5	23.6	-73.2	4.6
2026-01-15 07:49:06.464668	218.4	23.3	-73.4	5.5
2026-01-15 07:49:08.710766	218.2	23.0	-73.3	0.8
2026-01-15 07:49:10.955133	218.1	22.6	-72.5	3.7
2026-01-15 07:49:13.197526	217.9	22.3	-72.6	1.5
2026-01-15 07:49:15.441003	217.8	22.0	-72.8	1.0
2026-01-15 07:49:17.686948	217.6	21.7	-72.5	2.5
2026-01-15 07:49:19.935025	217.5	21.4	-72.4	2.9
2026-01-15 07:49:22.177927	217.3	21.1	-72.6	1.7
2026-01-15 07:49:24.425573	217.2	20.8	-73.3	0.9
2026-01-15 07:49:26.674231	217.1	20.5	-72.4	1.3
2026-01-15 07:49:28.919567	216.9	20.2	-72.4	0.8
2026-01-15 07:49:31.164693	216.8	19.9	-73.0	0.0
2026-01-15 07:49:33.408522	216.7	19.6	-72.0	1.8
2026-01-15 07:49:35.652206	216.5	19.3	-72.7	0.2
2026-01-15 07:49:37.899329	216.4	19.1	-73.0	3.5
2026-01-15 07:49:40.146773	216.3	18.8	-72.5	0.0
2026-01-15 07:49:42.389067	216.2	18.5	-72.6	1.5
2026-01-15 07:49:44.628862	216.1	18.2	-73.0	0.0
2026-01-15 07:49:46.876151	216.0	18.0	-72.0	0.0
2026-01-15 07:49:49.124008	215.8	17.7	-71.9	0.0
2026-01-15 07:49:51.369400	215.7	17.4	-72.5	0.0
2026-01-15 07:49:53.613225	215.6	17.2	-71.5	0.0
2026-01-15 07:49:55.858555	215.5	16.9	-71.5	0.0
2026-01-15 07:49:58.103372	215.4	16.7	-72.5	0.0
2026-01-15 07:50:00.345559	215.3	16.4	-71.1	0.0
2026-01-15 07:50:02.587523	215.2	16.2	-73.2	0.0
2026-01-15 07:50:04.831798	215.1	15.9	-71.4	0.0
2026-01-15 07:50:07.076470	215.0	15.7	-72.0	0.0
2026-01-15 07:50:09.318672	214.9	15.4	-72.1	0.0
2026-01-15 07:50:11.562770	214.8	15.2	-72.3	0.0
2026-01-15 07:50:13.811246	214.8	15.0	-71.4	0.0
2026-01-15 07:50:16.057049	214.7	14.7	-71.7	0.0
2026-01-15 07:50:18.299869	214.6	14.5	-71.3	0.0
2026-01-15 07:50:20.544750	214.5	14.3	-71.9	0.0
2026-01-15 07:50:22.792200	214.4	14.0	-73.4	0.0
2026-01-15 07:50:25.038173	214.3	13.8	-71.5	0.0
2026-01-15 07:50:27.280294	214.2	13.6	-71.0	0.0
2026-01-15 07:50:29.526834	214.2	13.3	-71.4	0.0
2026-01-15 07:50:31.775365	214.1	13.1	-71.9	0.0
2026-01-15 07:50:34.022000	214.0	12.9	-72.3	0.0
2026-01-15 07:50:36.267282	213.9	12.7	-71.8	0.0
2026-01-15 07:50:38.512887	213.8	12.5	-72.2	0.0
2026-01-15 07:50:40.758532	213.8	12.3	-70.9	0.0
2026-01-15 07:50:43.006650	213.7	12.0	-71.7	0.0
2026-01-15 07:50:45.248573	213.6	11.8	-71.8	0.0
2026-01-15 07:50:47.492017	213.6	11.6	-71.0	0.0
2026-01-15 07:50:49.735307	213.5	11.4	-71.1	0.0
2026-01-15 07:50:51.980531	213.4	11.2	-72.2	0.0
2026-01-15 07:50:54.228038	213.3	11.0	-71.4	0.0
2026-01-15 07:50:56.472493	213.3	10.8	-73.0	0.0
2026-01-15 07:50:58.716484	213.2	10.6	-75.8	0.0
2026-01-15 07:51:00.963347	213.1	10.4	-77.3	0.0
2026-01-15 07:51:03.208605	213.1	10.2	-78.8	0.0
#Closed at: 2026-01-15 07:40:25.070206