passes_logs/2026/01/15/planumMaritime01/planumMaritime01__20260115_063912_METOP-C_rec.log

#Pass ID: 20260115_063912_METOP-C
#Satellite: METOP-C
#Configuration: METOP-C
#Start time: 2026-01-15 06:39:17.051105

#LorettStation: 1.0.0 05.05.2024
#Station: planumMaritime01
#Location: 37.49445 lon 55.92918 lat
#TLE: 1 43689U 18087A   26014.12997339  .00000084  00000+0  58125-4 0  9996
#TLE: 2 43689  98.6881  76.3953 0000492 186.3195 173.7977 14.21498107372946

#Time	Az	El	Level	SNR
2026-01-15 06:39:19.219682	31.4	10.2	-70.3	0.0
2026-01-15 06:39:21.466545	31.6	10.3	-67.4	0.0
2026-01-15 06:39:23.709949	31.8	10.5	-64.4	0.0
2026-01-15 06:39:25.955473	32.0	10.7	-57.2	0.0
2026-01-15 06:39:28.196596	32.3	10.8	-59.5	0.0
2026-01-15 06:39:30.442263	32.5	11.0	-58.2	0.0
2026-01-15 06:39:32.686301	32.7	11.2	-56.8	0.0
2026-01-15 06:39:34.927374	32.9	11.4	-57.0	0.0
2026-01-15 06:39:37.172441	33.2	11.5	-59.1	0.0
2026-01-15 06:39:39.418831	33.4	11.7	-57.6	0.0
2026-01-15 06:39:41.663797	33.6	11.9	-57.6	0.0
2026-01-15 06:39:43.911585	33.9	12.1	-56.8	0.0
2026-01-15 06:39:46.158296	34.1	12.2	-59.0	0.0
2026-01-15 06:39:48.404560	34.3	12.4	-57.1	0.0
2026-01-15 06:39:50.646672	34.6	12.6	-56.5	0.0
2026-01-15 06:39:52.891585	34.8	12.8	-55.5	0.0
2026-01-15 06:39:55.134737	35.1	12.9	-52.2	0.0
2026-01-15 06:39:57.376419	35.3	13.1	-57.2	0.0
2026-01-15 06:39:59.624448	35.6	13.3	-58.9	0.0
2026-01-15 06:40:01.870931	35.9	13.5	-57.2	0.0
2026-01-15 06:40:04.116582	36.1	13.7	-55.5	0.0
2026-01-15 06:40:06.362685	36.4	13.9	-58.8	0.0
2026-01-15 06:40:08.607181	36.7	14.1	-55.9	0.0
2026-01-15 06:40:10.852452	36.9	14.2	-58.0	0.0
2026-01-15 06:40:13.097449	37.2	14.4	-60.2	0.0
2026-01-15 06:40:15.344359	37.5	14.6	-59.0	0.0
2026-01-15 06:40:17.589666	37.8	14.8	-59.9	0.0
2026-01-15 06:40:19.838364	38.1	15.0	-60.1	0.0
2026-01-15 06:40:22.084542	38.4	15.2	-61.9	0.0
2026-01-15 06:40:24.330585	38.6	15.4	-60.1	0.0
2026-01-15 06:40:26.572815	38.9	15.6	-61.6	0.0
2026-01-15 06:40:28.818218	39.2	15.8	-62.5	0.0
2026-01-15 06:40:31.060345	39.6	16.0	-61.2	0.0
2026-01-15 06:40:33.305252	39.9	16.2	-59.0	0.0
2026-01-15 06:40:35.549572	40.2	16.3	-62.8	0.0
2026-01-15 06:40:37.795141	40.5	16.5	-61.6	0.0
2026-01-15 06:40:40.039999	40.8	16.7	-63.2	0.0
2026-01-15 06:40:42.284586	41.1	16.9	-62.5	0.0
2026-01-15 06:40:44.529756	41.5	17.1	-64.2	0.0
2026-01-15 06:40:46.773561	41.8	17.3	-63.5	0.0
2026-01-15 06:40:49.018130	42.1	17.5	-64.8	0.0
2026-01-15 06:40:51.263330	42.5	17.7	-64.0	0.0
2026-01-15 06:40:53.511027	42.8	17.9	-63.1	0.0
2026-01-15 06:40:55.755711	43.2	18.1	-64.6	0.0
2026-01-15 06:40:58.000813	43.5	18.4	-65.6	0.0
2026-01-15 06:41:00.245930	43.9	18.6	-65.5	0.0
2026-01-15 06:41:02.490991	44.3	18.8	-65.8	0.0
2026-01-15 06:41:04.739200	44.6	19.0	-65.4	0.0
2026-01-15 06:41:06.984780	45.0	19.2	-65.9	0.0
2026-01-15 06:41:09.229560	45.4	19.4	-64.1	0.0
2026-01-15 06:41:11.475764	45.8	19.6	-65.7	0.0
2026-01-15 06:41:13.724475	46.2	19.8	-63.7	0.0
2026-01-15 06:41:15.970111	46.6	20.0	-64.2	0.0
2026-01-15 06:41:18.218691	47.0	20.2	-67.7	0.0
2026-01-15 06:41:20.467557	47.4	20.4	-66.0	0.0
2026-01-15 06:41:22.709321	47.8	20.6	-65.5	0.0
2026-01-15 06:41:24.952548	48.2	20.8	-65.8	0.0
2026-01-15 06:41:27.197163	48.6	21.0	-64.7	0.0
2026-01-15 06:41:29.441067	49.1	21.3	-66.8	0.0
2026-01-15 06:41:31.690171	49.5	21.5	-66.2	0.0
2026-01-15 06:41:33.934428	49.9	21.7	-67.9	0.0
2026-01-15 06:41:36.179134	50.4	21.9	-66.6	0.0
2026-01-15 06:41:38.428329	50.8	22.1	-67.9	0.0
2026-01-15 06:41:40.672521	51.3	22.3	-67.0	0.0
2026-01-15 06:41:42.918566	51.8	22.5	-67.4	0.0
2026-01-15 06:41:45.167023	52.2	22.7	-68.3	0.0
2026-01-15 06:41:47.411648	52.7	22.9	-68.1	0.0
2026-01-15 06:41:49.655445	53.2	23.1	-68.3	0.0
2026-01-15 06:41:51.899305	53.7	23.3	-69.0	0.0
2026-01-15 06:41:54.145899	54.2	23.6	-67.3	0.0
2026-01-15 06:41:56.392602	54.7	23.8	-66.7	0.0
2026-01-15 06:41:58.636889	55.2	24.0	-67.2	0.0
2026-01-15 06:42:00.886612	55.7	24.2	-68.6	0.0
2026-01-15 06:42:03.138237	56.2	24.4	-67.5	0.0
2026-01-15 06:42:05.387357	56.8	24.6	-68.3	0.0
2026-01-15 06:42:07.633063	57.3	24.8	-67.1	0.0
2026-01-15 06:42:09.882421	57.8	25.0	-66.3	0.0
2026-01-15 06:42:12.130606	58.4	25.2	-67.7	0.0
2026-01-15 06:42:14.381502	58.9	25.4	-67.9	0.5
2026-01-15 06:42:16.631689	59.5	25.6	-67.5	0.0
2026-01-15 06:42:18.880758	60.1	25.8	-68.1	0.0
2026-01-15 06:42:21.123248	60.7	26.0	-66.9	0.0
2026-01-15 06:42:23.370257	61.2	26.2	-68.3	0.0
2026-01-15 06:42:25.620201	61.8	26.4	-67.4	0.0
2026-01-15 06:42:27.865362	62.4	26.6	-69.9	3.4
2026-01-15 06:42:30.108990	63.0	26.8	-69.1	3.8
2026-01-15 06:42:32.354317	63.7	26.9	-69.1	0.0
2026-01-15 06:42:34.600901	64.3	27.1	-69.7	1.9
2026-01-15 06:42:36.845480	64.9	27.3	-68.8	2.4
2026-01-15 06:42:39.084921	65.5	27.5	-70.1	0.8
2026-01-15 06:42:41.330669	66.2	27.7	-69.9	2.1
2026-01-15 06:42:43.574383	66.8	27.8	-70.2	3.2
2026-01-15 06:42:45.818819	67.5	28.0	-71.3	1.3
2026-01-15 06:42:48.067741	68.2	28.2	-71.8	4.1
2026-01-15 06:42:50.315747	68.8	28.4	-71.5	4.8
2026-01-15 06:42:52.561444	69.5	28.5	-70.0	4.9
2026-01-15 06:42:54.808542	70.2	28.7	-71.1	2.7
2026-01-15 06:42:57.055675	70.9	28.8	-71.6	4.3
2026-01-15 06:42:59.300795	71.6	29.0	-71.6	4.9
2026-01-15 06:43:01.547122	72.3	29.1	-70.6	2.3
2026-01-15 06:43:03.790358	73.0	29.3	-70.9	4.1
2026-01-15 06:43:06.035380	73.7	29.4	-70.5	1.4
2026-01-15 06:43:08.282588	74.4	29.6	-70.9	5.7
2026-01-15 06:43:10.527464	75.2	29.7	-69.7	2.4
2026-01-15 06:43:12.770471	75.9	29.8	-71.3	6.1
2026-01-15 06:43:15.020193	76.6	29.9	-71.3	6.7
2026-01-15 06:43:17.265727	77.4	30.1	-71.3	4.2
2026-01-15 06:43:19.512773	78.1	30.2	-71.7	4.8
2026-01-15 06:43:21.755822	78.9	30.3	-71.2	6.5
2026-01-15 06:43:24.001590	79.6	30.4	-70.7	3.4
2026-01-15 06:43:26.248493	80.4	30.5	-71.4	8.0
2026-01-15 06:43:28.493004	81.2	30.6	-71.7	7.9
2026-01-15 06:43:30.736745	82.0	30.7	-71.8	6.9
2026-01-15 06:43:32.982221	82.7	30.7	-72.2	7.0
2026-01-15 06:43:35.230759	83.5	30.8	-71.0	4.1
2026-01-15 06:43:37.477315	84.3	30.9	-72.1	8.5
2026-01-15 06:43:39.723311	85.1	31.0	-71.3	4.5
2026-01-15 06:43:41.967781	85.9	31.0	-70.5	5.0
2026-01-15 06:43:44.213416	86.7	31.1	-71.5	6.8
2026-01-15 06:43:46.456172	87.5	31.1	-72.7	9.1
2026-01-15 06:43:48.700925	88.3	31.2	-71.6	6.2
2026-01-15 06:43:50.944734	89.1	31.2	-72.3	7.9
2026-01-15 06:43:53.189953	89.9	31.2	-73.0	9.7
2026-01-15 06:43:55.435328	90.7	31.3	-72.0	7.1
2026-01-15 06:43:57.680084	91.5	31.3	-73.2	8.6
2026-01-15 06:43:59.921583	92.3	31.3	-71.7	7.9
2026-01-15 06:44:02.167082	93.1	31.3	-72.7	9.6
2026-01-15 06:44:04.410811	93.9	31.3	-71.7	5.9
2026-01-15 06:44:06.656976	94.7	31.3	-72.7	8.7
2026-01-15 06:44:08.903278	95.5	31.3	-72.2	6.4
2026-01-15 06:44:11.147307	96.3	31.3	-71.0	5.7
2026-01-15 06:44:13.391775	97.1	31.2	-71.4	8.8
2026-01-15 06:44:15.638124	97.9	31.2	-72.0	8.3
2026-01-15 06:44:17.882434	98.8	31.2	-71.8	8.6
2026-01-15 06:44:20.125217	99.6	31.1	-72.5	7.6
2026-01-15 06:44:22.367622	100.4	31.1	-72.4	8.6
2026-01-15 06:44:24.610537	101.1	31.0	-72.3	8.1
2026-01-15 06:44:26.854860	101.9	31.0	-71.9	7.1
2026-01-15 06:44:29.100332	102.7	30.9	-72.6	6.7
2026-01-15 06:44:31.348505	103.5	30.8	-72.5	8.9
2026-01-15 06:44:33.593718	104.3	30.8	-72.4	7.7
2026-01-15 06:44:35.839539	105.1	30.7	-72.1	6.1
2026-01-15 06:44:38.084376	105.9	30.6	-73.6	10.0
2026-01-15 06:44:40.328481	106.6	30.5	-73.0	9.8
2026-01-15 06:44:42.576775	107.4	30.4	-73.4	8.4
2026-01-15 06:44:44.824280	108.2	30.3	-72.5	5.5
2026-01-15 06:44:47.069048	108.9	30.2	-72.4	8.6
2026-01-15 06:44:49.312922	109.7	30.1	-72.5	7.3
2026-01-15 06:44:51.557402	110.4	29.9	-72.9	8.2
2026-01-15 06:44:53.800625	111.2	29.8	-72.2	5.8
2026-01-15 06:44:56.045005	111.9	29.7	-72.5	7.0
2026-01-15 06:44:58.288149	112.6	29.6	-73.0	8.6
2026-01-15 06:45:00.532500	113.4	29.4	-73.4	8.5
2026-01-15 06:45:02.777587	114.1	29.3	-73.3	9.6
2026-01-15 06:45:05.021554	114.8	29.1	-73.0	9.5
2026-01-15 06:45:07.270349	115.5	29.0	-73.4	10.4
2026-01-15 06:45:09.515001	116.2	28.8	-73.1	8.8
2026-01-15 06:45:11.761942	116.9	28.7	-73.7	10.0
2026-01-15 06:45:14.010255	117.6	28.5	-73.5	9.5
2026-01-15 06:45:16.256140	118.3	28.4	-73.3	11.0
2026-01-15 06:45:18.500152	118.9	28.2	-73.7	10.1
2026-01-15 06:45:20.745054	119.6	28.0	-73.7	10.8
2026-01-15 06:45:22.987352	120.2	27.8	-73.1	9.0
2026-01-15 06:45:25.231326	120.9	27.7	-73.3	9.5
2026-01-15 06:45:27.478576	121.5	27.5	-73.0	8.9
2026-01-15 06:45:29.725081	122.2	27.3	-73.5	10.6
2026-01-15 06:45:31.971665	122.8	27.1	-73.3	9.3
2026-01-15 06:45:34.214248	123.4	26.9	-73.3	8.0
2026-01-15 06:45:36.459232	124.1	26.7	-73.7	10.3
2026-01-15 06:45:38.703847	124.7	26.6	-74.1	10.1
2026-01-15 06:45:40.951475	125.3	26.4	-73.1	8.1
2026-01-15 06:45:43.195211	125.9	26.2	-73.7	8.6
2026-01-15 06:45:45.440675	126.4	26.0	-73.5	8.4
2026-01-15 06:45:47.687331	127.0	25.8	-73.9	9.9
2026-01-15 06:45:49.930747	127.6	25.6	-73.8	9.2
2026-01-15 06:45:52.178261	128.2	25.4	-73.4	9.7
2026-01-15 06:45:54.423063	128.7	25.2	-73.7	7.4
2026-01-15 06:45:56.665495	129.3	25.0	-73.6	7.9
2026-01-15 06:45:58.912901	129.8	24.8	-73.8	8.6
2026-01-15 06:46:01.157297	130.4	24.6	-73.5	7.7
2026-01-15 06:46:03.403482	130.9	24.4	-73.7	7.4
2026-01-15 06:46:05.647379	131.4	24.2	-74.3	7.9
2026-01-15 06:46:07.892227	131.9	23.9	-73.8	7.1
2026-01-15 06:46:10.136541	132.5	23.7	-74.2	8.8
2026-01-15 06:46:12.385628	133.0	23.5	-74.1	7.6
2026-01-15 06:46:14.630849	133.5	23.3	-74.4	8.7
2026-01-15 06:46:16.876857	133.9	23.1	-74.1	8.0
2026-01-15 06:46:19.119933	134.4	22.9	-74.4	8.3
2026-01-15 06:46:21.364601	134.9	22.7	-73.7	7.6
2026-01-15 06:46:23.612359	135.4	22.5	-73.7	5.7
2026-01-15 06:46:25.859494	135.9	22.3	-74.0	7.2
2026-01-15 06:46:28.106030	136.3	22.0	-73.3	5.4
2026-01-15 06:46:30.349987	136.8	21.8	-74.1	5.7
2026-01-15 06:46:32.598872	137.2	21.6	-74.0	6.8
2026-01-15 06:46:34.844147	137.7	21.4	-73.2	5.8
2026-01-15 06:46:37.095449	138.1	21.2	-73.9	5.9
2026-01-15 06:46:39.341659	138.5	21.0	-73.5	6.0
2026-01-15 06:46:41.587227	139.0	20.8	-73.4	7.0
2026-01-15 06:46:43.830525	139.4	20.6	-73.9	6.6
2026-01-15 06:46:46.078110	139.8	20.4	-73.8	6.6
2026-01-15 06:46:48.323343	140.2	20.1	-74.3	7.1
2026-01-15 06:46:50.569616	140.6	19.9	-73.9	7.1
2026-01-15 06:46:52.814684	141.0	19.7	-73.9	7.8
2026-01-15 06:46:55.057640	141.4	19.5	-73.8	6.1
2026-01-15 06:46:57.303590	141.8	19.3	-73.5	5.6
2026-01-15 06:46:59.549795	142.2	19.1	-73.7	6.5
2026-01-15 06:47:01.793412	142.5	18.9	-73.7	6.9
2026-01-15 06:47:04.037333	142.9	18.7	-73.9	4.7
2026-01-15 06:47:06.286184	143.3	18.5	-73.4	7.6
2026-01-15 06:47:08.531538	143.6	18.3	-73.3	5.2
2026-01-15 06:47:10.777482	144.0	18.1	-73.2	4.3
2026-01-15 06:47:13.021491	144.3	17.9	-73.2	3.9
2026-01-15 06:47:15.270652	144.7	17.7	-73.7	4.6
2026-01-15 06:47:17.515679	145.0	17.5	-73.2	3.8
2026-01-15 06:47:19.760005	145.4	17.3	-73.0	2.5
2026-01-15 06:47:22.004192	145.7	17.1	-73.3	2.9
2026-01-15 06:47:24.251522	146.0	16.9	-72.4	2.3
2026-01-15 06:47:26.494945	146.4	16.7	-73.5	2.9
2026-01-15 06:47:28.739071	146.7	16.5	-72.8	3.2
2026-01-15 06:47:30.987619	147.0	16.3	-72.9	3.0
2026-01-15 06:47:33.231075	147.3	16.1	-73.3	2.3
2026-01-15 06:47:35.476473	147.6	15.9	-72.8	3.2
2026-01-15 06:47:37.721062	147.9	15.7	-72.7	1.4
2026-01-15 06:47:39.966581	148.2	15.5	-72.7	1.5
2026-01-15 06:47:42.213123	148.5	15.3	-73.2	2.9
2026-01-15 06:47:44.458820	148.8	15.1	-71.5	0.0
2026-01-15 06:47:46.700844	149.1	14.9	-72.3	0.0
2026-01-15 06:47:48.946586	149.4	14.7	-72.5	0.6
2026-01-15 06:47:51.189241	149.7	14.5	-73.9	1.4
2026-01-15 06:47:53.431537	150.0	14.3	-71.1	0.0
2026-01-15 06:47:55.675305	150.2	14.1	-73.4	0.7
2026-01-15 06:47:57.918403	150.5	13.9	-74.0	3.5
2026-01-15 06:48:00.161948	150.8	13.7	-73.7	2.4
2026-01-15 06:48:02.406205	151.1	13.6	-73.9	2.4
2026-01-15 06:48:04.649184	151.3	13.4	-73.9	3.7
2026-01-15 06:48:06.895596	151.6	13.2	-74.9	4.1
2026-01-15 06:48:09.140516	151.8	13.0	-74.9	3.6
2026-01-15 06:48:11.386643	152.1	12.8	-74.7	3.3
2026-01-15 06:48:13.630593	152.3	12.6	-73.8	1.0
2026-01-15 06:48:15.874860	152.6	12.5	-74.9	3.8
2026-01-15 06:48:18.121778	152.8	12.3	-74.2	3.9
2026-01-15 06:48:20.367968	153.1	12.1	-74.4	4.3
2026-01-15 06:48:22.615763	153.3	11.9	-74.7	2.8
2026-01-15 06:48:24.860949	153.6	11.7	-74.4	3.3
2026-01-15 06:48:27.104239	153.8	11.6	-74.3	2.6
2026-01-15 06:48:29.348297	154.0	11.4	-74.8	2.5
2026-01-15 06:48:31.592740	154.2	11.2	-75.2	1.7
2026-01-15 06:48:33.840202	154.5	11.0	-75.7	2.2
2026-01-15 06:48:36.083524	154.7	10.9	-74.5	1.3
2026-01-15 06:48:38.326398	154.9	10.7	-76.3	0.0
2026-01-15 06:48:40.571543	155.1	10.5	-77.6	0.0
2026-01-15 06:48:42.815151	155.4	10.4	-78.2	0.0
2026-01-15 06:48:45.058295	155.6	10.2	-79.6	0.0
2026-01-15 06:48:47.304536	155.8	10.0	-79.4	0.0
#Closed at: 2026-01-15 06:39:12.057705