passes_logs/2026/01/15/planumMaritime01/planumMaritime01__20260115_180851_METOP-C_rec.log

#Pass ID: 20260115_180851_METOP-C
#Satellite: METOP-C
#Configuration: METOP-C
#Start time: 2026-01-15 18:08:56.773067

#LorettStation: 1.0.0 05.05.2024
#Station: planumMaritime01
#Location: 37.49445 lon 55.92918 lat
#TLE: 1 43689U 18087A   26015.18579420  .00000072  00000+0  52830-4 0  9994
#TLE: 2 43689  98.6879  77.4344 0000553 183.5432 176.5742 14.21498340373097

#Time	Az	El	Level	SNR
2026-01-15 18:08:58.944438	164.3	10.2	-73.4	0.0
2026-01-15 18:09:01.191969	164.3	10.4	-73.7	0.0
2026-01-15 18:09:03.437328	164.3	10.6	-72.9	2.3
2026-01-15 18:09:05.685493	164.3	10.8	-73.1	3.0
2026-01-15 18:09:07.930760	164.3	11.0	-73.9	3.9
2026-01-15 18:09:10.180235	164.4	11.2	-73.3	3.6
2026-01-15 18:09:12.424448	164.4	11.4	-72.5	2.2
2026-01-15 18:09:14.668184	164.4	11.6	-73.9	4.1
2026-01-15 18:09:16.914599	164.4	11.8	-73.0	3.5
2026-01-15 18:09:19.159928	164.5	12.0	-73.2	2.4
2026-01-15 18:09:21.405647	164.5	12.3	-72.5	4.0
2026-01-15 18:09:23.650595	164.5	12.5	-72.7	4.7
2026-01-15 18:09:25.894986	164.5	12.7	-72.4	2.4
2026-01-15 18:09:28.142947	164.6	12.9	-72.7	2.7
2026-01-15 18:09:30.387188	164.6	13.1	-72.1	2.0
2026-01-15 18:09:32.636947	164.6	13.4	-72.6	4.2
2026-01-15 18:09:34.886688	164.6	13.6	-72.5	3.3
2026-01-15 18:09:37.131964	164.7	13.8	-72.5	0.9
2026-01-15 18:09:39.377524	164.7	14.0	-72.0	2.4
2026-01-15 18:09:41.623874	164.7	14.3	-72.4	2.8
2026-01-15 18:09:43.867568	164.7	14.5	-72.7	2.2
2026-01-15 18:09:46.111154	164.8	14.8	-72.3	3.4
2026-01-15 18:09:48.353987	164.8	15.0	-72.0	3.9
2026-01-15 18:09:50.598745	164.8	15.2	-71.9	2.0
2026-01-15 18:09:52.843354	164.8	15.5	-71.8	2.1
2026-01-15 18:09:55.088348	164.9	15.7	-71.3	1.5
2026-01-15 18:09:57.336976	164.9	16.0	-71.9	2.8
2026-01-15 18:09:59.581712	164.9	16.2	-72.1	2.2
2026-01-15 18:10:01.829318	165.0	16.5	-72.2	2.6
2026-01-15 18:10:04.073282	165.0	16.7	-72.0	3.7
2026-01-15 18:10:06.319195	165.0	17.0	-71.9	3.9
2026-01-15 18:10:08.564074	165.1	17.3	-72.1	4.0
2026-01-15 18:10:10.812302	165.1	17.5	-72.0	4.6
2026-01-15 18:10:13.057543	165.1	17.8	-71.8	0.1
2026-01-15 18:10:15.302804	165.1	18.1	-71.8	3.6
2026-01-15 18:10:17.548372	165.2	18.4	-71.5	3.7
2026-01-15 18:10:19.797930	165.2	18.6	-72.0	3.6
2026-01-15 18:10:22.044714	165.2	18.9	-71.8	3.4
2026-01-15 18:10:24.292724	165.3	19.2	-72.2	6.6
2026-01-15 18:10:26.540615	165.3	19.5	-72.2	4.3
2026-01-15 18:10:28.783823	165.4	19.8	-72.4	4.5
2026-01-15 18:10:31.030404	165.4	20.1	-72.1	5.8
2026-01-15 18:10:33.274131	165.4	20.4	-72.3	6.4
2026-01-15 18:10:35.521063	165.5	20.7	-72.3	4.7
2026-01-15 18:10:37.768708	165.5	21.0	-72.6	5.2
2026-01-15 18:10:40.015404	165.5	21.3	-71.8	5.9
2026-01-15 18:10:42.258827	165.6	21.6	-72.5	7.3
2026-01-15 18:10:44.505631	165.6	21.9	-72.1	6.3
2026-01-15 18:10:46.750942	165.7	22.2	-72.3	6.9
2026-01-15 18:10:49.000230	165.7	22.6	-71.9	6.5
2026-01-15 18:10:51.244566	165.7	22.9	-72.2	6.7
2026-01-15 18:10:53.488419	165.8	23.2	-71.1	5.8
2026-01-15 18:10:55.738536	165.8	23.6	-71.9	6.2
2026-01-15 18:10:57.984880	165.9	23.9	-71.9	2.9
2026-01-15 18:11:00.234323	165.9	24.3	-71.5	3.8
2026-01-15 18:11:02.477582	166.0	24.6	-72.3	7.8
2026-01-15 18:11:04.721225	166.0	25.0	-72.0	7.6
2026-01-15 18:11:06.968668	166.0	25.3	-72.0	5.7
2026-01-15 18:11:09.212572	166.1	25.7	-71.2	5.4
2026-01-15 18:11:11.461634	166.1	26.1	-69.9	6.0
2026-01-15 18:11:13.710161	166.2	26.5	-71.7	4.9
2026-01-15 18:11:15.954776	166.2	26.8	-71.7	6.4
2026-01-15 18:11:18.201025	166.3	27.2	-71.9	6.6
2026-01-15 18:11:20.443988	166.4	27.6	-71.7	6.5
2026-01-15 18:11:22.692517	166.4	28.0	-72.1	7.3
2026-01-15 18:11:24.941081	166.5	28.4	-70.7	5.2
2026-01-15 18:11:27.188623	166.5	28.8	-71.9	7.5
2026-01-15 18:11:29.432616	166.6	29.3	-71.7	6.1
2026-01-15 18:11:31.676877	166.6	29.7	-72.1	7.0
2026-01-15 18:11:33.921442	166.7	30.1	-71.6	6.1
2026-01-15 18:11:36.168222	166.8	30.6	-71.7	7.0
2026-01-15 18:11:38.412827	166.8	31.0	-71.6	6.2
2026-01-15 18:11:40.659680	166.9	31.5	-71.2	7.5
2026-01-15 18:11:42.908084	167.0	31.9	-71.2	7.5
2026-01-15 18:11:45.153045	167.0	32.4	-71.8	9.2
2026-01-15 18:11:47.398282	167.1	32.9	-71.3	7.5
2026-01-15 18:11:49.643139	167.2	33.3	-71.9	9.5
2026-01-15 18:11:51.882847	167.2	33.8	-72.1	9.7
2026-01-15 18:11:54.128051	167.3	34.3	-72.5	11.1
2026-01-15 18:11:56.372636	167.4	34.8	-72.4	10.8
2026-01-15 18:11:58.615337	167.5	35.3	-72.9	10.0
2026-01-15 18:12:00.860069	167.6	35.8	-72.8	10.0
2026-01-15 18:12:03.103352	167.7	36.4	-73.1	11.3
2026-01-15 18:12:05.347953	167.7	36.9	-73.2	8.1
2026-01-15 18:12:07.594327	167.8	37.5	-73.0	11.1
2026-01-15 18:12:09.841149	167.9	38.0	-73.0	11.4
2026-01-15 18:12:12.084747	168.0	38.6	-73.3	11.6
2026-01-15 18:12:14.332931	168.1	39.2	-73.8	11.9
2026-01-15 18:12:16.580306	168.2	39.7	-73.4	11.5
2026-01-15 18:12:18.824902	168.3	40.3	-73.8	12.6
2026-01-15 18:12:21.073558	168.4	40.9	-73.0	13.1
2026-01-15 18:12:23.321079	168.6	41.5	-72.9	13.3
2026-01-15 18:12:25.570101	168.7	42.2	-72.8	13.8
2026-01-15 18:12:27.815881	168.8	42.8	-72.1	12.8
2026-01-15 18:12:30.064490	168.9	43.5	-72.6	12.5
2026-01-15 18:12:32.309035	169.1	44.1	-72.6	12.3
2026-01-15 18:12:34.558726	169.2	44.8	-72.5	11.6
2026-01-15 18:12:36.804875	169.4	45.5	-72.2	11.0
2026-01-15 18:12:39.053106	169.5	46.1	-73.0	11.6
2026-01-15 18:12:41.299787	169.7	46.9	-73.2	12.3
2026-01-15 18:12:43.544164	169.8	47.6	-72.8	11.8
2026-01-15 18:12:45.792748	170.0	48.3	-73.0	12.2
2026-01-15 18:12:48.037527	170.2	49.0	-72.6	11.4
2026-01-15 18:12:50.284377	170.4	49.8	-72.8	12.8
2026-01-15 18:12:52.531900	170.6	50.5	-72.5	11.2
2026-01-15 18:12:54.774558	170.8	51.3	-72.4	11.0
2026-01-15 18:12:57.023312	171.0	52.1	-72.7	10.8
2026-01-15 18:12:59.269043	171.2	52.9	-72.6	12.2
2026-01-15 18:13:01.513420	171.5	53.7	-72.2	10.7
2026-01-15 18:13:03.758800	171.7	54.5	-72.3	11.0
2026-01-15 18:13:06.004240	172.0	55.4	-72.9	12.5
2026-01-15 18:13:08.248442	172.3	56.2	-73.2	10.8
2026-01-15 18:13:10.495971	172.6	57.1	-73.3	11.1
2026-01-15 18:13:12.744891	172.9	58.0	-73.6	11.7
2026-01-15 18:13:14.992422	173.2	58.9	-73.0	10.7
2026-01-15 18:13:17.237300	173.6	59.8	-72.8	10.7
2026-01-15 18:13:19.483175	174.0	60.7	-73.0	10.7
2026-01-15 18:13:21.728486	174.4	61.6	-72.6	11.8
2026-01-15 18:13:23.972062	174.9	62.5	-72.3	10.8
2026-01-15 18:13:26.218398	175.4	63.5	-71.8	11.3
2026-01-15 18:13:28.464847	175.9	64.4	-72.2	13.1
2026-01-15 18:13:30.708036	176.5	65.4	-72.2	13.2
2026-01-15 18:13:32.953813	177.1	66.4	-72.4	12.6
2026-01-15 18:13:35.196778	177.8	67.4	-72.8	13.4
2026-01-15 18:13:37.440342	178.6	68.3	-72.8	9.7
2026-01-15 18:13:39.685996	179.4	69.3	-73.2	9.9
2026-01-15 18:13:41.929450	180.3	70.4	-73.5	8.2
2026-01-15 18:13:44.172459	181.4	71.4	-73.7	7.9
2026-01-15 18:13:46.418849	182.5	72.4	-73.5	8.1
2026-01-15 18:13:48.662539	183.9	73.4	-73.5	7.7
2026-01-15 18:13:50.907575	185.3	74.4	-72.7	7.5
2026-01-15 18:13:53.152991	187.1	75.4	-73.0	8.9
2026-01-15 18:13:55.397829	189.0	76.4	-73.2	8.8
2026-01-15 18:13:57.643047	191.3	77.4	-72.3	9.3
2026-01-15 18:13:59.885487	194.0	78.4	-72.0	8.8
2026-01-15 18:14:02.133265	197.2	79.4	-71.9	9.7
2026-01-15 18:14:04.378425	201.0	80.3	-70.5	6.6
2026-01-15 18:14:06.627477	205.7	81.2	-72.0	9.8
2026-01-15 18:14:08.874331	211.3	82.0	-71.6	8.1
2026-01-15 18:14:11.117921	218.1	82.7	-71.6	6.5
2026-01-15 18:14:13.362155	226.2	83.3	-71.5	9.7
2026-01-15 18:14:15.608981	235.8	83.7	-72.0	8.7
2026-01-15 18:14:17.852063	246.4	84.0	-71.7	7.3
2026-01-15 18:14:20.095647	257.5	84.0	-71.7	6.4
2026-01-15 18:14:22.339744	268.3	83.8	-71.1	5.0
2026-01-15 18:14:24.585250	278.1	83.4	-71.4	6.1
2026-01-15 18:14:26.833166	286.6	82.9	-71.8	5.1
2026-01-15 18:14:29.079192	293.7	82.2	-71.5	7.1
2026-01-15 18:14:31.321688	299.6	81.4	-70.5	8.3
2026-01-15 18:14:33.565499	304.5	80.5	-71.1	8.5
2026-01-15 18:14:35.808379	308.5	79.6	-70.5	4.0
2026-01-15 18:14:38.054192	311.8	78.7	-70.7	8.1
2026-01-15 18:14:40.301725	314.6	77.7	-69.7	4.6
2026-01-15 18:14:42.544815	317.0	76.7	-70.7	5.8
2026-01-15 18:14:44.793999	319.1	75.7	-71.3	5.4
2026-01-15 18:14:47.042493	320.8	74.7	-70.3	4.7
2026-01-15 18:14:49.286039	322.4	73.7	-71.8	6.0
2026-01-15 18:14:51.530303	323.7	72.7	-71.1	0.5
2026-01-15 18:14:53.778186	324.9	71.6	-72.6	2.8
2026-01-15 18:14:56.022020	326.0	70.6	-70.5	2.1
2026-01-15 18:14:58.265712	327.0	69.6	-71.2	5.2
2026-01-15 18:15:00.514033	327.8	68.6	-71.8	7.3
2026-01-15 18:15:02.759849	328.6	67.6	-71.3	2.0
2026-01-15 18:15:05.004445	329.3	66.6	-71.1	2.2
2026-01-15 18:15:07.252334	330.0	65.7	-71.0	3.1
2026-01-15 18:15:09.496244	330.5	64.7	-70.1	2.6
2026-01-15 18:15:11.738404	331.1	63.7	-70.3	4.5
2026-01-15 18:15:13.982389	331.6	62.8	-70.1	5.4
2026-01-15 18:15:16.225375	332.1	61.9	-70.9	6.8
2026-01-15 18:15:18.471627	332.5	60.9	-69.9	5.3
2026-01-15 18:15:20.716878	332.9	60.0	-70.7	8.0
2026-01-15 18:15:22.966538	333.3	59.1	-69.9	1.9
2026-01-15 18:15:25.211209	333.6	58.2	-68.5	2.8
2026-01-15 18:15:27.458749	333.9	57.4	-70.6	7.3
2026-01-15 18:15:29.706317	334.3	56.5	-70.9	7.3
2026-01-15 18:15:31.951339	334.5	55.6	-70.2	4.4
2026-01-15 18:15:34.199958	334.8	54.8	-70.1	6.6
2026-01-15 18:15:36.445358	335.1	54.0	-70.2	9.3
2026-01-15 18:15:38.690098	335.3	53.2	-68.5	2.8
2026-01-15 18:15:40.936940	335.6	52.4	-70.7	5.3
2026-01-15 18:15:43.181943	335.8	51.6	-70.4	8.0
2026-01-15 18:15:45.427266	336.0	50.8	-69.8	5.8
2026-01-15 18:15:47.672145	336.2	50.0	-69.4	6.0
2026-01-15 18:15:49.916315	336.4	49.3	-70.1	3.4
2026-01-15 18:15:52.159819	336.6	48.6	-69.8	1.1
2026-01-15 18:15:54.407655	336.7	47.8	-70.4	5.5
2026-01-15 18:15:56.652180	336.9	47.1	-69.9	5.5
2026-01-15 18:15:58.903003	337.1	46.4	-68.1	2.8
2026-01-15 18:16:01.150924	337.2	45.7	-69.4	5.4
2026-01-15 18:16:03.400161	337.4	45.0	-67.8	2.9
2026-01-15 18:16:05.645327	337.5	44.4	-68.6	2.8
2026-01-15 18:16:07.891069	337.6	43.7	-68.3	5.3
2026-01-15 18:16:10.136579	337.8	43.1	-68.7	4.2
2026-01-15 18:16:12.382963	337.9	42.4	-67.1	1.4
2026-01-15 18:16:14.625239	338.0	41.8	-68.0	0.0
2026-01-15 18:16:16.873061	338.1	41.2	-67.9	4.1
2026-01-15 18:16:19.121039	338.2	40.6	-67.3	0.0
2026-01-15 18:16:21.367750	338.4	40.0	-65.8	0.0
2026-01-15 18:16:23.614513	338.5	39.4	-64.9	0.0
2026-01-15 18:16:25.859915	338.6	38.8	-63.1	0.0
2026-01-15 18:16:28.107111	338.7	38.3	-66.6	0.0
2026-01-15 18:16:30.352915	338.8	37.7	-65.8	0.0
2026-01-15 18:16:32.601727	338.9	37.2	-66.2	0.0
2026-01-15 18:16:34.847725	338.9	36.6	-66.1	0.0
2026-01-15 18:16:37.092737	339.0	36.1	-66.2	0.0
2026-01-15 18:16:39.337493	339.1	35.6	-64.3	0.0
2026-01-15 18:16:41.580181	339.2	35.1	-65.3	0.0
2026-01-15 18:16:43.824157	339.3	34.6	-66.2	0.0
2026-01-15 18:16:46.069287	339.4	34.1	-66.1	0.0
2026-01-15 18:16:48.314283	339.4	33.6	-64.7	0.0
2026-01-15 18:16:50.561021	339.5	33.1	-64.1	0.0
2026-01-15 18:16:52.807050	339.6	32.6	-62.6	0.0
2026-01-15 18:16:55.053754	339.7	32.2	-64.1	0.0
2026-01-15 18:16:57.296761	339.7	31.7	-64.0	0.0
2026-01-15 18:16:59.544020	339.8	31.3	-63.8	0.0
2026-01-15 18:17:01.787904	339.9	30.8	-63.8	0.0
2026-01-15 18:17:04.032917	339.9	30.4	-64.6	0.0
2026-01-15 18:17:06.278434	340.0	29.9	-64.0	0.0
2026-01-15 18:17:08.521104	340.0	29.5	-63.2	0.0
2026-01-15 18:17:10.766506	340.1	29.1	-63.7	0.0
2026-01-15 18:17:13.014897	340.2	28.7	-65.0	0.0
2026-01-15 18:17:15.261284	340.2	28.3	-64.2	0.0
2026-01-15 18:17:17.507211	340.3	27.9	-64.3	0.0
2026-01-15 18:17:19.752994	340.3	27.5	-65.3	0.0
2026-01-15 18:17:22.000091	340.4	27.1	-64.3	0.0
2026-01-15 18:17:24.245728	340.4	26.7	-63.2	0.0
2026-01-15 18:17:26.491137	340.5	26.3	-62.2	0.0
2026-01-15 18:17:28.739983	340.5	26.0	-63.9	0.0
2026-01-15 18:17:30.985299	340.6	25.6	-64.0	0.0
2026-01-15 18:17:33.228999	340.6	25.2	-62.7	0.0
2026-01-15 18:17:35.475021	340.7	24.9	-63.1	0.0
2026-01-15 18:17:37.719857	340.7	24.5	-64.9	0.0
2026-01-15 18:17:39.965233	340.8	24.2	-58.6	0.0
2026-01-15 18:17:42.211203	340.8	23.8	-60.5	0.0
2026-01-15 18:17:44.456764	340.9	23.5	-62.5	0.0
2026-01-15 18:17:46.701822	340.9	23.2	-63.4	0.0
2026-01-15 18:17:48.948118	341.0	22.8	-64.3	0.0
2026-01-15 18:17:51.192921	341.0	22.5	-60.6	0.0
2026-01-15 18:17:53.438264	341.0	22.2	-61.9	0.0
2026-01-15 18:17:55.686619	341.1	21.9	-63.2	0.0
2026-01-15 18:17:57.931960	341.1	21.6	-62.7	0.0
2026-01-15 18:18:00.176194	341.2	21.2	-63.3	0.0
2026-01-15 18:18:02.418621	341.2	20.9	-64.0	0.0
2026-01-15 18:18:04.662171	341.2	20.6	-64.8	0.0
2026-01-15 18:18:06.907300	341.3	20.3	-62.0	0.0
2026-01-15 18:18:09.151700	341.3	20.0	-64.6	0.0
2026-01-15 18:18:11.394798	341.3	19.7	-65.2	0.0
2026-01-15 18:18:13.640720	341.4	19.5	-65.0	0.0
2026-01-15 18:18:15.887750	341.4	19.2	-62.6	0.0
2026-01-15 18:18:18.135485	341.5	18.9	-63.6	0.0
2026-01-15 18:18:20.381067	341.5	18.6	-62.5	0.0
2026-01-15 18:18:22.626385	341.5	18.3	-63.4	0.0
2026-01-15 18:18:24.871112	341.6	18.1	-62.9	0.0
2026-01-15 18:18:27.113053	341.6	17.8	-63.9	0.0
2026-01-15 18:18:29.357950	341.6	17.5	-64.9	0.0
2026-01-15 18:18:31.602572	341.7	17.3	-64.3	0.0
2026-01-15 18:18:33.850171	341.7	17.0	-63.3	0.0
2026-01-15 18:18:36.093071	341.7	16.7	-64.8	0.0
2026-01-15 18:18:38.336013	341.8	16.5	-66.2	0.0
2026-01-15 18:18:40.580693	341.8	16.2	-65.6	0.0
2026-01-15 18:18:42.825730	341.8	16.0	-65.7	0.0
2026-01-15 18:18:45.067196	341.8	15.7	-65.5	0.0
2026-01-15 18:18:47.312417	341.9	15.5	-65.0	0.0
2026-01-15 18:18:49.558426	341.9	15.3	-67.1	0.0
2026-01-15 18:18:51.808167	341.9	15.0	-66.3	0.0
2026-01-15 18:18:54.054838	342.0	14.8	-68.6	0.0
2026-01-15 18:18:56.299602	342.0	14.5	-65.0	0.0
2026-01-15 18:18:58.544847	342.0	14.3	-67.3	0.0
2026-01-15 18:19:00.788645	342.0	14.1	-67.4	0.0
2026-01-15 18:19:03.031640	342.1	13.8	-66.9	0.0
2026-01-15 18:19:05.273714	342.1	13.6	-66.8	0.0
2026-01-15 18:19:07.519409	342.1	13.4	-66.7	0.0
2026-01-15 18:19:09.763899	342.2	13.2	-66.4	0.0
2026-01-15 18:19:12.009112	342.2	13.0	-66.4	0.0
2026-01-15 18:19:14.254493	342.2	12.7	-64.5	0.0
2026-01-15 18:19:16.497836	342.2	12.5	-66.2	0.0
2026-01-15 18:19:18.744931	342.3	12.3	-64.2	0.0
2026-01-15 18:19:20.988286	342.3	12.1	-65.0	0.0
2026-01-15 18:19:23.235824	342.3	11.9	-65.6	0.0
2026-01-15 18:19:25.479601	342.3	11.7	-66.1	0.0
2026-01-15 18:19:27.725000	342.4	11.5	-67.5	0.0
2026-01-15 18:19:29.971343	342.4	11.3	-66.1	0.0
2026-01-15 18:19:32.218207	342.4	11.1	-65.9	0.0
2026-01-15 18:19:34.463443	342.4	10.8	-65.8	0.0
2026-01-15 18:19:36.708971	342.5	10.6	-61.8	0.0
2026-01-15 18:19:38.953864	342.5	10.5	-64.6	0.0
2026-01-15 18:19:41.203957	342.5	10.3	-67.3	0.0
2026-01-15 18:19:43.447529	342.5	10.1	-73.8	0.0
#Closed at: 2026-01-15 18:08:51.778766