passes_logs/2026/01/15/planumMaritime01/planumMaritime01__20260115_070841_METEOR-M2_3_rec.log

#Pass ID: 20260115_070841_METEOR-M2 3
#Satellite: METEOR-M2 3
#Configuration: METEOR-M2 3
#Start time: 2026-01-15 07:08:46.952306

#LorettStation: 1.0.0 05.05.2024
#Station: planumMaritime01
#Location: 37.49445 lon 55.92918 lat
#TLE: 1 57166U 23091A   26014.29359836 -.00000001  00000+0  18460-4 0  9992
#TLE: 2 57166  98.6331  72.2568 0002921 251.9031 108.1830 14.24030470132611

#Time	Az	El	Level	SNR
2026-01-15 07:08:51.660458	20.6	10.4	-71.2	0.0
2026-01-15 07:08:53.911554	20.7	10.6	-68.2	0.0
2026-01-15 07:08:56.162364	20.8	10.8	-68.9	0.0
2026-01-15 07:08:58.410517	20.9	11.0	-66.0	0.0
2026-01-15 07:09:00.657449	20.9	11.2	-68.2	0.0
2026-01-15 07:09:02.904723	21.0	11.4	-66.5	0.0
2026-01-15 07:09:05.150737	21.1	11.6	-63.5	0.0
2026-01-15 07:09:07.402465	21.2	11.8	-66.9	0.0
2026-01-15 07:09:09.651732	21.3	12.0	-64.4	0.0
2026-01-15 07:09:11.899012	21.3	12.2	-65.5	0.0
2026-01-15 07:09:14.147800	21.4	12.4	-64.7	0.0
2026-01-15 07:09:16.396842	21.5	12.7	-64.2	0.0
2026-01-15 07:09:18.642336	21.6	12.9	-65.5	0.0
2026-01-15 07:09:20.892704	21.7	13.1	-63.7	0.0
2026-01-15 07:09:23.142745	21.8	13.3	-64.9	0.0
2026-01-15 07:09:25.393098	21.8	13.5	-64.9	0.0
2026-01-15 07:09:27.638840	21.9	13.8	-66.0	0.0
2026-01-15 07:09:29.889443	22.0	14.0	-65.2	0.0
2026-01-15 07:09:32.138923	22.1	14.2	-66.3	0.0
2026-01-15 07:09:34.388568	22.2	14.4	-66.7	0.0
2026-01-15 07:09:36.635969	22.3	14.7	-67.2	0.0
2026-01-15 07:09:38.885938	22.4	14.9	-66.1	0.0
2026-01-15 07:09:41.134270	22.5	15.1	-64.9	0.0
2026-01-15 07:09:43.383099	22.6	15.4	-66.9	0.0
2026-01-15 07:09:45.629511	22.7	15.6	-66.1	0.0
2026-01-15 07:09:47.875870	22.8	15.9	-68.0	0.0
2026-01-15 07:09:50.126056	22.9	16.1	-67.4	0.0
2026-01-15 07:09:52.376103	23.0	16.4	-67.0	0.0
2026-01-15 07:09:54.624671	23.1	16.6	-67.9	0.0
2026-01-15 07:09:56.871136	23.2	16.9	-65.5	0.0
2026-01-15 07:09:59.120107	23.3	17.1	-66.6	0.0
2026-01-15 07:10:01.368792	23.4	17.4	-67.5	0.0
2026-01-15 07:10:03.616265	23.6	17.6	-66.4	0.0
2026-01-15 07:10:05.863654	23.7	17.9	-65.3	0.0
2026-01-15 07:10:08.113358	23.8	18.2	-66.8	0.0
2026-01-15 07:10:10.361554	23.9	18.4	-66.4	0.0
2026-01-15 07:10:12.613111	24.0	18.7	-68.0	0.0
2026-01-15 07:10:14.860982	24.1	19.0	-67.2	0.0
2026-01-15 07:10:17.113167	24.3	19.3	-66.2	0.0
2026-01-15 07:10:19.363267	24.4	19.5	-67.8	0.0
2026-01-15 07:10:21.608488	24.5	19.8	-68.8	0.0
2026-01-15 07:10:23.857789	24.7	20.1	-68.4	0.0
2026-01-15 07:10:26.104533	24.8	20.4	-67.0	0.0
2026-01-15 07:10:28.353176	24.9	20.7	-67.4	0.0
2026-01-15 07:10:30.602517	25.1	21.0	-67.5	0.0
2026-01-15 07:10:32.851544	25.2	21.3	-65.4	0.0
2026-01-15 07:10:35.098015	25.3	21.6	-67.0	0.0
2026-01-15 07:10:37.344047	25.5	21.9	-65.8	0.0
2026-01-15 07:10:39.596195	25.6	22.2	-68.8	0.0
2026-01-15 07:10:41.843704	25.8	22.5	-67.1	0.0
2026-01-15 07:10:44.089976	25.9	22.8	-67.4	0.0
2026-01-15 07:10:46.336593	26.1	23.2	-70.2	0.0
2026-01-15 07:10:48.584208	26.3	23.5	-68.1	0.0
2026-01-15 07:10:50.833331	26.4	23.8	-67.6	0.0
2026-01-15 07:10:53.081938	26.6	24.2	-68.8	0.0
2026-01-15 07:10:55.331544	26.8	24.5	-66.6	0.0
2026-01-15 07:10:57.579332	26.9	24.8	-69.2	0.0
2026-01-15 07:10:59.828832	27.1	25.2	-68.7	0.0
2026-01-15 07:11:02.077910	27.3	25.5	-70.4	0.0
2026-01-15 07:11:04.325464	27.5	25.9	-69.8	0.0
2026-01-15 07:11:06.572385	27.7	26.3	-69.8	0.0
2026-01-15 07:11:08.819675	27.9	26.6	-69.5	0.0
2026-01-15 07:11:11.069296	28.1	27.0	-68.7	0.0
2026-01-15 07:11:13.320311	28.3	27.4	-68.3	0.0
2026-01-15 07:11:15.570918	28.5	27.8	-69.3	0.0
2026-01-15 07:11:17.819847	28.7	28.1	-69.6	0.0
2026-01-15 07:11:20.066841	28.9	28.5	-71.7	0.0
2026-01-15 07:11:22.314532	29.1	28.9	-71.8	0.0
2026-01-15 07:11:24.562490	29.4	29.3	-70.5	0.0
2026-01-15 07:11:26.809312	29.6	29.7	-71.6	0.0
2026-01-15 07:11:29.057889	29.8	30.1	-71.7	0.0
2026-01-15 07:11:31.305942	30.1	30.6	-71.8	0.0
2026-01-15 07:11:33.552645	30.3	31.0	-72.1	0.2
2026-01-15 07:11:35.800696	30.6	31.4	-71.9	0.0
2026-01-15 07:11:38.049548	30.8	31.8	-71.8	0.1
2026-01-15 07:11:40.300359	31.1	32.3	-73.0	0.0
2026-01-15 07:11:42.548738	31.4	32.7	-73.2	2.8
2026-01-15 07:11:44.796412	31.7	33.2	-73.2	0.0
2026-01-15 07:11:47.042965	32.0	33.6	-73.5	0.0
2026-01-15 07:11:49.289122	32.3	34.1	-71.9	0.0
2026-01-15 07:11:51.538134	32.6	34.6	-74.4	0.8
2026-01-15 07:11:53.786936	32.9	35.0	-72.5	0.0
2026-01-15 07:11:56.033932	33.2	35.5	-74.3	0.4
2026-01-15 07:11:58.281859	33.6	36.0	-75.3	4.9
2026-01-15 07:12:00.529578	33.9	36.5	-75.2	3.8
2026-01-15 07:12:02.777193	34.3	37.0	-74.8	3.6
2026-01-15 07:12:05.026956	34.6	37.5	-73.3	1.9
2026-01-15 07:12:07.275652	35.0	38.0	-73.7	4.4
2026-01-15 07:12:09.521355	35.4	38.6	-74.6	4.8
2026-01-15 07:12:11.771644	35.8	39.1	-73.4	1.6
2026-01-15 07:12:14.023783	36.3	39.6	-74.2	3.9
2026-01-15 07:12:16.270874	36.7	40.2	-74.7	3.3
2026-01-15 07:12:18.519913	37.1	40.7	-73.7	0.9
2026-01-15 07:12:20.769043	37.6	41.3	-71.3	0.2
2026-01-15 07:12:23.017542	38.1	41.9	-73.8	2.9
2026-01-15 07:12:25.263783	38.6	42.4	-74.3	5.8
2026-01-15 07:12:27.511815	39.1	43.0	-72.8	0.1
2026-01-15 07:12:29.757658	39.6	43.6	-73.8	4.2
2026-01-15 07:12:32.006657	40.2	44.2	-73.1	0.1
2026-01-15 07:12:34.254692	40.7	44.8	-73.8	0.3
2026-01-15 07:12:36.503346	41.3	45.4	-74.9	3.3
2026-01-15 07:12:38.751588	42.0	46.0	-74.6	3.0
2026-01-15 07:12:40.997226	42.6	46.6	-73.6	0.6
2026-01-15 07:12:43.243647	43.3	47.2	-74.7	2.9
2026-01-15 07:12:45.489817	44.0	47.8	-75.0	2.3
2026-01-15 07:12:47.737366	44.7	48.5	-75.0	2.9
2026-01-15 07:12:49.985535	45.4	49.1	-74.5	0.9
2026-01-15 07:12:52.236411	46.2	49.7	-74.2	0.0
2026-01-15 07:12:54.484224	47.0	50.4	-74.2	1.6
2026-01-15 07:12:56.733721	47.9	51.0	-73.1	0.0
2026-01-15 07:12:58.980322	48.8	51.6	-75.7	3.1
2026-01-15 07:13:01.229100	49.7	52.3	-75.5	1.3
2026-01-15 07:13:03.475947	50.7	52.9	-72.6	0.0
2026-01-15 07:13:05.720821	51.7	53.6	-74.3	0.0
2026-01-15 07:13:07.969850	52.7	54.2	-75.7	3.5
2026-01-15 07:13:10.219600	53.9	54.9	-75.4	0.1
2026-01-15 07:13:12.468021	55.0	55.5	-75.8	0.0
2026-01-15 07:13:14.716337	56.2	56.1	-74.9	0.0
2026-01-15 07:13:16.964413	57.5	56.8	-75.4	0.0
2026-01-15 07:13:19.210975	58.8	57.4	-75.6	0.0
2026-01-15 07:13:21.457774	60.2	58.0	-75.4	2.5
2026-01-15 07:13:23.708721	61.7	58.6	-76.8	4.8
2026-01-15 07:13:25.955549	63.2	59.2	-75.7	4.2
2026-01-15 07:13:28.204267	64.8	59.8	-76.4	1.8
2026-01-15 07:13:30.451681	66.4	60.4	-75.2	0.1
2026-01-15 07:13:32.698456	68.1	60.9	-75.5	1.3
2026-01-15 07:13:34.946329	70.0	61.4	-77.0	0.0
2026-01-15 07:13:37.195501	71.8	61.9	-76.7	2.5
2026-01-15 07:13:39.443251	73.8	62.4	-75.0	0.1
2026-01-15 07:13:41.692899	75.8	62.9	-77.0	3.6
2026-01-15 07:13:43.944411	78.0	63.3	-77.8	6.4
2026-01-15 07:13:46.192453	80.2	63.7	-75.7	3.3
2026-01-15 07:13:48.440879	82.4	64.1	-75.8	5.7
2026-01-15 07:13:50.690373	84.8	64.4	-75.5	6.6
2026-01-15 07:13:52.940024	87.2	64.7	-77.2	3.3
2026-01-15 07:13:55.188670	89.6	65.0	-76.1	3.9
2026-01-15 07:13:57.435484	92.1	65.2	-76.3	3.8
2026-01-15 07:13:59.683385	94.7	65.4	-76.5	0.3
2026-01-15 07:14:01.931642	97.3	65.5	-77.3	5.0
2026-01-15 07:14:04.180761	99.9	65.6	-76.1	0.7
2026-01-15 07:14:06.427158	102.5	65.6	-78.6	7.1
2026-01-15 07:14:08.675687	105.2	65.6	-78.2	5.9
2026-01-15 07:14:10.922273	107.8	65.5	-78.4	6.5
2026-01-15 07:14:13.169078	110.4	65.4	-77.9	5.7
2026-01-15 07:14:15.418947	113.0	65.3	-77.9	6.0
2026-01-15 07:14:17.667374	115.5	65.1	-78.3	6.4
2026-01-15 07:14:19.917369	118.0	64.9	-78.7	6.6
2026-01-15 07:14:22.165058	120.4	64.6	-78.2	8.8
2026-01-15 07:14:24.414126	122.8	64.3	-78.5	5.0
2026-01-15 07:14:26.663842	125.1	63.9	-79.3	7.7
2026-01-15 07:14:28.912596	127.3	63.5	-79.4	7.9
2026-01-15 07:14:31.162204	129.5	63.1	-79.4	8.4
2026-01-15 07:14:33.411309	131.6	62.7	-79.3	7.8
2026-01-15 07:14:35.660863	133.6	62.2	-79.0	6.8
2026-01-15 07:14:37.910607	135.5	61.7	-79.3	10.0
2026-01-15 07:14:40.160901	137.4	61.2	-79.6	10.5
2026-01-15 07:14:42.409704	139.2	60.6	-79.3	10.8
2026-01-15 07:14:44.659977	140.9	60.1	-79.8	9.2
2026-01-15 07:14:46.910865	142.5	59.5	-79.6	10.6
2026-01-15 07:14:49.158566	144.0	58.9	-79.4	10.6
2026-01-15 07:14:51.407317	145.5	58.3	-79.4	10.4
2026-01-15 07:14:53.657011	147.0	57.7	-80.0	11.4
2026-01-15 07:14:55.903995	148.3	57.1	-79.9	10.9
2026-01-15 07:14:58.153822	149.6	56.4	-79.8	10.4
2026-01-15 07:15:00.403557	150.9	55.8	-79.7	10.4
2026-01-15 07:15:02.653188	152.0	55.2	-79.7	12.0
2026-01-15 07:15:04.901270	153.2	54.5	-79.7	11.5
2026-01-15 07:15:07.148680	154.3	53.9	-79.5	11.9
2026-01-15 07:15:09.399118	155.3	53.2	-79.7	11.6
2026-01-15 07:15:11.646791	156.3	52.6	-79.1	11.0
2026-01-15 07:15:13.894611	157.2	51.9	-79.3	11.5
2026-01-15 07:15:16.143755	158.1	51.3	-79.4	12.8
2026-01-15 07:15:18.394805	159.0	50.6	-79.2	12.8
2026-01-15 07:15:20.642615	159.9	50.0	-79.1	11.2
2026-01-15 07:15:22.890968	160.7	49.4	-79.3	12.6
2026-01-15 07:15:25.138558	161.4	48.7	-79.4	11.7
2026-01-15 07:15:27.388082	162.2	48.1	-79.3	11.9
2026-01-15 07:15:29.637790	162.9	47.5	-79.3	12.8
2026-01-15 07:15:31.887673	163.6	46.8	-79.3	12.9
2026-01-15 07:15:34.135153	164.2	46.2	-79.2	11.8
2026-01-15 07:15:36.384035	164.8	45.6	-79.1	13.6
2026-01-15 07:15:38.634089	165.5	45.0	-78.8	12.9
2026-01-15 07:15:40.880061	166.0	44.4	-79.0	13.5
2026-01-15 07:15:43.128967	166.6	43.8	-78.9	13.9
2026-01-15 07:15:45.379435	167.1	43.2	-78.9	13.5
2026-01-15 07:15:47.628129	167.7	42.6	-78.4	14.8
2026-01-15 07:15:49.879742	168.2	42.0	-78.7	13.7
2026-01-15 07:15:52.128834	168.7	41.5	-78.4	13.6
2026-01-15 07:15:54.378475	169.1	40.9	-78.6	13.6
2026-01-15 07:15:56.628572	169.6	40.4	-78.6	11.9
2026-01-15 07:15:58.876812	170.0	39.8	-78.1	11.5
2026-01-15 07:16:01.123282	170.5	39.3	-78.0	12.1
2026-01-15 07:16:03.371289	170.9	38.7	-77.6	10.7
2026-01-15 07:16:05.618974	171.3	38.2	-77.2	12.2
2026-01-15 07:16:07.869769	171.7	37.7	-77.4	12.0
2026-01-15 07:16:10.116805	172.0	37.2	-77.3	6.8
2026-01-15 07:16:12.367147	172.4	36.6	-78.4	11.7
2026-01-15 07:16:14.613817	172.8	36.1	-78.4	12.4
2026-01-15 07:16:16.864421	173.1	35.6	-78.1	11.9
2026-01-15 07:16:19.113840	173.4	35.2	-76.6	8.1
2026-01-15 07:16:21.363361	173.8	34.7	-77.1	9.0
2026-01-15 07:16:23.612392	174.1	34.2	-77.5	11.4
2026-01-15 07:16:25.859749	174.4	33.7	-77.4	11.3
2026-01-15 07:16:28.111035	174.7	33.3	-77.6	11.2
2026-01-15 07:16:30.358728	175.0	32.8	-77.6	11.6
2026-01-15 07:16:32.607450	175.2	32.4	-77.4	13.2
2026-01-15 07:16:34.855243	175.5	31.9	-77.5	11.4
2026-01-15 07:16:37.104282	175.8	31.5	-78.0	12.2
2026-01-15 07:16:39.351654	176.0	31.0	-77.7	11.7
2026-01-15 07:16:41.597400	176.3	30.6	-77.6	11.6
2026-01-15 07:16:43.845095	176.5	30.2	-77.9	11.0
2026-01-15 07:16:46.093513	176.8	29.8	-77.9	10.9
2026-01-15 07:16:48.342111	177.0	29.4	-77.9	11.4
2026-01-15 07:16:50.591603	177.3	29.0	-77.5	10.6
2026-01-15 07:16:52.841941	177.5	28.6	-77.3	11.0
2026-01-15 07:16:55.090092	177.7	28.2	-77.3	9.5
2026-01-15 07:16:57.340931	177.9	27.8	-77.3	10.6
2026-01-15 07:16:59.587941	178.1	27.4	-77.0	10.6
2026-01-15 07:17:01.835454	178.3	27.0	-77.6	11.0
2026-01-15 07:17:04.085695	178.5	26.6	-76.9	9.6
2026-01-15 07:17:06.335855	178.7	26.3	-77.2	10.6
2026-01-15 07:17:08.585578	178.9	25.9	-76.9	9.8
2026-01-15 07:17:10.835309	179.1	25.5	-76.9	9.7
2026-01-15 07:17:13.085913	179.3	25.2	-77.5	10.7
2026-01-15 07:17:15.331994	179.5	24.8	-77.4	9.8
2026-01-15 07:17:17.584999	179.6	24.5	-77.6	9.5
2026-01-15 07:17:19.833774	179.8	24.1	-77.5	9.0
2026-01-15 07:17:22.085034	180.0	23.8	-77.9	10.1
2026-01-15 07:17:24.333734	180.1	23.5	-77.6	10.1
2026-01-15 07:17:26.583533	180.3	23.1	-77.8	10.1
2026-01-15 07:17:28.832431	180.4	22.8	-77.8	10.4
2026-01-15 07:17:31.081812	180.6	22.5	-77.9	10.8
2026-01-15 07:17:33.329294	180.8	22.2	-77.5	9.0
2026-01-15 07:17:35.577160	180.9	21.9	-77.9	9.1
2026-01-15 07:17:37.826088	181.0	21.5	-77.6	10.3
2026-01-15 07:17:40.071845	181.2	21.2	-77.8	10.4
2026-01-15 07:17:42.318763	181.3	20.9	-77.7	10.7
2026-01-15 07:17:44.566530	181.5	20.6	-77.4	10.4
2026-01-15 07:17:46.817046	181.6	20.3	-76.2	6.9
2026-01-15 07:17:49.069286	181.7	20.0	-77.7	8.3
2026-01-15 07:17:51.315900	181.9	19.8	-77.4	7.6
2026-01-15 07:17:53.565175	182.0	19.5	-75.8	4.8
2026-01-15 07:17:55.814025	182.1	19.2	-77.2	10.7
2026-01-15 07:17:58.063762	182.2	18.9	-77.4	9.3
2026-01-15 07:18:00.311855	182.4	18.6	-77.8	9.6
2026-01-15 07:18:02.559631	182.5	18.4	-78.2	9.9
2026-01-15 07:18:04.810558	182.6	18.1	-78.2	9.6
2026-01-15 07:18:07.057219	182.7	17.8	-78.2	9.8
2026-01-15 07:18:09.303765	182.8	17.5	-78.3	9.5
2026-01-15 07:18:11.552304	182.9	17.3	-78.1	5.4
2026-01-15 07:18:13.801796	183.1	17.0	-76.7	9.2
2026-01-15 07:18:16.048950	183.2	16.8	-75.8	0.2
2026-01-15 07:18:18.295801	183.3	16.5	-77.3	4.1
2026-01-15 07:18:20.544547	183.4	16.3	-78.5	8.9
2026-01-15 07:18:22.793527	183.5	16.0	-78.7	9.0
2026-01-15 07:18:25.038867	183.6	15.8	-78.5	9.1
2026-01-15 07:18:27.289060	183.7	15.5	-78.3	8.6
2026-01-15 07:18:29.539016	183.8	15.3	-78.3	10.2
2026-01-15 07:18:31.786054	183.9	15.0	-78.2	8.7
2026-01-15 07:18:34.032473	184.0	14.8	-78.5	9.7
2026-01-15 07:18:36.278975	184.1	14.6	-78.5	7.4
2026-01-15 07:18:38.528711	184.2	14.3	-78.6	9.1
2026-01-15 07:18:40.775309	184.3	14.1	-79.1	8.5
2026-01-15 07:18:43.025416	184.3	13.9	-79.0	9.0
2026-01-15 07:18:45.278120	184.4	13.6	-78.9	8.7
2026-01-15 07:18:47.529087	184.5	13.4	-79.5	7.7
2026-01-15 07:18:49.778942	184.6	13.2	-78.9	7.2
2026-01-15 07:18:52.028990	184.7	13.0	-78.9	7.9
2026-01-15 07:18:54.280729	184.8	12.7	-78.9	7.4
2026-01-15 07:18:56.530468	184.9	12.5	-78.6	6.7
2026-01-15 07:18:58.781298	184.9	12.3	-78.4	6.0
2026-01-15 07:19:01.028238	185.0	12.1	-78.6	6.6
2026-01-15 07:19:03.276966	185.1	11.9	-78.4	6.7
2026-01-15 07:19:05.527943	185.2	11.7	-78.7	7.9
2026-01-15 07:19:07.775543	185.3	11.5	-78.0	5.8
2026-01-15 07:19:10.029440	185.3	11.3	-78.4	5.8
2026-01-15 07:19:12.279921	185.4	11.1	-78.3	4.4
2026-01-15 07:19:14.525451	185.5	10.9	-78.4	5.0
2026-01-15 07:19:16.772934	185.6	10.7	-80.2	0.0
2026-01-15 07:19:19.019102	185.6	10.5	-81.8	0.0
2026-01-15 07:19:21.267221	185.7	10.3	-83.7	0.0
2026-01-15 07:19:23.514537	185.8	10.1	-84.7	0.0
#Closed at: 2026-01-15 07:08:41.953824