passes_logs/2025/01/13/XPeterburg/XPeterburg__20250113_191039_FENGYUN_3F_rec.log

#Pass ID: 20250113_191039_FENGYUN 3F
#Satellite: FENGYUN 3F
#Configuration: FENGYUN 3F
#Start time: 2025-01-13 19:10:34

#Version: 1.5.20200625
#Station: XPeterburg
#Location: 30.318091 lon 59.932769 lat
#TLE: 1 57490U 23111A   25013.15343949  .00000157  00000+0  94479-4 0  9991
#TLE: 2 57490  98.7468  86.1144 0001109 142.8156 217.3097 14.19975332 75062

#Time	Az	El	Level	Level2	SNR	BER	Gain	Gain2
2025-01-13 19:10:34.71	163.01	68.13	-38.8	-40.5	3.3	8388004	96	5982
2025-01-13 19:10:35.11	163.04	68.31	-38.2	-51.4	3.5	8313434	74	22322
2025-01-13 19:10:35.51	163.06	68.50	-38.5	-40.7	3.3	8420356	94	6353
2025-01-13 19:10:35.92	163.09	68.69	-38.5	-42.1	3.6	8403144	94	7471
2025-01-13 19:10:36.32	163.11	68.87	-38.5	-40.8	3.3	8410686	94	6400
2025-01-13 19:10:36.72	163.14	69.05	-38.5	-42.2	3.6	8413307	94	7580
2025-01-13 19:10:37.12	163.16	69.24	-38.4	-40.3	3.3	8425792	94	6130
2025-01-13 19:10:37.52	163.19	69.42	-38.2	-41.1	3.6	8390453	94	6918
2025-01-13 19:10:37.92	163.22	69.61	-38.1	-39.6	3.4	8431182	94	5829
2025-01-13 19:10:38.33	163.25	69.80	-38.1	-41.0	3.6	8393703	94	6843
2025-01-13 19:10:38.73	163.27	69.98	-38.1	-39.6	3.4	8416831	94	5873
2025-01-13 19:10:39.13	163.30	70.17	-37.8	-40.3	3.6	8399253	93	6603
2025-01-13 19:10:39.53	163.33	70.36	-37.3	-37.9	3.8	8421283	93	5280
2025-01-13 19:10:39.93	163.36	70.55	-37.2	-37.8	3.8	8328392	92	5251
2025-01-13 19:10:40.33	163.39	70.73	-37.2	-39.2	3.7	8379741	92	6146
2025-01-13 19:10:40.74	163.43	70.93	-37.2	-37.7	3.8	8375610	92	5217
2025-01-13 19:10:41.14	163.46	71.11	-37.2	-39.1	3.7	8318172	92	6108
2025-01-13 19:10:41.54	163.49	71.30	-37.2	-38.0	3.8	8363388	92	5386
2025-01-13 19:10:41.94	163.52	71.49	-37.3	-37.8	3.8	8333427	92	5225
2025-01-13 19:10:42.35	163.56	71.68	-37.0	-37.1	4.0	8290729	92	4946
2025-01-13 19:10:42.75	163.59	71.87	-36.8	-36.6	4.2	8204750	92	4788
2025-01-13 19:10:43.15	163.63	72.06	-37.0	-36.9	4.2	8133670	92	4886
2025-01-13 19:10:43.55	163.66	72.25	-37.0	-36.9	4.1	8211433	92	4850
2025-01-13 19:10:43.96	163.70	72.45	-36.8	-36.8	4.4	8200572	91	4929
2025-01-13 19:10:44.36	163.74	72.64	-36.4	-35.9	4.7	7965053	91	4632
2025-01-13 19:10:44.76	163.78	72.83	-36.4	-35.7	4.7	7788356	91	4569
2025-01-13 19:10:45.16	163.82	73.02	-36.7	-36.6	4.4	7833011	91	4855
2025-01-13 19:10:45.57	163.86	73.22	-36.9	-37.1	4.3	8020568	91	5027
2025-01-13 19:10:45.97	163.90	73.41	-36.8	-36.8	4.4	8096374	91	4904
2025-01-13 19:10:46.37	163.94	73.60	-36.8	-36.6	4.6	7949649	91	4857
2025-01-13 19:10:46.77	163.99	73.80	-36.7	-36.7	4.7	7717163	91	4903
2025-01-13 19:10:47.18	164.03	73.99	-37.0	-37.4	4.3	7903587	91	5137
2025-01-13 19:10:47.58	164.08	74.19	-37.1	-37.8	4.3	8038227	91	5293
2025-01-13 19:10:47.98	164.12	74.38	-37.1	-37.6	4.4	8134368	91	5242
2025-01-13 19:10:48.38	164.17	74.58	-37.0	-37.5	4.5	8009765	91	5172
2025-01-13 19:10:48.78	164.22	74.77	-37.1	-37.6	4.4	7960063	91	5248
2025-01-13 19:10:49.19	164.27	74.97	-37.5	-38.3	3.9	8199886	92	5434
2025-01-13 19:10:49.59	164.32	75.16	-37.9	-41.1	3.7	8321445	92	7069
2025-01-13 19:10:49.99	164.38	75.36	-38.1	-39.9	3.6	8417312	93	6028
2025-01-13 19:10:50.39	164.43	75.55	-37.9	-40.5	3.7	8365436	93	6627
2025-01-13 19:10:50.79	164.49	75.75	-37.9	-39.3	3.8	8388828	93	5771
2025-01-13 19:10:51.19	164.55	75.95	-38.1	-39.5	3.6	8360847	93	5782
2025-01-13 19:10:51.60	164.61	76.15	-38.3	-40.6	3.6	8434982	93	6457
2025-01-13 19:10:52.00	164.67	76.34	-38.1	-39.5	3.5	8376697	93	5755
2025-01-13 19:10:52.40	164.73	76.54	-37.7	-39.0	3.9	8411304	93	5737
2025-01-13 19:10:52.80	164.80	76.74	-37.4	-37.2	4.0	8331436	93	4851
2025-01-13 19:10:53.20	164.86	76.93	-37.3	-37.2	4.1	8245433	93	4815
2025-01-13 19:10:53.61	164.93	77.14	-37.4	-37.3	4.0	8245651	93	4861
2025-01-13 19:10:54.01	165.00	77.33	-37.6	-37.9	3.8	8288852	93	5072
2025-01-13 19:10:54.41	165.08	77.53	-37.5	-37.6	3.9	8309120	93	4943
2025-01-13 19:10:54.81	165.15	77.73	-37.3	-36.8	4.1	8263046	93	4681
2025-01-13 19:10:55.22	165.23	77.93	-37.3	-37.4	4.1	8168220	92	4980
2025-01-13 19:10:55.62	165.31	78.13	-37.9	-38.9	3.8	8264636	92	5541
2025-01-13 19:10:56.02	165.40	78.33	-37.8	-39.3	3.9	8413730	93	5788
2025-01-13 19:10:56.42	165.48	78.53	-37.5	-37.6	4.0	8293247	93	4932
2025-01-13 19:10:56.83	165.58	78.73	-37.5	-37.4	4.0	8257919	93	4892
2025-01-13 19:10:57.23	165.67	78.93	-37.9	-39.9	3.7	8276252	93	6192
2025-01-13 19:10:57.63	165.77	79.13	-38.0	-39.3	3.7	8402057	93	5698
2025-01-13 19:10:58.03	165.87	79.33	-37.6	-37.6	4.0	8304737	93	4957
2025-01-13 19:10:58.43	165.97	79.53	-37.3	-37.4	4.2	8214317	92	4992
2025-01-13 19:10:58.84	166.08	79.74	-37.6	-38.1	3.9	8220359	92	5249
2025-01-13 19:10:59.24	166.19	79.94	-37.9	-40.5	3.7	8386196	92	6631
2025-01-13 19:10:59.64	166.31	80.14	-38.1	-39.0	3.7	8353443	93	5456
2025-01-13 19:11:00.04	166.43	80.34	-38.1	-40.6	3.7	8350547	93	6512
2025-01-13 19:11:00.44	166.56	80.54	-38.1	-39.3	3.6	8387454	93	5613
2025-01-13 19:11:00.84	166.69	80.74	-38.0	-40.3	3.7	8360332	93	6369
2025-01-13 19:11:01.25	166.83	80.94	-37.9	-38.8	3.8	8350032	93	5472
2025-01-13 19:11:01.65	166.98	81.15	-38.4	-41.5	3.6	8339698	93	7041
2025-01-13 19:11:02.05	167.13	81.35	-38.5	-40.5	3.4	8429809	94	6145
2025-01-13 19:11:02.45	167.29	81.55	-38.6	-41.9	3.6	8380828	94	7203
2025-01-13 19:11:02.85	167.45	81.75	-38.6	-40.9	3.4	8445350	94	6420
2025-01-13 19:11:03.26	167.63	81.96	-38.5	-40.0	3.4	8407585	94	5856
2025-01-13 19:11:03.66	167.82	82.16	-38.3	-39.8	3.6	8441608	94	5855
2025-01-13 19:11:04.06	168.01	82.36	-38.0	-38.5	3.7	8365184	94	5203
2025-01-13 19:11:04.46	168.22	82.56	-37.8	-37.9	3.8	8335350	94	4990
2025-01-13 19:11:04.86	168.43	82.76	-37.9	-38.6	3.8	8291255	93	5330
2025-01-13 19:11:05.26	168.66	82.96	-38.0	-38.7	3.9	8307174	93	5362
2025-01-13 19:11:05.67	168.91	83.17	-38.2	-39.4	3.7	8313262	93	5674
2025-01-13 19:11:06.07	169.17	83.37	-38.1	-40.3	3.9	8392330	93	6336
2025-01-13 19:11:06.47	169.44	83.58	-38.3	-40.0	3.6	8358089	93	5933
2025-01-13 19:11:06.87	169.73	83.78	-38.4	-41.5	3.7	8420047	93	7054
2025-01-13 19:11:07.28	170.05	83.98	-38.6	-40.2	3.5	8417118	94	5947
2025-01-13 19:11:07.68	170.38	84.19	-38.5	-41.4	3.6	8386745	94	6837
2025-01-13 19:11:08.08	170.74	84.39	-38.4	-39.7	3.5	8403316	94	5675
2025-01-13 19:11:08.48	171.12	84.59	-38.5	-41.5	3.6	8398899	94	6888
2025-01-13 19:11:08.88	171.54	84.79	-39.0	-41.5	3.3	8433917	94	6604
2025-01-13 19:11:09.28	171.98	84.99	-39.2	-42.9	3.6	8396564	95	7511
2025-01-13 19:11:09.69	172.48	85.20	-38.9	-40.5	3.4	8384696	96	5866
2025-01-13 19:11:10.09	173.01	85.40	-38.9	-41.4	3.6	8379375	96	6547
2025-01-13 19:11:10.49	173.58	85.60	-39.0	-41.2	3.4	8370952	95	6330
2025-01-13 19:11:10.89	174.21	85.80	-39.0	-40.9	3.3	8391185	95	6118
2025-01-13 19:11:11.29	174.90	86.00	-38.8	-40.8	3.6	8429843	95	6156
2025-01-13 19:11:11.70	175.69	86.20	-38.6	-39.4	3.6	8375724	95	5407
2025-01-13 19:11:12.10	176.54	86.40	-38.5	-40.0	3.8	8395328	95	5843
2025-01-13 19:11:12.50	177.49	86.60	-38.6	-39.5	3.6	8375541	95	5475
2025-01-13 19:11:12.90	178.56	86.80	-38.8	-41.4	3.7	8431137	95	6642
2025-01-13 19:11:13.30	179.77	86.99	-38.7	-39.9	3.5	8389915	95	5652
2025-01-13 19:11:13.70	181.15	87.18	-38.4	-40.2	3.7	8419406	95	6108
2025-01-13 19:11:14.11	182.77	87.38	-37.9	-38.2	3.9	8355514	94	5096
2025-01-13 19:11:14.51	184.60	87.57	-38.3	-40.7	3.7	8337844	94	6524
2025-01-13 19:11:14.91	186.74	87.76	-38.3	-39.4	3.6	8394985	94	5582
2025-01-13 19:11:15.31	189.26	87.94	-37.7	-38.1	4.0	8331527	93	5139
2025-01-13 19:11:15.71	192.27	88.12	-37.2	-37.3	4.5	8045482	92	4949
2025-01-13 19:11:16.12	196.00	88.30	-37.6	-38.3	4.2	8008506	92	5335
2025-01-13 19:11:16.52	200.45	88.46	-37.8	-38.9	4.0	8227626	92	5537
2025-01-13 19:11:16.92	205.91	88.61	-37.6	-38.2	4.2	8206329	92	5258
2025-01-13 19:11:17.32	212.63	88.75	-37.3	-37.2	4.5	8000816	92	4900
2025-01-13 19:11:17.73	221.09	88.87	-37.6	-38.2	4.2	7917205	92	5243
2025-01-13 19:11:18.13	230.96	88.95	-37.8	-38.7	4.0	8159740	92	5434
2025-01-13 19:11:18.53	242.21	89.00	-38.3	-39.5	3.8	8266502	93	5646
2025-01-13 19:11:18.93	254.15	89.01	-38.7	-41.2	3.8	8415756	94	6588
2025-01-13 19:11:19.33	265.79	88.98	-38.9	-40.8	3.4	8406246	94	6121
2025-01-13 19:11:19.74	276.55	88.91	-39.3	-42.9	3.6	8415813	95	7453
2025-01-13 19:11:20.14	285.46	88.80	-39.4	-41.9	3.3	8416946	95	6534
2025-01-13 19:11:20.54	292.80	88.67	-39.3	-43.1	3.6	8430999	95	7578
2025-01-13 19:11:20.94	298.76	88.53	-38.9	-40.4	3.4	8447490	95	5800
2025-01-13 19:11:21.34	303.61	88.37	-38.8	-41.4	3.6	8390888	95	6648
2025-01-13 19:11:21.75	307.66	88.19	-38.6	-39.6	3.6	8406543	95	5485
2025-01-13 19:11:22.15	310.91	88.02	-38.5	-40.6	3.7	8367656	95	6234
2025-01-13 19:11:22.55	313.63	87.84	-38.5	-39.4	3.7	8416923	95	5444
2025-01-13 19:11:22.95	315.92	87.65	-38.6	-39.5	3.6	8380920	95	5441
2025-01-13 19:11:23.35	317.88	87.46	-38.6	-39.4	3.6	8372978	95	5384
2025-01-13 19:11:23.76	319.60	87.27	-38.4	-40.3	3.7	8411853	95	6102
2025-01-13 19:11:24.16	321.05	87.07	-38.5	-39.1	3.6	8359165	95	5297
2025-01-13 19:11:24.56	322.33	86.88	-38.7	-41.3	3.6	8428127	95	6596
2025-01-13 19:11:24.96	323.45	86.68	-38.8	-40.0	3.5	8406303	95	5692
2025-01-13 19:11:25.37	324.48	86.48	-38.7	-41.1	3.6	8389183	95	6494
2025-01-13 19:11:25.77	325.37	86.28	-38.8	-40.2	3.5	8403282	95	5767
2025-01-13 19:11:26.17	326.17	86.08	-38.8	-41.4	3.6	8398555	95	6676
2025-01-13 19:11:26.57	326.89	85.89	-38.3	-38.7	3.7	8434936	95	5173
2025-01-13 19:11:26.97	327.54	85.69	-37.8	-37.9	3.9	8327945	94	4974
2025-01-13 19:11:27.38	328.16	85.48	-38.2	-40.7	3.7	8300846	93	6621
2025-01-13 19:11:27.78	328.70	85.28	-38.5	-40.4	3.6	8427223	94	6115
2025-01-13 19:11:28.18	329.20	85.08	-38.5	-40.0	3.5	8395259	94	5849
2025-01-13 19:11:28.58	329.66	84.88	-38.1	-39.4	3.7	8434055	94	5706
2025-01-13 19:11:28.99	330.10	84.67	-37.9	-38.1	3.8	8334148	94	5035
2025-01-13 19:11:29.39	330.50	84.47	-37.9	-38.1	3.8	8324100	94	5040
2025-01-13 19:11:29.79	330.86	84.27	-38.0	-38.3	3.7	8327819	94	5127
2025-01-13 19:11:30.19	331.20	84.07	-38.1	-39.3	3.7	8421798	94	5643
2025-01-13 19:11:30.60	331.53	83.86	-38.1	-38.7	3.6	8373161	94	5245
2025-01-13 19:11:31.00	331.83	83.66	-37.9	-39.3	4.0	8407882	93	5772
2025-01-13 19:11:31.40	332.11	83.46	-37.9	-38.6	3.8	8345226	93	5317
2025-01-13 19:11:31.80	332.37	83.25	-38.5	-41.0	3.7	8391094	94	6543
2025-01-13 19:11:32.20	332.62	83.05	-38.7	-40.6	3.4	8393875	94	6111
2025-01-13 19:11:32.61	332.86	82.85	-38.6	-41.5	3.6	8415550	94	6914
2025-01-13 19:11:33.01	333.08	82.64	-38.6	-39.4	3.4	8385200	95	5423
2025-01-13 19:11:33.41	333.29	82.44	-38.7	-41.1	3.6	8398235	95	6476
2025-01-13 19:11:33.81	333.49	82.24	-39.0	-40.8	3.3	8430519	95	6033
2025-01-13 19:11:34.21	333.68	82.04	-38.9	-41.6	3.6	8400524	95	6719
2025-01-13 19:11:34.62	333.86	81.83	-38.3	-38.5	3.4	8400569	95	5048
2025-01-13 19:11:35.02	334.03	81.63	-38.3	-39.9	3.6	8410114	95	5918
2025-01-13 19:11:35.42	334.19	81.43	-38.9	-40.3	3.4	8424316	95	5797
2025-01-13 19:11:35.82	334.35	81.23	-39.0	-42.0	3.6	8380657	95	6938
2025-01-13 19:11:36.22	334.49	81.03	-38.7	-39.8	3.4	8432521	95	5618
2025-01-13 19:11:36.63	334.64	80.82	-38.5	-40.5	3.6	8382820	95	6171
2025-01-13 19:11:37.03	334.77	80.62	-38.5	-39.6	3.6	8427989	95	5577
2025-01-13 19:11:37.43	334.90	80.42	-38.6	-39.5	3.5	8377487	95	5440
2025-01-13 19:11:37.83	335.03	80.22	-38.3	-39.1	3.7	8424385	95	5409
2025-01-13 19:11:38.23	335.15	80.02	-37.8	-38.1	3.8	8345798	93	5121
2025-01-13 19:11:38.64	335.26	79.82	-37.6	-37.7	3.9	8302539	93	4977
2025-01-13 19:11:39.04	335.37	79.62	-37.7	-38.1	3.8	8284057	93	5109
2025-01-13 19:11:39.44	335.48	79.42	-37.9	-39.8	3.9	8397628	93	6069
2025-01-13 19:11:39.84	335.58	79.22	-37.8	-38.4	3.7	8373962	93	5266
2025-01-13 19:11:40.24	335.68	79.02	-37.8	-38.3	3.8	8334423	93	5209
2025-01-13 19:11:40.65	335.77	78.81	-37.7	-38.1	3.8	8300960	93	5148
2025-01-13 19:11:41.05	335.86	78.61	-37.8	-38.9	3.9	8401565	93	5600
2025-01-13 19:11:41.45	335.95	78.42	-37.7	-38.2	3.8	8350433	93	5195
2025-01-13 19:11:41.85	336.04	78.22	-37.6	-37.9	3.9	8296485	93	5100
2025-01-13 19:11:42.25	336.12	78.02	-37.5	-37.7	3.9	8315082	93	5039
2025-01-13 19:11:42.65	336.20	77.82	-37.4	-37.3	4.1	8239540	93	4893
2025-01-13 19:11:43.06	336.28	77.62	-37.3	-37.7	4.1	8140205	92	5149
2025-01-13 19:11:43.46	336.35	77.42	-37.3	-37.7	4.1	8194564	92	5157
2025-01-13 19:11:43.86	336.42	77.22	-37.3	-37.7	4.1	8184459	92	5175
2025-01-13 19:11:44.26	336.49	77.03	-36.9	-36.6	4.5	8171138	92	4741
2025-01-13 19:11:44.66	336.56	76.83	-36.8	-36.7	4.6	7815696	91	4874
2025-01-13 19:11:45.07	336.63	76.63	-36.7	-36.7	4.6	7785587	91	4917
2025-01-13 19:11:45.47	336.69	76.43	-36.9	-37.1	4.4	7970512	91	5037
2025-01-13 19:11:45.87	336.75	76.23	-36.8	-36.9	4.4	8041385	91	4952
2025-01-13 19:11:46.27	336.81	76.04	-36.5	-36.0	4.8	7813442	91	4644
2025-01-13 19:11:46.67	336.87	75.84	-36.6	-36.2	4.6	7744182	91	4726
2025-01-13 19:11:47.08	336.93	75.64	-36.6	-36.2	4.6	7835243	91	4708
2025-01-13 19:11:47.48	336.99	75.45	-36.5	-35.9	4.7	7733322	91	4625
2025-01-13 19:11:47.88	337.04	75.25	-35.9	-35.2	5.0	7580909	90	4538
2025-01-13 19:11:48.28	337.09	75.06	-36.2	-35.8	4.7	7496887	90	4717
2025-01-13 19:11:48.69	337.14	74.86	-36.1	-35.7	4.8	7650100	90	4696
2025-01-13 19:11:49.09	337.19	74.66	-36.0	-35.4	4.9	7628917	90	4595
2025-01-13 19:11:49.49	337.24	74.47	-35.8	-35.4	5.1	7347450	89	4718
2025-01-13 19:11:49.89	337.29	74.28	-35.8	-35.4	5.1	7065765	89	4726
2025-01-13 19:11:50.29	337.34	74.08	-36.1	-36.1	4.8	7395812	89	4946
2025-01-13 19:11:50.70	337.38	73.89	-36.3	-36.6	4.7	7619464	89	5106
2025-01-13 19:11:51.10	337.43	73.69	-36.4	-37.0	4.5	7794422	89	5252
2025-01-13 19:11:51.50	337.47	73.50	-36.5	-36.9	4.4	7963703	90	5122
2025-01-13 19:11:51.90	337.51	73.31	-36.7	-37.3	4.2	8100105	90	5267
2025-01-13 19:11:52.31	337.55	73.11	-36.7	-37.5	4.2	8188190	90	5351
2025-01-13 19:11:52.71	337.59	72.92	-36.7	-37.5	4.2	8175121	90	5355
2025-01-13 19:11:53.11	337.63	72.73	-36.7	-37.3	4.2	8130901	90	5296
2025-01-13 19:11:53.51	337.67	72.54	-36.6	-37.1	4.3	8138740	90	5233
2025-01-13 19:11:53.92	337.71	72.35	-36.7	-37.5	4.2	8178302	90	5367
2025-01-13 19:11:54.32	337.74	72.16	-36.6	-37.1	4.3	8106113	90	5217
2025-01-13 19:11:54.72	337.78	71.97	-36.5	-36.8	4.4	8042621	90	5098
2025-01-13 19:11:55.12	337.81	71.78	-36.3	-36.4	4.5	7957157	90	4965
2025-01-13 19:11:55.52	337.85	71.59	-36.4	-36.6	4.4	7930961	90	5046
2025-01-13 19:11:55.93	337.88	71.39	-36.5	-37.0	4.3	8075752	90	5206
2025-01-13 19:11:56.33	337.92	71.21	-36.5	-37.0	4.3	8077960	90	5192
2025-01-13 19:11:56.73	337.95	71.02	-36.6	-37.1	4.2	8125122	90	5217
2025-01-13 19:11:57.13	337.98	70.83	-36.7	-37.5	4.1	8140480	90	5390
2025-01-13 19:11:57.53	338.01	70.64	-37.3	-38.3	3.8	8271308	91	5527
2025-01-13 19:11:57.94	338.04	70.45	-37.4	-40.1	3.7	8315803	91	6663
2025-01-13 19:11:58.34	338.07	70.27	-38.8	-41.8	3.4	8417610	94	6931

#Closed at: 2025-01-13 19:11:58