passes_logs/2025/01/16/Planum_Noyabrsk/Planum_Noyabrsk__20250116_173226_NOAA_18_rec.log

#Pass ID: 20250116_173226_NOAA 18
#Satellite: NOAA 18
#Configuration: NOAA 18
#Start time: 2025-01-16 17:32:31.812473

#LorettStation: 1.0.0 05.05.2024
#Station: Planum_Noyabrsk
#Location: 75.446886 lon 63.207202 lat
#TLE: 1 28654U 05018A   25016.15379782  .00000321  00000+0  19399-3 0  9994
#TLE: 2 28654  98.8565  97.1968 0014416 175.9109 184.2183 14.13487365 13346

#Time	Az	El	Level	SNR
2025-01-16 17:32:38.479074	214.9	30.9	-65.4	12.1
2025-01-16 17:32:39.610378	215.2	31.1	-65.8	12.3
2025-01-16 17:32:40.738081	215.4	31.2	-65.8	10.8
2025-01-16 17:32:41.864802	215.7	31.4	-66.0	12.3
2025-01-16 17:32:42.997142	216.0	31.5	-65.9	12.0
2025-01-16 17:32:44.124909	216.3	31.7	-66.2	11.8
2025-01-16 17:32:45.254311	216.6	31.9	-65.9	11.6
2025-01-16 17:32:46.383025	216.8	32.0	-66.4	11.0
2025-01-16 17:32:47.508528	217.1	32.2	-66.6	12.1
2025-01-16 17:32:48.639034	217.4	32.3	-67.1	12.1
2025-01-16 17:32:49.767285	217.7	32.5	-66.8	12.5
2025-01-16 17:32:50.896725	218.0	32.6	-66.7	12.5
2025-01-16 17:32:52.032242	218.3	32.8	-66.8	12.4
2025-01-16 17:32:53.160301	218.6	33.0	-66.0	10.4
2025-01-16 17:32:54.288715	218.9	33.1	-66.7	12.3
2025-01-16 17:32:55.418720	219.2	33.3	-66.1	9.7
2025-01-16 17:32:56.546789	219.5	33.4	-66.6	11.4
2025-01-16 17:32:57.680108	219.9	33.6	-66.3	11.0
2025-01-16 17:32:58.808893	220.2	33.7	-67.0	12.5
2025-01-16 17:32:59.938634	220.5	33.9	-66.3	9.3
2025-01-16 17:33:01.067557	220.8	34.1	-66.3	9.9
2025-01-16 17:33:02.196868	221.2	34.2	-65.6	11.3
2025-01-16 17:33:03.326832	221.5	34.4	-65.9	10.8
2025-01-16 17:33:04.453646	221.8	34.5	-65.6	10.2
2025-01-16 17:33:05.583681	222.2	34.7	-65.9	10.6
2025-01-16 17:33:06.713840	222.5	34.8	-64.9	8.7
2025-01-16 17:33:07.841612	222.8	35.0	-65.3	12.1
2025-01-16 17:33:08.969765	223.2	35.1	-65.2	8.7
2025-01-16 17:33:10.100469	223.5	35.3	-64.9	8.7
2025-01-16 17:33:11.230770	223.9	35.4	-66.5	12.3
2025-01-16 17:33:12.360552	224.2	35.6	-65.9	11.0
2025-01-16 17:33:13.491635	224.6	35.8	-66.3	10.8
2025-01-16 17:33:14.622505	225.0	35.9	-66.6	13.6
2025-01-16 17:33:15.751648	225.3	36.1	-66.1	9.7
2025-01-16 17:33:16.883293	225.7	36.2	-65.1	5.9
2025-01-16 17:33:18.013931	226.1	36.4	-65.9	8.3
2025-01-16 17:33:19.145325	226.4	36.5	-64.6	7.2
2025-01-16 17:33:20.277573	226.8	36.7	-65.1	8.9
2025-01-16 17:33:21.406821	227.2	36.8	-66.0	10.4
2025-01-16 17:33:22.537567	227.6	37.0	-65.9	10.4
2025-01-16 17:33:23.668233	228.0	37.1	-65.7	9.5
2025-01-16 17:33:24.799354	228.4	37.2	-65.4	10.6
2025-01-16 17:33:25.930934	228.8	37.4	-66.5	13.3
2025-01-16 17:33:27.061292	229.2	37.5	-65.5	9.5
2025-01-16 17:33:28.193647	229.6	37.7	-64.9	11.5
2025-01-16 17:33:29.322047	230.0	37.8	-66.4	14.2
2025-01-16 17:33:30.449125	230.4	38.0	-66.9	13.7
2025-01-16 17:33:31.576014	230.8	38.1	-66.2	14.2
2025-01-16 17:33:32.707988	231.2	38.2	-67.0	13.9
2025-01-16 17:33:33.838437	231.6	38.4	-66.6	12.7
2025-01-16 17:33:34.967421	232.1	38.5	-65.2	11.8
2025-01-16 17:33:36.096927	232.5	38.6	-65.5	11.0
2025-01-16 17:33:37.228184	232.9	38.8	-66.5	11.2
2025-01-16 17:33:38.358672	233.3	38.9	-66.0	8.9
2025-01-16 17:33:39.489703	233.8	39.0	-67.3	11.2
2025-01-16 17:33:40.619998	234.2	39.2	-66.7	10.6
2025-01-16 17:33:41.753849	234.7	39.3	-65.6	9.4
2025-01-16 17:33:42.884287	235.1	39.4	-66.0	11.7
2025-01-16 17:33:44.017202	235.6	39.6	-67.2	12.1
2025-01-16 17:33:45.145500	236.0	39.7	-67.4	12.4
2025-01-16 17:33:46.273800	236.5	39.8	-67.2	10.7
2025-01-16 17:33:47.406895	236.9	39.9	-66.1	12.4
2025-01-16 17:33:48.537636	237.4	40.0	-66.1	12.3
2025-01-16 17:33:49.666869	237.9	40.2	-66.2	11.8
2025-01-16 17:33:50.795628	238.3	40.3	-65.0	8.8
2025-01-16 17:33:51.926831	238.8	40.4	-65.3	9.0
2025-01-16 17:33:53.057076	239.3	40.5	-65.0	8.9
2025-01-16 17:33:54.187640	239.8	40.6	-65.6	10.9
2025-01-16 17:33:55.320505	240.3	40.7	-66.1	13.1
2025-01-16 17:33:56.453735	240.8	40.8	-65.4	10.5
2025-01-16 17:33:57.583434	241.3	40.9	-65.4	11.0
2025-01-16 17:33:58.711057	241.7	41.0	-65.8	13.6
2025-01-16 17:33:59.840305	242.2	41.1	-64.7	10.0
2025-01-16 17:34:00.972782	242.7	41.2	-65.4	12.0
2025-01-16 17:34:02.102888	243.2	41.3	-65.0	11.8
2025-01-16 17:34:03.232930	243.8	41.4	-65.4	12.7
2025-01-16 17:34:04.365261	244.3	41.5	-65.5	11.8
2025-01-16 17:34:05.496842	244.8	41.6	-64.4	10.3
2025-01-16 17:34:06.626548	245.3	41.7	-65.5	12.1
2025-01-16 17:34:07.758448	245.8	41.8	-64.8	11.9
2025-01-16 17:34:08.887667	246.3	41.9	-64.9	13.2
2025-01-16 17:34:10.018502	246.8	41.9	-64.9	13.3
2025-01-16 17:34:11.145930	247.4	42.0	-64.5	13.0
2025-01-16 17:34:12.279172	247.9	42.1	-63.8	9.5
2025-01-16 17:34:13.409432	248.4	42.2	-64.6	11.7
2025-01-16 17:34:14.539395	249.0	42.2	-64.5	13.2
2025-01-16 17:34:15.672565	249.5	42.3	-64.3	11.8
2025-01-16 17:34:16.802006	250.0	42.4	-63.2	10.8
2025-01-16 17:34:17.933554	250.6	42.4	-64.1	12.0
2025-01-16 17:34:19.063368	251.1	42.5	-64.4	12.1
2025-01-16 17:34:20.193744	251.7	42.5	-64.6	12.1
2025-01-16 17:34:21.321540	252.2	42.6	-63.8	11.9
2025-01-16 17:34:22.453153	252.7	42.7	-64.5	12.7
2025-01-16 17:34:23.583179	253.3	42.7	-64.3	11.9
2025-01-16 17:34:24.710428	253.8	42.7	-64.7	12.4
2025-01-16 17:34:25.843251	254.4	42.8	-64.2	12.2
2025-01-16 17:34:26.970804	254.9	42.8	-64.0	11.1
2025-01-16 17:34:28.100009	255.5	42.9	-64.5	13.1
2025-01-16 17:34:29.230048	256.1	42.9	-64.5	12.7
2025-01-16 17:34:30.360878	256.6	42.9	-64.7	13.6
2025-01-16 17:34:31.492435	257.2	43.0	-65.5	13.4
2025-01-16 17:34:32.623646	257.7	43.0	-64.5	12.7
2025-01-16 17:34:33.754366	258.3	43.0	-64.9	13.5
2025-01-16 17:34:34.885679	258.8	43.0	-64.4	12.4
2025-01-16 17:34:36.015069	259.4	43.0	-65.0	13.3
2025-01-16 17:34:37.146990	260.0	43.1	-65.5	13.8
2025-01-16 17:34:38.276644	260.5	43.1	-64.9	13.4
2025-01-16 17:34:39.407013	261.1	43.1	-64.7	12.5
2025-01-16 17:34:40.533882	261.7	43.1	-65.2	12.0
2025-01-16 17:34:41.663774	262.2	43.1	-65.4	12.4
2025-01-16 17:34:42.791827	262.8	43.1	-64.7	11.9
2025-01-16 17:34:43.921414	263.3	43.1	-63.4	10.0
2025-01-16 17:34:45.055908	263.9	43.1	-64.8	12.5
2025-01-16 17:34:46.183748	264.5	43.1	-65.6	11.1
2025-01-16 17:34:47.315523	265.0	43.0	-64.3	8.6
2025-01-16 17:34:48.447332	265.6	43.0	-65.4	11.6
2025-01-16 17:34:49.576793	266.1	43.0	-65.3	7.8
2025-01-16 17:34:50.704444	266.7	43.0	-64.9	11.0
2025-01-16 17:34:51.835824	267.3	43.0	-64.9	11.2
2025-01-16 17:34:52.966605	267.8	42.9	-65.4	10.1
2025-01-16 17:34:54.097195	268.4	42.9	-62.2	9.1
2025-01-16 17:34:55.228158	268.9	42.9	-66.2	10.3
2025-01-16 17:34:56.359543	269.5	42.8	-65.7	10.7
2025-01-16 17:34:57.490142	270.0	42.8	-62.9	5.9
2025-01-16 17:34:58.623511	270.6	42.7	-65.5	7.7
2025-01-16 17:34:59.754029	271.1	42.7	-66.0	11.6
2025-01-16 17:35:00.884071	271.7	42.6	-60.6	1.4
2025-01-16 17:35:02.017707	272.2	42.6	-65.0	10.9
2025-01-16 17:35:03.146782	272.8	42.5	-65.2	9.0
2025-01-16 17:35:04.276831	273.3	42.5	-64.3	7.4
2025-01-16 17:35:05.407220	273.9	42.4	-63.5	7.0
2025-01-16 17:35:06.535869	274.4	42.4	-64.7	8.4
2025-01-16 17:35:07.664423	274.9	42.3	-59.8	1.8
2025-01-16 17:35:08.794724	275.5	42.2	-64.6	10.0
2025-01-16 17:35:09.927453	276.0	42.2	-62.9	3.6
2025-01-16 17:35:11.056829	276.5	42.1	-63.3	5.2
2025-01-16 17:35:12.186557	277.0	42.0	-63.0	3.8
2025-01-16 17:35:13.318420	277.6	41.9	-61.3	2.9
2025-01-16 17:35:14.446749	278.1	41.8	-63.1	6.4
2025-01-16 17:35:15.579662	278.6	41.8	-64.0	6.0
2025-01-16 17:35:16.710542	279.1	41.7	-60.9	2.7
2025-01-16 17:35:17.841766	279.6	41.6	-64.1	9.0
2025-01-16 17:35:18.972863	280.2	41.5	-62.9	5.8
2025-01-16 17:35:20.104370	280.7	41.4	-60.8	0.5
2025-01-16 17:35:21.237778	281.2	41.3	-60.3	1.1
2025-01-16 17:35:22.368496	281.7	41.2	-63.4	7.6
2025-01-16 17:35:23.499443	282.2	41.1	-62.9	4.7
2025-01-16 17:35:24.627180	282.7	41.0	-60.9	3.1
2025-01-16 17:35:25.759369	283.2	40.9	-63.0	7.3
2025-01-16 17:35:26.889265	283.7	40.8	-63.0	4.0
2025-01-16 17:35:28.019318	284.1	40.7	-63.7	4.6
2025-01-16 17:35:29.149274	284.6	40.6	-60.9	0.0
2025-01-16 17:35:30.281768	285.1	40.5	-64.4	5.3
2025-01-16 17:35:31.412084	285.6	40.4	-65.5	6.5
2025-01-16 17:35:32.544918	286.1	40.3	-64.3	5.6
2025-01-16 17:35:33.677622	286.5	40.1	-60.2	0.0
2025-01-16 17:35:34.808815	287.0	40.0	-63.9	2.6
2025-01-16 17:35:35.940963	287.5	39.9	-62.7	1.7
2025-01-16 17:35:37.073183	287.9	39.8	-62.5	1.6
2025-01-16 17:35:38.200405	288.4	39.7	-60.1	0.0
2025-01-16 17:35:39.331109	288.8	39.5	-65.1	7.7
2025-01-16 17:35:40.462002	289.3	39.4	-64.4	5.1
2025-01-16 17:35:41.592933	289.7	39.3	-59.7	0.0
2025-01-16 17:35:42.722087	290.2	39.2	-64.0	5.2
2025-01-16 17:35:43.852847	290.6	39.0	-64.9	4.1
2025-01-16 17:35:44.983128	291.1	38.9	-60.5	0.0
2025-01-16 17:35:46.114240	291.5	38.8	-63.4	3.8
2025-01-16 17:35:47.246412	291.9	38.6	-63.6	2.6
2025-01-16 17:35:48.378851	292.4	38.5	-60.9	0.0
2025-01-16 17:35:49.509597	292.8	38.4	-63.6	2.5
2025-01-16 17:35:50.638775	293.2	38.2	-64.3	3.7
2025-01-16 17:35:51.768767	293.6	38.1	-64.3	4.9
2025-01-16 17:35:52.901679	294.0	37.9	-63.1	2.6
2025-01-16 17:35:54.037778	294.4	37.8	-62.2	1.7
2025-01-16 17:35:55.168734	294.8	37.7	-62.6	3.0
2025-01-16 17:35:56.299746	295.2	37.5	-60.8	0.0
2025-01-16 17:35:57.429756	295.6	37.4	-62.0	0.0
2025-01-16 17:35:58.560586	296.0	37.2	-64.7	6.4
2025-01-16 17:35:59.691016	296.4	37.1	-63.6	8.0
2025-01-16 17:36:00.823265	296.8	36.9	-63.2	4.8
2025-01-16 17:36:01.952196	297.2	36.8	-64.4	6.8
2025-01-16 17:36:03.085859	297.6	36.6	-64.2	7.7
2025-01-16 17:36:04.216611	298.0	36.5	-64.5	5.0
2025-01-16 17:36:05.347366	298.3	36.3	-63.6	3.3
2025-01-16 17:36:06.476026	298.7	36.2	-61.9	3.2
2025-01-16 17:36:07.604297	299.1	36.0	-64.3	8.3
2025-01-16 17:36:08.735128	299.4	35.9	-63.1	5.4
2025-01-16 17:36:09.867403	299.8	35.7	-64.1	9.5
2025-01-16 17:36:10.999208	300.2	35.6	-64.5	9.4
2025-01-16 17:36:12.131135	300.5	35.4	-64.6	7.4
2025-01-16 17:36:13.265199	300.9	35.3	-64.4	10.1
2025-01-16 17:36:14.394794	301.2	35.1	-65.8	11.1
2025-01-16 17:36:15.524685	301.6	35.0	-65.1	9.9
2025-01-16 17:36:16.653812	301.9	34.8	-65.2	11.2
2025-01-16 17:36:17.786067	302.2	34.7	-63.4	6.6
2025-01-16 17:36:18.920627	302.6	34.5	-65.3	10.6
2025-01-16 17:36:20.053111	302.9	34.3	-62.8	6.5
2025-01-16 17:36:21.181750	303.2	34.2	-61.5	3.5
2025-01-16 17:36:22.311407	303.6	34.0	-62.1	4.8
2025-01-16 17:36:23.443313	303.9	33.9	-65.8	11.5
2025-01-16 17:36:24.573015	304.2	33.7	-64.7	7.9
2025-01-16 17:36:25.703243	304.5	33.6	-65.1	8.9
2025-01-16 17:36:26.832488	304.8	33.4	-66.3	10.4
2025-01-16 17:36:27.966695	305.2	33.3	-65.3	8.6
2025-01-16 17:36:29.097324	305.5	33.1	-64.9	8.5
2025-01-16 17:36:30.230256	305.8	32.9	-65.4	7.1
2025-01-16 17:36:31.360147	306.1	32.8	-66.5	10.1
2025-01-16 17:36:32.490416	306.4	32.6	-66.3	8.6
2025-01-16 17:36:33.623133	306.7	32.5	-65.9	8.2
2025-01-16 17:36:34.754672	307.0	32.3	-64.0	3.2
2025-01-16 17:36:35.884988	307.3	32.2	-65.7	7.3
2025-01-16 17:36:37.017079	307.5	32.0	-65.4	8.9
2025-01-16 17:36:38.149402	307.8	31.8	-66.7	7.0
2025-01-16 17:36:39.277430	308.1	31.7	-67.2	10.3
2025-01-16 17:36:40.407174	308.4	31.5	-67.3	8.3
2025-01-16 17:36:41.539610	308.7	31.4	-66.9	7.9
2025-01-16 17:36:42.668043	308.9	31.2	-66.5	6.0
2025-01-16 17:36:43.794270	309.2	31.1	-65.9	7.0
2025-01-16 17:36:44.928329	309.5	30.9	-67.0	6.8
2025-01-16 17:36:46.059256	309.8	30.7	-65.8	1.6
2025-01-16 17:36:47.189226	310.0	30.6	-67.1	7.5
2025-01-16 17:36:48.322509	310.3	30.4	-65.8	4.7
2025-01-16 17:36:49.453067	310.5	30.3	-67.0	6.0
2025-01-16 17:36:50.582474	310.8	30.1	-66.5	0.0
2025-01-16 17:36:51.712364	311.1	30.0	-65.6	0.0
#Closed at: 2025-01-16 17:32:26.815534