passes_logs/2025/01/16/Planum_Noyabrsk/Planum_Noyabrsk__20250116_152220_METOP-C_rec.log

#Pass ID: 20250116_152220_METOP-C
#Satellite: METOP-C
#Configuration: METOP-C
#Start time: 2025-01-16 15:22:25.219079

#LorettStation: 1.0.0 05.05.2024
#Station: Planum_Noyabrsk
#Location: 75.446886 lon 63.207202 lat
#TLE: 1 43689U 18087A   25016.13723724  .00000217  00000+0  11924-3 0  9996
#TLE: 2 43689  98.6963  78.6125 0001472 162.3188 197.8041 14.21481582321377

#Time	Az	El	Level	SNR
2025-01-16 15:22:37.508791	163.5	32.5	-63.6	8.4
2025-01-16 15:22:38.639686	163.5	32.7	-63.3	11.9
2025-01-16 15:22:39.769298	163.5	32.9	-62.9	9.9
2025-01-16 15:22:40.898358	163.6	33.2	-63.5	10.7
2025-01-16 15:22:42.026453	163.6	33.4	-62.3	9.4
2025-01-16 15:22:43.157025	163.6	33.7	-62.9	11.8
2025-01-16 15:22:44.286993	163.7	33.9	-62.9	10.9
2025-01-16 15:22:45.417563	163.7	34.2	-63.2	11.7
2025-01-16 15:22:46.549405	163.7	34.4	-63.3	11.1
2025-01-16 15:22:47.681504	163.8	34.7	-63.3	11.3
2025-01-16 15:22:48.814260	163.8	34.9	-63.0	10.8
2025-01-16 15:22:49.949452	163.8	35.2	-63.5	11.7
2025-01-16 15:22:51.078404	163.9	35.4	-63.4	12.0
2025-01-16 15:22:52.211381	163.9	35.7	-63.7	12.6
2025-01-16 15:22:53.341333	164.0	36.0	-63.7	11.3
2025-01-16 15:22:54.474735	164.0	36.2	-63.5	11.6
2025-01-16 15:22:55.609481	164.0	36.5	-63.4	9.8
2025-01-16 15:22:56.744023	164.1	36.8	-64.0	9.8
2025-01-16 15:22:57.886511	164.1	37.0	-64.0	11.2
2025-01-16 15:22:59.019687	164.2	37.3	-63.6	10.8
2025-01-16 15:23:00.153087	164.2	37.6	-63.9	8.5
2025-01-16 15:23:01.282203	164.3	37.9	-62.2	5.9
2025-01-16 15:23:02.414631	164.3	38.2	-62.4	8.9
2025-01-16 15:23:03.545584	164.4	38.4	-62.3	6.7
2025-01-16 15:23:04.681846	164.4	38.7	-62.0	6.8
2025-01-16 15:23:05.816245	164.4	39.0	-62.5	6.7
2025-01-16 15:23:06.946297	164.5	39.3	-63.7	10.7
2025-01-16 15:23:08.074837	164.5	39.6	-63.7	11.2
2025-01-16 15:23:09.207822	164.6	39.9	-63.7	11.1
2025-01-16 15:23:10.339656	164.6	40.2	-62.8	8.5
2025-01-16 15:23:11.469628	164.7	40.5	-62.9	8.9
2025-01-16 15:23:12.599223	164.7	40.8	-63.4	11.5
2025-01-16 15:23:13.731535	164.8	41.1	-63.1	11.9
2025-01-16 15:23:14.866360	164.9	41.4	-63.0	11.1
2025-01-16 15:23:15.995557	164.9	41.7	-63.1	12.3
2025-01-16 15:23:17.123749	165.0	42.0	-63.1	12.1
2025-01-16 15:23:18.252035	165.0	42.4	-63.5	12.7
2025-01-16 15:23:19.383810	165.1	42.7	-62.9	12.8
2025-01-16 15:23:20.516721	165.1	43.0	-63.0	11.0
2025-01-16 15:23:21.649991	165.2	43.3	-62.9	12.5
2025-01-16 15:23:22.779020	165.3	43.6	-63.2	12.3
2025-01-16 15:23:23.910401	165.3	44.0	-63.1	13.5
2025-01-16 15:23:25.041261	165.4	44.3	-62.9	11.9
2025-01-16 15:23:26.172729	165.5	44.6	-63.0	11.4
2025-01-16 15:23:27.306385	165.5	45.0	-63.1	11.5
2025-01-16 15:23:28.438195	165.6	45.3	-63.0	11.5
2025-01-16 15:23:29.567705	165.7	45.7	-63.2	10.5
2025-01-16 15:23:30.697755	165.7	46.0	-63.4	11.2
2025-01-16 15:23:31.829907	165.8	46.4	-63.4	10.9
2025-01-16 15:23:32.979234	165.9	46.7	-63.2	9.4
2025-01-16 15:23:34.108785	165.9	47.1	-63.1	10.6
2025-01-16 15:23:35.237533	166.0	47.4	-63.1	9.9
2025-01-16 15:23:36.369093	166.1	47.8	-63.1	10.0
2025-01-16 15:23:37.499820	166.2	48.2	-63.0	11.0
2025-01-16 15:23:38.628846	166.3	48.5	-62.6	8.2
2025-01-16 15:23:39.758424	166.4	48.9	-62.5	8.5
2025-01-16 15:23:40.888351	166.4	49.3	-63.2	11.1
2025-01-16 15:23:42.018926	166.5	49.7	-62.4	10.2
2025-01-16 15:23:43.149258	166.6	50.0	-62.6	10.1
2025-01-16 15:23:44.280298	166.7	50.4	-62.7	11.5
2025-01-16 15:23:45.411206	166.8	50.8	-63.1	11.2
2025-01-16 15:23:46.543571	166.9	51.2	-62.9	11.0
2025-01-16 15:23:47.672217	167.0	51.6	-62.4	9.9
2025-01-16 15:23:48.804688	167.1	52.0	-62.3	9.2
2025-01-16 15:23:49.933329	167.2	52.4	-62.7	10.3
2025-01-16 15:23:51.066701	167.3	52.8	-63.0	11.3
2025-01-16 15:23:52.197919	167.4	53.2	-62.9	11.1
2025-01-16 15:23:53.331825	167.5	53.6	-62.3	9.0
2025-01-16 15:23:54.462408	167.7	54.0	-62.6	10.0
2025-01-16 15:23:55.591954	167.8	54.4	-62.3	8.9
2025-01-16 15:23:56.722431	167.9	54.9	-63.1	11.2
2025-01-16 15:23:57.853865	168.0	55.3	-62.9	9.6
2025-01-16 15:23:58.984341	168.2	55.7	-62.8	9.3
2025-01-16 15:24:00.116769	168.3	56.1	-62.7	8.5
2025-01-16 15:24:01.248755	168.4	56.6	-63.6	10.2
2025-01-16 15:24:02.381774	168.6	57.0	-63.0	8.9
2025-01-16 15:24:03.509530	168.7	57.4	-62.9	8.3
2025-01-16 15:24:04.643187	168.9	57.9	-63.1	9.1
2025-01-16 15:24:05.773029	169.0	58.3	-62.7	7.7
2025-01-16 15:24:06.904089	169.2	58.8	-62.7	9.1
2025-01-16 15:24:08.035744	169.4	59.2	-63.4	10.0
2025-01-16 15:24:09.167034	169.5	59.7	-63.4	10.4
2025-01-16 15:24:10.302764	169.7	60.1	-62.8	8.8
2025-01-16 15:24:11.434788	169.9	60.6	-62.9	9.5
2025-01-16 15:24:12.564932	170.1	61.1	-62.6	8.8
2025-01-16 15:24:13.696387	170.3	61.5	-62.8	8.5
2025-01-16 15:24:14.828649	170.5	62.0	-63.0	10.3
2025-01-16 15:24:15.959742	170.7	62.5	-63.7	12.3
2025-01-16 15:24:17.089373	170.9	63.0	-63.5	11.5
2025-01-16 15:24:18.221438	171.2	63.4	-62.7	11.0
2025-01-16 15:24:19.348760	171.4	63.9	-62.3	10.3
2025-01-16 15:24:20.480793	171.7	64.4	-62.6	12.1
2025-01-16 15:24:21.611762	171.9	64.9	-62.3	10.7
2025-01-16 15:24:22.739251	172.2	65.4	-62.6	12.2
2025-01-16 15:24:23.869839	172.5	65.9	-62.7	10.5
2025-01-16 15:24:25.001641	172.8	66.4	-62.7	11.7
2025-01-16 15:24:26.129100	173.1	66.9	-62.7	10.5
2025-01-16 15:24:27.260540	173.4	67.4	-63.1	10.8
2025-01-16 15:24:28.456881	173.8	67.9	-63.4	9.3
2025-01-16 15:24:29.629402	174.2	68.4	-63.4	9.0
2025-01-16 15:24:30.760115	174.5	68.9	-63.9	8.7
2025-01-16 15:24:31.887719	174.9	69.4	-63.9	8.4
2025-01-16 15:24:33.020907	175.4	69.9	-64.3	7.4
2025-01-16 15:24:34.152259	175.8	70.4	-64.0	7.4
2025-01-16 15:24:35.283369	176.3	71.0	-64.1	7.7
2025-01-16 15:24:36.414210	176.8	71.5	-64.5	8.2
2025-01-16 15:24:37.545964	177.3	72.0	-64.1	6.5
2025-01-16 15:24:38.676799	177.9	72.5	-64.0	6.2
2025-01-16 15:24:39.807721	178.5	73.0	-64.2	8.4
2025-01-16 15:24:40.939922	179.1	73.5	-64.1	6.8
2025-01-16 15:24:42.071463	179.8	74.0	-62.9	5.5
2025-01-16 15:24:43.202007	180.5	74.6	-64.2	5.2
2025-01-16 15:24:44.336396	181.3	75.1	-63.8	5.6
2025-01-16 15:24:45.468120	182.1	75.6	-64.1	8.5
2025-01-16 15:24:46.597389	183.0	76.1	-63.9	6.0
2025-01-16 15:24:47.748434	184.0	76.6	-63.3	6.6
2025-01-16 15:24:48.881079	185.1	77.1	-63.3	7.2
2025-01-16 15:24:50.011586	186.2	77.7	-63.0	7.9
2025-01-16 15:24:51.142641	187.5	78.2	-63.0	8.5
2025-01-16 15:24:52.272837	188.8	78.7	-62.5	8.1
2025-01-16 15:24:53.404297	190.3	79.2	-62.5	8.1
2025-01-16 15:24:54.536785	191.9	79.6	-62.6	6.2
2025-01-16 15:24:55.668291	193.7	80.1	-62.9	8.0
2025-01-16 15:24:56.798770	195.7	80.6	-62.9	6.2
2025-01-16 15:24:57.933529	197.9	81.1	-62.5	6.2
2025-01-16 15:24:59.067728	200.3	81.5	-62.6	7.1
2025-01-16 15:25:00.203718	203.0	81.9	-62.7	7.6
2025-01-16 15:25:01.336032	206.0	82.4	-62.7	8.9
2025-01-16 15:25:02.467104	209.3	82.7	-62.8	9.3
2025-01-16 15:25:03.598926	213.0	83.1	-62.4	8.0
2025-01-16 15:25:04.729968	217.1	83.4	-61.8	7.2
2025-01-16 15:25:05.862514	221.6	83.7	-63.3	9.2
2025-01-16 15:25:06.990948	226.5	84.0	-62.7	6.7
2025-01-16 15:25:08.120775	231.8	84.2	-64.0	11.5
2025-01-16 15:25:09.261332	237.4	84.4	-63.1	9.9
2025-01-16 15:25:10.393183	243.4	84.5	-62.8	5.7
2025-01-16 15:25:11.522879	249.4	84.5	-64.0	11.2
2025-01-16 15:25:12.654207	255.5	84.5	-62.0	9.2
2025-01-16 15:25:13.784614	261.4	84.4	-63.3	9.2
2025-01-16 15:25:14.912448	267.1	84.2	-63.1	11.1
2025-01-16 15:25:16.044740	272.5	84.0	-64.3	10.5
2025-01-16 15:25:17.174682	277.5	83.8	-61.9	4.5
2025-01-16 15:25:18.305271	282.1	83.5	-61.8	3.4
2025-01-16 15:25:19.436789	286.3	83.2	-61.3	4.5
2025-01-16 15:25:20.567652	290.1	82.8	-63.3	8.5
2025-01-16 15:25:21.697061	293.5	82.4	-62.7	9.7
2025-01-16 15:25:22.825559	296.5	82.0	-62.8	9.0
2025-01-16 15:25:23.956358	299.3	81.6	-61.2	7.8
2025-01-16 15:25:25.085825	301.7	81.2	-60.9	4.3
2025-01-16 15:25:26.217606	304.0	80.7	-60.8	3.6
2025-01-16 15:25:27.348524	306.0	80.2	-61.0	3.4
2025-01-16 15:25:28.478211	307.8	79.8	-60.6	2.6
2025-01-16 15:25:29.609263	309.5	79.3	-60.2	2.8
2025-01-16 15:25:30.740023	311.0	78.8	-60.5	3.3
2025-01-16 15:25:31.873296	312.4	78.3	-61.0	2.1
2025-01-16 15:25:33.002461	313.7	77.8	-59.9	2.0
2025-01-16 15:25:34.138202	314.8	77.3	-59.9	4.4
2025-01-16 15:25:35.268778	315.9	76.8	-59.6	0.5
2025-01-16 15:25:36.398129	316.9	76.3	-59.7	1.6
2025-01-16 15:25:37.528790	317.8	75.7	-60.2	3.0
2025-01-16 15:25:38.658529	318.7	75.2	-60.2	2.9
2025-01-16 15:25:39.791097	319.5	74.7	-62.0	5.7
2025-01-16 15:25:40.922573	320.2	74.2	-60.0	2.4
2025-01-16 15:25:42.053876	320.9	73.7	-59.8	0.9
2025-01-16 15:25:43.182383	321.6	73.2	-60.1	0.6
2025-01-16 15:25:44.310850	322.2	72.7	-60.3	0.0
2025-01-16 15:25:45.442549	322.7	72.1	-60.0	0.0
2025-01-16 15:25:46.572561	323.3	71.6	-60.2	0.0
2025-01-16 15:25:47.705371	323.8	71.1	-60.4	0.8
2025-01-16 15:25:48.833939	324.3	70.6	-59.9	0.0
2025-01-16 15:25:49.964410	324.7	70.1	-60.4	0.0
2025-01-16 15:25:51.098326	325.1	69.6	-60.0	1.7
2025-01-16 15:25:52.228906	325.6	69.1	-60.6	2.8
2025-01-16 15:25:53.357343	325.9	68.6	-60.1	2.7
2025-01-16 15:25:54.492262	326.3	68.1	-59.6	3.5
2025-01-16 15:25:55.639299	326.7	67.6	-60.3	3.1
2025-01-16 15:25:56.772053	327.0	67.1	-61.2	6.6
2025-01-16 15:25:57.901578	327.3	66.6	-59.8	0.7
2025-01-16 15:25:59.034568	327.6	66.1	-60.1	1.3
2025-01-16 15:26:00.165322	327.9	65.6	-59.2	0.0
2025-01-16 15:26:01.294960	328.2	65.1	-59.7	3.1
2025-01-16 15:26:02.425424	328.5	64.6	-59.1	3.4
2025-01-16 15:26:03.557353	328.7	64.1	-59.1	1.4
2025-01-16 15:26:04.690908	329.0	63.6	-57.9	0.0
2025-01-16 15:26:05.822766	329.2	63.1	-59.1	2.0
2025-01-16 15:26:06.954638	329.4	62.7	-61.1	5.4
2025-01-16 15:26:08.082963	329.6	62.2	-61.9	8.4
2025-01-16 15:26:09.216704	329.8	61.7	-58.0	0.0
2025-01-16 15:26:10.351117	330.0	61.3	-58.4	2.7
2025-01-16 15:26:11.484604	330.2	60.8	-58.4	1.6
2025-01-16 15:26:12.616105	330.4	60.3	-58.3	1.6
2025-01-16 15:26:13.747529	330.6	59.9	-58.6	0.2
2025-01-16 15:26:14.875784	330.8	59.4	-57.5	0.0
2025-01-16 15:26:16.009771	331.0	59.0	-59.8	5.6
2025-01-16 15:26:17.140429	331.1	58.5	-58.2	0.0
2025-01-16 15:26:18.269786	331.3	58.1	-60.4	5.2
2025-01-16 15:26:19.398457	331.4	57.6	-58.9	3.9
2025-01-16 15:26:20.529216	331.6	57.2	-58.7	0.0
2025-01-16 15:26:21.660466	331.7	56.8	-58.2	0.0
2025-01-16 15:26:22.792433	331.9	56.3	-58.9	0.0
2025-01-16 15:26:23.922207	332.0	55.9	-58.6	0.0
2025-01-16 15:26:25.052336	332.1	55.5	-59.8	4.8
2025-01-16 15:26:26.181090	332.3	55.1	-58.8	0.9
2025-01-16 15:26:27.309194	332.4	54.6	-58.4	1.2
2025-01-16 15:26:28.439550	332.5	54.2	-59.9	5.3
2025-01-16 15:26:29.569473	332.6	53.8	-59.4	4.7
2025-01-16 15:26:30.697592	332.7	53.4	-57.6	0.0
2025-01-16 15:26:31.828345	332.8	53.0	-57.5	0.0
2025-01-16 15:26:32.958223	333.0	52.6	-57.4	0.0
2025-01-16 15:26:34.088122	333.1	52.2	-57.3	0.0
2025-01-16 15:26:35.221792	333.2	51.8	-57.3	0.0
2025-01-16 15:26:36.356620	333.3	51.4	-58.3	0.0
2025-01-16 15:26:37.485141	333.4	51.0	-57.5	0.9
2025-01-16 15:26:38.613944	333.5	50.6	-57.4	0.0
2025-01-16 15:26:39.744060	333.6	50.2	-58.3	0.7
2025-01-16 15:26:40.874581	333.6	49.9	-59.0	0.0
2025-01-16 15:26:42.007450	333.7	49.5	-58.4	0.1
2025-01-16 15:26:43.140502	333.8	49.1	-57.8	2.3
2025-01-16 15:26:44.271556	333.9	48.7	-58.8	3.4
2025-01-16 15:26:45.404033	334.0	48.4	-58.2	1.0
2025-01-16 15:26:46.532904	334.1	48.0	-56.7	0.0
2025-01-16 15:26:47.660715	334.1	47.6	-57.4	0.0
2025-01-16 15:26:48.787434	334.2	47.3	-55.6	0.0
2025-01-16 15:26:49.920719	334.3	46.9	-55.3	0.0
2025-01-16 15:26:51.049436	334.4	46.6	-58.3	1.3
2025-01-16 15:26:52.179240	334.5	46.2	-58.4	0.0
2025-01-16 15:26:53.325929	334.5	45.9	-56.1	0.0
2025-01-16 15:26:54.453537	334.6	45.5	-56.4	0.0
2025-01-16 15:26:55.583192	334.7	45.2	-56.2	0.0
2025-01-16 15:26:56.717250	334.7	44.9	-57.3	0.0
2025-01-16 15:26:57.848782	334.8	44.5	-58.0	1.0
2025-01-16 15:26:58.979789	334.9	44.2	-58.2	2.3
2025-01-16 15:27:00.111225	334.9	43.9	-56.6	0.0
2025-01-16 15:27:01.246367	335.0	43.5	-58.7	0.9
2025-01-16 15:27:02.376867	335.0	43.2	-56.0	0.0
2025-01-16 15:27:03.509674	335.1	42.9	-57.4	2.8
2025-01-16 15:27:04.640583	335.2	42.6	-55.7	0.0
2025-01-16 15:27:05.770123	335.2	42.2	-55.5	0.0
2025-01-16 15:27:06.900171	335.3	41.9	-56.9	0.0
2025-01-16 15:27:08.032214	335.3	41.6	-55.3	0.0
2025-01-16 15:27:09.161571	335.4	41.3	-53.7	0.0
2025-01-16 15:27:10.290095	335.4	41.0	-54.6	0.0
2025-01-16 15:27:11.422552	335.5	40.7	-54.1	0.0
2025-01-16 15:27:12.556778	335.5	40.4	-56.0	0.0
2025-01-16 15:27:13.686871	335.6	40.1	-55.8	0.0
2025-01-16 15:27:14.816064	335.6	39.8	-59.1	4.2
2025-01-16 15:27:15.944181	335.7	39.5	-56.9	0.0
2025-01-16 15:27:17.072904	335.7	39.2	-55.9	0.0
2025-01-16 15:27:18.201478	335.8	38.9	-56.5	0.0
2025-01-16 15:27:19.330135	335.8	38.6	-57.3	0.0
2025-01-16 15:27:20.461906	335.9	38.4	-55.6	0.0
2025-01-16 15:27:21.592472	335.9	38.1	-57.8	0.0
2025-01-16 15:27:22.720865	336.0	37.8	-55.0	0.0
2025-01-16 15:27:23.854780	336.0	37.5	-55.6	0.0
2025-01-16 15:27:24.984755	336.1	37.2	-55.5	0.0
2025-01-16 15:27:26.116479	336.1	37.0	-56.2	0.0
2025-01-16 15:27:27.249846	336.2	36.7	-54.1	0.0
2025-01-16 15:27:28.376779	336.2	36.4	-54.5	0.0
2025-01-16 15:27:29.508367	336.2	36.2	-51.9	0.0
2025-01-16 15:27:30.637223	336.3	35.9	-53.5	0.0
2025-01-16 15:27:31.763731	336.3	35.6	-52.0	0.0
2025-01-16 15:27:32.894003	336.4	35.4	-56.1	0.0
2025-01-16 15:27:34.027127	336.4	35.1	-57.6	0.0
2025-01-16 15:27:35.161069	336.4	34.9	-56.2	0.0
2025-01-16 15:27:36.293979	336.5	34.6	-58.1	0.0
2025-01-16 15:27:37.425544	336.5	34.4	-57.2	0.0
2025-01-16 15:27:38.555845	336.5	34.1	-58.7	0.0
2025-01-16 15:27:39.685418	336.6	33.9	-57.4	0.0
2025-01-16 15:27:40.815336	336.6	33.6	-58.7	0.0
2025-01-16 15:27:41.946985	336.6	33.4	-57.6	0.0
2025-01-16 15:27:43.079342	336.7	33.1	-56.5	0.0
2025-01-16 15:27:44.210191	336.7	32.9	-60.6	4.8
2025-01-16 15:27:45.341271	336.8	32.7	-60.9	0.0
2025-01-16 15:27:46.470884	336.8	32.4	-60.2	6.8
2025-01-16 15:27:47.601269	336.8	32.2	-55.3	0.0
2025-01-16 15:27:48.730574	336.9	32.0	-55.0	0.0
2025-01-16 15:27:49.861743	336.9	31.7	-59.1	0.0
2025-01-16 15:27:50.992110	336.9	31.5	-56.6	0.0
2025-01-16 15:27:52.125553	336.9	31.3	-56.1	0.0
2025-01-16 15:27:53.257971	337.0	31.1	-55.6	0.0
2025-01-16 15:27:54.389063	337.0	30.8	-57.5	0.0
2025-01-16 15:27:55.524037	337.0	30.6	-55.6	0.0
2025-01-16 15:27:56.657412	337.1	30.4	-57.0	0.0
2025-01-16 15:27:57.787760	337.1	30.2	-56.4	0.0
2025-01-16 15:27:58.918930	337.1	30.0	-59.5	0.0
#Closed at: 2025-01-16 15:22:20.222048