passes_logs/2025/01/16/Planum_Noyabrsk/Planum_Noyabrsk__20250116_155104_NOAA_18_rec.log

#Pass ID: 20250116_155104_NOAA 18
#Satellite: NOAA 18
#Configuration: NOAA 18
#Start time: 2025-01-16 15:51:09.273094

#LorettStation: 1.0.0 05.05.2024
#Station: Planum_Noyabrsk
#Location: 75.446886 lon 63.207202 lat
#TLE: 1 28654U 05018A   25016.15379782  .00000321  00000+0  19399-3 0  9994
#TLE: 2 28654  98.8565  97.1968 0014416 175.9109 184.2183 14.13487365 13346

#Time	Az	El	Level	SNR
2025-01-16 15:51:17.444412	125.8	31.4	-58.5	0.0
2025-01-16 15:51:18.574909	125.7	31.6	-58.7	0.0
2025-01-16 15:51:19.704066	125.5	31.9	-50.0	0.0
2025-01-16 15:51:20.834565	125.4	32.1	-54.2	0.0
2025-01-16 15:51:21.962071	125.2	32.3	-52.7	0.0
2025-01-16 15:51:23.090497	125.0	32.5	-54.2	0.0
2025-01-16 15:51:24.220879	124.9	32.7	-57.5	0.0
2025-01-16 15:51:25.351244	124.7	32.9	-57.7	0.0
2025-01-16 15:51:26.481125	124.5	33.1	-51.9	0.0
2025-01-16 15:51:27.608729	124.4	33.3	-58.0	0.0
2025-01-16 15:51:28.737807	124.2	33.5	-56.2	0.0
2025-01-16 15:51:29.865662	124.0	33.7	-55.8	0.0
2025-01-16 15:51:30.995910	123.8	34.0	-52.3	0.0
2025-01-16 15:51:32.127281	123.6	34.2	-49.3	0.0
2025-01-16 15:51:33.256989	123.5	34.4	-53.4	0.0
2025-01-16 15:51:34.386576	123.3	34.6	-55.6	0.0
2025-01-16 15:51:35.516487	123.1	34.8	-51.5	0.0
2025-01-16 15:51:36.644083	122.9	35.1	-53.3	0.0
2025-01-16 15:51:37.773348	122.7	35.3	-51.1	0.0
2025-01-16 15:51:38.901933	122.5	35.5	-54.3	0.0
2025-01-16 15:51:40.030916	122.3	35.7	-53.9	0.0
2025-01-16 15:51:41.162855	122.1	36.0	-55.2	0.0
2025-01-16 15:51:42.291526	121.9	36.2	-58.1	0.0
2025-01-16 15:51:43.421626	121.7	36.4	-56.4	0.0
2025-01-16 15:51:44.550456	121.4	36.7	-57.0	0.0
2025-01-16 15:51:45.679189	121.2	36.9	-53.7	0.0
2025-01-16 15:51:46.806613	121.0	37.1	-57.7	0.0
2025-01-16 15:51:47.936566	120.8	37.4	-55.9	0.0
2025-01-16 15:51:49.063917	120.6	37.6	-58.7	0.0
2025-01-16 15:51:50.192642	120.3	37.8	-54.1	0.0
2025-01-16 15:51:51.321769	120.1	38.1	-53.4	0.0
2025-01-16 15:51:52.452119	119.9	38.3	-52.9	0.0
2025-01-16 15:51:53.582138	119.6	38.5	-52.2	0.0
2025-01-16 15:51:54.716222	119.4	38.8	-55.5	0.0
2025-01-16 15:51:55.844743	119.1	39.0	-51.4	0.0
2025-01-16 15:51:56.974643	118.9	39.3	-53.7	0.0
2025-01-16 15:51:58.106820	118.6	39.5	-53.6	0.0
2025-01-16 15:51:59.236536	118.4	39.8	-54.5	0.0
2025-01-16 15:52:00.366741	118.1	40.0	-55.9	0.0
2025-01-16 15:52:01.498589	117.8	40.3	-54.1	0.0
2025-01-16 15:52:02.627571	117.6	40.5	-52.5	0.0
2025-01-16 15:52:03.757175	117.3	40.8	-51.3	0.0
2025-01-16 15:52:04.885581	117.0	41.0	-51.9	0.0
2025-01-16 15:52:06.013416	116.7	41.3	-53.2	0.0
2025-01-16 15:52:07.142070	116.4	41.5	-53.0	0.0
2025-01-16 15:52:08.271984	116.1	41.8	-51.3	0.0
2025-01-16 15:52:09.406950	115.9	42.0	-56.8	0.0
2025-01-16 15:52:10.539346	115.5	42.3	-56.1	0.0
2025-01-16 15:52:11.680514	115.2	42.5	-56.9	0.0
2025-01-16 15:52:12.812729	114.9	42.8	-61.1	0.4
2025-01-16 15:52:13.942126	114.6	43.0	-60.5	0.0
2025-01-16 15:52:15.075505	114.3	43.3	-57.2	0.0
2025-01-16 15:52:16.207263	114.0	43.6	-57.6	0.0
2025-01-16 15:52:17.339101	113.6	43.8	-59.0	0.0
2025-01-16 15:52:18.468384	113.3	44.1	-61.7	0.0
2025-01-16 15:52:19.598055	112.9	44.3	-52.3	0.0
2025-01-16 15:52:20.728293	112.6	44.6	-61.0	0.0
2025-01-16 15:52:21.856822	112.2	44.9	-55.3	0.0
2025-01-16 15:52:22.988976	111.9	45.1	-62.2	0.0
2025-01-16 15:52:24.120918	111.5	45.4	-57.0	0.0
2025-01-16 15:52:25.252545	111.1	45.7	-52.8	0.0
2025-01-16 15:52:26.382642	110.7	45.9	-54.4	0.0
2025-01-16 15:52:27.513541	110.4	46.2	-52.7	0.0
2025-01-16 15:52:28.644586	110.0	46.4	-50.4	0.0
2025-01-16 15:52:29.775421	109.6	46.7	-57.7	0.0
2025-01-16 15:52:30.903991	109.2	47.0	-59.0	0.0
2025-01-16 15:52:32.036715	108.7	47.2	-56.4	0.0
2025-01-16 15:52:33.166639	108.3	47.5	-55.5	0.0
2025-01-16 15:52:34.297580	107.9	47.8	-55.7	0.0
2025-01-16 15:52:35.427703	107.5	48.0	-59.0	0.0
2025-01-16 15:52:36.557268	107.0	48.3	-56.4	0.0
2025-01-16 15:52:37.687055	106.6	48.6	-57.6	0.0
2025-01-16 15:52:38.820565	106.1	48.8	-56.1	0.0
2025-01-16 15:52:39.952624	105.6	49.1	-55.3	0.0
2025-01-16 15:52:41.081242	105.2	49.3	-58.2	0.0
2025-01-16 15:52:42.214879	104.7	49.6	-58.3	0.0
2025-01-16 15:52:43.346124	104.2	49.9	-56.4	0.0
2025-01-16 15:52:44.474435	103.7	50.1	-56.2	0.0
2025-01-16 15:52:45.606241	103.2	50.4	-56.0	0.0
2025-01-16 15:52:46.734153	102.7	50.6	-57.4	0.0
2025-01-16 15:52:47.862937	102.1	50.9	-56.8	0.0
2025-01-16 15:52:48.993188	101.6	51.2	-57.5	0.0
2025-01-16 15:52:50.123340	101.1	51.4	-58.1	0.1
2025-01-16 15:52:51.253280	100.5	51.7	-58.5	3.0
2025-01-16 15:52:52.385979	99.9	51.9	-58.5	0.0
2025-01-16 15:52:53.516719	99.4	52.2	-56.9	0.0
2025-01-16 15:52:54.651323	98.8	52.4	-55.1	0.0
2025-01-16 15:52:55.781142	98.2	52.7	-57.0	0.0
2025-01-16 15:52:56.910904	97.6	52.9	-56.1	0.0
2025-01-16 15:52:58.040095	97.0	53.1	-55.5	0.0
2025-01-16 15:52:59.168292	96.3	53.4	-56.4	0.0
2025-01-16 15:53:00.299061	95.7	53.6	-57.5	0.0
2025-01-16 15:53:01.426156	95.1	53.8	-59.2	0.0
2025-01-16 15:53:02.557735	94.4	54.1	-60.0	4.1
2025-01-16 15:53:03.687394	93.8	54.3	-52.8	0.0
2025-01-16 15:53:04.819079	93.1	54.5	-53.7	0.0
2025-01-16 15:53:05.951864	92.4	54.8	-51.1	0.0
2025-01-16 15:53:07.084839	91.7	55.0	-51.4	0.0
2025-01-16 15:53:08.215402	91.0	55.2	-52.8	0.0
2025-01-16 15:53:09.345248	90.3	55.4	-53.0	0.0
2025-01-16 15:53:10.477705	89.5	55.6	-55.5	0.0
2025-01-16 15:53:11.608718	88.8	55.8	-54.4	0.0
2025-01-16 15:53:12.741047	88.0	56.0	-53.1	0.0
2025-01-16 15:53:13.869320	87.3	56.2	-52.2	0.0
2025-01-16 15:53:15.002534	86.5	56.4	-53.4	0.0
2025-01-16 15:53:16.134787	85.7	56.6	-53.1	0.0
2025-01-16 15:53:17.267608	84.9	56.8	-54.7	0.0
2025-01-16 15:53:18.398002	84.1	57.0	-54.2	0.0
2025-01-16 15:53:19.531104	83.3	57.1	-57.7	0.0
2025-01-16 15:53:20.662649	82.5	57.3	-54.7	0.0
2025-01-16 15:53:21.794098	81.6	57.5	-58.6	0.0
2025-01-16 15:53:22.923316	80.8	57.6	-57.7	0.0
2025-01-16 15:53:24.056408	79.9	57.8	-56.5	0.0
2025-01-16 15:53:25.187846	79.1	57.9	-59.4	0.0
2025-01-16 15:53:26.320139	78.2	58.1	-59.6	0.0
2025-01-16 15:53:27.451531	77.3	58.2	-54.5	0.0
2025-01-16 15:53:28.580126	76.4	58.3	-56.3	0.0
2025-01-16 15:53:29.712200	75.5	58.4	-53.7	0.0
2025-01-16 15:53:30.842558	74.6	58.6	-54.7	0.0
2025-01-16 15:53:31.972043	73.7	58.7	-58.1	0.0
2025-01-16 15:53:33.104046	72.8	58.8	-56.8	0.0
2025-01-16 15:53:34.236538	71.8	58.9	-53.5	0.0
2025-01-16 15:53:35.365405	70.9	58.9	-56.1	0.0
2025-01-16 15:53:36.497370	70.0	59.0	-56.2	0.0
2025-01-16 15:53:37.629609	69.0	59.1	-57.8	0.0
2025-01-16 15:53:38.759937	68.1	59.2	-56.3	0.0
2025-01-16 15:53:39.890014	67.1	59.2	-56.5	0.0
2025-01-16 15:53:41.020333	66.1	59.3	-58.8	0.0
2025-01-16 15:53:42.147725	65.2	59.3	-60.5	2.9
2025-01-16 15:53:43.281030	64.2	59.4	-55.9	0.0
2025-01-16 15:53:44.411522	63.2	59.4	-59.0	1.2
2025-01-16 15:53:45.540963	62.3	59.4	-59.0	2.5
2025-01-16 15:53:46.673422	61.3	59.4	-58.8	0.0
2025-01-16 15:53:47.802787	60.3	59.4	-58.2	0.0
2025-01-16 15:53:48.930801	59.3	59.4	-60.8	5.2
2025-01-16 15:53:50.061133	58.4	59.4	-60.1	3.6
2025-01-16 15:53:51.193037	57.4	59.4	-60.4	5.3
2025-01-16 15:53:52.324816	56.4	59.4	-60.8	1.4
2025-01-16 15:53:53.454156	55.5	59.4	-60.1	4.5
2025-01-16 15:53:54.584835	54.5	59.3	-58.6	0.3
2025-01-16 15:53:55.716900	53.5	59.3	-59.8	4.9
2025-01-16 15:53:56.846779	52.6	59.2	-61.9	7.7
2025-01-16 15:53:57.975611	51.6	59.2	-61.4	6.8
2025-01-16 15:53:59.105502	50.7	59.1	-59.3	3.8
2025-01-16 15:54:00.235843	49.7	59.0	-60.8	5.1
2025-01-16 15:54:01.365791	48.8	58.9	-58.6	1.1
2025-01-16 15:54:02.495644	47.8	58.8	-56.8	0.0
2025-01-16 15:54:03.624259	46.9	58.7	-59.7	3.7
2025-01-16 15:54:04.754566	46.0	58.6	-59.1	2.4
2025-01-16 15:54:05.884031	45.1	58.5	-60.3	4.3
2025-01-16 15:54:07.013803	44.2	58.4	-60.6	5.9
2025-01-16 15:54:08.143468	43.3	58.3	-60.6	0.0
2025-01-16 15:54:09.276778	42.4	58.2	-61.5	6.1
2025-01-16 15:54:10.406186	41.5	58.0	-61.7	5.9
2025-01-16 15:54:11.537335	40.6	57.9	-64.4	11.3
2025-01-16 15:54:12.668472	39.8	57.7	-62.4	5.9
2025-01-16 15:54:13.796711	38.9	57.6	-61.7	6.5
2025-01-16 15:54:14.927364	38.1	57.4	-62.3	7.4
2025-01-16 15:54:16.057210	37.2	57.3	-62.7	7.5
2025-01-16 15:54:17.182347	36.4	57.1	-61.1	4.6
2025-01-16 15:54:18.311153	35.6	56.9	-61.9	5.9
2025-01-16 15:54:19.440682	34.8	56.8	-60.4	2.5
2025-01-16 15:54:20.571710	34.0	56.6	-60.8	4.4
2025-01-16 15:54:21.700843	33.2	56.4	-61.8	4.2
2025-01-16 15:54:22.830495	32.4	56.2	-62.4	6.2
2025-01-16 15:54:23.962650	31.7	56.0	-62.7	7.2
2025-01-16 15:54:25.092159	30.9	55.8	-62.3	6.8
2025-01-16 15:54:26.223686	30.2	55.6	-62.4	5.5
2025-01-16 15:54:27.354441	29.5	55.4	-60.2	3.8
2025-01-16 15:54:28.482872	28.7	55.2	-61.3	5.0
2025-01-16 15:54:29.614062	28.0	55.0	-62.4	8.1
2025-01-16 15:54:30.743443	27.3	54.7	-61.9	6.6
2025-01-16 15:54:31.875028	26.7	54.5	-61.4	5.1
2025-01-16 15:54:33.004285	26.0	54.3	-61.7	5.5
2025-01-16 15:54:34.133041	25.3	54.1	-60.9	4.9
2025-01-16 15:54:35.264486	24.7	53.8	-62.1	8.5
2025-01-16 15:54:36.393866	24.0	53.6	-62.6	8.5
2025-01-16 15:54:37.522934	23.4	53.4	-62.0	7.1
2025-01-16 15:54:38.652755	22.8	53.1	-61.8	8.2
2025-01-16 15:54:39.783728	22.2	52.9	-61.1	5.0
2025-01-16 15:54:40.913224	21.6	52.6	-62.1	5.6
2025-01-16 15:54:42.043851	21.0	52.4	-61.3	7.8
2025-01-16 15:54:43.174394	20.4	52.1	-61.9	7.9
2025-01-16 15:54:44.305769	19.8	51.9	-61.8	5.3
2025-01-16 15:54:45.433567	19.3	51.6	-61.4	4.7
2025-01-16 15:54:46.563978	18.7	51.4	-61.3	4.1
2025-01-16 15:54:47.692724	18.2	51.1	-62.8	7.3
2025-01-16 15:54:48.823685	17.6	50.9	-60.9	5.3
2025-01-16 15:54:49.951529	17.1	50.6	-61.5	7.5
2025-01-16 15:54:51.081405	16.6	50.4	-61.9	8.1
2025-01-16 15:54:52.210613	16.1	50.1	-60.3	7.6
2025-01-16 15:54:53.341205	15.6	49.8	-62.6	7.1
2025-01-16 15:54:54.474760	15.1	49.6	-62.4	9.2
2025-01-16 15:54:55.603941	14.6	49.3	-61.2	6.9
2025-01-16 15:54:56.734525	14.1	49.1	-60.5	5.5
2025-01-16 15:54:57.865819	13.7	48.8	-61.7	10.6
2025-01-16 15:54:58.995459	13.2	48.5	-62.5	8.7
2025-01-16 15:55:00.125137	12.8	48.3	-60.7	5.9
2025-01-16 15:55:01.255949	12.3	48.0	-62.6	8.4
2025-01-16 15:55:02.387422	11.9	47.7	-61.8	8.1
2025-01-16 15:55:03.518346	11.4	47.5	-63.2	9.0
2025-01-16 15:55:04.648567	11.0	47.2	-61.2	4.8
2025-01-16 15:55:05.777763	10.6	47.0	-61.9	9.8
2025-01-16 15:55:06.905668	10.2	46.7	-63.9	9.6
2025-01-16 15:55:08.033807	9.8	46.4	-63.7	10.0
2025-01-16 15:55:09.166824	9.4	46.2	-62.6	7.5
2025-01-16 15:55:10.297199	9.0	45.9	-62.1	6.9
2025-01-16 15:55:11.426998	8.6	45.6	-64.0	9.3
2025-01-16 15:55:12.555496	8.3	45.4	-64.0	9.1
2025-01-16 15:55:13.686167	7.9	45.1	-63.4	10.4
2025-01-16 15:55:14.815889	7.5	44.8	-64.2	8.2
2025-01-16 15:55:15.945710	7.2	44.6	-63.0	6.8
2025-01-16 15:55:17.073840	6.8	44.3	-63.0	8.4
2025-01-16 15:55:18.203101	6.5	44.1	-65.0	8.5
2025-01-16 15:55:19.333696	6.2	43.8	-65.2	11.8
2025-01-16 15:55:20.461415	5.8	43.5	-64.7	11.3
2025-01-16 15:55:21.593099	5.5	43.3	-64.2	9.7
2025-01-16 15:55:22.724603	5.2	43.0	-64.3	11.8
2025-01-16 15:55:23.850852	4.9	42.8	-63.9	10.3
2025-01-16 15:55:24.981077	4.5	42.5	-64.0	7.4
2025-01-16 15:55:26.110184	4.2	42.3	-63.7	6.8
2025-01-16 15:55:27.241497	3.9	42.0	-65.3	11.2
2025-01-16 15:55:28.372513	3.6	41.8	-64.0	9.9
2025-01-16 15:55:29.500718	3.3	41.5	-64.9	9.9
2025-01-16 15:55:30.628423	3.1	41.2	-65.7	11.4
2025-01-16 15:55:31.758811	2.8	41.0	-63.7	8.3
2025-01-16 15:55:32.888726	2.5	40.7	-65.7	11.4
2025-01-16 15:55:34.018109	2.2	40.5	-63.5	9.8
2025-01-16 15:55:35.147296	2.0	40.2	-63.7	8.8
2025-01-16 15:55:36.278671	1.7	40.0	-65.0	11.6
2025-01-16 15:55:37.409676	1.4	39.8	-65.1	11.1
2025-01-16 15:55:38.540727	1.2	39.5	-65.0	11.9
2025-01-16 15:55:39.673168	0.9	39.3	-64.2	11.1
2025-01-16 15:55:40.801957	0.7	39.0	-65.3	11.1
2025-01-16 15:55:41.932799	0.4	38.8	-65.6	11.2
2025-01-16 15:55:43.062542	0.2	38.5	-65.2	10.5
2025-01-16 15:55:44.194097	359.9	38.3	-65.1	11.0
2025-01-16 15:55:45.324788	359.7	38.1	-63.5	6.6
2025-01-16 15:55:46.451561	359.5	37.8	-64.9	8.9
2025-01-16 15:55:47.583039	359.2	37.6	-64.3	8.0
2025-01-16 15:55:48.712856	359.0	37.3	-64.2	8.8
2025-01-16 15:55:49.843689	358.8	37.1	-63.7	8.0
2025-01-16 15:55:50.977181	358.6	36.9	-63.8	4.9
2025-01-16 15:55:52.105443	358.3	36.6	-64.2	7.7
2025-01-16 15:55:53.237423	358.1	36.4	-65.0	10.7
2025-01-16 15:55:54.367874	357.9	36.2	-65.1	9.6
2025-01-16 15:55:55.497378	357.7	36.0	-63.9	7.8
2025-01-16 15:55:56.628759	357.5	35.7	-64.9	9.5
2025-01-16 15:55:57.759597	357.3	35.5	-64.6	8.0
2025-01-16 15:55:58.890238	357.1	35.3	-63.7	9.6
2025-01-16 15:56:00.020750	356.9	35.1	-63.8	8.0
2025-01-16 15:56:01.149810	356.7	34.8	-64.8	9.4
2025-01-16 15:56:02.279232	356.5	34.6	-64.7	7.2
2025-01-16 15:56:03.409956	356.3	34.4	-63.4	0.5
2025-01-16 15:56:04.539510	356.2	34.2	-64.2	7.6
2025-01-16 15:56:05.668893	356.0	34.0	-64.3	7.1
2025-01-16 15:56:06.802427	355.8	33.7	-64.6	5.9
2025-01-16 15:56:07.936782	355.6	33.5	-63.0	5.2
2025-01-16 15:56:09.068692	355.4	33.3	-64.2	5.4
2025-01-16 15:56:10.198143	355.3	33.1	-63.3	4.3
2025-01-16 15:56:11.329591	355.1	32.9	-63.9	5.2
2025-01-16 15:56:12.459191	354.9	32.7	-63.5	5.1
2025-01-16 15:56:13.588957	354.8	32.5	-64.8	5.4
2025-01-16 15:56:14.718796	354.6	32.2	-64.3	7.7
2025-01-16 15:56:15.849631	354.4	32.0	-63.9	5.7
2025-01-16 15:56:16.979551	354.3	31.8	-63.3	7.1
2025-01-16 15:56:18.108495	354.1	31.6	-63.2	5.3
2025-01-16 15:56:19.239732	354.0	31.4	-61.7	0.2
2025-01-16 15:56:20.368322	353.8	31.2	-62.0	4.1
2025-01-16 15:56:21.500653	353.7	31.0	-62.0	3.0
2025-01-16 15:56:22.630213	353.5	30.8	-61.5	1.1
2025-01-16 15:56:23.759627	353.4	30.6	-61.2	1.5
2025-01-16 15:56:24.890164	353.2	30.4	-61.5	0.6
2025-01-16 15:56:26.023441	353.1	30.2	-63.4	2.4
2025-01-16 15:56:27.155183	352.9	30.0	-65.3	7.0
2025-01-16 15:56:28.283603	352.8	29.8	-66.1	0.0
#Closed at: 2025-01-16 15:51:04.275625