passes_logs/2025/01/16/XPeterburg/XPeterburg__20250116_044332_FENGYUN_3E_rec.log

#Pass ID: 20250116_044332_FENGYUN 3E
#Satellite: FENGYUN 3E
#Configuration: FENGYUN 3E
#Start time: 2025-01-16 04:43:27

#Version: 1.5.20200625
#Station: XPeterburg
#Location: 30.318091 lon 59.932769 lat
#TLE: 1 49008U 21062A   25015.11706180  .00000052  00000+0  45362-4 0  9999
#TLE: 2 49008  98.7394  19.6327 0002390 121.0406 239.1005 14.19832766183064

#Time	Az	El	Level	Level2	SNR	BER	Gain	Gain2
2025-01-16 04:43:27.15	7.63	68.06	-39.1	-40.7	3.3	8389320	96	5903
2025-01-16 04:43:27.55	7.52	68.24	-38.4	-51.5	3.5	8352436	73	22232
2025-01-16 04:43:27.96	7.40	68.42	-38.4	-39.4	3.4	8420207	94	5482
2025-01-16 04:43:28.36	7.28	68.60	-38.0	-39.8	3.9	8413066	94	5989
2025-01-16 04:43:28.76	7.16	68.78	-37.8	-38.2	3.9	8310905	93	5120
2025-01-16 04:43:29.16	7.04	68.96	-36.7	-36.5	5.0	7811634	91	4801
2025-01-16 04:43:29.56	6.91	69.14	-35.4	-34.4	6.0	7545707	89	4375
2025-01-16 04:43:29.97	6.78	69.32	-35.5	-35.4	6.0	2779117	88	4878
2025-01-16 04:43:30.37	6.65	69.50	-33.6	-33.5	7.9	845489	84	4826
2025-01-16 04:43:30.77	6.52	69.68	-32.5	-31.6	9.4	312503	83	4456
2025-01-16 04:43:31.17	6.38	69.86	-31.4	-30.4	10.6	160606	81	4393
2025-01-16 04:43:31.57	6.25	70.04	-31.0	-30.1	11.2	28118	80	4453
2025-01-16 04:43:31.98	6.10	70.23	-30.3	-29.7	12.1	4680	78	4596
2025-01-16 04:43:32.38	5.96	70.41	-30.0	-29.6	12.5	1155	77	4728
2025-01-16 04:43:32.78	5.81	70.59	-30.2	-30.0	12.2	972	77	4828
2025-01-16 04:43:33.18	5.66	70.77	-29.8	-29.3	12.7	2014	77	4635
2025-01-16 04:43:33.58	5.51	70.95	-30.0	-29.5	12.6	1270	77	4663
2025-01-16 04:43:33.99	5.35	71.14	-30.3	-30.4	12.5	1258	77	4930
2025-01-16 04:43:34.39	5.19	71.32	-30.4	-30.1	12.6	1110	78	4751
2025-01-16 04:43:34.79	5.03	71.51	-30.4	-30.0	12.7	663	78	4697
2025-01-16 04:43:35.19	4.87	71.69	-30.6	-30.0	12.4	1132	79	4549
2025-01-16 04:43:35.59	4.70	71.87	-30.5	-30.3	12.5	1338	78	4794
2025-01-16 04:43:35.99	4.53	72.05	-30.4	-30.1	12.7	1178	78	4717
2025-01-16 04:43:36.40	4.34	72.24	-30.6	-30.5	12.5	1098	78	4849
2025-01-16 04:43:36.80	4.16	72.42	-30.7	-30.6	12.3	2002	78	4887
2025-01-16 04:43:37.20	3.98	72.61	-30.7	-30.6	12.2	2758	78	4888
2025-01-16 04:43:37.60	3.79	72.79	-30.5	-30.1	12.2	2826	78	4728
2025-01-16 04:43:38.00	3.60	72.97	-30.5	-30.2	12.2	3936	78	4771
2025-01-16 04:43:38.40	3.40	73.16	-30.4	-29.9	12.2	1934	78	4660
2025-01-16 04:43:38.81	3.19	73.35	-30.4	-29.8	12.3	1201	78	4629
2025-01-16 04:43:39.21	2.99	73.53	-30.1	-29.2	12.8	869	78	4446
2025-01-16 04:43:39.61	2.77	73.71	-29.8	-28.8	12.9	732	78	4384
2025-01-16 04:43:40.01	2.56	73.90	-29.8	-28.7	12.9	549	78	4360
2025-01-16 04:43:40.41	2.34	74.08	-29.9	-29.4	12.7	560	77	4639
2025-01-16 04:43:40.82	2.10	74.27	-30.0	-29.4	12.9	492	77	4634
2025-01-16 04:43:41.22	1.87	74.46	-30.0	-29.6	12.7	446	77	4687
2025-01-16 04:43:41.62	1.63	74.64	-29.9	-29.4	12.9	457	77	4647
2025-01-16 04:43:42.02	1.38	74.82	-30.0	-29.6	12.7	652	77	4701
2025-01-16 04:43:42.42	1.13	75.01	-30.2	-30.0	12.7	526	77	4839
2025-01-16 04:43:42.82	0.87	75.19	-30.1	-30.0	12.7	583	77	4832
2025-01-16 04:43:43.23	0.60	75.38	-30.0	-29.7	12.8	595	77	4748
2025-01-16 04:43:43.63	0.33	75.57	-30.1	-29.8	12.8	457	77	4767
2025-01-16 04:43:44.03	0.05	75.75	-30.0	-29.6	13.0	606	77	4706
2025-01-16 04:43:44.43	359.76	75.93	-29.9	-29.5	13.0	308	77	4665
2025-01-16 04:43:44.83	359.47	76.12	-29.7	-29.0	13.3	194	77	4538
2025-01-16 04:43:45.23	359.16	76.30	-29.5	-28.7	13.6	263	77	4468
2025-01-16 04:43:45.64	358.84	76.49	-29.4	-29.0	13.7	102	76	4675
2025-01-16 04:43:46.04	358.52	76.67	-29.3	-28.9	13.8	45	76	4686
2025-01-16 04:43:46.44	358.19	76.86	-29.0	-28.3	14.2	22	76	4522
2025-01-16 04:43:46.84	357.85	77.04	-28.9	-28.1	14.3	11	76	4461
2025-01-16 04:43:47.24	357.50	77.22	-28.9	-28.0	14.3	45	76	4422
2025-01-16 04:43:47.65	357.13	77.41	-28.9	-27.9	14.3	11	76	4396
2025-01-16 04:43:48.05	356.76	77.59	-28.8	-27.8	14.4	11	76	4364
2025-01-16 04:43:48.45	356.38	77.77	-28.4	-27.6	14.5	34	75	4470
2025-01-16 04:43:48.85	355.98	77.95	-28.6	-28.0	14.4	22	75	4566
2025-01-16 04:43:49.25	355.57	78.13	-28.7	-28.1	14.4	22	75	4611
2025-01-16 04:43:49.66	355.14	78.32	-28.8	-28.3	14.2	0	75	4657
2025-01-16 04:43:50.06	354.71	78.50	-28.5	-27.7	14.5	45	75	4493
2025-01-16 04:43:50.46	354.26	78.68	-28.6	-27.9	14.4	34	75	4550
2025-01-16 04:43:50.86	353.80	78.86	-28.5	-28.3	14.4	34	74	4776
2025-01-16 04:43:51.26	353.32	79.04	-28.5	-28.2	14.4	0	74	4773
2025-01-16 04:43:51.66	352.82	79.22	-28.2	-27.7	14.6	0	74	4607
2025-01-16 04:43:52.07	352.30	79.40	-28.0	-27.2	14.9	0	74	4485
2025-01-16 04:43:52.47	351.77	79.57	-27.7	-27.0	15.1	0	73	4554
2025-01-16 04:43:52.87	351.22	79.75	-27.5	-26.7	15.3	0	73	4469
2025-01-16 04:43:53.27	350.65	79.93	-27.5	-26.7	15.1	0	73	4478
2025-01-16 04:43:53.67	350.06	80.10	-27.4	-26.4	15.4	0	73	4405
2025-01-16 04:43:54.07	349.45	80.27	-27.3	-26.8	15.5	0	72	4638
2025-01-16 04:43:54.48	348.80	80.45	-27.3	-26.9	15.4	0	72	4651
2025-01-16 04:43:54.88	348.14	80.62	-27.1	-26.3	15.6	0	72	4502
2025-01-16 04:43:55.28	347.46	80.79	-27.3	-26.6	15.5	0	72	4543
2025-01-16 04:43:55.68	346.75	80.96	-27.6	-27.2	15.2	0	72	4691
2025-01-16 04:43:56.08	346.02	81.13	-27.6	-27.1	15.2	0	72	4690
2025-01-16 04:43:56.48	345.25	81.29	-27.5	-27.1	15.3	0	72	4666
2025-01-16 04:43:56.88	344.46	81.46	-27.6	-27.2	15.2	0	72	4700
2025-01-16 04:43:57.29	343.61	81.63	-27.7	-27.4	15.2	0	72	4758
2025-01-16 04:43:57.69	342.75	81.79	-27.7	-27.4	15.2	0	72	4773
2025-01-16 04:43:58.09	341.86	81.95	-27.6	-27.3	15.2	0	72	4713
2025-01-16 04:43:58.49	340.93	82.11	-27.6	-27.2	15.3	0	72	4715
2025-01-16 04:43:58.89	339.96	82.26	-27.3	-26.6	15.6	0	72	4544
2025-01-16 04:43:59.29	338.95	82.42	-27.3	-26.6	15.6	0	72	4556
2025-01-16 04:43:59.70	337.87	82.57	-27.1	-26.1	15.8	0	72	4427
2025-01-16 04:44:00.10	336.77	82.72	-27.0	-26.1	15.8	0	72	4411
2025-01-16 04:44:00.50	335.63	82.86	-26.8	-26.1	15.9	0	71	4542
2025-01-16 04:44:00.90	334.44	83.01	-26.6	-25.8	16.0	0	71	4477
2025-01-16 04:44:01.30	333.20	83.15	-26.7	-26.0	15.9	0	71	4525
2025-01-16 04:44:01.70	331.91	83.28	-26.7	-26.0	16.0	0	71	4515
2025-01-16 04:44:02.11	330.53	83.42	-26.7	-25.9	15.9	0	71	4506
2025-01-16 04:44:02.51	329.13	83.55	-26.6	-25.7	16.0	0	71	4445
2025-01-16 04:44:02.91	327.67	83.68	-26.5	-25.5	16.1	0	71	4383
2025-01-16 04:44:03.31	326.16	83.80	-26.4	-25.3	16.2	0	71	4322
2025-01-16 04:44:03.71	324.58	83.92	-26.3	-25.6	16.3	0	70	4535
2025-01-16 04:44:04.12	322.90	84.03	-26.1	-25.1	16.4	0	70	4417
2025-01-16 04:44:04.52	321.20	84.14	-25.9	-24.8	16.7	0	70	4344
2025-01-16 04:44:04.92	319.44	84.24	-25.8	-24.6	16.7	0	70	4279
2025-01-16 04:44:05.32	317.61	84.34	-25.9	-24.7	16.8	0	70	4303
2025-01-16 04:44:05.72	315.72	84.43	-25.8	-25.0	16.7	0	69	4527
2025-01-16 04:44:06.12	313.78	84.51	-25.8	-25.0	16.8	0	69	4517
2025-01-16 04:44:06.53	311.72	84.59	-25.7	-24.9	16.8	0	69	4494
2025-01-16 04:44:06.93	309.65	84.66	-25.7	-25.0	16.7	0	69	4501
2025-01-16 04:44:07.33	307.54	84.72	-25.7	-24.8	16.8	0	69	4467
2025-01-16 04:44:07.73	305.37	84.78	-25.6	-24.7	16.9	0	69	4432
2025-01-16 04:44:08.13	303.16	84.83	-25.6	-24.8	16.8	0	69	4463
2025-01-16 04:44:08.54	300.86	84.87	-25.6	-24.7	16.9	0	69	4431
2025-01-16 04:44:08.94	298.58	84.90	-25.5	-24.5	17.0	0	69	4383
2025-01-16 04:44:09.34	296.27	84.93	-25.4	-24.3	17.0	0	69	4322
2025-01-16 04:44:09.74	293.94	84.94	-25.5	-24.4	16.9	0	69	4369
2025-01-16 04:44:10.14	291.60	84.95	-25.6	-24.7	16.7	0	69	4440
2025-01-16 04:44:10.55	289.20	84.95	-25.7	-25.0	16.6	0	69	4512
2025-01-16 04:44:10.95	286.87	84.94	-25.7	-24.9	16.7	0	69	4491
2025-01-16 04:44:11.35	284.54	84.93	-25.8	-25.1	16.7	0	69	4534
2025-01-16 04:44:11.75	282.23	84.90	-25.7	-24.8	16.7	0	69	4476
2025-01-16 04:44:12.15	279.96	84.87	-25.4	-24.3	16.9	0	69	4346
2025-01-16 04:44:12.55	277.71	84.82	-25.3	-24.2	17.0	0	69	4312
2025-01-16 04:44:12.96	275.45	84.77	-25.3	-24.5	17.1	0	68	4517
2025-01-16 04:44:13.36	273.29	84.72	-25.3	-24.6	17.1	0	68	4538
2025-01-16 04:44:13.76	271.18	84.65	-25.2	-24.4	17.2	0	68	4482
2025-01-16 04:44:14.16	269.12	84.58	-25.3	-24.7	17.1	0	68	4565
2025-01-16 04:44:14.56	267.12	84.50	-25.3	-24.5	17.1	0	68	4520
2025-01-16 04:44:14.96	265.18	84.42	-25.4	-24.9	17.0	0	68	4615
2025-01-16 04:44:15.37	263.25	84.32	-25.4	-24.8	17.1	0	68	4593
2025-01-16 04:44:15.77	261.44	84.23	-25.5	-25.0	16.9	0	68	4652
2025-01-16 04:44:16.17	259.68	84.12	-25.3	-24.7	17.0	0	68	4560
2025-01-16 04:44:16.57	257.99	84.02	-25.2	-24.5	17.2	0	68	4499
2025-01-16 04:44:16.97	256.35	83.90	-25.3	-24.6	17.1	0	68	4524
2025-01-16 04:44:17.38	254.75	83.78	-25.3	-24.5	17.2	0	68	4515
2025-01-16 04:44:17.78	253.24	83.66	-25.2	-24.3	17.2	0	68	4464
2025-01-16 04:44:18.18	251.78	83.53	-25.3	-24.5	17.0	0	68	4513
2025-01-16 04:44:18.58	250.39	83.40	-25.4	-24.7	16.9	0	68	4576
2025-01-16 04:44:18.98	249.05	83.27	-25.5	-25.0	16.8	0	68	4641
2025-01-16 04:44:19.38	247.76	83.13	-25.6	-25.2	16.6	0	68	4704
2025-01-16 04:44:19.79	246.50	82.99	-25.8	-25.5	16.5	0	68	4794
2025-01-16 04:44:20.19	245.32	82.85	-25.7	-25.5	16.5	0	68	4774
2025-01-16 04:44:20.59	244.18	82.70	-25.9	-25.8	16.4	0	68	4854
2025-01-16 04:44:20.99	243.09	82.55	-25.8	-25.6	16.4	0	68	4798
2025-01-16 04:44:21.39	242.04	82.40	-25.9	-25.7	16.4	0	68	4850
2025-01-16 04:44:21.79	241.04	82.24	-25.8	-25.7	16.5	0	68	4852
2025-01-16 04:44:22.20	240.05	82.08	-25.9	-25.8	16.5	0	68	4866
2025-01-16 04:44:22.60	239.12	81.93	-25.8	-25.1	16.5	0	69	4543
2025-01-16 04:44:23.00	238.23	81.77	-26.2	-25.9	16.1	0	69	4751
2025-01-16 04:44:23.40	237.37	81.60	-26.3	-26.2	15.8	0	69	4827
2025-01-16 04:44:23.80	236.55	81.44	-26.3	-26.2	15.8	0	69	4837
2025-01-16 04:44:24.20	235.76	81.27	-26.4	-26.2	15.8	0	69	4838
2025-01-16 04:44:24.61	234.98	81.10	-26.4	-25.8	15.9	0	70	4581
2025-01-16 04:44:25.01	234.25	80.94	-26.5	-25.9	15.8	0	70	4629
2025-01-16 04:44:25.41	233.54	80.77	-26.6	-26.2	15.7	0	70	4695
2025-01-16 04:44:25.81	232.86	80.60	-26.7	-26.5	15.6	0	70	4781
2025-01-16 04:44:26.21	232.21	80.42	-26.8	-26.6	15.4	0	70	4823
2025-01-16 04:44:26.61	231.58	80.25	-26.9	-26.8	15.3	0	70	4873
2025-01-16 04:44:27.01	230.97	80.08	-27.0	-26.5	15.1	0	71	4656
2025-01-16 04:44:27.42	230.37	79.90	-27.0	-26.5	15.0	0	71	4656
2025-01-16 04:44:27.82	229.80	79.72	-27.0	-26.5	15.0	0	71	4636
2025-01-16 04:44:28.22	229.26	79.55	-27.1	-26.8	14.9	0	71	4731
2025-01-16 04:44:28.62	228.73	79.37	-27.1	-26.7	15.0	0	71	4703
2025-01-16 04:44:29.02	228.22	79.19	-27.1	-26.7	15.0	0	71	4713
2025-01-16 04:44:29.43	227.71	79.01	-27.2	-27.1	14.9	0	71	4817
2025-01-16 04:44:29.83	227.23	78.83	-27.3	-27.2	14.8	0	71	4854
2025-01-16 04:44:30.23	226.77	78.65	-27.4	-27.4	14.6	11	71	4919
2025-01-16 04:44:30.63	226.33	78.47	-27.7	-27.6	14.6	22	72	4831
2025-01-16 04:44:31.03	225.89	78.29	-28.0	-27.6	14.3	11	73	4698
2025-01-16 04:44:31.43	225.47	78.11	-28.1	-27.9	14.0	11	73	4801
2025-01-16 04:44:31.84	225.06	77.92	-28.5	-28.6	13.8	34	73	4992
2025-01-16 04:44:32.24	224.66	77.74	-28.6	-28.4	13.9	34	74	4800
2025-01-16 04:44:32.64	224.28	77.56	-28.5	-28.2	13.9	91	74	4750
2025-01-16 04:44:33.04	223.91	77.38	-28.6	-28.5	13.7	11	74	4830
2025-01-16 04:44:33.44	223.55	77.20	-28.2	-27.6	14.2	34	74	4568
2025-01-16 04:44:33.85	223.19	77.01	-28.2	-27.4	14.3	45	74	4523
2025-01-16 04:44:34.25	222.85	76.82	-27.9	-26.9	14.5	22	74	4383
2025-01-16 04:44:34.65	222.52	76.64	-28.0	-27.0	14.4	0	74	4406
2025-01-16 04:44:35.05	222.20	76.46	-28.0	-27.2	14.3	22	74	4451
2025-01-16 04:44:35.45	221.89	76.27	-27.9	-26.9	14.4	0	74	4382
2025-01-16 04:44:35.85	221.59	76.09	-27.9	-26.9	14.4	22	74	4375
2025-01-16 04:44:36.26	221.29	75.90	-28.1	-27.2	14.2	0	74	4473
2025-01-16 04:44:36.66	221.00	75.72	-28.1	-27.2	14.1	45	74	4475
2025-01-16 04:44:37.06	220.72	75.53	-28.2	-27.5	13.9	11	74	4543
2025-01-16 04:44:37.46	220.45	75.35	-28.4	-28.0	13.6	80	74	4655
2025-01-16 04:44:37.86	220.19	75.16	-28.6	-28.2	13.4	45	74	4714
2025-01-16 04:44:38.26	219.93	74.98	-28.5	-28.1	13.5	194	74	4700
2025-01-16 04:44:38.67	219.67	74.79	-28.7	-28.4	13.4	160	74	4788
2025-01-16 04:44:39.07	219.43	74.61	-28.8	-28.6	13.3	205	74	4844
2025-01-16 04:44:39.47	219.19	74.42	-28.7	-28.5	13.3	331	74	4791
2025-01-16 04:44:39.87	218.96	74.24	-28.6	-28.3	13.3	205	74	4744
2025-01-16 04:44:40.27	218.73	74.05	-28.7	-28.4	13.3	251	74	4770
2025-01-16 04:44:40.68	218.50	73.86	-28.6	-28.2	13.3	217	74	4711
2025-01-16 04:44:41.08	218.29	73.68	-28.6	-28.3	13.2	228	74	4735
2025-01-16 04:44:41.48	218.07	73.49	-28.5	-28.1	13.1	377	74	4684
2025-01-16 04:44:41.88	217.87	73.31	-28.5	-28.1	13.2	251	74	4694
2025-01-16 04:44:42.28	217.67	73.13	-28.6	-28.2	13.1	297	74	4727
2025-01-16 04:44:42.68	217.47	72.94	-28.6	-28.3	13.0	503	74	4756
2025-01-16 04:44:43.08	217.28	72.76	-28.6	-28.3	13.1	457	74	4744
2025-01-16 04:44:43.49	217.08	72.57	-28.7	-28.5	13.1	411	74	4813
2025-01-16 04:44:43.89	216.90	72.39	-28.9	-28.4	12.9	400	75	4652
2025-01-16 04:44:44.29	216.72	72.20	-29.1	-28.9	12.8	366	75	4807
2025-01-16 04:44:44.69	216.54	72.02	-28.9	-28.5	13.0	526	75	4674
2025-01-16 04:44:45.09	216.37	71.84	-28.9	-28.5	13.0	377	75	4689
2025-01-16 04:44:45.49	216.20	71.65	-28.9	-28.4	13.0	789	75	4665
2025-01-16 04:44:45.90	216.03	71.47	-29.1	-28.9	12.8	652	75	4787
2025-01-16 04:44:46.30	215.87	71.28	-29.1	-28.8	12.9	366	75	4765
2025-01-16 04:44:46.70	215.71	71.10	-28.7	-28.1	13.3	503	75	4561
2025-01-16 04:44:47.10	215.56	70.92	-29.0	-28.5	13.1	1018	75	4691
2025-01-16 04:44:47.50	215.41	70.74	-38.1	-41.3	3.6	5215427	93	7144
2025-01-16 04:44:47.90	215.26	70.55	-38.8	-42.0	3.3	8418788	94	7111
2025-01-16 04:44:48.31	215.11	70.37	-38.8	-43.1	3.6	8395866	94	8092

#Closed at: 2025-01-16 04:44:48