passes_logs/2025/01/16/XPeterburg/XPeterburg__20250116_112837_FENGYUN_3D_rec.log

#Pass ID: 20250116_112837_FENGYUN 3D
#Satellite: FENGYUN 3D
#Configuration: FENGYUN 3D
#Start time: 2025-01-16 11:28:30

#Version: 1.5.20200625
#Station: XPeterburg
#Location: 30.318091 lon 59.932769 lat
#TLE: 1 43010U 17072A   25015.12714915  .00000179  00000+0  10635-3 0  9992
#TLE: 2 43010  98.9421 337.3600 0002531  88.7002 271.4463 14.19543625371481

#Time	Az	El	Level	Level2	SNR	BER	Gain	Gain2
2025-01-16 11:28:30.61	104.69	68.39	-39.0	-41.0	3.3	8395671	96	3104
2025-01-16 11:28:30.81	104.48	68.44	-37.9	-64.2	3.6	97995	47	50911
2025-01-16 11:28:31.01	104.28	68.50	-38.3	-51.8	3.5	7701816	73	11714
2025-01-16 11:28:31.22	104.06	68.56	-38.6	-41.3	3.4	8417999	94	3355
2025-01-16 11:28:31.42	103.85	68.62	-38.6	-41.0	3.3	8404987	94	3251
2025-01-16 11:28:31.62	103.64	68.67	-38.6	-42.5	3.6	8404987	94	3845
2025-01-16 11:28:31.82	103.42	68.73	-38.6	-42.2	3.7	8424968	94	3713
2025-01-16 11:28:32.02	103.21	68.78	-38.6	-41.0	3.5	8432659	94	3266
2025-01-16 11:28:32.22	102.99	68.84	-38.5	-40.6	3.4	8432659	94	3132
2025-01-16 11:28:32.42	102.78	68.89	-38.4	-41.7	3.6	8382568	94	3615
2025-01-16 11:28:32.62	102.56	68.95	-38.4	-41.6	3.6	8404094	94	3572
2025-01-16 11:28:32.82	102.34	69.00	-38.3	-40.5	3.7	8404094	94	3158
2025-01-16 11:28:33.03	102.11	69.06	-38.2	-39.5	3.6	8402606	94	2876
2025-01-16 11:28:33.23	101.89	69.11	-38.0	-39.1	3.7	8364017	94	2776
2025-01-16 11:28:33.43	101.67	69.17	-37.9	-40.2	3.7	8364017	94	3191
2025-01-16 11:28:33.63	101.44	69.22	-37.9	-39.6	4.0	8396381	93	3025
2025-01-16 11:28:33.83	101.22	69.27	-37.8	-39.0	4.0	8351280	93	2820
2025-01-16 11:28:34.03	100.99	69.33	-37.7	-38.5	4.0	8351280	93	2710
2025-01-16 11:28:34.23	100.77	69.38	-37.6	-38.2	4.1	8270816	93	2650
2025-01-16 11:28:34.43	100.54	69.43	-37.5	-38.0	4.1	8237010	93	2606
2025-01-16 11:28:34.63	100.31	69.48	-37.4	-37.8	4.2	8182216	93	2566
2025-01-16 11:28:34.83	100.08	69.54	-37.3	-37.3	4.3	8182216	93	2478
2025-01-16 11:28:35.04	99.83	69.59	-37.2	-37.6	4.4	8078933	92	2591
2025-01-16 11:28:35.24	99.60	69.64	-36.9	-36.9	4.7	7916828	92	2452
2025-01-16 11:28:35.44	99.36	69.69	-36.7	-36.7	5.0	7916828	91	2485
2025-01-16 11:28:35.64	99.13	69.74	-36.3	-36.0	5.4	7494758	91	2371
2025-01-16 11:28:35.84	98.89	69.79	-35.6	-35.4	5.9	5477210	89	2407
2025-01-16 11:28:36.04	98.65	69.84	-35.1	-34.8	6.7	5477210	88	2362
2025-01-16 11:28:36.24	98.41	69.89	-34.6	-34.1	7.5	2636753	87	2326
2025-01-16 11:28:36.44	98.17	69.94	-33.7	-32.9	8.2	1195884	86	2226
2025-01-16 11:28:36.64	97.93	69.99	-33.3	-32.5	9.0	1195884	85	2248
2025-01-16 11:28:36.84	97.68	70.04	-32.7	-32.3	9.7	464309	83	2349
2025-01-16 11:28:37.05	97.43	70.09	-32.3	-31.8	10.4	150753	82	2338
2025-01-16 11:28:37.25	97.18	70.14	-31.6	-31.1	11.1	150753	81	2302
2025-01-16 11:28:37.45	96.93	70.19	-31.4	-30.5	11.6	44746	81	2230
2025-01-16 11:28:37.65	96.68	70.24	-30.8	-29.9	12.2	11066	80	2217
2025-01-16 11:28:37.85	96.43	70.28	-30.3	-29.8	12.7	2883	78	2321
2025-01-16 11:28:38.05	96.18	70.33	-29.9	-29.1	13.1	2883	78	2229
2025-01-16 11:28:38.25	95.93	70.38	-29.7	-29.0	13.4	778	77	2287
2025-01-16 11:28:38.45	95.67	70.42	-29.9	-29.4	13.2	205	77	2339
2025-01-16 11:28:38.65	95.42	70.47	-29.6	-28.8	13.5	205	77	2260
2025-01-16 11:28:38.85	95.16	70.51	-29.7	-29.1	13.4	366	77	2302
2025-01-16 11:28:39.06	94.89	70.56	-29.6	-28.9	13.4	331	77	2266
2025-01-16 11:28:39.26	94.63	70.61	-29.7	-29.1	13.4	331	77	2294
2025-01-16 11:28:39.46	94.37	70.65	-29.7	-29.1	13.4	171	77	2292
2025-01-16 11:28:39.66	94.11	70.69	-29.6	-28.9	13.4	183	77	2274
2025-01-16 11:28:39.86	93.85	70.74	-29.6	-28.9	13.5	160	77	2265
2025-01-16 11:28:40.06	93.58	70.78	-29.5	-28.8	13.5	160	77	2254
2025-01-16 11:28:40.26	93.32	70.82	-29.5	-28.7	13.5	171	77	2241
2025-01-16 11:28:40.46	93.05	70.87	-29.5	-28.6	13.7	102	77	2231
2025-01-16 11:28:40.66	92.78	70.91	-29.5	-28.7	13.7	102	77	2251
2025-01-16 11:28:40.86	92.51	70.95	-29.4	-28.4	13.7	125	77	2210
2025-01-16 11:28:41.07	92.23	70.99	-29.3	-28.3	13.8	102	77	2187
2025-01-16 11:28:41.27	91.96	71.04	-29.3	-28.2	13.8	102	77	2180
2025-01-16 11:28:41.47	91.68	71.08	-29.3	-28.7	13.9	80	76	2305
2025-01-16 11:28:41.67	91.41	71.12	-29.3	-28.7	13.9	137	76	2300
2025-01-16 11:28:41.87	91.13	71.16	-29.2	-28.6	14.0	137	76	2291
2025-01-16 11:28:42.07	90.85	71.20	-29.2	-28.6	13.9	11	76	2296
2025-01-16 11:28:42.27	90.58	71.23	-29.2	-28.7	14.0	45	76	2301
2025-01-16 11:28:42.47	90.30	71.27	-29.2	-28.6	14.0	45	76	2292
2025-01-16 11:28:42.68	90.00	71.31	-29.2	-28.6	13.9	57	76	2290
2025-01-16 11:28:42.88	89.72	71.35	-29.3	-28.9	13.8	80	76	2330
2025-01-16 11:28:43.08	89.44	71.39	-29.3	-28.7	13.8	114	76	2310
2025-01-16 11:28:43.28	89.15	71.43	-29.5	-29.2	13.6	114	76	2382
2025-01-16 11:28:43.48	88.87	71.46	-29.5	-29.1	13.6	102	76	2364
2025-01-16 11:28:43.68	88.58	71.50	-29.6	-29.3	13.5	160	76	2393
2025-01-16 11:28:43.88	88.29	71.53	-29.6	-29.4	13.5	160	76	2404
2025-01-16 11:28:44.08	88.00	71.57	-29.5	-29.2	13.5	183	76	2378
2025-01-16 11:28:44.29	87.70	71.61	-29.4	-29.1	13.6	240	76	2359
2025-01-16 11:28:44.49	87.41	71.64	-29.3	-28.8	13.7	240	76	2319
2025-01-16 11:28:44.69	87.11	71.67	-29.4	-29.0	13.6	80	76	2353
2025-01-16 11:28:44.89	86.82	71.71	-29.1	-28.3	14.0	114	76	2259
2025-01-16 11:28:45.09	86.53	71.74	-29.2	-28.5	13.9	114	76	2287
2025-01-16 11:28:45.29	86.23	71.77	-29.0	-28.2	14.0	91	76	2246
2025-01-16 11:28:45.49	85.93	71.80	-29.0	-28.2	14.1	34	76	2245
2025-01-16 11:28:45.69	85.63	71.84	-29.1	-28.3	14.0	34	76	2252
2025-01-16 11:28:45.89	85.33	71.87	-29.1	-28.3	14.1	45	76	2254
2025-01-16 11:28:46.09	85.03	71.90	-29.2	-28.5	14.0	0	76	2279
2025-01-16 11:28:46.30	84.72	71.93	-29.2	-28.5	14.0	57	76	2282
2025-01-16 11:28:46.50	84.41	71.96	-29.1	-28.4	14.0	57	76	2273
2025-01-16 11:28:46.70	84.11	71.99	-29.2	-28.5	13.9	45	76	2282
2025-01-16 11:28:46.90	83.81	72.02	-29.1	-28.4	14.1	114	76	2263
2025-01-16 11:28:47.10	83.50	72.05	-29.2	-28.6	13.9	114	76	2300
2025-01-16 11:28:47.30	83.19	72.07	-29.2	-28.5	13.9	57	76	2283
2025-01-16 11:28:47.50	82.89	72.10	-29.2	-28.5	13.9	57	76	2285
2025-01-16 11:28:47.70	82.58	72.13	-29.3	-28.7	13.9	57	76	2316
2025-01-16 11:28:47.90	82.27	72.16	-29.2	-28.5	14.0	57	76	2284
2025-01-16 11:28:48.11	81.94	72.18	-29.2	-28.5	13.9	68	76	2286
2025-01-16 11:28:48.31	81.63	72.21	-29.2	-28.6	13.9	80	76	2294
2025-01-16 11:28:48.51	81.32	72.23	-29.1	-28.4	14.0	80	76	2265
2025-01-16 11:28:48.71	81.00	72.26	-29.1	-28.4	14.0	68	76	2268
2025-01-16 11:28:48.91	80.69	72.28	-29.0	-28.1	14.1	91	76	2226
2025-01-16 11:28:49.11	80.37	72.30	-28.9	-28.0	14.2	91	76	2216
2025-01-16 11:28:49.31	80.06	72.33	-28.9	-28.0	14.2	22	76	2215
2025-01-16 11:28:49.51	79.74	72.35	-28.8	-27.8	14.4	34	76	2182
2025-01-16 11:28:49.72	79.41	72.37	-28.8	-27.8	14.3	34	76	2181
2025-01-16 11:28:49.92	79.09	72.39	-28.6	-27.8	14.3	11	75	2250
2025-01-16 11:28:50.12	78.77	72.42	-28.7	-28.1	14.2	22	75	2290
2025-01-16 11:28:50.32	78.45	72.44	-28.7	-28.1	14.1	22	75	2289
2025-01-16 11:28:50.52	78.13	72.46	-28.8	-28.3	14.1	34	75	2315
2025-01-16 11:28:50.72	77.80	72.47	-28.8	-28.3	14.0	80	75	2319
2025-01-16 11:28:50.92	77.48	72.49	-28.9	-28.5	13.9	80	75	2341
2025-01-16 11:28:51.12	77.16	72.51	-28.9	-28.4	14.0	57	75	2338
2025-01-16 11:28:51.32	76.83	72.53	-29.1	-28.8	13.9	57	75	2392
2025-01-16 11:28:51.52	76.51	72.55	-29.1	-28.8	14.0	0	75	2386
2025-01-16 11:28:51.73	76.17	72.56	-28.9	-28.4	14.1	0	75	2332
2025-01-16 11:28:51.93	75.84	72.58	-28.9	-28.5	14.2	34	75	2339
2025-01-16 11:28:52.13	75.52	72.60	-28.8	-28.4	14.3	34	75	2334
2025-01-16 11:28:52.33	75.19	72.61	-28.7	-28.0	14.3	34	75	2273
2025-01-16 11:28:52.53	74.86	72.62	-28.7	-28.0	14.4	22	75	2277
2025-01-16 11:28:52.73	74.53	72.64	-28.6	-27.8	14.5	11	75	2255
2025-01-16 11:28:52.82	74.38	72.64	-28.7	-28.0	14.4	11	75	2278
2025-01-16 11:28:53.02	74.05	72.66	-28.7	-28.1	14.4	0	75	2295
2025-01-16 11:28:53.23	73.71	72.67	-28.8	-28.3	14.3	11	75	2323
2025-01-16 11:28:53.43	73.38	72.68	-28.9	-28.5	14.4	11	75	2351
2025-01-16 11:28:53.63	73.05	72.69	-28.9	-28.4	14.3	11	75	2333
2025-01-16 11:28:53.83	72.72	72.71	-28.8	-28.3	14.3	34	75	2319
2025-01-16 11:28:54.03	72.38	72.72	-29.2	-29.0	14.0	34	75	2420
2025-01-16 11:28:54.23	72.05	72.73	-29.0	-28.7	14.0	57	75	2375
2025-01-16 11:28:54.43	71.72	72.73	-29.2	-29.0	13.9	45	75	2409
2025-01-16 11:28:54.63	71.39	72.74	-29.2	-29.0	13.9	80	75	2417
2025-01-16 11:28:54.83	71.05	72.75	-29.2	-29.0	13.8	80	75	2419
2025-01-16 11:28:55.04	70.70	72.76	-29.3	-29.3	13.8	91	75	2453
2025-01-16 11:28:55.24	70.37	72.77	-29.4	-29.6	13.7	91	75	2503
2025-01-16 11:28:55.44	70.04	72.77	-29.2	-29.1	13.8	91	75	2432
2025-01-16 11:28:55.64	69.70	72.78	-29.3	-29.3	13.8	91	75	2462
2025-01-16 11:28:55.84	69.37	72.78	-29.3	-29.4	13.8	45	75	2467
2025-01-16 11:28:56.04	69.03	72.79	-29.2	-29.1	13.9	45	75	2435
2025-01-16 11:28:56.24	68.70	72.79	-29.4	-29.6	13.8	91	75	2507
2025-01-16 11:28:56.44	68.36	72.80	-29.4	-29.6	13.9	34	75	2505
2025-01-16 11:28:56.64	68.03	72.80	-29.6	-29.5	13.8	34	76	2425
2025-01-16 11:28:56.85	67.68	72.80	-29.6	-29.5	13.9	80	76	2415
2025-01-16 11:28:57.05	67.34	72.80	-29.5	-29.3	13.9	45	76	2388
2025-01-16 11:28:57.25	67.01	72.81	-29.5	-29.3	13.9	45	76	2398
2025-01-16 11:28:57.45	66.67	72.81	-29.3	-28.8	14.1	45	76	2322
2025-01-16 11:28:57.65	66.33	72.81	-29.4	-28.9	14.1	34	76	2338
2025-01-16 11:28:57.85	66.00	72.81	-29.3	-28.8	14.2	22	76	2318
2025-01-16 11:28:58.05	65.66	72.81	-29.3	-28.8	14.2	22	76	2322
2025-01-16 11:28:58.25	65.33	72.80	-29.3	-28.9	14.2	0	76	2331
2025-01-16 11:28:58.46	64.98	72.80	-29.4	-29.0	14.0	34	76	2348
2025-01-16 11:28:58.66	64.64	72.80	-29.2	-28.6	14.2	34	76	2291
2025-01-16 11:28:58.86	64.31	72.80	-29.5	-29.2	14.0	34	76	2381
2025-01-16 11:28:59.06	63.97	72.79	-29.4	-29.1	14.1	45	76	2362
2025-01-16 11:28:59.26	63.64	72.79	-29.5	-29.3	13.9	45	76	2391
2025-01-16 11:28:59.46	63.30	72.78	-29.6	-29.4	14.0	45	76	2408
2025-01-16 11:28:59.66	62.97	72.78	-29.6	-29.3	13.9	34	76	2390
2025-01-16 11:28:59.86	62.63	72.77	-29.5	-29.1	14.0	11	76	2370
2025-01-16 11:29:00.06	62.30	72.77	-29.7	-29.6	13.9	11	76	2431
2025-01-16 11:29:00.26	61.97	72.76	-29.4	-29.1	14.1	68	76	2363
2025-01-16 11:29:00.46	61.63	72.75	-29.5	-29.2	14.0	11	76	2374
2025-01-16 11:29:00.66	61.30	72.74	-29.3	-28.8	14.2	11	76	2319
2025-01-16 11:29:00.87	60.95	72.73	-29.3	-28.8	14.1	22	76	2328
2025-01-16 11:29:01.07	60.62	72.72	-29.3	-28.7	14.2	0	76	2311
2025-01-16 11:29:01.27	60.29	72.71	-29.4	-28.9	14.1	0	76	2336
2025-01-16 11:29:01.47	59.95	72.70	-29.4	-28.9	14.1	22	76	2330
2025-01-16 11:29:01.67	59.62	72.69	-29.5	-29.2	14.0	22	76	2376
2025-01-16 11:29:01.87	59.29	72.68	-29.5	-29.2	14.1	22	76	2374
2025-01-16 11:29:02.07	58.96	72.67	-29.4	-29.0	14.1	57	76	2353
2025-01-16 11:29:02.27	58.63	72.66	-29.6	-29.4	13.9	22	76	2411
2025-01-16 11:29:02.47	58.30	72.64	-29.5	-29.2	14.0	22	76	2369
2025-01-16 11:29:02.67	57.98	72.63	-29.6	-29.3	14.0	68	76	2397
2025-01-16 11:29:02.88	57.63	72.61	-29.5	-29.2	14.0	34	76	2377
2025-01-16 11:29:03.08	57.30	72.60	-29.5	-29.1	14.0	45	76	2362
2025-01-16 11:29:03.28	56.98	72.58	-29.5	-29.2	14.0	45	76	2376
2025-01-16 11:29:03.48	56.65	72.57	-29.5	-29.1	14.0	91	76	2363
2025-01-16 11:29:03.68	56.33	72.55	-29.5	-29.2	13.9	102	76	2377
2025-01-16 11:29:03.88	56.00	72.54	-29.6	-29.3	13.9	102	76	2393
2025-01-16 11:29:04.08	55.68	72.52	-29.7	-29.6	13.8	68	76	2425
2025-01-16 11:29:04.28	55.35	72.50	-29.5	-29.2	14.0	34	76	2371
2025-01-16 11:29:04.48	55.03	72.48	-29.6	-29.3	13.9	34	76	2397
2025-01-16 11:29:04.69	54.69	72.46	-29.5	-29.1	14.0	34	76	2355
2025-01-16 11:29:04.89	54.37	72.44	-29.5	-29.1	14.0	22	76	2365
2025-01-16 11:29:05.09	54.05	72.42	-29.4	-28.9	14.1	22	76	2330
2025-01-16 11:29:05.29	53.73	72.40	-29.4	-28.9	14.0	22	76	2329
2025-01-16 11:29:05.49	53.41	72.38	-29.6	-29.5	14.0	22	76	2417
2025-01-16 11:29:05.69	53.09	72.36	-29.5	-29.0	14.1	22	76	2348
2025-01-16 11:29:05.89	52.78	72.34	-29.3	-28.8	14.1	45	76	2312
2025-01-16 11:29:06.09	52.46	72.31	-29.4	-28.9	14.2	11	76	2334
2025-01-16 11:29:06.30	52.13	72.29	-29.4	-29.0	14.1	57	76	2345
2025-01-16 11:29:06.50	51.81	72.26	-29.3	-28.8	14.1	57	76	2322
2025-01-16 11:29:06.70	51.50	72.24	-29.6	-29.5	13.9	34	76	2413
2025-01-16 11:29:06.90	51.19	72.22	-29.5	-29.1	14.1	34	76	2357
2025-01-16 11:29:07.10	50.88	72.19	-29.5	-29.1	13.9	34	76	2356
2025-01-16 11:29:07.30	50.56	72.16	-29.4	-29.0	14.2	34	76	2341
2025-01-16 11:29:07.50	50.25	72.14	-29.5	-29.2	14.0	34	76	2376
2025-01-16 11:29:07.70	49.95	72.11	-29.2	-28.5	14.2	22	76	2281
2025-01-16 11:29:07.90	49.64	72.08	-29.5	-29.1	13.9	22	76	2367
2025-01-16 11:29:08.10	49.33	72.06	-29.6	-29.4	13.9	57	76	2398
2025-01-16 11:29:08.31	49.01	72.03	-29.6	-29.4	13.9	68	76	2401
2025-01-16 11:29:08.51	48.70	72.00	-29.5	-29.2	13.9	68	76	2373
2025-01-16 11:29:08.71	48.40	71.97	-29.5	-29.1	14.0	34	76	2359
2025-01-16 11:29:08.91	48.10	71.94	-29.6	-29.4	13.7	34	76	2400
2025-01-16 11:29:09.11	47.80	71.91	-29.5	-29.2	13.9	34	76	2376
2025-01-16 11:29:09.31	47.50	71.88	-29.8	-29.9	13.6	57	76	2471
2025-01-16 11:29:09.51	47.20	71.85	-29.5	-29.1	13.9	68	76	2355
2025-01-16 11:29:09.71	46.90	71.82	-29.7	-29.7	13.6	68	76	2439
2025-01-16 11:29:09.91	46.60	71.78	-29.2	-28.6	14.1	91	76	2297
2025-01-16 11:29:10.12	46.29	71.75	-29.6	-29.5	13.8	22	76	2413
2025-01-16 11:29:10.32	45.99	71.72	-29.5	-29.1	13.9	22	76	2353
2025-01-16 11:29:10.52	45.70	71.68	-29.3	-28.8	14.0	45	76	2312
2025-01-16 11:29:10.72	45.41	71.65	-29.4	-29.0	13.9	45	76	2346
2025-01-16 11:29:10.92	45.12	71.62	-29.3	-28.8	14.1	45	76	2314
2025-01-16 11:29:11.12	44.82	71.58	-29.3	-28.7	14.0	91	76	2296
2025-01-16 11:29:11.32	44.54	71.55	-29.1	-28.4	14.2	34	76	2264
2025-01-16 11:29:11.52	44.25	71.51	-29.5	-29.2	13.9	102	76	2372
2025-01-16 11:29:11.72	43.96	71.48	-29.1	-28.3	14.3	102	76	2259
2025-01-16 11:29:11.93	43.66	71.44	-29.9	-30.1	13.5	11	76	2507
2025-01-16 11:29:12.13	43.38	71.40	-29.2	-28.6	14.2	102	76	2292
2025-01-16 11:29:12.33	43.09	71.36	-29.8	-29.7	13.8	102	76	2454
2025-01-16 11:29:12.53	42.81	71.33	-29.8	-29.8	13.7	68	76	2466
2025-01-16 11:29:12.73	42.53	71.29	-29.7	-29.6	14.0	102	76	2443
2025-01-16 11:29:12.93	42.25	71.25	-30.4	-30.5	13.2	102	77	2504
2025-01-16 11:29:13.13	41.97	71.21	-29.7	-29.2	13.9	183	77	2309
2025-01-16 11:29:13.33	41.69	71.17	-30.0	-29.7	13.7	148	77	2382
2025-01-16 11:29:13.53	41.42	71.13	-30.3	-30.3	13.3	148	77	2463
2025-01-16 11:29:13.73	41.14	71.09	-29.8	-29.3	13.8	251	77	2329
2025-01-16 11:29:13.93	40.87	71.05	-30.6	-30.4	12.9	102	78	2421
2025-01-16 11:29:14.14	40.58	71.01	-29.7	-29.0	13.9	102	77	2290
2025-01-16 11:29:14.34	40.31	70.97	-30.7	-30.7	12.9	423	78	2459
2025-01-16 11:29:14.54	40.04	70.92	-29.8	-28.9	13.7	457	78	2207
2025-01-16 11:29:14.74	39.77	70.88	-30.6	-30.6	13.0	228	78	2448
2025-01-16 11:29:14.94	39.51	70.84	-29.7	-28.7	13.8	228	78	2172
2025-01-16 11:29:15.14	39.24	70.80	-30.3	-30.4	13.5	411	77	2485
2025-01-16 11:29:15.34	38.98	70.75	-30.3	-29.8	13.4	411	78	2331
2025-01-16 11:29:15.54	38.71	70.71	-29.8	-29.2	14.0	411	77	2319
2025-01-16 11:29:15.74	38.45	70.67	-30.9	-30.7	12.6	91	79	2384
2025-01-16 11:29:15.94	38.19	70.62	-29.3	-28.2	14.2	663	77	2167
2025-01-16 11:29:16.15	37.92	70.58	-28.0	-27.2	15.4	663	74	2240
2025-01-16 11:29:16.35	37.66	70.53	-33.8	-34.4	9.3	22	84	2632
2025-01-16 11:29:16.55	37.40	70.49	-35.0	-35.8	7.5	294033	86	2713
2025-01-16 11:29:16.75	37.15	70.44	-38.5	-41.1	3.8	294033	93	3311
2025-01-16 11:29:16.95	36.89	70.39	-39.6	-44.3	3.6	5264785	96	4223
2025-01-16 11:29:17.15	36.64	70.35	-39.8	-44.0	3.4	8446174	96	3984
2025-01-16 11:29:17.35	36.39	70.30	-39.7	-43.3	3.3	8405731	96	3733
2025-01-16 11:29:17.55	36.14	70.25	-39.8	-43.7	3.3	8405731	96	3861
2025-01-16 11:29:17.75	35.89	70.21	-39.8	-45.1	3.6	8404998	96	4545
2025-01-16 11:29:17.96	35.63	70.16	-39.8	-44.3	3.4	8441299	96	4113
2025-01-16 11:29:18.16	35.38	70.11	-39.8	-43.3	3.3	8441299	96	3707

#Closed at: 2025-01-16 11:29:18