passes_logs/2025/01/26/Regia/Regia__20250126_235210_AURA_rec.log

#Pass ID: 20250126_235210_AURA
#Satellite: AURA
#Configuration: AURA
#Start time: 2025-01-26 23:52:15.730638

#LorettStation: 1.0.0 05.05.2024
#Station: Regia
#Location: 37.494653 lon 55.929028 lat
#TLE: 1 28376U 04026A   25025.87705282  .00002378  00000+0  50696-3 0  9999
#TLE: 2 28376  98.2780 335.6717 0001647  85.9709 274.1679 14.59848561 92154

#Time	Az	El	Level	SNR
2025-01-26 23:52:19.882048	24.4	15.5	-66.5	0.0
2025-01-26 23:52:20.997978	24.5	15.6	-66.4	0.0
2025-01-26 23:52:22.113644	24.5	15.7	-66.6	0.6
2025-01-26 23:52:23.228497	24.6	15.9	-66.7	0.0
2025-01-26 23:52:24.344359	24.7	16.0	-66.6	0.0
2025-01-26 23:52:25.460214	24.7	16.1	-66.8	0.0
2025-01-26 23:52:26.575578	24.8	16.3	-66.9	0.0
2025-01-26 23:52:27.691514	24.9	16.4	-67.0	0.0
2025-01-26 23:52:28.807741	25.0	16.5	-66.9	0.0
2025-01-26 23:52:29.922602	25.0	16.7	-66.8	0.0
2025-01-26 23:52:31.038790	25.1	16.8	-66.6	0.0
2025-01-26 23:52:32.153421	25.2	16.9	-66.7	0.0
2025-01-26 23:52:33.268275	25.3	17.1	-66.4	0.0
2025-01-26 23:52:34.383128	25.3	17.2	-66.1	2.9
2025-01-26 23:52:35.497980	25.4	17.3	-66.1	2.7
2025-01-26 23:52:36.612732	25.5	17.5	-65.9	4.1
2025-01-26 23:52:37.730210	25.6	17.6	-65.7	3.5
2025-01-26 23:52:38.844926	25.7	17.8	-66.0	3.2
2025-01-26 23:52:39.961651	25.7	17.9	-66.1	3.0
2025-01-26 23:52:41.077611	25.8	18.0	-66.0	3.4
2025-01-26 23:52:42.192471	25.9	18.2	-66.0	3.4
2025-01-26 23:52:43.307577	26.0	18.3	-66.1	2.9
2025-01-26 23:52:44.422539	26.1	18.5	-66.1	1.5
2025-01-26 23:52:45.537747	26.2	18.6	-66.4	3.0
2025-01-26 23:52:46.652900	26.2	18.8	-66.5	2.3
2025-01-26 23:52:47.767882	26.3	18.9	-66.6	1.5
2025-01-26 23:52:48.882742	26.4	19.1	-66.5	2.3
2025-01-26 23:52:49.998996	26.5	19.2	-66.3	2.3
2025-01-26 23:52:51.115361	26.6	19.4	-66.0	3.3
2025-01-26 23:52:52.230214	26.7	19.5	-65.8	4.3
2025-01-26 23:52:53.345106	26.8	19.7	-65.7	4.4
2025-01-26 23:52:54.460969	26.9	19.8	-65.6	4.4
2025-01-26 23:52:55.576399	27.0	20.0	-65.3	4.6
2025-01-26 23:52:56.693265	27.1	20.1	-65.3	5.2
2025-01-26 23:52:57.809129	27.2	20.3	-64.8	5.6
2025-01-26 23:52:58.925953	27.2	20.4	-64.7	5.6
2025-01-26 23:53:00.041816	27.3	20.6	-65.3	5.7
2025-01-26 23:53:01.156676	27.4	20.8	-65.1	5.4
2025-01-26 23:53:02.272540	27.5	20.9	-64.8	6.0
2025-01-26 23:53:03.388465	27.6	21.1	-64.5	6.7
2025-01-26 23:53:04.503525	27.7	21.2	-64.4	6.7
2025-01-26 23:53:05.619383	27.8	21.4	-65.0	5.9
2025-01-26 23:53:06.734243	27.9	21.6	-64.9	5.9
2025-01-26 23:53:07.849103	28.0	21.7	-64.9	6.0
2025-01-26 23:53:08.965402	28.2	21.9	-64.9	6.1
2025-01-26 23:53:10.082269	28.3	22.1	-64.8	6.7
2025-01-26 23:53:11.197129	28.4	22.2	-64.7	6.4
2025-01-26 23:53:12.312992	28.5	22.4	-64.7	6.5
2025-01-26 23:53:13.428855	28.6	22.6	-64.5	6.8
2025-01-26 23:53:14.543861	28.7	22.8	-64.6	7.1
2025-01-26 23:53:15.658718	28.8	22.9	-64.4	6.6
2025-01-26 23:53:16.773579	28.9	23.1	-64.7	6.9
2025-01-26 23:53:17.888438	29.0	23.3	-65.0	6.5
2025-01-26 23:53:19.004452	29.2	23.5	-64.8	6.8
2025-01-26 23:53:20.119310	29.3	23.6	-64.7	6.3
2025-01-26 23:53:21.234170	29.4	23.8	-64.6	6.7
2025-01-26 23:53:22.350534	29.5	24.0	-64.5	6.8
2025-01-26 23:53:23.466397	29.6	24.2	-64.6	7.3
2025-01-26 23:53:24.582290	29.8	24.4	-64.5	6.9
2025-01-26 23:53:25.697313	29.9	24.6	-64.3	7.3
2025-01-26 23:53:26.812354	30.0	24.7	-64.2	7.5
2025-01-26 23:53:27.928218	30.1	24.9	-63.9	8.0
2025-01-26 23:53:29.044448	30.3	25.1	-63.7	8.3
2025-01-26 23:53:30.160638	30.4	25.3	-63.5	8.5
2025-01-26 23:53:31.275498	30.5	25.5	-63.7	8.5
2025-01-26 23:53:32.390358	30.7	25.7	-63.7	8.0
2025-01-26 23:53:33.505218	30.8	25.9	-63.8	8.6
2025-01-26 23:53:34.622170	30.9	26.1	-63.8	8.4
2025-01-26 23:53:35.737356	31.1	26.3	-63.9	8.0
2025-01-26 23:53:36.852215	31.2	26.5	-63.8	8.0
2025-01-26 23:53:37.967578	31.4	26.7	-64.0	8.1
2025-01-26 23:53:39.084445	31.5	26.9	-63.8	8.0
2025-01-26 23:53:40.200308	31.6	27.1	-64.0	8.3
2025-01-26 23:53:41.314950	31.8	27.3	-64.1	8.1
2025-01-26 23:53:42.429810	31.9	27.5	-63.7	8.7
2025-01-26 23:53:43.544670	32.1	27.7	-63.6	8.7
2025-01-26 23:53:44.661982	32.2	27.9	-63.3	9.2
2025-01-26 23:53:45.777841	32.4	28.1	-63.1	9.3
2025-01-26 23:53:46.893704	32.6	28.3	-62.9	9.8
2025-01-26 23:53:48.010541	32.7	28.5	-62.8	9.9
2025-01-26 23:53:49.125400	32.9	28.8	-62.8	9.7
2025-01-26 23:53:50.242267	33.0	29.0	-62.8	9.9
2025-01-26 23:53:51.357111	33.2	29.2	-62.6	10.3
2025-01-26 23:53:52.471970	33.4	29.4	-62.6	10.3
2025-01-26 23:53:53.587709	33.6	29.6	-62.8	10.1
2025-01-26 23:53:54.702566	33.7	29.8	-62.9	9.7
2025-01-26 23:53:55.818424	33.9	30.1	-63.2	9.1
2025-01-26 23:53:56.933284	34.1	30.3	-63.2	9.3
2025-01-26 23:53:58.048646	34.3	30.5	-63.3	9.1
2025-01-26 23:53:59.164285	34.4	30.8	-62.9	9.6
2025-01-26 23:54:00.279145	34.6	31.0	-62.9	9.5
2025-01-26 23:54:01.393815	34.8	31.2	-62.9	9.5
2025-01-26 23:54:02.508675	35.0	31.4	-63.0	10.3
2025-01-26 23:54:03.623535	35.2	31.7	-62.7	10.0
2025-01-26 23:54:04.738390	35.4	31.9	-62.9	9.7
2025-01-26 23:54:05.853140	35.6	32.2	-63.2	9.8
2025-01-26 23:54:06.969004	35.8	32.4	-62.8	9.6
2025-01-26 23:54:08.085871	36.0	32.6	-62.8	9.8
2025-01-26 23:54:09.201734	36.2	32.9	-62.8	9.7
2025-01-26 23:54:10.316590	36.4	33.1	-62.7	10.0
2025-01-26 23:54:11.431306	36.7	33.4	-62.7	9.8
2025-01-26 23:54:12.547170	36.9	33.6	-63.0	9.9
2025-01-26 23:54:13.661877	37.1	33.9	-62.9	9.7
2025-01-26 23:54:14.776870	37.3	34.1	-63.0	9.4
2025-01-26 23:54:15.891988	37.6	34.4	-63.1	9.7
2025-01-26 23:54:17.007853	37.8	34.6	-63.0	9.4
2025-01-26 23:54:18.122712	38.0	34.9	-63.1	9.7
2025-01-26 23:54:19.238576	38.3	35.2	-63.2	9.8
2025-01-26 23:54:20.354439	38.5	35.4	-63.4	9.3
2025-01-26 23:54:21.471459	38.8	35.7	-63.3	9.2
2025-01-26 23:54:22.586241	39.0	35.9	-63.1	9.2
2025-01-26 23:54:23.702148	39.3	36.2	-62.9	9.7
2025-01-26 23:54:24.817008	39.5	36.5	-62.8	10.0
2025-01-26 23:54:25.933319	39.8	36.8	-63.0	9.6
2025-01-26 23:54:27.050185	40.1	37.0	-63.2	9.3
2025-01-26 23:54:28.165045	40.3	37.3	-63.3	9.0
2025-01-26 23:54:29.280909	40.6	37.6	-63.3	9.1
2025-01-26 23:54:30.395768	40.9	37.9	-63.3	9.3
2025-01-26 23:54:31.511554	41.2	38.1	-63.2	8.9
2025-01-26 23:54:32.626456	41.5	38.4	-63.3	9.2
2025-01-26 23:54:33.741311	41.8	38.7	-63.5	9.1
2025-01-26 23:54:34.856171	42.1	39.0	-63.3	9.2
2025-01-26 23:54:35.972131	42.4	39.3	-63.3	9.7
2025-01-26 23:54:37.088495	42.7	39.5	-63.5	8.7
2025-01-26 23:54:38.203356	43.0	39.8	-63.8	8.5
2025-01-26 23:54:39.319219	43.4	40.1	-63.8	8.1
2025-01-26 23:54:40.435083	43.7	40.4	-63.7	8.8
2025-01-26 23:54:41.549850	44.0	40.7	-63.2	9.5
2025-01-26 23:54:42.665712	44.4	41.0	-62.9	9.9
2025-01-26 23:54:43.782578	44.7	41.3	-62.8	10.0
2025-01-26 23:54:44.897439	45.1	41.6	-62.9	10.0
2025-01-26 23:54:46.013415	45.5	41.9	-63.2	9.3
2025-01-26 23:54:47.129276	45.8	42.2	-63.0	9.5
2025-01-26 23:54:48.244136	46.2	42.5	-62.8	9.9
2025-01-26 23:54:49.359999	46.6	42.8	-62.6	10.5
2025-01-26 23:54:50.475863	47.0	43.1	-62.7	10.3
2025-01-26 23:54:51.591720	47.4	43.4	-62.8	10.1
2025-01-26 23:54:52.706544	47.8	43.7	-62.7	10.3
2025-01-26 23:54:53.822402	48.2	44.0	-62.8	10.0
2025-01-26 23:54:54.937543	48.6	44.3	-62.7	10.3
2025-01-26 23:54:56.053406	49.1	44.6	-62.6	10.3
2025-01-26 23:54:57.168163	49.5	44.9	-62.5	10.4
2025-01-26 23:54:58.283024	50.0	45.2	-62.5	10.4
2025-01-26 23:54:59.397884	50.4	45.6	-62.4	10.4
2025-01-26 23:55:00.513748	50.9	45.9	-62.4	10.6
2025-01-26 23:55:01.628603	51.4	46.2	-62.4	10.7
2025-01-26 23:55:02.744464	51.9	46.5	-62.4	10.9
2025-01-26 23:55:03.859324	52.4	46.8	-61.9	11.4
2025-01-26 23:55:04.975181	52.9	47.1	-61.8	11.8
2025-01-26 23:55:06.091044	53.4	47.4	-61.7	11.7
2025-01-26 23:55:07.205897	53.9	47.7	-61.8	11.4
2025-01-26 23:55:08.321760	54.4	48.0	-62.1	10.7
2025-01-26 23:55:09.436620	55.0	48.4	-62.2	10.7
2025-01-26 23:55:10.551480	55.6	48.7	-62.1	11.2
2025-01-26 23:55:11.668093	56.1	49.0	-61.5	12.0
2025-01-26 23:55:12.784403	56.7	49.3	-61.5	12.1
2025-01-26 23:55:13.899264	57.3	49.6	-61.8	11.6
2025-01-26 23:55:15.016232	57.9	49.9	-62.0	11.4
2025-01-26 23:55:16.131091	58.5	50.2	-62.1	11.0
2025-01-26 23:55:17.246530	59.2	50.5	-62.0	11.4
2025-01-26 23:55:18.361391	59.8	50.8	-62.1	11.1
2025-01-26 23:55:19.476250	60.5	51.1	-62.2	11.0
2025-01-26 23:55:20.592236	61.1	51.4	-62.4	10.8
2025-01-26 23:55:21.707119	61.8	51.7	-62.7	10.6
2025-01-26 23:55:22.822981	62.5	52.0	-62.6	10.4
2025-01-26 23:55:23.939846	63.2	52.3	-62.5	10.1
2025-01-26 23:55:25.054707	64.0	52.6	-62.3	10.9
2025-01-26 23:55:26.169567	64.7	52.9	-62.7	10.2
2025-01-26 23:55:27.285931	65.5	53.1	-62.9	9.9
2025-01-26 23:55:28.400789	66.2	53.4	-63.0	9.6
2025-01-26 23:55:29.515648	67.0	53.7	-62.6	10.4
2025-01-26 23:55:30.630508	67.8	54.0	-62.6	10.5
2025-01-26 23:55:31.745368	68.7	54.2	-63.0	9.9
2025-01-26 23:55:32.860218	69.5	54.5	-63.0	9.9
2025-01-26 23:55:33.976082	70.3	54.8	-62.7	10.3
2025-01-26 23:55:35.091946	71.2	55.0	-62.8	10.2
2025-01-26 23:55:36.208812	72.1	55.3	-63.4	9.1
2025-01-26 23:55:37.323664	73.0	55.5	-63.5	9.2
2025-01-26 23:55:38.439522	73.9	55.7	-63.4	9.7
2025-01-26 23:55:39.554382	74.8	56.0	-63.5	9.1
2025-01-26 23:55:40.669243	75.7	56.2	-63.7	8.9
2025-01-26 23:55:41.785107	76.7	56.4	-63.8	8.5
2025-01-26 23:55:42.899956	77.7	56.6	-63.7	8.8
2025-01-26 23:55:44.014815	78.7	56.8	-63.9	8.3
2025-01-26 23:55:45.130677	79.7	57.0	-63.8	8.5
2025-01-26 23:55:46.246540	80.7	57.2	-64.0	8.2
2025-01-26 23:55:47.361401	81.7	57.4	-64.3	7.6
2025-01-26 23:55:48.477080	82.7	57.6	-64.5	8.0
2025-01-26 23:55:49.593947	83.8	57.7	-63.8	8.5
2025-01-26 23:55:50.708807	84.9	57.9	-63.7	8.8
2025-01-26 23:55:51.823654	85.9	58.1	-63.9	8.6
2025-01-26 23:55:52.938317	87.0	58.2	-64.3	7.4
2025-01-26 23:55:54.055579	88.1	58.3	-64.3	7.8
2025-01-26 23:55:55.171443	89.3	58.4	-64.1	8.2
2025-01-26 23:55:56.286303	90.4	58.6	-64.3	7.4
2025-01-26 23:55:57.402166	91.5	58.7	-64.3	7.9
2025-01-26 23:55:58.518315	92.6	58.7	-64.3	8.3
2025-01-26 23:55:59.633175	93.8	58.8	-64.3	8.3
2025-01-26 23:56:00.751578	95.0	58.9	-64.3	7.7
2025-01-26 23:56:01.866489	96.1	59.0	-64.1	8.4
2025-01-26 23:56:02.983357	97.3	59.0	-63.4	9.1
2025-01-26 23:56:04.098211	98.4	59.0	-63.3	9.0
2025-01-26 23:56:05.215078	99.6	59.1	-63.8	8.4
2025-01-26 23:56:06.329938	100.8	59.1	-63.6	8.8
2025-01-26 23:56:07.445801	102.0	59.1	-63.6	9.1
2025-01-26 23:56:08.560653	103.1	59.1	-63.7	9.0
2025-01-26 23:56:09.675513	104.3	59.1	-64.2	8.0
2025-01-26 23:56:10.791227	105.5	59.0	-64.4	7.7
2025-01-26 23:56:11.907090	106.7	59.0	-64.4	7.8
2025-01-26 23:56:13.024041	107.8	58.9	-65.1	6.6
2025-01-26 23:56:14.138995	109.0	58.9	-65.5	5.4
2025-01-26 23:56:15.255125	110.1	58.8	-66.0	4.8
2025-01-26 23:56:16.371992	111.3	58.7	-66.4	4.0
2025-01-26 23:56:17.486853	112.4	58.6	-66.5	2.9
2025-01-26 23:56:18.601705	113.6	58.5	-67.0	0.9
2025-01-26 23:56:19.717567	114.7	58.4	-67.5	0.3
2025-01-26 23:56:20.831916	115.8	58.3	-67.9	0.0
2025-01-26 23:56:21.946775	116.9	58.2	-68.5	0.0
2025-01-26 23:56:23.062639	118.0	58.0	-68.0	0.0
2025-01-26 23:56:24.178496	119.1	57.9	-67.8	0.0
2025-01-26 23:56:25.294360	120.1	57.7	-67.4	0.0
2025-01-26 23:56:26.409220	121.2	57.6	-66.9	3.1
2025-01-26 23:56:27.525083	122.2	57.4	-66.8	2.8
2025-01-26 23:56:28.641094	123.3	57.2	-66.8	2.5
2025-01-26 23:56:29.757468	124.3	57.0	-66.9	1.5
2025-01-26 23:56:30.872403	125.3	56.8	-67.1	2.0
2025-01-26 23:56:31.988261	126.3	56.6	-67.3	1.0
2025-01-26 23:56:33.104533	127.2	56.4	-67.4	0.0
2025-01-26 23:56:34.219263	128.2	56.2	-67.2	1.3
2025-01-26 23:56:35.335126	129.1	56.0	-66.7	3.0
2025-01-26 23:56:36.451210	130.1	55.7	-66.1	4.5
2025-01-26 23:56:37.567068	131.0	55.5	-65.7	4.8
2025-01-26 23:56:38.681923	131.9	55.2	-65.3	6.0
2025-01-26 23:56:39.796783	132.7	55.0	-65.2	6.8
2025-01-26 23:56:40.913640	133.6	54.7	-64.7	7.5
2025-01-26 23:56:42.030507	134.5	54.5	-64.2	8.1
2025-01-26 23:56:43.145842	135.3	54.2	-63.7	8.7
2025-01-26 23:56:44.261649	136.1	53.9	-63.7	9.1
2025-01-26 23:56:45.376509	136.9	53.7	-63.6	9.0
2025-01-26 23:56:46.491369	137.7	53.4	-63.7	9.0
2025-01-26 23:56:47.607233	138.5	53.1	-63.5	9.1
2025-01-26 23:56:48.722093	139.2	52.8	-63.3	10.0
2025-01-26 23:56:49.837077	140.0	52.5	-63.1	10.3
2025-01-26 23:56:50.953061	140.7	52.2	-62.9	10.6
2025-01-26 23:56:52.068924	141.4	52.0	-62.6	10.7
2025-01-26 23:56:53.185791	142.1	51.7	-62.8	10.4
2025-01-26 23:56:54.300759	142.8	51.4	-63.0	10.2
2025-01-26 23:56:55.416623	143.5	51.1	-62.9	10.1
2025-01-26 23:56:56.532486	144.1	50.8	-62.8	10.4
2025-01-26 23:56:57.647346	144.8	50.5	-62.5	10.8
2025-01-26 23:56:58.762207	145.4	50.1	-62.4	10.4
2025-01-26 23:56:59.878786	146.0	49.8	-62.7	10.5
2025-01-26 23:57:00.994235	146.6	49.5	-62.6	10.5
2025-01-26 23:57:02.109095	147.2	49.2	-62.6	10.8
2025-01-26 23:57:03.223955	147.8	48.9	-62.2	10.7
2025-01-26 23:57:04.339810	148.4	48.6	-62.3	10.8
2025-01-26 23:57:05.454670	148.9	48.3	-62.4	10.8
2025-01-26 23:57:06.569530	149.5	48.0	-62.5	10.8
2025-01-26 23:57:07.684390	150.0	47.7	-62.3	10.8
2025-01-26 23:57:08.800253	150.6	47.4	-62.6	10.5
2025-01-26 23:57:09.916491	151.1	47.0	-62.4	10.7
2025-01-26 23:57:11.032354	151.6	46.7	-62.2	11.5
2025-01-26 23:57:12.147215	152.1	46.4	-62.4	11.0
2025-01-26 23:57:13.265085	152.6	46.1	-62.6	10.5
2025-01-26 23:57:14.380108	153.0	45.8	-62.4	10.8
2025-01-26 23:57:15.495971	153.5	45.5	-62.3	11.3
2025-01-26 23:57:16.611835	154.0	45.2	-62.5	10.7
2025-01-26 23:57:17.726695	154.4	44.9	-62.5	10.6
2025-01-26 23:57:18.842383	154.9	44.5	-62.2	10.8
2025-01-26 23:57:19.957235	155.3	44.2	-62.2	10.8
2025-01-26 23:57:21.073099	155.7	43.9	-62.4	10.7
2025-01-26 23:57:22.187626	156.1	43.6	-62.3	10.8
2025-01-26 23:57:23.302478	156.5	43.3	-62.2	11.4
2025-01-26 23:57:24.417372	157.0	43.0	-62.2	11.4
2025-01-26 23:57:25.532232	157.3	42.7	-62.4	10.9
2025-01-26 23:57:26.647084	157.7	42.4	-62.3	10.7
2025-01-26 23:57:27.761944	158.1	42.1	-62.4	11.0
2025-01-26 23:57:28.876804	158.5	41.8	-62.4	10.7
2025-01-26 23:57:29.991493	158.8	41.5	-62.4	11.0
2025-01-26 23:57:31.106351	159.2	41.2	-62.5	10.9
2025-01-26 23:57:32.222214	159.6	40.9	-62.6	10.4
2025-01-26 23:57:33.337075	159.9	40.6	-62.7	10.4
2025-01-26 23:57:34.451800	160.2	40.3	-62.7	10.6
2025-01-26 23:57:35.567656	160.6	40.0	-62.8	9.9
2025-01-26 23:57:36.683519	160.9	39.7	-63.0	10.1
2025-01-26 23:57:37.798379	161.2	39.4	-63.1	9.8
2025-01-26 23:57:38.913239	161.5	39.2	-63.3	9.3
2025-01-26 23:57:40.029072	161.8	38.9	-63.4	9.1
2025-01-26 23:57:41.145939	162.1	38.6	-63.5	9.4
2025-01-26 23:57:42.260798	162.4	38.3	-63.7	9.3
2025-01-26 23:57:43.375658	162.7	38.0	-63.2	9.8
2025-01-26 23:57:44.490519	163.0	37.7	-63.4	9.4
2025-01-26 23:57:45.605122	163.3	37.5	-63.4	9.8
2025-01-26 23:57:46.720986	163.6	37.2	-62.9	10.2
2025-01-26 23:57:47.835703	163.9	36.9	-62.5	10.8
2025-01-26 23:57:48.951566	164.1	36.6	-62.4	10.7
2025-01-26 23:57:50.065810	164.4	36.4	-62.6	10.6
2025-01-26 23:57:51.181670	164.7	36.1	-62.4	11.0
2025-01-26 23:57:52.296530	164.9	35.8	-62.7	10.4
2025-01-26 23:57:53.413029	165.2	35.6	-62.6	10.7
2025-01-26 23:57:54.527890	165.4	35.3	-62.4	11.0
2025-01-26 23:57:55.643034	165.7	35.0	-62.4	11.2
2025-01-26 23:57:56.758897	165.9	34.8	-62.1	11.3
2025-01-26 23:57:57.874758	166.1	34.5	-62.0	11.6
2025-01-26 23:57:58.990619	166.4	34.3	-61.9	11.6
2025-01-26 23:58:00.105400	166.6	34.0	-61.9	11.6
2025-01-26 23:58:01.220640	166.8	33.8	-61.8	11.7
2025-01-26 23:58:02.335500	167.1	33.5	-61.8	11.2
2025-01-26 23:58:03.450263	167.3	33.3	-61.8	11.7
2025-01-26 23:58:04.565117	167.5	33.0	-61.6	11.7
2025-01-26 23:58:05.679977	167.7	32.8	-61.7	12.1
2025-01-26 23:58:06.795752	167.9	32.5	-61.7	11.9
2025-01-26 23:58:07.910611	168.1	32.3	-61.7	11.7
2025-01-26 23:58:09.026475	168.3	32.0	-61.9	11.8
2025-01-26 23:58:10.141404	168.5	31.8	-61.9	11.3
2025-01-26 23:58:11.258271	168.7	31.6	-62.2	11.1
2025-01-26 23:58:12.374126	168.9	31.3	-62.0	11.4
2025-01-26 23:58:13.489990	169.1	31.1	-62.2	11.2
2025-01-26 23:58:14.604849	169.3	30.9	-62.5	10.8
2025-01-26 23:58:15.719693	169.5	30.6	-62.4	10.8
2025-01-26 23:58:16.835408	169.7	30.4	-62.2	11.0
2025-01-26 23:58:17.951211	169.8	30.2	-61.9	12.1
2025-01-26 23:58:19.067067	170.0	29.9	-61.7	11.8
2025-01-26 23:58:20.183664	170.2	29.7	-62.0	11.4
2025-01-26 23:58:21.298524	170.4	29.5	-62.0	11.4
2025-01-26 23:58:22.413684	170.5	29.3	-62.0	11.3
2025-01-26 23:58:23.529008	170.7	29.0	-62.1	10.9
2025-01-26 23:58:24.643866	170.9	28.8	-62.1	11.4
2025-01-26 23:58:25.758726	171.0	28.6	-62.2	11.8
2025-01-26 23:58:26.873586	171.2	28.4	-62.2	11.3
2025-01-26 23:58:27.988440	171.4	28.2	-62.4	11.3
2025-01-26 23:58:29.105308	171.5	28.0	-62.5	10.7
2025-01-26 23:58:30.220993	171.7	27.8	-62.2	11.2
2025-01-26 23:58:31.337290	171.8	27.5	-62.1	11.2
2025-01-26 23:58:32.453150	172.0	27.3	-62.2	10.6
2025-01-26 23:58:33.569496	172.1	27.1	-62.1	11.4
2025-01-26 23:58:34.684356	172.3	26.9	-62.1	11.2
2025-01-26 23:58:35.800219	172.4	26.7	-62.4	11.2
2025-01-26 23:58:36.916082	172.6	26.5	-62.2	10.9
2025-01-26 23:58:38.031946	172.7	26.3	-62.6	10.7
2025-01-26 23:58:39.146734	172.8	26.1	-62.5	10.9
2025-01-26 23:58:40.262597	173.0	25.9	-62.6	10.5
2025-01-26 23:58:41.378464	173.1	25.7	-62.7	10.6
2025-01-26 23:58:42.494324	173.3	25.5	-62.4	11.0
2025-01-26 23:58:43.609540	173.4	25.3	-62.2	11.2
2025-01-26 23:58:44.725403	173.5	25.1	-62.5	10.9
2025-01-26 23:58:45.840295	173.7	25.0	-62.2	11.0
2025-01-26 23:58:46.955225	173.8	24.8	-62.3	11.3
2025-01-26 23:58:48.071089	173.9	24.6	-62.3	11.2
2025-01-26 23:58:49.185942	174.0	24.4	-62.1	10.8
2025-01-26 23:58:50.302985	174.2	24.2	-62.2	11.5
2025-01-26 23:58:51.417846	174.3	24.0	-62.1	11.5
2025-01-26 23:58:52.532706	174.4	23.8	-62.2	11.4
2025-01-26 23:58:53.648551	174.5	23.7	-62.4	11.1
2025-01-26 23:58:54.763403	174.6	23.5	-62.4	11.0
2025-01-26 23:58:55.878263	174.8	23.3	-62.5	10.6
2025-01-26 23:58:56.994127	174.9	23.1	-62.4	10.8
2025-01-26 23:58:58.109990	175.0	22.9	-62.2	11.2
2025-01-26 23:58:59.224844	175.1	22.8	-62.4	11.0
2025-01-26 23:59:00.340708	175.2	22.6	-62.5	10.7
2025-01-26 23:59:01.455568	175.3	22.4	-62.4	10.9
2025-01-26 23:59:02.571432	175.4	22.2	-62.3	11.3
2025-01-26 23:59:03.686292	175.5	22.1	-62.3	10.9
2025-01-26 23:59:04.802150	175.6	21.9	-62.4	11.1
2025-01-26 23:59:05.917010	175.8	21.7	-62.5	10.8
2025-01-26 23:59:07.033877	175.9	21.6	-62.6	10.7
2025-01-26 23:59:08.148792	176.0	21.4	-62.4	11.0
2025-01-26 23:59:09.263481	176.1	21.2	-62.2	11.0
2025-01-26 23:59:10.379345	176.2	21.1	-62.2	11.4
2025-01-26 23:59:11.495209	176.3	20.9	-62.1	11.3
2025-01-26 23:59:12.611072	176.4	20.8	-62.3	11.2
2025-01-26 23:59:13.727338	176.5	20.6	-62.3	11.2
2025-01-26 23:59:14.843193	176.6	20.4	-62.5	10.7
2025-01-26 23:59:15.959434	176.7	20.3	-62.2	10.9
2025-01-26 23:59:17.075297	176.7	20.1	-62.2	11.1
2025-01-26 23:59:18.190455	176.8	20.0	-62.3	11.2
2025-01-26 23:59:19.305315	176.9	19.8	-62.2	11.1
2025-01-26 23:59:20.421173	177.0	19.6	-62.1	11.5
2025-01-26 23:59:21.536033	177.1	19.5	-62.0	11.7
2025-01-26 23:59:22.650893	177.2	19.3	-62.2	11.5
2025-01-26 23:59:23.765753	177.3	19.2	-62.2	10.9
2025-01-26 23:59:24.881616	177.4	19.0	-62.3	11.3
2025-01-26 23:59:25.997792	177.5	18.9	-62.2	11.4
2025-01-26 23:59:27.112651	177.6	18.7	-62.3	11.1
2025-01-26 23:59:28.227562	177.6	18.6	-62.2	11.3
2025-01-26 23:59:29.342422	177.7	18.4	-62.4	11.2
2025-01-26 23:59:30.457274	177.8	18.3	-62.4	10.6
2025-01-26 23:59:31.572134	177.9	18.1	-62.6	10.4
2025-01-26 23:59:32.686994	178.0	18.0	-62.7	10.7
2025-01-26 23:59:33.801854	178.1	17.9	-62.7	10.4
2025-01-26 23:59:34.916714	178.1	17.7	-62.8	10.3
2025-01-26 23:59:36.032570	178.2	17.6	-62.6	10.7
2025-01-26 23:59:37.148425	178.3	17.4	-62.3	10.8
2025-01-26 23:59:38.264336	178.4	17.3	-62.7	10.4
2025-01-26 23:59:39.379196	178.5	17.2	-62.8	10.2
2025-01-26 23:59:40.495989	178.5	17.0	-62.5	10.9
2025-01-26 23:59:41.611074	178.6	16.9	-62.2	10.8
2025-01-26 23:59:42.725934	178.7	16.7	-62.3	11.2
2025-01-26 23:59:43.840794	178.8	16.6	-62.5	10.5
2025-01-26 23:59:44.956655	178.8	16.5	-62.3	11.0
2025-01-26 23:59:46.071515	178.9	16.3	-62.3	11.4
2025-01-26 23:59:47.186537	179.0	16.2	-62.2	11.6
2025-01-26 23:59:48.301394	179.1	16.1	-62.1	10.9
2025-01-26 23:59:49.416254	179.1	15.9	-62.2	11.3
2025-01-26 23:59:50.532117	179.2	15.8	-62.3	11.4
2025-01-26 23:59:51.647979	179.3	15.7	-62.2	11.1
2025-01-26 23:59:52.762831	179.3	15.5	-62.0	11.4
2025-01-26 23:59:53.878693	179.4	15.4	-62.0	11.8
2025-01-26 23:59:54.994556	179.5	15.3	-63.9	8.4
2025-01-26 23:59:56.110421	179.6	15.2	-69.5	0.0
2025-01-26 23:59:57.229292	179.6	15.0	-69.8	0.0
#Closed at: 2025-01-26 23:52:10.731670