passes_logs/2025/01/14/planumMaritime01/planumMaritime01__20250114_091655_NOAA_19_rec.log

#Pass ID: 20250114_091655_NOAA 19
#Satellite: NOAA 19
#Configuration: NOAA 19
#Start time: 2025-01-14 09:17:00.572054

#LorettStation: 1.0.0 05.05.2024
#Station: planumMaritime01
#Location: 37.49445 lon 55.92918 lat
#TLE: 1 33591U 09005A   25014.15453959  .00000276  00000+0  17122-3 0  9998
#TLE: 2 33591  99.0198  77.9105 0014501  59.8090 300.4516 14.13258688821422

#Time	Az	El	Level	SNR
2025-01-14 09:17:06.788032	3.1	10.5	-79.3	0.0
2025-01-14 09:17:09.039226	2.9	10.6	-79.0	0.0
2025-01-14 09:17:11.290399	2.7	10.8	-79.0	0.0
2025-01-14 09:17:13.540958	2.5	11.0	-78.8	0.0
2025-01-14 09:17:15.792952	2.3	11.1	-79.5	0.0
2025-01-14 09:17:18.042306	2.0	11.3	-79.8	0.0
2025-01-14 09:17:20.294359	1.8	11.5	-79.7	0.0
2025-01-14 09:17:22.544351	1.6	11.7	-79.7	0.0
2025-01-14 09:17:24.799499	1.4	11.8	-79.8	0.0
2025-01-14 09:17:27.050600	1.1	12.0	-79.8	0.0
2025-01-14 09:17:29.302358	0.9	12.2	-79.9	0.0
2025-01-14 09:17:31.555703	0.6	12.4	-79.8	0.0
2025-01-14 09:17:33.808112	0.4	12.5	-79.9	0.0
2025-01-14 09:17:36.059708	0.2	12.7	-79.8	0.0
2025-01-14 09:17:38.309783	359.9	12.9	-79.6	0.0
2025-01-14 09:17:40.562741	359.6	13.1	-79.7	0.0
2025-01-14 09:17:42.817696	359.4	13.3	-79.8	0.0
2025-01-14 09:17:45.068365	359.1	13.4	-80.0	0.0
2025-01-14 09:17:47.318580	358.9	13.6	-79.9	0.0
2025-01-14 09:17:49.570780	358.6	13.8	-79.6	0.0
2025-01-14 09:17:51.823978	358.3	14.0	-79.8	0.0
2025-01-14 09:17:54.074127	358.1	14.2	-80.1	0.0
2025-01-14 09:17:56.325056	357.8	14.3	-79.6	0.0
2025-01-14 09:17:58.579468	357.5	14.5	-79.7	0.0
2025-01-14 09:18:00.832090	357.2	14.7	-79.6	0.0
2025-01-14 09:18:03.082953	356.9	14.9	-79.9	0.0
2025-01-14 09:18:05.334859	356.6	15.1	-80.3	0.0
2025-01-14 09:18:07.588607	356.4	15.3	-79.9	0.0
2025-01-14 09:18:09.840472	356.1	15.5	-80.1	0.0
2025-01-14 09:18:12.091193	355.8	15.7	-80.1	0.0
2025-01-14 09:18:14.341773	355.4	15.8	-80.1	0.0
2025-01-14 09:18:16.591662	355.1	16.0	-80.0	0.0
2025-01-14 09:18:18.839967	354.8	16.2	-80.0	0.0
2025-01-14 09:18:21.093718	354.5	16.4	-80.2	0.0
2025-01-14 09:18:23.346688	354.2	16.6	-80.1	0.0
2025-01-14 09:18:25.597761	353.9	16.8	-80.1	0.0
2025-01-14 09:18:27.846844	353.5	17.0	-80.3	0.0
2025-01-14 09:18:30.099410	353.2	17.2	-79.8	0.0
2025-01-14 09:18:32.351992	352.9	17.4	-79.9	0.0
2025-01-14 09:18:34.601783	352.5	17.6	-79.8	0.0
2025-01-14 09:18:36.855285	352.2	17.8	-79.8	0.0
2025-01-14 09:18:39.107508	351.8	18.0	-80.3	0.0
2025-01-14 09:18:41.360722	351.5	18.2	-80.2	0.0
2025-01-14 09:18:43.613318	351.1	18.4	-80.1	0.0
2025-01-14 09:18:45.868682	350.7	18.6	-80.2	0.0
2025-01-14 09:18:48.122214	350.4	18.7	-80.3	0.0
2025-01-14 09:18:50.375059	350.0	18.9	-80.2	0.0
2025-01-14 09:18:52.626783	349.6	19.1	-80.2	0.0
2025-01-14 09:18:54.877856	349.2	19.3	-80.5	0.0
2025-01-14 09:18:57.132726	348.8	19.5	-80.4	0.0
2025-01-14 09:18:59.385967	348.4	19.7	-80.2	0.0
2025-01-14 09:19:01.641749	348.0	19.9	-80.1	0.0
2025-01-14 09:19:03.893833	347.6	20.1	-80.8	0.0
2025-01-14 09:19:06.145450	347.2	20.3	-80.6	0.0
2025-01-14 09:19:08.394915	346.8	20.5	-80.4	0.0
2025-01-14 09:19:10.645083	346.4	20.7	-80.3	0.0
2025-01-14 09:19:12.896686	345.9	20.9	-80.2	0.0
2025-01-14 09:19:15.151736	345.5	21.1	-80.2	0.0
2025-01-14 09:19:17.402557	345.1	21.3	-79.9	0.0
2025-01-14 09:19:19.654316	344.6	21.5	-80.1	0.0
2025-01-14 09:19:21.907127	344.2	21.7	-80.3	0.0
2025-01-14 09:19:24.161059	343.7	21.9	-80.3	0.0
2025-01-14 09:19:26.416646	343.2	22.1	-80.4	0.0
2025-01-14 09:19:28.666830	342.8	22.3	-80.4	0.0
2025-01-14 09:19:30.920053	342.3	22.5	-80.4	0.0
2025-01-14 09:19:33.172993	341.8	22.7	-80.3	0.0
2025-01-14 09:19:35.426056	341.3	22.9	-80.5	0.0
2025-01-14 09:19:37.678793	340.8	23.1	-80.6	0.0
2025-01-14 09:19:39.932765	340.3	23.3	-80.1	0.0
2025-01-14 09:19:42.184610	339.8	23.4	-80.0	0.0
2025-01-14 09:19:44.436846	339.3	23.6	-80.0	0.0
2025-01-14 09:19:46.691943	338.8	23.8	-80.2	0.0
2025-01-14 09:19:48.941747	338.3	24.0	-80.0	0.0
2025-01-14 09:19:51.195974	337.7	24.2	-80.6	0.0
2025-01-14 09:19:53.448497	337.2	24.4	-80.5	0.0
2025-01-14 09:19:55.701059	336.7	24.6	-80.5	0.0
2025-01-14 09:19:57.953013	336.1	24.7	-80.9	0.0
2025-01-14 09:20:00.205731	335.6	24.9	-80.0	0.0
2025-01-14 09:20:02.454643	335.0	25.1	-80.2	0.0
2025-01-14 09:20:04.705697	334.4	25.3	-80.2	0.0
2025-01-14 09:20:06.959619	333.9	25.4	-80.7	0.0
2025-01-14 09:20:09.212391	333.3	25.6	-80.3	0.0
2025-01-14 09:20:11.463596	332.7	25.8	-79.9	0.0
2025-01-14 09:20:13.714286	332.1	26.0	-79.9	0.0
2025-01-14 09:20:15.965798	331.5	26.1	-80.0	0.0
2025-01-14 09:20:18.215428	330.9	26.3	-80.2	0.0
2025-01-14 09:20:20.467675	330.3	26.4	-80.1	0.0
2025-01-14 09:20:22.721503	329.7	26.6	-79.9	0.0
2025-01-14 09:20:24.972372	329.0	26.7	-80.2	0.0
2025-01-14 09:20:27.224650	328.4	26.9	-80.1	0.0
2025-01-14 09:20:29.478918	327.8	27.0	-79.9	0.0
2025-01-14 09:20:31.736159	327.1	27.2	-80.6	0.0
2025-01-14 09:20:33.989721	326.5	27.3	-80.4	0.0
2025-01-14 09:20:36.241123	325.8	27.5	-80.0	0.0
2025-01-14 09:20:38.493430	325.2	27.6	-80.4	0.0
2025-01-14 09:20:40.747281	324.5	27.7	-80.3	0.0
2025-01-14 09:20:42.998778	323.8	27.9	-80.1	0.0
2025-01-14 09:20:45.248636	323.1	28.0	-80.5	0.0
2025-01-14 09:20:47.498612	322.5	28.1	-80.2	0.0
2025-01-14 09:20:49.751402	321.8	28.2	-80.2	0.0
2025-01-14 09:20:52.002376	321.1	28.3	-80.3	0.0
2025-01-14 09:20:54.254261	320.4	28.4	-80.4	0.0
2025-01-14 09:20:56.506015	319.7	28.5	-80.7	0.0
2025-01-14 09:20:58.758653	319.0	28.6	-80.3	0.0
2025-01-14 09:21:01.010468	318.3	28.7	-80.3	0.0
2025-01-14 09:21:03.264957	317.6	28.8	-80.4	0.0
2025-01-14 09:21:05.519254	316.9	28.9	-80.9	0.0
2025-01-14 09:21:07.772629	316.1	29.0	-80.5	0.0
2025-01-14 09:21:10.023053	315.4	29.0	-80.6	0.0
2025-01-14 09:21:12.274291	314.7	29.1	-80.2	0.0
2025-01-14 09:21:14.525854	314.0	29.2	-80.8	0.0
2025-01-14 09:21:16.779750	313.2	29.2	-80.5	0.0
2025-01-14 09:21:19.034612	312.5	29.3	-80.4	0.0
2025-01-14 09:21:21.291495	311.7	29.3	-80.4	0.0
2025-01-14 09:21:23.545896	311.0	29.4	-80.9	0.0
2025-01-14 09:21:25.800882	310.3	29.4	-80.4	0.0
2025-01-14 09:21:28.051180	309.5	29.5	-80.9	0.0
2025-01-14 09:21:30.303218	308.8	29.5	-80.1	0.0
2025-01-14 09:21:32.555655	308.0	29.5	-80.3	0.0
2025-01-14 09:21:34.808486	307.3	29.5	-80.7	0.0
2025-01-14 09:21:37.064387	306.5	29.5	-80.7	0.0
2025-01-14 09:21:39.317382	305.8	29.5	-80.9	0.0
2025-01-14 09:21:41.568809	305.0	29.5	-80.9	0.0
2025-01-14 09:21:43.823232	304.3	29.5	-80.9	0.0
2025-01-14 09:21:46.073491	303.5	29.5	-80.6	0.0
2025-01-14 09:21:48.326189	302.8	29.5	-80.6	0.0
2025-01-14 09:21:50.578591	302.1	29.5	-80.6	0.0
2025-01-14 09:21:52.833137	301.3	29.5	-80.9	0.0
2025-01-14 09:21:55.083431	300.6	29.4	-81.0	0.0
2025-01-14 09:21:57.336197	299.8	29.4	-80.1	0.0
2025-01-14 09:21:59.590353	299.1	29.3	-80.8	0.0
2025-01-14 09:22:01.843923	298.3	29.3	-80.6	0.0
2025-01-14 09:22:04.094886	297.6	29.2	-80.7	0.0
2025-01-14 09:22:06.349405	296.9	29.2	-80.5	0.0
2025-01-14 09:22:08.605692	296.2	29.1	-80.8	0.0
2025-01-14 09:22:10.858442	295.4	29.0	-80.7	0.0
2025-01-14 09:22:13.110166	294.7	29.0	-80.8	0.0
2025-01-14 09:22:15.360617	294.0	28.9	-81.0	0.0
2025-01-14 09:22:17.612575	293.3	28.8	-80.8	0.0
2025-01-14 09:22:19.865674	292.6	28.7	-81.0	0.0
2025-01-14 09:22:22.120878	291.8	28.6	-80.7	0.0
2025-01-14 09:22:24.374578	291.1	28.5	-80.9	0.0
2025-01-14 09:22:26.627125	290.4	28.4	-80.8	0.0
2025-01-14 09:22:28.878747	289.7	28.3	-81.0	0.0
2025-01-14 09:22:31.130309	289.1	28.2	-80.8	0.0
2025-01-14 09:22:33.384518	288.4	28.1	-81.1	0.0
2025-01-14 09:22:35.638167	287.7	28.0	-81.0	0.0
2025-01-14 09:22:37.889840	287.0	27.8	-81.0	0.0
2025-01-14 09:22:40.144811	286.3	27.7	-80.7	0.0
2025-01-14 09:22:42.398448	285.7	27.6	-80.5	0.0
2025-01-14 09:22:44.653444	285.0	27.5	-80.7	0.0
2025-01-14 09:22:46.905314	284.4	27.3	-80.2	0.0
2025-01-14 09:22:49.161136	283.7	27.2	-81.0	0.0
2025-01-14 09:22:51.412917	283.1	27.0	-81.0	0.0
2025-01-14 09:22:53.669317	282.4	26.9	-80.6	0.0
2025-01-14 09:22:55.923312	281.8	26.7	-80.5	0.0
2025-01-14 09:22:58.177662	281.2	26.6	-80.8	0.0
2025-01-14 09:23:00.433363	280.6	26.4	-80.5	0.0
2025-01-14 09:23:02.686699	279.9	26.3	-80.9	0.0
2025-01-14 09:23:04.941744	279.3	26.1	-80.8	0.0
2025-01-14 09:23:07.193904	278.7	25.9	-81.1	0.0
2025-01-14 09:23:09.445351	278.1	25.8	-80.8	0.0
2025-01-14 09:23:11.699948	277.6	25.6	-80.9	0.0
2025-01-14 09:23:13.953721	277.0	25.4	-80.9	0.0
2025-01-14 09:23:16.205899	276.4	25.3	-81.0	0.0
2025-01-14 09:23:18.458481	275.8	25.1	-80.9	0.0
2025-01-14 09:23:20.713169	275.3	24.9	-81.0	0.0
2025-01-14 09:23:22.970238	274.7	24.7	-80.8	0.0
2025-01-14 09:23:25.227110	274.2	24.5	-80.9	0.0
2025-01-14 09:23:27.480878	273.6	24.4	-80.8	0.0
2025-01-14 09:23:29.734329	273.1	24.2	-80.9	0.0
2025-01-14 09:23:31.985732	272.5	24.0	-81.1	0.0
2025-01-14 09:23:34.238765	272.0	23.8	-81.0	0.0
2025-01-14 09:23:36.490787	271.5	23.6	-80.9	0.0
2025-01-14 09:23:38.745615	271.0	23.4	-81.2	0.0
2025-01-14 09:23:40.998819	270.5	23.2	-80.7	0.0
2025-01-14 09:23:43.250441	270.0	23.0	-81.3	0.0
2025-01-14 09:23:45.504998	269.5	22.9	-81.2	0.0
2025-01-14 09:23:47.757032	269.0	22.7	-81.2	0.0
2025-01-14 09:23:50.007862	268.5	22.5	-80.9	0.0
2025-01-14 09:23:52.266286	268.1	22.3	-81.0	0.0
2025-01-14 09:23:54.517779	267.6	22.1	-80.9	0.0
2025-01-14 09:23:56.771935	267.1	21.9	-81.1	0.0
2025-01-14 09:23:59.026217	266.7	21.7	-80.8	0.0
2025-01-14 09:24:01.278091	266.2	21.5	-80.9	0.0
2025-01-14 09:24:03.530759	265.8	21.3	-80.8	0.0
2025-01-14 09:24:05.782576	265.3	21.1	-80.7	0.0
2025-01-14 09:24:08.037468	264.9	20.9	-81.2	0.0
2025-01-14 09:24:10.289247	264.5	20.7	-80.9	0.0
2025-01-14 09:24:12.542148	264.0	20.5	-80.8	0.0
2025-01-14 09:24:14.796477	263.6	20.3	-81.2	0.0
2025-01-14 09:24:17.047090	263.2	20.1	-80.9	0.0
2025-01-14 09:24:19.300473	262.8	19.9	-81.0	0.0
2025-01-14 09:24:21.553955	262.4	19.7	-80.5	0.0
2025-01-14 09:24:23.804894	262.0	19.5	-80.7	0.0
2025-01-14 09:24:26.059282	261.6	19.3	-80.7	0.0
2025-01-14 09:24:28.311616	261.2	19.1	-80.9	0.0
2025-01-14 09:24:30.563958	260.8	18.9	-80.9	0.0
2025-01-14 09:24:32.816486	260.5	18.7	-80.6	0.0
2025-01-14 09:24:35.067814	260.1	18.5	-80.7	0.0
2025-01-14 09:24:37.321648	259.7	18.3	-80.5	0.0
2025-01-14 09:24:39.575449	259.4	18.1	-80.6	0.0
2025-01-14 09:24:41.824570	259.0	17.9	-80.7	0.0
2025-01-14 09:24:44.077386	258.6	17.8	-80.5	0.0
2025-01-14 09:24:46.328680	258.3	17.6	-81.0	0.0
2025-01-14 09:24:48.584724	257.9	17.4	-80.0	0.0
2025-01-14 09:24:50.840947	257.6	17.2	-80.7	0.0
2025-01-14 09:24:53.095068	257.3	17.0	-81.2	0.0
2025-01-14 09:24:55.347060	256.9	16.8	-81.1	0.0
2025-01-14 09:24:57.599838	256.6	16.6	-81.1	0.0
2025-01-14 09:24:59.853192	256.3	16.4	-81.0	0.0
2025-01-14 09:25:02.104624	256.0	16.2	-80.9	0.0
2025-01-14 09:25:04.358694	255.7	16.0	-81.1	0.0
2025-01-14 09:25:06.608436	255.3	15.8	-81.2	0.0
2025-01-14 09:25:08.864126	255.0	15.6	-80.7	0.0
2025-01-14 09:25:11.120694	254.7	15.4	-81.0	0.0
2025-01-14 09:25:13.373339	254.4	15.3	-80.7	0.0
2025-01-14 09:25:15.624322	254.1	15.1	-81.0	0.0
2025-01-14 09:25:17.877840	253.9	14.9	-81.0	0.0
2025-01-14 09:25:20.130219	253.6	14.7	-81.0	0.0
2025-01-14 09:25:22.384373	253.3	14.5	-81.1	0.0
2025-01-14 09:25:24.639363	253.0	14.3	-81.0	0.0
2025-01-14 09:25:26.892411	252.7	14.1	-81.0	0.0
2025-01-14 09:25:29.145062	252.5	14.0	-81.2	0.0
2025-01-14 09:25:31.398298	252.2	13.8	-81.1	0.0
2025-01-14 09:25:33.654067	251.9	13.6	-80.8	0.0
2025-01-14 09:25:35.911318	251.6	13.4	-80.9	0.0
2025-01-14 09:25:38.169419	251.4	13.2	-80.9	0.0
2025-01-14 09:25:40.425476	251.1	13.1	-80.8	0.0
2025-01-14 09:25:42.678488	250.9	12.9	-80.7	0.0
2025-01-14 09:25:44.933038	250.6	12.7	-80.8	0.0
2025-01-14 09:25:47.186217	250.4	12.5	-80.8	0.0
2025-01-14 09:25:49.438586	250.1	12.3	-81.0	0.0
2025-01-14 09:25:51.691625	249.9	12.2	-81.0	0.0
2025-01-14 09:25:53.943389	249.7	12.0	-81.1	0.0
2025-01-14 09:25:56.196441	249.4	11.8	-81.2	0.0
2025-01-14 09:25:58.448892	249.2	11.6	-81.0	0.0
2025-01-14 09:26:00.703800	249.0	11.5	-81.2	0.0
2025-01-14 09:26:02.956825	248.7	11.3	-81.2	0.0
2025-01-14 09:26:05.208964	248.5	11.1	-81.1	0.0
2025-01-14 09:26:07.462754	248.3	11.0	-81.4	0.0
2025-01-14 09:26:09.716006	248.1	10.8	-81.3	0.0
2025-01-14 09:26:11.967990	247.8	10.6	-81.1	0.0
2025-01-14 09:26:14.221726	247.6	10.4	-81.2	0.0
2025-01-14 09:26:16.476860	247.4	10.3	-81.3	0.0
2025-01-14 09:26:18.730457	247.2	10.1	-81.3	0.0
#Closed at: 2025-01-14 09:16:55.576794