passes_logs/2025/01/14/planumMaritime01/planumMaritime01__20250114_211907_NOAA_18_rec.log

#Pass ID: 20250114_211907_NOAA 18
#Satellite: NOAA 18
#Configuration: NOAA 18
#Start time: 2025-01-14 21:19:12.368157

#LorettStation: 1.0.0 05.05.2024
#Station: planumMaritime01
#Location: 37.49445 lon 55.92918 lat
#TLE: 1 28654U 05018A   25014.17177243  .00000313  00000+0  18955-3 0  9990
#TLE: 2 28654  98.8569  95.2344 0014326 181.4762 178.6370 14.13485757 13061

#Time	Az	El	Level	SNR
2025-01-14 21:19:14.523268	242.5	10.1	-80.3	0.0
2025-01-14 21:19:15.645743	242.7	10.1	-80.5	0.0
2025-01-14 21:19:16.767886	242.8	10.2	-80.4	0.0
2025-01-14 21:19:17.890646	243.0	10.2	-80.4	0.0
2025-01-14 21:19:19.012784	243.2	10.3	-80.1	0.0
2025-01-14 21:19:20.135281	243.3	10.3	-80.5	0.0
2025-01-14 21:19:21.260288	243.5	10.4	-80.6	0.0
2025-01-14 21:19:22.382557	243.7	10.4	-80.8	0.0
2025-01-14 21:19:23.507217	243.9	10.5	-80.8	0.0
2025-01-14 21:19:24.631407	244.0	10.5	-80.8	0.0
2025-01-14 21:19:25.758225	244.2	10.6	-81.0	0.0
2025-01-14 21:19:26.882607	244.4	10.6	-80.9	0.0
2025-01-14 21:19:28.007294	244.6	10.7	-81.0	0.0
2025-01-14 21:19:29.130022	244.7	10.7	-80.9	0.0
2025-01-14 21:19:30.253926	244.9	10.8	-80.5	0.0
2025-01-14 21:19:31.377246	245.1	10.8	-80.7	0.0
2025-01-14 21:19:32.500442	245.3	10.9	-80.8	0.0
2025-01-14 21:19:33.623566	245.4	10.9	-81.1	0.0
2025-01-14 21:19:34.747236	245.6	11.0	-81.0	0.0
2025-01-14 21:19:35.869964	245.8	11.0	-80.9	0.0
2025-01-14 21:19:36.992463	246.0	11.1	-80.9	0.0
2025-01-14 21:19:38.116193	246.2	11.1	-80.8	0.0
2025-01-14 21:19:39.237462	246.3	11.2	-80.6	0.0
2025-01-14 21:19:40.361214	246.5	11.2	-80.9	0.0
2025-01-14 21:19:41.483916	246.7	11.3	-80.6	0.0
2025-01-14 21:19:42.607466	246.9	11.3	-80.6	0.0
2025-01-14 21:19:43.730338	247.1	11.4	-80.8	0.0
2025-01-14 21:19:44.852663	247.2	11.4	-81.1	0.0
2025-01-14 21:19:45.975260	247.4	11.5	-81.0	0.0
2025-01-14 21:19:47.099803	247.6	11.5	-80.9	0.0
2025-01-14 21:19:48.225236	247.8	11.6	-80.8	0.0
2025-01-14 21:19:49.349309	248.0	11.6	-80.5	0.0
2025-01-14 21:19:50.472658	248.2	11.6	-80.7	0.0
2025-01-14 21:19:51.594617	248.4	11.7	-80.9	0.0
2025-01-14 21:19:52.716868	248.5	11.7	-80.9	0.0
2025-01-14 21:19:53.840676	248.7	11.8	-80.8	0.0
2025-01-14 21:19:54.965784	248.9	11.8	-81.1	0.0
2025-01-14 21:19:56.091396	249.1	11.9	-81.0	0.0
2025-01-14 21:19:57.214911	249.3	11.9	-81.2	0.0
2025-01-14 21:19:58.337663	249.5	12.0	-81.1	0.0
2025-01-14 21:19:59.461446	249.7	12.0	-80.9	0.0
2025-01-14 21:20:00.583804	249.9	12.0	-80.6	0.0
2025-01-14 21:20:01.709261	250.1	12.1	-81.2	0.0
2025-01-14 21:20:02.832315	250.3	12.1	-81.0	0.0
2025-01-14 21:20:03.957134	250.5	12.2	-81.1	0.0
2025-01-14 21:20:05.081412	250.6	12.2	-80.4	0.0
2025-01-14 21:20:06.205129	250.8	12.3	-80.9	0.0
2025-01-14 21:20:07.329627	251.0	12.3	-80.8	0.0
2025-01-14 21:20:08.452080	251.2	12.3	-81.1	0.0
2025-01-14 21:20:09.574614	251.4	12.4	-80.9	0.0
2025-01-14 21:20:10.699810	251.6	12.4	-81.1	0.0
2025-01-14 21:20:11.823400	251.8	12.5	-80.8	0.0
2025-01-14 21:20:12.948964	252.0	12.5	-81.2	0.0
2025-01-14 21:20:14.071821	252.2	12.6	-81.0	0.0
2025-01-14 21:20:15.193479	252.4	12.6	-81.0	0.0
2025-01-14 21:20:16.316589	252.6	12.6	-81.1	0.0
2025-01-14 21:20:17.441848	252.8	12.7	-81.2	0.0
2025-01-14 21:20:18.569144	253.0	12.7	-81.0	0.0
2025-01-14 21:20:19.690917	253.2	12.8	-81.3	0.0
2025-01-14 21:20:20.813467	253.4	12.8	-81.1	0.0
2025-01-14 21:20:21.937256	253.6	12.8	-81.2	0.0
2025-01-14 21:20:23.057816	253.8	12.9	-81.2	0.0
2025-01-14 21:20:24.180867	254.0	12.9	-81.3	0.0
2025-01-14 21:20:25.303988	254.2	13.0	-80.9	0.0
2025-01-14 21:20:26.428709	254.4	13.0	-81.3	0.0
2025-01-14 21:20:27.552468	254.6	13.0	-81.2	0.0
2025-01-14 21:20:28.674559	254.8	13.1	-81.3	0.0
2025-01-14 21:20:29.797421	255.0	13.1	-81.0	0.0
2025-01-14 21:20:30.921478	255.2	13.1	-81.2	0.0
2025-01-14 21:20:32.044403	255.5	13.2	-81.2	0.0
2025-01-14 21:20:33.168329	255.7	13.2	-81.1	0.0
2025-01-14 21:20:34.290524	255.9	13.2	-81.1	0.0
2025-01-14 21:20:35.411213	256.1	13.3	-81.1	0.0
2025-01-14 21:20:36.536477	256.3	13.3	-81.0	0.0
2025-01-14 21:20:37.657796	256.5	13.4	-81.2	0.0
2025-01-14 21:20:38.780594	256.7	13.4	-81.4	0.0
2025-01-14 21:20:39.904397	256.9	13.4	-81.5	0.0
2025-01-14 21:20:41.028590	257.1	13.5	-81.3	0.0
2025-01-14 21:20:42.153581	257.3	13.5	-81.4	0.0
2025-01-14 21:20:43.277852	257.5	13.5	-81.3	0.0
2025-01-14 21:20:44.400979	257.8	13.6	-81.4	0.0
2025-01-14 21:20:45.525211	258.0	13.6	-81.5	0.0
2025-01-14 21:20:46.647311	258.2	13.6	-81.4	0.0
2025-01-14 21:20:47.770016	258.4	13.7	-81.3	0.0
2025-01-14 21:20:48.893617	258.6	13.7	-81.4	0.0
2025-01-14 21:20:50.014664	258.8	13.7	-81.2	0.0
2025-01-14 21:20:51.139432	259.0	13.8	-81.0	0.0
2025-01-14 21:20:52.261916	259.2	13.8	-81.4	0.0
2025-01-14 21:20:53.386501	259.5	13.8	-81.2	0.0
2025-01-14 21:20:54.510782	259.7	13.9	-81.2	0.0
2025-01-14 21:20:55.635267	259.9	13.9	-81.4	0.0
2025-01-14 21:20:56.760985	260.1	13.9	-81.2	0.0
2025-01-14 21:20:57.883799	260.3	13.9	-81.1	0.0
2025-01-14 21:20:59.007436	260.5	14.0	-81.0	0.0
2025-01-14 21:21:00.130654	260.8	14.0	-81.5	0.0
2025-01-14 21:21:01.256447	261.0	14.0	-81.1	0.0
2025-01-14 21:21:02.379376	261.2	14.1	-81.2	0.0
2025-01-14 21:21:03.502728	261.4	14.1	-80.9	0.0
2025-01-14 21:21:04.628010	261.6	14.1	-81.2	0.0
2025-01-14 21:21:05.753214	261.9	14.1	-81.4	0.0
2025-01-14 21:21:06.877505	262.1	14.2	-81.4	0.0
2025-01-14 21:21:08.002485	262.3	14.2	-81.4	0.0
2025-01-14 21:21:09.125762	262.5	14.2	-81.4	0.0
2025-01-14 21:21:10.249917	262.7	14.2	-81.4	0.0
2025-01-14 21:21:11.377154	263.0	14.3	-81.4	0.0
2025-01-14 21:21:12.497949	263.2	14.3	-80.8	0.0
2025-01-14 21:21:13.620888	263.4	14.3	-81.4	0.0
2025-01-14 21:21:14.744777	263.6	14.3	-81.5	0.0
2025-01-14 21:21:15.868008	263.8	14.4	-81.5	0.0
2025-01-14 21:21:16.992395	264.1	14.4	-81.5	0.0
2025-01-14 21:21:18.116119	264.3	14.4	-80.9	0.0
2025-01-14 21:21:19.238473	264.5	14.4	-81.4	0.0
2025-01-14 21:21:20.363268	264.7	14.5	-81.4	0.0
2025-01-14 21:21:21.486539	265.0	14.5	-81.3	0.0
2025-01-14 21:21:22.609538	265.2	14.5	-81.3	0.0
2025-01-14 21:21:23.732419	265.4	14.5	-81.2	0.0
2025-01-14 21:21:24.855706	265.6	14.5	-81.4	0.0
2025-01-14 21:21:25.978992	265.9	14.6	-81.6	0.0
2025-01-14 21:21:27.101399	266.1	14.6	-81.3	0.0
2025-01-14 21:21:28.223306	266.3	14.6	-81.4	0.0
2025-01-14 21:21:29.346509	266.5	14.6	-81.2	0.0
2025-01-14 21:21:30.468211	266.8	14.6	-81.6	0.0
2025-01-14 21:21:31.591170	267.0	14.7	-81.5	0.0
2025-01-14 21:21:32.714701	267.2	14.7	-81.3	0.0
2025-01-14 21:21:33.839522	267.4	14.7	-81.1	0.0
2025-01-14 21:21:34.963148	267.7	14.7	-81.1	0.0
2025-01-14 21:21:36.087576	267.9	14.7	-81.0	0.0
2025-01-14 21:21:37.210078	268.1	14.7	-80.9	0.0
2025-01-14 21:21:38.333744	268.4	14.8	-81.6	0.0
2025-01-14 21:21:39.457382	268.6	14.8	-81.6	0.0
2025-01-14 21:21:40.580244	268.8	14.8	-81.4	0.0
2025-01-14 21:21:41.702699	269.0	14.8	-81.3	0.0
2025-01-14 21:21:42.826497	269.3	14.8	-81.5	0.0
2025-01-14 21:21:43.948580	269.5	14.8	-81.4	0.0
2025-01-14 21:21:45.073011	269.7	14.8	-81.6	0.0
2025-01-14 21:21:46.196990	270.0	14.9	-81.4	0.0
2025-01-14 21:21:47.321003	270.2	14.9	-81.6	0.0
2025-01-14 21:21:48.445508	270.4	14.9	-81.6	0.0
2025-01-14 21:21:49.568219	270.7	14.9	-81.3	0.0
2025-01-14 21:21:50.692786	270.9	14.9	-81.4	0.0
2025-01-14 21:21:51.817646	271.1	14.9	-81.6	0.0
2025-01-14 21:21:52.940464	271.4	14.9	-81.5	0.0
2025-01-14 21:21:54.062599	271.6	14.9	-81.6	0.0
2025-01-14 21:21:55.188795	271.8	14.9	-81.6	0.0
2025-01-14 21:21:56.312313	272.0	15.0	-81.4	0.0
2025-01-14 21:21:57.437986	272.3	15.0	-81.1	0.0
2025-01-14 21:21:58.562515	272.5	15.0	-81.6	0.0
2025-01-14 21:21:59.685586	272.7	15.0	-81.5	0.0
2025-01-14 21:22:00.810773	273.0	15.0	-81.6	0.0
2025-01-14 21:22:01.932651	273.2	15.0	-81.5	0.0
2025-01-14 21:22:03.056585	273.4	15.0	-81.5	0.0
2025-01-14 21:22:04.179608	273.7	15.0	-81.6	0.0
2025-01-14 21:22:05.303254	273.9	15.0	-81.7	0.0
2025-01-14 21:22:06.429365	274.1	15.0	-81.6	0.0
2025-01-14 21:22:07.554365	274.4	15.0	-81.2	0.0
2025-01-14 21:22:08.678159	274.6	15.0	-81.4	0.0
2025-01-14 21:22:09.803795	274.8	15.0	-81.4	0.0
2025-01-14 21:22:10.928264	275.1	15.0	-81.7	0.0
2025-01-14 21:22:12.052486	275.3	15.0	-80.8	0.0
2025-01-14 21:22:13.174229	275.5	15.0	-81.0	0.0
2025-01-14 21:22:14.298229	275.8	15.0	-80.9	0.0
2025-01-14 21:22:15.424479	276.0	15.0	-81.0	0.0
2025-01-14 21:22:16.546149	276.2	15.0	-81.4	0.0
2025-01-14 21:22:17.669567	276.5	15.0	-81.4	0.0
2025-01-14 21:22:18.793579	276.7	15.0	-81.3	0.0
2025-01-14 21:22:19.916196	276.9	15.0	-81.3	0.0
2025-01-14 21:22:21.040755	277.2	15.0	-81.4	0.0
2025-01-14 21:22:22.164982	277.4	15.0	-81.4	0.0
2025-01-14 21:22:23.287885	277.6	15.0	-81.4	0.0
2025-01-14 21:22:24.412087	277.9	15.0	-81.2	0.0
2025-01-14 21:22:25.533807	278.1	15.0	-81.3	0.0
2025-01-14 21:22:26.656770	278.3	15.0	-81.5	0.0
2025-01-14 21:22:27.777524	278.6	15.0	-81.5	0.0
2025-01-14 21:22:28.903431	278.8	15.0	-81.8	0.0
2025-01-14 21:22:30.027258	279.0	15.0	-81.4	0.0
2025-01-14 21:22:31.150992	279.3	15.0	-81.4	0.0
2025-01-14 21:22:32.274653	279.5	15.0	-81.6	0.0
2025-01-14 21:22:33.399044	279.7	15.0	-81.2	0.0
2025-01-14 21:22:34.521597	279.9	15.0	-81.2	0.0
2025-01-14 21:22:35.644786	280.2	15.0	-81.5	0.0
2025-01-14 21:22:36.770219	280.4	15.0	-81.4	0.0
2025-01-14 21:22:37.892604	280.6	15.0	-81.3	0.0
2025-01-14 21:22:39.016666	280.9	15.0	-81.4	0.0
2025-01-14 21:22:40.143256	281.1	15.0	-81.3	0.0
2025-01-14 21:22:41.265100	281.3	15.0	-81.2	0.0
2025-01-14 21:22:42.390376	281.6	14.9	-81.4	0.0
2025-01-14 21:22:43.512807	281.8	14.9	-81.3	0.0
2025-01-14 21:22:44.636441	282.0	14.9	-81.7	0.0
2025-01-14 21:22:45.759438	282.3	14.9	-81.0	0.0
2025-01-14 21:22:46.880488	282.5	14.9	-81.2	0.0
2025-01-14 21:22:48.003822	282.7	14.9	-81.1	0.0
2025-01-14 21:22:49.127515	283.0	14.9	-80.9	0.0
2025-01-14 21:22:50.250361	283.2	14.9	-81.4	0.0
2025-01-14 21:22:51.373562	283.4	14.9	-81.2	0.0
2025-01-14 21:22:52.496465	283.6	14.8	-81.2	0.0
2025-01-14 21:22:53.617104	283.9	14.8	-81.4	0.0
2025-01-14 21:22:54.740871	284.1	14.8	-81.2	0.0
2025-01-14 21:22:55.864471	284.3	14.8	-81.2	0.0
2025-01-14 21:22:56.988095	284.6	14.8	-81.2	0.0
2025-01-14 21:22:58.110696	284.8	14.8	-81.5	0.0
2025-01-14 21:22:59.233374	285.0	14.8	-81.5	0.0
2025-01-14 21:23:00.355290	285.2	14.7	-81.3	0.0
2025-01-14 21:23:01.477556	285.5	14.7	-81.5	0.0
2025-01-14 21:23:02.601511	285.7	14.7	-81.3	0.0
2025-01-14 21:23:03.724242	285.9	14.7	-81.4	0.0
2025-01-14 21:23:04.846084	286.2	14.7	-81.6	0.0
2025-01-14 21:23:05.967230	286.4	14.7	-81.7	0.0
2025-01-14 21:23:07.091302	286.6	14.6	-81.7	0.0
2025-01-14 21:23:08.213498	286.8	14.6	-81.8	0.0
2025-01-14 21:23:09.337559	287.1	14.6	-81.6	0.0
2025-01-14 21:23:10.463679	287.3	14.6	-81.2	0.0
2025-01-14 21:23:11.587126	287.5	14.6	-81.1	0.0
2025-01-14 21:23:12.708216	287.7	14.5	-81.7	0.0
2025-01-14 21:23:13.831704	288.0	14.5	-81.5	0.0
2025-01-14 21:23:14.955737	288.2	14.5	-81.6	0.0
2025-01-14 21:23:16.079848	288.4	14.5	-81.5	0.0
2025-01-14 21:23:17.203575	288.6	14.5	-81.5	0.0
2025-01-14 21:23:18.324374	288.9	14.4	-81.1	0.0
2025-01-14 21:23:19.448927	289.1	14.4	-81.4	0.0
2025-01-14 21:23:20.571549	289.3	14.4	-81.3	0.0
2025-01-14 21:23:21.695411	289.5	14.4	-81.3	0.0
2025-01-14 21:23:22.818046	289.8	14.3	-81.5	0.0
2025-01-14 21:23:23.941626	290.0	14.3	-81.4	0.0
2025-01-14 21:23:25.064018	290.2	14.3	-81.4	0.0
2025-01-14 21:23:26.185706	290.4	14.3	-81.2	0.0
2025-01-14 21:23:27.311281	290.6	14.2	-80.9	0.0
2025-01-14 21:23:28.435628	290.9	14.2	-81.5	0.0
2025-01-14 21:23:29.557098	291.1	14.2	-81.7	0.0
2025-01-14 21:23:30.680159	291.3	14.2	-82.0	0.0
2025-01-14 21:23:31.803738	291.5	14.1	-81.5	0.0
2025-01-14 21:23:32.928446	291.7	14.1	-81.7	0.0
2025-01-14 21:23:34.050885	292.0	14.1	-81.8	0.0
2025-01-14 21:23:35.172806	292.2	14.0	-82.0	0.0
2025-01-14 21:23:36.299507	292.4	14.0	-81.4	0.0
2025-01-14 21:23:37.422326	292.6	14.0	-81.2	0.0
2025-01-14 21:23:38.544216	292.8	14.0	-81.8	0.0
2025-01-14 21:23:39.669349	293.0	13.9	-81.7	0.0
2025-01-14 21:23:40.792090	293.3	13.9	-81.6	0.0
2025-01-14 21:23:41.914352	293.5	13.9	-81.9	0.0
2025-01-14 21:23:43.037822	293.7	13.8	-81.8	0.0
2025-01-14 21:23:44.159831	293.9	13.8	-81.6	0.0
2025-01-14 21:23:45.284571	294.1	13.8	-81.7	0.0
2025-01-14 21:23:46.406585	294.3	13.7	-81.7	0.0
2025-01-14 21:23:47.528437	294.5	13.7	-81.9	0.0
2025-01-14 21:23:48.651815	294.8	13.7	-81.8	0.0
2025-01-14 21:23:49.775577	295.0	13.7	-81.6	0.0
2025-01-14 21:23:50.896701	295.2	13.6	-81.6	0.0
2025-01-14 21:23:52.019069	295.4	13.6	-81.4	0.0
2025-01-14 21:23:53.142842	295.6	13.6	-81.8	0.0
2025-01-14 21:23:54.265042	295.8	13.5	-81.4	0.0
2025-01-14 21:23:55.385526	296.0	13.5	-81.8	0.0
2025-01-14 21:23:56.507588	296.2	13.5	-81.7	0.0
2025-01-14 21:23:57.629626	296.4	13.4	-81.7	0.0
2025-01-14 21:23:58.751909	296.7	13.4	-81.7	0.0
2025-01-14 21:23:59.876772	296.9	13.3	-81.8	0.0
2025-01-14 21:24:00.999707	297.1	13.3	-79.9	0.0
2025-01-14 21:24:02.123230	297.3	13.3	-79.7	0.0
2025-01-14 21:24:03.246720	297.5	13.2	-81.6	0.0
2025-01-14 21:24:04.371460	297.7	13.2	-81.5	0.0
2025-01-14 21:24:05.494937	297.9	13.2	-81.7	0.0
2025-01-14 21:24:06.618307	298.1	13.1	-81.6	0.0
2025-01-14 21:24:07.741302	298.3	13.1	-81.7	0.0
2025-01-14 21:24:08.866419	298.5	13.1	-81.6	0.0
2025-01-14 21:24:09.993504	298.7	13.0	-81.7	0.0
2025-01-14 21:24:11.117559	298.9	13.0	-81.9	0.0
2025-01-14 21:24:12.239343	299.1	12.9	-81.7	0.0
2025-01-14 21:24:13.361282	299.3	12.9	-82.0	0.0
2025-01-14 21:24:14.484427	299.5	12.9	-81.6	0.0
2025-01-14 21:24:15.607202	299.7	12.8	-81.6	0.0
2025-01-14 21:24:16.730726	299.9	12.8	-81.6	0.0
2025-01-14 21:24:17.852902	300.1	12.7	-81.7	0.0
2025-01-14 21:24:18.977586	300.3	12.7	-81.9	0.0
2025-01-14 21:24:20.100101	300.5	12.7	-81.5	0.0
2025-01-14 21:24:21.225353	300.7	12.6	-81.2	0.0
2025-01-14 21:24:22.348210	300.9	12.6	-81.3	0.0
2025-01-14 21:24:23.471936	301.1	12.5	-81.2	0.0
2025-01-14 21:24:24.595775	301.3	12.5	-81.2	0.0
2025-01-14 21:24:25.719145	301.5	12.5	-81.3	0.0
2025-01-14 21:24:26.842303	301.7	12.4	-81.4	0.0
2025-01-14 21:24:27.968215	301.9	12.4	-81.1	0.0
2025-01-14 21:24:29.090848	302.1	12.3	-81.0	0.0
2025-01-14 21:24:30.214701	302.3	12.3	-81.2	0.0
2025-01-14 21:24:31.340197	302.5	12.3	-81.5	0.0
2025-01-14 21:24:32.463085	302.7	12.2	-81.7	0.0
2025-01-14 21:24:33.585024	302.9	12.2	-81.4	0.0
2025-01-14 21:24:34.707473	303.1	12.1	-81.8	0.0
2025-01-14 21:24:35.833805	303.3	12.1	-81.2	0.0
2025-01-14 21:24:36.956861	303.5	12.0	-81.4	0.0
2025-01-14 21:24:38.078681	303.7	12.0	-81.6	0.0
2025-01-14 21:24:39.200677	303.8	12.0	-81.4	0.0
2025-01-14 21:24:40.322299	304.0	11.9	-81.5	0.0
2025-01-14 21:24:41.445441	304.2	11.9	-81.5	0.0
2025-01-14 21:24:42.569209	304.4	11.8	-81.2	0.0
2025-01-14 21:24:43.691985	304.6	11.8	-81.6	0.0
2025-01-14 21:24:44.814037	304.8	11.7	-81.6	0.0
2025-01-14 21:24:45.937378	305.0	11.7	-81.7	0.0
2025-01-14 21:24:47.059474	305.2	11.6	-81.8	0.0
2025-01-14 21:24:48.184975	305.4	11.6	-81.4	0.0
2025-01-14 21:24:49.308276	305.5	11.5	-81.6	0.0
2025-01-14 21:24:50.428642	305.7	11.5	-81.4	0.0
2025-01-14 21:24:51.551888	305.9	11.5	-81.7	0.0
2025-01-14 21:24:52.675772	306.1	11.4	-81.8	0.0
2025-01-14 21:24:53.800637	306.3	11.4	-81.7	0.0
2025-01-14 21:24:54.924310	306.5	11.3	-81.7	0.0
2025-01-14 21:24:56.046776	306.6	11.3	-81.7	0.0
2025-01-14 21:24:57.169960	306.8	11.2	-81.6	0.0
2025-01-14 21:24:58.292692	307.0	11.2	-81.9	0.0
2025-01-14 21:24:59.417594	307.2	11.1	-81.8	0.0
2025-01-14 21:25:00.540924	307.4	11.1	-81.9	0.0
2025-01-14 21:25:01.666417	307.5	11.0	-81.8	0.0
2025-01-14 21:25:02.788850	307.7	11.0	-81.5	0.0
2025-01-14 21:25:03.911810	307.9	10.9	-81.4	0.0
2025-01-14 21:25:05.037141	308.1	10.9	-81.3	0.0
2025-01-14 21:25:06.160788	308.3	10.8	-81.5	0.0
2025-01-14 21:25:07.281915	308.4	10.8	-81.3	0.0
2025-01-14 21:25:08.404518	308.6	10.7	-81.7	0.0
2025-01-14 21:25:09.527457	308.8	10.7	-81.6	0.0
2025-01-14 21:25:10.649039	309.0	10.6	-81.6	0.0
2025-01-14 21:25:11.772323	309.1	10.6	-81.6	0.0
2025-01-14 21:25:12.894229	309.3	10.5	-81.5	0.0
2025-01-14 21:25:14.018489	309.5	10.5	-81.1	0.0
2025-01-14 21:25:15.139906	309.7	10.5	-81.4	0.0
2025-01-14 21:25:16.261271	309.8	10.4	-81.4	0.0
2025-01-14 21:25:17.384384	310.0	10.4	-81.7	0.0
2025-01-14 21:25:18.507846	310.2	10.3	-81.8	0.0
2025-01-14 21:25:19.629204	310.3	10.3	-81.4	0.0
2025-01-14 21:25:20.750632	310.5	10.2	-81.9	0.0
2025-01-14 21:25:21.875544	310.7	10.2	-81.7	0.0
2025-01-14 21:25:22.998188	310.8	10.1	-81.9	0.0
#Closed at: 2025-01-14 21:19:07.370900