passes_logs/2025/01/14/planumMaritime01/planumMaritime01__20250114_175535_NOAA_18_rec.log

#Pass ID: 20250114_175535_NOAA 18
#Satellite: NOAA 18
#Configuration: NOAA 18
#Start time: 2025-01-14 17:55:40.653318

#LorettStation: 1.0.0 05.05.2024
#Station: planumMaritime01
#Location: 37.49445 lon 55.92918 lat
#TLE: 1 28654U 05018A   25014.17177243  .00000313  00000+0  18955-3 0  9990
#TLE: 2 28654  98.8569  95.2344 0014326 181.4762 178.6370 14.13485757 13061

#Time	Az	El	Level	SNR
2025-01-14 17:55:42.812184	112.8	10.2	-80.7	0.0
2025-01-14 17:55:45.058100	112.6	10.3	-80.8	0.0
2025-01-14 17:55:47.308649	112.4	10.5	-80.9	0.0
2025-01-14 17:55:49.559396	112.2	10.7	-80.7	0.0
2025-01-14 17:55:51.807300	111.9	10.8	-80.3	0.0
2025-01-14 17:55:54.055191	111.7	11.0	-80.5	0.0
2025-01-14 17:55:56.303110	111.5	11.2	-80.3	0.0
2025-01-14 17:55:58.550001	111.3	11.3	-80.6	0.0
2025-01-14 17:56:00.795691	111.1	11.5	-80.2	0.0
2025-01-14 17:56:03.042130	110.8	11.7	-80.7	0.0
2025-01-14 17:56:05.288622	110.6	11.9	-80.8	0.0
2025-01-14 17:56:07.533902	110.4	12.0	-80.9	0.0
2025-01-14 17:56:09.783022	110.1	12.2	-81.1	0.0
2025-01-14 17:56:12.030217	109.9	12.4	-81.0	0.0
2025-01-14 17:56:14.274056	109.6	12.5	-81.1	0.0
2025-01-14 17:56:16.521530	109.4	12.7	-80.7	0.0
2025-01-14 17:56:18.768094	109.1	12.9	-81.0	0.0
2025-01-14 17:56:21.016241	108.9	13.1	-80.9	0.0
2025-01-14 17:56:23.261158	108.6	13.3	-81.1	0.0
2025-01-14 17:56:25.509440	108.4	13.4	-80.9	0.0
2025-01-14 17:56:27.753444	108.1	13.6	-81.0	0.0
2025-01-14 17:56:29.997912	107.8	13.8	-80.5	0.0
2025-01-14 17:56:32.245742	107.6	14.0	-80.9	0.0
2025-01-14 17:56:34.492765	107.3	14.2	-80.9	0.0
2025-01-14 17:56:36.742416	107.0	14.3	-80.7	0.0
2025-01-14 17:56:38.987024	106.8	14.5	-80.5	0.0
2025-01-14 17:56:41.233307	106.5	14.7	-80.8	0.0
2025-01-14 17:56:43.482211	106.2	14.9	-80.9	0.0
2025-01-14 17:56:45.733549	105.9	15.1	-81.0	0.0
2025-01-14 17:56:47.983072	105.6	15.3	-81.0	0.0
2025-01-14 17:56:50.227574	105.3	15.5	-81.0	0.0
2025-01-14 17:56:52.476318	105.0	15.6	-80.6	0.0
2025-01-14 17:56:54.721874	104.7	15.8	-81.2	0.0
2025-01-14 17:56:56.968239	104.4	16.0	-81.0	0.0
2025-01-14 17:56:59.217865	104.1	16.2	-80.9	0.0
2025-01-14 17:57:01.463540	103.8	16.4	-80.8	0.0
2025-01-14 17:57:03.711051	103.5	16.6	-80.6	0.0
2025-01-14 17:57:05.959884	103.1	16.8	-80.6	0.0
2025-01-14 17:57:08.203041	102.8	17.0	-80.9	0.0
2025-01-14 17:57:10.450058	102.5	17.2	-80.8	0.0
2025-01-14 17:57:12.697118	102.1	17.3	-80.9	0.0
2025-01-14 17:57:14.944028	101.8	17.5	-81.2	0.0
2025-01-14 17:57:17.187810	101.5	17.7	-81.1	0.0
2025-01-14 17:57:19.437381	101.1	17.9	-81.2	0.0
2025-01-14 17:57:21.681318	100.8	18.1	-81.2	0.0
2025-01-14 17:57:23.926922	100.4	18.3	-81.7	0.0
2025-01-14 17:57:26.175239	100.0	18.5	-81.1	0.0
2025-01-14 17:57:28.423517	99.7	18.7	-81.2	0.0
2025-01-14 17:57:30.670627	99.3	18.9	-81.5	0.0
2025-01-14 17:57:32.917815	98.9	19.1	-81.3	0.0
2025-01-14 17:57:35.162250	98.5	19.3	-81.4	0.0
2025-01-14 17:57:37.409148	98.1	19.5	-81.4	0.0
2025-01-14 17:57:39.653592	97.8	19.7	-81.0	0.0
2025-01-14 17:57:41.904277	97.4	19.9	-81.0	0.0
2025-01-14 17:57:44.152145	97.0	20.1	-81.1	0.0
2025-01-14 17:57:46.400430	96.5	20.3	-80.8	0.0
2025-01-14 17:57:48.646046	96.1	20.5	-81.1	0.0
2025-01-14 17:57:50.890038	95.7	20.7	-81.2	0.0
2025-01-14 17:57:53.136990	95.3	20.8	-81.5	0.0
2025-01-14 17:57:55.387133	94.9	21.0	-81.3	0.0
2025-01-14 17:57:57.632870	94.4	21.2	-81.3	0.0
2025-01-14 17:57:59.882713	94.0	21.4	-81.2	0.0
2025-01-14 17:58:02.126471	93.5	21.6	-81.2	0.0
2025-01-14 17:58:04.372606	93.1	21.8	-81.3	0.0
2025-01-14 17:58:06.619739	92.6	22.0	-81.2	0.0
2025-01-14 17:58:08.868070	92.2	22.2	-81.2	0.0
2025-01-14 17:58:11.118710	91.7	22.4	-81.6	0.0
2025-01-14 17:58:13.364383	91.2	22.6	-81.2	0.0
2025-01-14 17:58:15.610198	90.8	22.8	-81.0	0.0
2025-01-14 17:58:17.856483	90.3	23.0	-81.1	0.0
2025-01-14 17:58:20.103245	89.8	23.2	-81.3	0.0
2025-01-14 17:58:22.352220	89.3	23.3	-81.4	0.0
2025-01-14 17:58:24.599800	88.8	23.5	-81.1	0.0
2025-01-14 17:58:26.847962	88.3	23.7	-81.2	0.0
2025-01-14 17:58:29.092119	87.8	23.9	-81.5	0.0
2025-01-14 17:58:31.336864	87.2	24.1	-81.4	0.0
2025-01-14 17:58:33.583708	86.7	24.3	-81.4	0.0
2025-01-14 17:58:35.836065	86.2	24.4	-81.1	0.0
2025-01-14 17:58:38.082107	85.6	24.6	-81.1	0.0
2025-01-14 17:58:40.331778	85.1	24.8	-81.2	0.0
2025-01-14 17:58:42.583809	84.5	25.0	-81.5	0.0
2025-01-14 17:58:44.829703	84.0	25.2	-81.4	0.0
2025-01-14 17:58:47.076541	83.4	25.3	-80.9	0.0
2025-01-14 17:58:49.325450	82.8	25.5	-80.9	0.0
2025-01-14 17:58:51.571915	82.3	25.7	-80.9	0.0
2025-01-14 17:58:53.821139	81.7	25.8	-81.2	0.0
2025-01-14 17:58:56.069233	81.1	26.0	-81.4	0.0
2025-01-14 17:58:58.318799	80.5	26.2	-81.4	0.0
2025-01-14 17:59:00.567219	79.9	26.3	-81.1	0.0
2025-01-14 17:59:02.815741	79.3	26.5	-81.2	0.0
2025-01-14 17:59:05.060129	78.7	26.6	-81.1	0.0
2025-01-14 17:59:07.313890	78.1	26.8	-81.3	0.0
2025-01-14 17:59:09.563989	77.4	26.9	-81.0	0.0
2025-01-14 17:59:11.807649	76.8	27.1	-81.0	0.0
2025-01-14 17:59:14.052529	76.2	27.2	-80.9	0.0
2025-01-14 17:59:16.297888	75.5	27.3	-81.1	0.0
2025-01-14 17:59:18.543313	74.9	27.5	-80.9	0.0
2025-01-14 17:59:20.788418	74.2	27.6	-80.4	0.0
2025-01-14 17:59:23.034797	73.6	27.7	-81.2	0.0
2025-01-14 17:59:25.281214	72.9	27.9	-81.2	0.0
2025-01-14 17:59:27.530221	72.3	28.0	-81.1	0.0
2025-01-14 17:59:29.776922	71.6	28.1	-81.1	0.0
2025-01-14 17:59:32.023588	70.9	28.2	-81.0	0.0
2025-01-14 17:59:34.272409	70.2	28.3	-80.9	0.0
2025-01-14 17:59:36.517102	69.5	28.4	-81.1	0.0
2025-01-14 17:59:38.763561	68.8	28.5	-81.1	0.0
2025-01-14 17:59:41.014712	68.1	28.6	-80.7	0.0
2025-01-14 17:59:43.263279	67.4	28.7	-80.7	0.0
2025-01-14 17:59:45.509089	66.7	28.8	-80.4	0.0
2025-01-14 17:59:47.754017	66.0	28.9	-81.0	0.0
2025-01-14 17:59:50.000244	65.3	29.0	-81.1	0.0
2025-01-14 17:59:52.246937	64.6	29.0	-81.1	0.0
2025-01-14 17:59:54.494549	63.9	29.1	-80.5	0.0
2025-01-14 17:59:56.743064	63.2	29.2	-80.9	0.0
2025-01-14 17:59:58.992296	62.5	29.2	-80.9	0.0
2025-01-14 18:00:01.238655	61.7	29.3	-80.8	0.0
2025-01-14 18:00:03.483383	61.0	29.3	-80.7	0.0
2025-01-14 18:00:05.728575	60.3	29.4	-81.0	0.0
2025-01-14 18:00:07.976517	59.5	29.4	-81.1	0.0
2025-01-14 18:00:10.224850	58.8	29.4	-81.1	0.0
2025-01-14 18:00:12.472606	58.1	29.5	-81.0	0.0
2025-01-14 18:00:14.717748	57.3	29.5	-81.1	0.0
2025-01-14 18:00:16.962793	56.6	29.5	-81.3	0.0
2025-01-14 18:00:19.210779	55.9	29.5	-81.5	0.0
2025-01-14 18:00:21.459993	55.1	29.5	-81.5	0.0
2025-01-14 18:00:23.711193	54.4	29.5	-81.3	0.0
2025-01-14 18:00:25.956874	53.7	29.5	-81.4	0.0
2025-01-14 18:00:28.203708	52.9	29.5	-81.5	0.0
2025-01-14 18:00:30.453102	52.2	29.5	-81.2	0.0
2025-01-14 18:00:32.702479	51.5	29.5	-81.1	0.0
2025-01-14 18:00:34.948234	50.7	29.4	-80.8	0.0
2025-01-14 18:00:37.197396	50.0	29.4	-81.3	0.0
2025-01-14 18:00:39.445004	49.3	29.4	-81.1	0.0
2025-01-14 18:00:41.696970	48.5	29.3	-81.2	0.0
2025-01-14 18:00:43.942093	47.8	29.3	-81.5	0.0
2025-01-14 18:00:46.190091	47.1	29.2	-81.4	0.0
2025-01-14 18:00:48.438829	46.4	29.2	-81.3	0.0
2025-01-14 18:00:50.684558	45.6	29.1	-81.7	0.0
2025-01-14 18:00:52.933797	44.9	29.0	-81.1	0.0
2025-01-14 18:00:55.180888	44.2	29.0	-80.9	0.0
2025-01-14 18:00:57.426330	43.5	28.9	-81.0	0.0
2025-01-14 18:00:59.674403	42.8	28.8	-81.5	0.0
2025-01-14 18:01:01.922725	42.1	28.7	-81.1	0.0
2025-01-14 18:01:04.168560	41.4	28.6	-80.8	0.0
2025-01-14 18:01:06.415792	40.7	28.5	-81.1	0.0
2025-01-14 18:01:08.659629	40.0	28.4	-80.8	0.0
2025-01-14 18:01:10.906266	39.3	28.3	-80.5	0.0
2025-01-14 18:01:13.151759	38.6	28.2	-80.8	0.0
2025-01-14 18:01:15.398819	37.9	28.1	-80.8	0.0
2025-01-14 18:01:17.644381	37.3	28.0	-81.0	0.0
2025-01-14 18:01:19.894965	36.6	27.9	-81.0	0.0
2025-01-14 18:01:22.142368	35.9	27.8	-81.1	0.0
2025-01-14 18:01:24.387072	35.3	27.6	-80.9	0.0
2025-01-14 18:01:26.632809	34.6	27.5	-81.1	0.0
2025-01-14 18:01:28.879578	34.0	27.4	-80.7	0.0
2025-01-14 18:01:31.126811	33.3	27.2	-81.3	0.0
2025-01-14 18:01:33.373565	32.7	27.1	-81.5	0.0
2025-01-14 18:01:35.619140	32.1	26.9	-81.2	0.0
2025-01-14 18:01:37.867705	31.5	26.8	-81.3	0.0
2025-01-14 18:01:40.114498	30.8	26.6	-81.0	0.0
2025-01-14 18:01:42.357555	30.2	26.5	-81.3	0.0
2025-01-14 18:01:44.604408	29.6	26.3	-81.0	0.0
2025-01-14 18:01:46.850245	29.0	26.2	-81.1	0.0
2025-01-14 18:01:49.100050	28.4	26.0	-80.6	0.0
2025-01-14 18:01:51.349209	27.8	25.9	-81.0	0.0
2025-01-14 18:01:53.592828	27.3	25.7	-80.7	0.0
2025-01-14 18:01:55.840978	26.7	25.5	-80.4	0.0
2025-01-14 18:01:58.087008	26.1	25.4	-81.2	0.0
2025-01-14 18:02:00.334722	25.5	25.2	-81.1	0.0
2025-01-14 18:02:02.584352	25.0	25.0	-81.2	0.0
2025-01-14 18:02:04.830036	24.4	24.8	-80.7	0.0
2025-01-14 18:02:07.076446	23.9	24.7	-81.4	0.0
2025-01-14 18:02:09.322034	23.3	24.5	-81.5	0.0
2025-01-14 18:02:11.566030	22.8	24.3	-81.6	0.0
2025-01-14 18:02:13.812355	22.3	24.1	-80.7	0.0
2025-01-14 18:02:16.057752	21.8	23.9	-81.0	0.0
2025-01-14 18:02:18.304956	21.2	23.7	-81.2	0.0
2025-01-14 18:02:20.550052	20.7	23.6	-81.3	0.0
2025-01-14 18:02:22.798041	20.2	23.4	-81.2	0.0
2025-01-14 18:02:25.045636	19.7	23.2	-81.1	0.0
2025-01-14 18:02:27.291082	19.2	23.0	-81.6	0.0
2025-01-14 18:02:29.533479	18.8	22.8	-81.3	0.0
2025-01-14 18:02:31.778365	18.3	22.6	-81.2	0.0
2025-01-14 18:02:34.021133	17.8	22.4	-81.4	0.0
2025-01-14 18:02:36.265759	17.3	22.2	-81.3	0.0
2025-01-14 18:02:38.515290	16.9	22.0	-81.4	0.0
2025-01-14 18:02:40.761731	16.4	21.8	-81.7	0.0
2025-01-14 18:02:43.007966	16.0	21.7	-81.6	0.0
2025-01-14 18:02:45.256805	15.5	21.5	-81.2	0.0
2025-01-14 18:02:47.503184	15.1	21.3	-81.0	0.0
2025-01-14 18:02:49.747864	14.7	21.1	-80.9	0.0
2025-01-14 18:02:51.994105	14.2	20.9	-81.3	0.0
2025-01-14 18:02:54.242446	13.8	20.7	-81.0	0.0
2025-01-14 18:02:56.488729	13.4	20.5	-80.9	0.0
2025-01-14 18:02:58.735028	13.0	20.3	-81.3	0.0
2025-01-14 18:03:00.978265	12.6	20.1	-80.9	0.0
2025-01-14 18:03:03.223689	12.2	19.9	-81.2	0.0
2025-01-14 18:03:05.472419	11.8	19.7	-81.2	0.0
2025-01-14 18:03:07.718758	11.4	19.5	-81.0	0.0
2025-01-14 18:03:09.964526	11.0	19.3	-81.0	0.0
2025-01-14 18:03:12.209993	10.6	19.1	-81.2	0.0
2025-01-14 18:03:14.455879	10.2	18.9	-80.8	0.0
2025-01-14 18:03:16.701422	9.9	18.7	-81.1	0.0
2025-01-14 18:03:18.949490	9.5	18.5	-81.5	0.0
2025-01-14 18:03:21.195619	9.1	18.3	-81.6	0.0
2025-01-14 18:03:23.443518	8.8	18.1	-81.4	0.0
2025-01-14 18:03:25.689683	8.4	18.0	-81.5	0.0
2025-01-14 18:03:27.939128	8.1	17.8	-81.2	0.0
2025-01-14 18:03:30.182116	7.7	17.6	-81.3	0.0
2025-01-14 18:03:32.426574	7.4	17.4	-81.4	0.0
2025-01-14 18:03:34.675703	7.1	17.2	-81.3	0.0
2025-01-14 18:03:36.922357	6.7	17.0	-81.4	0.0
2025-01-14 18:03:39.168412	6.4	16.8	-81.7	0.0
2025-01-14 18:03:41.414973	6.1	16.6	-81.5	0.0
2025-01-14 18:03:43.663625	5.8	16.4	-81.0	0.0
2025-01-14 18:03:45.910908	5.4	16.2	-81.7	0.0
2025-01-14 18:03:48.156043	5.1	16.0	-81.4	0.0
2025-01-14 18:03:50.406882	4.8	15.9	-81.6	0.0
2025-01-14 18:03:52.656107	4.5	15.7	-81.6	0.0
2025-01-14 18:03:54.905219	4.2	15.5	-81.4	0.0
2025-01-14 18:03:57.151169	3.9	15.3	-81.7	0.0
2025-01-14 18:03:59.395564	3.6	15.1	-81.5	0.0
2025-01-14 18:04:01.642064	3.3	14.9	-81.6	0.0
2025-01-14 18:04:03.888192	3.1	14.7	-81.5	0.0
2025-01-14 18:04:06.133112	2.8	14.6	-81.3	0.0
2025-01-14 18:04:08.379647	2.5	14.4	-81.7	0.0
2025-01-14 18:04:10.625131	2.2	14.2	-81.3	0.0
2025-01-14 18:04:12.869509	2.0	14.0	-81.5	0.0
2025-01-14 18:04:15.115212	1.7	13.8	-81.4	0.0
2025-01-14 18:04:17.362947	1.4	13.6	-81.6	0.0
2025-01-14 18:04:19.613403	1.2	13.5	-81.6	0.0
2025-01-14 18:04:21.861020	0.9	13.3	-81.3	0.0
2025-01-14 18:04:24.108147	0.7	13.1	-81.6	0.0
2025-01-14 18:04:26.355059	0.4	12.9	-81.7	0.0
2025-01-14 18:04:28.603558	0.2	12.7	-81.3	0.0
2025-01-14 18:04:30.850797	359.9	12.6	-81.2	0.0
2025-01-14 18:04:33.096419	359.7	12.4	-81.1	0.0
2025-01-14 18:04:35.344298	359.4	12.2	-81.4	0.0
2025-01-14 18:04:37.591112	359.2	12.0	-81.4	0.0
2025-01-14 18:04:39.839063	359.0	11.9	-81.4	0.0
2025-01-14 18:04:42.083270	358.7	11.7	-81.0	0.0
2025-01-14 18:04:44.331619	358.5	11.5	-81.6	0.0
2025-01-14 18:04:46.578700	358.3	11.4	-81.7	0.0
2025-01-14 18:04:48.826179	358.1	11.2	-81.6	0.0
2025-01-14 18:04:51.075045	357.8	11.0	-81.2	0.0
2025-01-14 18:04:53.321594	357.6	10.8	-81.4	0.0
2025-01-14 18:04:55.566788	357.4	10.7	-81.5	0.0
2025-01-14 18:04:57.813580	357.2	10.5	-81.1	0.0
2025-01-14 18:05:00.058474	357.0	10.3	-81.5	0.0
2025-01-14 18:05:02.305152	356.8	10.2	-81.8	0.0
2025-01-14 18:05:04.552961	356.6	10.0	-81.4	0.0
#Closed at: 2025-01-14 17:55:35.655862