passes_logs/2025/01/14/planumMaritime01/planumMaritime01__20250114_172922_NOAA_19_rec.log

#Pass ID: 20250114_172922_NOAA 19
#Satellite: NOAA 19
#Configuration: NOAA 19
#Start time: 2025-01-14 17:29:27.790025

#LorettStation: 1.0.0 05.05.2024
#Station: planumMaritime01
#Location: 37.49445 lon 55.92918 lat
#TLE: 1 33591U 09005A   25014.15453959  .00000276  00000+0  17122-3 0  9998
#TLE: 2 33591  99.0198  77.9105 0014501  59.8090 300.4516 14.13258688821422

#Time	Az	El	Level	SNR
2025-01-14 17:29:29.942983	138.7	10.2	-79.3	0.0
2025-01-14 17:29:32.192037	138.6	10.4	-80.1	0.0
2025-01-14 17:29:34.439314	138.5	10.6	-79.9	0.0
2025-01-14 17:29:36.684882	138.4	10.8	-79.9	0.0
2025-01-14 17:29:38.931446	138.3	11.0	-79.7	0.0
2025-01-14 17:29:41.177843	138.2	11.2	-79.9	0.0
2025-01-14 17:29:43.423177	138.1	11.4	-79.8	0.0
2025-01-14 17:29:45.672084	138.0	11.6	-80.3	0.0
2025-01-14 17:29:47.919419	137.9	11.8	-79.4	0.0
2025-01-14 17:29:50.168386	137.7	12.0	-79.3	0.0
2025-01-14 17:29:52.415378	137.6	12.2	-79.9	0.0
2025-01-14 17:29:54.660075	137.5	12.4	-80.0	0.0
2025-01-14 17:29:56.909128	137.4	12.6	-79.7	0.0
2025-01-14 17:29:59.155914	137.3	12.8	-79.7	0.0
2025-01-14 17:30:01.406310	137.2	13.0	-80.4	0.0
2025-01-14 17:30:03.652378	137.0	13.2	-80.2	0.0
2025-01-14 17:30:05.897448	136.9	13.4	-79.6	0.0
2025-01-14 17:30:08.147740	136.8	13.6	-80.1	0.0
2025-01-14 17:30:10.392590	136.7	13.9	-80.5	0.0
2025-01-14 17:30:12.638254	136.5	14.1	-80.4	0.0
2025-01-14 17:30:14.886569	136.4	14.3	-79.9	0.0
2025-01-14 17:30:17.133112	136.3	14.5	-80.5	0.0
2025-01-14 17:30:19.382297	136.2	14.8	-80.8	0.0
2025-01-14 17:30:21.630544	136.0	15.0	-80.7	0.0
2025-01-14 17:30:23.876784	135.9	15.2	-80.3	0.0
2025-01-14 17:30:26.124484	135.7	15.4	-80.2	0.0
2025-01-14 17:30:28.370155	135.6	15.7	-80.4	0.0
2025-01-14 17:30:30.617950	135.4	15.9	-80.6	0.0
2025-01-14 17:30:32.866674	135.3	16.2	-80.4	0.0
2025-01-14 17:30:35.113484	135.1	16.4	-80.4	0.0
2025-01-14 17:30:37.359229	135.0	16.6	-80.4	0.0
2025-01-14 17:30:39.608041	134.8	16.9	-80.5	0.0
2025-01-14 17:30:41.853447	134.7	17.1	-80.8	0.0
2025-01-14 17:30:44.100811	134.5	17.4	-80.7	0.0
2025-01-14 17:30:46.351273	134.4	17.6	-81.0	0.0
2025-01-14 17:30:48.597695	134.2	17.9	-80.5	0.0
2025-01-14 17:30:50.841704	134.0	18.1	-80.6	0.0
2025-01-14 17:30:53.089773	133.9	18.4	-80.6	0.0
2025-01-14 17:30:55.337199	133.7	18.7	-80.6	0.0
2025-01-14 17:30:57.584419	133.5	18.9	-80.1	0.0
2025-01-14 17:30:59.829913	133.3	19.2	-80.4	0.0
2025-01-14 17:31:02.078440	133.1	19.5	-80.4	0.0
2025-01-14 17:31:04.324179	132.9	19.7	-80.4	0.0
2025-01-14 17:31:06.571047	132.8	20.0	-80.1	0.0
2025-01-14 17:31:08.819404	132.6	20.3	-80.6	0.0
2025-01-14 17:31:11.064718	132.4	20.6	-80.6	0.0
2025-01-14 17:31:13.308636	132.2	20.8	-80.6	0.0
2025-01-14 17:31:15.557217	131.9	21.1	-80.1	0.0
2025-01-14 17:31:17.804932	131.7	21.4	-79.7	0.0
2025-01-14 17:31:20.051739	131.5	21.7	-80.2	0.0
2025-01-14 17:31:22.298227	131.3	22.0	-80.8	0.0
2025-01-14 17:31:24.544298	131.1	22.3	-81.0	0.0
2025-01-14 17:31:26.790851	130.9	22.6	-80.3	0.0
2025-01-14 17:31:29.041502	130.6	22.9	-80.6	0.0
2025-01-14 17:31:31.287165	130.4	23.2	-80.6	0.0
2025-01-14 17:31:33.535412	130.1	23.5	-81.0	0.0
2025-01-14 17:31:35.780021	129.9	23.8	-81.1	0.0
2025-01-14 17:31:38.027664	129.6	24.1	-80.6	0.0
2025-01-14 17:31:40.276653	129.4	24.4	-80.9	0.0
2025-01-14 17:31:42.524075	129.1	24.8	-80.8	0.0
2025-01-14 17:31:44.772238	128.9	25.1	-80.5	0.0
2025-01-14 17:31:47.018232	128.6	25.4	-80.7	0.0
2025-01-14 17:31:49.267813	128.3	25.8	-80.9	0.0
2025-01-14 17:31:51.512682	128.0	26.1	-80.8	0.0
2025-01-14 17:31:53.761239	127.7	26.4	-80.8	0.0
2025-01-14 17:31:56.007553	127.4	26.8	-80.6	0.0
2025-01-14 17:31:58.253136	127.1	27.1	-80.7	0.0
2025-01-14 17:32:00.503322	126.8	27.5	-81.1	0.0
2025-01-14 17:32:02.751557	126.5	27.8	-81.1	0.0
2025-01-14 17:32:04.999456	126.2	28.2	-80.9	0.0
2025-01-14 17:32:07.250007	125.8	28.5	-81.0	0.0
2025-01-14 17:32:09.494341	125.5	28.9	-80.6	0.0
2025-01-14 17:32:11.742294	125.2	29.2	-80.6	0.0
2025-01-14 17:32:13.990152	124.8	29.6	-80.8	0.0
2025-01-14 17:32:16.234909	124.4	30.0	-80.5	0.0
2025-01-14 17:32:18.482379	124.1	30.4	-80.6	0.0
2025-01-14 17:32:20.731375	123.7	30.7	-80.5	0.0
2025-01-14 17:32:22.979935	123.3	31.1	-80.9	0.0
2025-01-14 17:32:25.227428	122.9	31.5	-80.8	0.0
2025-01-14 17:32:27.473202	122.5	31.9	-81.1	0.0
2025-01-14 17:32:29.720117	122.1	32.3	-80.3	0.0
2025-01-14 17:32:31.967083	121.6	32.7	-80.7	0.0
2025-01-14 17:32:34.214466	121.2	33.1	-80.8	0.0
2025-01-14 17:32:36.462614	120.7	33.5	-80.4	0.0
2025-01-14 17:32:38.713424	120.3	33.9	-80.5	0.0
2025-01-14 17:32:40.965880	119.8	34.3	-80.7	0.0
2025-01-14 17:32:43.214938	119.3	34.7	-80.9	0.0
2025-01-14 17:32:45.460337	118.8	35.1	-80.7	0.0
2025-01-14 17:32:47.705997	118.3	35.6	-80.8	0.0
2025-01-14 17:32:49.952507	117.8	36.0	-80.5	0.0
2025-01-14 17:32:52.197613	117.2	36.4	-80.9	0.0
2025-01-14 17:32:54.443723	116.7	36.8	-80.8	0.0
2025-01-14 17:32:56.688032	116.1	37.3	-80.7	0.0
2025-01-14 17:32:58.933226	115.5	37.7	-80.8	0.0
2025-01-14 17:33:01.178422	114.9	38.1	-80.9	0.0
2025-01-14 17:33:03.425562	114.3	38.5	-80.8	0.0
2025-01-14 17:33:05.671842	113.7	39.0	-80.7	0.1
2025-01-14 17:33:07.921579	113.0	39.4	-80.6	0.0
2025-01-14 17:33:10.166270	112.3	39.9	-80.7	0.0
2025-01-14 17:33:12.413083	111.7	40.3	-80.8	0.0
2025-01-14 17:33:14.657905	110.9	40.7	-80.7	0.0
2025-01-14 17:33:16.904360	110.2	41.2	-80.1	0.0
2025-01-14 17:33:19.147874	109.5	41.6	-80.2	0.0
2025-01-14 17:33:21.396465	108.7	42.1	-80.1	0.0
2025-01-14 17:33:23.641647	107.9	42.5	-80.7	0.0
2025-01-14 17:33:25.888821	107.1	42.9	-80.0	0.0
2025-01-14 17:33:28.136784	106.3	43.4	-80.0	0.0
2025-01-14 17:33:30.386123	105.4	43.8	-80.3	0.0
2025-01-14 17:33:32.634978	104.5	44.2	-80.4	0.0
2025-01-14 17:33:34.881411	103.6	44.7	-80.4	0.0
2025-01-14 17:33:37.124499	102.7	45.1	-80.5	0.0
2025-01-14 17:33:39.373903	101.8	45.5	-81.1	0.0
2025-01-14 17:33:41.622055	100.8	45.9	-81.3	0.0
2025-01-14 17:33:43.867388	99.8	46.3	-80.8	0.0
2025-01-14 17:33:46.112306	98.7	46.7	-80.5	0.0
2025-01-14 17:33:48.360309	97.7	47.1	-80.9	0.0
2025-01-14 17:33:50.608389	96.6	47.5	-80.9	0.0
2025-01-14 17:33:52.857254	95.5	47.9	-81.2	0.0
2025-01-14 17:33:55.108476	94.3	48.3	-81.2	0.0
2025-01-14 17:33:57.357525	93.2	48.7	-80.9	0.0
2025-01-14 17:33:59.606650	92.0	49.0	-80.3	0.0
2025-01-14 17:34:01.851390	90.8	49.3	-80.0	0.0
2025-01-14 17:34:04.096630	89.5	49.7	-80.2	0.0
2025-01-14 17:34:06.341967	88.2	50.0	-79.7	0.0
2025-01-14 17:34:08.592532	86.9	50.3	-80.3	0.0
2025-01-14 17:34:10.840242	85.6	50.6	-80.1	0.0
2025-01-14 17:34:13.087845	84.2	50.9	-80.0	0.0
2025-01-14 17:34:15.338260	82.9	51.1	-79.9	0.0
2025-01-14 17:34:17.585946	81.5	51.4	-79.8	0.0
2025-01-14 17:34:19.833979	80.0	51.6	-80.4	0.0
2025-01-14 17:34:22.080000	78.6	51.8	-80.3	0.0
2025-01-14 17:34:24.330376	77.1	52.0	-80.4	0.4
2025-01-14 17:34:26.577555	75.6	52.2	-79.9	0.0
2025-01-14 17:34:28.822714	74.1	52.3	-80.0	0.0
2025-01-14 17:34:31.068085	72.6	52.5	-80.4	0.0
2025-01-14 17:34:33.313520	71.1	52.6	-80.5	0.0
2025-01-14 17:34:35.560287	69.6	52.7	-80.2	0.0
2025-01-14 17:34:37.805272	68.0	52.7	-80.5	0.0
2025-01-14 17:34:40.050933	66.5	52.8	-80.4	0.0
2025-01-14 17:34:42.294996	64.9	52.8	-80.1	0.0
2025-01-14 17:34:44.541623	63.4	52.8	-80.3	0.0
2025-01-14 17:34:46.787411	61.8	52.8	-80.1	0.0
2025-01-14 17:34:49.036255	60.2	52.7	-80.5	0.0
2025-01-14 17:34:51.282130	58.7	52.7	-80.9	0.0
2025-01-14 17:34:53.528221	57.2	52.6	-80.8	0.0
2025-01-14 17:34:55.775627	55.6	52.5	-81.2	0.0
2025-01-14 17:34:58.022978	54.1	52.4	-81.2	0.0
2025-01-14 17:35:00.270647	52.6	52.2	-81.1	0.0
2025-01-14 17:35:02.516524	51.1	52.1	-81.1	0.0
2025-01-14 17:35:04.764397	49.7	51.9	-80.8	0.0
2025-01-14 17:35:07.009182	48.2	51.7	-81.2	0.0
2025-01-14 17:35:09.254317	46.8	51.5	-81.1	0.0
2025-01-14 17:35:11.499066	45.4	51.2	-81.1	0.0
2025-01-14 17:35:13.748237	44.0	51.0	-80.9	0.0
2025-01-14 17:35:15.998639	42.6	50.7	-80.9	0.0
2025-01-14 17:35:18.244922	41.3	50.4	-80.9	0.0
2025-01-14 17:35:20.491845	40.0	50.1	-81.0	0.0
2025-01-14 17:35:22.736335	38.7	49.8	-80.7	0.0
2025-01-14 17:35:24.982914	37.4	49.5	-80.7	0.0
2025-01-14 17:35:27.229139	36.2	49.1	-81.0	0.0
2025-01-14 17:35:29.475846	35.0	48.8	-81.0	0.0
2025-01-14 17:35:31.725401	33.8	48.4	-80.9	0.0
2025-01-14 17:35:33.971634	32.7	48.1	-81.0	0.0
2025-01-14 17:35:36.218311	31.5	47.7	-80.9	0.0
2025-01-14 17:35:38.464210	30.5	47.3	-80.7	0.0
2025-01-14 17:35:40.709082	29.4	46.9	-81.0	0.0
2025-01-14 17:35:42.957143	28.4	46.5	-80.9	0.0
2025-01-14 17:35:45.207336	27.3	46.1	-80.8	0.0
2025-01-14 17:35:47.453452	26.4	45.7	-81.2	0.0
2025-01-14 17:35:49.702784	25.4	45.3	-81.1	0.0
2025-01-14 17:35:51.950594	24.5	44.8	-80.9	0.0
2025-01-14 17:35:54.198174	23.5	44.4	-80.6	0.0
2025-01-14 17:35:56.442652	22.7	44.0	-80.9	0.0
2025-01-14 17:35:58.689189	21.8	43.6	-81.1	0.0
2025-01-14 17:36:00.936160	21.0	43.1	-81.0	0.0
2025-01-14 17:36:03.180668	20.1	42.7	-80.8	0.0
2025-01-14 17:36:05.425404	19.4	42.3	-81.2	0.0
2025-01-14 17:36:07.672108	18.6	41.8	-81.2	0.0
2025-01-14 17:36:09.918679	17.8	41.4	-80.7	0.0
2025-01-14 17:36:12.163940	17.1	40.9	-81.4	0.0
2025-01-14 17:36:14.411066	16.4	40.5	-80.9	0.0
2025-01-14 17:36:16.655860	15.7	40.1	-81.3	0.0
2025-01-14 17:36:18.904447	15.0	39.6	-81.1	0.0
2025-01-14 17:36:21.150524	14.4	39.2	-81.1	0.0
2025-01-14 17:36:23.407500	13.7	38.8	-80.8	0.0
2025-01-14 17:36:25.653154	13.1	38.3	-81.0	0.0
2025-01-14 17:36:27.897930	12.5	37.9	-81.0	0.0
2025-01-14 17:36:30.146167	11.9	37.5	-81.3	0.0
2025-01-14 17:36:32.394068	11.3	37.0	-81.2	0.0
2025-01-14 17:36:34.642658	10.8	36.6	-80.7	0.0
2025-01-14 17:36:36.889859	10.2	36.2	-80.9	0.0
2025-01-14 17:36:39.139487	9.7	35.8	-81.1	0.0
2025-01-14 17:36:41.384066	9.2	35.3	-81.0	0.0
2025-01-14 17:36:43.634267	8.7	34.9	-81.1	0.0
2025-01-14 17:36:45.884313	8.2	34.5	-81.3	0.0
2025-01-14 17:36:48.132059	7.7	34.1	-81.3	0.0
2025-01-14 17:36:50.379279	7.2	33.7	-81.1	0.0
2025-01-14 17:36:52.626292	6.8	33.3	-81.3	0.0
2025-01-14 17:36:54.875419	6.3	32.9	-81.2	0.0
2025-01-14 17:36:57.122718	5.9	32.5	-81.1	0.0
2025-01-14 17:36:59.370621	5.5	32.1	-81.0	0.0
2025-01-14 17:37:01.621656	5.1	31.7	-81.2	0.0
2025-01-14 17:37:03.868412	4.7	31.3	-81.0	0.0
2025-01-14 17:37:06.115093	4.3	31.0	-81.3	0.0
2025-01-14 17:37:08.360689	3.9	30.6	-81.0	0.0
2025-01-14 17:37:10.607147	3.5	30.2	-80.9	0.0
2025-01-14 17:37:12.856389	3.2	29.8	-80.8	0.0
2025-01-14 17:37:15.103508	2.8	29.5	-81.2	0.0
2025-01-14 17:37:17.351941	2.4	29.1	-80.8	0.0
2025-01-14 17:37:19.601594	2.1	28.7	-81.1	0.0
2025-01-14 17:37:21.849046	1.8	28.4	-81.0	0.0
2025-01-14 17:37:24.094761	1.4	28.0	-80.9	0.0
2025-01-14 17:37:26.339777	1.1	27.7	-80.6	0.0
2025-01-14 17:37:28.585629	0.8	27.3	-80.7	0.0
2025-01-14 17:37:30.833269	0.5	27.0	-80.8	0.0
2025-01-14 17:37:33.080431	0.2	26.6	-81.0	0.0
2025-01-14 17:37:35.327492	359.9	26.3	-80.9	0.0
2025-01-14 17:37:37.571875	359.6	26.0	-80.3	0.0
2025-01-14 17:37:39.819210	359.4	25.6	-80.5	0.0
2025-01-14 17:37:42.066731	359.1	25.3	-80.8	0.0
2025-01-14 17:37:44.312093	358.8	25.0	-81.0	0.0
2025-01-14 17:37:46.557975	358.6	24.7	-81.0	0.0
2025-01-14 17:37:48.802880	358.3	24.4	-81.1	0.0
2025-01-14 17:37:51.049346	358.0	24.0	-81.0	0.0
2025-01-14 17:37:53.298113	357.8	23.7	-81.3	0.0
2025-01-14 17:37:55.544853	357.6	23.4	-80.9	0.0
2025-01-14 17:37:57.792154	357.3	23.1	-81.0	0.0
2025-01-14 17:38:00.040715	357.1	22.8	-81.3	0.0
2025-01-14 17:38:02.291003	356.9	22.5	-81.1	0.0
2025-01-14 17:38:04.538164	356.6	22.2	-81.2	0.0
2025-01-14 17:38:06.785972	356.4	21.9	-80.9	0.0
2025-01-14 17:38:09.030872	356.2	21.6	-81.1	0.0
2025-01-14 17:38:11.280170	356.0	21.3	-81.2	0.0
2025-01-14 17:38:13.532099	355.8	21.1	-81.0	0.0
2025-01-14 17:38:15.778995	355.6	20.8	-81.2	0.0
2025-01-14 17:38:18.027561	355.4	20.5	-80.7	0.0
2025-01-14 17:38:20.275769	355.2	20.2	-80.5	0.0
2025-01-14 17:38:22.522444	355.0	20.0	-80.9	0.0
2025-01-14 17:38:24.768677	354.8	19.7	-80.6	0.0
2025-01-14 17:38:27.019093	354.6	19.4	-80.6	0.0
2025-01-14 17:38:29.264879	354.5	19.1	-81.2	0.0
2025-01-14 17:38:31.511469	354.3	18.9	-81.0	0.0
2025-01-14 17:38:33.760488	354.1	18.6	-81.0	0.0
2025-01-14 17:38:36.012096	353.9	18.4	-81.3	0.0
2025-01-14 17:38:38.258253	353.8	18.1	-81.7	0.0
2025-01-14 17:38:40.506426	353.6	17.9	-81.5	0.0
2025-01-14 17:38:42.752739	353.4	17.6	-81.0	0.0
2025-01-14 17:38:45.002053	353.3	17.4	-81.3	0.0
2025-01-14 17:38:47.250175	353.1	17.1	-81.2	0.0
2025-01-14 17:38:49.499620	353.0	16.9	-81.0	0.0
2025-01-14 17:38:51.744739	352.8	16.6	-80.8	0.0
2025-01-14 17:38:53.994023	352.7	16.4	-81.0	0.0
2025-01-14 17:38:56.240214	352.5	16.1	-81.2	0.0
2025-01-14 17:38:58.487869	352.4	15.9	-81.6	0.0
2025-01-14 17:39:00.734304	352.2	15.7	-81.4	0.0
2025-01-14 17:39:02.983855	352.1	15.4	-81.1	0.0
2025-01-14 17:39:05.233109	351.9	15.2	-81.2	0.0
2025-01-14 17:39:07.480808	351.8	15.0	-81.1	0.0
2025-01-14 17:39:09.727097	351.7	14.8	-81.3	0.0
2025-01-14 17:39:11.974268	351.5	14.5	-81.2	0.0
2025-01-14 17:39:14.219163	351.4	14.3	-81.3	0.0
2025-01-14 17:39:16.467934	351.3	14.1	-81.2	0.0
2025-01-14 17:39:18.713889	351.2	13.9	-81.4	0.0
2025-01-14 17:39:20.960203	351.0	13.7	-81.4	0.0
2025-01-14 17:39:23.207320	350.9	13.4	-81.2	0.0
2025-01-14 17:39:25.455043	350.8	13.2	-81.0	0.0
2025-01-14 17:39:27.702359	350.7	13.0	-81.3	0.0
2025-01-14 17:39:29.950080	350.6	12.8	-81.2	0.0
2025-01-14 17:39:32.196428	350.5	12.6	-81.7	0.0
2025-01-14 17:39:34.445608	350.3	12.4	-81.3	0.0
2025-01-14 17:39:36.692510	350.2	12.2	-81.2	0.0
2025-01-14 17:39:38.941085	350.1	12.0	-81.0	0.0
2025-01-14 17:39:41.184940	350.0	11.8	-81.1	0.0
2025-01-14 17:39:43.430629	349.9	11.6	-81.2	0.0
2025-01-14 17:39:45.679688	349.8	11.4	-81.2	0.0
2025-01-14 17:39:47.924380	349.7	11.2	-81.2	0.0
2025-01-14 17:39:50.168403	349.6	11.0	-81.5	0.0
2025-01-14 17:39:52.416001	349.5	10.8	-81.5	0.0
2025-01-14 17:39:54.662110	349.4	10.6	-81.1	0.0
2025-01-14 17:39:56.908242	349.3	10.4	-81.2	0.0
2025-01-14 17:39:59.158100	349.2	10.2	-81.1	0.0
2025-01-14 17:40:01.404963	349.1	10.0	-81.2	0.0
#Closed at: 2025-01-14 17:29:22.792597