passes_logs/2025/01/14/planumMaritime01/planumMaritime01__20250114_121906_METEOR-M2_2_rec.log

#Pass ID: 20250114_121906_METEOR-M2 2
#Satellite: METEOR-M2 2
#Configuration: METEOR-M2 2
#Start time: 2025-01-14 12:19:11.857673

#LorettStation: 1.0.0 05.05.2024
#Station: planumMaritime01
#Location: 37.49445 lon 55.92918 lat
#TLE: 1 44387U 19038A   25013.94389374  .00000226  00000+0  11773-3 0  9996
#TLE: 2 44387  98.8563 350.3347 0002292  80.4075 279.7362 14.24116310287388

#Time	Az	El	Level	SNR
2025-01-14 12:19:14.021651	161.4	10.2	-80.1	0.0
2025-01-14 12:19:16.273509	161.4	10.4	-80.2	0.0
2025-01-14 12:19:18.527318	161.4	10.6	-79.7	0.0
2025-01-14 12:19:20.782881	161.4	10.8	-80.0	0.0
2025-01-14 12:19:23.038139	161.4	11.0	-79.9	0.0
2025-01-14 12:19:25.290632	161.4	11.2	-80.1	0.0
2025-01-14 12:19:27.543483	161.4	11.4	-80.1	0.0
2025-01-14 12:19:29.794910	161.4	11.6	-80.3	0.0
2025-01-14 12:19:32.048576	161.4	11.8	-79.9	0.0
2025-01-14 12:19:34.303959	161.5	12.1	-79.7	0.0
2025-01-14 12:19:36.561392	161.5	12.3	-80.2	0.0
2025-01-14 12:19:38.816535	161.5	12.5	-80.3	0.0
2025-01-14 12:19:41.068040	161.5	12.7	-80.3	0.0
2025-01-14 12:19:43.317108	161.5	12.9	-80.0	0.0
2025-01-14 12:19:45.568931	161.5	13.2	-80.4	0.0
2025-01-14 12:19:47.823003	161.5	13.4	-80.5	0.0
2025-01-14 12:19:50.077097	161.5	13.6	-80.5	0.0
2025-01-14 12:19:52.329810	161.5	13.9	-80.4	0.0
2025-01-14 12:19:54.583342	161.5	14.1	-80.4	0.0
2025-01-14 12:19:56.838456	161.6	14.3	-80.4	0.0
2025-01-14 12:19:59.093128	161.6	14.6	-80.6	0.0
2025-01-14 12:20:01.346632	161.6	14.8	-80.3	0.0
2025-01-14 12:20:03.598598	161.6	15.1	-79.9	0.0
2025-01-14 12:20:05.851123	161.6	15.3	-80.1	0.0
2025-01-14 12:20:08.103325	161.6	15.5	-80.4	0.0
2025-01-14 12:20:10.356632	161.6	15.8	-80.2	0.0
2025-01-14 12:20:12.609742	161.6	16.0	-80.5	0.0
2025-01-14 12:20:14.861545	161.6	16.3	-80.6	0.0
2025-01-14 12:20:17.115686	161.6	16.6	-80.5	0.0
2025-01-14 12:20:19.367505	161.7	16.8	-80.7	0.0
2025-01-14 12:20:21.623050	161.7	17.1	-80.6	0.0
2025-01-14 12:20:23.874890	161.7	17.4	-80.6	0.0
2025-01-14 12:20:26.124693	161.7	17.6	-80.6	0.0
2025-01-14 12:20:28.379928	161.7	17.9	-80.8	0.0
2025-01-14 12:20:30.630095	161.7	18.2	-80.9	0.0
2025-01-14 12:20:32.884184	161.7	18.5	-80.9	0.0
2025-01-14 12:20:35.135174	161.7	18.7	-80.7	0.0
2025-01-14 12:20:37.385669	161.7	19.0	-80.8	0.0
2025-01-14 12:20:39.637261	161.7	19.3	-80.2	0.0
2025-01-14 12:20:41.889717	161.8	19.6	-80.8	0.0
2025-01-14 12:20:44.141008	161.8	19.9	-80.5	0.0
2025-01-14 12:20:46.393530	161.8	20.2	-80.7	0.0
2025-01-14 12:20:48.643557	161.8	20.5	-80.6	0.0
2025-01-14 12:20:50.895563	161.8	20.8	-80.6	0.0
2025-01-14 12:20:53.148987	161.8	21.1	-80.9	0.0
2025-01-14 12:20:55.399904	161.8	21.5	-80.9	0.0
2025-01-14 12:20:57.650125	161.8	21.8	-80.8	0.0
2025-01-14 12:20:59.901221	161.9	22.1	-80.7	0.0
2025-01-14 12:21:02.157509	161.9	22.4	-80.6	0.0
2025-01-14 12:21:04.409868	161.9	22.8	-81.0	0.0
2025-01-14 12:21:06.660167	161.9	23.1	-80.7	0.0
2025-01-14 12:21:08.911599	161.9	23.4	-80.7	0.0
2025-01-14 12:21:11.164343	161.9	23.8	-80.9	0.0
2025-01-14 12:21:13.417952	161.9	24.1	-80.8	0.0
2025-01-14 12:21:15.669972	161.9	24.5	-80.7	0.0
2025-01-14 12:21:17.920853	162.0	24.9	-80.4	0.0
2025-01-14 12:21:20.176394	162.0	25.2	-80.4	0.0
2025-01-14 12:21:22.427554	162.0	25.6	-80.4	0.0
2025-01-14 12:21:24.679862	162.0	26.0	-80.5	0.0
2025-01-14 12:21:26.931520	162.0	26.3	-80.3	0.0
2025-01-14 12:21:29.185848	162.0	26.7	-80.4	0.0
2025-01-14 12:21:31.442701	162.0	27.1	-80.8	0.0
2025-01-14 12:21:33.700753	162.0	27.5	-80.5	0.0
2025-01-14 12:21:35.954335	162.1	27.9	-80.5	0.0
2025-01-14 12:21:38.206865	162.1	28.3	-81.0	0.0
2025-01-14 12:21:40.462734	162.1	28.8	-80.5	0.0
2025-01-14 12:21:42.712174	162.1	29.2	-80.9	0.0
2025-01-14 12:21:44.967435	162.1	29.6	-81.1	0.0
2025-01-14 12:21:47.220436	162.1	30.1	-80.8	0.0
2025-01-14 12:21:49.470977	162.1	30.5	-80.7	0.0
2025-01-14 12:21:51.722532	162.2	31.0	-81.0	0.0
2025-01-14 12:21:53.976551	162.2	31.4	-80.9	0.0
2025-01-14 12:21:56.228503	162.2	31.9	-80.8	0.0
2025-01-14 12:21:58.478824	162.2	32.3	-80.6	0.0
2025-01-14 12:22:00.732710	162.2	32.8	-80.6	0.0
2025-01-14 12:22:02.992130	162.2	33.3	-80.7	0.0
2025-01-14 12:22:05.244764	162.3	33.8	-81.1	0.0
2025-01-14 12:22:07.498006	162.3	34.3	-81.1	0.0
2025-01-14 12:22:09.750774	162.3	34.8	-81.0	0.0
2025-01-14 12:22:12.002920	162.3	35.4	-80.9	0.0
2025-01-14 12:22:14.256851	162.3	35.9	-81.3	0.0
2025-01-14 12:22:16.511363	162.4	36.4	-81.1	0.0
2025-01-14 12:22:18.764553	162.4	37.0	-81.0	0.0
2025-01-14 12:22:21.019002	162.4	37.5	-81.1	0.0
2025-01-14 12:22:23.275858	162.4	38.1	-81.1	0.0
2025-01-14 12:22:25.526172	162.4	38.7	-81.0	0.0
2025-01-14 12:22:27.777736	162.5	39.3	-81.1	0.0
2025-01-14 12:22:30.030711	162.5	39.9	-80.8	0.0
2025-01-14 12:22:32.282276	162.5	40.5	-80.9	0.0
2025-01-14 12:22:34.534574	162.5	41.1	-81.0	0.0
2025-01-14 12:22:36.789496	162.5	41.7	-81.2	0.0
2025-01-14 12:22:39.044816	162.6	42.3	-81.0	0.0
2025-01-14 12:22:41.297715	162.6	43.0	-80.9	0.0
2025-01-14 12:22:43.552095	162.6	43.7	-80.9	0.0
2025-01-14 12:22:45.803764	162.6	44.3	-81.0	0.0
2025-01-14 12:22:48.059585	162.7	45.0	-81.4	0.0
2025-01-14 12:22:50.312841	162.7	45.7	-80.5	0.0
2025-01-14 12:22:52.565303	162.7	46.4	-80.7	0.0
2025-01-14 12:22:54.820126	162.8	47.2	-80.6	0.0
2025-01-14 12:22:57.075045	162.8	47.9	-81.3	0.0
2025-01-14 12:22:59.332360	162.8	48.6	-81.1	0.0
2025-01-14 12:23:01.584941	162.9	49.4	-80.9	0.0
2025-01-14 12:23:03.838624	162.9	50.2	-81.1	0.0
2025-01-14 12:23:06.092124	162.9	51.0	-81.2	0.0
2025-01-14 12:23:08.345993	163.0	51.8	-80.7	0.0
2025-01-14 12:23:10.597444	163.0	52.6	-80.6	0.0
2025-01-14 12:23:12.853392	163.0	53.4	-80.9	0.0
2025-01-14 12:23:15.108073	163.1	54.3	-80.4	0.0
2025-01-14 12:23:17.364586	163.1	55.1	-80.5	0.0
2025-01-14 12:23:19.620199	163.2	56.0	-80.6	0.0
2025-01-14 12:23:21.872206	163.2	56.9	-81.1	0.0
2025-01-14 12:23:24.125969	163.3	57.8	-81.0	0.0
2025-01-14 12:23:26.379750	163.3	58.7	-80.9	0.0
2025-01-14 12:23:28.634767	163.4	59.6	-81.1	0.0
2025-01-14 12:23:30.889281	163.5	60.6	-81.1	0.0
2025-01-14 12:23:33.143608	163.5	61.5	-81.1	0.0
2025-01-14 12:23:35.397070	163.6	62.5	-81.1	0.0
2025-01-14 12:23:37.651149	163.7	63.5	-81.1	0.0
2025-01-14 12:23:39.904110	163.8	64.5	-81.1	0.0
2025-01-14 12:23:42.156821	163.9	65.5	-81.1	0.0
2025-01-14 12:23:44.407553	164.0	66.5	-80.9	0.0
2025-01-14 12:23:46.661258	164.1	67.5	-81.0	0.0
2025-01-14 12:23:48.914896	164.2	68.6	-80.7	0.0
2025-01-14 12:23:51.165990	164.3	69.6	-80.9	0.0
2025-01-14 12:23:53.418322	164.5	70.7	-80.9	0.0
2025-01-14 12:23:55.674567	164.6	71.8	-81.0	0.0
2025-01-14 12:23:57.927511	164.8	72.9	-81.1	0.0
2025-01-14 12:24:00.180224	165.0	74.0	-80.9	0.0
2025-01-14 12:24:02.433160	165.3	75.1	-81.1	0.0
2025-01-14 12:24:04.685521	165.6	76.3	-81.0	0.0
2025-01-14 12:24:06.940639	165.9	77.4	-81.3	0.0
2025-01-14 12:24:09.191938	166.3	78.5	-81.1	0.0
2025-01-14 12:24:11.444309	166.8	79.7	-81.4	0.0
2025-01-14 12:24:13.697302	167.4	80.8	-81.3	0.0
2025-01-14 12:24:15.952108	168.3	82.0	-81.2	0.0
2025-01-14 12:24:18.202317	169.3	83.2	-80.9	0.0
2025-01-14 12:24:20.457909	170.9	84.3	-81.0	0.0
2025-01-14 12:24:22.713217	173.2	85.5	-80.6	0.0
2025-01-14 12:24:24.965254	177.1	86.6	-80.7	0.0
2025-01-14 12:24:27.217032	185.0	87.8	-81.0	0.0
2025-01-14 12:24:29.470308	207.0	88.8	-80.9	0.0
2025-01-14 12:24:31.724931	272.1	89.1	-80.7	0.0
2025-01-14 12:24:33.978437	312.1	88.3	-81.0	0.0
2025-01-14 12:24:36.233256	324.2	87.2	-81.0	0.0
2025-01-14 12:24:38.488194	329.5	86.0	-80.9	0.0
2025-01-14 12:24:40.740312	332.4	84.9	-81.1	0.0
2025-01-14 12:24:42.994039	334.2	83.7	-80.6	0.0
2025-01-14 12:24:45.244463	335.5	82.5	-80.9	0.0
2025-01-14 12:24:47.496550	336.4	81.4	-81.0	0.0
2025-01-14 12:24:49.750974	337.1	80.2	-81.0	0.0
2025-01-14 12:24:51.998807	337.7	79.1	-81.1	0.0
2025-01-14 12:24:54.252025	338.1	77.9	-80.7	0.0
2025-01-14 12:24:56.506344	338.5	76.8	-81.0	0.0
2025-01-14 12:24:58.758024	338.8	75.7	-80.9	0.0
2025-01-14 12:25:01.009554	339.1	74.6	-81.1	0.0
2025-01-14 12:25:03.260057	339.3	73.4	-81.2	0.0
2025-01-14 12:25:05.513385	339.5	72.3	-81.1	0.0
2025-01-14 12:25:07.763145	339.7	71.3	-81.1	0.0
2025-01-14 12:25:10.013639	339.8	70.2	-81.0	0.0
2025-01-14 12:25:12.265874	340.0	69.1	-81.1	0.0
2025-01-14 12:25:14.515789	340.1	68.1	-81.0	0.0
2025-01-14 12:25:16.768015	340.2	67.0	-81.1	0.0
2025-01-14 12:25:19.021899	340.3	66.0	-81.2	0.0
2025-01-14 12:25:21.273231	340.4	65.0	-81.2	0.0
2025-01-14 12:25:23.528667	340.5	64.0	-81.0	0.0
2025-01-14 12:25:25.781830	340.6	63.0	-81.1	0.0
2025-01-14 12:25:28.033811	340.6	62.0	-81.2	0.0
2025-01-14 12:25:30.287381	340.7	61.1	-81.2	0.0
2025-01-14 12:25:32.537259	340.8	60.1	-81.1	0.0
2025-01-14 12:25:34.789873	340.8	59.2	-81.2	0.0
2025-01-14 12:25:37.041808	340.9	58.3	-81.3	0.0
2025-01-14 12:25:39.292167	341.0	57.4	-81.1	0.0
2025-01-14 12:25:41.546215	341.0	56.5	-81.2	0.0
2025-01-14 12:25:43.799304	341.1	55.6	-81.1	0.0
2025-01-14 12:25:46.051053	341.1	54.7	-81.4	0.0
2025-01-14 12:25:48.305915	341.2	53.9	-81.3	0.0
2025-01-14 12:25:50.557743	341.2	53.1	-81.0	0.0
2025-01-14 12:25:52.810428	341.2	52.2	-81.5	0.0
2025-01-14 12:25:55.064616	341.3	51.4	-81.1	0.0
2025-01-14 12:25:57.316525	341.3	50.6	-81.2	0.0
2025-01-14 12:25:59.565844	341.4	49.9	-81.2	0.0
2025-01-14 12:26:01.819198	341.4	49.1	-81.5	0.0
2025-01-14 12:26:04.071316	341.4	48.3	-81.3	0.0
2025-01-14 12:26:06.322657	341.5	47.6	-81.3	0.0
2025-01-14 12:26:08.574656	341.5	46.9	-81.0	0.0
2025-01-14 12:26:10.825588	341.5	46.2	-81.0	0.0
2025-01-14 12:26:13.079353	341.5	45.5	-81.1	0.0
2025-01-14 12:26:15.331340	341.6	44.8	-81.2	0.0
2025-01-14 12:26:17.584308	341.6	44.1	-81.2	0.0
2025-01-14 12:26:19.837877	341.6	43.4	-80.5	0.0
2025-01-14 12:26:22.089140	341.7	42.8	-81.4	0.0
2025-01-14 12:26:24.342942	341.7	42.1	-80.8	0.0
2025-01-14 12:26:26.598163	341.7	41.5	-81.1	0.0
2025-01-14 12:26:28.851082	341.7	40.9	-81.4	0.0
2025-01-14 12:26:31.103913	341.7	40.3	-81.5	0.0
2025-01-14 12:26:33.357004	341.8	39.7	-81.3	0.0
2025-01-14 12:26:35.607981	341.8	39.1	-80.9	0.0
2025-01-14 12:26:37.860094	341.8	38.5	-81.3	0.0
2025-01-14 12:26:40.110776	341.8	37.9	-81.1	0.0
2025-01-14 12:26:42.360591	341.9	37.4	-81.3	0.0
2025-01-14 12:26:44.611399	341.9	36.8	-80.8	0.0
2025-01-14 12:26:46.865871	341.9	36.3	-81.2	0.0
2025-01-14 12:26:49.424611	341.9	35.7	-80.9	0.0
2025-01-14 12:26:51.676533	341.9	35.1	-80.9	0.0
2025-01-14 12:26:53.927291	342.0	34.6	-80.8	0.0
2025-01-14 12:26:56.176537	342.0	34.1	-81.5	0.0
2025-01-14 12:26:58.429919	342.0	33.6	-81.4	0.0
2025-01-14 12:27:00.682339	342.0	33.1	-81.5	0.0
2025-01-14 12:27:02.932997	342.0	32.7	-81.3	0.0
2025-01-14 12:27:05.185607	342.0	32.2	-81.6	0.0
2025-01-14 12:27:07.436061	342.1	31.7	-81.4	0.0
2025-01-14 12:27:09.687156	342.1	31.3	-81.4	0.0
2025-01-14 12:27:11.939037	342.1	30.8	-80.9	0.0
2025-01-14 12:27:14.190516	342.1	30.4	-81.0	0.0
2025-01-14 12:27:16.441605	342.1	29.9	-81.1	0.0
2025-01-14 12:27:18.691032	342.1	29.5	-81.4	0.0
2025-01-14 12:27:20.944399	342.2	29.1	-81.2	0.0
2025-01-14 12:27:23.198309	342.2	28.7	-81.1	0.0
2025-01-14 12:27:25.452403	342.2	28.2	-81.3	0.0
2025-01-14 12:27:27.706469	342.2	27.8	-81.2	0.0
2025-01-14 12:27:29.961075	342.2	27.4	-81.4	0.0
2025-01-14 12:27:32.215997	342.2	27.0	-81.5	0.0
2025-01-14 12:27:34.468859	342.3	26.7	-81.4	0.0
2025-01-14 12:27:36.722939	342.3	26.3	-81.2	0.0
2025-01-14 12:27:38.971370	342.3	25.9	-81.4	0.0
2025-01-14 12:27:41.223433	342.3	25.5	-81.3	0.0
2025-01-14 12:27:43.474758	342.3	25.2	-81.1	0.0
2025-01-14 12:27:45.724752	342.3	24.8	-81.5	0.0
2025-01-14 12:27:47.980445	342.3	24.4	-81.5	0.0
2025-01-14 12:27:50.234775	342.4	24.1	-81.7	0.0
2025-01-14 12:27:52.486726	342.4	23.7	-81.1	0.0
2025-01-14 12:27:54.735907	342.4	23.4	-81.2	0.0
2025-01-14 12:27:56.987459	342.4	23.1	-81.3	0.0
2025-01-14 12:27:59.239242	342.4	22.7	-81.2	0.0
2025-01-14 12:28:01.493182	342.4	22.4	-80.9	0.0
2025-01-14 12:28:03.745174	342.4	22.1	-81.3	0.0
2025-01-14 12:28:06.001245	342.5	21.7	-81.4	0.0
2025-01-14 12:28:08.253677	342.5	21.4	-81.2	0.0
2025-01-14 12:28:10.504426	342.5	21.1	-81.4	0.0
2025-01-14 12:28:12.754273	342.5	20.8	-81.3	0.0
2025-01-14 12:28:15.007920	342.5	20.5	-81.2	0.0
2025-01-14 12:28:17.263091	342.5	20.2	-81.5	0.0
2025-01-14 12:28:19.513734	342.5	19.9	-81.3	0.0
2025-01-14 12:28:21.767174	342.5	19.6	-81.3	0.0
2025-01-14 12:28:24.020887	342.6	19.3	-81.2	0.0
2025-01-14 12:28:26.276183	342.6	19.0	-81.3	0.0
2025-01-14 12:28:28.528673	342.6	18.7	-81.1	0.0
2025-01-14 12:28:30.781327	342.6	18.5	-81.2	0.0
2025-01-14 12:28:33.036017	342.6	18.2	-81.2	0.0
2025-01-14 12:28:35.288264	342.6	17.9	-81.1	0.0
2025-01-14 12:28:37.542973	342.6	17.6	-81.3	0.0
2025-01-14 12:28:39.795080	342.6	17.4	-81.3	0.0
2025-01-14 12:28:42.047760	342.7	17.1	-81.2	0.0
2025-01-14 12:28:44.303719	342.7	16.8	-81.0	0.0
2025-01-14 12:28:46.557971	342.7	16.6	-81.0	0.0
2025-01-14 12:28:48.810931	342.7	16.3	-80.7	0.0
2025-01-14 12:28:51.063770	342.7	16.1	-80.8	0.0
2025-01-14 12:28:53.316522	342.7	15.8	-81.2	0.0
2025-01-14 12:28:55.569078	342.7	15.6	-81.4	0.0
2025-01-14 12:28:57.820755	342.7	15.3	-81.2	0.0
2025-01-14 12:29:00.074747	342.7	15.1	-81.4	0.0
2025-01-14 12:29:02.325521	342.8	14.8	-81.1	0.0
2025-01-14 12:29:04.581266	342.8	14.6	-81.0	0.0
2025-01-14 12:29:06.832214	342.8	14.4	-80.9	0.0
2025-01-14 12:29:09.085874	342.8	14.1	-81.1	0.0
2025-01-14 12:29:11.337938	342.8	13.9	-81.1	0.0
2025-01-14 12:29:13.591619	342.8	13.7	-81.4	0.0
2025-01-14 12:29:15.842567	342.8	13.4	-81.1	0.0
2025-01-14 12:29:18.094010	342.8	13.2	-81.4	0.0
2025-01-14 12:29:20.344567	342.9	13.0	-81.5	0.0
2025-01-14 12:29:22.594676	342.9	12.8	-81.4	0.0
2025-01-14 12:29:24.845757	342.9	12.6	-81.3	0.0
2025-01-14 12:29:27.100281	342.9	12.3	-81.5	0.0
2025-01-14 12:29:29.352584	342.9	12.1	-81.6	0.0
2025-01-14 12:29:31.603947	342.9	11.9	-81.4	0.0
2025-01-14 12:29:33.854784	342.9	11.7	-81.6	0.0
2025-01-14 12:29:36.110441	342.9	11.5	-81.7	0.0
2025-01-14 12:29:38.367556	342.9	11.3	-81.2	0.0
2025-01-14 12:29:40.621651	343.0	11.1	-81.3	0.0
2025-01-14 12:29:42.876151	343.0	10.9	-81.0	0.0
2025-01-14 12:29:45.127722	343.0	10.7	-81.0	0.0
2025-01-14 12:29:47.378773	343.0	10.5	-81.3	0.0
2025-01-14 12:29:49.633119	343.0	10.3	-81.4	0.0
2025-01-14 12:29:51.886150	343.0	10.1	-81.3	0.0
#Closed at: 2025-01-14 12:19:06.859845