passes_logs/2025/01/14/planumMaritime01/planumMaritime01__20250114_191034_NOAA_19_rec.log

#Pass ID: 20250114_191034_NOAA 19
#Satellite: NOAA 19
#Configuration: NOAA 19
#Start time: 2025-01-14 19:10:39.346528

#LorettStation: 1.0.0 05.05.2024
#Station: planumMaritime01
#Location: 37.49445 lon 55.92918 lat
#TLE: 1 33591U 09005A   25014.15453959  .00000276  00000+0  17122-3 0  9998
#TLE: 2 33591  99.0198  77.9105 0014501  59.8090 300.4516 14.13258688821422

#Time	Az	El	Level	SNR
2025-01-14 19:10:41.512099	199.5	10.2	-79.7	0.0
2025-01-14 19:10:43.761729	199.7	10.3	-79.8	0.0
2025-01-14 19:10:46.009975	199.8	10.5	-79.9	0.0
2025-01-14 19:10:48.255631	200.0	10.7	-80.2	0.0
2025-01-14 19:10:50.502279	200.2	10.9	-80.2	0.0
2025-01-14 19:10:52.749099	200.4	11.0	-80.0	0.0
2025-01-14 19:10:54.996661	200.6	11.2	-80.2	0.0
2025-01-14 19:10:57.245307	200.8	11.4	-80.0	0.0
2025-01-14 19:10:59.492473	201.0	11.6	-80.0	0.0
2025-01-14 19:11:01.738571	201.3	11.8	-79.7	0.0
2025-01-14 19:11:03.985884	201.5	12.0	-80.5	0.0
2025-01-14 19:11:06.235281	201.7	12.1	-80.3	0.0
2025-01-14 19:11:08.483189	201.9	12.3	-80.0	0.0
2025-01-14 19:11:10.728705	202.1	12.5	-80.3	0.0
2025-01-14 19:11:12.979253	202.3	12.7	-80.7	0.0
2025-01-14 19:11:15.228113	202.6	12.9	-80.6	0.0
2025-01-14 19:11:17.478864	202.8	13.1	-80.7	0.0
2025-01-14 19:11:19.720912	203.0	13.3	-80.1	0.0
2025-01-14 19:11:21.966388	203.3	13.5	-80.3	0.0
2025-01-14 19:11:24.211325	203.5	13.6	-80.1	0.0
2025-01-14 19:11:26.456798	203.7	13.8	-80.1	0.0
2025-01-14 19:11:28.702931	204.0	14.0	-80.5	0.0
2025-01-14 19:11:30.950288	204.2	14.2	-80.6	0.0
2025-01-14 19:11:33.194925	204.5	14.4	-80.1	0.0
2025-01-14 19:11:35.438509	204.7	14.6	-80.4	0.0
2025-01-14 19:11:37.686385	205.0	14.8	-80.4	0.0
2025-01-14 19:11:39.933190	205.2	15.0	-80.4	0.0
2025-01-14 19:11:42.177756	205.5	15.2	-80.1	0.0
2025-01-14 19:11:44.426904	205.8	15.4	-80.1	0.0
2025-01-14 19:11:46.673169	206.0	15.6	-80.2	0.0
2025-01-14 19:11:48.918433	206.3	15.8	-79.9	0.0
2025-01-14 19:11:51.165575	206.6	16.0	-80.5	0.0
2025-01-14 19:11:53.413764	206.9	16.2	-80.5	0.0
2025-01-14 19:11:55.661168	207.1	16.5	-80.8	0.0
2025-01-14 19:11:57.903603	207.4	16.7	-80.8	0.0
2025-01-14 19:12:00.148449	207.7	16.9	-80.5	0.0
2025-01-14 19:12:02.395887	208.0	17.1	-80.7	0.0
2025-01-14 19:12:04.641670	208.3	17.3	-80.8	0.0
2025-01-14 19:12:06.887512	208.6	17.5	-80.3	0.0
2025-01-14 19:12:09.134579	208.9	17.7	-80.9	0.0
2025-01-14 19:12:11.383638	209.2	17.9	-80.8	0.0
2025-01-14 19:12:13.629152	209.5	18.2	-80.0	0.0
2025-01-14 19:12:15.875377	209.9	18.4	-80.6	0.0
2025-01-14 19:12:18.122394	210.2	18.6	-80.8	0.0
2025-01-14 19:12:20.369988	210.5	18.8	-80.5	0.0
2025-01-14 19:12:22.620273	210.9	19.0	-80.6	0.0
2025-01-14 19:12:24.867834	211.2	19.3	-80.5	0.0
2025-01-14 19:12:27.114661	211.5	19.5	-80.6	0.0
2025-01-14 19:12:29.362365	211.9	19.7	-80.9	0.0
2025-01-14 19:12:31.608962	212.2	19.9	-80.7	0.0
2025-01-14 19:12:33.855823	212.6	20.2	-80.8	0.0
2025-01-14 19:12:36.102365	213.0	20.4	-80.5	0.0
2025-01-14 19:12:38.351073	213.3	20.6	-81.0	0.0
2025-01-14 19:12:40.598736	213.7	20.8	-80.6	0.0
2025-01-14 19:12:42.842754	214.1	21.1	-80.5	0.0
2025-01-14 19:12:45.086442	214.5	21.3	-80.4	0.0
2025-01-14 19:12:47.332713	214.9	21.5	-80.3	0.0
2025-01-14 19:12:49.581495	215.3	21.8	-81.1	0.0
2025-01-14 19:12:51.827689	215.7	22.0	-80.9	0.0
2025-01-14 19:12:54.075060	216.1	22.2	-80.6	0.0
2025-01-14 19:12:56.319265	216.5	22.5	-80.5	0.0
2025-01-14 19:12:58.565486	216.9	22.7	-81.1	0.0
2025-01-14 19:13:00.811874	217.3	22.9	-80.7	0.0
2025-01-14 19:13:03.063847	217.8	23.2	-80.5	0.0
2025-01-14 19:13:05.310438	218.2	23.4	-80.4	0.0
2025-01-14 19:13:07.555286	218.6	23.6	-80.4	0.0
2025-01-14 19:13:09.802980	219.1	23.9	-80.4	0.0
2025-01-14 19:13:12.051393	219.6	24.1	-80.8	0.0
2025-01-14 19:13:14.299765	220.0	24.3	-80.9	0.0
2025-01-14 19:13:16.547940	220.5	24.6	-80.6	0.0
2025-01-14 19:13:18.795295	221.0	24.8	-80.5	0.0
2025-01-14 19:13:21.040525	221.5	25.1	-80.8	0.0
2025-01-14 19:13:23.287935	221.9	25.3	-80.5	0.0
2025-01-14 19:13:25.536710	222.4	25.5	-80.9	0.0
2025-01-14 19:13:27.788210	223.0	25.8	-80.4	0.0
2025-01-14 19:13:30.036578	223.5	26.0	-80.5	0.0
2025-01-14 19:13:32.281224	224.0	26.2	-80.8	0.0
2025-01-14 19:13:34.525777	224.5	26.5	-80.7	0.0
2025-01-14 19:13:36.770338	225.1	26.7	-80.8	0.0
2025-01-14 19:13:39.016453	225.6	26.9	-80.6	0.0
2025-01-14 19:13:41.265550	226.2	27.2	-80.6	0.0
2025-01-14 19:13:43.514667	226.7	27.4	-80.6	0.0
2025-01-14 19:13:45.761490	227.3	27.6	-80.5	0.0
2025-01-14 19:13:48.007249	227.9	27.9	-80.5	0.0
2025-01-14 19:13:50.256154	228.5	28.1	-80.4	0.0
2025-01-14 19:13:52.502692	229.1	28.3	-80.6	0.0
2025-01-14 19:13:54.747985	229.7	28.6	-80.8	0.0
2025-01-14 19:13:56.992906	230.3	28.8	-80.7	0.0
2025-01-14 19:13:59.237010	230.9	29.0	-80.7	0.0
2025-01-14 19:14:01.484267	231.5	29.2	-80.8	0.0
2025-01-14 19:14:03.729949	232.2	29.5	-81.2	0.0
2025-01-14 19:14:05.977659	232.8	29.7	-80.7	0.0
2025-01-14 19:14:08.228242	233.5	29.9	-80.4	0.0
2025-01-14 19:14:10.476519	234.1	30.1	-80.6	0.0
2025-01-14 19:14:12.721846	234.8	30.3	-80.9	0.0
2025-01-14 19:14:14.968499	235.5	30.5	-80.7	0.0
2025-01-14 19:14:17.210793	236.2	30.7	-80.5	0.0
2025-01-14 19:14:19.458919	236.9	30.9	-80.6	0.0
2025-01-14 19:14:21.706801	237.6	31.1	-80.8	0.0
2025-01-14 19:14:23.954627	238.3	31.3	-80.7	0.0
2025-01-14 19:14:26.202735	239.0	31.5	-81.1	0.0
2025-01-14 19:14:28.451455	239.7	31.7	-80.9	0.0
2025-01-14 19:14:30.698561	240.5	31.9	-80.9	0.0
2025-01-14 19:14:32.946540	241.2	32.1	-80.9	0.0
2025-01-14 19:14:35.194576	242.0	32.2	-81.1	0.0
2025-01-14 19:14:37.443782	242.7	32.4	-80.7	0.0
2025-01-14 19:14:39.691410	243.5	32.6	-80.8	0.0
2025-01-14 19:14:41.939792	244.3	32.7	-81.0	0.0
2025-01-14 19:14:44.185058	245.1	32.9	-80.9	0.0
2025-01-14 19:14:46.432109	245.9	33.0	-80.8	0.0
2025-01-14 19:14:48.680715	246.6	33.2	-80.5	0.0
2025-01-14 19:14:50.927458	247.5	33.3	-80.7	0.0
2025-01-14 19:14:53.173322	248.3	33.4	-80.3	0.0
2025-01-14 19:14:55.418664	249.1	33.6	-80.5	0.0
2025-01-14 19:14:57.665404	249.9	33.7	-80.5	0.0
2025-01-14 19:14:59.909782	250.7	33.8	-80.6	0.0
2025-01-14 19:15:02.156907	251.6	33.9	-80.5	0.0
2025-01-14 19:15:04.402924	252.4	34.0	-80.7	0.0
2025-01-14 19:15:06.650464	253.3	34.1	-80.8	0.0
2025-01-14 19:15:08.900204	254.1	34.2	-80.9	0.0
2025-01-14 19:15:11.147619	255.0	34.3	-80.5	0.0
2025-01-14 19:15:13.393539	255.8	34.4	-80.7	0.0
2025-01-14 19:15:15.638075	256.7	34.4	-80.9	0.0
2025-01-14 19:15:17.884792	257.6	34.5	-80.8	0.0
2025-01-14 19:15:20.130180	258.4	34.6	-80.9	0.0
2025-01-14 19:15:22.374988	259.3	34.6	-80.8	0.0
2025-01-14 19:15:24.623358	260.2	34.7	-81.3	0.0
2025-01-14 19:15:26.869050	261.1	34.7	-80.7	0.0
2025-01-14 19:15:29.113856	261.9	34.7	-80.8	0.0
2025-01-14 19:15:31.362196	262.8	34.7	-80.8	0.0
2025-01-14 19:15:33.610894	263.7	34.7	-80.5	0.0
2025-01-14 19:15:35.859283	264.6	34.7	-80.8	0.0
2025-01-14 19:15:38.104681	265.5	34.7	-81.1	0.0
2025-01-14 19:15:40.348677	266.4	34.7	-80.9	0.0
2025-01-14 19:15:42.596833	267.2	34.7	-81.0	0.0
2025-01-14 19:15:44.844405	268.1	34.7	-81.0	0.0
2025-01-14 19:15:47.090178	269.0	34.7	-81.0	0.0
2025-01-14 19:15:49.335237	269.9	34.6	-81.1	0.0
2025-01-14 19:15:51.583931	270.7	34.6	-80.8	0.0
2025-01-14 19:15:53.832152	271.6	34.5	-81.0	0.0
2025-01-14 19:15:56.077987	272.5	34.5	-81.1	0.0
2025-01-14 19:15:58.327165	273.3	34.4	-80.8	0.0
2025-01-14 19:16:00.573014	274.2	34.3	-80.4	0.0
2025-01-14 19:16:02.819094	275.1	34.2	-80.7	0.0
2025-01-14 19:16:05.067554	275.9	34.1	-80.3	0.0
2025-01-14 19:16:07.313368	276.8	34.0	-80.6	0.0
2025-01-14 19:16:09.559191	277.6	33.9	-80.5	0.0
2025-01-14 19:16:11.806880	278.4	33.8	-80.4	0.0
2025-01-14 19:16:14.050794	279.3	33.7	-80.4	0.0
2025-01-14 19:16:16.296597	280.1	33.6	-80.7	0.0
2025-01-14 19:16:18.545102	280.9	33.5	-80.9	0.0
2025-01-14 19:16:20.789715	281.7	33.3	-81.1	0.0
2025-01-14 19:16:23.037097	282.5	33.2	-81.1	0.0
2025-01-14 19:16:25.283635	283.3	33.1	-81.0	0.0
2025-01-14 19:16:27.527696	284.1	32.9	-80.9	0.0
2025-01-14 19:16:29.774173	284.9	32.8	-80.9	0.0
2025-01-14 19:16:32.021420	285.7	32.6	-80.9	0.0
2025-01-14 19:16:34.266314	286.4	32.4	-80.7	0.0
2025-01-14 19:16:36.512997	287.2	32.3	-80.6	0.0
2025-01-14 19:16:38.758416	287.9	32.1	-80.8	0.0
2025-01-14 19:16:41.005236	288.7	31.9	-81.1	0.0
2025-01-14 19:16:43.252559	289.4	31.7	-81.2	0.0
2025-01-14 19:16:45.498359	290.2	31.5	-80.8	0.0
2025-01-14 19:16:47.744920	290.9	31.4	-80.9	0.0
2025-01-14 19:16:49.989903	291.6	31.2	-81.4	0.0
2025-01-14 19:16:52.236669	292.3	31.0	-81.3	0.0
2025-01-14 19:16:54.485019	293.0	30.8	-81.0	0.0
2025-01-14 19:16:56.730792	293.7	30.6	-81.0	0.0
2025-01-14 19:16:58.979656	294.4	30.4	-81.3	0.0
2025-01-14 19:17:01.231171	295.0	30.1	-81.3	0.0
2025-01-14 19:17:03.476176	295.7	29.9	-81.1	0.0
2025-01-14 19:17:05.721289	296.3	29.7	-80.5	0.0
2025-01-14 19:17:07.970585	297.0	29.5	-81.1	0.0
2025-01-14 19:17:10.217987	297.6	29.3	-81.0	0.0
2025-01-14 19:17:12.461565	298.3	29.1	-80.6	0.0
2025-01-14 19:17:14.709260	298.9	28.8	-81.0	0.0
2025-01-14 19:17:16.953937	299.5	28.6	-80.9	0.0
2025-01-14 19:17:19.199121	300.1	28.4	-80.6	0.0
2025-01-14 19:17:21.443716	300.7	28.2	-80.9	0.0
2025-01-14 19:17:23.691481	301.3	27.9	-80.9	0.0
2025-01-14 19:17:25.938881	301.8	27.7	-81.2	0.0
2025-01-14 19:17:28.187137	302.4	27.5	-81.2	0.0
2025-01-14 19:17:30.433776	303.0	27.3	-81.1	0.0
2025-01-14 19:17:32.678649	303.5	27.0	-81.1	0.0
2025-01-14 19:17:34.925330	304.1	26.8	-81.1	0.0
2025-01-14 19:17:37.175071	304.6	26.6	-81.1	0.0
2025-01-14 19:17:39.423142	305.1	26.3	-81.1	0.0
2025-01-14 19:17:41.669442	305.7	26.1	-80.9	0.0
2025-01-14 19:17:43.913313	306.2	25.9	-81.0	0.0
2025-01-14 19:17:46.161621	306.7	25.6	-80.2	0.0
2025-01-14 19:17:48.407721	307.2	25.4	-81.0	0.0
2025-01-14 19:17:50.654735	307.7	25.2	-80.6	0.0
2025-01-14 19:17:52.903864	308.2	24.9	-80.7	0.0
2025-01-14 19:17:55.150430	308.6	24.7	-80.9	0.0
2025-01-14 19:17:57.398065	309.1	24.4	-81.0	0.0
2025-01-14 19:17:59.648101	309.6	24.2	-80.8	0.0
2025-01-14 19:18:01.891774	310.0	24.0	-81.3	0.0
2025-01-14 19:18:04.139304	310.5	23.7	-80.9	0.0
2025-01-14 19:18:06.382500	310.9	23.5	-81.2	0.0
2025-01-14 19:18:08.631016	311.4	23.3	-80.7	0.0
2025-01-14 19:18:10.876520	311.8	23.0	-80.9	0.0
2025-01-14 19:18:13.122268	312.2	22.8	-81.0	0.0
2025-01-14 19:18:15.367341	312.7	22.6	-80.9	0.0
2025-01-14 19:18:17.613960	313.1	22.3	-80.9	0.0
2025-01-14 19:18:19.862274	313.5	22.1	-80.9	0.0
2025-01-14 19:18:22.107046	313.9	21.9	-80.9	0.0
2025-01-14 19:18:24.349806	314.3	21.6	-81.1	0.0
2025-01-14 19:18:26.599821	314.7	21.4	-80.6	0.0
2025-01-14 19:18:28.847962	315.1	21.2	-80.7	0.0
2025-01-14 19:18:31.093415	315.4	21.0	-80.6	0.0
2025-01-14 19:18:33.337150	315.8	20.7	-80.7	0.0
2025-01-14 19:18:35.583424	316.2	20.5	-80.7	0.0
2025-01-14 19:18:37.830601	316.5	20.3	-81.1	0.0
2025-01-14 19:18:40.078987	316.9	20.1	-80.9	0.0
2025-01-14 19:18:42.327326	317.2	19.8	-81.2	0.0
2025-01-14 19:18:44.570895	317.6	19.6	-81.4	0.0
2025-01-14 19:18:46.815121	317.9	19.4	-81.3	0.0
2025-01-14 19:18:49.059704	318.3	19.2	-81.4	0.0
2025-01-14 19:18:51.310310	318.6	19.0	-81.2	0.0
2025-01-14 19:18:53.556260	318.9	18.7	-81.3	0.0
2025-01-14 19:18:55.803179	319.3	18.5	-80.6	0.0
2025-01-14 19:18:58.048324	319.6	18.3	-80.7	0.0
2025-01-14 19:19:00.297298	319.9	18.1	-80.5	0.0
2025-01-14 19:19:02.545534	320.2	17.9	-81.0	0.0
2025-01-14 19:19:04.791994	320.5	17.7	-81.1	0.0
2025-01-14 19:19:07.040309	320.8	17.4	-81.0	0.0
2025-01-14 19:19:09.290564	321.1	17.2	-80.8	0.0
2025-01-14 19:19:11.536117	321.4	17.0	-81.3	0.0
2025-01-14 19:19:13.785318	321.7	16.8	-80.8	0.0
2025-01-14 19:19:16.033107	322.0	16.6	-81.2	0.0
2025-01-14 19:19:18.280700	322.3	16.4	-80.8	0.0
2025-01-14 19:19:20.529552	322.6	16.2	-81.0	0.0
2025-01-14 19:19:22.776106	322.8	16.0	-81.1	0.0
2025-01-14 19:19:25.022837	323.1	15.8	-81.1	0.0
2025-01-14 19:19:27.270201	323.4	15.6	-81.1	0.0
2025-01-14 19:19:29.519027	323.7	15.4	-81.2	0.0
2025-01-14 19:19:31.768574	323.9	15.2	-80.9	0.0
2025-01-14 19:19:34.018284	324.2	15.0	-81.2	0.0
2025-01-14 19:19:36.263633	324.4	14.8	-80.8	0.0
2025-01-14 19:19:38.510462	324.7	14.6	-81.1	0.0
2025-01-14 19:19:40.755710	324.9	14.4	-80.8	0.0
2025-01-14 19:19:43.001015	325.2	14.2	-81.1	0.0
2025-01-14 19:19:45.247271	325.4	14.0	-81.4	0.0
2025-01-14 19:19:47.494952	325.7	13.8	-80.8	0.0
2025-01-14 19:19:49.742669	325.9	13.6	-80.9	0.0
2025-01-14 19:19:51.989528	326.1	13.4	-81.2	0.0
2025-01-14 19:19:54.237144	326.4	13.2	-81.3	0.0
2025-01-14 19:19:56.487059	326.6	13.1	-80.9	0.0
2025-01-14 19:19:58.737072	326.8	12.9	-81.1	0.0
2025-01-14 19:20:00.983122	327.1	12.7	-80.9	0.0
2025-01-14 19:20:03.226991	327.3	12.5	-81.3	0.0
2025-01-14 19:20:05.474082	327.5	12.3	-81.2	0.0
2025-01-14 19:20:07.725321	327.7	12.1	-81.3	0.0
2025-01-14 19:20:09.971161	327.9	12.0	-80.8	0.0
2025-01-14 19:20:12.219630	328.1	11.8	-80.8	0.0
2025-01-14 19:20:14.467914	328.3	11.6	-80.8	0.0
2025-01-14 19:20:16.714784	328.5	11.4	-81.0	0.0
2025-01-14 19:20:18.961427	328.8	11.2	-81.1	0.0
2025-01-14 19:20:21.206746	329.0	11.1	-80.9	0.0
2025-01-14 19:20:23.453058	329.2	10.9	-81.0	0.0
2025-01-14 19:20:25.700637	329.3	10.7	-80.8	0.0
2025-01-14 19:20:27.947560	329.5	10.5	-81.0	0.0
2025-01-14 19:20:30.194381	329.7	10.4	-81.1	0.0
2025-01-14 19:20:32.439280	329.9	10.2	-81.1	0.0
2025-01-14 19:20:34.686203	330.1	10.0	-81.1	0.0
#Closed at: 2025-01-14 19:10:34.349061