passes_logs/2025/01/14/planumMaritime01/planumMaritime01__20250114_112025_METEOR-M2_4_rec.log

#Pass ID: 20250114_112025_METEOR-M2 4
#Satellite: METEOR-M2 4
#Configuration: METEOR-M2 4
#Start time: 2025-01-14 11:20:30.276004

#LorettStation: 1.0.0 05.05.2024
#Station: planumMaritime01
#Location: 37.49445 lon 55.92918 lat
#TLE: 1 59051U 24039A   25013.90238722  .00000050  00000+0  41715-4 0  9998
#TLE: 2 59051  98.6291 336.9363 0006151 228.5277 131.5373 14.22324781 45440

#Time	Az	El	Level	SNR
2025-01-14 11:20:32.437998	157.9	10.2	-79.7	0.0
2025-01-14 11:20:34.690643	157.9	10.4	-79.7	0.0
2025-01-14 11:20:36.943662	157.9	10.6	-79.9	0.0
2025-01-14 11:20:39.195833	157.9	10.8	-79.7	0.0
2025-01-14 11:20:41.451043	157.8	11.0	-79.4	0.0
2025-01-14 11:20:43.702414	157.8	11.2	-79.5	0.0
2025-01-14 11:20:45.953498	157.8	11.4	-79.8	0.0
2025-01-14 11:20:48.207564	157.8	11.6	-79.6	0.0
2025-01-14 11:20:50.458951	157.8	11.8	-79.9	0.0
2025-01-14 11:20:52.714785	157.8	12.0	-80.0	0.0
2025-01-14 11:20:54.966712	157.8	12.3	-80.0	0.0
2025-01-14 11:20:57.218450	157.8	12.5	-79.9	0.0
2025-01-14 11:20:59.472330	157.7	12.7	-80.1	0.0
2025-01-14 11:21:01.725109	157.7	12.9	-79.9	0.0
2025-01-14 11:21:03.975142	157.7	13.1	-79.9	0.0
2025-01-14 11:21:06.226081	157.7	13.4	-79.7	0.0
2025-01-14 11:21:08.479548	157.7	13.6	-79.9	0.0
2025-01-14 11:21:10.730660	157.7	13.8	-80.0	0.0
2025-01-14 11:21:12.980914	157.7	14.1	-79.9	0.0
2025-01-14 11:21:15.232011	157.6	14.3	-80.0	0.0
2025-01-14 11:21:17.483907	157.6	14.5	-80.1	0.0
2025-01-14 11:21:19.735624	157.6	14.8	-80.3	0.0
2025-01-14 11:21:21.988412	157.6	15.0	-80.2	0.0
2025-01-14 11:21:24.240490	157.6	15.3	-80.2	0.0
2025-01-14 11:21:26.495594	157.6	15.5	-80.3	0.0
2025-01-14 11:21:28.748144	157.5	15.7	-80.2	0.0
2025-01-14 11:21:31.002248	157.5	16.0	-80.0	0.0
2025-01-14 11:21:33.255699	157.5	16.3	-80.4	0.0
2025-01-14 11:21:35.510477	157.5	16.5	-80.3	0.0
2025-01-14 11:21:37.762812	157.5	16.8	-80.4	0.0
2025-01-14 11:21:40.017153	157.4	17.0	-80.4	0.0
2025-01-14 11:21:42.273219	157.4	17.3	-80.1	0.0
2025-01-14 11:21:44.526934	157.4	17.6	-80.5	0.0
2025-01-14 11:21:46.782747	157.4	17.8	-80.7	0.0
2025-01-14 11:21:49.032520	157.4	18.1	-80.1	0.0
2025-01-14 11:21:51.286488	157.3	18.4	-80.5	0.0
2025-01-14 11:21:53.541775	157.3	18.7	-80.3	0.0
2025-01-14 11:21:55.792423	157.3	18.9	-80.2	0.0
2025-01-14 11:21:58.047349	157.3	19.2	-80.3	0.0
2025-01-14 11:22:00.297923	157.2	19.5	-80.4	0.0
2025-01-14 11:22:02.548456	157.2	19.8	-80.2	0.0
2025-01-14 11:22:04.802057	157.2	20.1	-80.1	0.0
2025-01-14 11:22:07.052662	157.2	20.4	-80.4	0.0
2025-01-14 11:22:09.305056	157.1	20.7	-80.1	0.0
2025-01-14 11:22:11.556794	157.1	21.0	-80.3	0.0
2025-01-14 11:22:13.807919	157.1	21.3	-80.3	0.0
2025-01-14 11:22:16.058390	157.1	21.6	-80.4	0.0
2025-01-14 11:22:18.314228	157.0	22.0	-80.6	0.0
2025-01-14 11:22:20.565849	157.0	22.3	-80.6	0.0
2025-01-14 11:22:22.821578	157.0	22.6	-80.7	0.0
2025-01-14 11:22:25.075456	156.9	23.0	-80.8	0.0
2025-01-14 11:22:27.325219	156.9	23.3	-80.6	0.0
2025-01-14 11:22:29.575214	156.9	23.6	-80.6	0.0
2025-01-14 11:22:31.828326	156.8	24.0	-80.2	0.0
2025-01-14 11:22:34.078708	156.8	24.3	-80.6	0.0
2025-01-14 11:22:36.329273	156.8	24.7	-80.5	0.0
2025-01-14 11:22:38.584469	156.7	25.0	-80.7	0.0
2025-01-14 11:22:40.836601	156.7	25.4	-80.4	0.0
2025-01-14 11:22:43.089686	156.6	25.8	-80.5	0.0
2025-01-14 11:22:45.341739	156.6	26.1	-80.5	0.0
2025-01-14 11:22:47.592978	156.6	26.5	-80.5	0.0
2025-01-14 11:22:49.845268	156.5	26.9	-80.7	0.0
2025-01-14 11:22:52.095758	156.5	27.3	-80.3	0.0
2025-01-14 11:22:54.348560	156.4	27.7	-80.4	0.0
2025-01-14 11:22:56.602177	156.4	28.1	-80.8	0.0
2025-01-14 11:22:58.852698	156.3	28.5	-80.6	0.0
2025-01-14 11:23:01.105008	156.3	28.9	-80.7	0.0
2025-01-14 11:23:03.358506	156.2	29.3	-80.5	0.0
2025-01-14 11:23:05.611827	156.2	29.8	-80.7	0.0
2025-01-14 11:23:07.864959	156.1	30.2	-80.9	0.0
2025-01-14 11:23:10.116938	156.1	30.6	-80.5	0.0
2025-01-14 11:23:12.369908	156.0	31.1	-80.6	0.0
2025-01-14 11:23:14.619658	155.9	31.5	-80.8	0.0
2025-01-14 11:23:16.871778	155.9	32.0	-80.7	0.0
2025-01-14 11:23:19.124200	155.8	32.5	-80.3	0.0
2025-01-14 11:23:21.377587	155.8	32.9	-80.7	0.0
2025-01-14 11:23:23.630838	155.7	33.4	-81.0	0.0
2025-01-14 11:23:25.880299	155.6	33.9	-80.7	0.0
2025-01-14 11:23:28.133412	155.5	34.4	-80.5	0.0
2025-01-14 11:23:30.387811	155.5	34.9	-80.5	0.0
2025-01-14 11:23:32.638902	155.4	35.4	-80.9	0.0
2025-01-14 11:23:34.891009	155.3	35.9	-80.6	0.0
2025-01-14 11:23:37.144103	155.2	36.5	-80.7	0.0
2025-01-14 11:23:39.391361	155.1	37.0	-80.7	0.0
2025-01-14 11:23:41.644789	155.1	37.6	-80.7	0.0
2025-01-14 11:23:43.896149	155.0	38.1	-80.3	0.0
2025-01-14 11:23:46.150820	154.9	38.7	-80.3	0.0
2025-01-14 11:23:48.406553	154.8	39.3	-80.3	0.0
2025-01-14 11:23:50.660498	154.7	39.9	-80.4	0.0
2025-01-14 11:23:52.915231	154.6	40.5	-80.2	0.0
2025-01-14 11:23:55.168006	154.4	41.1	-80.0	0.0
2025-01-14 11:23:57.418750	154.3	41.7	-79.9	0.0
2025-01-14 11:23:59.671686	154.2	42.3	-80.1	0.0
2025-01-14 11:24:01.923519	154.1	42.9	-80.0	0.0
2025-01-14 11:24:04.177415	153.9	43.6	-80.0	0.1
2025-01-14 11:24:06.429003	153.8	44.2	-80.0	0.2
2025-01-14 11:24:08.681589	153.7	44.9	-80.2	0.0
2025-01-14 11:24:10.932059	153.5	45.6	-80.1	0.4
2025-01-14 11:24:13.184821	153.4	46.3	-79.9	0.5
2025-01-14 11:24:15.440157	153.2	47.0	-80.0	1.2
2025-01-14 11:24:17.693347	153.0	47.7	-79.9	1.5
2025-01-14 11:24:19.945924	152.8	48.4	-80.2	2.5
2025-01-14 11:24:22.201212	152.7	49.2	-80.4	0.0
2025-01-14 11:24:24.449923	152.5	49.9	-80.3	0.0
2025-01-14 11:24:26.701345	152.2	50.7	-79.9	0.0
2025-01-14 11:24:28.950951	152.0	51.5	-80.2	0.5
2025-01-14 11:24:31.207483	151.8	52.3	-80.1	0.0
2025-01-14 11:24:33.463838	151.5	53.1	-79.8	0.0
2025-01-14 11:24:35.716749	151.3	53.9	-80.5	0.0
2025-01-14 11:24:37.968287	151.0	54.7	-80.6	0.0
2025-01-14 11:24:40.221625	150.7	55.5	-80.7	0.0
2025-01-14 11:24:42.474687	150.4	56.4	-81.1	0.0
2025-01-14 11:24:44.726927	150.1	57.3	-80.8	0.0
2025-01-14 11:24:46.980454	149.7	58.1	-81.0	0.0
2025-01-14 11:24:49.234195	149.3	59.0	-80.7	0.0
2025-01-14 11:24:51.486684	148.9	59.9	-80.8	0.0
2025-01-14 11:24:53.739825	148.5	60.8	-80.6	0.0
2025-01-14 11:24:55.991706	148.0	61.8	-80.8	0.0
2025-01-14 11:24:58.246195	147.5	62.7	-80.4	0.0
2025-01-14 11:25:00.496894	146.9	63.6	-80.7	0.0
2025-01-14 11:25:02.751885	146.3	64.6	-80.1	1.0
2025-01-14 11:25:05.003541	145.7	65.6	-79.2	3.3
2025-01-14 11:25:07.257301	145.0	66.5	-79.3	6.6
2025-01-14 11:25:09.511435	144.2	67.5	-79.1	8.2
2025-01-14 11:25:11.765612	143.3	68.5	-78.6	8.9
2025-01-14 11:25:14.020338	142.4	69.5	-78.2	9.7
2025-01-14 11:25:16.279179	141.3	70.5	-78.3	10.5
2025-01-14 11:25:18.531040	140.1	71.5	-78.1	10.8
2025-01-14 11:25:20.787991	138.8	72.5	-77.9	11.2
2025-01-14 11:25:23.039898	137.3	73.5	-77.7	12.2
2025-01-14 11:25:25.292140	135.6	74.5	-77.4	12.1
2025-01-14 11:25:27.545318	133.7	75.5	-77.3	12.5
2025-01-14 11:25:29.799336	131.4	76.5	-77.0	12.4
2025-01-14 11:25:32.050737	128.8	77.4	-77.5	12.4
2025-01-14 11:25:34.304819	125.8	78.4	-77.3	11.5
2025-01-14 11:25:36.556500	122.2	79.3	-77.4	11.9
2025-01-14 11:25:38.811795	118.0	80.1	-78.1	11.4
2025-01-14 11:25:41.066660	113.0	80.9	-78.2	10.4
2025-01-14 11:25:43.319518	107.0	81.6	-78.4	10.9
2025-01-14 11:25:45.574605	100.0	82.3	-78.8	10.1
2025-01-14 11:25:47.829576	91.9	82.7	-78.6	9.2
2025-01-14 11:25:50.084414	82.9	83.1	-78.7	9.4
2025-01-14 11:25:52.338185	73.2	83.2	-78.7	9.2
2025-01-14 11:25:54.588479	63.4	83.2	-79.0	7.2
2025-01-14 11:25:56.842461	54.1	82.9	-79.5	6.3
2025-01-14 11:25:59.096277	45.6	82.5	-79.7	3.8
2025-01-14 11:26:01.349159	38.1	81.9	-80.2	0.0
2025-01-14 11:26:03.602736	31.7	81.2	-80.7	0.0
2025-01-14 11:26:05.857044	26.4	80.5	-80.5	0.0
2025-01-14 11:26:08.108407	21.8	79.6	-80.6	0.0
2025-01-14 11:26:10.362889	18.0	78.7	-80.8	0.0
2025-01-14 11:26:12.619789	14.7	77.8	-80.5	0.0
2025-01-14 11:26:14.872257	12.0	76.9	-80.8	0.0
2025-01-14 11:26:17.124537	9.6	75.9	-80.7	0.0
2025-01-14 11:26:19.373833	7.5	74.9	-80.5	0.0
2025-01-14 11:26:21.625354	5.7	73.9	-80.7	0.0
2025-01-14 11:26:23.879608	4.2	72.9	-80.7	0.0
2025-01-14 11:26:26.136857	2.8	71.9	-80.4	0.0
2025-01-14 11:26:28.390553	1.5	70.9	-80.6	0.0
2025-01-14 11:26:30.640444	0.4	69.9	-80.6	0.0
2025-01-14 11:26:32.892342	359.4	68.9	-81.0	0.0
2025-01-14 11:26:35.144281	358.5	68.0	-80.9	0.0
2025-01-14 11:26:37.398457	357.7	67.0	-80.9	0.0
2025-01-14 11:26:39.647984	357.0	66.0	-80.8	0.0
2025-01-14 11:26:41.898816	356.3	65.0	-80.9	0.0
2025-01-14 11:26:44.148865	355.7	64.1	-80.9	0.0
2025-01-14 11:26:46.397757	355.1	63.1	-80.8	0.0
2025-01-14 11:26:48.649821	354.6	62.2	-80.7	0.0
2025-01-14 11:26:50.902257	354.1	61.3	-80.9	0.0
2025-01-14 11:26:53.151207	353.6	60.4	-80.4	0.0
2025-01-14 11:26:55.405188	353.2	59.5	-80.5	0.0
2025-01-14 11:26:57.659370	352.8	58.6	-80.8	0.0
2025-01-14 11:26:59.910504	352.4	57.7	-80.9	0.0
2025-01-14 11:27:02.162421	352.1	56.8	-80.8	0.0
2025-01-14 11:27:04.415364	351.8	56.0	-81.3	0.0
2025-01-14 11:27:06.667498	351.5	55.1	-81.2	0.0
2025-01-14 11:27:08.918840	351.2	54.3	-81.0	0.0
2025-01-14 11:27:11.168736	350.9	53.5	-81.2	0.0
2025-01-14 11:27:13.421655	350.7	52.7	-80.7	0.0
2025-01-14 11:27:15.673676	350.4	51.9	-80.9	0.0
2025-01-14 11:27:17.929926	350.2	51.1	-80.7	0.0
2025-01-14 11:27:20.183048	350.0	50.3	-81.0	0.0
2025-01-14 11:27:22.436533	349.8	49.6	-80.8	0.0
2025-01-14 11:27:24.689594	349.6	48.8	-81.0	0.0
2025-01-14 11:27:26.943168	349.4	48.1	-81.1	0.0
2025-01-14 11:27:29.196990	349.2	47.4	-80.8	0.0
2025-01-14 11:27:31.451340	349.1	46.7	-80.9	0.0
2025-01-14 11:27:33.702714	348.9	46.0	-81.2	0.0
2025-01-14 11:27:35.955388	348.8	45.3	-81.0	0.0
2025-01-14 11:27:38.207417	348.6	44.6	-80.8	0.0
2025-01-14 11:27:40.460927	348.5	44.0	-81.4	0.0
2025-01-14 11:27:42.713884	348.3	43.3	-81.3	0.0
2025-01-14 11:27:44.967266	348.2	42.7	-81.2	0.0
2025-01-14 11:27:47.218863	348.1	42.0	-80.9	0.0
2025-01-14 11:27:49.473198	348.0	41.4	-81.1	0.0
2025-01-14 11:27:51.725759	347.9	40.8	-80.7	0.0
2025-01-14 11:27:53.979910	347.7	40.2	-81.2	0.0
2025-01-14 11:27:56.234439	347.6	39.6	-81.4	0.0
2025-01-14 11:27:58.488734	347.5	39.1	-80.4	0.0
2025-01-14 11:28:00.742478	347.4	38.5	-80.8	0.0
2025-01-14 11:28:02.994879	347.3	37.9	-81.1	0.0
2025-01-14 11:28:05.247051	347.3	37.4	-81.0	0.0
2025-01-14 11:28:07.498206	347.2	36.8	-80.8	0.0
2025-01-14 11:28:09.751622	347.1	36.3	-81.1	0.0
2025-01-14 11:28:12.005133	347.0	35.8	-81.1	0.0
2025-01-14 11:28:14.257536	346.9	35.3	-81.2	0.0
2025-01-14 11:28:16.511030	346.9	34.7	-81.2	0.0
2025-01-14 11:28:18.762538	346.8	34.2	-81.3	0.0
2025-01-14 11:28:21.016699	346.7	33.8	-81.4	0.0
2025-01-14 11:28:23.269474	346.6	33.3	-81.1	0.0
2025-01-14 11:28:25.522156	346.6	32.8	-81.2	0.0
2025-01-14 11:28:27.774027	346.5	32.3	-81.0	0.0
2025-01-14 11:28:30.027087	346.5	31.9	-81.2	0.0
2025-01-14 11:28:32.279566	346.4	31.4	-81.0	0.0
2025-01-14 11:28:34.531373	346.3	31.0	-81.0	0.0
2025-01-14 11:28:36.785177	346.3	30.5	-80.6	0.0
2025-01-14 11:28:39.037956	346.2	30.1	-80.8	0.0
2025-01-14 11:28:41.292431	346.2	29.7	-80.6	0.0
2025-01-14 11:28:43.546203	346.1	29.2	-80.9	0.0
2025-01-14 11:28:45.799009	346.1	28.8	-81.0	0.0
2025-01-14 11:28:48.054691	346.0	28.4	-81.0	0.0
2025-01-14 11:28:50.308543	346.0	28.0	-81.3	0.0
2025-01-14 11:28:52.562588	345.9	27.6	-81.3	0.0
2025-01-14 11:28:54.817148	345.9	27.2	-81.2	0.0
2025-01-14 11:28:57.070541	345.9	26.8	-81.3	0.0
2025-01-14 11:28:59.319640	345.8	26.5	-81.2	0.0
2025-01-14 11:29:01.569505	345.8	26.1	-81.2	0.0
2025-01-14 11:29:03.824393	345.7	25.7	-81.5	0.0
2025-01-14 11:29:06.075513	345.7	25.3	-81.1	0.0
2025-01-14 11:29:08.329047	345.7	25.0	-81.2	0.0
2025-01-14 11:29:10.580201	345.6	24.6	-81.2	0.0
2025-01-14 11:29:12.833077	345.6	24.3	-81.2	0.0
2025-01-14 11:29:15.085560	345.6	23.9	-80.1	0.0
2025-01-14 11:29:17.337501	345.5	23.6	-81.2	0.0
2025-01-14 11:29:19.591704	345.5	23.3	-80.9	0.0
2025-01-14 11:29:21.843088	345.5	22.9	-81.0	0.0
2025-01-14 11:29:24.093586	345.4	22.6	-80.7	0.0
2025-01-14 11:29:26.345881	345.4	22.3	-81.2	0.0
2025-01-14 11:29:28.599884	345.4	21.9	-80.8	0.0
2025-01-14 11:29:30.852259	345.3	21.6	-80.8	0.0
2025-01-14 11:29:33.105017	345.3	21.3	-81.4	0.0
2025-01-14 11:29:35.358793	345.3	21.0	-81.2	0.0
2025-01-14 11:29:37.611097	345.3	20.7	-81.2	0.0
2025-01-14 11:29:39.864195	345.2	20.4	-81.0	0.0
2025-01-14 11:29:42.115614	345.2	20.1	-81.2	0.0
2025-01-14 11:29:44.368911	345.2	19.8	-80.9	0.0
2025-01-14 11:29:46.621507	345.2	19.5	-81.0	0.0
2025-01-14 11:29:48.875103	345.1	19.2	-80.8	0.0
2025-01-14 11:29:51.129700	345.1	19.0	-80.9	0.0
2025-01-14 11:29:53.382070	345.1	18.7	-80.8	0.0
2025-01-14 11:29:55.634605	345.1	18.4	-81.1	0.0
2025-01-14 11:29:57.888679	345.1	18.1	-81.1	0.0
2025-01-14 11:30:00.140525	345.0	17.8	-81.2	0.0
2025-01-14 11:30:02.390844	345.0	17.6	-81.3	0.0
2025-01-14 11:30:04.644493	345.0	17.3	-81.2	0.0
2025-01-14 11:30:06.900829	345.0	17.1	-81.3	0.0
2025-01-14 11:30:09.154627	345.0	16.8	-81.2	0.0
2025-01-14 11:30:11.409356	344.9	16.5	-81.1	0.0
2025-01-14 11:30:13.661206	344.9	16.3	-81.1	0.0
2025-01-14 11:30:15.915441	344.9	16.0	-81.2	0.0
2025-01-14 11:30:18.168744	344.9	15.8	-80.7	0.0
2025-01-14 11:30:20.421662	344.9	15.5	-80.7	0.0
2025-01-14 11:30:22.678169	344.9	15.3	-80.2	0.0
2025-01-14 11:30:24.934168	344.9	15.0	-80.4	0.0
2025-01-14 11:30:27.187969	344.8	14.8	-79.9	0.0
2025-01-14 11:30:29.440715	344.8	14.6	-79.9	0.0
2025-01-14 11:30:31.694931	344.8	14.3	-80.0	0.0
2025-01-14 11:30:33.948384	344.8	14.1	-80.0	0.0
2025-01-14 11:30:36.199032	344.8	13.9	-79.4	0.0
2025-01-14 11:30:38.451639	344.8	13.6	-79.4	0.0
2025-01-14 11:30:40.704787	344.8	13.4	-79.9	0.0
2025-01-14 11:30:42.959007	344.7	13.2	-79.7	0.0
2025-01-14 11:30:45.211732	344.7	13.0	-80.3	0.0
2025-01-14 11:30:47.462946	344.7	12.8	-79.3	0.0
2025-01-14 11:30:49.715236	344.7	12.5	-80.4	0.0
2025-01-14 11:30:51.970518	344.7	12.3	-80.1	0.0
2025-01-14 11:30:54.227082	344.7	12.1	-80.7	0.0
2025-01-14 11:30:56.477728	344.7	11.9	-79.9	0.0
2025-01-14 11:30:58.728532	344.7	11.7	-80.4	0.0
2025-01-14 11:31:00.979966	344.7	11.5	-79.8	0.0
2025-01-14 11:31:03.233127	344.7	11.3	-80.6	0.0
2025-01-14 11:31:05.485027	344.6	11.1	-80.9	0.0
2025-01-14 11:31:07.739640	344.6	10.9	-80.5	0.0
2025-01-14 11:31:09.991436	344.6	10.7	-80.1	0.0
2025-01-14 11:31:12.241790	344.6	10.5	-79.9	0.0
2025-01-14 11:31:14.492634	344.6	10.3	-81.1	0.0
2025-01-14 11:31:16.744761	344.6	10.1	-80.8	0.0
#Closed at: 2025-01-14 11:20:25.278142