passes_logs/2025/01/14/planumMaritime01/planumMaritime01__20250114_174118_METOP-C_rec.log

#Pass ID: 20250114_174118_METOP-C
#Satellite: METOP-C
#Configuration: METOP-C
#Start time: 2025-01-14 17:41:23.696105

#LorettStation: 1.0.0 05.05.2024
#Station: planumMaritime01
#Location: 37.49445 lon 55.92918 lat
#TLE: 1 43689U 18087A   25014.16634806  .00000210  00000+0  11601-3 0  9994
#TLE: 2 43689  98.6967  76.6709 0001376 166.5927 193.5287 14.21480388321094

#Time	Az	El	Level	SNR
2025-01-14 17:41:25.844964	147.9	10.2	-80.7	0.0
2025-01-14 17:41:28.092227	147.9	10.4	-80.7	0.0
2025-01-14 17:41:30.344231	147.8	10.6	-80.7	0.0
2025-01-14 17:41:32.590124	147.7	10.8	-80.6	0.0
2025-01-14 17:41:34.838997	147.7	11.0	-80.3	0.0
2025-01-14 17:41:37.088995	147.6	11.2	-80.7	0.0
2025-01-14 17:41:39.334773	147.5	11.4	-80.5	0.0
2025-01-14 17:41:41.586068	147.5	11.6	-80.9	0.0
2025-01-14 17:41:43.834572	147.4	11.8	-80.9	0.0
2025-01-14 17:41:46.079671	147.3	12.0	-80.8	0.0
2025-01-14 17:41:48.326765	147.3	12.2	-80.7	0.0
2025-01-14 17:41:50.576468	147.2	12.4	-81.0	0.0
2025-01-14 17:41:52.823325	147.1	12.7	-80.6	0.0
2025-01-14 17:41:55.067346	147.1	12.9	-81.2	0.0
2025-01-14 17:41:57.313411	147.0	13.1	-81.0	0.0
2025-01-14 17:41:59.559558	146.9	13.3	-80.9	0.0
2025-01-14 17:42:01.804802	146.8	13.5	-81.1	0.0
2025-01-14 17:42:04.051268	146.8	13.8	-80.7	0.0
2025-01-14 17:42:06.299153	146.7	14.0	-80.8	0.0
2025-01-14 17:42:08.544277	146.6	14.2	-80.7	0.0
2025-01-14 17:42:10.789397	146.5	14.5	-81.0	0.0
2025-01-14 17:42:13.036708	146.5	14.7	-80.8	0.0
2025-01-14 17:42:15.286351	146.4	14.9	-80.9	0.0
2025-01-14 17:42:17.530761	146.3	15.2	-80.8	0.0
2025-01-14 17:42:19.776932	146.2	15.4	-81.3	0.0
2025-01-14 17:42:22.025089	146.1	15.7	-81.1	0.0
2025-01-14 17:42:24.273617	146.0	15.9	-81.0	0.0
2025-01-14 17:42:26.521179	145.9	16.1	-81.2	0.0
2025-01-14 17:42:28.772330	145.8	16.4	-81.2	0.0
2025-01-14 17:42:31.020053	145.8	16.7	-81.0	0.0
2025-01-14 17:42:33.268865	145.7	16.9	-80.9	0.0
2025-01-14 17:42:35.521207	145.6	17.2	-80.6	0.0
2025-01-14 17:42:37.769239	145.5	17.4	-80.6	0.0
2025-01-14 17:42:40.016906	145.4	17.7	-80.7	0.0
2025-01-14 17:42:42.261805	145.3	18.0	-81.2	0.0
2025-01-14 17:42:44.507615	145.2	18.2	-81.3	0.0
2025-01-14 17:42:46.757407	145.1	18.5	-81.1	0.0
2025-01-14 17:42:49.006487	144.9	18.8	-81.0	0.0
2025-01-14 17:42:51.254888	144.8	19.1	-80.9	0.0
2025-01-14 17:42:53.504048	144.7	19.3	-80.9	0.0
2025-01-14 17:42:55.754171	144.6	19.6	-81.1	0.0
2025-01-14 17:42:58.001592	144.5	19.9	-81.4	0.0
2025-01-14 17:43:00.251843	144.4	20.2	-81.3	0.0
2025-01-14 17:43:02.501689	144.2	20.5	-81.3	0.0
2025-01-14 17:43:04.750800	144.1	20.8	-81.4	0.0
2025-01-14 17:43:06.999910	144.0	21.1	-81.4	0.0
2025-01-14 17:43:09.246328	143.9	21.4	-80.7	0.0
2025-01-14 17:43:11.492324	143.7	21.7	-81.3	0.0
2025-01-14 17:43:13.739202	143.6	22.0	-81.2	0.0
2025-01-14 17:43:15.988828	143.5	22.3	-81.0	0.0
2025-01-14 17:43:18.237012	143.3	22.7	-81.0	0.0
2025-01-14 17:43:20.483565	143.2	23.0	-80.8	0.0
2025-01-14 17:43:22.730120	143.0	23.3	-81.3	0.0
2025-01-14 17:43:24.980951	142.9	23.6	-81.4	0.0
2025-01-14 17:43:27.226247	142.7	24.0	-81.3	0.0
2025-01-14 17:43:29.472658	142.6	24.3	-81.3	0.0
2025-01-14 17:43:31.720464	142.4	24.6	-81.3	0.0
2025-01-14 17:43:33.966909	142.2	25.0	-81.3	0.0
2025-01-14 17:43:36.214821	142.1	25.3	-81.0	0.0
2025-01-14 17:43:38.462294	141.9	25.7	-81.0	0.0
2025-01-14 17:43:40.708150	141.7	26.1	-81.4	0.0
2025-01-14 17:43:42.953132	141.6	26.4	-81.0	0.0
2025-01-14 17:43:45.200114	141.4	26.8	-81.3	0.0
2025-01-14 17:43:47.446175	141.2	27.2	-80.9	0.0
2025-01-14 17:43:49.693755	141.0	27.6	-80.9	0.0
2025-01-14 17:43:51.942450	140.8	27.9	-81.2	0.0
2025-01-14 17:43:54.192087	140.6	28.3	-81.3	0.0
2025-01-14 17:43:56.438043	140.4	28.7	-81.5	0.0
2025-01-14 17:43:58.683472	140.2	29.1	-81.1	0.0
2025-01-14 17:44:00.933415	139.9	29.5	-81.3	0.0
2025-01-14 17:44:03.183073	139.7	29.9	-81.2	0.0
2025-01-14 17:44:05.432745	139.5	30.4	-81.0	0.0
2025-01-14 17:44:07.679228	139.2	30.8	-80.8	0.0
2025-01-14 17:44:09.925801	139.0	31.2	-81.3	0.0
2025-01-14 17:44:12.171457	138.8	31.6	-81.2	0.0
2025-01-14 17:44:14.418036	138.5	32.1	-81.1	0.0
2025-01-14 17:44:16.663889	138.2	32.5	-80.8	0.0
2025-01-14 17:44:18.909964	138.0	33.0	-81.4	0.0
2025-01-14 17:44:21.154634	137.7	33.4	-80.9	0.0
2025-01-14 17:44:23.399810	137.4	33.9	-80.8	0.0
2025-01-14 17:44:25.647299	137.1	34.4	-80.8	0.0
2025-01-14 17:44:27.893559	136.8	34.8	-81.3	0.0
2025-01-14 17:44:30.142661	136.5	35.3	-81.1	0.0
2025-01-14 17:44:32.390518	136.1	35.8	-81.1	0.0
2025-01-14 17:44:34.637678	135.8	36.3	-81.0	0.0
2025-01-14 17:44:36.888950	135.5	36.8	-81.2	0.0
2025-01-14 17:44:39.136359	135.1	37.3	-80.7	0.0
2025-01-14 17:44:41.387493	134.7	37.8	-81.1	0.0
2025-01-14 17:44:43.634798	134.4	38.4	-80.7	0.0
2025-01-14 17:44:45.883578	134.0	38.9	-81.0	0.0
2025-01-14 17:44:48.128911	133.6	39.4	-80.7	0.0
2025-01-14 17:44:50.377074	133.1	40.0	-80.5	0.0
2025-01-14 17:44:52.625587	132.7	40.5	-80.6	0.0
2025-01-14 17:44:54.872783	132.3	41.1	-80.4	0.0
2025-01-14 17:44:57.116408	131.8	41.6	-80.4	0.0
2025-01-14 17:44:59.367823	131.3	42.2	-80.1	0.0
2025-01-14 17:45:01.616050	130.8	42.8	-80.2	0.0
2025-01-14 17:45:03.867370	130.3	43.3	-80.4	0.0
2025-01-14 17:45:06.115903	129.7	43.9	-80.5	0.0
2025-01-14 17:45:08.363197	129.2	44.5	-80.3	0.0
2025-01-14 17:45:10.610976	128.6	45.1	-80.6	0.0
2025-01-14 17:45:12.861929	128.0	45.7	-80.3	0.0
2025-01-14 17:45:15.112321	127.4	46.3	-80.7	0.0
2025-01-14 17:45:17.359212	126.7	46.9	-80.1	0.0
2025-01-14 17:45:19.609477	126.0	47.6	-80.2	0.0
2025-01-14 17:45:21.858099	125.3	48.2	-80.4	0.0
2025-01-14 17:45:24.103726	124.6	48.8	-80.1	0.0
2025-01-14 17:45:26.351392	123.8	49.4	-80.3	0.0
2025-01-14 17:45:28.597263	123.0	50.1	-80.3	0.0
2025-01-14 17:45:30.840818	122.2	50.7	-80.3	0.0
2025-01-14 17:45:33.088547	121.3	51.3	-80.6	0.0
2025-01-14 17:45:35.333829	120.4	52.0	-80.1	0.0
2025-01-14 17:45:37.581607	119.5	52.6	-80.4	0.0
2025-01-14 17:45:39.833074	118.5	53.3	-80.3	0.0
2025-01-14 17:45:42.080753	117.5	53.9	-80.1	0.0
2025-01-14 17:45:44.326912	116.4	54.5	-80.4	0.0
2025-01-14 17:45:46.575041	115.2	55.2	-80.5	0.0
2025-01-14 17:45:48.821570	114.1	55.8	-80.5	0.0
2025-01-14 17:45:51.066816	112.8	56.4	-80.9	0.0
2025-01-14 17:45:53.315450	111.5	57.0	-80.9	0.0
2025-01-14 17:45:55.561892	110.2	57.7	-81.5	0.0
2025-01-14 17:45:57.808469	108.8	58.3	-81.3	0.0
2025-01-14 17:46:00.053040	107.3	58.8	-81.6	0.0
2025-01-14 17:46:02.300049	105.7	59.4	-81.3	0.0
2025-01-14 17:46:04.545173	104.1	60.0	-81.1	0.0
2025-01-14 17:46:06.789172	102.4	60.5	-81.0	0.0
2025-01-14 17:46:09.037119	100.7	61.0	-80.3	0.0
2025-01-14 17:46:11.289608	98.8	61.6	-80.2	0.0
2025-01-14 17:46:13.535014	96.9	62.0	-79.8	0.0
2025-01-14 17:46:15.784580	94.9	62.5	-79.5	0.0
2025-01-14 17:46:18.034910	92.9	62.9	-79.4	0.0
2025-01-14 17:46:20.283179	90.7	63.3	-80.0	0.0
2025-01-14 17:46:22.531203	88.5	63.7	-79.7	0.0
2025-01-14 17:46:24.781094	86.3	64.0	-79.2	2.0
2025-01-14 17:46:27.031891	83.9	64.3	-79.2	2.0
2025-01-14 17:46:29.279401	81.5	64.6	-79.1	4.0
2025-01-14 17:46:31.527088	79.1	64.8	-78.8	3.3
2025-01-14 17:46:33.773127	76.6	65.0	-79.1	3.7
2025-01-14 17:46:36.020912	74.1	65.1	-79.0	4.3
2025-01-14 17:46:38.266669	71.6	65.2	-78.7	3.7
2025-01-14 17:46:40.517467	69.0	65.3	-79.1	3.5
2025-01-14 17:46:42.763861	66.4	65.3	-78.6	3.9
2025-01-14 17:46:45.009718	63.9	65.2	-78.7	4.6
2025-01-14 17:46:47.258212	61.3	65.1	-78.8	4.5
2025-01-14 17:46:49.505321	58.8	65.0	-78.9	3.4
2025-01-14 17:46:51.752844	56.3	64.8	-79.0	3.5
2025-01-14 17:46:54.002806	53.9	64.6	-79.3	3.4
2025-01-14 17:46:56.248943	51.5	64.4	-79.3	2.7
2025-01-14 17:46:58.495823	49.2	64.1	-79.5	0.0
2025-01-14 17:47:00.742407	46.9	63.7	-79.6	0.0
2025-01-14 17:47:02.993195	44.7	63.4	-80.0	0.0
2025-01-14 17:47:05.239639	42.5	63.0	-80.0	0.0
2025-01-14 17:47:07.487095	40.5	62.5	-79.9	0.0
2025-01-14 17:47:09.733762	38.5	62.1	-80.5	0.0
2025-01-14 17:47:11.980070	36.6	61.6	-80.9	0.0
2025-01-14 17:47:14.227125	34.7	61.1	-80.6	0.0
2025-01-14 17:47:16.475250	33.0	60.6	-80.8	0.0
2025-01-14 17:47:18.725834	31.3	60.1	-80.7	0.0
2025-01-14 17:47:20.973450	29.6	59.5	-80.8	0.0
2025-01-14 17:47:23.219194	28.1	58.9	-80.9	0.0
2025-01-14 17:47:25.465629	26.6	58.3	-81.0	0.0
2025-01-14 17:47:27.713383	25.2	57.7	-80.7	0.0
2025-01-14 17:47:29.959167	23.8	57.1	-81.0	0.0
2025-01-14 17:47:32.211311	22.5	56.5	-81.0	0.0
2025-01-14 17:47:34.457237	21.3	55.9	-81.2	0.0
2025-01-14 17:47:36.703239	20.1	55.3	-81.2	0.0
2025-01-14 17:47:38.952659	19.0	54.6	-80.6	0.0
2025-01-14 17:47:41.201138	17.9	54.0	-81.3	0.0
2025-01-14 17:47:43.450346	16.8	53.4	-81.2	0.0
2025-01-14 17:47:45.699313	15.8	52.7	-81.3	0.0
2025-01-14 17:47:47.945761	14.9	52.1	-81.2	0.0
2025-01-14 17:47:50.195294	14.0	51.4	-81.1	0.0
2025-01-14 17:47:52.439070	13.1	50.8	-81.0	0.0
2025-01-14 17:47:54.684325	12.3	50.2	-81.2	0.0
2025-01-14 17:47:56.932683	11.5	49.5	-80.8	0.0
2025-01-14 17:47:59.180961	10.7	48.9	-81.3	0.0
2025-01-14 17:48:01.424598	10.0	48.3	-81.5	0.0
2025-01-14 17:48:03.668338	9.3	47.7	-81.5	0.0
2025-01-14 17:48:05.917707	8.6	47.1	-81.1	0.0
2025-01-14 17:48:08.162934	7.9	46.4	-81.3	0.0
2025-01-14 17:48:10.412512	7.3	45.8	-81.1	0.0
2025-01-14 17:48:12.657755	6.7	45.2	-81.3	0.0
2025-01-14 17:48:14.903791	6.1	44.6	-81.3	0.0
2025-01-14 17:48:17.149800	5.6	44.1	-81.5	0.0
2025-01-14 17:48:19.397427	5.0	43.5	-81.1	0.0
2025-01-14 17:48:21.642729	4.5	42.9	-81.5	0.0
2025-01-14 17:48:23.892835	4.0	42.3	-81.3	0.0
2025-01-14 17:48:26.141431	3.5	41.8	-81.6	0.0
2025-01-14 17:48:28.386278	3.0	41.2	-81.4	0.0
2025-01-14 17:48:30.633018	2.6	40.6	-81.4	0.0
2025-01-14 17:48:32.882167	2.2	40.1	-81.2	0.0
2025-01-14 17:48:35.127099	1.7	39.6	-81.4	0.0
2025-01-14 17:48:37.372952	1.3	39.0	-81.4	0.0
2025-01-14 17:48:39.620396	0.9	38.5	-81.4	0.0
2025-01-14 17:48:41.870090	0.6	38.0	-81.5	0.0
2025-01-14 17:48:44.118827	0.2	37.5	-81.7	0.0
2025-01-14 17:48:46.365343	359.8	37.0	-81.4	0.0
2025-01-14 17:48:48.612885	359.5	36.5	-81.1	0.0
2025-01-14 17:48:50.859915	359.1	36.0	-81.3	0.0
2025-01-14 17:48:53.107888	358.8	35.5	-81.4	0.0
2025-01-14 17:48:55.353708	358.5	35.0	-81.4	0.0
2025-01-14 17:48:57.600530	358.2	34.5	-81.9	0.0
2025-01-14 17:48:59.847795	357.9	34.0	-81.3	0.0
2025-01-14 17:49:02.095425	357.6	33.6	-81.5	0.0
2025-01-14 17:49:04.343597	357.3	33.1	-81.3	0.0
2025-01-14 17:49:06.590669	357.1	32.7	-81.3	0.0
2025-01-14 17:49:08.835931	356.8	32.2	-80.9	0.0
2025-01-14 17:49:11.083428	356.5	31.8	-81.5	0.0
2025-01-14 17:49:13.327143	356.3	31.4	-81.5	0.0
2025-01-14 17:49:15.575068	356.0	30.9	-81.2	0.0
2025-01-14 17:49:17.822406	355.8	30.5	-81.4	0.0
2025-01-14 17:49:20.069066	355.6	30.1	-81.1	0.0
2025-01-14 17:49:22.318127	355.4	29.7	-80.8	0.0
2025-01-14 17:49:24.566721	355.1	29.3	-81.3	0.0
2025-01-14 17:49:26.814097	354.9	28.9	-81.4	0.0
2025-01-14 17:49:29.058048	354.7	28.5	-81.7	0.0
2025-01-14 17:49:31.304174	354.5	28.1	-81.3	0.0
2025-01-14 17:49:33.551610	354.3	27.7	-81.6	0.0
2025-01-14 17:49:35.799620	354.1	27.3	-81.1	0.0
2025-01-14 17:49:38.044316	353.9	27.0	-81.2	0.0
2025-01-14 17:49:40.294820	353.7	26.6	-81.2	0.0
2025-01-14 17:49:42.543519	353.6	26.2	-81.2	0.0
2025-01-14 17:49:44.788534	353.4	25.9	-81.1	0.0
2025-01-14 17:49:47.036888	353.2	25.5	-81.0	0.0
2025-01-14 17:49:49.284708	353.1	25.2	-81.2	0.0
2025-01-14 17:49:51.529517	352.9	24.8	-81.0	0.0
2025-01-14 17:49:53.777897	352.7	24.5	-80.9	0.0
2025-01-14 17:49:56.023933	352.6	24.1	-81.5	0.0
2025-01-14 17:49:58.270685	352.4	23.8	-81.2	0.0
2025-01-14 17:50:00.519488	352.3	23.5	-81.5	0.0
2025-01-14 17:50:02.773039	352.1	23.1	-81.6	0.0
2025-01-14 17:50:05.022228	352.0	22.8	-81.6	0.0
2025-01-14 17:50:07.268871	351.8	22.5	-81.1	0.0
2025-01-14 17:50:09.517819	351.7	22.2	-81.2	0.0
2025-01-14 17:50:11.766883	351.6	21.9	-81.4	0.0
2025-01-14 17:50:14.009685	351.4	21.6	-81.3	0.0
2025-01-14 17:50:16.256034	351.3	21.3	-81.5	0.0
2025-01-14 17:50:18.505229	351.2	21.0	-81.5	0.0
2025-01-14 17:50:20.752921	351.1	20.7	-81.7	0.0
2025-01-14 17:50:23.003191	350.9	20.4	-81.3	0.0
2025-01-14 17:50:25.252671	350.8	20.1	-81.5	0.0
2025-01-14 17:50:27.502640	350.7	19.8	-81.5	0.0
2025-01-14 17:50:29.750158	350.6	19.5	-81.7	0.0
2025-01-14 17:50:31.996187	350.5	19.2	-81.4	0.0
2025-01-14 17:50:34.243210	350.4	19.0	-81.6	0.0
2025-01-14 17:50:36.489168	350.3	18.7	-81.4	0.0
2025-01-14 17:50:38.736785	350.2	18.4	-81.9	0.0
2025-01-14 17:50:40.983573	350.1	18.1	-81.6	0.0
2025-01-14 17:50:43.227123	350.0	17.9	-81.7	0.0
2025-01-14 17:50:45.475576	349.9	17.6	-81.8	0.0
2025-01-14 17:50:47.723307	349.8	17.3	-81.7	0.0
2025-01-14 17:50:49.973756	349.7	17.1	-81.6	0.0
2025-01-14 17:50:52.218618	349.6	16.8	-81.6	0.0
2025-01-14 17:50:54.465797	349.5	16.6	-81.7	0.0
2025-01-14 17:50:56.716863	349.4	16.3	-81.8	0.0
2025-01-14 17:50:58.964747	349.3	16.1	-81.5	0.0
2025-01-14 17:51:01.212080	349.2	15.8	-81.2	0.0
2025-01-14 17:51:03.458844	349.1	15.6	-81.1	0.0
2025-01-14 17:51:05.708033	349.1	15.4	-81.7	0.0
2025-01-14 17:51:07.955224	349.0	15.1	-81.4	0.0
2025-01-14 17:51:10.201736	348.9	14.9	-81.5	0.0
2025-01-14 17:51:12.448694	348.8	14.6	-81.4	0.0
2025-01-14 17:51:14.696663	348.7	14.4	-81.6	0.0
2025-01-14 17:51:16.945288	348.7	14.2	-81.4	0.0
2025-01-14 17:51:19.194468	348.6	14.0	-81.4	0.0
2025-01-14 17:51:21.441705	348.5	13.7	-81.3	0.0
2025-01-14 17:51:23.686787	348.4	13.5	-81.5	0.0
2025-01-14 17:51:25.934812	348.4	13.3	-81.0	0.0
2025-01-14 17:51:28.181624	348.3	13.1	-80.9	0.0
2025-01-14 17:51:30.426115	348.2	12.8	-80.9	0.0
2025-01-14 17:51:32.672144	348.2	12.6	-81.2	0.0
2025-01-14 17:51:34.920690	348.1	12.4	-81.1	0.0
2025-01-14 17:51:37.167055	348.0	12.2	-81.3	0.0
2025-01-14 17:51:39.418227	348.0	12.0	-81.3	0.0
2025-01-14 17:51:41.666107	347.9	11.8	-81.2	0.0
2025-01-14 17:51:43.914254	347.8	11.6	-81.1	0.0
2025-01-14 17:51:46.160048	347.8	11.4	-81.4	0.0
2025-01-14 17:51:48.405905	347.7	11.2	-81.4	0.0
2025-01-14 17:51:50.654504	347.7	11.0	-81.5	0.0
2025-01-14 17:51:52.903044	347.6	10.8	-81.6	0.0
2025-01-14 17:51:55.151362	347.5	10.6	-81.3	0.0
2025-01-14 17:51:57.400296	347.5	10.4	-81.3	0.0
2025-01-14 17:51:59.649833	347.4	10.2	-81.2	0.0
2025-01-14 17:52:01.896510	347.4	10.0	-81.0	0.0
#Closed at: 2025-01-14 17:41:18.697815