passes_logs/2025/01/14/planumMaritime01/planumMaritime01__20250114_182512_METOP-B_rec.log

#Pass ID: 20250114_182512_METOP-B
#Satellite: METOP-B
#Configuration: METOP-B
#Start time: 2025-01-14 18:25:17.057558

#LorettStation: 1.0.0 05.05.2024
#Station: planumMaritime01
#Location: 37.49445 lon 55.92918 lat
#TLE: 1 38771U 12049A   25014.12680384  .00000206  00000+0  11403-3 0  9995
#TLE: 2 38771  98.6012  72.3074 0001783  83.0486 277.0894 14.21409549639515

#Time	Az	El	Level	SNR
2025-01-14 18:25:19.214556	184.4	10.2	-80.0	0.0
2025-01-14 18:25:21.463058	184.6	10.4	-80.1	0.0
2025-01-14 18:25:23.712381	184.7	10.6	-79.7	0.0
2025-01-14 18:25:25.957539	184.8	10.8	-80.0	0.0
2025-01-14 18:25:28.206488	184.9	11.0	-80.5	0.0
2025-01-14 18:25:30.452954	185.1	11.1	-80.5	0.0
2025-01-14 18:25:32.698211	185.2	11.3	-80.6	0.0
2025-01-14 18:25:34.946466	185.3	11.5	-80.4	0.0
2025-01-14 18:25:37.194128	185.5	11.7	-79.8	0.0
2025-01-14 18:25:39.443351	185.6	11.9	-80.5	0.0
2025-01-14 18:25:41.689810	185.7	12.2	-80.6	0.0
2025-01-14 18:25:43.933993	185.9	12.4	-80.6	0.0
2025-01-14 18:25:46.179474	186.0	12.6	-80.6	0.0
2025-01-14 18:25:48.425353	186.1	12.8	-80.5	0.0
2025-01-14 18:25:50.670759	186.3	13.0	-80.5	0.0
2025-01-14 18:25:52.914380	186.4	13.2	-80.4	0.0
2025-01-14 18:25:55.160327	186.6	13.4	-80.4	0.0
2025-01-14 18:25:57.405798	186.7	13.6	-80.7	0.0
2025-01-14 18:25:59.652457	186.9	13.8	-80.6	0.0
2025-01-14 18:26:01.899977	187.0	14.1	-80.0	0.0
2025-01-14 18:26:04.149506	187.2	14.3	-80.6	0.0
2025-01-14 18:26:06.393472	187.3	14.5	-80.5	0.0
2025-01-14 18:26:08.637178	187.5	14.7	-80.6	0.0
2025-01-14 18:26:10.881564	187.7	15.0	-80.7	0.0
2025-01-14 18:26:13.129283	187.8	15.2	-80.8	0.0
2025-01-14 18:26:15.375708	188.0	15.4	-80.8	0.0
2025-01-14 18:26:17.622383	188.2	15.6	-80.8	0.0
2025-01-14 18:26:19.870232	188.3	15.9	-80.4	0.0
2025-01-14 18:26:22.115449	188.5	16.1	-80.6	0.0
2025-01-14 18:26:24.359135	188.7	16.4	-80.3	0.0
2025-01-14 18:26:26.603343	188.9	16.6	-80.9	0.0
2025-01-14 18:26:28.848834	189.0	16.8	-81.0	0.0
2025-01-14 18:26:31.095865	189.2	17.1	-81.1	0.0
2025-01-14 18:26:33.343256	189.4	17.3	-81.1	0.0
2025-01-14 18:26:35.591210	189.6	17.6	-81.1	0.0
2025-01-14 18:26:37.840378	189.8	17.8	-80.8	0.0
2025-01-14 18:26:40.086346	190.0	18.1	-80.7	0.0
2025-01-14 18:26:42.332703	190.2	18.3	-80.8	0.0
2025-01-14 18:26:44.581014	190.4	18.6	-80.8	0.0
2025-01-14 18:26:46.825070	190.6	18.9	-80.5	0.0
2025-01-14 18:26:49.072647	190.8	19.1	-80.7	0.0
2025-01-14 18:26:51.319997	191.0	19.4	-81.0	0.0
2025-01-14 18:26:53.565439	191.3	19.7	-80.7	0.0
2025-01-14 18:26:55.814439	191.5	19.9	-80.7	0.0
2025-01-14 18:26:58.062468	191.7	20.2	-80.7	0.0
2025-01-14 18:27:00.309052	191.9	20.5	-80.9	0.0
2025-01-14 18:27:02.556690	192.2	20.8	-81.0	0.0
2025-01-14 18:27:04.804953	192.4	21.0	-81.0	0.0
2025-01-14 18:27:07.050563	192.6	21.3	-81.1	0.0
2025-01-14 18:27:09.296269	192.9	21.6	-81.0	0.0
2025-01-14 18:27:11.542749	193.1	21.9	-81.2	0.0
2025-01-14 18:27:13.788668	193.4	22.2	-80.9	0.0
2025-01-14 18:27:16.034515	193.7	22.5	-80.9	0.0
2025-01-14 18:27:18.277899	193.9	22.8	-81.0	0.0
2025-01-14 18:27:20.523934	194.2	23.1	-80.5	0.0
2025-01-14 18:27:22.770485	194.5	23.4	-80.3	0.0
2025-01-14 18:27:25.016305	194.8	23.7	-80.6	0.0
2025-01-14 18:27:27.260374	195.0	24.0	-80.7	0.0
2025-01-14 18:27:29.504968	195.3	24.3	-80.9	0.0
2025-01-14 18:27:31.753392	195.6	24.6	-80.7	0.0
2025-01-14 18:27:34.001041	195.9	25.0	-80.8	0.0
2025-01-14 18:27:36.246931	196.2	25.3	-80.8	0.0
2025-01-14 18:27:38.494328	196.6	25.6	-80.6	0.0
2025-01-14 18:27:40.744569	196.9	25.9	-80.9	0.0
2025-01-14 18:27:42.990354	197.2	26.3	-80.8	0.0
2025-01-14 18:27:45.233144	197.5	26.6	-80.3	0.0
2025-01-14 18:27:47.479731	197.9	26.9	-80.9	0.0
2025-01-14 18:27:49.727866	198.2	27.3	-80.8	0.0
2025-01-14 18:27:51.972397	198.6	27.6	-80.6	0.0
2025-01-14 18:27:54.221159	199.0	28.0	-80.7	0.0
2025-01-14 18:27:56.470290	199.3	28.3	-81.0	0.0
2025-01-14 18:27:58.717824	199.7	28.7	-80.4	0.0
2025-01-14 18:28:00.963033	200.1	29.0	-80.7	0.0
2025-01-14 18:28:03.207974	200.5	29.4	-80.5	0.0
2025-01-14 18:28:05.456979	200.9	29.8	-80.8	0.0
2025-01-14 18:28:07.700929	201.3	30.1	-80.5	0.0
2025-01-14 18:28:09.948652	201.7	30.5	-80.4	0.0
2025-01-14 18:28:12.196888	202.2	30.9	-81.0	0.0
2025-01-14 18:28:14.443773	202.6	31.2	-80.5	0.0
2025-01-14 18:28:16.687833	203.1	31.6	-80.3	0.0
2025-01-14 18:28:18.934504	203.5	32.0	-80.4	0.0
2025-01-14 18:28:21.181536	204.0	32.4	-80.5	0.0
2025-01-14 18:28:23.425798	204.5	32.8	-80.6	0.0
2025-01-14 18:28:25.671433	205.0	33.2	-80.2	0.0
2025-01-14 18:28:27.918791	205.5	33.6	-80.7	0.0
2025-01-14 18:28:30.168534	206.0	34.0	-80.7	0.0
2025-01-14 18:28:32.415667	206.6	34.4	-80.3	0.0
2025-01-14 18:28:34.661136	207.1	34.8	-80.4	0.0
2025-01-14 18:28:36.906694	207.7	35.2	-79.9	0.0
2025-01-14 18:28:39.153096	208.3	35.6	-79.9	0.0
2025-01-14 18:28:41.401455	208.8	36.0	-80.5	0.0
2025-01-14 18:28:43.650021	209.4	36.4	-80.3	0.0
2025-01-14 18:28:45.895334	210.1	36.8	-80.4	0.0
2025-01-14 18:28:48.138805	210.7	37.2	-80.2	0.0
2025-01-14 18:28:50.384138	211.4	37.6	-80.1	0.0
2025-01-14 18:28:52.630450	212.0	38.0	-79.4	0.0
2025-01-14 18:28:54.875945	212.7	38.4	-79.8	0.0
2025-01-14 18:28:57.121473	213.4	38.9	-80.2	0.0
2025-01-14 18:28:59.366312	214.1	39.3	-80.2	0.0
2025-01-14 18:29:01.611685	214.9	39.7	-80.1	0.0
2025-01-14 18:29:03.857262	215.6	40.1	-80.2	0.0
2025-01-14 18:29:06.105007	216.4	40.5	-80.0	0.0
2025-01-14 18:29:08.351015	217.2	40.9	-80.0	0.0
2025-01-14 18:29:10.595415	218.0	41.3	-80.4	0.0
2025-01-14 18:29:12.838824	218.8	41.7	-80.6	0.0
2025-01-14 18:29:15.086923	219.7	42.1	-80.4	0.0
2025-01-14 18:29:17.333535	220.6	42.6	-80.2	0.0
2025-01-14 18:29:19.578022	221.5	43.0	-80.2	0.0
2025-01-14 18:29:21.822959	222.4	43.4	-80.3	0.0
2025-01-14 18:29:24.067720	223.4	43.7	-80.0	0.0
2025-01-14 18:29:26.310264	224.3	44.1	-80.4	0.0
2025-01-14 18:29:28.559468	225.3	44.5	-80.4	0.0
2025-01-14 18:29:30.805705	226.3	44.9	-79.8	0.0
2025-01-14 18:29:33.053324	227.4	45.3	-80.2	0.0
2025-01-14 18:29:35.300222	228.4	45.6	-80.3	0.0
2025-01-14 18:29:37.542979	229.5	46.0	-80.0	0.0
2025-01-14 18:29:39.786108	230.6	46.3	-79.9	0.0
2025-01-14 18:29:42.031406	231.8	46.7	-80.1	0.0
2025-01-14 18:29:44.278311	232.9	47.0	-80.1	0.0
2025-01-14 18:29:46.526525	234.1	47.3	-79.7	0.0
2025-01-14 18:29:48.771735	235.3	47.6	-80.0	0.0
2025-01-14 18:29:51.016239	236.6	47.9	-80.0	0.0
2025-01-14 18:29:53.261285	237.8	48.2	-79.8	0.0
2025-01-14 18:29:55.506770	239.1	48.5	-79.9	0.0
2025-01-14 18:29:57.751090	240.4	48.7	-80.4	0.0
2025-01-14 18:29:59.996946	241.7	49.0	-80.2	0.0
2025-01-14 18:30:02.243544	243.1	49.2	-80.4	0.0
2025-01-14 18:30:04.489372	244.4	49.4	-80.5	0.0
2025-01-14 18:30:06.733836	245.8	49.6	-80.7	0.0
2025-01-14 18:30:08.979531	247.2	49.8	-80.6	0.0
2025-01-14 18:30:11.225382	248.6	49.9	-80.7	0.0
2025-01-14 18:30:13.473835	250.0	50.1	-80.6	0.0
2025-01-14 18:30:15.722242	251.5	50.2	-80.8	0.0
2025-01-14 18:30:17.967270	252.9	50.3	-80.7	0.0
2025-01-14 18:30:20.214495	254.4	50.4	-80.9	0.0
2025-01-14 18:30:22.460158	255.8	50.5	-80.4	0.0
2025-01-14 18:30:24.705969	257.3	50.5	-80.4	0.0
2025-01-14 18:30:26.952190	258.8	50.5	-80.6	0.0
2025-01-14 18:30:29.197623	260.2	50.6	-80.7	0.0
2025-01-14 18:30:31.440989	261.7	50.5	-80.3	0.0
2025-01-14 18:30:33.686730	263.2	50.5	-80.4	0.0
2025-01-14 18:30:35.930182	264.7	50.5	-80.2	0.0
2025-01-14 18:30:38.174797	266.1	50.4	-80.1	0.0
2025-01-14 18:30:40.418177	267.6	50.3	-80.0	0.0
2025-01-14 18:30:42.665851	269.0	50.2	-80.2	0.0
2025-01-14 18:30:44.911400	270.5	50.1	-80.2	0.0
2025-01-14 18:30:47.159270	271.9	49.9	-80.2	0.0
2025-01-14 18:30:49.403161	273.3	49.8	-80.2	0.0
2025-01-14 18:30:51.648979	274.7	49.6	-80.3	0.0
2025-01-14 18:30:53.896034	276.1	49.4	-80.5	0.0
2025-01-14 18:30:56.143903	277.4	49.2	-80.4	0.0
2025-01-14 18:30:58.393240	278.8	49.0	-80.4	0.0
2025-01-14 18:31:00.636779	280.1	48.7	-80.4	0.0
2025-01-14 18:31:02.880599	281.4	48.5	-80.5	0.0
2025-01-14 18:31:05.127417	282.6	48.2	-80.6	0.0
2025-01-14 18:31:07.375351	283.9	47.9	-80.6	0.0
2025-01-14 18:31:09.622729	285.1	47.6	-80.9	0.0
2025-01-14 18:31:11.872640	286.3	47.3	-80.6	0.0
2025-01-14 18:31:14.120808	287.5	47.0	-80.8	0.0
2025-01-14 18:31:16.370025	288.7	46.7	-80.5	0.0
2025-01-14 18:31:18.618068	289.8	46.3	-80.4	0.0
2025-01-14 18:31:20.864785	290.9	46.0	-81.1	0.0
2025-01-14 18:31:23.108819	292.0	45.6	-80.8	0.0
2025-01-14 18:31:25.353895	293.1	45.3	-80.6	0.0
2025-01-14 18:31:27.602319	294.1	44.9	-80.6	0.0
2025-01-14 18:31:29.848637	295.1	44.5	-81.1	0.0
2025-01-14 18:31:32.096328	296.1	44.1	-81.0	0.0
2025-01-14 18:31:34.345902	297.1	43.8	-80.7	0.0
2025-01-14 18:31:36.591590	298.0	43.4	-80.8	0.0
2025-01-14 18:31:38.837461	298.9	43.0	-80.8	0.0
2025-01-14 18:31:41.086694	299.8	42.6	-80.9	0.0
2025-01-14 18:31:43.332974	300.7	42.2	-81.1	0.0
2025-01-14 18:31:45.577708	301.6	41.8	-80.9	0.0
2025-01-14 18:31:47.826145	302.4	41.4	-81.0	0.0
2025-01-14 18:31:50.067886	303.2	40.9	-81.1	0.0
2025-01-14 18:31:52.315331	304.0	40.5	-80.9	0.0
2025-01-14 18:31:54.562147	304.8	40.1	-81.0	0.0
2025-01-14 18:31:56.808943	305.6	39.7	-81.0	0.0
2025-01-14 18:31:59.060216	306.3	39.3	-80.8	0.0
2025-01-14 18:32:01.303945	307.0	38.9	-81.1	0.0
2025-01-14 18:32:03.549169	307.7	38.5	-80.6	0.0
2025-01-14 18:32:05.799752	308.4	38.1	-80.8	0.0
2025-01-14 18:32:08.045662	309.1	37.7	-80.7	0.0
2025-01-14 18:32:10.292621	309.7	37.2	-80.5	0.0
2025-01-14 18:32:12.538017	310.3	36.8	-80.8	0.0
2025-01-14 18:32:14.786132	311.0	36.4	-80.8	0.0
2025-01-14 18:32:17.031339	311.6	36.0	-81.0	0.0
2025-01-14 18:32:19.279148	312.1	35.6	-81.1	0.0
2025-01-14 18:32:21.524988	312.7	35.2	-80.7	0.0
2025-01-14 18:32:23.772064	313.3	34.8	-81.0	0.0
2025-01-14 18:32:26.017223	313.8	34.4	-81.5	0.0
2025-01-14 18:32:28.264986	314.4	34.0	-81.1	0.0
2025-01-14 18:32:30.511475	314.9	33.6	-81.2	0.0
2025-01-14 18:32:32.757423	315.4	33.2	-81.1	0.0
2025-01-14 18:32:35.000781	315.9	32.8	-81.4	0.0
2025-01-14 18:32:37.248887	316.4	32.5	-81.1	0.0
2025-01-14 18:32:39.492808	316.9	32.1	-81.1	0.0
2025-01-14 18:32:41.739415	317.3	31.7	-81.0	0.0
2025-01-14 18:32:43.985918	317.8	31.3	-81.3	0.0
2025-01-14 18:32:46.231216	318.2	30.9	-81.2	0.0
2025-01-14 18:32:48.477873	318.6	30.6	-81.1	0.0
2025-01-14 18:32:50.724352	319.1	30.2	-81.2	0.0
2025-01-14 18:32:52.969309	319.5	29.8	-81.4	0.0
2025-01-14 18:32:55.218471	319.9	29.5	-81.2	0.0
2025-01-14 18:32:57.463964	320.3	29.1	-81.3	0.0
2025-01-14 18:32:59.708480	320.7	28.8	-80.7	0.0
2025-01-14 18:33:01.955940	321.1	28.4	-81.3	0.0
2025-01-14 18:33:04.202906	321.4	28.1	-80.9	0.0
2025-01-14 18:33:06.448517	321.8	27.7	-80.7	0.0
2025-01-14 18:33:08.693971	322.2	27.4	-81.0	0.0
2025-01-14 18:33:10.939842	322.5	27.0	-81.0	0.0
2025-01-14 18:33:13.184052	322.8	26.7	-80.7	0.0
2025-01-14 18:33:15.434045	323.2	26.4	-81.3	0.0
2025-01-14 18:33:17.682254	323.5	26.0	-81.1	0.0
2025-01-14 18:33:19.928490	323.8	25.7	-81.1	0.0
2025-01-14 18:33:22.173206	324.1	25.4	-81.4	0.0
2025-01-14 18:33:24.417944	324.5	25.1	-81.4	0.0
2025-01-14 18:33:26.664935	324.8	24.8	-81.4	0.0
2025-01-14 18:33:28.913133	325.1	24.4	-81.2	0.0
2025-01-14 18:33:31.160779	325.3	24.1	-81.6	0.0
2025-01-14 18:33:33.407899	325.6	23.8	-81.6	0.0
2025-01-14 18:33:35.654290	325.9	23.5	-81.4	0.0
2025-01-14 18:33:37.898695	326.2	23.2	-81.5	0.0
2025-01-14 18:33:40.143035	326.5	22.9	-81.8	0.0
2025-01-14 18:33:42.390326	326.7	22.6	-81.8	0.0
2025-01-14 18:33:44.634915	327.0	22.3	-81.4	0.0
2025-01-14 18:33:46.883145	327.2	22.0	-81.5	0.0
2025-01-14 18:33:49.129239	327.5	21.7	-81.7	0.0
2025-01-14 18:33:51.377614	327.7	21.5	-81.3	0.0
2025-01-14 18:33:53.623886	328.0	21.2	-81.3	0.0
2025-01-14 18:33:55.866761	328.2	20.9	-81.2	0.0
2025-01-14 18:33:58.115048	328.5	20.6	-81.5	0.0
2025-01-14 18:34:00.359589	328.7	20.3	-81.6	0.0
2025-01-14 18:34:02.605237	328.9	20.1	-81.2	0.0
2025-01-14 18:34:04.852595	329.1	19.8	-81.4	0.0
2025-01-14 18:34:07.096960	329.4	19.5	-81.7	0.0
2025-01-14 18:34:09.345577	329.6	19.3	-81.5	0.0
2025-01-14 18:34:11.589930	329.8	19.0	-81.7	0.0
2025-01-14 18:34:13.837854	330.0	18.8	-81.7	0.0
2025-01-14 18:34:16.087629	330.2	18.5	-81.8	0.0
2025-01-14 18:34:18.333820	330.4	18.2	-81.5	0.0
2025-01-14 18:34:20.582067	330.6	18.0	-81.5	0.0
2025-01-14 18:34:22.830586	330.8	17.7	-81.6	0.0
2025-01-14 18:34:25.075052	331.0	17.5	-81.1	0.0
2025-01-14 18:34:27.323441	331.2	17.2	-81.3	0.0
2025-01-14 18:34:29.564442	331.4	17.0	-81.2	0.0
2025-01-14 18:34:31.812828	331.6	16.8	-81.6	0.0
2025-01-14 18:34:34.060124	331.7	16.5	-81.2	0.0
2025-01-14 18:34:36.311370	331.9	16.3	-81.4	0.0
2025-01-14 18:34:38.557962	332.1	16.0	-81.2	0.0
2025-01-14 18:34:40.803535	332.3	15.8	-81.2	0.0
2025-01-14 18:34:43.050502	332.4	15.6	-81.3	0.0
2025-01-14 18:34:45.296708	332.6	15.4	-81.3	0.0
2025-01-14 18:34:47.541558	332.8	15.1	-81.4	0.0
2025-01-14 18:34:49.788497	332.9	14.9	-81.4	0.0
2025-01-14 18:34:52.035117	333.1	14.7	-81.5	0.0
2025-01-14 18:34:54.281821	333.2	14.5	-81.6	0.0
2025-01-14 18:34:56.526271	333.4	14.2	-81.3	0.0
2025-01-14 18:34:58.772902	333.6	14.0	-81.1	0.0
2025-01-14 18:35:01.019368	333.7	13.8	-81.6	0.0
2025-01-14 18:35:03.266127	333.9	13.6	-81.4	0.0
2025-01-14 18:35:05.512582	334.0	13.4	-81.4	0.0
2025-01-14 18:35:07.757289	334.2	13.2	-81.7	0.0
2025-01-14 18:35:10.005189	334.3	13.0	-81.4	0.0
2025-01-14 18:35:12.252152	334.4	12.7	-81.8	0.0
2025-01-14 18:35:14.498669	334.6	12.5	-81.2	0.0
2025-01-14 18:35:16.741995	334.7	12.3	-81.6	0.0
2025-01-14 18:35:18.987088	334.9	12.1	-81.7	0.0
2025-01-14 18:35:21.232053	335.0	11.9	-81.8	0.0
2025-01-14 18:35:23.478507	335.1	11.7	-81.5	0.0
2025-01-14 18:35:25.725348	335.3	11.5	-81.4	0.0
2025-01-14 18:35:27.971352	335.4	11.3	-81.5	0.0
2025-01-14 18:35:30.218651	335.5	11.1	-81.7	0.0
2025-01-14 18:35:32.459994	335.6	10.9	-81.2	0.0
2025-01-14 18:35:34.707867	335.8	10.8	-81.4	0.0
2025-01-14 18:35:36.953121	335.9	10.6	-81.3	0.0
2025-01-14 18:35:39.199788	336.0	10.4	-81.5	0.0
2025-01-14 18:35:41.445691	336.1	10.2	-81.5	0.0
#Closed at: 2025-01-14 18:25:12.059899