passes_logs/2025/01/14/planumMaritime01/planumMaritime01__20250114_164805_METEOR-M2_3_rec.log

#Pass ID: 20250114_164805_METEOR-M2 3
#Satellite: METEOR-M2 3
#Configuration: METEOR-M2 3
#Start time: 2025-01-14 16:48:10.725267

#LorettStation: 1.0.0 05.05.2024
#Station: planumMaritime01
#Location: 37.49445 lon 55.92918 lat
#TLE: 1 57166U 23091A   25014.12963549  .00000039  00000+0  36217-4 0  9995
#TLE: 2 57166  98.6851  72.6032 0003181 227.3225 132.7686 14.23969043 80642

#Time	Az	El	Level	SNR
2025-01-14 16:48:12.874019	125.5	10.2	-79.7	0.0
2025-01-14 16:48:15.120896	125.3	10.4	-79.8	0.0
2025-01-14 16:48:17.368101	125.1	10.5	-80.3	0.0
2025-01-14 16:48:19.615208	125.0	10.7	-80.1	0.0
2025-01-14 16:48:21.862484	124.8	10.9	-80.1	0.0
2025-01-14 16:48:24.105993	124.6	11.1	-80.2	0.0
2025-01-14 16:48:26.351970	124.4	11.3	-80.0	0.0
2025-01-14 16:48:28.597043	124.3	11.5	-80.1	0.0
2025-01-14 16:48:30.845373	124.1	11.7	-79.7	0.0
2025-01-14 16:48:33.089525	123.9	11.9	-80.1	0.0
2025-01-14 16:48:35.338663	123.7	12.1	-80.3	0.0
2025-01-14 16:48:37.582690	123.5	12.2	-80.8	0.0
2025-01-14 16:48:39.830886	123.3	12.4	-80.5	0.0
2025-01-14 16:48:42.076592	123.1	12.6	-80.9	0.0
2025-01-14 16:48:44.323412	122.9	12.8	-80.7	0.0
2025-01-14 16:48:46.570108	122.7	13.0	-80.0	0.0
2025-01-14 16:48:48.815793	122.5	13.2	-79.4	0.0
2025-01-14 16:48:51.062022	122.3	13.4	-80.2	0.0
2025-01-14 16:48:53.307798	122.1	13.6	-80.0	0.0
2025-01-14 16:48:55.552917	121.9	13.8	-80.5	0.0
2025-01-14 16:48:57.801835	121.7	14.1	-80.7	0.0
2025-01-14 16:49:00.052263	121.5	14.3	-80.5	0.0
2025-01-14 16:49:02.299831	121.2	14.5	-80.2	0.0
2025-01-14 16:49:04.545282	121.0	14.7	-79.7	0.0
2025-01-14 16:49:06.789592	120.8	14.9	-80.2	0.0
2025-01-14 16:49:09.038143	120.6	15.1	-80.7	0.0
2025-01-14 16:49:11.282379	120.3	15.3	-80.0	0.0
2025-01-14 16:49:13.529066	120.1	15.5	-80.4	0.0
2025-01-14 16:49:15.776492	119.9	15.8	-80.0	0.0
2025-01-14 16:49:18.022587	119.6	16.0	-80.2	0.0
2025-01-14 16:49:20.268679	119.4	16.2	-79.3	0.0
2025-01-14 16:49:22.514115	119.1	16.4	-80.3	0.0
2025-01-14 16:49:24.761093	118.8	16.6	-80.0	0.0
2025-01-14 16:49:27.010664	118.6	16.9	-79.5	0.0
2025-01-14 16:49:29.261718	118.3	17.1	-80.0	0.0
2025-01-14 16:49:31.508870	118.1	17.3	-79.9	0.0
2025-01-14 16:49:33.753719	117.8	17.6	-80.1	0.0
2025-01-14 16:49:35.999989	117.5	17.8	-80.0	0.0
2025-01-14 16:49:38.247858	117.2	18.0	-80.2	0.0
2025-01-14 16:49:40.495601	116.9	18.2	-80.4	0.0
2025-01-14 16:49:42.738659	116.6	18.5	-80.1	0.0
2025-01-14 16:49:44.987740	116.4	18.7	-79.8	0.0
2025-01-14 16:49:47.234321	116.1	19.0	-79.9	0.0
2025-01-14 16:49:49.480250	115.8	19.2	-80.1	0.0
2025-01-14 16:49:51.724615	115.4	19.4	-80.0	0.0
2025-01-14 16:49:53.969051	115.1	19.7	-80.0	0.0
2025-01-14 16:49:56.218192	114.8	19.9	-79.5	0.0
2025-01-14 16:49:58.464587	114.5	20.2	-79.8	0.0
2025-01-14 16:50:00.710231	114.2	20.4	-79.9	0.0
2025-01-14 16:50:02.960890	113.8	20.7	-80.2	0.0
2025-01-14 16:50:05.207174	113.5	20.9	-79.9	0.0
2025-01-14 16:50:07.453877	113.1	21.2	-79.6	0.0
2025-01-14 16:50:09.703032	112.8	21.4	-80.4	0.0
2025-01-14 16:50:11.948834	112.4	21.7	-80.5	0.0
2025-01-14 16:50:14.191938	112.1	21.9	-80.2	0.0
2025-01-14 16:50:16.438082	111.7	22.2	-80.0	0.0
2025-01-14 16:50:18.685562	111.3	22.4	-80.2	0.0
2025-01-14 16:50:20.933175	110.9	22.7	-80.2	0.0
2025-01-14 16:50:23.176340	110.5	23.0	-80.5	0.0
2025-01-14 16:50:25.423879	110.1	23.2	-80.1	0.0
2025-01-14 16:50:27.667460	109.7	23.5	-80.3	0.0
2025-01-14 16:50:29.912721	109.3	23.8	-80.5	0.0
2025-01-14 16:50:32.158794	108.9	24.0	-80.5	0.0
2025-01-14 16:50:34.406068	108.5	24.3	-80.5	0.0
2025-01-14 16:50:36.652882	108.0	24.6	-80.0	0.0
2025-01-14 16:50:38.896777	107.6	24.8	-80.5	0.0
2025-01-14 16:50:41.138603	107.2	25.1	-80.4	0.0
2025-01-14 16:50:43.382796	106.7	25.4	-80.6	0.0
2025-01-14 16:50:45.631770	106.2	25.6	-80.6	0.0
2025-01-14 16:50:47.876188	105.8	25.9	-80.2	0.0
2025-01-14 16:50:50.125536	105.3	26.2	-80.9	0.0
2025-01-14 16:50:52.368967	104.8	26.4	-81.0	0.0
2025-01-14 16:50:54.614839	104.3	26.7	-81.1	0.0
2025-01-14 16:50:56.860792	103.8	27.0	-80.5	0.0
2025-01-14 16:50:59.106014	103.3	27.3	-80.4	0.0
2025-01-14 16:51:01.352648	102.8	27.5	-80.6	0.0
2025-01-14 16:51:03.598136	102.2	27.8	-81.1	0.0
2025-01-14 16:51:05.843150	101.7	28.1	-81.0	0.0
2025-01-14 16:51:08.088232	101.1	28.4	-80.8	0.0
2025-01-14 16:51:10.338188	100.6	28.6	-80.8	0.0
2025-01-14 16:51:12.583623	100.0	28.9	-80.6	0.0
2025-01-14 16:51:14.832276	99.4	29.2	-80.6	0.0
2025-01-14 16:51:17.078482	98.8	29.5	-80.6	0.0
2025-01-14 16:51:19.324883	98.3	29.7	-80.1	0.0
2025-01-14 16:51:21.572760	97.6	30.0	-80.9	0.0
2025-01-14 16:51:23.822780	97.0	30.3	-80.6	0.0
2025-01-14 16:51:26.068022	96.4	30.5	-80.8	0.0
2025-01-14 16:51:28.311935	95.7	30.8	-80.7	0.0
2025-01-14 16:51:30.559400	95.1	31.1	-80.9	0.0
2025-01-14 16:51:32.807525	94.4	31.3	-80.6	0.0
2025-01-14 16:51:35.051759	93.8	31.6	-80.9	0.0
2025-01-14 16:51:37.299505	93.1	31.8	-80.9	0.0
2025-01-14 16:51:39.547201	92.4	32.1	-80.4	0.0
2025-01-14 16:51:41.789375	91.7	32.4	-80.5	0.0
2025-01-14 16:51:44.034080	91.0	32.6	-80.5	0.0
2025-01-14 16:51:46.277445	90.2	32.8	-80.9	0.0
2025-01-14 16:51:48.522636	89.5	33.1	-80.2	0.0
2025-01-14 16:51:50.771376	88.7	33.3	-80.9	0.0
2025-01-14 16:51:53.017426	88.0	33.6	-80.8	0.0
2025-01-14 16:51:55.265200	87.2	33.8	-80.4	0.0
2025-01-14 16:51:57.514034	86.4	34.0	-80.7	0.0
2025-01-14 16:51:59.757990	85.6	34.3	-80.1	0.0
2025-01-14 16:52:02.003110	84.8	34.5	-80.7	0.0
2025-01-14 16:52:04.249355	84.0	34.7	-80.6	0.0
2025-01-14 16:52:06.495991	83.2	34.9	-80.6	0.0
2025-01-14 16:52:08.744878	82.3	35.1	-80.6	0.0
2025-01-14 16:52:10.987959	81.5	35.3	-80.2	0.0
2025-01-14 16:52:13.233681	80.6	35.5	-80.8	0.0
2025-01-14 16:52:15.480013	79.8	35.7	-80.6	0.0
2025-01-14 16:52:17.725492	78.9	35.8	-80.6	0.0
2025-01-14 16:52:19.970867	78.0	36.0	-80.9	0.0
2025-01-14 16:52:22.218732	77.1	36.2	-80.2	0.0
2025-01-14 16:52:24.471285	76.2	36.3	-80.3	0.0
2025-01-14 16:52:26.715683	75.3	36.5	-80.4	0.0
2025-01-14 16:52:28.960991	74.4	36.6	-80.5	0.0
2025-01-14 16:52:31.208618	73.4	36.8	-80.2	0.0
2025-01-14 16:52:33.452138	72.5	36.9	-80.4	0.0
2025-01-14 16:52:35.697712	71.5	37.0	-80.9	0.0
2025-01-14 16:52:37.942018	70.6	37.1	-80.9	0.0
2025-01-14 16:52:40.189032	69.6	37.2	-80.5	0.0
2025-01-14 16:52:42.438324	68.7	37.3	-81.2	0.0
2025-01-14 16:52:44.686270	67.7	37.4	-80.8	0.0
2025-01-14 16:52:46.933501	66.7	37.5	-80.9	0.0
2025-01-14 16:52:49.178685	65.8	37.5	-80.6	0.0
2025-01-14 16:52:51.422417	64.8	37.6	-80.9	0.0
2025-01-14 16:52:53.669783	63.8	37.6	-80.5	0.0
2025-01-14 16:52:55.915704	62.8	37.7	-80.7	0.0
2025-01-14 16:52:58.162065	61.8	37.7	-80.4	0.0
2025-01-14 16:53:00.407573	60.8	37.7	-80.5	0.0
2025-01-14 16:53:02.651710	59.8	37.7	-80.9	0.0
2025-01-14 16:53:04.898414	58.9	37.7	-80.8	0.0
2025-01-14 16:53:07.143816	57.9	37.7	-80.9	0.0
2025-01-14 16:53:09.387686	56.9	37.7	-80.8	0.0
2025-01-14 16:53:11.631024	55.9	37.6	-81.0	0.0
2025-01-14 16:53:13.876949	54.9	37.6	-81.1	0.0
2025-01-14 16:53:16.121981	53.9	37.5	-81.3	0.0
2025-01-14 16:53:18.366838	53.0	37.5	-81.3	0.0
2025-01-14 16:53:20.614267	52.0	37.4	-81.5	0.0
2025-01-14 16:53:22.861147	51.0	37.3	-81.2	0.0
2025-01-14 16:53:25.107503	50.0	37.2	-80.8	0.0
2025-01-14 16:53:27.353811	49.1	37.1	-81.0	0.0
2025-01-14 16:53:29.598636	48.1	37.0	-80.7	0.0
2025-01-14 16:53:31.845513	47.2	36.9	-80.9	0.0
2025-01-14 16:53:34.090789	46.3	36.8	-80.7	0.0
2025-01-14 16:53:36.338629	45.3	36.7	-80.9	0.0
2025-01-14 16:53:38.584823	44.4	36.5	-80.7	0.0
2025-01-14 16:53:40.831820	43.5	36.4	-80.3	0.0
2025-01-14 16:53:43.074562	42.6	36.2	-81.1	0.0
2025-01-14 16:53:45.320763	41.7	36.1	-81.0	0.0
2025-01-14 16:53:47.571959	40.8	35.9	-81.0	0.0
2025-01-14 16:53:49.819437	39.9	35.7	-81.2	0.0
2025-01-14 16:53:52.062749	39.0	35.5	-81.1	0.0
2025-01-14 16:53:54.309146	38.2	35.4	-80.9	0.0
2025-01-14 16:53:56.555376	37.3	35.2	-80.8	0.0
2025-01-14 16:53:58.800959	36.5	35.0	-80.5	0.0
2025-01-14 16:54:01.048291	35.7	34.8	-81.1	0.0
2025-01-14 16:54:03.291929	34.8	34.5	-80.9	0.0
2025-01-14 16:54:05.539790	34.0	34.3	-81.1	0.0
2025-01-14 16:54:07.783997	33.2	34.1	-80.6	0.0
2025-01-14 16:54:10.034242	32.5	33.9	-81.0	0.0
2025-01-14 16:54:12.279162	31.7	33.7	-81.4	0.0
2025-01-14 16:54:14.525781	30.9	33.4	-80.8	0.0
2025-01-14 16:54:16.772688	30.2	33.2	-80.8	0.0
2025-01-14 16:54:19.016374	29.4	32.9	-81.3	0.0
2025-01-14 16:54:21.261567	28.7	32.7	-81.2	0.0
2025-01-14 16:54:23.508315	28.0	32.4	-81.0	0.0
2025-01-14 16:54:25.755820	27.3	32.2	-81.3	0.0
2025-01-14 16:54:28.002923	26.6	31.9	-80.9	0.0
2025-01-14 16:54:30.254100	25.9	31.7	-81.1	0.0
2025-01-14 16:54:32.502097	25.2	31.4	-80.4	0.0
2025-01-14 16:54:34.746843	24.6	31.2	-81.1	0.0
2025-01-14 16:54:36.995773	23.9	30.9	-80.7	0.0
2025-01-14 16:54:39.239137	23.3	30.6	-81.1	0.0
2025-01-14 16:54:41.483167	22.6	30.4	-80.5	0.0
2025-01-14 16:54:43.732185	22.0	30.1	-80.8	0.0
2025-01-14 16:54:45.975127	21.4	29.8	-80.6	0.0
2025-01-14 16:54:48.218582	20.8	29.6	-80.7	0.0
2025-01-14 16:54:50.462846	20.2	29.3	-81.1	0.0
2025-01-14 16:54:52.707077	19.6	29.0	-80.8	0.0
2025-01-14 16:54:54.953517	19.1	28.8	-81.2	0.0
2025-01-14 16:54:57.199971	18.5	28.5	-80.7	0.0
2025-01-14 16:54:59.446178	17.9	28.2	-81.5	0.0
2025-01-14 16:55:01.691639	17.4	27.9	-81.0	0.0
2025-01-14 16:55:03.936218	16.9	27.7	-81.4	0.0
2025-01-14 16:55:06.181547	16.3	27.4	-81.0	0.0
2025-01-14 16:55:08.429355	15.8	27.1	-80.9	0.0
2025-01-14 16:55:10.676236	15.3	26.9	-81.3	0.0
2025-01-14 16:55:12.922421	14.8	26.6	-80.8	0.0
2025-01-14 16:55:15.171038	14.3	26.3	-81.3	0.0
2025-01-14 16:55:17.418159	13.9	26.0	-81.1	0.0
2025-01-14 16:55:19.661429	13.4	25.8	-80.8	0.0
2025-01-14 16:55:21.907321	12.9	25.5	-81.1	0.0
2025-01-14 16:55:24.156703	12.5	25.2	-81.4	0.0
2025-01-14 16:55:26.404095	12.0	25.0	-80.9	0.0
2025-01-14 16:55:28.647856	11.6	24.7	-81.3	0.0
2025-01-14 16:55:30.892111	11.2	24.4	-81.3	0.0
2025-01-14 16:55:33.136783	10.7	24.2	-81.5	0.0
2025-01-14 16:55:35.381661	10.3	23.9	-81.6	0.0
2025-01-14 16:55:37.628856	9.9	23.6	-81.2	0.0
2025-01-14 16:55:39.879682	9.5	23.4	-81.2	0.0
2025-01-14 16:55:42.125125	9.1	23.1	-81.4	0.0
2025-01-14 16:55:44.371694	8.7	22.8	-81.6	0.0
2025-01-14 16:55:46.616546	8.3	22.6	-81.2	0.0
2025-01-14 16:55:48.865218	8.0	22.3	-81.5	0.0
2025-01-14 16:55:51.108063	7.6	22.1	-81.2	0.0
2025-01-14 16:55:53.353880	7.2	21.8	-81.3	0.0
2025-01-14 16:55:55.599014	6.9	21.6	-81.5	0.0
2025-01-14 16:55:57.845706	6.5	21.3	-81.1	0.0
2025-01-14 16:56:00.090465	6.2	21.1	-81.0	0.0
2025-01-14 16:56:02.337848	5.8	20.8	-80.7	0.0
2025-01-14 16:56:04.582256	5.5	20.6	-81.0	0.0
2025-01-14 16:56:06.831138	5.2	20.3	-81.1	0.0
2025-01-14 16:56:09.077025	4.8	20.1	-80.9	0.0
2025-01-14 16:56:11.325685	4.5	19.8	-81.2	0.0
2025-01-14 16:56:13.571898	4.2	19.6	-81.1	0.0
2025-01-14 16:56:15.821915	3.9	19.3	-81.4	0.0
2025-01-14 16:56:18.067488	3.6	19.1	-81.2	0.0
2025-01-14 16:56:20.314959	3.3	18.9	-81.0	0.0
2025-01-14 16:56:22.561898	3.0	18.6	-81.2	0.0
2025-01-14 16:56:24.805461	2.7	18.4	-81.1	0.0
2025-01-14 16:56:27.053319	2.4	18.2	-81.5	0.0
2025-01-14 16:56:29.299129	2.1	17.9	-80.5	0.0
2025-01-14 16:56:31.544407	1.9	17.7	-81.0	0.0
2025-01-14 16:56:33.790040	1.6	17.5	-81.4	0.0
2025-01-14 16:56:36.035878	1.3	17.2	-81.0	0.0
2025-01-14 16:56:38.280242	1.1	17.0	-80.7	0.0
2025-01-14 16:56:40.525137	0.8	16.8	-81.1	0.0
2025-01-14 16:56:42.767768	0.5	16.6	-81.1	0.0
2025-01-14 16:56:45.013313	0.3	16.4	-81.4	0.0
2025-01-14 16:56:47.259017	0.0	16.1	-81.6	0.0
2025-01-14 16:56:49.503429	359.8	15.9	-81.0	0.0
2025-01-14 16:56:51.749308	359.6	15.7	-81.3	0.0
2025-01-14 16:56:53.996843	359.3	15.5	-81.5	0.0
2025-01-14 16:56:56.243374	359.1	15.3	-81.2	0.0
2025-01-14 16:56:58.489440	358.9	15.1	-81.2	0.0
2025-01-14 16:57:00.735996	358.6	14.8	-81.6	0.0
2025-01-14 16:57:02.981434	358.4	14.6	-81.3	0.0
2025-01-14 16:57:05.226831	358.2	14.4	-81.4	0.0
2025-01-14 16:57:07.469788	358.0	14.2	-81.3	0.0
2025-01-14 16:57:09.714522	357.8	14.0	-81.3	0.0
2025-01-14 16:57:11.962678	357.5	13.8	-81.3	0.0
2025-01-14 16:57:14.207074	357.3	13.6	-81.0	0.0
2025-01-14 16:57:16.454266	357.1	13.4	-81.5	0.0
2025-01-14 16:57:18.699552	356.9	13.2	-81.0	0.0
2025-01-14 16:57:20.944296	356.7	13.0	-81.5	0.0
2025-01-14 16:57:23.190745	356.5	12.8	-81.4	0.0
2025-01-14 16:57:25.434314	356.3	12.6	-81.4	0.0
2025-01-14 16:57:27.677257	356.2	12.4	-81.6	0.0
2025-01-14 16:57:29.923560	356.0	12.2	-81.5	0.0
2025-01-14 16:57:32.168818	355.8	12.0	-81.5	0.0
2025-01-14 16:57:34.413679	355.6	11.8	-81.5	0.0
2025-01-14 16:57:36.660455	355.4	11.6	-81.4	0.0
2025-01-14 16:57:38.907219	355.2	11.5	-81.5	0.0
2025-01-14 16:57:41.150301	355.1	11.3	-81.6	0.0
2025-01-14 16:57:43.396692	354.9	11.1	-80.7	0.0
2025-01-14 16:57:45.643165	354.7	10.9	-81.4	0.0
2025-01-14 16:57:47.888568	354.6	10.7	-81.4	0.0
2025-01-14 16:57:50.137150	354.4	10.5	-81.5	0.0
2025-01-14 16:57:52.382871	354.2	10.3	-81.4	0.0
2025-01-14 16:57:54.626413	354.1	10.2	-81.1	0.0
#Closed at: 2025-01-14 16:48:05.727953