passes_logs/2025/01/14/planumMaritime01/planumMaritime01__20250114_155202_NOAA_19_rec.log

#Pass ID: 20250114_155202_NOAA 19
#Satellite: NOAA 19
#Configuration: NOAA 19
#Start time: 2025-01-14 15:52:07.493437

#LorettStation: 1.0.0 05.05.2024
#Station: planumMaritime01
#Location: 37.49445 lon 55.92918 lat
#TLE: 1 33591U 09005A   25014.15453959  .00000276  00000+0  17122-3 0  9998
#TLE: 2 33591  99.0198  77.9105 0014501  59.8090 300.4516 14.13258688821422

#Time	Az	El	Level	SNR
2025-01-14 15:52:09.663455	75.9	10.1	-79.9	0.0
2025-01-14 15:52:10.788063	75.7	10.2	-79.6	0.0
2025-01-14 15:52:11.912708	75.5	10.2	-79.5	0.0
2025-01-14 15:52:13.038579	75.4	10.3	-79.4	0.0
2025-01-14 15:52:14.162404	75.2	10.3	-79.6	0.0
2025-01-14 15:52:15.287089	75.0	10.4	-79.6	0.0
2025-01-14 15:52:16.413746	74.9	10.4	-79.0	0.0
2025-01-14 15:52:17.540139	74.7	10.5	-79.4	0.0
2025-01-14 15:52:18.666646	74.5	10.5	-79.5	0.0
2025-01-14 15:52:19.792879	74.4	10.6	-79.4	0.0
2025-01-14 15:52:20.919362	74.2	10.6	-79.1	0.0
2025-01-14 15:52:22.045474	74.0	10.7	-79.4	0.0
2025-01-14 15:52:23.171641	73.8	10.7	-79.4	0.0
2025-01-14 15:52:24.297727	73.7	10.8	-79.2	0.0
2025-01-14 15:52:25.423750	73.5	10.9	-79.5	0.0
2025-01-14 15:52:26.549462	73.3	10.9	-79.7	0.0
2025-01-14 15:52:27.674925	73.1	11.0	-79.5	0.0
2025-01-14 15:52:28.800317	72.9	11.0	-79.3	0.0
2025-01-14 15:52:29.927507	72.8	11.1	-79.7	0.0
2025-01-14 15:52:31.053786	72.6	11.1	-80.3	0.0
2025-01-14 15:52:32.178415	72.4	11.2	-80.0	0.0
2025-01-14 15:52:33.303014	72.2	11.2	-79.4	0.0
2025-01-14 15:52:34.428454	72.0	11.3	-80.3	0.0
2025-01-14 15:52:35.555091	71.9	11.3	-79.7	0.0
2025-01-14 15:52:36.680382	71.7	11.4	-79.6	0.0
2025-01-14 15:52:37.805930	71.5	11.4	-79.7	0.0
2025-01-14 15:52:38.931849	71.3	11.5	-80.1	0.0
2025-01-14 15:52:40.060347	71.1	11.5	-80.2	0.0
2025-01-14 15:52:41.185188	70.9	11.6	-79.1	0.0
2025-01-14 15:52:42.310368	70.8	11.6	-79.4	0.0
2025-01-14 15:52:43.435885	70.6	11.7	-80.3	0.0
2025-01-14 15:52:44.561203	70.4	11.7	-80.0	0.0
2025-01-14 15:52:45.686561	70.2	11.8	-79.8	0.0
2025-01-14 15:52:46.811626	70.0	11.8	-80.0	0.0
2025-01-14 15:52:47.936582	69.8	11.9	-80.3	0.0
2025-01-14 15:52:49.061956	69.6	11.9	-80.3	0.0
2025-01-14 15:52:50.187478	69.4	12.0	-80.1	0.0
2025-01-14 15:52:51.313615	69.3	12.0	-80.5	0.0
2025-01-14 15:52:52.438446	69.1	12.1	-80.2	0.0
2025-01-14 15:52:53.564787	68.9	12.1	-79.9	0.0
2025-01-14 15:52:54.691339	68.7	12.2	-80.0	0.0
2025-01-14 15:52:55.814946	68.5	12.2	-80.0	0.0
2025-01-14 15:52:56.939515	68.3	12.2	-79.8	0.0
2025-01-14 15:52:58.066592	68.1	12.3	-80.3	0.0
2025-01-14 15:52:59.193701	67.9	12.3	-80.2	0.0
2025-01-14 15:53:00.319368	67.7	12.4	-80.2	0.0
2025-01-14 15:53:01.443672	67.5	12.4	-80.2	0.0
2025-01-14 15:53:02.569422	67.3	12.5	-80.6	0.0
2025-01-14 15:53:03.694180	67.1	12.5	-80.5	0.0
2025-01-14 15:53:04.820120	66.9	12.6	-79.9	0.0
2025-01-14 15:53:05.947132	66.7	12.6	-80.2	0.0
2025-01-14 15:53:07.074799	66.5	12.7	-80.4	0.0
2025-01-14 15:53:08.201338	66.3	12.7	-80.2	0.0
2025-01-14 15:53:09.326674	66.1	12.7	-80.7	0.0
2025-01-14 15:53:10.452251	65.9	12.8	-80.6	0.0
2025-01-14 15:53:11.577522	65.7	12.8	-80.2	0.0
2025-01-14 15:53:12.702595	65.5	12.9	-80.3	0.0
2025-01-14 15:53:13.828909	65.3	12.9	-80.5	0.0
2025-01-14 15:53:14.953501	65.1	13.0	-80.7	0.0
2025-01-14 15:53:16.078687	64.9	13.0	-80.6	0.0
2025-01-14 15:53:17.203973	64.7	13.1	-80.4	0.0
2025-01-14 15:53:18.329458	64.5	13.1	-80.7	0.0
2025-01-14 15:53:19.453704	64.3	13.1	-80.3	0.0
2025-01-14 15:53:20.580569	64.1	13.2	-80.8	0.0
2025-01-14 15:53:21.704968	63.9	13.2	-80.1	0.0
2025-01-14 15:53:22.831852	63.7	13.3	-80.3	0.0
2025-01-14 15:53:23.957831	63.5	13.3	-80.7	0.0
2025-01-14 15:53:25.083785	63.3	13.3	-80.2	0.0
2025-01-14 15:53:26.209645	63.0	13.4	-80.5	0.0
2025-01-14 15:53:27.333752	62.8	13.4	-80.6	0.0
2025-01-14 15:53:28.459471	62.6	13.5	-80.5	0.0
2025-01-14 15:53:29.584241	62.4	13.5	-80.2	0.0
2025-01-14 15:53:30.711328	62.2	13.5	-80.2	0.0
2025-01-14 15:53:31.839571	62.0	13.6	-80.5	0.0
2025-01-14 15:53:32.964619	61.8	13.6	-80.2	0.0
2025-01-14 15:53:34.090153	61.6	13.7	-80.6	0.0
2025-01-14 15:53:35.218834	61.4	13.7	-80.3	0.0
2025-01-14 15:53:36.345244	61.1	13.7	-80.4	0.0
2025-01-14 15:53:37.470508	60.9	13.8	-80.3	0.0
2025-01-14 15:53:38.595344	60.7	13.8	-80.3	0.0
2025-01-14 15:53:39.721918	60.5	13.8	-80.7	0.0
2025-01-14 15:53:40.847450	60.3	13.9	-80.5	0.0
2025-01-14 15:53:41.971926	60.1	13.9	-80.4	0.0
2025-01-14 15:53:43.099145	59.8	13.9	-79.7	0.0
2025-01-14 15:53:44.221580	59.6	14.0	-79.8	0.0
2025-01-14 15:53:45.347396	59.4	14.0	-80.3	0.0
2025-01-14 15:53:46.473504	59.2	14.0	-80.2	0.0
2025-01-14 15:53:47.598222	59.0	14.1	-80.4	0.0
2025-01-14 15:53:48.722078	58.8	14.1	-80.3	0.0
2025-01-14 15:53:49.846667	58.5	14.1	-80.2	0.0
2025-01-14 15:53:50.970804	58.3	14.2	-80.4	0.0
2025-01-14 15:53:52.095283	58.1	14.2	-80.4	0.0
2025-01-14 15:53:53.221787	57.9	14.2	-80.1	0.0
2025-01-14 15:53:54.349222	57.6	14.3	-80.2	0.0
2025-01-14 15:53:55.474889	57.4	14.3	-80.1	0.0
2025-01-14 15:53:56.602054	57.2	14.3	-80.4	0.0
2025-01-14 15:53:57.726621	57.0	14.4	-80.5	0.0
2025-01-14 15:53:58.851012	56.8	14.4	-79.7	0.0
2025-01-14 15:53:59.976885	56.5	14.4	-80.1	0.0
2025-01-14 15:54:01.102585	56.3	14.4	-80.1	0.0
2025-01-14 15:54:02.228072	56.1	14.5	-80.1	0.0
2025-01-14 15:54:03.354910	55.9	14.5	-80.4	0.0
2025-01-14 15:54:04.480581	55.6	14.5	-79.8	0.0
2025-01-14 15:54:05.608931	55.4	14.6	-79.8	0.0
2025-01-14 15:54:06.734221	55.2	14.6	-79.9	0.0
2025-01-14 15:54:07.859259	54.9	14.6	-79.5	0.0
2025-01-14 15:54:08.985531	54.7	14.6	-79.9	0.0
2025-01-14 15:54:10.111650	54.5	14.7	-79.6	0.0
2025-01-14 15:54:11.237482	54.3	14.7	-79.8	0.0
2025-01-14 15:54:12.361588	54.0	14.7	-80.3	0.0
2025-01-14 15:54:13.486584	53.8	14.7	-79.4	0.0
2025-01-14 15:54:14.611896	53.6	14.8	-79.8	0.0
2025-01-14 15:54:15.736388	53.3	14.8	-79.4	0.0
2025-01-14 15:54:16.861541	53.1	14.8	-79.8	0.0
2025-01-14 15:54:17.986672	52.9	14.8	-79.5	0.0
2025-01-14 15:54:19.112375	52.7	14.9	-79.9	0.0
2025-01-14 15:54:20.239235	52.4	14.9	-79.9	0.0
2025-01-14 15:54:21.365355	52.2	14.9	-79.3	0.0
2025-01-14 15:54:22.490862	52.0	14.9	-80.1	0.0
2025-01-14 15:54:23.615851	51.7	14.9	-79.4	0.0
2025-01-14 15:54:24.741468	51.5	15.0	-80.0	0.0
2025-01-14 15:54:25.866448	51.3	15.0	-80.1	0.0
2025-01-14 15:54:26.992726	51.0	15.0	-79.9	0.0
2025-01-14 15:54:28.117143	50.8	15.0	-79.6	0.0
2025-01-14 15:54:29.243419	50.6	15.0	-80.5	0.0
2025-01-14 15:54:30.369161	50.3	15.0	-80.1	0.0
2025-01-14 15:54:31.497013	50.1	15.1	-80.3	0.0
2025-01-14 15:54:32.623756	49.9	15.1	-79.5	0.0
2025-01-14 15:54:33.749314	49.6	15.1	-79.9	0.0
2025-01-14 15:54:34.875933	49.4	15.1	-79.6	0.0
2025-01-14 15:54:36.002851	49.2	15.1	-79.7	0.0
2025-01-14 15:54:37.126747	48.9	15.1	-80.4	0.0
2025-01-14 15:54:38.253672	48.7	15.2	-79.6	0.0
2025-01-14 15:54:39.380638	48.4	15.2	-80.6	0.0
2025-01-14 15:54:40.505568	48.2	15.2	-80.6	0.0
2025-01-14 15:54:41.630529	48.0	15.2	-80.3	0.0
2025-01-14 15:54:42.757059	47.7	15.2	-80.0	0.0
2025-01-14 15:54:43.881654	47.5	15.2	-80.6	0.0
2025-01-14 15:54:45.006717	47.3	15.2	-79.6	0.0
2025-01-14 15:54:46.130618	47.0	15.2	-80.1	0.0
2025-01-14 15:54:47.255511	46.8	15.3	-80.6	0.0
2025-01-14 15:54:48.379912	46.6	15.3	-80.4	0.0
2025-01-14 15:54:49.504676	46.3	15.3	-80.2	0.0
2025-01-14 15:54:50.633995	46.1	15.3	-80.1	0.0
2025-01-14 15:54:51.758380	45.8	15.3	-80.7	0.0
2025-01-14 15:54:52.885367	45.6	15.3	-80.0	0.0
2025-01-14 15:54:54.011102	45.4	15.3	-80.6	0.0
2025-01-14 15:54:55.138457	45.1	15.3	-80.6	0.0
2025-01-14 15:54:56.264841	44.9	15.3	-79.9	0.0
2025-01-14 15:54:57.388820	44.6	15.3	-80.7	0.0
2025-01-14 15:54:58.514591	44.4	15.3	-81.0	0.0
2025-01-14 15:54:59.639948	44.2	15.3	-80.5	0.0
2025-01-14 15:55:00.765898	43.9	15.3	-80.3	0.0
2025-01-14 15:55:01.892584	43.7	15.3	-80.0	0.0
2025-01-14 15:55:03.017926	43.5	15.3	-80.6	0.0
2025-01-14 15:55:04.142442	43.2	15.3	-80.7	0.0
2025-01-14 15:55:05.268463	43.0	15.3	-80.3	0.0
2025-01-14 15:55:06.393535	42.7	15.4	-80.7	0.0
2025-01-14 15:55:07.519003	42.5	15.4	-80.7	0.0
2025-01-14 15:55:08.644124	42.3	15.4	-80.3	0.0
2025-01-14 15:55:09.770541	42.0	15.4	-80.8	0.0
2025-01-14 15:55:10.895934	41.8	15.4	-80.5	0.0
2025-01-14 15:55:12.022949	41.5	15.4	-80.6	0.0
2025-01-14 15:55:13.148003	41.3	15.4	-80.7	0.0
2025-01-14 15:55:14.275427	41.1	15.3	-80.9	0.0
2025-01-14 15:55:15.401726	40.8	15.3	-80.7	0.0
2025-01-14 15:55:16.527435	40.6	15.3	-80.5	0.0
2025-01-14 15:55:17.652388	40.4	15.3	-81.1	0.0
2025-01-14 15:55:18.777527	40.1	15.3	-80.7	0.0
2025-01-14 15:55:19.903597	39.9	15.3	-80.5	0.0
2025-01-14 15:55:21.029826	39.6	15.3	-80.5	0.0
2025-01-14 15:55:22.155927	39.4	15.3	-80.5	0.0
2025-01-14 15:55:23.282624	39.2	15.3	-81.1	0.0
2025-01-14 15:55:24.407596	38.9	15.3	-80.6	0.0
2025-01-14 15:55:25.533154	38.7	15.3	-80.4	0.0
2025-01-14 15:55:26.658240	38.4	15.3	-80.4	0.0
2025-01-14 15:55:27.784166	38.2	15.3	-80.7	0.0
2025-01-14 15:55:28.909838	38.0	15.3	-81.1	0.0
2025-01-14 15:55:30.034407	37.7	15.3	-80.8	0.0
2025-01-14 15:55:31.159075	37.5	15.3	-80.8	0.0
2025-01-14 15:55:32.284639	37.3	15.3	-80.8	0.0
2025-01-14 15:55:33.408869	37.0	15.2	-81.0	0.0
2025-01-14 15:55:34.533775	36.8	15.2	-80.9	0.0
2025-01-14 15:55:35.657373	36.5	15.2	-81.1	0.0
2025-01-14 15:55:36.783862	36.3	15.2	-80.9	0.0
2025-01-14 15:55:37.909971	36.1	15.2	-81.1	0.0
2025-01-14 15:55:39.034583	35.8	15.2	-80.5	0.0
2025-01-14 15:55:40.162500	35.6	15.2	-80.6	0.0
2025-01-14 15:55:41.289062	35.4	15.2	-80.7	0.0
2025-01-14 15:55:42.413360	35.1	15.1	-81.2	0.0
2025-01-14 15:55:43.536867	34.9	15.1	-81.1	0.0
2025-01-14 15:55:44.663564	34.7	15.1	-80.8	0.0
2025-01-14 15:55:45.790910	34.4	15.1	-80.3	0.0
2025-01-14 15:55:46.916429	34.2	15.1	-80.8	0.0
2025-01-14 15:55:48.041051	34.0	15.1	-80.7	0.0
2025-01-14 15:55:49.167344	33.7	15.0	-80.4	0.0
2025-01-14 15:55:50.295117	33.5	15.0	-80.8	0.0
2025-01-14 15:55:51.421792	33.3	15.0	-80.8	0.0
2025-01-14 15:55:52.548075	33.0	15.0	-81.0	0.0
2025-01-14 15:55:53.673864	32.8	15.0	-80.6	0.0
2025-01-14 15:55:54.798427	32.6	15.0	-80.4	0.0
2025-01-14 15:55:55.925486	32.3	14.9	-80.4	0.0
2025-01-14 15:55:57.051625	32.1	14.9	-80.0	0.0
2025-01-14 15:55:58.178361	31.9	14.9	-80.8	0.0
2025-01-14 15:55:59.304459	31.6	14.9	-80.3	0.0
2025-01-14 15:56:00.430035	31.4	14.9	-80.2	0.0
2025-01-14 15:56:01.555408	31.2	14.8	-80.4	0.0
2025-01-14 15:56:02.680992	30.9	14.8	-80.8	0.0
2025-01-14 15:56:03.807781	30.7	14.8	-80.8	0.0
2025-01-14 15:56:04.934473	30.5	14.8	-80.6	0.0
2025-01-14 15:56:06.060766	30.3	14.7	-81.1	0.0
2025-01-14 15:56:07.186145	30.0	14.7	-80.9	0.0
2025-01-14 15:56:08.310432	29.8	14.7	-81.0	0.0
2025-01-14 15:56:09.437833	29.6	14.7	-81.0	0.0
2025-01-14 15:56:10.563159	29.3	14.6	-80.2	0.0
2025-01-14 15:56:11.687662	29.1	14.6	-80.8	0.0
2025-01-14 15:56:12.814101	28.9	14.6	-80.7	0.0
2025-01-14 15:56:13.939842	28.7	14.6	-80.7	0.0
2025-01-14 15:56:15.063778	28.4	14.5	-80.9	0.0
2025-01-14 15:56:16.190608	28.2	14.5	-80.7	0.0
2025-01-14 15:56:17.315449	28.0	14.5	-81.0	0.0
2025-01-14 15:56:18.442062	27.8	14.5	-81.0	0.0
2025-01-14 15:56:19.566193	27.5	14.4	-80.4	0.0
2025-01-14 15:56:20.692093	27.3	14.4	-80.7	0.0
2025-01-14 15:56:21.818972	27.1	14.4	-80.7	0.0
2025-01-14 15:56:22.944993	26.9	14.3	-80.9	0.0
2025-01-14 15:56:24.071253	26.6	14.3	-80.9	0.0
2025-01-14 15:56:25.197058	26.4	14.3	-80.5	0.0
2025-01-14 15:56:26.322418	26.2	14.2	-80.9	0.0
2025-01-14 15:56:27.448277	26.0	14.2	-80.7	0.0
2025-01-14 15:56:28.575815	25.8	14.2	-80.9	0.0
2025-01-14 15:56:29.700770	25.5	14.1	-81.3	0.0
2025-01-14 15:56:30.826268	25.3	14.1	-80.6	0.0
2025-01-14 15:56:31.952534	25.1	14.1	-80.6	0.0
2025-01-14 15:56:33.081109	24.9	14.0	-80.2	0.0
2025-01-14 15:56:34.207708	24.7	14.0	-80.6	0.0
2025-01-14 15:56:35.333828	24.4	14.0	-80.7	0.0
2025-01-14 15:56:36.460309	24.2	13.9	-80.6	0.0
2025-01-14 15:56:37.587403	24.0	13.9	-80.7	0.0
2025-01-14 15:56:38.713368	23.8	13.9	-80.3	0.0
2025-01-14 15:56:39.836732	23.6	13.8	-80.1	0.0
2025-01-14 15:56:40.963147	23.4	13.8	-80.0	0.0
2025-01-14 15:56:42.089187	23.1	13.8	-80.7	0.0
2025-01-14 15:56:43.216258	22.9	13.7	-80.7	0.0
2025-01-14 15:56:44.341575	22.7	13.7	-81.0	0.0
2025-01-14 15:56:45.466622	22.5	13.7	-80.3	0.0
2025-01-14 15:56:46.591630	22.3	13.6	-81.0	0.0
2025-01-14 15:56:47.716478	22.1	13.6	-80.0	0.0
2025-01-14 15:56:48.841180	21.9	13.5	-80.1	0.0
2025-01-14 15:56:49.966821	21.7	13.5	-80.7	0.0
2025-01-14 15:56:51.093485	21.5	13.5	-80.8	0.0
2025-01-14 15:56:52.219136	21.2	13.4	-80.5	0.0
2025-01-14 15:56:53.342870	21.0	13.4	-80.4	0.0
2025-01-14 15:56:54.469489	20.8	13.3	-81.0	0.0
2025-01-14 15:56:55.594832	20.6	13.3	-80.5	0.0
2025-01-14 15:56:56.719683	20.4	13.3	-80.6	0.0
2025-01-14 15:56:57.845398	20.2	13.2	-80.5	0.0
2025-01-14 15:56:58.967622	20.0	13.2	-81.0	0.0
2025-01-14 15:57:00.087685	19.8	13.1	-80.4	0.0
2025-01-14 15:57:01.208851	19.6	13.1	-80.2	0.0
2025-01-14 15:57:02.329602	19.4	13.1	-80.6	0.0
2025-01-14 15:57:03.452017	19.2	13.0	-80.8	0.0
2025-01-14 15:57:04.573057	19.0	13.0	-80.2	0.0
2025-01-14 15:57:05.696356	18.8	12.9	-79.7	0.0
2025-01-14 15:57:06.818283	18.6	12.9	-80.9	0.0
2025-01-14 15:57:07.937556	18.4	12.8	-80.0	0.0
2025-01-14 15:57:09.060095	18.2	12.8	-80.4	0.0
2025-01-14 15:57:10.182409	18.0	12.8	-81.0	0.0
2025-01-14 15:57:11.305028	17.8	12.7	-81.0	0.0
2025-01-14 15:57:12.425267	17.6	12.7	-81.2	0.0
2025-01-14 15:57:13.548978	17.4	12.6	-80.4	0.0
2025-01-14 15:57:14.671637	17.2	12.6	-81.0	0.0
2025-01-14 15:57:15.794576	17.0	12.5	-81.0	0.0
2025-01-14 15:57:16.917896	16.8	12.5	-80.2	0.0
2025-01-14 15:57:18.039001	16.6	12.4	-80.6	0.0
2025-01-14 15:57:19.165637	16.4	12.4	-81.2	0.0
2025-01-14 15:57:20.288167	16.2	12.4	-80.9	0.0
2025-01-14 15:57:21.410452	16.0	12.3	-80.9	0.0
2025-01-14 15:57:22.532531	15.8	12.3	-81.3	0.0
2025-01-14 15:57:23.656180	15.6	12.2	-81.1	0.0
2025-01-14 15:57:24.780268	15.4	12.2	-80.5	0.0
2025-01-14 15:57:25.903889	15.3	12.1	-80.9	0.0
2025-01-14 15:57:27.026636	15.1	12.1	-81.1	0.0
2025-01-14 15:57:28.150302	14.9	12.0	-80.5	0.0
2025-01-14 15:57:29.270446	14.7	12.0	-80.7	0.0
2025-01-14 15:57:30.393866	14.5	11.9	-81.2	0.0
2025-01-14 15:57:31.517035	14.3	11.9	-80.8	0.0
2025-01-14 15:57:32.639845	14.1	11.8	-80.9	0.0
2025-01-14 15:57:33.763931	13.9	11.8	-80.6	0.0
2025-01-14 15:57:34.886705	13.7	11.7	-80.6	0.0
2025-01-14 15:57:36.008930	13.6	11.7	-81.0	0.0
2025-01-14 15:57:37.130983	13.4	11.6	-80.1	0.0
2025-01-14 15:57:38.253360	13.2	11.6	-81.0	0.0
2025-01-14 15:57:39.377756	13.0	11.5	-81.2	0.0
2025-01-14 15:57:40.497636	12.8	11.5	-81.1	0.0
2025-01-14 15:57:41.620843	12.6	11.4	-80.7	0.0
2025-01-14 15:57:42.746006	12.5	11.4	-80.8	0.0
2025-01-14 15:57:43.868303	12.3	11.3	-80.9	0.0
2025-01-14 15:57:44.990461	12.1	11.3	-80.1	0.0
2025-01-14 15:57:46.111280	11.9	11.2	-80.8	0.0
2025-01-14 15:57:47.233901	11.7	11.2	-81.1	0.0
2025-01-14 15:57:48.356507	11.6	11.1	-81.0	0.0
2025-01-14 15:57:49.480342	11.4	11.1	-80.5	0.0
2025-01-14 15:57:50.606005	11.2	11.0	-80.9	0.0
2025-01-14 15:57:51.728136	11.0	11.0	-80.4	0.0
2025-01-14 15:57:52.850743	10.9	10.9	-80.6	0.0
2025-01-14 15:57:53.972131	10.7	10.9	-81.0	0.0
2025-01-14 15:57:55.095552	10.5	10.8	-81.0	0.0
2025-01-14 15:57:56.217899	10.3	10.8	-81.3	0.0
2025-01-14 15:57:57.340431	10.2	10.7	-80.4	0.0
2025-01-14 15:57:58.464063	10.0	10.7	-80.8	0.0
2025-01-14 15:57:59.585638	9.8	10.6	-81.2	0.0
2025-01-14 15:58:00.707247	9.6	10.6	-80.7	0.0
2025-01-14 15:58:01.829057	9.5	10.5	-81.2	0.0
2025-01-14 15:58:02.953772	9.3	10.5	-81.1	0.0
2025-01-14 15:58:04.074326	9.1	10.4	-80.7	0.0
2025-01-14 15:58:05.195394	9.0	10.3	-80.2	0.0
2025-01-14 15:58:06.318201	8.8	10.3	-81.2	0.0
2025-01-14 15:58:07.441860	8.6	10.2	-81.0	0.0
2025-01-14 15:58:08.565767	8.5	10.2	-80.6	0.0
2025-01-14 15:58:09.688853	8.3	10.1	-80.9	0.0
2025-01-14 15:58:10.811772	8.1	10.1	-80.8	0.0
2025-01-14 15:58:11.934783	8.0	10.0	-80.8	0.0
#Closed at: 2025-01-14 15:52:02.496908