passes_logs/2026/01/03/planumMaritime01/planumMaritime01__20260103_185749_METOP-C_rec.log

#Pass ID: 20260103_185749_METOP-C
#Satellite: METOP-C
#Configuration: METOP-C
#Start time: 2026-01-03 18:57:54.218893

#LorettStation: 1.0.0 05.05.2024
#Station: planumMaritime01
#Location: 37.49445 lon 55.92918 lat
#TLE: 1 43689U 18087A   26002.72709372  .00000270  00000+0  14335-3 0  9998
#TLE: 2 43689  98.6899  65.1718 0000179 339.5820  20.5350 14.21493833371325

#Time	Az	El	Level	SNR
2026-01-03 18:58:00.933891	194.5	10.5	-72.1	0.0
2026-01-03 18:58:03.185043	194.7	10.7	-71.6	0.0
2026-01-03 18:58:05.439555	194.8	10.9	-71.0	0.0
2026-01-03 18:58:07.692718	195.0	11.1	-70.7	0.0
2026-01-03 18:58:09.946470	195.2	11.3	-71.0	0.0
2026-01-03 18:58:12.202816	195.4	11.5	-71.1	0.6
2026-01-03 18:58:14.457288	195.6	11.7	-70.8	0.0
2026-01-03 18:58:16.712017	195.7	11.9	-70.5	2.4
2026-01-03 18:58:18.966338	195.9	12.1	-70.8	0.0
2026-01-03 18:58:21.218547	196.1	12.3	-70.6	0.0
2026-01-03 18:58:23.473834	196.3	12.4	-70.5	0.0
2026-01-03 18:58:25.730003	196.5	12.6	-70.7	0.0
2026-01-03 18:58:27.982204	196.7	12.8	-70.5	0.0
2026-01-03 18:58:30.238890	196.9	13.0	-70.9	0.0
2026-01-03 18:58:32.489890	197.1	13.2	-71.0	0.0
2026-01-03 18:58:34.744555	197.3	13.4	-70.3	0.0
2026-01-03 18:58:36.996053	197.5	13.7	-70.6	0.0
2026-01-03 18:58:39.248873	197.7	13.9	-70.4	0.0
2026-01-03 18:58:41.505193	198.0	14.1	-70.5	0.0
2026-01-03 18:58:43.758527	198.2	14.3	-70.9	0.0
2026-01-03 18:58:46.012084	198.4	14.5	-71.0	0.0
2026-01-03 18:58:48.264604	198.6	14.7	-70.7	0.0
2026-01-03 18:58:50.516938	198.8	14.9	-70.9	0.0
2026-01-03 18:58:52.771227	199.1	15.1	-70.3	0.0
2026-01-03 18:58:55.024363	199.3	15.3	-70.4	0.0
2026-01-03 18:58:57.278846	199.5	15.6	-71.0	0.4
2026-01-03 18:58:59.532012	199.8	15.8	-71.5	0.0
2026-01-03 18:59:01.783998	200.0	16.0	-70.9	0.0
2026-01-03 18:59:04.040981	200.3	16.2	-70.5	0.0
2026-01-03 18:59:06.295506	200.5	16.4	-71.0	0.0
2026-01-03 18:59:08.547814	200.8	16.7	-70.5	0.0
2026-01-03 18:59:10.800663	201.0	16.9	-71.0	0.0
2026-01-03 18:59:13.052717	201.3	17.1	-70.5	0.0
2026-01-03 18:59:15.306286	201.5	17.3	-70.5	0.0
2026-01-03 18:59:17.560655	201.8	17.6	-70.4	0.0
2026-01-03 18:59:19.814864	202.1	17.8	-70.3	0.0
2026-01-03 18:59:22.065850	202.4	18.0	-70.5	0.0
2026-01-03 18:59:24.320985	202.6	18.3	-70.4	1.2
2026-01-03 18:59:26.574486	202.9	18.5	-70.1	1.0
2026-01-03 18:59:28.831748	203.2	18.8	-70.8	0.0
2026-01-03 18:59:31.084727	203.5	19.0	-70.6	0.6
2026-01-03 18:59:33.344247	203.8	19.2	-70.7	0.2
2026-01-03 18:59:35.598377	204.1	19.5	-71.6	5.8
2026-01-03 18:59:37.851774	204.4	19.7	-71.3	3.1
2026-01-03 18:59:40.103865	204.7	20.0	-71.4	2.4
2026-01-03 18:59:42.357631	205.0	20.2	-70.8	2.0
2026-01-03 18:59:44.608835	205.4	20.5	-71.1	1.0
2026-01-03 18:59:46.861470	205.7	20.7	-71.2	1.8
2026-01-03 18:59:49.115840	206.0	21.0	-71.4	2.2
2026-01-03 18:59:51.372440	206.4	21.2	-71.3	1.2
2026-01-03 18:59:53.624296	206.7	21.5	-71.0	1.5
2026-01-03 18:59:55.880021	207.0	21.8	-71.3	2.9
2026-01-03 18:59:58.134232	207.4	22.0	-71.5	3.9
2026-01-03 19:00:00.388227	207.8	22.3	-71.1	3.4
2026-01-03 19:00:02.640022	208.1	22.5	-71.4	4.1
2026-01-03 19:00:04.895994	208.5	22.8	-71.5	5.7
2026-01-03 19:00:07.148427	208.9	23.1	-71.7	4.9
2026-01-03 19:00:09.400858	209.3	23.3	-71.3	5.7
2026-01-03 19:00:11.653293	209.7	23.6	-71.3	5.4
2026-01-03 19:00:13.907217	210.1	23.9	-71.0	5.1
2026-01-03 19:00:16.157893	210.5	24.2	-71.3	6.4
2026-01-03 19:00:18.408478	210.9	24.4	-71.5	5.9
2026-01-03 19:00:20.659198	211.3	24.7	-71.8	6.1
2026-01-03 19:00:22.912977	211.7	25.0	-71.9	7.1
2026-01-03 19:00:25.166429	212.2	25.3	-72.4	7.2
2026-01-03 19:00:27.421343	212.6	25.5	-72.1	6.9
2026-01-03 19:00:29.676152	213.0	25.8	-72.1	6.9
2026-01-03 19:00:31.927061	213.5	26.1	-72.0	7.3
2026-01-03 19:00:34.178305	214.0	26.4	-72.7	7.4
2026-01-03 19:00:36.431143	214.4	26.7	-72.1	7.4
2026-01-03 19:00:38.683443	214.9	27.0	-72.3	8.4
2026-01-03 19:00:40.937702	215.4	27.2	-72.2	8.3
2026-01-03 19:00:43.187230	215.9	27.5	-72.1	8.8
2026-01-03 19:00:45.440702	216.4	27.8	-72.3	8.7
2026-01-03 19:00:47.690788	216.9	28.1	-72.2	8.0
2026-01-03 19:00:49.944114	217.5	28.4	-72.5	8.0
2026-01-03 19:00:52.198245	218.0	28.7	-72.8	7.8
2026-01-03 19:00:54.450837	218.5	29.0	-72.7	7.8
2026-01-03 19:00:56.701570	219.1	29.3	-72.9	7.6
2026-01-03 19:00:58.958614	219.7	29.5	-72.8	7.8
2026-01-03 19:01:01.212216	220.2	29.8	-72.4	7.7
2026-01-03 19:01:03.465240	220.8	30.1	-72.5	8.0
2026-01-03 19:01:05.717660	221.4	30.4	-72.3	8.1
2026-01-03 19:01:07.973358	222.0	30.7	-72.2	8.4
2026-01-03 19:01:10.227414	222.6	31.0	-72.0	8.2
2026-01-03 19:01:12.481605	223.3	31.3	-71.9	8.8
2026-01-03 19:01:14.733117	223.9	31.6	-71.8	9.1
2026-01-03 19:01:16.983501	224.5	31.8	-71.6	9.1
2026-01-03 19:01:19.237898	225.2	32.1	-71.7	8.7
2026-01-03 19:01:21.492284	225.9	32.4	-71.5	9.1
2026-01-03 19:01:23.745657	226.6	32.7	-71.8	9.2
2026-01-03 19:01:25.998093	227.3	33.0	-71.8	9.3
2026-01-03 19:01:28.252150	228.0	33.2	-71.6	9.7
2026-01-03 19:01:30.506617	228.7	33.5	-72.0	9.2
2026-01-03 19:01:32.760176	229.4	33.8	-71.7	9.5
2026-01-03 19:01:35.014264	230.1	34.0	-72.1	9.4
2026-01-03 19:01:37.268593	230.9	34.3	-72.0	9.6
2026-01-03 19:01:39.522117	231.7	34.6	-72.1	9.3
2026-01-03 19:01:41.774423	232.4	34.8	-72.2	9.3
2026-01-03 19:01:44.027125	233.2	35.1	-72.1	9.5
2026-01-03 19:01:46.280186	234.0	35.3	-72.1	9.7
2026-01-03 19:01:48.533209	234.8	35.6	-71.8	10.7
2026-01-03 19:01:50.785147	235.7	35.8	-72.0	10.6
2026-01-03 19:01:53.038762	236.5	36.1	-71.8	10.4
2026-01-03 19:01:55.291062	237.4	36.3	-72.0	10.8
2026-01-03 19:01:57.542929	238.2	36.5	-71.8	10.7
2026-01-03 19:01:59.796580	239.1	36.7	-71.8	10.4
2026-01-03 19:02:02.046051	240.0	36.9	-72.0	10.1
2026-01-03 19:02:04.300354	240.9	37.1	-72.0	10.9
2026-01-03 19:02:06.553175	241.8	37.4	-72.0	10.3
2026-01-03 19:02:08.807780	242.7	37.5	-72.3	10.6
2026-01-03 19:02:11.062636	243.6	37.7	-72.3	10.8
2026-01-03 19:02:13.315073	244.6	37.9	-72.5	10.2
2026-01-03 19:02:15.567542	245.5	38.1	-72.1	10.2
2026-01-03 19:02:17.820764	246.5	38.2	-72.2	9.5
2026-01-03 19:02:20.072818	247.4	38.4	-72.3	9.4
2026-01-03 19:02:22.323639	248.4	38.6	-72.3	10.5
2026-01-03 19:02:24.576129	249.4	38.7	-72.2	10.4
2026-01-03 19:02:26.826303	250.4	38.8	-72.0	11.0
2026-01-03 19:02:29.082754	251.4	38.9	-72.1	11.2
2026-01-03 19:02:31.332857	252.4	39.1	-72.1	10.4
2026-01-03 19:02:33.589248	253.4	39.2	-72.1	10.7
2026-01-03 19:02:35.844104	254.4	39.2	-71.6	9.7
2026-01-03 19:02:38.093204	255.5	39.3	-71.5	9.8
2026-01-03 19:02:40.346549	256.5	39.4	-71.1	10.0
2026-01-03 19:02:42.600555	257.5	39.5	-71.4	10.3
2026-01-03 19:02:44.853143	258.6	39.5	-71.3	8.8
2026-01-03 19:02:47.108419	259.6	39.6	-71.1	9.1
2026-01-03 19:02:49.363004	260.7	39.6	-71.7	9.8
2026-01-03 19:02:51.616844	261.7	39.6	-71.2	8.2
2026-01-03 19:02:53.871025	262.8	39.6	-71.2	7.5
2026-01-03 19:02:56.123623	263.8	39.6	-71.5	9.6
2026-01-03 19:02:58.379745	264.8	39.6	-71.7	7.8
2026-01-03 19:03:00.635062	265.9	39.6	-72.0	8.6
2026-01-03 19:03:02.889326	266.9	39.6	-71.4	6.1
2026-01-03 19:03:05.141197	268.0	39.5	-71.7	7.2
2026-01-03 19:03:07.399135	269.0	39.5	-72.2	8.5
2026-01-03 19:03:09.653207	270.0	39.4	-72.9	9.3
2026-01-03 19:03:11.907886	271.1	39.3	-72.0	7.3
2026-01-03 19:03:14.160065	272.1	39.2	-72.3	8.8
2026-01-03 19:03:16.415202	273.1	39.2	-72.3	8.0
2026-01-03 19:03:18.668590	274.1	39.1	-71.0	6.3
2026-01-03 19:03:20.921928	275.1	38.9	-70.5	6.4
2026-01-03 19:03:23.174713	276.1	38.8	-71.6	6.6
2026-01-03 19:03:25.429088	277.1	38.7	-70.7	6.4
2026-01-03 19:03:27.684503	278.1	38.6	-71.9	6.8
2026-01-03 19:03:29.939236	279.1	38.4	-71.6	7.4
2026-01-03 19:03:32.193315	280.1	38.2	-70.8	6.6
2026-01-03 19:03:34.445282	281.0	38.1	-70.3	5.7
2026-01-03 19:03:36.696402	282.0	37.9	-70.6	9.1
2026-01-03 19:03:38.949201	282.9	37.7	-70.4	7.0
2026-01-03 19:03:41.203287	283.8	37.5	-68.9	3.6
2026-01-03 19:03:43.455626	284.7	37.4	-69.4	5.9
2026-01-03 19:03:45.711692	285.6	37.2	-70.7	9.6
2026-01-03 19:03:47.965326	286.5	36.9	-69.6	6.1
2026-01-03 19:03:50.218564	287.4	36.7	-69.3	5.7
2026-01-03 19:03:52.473976	288.3	36.5	-69.1	4.9
2026-01-03 19:03:54.727117	289.2	36.3	-69.9	5.4
2026-01-03 19:03:56.982455	290.0	36.1	-70.3	7.1
2026-01-03 19:03:59.234785	290.8	35.8	-69.3	4.1
2026-01-03 19:04:01.486180	291.7	35.6	-69.2	3.6
2026-01-03 19:04:03.739961	292.5	35.3	-67.5	0.5
2026-01-03 19:04:05.991818	293.3	35.1	-69.9	7.4
2026-01-03 19:04:08.245555	294.1	34.8	-69.7	4.1
2026-01-03 19:04:10.501689	294.8	34.6	-68.9	4.2
2026-01-03 19:04:12.755658	295.6	34.3	-69.7	4.0
2026-01-03 19:04:15.009072	296.3	34.1	-69.1	2.5
2026-01-03 19:04:17.263579	297.1	33.8	-69.6	4.7
2026-01-03 19:04:19.516870	297.8	33.5	-70.1	5.2
2026-01-03 19:04:21.770095	298.5	33.3	-70.0	5.7
2026-01-03 19:04:24.022287	299.2	33.0	-69.0	1.5
2026-01-03 19:04:26.272192	299.9	32.7	-71.0	6.8
2026-01-03 19:04:28.524277	300.6	32.4	-70.8	3.4
2026-01-03 19:04:30.777033	301.3	32.2	-71.9	5.3
2026-01-03 19:04:33.035689	301.9	31.9	-70.8	4.6
2026-01-03 19:04:35.292588	302.6	31.6	-71.8	5.5
2026-01-03 19:04:37.546948	303.2	31.3	-71.4	6.0
2026-01-03 19:04:39.802888	303.8	31.0	-70.9	5.9
2026-01-03 19:04:42.058782	304.5	30.7	-72.0	6.2
2026-01-03 19:04:44.313622	305.1	30.4	-72.2	5.1
2026-01-03 19:04:46.567838	305.7	30.2	-71.9	5.9
2026-01-03 19:04:48.819273	306.2	29.9	-71.1	5.7
2026-01-03 19:04:51.072416	306.8	29.6	-70.4	5.3
2026-01-03 19:04:53.325186	307.4	29.3	-70.5	8.7
2026-01-03 19:04:55.581076	307.9	29.0	-70.6	2.0
2026-01-03 19:04:57.834226	308.5	28.7	-71.9	7.9
2026-01-03 19:05:00.087846	309.0	28.4	-70.4	5.0
2026-01-03 19:05:02.340163	309.5	28.2	-69.2	2.2
2026-01-03 19:05:04.594588	310.0	27.9	-69.8	3.2
2026-01-03 19:05:06.845015	310.5	27.6	-70.8	4.8
2026-01-03 19:05:09.097489	311.0	27.3	-71.0	5.3
2026-01-03 19:05:11.348985	311.5	27.0	-70.4	4.9
2026-01-03 19:05:13.606644	312.0	26.7	-71.1	0.0
2026-01-03 19:05:15.861194	312.5	26.5	-71.6	4.9
2026-01-03 19:05:18.114270	312.9	26.2	-70.8	0.8
2026-01-03 19:05:20.366766	313.4	25.9	-72.1	3.1
2026-01-03 19:05:22.618434	313.9	25.6	-69.9	0.0
2026-01-03 19:05:24.871710	314.3	25.3	-71.0	2.3
2026-01-03 19:05:27.126960	314.7	25.1	-70.5	1.5
2026-01-03 19:05:29.380544	315.2	24.8	-70.7	0.0
2026-01-03 19:05:31.637669	315.6	24.5	-70.4	0.0
2026-01-03 19:05:33.892878	316.0	24.2	-69.4	0.0
2026-01-03 19:05:36.146265	316.4	24.0	-69.4	0.0
2026-01-03 19:05:38.402167	316.8	23.7	-69.6	0.0
2026-01-03 19:05:40.655635	317.2	23.4	-68.8	0.0
2026-01-03 19:05:42.910938	317.6	23.2	-68.2	0.0
2026-01-03 19:05:45.166975	317.9	22.9	-67.8	0.0
2026-01-03 19:05:47.421858	318.3	22.6	-68.5	0.0
2026-01-03 19:05:49.675144	318.7	22.4	-70.2	0.0
2026-01-03 19:05:51.927015	319.0	22.1	-68.6	0.0
2026-01-03 19:05:54.181955	319.4	21.9	-67.7	0.0
2026-01-03 19:05:56.435912	319.7	21.6	-68.3	0.0
2026-01-03 19:05:58.688483	320.1	21.4	-70.4	0.0
2026-01-03 19:06:00.943417	320.4	21.1	-68.4	0.0
2026-01-03 19:06:03.196432	320.8	20.8	-69.3	0.0
2026-01-03 19:06:05.449003	321.1	20.6	-70.6	0.0
2026-01-03 19:06:07.701939	321.4	20.3	-69.9	0.0
2026-01-03 19:06:09.955432	321.7	20.1	-69.4	0.0
2026-01-03 19:06:12.206613	322.0	19.9	-69.1	0.0
2026-01-03 19:06:14.460263	322.3	19.6	-68.8	0.0
2026-01-03 19:06:16.712093	322.6	19.4	-70.4	0.0
2026-01-03 19:06:18.963884	322.9	19.1	-69.1	0.0
2026-01-03 19:06:21.217625	323.2	18.9	-68.3	0.0
2026-01-03 19:06:23.473385	323.5	18.6	-68.7	0.0
2026-01-03 19:06:25.730463	323.8	18.4	-69.6	0.0
2026-01-03 19:06:27.984555	324.1	18.2	-69.3	0.0
2026-01-03 19:06:30.237191	324.4	17.9	-68.6	0.0
2026-01-03 19:06:32.488727	324.6	17.7	-70.7	0.0
2026-01-03 19:06:34.742779	324.9	17.5	-70.0	0.0
2026-01-03 19:06:36.993264	325.2	17.3	-68.9	0.0
2026-01-03 19:06:39.248026	325.4	17.0	-68.8	0.0
2026-01-03 19:06:41.499175	325.7	16.8	-69.0	0.0
2026-01-03 19:06:43.751727	325.9	16.6	-69.3	0.0
2026-01-03 19:06:46.009753	326.2	16.4	-68.7	0.0
2026-01-03 19:06:48.262303	326.4	16.1	-69.3	0.0
2026-01-03 19:06:50.518277	326.7	15.9	-67.9	0.0
2026-01-03 19:06:52.771644	326.9	15.7	-68.6	0.0
2026-01-03 19:06:55.024001	327.2	15.5	-66.8	0.0
2026-01-03 19:06:57.277660	327.4	15.3	-68.5	0.0
2026-01-03 19:06:59.532663	327.6	15.1	-68.7	0.0
2026-01-03 19:07:01.788675	327.8	14.8	-67.2	0.0
2026-01-03 19:07:04.042896	328.1	14.6	-68.8	0.0
2026-01-03 19:07:06.296607	328.3	14.4	-66.2	0.0
2026-01-03 19:07:08.552320	328.5	14.2	-66.3	0.0
2026-01-03 19:07:10.808165	328.7	14.0	-65.5	0.0
2026-01-03 19:07:13.062559	328.9	13.8	-65.2	0.0
2026-01-03 19:07:15.318117	329.1	13.6	-65.1	0.0
2026-01-03 19:07:17.571757	329.3	13.4	-66.0	0.0
2026-01-03 19:07:19.824998	329.6	13.2	-64.1	0.0
2026-01-03 19:07:22.081899	329.8	13.0	-65.9	0.0
2026-01-03 19:07:24.333093	330.0	12.8	-64.9	0.0
2026-01-03 19:07:26.590750	330.1	12.6	-67.2	0.0
2026-01-03 19:07:28.846609	330.3	12.4	-66.3	0.0
2026-01-03 19:07:31.103849	330.5	12.2	-62.8	0.0
2026-01-03 19:07:33.358018	330.7	12.0	-65.1	0.0
2026-01-03 19:07:35.613418	330.9	11.8	-64.9	0.0
2026-01-03 19:07:37.868781	331.1	11.7	-66.0	0.0
2026-01-03 19:07:40.119473	331.3	11.5	-66.8	0.0
2026-01-03 19:07:42.371078	331.5	11.3	-66.6	0.0
2026-01-03 19:07:44.624742	331.6	11.1	-67.0	0.0
2026-01-03 19:07:46.879130	331.8	10.9	-68.3	0.0
2026-01-03 19:07:49.131619	332.0	10.7	-69.8	0.0
2026-01-03 19:07:51.388809	332.2	10.5	-71.5	0.0
2026-01-03 19:07:53.641131	332.3	10.4	-72.7	0.0
2026-01-03 19:07:55.893885	332.5	10.2	-76.5	0.0
2026-01-03 19:07:58.146311	332.7	10.0	-77.2	0.0
#Closed at: 2026-01-03 18:57:49.225633