passes_logs/2026/01/03/planumMaritime01/planumMaritime01__20260103_163809_METOP-B_rec.log

#Pass ID: 20260103_163809_METOP-B
#Satellite: METOP-B
#Configuration: METOP-B
#Start time: 2026-01-03 16:38:14.632745

#LorettStation: 1.0.0 05.05.2024
#Station: planumMaritime01
#Location: 37.49445 lon 55.92918 lat
#TLE: 1 38771U 12049A   26002.76990038  .00000279  00000+0  14776-3 0  9999
#TLE: 2 38771  98.6769  57.3691 0003375 101.1365 259.0192 14.21417854689760

#Time	Az	El	Level	SNR
2026-01-03 16:38:16.810792	128.8	10.2	-76.8	0.0
2026-01-03 16:38:19.065834	128.6	10.4	-74.8	0.0
2026-01-03 16:38:21.317730	128.5	10.6	-73.9	0.0
2026-01-03 16:38:23.573097	128.3	10.7	-73.6	0.0
2026-01-03 16:38:25.824937	128.2	10.9	-73.1	0.5
2026-01-03 16:38:28.078355	128.0	11.1	-72.9	0.0
2026-01-03 16:38:30.329411	127.8	11.3	-73.5	0.0
2026-01-03 16:38:32.580161	127.7	11.5	-73.3	0.0
2026-01-03 16:38:34.831430	127.5	11.7	-73.4	0.0
2026-01-03 16:38:37.084660	127.3	11.9	-73.5	0.0
2026-01-03 16:38:39.334706	127.2	12.1	-73.3	0.0
2026-01-03 16:38:41.585848	127.0	12.3	-74.2	0.0
2026-01-03 16:38:43.842808	126.8	12.5	-74.1	0.4
2026-01-03 16:38:46.096158	126.6	12.7	-74.5	0.0
2026-01-03 16:38:48.346379	126.5	12.9	-74.6	0.6
2026-01-03 16:38:50.598980	126.3	13.1	-73.9	0.0
2026-01-03 16:38:52.849708	126.1	13.3	-73.7	0.1
2026-01-03 16:38:55.104232	125.9	13.5	-73.7	0.4
2026-01-03 16:38:57.356048	125.7	13.7	-74.0	0.4
2026-01-03 16:38:59.609214	125.5	13.9	-74.0	0.1
2026-01-03 16:39:01.864578	125.3	14.1	-74.0	0.0
2026-01-03 16:39:04.119942	125.1	14.4	-74.4	0.3
2026-01-03 16:39:06.373057	124.9	14.6	-74.2	0.8
2026-01-03 16:39:08.627879	124.7	14.8	-74.1	1.0
2026-01-03 16:39:10.881136	124.5	15.0	-74.3	1.2
2026-01-03 16:39:13.135193	124.3	15.2	-74.2	0.9
2026-01-03 16:39:15.389554	124.1	15.4	-74.2	0.4
2026-01-03 16:39:17.644267	123.9	15.7	-74.3	1.0
2026-01-03 16:39:19.899795	123.7	15.9	-74.2	1.4
2026-01-03 16:39:22.154394	123.4	16.1	-74.5	1.6
2026-01-03 16:39:24.406162	123.2	16.3	-74.4	1.8
2026-01-03 16:39:26.659321	123.0	16.6	-74.7	1.5
2026-01-03 16:39:28.911849	122.7	16.8	-74.7	0.8
2026-01-03 16:39:31.163019	122.5	17.0	-74.9	3.8
2026-01-03 16:39:33.415791	122.3	17.3	-74.8	3.8
2026-01-03 16:39:35.670989	122.0	17.5	-74.4	3.1
2026-01-03 16:39:37.924406	121.8	17.7	-74.7	3.9
2026-01-03 16:39:40.179414	121.5	18.0	-74.7	3.0
2026-01-03 16:39:42.434239	121.2	18.2	-74.7	3.7
2026-01-03 16:39:44.687611	121.0	18.5	-74.5	3.7
2026-01-03 16:39:46.939418	120.7	18.7	-74.4	3.5
2026-01-03 16:39:49.192885	120.4	19.0	-74.3	3.3
2026-01-03 16:39:51.444408	120.2	19.2	-74.7	4.6
2026-01-03 16:39:53.697639	119.9	19.5	-74.6	5.0
2026-01-03 16:39:55.948180	119.6	19.7	-74.5	4.3
2026-01-03 16:39:58.200815	119.3	20.0	-74.4	4.2
2026-01-03 16:40:00.452675	119.0	20.2	-74.2	5.2
2026-01-03 16:40:02.704722	118.7	20.5	-74.6	5.6
2026-01-03 16:40:04.957231	118.4	20.7	-74.6	6.3
2026-01-03 16:40:07.214035	118.1	21.0	-74.4	5.8
2026-01-03 16:40:09.470008	117.8	21.3	-74.4	6.1
2026-01-03 16:40:11.721826	117.4	21.5	-73.9	4.4
2026-01-03 16:40:13.975384	117.1	21.8	-74.1	5.5
2026-01-03 16:40:16.227389	116.8	22.1	-74.0	5.6
2026-01-03 16:40:18.479032	116.4	22.3	-73.4	5.7
2026-01-03 16:40:20.735172	116.1	22.6	-73.8	5.6
2026-01-03 16:40:22.990259	115.7	22.9	-73.3	5.0
2026-01-03 16:40:25.244507	115.4	23.2	-73.7	4.2
2026-01-03 16:40:27.497043	115.0	23.4	-73.7	6.2
2026-01-03 16:40:29.751092	114.7	23.7	-73.9	6.2
2026-01-03 16:40:32.005098	114.3	24.0	-73.5	5.8
2026-01-03 16:40:34.258013	113.9	24.3	-73.8	4.8
2026-01-03 16:40:36.511926	113.5	24.6	-73.4	4.7
2026-01-03 16:40:38.764211	113.1	24.8	-73.5	7.2
2026-01-03 16:40:41.020255	112.7	25.1	-73.3	5.3
2026-01-03 16:40:43.274941	112.3	25.4	-73.2	5.2
2026-01-03 16:40:45.527299	111.8	25.7	-73.1	7.0
2026-01-03 16:40:47.779842	111.4	26.0	-72.5	5.3
2026-01-03 16:40:50.034665	111.0	26.3	-73.3	6.9
2026-01-03 16:40:52.288694	110.5	26.6	-73.5	7.9
2026-01-03 16:40:54.542293	110.1	26.9	-74.0	7.8
2026-01-03 16:40:56.793179	109.6	27.2	-73.4	5.2
2026-01-03 16:40:59.044112	109.1	27.5	-73.2	4.7
2026-01-03 16:41:01.295674	108.7	27.8	-74.1	6.5
2026-01-03 16:41:03.547240	108.2	28.1	-73.5	4.8
2026-01-03 16:41:05.803521	107.7	28.4	-73.8	5.8
2026-01-03 16:41:08.057337	107.2	28.7	-73.6	5.6
2026-01-03 16:41:10.310832	106.6	29.0	-73.6	6.3
2026-01-03 16:41:12.563600	106.1	29.3	-73.4	5.9
2026-01-03 16:41:14.817054	105.6	29.6	-73.4	6.5
2026-01-03 16:41:17.066711	105.0	29.9	-72.9	5.7
2026-01-03 16:41:19.319447	104.5	30.2	-72.9	5.7
2026-01-03 16:41:21.571254	103.9	30.5	-72.6	6.3
2026-01-03 16:41:23.825689	103.3	30.8	-72.9	6.3
2026-01-03 16:41:26.077622	102.7	31.1	-73.7	7.7
2026-01-03 16:41:28.330084	102.1	31.4	-73.2	6.9
2026-01-03 16:41:30.583511	101.5	31.7	-73.0	6.9
2026-01-03 16:41:32.837516	100.9	32.0	-73.4	7.1
2026-01-03 16:41:35.091202	100.2	32.3	-73.2	6.5
2026-01-03 16:41:37.340888	99.6	32.6	-73.1	6.5
2026-01-03 16:41:39.596571	98.9	32.9	-72.8	6.5
2026-01-03 16:41:41.850501	98.2	33.2	-73.3	8.0
2026-01-03 16:41:44.100835	97.5	33.5	-72.1	6.5
2026-01-03 16:41:46.353393	96.8	33.8	-73.1	8.0
2026-01-03 16:41:48.602421	96.1	34.1	-73.2	7.6
2026-01-03 16:41:50.854617	95.4	34.4	-72.4	5.8
2026-01-03 16:41:53.106242	94.7	34.7	-72.3	5.4
2026-01-03 16:41:55.356444	93.9	35.0	-71.5	4.9
2026-01-03 16:41:57.611841	93.1	35.2	-72.6	7.9
2026-01-03 16:41:59.866426	92.4	35.5	-71.9	6.3
2026-01-03 16:42:02.122605	91.6	35.8	-71.6	5.1
2026-01-03 16:42:04.375232	90.8	36.1	-72.4	7.5
2026-01-03 16:42:06.632009	89.9	36.3	-71.4	6.1
2026-01-03 16:42:08.883693	89.1	36.6	-71.7	6.0
2026-01-03 16:42:11.136922	88.3	36.8	-71.7	6.2
2026-01-03 16:42:13.389508	87.4	37.1	-70.8	5.7
2026-01-03 16:42:15.639815	86.5	37.3	-70.3	5.7
2026-01-03 16:42:17.891229	85.6	37.6	-71.6	4.0
2026-01-03 16:42:20.144025	84.7	37.8	-70.9	4.5
2026-01-03 16:42:22.403578	83.8	38.0	-72.5	5.4
2026-01-03 16:42:24.653215	82.9	38.2	-71.8	4.5
2026-01-03 16:42:26.901857	82.0	38.5	-72.1	4.6
2026-01-03 16:42:29.154695	81.0	38.7	-71.9	5.0
2026-01-03 16:42:31.407465	80.1	38.9	-72.2	4.4
2026-01-03 16:42:33.659735	79.1	39.0	-72.0	4.8
2026-01-03 16:42:35.913618	78.1	39.2	-72.2	3.5
2026-01-03 16:42:38.162630	77.1	39.4	-71.2	4.1
2026-01-03 16:42:40.421703	76.1	39.5	-70.8	4.9
2026-01-03 16:42:42.674380	75.1	39.7	-69.6	0.0
2026-01-03 16:42:44.929744	74.1	39.8	-68.0	1.7
2026-01-03 16:42:47.184284	73.1	40.0	-70.2	4.2
2026-01-03 16:42:49.436182	72.0	40.1	-68.4	3.5
2026-01-03 16:42:51.690362	71.0	40.2	-70.2	2.4
2026-01-03 16:42:53.942738	69.9	40.3	-68.9	3.7
2026-01-03 16:42:56.194821	68.9	40.4	-69.1	3.4
2026-01-03 16:42:58.446314	67.8	40.5	-70.3	3.0
2026-01-03 16:43:00.700537	66.7	40.5	-69.1	0.4
2026-01-03 16:43:02.957687	65.6	40.6	-70.6	5.9
2026-01-03 16:43:05.208827	64.6	40.6	-68.7	1.0
2026-01-03 16:43:07.461458	63.5	40.7	-70.5	1.9
2026-01-03 16:43:09.716662	62.4	40.7	-70.6	2.9
2026-01-03 16:43:11.970495	61.3	40.7	-70.2	3.8
2026-01-03 16:43:14.222379	60.2	40.7	-69.9	0.0
2026-01-03 16:43:16.477900	59.2	40.7	-70.7	3.9
2026-01-03 16:43:18.734068	58.1	40.7	-71.7	3.8
2026-01-03 16:43:20.984385	57.0	40.6	-69.0	3.3
2026-01-03 16:43:23.236093	55.9	40.6	-70.9	5.4
2026-01-03 16:43:25.493365	54.8	40.5	-70.7	4.9
2026-01-03 16:43:27.745100	53.8	40.5	-69.4	3.9
2026-01-03 16:43:30.003586	52.7	40.4	-70.8	6.7
2026-01-03 16:43:32.256029	51.7	40.3	-70.5	0.8
2026-01-03 16:43:34.510432	50.6	40.2	-71.1	1.6
2026-01-03 16:43:36.765013	49.6	40.1	-71.3	4.8
2026-01-03 16:43:39.017942	48.5	40.0	-71.5	5.0
2026-01-03 16:43:41.271184	47.5	39.8	-70.4	3.0
2026-01-03 16:43:43.528691	46.5	39.7	-70.2	1.9
2026-01-03 16:43:45.784850	45.5	39.5	-71.5	4.0
2026-01-03 16:43:48.038633	44.5	39.4	-71.2	3.1
2026-01-03 16:43:50.290510	43.5	39.2	-70.8	4.1
2026-01-03 16:43:52.543361	42.5	39.0	-71.7	4.2
2026-01-03 16:43:54.800794	41.5	38.8	-71.1	3.5
2026-01-03 16:43:57.052827	40.6	38.6	-71.0	4.3
2026-01-03 16:43:59.305475	39.6	38.4	-69.0	0.0
2026-01-03 16:44:01.557759	38.7	38.2	-67.2	0.0
2026-01-03 16:44:03.812175	37.8	38.0	-67.6	0.0
2026-01-03 16:44:06.069629	36.9	37.8	-66.7	0.0
2026-01-03 16:44:08.320522	36.0	37.5	-67.8	0.0
2026-01-03 16:44:10.573875	35.1	37.3	-68.5	0.0
2026-01-03 16:44:12.827233	34.2	37.1	-69.4	0.0
2026-01-03 16:44:15.082213	33.4	36.8	-67.8	0.0
2026-01-03 16:44:17.338921	32.5	36.6	-68.5	1.9
2026-01-03 16:44:19.595379	31.7	36.3	-68.5	0.0
2026-01-03 16:44:21.849321	30.9	36.0	-67.6	0.0
2026-01-03 16:44:24.102715	30.1	35.8	-67.0	0.0
2026-01-03 16:44:26.354522	29.3	35.5	-67.9	0.0
2026-01-03 16:44:28.609644	28.5	35.2	-65.2	0.0
2026-01-03 16:44:30.863557	27.7	34.9	-67.9	0.0
2026-01-03 16:44:33.116909	27.0	34.7	-64.7	0.0
2026-01-03 16:44:35.373221	26.2	34.4	-66.9	0.0
2026-01-03 16:44:37.626488	25.5	34.1	-65.1	0.0
2026-01-03 16:44:39.882875	24.8	33.8	-64.7	0.0
2026-01-03 16:44:42.136552	24.1	33.5	-65.5	0.0
2026-01-03 16:44:44.388878	23.4	33.2	-64.0	0.0
2026-01-03 16:44:46.640640	22.8	32.9	-67.4	0.0
2026-01-03 16:44:48.894816	22.1	32.6	-62.4	0.0
2026-01-03 16:44:51.148661	21.4	32.3	-63.8	0.0
2026-01-03 16:44:53.400482	20.8	32.0	-62.4	0.0
2026-01-03 16:44:55.656407	20.2	31.7	-65.1	0.0
2026-01-03 16:44:57.909535	19.6	31.4	-63.4	0.0
2026-01-03 16:45:00.162239	19.0	31.1	-65.2	0.0
2026-01-03 16:45:02.414885	18.4	30.8	-64.1	0.0
2026-01-03 16:45:04.668909	17.8	30.5	-63.8	0.0
2026-01-03 16:45:06.921456	17.2	30.2	-65.6	0.0
2026-01-03 16:45:09.171613	16.7	29.9	-64.5	0.0
2026-01-03 16:45:11.423906	16.1	29.6	-63.8	0.0
2026-01-03 16:45:13.677434	15.6	29.3	-64.4	0.0
2026-01-03 16:45:15.931795	15.1	29.0	-63.8	0.0
2026-01-03 16:45:18.186012	14.6	28.7	-65.3	0.0
2026-01-03 16:45:20.438197	14.0	28.4	-63.8	0.0
2026-01-03 16:45:22.691634	13.5	28.1	-64.6	0.0
2026-01-03 16:45:24.943328	13.1	27.8	-63.2	0.0
2026-01-03 16:45:27.194637	12.6	27.5	-63.7	0.0
2026-01-03 16:45:29.446579	12.1	27.2	-62.7	0.0
2026-01-03 16:45:31.701250	11.7	26.9	-63.4	0.0
2026-01-03 16:45:33.955751	11.2	26.6	-63.8	0.0
2026-01-03 16:45:36.209827	10.8	26.3	-64.9	0.0
2026-01-03 16:45:38.463354	10.3	26.0	-67.1	0.0
2026-01-03 16:45:40.716583	9.9	25.7	-65.6	0.0
2026-01-03 16:45:42.969598	9.5	25.4	-65.6	0.0
2026-01-03 16:45:45.222177	9.1	25.2	-63.1	0.0
2026-01-03 16:45:47.475949	8.7	24.9	-63.6	0.0
2026-01-03 16:45:49.726699	8.3	24.6	-64.8	0.0
2026-01-03 16:45:51.981617	7.9	24.3	-61.1	0.0
2026-01-03 16:45:54.233425	7.5	24.0	-64.5	0.0
2026-01-03 16:45:56.489523	7.1	23.7	-64.6	0.0
2026-01-03 16:45:58.741200	6.7	23.5	-64.7	0.0
2026-01-03 16:46:00.994892	6.4	23.2	-62.7	0.0
2026-01-03 16:46:03.252734	6.0	22.9	-63.9	0.0
2026-01-03 16:46:05.504109	5.7	22.6	-65.2	0.0
2026-01-03 16:46:07.754429	5.3	22.4	-61.6	0.0
2026-01-03 16:46:10.007217	5.0	22.1	-65.4	0.0
2026-01-03 16:46:12.257681	4.7	21.8	-63.1	0.0
2026-01-03 16:46:14.509256	4.3	21.6	-66.2	0.0
2026-01-03 16:46:16.763481	4.0	21.3	-63.2	0.0
2026-01-03 16:46:19.016053	3.7	21.0	-67.2	0.0
2026-01-03 16:46:21.268968	3.4	20.8	-64.6	0.0
2026-01-03 16:46:23.523325	3.1	20.5	-63.9	0.0
2026-01-03 16:46:25.776591	2.8	20.3	-66.9	0.0
2026-01-03 16:46:28.026376	2.5	20.0	-64.9	0.0
2026-01-03 16:46:30.280830	2.2	19.8	-65.1	0.0
2026-01-03 16:46:32.532350	1.9	19.5	-64.5	0.0
2026-01-03 16:46:34.786748	1.6	19.3	-65.1	0.0
2026-01-03 16:46:37.038712	1.4	19.0	-64.5	0.0
2026-01-03 16:46:39.290817	1.1	18.8	-64.3	0.0
2026-01-03 16:46:41.546995	0.8	18.5	-64.3	0.0
2026-01-03 16:46:43.800651	0.6	18.3	-64.6	0.0
2026-01-03 16:46:46.056219	0.3	18.0	-65.8	0.0
2026-01-03 16:46:48.313409	0.1	17.8	-65.4	0.0
2026-01-03 16:46:50.566198	359.8	17.6	-68.1	0.0
2026-01-03 16:46:52.820493	359.6	17.3	-65.9	0.0
2026-01-03 16:46:55.073492	359.3	17.1	-65.2	0.0
2026-01-03 16:46:57.327439	359.1	16.9	-66.3	0.0
2026-01-03 16:46:59.582350	358.9	16.6	-65.9	0.0
2026-01-03 16:47:01.834114	358.6	16.4	-68.1	0.0
2026-01-03 16:47:04.085130	358.4	16.2	-67.2	0.0
2026-01-03 16:47:06.340566	358.2	16.0	-66.3	0.0
2026-01-03 16:47:08.594221	358.0	15.7	-64.9	0.0
2026-01-03 16:47:10.846169	357.8	15.5	-68.1	0.0
2026-01-03 16:47:13.098587	357.5	15.3	-68.6	0.0
2026-01-03 16:47:15.350985	357.3	15.1	-67.5	0.0
2026-01-03 16:47:17.604956	357.1	14.9	-70.0	0.0
2026-01-03 16:47:19.857994	356.9	14.6	-64.2	0.0
2026-01-03 16:47:22.107301	356.7	14.4	-68.7	0.0
2026-01-03 16:47:24.357569	356.5	14.2	-65.9	0.0
2026-01-03 16:47:26.611775	356.3	14.0	-70.1	0.0
2026-01-03 16:47:28.865268	356.1	13.8	-68.7	0.0
2026-01-03 16:47:31.118865	356.0	13.6	-66.2	0.0
2026-01-03 16:47:33.374793	355.8	13.4	-66.5	0.0
2026-01-03 16:47:35.628510	355.6	13.2	-64.3	0.0
2026-01-03 16:47:37.882339	355.4	13.0	-65.1	0.0
2026-01-03 16:47:40.135173	355.2	12.8	-65.2	0.0
2026-01-03 16:47:42.386085	355.1	12.6	-66.2	0.0
2026-01-03 16:47:44.639196	354.9	12.4	-63.6	0.0
2026-01-03 16:47:46.891771	354.7	12.2	-65.6	0.0
2026-01-03 16:47:49.142329	354.5	12.0	-64.2	0.0
2026-01-03 16:47:51.394573	354.4	11.8	-65.9	0.0
2026-01-03 16:47:53.645929	354.2	11.6	-65.0	0.0
2026-01-03 16:47:55.899348	354.1	11.4	-66.9	0.0
2026-01-03 16:47:58.149478	353.9	11.2	-65.0	0.0
2026-01-03 16:48:00.402965	353.7	11.0	-65.4	0.0
2026-01-03 16:48:02.652996	353.6	10.8	-66.5	0.0
2026-01-03 16:48:04.905500	353.4	10.6	-65.5	0.0
2026-01-03 16:48:07.158050	353.3	10.4	-64.8	0.0
2026-01-03 16:48:09.409699	353.1	10.3	-72.9	0.0
2026-01-03 16:48:11.663234	353.0	10.1	-74.7	0.0
#Closed at: 2026-01-03 16:38:09.639740