passes_logs/2026/01/03/planumMaritime01/planumMaritime01__20260103_064744_METOP-B_rec.log

#Pass ID: 20260103_064744_METOP-B
#Satellite: METOP-B
#Configuration: METOP-B
#Start time: 2026-01-03 06:47:49.099409

#LorettStation: 1.0.0 05.05.2024
#Station: planumMaritime01
#Location: 37.49445 lon 55.92918 lat
#TLE: 1 38771U 12049A   26002.76990038  .00000279  00000+0  14776-3 0  9999
#TLE: 2 38771  98.6769  57.3691 0003375 101.1365 259.0192 14.21417854689760

#Time	Az	El	Level	SNR
2026-01-03 06:47:51.272885	22.0	10.2	-69.6	0.0
2026-01-03 06:47:53.522833	22.1	10.4	-70.0	0.0
2026-01-03 06:47:55.775044	22.2	10.6	-69.3	0.0
2026-01-03 06:47:58.026407	22.3	10.8	-65.6	0.0
2026-01-03 06:48:00.276559	22.4	11.0	-63.1	0.0
2026-01-03 06:48:02.529402	22.5	11.2	-60.6	0.0
2026-01-03 06:48:04.783020	22.6	11.4	-63.2	0.0
2026-01-03 06:48:07.033042	22.7	11.6	-62.1	0.0
2026-01-03 06:48:09.282724	22.8	11.8	-59.5	0.0
2026-01-03 06:48:11.531577	22.9	12.0	-61.2	0.0
2026-01-03 06:48:13.783343	23.0	12.2	-65.1	0.0
2026-01-03 06:48:16.037635	23.1	12.4	-60.5	0.0
2026-01-03 06:48:18.291405	23.2	12.6	-62.9	0.0
2026-01-03 06:48:20.547121	23.3	12.8	-60.4	0.0
2026-01-03 06:48:22.801035	23.5	13.0	-61.6	0.0
2026-01-03 06:48:25.058394	23.6	13.2	-62.3	0.0
2026-01-03 06:48:27.308577	23.7	13.5	-62.1	0.0
2026-01-03 06:48:29.561954	23.8	13.7	-59.7	0.0
2026-01-03 06:48:31.818176	23.9	13.9	-63.3	0.0
2026-01-03 06:48:34.071201	24.0	14.1	-62.5	0.0
2026-01-03 06:48:36.322613	24.2	14.3	-61.2	0.0
2026-01-03 06:48:38.573756	24.3	14.6	-59.3	0.0
2026-01-03 06:48:40.827128	24.4	14.8	-63.7	0.0
2026-01-03 06:48:43.080305	24.5	15.0	-62.7	0.0
2026-01-03 06:48:45.334800	24.6	15.3	-61.9	0.0
2026-01-03 06:48:47.587862	24.8	15.5	-65.7	0.0
2026-01-03 06:48:49.841274	24.9	15.7	-63.8	0.0
2026-01-03 06:48:52.093574	25.0	16.0	-61.8	0.0
2026-01-03 06:48:54.345845	25.2	16.2	-61.6	0.0
2026-01-03 06:48:56.599807	25.3	16.5	-64.0	0.0
2026-01-03 06:48:58.850489	25.4	16.7	-62.1	0.0
2026-01-03 06:49:01.104958	25.6	17.0	-62.6	0.0
2026-01-03 06:49:03.360197	25.7	17.2	-63.1	0.0
2026-01-03 06:49:05.610954	25.9	17.5	-63.5	0.0
2026-01-03 06:49:07.863006	26.0	17.7	-63.7	0.0
2026-01-03 06:49:10.111620	26.2	18.0	-63.5	0.0
2026-01-03 06:49:12.365217	26.3	18.3	-65.7	0.0
2026-01-03 06:49:14.620232	26.5	18.5	-63.9	0.0
2026-01-03 06:49:16.872770	26.6	18.8	-66.2	0.0
2026-01-03 06:49:19.123109	26.8	19.1	-62.7	0.0
2026-01-03 06:49:21.376442	27.0	19.3	-63.8	0.0
2026-01-03 06:49:23.631433	27.1	19.6	-61.9	0.0
2026-01-03 06:49:25.888153	27.3	19.9	-63.1	0.0
2026-01-03 06:49:28.143125	27.5	20.2	-62.3	0.0
2026-01-03 06:49:30.396124	27.6	20.5	-62.9	0.0
2026-01-03 06:49:32.648420	27.8	20.7	-61.3	0.0
2026-01-03 06:49:34.902789	28.0	21.0	-62.6	0.0
2026-01-03 06:49:37.156480	28.2	21.3	-64.1	0.0
2026-01-03 06:49:39.412449	28.4	21.6	-63.8	0.0
2026-01-03 06:49:41.664320	28.6	21.9	-65.2	0.0
2026-01-03 06:49:43.920628	28.8	22.2	-62.0	0.0
2026-01-03 06:49:46.173830	29.0	22.5	-63.4	0.0
2026-01-03 06:49:48.427666	29.2	22.8	-63.6	0.0
2026-01-03 06:49:50.682864	29.4	23.2	-64.4	0.0
2026-01-03 06:49:52.936632	29.6	23.5	-65.4	0.0
2026-01-03 06:49:55.193133	29.8	23.8	-63.8	0.0
2026-01-03 06:49:57.447411	30.0	24.1	-65.2	0.0
2026-01-03 06:49:59.700569	30.2	24.5	-64.2	0.0
2026-01-03 06:50:01.950792	30.5	24.8	-65.8	0.0
2026-01-03 06:50:04.203362	30.7	25.1	-65.7	0.0
2026-01-03 06:50:06.455264	30.9	25.5	-65.4	0.0
2026-01-03 06:50:08.711206	31.2	25.8	-66.6	0.0
2026-01-03 06:50:10.965576	31.4	26.2	-63.0	0.0
2026-01-03 06:50:13.218805	31.7	26.5	-66.4	0.0
2026-01-03 06:50:15.473584	31.9	26.9	-66.9	0.0
2026-01-03 06:50:17.725277	32.2	27.2	-66.9	0.0
2026-01-03 06:50:19.981071	32.5	27.6	-67.9	0.0
2026-01-03 06:50:22.234905	32.7	28.0	-65.2	0.0
2026-01-03 06:50:24.487954	33.0	28.3	-66.6	0.0
2026-01-03 06:50:26.740699	33.3	28.7	-65.5	0.0
2026-01-03 06:50:28.994312	33.6	29.1	-67.3	0.0
2026-01-03 06:50:31.248326	33.9	29.5	-67.8	0.0
2026-01-03 06:50:33.503142	34.2	29.9	-68.3	0.0
2026-01-03 06:50:35.758139	34.5	30.3	-67.2	0.0
2026-01-03 06:50:38.011482	34.8	30.7	-67.9	0.0
2026-01-03 06:50:40.264545	35.2	31.1	-66.6	0.0
2026-01-03 06:50:42.516359	35.5	31.5	-67.6	0.0
2026-01-03 06:50:44.775457	35.9	31.9	-67.9	0.0
2026-01-03 06:50:47.027110	36.2	32.3	-67.0	0.0
2026-01-03 06:50:49.282116	36.6	32.8	-68.0	0.0
2026-01-03 06:50:51.537808	37.0	33.2	-68.2	0.0
2026-01-03 06:50:53.792273	37.4	33.6	-69.9	0.1
2026-01-03 06:50:56.043241	37.7	34.1	-69.5	1.6
2026-01-03 06:50:58.296702	38.2	34.5	-69.7	1.8
2026-01-03 06:51:00.549074	38.6	35.0	-68.9	0.3
2026-01-03 06:51:02.801379	39.0	35.4	-69.4	4.4
2026-01-03 06:51:05.054399	39.4	35.9	-70.5	3.3
2026-01-03 06:51:07.308610	39.9	36.3	-70.4	4.7
2026-01-03 06:51:09.566428	40.4	36.8	-70.3	5.1
2026-01-03 06:51:11.817027	40.8	37.3	-69.8	4.1
2026-01-03 06:51:14.069218	41.3	37.8	-70.3	4.6
2026-01-03 06:51:16.321462	41.8	38.2	-69.4	2.9
2026-01-03 06:51:18.575597	42.4	38.7	-69.8	4.7
2026-01-03 06:51:20.831901	42.9	39.2	-70.1	3.7
2026-01-03 06:51:23.086264	43.5	39.7	-70.5	3.8
2026-01-03 06:51:25.339627	44.0	40.2	-70.7	4.8
2026-01-03 06:51:27.591767	44.6	40.7	-69.0	3.5
2026-01-03 06:51:29.843905	45.2	41.2	-69.0	0.0
2026-01-03 06:51:32.096890	45.9	41.7	-68.9	2.5
2026-01-03 06:51:34.347810	46.5	42.2	-69.5	0.0
2026-01-03 06:51:36.602035	47.2	42.8	-70.1	3.1
2026-01-03 06:51:38.854856	47.9	43.3	-70.3	6.9
2026-01-03 06:51:41.105217	48.6	43.8	-70.1	6.4
2026-01-03 06:51:43.359777	49.3	44.3	-70.1	6.3
2026-01-03 06:51:45.612767	50.1	44.9	-70.3	5.2
2026-01-03 06:51:47.865682	50.9	45.4	-70.7	6.1
2026-01-03 06:51:50.116509	51.7	45.9	-70.2	6.2
2026-01-03 06:51:52.370515	52.5	46.4	-69.4	4.6
2026-01-03 06:51:54.621988	53.4	47.0	-67.6	1.7
2026-01-03 06:51:56.874602	54.3	47.5	-68.5	0.0
2026-01-03 06:51:59.125885	55.2	48.0	-70.0	6.0
2026-01-03 06:52:01.380324	56.2	48.6	-70.0	5.2
2026-01-03 06:52:03.633089	57.2	49.1	-69.8	2.9
2026-01-03 06:52:05.886103	58.2	49.6	-68.8	2.5
2026-01-03 06:52:08.137751	59.3	50.1	-68.4	3.7
2026-01-03 06:52:10.393906	60.4	50.6	-69.5	2.7
2026-01-03 06:52:12.645332	61.5	51.1	-69.0	6.8
2026-01-03 06:52:14.894620	62.7	51.6	-70.5	4.5
2026-01-03 06:52:17.149104	63.9	52.1	-69.1	4.1
2026-01-03 06:52:19.402464	65.2	52.6	-69.7	6.4
2026-01-03 06:52:21.656455	66.5	53.1	-69.5	3.4
2026-01-03 06:52:23.910711	67.8	53.6	-69.1	3.4
2026-01-03 06:52:26.166874	69.2	54.0	-68.4	4.2
2026-01-03 06:52:28.420604	70.7	54.5	-70.4	4.9
2026-01-03 06:52:30.673526	72.1	54.9	-69.2	4.4
2026-01-03 06:52:32.925421	73.6	55.3	-70.3	5.5
2026-01-03 06:52:35.179630	75.2	55.7	-70.1	1.7
2026-01-03 06:52:37.433673	76.8	56.1	-70.3	4.2
2026-01-03 06:52:39.687002	78.5	56.4	-69.5	0.4
2026-01-03 06:52:41.945396	80.1	56.7	-69.2	2.3
2026-01-03 06:52:44.198668	81.9	57.1	-71.7	7.1
2026-01-03 06:52:46.450661	83.6	57.3	-71.6	8.0
2026-01-03 06:52:48.702851	85.4	57.6	-71.1	6.9
2026-01-03 06:52:50.954929	87.3	57.8	-70.7	4.9
2026-01-03 06:52:53.207794	89.1	58.0	-71.5	7.7
2026-01-03 06:52:55.457974	91.0	58.2	-70.7	7.3
2026-01-03 06:52:57.711308	92.9	58.4	-71.1	7.7
2026-01-03 06:52:59.967911	94.9	58.5	-71.3	7.8
2026-01-03 06:53:02.220147	96.8	58.6	-71.6	7.5
2026-01-03 06:53:04.473848	98.8	58.7	-71.0	3.3
2026-01-03 06:53:06.726693	100.8	58.7	-70.7	2.6
2026-01-03 06:53:08.979493	102.7	58.7	-70.5	2.9
2026-01-03 06:53:11.231783	104.7	58.7	-71.5	6.1
2026-01-03 06:53:13.485427	106.7	58.6	-70.6	4.6
2026-01-03 06:53:15.740233	108.6	58.5	-72.4	7.6
2026-01-03 06:53:17.995051	110.6	58.4	-72.9	6.5
2026-01-03 06:53:20.248132	112.5	58.2	-73.0	7.8
2026-01-03 06:53:22.500490	114.4	58.1	-72.4	6.4
2026-01-03 06:53:24.755467	116.2	57.9	-72.9	7.2
2026-01-03 06:53:27.005807	118.1	57.6	-73.0	5.8
2026-01-03 06:53:29.259386	119.9	57.4	-72.8	7.4
2026-01-03 06:53:31.514895	121.7	57.1	-73.2	7.3
2026-01-03 06:53:33.768932	123.4	56.8	-73.2	7.2
2026-01-03 06:53:36.025417	125.1	56.4	-72.9	7.9
2026-01-03 06:53:38.279031	126.7	56.1	-73.0	7.7
2026-01-03 06:53:40.534980	128.3	55.7	-73.2	7.9
2026-01-03 06:53:42.787661	129.9	55.3	-73.4	8.4
2026-01-03 06:53:45.040647	131.4	54.9	-73.1	8.8
2026-01-03 06:53:47.296239	132.9	54.5	-73.1	7.9
2026-01-03 06:53:49.550465	134.4	54.0	-73.0	8.6
2026-01-03 06:53:51.804926	135.7	53.6	-72.4	8.8
2026-01-03 06:53:54.058156	137.1	53.1	-72.0	9.0
2026-01-03 06:53:56.313969	138.4	52.7	-72.3	8.7
2026-01-03 06:53:58.565916	139.7	52.2	-72.1	9.3
2026-01-03 06:54:00.818989	140.9	51.7	-72.4	8.6
2026-01-03 06:54:03.071863	142.1	51.2	-72.7	8.1
2026-01-03 06:54:05.325625	143.2	50.7	-72.6	8.0
2026-01-03 06:54:07.578696	144.3	50.2	-72.6	8.0
2026-01-03 06:54:09.832984	145.4	49.6	-72.6	8.1
2026-01-03 06:54:12.085805	146.4	49.1	-72.5	6.9
2026-01-03 06:54:14.341653	147.4	48.6	-72.5	7.5
2026-01-03 06:54:16.595594	148.4	48.1	-72.3	6.8
2026-01-03 06:54:18.848950	149.3	47.5	-72.3	7.1
2026-01-03 06:54:21.102897	150.2	47.0	-72.7	7.4
2026-01-03 06:54:23.356403	151.1	46.5	-72.5	7.8
2026-01-03 06:54:25.611688	152.0	45.9	-72.4	7.4
2026-01-03 06:54:27.863486	152.8	45.4	-72.4	7.9
2026-01-03 06:54:30.116353	153.6	44.9	-72.5	8.2
2026-01-03 06:54:32.366375	154.3	44.3	-72.1	7.2
2026-01-03 06:54:34.622666	155.1	43.8	-72.4	7.4
2026-01-03 06:54:36.873619	155.8	43.3	-72.5	7.7
2026-01-03 06:54:39.129513	156.5	42.8	-72.5	7.5
2026-01-03 06:54:41.385381	157.2	42.2	-72.4	7.5
2026-01-03 06:54:43.637218	157.8	41.7	-72.6	7.4
2026-01-03 06:54:45.889083	158.4	41.2	-72.7	7.9
2026-01-03 06:54:48.141782	159.1	40.7	-72.8	7.2
2026-01-03 06:54:50.394695	159.7	40.2	-73.0	7.5
2026-01-03 06:54:52.648197	160.2	39.7	-72.9	6.8
2026-01-03 06:54:54.899731	160.8	39.2	-73.0	7.0
2026-01-03 06:54:57.152457	161.3	38.7	-73.0	7.0
2026-01-03 06:54:59.408541	161.9	38.2	-73.1	6.6
2026-01-03 06:55:01.662309	162.4	37.7	-72.9	5.9
2026-01-03 06:55:03.912877	162.9	37.2	-72.4	5.6
2026-01-03 06:55:06.164214	163.3	36.8	-72.4	6.1
2026-01-03 06:55:08.414956	163.8	36.3	-72.1	5.4
2026-01-03 06:55:10.668417	164.3	35.8	-71.7	5.0
2026-01-03 06:55:12.921118	164.7	35.4	-72.0	5.9
2026-01-03 06:55:15.172185	165.1	34.9	-71.9	5.5
2026-01-03 06:55:17.424867	165.6	34.5	-71.6	5.7
2026-01-03 06:55:19.677053	166.0	34.0	-71.7	5.4
2026-01-03 06:55:21.929115	166.4	33.6	-71.8	5.6
2026-01-03 06:55:24.180388	166.7	33.1	-71.7	5.7
2026-01-03 06:55:26.433261	167.1	32.7	-71.6	5.7
2026-01-03 06:55:28.687053	167.5	32.3	-71.5	5.1
2026-01-03 06:55:30.937746	167.8	31.8	-71.8	5.2
2026-01-03 06:55:33.191643	168.2	31.4	-71.8	5.6
2026-01-03 06:55:35.443162	168.5	31.0	-71.6	5.5
2026-01-03 06:55:37.698618	168.9	30.6	-71.9	5.4
2026-01-03 06:55:39.949668	169.2	30.2	-71.8	5.2
2026-01-03 06:55:42.201906	169.5	29.8	-71.8	5.4
2026-01-03 06:55:44.461785	169.8	29.4	-72.1	5.2
2026-01-03 06:55:46.715631	170.1	29.0	-71.6	4.8
2026-01-03 06:55:48.968462	170.4	28.6	-71.8	4.2
2026-01-03 06:55:51.221885	170.7	28.3	-71.6	4.2
2026-01-03 06:55:53.473852	171.0	27.9	-71.8	3.7
2026-01-03 06:55:55.729983	171.3	27.5	-71.7	4.1
2026-01-03 06:55:57.981269	171.5	27.1	-72.0	4.1
2026-01-03 06:56:00.234756	171.8	26.8	-72.1	3.7
2026-01-03 06:56:02.490813	172.0	26.4	-71.8	4.2
2026-01-03 06:56:04.744729	172.3	26.1	-71.9	4.4
2026-01-03 06:56:06.995249	172.5	25.7	-72.1	2.7
2026-01-03 06:56:09.250784	172.8	25.4	-72.2	3.9
2026-01-03 06:56:11.503610	173.0	25.0	-72.0	3.3
2026-01-03 06:56:13.757012	173.3	24.7	-72.0	2.6
2026-01-03 06:56:16.008868	173.5	24.3	-72.1	2.4
2026-01-03 06:56:18.261024	173.7	24.0	-72.0	3.1
2026-01-03 06:56:20.513693	173.9	23.7	-71.8	2.9
2026-01-03 06:56:22.770079	174.1	23.4	-72.3	3.2
2026-01-03 06:56:25.021287	174.3	23.0	-72.6	3.0
2026-01-03 06:56:27.276163	174.5	22.7	-72.5	2.7
2026-01-03 06:56:29.530870	174.8	22.4	-72.6	2.6
2026-01-03 06:56:31.785871	174.9	22.1	-72.8	3.8
2026-01-03 06:56:34.038568	175.1	21.8	-72.8	4.1
2026-01-03 06:56:36.292078	175.3	21.5	-73.2	2.9
2026-01-03 06:56:38.546493	175.5	21.2	-72.4	2.5
2026-01-03 06:56:40.802006	175.7	20.9	-72.7	2.8
2026-01-03 06:56:43.055054	175.9	20.6	-72.9	2.6
2026-01-03 06:56:45.309410	176.1	20.3	-73.8	2.8
2026-01-03 06:56:47.563246	176.2	20.0	-73.3	2.5
2026-01-03 06:56:49.812447	176.4	19.8	-73.5	3.4
2026-01-03 06:56:52.062771	176.6	19.5	-73.4	3.1
2026-01-03 06:56:54.313984	176.7	19.2	-73.3	3.2
2026-01-03 06:56:56.566964	176.9	18.9	-73.6	0.5
2026-01-03 06:56:58.821199	177.1	18.6	-73.7	1.2
2026-01-03 06:57:01.072893	177.2	18.4	-74.0	0.2
2026-01-03 06:57:03.324072	177.4	18.1	-73.9	0.0
2026-01-03 06:57:05.576944	177.5	17.8	-74.1	1.2
2026-01-03 06:57:07.828439	177.7	17.6	-74.1	1.3
2026-01-03 06:57:10.080425	177.8	17.3	-74.4	1.1
2026-01-03 06:57:12.334122	178.0	17.1	-74.3	1.0
2026-01-03 06:57:14.585448	178.1	16.8	-74.0	0.2
2026-01-03 06:57:16.838806	178.2	16.6	-74.0	1.7
2026-01-03 06:57:19.092049	178.4	16.3	-74.2	0.8
2026-01-03 06:57:21.346378	178.5	16.1	-74.2	1.3
2026-01-03 06:57:23.597759	178.6	15.8	-74.4	1.6
2026-01-03 06:57:25.850953	178.8	15.6	-74.0	0.7
2026-01-03 06:57:28.102902	178.9	15.4	-74.4	1.0
2026-01-03 06:57:30.353862	179.0	15.1	-73.8	0.9
2026-01-03 06:57:32.605086	179.1	14.9	-74.2	1.4
2026-01-03 06:57:34.860405	179.3	14.6	-74.0	0.0
2026-01-03 06:57:37.110120	179.4	14.4	-73.8	0.4
2026-01-03 06:57:39.365657	179.5	14.2	-73.9	0.6
2026-01-03 06:57:41.619480	179.6	14.0	-73.8	0.0
2026-01-03 06:57:43.872147	179.7	13.7	-73.6	0.0
2026-01-03 06:57:46.123971	179.9	13.5	-73.5	0.5
2026-01-03 06:57:48.380382	180.0	13.3	-73.5	0.0
2026-01-03 06:57:50.633845	180.1	13.1	-73.7	0.8
2026-01-03 06:57:52.884501	180.2	12.9	-73.4	0.0
2026-01-03 06:57:55.136651	180.3	12.6	-73.6	0.0
2026-01-03 06:57:57.387553	180.4	12.4	-73.8	0.0
2026-01-03 06:57:59.640195	180.5	12.2	-73.9	0.0
2026-01-03 06:58:01.892055	180.6	12.0	-73.2	0.0
2026-01-03 06:58:04.146806	180.7	11.8	-73.0	0.0
2026-01-03 06:58:06.404244	180.8	11.6	-72.8	0.0
2026-01-03 06:58:08.658057	180.9	11.4	-72.7	0.0
2026-01-03 06:58:10.910382	181.0	11.2	-72.6	0.0
2026-01-03 06:58:13.166689	181.1	11.0	-72.7	0.0
2026-01-03 06:58:15.418617	181.2	10.8	-74.1	0.0
2026-01-03 06:58:17.671949	181.3	10.6	-74.0	0.0
2026-01-03 06:58:19.927181	181.4	10.4	-75.4	0.0
2026-01-03 06:58:22.182828	181.5	10.2	-79.7	0.0
#Closed at: 2026-01-03 06:47:44.105469