passes_logs/2026/01/03/planumMaritime01/planumMaritime01__20260103_181616_METEOR-M2_3_rec.log

#Pass ID: 20260103_181616_METEOR-M2 3
#Satellite: METEOR-M2 3
#Configuration: METEOR-M2 3
#Start time: 2026-01-03 18:16:21.716458

#LorettStation: 1.0.0 05.05.2024
#Station: planumMaritime01
#Location: 37.49445 lon 55.92918 lat
#TLE: 1 57166U 23091A   26002.77045503  .00000068  00000+0  48357-4 0  9995
#TLE: 2 57166  98.6347  60.9394 0002943 298.2973  61.7908 14.24029133130973

#Time	Az	El	Level	SNR
2026-01-03 18:16:23.893252	178.9	10.2	-80.8	0.0
2026-01-03 18:16:26.160180	179.0	10.4	-80.2	0.0
2026-01-03 18:16:28.430125	179.1	10.6	-78.8	3.2
2026-01-03 18:16:30.701399	179.2	10.8	-78.4	5.8
2026-01-03 18:16:32.972904	179.3	11.0	-78.0	6.6
2026-01-03 18:16:35.243824	179.4	11.2	-77.8	6.0
2026-01-03 18:16:37.519988	179.5	11.4	-77.3	5.9
2026-01-03 18:16:39.790018	179.6	11.6	-77.3	5.9
2026-01-03 18:16:42.063510	179.7	11.8	-77.6	6.4
2026-01-03 18:16:44.336628	179.8	12.0	-76.9	5.4
2026-01-03 18:16:46.614196	179.9	12.2	-77.6	6.2
2026-01-03 18:16:48.885599	180.1	12.4	-77.8	6.1
2026-01-03 18:16:51.157252	180.2	12.7	-77.3	6.6
2026-01-03 18:16:53.430990	180.3	12.9	-77.2	6.5
2026-01-03 18:16:55.701410	180.4	13.1	-77.5	6.8
2026-01-03 18:16:57.973566	180.5	13.3	-77.2	7.5
2026-01-03 18:17:00.242355	180.6	13.5	-77.3	7.7
2026-01-03 18:17:02.517007	180.7	13.8	-77.0	7.1
2026-01-03 18:17:04.794181	180.9	14.0	-77.2	7.2
2026-01-03 18:17:07.072118	181.0	14.2	-77.2	7.1
2026-01-03 18:17:09.349272	181.1	14.5	-77.4	8.0
2026-01-03 18:17:11.627554	181.2	14.7	-77.1	6.7
2026-01-03 18:17:13.901562	181.4	14.9	-77.4	7.8
2026-01-03 18:17:16.173857	181.5	15.2	-77.1	7.4
2026-01-03 18:17:18.446176	181.6	15.4	-76.7	7.0
2026-01-03 18:17:20.726767	181.8	15.6	-77.2	8.2
2026-01-03 18:17:23.005529	181.9	15.9	-76.9	7.3
2026-01-03 18:17:25.279725	182.0	16.1	-76.9	7.2
2026-01-03 18:17:27.553692	182.2	16.4	-77.3	8.1
2026-01-03 18:17:29.822214	182.3	16.6	-77.2	7.5
2026-01-03 18:17:32.092848	182.5	16.9	-76.9	6.6
2026-01-03 18:17:34.362402	182.6	17.2	-77.3	6.6
2026-01-03 18:17:36.635366	182.8	17.4	-77.2	7.5
2026-01-03 18:17:38.906143	182.9	17.7	-76.9	7.1
2026-01-03 18:17:41.175049	183.1	17.9	-77.1	8.2
2026-01-03 18:17:43.441048	183.2	18.2	-77.0	6.9
2026-01-03 18:17:45.710225	183.4	18.5	-76.8	7.3
2026-01-03 18:17:47.982644	183.5	18.7	-77.0	7.4
2026-01-03 18:17:50.249517	183.7	19.0	-76.8	7.5
2026-01-03 18:17:52.525892	183.9	19.3	-76.5	7.1
2026-01-03 18:17:54.799206	184.1	19.6	-76.6	8.1
2026-01-03 18:17:57.070896	184.2	19.9	-77.1	7.8
2026-01-03 18:17:59.348088	184.4	20.2	-76.8	7.4
2026-01-03 18:18:01.615722	184.6	20.5	-76.7	7.9
2026-01-03 18:18:03.873264	184.8	20.7	-76.4	6.6
2026-01-03 18:18:06.133309	185.0	21.0	-76.6	8.2
2026-01-03 18:18:08.391977	185.1	21.3	-77.2	7.9
2026-01-03 18:18:10.649744	185.3	21.6	-76.9	8.5
2026-01-03 18:18:12.912444	185.5	21.9	-76.5	7.2
2026-01-03 18:18:15.174428	185.7	22.3	-76.8	7.8
2026-01-03 18:18:17.435369	185.9	22.6	-77.1	6.8
2026-01-03 18:18:19.692760	186.2	22.9	-76.9	7.7
2026-01-03 18:18:21.948935	186.4	23.2	-77.1	7.5
2026-01-03 18:18:24.210050	186.6	23.5	-76.8	7.6
2026-01-03 18:18:26.486522	186.8	23.9	-76.8	8.5
2026-01-03 18:18:28.763685	187.0	24.2	-77.0	8.7
2026-01-03 18:18:31.036884	187.3	24.5	-77.1	8.4
2026-01-03 18:18:33.314099	187.5	24.9	-77.3	10.1
2026-01-03 18:18:35.591327	187.7	25.2	-76.7	8.4
2026-01-03 18:18:37.867644	188.0	25.6	-76.8	8.3
2026-01-03 18:18:40.142148	188.3	25.9	-77.1	7.9
2026-01-03 18:18:42.413133	188.5	26.3	-76.5	6.6
2026-01-03 18:18:44.683386	188.8	26.6	-76.7	9.0
2026-01-03 18:18:46.953101	189.0	27.0	-77.1	8.9
2026-01-03 18:18:49.223108	189.3	27.4	-77.3	8.0
2026-01-03 18:18:51.495052	189.6	27.7	-77.3	9.2
2026-01-03 18:18:53.768147	189.9	28.1	-77.2	10.2
2026-01-03 18:18:56.040134	190.2	28.5	-77.6	9.7
2026-01-03 18:18:58.315597	190.5	28.9	-77.4	9.2
2026-01-03 18:19:00.590407	190.8	29.3	-77.4	8.9
2026-01-03 18:19:02.865054	191.1	29.7	-77.1	9.2
2026-01-03 18:19:05.139610	191.4	30.1	-77.0	9.9
2026-01-03 18:19:07.414928	191.8	30.5	-77.4	10.2
2026-01-03 18:19:09.693373	192.1	30.9	-77.7	9.7
2026-01-03 18:19:11.970467	192.5	31.3	-77.5	10.3
2026-01-03 18:19:14.244582	192.8	31.7	-78.0	10.3
2026-01-03 18:19:16.519999	193.2	32.2	-77.5	9.4
2026-01-03 18:19:18.795858	193.6	32.6	-77.7	10.0
2026-01-03 18:19:21.072742	194.0	33.0	-77.8	10.6
2026-01-03 18:19:23.344731	194.4	33.5	-77.9	9.7
2026-01-03 18:19:25.615237	194.8	33.9	-77.6	9.4
2026-01-03 18:19:27.882202	195.2	34.4	-77.9	11.0
2026-01-03 18:19:30.147013	195.6	34.8	-78.0	11.1
2026-01-03 18:19:32.409241	196.1	35.3	-77.9	11.5
2026-01-03 18:19:34.676939	196.5	35.7	-78.0	11.7
2026-01-03 18:19:36.941466	197.0	36.2	-78.1	11.4
2026-01-03 18:19:39.206594	197.5	36.7	-77.8	11.2
2026-01-03 18:19:41.470997	198.0	37.2	-78.1	12.1
2026-01-03 18:19:43.737437	198.5	37.6	-78.1	12.5
2026-01-03 18:19:46.003056	199.0	38.1	-78.4	13.3
2026-01-03 18:19:48.273443	199.6	38.6	-78.4	13.7
2026-01-03 18:19:50.542350	200.1	39.1	-78.3	12.1
2026-01-03 18:19:52.805503	200.7	39.6	-78.3	12.9
2026-01-03 18:19:55.073040	201.3	40.1	-78.6	13.1
2026-01-03 18:19:57.332561	201.9	40.6	-78.4	12.3
2026-01-03 18:19:59.595962	202.5	41.1	-78.6	12.6
2026-01-03 18:20:01.862150	203.2	41.7	-78.5	13.3
2026-01-03 18:20:04.135525	203.9	42.2	-78.5	13.2
2026-01-03 18:20:06.406018	204.5	42.7	-78.6	12.9
2026-01-03 18:20:08.677654	205.3	43.2	-78.4	12.3
2026-01-03 18:20:10.951277	206.0	43.7	-78.9	12.7
2026-01-03 18:20:13.221632	206.8	44.3	-78.8	12.5
2026-01-03 18:20:15.494864	207.6	44.8	-78.7	13.0
2026-01-03 18:20:17.767204	208.4	45.3	-79.1	12.7
2026-01-03 18:20:20.039331	209.2	45.9	-79.2	12.5
2026-01-03 18:20:22.314932	210.1	46.4	-79.1	11.7
2026-01-03 18:20:24.585565	211.0	46.9	-79.0	11.9
2026-01-03 18:20:26.861588	211.9	47.5	-78.9	11.8
2026-01-03 18:20:29.136584	212.9	48.0	-79.1	10.8
2026-01-03 18:20:31.410343	213.9	48.5	-79.4	10.8
2026-01-03 18:20:33.682708	214.9	49.0	-79.7	11.0
2026-01-03 18:20:35.955086	216.0	49.6	-79.7	11.1
2026-01-03 18:20:38.229576	217.1	50.1	-79.6	10.6
2026-01-03 18:20:40.504309	218.3	50.6	-79.3	10.5
2026-01-03 18:20:42.778225	219.5	51.1	-79.3	10.2
2026-01-03 18:20:45.045801	220.7	51.6	-79.6	10.0
2026-01-03 18:20:47.315461	221.9	52.1	-79.7	9.9
2026-01-03 18:20:49.590173	223.2	52.5	-79.8	10.4
2026-01-03 18:20:51.865901	224.6	53.0	-79.9	9.6
2026-01-03 18:20:54.139599	226.0	53.5	-79.7	10.4
2026-01-03 18:20:56.409823	227.4	53.9	-79.5	10.0
2026-01-03 18:20:58.685756	228.9	54.3	-80.0	10.5
2026-01-03 18:21:00.962598	230.4	54.7	-79.9	10.4
2026-01-03 18:21:03.237579	232.0	55.1	-79.5	9.6
2026-01-03 18:21:05.511037	233.6	55.5	-79.6	10.6
2026-01-03 18:21:07.788236	235.2	55.8	-79.7	10.0
2026-01-03 18:21:10.058138	236.9	56.2	-79.9	10.4
2026-01-03 18:21:12.326968	238.6	56.5	-79.8	10.5
2026-01-03 18:21:14.602349	240.4	56.8	-79.7	10.6
2026-01-03 18:21:16.877020	242.2	57.0	-79.5	10.9
2026-01-03 18:21:19.149906	244.0	57.3	-79.6	10.5
2026-01-03 18:21:21.425309	245.9	57.5	-79.6	10.2
2026-01-03 18:21:23.698922	247.7	57.6	-79.6	9.8
2026-01-03 18:21:25.972950	249.6	57.8	-79.9	9.9
2026-01-03 18:21:28.244319	251.6	57.9	-80.0	9.9
2026-01-03 18:21:30.514908	253.5	58.0	-80.0	8.5
2026-01-03 18:21:32.782534	255.4	58.1	-79.9	8.3
2026-01-03 18:21:35.049156	257.4	58.1	-80.0	9.6
2026-01-03 18:21:37.314209	259.4	58.1	-80.0	8.7
2026-01-03 18:21:39.579814	261.3	58.1	-79.4	7.4
2026-01-03 18:21:41.849068	263.3	58.0	-79.6	7.2
2026-01-03 18:21:44.115676	265.2	57.9	-78.5	5.6
2026-01-03 18:21:46.383619	267.1	57.8	-78.9	7.9
2026-01-03 18:21:48.660010	269.0	57.6	-78.7	8.4
2026-01-03 18:21:50.935066	270.9	57.5	-78.4	8.6
2026-01-03 18:21:53.209101	272.7	57.3	-78.0	8.3
2026-01-03 18:21:55.484799	274.6	57.0	-77.6	7.4
2026-01-03 18:21:57.755853	276.4	56.8	-77.6	6.1
2026-01-03 18:22:00.024795	278.1	56.5	-78.3	6.8
2026-01-03 18:22:02.297690	279.8	56.2	-78.1	7.7
2026-01-03 18:22:04.564474	281.5	55.8	-77.5	6.3
2026-01-03 18:22:06.823064	283.1	55.5	-78.8	7.1
2026-01-03 18:22:09.079527	284.7	55.1	-78.0	5.4
2026-01-03 18:22:11.336556	286.3	54.7	-78.3	6.8
2026-01-03 18:22:13.597781	287.8	54.3	-78.4	6.1
2026-01-03 18:22:15.858048	289.2	53.9	-78.0	7.2
2026-01-03 18:22:18.114387	290.7	53.5	-78.2	7.1
2026-01-03 18:22:20.371479	292.0	53.0	-78.0	7.0
2026-01-03 18:22:22.633277	293.4	52.6	-77.6	7.9
2026-01-03 18:22:24.893468	294.7	52.1	-77.2	5.7
2026-01-03 18:22:27.156617	295.9	51.6	-77.6	4.6
2026-01-03 18:22:29.426979	297.1	51.1	-77.9	5.7
2026-01-03 18:22:31.698158	298.3	50.6	-78.2	7.2
2026-01-03 18:22:33.966518	299.5	50.1	-76.9	1.9
2026-01-03 18:22:36.237977	300.6	49.6	-77.9	7.1
2026-01-03 18:22:38.509368	301.6	49.1	-78.1	7.1
2026-01-03 18:22:40.776376	302.7	48.6	-77.9	6.7
2026-01-03 18:22:43.045519	303.7	48.1	-78.0	6.8
2026-01-03 18:22:45.315839	304.6	47.5	-78.5	8.0
2026-01-03 18:22:47.584516	305.6	47.0	-77.6	6.9
2026-01-03 18:22:49.855167	306.5	46.5	-77.5	8.5
2026-01-03 18:22:52.123985	307.3	45.9	-77.0	7.1
2026-01-03 18:22:54.392928	308.2	45.4	-76.7	5.4
2026-01-03 18:22:56.661340	309.0	44.9	-77.9	9.2
2026-01-03 18:22:58.933965	309.8	44.4	-77.9	10.8
2026-01-03 18:23:01.203944	310.6	43.8	-77.7	10.1
2026-01-03 18:23:03.470760	311.3	43.3	-77.1	9.6
2026-01-03 18:23:05.743250	312.0	42.8	-77.7	8.8
2026-01-03 18:23:08.009764	312.7	42.3	-77.6	9.6
2026-01-03 18:23:10.280615	313.4	41.8	-77.4	9.5
2026-01-03 18:23:12.547801	314.0	41.3	-76.7	7.1
2026-01-03 18:23:14.816072	314.7	40.7	-77.1	6.6
2026-01-03 18:23:17.090814	315.3	40.2	-77.2	8.6
2026-01-03 18:23:19.371192	315.9	39.7	-77.3	8.8
2026-01-03 18:23:21.642818	316.5	39.2	-76.9	7.3
2026-01-03 18:23:23.915693	317.0	38.7	-76.5	6.5
2026-01-03 18:23:26.189217	317.6	38.2	-74.3	0.3
2026-01-03 18:23:28.464070	318.1	37.8	-75.6	5.5
2026-01-03 18:23:30.740685	318.6	37.3	-76.0	5.4
2026-01-03 18:23:33.010281	319.1	36.8	-74.8	5.3
2026-01-03 18:23:35.277246	319.6	36.3	-75.5	6.2
2026-01-03 18:23:37.543422	320.1	35.9	-75.7	5.9
2026-01-03 18:23:39.811406	320.5	35.4	-75.2	5.4
2026-01-03 18:23:42.077253	321.0	35.0	-74.5	4.8
2026-01-03 18:23:44.346246	321.4	34.5	-75.5	6.1
2026-01-03 18:23:46.617597	321.8	34.1	-75.9	5.8
2026-01-03 18:23:48.886475	322.2	33.6	-75.2	3.8
2026-01-03 18:23:51.159361	322.6	33.2	-76.7	7.3
2026-01-03 18:23:53.430657	323.0	32.7	-75.1	4.4
2026-01-03 18:23:55.705134	323.4	32.3	-75.9	4.2
2026-01-03 18:23:57.979264	323.8	31.9	-75.3	4.1
2026-01-03 18:24:00.253221	324.1	31.5	-76.7	5.1
2026-01-03 18:24:02.524012	324.5	31.1	-75.6	4.3
2026-01-03 18:24:04.785789	324.8	30.6	-76.0	6.0
2026-01-03 18:24:07.037939	325.1	30.2	-74.7	4.0
2026-01-03 18:24:09.290585	325.5	29.8	-73.9	2.8
2026-01-03 18:24:11.546061	325.8	29.5	-74.9	4.1
2026-01-03 18:24:13.801597	326.1	29.1	-74.7	1.0
2026-01-03 18:24:16.056034	326.4	28.7	-75.3	3.2
2026-01-03 18:24:18.313335	326.7	28.3	-73.7	0.0
2026-01-03 18:24:20.572382	327.0	27.9	-74.2	1.9
2026-01-03 18:24:22.828578	327.3	27.6	-74.4	0.0
2026-01-03 18:24:25.083747	327.5	27.2	-73.5	0.0
2026-01-03 18:24:27.342976	327.8	26.8	-75.0	0.0
2026-01-03 18:24:29.612069	328.1	26.5	-73.8	0.8
2026-01-03 18:24:31.884447	328.3	26.1	-73.8	0.0
2026-01-03 18:24:34.156535	328.6	25.8	-74.9	0.0
2026-01-03 18:24:36.432263	328.8	25.4	-73.3	0.0
2026-01-03 18:24:38.706317	329.1	25.1	-74.0	1.3
2026-01-03 18:24:40.981978	329.3	24.7	-74.6	0.0
2026-01-03 18:24:43.256002	329.6	24.4	-73.9	0.0
2026-01-03 18:24:45.526415	329.8	24.1	-74.5	0.0
2026-01-03 18:24:47.796784	330.0	23.7	-74.0	0.0
2026-01-03 18:24:50.069923	330.2	23.4	-73.9	0.4
2026-01-03 18:24:52.343803	330.4	23.1	-74.0	0.4
2026-01-03 18:24:54.614531	330.7	22.8	-72.6	0.3
2026-01-03 18:24:56.887542	330.9	22.5	-69.2	0.0
2026-01-03 18:24:59.160520	331.1	22.2	-71.0	0.0
2026-01-03 18:25:01.435731	331.3	21.9	-72.4	0.0
2026-01-03 18:25:03.707640	331.5	21.6	-72.4	0.0
2026-01-03 18:25:05.977724	331.7	21.3	-72.0	0.0
2026-01-03 18:25:08.246280	331.8	21.0	-72.6	0.0
2026-01-03 18:25:10.516498	332.0	20.7	-73.1	0.0
2026-01-03 18:25:12.788787	332.2	20.4	-70.9	0.0
2026-01-03 18:25:15.061139	332.4	20.1	-71.2	0.0
2026-01-03 18:25:17.337549	332.6	19.8	-70.8	0.0
2026-01-03 18:25:19.606416	332.7	19.5	-71.8	0.0
2026-01-03 18:25:21.878605	332.9	19.2	-71.5	0.0
2026-01-03 18:25:24.150768	333.1	19.0	-72.8	0.0
2026-01-03 18:25:26.422885	333.2	18.7	-71.3	0.0
2026-01-03 18:25:28.696482	333.4	18.4	-71.6	0.0
2026-01-03 18:25:30.971030	333.6	18.2	-70.9	0.0
2026-01-03 18:25:33.245910	333.7	17.9	-70.5	0.0
2026-01-03 18:25:35.519087	333.9	17.6	-70.8	0.0
2026-01-03 18:25:37.792600	334.0	17.4	-71.5	0.0
2026-01-03 18:25:40.064643	334.2	17.1	-71.1	0.0
2026-01-03 18:25:42.342207	334.3	16.9	-71.3	0.0
2026-01-03 18:25:44.615953	334.5	16.6	-72.3	0.0
2026-01-03 18:25:46.888431	334.6	16.4	-71.3	0.0
2026-01-03 18:25:49.162950	334.7	16.1	-74.1	0.0
2026-01-03 18:25:51.434514	334.9	15.9	-70.8	0.0
2026-01-03 18:25:53.709842	335.0	15.6	-72.6	0.0
2026-01-03 18:25:55.983042	335.2	15.4	-71.6	0.0
2026-01-03 18:25:58.247041	335.3	15.2	-72.9	0.0
2026-01-03 18:26:00.516099	335.4	14.9	-73.2	0.0
2026-01-03 18:26:02.785562	335.5	14.7	-72.1	0.0
2026-01-03 18:26:05.052471	335.7	14.5	-73.8	0.0
2026-01-03 18:26:07.316498	335.8	14.2	-73.9	0.0
2026-01-03 18:26:09.586093	335.9	14.0	-73.6	0.0
2026-01-03 18:26:11.855089	336.0	13.8	-73.1	0.0
2026-01-03 18:26:14.128761	336.2	13.6	-74.2	0.0
2026-01-03 18:26:16.398098	336.3	13.3	-74.8	0.0
2026-01-03 18:26:18.662231	336.4	13.1	-74.7	0.0
2026-01-03 18:26:20.931631	336.5	12.9	-74.7	0.0
2026-01-03 18:26:23.199844	336.6	12.7	-75.9	0.0
2026-01-03 18:26:25.469930	336.7	12.5	-74.9	0.0
2026-01-03 18:26:27.741070	336.8	12.3	-75.4	0.0
2026-01-03 18:26:30.011494	336.9	12.1	-75.7	0.0
2026-01-03 18:26:32.286712	337.1	11.9	-74.8	0.0
2026-01-03 18:26:34.558286	337.2	11.6	-76.5	0.0
2026-01-03 18:26:36.835618	337.3	11.4	-76.2	0.0
2026-01-03 18:26:39.102696	337.4	11.2	-75.3	0.0
2026-01-03 18:26:41.365006	337.5	11.0	-74.5	0.0
2026-01-03 18:26:43.621639	337.6	10.8	-73.5	0.0
2026-01-03 18:26:45.879590	337.7	10.6	-71.5	0.0
2026-01-03 18:26:48.135993	337.8	10.4	-72.1	0.0
2026-01-03 18:26:50.391663	337.9	10.3	-77.3	0.0
2026-01-03 18:26:52.646937	338.0	10.1	-82.2	0.0
#Closed at: 2026-01-03 18:16:16.722793