passes_logs/2026/01/03/planumMaritime01/planumMaritime01__20260103_090751_METOP-C_rec.log

#Pass ID: 20260103_090751_METOP-C
#Satellite: METOP-C
#Configuration: METOP-C
#Start time: 2026-01-03 09:07:56.062403

#LorettStation: 1.0.0 05.05.2024
#Station: planumMaritime01
#Location: 37.49445 lon 55.92918 lat
#TLE: 1 43689U 18087A   26002.72709372  .00000270  00000+0  14335-3 0  9998
#TLE: 2 43689  98.6899  65.1718 0000179 339.5820  20.5350 14.21493833371325

#Time	Az	El	Level	SNR
2026-01-03 09:07:58.237361	2.6	10.2	-61.0	0.0
2026-01-03 09:08:00.491147	2.4	10.3	-63.9	0.0
2026-01-03 09:08:02.743931	2.2	10.5	-64.7	0.0
2026-01-03 09:08:04.998613	2.0	10.7	-64.5	0.0
2026-01-03 09:08:07.253789	1.8	10.8	-65.2	0.0
2026-01-03 09:08:09.507405	1.5	11.0	-64.4	0.0
2026-01-03 09:08:11.759937	1.3	11.2	-61.3	0.0
2026-01-03 09:08:14.012952	1.1	11.4	-62.8	0.0
2026-01-03 09:08:16.264149	0.9	11.5	-63.6	0.0
2026-01-03 09:08:18.517504	0.6	11.7	-64.3	0.0
2026-01-03 09:08:20.774616	0.4	11.9	-62.0	0.0
2026-01-03 09:08:23.027912	0.1	12.1	-63.9	0.0
2026-01-03 09:08:25.280118	359.9	12.2	-63.4	0.0
2026-01-03 09:08:27.537099	359.7	12.4	-63.0	0.0
2026-01-03 09:08:29.791546	359.4	12.6	-63.0	0.0
2026-01-03 09:08:32.042461	359.2	12.8	-66.2	0.0
2026-01-03 09:08:34.295708	358.9	13.0	-67.1	0.0
2026-01-03 09:08:36.551537	358.6	13.1	-65.3	0.0
2026-01-03 09:08:38.804856	358.4	13.3	-64.6	0.0
2026-01-03 09:08:41.057914	358.1	13.5	-67.3	0.0
2026-01-03 09:08:43.311078	357.8	13.7	-66.4	0.0
2026-01-03 09:08:45.566413	357.6	13.9	-67.3	0.0
2026-01-03 09:08:47.820467	357.3	14.1	-67.5	0.0
2026-01-03 09:08:50.073287	357.0	14.2	-66.0	0.0
2026-01-03 09:08:52.326116	356.7	14.4	-68.3	0.0
2026-01-03 09:08:54.578765	356.5	14.6	-67.3	0.0
2026-01-03 09:08:56.831199	356.2	14.8	-65.7	0.0
2026-01-03 09:08:59.085293	355.9	15.0	-64.4	0.0
2026-01-03 09:09:01.338522	355.6	15.2	-67.3	0.0
2026-01-03 09:09:03.592097	355.3	15.4	-65.5	0.0
2026-01-03 09:09:05.843694	355.0	15.6	-65.5	0.0
2026-01-03 09:09:08.099584	354.7	15.8	-65.1	0.0
2026-01-03 09:09:10.356544	354.3	16.0	-66.5	0.0
2026-01-03 09:09:12.614495	354.0	16.1	-66.2	0.0
2026-01-03 09:09:14.869191	353.7	16.3	-67.2	0.0
2026-01-03 09:09:17.124108	353.4	16.5	-64.7	0.0
2026-01-03 09:09:19.379289	353.1	16.7	-66.5	0.0
2026-01-03 09:09:21.632668	352.7	16.9	-66.9	0.0
2026-01-03 09:09:23.888407	352.4	17.1	-66.0	0.0
2026-01-03 09:09:26.142388	352.0	17.3	-66.7	0.0
2026-01-03 09:09:28.398383	351.7	17.5	-65.8	0.0
2026-01-03 09:09:30.653094	351.3	17.7	-68.5	0.0
2026-01-03 09:09:32.904840	351.0	17.9	-66.1	0.0
2026-01-03 09:09:35.158577	350.6	18.1	-64.8	0.0
2026-01-03 09:09:37.414014	350.2	18.3	-67.1	0.0
2026-01-03 09:09:39.668289	349.9	18.5	-64.1	0.0
2026-01-03 09:09:41.921969	349.5	18.7	-66.8	0.0
2026-01-03 09:09:44.174067	349.1	18.9	-63.4	0.0
2026-01-03 09:09:46.428395	348.7	19.1	-64.1	0.0
2026-01-03 09:09:48.681742	348.3	19.3	-61.0	0.0
2026-01-03 09:09:50.934457	347.9	19.5	-64.3	0.0
2026-01-03 09:09:53.188245	347.5	19.7	-64.4	0.0
2026-01-03 09:09:55.444542	347.1	19.9	-63.3	0.0
2026-01-03 09:09:57.699829	346.7	20.1	-64.3	0.0
2026-01-03 09:09:59.956907	346.3	20.3	-63.4	0.0
2026-01-03 09:10:02.210515	345.9	20.5	-65.8	0.0
2026-01-03 09:10:04.464386	345.4	20.7	-63.9	0.0
2026-01-03 09:10:06.717398	345.0	20.9	-65.7	0.0
2026-01-03 09:10:08.970138	344.5	21.1	-63.9	0.0
2026-01-03 09:10:11.226992	344.1	21.3	-65.1	0.0
2026-01-03 09:10:13.484100	343.6	21.5	-66.5	0.0
2026-01-03 09:10:15.735543	343.2	21.7	-65.6	0.0
2026-01-03 09:10:17.990390	342.7	21.9	-66.5	0.0
2026-01-03 09:10:20.243331	342.2	22.1	-65.3	0.0
2026-01-03 09:10:22.496644	341.8	22.3	-65.1	0.0
2026-01-03 09:10:24.751923	341.3	22.5	-64.8	0.0
2026-01-03 09:10:27.007896	340.8	22.7	-65.0	0.0
2026-01-03 09:10:29.261624	340.3	22.9	-66.8	0.0
2026-01-03 09:10:31.514917	339.8	23.1	-66.3	0.0
2026-01-03 09:10:33.767982	339.3	23.3	-67.4	0.0
2026-01-03 09:10:36.022294	338.8	23.5	-65.5	0.0
2026-01-03 09:10:38.274193	338.2	23.7	-65.6	0.0
2026-01-03 09:10:40.526757	337.7	23.9	-65.1	0.0
2026-01-03 09:10:42.783612	337.2	24.0	-66.6	0.0
2026-01-03 09:10:45.038453	336.6	24.2	-65.1	0.0
2026-01-03 09:10:47.292305	336.1	24.4	-65.6	0.0
2026-01-03 09:10:49.546035	335.5	24.6	-67.2	0.0
2026-01-03 09:10:51.801745	334.9	24.8	-67.2	0.0
2026-01-03 09:10:54.057846	334.4	25.0	-68.8	0.0
2026-01-03 09:10:56.313014	333.8	25.1	-66.9	0.0
2026-01-03 09:10:58.569482	333.2	25.3	-68.1	0.0
2026-01-03 09:11:00.819265	332.6	25.5	-66.8	0.0
2026-01-03 09:11:03.070310	332.0	25.7	-68.1	0.0
2026-01-03 09:11:05.321016	331.4	25.8	-68.5	0.0
2026-01-03 09:11:07.574144	330.8	26.0	-67.9	0.0
2026-01-03 09:11:09.827100	330.2	26.2	-69.6	0.0
2026-01-03 09:11:12.079254	329.6	26.3	-69.5	0.0
2026-01-03 09:11:14.334307	328.9	26.5	-69.3	0.0
2026-01-03 09:11:16.586988	328.3	26.7	-67.6	0.0
2026-01-03 09:11:18.838032	327.7	26.8	-69.1	0.7
2026-01-03 09:11:21.093213	327.0	27.0	-70.3	0.0
2026-01-03 09:11:23.345087	326.4	27.1	-66.4	0.0
2026-01-03 09:11:25.598052	325.7	27.3	-70.5	0.0
2026-01-03 09:11:27.852046	325.0	27.4	-69.5	0.0
2026-01-03 09:11:30.103367	324.4	27.5	-70.4	1.6
2026-01-03 09:11:32.357183	323.7	27.7	-69.7	0.9
2026-01-03 09:11:34.608770	323.0	27.8	-73.2	2.8
2026-01-03 09:11:36.861983	322.3	27.9	-73.5	2.8
2026-01-03 09:11:39.114361	321.6	28.0	-71.5	2.0
2026-01-03 09:11:41.367970	320.9	28.2	-70.0	0.0
2026-01-03 09:11:43.620404	320.2	28.3	-70.3	0.0
2026-01-03 09:11:45.873781	319.5	28.4	-72.5	3.8
2026-01-03 09:11:48.127160	318.8	28.5	-70.8	0.4
2026-01-03 09:11:50.383481	318.1	28.6	-70.8	0.5
2026-01-03 09:11:52.633992	317.3	28.7	-70.6	1.8
2026-01-03 09:11:54.885009	316.6	28.8	-71.9	3.2
2026-01-03 09:11:57.138877	315.9	28.9	-71.1	0.5
2026-01-03 09:11:59.395567	315.1	28.9	-71.4	1.5
2026-01-03 09:12:01.648783	314.4	29.0	-69.8	1.0
2026-01-03 09:12:03.900971	313.7	29.1	-69.0	0.0
2026-01-03 09:12:06.154831	312.9	29.1	-71.0	5.1
2026-01-03 09:12:08.407958	312.2	29.2	-69.7	1.0
2026-01-03 09:12:10.660716	311.4	29.3	-69.7	1.4
2026-01-03 09:12:12.914555	310.7	29.3	-70.6	0.0
2026-01-03 09:12:15.167744	309.9	29.4	-72.0	6.9
2026-01-03 09:12:17.423600	309.1	29.4	-71.4	5.0
2026-01-03 09:12:19.677159	308.4	29.4	-70.4	0.0
2026-01-03 09:12:21.930689	307.6	29.4	-72.3	5.8
2026-01-03 09:12:24.181930	306.8	29.5	-72.7	5.0
2026-01-03 09:12:26.435116	306.1	29.5	-72.8	5.1
2026-01-03 09:12:28.688923	305.3	29.5	-72.1	5.4
2026-01-03 09:12:30.941285	304.6	29.5	-70.5	0.0
2026-01-03 09:12:33.195891	303.8	29.5	-71.6	0.7
2026-01-03 09:12:35.451560	303.0	29.5	-70.9	0.0
2026-01-03 09:12:37.707001	302.3	29.5	-69.8	0.0
2026-01-03 09:12:39.957077	301.5	29.5	-70.3	1.7
2026-01-03 09:12:42.209988	300.7	29.4	-71.0	1.7
2026-01-03 09:12:44.467220	300.0	29.4	-68.8	0.8
2026-01-03 09:12:46.719817	299.2	29.4	-69.7	0.0
2026-01-03 09:12:48.973100	298.4	29.3	-69.8	1.5
2026-01-03 09:12:51.229208	297.7	29.3	-69.7	0.0
2026-01-03 09:12:53.481310	296.9	29.2	-71.2	2.4
2026-01-03 09:12:55.737755	296.2	29.2	-71.0	1.2
2026-01-03 09:12:57.991281	295.4	29.1	-71.5	2.0
2026-01-03 09:13:00.244352	294.7	29.0	-70.9	1.8
2026-01-03 09:13:02.499859	293.9	29.0	-72.7	0.0
2026-01-03 09:13:04.752775	293.2	28.9	-70.9	1.2
2026-01-03 09:13:07.006465	292.5	28.8	-69.2	0.8
2026-01-03 09:13:09.260115	291.7	28.7	-70.6	1.6
2026-01-03 09:13:11.514164	291.0	28.6	-70.8	2.8
2026-01-03 09:13:13.766170	290.3	28.5	-72.5	5.6
2026-01-03 09:13:16.016598	289.6	28.4	-71.5	3.7
2026-01-03 09:13:18.265114	288.9	28.3	-71.7	3.2
2026-01-03 09:13:20.519779	288.2	28.2	-71.0	1.0
2026-01-03 09:13:22.771869	287.5	28.1	-72.8	3.7
2026-01-03 09:13:25.023222	286.8	27.9	-72.4	2.3
2026-01-03 09:13:27.275802	286.1	27.8	-71.0	2.9
2026-01-03 09:13:29.527108	285.4	27.7	-69.6	0.0
2026-01-03 09:13:31.778518	284.7	27.6	-71.4	1.2
2026-01-03 09:13:34.031882	284.0	27.4	-71.8	2.4
2026-01-03 09:13:36.286865	283.3	27.3	-71.4	3.4
2026-01-03 09:13:38.544513	282.7	27.1	-72.0	3.6
2026-01-03 09:13:40.796339	282.0	27.0	-72.2	2.1
2026-01-03 09:13:43.049328	281.4	26.8	-70.8	0.6
2026-01-03 09:13:45.305487	280.7	26.7	-72.9	4.9
2026-01-03 09:13:47.558565	280.1	26.5	-71.7	5.0
2026-01-03 09:13:49.810993	279.5	26.4	-72.8	2.7
2026-01-03 09:13:52.064737	278.8	26.2	-72.6	4.3
2026-01-03 09:13:54.318088	278.2	26.0	-73.5	6.2
2026-01-03 09:13:56.572125	277.6	25.9	-72.5	3.2
2026-01-03 09:13:58.825864	277.0	25.7	-72.5	4.0
2026-01-03 09:14:01.079417	276.4	25.5	-72.1	2.7
2026-01-03 09:14:03.333760	275.8	25.4	-72.2	3.4
2026-01-03 09:14:05.584291	275.2	25.2	-72.8	4.1
2026-01-03 09:14:07.839066	274.6	25.0	-73.0	4.1
2026-01-03 09:14:10.094081	274.0	24.8	-73.3	5.3
2026-01-03 09:14:12.346652	273.5	24.6	-72.4	4.5
2026-01-03 09:14:14.600082	272.9	24.4	-72.6	4.2
2026-01-03 09:14:16.856149	272.4	24.3	-72.1	3.3
2026-01-03 09:14:19.108561	271.8	24.1	-72.4	4.4
2026-01-03 09:14:21.362650	271.3	23.9	-70.5	1.6
2026-01-03 09:14:23.615746	270.7	23.7	-71.2	0.9
2026-01-03 09:14:25.867838	270.2	23.5	-72.9	7.1
2026-01-03 09:14:28.122104	269.7	23.3	-72.5	6.0
2026-01-03 09:14:30.373891	269.2	23.1	-73.1	4.9
2026-01-03 09:14:32.627191	268.7	22.9	-73.2	6.3
2026-01-03 09:14:34.882826	268.2	22.7	-73.8	8.4
2026-01-03 09:14:37.136076	267.7	22.5	-74.0	7.3
2026-01-03 09:14:39.388495	267.2	22.3	-73.5	6.0
2026-01-03 09:14:41.643310	266.7	22.1	-73.6	5.0
2026-01-03 09:14:43.897149	266.2	21.9	-74.2	7.3
2026-01-03 09:14:46.150530	265.8	21.7	-74.5	7.2
2026-01-03 09:14:48.404935	265.3	21.5	-74.6	7.8
2026-01-03 09:14:50.656699	264.8	21.3	-74.7	7.6
2026-01-03 09:14:52.908611	264.4	21.1	-74.5	8.0
2026-01-03 09:14:55.163793	263.9	20.9	-74.1	5.7
2026-01-03 09:14:57.418127	263.5	20.7	-74.9	7.5
2026-01-03 09:14:59.674088	263.1	20.5	-74.5	6.1
2026-01-03 09:15:01.929872	262.6	20.3	-74.3	6.9
2026-01-03 09:15:04.184544	262.2	20.1	-74.7	7.4
2026-01-03 09:15:06.436621	261.8	19.9	-74.6	7.8
2026-01-03 09:15:08.691926	261.4	19.7	-75.0	6.8
2026-01-03 09:15:10.946534	261.0	19.5	-74.1	7.5
2026-01-03 09:15:13.200503	260.6	19.3	-74.6	7.5
2026-01-03 09:15:15.451252	260.2	19.1	-74.8	6.7
2026-01-03 09:15:17.705562	259.8	18.9	-75.1	7.2
2026-01-03 09:15:19.957832	259.4	18.7	-74.7	6.2
2026-01-03 09:15:22.211867	259.0	18.5	-75.2	5.5
2026-01-03 09:15:24.464641	258.6	18.3	-75.4	7.4
2026-01-03 09:15:26.716842	258.3	18.1	-75.7	7.4
2026-01-03 09:15:28.966800	257.9	17.9	-75.7	6.5
2026-01-03 09:15:31.217923	257.5	17.7	-74.8	4.8
2026-01-03 09:15:33.472485	257.2	17.5	-75.8	6.4
2026-01-03 09:15:35.723557	256.8	17.3	-75.6	6.9
2026-01-03 09:15:37.976595	256.5	17.1	-75.7	5.4
2026-01-03 09:15:40.228035	256.1	16.9	-76.0	5.6
2026-01-03 09:15:42.480313	255.8	16.7	-75.4	6.5
2026-01-03 09:15:44.731691	255.5	16.5	-75.7	5.9
2026-01-03 09:15:46.983914	255.1	16.3	-74.7	4.0
2026-01-03 09:15:49.237385	254.8	16.1	-75.2	5.6
2026-01-03 09:15:51.484157	254.5	15.9	-75.0	5.7
2026-01-03 09:15:53.737835	254.2	15.8	-75.3	6.5
2026-01-03 09:15:55.990609	253.9	15.6	-75.4	6.4
2026-01-03 09:15:58.244943	253.5	15.4	-75.7	6.3
2026-01-03 09:16:00.497210	253.2	15.2	-75.7	5.5
2026-01-03 09:16:02.748253	252.9	15.0	-75.8	5.4
2026-01-03 09:16:05.000001	252.6	14.8	-75.9	6.1
2026-01-03 09:16:07.254714	252.4	14.6	-75.9	5.8
2026-01-03 09:16:09.507546	252.1	14.4	-75.8	6.0
2026-01-03 09:16:11.760376	251.8	14.2	-75.9	5.9
2026-01-03 09:16:14.012318	251.5	14.0	-76.1	6.7
2026-01-03 09:16:16.266932	251.2	13.9	-76.0	4.7
2026-01-03 09:16:18.520799	250.9	13.7	-74.9	3.1
2026-01-03 09:16:20.774786	250.7	13.5	-75.6	5.4
2026-01-03 09:16:23.030402	250.4	13.3	-75.9	5.3
2026-01-03 09:16:25.283153	250.1	13.1	-75.7	5.7
2026-01-03 09:16:27.532233	249.9	12.9	-76.0	4.4
2026-01-03 09:16:29.785849	249.6	12.8	-76.1	5.4
2026-01-03 09:16:32.038349	249.4	12.6	-76.1	5.7
2026-01-03 09:16:34.290273	249.1	12.4	-76.1	5.1
2026-01-03 09:16:36.542983	248.9	12.2	-76.1	6.2
2026-01-03 09:16:38.799135	248.6	12.0	-76.4	4.7
2026-01-03 09:16:41.052182	248.4	11.9	-75.3	0.0
2026-01-03 09:16:43.304146	248.1	11.7	-75.5	4.1
2026-01-03 09:16:45.558099	247.9	11.5	-76.4	5.6
2026-01-03 09:16:47.811101	247.7	11.3	-76.2	5.5
2026-01-03 09:16:50.062534	247.4	11.2	-75.7	4.8
2026-01-03 09:16:52.316543	247.2	11.0	-76.2	5.3
2026-01-03 09:16:54.568217	247.0	10.8	-77.3	2.3
2026-01-03 09:16:56.820207	246.8	10.6	-78.2	4.0
2026-01-03 09:16:59.072271	246.6	10.5	-78.6	0.0
2026-01-03 09:17:01.327554	246.3	10.3	-80.5	0.0
2026-01-03 09:17:03.579778	246.1	10.1	-80.6	0.0
#Closed at: 2026-01-03 09:07:51.066586