passes_logs/2026/01/03/planumMaritime01/planumMaritime01__20260103_005650_METEOR-M2_4_rec.log

#Pass ID: 20260103_005650_METEOR-M2 4
#Satellite: METEOR-M2 4
#Configuration: METEOR-M2 4
#Start time: 2026-01-03 00:56:55.614120

#LorettStation: 1.0.0 05.05.2024
#Station: planumMaritime01
#Location: 37.49445 lon 55.92918 lat
#TLE: 1 59051U 24039A   26002.80814617  .00000078  00000+0  54502-4 0  9997
#TLE: 2 59051  98.6796 324.3898 0006077 292.7434  67.3101 14.22405343 95757

#Time	Az	El	Level	SNR
2026-01-03 00:56:57.781559	17.9	10.2	-72.3	0.0
2026-01-03 00:57:00.044988	17.9	10.4	-73.5	0.0
2026-01-03 00:57:02.307378	17.9	10.6	-73.5	0.0
2026-01-03 00:57:04.570614	18.0	10.8	-73.5	0.0
2026-01-03 00:57:06.837321	18.0	11.0	-72.7	0.0
2026-01-03 00:57:09.101466	18.0	11.2	-70.1	0.0
2026-01-03 00:57:11.366094	18.1	11.4	-70.8	0.0
2026-01-03 00:57:13.629775	18.1	11.6	-68.4	0.0
2026-01-03 00:57:15.903345	18.1	11.8	-70.8	0.0
2026-01-03 00:57:18.177879	18.2	12.0	-67.5	0.0
2026-01-03 00:57:20.455356	18.2	12.2	-71.1	0.0
2026-01-03 00:57:22.731920	18.2	12.5	-71.3	0.0
2026-01-03 00:57:25.004008	18.3	12.7	-69.6	0.0
2026-01-03 00:57:27.278029	18.3	12.9	-71.5	0.0
2026-01-03 00:57:29.552883	18.3	13.1	-68.6	0.0
2026-01-03 00:57:31.816236	18.4	13.3	-70.4	0.0
2026-01-03 00:57:34.073622	18.4	13.6	-67.9	0.0
2026-01-03 00:57:36.325950	18.5	13.8	-70.9	0.0
2026-01-03 00:57:38.583725	18.5	14.0	-71.1	0.0
2026-01-03 00:57:40.842605	18.5	14.3	-71.2	0.0
2026-01-03 00:57:43.102723	18.6	14.5	-71.7	0.0
2026-01-03 00:57:45.359241	18.6	14.7	-72.0	0.0
2026-01-03 00:57:47.615388	18.6	15.0	-71.9	0.0
2026-01-03 00:57:49.874921	18.7	15.2	-67.6	0.0
2026-01-03 00:57:52.129401	18.7	15.5	-71.2	0.0
2026-01-03 00:57:54.392498	18.8	15.7	-71.3	0.0
2026-01-03 00:57:56.666779	18.8	15.9	-72.7	0.0
2026-01-03 00:57:58.939269	18.8	16.2	-71.9	0.0
2026-01-03 00:58:01.212244	18.9	16.5	-73.3	0.0
2026-01-03 00:58:03.485537	18.9	16.7	-70.4	0.0
2026-01-03 00:58:05.758680	19.0	17.0	-68.1	0.0
2026-01-03 00:58:08.035122	19.0	17.2	-70.7	0.0
2026-01-03 00:58:10.310142	19.1	17.5	-72.0	0.0
2026-01-03 00:58:12.575500	19.1	17.8	-71.0	0.0
2026-01-03 00:58:14.844632	19.1	18.0	-70.5	0.0
2026-01-03 00:58:17.111860	19.2	18.3	-71.6	0.0
2026-01-03 00:58:19.372384	19.2	18.6	-72.4	0.0
2026-01-03 00:58:21.636724	19.3	18.9	-69.7	0.0
2026-01-03 00:58:23.903161	19.3	19.2	-72.3	0.0
2026-01-03 00:58:26.168094	19.4	19.4	-70.2	0.0
2026-01-03 00:58:28.436544	19.4	19.7	-70.6	0.0
2026-01-03 00:58:30.707595	19.5	20.0	-69.6	0.0
2026-01-03 00:58:32.983078	19.5	20.3	-70.7	0.0
2026-01-03 00:58:35.254337	19.6	20.6	-71.0	0.0
2026-01-03 00:58:37.528277	19.6	20.9	-70.0	0.0
2026-01-03 00:58:39.804539	19.7	21.2	-70.8	0.0
2026-01-03 00:58:42.078265	19.7	21.6	-70.6	0.0
2026-01-03 00:58:44.354051	19.8	21.9	-71.5	0.0
2026-01-03 00:58:46.629462	19.8	22.2	-72.2	0.0
2026-01-03 00:58:48.901771	19.9	22.5	-70.1	0.0
2026-01-03 00:58:51.178801	20.0	22.8	-70.4	0.0
2026-01-03 00:58:53.450906	20.0	23.2	-70.0	0.0
2026-01-03 00:58:55.725217	20.1	23.5	-72.4	0.0
2026-01-03 00:58:57.998639	20.1	23.9	-70.5	0.0
2026-01-03 00:59:00.270199	20.2	24.2	-71.9	0.0
2026-01-03 00:59:02.545638	20.3	24.6	-69.9	0.0
2026-01-03 00:59:04.815603	20.3	24.9	-73.1	0.0
2026-01-03 00:59:07.078305	20.4	25.3	-71.9	0.0
2026-01-03 00:59:09.344938	20.5	25.6	-71.4	0.0
2026-01-03 00:59:11.607580	20.5	26.0	-71.6	0.0
2026-01-03 00:59:13.865626	20.6	26.4	-67.2	0.0
2026-01-03 00:59:16.121889	20.7	26.8	-70.9	0.0
2026-01-03 00:59:18.386977	20.8	27.2	-69.9	0.0
2026-01-03 00:59:20.646905	20.8	27.5	-72.7	0.8
2026-01-03 00:59:22.912983	20.9	27.9	-72.6	0.0
2026-01-03 00:59:25.172755	21.0	28.3	-73.3	0.0
2026-01-03 00:59:27.428848	21.1	28.7	-73.4	1.2
2026-01-03 00:59:29.682570	21.1	29.2	-70.5	0.0
2026-01-03 00:59:31.937483	21.2	29.6	-73.2	2.7
2026-01-03 00:59:34.191065	21.3	30.0	-71.7	0.0
2026-01-03 00:59:36.445969	21.4	30.4	-74.0	3.7
2026-01-03 00:59:38.704759	21.5	30.9	-75.1	0.0
2026-01-03 00:59:40.962491	21.6	31.3	-75.4	1.4
2026-01-03 00:59:43.218778	21.7	31.8	-75.6	1.5
2026-01-03 00:59:45.474656	21.8	32.2	-71.5	0.0
2026-01-03 00:59:47.736326	21.9	32.7	-74.8	5.3
2026-01-03 00:59:49.996076	22.0	33.2	-70.6	0.0
2026-01-03 00:59:52.253348	22.1	33.7	-74.7	5.8
2026-01-03 00:59:54.512191	22.2	34.1	-73.4	5.7
2026-01-03 00:59:56.779898	22.3	34.6	-74.1	5.4
2026-01-03 00:59:59.045646	22.4	35.2	-74.5	5.5
2026-01-03 01:00:01.314867	22.5	35.7	-75.2	8.0
2026-01-03 01:00:03.579453	22.6	36.2	-75.9	6.8
2026-01-03 01:00:05.845802	22.8	36.7	-73.6	1.6
2026-01-03 01:00:08.110933	22.9	37.3	-74.6	5.3
2026-01-03 01:00:10.373940	23.0	37.8	-74.9	7.0
2026-01-03 01:00:12.641199	23.2	38.4	-76.9	8.8
2026-01-03 01:00:14.904119	23.3	38.9	-76.5	8.6
2026-01-03 01:00:17.168319	23.5	39.5	-76.9	7.5
2026-01-03 01:00:19.431659	23.6	40.1	-77.3	8.8
2026-01-03 01:00:21.693738	23.8	40.7	-76.0	5.7
2026-01-03 01:00:23.957758	23.9	41.3	-75.9	7.6
2026-01-03 01:00:26.227590	24.1	41.9	-75.8	5.9
2026-01-03 01:00:28.490356	24.3	42.5	-76.5	7.8
2026-01-03 01:00:30.755608	24.4	43.2	-76.9	7.9
2026-01-03 01:00:33.019030	24.6	43.8	-77.1	7.7
2026-01-03 01:00:35.287197	24.8	44.5	-77.5	10.8
2026-01-03 01:00:37.563336	25.0	45.2	-76.8	9.4
2026-01-03 01:00:39.835342	25.2	45.8	-77.2	9.7
2026-01-03 01:00:42.107599	25.5	46.5	-77.3	9.4
2026-01-03 01:00:44.380097	25.7	47.2	-77.2	7.6
2026-01-03 01:00:46.656496	25.9	48.0	-77.8	9.3
2026-01-03 01:00:48.931639	26.2	48.7	-77.9	8.8
2026-01-03 01:00:51.204384	26.5	49.4	-78.1	9.1
2026-01-03 01:00:53.480117	26.7	50.2	-78.3	8.0
2026-01-03 01:00:55.754710	27.0	51.0	-78.4	8.1
2026-01-03 01:00:58.032320	27.3	51.7	-77.9	7.5
2026-01-03 01:01:00.305817	27.7	52.5	-78.8	9.7
2026-01-03 01:01:02.578490	28.0	53.3	-78.6	9.1
2026-01-03 01:01:04.854707	28.4	54.1	-78.2	8.4
2026-01-03 01:01:07.131792	28.7	55.0	-78.6	9.2
2026-01-03 01:01:09.405375	29.1	55.8	-78.6	8.3
2026-01-03 01:01:11.679316	29.6	56.7	-78.0	7.3
2026-01-03 01:01:13.953322	30.0	57.5	-78.2	6.4
2026-01-03 01:01:16.228593	30.5	58.4	-78.5	5.6
2026-01-03 01:01:18.504901	31.0	59.3	-78.9	7.1
2026-01-03 01:01:20.779478	31.6	60.2	-78.8	6.1
2026-01-03 01:01:23.054441	32.2	61.1	-79.3	8.1
2026-01-03 01:01:25.330430	32.8	62.0	-79.3	5.3
2026-01-03 01:01:27.604861	33.5	62.9	-78.3	5.6
2026-01-03 01:01:29.877106	34.2	63.8	-78.3	7.5
2026-01-03 01:01:32.144134	35.0	64.8	-78.0	6.0
2026-01-03 01:01:34.417979	35.9	65.7	-77.8	5.1
2026-01-03 01:01:36.687416	36.8	66.7	-78.6	7.9
2026-01-03 01:01:38.962795	37.9	67.6	-78.4	7.1
2026-01-03 01:01:41.229929	39.0	68.6	-78.2	4.7
2026-01-03 01:01:43.502919	40.2	69.6	-78.6	5.3
2026-01-03 01:01:45.770096	41.6	70.5	-78.8	5.7
2026-01-03 01:01:48.039817	43.2	71.5	-78.4	3.3
2026-01-03 01:01:50.311466	44.9	72.4	-78.5	4.6
2026-01-03 01:01:52.584456	46.8	73.4	-78.0	3.7
2026-01-03 01:01:54.857150	48.9	74.3	-79.4	7.5
2026-01-03 01:01:57.130147	51.4	75.3	-79.1	7.8
2026-01-03 01:01:59.407711	54.2	76.2	-79.7	8.8
2026-01-03 01:02:01.681550	57.3	77.0	-78.7	8.1
2026-01-03 01:02:03.957267	61.0	77.8	-79.6	9.4
2026-01-03 01:02:06.214317	65.1	78.6	-78.1	7.6
2026-01-03 01:02:08.469132	69.8	79.3	-79.3	10.1
2026-01-03 01:02:10.728864	75.1	80.0	-79.0	8.3
2026-01-03 01:02:12.986787	81.2	80.5	-78.8	9.2
2026-01-03 01:02:15.249199	87.9	80.9	-79.0	9.7
2026-01-03 01:02:17.508715	95.1	81.2	-78.4	9.0
2026-01-03 01:02:19.763893	102.7	81.4	-79.1	12.0
2026-01-03 01:02:22.020823	110.4	81.4	-78.6	10.6
2026-01-03 01:02:24.283206	118.0	81.2	-79.1	10.6
2026-01-03 01:02:26.543865	125.2	80.9	-79.2	10.5
2026-01-03 01:02:28.804781	131.8	80.5	-79.7	12.5
2026-01-03 01:02:31.082483	137.8	79.9	-79.6	12.2
2026-01-03 01:02:33.357200	143.2	79.3	-79.7	12.2
2026-01-03 01:02:35.632797	147.9	78.5	-79.7	12.0
2026-01-03 01:02:37.903550	151.9	77.7	-79.5	10.2
2026-01-03 01:02:40.171647	155.5	76.9	-80.3	11.5
2026-01-03 01:02:42.445054	158.6	76.0	-80.7	10.6
2026-01-03 01:02:44.716452	161.3	75.1	-80.8	12.3
2026-01-03 01:02:46.986300	163.8	74.2	-81.2	11.6
2026-01-03 01:02:49.253873	165.9	73.3	-81.2	12.2
2026-01-03 01:02:51.520398	167.8	72.3	-81.2	12.2
2026-01-03 01:02:53.791782	169.5	71.4	-80.8	12.3
2026-01-03 01:02:56.057863	171.0	70.4	-81.1	12.3
2026-01-03 01:02:58.324800	172.3	69.4	-81.1	11.8
2026-01-03 01:03:00.594879	173.6	68.5	-81.8	11.1
2026-01-03 01:03:02.864422	174.7	67.5	-82.1	10.6
2026-01-03 01:03:05.130423	175.7	66.6	-82.3	10.0
2026-01-03 01:03:07.397087	176.7	65.6	-82.3	10.6
2026-01-03 01:03:09.669168	177.5	64.7	-81.6	11.0
2026-01-03 01:03:11.936052	178.3	63.7	-81.5	11.8
2026-01-03 01:03:14.207808	179.0	62.8	-81.7	11.1
2026-01-03 01:03:16.475876	179.7	61.9	-81.5	11.2
2026-01-03 01:03:18.743788	180.3	60.9	-81.9	12.2
2026-01-03 01:03:21.013349	180.9	60.0	-82.2	11.8
2026-01-03 01:03:23.283903	181.5	59.1	-82.4	10.9
2026-01-03 01:03:25.557537	182.0	58.3	-82.0	11.3
2026-01-03 01:03:27.833309	182.5	57.4	-82.2	11.4
2026-01-03 01:03:30.103961	182.9	56.5	-81.8	10.8
2026-01-03 01:03:32.383674	183.3	55.7	-81.6	12.2
2026-01-03 01:03:34.657799	183.7	54.8	-81.6	12.2
2026-01-03 01:03:36.929054	184.1	54.0	-81.9	11.9
2026-01-03 01:03:39.200483	184.5	53.2	-81.8	12.0
2026-01-03 01:03:41.474793	184.8	52.4	-81.2	12.5
2026-01-03 01:03:43.749990	185.1	51.6	-81.5	12.4
2026-01-03 01:03:46.021178	185.4	50.8	-81.6	11.6
2026-01-03 01:03:48.295229	185.7	50.0	-81.7	12.4
2026-01-03 01:03:50.567659	186.0	49.3	-81.6	12.6
2026-01-03 01:03:52.837157	186.3	48.5	-81.5	12.9
2026-01-03 01:03:55.109531	186.5	47.8	-81.1	12.1
2026-01-03 01:03:57.380970	186.8	47.1	-80.9	13.1
2026-01-03 01:03:59.649327	187.0	46.4	-80.8	12.8
2026-01-03 01:04:01.921525	187.2	45.7	-80.9	12.2
2026-01-03 01:04:04.437411	187.4	44.9	-80.7	13.2
2026-01-03 01:04:06.708051	187.6	44.3	-80.6	12.6
2026-01-03 01:04:08.975793	187.8	43.6	-80.3	12.2
2026-01-03 01:04:11.240052	188.0	43.0	-80.3	12.0
2026-01-03 01:04:13.506387	188.2	42.3	-79.8	12.7
2026-01-03 01:04:15.773367	188.4	41.7	-79.6	12.9
2026-01-03 01:04:18.035608	188.5	41.1	-79.4	11.7
2026-01-03 01:04:20.303461	188.7	40.5	-79.5	12.4
2026-01-03 01:04:22.569127	188.9	39.9	-79.6	12.2
2026-01-03 01:04:24.831097	189.0	39.3	-79.5	11.6
2026-01-03 01:04:27.085178	189.1	38.7	-79.6	12.7
2026-01-03 01:04:29.337786	189.3	38.1	-79.2	12.9
2026-01-03 01:04:31.588968	189.4	37.6	-79.4	11.6
2026-01-03 01:04:33.840305	189.6	37.0	-79.3	13.2
2026-01-03 01:04:36.093060	189.7	36.5	-78.8	10.3
2026-01-03 01:04:38.344717	189.8	36.0	-79.2	10.8
2026-01-03 01:04:40.600049	189.9	35.4	-79.3	11.3
2026-01-03 01:04:42.851116	190.0	34.9	-79.1	11.3
2026-01-03 01:04:45.101840	190.1	34.4	-79.1	10.9
2026-01-03 01:04:47.355083	190.3	33.9	-79.1	11.2
2026-01-03 01:04:49.607970	190.4	33.4	-78.9	12.2
2026-01-03 01:04:51.859625	190.5	33.0	-78.8	11.3
2026-01-03 01:04:54.114733	190.6	32.5	-78.3	11.1
2026-01-03 01:04:56.377697	190.7	32.0	-78.5	10.6
2026-01-03 01:04:58.642511	190.8	31.6	-78.3	9.2
2026-01-03 01:05:00.908570	190.9	31.1	-78.5	11.2
2026-01-03 01:05:03.173006	190.9	30.7	-78.8	9.5
2026-01-03 01:05:05.440936	191.0	30.2	-78.4	9.5
2026-01-03 01:05:07.709423	191.1	29.8	-78.1	8.4
2026-01-03 01:05:09.973500	191.2	29.4	-77.6	8.5
2026-01-03 01:05:12.237821	191.3	28.9	-78.4	8.5
2026-01-03 01:05:14.505806	191.4	28.5	-78.2	8.4
2026-01-03 01:05:16.773024	191.4	28.1	-78.4	9.2
2026-01-03 01:05:19.045256	191.5	27.7	-77.6	7.1
2026-01-03 01:05:21.318258	191.6	27.3	-78.8	9.8
2026-01-03 01:05:23.594381	191.7	26.9	-78.1	9.6
2026-01-03 01:05:25.870909	191.7	26.5	-78.5	11.6
2026-01-03 01:05:28.147984	191.8	26.1	-78.4	11.7
2026-01-03 01:05:30.424787	191.9	25.8	-78.1	9.5
2026-01-03 01:05:32.702633	191.9	25.4	-78.2	11.6
2026-01-03 01:05:34.977478	192.0	25.0	-78.7	10.0
2026-01-03 01:05:37.251628	192.1	24.7	-78.4	8.6
2026-01-03 01:05:39.528751	192.1	24.3	-78.5	11.8
2026-01-03 01:05:41.804554	192.2	24.0	-78.3	8.8
2026-01-03 01:05:44.080128	192.3	23.6	-79.3	11.3
2026-01-03 01:05:46.353798	192.3	23.3	-79.1	9.7
2026-01-03 01:05:48.630270	192.4	22.9	-78.3	9.4
2026-01-03 01:05:50.898941	192.4	22.6	-78.9	11.3
2026-01-03 01:05:53.169378	192.5	22.3	-79.1	9.7
2026-01-03 01:05:55.440074	192.5	21.9	-78.7	8.3
2026-01-03 01:05:57.712913	192.6	21.6	-78.5	10.2
2026-01-03 01:05:59.980603	192.7	21.3	-79.2	10.1
2026-01-03 01:06:02.250647	192.7	21.0	-79.2	11.2
2026-01-03 01:06:04.517129	192.8	20.7	-78.8	10.3
2026-01-03 01:06:06.786966	192.8	20.4	-79.0	11.4
2026-01-03 01:06:09.056816	192.9	20.1	-78.6	10.5
2026-01-03 01:06:11.325605	192.9	19.8	-79.1	10.1
2026-01-03 01:06:13.593006	193.0	19.5	-79.2	8.9
2026-01-03 01:06:15.862967	193.0	19.2	-78.8	10.7
2026-01-03 01:06:18.129906	193.1	18.9	-79.1	9.3
2026-01-03 01:06:20.397682	193.1	18.6	-79.0	8.8
2026-01-03 01:06:22.663764	193.1	18.3	-78.9	9.5
2026-01-03 01:06:24.935980	193.2	18.1	-79.2	9.0
2026-01-03 01:06:27.206127	193.2	17.8	-79.3	10.0
2026-01-03 01:06:29.475803	193.3	17.5	-79.2	7.9
2026-01-03 01:06:31.744838	193.3	17.2	-79.1	10.7
2026-01-03 01:06:34.016875	193.4	17.0	-78.8	9.9
2026-01-03 01:06:36.285703	193.4	16.7	-79.2	10.3
2026-01-03 01:06:38.551995	193.4	16.5	-78.9	8.4
2026-01-03 01:06:40.823336	193.5	16.2	-79.3	10.1
2026-01-03 01:06:43.095566	193.5	15.9	-78.9	10.1
2026-01-03 01:06:45.368812	193.6	15.7	-79.0	10.6
2026-01-03 01:06:47.640808	193.6	15.4	-79.1	10.6
2026-01-03 01:06:49.918096	193.6	15.2	-79.1	9.8
2026-01-03 01:06:52.189085	193.7	14.9	-79.4	10.2
2026-01-03 01:06:54.448043	193.7	14.7	-78.9	8.1
2026-01-03 01:06:56.708747	193.7	14.5	-79.1	10.3
2026-01-03 01:06:58.965565	193.8	14.2	-79.7	9.6
2026-01-03 01:07:01.220101	193.8	14.0	-79.5	10.5
2026-01-03 01:07:03.481076	193.9	13.8	-79.4	10.0
2026-01-03 01:07:05.739372	193.9	13.5	-79.1	9.8
2026-01-03 01:07:07.997291	193.9	13.3	-79.9	9.3
2026-01-03 01:07:10.258561	194.0	13.1	-79.4	8.1
2026-01-03 01:07:12.517537	194.0	12.9	-80.0	6.7
2026-01-03 01:07:14.774379	194.0	12.6	-79.7	7.7
2026-01-03 01:07:17.042976	194.1	12.4	-79.5	8.9
2026-01-03 01:07:19.309831	194.1	12.2	-79.6	9.9
2026-01-03 01:07:21.577397	194.1	12.0	-79.8	10.5
2026-01-03 01:07:23.841525	194.1	11.8	-79.3	8.7
2026-01-03 01:07:26.108950	194.2	11.6	-80.2	6.8
2026-01-03 01:07:28.373666	194.2	11.3	-80.0	8.3
2026-01-03 01:07:30.637398	194.2	11.1	-79.6	7.9
2026-01-03 01:07:32.904717	194.3	10.9	-80.1	7.7
2026-01-03 01:07:35.174260	194.3	10.7	-81.7	1.2
2026-01-03 01:07:37.445476	194.3	10.5	-84.0	0.0
2026-01-03 01:07:39.718492	194.4	10.3	-85.1	0.0
2026-01-03 01:07:41.989706	194.4	10.1	-86.2	0.0
#Closed at: 2026-01-03 00:56:50.620784