passes_logs/2026/01/03/planumMaritime01/planumMaritime01__20260103_072717_METOP-C_rec.log

#Pass ID: 20260103_072717_METOP-C
#Satellite: METOP-C
#Configuration: METOP-C
#Start time: 2026-01-03 07:27:22.781992

#LorettStation: 1.0.0 05.05.2024
#Station: planumMaritime01
#Location: 37.49445 lon 55.92918 lat
#TLE: 1 43689U 18087A   26002.72709372  .00000270  00000+0  14335-3 0  9998
#TLE: 2 43689  98.6899  65.1718 0000179 339.5820  20.5350 14.21493833371325

#Time	Az	El	Level	SNR
2026-01-03 07:27:24.933120	20.4	10.2	-68.5	0.0
2026-01-03 07:27:27.188643	20.5	10.4	-68.2	0.0
2026-01-03 07:27:29.439810	20.5	10.6	-65.0	0.0
2026-01-03 07:27:31.693432	20.6	10.8	-62.9	0.0
2026-01-03 07:27:33.945896	20.7	11.0	-63.4	0.0
2026-01-03 07:27:36.198583	20.8	11.2	-63.7	0.0
2026-01-03 07:27:38.449115	20.8	11.4	-59.4	0.0
2026-01-03 07:27:40.701416	20.9	11.6	-62.5	0.0
2026-01-03 07:27:42.952865	21.0	11.8	-61.3	0.0
2026-01-03 07:27:45.205104	21.1	12.0	-62.6	0.0
2026-01-03 07:27:47.455198	21.1	12.2	-60.3	0.0
2026-01-03 07:27:49.710522	21.2	12.4	-62.8	0.0
2026-01-03 07:27:51.963784	21.3	12.6	-59.0	0.0
2026-01-03 07:27:54.216083	21.4	12.8	-58.7	0.0
2026-01-03 07:27:56.468559	21.5	13.1	-63.0	0.0
2026-01-03 07:27:58.723166	21.5	13.3	-61.6	0.0
2026-01-03 07:28:00.979684	21.6	13.5	-64.6	0.0
2026-01-03 07:28:03.235239	21.7	13.7	-60.8	0.0
2026-01-03 07:28:05.487462	21.8	13.9	-59.4	0.0
2026-01-03 07:28:07.738338	21.9	14.2	-65.4	0.0
2026-01-03 07:28:09.989942	22.0	14.4	-59.4	0.0
2026-01-03 07:28:12.246943	22.1	14.6	-63.3	0.0
2026-01-03 07:28:14.498952	22.1	14.9	-59.7	0.0
2026-01-03 07:28:16.752990	22.2	15.1	-60.3	0.0
2026-01-03 07:28:19.011701	22.3	15.3	-61.6	0.0
2026-01-03 07:28:21.265452	22.4	15.6	-60.0	0.0
2026-01-03 07:28:23.518094	22.5	15.8	-59.7	0.0
2026-01-03 07:28:25.771398	22.6	16.1	-59.3	0.0
2026-01-03 07:28:28.025204	22.7	16.3	-61.0	0.0
2026-01-03 07:28:30.275879	22.8	16.6	-60.3	0.0
2026-01-03 07:28:32.531937	22.9	16.8	-59.6	0.0
2026-01-03 07:28:34.786408	23.0	17.1	-60.4	0.0
2026-01-03 07:28:37.044400	23.1	17.3	-61.9	0.0
2026-01-03 07:28:39.301932	23.2	17.6	-59.8	0.0
2026-01-03 07:28:41.555597	23.3	17.9	-63.1	0.0
2026-01-03 07:28:43.808939	23.5	18.1	-61.9	0.0
2026-01-03 07:28:46.063618	23.6	18.4	-60.4	0.0
2026-01-03 07:28:48.317768	23.7	18.7	-65.6	0.0
2026-01-03 07:28:50.573112	23.8	18.9	-62.4	0.0
2026-01-03 07:28:52.824509	23.9	19.2	-61.2	0.0
2026-01-03 07:28:55.079690	24.0	19.5	-61.0	0.0
2026-01-03 07:28:57.331600	24.1	19.8	-66.7	0.0
2026-01-03 07:28:59.584459	24.3	20.1	-65.7	0.0
2026-01-03 07:29:01.837032	24.4	20.4	-63.8	0.0
2026-01-03 07:29:04.090796	24.5	20.7	-65.1	0.0
2026-01-03 07:29:06.345055	24.7	21.0	-61.6	0.0
2026-01-03 07:29:08.598941	24.8	21.3	-62.9	0.0
2026-01-03 07:29:10.852187	24.9	21.6	-61.7	0.0
2026-01-03 07:29:13.109763	25.1	21.9	-64.9	0.0
2026-01-03 07:29:15.365847	25.2	22.2	-64.0	0.0
2026-01-03 07:29:17.618235	25.3	22.5	-63.3	0.0
2026-01-03 07:29:19.865958	25.5	22.8	-64.1	0.0
2026-01-03 07:29:22.121320	25.6	23.1	-65.5	0.0
2026-01-03 07:29:24.375280	25.8	23.5	-62.9	0.0
2026-01-03 07:29:26.626499	25.9	23.8	-64.4	0.0
2026-01-03 07:29:28.880806	26.1	24.1	-65.4	0.0
2026-01-03 07:29:31.133969	26.3	24.5	-66.1	0.0
2026-01-03 07:29:33.388521	26.4	24.8	-65.3	0.0
2026-01-03 07:29:35.642373	26.6	25.1	-65.0	0.0
2026-01-03 07:29:37.894119	26.8	25.5	-63.9	0.0
2026-01-03 07:29:40.147227	26.9	25.9	-66.8	0.0
2026-01-03 07:29:42.399069	27.1	26.2	-66.1	0.0
2026-01-03 07:29:44.653467	27.3	26.6	-66.6	0.0
2026-01-03 07:29:46.908737	27.5	27.0	-64.7	0.0
2026-01-03 07:29:49.160572	27.7	27.3	-64.7	0.0
2026-01-03 07:29:51.414214	27.9	27.7	-65.7	0.0
2026-01-03 07:29:53.667069	28.1	28.1	-65.7	0.0
2026-01-03 07:29:55.919931	28.3	28.5	-66.2	0.0
2026-01-03 07:29:58.171351	28.5	28.9	-66.4	0.0
2026-01-03 07:30:00.424685	28.7	29.3	-67.5	0.0
2026-01-03 07:30:02.682275	28.9	29.7	-67.7	0.0
2026-01-03 07:30:04.933553	29.1	30.1	-68.6	0.0
2026-01-03 07:30:07.187294	29.4	30.5	-67.0	0.0
2026-01-03 07:30:09.443671	29.6	30.9	-64.8	0.0
2026-01-03 07:30:11.696697	29.8	31.4	-68.0	0.0
2026-01-03 07:30:13.948978	30.1	31.8	-70.5	0.0
2026-01-03 07:30:16.203775	30.4	32.2	-69.1	0.2
2026-01-03 07:30:18.456369	30.6	32.7	-70.3	0.1
2026-01-03 07:30:20.708737	30.9	33.1	-69.9	0.9
2026-01-03 07:30:22.962649	31.2	33.6	-69.5	0.1
2026-01-03 07:30:25.214739	31.4	34.1	-67.4	0.0
2026-01-03 07:30:27.467169	31.7	34.5	-69.3	1.8
2026-01-03 07:30:29.719204	32.0	35.0	-70.4	0.2
2026-01-03 07:30:31.971130	32.3	35.5	-69.1	2.6
2026-01-03 07:30:34.223300	32.7	36.0	-70.7	4.2
2026-01-03 07:30:36.479343	33.0	36.5	-70.3	3.6
2026-01-03 07:30:38.732872	33.3	37.0	-69.8	4.4
2026-01-03 07:30:40.986179	33.7	37.5	-67.8	2.3
2026-01-03 07:30:43.238879	34.0	38.0	-69.9	4.5
2026-01-03 07:30:45.493212	34.4	38.5	-69.5	4.9
2026-01-03 07:30:47.745862	34.8	39.1	-69.4	4.5
2026-01-03 07:30:49.999934	35.2	39.6	-69.4	4.7
2026-01-03 07:30:52.253240	35.6	40.2	-69.9	6.8
2026-01-03 07:30:54.509679	36.0	40.7	-69.6	4.7
2026-01-03 07:30:56.765540	36.4	41.3	-71.2	6.9
2026-01-03 07:30:59.019225	36.9	41.8	-71.2	6.4
2026-01-03 07:31:01.271486	37.4	42.4	-71.7	5.7
2026-01-03 07:31:03.527874	37.8	43.0	-70.4	4.3
2026-01-03 07:31:05.783928	38.3	43.6	-70.0	4.1
2026-01-03 07:31:08.036637	38.9	44.2	-70.4	5.1
2026-01-03 07:31:10.288722	39.4	44.8	-69.5	2.1
2026-01-03 07:31:12.546157	40.0	45.4	-70.0	6.2
2026-01-03 07:31:14.800177	40.5	46.0	-69.7	4.7
2026-01-03 07:31:17.050786	41.2	46.6	-69.8	8.1
2026-01-03 07:31:19.303373	41.8	47.2	-70.0	6.0
2026-01-03 07:31:21.555422	42.4	47.9	-69.7	7.7
2026-01-03 07:31:23.809185	43.1	48.5	-69.4	6.6
2026-01-03 07:31:26.063274	43.8	49.2	-69.1	8.8
2026-01-03 07:31:28.318090	44.6	49.8	-69.3	5.1
2026-01-03 07:31:30.568681	45.3	50.4	-70.2	8.5
2026-01-03 07:31:32.819316	46.1	51.1	-70.1	6.3
2026-01-03 07:31:35.071477	47.0	51.8	-69.6	5.3
2026-01-03 07:31:37.321947	47.9	52.4	-70.3	6.2
2026-01-03 07:31:39.576508	48.8	53.1	-69.8	4.0
2026-01-03 07:31:41.831349	49.7	53.7	-69.3	1.2
2026-01-03 07:31:44.083779	50.7	54.4	-69.0	4.1
2026-01-03 07:31:46.339517	51.8	55.1	-69.5	3.9
2026-01-03 07:31:48.589293	52.9	55.7	-70.2	6.9
2026-01-03 07:31:50.840055	54.1	56.4	-71.2	8.2
2026-01-03 07:31:53.093866	55.3	57.0	-71.3	7.1
2026-01-03 07:31:55.344267	56.5	57.7	-70.7	6.0
2026-01-03 07:31:57.595844	57.9	58.3	-70.5	6.1
2026-01-03 07:31:59.850112	59.3	59.0	-70.1	7.4
2026-01-03 07:32:02.103750	60.7	59.6	-70.6	5.4
2026-01-03 07:32:04.357335	62.3	60.2	-71.3	5.9
2026-01-03 07:32:06.614392	63.9	60.8	-71.2	8.7
2026-01-03 07:32:08.864630	65.6	61.4	-70.3	7.7
2026-01-03 07:32:11.116470	67.3	62.0	-71.3	8.0
2026-01-03 07:32:13.369556	69.2	62.5	-69.2	8.4
2026-01-03 07:32:15.620397	71.1	63.1	-69.5	6.7
2026-01-03 07:32:17.875646	73.1	63.6	-70.0	6.7
2026-01-03 07:32:20.130022	75.2	64.0	-71.1	9.5
2026-01-03 07:32:22.385331	77.4	64.5	-71.5	10.2
2026-01-03 07:32:24.637282	79.7	64.9	-71.8	10.3
2026-01-03 07:32:26.890685	82.1	65.3	-72.1	10.0
2026-01-03 07:32:29.145489	84.5	65.6	-71.1	8.0
2026-01-03 07:32:31.396337	87.0	65.9	-72.6	9.8
2026-01-03 07:32:33.651205	89.6	66.2	-71.7	9.2
2026-01-03 07:32:35.904642	92.2	66.4	-72.7	5.6
2026-01-03 07:32:38.159741	94.9	66.6	-74.5	9.2
2026-01-03 07:32:40.412433	97.6	66.7	-73.1	7.2
2026-01-03 07:32:42.664675	100.4	66.8	-72.8	9.9
2026-01-03 07:32:44.918494	103.1	66.8	-73.5	11.1
2026-01-03 07:32:47.173064	105.9	66.8	-73.0	11.5
2026-01-03 07:32:49.423219	108.7	66.7	-73.7	12.5
2026-01-03 07:32:51.672340	111.4	66.6	-73.0	9.2
2026-01-03 07:32:53.925321	114.1	66.5	-73.0	12.1
2026-01-03 07:32:56.176622	116.7	66.3	-72.1	8.6
2026-01-03 07:32:58.429059	119.3	66.0	-73.0	11.6
2026-01-03 07:33:00.681475	121.9	65.7	-72.9	10.9
2026-01-03 07:33:02.931674	124.3	65.4	-73.1	11.6
2026-01-03 07:33:05.183774	126.7	65.0	-73.1	9.4
2026-01-03 07:33:07.435260	129.0	64.6	-73.3	12.8
2026-01-03 07:33:09.689419	131.2	64.2	-72.9	12.3
2026-01-03 07:33:11.941750	133.4	63.7	-73.2	12.9
2026-01-03 07:33:14.194202	135.4	63.2	-72.6	10.1
2026-01-03 07:33:16.449681	137.4	62.7	-72.1	11.5
2026-01-03 07:33:18.700334	139.2	62.1	-73.4	14.7
2026-01-03 07:33:20.954999	141.0	61.6	-73.4	12.1
2026-01-03 07:33:23.208190	142.8	61.0	-73.1	13.3
2026-01-03 07:33:25.459869	144.4	60.4	-73.4	13.6
2026-01-03 07:33:27.709765	145.9	59.8	-73.5	12.9
2026-01-03 07:33:29.964089	147.4	59.1	-73.3	13.6
2026-01-03 07:33:32.216269	148.9	58.5	-73.2	14.1
2026-01-03 07:33:34.467365	150.2	57.9	-73.6	13.5
2026-01-03 07:33:36.723499	151.5	57.2	-74.0	12.6
2026-01-03 07:33:38.976011	152.7	56.6	-73.7	12.6
2026-01-03 07:33:41.227103	153.9	55.9	-73.8	12.7
2026-01-03 07:33:43.478292	155.0	55.2	-74.0	13.2
2026-01-03 07:33:45.737559	156.1	54.6	-73.8	13.6
2026-01-03 07:33:47.991215	157.1	53.9	-73.5	14.7
2026-01-03 07:33:50.245462	158.1	53.2	-73.6	15.4
2026-01-03 07:33:52.503131	159.0	52.6	-73.3	14.2
2026-01-03 07:33:54.757238	159.9	51.9	-73.1	15.0
2026-01-03 07:33:57.010614	160.8	51.2	-73.2	13.6
2026-01-03 07:33:59.264464	161.6	50.6	-73.7	15.6
2026-01-03 07:34:01.518706	162.3	49.9	-73.6	14.9
2026-01-03 07:34:03.776506	163.1	49.3	-73.9	15.0
2026-01-03 07:34:06.030947	163.8	48.6	-73.7	14.6
2026-01-03 07:34:08.285918	164.5	48.0	-74.2	15.1
2026-01-03 07:34:10.538431	165.2	47.4	-74.1	15.0
2026-01-03 07:34:12.791984	165.8	46.7	-74.1	15.1
2026-01-03 07:34:15.045588	166.4	46.1	-73.8	15.2
2026-01-03 07:34:17.301310	167.0	45.5	-73.8	15.1
2026-01-03 07:34:19.553447	167.6	44.9	-74.0	14.9
2026-01-03 07:34:21.807360	168.1	44.3	-73.8	14.2
2026-01-03 07:34:24.061034	168.6	43.7	-74.0	14.7
2026-01-03 07:34:26.314203	169.1	43.1	-73.7	14.8
2026-01-03 07:34:28.575274	169.6	42.5	-73.7	15.0
2026-01-03 07:34:30.826470	170.1	41.9	-73.7	14.3
2026-01-03 07:34:33.080633	170.6	41.3	-72.7	10.4
2026-01-03 07:34:35.332311	171.0	40.8	-72.8	11.4
2026-01-03 07:34:37.586532	171.4	40.2	-73.7	12.8
2026-01-03 07:34:39.838794	171.8	39.7	-72.9	9.8
2026-01-03 07:34:42.092185	172.2	39.1	-72.8	10.6
2026-01-03 07:34:44.345838	172.6	38.6	-73.6	12.3
2026-01-03 07:34:46.600663	173.0	38.1	-72.8	9.8
2026-01-03 07:34:48.852642	173.4	37.5	-72.9	9.4
2026-01-03 07:34:51.104148	173.7	37.0	-73.2	11.0
2026-01-03 07:34:53.356081	174.0	36.5	-73.4	11.1
2026-01-03 07:34:55.611294	174.4	36.0	-73.1	10.1
2026-01-03 07:34:57.864836	174.7	35.5	-72.9	9.1
2026-01-03 07:35:00.117556	175.0	35.0	-73.2	9.0
2026-01-03 07:35:02.372998	175.3	34.5	-72.1	9.3
2026-01-03 07:35:04.624345	175.6	34.1	-71.8	7.4
2026-01-03 07:35:06.878191	175.9	33.6	-72.1	9.2
2026-01-03 07:35:09.131781	176.2	33.1	-72.5	8.1
2026-01-03 07:35:11.383212	176.4	32.7	-72.6	9.6
2026-01-03 07:35:13.634513	176.7	32.2	-72.6	10.0
2026-01-03 07:35:15.886406	177.0	31.8	-72.8	8.9
2026-01-03 07:35:18.141255	177.2	31.3	-72.4	7.0
2026-01-03 07:35:20.394594	177.4	30.9	-72.6	7.4
2026-01-03 07:35:22.646766	177.7	30.5	-72.8	8.7
2026-01-03 07:35:24.899640	177.9	30.1	-72.7	7.4
2026-01-03 07:35:27.151895	178.1	29.7	-72.6	7.4
2026-01-03 07:35:29.407604	178.4	29.2	-73.0	7.7
2026-01-03 07:35:31.659978	178.6	28.8	-72.3	5.2
2026-01-03 07:35:33.913758	178.8	28.4	-72.8	7.3
2026-01-03 07:35:36.165104	179.0	28.1	-72.6	6.7
2026-01-03 07:35:38.419113	179.2	27.7	-73.2	8.5
2026-01-03 07:35:40.670328	179.4	27.3	-72.7	6.9
2026-01-03 07:35:42.920816	179.6	26.9	-73.1	8.1
2026-01-03 07:35:45.169863	179.8	26.5	-71.5	3.6
2026-01-03 07:35:47.421476	179.9	26.2	-72.0	4.1
2026-01-03 07:35:49.674491	180.1	25.8	-71.7	5.6
2026-01-03 07:35:51.926740	180.3	25.4	-72.2	4.6
2026-01-03 07:35:54.176559	180.5	25.1	-71.8	5.8
2026-01-03 07:35:56.426754	180.6	24.7	-72.2	5.6
2026-01-03 07:35:58.680589	180.8	24.4	-72.3	5.6
2026-01-03 07:36:00.933706	180.9	24.1	-72.1	2.8
2026-01-03 07:36:03.186650	181.1	23.7	-73.1	5.8
2026-01-03 07:36:05.438961	181.3	23.4	-72.9	5.5
2026-01-03 07:36:07.691681	181.4	23.1	-72.6	4.5
2026-01-03 07:36:09.943714	181.6	22.7	-73.1	5.5
2026-01-03 07:36:12.195280	181.7	22.4	-73.4	5.4
2026-01-03 07:36:14.446031	181.8	22.1	-74.3	4.7
2026-01-03 07:36:16.696551	182.0	21.8	-73.5	5.3
2026-01-03 07:36:18.947859	182.1	21.5	-73.9	5.6
2026-01-03 07:36:21.198785	182.3	21.2	-73.0	4.5
2026-01-03 07:36:23.452652	182.4	20.9	-74.1	6.7
2026-01-03 07:36:25.704849	182.5	20.6	-73.7	5.6
2026-01-03 07:36:27.959361	182.6	20.3	-74.2	6.2
2026-01-03 07:36:30.213313	182.8	20.0	-74.0	5.0
2026-01-03 07:36:32.467048	182.9	19.7	-74.0	5.2
2026-01-03 07:36:34.727044	183.0	19.4	-74.0	5.1
2026-01-03 07:36:36.978306	183.1	19.1	-73.8	5.3
2026-01-03 07:36:39.234024	183.2	18.8	-74.1	5.5
2026-01-03 07:36:41.488048	183.4	18.6	-73.2	4.0
2026-01-03 07:36:43.739386	183.5	18.3	-74.4	5.7
2026-01-03 07:36:45.991589	183.6	18.0	-73.6	4.8
2026-01-03 07:36:48.246079	183.7	17.7	-74.2	5.1
2026-01-03 07:36:50.497946	183.8	17.5	-74.3	3.9
2026-01-03 07:36:52.749850	183.9	17.2	-74.3	4.3
2026-01-03 07:36:54.999831	184.0	17.0	-74.5	5.9
2026-01-03 07:36:57.251719	184.1	16.7	-74.0	5.1
2026-01-03 07:36:59.505160	184.2	16.5	-74.6	3.9
2026-01-03 07:37:01.755679	184.3	16.2	-73.9	3.4
2026-01-03 07:37:04.008154	184.4	16.0	-74.6	4.9
2026-01-03 07:37:06.261264	184.5	15.7	-72.9	0.0
2026-01-03 07:37:08.513617	184.6	15.5	-74.6	3.8
2026-01-03 07:37:10.765999	184.7	15.2	-74.6	5.2
2026-01-03 07:37:13.015111	184.8	15.0	-74.4	6.3
2026-01-03 07:37:15.265858	184.9	14.7	-74.3	5.7
2026-01-03 07:37:17.518126	185.0	14.5	-73.9	5.0
2026-01-03 07:37:19.770372	185.0	14.3	-74.5	5.1
2026-01-03 07:37:22.022537	185.1	14.0	-74.1	3.8
2026-01-03 07:37:24.276858	185.2	13.8	-74.3	2.9
2026-01-03 07:37:26.527275	185.3	13.6	-74.2	4.1
2026-01-03 07:37:28.780167	185.4	13.4	-74.8	4.2
2026-01-03 07:37:31.032695	185.5	13.1	-74.1	3.8
2026-01-03 07:37:33.286683	185.5	12.9	-74.5	1.4
2026-01-03 07:37:35.542010	185.6	12.7	-74.4	3.0
2026-01-03 07:37:37.795303	185.7	12.5	-74.0	1.7
2026-01-03 07:37:40.049626	185.8	12.3	-74.6	1.4
2026-01-03 07:37:42.300580	185.9	12.1	-73.9	1.2
2026-01-03 07:37:44.550487	185.9	11.9	-74.0	0.0
2026-01-03 07:37:46.803555	186.0	11.6	-73.7	0.0
2026-01-03 07:37:49.057126	186.1	11.4	-74.2	0.0
2026-01-03 07:37:51.307619	186.2	11.2	-74.0	0.0
2026-01-03 07:37:53.560879	186.2	11.0	-73.5	0.0
2026-01-03 07:37:55.818843	186.3	10.8	-74.1	1.5
2026-01-03 07:37:58.072119	186.4	10.6	-73.6	0.0
2026-01-03 07:38:00.326489	186.4	10.4	-76.8	0.0
2026-01-03 07:38:02.577712	186.5	10.2	-80.8	0.0
2026-01-03 07:38:04.831102	186.6	10.0	-81.5	0.0
#Closed at: 2026-01-03 07:27:17.783365