passes_logs/2026/01/22/R2.0S_Moscow/R2.0S_Moscow__20260122_114639_NOAA_21_JPSS-2_rec.log

#Pass ID: 20260122_114639_NOAA 21 (JPSS-2)
#Satellite: NOAA 21 (JPSS-2)
#Configuration: NOAA-21
#almurnet v.1.7.20251203
#Start time: 2026-01-22 11:46:40

#Version: 2.2.20231116
#Station: R2.0S_Moscow
#Location: 37.707566 lon 55.798166 lat
#TLE: 1 54234U 22150A   26021.42686626  .00000211  00000+0  12107-3 0  9996
#TLE: 2 54234  98.7506 322.2490 0000636 241.9299 118.1812 14.19537149165725

#Time	Az	El	Level	Level2	SNR	BER	BlckErr	Temp	State	Recorded	gain1	gain2
2026-01-22 11:46:40.82	218.04	2.07	-44.3	-56.5	3.8	1.49e+00	0	55	0	0	59	15369
2026-01-22 11:46:43.86	218.30	2.22	-44.2	-56.6	3.8	1.49e+00	0	55	104	0	60	14690
2026-01-22 11:46:46.89	218.57	2.38	-44.2	-56.6	3.8	1.49e+00	0	56	104	0	60	14700
2026-01-22 11:46:49.92	218.83	2.53	-44.1	-56.6	3.8	1.49e+00	0	56	104	0	60	14707
2026-01-22 11:46:52.95	219.10	2.69	-44.2	-56.7	3.8	1.49e+00	0	56	104	0	60	14721
2026-01-22 11:46:55.99	219.37	2.84	-44.2	-56.5	3.8	1.49e+00	0	56	104	0	59	15364
2026-01-22 11:46:59.02	219.64	3.00	-44.2	-56.5	3.8	1.49e+00	0	56	104	0	59	15335
2026-01-22 11:47:02.05	219.92	3.15	-44.3	-56.5	3.8	1.49e+00	0	56	104	0	59	15366
2026-01-22 11:47:05.08	220.20	3.31	-44.2	-56.5	3.8	1.49e+00	0	56	104	0	59	15344
2026-01-22 11:47:08.11	220.48	3.47	-44.2	-56.5	3.8	1.49e+00	0	56	104	0	59	15392
2026-01-22 11:47:11.14	220.77	3.62	-44.2	-56.5	3.8	1.49e+00	0	57	104	0	59	15307
2026-01-22 11:47:14.18	221.05	3.78	-44.2	-56.5	3.8	1.49e+00	0	57	104	0	59	15294
2026-01-22 11:47:17.21	221.34	3.94	-44.2	-56.5	3.8	1.49e+00	0	57	104	0	59	15321
2026-01-22 11:47:20.24	221.64	4.10	-44.2	-56.4	3.8	1.49e+00	0	57	104	0	59	15125
2026-01-22 11:47:23.27	221.94	4.26	-44.2	-56.5	3.8	1.49e+00	0	57	104	0	59	15343
2026-01-22 11:47:26.30	222.24	4.41	-44.2	-56.5	3.8	1.49e+00	0	57	104	0	59	15318
2026-01-22 11:47:29.33	222.54	4.57	-44.2	-56.5	3.8	1.49e+00	0	57	104	0	59	15323
2026-01-22 11:47:32.36	222.84	4.73	-44.2	-56.5	3.8	1.49e+00	0	58	104	0	59	15279
2026-01-22 11:47:35.39	223.15	4.89	-44.2	-56.5	3.8	1.49e+00	0	58	104	0	59	15341
2026-01-22 11:47:38.43	223.47	5.05	-44.2	-56.4	3.8	1.49e+00	0	58	104	0	59	15221
2026-01-22 11:47:41.46	223.78	5.21	-44.2	-56.5	3.8	1.49e+00	0	58	104	0	59	15282
2026-01-22 11:47:44.49	224.10	5.37	-44.2	-56.4	3.8	1.49e+00	0	58	104	0	59	15179
2026-01-22 11:47:47.52	224.42	5.53	-44.2	-56.4	3.8	1.49e+00	0	58	104	0	59	15138
2026-01-22 11:47:50.55	224.75	5.69	-44.2	-56.3	3.8	1.49e+00	0	58	104	0	59	15044
2026-01-22 11:47:53.58	225.08	5.85	-44.2	-56.2	3.8	1.49e+00	0	58	104	0	59	14866
2026-01-22 11:47:56.61	225.41	6.01	-44.2	-56.1	3.8	1.49e+00	0	58	104	0	59	14657
2026-01-22 11:47:59.64	225.75	6.17	-44.2	-56.0	3.8	1.49e+00	0	58	104	0	59	14375
2026-01-22 11:48:02.67	226.09	6.33	-44.1	-55.7	3.8	1.49e+00	0	59	104	0	59	13964
2026-01-22 11:48:05.71	226.44	6.50	-44.1	-55.1	3.8	1.49e+00	0	59	104	0	59	13069
2026-01-22 11:48:08.74	226.78	6.66	-43.9	-54.0	3.9	1.47e+00	0	59	104	0	59	11514
2026-01-22 11:48:11.77	227.13	6.82	-43.7	-52.0	4.5	1.42e+00	5	59	104	0	59	9115
2026-01-22 11:48:14.80	227.49	6.98	-43.4	-50.8	5.0	7.17e-01	0	59	0	1048576	58	8379
2026-01-22 11:48:17.83	227.85	7.14	-43.4	-50.4	5.3	5.37e-01	0	59	0	11534336	58	8058
2026-01-22 11:48:20.86	228.21	7.30	-43.5	-51.0	4.9	7.17e-01	0	59	0	19922944	58	8623
2026-01-22 11:48:23.90	228.58	7.47	-43.5	-51.8	4.1	9.08e-01	0	59	104	25165824	58	9454
2026-01-22 11:48:26.93	228.95	7.63	-42.9	-48.8	6.5	2.74e-01	0	59	0	32505856	57	7073
2026-01-22 11:48:29.96	229.32	7.79	-42.1	-46.4	8.7	3.71e-02	0	59	0	41943040	56	5702
2026-01-22 11:48:32.99	229.70	7.95	-41.5	-45.4	9.6	1.30e-02	0	59	0	51380224	55	5378
2026-01-22 11:48:36.02	230.09	8.11	-42.5	-47.3	5.8	1.39e+00	0	59	104	55574528	56	6329
2026-01-22 11:48:39.05	230.47	8.28	-42.6	-47.6	7.6	6.69e-03	0	60	0	58720256	55	6913
2026-01-22 11:48:42.08	230.86	8.44	-40.9	-44.2	10.9	2.32e-03	0	59	0	68157440	53	5252
2026-01-22 11:48:45.11	231.26	8.60	-41.0	-44.3	10.8	2.42e-03	0	59	0	77594624	53	5293
2026-01-22 11:48:48.14	231.66	8.76	-40.9	-44.2	10.9	2.23e-03	0	59	0	87031808	53	5256
2026-01-22 11:48:51.17	232.06	8.92	-40.8	-44.0	11.2	1.53e-03	0	60	0	96468992	53	5123
2026-01-22 11:48:54.19	232.47	9.08	-40.8	-44.0	11.2	1.46e-03	0	60	0	105906176	53	5115
2026-01-22 11:48:57.22	232.88	9.24	-40.9	-44.0	11.2	1.41e-03	0	60	0	115343360	53	5125
2026-01-22 11:49:00.25	233.30	9.40	-40.9	-44.0	11.3	1.15e-03	0	60	0	124780544	53	5111
2026-01-22 11:49:03.28	233.72	9.56	-40.6	-43.6	11.7	6.64e-04	0	60	0	134217728	53	4891
2026-01-22 11:49:06.31	234.15	9.72	-40.7	-43.6	11.6	6.21e-04	0	60	0	143654912	53	4919
2026-01-22 11:49:09.34	234.58	9.88	-40.7	-43.7	11.5	7.48e-04	0	60	0	153092096	53	4968
2026-01-22 11:49:12.37	235.01	10.04	-40.7	-43.8	11.5	7.48e-04	0	60	0	162529280	53	4995
2026-01-22 11:49:15.40	235.45	10.20	-40.7	-43.6	11.7	6.11e-04	0	60	0	171966464	53	4906
2026-01-22 11:49:18.43	235.90	10.36	-40.7	-43.7	11.6	6.98e-04	0	60	0	181403648	53	4950
2026-01-22 11:49:21.46	236.34	10.52	-40.7	-43.7	11.6	7.33e-04	0	60	0	190840832	53	4971
2026-01-22 11:49:24.49	236.80	10.67	-40.6	-43.4	11.9	4.74e-04	0	60	0	201326592	53	4802
2026-01-22 11:49:27.52	237.26	10.83	-40.5	-43.3	12.0	4.36e-04	0	60	0	209715200	53	4753
2026-01-22 11:49:30.55	237.72	10.99	-40.3	-43.1	12.3	1.79e-04	0	60	0	220200960	52	4880
2026-01-22 11:49:33.58	238.19	11.14	-40.3	-43.0	12.3	1.47e-04	0	60	0	229638144	52	4860
2026-01-22 11:49:36.61	238.66	11.29	-40.4	-43.1	12.2	2.28e-04	0	60	0	239075328	52	4898
2026-01-22 11:49:39.64	239.14	11.45	-40.3	-43.1	12.3	2.10e-04	0	60	0	248512512	52	4887
2026-01-22 11:49:42.67	239.62	11.60	-40.4	-43.1	12.2	2.14e-04	0	60	0	257949696	52	4925
2026-01-22 11:49:45.70	240.11	11.75	-40.4	-43.1	12.3	2.10e-04	0	60	0	267386880	52	4923
2026-01-22 11:49:48.73	240.60	11.90	-40.4	-43.1	12.3	2.17e-04	0	60	0	276824064	52	4924
2026-01-22 11:49:51.76	241.10	12.05	-40.3	-43.0	12.5	1.17e-04	0	60	0	286261248	52	4836
2026-01-22 11:49:54.79	241.60	12.20	-40.2	-42.9	12.6	1.02e-04	0	61	0	295698432	52	4765
2026-01-22 11:49:57.82	242.10	12.35	-40.1	-42.7	12.7	7.85e-05	0	60	0	305135616	52	4683
2026-01-22 11:50:00.84	242.61	12.50	-40.2	-42.7	12.7	6.71e-05	0	60	0	314572800	52	4692
2026-01-22 11:50:03.87	243.13	12.64	-40.2	-42.7	12.7	7.85e-05	0	61	0	324009984	52	4696
2026-01-22 11:50:06.90	243.65	12.79	-40.3	-42.9	12.6	8.16e-05	0	60	0	333447168	52	4773
2026-01-22 11:50:09.93	244.18	12.93	-40.3	-42.9	12.6	9.30e-05	0	60	0	342884352	52	4802
2026-01-22 11:50:12.96	244.71	13.07	-40.3	-43.0	12.5	1.08e-04	0	61	0	352321536	52	4820
2026-01-22 11:50:15.98	245.24	13.21	-40.3	-42.9	12.6	8.23e-05	0	61	0	361758720	52	4794
2026-01-22 11:50:19.01	245.79	13.35	-40.3	-43.0	12.5	1.24e-04	0	60	0	371195904	52	4837
2026-01-22 11:50:22.04	246.33	13.49	-40.4	-43.1	12.3	1.30e-04	0	61	0	380633088	52	4919
2026-01-22 11:50:25.07	246.88	13.62	-40.5	-43.2	12.2	2.18e-04	0	61	0	390070272	52	4980
2026-01-22 11:50:28.10	247.44	13.75	-40.4	-43.1	12.4	1.69e-04	0	61	0	399507456	52	4901
2026-01-22 11:50:31.12	248.00	13.89	-40.3	-42.9	12.6	1.05e-04	0	61	0	408944640	52	4803
2026-01-22 11:50:34.16	248.56	14.02	-40.3	-42.8	12.7	7.55e-05	0	61	0	418381824	52	4748
2026-01-22 11:50:37.19	249.14	14.14	-40.3	-42.9	12.6	9.76e-05	0	61	0	427819008	52	4791
2026-01-22 11:50:40.22	249.71	14.27	-40.4	-43.1	12.4	1.29e-04	0	61	0	437256192	52	4914
2026-01-22 11:50:43.24	250.29	14.39	-40.3	-43.0	12.6	1.02e-04	0	61	0	446693376	52	4821
2026-01-22 11:50:46.27	250.87	14.52	-40.3	-42.9	12.6	9.30e-05	0	61	0	456130560	52	4789
2026-01-22 11:50:49.30	251.46	14.63	-40.3	-42.9	12.6	9.99e-05	0	61	0	465567744	52	4792
2026-01-22 11:50:52.32	252.05	14.75	-40.3	-42.9	12.6	9.84e-05	0	61	0	475004928	52	4799
2026-01-22 11:50:55.36	252.65	14.87	-40.3	-42.9	12.6	8.69e-05	0	61	0	484442112	52	4793
2026-01-22 11:50:58.39	253.26	14.98	-40.4	-43.0	12.5	1.15e-04	0	61	0	493879296	52	4864
2026-01-22 11:51:01.41	253.86	15.09	-40.2	-42.8	12.8	5.79e-05	0	61	0	503316480	52	4713
2026-01-22 11:51:04.44	254.47	15.20	-40.2	-42.7	12.9	4.95e-05	0	61	0	512753664	52	4668
2026-01-22 11:51:07.47	255.09	15.30	-40.2	-42.8	12.8	7.93e-05	0	61	0	522190848	52	4714
2026-01-22 11:51:10.50	255.71	15.40	-40.0	-42.4	13.1	2.82e-05	0	61	0	531628032	52	4538
2026-01-22 11:51:13.53	256.33	15.50	-39.9	-42.3	13.3	1.52e-05	0	61	0	541065216	51	4736
2026-01-22 11:51:16.55	256.96	15.60	-40.0	-42.5	13.2	1.98e-05	0	61	0	550502400	51	4817
2026-01-22 11:51:19.58	257.59	15.69	-40.2	-42.7	12.9	4.19e-05	0	61	0	560988160	51	4973
2026-01-22 11:51:22.61	258.22	15.79	-40.0	-42.5	13.2	2.59e-05	0	61	0	569376768	51	4820
2026-01-22 11:51:25.64	258.86	15.87	-40.0	-42.4	13.2	2.05e-05	0	61	0	579862528	51	4792
2026-01-22 11:51:28.66	259.50	15.96	-40.0	-42.4	13.3	1.90e-05	0	61	0	589299712	51	4767
2026-01-22 11:51:31.69	260.15	16.04	-39.8	-42.2	13.5	9.10e-06	0	61	0	598736896	51	4652
2026-01-22 11:51:34.72	260.80	16.12	-39.9	-42.2	13.4	1.52e-05	0	61	0	608174080	51	4691
2026-01-22 11:51:37.75	261.45	16.19	-40.0	-42.4	13.3	1.67e-05	0	61	0	617611264	51	4787
2026-01-22 11:51:40.79	262.11	16.27	-39.9	-42.3	13.4	1.44e-05	0	61	0	627048448	51	4723
2026-01-22 11:51:43.81	262.76	16.33	-39.9	-42.2	13.4	1.29e-05	0	61	0	636485632	51	4685
2026-01-22 11:51:46.84	263.42	16.40	-39.9	-42.3	13.4	1.44e-05	0	61	0	645922816	51	4709
2026-01-22 11:51:49.87	264.09	16.46	-39.8	-42.1	13.5	1.14e-05	0	61	0	655360000	51	4651
2026-01-22 11:51:52.90	264.75	16.52	-39.8	-42.2	13.5	1.06e-05	0	61	0	664797184	51	4659
2026-01-22 11:51:55.93	265.42	16.57	-40.0	-42.4	13.3	1.29e-05	0	61	0	674234368	51	4773
2026-01-22 11:51:58.96	266.09	16.62	-40.1	-42.5	13.2	3.12e-05	0	61	0	683671552	51	4859
2026-01-22 11:52:01.99	266.77	16.67	-39.9	-42.3	13.4	1.75e-05	0	61	0	693108736	51	4730
2026-01-22 11:52:05.02	267.44	16.72	-40.0	-42.4	13.3	2.28e-05	0	61	0	702545920	51	4782
2026-01-22 11:52:08.05	268.12	16.76	-40.0	-42.4	13.2	1.67e-05	0	61	0	711983104	51	4786
2026-01-22 11:52:11.08	268.80	16.79	-39.9	-42.2	13.4	2.05e-05	0	61	0	721420288	51	4691
2026-01-22 11:52:14.11	269.48	16.82	-39.9	-42.3	13.4	2.13e-05	0	61	0	730857472	51	4715
2026-01-22 11:52:17.14	270.16	16.85	-40.0	-42.4	13.3	1.67e-05	0	61	0	740294656	51	4795
2026-01-22 11:52:20.17	270.84	16.88	-39.8	-42.2	13.5	1.44e-05	0	61	0	749731840	51	4657
2026-01-22 11:52:23.20	271.52	16.90	-40.0	-42.3	13.3	1.98e-05	0	61	0	759169024	51	4738
2026-01-22 11:52:26.23	272.21	16.92	-40.0	-42.4	13.2	2.59e-05	0	61	0	768606208	51	4782
2026-01-22 11:52:29.26	272.89	16.93	-39.9	-42.3	13.3	1.37e-05	0	61	0	778043392	51	4721
2026-01-22 11:52:32.28	273.58	16.94	-39.9	-42.3	13.3	1.06e-05	0	61	0	787480576	51	4735
2026-01-22 11:52:35.32	274.26	16.94	-39.9	-42.2	13.4	1.52e-05	0	61	0	796917760	51	4697
2026-01-22 11:52:38.35	274.95	16.94	-39.9	-42.3	13.3	1.67e-05	0	61	0	806354944	51	4734
2026-01-22 11:52:41.37	275.63	16.94	-39.9	-42.3	13.3	1.60e-05	0	61	0	815792128	51	4726
2026-01-22 11:52:44.40	276.32	16.93	-40.0	-42.4	13.2	2.51e-05	0	61	0	825229312	51	4761
2026-01-22 11:52:47.43	277.00	16.92	-40.1	-42.6	13.0	3.50e-05	0	61	0	834666496	51	4895
2026-01-22 11:52:50.45	277.69	16.91	-40.1	-42.5	13.1	3.05e-05	0	61	0	844103680	51	4850
2026-01-22 11:52:53.48	278.37	16.89	-40.0	-42.5	13.1	2.59e-05	0	61	0	853540864	51	4842
2026-01-22 11:52:56.51	279.05	16.87	-40.0	-42.4	13.2	1.83e-05	0	61	0	862978048	51	4776
2026-01-22 11:52:59.54	279.73	16.84	-40.0	-42.4	13.2	2.59e-05	0	61	0	872415232	51	4771
2026-01-22 11:53:02.58	280.42	16.81	-40.0	-42.4	13.2	3.12e-05	0	61	0	881852416	51	4782
2026-01-22 11:53:05.60	281.09	16.78	-40.0	-42.4	13.2	2.51e-05	0	62	0	891289600	51	4806
2026-01-22 11:53:08.63	281.77	16.74	-39.9	-42.2	13.4	1.37e-05	0	61	0	901775360	51	4691
2026-01-22 11:53:11.66	282.44	16.70	-40.1	-42.6	13.0	1.98e-05	0	61	0	910163968	51	4871
2026-01-22 11:53:14.69	283.12	16.66	-40.0	-42.5	13.1	2.97e-05	0	61	0	920649728	51	4827
2026-01-22 11:53:17.72	283.79	16.61	-40.0	-42.5	13.1	2.44e-05	0	61	0	930086912	51	4816
2026-01-22 11:53:20.75	284.46	16.56	-40.2	-42.8	12.8	4.19e-05	0	61	0	939524096	51	4987
2026-01-22 11:53:23.77	285.12	16.50	-40.4	-43.0	12.6	7.78e-05	0	61	0	948961280	51	5128
2026-01-22 11:53:26.80	285.79	16.44	-40.0	-42.5	13.0	4.19e-05	0	61	0	958398464	51	4838
2026-01-22 11:53:29.83	286.45	16.38	-40.1	-42.6	12.9	4.42e-05	0	61	0	967835648	51	4892
2026-01-22 11:53:32.85	287.10	16.31	-40.0	-42.4	13.2	2.74e-05	0	61	0	977272832	51	4773
2026-01-22 11:53:35.88	287.76	16.25	-40.1	-42.6	12.8	3.89e-05	0	61	0	986710016	51	4922
2026-01-22 11:53:38.91	288.41	16.17	-40.1	-42.6	12.9	5.11e-05	0	61	0	996147200	51	4910
2026-01-22 11:53:41.95	289.06	16.10	-40.0	-42.4	13.1	3.28e-05	0	61	0	1005584384	51	4806
2026-01-22 11:53:44.98	289.71	16.02	-39.9	-42.3	13.2	2.44e-05	0	61	0	1015021568	51	4735
2026-01-22 11:53:48.00	290.35	15.94	-40.0	-42.5	13.0	4.57e-05	0	61	0	1024458752	51	4846
2026-01-22 11:53:51.03	290.99	15.85	-40.0	-42.5	13.0	3.73e-05	0	61	0	1033895936	51	4847
2026-01-22 11:53:54.06	291.63	15.76	-39.9	-42.3	13.2	2.82e-05	0	61	0	1043333120	51	4744
2026-01-22 11:53:57.09	292.26	15.67	-39.8	-42.2	13.3	2.21e-05	0	62	0	1052770304	51	4666
2026-01-22 11:54:00.12	292.89	15.58	-39.8	-42.2	13.2	1.60e-05	0	62	0	1062207488	51	4686
2026-01-22 11:54:03.15	293.51	15.48	-39.9	-42.3	13.2	3.05e-05	0	61	0	1071644672	51	4718
2026-01-22 11:54:06.18	294.13	15.38	-39.9	-42.3	13.2	2.36e-05	0	61	0	1081081856	51	4718
2026-01-22 11:54:09.21	294.74	15.28	-39.8	-42.2	13.2	2.36e-05	0	62	0	1090519040	51	4691
2026-01-22 11:54:12.24	295.36	15.17	-39.9	-42.4	13.1	2.89e-05	0	61	0	1099956224	51	4770
2026-01-22 11:54:15.27	295.96	15.06	-40.0	-42.6	12.9	5.03e-05	0	62	0	1109393408	51	4874
2026-01-22 11:54:18.30	296.57	14.95	-40.0	-42.5	12.9	4.11e-05	0	62	0	1118830592	51	4837
2026-01-22 11:54:21.33	297.17	14.84	-39.9	-42.3	13.2	1.83e-05	0	62	0	1128267776	51	4728
2026-01-22 11:54:24.37	297.76	14.73	-39.9	-42.3	13.2	3.66e-05	0	61	0	1137704960	51	4734
2026-01-22 11:54:27.39	298.35	14.61	-39.9	-42.4	13.1	2.28e-05	0	62	0	1147142144	51	4768
2026-01-22 11:54:30.42	298.93	14.49	-40.0	-42.5	13.0	2.67e-05	0	61	0	1156579328	51	4830
2026-01-22 11:54:33.45	299.51	14.37	-39.9	-42.3	13.2	1.60e-05	0	62	0	1166016512	51	4710
2026-01-22 11:54:36.48	300.09	14.24	-39.9	-42.4	13.1	1.67e-05	0	62	0	1175453696	51	4762
2026-01-22 11:54:39.51	300.66	14.12	-39.9	-42.3	13.2	2.59e-05	0	62	0	1184890880	51	4717
2026-01-22 11:54:42.54	301.23	13.99	-39.9	-42.4	13.1	2.59e-05	0	61	0	1194328064	51	4771
2026-01-22 11:54:45.58	301.79	13.86	-40.1	-42.6	12.9	3.96e-05	0	61	0	1203765248	51	4893
2026-01-22 11:54:48.61	302.35	13.73	-40.0	-42.5	13.0	4.04e-05	0	62	0	1213202432	51	4834
2026-01-22 11:54:51.63	302.90	13.60	-40.0	-42.4	13.1	3.43e-05	0	61	0	1223688192	51	4801
2026-01-22 11:54:54.66	303.44	13.46	-40.1	-42.6	12.9	5.87e-05	0	62	0	1232076800	51	4876
2026-01-22 11:54:57.69	303.99	13.33	-40.2	-42.8	12.7	7.32e-05	0	61	0	1242562560	51	5019
2026-01-22 11:55:00.72	304.52	13.19	-40.3	-42.9	12.5	1.20e-04	0	61	0	1250951168	51	5092
2026-01-22 11:55:03.75	305.05	13.05	-40.3	-42.9	12.5	1.35e-04	0	62	0	1261436928	51	5087
2026-01-22 11:55:06.77	305.58	12.91	-40.2	-42.8	12.6	9.84e-05	0	62	0	1270874112	51	4991
2026-01-22 11:55:09.80	306.10	12.77	-40.2	-42.8	12.6	7.17e-05	0	62	0	1280311296	51	4991
2026-01-22 11:55:12.83	306.62	12.63	-40.3	-42.9	12.5	1.20e-04	0	62	0	1289748480	51	5093
2026-01-22 11:55:15.86	307.13	12.48	-40.3	-43.0	12.4	1.65e-04	0	62	0	1299185664	51	5156
2026-01-22 11:55:18.89	307.64	12.34	-40.5	-43.3	12.1	2.67e-04	0	62	0	1308622848	51	5286
2026-01-22 11:55:21.92	308.14	12.19	-40.5	-43.2	12.1	2.55e-04	0	62	0	1318060032	51	5274
2026-01-22 11:55:24.95	308.64	12.04	-40.5	-43.3	12.0	3.75e-04	0	62	0	1327497216	51	5305
2026-01-22 11:55:27.98	309.13	11.89	-40.5	-43.3	12.0	2.80e-04	0	61	0	1336934400	51	5311
2026-01-22 11:55:31.01	309.62	11.74	-40.6	-43.4	11.9	3.75e-04	0	62	0	1346371584	51	5382
2026-01-22 11:55:34.03	310.10	11.59	-40.6	-43.5	11.8	4.29e-04	0	62	0	1355808768	51	5460
2026-01-22 11:55:37.06	310.58	11.44	-40.7	-43.7	11.5	7.07e-04	0	62	0	1365245952	52	5241
2026-01-22 11:55:40.09	311.06	11.29	-40.7	-43.7	11.5	8.57e-04	0	62	0	1374683136	52	5230
2026-01-22 11:55:43.12	311.53	11.14	-40.6	-43.6	11.6	6.71e-04	0	62	0	1384120320	52	5169
2026-01-22 11:55:46.15	311.99	10.98	-40.5	-43.4	11.8	3.93e-04	0	62	0	1393557504	52	5051
2026-01-22 11:55:49.18	312.45	10.83	-40.5	-43.4	11.7	4.68e-04	0	62	0	1402994688	52	5079
2026-01-22 11:55:52.21	312.91	10.67	-40.5	-43.4	11.8	4.75e-04	0	62	0	1412431872	52	5062
2026-01-22 11:55:55.24	313.36	10.52	-40.5	-43.5	11.7	6.48e-04	0	62	0	1421869056	52	5127
2026-01-22 11:55:58.26	313.80	10.36	-40.6	-43.6	11.5	7.45e-04	0	62	0	1431306240	52	5178
2026-01-22 11:56:01.29	314.24	10.21	-40.6	-43.6	11.5	8.64e-04	0	62	0	1440743424	52	5214
2026-01-22 11:56:04.33	314.68	10.05	-40.8	-43.9	11.2	1.26e-03	0	61	0	1450180608	52	5383
2026-01-22 11:56:07.35	315.11	9.89	-40.8	-43.9	11.2	1.30e-03	0	62	0	1459617792	52	5361
2026-01-22 11:56:10.38	315.54	9.73	-40.7	-43.9	11.2	1.33e-03	0	62	0	1469054976	52	5356
2026-01-22 11:56:13.41	315.96	9.58	-40.8	-44.0	11.1	1.53e-03	0	62	0	1478492160	52	5409
2026-01-22 11:56:16.43	316.38	9.42	-40.8	-43.9	11.1	1.53e-03	0	62	0	1487929344	52	5369
2026-01-22 11:56:19.46	316.79	9.26	-40.7	-43.8	11.3	1.19e-03	0	62	0	1497366528	52	5285
2026-01-22 11:56:22.49	317.20	9.10	-40.7	-43.9	11.1	1.52e-03	0	62	0	1506803712	52	5347
2026-01-22 11:56:25.52	317.61	8.94	-40.7	-43.9	11.2	1.33e-03	0	62	0	1516240896	52	5354
2026-01-22 11:56:28.55	318.01	8.78	-40.7	-43.9	11.1	1.49e-03	0	62	0	1525678080	52	5380
2026-01-22 11:56:31.58	318.41	8.62	-40.7	-43.9	11.1	1.78e-03	0	62	0	1535115264	52	5390
2026-01-22 11:56:34.61	318.80	8.46	-40.8	-44.1	10.9	2.08e-03	0	62	0	1544552448	52	5472
2026-01-22 11:56:37.64	319.19	8.30	-40.8	-44.0	11.0	2.02e-03	0	62	0	1553989632	52	5433
2026-01-22 11:56:40.66	319.57	8.14	-40.9	-44.2	10.7	3.06e-03	0	62	0	1563426816	52	5567
2026-01-22 11:56:43.69	319.95	7.98	-43.4	-51.2	4.1	1.20e-01	0	62	104	1572864000	58	8785
2026-01-22 11:56:46.72	320.33	7.82	-45.0	-57.4	3.8	1.49e+00	0	62	104	1572864000	60	15990
2026-01-22 11:56:49.75	320.70	7.66	-45.3	-57.7	3.8	1.49e+00	0	62	104	1572864000	61	15605
2026-01-22 11:56:52.79	321.07	7.50	-45.3	-57.7	3.8	1.49e+00	0	62	104	1572864000	61	15701
2026-01-22 11:56:55.81	321.43	7.34	-45.0	-57.6	3.8	1.49e+00	0	62	104	1572864000	61	15497
2026-01-22 11:56:58.84	321.80	7.18	-45.2	-57.6	3.8	1.49e+00	0	62	104	1572864000	61	15431
2026-01-22 11:57:01.88	322.15	7.02	-45.2	-57.6	3.8	1.49e+00	0	62	104	1572864000	61	15452
2026-01-22 11:57:04.91	322.51	6.86	-45.1	-57.5	3.8	1.49e+00	0	62	104	1572864000	60	16251
2026-01-22 11:57:07.94	322.86	6.70	-45.1	-57.5	3.8	1.49e+00	0	62	104	1572864000	60	16222
2026-01-22 11:57:10.97	323.20	6.54	-45.1	-57.6	3.8	1.49e+00	0	62	104	1572864000	60	16336
2026-01-22 11:57:14.00	323.55	6.39	-45.2	-57.5	3.8	1.49e+00	0	62	104	1572864000	60	16253
2026-01-22 11:57:17.04	323.89	6.23	-45.1	-57.5	3.8	1.49e+00	0	62	104	1572864000	60	16248
2026-01-22 11:57:20.07	324.22	6.07	-44.9	-57.5	3.8	1.49e+00	0	62	104	1572864000	60	16268
2026-01-22 11:57:23.10	324.55	5.91	-44.8	-57.5	3.8	1.49e+00	0	62	104	1572864000	60	16266
2026-01-22 11:57:26.13	324.88	5.75	-45.1	-57.5	3.8	1.49e+00	0	62	104	1572864000	60	16188
2026-01-22 11:57:29.16	325.21	5.59	-45.1	-57.5	3.8	1.49e+00	0	62	104	1572864000	60	16291
2026-01-22 11:57:32.19	325.53	5.43	-45.0	-57.5	3.8	1.49e+00	0	62	104	1572864000	60	16211
2026-01-22 11:57:35.22	325.85	5.27	-45.1	-57.5	3.8	1.49e+00	0	62	104	1572864000	60	16197
2026-01-22 11:57:38.25	326.16	5.12	-45.1	-57.6	3.8	1.49e+00	0	62	104	1572864000	60	16318
2026-01-22 11:57:41.28	326.48	4.96	-45.1	-57.5	3.8	1.49e+00	0	62	104	1572864000	60	16161
2026-01-22 11:57:44.32	326.79	4.80	-45.1	-57.5	3.8	1.49e+00	0	62	104	1572864000	60	16181
2026-01-22 11:57:47.35	327.09	4.64	-45.1	-57.5	3.8	1.49e+00	0	62	104	1572864000	60	16212
2026-01-22 11:57:50.38	327.39	4.49	-45.1	-57.5	3.8	1.49e+00	0	62	104	1572864000	60	16238
2026-01-22 11:57:53.41	327.69	4.33	-45.1	-57.5	3.8	1.49e+00	0	62	104	1572864000	60	16196
2026-01-22 11:57:56.44	327.99	4.18	-45.1	-57.5	3.8	1.49e+00	0	62	104	1572864000	60	16189
2026-01-22 11:57:59.47	328.28	4.02	-45.1	-57.5	3.8	1.49e+00	0	62	104	1572864000	60	16153
2026-01-22 11:58:02.50	328.57	3.86	-45.1	-57.4	3.8	1.49e+00	0	62	104	1572864000	60	16097
2026-01-22 11:58:05.53	328.86	3.71	-45.1	-57.4	3.8	1.49e+00	0	62	104	1572864000	60	16119
2026-01-22 11:58:08.56	329.15	3.55	-45.1	-57.5	3.8	1.49e+00	0	62	104	1572864000	60	16167
2026-01-22 11:58:11.59	329.43	3.40	-45.1	-57.5	3.8	1.49e+00	0	62	104	1572864000	60	16128
2026-01-22 11:58:14.63	329.71	3.25	-45.1	-57.5	3.8	1.49e+00	0	62	104	1572864000	60	16145
2026-01-22 11:58:17.66	329.99	3.09	-45.1	-57.4	3.8	1.49e+00	0	62	104	1572864000	60	16103
2026-01-22 11:58:20.69	330.26	2.94	-45.1	-57.4	3.8	1.49e+00	0	62	104	1572864000	60	16082
2026-01-22 11:58:23.72	330.53	2.78	-45.1	-57.4	3.8	1.49e+00	0	62	104	1572864000	60	16117
2026-01-22 11:58:26.75	330.80	2.63	-45.1	-57.4	3.8	1.49e+00	0	62	104	1572864000	60	16069
2026-01-22 11:58:29.78	331.06	2.48	-45.1	-57.4	3.8	1.49e+00	0	62	104	1572864000	60	16123
2026-01-22 11:58:32.81	331.33	2.33	-45.1	-57.5	3.8	1.49e+00	0	62	104	1572864000	60	16136
2026-01-22 11:58:35.84	331.59	2.18	-45.1	-57.5	3.8	1.49e+00	0	62	104	1572864000	60	16166
2026-01-22 11:58:38.87	331.85	2.02	-45.1	-57.5	3.8	1.49e+00	0	62	104	1572864000	60	16157

#Closed at: 2026-01-22 11:58:40
#Recorded file [1572 MB]: D:/lorett/data/31039_260122_144640.dat