passes_logs/2026/01/22/R2.0S_Moscow/R2.0S_Moscow__20260122_091437_NOAA_20_JPSS-1_rec.log

#Pass ID: 20260122_091437_NOAA 20 (JPSS-1)
#Satellite: NOAA 20 (JPSS-1)
#Configuration: NOAA 20
#almurnet v.1.7.20251203
#Start time: 2026-01-22 09:14:39

#Version: 2.2.20231116
#Station: R2.0S_Moscow
#Location: 37.707566 lon 55.798166 lat
#TLE: 1 43013U 17073A   26021.46221703  .00000173  00000+0  10299-3 0  9999
#TLE: 2 43013  98.7644 322.3335 0001238  29.7597 330.3649 14.19538314423652

#Time	Az	El	Level	Level2	SNR	BER	BlckErr	Temp	State	Recorded	gain1	gain2
2026-01-22 09:14:39.70	140.79	2.12	-38.2	-54.4	4.1	1.51e+00	0	51	0	0	44	28360
2026-01-22 09:14:43.73	140.68	2.37	-36.9	-53.1	4.4	1.52e+00	0	52	104	0	45	23112
2026-01-22 09:14:47.78	140.56	2.63	-33.3	-52.6	4.5	1.50e+00	0	52	104	0	40	29028
2026-01-22 09:14:51.82	140.44	2.90	-38.2	-54.7	4.2	1.50e+00	0	52	104	0	46	26392
2026-01-22 09:14:55.86	140.33	3.16	-31.7	-52.0	4.2	1.51e+00	0	53	104	0	36	34301
2026-01-22 09:14:59.90	140.20	3.43	-37.3	-54.9	4.0	1.51e+00	0	53	104	0	47	25471
2026-01-22 09:15:03.94	140.08	3.70	-29.7	-45.1	3.7	1.51e+00	0	53	104	0	28	24593
2026-01-22 09:15:07.98	139.95	3.97	-30.7	-49.5	4.1	1.51e+00	0	53	104	0	41	19233
2026-01-22 09:15:12.03	139.82	4.24	-37.1	-51.9	4.3	1.52e+00	0	54	104	0	37	32134
2026-01-22 09:15:16.07	139.69	4.52	-29.2	-47.8	4.4	1.51e+00	0	54	104	0	34	23645
2026-01-22 09:15:20.11	139.56	4.80	-26.8	-44.1	4.0	1.50e+00	0	54	104	0	29	20585
2026-01-22 09:15:24.16	139.42	5.08	-29.7	-46.9	4.1	1.51e+00	0	54	104	0	30	26870
2026-01-22 09:15:28.20	139.28	5.36	-34.1	-54.4	4.2	1.51e+00	0	54	104	0	39	37978
2026-01-22 09:15:32.24	139.14	5.65	-24.4	-51.8	4.1	1.51e+00	0	55	104	0	26	59557
2026-01-22 09:15:36.29	138.99	5.94	-31.2	-51.6	4.1	1.51e+00	0	55	0	0	34	36744
2026-01-22 09:15:40.33	138.84	6.24	-25.6	-52.0	4.2	1.51e+00	0	55	104	0	25	64796
2026-01-22 09:15:44.37	138.69	6.54	-28.8	-49.4	3.8	1.51e+00	0	55	104	0	26	45321
2026-01-22 09:15:48.41	138.54	6.84	-33.6	-53.5	4.2	1.50e+00	0	55	0	0	35	43238
2026-01-22 09:15:52.45	138.38	7.14	-30.4	-43.8	4.1	1.52e+00	0	56	104	0	30	18743
2026-01-22 09:15:56.49	138.22	7.45	-30.6	-50.0	4.0	1.51e+00	0	56	104	0	34	30417
2026-01-22 09:16:00.54	138.05	7.76	-31.5	-48.5	4.8	1.51e+00	0	56	104	0	38	20441
2026-01-22 09:16:04.58	137.88	8.07	-28.7	-44.9	3.9	1.52e+00	0	56	0	0	25	28507
2026-01-22 09:16:08.61	137.71	8.39	-28.4	-42.6	4.1	1.52e+00	0	56	104	0	27	19494
2026-01-22 09:16:12.65	137.53	8.71	-29.3	-47.0	4.0	1.52e+00	0	56	104	0	35	20338
2026-01-22 09:16:16.69	137.35	9.04	-37.8	-52.1	4.2	1.52e+00	0	56	104	0	40	27457
2026-01-22 09:16:20.73	137.16	9.37	-31.7	-45.1	3.9	1.52e+00	0	56	0	0	32	19522
2026-01-22 09:16:24.77	136.97	9.70	-29.8	-44.5	3.9	1.51e+00	0	57	0	0	32	18118
2026-01-22 09:16:28.80	136.77	10.04	-29.0	-44.8	4.0	1.52e+00	0	57	104	0	31	19844
2026-01-22 09:16:32.84	136.57	10.38	-28.5	-42.2	3.9	1.52e+00	0	57	104	0	26	19788
2026-01-22 09:16:36.88	136.37	10.73	-30.5	-44.3	4.3	1.45e+00	0	57	104	0	36	14208
2026-01-22 09:16:40.92	136.16	11.08	-30.4	-46.2	-4.1	1.51e+00	0	57	104	0	30	24747
2026-01-22 09:16:44.95	135.94	11.44	-22.7	-36.0	3.7	1.51e+00	0	57	104	0	16	17148
2026-01-22 09:16:48.99	135.72	11.80	-27.8	-46.3	4.0	1.51e+00	0	57	104	0	31	23737
2026-01-22 09:16:53.03	135.49	12.16	-22.3	-38.0	3.7	1.52e+00	0	57	104	0	22	15345
2026-01-22 09:16:57.06	135.26	12.53	-22.0	-34.6	3.7	1.51e+00	0	57	104	0	12	18471
2026-01-22 09:17:01.10	135.02	12.91	-27.0	-42.5	4.1	1.51e+00	0	57	104	0	29	17200
2026-01-22 09:17:05.14	134.77	13.29	-25.9	-39.9	4.1	1.51e+00	0	57	104	0	19	22756
2026-01-22 09:17:09.18	134.52	13.68	-26.7	-41.2	4.2	1.48e+00	0	57	104	0	27	16652
2026-01-22 09:17:13.22	134.26	14.07	-29.4	-42.6	4.5	1.50e+00	0	57	104	0	31	15505
2026-01-22 09:17:17.25	133.99	14.47	-30.2	-42.2	4.8	1.47e+00	0	58	104	0	35	11739
2026-01-22 09:17:21.29	133.72	14.87	-38.9	-55.1	4.2	1.50e+00	0	58	104	0	52	19499
2026-01-22 09:17:25.33	133.43	15.29	-41.2	-50.2	5.4	1.06e+00	46	58	104	0	53	10529
2026-01-22 09:17:29.37	133.14	15.70	-40.2	-53.0	4.2	1.47e+00	0	58	104	0	45	22970
2026-01-22 09:17:33.40	132.84	16.13	-31.6	-45.8	4.0	1.51e+00	0	58	104	1048576	28	26524
2026-01-22 09:17:37.44	132.53	16.56	-40.1	-46.4	4.6	1.44e+00	0	58	104	1048576	34	20146
2026-01-22 09:17:41.48	132.22	16.99	-42.2	-47.5	7.7	2.61e-01	4	58	0	3145728	49	9695
2026-01-22 09:17:45.52	131.89	17.44	-41.0	-57.6	3.8	1.51e+00	0	58	104	3145728	57	19543
2026-01-22 09:17:49.56	131.55	17.89	-39.3	-45.9	9.4	6.88e-01	0	58	0	5242880	50	7628
2026-01-22 09:17:53.60	131.20	18.35	-38.8	-45.4	11.6	6.31e-03	0	58	0	11534336	53	6045
2026-01-22 09:17:57.64	130.84	18.81	-42.1	-46.2	11.7	3.12e-02	0	58	0	18874368	54	6254
2026-01-22 09:18:01.67	130.47	19.29	-42.0	-46.0	12.0	3.00e-03	0	58	0	27262976	54	6112
2026-01-22 09:18:05.72	130.09	19.77	-42.2	-46.4	11.7	3.28e-03	0	58	0	34603008	55	6046
2026-01-22 09:18:09.75	129.70	20.26	-42.1	-46.4	11.7	8.67e-04	0	58	0	41943040	55	6003
2026-01-22 09:18:13.79	129.29	20.75	-42.3	-46.6	11.4	1.44e-03	0	58	0	49283072	55	6174
2026-01-22 09:18:17.83	128.86	21.26	-42.3	-46.7	11.5	8.95e-04	0	58	0	57671680	55	6219
2026-01-22 09:18:21.86	128.43	21.77	-42.4	-46.8	11.4	9.62e-04	0	58	0	65011712	55	6322
2026-01-22 09:18:25.90	127.98	22.30	-42.4	-46.8	11.4	9.86e-04	0	59	0	72351744	55	6311
2026-01-22 09:18:29.94	127.51	22.83	-42.5	-46.9	11.4	8.44e-04	0	59	0	79691776	55	6356
2026-01-22 09:18:33.97	127.02	23.37	-42.4	-46.6	11.6	6.91e-04	0	59	0	87031808	55	6184
2026-01-22 09:18:38.01	126.52	23.92	-42.5	-46.9	11.4	9.95e-04	0	59	0	95420416	55	6362
2026-01-22 09:18:42.05	126.00	24.48	-42.5	-46.8	11.5	7.15e-04	0	59	0	102760448	55	6283
2026-01-22 09:18:46.08	125.46	25.05	-42.4	-46.6	11.7	6.66e-04	0	59	0	110100480	55	6140
2026-01-22 09:18:50.12	124.90	25.63	-42.6	-47.0	11.3	9.30e-04	0	59	0	117440512	55	6469
2026-01-22 09:18:54.16	124.32	26.22	-42.5	-46.9	11.4	1.01e-03	0	59	0	125829120	55	6375
2026-01-22 09:18:58.20	123.72	26.82	-42.6	-47.1	11.2	1.44e-03	0	59	0	133169152	55	6561
2026-01-22 09:19:02.24	123.09	27.42	-42.5	-46.8	11.5	1.09e-03	0	59	0	140509184	55	6334
2026-01-22 09:19:06.27	122.44	28.04	-42.6	-46.8	11.5	6.74e-04	0	59	0	147849216	55	6345
2026-01-22 09:19:10.31	121.76	28.67	-42.8	-47.2	11.4	1.18e-03	0	59	0	155189248	56	6203
2026-01-22 09:19:14.35	121.05	29.31	-42.9	-47.3	11.2	1.28e-03	0	59	0	163577856	56	6326
2026-01-22 09:19:18.39	120.32	29.95	-42.9	-47.3	11.2	1.28e-03	0	59	0	170917888	56	6325
2026-01-22 09:19:22.42	119.55	30.61	-43.1	-48.0	10.5	3.69e-03	0	59	0	178257920	56	6840
2026-01-22 09:19:26.46	118.75	31.27	-43.4	-48.8	9.6	1.25e-02	0	59	0	185597952	57	7080
2026-01-22 09:19:30.50	117.92	31.94	-43.5	-49.1	9.4	1.54e-02	0	59	0	193986560	57	7320
2026-01-22 09:19:34.54	117.05	32.63	-43.4	-48.9	9.6	1.32e-02	0	59	0	201326592	57	7138
2026-01-22 09:19:38.58	116.15	33.31	-43.5	-48.9	9.6	1.59e-02	0	59	0	208666624	57	7175
2026-01-22 09:19:42.62	115.20	34.01	-43.5	-49.0	9.4	1.58e-02	0	59	0	216006656	57	7225
2026-01-22 09:19:46.65	114.22	34.71	-43.4	-48.7	9.7	9.17e-03	0	59	0	223346688	57	7032
2026-01-22 09:19:50.69	113.19	35.42	-43.4	-48.6	9.9	7.90e-03	0	59	0	231735296	57	6922
2026-01-22 09:19:54.73	112.11	36.13	-43.3	-48.3	10.3	6.68e-03	0	59	0	239075328	57	6662
2026-01-22 09:19:58.77	110.98	36.85	-43.2	-48.2	10.4	4.85e-03	0	59	0	246415360	57	6593
2026-01-22 09:20:02.80	109.81	37.57	-43.1	-47.9	10.7	3.58e-03	0	59	0	253755392	57	6375
2026-01-22 09:20:06.84	108.58	38.29	-43.0	-47.6	11.0	2.07e-03	0	59	0	261095424	57	6196
2026-01-22 09:20:10.88	107.29	39.01	-43.2	-48.0	10.6	3.46e-03	0	59	0	269484032	57	6465
2026-01-22 09:20:14.92	105.95	39.73	-43.3	-48.4	10.2	4.70e-03	0	59	0	276824064	57	6758
2026-01-22 09:20:18.96	104.54	40.44	-43.3	-48.3	10.2	6.13e-03	0	59	0	284164096	57	6701
2026-01-22 09:20:22.99	103.07	41.15	-43.6	-49.0	9.5	1.39e-02	0	59	0	291504128	57	7281
2026-01-22 09:20:27.03	101.54	41.85	-43.5	-48.8	9.8	1.20e-02	0	59	0	299892736	57	7090
2026-01-22 09:20:31.06	99.94	42.53	-43.4	-48.5	10.2	7.37e-03	0	59	0	307232768	57	6803
2026-01-22 09:20:35.10	98.27	43.20	-42.9	-47.2	11.5	7.67e-04	0	59	0	314572800	57	5877
2026-01-22 09:20:39.14	96.53	43.86	-42.2	-45.8	13.0	6.79e-05	0	59	0	321912832	56	5303
2026-01-22 09:20:43.18	94.71	44.50	-42.5	-46.4	12.4	1.43e-04	0	59	0	329252864	56	5659
2026-01-22 09:20:47.22	92.83	45.11	-42.6	-46.5	12.3	1.74e-04	0	59	0	337641472	56	5759
2026-01-22 09:20:51.26	90.87	45.70	-42.4	-46.0	12.8	5.56e-05	0	59	0	344981504	56	5452
2026-01-22 09:20:55.30	88.84	46.25	-43.2	-48.0	10.7	2.16e-03	0	60	0	352321536	57	6453
2026-01-22 09:20:59.33	86.74	46.77	-43.4	-48.4	10.3	5.09e-03	0	59	0	359661568	57	6801
2026-01-22 09:21:03.37	84.57	47.25	-43.7	-49.1	9.6	9.38e-03	0	59	0	368050176	57	7356
2026-01-22 09:21:07.41	82.33	47.70	-43.9	-49.6	9.1	1.89e-02	0	59	0	375390208	58	7307
2026-01-22 09:21:11.45	80.03	48.09	-44.1	-50.4	8.2	4.74e-02	0	59	0	382730240	58	8033
2026-01-22 09:21:15.48	77.68	48.44	-43.9	-49.7	9.0	4.12e-02	0	60	0	390070272	59	7013
2026-01-22 09:21:19.52	75.28	48.74	-43.6	-48.8	9.9	9.79e-03	0	59	0	397410304	59	6319
2026-01-22 09:21:23.56	72.83	48.98	-43.6	-48.8	9.9	8.56e-03	0	59	0	405798912	59	6310
2026-01-22 09:21:27.60	70.35	49.17	-43.3	-48.0	10.9	2.28e-03	0	59	0	413138944	58	6064
2026-01-22 09:21:31.63	67.85	49.30	-43.3	-48.0	10.8	2.37e-03	0	59	0	420478976	58	6071
2026-01-22 09:21:35.67	65.33	49.38	-43.2	-47.6	11.3	1.57e-03	0	59	0	427819008	58	5791
2026-01-22 09:21:39.71	62.80	49.39	-43.4	-48.3	10.5	3.40e-03	0	59	0	436207616	58	6276
2026-01-22 09:21:43.75	60.27	49.34	-43.2	-47.8	11.0	1.66e-03	0	59	0	443547648	58	5926
2026-01-22 09:21:47.79	57.76	49.23	-43.2	-47.6	11.1	1.48e-03	0	59	0	450887680	58	5844
2026-01-22 09:21:51.82	55.28	49.07	-43.2	-47.6	11.1	1.50e-03	0	60	0	458227712	58	5836
2026-01-22 09:21:55.86	52.82	48.85	-43.2	-47.7	11.1	1.89e-03	0	60	0	465567744	58	5914
2026-01-22 09:21:59.90	50.40	48.57	-43.3	-47.8	10.9	1.96e-03	0	60	0	473956352	58	5967
2026-01-22 09:22:03.94	48.03	48.24	-43.3	-48.0	10.8	3.48e-03	0	60	0	481296384	58	6079
2026-01-22 09:22:07.97	45.71	47.87	-43.4	-48.2	10.5	4.96e-03	0	60	0	488636416	58	6253
2026-01-22 09:22:12.02	43.45	47.44	-43.5	-48.6	10.1	6.30e-03	0	60	0	495976448	58	6529
2026-01-22 09:22:16.05	41.26	46.98	-43.5	-48.4	10.1	6.06e-03	0	60	0	504365056	58	6398
2026-01-22 09:22:20.09	39.14	46.47	-43.2	-47.7	11.0	2.21e-03	0	60	0	511705088	58	5879
2026-01-22 09:22:24.13	37.08	45.93	-43.1	-47.5	11.1	1.24e-03	0	60	0	519045120	58	5769
2026-01-22 09:22:28.17	35.10	45.36	-43.0	-47.3	11.4	8.80e-04	0	60	0	526385152	57	5941
2026-01-22 09:22:32.20	33.19	44.76	-42.7	-46.7	11.9	3.65e-04	0	60	0	533725184	57	5584
2026-01-22 09:22:36.24	31.35	44.14	-42.8	-46.9	11.8	4.86e-04	0	60	0	542113792	57	5674
2026-01-22 09:22:40.28	29.58	43.49	-43.0	-47.4	11.2	8.86e-04	0	60	0	549453824	57	6002
2026-01-22 09:22:44.32	27.89	42.83	-42.8	-47.0	11.6	7.93e-04	0	60	0	556793856	57	5766
2026-01-22 09:22:48.36	26.26	42.15	-42.6	-46.5	12.2	2.39e-04	0	60	0	564133888	57	5440
2026-01-22 09:22:52.40	24.71	41.45	-42.8	-47.0	11.7	5.20e-04	0	60	0	572522496	57	5740
2026-01-22 09:22:56.44	23.22	40.75	-43.0	-47.5	11.1	1.09e-03	0	60	0	579862528	57	6063
2026-01-22 09:23:00.47	21.79	40.05	-43.4	-48.4	10.1	6.35e-03	0	60	0	587202560	57	6782
2026-01-22 09:23:04.51	20.43	39.33	-43.7	-49.2	9.3	1.76e-02	0	60	0	594542592	57	7399
2026-01-22 09:23:08.55	19.12	38.62	-43.5	-48.7	9.8	9.05e-03	0	60	0	601882624	58	6580
2026-01-22 09:23:12.59	17.87	37.90	-43.6	-49.1	9.4	1.78e-02	0	60	0	610271232	58	6898
2026-01-22 09:23:16.63	16.68	37.18	-43.8	-49.6	8.8	2.97e-02	0	60	0	617611264	58	7363
2026-01-22 09:23:20.67	15.54	36.47	-43.8	-49.6	8.9	3.01e-02	0	60	0	624951296	58	7307
2026-01-22 09:23:24.71	14.44	35.76	-43.7	-49.5	8.9	2.69e-02	0	60	0	632291328	58	7223
2026-01-22 09:23:28.74	13.40	35.05	-43.7	-49.4	9.0	2.49e-02	0	60	0	640679936	58	7150
2026-01-22 09:23:32.78	12.40	34.35	-43.6	-49.0	9.4	1.38e-02	0	60	0	648019968	58	6842
2026-01-22 09:23:36.82	11.44	33.65	-43.5	-48.7	9.7	1.29e-02	0	60	0	655360000	58	6643
2026-01-22 09:23:40.85	10.53	32.97	-43.3	-48.1	10.3	5.32e-03	0	60	0	662700032	58	6182
2026-01-22 09:23:44.90	9.64	32.28	-43.4	-48.7	9.8	1.02e-02	0	60	0	670040064	58	6571
2026-01-22 09:23:48.93	8.80	31.61	-43.3	-48.7	9.7	1.21e-02	0	60	0	678428672	58	6605
2026-01-22 09:23:52.97	8.00	30.95	-43.5	-48.8	9.6	1.32e-02	0	60	0	685768704	58	6687
2026-01-22 09:23:57.01	7.22	30.29	-43.5	-48.9	9.4	1.67e-02	0	60	0	693108736	58	6777
2026-01-22 09:24:01.05	6.48	29.64	-43.5	-49.1	9.2	1.92e-02	0	60	0	700448768	58	6893
2026-01-22 09:24:05.09	5.76	29.00	-43.2	-48.3	10.1	8.57e-03	0	60	0	708837376	58	6298
2026-01-22 09:24:09.12	5.08	28.38	-43.1	-48.0	10.4	3.93e-03	0	60	0	716177408	58	6074
2026-01-22 09:24:13.16	4.42	27.76	-43.1	-47.9	10.4	5.41e-03	0	60	0	723517440	58	6049
2026-01-22 09:24:17.20	3.78	27.15	-43.0	-47.7	10.6	3.26e-03	0	60	0	730857472	57	6240
2026-01-22 09:24:21.24	3.17	26.55	-42.8	-47.4	10.9	2.43e-03	0	60	0	738197504	57	6041
2026-01-22 09:24:25.27	2.59	25.96	-42.7	-47.2	11.1	1.81e-03	0	60	0	746586112	57	5859
2026-01-22 09:24:29.31	2.02	25.38	-42.6	-46.9	11.3	1.23e-03	0	60	0	753926144	57	5720
2026-01-22 09:24:33.35	1.47	24.81	-42.8	-47.3	10.9	2.16e-03	0	60	0	761266176	57	5972
2026-01-22 09:24:37.39	0.95	24.25	-42.8	-47.5	10.7	3.07e-03	0	60	0	768606208	57	6084
2026-01-22 09:24:41.42	0.44	23.70	-42.8	-47.4	10.7	2.43e-03	0	60	0	776994816	57	6016
2026-01-22 09:24:45.46	359.96	23.15	-42.6	-47.1	11.0	1.64e-03	0	60	0	784334848	57	5804
2026-01-22 09:24:49.50	359.48	22.62	-42.6	-47.1	11.0	1.78e-03	0	60	0	791674880	57	5795
2026-01-22 09:24:53.54	359.03	22.10	-42.5	-47.1	10.8	2.48e-03	0	60	0	799014912	57	5845
2026-01-22 09:24:57.58	358.59	21.58	-42.5	-47.2	10.7	3.32e-03	0	60	0	806354944	57	5887
2026-01-22 09:25:01.60	358.17	21.07	-42.4	-47.3	10.4	4.08e-03	0	60	0	814743552	56	6307
2026-01-22 09:25:05.64	357.75	20.57	-42.3	-47.4	10.0	6.95e-03	0	60	0	822083584	56	6351
2026-01-22 09:25:09.68	357.36	20.08	-42.1	-47.3	9.8	1.02e-02	0	60	0	829423616	56	6275
2026-01-22 09:25:13.72	356.97	19.60	-42.0	-47.5	9.4	1.52e-02	0	60	0	836763648	56	6454
2026-01-22 09:25:17.76	356.60	19.13	-41.7	-47.4	8.9	2.56e-02	0	60	0	845152256	55	6780
2026-01-22 09:25:21.79	356.24	18.66	-41.8	-49.0	6.9	1.45e-01	0	60	0	852492288	55	8159
2026-01-22 09:25:25.83	355.89	18.20	-41.7	-51.7	4.7	7.76e-01	0	60	0	859832320	55	11144
2026-01-22 09:25:29.86	355.55	17.75	-42.4	-54.5	4.0	1.49e+00	0	60	104	860880896	55	15240
2026-01-22 09:25:33.90	355.22	17.30	-41.5	-55.2	3.8	1.49e+00	0	60	104	860880896	55	16677
2026-01-22 09:25:37.94	354.91	16.86	-41.6	-56.0	3.8	1.49e+00	0	60	104	860880896	53	20382
2026-01-22 09:25:41.98	354.60	16.43	-41.3	-55.9	3.8	1.49e+00	0	60	104	860880896	53	20199
2026-01-22 09:25:46.01	354.30	16.01	-41.0	-55.6	3.8	1.49e+00	0	60	104	860880896	53	19530
2026-01-22 09:25:50.05	354.01	15.59	-40.8	-55.5	3.8	1.49e+00	0	60	104	860880896	53	19177
2026-01-22 09:25:54.09	353.72	15.18	-40.8	-55.4	3.8	1.49e+00	0	60	104	860880896	53	19077
2026-01-22 09:25:58.13	353.45	14.77	-40.8	-55.4	3.8	1.49e+00	0	60	104	860880896	53	19007
2026-01-22 09:26:02.17	353.18	14.37	-40.7	-55.3	3.8	1.49e+00	0	60	104	860880896	53	18751
2026-01-22 09:26:06.20	352.92	13.98	-40.6	-55.2	3.8	1.49e+00	0	60	104	860880896	53	18582
2026-01-22 09:26:10.24	352.67	13.59	-40.6	-55.2	3.8	1.49e+00	0	60	104	860880896	53	18559
2026-01-22 09:26:14.27	352.43	13.21	-40.6	-55.2	3.8	1.49e+00	0	60	104	860880896	53	18606
2026-01-22 09:26:18.31	352.19	12.83	-40.7	-55.3	3.8	1.49e+00	0	60	104	860880896	53	18744
2026-01-22 09:26:22.35	351.96	12.46	-40.8	-55.3	3.8	1.49e+00	0	60	104	860880896	53	18902
2026-01-22 09:26:26.39	351.73	12.09	-40.8	-55.3	3.8	1.49e+00	0	60	104	860880896	53	18889
2026-01-22 09:26:30.43	351.51	11.73	-40.7	-55.2	3.8	1.49e+00	0	60	104	860880896	53	18647
2026-01-22 09:26:34.46	351.30	11.37	-40.5	-55.1	3.8	1.49e+00	0	60	104	860880896	53	18400
2026-01-22 09:26:38.50	351.09	11.02	-40.5	-55.1	3.8	1.49e+00	0	60	104	860880896	53	18405
2026-01-22 09:26:42.54	350.88	10.67	-40.7	-55.2	3.8	1.49e+00	0	60	104	860880896	53	18688
2026-01-22 09:26:46.58	350.68	10.33	-40.9	-55.4	3.8	1.49e+00	0	60	104	860880896	53	19111
2026-01-22 09:26:50.62	350.49	9.99	-40.9	-55.4	3.8	1.49e+00	0	60	104	860880896	53	19116
2026-01-22 09:26:54.65	350.30	9.66	-40.7	-55.3	3.8	1.49e+00	0	60	104	860880896	53	18776
2026-01-22 09:26:58.69	350.12	9.33	-40.6	-55.1	3.8	1.49e+00	0	60	104	860880896	53	18494
2026-01-22 09:27:02.73	349.94	9.00	-40.6	-55.1	3.8	1.49e+00	0	60	104	860880896	53	18368
2026-01-22 09:27:06.76	349.76	8.68	-40.6	-55.2	3.8	1.49e+00	0	60	104	860880896	53	18627
2026-01-22 09:27:10.80	349.59	8.36	-40.7	-55.3	3.8	1.49e+00	0	60	104	860880896	53	18929
2026-01-22 09:27:14.84	349.42	8.05	-40.9	-55.4	3.8	1.49e+00	0	60	104	860880896	53	19122
2026-01-22 09:27:18.88	349.26	7.73	-44.4	-58.8	3.8	1.49e+00	0	60	104	860880896	59	20066
2026-01-22 09:27:22.92	349.10	7.43	-45.2	-59.9	3.8	1.49e+00	0	60	104	860880896	60	21295
2026-01-22 09:27:26.96	348.94	7.12	-45.1	-59.9	3.8	1.49e+00	0	60	104	860880896	60	21359
2026-01-22 09:27:31.00	348.79	6.82	-45.1	-59.8	3.8	1.49e+00	0	60	104	860880896	60	21024
2026-01-22 09:27:35.05	348.64	6.52	-45.0	-59.6	3.8	1.49e+00	0	60	104	860880896	60	20763
2026-01-22 09:27:39.09	348.50	6.23	-45.2	-59.8	3.8	1.49e+00	0	60	104	860880896	61	19962
2026-01-22 09:27:43.13	348.35	5.94	-45.0	-59.7	3.8	1.49e+00	0	60	104	860880896	60	20899
2026-01-22 09:27:47.17	348.21	5.65	-45.0	-59.7	3.8	1.49e+00	0	60	104	860880896	60	20868
2026-01-22 09:27:51.21	348.08	5.36	-45.1	-59.7	3.8	1.49e+00	0	60	104	860880896	60	20832
2026-01-22 09:27:55.26	347.94	5.08	-45.1	-59.7	3.8	1.49e+00	0	61	104	860880896	60	20858
2026-01-22 09:27:59.30	347.81	4.80	-45.0	-59.6	3.8	1.49e+00	0	60	104	860880896	60	20725
2026-01-22 09:28:03.34	347.69	4.52	-45.0	-59.6	3.8	1.49e+00	0	60	104	860880896	60	20685
2026-01-22 09:28:07.38	347.56	4.25	-44.9	-59.6	3.8	1.49e+00	0	60	104	860880896	60	20621
2026-01-22 09:28:11.42	347.44	3.98	-45.0	-59.6	3.8	1.49e+00	0	61	104	860880896	60	20680
2026-01-22 09:28:15.47	347.32	3.71	-45.0	-59.6	3.8	1.49e+00	0	60	104	860880896	60	20709
2026-01-22 09:28:19.51	347.20	3.44	-45.0	-59.6	3.8	1.49e+00	0	61	104	860880896	60	20649
2026-01-22 09:28:23.55	347.09	3.17	-44.8	-59.6	3.8	1.49e+00	0	61	104	860880896	60	20675
2026-01-22 09:28:27.59	346.97	2.91	-44.9	-59.6	3.8	1.49e+00	0	60	104	860880896	60	20703
2026-01-22 09:28:31.64	346.86	2.65	-45.0	-59.6	3.8	1.49e+00	0	61	104	860880896	60	20679
2026-01-22 09:28:35.68	346.76	2.39	-45.0	-59.6	3.8	1.49e+00	0	60	104	860880896	60	20741
2026-01-22 09:28:39.72	346.65	2.14	-45.0	-59.6	3.8	1.49e+00	0	60	104	860880896	60	20671
2026-01-22 09:28:43.76	346.55	1.89	-45.0	-59.6	3.8	1.49e+00	0	60	104	860880896	60	20663

#Closed at: 2026-01-22 09:28:44
#Recorded file [860 MB]: D:/lorett/data/31039_260122_121439.dat