passes_logs/2026/01/22/R2.0S_Moscow/R2.0S_Moscow__20260122_183850_FENGYUN_3G_rec.log

#Pass ID: 20260122_183850_FENGYUN 3G
#Satellite: FENGYUN 3G
#Configuration: FENGYUN 3G
#almurnet v.1.7.20251203
#Start time: 2026-01-22 18:38:51

#Version: 2.2.20231116
#Station: R2.0S_Moscow
#Location: 37.707566 lon 55.798166 lat
#TLE: 1 56232U 23055A   26021.54475475  .00062179  00000+0  94164-3 0  9996
#TLE: 2 56232  49.9941  22.1547 0004002  61.8305 298.3066 15.54008241157216

#Time	Az	El	Level	Level2	SNR	BER	BlckErr	Temp	State	Recorded	gain1	gain2
2026-01-22 18:38:51.62	223.59	2.05	-44.0	-62.0	3.8	8.46e-01	0	51	0	0	59	28923
2026-01-22 18:38:54.66	223.32	2.24	-44.0	-62.0	3.8	8.47e-01	0	51	104	0	59	28981
2026-01-22 18:38:57.69	223.04	2.43	-44.0	-62.0	3.8	8.45e-01	0	51	104	0	59	28856
2026-01-22 18:39:00.72	222.76	2.62	-44.0	-62.0	3.8	8.46e-01	0	51	104	0	59	28901
2026-01-22 18:39:03.75	222.47	2.81	-44.0	-62.0	3.8	8.47e-01	0	52	104	0	59	28923
2026-01-22 18:39:06.78	222.18	3.01	-44.0	-62.0	3.8	8.47e-01	0	52	104	0	59	28881
2026-01-22 18:39:09.81	221.88	3.20	-44.0	-62.0	3.8	8.47e-01	0	52	104	0	59	28896
2026-01-22 18:39:12.85	221.57	3.40	-44.0	-62.0	3.8	8.46e-01	0	52	104	0	59	28887
2026-01-22 18:39:15.88	221.26	3.60	-44.0	-62.0	3.8	8.47e-01	0	52	104	0	59	28867
2026-01-22 18:39:18.91	220.95	3.80	-44.0	-62.0	3.8	8.46e-01	0	53	104	0	59	28899
2026-01-22 18:39:21.94	220.62	4.00	-44.0	-62.0	3.8	8.48e-01	0	53	104	0	59	28842
2026-01-22 18:39:24.97	220.29	4.21	-44.0	-62.0	3.8	8.45e-01	0	53	104	0	59	28986
2026-01-22 18:39:28.01	219.96	4.41	-44.0	-62.0	3.8	8.47e-01	0	53	104	0	59	28851
2026-01-22 18:39:31.04	219.61	4.62	-44.0	-62.0	3.8	8.46e-01	0	53	104	0	59	28949
2026-01-22 18:39:34.07	219.26	4.83	-44.0	-62.0	3.8	8.45e-01	0	54	104	0	59	28836
2026-01-22 18:39:37.10	218.91	5.04	-44.0	-62.0	3.8	8.46e-01	0	54	104	0	59	28724
2026-01-22 18:39:40.12	218.54	5.25	-44.0	-62.0	3.8	8.46e-01	0	54	104	0	59	28774
2026-01-22 18:39:43.15	218.17	5.47	-44.0	-61.7	3.8	8.46e-01	0	54	104	0	59	27719
2026-01-22 18:39:46.19	217.79	5.69	-44.0	-61.0	3.8	8.48e-01	0	54	104	0	59	25595
2026-01-22 18:39:49.21	217.40	5.90	-44.0	-61.2	3.8	8.46e-01	0	54	104	0	59	26445
2026-01-22 18:39:52.25	217.00	6.13	-44.0	-61.5	3.8	8.47e-01	0	54	104	0	59	27202
2026-01-22 18:39:55.28	216.59	6.35	-43.9	-59.9	3.8	8.46e-01	0	55	104	0	59	22585
2026-01-22 18:39:58.31	216.18	6.57	-43.9	-59.2	3.9	8.43e-01	0	55	104	0	59	21012
2026-01-22 18:40:01.34	215.75	6.80	-43.9	-58.4	4.2	8.42e-01	0	55	0	0	59	18972
2026-01-22 18:40:04.37	215.32	7.03	-43.7	-55.9	5.2	8.25e-01	0	55	0	0	59	14231
2026-01-22 18:40:07.40	214.88	7.26	-43.2	-51.5	9.2	3.11e-01	0	55	0	2621440	58	9081
2026-01-22 18:40:10.44	214.42	7.49	-43.2	-51.4	9.4	1.13e-02	0	55	0	6291456	58	8987
2026-01-22 18:40:13.47	213.96	7.72	-44.0	-60.0	3.9	5.55e-01	0	55	104	8388608	58	24182
2026-01-22 18:40:16.50	213.48	7.96	-42.9	-50.1	10.5	3.24e-01	0	56	0	9437184	57	8255
2026-01-22 18:40:19.53	213.00	8.19	-44.0	-57.5	4.8	1.10e-01	0	56	0	12582912	58	18266
2026-01-22 18:40:22.56	212.50	8.43	-41.6	-46.3	15.3	1.71e-05	0	56	0	14155776	54	6286
2026-01-22 18:40:25.59	211.99	8.68	-41.0	-45.1	15.8	6.47e-03	0	56	0	17301504	54	5506
2026-01-22 18:40:28.62	211.47	8.92	-40.9	-44.7	16.3	0.00e+00	0	56	0	20447232	53	5553
2026-01-22 18:40:31.65	210.94	9.16	-41.1	-45.0	16.1	0.00e+00	0	56	0	24117248	53	5767
2026-01-22 18:40:34.68	210.40	9.41	-40.9	-44.7	16.4	0.00e+00	0	56	0	27262976	53	5558
2026-01-22 18:40:37.70	209.84	9.66	-40.8	-44.4	16.7	0.00e+00	0	56	0	30932992	53	5384
2026-01-22 18:40:40.73	209.27	9.91	-40.7	-44.2	17.0	0.00e+00	0	56	0	34078720	53	5270
2026-01-22 18:40:43.76	208.69	10.16	-40.5	-43.9	17.3	0.00e+00	0	56	0	37748736	53	5085
2026-01-22 18:40:46.79	208.09	10.41	-40.5	-43.9	17.4	0.00e+00	0	56	0	40894464	52	5380
2026-01-22 18:40:49.82	207.48	10.67	-40.7	-44.1	17.1	0.00e+00	0	57	0	44564480	52	5526
2026-01-22 18:40:52.85	206.85	10.93	-40.6	-44.1	17.2	0.00e+00	0	57	0	47710208	52	5489
2026-01-22 18:40:55.88	206.21	11.18	-40.3	-43.6	17.7	0.00e+00	0	57	0	51380224	52	5176
2026-01-22 18:40:58.91	205.56	11.44	-40.4	-43.7	17.7	0.00e+00	0	57	0	54525952	52	5232
2026-01-22 18:41:01.94	204.88	11.70	-40.0	-43.1	18.3	0.00e+00	0	57	0	58195968	52	4882
2026-01-22 18:41:04.97	204.20	11.96	-40.2	-43.3	18.1	0.00e+00	0	57	0	61341696	52	5017
2026-01-22 18:41:08.00	203.49	12.23	-40.3	-43.4	18.1	0.00e+00	0	57	0	65011712	52	5069
2026-01-22 18:41:11.03	202.77	12.49	-40.1	-43.1	18.3	0.00e+00	0	57	0	68157440	52	4925
2026-01-22 18:41:14.05	202.04	12.75	-40.0	-43.0	18.6	0.00e+00	0	57	0	71827456	51	5104
2026-01-22 18:41:17.08	201.28	13.02	-40.1	-43.1	18.5	0.00e+00	0	57	0	74973184	51	5196
2026-01-22 18:41:20.11	200.51	13.28	-40.2	-43.2	18.4	0.00e+00	0	57	0	78643200	51	5250
2026-01-22 18:41:23.14	199.71	13.55	-39.7	-42.5	19.2	0.00e+00	0	57	0	81788928	51	4820
2026-01-22 18:41:26.17	198.90	13.81	-39.6	-42.3	19.4	0.00e+00	0	57	0	85458944	51	4710
2026-01-22 18:41:29.20	198.07	14.07	-39.7	-42.4	19.3	0.00e+00	0	57	0	88604672	51	4772
2026-01-22 18:41:32.22	197.23	14.33	-40.0	-42.8	18.9	0.00e+00	0	57	0	92274688	51	5007
2026-01-22 18:41:35.25	196.36	14.60	-39.7	-42.5	19.2	0.00e+00	0	57	0	95420416	51	4820
2026-01-22 18:41:38.28	195.47	14.86	-39.5	-42.1	19.5	0.00e+00	0	57	0	99090432	50	4903
2026-01-22 18:41:41.31	194.56	15.12	-39.5	-42.1	19.6	0.00e+00	0	58	0	102236160	50	4919
2026-01-22 18:41:44.34	193.64	15.37	-39.7	-42.4	19.4	0.00e+00	0	58	0	105906176	50	5050
2026-01-22 18:41:47.37	192.69	15.63	-39.7	-42.4	19.3	0.00e+00	0	57	0	109051904	50	5049
2026-01-22 18:41:50.40	191.72	15.88	-39.6	-42.2	19.4	0.00e+00	0	58	0	112721920	50	4964
2026-01-22 18:41:53.43	190.73	16.13	-38.9	-41.2	20.4	0.00e+00	0	58	0	115867648	49	4700
2026-01-22 18:41:56.45	189.72	16.37	-39.0	-41.4	20.4	0.00e+00	0	58	0	119537664	49	4763
2026-01-22 18:41:59.48	188.69	16.61	-39.0	-41.5	20.3	0.00e+00	0	58	0	122683392	49	4817
2026-01-22 18:42:02.51	187.64	16.85	-38.9	-41.3	20.4	0.00e+00	0	58	0	126353408	49	4735
2026-01-22 18:42:05.53	186.57	17.08	-39.0	-41.3	20.4	0.00e+00	0	58	0	129499136	49	4759
2026-01-22 18:42:08.57	185.47	17.30	-38.9	-41.3	20.3	0.00e+00	0	58	0	133169152	49	4743
2026-01-22 18:42:11.60	184.36	17.52	-38.4	-40.7	21.1	0.00e+00	0	58	0	136314880	48	4652
2026-01-22 18:42:14.62	183.23	17.73	-38.3	-40.5	21.3	0.00e+00	0	58	0	139984896	48	4546
2026-01-22 18:42:17.65	182.08	17.94	-38.6	-40.9	20.9	0.00e+00	0	58	0	143130624	48	4781
2026-01-22 18:42:20.68	180.91	18.14	-38.7	-41.0	20.7	0.00e+00	0	58	0	146800640	48	4855
2026-01-22 18:42:23.71	179.72	18.33	-38.7	-41.0	20.7	0.00e+00	0	58	0	149946368	48	4838
2026-01-22 18:42:26.74	178.51	18.51	-39.0	-41.4	20.3	0.00e+00	0	58	0	153616384	48	5089
2026-01-22 18:42:29.76	177.29	18.68	-38.6	-40.9	20.9	0.00e+00	0	58	0	156762112	48	4777
2026-01-22 18:42:32.79	176.05	18.84	-38.3	-40.5	21.3	0.00e+00	0	58	0	160432128	48	4580
2026-01-22 18:42:35.82	174.79	18.99	-38.2	-40.3	21.5	0.00e+00	0	58	0	163577856	48	4447
2026-01-22 18:42:38.85	173.52	19.13	-38.6	-40.8	21.0	0.00e+00	0	58	0	167247872	48	4728
2026-01-22 18:42:41.87	172.24	19.26	-38.7	-40.9	21.1	0.00e+00	0	59	0	170393600	48	4778
2026-01-22 18:42:44.90	170.94	19.37	-38.4	-40.5	21.4	0.00e+00	0	58	0	174063616	48	4577
2026-01-22 18:42:47.93	169.63	19.48	-38.1	-40.1	21.8	0.00e+00	0	58	0	177209344	48	4379
2026-01-22 18:42:50.96	168.31	19.57	-38.4	-40.5	21.4	0.00e+00	0	58	0	180879360	48	4552
2026-01-22 18:42:53.99	166.98	19.65	-38.6	-40.7	21.3	0.00e+00	0	58	0	184025088	48	4690
2026-01-22 18:42:57.01	165.65	19.71	-38.6	-40.8	21.3	0.00e+00	0	58	0	187695104	48	4722
2026-01-22 18:43:00.04	164.31	19.76	-38.5	-40.6	21.4	0.00e+00	0	58	0	190840832	48	4617
2026-01-22 18:43:03.08	162.96	19.80	-38.6	-40.8	21.2	0.00e+00	0	59	0	194510848	48	4733
2026-01-22 18:43:06.11	161.61	19.82	-38.7	-40.9	21.2	0.00e+00	0	58	0	197656576	48	4760
2026-01-22 18:43:09.14	160.26	19.83	-38.6	-40.8	21.2	0.00e+00	0	58	0	201326592	48	4722
2026-01-22 18:43:12.17	158.91	19.83	-38.5	-40.6	21.4	0.00e+00	0	59	0	204472320	48	4650
2026-01-22 18:43:15.19	157.56	19.81	-38.2	-40.4	21.6	0.00e+00	0	59	0	208142336	47	4775
2026-01-22 18:43:18.22	156.21	19.78	-38.0	-40.1	21.9	0.00e+00	0	59	0	211288064	47	4605
2026-01-22 18:43:21.25	154.87	19.73	-38.0	-40.1	21.9	0.00e+00	0	59	0	214958080	47	4601
2026-01-22 18:43:24.28	153.53	19.67	-38.4	-40.7	21.3	0.00e+00	0	59	0	218103808	47	4943
2026-01-22 18:43:27.31	152.20	19.60	-38.9	-41.2	20.9	0.00e+00	0	59	0	221773824	48	4971
2026-01-22 18:43:30.33	150.89	19.51	-38.6	-40.9	21.2	0.00e+00	0	59	0	224919552	48	4761
2026-01-22 18:43:33.36	149.57	19.41	-38.4	-40.6	21.5	0.00e+00	0	59	0	228589568	48	4633
2026-01-22 18:43:36.39	148.27	19.30	-39.2	-41.6	20.5	0.00e+00	0	59	0	231735296	48	5164
2026-01-22 18:43:39.42	146.99	19.18	-38.6	-40.8	21.3	0.00e+00	0	59	0	235405312	49	4457
2026-01-22 18:43:42.44	145.71	19.04	-38.5	-40.7	21.4	0.00e+00	0	59	0	238551040	48	4684
2026-01-22 18:43:45.47	144.45	18.90	-38.5	-40.8	21.3	0.00e+00	0	59	0	242221056	48	4712
2026-01-22 18:43:48.50	143.21	18.74	-38.3	-40.5	21.6	0.00e+00	0	59	0	245366784	48	4560
2026-01-22 18:43:51.53	141.98	18.58	-38.1	-40.3	21.7	0.00e+00	0	59	0	249036800	47	4723
2026-01-22 18:43:54.56	140.77	18.40	-38.5	-40.8	21.2	0.00e+00	0	59	0	252182528	47	5014
2026-01-22 18:43:57.59	139.57	18.21	-38.3	-40.5	21.5	0.00e+00	0	59	0	255852544	47	4854
2026-01-22 18:44:00.61	138.40	18.02	-38.7	-41.0	20.9	0.00e+00	0	59	0	258998272	47	5153
2026-01-22 18:44:03.64	137.24	17.82	-38.9	-41.3	20.8	0.00e+00	0	59	0	262668288	48	4997
2026-01-22 18:44:06.67	136.10	17.61	-38.9	-41.3	20.7	0.00e+00	0	59	0	265814016	48	5041
2026-01-22 18:44:09.69	134.99	17.39	-38.8	-41.2	20.8	0.00e+00	0	59	0	269484032	48	4933
2026-01-22 18:44:12.72	133.89	17.17	-38.2	-40.5	18.3	4.61e-04	0	59	0	272629760	41	6838
2026-01-22 18:44:15.75	132.81	16.94	-38.5	-41.0	20.4	8.00e-06	0	59	0	276299776	47	5133
2026-01-22 18:44:18.78	131.76	16.71	-37.9	-41.4	19.3	1.94e-03	0	59	0	279445504	47	5342
2026-01-22 18:44:21.81	130.72	16.47	-38.7	-41.4	16.1	2.21e-04	0	59	0	283115520	47	5394
2026-01-22 18:44:24.83	129.71	16.23	-38.9	-41.7	17.5	1.81e-03	0	59	0	286261248	48	5225
2026-01-22 18:44:27.86	128.71	15.98	-38.9	-41.8	19.1	4.31e-04	0	59	0	289931264	48	5314
2026-01-22 18:44:30.89	127.74	15.73	-38.9	-41.6	20.0	8.82e-04	0	59	0	293076992	48	5196
2026-01-22 18:44:33.91	126.79	15.48	-39.0	-41.6	19.3	4.95e-04	0	59	0	296747008	48	5209
2026-01-22 18:44:36.94	125.86	15.23	-39.2	-42.2	18.7	7.66e-05	0	59	0	299892736	49	5260
2026-01-22 18:44:39.96	124.95	14.97	-39.3	-42.4	12.4	6.97e-03	0	59	0	303562752	45	6752
2026-01-22 18:44:42.99	124.05	14.71	-39.4	-42.2	14.9	8.80e-03	0	59	0	306708480	48	5554
2026-01-22 18:44:46.02	123.18	14.45	-38.9	-42.1	17.6	8.52e-04	0	59	0	310378496	48	5508
2026-01-22 18:44:49.05	122.33	14.19	-38.9	-42.6	17.9	1.96e-03	0	59	0	313524224	49	5476
2026-01-22 18:44:52.07	121.49	13.93	-38.9	-42.6	16.9	3.34e-04	0	59	0	317194240	47	6197
2026-01-22 18:44:55.11	120.68	13.66	-37.1	-42.2	15.2	1.90e-03	0	59	0	320339968	45	6618
2026-01-22 18:44:58.14	119.88	13.40	-34.9	-42.5	14.8	4.22e-03	0	59	0	324009984	43	7650
2026-01-22 18:45:01.16	119.10	13.14	-37.5	-43.1	14.2	1.35e-02	0	59	0	327155712	45	7353
2026-01-22 18:45:04.19	118.34	12.87	-35.1	-42.6	13.4	7.66e-03	0	59	0	330825728	41	8749
2026-01-22 18:45:07.22	117.60	12.61	-37.0	-43.2	15.5	3.98e-03	0	59	0	333971456	45	7387
2026-01-22 18:45:10.25	116.88	12.35	-32.2	-42.5	15.5	1.23e-02	0	59	0	337641472	42	8174
2026-01-22 18:45:13.27	116.17	12.09	-36.0	-42.9	14.6	4.86e-03	0	59	0	340787200	41	9038
2026-01-22 18:45:16.30	115.48	11.83	-36.4	-42.8	15.5	9.25e-03	0	59	0	344457216	43	7936
2026-01-22 18:45:19.33	114.80	11.57	-32.3	-43.7	9.5	4.58e-02	0	59	0	347602944	37	12483
2026-01-22 18:45:22.36	114.14	11.31	-35.7	-43.9	12.6	2.11e-02	0	59	0	350748672	43	9048
2026-01-22 18:45:25.39	113.50	11.05	-34.7	-43.9	12.2	3.42e-02	0	59	0	354418688	39	11287
2026-01-22 18:45:28.41	112.87	10.80	-35.7	-43.3	12.2	4.18e-02	0	59	0	357564416	41	9474
2026-01-22 18:45:31.44	112.25	10.54	-33.6	-42.9	11.1	5.13e-02	0	59	0	361234432	38	10741
2026-01-22 18:45:34.47	111.65	10.29	-35.5	-45.2	10.5	9.94e-02	0	59	0	364380160	39	13245
2026-01-22 18:45:37.50	111.07	10.04	-35.5	-45.3	10.1	1.06e-01	0	59	0	368050176	39	13325
2026-01-22 18:45:40.53	110.49	9.79	-35.2	-45.3	9.5	1.30e-01	0	59	0	371195904	40	12644
2026-01-22 18:45:43.55	109.94	9.54	-31.6	-43.8	11.4	7.69e-02	0	59	0	374341632	38	11897
2026-01-22 18:45:46.58	109.39	9.29	-30.9	-44.1	10.2	5.64e-02	0	59	0	378011648	34	15449
2026-01-22 18:45:49.61	108.85	9.05	-34.7	-44.5	11.4	8.92e-02	0	59	0	381157376	40	11479
2026-01-22 18:45:52.64	108.33	8.80	-36.9	-45.0	12.4	4.43e-02	0	59	0	384827392	43	10284
2026-01-22 18:45:55.67	107.82	8.56	-35.8	-44.7	12.9	2.45e-02	0	59	0	387973120	43	9854
2026-01-22 18:45:58.70	107.32	8.32	-37.5	-45.2	11.9	2.26e-02	0	60	0	391643136	44	9877
2026-01-22 18:46:01.73	106.83	8.09	-35.8	-44.9	13.7	5.73e-03	0	59	0	394788864	45	8967
2026-01-22 18:46:04.76	106.36	7.85	-44.9	-63.1	3.8	8.33e-01	0	59	104	395837440	60	30807
2026-01-22 18:46:07.79	105.89	7.62	-45.5	-63.8	3.8	8.46e-01	0	60	104	395837440	61	31475
2026-01-22 18:46:10.82	105.44	7.38	-45.8	-64.1	3.8	8.46e-01	0	60	104	395837440	62	30854
2026-01-22 18:46:13.85	104.99	7.15	-45.6	-63.8	3.8	8.46e-01	0	59	104	395837440	62	29933
2026-01-22 18:46:16.88	104.55	6.93	-45.5	-63.6	3.8	8.46e-01	0	60	104	395837440	62	29104
2026-01-22 18:46:19.91	104.13	6.70	-45.3	-63.4	3.8	8.46e-01	0	59	104	395837440	62	28427
2026-01-22 18:46:22.94	103.71	6.48	-45.3	-63.4	3.8	8.46e-01	0	59	104	395837440	62	28533
2026-01-22 18:46:25.97	103.30	6.25	-45.3	-63.4	3.8	8.46e-01	0	59	104	395837440	62	28392
2026-01-22 18:46:29.00	102.90	6.03	-45.3	-63.4	3.8	8.46e-01	0	59	104	395837440	62	28437
2026-01-22 18:46:32.04	102.51	5.81	-45.3	-63.4	3.8	8.46e-01	0	59	104	395837440	62	28444
2026-01-22 18:46:35.07	102.13	5.60	-45.3	-63.4	3.8	8.48e-01	0	60	104	395837440	62	28416
2026-01-22 18:46:38.10	101.75	5.38	-45.3	-63.4	3.8	8.46e-01	0	60	104	395837440	62	28421
2026-01-22 18:46:41.12	101.39	5.17	-45.3	-63.4	3.8	8.46e-01	0	59	104	395837440	62	28427
2026-01-22 18:46:44.15	101.03	4.96	-45.3	-63.4	3.8	8.46e-01	0	60	104	395837440	62	28409
2026-01-22 18:46:47.19	100.68	4.75	-45.2	-63.3	3.8	8.46e-01	0	60	104	395837440	61	29962
2026-01-22 18:46:50.21	100.33	4.54	-45.2	-63.3	3.8	8.45e-01	0	60	104	395837440	61	29979
2026-01-22 18:46:53.24	99.99	4.33	-45.3	-63.3	3.8	8.46e-01	0	59	104	395837440	61	29944
2026-01-22 18:46:56.28	99.66	4.13	-45.3	-63.3	3.8	8.46e-01	0	60	104	395837440	61	29908
2026-01-22 18:46:59.31	99.34	3.93	-45.2	-63.3	3.8	8.47e-01	0	60	104	395837440	61	29939
2026-01-22 18:47:02.34	99.02	3.73	-45.2	-63.3	3.8	8.45e-01	0	60	104	395837440	61	29848
2026-01-22 18:47:05.37	98.71	3.53	-45.2	-63.3	3.8	8.47e-01	0	60	104	395837440	61	29936
2026-01-22 18:47:08.40	98.41	3.33	-45.2	-63.3	3.8	8.46e-01	0	60	104	395837440	61	29925
2026-01-22 18:47:11.43	98.11	3.13	-45.2	-63.3	3.8	8.47e-01	0	60	104	395837440	61	29803
2026-01-22 18:47:14.46	97.81	2.94	-45.2	-63.3	3.8	8.46e-01	0	60	104	395837440	61	29900
2026-01-22 18:47:17.49	97.53	2.74	-45.2	-63.3	3.8	8.46e-01	0	60	104	395837440	61	29822
2026-01-22 18:47:20.52	97.24	2.55	-45.2	-63.3	3.8	8.46e-01	0	60	104	395837440	61	29850
2026-01-22 18:47:23.55	96.97	2.36	-45.2	-63.3	3.8	8.45e-01	0	60	104	395837440	61	29875
2026-01-22 18:47:26.59	96.69	2.17	-45.2	-63.3	3.8	8.45e-01	0	60	104	395837440	61	29796

#Closed at: 2026-01-22 18:47:29
#Recorded file [395 MB]: D:/lorett/data/31039_260122_213851.dat