passes_logs/2026/01/22/R2.0S_Moscow/R2.0S_Moscow__20260122_095401_FENGYUN_3D_rec.log

#Pass ID: 20260122_095401_FENGYUN 3D
#Satellite: FENGYUN 3D
#Configuration: FENGYUN 3D
#almurnet v.1.7.20251203
#Start time: 2026-01-22 09:54:02

#Version: 2.2.20231116
#Station: R2.0S_Moscow
#Location: 37.707566 lon 55.798166 lat
#TLE: 1 43010U 17072A   26021.48744220  .00000253  00000+0  14133-3 0  9991
#TLE: 2 43010  98.9948 353.4037 0002485  97.2578 262.8880 14.19697766424177

#Time	Az	El	Level	Level2	SNR	BER	BlckErr	Temp	State	Recorded	gain1	gain2
2026-01-22 09:54:02.50	99.07	2.06	-39.1	-51.4	3.8	8.46e-01	0	51	0	0	50	14307
2026-01-22 09:54:05.52	98.83	2.22	-39.6	-51.9	3.9	8.48e-01	0	51	104	0	51	14315
2026-01-22 09:54:08.56	98.58	2.38	-39.1	-51.8	3.8	8.45e-01	0	51	104	0	50	15040
2026-01-22 09:54:11.59	98.33	2.54	-39.5	-51.7	3.8	8.47e-01	0	51	104	0	50	14826
2026-01-22 09:54:14.62	98.07	2.70	-40.4	-52.0	3.8	8.47e-01	0	52	104	0	51	14525
2026-01-22 09:54:17.66	97.81	2.86	-40.2	-52.0	3.8	8.47e-01	0	52	104	0	51	14390
2026-01-22 09:54:20.69	97.55	3.02	-39.6	-51.8	3.8	8.46e-01	0	52	104	0	50	15025
2026-01-22 09:54:23.72	97.29	3.18	-40.4	-52.0	3.8	8.46e-01	0	52	104	0	51	14496
2026-01-22 09:54:26.75	97.02	3.34	-39.7	-51.9	3.8	8.45e-01	0	53	104	0	51	14256
2026-01-22 09:54:29.78	96.75	3.50	-40.3	-52.0	3.8	8.47e-01	0	53	104	0	51	14465
2026-01-22 09:54:32.81	96.48	3.66	-40.4	-52.0	3.8	8.45e-01	0	53	104	0	51	14495
2026-01-22 09:54:35.85	96.20	3.82	-40.2	-52.0	3.8	8.47e-01	0	53	104	0	51	14457
2026-01-22 09:54:38.87	95.92	3.98	-40.4	-52.0	3.8	8.46e-01	0	53	104	0	51	14504
2026-01-22 09:54:41.90	95.64	4.15	-40.2	-51.9	3.8	8.47e-01	0	54	104	0	51	14347
2026-01-22 09:54:44.93	95.35	4.31	-40.4	-52.1	3.8	8.46e-01	0	54	104	0	51	14563
2026-01-22 09:54:47.97	95.06	4.47	-39.9	-51.8	3.8	8.46e-01	0	54	104	0	51	14206
2026-01-22 09:54:51.00	94.77	4.63	-40.4	-52.0	3.8	8.45e-01	0	54	104	0	51	14498
2026-01-22 09:54:54.03	94.47	4.80	-39.9	-51.9	3.8	8.46e-01	0	54	104	0	51	14211
2026-01-22 09:54:57.06	94.18	4.96	-40.4	-52.0	3.8	8.46e-01	0	54	104	0	51	14519
2026-01-22 09:55:00.10	93.87	5.13	-40.4	-52.0	3.8	8.46e-01	0	54	104	0	51	14429
2026-01-22 09:55:03.13	93.57	5.29	-39.7	-51.8	3.8	8.46e-01	0	55	104	0	50	15051
2026-01-22 09:55:06.16	93.26	5.45	-40.4	-52.0	3.8	8.47e-01	0	55	104	0	51	14461
2026-01-22 09:55:09.19	92.94	5.62	-40.4	-52.0	3.8	8.47e-01	0	55	104	0	51	14411
2026-01-22 09:55:12.22	92.63	5.78	-38.8	-51.8	3.8	8.45e-01	0	55	104	0	49	15844
2026-01-22 09:55:15.25	92.31	5.95	-40.4	-52.0	3.8	8.47e-01	0	55	104	0	51	14472
2026-01-22 09:55:18.28	91.98	6.12	-40.4	-52.0	3.8	8.46e-01	0	55	104	0	51	14466
2026-01-22 09:55:21.31	91.65	6.28	-40.4	-52.0	3.8	8.46e-01	0	56	104	0	51	14485
2026-01-22 09:55:24.35	91.32	6.45	-40.4	-52.0	3.8	8.48e-01	0	56	104	0	51	14497
2026-01-22 09:55:27.38	90.98	6.61	-40.4	-52.0	3.8	8.47e-01	0	55	104	0	51	14465
2026-01-22 09:55:30.41	90.64	6.78	-40.4	-52.0	3.8	8.46e-01	0	56	104	0	51	14435
2026-01-22 09:55:33.44	90.30	6.95	-40.3	-52.0	3.8	8.47e-01	0	56	104	0	51	14381
2026-01-22 09:55:36.47	89.95	7.11	-40.4	-52.0	3.8	8.45e-01	0	56	104	0	51	14438
2026-01-22 09:55:39.50	89.60	7.28	-39.7	-51.9	3.8	8.46e-01	0	56	104	0	50	15204
2026-01-22 09:55:42.54	89.24	7.45	-40.1	-51.9	3.8	8.46e-01	0	56	104	0	51	14373
2026-01-22 09:55:45.57	88.88	7.61	-40.4	-52.0	3.8	8.46e-01	0	56	104	0	51	14511
2026-01-22 09:55:48.60	88.52	7.78	-40.4	-52.0	3.8	8.47e-01	0	56	104	0	51	14435
2026-01-22 09:55:51.63	88.15	7.95	-39.9	-51.9	3.8	8.46e-01	0	56	104	0	50	15151
2026-01-22 09:55:54.66	87.78	8.11	-40.1	-52.1	3.8	8.45e-01	0	57	104	0	51	14706
2026-01-22 09:55:57.69	87.40	8.28	-40.4	-51.9	3.9	8.47e-01	0	57	104	0	51	14315
2026-01-22 09:56:00.72	87.02	8.44	-40.3	-51.9	3.8	8.47e-01	0	57	104	0	51	14325
2026-01-22 09:56:03.75	86.63	8.61	-40.3	-52.1	3.8	8.46e-01	0	57	104	0	51	14696
2026-01-22 09:56:06.77	86.24	8.78	-40.0	-52.1	3.9	8.46e-01	0	57	104	0	50	15520
2026-01-22 09:56:09.80	85.85	8.94	-40.3	-51.9	3.8	8.45e-01	0	57	104	0	51	14372
2026-01-22 09:56:12.83	85.45	9.11	-40.4	-52.0	3.8	8.45e-01	0	57	104	0	51	14396
2026-01-22 09:56:15.86	85.04	9.27	-40.5	-52.1	3.8	8.46e-01	0	57	104	0	51	14633
2026-01-22 09:56:18.89	84.64	9.44	-40.4	-52.1	3.8	8.45e-01	0	57	104	0	51	14562
2026-01-22 09:56:21.92	84.22	9.60	-39.6	-51.8	3.8	8.48e-01	0	57	104	0	51	14202
2026-01-22 09:56:24.95	83.80	9.77	-39.5	-51.7	3.8	8.47e-01	0	57	104	0	50	14870
2026-01-22 09:56:27.97	83.38	9.93	-40.3	-51.9	3.8	8.46e-01	0	57	104	0	51	14365
2026-01-22 09:56:31.00	82.95	10.10	-40.4	-52.1	3.8	8.47e-01	0	58	104	0	51	14599
2026-01-22 09:56:34.03	82.52	10.26	-40.4	-52.0	3.8	8.46e-01	0	58	104	0	51	14451
2026-01-22 09:56:37.06	82.08	10.42	-40.4	-52.0	3.8	8.46e-01	0	57	104	0	51	14468
2026-01-22 09:56:40.09	81.64	10.58	-40.3	-51.9	3.8	8.45e-01	0	57	104	0	51	14273
2026-01-22 09:56:43.12	81.19	10.74	-40.6	-52.2	3.8	8.47e-01	0	58	104	0	51	14712
2026-01-22 09:56:46.15	80.74	10.91	-40.4	-52.0	3.8	8.46e-01	0	58	104	0	51	14500
2026-01-22 09:56:49.17	80.28	11.07	-40.4	-52.2	3.8	8.45e-01	0	58	104	0	51	14750
2026-01-22 09:56:52.20	79.82	11.22	-40.4	-52.1	3.8	8.46e-01	0	58	104	0	51	14600
2026-01-22 09:56:55.23	79.35	11.38	-40.6	-52.2	3.8	8.47e-01	0	58	104	0	52	14029
2026-01-22 09:56:58.26	78.88	11.54	-40.5	-52.1	3.8	8.46e-01	0	58	104	0	52	13835
2026-01-22 09:57:01.29	78.40	11.70	-40.7	-52.4	3.8	8.47e-01	0	58	104	0	52	14251
2026-01-22 09:57:04.32	77.92	11.85	-40.8	-52.5	3.8	8.47e-01	0	58	104	0	52	14394
2026-01-22 09:57:07.35	77.43	12.01	-40.8	-52.5	3.8	8.46e-01	0	58	104	0	52	14402
2026-01-22 09:57:10.37	76.93	12.16	-40.8	-52.4	3.8	8.46e-01	0	58	104	0	52	14327
2026-01-22 09:57:13.41	76.43	12.31	-41.0	-52.6	3.8	8.45e-01	0	58	104	0	52	14625
2026-01-22 09:57:16.43	75.93	12.47	-41.0	-52.6	3.8	8.45e-01	0	58	104	0	52	14627
2026-01-22 09:57:19.46	75.42	12.62	-41.1	-52.8	3.8	8.47e-01	0	58	104	0	53	14099
2026-01-22 09:57:22.49	74.91	12.76	-41.2	-52.8	3.8	8.46e-01	0	58	104	0	53	14103
2026-01-22 09:57:25.51	74.39	12.91	-41.2	-52.8	3.8	8.47e-01	0	58	104	0	53	14151
2026-01-22 09:57:28.54	73.86	13.06	-41.0	-52.6	3.8	8.46e-01	0	58	104	0	53	13775
2026-01-22 09:57:31.58	73.33	13.20	-41.0	-52.6	3.8	8.45e-01	0	58	104	0	53	13846
2026-01-22 09:57:34.60	72.80	13.34	-41.1	-52.7	3.8	8.47e-01	0	58	104	0	53	13917
2026-01-22 09:57:37.63	72.25	13.49	-41.0	-52.6	3.8	8.46e-01	0	59	104	0	53	13845
2026-01-22 09:57:40.65	71.71	13.63	-41.3	-52.9	3.8	8.46e-01	0	59	104	0	53	14299
2026-01-22 09:57:43.68	71.16	13.76	-41.3	-52.9	3.8	8.47e-01	0	59	104	0	53	14231
2026-01-22 09:57:46.71	70.60	13.90	-41.4	-51.7	3.8	8.45e-01	0	59	104	0	53	12378
2026-01-22 09:57:49.74	70.04	14.03	-40.6	-46.9	5.5	7.46e-01	0	59	0	0	53	7187
2026-01-22 09:57:52.77	69.47	14.16	-40.4	-45.9	6.4	2.92e-01	0	59	0	15728640	52	6729
2026-01-22 09:57:55.80	68.90	14.29	-40.3	-45.6	6.6	8.03e-01	0	59	104	23068672	52	6545
2026-01-22 09:57:58.83	68.32	14.42	-38.2	-41.2	11.2	2.23e-03	0	59	0	37748736	48	4948
2026-01-22 09:58:01.86	67.74	14.55	-37.8	-40.5	12.2	3.71e-04	0	59	0	54525952	47	4843
2026-01-22 09:58:04.89	67.16	14.67	-37.7	-40.2	12.7	9.72e-05	0	59	0	71303168	47	4693
2026-01-22 09:58:07.92	66.56	14.79	-37.6	-39.9	13.5	1.83e-05	0	59	0	88080384	46	4797
2026-01-22 09:58:10.94	65.97	14.91	-37.9	-40.2	13.3	2.28e-05	0	59	0	105906176	46	4980
2026-01-22 09:58:13.97	65.37	15.02	-38.1	-40.4	13.4	2.51e-05	0	59	0	122683392	46	5076
2026-01-22 09:58:17.00	64.76	15.14	-37.9	-40.0	14.0	5.70e-06	0	59	0	139460608	46	4857
2026-01-22 09:58:20.03	64.15	15.25	-37.5	-39.5	14.6	0.00e+00	0	59	0	156237824	46	4594
2026-01-22 09:58:23.06	63.54	15.35	-37.7	-39.8	14.5	1.10e-06	0	59	0	174063616	46	4729
2026-01-22 09:58:26.09	62.92	15.46	-37.8	-39.9	14.6	1.10e-06	0	59	0	190840832	46	4776
2026-01-22 09:58:29.12	62.29	15.56	-37.7	-39.7	14.7	1.10e-06	0	59	0	207618048	46	4698
2026-01-22 09:58:32.15	61.67	15.66	-37.8	-39.9	14.6	3.40e-06	0	59	0	224395264	46	4768
2026-01-22 09:58:35.18	61.04	15.75	-37.7	-39.7	14.8	0.00e+00	0	59	0	242221056	46	4687
2026-01-22 09:58:38.21	60.40	15.84	-37.7	-39.7	14.9	0.00e+00	0	59	0	258998272	46	4656
2026-01-22 09:58:41.23	59.76	15.93	-37.8	-39.8	14.8	0.00e+00	0	59	0	275775488	46	4729
2026-01-22 09:58:44.26	59.12	16.02	-37.8	-39.8	14.9	0.00e+00	0	59	0	292552704	46	4720
2026-01-22 09:58:47.29	58.47	16.10	-37.8	-39.8	14.8	0.00e+00	0	59	0	310378496	46	4750
2026-01-22 09:58:50.32	57.82	16.18	-37.6	-39.5	15.2	0.00e+00	0	59	0	327155712	46	4576
2026-01-22 09:58:53.35	57.17	16.25	-37.5	-39.4	15.3	0.00e+00	0	59	0	343932928	46	4527
2026-01-22 09:58:56.38	56.51	16.33	-37.8	-39.7	15.2	0.00e+00	0	59	0	360710144	46	4669
2026-01-22 09:58:59.40	55.85	16.39	-37.8	-39.6	15.4	0.00e+00	0	59	0	378535936	46	4600
2026-01-22 09:59:02.43	55.19	16.46	-37.8	-39.6	15.4	0.00e+00	0	59	0	395313152	46	4632
2026-01-22 09:59:05.46	54.52	16.52	-37.6	-39.4	15.6	0.00e+00	0	59	0	412090368	46	4513
2026-01-22 09:59:08.49	53.86	16.57	-37.5	-39.2	15.7	0.00e+00	0	59	0	428867584	46	4430
2026-01-22 09:59:11.52	53.18	16.63	-37.5	-39.3	15.7	0.00e+00	0	59	0	446693376	46	4463
2026-01-22 09:59:14.55	52.51	16.68	-37.7	-39.4	15.6	0.00e+00	0	59	0	463470592	46	4536
2026-01-22 09:59:17.58	51.84	16.72	-37.6	-39.4	15.6	0.00e+00	0	59	0	480247808	46	4497
2026-01-22 09:59:20.61	51.16	16.76	-37.8	-39.5	15.5	0.00e+00	0	60	0	497025024	46	4592
2026-01-22 09:59:23.64	50.48	16.80	-37.8	-39.6	15.5	0.00e+00	0	59	0	514850816	46	4611
2026-01-22 09:59:26.67	49.80	16.83	-37.7	-39.4	15.6	0.00e+00	0	59	0	531628032	46	4524
2026-01-22 09:59:29.70	49.12	16.86	-37.6	-39.3	15.7	0.00e+00	0	59	0	548405248	46	4474
2026-01-22 09:59:32.73	48.44	16.89	-37.4	-39.1	16.0	0.00e+00	0	59	0	565182464	46	4355
2026-01-22 09:59:35.76	47.75	16.91	-37.3	-39.0	16.0	0.00e+00	0	59	0	583008256	46	4320
2026-01-22 09:59:38.79	47.07	16.92	-37.5	-39.2	15.8	0.00e+00	0	59	0	599785472	46	4408
2026-01-22 09:59:41.81	46.38	16.94	-37.6	-39.3	15.7	0.00e+00	0	59	0	616562688	46	4480
2026-01-22 09:59:44.84	45.70	16.94	-37.6	-39.3	15.7	0.00e+00	0	59	0	633339904	46	4460
2026-01-22 09:59:47.87	45.01	16.95	-37.7	-39.5	15.6	0.00e+00	0	59	0	651165696	46	4549
2026-01-22 09:59:50.90	44.33	16.95	-37.7	-39.4	15.6	0.00e+00	0	59	0	667942912	46	4526
2026-01-22 09:59:53.93	43.64	16.94	-37.6	-39.4	15.7	0.00e+00	0	59	0	684720128	46	4508
2026-01-22 09:59:56.96	42.95	16.94	-37.6	-39.3	15.7	0.00e+00	0	59	0	701497344	46	4475
2026-01-22 09:59:59.99	42.27	16.92	-37.5	-39.2	15.8	0.00e+00	0	60	0	719323136	46	4429
2026-01-22 10:00:03.02	41.58	16.91	-37.5	-39.2	15.8	0.00e+00	0	60	0	736100352	46	4425
2026-01-22 10:00:06.04	40.90	16.89	-37.5	-39.2	15.8	0.00e+00	0	60	0	752877568	46	4439
2026-01-22 10:00:09.07	40.22	16.86	-37.5	-39.2	15.9	0.00e+00	0	60	0	769654784	46	4413
2026-01-22 10:00:12.10	39.54	16.83	-37.6	-39.3	15.7	0.00e+00	0	60	0	787480576	46	4483
2026-01-22 10:00:15.13	38.86	16.80	-37.7	-39.4	15.6	0.00e+00	0	60	0	804257792	46	4532
2026-01-22 10:00:18.17	38.18	16.76	-37.6	-39.4	15.6	0.00e+00	0	60	0	821035008	46	4517
2026-01-22 10:00:21.19	37.51	16.72	-37.6	-39.4	15.7	0.00e+00	0	59	0	837812224	46	4503
2026-01-22 10:00:24.22	36.83	16.67	-37.6	-39.3	15.7	0.00e+00	0	60	0	855638016	46	4475
2026-01-22 10:00:27.25	36.16	16.62	-37.7	-39.5	15.5	0.00e+00	0	60	0	872415232	46	4583
2026-01-22 10:00:30.27	35.49	16.57	-37.8	-39.5	15.5	0.00e+00	0	60	0	889192448	46	4585
2026-01-22 10:00:33.31	34.82	16.51	-37.6	-39.3	15.7	0.00e+00	0	59	0	905969664	46	4475
2026-01-22 10:00:36.33	34.16	16.45	-37.8	-39.5	15.5	0.00e+00	0	59	0	923795456	46	4595
2026-01-22 10:00:39.36	33.50	16.39	-37.8	-39.6	15.4	0.00e+00	0	60	0	940572672	46	4634
2026-01-22 10:00:42.39	32.84	16.32	-37.7	-39.5	15.5	0.00e+00	0	60	0	957349888	46	4558
2026-01-22 10:00:45.42	32.18	16.25	-37.7	-39.5	15.5	0.00e+00	0	60	0	974127104	46	4594
2026-01-22 10:00:48.45	31.53	16.17	-37.6	-39.4	15.6	0.00e+00	0	60	0	991952896	46	4513
2026-01-22 10:00:51.48	30.88	16.09	-37.7	-39.4	15.6	0.00e+00	0	60	0	1008730112	46	4511
2026-01-22 10:00:54.51	30.24	16.01	-37.8	-39.6	15.4	0.00e+00	0	60	0	1025507328	46	4636
2026-01-22 10:00:57.55	29.59	15.93	-37.9	-39.7	15.3	0.00e+00	0	60	0	1042284544	46	4691
2026-01-22 10:01:00.58	28.96	15.84	-37.9	-39.6	15.4	0.00e+00	0	60	0	1060110336	46	4651
2026-01-22 10:01:03.60	28.32	15.75	-38.0	-39.8	15.2	0.00e+00	0	60	0	1076887552	46	4735
2026-01-22 10:01:06.63	27.69	15.65	-37.7	-39.4	15.6	0.00e+00	0	60	0	1093664768	46	4526
2026-01-22 10:01:09.66	27.07	15.55	-37.8	-39.6	15.4	0.00e+00	0	60	0	1110441984	46	4641
2026-01-22 10:01:12.68	26.45	15.45	-38.0	-39.8	15.2	0.00e+00	0	60	0	1128267776	46	4731
2026-01-22 10:01:15.71	25.83	15.35	-38.0	-39.8	15.1	0.00e+00	0	60	0	1145044992	46	4757
2026-01-22 10:01:18.74	25.22	15.24	-38.0	-39.8	15.1	0.00e+00	0	60	0	1161822208	46	4748
2026-01-22 10:01:21.77	24.61	15.13	-38.1	-40.0	15.0	0.00e+00	0	60	0	1178599424	46	4816
2026-01-22 10:01:24.80	24.01	15.02	-38.1	-40.0	14.9	0.00e+00	0	60	0	1195376640	46	4837
2026-01-22 10:01:27.83	23.41	14.90	-38.1	-40.1	14.8	0.00e+00	0	60	0	1213202432	46	4877
2026-01-22 10:01:30.85	22.82	14.78	-38.1	-40.0	14.8	0.00e+00	0	60	0	1229979648	46	4857
2026-01-22 10:01:33.88	22.23	14.66	-38.2	-40.1	14.7	0.00e+00	0	60	0	1246756864	46	4903
2026-01-22 10:01:36.91	21.64	14.54	-38.1	-40.0	14.8	0.00e+00	0	60	0	1264582656	46	4861
2026-01-22 10:01:39.94	21.06	14.42	-38.1	-40.0	14.8	0.00e+00	0	60	0	1281359872	46	4842
2026-01-22 10:01:42.97	20.49	14.29	-38.2	-40.2	14.6	0.00e+00	0	60	0	1298137088	47	4674
2026-01-22 10:01:46.00	19.92	14.16	-38.3	-40.2	14.5	2.20e-06	0	60	0	1314914304	47	4702
2026-01-22 10:01:49.03	19.35	14.03	-38.4	-40.4	14.3	4.50e-06	0	60	0	1332740096	47	4813
2026-01-22 10:01:52.06	18.79	13.89	-38.5	-40.6	14.1	2.20e-06	0	60	0	1349517312	47	4911
2026-01-22 10:01:55.09	18.24	13.76	-38.3	-40.3	14.4	0.00e+00	0	60	0	1366294528	47	4753
2026-01-22 10:01:58.12	17.69	13.62	-38.5	-40.5	14.1	2.20e-06	0	60	0	1383071744	47	4863
2026-01-22 10:02:01.15	17.15	13.48	-38.5	-40.6	14.1	3.40e-06	0	60	0	1399848960	47	4876
2026-01-22 10:02:04.18	16.61	13.34	-38.7	-40.8	13.8	9.10e-06	0	60	0	1417674752	47	5017
2026-01-22 10:02:07.21	16.08	13.20	-38.8	-40.9	13.8	1.14e-05	0	60	0	1434451968	48	4785
2026-01-22 10:02:10.23	15.55	13.05	-38.8	-41.0	13.7	1.25e-05	0	60	0	1451229184	48	4822
2026-01-22 10:02:13.26	15.03	12.91	-38.8	-41.0	13.7	1.37e-05	0	60	0	1469054976	48	4833
2026-01-22 10:02:16.29	14.51	12.76	-38.6	-40.7	13.8	5.70e-06	0	60	0	1485832192	48	4704
2026-01-22 10:02:19.32	14.00	12.61	-38.5	-40.7	13.8	5.70e-06	0	60	0	1502609408	48	4657
2026-01-22 10:02:22.35	13.49	12.46	-38.7	-40.9	13.5	1.60e-05	0	60	0	1519386624	48	4785
2026-01-22 10:02:25.38	12.99	12.31	-38.5	-40.7	13.5	1.71e-05	0	60	0	1536163840	48	4678
2026-01-22 10:02:28.40	12.49	12.16	-38.5	-40.8	13.2	2.86e-05	0	60	0	1553989632	48	4737
2026-01-22 10:02:31.43	12.00	12.01	-38.7	-41.2	12.6	1.44e-04	0	60	0	1570766848	48	4949
2026-01-22 10:02:34.46	11.52	11.85	-38.5	-41.0	12.6	1.29e-04	0	60	0	1587544064	48	4827
2026-01-22 10:02:37.49	11.04	11.70	-38.8	-41.4	11.9	4.04e-04	0	60	0	1604321280	48	5088
2026-01-22 10:02:40.52	10.56	11.54	-39.5	-42.8	10.0	7.31e-03	0	60	0	1622147072	49	5638
2026-01-22 10:02:43.55	10.09	11.38	-40.2	-44.6	7.9	6.89e-02	0	60	0	1638924288	50	6495
2026-01-22 10:02:46.58	9.63	11.22	-40.6	-46.6	5.8	4.06e-01	0	60	0	1655701504	52	7303
2026-01-22 10:02:49.61	9.17	11.07	-41.3	-48.5	4.7	8.00e-01	0	60	0	1659895808	53	8580
2026-01-22 10:02:52.64	8.71	10.91	-41.2	-50.2	4.1	8.45e-01	0	60	104	1660944384	53	10416
2026-01-22 10:02:55.67	8.26	10.74	-41.1	-50.9	3.8	8.45e-01	0	60	104	1660944384	54	10741
2026-01-22 10:02:58.69	7.82	10.58	-40.4	-52.0	3.8	8.46e-01	0	60	104	1660944384	52	13669
2026-01-22 10:03:01.72	7.38	10.42	-41.0	-52.1	3.8	8.46e-01	0	60	104	1660944384	53	13080
2026-01-22 10:03:04.75	6.94	10.26	-40.7	-52.3	3.8	8.46e-01	0	60	104	1660944384	53	13377
2026-01-22 10:03:07.78	6.51	10.10	-40.0	-51.6	3.8	8.46e-01	0	60	104	1660944384	51	13781
2026-01-22 10:03:10.81	6.09	9.93	-40.0	-51.5	3.8	8.47e-01	0	60	104	1660944384	51	13714
2026-01-22 10:03:13.84	5.67	9.77	-40.0	-51.5	3.8	8.47e-01	0	60	104	1660944384	51	13700
2026-01-22 10:03:16.87	5.25	9.61	-40.1	-51.7	3.8	8.46e-01	0	60	104	1660944384	51	13946
2026-01-22 10:03:19.90	4.84	9.44	-40.0	-51.6	3.8	8.47e-01	0	60	104	1660944384	51	13758
2026-01-22 10:03:22.92	4.44	9.28	-40.3	-51.9	3.8	8.45e-01	0	60	104	1660944384	51	14244
2026-01-22 10:03:25.95	4.03	9.11	-40.3	-51.9	3.8	8.48e-01	0	60	104	1660944384	51	14215
2026-01-22 10:03:28.98	3.64	8.95	-40.0	-51.6	3.8	8.47e-01	0	60	104	1660944384	51	13835
2026-01-22 10:03:32.01	3.25	8.78	-40.0	-51.6	3.8	8.46e-01	0	60	104	1660944384	51	13749
2026-01-22 10:03:35.04	2.86	8.62	-40.0	-51.5	3.8	8.47e-01	0	60	104	1660944384	51	13705
2026-01-22 10:03:38.06	2.48	8.45	-40.1	-51.7	3.8	8.47e-01	0	60	104	1660944384	51	13966
2026-01-22 10:03:41.09	2.10	8.29	-39.9	-51.5	3.8	8.45e-01	0	60	104	1660944384	51	13688
2026-01-22 10:03:44.12	1.72	8.12	-40.0	-51.6	3.8	8.45e-01	0	60	104	1660944384	51	13749
2026-01-22 10:03:47.16	1.35	7.95	-41.0	-52.6	3.8	8.46e-01	0	60	104	1660944384	52	14640
2026-01-22 10:03:50.19	0.99	7.79	-45.1	-57.0	3.8	8.46e-01	0	60	104	1660944384	60	15237
2026-01-22 10:03:53.22	0.63	7.62	-45.4	-57.2	3.8	8.46e-01	0	60	104	1660944384	61	14747
2026-01-22 10:03:56.25	0.27	7.45	-45.4	-57.1	3.8	8.47e-01	0	60	104	1660944384	61	14675
2026-01-22 10:03:59.28	359.92	7.29	-45.3	-57.0	3.8	8.45e-01	0	60	104	1660944384	61	14481
2026-01-22 10:04:02.31	359.57	7.12	-45.2	-56.9	3.8	8.45e-01	0	60	104	1660944384	61	14270
2026-01-22 10:04:05.35	359.22	6.96	-45.2	-56.9	3.8	8.46e-01	0	60	104	1660944384	61	14290
2026-01-22 10:04:08.38	358.88	6.79	-45.2	-56.9	3.8	8.47e-01	0	60	104	1660944384	60	15129
2026-01-22 10:04:11.41	358.54	6.62	-45.2	-56.9	3.8	8.45e-01	0	60	104	1660944384	60	15077
2026-01-22 10:04:14.44	358.21	6.46	-45.2	-56.9	3.8	8.46e-01	0	60	104	1660944384	60	15144
2026-01-22 10:04:17.48	357.88	6.29	-45.2	-56.9	3.8	8.48e-01	0	60	104	1660944384	60	15147
2026-01-22 10:04:20.51	357.56	6.13	-45.1	-56.8	3.8	8.45e-01	0	60	104	1660944384	60	15028
2026-01-22 10:04:23.54	357.24	5.96	-45.1	-56.9	3.8	8.46e-01	0	60	104	1660944384	60	15064
2026-01-22 10:04:26.57	356.92	5.80	-45.1	-56.8	3.8	8.46e-01	0	60	104	1660944384	60	15001
2026-01-22 10:04:29.61	356.60	5.63	-45.1	-56.8	3.8	8.46e-01	0	60	104	1660944384	60	14942
2026-01-22 10:04:32.64	356.29	5.47	-45.1	-56.8	3.8	8.46e-01	0	60	104	1660944384	60	14972
2026-01-22 10:04:35.67	355.99	5.30	-45.1	-56.8	3.8	8.46e-01	0	60	104	1660944384	60	15022
2026-01-22 10:04:38.70	355.69	5.14	-45.1	-56.8	3.8	8.46e-01	0	60	104	1660944384	60	14915
2026-01-22 10:04:41.73	355.39	4.98	-45.1	-56.8	3.8	8.46e-01	0	60	104	1660944384	60	14971
2026-01-22 10:04:44.76	355.09	4.81	-44.6	-56.8	3.8	8.46e-01	0	61	104	1660944384	60	14925
2026-01-22 10:04:47.80	354.80	4.65	-45.0	-56.8	3.8	8.46e-01	0	60	104	1660944384	60	14941
2026-01-22 10:04:50.83	354.51	4.49	-45.1	-56.8	3.8	8.47e-01	0	60	104	1660944384	60	14905
2026-01-22 10:04:53.86	354.22	4.32	-45.1	-56.8	3.8	8.46e-01	0	60	104	1660944384	60	14905
2026-01-22 10:04:56.89	353.94	4.16	-45.1	-56.8	3.8	8.46e-01	0	60	104	1660944384	60	14903
2026-01-22 10:04:59.92	353.66	4.00	-45.1	-56.8	3.8	8.45e-01	0	60	104	1660944384	60	14941
2026-01-22 10:05:02.95	353.38	3.84	-45.0	-56.8	3.8	8.45e-01	0	60	104	1660944384	60	14887
2026-01-22 10:05:05.98	353.11	3.68	-45.1	-56.8	3.8	8.46e-01	0	60	104	1660944384	60	14904
2026-01-22 10:05:09.02	352.84	3.52	-45.0	-56.8	3.8	8.45e-01	0	60	104	1660944384	60	14909
2026-01-22 10:05:12.04	352.57	3.36	-45.0	-56.8	3.8	8.47e-01	0	60	104	1660944384	60	14917
2026-01-22 10:05:15.08	352.31	3.19	-45.0	-56.7	3.8	8.47e-01	0	60	104	1660944384	60	14869
2026-01-22 10:05:18.11	352.05	3.03	-45.1	-56.7	3.8	8.47e-01	0	60	104	1660944384	60	14857
2026-01-22 10:05:21.14	351.79	2.88	-45.0	-56.7	3.8	8.47e-01	0	61	104	1660944384	60	14841
2026-01-22 10:05:24.17	351.54	2.72	-45.1	-56.8	3.8	8.46e-01	0	60	104	1660944384	60	14922
2026-01-22 10:05:27.20	351.28	2.56	-45.0	-56.8	3.8	8.46e-01	0	60	104	1660944384	60	14904
2026-01-22 10:05:30.23	351.04	2.40	-44.7	-56.7	3.8	8.47e-01	0	60	104	1660944384	60	14860
2026-01-22 10:05:33.26	350.79	2.24	-45.1	-56.8	3.8	8.45e-01	0	60	104	1660944384	60	14901
2026-01-22 10:05:36.29	350.55	2.08	-45.1	-56.8	3.8	8.46e-01	0	61	104	1660944384	60	14932
2026-01-22 10:05:39.32	350.30	1.93	-45.0	-56.8	3.8	8.46e-01	0	60	104	1660944384	60	14903

#Closed at: 2026-01-22 10:05:39
#Recorded file [1660 MB]: D:/lorett/data/31039_260122_125402.dat