passes_logs/2026/01/22/R2.0S_Moscow/R2.0S_Moscow__20260122_100419_NOAA_21_JPSS-2_rec.log

#Pass ID: 20260122_100419_NOAA 21 (JPSS-2)
#Satellite: NOAA 21 (JPSS-2)
#Configuration: NOAA-21
#almurnet v.1.7.20251203
#Start time: 2026-01-22 10:05:46

#Version: 2.2.20231116
#Station: R2.0S_Moscow
#Location: 37.707566 lon 55.798166 lat
#TLE: 1 54234U 22150A   26021.42686626  .00000211  00000+0  12107-3 0  9996
#TLE: 2 54234  98.7506 322.2490 0000636 241.9299 118.1812 14.19537149165725

#Time	Az	El	Level	Level2	SNR	BER	BlckErr	Temp	State	Recorded	gain1	gain2
2026-01-22 10:05:46.59	165.97	8.28	-45.0	-56.7	3.8	8.46e-01	0	60	0	0	60	14871
2026-01-22 10:05:50.61	166.02	8.61	-45.5	-57.9	3.8	1.49e+00	0	60	104	0	62	15107
2026-01-22 10:05:54.66	166.07	8.94	-45.2	-57.6	3.8	1.49e+00	0	60	104	0	62	14672
2026-01-22 10:05:58.70	166.12	9.28	-44.7	-56.9	3.8	1.49e+00	0	60	104	0	61	14340
2026-01-22 10:06:02.74	166.18	9.63	-44.5	-56.1	3.8	1.49e+00	0	60	104	0	61	13025
2026-01-22 10:06:06.78	166.24	9.97	-44.4	-54.5	4.0	1.49e+00	0	60	104	0	60	11545
2026-01-22 10:06:10.83	166.29	10.33	-44.2	-52.9	4.4	1.42e+00	0	60	104	0	60	9577
2026-01-22 10:06:14.87	166.35	10.69	-44.0	-51.4	5.0	7.37e-01	0	60	0	1048576	59	8520
2026-01-22 10:06:18.91	166.41	11.05	-43.9	-51.0	5.3	5.74e-01	0	60	0	13631488	59	8100
2026-01-22 10:06:22.95	166.47	11.42	-44.0	-51.2	5.1	6.20e-01	0	60	0	26214400	59	8323
2026-01-22 10:06:26.99	166.53	11.80	-44.2	-52.7	4.4	1.15e+00	0	60	104	29360128	59	9885
2026-01-22 10:06:31.03	166.60	12.18	-44.0	-51.5	5.0	7.56e-01	0	60	0	29360128	59	8591
2026-01-22 10:06:35.08	166.66	12.57	-42.4	-46.6	9.0	3.63e-02	0	60	0	41943040	56	5829
2026-01-22 10:06:39.12	166.73	12.96	-40.7	-43.5	12.0	3.23e-04	0	60	0	54525952	53	4866
2026-01-22 10:06:43.16	166.79	13.36	-43.5	-49.6	6.2	4.10e-01	0	60	0	67108864	58	7293
2026-01-22 10:06:47.20	166.86	13.77	-40.5	-43.2	12.4	4.03e-04	0	60	0	77594624	53	4667
2026-01-22 10:06:51.23	166.93	14.19	-40.2	-42.8	12.8	6.71e-05	0	60	0	90177536	52	4727
2026-01-22 10:06:55.27	167.01	14.61	-40.1	-42.6	13.1	2.97e-05	0	60	0	102760448	52	4599
2026-01-22 10:06:59.31	167.08	15.03	-40.1	-42.5	13.2	2.21e-05	0	60	0	115343360	52	4572
2026-01-22 10:07:03.35	167.16	15.47	-40.1	-42.5	13.1	3.20e-05	0	60	0	128974848	52	4582
2026-01-22 10:07:07.38	167.23	15.91	-40.2	-42.7	13.0	4.42e-05	0	60	0	140509184	52	4663
2026-01-22 10:07:11.42	167.31	16.37	-40.2	-42.7	13.0	3.73e-05	0	60	0	154140672	52	4654
2026-01-22 10:07:15.46	167.39	16.83	-40.1	-42.6	13.1	3.89e-05	0	60	0	166723584	52	4625
2026-01-22 10:07:19.50	167.48	17.30	-40.2	-42.7	13.0	3.12e-05	0	60	0	179306496	52	4671
2026-01-22 10:07:23.54	167.57	17.78	-40.2	-42.7	13.0	4.34e-05	0	60	0	191889408	52	4687
2026-01-22 10:07:27.58	167.65	18.26	-40.1	-42.6	13.2	2.51e-05	0	60	0	204472320	52	4610
2026-01-22 10:07:31.62	167.75	18.76	-40.1	-42.6	13.2	2.13e-05	0	60	0	217055232	52	4606
2026-01-22 10:07:35.65	167.84	19.27	-40.0	-42.4	13.4	1.67e-05	0	60	0	229638144	52	4508
2026-01-22 10:07:39.69	167.94	19.79	-40.0	-42.3	13.6	1.06e-05	0	60	0	242221056	51	4742
2026-01-22 10:07:43.72	168.04	20.32	-39.8	-42.0	13.8	6.80e-06	0	60	0	254803968	51	4598
2026-01-22 10:07:47.77	168.14	20.86	-39.6	-41.8	14.1	3.80e-06	0	60	0	267386880	51	4442
2026-01-22 10:07:51.80	168.24	21.41	-39.5	-41.6	14.3	0.00e+00	0	60	0	279969792	50	4632
2026-01-22 10:07:55.84	168.35	21.98	-39.5	-41.5	14.4	7.00e-07	0	60	0	292552704	50	4586
2026-01-22 10:07:59.88	168.47	22.56	-39.3	-41.3	14.6	1.50e-06	0	60	0	305135616	50	4476
2026-01-22 10:08:03.91	168.58	23.15	-39.0	-40.9	15.0	0.00e+00	0	60	0	317718528	50	4284
2026-01-22 10:08:07.94	168.70	23.75	-39.0	-41.0	15.0	0.00e+00	0	60	0	330301440	50	4292
2026-01-22 10:08:11.98	168.83	24.37	-39.0	-40.9	15.1	0.00e+00	0	60	0	342884352	49	4496
2026-01-22 10:08:16.02	168.96	25.00	-39.1	-41.0	14.9	0.00e+00	0	60	0	355467264	49	4578
2026-01-22 10:08:20.06	169.09	25.65	-39.3	-41.4	14.6	0.00e+00	0	60	0	368050176	49	4777
2026-01-22 10:08:24.09	169.23	26.32	-39.7	-41.9	14.1	2.20e-06	0	60	0	380633088	50	4803
2026-01-22 10:08:28.13	169.38	27.00	-40.0	-42.3	13.7	4.50e-06	0	60	0	393216000	50	5008
2026-01-22 10:08:32.17	169.53	27.70	-40.3	-42.6	13.3	1.75e-05	0	60	0	405798912	51	4925
2026-01-22 10:08:36.21	169.69	28.42	-40.4	-42.8	13.2	2.59e-05	0	60	0	418381824	51	5010
2026-01-22 10:08:40.25	169.85	29.16	-40.2	-42.5	13.5	1.60e-05	0	60	0	430964736	51	4830
2026-01-22 10:08:44.28	170.02	29.91	-40.1	-42.4	13.6	7.60e-06	0	60	0	443547648	51	4797
2026-01-22 10:08:48.33	170.20	30.69	-39.9	-42.1	13.8	2.20e-06	0	60	0	456130560	51	4650
2026-01-22 10:08:52.37	170.39	31.49	-39.8	-41.9	14.2	7.00e-07	0	60	0	468713472	51	4508
2026-01-22 10:08:56.41	170.59	32.31	-39.7	-41.8	14.2	1.50e-06	0	60	0	481296384	51	4457
2026-01-22 10:09:00.44	170.79	33.15	-39.8	-41.9	14.1	1.50e-06	0	60	0	494927872	51	4524
2026-01-22 10:09:04.48	171.01	34.02	-40.1	-42.3	13.7	6.10e-06	0	60	0	506462208	51	4758
2026-01-22 10:09:08.52	171.23	34.91	-40.4	-42.8	13.3	1.83e-05	0	61	0	520093696	51	5001
2026-01-22 10:09:12.56	171.47	35.82	-40.8	-43.4	12.6	7.93e-05	0	60	0	532676608	52	5046
2026-01-22 10:09:16.60	171.73	36.77	-41.0	-43.7	12.3	1.69e-04	0	60	0	545259520	52	5234
2026-01-22 10:09:20.63	171.99	37.73	-41.2	-44.1	11.8	4.36e-04	0	60	0	557842432	53	5175
2026-01-22 10:09:24.67	172.28	38.73	-41.1	-43.8	12.1	2.28e-04	0	61	0	570425344	53	5039
2026-01-22 10:09:28.71	172.58	39.76	-41.0	-43.8	12.2	2.43e-04	0	60	0	583008256	53	5011
2026-01-22 10:09:32.75	172.90	40.82	-41.2	-44.1	11.9	3.62e-04	0	60	0	595591168	53	5160
2026-01-22 10:09:36.79	173.24	41.91	-41.4	-44.4	11.6	8.95e-04	0	60	0	608174080	53	5354
2026-01-22 10:09:40.83	173.60	43.03	-41.9	-45.2	10.7	3.01e-03	0	60	0	620756992	54	5589
2026-01-22 10:09:44.87	173.99	44.18	-42.2	-45.9	10.0	9.55e-03	0	60	0	633339904	55	5666
2026-01-22 10:09:48.91	174.41	45.37	-42.3	-45.9	10.0	7.50e-03	0	60	0	645922816	55	5694
2026-01-22 10:09:52.95	174.85	46.59	-42.0	-45.5	10.5	5.05e-03	0	60	0	658505728	55	5416
2026-01-22 10:09:56.99	175.34	47.85	-41.6	-44.7	11.3	1.31e-03	0	60	0	671088640	55	4966
2026-01-22 10:10:01.03	175.86	49.14	-41.4	-44.3	11.8	4.55e-04	0	61	0	683671552	54	4994
2026-01-22 10:10:05.07	176.44	50.47	-40.9	-43.5	12.5	1.32e-04	0	61	0	696254464	53	4835
2026-01-22 10:10:09.11	177.06	51.83	-41.1	-43.9	12.2	2.00e-04	0	60	0	708837376	53	5052
2026-01-22 10:10:13.15	177.74	53.23	-40.7	-43.3	12.7	8.31e-05	0	60	0	721420288	53	4721
2026-01-22 10:10:17.19	178.49	54.66	-40.6	-43.1	12.9	4.42e-05	0	60	0	734003200	53	4647
2026-01-22 10:10:21.23	179.32	56.13	-40.1	-42.4	13.6	8.30e-06	0	60	0	746586112	52	4529
2026-01-22 10:10:25.26	180.24	57.63	-40.3	-42.6	13.4	1.06e-05	0	61	0	759169024	52	4648
2026-01-22 10:10:29.30	181.26	59.17	-40.0	-42.2	13.9	3.80e-06	0	61	0	771751936	51	4668
2026-01-22 10:10:33.34	182.42	60.74	-39.6	-41.6	14.5	0.00e+00	0	60	0	784334848	51	4361
2026-01-22 10:10:37.38	183.73	62.33	-39.4	-41.3	14.8	0.00e+00	0	61	0	796917760	50	4463
2026-01-22 10:10:41.41	185.21	63.94	-39.2	-41.1	15.0	0.00e+00	0	60	0	809500672	49	4617
2026-01-22 10:10:45.45	186.93	65.58	-38.7	-40.5	15.5	0.00e+00	0	61	0	822083584	48	4581
2026-01-22 10:10:49.49	188.91	67.23	-38.7	-40.5	15.5	0.00e+00	0	60	0	835715072	48	4582
2026-01-22 10:10:53.53	191.23	68.88	-38.9	-40.8	15.2	0.00e+00	0	60	0	847249408	48	4730
2026-01-22 10:10:57.57	193.98	70.52	-38.7	-40.5	15.5	0.00e+00	0	60	0	860880896	48	4571
2026-01-22 10:11:01.61	197.26	72.14	-39.2	-41.2	14.9	0.00e+00	0	61	0	873463808	49	4652
2026-01-22 10:11:05.65	201.22	73.71	-38.7	-40.5	15.5	0.00e+00	0	61	0	886046720	48	4591
2026-01-22 10:11:09.69	206.04	75.22	-38.8	-40.6	15.5	0.00e+00	0	60	0	898629632	48	4626
2026-01-22 10:11:13.73	211.96	76.62	-39.2	-41.1	15.0	0.00e+00	0	60	0	911212544	49	4615
2026-01-22 10:11:17.76	219.19	77.85	-38.7	-40.5	15.6	0.00e+00	0	61	0	923795456	49	4307
2026-01-22 10:11:21.80	227.95	78.87	-38.6	-40.3	15.7	0.00e+00	0	60	0	936378368	48	4489
2026-01-22 10:11:25.84	238.22	79.59	-39.2	-41.2	14.8	7.00e-07	0	60	0	948961280	49	4663
2026-01-22 10:11:29.86	249.56	79.95	-38.8	-40.6	15.5	0.00e+00	0	60	0	961544192	49	4366
2026-01-22 10:11:33.90	261.31	79.89	-39.0	-40.9	15.2	0.00e+00	0	60	0	974127104	49	4529
2026-01-22 10:11:37.94	272.48	79.44	-38.5	-40.2	15.8	0.00e+00	0	61	0	986710016	49	4193
2026-01-22 10:11:41.98	282.38	78.63	-39.0	-40.9	15.1	0.00e+00	0	60	0	999292928	48	4789
2026-01-22 10:11:46.02	290.73	77.55	-38.5	-40.2	15.8	0.00e+00	0	60	0	1011875840	48	4434
2026-01-22 10:11:50.05	297.59	76.27	-38.3	-40.0	15.8	3.00e-06	0	60	0	1024458752	47	4581
2026-01-22 10:11:54.09	303.19	74.84	-39.4	-41.4	14.7	0.00e+00	0	60	0	1037041664	49	4784
2026-01-22 10:11:58.13	307.77	73.32	-38.6	-40.5	15.5	0.00e+00	0	60	0	1049624576	48	4574
2026-01-22 10:12:02.17	311.54	71.73	-39.1	-41.0	15.1	0.00e+00	0	60	0	1062207488	49	4583
2026-01-22 10:12:06.20	314.66	70.11	-37.9	-39.5	16.5	2.20e-06	0	60	0	1074790400	47	4306
2026-01-22 10:12:10.24	317.28	68.47	-39.0	-41.0	15.2	1.60e-05	0	60	0	1087373312	49	4546
2026-01-22 10:12:14.28	319.51	66.83	-39.0	-40.8	15.3	5.30e-06	0	60	0	1099956224	48	4724
2026-01-22 10:12:18.32	321.42	65.19	-39.4	-41.4	14.6	7.00e-07	0	60	0	1112539136	49	4781
2026-01-22 10:12:22.36	323.07	63.56	-39.5	-41.5	14.6	0.00e+00	0	61	0	1125122048	49	4847
2026-01-22 10:12:26.40	324.51	61.95	-39.6	-41.6	14.5	0.00e+00	0	60	0	1137704960	50	4602
2026-01-22 10:12:30.43	325.77	60.38	-39.8	-41.9	14.4	7.00e-07	0	60	0	1150287872	50	4774
2026-01-22 10:12:34.47	326.89	58.82	-39.1	-40.8	15.2	0.00e+00	0	60	0	1162870784	50	4241
2026-01-22 10:12:38.51	327.89	57.30	-40.3	-42.6	13.6	4.50e-06	0	60	0	1175453696	51	4874
2026-01-22 10:12:42.55	328.79	55.81	-41.5	-44.5	11.4	1.13e-03	0	60	0	1188036608	53	5445
2026-01-22 10:12:46.59	329.60	54.35	-40.0	-42.2	13.9	2.20e-06	0	61	0	1201668096	52	4417
2026-01-22 10:12:50.63	330.33	52.93	-40.9	-43.5	12.6	1.10e-04	0	61	0	1214251008	52	5145
2026-01-22 10:12:54.67	331.00	51.55	-41.5	-44.4	11.7	6.71e-04	0	61	0	1226833920	53	5356
2026-01-22 10:12:58.71	331.61	50.20	-40.8	-43.3	12.8	5.87e-05	0	60	0	1239416832	53	4742
2026-01-22 10:13:02.75	332.16	48.88	-41.6	-44.6	11.6	6.72e-04	0	61	0	1251999744	53	5465
2026-01-22 10:13:06.79	332.68	47.61	-41.3	-44.2	11.9	3.84e-04	0	61	0	1264582656	53	5221
2026-01-22 10:13:10.83	333.16	46.36	-41.6	-44.7	11.3	1.32e-03	0	61	0	1277165568	54	5247
2026-01-22 10:13:14.87	333.60	45.15	-42.0	-45.3	10.8	2.64e-03	0	61	0	1289748480	54	5627
2026-01-22 10:13:18.90	334.01	43.98	-42.3	-45.9	9.9	9.79e-03	0	61	0	1302331392	55	5662
2026-01-22 10:13:22.94	334.39	42.84	-41.4	-44.3	11.7	6.10e-04	0	60	0	1314914304	54	5006
2026-01-22 10:13:26.98	334.75	41.73	-41.5	-44.5	11.6	5.72e-04	0	61	0	1327497216	54	5128
2026-01-22 10:13:31.01	335.09	40.66	-41.5	-44.4	11.7	5.00e-04	0	60	0	1340080128	54	5080
2026-01-22 10:13:35.05	335.40	39.61	-42.3	-45.9	10.1	5.99e-03	0	61	0	1352663040	55	5708
2026-01-22 10:13:39.09	335.70	38.60	-42.0	-45.4	10.7	3.27e-03	0	60	0	1365245952	55	5360
2026-01-22 10:13:43.13	335.98	37.61	-41.2	-43.9	12.1	3.69e-04	0	60	0	1377828864	54	4804
2026-01-22 10:13:47.17	336.24	36.65	-40.6	-43.1	13.0	3.43e-05	0	60	0	1390411776	53	4608
2026-01-22 10:13:51.21	336.49	35.72	-40.7	-43.2	12.8	5.87e-05	0	60	0	1402994688	53	4675
2026-01-22 10:13:55.24	336.73	34.81	-40.7	-43.1	12.9	3.89e-05	0	60	0	1415577600	53	4642
2026-01-22 10:13:59.28	336.96	33.93	-40.7	-43.3	12.7	7.70e-05	0	61	0	1428160512	53	4739
2026-01-22 10:14:03.32	337.17	33.08	-40.8	-43.4	12.6	8.69e-05	0	61	0	1440743424	53	4811
2026-01-22 10:14:07.37	337.38	32.24	-40.3	-42.7	13.2	2.13e-05	0	61	0	1453326336	52	4660
2026-01-22 10:14:11.40	337.57	31.43	-40.0	-42.3	13.8	9.10e-06	0	60	0	1465909248	51	4714
2026-01-22 10:14:15.44	337.76	30.64	-39.9	-42.0	14.0	1.50e-06	0	60	0	1478492160	51	4572
2026-01-22 10:14:19.48	337.94	29.87	-39.9	-42.1	13.9	3.00e-06	0	61	0	1491075072	51	4623
2026-01-22 10:14:23.52	338.11	29.12	-40.0	-42.3	13.7	6.80e-06	0	60	0	1503657984	51	4725
2026-01-22 10:14:27.56	338.28	28.39	-40.2	-42.6	13.5	9.90e-06	0	60	0	1516240896	51	4879
2026-01-22 10:14:31.60	338.44	27.68	-40.4	-42.8	13.1	2.36e-05	0	61	0	1528823808	51	5041
2026-01-22 10:14:35.63	338.59	26.99	-40.1	-42.4	13.5	9.10e-06	0	61	0	1542455296	51	4801
2026-01-22 10:14:39.67	338.73	26.31	-40.0	-42.3	13.5	9.90e-06	0	61	0	1553989632	51	4755
2026-01-22 10:14:43.71	338.87	25.65	-39.9	-42.3	13.5	1.06e-05	0	61	0	1566572544	51	4712
2026-01-22 10:14:47.75	339.01	25.01	-39.8	-42.1	13.6	9.10e-06	0	60	0	1580204032	51	4622
2026-01-22 10:14:51.79	339.14	24.38	-39.9	-42.3	13.3	2.51e-05	0	60	0	1592786944	51	4737
2026-01-22 10:14:55.82	339.27	23.77	-39.8	-42.2	13.3	2.13e-05	0	61	0	1605369856	51	4675
2026-01-22 10:14:59.86	339.39	23.17	-39.6	-41.9	13.4	1.75e-05	0	60	0	1617952768	51	4545
2026-01-22 10:15:03.90	339.51	22.58	-39.6	-41.9	13.3	1.67e-05	0	60	0	1630535680	50	4775
2026-01-22 10:15:07.94	339.62	22.01	-39.4	-41.9	12.9	4.27e-05	0	60	0	1643118592	50	4770
2026-01-22 10:15:11.98	339.74	21.45	-39.4	-41.9	12.6	7.24e-05	0	61	0	1655701504	50	4804
2026-01-22 10:15:16.02	339.84	20.90	-39.2	-41.9	12.4	1.22e-04	0	60	0	1668284416	50	4772
2026-01-22 10:15:20.05	339.95	20.37	-40.6	-44.8	8.9	2.11e-02	0	61	0	1680867328	51	6339
2026-01-22 10:15:24.09	340.05	19.84	-41.3	-48.5	5.2	5.13e-01	0	60	0	1693450240	53	8640
2026-01-22 10:15:28.13	340.15	19.33	-42.0	-51.7	4.0	1.48e+00	0	60	104	1695547392	54	11703
2026-01-22 10:15:32.17	340.24	18.82	-42.2	-53.2	3.8	1.49e+00	0	61	104	1695547392	55	13186
2026-01-22 10:15:36.20	340.34	18.33	-41.8	-53.7	3.8	1.49e+00	0	60	104	1695547392	55	13972
2026-01-22 10:15:40.24	340.43	17.84	-40.8	-53.0	3.8	1.49e+00	0	61	104	1695547392	53	14456
2026-01-22 10:15:44.28	340.52	17.37	-41.0	-53.2	3.8	1.49e+00	0	61	104	1695547392	53	14862
2026-01-22 10:15:48.32	340.60	16.90	-41.0	-53.3	3.8	1.49e+00	0	61	104	1695547392	53	14911
2026-01-22 10:15:52.36	340.69	16.45	-41.0	-53.3	3.8	1.49e+00	0	61	104	1695547392	53	14970
2026-01-22 10:15:56.39	340.77	16.00	-41.0	-53.3	3.8	1.49e+00	0	61	104	1695547392	53	14907
2026-01-22 10:16:00.43	340.85	15.56	-40.8	-53.1	3.8	1.49e+00	0	61	104	1695547392	53	14670
2026-01-22 10:16:04.47	340.93	15.12	-40.8	-53.1	3.8	1.49e+00	0	61	104	1695547392	53	14604
2026-01-22 10:16:08.51	341.01	14.70	-40.8	-53.1	3.8	1.49e+00	0	61	104	1695547392	53	14687
2026-01-22 10:16:12.55	341.08	14.28	-40.8	-53.2	3.8	1.49e+00	0	61	104	1695547392	53	14788
2026-01-22 10:16:16.58	341.16	13.87	-40.9	-53.2	3.8	1.49e+00	0	61	104	1695547392	53	14751
2026-01-22 10:16:20.62	341.23	13.47	-40.8	-53.1	3.8	1.49e+00	0	61	104	1695547392	53	14597
2026-01-22 10:16:24.66	341.30	13.07	-40.7	-53.0	3.8	1.49e+00	0	61	104	1695547392	53	14489
2026-01-22 10:16:28.70	341.37	12.68	-40.6	-53.0	3.8	1.49e+00	0	61	104	1695547392	53	14376
2026-01-22 10:16:32.73	341.44	12.29	-40.6	-52.9	3.8	1.49e+00	0	61	104	1695547392	53	14332
2026-01-22 10:16:36.77	341.50	11.91	-40.6	-52.9	3.8	1.49e+00	0	61	104	1695547392	52	15188
2026-01-22 10:16:40.81	341.57	11.54	-40.6	-52.9	3.8	1.49e+00	0	61	104	1695547392	52	15175
2026-01-22 10:16:44.85	341.63	11.17	-40.6	-52.9	3.8	1.49e+00	0	61	104	1695547392	52	15126
2026-01-22 10:16:48.88	341.70	10.81	-40.5	-52.9	3.8	1.49e+00	0	60	104	1695547392	52	15074
2026-01-22 10:16:52.92	341.76	10.45	-40.5	-52.8	3.8	1.49e+00	0	61	104	1695547392	52	14948
2026-01-22 10:16:56.96	341.82	10.10	-40.4	-52.7	3.8	1.49e+00	0	61	104	1695547392	52	14868
2026-01-22 10:17:01.00	341.88	9.75	-40.4	-52.7	3.8	1.49e+00	0	61	104	1695547392	52	14757
2026-01-22 10:17:05.04	341.94	9.41	-40.4	-52.7	3.8	1.49e+00	0	61	104	1695547392	52	14716
2026-01-22 10:17:09.08	342.00	9.07	-40.4	-52.7	3.8	1.49e+00	0	61	104	1695547392	52	14827
2026-01-22 10:17:13.11	342.05	8.74	-40.4	-52.7	3.8	1.49e+00	0	61	104	1695547392	52	14841
2026-01-22 10:17:17.16	342.11	8.41	-40.4	-52.7	3.8	1.49e+00	0	61	104	1695547392	52	14824
2026-01-22 10:17:21.20	342.16	8.09	-40.4	-52.7	3.8	1.49e+00	0	61	104	1695547392	52	14743
2026-01-22 10:17:25.24	342.22	7.77	-44.6	-56.8	3.8	1.49e+00	0	61	104	1695547392	59	15806
2026-01-22 10:17:29.28	342.27	7.45	-45.2	-57.7	3.8	1.49e+00	0	61	104	1695547392	61	15633
2026-01-22 10:17:33.32	342.33	7.14	-45.3	-57.7	3.8	1.49e+00	0	61	104	1695547392	61	15665
2026-01-22 10:17:37.36	342.38	6.83	-45.2	-57.6	3.8	1.49e+00	0	61	104	1695547392	61	15489
2026-01-22 10:17:41.41	342.43	6.52	-45.2	-57.6	3.8	1.49e+00	0	61	104	1695547392	60	16323
2026-01-22 10:17:45.45	342.48	6.22	-45.2	-57.6	3.8	1.49e+00	0	61	104	1695547392	60	16363
2026-01-22 10:17:49.49	342.53	5.92	-45.2	-57.6	3.8	1.49e+00	0	61	104	1695547392	60	16339
2026-01-22 10:17:53.53	342.58	5.63	-45.2	-57.5	3.8	1.49e+00	0	61	104	1695547392	60	16266
2026-01-22 10:17:57.57	342.63	5.34	-45.1	-57.5	3.8	1.49e+00	0	61	104	1695547392	60	16189
2026-01-22 10:18:01.62	342.68	5.05	-45.1	-57.5	3.8	1.49e+00	0	61	104	1695547392	60	16238
2026-01-22 10:18:05.66	342.72	4.76	-45.0	-57.6	3.8	1.49e+00	0	61	104	1695547392	60	16333
2026-01-22 10:18:09.70	342.77	4.48	-45.1	-57.5	3.8	1.49e+00	0	61	104	1695547392	60	16251
2026-01-22 10:18:13.74	342.82	4.20	-45.0	-57.5	3.8	1.49e+00	0	61	104	1695547392	60	16136
2026-01-22 10:18:17.79	342.86	3.92	-45.1	-57.5	3.8	1.49e+00	0	61	104	1695547392	60	16191
2026-01-22 10:18:21.83	342.91	3.65	-45.1	-57.5	3.8	1.49e+00	0	61	104	1695547392	60	16182
2026-01-22 10:18:25.87	342.95	3.38	-45.0	-57.5	3.8	1.49e+00	0	61	104	1695547392	60	16135
2026-01-22 10:18:29.91	343.00	3.11	-45.1	-57.5	3.8	1.49e+00	0	61	104	1695547392	60	16167
2026-01-22 10:18:33.95	343.04	2.85	-45.1	-57.4	3.8	1.49e+00	0	61	104	1695547392	60	16105
2026-01-22 10:18:38.00	343.09	2.58	-45.1	-57.5	3.8	1.49e+00	0	61	104	1695547392	60	16215
2026-01-22 10:18:42.04	343.13	2.32	-45.1	-57.4	3.8	1.49e+00	0	61	104	1695547392	60	16117
2026-01-22 10:18:46.08	343.17	2.06	-45.1	-57.4	3.8	1.49e+00	0	61	104	1695547392	60	16110

#Closed at: 2026-01-22 10:18:49
#Recorded file [1695 MB]: D:/lorett/data/31039_260122_130546.dat