passes_logs/2026/01/22/R2.0S_Moscow/R2.0S_Moscow__20260122_215054_FENGYUN_3G_rec.log

#Pass ID: 20260122_215054_FENGYUN 3G
#Satellite: FENGYUN 3G
#Configuration: FENGYUN 3G
#almurnet v.1.7.20251203
#Start time: 2026-01-22 21:50:56

#Version: 2.2.20231116
#Station: R2.0S_Moscow
#Location: 37.707566 lon 55.798166 lat
#TLE: 1 56232U 23055A   26022.50924442  .00035566  00000+0  54215-3 0  9999
#TLE: 2 56232  49.9945  17.1750 0004072  65.8313 294.3080 15.54075298157364

#Time	Az	El	Level	Level2	SNR	BER	BlckErr	Temp	State	Recorded	gain1	gain2
2026-01-22 21:50:56.52	263.39	1.94	-44.1	-62.2	3.8	8.46e-01	0	51	0	0	60	27962
2026-01-22 21:50:59.55	263.14	2.13	-44.1	-62.2	3.8	8.46e-01	0	51	104	0	60	27832
2026-01-22 21:51:02.59	262.87	2.32	-44.1	-62.2	3.8	8.47e-01	0	52	104	0	60	27813
2026-01-22 21:51:05.61	262.61	2.51	-44.1	-62.2	3.8	8.46e-01	0	52	104	0	60	27758
2026-01-22 21:51:08.65	262.33	2.71	-44.1	-62.1	3.8	8.45e-01	0	52	104	0	60	27649
2026-01-22 21:51:11.68	262.06	2.90	-44.1	-62.1	3.8	8.46e-01	0	52	104	0	60	27630
2026-01-22 21:51:14.71	261.78	3.10	-44.1	-62.2	3.8	8.46e-01	0	52	104	0	60	27733
2026-01-22 21:51:17.74	261.49	3.30	-44.1	-62.1	3.8	8.48e-01	0	53	104	0	60	27621
2026-01-22 21:51:20.77	261.19	3.50	-44.1	-62.1	3.8	8.46e-01	0	53	104	0	60	27628
2026-01-22 21:51:23.80	260.89	3.70	-44.1	-62.2	3.8	8.46e-01	0	53	104	0	60	27917
2026-01-22 21:51:26.83	260.59	3.90	-44.1	-61.9	3.8	8.45e-01	0	53	104	0	60	27069
2026-01-22 21:51:29.86	260.27	4.11	-44.1	-61.9	3.8	8.46e-01	0	53	104	0	60	26913
2026-01-22 21:51:32.89	259.96	4.31	-44.1	-61.8	3.8	8.47e-01	0	53	104	0	60	26691
2026-01-22 21:51:35.92	259.63	4.52	-44.1	-62.1	3.8	8.47e-01	0	54	104	0	60	27547
2026-01-22 21:51:38.95	259.30	4.73	-44.1	-62.0	3.8	8.46e-01	0	54	104	0	60	27119
2026-01-22 21:51:41.98	258.96	4.95	-44.1	-61.8	3.8	8.46e-01	0	54	104	0	60	26573
2026-01-22 21:51:45.01	258.61	5.16	-44.0	-60.7	3.8	8.45e-01	0	54	104	0	60	23415
2026-01-22 21:51:48.04	258.26	5.37	-44.0	-60.1	3.9	8.46e-01	0	54	104	0	60	21980
2026-01-22 21:51:51.07	257.90	5.59	-44.0	-61.2	3.8	8.46e-01	0	54	104	0	60	24724
2026-01-22 21:51:54.10	257.53	5.81	-44.0	-61.6	3.8	8.46e-01	0	55	104	0	60	26139
2026-01-22 21:51:57.13	257.15	6.03	-44.0	-60.9	3.8	8.46e-01	0	55	104	0	60	23949
2026-01-22 21:52:00.17	256.76	6.26	-44.0	-59.8	3.9	8.46e-01	0	55	104	0	60	21174
2026-01-22 21:52:03.20	256.37	6.48	-44.0	-58.5	4.2	8.43e-01	0	55	0	0	59	19306
2026-01-22 21:52:06.23	255.96	6.71	-43.8	-55.3	5.8	8.10e-01	0	55	0	0	59	13343
2026-01-22 21:52:09.26	255.55	6.94	-43.4	-52.0	8.9	1.91e-01	0	55	0	3145728	58	9686
2026-01-22 21:52:12.29	255.13	7.17	-43.5	-52.3	8.6	2.85e-02	0	55	0	6815744	58	9984
2026-01-22 21:52:15.32	254.70	7.41	-44.1	-61.5	3.8	7.57e-01	0	55	104	8912896	58	28872
2026-01-22 21:52:18.35	254.25	7.64	-43.2	-50.8	10.1	3.14e-01	0	56	0	9961472	58	8398
2026-01-22 21:52:21.38	253.80	7.88	-41.6	-46.3	14.6	1.83e-05	0	56	0	13631488	55	5982
2026-01-22 21:52:24.41	253.34	8.12	-43.8	-53.8	6.7	6.97e-02	0	56	0	16252928	58	11917
2026-01-22 21:52:27.44	252.87	8.36	-41.1	-45.1	16.1	4.85e-02	0	56	0	19922944	54	5491
2026-01-22 21:52:30.47	252.38	8.61	-41.2	-45.2	15.9	7.11e-02	0	56	0	22544384	54	5571
2026-01-22 21:52:33.50	251.89	8.86	-41.1	-45.1	16.0	0.00e+00	0	56	0	25690112	54	5505
2026-01-22 21:52:36.53	251.38	9.10	-40.9	-44.8	16.4	0.00e+00	0	56	0	29360128	53	5593
2026-01-22 21:52:39.56	250.86	9.35	-40.9	-44.6	16.5	0.00e+00	0	56	0	32505856	53	5524
2026-01-22 21:52:42.59	250.33	9.61	-40.7	-44.3	16.7	5.70e-06	0	56	0	36175872	53	5328
2026-01-22 21:52:45.62	249.78	9.86	-40.7	-44.3	16.9	4.23e-05	0	56	0	39845888	53	5292
2026-01-22 21:52:48.65	249.23	10.12	-40.7	-44.3	16.7	0.00e+00	0	57	0	42991616	53	5328
2026-01-22 21:52:51.67	248.66	10.38	-40.6	-44.2	16.9	3.91e-04	0	57	0	46137344	53	5237
2026-01-22 21:52:54.70	248.07	10.64	-40.5	-43.9	17.4	0.00e+00	0	57	0	49807360	53	5051
2026-01-22 21:52:57.73	247.47	10.90	-40.4	-43.7	17.6	0.00e+00	0	57	0	52953088	52	5266
2026-01-22 21:53:00.76	246.86	11.16	-40.3	-43.5	17.8	0.00e+00	0	57	0	56623104	52	5135
2026-01-22 21:53:03.79	246.23	11.43	-40.4	-43.7	17.7	0.00e+00	0	57	0	59768832	52	5230
2026-01-22 21:53:06.82	245.58	11.70	-40.3	-43.5	17.9	0.00e+00	0	57	0	63438848	52	5104
2026-01-22 21:53:09.85	244.92	11.97	-40.2	-43.2	18.2	0.00e+00	0	57	0	66584576	52	4956
2026-01-22 21:53:12.87	244.25	12.24	-40.2	-43.3	18.1	0.00e+00	0	57	0	70254592	52	5029
2026-01-22 21:53:15.90	243.55	12.51	-40.3	-43.4	18.1	0.00e+00	0	57	0	73400320	52	5042
2026-01-22 21:53:18.93	242.84	12.78	-39.8	-42.6	19.0	0.00e+00	0	57	0	77070336	51	4893
2026-01-22 21:53:21.96	242.11	13.06	-39.7	-42.5	19.1	0.00e+00	0	57	0	80216064	51	4841
2026-01-22 21:53:24.99	241.37	13.33	-40.0	-42.8	18.8	0.00e+00	0	57	0	83886080	51	5027
2026-01-22 21:53:28.02	240.60	13.61	-39.9	-42.7	18.9	0.00e+00	0	58	0	87031808	51	4978
2026-01-22 21:53:31.04	239.82	13.88	-39.8	-42.6	19.1	0.00e+00	0	58	0	90701824	51	4879
2026-01-22 21:53:34.07	239.02	14.16	-39.4	-42.0	19.6	0.00e+00	0	58	0	93847552	50	4852
2026-01-22 21:53:37.10	238.20	14.43	-39.8	-42.5	19.1	0.00e+00	0	58	0	97517568	50	5154
2026-01-22 21:53:40.13	237.35	14.71	-39.6	-42.3	19.4	0.00e+00	0	58	0	100663296	50	5000
2026-01-22 21:53:43.16	236.49	14.99	-39.3	-41.9	19.8	0.00e+00	0	58	0	104333312	50	4762
2026-01-22 21:53:46.19	235.61	15.26	-39.2	-41.7	20.1	0.00e+00	0	58	0	107479040	50	4657
2026-01-22 21:53:49.22	234.70	15.53	-39.5	-42.0	19.7	0.00e+00	0	58	0	111149056	50	4867
2026-01-22 21:53:52.25	233.78	15.80	-39.5	-42.1	19.7	0.00e+00	0	58	0	114294784	50	4914
2026-01-22 21:53:55.28	232.83	16.07	-39.2	-41.7	20.1	0.00e+00	0	58	0	117964800	50	4655
2026-01-22 21:53:58.30	231.86	16.34	-39.0	-41.4	20.3	0.00e+00	0	58	0	121110528	50	4521
2026-01-22 21:54:01.33	230.87	16.60	-39.1	-41.6	20.2	0.00e+00	0	58	0	124780544	49	4875
2026-01-22 21:54:04.36	229.86	16.86	-39.4	-41.9	19.8	0.00e+00	0	58	0	127926272	49	5096
2026-01-22 21:54:07.39	228.83	17.12	-39.2	-41.6	20.1	0.00e+00	0	58	0	131596288	49	4910
2026-01-22 21:54:10.41	227.77	17.37	-38.7	-40.9	20.8	0.00e+00	0	58	0	134742016	49	4533
2026-01-22 21:54:13.44	226.69	17.62	-38.2	-40.3	21.5	0.00e+00	0	58	0	138412032	48	4466
2026-01-22 21:54:16.47	225.59	17.86	-38.3	-40.5	21.3	0.00e+00	0	58	0	141557760	48	4567
2026-01-22 21:54:19.50	224.47	18.10	-38.9	-41.2	20.7	0.00e+00	0	58	0	145227776	48	4935
2026-01-22 21:54:22.53	223.33	18.33	-39.2	-41.6	20.3	0.00e+00	0	58	0	148373504	48	5186
2026-01-22 21:54:25.56	222.16	18.55	-39.0	-41.3	20.6	0.00e+00	0	58	0	152043520	49	4742
2026-01-22 21:54:28.59	220.97	18.77	-39.2	-41.6	20.3	0.00e+00	0	58	0	155189248	49	4885
2026-01-22 21:54:31.61	219.77	18.98	-38.8	-41.1	20.8	0.00e+00	0	58	0	158859264	49	4617
2026-01-22 21:54:34.64	218.54	19.17	-38.5	-40.7	21.1	0.00e+00	0	58	0	162004992	48	4700
2026-01-22 21:54:37.67	217.30	19.36	-38.5	-40.7	21.2	0.00e+00	0	58	0	165675008	48	4685
2026-01-22 21:54:40.69	216.04	19.54	-38.3	-40.4	21.5	0.00e+00	0	58	0	168820736	48	4524
2026-01-22 21:54:43.72	214.75	19.71	-38.3	-40.4	21.5	0.00e+00	0	58	0	172490752	48	4522
2026-01-22 21:54:46.75	213.46	19.87	-38.3	-40.4	21.5	0.00e+00	0	58	0	175636480	48	4543
2026-01-22 21:54:49.78	212.14	20.01	-38.7	-40.9	21.0	0.00e+00	0	58	0	179306496	48	4768
2026-01-22 21:54:52.81	210.81	20.14	-38.6	-40.8	21.1	0.00e+00	0	58	0	182452224	48	4730
2026-01-22 21:54:55.84	209.47	20.26	-38.5	-40.7	21.2	0.00e+00	0	58	0	186122240	48	4668
2026-01-22 21:54:58.86	208.12	20.37	-38.7	-41.0	20.9	0.00e+00	0	59	0	189267968	48	4836
2026-01-22 21:55:01.89	206.76	20.46	-38.7	-40.9	21.0	0.00e+00	0	59	0	192937984	48	4792
2026-01-22 21:55:04.92	205.38	20.54	-38.8	-41.0	20.9	0.00e+00	0	59	0	196083712	48	4846
2026-01-22 21:55:07.95	204.00	20.60	-38.8	-41.1	20.8	0.00e+00	0	59	0	199753728	48	4888
2026-01-22 21:55:10.98	202.61	20.65	-38.8	-41.1	20.8	0.00e+00	0	59	0	202899456	48	4880
2026-01-22 21:55:14.01	201.22	20.68	-38.4	-40.6	21.3	0.00e+00	0	59	0	206569472	48	4618
2026-01-22 21:55:17.04	199.83	20.70	-38.3	-40.4	21.5	0.00e+00	0	59	0	209715200	48	4522
2026-01-22 21:55:20.07	198.43	20.70	-37.8	-39.8	22.0	0.00e+00	0	59	0	213385216	47	4487
2026-01-22 21:55:23.10	197.03	20.69	-38.1	-40.2	21.7	0.00e+00	0	59	0	216530944	47	4661
2026-01-22 21:55:26.13	195.64	20.66	-38.1	-40.2	21.6	0.00e+00	0	59	0	220200960	47	4703
2026-01-22 21:55:29.16	194.25	20.62	-38.2	-40.3	21.6	0.00e+00	0	59	0	223346688	47	4717
2026-01-22 21:55:32.18	192.87	20.57	-37.9	-39.9	21.9	0.00e+00	0	59	0	227016704	47	4538
2026-01-22 21:55:35.21	191.49	20.49	-38.3	-40.5	21.4	0.00e+00	0	59	0	230162432	47	4829
2026-01-22 21:55:38.24	190.12	20.41	-38.6	-40.8	21.0	0.00e+00	0	59	0	233832448	47	5023
2026-01-22 21:55:41.27	188.76	20.31	-38.4	-40.6	21.1	0.00e+00	0	59	0	236978176	47	4924
2026-01-22 21:55:44.30	187.42	20.19	-39.1	-41.5	20.3	0.00e+00	0	59	0	240648192	48	5144
2026-01-22 21:55:47.32	186.09	20.07	-38.9	-41.2	20.6	0.00e+00	0	59	0	243793920	49	4667
2026-01-22 21:55:50.36	184.76	19.93	-38.6	-40.8	21.0	0.00e+00	0	59	0	247463936	49	4481
2026-01-22 21:55:53.38	183.46	19.78	-38.6	-40.8	21.0	0.00e+00	0	59	0	250609664	49	4463
2026-01-22 21:55:56.41	182.17	19.61	-38.5	-40.7	21.1	0.00e+00	0	59	0	254279680	49	4428
2026-01-22 21:55:59.44	180.89	19.44	-38.4	-40.6	21.2	0.00e+00	0	59	0	257425408	48	4614
2026-01-22 21:56:02.47	179.64	19.25	-38.3	-40.5	21.3	0.00e+00	0	59	0	261095424	48	4559
2026-01-22 21:56:05.49	178.41	19.06	-38.5	-40.7	21.0	0.00e+00	0	59	0	264241152	48	4679
2026-01-22 21:56:08.52	177.19	18.86	-38.7	-41.0	20.8	0.00e+00	0	59	0	267911168	48	4823
2026-01-22 21:56:11.55	175.99	18.64	-38.8	-41.1	20.7	0.00e+00	0	59	0	271056896	48	4879
2026-01-22 21:56:14.58	174.82	18.42	-38.6	-40.9	20.9	0.00e+00	0	59	0	274726912	48	4783
2026-01-22 21:56:17.61	173.66	18.20	-38.7	-40.9	20.9	0.00e+00	0	59	0	277872640	49	4532
2026-01-22 21:56:20.64	172.53	17.96	-38.3	-40.4	21.4	0.00e+00	0	59	0	281542656	48	4505
2026-01-22 21:56:23.67	171.42	17.72	-38.7	-41.0	20.9	0.00e+00	0	59	0	284688384	48	4822
2026-01-22 21:56:26.70	170.33	17.47	-39.0	-41.4	20.4	0.00e+00	0	59	0	288358400	48	5066
2026-01-22 21:56:29.72	169.27	17.22	-38.8	-41.0	20.9	0.00e+00	0	59	0	291504128	48	4840
2026-01-22 21:56:32.75	168.22	16.97	-39.1	-41.4	20.5	0.00e+00	0	59	0	295174144	48	5093
2026-01-22 21:56:35.78	167.20	16.71	-39.1	-41.5	20.4	0.00e+00	0	59	0	298319872	49	4853
2026-01-22 21:56:38.81	166.20	16.44	-39.2	-41.6	20.3	0.00e+00	0	59	0	301989888	49	4874
2026-01-22 21:56:41.83	165.22	16.18	-39.1	-41.5	20.3	0.00e+00	0	59	0	305135616	49	4853
2026-01-22 21:56:44.86	164.26	15.91	-39.4	-41.9	20.0	0.00e+00	0	59	0	308805632	49	5083
2026-01-22 21:56:47.88	163.33	15.64	-39.5	-42.1	19.8	0.00e+00	0	59	0	311951360	49	5179
2026-01-22 21:56:50.91	162.41	15.37	-39.6	-42.2	19.7	0.00e+00	0	59	0	315621376	49	5225
2026-01-22 21:56:53.94	161.52	15.09	-39.5	-42.1	19.8	0.00e+00	0	59	0	318767104	49	5182
2026-01-22 21:56:56.97	160.65	14.82	-39.7	-42.3	19.6	0.00e+00	0	59	0	322437120	49	5333
2026-01-22 21:57:00.00	159.80	14.54	-39.8	-42.6	19.3	0.00e+00	0	59	0	325582848	50	5166
2026-01-22 21:57:03.03	158.96	14.27	-39.9	-42.6	19.3	0.00e+00	0	59	0	329252864	50	5197
2026-01-22 21:57:06.06	158.15	13.99	-40.0	-42.8	19.1	0.00e+00	0	59	0	332398592	50	5294
2026-01-22 21:57:09.09	157.36	13.71	-40.2	-43.1	18.8	0.00e+00	0	59	0	336068608	51	5196
2026-01-22 21:57:12.12	156.58	13.44	-40.0	-42.9	18.9	0.00e+00	0	59	0	339214336	51	5087
2026-01-22 21:57:15.15	155.83	13.16	-40.1	-43.1	18.7	0.00e+00	0	59	0	342884352	51	5180
2026-01-22 21:57:18.17	155.09	12.89	-40.2	-43.2	18.6	0.00e+00	0	59	0	346030080	51	5258
2026-01-22 21:57:21.20	154.37	12.61	-40.3	-43.3	18.4	0.00e+00	0	59	0	349700096	51	5335
2026-01-22 21:57:24.23	153.67	12.34	-40.3	-43.4	18.3	0.00e+00	0	59	0	352845824	51	5356
2026-01-22 21:57:27.25	152.99	12.07	-40.4	-43.5	18.2	0.00e+00	0	59	0	356515840	51	5458
2026-01-22 21:57:30.28	152.32	11.80	-40.5	-43.8	17.9	0.00e+00	0	59	0	359661568	51	5643
2026-01-22 21:57:33.31	151.67	11.53	-40.6	-43.9	17.7	0.00e+00	0	59	0	363331584	51	5705
2026-01-22 21:57:36.34	151.03	11.26	-40.4	-43.6	18.0	0.00e+00	0	60	0	366477312	51	5521
2026-01-22 21:57:39.37	150.41	11.00	-40.3	-43.5	18.1	0.00e+00	0	59	0	370147328	51	5450
2026-01-22 21:57:42.40	149.80	10.73	-40.5	-43.9	17.7	0.00e+00	0	59	0	373293056	51	5667
2026-01-22 21:57:45.42	149.21	10.47	-40.7	-44.2	17.3	0.00e+00	0	59	0	376963072	51	5889
2026-01-22 21:57:48.45	148.63	10.21	-40.9	-44.7	16.7	0.00e+00	0	59	0	380108800	52	5870
2026-01-22 21:57:51.48	148.07	9.95	-40.7	-44.5	16.8	0.00e+00	0	59	0	383778816	52	5742
2026-01-22 21:57:54.51	147.51	9.70	-40.8	-44.5	16.7	0.00e+00	0	59	0	386924544	52	5775
2026-01-22 21:57:57.54	146.98	9.44	-41.0	-44.9	16.3	0.00e+00	0	59	0	390594560	52	6056
2026-01-22 21:58:00.57	146.45	9.19	-40.9	-45.0	16.1	0.00e+00	0	59	0	393740288	52	6098
2026-01-22 21:58:03.60	145.94	8.94	-40.7	-44.5	16.6	0.00e+00	0	60	0	397410304	52	5746
2026-01-22 21:58:06.63	145.43	8.69	-40.8	-44.8	16.2	0.00e+00	0	59	0	400556032	52	5976
2026-01-22 21:58:09.65	144.95	8.45	-40.8	-45.0	16.0	0.00e+00	0	60	0	404226048	52	6062
2026-01-22 21:58:12.68	144.47	8.21	-40.9	-45.1	15.8	0.00e+00	0	59	0	407371776	52	6201
2026-01-22 21:58:15.71	144.00	7.96	-43.6	-54.7	6.7	0.00e+00	0	59	0	411041792	57	13987
2026-01-22 21:58:18.74	143.54	7.73	-45.2	-63.5	3.8	8.47e-01	0	60	104	411041792	60	32453
2026-01-22 21:58:21.77	143.10	7.49	-45.5	-63.9	3.8	8.45e-01	0	60	104	411041792	61	31929
2026-01-22 21:58:24.80	142.66	7.25	-45.6	-63.8	3.8	8.46e-01	0	60	104	411041792	61	31672
2026-01-22 21:58:27.83	142.23	7.02	-45.4	-63.5	3.8	8.46e-01	0	60	104	411041792	61	30420
2026-01-22 21:58:30.86	141.81	6.79	-45.2	-63.3	3.8	8.46e-01	0	60	104	411041792	61	29758
2026-01-22 21:58:33.89	141.40	6.56	-45.2	-63.3	3.8	8.45e-01	0	60	104	411041792	61	29813
2026-01-22 21:58:36.92	141.01	6.33	-45.2	-63.3	3.8	8.46e-01	0	60	104	411041792	61	29749
2026-01-22 21:58:39.95	140.61	6.11	-45.2	-63.3	3.8	8.46e-01	0	60	104	411041792	61	29859
2026-01-22 21:58:42.98	140.23	5.89	-45.2	-63.3	3.8	8.46e-01	0	60	104	411041792	61	29723
2026-01-22 21:58:46.01	139.86	5.67	-45.2	-63.3	3.8	8.46e-01	0	60	104	411041792	61	29793
2026-01-22 21:58:49.04	139.49	5.45	-45.2	-63.3	3.8	8.46e-01	0	60	104	411041792	61	29714
2026-01-22 21:58:52.07	139.13	5.23	-45.2	-63.2	3.8	8.45e-01	0	60	104	411041792	61	29659
2026-01-22 21:58:55.10	138.78	5.01	-45.2	-63.3	3.8	8.45e-01	0	60	104	411041792	61	29699
2026-01-22 21:58:58.13	138.44	4.80	-45.2	-63.3	3.8	8.46e-01	0	60	104	411041792	61	29737
2026-01-22 21:59:01.16	138.10	4.59	-45.2	-63.2	3.8	8.47e-01	0	60	104	411041792	61	29580
2026-01-22 21:59:04.19	137.77	4.38	-45.2	-63.2	3.8	8.46e-01	0	60	104	411041792	61	29620
2026-01-22 21:59:07.22	137.45	4.17	-45.2	-63.2	3.8	8.46e-01	0	60	104	411041792	61	29596
2026-01-22 21:59:10.25	137.13	3.97	-45.2	-63.2	3.8	8.47e-01	0	60	104	411041792	61	29625
2026-01-22 21:59:13.28	136.82	3.76	-45.2	-63.2	3.8	8.45e-01	0	60	104	411041792	61	29637
2026-01-22 21:59:16.31	136.52	3.56	-45.2	-63.2	3.8	8.45e-01	0	60	104	411041792	61	29653
2026-01-22 21:59:19.34	136.22	3.36	-45.1	-63.2	3.8	8.47e-01	0	60	104	411041792	61	29633
2026-01-22 21:59:22.37	135.93	3.16	-45.1	-63.2	3.8	8.46e-01	0	60	104	411041792	61	29554
2026-01-22 21:59:25.40	135.64	2.96	-45.1	-63.2	3.8	8.45e-01	0	60	104	411041792	61	29533
2026-01-22 21:59:28.43	135.36	2.77	-45.1	-63.2	3.8	8.46e-01	0	60	104	411041792	61	29577
2026-01-22 21:59:31.46	135.09	2.57	-45.1	-63.2	3.8	8.46e-01	0	60	104	411041792	61	29494
2026-01-22 21:59:34.49	134.82	2.38	-45.1	-63.2	3.8	8.46e-01	0	60	104	411041792	61	29527

#Closed at: 2026-01-22 21:59:37
#Recorded file [411 MB]: D:/lorett/data/31039_260123_005056.dat