passes_logs/2026/01/22/R2.0S_Moscow/R2.0S_Moscow__20260122_004334_SUOMI_NPP_rec.log

#Pass ID: 20260122_004334_SUOMI NPP
#Satellite: SUOMI NPP
#Configuration: NPP
#almurnet v.1.7.20251203
#Start time: 2026-01-22 00:43:34

#Version: 2.2.20231116
#Station: R2.0S_Moscow
#Location: 37.707566 lon 55.798166 lat
#TLE: 1 37849U 11061A   26021.51818991  .00000201  00000+0  11636-3 0  9995
#TLE: 2 37849  98.7819 323.5108 0002300  52.3548 307.7836 14.19527793737637

#Time	Az	El	Level	Level2	SNR	BER	BlckErr	Temp	State	Recorded	gain1	gain2
2026-01-22 00:43:34.15	12.44	1.99	-40.2	-54.8	3.8	1.49e+00	0	48	0	0	52	18840
2026-01-22 00:43:38.19	12.28	2.24	-40.2	-54.8	3.8	1.49e+00	0	49	104	0	52	18841
2026-01-22 00:43:42.23	12.13	2.49	-40.2	-54.8	3.8	1.49e+00	0	49	104	0	52	18842
2026-01-22 00:43:46.27	11.97	2.74	-40.2	-54.8	3.8	1.49e+00	0	49	104	0	52	18766
2026-01-22 00:43:50.31	11.81	3.00	-40.2	-54.8	3.8	1.49e+00	0	50	104	0	52	18741
2026-01-22 00:43:54.35	11.64	3.25	-40.2	-54.8	3.8	1.49e+00	0	50	104	0	52	18735
2026-01-22 00:43:58.39	11.47	3.51	-40.2	-54.7	3.8	1.49e+00	0	50	104	0	52	18667
2026-01-22 00:44:02.43	11.30	3.77	-40.2	-54.8	3.8	1.49e+00	0	50	104	0	52	18743
2026-01-22 00:44:06.47	11.13	4.04	-40.2	-54.7	3.8	1.49e+00	0	51	104	0	52	18709
2026-01-22 00:44:10.51	10.95	4.30	-40.2	-54.8	3.8	1.49e+00	0	51	104	0	52	18761
2026-01-22 00:44:14.55	10.77	4.57	-40.2	-54.7	3.8	1.49e+00	0	51	104	0	52	18655
2026-01-22 00:44:18.59	10.58	4.84	-40.2	-54.7	3.8	1.49e+00	0	51	104	0	52	18634
2026-01-22 00:44:22.63	10.39	5.11	-40.2	-54.7	3.8	1.49e+00	0	52	104	0	52	18704
2026-01-22 00:44:26.67	10.20	5.39	-40.2	-54.7	3.8	1.49e+00	0	52	104	0	52	18722
2026-01-22 00:44:30.72	10.00	5.67	-40.2	-54.8	3.8	1.49e+00	0	52	104	0	52	18755
2026-01-22 00:44:34.76	9.80	5.95	-40.2	-54.8	3.8	1.49e+00	0	52	104	0	52	18758
2026-01-22 00:44:38.80	9.59	6.23	-40.2	-54.8	3.8	1.49e+00	0	52	104	0	52	18741
2026-01-22 00:44:42.84	9.38	6.52	-40.2	-54.8	3.8	1.49e+00	0	53	104	0	52	18744
2026-01-22 00:44:46.88	9.17	6.81	-40.2	-54.7	3.8	1.49e+00	0	53	104	0	52	18707
2026-01-22 00:44:50.92	8.95	7.10	-40.2	-54.7	3.8	1.49e+00	0	53	104	0	52	18694
2026-01-22 00:44:54.96	8.73	7.39	-40.2	-54.7	3.8	1.49e+00	0	53	104	0	52	18705
2026-01-22 00:44:59.00	8.50	7.69	-40.2	-54.8	3.8	1.49e+00	0	53	104	0	52	18742
2026-01-22 00:45:03.05	8.26	7.99	-40.2	-54.7	3.8	1.49e+00	0	53	104	0	52	18702
2026-01-22 00:45:07.08	8.02	8.30	-40.3	-54.9	3.8	1.49e+00	0	53	104	0	52	18961
2026-01-22 00:45:11.12	7.78	8.60	-40.3	-54.8	3.8	1.49e+00	0	54	104	0	52	18932
2026-01-22 00:45:15.16	7.53	8.91	-40.2	-54.7	3.8	1.49e+00	0	54	104	0	52	18713
2026-01-22 00:45:19.20	7.27	9.23	-40.1	-54.7	3.8	1.49e+00	0	54	104	0	52	18647
2026-01-22 00:45:23.23	7.01	9.54	-40.1	-54.7	3.8	1.49e+00	0	54	104	0	52	18591
2026-01-22 00:45:27.27	6.74	9.86	-40.0	-54.6	3.8	1.49e+00	0	54	104	0	51	19600
2026-01-22 00:45:31.31	6.47	10.19	-40.7	-55.4	3.8	1.49e+00	0	54	104	0	52	20079
2026-01-22 00:45:35.35	6.19	10.51	-40.3	-54.8	3.8	1.49e+00	0	54	104	0	52	18814
2026-01-22 00:45:39.39	5.90	10.85	-41.0	-55.5	3.8	1.49e+00	0	54	104	0	53	19374
2026-01-22 00:45:43.43	5.61	11.18	-40.5	-55.0	3.8	1.49e+00	0	55	104	0	52	19174
2026-01-22 00:45:47.47	5.30	11.52	-41.2	-54.2	3.8	1.49e+00	0	55	104	0	54	15739
2026-01-22 00:45:51.50	5.00	11.86	-40.6	-55.0	3.8	1.49e+00	0	55	104	0	52	19336
2026-01-22 00:45:55.54	4.68	12.21	-42.0	-52.2	4.6	1.28e+00	0	55	0	0	54	12488
2026-01-22 00:45:59.58	4.35	12.56	-41.7	-51.2	4.9	7.94e-01	0	55	0	3145728	54	11117
2026-01-22 00:46:03.62	4.02	12.91	-42.1	-51.1	5.2	8.32e-01	0	55	0	10485760	54	10972
2026-01-22 00:46:07.65	3.68	13.27	-42.0	-52.6	4.5	4.29e-01	0	55	0	13631488	55	12275
2026-01-22 00:46:11.69	3.33	13.63	-41.3	-46.9	9.0	2.96e-02	0	55	0	18874368	54	6761
2026-01-22 00:46:15.72	2.97	14.00	-41.3	-46.7	9.3	1.09e-02	0	55	0	26214400	54	6604
2026-01-22 00:46:19.76	2.60	14.37	-41.7	-47.8	8.3	4.19e-02	0	55	0	33554432	54	7491
2026-01-22 00:46:23.80	2.22	14.75	-41.6	-46.9	9.4	1.52e-02	0	56	0	40894464	54	6796
2026-01-22 00:46:27.84	1.84	15.13	-41.7	-46.7	10.0	1.10e-02	0	55	0	49283072	54	6615
2026-01-22 00:46:31.88	1.44	15.52	-41.6	-46.2	10.8	3.43e-03	0	56	0	56623104	54	6220
2026-01-22 00:46:35.92	1.03	15.91	-41.7	-46.3	10.7	3.39e-03	0	56	0	63963136	54	6343
2026-01-22 00:46:39.95	0.61	16.30	-41.8	-46.5	10.6	3.53e-03	0	56	0	71303168	54	6461
2026-01-22 00:46:43.99	0.17	16.70	-41.8	-46.5	10.6	3.40e-03	0	56	0	79691776	54	6456
2026-01-22 00:46:48.03	359.73	17.11	-41.8	-46.5	10.7	2.25e-03	0	56	0	87031808	54	6426
2026-01-22 00:46:52.07	359.27	17.52	-41.9	-46.6	10.6	3.18e-03	0	56	0	94371840	54	6496
2026-01-22 00:46:56.11	358.80	17.93	-42.0	-46.8	10.5	3.22e-03	0	56	0	101711872	54	6654
2026-01-22 00:47:00.14	358.31	18.35	-41.8	-46.6	10.4	4.25e-03	0	56	0	109051904	54	6511
2026-01-22 00:47:04.18	357.82	18.78	-41.9	-47.0	9.9	7.07e-03	0	56	0	117440512	54	6830
2026-01-22 00:47:08.22	357.30	19.21	-41.4	-46.1	10.6	3.40e-03	0	56	0	124780544	54	6166
2026-01-22 00:47:12.26	356.77	19.64	-41.4	-46.3	10.3	3.35e-03	0	56	0	132120576	54	6306
2026-01-22 00:47:16.30	356.23	20.08	-41.9	-48.0	8.4	4.04e-02	0	56	0	139460608	54	7644
2026-01-22 00:47:20.33	355.67	20.53	-41.9	-48.2	8.1	6.17e-02	0	56	0	147849216	54	7861
2026-01-22 00:47:24.37	355.09	20.98	-41.5	-47.0	9.4	1.92e-02	0	56	0	155189248	54	6819
2026-01-22 00:47:28.41	354.50	21.43	-41.3	-46.4	10.0	6.06e-03	0	57	0	162529280	54	6348
2026-01-22 00:47:32.45	353.88	21.89	-41.6	-47.0	9.4	1.36e-02	0	56	0	169869312	54	6838
2026-01-22 00:47:36.48	353.25	22.35	-41.7	-46.9	9.8	9.92e-03	0	56	0	177209344	54	6751
2026-01-22 00:47:40.52	352.60	22.82	-42.3	-47.8	9.2	2.44e-02	0	57	0	185597952	55	7107
2026-01-22 00:47:44.56	351.93	23.30	-42.2	-47.2	10.1	5.01e-03	0	57	0	192937984	55	6624
2026-01-22 00:47:48.60	351.24	23.77	-42.3	-47.2	10.1	6.18e-03	0	57	0	200278016	55	6619
2026-01-22 00:47:52.64	350.52	24.26	-42.3	-47.0	10.5	5.45e-03	0	57	0	207618048	55	6469
2026-01-22 00:47:56.67	349.79	24.74	-41.9	-46.1	11.4	1.23e-03	0	57	0	216006656	55	5830
2026-01-22 00:48:00.71	349.02	25.23	-41.8	-45.8	11.8	5.11e-04	0	57	0	223346688	55	5639
2026-01-22 00:48:04.75	348.24	25.73	-42.3	-46.8	10.9	2.43e-03	0	57	0	230686720	55	6293
2026-01-22 00:48:08.79	347.43	26.22	-42.8	-47.7	10.1	7.40e-03	0	57	0	238026752	56	6628
2026-01-22 00:48:12.82	346.59	26.72	-43.0	-48.2	9.9	8.82e-03	0	57	0	245366784	56	7010
2026-01-22 00:48:16.86	345.72	27.22	-43.2	-48.6	9.5	1.58e-02	0	57	0	253755392	57	6880
2026-01-22 00:48:20.89	344.83	27.72	-43.6	-49.7	8.3	3.86e-02	0	57	0	261095424	57	7875
2026-01-22 00:48:24.93	343.91	28.23	-43.5	-49.4	8.6	3.97e-02	0	57	0	268435456	57	7609
2026-01-22 00:48:28.97	342.96	28.73	-43.5	-49.2	9.0	4.11e-02	0	57	0	275775488	57	7373
2026-01-22 00:48:33.01	341.98	29.24	-43.4	-48.8	9.4	2.61e-02	0	57	0	284164096	57	7057
2026-01-22 00:48:37.04	340.97	29.74	-42.9	-47.5	10.9	3.68e-03	0	57	0	291504128	57	6065
2026-01-22 00:48:41.08	339.92	30.24	-43.0	-47.7	10.6	3.24e-03	0	57	0	298844160	57	6218
2026-01-22 00:48:45.12	338.84	30.74	-43.7	-49.6	8.6	2.31e-02	0	57	0	306184192	57	7754
2026-01-22 00:48:49.15	337.73	31.24	-43.3	-48.4	9.9	8.17e-03	0	57	0	313524224	57	6745
2026-01-22 00:48:53.19	336.58	31.73	-43.5	-48.9	9.3	1.94e-02	0	57	0	321912832	57	7143
2026-01-22 00:48:57.22	335.39	32.21	-43.0	-47.6	10.7	4.39e-03	0	57	0	329252864	57	6170
2026-01-22 00:49:01.26	334.17	32.69	-43.4	-48.6	9.7	6.08e-03	0	57	0	336592896	57	6910
2026-01-22 00:49:05.30	332.92	33.17	-43.3	-48.5	9.8	1.02e-02	0	57	0	343932928	57	6811
2026-01-22 00:49:09.34	331.62	33.63	-43.4	-48.7	9.6	1.34e-02	0	57	0	351272960	57	6985
2026-01-22 00:49:13.38	330.29	34.09	-44.0	-50.6	7.7	9.30e-02	0	57	0	359661568	58	8197
2026-01-22 00:49:17.42	328.92	34.53	-44.2	-51.3	7.0	2.82e-01	0	57	0	367001600	59	8432
2026-01-22 00:49:21.45	327.51	34.96	-44.2	-52.0	4.6	1.48e+00	0	57	104	372244480	60	8628
2026-01-22 00:49:25.50	326.06	35.37	-44.0	-50.4	7.8	8.96e-02	0	57	0	376438784	59	7617
2026-01-22 00:49:29.54	324.58	35.77	-43.6	-49.3	9.0	2.26e-02	0	57	0	383778816	59	6655
2026-01-22 00:49:33.58	323.06	36.15	-43.8	-49.9	8.3	7.15e-02	0	57	0	392167424	59	7142
2026-01-22 00:49:37.62	321.51	36.51	-43.4	-48.4	9.9	1.21e-02	0	57	0	399507456	58	6396
2026-01-22 00:49:41.66	319.92	36.85	-43.3	-48.3	10.0	8.38e-03	0	57	0	406847488	58	6330
2026-01-22 00:49:45.69	318.31	37.17	-42.9	-47.3	11.1	1.70e-03	0	57	0	414187520	57	5930
2026-01-22 00:49:49.73	316.66	37.47	-42.7	-47.0	11.3	1.57e-03	0	57	0	422576128	57	5733
2026-01-22 00:49:53.77	314.98	37.74	-42.3	-46.2	12.2	2.10e-04	0	57	0	429916160	56	5533
2026-01-22 00:49:57.81	313.27	37.98	-42.4	-46.2	12.3	1.84e-04	0	57	0	437256192	56	5569
2026-01-22 00:50:01.85	311.54	38.20	-42.9	-47.5	10.9	3.37e-03	0	57	0	444596224	57	6104
2026-01-22 00:50:05.89	309.78	38.38	-40.6	-43.2	15.1	0.00e+00	0	57	0	451936256	53	4677
2026-01-22 00:50:09.92	308.01	38.54	-41.5	-44.6	13.7	1.44e-05	0	57	0	460324864	54	5198
2026-01-22 00:50:13.96	306.23	38.66	-41.9	-45.4	12.9	2.89e-05	0	57	0	467664896	54	5663
2026-01-22 00:50:18.00	304.42	38.76	-41.9	-45.5	12.7	6.25e-05	0	57	0	475004928	54	5747
2026-01-22 00:50:22.04	302.62	38.82	-41.9	-45.4	12.9	5.03e-05	0	57	0	482344960	54	5660
2026-01-22 00:50:26.08	300.80	38.85	-41.6	-44.9	13.3	9.90e-06	0	57	0	490733568	54	5373
2026-01-22 00:50:30.12	298.98	38.85	-42.6	-46.9	11.2	6.51e-04	0	58	0	498073600	55	6396
2026-01-22 00:50:34.16	297.17	38.81	-42.7	-47.0	11.6	1.10e-03	0	57	0	505413632	56	6076
2026-01-22 00:50:38.19	295.37	38.74	-43.0	-47.4	10.9	2.55e-03	0	57	0	512753664	56	6409
2026-01-22 00:50:42.23	293.57	38.64	-42.9	-47.4	10.7	3.06e-03	0	57	0	520093696	56	6405
2026-01-22 00:50:46.27	291.78	38.51	-43.3	-48.2	10.0	6.07e-03	0	58	0	528482304	57	6634
2026-01-22 00:50:50.31	290.01	38.34	-43.6	-49.2	9.1	2.96e-02	0	57	0	535822336	58	7026
2026-01-22 00:50:54.35	288.26	38.15	-43.8	-49.7	8.6	2.74e-02	0	57	0	543162368	58	7387
2026-01-22 00:50:58.38	286.53	37.93	-43.7	-49.4	8.9	2.12e-02	0	57	0	550502400	58	7126
2026-01-22 00:51:02.42	284.83	37.68	-43.5	-48.8	9.4	2.06e-02	0	57	0	558891008	58	6717
2026-01-22 00:51:06.46	283.15	37.41	-44.3	-51.9	6.4	3.00e-01	0	57	0	566231040	59	9026
2026-01-22 00:51:10.50	281.50	37.10	-43.1	-47.9	10.4	5.46e-03	0	57	0	573571072	58	6036
2026-01-22 00:51:14.54	279.89	36.78	-43.0	-47.6	10.8	4.88e-03	0	57	0	580911104	57	6148
2026-01-22 00:51:18.58	278.30	36.43	-41.5	-44.7	13.6	2.21e-05	0	57	0	588251136	55	4948
2026-01-22 00:51:22.62	276.75	36.07	-41.8	-45.2	13.1	2.36e-05	0	58	0	596639744	54	5575
2026-01-22 00:51:26.65	275.24	35.68	-42.4	-46.5	11.7	5.23e-04	0	58	0	603979776	55	6103
2026-01-22 00:51:30.69	273.76	35.28	-42.5	-46.6	11.5	5.07e-04	0	58	0	611319808	55	6199
2026-01-22 00:51:34.73	272.32	34.86	-43.1	-47.9	10.3	4.04e-03	0	58	0	618659840	56	6787
2026-01-22 00:51:38.77	270.92	34.43	-42.7	-47.0	11.3	1.22e-03	0	57	0	627048448	56	6127
2026-01-22 00:51:42.80	269.56	33.98	-42.2	-45.8	12.5	1.49e-04	0	58	0	634388480	56	5313
2026-01-22 00:51:46.84	268.23	33.52	-42.7	-46.9	11.3	1.20e-03	0	57	0	641728512	56	6042
2026-01-22 00:51:50.88	266.94	33.06	-42.6	-46.8	11.5	5.40e-04	0	57	0	649068544	56	5941
2026-01-22 00:51:54.92	265.68	32.58	-42.9	-47.5	10.8	2.52e-03	0	58	0	656408576	56	6457
2026-01-22 00:51:58.96	264.46	32.10	-43.0	-47.8	10.5	2.91e-03	0	58	0	664797184	56	6703
2026-01-22 00:52:03.00	263.28	31.61	-43.4	-48.8	9.4	1.06e-02	0	57	0	672137216	57	7101
2026-01-22 00:52:07.04	262.14	31.11	-43.8	-50.0	8.1	7.66e-02	0	57	0	679477248	58	7712
2026-01-22 00:52:11.08	261.03	30.61	-43.7	-49.6	8.5	2.96e-02	0	57	0	686817280	58	7335
2026-01-22 00:52:15.11	259.95	30.11	-42.8	-47.4	10.8	2.91e-03	0	57	0	695205888	57	6005
2026-01-22 00:52:19.15	258.91	29.61	-42.5	-46.6	11.7	8.73e-04	0	58	0	702545920	57	5488
2026-01-22 00:52:23.19	257.90	29.10	-42.8	-47.3	11.0	1.21e-03	0	57	0	709885952	56	6278
2026-01-22 00:52:27.23	256.92	28.59	-43.1	-48.1	10.1	7.67e-03	0	57	0	717225984	56	6929
2026-01-22 00:52:31.27	255.97	28.09	-42.5	-46.6	11.7	6.16e-04	0	57	0	724566016	56	5818
2026-01-22 00:52:35.30	255.05	27.58	-42.7	-47.1	11.1	1.71e-03	0	58	0	732954624	56	6185
2026-01-22 00:52:39.35	254.16	27.08	-41.9	-45.5	12.6	8.16e-05	0	58	0	740294656	55	5434
2026-01-22 00:52:43.38	253.30	26.57	-41.9	-45.7	12.4	8.39e-05	0	57	0	747634688	55	5530
2026-01-22 00:52:47.42	252.46	26.07	-42.3	-46.5	11.6	6.24e-04	0	58	0	754974720	55	6080
2026-01-22 00:52:51.46	251.65	25.58	-42.4	-46.6	11.4	1.25e-03	0	58	0	763363328	55	6186
2026-01-22 00:52:55.50	250.86	25.08	-42.2	-46.4	11.6	6.27e-04	0	58	0	770703360	55	5999
2026-01-22 00:52:59.54	250.10	24.59	-41.8	-45.6	12.5	1.94e-04	0	58	0	778043392	55	5467
2026-01-22 00:53:03.58	249.37	24.10	-42.0	-46.0	12.2	1.79e-04	0	58	0	785383424	55	5730
2026-01-22 00:53:07.62	248.65	23.62	-42.1	-45.9	12.1	2.53e-04	0	58	0	792723456	55	5708
2026-01-22 00:53:11.66	247.96	23.14	-42.1	-46.1	11.9	2.37e-04	0	58	0	801112064	55	5820
2026-01-22 00:53:15.70	247.29	22.67	-42.4	-46.8	11.1	1.68e-03	0	58	0	808452096	55	6322
2026-01-22 00:53:19.74	246.64	22.20	-42.6	-47.3	10.7	3.68e-03	0	58	0	815792128	55	6720
2026-01-22 00:53:23.77	246.01	21.73	-42.7	-47.4	10.7	3.38e-03	0	58	0	823132160	56	6359
2026-01-22 00:53:27.81	245.40	21.27	-41.8	-45.6	12.5	1.24e-04	0	58	0	831520768	55	5467
2026-01-22 00:53:31.85	244.80	20.82	-42.2	-46.2	11.7	2.97e-04	0	57	0	838860800	55	5914
2026-01-22 00:53:35.88	244.23	20.37	-41.8	-45.6	12.4	4.55e-04	0	58	0	846200832	55	5470
2026-01-22 00:53:39.92	243.67	19.92	-41.3	-44.6	13.4	1.14e-05	0	58	0	853540864	54	5179
2026-01-22 00:53:43.96	243.12	19.48	-42.0	-45.9	12.0	1.22e-04	0	58	0	860880896	54	6029
2026-01-22 00:53:47.99	242.59	19.05	-43.1	-48.4	9.6	6.37e-03	0	58	0	869269504	56	7137
2026-01-22 00:53:52.03	242.08	18.62	-43.4	-49.2	8.8	4.49e-02	0	57	0	876609536	57	7403
2026-01-22 00:53:56.07	241.58	18.19	-42.8	-47.7	10.3	5.78e-03	0	58	0	883949568	57	6207
2026-01-22 00:54:00.10	241.10	17.77	-42.4	-46.7	11.3	1.07e-03	0	58	0	891289600	56	5916
2026-01-22 00:54:04.14	240.63	17.36	-42.9	-47.9	10.0	5.77e-03	0	58	0	898629632	56	6753
2026-01-22 00:54:08.18	240.17	16.94	-42.9	-47.9	10.0	1.03e-02	0	58	0	907018240	56	6793
2026-01-22 00:54:12.22	239.72	16.54	-42.4	-46.7	11.2	1.31e-03	0	58	0	914358272	56	5906
2026-01-22 00:54:16.26	239.29	16.14	-42.4	-46.8	11.1	1.15e-03	0	58	0	921698304	56	5961
2026-01-22 00:54:20.30	238.86	15.74	-42.6	-47.4	10.5	3.18e-03	0	58	0	929038336	56	6372
2026-01-22 00:54:24.34	238.45	15.35	-42.6	-47.4	10.6	3.48e-03	0	58	0	937426944	56	6366
2026-01-22 00:54:28.37	238.05	14.97	-42.8	-47.7	10.1	6.11e-03	0	58	0	944766976	56	6637
2026-01-22 00:54:32.41	237.66	14.59	-42.7	-47.6	10.3	5.44e-03	0	58	0	952107008	56	6537
2026-01-22 00:54:36.45	237.28	14.21	-42.4	-47.0	10.9	2.40e-03	0	58	0	959447040	56	6071
2026-01-22 00:54:40.49	236.91	13.84	-42.3	-46.7	11.1	1.31e-03	0	57	0	966787072	56	5905
2026-01-22 00:54:44.53	236.55	13.47	-42.8	-47.9	9.9	7.66e-03	0	58	0	975175680	56	6741
2026-01-22 00:54:48.56	236.20	13.11	-43.2	-49.2	8.6	4.60e-02	0	58	0	982515712	57	7397
2026-01-22 00:54:52.60	235.86	12.75	-43.2	-49.3	8.3	4.90e-02	0	58	0	989855744	57	7492
2026-01-22 00:54:56.64	235.52	12.39	-42.8	-48.2	9.5	1.76e-02	0	58	0	997195776	57	6574
2026-01-22 00:55:00.68	235.19	12.04	-42.5	-47.4	10.2	5.80e-03	0	58	0	1005584384	57	6041
2026-01-22 00:55:04.72	234.87	11.69	-42.4	-47.1	10.6	3.09e-03	0	58	0	1012924416	56	6177
2026-01-22 00:55:08.75	234.56	11.35	-42.3	-46.9	10.7	2.96e-03	0	58	0	1020264448	56	6053
2026-01-22 00:55:12.79	234.26	11.01	-42.4	-47.1	10.5	3.76e-03	0	58	0	1027604480	56	6185
2026-01-22 00:55:16.83	233.96	10.68	-42.5	-47.4	10.3	4.85e-03	0	58	0	1034944512	56	6371
2026-01-22 00:55:20.86	233.67	10.35	-42.5	-47.5	10.1	6.33e-03	0	58	0	1043333120	56	6487
2026-01-22 00:55:24.90	233.39	10.02	-42.6	-47.7	9.7	1.02e-02	0	58	0	1050673152	56	6607
2026-01-22 00:55:28.94	233.11	9.70	-42.7	-48.1	9.3	1.79e-02	0	58	0	1058013184	56	6949
2026-01-22 00:55:32.98	232.84	9.38	-42.7	-48.2	9.3	2.01e-02	0	58	0	1065353216	56	6964
2026-01-22 00:55:37.02	232.58	9.06	-42.7	-48.4	9.1	2.59e-02	0	58	0	1073741824	56	7139
2026-01-22 00:55:41.06	232.32	8.75	-42.9	-49.0	8.4	3.63e-02	0	58	0	1081081856	56	7672
2026-01-22 00:55:45.09	232.07	8.44	-43.1	-49.6	7.8	6.93e-02	0	58	0	1088421888	56	8232
2026-01-22 00:55:49.13	231.82	8.13	-43.1	-49.8	7.5	8.50e-02	0	58	0	1095761920	56	8417
2026-01-22 00:55:53.17	231.58	7.82	-44.9	-59.6	3.8	1.49e+00	0	58	104	1098907648	60	20618
2026-01-22 00:55:57.21	231.34	7.52	-45.3	-59.9	3.8	1.49e+00	0	58	104	1098907648	61	20211
2026-01-22 00:56:01.25	231.11	7.23	-45.3	-59.9	3.8	1.49e+00	0	58	104	1098907648	61	20241
2026-01-22 00:56:05.29	230.88	6.93	-45.2	-59.8	3.8	1.49e+00	0	58	104	1098907648	61	19971
2026-01-22 00:56:09.33	230.66	6.64	-45.2	-59.8	3.8	1.49e+00	0	58	104	1098907648	61	20019
2026-01-22 00:56:13.37	230.44	6.35	-45.2	-59.8	3.8	1.49e+00	0	58	104	1098907648	61	19950
2026-01-22 00:56:17.42	230.23	6.06	-45.2	-59.8	3.8	1.49e+00	0	58	104	1098907648	61	19914
2026-01-22 00:56:21.46	230.02	5.78	-45.2	-59.8	3.8	1.49e+00	0	58	104	1098907648	61	19888
2026-01-22 00:56:25.50	229.81	5.50	-45.2	-59.8	3.8	1.49e+00	0	58	104	1098907648	61	19862
2026-01-22 00:56:29.54	229.61	5.22	-45.2	-59.8	3.8	1.49e+00	0	58	104	1098907648	61	19874
2026-01-22 00:56:33.59	229.41	4.95	-45.2	-59.8	3.8	1.49e+00	0	58	104	1098907648	61	19895
2026-01-22 00:56:37.63	229.22	4.67	-45.2	-59.7	3.8	1.49e+00	0	58	104	1098907648	61	19835
2026-01-22 00:56:41.67	229.03	4.40	-45.2	-59.8	3.8	1.49e+00	0	58	104	1098907648	61	19849
2026-01-22 00:56:45.71	228.85	4.14	-45.2	-59.7	3.8	1.49e+00	0	58	104	1098907648	61	19804
2026-01-22 00:56:49.75	228.66	3.87	-45.1	-59.8	3.8	1.49e+00	0	58	104	1098907648	61	19848
2026-01-22 00:56:53.79	228.48	3.61	-45.1	-59.7	3.8	1.49e+00	0	58	104	1098907648	61	19723
2026-01-22 00:56:57.84	228.31	3.34	-45.1	-59.7	3.8	1.49e+00	0	58	104	1098907648	61	19751
2026-01-22 00:57:01.88	228.14	3.09	-45.1	-59.7	3.8	1.49e+00	0	58	104	1098907648	61	19669
2026-01-22 00:57:05.92	227.97	2.83	-45.1	-59.7	3.8	1.49e+00	0	58	104	1098907648	61	19709
2026-01-22 00:57:09.96	227.80	2.57	-45.1	-59.6	3.8	1.49e+00	0	58	104	1098907648	61	19598
2026-01-22 00:57:14.01	227.64	2.32	-45.1	-59.7	3.8	1.49e+00	0	58	104	1098907648	61	19638
2026-01-22 00:57:18.05	227.48	2.07	-45.1	-59.6	3.8	1.49e+00	0	58	104	1098907648	61	19572

#Closed at: 2026-01-22 00:57:21
#Recorded file [1098 MB]: D:/lorett/data/31039_260122_034333.dat