passes_logs/2026/01/22/R2.0S_Moscow/R2.0S_Moscow__20260122_010415_NOAA_20_JPSS-1_rec.log

#Pass ID: 20260122_010415_NOAA 20 (JPSS-1)
#Satellite: NOAA 20 (JPSS-1)
#Configuration: NOAA 20
#almurnet v.1.7.20251203
#Start time: 2026-01-22 01:04:15

#Version: 2.2.20231116
#Station: R2.0S_Moscow
#Location: 37.707566 lon 55.798166 lat
#TLE: 1 43013U 17073A   26021.46221703  .00000173  00000+0  10299-3 0  9999
#TLE: 2 43013  98.7644 322.3335 0001238  29.7597 330.3649 14.19538314423652

#Time	Az	El	Level	Level2	SNR	BER	BlckErr	Temp	State	Recorded	gain1	gain2
2026-01-22 01:04:15.17	11.05	2.00	-40.0	-54.6	3.8	1.49e+00	0	49	0	0	52	18371
2026-01-22 01:04:19.20	10.84	2.24	-40.1	-54.7	3.8	1.49e+00	0	49	104	0	51	19628
2026-01-22 01:04:23.24	10.61	2.48	-40.1	-54.6	3.8	1.49e+00	0	50	104	0	51	19608
2026-01-22 01:04:27.29	10.38	2.72	-40.0	-54.6	3.8	1.49e+00	0	50	104	0	51	19551
2026-01-22 01:04:31.33	10.15	2.96	-40.1	-54.6	3.8	1.49e+00	0	50	104	0	51	19552
2026-01-22 01:04:35.37	9.92	3.21	-40.0	-54.6	3.8	1.49e+00	0	50	104	0	51	19514
2026-01-22 01:04:39.41	9.68	3.45	-40.0	-54.6	3.8	1.49e+00	0	50	104	0	51	19549
2026-01-22 01:04:43.45	9.43	3.70	-40.0	-54.6	3.8	1.49e+00	0	51	104	0	51	19548
2026-01-22 01:04:47.49	9.18	3.95	-40.0	-54.6	3.8	1.49e+00	0	51	104	0	51	19550
2026-01-22 01:04:51.53	8.93	4.20	-40.0	-54.6	3.8	1.49e+00	0	51	104	0	51	19551
2026-01-22 01:04:55.57	8.67	4.45	-40.0	-54.6	3.8	1.49e+00	0	51	104	0	51	19527
2026-01-22 01:04:59.62	8.41	4.71	-40.0	-54.6	3.8	1.49e+00	0	51	104	0	51	19534
2026-01-22 01:05:03.66	8.14	4.96	-40.0	-54.6	3.8	1.49e+00	0	52	104	0	51	19527
2026-01-22 01:05:07.70	7.87	5.22	-40.0	-54.6	3.8	1.49e+00	0	52	104	0	51	19487
2026-01-22 01:05:11.74	7.59	5.48	-40.0	-54.6	3.8	1.49e+00	0	52	104	0	51	19557
2026-01-22 01:05:15.79	7.30	5.74	-40.0	-54.6	3.8	1.49e+00	0	52	104	0	51	19481
2026-01-22 01:05:19.83	7.01	6.00	-40.0	-54.6	3.8	1.49e+00	0	53	104	0	51	19472
2026-01-22 01:05:23.87	6.72	6.27	-40.0	-54.6	3.8	1.49e+00	0	53	104	0	51	19467
2026-01-22 01:05:27.91	6.42	6.54	-40.0	-54.6	3.8	1.49e+00	0	53	104	0	51	19438
2026-01-22 01:05:31.95	6.11	6.81	-40.0	-54.6	3.8	1.49e+00	0	53	104	0	51	19427
2026-01-22 01:05:36.00	5.80	7.08	-40.0	-54.6	3.8	1.49e+00	0	53	104	0	51	19494
2026-01-22 01:05:40.04	5.48	7.35	-40.0	-54.6	3.8	1.49e+00	0	53	104	0	51	19478
2026-01-22 01:05:44.08	5.16	7.63	-40.0	-54.6	3.8	1.49e+00	0	54	104	0	51	19506
2026-01-22 01:05:48.12	4.83	7.91	-40.0	-54.6	3.8	1.49e+00	0	54	104	0	51	19453
2026-01-22 01:05:52.16	4.49	8.19	-40.1	-54.7	3.8	1.49e+00	0	54	104	0	51	19769
2026-01-22 01:05:56.20	4.14	8.47	-40.2	-54.8	3.8	1.49e+00	0	54	104	0	51	19877
2026-01-22 01:06:00.24	3.79	8.75	-40.2	-54.8	3.8	1.49e+00	0	54	104	0	51	20003
2026-01-22 01:06:04.28	3.43	9.04	-40.3	-54.9	3.8	1.49e+00	0	54	104	0	51	20090
2026-01-22 01:06:08.31	3.07	9.33	-40.3	-54.9	3.8	1.49e+00	0	54	104	0	51	20082
2026-01-22 01:06:12.35	2.69	9.62	-40.3	-54.8	3.8	1.49e+00	0	54	104	0	51	20010
2026-01-22 01:06:16.39	2.31	9.91	-40.3	-54.8	3.8	1.49e+00	0	54	104	0	51	20025
2026-01-22 01:06:20.42	1.92	10.20	-40.3	-54.8	3.8	1.49e+00	0	54	104	0	51	20047
2026-01-22 01:06:24.46	1.53	10.50	-40.3	-54.9	3.8	1.49e+00	0	55	104	0	51	20117
2026-01-22 01:06:28.50	1.12	10.80	-40.3	-54.9	3.8	1.49e+00	0	55	104	0	51	20187
2026-01-22 01:06:32.54	0.70	11.10	-40.3	-54.9	3.8	1.49e+00	0	55	104	0	52	19023
2026-01-22 01:06:36.57	0.28	11.41	-40.1	-54.7	3.8	1.49e+00	0	55	104	0	52	18647
2026-01-22 01:06:40.61	359.85	11.71	-40.6	-55.2	3.8	1.49e+00	0	55	104	0	52	19615
2026-01-22 01:06:44.65	359.40	12.02	-40.2	-54.8	3.8	1.49e+00	0	55	104	0	52	18861
2026-01-22 01:06:48.68	358.95	12.33	-41.0	-55.5	3.8	1.49e+00	0	55	104	0	52	20435
2026-01-22 01:06:52.72	358.49	12.64	-40.6	-55.2	3.8	1.49e+00	0	55	104	0	52	19709
2026-01-22 01:06:56.76	358.02	12.96	-41.6	-52.5	4.0	1.49e+00	0	55	104	0	53	13632
2026-01-22 01:07:00.80	357.53	13.27	-41.3	-48.0	7.5	1.40e-01	0	55	0	2097152	54	7681
2026-01-22 01:07:04.84	357.04	13.59	-41.3	-48.2	7.2	1.16e-01	0	56	0	10485760	54	7899
2026-01-22 01:07:08.88	356.53	13.91	-41.2	-47.9	7.4	9.49e-02	0	56	0	17825792	54	7627
2026-01-22 01:07:12.92	356.02	14.24	-41.4	-51.1	4.8	6.11e-01	0	56	0	25165824	54	11027
2026-01-22 01:07:16.96	355.49	14.56	-41.9	-55.1	3.9	1.49e+00	0	56	104	26214400	54	17456
2026-01-22 01:07:20.99	354.95	14.89	-41.1	-55.5	3.8	1.49e+00	0	56	104	26214400	54	18143
2026-01-22 01:07:25.03	354.39	15.21	-40.7	-55.3	3.8	1.49e+00	0	56	104	26214400	53	18834
2026-01-22 01:07:29.07	353.83	15.54	-40.8	-55.3	3.8	1.49e+00	0	56	104	26214400	53	18867
2026-01-22 01:07:33.11	353.25	15.87	-40.9	-55.4	3.8	1.49e+00	0	56	104	26214400	53	19103
2026-01-22 01:07:37.15	352.66	16.21	-40.9	-55.4	3.8	1.49e+00	0	56	104	26214400	53	19068
2026-01-22 01:07:41.18	352.06	16.54	-40.9	-55.4	3.8	1.49e+00	0	56	104	26214400	53	19093
2026-01-22 01:07:45.22	351.44	16.88	-41.1	-55.6	3.8	1.49e+00	0	56	104	26214400	53	19567
2026-01-22 01:07:49.26	350.80	17.21	-41.2	-55.7	3.8	1.49e+00	0	56	104	26214400	53	19681
2026-01-22 01:07:53.30	350.15	17.55	-41.0	-55.5	3.8	1.49e+00	0	56	104	26214400	53	19371
2026-01-22 01:07:57.34	349.49	17.89	-41.0	-55.6	3.8	1.49e+00	0	57	104	26214400	53	19476
2026-01-22 01:08:01.38	348.81	18.23	-41.1	-55.6	3.8	1.49e+00	0	56	104	26214400	53	19541
2026-01-22 01:08:05.41	348.12	18.57	-41.1	-55.7	3.8	1.49e+00	0	56	104	26214400	53	19642
2026-01-22 01:08:09.45	347.41	18.91	-41.2	-55.8	3.8	1.49e+00	0	57	104	26214400	53	19943
2026-01-22 01:08:13.48	346.69	19.24	-41.3	-55.8	3.8	1.49e+00	0	57	104	26214400	53	19984
2026-01-22 01:08:17.52	345.94	19.58	-41.3	-55.8	3.8	1.49e+00	0	57	104	26214400	53	20064
2026-01-22 01:08:21.56	345.18	19.92	-41.3	-55.9	3.8	1.49e+00	0	57	104	26214400	53	20155
2026-01-22 01:08:25.60	344.41	20.26	-41.3	-55.9	3.8	1.49e+00	0	57	104	26214400	54	18953
2026-01-22 01:08:29.64	343.61	20.60	-41.5	-55.0	3.8	1.49e+00	0	57	104	26214400	54	17155
2026-01-22 01:08:33.67	342.80	20.93	-41.9	-51.4	4.9	8.95e-01	0	57	0	28311552	54	11374
2026-01-22 01:08:37.71	341.97	21.26	-42.2	-50.1	6.2	1.49e-01	0	57	0	35651584	55	9205
2026-01-22 01:08:41.75	341.12	21.59	-41.4	-47.0	8.9	1.02e+00	0	57	0	40894464	54	6814
2026-01-22 01:08:45.79	340.26	21.92	-41.4	-46.4	10.0	5.47e-03	0	57	0	49283072	54	6372
2026-01-22 01:08:49.82	339.37	22.25	-41.5	-45.8	11.3	1.65e-03	0	57	0	56623104	54	5966
2026-01-22 01:08:53.85	338.47	22.57	-41.6	-45.5	12.0	3.97e-04	0	57	0	63963136	54	5766
2026-01-22 01:08:57.89	337.55	22.89	-41.7	-45.5	12.2	2.18e-04	0	57	0	71303168	54	5784
2026-01-22 01:09:01.93	336.60	23.20	-41.6	-45.3	12.6	1.15e-04	0	57	0	79691776	54	5608
2026-01-22 01:09:05.97	335.64	23.51	-41.6	-45.1	12.8	7.40e-05	0	57	0	87031808	54	5494
2026-01-22 01:09:10.00	334.66	23.81	-41.7	-45.3	12.7	7.17e-05	0	57	0	94371840	54	5604
2026-01-22 01:09:14.04	333.66	24.11	-41.7	-45.3	12.7	8.39e-05	0	57	0	101711872	54	5613
2026-01-22 01:09:18.08	332.64	24.40	-41.8	-45.5	12.6	1.01e-04	0	57	0	109051904	54	5729
2026-01-22 01:09:22.11	331.60	24.69	-41.7	-45.3	12.7	7.17e-05	0	57	0	117440512	54	5644
2026-01-22 01:09:26.15	330.55	24.96	-41.8	-45.4	12.7	7.62e-05	0	57	0	124780544	54	5707
2026-01-22 01:09:30.18	329.47	25.23	-42.0	-45.8	12.3	1.83e-04	0	57	0	132120576	54	5928
2026-01-22 01:09:34.22	328.38	25.49	-41.9	-45.7	12.4	1.50e-04	0	57	0	139460608	54	5869
2026-01-22 01:09:38.25	327.27	25.74	-41.7	-45.2	12.9	5.03e-05	0	57	0	146800640	54	5563
2026-01-22 01:09:42.29	326.14	25.99	-41.6	-45.0	13.1	3.12e-05	0	57	0	155189248	54	5459
2026-01-22 01:09:46.32	324.99	26.22	-41.7	-45.3	12.9	5.79e-05	0	57	0	162529280	54	5603
2026-01-22 01:09:50.36	323.83	26.44	-41.6	-45.0	13.1	4.34e-05	0	57	0	169869312	54	5441
2026-01-22 01:09:54.40	322.64	26.65	-41.6	-45.1	13.1	2.82e-05	0	57	0	177209344	54	5478
2026-01-22 01:09:58.43	321.45	26.84	-41.7	-45.3	12.9	5.49e-05	0	57	0	185597952	54	5603
2026-01-22 01:10:02.47	320.24	27.03	-41.9	-45.6	12.6	8.77e-05	0	57	0	192937984	54	5790
2026-01-22 01:10:06.51	319.01	27.20	-42.2	-46.3	11.8	3.92e-04	0	57	0	200278016	55	5924
2026-01-22 01:10:10.54	317.78	27.36	-42.2	-46.2	11.8	4.32e-04	0	57	0	207618048	55	5915
2026-01-22 01:10:14.58	316.53	27.50	-42.4	-46.5	11.5	8.92e-04	0	57	0	214958080	55	6125
2026-01-22 01:10:18.62	315.27	27.63	-42.2	-46.1	11.9	3.19e-04	0	57	0	223346688	55	5836
2026-01-22 01:10:22.65	314.00	27.74	-42.4	-46.6	11.5	8.26e-04	0	57	0	230686720	55	6186
2026-01-22 01:10:26.69	312.72	27.84	-42.5	-46.8	11.2	1.30e-03	0	57	0	238026752	55	6331
2026-01-22 01:10:30.73	311.44	27.93	-42.8	-47.4	10.8	2.37e-03	0	57	0	245366784	56	6371
2026-01-22 01:10:34.76	310.15	27.99	-43.0	-47.6	10.5	3.61e-03	0	57	0	252706816	56	6568
2026-01-22 01:10:38.80	308.85	28.05	-42.9	-47.4	10.8	2.61e-03	0	57	0	261095424	56	6407
2026-01-22 01:10:42.84	307.55	28.08	-42.7	-47.1	11.1	1.47e-03	0	57	0	268435456	56	6173
2026-01-22 01:10:46.87	306.25	28.10	-43.0	-47.8	10.4	4.07e-03	0	57	0	275775488	56	6658
2026-01-22 01:10:50.91	304.94	28.10	-42.8	-47.2	11.0	2.05e-03	0	57	0	283115520	56	6250
2026-01-22 01:10:54.94	303.64	28.09	-42.6	-46.9	11.3	1.11e-03	0	57	0	291504128	56	6020
2026-01-22 01:10:58.98	302.34	28.06	-42.5	-46.5	11.8	5.33e-04	0	57	0	298844160	56	5743
2026-01-22 01:11:03.02	301.04	28.01	-42.5	-46.6	11.7	5.78e-04	0	57	0	306184192	56	5811
2026-01-22 01:11:07.05	299.75	27.95	-42.6	-46.8	11.5	6.55e-04	0	57	0	313524224	56	5945
2026-01-22 01:11:11.09	298.46	27.87	-42.3	-46.1	12.2	3.05e-04	0	57	0	320864256	56	5488
2026-01-22 01:11:15.12	297.18	27.77	-42.1	-45.8	12.5	1.01e-04	0	57	0	329252864	56	5326
2026-01-22 01:11:19.16	295.91	27.66	-41.7	-45.3	12.9	5.64e-05	0	57	0	336592896	55	5286
2026-01-22 01:11:23.20	294.64	27.54	-41.7	-45.1	13.0	2.59e-05	0	57	0	343932928	55	5204
2026-01-22 01:11:27.22	293.39	27.40	-41.7	-45.2	13.0	3.73e-05	0	57	0	351272960	55	5251
2026-01-22 01:11:31.26	292.15	27.24	-41.6	-45.1	13.1	4.11e-05	0	57	0	359661568	55	5174
2026-01-22 01:11:35.30	290.92	27.07	-41.5	-44.8	13.3	2.67e-05	0	57	0	367001600	55	5032
2026-01-22 01:11:39.34	289.70	26.89	-41.7	-45.3	12.9	5.41e-05	0	57	0	374341632	55	5280
2026-01-22 01:11:43.37	288.50	26.70	-42.0	-45.8	12.4	1.78e-04	0	57	0	381681664	55	5596
2026-01-22 01:11:47.41	287.32	26.49	-42.0	-45.8	12.3	1.58e-04	0	58	0	389021696	55	5630
2026-01-22 01:11:51.45	286.14	26.27	-42.2	-46.2	11.9	3.74e-04	0	57	0	397410304	55	5885
2026-01-22 01:11:55.49	284.99	26.05	-42.4	-46.7	11.3	1.24e-03	0	57	0	404750336	55	6248
2026-01-22 01:11:59.52	283.85	25.81	-42.3	-46.5	11.5	7.72e-04	0	58	0	412090368	55	6098
2026-01-22 01:12:03.56	282.73	25.56	-42.6	-47.1	10.9	1.55e-03	0	57	0	419430400	55	6536
2026-01-22 01:12:07.59	281.63	25.30	-42.6	-47.2	10.7	2.93e-03	0	57	0	426770432	55	6636
2026-01-22 01:12:11.63	280.54	25.03	-42.4	-46.7	11.3	1.22e-03	0	57	0	435159040	55	6223
2026-01-22 01:12:15.67	279.48	24.75	-42.4	-46.8	11.2	1.33e-03	0	58	0	442499072	55	6301
2026-01-22 01:12:19.71	278.43	24.47	-42.4	-46.8	11.2	1.78e-03	0	57	0	449839104	55	6298
2026-01-22 01:12:23.74	277.40	24.18	-42.3	-46.4	11.6	7.32e-04	0	57	0	457179136	55	6020
2026-01-22 01:12:27.78	276.39	23.88	-42.2	-46.3	11.7	6.19e-04	0	57	0	465567744	55	5972
2026-01-22 01:12:31.82	275.40	23.58	-42.0	-45.9	12.1	2.59e-04	0	58	0	472907776	55	5673
2026-01-22 01:12:35.85	274.44	23.27	-41.9	-45.7	12.3	1.88e-04	0	57	0	480247808	55	5566
2026-01-22 01:12:39.89	273.48	22.96	-41.8	-45.6	12.5	1.46e-04	0	57	0	487587840	55	5471
2026-01-22 01:12:43.93	272.55	22.64	-41.6	-45.0	13.0	4.50e-05	0	57	0	494927872	55	5145
2026-01-22 01:12:47.97	271.64	22.32	-41.6	-45.1	12.9	4.57e-05	0	57	0	503316480	55	5188
2026-01-22 01:12:52.00	270.74	21.99	-41.6	-45.1	12.9	4.73e-05	0	58	0	510656512	55	5209
2026-01-22 01:12:56.04	269.87	21.66	-41.7	-45.3	12.7	9.07e-05	0	57	0	517996544	55	5283
2026-01-22 01:13:00.08	269.01	21.33	-41.5	-45.0	13.0	3.89e-05	0	57	0	525336576	55	5112
2026-01-22 01:13:04.12	268.17	21.00	-41.5	-44.9	13.1	2.59e-05	0	57	0	533725184	54	5355
2026-01-22 01:13:08.16	267.35	20.66	-41.1	-44.3	13.7	5.30e-06	0	57	0	541065216	54	5030
2026-01-22 01:13:12.19	266.55	20.32	-41.1	-44.2	13.8	6.10e-06	0	57	0	548405248	54	4981
2026-01-22 01:13:16.23	265.76	19.98	-41.0	-44.1	13.9	4.50e-06	0	57	0	555745280	54	4912
2026-01-22 01:13:20.27	265.00	19.64	-40.9	-43.9	14.1	0.00e+00	0	57	0	563085312	53	5047
2026-01-22 01:13:24.31	264.25	19.30	-40.9	-44.0	14.0	2.20e-06	0	58	0	571473920	53	5102
2026-01-22 01:13:28.35	263.51	18.96	-40.8	-43.8	14.2	1.50e-06	0	57	0	578813952	53	5000
2026-01-22 01:13:32.39	262.79	18.62	-40.8	-43.8	14.2	3.80e-06	0	57	0	586153984	53	5010
2026-01-22 01:13:36.42	262.09	18.28	-40.9	-44.0	14.0	1.50e-06	0	58	0	593494016	53	5139
2026-01-22 01:13:40.46	261.41	17.94	-41.0	-44.2	13.7	5.30e-06	0	57	0	601882624	53	5264
2026-01-22 01:13:44.50	260.74	17.60	-41.0	-44.2	13.7	7.60e-06	0	58	0	609222656	53	5243
2026-01-22 01:13:48.54	260.08	17.26	-41.1	-44.4	13.5	1.06e-05	0	58	0	616562688	53	5367
2026-01-22 01:13:52.57	259.44	16.93	-41.2	-44.6	13.3	2.28e-05	0	58	0	623902720	53	5479
2026-01-22 01:13:56.61	258.81	16.59	-41.4	-45.0	12.9	5.34e-05	0	57	0	631242752	53	5726
2026-01-22 01:14:00.64	258.20	16.25	-41.6	-45.3	12.5	1.16e-04	0	57	0	639631360	53	5963
2026-01-22 01:14:04.68	257.60	15.92	-41.6	-45.4	12.4	1.27e-04	0	57	0	646971392	53	6015
2026-01-22 01:14:08.71	257.02	15.59	-41.5	-45.1	12.7	8.92e-05	0	57	0	654311424	53	5816
2026-01-22 01:14:12.75	256.45	15.26	-41.6	-45.5	12.3	2.03e-04	0	57	0	661651456	53	6070
2026-01-22 01:14:16.79	255.89	14.93	-41.8	-45.7	12.1	2.51e-04	0	58	0	670040064	54	5866
2026-01-22 01:14:20.83	255.34	14.60	-41.7	-45.6	12.1	2.65e-04	0	57	0	677380096	54	5843
2026-01-22 01:14:24.86	254.80	14.27	-41.9	-46.0	11.7	6.31e-04	0	58	0	684720128	54	6099
2026-01-22 01:14:28.90	254.28	13.95	-41.9	-46.0	11.6	6.59e-04	0	58	0	692060160	54	6111
2026-01-22 01:14:32.93	253.77	13.63	-42.0	-46.2	11.4	8.41e-04	0	58	0	699400192	54	6255
2026-01-22 01:14:36.97	253.27	13.31	-41.9	-46.1	11.6	8.78e-04	0	58	0	707788800	54	6151
2026-01-22 01:14:41.01	252.78	12.99	-42.0	-46.2	11.4	9.52e-04	0	57	0	715128832	54	6244
2026-01-22 01:14:45.04	252.30	12.67	-42.0	-46.3	11.3	1.10e-03	0	58	0	722468864	54	6284
2026-01-22 01:14:49.08	251.83	12.36	-42.0	-46.3	11.3	1.25e-03	0	58	0	729808896	54	6283
2026-01-22 01:14:53.11	251.37	12.05	-42.1	-46.5	11.0	1.68e-03	0	58	0	738197504	54	6478
2026-01-22 01:14:57.15	250.92	11.74	-42.3	-47.1	10.4	4.23e-03	0	58	0	745537536	55	6527
2026-01-22 01:15:01.18	250.48	11.43	-42.4	-47.6	9.8	8.87e-03	0	58	0	752877568	55	6909
2026-01-22 01:15:05.22	250.05	11.12	-42.4	-47.4	10.1	7.30e-03	0	57	0	760217600	55	6728
2026-01-22 01:15:09.26	249.63	10.82	-42.3	-47.3	10.1	6.53e-03	0	58	0	767557632	55	6705
2026-01-22 01:15:13.29	249.22	10.52	-42.5	-47.7	9.6	1.19e-02	0	58	0	775946240	55	7018
2026-01-22 01:15:17.32	248.81	10.22	-42.5	-47.8	9.6	1.29e-02	0	58	0	783286272	55	7046
2026-01-22 01:15:21.36	248.42	9.93	-42.4	-47.8	9.5	1.36e-02	0	58	0	790626304	55	7067
2026-01-22 01:15:25.40	248.03	9.63	-42.4	-47.6	9.7	1.23e-02	0	58	0	797966336	55	6914
2026-01-22 01:15:29.44	247.65	9.34	-42.4	-47.8	9.4	1.40e-02	0	58	0	805306368	55	7107
2026-01-22 01:15:33.47	247.28	9.05	-42.4	-47.9	9.2	1.99e-02	0	58	0	813694976	55	7190
2026-01-22 01:15:37.51	246.91	8.76	-42.5	-48.1	9.1	2.02e-02	0	58	0	821035008	55	7294
2026-01-22 01:15:41.55	246.55	8.48	-42.5	-48.3	8.9	2.39e-02	0	58	0	828375040	55	7485
2026-01-22 01:15:45.58	246.20	8.19	-42.5	-48.2	8.9	2.79e-02	0	58	0	835715072	55	7426
2026-01-22 01:15:49.63	245.86	7.91	-44.6	-59.1	3.8	1.49e+00	0	58	104	842006528	59	20718
2026-01-22 01:15:53.66	245.52	7.63	-45.1	-59.8	3.8	1.49e+00	0	58	104	842006528	60	21175
2026-01-22 01:15:57.71	245.19	7.36	-45.3	-59.9	3.8	1.49e+00	0	58	104	842006528	61	20200
2026-01-22 01:16:01.75	244.87	7.08	-45.2	-59.8	3.8	1.49e+00	0	58	104	842006528	61	19916
2026-01-22 01:16:05.79	244.55	6.81	-45.2	-59.7	3.8	1.49e+00	0	58	104	842006528	61	19838
2026-01-22 01:16:09.83	244.24	6.54	-45.2	-59.7	3.8	1.49e+00	0	58	104	842006528	61	19750
2026-01-22 01:16:13.87	243.93	6.27	-45.2	-59.7	3.8	1.49e+00	0	58	104	842006528	61	19802
2026-01-22 01:16:17.91	243.63	6.00	-45.2	-59.8	3.8	1.49e+00	0	58	104	842006528	61	19875
2026-01-22 01:16:21.96	243.34	5.74	-45.1	-59.7	3.8	1.49e+00	0	58	104	842006528	61	19750
2026-01-22 01:16:26.00	243.05	5.47	-45.1	-59.7	3.8	1.49e+00	0	58	104	842006528	61	19818
2026-01-22 01:16:30.04	242.76	5.21	-45.1	-59.7	3.8	1.49e+00	0	58	104	842006528	61	19774
2026-01-22 01:16:34.08	242.48	4.95	-45.1	-59.7	3.8	1.49e+00	0	58	104	842006528	61	19742
2026-01-22 01:16:38.12	242.21	4.70	-45.1	-59.7	3.8	1.49e+00	0	58	104	842006528	61	19723
2026-01-22 01:16:42.17	241.94	4.44	-45.1	-59.7	3.8	1.49e+00	0	58	104	842006528	61	19788
2026-01-22 01:16:46.21	241.68	4.19	-45.1	-59.7	3.8	1.49e+00	0	58	104	842006528	61	19657
2026-01-22 01:16:50.25	241.42	3.94	-45.1	-59.7	3.8	1.49e+00	0	58	104	842006528	61	19773
2026-01-22 01:16:54.29	241.16	3.69	-45.1	-59.7	3.8	1.49e+00	0	58	104	842006528	61	19715
2026-01-22 01:16:58.33	240.91	3.44	-45.1	-59.7	3.8	1.49e+00	0	58	104	842006528	61	19695
2026-01-22 01:17:02.38	240.67	3.19	-45.1	-59.7	3.8	1.49e+00	0	58	104	842006528	61	19716
2026-01-22 01:17:06.42	240.42	2.95	-45.1	-59.7	3.8	1.49e+00	0	58	104	842006528	61	19740
2026-01-22 01:17:10.46	240.19	2.70	-45.1	-59.7	3.8	1.49e+00	0	58	104	842006528	61	19730
2026-01-22 01:17:14.50	239.95	2.46	-45.1	-59.7	3.8	1.49e+00	0	58	104	842006528	61	19717
2026-01-22 01:17:18.54	239.72	2.22	-45.1	-59.7	3.8	1.49e+00	0	58	104	842006528	61	19757
2026-01-22 01:17:22.58	239.50	1.98	-45.1	-59.7	3.8	1.49e+00	0	58	104	842006528	61	19703

#Closed at: 2026-01-22 01:17:23
#Recorded file [842 MB]: D:/lorett/data/31039_260122_040414.dat