passes_logs/2026/01/22/R2.0S_Moscow/R2.0S_Moscow__20260122_235458_NOAA_21_JPSS-2_rec.log

#Pass ID: 20260122_235458_NOAA 21 (JPSS-2)
#Satellite: NOAA 21 (JPSS-2)
#Configuration: NOAA-21
#almurnet v.1.7.20251203
#Start time: 2026-01-22 23:54:58

#Version: 2.2.20231116
#Station: R2.0S_Moscow
#Location: 37.707566 lon 55.798166 lat
#TLE: 1 54234U 22150A   26022.41365820  .00000211  00000+0  12084-3 0  9990
#TLE: 2 54234  98.7507 323.2240 0000658 234.5287 125.5828 14.19537645165864

#Time	Az	El	Level	Level2	SNR	BER	BlckErr	Temp	State	Recorded	gain1	gain2
2026-01-22 23:54:58.92	15.08	2.05	-43.0	-55.4	3.8	1.49e+00	0	51	0	0	58	14307
2026-01-22 23:55:02.96	15.05	2.31	-43.0	-55.4	3.8	1.49e+00	0	51	104	0	57	15122
2026-01-22 23:55:07.00	15.02	2.57	-43.0	-55.4	3.8	1.49e+00	0	51	104	0	57	15121
2026-01-22 23:55:11.04	14.99	2.83	-43.0	-55.4	3.8	1.49e+00	0	52	104	0	57	15153
2026-01-22 23:55:15.08	14.96	3.10	-43.0	-55.4	3.8	1.49e+00	0	52	104	0	57	15112
2026-01-22 23:55:19.11	14.93	3.37	-43.0	-55.4	3.8	1.49e+00	0	52	104	0	57	15142
2026-01-22 23:55:23.16	14.90	3.64	-43.0	-55.4	3.8	1.49e+00	0	53	104	0	57	15117
2026-01-22 23:55:27.20	14.86	3.91	-43.0	-55.4	3.8	1.49e+00	0	53	104	0	57	15112
2026-01-22 23:55:31.24	14.83	4.19	-43.0	-55.4	3.8	1.49e+00	0	53	104	0	57	15082
2026-01-22 23:55:35.27	14.79	4.47	-43.0	-55.4	3.8	1.49e+00	0	53	104	0	57	15074
2026-01-22 23:55:39.32	14.76	4.75	-43.0	-55.4	3.8	1.49e+00	0	54	104	0	57	15069
2026-01-22 23:55:43.36	14.72	5.04	-43.0	-55.2	3.8	1.49e+00	0	54	104	0	57	14790
2026-01-22 23:55:47.40	14.68	5.32	-43.0	-55.1	3.8	1.49e+00	0	54	104	0	57	14585
2026-01-22 23:55:51.44	14.64	5.62	-43.0	-54.9	3.8	1.49e+00	0	54	104	0	57	14329
2026-01-22 23:55:55.48	14.60	5.91	-43.0	-55.1	3.8	1.49e+00	0	55	104	0	57	14587
2026-01-22 23:55:59.52	14.56	6.21	-43.0	-55.3	3.8	1.49e+00	0	55	104	0	57	14940
2026-01-22 23:56:03.56	14.51	6.51	-42.9	-54.3	3.8	1.49e+00	0	55	104	0	57	13352
2026-01-22 23:56:07.60	14.47	6.82	-42.5	-50.9	4.5	1.43e+00	2	55	104	0	57	9043
2026-01-22 23:56:11.64	14.42	7.12	-41.2	-46.4	7.5	1.21e-01	0	55	0	8388608	54	6357
2026-01-22 23:56:15.68	14.38	7.44	-40.1	-43.7	10.2	5.89e-03	0	55	0	20971520	52	5274
2026-01-22 23:56:19.73	14.33	7.75	-40.2	-44.0	9.9	9.44e-03	0	56	0	33554432	52	5431
2026-01-22 23:56:23.76	14.28	8.07	-40.8	-44.9	9.1	2.72e-02	0	56	0	46137344	52	6011
2026-01-22 23:56:27.80	14.22	8.40	-42.4	-52.9	3.8	4.44e-02	0	56	104	58720256	55	12682
2026-01-22 23:56:31.84	14.17	8.73	-40.4	-43.9	10.4	4.30e-03	0	56	0	68157440	52	5378
2026-01-22 23:56:35.88	14.12	9.06	-40.3	-43.7	10.8	2.41e-03	0	56	0	80740352	52	5241
2026-01-22 23:56:39.92	14.06	9.40	-40.4	-43.7	10.7	2.69e-03	0	56	0	93323264	52	5279
2026-01-22 23:56:43.95	14.00	9.74	-40.3	-43.5	11.0	1.88e-03	0	57	0	105906176	52	5151
2026-01-22 23:56:47.99	13.94	10.09	-40.3	-43.5	11.1	1.76e-03	0	57	0	118489088	52	5142
2026-01-22 23:56:52.03	13.88	10.44	-40.2	-43.3	11.4	1.05e-03	0	57	0	131072000	52	4998
2026-01-22 23:56:56.07	13.81	10.79	-40.1	-43.2	11.5	7.31e-04	0	57	0	143654912	52	4938
2026-01-22 23:57:00.11	13.75	11.16	-40.1	-43.1	11.7	5.70e-04	0	57	0	156237824	52	4901
2026-01-22 23:57:04.15	13.68	11.52	-40.1	-43.1	11.6	6.24e-04	0	57	0	168820736	52	4918
2026-01-22 23:57:08.19	13.61	11.90	-40.0	-42.9	11.9	4.22e-04	0	57	0	181403648	52	4809
2026-01-22 23:57:12.23	13.54	12.28	-40.1	-42.9	12.0	2.59e-04	0	57	0	193986560	51	5077
2026-01-22 23:57:16.27	13.46	12.66	-40.0	-42.8	12.2	2.55e-04	0	57	0	206569472	51	5040
2026-01-22 23:57:20.31	13.39	13.05	-40.1	-42.8	12.3	1.98e-04	0	57	0	219152384	51	5026
2026-01-22 23:57:24.35	13.31	13.45	-40.0	-42.7	12.5	1.19e-04	0	57	0	231735296	51	4948
2026-01-22 23:57:28.39	13.22	13.85	-40.0	-42.6	12.6	8.77e-05	0	58	0	244318208	51	4900
2026-01-22 23:57:32.44	13.14	14.26	-39.8	-42.4	12.9	6.71e-05	0	58	0	256901120	51	4787
2026-01-22 23:57:36.47	13.05	14.68	-39.9	-42.5	12.9	4.95e-05	0	58	0	269484032	51	4817
2026-01-22 23:57:40.51	12.96	15.10	-39.9	-42.4	13.0	4.11e-05	0	58	0	282066944	51	4772
2026-01-22 23:57:44.55	12.86	15.54	-40.0	-42.5	13.0	3.58e-05	0	58	0	295698432	51	4844
2026-01-22 23:57:48.60	12.77	15.98	-40.1	-42.6	12.9	4.04e-05	0	58	0	308281344	51	4911
2026-01-22 23:57:52.63	12.67	16.42	-40.2	-42.7	12.9	5.11e-05	0	58	0	320864256	51	4977
2026-01-22 23:57:56.67	12.56	16.88	-40.1	-42.6	13.0	5.18e-05	0	58	0	333447168	51	4918
2026-01-22 23:58:00.71	12.45	17.34	-40.3	-42.8	12.8	6.02e-05	0	58	0	346030080	51	5021
2026-01-22 23:58:04.75	12.34	17.82	-40.3	-42.9	12.9	5.95e-05	0	58	0	358612992	51	5051
2026-01-22 23:58:08.79	12.23	18.30	-40.3	-42.8	12.9	6.17e-05	0	58	0	371195904	51	5026
2026-01-22 23:58:12.83	12.10	18.79	-40.4	-42.9	12.8	4.34e-05	0	59	0	383778816	51	5092
2026-01-22 23:58:16.86	11.98	19.29	-40.3	-42.9	12.9	4.80e-05	0	59	0	396361728	51	5065
2026-01-22 23:58:20.90	11.85	19.80	-40.2	-42.7	13.1	2.89e-05	0	59	0	408944640	51	4945
2026-01-22 23:58:24.94	11.72	20.33	-40.0	-42.4	13.4	1.06e-05	0	59	0	421527552	51	4784
2026-01-22 23:58:28.99	11.58	20.86	-39.8	-42.1	13.7	8.30e-06	0	59	0	434110464	51	4634
2026-01-22 23:58:33.02	11.43	21.41	-39.7	-42.0	13.9	7.60e-06	0	59	0	446693376	51	4546
2026-01-22 23:58:37.06	11.28	21.96	-39.6	-41.8	14.1	2.20e-06	0	59	0	459276288	51	4455
2026-01-22 23:58:41.11	11.12	22.53	-39.3	-41.3	14.6	0.00e+00	0	59	0	471859200	50	4467
2026-01-22 23:58:45.15	10.96	23.11	-39.2	-41.3	14.6	7.00e-07	0	59	0	484442112	50	4446
2026-01-22 23:58:49.19	10.79	23.71	-39.1	-41.0	14.9	0.00e+00	0	59	0	497025024	50	4327
2026-01-22 23:58:53.22	10.61	24.32	-39.1	-41.1	14.9	7.00e-07	0	59	0	509607936	50	4342
2026-01-22 23:58:57.26	10.42	24.94	-39.3	-41.3	14.7	0.00e+00	0	59	0	522190848	50	4473
2026-01-22 23:59:01.30	10.23	25.58	-39.5	-41.6	14.4	0.00e+00	0	59	0	534773760	50	4630
2026-01-22 23:59:05.34	10.03	26.23	-39.9	-42.1	13.9	7.00e-07	0	59	0	547356672	50	4909
2026-01-22 23:59:09.38	9.81	26.90	-40.3	-42.7	13.3	1.52e-05	0	59	0	559939584	51	4947
2026-01-22 23:59:13.42	9.59	27.58	-40.7	-43.3	12.7	6.40e-05	0	59	0	572522496	51	5306
2026-01-22 23:59:17.46	9.36	28.29	-40.8	-43.5	12.4	1.41e-04	0	59	0	585105408	52	5159
2026-01-22 23:59:21.50	9.12	29.01	-40.7	-43.3	12.6	9.76e-05	0	59	0	597688320	52	5036
2026-01-22 23:59:25.54	8.86	29.75	-40.4	-42.9	13.0	4.65e-05	0	59	0	611319808	52	4802
2026-01-22 23:59:29.58	8.59	30.50	-40.1	-42.4	13.6	6.10e-06	0	59	0	623902720	52	4518
2026-01-22 23:59:33.62	8.31	31.28	-39.8	-41.9	14.1	7.00e-07	0	59	0	636485632	51	4525
2026-01-22 23:59:37.65	8.01	32.07	-39.7	-41.8	14.3	7.00e-07	0	59	0	649068544	51	4462
2026-01-22 23:59:41.69	7.70	32.89	-40.0	-42.2	13.9	3.80e-06	0	60	0	661651456	51	4672
2026-01-22 23:59:45.73	7.37	33.73	-40.3	-42.7	13.5	1.29e-05	0	59	0	674234368	51	4927
2026-01-22 23:59:49.77	7.02	34.60	-40.8	-43.4	12.7	7.32e-05	0	59	0	686817280	52	5061
2026-01-22 23:59:53.81	6.65	35.48	-41.1	-43.9	12.1	2.29e-04	0	59	0	699400192	52	5347
2026-01-22 23:59:57.85	6.26	36.39	-41.2	-44.2	11.8	4.55e-04	0	60	0	711983104	53	5223
2026-01-23 00:00:01.89	5.85	37.32	-41.4	-44.3	11.7	5.90e-04	0	60	0	724566016	53	5330
2026-01-23 00:00:05.93	5.41	38.28	-41.3	-44.2	11.8	4.74e-04	0	59	0	737148928	53	5269
2026-01-23 00:00:09.97	4.94	39.27	-41.2	-44.0	12.1	3.13e-04	0	59	0	749731840	53	5107
2026-01-23 00:00:14.01	4.44	40.28	-41.4	-44.3	11.6	5.58e-04	0	60	0	762314752	53	5328
2026-01-23 00:00:18.05	3.91	41.32	-41.6	-44.8	11.2	1.33e-03	0	60	0	774897664	53	5603
2026-01-23 00:00:22.09	3.35	42.39	-41.8	-45.1	10.9	2.35e-03	0	60	0	787480576	54	5521
2026-01-23 00:00:26.13	2.74	43.48	-42.0	-45.4	10.6	3.69e-03	0	60	0	800063488	54	5695
2026-01-23 00:00:30.17	2.08	44.61	-42.0	-45.4	10.7	3.11e-03	0	60	0	812646400	54	5657
2026-01-23 00:00:34.21	1.38	45.76	-42.0	-45.4	10.7	3.10e-03	0	59	0	825229312	54	5662
2026-01-23 00:00:38.25	0.62	46.94	-41.4	-44.4	11.7	7.62e-04	0	60	0	837812224	54	5073
2026-01-23 00:00:42.28	359.81	48.14	-41.4	-44.4	11.6	5.69e-04	0	60	0	850395136	54	5050
2026-01-23 00:00:46.32	358.92	49.38	-41.2	-44.0	12.0	3.84e-04	0	60	0	862978048	54	4852
2026-01-23 00:00:50.37	357.95	50.64	-41.4	-44.4	11.6	6.70e-04	0	60	0	875560960	54	5085
2026-01-23 00:00:54.41	356.90	51.93	-41.1	-43.9	12.1	2.93e-04	0	60	0	888143872	54	4806
2026-01-23 00:00:58.44	355.76	53.24	-40.9	-43.6	12.5	1.14e-04	0	60	0	900726784	53	4889
2026-01-23 00:01:02.48	354.50	54.57	-40.0	-42.3	13.8	1.50e-06	0	60	0	913309696	52	4449
2026-01-23 00:01:06.52	353.12	55.92	-40.0	-42.2	13.9	4.50e-06	0	60	0	925892608	51	4694
2026-01-23 00:01:10.56	351.59	57.29	-39.7	-41.8	14.3	1.50e-06	0	60	0	938475520	51	4457
2026-01-23 00:01:14.59	349.91	58.67	-39.7	-41.8	14.4	7.00e-07	0	60	0	952107008	51	4454
2026-01-23 00:01:18.63	348.03	60.06	-39.7	-41.8	14.4	0.00e+00	0	60	0	964689920	51	4461
2026-01-23 00:01:22.67	345.93	61.44	-39.1	-41.0	15.2	0.00e+00	0	60	0	977272832	50	4329
2026-01-23 00:01:26.71	343.59	62.82	-39.3	-41.2	14.9	0.00e+00	0	60	0	989855744	50	4425
2026-01-23 00:01:30.75	340.96	64.18	-39.1	-41.0	15.1	0.00e+00	0	60	0	1002438656	50	4331
2026-01-23 00:01:34.79	338.01	65.51	-38.7	-40.5	15.6	0.00e+00	0	60	0	1015021568	49	4300
2026-01-23 00:01:38.82	334.69	66.79	-38.7	-40.4	15.6	0.00e+00	0	60	0	1027604480	49	4287
2026-01-23 00:01:42.86	330.94	68.02	-39.2	-41.2	14.9	0.00e+00	0	60	0	1040187392	49	4654
2026-01-23 00:01:46.90	326.73	69.16	-38.9	-40.8	15.2	0.00e+00	0	60	0	1052770304	49	4458
2026-01-23 00:01:50.94	322.01	70.19	-39.0	-40.9	15.1	0.00e+00	0	60	0	1065353216	49	4497
2026-01-23 00:01:54.97	316.78	71.09	-39.0	-41.0	15.0	0.00e+00	0	60	0	1077936128	49	4548
2026-01-23 00:01:59.01	311.03	71.84	-38.9	-40.8	15.2	0.00e+00	0	60	0	1090519040	49	4451
2026-01-23 00:02:03.05	304.82	72.41	-39.2	-41.2	14.8	0.00e+00	0	60	0	1103101952	49	4661
2026-01-23 00:02:07.09	298.25	72.76	-38.8	-40.6	15.4	0.00e+00	0	60	0	1115684864	49	4359
2026-01-23 00:02:11.13	291.49	72.89	-39.5	-41.6	14.4	1.50e-06	0	60	0	1128267776	49	4899
2026-01-23 00:02:15.17	284.71	72.80	-38.8	-40.6	15.3	0.00e+00	0	60	0	1140850688	49	4361
2026-01-23 00:02:19.21	278.10	72.48	-38.7	-40.5	15.4	0.00e+00	0	60	0	1153433600	49	4327
2026-01-23 00:02:23.24	271.84	71.95	-38.8	-40.7	15.1	0.00e+00	0	60	0	1166016512	48	4666
2026-01-23 00:02:27.28	266.00	71.23	-38.7	-40.5	15.4	0.00e+00	0	60	0	1178599424	48	4546
2026-01-23 00:02:31.32	260.67	70.35	-38.9	-40.7	15.2	0.00e+00	0	60	0	1191182336	48	4703
2026-01-23 00:02:35.37	255.85	69.32	-38.8	-40.6	15.4	0.00e+00	0	60	0	1203765248	48	4646
2026-01-23 00:02:39.40	251.56	68.20	-38.7	-40.5	15.3	0.00e+00	0	60	0	1216348160	49	4334
2026-01-23 00:02:43.44	247.73	66.99	-39.7	-41.8	14.1	5.30e-06	0	60	0	1228931072	49	5023
2026-01-23 00:02:47.48	244.34	65.71	-39.2	-41.1	14.9	0.00e+00	0	60	0	1241513984	48	4924
2026-01-23 00:02:51.53	241.31	64.38	-38.8	-40.6	15.3	0.00e+00	0	60	0	1254096896	49	4365
2026-01-23 00:02:55.57	238.64	63.02	-40.1	-42.4	13.7	3.00e-06	0	60	0	1266679808	50	5078
2026-01-23 00:02:59.61	236.25	61.64	-38.6	-40.3	15.8	0.00e+00	0	60	0	1279262720	48	4464
2026-01-23 00:03:03.65	234.11	60.25	-39.9	-42.0	14.1	1.50e-06	0	60	0	1292894208	50	4857
2026-01-23 00:03:07.69	232.20	58.86	-38.7	-40.4	15.7	0.00e+00	0	60	0	1305477120	49	4257
2026-01-23 00:03:11.73	230.48	57.47	-40.1	-42.3	13.7	2.20e-06	0	60	0	1318060032	51	4742
2026-01-23 00:03:15.77	228.93	56.09	-39.4	-41.3	14.8	0.00e+00	0	60	0	1330642944	50	4479
2026-01-23 00:03:19.81	227.52	54.73	-40.9	-43.5	12.5	8.69e-05	0	60	0	1343225856	52	5152
2026-01-23 00:03:23.84	226.25	53.39	-40.7	-43.5	12.3	8.44e-03	0	60	0	1355808768	52	5140
2026-01-23 00:03:27.88	225.08	52.07	-40.1	-42.6	13.2	8.13e-03	0	60	0	1368391680	52	4616
2026-01-23 00:03:31.92	224.02	50.78	-41.2	-44.3	11.5	8.85e-03	0	60	0	1380974592	52	5608
2026-01-23 00:03:35.96	223.04	49.51	-40.6	-43.1	12.9	6.10e-05	0	60	0	1393557504	52	4920
2026-01-23 00:03:40.00	222.14	48.26	-41.4	-44.3	11.6	5.86e-04	0	60	0	1406140416	53	5311
2026-01-23 00:03:44.04	221.31	47.05	-42.2	-45.9	10.1	5.49e-03	0	61	0	1418723328	54	6011
2026-01-23 00:03:48.08	220.54	45.86	-41.2	-44.1	11.8	5.23e-04	0	60	0	1431306240	54	4897
2026-01-23 00:03:52.12	219.83	44.70	-41.4	-44.3	11.6	4.15e-04	0	60	0	1443889152	53	5331
2026-01-23 00:03:56.15	219.17	43.57	-42.3	-46.1	9.8	1.13e-02	0	60	0	1456472064	55	5821
2026-01-23 00:04:00.19	218.55	42.47	-41.7	-44.9	11.0	2.07e-03	0	60	0	1469054976	55	5093
2026-01-23 00:04:04.23	217.97	41.39	-40.6	-43.1	12.8	1.50e-04	0	61	0	1481637888	53	4634
2026-01-23 00:04:08.27	217.44	40.34	-40.7	-43.3	12.7	5.49e-05	0	61	0	1494220800	52	5017
2026-01-23 00:04:12.31	216.93	39.32	-42.1	-45.7	10.2	4.82e-03	0	60	0	1506803712	54	5881
2026-01-23 00:04:16.35	216.46	38.33	-41.7	-44.9	11.0	2.16e-03	0	60	0	1519386624	54	5396
2026-01-23 00:04:20.39	216.01	37.36	-40.9	-43.6	12.4	2.02e-04	0	61	0	1531969536	53	4895
2026-01-23 00:04:24.42	215.59	36.42	-40.2	-42.5	13.5	7.60e-06	0	60	0	1544552448	52	4575
2026-01-23 00:04:28.46	215.20	35.51	-40.2	-42.5	13.5	7.60e-06	0	61	0	1557135360	52	4578
2026-01-23 00:04:32.50	214.82	34.61	-40.1	-42.5	13.5	9.90e-06	0	60	0	1569718272	52	4552
2026-01-23 00:04:36.54	214.47	33.74	-40.2	-42.6	13.4	1.67e-05	0	60	0	1582301184	52	4623
2026-01-23 00:04:40.58	214.14	32.90	-40.3	-42.6	13.3	2.21e-05	0	60	0	1594884096	52	4649
2026-01-23 00:04:44.62	213.82	32.07	-39.8	-42.0	14.1	1.50e-06	0	61	0	1607467008	51	4560
2026-01-23 00:04:48.65	213.52	31.27	-39.9	-42.1	14.1	7.00e-07	0	61	0	1620049920	51	4614
2026-01-23 00:04:52.69	213.23	30.49	-40.4	-42.8	13.2	2.13e-05	0	61	0	1633681408	51	5024
2026-01-23 00:04:56.73	212.96	29.72	-40.2	-42.5	13.5	9.90e-06	0	61	0	1646264320	51	4841
2026-01-23 00:05:00.77	212.70	28.98	-40.0	-42.2	13.8	5.30e-06	0	61	0	1658847232	51	4689
2026-01-23 00:05:04.81	212.45	28.26	-39.4	-41.4	14.6	7.00e-07	0	60	0	1671430144	50	4511
2026-01-23 00:05:08.85	212.21	27.55	-39.0	-40.9	15.1	0.00e+00	0	61	0	1684013056	50	4249
2026-01-23 00:05:12.89	211.99	26.86	-38.7	-40.6	15.4	0.00e+00	0	60	0	1696595968	49	4341
2026-01-23 00:05:16.93	211.77	26.18	-39.0	-40.9	15.0	0.00e+00	0	60	0	1709178880	49	4520
2026-01-23 00:05:20.97	211.57	25.53	-39.5	-41.5	14.4	0.00e+00	0	61	0	1721761792	49	4866
2026-01-23 00:05:25.01	211.37	24.88	-39.7	-41.8	14.2	0.00e+00	0	60	0	1734344704	49	5030
2026-01-23 00:05:29.04	211.18	24.26	-39.7	-41.9	14.1	1.50e-06	0	61	0	1746927616	49	5050
2026-01-23 00:05:33.08	211.00	23.65	-39.8	-42.0	14.0	7.00e-07	0	61	0	1759510528	50	4840
2026-01-23 00:05:37.13	210.82	23.05	-39.7	-41.9	14.0	2.20e-06	0	61	0	1772093440	50	4808
2026-01-23 00:05:41.17	210.65	22.46	-39.6	-41.8	14.1	1.50e-06	0	61	0	1784676352	50	4743
2026-01-23 00:05:45.21	210.49	21.89	-39.6	-41.7	14.2	0.00e+00	0	61	0	1797259264	50	4684
2026-01-23 00:05:49.25	210.34	21.33	-39.6	-41.8	14.1	1.50e-06	0	61	0	1809842176	50	4706
2026-01-23 00:05:53.28	210.19	20.78	-39.5	-41.7	14.2	1.50e-06	0	61	0	1822425088	50	4664
2026-01-23 00:05:57.32	210.05	20.24	-39.4	-41.5	14.4	1.50e-06	0	61	0	1835008000	50	4549
2026-01-23 00:06:01.36	209.91	19.72	-39.4	-41.5	14.3	1.50e-06	0	61	0	1847590912	50	4578
2026-01-23 00:06:05.40	209.77	19.20	-39.5	-41.7	14.1	7.00e-07	0	60	0	1860173824	50	4680
2026-01-23 00:06:09.44	209.65	18.70	-39.6	-41.8	14.0	3.00e-06	0	61	0	1872756736	50	4754
2026-01-23 00:06:13.47	209.52	18.20	-39.8	-42.1	13.7	3.80e-06	0	61	0	1885339648	50	4902
2026-01-23 00:06:17.51	209.40	17.72	-39.8	-42.1	13.6	8.30e-06	0	61	0	1897922560	50	4919
2026-01-23 00:06:21.55	209.29	17.24	-39.9	-42.2	13.5	9.10e-06	0	61	0	1910505472	50	4968
2026-01-23 00:06:25.59	209.17	16.77	-40.0	-42.4	13.4	1.60e-05	0	61	0	1923088384	50	5052
2026-01-23 00:06:29.62	209.07	16.32	-40.0	-42.4	13.4	1.52e-05	0	61	0	1935671296	50	5048
2026-01-23 00:06:33.66	208.96	15.87	-40.0	-42.4	13.4	1.14e-05	0	61	0	1948254208	50	5055
2026-01-23 00:06:37.71	208.86	15.42	-40.0	-42.4	13.2	1.90e-05	0	61	0	1960837120	50	5100
2026-01-23 00:06:41.74	208.76	14.99	-40.1	-42.6	13.1	2.59e-05	0	61	0	1974468608	50	5174
2026-01-23 00:06:45.78	208.67	14.56	-40.1	-42.6	13.1	3.89e-05	0	61	0	1987051520	50	5183
2026-01-23 00:06:49.82	208.57	14.14	-40.2	-42.8	12.9	6.10e-05	0	61	0	1999634432	51	4993
2026-01-23 00:06:53.86	208.49	13.73	-40.2	-42.8	12.9	5.79e-05	0	61	0	2012217344	51	4999
2026-01-23 00:06:57.90	208.40	13.32	-40.2	-42.8	12.8	7.24e-05	0	61	0	2024800256	51	5001
2026-01-23 00:07:01.94	208.32	12.93	-40.3	-42.9	12.7	7.47e-05	0	61	0	2037383168	51	5063
2026-01-23 00:07:05.98	208.23	12.53	-40.3	-42.9	12.6	9.30e-05	0	61	0	2049966080	51	5083
2026-01-23 00:07:10.02	208.15	12.15	-40.4	-43.0	12.5	1.36e-04	0	61	0	2062548992	51	5149
2026-01-23 00:07:14.06	208.08	11.77	-40.4	-43.2	12.3	2.23e-04	0	61	0	2075131904	51	5230
2026-01-23 00:07:18.10	208.00	11.39	-40.5	-43.2	12.2	2.28e-04	0	61	0	2087714816	51	5279
2026-01-23 00:07:22.14	207.93	11.02	-40.4	-43.2	12.2	2.46e-04	0	61	0	2100297728	51	5241
2026-01-23 00:07:26.18	207.86	10.66	-40.5	-43.2	12.1	3.08e-04	0	61	0	2112880640	51	5276
2026-01-23 00:07:30.22	207.79	10.30	-40.5	-43.3	11.9	3.95e-04	0	61	0	2125463552	51	5325
2026-01-23 00:07:34.25	207.73	9.95	-40.5	-43.4	11.8	4.79e-04	0	61	0	2138046464	51	5378
2026-01-23 00:07:38.29	207.66	9.60	-40.5	-43.4	11.8	4.84e-04	0	61	0	2150629376	51	5367
2026-01-23 00:07:42.33	207.60	9.25	-40.5	-43.5	11.7	5.54e-04	0	61	0	2163212288	51	5425
2026-01-23 00:07:46.38	207.54	8.91	-40.6	-43.6	11.5	7.67e-04	0	61	0	2175795200	51	5477
2026-01-23 00:07:50.41	207.48	8.58	-40.5	-43.5	11.6	6.97e-04	0	61	0	2188378112	51	5430
2026-01-23 00:07:54.45	207.42	8.25	-40.5	-43.6	11.4	1.03e-03	0	61	0	2200961024	51	5504
2026-01-23 00:07:58.49	207.36	7.93	-44.7	-56.9	3.8	1.49e+00	0	61	104	2211446784	59	16049
2026-01-23 00:08:02.53	207.31	7.60	-45.1	-57.6	3.8	1.49e+00	0	61	104	2211446784	60	16424
2026-01-23 00:08:06.57	207.26	7.29	-45.3	-57.7	3.8	1.49e+00	0	61	104	2211446784	61	15637
2026-01-23 00:08:10.61	207.20	6.97	-45.2	-57.5	3.8	1.49e+00	0	61	104	2211446784	61	15399
2026-01-23 00:08:14.65	207.15	6.66	-45.1	-57.5	3.8	1.49e+00	0	61	104	2211446784	61	15315
2026-01-23 00:08:18.69	207.10	6.36	-45.1	-57.5	3.8	1.49e+00	0	61	104	2211446784	61	15263
2026-01-23 00:08:22.73	207.05	6.05	-45.1	-57.4	3.8	1.49e+00	0	61	104	2211446784	61	15199
2026-01-23 00:08:26.77	207.01	5.75	-45.1	-57.5	3.8	1.49e+00	0	61	104	2211446784	61	15229
2026-01-23 00:08:30.81	206.96	5.46	-45.1	-57.5	3.8	1.49e+00	0	61	104	2211446784	61	15265
2026-01-23 00:08:34.85	206.92	5.16	-45.1	-57.5	3.8	1.49e+00	0	61	104	2211446784	61	15241
2026-01-23 00:08:38.89	206.87	4.87	-45.1	-57.4	3.8	1.49e+00	0	61	104	2211446784	61	15148
2026-01-23 00:08:42.93	206.83	4.59	-45.1	-57.4	3.8	1.49e+00	0	61	104	2211446784	61	15169
2026-01-23 00:08:46.97	206.79	4.30	-45.1	-57.4	3.8	1.49e+00	0	61	104	2211446784	61	15212
2026-01-23 00:08:51.01	206.75	4.02	-45.1	-57.4	3.8	1.49e+00	0	61	104	2211446784	61	15212
2026-01-23 00:08:55.05	206.71	3.75	-45.1	-57.4	3.8	1.49e+00	0	61	104	2211446784	61	15220
2026-01-23 00:08:59.09	206.67	3.47	-45.1	-57.4	3.8	1.49e+00	0	61	104	2211446784	61	15198
2026-01-23 00:09:03.12	206.63	3.20	-45.1	-57.4	3.8	1.49e+00	0	61	104	2211446784	61	15152
2026-01-23 00:09:07.16	206.59	2.93	-45.0	-57.4	3.8	1.49e+00	0	61	104	2211446784	61	15156
2026-01-23 00:09:11.20	206.56	2.66	-45.1	-57.4	3.8	1.49e+00	0	61	104	2211446784	61	15144
2026-01-23 00:09:15.24	206.52	2.40	-45.1	-57.4	3.8	1.49e+00	0	61	104	2211446784	61	15181
2026-01-23 00:09:19.28	206.49	2.14	-45.0	-57.4	3.8	1.49e+00	0	61	104	2211446784	61	15146

#Closed at: 2026-01-23 00:09:22
#Recorded file [2211 MB]: D:/lorett/data/31039_260123_025458.dat