passes_logs/2026/01/22/R2.0S_Moscow/R2.0S_Moscow__20260122_014119_FENGYUN_3D_rec.log

#Pass ID: 20260122_014119_FENGYUN 3D
#Satellite: FENGYUN 3D
#Configuration: FENGYUN 3D
#almurnet v.1.7.20251203
#Start time: 2026-01-22 01:41:21

#Version: 2.2.20231116
#Station: R2.0S_Moscow
#Location: 37.707566 lon 55.798166 lat
#TLE: 1 43010U 17072A   26021.48744220  .00000253  00000+0  14133-3 0  9991
#TLE: 2 43010  98.9948 353.4037 0002485  97.2578 262.8880 14.19697766424177

#Time	Az	El	Level	Level2	SNR	BER	BlckErr	Temp	State	Recorded	gain1	gain2
2026-01-22 01:41:21.17	16.96	2.13	-42.3	-54.0	3.8	8.46e-01	0	49	0	0	56	13658
2026-01-22 01:41:25.22	16.99	2.39	-42.4	-54.0	3.8	8.45e-01	0	49	104	0	56	13637
2026-01-22 01:41:29.25	17.02	2.65	-42.3	-54.0	3.8	8.46e-01	0	49	104	0	56	13634
2026-01-22 01:41:33.29	17.05	2.92	-42.3	-54.0	3.8	8.46e-01	0	50	104	0	56	13669
2026-01-22 01:41:37.33	17.08	3.18	-42.3	-54.0	3.8	8.46e-01	0	50	104	0	56	13647
2026-01-22 01:41:41.37	17.11	3.45	-42.3	-54.0	3.8	8.46e-01	0	50	104	0	56	13620
2026-01-22 01:41:45.42	17.14	3.73	-42.3	-54.0	3.8	8.46e-01	0	50	104	0	56	13581
2026-01-22 01:41:49.46	17.17	4.00	-42.3	-54.0	3.8	8.48e-01	0	51	104	0	56	13659
2026-01-22 01:41:53.50	17.21	4.28	-42.3	-54.0	3.8	8.46e-01	0	51	104	0	56	13610
2026-01-22 01:41:57.54	17.24	4.56	-42.3	-54.0	3.8	8.46e-01	0	51	104	0	56	13595
2026-01-22 01:42:01.59	17.27	4.84	-42.3	-54.0	3.8	8.47e-01	0	51	104	0	56	13634
2026-01-22 01:42:05.63	17.30	5.13	-42.3	-54.0	3.8	8.47e-01	0	51	104	0	56	13644
2026-01-22 01:42:09.67	17.34	5.42	-42.3	-54.0	3.8	8.47e-01	0	52	104	0	56	13644
2026-01-22 01:42:13.71	17.37	5.71	-42.3	-54.0	3.8	8.46e-01	0	52	104	0	56	13604
2026-01-22 01:42:17.76	17.40	6.01	-42.3	-53.9	3.8	8.46e-01	0	52	104	0	56	13449
2026-01-22 01:42:21.80	17.44	6.31	-42.3	-53.8	3.8	8.46e-01	0	52	104	0	56	13369
2026-01-22 01:42:25.84	17.47	6.62	-42.3	-53.8	3.8	8.45e-01	0	53	104	0	56	13357
2026-01-22 01:42:29.88	17.50	6.92	-42.3	-53.6	3.8	8.46e-01	0	53	104	0	56	13109
2026-01-22 01:42:33.93	17.54	7.24	-42.2	-53.1	3.8	8.46e-01	0	53	104	0	56	12368
2026-01-22 01:42:37.97	17.58	7.55	-41.7	-50.1	4.2	8.37e-01	0	53	0	0	55	9246
2026-01-22 01:42:42.01	17.61	7.87	-40.3	-45.0	7.4	1.64e-01	0	53	0	10485760	52	6121
2026-01-22 01:42:46.05	17.65	8.19	-40.3	-43.7	9.9	5.43e-03	0	53	0	32505856	51	5563
2026-01-22 01:42:50.09	17.68	8.52	-39.5	-42.5	11.2	1.81e-03	0	54	0	47185920	51	4817
2026-01-22 01:42:54.13	17.72	8.85	-39.2	-41.7	12.1	3.64e-04	0	54	0	69206016	50	4702
2026-01-22 01:42:58.17	17.76	9.19	-39.3	-41.9	12.1	3.62e-04	0	54	0	92274688	50	4788
2026-01-22 01:43:02.21	17.80	9.53	-39.4	-42.0	12.1	4.58e-04	0	54	0	115343360	50	4823
2026-01-22 01:43:06.25	17.83	9.87	-39.4	-42.0	12.2	2.07e-04	0	54	0	137363456	50	4829
2026-01-22 01:43:10.28	17.87	10.22	-39.2	-41.6	12.8	8.69e-05	0	54	0	160432128	50	4634
2026-01-22 01:43:14.33	17.91	10.58	-39.2	-41.5	13.0	6.86e-05	0	54	0	183500800	50	4597
2026-01-22 01:43:18.36	17.95	10.94	-39.1	-41.4	13.1	4.00e-05	0	54	0	205520896	50	4520
2026-01-22 01:43:22.40	17.99	11.30	-39.2	-41.5	13.1	6.86e-05	0	55	0	228589568	50	4594
2026-01-22 01:43:26.43	18.03	11.67	-39.1	-41.4	13.3	3.77e-05	0	55	0	251658240	50	4533
2026-01-22 01:43:30.45	18.08	12.05	-39.1	-41.4	13.3	4.34e-05	0	55	0	273678336	50	4522
2026-01-22 01:43:34.47	18.12	12.43	-39.2	-41.4	13.3	1.71e-05	0	55	0	296747008	50	4526
2026-01-22 01:43:38.49	18.16	12.82	-39.0	-41.2	13.6	2.28e-05	0	55	0	318767104	50	4410
2026-01-22 01:43:42.51	18.20	13.21	-39.0	-41.2	13.6	9.10e-06	0	55	0	341835776	49	4652
2026-01-22 01:43:46.54	18.25	13.61	-38.8	-41.0	13.8	6.80e-06	0	55	0	363855872	49	4563
2026-01-22 01:43:50.57	18.29	14.02	-38.7	-40.8	14.1	4.50e-06	0	55	0	386924544	49	4467
2026-01-22 01:43:54.59	18.34	14.43	-38.5	-40.4	14.5	1.10e-06	0	55	0	409993216	48	4540
2026-01-22 01:43:58.61	18.39	14.85	-38.5	-40.5	14.5	0.00e+00	0	55	0	432013312	48	4561
2026-01-22 01:44:02.62	18.43	15.28	-38.4	-40.3	14.7	1.10e-06	0	55	0	455081984	48	4449
2026-01-22 01:44:06.64	18.48	15.71	-38.3	-40.1	14.9	0.00e+00	0	55	0	477102080	48	4383
2026-01-22 01:44:10.66	18.53	16.16	-38.1	-39.9	15.2	0.00e+00	0	55	0	500170752	48	4277
2026-01-22 01:44:14.69	18.58	16.61	-37.8	-39.6	15.3	0.00e+00	0	56	0	522190848	47	4390
2026-01-22 01:44:18.71	18.63	17.07	-37.8	-39.6	15.4	0.00e+00	0	56	0	545259520	47	4356
2026-01-22 01:44:22.74	18.69	17.54	-37.7	-39.4	15.6	0.00e+00	0	56	0	568328192	47	4285
2026-01-22 01:44:26.77	18.74	18.02	-37.7	-39.4	15.7	0.00e+00	0	56	0	590348288	47	4263
2026-01-22 01:44:30.79	18.80	18.51	-37.6	-39.3	15.8	0.00e+00	0	56	0	613416960	47	4224
2026-01-22 01:44:34.82	18.85	19.01	-37.5	-39.2	16.0	0.00e+00	0	56	0	636485632	47	4164
2026-01-22 01:44:38.86	18.91	19.52	-37.5	-39.2	16.0	0.00e+00	0	56	0	658505728	47	4166
2026-01-22 01:44:42.90	18.97	20.04	-37.4	-39.1	16.2	0.00e+00	0	56	0	681574400	46	4355
2026-01-22 01:44:46.94	19.03	20.58	-37.3	-39.0	16.3	0.00e+00	0	56	0	703594496	46	4306
2026-01-22 01:44:50.98	19.09	21.12	-37.2	-38.8	16.4	0.00e+00	0	56	0	726663168	46	4232
2026-01-22 01:44:55.01	19.16	21.68	-37.1	-38.6	16.7	0.00e+00	0	56	0	749731840	46	4139
2026-01-22 01:44:59.05	19.22	22.25	-36.8	-38.3	17.0	0.00e+00	0	56	0	771751936	45	4221
2026-01-22 01:45:03.09	19.29	22.83	-36.7	-38.2	17.2	0.00e+00	0	56	0	794820608	45	4150
2026-01-22 01:45:07.13	19.36	23.42	-36.6	-38.1	17.2	0.00e+00	0	56	0	817889280	45	4140
2026-01-22 01:45:11.17	19.43	24.03	-36.7	-38.2	17.2	0.00e+00	0	56	0	840957952	45	4149
2026-01-22 01:45:15.21	19.51	24.66	-36.8	-38.3	17.1	0.00e+00	0	56	0	862978048	45	4214
2026-01-22 01:45:19.25	19.58	25.30	-36.8	-38.3	17.1	0.00e+00	0	56	0	886046720	45	4205
2026-01-22 01:45:23.30	19.66	25.96	-36.5	-37.9	17.5	0.00e+00	0	57	0	908066816	44	4261
2026-01-22 01:45:27.33	19.74	26.63	-36.3	-37.8	17.6	0.00e+00	0	56	0	931135488	44	4200
2026-01-22 01:45:31.38	19.83	27.32	-36.3	-37.7	17.8	0.00e+00	0	56	0	954204160	44	4156
2026-01-22 01:45:35.41	19.92	28.02	-36.5	-37.9	17.5	0.00e+00	0	56	0	977272832	44	4289
2026-01-22 01:45:39.46	20.01	28.75	-36.4	-37.9	17.6	0.00e+00	0	57	0	999292928	44	4249
2026-01-22 01:45:43.50	20.10	29.50	-36.3	-37.7	17.8	0.00e+00	0	57	0	1022361600	44	4168
2026-01-22 01:45:47.54	20.20	30.26	-36.3	-37.7	17.7	0.00e+00	0	57	0	1045430272	44	4183
2026-01-22 01:45:51.58	20.30	31.05	-36.4	-37.8	17.7	0.00e+00	0	57	0	1067450368	44	4205
2026-01-22 01:45:55.62	20.41	31.86	-36.3	-37.7	17.8	0.00e+00	0	57	0	1090519040	44	4171
2026-01-22 01:45:59.65	20.52	32.69	-36.3	-37.7	17.7	0.00e+00	0	57	0	1112539136	44	4184
2026-01-22 01:46:03.69	20.64	33.54	-36.2	-37.5	18.0	0.00e+00	0	57	0	1135607808	44	4094
2026-01-22 01:46:07.73	20.76	34.42	-35.4	-36.7	18.6	0.00e+00	0	57	0	1158676480	42	4191
2026-01-22 01:46:11.77	20.89	35.33	-35.7	-37.0	18.4	0.00e+00	0	57	0	1181745152	42	4312
2026-01-22 01:46:15.81	21.02	36.26	-35.7	-37.0	18.3	0.00e+00	0	57	0	1203765248	42	4339
2026-01-22 01:46:19.85	21.16	37.22	-35.5	-36.9	18.5	0.00e+00	0	57	0	1226833920	42	4250
2026-01-22 01:46:23.89	21.31	38.20	-35.6	-36.9	18.5	0.00e+00	0	57	0	1249902592	42	4279
2026-01-22 01:46:27.93	21.47	39.22	-36.0	-37.4	18.0	0.00e+00	0	57	0	1271922688	42	4497
2026-01-22 01:46:31.97	21.64	40.27	-35.9	-37.3	18.1	0.00e+00	0	57	0	1294991360	42	4469
2026-01-22 01:46:36.01	21.82	41.35	-35.9	-37.3	18.1	0.00e+00	0	57	0	1318060032	42	4450
2026-01-22 01:46:40.04	22.00	42.46	-36.0	-37.4	18.0	0.00e+00	0	57	0	1340080128	42	4525
2026-01-22 01:46:44.08	22.21	43.61	-36.2	-37.6	17.8	0.00e+00	0	57	0	1363148800	42	4618
2026-01-22 01:46:48.13	22.42	44.79	-36.6	-38.1	17.4	0.00e+00	0	57	0	1386217472	43	4612
2026-01-22 01:46:52.17	22.65	46.01	-36.0	-37.5	17.7	0.00e+00	0	57	0	1408237568	43	4303
2026-01-22 01:46:56.20	22.90	47.27	-36.2	-37.8	17.4	0.00e+00	0	57	0	1431306240	43	4457
2026-01-22 01:47:00.24	23.17	48.56	-36.2	-37.7	17.5	0.00e+00	0	57	0	1454374912	43	4421
2026-01-22 01:47:04.28	23.46	49.89	-36.4	-38.0	17.3	0.00e+00	0	57	0	1476395008	43	4551
2026-01-22 01:47:08.32	23.78	51.27	-36.6	-38.1	17.1	0.00e+00	0	57	0	1499463680	43	4634
2026-01-22 01:47:12.36	24.13	52.68	-37.3	-39.0	16.4	0.00e+00	0	57	0	1521483776	45	4586
2026-01-22 01:47:16.39	24.51	54.13	-37.5	-39.2	16.1	0.00e+00	0	57	0	1544552448	45	4696
2026-01-22 01:47:20.44	24.93	55.63	-37.2	-38.9	16.5	0.00e+00	0	57	0	1567621120	45	4520
2026-01-22 01:47:24.47	25.40	57.16	-37.2	-38.9	16.5	0.00e+00	0	57	0	1590689792	45	4515
2026-01-22 01:47:28.51	25.92	58.74	-36.5	-38.0	17.3	0.00e+00	0	57	0	1612709888	44	4321
2026-01-22 01:47:32.55	26.50	60.35	-36.3	-37.8	17.5	0.00e+00	0	57	0	1635778560	44	4230
2026-01-22 01:47:36.59	27.17	62.01	-36.3	-37.8	17.5	0.00e+00	0	57	0	1658847232	44	4235
2026-01-22 01:47:40.63	27.93	63.71	-35.5	-36.9	18.3	0.00e+00	0	57	0	1680867328	42	4259
2026-01-22 01:47:44.67	28.81	65.44	-35.1	-36.4	18.6	0.00e+00	0	57	0	1703936000	41	4285
2026-01-22 01:47:48.71	29.84	67.20	-35.4	-36.9	18.2	0.00e+00	0	57	0	1727004672	41	4495
2026-01-22 01:47:52.75	31.05	69.00	-35.4	-36.8	18.2	0.00e+00	0	57	0	1749024768	41	4484
2026-01-22 01:47:56.79	32.52	70.82	-34.8	-36.1	18.8	0.00e+00	0	57	0	1772093440	41	4132
2026-01-22 01:48:00.83	34.30	72.66	-34.8	-36.1	18.9	0.00e+00	0	57	0	1795162112	41	4108
2026-01-22 01:48:04.87	36.54	74.51	-34.4	-35.7	19.2	0.00e+00	0	57	0	1817182208	40	4184
2026-01-22 01:48:08.91	39.41	76.36	-34.1	-35.3	19.5	0.00e+00	0	57	0	1840250880	40	3998
2026-01-22 01:48:12.95	43.20	78.18	-34.0	-35.3	19.6	0.00e+00	0	57	0	1863319552	39	4228
2026-01-22 01:48:16.99	48.39	79.97	-33.5	-34.7	20.1	0.00e+00	0	57	0	1885339648	38	4171
2026-01-22 01:48:21.02	55.76	81.64	-33.2	-34.4	20.4	0.00e+00	0	58	0	1908408320	38	4019
2026-01-22 01:48:25.06	66.63	83.13	-33.5	-34.7	20.0	0.00e+00	0	57	0	1931476992	38	4189
2026-01-22 01:48:29.10	82.62	84.26	-33.2	-34.4	20.3	0.00e+00	0	57	0	1953497088	38	4033
2026-01-22 01:48:33.14	103.86	84.77	-33.3	-34.5	20.2	0.00e+00	0	57	0	1976565760	38	4096
2026-01-22 01:48:37.18	126.05	84.49	-33.6	-34.9	19.9	0.00e+00	0	57	0	1999634432	38	4260
2026-01-22 01:48:41.22	143.79	83.52	-33.1	-34.3	20.4	0.00e+00	0	57	0	2021654528	38	3985
2026-01-22 01:48:45.26	156.06	82.12	-33.2	-34.4	20.3	0.00e+00	0	58	0	2044723200	38	4048
2026-01-22 01:48:49.30	164.34	80.48	-33.3	-34.5	20.3	0.00e+00	0	57	0	2067791872	38	4064
2026-01-22 01:48:53.34	170.09	78.72	-33.6	-34.9	19.9	0.00e+00	0	57	0	2089811968	38	4271
2026-01-22 01:48:57.38	174.25	76.90	-33.9	-35.2	19.6	0.00e+00	0	57	0	2112880640	38	4410
2026-01-22 01:49:01.42	177.36	75.05	-34.4	-35.7	19.1	0.00e+00	0	57	0	2135949312	40	4159
2026-01-22 01:49:05.45	179.76	73.20	-34.2	-35.5	19.3	0.00e+00	0	58	0	2157969408	40	4073
2026-01-22 01:49:09.49	181.67	71.36	-34.8	-36.1	18.8	0.00e+00	0	57	0	2181038080	40	4372
2026-01-22 01:49:13.53	183.22	69.53	-34.9	-36.3	18.7	0.00e+00	0	57	0	2204106752	40	4468
2026-01-22 01:49:17.57	184.50	67.72	-35.2	-36.7	18.3	0.00e+00	0	58	0	2226126848	41	4396
2026-01-22 01:49:21.61	185.58	65.94	-35.2	-36.6	18.3	0.00e+00	0	58	0	2249195520	41	4389
2026-01-22 01:49:25.64	186.50	64.20	-35.0	-36.3	18.8	0.00e+00	0	58	0	2272264192	41	4194
2026-01-22 01:49:29.68	187.29	62.49	-35.4	-36.8	18.2	0.00e+00	0	58	0	2294284288	41	4481
2026-01-22 01:49:33.72	187.98	60.82	-35.5	-36.9	18.1	0.00e+00	0	57	0	2317352960	41	4522
2026-01-22 01:49:37.76	188.59	59.18	-35.7	-37.1	18.0	0.00e+00	0	58	0	2339373056	41	4632
2026-01-22 01:49:41.79	189.13	57.59	-35.9	-37.4	17.7	0.00e+00	0	58	0	2362441728	42	4519
2026-01-22 01:49:45.83	189.61	56.04	-36.3	-37.8	17.3	0.00e+00	0	58	0	2385510400	43	4483
2026-01-22 01:49:49.87	190.05	54.53	-37.1	-38.7	16.6	0.00e+00	0	58	0	2408579072	44	4668
2026-01-22 01:49:53.91	190.44	53.05	-36.9	-38.5	16.7	0.00e+00	0	58	0	2430599168	44	4598
2026-01-22 01:49:57.95	190.79	51.62	-36.7	-38.3	17.0	0.00e+00	0	57	0	2453667840	44	4447
2026-01-22 01:50:01.99	191.12	50.23	-36.5	-38.1	17.2	0.00e+00	0	58	0	2476736512	44	4357
2026-01-22 01:50:06.02	191.42	48.89	-36.3	-37.8	17.5	0.00e+00	0	57	0	2498756608	44	4239
2026-01-22 01:50:10.06	191.69	47.58	-35.7	-37.1	17.9	0.00e+00	0	58	0	2521825280	43	4143
2026-01-22 01:50:14.11	191.95	46.30	-35.7	-37.1	18.0	0.00e+00	0	58	0	2543845376	43	4115
2026-01-22 01:50:18.15	192.18	45.07	-35.7	-37.2	17.9	0.00e+00	0	58	0	2566914048	43	4146
2026-01-22 01:50:22.19	192.40	43.87	-35.5	-36.9	18.0	0.00e+00	0	58	0	2589982720	43	4051
2026-01-22 01:50:26.22	192.60	42.71	-35.7	-37.3	17.7	0.00e+00	0	58	0	2613051392	42	4443
2026-01-22 01:50:30.26	192.80	41.58	-35.7	-37.2	17.8	0.00e+00	0	58	0	2635071488	42	4405
2026-01-22 01:50:34.30	192.98	40.49	-35.6	-37.0	18.0	0.00e+00	0	58	0	2658140160	42	4331
2026-01-22 01:50:38.34	193.14	39.43	-35.3	-36.8	18.2	0.00e+00	0	58	0	2681208832	42	4198
2026-01-22 01:50:42.38	193.30	38.40	-35.3	-36.8	18.1	0.00e+00	0	58	0	2703228928	42	4215
2026-01-22 01:50:46.42	193.45	37.40	-34.9	-36.3	18.6	0.00e+00	0	58	0	2726297600	41	4213
2026-01-22 01:50:50.45	193.60	36.43	-35.2	-36.7	18.2	0.00e+00	0	58	0	2748317696	41	4403
2026-01-22 01:50:54.50	193.73	35.48	-35.2	-36.7	18.2	0.00e+00	0	58	0	2771386368	41	4413
2026-01-22 01:50:58.53	193.86	34.57	-35.0	-36.4	18.4	0.00e+00	0	58	0	2794455040	41	4282
2026-01-22 01:51:02.57	193.98	33.68	-35.4	-36.9	18.0	0.00e+00	0	57	0	2817523712	41	4502
2026-01-22 01:51:06.61	194.10	32.81	-35.7	-37.3	17.6	0.00e+00	0	58	0	2839543808	42	4448
2026-01-22 01:51:10.66	194.21	31.97	-35.8	-37.4	17.5	0.00e+00	0	58	0	2862612480	42	4494
2026-01-22 01:51:14.70	194.31	31.15	-35.7	-37.2	17.6	0.00e+00	0	58	0	2885681152	42	4430
2026-01-22 01:51:18.74	194.42	30.36	-35.7	-37.2	17.7	0.00e+00	0	58	0	2907701248	42	4396
2026-01-22 01:51:22.77	194.51	29.58	-35.6	-37.1	17.8	0.00e+00	0	58	0	2930769920	42	4351
2026-01-22 01:51:26.80	194.61	28.83	-35.8	-37.3	17.6	0.00e+00	0	58	0	2952790016	42	4457
2026-01-22 01:51:30.82	194.70	28.10	-35.6	-37.1	17.7	0.00e+00	0	58	0	2975858688	42	4390
2026-01-22 01:51:34.85	194.78	27.39	-35.6	-37.1	17.8	0.00e+00	0	58	0	2998927360	42	4361
2026-01-22 01:51:38.88	194.87	26.69	-35.5	-37.0	17.9	0.00e+00	0	58	0	3020947456	42	4293
2026-01-22 01:51:42.90	194.95	26.02	-35.7	-37.1	17.7	0.00e+00	0	58	0	3044016128	42	4385
2026-01-22 01:51:46.93	195.02	25.36	-35.9	-37.5	17.4	0.00e+00	0	58	0	3067084800	42	4546
2026-01-22 01:51:50.97	195.10	24.71	-36.0	-37.5	17.3	0.00e+00	0	58	0	3089104896	42	4590
2026-01-22 01:51:55.00	195.17	24.08	-36.1	-37.7	17.1	0.00e+00	0	58	0	3112173568	42	4658
2026-01-22 01:51:59.05	195.24	23.46	-36.2	-37.8	17.0	0.00e+00	0	58	0	3134193664	43	4481
2026-01-22 01:52:03.09	195.31	22.86	-36.3	-37.9	16.9	0.00e+00	0	58	0	3157262336	43	4545
2026-01-22 01:52:07.13	195.37	22.27	-36.4	-38.0	16.8	0.00e+00	0	58	0	3180331008	43	4564
2026-01-22 01:52:11.17	195.44	21.69	-36.5	-38.1	16.7	0.00e+00	0	58	0	3203399680	43	4643
2026-01-22 01:52:15.20	195.50	21.13	-36.5	-38.2	16.6	0.00e+00	0	58	0	3225419776	43	4681
2026-01-22 01:52:19.24	195.56	20.58	-36.6	-38.2	16.6	0.00e+00	0	58	0	3248488448	43	4695
2026-01-22 01:52:23.28	195.62	20.05	-36.7	-38.3	16.5	0.00e+00	0	58	0	3271557120	43	4758
2026-01-22 01:52:27.32	195.67	19.52	-36.7	-38.3	16.5	0.00e+00	0	58	0	3293577216	43	4752
2026-01-22 01:52:31.36	195.73	19.00	-36.9	-38.6	16.3	0.00e+00	0	58	0	3316645888	44	4635
2026-01-22 01:52:35.40	195.78	18.50	-37.0	-38.7	16.2	0.00e+00	0	58	0	3338665984	44	4705
2026-01-22 01:52:39.44	195.84	18.00	-37.2	-38.9	16.0	0.00e+00	0	58	0	3361734656	44	4796
2026-01-22 01:52:43.47	195.89	17.52	-37.2	-39.0	15.9	0.00e+00	0	58	0	3384803328	45	4587
2026-01-22 01:52:47.52	195.94	17.04	-37.4	-39.3	15.7	0.00e+00	0	58	0	3407872000	45	4706
2026-01-22 01:52:51.56	195.99	16.57	-37.6	-39.5	15.4	0.00e+00	0	58	0	3429892096	45	4839
2026-01-22 01:52:55.60	196.03	16.12	-37.8	-39.7	15.3	0.00e+00	0	58	0	3452960768	46	4660
2026-01-22 01:52:59.63	196.08	15.67	-37.9	-39.8	15.2	0.00e+00	0	58	0	3474980864	46	4728
2026-01-22 01:53:03.67	196.13	15.23	-37.9	-39.9	15.0	0.00e+00	0	58	0	3498049536	46	4786
2026-01-22 01:53:07.71	196.17	14.79	-38.1	-40.0	14.8	0.00e+00	0	58	0	3521118208	46	4861
2026-01-22 01:53:11.74	196.21	14.37	-38.1	-40.1	14.8	0.00e+00	0	58	0	3543138304	46	4890
2026-01-22 01:53:15.78	196.26	13.95	-38.2	-40.2	14.6	0.00e+00	0	58	0	3566206976	46	4956
2026-01-22 01:53:19.82	196.30	13.54	-38.2	-40.2	14.6	0.00e+00	0	58	0	3589275648	47	4691
2026-01-22 01:53:23.86	196.34	13.13	-38.3	-40.3	14.5	3.40e-06	0	58	0	3612344320	47	4750
2026-01-22 01:53:27.91	196.38	12.73	-38.3	-40.4	14.4	0.00e+00	0	58	0	3634364416	47	4763
2026-01-22 01:53:31.95	196.42	12.34	-38.4	-40.5	14.2	1.10e-06	0	58	0	3657433088	47	4859
2026-01-22 01:53:35.99	196.46	11.96	-38.3	-40.5	14.2	1.10e-06	0	58	0	3679453184	47	4817
2026-01-22 01:53:40.02	196.50	11.58	-38.4	-40.6	14.1	3.40e-06	0	58	0	3702521856	47	4876
2026-01-22 01:53:44.06	196.53	11.20	-38.6	-40.8	13.9	1.02e-05	0	58	0	3725590528	47	4986
2026-01-22 01:53:48.10	196.57	10.84	-38.7	-40.9	13.7	1.14e-05	0	58	0	3747610624	47	5088
2026-01-22 01:53:52.14	196.61	10.47	-38.6	-40.9	13.7	5.70e-06	0	58	0	3770679296	47	5047
2026-01-22 01:53:56.17	196.64	10.12	-38.7	-40.9	13.6	8.00e-06	0	58	0	3793747968	47	5074
2026-01-22 01:54:00.21	196.68	9.76	-38.8	-41.0	13.6	1.37e-05	0	58	0	3816816640	48	4857
2026-01-22 01:54:04.25	196.71	9.42	-38.9	-41.2	13.4	2.86e-05	0	58	0	3838836736	48	4958
2026-01-22 01:54:08.28	196.75	9.08	-39.0	-41.4	13.1	4.46e-05	0	58	0	3861905408	48	5083
2026-01-22 01:54:12.32	196.78	8.74	-39.1	-41.5	13.0	6.06e-05	0	58	0	3883925504	48	5123
2026-01-22 01:54:16.36	196.81	8.40	-39.1	-41.5	12.9	6.52e-05	0	58	0	3906994176	48	5148
2026-01-22 01:54:20.40	196.84	8.08	-39.1	-41.5	12.8	9.72e-05	0	58	0	3930062848	49	4841
2026-01-22 01:54:24.44	196.88	7.75	-45.0	-56.8	3.8	8.46e-01	0	58	104	3938451456	60	14982
2026-01-22 01:54:28.48	196.91	7.43	-45.3	-57.1	3.8	8.46e-01	0	58	104	3938451456	61	14610
2026-01-22 01:54:32.52	196.94	7.11	-45.3	-57.1	3.8	8.46e-01	0	58	104	3938451456	61	14557
2026-01-22 01:54:36.57	196.97	6.80	-45.2	-57.0	3.8	8.47e-01	0	58	104	3938451456	61	14445
2026-01-22 01:54:40.61	197.00	6.49	-45.2	-56.9	3.8	8.46e-01	0	58	104	3938451456	61	14362
2026-01-22 01:54:44.65	197.03	6.19	-45.2	-56.9	3.8	8.45e-01	0	58	104	3938451456	61	14275
2026-01-22 01:54:48.69	197.06	5.88	-45.2	-56.9	3.8	8.47e-01	0	58	104	3938451456	61	14299
2026-01-22 01:54:52.74	197.09	5.59	-45.2	-56.9	3.8	8.45e-01	0	58	104	3938451456	61	14317
2026-01-22 01:54:56.78	197.12	5.29	-45.2	-56.9	3.8	8.45e-01	0	58	104	3938451456	61	14233
2026-01-22 01:55:00.82	197.14	5.00	-45.2	-56.9	3.8	8.47e-01	0	58	104	3938451456	61	14224
2026-01-22 01:55:04.86	197.17	4.71	-45.1	-56.9	3.8	8.47e-01	0	58	104	3938451456	61	14268
2026-01-22 01:55:08.90	197.20	4.43	-45.1	-56.9	3.8	8.45e-01	0	58	104	3938451456	61	14214
2026-01-22 01:55:12.95	197.23	4.14	-45.1	-56.9	3.8	8.45e-01	0	58	104	3938451456	61	14232
2026-01-22 01:55:16.99	197.25	3.86	-45.1	-56.8	3.8	8.47e-01	0	58	104	3938451456	61	14175
2026-01-22 01:55:21.03	197.28	3.59	-45.1	-56.8	3.8	8.46e-01	0	58	104	3938451456	61	14195
2026-01-22 01:55:25.07	197.31	3.31	-45.1	-56.8	3.8	8.46e-01	0	58	104	3938451456	61	14181
2026-01-22 01:55:29.11	197.33	3.04	-45.1	-56.9	3.8	8.46e-01	0	58	104	3938451456	61	14224
2026-01-22 01:55:33.15	197.36	2.77	-45.1	-56.8	3.8	8.47e-01	0	58	104	3938451456	61	14170
2026-01-22 01:55:37.20	197.38	2.51	-45.1	-56.8	3.8	8.46e-01	0	58	104	3938451456	61	14160
2026-01-22 01:55:41.24	197.41	2.24	-45.1	-56.8	3.8	8.47e-01	0	58	104	3938451456	61	14185
2026-01-22 01:55:45.28	197.43	1.98	-45.1	-56.8	3.8	8.46e-01	0	58	104	3938451456	61	14106

#Closed at: 2026-01-22 01:55:47
#Recorded file [3938 MB]: D:/lorett/data/31039_260122_044120.dat