passes_logs/2026/01/22/R2.0S_Moscow/R2.0S_Moscow__20260122_001348_NOAA_21_JPSS-2_rec.log

#Pass ID: 20260122_001348_NOAA 21 (JPSS-2)
#Satellite: NOAA 21 (JPSS-2)
#Configuration: NOAA-21
#almurnet v.1.7.20251203
#Start time: 2026-01-22 00:13:51

#Version: 2.2.20231116
#Station: R2.0S_Moscow
#Location: 37.707566 lon 55.798166 lat
#TLE: 1 54234U 22150A   26020.93347024  .00000206  00000+0  11859-3 0  9994
#TLE: 2 54234  98.7506 321.7615 0000627 245.8100 114.3011 14.19536899165654

#Time	Az	El	Level	Level2	SNR	BER	BlckErr	Temp	State	Recorded	gain1	gain2
2026-01-22 00:13:51.00	13.79	2.19	-45.6	-58.0	3.8	1.49e+00	0	58	0	0	61	16230
2026-01-22 00:13:55.03	13.71	2.44	-44.7	-57.2	3.8	1.49e+00	0	58	104	0	61	14853
2026-01-22 00:13:59.07	13.62	2.70	-42.4	-54.7	3.8	1.49e+00	0	58	104	0	56	14748
2026-01-22 00:14:03.11	13.54	2.97	-42.4	-54.6	3.8	1.49e+00	0	58	104	0	56	14670
2026-01-22 00:14:07.15	13.45	3.23	-42.4	-54.6	3.8	1.49e+00	0	58	104	0	56	14706
2026-01-22 00:14:11.20	13.35	3.50	-42.4	-54.6	3.8	1.49e+00	0	58	104	0	56	14631
2026-01-22 00:14:15.24	13.26	3.77	-42.3	-54.5	3.8	1.49e+00	0	58	104	0	56	14498
2026-01-22 00:14:19.28	13.16	4.04	-42.4	-54.5	3.8	1.49e+00	0	58	104	0	56	14411
2026-01-22 00:14:23.32	13.07	4.31	-42.3	-54.2	3.8	1.49e+00	0	58	104	0	56	13927
2026-01-22 00:14:27.36	12.97	4.59	-42.3	-53.9	3.8	1.49e+00	0	58	104	0	56	13549
2026-01-22 00:14:31.40	12.86	4.87	-42.3	-54.1	3.8	1.49e+00	0	58	104	0	56	13850
2026-01-22 00:14:35.44	12.76	5.15	-42.3	-53.8	3.8	1.49e+00	0	58	104	0	56	13264
2026-01-22 00:14:39.48	12.65	5.44	-42.2	-53.2	3.8	1.49e+00	0	58	104	0	56	12456
2026-01-22 00:14:43.52	12.54	5.73	-42.1	-52.6	3.9	1.49e+00	0	58	104	0	56	11624
2026-01-22 00:14:47.56	12.43	6.02	-42.2	-53.7	3.8	1.49e+00	0	58	104	0	56	13208
2026-01-22 00:14:51.60	12.32	6.31	-42.3	-54.5	3.8	1.49e+00	0	58	104	0	56	14528
2026-01-22 00:14:55.65	12.20	6.61	-42.1	-52.3	3.9	1.49e+00	0	58	104	0	56	11284
2026-01-22 00:14:59.69	12.08	6.92	-41.1	-47.3	6.1	3.74e-01	0	58	0	4194304	54	7047
2026-01-22 00:15:03.73	11.95	7.22	-40.0	-44.4	8.7	3.72e-02	0	58	0	16777216	52	5660
2026-01-22 00:15:07.77	11.83	7.53	-40.0	-44.1	9.0	2.45e-02	0	58	0	29360128	51	5842
2026-01-22 00:15:11.82	11.70	7.84	-40.5	-45.3	7.9	7.43e-02	0	58	0	41943040	51	6693
2026-01-22 00:15:15.86	11.57	8.16	-40.6	-46.1	6.9	2.60e-01	0	58	0	51380224	52	6888
2026-01-22 00:15:19.90	11.43	8.48	-40.6	-45.9	7.1	3.89e-01	0	58	0	56623104	53	6409
2026-01-22 00:15:23.94	11.29	8.80	-40.8	-46.9	6.2	2.86e-01	0	58	0	69206016	53	7184
2026-01-22 00:15:27.99	11.15	9.13	-42.2	-54.0	3.8	1.41e+00	0	58	104	78643200	54	15341
2026-01-22 00:15:32.03	11.00	9.46	-41.0	-48.2	5.2	5.74e-01	0	58	0	83886080	53	8294
2026-01-22 00:15:36.07	10.85	9.80	-41.2	-48.8	4.9	7.34e-01	0	58	0	96468992	53	8883
2026-01-22 00:15:40.10	10.70	10.14	-42.1	-51.2	3.9	1.28e+00	0	58	104	97517568	54	11103
2026-01-22 00:15:44.14	10.54	10.49	-41.4	-49.0	4.9	7.73e-01	0	58	0	98566144	54	8609
2026-01-22 00:15:48.18	10.38	10.84	-41.3	-48.1	5.4	5.05e-01	0	58	0	111149056	54	7756
2026-01-22 00:15:52.22	10.21	11.19	-41.4	-47.5	6.1	3.92e-01	0	58	0	116391936	54	7260
2026-01-22 00:15:56.26	10.04	11.55	-40.6	-45.1	8.5	5.36e-02	0	58	0	123731968	53	5833
2026-01-22 00:16:00.30	9.87	11.92	-40.4	-44.2	9.7	1.28e-02	0	58	0	137363456	52	5568
2026-01-22 00:16:04.34	9.69	12.29	-39.4	-42.3	11.8	4.76e-04	0	58	0	148897792	50	5030
2026-01-22 00:16:08.38	9.50	12.66	-39.7	-42.7	11.5	6.84e-04	0	58	0	162529280	50	5261
2026-01-22 00:16:12.42	9.31	13.04	-39.8	-42.8	11.6	6.81e-04	0	59	0	175112192	50	5302
2026-01-22 00:16:16.47	9.11	13.43	-40.0	-42.9	11.7	4.20e-04	0	59	0	187695104	50	5394
2026-01-22 00:16:20.51	8.91	13.82	-39.8	-42.5	12.5	1.38e-04	0	58	0	200278016	50	5110
2026-01-22 00:16:24.55	8.70	14.22	-39.9	-42.6	12.4	1.33e-04	0	58	0	212860928	50	5166
2026-01-22 00:16:28.59	8.49	14.63	-40.0	-42.7	12.3	1.69e-04	0	58	0	225443840	50	5248
2026-01-22 00:16:32.63	8.27	15.04	-39.9	-42.6	12.6	1.10e-04	0	58	0	238026752	50	5162
2026-01-22 00:16:36.66	8.04	15.45	-40.0	-42.5	12.8	7.70e-05	0	58	0	250609664	50	5158
2026-01-22 00:16:40.70	7.81	15.88	-40.1	-42.8	12.6	9.99e-05	0	58	0	263192576	50	5284
2026-01-22 00:16:44.74	7.57	16.31	-40.2	-42.8	12.7	1.02e-04	0	58	0	275775488	51	5028
2026-01-22 00:16:48.78	7.32	16.75	-40.3	-43.0	12.6	1.04e-04	0	58	0	288358400	51	5107
2026-01-22 00:16:52.82	7.06	17.20	-40.4	-43.1	12.5	1.14e-04	0	58	0	300941312	51	5182
2026-01-22 00:16:56.87	6.80	17.65	-40.4	-43.0	12.6	1.32e-04	0	58	0	313524224	51	5148
2026-01-22 00:17:00.91	6.53	18.11	-40.4	-43.0	12.7	8.23e-05	0	59	0	326107136	51	5159
2026-01-22 00:17:04.94	6.24	18.58	-40.4	-43.0	12.8	6.10e-05	0	58	0	338690048	51	5106
2026-01-22 00:17:08.98	5.95	19.06	-40.3	-42.9	12.8	6.17e-05	0	58	0	351272960	51	5063
2026-01-22 00:17:13.02	5.65	19.55	-40.4	-43.0	12.8	5.03e-05	0	58	0	363855872	51	5104
2026-01-22 00:17:17.06	5.34	20.04	-40.3	-42.8	13.0	3.58e-05	0	58	0	376438784	51	4997
2026-01-22 00:17:21.10	5.02	20.55	-40.2	-42.6	13.2	2.44e-05	0	58	0	389021696	51	4914
2026-01-22 00:17:25.14	4.68	21.06	-40.1	-42.5	13.3	1.83e-05	0	59	0	401604608	51	4839
2026-01-22 00:17:29.18	4.34	21.58	-39.8	-42.1	13.7	2.20e-06	0	59	0	414187520	51	4626
2026-01-22 00:17:33.22	3.98	22.12	-39.6	-41.7	14.2	1.50e-06	0	58	0	426770432	51	4418
2026-01-22 00:17:37.26	3.61	22.66	-39.5	-41.7	14.1	3.80e-06	0	58	0	439353344	51	4423
2026-01-22 00:17:41.30	3.22	23.22	-39.3	-41.4	14.5	0.00e+00	0	58	0	452984832	50	4518
2026-01-22 00:17:45.35	2.82	23.78	-39.3	-41.4	14.6	0.00e+00	0	58	0	465567744	50	4501
2026-01-22 00:17:49.39	2.41	24.36	-39.4	-41.5	14.4	7.00e-07	0	58	0	478150656	50	4572
2026-01-22 00:17:53.42	1.98	24.94	-39.6	-41.7	14.2	7.00e-07	0	58	0	490733568	50	4680
2026-01-22 00:17:57.46	1.53	25.54	-39.8	-42.0	13.9	3.00e-06	0	58	0	503316480	50	4846
2026-01-22 00:18:01.50	1.06	26.15	-40.0	-42.2	13.7	7.60e-06	0	59	0	515899392	50	4982
2026-01-22 00:18:05.54	0.58	26.77	-40.0	-42.2	13.8	6.80e-06	0	58	0	528482304	50	4960
2026-01-22 00:18:09.57	0.07	27.41	-40.1	-42.4	13.6	1.29e-05	0	58	0	541065216	50	5099
2026-01-22 00:18:13.61	359.54	28.05	-40.2	-42.6	13.4	8.30e-06	0	58	0	553648128	51	4883
2026-01-22 00:18:17.65	359.00	28.71	-40.2	-42.6	13.4	1.29e-05	0	58	0	566231040	51	4897
2026-01-22 00:18:21.69	358.42	29.38	-40.3	-42.6	13.5	1.44e-05	0	58	0	578813952	51	4905
2026-01-22 00:18:25.73	357.82	30.07	-40.0	-42.3	13.8	3.80e-06	0	58	0	591396864	51	4723
2026-01-22 00:18:29.77	357.20	30.76	-40.4	-42.8	13.4	1.29e-05	0	58	0	603979776	51	4991
2026-01-22 00:18:33.81	356.55	31.47	-40.4	-42.8	13.3	2.05e-05	0	58	0	616562688	51	5017
2026-01-22 00:18:37.84	355.86	32.20	-40.3	-42.6	13.5	8.30e-06	0	58	0	629145600	51	4895
2026-01-22 00:18:41.88	355.15	32.93	-40.3	-42.7	13.4	2.51e-05	0	58	0	641728512	51	4964
2026-01-22 00:18:45.92	354.40	33.68	-40.6	-43.2	12.8	6.17e-05	0	58	0	654311424	52	4962
2026-01-22 00:18:49.95	353.61	34.44	-40.6	-43.1	13.0	5.18e-05	0	58	0	666894336	52	4905
2026-01-22 00:18:53.99	352.79	35.22	-40.8	-43.4	12.6	7.01e-05	0	58	0	679477248	52	5074
2026-01-22 00:18:58.03	351.92	36.00	-41.0	-43.6	12.4	1.37e-04	0	59	0	692060160	52	5216
2026-01-22 00:19:02.06	351.02	36.80	-41.1	-43.8	12.2	1.95e-04	0	59	0	704643072	52	5323
2026-01-22 00:19:06.11	350.06	37.61	-41.2	-44.0	12.0	3.18e-04	0	58	0	717225984	53	5145
2026-01-22 00:19:10.15	349.05	38.43	-41.5	-44.5	11.6	7.35e-04	0	58	0	729808896	53	5439
2026-01-22 00:19:14.19	347.99	39.26	-41.6	-44.8	11.3	1.30e-03	0	59	0	742391808	53	5598
2026-01-22 00:19:18.22	346.88	40.10	-41.3	-44.2	12.0	3.68e-04	0	58	0	754974720	53	5231
2026-01-22 00:19:22.26	345.70	40.94	-41.4	-44.3	11.8	4.22e-04	0	58	0	767557632	53	5302
2026-01-22 00:19:26.31	344.46	41.79	-41.4	-44.3	11.8	4.29e-04	0	58	0	780140544	53	5295
2026-01-22 00:19:30.35	343.15	42.65	-42.0	-45.4	10.7	2.58e-03	0	59	0	793772032	54	5663
2026-01-22 00:19:34.39	341.78	43.50	-41.7	-44.8	11.2	1.47e-03	0	58	0	805306368	54	5334
2026-01-22 00:19:38.43	340.32	44.36	-42.3	-45.9	10.1	6.06e-03	0	58	0	818937856	55	5715
2026-01-22 00:19:42.47	338.78	45.21	-41.8	-45.0	11.1	2.35e-03	0	59	0	831520768	55	5128
2026-01-22 00:19:46.51	337.16	46.06	-42.1	-45.4	10.7	3.57e-03	0	58	0	844103680	55	5394
2026-01-22 00:19:50.55	335.45	46.89	-42.0	-45.3	10.8	2.39e-03	0	58	0	856686592	55	5294
2026-01-22 00:19:54.59	333.64	47.72	-41.7	-44.8	11.4	1.03e-03	0	58	0	869269504	55	4984
2026-01-22 00:19:58.62	331.74	48.52	-41.7	-44.8	11.3	1.05e-03	0	59	0	881852416	55	5020
2026-01-22 00:20:02.66	329.74	49.30	-41.4	-44.2	11.9	4.20e-04	0	59	0	894435328	54	4983
2026-01-22 00:20:06.70	327.63	50.06	-41.6	-44.7	11.4	9.28e-04	0	59	0	907018240	54	5239
2026-01-22 00:20:10.74	325.41	50.79	-41.2	-43.9	12.2	2.18e-04	0	58	0	919601152	54	4809
2026-01-22 00:20:14.78	323.08	51.48	-40.8	-43.3	12.8	7.09e-05	0	59	0	932184064	53	4749
2026-01-22 00:20:18.82	320.65	52.13	-40.8	-43.4	12.8	6.63e-05	0	59	0	944766976	53	4795
2026-01-22 00:20:22.85	318.12	52.72	-40.6	-43.0	13.2	1.52e-05	0	59	0	957349888	52	4870
2026-01-22 00:20:26.89	315.48	53.27	-40.3	-42.6	13.5	1.06e-05	0	58	0	969932800	52	4620
2026-01-22 00:20:30.94	312.74	53.76	-40.6	-43.1	13.1	2.51e-05	0	59	0	982515712	52	4885
2026-01-22 00:20:34.98	309.92	54.18	-40.7	-43.2	12.9	7.09e-05	0	59	0	995098624	52	4983
2026-01-22 00:20:39.01	307.03	54.54	-40.3	-42.6	13.6	1.29e-05	0	58	0	1007681536	52	4619
2026-01-22 00:20:43.05	304.06	54.82	-40.1	-42.3	13.8	3.00e-06	0	59	0	1020264448	52	4456
2026-01-22 00:20:47.09	301.04	55.02	-40.6	-43.1	13.1	2.67e-05	0	58	0	1032847360	52	4884
2026-01-22 00:20:51.13	297.99	55.14	-40.2	-42.4	13.8	6.80e-06	0	59	0	1045430272	52	4513
2026-01-22 00:20:55.16	294.93	55.19	-40.1	-42.4	13.7	9.10e-06	0	58	0	1058013184	52	4497
2026-01-22 00:20:59.20	291.85	55.15	-40.5	-42.8	13.3	1.75e-05	0	59	0	1070596096	52	4756
2026-01-22 00:21:03.24	288.80	55.03	-40.3	-42.7	13.4	1.22e-05	0	58	0	1083179008	52	4655
2026-01-22 00:21:07.28	285.78	54.83	-40.6	-43.1	12.9	5.95e-05	0	59	0	1095761920	52	4923
2026-01-22 00:21:11.32	282.80	54.55	-40.5	-43.0	13.1	2.21e-05	0	59	0	1108344832	52	4831
2026-01-22 00:21:15.35	279.90	54.20	-40.2	-42.5	13.6	9.10e-06	0	58	0	1120927744	52	4555
2026-01-22 00:21:19.39	277.07	53.78	-40.4	-42.7	13.4	1.52e-05	0	58	0	1133510656	52	4686
2026-01-22 00:21:23.42	274.34	53.30	-40.0	-42.1	14.0	7.00e-07	0	59	0	1146093568	51	4646
2026-01-22 00:21:27.46	271.69	52.75	-40.6	-43.0	13.1	3.89e-05	0	59	0	1159725056	52	4829
2026-01-22 00:21:31.50	269.14	52.16	-40.4	-42.7	13.4	1.22e-05	0	59	0	1172307968	52	4676
2026-01-22 00:21:35.54	266.70	51.51	-40.6	-43.1	12.9	7.70e-05	0	59	0	1184890880	52	4885
2026-01-22 00:21:39.57	264.37	50.82	-40.5	-42.9	13.2	1.60e-05	0	58	0	1197473792	52	4786
2026-01-22 00:21:43.61	262.14	50.09	-41.1	-43.8	12.1	4.79e-04	0	58	0	1210056704	54	4744
2026-01-22 00:21:47.65	260.02	49.34	-41.7	-44.8	11.2	9.75e-04	0	58	0	1222639616	53	5601
2026-01-22 00:21:51.69	258.00	48.55	-41.3	-44.1	11.9	4.70e-04	0	59	0	1235222528	54	4925
2026-01-22 00:21:55.72	256.09	47.74	-42.3	-46.0	10.0	6.20e-03	0	59	0	1247805440	55	5741
2026-01-22 00:21:59.76	254.28	46.92	-40.7	-43.2	12.8	7.55e-05	0	59	0	1260388352	53	4675
2026-01-22 00:22:03.80	252.56	46.08	-42.2	-45.7	10.2	5.19e-03	0	59	0	1272971264	54	5896
2026-01-22 00:22:07.83	250.93	45.23	-41.4	-44.4	11.6	1.60e-03	0	58	0	1285554176	54	5044
2026-01-22 00:22:11.87	249.38	44.38	-42.2	-45.7	10.2	3.62e-03	0	59	0	1298137088	54	5877
2026-01-22 00:22:15.91	247.92	43.52	-41.9	-45.3	10.6	4.29e-03	0	59	0	1310720000	55	5290
2026-01-22 00:22:19.95	246.53	42.66	-40.7	-43.2	12.8	8.08e-05	0	59	0	1323302912	53	4698
2026-01-22 00:22:23.99	245.21	41.80	-41.9	-45.3	10.6	3.01e-03	0	59	0	1335885824	54	5616
2026-01-22 00:22:28.03	243.97	40.95	-41.4	-44.3	11.7	5.02e-04	0	59	0	1348468736	54	5003
2026-01-22 00:22:32.07	242.78	40.10	-41.3	-44.2	11.9	4.00e-04	0	59	0	1361051648	54	4929
2026-01-22 00:22:36.11	241.66	39.26	-41.1	-43.8	12.2	3.29e-04	0	59	0	1373634560	54	4730
2026-01-22 00:22:40.15	240.59	38.42	-40.4	-42.8	13.2	2.36e-05	0	59	0	1386217472	52	4719
2026-01-22 00:22:44.18	239.58	37.60	-41.8	-45.0	11.0	1.66e-03	0	58	0	1398800384	54	5424
2026-01-22 00:22:48.22	238.62	36.79	-41.3	-44.2	11.9	4.21e-04	0	59	0	1411383296	54	4928
2026-01-22 00:22:52.25	237.71	35.99	-40.8	-43.4	12.4	2.38e-04	0	59	0	1423966208	53	4800
2026-01-22 00:22:56.29	236.84	35.20	-41.2	-44.0	12.0	2.83e-04	0	59	0	1436549120	52	5449
2026-01-22 00:23:00.33	236.01	34.42	-41.1	-43.9	12.0	4.13e-04	0	59	0	1449132032	53	5051
2026-01-22 00:23:04.37	235.22	33.65	-40.1	-42.3	13.7	6.80e-06	0	58	0	1461714944	52	4477
2026-01-22 00:23:08.41	234.46	32.90	-40.8	-43.4	12.6	9.91e-05	0	58	0	1474297856	52	5076
2026-01-22 00:23:12.45	233.74	32.16	-40.6	-43.1	12.9	5.64e-05	0	59	0	1486880768	52	4882
2026-01-22 00:23:16.49	233.05	31.43	-40.6	-43.1	12.9	4.27e-05	0	59	0	1499463680	52	4882
2026-01-22 00:23:20.53	232.39	30.71	-40.5	-42.9	13.0	2.89e-05	0	59	0	1512046592	52	4809
2026-01-22 00:23:24.57	231.76	30.01	-40.2	-42.6	13.4	1.22e-05	0	58	0	1525678080	52	4622
2026-01-22 00:23:28.61	231.16	29.32	-40.2	-42.6	13.4	1.75e-05	0	59	0	1538260992	52	4617
2026-01-22 00:23:32.65	230.58	28.65	-40.1	-42.3	13.7	9.10e-06	0	59	0	1550843904	51	4739
2026-01-22 00:23:36.69	230.03	27.99	-39.7	-41.8	14.1	7.00e-07	0	58	0	1563426816	51	4486
2026-01-22 00:23:40.73	229.50	27.34	-39.7	-41.9	14.2	3.00e-06	0	59	0	1576009728	51	4497
2026-01-22 00:23:44.77	228.99	26.70	-39.9	-42.2	13.8	2.20e-06	0	59	0	1588592640	51	4678
2026-01-22 00:23:48.81	228.50	26.07	-40.1	-42.4	13.6	6.80e-06	0	59	0	1601175552	51	4770
2026-01-22 00:23:52.85	228.03	25.46	-39.7	-41.8	14.1	0.00e+00	0	58	0	1613758464	51	4485
2026-01-22 00:23:56.88	227.58	24.86	-39.6	-41.7	14.3	2.20e-06	0	58	0	1626341376	51	4428
2026-01-22 00:24:00.92	227.14	24.27	-39.4	-41.5	14.5	0.00e+00	0	58	0	1638924288	50	4567
2026-01-22 00:24:04.96	226.72	23.69	-39.6	-41.8	14.2	7.00e-07	0	58	0	1651507200	50	4709
2026-01-22 00:24:09.00	226.32	23.13	-39.7	-41.9	14.1	2.20e-06	0	58	0	1664090112	50	4778
2026-01-22 00:24:13.04	225.93	22.57	-39.9	-42.1	13.9	3.80e-06	0	58	0	1676673024	50	4885
2026-01-22 00:24:17.08	225.56	22.02	-40.1	-42.4	13.6	3.00e-06	0	59	0	1689255936	50	5075
2026-01-22 00:24:21.11	225.19	21.49	-40.2	-42.6	13.4	1.67e-05	0	59	0	1701838848	50	5172
2026-01-22 00:24:25.15	224.85	20.96	-39.9	-42.2	13.7	1.37e-05	0	59	0	1714421760	51	4680
2026-01-22 00:24:29.19	224.51	20.44	-39.7	-41.8	14.0	1.50e-06	0	58	0	1727004672	51	4475
2026-01-22 00:24:33.23	224.18	19.94	-39.5	-41.7	14.1	2.20e-06	0	58	0	1739587584	51	4395
2026-01-22 00:24:37.27	223.87	19.44	-39.5	-41.5	14.2	4.50e-06	0	58	0	1752170496	50	4597
2026-01-22 00:24:41.31	223.56	18.95	-39.5	-41.7	14.1	7.00e-07	0	58	0	1764753408	50	4665
2026-01-22 00:24:45.35	223.27	18.47	-39.7	-41.9	13.9	2.20e-06	0	58	0	1777336320	50	4761
2026-01-22 00:24:49.39	222.98	18.00	-39.8	-42.1	13.8	6.10e-06	0	59	0	1789919232	50	4871
2026-01-22 00:24:53.43	222.70	17.53	-40.0	-42.4	13.4	9.90e-06	0	58	0	1802502144	50	5057
2026-01-22 00:24:57.46	222.44	17.08	-40.2	-42.7	13.2	3.12e-05	0	58	0	1815085056	51	4935
2026-01-22 00:25:01.49	222.18	16.63	-40.4	-42.9	12.9	5.49e-05	0	58	0	1827667968	51	5061
2026-01-22 00:25:05.52	221.92	16.19	-40.5	-43.1	12.7	7.78e-05	0	58	0	1840250880	51	5176
2026-01-22 00:25:09.56	221.68	15.76	-40.4	-43.0	12.7	7.32e-05	0	58	0	1852833792	51	5127
2026-01-22 00:25:13.60	221.44	15.33	-40.4	-43.0	12.7	7.17e-05	0	58	0	1865416704	51	5117
2026-01-22 00:25:17.63	221.21	14.91	-40.3	-42.9	12.8	5.64e-05	0	59	0	1877999616	51	5047
2026-01-22 00:25:21.67	220.99	14.50	-40.2	-42.7	12.9	4.27e-05	0	58	0	1891631104	51	4955
2026-01-22 00:25:25.71	220.77	14.09	-40.2	-42.7	12.9	4.34e-05	0	58	0	1904214016	51	4962
2026-01-22 00:25:29.75	220.56	13.69	-40.2	-42.7	12.9	5.11e-05	0	58	0	1916796928	51	4948
2026-01-22 00:25:33.79	220.35	13.30	-40.1	-42.6	12.9	5.03e-05	0	58	0	1929379840	51	4914
2026-01-22 00:25:37.83	220.15	12.91	-40.1	-42.6	13.0	4.50e-05	0	58	0	1941962752	51	4872
2026-01-22 00:25:41.87	219.96	12.53	-40.2	-42.7	12.8	6.71e-05	0	58	0	1954545664	51	4956
2026-01-22 00:25:45.91	219.77	12.15	-40.3	-42.8	12.6	8.31e-05	0	58	0	1967128576	51	5040
2026-01-22 00:25:49.95	219.58	11.78	-40.3	-42.9	12.5	1.22e-04	0	58	0	1979711488	51	5076
2026-01-22 00:25:53.99	219.40	11.41	-40.4	-43.1	12.3	2.11e-04	0	58	0	1992294400	51	5196
2026-01-22 00:25:58.02	219.23	11.05	-40.5	-43.3	12.1	2.64e-04	0	58	0	2004877312	51	5303
2026-01-22 00:26:02.07	219.06	10.70	-40.5	-43.4	12.0	3.57e-04	0	58	0	2017460224	51	5345
2026-01-22 00:26:06.10	218.89	10.35	-40.6	-43.6	11.6	6.74e-04	0	58	0	2030043136	52	5169
2026-01-22 00:26:10.15	218.73	10.00	-40.5	-43.5	11.7	6.27e-04	0	58	0	2042626048	52	5120
2026-01-22 00:26:14.18	218.57	9.66	-40.7	-43.7	11.4	9.08e-04	0	59	0	2055208960	52	5266
2026-01-22 00:26:18.22	218.42	9.32	-40.6	-43.7	11.4	9.65e-04	0	58	0	2067791872	52	5221
2026-01-22 00:26:22.25	218.27	8.99	-40.7	-43.8	11.2	1.29e-03	0	58	0	2080374784	52	5311
2026-01-22 00:26:26.29	218.12	8.66	-40.8	-44.0	11.0	1.69e-03	0	58	0	2092957696	52	5452
2026-01-22 00:26:30.33	217.98	8.33	-40.8	-44.0	10.9	1.82e-03	0	58	0	2105540608	52	5433
2026-01-22 00:26:34.37	217.84	8.01	-41.0	-44.5	10.4	3.10e-03	0	58	0	2118123520	52	5784
2026-01-22 00:26:38.41	217.70	7.70	-45.1	-57.6	3.8	1.49e+00	0	58	104	2120220672	60	16396
2026-01-22 00:26:42.45	217.57	7.38	-45.4	-57.8	3.8	1.49e+00	0	58	104	2120220672	61	15764
2026-01-22 00:26:46.49	217.44	7.07	-45.3	-57.6	3.8	1.49e+00	0	58	104	2120220672	61	15580
2026-01-22 00:26:50.53	217.31	6.77	-45.3	-57.6	3.8	1.49e+00	0	58	104	2120220672	61	15496
2026-01-22 00:26:54.57	217.18	6.46	-45.2	-57.6	3.8	1.49e+00	0	58	104	2120220672	61	15507
2026-01-22 00:26:58.61	217.06	6.16	-45.2	-57.5	3.8	1.49e+00	0	59	104	2120220672	61	15384
2026-01-22 00:27:02.64	216.94	5.87	-45.2	-57.6	3.8	1.49e+00	0	59	104	2120220672	61	15492
2026-01-22 00:27:06.68	216.83	5.58	-45.2	-57.6	3.8	1.49e+00	0	59	104	2120220672	61	15408
2026-01-22 00:27:10.73	216.71	5.28	-45.2	-57.5	3.8	1.49e+00	0	59	104	2120220672	61	15370
2026-01-22 00:27:14.77	216.60	5.00	-45.2	-57.6	3.8	1.49e+00	0	59	104	2120220672	61	15404
2026-01-22 00:27:18.81	216.49	4.71	-45.2	-57.5	3.8	1.49e+00	0	59	104	2120220672	61	15355
2026-01-22 00:27:22.85	216.38	4.43	-45.2	-57.5	3.8	1.49e+00	0	59	104	2120220672	61	15378
2026-01-22 00:27:26.89	216.28	4.16	-45.2	-57.5	3.8	1.49e+00	0	58	104	2120220672	61	15370
2026-01-22 00:27:30.94	216.17	3.88	-45.2	-57.5	3.8	1.49e+00	0	59	104	2120220672	61	15337
2026-01-22 00:27:34.98	216.07	3.61	-45.2	-57.6	3.8	1.49e+00	0	59	104	2120220672	61	15438
2026-01-22 00:27:39.02	215.97	3.34	-45.1	-57.5	3.8	1.49e+00	0	59	104	2120220672	61	15399
2026-01-22 00:27:43.06	215.88	3.07	-45.1	-57.5	3.8	1.49e+00	0	58	104	2120220672	61	15285
2026-01-22 00:27:47.11	215.78	2.80	-45.1	-57.5	3.8	1.49e+00	0	59	104	2120220672	61	15271
2026-01-22 00:27:51.15	215.69	2.54	-45.1	-57.5	3.8	1.49e+00	0	59	104	2120220672	61	15375
2026-01-22 00:27:55.19	215.60	2.28	-45.1	-57.5	3.8	1.49e+00	0	59	104	2120220672	61	15344
2026-01-22 00:27:59.23	215.51	2.02	-45.1	-57.5	3.8	1.49e+00	0	58	104	2120220672	61	15272

#Closed at: 2026-01-22 00:27:59
#Recorded file [2120 MB]: D:/lorett/data/31039_260122_031350.dat