passes_logs/2026/01/22/R2.0S_Moscow/R2.0S_Moscow__20260122_000126_FENGYUN_3D_rec.log

#Pass ID: 20260122_000126_FENGYUN 3D
#Satellite: FENGYUN 3D
#Configuration: FENGYUN 3D
#almurnet v.1.7.20251203
#Start time: 2026-01-22 00:01:26

#Version: 2.2.20231116
#Station: R2.0S_Moscow
#Location: 37.707566 lon 55.798166 lat
#TLE: 1 43010U 17072A   26021.48744220  .00000253  00000+0  14133-3 0  9991
#TLE: 2 43010  98.9948 353.4037 0002485  97.2578 262.8880 14.19697766424177

#Time	Az	El	Level	Level2	SNR	BER	BlckErr	Temp	State	Recorded	gain1	gain2
2026-01-22 00:01:26.27	27.91	1.99	-43.0	-54.6	3.8	8.47e-01	0	48	0	0	58	13001
2026-01-22 00:01:29.30	28.16	2.15	-43.0	-54.6	3.8	8.46e-01	0	49	104	0	57	13727
2026-01-22 00:01:32.33	28.41	2.30	-43.0	-54.5	3.8	8.47e-01	0	49	104	0	57	13674
2026-01-22 00:01:35.36	28.67	2.46	-43.0	-54.5	3.8	8.45e-01	0	49	104	0	57	13689
2026-01-22 00:01:38.39	28.92	2.62	-43.0	-54.5	3.8	8.45e-01	0	49	104	0	57	13675
2026-01-22 00:01:41.42	29.18	2.77	-43.0	-54.5	3.8	8.46e-01	0	50	104	0	57	13676
2026-01-22 00:01:44.45	29.45	2.93	-43.0	-54.5	3.8	8.47e-01	0	50	104	0	57	13626
2026-01-22 00:01:47.48	29.71	3.09	-43.0	-54.5	3.8	8.46e-01	0	50	104	0	57	13660
2026-01-22 00:01:50.51	29.98	3.24	-43.0	-54.5	3.8	8.47e-01	0	50	104	0	57	13710
2026-01-22 00:01:53.54	30.25	3.40	-43.0	-54.5	3.8	8.46e-01	0	50	104	0	57	13675
2026-01-22 00:01:56.57	30.52	3.56	-43.0	-54.5	3.8	8.45e-01	0	51	104	0	57	13680
2026-01-22 00:01:59.61	30.80	3.72	-43.0	-54.5	3.8	8.45e-01	0	51	104	0	57	13683
2026-01-22 00:02:02.64	31.08	3.88	-43.0	-54.6	3.8	8.46e-01	0	51	104	0	57	13728
2026-01-22 00:02:05.67	31.36	4.04	-43.0	-54.5	3.8	8.46e-01	0	51	104	0	57	13717
2026-01-22 00:02:08.70	31.64	4.20	-43.0	-54.6	3.8	8.46e-01	0	51	104	0	57	13744
2026-01-22 00:02:11.73	31.93	4.36	-43.0	-54.5	3.8	8.47e-01	0	52	104	0	57	13701
2026-01-22 00:02:14.76	32.22	4.52	-43.0	-54.5	3.8	8.46e-01	0	52	104	0	57	13679
2026-01-22 00:02:17.79	32.51	4.68	-43.0	-54.5	3.8	8.46e-01	0	52	104	0	57	13680
2026-01-22 00:02:20.82	32.81	4.84	-43.0	-54.5	3.8	8.46e-01	0	52	104	0	57	13658
2026-01-22 00:02:23.86	33.11	5.01	-43.0	-54.5	3.8	8.47e-01	0	52	104	0	57	13640
2026-01-22 00:02:26.89	33.41	5.17	-43.0	-54.5	3.8	8.46e-01	0	52	104	0	57	13650
2026-01-22 00:02:29.92	33.72	5.33	-43.0	-54.5	3.8	8.46e-01	0	53	104	0	57	13677
2026-01-22 00:02:32.95	34.03	5.50	-43.0	-54.5	3.8	8.46e-01	0	53	104	0	57	13633
2026-01-22 00:02:35.98	34.34	5.66	-43.0	-54.5	3.8	8.46e-01	0	53	104	0	57	13629
2026-01-22 00:02:39.01	34.66	5.82	-43.0	-54.5	3.8	8.46e-01	0	53	104	0	57	13720
2026-01-22 00:02:42.05	34.98	5.99	-43.0	-54.5	3.8	8.47e-01	0	53	104	0	57	13682
2026-01-22 00:02:45.08	35.30	6.15	-43.0	-54.5	3.8	8.46e-01	0	53	104	0	57	13611
2026-01-22 00:02:48.11	35.63	6.32	-43.0	-54.5	3.8	8.47e-01	0	53	104	0	57	13658
2026-01-22 00:02:51.14	35.96	6.48	-43.0	-54.5	3.8	8.46e-01	0	53	104	0	57	13644
2026-01-22 00:02:54.17	36.29	6.65	-43.0	-54.5	3.8	8.46e-01	0	54	104	0	57	13645
2026-01-22 00:02:57.20	36.63	6.81	-43.0	-54.5	3.8	8.46e-01	0	54	104	0	57	13654
2026-01-22 00:03:00.23	36.97	6.98	-42.9	-54.2	3.8	8.48e-01	0	54	104	0	57	13217
2026-01-22 00:03:03.26	37.31	7.15	-42.9	-54.2	3.8	8.47e-01	0	54	104	0	57	13202
2026-01-22 00:03:06.30	37.66	7.31	-42.9	-53.6	3.8	8.46e-01	0	54	104	0	57	12374
2026-01-22 00:03:09.33	38.01	7.48	-43.0	-54.4	3.8	8.47e-01	0	54	104	0	57	13538
2026-01-22 00:03:12.36	38.37	7.65	-42.6	-51.4	4.1	8.43e-01	0	54	104	0	57	9533
2026-01-22 00:03:15.39	38.73	7.81	-40.0	-43.5	9.6	2.73e-02	0	55	0	9437184	51	5444
2026-01-22 00:03:18.42	39.10	7.98	-39.8	-43.0	10.1	5.61e-03	0	55	0	27262976	50	5459
2026-01-22 00:03:21.45	39.46	8.15	-40.0	-43.4	9.8	1.22e-01	0	55	0	44040192	52	5055
2026-01-22 00:03:24.47	39.84	8.31	-40.4	-43.9	9.8	4.77e-02	0	55	0	53477376	52	5350
2026-01-22 00:03:27.48	40.21	8.48	-39.3	-42.1	11.7	7.68e-04	0	55	0	70254592	50	4884
2026-01-22 00:03:30.49	40.59	8.65	-39.4	-42.1	11.8	6.66e-04	0	55	0	87031808	50	4910
2026-01-22 00:03:33.52	40.97	8.81	-39.4	-42.0	12.0	4.70e-04	0	55	0	103809024	50	4853
2026-01-22 00:03:36.54	41.36	8.98	-39.5	-42.2	12.0	5.33e-04	0	55	0	121634816	50	4942
2026-01-22 00:03:39.58	41.75	9.15	-39.7	-42.4	11.7	8.07e-04	0	55	0	138412032	50	5079
2026-01-22 00:03:42.60	42.15	9.32	-39.7	-42.5	11.6	9.44e-04	0	55	0	155189248	50	5135
2026-01-22 00:03:45.63	42.55	9.48	-39.7	-42.3	12.0	4.75e-04	0	55	0	171966464	50	5008
2026-01-22 00:03:48.66	42.96	9.65	-39.4	-41.8	12.6	1.92e-04	0	55	0	189792256	50	4742
2026-01-22 00:03:51.69	43.37	9.82	-39.3	-41.7	12.8	9.26e-05	0	55	0	206569472	50	4693
2026-01-22 00:03:54.72	43.79	9.99	-39.2	-41.6	12.9	7.78e-05	0	55	0	223346688	50	4604
2026-01-22 00:03:57.75	44.21	10.15	-39.1	-41.4	13.1	3.54e-05	0	55	0	240123904	50	4520
2026-01-22 00:04:00.78	44.63	10.32	-39.0	-41.3	13.3	3.66e-05	0	55	0	257949696	49	4748
2026-01-22 00:04:03.80	45.06	10.48	-39.1	-41.4	13.1	4.57e-05	0	55	0	274726912	49	4807
2026-01-22 00:04:06.83	45.50	10.65	-39.1	-41.3	13.3	2.86e-05	0	56	0	291504128	49	4732
2026-01-22 00:04:09.86	45.94	10.82	-38.9	-41.1	13.6	6.80e-06	0	56	0	308281344	49	4609
2026-01-22 00:04:12.89	46.38	10.98	-38.9	-41.1	13.5	1.60e-05	0	56	0	326107136	49	4641
2026-01-22 00:04:15.92	46.83	11.15	-39.0	-41.2	13.6	1.94e-05	0	56	0	342884352	49	4652
2026-01-22 00:04:18.94	47.28	11.31	-39.1	-41.3	13.4	3.54e-05	0	56	0	359661568	49	4738
2026-01-22 00:04:21.97	47.74	11.48	-39.1	-41.3	13.4	2.05e-05	0	56	0	376438784	49	4741
2026-01-22 00:04:25.00	48.21	11.64	-39.1	-41.3	13.4	2.17e-05	0	56	0	394264576	49	4730
2026-01-22 00:04:28.02	48.67	11.80	-38.9	-41.1	13.6	1.02e-05	0	56	0	411041792	49	4628
2026-01-22 00:04:31.05	49.15	11.96	-38.8	-40.9	13.9	4.50e-06	0	56	0	427819008	49	4496
2026-01-22 00:04:34.08	49.63	12.13	-38.7	-40.8	14.0	5.70e-06	0	56	0	444596224	49	4447
2026-01-22 00:04:37.10	50.11	12.29	-38.7	-40.7	14.1	5.70e-06	0	56	0	461373440	49	4427
2026-01-22 00:04:40.13	50.60	12.45	-38.7	-40.8	14.0	1.10e-06	0	56	0	479199232	49	4461
2026-01-22 00:04:43.16	51.10	12.61	-38.7	-40.7	14.1	6.80e-06	0	56	0	495976448	49	4430
2026-01-22 00:04:46.19	51.60	12.77	-38.8	-40.8	14.0	2.20e-06	0	56	0	512753664	49	4489
2026-01-22 00:04:49.22	52.10	12.92	-38.6	-40.6	14.3	2.20e-06	0	56	0	529530880	49	4362
2026-01-22 00:04:52.24	52.61	13.08	-38.5	-40.6	14.3	1.10e-06	0	56	0	547356672	49	4341
2026-01-22 00:04:55.27	53.13	13.23	-38.6	-40.6	14.3	4.50e-06	0	56	0	564133888	49	4363
2026-01-22 00:04:58.30	53.65	13.39	-38.5	-40.5	14.4	0.00e+00	0	56	0	580911104	49	4309
2026-01-22 00:05:01.33	54.18	13.54	-38.5	-40.5	14.4	1.10e-06	0	57	0	598736896	48	4588
2026-01-22 00:05:04.36	54.71	13.69	-38.4	-40.5	14.3	2.20e-06	0	57	0	615514112	48	4560
2026-01-22 00:05:07.38	55.24	13.84	-38.3	-40.3	14.4	0.00e+00	0	57	0	632291328	48	4479
2026-01-22 00:05:10.41	55.79	13.99	-38.1	-40.1	14.7	0.00e+00	0	56	0	649068544	48	4344
2026-01-22 00:05:13.44	56.33	14.14	-38.0	-40.0	14.7	1.10e-06	0	57	0	665845760	47	4547
2026-01-22 00:05:16.47	56.89	14.29	-38.1	-40.1	14.6	1.10e-06	0	57	0	683671552	47	4618
2026-01-22 00:05:19.50	57.45	14.43	-38.1	-40.1	14.5	1.10e-06	0	57	0	700448768	47	4646
2026-01-22 00:05:22.53	58.01	14.58	-38.0	-40.0	14.6	1.10e-06	0	57	0	717225984	47	4568
2026-01-22 00:05:25.55	58.58	14.72	-38.0	-40.0	14.6	0.00e+00	0	57	0	734003200	47	4581
2026-01-22 00:05:28.58	59.15	14.86	-37.9	-39.9	14.7	1.10e-06	0	57	0	751828992	47	4533
2026-01-22 00:05:31.61	59.73	14.99	-38.1	-40.2	14.4	2.20e-06	0	57	0	768606208	47	4690
2026-01-22 00:05:34.64	60.32	15.13	-38.0	-40.1	14.5	0.00e+00	0	57	0	785383424	47	4639
2026-01-22 00:05:37.66	60.91	15.26	-37.8	-39.8	14.8	0.00e+00	0	57	0	802160640	47	4450
2026-01-22 00:05:40.69	61.50	15.39	-37.9	-39.9	14.6	0.00e+00	0	57	0	819986432	47	4513
2026-01-22 00:05:43.72	62.10	15.52	-37.8	-39.9	14.7	0.00e+00	0	57	0	836763648	47	4504
2026-01-22 00:05:46.74	62.71	15.65	-37.8	-39.8	14.7	0.00e+00	0	57	0	853540864	47	4466
2026-01-22 00:05:49.77	63.32	15.77	-37.6	-39.6	14.9	0.00e+00	0	57	0	870318080	47	4343
2026-01-22 00:05:52.80	63.93	15.90	-37.7	-39.6	14.9	0.00e+00	0	57	0	888143872	47	4385
2026-01-22 00:05:55.82	64.55	16.02	-37.7	-39.7	14.7	0.00e+00	0	57	0	904921088	47	4423
2026-01-22 00:05:58.85	65.18	16.13	-37.6	-39.6	14.8	0.00e+00	0	57	0	921698304	47	4356
2026-01-22 00:06:01.88	65.81	16.25	-37.7	-39.8	14.5	1.10e-06	0	57	0	938475520	47	4443
2026-01-22 00:06:04.91	66.44	16.36	-37.8	-39.9	14.3	1.10e-06	0	57	0	955252736	47	4514
2026-01-22 00:06:07.94	67.08	16.47	-37.7	-39.9	14.1	0.00e+00	0	57	0	973078528	47	4510
2026-01-22 00:06:10.96	67.72	16.57	-38.1	-40.5	13.3	2.63e-05	0	57	0	989855744	47	4830
2026-01-22 00:06:13.99	68.37	16.68	-38.2	-40.7	12.9	8.12e-05	0	57	0	1006632960	47	4972
2026-01-22 00:06:17.02	69.02	16.78	-38.2	-40.7	12.6	1.29e-04	0	57	0	1023410176	47	4978
2026-01-22 00:06:20.05	69.68	16.87	-38.4	-41.2	11.9	5.45e-04	0	57	0	1041235968	47	5267
2026-01-22 00:06:23.08	70.34	16.97	-38.6	-41.7	11.1	1.83e-03	0	57	0	1058013184	47	5538
2026-01-22 00:06:26.10	71.00	17.06	-38.9	-42.3	10.2	6.80e-03	0	57	0	1074790400	48	5638
2026-01-22 00:06:29.13	71.67	17.14	-39.2	-42.9	9.5	1.72e-02	0	57	0	1092616192	48	6037
2026-01-22 00:06:32.16	72.35	17.23	-39.1	-42.9	9.3	1.99e-02	0	57	0	1109393408	48	6032
2026-01-22 00:06:35.19	73.02	17.31	-39.2	-43.0	9.1	2.55e-02	0	57	0	1126170624	48	6117
2026-01-22 00:06:38.22	73.70	17.38	-39.4	-43.4	8.8	3.85e-02	0	57	0	1142947840	49	6023
2026-01-22 00:06:41.24	74.38	17.45	-39.3	-43.1	9.3	2.53e-02	0	57	0	1159725056	49	5819
2026-01-22 00:06:44.27	75.07	17.52	-39.1	-42.6	9.9	1.40e-02	0	57	0	1177550848	49	5484
2026-01-22 00:06:47.30	75.76	17.59	-38.7	-42.0	10.5	5.63e-03	0	57	0	1194328064	49	5116
2026-01-22 00:06:50.33	76.45	17.65	-38.4	-41.3	11.2	1.86e-03	0	57	0	1211105280	48	5040
2026-01-22 00:06:53.36	77.15	17.71	-38.8	-41.9	10.7	4.25e-03	0	58	0	1227882496	48	5381
2026-01-22 00:06:56.38	77.84	17.76	-38.7	-41.8	10.9	3.00e-03	0	58	0	1245708288	48	5309
2026-01-22 00:06:59.41	78.54	17.81	-38.5	-41.5	11.2	1.98e-03	0	58	0	1262485504	48	5155
2026-01-22 00:07:02.44	79.24	17.85	-38.9	-42.1	10.6	4.58e-03	0	57	0	1279262720	48	5493
2026-01-22 00:07:05.47	79.95	17.90	-38.8	-42.1	10.6	4.50e-03	0	57	0	1296039936	48	5469
2026-01-22 00:07:08.50	80.65	17.93	-38.2	-40.8	12.3	4.31e-04	0	58	0	1313865728	48	4744
2026-01-22 00:07:11.53	81.36	17.97	-38.0	-40.4	13.0	6.29e-05	0	58	0	1330642944	47	4778
2026-01-22 00:07:14.56	82.07	17.99	-37.9	-40.3	13.1	5.03e-05	0	58	0	1347420160	47	4735
2026-01-22 00:07:17.58	82.78	18.02	-37.8	-40.0	13.5	1.25e-05	0	58	0	1364197376	47	4587
2026-01-22 00:07:20.61	83.49	18.04	-38.2	-40.6	13.0	5.03e-05	0	58	0	1382023168	47	4917
2026-01-22 00:07:23.64	84.20	18.06	-38.0	-40.5	13.0	6.40e-05	0	57	0	1398800384	47	4818
2026-01-22 00:07:26.67	84.91	18.07	-38.0	-40.6	12.6	1.48e-04	0	58	0	1415577600	47	4918
2026-01-22 00:07:29.70	85.63	18.08	-38.4	-41.0	12.2	2.72e-04	0	58	0	1432354816	47	5156
2026-01-22 00:07:32.73	86.34	18.08	-38.3	-40.8	12.5	2.14e-04	0	58	0	1450180608	47	5041
2026-01-22 00:07:35.76	87.06	18.08	-38.4	-41.1	12.2	3.60e-04	0	58	0	1466957824	47	5185
2026-01-22 00:07:38.79	87.77	18.07	-38.3	-40.8	12.7	1.58e-04	0	58	0	1483735040	47	5038
2026-01-22 00:07:41.82	88.48	18.06	-37.8	-40.0	13.8	3.40e-06	0	58	0	1500512256	47	4570
2026-01-22 00:07:44.85	89.20	18.05	-37.4	-39.5	14.3	2.20e-06	0	58	0	1518338048	46	4562
2026-01-22 00:07:47.88	89.91	18.03	-37.4	-39.5	14.5	1.10e-06	0	57	0	1535115264	46	4575
2026-01-22 00:07:50.91	90.62	18.01	-37.5	-39.5	14.7	0.00e+00	0	58	0	1551892480	46	4568
2026-01-22 00:07:53.94	91.33	17.98	-37.5	-39.5	14.8	0.00e+00	0	58	0	1568669696	46	4556
2026-01-22 00:07:56.97	92.04	17.95	-37.4	-39.3	15.1	0.00e+00	0	58	0	1586495488	46	4475
2026-01-22 00:08:00.00	92.75	17.92	-37.5	-39.4	15.2	0.00e+00	0	58	0	1603272704	46	4534
2026-01-22 00:08:03.03	93.45	17.88	-37.6	-39.6	15.1	0.00e+00	0	58	0	1620049920	46	4600
2026-01-22 00:08:06.06	94.16	17.83	-37.7	-39.7	15.0	0.00e+00	0	58	0	1636827136	46	4701
2026-01-22 00:08:09.09	94.86	17.79	-37.4	-39.3	15.4	0.00e+00	0	58	0	1654652928	46	4480
2026-01-22 00:08:12.12	95.56	17.73	-37.4	-39.3	15.5	0.00e+00	0	58	0	1671430144	46	4444
2026-01-22 00:08:15.15	96.26	17.68	-37.4	-39.3	15.4	0.00e+00	0	58	0	1688207360	46	4468
2026-01-22 00:08:18.18	96.95	17.62	-37.4	-39.3	15.5	0.00e+00	0	58	0	1706033152	46	4444
2026-01-22 00:08:21.21	97.64	17.56	-37.6	-39.5	15.2	0.00e+00	0	58	0	1722810368	46	4571
2026-01-22 00:08:24.25	98.34	17.49	-37.7	-39.6	15.1	0.00e+00	0	58	0	1739587584	46	4645
2026-01-22 00:08:27.27	99.02	17.42	-37.6	-39.6	15.2	0.00e+00	0	58	0	1756364800	46	4604
2026-01-22 00:08:30.31	99.71	17.34	-37.5	-39.4	15.3	0.00e+00	0	58	0	1773142016	46	4523
2026-01-22 00:08:33.34	100.39	17.26	-37.5	-39.4	15.4	0.00e+00	0	58	0	1790967808	46	4509
2026-01-22 00:08:36.37	101.06	17.18	-37.6	-39.6	15.2	0.00e+00	0	58	0	1807745024	46	4622
2026-01-22 00:08:39.40	101.73	17.10	-37.7	-39.7	15.1	0.00e+00	0	58	0	1824522240	46	4677
2026-01-22 00:08:42.43	102.40	17.01	-37.6	-39.5	15.2	0.00e+00	0	58	0	1842348032	46	4598
2026-01-22 00:08:45.46	103.07	16.92	-37.7	-39.6	15.2	1.10e-06	0	58	0	1859125248	46	4633
2026-01-22 00:08:48.50	103.73	16.82	-37.8	-39.7	15.0	0.00e+00	0	58	0	1875902464	46	4698
2026-01-22 00:08:51.53	104.39	16.72	-37.8	-39.7	15.0	0.00e+00	0	58	0	1892679680	46	4694
2026-01-22 00:08:54.56	105.04	16.62	-37.8	-39.8	14.9	1.10e-06	0	58	0	1910505472	46	4759
2026-01-22 00:08:57.59	105.69	16.52	-38.0	-40.1	14.7	1.10e-06	0	58	0	1927282688	46	4886
2026-01-22 00:09:00.62	106.34	16.41	-37.9	-39.9	14.8	0.00e+00	0	58	0	1944059904	46	4811
2026-01-22 00:09:03.65	106.97	16.30	-37.9	-39.9	14.8	0.00e+00	0	58	0	1960837120	46	4811
2026-01-22 00:09:06.68	107.61	16.18	-38.0	-40.1	14.7	0.00e+00	0	58	0	1978662912	46	4873
2026-01-22 00:09:09.71	108.24	16.07	-38.0	-40.0	14.7	0.00e+00	0	58	0	1995440128	46	4846
2026-01-22 00:09:12.74	108.87	15.95	-37.9	-39.9	14.8	0.00e+00	0	58	0	2012217344	46	4796
2026-01-22 00:09:15.77	109.49	15.83	-37.9	-40.0	14.8	1.10e-06	0	58	0	2030043136	46	4845
2026-01-22 00:09:18.80	110.10	15.70	-37.9	-40.0	14.8	0.00e+00	0	58	0	2046820352	46	4827
2026-01-22 00:09:21.84	110.71	15.57	-38.0	-40.0	14.7	0.00e+00	0	58	0	2063597568	46	4869
2026-01-22 00:09:24.86	111.32	15.45	-38.0	-40.0	14.7	1.10e-06	0	58	0	2080374784	46	4862
2026-01-22 00:09:27.89	111.92	15.31	-37.8	-39.8	14.9	0.00e+00	0	58	0	2097152000	46	4740
2026-01-22 00:09:30.92	112.51	15.18	-38.1	-40.2	14.5	1.10e-06	0	58	0	2114977792	46	4954
2026-01-22 00:09:33.95	113.10	15.04	-38.3	-40.5	14.2	1.10e-06	0	58	0	2131755008	47	4837
2026-01-22 00:09:36.98	113.69	14.91	-38.2	-40.4	14.3	2.20e-06	0	58	0	2148532224	47	4781
2026-01-22 00:09:40.01	114.27	14.77	-38.3	-40.5	14.2	1.10e-06	0	58	0	2165309440	47	4830
2026-01-22 00:09:43.05	114.84	14.62	-38.2	-40.3	14.4	0.00e+00	0	58	0	2183135232	47	4724
2026-01-22 00:09:46.08	115.41	14.48	-38.1	-40.1	14.5	0.00e+00	0	58	0	2199912448	47	4639
2026-01-22 00:09:49.11	115.98	14.34	-38.3	-40.4	14.2	5.70e-06	0	58	0	2216689664	47	4809
2026-01-22 00:09:52.14	116.54	14.19	-38.4	-40.6	14.0	1.48e-05	0	58	0	2234515456	47	4890
2026-01-22 00:09:55.17	117.09	14.04	-38.5	-40.8	13.9	4.92e-05	0	58	0	2251292672	47	4987
2026-01-22 00:09:58.20	117.64	13.89	-38.5	-40.8	13.8	9.61e-05	0	58	0	2268069888	47	4985
2026-01-22 00:10:01.24	118.18	13.74	-38.9	-41.2	13.4	1.20e-04	0	58	0	2284847104	48	4942
2026-01-22 00:10:04.27	118.72	13.59	-38.7	-41.0	13.5	2.51e-03	0	58	0	2301624320	47	5144
2026-01-22 00:10:07.30	119.25	13.43	-38.5	-40.7	13.7	2.46e-04	0	58	0	2319450112	47	4975
2026-01-22 00:10:10.33	119.78	13.28	-38.4	-40.6	13.6	3.60e-04	0	58	0	2336227328	47	4905
2026-01-22 00:10:13.36	120.30	13.12	-38.4	-40.7	13.7	4.71e-04	0	58	0	2353004544	47	4959
2026-01-22 00:10:16.39	120.81	12.96	-38.0	-40.6	13.6	3.46e-03	0	58	0	2370830336	47	4872
2026-01-22 00:10:19.42	121.32	12.80	-38.1	-40.6	12.9	1.03e-03	0	58	0	2387607552	46	5168
2026-01-22 00:10:22.45	121.83	12.64	-38.3	-40.7	13.3	2.37e-03	0	58	0	2404384768	47	4968
2026-01-22 00:10:25.48	122.33	12.48	-37.4	-40.9	11.7	2.82e-02	0	58	0	2421161984	45	5672
2026-01-22 00:10:28.51	122.82	12.32	-38.9	-41.4	12.6	1.10e-02	0	58	0	2438987776	48	5068
2026-01-22 00:10:31.55	123.31	12.16	-35.1	-41.4	11.8	4.63e-02	0	58	0	2455764992	43	6751
2026-01-22 00:10:34.58	123.79	12.00	-35.0	-41.1	11.9	6.68e-02	0	58	0	2471493632	43	6520
2026-01-22 00:10:37.61	124.27	11.83	-33.5	-40.7	10.1	7.28e-02	0	58	0	2488270848	37	8861
2026-01-22 00:10:40.64	124.75	11.67	-38.0	-41.3	11.2	7.98e-02	0	58	0	2503999488	46	5635
2026-01-22 00:10:43.67	125.21	11.50	-36.7	-40.9	10.7	1.29e-01	0	58	0	2519728128	43	6351
2026-01-22 00:10:46.70	125.68	11.34	-34.0	-40.9	9.3	2.30e-01	0	58	0	2535456768	40	7554
2026-01-22 00:10:49.73	126.14	11.17	-31.4	-39.7	7.9	4.54e-01	0	58	0	2546991104	30	11688
2026-01-22 00:10:52.76	126.59	11.00	-32.4	-39.9	7.7	5.08e-01	0	58	0	2555379712	33	10144
2026-01-22 00:10:55.79	127.04	10.84	-26.3	-38.3	7.7	5.78e-01	0	58	0	2560622592	26	12551
2026-01-22 00:10:58.82	127.48	10.67	-26.3	-37.4	5.2	7.45e-01	0	58	104	2563768320	22	14212
2026-01-22 00:11:01.85	127.92	10.50	-23.3	-36.4	4.9	8.14e-01	0	58	104	2563768320	19	15081
2026-01-22 00:11:04.88	128.35	10.33	-22.3	-35.1	3.8	8.11e-01	0	58	104	2563768320	17	14670
2026-01-22 00:11:07.91	128.78	10.17	-22.9	-37.6	3.9	7.96e-01	0	58	104	2563768320	17	19545
2026-01-22 00:11:10.94	129.20	10.00	-24.4	-37.7	3.1	7.99e-01	0	58	104	2563768320	17	19722
2026-01-22 00:11:13.97	129.62	9.83	-22.8	-36.0	3.3	7.83e-01	0	58	104	2563768320	15	18199
2026-01-22 00:11:17.00	130.04	9.66	-24.3	-36.6	3.3	7.64e-01	0	58	0	2563768320	18	16363
2026-01-22 00:11:20.03	130.45	9.49	-25.2	-39.1	3.7	7.76e-01	0	58	104	2563768320	19	20698
2026-01-22 00:11:23.06	130.85	9.32	-19.4	-34.0	3.4	7.93e-01	0	58	104	2563768320	8	21652
2026-01-22 00:11:26.09	131.25	9.15	-21.0	-35.2	3.3	7.81e-01	0	58	104	2563768320	14	17543
2026-01-22 00:11:29.11	131.65	8.98	-22.5	-35.7	3.3	8.04e-01	0	58	104	2563768320	14	18543
2026-01-22 00:11:32.14	132.04	8.81	-25.4	-37.7	3.3	7.72e-01	0	58	104	2563768320	16	20785
2026-01-22 00:11:35.17	132.43	8.64	-24.9	-37.8	3.5	7.71e-01	0	58	104	2563768320	18	18902
2026-01-22 00:11:38.20	132.81	8.47	-30.0	-42.6	4.2	7.87e-01	0	58	104	2563768320	25	21764
2026-01-22 00:11:41.22	133.19	8.30	-29.0	-43.9	4.2	8.02e-01	0	58	104	2563768320	30	18996
2026-01-22 00:11:44.25	133.56	8.14	-27.2	-44.0	4.0	8.05e-01	0	58	104	2563768320	26	24337
2026-01-22 00:11:47.28	133.93	7.97	-26.8	-45.8	4.8	8.14e-01	0	58	104	2563768320	30	23777
2026-01-22 00:11:50.31	134.30	7.80	-45.2	-57.1	3.8	8.47e-01	0	58	104	2563768320	60	15437
2026-01-22 00:11:53.34	134.66	7.63	-45.5	-57.4	3.8	8.46e-01	0	58	104	2563768320	61	15163
2026-01-22 00:11:56.37	135.02	7.46	-45.6	-57.4	3.8	8.46e-01	0	58	104	2563768320	61	15202
2026-01-22 00:11:59.41	135.38	7.29	-45.4	-57.2	3.8	8.46e-01	0	58	104	2563768320	61	14736
2026-01-22 00:12:02.44	135.73	7.12	-45.3	-57.0	3.8	8.46e-01	0	58	104	2563768320	61	14443
2026-01-22 00:12:05.47	136.07	6.95	-45.2	-57.0	3.8	8.46e-01	0	58	104	2563768320	61	14379
2026-01-22 00:12:08.50	136.42	6.79	-45.2	-57.0	3.8	8.46e-01	0	58	104	2563768320	61	14387
2026-01-22 00:12:11.53	136.75	6.62	-45.2	-56.9	3.8	8.47e-01	0	58	104	2563768320	61	14331
2026-01-22 00:12:14.57	137.09	6.45	-45.2	-57.0	3.8	8.45e-01	0	58	104	2563768320	61	14380
2026-01-22 00:12:17.59	137.42	6.28	-45.2	-56.9	3.8	8.46e-01	0	58	104	2563768320	61	14352
2026-01-22 00:12:20.62	137.75	6.12	-45.2	-56.9	3.8	8.45e-01	0	58	104	2563768320	61	14355
2026-01-22 00:12:23.65	138.07	5.95	-45.2	-56.9	3.8	8.46e-01	0	58	104	2563768320	61	14283
2026-01-22 00:12:26.69	138.39	5.78	-45.2	-56.9	3.8	8.46e-01	0	58	104	2563768320	61	14285
2026-01-22 00:12:29.72	138.71	5.62	-45.2	-56.9	3.8	8.46e-01	0	58	104	2563768320	61	14320
2026-01-22 00:12:32.75	139.02	5.45	-45.2	-56.9	3.8	8.46e-01	0	58	104	2563768320	61	14223
2026-01-22 00:12:35.78	139.33	5.29	-45.2	-56.9	3.8	8.46e-01	0	58	104	2563768320	61	14296
2026-01-22 00:12:38.81	139.64	5.12	-45.2	-56.9	3.8	8.46e-01	0	58	104	2563768320	61	14298
2026-01-22 00:12:41.85	139.95	4.96	-45.2	-56.9	3.8	8.45e-01	0	58	104	2563768320	61	14263
2026-01-22 00:12:44.88	140.25	4.79	-45.2	-56.9	3.8	8.46e-01	0	58	104	2563768320	61	14242
2026-01-22 00:12:47.91	140.54	4.63	-45.2	-56.9	3.8	8.45e-01	0	58	104	2563768320	61	14291
2026-01-22 00:12:50.94	140.84	4.47	-45.2	-56.9	3.8	8.46e-01	0	58	104	2563768320	61	14234
2026-01-22 00:12:53.97	141.13	4.30	-45.2	-56.9	3.8	8.45e-01	0	58	104	2563768320	61	14245
2026-01-22 00:12:57.01	141.42	4.14	-45.2	-56.9	3.8	8.46e-01	0	58	104	2563768320	61	14256
2026-01-22 00:13:00.04	141.70	3.98	-45.2	-56.9	3.8	8.45e-01	0	58	104	2563768320	61	14221
2026-01-22 00:13:03.07	141.98	3.82	-45.2	-56.9	3.8	8.45e-01	0	58	104	2563768320	61	14274
2026-01-22 00:13:06.10	142.26	3.65	-45.2	-56.9	3.8	8.47e-01	0	58	104	2563768320	61	14246
2026-01-22 00:13:09.13	142.54	3.49	-45.2	-56.9	3.8	8.47e-01	0	58	104	2563768320	61	14225
2026-01-22 00:13:12.16	142.81	3.33	-45.2	-56.9	3.8	8.47e-01	0	58	104	2563768320	61	14219
2026-01-22 00:13:15.19	143.08	3.17	-45.2	-56.9	3.8	8.46e-01	0	58	104	2563768320	61	14236
2026-01-22 00:13:18.22	143.35	3.01	-45.2	-56.9	3.8	8.47e-01	0	58	104	2563768320	61	14264
2026-01-22 00:13:21.25	143.61	2.85	-45.2	-56.9	3.8	8.47e-01	0	58	104	2563768320	61	14238
2026-01-22 00:13:24.28	143.87	2.70	-45.2	-56.8	3.8	8.46e-01	0	58	104	2563768320	61	14202
2026-01-22 00:13:27.31	144.13	2.54	-45.2	-56.9	3.8	8.46e-01	0	58	104	2563768320	61	14269
2026-01-22 00:13:30.34	144.39	2.38	-45.2	-56.9	3.8	8.46e-01	0	58	104	2563768320	61	14248
2026-01-22 00:13:33.37	144.64	2.22	-45.2	-56.9	3.8	8.45e-01	0	58	104	2563768320	61	14212
2026-01-22 00:13:36.40	144.89	2.06	-45.2	-56.9	3.8	8.46e-01	0	58	104	2563768320	61	14288
2026-01-22 00:13:39.43	145.14	1.91	-45.2	-56.9	3.8	8.46e-01	0	58	104	2563768320	61	14251

#Closed at: 2026-01-22 00:13:40
#Recorded file [2563 MB]: D:/lorett/data/31039_260122_030126.dat