passes_logs/2026/01/22/R2.0S_Moscow/R2.0S_Moscow__20260122_103411_SUOMI_NPP_rec.log

#Pass ID: 20260122_103411_SUOMI NPP
#Satellite: SUOMI NPP
#Configuration: NPP
#almurnet v.1.7.20251203
#Start time: 2026-01-22 10:34:11

#Version: 2.2.20231116
#Station: R2.0S_Moscow
#Location: 37.707566 lon 55.798166 lat
#TLE: 1 37849U 11061A   26021.51818991  .00000201  00000+0  11636-3 0  9995
#TLE: 2 37849  98.7819 323.5108 0002300  52.3548 307.7836 14.19527793737637

#Time	Az	El	Level	Level2	SNR	BER	BlckErr	Temp	State	Recorded	gain1	gain2
2026-01-22 10:34:11.90	177.44	2.03	-44.0	-58.5	3.8	1.49e+00	0	50	0	0	59	19325
2026-01-22 10:34:15.94	177.55	2.29	-44.0	-58.5	3.8	1.49e+00	0	51	104	0	59	19325
2026-01-22 10:34:19.98	177.67	2.55	-44.0	-58.5	3.8	1.49e+00	0	51	104	0	59	19261
2026-01-22 10:34:24.03	177.79	2.81	-44.0	-58.5	3.8	1.49e+00	0	52	104	0	59	19262
2026-01-22 10:34:28.07	177.91	3.07	-44.0	-58.5	3.8	1.49e+00	0	52	104	0	59	19312
2026-01-22 10:34:32.11	178.03	3.34	-44.0	-58.5	3.8	1.49e+00	0	52	104	0	59	19314
2026-01-22 10:34:36.15	178.16	3.60	-44.0	-58.5	3.8	1.49e+00	0	52	104	0	59	19224
2026-01-22 10:34:40.19	178.28	3.87	-44.0	-58.5	3.8	1.49e+00	0	53	104	0	59	19236
2026-01-22 10:34:44.23	178.41	4.15	-44.0	-58.5	3.8	1.49e+00	0	53	104	0	59	19251
2026-01-22 10:34:48.27	178.55	4.42	-44.0	-58.5	3.8	1.49e+00	0	53	104	0	59	19219
2026-01-22 10:34:52.31	178.68	4.70	-44.0	-58.5	3.8	1.49e+00	0	53	104	0	59	19188
2026-01-22 10:34:56.35	178.82	4.98	-44.0	-58.2	3.8	1.49e+00	0	54	104	0	59	18611
2026-01-22 10:35:00.39	178.96	5.27	-43.8	-56.5	3.8	1.49e+00	0	54	104	0	59	15227
2026-01-22 10:35:04.44	179.10	5.55	-43.6	-54.1	4.5	1.12e+00	0	54	0	2097152	59	11678
2026-01-22 10:35:08.48	179.24	5.85	-43.6	-53.3	4.8	8.85e-01	0	54	0	9437184	59	10635
2026-01-22 10:35:12.52	179.39	6.14	-43.6	-53.2	4.9	8.42e-01	0	55	0	16777216	59	10467
2026-01-22 10:35:16.56	179.54	6.44	-43.5	-53.2	4.8	8.21e-01	0	55	0	25165824	58	11153
2026-01-22 10:35:20.60	179.69	6.74	-43.6	-53.5	4.7	8.45e-01	0	55	0	32505856	58	11480
2026-01-22 10:35:24.64	179.85	7.04	-43.4	-52.3	5.4	5.47e-01	0	55	0	39845888	58	9969
2026-01-22 10:35:28.69	180.01	7.35	-43.0	-49.9	7.2	1.24e-01	0	55	0	47185920	57	8083
2026-01-22 10:35:32.73	180.17	7.66	-42.4	-48.0	9.2	2.69e-02	0	55	0	54525952	56	6806
2026-01-22 10:35:36.77	180.33	7.97	-42.2	-47.5	9.7	8.66e-03	0	55	0	62914560	56	6448
2026-01-22 10:35:40.81	180.50	8.29	-42.9	-49.3	8.2	9.49e-02	0	56	0	68157440	56	7923
2026-01-22 10:35:44.85	180.67	8.61	-42.3	-47.4	10.0	7.52e-03	0	56	0	75497472	56	6353
2026-01-22 10:35:48.88	180.85	8.94	-42.2	-47.0	10.4	4.72e-03	0	56	0	82837504	56	6094
2026-01-22 10:35:52.92	181.03	9.26	-42.1	-46.7	10.8	2.76e-03	0	56	0	90177536	56	5872
2026-01-22 10:35:56.96	181.21	9.60	-42.1	-46.6	11.0	1.97e-03	0	56	0	97517568	56	5792
2026-01-22 10:36:01.00	181.40	9.94	-42.1	-46.5	11.1	2.10e-03	0	56	0	105906176	56	5780
2026-01-22 10:36:05.03	181.59	10.28	-42.1	-46.6	11.0	1.69e-03	0	56	0	113246208	56	5843
2026-01-22 10:36:09.07	181.78	10.63	-42.0	-46.4	11.3	1.30e-03	0	57	0	120586240	56	5677
2026-01-22 10:36:13.11	181.98	10.98	-41.8	-46.0	11.6	6.95e-04	0	56	0	127926272	55	5748
2026-01-22 10:36:17.14	182.18	11.33	-41.8	-46.0	11.6	6.29e-04	0	57	0	135266304	55	5733
2026-01-22 10:36:21.18	182.39	11.70	-41.8	-46.0	11.6	5.58e-04	0	57	0	143654912	55	5777
2026-01-22 10:36:25.22	182.61	12.06	-41.8	-46.0	11.7	5.03e-04	0	57	0	150994944	55	5723
2026-01-22 10:36:29.25	182.83	12.43	-41.7	-45.8	11.8	5.61e-04	0	57	0	158334976	55	5606
2026-01-22 10:36:33.30	183.05	12.81	-41.6	-45.4	12.2	2.50e-04	0	57	0	165675008	55	5378
2026-01-22 10:36:37.33	183.28	13.20	-41.5	-45.3	12.3	2.68e-04	0	57	0	174063616	55	5314
2026-01-22 10:36:41.37	183.52	13.58	-41.6	-45.4	12.3	1.85e-04	0	57	0	181403648	55	5376
2026-01-22 10:36:45.41	183.76	13.98	-41.7	-45.6	12.2	2.42e-04	0	57	0	188743680	55	5470
2026-01-22 10:36:49.45	184.00	14.38	-41.7	-45.5	12.3	1.91e-04	0	57	0	196083712	55	5462
2026-01-22 10:36:53.49	184.26	14.79	-41.9	-45.9	11.9	2.55e-04	0	57	0	203423744	55	5694
2026-01-22 10:36:57.53	184.52	15.20	-41.9	-45.9	11.9	4.84e-04	0	58	0	211812352	55	5697
2026-01-22 10:37:01.57	184.79	15.62	-41.9	-46.0	11.9	4.06e-04	0	58	0	219152384	55	5743
2026-01-22 10:37:05.61	185.06	16.05	-41.9	-45.9	12.0	4.03e-04	0	58	0	226492416	55	5674
2026-01-22 10:37:09.65	185.35	16.48	-41.8	-45.6	12.2	2.52e-04	0	58	0	233832448	55	5527
2026-01-22 10:37:13.68	185.64	16.92	-41.9	-45.7	12.2	2.53e-04	0	58	0	242221056	55	5587
2026-01-22 10:37:17.72	185.94	17.37	-41.9	-45.8	12.1	3.80e-04	0	58	0	249561088	55	5633
2026-01-22 10:37:21.76	186.24	17.83	-41.9	-45.8	12.1	3.16e-04	0	58	0	256901120	55	5651
2026-01-22 10:37:25.80	186.56	18.29	-41.9	-45.8	12.1	3.08e-04	0	58	0	264241152	55	5647
2026-01-22 10:37:29.83	186.89	18.76	-41.7	-45.3	12.7	7.55e-05	0	58	0	271581184	55	5319
2026-01-22 10:37:33.87	187.22	19.24	-41.5	-45.0	13.0	2.82e-05	0	58	0	279969792	55	5127
2026-01-22 10:37:37.91	187.57	19.73	-41.3	-44.5	13.5	1.52e-05	0	58	0	287309824	54	5145
2026-01-22 10:37:41.94	187.93	20.23	-41.0	-44.0	14.1	2.20e-06	0	58	0	294649856	53	5127
2026-01-22 10:37:45.98	188.30	20.74	-40.8	-43.7	14.4	7.00e-07	0	59	0	301989888	53	4928
2026-01-22 10:37:50.02	188.68	21.25	-40.9	-43.9	14.1	3.80e-06	0	58	0	310378496	53	5097
2026-01-22 10:37:54.06	189.07	21.78	-41.1	-44.3	13.8	2.20e-06	0	58	0	317718528	53	5293
2026-01-22 10:37:58.09	189.48	22.31	-41.1	-44.3	13.7	6.10e-06	0	59	0	325058560	53	5325
2026-01-22 10:38:02.13	189.90	22.86	-40.9	-43.9	14.1	3.00e-06	0	58	0	332398592	53	5095
2026-01-22 10:38:06.17	190.33	23.41	-41.1	-44.1	14.0	5.30e-06	0	59	0	339738624	53	5208
2026-01-22 10:38:10.21	190.78	23.98	-41.0	-44.0	14.1	7.00e-07	0	59	0	348127232	53	5138
2026-01-22 10:38:14.25	191.25	24.56	-40.8	-43.8	14.3	4.50e-06	0	59	0	355467264	53	4992
2026-01-22 10:38:18.29	191.73	25.15	-40.5	-43.3	14.9	0.00e+00	0	58	0	362807296	53	4723
2026-01-22 10:38:22.32	192.23	25.74	-40.7	-43.6	14.6	7.00e-07	0	59	0	370147328	53	4872
2026-01-22 10:38:26.36	192.76	26.35	-40.9	-43.8	14.4	0.00e+00	0	59	0	378535936	53	5018
2026-01-22 10:38:30.40	193.30	26.98	-40.9	-43.9	14.3	7.00e-07	0	59	0	385875968	53	5068
2026-01-22 10:38:34.44	193.86	27.61	-41.2	-44.3	13.9	7.00e-07	0	59	0	393216000	53	5293
2026-01-22 10:38:38.47	194.44	28.25	-41.4	-44.7	13.5	1.83e-05	0	59	0	400556032	53	5572
2026-01-22 10:38:42.51	195.05	28.91	-41.8	-45.3	12.9	4.57e-05	0	59	0	407896064	54	5626
2026-01-22 10:38:46.55	195.68	29.58	-42.1	-45.9	12.3	1.81e-04	0	59	0	416284672	54	6046
2026-01-22 10:38:50.59	196.34	30.26	-42.5	-46.8	11.4	9.41e-04	0	59	0	423624704	55	6301
2026-01-22 10:38:54.63	197.02	30.96	-43.0	-47.8	10.6	4.28e-03	0	59	0	430964736	56	6660
2026-01-22 10:38:58.66	197.74	31.66	-43.2	-48.2	10.1	7.74e-03	0	59	0	438304768	57	6599
2026-01-22 10:39:02.70	198.49	32.38	-43.1	-48.0	10.3	3.92e-03	0	59	0	446693376	57	6452
2026-01-22 10:39:06.74	199.27	33.11	-42.9	-47.3	11.1	2.17e-03	0	59	0	454033408	57	5989
2026-01-22 10:39:10.78	200.08	33.86	-42.6	-46.7	11.8	7.03e-04	0	59	0	461373440	57	5530
2026-01-22 10:39:14.81	200.94	34.61	-42.6	-46.8	11.6	7.94e-04	0	59	0	468713472	56	5953
2026-01-22 10:39:18.85	201.83	35.38	-43.0	-47.7	10.7	2.53e-03	0	59	0	476053504	56	6635
2026-01-22 10:39:22.89	202.77	36.15	-42.8	-47.1	11.3	9.83e-04	0	59	0	484442112	56	6152
2026-01-22 10:39:26.93	203.75	36.94	-42.4	-46.3	12.1	1.75e-04	0	59	0	491782144	56	5605
2026-01-22 10:39:30.97	204.78	37.74	-42.9	-47.4	11.1	1.47e-03	0	59	0	499122176	56	6387
2026-01-22 10:39:35.00	205.85	38.54	-42.8	-47.3	11.1	1.96e-03	0	59	0	506462208	56	6308
2026-01-22 10:39:39.04	206.99	39.35	-42.2	-46.0	12.5	3.64e-04	0	59	0	513802240	56	5417
2026-01-22 10:39:43.08	208.18	40.17	-41.8	-45.2	13.2	1.90e-05	0	59	0	522190848	55	5227
2026-01-22 10:39:47.12	209.43	40.99	-42.8	-47.0	11.5	1.02e-03	0	59	0	529530880	56	6112
2026-01-22 10:39:51.16	210.75	41.82	-42.4	-46.2	12.3	2.68e-04	0	59	0	536870912	56	5568
2026-01-22 10:39:55.20	212.13	42.65	-43.0	-47.6	10.9	2.02e-03	0	59	0	544210944	56	6547
2026-01-22 10:39:59.23	213.59	43.47	-43.3	-48.2	10.2	5.91e-03	0	60	0	552599552	57	6607
2026-01-22 10:40:03.27	215.12	44.29	-43.7	-49.4	9.1	1.91e-02	0	59	0	559939584	57	7544
2026-01-22 10:40:07.31	216.73	45.11	-43.4	-48.7	9.7	7.61e-03	0	59	0	567279616	57	6974
2026-01-22 10:40:11.35	218.43	45.92	-43.5	-48.7	9.6	1.78e-02	0	59	0	574619648	58	6637
2026-01-22 10:40:15.38	220.21	46.71	-43.7	-49.5	8.8	1.82e-02	0	59	0	581959680	57	7688
2026-01-22 10:40:19.42	222.09	47.49	-43.1	-47.7	10.8	9.26e-03	0	60	0	590348288	58	5878
2026-01-22 10:40:23.46	224.05	48.25	-43.2	-47.9	10.6	3.26e-03	0	59	0	597688320	57	6379
2026-01-22 10:40:27.50	226.12	48.98	-42.7	-46.9	11.5	6.44e-04	0	59	0	605028352	56	6041
2026-01-22 10:40:31.53	228.28	49.69	-42.8	-47.0	11.3	1.22e-03	0	60	0	612368384	56	6078
2026-01-22 10:40:35.57	230.54	50.36	-42.1	-46.2	12.1	2.38e-04	0	60	0	620756992	55	5914
2026-01-22 10:40:39.61	232.90	50.99	-41.6	-44.9	13.3	1.90e-05	0	60	0	628097024	54	5393
2026-01-22 10:40:43.65	235.35	51.57	-42.0	-45.7	12.7	1.07e-04	0	60	0	635437056	54	5867
2026-01-22 10:40:47.68	237.90	52.11	-41.2	-45.1	13.2	1.11e-04	0	60	0	642777088	54	5469
2026-01-22 10:40:51.72	240.53	52.59	-42.2	-45.9	12.3	2.59e-05	0	59	0	650117120	54	6053
2026-01-22 10:40:55.76	243.25	53.02	-41.8	-45.2	13.2	2.82e-05	0	60	0	658505728	54	5560
2026-01-22 10:40:59.80	246.05	53.38	-42.2	-46.0	12.3	2.27e-04	0	60	0	665845760	55	5767
2026-01-22 10:41:03.84	248.90	53.67	-42.9	-47.3	11.2	1.67e-03	0	60	0	673185792	56	6289
2026-01-22 10:41:07.87	251.80	53.89	-42.9	-47.4	11.1	6.07e-04	0	60	0	680525824	56	6366
2026-01-22 10:41:11.91	254.74	54.04	-42.4	-46.2	12.3	2.10e-04	0	59	0	688914432	56	5570
2026-01-22 10:41:15.95	257.71	54.11	-43.2	-48.0	10.4	3.95e-03	0	59	0	696254464	56	6819
2026-01-22 10:41:19.99	260.68	54.11	-42.9	-47.3	11.1	9.40e-04	0	60	0	703594496	57	5956
2026-01-22 10:41:24.03	263.64	54.03	-42.3	-46.0	12.5	7.55e-05	0	60	0	710934528	56	5429
2026-01-22 10:41:28.06	266.58	53.88	-42.6	-46.7	11.7	3.35e-04	0	60	0	718274560	56	5889
2026-01-22 10:41:32.09	269.47	53.65	-41.5	-44.6	13.8	6.10e-06	0	60	0	726663168	54	5179
2026-01-22 10:41:36.13	272.32	53.35	-41.7	-45.0	13.4	2.13e-05	0	60	0	734003200	54	5419
2026-01-22 10:41:40.17	275.10	52.99	-42.1	-45.8	12.6	5.49e-05	0	60	0	741343232	54	5926
2026-01-22 10:41:44.21	277.81	52.56	-42.4	-46.5	11.8	6.03e-04	0	60	0	748683264	55	6117
2026-01-22 10:41:48.24	280.43	52.08	-42.2	-45.9	12.4	1.49e-04	0	60	0	757071872	55	5686
2026-01-22 10:41:52.28	282.97	51.54	-40.9	-43.6	14.7	1.50e-06	0	60	0	764411904	53	4913
2026-01-22 10:41:56.32	285.42	50.95	-41.9	-45.4	12.9	4.95e-05	0	60	0	771751936	54	5689
2026-01-22 10:42:00.36	287.76	50.32	-41.4	-44.5	13.9	8.30e-06	0	60	0	779091968	54	5140
2026-01-22 10:42:04.40	290.01	49.65	-41.7	-45.0	13.4	9.90e-06	0	60	0	786432000	54	5404
2026-01-22 10:42:08.44	292.16	48.94	-41.3	-44.3	14.0	1.37e-05	0	60	0	794820608	54	4986
2026-01-22 10:42:12.47	294.21	48.21	-43.2	-48.0	10.4	5.57e-03	0	60	0	802160640	57	6459
2026-01-22 10:42:16.51	296.17	47.46	-43.2	-48.0	10.3	5.49e-03	0	60	0	809500672	57	6480
2026-01-22 10:42:20.55	298.03	46.68	-44.1	-50.7	7.6	1.43e-01	0	60	0	816840704	59	7860
2026-01-22 10:42:24.59	299.81	45.89	-44.0	-50.4	7.8	9.95e-02	0	60	0	824180736	59	7594
2026-01-22 10:42:28.62	301.49	45.09	-44.4	-51.9	6.4	2.19e-01	0	60	0	832569344	59	9035
2026-01-22 10:42:32.66	303.09	44.27	-44.6	-53.1	5.6	1.71e-01	0	60	0	839909376	59	10315
2026-01-22 10:42:36.70	304.62	43.45	-43.8	-49.6	8.6	2.45e-01	0	60	0	843055104	59	6921
2026-01-22 10:42:40.74	306.07	42.63	-43.8	-49.6	8.7	2.98e-02	0	60	0	850395136	58	7290
2026-01-22 10:42:44.77	307.44	41.81	-43.0	-47.6	10.8	3.87e-03	0	60	0	857735168	58	5792
2026-01-22 10:42:48.81	308.75	40.99	-43.6	-49.3	9.0	2.76e-02	0	60	0	866123776	58	7050
2026-01-22 10:42:52.85	310.00	40.17	-41.8	-45.2	13.1	1.67e-05	0	60	0	873463808	55	5267
2026-01-22 10:42:56.89	311.18	39.35	-43.3	-48.4	9.9	2.45e-02	0	60	0	880803840	58	6349
2026-01-22 10:43:00.93	312.31	38.55	-43.2	-48.2	10.1	8.57e-04	0	60	0	888143872	57	6615
2026-01-22 10:43:04.97	313.39	37.75	-43.0	-47.5	10.8	1.73e-02	0	60	0	895483904	57	6078
2026-01-22 10:43:09.00	314.41	36.96	-43.1	-47.8	10.5	2.14e-03	0	60	0	903872512	56	6703
2026-01-22 10:43:13.04	315.38	36.18	-43.5	-48.9	9.2	4.57e-02	0	60	0	911212544	59	6396
2026-01-22 10:43:17.08	316.32	35.41	-41.9	-45.4	12.8	1.90e-05	0	60	0	918552576	55	5360
2026-01-22 10:43:21.12	317.21	34.64	-44.0	-50.5	7.7	1.16e-01	0	60	0	925892608	58	8136
2026-01-22 10:43:25.16	318.06	33.90	-43.0	-47.6	10.7	3.51e-03	0	60	0	934281216	58	5852
2026-01-22 10:43:29.20	318.87	33.16	-43.7	-49.6	8.6	2.66e-02	0	60	0	941621248	58	7309
2026-01-22 10:43:33.24	319.65	32.43	-43.5	-49.0	9.2	3.16e-02	0	60	0	948961280	58	6828
2026-01-22 10:43:37.27	320.39	31.72	-42.9	-47.3	11.0	1.91e-03	0	60	0	956301312	57	5951
2026-01-22 10:43:41.31	321.11	31.02	-43.4	-48.8	9.4	1.13e-02	0	60	0	963641344	57	7059
2026-01-22 10:43:45.35	321.79	30.33	-43.7	-49.8	8.3	6.58e-02	0	60	0	972029952	58	7535
2026-01-22 10:43:49.39	322.45	29.65	-43.1	-48.0	10.2	6.67e-03	0	60	0	979369984	58	6116
2026-01-22 10:43:53.42	323.08	28.99	-43.4	-48.8	9.4	1.57e-02	0	60	0	986710016	58	6686
2026-01-22 10:43:57.46	323.69	28.33	-43.5	-49.0	9.2	3.19e-02	0	60	0	994050048	58	6846
2026-01-22 10:44:01.51	324.27	27.69	-42.5	-46.6	11.7	6.80e-04	0	60	0	1002438656	57	5469
2026-01-22 10:44:05.54	324.83	27.06	-41.4	-44.6	13.5	1.60e-05	0	60	0	1009778688	54	5216
2026-01-22 10:44:09.58	325.37	26.44	-41.8	-45.3	12.8	4.42e-05	0	60	0	1017118720	54	5619
2026-01-22 10:44:13.63	325.89	25.84	-42.5	-46.8	11.3	1.05e-03	0	60	0	1024458752	55	6283
2026-01-22 10:44:17.66	326.39	25.24	-42.6	-46.8	11.4	1.30e-03	0	60	0	1031798784	56	5953
2026-01-22 10:44:21.70	326.88	24.66	-42.1	-45.9	12.4	1.75e-04	0	60	0	1040187392	56	5359
2026-01-22 10:44:25.74	327.34	24.09	-41.7	-45.1	13.0	3.50e-05	0	60	0	1047527424	55	5203
2026-01-22 10:44:29.78	327.79	23.52	-42.4	-46.5	11.4	4.44e-04	0	60	0	1054867456	55	6126
2026-01-22 10:44:33.81	328.23	22.97	-42.6	-47.1	10.8	2.17e-03	0	60	0	1062207488	55	6550
2026-01-22 10:44:37.85	328.65	22.43	-42.3	-46.5	11.5	1.08e-03	0	60	0	1070596096	55	6096
2026-01-22 10:44:41.89	329.06	21.90	-41.6	-45.1	12.9	1.01e-04	0	60	0	1077936128	55	5212
2026-01-22 10:44:45.93	329.45	21.38	-41.6	-45.1	12.9	3.20e-05	0	60	0	1085276160	54	5481
2026-01-22 10:44:49.97	329.83	20.86	-42.3	-46.6	11.4	8.61e-04	0	60	0	1092616192	55	6137
2026-01-22 10:44:54.00	330.20	20.36	-42.7	-47.6	10.3	4.10e-03	0	60	0	1099956224	55	6880
2026-01-22 10:44:58.04	330.56	19.87	-42.6	-47.2	10.7	3.07e-03	0	60	0	1108344832	56	6264
2026-01-22 10:45:02.07	330.91	19.38	-42.2	-46.3	11.7	6.13e-04	0	60	0	1115684864	56	5635
2026-01-22 10:45:06.11	331.25	18.90	-41.7	-45.4	12.4	9.68e-05	0	60	0	1123024896	55	5394
2026-01-22 10:45:10.15	331.58	18.43	-41.8	-45.7	12.0	2.40e-04	0	60	0	1130364928	55	5569
2026-01-22 10:45:14.19	331.90	17.97	-42.0	-46.2	11.7	6.34e-04	0	60	0	1137704960	55	5867
2026-01-22 10:45:18.23	332.21	17.52	-42.0	-46.2	11.4	7.62e-04	0	60	0	1146093568	55	5898
2026-01-22 10:45:22.26	332.51	17.07	-41.8	-45.8	11.9	4.21e-04	0	60	0	1153433600	55	5605
2026-01-22 10:45:26.30	332.80	16.63	-41.4	-44.9	12.7	9.68e-05	0	60	0	1160773632	54	5401
2026-01-22 10:45:30.34	333.08	16.20	-41.3	-44.8	12.8	5.79e-05	0	60	0	1168113664	54	5311
2026-01-22 10:45:34.38	333.36	15.78	-41.2	-44.6	13.0	4.04e-05	0	60	0	1176502272	54	5164
2026-01-22 10:45:38.42	333.63	15.36	-41.3	-44.9	12.7	5.95e-05	0	60	0	1183842304	54	5370
2026-01-22 10:45:42.46	333.90	14.95	-41.5	-45.3	12.1	1.84e-04	0	60	0	1191182336	54	5652
2026-01-22 10:45:46.49	334.15	14.55	-41.9	-46.3	11.1	1.00e-03	0	60	0	1198522368	54	6330
2026-01-22 10:45:50.53	334.40	14.15	-42.2	-47.0	10.3	4.25e-03	0	60	0	1205862400	54	6842
2026-01-22 10:45:54.57	334.65	13.75	-42.4	-47.8	9.4	1.08e-02	0	60	0	1214251008	55	7053
2026-01-22 10:45:58.61	334.89	13.37	-42.4	-47.8	9.4	1.64e-02	0	60	0	1221591040	55	7093
2026-01-22 10:46:02.64	335.12	12.99	-42.4	-47.7	9.4	1.60e-02	0	60	0	1228931072	55	7032
2026-01-22 10:46:06.68	335.35	12.61	-42.2	-47.4	9.7	1.02e-02	0	60	0	1236271104	55	6726
2026-01-22 10:46:10.72	335.57	12.24	-41.8	-46.4	10.6	3.53e-03	0	60	0	1244659712	55	6048
2026-01-22 10:46:14.76	335.79	11.88	-41.7	-46.2	10.7	2.81e-03	0	60	0	1251999744	55	5914
2026-01-22 10:46:18.80	336.00	11.52	-41.4	-45.6	11.3	1.33e-03	0	60	0	1259339776	54	5824
2026-01-22 10:46:22.83	336.20	11.16	-41.3	-45.5	11.3	1.08e-03	0	60	0	1266679808	54	5765
2026-01-22 10:46:26.87	336.41	10.81	-41.3	-45.5	11.3	1.31e-03	0	60	0	1274019840	54	5778
2026-01-22 10:46:30.91	336.61	10.47	-41.2	-45.3	11.4	9.90e-04	0	60	0	1282408448	54	5639
2026-01-22 10:46:34.95	336.80	10.12	-41.3	-45.8	11.0	2.08e-03	0	60	0	1289748480	54	5925
2026-01-22 10:46:38.98	336.99	9.79	-41.3	-45.9	10.6	3.67e-03	0	60	0	1297088512	54	6027
2026-01-22 10:46:43.02	337.18	9.46	-41.2	-45.9	10.5	4.23e-03	0	60	0	1304428544	54	6029
2026-01-22 10:46:47.05	337.36	9.13	-41.3	-46.2	10.0	7.08e-03	0	60	0	1312817152	54	6241
2026-01-22 10:46:51.09	337.54	8.81	-41.5	-47.1	9.0	2.16e-02	0	60	0	1320157184	54	6893
2026-01-22 10:46:55.13	337.72	8.49	-41.4	-47.1	8.7	3.30e-02	0	60	0	1327497216	54	6953
2026-01-22 10:46:59.17	337.89	8.17	-41.3	-46.9	8.9	2.51e-02	0	60	0	1334837248	54	6726
2026-01-22 10:47:03.21	338.06	7.86	-44.5	-59.0	3.8	1.49e+00	0	60	104	1340080128	59	20318
2026-01-22 10:47:07.25	338.22	7.55	-45.2	-59.8	3.8	1.49e+00	0	60	104	1340080128	60	21216
2026-01-22 10:47:11.29	338.38	7.24	-45.2	-60.0	3.8	1.49e+00	0	60	104	1340080128	61	20354
2026-01-22 10:47:15.33	338.54	6.94	-45.2	-59.8	3.8	1.49e+00	0	60	104	1340080128	61	19956
2026-01-22 10:47:19.38	338.70	6.64	-45.0	-59.8	3.8	1.49e+00	0	60	104	1340080128	61	19867
2026-01-22 10:47:23.42	338.86	6.35	-45.2	-59.8	3.8	1.49e+00	0	60	104	1340080128	60	21143
2026-01-22 10:47:27.46	339.01	6.05	-45.2	-59.8	3.8	1.49e+00	0	60	104	1340080128	60	21074
2026-01-22 10:47:31.50	339.16	5.76	-45.2	-59.8	3.8	1.49e+00	0	60	104	1340080128	60	21085
2026-01-22 10:47:35.55	339.30	5.48	-45.2	-59.8	3.8	1.49e+00	0	60	104	1340080128	60	21058
2026-01-22 10:47:39.59	339.45	5.20	-45.1	-59.7	3.8	1.49e+00	0	60	104	1340080128	60	20994
2026-01-22 10:47:43.63	339.59	4.92	-45.1	-59.7	3.8	1.49e+00	0	60	104	1340080128	60	20929
2026-01-22 10:47:47.67	339.73	4.64	-45.2	-59.8	3.8	1.49e+00	0	60	104	1340080128	60	21039
2026-01-22 10:47:51.71	339.86	4.36	-45.1	-59.7	3.8	1.49e+00	0	60	104	1340080128	60	20986
2026-01-22 10:47:55.76	340.00	4.09	-45.1	-59.7	3.8	1.49e+00	0	60	104	1340080128	60	20952
2026-01-22 10:47:59.80	340.13	3.82	-45.0	-59.8	3.8	1.49e+00	0	60	104	1340080128	60	21153
2026-01-22 10:48:03.84	340.26	3.56	-45.1	-59.7	3.8	1.49e+00	0	60	104	1340080128	60	20888
2026-01-22 10:48:07.88	340.39	3.29	-45.1	-59.7	3.8	1.49e+00	0	60	104	1340080128	60	20861
2026-01-22 10:48:11.93	340.52	3.03	-45.1	-59.7	3.8	1.49e+00	0	61	104	1340080128	60	20984
2026-01-22 10:48:15.97	340.64	2.77	-45.1	-59.7	3.8	1.49e+00	0	60	104	1340080128	60	20840
2026-01-22 10:48:20.01	340.76	2.51	-45.1	-59.7	3.8	1.49e+00	0	60	104	1340080128	60	20778
2026-01-22 10:48:24.06	340.88	2.26	-45.0	-59.7	3.8	1.49e+00	0	60	104	1340080128	60	20846
2026-01-22 10:48:28.10	341.00	2.00	-45.1	-59.7	3.8	1.49e+00	0	60	104	1340080128	60	20844

#Closed at: 2026-01-22 10:48:30
#Recorded file [1340 MB]: D:/lorett/data/31039_260122_133411.dat