passes_logs/2026/01/22/R2.0S_Moscow/R2.0S_Moscow__20260122_082521_NOAA_21_JPSS-2_rec.log

#Pass ID: 20260122_082521_NOAA 21 (JPSS-2)
#Satellite: NOAA 21 (JPSS-2)
#Configuration: NOAA-21
#almurnet v.1.7.20251203
#Start time: 2026-01-22 08:25:21

#Version: 2.2.20231116
#Station: R2.0S_Moscow
#Location: 37.707566 lon 55.798166 lat
#TLE: 1 54234U 22150A   26021.42686626  .00000211  00000+0  12107-3 0  9996
#TLE: 2 54234  98.7506 322.2490 0000636 241.9299 118.1812 14.19537149165725

#Time	Az	El	Level	Level2	SNR	BER	BlckErr	Temp	State	Recorded	gain1	gain2
2026-01-22 08:25:21.02	116.76	2.00	-36.1	-52.2	3.7	1.50e+00	0	51	0	0	43	23537
2026-01-22 08:25:25.06	116.52	2.23	-34.0	-51.7	3.1	1.50e+00	0	51	104	0	41	24931
2026-01-22 08:25:29.10	116.27	2.47	-38.5	-53.4	3.9	1.50e+00	0	52	104	0	47	21261
2026-01-22 08:25:33.14	116.01	2.71	-34.2	-50.9	4.1	1.50e+00	0	52	104	0	43	20183
2026-01-22 08:25:37.18	115.76	2.94	-37.6	-53.1	4.1	1.50e+00	0	52	104	0	45	23056
2026-01-22 08:25:41.22	115.49	3.18	-36.1	-52.8	3.9	1.50e+00	0	53	104	0	47	19871
2026-01-22 08:25:45.26	115.23	3.43	-34.9	-50.7	4.0	1.50e+00	0	53	104	0	44	18578
2026-01-22 08:25:49.30	114.95	3.67	-29.0	-45.0	4.1	1.50e+00	0	53	104	0	39	12958
2026-01-22 08:25:53.35	114.68	3.91	-35.0	-51.8	4.0	1.50e+00	0	53	104	0	44	21181
2026-01-22 08:25:57.39	114.40	4.16	-28.0	-44.4	3.4	1.51e+00	0	54	104	0	29	21376
2026-01-22 08:26:01.43	114.11	4.41	-34.5	-50.0	4.0	1.50e+00	0	54	104	0	38	24267
2026-01-22 08:26:05.47	113.82	4.66	-36.9	-51.9	3.9	1.50e+00	0	54	104	0	44	21373
2026-01-22 08:26:09.51	113.52	4.91	-34.4	-50.9	4.0	1.50e+00	0	54	104	0	41	22596
2026-01-22 08:26:13.56	113.22	5.16	-34.7	-51.0	4.1	1.50e+00	0	54	104	0	45	18251
2026-01-22 08:26:17.60	112.91	5.41	-37.1	-52.0	4.1	1.50e+00	0	55	104	0	44	21513
2026-01-22 08:26:21.64	112.60	5.67	-33.9	-50.7	4.2	1.50e+00	0	55	104	0	43	19735
2026-01-22 08:26:25.68	112.28	5.93	-34.7	-49.3	4.0	1.50e+00	0	55	104	0	40	20007
2026-01-22 08:26:29.72	111.96	6.19	-37.3	-51.2	4.0	1.50e+00	0	55	104	0	44	19775
2026-01-22 08:26:33.77	111.63	6.45	-35.6	-50.1	4.1	1.50e+00	0	55	104	0	42	19396
2026-01-22 08:26:37.80	111.29	6.71	-33.6	-48.5	3.9	1.50e+00	0	56	104	0	30	32217
2026-01-22 08:26:41.85	110.95	6.98	-28.7	-45.5	3.9	1.50e+00	0	56	104	0	29	24246
2026-01-22 08:26:45.89	110.60	7.24	-37.4	-51.5	3.9	1.49e+00	0	56	104	0	44	20483
2026-01-22 08:26:49.93	110.24	7.51	-34.4	-49.1	3.8	1.49e+00	0	56	104	0	44	15523
2026-01-22 08:26:53.97	109.88	7.78	-38.1	-45.7	6.8	3.52e-01	9	56	0	1048576	46	9346
2026-01-22 08:26:58.02	109.51	8.05	-36.3	-43.4	8.4	1.45e-01	1	56	0	10485760	44	8029
2026-01-22 08:27:02.05	109.13	8.32	-36.9	-46.9	5.8	1.36e+00	20	56	104	12582912	47	10164
2026-01-22 08:27:06.09	108.75	8.60	-35.9	-43.3	7.1	1.92e-01	9	57	0	16777216	42	8955
2026-01-22 08:27:10.13	108.36	8.88	-36.9	-44.0	8.7	1.41e-01	0	57	0	29360128	46	7660
2026-01-22 08:27:14.17	107.96	9.16	-37.6	-43.4	6.8	1.57e-01	9	57	0	40894464	38	11338
2026-01-22 08:27:18.20	107.55	9.44	-38.7	-43.9	9.4	3.55e-02	0	57	0	53477376	49	6406
2026-01-22 08:27:22.24	107.13	9.72	-38.9	-43.6	9.9	2.64e-02	0	57	0	66060288	49	6190
2026-01-22 08:27:26.28	106.71	10.00	-36.4	-43.1	7.7	7.74e-02	0	57	0	78643200	42	8751
2026-01-22 08:27:30.32	106.28	10.29	-38.8	-43.4	10.2	7.80e-02	0	57	0	91226112	49	6023
2026-01-22 08:27:34.35	105.84	10.57	-39.2	-43.4	9.9	2.20e-01	0	57	0	103809024	46	7204
2026-01-22 08:27:38.39	105.39	10.86	-36.6	-42.7	8.2	1.98e-01	1	57	0	116391936	41	8806
2026-01-22 08:27:42.43	104.93	11.15	-36.4	-42.8	9.3	2.35e-01	0	58	0	124780544	43	7988
2026-01-22 08:27:46.48	104.46	11.45	-38.2	-42.8	7.8	2.74e-01	3	58	0	136314880	41	8881
2026-01-22 08:27:50.52	103.98	11.74	-25.5	-41.1	5.3	1.02e+00	0	58	0	140509184	26	17325
2026-01-22 08:27:54.55	103.50	12.03	-39.9	-44.8	8.5	9.84e-01	0	58	104	140509184	47	7986
2026-01-22 08:27:58.59	103.00	12.33	-28.2	-42.7	4.2	1.06e+00	0	58	104	140509184	29	17603
2026-01-22 08:28:02.63	102.49	12.63	-37.9	-44.3	4.4	1.44e+00	0	58	104	140509184	46	7901
2026-01-22 08:28:06.67	101.97	12.93	-38.2	-45.3	8.2	1.38e-01	1	58	0	142606336	50	7081
2026-01-22 08:28:10.71	101.44	13.23	-35.8	-43.8	7.1	5.17e-01	7	58	0	149946368	42	9442
2026-01-22 08:28:14.75	100.90	13.53	-30.8	-45.9	6.4	1.45e+00	13	58	104	152043520	45	10113
2026-01-22 08:28:18.78	100.35	13.84	-35.1	-49.9	3.8	9.16e-01	0	58	104	157286400	41	20200
2026-01-22 08:28:22.82	99.79	14.14	-39.5	-42.4	11.6	3.00e-02	0	59	0	162529280	49	5388
2026-01-22 08:28:26.86	99.21	14.45	-39.7	-42.9	11.8	1.73e-03	0	58	0	175112192	50	5384
2026-01-22 08:28:30.89	98.63	14.75	-40.0	-43.1	11.8	2.35e-03	0	59	0	187695104	50	5528
2026-01-22 08:28:34.93	98.03	15.06	-40.2	-43.2	12.1	4.32e-04	0	59	0	200278016	51	5250
2026-01-22 08:28:38.98	97.41	15.37	-40.5	-43.3	12.1	1.46e-04	0	59	0	212860928	51	5320
2026-01-22 08:28:43.01	96.79	15.68	-40.4	-43.2	12.2	1.92e-04	0	59	0	225443840	51	5270
2026-01-22 08:28:47.05	96.15	15.98	-40.3	-43.1	12.4	1.37e-04	0	59	0	238026752	51	5173
2026-01-22 08:28:51.09	95.50	16.29	-40.3	-43.0	12.4	1.36e-04	0	59	0	250609664	51	5149
2026-01-22 08:28:55.13	94.83	16.60	-40.1	-42.8	12.7	6.48e-05	0	59	0	263192576	51	4996
2026-01-22 08:28:59.17	94.16	16.91	-40.1	-42.6	12.9	5.34e-05	0	59	0	275775488	51	4926
2026-01-22 08:29:03.21	93.46	17.22	-40.0	-42.6	12.9	5.34e-05	0	59	0	288358400	51	4875
2026-01-22 08:29:07.25	92.75	17.53	-39.9	-42.3	13.1	2.67e-05	0	59	0	300941312	51	4757
2026-01-22 08:29:11.30	92.03	17.84	-39.9	-42.5	12.8	5.95e-05	0	59	0	313524224	51	4854
2026-01-22 08:29:15.34	91.29	18.14	-40.0	-42.7	12.5	1.20e-04	0	59	0	326107136	51	4940
2026-01-22 08:29:19.38	90.54	18.45	-40.0	-42.8	12.2	1.74e-04	0	59	0	338690048	51	5027
2026-01-22 08:29:23.42	89.77	18.75	-39.8	-42.6	12.2	1.91e-04	0	59	0	351272960	51	4916
2026-01-22 08:29:27.46	88.99	19.05	-40.0	-43.1	11.6	6.16e-04	0	59	0	363855872	51	5160
2026-01-22 08:29:31.50	88.19	19.35	-40.2	-43.6	10.7	2.79e-03	0	59	0	376438784	51	5525
2026-01-22 08:29:35.54	87.37	19.65	-40.4	-44.1	10.1	6.57e-03	0	59	0	390070272	51	5821
2026-01-22 08:29:39.58	86.54	19.95	-40.3	-43.8	10.6	3.88e-03	0	59	0	402653184	51	5619
2026-01-22 08:29:43.62	85.69	20.24	-40.2	-43.4	11.2	1.60e-03	0	59	0	415236096	51	5399
2026-01-22 08:29:47.65	84.83	20.53	-39.9	-42.9	11.8	4.74e-04	0	59	0	427819008	51	5053
2026-01-22 08:29:51.69	83.95	20.81	-40.0	-43.0	11.9	4.65e-04	0	60	0	440401920	51	5105
2026-01-22 08:29:55.73	83.05	21.09	-39.9	-42.7	12.3	1.52e-04	0	59	0	452984832	51	4950
2026-01-22 08:29:59.77	82.14	21.37	-40.0	-42.7	12.5	1.18e-04	0	59	0	465567744	51	4928
2026-01-22 08:30:03.81	81.21	21.64	-40.0	-42.6	12.8	6.10e-05	0	59	0	478150656	51	4878
2026-01-22 08:30:07.85	80.27	21.90	-39.9	-42.5	13.0	5.26e-05	0	60	0	490733568	51	4825
2026-01-22 08:30:11.88	79.31	22.16	-39.7	-42.1	13.4	1.14e-05	0	60	0	503316480	51	4614
2026-01-22 08:30:15.92	78.33	22.42	-39.7	-42.1	13.3	1.67e-05	0	60	0	515899392	51	4637
2026-01-22 08:30:19.96	77.33	22.66	-39.7	-42.1	13.5	1.06e-05	0	60	0	528482304	51	4621
2026-01-22 08:30:24.00	76.33	22.90	-39.9	-42.3	13.3	1.90e-05	0	60	0	541065216	51	4754
2026-01-22 08:30:28.04	75.30	23.14	-39.7	-42.0	13.7	7.60e-06	0	60	0	553648128	51	4589
2026-01-22 08:30:32.08	74.26	23.36	-39.7	-42.0	13.7	1.14e-05	0	60	0	566231040	51	4589
2026-01-22 08:30:36.11	73.21	23.58	-39.8	-42.1	13.7	4.50e-06	0	60	0	578813952	51	4617
2026-01-22 08:30:40.16	72.14	23.79	-39.8	-42.2	13.6	6.10e-06	0	60	0	591396864	51	4669
2026-01-22 08:30:44.19	71.06	23.98	-39.8	-42.1	13.8	8.30e-06	0	60	0	603979776	51	4639
2026-01-22 08:30:48.23	69.96	24.17	-39.8	-42.0	13.9	3.80e-06	0	60	0	616562688	51	4585
2026-01-22 08:30:52.27	68.85	24.35	-39.6	-41.9	14.1	4.50e-06	0	60	0	629145600	51	4494
2026-01-22 08:30:56.31	67.73	24.52	-39.5	-41.7	14.3	7.00e-07	0	60	0	641728512	51	4408
2026-01-22 08:31:00.34	66.60	24.67	-39.6	-41.8	14.2	7.00e-07	0	60	0	654311424	51	4471
2026-01-22 08:31:04.38	65.45	24.82	-39.8	-42.0	14.0	3.80e-06	0	60	0	666894336	51	4572
2026-01-22 08:31:08.43	64.30	24.95	-39.8	-42.0	14.0	5.30e-06	0	60	0	679477248	51	4595
2026-01-22 08:31:12.46	63.14	25.07	-39.7	-42.0	14.1	3.80e-06	0	60	0	692060160	51	4554
2026-01-22 08:31:16.50	61.96	25.18	-39.5	-41.6	14.4	7.00e-07	0	60	0	704643072	51	4376
2026-01-22 08:31:20.54	60.79	25.28	-39.5	-41.6	14.5	0.00e+00	0	60	0	717225984	50	4633
2026-01-22 08:31:24.58	59.60	25.36	-39.6	-41.8	14.3	7.00e-07	0	60	0	730857472	50	4738
2026-01-22 08:31:28.61	58.41	25.43	-39.8	-41.9	14.1	2.20e-06	0	60	0	742391808	50	4808
2026-01-22 08:31:32.65	57.21	25.48	-39.6	-41.7	14.4	3.80e-06	0	60	0	754974720	50	4687
2026-01-22 08:31:36.69	56.01	25.53	-39.7	-41.9	14.2	7.00e-07	0	60	0	768606208	50	4772
2026-01-22 08:31:40.72	54.82	25.55	-39.7	-41.9	14.3	3.80e-06	0	60	0	781189120	50	4765
2026-01-22 08:31:44.77	53.61	25.57	-39.7	-41.8	14.3	0.00e+00	0	60	0	793772032	50	4743
2026-01-22 08:31:48.80	52.41	25.57	-39.8	-42.1	14.1	1.50e-06	0	60	0	806354944	50	4882
2026-01-22 08:31:52.84	51.20	25.56	-39.6	-41.7	14.4	7.00e-07	0	60	0	818937856	50	4697
2026-01-22 08:31:56.88	50.00	25.53	-39.6	-41.7	14.4	0.00e+00	0	60	0	831520768	50	4699
2026-01-22 08:32:00.92	48.80	25.49	-39.7	-41.8	14.4	0.00e+00	0	60	0	844103680	50	4730
2026-01-22 08:32:04.96	47.60	25.44	-39.6	-41.7	14.4	0.00e+00	0	60	0	856686592	50	4700
2026-01-22 08:32:09.00	46.41	25.37	-39.9	-42.1	14.0	1.50e-06	0	60	0	869269504	50	4909
2026-01-22 08:32:13.04	45.23	25.29	-40.0	-42.3	13.9	5.30e-06	0	60	0	881852416	50	4987
2026-01-22 08:32:17.08	44.05	25.20	-39.7	-41.8	14.4	0.00e+00	0	60	0	894435328	50	4729
2026-01-22 08:32:21.12	42.88	25.09	-39.8	-42.0	14.2	3.80e-06	0	60	0	907018240	50	4853
2026-01-22 08:32:25.16	41.71	24.97	-40.0	-42.3	13.8	4.50e-06	0	60	0	919601152	50	5007
2026-01-22 08:32:29.19	40.56	24.84	-39.8	-41.9	14.2	2.20e-06	0	60	0	932184064	50	4798
2026-01-22 08:32:33.23	39.42	24.70	-39.7	-41.8	14.3	7.00e-07	0	60	0	944766976	50	4757
2026-01-22 08:32:37.26	38.29	24.54	-39.9	-42.1	14.1	1.50e-06	0	60	0	957349888	50	4884
2026-01-22 08:32:41.30	37.17	24.38	-39.9	-42.1	14.0	1.50e-06	0	60	0	969932800	50	4917
2026-01-22 08:32:45.34	36.06	24.20	-39.6	-41.7	14.5	2.20e-06	0	60	0	982515712	50	4664
2026-01-22 08:32:49.39	34.96	24.01	-39.8	-42.0	14.1	3.80e-06	0	60	0	995098624	50	4850
2026-01-22 08:32:53.42	33.88	23.82	-40.1	-42.3	13.9	3.80e-06	0	60	0	1007681536	50	5035
2026-01-22 08:32:57.47	32.81	23.61	-39.9	-42.1	14.1	1.50e-06	0	60	0	1020264448	50	4904
2026-01-22 08:33:01.51	31.76	23.40	-39.8	-42.0	14.2	7.00e-07	0	60	0	1032847360	50	4829
2026-01-22 08:33:05.55	30.72	23.18	-39.7	-41.9	14.3	1.50e-06	0	60	0	1045430272	50	4761
2026-01-22 08:33:09.59	29.70	22.94	-39.7	-41.9	14.3	0.00e+00	0	60	0	1058013184	50	4765
2026-01-22 08:33:13.63	28.69	22.71	-39.7	-41.9	14.2	1.50e-06	0	60	0	1070596096	50	4788
2026-01-22 08:33:17.67	27.70	22.46	-39.9	-42.2	14.0	1.50e-06	0	60	0	1083179008	50	4944
2026-01-22 08:33:21.71	26.72	22.21	-39.9	-42.1	14.1	2.20e-06	0	60	0	1095761920	50	4885
2026-01-22 08:33:25.75	25.76	21.95	-39.5	-41.6	14.6	7.00e-07	0	60	0	1109393408	50	4607
2026-01-22 08:33:29.79	24.82	21.69	-39.7	-41.8	14.3	7.00e-07	0	60	0	1121976320	50	4748
2026-01-22 08:33:33.83	23.89	21.42	-39.6	-41.7	14.5	1.50e-06	0	60	0	1134559232	50	4670
2026-01-22 08:33:37.87	22.98	21.14	-39.5	-41.6	14.6	0.00e+00	0	60	0	1147142144	50	4606
2026-01-22 08:33:41.90	22.08	20.86	-39.5	-41.6	14.5	0.00e+00	0	60	0	1159725056	50	4612
2026-01-22 08:33:45.95	21.20	20.58	-39.4	-41.5	14.6	0.00e+00	0	60	0	1172307968	50	4563
2026-01-22 08:33:49.98	20.34	20.29	-39.8	-42.2	13.8	2.20e-06	0	60	0	1184890880	50	4955
2026-01-22 08:33:54.02	19.50	20.00	-39.8	-42.2	13.8	3.80e-06	0	60	0	1197473792	50	4951
2026-01-22 08:33:58.05	18.67	19.71	-39.8	-42.2	13.9	3.80e-06	0	60	0	1210056704	50	4927
2026-01-22 08:34:02.09	17.86	19.42	-39.9	-42.3	13.7	6.80e-06	0	60	0	1222639616	50	4984
2026-01-22 08:34:06.14	17.06	19.12	-39.8	-42.0	13.9	1.50e-06	0	60	0	1235222528	50	4859
2026-01-22 08:34:10.18	16.28	18.82	-40.0	-42.4	13.6	9.90e-06	0	61	0	1247805440	50	5063
2026-01-22 08:34:14.21	15.51	18.52	-40.3	-42.7	13.2	2.36e-05	0	60	0	1260388352	51	4978
2026-01-22 08:34:18.25	14.76	18.21	-40.4	-42.9	13.1	3.43e-05	0	60	0	1272971264	51	5055
2026-01-22 08:34:22.29	14.02	17.91	-40.4	-42.9	12.9	3.81e-05	0	60	0	1285554176	51	5095
2026-01-22 08:34:26.33	13.30	17.60	-40.3	-42.9	13.0	3.50e-05	0	60	0	1298137088	51	5047
2026-01-22 08:34:30.37	12.60	17.29	-40.2	-42.6	13.2	1.37e-05	0	60	0	1310720000	51	4911
2026-01-22 08:34:34.41	11.91	16.99	-40.0	-42.4	13.4	1.22e-05	0	61	0	1323302912	51	4783
2026-01-22 08:34:38.45	11.23	16.68	-40.0	-42.3	13.4	1.06e-05	0	60	0	1335885824	51	4759
2026-01-22 08:34:42.49	10.56	16.37	-40.2	-42.7	13.0	3.05e-05	0	60	0	1348468736	51	4952
2026-01-22 08:34:46.53	9.91	16.06	-40.2	-42.8	12.8	5.64e-05	0	60	0	1361051648	51	5000
2026-01-22 08:34:50.57	9.28	15.76	-39.9	-42.4	13.1	2.36e-05	0	60	0	1373634560	51	4772
2026-01-22 08:34:54.61	8.66	15.45	-39.9	-42.4	13.0	3.89e-05	0	60	0	1386217472	51	4810
2026-01-22 08:34:58.65	8.05	15.14	-40.4	-43.2	12.1	2.65e-04	0	60	0	1398800384	51	5234
2026-01-22 08:35:02.68	7.45	14.84	-40.4	-43.3	11.7	5.77e-04	0	60	0	1411383296	51	5339
2026-01-22 08:35:06.73	6.86	14.53	-40.0	-42.7	12.3	1.81e-04	0	60	0	1425014784	51	4982
2026-01-22 08:35:10.76	6.29	14.23	-40.2	-43.0	11.9	2.84e-04	0	60	0	1436549120	51	5158
2026-01-22 08:35:14.81	5.73	13.92	-40.3	-43.5	11.1	1.37e-03	0	60	0	1450180608	51	5462
2026-01-22 08:35:18.84	5.18	13.62	-40.0	-43.3	10.9	2.45e-03	0	60	0	1462763520	51	5317
2026-01-22 08:35:22.88	4.64	13.32	-39.9	-43.5	10.1	5.81e-03	0	60	0	1475346432	51	5424
2026-01-22 08:35:26.92	4.12	13.02	-41.0	-47.4	5.8	3.42e-01	0	61	0	1487929344	52	8069
2026-01-22 08:35:30.96	3.60	12.72	-41.5	-52.2	3.8	1.48e+00	0	61	104	1492123648	53	13154
2026-01-22 08:35:34.99	3.10	12.42	-42.4	-54.2	3.8	1.49e+00	0	60	104	1492123648	55	14761
2026-01-22 08:35:39.03	2.60	12.13	-41.1	-53.4	3.8	1.49e+00	0	61	104	1492123648	54	14250
2026-01-22 08:35:43.07	2.12	11.83	-40.7	-53.0	3.8	1.49e+00	0	61	104	1492123648	52	15354
2026-01-22 08:35:47.11	1.64	11.54	-40.2	-52.5	3.8	1.49e+00	0	61	104	1492123648	52	14533
2026-01-22 08:35:51.15	1.18	11.25	-40.4	-52.7	3.8	1.49e+00	0	61	104	1492123648	52	14831
2026-01-22 08:35:55.19	0.72	10.96	-40.1	-52.5	3.8	1.49e+00	0	61	104	1492123648	52	14449
2026-01-22 08:35:59.23	0.27	10.67	-40.2	-52.6	3.8	1.49e+00	0	61	104	1492123648	52	14566
2026-01-22 08:36:03.27	359.84	10.39	-40.1	-52.4	3.8	1.49e+00	0	61	104	1492123648	52	14371
2026-01-22 08:36:07.30	359.41	10.10	-40.2	-52.6	3.8	1.49e+00	0	61	104	1492123648	52	14653
2026-01-22 08:36:11.34	358.99	9.82	-40.2	-52.5	3.8	1.49e+00	0	61	104	1492123648	52	14527
2026-01-22 08:36:15.38	358.57	9.54	-40.1	-52.5	3.8	1.49e+00	0	61	104	1492123648	52	14405
2026-01-22 08:36:19.42	358.17	9.26	-40.1	-52.5	3.8	1.49e+00	0	61	104	1492123648	52	14376
2026-01-22 08:36:23.46	357.77	8.98	-40.1	-52.4	3.8	1.49e+00	0	61	104	1492123648	52	14317
2026-01-22 08:36:27.49	357.39	8.70	-40.0	-52.4	3.8	1.49e+00	0	61	104	1492123648	52	14340
2026-01-22 08:36:31.53	357.01	8.43	-40.1	-52.5	3.8	1.49e+00	0	61	104	1492123648	51	15310
2026-01-22 08:36:35.57	356.63	8.16	-40.1	-52.4	3.8	1.49e+00	0	61	104	1492123648	51	15200
2026-01-22 08:36:39.61	356.27	7.89	-44.4	-56.6	3.8	1.49e+00	0	61	104	1492123648	59	15579
2026-01-22 08:36:43.65	355.91	7.62	-45.4	-57.9	3.8	1.49e+00	0	61	104	1492123648	61	16025
2026-01-22 08:36:47.69	355.55	7.35	-44.6	-57.7	3.8	1.49e+00	0	61	104	1492123648	60	16520
2026-01-22 08:36:51.74	355.21	7.08	-45.2	-57.7	3.8	1.49e+00	0	61	104	1492123648	61	15666
2026-01-22 08:36:55.78	354.87	6.82	-45.3	-57.6	3.8	1.49e+00	0	61	104	1492123648	61	15498
2026-01-22 08:36:59.82	354.53	6.56	-45.3	-57.6	3.8	1.49e+00	0	61	104	1492123648	61	15535
2026-01-22 08:37:03.86	354.21	6.30	-45.2	-57.6	3.8	1.49e+00	0	61	104	1492123648	61	15484
2026-01-22 08:37:07.90	353.89	6.04	-45.2	-57.6	3.8	1.49e+00	0	61	104	1492123648	61	15458
2026-01-22 08:37:11.95	353.57	5.78	-45.2	-57.5	3.8	1.49e+00	0	61	104	1492123648	61	15396
2026-01-22 08:37:15.99	353.26	5.52	-45.2	-57.6	3.8	1.49e+00	0	61	104	1492123648	61	15503
2026-01-22 08:37:20.03	352.96	5.27	-45.1	-57.5	3.8	1.49e+00	0	61	104	1492123648	60	16256
2026-01-22 08:37:24.07	352.66	5.02	-45.2	-57.6	3.8	1.49e+00	0	61	104	1492123648	60	16345
2026-01-22 08:37:28.11	352.37	4.77	-45.2	-57.5	3.8	1.49e+00	0	61	104	1492123648	60	16299
2026-01-22 08:37:32.16	352.08	4.52	-45.2	-57.6	3.8	1.49e+00	0	61	104	1492123648	60	16317
2026-01-22 08:37:36.20	351.80	4.27	-45.1	-57.6	3.8	1.49e+00	0	61	104	1492123648	60	16316
2026-01-22 08:37:40.24	351.52	4.03	-45.2	-57.5	3.8	1.49e+00	0	61	104	1492123648	60	16275
2026-01-22 08:37:44.28	351.25	3.78	-45.2	-57.5	3.8	1.49e+00	0	61	104	1492123648	60	16312
2026-01-22 08:37:48.32	350.98	3.54	-43.5	-57.3	3.8	1.49e+00	0	61	104	1492123648	59	16835
2026-01-22 08:37:52.36	350.72	3.30	-44.9	-57.5	3.8	1.49e+00	0	61	104	1492123648	60	16244
2026-01-22 08:37:56.41	350.46	3.06	-45.1	-57.5	3.8	1.49e+00	0	61	104	1492123648	60	16270
2026-01-22 08:38:00.45	350.20	2.82	-45.1	-57.5	3.8	1.49e+00	0	61	104	1492123648	60	16184
2026-01-22 08:38:04.49	349.95	2.58	-45.1	-57.5	3.8	1.49e+00	0	61	104	1492123648	60	16204
2026-01-22 08:38:08.54	349.71	2.35	-45.1	-57.5	3.8	1.49e+00	0	61	104	1492123648	60	16195
2026-01-22 08:38:12.58	349.46	2.11	-45.1	-57.5	3.8	1.49e+00	0	61	104	1492123648	60	16158
2026-01-22 08:38:16.62	349.23	1.88	-45.1	-57.5	3.8	1.49e+00	0	61	104	1492123648	60	16234

#Closed at: 2026-01-22 08:38:17
#Recorded file [1492 MB]: D:/lorett/data/31039_260122_112520.dat