passes_logs/2026/01/22/R2.0S_Moscow/R2.0S_Moscow__20260122_230457_NOAA_20_JPSS-1_rec.log

#Pass ID: 20260122_230457_NOAA 20 (JPSS-1)
#Satellite: NOAA 20 (JPSS-1)
#Configuration: NOAA 20
#almurnet v.1.7.20251203
#Start time: 2026-01-22 23:04:58

#Version: 2.2.20231116
#Station: R2.0S_Moscow
#Location: 37.707566 lon 55.798166 lat
#TLE: 1 43013U 17073A   26022.44900781  .00000193  00000+0  11233-3 0  9999
#TLE: 2 43013  98.7645 323.3100 0001197  28.8413 331.2829 14.19538802423792

#Time	Az	El	Level	Level2	SNR	BER	BlckErr	Temp	State	Recorded	gain1	gain2
2026-01-22 23:04:58.06	19.10	2.04	-42.2	-56.7	3.8	1.49e+00	0	52	0	0	56	18681
2026-01-22 23:05:02.09	19.23	2.30	-42.0	-56.6	3.8	1.49e+00	0	53	104	0	55	19429
2026-01-22 23:05:06.14	19.35	2.55	-42.0	-56.5	3.8	1.49e+00	0	53	104	0	55	19374
2026-01-22 23:05:10.18	19.48	2.81	-42.0	-56.5	3.8	1.49e+00	0	53	104	0	55	19387
2026-01-22 23:05:14.22	19.61	3.07	-42.0	-56.6	3.8	1.49e+00	0	53	104	0	55	19438
2026-01-22 23:05:18.26	19.74	3.33	-42.0	-56.6	3.8	1.49e+00	0	54	104	0	55	19404
2026-01-22 23:05:22.30	19.87	3.59	-42.0	-56.5	3.8	1.49e+00	0	54	104	0	55	19371
2026-01-22 23:05:26.34	20.01	3.86	-42.0	-56.5	3.8	1.49e+00	0	54	104	0	55	19347
2026-01-22 23:05:30.39	20.14	4.13	-42.0	-56.5	3.8	1.49e+00	0	54	104	0	55	19355
2026-01-22 23:05:34.42	20.28	4.40	-42.0	-56.6	3.8	1.49e+00	0	54	104	0	55	19396
2026-01-22 23:05:38.46	20.42	4.67	-42.0	-56.5	3.8	1.49e+00	0	55	104	0	55	19371
2026-01-22 23:05:42.50	20.57	4.95	-42.0	-56.5	3.8	1.49e+00	0	55	104	0	55	19318
2026-01-22 23:05:46.55	20.72	5.23	-42.0	-56.5	3.8	1.49e+00	0	55	104	0	55	19338
2026-01-22 23:05:50.59	20.86	5.52	-42.0	-56.5	3.8	1.49e+00	0	55	104	0	55	19316
2026-01-22 23:05:54.63	21.02	5.80	-42.0	-56.5	3.8	1.49e+00	0	55	104	0	55	19325
2026-01-22 23:05:58.67	21.17	6.09	-42.0	-56.5	3.8	1.49e+00	0	56	104	0	55	19300
2026-01-22 23:06:02.71	21.33	6.38	-42.0	-56.5	3.8	1.49e+00	0	56	104	0	55	19348
2026-01-22 23:06:06.75	21.49	6.68	-42.0	-56.5	3.8	1.49e+00	0	56	104	0	55	19381
2026-01-22 23:06:10.79	21.65	6.97	-42.0	-56.5	3.8	1.49e+00	0	56	104	0	55	19273
2026-01-22 23:06:14.83	21.82	7.28	-41.9	-56.1	3.8	1.49e+00	0	56	104	0	55	18495
2026-01-22 23:06:18.87	21.98	7.58	-41.9	-55.4	3.8	1.49e+00	0	56	104	0	55	16978
2026-01-22 23:06:22.91	22.16	7.89	-41.6	-52.1	4.5	1.35e+00	35	57	0	0	55	11657
2026-01-22 23:06:26.96	22.33	8.20	-42.5	-51.3	5.3	8.80e-01	0	57	0	5242880	55	10655
2026-01-22 23:06:31.00	22.51	8.52	-41.5	-47.1	9.1	6.70e-02	0	57	0	8388608	55	6570
2026-01-22 23:06:35.03	22.69	8.84	-41.9	-47.8	8.6	3.65e-02	0	57	0	15728640	54	7538
2026-01-22 23:06:39.07	22.88	9.16	-41.8	-47.5	9.0	2.36e-02	0	57	0	23068672	54	7249
2026-01-22 23:06:43.11	23.07	9.49	-41.9	-47.4	9.2	1.85e-02	0	57	0	31457280	54	7195
2026-01-22 23:06:47.15	23.26	9.82	-42.0	-47.6	9.2	1.96e-02	0	58	0	38797312	54	7335
2026-01-22 23:06:51.19	23.46	10.15	-42.0	-47.2	9.8	8.53e-03	0	58	0	46137344	54	7000
2026-01-22 23:06:55.23	23.66	10.50	-41.9	-46.9	10.2	5.69e-03	0	58	0	53477376	54	6789
2026-01-22 23:06:59.27	23.87	10.84	-42.0	-46.9	10.4	4.81e-03	0	58	0	61865984	54	6726
2026-01-22 23:07:03.31	24.08	11.19	-41.9	-46.6	10.7	3.19e-03	0	58	0	69206016	54	6567
2026-01-22 23:07:07.34	24.29	11.54	-42.0	-46.7	10.6	3.76e-03	0	58	0	76546048	54	6636
2026-01-22 23:07:11.38	24.51	11.90	-41.9	-46.4	11.0	1.94e-03	0	58	0	83886080	54	6369
2026-01-22 23:07:15.42	24.74	12.27	-41.9	-46.3	11.2	1.38e-03	0	58	0	91226112	54	6301
2026-01-22 23:07:19.46	24.97	12.64	-41.7	-46.0	11.6	7.25e-04	0	58	0	99614720	54	6078
2026-01-22 23:07:23.49	25.20	13.01	-41.7	-45.8	11.9	4.94e-04	0	58	0	106954752	54	5945
2026-01-22 23:07:27.53	25.44	13.39	-41.6	-45.5	12.2	2.24e-04	0	58	0	114294784	54	5751
2026-01-22 23:07:31.57	25.69	13.77	-41.6	-45.5	12.2	1.78e-04	0	58	0	121634816	54	5760
2026-01-22 23:07:35.61	25.95	14.17	-41.7	-45.6	12.2	1.91e-04	0	59	0	130023424	54	5821
2026-01-22 23:07:39.65	26.21	14.56	-41.6	-45.4	12.4	1.52e-04	0	59	0	137363456	54	5697
2026-01-22 23:07:43.69	26.47	14.97	-41.7	-45.5	12.3	1.72e-04	0	59	0	144703488	54	5763
2026-01-22 23:07:47.72	26.74	15.37	-41.5	-45.2	12.7	6.94e-05	0	59	0	152043520	54	5552
2026-01-22 23:07:51.76	27.02	15.79	-41.5	-45.1	12.7	6.63e-05	0	59	0	159383552	54	5514
2026-01-22 23:07:55.80	27.31	16.21	-41.5	-45.2	12.7	9.61e-05	0	59	0	167772160	54	5565
2026-01-22 23:07:59.84	27.61	16.64	-41.5	-45.1	12.8	5.34e-05	0	59	0	175112192	54	5479
2026-01-22 23:08:03.87	27.91	17.08	-41.5	-45.0	12.9	5.72e-05	0	59	0	182452224	54	5454
2026-01-22 23:08:07.91	28.22	17.52	-41.4	-44.9	13.1	2.82e-05	0	59	0	189792256	54	5385
2026-01-22 23:08:11.94	28.54	17.97	-41.4	-44.8	13.2	2.82e-05	0	59	0	198180864	54	5315
2026-01-22 23:08:15.98	28.87	18.43	-41.4	-44.8	13.3	1.67e-05	0	59	0	205520896	54	5302
2026-01-22 23:08:20.02	29.21	18.90	-41.4	-44.9	13.2	2.59e-05	0	59	0	212860928	54	5350
2026-01-22 23:08:24.05	29.56	19.37	-41.5	-45.0	13.1	2.28e-05	0	59	0	220200960	54	5415
2026-01-22 23:08:28.09	29.92	19.86	-41.5	-44.9	13.2	1.90e-05	0	59	0	227540992	54	5389
2026-01-22 23:08:32.13	30.30	20.35	-41.5	-44.9	13.2	2.67e-05	0	59	0	235929600	54	5383
2026-01-22 23:08:36.17	30.68	20.85	-41.4	-44.9	13.3	1.60e-05	0	60	0	243269632	54	5352
2026-01-22 23:08:40.20	31.07	21.35	-41.6	-45.0	13.2	2.51e-05	0	60	0	250609664	54	5457
2026-01-22 23:08:44.24	31.48	21.87	-41.5	-44.9	13.3	2.67e-05	0	60	0	257949696	54	5401
2026-01-22 23:08:48.28	31.91	22.40	-41.5	-44.9	13.3	2.36e-05	0	59	0	266338304	54	5390
2026-01-22 23:08:52.32	32.34	22.94	-41.5	-44.8	13.4	7.60e-06	0	60	0	273678336	54	5339
2026-01-22 23:08:56.36	32.79	23.48	-41.6	-45.1	13.2	1.67e-05	0	60	0	281018368	54	5478
2026-01-22 23:09:00.40	33.26	24.04	-41.6	-45.0	13.3	1.98e-05	0	60	0	288358400	54	5425
2026-01-22 23:09:04.43	33.74	24.61	-41.4	-44.7	13.6	6.80e-06	0	60	0	295698432	54	5246
2026-01-22 23:09:08.47	34.24	25.18	-41.7	-45.1	13.2	1.60e-05	0	60	0	304087040	54	5490
2026-01-22 23:09:12.51	34.76	25.77	-41.8	-45.4	12.9	5.64e-05	0	60	0	311427072	54	5665
2026-01-22 23:09:16.55	35.29	26.37	-41.7	-45.2	13.1	3.35e-05	0	60	0	318767104	54	5584
2026-01-22 23:09:20.58	35.85	26.98	-41.8	-45.4	12.9	4.73e-05	0	60	0	326107136	54	5702
2026-01-22 23:09:24.62	36.43	27.60	-42.2	-46.0	12.3	1.62e-04	0	60	0	334495744	54	6127
2026-01-22 23:09:28.66	37.03	28.23	-42.4	-46.5	11.8	4.80e-04	0	60	0	341835776	55	6072
2026-01-22 23:09:32.70	37.65	28.88	-42.4	-46.7	11.6	6.24e-04	0	60	0	349175808	55	6212
2026-01-22 23:09:36.73	38.30	29.53	-42.7	-47.2	11.0	1.76e-03	0	60	0	356515840	55	6601
2026-01-22 23:09:40.77	38.98	30.20	-43.1	-47.9	10.5	3.58e-03	0	60	0	363855872	56	6758
2026-01-22 23:09:44.81	39.68	30.88	-43.2	-48.1	10.3	4.82e-03	0	60	0	372244480	57	6505
2026-01-22 23:09:48.85	40.42	31.57	-43.1	-47.9	10.5	3.53e-03	0	60	0	379584512	57	6356
2026-01-22 23:09:52.88	41.18	32.27	-43.0	-47.7	10.7	3.01e-03	0	60	0	386924544	57	6213
2026-01-22 23:09:56.92	41.98	32.98	-43.0	-47.6	10.9	2.43e-03	0	60	0	394264576	57	6142
2026-01-22 23:10:00.96	42.81	33.70	-42.5	-46.6	11.9	4.90e-04	0	60	0	402653184	57	5494
2026-01-22 23:10:05.00	43.68	34.43	-42.7	-46.8	11.6	5.48e-04	0	60	0	409993216	57	5653
2026-01-22 23:10:09.04	44.60	35.18	-42.5	-46.4	12.2	2.88e-04	0	60	0	417333248	56	5682
2026-01-22 23:10:13.08	45.55	35.93	-42.3	-46.0	12.6	7.78e-05	0	60	0	424673280	56	5462
2026-01-22 23:10:17.11	46.54	36.69	-41.6	-44.9	13.7	6.80e-06	0	60	0	432013312	55	5051
2026-01-22 23:10:21.15	47.59	37.46	-41.8	-45.2	13.3	1.60e-05	0	60	0	440401920	55	5242
2026-01-22 23:10:25.19	48.68	38.24	-41.7	-45.1	13.4	2.44e-05	0	60	0	447741952	55	5194
2026-01-22 23:10:29.23	49.83	39.02	-41.7	-44.9	13.5	8.30e-06	0	60	0	455081984	55	5095
2026-01-22 23:10:33.26	51.03	39.81	-42.1	-45.8	12.7	6.17e-05	0	60	0	462422016	55	5636
2026-01-22 23:10:37.31	52.30	40.60	-42.0	-45.5	12.9	3.50e-05	0	60	0	469762048	55	5463
2026-01-22 23:10:41.34	53.62	41.40	-42.1	-45.6	12.9	4.11e-05	0	60	0	478150656	55	5525
2026-01-22 23:10:45.38	55.01	42.19	-42.3	-46.2	12.4	1.52e-04	0	60	0	485490688	55	5873
2026-01-22 23:10:49.42	56.47	42.98	-42.1	-45.6	12.9	4.88e-05	0	60	0	492830720	55	5507
2026-01-22 23:10:53.46	58.00	43.77	-42.6	-46.7	11.8	4.08e-04	0	60	0	500170752	55	6225
2026-01-22 23:10:57.50	59.61	44.55	-42.2	-45.9	12.7	6.79e-05	0	61	0	508559360	55	5685
2026-01-22 23:11:01.54	61.30	45.32	-43.4	-48.3	10.2	5.22e-03	0	60	0	515899392	57	6679
2026-01-22 23:11:05.57	63.07	46.07	-43.0	-47.5	11.1	2.04e-03	0	60	0	523239424	57	6102
2026-01-22 23:11:09.61	64.93	46.81	-43.3	-48.2	10.4	4.14e-03	0	61	0	530579456	57	6587
2026-01-22 23:11:13.65	66.87	47.53	-42.7	-46.7	11.9	3.91e-04	0	60	0	537919488	57	5567
2026-01-22 23:11:17.69	68.91	48.22	-42.9	-47.0	11.7	6.90e-04	0	60	0	546308096	57	5771
2026-01-22 23:11:21.73	71.03	48.88	-42.4	-46.1	12.7	8.16e-05	0	61	0	553648128	56	5477
2026-01-22 23:11:25.77	73.25	49.51	-42.3	-45.8	13.0	3.66e-05	0	60	0	560988160	56	5321
2026-01-22 23:11:29.81	75.55	50.11	-42.7	-46.7	12.2	1.91e-04	0	60	0	568328192	56	5877
2026-01-22 23:11:33.85	77.95	50.66	-42.6	-46.4	12.3	1.94e-04	0	61	0	576716800	56	5716
2026-01-22 23:11:37.89	80.42	51.16	-42.8	-46.8	11.9	2.17e-04	0	60	0	584056832	56	5966
2026-01-22 23:11:41.93	82.98	51.61	-42.1	-45.4	13.4	1.60e-05	0	61	0	591396864	56	5100
2026-01-22 23:11:45.96	85.61	52.00	-42.1	-45.5	13.3	1.52e-05	0	60	0	598736896	56	5125
2026-01-22 23:11:50.00	88.30	52.33	-42.2	-45.7	13.1	5.49e-05	0	60	0	606076928	56	5270
2026-01-22 23:11:54.04	91.05	52.60	-41.9	-45.2	13.5	5.30e-06	0	60	0	614465536	55	5258
2026-01-22 23:11:58.07	93.84	52.80	-41.2	-44.0	14.7	7.00e-07	0	61	0	621805568	54	4864
2026-01-22 23:12:02.11	96.67	52.94	-41.2	-44.1	14.6	0.00e+00	0	60	0	629145600	54	4872
2026-01-22 23:12:06.15	99.52	53.00	-41.3	-44.1	14.6	0.00e+00	0	60	0	636485632	54	4923
2026-01-22 23:12:10.20	102.38	52.99	-41.6	-44.7	14.0	1.50e-06	0	61	0	644874240	54	5257
2026-01-22 23:12:14.23	105.22	52.91	-41.6	-44.8	13.9	3.80e-06	0	61	0	652214272	54	5293
2026-01-22 23:12:18.27	108.04	52.76	-40.9	-43.7	15.0	0.00e+00	0	61	0	659554304	53	4928
2026-01-22 23:12:22.31	110.83	52.54	-40.9	-43.6	15.1	0.00e+00	0	61	0	666894336	53	4892
2026-01-22 23:12:26.34	113.56	52.26	-41.2	-44.1	14.6	7.00e-07	0	61	0	674234368	53	5166
2026-01-22 23:12:30.38	116.25	51.91	-41.8	-45.0	13.6	1.06e-05	0	61	0	682622976	54	5440
2026-01-22 23:12:34.42	118.87	51.50	-43.0	-47.3	11.4	8.75e-04	0	61	0	689963008	56	6327
2026-01-22 23:12:38.45	121.40	51.04	-42.7	-46.8	12.0	1.50e-04	0	60	0	697303040	56	5949
2026-01-22 23:12:42.49	123.87	50.53	-42.7	-46.6	12.0	2.72e-04	0	61	0	704643072	56	5849
2026-01-22 23:12:46.54	126.25	49.96	-43.6	-49.0	9.7	7.92e-03	0	61	0	713031680	57	7212
2026-01-22 23:12:50.57	128.53	49.36	-44.0	-50.2	8.2	5.61e-02	0	61	0	720371712	58	7879
2026-01-22 23:12:54.61	130.73	48.72	-44.0	-50.2	8.4	2.40e-02	0	61	0	727711744	58	7848
2026-01-22 23:12:58.65	132.84	48.05	-43.9	-49.9	8.7	3.90e-02	0	61	0	735051776	58	7560
2026-01-22 23:13:02.69	134.86	47.34	-44.2	-50.9	7.6	2.01e-01	0	61	0	742391808	59	8068
2026-01-22 23:13:06.73	136.79	46.62	-44.0	-50.2	8.4	3.35e-02	0	61	0	750780416	59	7393
2026-01-22 23:13:10.77	138.63	45.87	-42.7	-46.7	12.0	2.19e-04	0	61	0	758120448	57	5588
2026-01-22 23:13:14.80	140.38	45.11	-43.3	-48.0	10.6	4.67e-03	0	61	0	765460480	57	6460
2026-01-22 23:13:18.84	142.05	44.34	-43.2	-47.7	10.9	8.83e-04	0	61	0	772800512	57	6266
2026-01-22 23:13:22.88	143.65	43.55	-43.4	-48.4	10.1	1.13e-02	0	61	0	781189120	58	6357
2026-01-22 23:13:26.91	145.16	42.76	-44.0	-50.3	8.2	2.57e-02	0	61	0	788529152	58	7921
2026-01-22 23:13:30.95	146.61	41.96	-43.5	-48.6	9.9	1.61e-02	0	61	0	795869184	59	6194
2026-01-22 23:13:34.99	147.99	41.17	-44.7	-54.5	4.8	6.23e-01	0	61	0	803209216	60	11541
2026-01-22 23:13:39.03	149.30	40.37	-43.4	-48.3	10.2	5.52e-03	0	61	0	810549248	58	6293
2026-01-22 23:13:43.07	150.55	39.57	-44.1	-50.9	7.5	2.85e-01	0	61	0	818937856	60	7606
2026-01-22 23:13:47.10	151.74	38.78	-43.4	-48.5	9.9	5.08e-03	0	61	0	826277888	58	6449
2026-01-22 23:13:51.14	152.87	38.00	-43.8	-49.7	8.6	3.87e-02	0	61	0	833617920	58	7453
2026-01-22 23:13:55.18	153.96	37.22	-43.5	-48.7	9.7	1.18e-02	0	61	0	840957952	58	6595
2026-01-22 23:13:59.21	154.99	36.44	-43.9	-50.2	8.1	7.44e-02	0	61	0	849346560	58	7873
2026-01-22 23:14:03.25	155.98	35.68	-43.4	-48.5	10.0	1.02e-02	0	61	0	856686592	58	6426
2026-01-22 23:14:07.29	156.92	34.93	-43.6	-49.2	9.1	1.49e-02	0	61	0	864026624	58	6998
2026-01-22 23:14:11.32	157.82	34.18	-42.7	-46.9	11.5	1.22e-03	0	61	0	871366656	57	5701
2026-01-22 23:14:15.36	158.68	33.45	-43.2	-48.0	10.4	2.91e-03	0	61	0	878706688	56	6834
2026-01-22 23:14:19.40	159.51	32.72	-43.5	-48.9	9.3	2.77e-02	0	61	0	887095296	58	6788
2026-01-22 23:14:23.44	160.30	32.01	-42.7	-47.0	11.4	9.09e-04	0	61	0	894435328	57	5724
2026-01-22 23:14:27.47	161.06	31.31	-43.2	-48.3	10.0	7.18e-03	0	61	0	901775360	57	6663
2026-01-22 23:14:31.51	161.78	30.62	-43.5	-49.2	9.0	2.49e-02	0	61	0	909115392	57	7435
2026-01-22 23:14:35.54	162.48	29.94	-43.3	-48.4	9.9	1.04e-02	0	61	0	916455424	57	6734
2026-01-22 23:14:39.58	163.15	29.27	-42.9	-47.5	10.8	4.03e-03	0	61	0	924844032	57	6080
2026-01-22 23:14:43.62	163.79	28.62	-42.8	-47.2	11.1	1.17e-03	0	61	0	932184064	57	5922
2026-01-22 23:14:47.66	164.41	27.97	-43.0	-47.9	10.4	4.58e-03	0	61	0	939524096	57	6370
2026-01-22 23:14:51.70	165.00	27.34	-42.6	-46.9	11.3	1.33e-03	0	61	0	946864128	57	5710
2026-01-22 23:14:55.74	165.58	26.72	-42.7	-47.0	11.2	8.54e-04	0	61	0	955252736	56	6112
2026-01-22 23:14:59.78	166.13	26.11	-43.0	-47.9	10.3	4.76e-03	0	61	0	962592768	56	6730
2026-01-22 23:15:03.81	166.66	25.51	-42.9	-47.7	10.5	4.37e-03	0	61	0	969932800	56	6610
2026-01-22 23:15:07.85	167.17	24.92	-42.7	-47.2	11.0	1.96e-03	0	61	0	977272832	56	6273
2026-01-22 23:15:11.89	167.66	24.34	-42.5	-46.6	11.6	7.37e-04	0	61	0	984612864	56	5844
2026-01-22 23:15:15.94	168.14	23.77	-42.4	-46.4	11.8	4.76e-04	0	61	0	993001472	56	5681
2026-01-22 23:15:19.98	168.60	23.22	-42.8	-47.3	10.8	2.20e-03	0	61	0	1000341504	56	6335
2026-01-22 23:15:24.01	169.05	22.67	-42.8	-47.5	10.6	3.73e-03	0	61	0	1007681536	56	6482
2026-01-22 23:15:28.05	169.48	22.13	-42.5	-46.8	11.3	1.42e-03	0	61	0	1015021568	56	5972
2026-01-22 23:15:32.09	169.90	21.60	-42.1	-46.0	12.2	2.48e-04	0	61	0	1023410176	56	5424
2026-01-22 23:15:36.13	170.30	21.09	-42.2	-46.2	11.9	3.40e-04	0	61	0	1030750208	56	5575
2026-01-22 23:15:40.17	170.69	20.58	-42.3	-46.4	11.7	5.83e-04	0	61	0	1038090240	56	5671
2026-01-22 23:15:44.21	171.07	20.08	-42.1	-46.0	12.1	2.85e-04	0	61	0	1045430272	56	5406
2026-01-22 23:15:48.24	171.43	19.58	-41.7	-45.4	12.6	1.53e-04	0	61	0	1052770304	55	5341
2026-01-22 23:15:52.28	171.79	19.10	-41.5	-45.1	12.8	5.26e-05	0	61	0	1061158912	55	5161
2026-01-22 23:15:56.32	172.14	18.63	-41.5	-45.0	12.9	3.73e-05	0	61	0	1068498944	55	5129
2026-01-22 23:16:00.36	172.47	18.16	-41.5	-45.1	12.9	6.40e-05	0	61	0	1075838976	55	5168
2026-01-22 23:16:04.39	172.80	17.70	-41.7	-45.4	12.5	9.30e-05	0	61	0	1083179008	55	5358
2026-01-22 23:16:08.43	173.11	17.25	-41.8	-45.7	12.1	2.04e-04	0	61	0	1091567616	55	5563
2026-01-22 23:16:12.47	173.42	16.81	-41.7	-45.5	12.3	1.94e-04	0	61	0	1098907648	55	5454
2026-01-22 23:16:16.51	173.72	16.37	-41.6	-45.3	12.5	1.33e-04	0	61	0	1106247680	55	5310
2026-01-22 23:16:20.55	174.01	15.94	-41.5	-45.2	12.7	9.61e-05	0	61	0	1113587712	55	5219
2026-01-22 23:16:24.58	174.29	15.52	-41.5	-45.1	12.7	9.23e-05	0	61	0	1120927744	54	5509
2026-01-22 23:16:28.62	174.57	15.10	-41.6	-45.3	12.5	1.04e-04	0	61	0	1129316352	54	5630
2026-01-22 23:16:32.65	174.84	14.69	-41.7	-45.6	12.2	2.16e-04	0	61	0	1136656384	54	5824
2026-01-22 23:16:36.70	175.10	14.29	-41.9	-46.0	11.7	4.43e-04	0	61	0	1143996416	54	6106
2026-01-22 23:16:40.73	175.35	13.89	-42.0	-46.2	11.6	7.46e-04	0	61	0	1151336448	54	6205
2026-01-22 23:16:44.77	175.60	13.50	-42.0	-46.3	11.3	1.03e-03	0	61	0	1159725056	54	6331
2026-01-22 23:16:48.81	175.84	13.11	-41.9	-46.2	11.4	9.83e-04	0	61	0	1167065088	54	6246
2026-01-22 23:16:52.84	176.08	12.73	-41.9	-46.2	11.4	8.16e-04	0	61	0	1174405120	54	6204
2026-01-22 23:16:56.88	176.31	12.36	-41.8	-46.0	11.6	6.64e-04	0	61	0	1181745152	54	6120
2026-01-22 23:17:00.92	176.54	11.99	-41.9	-46.1	11.4	8.57e-04	0	61	0	1189085184	54	6172
2026-01-22 23:17:04.96	176.76	11.63	-41.8	-46.1	11.4	9.02e-04	0	61	0	1197473792	54	6166
2026-01-22 23:17:09.00	176.97	11.27	-41.9	-46.2	11.3	1.13e-03	0	61	0	1204813824	54	6205
2026-01-22 23:17:13.03	177.18	10.91	-41.8	-46.1	11.4	1.08e-03	0	61	0	1212153856	54	6143
2026-01-22 23:17:17.07	177.39	10.56	-41.9	-46.3	11.1	1.56e-03	0	61	0	1219493888	54	6314
2026-01-22 23:17:21.11	177.59	10.22	-42.0	-46.6	10.7	2.73e-03	0	61	0	1227882496	54	6534
2026-01-22 23:17:25.15	177.79	9.88	-42.0	-46.9	10.4	4.50e-03	0	61	0	1235222528	54	6758
2026-01-22 23:17:29.19	177.98	9.54	-42.0	-46.9	10.2	6.14e-03	0	61	0	1242562560	54	6796
2026-01-22 23:17:33.22	178.17	9.21	-42.0	-47.1	10.0	7.88e-03	0	61	0	1249902592	54	6918
2026-01-22 23:17:37.26	178.35	8.88	-42.1	-47.3	9.8	9.39e-03	0	61	0	1257242624	54	7067
2026-01-22 23:17:41.30	178.53	8.56	-42.0	-47.4	9.5	1.43e-02	0	61	0	1265631232	54	7146
2026-01-22 23:17:45.33	178.71	8.24	-41.9	-47.6	9.1	2.29e-02	0	61	0	1272971264	54	7308
2026-01-22 23:17:49.37	178.88	7.92	-44.6	-58.6	3.8	1.32e+00	0	61	104	1279262720	59	19600
2026-01-22 23:17:53.42	179.05	7.61	-45.1	-59.8	3.8	1.49e+00	0	61	104	1279262720	60	21087
2026-01-22 23:17:57.46	179.22	7.30	-45.3	-59.9	3.8	1.49e+00	0	61	104	1279262720	61	20235
2026-01-22 23:18:01.50	179.39	6.99	-45.2	-59.8	3.8	1.49e+00	0	61	104	1279262720	61	20019
2026-01-22 23:18:05.54	179.55	6.69	-45.1	-59.7	3.8	1.49e+00	0	61	104	1279262720	61	19831
2026-01-22 23:18:09.58	179.70	6.39	-45.1	-59.8	3.8	1.49e+00	0	61	104	1279262720	61	19849
2026-01-22 23:18:13.62	179.86	6.10	-45.1	-59.7	3.8	1.49e+00	0	61	104	1279262720	61	19771
2026-01-22 23:18:17.66	180.01	5.81	-45.1	-59.7	3.8	1.49e+00	0	61	104	1279262720	61	19791
2026-01-22 23:18:21.69	180.16	5.52	-45.1	-59.7	3.8	1.49e+00	0	61	104	1279262720	61	19763
2026-01-22 23:18:25.74	180.30	5.23	-45.1	-59.7	3.8	1.49e+00	0	61	104	1279262720	61	19666
2026-01-22 23:18:29.78	180.45	4.95	-45.1	-59.7	3.8	1.49e+00	0	61	104	1279262720	61	19704
2026-01-22 23:18:33.82	180.59	4.67	-45.1	-59.7	3.8	1.49e+00	0	61	104	1279262720	61	19724
2026-01-22 23:18:37.86	180.73	4.39	-45.1	-59.6	3.8	1.49e+00	0	61	104	1279262720	61	19604
2026-01-22 23:18:41.89	180.86	4.12	-45.1	-59.7	3.8	1.49e+00	0	61	104	1279262720	61	19650
2026-01-22 23:18:45.94	181.00	3.84	-45.1	-59.7	3.8	1.49e+00	0	61	104	1279262720	61	19659
2026-01-22 23:18:49.98	181.13	3.57	-45.1	-59.6	3.8	1.49e+00	0	61	104	1279262720	61	19549
2026-01-22 23:18:54.02	181.26	3.31	-45.1	-59.6	3.8	1.49e+00	0	61	104	1279262720	61	19567
2026-01-22 23:18:58.06	181.38	3.04	-45.1	-59.6	3.8	1.49e+00	0	61	104	1279262720	61	19582
2026-01-22 23:19:02.10	181.51	2.78	-45.0	-59.6	3.8	1.49e+00	0	61	104	1279262720	61	19568
2026-01-22 23:19:06.14	181.63	2.52	-45.0	-59.6	3.8	1.49e+00	0	61	104	1279262720	61	19590
2026-01-22 23:19:10.19	181.75	2.26	-45.0	-59.6	3.8	1.49e+00	0	61	104	1279262720	61	19495
2026-01-22 23:19:14.22	181.87	2.01	-45.0	-59.6	3.8	1.49e+00	0	61	104	1279262720	61	19500

#Closed at: 2026-01-22 23:19:16
#Recorded file [1279 MB]: D:/lorett/data/31039_260123_020457.dat