passes_logs/2026/01/22/R2.0S_Moscow/R2.0S_Moscow__20260122_015716_AQUA_rec.log

#Pass ID: 20260122_015716_AQUA
#Satellite: AQUA
#Configuration: AQUA
#almurnet v.1.7.20251203
#Start time: 2026-01-22 02:05:55

#Version: 2.2.20231116
#Station: R2.0S_Moscow
#Location: 37.707566 lon 55.798166 lat
#TLE: 1 27424U 02022A   26020.90316333  .00002787  00000+0  56766-3 0  9999
#TLE: 2 27424  98.4095 347.4297 0002000  71.6339 309.8236 14.61840001261750

#Time	Az	El	Level	Level2	SNR	BER	BlckErr	Temp	State	Recorded	gain1	gain2
2026-01-22 02:05:55.57	233.16	25.59	-45.1	-57.5	3.8	1.49e+00	0	58	0	0	61	15294
2026-01-22 02:05:56.57	233.00	25.43	-46.4	-64.9	3.8	7.46e-01	0	59	104	0	63	31938
2026-01-22 02:05:57.58	232.83	25.26	-46.4	-64.9	3.8	7.45e-01	0	59	104	0	63	31969
2026-01-22 02:05:58.59	232.67	25.10	-46.3	-64.8	3.8	7.46e-01	0	59	104	0	63	31703
2026-01-22 02:05:59.61	232.50	24.93	-46.3	-64.8	3.8	7.47e-01	0	58	104	0	63	31714
2026-01-22 02:06:00.61	232.34	24.77	-46.3	-64.8	3.8	7.45e-01	0	58	104	0	63	31530
2026-01-22 02:06:01.63	232.18	24.61	-46.2	-64.6	3.8	7.45e-01	0	58	104	0	63	30962
2026-01-22 02:06:02.64	232.02	24.45	-46.2	-64.4	3.8	7.47e-01	0	58	104	0	63	30359
2026-01-22 02:06:03.65	231.87	24.29	-46.0	-63.1	3.8	7.43e-01	0	59	104	0	63	25934
2026-01-22 02:06:04.66	231.72	24.13	-46.0	-63.9	3.8	7.43e-01	0	59	104	0	63	28483
2026-01-22 02:06:05.67	231.56	23.97	-45.9	-63.4	3.8	7.46e-01	0	59	104	0	63	26913
2026-01-22 02:06:06.68	231.41	23.81	-45.8	-63.3	3.8	7.44e-01	0	58	104	0	63	26492
2026-01-22 02:06:07.69	231.26	23.65	-45.9	-63.3	3.8	7.46e-01	0	59	104	0	63	26564
2026-01-22 02:06:08.70	231.12	23.50	-45.9	-63.4	3.8	7.44e-01	0	59	104	0	63	27043
2026-01-22 02:06:09.71	230.97	23.34	-45.9	-63.8	3.8	7.45e-01	0	58	104	0	63	28047
2026-01-22 02:06:10.72	230.83	23.19	-45.9	-63.8	3.8	7.47e-01	0	58	104	0	63	28229
2026-01-22 02:06:11.73	230.68	23.04	-45.9	-63.8	3.8	7.47e-01	0	59	104	0	63	28192
2026-01-22 02:06:12.74	230.54	22.88	-45.9	-63.8	3.8	7.44e-01	0	59	104	0	63	28229
2026-01-22 02:06:13.75	230.40	22.73	-45.9	-63.9	3.8	7.41e-01	0	59	104	0	63	28658
2026-01-22 02:06:14.76	230.26	22.58	-45.9	-64.0	3.8	7.48e-01	0	58	104	0	63	28819
2026-01-22 02:06:15.77	230.13	22.43	-45.8	-63.6	3.8	7.46e-01	0	58	104	0	63	27482
2026-01-22 02:06:16.79	229.99	22.28	-45.8	-62.7	3.8	7.44e-01	0	59	104	0	63	24812
2026-01-22 02:06:17.80	229.86	22.13	-45.8	-61.5	4.0	7.35e-01	0	58	104	0	63	21543
2026-01-22 02:06:18.80	229.72	21.98	-45.8	-61.3	3.9	7.40e-01	0	58	104	0	63	21202
2026-01-22 02:06:19.81	229.59	21.84	-45.8	-61.1	4.1	7.31e-01	0	59	104	0	63	20631
2026-01-22 02:06:20.82	229.46	21.69	-45.8	-62.3	3.8	7.44e-01	0	59	104	0	63	23728
2026-01-22 02:06:21.83	229.33	21.54	-45.8	-63.5	3.8	7.42e-01	0	58	104	0	63	27320
2026-01-22 02:06:22.84	229.21	21.40	-45.9	-64.2	3.8	7.44e-01	0	59	104	0	63	29376
2026-01-22 02:06:23.85	229.08	21.26	-45.8	-63.3	3.8	7.47e-01	0	59	104	0	63	26704
2026-01-22 02:06:24.86	228.95	21.11	-45.8	-61.2	3.9	7.38e-01	0	59	104	0	63	20931
2026-01-22 02:06:25.88	228.83	20.97	-45.7	-59.0	4.9	7.13e-01	0	59	0	0	63	16258
2026-01-22 02:06:26.89	228.71	20.83	-45.6	-57.7	5.7	6.88e-01	46	59	0	524288	63	14031
2026-01-22 02:06:27.90	228.58	20.69	-45.5	-56.9	6.3	6.75e-01	92	59	0	1572864	63	12804
2026-01-22 02:06:28.91	228.46	20.55	-45.5	-56.7	6.5	6.69e-01	92	59	0	3670016	63	12461
2026-01-22 02:06:29.92	228.34	20.41	-45.5	-56.6	6.6	6.68e-01	92	59	0	5242880	63	12301
2026-01-22 02:06:30.93	228.23	20.27	-45.6	-57.1	6.2	6.80e-01	92	59	0	7340032	63	13076
2026-01-22 02:06:31.94	228.11	20.13	-45.6	-58.3	5.4	6.99e-01	0	59	0	8388608	63	14916
2026-01-22 02:06:32.95	227.99	19.99	-45.7	-60.1	4.5	7.27e-01	0	59	104	8388608	63	18478
2026-01-22 02:06:33.96	227.88	19.85	-45.8	-61.6	4.1	7.42e-01	0	59	104	8388608	63	21759
2026-01-22 02:06:34.97	227.77	19.72	-45.7	-59.4	4.7	7.17e-01	0	59	104	8388608	63	17031
2026-01-22 02:06:35.99	227.65	19.58	-45.5	-56.4	6.7	6.69e-01	92	59	0	8912896	63	11998
2026-01-22 02:06:37.00	227.54	19.45	-45.2	-54.0	9.1	6.29e-01	0	59	0	11010048	62	9676
2026-01-22 02:06:38.01	227.43	19.31	-44.9	-52.6	10.6	6.15e-01	0	59	0	12582912	61	8717
2026-01-22 02:06:39.02	227.32	19.18	-44.8	-52.1	11.2	6.11e-01	0	59	0	14680064	61	8188
2026-01-22 02:06:40.03	227.21	19.05	-44.8	-52.1	11.1	6.09e-01	0	58	0	16777216	61	8233
2026-01-22 02:06:41.04	227.11	18.91	-44.9	-52.6	10.6	6.15e-01	0	59	0	18350080	61	8720
2026-01-22 02:06:42.05	227.00	18.78	-45.1	-53.5	9.6	6.22e-01	0	59	0	20447232	61	9657
2026-01-22 02:06:43.06	226.89	18.65	-45.1	-53.8	9.3	6.27e-01	0	59	0	22020096	61	10048
2026-01-22 02:06:44.07	226.79	18.52	-44.9	-52.7	10.5	6.15e-01	0	59	0	24117248	61	8779
2026-01-22 02:06:45.08	226.69	18.39	-44.4	-50.5	12.7	6.06e-01	0	59	0	26214400	60	7277
2026-01-22 02:06:46.09	226.58	18.26	-44.0	-49.0	14.7	6.01e-01	0	59	0	27787264	59	6447
2026-01-22 02:06:47.10	226.48	18.14	-43.3	-47.4	16.3	5.98e-01	0	58	0	29884416	58	5689
2026-01-22 02:06:48.12	226.38	18.01	-42.7	-46.4	17.3	6.02e-01	0	59	0	31457280	57	5376
2026-01-22 02:06:49.13	226.28	17.88	-42.4	-45.7	18.0	6.00e-01	0	59	0	33554432	56	5270
2026-01-22 02:06:50.14	226.18	17.76	-45.4	-56.0	7.4	6.56e-01	92	59	0	35651584	61	12932
2026-01-22 02:06:51.15	226.09	17.63	-44.5	-50.9	10.8	6.09e-01	0	59	0	37224448	60	7586
2026-01-22 02:06:52.16	225.99	17.50	-45.7	-61.9	3.8	7.39e-01	0	58	104	38797312	62	24050
2026-01-22 02:06:53.17	225.89	17.38	-44.8	-52.4	10.2	6.18e-01	0	58	0	39845888	61	8499
2026-01-22 02:06:54.18	225.80	17.26	-43.7	-48.4	15.3	6.05e-01	0	59	0	41418752	58	6362
2026-01-22 02:06:55.19	225.70	17.13	-42.1	-45.4	18.3	6.03e-01	0	59	0	43515904	56	5054
2026-01-22 02:06:56.20	225.61	17.01	-42.1	-45.4	18.3	6.03e-01	0	58	0	45613056	56	5047
2026-01-22 02:06:57.20	225.52	16.89	-42.1	-45.4	18.3	6.04e-01	0	58	0	47185920	56	5045
2026-01-22 02:06:58.21	225.43	16.77	-42.1	-45.4	18.3	6.04e-01	0	59	0	49283072	56	5055
2026-01-22 02:06:59.22	225.33	16.65	-42.2	-45.4	18.3	6.03e-01	0	59	0	50855936	56	5095
2026-01-22 02:07:00.23	225.24	16.53	-42.2	-45.5	18.2	6.02e-01	0	59	0	52953088	56	5124
2026-01-22 02:07:01.24	225.15	16.41	-42.1	-45.4	18.3	6.01e-01	0	58	0	55050240	56	5064
2026-01-22 02:07:02.25	225.07	16.29	-42.1	-45.4	18.3	6.01e-01	0	59	0	56623104	56	5049
2026-01-22 02:07:03.26	224.98	16.17	-42.1	-45.4	18.3	6.05e-01	0	58	0	58720256	56	5087
2026-01-22 02:07:04.27	224.89	16.05	-42.2	-45.4	18.2	6.03e-01	0	59	0	60293120	56	5100
2026-01-22 02:07:05.28	224.80	15.94	-42.1	-45.4	18.2	6.04e-01	0	58	0	62390272	56	5080
2026-01-22 02:07:06.29	224.72	15.82	-42.1	-45.5	18.2	6.02e-01	0	59	0	64487424	56	5101
2026-01-22 02:07:07.30	224.63	15.70	-42.1	-45.4	18.2	6.04e-01	0	59	0	66060288	56	5089
2026-01-22 02:07:08.31	224.55	15.59	-42.2	-45.5	18.2	6.04e-01	0	58	0	68157440	56	5125
2026-01-22 02:07:09.32	224.46	15.47	-42.2	-45.5	18.1	6.03e-01	0	59	0	69730304	56	5137
2026-01-22 02:07:10.33	224.38	15.36	-42.2	-45.6	18.1	6.00e-01	0	59	0	71827456	56	5176
2026-01-22 02:07:11.34	224.30	15.24	-42.2	-45.6	18.1	6.02e-01	0	59	0	73924608	56	5160
2026-01-22 02:07:12.35	224.22	15.13	-42.2	-45.5	18.1	6.05e-01	0	59	0	75497472	56	5139
2026-01-22 02:07:13.36	224.14	15.02	-42.2	-45.6	18.0	6.04e-01	0	58	0	77594624	56	5176
2026-01-22 02:07:14.36	224.06	14.91	-42.3	-45.7	17.9	6.04e-01	0	59	0	79167488	56	5238
2026-01-22 02:07:15.37	223.98	14.80	-42.2	-45.5	18.1	6.01e-01	0	59	0	81264640	56	5134
2026-01-22 02:07:16.38	223.90	14.68	-42.1	-45.5	18.1	6.02e-01	0	59	0	83361792	56	5112
2026-01-22 02:07:17.39	223.82	14.57	-42.2	-45.5	18.1	6.06e-01	0	58	0	84934656	56	5145
2026-01-22 02:07:18.40	223.74	14.46	-42.1	-45.4	18.1	6.04e-01	0	59	0	87031808	56	5088
2026-01-22 02:07:19.41	223.67	14.35	-42.1	-45.5	18.1	6.03e-01	0	58	0	88604672	56	5103
2026-01-22 02:07:20.43	223.59	14.24	-42.1	-45.4	18.2	6.03e-01	0	58	0	90701824	56	5066
2026-01-22 02:07:21.43	223.51	14.13	-42.1	-45.5	18.1	5.99e-01	0	59	0	92798976	56	5129
2026-01-22 02:07:22.44	223.44	14.03	-42.1	-45.4	18.1	6.04e-01	0	58	0	94371840	56	5079
2026-01-22 02:07:23.45	223.36	13.92	-42.1	-45.4	18.1	6.02e-01	0	58	0	96468992	56	5087
2026-01-22 02:07:24.46	223.29	13.81	-42.1	-45.4	18.1	6.02e-01	0	59	0	98566144	56	5085
2026-01-22 02:07:25.47	223.22	13.70	-42.1	-45.5	18.0	6.04e-01	0	59	0	100139008	56	5112
2026-01-22 02:07:26.48	223.14	13.60	-42.2	-45.6	17.9	6.02e-01	0	58	0	102236160	56	5201
2026-01-22 02:07:27.49	223.07	13.49	-42.2	-45.6	17.9	6.03e-01	0	59	0	103809024	56	5184
2026-01-22 02:07:28.50	223.00	13.39	-42.1	-45.5	18.0	6.02e-01	0	58	0	105906176	56	5150
2026-01-22 02:07:29.51	222.93	13.28	-42.2	-45.6	17.9	6.02e-01	0	58	0	108003328	56	5193
2026-01-22 02:07:30.52	222.86	13.18	-42.2	-45.7	17.8	6.07e-01	0	58	0	109576192	56	5223
2026-01-22 02:07:31.53	222.79	13.07	-42.2	-45.6	17.8	6.04e-01	0	58	0	111673344	56	5201
2026-01-22 02:07:32.54	222.72	12.97	-42.2	-45.7	17.8	6.00e-01	0	58	0	113770496	56	5236
2026-01-22 02:07:33.55	222.65	12.86	-42.1	-45.6	17.9	6.02e-01	0	58	0	115343360	56	5182
2026-01-22 02:07:34.56	222.58	12.76	-42.2	-45.6	17.9	6.03e-01	0	59	0	117440512	56	5194
2026-01-22 02:07:35.57	222.51	12.66	-42.2	-45.6	17.8	6.03e-01	0	58	0	119013376	56	5210
2026-01-22 02:07:36.58	222.45	12.56	-42.2	-45.6	17.8	6.01e-01	0	59	0	121110528	56	5209
2026-01-22 02:07:37.59	222.38	12.46	-42.2	-45.6	17.8	6.02e-01	0	58	0	123207680	56	5213
2026-01-22 02:07:38.60	222.31	12.36	-42.1	-45.6	17.8	6.03e-01	0	58	0	124780544	56	5191
2026-01-22 02:07:39.60	222.25	12.26	-42.2	-45.7	17.7	6.02e-01	0	58	0	126877696	56	5252
2026-01-22 02:07:40.61	222.18	12.16	-42.2	-45.8	17.6	6.02e-01	0	58	0	128450560	56	5294
2026-01-22 02:07:41.62	222.12	12.06	-42.2	-45.7	17.7	6.03e-01	0	58	0	130547712	56	5233
2026-01-22 02:07:42.63	222.05	11.96	-42.2	-45.7	17.6	6.05e-01	0	59	0	132644864	56	5265
2026-01-22 02:07:43.64	221.99	11.86	-42.3	-45.9	17.5	6.01e-01	0	58	0	134217728	56	5345
2026-01-22 02:07:44.65	221.93	11.76	-42.2	-45.8	17.5	6.03e-01	0	58	0	136314880	56	5322
2026-01-22 02:07:45.66	221.86	11.66	-42.2	-45.7	17.6	6.02e-01	0	58	0	137887744	56	5274
2026-01-22 02:07:46.67	221.80	11.56	-42.2	-45.8	17.5	6.03e-01	0	58	0	139984896	56	5308
2026-01-22 02:07:47.68	221.74	11.47	-42.2	-45.8	17.5	6.02e-01	0	59	0	142082048	56	5325
2026-01-22 02:07:48.69	221.68	11.37	-42.2	-45.8	17.5	6.02e-01	0	59	0	143654912	56	5299
2026-01-22 02:07:49.70	221.62	11.27	-42.2	-45.8	17.5	6.04e-01	0	59	0	145752064	56	5332
2026-01-22 02:07:50.71	221.56	11.18	-42.2	-45.8	17.5	6.02e-01	0	59	0	147324928	56	5321
2026-01-22 02:07:51.72	221.50	11.08	-42.3	-46.0	17.3	6.06e-01	0	58	0	149422080	56	5441
2026-01-22 02:07:52.73	221.44	10.98	-42.3	-46.0	17.3	6.03e-01	0	59	0	151519232	56	5405
2026-01-22 02:07:53.74	221.38	10.89	-42.4	-46.2	17.1	6.03e-01	0	58	0	153092096	56	5550
2026-01-22 02:07:54.75	221.32	10.80	-42.3	-46.0	17.3	6.04e-01	0	58	0	155189248	56	5420
2026-01-22 02:07:55.76	221.26	10.70	-42.4	-46.2	17.1	6.02e-01	0	59	0	156762112	56	5546
2026-01-22 02:07:56.77	221.20	10.61	-42.4	-46.2	17.0	6.03e-01	0	59	0	158859264	56	5584
2026-01-22 02:07:57.78	221.15	10.51	-42.3	-46.0	17.2	6.03e-01	0	58	0	160956416	56	5433
2026-01-22 02:07:58.79	221.09	10.42	-42.3	-46.1	17.2	6.02e-01	0	58	0	162529280	56	5494
2026-01-22 02:07:59.80	221.03	10.33	-42.3	-46.0	17.2	6.03e-01	0	59	0	164626432	56	5413
2026-01-22 02:08:00.80	220.98	10.24	-42.3	-46.0	17.2	6.02e-01	0	58	0	166723584	56	5436
2026-01-22 02:08:01.81	220.92	10.14	-42.3	-46.1	17.1	6.06e-01	0	58	0	168296448	56	5485
2026-01-22 02:08:02.82	220.86	10.05	-42.3	-46.1	17.1	6.03e-01	0	58	0	170393600	56	5494
2026-01-22 02:08:03.83	220.81	9.96	-42.1	-45.8	17.4	6.04e-01	0	59	0	171966464	56	5290
2026-01-22 02:08:04.84	220.75	9.87	-42.3	-46.1	17.1	6.01e-01	0	58	0	174063616	56	5467
2026-01-22 02:08:05.85	220.70	9.78	-42.3	-46.2	17.0	6.04e-01	0	58	0	176160768	56	5536
2026-01-22 02:08:06.86	220.65	9.69	-42.4	-46.2	16.9	6.03e-01	0	59	0	177733632	56	5560
2026-01-22 02:08:07.87	220.59	9.60	-42.2	-46.0	17.1	6.04e-01	0	58	0	179830784	56	5442
2026-01-22 02:08:08.88	220.54	9.51	-42.4	-46.3	16.8	6.02e-01	0	58	0	181927936	56	5619
2026-01-22 02:08:09.89	220.49	9.42	-42.3	-46.1	17.0	6.03e-01	0	58	0	183500800	56	5511
2026-01-22 02:08:10.90	220.43	9.33	-42.3	-46.1	17.0	6.05e-01	0	58	0	185597952	56	5470
2026-01-22 02:08:11.91	220.38	9.24	-42.3	-46.2	16.9	6.03e-01	0	58	0	187170816	56	5544
2026-01-22 02:08:12.92	220.33	9.15	-42.3	-46.1	16.9	6.02e-01	0	59	0	189267968	56	5525
2026-01-22 02:08:13.93	220.28	9.07	-42.3	-46.1	16.9	6.03e-01	0	58	0	191365120	56	5522
2026-01-22 02:08:14.94	220.23	8.98	-42.4	-46.3	16.7	6.06e-01	0	59	0	192937984	56	5647
2026-01-22 02:08:15.95	220.18	8.89	-42.3	-46.3	16.7	6.04e-01	0	58	0	195035136	56	5626
2026-01-22 02:08:16.95	220.13	8.80	-42.3	-46.3	16.7	6.02e-01	0	58	0	196608000	56	5623
2026-01-22 02:08:17.96	220.08	8.72	-42.3	-46.3	16.7	6.03e-01	0	59	0	198705152	56	5638
2026-01-22 02:08:18.97	220.03	8.63	-42.3	-46.3	16.6	6.03e-01	0	58	0	200802304	56	5655
2026-01-22 02:08:19.98	219.98	8.55	-42.4	-46.6	16.4	6.02e-01	0	59	0	202375168	56	5816
2026-01-22 02:08:20.99	219.93	8.46	-42.4	-46.5	16.5	6.04e-01	0	58	0	204472320	56	5760
2026-01-22 02:08:22.00	219.88	8.37	-42.4	-46.5	16.4	6.04e-01	0	58	0	206045184	56	5782
2026-01-22 02:08:23.01	219.83	8.29	-42.4	-46.5	16.5	6.02e-01	0	58	0	208142336	56	5734
2026-01-22 02:08:24.02	219.78	8.20	-42.4	-46.6	16.3	6.04e-01	0	58	0	210239488	56	5831
2026-01-22 02:08:25.03	219.74	8.12	-42.5	-46.7	16.2	6.01e-01	0	58	0	211812352	56	5870
2026-01-22 02:08:26.04	219.69	8.04	-42.4	-46.7	16.2	6.04e-01	0	59	0	213909504	56	5862
2026-01-22 02:08:27.05	219.64	7.95	-45.4	-62.8	3.7	7.48e-01	0	59	104	215482368	61	28262
2026-01-22 02:08:28.06	219.59	7.87	-45.8	-64.1	3.8	7.44e-01	0	59	104	215482368	62	30835
2026-01-22 02:08:29.08	219.55	7.78	-46.0	-64.6	3.8	7.46e-01	0	59	104	215482368	62	32743
2026-01-22 02:08:30.09	219.50	7.70	-46.1	-64.7	3.8	7.43e-01	0	58	104	215482368	62	33107
2026-01-22 02:08:31.10	219.45	7.62	-46.2	-64.8	3.8	7.47e-01	0	58	104	215482368	62	33312
2026-01-22 02:08:32.11	219.41	7.54	-46.3	-64.9	3.8	7.44e-01	0	59	104	215482368	63	31824
2026-01-22 02:08:33.12	219.36	7.45	-46.3	-64.9	3.8	7.45e-01	0	58	104	215482368	63	32083
2026-01-22 02:08:34.13	219.32	7.37	-46.4	-65.0	3.8	7.42e-01	0	59	104	215482368	63	32203
2026-01-22 02:08:35.14	219.27	7.29	-46.4	-64.9	3.8	7.46e-01	0	59	104	215482368	63	32122
2026-01-22 02:08:36.15	219.23	7.21	-46.3	-64.9	3.8	7.43e-01	0	58	104	215482368	63	32049
2026-01-22 02:08:37.16	219.19	7.13	-46.3	-64.9	3.8	7.42e-01	0	58	104	215482368	63	31838
2026-01-22 02:08:38.17	219.14	7.05	-46.3	-64.8	3.8	7.42e-01	0	58	104	215482368	63	31722
2026-01-22 02:08:39.18	219.10	6.97	-46.3	-64.8	3.8	7.46e-01	0	58	104	215482368	63	31601
2026-01-22 02:08:40.19	219.05	6.89	-46.3	-64.8	3.8	7.46e-01	0	58	104	215482368	63	31567
2026-01-22 02:08:41.20	219.01	6.81	-46.3	-64.7	3.8	7.43e-01	0	58	104	215482368	63	31445
2026-01-22 02:08:42.21	218.97	6.73	-46.3	-64.8	3.8	7.45e-01	0	58	104	215482368	63	31747
2026-01-22 02:08:43.22	218.93	6.65	-46.3	-64.7	3.8	7.43e-01	0	59	104	215482368	63	31436
2026-01-22 02:08:44.23	218.88	6.57	-46.2	-64.7	3.8	7.44e-01	0	58	104	215482368	63	31383
2026-01-22 02:08:45.24	218.84	6.49	-46.2	-64.7	3.8	7.49e-01	0	59	104	215482368	63	31336
2026-01-22 02:08:46.26	218.80	6.41	-46.2	-64.7	3.8	7.44e-01	0	59	104	215482368	63	31358
2026-01-22 02:08:47.27	218.76	6.33	-46.2	-64.7	3.8	7.44e-01	0	59	104	215482368	63	31351
2026-01-22 02:08:48.28	218.72	6.25	-46.2	-64.7	3.8	7.50e-01	0	58	104	215482368	63	31327
2026-01-22 02:08:49.29	218.68	6.17	-46.2	-64.7	3.8	7.46e-01	0	59	104	215482368	63	31268
2026-01-22 02:08:50.30	218.64	6.10	-46.2	-64.7	3.8	7.49e-01	0	59	104	215482368	63	31280
2026-01-22 02:08:51.31	218.59	6.02	-46.2	-64.7	3.8	7.46e-01	0	58	104	215482368	63	31253
2026-01-22 02:08:52.32	218.55	5.94	-46.2	-64.7	3.8	7.46e-01	0	59	104	215482368	63	31297
2026-01-22 02:08:53.33	218.51	5.86	-46.2	-64.7	3.8	7.45e-01	0	59	104	215482368	63	31234
2026-01-22 02:08:54.34	218.47	5.79	-46.2	-64.7	3.8	7.45e-01	0	59	104	215482368	63	31277
2026-01-22 02:08:55.35	218.44	5.71	-46.2	-64.7	3.8	7.45e-01	0	58	104	215482368	63	31199
2026-01-22 02:08:56.36	218.40	5.63	-46.2	-64.7	3.8	7.45e-01	0	59	104	215482368	63	31252
2026-01-22 02:08:57.37	218.36	5.56	-46.2	-64.7	3.8	7.45e-01	0	59	104	215482368	63	31210
2026-01-22 02:08:58.38	218.32	5.48	-46.2	-64.7	3.8	7.44e-01	0	59	104	215482368	63	31272
2026-01-22 02:08:59.39	218.28	5.41	-46.2	-64.7	3.8	7.44e-01	0	59	104	215482368	63	31224
2026-01-22 02:09:00.40	218.24	5.33	-46.2	-64.7	3.8	7.43e-01	0	59	104	215482368	63	31214
2026-01-22 02:09:01.41	218.20	5.26	-46.2	-64.7	3.8	7.44e-01	0	59	104	215482368	63	31261
2026-01-22 02:09:02.43	218.17	5.18	-46.2	-64.7	3.8	7.46e-01	0	59	104	215482368	63	31153
2026-01-22 02:09:03.44	218.13	5.11	-46.2	-64.7	3.8	7.47e-01	0	59	104	215482368	63	31223
2026-01-22 02:09:04.45	218.09	5.03	-46.2	-64.7	3.8	7.44e-01	0	58	104	215482368	63	31228
2026-01-22 02:09:05.46	218.05	4.96	-46.2	-64.7	3.8	7.44e-01	0	59	104	215482368	63	31143
2026-01-22 02:09:06.47	218.02	4.88	-46.2	-64.7	3.8	7.46e-01	0	59	104	215482368	63	31169
2026-01-22 02:09:07.48	217.98	4.81	-46.2	-64.7	3.8	7.45e-01	0	59	104	215482368	63	31180
2026-01-22 02:09:08.49	217.94	4.73	-46.2	-64.7	3.8	7.48e-01	0	59	104	215482368	63	31156
2026-01-22 02:09:09.50	217.91	4.66	-46.2	-64.7	3.8	7.44e-01	0	59	104	215482368	63	31186
2026-01-22 02:09:10.51	217.87	4.59	-46.2	-64.7	3.8	7.46e-01	0	58	104	215482368	63	31116
2026-01-22 02:09:11.52	217.83	4.52	-46.2	-64.7	3.8	7.44e-01	0	59	104	215482368	63	31172
2026-01-22 02:09:12.53	217.80	4.44	-46.2	-64.7	3.8	7.47e-01	0	59	104	215482368	63	31182
2026-01-22 02:09:13.54	217.76	4.37	-46.2	-64.7	3.8	7.44e-01	0	58	104	215482368	63	31187
2026-01-22 02:09:14.55	217.73	4.30	-46.2	-64.7	3.8	7.46e-01	0	59	104	215482368	63	31135
2026-01-22 02:09:15.56	217.69	4.23	-46.2	-64.7	3.8	7.47e-01	0	59	104	215482368	63	31106
2026-01-22 02:09:16.57	217.66	4.15	-46.2	-64.7	3.8	7.45e-01	0	59	104	215482368	63	31125
2026-01-22 02:09:17.58	217.62	4.08	-46.2	-64.7	3.8	7.46e-01	0	59	104	215482368	63	31187
2026-01-22 02:09:18.59	217.59	4.01	-46.2	-64.7	3.8	7.47e-01	0	59	104	215482368	63	31186
2026-01-22 02:09:19.60	217.55	3.94	-46.2	-64.7	3.8	7.42e-01	0	59	104	215482368	63	31167
2026-01-22 02:09:20.61	217.52	3.87	-46.2	-64.7	3.8	7.41e-01	0	59	104	215482368	63	31162
2026-01-22 02:09:21.62	217.49	3.80	-46.2	-64.7	3.8	7.43e-01	0	59	104	215482368	63	31156
2026-01-22 02:09:22.63	217.45	3.73	-46.2	-64.7	3.8	7.45e-01	0	59	104	215482368	63	31122
2026-01-22 02:09:23.64	217.42	3.66	-46.2	-64.7	3.8	7.43e-01	0	59	104	215482368	63	31114
2026-01-22 02:09:24.65	217.39	3.59	-46.2	-64.7	3.8	7.43e-01	0	59	104	215482368	63	31193
2026-01-22 02:09:25.66	217.35	3.52	-46.2	-64.7	3.8	7.46e-01	0	59	104	215482368	63	31156
2026-01-22 02:09:26.67	217.32	3.45	-46.2	-64.7	3.8	7.46e-01	0	59	104	215482368	63	31128
2026-01-22 02:09:27.69	217.29	3.37	-46.2	-64.7	3.8	7.43e-01	0	59	104	215482368	63	31098
2026-01-22 02:09:28.70	217.25	3.31	-46.2	-64.7	3.8	7.45e-01	0	59	104	215482368	63	31123
2026-01-22 02:09:29.70	217.22	3.24	-46.2	-64.6	3.8	7.44e-01	0	59	104	215482368	63	31075
2026-01-22 02:09:30.72	217.19	3.17	-46.2	-64.7	3.8	7.43e-01	0	59	104	215482368	63	31119
2026-01-22 02:09:31.73	217.16	3.10	-46.2	-64.7	3.8	7.45e-01	0	58	104	215482368	63	31144
2026-01-22 02:09:32.74	217.13	3.03	-46.2	-64.7	3.8	7.46e-01	0	59	104	215482368	63	31161
2026-01-22 02:09:33.75	217.09	2.96	-46.2	-64.6	3.8	7.48e-01	0	59	104	215482368	63	31081
2026-01-22 02:09:34.76	217.06	2.89	-46.2	-64.7	3.8	7.46e-01	0	59	104	215482368	63	31170
2026-01-22 02:09:35.77	217.03	2.82	-46.2	-64.7	3.8	7.45e-01	0	59	104	215482368	63	31139
2026-01-22 02:09:36.78	217.00	2.75	-46.2	-64.7	3.8	7.46e-01	0	59	104	215482368	63	31115
2026-01-22 02:09:37.79	216.97	2.69	-46.2	-64.7	3.8	7.46e-01	0	59	104	215482368	63	31137
2026-01-22 02:09:38.80	216.94	2.62	-46.2	-64.6	3.8	7.47e-01	0	58	104	215482368	63	31074
2026-01-22 02:09:39.82	216.91	2.55	-46.2	-64.7	3.8	7.44e-01	0	59	104	215482368	63	31140
2026-01-22 02:09:40.82	216.88	2.48	-46.2	-64.7	3.8	7.43e-01	0	59	104	215482368	63	31138
2026-01-22 02:09:41.84	216.85	2.42	-46.2	-64.7	3.8	7.47e-01	0	59	104	215482368	63	31102
2026-01-22 02:09:42.85	216.82	2.35	-46.2	-64.7	3.8	7.43e-01	0	59	104	215482368	63	31121
2026-01-22 02:09:43.86	216.79	2.28	-46.2	-64.7	3.8	7.42e-01	0	59	104	215482368	63	31134
2026-01-22 02:09:44.87	216.76	2.22	-46.2	-64.7	3.8	7.44e-01	0	59	104	215482368	63	31113
2026-01-22 02:09:45.88	216.73	2.15	-46.1	-64.6	3.8	7.45e-01	0	59	104	215482368	63	31014
2026-01-22 02:09:46.89	216.70	2.08	-46.1	-64.6	3.8	7.44e-01	0	59	104	215482368	63	31012
2026-01-22 02:09:47.90	216.67	2.02	-46.1	-64.6	3.8	7.44e-01	0	59	104	215482368	63	31010
2026-01-22 02:09:48.91	216.64	1.95	-46.1	-64.6	3.8	7.46e-01	0	59	104	215482368	63	31056
2026-01-22 02:09:49.92	216.61	1.88	-46.1	-64.6	3.8	7.47e-01	0	59	104	215482368	63	30968

#Closed at: 2026-01-22 02:09:50
#Recorded file [215 MB]: D:/lorett/data/31039_260122_050555.dat