passes_logs/2026/01/22/R2.0S_Moscow/R2.0S_Moscow__20260122_130939_AQUA_rec.log

#Pass ID: 20260122_130939_AQUA
#Satellite: AQUA
#Configuration: AQUA
#almurnet v.1.7.20251203
#Start time: 2026-01-22 13:09:39

#Version: 2.2.20231116
#Station: R2.0S_Moscow
#Location: 37.707566 lon 55.798166 lat
#TLE: 1 27424U 02022A   26021.53721517  .00002456  00000+0  50140-3 0  9996
#TLE: 2 27424  98.4098 348.0744 0002012  70.1009  46.1672 14.61843091261845

#Time	Az	El	Level	Level2	SNR	BER	BlckErr	Temp	State	Recorded	gain1	gain2
2026-01-22 13:09:39.26	209.19	1.99	-44.9	-63.4	3.8	7.44e-01	0	52	0	0	61	30174
2026-01-22 13:09:42.29	209.45	2.16	-44.8	-63.4	3.8	7.39e-01	0	53	104	0	60	31895
2026-01-22 13:09:45.32	209.70	2.33	-44.8	-63.4	3.8	7.45e-01	0	53	104	0	60	31903
2026-01-22 13:09:48.35	209.96	2.51	-44.8	-63.4	3.8	7.45e-01	0	53	104	0	60	31944
2026-01-22 13:09:51.38	210.23	2.68	-44.8	-63.4	3.8	7.47e-01	0	53	104	0	60	31901
2026-01-22 13:09:54.41	210.49	2.85	-44.8	-63.4	3.8	7.45e-01	0	53	104	0	60	31975
2026-01-22 13:09:57.44	210.76	3.03	-44.8	-63.4	3.8	7.46e-01	0	54	104	0	60	31964
2026-01-22 13:10:00.47	211.03	3.20	-44.8	-63.4	3.8	7.44e-01	0	54	104	0	60	31918
2026-01-22 13:10:03.50	211.31	3.38	-44.8	-63.4	3.8	7.45e-01	0	54	104	0	60	31876
2026-01-22 13:10:06.53	211.59	3.55	-44.8	-63.4	3.8	7.44e-01	0	54	104	0	60	31980
2026-01-22 13:10:09.55	211.87	3.73	-44.8	-63.4	3.8	7.44e-01	0	54	104	0	60	31936
2026-01-22 13:10:12.58	212.16	3.91	-44.8	-63.4	3.8	7.46e-01	0	54	104	0	60	31929
2026-01-22 13:10:15.61	212.45	4.09	-44.8	-63.4	3.8	7.45e-01	0	55	104	0	60	31939
2026-01-22 13:10:18.65	212.75	4.27	-44.8	-63.4	3.8	7.46e-01	0	55	104	0	60	31939
2026-01-22 13:10:21.68	213.04	4.45	-44.8	-63.4	3.8	7.43e-01	0	55	104	0	60	31966
2026-01-22 13:10:24.71	213.35	4.63	-44.8	-63.4	3.8	7.42e-01	0	55	104	0	60	31935
2026-01-22 13:10:27.74	213.65	4.81	-44.8	-63.3	3.8	7.42e-01	0	55	104	0	60	31625
2026-01-22 13:10:30.77	213.96	4.99	-44.8	-63.4	3.8	7.44e-01	0	55	104	0	60	31881
2026-01-22 13:10:33.80	214.28	5.18	-44.8	-63.1	3.8	7.45e-01	0	55	104	0	60	31084
2026-01-22 13:10:36.83	214.60	5.36	-44.8	-63.0	3.8	7.43e-01	0	56	104	0	60	30394
2026-01-22 13:10:39.85	214.92	5.55	-44.8	-62.5	3.8	7.46e-01	0	56	104	0	60	28728
2026-01-22 13:10:42.89	215.25	5.73	-44.8	-62.2	3.8	7.44e-01	0	56	104	0	60	27987
2026-01-22 13:10:45.92	215.58	5.92	-44.8	-62.0	3.8	7.46e-01	0	56	104	0	60	27253
2026-01-22 13:10:48.95	215.91	6.10	-44.8	-60.9	3.9	7.38e-01	0	56	104	0	60	23955
2026-01-22 13:10:51.98	216.25	6.29	-44.7	-60.3	4.1	7.40e-01	0	56	104	0	60	22363
2026-01-22 13:10:55.01	216.60	6.48	-44.7	-57.8	5.0	7.09e-01	0	57	0	0	60	16852
2026-01-22 13:10:58.04	216.95	6.67	-44.4	-55.1	6.9	6.65e-01	90	57	0	3145728	60	12372
2026-01-22 13:11:01.07	217.30	6.86	-44.3	-52.9	9.4	6.29e-01	0	57	0	8912896	59	10154
2026-01-22 13:11:04.10	217.66	7.05	-44.2	-52.0	10.6	6.20e-01	0	57	0	14680064	59	9095
2026-01-22 13:11:07.13	218.03	7.24	-44.3	-52.4	10.2	6.23e-01	0	57	0	20447232	59	9549
2026-01-22 13:11:10.16	218.40	7.43	-44.4	-53.4	9.1	6.30e-01	0	57	0	26214400	59	10683
2026-01-22 13:11:13.19	218.77	7.63	-44.1	-51.7	10.8	6.16e-01	0	57	0	31981568	59	8859
2026-01-22 13:11:16.22	219.15	7.82	-43.3	-48.8	13.9	6.10e-01	0	58	0	37224448	58	6681
2026-01-22 13:11:19.25	219.54	8.01	-42.7	-47.3	15.4	6.07e-01	0	57	0	42991616	57	5989
2026-01-22 13:11:22.28	219.93	8.21	-43.3	-48.7	14.0	6.08e-01	0	58	0	48758784	58	6644
2026-01-22 13:11:25.31	220.33	8.40	-44.0	-50.5	11.9	6.13e-01	0	58	0	52428800	59	7705
2026-01-22 13:11:28.34	220.73	8.60	-42.4	-46.5	16.4	6.07e-01	0	58	0	58195968	56	5784
2026-01-22 13:11:31.37	221.14	8.79	-42.6	-46.8	16.2	6.08e-01	0	58	0	63438848	56	5934
2026-01-22 13:11:34.39	221.55	8.99	-42.4	-46.5	16.6	6.07e-01	0	58	0	69206016	56	5731
2026-01-22 13:11:37.42	221.97	9.19	-42.5	-46.6	16.5	6.06e-01	0	58	0	74973184	56	5802
2026-01-22 13:11:40.45	222.40	9.38	-42.5	-46.6	16.6	6.07e-01	0	58	0	80740352	56	5789
2026-01-22 13:11:43.48	222.83	9.58	-42.5	-46.5	16.6	6.06e-01	0	58	0	86507520	56	5787
2026-01-22 13:11:46.51	223.27	9.78	-42.5	-46.5	16.6	6.06e-01	0	58	0	91750400	56	5784
2026-01-22 13:11:49.53	223.71	9.98	-42.4	-46.2	17.0	6.05e-01	0	58	0	97517568	56	5572
2026-01-22 13:11:52.56	224.16	10.18	-42.4	-46.3	16.9	6.04e-01	0	58	0	103284736	56	5644
2026-01-22 13:11:55.59	224.62	10.38	-42.4	-46.1	17.1	6.05e-01	0	58	0	109051904	56	5526
2026-01-22 13:11:58.61	225.08	10.58	-42.4	-46.2	17.1	6.05e-01	0	58	0	114819072	56	5538
2026-01-22 13:12:01.64	225.55	10.78	-42.3	-46.1	17.1	6.08e-01	0	58	0	120586240	56	5486
2026-01-22 13:12:04.67	226.03	10.98	-42.3	-45.9	17.4	6.07e-01	0	59	0	126353408	56	5382
2026-01-22 13:12:07.70	226.51	11.18	-42.3	-46.0	17.3	6.05e-01	0	59	0	131596288	56	5427
2026-01-22 13:12:10.73	227.00	11.38	-42.2	-45.8	17.5	6.06e-01	0	59	0	137363456	56	5314
2026-01-22 13:12:13.76	227.50	11.58	-42.3	-45.9	17.4	6.08e-01	0	59	0	143130624	56	5400
2026-01-22 13:12:16.79	228.01	11.78	-42.2	-45.7	17.6	6.06e-01	0	59	0	148897792	56	5256
2026-01-22 13:12:19.81	228.52	11.98	-42.3	-46.0	17.4	6.08e-01	0	59	0	154664960	56	5427
2026-01-22 13:12:22.84	229.04	12.18	-42.1	-45.6	17.7	6.06e-01	0	59	0	159907840	56	5202
2026-01-22 13:12:25.87	229.57	12.37	-42.1	-45.6	17.8	6.05e-01	0	59	0	165675008	56	5202
2026-01-22 13:12:28.90	230.10	12.57	-42.1	-45.6	17.8	6.07e-01	0	59	0	171442176	56	5176
2026-01-22 13:12:31.93	230.64	12.77	-42.2	-45.7	17.7	6.09e-01	0	59	0	177209344	56	5223
2026-01-22 13:12:34.96	231.19	12.97	-42.2	-45.7	17.7	6.05e-01	0	59	0	182976512	56	5268
2026-01-22 13:12:37.99	231.75	13.17	-42.1	-45.6	17.8	6.05e-01	0	59	0	188743680	56	5177
2026-01-22 13:12:41.02	232.32	13.37	-42.1	-45.4	18.0	6.05e-01	0	59	0	194510848	56	5084
2026-01-22 13:12:44.05	232.89	13.56	-42.1	-45.6	17.9	6.06e-01	0	59	0	199753728	56	5181
2026-01-22 13:12:47.08	233.47	13.76	-42.0	-45.4	18.1	6.08e-01	0	59	0	205520896	56	5070
2026-01-22 13:12:50.11	234.06	13.95	-42.0	-45.4	18.1	6.06e-01	0	59	0	211288064	56	5056
2026-01-22 13:12:53.14	234.66	14.15	-42.1	-45.4	18.1	6.07e-01	0	60	0	217055232	56	5085
2026-01-22 13:12:56.16	235.26	14.34	-42.0	-45.4	18.1	6.08e-01	0	59	0	222822400	56	5059
2026-01-22 13:12:59.19	235.88	14.53	-42.1	-45.5	18.1	6.08e-01	0	59	0	228065280	56	5104
2026-01-22 13:13:02.22	236.50	14.72	-42.0	-45.3	18.2	6.04e-01	0	59	0	233832448	56	5017
2026-01-22 13:13:05.25	237.13	14.91	-41.9	-45.1	18.3	6.06e-01	0	60	0	239599616	55	5199
2026-01-22 13:13:08.27	237.77	15.10	-41.9	-45.2	18.2	6.05e-01	0	60	0	245366784	55	5233
2026-01-22 13:13:11.30	238.42	15.28	-41.9	-45.3	18.2	6.06e-01	0	60	0	251133952	55	5284
2026-01-22 13:13:14.33	239.07	15.47	-41.9	-45.1	18.4	6.08e-01	0	60	0	256901120	55	5187
2026-01-22 13:13:17.36	239.74	15.65	-41.8	-45.0	18.4	6.09e-01	0	60	0	262144000	55	5153
2026-01-22 13:13:20.39	240.41	15.83	-41.8	-45.0	18.4	6.07e-01	0	60	0	267911168	55	5153
2026-01-22 13:13:23.42	241.09	16.01	-41.9	-45.2	18.3	6.05e-01	0	60	0	273678336	55	5221
2026-01-22 13:13:26.45	241.78	16.18	-41.8	-45.0	18.4	6.06e-01	0	60	0	279445504	55	5159
2026-01-22 13:13:29.47	242.48	16.36	-41.9	-45.2	18.3	6.05e-01	0	60	0	285212672	55	5253
2026-01-22 13:13:32.50	243.18	16.53	-41.9	-45.2	18.3	6.05e-01	0	60	0	290979840	55	5234
2026-01-22 13:13:35.53	243.90	16.70	-41.9	-45.1	18.4	6.05e-01	0	60	0	296222720	55	5206
2026-01-22 13:13:38.56	244.62	16.86	-41.9	-45.1	18.4	6.06e-01	0	60	0	301989888	55	5198
2026-01-22 13:13:41.58	245.35	17.02	-41.9	-45.2	18.3	6.05e-01	0	60	0	307757056	55	5239
2026-01-22 13:13:44.62	246.09	17.18	-42.0	-45.3	18.1	6.06e-01	0	60	0	313524224	55	5340
2026-01-22 13:13:47.64	246.83	17.34	-41.9	-45.1	18.4	6.04e-01	0	60	0	319291392	55	5215
2026-01-22 13:13:50.67	247.59	17.49	-41.9	-45.1	18.4	6.05e-01	0	60	0	325058560	55	5200
2026-01-22 13:13:53.70	248.35	17.64	-41.9	-45.1	18.4	6.05e-01	0	60	0	330301440	55	5203
2026-01-22 13:13:56.73	249.12	17.78	-41.9	-45.2	18.3	6.05e-01	0	60	0	336068608	55	5238
2026-01-22 13:13:59.75	249.90	17.92	-41.9	-45.2	18.3	6.07e-01	0	60	0	341835776	55	5249
2026-01-22 13:14:02.78	250.68	18.06	-41.9	-45.1	18.4	6.05e-01	0	60	0	347602944	55	5218
2026-01-22 13:14:05.81	251.48	18.19	-41.9	-45.1	18.4	6.05e-01	0	60	0	353370112	55	5188
2026-01-22 13:14:08.84	252.27	18.32	-42.0	-45.3	18.2	6.04e-01	0	60	0	359137280	55	5330
2026-01-22 13:14:11.87	253.08	18.44	-42.0	-45.3	18.2	6.06e-01	0	60	0	364380160	55	5305
2026-01-22 13:14:14.89	253.89	18.56	-42.1	-45.4	18.1	6.07e-01	0	60	0	370147328	55	5401
2026-01-22 13:14:17.92	254.71	18.68	-41.9	-45.2	18.3	6.06e-01	0	60	0	375914496	55	5248
2026-01-22 13:14:20.95	255.54	18.79	-42.0	-45.3	18.3	6.07e-01	0	60	0	381681664	55	5283
2026-01-22 13:14:23.98	256.37	18.89	-42.0	-45.4	18.1	6.07e-01	0	60	0	387448832	55	5367
2026-01-22 13:14:27.00	257.20	18.99	-42.1	-45.5	18.1	6.05e-01	0	60	0	392691712	55	5410
2026-01-22 13:14:30.03	258.04	19.08	-42.1	-45.4	18.1	6.06e-01	0	61	0	398458880	55	5382
2026-01-22 13:14:33.06	258.89	19.17	-42.0	-45.3	18.2	6.04e-01	0	60	0	404226048	55	5311
2026-01-22 13:14:36.08	259.74	19.25	-42.0	-45.3	18.2	6.08e-01	0	60	0	409993216	55	5340
2026-01-22 13:14:39.11	260.60	19.33	-42.2	-45.6	17.9	6.06e-01	0	60	0	415760384	55	5522
2026-01-22 13:14:42.14	261.46	19.40	-42.0	-45.3	18.2	6.06e-01	0	60	0	421527552	55	5323
2026-01-22 13:14:45.17	262.33	19.46	-42.1	-45.4	18.1	6.06e-01	0	60	0	427294720	55	5371
2026-01-22 13:14:48.19	263.19	19.52	-42.1	-45.6	18.0	6.06e-01	0	60	0	432537600	55	5466
2026-01-22 13:14:51.22	264.06	19.57	-42.1	-45.5	18.0	6.07e-01	0	61	0	438304768	55	5417
2026-01-22 13:14:54.25	264.94	19.62	-42.2	-45.6	18.0	6.07e-01	0	61	0	444071936	55	5477
2026-01-22 13:14:57.28	265.81	19.66	-42.1	-45.5	18.0	6.06e-01	0	61	0	449839104	55	5451
2026-01-22 13:15:00.31	266.69	19.69	-42.1	-45.5	18.0	6.06e-01	0	61	0	455606272	55	5460
2026-01-22 13:15:03.34	267.57	19.72	-42.1	-45.5	18.0	6.08e-01	0	61	0	460849152	55	5440
2026-01-22 13:15:06.36	268.45	19.74	-42.2	-45.6	18.0	6.05e-01	0	61	0	466616320	55	5476
2026-01-22 13:15:09.39	269.34	19.75	-42.0	-45.4	18.2	6.04e-01	0	60	0	472383488	55	5343
2026-01-22 13:15:12.42	270.22	19.76	-42.2	-45.6	17.9	6.06e-01	0	61	0	478150656	55	5485
2026-01-22 13:15:15.45	271.10	19.76	-42.2	-45.6	18.0	6.05e-01	0	61	0	483917824	55	5480
2026-01-22 13:15:18.48	271.99	19.76	-42.2	-45.6	17.9	6.05e-01	0	61	0	489684992	55	5488
2026-01-22 13:15:21.51	272.87	19.75	-42.1	-45.5	18.0	6.05e-01	0	61	0	495452160	55	5418
2026-01-22 13:15:24.54	273.75	19.73	-42.1	-45.5	18.1	6.07e-01	0	60	0	500695040	55	5415
2026-01-22 13:15:27.57	274.64	19.70	-42.1	-45.4	18.1	6.07e-01	0	61	0	506462208	55	5398
2026-01-22 13:15:30.60	275.51	19.67	-42.1	-45.4	18.1	6.06e-01	0	61	0	512229376	55	5390
2026-01-22 13:15:33.63	276.39	19.64	-42.2	-45.6	17.9	6.04e-01	0	61	0	517996544	55	5493
2026-01-22 13:15:36.66	277.27	19.59	-42.1	-45.5	18.0	6.06e-01	0	61	0	523763712	55	5456
2026-01-22 13:15:39.68	278.13	19.54	-42.1	-45.5	18.0	6.06e-01	0	61	0	529006592	55	5459
2026-01-22 13:15:42.71	279.00	19.49	-42.2	-45.6	17.9	6.05e-01	0	61	0	534773760	55	5488
2026-01-22 13:15:45.74	279.87	19.43	-42.1	-45.5	18.0	6.07e-01	0	61	0	540540928	55	5460
2026-01-22 13:15:48.77	280.73	19.36	-42.1	-45.6	17.9	6.07e-01	0	61	0	546308096	55	5471
2026-01-22 13:15:51.80	281.59	19.28	-42.1	-45.5	18.0	6.06e-01	0	61	0	552075264	55	5410
2026-01-22 13:15:54.83	282.44	19.20	-42.1	-45.5	18.0	6.06e-01	0	61	0	557842432	55	5456
2026-01-22 13:15:57.85	283.28	19.12	-42.0	-45.3	18.1	6.04e-01	0	61	0	563085312	55	5326
2026-01-22 13:16:00.88	284.13	19.03	-42.1	-45.5	17.9	6.04e-01	0	61	0	568852480	55	5450
2026-01-22 13:16:03.91	284.96	18.93	-42.0	-45.4	18.0	6.05e-01	0	61	0	574619648	55	5399
2026-01-22 13:16:06.94	285.79	18.83	-42.1	-45.4	18.0	6.07e-01	0	61	0	580386816	55	5400
2026-01-22 13:16:09.97	286.62	18.73	-42.2	-45.7	17.7	6.05e-01	0	61	0	586153984	55	5578
2026-01-22 13:16:12.99	287.44	18.62	-42.1	-45.6	17.8	6.06e-01	0	61	0	591921152	55	5477
2026-01-22 13:16:16.02	288.25	18.50	-42.1	-45.6	17.8	6.06e-01	0	61	0	597164032	55	5465
2026-01-22 13:16:19.05	289.06	18.38	-42.0	-45.4	18.0	6.08e-01	0	61	0	602931200	55	5393
2026-01-22 13:16:22.08	289.86	18.25	-42.0	-45.5	17.9	6.07e-01	0	61	0	608698368	55	5407
2026-01-22 13:16:25.10	290.64	18.12	-42.1	-45.5	17.9	6.06e-01	0	61	0	614465536	55	5415
2026-01-22 13:16:28.13	291.43	17.99	-42.0	-45.4	18.0	6.07e-01	0	61	0	620232704	55	5363
2026-01-22 13:16:31.16	292.21	17.85	-42.1	-45.6	17.8	6.07e-01	0	61	0	625999872	55	5472
2026-01-22 13:16:34.19	292.98	17.71	-42.0	-45.3	18.0	6.08e-01	0	61	0	631242752	55	5337
2026-01-22 13:16:37.22	293.74	17.56	-42.0	-45.4	18.0	6.08e-01	0	61	0	637009920	55	5372
2026-01-22 13:16:40.24	294.49	17.41	-41.9	-45.3	18.1	6.07e-01	0	61	0	642777088	55	5294
2026-01-22 13:16:43.27	295.24	17.26	-41.9	-45.3	18.0	6.06e-01	0	61	0	648544256	55	5324
2026-01-22 13:16:46.30	295.98	17.10	-42.0	-45.4	18.0	6.04e-01	0	61	0	654311424	55	5376
2026-01-22 13:16:49.33	296.71	16.95	-42.0	-45.5	17.8	6.06e-01	0	61	0	660078592	55	5414
2026-01-22 13:16:52.36	297.43	16.78	-41.9	-45.3	18.1	6.04e-01	0	61	0	665321472	55	5280
2026-01-22 13:16:55.39	298.15	16.62	-42.0	-45.4	17.9	6.06e-01	0	61	0	671088640	55	5402
2026-01-22 13:16:58.41	298.85	16.45	-41.9	-45.4	17.9	6.06e-01	0	61	0	676855808	55	5350
2026-01-22 13:17:01.44	299.55	16.28	-41.9	-45.3	18.0	6.06e-01	0	61	0	682622976	55	5307
2026-01-22 13:17:04.47	300.24	16.11	-41.9	-45.3	18.0	6.05e-01	0	61	0	688390144	55	5296
2026-01-22 13:17:07.49	300.92	15.93	-42.0	-45.4	17.9	6.08e-01	0	61	0	693633024	55	5373
2026-01-22 13:17:10.52	301.59	15.75	-42.0	-45.4	18.0	6.07e-01	0	61	0	699400192	55	5358
2026-01-22 13:17:13.55	302.26	15.57	-41.9	-45.3	18.0	6.05e-01	0	61	0	705167360	55	5332
2026-01-22 13:17:16.58	302.91	15.39	-41.9	-45.4	17.9	6.04e-01	0	61	0	710934528	55	5346
2026-01-22 13:17:19.60	303.56	15.21	-42.0	-45.6	17.7	6.07e-01	0	61	0	716701696	55	5467
2026-01-22 13:17:22.63	304.20	15.02	-42.0	-45.5	17.9	6.04e-01	0	61	0	722468864	55	5407
2026-01-22 13:17:25.66	304.83	14.84	-42.1	-45.6	17.7	6.07e-01	0	61	0	728236032	55	5484
2026-01-22 13:17:28.69	305.45	14.65	-42.0	-45.5	17.8	6.06e-01	0	61	0	733478912	55	5449
2026-01-22 13:17:31.72	306.07	14.46	-42.0	-45.6	17.7	6.04e-01	0	61	0	739246080	55	5477
2026-01-22 13:17:34.74	306.67	14.27	-42.0	-45.6	17.7	6.05e-01	0	61	0	745013248	55	5469
2026-01-22 13:17:37.77	307.27	14.08	-42.0	-45.5	17.8	6.07e-01	0	61	0	750780416	55	5429
2026-01-22 13:17:40.79	307.86	13.89	-42.0	-45.5	17.7	6.03e-01	0	61	0	756547584	55	5438
2026-01-22 13:17:43.82	308.44	13.69	-42.0	-45.5	17.8	6.03e-01	0	61	0	761790464	55	5426
2026-01-22 13:17:46.85	309.02	13.50	-42.0	-45.5	17.7	6.06e-01	0	61	0	767557632	55	5462
2026-01-22 13:17:49.88	309.58	13.30	-42.1	-45.8	17.4	6.03e-01	0	61	0	773324800	55	5619
2026-01-22 13:17:52.90	310.14	13.11	-42.0	-45.6	17.6	6.07e-01	0	61	0	779091968	55	5478
2026-01-22 13:17:55.93	310.69	12.91	-42.0	-45.6	17.6	6.05e-01	0	61	0	784859136	55	5521
2026-01-22 13:17:58.96	311.23	12.71	-42.0	-45.6	17.6	6.06e-01	0	61	0	790626304	55	5497
2026-01-22 13:18:01.99	311.77	12.52	-42.1	-45.8	17.4	6.06e-01	0	61	0	795869184	55	5618
2026-01-22 13:18:05.01	312.30	12.32	-42.1	-45.8	17.4	6.03e-01	0	61	0	801636352	55	5601
2026-01-22 13:18:08.03	312.82	12.12	-42.1	-45.9	17.3	6.04e-01	0	61	0	807403520	55	5684
2026-01-22 13:18:11.06	313.33	11.93	-42.1	-45.9	17.3	6.07e-01	0	61	0	813170688	55	5671
2026-01-22 13:18:14.09	313.84	11.73	-42.1	-45.8	17.3	6.04e-01	0	61	0	818937856	55	5623
2026-01-22 13:18:17.12	314.34	11.53	-42.1	-45.8	17.3	6.07e-01	0	61	0	824705024	55	5650
2026-01-22 13:18:20.15	314.83	11.33	-42.1	-45.9	17.2	6.04e-01	0	61	0	829947904	55	5702
2026-01-22 13:18:23.17	315.31	11.13	-42.2	-46.0	17.0	6.08e-01	0	61	0	835715072	55	5784
2026-01-22 13:18:26.20	315.79	10.94	-42.2	-46.0	17.0	6.07e-01	0	61	0	841482240	55	5783
2026-01-22 13:18:29.23	316.26	10.74	-42.1	-45.9	17.1	6.05e-01	0	61	0	847249408	55	5722
2026-01-22 13:18:32.25	316.73	10.54	-42.2	-46.1	16.9	6.06e-01	0	61	0	853016576	55	5814
2026-01-22 13:18:35.28	317.19	10.34	-42.3	-46.3	16.7	6.06e-01	0	61	0	858259456	55	5957
2026-01-22 13:18:38.31	317.64	10.15	-42.3	-46.4	16.6	6.06e-01	0	61	0	864026624	55	5996
2026-01-22 13:18:41.34	318.08	9.95	-42.3	-46.2	16.8	6.07e-01	0	61	0	869793792	55	5907
2026-01-22 13:18:44.36	318.52	9.75	-42.3	-46.2	16.8	6.07e-01	0	61	0	875560960	55	5907
2026-01-22 13:18:47.39	318.96	9.56	-42.3	-46.2	16.7	6.07e-01	0	61	0	881328128	55	5913
2026-01-22 13:18:50.42	319.38	9.36	-42.3	-46.3	16.7	6.06e-01	0	61	0	887095296	55	5930
2026-01-22 13:18:53.45	319.80	9.17	-42.4	-46.5	16.4	6.04e-01	0	61	0	892338176	55	6081
2026-01-22 13:18:56.48	320.22	8.97	-42.4	-46.5	16.4	6.05e-01	0	61	0	898105344	55	6122
2026-01-22 13:18:59.51	320.63	8.78	-42.4	-46.6	16.3	6.06e-01	0	61	0	903872512	55	6171
2026-01-22 13:19:02.54	321.03	8.58	-42.4	-46.6	16.2	6.05e-01	0	61	0	909639680	55	6171
2026-01-22 13:19:05.57	321.43	8.39	-42.4	-46.7	16.2	6.06e-01	0	61	0	915406848	55	6209
2026-01-22 13:19:08.60	321.83	8.20	-42.4	-46.7	16.2	6.05e-01	0	61	0	920649728	55	6228
2026-01-22 13:19:11.63	322.21	8.01	-44.7	-57.3	3.9	7.23e-01	0	61	104	926416896	60	15941
2026-01-22 13:19:14.66	322.60	7.82	-45.9	-64.5	3.8	7.44e-01	0	61	104	926416896	62	32313
2026-01-22 13:19:17.69	322.97	7.62	-46.2	-64.8	3.8	7.45e-01	0	61	104	926416896	63	31753
2026-01-22 13:19:20.72	323.35	7.43	-46.3	-64.9	3.8	7.45e-01	0	61	104	926416896	63	31811
2026-01-22 13:19:23.74	323.71	7.25	-46.2	-64.7	3.8	7.44e-01	0	61	104	926416896	62	33041
2026-01-22 13:19:26.77	324.07	7.06	-46.1	-64.6	3.8	7.50e-01	0	61	104	926416896	62	32762
2026-01-22 13:19:29.80	324.43	6.87	-45.8	-64.6	3.8	7.46e-01	0	61	104	926416896	62	32702
2026-01-22 13:19:32.83	324.78	6.68	-46.1	-64.7	3.7	7.43e-01	0	61	104	926416896	62	33003
2026-01-22 13:19:35.86	325.13	6.49	-46.1	-64.6	3.8	7.45e-01	0	61	104	926416896	62	32695
2026-01-22 13:19:38.89	325.47	6.31	-46.1	-64.6	3.8	7.47e-01	0	61	104	926416896	62	32633
2026-01-22 13:19:41.92	325.81	6.12	-46.1	-64.6	3.8	7.44e-01	0	62	104	926416896	62	32650
2026-01-22 13:19:44.94	326.14	5.94	-45.9	-64.5	3.8	7.47e-01	0	61	104	926416896	62	32544
2026-01-22 13:19:47.97	326.47	5.75	-46.0	-64.6	3.8	7.42e-01	0	61	104	926416896	62	32559
2026-01-22 13:19:51.00	326.80	5.57	-46.1	-64.6	3.8	7.47e-01	0	62	104	926416896	62	32607
2026-01-22 13:19:54.03	327.12	5.39	-45.9	-64.6	3.8	7.45e-01	0	61	104	926416896	62	32594
2026-01-22 13:19:57.06	327.44	5.21	-46.1	-64.6	3.8	7.46e-01	0	62	104	926416896	62	32617
2026-01-22 13:20:00.09	327.75	5.03	-46.1	-64.6	3.8	7.43e-01	0	62	104	926416896	62	32577
2026-01-22 13:20:03.12	328.06	4.85	-46.0	-64.6	3.8	7.44e-01	0	62	104	926416896	62	32616
2026-01-22 13:20:06.15	328.36	4.67	-46.0	-64.6	3.8	7.47e-01	0	62	104	926416896	62	32588
2026-01-22 13:20:09.18	328.67	4.49	-46.1	-64.6	3.8	7.45e-01	0	62	104	926416896	62	32631
2026-01-22 13:20:12.22	328.96	4.31	-46.1	-64.6	3.8	7.46e-01	0	62	104	926416896	62	32585
2026-01-22 13:20:15.25	329.26	4.13	-46.0	-64.5	3.8	7.44e-01	0	62	104	926416896	62	32505
2026-01-22 13:20:18.28	329.55	3.95	-46.1	-64.5	3.8	7.48e-01	0	62	104	926416896	62	32531
2026-01-22 13:20:21.31	329.83	3.78	-46.0	-64.5	3.8	7.44e-01	0	61	104	926416896	62	32485
2026-01-22 13:20:24.34	330.12	3.60	-46.0	-64.5	3.8	7.48e-01	0	62	104	926416896	62	32493
2026-01-22 13:20:27.37	330.39	3.43	-46.0	-64.5	3.8	7.47e-01	0	62	104	926416896	62	32462
2026-01-22 13:20:30.40	330.67	3.26	-46.0	-64.5	3.8	7.45e-01	0	62	104	926416896	62	32542
2026-01-22 13:20:33.43	330.94	3.08	-46.0	-64.5	3.8	7.41e-01	0	62	104	926416896	62	32518
2026-01-22 13:20:36.46	331.21	2.91	-46.1	-64.5	3.8	7.44e-01	0	61	104	926416896	62	32467
2026-01-22 13:20:39.49	331.48	2.74	-46.0	-64.5	3.8	7.47e-01	0	62	104	926416896	62	32465
2026-01-22 13:20:42.52	331.74	2.57	-46.0	-64.5	3.8	7.43e-01	0	62	104	926416896	62	32511
2026-01-22 13:20:45.55	332.00	2.40	-46.1	-64.5	3.8	7.47e-01	0	62	104	926416896	62	32531
2026-01-22 13:20:48.58	332.26	2.23	-46.1	-64.5	3.8	7.48e-01	0	61	104	926416896	62	32273
2026-01-22 13:20:51.61	332.51	2.06	-46.0	-64.5	3.8	7.43e-01	0	62	104	926416896	62	32491

#Closed at: 2026-01-22 13:20:53
#Recorded file [926 MB]: D:/lorett/data/31039_260122_160939.dat