passes_logs/2026/01/22/R2.0S_Moscow/R2.0S_Moscow__20260122_050520_FENGYUN_3E_rec.log

#Pass ID: 20260122_050520_FENGYUN 3E
#Satellite: FENGYUN 3E
#Configuration: FENGYUN 3E
#almurnet v.1.7.20251203
#Start time: 2026-01-22 05:05:20

#Version: 2.2.20231116
#Station: R2.0S_Moscow
#Location: 37.707566 lon 55.798166 lat
#TLE: 1 49008U 21062A   26021.55921410  .00000414  00000+0  21575-3 0  9991
#TLE: 2 49008  98.7483  26.6103 0002287 125.5068 234.6322 14.19887394235776

#Time	Az	El	Level	Level2	SNR	BER	BlckErr	Temp	State	Recorded	gain1	gain2
2026-01-22 05:05:20.89	11.79	2.02	-40.3	-51.1	3.8	8.45e-01	0	48	0	0	51	12347
2026-01-22 05:05:24.92	11.61	2.27	-40.3	-51.1	3.8	8.46e-01	0	48	104	0	51	12325
2026-01-22 05:05:28.96	11.43	2.51	-40.3	-51.1	3.8	8.45e-01	0	49	104	0	51	12353
2026-01-22 05:05:33.00	11.24	2.76	-40.3	-51.1	3.8	8.46e-01	0	49	104	0	51	12356
2026-01-22 05:05:37.05	11.05	3.01	-40.3	-51.1	3.8	8.47e-01	0	49	104	0	51	12309
2026-01-22 05:05:41.09	10.86	3.27	-40.3	-51.1	3.8	8.46e-01	0	50	104	0	51	12296
2026-01-22 05:05:45.13	10.66	3.52	-40.3	-51.1	3.8	8.46e-01	0	50	104	0	51	12295
2026-01-22 05:05:49.16	10.46	3.78	-40.3	-51.1	3.8	8.47e-01	0	50	104	0	51	12292
2026-01-22 05:05:53.21	10.25	4.03	-40.3	-51.1	3.8	8.46e-01	0	50	104	0	51	12350
2026-01-22 05:05:57.25	10.04	4.30	-40.3	-51.1	3.8	8.46e-01	0	51	104	0	51	12319
2026-01-22 05:06:01.28	9.83	4.56	-40.3	-51.1	3.8	8.45e-01	0	51	104	0	51	12318
2026-01-22 05:06:05.32	9.61	4.82	-40.3	-51.1	3.8	8.46e-01	0	51	104	0	51	12326
2026-01-22 05:06:09.36	9.39	5.09	-40.3	-51.1	3.8	8.46e-01	0	52	104	0	51	12299
2026-01-22 05:06:13.41	9.17	5.36	-40.3	-51.1	3.8	8.45e-01	0	52	104	0	51	12327
2026-01-22 05:06:17.45	8.94	5.63	-40.3	-51.1	3.8	8.46e-01	0	52	104	0	51	12299
2026-01-22 05:06:21.49	8.70	5.91	-40.3	-51.1	3.8	8.46e-01	0	52	104	0	51	12273
2026-01-22 05:06:25.53	8.46	6.18	-40.3	-51.1	3.8	8.47e-01	0	52	104	0	51	12324
2026-01-22 05:06:29.57	8.22	6.46	-40.3	-51.1	3.8	8.45e-01	0	53	104	0	51	12292
2026-01-22 05:06:33.60	7.97	6.74	-40.3	-51.1	3.8	8.47e-01	0	53	104	0	51	12280
2026-01-22 05:06:37.64	7.71	7.03	-40.3	-51.1	3.8	8.45e-01	0	53	104	0	51	12321
2026-01-22 05:06:41.68	7.45	7.31	-40.3	-51.1	3.8	8.47e-01	0	53	104	0	51	12284
2026-01-22 05:06:45.72	7.18	7.60	-40.3	-51.1	3.8	8.46e-01	0	53	104	0	51	12313
2026-01-22 05:06:49.76	6.91	7.89	-40.3	-51.1	3.8	8.46e-01	0	53	104	0	51	12323
2026-01-22 05:06:53.80	6.63	8.19	-40.4	-51.2	3.8	8.46e-01	0	53	104	0	51	12434
2026-01-22 05:06:57.84	6.35	8.49	-40.5	-51.3	3.8	8.46e-01	0	54	104	0	51	12554
2026-01-22 05:07:01.88	6.06	8.79	-40.5	-51.3	3.8	8.46e-01	0	54	104	0	51	12555
2026-01-22 05:07:05.91	5.76	9.09	-40.6	-51.4	3.8	8.45e-01	0	54	104	0	51	12724
2026-01-22 05:07:09.95	5.46	9.40	-40.8	-51.6	3.8	8.47e-01	0	54	104	0	51	13003
2026-01-22 05:07:13.99	5.15	9.71	-40.9	-51.7	3.8	8.46e-01	0	54	104	0	51	13136
2026-01-22 05:07:18.03	4.83	10.02	-40.3	-51.1	3.8	8.45e-01	0	54	104	0	51	12337
2026-01-22 05:07:22.07	4.51	10.33	-40.4	-51.2	3.8	8.47e-01	0	55	104	0	51	12397
2026-01-22 05:07:26.10	4.18	10.65	-40.6	-51.4	3.8	8.46e-01	0	55	104	0	51	12714
2026-01-22 05:07:30.14	3.84	10.97	-40.5	-51.3	3.8	8.46e-01	0	55	104	0	51	12577
2026-01-22 05:07:34.18	3.49	11.30	-40.6	-51.3	3.8	8.47e-01	0	55	104	0	51	12640
2026-01-22 05:07:38.22	3.14	11.63	-40.6	-51.4	3.8	8.46e-01	0	55	104	0	51	12727
2026-01-22 05:07:42.26	2.77	11.96	-40.7	-51.3	3.8	8.47e-01	0	55	104	0	52	11954
2026-01-22 05:07:46.30	2.40	12.29	-40.8	-51.5	3.8	8.46e-01	0	55	104	0	52	12137
2026-01-22 05:07:50.34	2.02	12.63	-40.9	-51.6	3.8	8.45e-01	0	55	104	0	52	12283
2026-01-22 05:07:54.38	1.63	12.97	-41.1	-51.6	3.8	8.46e-01	0	55	104	0	52	12251
2026-01-22 05:07:58.42	1.23	13.32	-41.1	-45.8	6.7	2.30e-01	0	55	0	4194304	53	5958
2026-01-22 05:08:02.46	0.82	13.67	-39.1	-41.7	11.0	2.81e-03	0	55	0	33554432	49	4680
2026-01-22 05:08:06.49	0.40	14.02	-36.8	-38.6	14.1	3.40e-06	0	55	0	62914560	44	4376
2026-01-22 05:08:10.54	359.97	14.38	-37.5	-39.4	13.7	1.02e-05	0	56	0	92274688	44	4764
2026-01-22 05:08:14.58	359.53	14.73	-37.4	-39.2	14.2	4.50e-06	0	56	0	120586240	45	4423
2026-01-22 05:08:18.61	359.08	15.10	-37.6	-39.3	14.3	0.00e+00	0	56	0	149946368	45	4486
2026-01-22 05:08:22.65	358.61	15.46	-37.1	-38.8	14.9	3.40e-06	0	56	0	179306496	45	4204
2026-01-22 05:08:26.68	358.14	15.83	-37.3	-39.0	14.7	0.00e+00	0	56	0	208666624	45	4295
2026-01-22 05:08:30.73	357.65	16.21	-37.1	-38.9	14.5	0.00e+00	0	56	0	238026752	45	4256
2026-01-22 05:08:34.77	357.14	16.59	-37.0	-38.7	14.5	0.00e+00	0	56	0	267386880	44	4426
2026-01-22 05:08:38.81	356.63	16.97	-37.1	-39.0	13.9	2.20e-06	0	56	0	295698432	44	4554
2026-01-22 05:08:42.84	356.10	17.35	-39.5	-42.6	9.6	7.97e-03	0	56	0	325058560	48	5493
2026-01-22 05:08:46.89	355.56	17.74	-41.3	-48.7	4.3	8.20e-01	0	56	0	347078656	52	8783
2026-01-22 05:08:50.92	355.00	18.13	-41.4	-51.6	3.8	8.46e-01	0	56	104	347078656	52	12299
2026-01-22 05:08:54.96	354.43	18.52	-41.5	-51.9	3.8	8.46e-01	0	56	104	347078656	53	11987
2026-01-22 05:08:58.99	353.85	18.92	-41.6	-52.3	3.8	8.46e-01	0	56	104	347078656	53	12620
2026-01-22 05:09:03.03	353.24	19.32	-41.2	-51.8	3.8	8.47e-01	0	56	104	347078656	53	11865
2026-01-22 05:09:07.06	352.63	19.73	-41.2	-51.8	3.8	8.46e-01	0	57	104	347078656	53	11883
2026-01-22 05:09:11.10	351.99	20.13	-42.2	-49.5	4.4	8.34e-01	0	57	0	347078656	54	8628
2026-01-22 05:09:15.14	351.33	20.54	-42.2	-48.5	5.0	7.70e-01	0	57	0	347078656	54	7632
2026-01-22 05:09:19.18	350.66	20.96	-41.6	-51.6	3.8	8.46e-01	0	57	104	350224384	52	12248
2026-01-22 05:09:23.21	349.97	21.37	-38.2	-40.6	11.8	5.17e-04	0	57	0	370147328	47	4635
2026-01-22 05:09:27.25	349.26	21.79	-36.7	-38.4	14.4	2.20e-06	0	57	0	399507456	44	4269
2026-01-22 05:09:31.29	348.53	22.21	-35.8	-37.3	15.7	0.00e+00	0	56	0	428867584	41	4445
2026-01-22 05:09:35.33	347.78	22.63	-35.6	-37.0	16.2	0.00e+00	0	57	0	457179136	41	4338
2026-01-22 05:09:39.37	347.01	23.05	-35.8	-37.2	16.4	0.00e+00	0	57	0	486539264	41	4429
2026-01-22 05:09:43.40	346.22	23.48	-35.8	-37.2	16.7	0.00e+00	0	57	0	515899392	42	4159
2026-01-22 05:09:47.44	345.40	23.90	-35.8	-37.1	17.0	0.00e+00	0	57	0	545259520	42	4126
2026-01-22 05:09:51.48	344.56	24.33	-35.7	-37.0	17.3	0.00e+00	0	57	0	573571072	42	4075
2026-01-22 05:09:55.52	343.70	24.75	-35.6	-36.8	17.6	0.00e+00	0	57	0	602931200	42	3979
2026-01-22 05:09:59.56	342.82	25.18	-35.5	-36.8	17.7	0.00e+00	0	57	0	632291328	41	4201
2026-01-22 05:10:03.60	341.91	25.60	-35.5	-36.7	17.8	0.00e+00	0	57	0	661651456	41	4182
2026-01-22 05:10:07.64	340.97	26.03	-35.5	-36.7	18.0	0.00e+00	0	57	0	691011584	41	4152
2026-01-22 05:10:11.68	340.01	26.45	-35.6	-36.8	17.9	0.00e+00	0	57	0	720371712	41	4236
2026-01-22 05:10:15.72	339.02	26.87	-35.9	-37.1	17.7	0.00e+00	0	57	0	748683264	41	4358
2026-01-22 05:10:19.76	338.01	27.28	-35.6	-36.8	18.0	0.00e+00	0	57	0	778043392	41	4237
2026-01-22 05:10:23.79	336.97	27.69	-35.7	-36.9	17.9	0.00e+00	0	57	0	807403520	41	4285
2026-01-22 05:10:27.83	335.90	28.10	-35.9	-37.1	17.8	0.00e+00	0	57	0	836763648	41	4351
2026-01-22 05:10:31.87	334.81	28.50	-35.4	-36.5	18.4	0.00e+00	0	57	0	866123776	41	4088
2026-01-22 05:10:35.91	333.69	28.90	-35.3	-36.5	18.5	0.00e+00	0	57	0	894435328	41	4056
2026-01-22 05:10:39.95	332.53	29.28	-35.5	-36.7	18.3	0.00e+00	0	57	0	923795456	41	4158
2026-01-22 05:10:43.99	331.36	29.66	-35.5	-36.7	18.3	0.00e+00	0	57	0	953155584	41	4157
2026-01-22 05:10:48.03	330.15	30.03	-35.7	-36.8	18.1	0.00e+00	0	57	0	982515712	41	4241
2026-01-22 05:10:52.06	328.91	30.39	-35.4	-36.6	18.4	0.00e+00	0	57	0	1011875840	41	4105
2026-01-22 05:10:56.10	327.65	30.75	-35.2	-36.3	18.6	0.00e+00	0	57	0	1041235968	41	3995
2026-01-22 05:11:00.14	326.36	31.08	-35.3	-36.4	18.5	0.00e+00	0	57	0	1069547520	41	4029
2026-01-22 05:11:04.18	325.04	31.41	-35.5	-36.6	18.3	0.00e+00	0	57	0	1098907648	41	4136
2026-01-22 05:11:08.21	323.70	31.72	-35.3	-36.4	18.5	0.00e+00	0	57	0	1128267776	41	4042
2026-01-22 05:11:12.25	322.33	32.02	-34.7	-35.8	19.2	0.00e+00	0	57	0	1157627904	40	3969
2026-01-22 05:11:16.29	320.93	32.30	-35.2	-36.3	18.7	0.00e+00	0	57	0	1186988032	40	4220
2026-01-22 05:11:20.33	319.52	32.56	-35.0	-36.1	18.9	0.00e+00	0	57	0	1215299584	40	4139
2026-01-22 05:11:24.37	318.07	32.80	-35.0	-36.1	18.8	0.00e+00	0	57	0	1244659712	40	4145
2026-01-22 05:11:28.40	316.61	33.03	-34.9	-36.0	19.0	0.00e+00	0	57	0	1274019840	40	4088
2026-01-22 05:11:32.43	315.14	33.23	-35.0	-36.2	18.8	0.00e+00	0	57	0	1303379968	40	4150
2026-01-22 05:11:36.47	313.63	33.42	-35.0	-36.2	18.8	0.00e+00	0	57	0	1331691520	40	4146
2026-01-22 05:11:40.51	312.12	33.58	-34.9	-36.0	19.0	0.00e+00	0	57	0	1361051648	40	4087
2026-01-22 05:11:44.55	310.58	33.73	-34.9	-36.0	18.9	0.00e+00	0	58	0	1390411776	40	4091
2026-01-22 05:11:48.59	309.04	33.85	-34.9	-36.0	19.0	0.00e+00	0	57	0	1419771904	40	4076
2026-01-22 05:11:52.63	307.48	33.94	-35.1	-36.3	18.7	0.00e+00	0	57	0	1449132032	40	4197
2026-01-22 05:11:56.67	305.92	34.01	-35.3	-36.4	18.6	0.00e+00	0	58	0	1477443584	40	4276
2026-01-22 05:12:00.71	304.35	34.06	-34.8	-35.9	19.1	0.00e+00	0	58	0	1506803712	40	4042
2026-01-22 05:12:04.75	302.78	34.08	-35.0	-36.1	18.9	0.00e+00	0	57	0	1536163840	40	4105
2026-01-22 05:12:08.79	301.21	34.08	-34.9	-36.0	19.0	0.00e+00	0	57	0	1565523968	40	4083
2026-01-22 05:12:12.83	299.63	34.05	-35.4	-36.5	18.5	0.00e+00	0	57	0	1594884096	40	4332
2026-01-22 05:12:16.86	298.07	34.00	-35.0	-36.1	18.9	0.00e+00	0	58	0	1623195648	40	4128
2026-01-22 05:12:20.91	296.50	33.93	-35.1	-36.2	18.8	0.00e+00	0	57	0	1652555776	40	4185
2026-01-22 05:12:24.95	294.94	33.83	-34.8	-35.9	19.1	0.00e+00	0	57	0	1681915904	40	4026
2026-01-22 05:12:28.99	293.40	33.71	-34.9	-36.0	19.0	0.00e+00	0	57	0	1711276032	40	4073
2026-01-22 05:12:33.02	291.87	33.56	-34.9	-36.0	19.0	0.00e+00	0	58	0	1740636160	40	4081
2026-01-22 05:12:37.06	290.35	33.40	-34.9	-36.0	19.0	0.00e+00	0	58	0	1769996288	40	4095
2026-01-22 05:12:41.10	288.85	33.21	-34.8	-35.9	19.1	0.00e+00	0	58	0	1798307840	40	4023
2026-01-22 05:12:45.14	287.37	33.00	-35.1	-36.2	18.9	0.00e+00	0	58	0	1827667968	40	4156
2026-01-22 05:12:49.18	285.91	32.77	-35.0	-36.1	18.9	0.00e+00	0	58	0	1857028096	40	4102
2026-01-22 05:12:53.22	284.46	32.52	-35.1	-36.2	18.8	0.00e+00	0	58	0	1886388224	40	4192
2026-01-22 05:12:57.26	283.04	32.26	-35.0	-36.2	18.8	0.00e+00	0	58	0	1915748352	40	4151
2026-01-22 05:13:01.30	281.65	31.97	-34.8	-35.9	19.1	0.00e+00	0	58	0	1944059904	40	4035
2026-01-22 05:13:05.34	280.28	31.67	-35.0	-36.1	18.9	0.00e+00	0	58	0	1973420032	40	4111
2026-01-22 05:13:09.38	278.93	31.36	-35.1	-36.2	18.8	0.00e+00	0	58	0	2002780160	40	4154
2026-01-22 05:13:13.42	277.61	31.03	-35.0	-36.1	18.8	0.00e+00	0	58	0	2032140288	40	4144
2026-01-22 05:13:17.46	276.32	30.69	-35.0	-36.1	18.8	0.00e+00	0	58	0	2061500416	40	4141
2026-01-22 05:13:21.50	275.06	30.34	-35.2	-36.3	18.7	0.00e+00	0	57	0	2090860544	40	4223
2026-01-22 05:13:25.54	273.82	29.97	-35.2	-36.3	18.6	0.00e+00	0	58	0	2119172096	40	4209
2026-01-22 05:13:29.58	272.61	29.60	-35.1	-36.2	18.7	0.00e+00	0	58	0	2148532224	40	4188
2026-01-22 05:13:33.61	271.44	29.22	-35.0	-36.2	18.8	0.00e+00	0	58	0	2177892352	40	4153
2026-01-22 05:13:37.65	270.28	28.83	-35.1	-36.2	18.7	0.00e+00	0	58	0	2207252480	40	4189
2026-01-22 05:13:41.69	269.16	28.43	-34.9	-36.0	18.9	0.00e+00	0	58	0	2236612608	40	4079
2026-01-22 05:13:45.73	268.06	28.03	-35.1	-36.2	18.7	0.00e+00	0	58	0	2264924160	40	4175
2026-01-22 05:13:49.77	266.99	27.62	-35.5	-36.6	18.3	0.00e+00	0	58	0	2294284288	40	4384
2026-01-22 05:13:53.81	265.95	27.20	-35.5	-36.7	18.3	0.00e+00	0	58	0	2323644416	40	4393
2026-01-22 05:13:57.85	264.94	26.79	-35.4	-36.5	18.4	0.00e+00	0	57	0	2353004544	40	4332
2026-01-22 05:14:01.90	263.95	26.36	-35.4	-36.6	18.3	0.00e+00	0	58	0	2382364672	40	4343
2026-01-22 05:14:05.93	262.99	25.94	-35.5	-36.7	18.2	0.00e+00	0	58	0	2411724800	40	4429
2026-01-22 05:14:09.98	262.05	25.52	-35.4	-36.6	18.3	0.00e+00	0	58	0	2440036352	40	4365
2026-01-22 05:14:14.02	261.14	25.09	-35.5	-36.7	18.2	0.00e+00	0	58	0	2469396480	40	4392
2026-01-22 05:14:18.06	260.25	24.66	-35.5	-36.7	18.2	0.00e+00	0	58	0	2498756608	40	4435
2026-01-22 05:14:22.10	259.39	24.23	-35.7	-36.9	18.0	0.00e+00	0	58	0	2528116736	41	4253
2026-01-22 05:14:26.14	258.55	23.81	-35.6	-36.8	18.1	0.00e+00	0	58	0	2557476864	41	4211
2026-01-22 05:14:30.18	257.73	23.38	-35.6	-36.8	18.1	0.00e+00	0	58	0	2585788416	41	4197
2026-01-22 05:14:34.22	256.94	22.95	-35.6	-36.8	18.1	0.00e+00	0	58	0	2615148544	41	4204
2026-01-22 05:14:38.25	256.17	22.53	-35.5	-36.7	18.1	0.00e+00	0	58	0	2644508672	41	4165
2026-01-22 05:14:42.30	255.41	22.10	-35.6	-36.8	18.0	0.00e+00	0	58	0	2673868800	41	4236
2026-01-22 05:14:46.34	254.68	21.68	-35.8	-37.1	17.8	0.00e+00	0	58	0	2703228928	41	4341
2026-01-22 05:14:50.38	253.97	21.26	-35.9	-37.2	17.7	0.00e+00	0	58	0	2731540480	41	4393
2026-01-22 05:14:54.41	253.28	20.85	-36.1	-37.4	17.5	0.00e+00	0	58	0	2760900608	41	4499
2026-01-22 05:14:58.45	252.61	20.43	-36.3	-37.6	17.3	0.00e+00	0	58	0	2790260736	42	4341
2026-01-22 05:15:02.49	251.95	20.02	-36.1	-37.4	17.4	0.00e+00	0	58	0	2819620864	42	4245
2026-01-22 05:15:06.53	251.31	19.61	-36.1	-37.4	17.4	0.00e+00	0	58	0	2847932416	42	4276
2026-01-22 05:15:10.56	250.69	19.21	-36.4	-37.7	17.1	0.00e+00	0	58	0	2877292544	42	4425
2026-01-22 05:15:14.60	250.09	18.80	-36.3	-37.6	17.2	0.00e+00	0	58	0	2906652672	42	4361
2026-01-22 05:15:18.64	249.50	18.40	-36.5	-37.8	16.9	0.00e+00	0	58	0	2936012800	42	4490
2026-01-22 05:15:22.68	248.92	18.01	-36.9	-38.3	16.5	0.00e+00	0	58	0	2965372928	43	4465
2026-01-22 05:15:26.72	248.37	17.61	-36.9	-38.2	16.5	0.00e+00	0	58	0	2993684480	43	4440
2026-01-22 05:15:30.77	247.82	17.22	-36.8	-38.1	16.6	0.00e+00	0	58	0	3023044608	43	4390
2026-01-22 05:15:34.81	247.29	16.84	-36.7	-38.1	16.6	0.00e+00	0	58	0	3052404736	43	4352
2026-01-22 05:15:38.85	246.77	16.46	-37.0	-38.5	16.2	0.00e+00	0	58	0	3081764864	43	4547
2026-01-22 05:15:42.89	246.27	16.08	-37.5	-39.0	15.8	0.00e+00	0	58	0	3111124992	44	4591
2026-01-22 05:15:46.92	245.78	15.70	-37.7	-39.2	15.6	0.00e+00	0	58	0	3139436544	44	4676
2026-01-22 05:15:50.96	245.30	15.33	-37.4	-38.9	15.9	0.00e+00	0	58	0	3168796672	44	4503
2026-01-22 05:15:55.00	244.84	14.97	-37.1	-38.5	16.2	0.00e+00	0	58	0	3198156800	44	4332
2026-01-22 05:15:59.03	244.38	14.60	-37.4	-38.9	15.9	0.00e+00	0	58	0	3227516928	44	4527
2026-01-22 05:16:03.07	243.94	14.24	-37.6	-39.2	15.6	0.00e+00	0	58	0	3256877056	44	4668
2026-01-22 05:16:07.11	243.50	13.88	-37.7	-39.3	15.4	0.00e+00	0	58	0	3286237184	45	4460
2026-01-22 05:16:11.16	243.08	13.53	-38.0	-39.6	15.1	0.00e+00	0	58	0	3314548736	45	4622
2026-01-22 05:16:15.19	242.67	13.18	-38.0	-39.7	15.0	0.00e+00	0	58	0	3343908864	45	4673
2026-01-22 05:16:19.23	242.27	12.84	-38.4	-40.1	14.6	0.00e+00	0	58	0	3373268992	46	4614
2026-01-22 05:16:23.27	241.87	12.49	-38.2	-39.9	14.7	0.00e+00	0	58	0	3402629120	46	4513
2026-01-22 05:16:27.31	241.49	12.15	-38.0	-39.7	15.0	1.10e-06	0	58	0	3431989248	46	4403
2026-01-22 05:16:31.35	241.11	11.82	-38.0	-39.6	15.0	0.00e+00	0	58	0	3460300800	46	4355
2026-01-22 05:16:35.39	240.75	11.49	-38.1	-39.7	14.9	1.10e-06	0	58	0	3489660928	46	4441
2026-01-22 05:16:39.43	240.39	11.16	-38.2	-39.9	14.6	1.10e-06	0	58	0	3519021056	46	4526
2026-01-22 05:16:43.46	240.04	10.83	-38.3	-40.0	14.5	0.00e+00	0	58	0	3548381184	46	4559
2026-01-22 05:16:47.50	239.70	10.51	-38.5	-40.2	14.3	0.00e+00	0	58	0	3577741312	46	4693
2026-01-22 05:16:51.54	239.36	10.19	-38.6	-40.4	14.1	3.40e-06	0	58	0	3607101440	47	4508
2026-01-22 05:16:55.59	239.04	9.87	-38.5	-40.3	14.1	1.10e-06	0	58	0	3635412992	47	4488
2026-01-22 05:16:59.63	238.72	9.56	-38.5	-40.3	14.1	4.50e-06	0	58	0	3664773120	47	4483
2026-01-22 05:17:03.67	238.40	9.25	-38.5	-40.3	14.1	0.00e+00	0	58	0	3694133248	47	4456
2026-01-22 05:17:07.71	238.10	8.94	-38.0	-39.7	14.6	0.00e+00	0	58	0	3723493376	47	4174
2026-01-22 05:17:11.76	237.80	8.64	-38.5	-40.3	14.0	3.40e-06	0	58	0	3752853504	47	4466
2026-01-22 05:17:15.80	237.50	8.34	-38.7	-40.6	13.7	3.40e-06	0	58	0	3781165056	47	4624
2026-01-22 05:17:19.83	237.22	8.04	-39.0	-41.1	13.2	1.71e-05	0	58	0	3810525184	47	4880
2026-01-22 05:17:23.87	236.94	7.75	-45.4	-56.7	3.8	8.45e-01	0	58	104	3816816640	60	14006
2026-01-22 05:17:27.91	236.66	7.45	-45.6	-57.0	3.8	8.45e-01	0	58	104	3816816640	60	14428
2026-01-22 05:17:31.96	236.39	7.16	-45.6	-56.9	3.8	8.47e-01	0	58	104	3816816640	60	14348
2026-01-22 05:17:36.00	236.13	6.87	-45.5	-56.9	3.8	8.47e-01	0	58	104	3816816640	60	14247
2026-01-22 05:17:40.04	235.87	6.59	-45.5	-56.8	3.8	8.46e-01	0	58	104	3816816640	60	14173
2026-01-22 05:17:44.08	235.61	6.31	-45.5	-56.8	3.8	8.47e-01	0	58	104	3816816640	60	14121
2026-01-22 05:17:48.12	235.36	6.03	-45.4	-56.8	3.8	8.46e-01	0	58	104	3816816640	60	14123
2026-01-22 05:17:52.16	235.12	5.75	-45.4	-56.8	3.8	8.46e-01	0	58	104	3816816640	60	14160
2026-01-22 05:17:56.20	234.88	5.48	-45.4	-56.8	3.8	8.44e-01	0	58	104	3816816640	60	14148
2026-01-22 05:18:00.25	234.65	5.20	-45.4	-56.7	3.8	8.46e-01	0	58	104	3816816640	60	14029
2026-01-22 05:18:04.29	234.42	4.93	-45.4	-56.7	3.8	8.44e-01	0	58	104	3816816640	60	14044
2026-01-22 05:18:08.33	234.19	4.67	-45.4	-56.7	3.8	8.47e-01	0	58	104	3816816640	60	14018
2026-01-22 05:18:12.37	233.97	4.40	-45.4	-56.7	3.8	8.46e-01	0	58	104	3816816640	60	14020
2026-01-22 05:18:16.41	233.75	4.14	-45.4	-56.8	3.8	8.46e-01	0	58	104	3816816640	60	14056
2026-01-22 05:18:20.45	233.54	3.88	-45.4	-56.8	3.8	8.46e-01	0	58	104	3816816640	60	14076
2026-01-22 05:18:24.49	233.33	3.62	-45.4	-56.7	3.8	8.47e-01	0	58	104	3816816640	60	13999
2026-01-22 05:18:28.53	233.12	3.36	-45.4	-56.7	3.8	8.46e-01	0	58	104	3816816640	60	14008
2026-01-22 05:18:32.57	232.92	3.11	-45.4	-56.7	3.8	8.46e-01	0	58	104	3816816640	60	14039
2026-01-22 05:18:36.61	232.72	2.85	-45.4	-56.8	3.8	8.46e-01	0	58	104	3816816640	60	14060
2026-01-22 05:18:40.65	232.53	2.60	-45.4	-56.7	3.8	8.45e-01	0	58	104	3816816640	60	13991
2026-01-22 05:18:44.68	232.34	2.36	-45.4	-56.8	3.8	8.46e-01	0	58	104	3816816640	60	14061
2026-01-22 05:18:48.73	232.15	2.11	-45.3	-56.7	3.8	8.46e-01	0	58	104	3816816640	60	13953
2026-01-22 05:18:52.77	231.97	1.86	-45.3	-56.7	3.8	8.45e-01	0	58	104	3816816640	60	14002

#Closed at: 2026-01-22 05:18:53
#Recorded file [3816 MB]: D:/lorett/data/31039_260122_080520.dat