passes_logs/2026/01/22/R2.0S_Moscow/R2.0S_Moscow__20260122_113054_AQUA_rec.log

#Pass ID: 20260122_113054_AQUA
#Satellite: AQUA
#Configuration: AQUA
#almurnet v.1.7.20251203
#Start time: 2026-01-22 11:30:54

#Version: 2.2.20231116
#Station: R2.0S_Moscow
#Location: 37.707566 lon 55.798166 lat
#TLE: 1 27424U 02022A   26021.53721517  .00002456  00000+0  50140-3 0  9996
#TLE: 2 27424  98.4098 348.0744 0002012  70.1009  46.1672 14.61843091261845

#Time	Az	El	Level	Level2	SNR	BER	BlckErr	Temp	State	Recorded	gain1	gain2
2026-01-22 11:30:54.51	156.14	1.98	-44.7	-63.4	3.8	7.45e-01	0	51	0	0	60	31997
2026-01-22 11:30:58.54	156.11	2.25	-44.8	-63.4	3.8	7.47e-01	0	51	104	0	60	32007
2026-01-22 11:31:02.59	156.08	2.52	-44.8	-63.4	3.8	7.45e-01	0	52	104	0	60	31927
2026-01-22 11:31:06.63	156.05	2.80	-44.8	-63.3	3.8	7.45e-01	0	52	104	0	60	31761
2026-01-22 11:31:10.67	156.02	3.08	-44.8	-63.4	3.8	7.42e-01	0	52	104	0	60	31914
2026-01-22 11:31:14.71	155.99	3.36	-44.8	-63.4	3.8	7.46e-01	0	53	104	0	60	31925
2026-01-22 11:31:18.75	155.96	3.65	-43.8	-63.2	3.8	7.45e-01	0	53	104	0	60	31169
2026-01-22 11:31:22.79	155.93	3.94	-44.8	-63.4	3.8	7.47e-01	0	53	104	0	60	31976
2026-01-22 11:31:26.83	155.89	4.23	-44.3	-62.9	3.7	7.43e-01	0	54	104	0	60	30320
2026-01-22 11:31:30.87	155.86	4.52	-44.7	-63.3	3.8	7.44e-01	0	54	104	0	60	31753
2026-01-22 11:31:34.91	155.82	4.82	-44.7	-63.3	3.8	7.43e-01	0	54	104	0	60	31801
2026-01-22 11:31:38.96	155.78	5.13	-44.7	-63.1	3.8	7.45e-01	0	54	104	0	60	30949
2026-01-22 11:31:43.00	155.75	5.44	-44.7	-62.8	3.8	7.43e-01	0	54	104	0	60	29881
2026-01-22 11:31:47.04	155.71	5.75	-44.7	-61.6	3.8	7.45e-01	0	55	104	0	60	26052
2026-01-22 11:31:51.09	155.67	6.06	-44.5	-57.4	5.2	7.05e-01	13	55	0	0	60	16083
2026-01-22 11:31:55.13	155.62	6.39	-44.5	-55.2	7.2	6.60e-01	92	55	0	4718592	59	13228
2026-01-22 11:31:59.17	155.58	6.71	-44.5	-57.0	5.7	6.94e-01	21	55	0	11534336	59	16238
2026-01-22 11:32:03.22	155.54	7.04	-44.7	-61.7	3.8	7.47e-01	0	55	104	11534336	60	26234
2026-01-22 11:32:07.26	155.49	7.37	-44.5	-54.7	7.6	6.51e-01	92	56	0	13107200	59	12439
2026-01-22 11:32:11.30	155.44	7.71	-43.4	-49.3	13.2	6.10e-01	0	56	0	20447232	58	7093
2026-01-22 11:32:15.34	155.39	8.06	-42.5	-47.1	15.6	6.08e-01	0	56	0	28311552	56	6135
2026-01-22 11:32:19.38	155.34	8.41	-43.4	-49.3	12.6	6.12e-01	11	56	0	34078720	57	7486
2026-01-22 11:32:23.41	155.29	8.76	-42.9	-47.8	14.1	6.09e-01	0	56	0	41418752	55	7043
2026-01-22 11:32:27.45	155.24	9.12	-42.2	-46.4	16.4	6.07e-01	0	57	0	48758784	55	6014
2026-01-22 11:32:31.49	155.18	9.49	-42.2	-46.3	15.7	6.06e-01	0	57	0	56623104	54	6310
2026-01-22 11:32:35.52	155.13	9.86	-42.0	-46.2	16.5	6.06e-01	0	56	0	63963136	55	5873
2026-01-22 11:32:39.56	155.07	10.24	-42.2	-46.1	16.9	6.05e-01	0	57	0	71827456	54	6163
2026-01-22 11:32:43.60	155.01	10.63	-42.2	-46.1	16.9	6.05e-01	0	57	0	79167488	55	5854
2026-01-22 11:32:47.64	154.94	11.02	-42.2	-46.1	15.9	6.05e-01	0	57	0	87031808	55	5829
2026-01-22 11:32:51.68	154.88	11.42	-42.2	-46.1	17.1	6.09e-01	0	57	0	94371840	55	5797
2026-01-22 11:32:55.72	154.81	11.82	-42.1	-45.8	17.2	6.06e-01	0	57	0	102236160	55	5647
2026-01-22 11:32:59.76	154.74	12.24	-42.1	-45.7	17.6	6.07e-01	0	57	0	109576192	54	5862
2026-01-22 11:33:03.80	154.67	12.66	-42.0	-45.5	17.7	6.07e-01	0	57	0	116916224	54	5772
2026-01-22 11:33:07.83	154.59	13.09	-41.8	-45.3	17.7	6.06e-01	0	57	0	124780544	54	5636
2026-01-22 11:33:11.87	154.51	13.53	-41.9	-45.3	18.0	6.05e-01	0	57	0	132120576	54	5637
2026-01-22 11:33:15.91	154.43	13.98	-42.0	-45.4	18.1	6.04e-01	0	58	0	139984896	54	5691
2026-01-22 11:33:19.95	154.35	14.44	-42.0	-45.4	18.1	6.07e-01	0	58	0	147324928	54	5687
2026-01-22 11:33:23.99	154.26	14.90	-42.0	-45.4	18.1	6.06e-01	0	58	0	155189248	54	5699
2026-01-22 11:33:28.03	154.17	15.38	-42.0	-45.3	18.2	6.09e-01	0	58	0	162529280	54	5641
2026-01-22 11:33:32.06	154.08	15.87	-42.0	-45.3	18.2	6.06e-01	0	58	0	170393600	54	5631
2026-01-22 11:33:36.10	153.98	16.37	-42.0	-45.2	18.4	6.06e-01	0	58	0	177733632	54	5562
2026-01-22 11:33:40.14	153.88	16.88	-42.1	-45.5	18.2	6.09e-01	0	58	0	185073664	54	5749
2026-01-22 11:33:44.18	153.77	17.40	-42.3	-45.8	18.0	6.06e-01	0	58	0	192937984	55	5605
2026-01-22 11:33:48.21	153.66	17.93	-42.2	-45.6	18.1	6.07e-01	0	58	0	200278016	55	5501
2026-01-22 11:33:52.25	153.54	18.48	-42.2	-45.5	18.3	6.06e-01	0	58	0	208142336	55	5408
2026-01-22 11:33:56.29	153.42	19.04	-42.1	-45.4	18.4	6.09e-01	0	59	0	215482368	55	5384
2026-01-22 11:34:00.33	153.30	19.62	-42.2	-45.5	18.3	6.06e-01	0	58	0	223346688	55	5458
2026-01-22 11:34:04.36	153.17	20.20	-42.2	-45.5	18.3	6.05e-01	0	59	0	230686720	55	5442
2026-01-22 11:34:08.40	153.03	20.81	-42.2	-45.6	18.3	6.07e-01	0	59	0	238551040	55	5465
2026-01-22 11:34:12.44	152.89	21.43	-42.2	-45.4	18.5	6.06e-01	0	59	0	245891072	55	5388
2026-01-22 11:34:16.47	152.74	22.07	-42.3	-45.6	18.3	6.06e-01	0	59	0	253231104	55	5527
2026-01-22 11:34:20.51	152.58	22.73	-42.5	-45.9	18.0	6.07e-01	0	59	0	261095424	55	5694
2026-01-22 11:34:24.55	152.42	23.40	-42.4	-45.9	18.0	6.03e-01	0	59	0	268435456	55	5669
2026-01-22 11:34:28.59	152.24	24.09	-42.4	-45.8	18.2	6.04e-01	0	59	0	276299776	55	5593
2026-01-22 11:34:32.62	152.06	24.81	-42.4	-45.7	18.2	6.08e-01	0	59	0	283639808	55	5588
2026-01-22 11:34:36.66	151.87	25.54	-42.5	-46.0	18.0	6.07e-01	0	59	0	291504128	55	5723
2026-01-22 11:34:40.70	151.67	26.30	-42.5	-45.9	18.1	6.06e-01	0	59	0	298844160	55	5672
2026-01-22 11:34:44.74	151.46	27.08	-42.3	-45.5	18.5	6.05e-01	0	59	0	306184192	55	5452
2026-01-22 11:34:48.78	151.23	27.89	-42.2	-45.4	18.6	6.08e-01	0	59	0	314048512	55	5348
2026-01-22 11:34:52.81	150.99	28.72	-42.0	-45.0	19.0	6.06e-01	0	59	0	321388544	55	5140
2026-01-22 11:34:56.85	150.74	29.58	-42.0	-45.1	18.9	6.07e-01	0	59	0	329252864	55	5190
2026-01-22 11:35:00.89	150.48	30.46	-41.9	-44.8	19.2	6.05e-01	0	59	0	336592896	55	5040
2026-01-22 11:35:04.93	150.19	31.38	-42.2	-45.3	18.7	6.05e-01	0	59	0	344457216	55	5314
2026-01-22 11:35:08.97	149.89	32.33	-42.1	-45.1	18.9	6.07e-01	0	59	0	351797248	55	5213
2026-01-22 11:35:13.01	149.57	33.30	-42.3	-45.5	18.6	6.07e-01	0	59	0	359661568	55	5427
2026-01-22 11:35:17.04	149.23	34.31	-42.6	-45.9	18.1	6.05e-01	0	59	0	367001600	55	5702
2026-01-22 11:35:21.08	148.86	35.36	-42.5	-45.8	18.3	6.07e-01	0	59	0	374341632	55	5634
2026-01-22 11:35:25.12	148.47	36.44	-43.2	-47.0	17.1	6.06e-01	0	59	0	382205952	57	5780
2026-01-22 11:35:29.16	148.05	37.56	-43.3	-47.2	16.9	6.06e-01	0	60	0	389545984	57	5908
2026-01-22 11:35:33.20	147.60	38.73	-43.5	-47.5	16.7	6.07e-01	0	60	0	397410304	57	6076
2026-01-22 11:35:37.23	147.11	39.92	-43.7	-48.1	16.1	6.05e-01	0	60	0	404750336	58	6138
2026-01-22 11:35:41.27	146.59	41.17	-43.1	-46.7	17.4	6.06e-01	0	60	0	412614656	58	5277
2026-01-22 11:35:45.30	146.01	42.45	-43.0	-46.5	17.6	6.06e-01	0	60	0	419954688	57	5458
2026-01-22 11:35:49.34	145.39	43.78	-42.6	-46.0	18.2	6.07e-01	0	60	0	427294720	57	5123
2026-01-22 11:35:53.38	144.71	45.16	-42.5	-45.6	18.6	6.06e-01	0	60	0	435159040	56	5206
2026-01-22 11:35:57.42	143.97	46.58	-42.6	-45.8	18.4	6.07e-01	0	60	0	442499072	56	5310
2026-01-22 11:36:01.45	143.15	48.05	-42.7	-46.1	18.1	6.07e-01	0	60	0	450363392	56	5488
2026-01-22 11:36:05.49	142.25	49.57	-43.1	-46.8	17.5	6.08e-01	0	60	0	457703424	56	5943
2026-01-22 11:36:09.53	141.25	51.13	-42.7	-46.0	18.2	6.07e-01	0	60	0	465567744	56	5450
2026-01-22 11:36:13.57	140.13	52.74	-42.3	-45.3	18.9	6.06e-01	0	60	0	472907776	56	5010
2026-01-22 11:36:17.60	138.89	54.39	-41.9	-44.7	19.4	6.05e-01	0	60	0	480772096	55	4967
2026-01-22 11:36:21.65	137.48	56.08	-42.6	-45.9	18.2	6.05e-01	0	60	0	488112128	55	5680
2026-01-22 11:36:25.68	135.89	57.81	-42.9	-46.4	17.8	6.07e-01	0	60	0	495452160	56	5663
2026-01-22 11:36:29.72	134.07	59.57	-43.1	-46.8	17.4	6.09e-01	0	60	0	503316480	57	5600
2026-01-22 11:36:33.76	131.99	61.35	-43.2	-47.0	17.2	6.06e-01	0	60	0	510656512	57	5723
2026-01-22 11:36:37.80	129.58	63.14	-43.6	-47.7	16.5	6.05e-01	0	60	0	518520832	57	6222
2026-01-22 11:36:41.84	126.77	64.93	-44.0	-48.6	15.6	6.08e-01	0	60	0	525860864	58	6553
2026-01-22 11:36:45.87	123.49	66.69	-44.6	-49.9	14.2	6.09e-01	0	60	0	533725184	59	7164
2026-01-22 11:36:49.92	119.60	68.42	-44.5	-50.2	13.5	6.05e-01	0	60	0	541065216	60	6980
2026-01-22 11:36:53.95	115.00	70.07	-44.3	-49.2	14.9	6.07e-01	0	60	0	548929536	59	6613
2026-01-22 11:36:57.99	109.54	71.60	-44.3	-49.3	14.7	6.06e-01	0	60	0	556269568	59	6708
2026-01-22 11:37:02.02	103.09	72.96	-43.9	-48.4	15.6	6.07e-01	0	60	0	563609600	59	6011
2026-01-22 11:37:06.06	95.56	74.09	-44.3	-49.4	14.5	6.07e-01	0	60	0	571473920	59	6795
2026-01-22 11:37:10.10	86.97	74.94	-44.3	-49.3	14.7	6.06e-01	0	60	0	578813952	59	6723
2026-01-22 11:37:14.14	77.57	75.42	-43.9	-48.2	15.8	6.07e-01	0	60	0	586678272	59	5922
2026-01-22 11:37:18.17	67.80	75.50	-44.3	-49.3	14.8	6.07e-01	0	60	0	594018304	59	6660
2026-01-22 11:37:22.21	58.18	75.18	-44.0	-48.6	15.3	6.08e-01	0	60	0	601882624	59	6184
2026-01-22 11:37:26.25	49.22	74.49	-44.1	-48.8	15.2	6.08e-01	0	60	0	609222656	59	6291
2026-01-22 11:37:30.29	41.23	73.47	-44.4	-49.5	14.6	6.07e-01	0	60	0	616562688	59	6834
2026-01-22 11:37:34.33	34.33	72.19	-44.4	-49.9	13.9	6.08e-01	0	60	0	624427008	60	6757
2026-01-22 11:37:38.36	28.49	70.73	-44.5	-50.2	13.5	6.09e-01	0	60	0	631767040	60	6990
2026-01-22 11:37:42.40	23.55	69.13	-45.1	-52.0	11.8	6.13e-01	0	60	0	639631360	60	8599
2026-01-22 11:37:46.44	19.38	67.44	-45.0	-51.5	12.1	6.12e-01	0	60	0	646971392	60	8165
2026-01-22 11:37:50.48	15.86	65.69	-44.3	-49.5	14.3	6.08e-01	0	60	0	654835712	60	6452
2026-01-22 11:37:54.51	12.87	63.91	-44.0	-48.5	15.7	6.05e-01	0	60	0	662175744	59	6071
2026-01-22 11:37:58.55	10.31	62.13	-43.4	-47.6	16.1	6.08e-01	0	60	0	669515776	57	6136
2026-01-22 11:38:02.59	8.10	60.34	-43.5	-47.5	15.9	6.06e-01	0	60	0	677380096	57	6093
2026-01-22 11:38:06.62	6.18	58.58	-43.1	-46.7	17.5	6.06e-01	0	60	0	684720128	56	5904
2026-01-22 11:38:10.66	4.50	56.85	-42.5	-45.7	18.4	6.06e-01	0	61	0	692584448	55	5585
2026-01-22 11:38:14.70	3.02	55.15	-41.6	-44.4	19.7	6.06e-01	0	60	0	699924480	54	5060
2026-01-22 11:38:18.73	1.72	53.49	-41.9	-44.8	19.2	6.06e-01	0	61	0	707788800	54	5335
2026-01-22 11:38:22.77	0.55	51.86	-41.8	-44.6	19.5	6.06e-01	0	60	0	715128832	54	5180
2026-01-22 11:38:26.81	359.50	50.29	-42.1	-45.2	18.8	6.06e-01	0	61	0	722993152	55	5264
2026-01-22 11:38:30.84	358.56	48.76	-42.5	-45.8	18.2	6.07e-01	0	60	0	730333184	55	5618
2026-01-22 11:38:34.89	357.71	47.27	-42.4	-45.6	18.5	6.08e-01	0	61	0	737673216	55	5482
2026-01-22 11:38:38.92	356.94	45.84	-42.3	-45.4	18.6	6.08e-01	0	60	0	745537536	55	5395
2026-01-22 11:38:42.97	356.23	44.44	-42.4	-45.6	18.4	6.06e-01	0	61	0	752877568	55	5524
2026-01-22 11:38:47.00	355.59	43.10	-42.3	-45.6	18.3	6.06e-01	0	60	0	760741888	55	5528
2026-01-22 11:38:51.04	355.00	41.80	-43.2	-47.1	17.1	6.06e-01	0	61	0	768081920	57	5796
2026-01-22 11:38:55.08	354.46	40.54	-43.4	-47.3	16.9	6.05e-01	0	60	0	775946240	57	5947
2026-01-22 11:38:59.12	353.95	39.33	-43.4	-47.6	16.4	6.07e-01	0	60	0	783286272	57	6186
2026-01-22 11:39:03.16	353.49	38.15	-43.6	-47.8	16.4	6.05e-01	0	61	0	791150592	57	6277
2026-01-22 11:39:07.20	353.06	37.02	-43.2	-47.0	17.1	6.06e-01	0	60	0	798490624	57	5750
2026-01-22 11:39:11.23	352.66	35.93	-43.0	-46.6	17.4	6.07e-01	0	61	0	805830656	57	5527
2026-01-22 11:39:15.27	352.28	34.87	-42.6	-46.0	18.2	6.05e-01	0	61	0	813694976	57	5101
2026-01-22 11:39:19.31	351.93	33.85	-42.3	-45.5	18.6	6.05e-01	0	61	0	821035008	56	5109
2026-01-22 11:39:23.35	351.60	32.86	-42.2	-45.4	18.6	6.07e-01	0	61	0	828899328	56	5075
2026-01-22 11:39:27.39	351.30	31.90	-42.1	-45.1	18.9	6.08e-01	0	60	0	836239360	56	4901
2026-01-22 11:39:31.42	351.01	30.98	-41.8	-44.8	19.1	6.05e-01	0	60	0	844103680	55	4992
2026-01-22 11:39:35.46	350.74	30.08	-41.6	-44.5	19.3	6.03e-01	0	61	0	851443712	55	4866
2026-01-22 11:39:39.50	350.48	29.22	-41.8	-44.7	19.1	6.09e-01	0	61	0	858783744	55	4977
2026-01-22 11:39:43.53	350.24	28.38	-41.9	-45.1	18.7	6.06e-01	0	61	0	866648064	55	5163
2026-01-22 11:39:47.57	350.01	27.56	-42.2	-45.5	18.2	6.06e-01	0	60	0	873988096	55	5445
2026-01-22 11:39:51.61	349.80	26.78	-42.2	-45.5	18.1	6.07e-01	0	61	0	881852416	55	5438
2026-01-22 11:39:55.65	349.59	26.01	-42.2	-45.7	17.9	6.07e-01	0	60	0	889192448	55	5541
2026-01-22 11:39:59.69	349.40	25.27	-42.2	-45.7	17.6	6.06e-01	0	61	0	897056768	55	5590
2026-01-22 11:40:03.73	349.22	24.55	-42.1	-45.7	17.6	6.05e-01	0	61	0	904396800	55	5544
2026-01-22 11:40:07.76	349.04	23.85	-42.1	-45.8	17.3	6.06e-01	0	61	0	912261120	55	5652
2026-01-22 11:40:11.80	348.88	23.17	-41.9	-45.8	17.1	6.05e-01	0	61	0	919601152	55	5609
2026-01-22 11:40:15.84	348.72	22.50	-41.8	-45.8	16.7	6.05e-01	0	60	0	926941184	55	5613
2026-01-22 11:40:19.87	348.57	21.86	-41.7	-46.4	15.6	6.06e-01	0	61	0	934805504	55	5994
2026-01-22 11:40:23.91	348.42	21.23	-42.5	-49.7	11.7	6.16e-01	0	61	0	942145536	55	8832
2026-01-22 11:40:27.95	348.29	20.62	-42.8	-56.5	5.0	7.10e-01	0	61	0	948436992	56	18212
2026-01-22 11:40:31.99	348.15	20.03	-42.5	-61.0	3.8	7.49e-01	0	61	104	948436992	56	30381
2026-01-22 11:40:36.02	348.03	19.45	-42.4	-61.0	3.8	7.42e-01	0	61	104	948436992	56	30588
2026-01-22 11:40:40.06	347.91	18.88	-42.3	-61.0	3.8	7.46e-01	0	61	104	948436992	56	30610
2026-01-22 11:40:44.10	347.80	18.33	-42.3	-61.2	3.8	7.43e-01	0	61	104	948436992	56	31292
2026-01-22 11:40:48.13	347.69	17.80	-42.6	-61.4	3.8	7.44e-01	0	61	104	948436992	56	32039
2026-01-22 11:40:52.17	347.58	17.27	-42.7	-61.5	3.8	7.40e-01	0	61	104	948436992	56	32470
2026-01-22 11:40:56.21	347.48	16.76	-42.7	-61.5	3.8	7.43e-01	0	61	104	948436992	56	32476
2026-01-22 11:41:00.25	347.38	16.25	-42.7	-61.5	3.8	7.43e-01	0	61	104	948436992	56	32401
2026-01-22 11:41:04.29	347.29	15.76	-42.7	-61.5	3.8	7.43e-01	0	61	104	948436992	56	32442
2026-01-22 11:41:08.32	347.20	15.28	-42.7	-61.5	3.8	7.46e-01	0	61	104	948436992	56	32525
2026-01-22 11:41:12.36	347.12	14.81	-42.6	-61.5	3.8	7.46e-01	0	61	104	948436992	56	32260
2026-01-22 11:41:16.39	347.03	14.35	-42.5	-61.4	3.8	7.45e-01	0	61	104	948436992	56	32085
2026-01-22 11:41:20.43	346.95	13.90	-42.5	-61.4	3.8	7.46e-01	0	61	104	948436992	56	31997
2026-01-22 11:41:24.47	346.88	13.46	-42.4	-61.3	3.8	7.45e-01	0	61	104	948436992	56	31627
2026-01-22 11:41:28.49	346.81	13.03	-42.3	-61.2	3.8	7.48e-01	0	61	104	948436992	56	31298
2026-01-22 11:41:32.53	346.73	12.60	-42.2	-61.2	3.8	7.43e-01	0	61	104	948436992	56	31154
2026-01-22 11:41:36.57	346.67	12.19	-42.3	-61.2	3.8	7.47e-01	0	61	104	948436992	56	31206
2026-01-22 11:41:40.61	346.60	11.78	-42.2	-61.1	3.8	7.45e-01	0	61	104	948436992	56	31034
2026-01-22 11:41:44.65	346.54	11.38	-42.1	-61.1	3.8	7.45e-01	0	61	104	948436992	56	30769
2026-01-22 11:41:48.68	346.48	10.98	-42.1	-61.0	3.8	7.47e-01	0	61	104	948436992	56	30663
2026-01-22 11:41:52.72	346.42	10.59	-42.0	-61.0	3.8	7.43e-01	0	61	104	948436992	55	32352
2026-01-22 11:41:56.76	346.36	10.21	-42.0	-61.0	3.8	7.45e-01	0	61	104	948436992	55	32278
2026-01-22 11:42:00.79	346.31	9.84	-41.9	-60.9	3.8	7.46e-01	0	61	104	948436992	55	31975
2026-01-22 11:42:04.83	346.26	9.47	-41.9	-60.9	3.8	7.44e-01	0	61	104	948436992	55	31885
2026-01-22 11:42:08.87	346.21	9.11	-41.9	-60.9	3.8	7.47e-01	0	61	104	948436992	55	31827
2026-01-22 11:42:12.91	346.16	8.75	-41.9	-60.9	3.8	7.44e-01	0	61	104	948436992	55	31850
2026-01-22 11:42:16.95	346.11	8.40	-41.8	-60.8	3.8	7.45e-01	0	61	104	948436992	55	31486
2026-01-22 11:42:20.99	346.06	8.06	-41.8	-60.7	3.8	7.47e-01	0	61	104	948436992	55	31284
2026-01-22 11:42:25.02	346.02	7.72	-45.5	-64.1	3.8	7.46e-01	0	61	104	948436992	61	32805
2026-01-22 11:42:29.06	345.98	7.38	-46.3	-64.9	3.8	7.46e-01	0	61	104	948436992	63	31871
2026-01-22 11:42:33.11	345.94	7.05	-46.0	-64.7	3.8	7.46e-01	0	61	104	948436992	63	31321
2026-01-22 11:42:37.15	345.90	6.72	-46.3	-64.8	3.8	7.47e-01	0	61	104	948436992	63	31635
2026-01-22 11:42:41.19	345.86	6.40	-46.2	-64.7	3.8	7.45e-01	0	61	104	948436992	63	31270
2026-01-22 11:42:45.23	345.82	6.08	-46.2	-64.7	3.8	7.46e-01	0	61	104	948436992	63	31298
2026-01-22 11:42:49.27	345.79	5.77	-46.0	-64.7	3.8	7.43e-01	0	62	104	948436992	62	33149
2026-01-22 11:42:53.31	345.75	5.46	-46.1	-64.7	3.8	7.44e-01	0	61	104	948436992	62	33194
2026-01-22 11:42:57.35	345.72	5.16	-46.2	-64.7	3.8	7.47e-01	0	61	104	948436992	62	33215
2026-01-22 11:43:01.40	345.69	4.86	-46.2	-64.7	3.8	7.47e-01	0	61	104	948436992	62	33137
2026-01-22 11:43:05.44	345.66	4.56	-46.2	-64.7	3.8	7.46e-01	0	61	104	948436992	62	33084
2026-01-22 11:43:09.48	345.62	4.26	-46.2	-64.7	3.8	7.45e-01	0	61	104	948436992	62	33158
2026-01-22 11:43:13.52	345.60	3.97	-46.2	-64.7	3.8	7.47e-01	0	61	104	948436992	62	33051
2026-01-22 11:43:17.56	345.57	3.69	-46.1	-64.7	3.8	7.46e-01	0	61	104	948436992	62	33089
2026-01-22 11:43:21.60	345.54	3.40	-46.1	-64.7	3.8	7.43e-01	0	61	104	948436992	62	32949
2026-01-22 11:43:25.64	345.51	3.12	-46.1	-64.7	3.8	7.48e-01	0	61	104	948436992	62	33082
2026-01-22 11:43:29.68	345.49	2.85	-46.1	-64.7	3.8	7.48e-01	0	61	104	948436992	62	32996
2026-01-22 11:43:33.73	345.47	2.57	-45.8	-64.6	3.8	7.46e-01	0	62	104	948436992	62	32831
2026-01-22 11:43:37.77	345.44	2.30	-46.1	-64.7	3.8	7.45e-01	0	61	104	948436992	62	32962
2026-01-22 11:43:41.81	345.42	2.03	-46.1	-64.7	3.8	7.45e-01	0	62	104	948436992	62	32938

#Closed at: 2026-01-22 11:43:45
#Recorded file [948 MB]: D:/lorett/data/31039_260122_143054.dat