passes_logs/2026/01/22/R2.0S_Moscow/R2.0S_Moscow__20260122_224426_SUOMI_NPP_rec.log

#Pass ID: 20260122_224426_SUOMI NPP
#Satellite: SUOMI NPP
#Configuration: NPP
#almurnet v.1.7.20251203
#Start time: 2026-01-22 22:44:25

#Version: 2.2.20231116
#Station: R2.0S_Moscow
#Location: 37.707566 lon 55.798166 lat
#TLE: 1 37849U 11061A   26022.50498765  .00000208  00000+0  11976-3 0  9992
#TLE: 2 37849  98.7820 324.4892 0002275  50.8149 309.3229 14.19528284737775

#Time	Az	El	Level	Level2	SNR	BER	BlckErr	Temp	State	Recorded	gain1	gain2
2026-01-22 22:44:25.67	21.61	1.98	-42.8	-57.3	3.8	1.49e+00	0	51	0	0	57	18912
2026-01-22 22:44:29.71	21.81	2.22	-42.8	-57.3	3.8	1.49e+00	0	52	104	0	57	18831
2026-01-22 22:44:33.74	22.01	2.46	-42.8	-57.3	3.8	1.49e+00	0	52	104	0	57	18853
2026-01-22 22:44:37.78	22.22	2.70	-42.8	-57.3	3.8	1.49e+00	0	52	104	0	57	18810
2026-01-22 22:44:41.82	22.42	2.95	-42.8	-57.3	3.8	1.49e+00	0	52	104	0	57	18877
2026-01-22 22:44:45.86	22.64	3.20	-42.8	-57.3	3.8	1.49e+00	0	53	104	0	57	18760
2026-01-22 22:44:49.91	22.85	3.45	-42.8	-57.3	3.8	1.49e+00	0	53	104	0	57	18834
2026-01-22 22:44:53.95	23.07	3.70	-42.8	-57.3	3.8	1.49e+00	0	53	104	0	57	18791
2026-01-22 22:44:57.99	23.29	3.96	-42.8	-57.3	3.8	1.49e+00	0	53	104	0	57	18858
2026-01-22 22:45:02.03	23.52	4.21	-42.8	-57.3	3.8	1.49e+00	0	54	104	0	57	18888
2026-01-22 22:45:06.08	23.75	4.47	-42.8	-57.3	3.8	1.49e+00	0	54	104	0	57	18819
2026-01-22 22:45:10.12	23.98	4.73	-42.8	-57.3	3.8	1.49e+00	0	54	104	0	57	18789
2026-01-22 22:45:14.16	24.22	5.00	-42.8	-57.3	3.8	1.49e+00	0	54	104	0	57	18803
2026-01-22 22:45:18.20	24.46	5.26	-42.8	-57.3	3.8	1.49e+00	0	55	104	0	57	18843
2026-01-22 22:45:22.25	24.71	5.53	-42.8	-57.3	3.8	1.49e+00	0	55	104	0	57	18823
2026-01-22 22:45:26.29	24.96	5.80	-42.8	-57.3	3.8	1.49e+00	0	55	104	0	57	18777
2026-01-22 22:45:30.33	25.21	6.07	-42.8	-57.3	3.8	1.49e+00	0	55	104	0	57	18820
2026-01-22 22:45:34.37	25.47	6.35	-42.8	-57.3	3.8	1.49e+00	0	55	104	0	57	18796
2026-01-22 22:45:38.41	25.73	6.62	-42.8	-57.3	3.8	1.49e+00	0	55	104	0	57	18809
2026-01-22 22:45:42.45	26.00	6.90	-42.8	-57.3	3.8	1.49e+00	0	56	104	0	57	18813
2026-01-22 22:45:46.49	26.27	7.19	-42.8	-56.9	3.8	1.49e+00	0	56	104	0	57	18074
2026-01-22 22:45:50.53	26.55	7.47	-42.7	-55.4	3.8	1.49e+00	0	56	104	0	57	15105
2026-01-22 22:45:54.57	26.83	7.76	-42.0	-49.9	6.2	3.24e-01	0	56	0	4194304	56	8555
2026-01-22 22:45:58.61	27.12	8.05	-41.8	-48.4	7.7	7.15e-02	0	56	0	11534336	54	8007
2026-01-22 22:46:02.65	27.41	8.34	-42.0	-48.2	8.4	1.49e+00	0	57	0	15728640	55	7410
2026-01-22 22:46:06.69	27.71	8.64	-42.2	-48.3	8.5	7.09e-02	0	57	0	23068672	56	7055
2026-01-22 22:46:10.73	28.01	8.94	-42.0	-47.4	9.5	1.65e-02	0	57	0	30408704	56	6354
2026-01-22 22:46:14.77	28.32	9.24	-42.1	-47.4	9.7	1.27e-02	0	57	0	37748736	56	6360
2026-01-22 22:46:18.80	28.64	9.55	-41.8	-46.7	10.2	7.42e-03	0	57	0	45088768	55	6242
2026-01-22 22:46:22.84	28.96	9.85	-41.8	-46.7	10.2	6.06e-03	0	57	0	53477376	55	6270
2026-01-22 22:46:26.88	29.29	10.16	-41.9	-46.6	10.5	3.64e-03	0	57	0	60817408	55	6189
2026-01-22 22:46:30.91	29.63	10.48	-41.8	-46.4	10.8	2.14e-03	0	57	0	68157440	55	6030
2026-01-22 22:46:34.95	29.97	10.80	-41.6	-45.9	11.4	9.80e-04	0	58	0	75497472	55	5719
2026-01-22 22:46:38.99	30.32	11.12	-41.5	-45.6	11.7	5.51e-04	0	57	0	82837504	55	5525
2026-01-22 22:46:43.03	30.68	11.44	-41.6	-45.7	11.7	5.87e-04	0	57	0	91226112	54	5913
2026-01-22 22:46:47.06	31.04	11.77	-41.7	-46.0	11.5	7.03e-04	0	58	0	98566144	54	6094
2026-01-22 22:46:51.10	31.42	12.10	-41.9	-46.2	11.2	1.14e-03	0	58	0	105906176	54	6265
2026-01-22 22:46:55.14	31.80	12.43	-41.9	-46.2	11.3	1.03e-03	0	58	0	113246208	54	6269
2026-01-22 22:46:59.18	32.19	12.77	-41.8	-46.1	11.5	7.64e-04	0	58	0	121634816	54	6136
2026-01-22 22:47:03.22	32.58	13.11	-41.6	-45.6	12.0	2.65e-04	0	58	0	128974848	54	5825
2026-01-22 22:47:07.25	32.99	13.46	-41.5	-45.4	12.3	1.91e-04	0	58	0	136314880	54	5674
2026-01-22 22:47:11.29	33.41	13.81	-41.6	-45.4	12.3	1.27e-04	0	58	0	143654912	54	5714
2026-01-22 22:47:15.33	33.83	14.16	-41.5	-45.2	12.5	1.35e-04	0	58	0	150994944	54	5565
2026-01-22 22:47:19.37	34.27	14.52	-41.7	-45.7	12.0	2.24e-04	0	59	0	159383552	54	5911
2026-01-22 22:47:23.41	34.71	14.88	-42.0	-46.3	11.4	8.02e-04	0	58	0	166723584	54	6327
2026-01-22 22:47:27.44	35.17	15.24	-42.0	-46.2	11.5	7.59e-04	0	59	0	174063616	54	6250
2026-01-22 22:47:31.48	35.64	15.61	-41.9	-46.0	11.9	4.39e-04	0	58	0	181403648	54	6070
2026-01-22 22:47:35.52	36.12	15.98	-42.0	-46.1	11.7	4.69e-04	0	59	0	189792256	54	6193
2026-01-22 22:47:39.56	36.61	16.36	-42.1	-46.4	11.5	1.00e-03	0	59	0	197132288	54	6386
2026-01-22 22:47:43.60	37.11	16.74	-42.1	-46.3	11.5	9.35e-04	0	59	0	204472320	55	5975
2026-01-22 22:47:47.63	37.62	17.12	-42.1	-46.3	11.6	8.60e-04	0	59	0	211812352	55	5985
2026-01-22 22:47:51.67	38.15	17.51	-42.1	-46.3	11.7	7.02e-04	0	59	0	219152384	55	5946
2026-01-22 22:47:55.71	38.69	17.90	-42.2	-46.4	11.5	7.04e-04	0	59	0	227540992	55	6037
2026-01-22 22:47:59.74	39.24	18.29	-42.3	-46.7	11.3	9.70e-04	0	59	0	234881024	55	6210
2026-01-22 22:48:03.78	39.81	18.69	-42.4	-47.0	11.0	1.75e-03	0	59	0	242221056	55	6422
2026-01-22 22:48:07.82	40.40	19.09	-42.4	-47.0	11.0	1.65e-03	0	59	0	249561088	55	6439
2026-01-22 22:48:11.86	41.00	19.50	-42.5	-47.2	10.7	2.40e-03	0	59	0	257949696	55	6632
2026-01-22 22:48:15.89	41.61	19.91	-42.3	-46.7	11.3	1.38e-03	0	59	0	265289728	55	6211
2026-01-22 22:48:19.93	42.24	20.32	-42.0	-46.0	12.0	2.84e-04	0	59	0	272629760	55	5753
2026-01-22 22:48:23.97	42.89	20.74	-42.1	-46.1	12.0	2.82e-04	0	59	0	279969792	55	5819
2026-01-22 22:48:28.01	43.55	21.16	-41.9	-45.7	12.4	1.81e-04	0	59	0	287309824	55	5559
2026-01-22 22:48:32.05	44.24	21.59	-41.4	-44.7	13.4	1.29e-05	0	59	0	295698432	54	5232
2026-01-22 22:48:36.09	44.94	22.01	-41.2	-44.4	13.8	6.10e-06	0	59	0	303038464	54	5049
2026-01-22 22:48:40.13	45.66	22.44	-41.3	-44.6	13.5	1.06e-05	0	59	0	310378496	54	5194
2026-01-22 22:48:44.17	46.40	22.88	-41.4	-44.8	13.3	1.67e-05	0	59	0	317718528	54	5330
2026-01-22 22:48:48.20	47.16	23.31	-41.4	-44.8	13.4	9.90e-06	0	59	0	326107136	54	5308
2026-01-22 22:48:52.24	47.94	23.75	-41.4	-44.7	13.5	1.06e-05	0	60	0	333447168	54	5261
2026-01-22 22:48:56.28	48.74	24.19	-41.2	-44.3	13.8	6.80e-06	0	59	0	340787200	54	5034
2026-01-22 22:49:00.32	49.57	24.63	-41.2	-44.4	13.8	6.10e-06	0	60	0	348127232	54	5070
2026-01-22 22:49:04.35	50.41	25.07	-41.6	-45.1	13.1	1.83e-05	0	60	0	355467264	54	5473
2026-01-22 22:49:08.39	51.29	25.51	-41.6	-45.0	13.3	1.37e-05	0	60	0	363855872	54	5408
2026-01-22 22:49:12.43	52.18	25.96	-41.5	-44.8	13.5	9.10e-06	0	59	0	371195904	54	5294
2026-01-22 22:49:16.47	53.11	26.40	-41.6	-45.1	13.1	1.22e-05	0	60	0	378535936	54	5480
2026-01-22 22:49:20.50	54.05	26.84	-41.7	-45.1	13.2	3.35e-05	0	60	0	385875968	54	5506
2026-01-22 22:49:24.54	55.02	27.28	-41.9	-45.6	12.6	5.64e-05	0	60	0	394264576	54	5816
2026-01-22 22:49:28.58	56.02	27.72	-42.3	-46.4	11.9	3.17e-04	0	60	0	401604608	55	6009
2026-01-22 22:49:32.61	57.05	28.16	-42.6	-46.9	11.4	8.03e-04	0	60	0	408944640	55	6367
2026-01-22 22:49:36.65	58.10	28.59	-42.5	-46.8	11.4	6.87e-04	0	60	0	416284672	55	6280
2026-01-22 22:49:40.69	59.19	29.02	-43.3	-48.4	9.9	6.23e-03	0	60	0	423624704	57	6778
2026-01-22 22:49:44.72	60.30	29.45	-43.5	-49.0	9.3	1.93e-02	0	60	0	432013312	57	7280
2026-01-22 22:49:48.76	61.44	29.87	-43.4	-48.8	9.5	1.36e-02	0	60	0	439353344	57	7076
2026-01-22 22:49:52.80	62.61	30.28	-43.7	-49.6	8.7	2.60e-02	0	60	0	446693376	57	7797
2026-01-22 22:49:56.84	63.81	30.69	-44.0	-50.8	7.6	8.91e-02	0	60	0	454033408	58	8387
2026-01-22 22:50:00.87	65.04	31.09	-43.8	-50.0	8.4	4.34e-02	0	60	0	462422016	58	7666
2026-01-22 22:50:04.91	66.30	31.47	-44.0	-50.4	7.9	6.95e-02	0	60	0	469762048	58	8073
2026-01-22 22:50:08.95	67.59	31.85	-43.7	-49.4	9.1	3.49e-02	0	60	0	477102080	58	7145
2026-01-22 22:50:12.99	68.91	32.22	-43.1	-47.8	10.7	3.78e-03	0	60	0	484442112	58	5939
2026-01-22 22:50:17.02	70.25	32.58	-44.0	-50.5	7.8	7.34e-02	0	60	0	491782144	58	8171
2026-01-22 22:50:21.06	71.63	32.92	-43.4	-48.5	9.9	8.46e-03	0	60	0	500170752	58	6453
2026-01-22 22:50:25.10	73.04	33.25	-44.0	-50.3	8.2	4.96e-02	0	60	0	507510784	58	7907
2026-01-22 22:50:29.14	74.47	33.56	-44.0	-50.4	8.0	5.64e-02	0	60	0	514850816	58	7992
2026-01-22 22:50:33.17	75.93	33.85	-44.1	-50.8	7.6	8.45e-02	0	60	0	522190848	58	8407
2026-01-22 22:50:37.21	77.42	34.13	-44.4	-52.2	6.3	2.73e-01	0	60	0	530579456	59	9294
2026-01-22 22:50:41.25	78.93	34.38	-44.7	-54.3	4.3	1.21e+00	0	60	104	536870912	60	11241
2026-01-22 22:50:45.29	80.46	34.62	-43.8	-49.6	8.9	4.97e-02	0	60	0	541065216	59	6918
2026-01-22 22:50:49.33	82.02	34.84	-44.0	-50.5	7.8	8.58e-02	0	60	0	548405248	59	7710
2026-01-22 22:50:53.37	83.60	35.03	-43.7	-49.4	9.0	1.94e-02	0	60	0	555745280	59	6778
2026-01-22 22:50:57.41	85.19	35.20	-43.9	-49.9	8.5	4.06e-02	0	60	0	564133888	59	7145
2026-01-22 22:51:01.45	86.80	35.35	-43.8	-49.6	8.8	2.06e-02	0	60	0	571473920	59	6929
2026-01-22 22:51:05.49	88.42	35.47	-44.1	-50.7	7.8	8.92e-02	0	60	0	578813952	59	7820
2026-01-22 22:51:09.53	90.05	35.57	-44.3	-51.7	6.8	1.25e-01	0	60	0	586153984	59	8838
2026-01-22 22:51:13.57	91.69	35.64	-44.0	-50.3	8.2	3.96e-02	0	60	0	593494016	59	7460
2026-01-22 22:51:17.61	93.34	35.69	-44.3	-51.5	7.0	1.44e-01	0	60	0	601882624	59	8655
2026-01-22 22:51:21.65	94.99	35.71	-43.7	-49.3	9.2	2.48e-02	0	60	0	609222656	59	6650
2026-01-22 22:51:25.69	96.64	35.70	-43.4	-48.5	10.0	5.39e-03	0	60	0	616562688	58	6489
2026-01-22 22:51:29.73	98.29	35.67	-44.5	-52.8	6.0	2.74e-01	0	60	0	623902720	59	10048
2026-01-22 22:51:33.77	99.94	35.61	-43.8	-49.8	8.7	3.80e-02	0	60	0	631242752	59	7099
2026-01-22 22:51:37.80	101.57	35.53	-43.6	-49.2	9.4	2.80e-02	0	60	0	639631360	59	6573
2026-01-22 22:51:41.84	103.20	35.42	-44.3	-52.0	6.4	2.28e-01	0	60	0	646971392	59	9141
2026-01-22 22:51:45.88	104.82	35.29	-43.9	-50.1	8.2	4.24e-02	0	60	0	654311424	59	7348
2026-01-22 22:51:49.91	106.42	35.13	-44.0	-50.3	8.1	7.07e-02	0	60	0	661651456	59	7500
2026-01-22 22:51:53.95	108.01	34.95	-44.3	-51.7	6.7	2.62e-01	0	60	0	670040064	59	8857
2026-01-22 22:51:57.99	109.58	34.74	-45.2	-59.9	3.8	5.98e-01	0	61	104	676331520	60	21496
2026-01-22 22:52:02.03	111.13	34.52	-44.3	-52.2	6.4	2.55e-01	0	61	0	679477248	60	8850
2026-01-22 22:52:06.07	112.65	34.27	-43.5	-48.8	9.6	1.72e-02	0	60	0	687865856	59	6344
2026-01-22 22:52:10.11	114.16	34.00	-43.2	-48.0	10.4	6.40e-03	0	60	0	695205888	58	6112
2026-01-22 22:52:14.15	115.64	33.72	-43.9	-50.0	8.4	3.35e-02	0	61	0	702545920	58	7716
2026-01-22 22:52:18.19	117.09	33.41	-43.6	-49.0	9.4	1.27e-02	0	61	0	709885952	58	6827
2026-01-22 22:52:22.22	118.51	33.10	-43.5	-48.7	9.7	1.45e-02	0	61	0	717225984	58	6628
2026-01-22 22:52:26.26	119.91	32.76	-43.4	-48.6	10.0	4.72e-03	0	61	0	725614592	58	6506
2026-01-22 22:52:30.30	121.28	32.41	-43.6	-49.0	9.5	6.00e-03	0	61	0	732954624	58	6827
2026-01-22 22:52:34.34	122.62	32.05	-43.6	-49.1	9.4	2.84e-02	0	61	0	740294656	59	6510
2026-01-22 22:52:38.38	123.93	31.67	-42.7	-46.8	11.7	2.51e-04	0	61	0	747634688	56	5977
2026-01-22 22:52:42.41	125.21	31.29	-41.8	-45.2	13.3	2.05e-05	0	60	0	756023296	55	5221
2026-01-22 22:52:46.45	126.46	30.89	-42.5	-46.6	11.8	4.03e-04	0	61	0	763363328	55	6192
2026-01-22 22:52:50.49	127.68	30.49	-41.9	-45.4	13.1	1.60e-05	0	61	0	770703360	54	5668
2026-01-22 22:52:54.53	128.87	30.08	-42.1	-45.7	12.8	2.80e-04	0	61	0	778043392	56	5279
2026-01-22 22:52:58.56	130.03	29.66	-43.0	-47.6	11.0	5.48e-04	0	61	0	785383424	56	6530
2026-01-22 22:53:02.60	131.16	29.23	-41.8	-45.3	13.2	1.14e-05	0	61	0	793772032	55	5287
2026-01-22 22:53:06.63	132.26	28.80	-43.1	-47.8	10.7	3.28e-03	0	61	0	801112064	56	6669
2026-01-22 22:53:10.67	133.34	28.37	-42.3	-46.0	12.6	1.14e-04	0	61	0	808452096	56	5431
2026-01-22 22:53:14.71	134.38	27.93	-41.6	-45.0	13.4	1.90e-05	0	60	0	815792128	55	5115
2026-01-22 22:53:18.75	135.40	27.49	-42.2	-46.0	12.4	4.80e-05	0	61	0	823132160	54	6105
2026-01-22 22:53:22.78	136.39	27.04	-42.3	-46.1	12.4	1.80e-04	0	61	0	831520768	56	5507
2026-01-22 22:53:26.82	137.35	26.60	-42.3	-46.2	12.3	1.20e-04	0	60	0	838860800	56	5559
2026-01-22 22:53:30.86	138.29	26.15	-40.8	-43.6	14.8	0.00e+00	0	61	0	846200832	53	4871
2026-01-22 22:53:34.90	139.21	25.71	-41.7	-45.1	13.3	5.30e-06	0	61	0	853540864	53	5797
2026-01-22 22:53:38.94	140.09	25.26	-41.4	-44.7	13.7	6.80e-06	0	61	0	861929472	54	5232
2026-01-22 22:53:42.98	140.96	24.82	-42.0	-45.6	12.7	8.23e-05	0	61	0	869269504	54	5852
2026-01-22 22:53:47.02	141.80	24.37	-41.1	-44.1	14.2	9.10e-06	0	61	0	876609536	54	4883
2026-01-22 22:53:51.05	142.61	23.93	-40.8	-43.6	14.7	0.00e+00	0	61	0	883949568	53	4891
2026-01-22 22:53:55.09	143.41	23.49	-41.3	-44.5	13.8	6.80e-06	0	61	0	891289600	53	5441
2026-01-22 22:53:59.12	144.18	23.05	-40.8	-43.7	14.6	7.00e-07	0	61	0	899678208	53	4933
2026-01-22 22:54:03.16	144.93	22.61	-41.1	-44.1	14.2	7.00e-07	0	61	0	907018240	53	5182
2026-01-22 22:54:07.20	145.67	22.18	-41.3	-44.5	13.8	1.06e-05	0	60	0	914358272	53	5403
2026-01-22 22:54:11.23	146.38	21.75	-41.1	-44.2	14.1	1.50e-06	0	61	0	921698304	53	5223
2026-01-22 22:54:15.27	147.07	21.32	-41.2	-44.4	13.9	3.00e-06	0	61	0	930086912	53	5358
2026-01-22 22:54:19.31	147.75	20.89	-41.4	-44.7	13.6	1.22e-05	0	61	0	937426944	53	5536
2026-01-22 22:54:23.35	148.40	20.47	-41.3	-44.6	13.7	3.80e-06	0	61	0	944766976	53	5469
2026-01-22 22:54:27.38	149.04	20.05	-41.3	-44.5	13.7	6.80e-06	0	61	0	952107008	53	5444
2026-01-22 22:54:31.42	149.67	19.64	-41.4	-44.8	13.5	1.37e-05	0	61	0	959447040	53	5604
2026-01-22 22:54:35.46	150.27	19.22	-42.1	-46.0	12.2	2.53e-04	0	61	0	967835648	54	6078
2026-01-22 22:54:39.50	150.87	18.82	-42.1	-46.0	12.2	2.60e-04	0	61	0	975175680	55	5778
2026-01-22 22:54:43.54	151.44	18.41	-42.5	-47.0	11.1	1.62e-03	0	61	0	982515712	55	6446
2026-01-22 22:54:47.58	152.00	18.01	-43.0	-48.0	10.2	4.97e-03	0	61	0	989855744	56	6877
2026-01-22 22:54:51.61	152.55	17.62	-42.4	-46.6	11.6	8.69e-04	0	61	0	998244352	56	5800
2026-01-22 22:54:55.65	153.09	17.22	-42.2	-46.2	12.1	2.70e-04	0	61	0	1005584384	56	5542
2026-01-22 22:54:59.69	153.61	16.84	-42.4	-46.6	11.6	7.46e-04	0	61	0	1012924416	56	5812
2026-01-22 22:55:03.73	154.12	16.45	-42.3	-46.5	11.7	6.95e-04	0	61	0	1020264448	56	5759
2026-01-22 22:55:07.77	154.61	16.07	-42.2	-46.2	12.0	3.27e-04	0	60	0	1027604480	56	5560
2026-01-22 22:55:11.80	155.09	15.69	-42.2	-46.2	11.9	3.79e-04	0	61	0	1035993088	56	5569
2026-01-22 22:55:15.84	155.57	15.32	-42.3	-46.4	11.8	4.38e-04	0	61	0	1043333120	56	5690
2026-01-22 22:55:19.87	156.03	14.95	-42.2	-46.3	11.9	5.00e-04	0	61	0	1050673152	56	5612
2026-01-22 22:55:23.92	156.48	14.59	-42.1	-46.1	12.0	2.99e-04	0	61	0	1058013184	56	5503
2026-01-22 22:55:27.95	156.92	14.23	-42.1	-46.1	12.0	3.55e-04	0	61	0	1066401792	56	5471
2026-01-22 22:55:31.99	157.35	13.87	-42.5	-47.0	11.0	1.02e-03	0	61	0	1073741824	56	6111
2026-01-22 22:55:36.03	157.77	13.52	-42.8	-47.8	10.1	5.92e-03	0	61	0	1081081856	56	6711
2026-01-22 22:55:40.07	158.18	13.17	-43.0	-48.5	9.4	1.32e-02	0	61	0	1088421888	56	7258
2026-01-22 22:55:44.11	158.58	12.82	-42.8	-47.8	10.1	7.22e-03	0	61	0	1095761920	56	6706
2026-01-22 22:55:48.15	158.97	12.48	-42.4	-47.0	10.9	2.28e-03	0	61	0	1104150528	56	6114
2026-01-22 22:55:52.18	159.35	12.14	-42.2	-46.6	11.3	1.19e-03	0	61	0	1111490560	56	5836
2026-01-22 22:55:56.22	159.73	11.81	-42.1	-46.5	11.4	1.04e-03	0	61	0	1118830592	56	5724
2026-01-22 22:56:00.26	160.10	11.47	-42.3	-46.8	11.0	1.21e-03	0	61	0	1126170624	56	5969
2026-01-22 22:56:04.30	160.45	11.14	-42.2	-46.8	11.0	2.23e-03	0	61	0	1133510656	56	5946
2026-01-22 22:56:08.34	160.81	10.82	-42.3	-46.9	10.8	1.64e-03	0	61	0	1141899264	56	6060
2026-01-22 22:56:12.37	161.15	10.50	-42.4	-47.1	10.6	3.23e-03	0	61	0	1149239296	56	6173
2026-01-22 22:56:16.41	161.49	10.18	-42.5	-47.5	10.1	5.13e-03	0	61	0	1156579328	56	6456
2026-01-22 22:56:20.44	161.82	9.87	-42.5	-47.7	9.8	8.95e-03	0	61	0	1163919360	56	6643
2026-01-22 22:56:24.48	162.14	9.55	-42.5	-47.8	9.7	8.50e-03	0	61	0	1172307968	56	6672
2026-01-22 22:56:28.52	162.46	9.25	-42.5	-47.9	9.5	1.20e-02	0	61	0	1179648000	56	6766
2026-01-22 22:56:32.56	162.77	8.94	-42.5	-48.0	9.4	1.77e-02	0	61	0	1186988032	56	6832
2026-01-22 22:56:36.60	163.07	8.64	-42.5	-48.0	9.2	2.02e-02	0	61	0	1194328064	56	6863
2026-01-22 22:56:40.64	163.37	8.34	-42.5	-48.2	9.0	2.37e-02	0	61	0	1201668096	56	6974
2026-01-22 22:56:44.68	163.66	8.04	-42.5	-48.3	8.9	3.17e-02	0	61	0	1210056704	56	7045
2026-01-22 22:56:48.72	163.95	7.75	-45.1	-59.8	3.8	1.49e+00	0	61	104	1211105280	60	21059
2026-01-22 22:56:52.76	164.23	7.46	-45.3	-60.0	3.8	1.49e+00	0	61	104	1211105280	61	20428
2026-01-22 22:56:56.80	164.51	7.17	-45.3	-59.9	3.8	1.49e+00	0	61	104	1211105280	61	20162
2026-01-22 22:57:00.84	164.78	6.88	-45.2	-59.8	3.8	1.49e+00	0	61	104	1211105280	61	19951
2026-01-22 22:57:04.88	165.05	6.60	-45.1	-59.7	3.8	1.49e+00	0	61	104	1211105280	61	19752
2026-01-22 22:57:08.93	165.31	6.32	-45.1	-59.7	3.8	1.49e+00	0	61	104	1211105280	61	19687
2026-01-22 22:57:12.97	165.57	6.04	-45.1	-59.7	3.8	1.49e+00	0	61	104	1211105280	61	19804
2026-01-22 22:57:17.01	165.82	5.76	-45.1	-59.7	3.8	1.49e+00	0	61	104	1211105280	61	19713
2026-01-22 22:57:21.05	166.07	5.49	-45.1	-59.7	3.8	1.49e+00	0	61	104	1211105280	61	19713
2026-01-22 22:57:25.09	166.31	5.22	-45.0	-59.6	3.8	1.49e+00	0	61	104	1211105280	61	19592
2026-01-22 22:57:29.13	166.55	4.95	-45.0	-59.6	3.8	1.49e+00	0	61	104	1211105280	61	19529
2026-01-22 22:57:33.17	166.78	4.69	-45.0	-59.6	3.8	1.49e+00	0	61	104	1211105280	61	19443
2026-01-22 22:57:37.21	167.01	4.42	-45.0	-59.5	3.8	1.49e+00	0	61	104	1211105280	61	19381
2026-01-22 22:57:41.25	167.24	4.16	-45.0	-59.6	3.8	1.49e+00	0	61	104	1211105280	61	19444
2026-01-22 22:57:45.29	167.46	3.90	-45.0	-59.6	3.8	1.49e+00	0	61	104	1211105280	61	19460
2026-01-22 22:57:49.33	167.68	3.64	-45.0	-59.6	3.8	1.49e+00	0	61	104	1211105280	61	19426
2026-01-22 22:57:53.37	167.90	3.39	-45.0	-59.5	3.8	1.49e+00	0	61	104	1211105280	61	19332
2026-01-22 22:57:57.41	168.11	3.14	-45.0	-59.5	3.8	1.49e+00	0	61	104	1211105280	61	19358
2026-01-22 22:58:01.45	168.32	2.89	-45.0	-59.5	3.8	1.49e+00	0	61	104	1211105280	61	19381
2026-01-22 22:58:05.49	168.53	2.64	-45.0	-59.5	3.8	1.49e+00	0	61	104	1211105280	61	19348
2026-01-22 22:58:09.53	168.73	2.39	-45.0	-59.6	3.8	1.49e+00	0	61	104	1211105280	61	19447
2026-01-22 22:58:13.58	168.93	2.14	-45.0	-59.5	3.8	1.49e+00	0	61	104	1211105280	61	19352

#Closed at: 2026-01-22 22:58:16
#Recorded file [1211 MB]: D:/lorett/data/31039_260123_014425.dat