passes_logs/2026/01/22/R2.0S_Moscow/R2.0S_Moscow__20260122_145552_FENGYUN_3E_rec.log

#Pass ID: 20260122_145552_FENGYUN 3E
#Satellite: FENGYUN 3E
#Configuration: FENGYUN 3E
#almurnet v.1.7.20251203
#Start time: 2026-01-22 14:55:53

#Version: 2.2.20231116
#Station: R2.0S_Moscow
#Location: 37.707566 lon 55.798166 lat
#TLE: 1 49008U 21062A   26021.55921410  .00000414  00000+0  21575-3 0  9991
#TLE: 2 49008  98.7483  26.6103 0002287 125.5068 234.6322 14.19887394235776

#Time	Az	El	Level	Level2	SNR	BER	BlckErr	Temp	State	Recorded	gain1	gain2
2026-01-22 14:55:53.39	182.12	2.05	-44.5	-55.6	3.8	8.46e-01	0	53	0	0	59	13003
2026-01-22 14:55:57.43	182.26	2.30	-44.5	-55.6	3.8	8.46e-01	0	53	104	0	59	12976
2026-01-22 14:56:01.47	182.41	2.56	-44.5	-55.6	3.8	8.45e-01	0	53	104	0	59	12977
2026-01-22 14:56:05.51	182.56	2.81	-44.5	-55.5	3.8	8.46e-01	0	54	104	0	59	12958
2026-01-22 14:56:09.55	182.71	3.07	-44.5	-55.5	3.8	8.45e-01	0	54	104	0	59	12946
2026-01-22 14:56:13.59	182.86	3.33	-44.5	-55.6	3.8	8.46e-01	0	54	104	0	59	12988
2026-01-22 14:56:17.64	183.02	3.60	-44.5	-55.6	3.8	8.47e-01	0	54	104	0	59	12961
2026-01-22 14:56:21.68	183.18	3.87	-44.5	-55.6	3.8	8.46e-01	0	55	104	0	59	12968
2026-01-22 14:56:25.72	183.34	4.13	-44.5	-55.5	3.8	8.47e-01	0	55	104	0	59	12940
2026-01-22 14:56:29.76	183.50	4.41	-44.5	-55.5	3.8	8.46e-01	0	55	104	0	59	12866
2026-01-22 14:56:33.80	183.67	4.68	-44.4	-55.0	3.8	8.48e-01	0	55	104	0	59	12101
2026-01-22 14:56:37.84	183.84	4.96	-44.4	-54.4	3.8	8.45e-01	0	56	104	0	59	11362
2026-01-22 14:56:41.89	184.01	5.24	-44.2	-53.0	4.0	8.45e-01	0	56	104	0	59	9716
2026-01-22 14:56:45.93	184.19	5.52	-43.7	-50.9	4.6	8.19e-01	0	56	0	0	58	8013
2026-01-22 14:56:49.97	184.37	5.81	-43.1	-48.8	5.8	6.06e-01	0	56	0	0	57	6650
2026-01-22 14:56:54.02	184.55	6.09	-42.6	-47.4	6.9	1.73e-01	0	56	0	29360128	56	6017
2026-01-22 14:56:58.06	184.74	6.39	-42.3	-47.2	6.9	1.54e-01	0	57	0	58720256	55	6213
2026-01-22 14:57:02.10	184.93	6.68	-42.4	-47.2	6.9	1.70e-01	0	57	0	88080384	55	6239
2026-01-22 14:57:06.15	185.13	6.98	-41.8	-45.9	8.1	6.16e-02	0	57	0	116391936	54	5704
2026-01-22 14:57:10.19	185.32	7.28	-40.3	-43.2	11.0	2.06e-03	0	57	0	145752064	51	4945
2026-01-22 14:57:14.23	185.53	7.58	-39.0	-41.4	12.8	7.32e-05	0	57	0	175112192	49	4533
2026-01-22 14:57:18.28	185.73	7.89	-38.6	-40.9	13.2	4.50e-06	0	57	0	204472320	47	4779
2026-01-22 14:57:22.32	185.94	8.20	-39.2	-41.6	12.7	8.28e-04	0	58	0	233832448	49	4617
2026-01-22 14:57:26.36	186.16	8.52	-38.5	-40.7	13.6	6.80e-06	0	58	0	257949696	48	4440
2026-01-22 14:57:30.40	186.37	8.83	-38.4	-40.7	13.5	1.37e-05	0	58	0	287309824	47	4694
2026-01-22 14:57:34.43	186.60	9.15	-38.2	-40.4	13.8	3.40e-06	0	58	0	316669952	47	4496
2026-01-22 14:57:38.47	186.82	9.48	-38.1	-40.2	14.0	2.20e-06	0	58	0	344981504	47	4434
2026-01-22 14:57:42.51	187.06	9.81	-38.0	-40.1	14.2	2.20e-06	0	58	0	374341632	46	4618
2026-01-22 14:57:46.55	187.29	10.14	-37.9	-40.0	14.3	1.10e-06	0	59	0	403701760	46	4564
2026-01-22 14:57:50.59	187.54	10.48	-37.8	-39.9	14.4	1.10e-06	0	59	0	433061888	46	4536
2026-01-22 14:57:54.63	187.79	10.82	-37.8	-39.9	14.4	1.10e-06	0	59	0	462422016	46	4530
2026-01-22 14:57:58.66	188.04	11.17	-37.6	-39.7	14.6	1.10e-06	0	59	0	490733568	46	4405
2026-01-22 14:58:02.70	188.30	11.52	-37.5	-39.6	14.8	0.00e+00	0	59	0	520093696	45	4613
2026-01-22 14:58:06.75	188.57	11.88	-37.4	-39.5	14.9	0.00e+00	0	59	0	549453824	45	4561
2026-01-22 14:58:10.79	188.84	12.24	-37.4	-39.4	15.0	0.00e+00	0	59	0	578813952	45	4539
2026-01-22 14:58:14.82	189.12	12.60	-37.3	-39.4	15.0	0.00e+00	0	59	0	608174080	45	4498
2026-01-22 14:58:18.86	189.40	12.97	-37.3	-39.4	15.0	0.00e+00	0	59	0	637534208	45	4508
2026-01-22 14:58:22.90	189.69	13.35	-37.4	-39.5	15.0	0.00e+00	0	59	0	665845760	45	4546
2026-01-22 14:58:26.94	189.99	13.73	-37.2	-39.2	15.2	0.00e+00	0	59	0	695205888	44	4685
2026-01-22 14:58:30.98	190.30	14.11	-37.1	-39.1	15.3	0.00e+00	0	59	0	724566016	44	4646
2026-01-22 14:58:35.01	190.61	14.50	-37.0	-39.0	15.5	0.00e+00	0	60	0	753926144	44	4567
2026-01-22 14:58:39.05	190.94	14.90	-36.8	-38.8	15.7	0.00e+00	0	60	0	783286272	44	4455
2026-01-22 14:58:43.09	191.27	15.30	-36.6	-38.5	15.9	0.00e+00	0	60	0	812646400	43	4568
2026-01-22 14:58:47.13	191.61	15.71	-36.5	-38.4	16.0	0.00e+00	0	60	0	840957952	43	4506
2026-01-22 14:58:51.17	191.96	16.12	-36.3	-38.2	16.2	0.00e+00	0	60	0	870318080	43	4402
2026-01-22 14:58:55.22	192.32	16.55	-36.3	-38.2	16.3	0.00e+00	0	60	0	899678208	43	4408
2026-01-22 14:58:59.26	192.68	16.97	-36.2	-38.0	16.4	0.00e+00	0	60	0	929038336	43	4321
2026-01-22 14:59:03.29	193.06	17.40	-36.2	-38.0	16.4	0.00e+00	0	60	0	958398464	42	4550
2026-01-22 14:59:07.34	193.45	17.85	-36.2	-38.0	16.5	0.00e+00	0	60	0	986710016	42	4572
2026-01-22 14:59:11.38	193.85	18.29	-36.0	-37.7	16.8	0.00e+00	0	60	0	1016070144	42	4411
2026-01-22 14:59:15.42	194.26	18.75	-35.9	-37.6	16.8	0.00e+00	0	60	0	1045430272	42	4360
2026-01-22 14:59:19.45	194.69	19.21	-35.9	-37.6	16.8	0.00e+00	0	60	0	1074790400	42	4380
2026-01-22 14:59:23.49	195.12	19.67	-35.8	-37.5	16.9	0.00e+00	0	60	0	1104150528	42	4330
2026-01-22 14:59:27.53	195.57	20.15	-35.8	-37.6	16.9	0.00e+00	0	60	0	1132462080	42	4342
2026-01-22 14:59:31.57	196.04	20.63	-35.9	-37.8	16.6	0.00e+00	0	61	0	1161822208	42	4462
2026-01-22 14:59:35.61	196.52	21.12	-35.7	-37.5	16.9	0.00e+00	0	60	0	1191182336	42	4296
2026-01-22 14:59:39.64	197.01	21.62	-35.6	-37.3	17.1	0.00e+00	0	60	0	1220542464	41	4485
2026-01-22 14:59:43.68	197.52	22.12	-35.4	-37.1	17.3	0.00e+00	0	61	0	1248854016	41	4362
2026-01-22 14:59:47.72	198.04	22.64	-35.3	-37.0	17.4	0.00e+00	0	61	0	1278214144	41	4305
2026-01-22 14:59:51.76	198.58	23.16	-35.3	-37.0	17.4	0.00e+00	0	61	0	1307574272	40	4567
2026-01-22 14:59:55.80	199.14	23.69	-35.3	-37.0	17.4	0.00e+00	0	61	0	1336934400	40	4591
2026-01-22 14:59:59.84	199.72	24.23	-35.2	-36.9	17.6	0.00e+00	0	61	0	1366294528	40	4510
2026-01-22 15:00:03.88	200.32	24.77	-35.1	-36.8	17.7	0.00e+00	0	61	0	1394606080	40	4454
2026-01-22 15:00:07.92	200.94	25.33	-35.0	-36.6	17.8	0.00e+00	0	61	0	1423966208	40	4376
2026-01-22 15:00:11.96	201.58	25.89	-35.0	-36.6	17.9	0.00e+00	0	61	0	1453326336	39	4623
2026-01-22 15:00:16.01	202.25	26.46	-35.0	-36.6	17.8	0.00e+00	0	61	0	1482686464	39	4645
2026-01-22 15:00:20.04	202.94	27.04	-35.0	-36.6	17.9	0.00e+00	0	61	0	1512046592	39	4627
2026-01-22 15:00:24.08	203.65	27.62	-34.8	-36.3	18.2	0.00e+00	0	61	0	1540358144	39	4474
2026-01-22 15:00:28.13	204.39	28.22	-34.8	-36.3	18.3	0.00e+00	0	61	0	1569718272	39	4476
2026-01-22 15:00:32.17	205.16	28.82	-34.8	-36.4	18.2	0.00e+00	0	61	0	1599078400	39	4507
2026-01-22 15:00:36.21	205.95	29.43	-34.8	-36.4	18.2	0.00e+00	0	61	0	1628438528	39	4529
2026-01-22 15:00:40.24	206.78	30.05	-34.9	-36.5	18.1	0.00e+00	0	61	0	1657798656	39	4549
2026-01-22 15:00:44.28	207.63	30.67	-34.9	-36.6	18.0	0.00e+00	0	61	0	1687158784	39	4610
2026-01-22 15:00:48.32	208.52	31.30	-34.7	-36.4	18.2	0.00e+00	0	61	0	1715470336	39	4500
2026-01-22 15:00:52.35	209.45	31.94	-34.6	-36.2	18.3	0.00e+00	0	61	0	1744830464	39	4416
2026-01-22 15:00:56.40	210.41	32.58	-34.6	-36.2	18.3	0.00e+00	0	61	0	1774190592	39	4428
2026-01-22 15:01:00.43	211.41	33.22	-34.7	-36.3	18.3	0.00e+00	0	61	0	1803550720	39	4446
2026-01-22 15:01:04.47	212.45	33.87	-34.6	-36.1	18.5	0.00e+00	0	61	0	1832910848	39	4381
2026-01-22 15:01:08.51	213.53	34.53	-34.7	-36.3	18.3	0.00e+00	0	61	0	1861222400	39	4493
2026-01-22 15:01:12.55	214.65	35.18	-35.0	-36.6	18.1	0.00e+00	0	61	0	1890582528	39	4624
2026-01-22 15:01:16.58	215.82	35.84	-34.9	-36.5	18.2	0.00e+00	0	61	0	1919942656	39	4574
2026-01-22 15:01:20.63	217.04	36.50	-34.8	-36.4	18.3	0.00e+00	0	61	0	1949302784	39	4500
2026-01-22 15:01:24.67	218.31	37.15	-35.0	-36.7	17.9	0.00e+00	0	61	0	1978662912	39	4664
2026-01-22 15:01:28.71	219.63	37.80	-35.1	-36.8	17.8	0.00e+00	0	61	0	2008023040	39	4739
2026-01-22 15:01:32.76	221.00	38.45	-35.0	-36.6	18.0	0.00e+00	0	61	0	2036334592	39	4636
2026-01-22 15:01:36.79	222.42	39.09	-35.0	-36.6	18.0	0.00e+00	0	62	0	2065694720	40	4355
2026-01-22 15:01:40.84	223.90	39.72	-34.9	-36.5	18.1	0.00e+00	0	61	0	2095054848	40	4339
2026-01-22 15:01:44.88	225.44	40.35	-35.0	-36.6	18.0	0.00e+00	0	62	0	2124414976	40	4373
2026-01-22 15:01:48.92	227.04	40.95	-34.8	-36.4	18.1	0.00e+00	0	61	0	2153775104	40	4250
2026-01-22 15:01:52.96	228.70	41.55	-34.9	-36.5	18.1	0.00e+00	0	61	0	2182086656	40	4313
2026-01-22 15:01:57.00	230.41	42.12	-35.0	-36.6	18.1	0.00e+00	0	62	0	2211446784	40	4349
2026-01-22 15:02:01.03	232.19	42.68	-34.9	-36.4	18.3	0.00e+00	0	62	0	2240806912	40	4277
2026-01-22 15:02:05.07	234.02	43.21	-35.9	-37.1	18.0	0.00e+00	0	62	0	2270167040	41	4347
2026-01-22 15:02:09.10	235.92	43.71	-35.7	-36.9	18.2	0.00e+00	0	62	0	2299527168	41	4251
2026-01-22 15:02:13.14	237.87	44.19	-35.6	-36.8	18.4	0.00e+00	0	62	0	2328887296	41	4195
2026-01-22 15:02:17.18	239.88	44.63	-35.6	-36.7	18.4	0.00e+00	0	61	0	2357198848	41	4162
2026-01-22 15:02:21.22	241.95	45.04	-35.5	-36.7	18.5	0.00e+00	0	61	0	2386558976	41	4164
2026-01-22 15:02:25.26	244.06	45.41	-36.2	-37.5	17.7	0.00e+00	0	62	0	2415919104	42	4295
2026-01-22 15:02:29.30	246.23	45.75	-36.3	-37.6	17.6	0.00e+00	0	62	0	2445279232	42	4357
2026-01-22 15:02:33.33	248.43	46.04	-36.1	-37.3	17.8	0.00e+00	0	62	0	2473590784	42	4226
2026-01-22 15:02:37.37	250.67	46.28	-36.0	-37.2	18.0	0.00e+00	0	62	0	2502950912	42	4154
2026-01-22 15:02:41.41	252.95	46.48	-36.1	-37.3	17.8	0.00e+00	0	62	0	2532311040	42	4220
2026-01-22 15:02:45.45	255.24	46.63	-35.7	-36.9	18.1	0.00e+00	0	62	0	2561671168	42	4010
2026-01-22 15:02:49.48	257.56	46.73	-35.9	-37.1	18.0	0.00e+00	0	62	0	2589982720	42	4117
2026-01-22 15:02:53.52	259.88	46.78	-36.2	-37.4	17.7	0.00e+00	0	62	0	2619342848	42	4291
2026-01-22 15:02:57.56	262.22	46.78	-35.8	-37.0	18.1	0.00e+00	0	62	0	2648702976	42	4080
2026-01-22 15:03:01.61	264.55	46.73	-35.9	-37.1	18.0	0.00e+00	0	62	0	2678063104	42	4130
2026-01-22 15:03:05.65	266.86	46.62	-36.3	-37.6	17.6	0.00e+00	0	62	0	2707423232	42	4377
2026-01-22 15:03:09.69	269.16	46.47	-35.6	-36.8	18.3	0.00e+00	0	62	0	2736783360	42	3973
2026-01-22 15:03:13.73	271.43	46.27	-35.9	-37.1	18.0	0.00e+00	0	62	0	2765094912	42	4130
2026-01-22 15:03:17.77	273.67	46.03	-36.0	-37.1	18.0	0.00e+00	0	62	0	2794455040	42	4145
2026-01-22 15:03:21.80	275.87	45.74	-36.0	-37.3	17.9	0.00e+00	0	62	0	2823815168	42	4194
2026-01-22 15:03:25.84	278.03	45.41	-36.2	-37.4	17.7	0.00e+00	0	62	0	2853175296	42	4264
2026-01-22 15:03:29.88	280.14	45.03	-35.9	-37.1	18.1	0.00e+00	0	62	0	2882535424	42	4113
2026-01-22 15:03:33.92	282.20	44.62	-35.9	-37.1	18.1	0.00e+00	0	62	0	2910846976	42	4122
2026-01-22 15:03:37.96	284.21	44.18	-35.7	-36.8	18.2	0.00e+00	0	62	0	2940207104	42	3999
2026-01-22 15:03:41.99	286.15	43.70	-36.0	-37.2	18.0	0.00e+00	0	62	0	2969567232	42	4154
2026-01-22 15:03:46.03	288.04	43.20	-35.3	-36.4	18.7	0.00e+00	0	62	0	2998927360	41	4051
2026-01-22 15:03:50.07	289.87	42.67	-35.7	-36.9	18.3	0.00e+00	0	62	0	3028287488	41	4245
2026-01-22 15:03:54.11	291.64	42.12	-35.6	-36.8	18.3	0.00e+00	0	62	0	3057647616	41	4196
2026-01-22 15:03:58.16	293.36	41.54	-35.6	-36.8	18.3	0.00e+00	0	62	0	3085959168	41	4203
2026-01-22 15:04:02.20	295.01	40.95	-35.6	-36.7	18.3	0.00e+00	0	62	0	3115319296	41	4181
2026-01-22 15:04:06.24	296.60	40.35	-35.5	-36.6	18.5	0.00e+00	0	62	0	3144679424	41	4140
2026-01-22 15:04:10.28	298.13	39.73	-35.4	-36.5	18.6	0.00e+00	0	62	0	3174039552	41	4079
2026-01-22 15:04:14.31	299.61	39.10	-35.3	-36.4	18.7	0.00e+00	0	62	0	3203399680	41	4011
2026-01-22 15:04:18.35	301.02	38.46	-35.7	-36.9	17.6	0.00e+00	0	62	0	3231711232	41	4245
2026-01-22 15:04:22.40	302.39	37.82	-35.3	-36.4	18.7	0.00e+00	0	62	0	3261071360	41	4035
2026-01-22 15:04:26.44	303.71	37.17	-35.3	-36.5	18.6	0.00e+00	0	62	0	3290431488	41	4070
2026-01-22 15:04:30.47	304.97	36.52	-35.5	-36.7	18.4	0.00e+00	0	62	0	3319791616	41	4163
2026-01-22 15:04:34.51	306.18	35.86	-35.0	-36.1	18.9	0.00e+00	0	62	0	3349151744	41	3911
2026-01-22 15:04:38.55	307.35	35.21	-35.0	-36.1	18.9	0.00e+00	0	62	0	3378511872	40	4143
2026-01-22 15:04:42.59	308.47	34.56	-35.4	-36.6	18.5	0.00e+00	0	62	0	3406823424	40	4354
2026-01-22 15:04:46.62	309.54	33.91	-35.7	-36.9	18.2	0.00e+00	0	62	0	3436183552	41	4253
2026-01-22 15:04:50.66	310.58	33.26	-35.2	-36.3	18.7	0.00e+00	0	62	0	3465543680	41	4004
2026-01-22 15:04:54.70	311.58	32.62	-35.2	-36.3	18.7	0.00e+00	0	62	0	3494903808	41	3991
2026-01-22 15:04:58.74	312.54	31.98	-35.2	-36.3	18.7	0.00e+00	0	62	0	3524263936	41	3967
2026-01-22 15:05:02.78	313.46	31.35	-35.4	-36.6	18.4	0.00e+00	0	62	0	3552575488	41	4101
2026-01-22 15:05:06.82	314.35	30.73	-35.7	-36.9	18.1	0.00e+00	0	62	0	3581935616	41	4265
2026-01-22 15:05:10.86	315.20	30.11	-35.5	-36.7	18.3	0.00e+00	0	62	0	3611295744	41	4152
2026-01-22 15:05:14.89	316.02	29.49	-35.3	-36.5	18.5	0.00e+00	0	62	0	3640655872	41	4058
2026-01-22 15:05:18.94	316.82	28.89	-35.5	-36.6	18.4	0.00e+00	0	62	0	3668967424	41	4129
2026-01-22 15:05:22.98	317.59	28.29	-35.7	-36.9	18.1	0.00e+00	0	62	0	3698327552	41	4248
2026-01-22 15:05:27.01	318.32	27.70	-35.6	-36.8	18.2	0.00e+00	0	62	0	3727687680	41	4211
2026-01-22 15:05:31.05	319.03	27.12	-35.6	-36.7	18.2	0.00e+00	0	62	0	3757047808	41	4172
2026-01-22 15:05:35.09	319.72	26.54	-35.3	-36.4	18.5	0.00e+00	0	62	0	3786407936	41	4037
2026-01-22 15:05:39.13	320.39	25.97	-35.4	-36.6	18.3	0.00e+00	0	62	0	3814719488	41	4117
2026-01-22 15:05:43.17	321.03	25.41	-35.6	-36.8	18.0	0.00e+00	0	62	0	3844079616	41	4237
2026-01-22 15:05:47.21	321.65	24.86	-35.7	-36.9	18.0	0.00e+00	0	62	0	3873439744	41	4253
2026-01-22 15:05:51.24	322.24	24.32	-35.7	-36.9	18.0	0.00e+00	0	62	0	3902799872	41	4260
2026-01-22 15:05:55.29	322.83	23.79	-35.6	-36.8	18.1	0.00e+00	0	62	0	3932160000	41	4212
2026-01-22 15:05:59.32	323.38	23.26	-35.8	-37.0	17.9	0.00e+00	0	62	0	3960471552	41	4306
2026-01-22 15:06:03.36	323.93	22.74	-36.0	-37.2	17.6	0.00e+00	0	62	0	3989831680	41	4414
2026-01-22 15:06:07.40	324.45	22.23	-35.9	-37.1	17.8	0.00e+00	0	62	0	4019191808	41	4356
2026-01-22 15:06:11.43	324.96	21.73	-35.8	-37.0	17.8	0.00e+00	0	62	0	4048551936	41	4334
2026-01-22 15:06:15.47	325.46	21.24	-35.9	-37.1	17.7	0.00e+00	0	62	0	4077912064	41	4357
2026-01-22 15:06:19.51	325.94	20.75	-36.1	-37.4	17.4	0.00e+00	0	62	0	4106223616	41	4496
2026-01-22 15:06:23.55	326.40	20.27	-36.2	-37.5	17.3	0.00e+00	0	62	0	4135583744	42	4299
2026-01-22 15:06:27.59	326.85	19.80	-36.3	-37.6	17.2	0.00e+00	0	62	0	4164943872	42	4345
2026-01-22 15:06:31.63	327.29	19.33	-36.3	-37.6	17.2	0.00e+00	0	62	0	4194304000	42	4367
2026-01-22 15:06:35.67	327.72	18.87	-36.3	-37.6	17.1	0.00e+00	0	62	0	4223664128	42	4375
2026-01-22 15:06:39.70	328.13	18.42	-36.3	-37.6	17.1	0.00e+00	0	62	0	4253024256	42	4342
2026-01-22 15:06:43.74	328.53	17.98	-36.3	-37.6	17.1	0.00e+00	0	62	0	4281335808	42	4386
2026-01-22 15:06:47.78	328.92	17.54	-36.3	-37.6	17.0	0.00e+00	0	62	0	4310695936	42	4390
2026-01-22 15:06:51.82	329.30	17.11	-36.5	-37.9	16.8	0.00e+00	0	62	0	4340056064	42	4496
2026-01-22 15:06:55.86	329.67	16.69	-36.7	-38.1	16.5	0.00e+00	0	62	0	4369416192	43	4369
2026-01-22 15:06:59.90	330.03	16.27	-37.0	-38.4	16.2	0.00e+00	0	62	0	4398776320	43	4535
2026-01-22 15:07:03.93	330.38	15.86	-37.1	-38.5	16.0	0.00e+00	0	62	0	4427087872	43	4587
2026-01-22 15:07:07.97	330.73	15.45	-37.2	-38.7	15.9	0.00e+00	0	62	0	4456448000	43	4671
2026-01-22 15:07:12.01	331.06	15.05	-37.4	-39.0	15.7	0.00e+00	0	62	0	4485808128	44	4546
2026-01-22 15:07:16.05	331.38	14.65	-37.5	-39.0	15.6	0.00e+00	0	62	0	4515168256	44	4571
2026-01-22 15:07:20.09	331.70	14.27	-37.5	-39.0	15.6	0.00e+00	0	62	0	4544528384	44	4567
2026-01-22 15:07:24.13	332.01	13.88	-37.5	-39.0	15.5	0.00e+00	0	62	0	4572839936	44	4592
2026-01-22 15:07:28.17	332.31	13.50	-37.6	-39.2	15.3	0.00e+00	0	62	0	4602200064	44	4667
2026-01-22 15:07:32.20	332.61	13.13	-37.8	-39.4	15.1	0.00e+00	0	62	0	4631560192	45	4517
2026-01-22 15:07:36.24	332.90	12.76	-37.8	-39.5	15.0	0.00e+00	0	62	0	4660920320	45	4548
2026-01-22 15:07:40.28	333.18	12.40	-37.9	-39.6	14.8	0.00e+00	0	62	0	4689231872	45	4611
2026-01-22 15:07:44.32	333.45	12.04	-38.0	-39.7	14.7	1.10e-06	0	62	0	4718592000	45	4691
2026-01-22 15:07:48.36	333.72	11.69	-37.9	-39.6	14.7	1.10e-06	0	62	0	4747952128	45	4649
2026-01-22 15:07:52.39	333.98	11.34	-38.3	-40.1	14.2	1.10e-06	0	62	0	4777312256	46	4608
2026-01-22 15:07:56.43	334.24	10.99	-38.3	-40.2	14.1	2.20e-06	0	62	0	4806672384	46	4656
2026-01-22 15:08:00.47	334.49	10.65	-38.2	-40.0	14.2	4.50e-06	0	62	0	4834983936	46	4548
2026-01-22 15:08:04.51	334.74	10.32	-38.3	-40.1	14.0	3.40e-06	0	62	0	4864344064	46	4643
2026-01-22 15:08:08.55	334.98	9.99	-38.3	-40.2	13.8	3.40e-06	0	62	0	4893704192	46	4694
2026-01-22 15:08:12.59	335.22	9.66	-38.3	-40.2	13.7	9.10e-06	0	62	0	4923064320	46	4679
2026-01-22 15:08:16.63	335.45	9.33	-38.5	-40.5	13.3	1.37e-05	0	62	0	4952424448	46	4836
2026-01-22 15:08:20.67	335.68	9.01	-38.5	-40.6	13.2	2.05e-05	0	62	0	4980736000	46	4891
2026-01-22 15:08:24.71	335.90	8.70	-38.7	-40.8	12.8	6.17e-05	0	62	0	5010096128	46	5028
2026-01-22 15:08:28.74	336.12	8.38	-38.7	-40.9	12.6	8.69e-05	0	62	0	5039456256	47	4805
2026-01-22 15:08:32.78	336.33	8.08	-38.8	-41.1	12.3	1.66e-04	0	62	0	5068816384	47	4901
2026-01-22 15:08:36.82	336.54	7.77	-45.2	-56.6	3.8	8.46e-01	0	62	104	5075107840	60	13854
2026-01-22 15:08:40.86	336.75	7.47	-45.7	-57.0	3.8	8.47e-01	0	62	104	5075107840	60	14443
2026-01-22 15:08:44.91	336.95	7.17	-45.5	-57.0	3.8	8.46e-01	0	62	104	5075107840	60	14469
2026-01-22 15:08:48.95	337.15	6.87	-45.5	-56.9	3.8	8.46e-01	0	62	104	5075107840	60	14288
2026-01-22 15:08:52.99	337.34	6.58	-45.5	-56.9	3.8	8.47e-01	0	62	104	5075107840	60	14305
2026-01-22 15:08:57.04	337.53	6.29	-45.5	-56.9	3.8	8.47e-01	0	62	104	5075107840	60	14223
2026-01-22 15:09:01.08	337.72	6.00	-45.5	-56.9	3.8	8.47e-01	0	62	104	5075107840	60	14259
2026-01-22 15:09:05.12	337.91	5.72	-45.3	-56.8	3.8	8.47e-01	0	62	104	5075107840	60	14197
2026-01-22 15:09:09.16	338.09	5.44	-45.4	-56.8	3.8	8.47e-01	0	62	104	5075107840	60	14182
2026-01-22 15:09:13.19	338.26	5.16	-45.5	-56.8	3.8	8.46e-01	0	62	104	5075107840	60	14191
2026-01-22 15:09:17.23	338.44	4.88	-45.5	-56.8	3.8	8.46e-01	0	62	104	5075107840	60	14116
2026-01-22 15:09:21.27	338.61	4.61	-45.4	-56.8	3.8	8.46e-01	0	62	104	5075107840	60	14163
2026-01-22 15:09:25.32	338.78	4.34	-45.4	-56.8	3.8	8.46e-01	0	62	104	5075107840	60	14160
2026-01-22 15:09:29.36	338.95	4.07	-45.5	-56.8	3.8	8.46e-01	0	62	104	5075107840	60	14173
2026-01-22 15:09:33.40	339.11	3.81	-45.5	-56.8	3.8	8.46e-01	0	62	104	5075107840	60	14175
2026-01-22 15:09:37.44	339.27	3.54	-45.5	-56.8	3.8	8.46e-01	0	62	104	5075107840	60	14156
2026-01-22 15:09:41.48	339.43	3.28	-45.5	-56.8	3.8	8.45e-01	0	62	104	5075107840	60	14140
2026-01-22 15:09:45.52	339.59	3.02	-45.5	-56.8	3.8	8.45e-01	0	62	104	5075107840	60	14121
2026-01-22 15:09:49.56	339.74	2.77	-45.5	-56.8	3.8	8.46e-01	0	62	104	5075107840	60	14053
2026-01-22 15:09:53.61	339.89	2.51	-45.5	-56.8	3.8	8.46e-01	0	62	104	5075107840	60	14145
2026-01-22 15:09:57.65	340.04	2.26	-45.2	-56.8	3.8	8.46e-01	0	62	104	5075107840	60	14195
2026-01-22 15:10:01.69	340.19	2.01	-45.4	-56.8	3.8	8.45e-01	0	62	104	5075107840	60	14181

#Closed at: 2026-01-22 15:10:04
#Recorded file [5075 MB]: D:/lorett/data/31039_260122_175553.dat