passes_logs/2026/01/22/R2.0S_Moscow/R2.0S_Moscow__20260122_201437_FENGYUN_3G_rec.log

#Pass ID: 20260122_201437_FENGYUN 3G
#Satellite: FENGYUN 3G
#Configuration: FENGYUN 3G
#almurnet v.1.7.20251203
#Start time: 2026-01-22 20:14:38

#Version: 2.2.20231116
#Station: R2.0S_Moscow
#Location: 37.707566 lon 55.798166 lat
#TLE: 1 56232U 23055A   26021.54475475  .00062179  00000+0  94164-3 0  9996
#TLE: 2 56232  49.9941  22.1547 0004002  61.8305 298.3066 15.54008241157216

#Time	Az	El	Level	Level2	SNR	BER	BlckErr	Temp	State	Recorded	gain1	gain2
2026-01-22 20:14:38.63	250.80	2.07	-44.2	-62.2	3.8	8.45e-01	0	51	0	0	59	29626
2026-01-22 20:14:41.65	250.62	2.27	-44.1	-62.2	3.8	8.46e-01	0	51	104	0	60	27978
2026-01-22 20:14:44.68	250.43	2.47	-44.1	-62.2	3.8	8.47e-01	0	51	104	0	60	27941
2026-01-22 20:14:47.72	250.23	2.68	-44.1	-62.1	3.8	8.46e-01	0	52	104	0	60	27586
2026-01-22 20:14:50.75	250.03	2.88	-44.1	-62.2	3.8	8.46e-01	0	52	104	0	60	27735
2026-01-22 20:14:53.78	249.83	3.09	-44.1	-62.2	3.8	8.46e-01	0	52	104	0	60	27761
2026-01-22 20:14:56.81	249.62	3.30	-44.1	-62.2	3.8	8.46e-01	0	52	104	0	60	27809
2026-01-22 20:14:59.84	249.41	3.51	-44.1	-62.2	3.8	8.46e-01	0	52	104	0	60	27896
2026-01-22 20:15:02.87	249.19	3.73	-44.1	-62.2	3.8	8.45e-01	0	53	104	0	60	27840
2026-01-22 20:15:05.90	248.97	3.94	-44.1	-62.2	3.8	8.46e-01	0	53	104	0	60	27779
2026-01-22 20:15:08.93	248.74	4.16	-44.1	-62.0	3.8	8.46e-01	0	53	104	0	60	27261
2026-01-22 20:15:11.96	248.51	4.38	-44.1	-61.5	3.8	8.46e-01	0	53	104	0	60	25578
2026-01-22 20:15:14.99	248.27	4.61	-44.1	-61.2	3.8	8.46e-01	0	53	104	0	60	24926
2026-01-22 20:15:18.02	248.03	4.83	-44.1	-61.6	3.8	8.47e-01	0	53	104	0	60	25874
2026-01-22 20:15:21.05	247.78	5.06	-44.0	-61.6	3.8	8.45e-01	0	54	104	0	60	25918
2026-01-22 20:15:24.09	247.52	5.30	-44.0	-60.8	3.8	8.46e-01	0	54	104	0	60	23619
2026-01-22 20:15:27.12	247.26	5.53	-44.0	-59.7	3.9	8.45e-01	0	54	104	0	60	20872
2026-01-22 20:15:30.15	247.00	5.77	-44.0	-58.9	4.1	8.42e-01	0	54	0	0	59	20086
2026-01-22 20:15:33.18	246.73	6.01	-44.0	-58.5	4.2	8.37e-01	0	54	0	0	59	19293
2026-01-22 20:15:36.21	246.45	6.25	-44.0	-57.3	4.7	8.30e-01	0	54	0	0	59	16811
2026-01-22 20:15:39.24	246.16	6.50	-43.7	-54.0	6.9	6.15e-01	0	54	0	1048576	59	11528
2026-01-22 20:15:42.27	245.87	6.75	-43.3	-51.1	9.9	5.68e-02	0	55	0	4718592	58	8673
2026-01-22 20:15:45.30	245.57	7.00	-43.1	-50.5	10.5	6.12e-03	0	55	0	7864320	58	8146
2026-01-22 20:15:48.33	245.26	7.25	-43.7	-53.8	7.3	1.37e-02	0	55	0	11534336	58	11874
2026-01-22 20:15:51.37	244.94	7.51	-44.0	-59.2	3.9	6.42e-01	0	55	104	12058624	58	22044
2026-01-22 20:15:54.40	244.62	7.78	-42.8	-49.4	11.5	4.92e-01	0	55	0	14155776	57	7600
2026-01-22 20:15:57.43	244.29	8.04	-41.9	-46.9	14.4	4.87e-04	0	55	0	17825792	55	6358
2026-01-22 20:16:00.46	243.95	8.31	-41.7	-46.5	14.4	2.31e-01	0	56	0	19398656	55	6104
2026-01-22 20:16:03.49	243.60	8.59	-41.0	-44.8	16.2	3.55e-01	0	55	0	22544384	53	5653
2026-01-22 20:16:06.52	243.24	8.86	-40.9	-44.7	16.4	0.00e+00	0	55	0	25690112	53	5541
2026-01-22 20:16:09.54	242.87	9.14	-40.9	-44.7	16.5	0.00e+00	0	56	0	29360128	53	5563
2026-01-22 20:16:12.58	242.49	9.43	-40.5	-43.9	17.3	0.00e+00	0	56	0	32505856	53	5095
2026-01-22 20:16:15.60	242.10	9.72	-40.5	-43.8	17.4	0.00e+00	0	56	0	36175872	52	5333
2026-01-22 20:16:18.63	241.70	10.01	-40.3	-43.5	17.7	0.00e+00	0	56	0	39321600	52	5155
2026-01-22 20:16:21.66	241.29	10.31	-40.5	-43.8	17.5	0.00e+00	0	56	0	42991616	52	5298
2026-01-22 20:16:24.68	240.87	10.61	-40.4	-43.7	17.7	0.00e+00	0	56	0	46137344	52	5227
2026-01-22 20:16:27.71	240.43	10.91	-40.3	-43.5	17.8	0.00e+00	0	56	0	49807360	52	5116
2026-01-22 20:16:30.74	239.99	11.22	-40.1	-43.2	18.2	0.00e+00	0	56	0	52953088	52	4932
2026-01-22 20:16:33.77	239.53	11.54	-40.1	-43.2	18.2	0.00e+00	0	56	0	56623104	52	4937
2026-01-22 20:16:36.80	239.05	11.86	-40.2	-43.2	18.1	0.00e+00	0	56	0	59768832	52	4979
2026-01-22 20:16:39.82	238.57	12.18	-40.0	-43.0	18.5	0.00e+00	0	56	0	63438848	52	4819
2026-01-22 20:16:42.85	238.06	12.51	-39.9	-42.8	18.7	0.00e+00	0	57	0	66584576	51	5015
2026-01-22 20:16:45.88	237.54	12.84	-39.9	-42.8	18.6	0.00e+00	0	57	0	70254592	51	5037
2026-01-22 20:16:48.91	237.01	13.18	-39.7	-42.5	19.1	0.00e+00	0	57	0	73400320	51	4830
2026-01-22 20:16:51.94	236.46	13.53	-39.8	-42.7	18.9	0.00e+00	0	57	0	77070336	51	4942
2026-01-22 20:16:54.97	235.89	13.87	-39.8	-42.7	18.9	0.00e+00	0	57	0	80216064	51	4927
2026-01-22 20:16:58.00	235.31	14.23	-39.5	-42.1	19.5	0.00e+00	0	57	0	83886080	51	4628
2026-01-22 20:17:01.02	234.71	14.59	-39.4	-42.0	19.6	0.00e+00	0	57	0	87031808	50	4858
2026-01-22 20:17:04.05	234.08	14.95	-39.6	-42.3	19.4	0.00e+00	0	57	0	90701824	50	4986
2026-01-22 20:17:07.08	233.44	15.32	-39.6	-42.2	19.4	0.00e+00	0	57	0	93847552	50	4983
2026-01-22 20:17:10.11	232.78	15.70	-39.2	-41.7	20.0	0.00e+00	0	57	0	97517568	50	4665
2026-01-22 20:17:13.14	232.09	16.08	-39.0	-41.4	20.3	0.00e+00	0	57	0	100663296	50	4531
2026-01-22 20:17:16.17	231.38	16.46	-39.1	-41.5	20.2	0.00e+00	0	57	0	104333312	49	4845
2026-01-22 20:17:19.20	230.65	16.85	-39.0	-41.3	20.4	0.00e+00	0	57	0	107479040	49	4755
2026-01-22 20:17:22.23	229.90	17.25	-38.8	-41.1	20.7	0.00e+00	0	58	0	111149056	49	4599
2026-01-22 20:17:25.25	229.12	17.64	-38.7	-41.0	20.7	0.00e+00	0	58	0	114294784	49	4586
2026-01-22 20:17:28.28	228.31	18.05	-38.8	-41.1	20.7	0.00e+00	0	57	0	117964800	49	4607
2026-01-22 20:17:31.31	227.47	18.46	-38.6	-40.8	20.9	0.00e+00	0	57	0	121110528	49	4490
2026-01-22 20:17:34.34	226.61	18.87	-38.5	-40.7	21.1	0.00e+00	0	57	0	124780544	48	4657
2026-01-22 20:17:37.37	225.72	19.29	-38.5	-40.7	21.1	0.00e+00	0	58	0	127926272	48	4664
2026-01-22 20:17:40.40	224.80	19.71	-38.8	-41.1	20.8	0.00e+00	0	58	0	131596288	48	4881
2026-01-22 20:17:43.42	223.84	20.13	-38.4	-40.6	21.2	0.00e+00	0	58	0	134742016	48	4630
2026-01-22 20:17:46.45	222.86	20.55	-38.1	-40.2	21.6	0.00e+00	0	58	0	138412032	48	4432
2026-01-22 20:17:49.48	221.84	20.98	-37.9	-39.9	21.9	0.00e+00	0	58	0	141557760	47	4539
2026-01-22 20:17:52.51	220.78	21.41	-38.1	-40.2	21.6	0.00e+00	0	58	0	145227776	47	4692
2026-01-22 20:17:55.54	219.69	21.84	-37.9	-40.0	21.9	0.00e+00	0	58	0	148373504	47	4547
2026-01-22 20:17:58.57	218.56	22.27	-37.5	-39.4	22.4	0.00e+00	0	58	0	152043520	47	4283
2026-01-22 20:18:01.59	217.40	22.70	-37.5	-39.5	22.4	0.00e+00	0	58	0	155189248	46	4555
2026-01-22 20:18:04.62	216.20	23.13	-37.9	-39.9	22.0	0.00e+00	0	58	0	158859264	46	4800
2026-01-22 20:18:07.65	214.95	23.55	-37.8	-39.8	22.1	0.00e+00	0	58	0	162004992	46	4716
2026-01-22 20:18:10.68	213.67	23.97	-37.4	-39.4	22.5	0.00e+00	0	58	0	165675008	46	4507
2026-01-22 20:18:13.70	212.35	24.39	-37.4	-39.4	22.5	0.00e+00	0	58	0	168820736	46	4507
2026-01-22 20:18:16.73	210.99	24.80	-37.5	-39.4	22.5	0.00e+00	0	58	0	172490752	46	4520
2026-01-22 20:18:19.76	209.58	25.20	-37.7	-39.7	22.2	0.00e+00	0	58	0	175636480	46	4652
2026-01-22 20:18:22.79	208.13	25.59	-37.5	-39.5	22.4	0.00e+00	0	58	0	179306496	46	4562
2026-01-22 20:18:25.82	206.64	25.98	-37.7	-39.7	22.2	0.00e+00	0	58	0	182452224	46	4666
2026-01-22 20:18:28.85	205.11	26.35	-37.1	-38.9	23.0	0.00e+00	0	58	0	186122240	46	4257
2026-01-22 20:18:31.88	203.54	26.70	-37.0	-38.8	23.1	0.00e+00	0	58	0	189267968	45	4471
2026-01-22 20:18:34.91	201.93	27.04	-37.2	-39.0	22.9	0.00e+00	0	58	0	192937984	45	4592
2026-01-22 20:18:37.94	200.28	27.36	-36.8	-38.6	23.3	0.00e+00	0	58	0	196083712	45	4355
2026-01-22 20:18:40.97	198.59	27.67	-36.9	-38.7	23.2	0.00e+00	0	58	0	199753728	45	4413
2026-01-22 20:18:43.99	196.87	27.95	-36.5	-38.2	23.7	0.00e+00	0	58	0	202899456	45	4189
2026-01-22 20:18:47.02	195.12	28.21	-37.0	-38.8	23.0	0.00e+00	0	58	0	206569472	45	4489
2026-01-22 20:18:50.05	193.33	28.44	-36.5	-38.3	23.6	0.00e+00	0	58	0	209715200	45	4209
2026-01-22 20:18:53.07	191.52	28.65	-36.7	-38.5	23.3	0.00e+00	0	59	0	213385216	44	4561
2026-01-22 20:18:56.10	189.68	28.83	-36.7	-38.5	23.4	0.00e+00	0	58	0	216530944	44	4558
2026-01-22 20:18:59.13	187.82	28.99	-37.3	-39.1	22.7	0.00e+00	0	58	0	220200960	45	4650
2026-01-22 20:19:02.16	185.94	29.11	-37.4	-39.3	22.6	0.00e+00	0	59	0	223346688	45	4723
2026-01-22 20:19:05.19	184.04	29.20	-37.3	-39.2	22.7	0.00e+00	0	59	0	227016704	45	4683
2026-01-22 20:19:08.22	182.14	29.26	-37.1	-39.0	22.9	0.00e+00	0	59	0	230162432	45	4578
2026-01-22 20:19:11.24	180.24	29.29	-37.3	-39.2	22.7	0.00e+00	0	58	0	233832448	45	4656
2026-01-22 20:19:14.27	178.32	29.29	-37.2	-39.0	22.8	0.00e+00	0	58	0	236978176	45	4585
2026-01-22 20:19:17.30	176.41	29.26	-37.4	-39.3	22.7	0.00e+00	0	58	0	240648192	45	4710
2026-01-22 20:19:20.33	174.51	29.19	-37.5	-39.4	22.9	0.00e+00	0	59	0	243793920	45	4765
2026-01-22 20:19:23.36	172.62	29.09	-37.4	-39.2	22.8	0.00e+00	0	59	0	247463936	45	4701
2026-01-22 20:19:26.39	170.74	28.97	-37.4	-39.3	22.6	0.00e+00	0	59	0	250609664	45	4736
2026-01-22 20:19:29.42	168.88	28.81	-36.9	-38.8	23.2	0.00e+00	0	59	0	254279680	45	4449
2026-01-22 20:19:32.45	167.04	28.62	-37.1	-39.0	22.9	0.00e+00	0	59	0	257425408	44	4843
2026-01-22 20:19:35.48	165.23	28.41	-37.4	-39.3	22.7	0.00e+00	0	59	0	261095424	45	4720
2026-01-22 20:19:38.51	163.45	28.17	-37.0	-38.8	23.2	0.00e+00	0	58	0	264241152	45	4478
2026-01-22 20:19:41.54	161.70	27.91	-37.0	-38.8	23.2	0.00e+00	0	59	0	267911168	45	4474
2026-01-22 20:19:44.56	159.99	27.63	-36.8	-38.6	23.4	0.00e+00	0	59	0	271056896	45	4350
2026-01-22 20:19:47.60	158.30	27.32	-36.5	-38.3	23.6	0.00e+00	0	59	0	274726912	45	4221
2026-01-22 20:19:50.62	156.66	27.00	-36.9	-38.7	23.2	0.00e+00	0	59	0	277872640	44	4704
2026-01-22 20:19:53.65	155.06	26.65	-37.5	-39.4	22.7	0.00e+00	0	59	0	281542656	45	4793
2026-01-22 20:19:56.68	153.49	26.30	-37.0	-38.8	23.2	0.00e+00	0	59	0	284688384	45	4485
2026-01-22 20:19:59.71	151.97	25.92	-37.4	-39.3	22.9	0.00e+00	0	59	0	288358400	45	4736
2026-01-22 20:20:02.74	150.48	25.54	-38.1	-40.1	22.1	0.00e+00	0	59	0	291504128	46	4925
2026-01-22 20:20:05.76	149.05	25.15	-37.9	-40.0	22.2	0.00e+00	0	59	0	295174144	46	4822
2026-01-22 20:20:08.79	147.65	24.75	-37.8	-39.8	22.3	0.00e+00	0	59	0	298319872	46	4729
2026-01-22 20:20:11.82	146.29	24.33	-37.7	-39.7	22.5	0.00e+00	0	59	0	301989888	46	4659
2026-01-22 20:20:14.85	144.97	23.92	-37.3	-39.3	22.9	0.00e+00	0	59	0	305135616	46	4446
2026-01-22 20:20:17.88	143.69	23.50	-38.0	-40.0	22.1	0.00e+00	0	59	0	308805632	46	4850
2026-01-22 20:20:20.91	142.46	23.07	-37.6	-39.6	22.5	0.00e+00	0	59	0	311951360	46	4643
2026-01-22 20:20:23.93	141.26	22.64	-37.8	-39.9	22.3	0.00e+00	0	59	0	315621376	46	4780
2026-01-22 20:20:26.96	140.10	22.22	-37.8	-39.9	22.2	0.00e+00	0	59	0	318767104	46	4792
2026-01-22 20:20:29.99	138.98	21.79	-37.9	-39.9	22.1	0.00e+00	0	59	0	322437120	46	4812
2026-01-22 20:20:33.02	137.90	21.36	-38.0	-40.2	22.0	0.00e+00	0	59	0	325582848	46	4933
2026-01-22 20:20:36.05	136.85	20.93	-38.4	-40.5	21.6	0.00e+00	0	59	0	329252864	47	4867
2026-01-22 20:20:39.08	135.83	20.50	-38.1	-40.2	21.8	0.00e+00	0	59	0	332398592	47	4697
2026-01-22 20:20:42.11	134.85	20.07	-38.3	-40.5	21.6	0.00e+00	0	59	0	336068608	47	4840
2026-01-22 20:20:45.13	133.90	19.65	-38.3	-40.4	21.6	0.00e+00	0	59	0	339214336	47	4803
2026-01-22 20:20:48.16	132.98	19.23	-38.5	-40.8	21.3	0.00e+00	0	59	0	342884352	47	4998
2026-01-22 20:20:51.19	132.10	18.82	-38.5	-40.7	21.2	0.00e+00	0	59	0	346030080	47	4982
2026-01-22 20:20:54.22	131.24	18.41	-38.6	-40.9	20.8	9.10e-06	0	59	0	349700096	47	5064
2026-01-22 20:20:57.25	130.41	18.00	-38.6	-40.9	20.9	4.00e-05	0	59	0	352845824	47	5043
2026-01-22 20:21:00.28	129.60	17.60	-38.5	-41.0	20.7	2.20e-06	0	59	0	355991552	47	5146
2026-01-22 20:21:03.30	128.83	17.20	-38.7	-41.1	20.8	9.10e-06	0	59	0	359661568	47	5163
2026-01-22 20:21:06.33	128.08	16.80	-38.8	-41.2	20.7	3.40e-06	0	59	0	363331584	48	4955
2026-01-22 20:21:09.36	127.35	16.42	-39.1	-41.6	20.2	2.63e-05	0	59	0	366477312	48	5209
2026-01-22 20:21:12.39	126.64	16.03	-39.0	-41.5	19.8	0.00e+00	0	59	0	370147328	48	5123
2026-01-22 20:21:15.42	125.96	15.65	-39.2	-41.8	20.0	5.70e-06	0	59	0	373293056	48	5285
2026-01-22 20:21:18.44	125.30	15.28	-39.4	-42.0	19.6	1.10e-06	0	59	0	376963072	49	5154
2026-01-22 20:21:21.47	124.66	14.91	-38.7	-42.2	18.3	1.01e-03	0	59	0	380108800	48	5558
2026-01-22 20:21:24.50	124.04	14.55	-39.5	-42.5	15.8	4.57e-05	0	59	0	383778816	49	5431
2026-01-22 20:21:27.53	123.44	14.19	-39.4	-42.4	19.0	1.74e-04	0	59	0	386924544	49	5342
2026-01-22 20:21:30.56	122.86	13.84	-37.2	-42.5	17.2	8.56e-04	0	59	0	390594560	48	5723
2026-01-22 20:21:33.59	122.30	13.49	-37.0	-42.8	14.5	5.73e-04	0	59	0	393740288	46	6664
2026-01-22 20:21:36.61	121.75	13.15	-36.3	-42.8	13.2	3.00e-03	0	59	0	396886016	44	7487
2026-01-22 20:21:39.64	121.22	12.81	-37.0	-43.1	13.7	1.23e-02	0	59	0	400556032	43	8197
2026-01-22 20:21:42.67	120.70	12.47	-37.8	-43.1	15.3	9.88e-03	0	59	0	403701760	45	7310
2026-01-22 20:21:45.70	120.20	12.15	-38.5	-43.2	14.2	2.03e-02	0	59	0	407371776	46	6980
2026-01-22 20:21:48.73	119.72	11.82	-32.8	-42.9	13.5	3.17e-02	0	59	0	410517504	44	7605
2026-01-22 20:21:51.76	119.25	11.50	-35.8	-43.1	13.2	4.23e-02	0	59	0	414187520	42	8759
2026-01-22 20:21:54.78	118.79	11.19	-34.7	-42.8	10.1	1.12e-01	0	59	0	417333248	39	10044
2026-01-22 20:21:57.81	118.34	10.88	-34.7	-44.2	10.7	4.75e-02	0	59	0	421003264	39	11696
2026-01-22 20:22:00.84	117.91	10.58	-27.9	-41.9	6.3	2.24e-01	0	59	0	423624704	23	22673
2026-01-22 20:22:03.87	117.49	10.28	-28.3	-43.2	8.1	4.36e-01	0	59	0	425721856	27	20917
2026-01-22 20:22:06.90	117.08	9.98	-27.6	-41.5	6.2	5.22e-01	0	59	0	427294720	21	24258
2026-01-22 20:22:09.93	116.68	9.69	-26.8	-42.9	5.5	6.46e-01	0	59	0	428343296	21	28636
2026-01-22 20:22:12.96	116.29	9.40	-25.0	-46.8	3.9	7.83e-01	0	59	104	428343296	23	40016
2026-01-22 20:22:15.99	115.92	9.12	-23.5	-43.6	3.7	8.35e-01	0	59	104	428343296	16	41406
2026-01-22 20:22:19.02	115.55	8.84	-23.4	-44.7	4.0	8.35e-01	0	60	104	428343296	17	44383
2026-01-22 20:22:22.04	115.19	8.56	-24.0	-44.3	3.9	8.36e-01	0	60	104	428343296	18	39897
2026-01-22 20:22:25.07	114.84	8.29	-23.1	-41.7	3.9	8.39e-01	0	60	104	428343296	17	31107
2026-01-22 20:22:28.10	114.50	8.02	-23.2	-43.4	3.8	7.60e-01	0	59	104	428343296	17	38052
2026-01-22 20:22:31.13	114.17	7.75	-44.9	-63.1	3.8	8.45e-01	0	59	104	428343296	60	30754
2026-01-22 20:22:34.16	113.85	7.49	-45.4	-63.7	3.8	8.46e-01	0	60	104	428343296	61	31282
2026-01-22 20:22:37.19	113.54	7.23	-45.8	-64.1	3.8	8.46e-01	0	60	104	428343296	62	30851
2026-01-22 20:22:40.22	113.23	6.98	-45.6	-63.8	3.8	8.44e-01	0	59	104	428343296	62	29865
2026-01-22 20:22:43.26	112.93	6.73	-45.4	-63.5	3.8	8.46e-01	0	60	104	428343296	62	28853
2026-01-22 20:22:46.29	112.64	6.48	-45.3	-63.3	3.8	8.46e-01	0	60	104	428343296	62	28253
2026-01-22 20:22:49.32	112.35	6.23	-45.3	-63.3	3.8	8.47e-01	0	59	104	428343296	62	28303
2026-01-22 20:22:52.35	112.08	5.99	-45.3	-63.3	3.8	8.46e-01	0	60	104	428343296	62	28331
2026-01-22 20:22:55.38	111.80	5.75	-45.3	-63.3	3.8	8.46e-01	0	60	104	428343296	62	28285
2026-01-22 20:22:58.41	111.54	5.51	-45.2	-63.4	3.8	8.46e-01	0	60	104	428343296	62	28388
2026-01-22 20:23:01.44	111.28	5.28	-45.2	-63.3	3.8	8.45e-01	0	60	104	428343296	62	28231
2026-01-22 20:23:04.47	111.03	5.05	-45.2	-63.3	3.8	8.46e-01	0	60	104	428343296	61	29963
2026-01-22 20:23:07.50	110.78	4.82	-45.2	-63.3	3.8	8.47e-01	0	60	104	428343296	61	29889
2026-01-22 20:23:10.53	110.54	4.59	-45.2	-63.3	3.8	8.47e-01	0	60	104	428343296	61	29843
2026-01-22 20:23:13.56	110.30	4.37	-45.2	-63.3	3.8	8.47e-01	0	60	104	428343296	61	29863
2026-01-22 20:23:16.59	110.07	4.15	-45.2	-63.3	3.8	8.46e-01	0	59	104	428343296	61	29783
2026-01-22 20:23:19.63	109.84	3.93	-45.2	-63.3	3.8	8.45e-01	0	60	104	428343296	61	29836
2026-01-22 20:23:22.66	109.62	3.71	-45.2	-63.3	3.8	8.47e-01	0	60	104	428343296	61	29793
2026-01-22 20:23:25.69	109.41	3.50	-45.2	-63.3	3.8	8.46e-01	0	60	104	428343296	61	29805
2026-01-22 20:23:28.72	109.19	3.29	-45.2	-63.3	3.8	8.46e-01	0	60	104	428343296	61	29802
2026-01-22 20:23:31.75	108.99	3.08	-45.2	-63.3	3.8	8.45e-01	0	60	104	428343296	61	29773
2026-01-22 20:23:34.78	108.78	2.87	-45.2	-63.3	3.8	8.45e-01	0	60	104	428343296	61	29733
2026-01-22 20:23:37.81	108.58	2.66	-45.2	-63.3	3.8	8.45e-01	0	60	104	428343296	61	29701
2026-01-22 20:23:40.84	108.39	2.46	-45.2	-63.3	3.8	8.46e-01	0	60	104	428343296	61	29695
2026-01-22 20:23:43.87	108.20	2.26	-45.2	-63.2	3.8	8.46e-01	0	60	104	428343296	61	29671
2026-01-22 20:23:46.89	108.01	2.06	-45.2	-63.3	3.8	8.46e-01	0	60	104	428343296	61	29708

#Closed at: 2026-01-22 20:23:49
#Recorded file [428 MB]: D:/lorett/data/31039_260122_231438.dat