passes_logs/2026/01/22/R2.0S_Moscow/R2.0S_Moscow__20260122_015427_NOAA_21_JPSS-2_rec.log

#Pass ID: 20260122_015427_NOAA 21 (JPSS-2)
#Satellite: NOAA 21 (JPSS-2)
#Configuration: NOAA-21
#almurnet v.1.7.20251203
#Start time: 2026-01-22 01:55:55

#Version: 2.2.20231116
#Station: R2.0S_Moscow
#Location: 37.707566 lon 55.798166 lat
#TLE: 1 54234U 22150A   26020.93347024  .00000206  00000+0  11859-3 0  9994
#TLE: 2 54234  98.7506 321.7615 0000627 245.8100 114.3011 14.19536899165654

#Time	Az	El	Level	Level2	SNR	BER	BlckErr	Temp	State	Recorded	gain1	gain2
2026-01-22 01:55:55.00	0.13	6.51	-45.1	-56.8	3.8	8.48e-01	0	58	0	0	61	14143
2026-01-22 01:55:58.02	359.78	6.67	-45.4	-57.9	3.8	1.49e+00	0	58	104	0	62	15107
2026-01-22 01:56:01.05	359.43	6.82	-45.2	-57.7	3.8	1.49e+00	0	58	104	0	62	14767
2026-01-22 01:56:04.08	359.07	6.98	-44.2	-56.6	3.8	1.49e+00	0	58	104	0	60	14644
2026-01-22 01:56:07.11	358.71	7.14	-40.4	-52.8	3.8	1.49e+00	0	58	104	0	52	14900
2026-01-22 01:56:10.14	358.34	7.29	-40.4	-52.7	3.8	1.49e+00	0	58	104	0	52	14859
2026-01-22 01:56:13.17	357.98	7.45	-40.4	-52.7	3.8	1.49e+00	0	58	104	0	52	14832
2026-01-22 01:56:16.20	357.60	7.61	-40.4	-52.7	3.8	1.49e+00	0	58	104	0	52	14873
2026-01-22 01:56:19.24	357.22	7.76	-40.4	-52.7	3.8	1.49e+00	0	58	104	0	52	14836
2026-01-22 01:56:22.27	356.84	7.92	-40.4	-52.7	3.8	1.49e+00	0	58	104	0	52	14828
2026-01-22 01:56:25.30	356.45	8.08	-40.4	-52.7	3.8	1.49e+00	0	58	104	0	52	14787
2026-01-22 01:56:28.33	356.06	8.23	-40.4	-52.7	3.8	1.49e+00	0	58	104	0	52	14775
2026-01-22 01:56:31.36	355.67	8.39	-40.4	-52.7	3.8	1.49e+00	0	58	104	0	52	14811
2026-01-22 01:56:34.39	355.27	8.54	-40.4	-52.7	3.8	1.49e+00	0	58	104	0	52	14729
2026-01-22 01:56:37.43	354.87	8.70	-40.4	-52.7	3.8	1.49e+00	0	58	104	0	52	14768
2026-01-22 01:56:40.46	354.46	8.85	-40.4	-52.7	3.8	1.49e+00	0	58	104	0	52	14784
2026-01-22 01:56:43.49	354.05	9.00	-40.3	-52.7	3.8	1.49e+00	0	58	104	0	52	14760
2026-01-22 01:56:46.52	353.63	9.16	-40.3	-52.7	3.8	1.49e+00	0	58	104	0	52	14794
2026-01-22 01:56:49.55	353.21	9.31	-40.4	-52.7	3.8	1.49e+00	0	58	104	0	52	14816
2026-01-22 01:56:52.58	352.78	9.46	-40.5	-52.9	3.8	1.49e+00	0	58	104	0	52	15052
2026-01-22 01:56:55.61	352.35	9.61	-40.7	-53.0	3.8	1.49e+00	0	58	104	0	52	15396
2026-01-22 01:56:58.64	351.92	9.76	-40.7	-53.0	3.8	1.49e+00	0	58	104	0	52	15400
2026-01-22 01:57:01.67	351.48	9.91	-40.7	-53.0	3.8	1.49e+00	0	58	104	0	52	15387
2026-01-22 01:57:04.70	351.03	10.06	-40.6	-53.0	3.8	1.49e+00	0	58	104	0	52	15344
2026-01-22 01:57:07.72	350.58	10.21	-40.7	-53.1	3.8	1.49e+00	0	58	104	0	52	15425
2026-01-22 01:57:10.75	350.13	10.36	-40.8	-53.1	3.8	1.49e+00	0	58	104	0	52	15482
2026-01-22 01:57:13.79	349.67	10.51	-40.8	-53.1	3.8	1.49e+00	0	58	104	0	52	15505
2026-01-22 01:57:16.81	349.21	10.65	-40.9	-53.3	3.8	1.49e+00	0	58	104	0	52	15893
2026-01-22 01:57:19.84	348.74	10.80	-40.9	-53.3	3.8	1.49e+00	0	58	104	0	52	15765
2026-01-22 01:57:22.87	348.27	10.94	-41.2	-53.5	3.8	1.49e+00	0	58	104	0	52	16279
2026-01-22 01:57:25.90	347.79	11.08	-41.1	-53.5	3.8	1.49e+00	0	58	104	0	52	16170
2026-01-22 01:57:28.93	347.31	11.23	-41.2	-53.5	3.8	1.49e+00	0	58	104	0	53	15357
2026-01-22 01:57:31.96	346.82	11.37	-41.2	-53.5	3.8	1.49e+00	0	58	104	0	53	15299
2026-01-22 01:57:34.98	346.33	11.50	-40.9	-53.3	3.8	1.49e+00	0	58	104	0	53	14923
2026-01-22 01:57:38.01	345.84	11.64	-40.8	-53.2	3.8	1.49e+00	0	58	104	0	53	14746
2026-01-22 01:57:41.04	345.34	11.78	-40.9	-53.3	3.8	1.49e+00	0	58	104	0	53	14917
2026-01-22 01:57:44.07	344.83	11.91	-40.9	-53.2	3.8	1.49e+00	0	58	104	0	53	14780
2026-01-22 01:57:47.09	344.32	12.05	-40.7	-53.0	3.8	1.49e+00	0	58	104	0	53	14445
2026-01-22 01:57:50.12	343.81	12.18	-40.8	-53.1	3.8	1.49e+00	0	58	104	0	53	14600
2026-01-22 01:57:53.15	343.29	12.31	-40.8	-53.1	3.8	1.49e+00	0	58	104	0	53	14634
2026-01-22 01:57:56.18	342.76	12.44	-40.7	-52.9	3.8	1.49e+00	0	58	104	0	53	14359
2026-01-22 01:57:59.21	342.23	12.57	-40.6	-52.9	3.8	1.49e+00	0	58	104	0	53	14321
2026-01-22 01:58:02.23	341.70	12.69	-40.6	-52.9	3.8	1.49e+00	0	58	104	0	53	14336
2026-01-22 01:58:05.26	341.16	12.82	-40.7	-53.1	3.8	1.49e+00	0	58	104	0	53	14593
2026-01-22 01:58:08.29	340.62	12.94	-40.6	-53.0	3.8	1.49e+00	0	58	104	0	53	14378
2026-01-22 01:58:11.32	340.07	13.06	-41.3	-52.6	3.8	1.49e+00	0	58	104	0	53	13864
2026-01-22 01:58:14.35	339.52	13.17	-41.9	-52.8	3.8	1.49e+00	0	58	104	0	54	13287
2026-01-22 01:58:17.38	338.96	13.29	-41.4	-47.2	6.4	2.87e-01	0	58	0	7340032	54	7009
2026-01-22 01:58:20.41	338.40	13.40	-40.7	-44.8	9.1	3.15e-02	0	58	0	16777216	53	5612
2026-01-22 01:58:23.44	337.84	13.51	-40.1	-43.2	11.2	1.18e-03	0	58	0	26214400	51	5222
2026-01-22 01:58:26.47	337.27	13.62	-40.1	-43.0	11.7	8.10e-04	0	58	0	35651584	51	5112
2026-01-22 01:58:29.49	336.69	13.73	-40.3	-43.2	11.7	8.10e-04	0	58	0	45088768	51	5245
2026-01-22 01:58:32.52	336.12	13.83	-40.4	-43.3	11.6	7.67e-04	0	58	0	54525952	51	5332
2026-01-22 01:58:35.55	335.53	13.94	-40.1	-42.9	12.2	2.07e-04	0	58	0	63963136	51	5047
2026-01-22 01:58:38.58	334.95	14.04	-40.3	-43.1	12.1	3.58e-04	0	58	0	73400320	51	5191
2026-01-22 01:58:41.61	334.36	14.13	-40.3	-43.1	12.1	2.93e-04	0	58	0	82837504	51	5179
2026-01-22 01:58:44.63	333.77	14.23	-40.3	-43.1	12.2	2.37e-04	0	58	0	92274688	51	5162
2026-01-22 01:58:47.66	333.17	14.32	-40.4	-43.1	12.2	2.28e-04	0	58	0	101711872	51	5211
2026-01-22 01:58:50.69	332.57	14.40	-40.3	-43.0	12.4	1.58e-04	0	58	0	111149056	51	5156
2026-01-22 01:58:53.72	331.96	14.49	-40.2	-42.8	12.6	7.01e-05	0	58	0	120586240	51	5021
2026-01-22 01:58:56.75	331.35	14.57	-40.2	-42.8	12.6	9.91e-05	0	58	0	130023424	51	5038
2026-01-22 01:58:59.77	330.74	14.65	-40.2	-42.8	12.6	1.05e-04	0	58	0	139460608	51	5019
2026-01-22 01:59:02.80	330.13	14.73	-40.2	-42.7	12.8	7.78e-05	0	58	0	148897792	51	4965
2026-01-22 01:59:05.83	329.51	14.80	-40.1	-42.6	12.9	6.25e-05	0	58	0	158334976	51	4902
2026-01-22 01:59:08.86	328.89	14.87	-40.2	-42.7	12.8	7.01e-05	0	58	0	167772160	51	4954
2026-01-22 01:59:11.89	328.26	14.94	-40.2	-42.8	12.7	8.16e-05	0	58	0	177209344	51	5002
2026-01-22 01:59:14.92	327.63	15.00	-40.3	-42.8	12.7	7.24e-05	0	58	0	186646528	51	5020
2026-01-22 01:59:17.95	327.00	15.06	-40.2	-42.8	12.8	7.55e-05	0	58	0	196083712	51	4993
2026-01-22 01:59:20.98	326.37	15.12	-40.2	-42.8	12.8	5.41e-05	0	58	0	205520896	51	4984
2026-01-22 01:59:24.01	325.74	15.18	-40.2	-42.6	12.9	4.65e-05	0	58	0	214958080	51	4926
2026-01-22 01:59:27.04	325.10	15.23	-40.1	-42.6	12.9	4.65e-05	0	58	0	224395264	51	4908
2026-01-22 01:59:30.07	324.46	15.27	-40.1	-42.5	13.0	3.12e-05	0	58	0	233832448	51	4855
2026-01-22 01:59:33.10	323.82	15.32	-40.2	-42.8	12.8	5.49e-05	0	58	0	243269632	51	4994
2026-01-22 01:59:36.12	323.18	15.36	-40.3	-42.9	12.7	7.85e-05	0	58	0	252706816	51	5056
2026-01-22 01:59:39.15	322.53	15.39	-40.3	-42.9	12.6	1.36e-04	0	58	0	262144000	51	5089
2026-01-22 01:59:42.18	321.89	15.42	-40.0	-42.4	13.2	2.89e-05	0	58	0	272629760	51	4784
2026-01-22 01:59:45.21	321.24	15.45	-40.0	-42.4	13.1	2.21e-05	0	58	0	282066944	51	4798
2026-01-22 01:59:48.24	320.59	15.48	-40.2	-42.7	12.9	4.95e-05	0	58	0	291504128	51	4939
2026-01-22 01:59:51.27	319.94	15.50	-40.3	-42.8	12.8	6.17e-05	0	58	0	300941312	51	5029
2026-01-22 01:59:54.29	319.29	15.52	-40.4	-43.1	12.5	1.20e-04	0	58	0	310378496	51	5173
2026-01-22 01:59:57.32	318.64	15.53	-40.3	-42.8	12.8	8.08e-05	0	58	0	319815680	51	5023
2026-01-22 02:00:00.35	317.98	15.54	-40.3	-42.8	12.8	8.01e-05	0	58	0	329252864	51	5026
2026-01-22 02:00:03.38	317.33	15.55	-40.4	-43.0	12.6	8.54e-05	0	58	0	338690048	51	5130
2026-01-22 02:00:06.41	316.68	15.55	-40.3	-42.9	12.7	8.46e-05	0	58	0	348127232	51	5055
2026-01-22 02:00:09.44	316.03	15.55	-40.3	-42.8	12.7	6.56e-05	0	58	0	357564416	51	5037
2026-01-22 02:00:12.46	315.37	15.55	-40.3	-42.9	12.7	8.54e-05	0	58	0	367001600	51	5049
2026-01-22 02:00:15.49	314.72	15.54	-40.3	-42.9	12.7	8.08e-05	0	58	0	376438784	51	5066
2026-01-22 02:00:18.52	314.07	15.53	-40.3	-42.9	12.7	6.25e-05	0	58	0	385875968	51	5078
2026-01-22 02:00:21.55	313.42	15.51	-40.4	-43.1	12.5	1.11e-04	0	58	0	395313152	51	5164
2026-01-22 02:00:24.58	312.77	15.49	-40.4	-43.1	12.5	1.02e-04	0	58	0	404750336	51	5167
2026-01-22 02:00:27.61	312.12	15.47	-40.3	-42.9	12.7	6.63e-05	0	58	0	414187520	51	5059
2026-01-22 02:00:30.63	311.47	15.44	-40.4	-43.0	12.6	1.04e-04	0	58	0	423624704	51	5102
2026-01-22 02:00:33.66	310.82	15.41	-40.4	-43.0	12.5	1.06e-04	0	58	0	433061888	51	5158
2026-01-22 02:00:36.69	310.17	15.38	-40.4	-43.0	12.5	1.08e-04	0	58	0	442499072	51	5133
2026-01-22 02:00:39.73	309.53	15.34	-40.4	-43.1	12.5	1.39e-04	0	58	0	451936256	51	5178
2026-01-22 02:00:42.76	308.88	15.30	-40.4	-43.1	12.4	1.33e-04	0	58	0	461373440	51	5198
2026-01-22 02:00:45.78	308.24	15.26	-40.3	-42.9	12.6	9.30e-05	0	58	0	470810624	51	5091
2026-01-22 02:00:48.81	307.60	15.21	-40.3	-42.9	12.6	9.23e-05	0	58	0	480247808	51	5077
2026-01-22 02:00:51.85	306.96	15.16	-40.4	-43.1	12.4	9.53e-05	0	58	0	489684992	51	5192
2026-01-22 02:00:54.87	306.33	15.10	-40.6	-43.4	12.2	2.26e-04	0	58	0	499122176	51	5344
2026-01-22 02:00:57.90	305.70	15.04	-40.2	-42.8	12.7	7.62e-05	0	58	0	508559360	51	4988
2026-01-22 02:01:00.93	305.07	14.98	-40.2	-42.8	12.7	7.78e-05	0	58	0	517996544	51	4997
2026-01-22 02:01:03.96	304.44	14.91	-40.0	-42.5	13.0	3.89e-05	0	58	0	527433728	51	4836
2026-01-22 02:01:06.99	303.82	14.85	-40.3	-42.9	12.6	7.24e-05	0	58	0	536870912	51	5058
2026-01-22 02:01:10.02	303.19	14.77	-40.2	-42.8	12.7	8.23e-05	0	58	0	546308096	51	5019
2026-01-22 02:01:13.05	302.57	14.70	-40.3	-42.9	12.5	1.01e-04	0	58	0	555745280	51	5093
2026-01-22 02:01:16.08	301.96	14.62	-40.1	-42.7	12.8	6.02e-05	0	58	0	565182464	51	4940
2026-01-22 02:01:19.10	301.35	14.54	-40.0	-42.4	13.0	3.20e-05	0	58	0	574619648	51	4813
2026-01-22 02:01:22.14	300.74	14.46	-40.2	-42.7	12.7	6.40e-05	0	58	0	584056832	51	4963
2026-01-22 02:01:25.16	300.13	14.37	-40.3	-42.9	12.5	1.14e-04	0	58	0	593494016	51	5100
2026-01-22 02:01:28.19	299.53	14.28	-40.2	-42.8	12.7	1.05e-04	0	58	0	602931200	51	5015
2026-01-22 02:01:31.22	298.93	14.19	-40.1	-42.7	12.6	9.46e-05	0	58	0	612368384	51	4977
2026-01-22 02:01:34.25	298.34	14.09	-40.3	-42.9	12.4	1.36e-04	0	58	0	621805568	51	5100
2026-01-22 02:01:37.27	297.75	14.00	-40.4	-43.1	12.2	2.10e-04	0	58	0	632291328	51	5204
2026-01-22 02:01:40.30	297.16	13.90	-40.2	-42.9	12.3	1.84e-04	0	58	0	640679936	51	5095
2026-01-22 02:01:43.33	296.58	13.79	-40.1	-42.7	12.4	1.75e-04	0	58	0	651165696	51	4982
2026-01-22 02:01:46.36	296.00	13.69	-39.8	-42.4	12.6	1.17e-04	0	58	0	660602880	51	4793
2026-01-22 02:01:49.38	295.43	13.58	-39.7	-42.3	12.7	6.56e-05	0	58	0	670040064	51	4726
2026-01-22 02:01:52.41	294.86	13.47	-40.0	-42.7	12.1	2.28e-04	0	58	0	679477248	51	4969
2026-01-22 02:01:55.45	294.29	13.36	-40.2	-43.2	11.6	6.72e-04	0	58	0	688914432	51	5230
2026-01-22 02:01:58.48	293.73	13.24	-40.1	-43.1	11.6	7.03e-04	0	58	0	698351616	51	5183
2026-01-22 02:02:01.51	293.17	13.13	-40.2	-43.3	11.1	1.25e-03	0	58	0	707788800	51	5333
2026-01-22 02:02:04.54	292.62	13.01	-40.2	-43.5	10.7	2.83e-03	0	58	0	717225984	51	5442
2026-01-22 02:02:07.57	292.07	12.89	-40.0	-43.1	11.1	1.79e-03	0	58	0	726663168	51	5203
2026-01-22 02:02:10.60	291.53	12.76	-40.0	-43.2	10.9	2.09e-03	0	58	0	736100352	51	5247
2026-01-22 02:02:13.63	290.99	12.64	-40.1	-43.6	10.3	5.31e-03	0	58	0	745537536	51	5519
2026-01-22 02:02:16.66	290.46	12.51	-40.3	-43.9	10.0	7.52e-03	0	58	0	754974720	51	5679
2026-01-22 02:02:19.69	289.93	12.38	-40.2	-44.0	9.7	1.11e-02	0	58	0	764411904	51	5752
2026-01-22 02:02:22.72	289.40	12.25	-40.5	-44.6	9.0	2.20e-02	0	58	0	773849088	51	6177
2026-01-22 02:02:25.74	288.88	12.12	-40.5	-45.0	8.3	4.71e-02	0	58	0	783286272	51	6439
2026-01-22 02:02:28.77	288.37	11.99	-40.7	-45.5	7.9	6.95e-02	0	58	0	792723456	51	6813
2026-01-22 02:02:31.80	287.85	11.86	-40.9	-46.4	6.8	1.71e-01	0	58	0	802160640	52	7146
2026-01-22 02:02:34.82	287.35	11.72	-41.0	-47.8	5.5	3.87e-01	0	58	0	811597824	52	8396
2026-01-22 02:02:37.85	286.85	11.58	-41.4	-51.0	4.1	1.48e+00	0	59	104	816840704	53	11488
2026-01-22 02:02:40.88	286.35	11.44	-41.4	-49.2	4.8	7.93e-01	0	59	0	817889280	54	8765
2026-01-22 02:02:43.91	285.86	11.30	-42.0	-49.3	5.1	6.25e-01	0	58	0	818937856	54	8946
2026-01-22 02:02:46.94	285.37	11.16	-42.0	-51.8	3.9	1.38e+00	0	58	104	819986432	55	11251
2026-01-22 02:02:49.97	284.89	11.02	-41.8	-49.7	4.7	1.12e+00	0	59	104	819986432	55	8847
2026-01-22 02:02:52.99	284.41	10.88	-41.2	-53.1	3.8	1.49e+00	0	59	104	824180736	54	13766
2026-01-22 02:02:56.02	283.94	10.73	-41.3	-46.9	6.5	3.73e-01	0	59	0	825229312	54	6773
2026-01-22 02:02:59.05	283.47	10.59	-41.0	-46.0	7.4	1.13e-01	0	58	0	834666496	54	6124
2026-01-22 02:03:02.08	283.01	10.44	-42.6	-51.1	4.3	1.20e+00	0	58	104	843055104	55	10326
2026-01-22 02:03:05.11	282.55	10.29	-42.4	-50.8	4.0	1.05e+00	0	59	104	847249408	55	10058
2026-01-22 02:03:08.13	282.09	10.14	-40.4	-44.5	8.8	3.20e-02	0	58	0	850395136	52	5786
2026-01-22 02:03:11.16	281.64	9.99	-40.6	-44.9	8.6	3.47e-02	0	58	0	860880896	52	6056
2026-01-22 02:03:14.19	281.20	9.84	-40.9	-45.7	7.7	8.63e-02	0	59	0	870318080	52	6641
2026-01-22 02:03:17.22	280.76	9.69	-40.8	-45.7	7.7	8.95e-02	0	58	0	879755264	52	6604
2026-01-22 02:03:20.24	280.32	9.54	-41.0	-46.9	6.4	3.04e-01	0	58	0	889192448	52	7545
2026-01-22 02:03:23.27	279.89	9.39	-40.6	-50.2	4.0	1.48e+00	0	59	104	893386752	52	11063
2026-01-22 02:03:26.30	279.47	9.24	-40.7	-47.3	5.7	3.86e-01	0	58	0	900726784	52	7900
2026-01-22 02:03:29.33	279.04	9.09	-40.8	-48.7	4.7	7.05e-01	0	59	0	910163968	52	9339
2026-01-22 02:03:32.36	278.62	8.93	-40.4	-51.2	3.8	1.49e+00	0	59	104	910163968	52	12481
2026-01-22 02:03:35.39	278.21	8.78	-40.7	-50.8	4.0	1.48e+00	0	58	104	910163968	53	11191
2026-01-22 02:03:38.42	277.80	8.62	-40.4	-51.8	3.8	1.49e+00	0	59	104	910163968	52	13267
2026-01-22 02:03:41.45	277.40	8.47	-40.7	-52.1	3.8	1.49e+00	0	58	104	910163968	53	13033
2026-01-22 02:03:44.48	277.00	8.31	-40.3	-52.3	3.8	1.49e+00	0	59	104	910163968	52	14129
2026-01-22 02:03:47.51	276.60	8.16	-40.4	-52.5	3.8	1.49e+00	0	59	104	910163968	52	14380
2026-01-22 02:03:50.54	276.21	8.00	-40.2	-52.4	3.8	1.49e+00	0	59	104	910163968	52	14250
2026-01-22 02:03:53.57	275.82	7.84	-44.9	-57.4	3.8	1.49e+00	0	59	104	910163968	60	15980
2026-01-22 02:03:56.60	275.44	7.69	-45.2	-57.6	3.8	1.49e+00	0	59	104	910163968	60	16469
2026-01-22 02:03:59.63	275.06	7.53	-45.3	-57.7	3.8	1.49e+00	0	59	104	910163968	61	15634
2026-01-22 02:04:02.67	274.68	7.37	-45.2	-57.6	3.8	1.49e+00	0	59	104	910163968	61	15554
2026-01-22 02:04:05.70	274.31	7.21	-45.2	-57.6	3.8	1.49e+00	0	59	104	910163968	61	15468
2026-01-22 02:04:08.73	273.95	7.06	-45.2	-57.6	3.8	1.49e+00	0	59	104	910163968	61	15408
2026-01-22 02:04:11.76	273.58	6.90	-45.2	-57.6	3.8	1.49e+00	0	59	104	910163968	61	15424
2026-01-22 02:04:14.80	273.22	6.74	-45.2	-57.5	3.8	1.49e+00	0	59	104	910163968	61	15353
2026-01-22 02:04:17.83	272.87	6.58	-45.2	-57.5	3.8	1.49e+00	0	59	104	910163968	61	15325
2026-01-22 02:04:20.86	272.52	6.43	-45.2	-57.5	3.8	1.49e+00	0	59	104	910163968	61	15328
2026-01-22 02:04:23.89	272.17	6.27	-45.2	-57.5	3.8	1.49e+00	0	59	104	910163968	61	15370
2026-01-22 02:04:26.92	271.83	6.11	-45.2	-57.5	3.8	1.49e+00	0	59	104	910163968	61	15344
2026-01-22 02:04:29.96	271.48	5.95	-45.1	-57.5	3.8	1.49e+00	0	59	104	910163968	61	15341
2026-01-22 02:04:32.99	271.15	5.79	-45.2	-57.5	3.8	1.49e+00	0	59	104	910163968	61	15339
2026-01-22 02:04:36.02	270.82	5.64	-45.1	-57.5	3.8	1.49e+00	0	59	104	910163968	61	15326
2026-01-22 02:04:39.05	270.49	5.48	-45.1	-57.5	3.8	1.49e+00	0	59	104	910163968	61	15315
2026-01-22 02:04:42.08	270.16	5.32	-45.1	-57.5	3.8	1.49e+00	0	59	104	910163968	61	15272
2026-01-22 02:04:45.12	269.84	5.16	-45.1	-57.5	3.8	1.49e+00	0	59	104	910163968	61	15314
2026-01-22 02:04:48.15	269.52	5.00	-45.1	-57.5	3.8	1.49e+00	0	59	104	910163968	61	15352
2026-01-22 02:04:51.18	269.21	4.85	-45.1	-57.5	3.8	1.49e+00	0	59	104	910163968	61	15306
2026-01-22 02:04:54.22	268.90	4.69	-45.1	-57.5	3.8	1.49e+00	0	59	104	910163968	61	15297
2026-01-22 02:04:57.25	268.59	4.53	-45.1	-57.5	3.8	1.49e+00	0	59	104	910163968	61	15292
2026-01-22 02:05:00.28	268.28	4.38	-45.1	-57.5	3.8	1.49e+00	0	59	104	910163968	61	15363
2026-01-22 02:05:03.31	267.98	4.22	-45.1	-57.5	3.8	1.49e+00	0	59	104	910163968	61	15285
2026-01-22 02:05:06.35	267.69	4.06	-45.1	-57.5	3.8	1.49e+00	0	59	104	910163968	61	15279
2026-01-22 02:05:09.38	267.39	3.91	-45.1	-57.5	3.8	1.49e+00	0	59	104	910163968	61	15286
2026-01-22 02:05:12.41	267.10	3.75	-45.1	-57.5	3.8	1.49e+00	0	59	104	910163968	61	15295
2026-01-22 02:05:15.44	266.81	3.59	-45.1	-57.5	3.8	1.49e+00	0	59	104	910163968	61	15316
2026-01-22 02:05:18.47	266.53	3.44	-45.1	-57.5	3.8	1.49e+00	0	59	104	910163968	61	15277
2026-01-22 02:05:21.50	266.24	3.28	-45.1	-57.5	3.8	1.49e+00	0	59	104	910163968	61	15261
2026-01-22 02:05:24.54	265.97	3.13	-45.1	-57.5	3.8	1.49e+00	0	58	104	910163968	61	15285
2026-01-22 02:05:27.57	265.69	2.97	-45.1	-57.5	3.8	1.49e+00	0	59	104	910163968	61	15292
2026-01-22 02:05:30.60	265.42	2.82	-45.1	-57.5	3.8	1.49e+00	0	59	104	910163968	61	15258
2026-01-22 02:05:33.64	265.15	2.66	-45.1	-57.5	3.8	1.49e+00	0	59	104	910163968	61	15323
2026-01-22 02:05:36.67	264.88	2.51	-45.1	-57.5	3.8	1.49e+00	0	59	104	910163968	61	15241
2026-01-22 02:05:39.70	264.61	2.35	-45.1	-57.5	3.8	1.49e+00	0	59	104	910163968	61	15273
2026-01-22 02:05:42.73	264.35	2.20	-45.1	-57.5	3.8	1.49e+00	0	59	104	910163968	61	15258
2026-01-22 02:05:45.77	264.09	2.05	-45.1	-57.5	3.8	1.49e+00	0	59	104	910163968	61	15314

#Closed at: 2026-01-22 02:05:48
#Recorded file [910 MB]: D:/lorett/data/31039_260122_045554.dat