passes_logs/2026/01/22/R2.0S_Moscow/R2.0S_Moscow__20260122_085428_SUOMI_NPP_rec.log

#Pass ID: 20260122_085428_SUOMI NPP
#Satellite: SUOMI NPP
#Configuration: NPP
#almurnet v.1.7.20251203
#Start time: 2026-01-22 08:54:29

#Version: 2.2.20231116
#Station: R2.0S_Moscow
#Location: 37.707566 lon 55.798166 lat
#TLE: 1 37849U 11061A   26021.51818991  .00000201  00000+0  11636-3 0  9995
#TLE: 2 37849  98.7819 323.5108 0002300  52.3548 307.7836 14.19527793737637

#Time	Az	El	Level	Level2	SNR	BER	BlckErr	Temp	State	Recorded	gain1	gain2
2026-01-22 08:54:29.05	128.79	2.06	-33.2	-48.1	4.1	1.51e+00	0	51	0	0	34	24505
2026-01-22 08:54:33.08	128.61	2.30	-29.9	-44.9	4.0	1.51e+00	0	51	104	0	27	25279
2026-01-22 08:54:37.12	128.42	2.55	-31.2	-48.4	3.9	1.51e+00	0	51	104	0	33	26898
2026-01-22 08:54:41.16	128.24	2.80	-23.6	-39.3	3.8	1.51e+00	0	52	104	0	15	26554
2026-01-22 08:54:45.21	128.04	3.06	-27.5	-44.8	3.9	1.51e+00	0	52	104	0	23	31767
2026-01-22 08:54:49.25	127.85	3.31	-29.8	-45.8	3.8	1.51e+00	0	52	104	0	28	26501
2026-01-22 08:54:53.29	127.65	3.57	-27.7	-45.3	3.6	1.50e+00	0	52	104	0	27	26540
2026-01-22 08:54:57.33	127.45	3.83	-28.0	-47.0	4.2	1.51e+00	0	52	104	0	30	27298
2026-01-22 08:55:01.38	127.24	4.09	-32.4	-50.4	4.1	1.51e+00	0	53	104	0	34	32025
2026-01-22 08:55:05.42	127.03	4.36	-29.4	-47.6	4.2	1.51e+00	0	53	104	0	35	21789
2026-01-22 08:55:09.46	126.82	4.62	-29.0	-43.7	3.7	1.51e+00	0	53	104	0	25	24957
2026-01-22 08:55:13.50	126.60	4.89	-30.1	-47.5	4.0	1.51e+00	0	53	104	0	37	19181
2026-01-22 08:55:17.54	126.38	5.16	-28.2	-42.2	3.7	1.51e+00	0	54	104	0	25	20939
2026-01-22 08:55:21.59	126.15	5.43	-25.4	-39.3	3.9	1.51e+00	0	54	104	0	19	21051
2026-01-22 08:55:25.63	125.92	5.71	-25.1	-42.2	3.9	1.51e+00	0	54	104	0	22	24812
2026-01-22 08:55:29.67	125.68	5.99	-28.4	-44.4	3.8	1.51e+00	0	54	104	0	25	26966
2026-01-22 08:55:33.71	125.44	6.27	-21.0	-36.4	3.8	1.50e+00	0	54	104	0	12	22633
2026-01-22 08:55:37.75	125.20	6.55	-25.5	-41.7	3.8	1.51e+00	0	55	104	0	21	24850
2026-01-22 08:55:41.79	124.95	6.84	-31.5	-45.3	3.9	1.50e+00	0	55	104	0	27	26762
2026-01-22 08:55:45.83	124.69	7.12	-27.3	-43.8	3.9	1.51e+00	0	55	104	0	27	22415
2026-01-22 08:55:49.87	124.43	7.42	-29.1	-44.3	3.9	1.51e+00	0	55	104	0	30	19913
2026-01-22 08:55:53.91	124.16	7.71	-26.9	-42.9	4.0	1.51e+00	0	55	104	0	24	24130
2026-01-22 08:55:57.96	123.89	8.01	-28.5	-44.3	4.6	1.49e+00	0	55	104	0	28	22322
2026-01-22 08:56:01.99	123.61	8.31	-27.2	-42.7	3.7	1.50e+00	0	56	104	0	27	19773
2026-01-22 08:56:06.03	123.33	8.61	-27.5	-43.5	4.0	1.51e+00	0	56	104	0	29	19340
2026-01-22 08:56:10.06	123.04	8.91	-25.7	-41.2	3.7	1.51e+00	0	55	104	0	23	20897
2026-01-22 08:56:14.10	122.74	9.22	-30.5	-44.2	3.8	1.51e+00	0	56	104	0	27	23420
2026-01-22 08:56:18.14	122.44	9.53	-22.2	-37.7	3.9	1.50e+00	0	56	104	0	21	15626
2026-01-22 08:56:22.18	122.13	9.85	-27.9	-42.7	3.9	1.50e+00	0	56	104	0	28	18590
2026-01-22 08:56:26.22	121.81	10.17	-24.6	-41.1	3.6	1.50e+00	0	57	104	0	25	18485
2026-01-22 08:56:30.25	121.49	10.49	-36.9	-51.7	4.2	1.50e+00	0	56	104	0	38	29605
2026-01-22 08:56:34.29	121.16	10.81	-27.7	-46.1	3.5	1.49e+00	0	56	104	0	27	29141
2026-01-22 08:56:38.33	120.82	11.14	-31.6	-44.5	4.2	1.46e+00	0	56	104	1048576	32	18244
2026-01-22 08:56:42.37	120.47	11.47	-38.9	-49.5	4.5	1.49e+00	0	57	104	1048576	47	13642
2026-01-22 08:56:46.40	120.12	11.80	-34.3	-49.6	4.4	1.47e+00	0	57	104	1048576	39	21861
2026-01-22 08:56:50.44	119.76	12.14	-30.9	-44.9	4.3	1.47e+00	0	57	104	1048576	39	12722
2026-01-22 08:56:54.48	119.38	12.48	-38.9	-46.7	7.0	1.40e+00	0	57	104	1048576	44	11808
2026-01-22 08:56:58.53	119.00	12.83	-26.0	-43.8	6.2	4.43e-01	0	57	0	7340032	32	16844
2026-01-22 08:57:02.57	118.61	13.18	-34.2	-46.3	6.5	3.05e-01	0	57	0	12582912	41	13269
2026-01-22 08:57:06.61	118.21	13.53	-32.8	-45.5	8.0	2.31e-01	0	57	0	19922944	38	14511
2026-01-22 08:57:10.64	117.80	13.89	-33.6	-46.5	8.2	5.87e-01	0	57	0	25165824	42	12836
2026-01-22 08:57:14.68	117.38	14.25	-31.9	-45.3	6.4	6.26e-01	0	57	0	32505856	43	10539
2026-01-22 08:57:18.71	116.95	14.61	-36.9	-46.2	6.9	1.02e-01	0	57	0	39845888	44	11036
2026-01-22 08:57:22.75	116.51	14.98	-39.1	-46.0	8.8	2.89e-02	0	58	0	47185920	49	8169
2026-01-22 08:57:26.79	116.06	15.35	-40.8	-46.6	10.0	1.91e-02	0	58	0	55574528	53	6946
2026-01-22 08:57:30.83	115.59	15.73	-41.6	-46.2	10.9	4.73e-03	0	58	0	62914560	53	6594
2026-01-22 08:57:34.86	115.12	16.11	-41.3	-46.4	11.0	7.42e-03	0	58	0	70254592	54	6403
2026-01-22 08:57:38.90	114.63	16.49	-41.9	-46.6	10.7	8.52e-03	0	58	0	77594624	54	6515
2026-01-22 08:57:42.94	114.12	16.88	-41.1	-45.9	11.1	2.32e-03	0	58	0	84934656	52	6785
2026-01-22 08:57:46.98	113.61	17.27	-41.8	-46.2	11.6	1.34e-03	0	58	0	93323264	54	6244
2026-01-22 08:57:51.02	113.08	17.66	-41.7	-45.8	12.1	2.85e-04	0	58	0	100663296	54	5938
2026-01-22 08:57:55.05	112.54	18.06	-42.4	-47.5	10.1	5.52e-03	0	58	0	108003328	55	6830
2026-01-22 08:57:59.09	111.98	18.46	-40.8	-46.9	10.8	2.59e-03	0	58	0	115343360	55	6398
2026-01-22 08:58:03.13	111.40	18.87	-42.4	-47.6	10.2	7.93e-03	0	58	0	123731968	55	6958
2026-01-22 08:58:07.17	110.81	19.28	-42.1	-46.5	11.3	1.17e-03	0	58	0	131072000	54	6477
2026-01-22 08:58:11.21	110.21	19.69	-42.4	-46.9	11.1	1.48e-03	0	58	0	138412032	55	6349
2026-01-22 08:58:15.25	109.58	20.11	-42.1	-46.3	11.7	9.73e-04	0	58	0	145752064	55	5983
2026-01-22 08:58:19.28	108.95	20.53	-42.4	-47.1	10.9	2.53e-03	0	59	0	153092096	55	6495
2026-01-22 08:58:23.32	108.29	20.95	-42.2	-46.5	11.5	8.89e-04	0	58	0	161480704	55	6099
2026-01-22 08:58:27.37	107.61	21.38	-42.5	-47.1	11.0	2.16e-03	0	58	0	168820736	55	6506
2026-01-22 08:58:31.41	106.91	21.81	-42.4	-46.9	11.1	1.18e-03	0	58	0	176160768	55	6375
2026-01-22 08:58:35.44	106.20	22.24	-42.8	-47.6	10.6	3.51e-03	0	58	0	183500800	56	6496
2026-01-22 08:58:39.48	105.46	22.68	-43.1	-48.3	9.8	8.07e-03	0	58	0	191889408	56	7092
2026-01-22 08:58:43.51	104.71	23.11	-42.7	-47.6	10.6	4.61e-03	0	58	0	199229440	57	6132
2026-01-22 08:58:47.55	103.93	23.55	-42.4	-46.6	11.8	8.85e-04	0	59	0	206569472	56	5828
2026-01-22 08:58:51.59	103.13	23.99	-42.5	-46.7	11.6	9.96e-04	0	59	0	213909504	56	5886
2026-01-22 08:58:55.62	102.30	24.43	-42.7	-47.2	11.1	7.09e-04	0	59	0	221249536	56	6260
2026-01-22 08:58:59.66	101.45	24.87	-42.5	-46.6	11.6	6.26e-04	0	59	0	229638144	56	5855
2026-01-22 08:59:03.70	100.58	25.32	-42.7	-47.2	11.0	1.84e-03	0	59	0	236978176	56	6253
2026-01-22 08:59:07.73	99.69	25.76	-42.8	-47.5	10.9	1.10e-03	0	59	0	244318208	56	6422
2026-01-22 08:59:11.77	98.76	26.20	-42.4	-46.5	11.8	5.10e-04	0	59	0	251658240	56	5768
2026-01-22 08:59:15.81	97.82	26.64	-43.0	-47.8	10.5	4.26e-03	0	59	0	260046848	56	6686
2026-01-22 08:59:19.85	96.84	27.08	-42.9	-47.7	10.7	2.60e-03	0	59	0	267386880	56	6587
2026-01-22 08:59:23.89	95.84	27.51	-42.1	-45.8	12.6	9.68e-05	0	59	0	274726912	56	5318
2026-01-22 08:59:27.93	94.81	27.95	-41.8	-45.5	12.8	8.54e-05	0	59	0	282066944	55	5416
2026-01-22 08:59:31.96	93.75	28.37	-42.4	-46.6	11.6	7.50e-04	0	59	0	289406976	55	6180
2026-01-22 08:59:36.00	92.66	28.80	-43.0	-47.9	10.5	3.69e-03	0	59	0	297795584	56	6767
2026-01-22 08:59:40.04	91.55	29.22	-43.4	-48.9	9.4	1.58e-02	0	59	0	305135616	57	7157
2026-01-22 08:59:44.08	90.40	29.63	-43.2	-48.3	10.0	1.10e-02	0	59	0	312475648	57	6665
2026-01-22 08:59:48.12	89.22	30.03	-43.6	-49.4	9.0	2.15e-02	0	59	0	319815680	57	7569
2026-01-22 08:59:52.16	88.02	30.43	-43.9	-50.4	7.9	6.34e-02	0	59	0	328204288	58	8081
2026-01-22 08:59:56.19	86.79	30.82	-43.9	-51.4	7.0	1.60e-01	0	59	0	335544320	58	8969
2026-01-22 09:00:00.23	85.52	31.20	-43.6	-50.0	8.3	5.11e-02	0	59	0	342884352	58	7649
2026-01-22 09:00:04.26	84.23	31.56	-43.4	-49.5	8.8	1.91e-02	0	59	0	350224384	58	7267
2026-01-22 09:00:08.30	82.91	31.91	-43.3	-49.1	9.2	2.60e-02	0	59	0	357564416	58	6953
2026-01-22 09:00:12.34	81.56	32.25	-43.7	-50.8	7.6	4.62e-02	0	59	0	365953024	58	8391
2026-01-22 09:00:16.38	80.18	32.58	-43.5	-50.0	8.3	6.11e-02	0	59	0	373293056	58	7704
2026-01-22 09:00:20.42	78.77	32.89	-43.6	-50.1	8.1	5.97e-02	0	59	0	380633088	58	7805
2026-01-22 09:00:24.45	77.34	33.18	-42.9	-47.9	10.4	3.70e-03	0	59	0	387973120	57	6419
2026-01-22 09:00:28.49	75.88	33.45	-42.2	-46.2	12.2	2.13e-04	0	59	0	395313152	56	5571
2026-01-22 09:00:32.53	74.40	33.71	-42.2	-46.2	12.3	2.21e-04	0	59	0	403701760	56	5529
2026-01-22 09:00:36.57	72.90	33.94	-43.2	-48.6	9.8	6.48e-03	0	59	0	411041792	56	7312
2026-01-22 09:00:40.60	71.37	34.16	-42.0	-45.8	12.7	1.14e-04	0	59	0	418381824	56	5333
2026-01-22 09:00:44.64	69.83	34.35	-41.7	-45.4	13.0	4.19e-05	0	59	0	425721856	55	5370
2026-01-22 09:00:48.68	68.27	34.52	-42.5	-47.0	11.3	6.84e-04	0	59	0	434110464	55	6471
2026-01-22 09:00:52.71	66.70	34.66	-42.0	-45.9	12.5	1.27e-04	0	59	0	441450496	55	5698
2026-01-22 09:00:56.75	65.11	34.79	-42.5	-46.9	11.5	1.07e-03	0	59	0	448790528	55	6364
2026-01-22 09:01:00.79	63.51	34.88	-42.3	-46.4	11.9	4.72e-04	0	59	0	456130560	55	6045
2026-01-22 09:01:04.83	61.90	34.95	-42.9	-47.6	11.0	1.49e-03	0	59	0	463470592	56	6498
2026-01-22 09:01:08.86	60.29	35.00	-42.9	-47.7	10.8	1.84e-03	0	59	0	471859200	56	6581
2026-01-22 09:01:12.90	58.67	35.02	-42.9	-47.8	10.7	2.16e-03	0	59	0	479199232	56	6670
2026-01-22 09:01:16.93	57.06	35.01	-43.0	-47.9	10.4	4.30e-03	0	59	0	486539264	56	6790
2026-01-22 09:01:20.97	55.44	34.98	-42.8	-47.4	11.1	2.08e-03	0	59	0	493879296	57	6039
2026-01-22 09:01:25.01	53.83	34.92	-43.4	-49.3	9.1	7.34e-03	0	59	0	502267904	57	7484
2026-01-22 09:01:29.05	52.23	34.84	-43.0	-48.0	10.4	4.35e-03	0	59	0	509607936	57	6463
2026-01-22 09:01:33.09	50.63	34.73	-42.6	-47.0	11.5	1.07e-03	0	59	0	516947968	57	5753
2026-01-22 09:01:37.13	49.05	34.60	-43.3	-49.0	9.4	8.15e-03	0	59	0	524288000	57	7205
2026-01-22 09:01:41.16	47.49	34.44	-42.6	-47.0	11.5	2.21e-03	0	60	0	531628032	57	5755
2026-01-22 09:01:45.20	45.94	34.26	-42.8	-47.6	10.8	2.79e-03	0	60	0	540016640	56	6528
2026-01-22 09:01:49.24	44.41	34.06	-42.4	-46.7	11.8	7.16e-04	0	59	0	547356672	56	5903
2026-01-22 09:01:53.28	42.89	33.83	-42.6	-47.2	11.2	9.28e-04	0	60	0	554696704	56	6273
2026-01-22 09:01:57.32	41.40	33.59	-43.3	-48.9	9.5	2.98e-02	0	59	0	562036736	57	7122
2026-01-22 09:02:01.35	39.94	33.32	-42.5	-46.9	11.6	4.29e-04	0	60	0	570425344	56	6039
2026-01-22 09:02:05.40	38.49	33.04	-43.4	-49.2	9.1	2.16e-02	0	60	0	577765376	57	7432
2026-01-22 09:02:09.43	37.08	32.74	-43.6	-50.1	8.2	6.04e-02	0	60	0	585105408	57	8244
2026-01-22 09:02:13.47	35.69	32.43	-43.7	-50.4	8.0	5.12e-02	0	60	0	592445440	57	8471
2026-01-22 09:02:17.51	34.33	32.09	-43.1	-48.4	10.0	1.58e-02	0	60	0	599785472	58	6393
2026-01-22 09:02:21.55	33.00	31.75	-42.7	-47.3	11.1	2.14e-03	0	60	0	608174080	57	5978
2026-01-22 09:02:25.59	31.69	31.39	-43.2	-48.6	9.8	6.24e-03	0	59	0	615514112	56	7331
2026-01-22 09:02:29.63	30.42	31.02	-42.9	-47.8	10.5	6.96e-03	0	60	0	622854144	57	6336
2026-01-22 09:02:33.66	29.17	30.64	-43.2	-48.6	10.1	2.35e-03	0	60	0	630194176	57	6916
2026-01-22 09:02:37.70	27.96	30.25	-43.5	-49.3	9.1	2.83e-02	0	59	0	638582784	58	7052
2026-01-22 09:02:41.74	26.77	29.85	-43.3	-48.7	9.7	1.09e-02	0	59	0	645922816	58	6571
2026-01-22 09:02:45.78	25.62	29.44	-43.7	-50.1	8.2	5.03e-02	0	60	0	653262848	58	7790
2026-01-22 09:02:49.81	24.49	29.03	-43.1	-48.1	10.3	5.03e-03	0	60	0	660602880	58	6152
2026-01-22 09:02:53.85	23.39	28.61	-43.2	-48.5	9.9	7.15e-03	0	60	0	667942912	58	6442
2026-01-22 09:02:57.89	22.32	28.18	-43.0	-47.8	10.6	5.49e-03	0	59	0	676331520	58	5936
2026-01-22 09:03:01.93	21.28	27.76	-42.1	-45.9	12.6	6.63e-05	0	60	0	683671552	56	5362
2026-01-22 09:03:05.97	20.27	27.32	-42.5	-46.7	11.7	5.74e-04	0	60	0	691011584	56	5909
2026-01-22 09:03:10.01	19.29	26.89	-42.0	-45.6	12.8	6.40e-05	0	60	0	698351616	56	5216
2026-01-22 09:03:14.04	18.33	26.45	-42.3	-46.6	11.7	4.00e-04	0	59	0	705691648	55	6153
2026-01-22 09:03:18.08	17.40	26.01	-41.9	-45.7	12.7	1.50e-04	0	60	0	714080256	55	5536
2026-01-22 09:03:22.12	16.49	25.57	-41.6	-45.0	13.2	2.13e-05	0	60	0	721420288	55	5146
2026-01-22 09:03:26.16	15.61	25.13	-41.8	-45.6	12.7	5.56e-05	0	60	0	728760320	55	5466
2026-01-22 09:03:30.20	14.76	24.69	-41.8	-45.6	12.7	4.80e-05	0	60	0	736100352	55	5497
2026-01-22 09:03:34.23	13.93	24.25	-41.8	-45.4	12.8	4.80e-05	0	60	0	744488960	55	5379
2026-01-22 09:03:38.27	13.12	23.82	-41.8	-45.5	12.8	1.65e-04	0	60	0	751828992	55	5458
2026-01-22 09:03:42.31	12.33	23.38	-42.0	-45.8	12.4	1.15e-04	0	60	0	759169024	55	5637
2026-01-22 09:03:46.34	11.57	22.94	-42.5	-47.0	11.2	1.34e-03	0	60	0	766509056	55	6427
2026-01-22 09:03:50.38	10.83	22.51	-42.4	-46.8	11.3	1.30e-03	0	60	0	773849088	55	6336
2026-01-22 09:03:54.42	10.11	22.08	-42.6	-47.2	10.8	2.12e-03	0	60	0	782237696	55	6646
2026-01-22 09:03:58.46	9.40	21.65	-42.9	-47.8	10.4	3.33e-03	0	60	0	789577728	56	6697
2026-01-22 09:04:02.49	8.72	21.23	-42.9	-48.0	10.2	7.46e-03	0	60	0	796917760	56	6815
2026-01-22 09:04:06.53	8.06	20.80	-42.2	-46.3	11.9	7.35e-04	0	60	0	804257792	56	5624
2026-01-22 09:04:10.56	7.42	20.38	-42.4	-46.7	11.5	5.35e-04	0	60	0	812646400	56	5872
2026-01-22 09:04:14.60	6.79	19.97	-42.5	-46.9	11.2	1.75e-03	0	60	0	819986432	56	6039
2026-01-22 09:04:18.64	6.18	19.55	-41.6	-45.2	12.7	6.10e-05	0	60	0	827326464	55	5246
2026-01-22 09:04:22.68	5.58	19.14	-41.9	-45.9	12.0	2.53e-04	0	60	0	834666496	55	5708
2026-01-22 09:04:26.72	5.01	18.74	-43.0	-48.7	9.3	1.11e-02	0	60	0	842006528	56	7386
2026-01-22 09:04:30.75	4.45	18.34	-43.4	-50.3	7.6	1.01e-01	0	60	0	850395136	57	8375
2026-01-22 09:04:34.80	3.90	17.94	-42.8	-48.1	9.7	1.50e-02	0	60	0	857735168	57	6501
2026-01-22 09:04:38.83	3.37	17.54	-42.3	-47.0	10.8	2.29e-03	0	60	0	865075200	56	6071
2026-01-22 09:04:42.87	2.85	17.15	-42.7	-48.3	9.3	1.41e-02	0	60	0	872415232	56	7095
2026-01-22 09:04:46.91	2.34	16.76	-42.4	-47.7	9.8	1.35e-02	0	60	0	880803840	56	6587
2026-01-22 09:04:50.94	1.85	16.38	-42.1	-46.9	10.5	3.44e-03	0	60	0	888143872	56	6037
2026-01-22 09:04:54.98	1.37	16.00	-42.0	-47.2	9.8	7.25e-03	0	60	0	895483904	55	6614
2026-01-22 09:04:59.02	0.90	15.62	-42.1	-47.4	9.7	1.29e-02	0	60	0	902823936	55	6743
2026-01-22 09:05:03.05	0.45	15.25	-41.9	-47.2	9.6	1.29e-02	0	60	0	910163968	55	6630
2026-01-22 09:05:07.09	0.01	14.88	-41.8	-47.6	8.8	2.90e-02	0	60	0	918552576	55	6937
2026-01-22 09:05:11.13	359.57	14.52	-41.6	-47.4	8.6	3.74e-02	0	60	0	925892608	55	6794
2026-01-22 09:05:15.17	359.15	14.16	-41.1	-46.4	9.5	1.15e-02	0	60	0	933232640	54	6419
2026-01-22 09:05:19.21	358.74	13.80	-41.4	-47.5	8.3	3.95e-02	0	60	0	940572672	54	7255
2026-01-22 09:05:23.25	358.34	13.45	-41.7	-49.8	5.9	3.52e-01	0	60	0	948961280	54	9486
2026-01-22 09:05:27.29	357.95	13.10	-41.8	-50.9	5.1	8.37e-01	0	60	0	956301312	54	10711
2026-01-22 09:05:31.33	357.57	12.75	-41.3	-50.1	5.4	6.24e-01	0	60	0	956301312	54	9740
2026-01-22 09:05:35.36	357.19	12.41	-40.9	-49.4	5.7	4.09e-01	0	60	0	964689920	53	9538
2026-01-22 09:05:39.40	356.83	12.07	-40.5	-54.9	3.8	1.49e+00	0	60	104	969932800	52	19043
2026-01-22 09:05:43.44	356.48	11.74	-41.0	-54.2	3.8	1.49e+00	0	60	104	969932800	53	16598
2026-01-22 09:05:47.47	356.13	11.41	-40.3	-54.9	3.8	1.49e+00	0	60	104	969932800	52	18980
2026-01-22 09:05:51.51	355.79	11.08	-40.2	-54.8	3.8	1.49e+00	0	60	104	969932800	52	18743
2026-01-22 09:05:55.55	355.46	10.75	-40.1	-54.7	3.8	1.49e+00	0	60	104	969932800	52	18605
2026-01-22 09:05:59.59	355.14	10.43	-40.4	-55.0	3.8	1.49e+00	0	60	104	969932800	52	19357
2026-01-22 09:06:03.62	354.82	10.11	-40.3	-54.9	3.8	1.49e+00	0	60	104	969932800	52	18955
2026-01-22 09:06:07.66	354.51	9.80	-40.3	-54.8	3.8	1.49e+00	0	60	104	969932800	52	18899
2026-01-22 09:06:11.70	354.21	9.49	-40.3	-54.9	3.8	1.49e+00	0	60	104	969932800	52	18988
2026-01-22 09:06:15.74	353.91	9.18	-40.3	-54.9	3.8	1.49e+00	0	60	104	969932800	52	19069
2026-01-22 09:06:19.78	353.62	8.87	-40.4	-54.9	3.8	1.49e+00	0	60	104	969932800	52	19138
2026-01-22 09:06:23.81	353.34	8.57	-40.5	-55.0	3.8	1.49e+00	0	60	104	969932800	52	19295
2026-01-22 09:06:27.85	353.07	8.27	-40.6	-55.1	3.8	1.49e+00	0	60	104	969932800	52	19612
2026-01-22 09:06:31.89	352.79	7.97	-40.3	-54.9	3.8	1.49e+00	0	60	104	969932800	52	18951
2026-01-22 09:06:35.93	352.53	7.68	-45.1	-59.8	3.8	1.49e+00	0	60	104	969932800	60	21194
2026-01-22 09:06:39.97	352.27	7.39	-45.4	-60.1	3.8	1.49e+00	0	60	104	969932800	61	20581
2026-01-22 09:06:44.01	352.02	7.10	-45.2	-60.0	3.7	1.49e+00	0	60	104	969932800	60	21690
2026-01-22 09:06:48.06	351.77	6.81	-45.2	-59.8	3.8	1.49e+00	0	60	104	969932800	61	20050
2026-01-22 09:06:52.10	351.52	6.53	-45.2	-59.8	3.8	1.49e+00	0	60	104	969932800	61	19939
2026-01-22 09:06:56.14	351.28	6.24	-45.2	-59.8	3.8	1.49e+00	0	60	104	969932800	61	20009
2026-01-22 09:07:00.18	351.05	5.97	-45.2	-59.8	3.8	1.49e+00	0	60	104	969932800	60	21096
2026-01-22 09:07:04.22	350.82	5.69	-44.8	-59.8	3.8	1.49e+00	0	60	104	969932800	60	21035
2026-01-22 09:07:08.27	350.60	5.42	-45.2	-59.8	3.8	1.49e+00	0	60	104	969932800	60	21021
2026-01-22 09:07:12.31	350.38	5.15	-44.8	-59.8	3.8	1.49e+00	0	60	104	969932800	60	21172
2026-01-22 09:07:16.35	350.16	4.88	-45.2	-59.7	3.8	1.49e+00	0	60	104	969932800	60	20971
2026-01-22 09:07:20.40	349.95	4.61	-45.2	-59.8	3.8	1.49e+00	0	60	104	969932800	60	21069
2026-01-22 09:07:24.44	349.74	4.34	-45.1	-59.7	3.8	1.49e+00	0	60	104	969932800	60	21010
2026-01-22 09:07:28.48	349.54	4.08	-45.2	-59.7	3.8	1.49e+00	0	60	104	969932800	60	20961
2026-01-22 09:07:32.52	349.34	3.82	-45.1	-59.8	3.8	1.49e+00	0	60	104	969932800	60	21064
2026-01-22 09:07:36.56	349.14	3.57	-45.1	-59.7	3.8	1.49e+00	0	60	104	969932800	60	20990
2026-01-22 09:07:40.60	348.95	3.31	-45.2	-59.7	3.8	1.49e+00	0	60	104	969932800	60	20976
2026-01-22 09:07:44.65	348.76	3.06	-45.1	-59.7	3.8	1.49e+00	0	60	104	969932800	60	20923
2026-01-22 09:07:48.69	348.58	2.80	-45.1	-59.7	3.8	1.49e+00	0	60	104	969932800	60	20943
2026-01-22 09:07:52.73	348.40	2.55	-45.1	-59.8	3.8	1.49e+00	0	60	104	969932800	60	21026
2026-01-22 09:07:56.77	348.22	2.31	-45.1	-59.7	3.8	1.49e+00	0	60	104	969932800	60	20884
2026-01-22 09:08:00.81	348.04	2.06	-45.1	-59.7	3.8	1.49e+00	0	60	104	969932800	60	20878

#Closed at: 2026-01-22 09:08:01
#Recorded file [969 MB]: D:/lorett/data/31039_260122_115428.dat