passes_logs/2026/01/22/R2.0S_Moscow/R2.0S_Moscow__20260122_032149_FENGYUN_3D_rec.log

#Pass ID: 20260122_032149_FENGYUN 3D
#Satellite: FENGYUN 3D
#Configuration: FENGYUN 3D
#almurnet v.1.7.20251203
#Start time: 2026-01-22 03:21:51

#Version: 2.2.20231116
#Station: R2.0S_Moscow
#Location: 37.707566 lon 55.798166 lat
#TLE: 1 43010U 17072A   26021.48744220  .00000253  00000+0  14133-3 0  9991
#TLE: 2 43010  98.9948 353.4037 0002485  97.2578 262.8880 14.19697766424177

#Time	Az	El	Level	Level2	SNR	BER	BlckErr	Temp	State	Recorded	gain1	gain2
2026-01-22 03:21:51.26	10.87	2.08	-40.0	-51.6	3.8	8.46e-01	0	49	0	0	51	13846
2026-01-22 03:21:54.29	10.68	2.25	-40.0	-51.6	3.8	8.45e-01	0	49	104	0	51	13822
2026-01-22 03:21:57.32	10.49	2.43	-40.0	-51.6	3.8	8.45e-01	0	49	104	0	51	13826
2026-01-22 03:22:00.35	10.30	2.60	-40.0	-51.6	3.8	8.46e-01	0	49	104	0	51	13796
2026-01-22 03:22:03.38	10.10	2.78	-40.0	-51.6	3.8	8.46e-01	0	50	104	0	51	13797
2026-01-22 03:22:06.41	9.90	2.95	-40.0	-51.6	3.8	8.46e-01	0	50	104	0	51	13760
2026-01-22 03:22:09.44	9.70	3.13	-40.0	-51.6	3.8	8.47e-01	0	50	104	0	51	13798
2026-01-22 03:22:12.47	9.50	3.31	-40.0	-51.6	3.8	8.45e-01	0	50	104	0	51	13777
2026-01-22 03:22:15.50	9.30	3.49	-40.0	-51.6	3.8	8.47e-01	0	50	104	0	51	13803
2026-01-22 03:22:18.53	9.09	3.67	-40.0	-51.6	3.8	8.46e-01	0	51	104	0	51	13818
2026-01-22 03:22:21.56	8.88	3.85	-40.0	-51.6	3.8	8.45e-01	0	51	104	0	51	13785
2026-01-22 03:22:24.59	8.66	4.03	-40.0	-51.6	3.8	8.46e-01	0	51	104	0	51	13791
2026-01-22 03:22:27.63	8.45	4.21	-40.0	-51.6	3.8	8.46e-01	0	51	104	0	51	13780
2026-01-22 03:22:30.66	8.23	4.39	-40.0	-51.6	3.8	8.47e-01	0	52	104	0	51	13794
2026-01-22 03:22:33.69	8.00	4.58	-40.0	-51.6	3.8	8.46e-01	0	51	104	0	51	13786
2026-01-22 03:22:36.72	7.78	4.76	-40.0	-51.6	3.8	8.47e-01	0	52	104	0	51	13799
2026-01-22 03:22:39.75	7.55	4.95	-40.0	-51.6	3.8	8.45e-01	0	52	104	0	51	13741
2026-01-22 03:22:42.78	7.32	5.14	-40.0	-51.6	3.8	8.46e-01	0	52	104	0	51	13760
2026-01-22 03:22:45.81	7.08	5.32	-40.0	-51.6	3.8	8.47e-01	0	52	104	0	51	13824
2026-01-22 03:22:48.84	6.85	5.51	-40.0	-51.6	3.8	8.46e-01	0	52	104	0	51	13739
2026-01-22 03:22:51.87	6.61	5.70	-40.0	-51.6	3.8	8.44e-01	0	52	104	0	51	13768
2026-01-22 03:22:54.90	6.36	5.89	-40.0	-51.6	3.8	8.48e-01	0	53	104	0	51	13747
2026-01-22 03:22:57.93	6.11	6.08	-40.0	-51.6	3.8	8.46e-01	0	53	104	0	51	13729
2026-01-22 03:23:00.96	5.86	6.27	-40.0	-51.6	3.8	8.46e-01	0	52	104	0	51	13770
2026-01-22 03:23:03.99	5.61	6.46	-40.0	-51.6	3.8	8.46e-01	0	53	104	0	51	13754
2026-01-22 03:23:07.03	5.35	6.66	-40.0	-51.6	3.8	8.47e-01	0	53	104	0	51	13759
2026-01-22 03:23:10.06	5.09	6.85	-40.0	-51.6	3.8	8.46e-01	0	53	104	0	51	13764
2026-01-22 03:23:13.09	4.82	7.05	-40.0	-51.6	3.8	8.45e-01	0	54	104	0	51	13762
2026-01-22 03:23:16.12	4.55	7.24	-40.0	-51.6	3.8	8.46e-01	0	54	104	0	51	13750
2026-01-22 03:23:19.15	4.28	7.44	-40.0	-51.6	3.8	8.46e-01	0	54	104	0	51	13738
2026-01-22 03:23:22.18	4.00	7.64	-40.0	-51.6	3.8	8.47e-01	0	54	104	0	51	13772
2026-01-22 03:23:25.22	3.72	7.84	-40.0	-51.6	3.8	8.46e-01	0	54	104	0	51	13763
2026-01-22 03:23:28.25	3.44	8.04	-40.0	-51.6	3.8	8.47e-01	0	54	104	0	51	13800
2026-01-22 03:23:31.28	3.15	8.24	-40.0	-51.6	3.8	8.47e-01	0	54	104	0	51	13870
2026-01-22 03:23:34.31	2.85	8.44	-40.1	-51.7	3.8	8.45e-01	0	54	104	0	51	13926
2026-01-22 03:23:37.33	2.56	8.64	-40.0	-51.6	3.8	8.45e-01	0	54	104	0	51	13841
2026-01-22 03:23:40.36	2.26	8.84	-40.2	-51.8	3.8	8.45e-01	0	54	104	0	51	14085
2026-01-22 03:23:43.40	1.95	9.05	-40.1	-51.7	3.8	8.46e-01	0	54	104	0	51	13956
2026-01-22 03:23:46.43	1.64	9.25	-40.2	-51.8	3.8	8.46e-01	0	55	104	0	51	14060
2026-01-22 03:23:49.45	1.32	9.46	-40.2	-51.7	3.8	8.46e-01	0	54	104	0	51	14014
2026-01-22 03:23:52.48	1.00	9.67	-40.1	-51.7	3.8	8.46e-01	0	55	104	0	51	13962
2026-01-22 03:23:55.51	0.68	9.87	-40.1	-51.7	3.8	8.46e-01	0	55	104	0	51	13958
2026-01-22 03:23:58.54	0.35	10.08	-40.1	-51.7	3.8	8.46e-01	0	55	104	0	51	14038
2026-01-22 03:24:01.57	0.02	10.29	-40.2	-51.8	3.8	8.46e-01	0	55	104	0	51	14113
2026-01-22 03:24:04.60	359.68	10.50	-40.2	-51.8	3.8	8.45e-01	0	55	104	0	51	14089
2026-01-22 03:24:07.63	359.33	10.71	-40.2	-51.8	3.8	8.46e-01	0	55	104	0	51	14067
2026-01-22 03:24:10.66	358.98	10.92	-40.1	-51.7	3.8	8.45e-01	0	55	104	0	51	14003
2026-01-22 03:24:13.68	358.63	11.13	-40.5	-52.1	3.8	8.46e-01	0	55	104	0	51	14625
2026-01-22 03:24:16.71	358.27	11.35	-40.1	-51.7	3.8	8.46e-01	0	55	104	0	51	13934
2026-01-22 03:24:19.74	357.90	11.56	-40.1	-51.7	3.8	8.46e-01	0	55	104	0	51	13934
2026-01-22 03:24:22.77	357.53	11.78	-40.8	-51.8	3.8	8.46e-01	0	55	104	0	52	13310
2026-01-22 03:24:25.80	357.16	11.99	-40.5	-49.4	3.9	8.47e-01	0	55	104	0	52	10069
2026-01-22 03:24:28.82	356.77	12.21	-39.8	-45.1	6.5	3.38e-01	0	56	0	4194304	51	6505
2026-01-22 03:24:31.85	356.39	12.42	-40.2	-46.5	5.4	2.43e-01	0	55	0	22020096	50	8139
2026-01-22 03:24:34.88	355.99	12.64	-40.9	-47.5	5.2	3.97e-01	0	56	0	29360128	52	8149
2026-01-22 03:24:37.91	355.59	12.86	-40.5	-49.0	4.2	8.36e-01	0	55	0	30408704	52	9658
2026-01-22 03:24:40.94	355.19	13.07	-40.7	-51.7	3.8	8.45e-01	0	56	104	30408704	52	13200
2026-01-22 03:24:43.97	354.77	13.29	-41.0	-52.4	3.8	8.46e-01	0	56	104	30408704	52	14219
2026-01-22 03:24:47.00	354.35	13.51	-40.8	-52.2	3.8	8.46e-01	0	56	104	30408704	52	13999
2026-01-22 03:24:50.03	353.93	13.73	-40.7	-52.3	3.8	8.47e-01	0	56	104	30408704	52	14056
2026-01-22 03:24:53.06	353.50	13.95	-40.5	-52.1	3.8	8.46e-01	0	56	104	30408704	52	13799
2026-01-22 03:24:56.09	353.06	14.17	-40.6	-52.2	3.8	8.46e-01	0	56	104	30408704	52	13946
2026-01-22 03:24:59.12	352.61	14.39	-40.6	-52.2	3.8	8.46e-01	0	56	104	30408704	52	13996
2026-01-22 03:25:02.12	352.17	14.61	-40.8	-52.4	3.8	8.46e-01	0	56	104	30408704	52	14222
2026-01-22 03:25:05.15	351.71	14.83	-40.7	-52.3	3.8	8.47e-01	0	56	104	30408704	52	14166
2026-01-22 03:25:08.18	351.24	15.05	-40.8	-52.4	3.8	8.46e-01	0	56	104	30408704	52	14212
2026-01-22 03:25:11.21	350.77	15.27	-40.8	-52.4	3.8	8.45e-01	0	56	104	30408704	52	14214
2026-01-22 03:25:14.24	350.29	15.49	-41.0	-52.6	3.8	8.47e-01	0	56	104	30408704	52	14630
2026-01-22 03:25:17.27	349.80	15.71	-41.1	-52.7	3.8	8.47e-01	0	56	104	30408704	52	14748
2026-01-22 03:25:20.29	349.31	15.93	-40.9	-52.5	3.8	8.46e-01	0	56	104	30408704	53	13636
2026-01-22 03:25:23.32	348.81	16.16	-41.0	-52.6	3.8	8.45e-01	0	56	104	30408704	53	13774
2026-01-22 03:25:26.35	348.30	16.38	-41.5	-53.0	3.8	8.46e-01	0	56	104	30408704	53	14454
2026-01-22 03:25:29.38	347.78	16.60	-41.5	-53.0	3.8	8.46e-01	0	57	104	30408704	53	14481
2026-01-22 03:25:32.41	347.26	16.82	-41.5	-53.1	3.8	8.46e-01	0	57	104	30408704	53	14595
2026-01-22 03:25:35.43	346.72	17.03	-41.5	-53.1	3.8	8.46e-01	0	57	104	30408704	53	14603
2026-01-22 03:25:38.46	346.18	17.25	-41.3	-52.8	3.8	8.47e-01	0	57	104	30408704	53	14106
2026-01-22 03:25:41.49	345.63	17.47	-41.0	-52.6	3.8	8.46e-01	0	57	104	30408704	53	13789
2026-01-22 03:25:44.53	345.08	17.69	-41.0	-52.6	3.8	8.46e-01	0	57	104	30408704	53	13783
2026-01-22 03:25:47.56	344.51	17.90	-40.9	-52.4	3.8	8.46e-01	0	57	104	30408704	53	13559
2026-01-22 03:25:50.59	343.94	18.12	-40.9	-52.4	3.8	8.44e-01	0	57	104	30408704	53	13472
2026-01-22 03:25:53.61	343.36	18.33	-40.9	-52.4	3.8	8.46e-01	0	57	104	30408704	53	13488
2026-01-22 03:25:56.64	342.77	18.54	-40.8	-52.3	3.8	8.47e-01	0	57	104	30408704	53	13376
2026-01-22 03:25:59.67	342.17	18.75	-41.1	-52.7	3.8	8.46e-01	0	57	104	30408704	53	13927
2026-01-22 03:26:02.69	341.56	18.96	-41.0	-52.5	3.8	8.46e-01	0	57	104	30408704	53	13641
2026-01-22 03:26:05.72	340.95	19.17	-41.4	-52.7	3.8	8.46e-01	0	57	104	30408704	53	14031
2026-01-22 03:26:08.75	340.32	19.38	-41.3	-52.2	3.8	8.45e-01	0	57	104	30408704	53	13128
2026-01-22 03:26:11.78	339.69	19.58	-41.5	-48.7	4.7	8.14e-01	0	57	0	30408704	53	8857
2026-01-22 03:26:14.80	339.05	19.78	-39.4	-42.6	10.4	1.43e-02	0	57	0	41943040	50	5173
2026-01-22 03:26:17.83	338.40	19.98	-36.5	-38.3	15.4	0.00e+00	0	57	0	58720256	45	4211
2026-01-22 03:26:20.86	337.74	20.18	-36.9	-38.6	15.4	0.00e+00	0	57	0	75497472	45	4370
2026-01-22 03:26:23.89	337.07	20.38	-37.0	-38.7	15.8	0.00e+00	0	57	0	92274688	45	4394
2026-01-22 03:26:26.92	336.40	20.57	-37.0	-38.7	16.0	0.00e+00	0	57	0	109051904	45	4398
2026-01-22 03:26:29.95	335.71	20.76	-36.9	-38.5	16.3	0.00e+00	0	57	0	126877696	45	4306
2026-01-22 03:26:32.98	335.02	20.94	-36.7	-38.2	16.6	0.00e+00	0	57	0	143654912	45	4185
2026-01-22 03:26:36.00	334.32	21.13	-36.7	-38.2	16.8	0.00e+00	0	57	0	160432128	45	4148
2026-01-22 03:26:39.03	333.61	21.31	-36.8	-38.3	16.6	0.00e+00	0	57	0	177209344	45	4229
2026-01-22 03:26:42.06	332.89	21.48	-36.9	-38.4	16.6	0.00e+00	0	57	0	195035136	45	4266
2026-01-22 03:26:45.09	332.17	21.66	-36.8	-38.3	16.7	0.00e+00	0	57	0	211812352	45	4239
2026-01-22 03:26:48.12	331.43	21.83	-36.6	-38.1	16.9	0.00e+00	0	57	0	228589568	45	4130
2026-01-22 03:26:51.15	330.69	21.99	-36.5	-38.0	17.0	0.00e+00	0	57	0	246415360	45	4085
2026-01-22 03:26:54.18	329.94	22.15	-36.6	-38.1	17.0	0.00e+00	0	57	0	263192576	45	4106
2026-01-22 03:26:57.21	329.18	22.31	-36.7	-38.2	16.9	0.00e+00	0	57	0	279969792	45	4150
2026-01-22 03:27:00.24	328.41	22.46	-36.6	-38.1	17.0	0.00e+00	0	57	0	296747008	45	4129
2026-01-22 03:27:03.26	327.64	22.61	-36.7	-38.1	16.9	0.00e+00	0	57	0	313524224	45	4143
2026-01-22 03:27:06.30	326.86	22.75	-36.5	-37.9	17.2	0.00e+00	0	57	0	331350016	44	4277
2026-01-22 03:27:09.33	326.07	22.89	-36.3	-37.7	17.4	0.00e+00	0	57	0	348127232	44	4185
2026-01-22 03:27:12.36	325.28	23.03	-36.3	-37.7	17.4	0.00e+00	0	57	0	364904448	44	4192
2026-01-22 03:27:15.39	324.47	23.15	-36.2	-37.6	17.5	0.00e+00	0	57	0	381681664	44	4131
2026-01-22 03:27:18.41	323.67	23.27	-36.2	-37.6	17.5	0.00e+00	0	57	0	399507456	44	4111
2026-01-22 03:27:21.44	322.85	23.39	-36.3	-37.7	17.4	0.00e+00	0	57	0	416284672	44	4155
2026-01-22 03:27:24.47	322.03	23.50	-36.0	-37.4	17.8	0.00e+00	0	57	0	433061888	44	4006
2026-01-22 03:27:27.50	321.20	23.61	-35.9	-37.3	17.7	0.00e+00	0	57	0	449839104	43	4197
2026-01-22 03:27:30.53	320.37	23.71	-36.1	-37.6	17.4	0.00e+00	0	57	0	467664896	43	4345
2026-01-22 03:27:33.56	319.53	23.80	-36.2	-37.7	17.3	0.00e+00	0	57	0	484442112	43	4405
2026-01-22 03:27:36.59	318.69	23.88	-36.2	-37.6	17.3	0.00e+00	0	57	0	501219328	43	4382
2026-01-22 03:27:39.62	317.84	23.96	-36.0	-37.4	17.5	0.00e+00	0	57	0	517996544	43	4256
2026-01-22 03:27:42.64	317.00	24.04	-35.9	-37.3	17.6	0.00e+00	0	57	0	535822336	43	4236
2026-01-22 03:27:45.67	316.14	24.10	-35.8	-37.2	17.8	0.00e+00	0	57	0	552599552	43	4159
2026-01-22 03:27:48.70	315.28	24.16	-35.7	-37.0	17.9	0.00e+00	0	57	0	569376768	43	4079
2026-01-22 03:27:51.73	314.42	24.21	-35.7	-37.1	17.9	0.00e+00	0	58	0	586153984	43	4108
2026-01-22 03:27:54.76	313.56	24.26	-35.9	-37.3	17.7	0.00e+00	0	58	0	603979776	43	4202
2026-01-22 03:27:57.80	312.69	24.30	-36.0	-37.4	17.5	0.00e+00	0	57	0	620756992	43	4275
2026-01-22 03:28:00.82	311.82	24.33	-36.0	-37.4	17.5	0.00e+00	0	58	0	637534208	43	4270
2026-01-22 03:28:03.85	310.95	24.36	-35.7	-37.1	17.9	0.00e+00	0	57	0	654311424	43	4121
2026-01-22 03:28:06.88	310.08	24.37	-35.6	-37.0	18.0	0.00e+00	0	58	0	672137216	43	4058
2026-01-22 03:28:09.91	309.20	24.38	-35.7	-37.1	17.9	0.00e+00	0	57	0	688914432	43	4120
2026-01-22 03:28:12.93	308.33	24.39	-35.7	-37.1	17.9	0.00e+00	0	57	0	705691648	43	4104
2026-01-22 03:28:15.96	307.46	24.38	-35.7	-37.1	17.9	0.00e+00	0	57	0	722468864	43	4103
2026-01-22 03:28:18.99	306.59	24.37	-35.8	-37.2	17.7	0.00e+00	0	58	0	740294656	43	4178
2026-01-22 03:28:22.02	305.72	24.35	-35.8	-37.2	17.7	0.00e+00	0	57	0	757071872	43	4175
2026-01-22 03:28:25.04	304.85	24.33	-35.7	-37.0	17.9	0.00e+00	0	58	0	773849088	43	4085
2026-01-22 03:28:28.07	303.98	24.29	-35.6	-37.0	18.0	0.00e+00	0	58	0	790626304	43	4060
2026-01-22 03:28:31.11	303.11	24.25	-35.6	-37.0	18.0	0.00e+00	0	57	0	808452096	43	4066
2026-01-22 03:28:34.14	302.24	24.21	-35.8	-37.2	17.8	0.00e+00	0	57	0	825229312	43	4153
2026-01-22 03:28:37.17	301.38	24.15	-35.9	-37.2	17.7	0.00e+00	0	57	0	842006528	43	4181
2026-01-22 03:28:40.20	300.52	24.09	-35.9	-37.2	17.7	0.00e+00	0	58	0	858783744	43	4192
2026-01-22 03:28:43.22	299.67	24.02	-35.8	-37.1	17.8	0.00e+00	0	57	0	876609536	43	4141
2026-01-22 03:28:46.25	298.82	23.95	-35.7	-37.1	17.9	0.00e+00	0	58	0	893386752	43	4131
2026-01-22 03:28:49.28	297.97	23.87	-35.7	-37.1	17.9	0.00e+00	0	58	0	910163968	43	4130
2026-01-22 03:28:52.30	297.13	23.78	-35.8	-37.2	17.8	0.00e+00	0	58	0	926941184	43	4157
2026-01-22 03:28:55.33	296.29	23.69	-35.9	-37.3	17.7	0.00e+00	0	58	0	944766976	43	4198
2026-01-22 03:28:58.36	295.46	23.59	-35.8	-37.1	17.8	0.00e+00	0	58	0	961544192	43	4135
2026-01-22 03:29:01.39	294.63	23.48	-35.8	-37.2	17.7	0.00e+00	0	58	0	978321408	43	4176
2026-01-22 03:29:04.42	293.81	23.37	-35.9	-37.2	17.7	0.00e+00	0	58	0	995098624	43	4193
2026-01-22 03:29:07.45	293.00	23.25	-35.9	-37.3	17.7	0.00e+00	0	57	0	1011875840	43	4220
2026-01-22 03:29:10.48	292.19	23.13	-35.9	-37.3	17.7	0.00e+00	0	58	0	1029701632	43	4205
2026-01-22 03:29:13.51	291.38	23.00	-35.8	-37.1	17.8	0.00e+00	0	58	0	1046478848	43	4139
2026-01-22 03:29:16.54	290.59	22.87	-35.9	-37.3	17.6	0.00e+00	0	57	0	1063256064	43	4241
2026-01-22 03:29:19.57	289.80	22.73	-35.9	-37.3	17.7	0.00e+00	0	58	0	1081081856	43	4218
2026-01-22 03:29:22.60	289.01	22.58	-36.1	-37.5	17.5	0.00e+00	0	58	0	1097859072	43	4300
2026-01-22 03:29:25.62	288.24	22.44	-35.9	-37.3	17.6	0.00e+00	0	58	0	1114636288	43	4227
2026-01-22 03:29:28.65	287.47	22.28	-36.0	-37.4	17.6	0.00e+00	0	58	0	1131413504	43	4251
2026-01-22 03:29:31.68	286.71	22.12	-36.0	-37.4	17.5	0.00e+00	0	57	0	1149239296	43	4282
2026-01-22 03:29:34.71	285.96	21.96	-36.0	-37.4	17.5	0.00e+00	0	58	0	1166016512	43	4282
2026-01-22 03:29:37.74	285.22	21.80	-36.3	-37.7	17.2	0.00e+00	0	58	0	1182793728	43	4427
2026-01-22 03:29:40.77	284.48	21.62	-36.1	-37.5	17.4	0.00e+00	0	58	0	1199570944	43	4334
2026-01-22 03:29:43.80	283.76	21.45	-36.2	-37.7	17.2	0.00e+00	0	58	0	1216348160	43	4417
2026-01-22 03:29:46.83	283.04	21.27	-36.3	-37.7	17.2	0.00e+00	0	58	0	1234173952	43	4426
2026-01-22 03:29:49.85	282.33	21.09	-36.0	-37.4	17.5	0.00e+00	0	58	0	1250951168	43	4276
2026-01-22 03:29:52.88	281.62	20.91	-36.1	-37.5	17.4	0.00e+00	0	57	0	1267728384	43	4340
2026-01-22 03:29:55.91	280.93	20.72	-36.4	-37.9	17.0	0.00e+00	0	58	0	1285554176	43	4502
2026-01-22 03:29:58.94	280.24	20.53	-36.2	-37.7	17.3	0.00e+00	0	58	0	1302331392	43	4399
2026-01-22 03:30:01.97	279.57	20.33	-36.5	-38.0	16.9	0.00e+00	0	58	0	1319108608	43	4565
2026-01-22 03:30:05.00	278.90	20.14	-36.6	-38.2	16.7	0.00e+00	0	58	0	1335885824	43	4655
2026-01-22 03:30:08.02	278.24	19.94	-36.6	-38.1	16.7	0.00e+00	0	58	0	1353711616	43	4642
2026-01-22 03:30:11.05	277.59	19.74	-36.5	-38.0	16.8	0.00e+00	0	58	0	1370488832	43	4596
2026-01-22 03:30:14.08	276.95	19.54	-36.6	-38.1	16.7	0.00e+00	0	58	0	1387266048	43	4641
2026-01-22 03:30:17.11	276.31	19.33	-37.0	-38.5	16.5	0.00e+00	0	58	0	1404043264	44	4595
2026-01-22 03:30:20.14	275.69	19.12	-37.1	-38.7	16.3	0.00e+00	0	58	0	1420820480	44	4694
2026-01-22 03:30:23.17	275.07	18.91	-37.2	-38.9	16.1	0.00e+00	0	58	0	1438646272	45	4506
2026-01-22 03:30:26.20	274.46	18.70	-37.3	-38.9	16.1	0.00e+00	0	58	0	1455423488	45	4542
2026-01-22 03:30:29.23	273.86	18.49	-37.3	-38.9	16.1	0.00e+00	0	58	0	1472200704	45	4542
2026-01-22 03:30:32.26	273.27	18.28	-37.3	-38.9	16.1	0.00e+00	0	58	0	1490026496	45	4510
2026-01-22 03:30:35.29	272.69	18.06	-37.2	-38.8	16.2	0.00e+00	0	58	0	1506803712	45	4476
2026-01-22 03:30:38.32	272.11	17.85	-37.1	-38.7	16.2	0.00e+00	0	58	0	1523580928	45	4435
2026-01-22 03:30:41.35	271.54	17.63	-37.0	-38.6	16.3	0.00e+00	0	58	0	1540358144	45	4378
2026-01-22 03:30:44.38	270.98	17.41	-37.2	-38.9	16.1	0.00e+00	0	58	0	1558183936	45	4510
2026-01-22 03:30:47.40	270.44	17.20	-37.3	-38.9	16.1	0.00e+00	0	58	0	1574961152	45	4508
2026-01-22 03:30:50.43	269.89	16.98	-37.2	-38.8	16.2	0.00e+00	0	58	0	1591738368	45	4452
2026-01-22 03:30:53.46	269.36	16.76	-37.2	-38.9	16.1	0.00e+00	0	58	0	1608515584	45	4506
2026-01-22 03:30:56.49	268.83	16.54	-37.2	-38.8	16.1	0.00e+00	0	58	0	1625292800	45	4479
2026-01-22 03:30:59.52	268.31	16.32	-37.3	-39.0	15.9	0.00e+00	0	58	0	1643118592	45	4576
2026-01-22 03:31:02.55	267.80	16.09	-37.4	-39.1	15.8	0.00e+00	0	58	0	1659895808	45	4624
2026-01-22 03:31:05.58	267.30	15.87	-37.6	-39.3	15.6	0.00e+00	0	58	0	1676673024	45	4721
2026-01-22 03:31:08.62	266.80	15.65	-37.7	-39.5	15.4	0.00e+00	0	58	0	1694498816	45	4821
2026-01-22 03:31:11.65	266.31	15.43	-37.8	-39.6	15.3	0.00e+00	0	58	0	1711276032	46	4605
2026-01-22 03:31:14.67	265.83	15.21	-37.8	-39.5	15.3	0.00e+00	0	58	0	1728053248	46	4596
2026-01-22 03:31:17.70	265.36	14.99	-37.9	-39.7	15.2	0.00e+00	0	58	0	1744830464	46	4661
2026-01-22 03:31:20.73	264.89	14.76	-37.7	-39.4	15.4	0.00e+00	0	58	0	1762656256	46	4524
2026-01-22 03:31:23.76	264.43	14.54	-37.8	-39.5	15.3	0.00e+00	0	58	0	1779433472	46	4591
2026-01-22 03:31:26.79	263.97	14.32	-37.8	-39.6	15.2	0.00e+00	0	58	0	1796210688	46	4634
2026-01-22 03:31:29.81	263.53	14.10	-37.9	-39.7	15.1	0.00e+00	0	58	0	1812987904	46	4679
2026-01-22 03:31:32.85	263.09	13.88	-38.0	-39.9	14.9	0.00e+00	0	58	0	1829765120	46	4795
2026-01-22 03:31:35.88	262.65	13.66	-38.0	-39.9	14.9	0.00e+00	0	58	0	1847590912	46	4777
2026-01-22 03:31:38.91	262.23	13.44	-38.0	-39.8	15.0	0.00e+00	0	58	0	1864368128	46	4738
2026-01-22 03:31:41.94	261.81	13.22	-38.1	-40.0	14.8	0.00e+00	0	58	0	1881145344	46	4819
2026-01-22 03:31:44.97	261.39	13.00	-38.0	-39.9	14.8	1.10e-06	0	58	0	1898971136	46	4796
2026-01-22 03:31:48.00	260.98	12.78	-38.3	-40.2	14.5	1.10e-06	0	58	0	1915748352	47	4677
2026-01-22 03:31:51.03	260.58	12.56	-38.4	-40.4	14.4	2.20e-06	0	58	0	1932525568	47	4768
2026-01-22 03:31:54.06	260.19	12.34	-38.4	-40.4	14.3	1.10e-06	0	58	0	1949302784	47	4798
2026-01-22 03:31:57.09	259.80	12.13	-38.3	-40.3	14.4	0.00e+00	0	58	0	1967128576	47	4736
2026-01-22 03:32:00.12	259.41	11.91	-38.4	-40.4	14.2	3.40e-06	0	58	0	1983905792	47	4811
2026-01-22 03:32:03.15	259.03	11.69	-38.5	-40.5	14.1	3.40e-06	0	58	0	2000683008	47	4858
2026-01-22 03:32:06.18	258.66	11.48	-38.6	-40.6	14.0	6.80e-06	0	58	0	2017460224	47	4918
2026-01-22 03:32:09.20	258.29	11.27	-38.6	-40.7	14.0	4.50e-06	0	58	0	2035286016	47	4936
2026-01-22 03:32:12.24	257.93	11.05	-38.6	-40.6	14.0	3.40e-06	0	58	0	2052063232	47	4922
2026-01-22 03:32:15.27	257.57	10.84	-38.6	-40.7	13.9	5.70e-06	0	58	0	2068840448	47	4931
2026-01-22 03:32:18.30	257.22	10.63	-38.7	-40.9	13.7	9.10e-06	0	58	0	2085617664	47	5044
2026-01-22 03:32:21.33	256.87	10.42	-38.8	-40.9	13.8	6.80e-06	0	58	0	2103443456	48	4785
2026-01-22 03:32:24.35	256.53	10.21	-38.9	-41.1	13.6	1.25e-05	0	58	0	2120220672	48	4901
2026-01-22 03:32:27.38	256.20	10.00	-39.1	-41.3	13.3	1.48e-05	0	58	0	2136997888	48	5034
2026-01-22 03:32:30.42	255.87	9.79	-39.1	-41.3	13.3	3.08e-05	0	58	0	2153775104	49	4740
2026-01-22 03:32:33.44	255.54	9.58	-39.2	-41.5	13.1	4.23e-05	0	58	0	2171600896	49	4838
2026-01-22 03:32:36.47	255.22	9.37	-39.1	-41.3	13.3	4.46e-05	0	58	0	2188378112	49	4758
2026-01-22 03:32:39.51	254.90	9.17	-39.1	-41.4	13.2	3.77e-05	0	58	0	2205155328	49	4764
2026-01-22 03:32:42.53	254.59	8.96	-39.1	-41.3	13.2	3.77e-05	0	58	0	2221932544	49	4757
2026-01-22 03:32:45.56	254.28	8.76	-39.1	-41.4	13.1	4.46e-05	0	58	0	2239758336	49	4783
2026-01-22 03:32:48.59	253.98	8.55	-39.2	-41.5	13.0	4.57e-05	0	58	0	2256535552	49	4818
2026-01-22 03:32:51.62	253.68	8.35	-39.4	-41.8	12.7	1.09e-04	0	58	0	2273312768	49	5008
2026-01-22 03:32:54.65	253.38	8.15	-39.4	-41.9	12.6	1.42e-04	0	58	0	2290089984	49	5053
2026-01-22 03:32:57.68	253.09	7.95	-44.6	-56.2	3.8	8.45e-01	0	58	104	2301624320	59	14767
2026-01-22 03:33:00.71	252.80	7.75	-45.0	-56.8	3.8	8.45e-01	0	58	104	2301624320	60	14946
2026-01-22 03:33:03.74	252.52	7.55	-45.2	-57.0	3.8	8.46e-01	0	58	104	2301624320	60	15242
2026-01-22 03:33:06.77	252.24	7.35	-45.2	-57.0	3.8	8.47e-01	0	58	104	2301624320	60	15227
2026-01-22 03:33:09.81	251.96	7.15	-45.1	-56.8	3.8	8.47e-01	0	58	104	2301624320	60	15045
2026-01-22 03:33:12.84	251.69	6.96	-45.1	-56.9	3.8	8.46e-01	0	58	104	2301624320	60	15059
2026-01-22 03:33:15.87	251.42	6.76	-45.1	-56.8	3.8	8.47e-01	0	58	104	2301624320	60	14969
2026-01-22 03:33:18.90	251.16	6.56	-45.1	-56.8	3.8	8.46e-01	0	58	104	2301624320	60	14974
2026-01-22 03:33:21.93	250.90	6.37	-45.0	-56.8	3.8	8.46e-01	0	58	104	2301624320	60	14924
2026-01-22 03:33:24.96	250.64	6.18	-45.0	-56.7	3.8	8.46e-01	0	58	104	2301624320	60	14843
2026-01-22 03:33:27.99	250.39	5.99	-45.0	-56.8	3.8	8.46e-01	0	58	104	2301624320	60	14881
2026-01-22 03:33:31.02	250.14	5.80	-45.0	-56.7	3.8	8.46e-01	0	58	104	2301624320	60	14856
2026-01-22 03:33:34.06	249.89	5.60	-45.0	-56.8	3.8	8.47e-01	0	58	104	2301624320	60	14887
2026-01-22 03:33:37.09	249.64	5.41	-45.0	-56.7	3.8	8.46e-01	0	58	104	2301624320	60	14831
2026-01-22 03:33:40.12	249.40	5.23	-45.0	-56.7	3.8	8.47e-01	0	58	104	2301624320	60	14847
2026-01-22 03:33:43.15	249.17	5.04	-45.0	-56.7	3.8	8.46e-01	0	58	104	2301624320	60	14855
2026-01-22 03:33:46.18	248.93	4.85	-45.0	-56.7	3.8	8.46e-01	0	58	104	2301624320	60	14833
2026-01-22 03:33:49.21	248.70	4.67	-45.0	-56.7	3.8	8.45e-01	0	58	104	2301624320	60	14829
2026-01-22 03:33:52.24	248.47	4.48	-45.0	-56.7	3.8	8.46e-01	0	58	104	2301624320	60	14847
2026-01-22 03:33:55.27	248.25	4.30	-45.0	-56.7	3.8	8.46e-01	0	58	104	2301624320	60	14827
2026-01-22 03:33:58.30	248.03	4.11	-45.0	-56.7	3.8	8.45e-01	0	58	104	2301624320	60	14836
2026-01-22 03:34:01.33	247.81	3.93	-45.0	-56.8	3.8	8.47e-01	0	58	104	2301624320	60	14883
2026-01-22 03:34:04.37	247.59	3.75	-45.0	-56.7	3.8	8.45e-01	0	58	104	2301624320	60	14811
2026-01-22 03:34:07.40	247.38	3.57	-45.0	-56.7	3.8	8.47e-01	0	58	104	2301624320	60	14828
2026-01-22 03:34:10.43	247.16	3.39	-45.0	-56.8	3.8	8.46e-01	0	58	104	2301624320	60	14886
2026-01-22 03:34:13.46	246.96	3.21	-45.0	-56.7	3.8	8.46e-01	0	58	104	2301624320	60	14784
2026-01-22 03:34:16.49	246.75	3.03	-45.0	-56.7	3.8	8.47e-01	0	58	104	2301624320	60	14866
2026-01-22 03:34:19.52	246.55	2.85	-45.0	-56.7	3.8	8.46e-01	0	58	104	2301624320	60	14844
2026-01-22 03:34:22.55	246.35	2.68	-45.0	-56.7	3.8	8.46e-01	0	58	104	2301624320	60	14820
2026-01-22 03:34:25.58	246.15	2.50	-45.0	-56.7	3.8	8.46e-01	0	58	104	2301624320	60	14803
2026-01-22 03:34:28.61	245.95	2.33	-45.0	-56.7	3.8	8.45e-01	0	58	104	2301624320	60	14798
2026-01-22 03:34:31.65	245.76	2.15	-45.0	-56.7	3.8	8.45e-01	0	58	104	2301624320	60	14865
2026-01-22 03:34:34.68	245.57	1.98	-45.0	-56.7	3.8	8.47e-01	0	58	104	2301624320	60	14808

#Closed at: 2026-01-22 03:34:35
#Recorded file [2301 MB]: D:/lorett/data/31039_260122_062151.dat