passes_logs/2026/01/22/R2.0S_Moscow/R2.0S_Moscow__20260122_105508_NOAA_20_JPSS-1_rec.log

#Pass ID: 20260122_105508_NOAA 20 (JPSS-1)
#Satellite: NOAA 20 (JPSS-1)
#Configuration: NOAA 20
#almurnet v.1.7.20251203
#Start time: 2026-01-22 10:55:08

#Version: 2.2.20231116
#Station: R2.0S_Moscow
#Location: 37.707566 lon 55.798166 lat
#TLE: 1 43013U 17073A   26021.46221703  .00000173  00000+0  10299-3 0  9999
#TLE: 2 43013  98.7644 322.3335 0001238  29.7597 330.3649 14.19538314423652

#Time	Az	El	Level	Level2	SNR	BER	BlckErr	Temp	State	Recorded	gain1	gain2
2026-01-22 10:55:08.06	190.15	1.96	-44.0	-58.5	3.8	1.49e+00	0	52	0	0	59	19176
2026-01-22 10:55:12.10	190.34	2.21	-44.0	-58.5	3.8	1.49e+00	0	53	104	0	59	19210
2026-01-22 10:55:16.14	190.54	2.46	-44.0	-58.4	3.8	1.49e+00	0	53	104	0	59	19138
2026-01-22 10:55:20.19	190.74	2.71	-44.0	-58.4	3.8	1.49e+00	0	53	104	0	59	19151
2026-01-22 10:55:24.23	190.94	2.96	-44.0	-58.4	3.8	1.49e+00	0	53	104	0	59	19128
2026-01-22 10:55:28.27	191.15	3.21	-44.0	-58.4	3.8	1.49e+00	0	53	104	0	59	19128
2026-01-22 10:55:32.32	191.35	3.46	-44.0	-58.4	3.8	1.49e+00	0	54	104	0	59	19135
2026-01-22 10:55:36.36	191.57	3.72	-44.0	-58.4	3.8	1.49e+00	0	54	104	0	59	19078
2026-01-22 10:55:40.40	191.78	3.98	-44.0	-58.4	3.8	1.49e+00	0	54	104	0	59	19020
2026-01-22 10:55:44.44	192.00	4.24	-44.0	-58.4	3.8	1.49e+00	0	54	104	0	59	19064
2026-01-22 10:55:48.48	192.22	4.51	-43.9	-58.3	3.8	1.49e+00	0	54	104	0	59	18868
2026-01-22 10:55:52.53	192.45	4.77	-43.9	-58.4	3.8	1.49e+00	0	55	104	0	59	18992
2026-01-22 10:55:56.57	192.68	5.04	-43.9	-58.3	3.8	1.49e+00	0	55	104	0	59	18733
2026-01-22 10:56:00.61	192.92	5.31	-43.9	-58.0	3.8	1.49e+00	0	55	104	0	59	18119
2026-01-22 10:56:04.65	193.16	5.58	-43.9	-57.2	3.8	1.49e+00	0	56	104	0	59	16537
2026-01-22 10:56:08.69	193.40	5.86	-43.8	-55.9	3.8	1.49e+00	0	56	104	0	59	14255
2026-01-22 10:56:12.74	193.65	6.14	-43.6	-54.3	4.4	1.33e+00	72	56	0	0	59	11911
2026-01-22 10:56:16.78	193.90	6.42	-43.6	-53.6	4.6	9.89e-01	0	56	0	8388608	59	11020
2026-01-22 10:56:20.82	194.16	6.70	-43.6	-54.2	4.4	1.17e+00	87	56	0	15728640	59	11713
2026-01-22 10:56:24.86	194.42	6.99	-43.6	-54.0	4.4	1.21e+00	39	56	0	22020096	59	11479
2026-01-22 10:56:28.90	194.69	7.27	-43.3	-52.0	5.5	5.70e-01	0	56	0	29360128	58	9693
2026-01-22 10:56:32.94	194.96	7.57	-42.9	-49.7	7.3	1.27e-01	0	57	0	36700160	57	7893
2026-01-22 10:56:36.98	195.24	7.86	-42.6	-48.8	8.2	5.55e-02	0	57	0	45088768	57	7095
2026-01-22 10:56:41.02	195.52	8.16	-43.8	-58.0	3.8	7.91e-01	0	57	104	51380224	58	19252
2026-01-22 10:56:45.06	195.81	8.46	-42.7	-48.4	8.9	2.68e-01	0	57	0	56623104	57	6773
2026-01-22 10:56:49.10	196.10	8.76	-42.7	-48.4	8.8	3.10e-02	0	57	0	63963136	57	6793
2026-01-22 10:56:53.13	196.40	9.06	-42.3	-48.1	8.6	3.72e-02	0	57	0	72351744	56	6924
2026-01-22 10:56:57.17	196.70	9.37	-42.1	-47.9	8.5	4.47e-02	0	57	0	79691776	56	6758
2026-01-22 10:57:01.21	197.02	9.69	-42.1	-47.8	8.8	3.11e-02	0	58	0	87031808	56	6680
2026-01-22 10:57:05.25	197.34	10.00	-42.3	-47.6	9.6	1.30e-02	0	57	0	94371840	56	6534
2026-01-22 10:57:09.29	197.66	10.32	-42.4	-47.5	9.7	1.10e-02	0	58	0	102760448	56	6462
2026-01-22 10:57:13.33	197.99	10.64	-40.5	-46.8	7.7	7.26e-02	0	58	0	110100480	53	7098
2026-01-22 10:57:17.37	198.33	10.97	-40.1	-46.6	7.5	9.71e-02	0	58	0	117440512	51	7789
2026-01-22 10:57:21.40	198.68	11.30	-40.7	-46.5	8.7	4.18e-02	0	58	0	124780544	52	7237
2026-01-22 10:57:25.44	199.03	11.63	-41.6	-46.6	10.0	8.37e-03	0	58	0	132120576	53	6899
2026-01-22 10:57:29.48	199.39	11.96	-41.5	-46.5	10.3	4.40e-03	0	58	0	140509184	54	6487
2026-01-22 10:57:33.52	199.77	12.30	-40.6	-46.4	9.2	1.54e-02	0	58	0	147849216	53	6743
2026-01-22 10:57:37.56	200.14	12.65	-40.1	-46.0	9.0	2.72e-02	0	58	0	155189248	52	6852
2026-01-22 10:57:41.60	200.53	13.00	-39.9	-45.9	8.7	3.75e-02	0	58	0	162529280	51	7143
2026-01-22 10:57:45.63	200.93	13.35	-39.8	-45.8	8.3	4.85e-02	0	59	0	170917888	51	7102
2026-01-22 10:57:49.67	201.33	13.70	-40.2	-45.8	8.9	2.79e-02	0	58	0	178257920	51	7081
2026-01-22 10:57:53.70	201.75	14.06	-40.8	-45.7	10.3	7.64e-03	0	59	0	185597952	52	6588
2026-01-22 10:57:57.74	202.17	14.42	-41.1	-45.7	11.0	2.07e-03	0	59	0	192937984	52	6602
2026-01-22 10:58:01.78	202.61	14.79	-41.5	-45.7	11.7	5.25e-04	0	59	0	200278016	53	6236
2026-01-22 10:58:05.82	203.05	15.16	-41.7	-45.7	11.9	3.39e-04	0	59	0	208666624	53	6272
2026-01-22 10:58:09.86	203.51	15.54	-41.8	-45.7	12.0	3.93e-04	0	59	0	216006656	54	5917
2026-01-22 10:58:13.89	203.97	15.91	-41.7	-45.5	12.3	1.65e-04	0	59	0	223346688	54	5773
2026-01-22 10:58:17.93	204.45	16.30	-41.8	-45.6	12.3	1.97e-04	0	59	0	230686720	54	5829
2026-01-22 10:58:21.97	204.94	16.68	-41.9	-45.8	12.2	2.48e-04	0	59	0	239075328	54	5951
2026-01-22 10:58:26.01	205.45	17.08	-42.0	-45.9	12.1	3.02e-04	0	59	0	246415360	54	6048
2026-01-22 10:58:30.05	205.96	17.47	-42.1	-46.0	12.0	3.53e-04	0	59	0	253755392	54	6115
2026-01-22 10:58:34.09	206.49	17.87	-42.1	-46.2	11.9	4.57e-04	0	59	0	261095424	54	6212
2026-01-22 10:58:38.12	207.04	18.28	-42.2	-46.3	11.8	5.38e-04	0	59	0	268435456	55	5960
2026-01-22 10:58:42.16	207.59	18.69	-42.3	-46.4	11.7	6.42e-04	0	59	0	276824064	55	6015
2026-01-22 10:58:46.20	208.17	19.10	-42.3	-46.6	11.5	8.25e-04	0	59	0	284164096	55	6155
2026-01-22 10:58:50.24	208.76	19.52	-42.5	-47.0	11.1	1.54e-03	0	59	0	291504128	55	6435
2026-01-22 10:58:54.27	209.36	19.93	-42.6	-47.0	11.0	1.74e-03	0	59	0	298844160	55	6480
2026-01-22 10:58:58.31	209.98	20.36	-42.5	-46.9	11.2	1.55e-03	0	59	0	307232768	55	6381
2026-01-22 10:59:02.35	210.62	20.79	-42.4	-46.7	11.4	8.82e-04	0	60	0	314572800	55	6241
2026-01-22 10:59:06.39	211.27	21.22	-42.4	-46.6	11.5	9.00e-04	0	59	0	321912832	55	6202
2026-01-22 10:59:10.42	211.94	21.66	-42.5	-46.8	11.4	1.01e-03	0	59	0	329252864	55	6285
2026-01-22 10:59:14.46	212.64	22.10	-42.4	-46.7	11.4	1.03e-03	0	60	0	336592896	55	6243
2026-01-22 10:59:18.50	213.35	22.54	-42.5	-46.8	11.3	1.15e-03	0	59	0	344981504	55	6319
2026-01-22 10:59:22.54	214.08	22.99	-42.5	-46.8	11.4	9.31e-04	0	60	0	352321536	55	6280
2026-01-22 10:59:26.58	214.83	23.44	-42.4	-46.5	11.7	6.65e-04	0	60	0	359661568	55	6063
2026-01-22 10:59:30.61	215.60	23.89	-42.4	-46.5	11.6	5.84e-04	0	59	0	367001600	55	6124
2026-01-22 10:59:34.65	216.40	24.34	-42.2	-46.2	12.0	2.99e-04	0	59	0	375390208	55	5893
2026-01-22 10:59:38.69	217.22	24.80	-42.0	-45.7	12.5	1.25e-04	0	60	0	382730240	55	5591
2026-01-22 10:59:42.73	218.06	25.26	-41.9	-45.5	12.7	6.56e-05	0	60	0	390070272	55	5427
2026-01-22 10:59:46.77	218.92	25.72	-41.9	-45.5	12.7	6.17e-05	0	60	0	397410304	55	5432
2026-01-22 10:59:50.81	219.82	26.18	-41.9	-45.4	12.8	4.57e-05	0	60	0	404750336	55	5402
2026-01-22 10:59:54.84	220.73	26.64	-41.9	-45.5	12.7	7.24e-05	0	60	0	413138944	55	5464
2026-01-22 10:59:58.88	221.67	27.10	-42.1	-45.8	12.4	1.40e-04	0	59	0	420478976	55	5656
2026-01-22 11:00:02.92	222.64	27.56	-42.2	-46.1	12.1	3.33e-04	0	60	0	427819008	55	5839
2026-01-22 11:00:06.95	223.64	28.01	-42.2	-46.1	12.1	2.56e-04	0	60	0	435159040	55	5817
2026-01-22 11:00:10.99	224.67	28.47	-42.4	-46.5	11.7	6.35e-04	0	60	0	443547648	55	6126
2026-01-22 11:00:15.03	225.72	28.93	-42.6	-47.0	11.2	1.12e-03	0	60	0	450887680	55	6443
2026-01-22 11:00:19.07	226.81	29.38	-43.2	-48.1	10.2	4.96e-03	0	60	0	458227712	56	6937
2026-01-22 11:00:23.11	227.92	29.83	-43.1	-47.9	10.4	4.87e-03	0	60	0	465567744	56	6754
2026-01-22 11:00:27.14	229.06	30.27	-43.5	-48.9	9.4	1.39e-02	0	60	0	472907776	57	7168
2026-01-22 11:00:31.18	230.24	30.70	-44.0	-50.5	7.7	7.63e-02	0	60	0	481296384	58	8164
2026-01-22 11:00:35.22	231.45	31.13	-44.1	-51.1	7.2	1.36e-01	0	60	0	488636416	58	8716
2026-01-22 11:00:39.26	232.69	31.55	-45.0	-59.5	3.8	1.07e+00	0	60	104	494927872	60	20352
2026-01-22 11:00:43.30	233.96	31.97	-44.1	-51.0	7.3	1.55e-01	0	60	0	498073600	59	8117
2026-01-22 11:00:47.34	235.26	32.37	-44.1	-51.0	7.2	1.20e-01	0	60	0	506462208	59	8136
2026-01-22 11:00:51.37	236.59	32.76	-44.2	-51.8	6.5	1.15e+00	0	60	0	510656512	60	8406
2026-01-22 11:00:55.41	237.95	33.14	-43.9	-50.1	8.2	5.54e-02	0	60	0	517996544	59	7323
2026-01-22 11:00:59.45	239.35	33.50	-43.5	-48.9	9.4	2.14e-02	0	60	0	525336576	58	6773
2026-01-22 11:01:03.49	240.78	33.85	-43.3	-48.4	9.9	9.63e-03	0	60	0	532676608	58	6402
2026-01-22 11:01:07.52	242.23	34.19	-43.2	-48.1	10.2	6.83e-03	0	60	0	540016640	58	6159
2026-01-22 11:01:11.56	243.72	34.50	-42.9	-47.3	11.1	1.79e-03	0	60	0	548405248	57	5942
2026-01-22 11:01:15.60	245.23	34.80	-42.7	-47.0	11.4	1.28e-03	0	60	0	555745280	57	5735
2026-01-22 11:01:19.64	246.77	35.08	-43.0	-47.7	10.6	3.45e-03	0	60	0	563085312	57	6233
2026-01-22 11:01:23.67	248.33	35.34	-43.2	-48.2	10.1	6.09e-03	0	60	0	570425344	57	6627
2026-01-22 11:01:27.71	249.92	35.57	-42.9	-47.5	10.8	2.27e-03	0	60	0	577765376	57	6100
2026-01-22 11:01:31.75	251.53	35.79	-42.9	-47.4	10.9	3.04e-03	0	60	0	586153984	57	6061
2026-01-22 11:01:35.79	253.16	35.98	-42.5	-46.5	11.9	4.71e-04	0	60	0	593494016	57	5463
2026-01-22 11:01:39.82	254.80	36.14	-42.5	-46.5	11.9	4.20e-04	0	60	0	600834048	56	5731
2026-01-22 11:01:43.86	256.46	36.28	-42.9	-47.3	11.1	1.12e-03	0	60	0	608174080	56	6340
2026-01-22 11:01:47.89	258.13	36.39	-43.5	-49.0	9.3	2.03e-02	0	60	0	615514112	57	7208
2026-01-22 11:01:51.93	259.81	36.48	-43.3	-48.4	9.9	7.67e-03	0	60	0	623902720	57	6756
2026-01-22 11:01:55.97	261.50	36.54	-43.5	-49.0	9.3	1.81e-02	0	60	0	631242752	57	7268
2026-01-22 11:02:00.01	263.20	36.57	-43.5	-48.9	9.4	2.07e-02	0	60	0	638582784	57	7134
2026-01-22 11:02:04.05	264.90	36.57	-43.5	-48.9	9.5	1.20e-02	0	60	0	645922816	57	7122
2026-01-22 11:02:08.08	266.59	36.55	-43.3	-48.3	10.0	8.87e-03	0	60	0	654311424	57	6668
2026-01-22 11:02:12.12	268.28	36.50	-43.4	-48.5	9.8	8.61e-03	0	60	0	661651456	57	6833
2026-01-22 11:02:16.16	269.96	36.42	-42.6	-46.7	11.8	7.17e-04	0	60	0	668991488	57	5558
2026-01-22 11:02:20.20	271.64	36.31	-43.1	-47.7	10.6	3.00e-03	0	60	0	676331520	57	6265
2026-01-22 11:02:24.23	273.30	36.18	-42.7	-46.8	11.6	8.48e-04	0	60	0	683671552	57	5614
2026-01-22 11:02:28.27	274.95	36.02	-43.2	-48.1	10.2	5.49e-03	0	60	0	692060160	57	6561
2026-01-22 11:02:32.31	276.58	35.84	-43.8	-49.7	8.6	3.07e-02	0	60	0	699400192	58	7405
2026-01-22 11:02:36.35	278.19	35.63	-43.4	-48.6	9.7	1.41e-02	0	60	0	706740224	58	6543
2026-01-22 11:02:40.38	279.78	35.41	-43.4	-48.7	9.6	1.48e-02	0	60	0	714080256	58	6620
2026-01-22 11:02:44.42	281.34	35.15	-43.5	-49.0	9.3	1.35e-02	0	60	0	722468864	58	6805
2026-01-22 11:02:48.46	282.89	34.88	-43.1	-47.8	10.5	4.90e-03	0	60	0	729808896	58	5988
2026-01-22 11:02:52.49	284.40	34.59	-43.2	-48.1	10.3	5.39e-03	0	60	0	737148928	57	6495
2026-01-22 11:02:56.53	285.89	34.28	-42.8	-47.1	11.3	1.50e-03	0	60	0	744488960	57	5814
2026-01-22 11:03:00.56	287.34	33.95	-42.6	-46.8	11.6	6.13e-04	0	60	0	751828992	57	5607
2026-01-22 11:03:04.60	288.77	33.61	-43.2	-48.0	10.3	4.67e-03	0	60	0	760217600	57	6485
2026-01-22 11:03:08.64	290.17	33.25	-43.0	-47.5	10.8	2.62e-03	0	60	0	767557632	57	6109
2026-01-22 11:03:12.68	291.54	32.87	-42.9	-47.3	11.0	2.36e-03	0	60	0	774897664	57	5988
2026-01-22 11:03:16.72	292.88	32.49	-43.2	-48.1	10.2	5.63e-03	0	60	0	782237696	57	6562
2026-01-22 11:03:20.76	294.19	32.09	-43.2	-48.1	10.3	5.25e-03	0	60	0	789577728	57	6507
2026-01-22 11:03:24.79	295.46	31.69	-43.9	-50.4	7.9	6.72e-02	0	60	0	797966336	58	7996
2026-01-22 11:03:28.83	296.70	31.27	-43.1	-47.8	10.5	3.50e-03	0	60	0	805306368	58	5942
2026-01-22 11:03:32.87	297.91	30.85	-43.3	-48.3	10.0	1.02e-02	0	60	0	812646400	58	6305
2026-01-22 11:03:36.91	299.09	30.41	-43.3	-48.4	9.9	5.63e-03	0	60	0	819986432	57	6754
2026-01-22 11:03:40.94	300.24	29.98	-43.0	-47.7	10.6	5.74e-03	0	60	0	828375040	57	6214
2026-01-22 11:03:44.98	301.36	29.53	-43.7	-49.8	8.4	3.01e-02	0	60	0	835715072	57	7965
2026-01-22 11:03:49.02	302.45	29.09	-42.8	-47.2	11.0	1.65e-03	0	60	0	843055104	57	5906
2026-01-22 11:03:53.06	303.51	28.64	-43.4	-48.8	9.3	1.82e-02	0	60	0	850395136	57	7107
2026-01-22 11:03:57.09	304.54	28.18	-42.7	-47.1	11.2	1.31e-03	0	60	0	857735168	57	5807
2026-01-22 11:04:01.13	305.54	27.73	-43.6	-49.4	8.7	4.00e-02	0	61	0	866123776	57	7615
2026-01-22 11:04:05.17	306.51	27.27	-42.9	-47.4	10.8	2.39e-03	0	60	0	873463808	57	6010
2026-01-22 11:04:09.21	307.46	26.82	-43.4	-48.8	9.4	2.15e-02	0	60	0	880803840	57	7049
2026-01-22 11:04:13.24	308.38	26.36	-42.8	-47.2	11.0	2.56e-03	0	60	0	888143872	57	5888
2026-01-22 11:04:17.28	309.27	25.90	-43.0	-47.9	10.3	7.82e-03	0	60	0	896532480	57	6376
2026-01-22 11:04:21.31	310.14	25.45	-42.5	-46.7	11.5	9.38e-04	0	60	0	903872512	57	5589
2026-01-22 11:04:25.35	310.99	24.99	-42.7	-47.2	11.0	2.66e-03	0	60	0	911212544	57	5905
2026-01-22 11:04:29.39	311.81	24.54	-41.7	-45.2	12.8	4.95e-05	0	60	0	918552576	55	5269
2026-01-22 11:04:33.43	312.61	24.09	-41.7	-45.2	12.9	5.56e-05	0	60	0	925892608	55	5241
2026-01-22 11:04:37.47	313.39	23.64	-41.4	-44.7	13.3	1.06e-05	0	60	0	934281216	54	5278
2026-01-22 11:04:41.50	314.14	23.19	-41.3	-44.5	13.6	8.30e-06	0	60	0	941621248	54	5112
2026-01-22 11:04:45.54	314.88	22.75	-41.3	-44.5	13.6	1.22e-05	0	61	0	948961280	54	5124
2026-01-22 11:04:49.58	315.59	22.31	-40.8	-43.6	14.4	0.00e+00	0	60	0	956301312	53	4909
2026-01-22 11:04:53.62	316.29	21.87	-41.1	-44.2	13.9	3.00e-06	0	60	0	964689920	53	5230
2026-01-22 11:04:57.65	316.97	21.44	-41.1	-44.2	13.9	5.30e-06	0	60	0	972029952	53	5229
2026-01-22 11:05:01.69	317.63	21.01	-40.9	-43.9	14.1	7.00e-07	0	60	0	979369984	53	5076
2026-01-22 11:05:05.72	318.27	20.58	-41.4	-44.8	13.2	1.83e-05	0	60	0	986710016	53	5625
2026-01-22 11:05:09.76	318.89	20.16	-41.6	-45.1	12.9	4.04e-05	0	60	0	994050048	53	5812
2026-01-22 11:05:13.80	319.50	19.74	-41.3	-44.6	13.4	1.44e-05	0	60	0	1002438656	53	5487
2026-01-22 11:05:17.84	320.09	19.33	-41.3	-44.7	13.2	2.59e-05	0	60	0	1009778688	53	5583
2026-01-22 11:05:21.88	320.67	18.92	-41.5	-45.1	12.8	5.95e-05	0	60	0	1017118720	53	5815
2026-01-22 11:05:25.91	321.23	18.51	-41.4	-44.9	13.0	4.50e-05	0	60	0	1024458752	53	5670
2026-01-22 11:05:29.95	321.78	18.11	-41.7	-45.4	12.5	1.04e-04	0	60	0	1032847360	53	5998
2026-01-22 11:05:33.99	322.31	17.71	-41.7	-45.4	12.4	1.40e-04	0	60	0	1040187392	54	5709
2026-01-22 11:05:38.02	322.83	17.32	-41.9	-45.9	11.9	2.86e-04	0	60	0	1047527424	54	6034
2026-01-22 11:05:42.06	323.34	16.93	-42.4	-46.9	10.8	2.32e-03	0	60	0	1054867456	55	6396
2026-01-22 11:05:46.10	323.83	16.54	-42.3	-46.7	11.1	1.84e-03	0	61	0	1062207488	55	6203
2026-01-22 11:05:50.14	324.32	16.16	-41.9	-46.0	11.8	6.22e-04	0	61	0	1070596096	55	5749
2026-01-22 11:05:54.17	324.79	15.78	-42.1	-46.3	11.5	8.04e-04	0	60	0	1077936128	55	5930
2026-01-22 11:05:58.21	325.25	15.41	-42.3	-46.7	11.0	2.00e-03	0	60	0	1085276160	55	6246
2026-01-22 11:06:02.25	325.70	15.04	-42.1	-46.4	11.2	2.03e-03	0	60	0	1092616192	55	6054
2026-01-22 11:06:06.29	326.14	14.67	-41.9	-45.9	11.8	6.12e-04	0	60	0	1101004800	55	5666
2026-01-22 11:06:10.33	326.57	14.31	-42.0	-46.3	11.4	8.54e-04	0	60	0	1108344832	55	5951
2026-01-22 11:06:14.37	326.98	13.96	-42.3	-47.0	10.6	3.22e-03	0	60	0	1115684864	55	6444
2026-01-22 11:06:18.40	327.39	13.60	-42.2	-46.8	10.7	3.20e-03	0	60	0	1123024896	55	6323
2026-01-22 11:06:22.44	327.79	13.25	-42.1	-46.5	11.1	1.79e-03	0	61	0	1130364928	55	6068
2026-01-22 11:06:26.48	328.19	12.91	-41.9	-46.1	11.5	8.33e-04	0	60	0	1138753536	55	5817
2026-01-22 11:06:30.52	328.57	12.56	-41.8	-45.8	11.7	6.18e-04	0	60	0	1146093568	55	5655
2026-01-22 11:06:34.55	328.94	12.23	-41.9	-46.3	11.2	1.26e-03	0	60	0	1153433600	55	5954
2026-01-22 11:06:38.60	329.31	11.89	-42.0	-46.5	11.0	2.02e-03	0	60	0	1160773632	55	6107
2026-01-22 11:06:42.63	329.67	11.56	-42.0	-46.5	10.9	2.17e-03	0	60	0	1169162240	55	6121
2026-01-22 11:06:46.67	330.02	11.23	-41.9	-46.2	11.2	1.51e-03	0	61	0	1176502272	55	5915
2026-01-22 11:06:50.71	330.36	10.91	-41.8	-46.1	11.3	1.23e-03	0	60	0	1183842304	55	5798
2026-01-22 11:06:54.74	330.70	10.59	-41.9	-46.3	11.0	1.81e-03	0	60	0	1191182336	55	5987
2026-01-22 11:06:58.78	331.03	10.27	-41.9	-46.6	10.7	3.09e-03	0	61	0	1198522368	55	6132
2026-01-22 11:07:02.82	331.35	9.96	-42.0	-46.8	10.4	4.10e-03	0	60	0	1206910976	55	6295
2026-01-22 11:07:06.86	331.67	9.65	-42.0	-46.8	10.3	5.19e-03	0	60	0	1214251008	55	6339
2026-01-22 11:07:10.90	331.98	9.34	-41.9	-46.7	10.4	4.60e-03	0	60	0	1221591040	55	6244
2026-01-22 11:07:14.93	332.28	9.03	-41.9	-46.8	10.3	5.73e-03	0	61	0	1228931072	55	6292
2026-01-22 11:07:18.97	332.58	8.73	-41.9	-46.9	10.1	7.03e-03	0	61	0	1237319680	55	6351
2026-01-22 11:07:23.01	332.87	8.43	-42.0	-47.3	9.6	1.22e-02	0	61	0	1244659712	55	6672
2026-01-22 11:07:27.04	333.16	8.14	-42.0	-47.5	9.3	1.90e-02	0	61	0	1251999744	55	6833
2026-01-22 11:07:31.08	333.44	7.85	-44.8	-59.4	3.8	1.49e+00	0	61	104	1255145472	60	20173
2026-01-22 11:07:35.13	333.72	7.56	-45.2	-59.9	3.8	1.49e+00	0	61	104	1255145472	61	20075
2026-01-22 11:07:39.17	333.99	7.27	-45.2	-59.8	3.8	1.49e+00	0	60	104	1255145472	61	20044
2026-01-22 11:07:43.21	334.26	6.98	-45.2	-59.8	3.8	1.49e+00	0	61	104	1255145472	61	20042
2026-01-22 11:07:47.25	334.52	6.70	-45.2	-59.7	3.8	1.49e+00	0	60	104	1255145472	60	20957
2026-01-22 11:07:51.29	334.78	6.42	-45.1	-59.8	3.8	1.49e+00	0	61	104	1255145472	60	21067
2026-01-22 11:07:55.33	335.03	6.15	-45.1	-59.7	3.8	1.49e+00	0	61	104	1255145472	60	20864
2026-01-22 11:07:59.38	335.28	5.87	-45.1	-59.7	3.8	1.49e+00	0	61	104	1255145472	60	20875
2026-01-22 11:08:03.42	335.53	5.60	-45.2	-59.4	3.8	1.49e+00	0	61	104	1255145472	59	21336
2026-01-22 11:08:07.46	335.77	5.33	-45.1	-59.7	3.8	1.49e+00	0	61	104	1255145472	60	20901
2026-01-22 11:08:11.50	336.00	5.06	-45.1	-59.7	3.8	1.49e+00	0	61	104	1255145472	60	20856
2026-01-22 11:08:15.54	336.23	4.80	-45.1	-59.7	3.8	1.49e+00	0	61	104	1255145472	60	20886
2026-01-22 11:08:19.59	336.46	4.54	-45.1	-59.7	3.8	1.49e+00	0	61	104	1255145472	60	20909
2026-01-22 11:08:23.63	336.69	4.28	-45.1	-59.7	3.8	1.49e+00	0	61	104	1255145472	60	20845
2026-01-22 11:08:27.67	336.91	4.02	-45.1	-59.7	3.8	1.49e+00	0	61	104	1255145472	60	20885
2026-01-22 11:08:31.71	337.13	3.76	-45.1	-59.7	3.8	1.49e+00	0	61	104	1255145472	60	20812
2026-01-22 11:08:35.75	337.34	3.51	-45.1	-59.7	3.8	1.49e+00	0	61	104	1255145472	60	20807
2026-01-22 11:08:39.79	337.55	3.26	-45.1	-59.7	3.8	1.49e+00	0	61	104	1255145472	60	20916
2026-01-22 11:08:43.83	337.76	3.01	-45.1	-59.7	3.8	1.49e+00	0	61	104	1255145472	60	20868
2026-01-22 11:08:47.88	337.96	2.76	-45.1	-59.7	3.8	1.49e+00	0	61	104	1255145472	60	20846
2026-01-22 11:08:51.92	338.16	2.51	-45.0	-59.7	3.8	1.49e+00	0	61	104	1255145472	60	20846
2026-01-22 11:08:55.96	338.36	2.27	-45.0	-59.6	3.8	1.49e+00	0	61	104	1255145472	60	20775
2026-01-22 11:09:00.00	338.56	2.03	-45.1	-59.7	3.8	1.49e+00	0	61	104	1255145472	60	20818

#Closed at: 2026-01-22 11:09:00
#Recorded file [1255 MB]: D:/lorett/data/31039_260122_135507.dat