passes_logs/2026/01/22/R2.0S_Moscow/R2.0S_Moscow__20260122_221451_NOAA_21_JPSS-2_rec.log

#Pass ID: 20260122_221451_NOAA 21 (JPSS-2)
#Satellite: NOAA 21 (JPSS-2)
#Configuration: NOAA-21
#almurnet v.1.7.20251203
#Start time: 2026-01-22 22:14:53

#Version: 2.2.20231116
#Station: R2.0S_Moscow
#Location: 37.707566 lon 55.798166 lat
#TLE: 1 54234U 22150A   26022.41365820  .00000211  00000+0  12084-3 0  9990
#TLE: 2 54234  98.7507 323.2240 0000658 234.5287 125.5828 14.19537645165864

#Time	Az	El	Level	Level2	SNR	BER	BlckErr	Temp	State	Recorded	gain1	gain2
2026-01-22 22:14:53.03	24.67	2.11	-42.8	-55.0	3.8	1.49e+00	0	51	0	0	57	14431
2026-01-22 22:14:57.07	24.95	2.33	-42.8	-55.0	3.8	1.49e+00	0	52	104	0	57	14492
2026-01-22 22:15:01.10	25.23	2.56	-42.8	-55.0	3.8	1.49e+00	0	52	104	0	57	14491
2026-01-22 22:15:05.14	25.51	2.79	-42.8	-55.0	3.8	1.49e+00	0	52	104	0	57	14515
2026-01-22 22:15:09.18	25.80	3.01	-42.7	-55.0	3.8	1.49e+00	0	53	104	0	57	14472
2026-01-22 22:15:13.22	26.09	3.24	-42.8	-55.0	3.8	1.49e+00	0	53	104	0	57	14492
2026-01-22 22:15:17.26	26.39	3.48	-42.8	-55.0	3.8	1.49e+00	0	53	104	0	57	14511
2026-01-22 22:15:21.30	26.69	3.71	-42.7	-55.0	3.8	1.49e+00	0	53	104	0	57	14507
2026-01-22 22:15:25.35	27.00	3.94	-42.7	-55.0	3.8	1.49e+00	0	54	104	0	57	14488
2026-01-22 22:15:29.39	27.31	4.18	-42.7	-55.0	3.8	1.49e+00	0	54	104	0	57	14467
2026-01-22 22:15:33.43	27.62	4.42	-42.8	-55.0	3.8	1.49e+00	0	54	104	0	57	14525
2026-01-22 22:15:37.47	27.94	4.65	-42.8	-55.0	3.8	1.49e+00	0	54	104	0	57	14479
2026-01-22 22:15:41.51	28.27	4.89	-42.7	-55.0	3.8	1.49e+00	0	55	104	0	57	14465
2026-01-22 22:15:45.55	28.60	5.13	-42.7	-55.0	3.8	1.49e+00	0	55	104	0	57	14445
2026-01-22 22:15:49.59	28.93	5.38	-42.7	-55.0	3.8	1.49e+00	0	55	104	0	57	14468
2026-01-22 22:15:53.63	29.28	5.62	-42.7	-55.0	3.8	1.49e+00	0	55	104	0	57	14466
2026-01-22 22:15:57.67	29.62	5.87	-42.7	-55.0	3.8	1.49e+00	0	55	104	0	57	14431
2026-01-22 22:16:01.71	29.97	6.11	-42.7	-54.9	3.8	1.49e+00	0	55	104	0	57	14293
2026-01-22 22:16:05.75	30.33	6.36	-42.7	-54.9	3.8	1.49e+00	0	56	104	0	57	14287
2026-01-22 22:16:09.79	30.69	6.61	-42.7	-54.6	3.8	1.49e+00	0	56	104	0	57	13852
2026-01-22 22:16:13.83	31.06	6.87	-42.6	-53.6	3.8	1.49e+00	0	56	104	0	57	12375
2026-01-22 22:16:17.87	31.44	7.12	-42.6	-53.9	3.8	1.49e+00	0	56	104	0	57	12735
2026-01-22 22:16:21.91	31.82	7.37	-42.7	-54.4	3.8	1.49e+00	0	56	104	0	57	13558
2026-01-22 22:16:25.95	32.21	7.63	-41.6	-48.2	5.6	4.98e-01	0	56	0	0	55	7400
2026-01-22 22:16:30.00	32.60	7.89	-40.2	-44.3	9.1	2.29e-02	0	56	0	12582912	52	5644
2026-01-22 22:16:34.04	33.00	8.15	-41.6	-53.3	3.8	1.49e+00	0	57	104	24117248	54	14209
2026-01-22 22:16:38.07	33.41	8.41	-40.7	-44.6	9.4	2.25e-02	0	57	0	34603008	53	5522
2026-01-22 22:16:42.11	33.83	8.67	-40.6	-44.3	9.8	1.01e-02	0	57	0	47185920	52	5632
2026-01-22 22:16:46.15	34.25	8.93	-40.4	-43.8	10.5	3.97e-03	0	57	0	59768832	52	5321
2026-01-22 22:16:50.19	34.68	9.20	-40.4	-43.8	10.6	4.10e-03	0	57	0	72351744	52	5313
2026-01-22 22:16:54.23	35.11	9.47	-40.3	-43.6	11.0	2.11e-03	0	57	0	84934656	52	5169
2026-01-22 22:16:58.26	35.56	9.73	-40.3	-43.4	11.3	1.16e-03	0	57	0	97517568	52	5076
2026-01-22 22:17:02.30	36.01	10.00	-40.3	-43.3	11.4	1.01e-03	0	57	0	110100480	52	5038
2026-01-22 22:17:06.34	36.47	10.27	-40.2	-43.2	11.7	5.95e-04	0	57	0	122683392	52	4969
2026-01-22 22:17:10.38	36.94	10.55	-40.3	-43.3	11.7	4.99e-04	0	58	0	135266304	52	4998
2026-01-22 22:17:14.41	37.42	10.82	-40.3	-43.2	11.8	4.71e-04	0	58	0	147849216	52	4959
2026-01-22 22:17:18.45	37.90	11.09	-40.2	-43.0	12.1	3.17e-04	0	58	0	160432128	52	4845
2026-01-22 22:17:22.50	38.40	11.37	-40.1	-42.8	12.3	1.85e-04	0	58	0	173015040	52	4751
2026-01-22 22:17:26.54	38.91	11.65	-40.1	-42.8	12.4	1.40e-04	0	58	0	185597952	52	4736
2026-01-22 22:17:30.58	39.42	11.93	-40.0	-42.6	12.7	8.23e-05	0	58	0	198180864	52	4629
2026-01-22 22:17:34.62	39.94	12.21	-39.9	-42.5	12.9	4.19e-05	0	58	0	210763776	51	4828
2026-01-22 22:17:38.65	40.47	12.49	-39.9	-42.4	13.0	5.41e-05	0	58	0	223346688	51	4776
2026-01-22 22:17:42.69	41.02	12.77	-39.9	-42.3	13.2	2.51e-05	0	58	0	235929600	51	4736
2026-01-22 22:17:46.73	41.57	13.05	-40.0	-42.5	13.0	4.19e-05	0	58	0	248512512	51	4850
2026-01-22 22:17:50.77	42.13	13.34	-40.0	-42.5	13.0	3.81e-05	0	58	0	261095424	51	4843
2026-01-22 22:17:54.81	42.71	13.62	-39.9	-42.4	13.1	2.74e-05	0	58	0	273678336	51	4798
2026-01-22 22:17:58.85	43.29	13.91	-40.1	-42.6	12.9	3.73e-05	0	58	0	286261248	51	4913
2026-01-22 22:18:02.88	43.89	14.19	-40.1	-42.7	12.9	4.42e-05	0	58	0	298844160	51	4959
2026-01-22 22:18:06.92	44.49	14.48	-39.9	-42.4	13.2	1.98e-05	0	59	0	311427072	51	4778
2026-01-22 22:18:10.96	45.11	14.77	-39.8	-42.2	13.4	1.75e-05	0	59	0	324009984	51	4676
2026-01-22 22:18:15.00	45.74	15.06	-39.9	-42.3	13.3	1.75e-05	0	59	0	336592896	51	4728
2026-01-22 22:18:19.04	46.39	15.34	-40.0	-42.4	13.2	1.98e-05	0	59	0	349175808	51	4801
2026-01-22 22:18:23.07	47.04	15.63	-40.0	-42.5	13.2	3.66e-05	0	59	0	362807296	51	4823
2026-01-22 22:18:27.11	47.71	15.92	-40.0	-42.5	13.2	2.74e-05	0	59	0	374341632	51	4833
2026-01-22 22:18:31.15	48.38	16.21	-39.9	-42.3	13.3	1.37e-05	0	59	0	387973120	51	4750
2026-01-22 22:18:35.20	49.08	16.49	-39.8	-42.1	13.6	3.00e-06	0	59	0	400556032	51	4605
2026-01-22 22:18:39.23	49.78	16.78	-39.8	-42.1	13.5	9.90e-06	0	59	0	413138944	51	4634
2026-01-22 22:18:43.28	50.50	17.06	-39.8	-42.1	13.6	6.80e-06	0	59	0	425721856	51	4629
2026-01-22 22:18:47.32	51.23	17.35	-39.7	-42.0	13.7	3.80e-06	0	59	0	438304768	51	4580
2026-01-22 22:18:51.35	51.98	17.63	-39.8	-42.1	13.6	3.80e-06	0	59	0	450887680	51	4640
2026-01-22 22:18:55.39	52.74	17.91	-39.8	-42.1	13.6	1.37e-05	0	59	0	463470592	51	4644
2026-01-22 22:18:59.43	53.51	18.19	-39.9	-42.2	13.6	7.60e-06	0	59	0	476053504	51	4692
2026-01-22 22:19:03.47	54.30	18.47	-39.9	-42.3	13.5	6.80e-06	0	59	0	488636416	51	4716
2026-01-22 22:19:07.51	55.10	18.75	-39.8	-42.1	13.6	4.50e-06	0	59	0	501219328	51	4647
2026-01-22 22:19:11.55	55.91	19.02	-39.9	-42.2	13.6	7.60e-06	0	59	0	513802240	51	4689
2026-01-22 22:19:15.59	56.74	19.29	-40.1	-42.5	13.3	1.52e-05	0	59	0	526385152	51	4833
2026-01-22 22:19:19.62	57.59	19.56	-40.0	-42.4	13.4	1.29e-05	0	60	0	538968064	51	4777
2026-01-22 22:19:23.66	58.44	19.83	-39.9	-42.2	13.5	1.44e-05	0	59	0	551550976	51	4687
2026-01-22 22:19:27.70	59.32	20.09	-40.1	-42.5	13.2	1.90e-05	0	59	0	564133888	51	4847
2026-01-22 22:19:31.74	60.21	20.34	-39.8	-42.1	13.7	7.60e-06	0	59	0	576716800	51	4602
2026-01-22 22:19:35.78	61.11	20.60	-39.7	-42.0	13.8	3.80e-06	0	59	0	589299712	51	4562
2026-01-22 22:19:39.81	62.02	20.84	-39.8	-42.2	13.6	2.20e-06	0	60	0	601882624	51	4662
2026-01-22 22:19:43.85	62.96	21.09	-39.7	-42.0	13.8	5.30e-06	0	60	0	614465536	51	4566
2026-01-22 22:19:47.89	63.90	21.33	-39.6	-41.8	14.0	2.20e-06	0	59	0	627048448	51	4473
2026-01-22 22:19:51.94	64.86	21.56	-39.6	-41.8	14.0	3.00e-06	0	60	0	639631360	51	4449
2026-01-22 22:19:55.98	65.84	21.79	-39.4	-41.6	14.3	3.00e-06	0	60	0	652214272	50	4607
2026-01-22 22:20:00.01	66.83	22.00	-39.6	-41.8	14.0	2.20e-06	0	59	0	664797184	50	4731
2026-01-22 22:20:04.05	67.83	22.22	-39.5	-41.7	14.1	7.00e-07	0	60	0	677380096	50	4659
2026-01-22 22:20:08.09	68.84	22.42	-39.6	-41.9	13.8	3.00e-06	0	59	0	689963008	50	4777
2026-01-22 22:20:12.13	69.87	22.62	-39.6	-41.9	13.8	9.10e-06	0	60	0	703594496	50	4792
2026-01-22 22:20:16.17	70.91	22.81	-39.8	-42.2	13.4	1.52e-05	0	60	0	716177408	50	4970
2026-01-22 22:20:20.22	71.97	22.99	-39.7	-42.1	13.6	1.22e-05	0	60	0	728760320	50	4889
2026-01-22 22:20:24.25	73.03	23.17	-39.6	-41.9	13.6	8.30e-06	0	60	0	741343232	50	4812
2026-01-22 22:20:28.29	74.11	23.33	-39.5	-41.7	13.9	6.10e-06	0	60	0	753926144	50	4702
2026-01-22 22:20:32.33	75.20	23.49	-39.5	-41.7	14.0	2.20e-06	0	60	0	766509056	50	4687
2026-01-22 22:20:36.37	76.30	23.63	-39.4	-41.7	14.0	3.00e-06	0	60	0	779091968	50	4652
2026-01-22 22:20:40.41	77.41	23.77	-39.3	-41.5	14.2	3.00e-06	0	60	0	791674880	50	4553
2026-01-22 22:20:44.45	78.52	23.89	-39.4	-41.5	14.2	1.50e-06	0	60	0	804257792	50	4584
2026-01-22 22:20:48.48	79.65	24.00	-39.2	-41.3	14.4	1.50e-06	0	60	0	816840704	50	4491
2026-01-22 22:20:52.53	80.78	24.11	-39.3	-41.3	14.4	0.00e+00	0	60	0	829423616	50	4492
2026-01-22 22:20:56.57	81.93	24.20	-39.4	-41.5	14.3	0.00e+00	0	60	0	842006528	50	4552
2026-01-22 22:21:00.61	83.07	24.28	-39.3	-41.4	14.4	0.00e+00	0	60	0	854589440	50	4524
2026-01-22 22:21:04.64	84.22	24.34	-39.6	-41.9	13.9	1.50e-06	0	60	0	867172352	50	4771
2026-01-22 22:21:08.68	85.38	24.40	-39.6	-41.8	14.0	2.20e-06	0	60	0	879755264	50	4708
2026-01-22 22:21:12.72	86.54	24.45	-39.4	-41.5	14.3	3.80e-06	0	60	0	892338176	50	4570
2026-01-22 22:21:16.76	87.70	24.48	-39.3	-41.4	14.3	7.00e-07	0	60	0	904921088	50	4542
2026-01-22 22:21:20.80	88.87	24.50	-39.4	-41.5	14.3	2.20e-06	0	60	0	917504000	50	4598
2026-01-22 22:21:24.84	90.04	24.51	-39.5	-41.6	14.2	0.00e+00	0	60	0	930086912	50	4649
2026-01-22 22:21:28.88	91.21	24.50	-39.4	-41.5	14.3	0.00e+00	0	60	0	942669824	50	4573
2026-01-22 22:21:32.92	92.37	24.48	-39.3	-41.4	14.5	0.00e+00	0	60	0	955252736	50	4506
2026-01-22 22:21:36.96	93.54	24.46	-39.3	-41.3	14.6	0.00e+00	0	60	0	967835648	50	4477
2026-01-22 22:21:41.00	94.70	24.41	-39.3	-41.3	14.6	0.00e+00	0	60	0	980418560	50	4471
2026-01-22 22:21:45.04	95.86	24.36	-39.3	-41.3	14.6	0.00e+00	0	60	0	993001472	50	4477
2026-01-22 22:21:49.08	97.02	24.30	-39.1	-41.1	14.8	1.50e-06	0	60	0	1005584384	50	4387
2026-01-22 22:21:53.12	98.17	24.22	-39.1	-41.1	14.9	0.00e+00	0	60	0	1018167296	50	4344
2026-01-22 22:21:57.16	99.31	24.13	-39.3	-41.4	14.6	7.00e-07	0	60	0	1030750208	50	4515
2026-01-22 22:22:01.19	100.45	24.03	-39.3	-41.3	14.7	0.00e+00	0	60	0	1044381696	50	4478
2026-01-22 22:22:05.23	101.58	23.92	-39.6	-41.8	14.3	7.00e-07	0	60	0	1056964608	50	4709
2026-01-22 22:22:09.26	102.70	23.80	-39.4	-41.6	14.5	7.00e-07	0	60	0	1069547520	50	4601
2026-01-22 22:22:13.30	103.81	23.67	-39.3	-41.3	14.7	7.00e-07	0	60	0	1082130432	50	4492
2026-01-22 22:22:17.34	104.91	23.52	-39.5	-41.6	14.4	7.00e-07	0	60	0	1094713344	50	4648
2026-01-22 22:22:21.38	106.01	23.37	-39.5	-41.6	14.4	7.00e-07	0	60	0	1107296256	50	4629
2026-01-22 22:22:25.42	107.09	23.21	-39.6	-41.7	14.3	1.50e-06	0	60	0	1119879168	50	4664
2026-01-22 22:22:29.46	108.17	23.04	-39.6	-41.7	14.3	0.00e+00	0	60	0	1132462080	50	4682
2026-01-22 22:22:33.49	109.22	22.86	-39.7	-41.8	14.2	0.00e+00	0	60	0	1145044992	50	4753
2026-01-22 22:22:37.53	110.27	22.67	-39.7	-41.9	14.1	1.50e-06	0	60	0	1157627904	50	4810
2026-01-22 22:22:41.58	111.31	22.47	-39.8	-42.0	14.0	3.00e-06	0	60	0	1170210816	50	4831
2026-01-22 22:22:45.61	112.33	22.27	-39.6	-41.8	14.2	2.20e-06	0	60	0	1182793728	50	4714
2026-01-22 22:22:49.65	113.34	22.05	-39.6	-41.8	14.2	1.50e-06	0	60	0	1195376640	50	4715
2026-01-22 22:22:53.70	114.34	21.83	-39.6	-41.7	14.3	2.20e-06	0	60	0	1207959552	50	4682
2026-01-22 22:22:57.74	115.32	21.61	-39.6	-41.8	14.2	7.00e-07	0	60	0	1220542464	50	4725
2026-01-22 22:23:01.78	116.29	21.38	-39.7	-41.9	14.1	4.50e-06	0	60	0	1233125376	50	4788
2026-01-22 22:23:05.82	117.25	21.14	-39.6	-41.7	14.3	7.00e-07	0	60	0	1245708288	50	4680
2026-01-22 22:23:09.86	118.19	20.89	-39.6	-41.8	14.2	1.50e-06	0	60	0	1258291200	50	4730
2026-01-22 22:23:13.90	119.11	20.64	-39.8	-42.0	13.9	4.50e-06	0	60	0	1270874112	50	4846
2026-01-22 22:23:17.94	120.02	20.39	-39.5	-41.7	14.2	0.00e+00	0	60	0	1283457024	50	4683
2026-01-22 22:23:21.97	120.92	20.13	-39.4	-41.5	14.3	3.00e-06	0	60	0	1296039936	50	4595
2026-01-22 22:23:26.01	121.80	19.87	-39.5	-41.7	14.3	3.00e-06	0	60	0	1308622848	50	4659
2026-01-22 22:23:30.05	122.66	19.60	-39.6	-41.8	14.1	4.50e-06	0	60	0	1321205760	50	4742
2026-01-22 22:23:34.09	123.52	19.33	-39.6	-41.9	13.7	3.80e-06	0	60	0	1333788672	50	4766
2026-01-22 22:23:38.13	124.35	19.06	-39.4	-41.6	14.3	2.05e-05	0	60	0	1346371584	49	4876
2026-01-22 22:23:42.17	125.18	18.79	-39.5	-41.7	14.1	1.50e-06	0	60	0	1358954496	49	4983
2026-01-22 22:23:46.21	125.98	18.51	-39.6	-41.9	14.0	3.00e-06	0	60	0	1371537408	49	5061
2026-01-22 22:23:50.24	126.78	18.23	-39.6	-41.8	13.9	1.50e-06	0	60	0	1385168896	49	5041
2026-01-22 22:23:54.28	127.56	17.95	-39.6	-41.9	13.9	6.80e-06	0	60	0	1397751808	49	5062
2026-01-22 22:23:58.33	128.32	17.66	-39.7	-42.0	13.8	4.50e-06	0	60	0	1410334720	50	4846
2026-01-22 22:24:02.37	129.08	17.38	-39.7	-42.0	13.8	5.30e-06	0	60	0	1422917632	50	4849
2026-01-22 22:24:06.40	129.81	17.09	-39.7	-42.0	13.7	1.14e-04	0	61	0	1435500544	50	4842
2026-01-22 22:24:10.44	130.54	16.80	-39.2	-42.1	11.8	1.13e-03	0	60	0	1448083456	48	5523
2026-01-22 22:24:14.49	131.25	16.51	-39.9	-42.5	13.1	5.72e-02	0	60	0	1460666368	50	5101
2026-01-22 22:24:18.53	131.95	16.22	-40.0	-42.6	12.7	7.34e-03	0	60	0	1473249280	50	5179
2026-01-22 22:24:22.57	132.63	15.93	-40.3	-42.9	12.1	1.92e-01	0	61	0	1484783616	50	5387
2026-01-22 22:24:26.61	133.31	15.64	-39.9	-42.7	12.3	3.44e-02	0	60	0	1494220800	50	5250
2026-01-22 22:24:30.65	133.97	15.35	-33.2	-41.4	9.9	6.63e-01	0	60	104	1504706560	40	8026
2026-01-22 22:24:34.69	134.61	15.06	-30.5	-41.5	6.1	2.82e-01	7	60	0	1515192320	44	6481
2026-01-22 22:24:38.73	135.25	14.77	-28.8	-40.2	5.0	5.73e-01	0	60	104	1522532352	35	9359
2026-01-22 22:24:42.76	135.87	14.48	-40.1	-43.1	11.8	6.01e-02	0	60	0	1527775232	50	5496
2026-01-22 22:24:46.80	136.48	14.19	-40.1	-43.0	11.2	1.76e-02	9	61	0	1537212416	48	6097
2026-01-22 22:24:50.84	137.08	13.90	-35.7	-42.2	11.1	2.46e-01	15	61	0	1543503872	35	11774
2026-01-22 22:24:54.87	137.67	13.61	-40.1	-42.9	12.4	7.73e-03	0	60	0	1556086784	50	5365
2026-01-22 22:24:58.92	138.25	13.32	-40.2	-43.2	8.6	1.21e-01	26	60	0	1567621120	45	7415
2026-01-22 22:25:02.95	138.82	13.04	-40.5	-43.3	12.0	1.51e-03	0	60	0	1581252608	51	5333
2026-01-22 22:25:06.99	139.37	12.75	-40.4	-43.3	12.0	6.40e-04	0	60	0	1593835520	51	5304
2026-01-22 22:25:11.02	139.92	12.47	-40.4	-43.3	12.0	3.27e-04	0	61	0	1606418432	51	5309
2026-01-22 22:25:15.06	140.46	12.18	-40.4	-43.3	12.0	9.06e-04	0	61	0	1619001344	51	5298
2026-01-22 22:25:19.10	140.98	11.90	-40.5	-43.5	11.8	4.33e-04	0	61	0	1631584256	51	5411
2026-01-22 22:25:23.14	141.50	11.62	-40.4	-43.4	11.9	4.07e-04	0	61	0	1644167168	51	5359
2026-01-22 22:25:27.18	142.01	11.34	-40.6	-43.6	11.7	5.36e-04	0	61	0	1656750080	51	5474
2026-01-22 22:25:31.23	142.51	11.06	-40.5	-43.5	11.7	5.74e-04	0	61	0	1669332992	51	5439
2026-01-22 22:25:35.26	142.99	10.78	-40.4	-43.3	11.8	4.41e-04	0	61	0	1681915904	51	5335
2026-01-22 22:25:39.30	143.47	10.50	-40.5	-43.6	11.6	6.76e-04	0	61	0	1694498816	51	5485
2026-01-22 22:25:43.34	143.94	10.23	-40.7	-43.9	11.2	1.18e-03	0	60	0	1707081728	51	5703
2026-01-22 22:25:47.38	144.41	9.95	-40.7	-44.0	11.0	1.82e-03	0	60	0	1719664640	52	5450
2026-01-22 22:25:51.41	144.86	9.68	-40.7	-44.0	10.9	1.98e-03	0	61	0	1732247552	52	5452
2026-01-22 22:25:55.45	145.31	9.41	-40.6	-43.9	11.0	1.72e-03	0	60	0	1744830464	52	5375
2026-01-22 22:25:59.48	145.74	9.14	-40.6	-44.0	10.8	2.40e-03	0	61	0	1757413376	52	5426
2026-01-22 22:26:03.52	146.18	8.87	-40.7	-44.2	10.6	2.87e-03	0	61	0	1769996288	52	5567
2026-01-22 22:26:07.56	146.60	8.60	-40.7	-44.2	10.5	3.67e-03	0	60	0	1782579200	52	5557
2026-01-22 22:26:11.60	147.02	8.34	-40.8	-44.5	10.2	6.26e-03	0	61	0	1795162112	52	5759
2026-01-22 22:26:15.64	147.42	8.07	-40.8	-44.5	10.1	8.00e-03	0	61	0	1807745024	52	5762
2026-01-22 22:26:19.68	147.83	7.81	-45.1	-57.7	3.8	1.49e+00	0	61	104	1810890752	60	16534
2026-01-22 22:26:23.71	148.22	7.55	-45.5	-58.1	3.8	1.49e+00	0	61	104	1810890752	61	16346
2026-01-22 22:26:27.76	148.61	7.29	-45.4	-57.8	3.8	1.49e+00	0	61	104	1810890752	61	15837
2026-01-22 22:26:31.80	148.99	7.03	-45.2	-57.5	3.8	1.49e+00	0	61	104	1810890752	61	15359
2026-01-22 22:26:35.84	149.36	6.78	-45.2	-57.5	3.8	1.49e+00	0	61	104	1810890752	61	15334
2026-01-22 22:26:39.88	149.73	6.52	-45.2	-57.5	3.8	1.49e+00	0	60	104	1810890752	61	15339
2026-01-22 22:26:43.92	150.10	6.27	-45.2	-57.5	3.8	1.49e+00	0	61	104	1810890752	61	15348
2026-01-22 22:26:47.96	150.45	6.02	-45.1	-57.5	3.8	1.49e+00	0	61	104	1810890752	61	15279
2026-01-22 22:26:52.01	150.80	5.77	-45.1	-57.5	3.8	1.49e+00	0	61	104	1810890752	61	15310
2026-01-22 22:26:56.05	151.15	5.52	-45.1	-57.5	3.8	1.49e+00	0	61	104	1810890752	61	15304
2026-01-22 22:27:00.09	151.49	5.27	-45.1	-57.5	3.8	1.49e+00	0	61	104	1810890752	61	15309
2026-01-22 22:27:04.13	151.82	5.03	-45.1	-57.5	3.8	1.49e+00	0	61	104	1810890752	61	15251
2026-01-22 22:27:08.17	152.15	4.78	-45.1	-57.5	3.8	1.49e+00	0	61	104	1810890752	61	15241
2026-01-22 22:27:12.21	152.48	4.54	-45.1	-57.5	3.8	1.49e+00	0	61	104	1810890752	61	15280
2026-01-22 22:27:16.26	152.80	4.30	-45.1	-57.5	3.8	1.49e+00	0	61	104	1810890752	61	15248
2026-01-22 22:27:20.29	153.11	4.06	-45.1	-57.5	3.8	1.49e+00	0	61	104	1810890752	61	15259
2026-01-22 22:27:24.33	153.42	3.82	-45.1	-57.4	3.8	1.49e+00	0	61	104	1810890752	61	15216
2026-01-22 22:27:28.38	153.72	3.58	-45.1	-57.4	3.8	1.49e+00	0	61	104	1810890752	61	15206
2026-01-22 22:27:32.42	154.02	3.35	-45.1	-57.5	3.8	1.49e+00	0	61	104	1810890752	61	15227
2026-01-22 22:27:36.46	154.32	3.11	-45.1	-57.4	3.8	1.49e+00	0	61	104	1810890752	61	15131
2026-01-22 22:27:40.50	154.61	2.88	-45.1	-57.4	3.8	1.49e+00	0	61	104	1810890752	61	15210
2026-01-22 22:27:44.55	154.89	2.65	-45.1	-57.4	3.8	1.49e+00	0	61	104	1810890752	61	15169
2026-01-22 22:27:48.59	155.17	2.42	-45.1	-57.4	3.8	1.49e+00	0	61	104	1810890752	61	15207
2026-01-22 22:27:52.62	155.45	2.19	-45.1	-57.4	3.8	1.49e+00	0	61	104	1810890752	61	15221
2026-01-22 22:27:56.66	155.72	1.96	-45.1	-57.4	3.8	1.49e+00	0	61	104	1810890752	61	15189

#Closed at: 2026-01-22 22:27:58
#Recorded file [1810 MB]: D:/lorett/data/31039_260123_011452.dat