passes_logs/2026/01/30/planumMaritime01/planumMaritime01__20260130_073100_METOP-B_rec.log

#Pass ID: 20260130_073100_METOP-B
#Satellite: METOP-B
#Configuration: METOP-B
#Start time: 2026-01-30 07:31:05.488543

#LorettStation: 1.0.0 05.05.2024
#Station: planumMaritime01
#Location: 37.49445 lon 55.92918 lat
#TLE: 1 38771U 12049A   26029.44837381  .00000209  00000+0  11573-3 0  9999
#TLE: 2 38771  98.6725  83.5823 0002823  46.8790 313.2623 14.21430466693552

#Time	Az	El	Level	SNR
2026-01-30 07:31:07.658097	13.8	10.2	-66.2	0.0
2026-01-30 07:31:09.905489	13.8	10.4	-67.9	0.0
2026-01-30 07:31:12.152074	13.8	10.6	-66.3	0.0
2026-01-30 07:31:14.401481	13.7	10.8	-59.8	0.0
2026-01-30 07:31:16.650262	13.7	11.0	-64.3	0.0
2026-01-30 07:31:18.901010	13.6	11.2	-62.6	0.0
2026-01-30 07:31:21.154641	13.6	11.4	-62.0	0.0
2026-01-30 07:31:23.401876	13.6	11.6	-62.5	0.0
2026-01-30 07:31:25.650912	13.5	11.8	-60.2	0.0
2026-01-30 07:31:27.900780	13.5	12.0	-61.0	0.0
2026-01-30 07:31:30.149168	13.4	12.2	-60.2	0.0
2026-01-30 07:31:32.396512	13.4	12.4	-60.8	0.0
2026-01-30 07:31:34.644432	13.4	12.7	-62.7	0.0
2026-01-30 07:31:36.890769	13.3	12.9	-63.8	0.0
2026-01-30 07:31:39.135478	13.3	13.1	-64.2	0.0
2026-01-30 07:31:41.379590	13.2	13.3	-63.5	0.0
2026-01-30 07:31:43.626601	13.2	13.5	-60.6	0.0
2026-01-30 07:31:45.873267	13.1	13.8	-63.2	0.0
2026-01-30 07:31:48.120691	13.1	14.0	-63.5	0.0
2026-01-30 07:31:50.364457	13.0	14.2	-59.9	0.0
2026-01-30 07:31:52.607621	13.0	14.5	-61.8	0.0
2026-01-30 07:31:54.851598	12.9	14.7	-59.9	0.0
2026-01-30 07:31:57.099353	12.9	14.9	-60.5	0.0
2026-01-30 07:31:59.343177	12.8	15.2	-62.2	0.0
2026-01-30 07:32:01.590130	12.8	15.4	-63.1	0.0
2026-01-30 07:32:03.834917	12.7	15.7	-60.8	0.0
2026-01-30 07:32:06.079832	12.7	15.9	-64.8	0.0
2026-01-30 07:32:08.324036	12.6	16.1	-65.6	0.0
2026-01-30 07:32:10.571380	12.6	16.4	-65.1	0.0
2026-01-30 07:32:12.816717	12.5	16.6	-64.1	0.0
2026-01-30 07:32:15.059593	12.5	16.9	-64.4	0.0
2026-01-30 07:32:17.303029	12.4	17.2	-64.1	0.0
2026-01-30 07:32:19.548678	12.3	17.4	-64.7	0.0
2026-01-30 07:32:21.796497	12.3	17.7	-63.4	0.0
2026-01-30 07:32:24.043337	12.2	18.0	-62.1	0.0
2026-01-30 07:32:26.289719	12.1	18.2	-63.6	0.0
2026-01-30 07:32:28.532991	12.1	18.5	-61.2	0.0
2026-01-30 07:32:30.781553	12.0	18.8	-61.4	0.0
2026-01-30 07:32:33.029170	11.9	19.1	-59.4	0.0
2026-01-30 07:32:35.275255	11.9	19.3	-63.1	0.0
2026-01-30 07:32:37.519082	11.8	19.6	-64.6	0.0
2026-01-30 07:32:39.764323	11.7	19.9	-61.5	0.0
2026-01-30 07:32:42.012301	11.6	20.2	-65.0	0.0
2026-01-30 07:32:44.257115	11.6	20.5	-61.7	0.0
2026-01-30 07:32:46.504301	11.5	20.8	-62.6	0.0
2026-01-30 07:32:48.748661	11.4	21.1	-64.4	0.0
2026-01-30 07:32:50.996140	11.3	21.4	-62.3	0.0
2026-01-30 07:32:53.241774	11.2	21.7	-63.6	0.0
2026-01-30 07:32:55.484247	11.2	22.0	-65.9	0.0
2026-01-30 07:32:57.730183	11.1	22.4	-66.7	0.0
2026-01-30 07:32:59.974371	11.0	22.7	-60.2	0.0
2026-01-30 07:33:02.218649	10.9	23.0	-61.8	0.0
2026-01-30 07:33:04.460427	10.8	23.3	-61.1	0.0
2026-01-30 07:33:06.703920	10.7	23.7	-60.8	0.0
2026-01-30 07:33:08.949533	10.6	24.0	-68.0	0.0
2026-01-30 07:33:11.194280	10.5	24.3	-62.9	0.0
2026-01-30 07:33:13.440376	10.4	24.7	-67.4	0.0
2026-01-30 07:33:15.684567	10.3	25.0	-63.4	0.0
2026-01-30 07:33:17.927709	10.2	25.4	-62.6	0.0
2026-01-30 07:33:20.172544	10.1	25.8	-62.2	0.0
2026-01-30 07:33:22.420984	9.9	26.1	-63.8	0.0
2026-01-30 07:33:24.671636	9.8	26.5	-65.3	0.0
2026-01-30 07:33:26.919547	9.7	26.9	-61.9	0.0
2026-01-30 07:33:29.162978	9.6	27.3	-62.2	0.0
2026-01-30 07:33:31.406409	9.5	27.6	-64.4	0.0
2026-01-30 07:33:33.651919	9.3	28.0	-63.7	0.0
2026-01-30 07:33:35.895508	9.2	28.4	-64.3	0.0
2026-01-30 07:33:38.140589	9.1	28.8	-62.9	0.0
2026-01-30 07:33:40.387136	8.9	29.2	-64.8	0.0
2026-01-30 07:33:42.630619	8.8	29.7	-63.3	0.0
2026-01-30 07:33:44.879450	8.6	30.1	-64.2	0.0
2026-01-30 07:33:47.124924	8.5	30.5	-64.6	0.0
2026-01-30 07:33:49.367979	8.3	30.9	-64.7	0.0
2026-01-30 07:33:51.614455	8.2	31.4	-63.9	0.0
2026-01-30 07:33:53.857979	8.0	31.8	-65.0	0.0
2026-01-30 07:33:56.108667	7.8	32.3	-63.6	0.0
2026-01-30 07:33:58.355408	7.6	32.7	-63.4	0.0
2026-01-30 07:34:00.356858	7.5	33.1	-65.2	0.0
2026-01-30 07:34:02.599149	7.3	33.6	-63.6	0.0
2026-01-30 07:34:04.843368	7.1	34.1	-64.2	0.0
2026-01-30 07:34:07.089713	6.9	34.6	-63.4	0.0
2026-01-30 07:34:09.333076	6.7	35.1	-65.2	0.0
2026-01-30 07:34:11.574330	6.5	35.6	-64.7	0.0
2026-01-30 07:34:13.819881	6.3	36.1	-67.0	0.0
2026-01-30 07:34:16.064184	6.1	36.6	-65.4	0.0
2026-01-30 07:34:18.311127	5.8	37.1	-66.3	0.0
2026-01-30 07:34:20.556202	5.6	37.6	-67.1	0.0
2026-01-30 07:34:22.805020	5.3	38.2	-67.4	0.0
2026-01-30 07:34:25.050235	5.1	38.7	-67.7	0.0
2026-01-30 07:34:27.299869	4.8	39.3	-67.7	0.7
2026-01-30 07:34:29.547902	4.5	39.9	-67.7	0.0
2026-01-30 07:34:31.793863	4.2	40.4	-69.0	3.7
2026-01-30 07:34:34.041985	3.9	41.0	-68.8	1.8
2026-01-30 07:34:36.288069	3.6	41.6	-69.0	5.4
2026-01-30 07:34:38.533871	3.3	42.2	-68.7	5.3
2026-01-30 07:34:40.778765	3.0	42.8	-69.6	5.7
2026-01-30 07:34:43.025185	2.6	43.4	-69.1	5.4
2026-01-30 07:34:45.271284	2.3	44.0	-70.5	6.1
2026-01-30 07:34:47.516817	1.9	44.7	-70.5	5.5
2026-01-30 07:34:49.761513	1.5	45.3	-70.6	6.6
2026-01-30 07:34:52.010289	1.1	46.0	-71.1	7.4
2026-01-30 07:34:54.256741	0.7	46.6	-71.1	7.2
2026-01-30 07:34:56.502012	0.2	47.3	-71.2	6.3
2026-01-30 07:34:58.747425	359.8	48.0	-71.3	7.7
2026-01-30 07:35:00.992809	359.3	48.7	-71.3	8.1
2026-01-30 07:35:03.237851	358.8	49.4	-71.8	8.0
2026-01-30 07:35:05.482915	358.3	50.1	-72.2	10.0
2026-01-30 07:35:07.728684	357.7	50.8	-71.1	7.8
2026-01-30 07:35:09.969091	357.1	51.5	-72.2	9.7
2026-01-30 07:35:12.210507	356.5	52.2	-72.0	10.1
2026-01-30 07:35:14.459671	355.9	53.0	-71.3	8.3
2026-01-30 07:35:16.706859	355.2	53.7	-72.4	9.5
2026-01-30 07:35:18.951616	354.5	54.5	-72.0	8.3
2026-01-30 07:35:21.197996	353.7	55.2	-71.0	6.5
2026-01-30 07:35:23.446945	352.9	56.0	-70.9	7.0
2026-01-30 07:35:25.695596	352.1	56.7	-71.8	8.9
2026-01-30 07:35:27.941301	351.2	57.5	-72.3	7.3
2026-01-30 07:35:30.187927	350.2	58.3	-71.6	7.9
2026-01-30 07:35:32.432955	349.2	59.1	-72.1	6.2
2026-01-30 07:35:34.681487	348.2	59.8	-72.1	7.8
2026-01-30 07:35:36.926138	347.0	60.6	-71.7	7.0
2026-01-30 07:35:39.170336	345.8	61.4	-72.7	8.7
2026-01-30 07:35:41.418366	344.6	62.2	-72.3	7.2
2026-01-30 07:35:43.663993	343.2	62.9	-70.8	4.5
2026-01-30 07:35:45.909776	341.7	63.7	-72.2	8.1
2026-01-30 07:35:48.153389	340.2	64.5	-72.1	8.2
2026-01-30 07:35:50.398550	338.5	65.2	-72.4	8.7
2026-01-30 07:35:52.645958	336.8	65.9	-72.0	7.7
2026-01-30 07:35:54.891829	334.9	66.7	-72.2	8.8
2026-01-30 07:35:57.134422	332.8	67.3	-72.0	6.6
2026-01-30 07:35:59.379007	330.7	68.0	-71.3	5.8
2026-01-30 07:36:01.622491	328.4	68.7	-71.6	8.5
2026-01-30 07:36:03.870144	325.9	69.3	-71.8	5.8
2026-01-30 07:36:06.116664	323.3	69.9	-72.5	6.3
2026-01-30 07:36:08.364598	320.5	70.4	-71.9	5.5
2026-01-30 07:36:10.606047	317.6	70.9	-72.3	3.8
2026-01-30 07:36:12.851051	314.4	71.4	-73.5	6.9
2026-01-30 07:36:15.098393	311.2	71.8	-73.2	5.2
2026-01-30 07:36:17.342945	307.8	72.1	-73.5	7.0
2026-01-30 07:36:19.589930	304.2	72.4	-72.9	6.2
2026-01-30 07:36:21.834832	300.6	72.6	-74.7	6.2
2026-01-30 07:36:24.081841	296.8	72.8	-74.4	6.2
2026-01-30 07:36:26.328717	293.0	72.9	-75.0	8.2
2026-01-30 07:36:28.573521	289.2	72.9	-74.2	5.8
2026-01-30 07:36:30.820593	285.4	72.8	-74.6	6.9
2026-01-30 07:36:33.066680	281.7	72.7	-74.8	7.5
2026-01-30 07:36:35.315001	278.0	72.4	-74.8	7.6
2026-01-30 07:36:37.562936	274.4	72.2	-74.6	8.6
2026-01-30 07:36:39.805764	271.0	71.8	-74.6	7.0
2026-01-30 07:36:42.053606	267.7	71.4	-74.7	8.2
2026-01-30 07:36:44.299689	264.6	71.0	-74.5	8.2
2026-01-30 07:36:46.543014	261.6	70.5	-74.6	8.7
2026-01-30 07:36:48.788364	258.8	70.0	-74.5	8.5
2026-01-30 07:36:51.032127	256.1	69.4	-74.2	8.1
2026-01-30 07:36:53.276707	253.6	68.8	-74.2	9.1
2026-01-30 07:36:55.521022	251.3	68.1	-73.6	7.2
2026-01-30 07:36:57.767780	249.1	67.4	-73.9	8.6
2026-01-30 07:37:00.013526	247.1	66.8	-73.4	8.4
2026-01-30 07:37:02.260327	245.2	66.0	-73.6	10.0
2026-01-30 07:37:04.505372	243.4	65.3	-73.3	10.2
2026-01-30 07:37:06.750413	241.7	64.6	-73.4	8.2
2026-01-30 07:37:08.996522	240.1	63.8	-73.7	8.4
2026-01-30 07:37:11.241265	238.7	63.0	-73.8	8.4
2026-01-30 07:37:13.480902	237.3	62.3	-73.6	8.8
2026-01-30 07:37:15.727361	236.0	61.5	-73.0	7.5
2026-01-30 07:37:17.971105	234.8	60.7	-74.3	9.2
2026-01-30 07:37:20.217397	233.6	59.9	-73.3	6.9
2026-01-30 07:37:22.462995	232.6	59.2	-73.5	7.9
2026-01-30 07:37:24.708869	231.5	58.4	-73.3	8.6
2026-01-30 07:37:26.954063	230.6	57.6	-73.1	7.4
2026-01-30 07:37:29.199316	229.7	56.8	-73.1	7.9
2026-01-30 07:37:31.441988	228.8	56.1	-73.3	9.3
2026-01-30 07:37:33.689606	228.0	55.3	-73.4	9.1
2026-01-30 07:37:35.935081	227.3	54.5	-73.0	8.4
2026-01-30 07:37:38.176986	226.6	53.8	-73.0	9.0
2026-01-30 07:37:40.419474	225.9	53.0	-72.4	8.0
2026-01-30 07:37:42.662716	225.2	52.3	-72.9	8.6
2026-01-30 07:37:44.906092	224.6	51.6	-72.8	9.2
2026-01-30 07:37:47.150648	224.0	50.9	-73.0	9.2
2026-01-30 07:37:49.396911	223.4	50.1	-72.9	8.8
2026-01-30 07:37:51.641678	222.9	49.4	-73.1	9.1
2026-01-30 07:37:53.886908	222.4	48.7	-73.1	8.9
2026-01-30 07:37:56.131959	221.9	48.0	-73.4	9.6
2026-01-30 07:37:58.378033	221.4	47.4	-73.5	10.0
2026-01-30 07:38:00.623700	221.0	46.7	-73.5	8.7
2026-01-30 07:38:02.867008	220.6	46.0	-73.5	9.3
2026-01-30 07:38:05.116766	220.2	45.4	-73.9	9.1
2026-01-30 07:38:07.365213	219.8	44.7	-73.8	9.8
2026-01-30 07:38:09.609215	219.4	44.1	-73.8	9.8
2026-01-30 07:38:11.855185	219.0	43.5	-73.5	9.9
2026-01-30 07:38:14.098726	218.7	42.8	-73.6	8.9
2026-01-30 07:38:16.347270	218.3	42.2	-73.4	8.4
2026-01-30 07:38:18.592659	218.0	41.6	-73.2	9.1
2026-01-30 07:38:20.837164	217.7	41.0	-73.0	8.3
2026-01-30 07:38:23.080348	217.4	40.4	-72.7	7.4
2026-01-30 07:38:25.332027	217.1	39.9	-72.8	8.1
2026-01-30 07:38:27.575192	216.8	39.3	-72.0	5.7
2026-01-30 07:38:29.823152	216.6	38.7	-72.1	6.3
2026-01-30 07:38:32.066190	216.3	38.2	-71.9	4.6
2026-01-30 07:38:34.309543	216.1	37.6	-72.0	6.5
2026-01-30 07:38:36.556903	215.8	37.1	-71.7	5.6
2026-01-30 07:38:38.801952	215.6	36.6	-71.3	4.9
2026-01-30 07:38:41.041931	215.4	36.1	-71.0	4.4
2026-01-30 07:38:43.288391	215.1	35.6	-71.3	4.6
2026-01-30 07:38:45.534606	214.9	35.1	-71.0	3.1
2026-01-30 07:38:47.780767	214.7	34.6	-70.6	2.9
2026-01-30 07:38:50.026852	214.5	34.1	-70.7	4.3
2026-01-30 07:38:52.270057	214.3	33.6	-70.5	0.2
2026-01-30 07:38:54.516707	214.1	33.1	-70.6	1.0
2026-01-30 07:38:56.760571	213.9	32.7	-70.1	1.9
2026-01-30 07:38:59.005900	213.8	32.2	-69.7	0.0
2026-01-30 07:39:01.249957	213.6	31.7	-70.4	2.7
2026-01-30 07:39:03.495474	213.4	31.3	-70.0	0.8
2026-01-30 07:39:05.739197	213.3	30.8	-69.7	0.0
2026-01-30 07:39:07.982378	213.1	30.4	-69.5	0.0
2026-01-30 07:39:10.227985	213.0	30.0	-69.3	0.0
2026-01-30 07:39:12.473749	212.8	29.6	-69.7	0.0
2026-01-30 07:39:14.719634	212.7	29.2	-69.7	0.0
2026-01-30 07:39:16.962760	212.5	28.7	-69.5	0.0
2026-01-30 07:39:19.209542	212.4	28.3	-70.1	0.0
2026-01-30 07:39:21.455297	212.2	27.9	-69.8	0.0
2026-01-30 07:39:23.700780	212.1	27.5	-68.9	0.0
2026-01-30 07:39:25.942880	212.0	27.2	-68.8	0.0
2026-01-30 07:39:28.186368	211.9	26.8	-69.3	0.0
2026-01-30 07:39:30.435943	211.7	26.4	-69.2	0.0
2026-01-30 07:39:32.681531	211.6	26.0	-69.7	0.0
2026-01-30 07:39:34.925504	211.5	25.7	-68.9	0.0
2026-01-30 07:39:37.169192	211.4	25.3	-70.1	0.0
2026-01-30 07:39:39.417211	211.3	24.9	-68.6	0.0
2026-01-30 07:39:41.662572	211.2	24.6	-69.3	0.0
2026-01-30 07:39:43.909353	211.1	24.2	-68.6	0.0
2026-01-30 07:39:46.157133	211.0	23.9	-68.6	0.0
2026-01-30 07:39:48.402474	210.9	23.6	-68.2	0.0
2026-01-30 07:39:50.645133	210.8	23.2	-68.4	0.0
2026-01-30 07:39:52.890326	210.7	22.9	-69.6	0.0
2026-01-30 07:39:55.134216	210.6	22.6	-68.2	0.0
2026-01-30 07:39:57.378355	210.5	22.2	-67.9	0.0
2026-01-30 07:39:59.623332	210.4	21.9	-67.6	0.0
2026-01-30 07:40:01.871200	210.3	21.6	-68.6	0.0
2026-01-30 07:40:04.116494	210.2	21.3	-68.5	0.0
2026-01-30 07:40:06.361043	210.1	21.0	-68.7	0.0
2026-01-30 07:40:08.608820	210.1	20.7	-68.8	0.0
2026-01-30 07:40:10.851295	210.0	20.4	-68.4	0.0
2026-01-30 07:40:13.099198	209.9	20.1	-68.4	0.0
2026-01-30 07:40:15.345398	209.8	19.8	-68.5	0.0
2026-01-30 07:40:17.593096	209.7	19.5	-68.3	0.0
2026-01-30 07:40:19.838499	209.7	19.2	-68.0	0.0
2026-01-30 07:40:22.085076	209.6	18.9	-68.1	0.0
2026-01-30 07:40:24.328850	209.5	18.7	-67.5	0.0
2026-01-30 07:40:26.572794	209.5	18.4	-67.9	0.0
2026-01-30 07:40:28.819681	209.4	18.1	-67.7	0.0
2026-01-30 07:40:31.062824	209.3	17.8	-67.4	0.0
2026-01-30 07:40:33.311217	209.3	17.6	-68.0	0.0
2026-01-30 07:40:35.554701	209.2	17.3	-67.1	0.0
2026-01-30 07:40:37.799262	209.1	17.0	-68.1	0.0
2026-01-30 07:40:40.043914	209.1	16.8	-66.9	0.0
2026-01-30 07:40:42.288200	209.0	16.5	-66.8	0.0
2026-01-30 07:40:44.531988	208.9	16.3	-67.5	0.0
2026-01-30 07:40:46.777857	208.9	16.0	-68.0	0.0
2026-01-30 07:40:49.023233	208.8	15.8	-67.7	0.0
2026-01-30 07:40:51.267152	208.8	15.5	-67.8	0.0
2026-01-30 07:40:53.511885	208.7	15.3	-69.3	0.0
2026-01-30 07:40:55.754519	208.7	15.0	-68.0	0.0
2026-01-30 07:40:57.997080	208.6	14.8	-67.9	0.0
2026-01-30 07:41:00.242046	208.6	14.6	-67.7	0.0
2026-01-30 07:41:02.485934	208.5	14.3	-67.0	0.0
2026-01-30 07:41:04.729549	208.5	14.1	-67.6	0.0
2026-01-30 07:41:06.974627	208.4	13.9	-67.6	0.0
2026-01-30 07:41:09.218748	208.4	13.6	-67.9	0.0
2026-01-30 07:41:11.463406	208.3	13.4	-68.6	0.0
2026-01-30 07:41:13.712320	208.3	13.2	-67.9	0.0
2026-01-30 07:41:15.957618	208.2	13.0	-67.4	0.0
2026-01-30 07:41:18.205149	208.2	12.7	-67.1	0.0
2026-01-30 07:41:20.450040	208.1	12.5	-67.6	0.0
2026-01-30 07:41:22.694791	208.1	12.3	-67.7	0.0
2026-01-30 07:41:24.942161	208.0	12.1	-68.1	0.0
2026-01-30 07:41:27.187637	208.0	11.9	-67.9	0.0
2026-01-30 07:41:29.431304	208.0	11.7	-68.2	0.0
2026-01-30 07:41:31.679954	207.9	11.5	-67.7	0.0
2026-01-30 07:41:33.926179	207.9	11.3	-68.3	0.0
2026-01-30 07:41:36.170541	207.8	11.0	-67.5	0.0
2026-01-30 07:41:38.413777	207.8	10.8	-68.1	0.0
2026-01-30 07:41:40.655772	207.7	10.6	-72.2	0.0
2026-01-30 07:41:42.901513	207.7	10.4	-76.9	0.0
2026-01-30 07:41:45.150891	207.7	10.2	-77.1	0.0
2026-01-30 07:41:47.393542	207.6	10.0	-77.2	0.0
#Closed at: 2026-01-30 07:31:00.494402