passes_logs/2026/01/30/planumMaritime01/planumMaritime01__20260130_092534_METEOR-M2_4_rec.log

#Pass ID: 20260130_092534_METEOR-M2 4
#Satellite: METEOR-M2 4
#Configuration: METEOR-M2 4
#Start time: 2026-01-30 09:25:39.270204

#LorettStation: 1.0.0 05.05.2024
#Station: planumMaritime01
#Location: 37.49445 lon 55.92918 lat
#TLE: 1 59051U 24039A   26029.53852645  .00000070  00000+0  50902-4 0  9991
#TLE: 2 59051  98.6836 350.7150 0006491 203.4282 156.6601 14.22410639 99559

#Time	Az	El	Level	SNR
2026-01-30 09:25:41.451466	89.8	10.1	-74.2	0.0
2026-01-30 09:25:42.577384	89.6	10.2	-73.8	0.0
2026-01-30 09:25:43.701031	89.5	10.3	-75.2	0.0
2026-01-30 09:25:44.826051	89.3	10.3	-77.3	0.0
2026-01-30 09:25:45.948976	89.2	10.4	-78.2	0.0
2026-01-30 09:25:47.073066	89.0	10.5	-76.4	0.0
2026-01-30 09:25:48.196356	88.8	10.5	-74.5	0.0
2026-01-30 09:25:49.320792	88.7	10.6	-74.1	0.0
2026-01-30 09:25:50.445838	88.5	10.7	-74.9	0.0
2026-01-30 09:25:51.569208	88.4	10.7	-70.3	0.0
2026-01-30 09:25:52.692967	88.2	10.8	-71.1	0.0
2026-01-30 09:25:53.816453	88.1	10.9	-71.9	0.0
2026-01-30 09:25:54.938324	87.9	10.9	-68.1	0.0
2026-01-30 09:25:56.062706	87.7	11.0	-69.2	0.0
2026-01-30 09:25:57.186851	87.6	11.1	-71.6	0.0
2026-01-30 09:25:58.313788	87.4	11.1	-71.1	0.0
2026-01-30 09:25:59.440435	87.3	11.2	-71.3	0.0
2026-01-30 09:26:00.562461	87.1	11.3	-69.3	0.0
2026-01-30 09:26:01.687852	86.9	11.3	-70.4	0.0
2026-01-30 09:26:02.810389	86.8	11.4	-72.1	0.0
2026-01-30 09:26:03.934598	86.6	11.5	-72.4	0.0
2026-01-30 09:26:05.058953	86.4	11.5	-69.9	0.0
2026-01-30 09:26:06.182507	86.3	11.6	-70.0	0.0
2026-01-30 09:26:07.306033	86.1	11.6	-70.8	0.0
2026-01-30 09:26:08.430306	85.9	11.7	-71.9	0.0
2026-01-30 09:26:09.553530	85.8	11.8	-68.8	0.0
2026-01-30 09:26:10.678110	85.6	11.8	-71.3	0.0
2026-01-30 09:26:11.800638	85.4	11.9	-71.9	0.0
2026-01-30 09:26:12.922849	85.3	12.0	-71.6	0.0
2026-01-30 09:26:14.046453	85.1	12.0	-72.0	0.0
2026-01-30 09:26:15.168106	84.9	12.1	-70.4	0.0
2026-01-30 09:26:16.291667	84.7	12.2	-71.3	0.0
2026-01-30 09:26:17.415009	84.6	12.2	-68.8	0.0
2026-01-30 09:26:18.538301	84.4	12.3	-68.0	0.0
2026-01-30 09:26:19.663027	84.2	12.4	-71.9	0.0
2026-01-30 09:26:20.786524	84.0	12.4	-71.7	0.0
2026-01-30 09:26:21.910631	83.9	12.5	-72.2	0.0
2026-01-30 09:26:23.034713	83.7	12.6	-70.9	0.0
2026-01-30 09:26:24.157215	83.5	12.6	-73.0	0.0
2026-01-30 09:26:25.280496	83.3	12.7	-70.9	0.0
2026-01-30 09:26:26.405161	83.1	12.7	-72.1	0.0
2026-01-30 09:26:27.528634	83.0	12.8	-71.8	0.0
2026-01-30 09:26:28.654858	82.8	12.9	-71.9	0.0
2026-01-30 09:26:29.778435	82.6	12.9	-73.4	0.0
2026-01-30 09:26:30.903261	82.4	13.0	-71.6	0.0
2026-01-30 09:26:32.027276	82.2	13.1	-73.4	0.0
2026-01-30 09:26:33.151456	82.0	13.1	-72.1	0.0
2026-01-30 09:26:34.276326	81.9	13.2	-72.7	0.0
2026-01-30 09:26:35.399308	81.7	13.3	-72.4	0.0
2026-01-30 09:26:36.523815	81.5	13.3	-71.2	0.0
2026-01-30 09:26:37.647936	81.3	13.4	-71.7	0.0
2026-01-30 09:26:38.769312	81.1	13.4	-68.8	0.0
2026-01-30 09:26:39.893793	80.9	13.5	-70.9	0.0
2026-01-30 09:26:41.019624	80.7	13.6	-67.8	0.0
2026-01-30 09:26:42.143499	80.5	13.6	-69.9	0.0
2026-01-30 09:26:43.267882	80.3	13.7	-67.8	0.0
2026-01-30 09:26:44.390630	80.2	13.8	-69.5	0.0
2026-01-30 09:26:45.516234	80.0	13.8	-68.1	0.0
2026-01-30 09:26:46.642464	79.8	13.9	-71.5	0.0
2026-01-30 09:26:47.764446	79.6	13.9	-71.4	0.0
2026-01-30 09:26:48.889648	79.4	14.0	-71.4	0.0
2026-01-30 09:26:50.013805	79.2	14.1	-72.6	0.0
2026-01-30 09:26:51.138270	79.0	14.1	-70.8	0.0
2026-01-30 09:26:52.261334	78.8	14.2	-72.4	0.0
2026-01-30 09:26:53.387312	78.6	14.2	-73.1	0.0
2026-01-30 09:26:54.510781	78.4	14.3	-71.4	0.0
2026-01-30 09:26:55.634360	78.2	14.4	-72.3	0.0
2026-01-30 09:26:56.758271	78.0	14.4	-71.9	0.0
2026-01-30 09:26:57.883156	77.8	14.5	-71.7	0.0
2026-01-30 09:26:59.007277	77.6	14.5	-72.4	0.0
2026-01-30 09:27:00.132733	77.4	14.6	-71.3	0.0
2026-01-30 09:27:01.255605	77.2	14.7	-70.9	0.0
2026-01-30 09:27:02.379052	76.9	14.7	-71.9	0.0
2026-01-30 09:27:03.502463	76.7	14.8	-70.4	0.0
2026-01-30 09:27:04.629490	76.5	14.8	-71.4	0.0
2026-01-30 09:27:05.754304	76.3	14.9	-71.8	0.0
2026-01-30 09:27:06.876159	76.1	15.0	-72.4	0.0
2026-01-30 09:27:07.998662	75.9	15.0	-71.1	0.0
2026-01-30 09:27:09.123112	75.7	15.1	-72.7	0.0
2026-01-30 09:27:10.247333	75.5	15.1	-72.5	0.0
2026-01-30 09:27:11.368619	75.3	15.2	-71.5	0.0
2026-01-30 09:27:12.494150	75.1	15.2	-71.5	0.0
2026-01-30 09:27:13.617398	74.8	15.3	-72.3	0.0
2026-01-30 09:27:14.741920	74.6	15.4	-72.6	0.0
2026-01-30 09:27:15.864913	74.4	15.4	-72.0	0.0
2026-01-30 09:27:16.989469	74.2	15.5	-72.9	0.0
2026-01-30 09:27:18.113280	74.0	15.5	-72.2	0.0
2026-01-30 09:27:19.238448	73.8	15.6	-73.0	0.0
2026-01-30 09:27:20.361270	73.5	15.6	-72.3	0.0
2026-01-30 09:27:21.486341	73.3	15.7	-73.0	0.0
2026-01-30 09:27:22.609309	73.1	15.7	-73.1	0.0
2026-01-30 09:27:23.733856	72.9	15.8	-72.5	0.0
2026-01-30 09:27:24.857822	72.6	15.8	-71.0	0.0
2026-01-30 09:27:25.986531	72.4	15.9	-73.6	0.0
2026-01-30 09:27:27.109213	72.2	16.0	-72.8	0.0
2026-01-30 09:27:28.234194	72.0	16.0	-71.3	0.0
2026-01-30 09:27:29.358784	71.7	16.1	-73.3	0.0
2026-01-30 09:27:30.482366	71.5	16.1	-72.1	0.0
2026-01-30 09:27:31.606258	71.3	16.2	-68.6	0.0
2026-01-30 09:27:32.730605	71.1	16.2	-72.9	0.0
2026-01-30 09:27:33.852693	70.8	16.3	-74.2	0.0
2026-01-30 09:27:34.976916	70.6	16.3	-72.8	0.0
2026-01-30 09:27:36.100748	70.4	16.4	-71.8	0.0
2026-01-30 09:27:37.223633	70.1	16.4	-70.9	0.0
2026-01-30 09:27:38.348273	69.9	16.5	-72.7	0.0
2026-01-30 09:27:39.471528	69.7	16.5	-71.1	0.0
2026-01-30 09:27:40.596725	69.4	16.6	-69.4	0.0
2026-01-30 09:27:41.721237	69.2	16.6	-71.7	0.0
2026-01-30 09:27:42.845009	69.0	16.7	-72.5	0.0
2026-01-30 09:27:43.970111	68.7	16.7	-72.6	0.0
2026-01-30 09:27:45.092587	68.5	16.7	-72.8	0.0
2026-01-30 09:27:46.216871	68.3	16.8	-73.7	0.0
2026-01-30 09:27:47.338238	68.0	16.8	-72.2	0.0
2026-01-30 09:27:48.464660	67.8	16.9	-72.2	0.0
2026-01-30 09:27:49.589090	67.5	16.9	-72.5	0.0
2026-01-30 09:27:50.714853	67.3	17.0	-72.2	0.0
2026-01-30 09:27:51.838007	67.1	17.0	-70.2	0.0
2026-01-30 09:27:52.961224	66.8	17.1	-70.0	0.0
2026-01-30 09:27:54.085203	66.6	17.1	-68.7	0.0
2026-01-30 09:27:55.210170	66.3	17.1	-69.4	0.0
2026-01-30 09:27:56.332567	66.1	17.2	-70.5	0.0
2026-01-30 09:27:57.457161	65.9	17.2	-71.9	0.0
2026-01-30 09:27:58.580918	65.6	17.3	-71.3	0.0
2026-01-30 09:27:59.704543	65.4	17.3	-72.6	0.0
2026-01-30 09:28:00.830527	65.1	17.4	-72.5	0.0
2026-01-30 09:28:01.952785	64.9	17.4	-73.5	0.0
2026-01-30 09:28:03.074118	64.6	17.4	-73.6	0.0
2026-01-30 09:28:04.198088	64.4	17.5	-72.7	0.0
2026-01-30 09:28:05.321596	64.1	17.5	-71.1	0.0
2026-01-30 09:28:06.442669	63.9	17.6	-71.9	0.0
2026-01-30 09:28:07.567609	63.6	17.6	-71.9	0.0
2026-01-30 09:28:08.693813	63.4	17.6	-70.8	0.0
2026-01-30 09:28:09.816637	63.1	17.7	-72.1	0.0
2026-01-30 09:28:10.940552	62.9	17.7	-70.7	0.0
2026-01-30 09:28:12.063742	62.6	17.7	-71.3	0.0
2026-01-30 09:28:13.189231	62.4	17.8	-72.4	0.0
2026-01-30 09:28:14.314683	62.1	17.8	-73.2	0.0
2026-01-30 09:28:15.438412	61.8	17.8	-70.1	0.0
2026-01-30 09:28:16.562686	61.6	17.9	-72.2	0.0
2026-01-30 09:28:17.686648	61.3	17.9	-71.9	0.0
2026-01-30 09:28:18.809201	61.1	17.9	-71.7	0.0
2026-01-30 09:28:19.936494	60.8	18.0	-73.1	0.0
2026-01-30 09:28:21.058407	60.6	18.0	-73.4	0.0
2026-01-30 09:28:22.181563	60.3	18.0	-72.7	0.0
2026-01-30 09:28:23.305244	60.1	18.1	-71.9	0.0
2026-01-30 09:28:24.428963	59.8	18.1	-66.8	0.0
2026-01-30 09:28:25.552403	59.5	18.1	-65.7	0.0
2026-01-30 09:28:26.675068	59.3	18.1	-68.1	0.0
2026-01-30 09:28:27.800114	59.0	18.2	-67.6	0.0
2026-01-30 09:28:28.923487	58.8	18.2	-73.3	0.0
2026-01-30 09:28:30.047750	58.5	18.2	-69.2	0.0
2026-01-30 09:28:31.171055	58.2	18.3	-72.2	0.0
2026-01-30 09:28:32.294772	58.0	18.3	-72.9	0.0
2026-01-30 09:28:33.418030	57.7	18.3	-72.0	0.0
2026-01-30 09:28:34.541823	57.4	18.3	-72.0	0.0
2026-01-30 09:28:35.664011	57.2	18.4	-70.4	0.0
2026-01-30 09:28:36.790357	56.9	18.4	-72.1	0.0
2026-01-30 09:28:37.913569	56.6	18.4	-71.1	0.0
2026-01-30 09:28:39.036894	56.4	18.4	-71.4	0.0
2026-01-30 09:28:40.159932	56.1	18.4	-71.9	0.0
2026-01-30 09:28:41.284038	55.9	18.5	-68.9	0.0
2026-01-30 09:28:42.406307	55.6	18.5	-69.6	0.0
2026-01-30 09:28:43.530105	55.3	18.5	-72.0	0.0
2026-01-30 09:28:44.653306	55.1	18.5	-70.4	0.0
2026-01-30 09:28:45.777920	54.8	18.5	-71.1	0.0
2026-01-30 09:28:46.903754	54.5	18.6	-70.8	0.0
2026-01-30 09:28:48.026944	54.3	18.6	-70.6	0.0
2026-01-30 09:28:49.150183	54.0	18.6	-70.8	0.0
2026-01-30 09:28:50.273898	53.7	18.6	-69.4	0.0
2026-01-30 09:28:51.397755	53.4	18.6	-69.5	0.0
2026-01-30 09:28:52.522948	53.2	18.6	-72.5	0.0
2026-01-30 09:28:53.646271	52.9	18.7	-71.6	0.0
2026-01-30 09:28:54.770197	52.6	18.7	-71.4	0.0
2026-01-30 09:28:55.894114	52.4	18.7	-70.5	0.0
2026-01-30 09:28:57.017825	52.1	18.7	-70.5	0.0
2026-01-30 09:28:58.141073	51.8	18.7	-70.8	0.0
2026-01-30 09:28:59.264831	51.6	18.7	-70.3	0.0
2026-01-30 09:29:00.389175	51.3	18.7	-70.3	0.0
2026-01-30 09:29:01.512716	51.0	18.7	-71.1	0.0
2026-01-30 09:29:02.636713	50.7	18.7	-68.9	0.0
2026-01-30 09:29:03.760480	50.5	18.7	-71.0	0.0
2026-01-30 09:29:04.884386	50.2	18.8	-68.8	0.0
2026-01-30 09:29:06.007158	49.9	18.8	-69.9	0.0
2026-01-30 09:29:07.132175	49.7	18.8	-68.1	0.0
2026-01-30 09:29:08.253242	49.4	18.8	-69.8	0.0
2026-01-30 09:29:09.376111	49.1	18.8	-68.9	0.0
2026-01-30 09:29:10.497985	48.9	18.8	-68.5	0.0
2026-01-30 09:29:11.622718	48.6	18.8	-69.5	0.0
2026-01-30 09:29:12.745332	48.3	18.8	-69.2	0.0
2026-01-30 09:29:13.869149	48.0	18.8	-67.3	0.0
2026-01-30 09:29:14.990827	47.8	18.8	-70.5	0.0
2026-01-30 09:29:16.113819	47.5	18.8	-69.7	0.0
2026-01-30 09:29:17.238113	47.2	18.8	-67.9	0.0
2026-01-30 09:29:18.362054	47.0	18.8	-68.6	0.0
2026-01-30 09:29:19.485941	46.7	18.8	-68.7	0.0
2026-01-30 09:29:20.608459	46.4	18.8	-66.1	0.0
2026-01-30 09:29:21.731674	46.1	18.8	-65.4	0.0
2026-01-30 09:29:22.857296	45.9	18.8	-67.5	0.0
2026-01-30 09:29:23.983060	45.6	18.8	-68.7	0.0
2026-01-30 09:29:25.107636	45.3	18.8	-67.5	0.0
2026-01-30 09:29:26.231018	45.1	18.8	-66.3	0.0
2026-01-30 09:29:27.355532	44.8	18.8	-63.4	0.0
2026-01-30 09:29:28.479700	44.5	18.8	-67.9	0.0
2026-01-30 09:29:29.602813	44.2	18.7	-67.0	0.0
2026-01-30 09:29:30.728449	44.0	18.7	-66.3	0.0
2026-01-30 09:29:31.850332	43.7	18.7	-65.4	0.0
2026-01-30 09:29:32.974987	43.4	18.7	-66.2	0.0
2026-01-30 09:29:34.098666	43.2	18.7	-67.2	0.0
2026-01-30 09:29:35.224796	42.9	18.7	-66.1	0.0
2026-01-30 09:29:36.350275	42.6	18.7	-66.1	0.0
2026-01-30 09:29:37.474201	42.4	18.7	-64.9	0.0
2026-01-30 09:29:38.597286	42.1	18.7	-66.0	0.0
2026-01-30 09:29:39.721314	41.8	18.7	-67.1	0.0
2026-01-30 09:29:40.846241	41.5	18.6	-66.3	0.0
2026-01-30 09:29:41.967958	41.3	18.6	-66.5	0.0
2026-01-30 09:29:43.090067	41.0	18.6	-66.4	0.0
2026-01-30 09:29:44.213817	40.7	18.6	-66.2	0.0
2026-01-30 09:29:45.341132	40.5	18.6	-66.6	0.0
2026-01-30 09:29:46.464117	40.2	18.6	-67.1	0.0
2026-01-30 09:29:47.586408	39.9	18.5	-66.4	0.0
2026-01-30 09:29:48.708127	39.7	18.5	-62.8	0.0
2026-01-30 09:29:49.833577	39.4	18.5	-66.4	0.0
2026-01-30 09:29:50.956294	39.1	18.5	-67.7	0.0
2026-01-30 09:29:52.081477	38.9	18.5	-65.3	0.0
2026-01-30 09:29:53.204328	38.6	18.4	-66.2	0.0
2026-01-30 09:29:54.329270	38.3	18.4	-64.8	0.0
2026-01-30 09:29:55.452189	38.1	18.4	-64.6	0.0
2026-01-30 09:29:56.574175	37.8	18.4	-63.3	0.0
2026-01-30 09:29:57.698908	37.6	18.4	-59.9	0.0
2026-01-30 09:29:58.821943	37.3	18.3	-65.8	0.0
2026-01-30 09:29:59.944988	37.0	18.3	-64.3	0.0
2026-01-30 09:30:01.071461	36.8	18.3	-62.0	0.0
2026-01-30 09:30:02.195233	36.5	18.3	-62.9	0.0
2026-01-30 09:30:03.318949	36.2	18.2	-61.3	0.0
2026-01-30 09:30:04.443759	36.0	18.2	-63.2	0.0
2026-01-30 09:30:05.567986	35.7	18.2	-64.3	0.0
2026-01-30 09:30:06.693707	35.5	18.1	-63.8	0.0
2026-01-30 09:30:07.816436	35.2	18.1	-64.6	0.0
2026-01-30 09:30:08.939247	34.9	18.1	-64.2	0.0
2026-01-30 09:30:10.065987	34.7	18.1	-63.9	0.0
2026-01-30 09:30:11.188894	34.4	18.0	-65.9	0.0
2026-01-30 09:30:12.311392	34.2	18.0	-63.7	0.0
2026-01-30 09:30:13.434249	33.9	18.0	-66.2	0.0
2026-01-30 09:30:14.557997	33.7	17.9	-63.0	0.0
2026-01-30 09:30:15.679783	33.4	17.9	-63.2	0.0
2026-01-30 09:30:16.805550	33.1	17.9	-66.5	0.0
2026-01-30 09:30:17.932088	32.9	17.8	-63.8	0.0
2026-01-30 09:30:19.057455	32.6	17.8	-65.1	0.0
2026-01-30 09:30:20.178897	32.4	17.8	-65.2	0.0
2026-01-30 09:30:21.300534	32.1	17.7	-65.8	0.0
2026-01-30 09:30:22.425526	31.9	17.7	-66.7	0.0
2026-01-30 09:30:23.550366	31.6	17.7	-64.5	0.0
2026-01-30 09:30:24.672271	31.4	17.6	-64.9	0.0
2026-01-30 09:30:25.796951	31.1	17.6	-65.8	0.0
2026-01-30 09:30:26.919324	30.9	17.6	-66.6	0.0
2026-01-30 09:30:28.041372	30.6	17.5	-64.5	0.0
2026-01-30 09:30:29.166090	30.4	17.5	-63.1	0.0
2026-01-30 09:30:30.288649	30.1	17.4	-64.7	0.0
2026-01-30 09:30:31.413099	29.9	17.4	-65.2	0.0
2026-01-30 09:30:32.536566	29.6	17.4	-63.6	0.0
2026-01-30 09:30:33.660692	29.4	17.3	-63.5	0.0
2026-01-30 09:30:34.783289	29.1	17.3	-67.7	0.0
2026-01-30 09:30:35.906014	28.9	17.2	-66.6	0.0
2026-01-30 09:30:37.029758	28.6	17.2	-65.3	0.0
2026-01-30 09:30:38.151940	28.4	17.1	-67.2	0.0
2026-01-30 09:30:39.274170	28.2	17.1	-64.1	0.0
2026-01-30 09:30:40.397719	27.9	17.1	-64.2	0.0
2026-01-30 09:30:41.521860	27.7	17.0	-63.2	0.0
2026-01-30 09:30:42.646261	27.4	17.0	-64.5	0.0
2026-01-30 09:30:43.770594	27.2	16.9	-63.9	0.0
2026-01-30 09:30:44.895740	27.0	16.9	-65.9	0.0
2026-01-30 09:30:46.019393	26.7	16.8	-65.2	0.0
2026-01-30 09:30:47.143070	26.5	16.8	-64.3	0.0
2026-01-30 09:30:48.264371	26.2	16.7	-63.2	0.0
2026-01-30 09:30:49.389124	26.0	16.7	-64.8	0.0
2026-01-30 09:30:50.512629	25.8	16.7	-64.6	0.0
2026-01-30 09:30:51.635060	25.5	16.6	-64.3	0.0
2026-01-30 09:30:52.757307	25.3	16.6	-66.6	0.0
2026-01-30 09:30:53.881256	25.1	16.5	-66.4	0.0
2026-01-30 09:30:55.003618	24.8	16.5	-65.7	0.0
2026-01-30 09:30:56.127315	24.6	16.4	-64.6	0.0
2026-01-30 09:30:57.250206	24.4	16.4	-64.9	0.0
2026-01-30 09:30:58.372882	24.2	16.3	-65.6	0.0
2026-01-30 09:30:59.497968	23.9	16.3	-63.5	0.0
2026-01-30 09:31:00.619387	23.7	16.2	-64.4	0.0
2026-01-30 09:31:01.744436	23.5	16.2	-66.5	0.0
2026-01-30 09:31:02.869028	23.2	16.1	-67.2	0.0
2026-01-30 09:31:03.992982	23.0	16.1	-65.5	0.0
2026-01-30 09:31:05.116637	22.8	16.0	-67.2	0.0
2026-01-30 09:31:06.240459	22.6	16.0	-65.9	0.0
2026-01-30 09:31:07.364576	22.3	15.9	-66.4	0.0
2026-01-30 09:31:08.488755	22.1	15.8	-68.2	0.0
2026-01-30 09:31:09.613692	21.9	15.8	-67.6	0.0
2026-01-30 09:31:10.738399	21.7	15.7	-66.2	0.0
2026-01-30 09:31:11.860515	21.5	15.7	-66.0	0.0
2026-01-30 09:31:12.984470	21.2	15.6	-68.5	0.0
2026-01-30 09:31:14.109016	21.0	15.6	-67.7	0.0
2026-01-30 09:31:15.232482	20.8	15.5	-67.6	0.0
2026-01-30 09:31:16.358452	20.6	15.5	-66.4	0.0
2026-01-30 09:31:17.480975	20.4	15.4	-66.9	0.0
2026-01-30 09:31:18.605086	20.1	15.4	-67.2	0.0
2026-01-30 09:31:19.728953	19.9	15.3	-65.3	0.0
2026-01-30 09:31:20.854546	19.7	15.2	-68.1	0.0
2026-01-30 09:31:21.978367	19.5	15.2	-67.4	0.0
2026-01-30 09:31:23.101968	19.3	15.1	-67.8	0.0
2026-01-30 09:31:24.224543	19.1	15.1	-66.0	0.0
2026-01-30 09:31:25.349144	18.9	15.0	-66.9	0.0
2026-01-30 09:31:26.472788	18.7	15.0	-67.1	0.0
2026-01-30 09:31:27.596522	18.5	14.9	-66.2	0.0
2026-01-30 09:31:28.719921	18.2	14.8	-67.9	0.0
2026-01-30 09:31:29.843612	18.0	14.8	-68.1	0.0
2026-01-30 09:31:30.967447	17.8	14.7	-67.3	0.0
2026-01-30 09:31:32.091261	17.6	14.7	-68.3	0.0
2026-01-30 09:31:33.217504	17.4	14.6	-67.3	0.0
2026-01-30 09:31:34.340925	17.2	14.5	-68.4	0.0
2026-01-30 09:31:35.465007	17.0	14.5	-66.2	0.0
2026-01-30 09:31:36.591721	16.8	14.4	-66.3	0.0
2026-01-30 09:31:37.717525	16.6	14.4	-67.2	0.0
2026-01-30 09:31:38.839917	16.4	14.3	-67.8	0.0
2026-01-30 09:31:39.961827	16.2	14.3	-67.6	0.0
2026-01-30 09:31:41.084523	16.0	14.2	-67.6	0.0
2026-01-30 09:31:42.209945	15.8	14.1	-66.6	0.0
2026-01-30 09:31:43.334909	15.6	14.1	-67.6	0.0
2026-01-30 09:31:44.458664	15.4	14.0	-66.5	0.0
2026-01-30 09:31:45.583300	15.2	13.9	-66.6	0.0
2026-01-30 09:31:46.705498	15.0	13.9	-66.8	0.0
2026-01-30 09:31:47.828839	14.8	13.8	-66.8	0.0
2026-01-30 09:31:48.952128	14.6	13.8	-68.0	0.0
2026-01-30 09:31:50.077408	14.4	13.7	-68.0	0.0
2026-01-30 09:31:51.202703	14.3	13.6	-67.9	0.0
2026-01-30 09:31:52.328588	14.1	13.6	-68.5	0.0
2026-01-30 09:31:53.453000	13.9	13.5	-67.1	0.0
2026-01-30 09:31:54.577013	13.7	13.5	-65.1	0.0
2026-01-30 09:31:55.700028	13.5	13.4	-67.3	0.0
2026-01-30 09:31:56.823125	13.3	13.3	-68.2	0.0
2026-01-30 09:31:57.948253	13.1	13.3	-67.5	0.0
2026-01-30 09:31:59.070211	12.9	13.2	-67.4	0.0
2026-01-30 09:32:00.193972	12.8	13.1	-66.3	0.0
2026-01-30 09:32:01.317633	12.6	13.1	-67.0	0.0
2026-01-30 09:32:02.442333	12.4	13.0	-65.8	0.0
2026-01-30 09:32:03.568391	12.2	12.9	-64.9	0.0
2026-01-30 09:32:04.694742	12.0	12.9	-67.7	0.0
2026-01-30 09:32:05.821497	11.8	12.8	-67.0	0.0
2026-01-30 09:32:06.943567	11.7	12.8	-64.5	0.0
2026-01-30 09:32:08.066666	11.5	12.7	-67.4	0.0
2026-01-30 09:32:09.191365	11.3	12.6	-66.8	0.0
2026-01-30 09:32:10.314623	11.1	12.6	-67.0	0.0
2026-01-30 09:32:11.437191	10.9	12.5	-67.6	0.0
2026-01-30 09:32:12.559480	10.8	12.4	-66.7	0.0
2026-01-30 09:32:13.683181	10.6	12.4	-68.0	0.0
2026-01-30 09:32:14.806891	10.4	12.3	-68.3	0.0
2026-01-30 09:32:15.930393	10.2	12.2	-67.8	0.0
2026-01-30 09:32:17.054011	10.1	12.2	-67.4	0.0
2026-01-30 09:32:18.177216	9.9	12.1	-66.1	0.0
2026-01-30 09:32:19.300506	9.7	12.0	-67.2	0.0
2026-01-30 09:32:20.424514	9.6	12.0	-67.3	0.0
2026-01-30 09:32:21.548102	9.4	11.9	-67.5	0.0
2026-01-30 09:32:22.670723	9.2	11.9	-67.9	0.0
2026-01-30 09:32:23.795281	9.0	11.8	-68.3	0.0
2026-01-30 09:32:24.918969	8.9	11.7	-65.9	0.0
2026-01-30 09:32:26.046325	8.7	11.7	-68.6	0.0
2026-01-30 09:32:27.169171	8.5	11.6	-69.0	0.0
2026-01-30 09:32:28.294071	8.4	11.5	-66.7	0.0
2026-01-30 09:32:29.418209	8.2	11.5	-67.4	0.0
2026-01-30 09:32:30.543844	8.1	11.4	-68.8	0.0
2026-01-30 09:32:31.668218	7.9	11.3	-67.7	0.0
2026-01-30 09:32:32.792935	7.7	11.3	-68.7	0.0
2026-01-30 09:32:33.916872	7.6	11.2	-66.0	0.0
2026-01-30 09:32:35.040333	7.4	11.1	-68.5	0.0
2026-01-30 09:32:36.166498	7.2	11.1	-68.1	0.0
2026-01-30 09:32:37.293950	7.1	11.0	-69.6	0.0
2026-01-30 09:32:38.418397	6.9	10.9	-68.8	0.0
2026-01-30 09:32:39.541184	6.8	10.9	-69.5	0.0
2026-01-30 09:32:40.665791	6.6	10.8	-69.0	0.0
2026-01-30 09:32:41.789788	6.5	10.7	-68.3	0.0
2026-01-30 09:32:42.913084	6.3	10.7	-67.9	0.0
2026-01-30 09:32:44.037280	6.1	10.6	-71.9	0.0
2026-01-30 09:32:45.161364	6.0	10.5	-77.0	0.0
2026-01-30 09:32:46.284931	5.8	10.5	-78.1	0.0
2026-01-30 09:32:47.408051	5.7	10.4	-76.1	0.0
2026-01-30 09:32:48.532684	5.5	10.3	-75.5	0.0
2026-01-30 09:32:49.654746	5.4	10.3	-76.2	0.0
2026-01-30 09:32:50.779670	5.2	10.2	-76.4	0.0
2026-01-30 09:32:51.903651	5.1	10.1	-75.7	0.0
2026-01-30 09:32:53.024913	4.9	10.1	-77.1	0.0
#Closed at: 2026-01-30 09:25:34.276861