passes_logs/2026/01/30/planumMaritime01/planumMaritime01__20260130_174905_METEOR-M2_3_rec.log

#Pass ID: 20260130_174905_METEOR-M2 3
#Satellite: METEOR-M2 3
#Configuration: METEOR-M2 3
#Start time: 2026-01-30 17:49:10.350296

#LorettStation: 1.0.0 05.05.2024
#Station: planumMaritime01
#Location: 37.49445 lon 55.92918 lat
#TLE: 1 57166U 23091A   26029.54066941  .00000028  00000+0  31266-4 0  9995
#TLE: 2 57166  98.6304  87.2284 0003554 198.5989 161.5061 14.24033160134781

#Time	Az	El	Level	SNR
2026-01-30 17:49:12.511211	162.8	10.2	-80.0	0.0
2026-01-30 17:49:14.756236	162.8	10.4	-80.0	0.0
2026-01-30 17:49:17.001523	162.8	10.6	-79.0	1.8
2026-01-30 17:49:19.252086	162.8	10.8	-77.8	2.2
2026-01-30 17:49:21.501925	162.8	11.0	-78.1	4.6
2026-01-30 17:49:23.749409	162.8	11.2	-77.7	6.1
2026-01-30 17:49:25.997490	162.8	11.4	-77.7	6.3
2026-01-30 17:49:28.244784	162.8	11.6	-77.7	6.9
2026-01-30 17:49:30.495827	162.9	11.8	-77.6	5.5
2026-01-30 17:49:32.742596	162.9	12.1	-77.3	5.2
2026-01-30 17:49:34.992059	162.9	12.3	-77.0	4.8
2026-01-30 17:49:37.240376	162.9	12.5	-76.8	5.3
2026-01-30 17:49:39.485148	162.9	12.7	-77.0	6.2
2026-01-30 17:49:41.733098	162.9	12.9	-76.8	5.3
2026-01-30 17:49:43.982652	163.0	13.2	-77.3	6.4
2026-01-30 17:49:46.230629	163.0	13.4	-77.3	6.2
2026-01-30 17:49:48.476742	163.0	13.6	-77.4	4.8
2026-01-30 17:49:50.727281	163.0	13.8	-77.3	6.6
2026-01-30 17:49:52.976644	163.0	14.1	-77.4	7.4
2026-01-30 17:49:55.225168	163.0	14.3	-77.4	6.7
2026-01-30 17:49:57.475750	163.0	14.5	-77.7	6.3
2026-01-30 17:49:59.723888	163.1	14.8	-77.4	7.4
2026-01-30 17:50:01.972943	163.1	15.0	-77.5	6.3
2026-01-30 17:50:04.223530	163.1	15.3	-77.4	5.3
2026-01-30 17:50:06.469644	163.1	15.5	-77.8	7.4
2026-01-30 17:50:08.718126	163.1	15.8	-77.8	8.6
2026-01-30 17:50:10.964422	163.1	16.0	-78.2	7.5
2026-01-30 17:50:13.213995	163.2	16.3	-77.7	7.2
2026-01-30 17:50:15.465177	163.2	16.5	-77.9	7.4
2026-01-30 17:50:17.711648	163.2	16.8	-78.3	9.4
2026-01-30 17:50:19.960114	163.2	17.0	-78.0	9.3
2026-01-30 17:50:22.208444	163.2	17.3	-77.8	8.0
2026-01-30 17:50:24.456863	163.3	17.6	-77.8	8.7
2026-01-30 17:50:26.706870	163.3	17.9	-77.6	7.8
2026-01-30 17:50:28.953970	163.3	18.1	-77.9	9.3
2026-01-30 17:50:31.203251	163.3	18.4	-77.8	9.4
2026-01-30 17:50:33.453669	163.3	18.7	-76.7	7.6
2026-01-30 17:50:35.703953	163.4	19.0	-76.7	8.0
2026-01-30 17:50:37.954530	163.4	19.3	-77.2	10.0
2026-01-30 17:50:40.203848	163.4	19.6	-77.1	9.0
2026-01-30 17:50:42.452355	163.4	19.8	-77.8	9.5
2026-01-30 17:50:44.702821	163.4	20.1	-78.1	10.1
2026-01-30 17:50:46.953307	163.5	20.5	-77.6	8.6
2026-01-30 17:50:49.202233	163.5	20.8	-77.2	9.3
2026-01-30 17:50:51.452175	163.5	21.1	-77.4	9.7
2026-01-30 17:50:53.702241	163.5	21.4	-77.7	9.0
2026-01-30 17:50:55.948461	163.5	21.7	-76.7	7.4
2026-01-30 17:50:58.196038	163.6	22.0	-76.7	5.7
2026-01-30 17:51:00.447406	163.6	22.3	-77.4	8.7
2026-01-30 17:51:02.695363	163.6	22.7	-77.0	9.0
2026-01-30 17:51:04.943229	163.6	23.0	-76.7	9.8
2026-01-30 17:51:07.191064	163.7	23.3	-75.7	6.2
2026-01-30 17:51:09.441442	163.7	23.7	-76.0	6.0
2026-01-30 17:51:11.691341	163.7	24.0	-77.5	9.1
2026-01-30 17:51:13.937486	163.7	24.4	-77.2	9.6
2026-01-30 17:51:16.185429	163.8	24.7	-77.5	9.4
2026-01-30 17:51:18.431423	163.8	25.1	-77.6	9.2
2026-01-30 17:51:20.678848	163.8	25.5	-77.7	9.7
2026-01-30 17:51:22.928917	163.8	25.8	-76.8	8.6
2026-01-30 17:51:25.178510	163.9	26.2	-77.5	0.7
2026-01-30 17:51:27.429185	163.9	26.6	-76.2	6.2
2026-01-30 17:51:29.676932	163.9	27.0	-77.7	10.8
2026-01-30 17:51:31.923458	163.9	27.4	-76.6	8.9
2026-01-30 17:51:34.170395	164.0	27.8	-77.8	9.9
2026-01-30 17:51:36.423955	164.0	28.2	-77.5	10.0
2026-01-30 17:51:38.673071	164.0	28.6	-77.6	10.1
2026-01-30 17:51:40.922767	164.1	29.0	-77.3	7.9
2026-01-30 17:51:43.169524	164.1	29.5	-77.7	11.1
2026-01-30 17:51:45.414559	164.1	29.9	-78.3	10.3
2026-01-30 17:51:47.661964	164.2	30.3	-78.2	10.7
2026-01-30 17:51:49.911111	164.2	30.8	-78.2	10.8
2026-01-30 17:51:52.159038	164.2	31.2	-78.6	11.2
2026-01-30 17:51:54.408138	164.3	31.7	-77.9	11.2
2026-01-30 17:51:56.657945	164.3	32.1	-78.0	9.7
2026-01-30 17:51:58.903086	164.3	32.6	-78.6	11.8
2026-01-30 17:52:01.149300	164.4	33.1	-78.7	12.2
2026-01-30 17:52:03.400472	164.4	33.6	-78.6	12.3
2026-01-30 17:52:05.648843	164.5	34.1	-78.8	11.8
2026-01-30 17:52:07.898939	164.5	34.6	-78.7	11.5
2026-01-30 17:52:10.150738	164.5	35.1	-78.5	11.3
2026-01-30 17:52:12.398594	164.6	35.6	-78.6	11.8
2026-01-30 17:52:14.650024	164.6	36.2	-78.7	11.6
2026-01-30 17:52:16.895786	164.7	36.7	-78.8	11.9
2026-01-30 17:52:19.146028	164.7	37.2	-78.6	12.3
2026-01-30 17:52:21.394136	164.8	37.8	-78.5	11.6
2026-01-30 17:52:23.642354	164.8	38.4	-78.9	12.1
2026-01-30 17:52:25.890930	164.9	39.0	-79.0	11.8
2026-01-30 17:52:28.136769	164.9	39.5	-79.0	11.9
2026-01-30 17:52:30.386144	165.0	40.1	-79.1	11.2
2026-01-30 17:52:32.631159	165.0	40.7	-79.3	11.8
2026-01-30 17:52:34.881846	165.1	41.4	-79.7	11.3
2026-01-30 17:52:37.126505	165.1	42.0	-79.6	11.1
2026-01-30 17:52:39.374197	165.2	42.6	-79.3	11.2
2026-01-30 17:52:41.623817	165.3	43.3	-79.6	11.1
2026-01-30 17:52:43.872000	165.3	43.9	-79.5	11.5
2026-01-30 17:52:46.121725	165.4	44.6	-78.9	11.2
2026-01-30 17:52:48.369467	165.5	45.3	-79.1	11.6
2026-01-30 17:52:50.615776	165.5	46.0	-78.8	12.2
2026-01-30 17:52:52.862706	165.6	46.7	-78.8	11.7
2026-01-30 17:52:55.110606	165.7	47.4	-78.9	11.1
2026-01-30 17:52:57.356804	165.8	48.2	-79.3	11.0
2026-01-30 17:52:59.604698	165.9	48.9	-79.4	10.5
2026-01-30 17:53:01.853190	166.0	49.7	-79.6	10.4
2026-01-30 17:53:04.103150	166.1	50.4	-79.7	10.1
2026-01-30 17:53:06.348177	166.2	51.2	-80.2	10.2
2026-01-30 17:53:08.598349	166.3	52.0	-80.4	8.8
2026-01-30 17:53:10.846102	166.4	52.8	-80.3	9.4
2026-01-30 17:53:13.092366	166.5	53.7	-80.1	8.8
2026-01-30 17:53:15.341990	166.6	54.5	-80.5	9.4
2026-01-30 17:53:17.589122	166.8	55.3	-80.7	9.4
2026-01-30 17:53:19.837108	166.9	56.2	-80.6	9.4
2026-01-30 17:53:22.084001	167.0	57.1	-80.6	9.4
2026-01-30 17:53:24.332405	167.2	58.0	-80.3	8.9
2026-01-30 17:53:26.577195	167.4	58.9	-80.4	9.2
2026-01-30 17:53:28.824178	167.5	59.8	-80.5	9.5
2026-01-30 17:53:31.072307	167.7	60.7	-80.8	9.8
2026-01-30 17:53:33.318201	167.9	61.7	-80.8	10.2
2026-01-30 17:53:35.566048	168.2	62.7	-80.4	9.1
2026-01-30 17:53:37.816184	168.4	63.6	-80.6	9.4
2026-01-30 17:53:40.062456	168.7	64.6	-81.0	9.6
2026-01-30 17:53:42.311490	168.9	65.6	-80.6	8.3
2026-01-30 17:53:44.561521	169.3	66.6	-80.6	8.9
2026-01-30 17:53:46.811498	169.6	67.7	-80.5	8.8
2026-01-30 17:53:49.058588	170.0	68.7	-80.5	9.0
2026-01-30 17:53:51.306114	170.4	69.7	-79.9	9.4
2026-01-30 17:53:53.554116	170.8	70.8	-79.5	8.3
2026-01-30 17:53:55.804183	171.4	71.9	-78.9	7.3
2026-01-30 17:53:58.054419	172.0	72.9	-79.6	10.0
2026-01-30 17:54:00.302464	172.6	74.0	-80.0	7.9
2026-01-30 17:54:02.552297	173.4	75.1	-79.5	8.4
2026-01-30 17:54:04.805685	174.3	76.2	-79.5	10.4
2026-01-30 17:54:07.055950	175.4	77.3	-79.5	9.8
2026-01-30 17:54:09.302225	176.6	78.4	-79.4	9.2
2026-01-30 17:54:11.548324	178.2	79.5	-79.0	9.4
2026-01-30 17:54:13.794618	180.1	80.6	-78.8	8.1
2026-01-30 17:54:16.042677	182.5	81.7	-79.2	8.1
2026-01-30 17:54:18.288727	185.7	82.8	-77.7	5.1
2026-01-30 17:54:20.540851	189.9	83.9	-79.5	6.1
2026-01-30 17:54:22.786391	196.0	84.9	-79.5	6.1
2026-01-30 17:54:25.034083	204.8	85.8	-78.9	6.5
2026-01-30 17:54:27.281293	218.2	86.6	-78.1	6.4
2026-01-30 17:54:29.529058	237.7	87.1	-78.3	8.3
2026-01-30 17:54:31.777066	261.4	87.2	-77.6	6.6
2026-01-30 17:54:34.024630	282.6	86.8	-78.1	6.9
2026-01-30 17:54:36.272934	297.6	86.1	-78.2	7.2
2026-01-30 17:54:38.521390	307.6	85.2	-77.8	7.0
2026-01-30 17:54:40.770461	314.3	84.2	-78.3	4.3
2026-01-30 17:54:43.020197	319.0	83.1	-78.0	3.8
2026-01-30 17:54:45.268155	322.4	82.0	-78.9	6.4
2026-01-30 17:54:47.514727	325.0	81.0	-78.8	4.6
2026-01-30 17:54:49.763023	327.0	79.9	-77.5	3.7
2026-01-30 17:54:52.007157	328.7	78.7	-76.8	4.5
2026-01-30 17:54:54.260041	330.0	77.6	-77.3	6.4
2026-01-30 17:54:56.506464	331.1	76.5	-77.9	7.3
2026-01-30 17:54:58.753944	332.0	75.4	-77.3	6.6
2026-01-30 17:55:01.000365	332.9	74.4	-77.2	5.4
2026-01-30 17:55:03.249157	333.6	73.3	-77.3	5.4
2026-01-30 17:55:05.496269	334.2	72.2	-77.5	5.5
2026-01-30 17:55:07.745207	334.7	71.1	-77.3	2.3
2026-01-30 17:55:09.992983	335.2	70.1	-76.7	1.7
2026-01-30 17:55:12.242001	335.6	69.0	-77.3	3.3
2026-01-30 17:55:14.489209	336.0	68.0	-77.1	3.2
2026-01-30 17:55:16.736330	336.3	67.0	-77.1	2.5
2026-01-30 17:55:18.981066	336.7	65.9	-78.0	3.5
2026-01-30 17:55:21.231164	337.0	64.9	-77.0	3.3
2026-01-30 17:55:23.477863	337.2	64.0	-77.3	4.0
2026-01-30 17:55:25.724400	337.5	63.0	-77.7	7.2
2026-01-30 17:55:27.970639	337.7	62.0	-76.8	2.2
2026-01-30 17:55:30.218488	337.9	61.1	-76.8	4.1
2026-01-30 17:55:32.469202	338.1	60.1	-76.9	3.5
2026-01-30 17:55:34.717142	338.3	59.2	-78.1	5.5
2026-01-30 17:55:36.962369	338.4	58.3	-77.2	5.6
2026-01-30 17:55:39.208633	338.6	57.4	-76.9	6.9
2026-01-30 17:55:41.456046	338.8	56.5	-78.4	5.7
2026-01-30 17:55:43.706672	338.9	55.7	-78.1	6.3
2026-01-30 17:55:45.954921	339.0	54.8	-77.1	4.7
2026-01-30 17:55:48.200359	339.2	54.0	-77.7	4.9
2026-01-30 17:55:50.447789	339.3	53.1	-76.0	2.6
2026-01-30 17:55:52.697046	339.4	52.3	-77.9	5.2
2026-01-30 17:55:54.947382	339.5	51.5	-77.3	3.8
2026-01-30 17:55:57.195742	339.6	50.7	-77.2	3.4
2026-01-30 17:55:59.441697	339.7	50.0	-77.3	4.2
2026-01-30 17:56:01.687567	339.8	49.2	-76.5	2.6
2026-01-30 17:56:03.933458	339.9	48.5	-75.4	2.1
2026-01-30 17:56:06.184175	340.0	47.7	-75.6	3.3
2026-01-30 17:56:08.430986	340.1	47.0	-72.8	0.0
2026-01-30 17:56:10.678974	340.1	46.3	-73.7	0.0
2026-01-30 17:56:12.927703	340.2	45.6	-72.6	0.4
2026-01-30 17:56:15.177332	340.3	44.9	-71.8	0.0
2026-01-30 17:56:17.425125	340.4	44.2	-72.2	0.0
2026-01-30 17:56:19.674734	340.4	43.6	-73.4	0.0
2026-01-30 17:56:21.922689	340.5	42.9	-72.4	0.0
2026-01-30 17:56:24.169132	340.6	42.3	-72.5	0.0
2026-01-30 17:56:26.421231	340.6	41.6	-71.4	0.0
2026-01-30 17:56:28.666452	340.7	41.0	-72.3	0.0
2026-01-30 17:56:30.912048	340.7	40.4	-71.7	0.0
2026-01-30 17:56:33.159333	340.8	39.8	-72.1	0.0
2026-01-30 17:56:35.404594	340.8	39.2	-72.2	0.0
2026-01-30 17:56:37.652088	340.9	38.6	-72.3	0.0
2026-01-30 17:56:39.901587	340.9	38.1	-72.2	0.0
2026-01-30 17:56:42.146438	341.0	37.5	-71.8	0.0
2026-01-30 17:56:44.393289	341.0	37.0	-69.8	0.0
2026-01-30 17:56:46.639735	341.1	36.4	-71.9	0.0
2026-01-30 17:56:48.886415	341.1	35.9	-72.0	0.0
2026-01-30 17:56:51.134682	341.2	35.4	-70.9	0.0
2026-01-30 17:56:53.381452	341.2	34.9	-71.8	0.0
2026-01-30 17:56:55.626593	341.3	34.4	-71.4	0.0
2026-01-30 17:56:57.874147	341.3	33.9	-71.0	0.0
2026-01-30 17:57:00.123873	341.3	33.4	-70.4	0.0
2026-01-30 17:57:02.372504	341.4	32.9	-72.6	0.0
2026-01-30 17:57:04.618290	341.4	32.4	-71.8	0.0
2026-01-30 17:57:06.867273	341.5	31.9	-71.4	0.0
2026-01-30 17:57:09.110643	341.5	31.5	-71.0	0.0
2026-01-30 17:57:11.358279	341.5	31.0	-71.9	0.0
2026-01-30 17:57:13.607078	341.6	30.6	-71.7	0.0
2026-01-30 17:57:15.853469	341.6	30.2	-69.3	0.0
2026-01-30 17:57:18.104274	341.6	29.7	-69.9	0.0
2026-01-30 17:57:20.353353	341.7	29.3	-70.1	0.0
2026-01-30 17:57:22.604719	341.7	28.9	-69.0	0.0
2026-01-30 17:57:24.852954	341.7	28.5	-68.4	0.0
2026-01-30 17:57:27.099901	341.8	28.1	-68.5	0.0
2026-01-30 17:57:29.351444	341.8	27.7	-66.1	0.0
2026-01-30 17:57:31.598422	341.8	27.3	-68.1	0.0
2026-01-30 17:57:33.843465	341.8	26.9	-67.6	0.0
2026-01-30 17:57:36.092472	341.9	26.5	-68.0	0.0
2026-01-30 17:57:38.339003	341.9	26.1	-68.2	0.0
2026-01-30 17:57:40.584818	341.9	25.7	-66.4	0.0
2026-01-30 17:57:42.833254	342.0	25.4	-65.9	0.0
2026-01-30 17:57:45.081150	342.0	25.0	-69.3	0.0
2026-01-30 17:57:47.330196	342.0	24.6	-69.9	0.0
2026-01-30 17:57:49.579439	342.0	24.3	-69.4	0.0
2026-01-30 17:57:51.828822	342.1	23.9	-68.5	0.0
2026-01-30 17:57:54.076420	342.1	23.6	-68.7	0.0
2026-01-30 17:57:56.322376	342.1	23.3	-68.1	0.0
2026-01-30 17:57:58.570851	342.1	22.9	-68.9	0.0
2026-01-30 17:58:00.817056	342.2	22.6	-69.6	0.0
2026-01-30 17:58:03.062782	342.2	22.3	-69.4	0.0
2026-01-30 17:58:05.315952	342.2	21.9	-69.6	0.0
2026-01-30 17:58:07.562225	342.2	21.6	-67.4	0.0
2026-01-30 17:58:09.809526	342.3	21.3	-68.9	0.0
2026-01-30 17:58:12.056858	342.3	21.0	-71.2	0.0
2026-01-30 17:58:14.306033	342.3	20.7	-69.8	0.0
2026-01-30 17:58:16.553308	342.3	20.4	-69.8	0.0
2026-01-30 17:58:18.800255	342.4	20.1	-68.9	0.0
2026-01-30 17:58:21.047018	342.4	19.8	-70.7	0.0
2026-01-30 17:58:23.297381	342.4	19.5	-69.3	0.0
2026-01-30 17:58:25.547948	342.4	19.2	-69.9	0.0
2026-01-30 17:58:27.795568	342.4	18.9	-68.9	0.0
2026-01-30 17:58:30.044512	342.5	18.7	-70.1	0.0
2026-01-30 17:58:32.292844	342.5	18.4	-70.2	0.0
2026-01-30 17:58:34.540409	342.5	18.1	-71.3	0.0
2026-01-30 17:58:36.791184	342.5	17.8	-70.0	0.0
2026-01-30 17:58:39.039464	342.5	17.6	-69.9	0.0
2026-01-30 17:58:41.287764	342.6	17.3	-71.4	0.0
2026-01-30 17:58:43.533656	342.6	17.0	-69.1	0.0
2026-01-30 17:58:45.779584	342.6	16.8	-69.8	0.0
2026-01-30 17:58:48.026599	342.6	16.5	-71.4	0.0
2026-01-30 17:58:50.271093	342.6	16.3	-70.5	0.0
2026-01-30 17:58:52.519336	342.7	16.0	-70.6	0.0
2026-01-30 17:58:54.766266	342.7	15.8	-69.3	0.0
2026-01-30 17:58:57.014753	342.7	15.5	-72.4	0.0
2026-01-30 17:58:59.259931	342.7	15.3	-72.4	0.0
2026-01-30 17:59:01.508179	342.7	15.0	-71.3	0.0
2026-01-30 17:59:03.756547	342.8	14.8	-71.5	0.0
2026-01-30 17:59:06.002621	342.8	14.5	-73.3	0.0
2026-01-30 17:59:08.252280	342.8	14.3	-71.7	0.0
2026-01-30 17:59:10.497700	342.8	14.1	-71.4	0.0
2026-01-30 17:59:12.749056	342.8	13.9	-72.2	0.0
2026-01-30 17:59:14.993114	342.8	13.6	-72.5	0.0
2026-01-30 17:59:17.240745	342.9	13.4	-71.5	0.0
2026-01-30 17:59:19.490046	342.9	13.2	-72.0	0.0
2026-01-30 17:59:21.737106	342.9	13.0	-71.9	0.0
2026-01-30 17:59:23.984080	342.9	12.7	-71.5	0.0
2026-01-30 17:59:26.230212	342.9	12.5	-72.7	0.0
2026-01-30 17:59:28.477209	342.9	12.3	-72.6	0.0
2026-01-30 17:59:30.721500	343.0	12.1	-71.7	0.0
2026-01-30 17:59:32.970948	343.0	11.9	-71.6	0.0
2026-01-30 17:59:35.218461	343.0	11.7	-72.7	0.0
2026-01-30 17:59:37.462947	343.0	11.5	-71.8	0.0
2026-01-30 17:59:39.711302	343.0	11.2	-71.5	0.0
2026-01-30 17:59:41.957014	343.0	11.0	-72.2	0.0
2026-01-30 17:59:44.205598	343.1	10.8	-72.2	0.0
2026-01-30 17:59:46.453309	343.1	10.6	-71.1	0.0
2026-01-30 17:59:48.702170	343.1	10.4	-71.3	0.0
2026-01-30 17:59:50.949560	343.1	10.2	-72.5	0.0
#Closed at: 2026-01-30 17:49:05.354666