passes_logs/2026/01/30/planumMaritime01/planumMaritime01__20260130_062039_METEOR-M2_3_rec.log

#Pass ID: 20260130_062039_METEOR-M2 3
#Satellite: METEOR-M2 3
#Configuration: METEOR-M2 3
#Start time: 2026-01-30 06:20:44.914637

#LorettStation: 1.0.0 05.05.2024
#Station: planumMaritime01
#Location: 37.49445 lon 55.92918 lat
#TLE: 1 57166U 23091A   26029.54066941  .00000028  00000+0  31266-4 0  9995
#TLE: 2 57166  98.6304  87.2284 0003554 198.5989 161.5061 14.24033160134781

#Time	Az	El	Level	SNR
2026-01-30 06:20:47.076184	31.7	10.2	-76.7	0.0
2026-01-30 06:20:49.325170	32.0	10.3	-76.0	0.0
2026-01-30 06:20:51.572364	32.2	10.5	-76.1	0.0
2026-01-30 06:20:53.821904	32.4	10.7	-72.1	0.0
2026-01-30 06:20:56.068564	32.6	10.8	-72.0	0.0
2026-01-30 06:20:58.316764	32.9	11.0	-69.5	0.0
2026-01-30 06:21:00.564654	33.1	11.2	-66.2	0.0
2026-01-30 06:21:02.813861	33.3	11.4	-67.0	0.0
2026-01-30 06:21:05.061344	33.6	11.5	-65.7	0.0
2026-01-30 06:21:07.308773	33.8	11.7	-65.8	0.0
2026-01-30 06:21:09.557352	34.0	11.9	-62.9	0.0
2026-01-30 06:21:11.806394	34.3	12.0	-67.8	0.0
2026-01-30 06:21:14.050943	34.5	12.2	-69.4	0.0
2026-01-30 06:21:16.298644	34.8	12.4	-63.8	0.0
2026-01-30 06:21:18.545813	35.0	12.6	-68.6	0.0
2026-01-30 06:21:20.795640	35.3	12.8	-69.0	0.0
2026-01-30 06:21:23.042068	35.5	12.9	-68.5	0.0
2026-01-30 06:21:25.289377	35.8	13.1	-68.7	0.0
2026-01-30 06:21:27.538445	36.1	13.3	-70.1	0.0
2026-01-30 06:21:29.784187	36.3	13.5	-64.4	0.0
2026-01-30 06:21:32.033049	36.6	13.7	-69.5	0.0
2026-01-30 06:21:34.278865	36.9	13.9	-67.8	0.0
2026-01-30 06:21:36.526230	37.1	14.0	-70.0	0.0
2026-01-30 06:21:38.773497	37.4	14.2	-66.8	0.0
2026-01-30 06:21:41.021817	37.7	14.4	-64.7	0.0
2026-01-30 06:21:43.268403	38.0	14.6	-67.6	0.0
2026-01-30 06:21:45.514489	38.3	14.8	-70.0	0.0
2026-01-30 06:21:47.763010	38.6	15.0	-69.9	0.0
2026-01-30 06:21:50.011907	38.9	15.2	-70.8	0.0
2026-01-30 06:21:52.256707	39.2	15.4	-71.7	0.0
2026-01-30 06:21:54.504633	39.5	15.5	-70.0	0.0
2026-01-30 06:21:56.751931	39.8	15.7	-69.7	0.0
2026-01-30 06:21:59.003209	40.1	15.9	-70.1	0.0
2026-01-30 06:22:01.253064	40.4	16.1	-70.5	0.0
2026-01-30 06:22:03.502836	40.8	16.3	-71.4	0.0
2026-01-30 06:22:05.756244	41.1	16.5	-71.7	0.0
2026-01-30 06:22:08.003166	41.4	16.7	-72.1	0.0
2026-01-30 06:22:10.252977	41.7	16.9	-71.8	0.0
2026-01-30 06:22:12.503071	42.1	17.1	-72.2	0.0
2026-01-30 06:22:14.750793	42.4	17.3	-71.3	0.0
2026-01-30 06:22:16.998891	42.8	17.5	-71.4	0.0
2026-01-30 06:22:19.245644	43.1	17.7	-71.9	0.0
2026-01-30 06:22:21.494328	43.5	17.9	-72.7	0.0
2026-01-30 06:22:23.744989	43.8	18.1	-66.8	0.0
2026-01-30 06:22:25.991918	44.2	18.3	-70.7	0.0
2026-01-30 06:22:28.239081	44.6	18.5	-71.7	0.0
2026-01-30 06:22:30.490096	45.0	18.7	-73.1	0.0
2026-01-30 06:22:32.739431	45.3	18.9	-74.0	1.7
2026-01-30 06:22:34.987607	45.7	19.1	-72.8	0.0
2026-01-30 06:22:37.235380	46.1	19.3	-68.6	0.0
2026-01-30 06:22:39.486225	46.5	19.5	-73.6	0.0
2026-01-30 06:22:41.734638	46.9	19.7	-74.0	0.0
2026-01-30 06:22:43.981942	47.3	19.9	-74.5	0.4
2026-01-30 06:22:46.233013	47.7	20.1	-73.7	0.0
2026-01-30 06:22:48.482067	48.2	20.4	-71.7	0.0
2026-01-30 06:22:50.730681	48.6	20.6	-75.0	4.0
2026-01-30 06:22:52.978334	49.0	20.8	-75.5	0.0
2026-01-30 06:22:55.223418	49.4	21.0	-74.8	1.6
2026-01-30 06:22:57.469966	49.9	21.2	-74.1	0.0
2026-01-30 06:22:59.715086	50.3	21.4	-74.9	2.3
2026-01-30 06:23:01.963136	50.8	21.6	-73.5	0.0
2026-01-30 06:23:04.213252	51.2	21.8	-73.2	0.0
2026-01-30 06:23:06.461219	51.7	22.0	-75.5	1.4
2026-01-30 06:23:08.708588	52.2	22.2	-74.6	1.4
2026-01-30 06:23:10.956401	52.6	22.4	-72.9	0.0
2026-01-30 06:23:13.202882	53.1	22.6	-75.2	1.6
2026-01-30 06:23:15.450423	53.6	22.8	-76.0	2.0
2026-01-30 06:23:17.695816	54.1	23.0	-74.4	3.2
2026-01-30 06:23:19.942073	54.6	23.2	-74.4	2.1
2026-01-30 06:23:22.190992	55.1	23.4	-74.3	2.5
2026-01-30 06:23:24.439964	55.6	23.6	-75.0	0.0
2026-01-30 06:23:26.688562	56.1	23.8	-75.9	4.1
2026-01-30 06:23:28.933253	56.7	24.0	-74.8	2.5
2026-01-30 06:23:31.181891	57.2	24.2	-75.2	2.6
2026-01-30 06:23:33.428129	57.8	24.4	-75.7	4.6
2026-01-30 06:23:35.673593	58.3	24.6	-74.3	3.4
2026-01-30 06:23:37.922131	58.9	24.8	-74.9	2.5
2026-01-30 06:23:40.166284	59.4	25.0	-74.3	1.2
2026-01-30 06:23:42.410294	60.0	25.2	-75.0	5.3
2026-01-30 06:23:44.657894	60.6	25.4	-74.5	1.7
2026-01-30 06:23:46.907559	61.1	25.6	-75.4	3.6
2026-01-30 06:23:49.151152	61.7	25.8	-75.4	4.1
2026-01-30 06:23:51.397760	62.3	26.0	-74.8	3.9
2026-01-30 06:23:53.644671	62.9	26.2	-74.8	3.0
2026-01-30 06:23:55.892385	63.5	26.3	-74.3	0.0
2026-01-30 06:23:58.144766	64.2	26.5	-74.7	2.6
2026-01-30 06:24:00.392681	64.8	26.7	-75.2	5.3
2026-01-30 06:24:02.640469	65.4	26.9	-75.6	5.8
2026-01-30 06:24:04.886106	66.0	27.1	-75.7	6.3
2026-01-30 06:24:07.133739	66.7	27.2	-75.4	4.7
2026-01-30 06:24:09.380165	67.3	27.4	-73.3	0.9
2026-01-30 06:24:11.629661	68.0	27.6	-73.5	0.5
2026-01-30 06:24:13.878258	68.7	27.7	-74.9	5.7
2026-01-30 06:24:16.124151	69.3	27.9	-75.2	5.8
2026-01-30 06:24:18.373130	70.0	28.0	-76.3	4.4
2026-01-30 06:24:20.621964	70.7	28.2	-75.3	5.8
2026-01-30 06:24:22.866244	71.4	28.3	-73.3	0.0
2026-01-30 06:24:25.115830	72.1	28.5	-75.3	7.3
2026-01-30 06:24:27.362383	72.8	28.6	-75.2	3.3
2026-01-30 06:24:29.609586	73.5	28.8	-75.9	7.4
2026-01-30 06:24:31.857814	74.2	28.9	-74.1	3.4
2026-01-30 06:24:34.104864	74.9	29.0	-75.7	6.7
2026-01-30 06:24:36.355142	75.7	29.2	-75.6	6.2
2026-01-30 06:24:38.605083	76.4	29.3	-75.3	5.3
2026-01-30 06:24:40.853768	77.1	29.4	-75.7	8.1
2026-01-30 06:24:43.101584	77.9	29.5	-74.7	1.9
2026-01-30 06:24:45.353203	78.6	29.6	-75.6	7.2
2026-01-30 06:24:47.600523	79.4	29.7	-75.4	6.5
2026-01-30 06:24:49.854167	80.2	29.8	-76.0	8.2
2026-01-30 06:24:52.102481	80.9	29.9	-75.7	6.2
2026-01-30 06:24:54.349413	81.7	30.0	-76.5	6.6
2026-01-30 06:24:56.596913	82.5	30.1	-76.3	4.6
2026-01-30 06:24:58.844162	83.2	30.2	-76.6	9.1
2026-01-30 06:25:01.088652	84.0	30.2	-75.9	5.3
2026-01-30 06:25:03.335583	84.8	30.3	-76.6	6.8
2026-01-30 06:25:05.582419	85.6	30.4	-76.6	6.9
2026-01-30 06:25:07.829652	86.4	30.4	-77.4	8.8
2026-01-30 06:25:10.077570	87.2	30.5	-77.0	6.9
2026-01-30 06:25:12.323682	87.9	30.5	-77.3	9.2
2026-01-30 06:25:14.571251	88.7	30.5	-77.4	8.8
2026-01-30 06:25:16.817015	89.5	30.6	-76.1	6.7
2026-01-30 06:25:19.067632	90.3	30.6	-76.3	6.6
2026-01-30 06:25:21.314411	91.1	30.6	-77.7	8.5
2026-01-30 06:25:23.560368	91.9	30.6	-77.6	9.0
2026-01-30 06:25:25.812403	92.7	30.6	-77.5	8.5
2026-01-30 06:25:28.059279	93.5	30.6	-77.1	8.7
2026-01-30 06:25:30.307758	94.3	30.6	-77.6	8.6
2026-01-30 06:25:32.554722	95.1	30.6	-77.1	8.8
2026-01-30 06:25:34.803037	95.9	30.6	-77.8	9.0
2026-01-30 06:25:37.052507	96.7	30.6	-77.6	9.6
2026-01-30 06:25:39.304740	97.5	30.5	-77.8	9.4
2026-01-30 06:25:41.553638	98.3	30.5	-77.3	8.6
2026-01-30 06:25:43.804905	99.1	30.5	-77.7	10.1
2026-01-30 06:25:46.049933	99.9	30.4	-77.3	8.6
2026-01-30 06:25:48.295250	100.7	30.4	-77.9	9.2
2026-01-30 06:25:50.543110	101.5	30.3	-77.5	9.6
2026-01-30 06:25:52.790175	102.3	30.2	-77.5	9.9
2026-01-30 06:25:55.038379	103.1	30.2	-77.5	9.7
2026-01-30 06:25:57.286010	103.8	30.1	-77.3	9.9
2026-01-30 06:25:59.535017	104.6	30.0	-78.2	11.1
2026-01-30 06:26:01.784185	105.4	29.9	-77.4	10.6
2026-01-30 06:26:04.031747	106.2	29.8	-77.4	10.2
2026-01-30 06:26:06.280939	106.9	29.7	-77.9	10.6
2026-01-30 06:26:08.529838	107.7	29.6	-78.0	10.8
2026-01-30 06:26:10.780928	108.4	29.5	-77.7	10.3
2026-01-30 06:26:13.029380	109.2	29.4	-78.2	10.5
2026-01-30 06:26:15.278978	109.9	29.3	-78.1	9.5
2026-01-30 06:26:17.528675	110.7	29.2	-78.3	10.6
2026-01-30 06:26:19.777794	111.4	29.1	-78.2	10.4
2026-01-30 06:26:22.024853	112.1	28.9	-78.1	10.5
2026-01-30 06:26:24.272103	112.8	28.8	-77.8	9.5
2026-01-30 06:26:26.519437	113.5	28.7	-78.1	9.6
2026-01-30 06:26:28.764970	114.3	28.5	-78.0	9.8
2026-01-30 06:26:31.014519	115.0	28.4	-77.8	10.8
2026-01-30 06:26:33.263688	115.7	28.2	-77.9	10.7
2026-01-30 06:26:35.513886	116.3	28.1	-78.1	11.3
2026-01-30 06:26:37.765872	117.0	27.9	-78.2	10.2
2026-01-30 06:26:40.014872	117.7	27.8	-77.9	8.3
2026-01-30 06:26:42.267359	118.4	27.6	-77.5	8.6
2026-01-30 06:26:44.516341	119.0	27.4	-77.9	10.6
2026-01-30 06:26:46.762314	119.7	27.3	-78.1	10.2
2026-01-30 06:26:49.011757	120.3	27.1	-77.6	10.3
2026-01-30 06:26:51.259280	121.0	26.9	-77.5	9.4
2026-01-30 06:26:53.507220	121.6	26.7	-77.8	10.1
2026-01-30 06:26:55.756270	122.3	26.5	-78.1	10.9
2026-01-30 06:26:58.003579	122.9	26.4	-77.9	8.9
2026-01-30 06:27:00.253014	123.5	26.2	-77.7	8.8
2026-01-30 06:27:02.499694	124.1	26.0	-77.3	8.8
2026-01-30 06:27:04.748636	124.7	25.8	-77.5	7.9
2026-01-30 06:27:06.993774	125.3	25.6	-77.2	7.9
2026-01-30 06:27:09.244525	125.9	25.4	-78.0	9.8
2026-01-30 06:27:11.495455	126.5	25.2	-78.2	8.8
2026-01-30 06:27:13.743305	127.0	25.0	-78.2	9.1
2026-01-30 06:27:15.992792	127.6	24.8	-78.0	9.1
2026-01-30 06:27:18.242785	128.2	24.6	-78.7	9.7
2026-01-30 06:27:20.491283	128.7	24.4	-78.5	8.6
2026-01-30 06:27:22.740294	129.2	24.2	-78.4	8.8
2026-01-30 06:27:24.988697	129.8	24.0	-78.2	8.9
2026-01-30 06:27:27.237318	130.3	23.8	-78.5	9.3
2026-01-30 06:27:29.484740	130.8	23.6	-78.1	9.0
2026-01-30 06:27:31.730783	131.4	23.4	-78.0	8.9
2026-01-30 06:27:33.979027	131.9	23.2	-78.4	9.3
2026-01-30 06:27:36.227198	132.4	23.0	-77.8	9.3
2026-01-30 06:27:38.474528	132.9	22.8	-78.0	8.8
2026-01-30 06:27:40.722585	133.4	22.6	-77.7	9.6
2026-01-30 06:27:42.969540	133.9	22.4	-77.5	9.4
2026-01-30 06:27:45.222666	134.3	22.2	-78.0	10.3
2026-01-30 06:27:47.468110	134.8	22.0	-78.2	9.8
2026-01-30 06:27:49.713002	135.3	21.8	-77.9	10.5
2026-01-30 06:27:51.963078	135.7	21.6	-78.1	9.4
2026-01-30 06:27:54.209649	136.2	21.4	-77.7	9.4
2026-01-30 06:27:56.456396	136.6	21.1	-78.0	9.3
2026-01-30 06:27:58.705577	137.1	20.9	-77.8	9.3
2026-01-30 06:28:00.954012	137.5	20.7	-78.1	9.1
2026-01-30 06:28:03.203435	137.9	20.5	-78.2	9.8
2026-01-30 06:28:05.450514	138.4	20.3	-78.2	9.0
2026-01-30 06:28:07.700565	138.8	20.1	-78.3	9.1
2026-01-30 06:28:09.947389	139.2	19.9	-77.9	9.1
2026-01-30 06:28:12.198233	139.6	19.7	-78.2	8.6
2026-01-30 06:28:14.447428	140.0	19.5	-78.2	8.5
2026-01-30 06:28:16.696239	140.4	19.3	-78.0	9.6
2026-01-30 06:28:18.946251	140.8	19.1	-77.9	6.8
2026-01-30 06:28:21.194996	141.2	18.9	-78.6	8.3
2026-01-30 06:28:23.439993	141.6	18.7	-78.4	8.4
2026-01-30 06:28:25.691678	142.0	18.5	-78.4	7.6
2026-01-30 06:28:27.940298	142.3	18.3	-78.3	8.1
2026-01-30 06:28:30.189608	142.7	18.0	-78.4	8.4
2026-01-30 06:28:32.440383	143.1	17.8	-78.6	8.3
2026-01-30 06:28:34.686070	143.4	17.6	-78.1	6.3
2026-01-30 06:28:36.936118	143.8	17.4	-78.8	7.1
2026-01-30 06:28:39.186265	144.1	17.2	-78.5	6.2
2026-01-30 06:28:41.433134	144.5	17.0	-77.7	4.4
2026-01-30 06:28:43.680236	144.8	16.8	-79.5	6.0
2026-01-30 06:28:45.924202	145.1	16.6	-77.6	4.0
2026-01-30 06:28:48.170644	145.5	16.4	-77.2	3.9
2026-01-30 06:28:50.414480	145.8	16.2	-77.6	4.4
2026-01-30 06:28:52.664588	146.1	16.0	-77.2	4.8
2026-01-30 06:28:54.910254	146.4	15.9	-78.2	4.1
2026-01-30 06:28:57.158076	146.8	15.7	-76.5	0.0
2026-01-30 06:28:59.406918	147.1	15.5	-77.6	3.3
2026-01-30 06:29:01.655659	147.4	15.3	-77.4	3.1
2026-01-30 06:29:03.904315	147.7	15.1	-76.3	1.4
2026-01-30 06:29:06.149642	148.0	14.9	-78.1	3.5
2026-01-30 06:29:08.399466	148.3	14.7	-78.0	4.1
2026-01-30 06:29:10.644964	148.6	14.5	-77.6	0.0
2026-01-30 06:29:12.893794	148.9	14.3	-76.5	1.0
2026-01-30 06:29:15.142738	149.1	14.1	-77.6	4.3
2026-01-30 06:29:17.391404	149.4	13.9	-78.0	3.8
2026-01-30 06:29:19.640408	149.7	13.7	-78.1	4.1
2026-01-30 06:29:21.890911	150.0	13.6	-77.2	0.3
2026-01-30 06:29:24.135963	150.3	13.4	-78.5	4.7
2026-01-30 06:29:26.382484	150.5	13.2	-78.7	3.7
2026-01-30 06:29:28.628483	150.8	13.0	-79.5	5.0
2026-01-30 06:29:30.876669	151.0	12.8	-78.6	4.2
2026-01-30 06:29:33.123950	151.3	12.6	-79.5	3.5
2026-01-30 06:29:35.374433	151.6	12.5	-79.9	5.1
2026-01-30 06:29:37.622437	151.8	12.3	-79.8	7.0
2026-01-30 06:29:39.870089	152.1	12.1	-80.7	4.5
2026-01-30 06:29:42.119548	152.3	11.9	-80.5	3.4
2026-01-30 06:29:44.366344	152.6	11.7	-80.6	4.3
2026-01-30 06:29:46.615515	152.8	11.6	-79.9	5.5
2026-01-30 06:29:48.863289	153.0	11.4	-80.8	5.3
2026-01-30 06:29:51.109315	153.3	11.2	-80.9	5.2
2026-01-30 06:29:53.355638	153.5	11.0	-79.7	6.0
2026-01-30 06:29:55.602650	153.7	10.9	-79.1	5.6
2026-01-30 06:29:57.851157	154.0	10.7	-77.2	0.0
2026-01-30 06:30:00.100267	154.2	10.5	-81.8	0.0
2026-01-30 06:30:02.345868	154.4	10.4	-82.4	0.0
2026-01-30 06:30:04.592408	154.6	10.2	-82.3	0.0
2026-01-30 06:30:06.841593	154.8	10.0	-82.7	0.0
#Closed at: 2026-01-30 06:20:39.921762