passes_logs/2026/01/30/planumMaritime01/planumMaritime01__20260130_055122_METOP-B_rec.log

#Pass ID: 20260130_055122_METOP-B
#Satellite: METOP-B
#Configuration: METOP-B
#Start time: 2026-01-30 05:51:27.913533

#LorettStation: 1.0.0 05.05.2024
#Station: planumMaritime01
#Location: 37.49445 lon 55.92918 lat
#TLE: 1 38771U 12049A   26029.44837381  .00000209  00000+0  11573-3 0  9999
#TLE: 2 38771  98.6725  83.5823 0002823  46.8790 313.2623 14.21430466693552

#Time	Az	El	Level	SNR
2026-01-30 05:51:30.073428	36.2	10.1	-70.8	0.0
2026-01-30 05:51:32.317902	36.5	10.3	-72.1	0.0
2026-01-30 05:51:34.564375	36.7	10.4	-71.4	0.0
2026-01-30 05:51:36.807006	37.0	10.6	-71.7	0.0
2026-01-30 05:51:39.051819	37.3	10.8	-72.5	0.0
2026-01-30 05:51:41.299275	37.5	10.9	-68.9	0.0
2026-01-30 05:51:43.543094	37.8	11.1	-70.1	0.0
2026-01-30 05:51:45.785320	38.1	11.2	-69.2	0.0
2026-01-30 05:51:48.030642	38.4	11.4	-69.1	0.0
2026-01-30 05:51:50.273908	38.7	11.5	-69.7	0.0
2026-01-30 05:51:52.517409	38.9	11.7	-69.1	0.0
2026-01-30 05:51:54.760628	39.2	11.8	-67.7	0.0
2026-01-30 05:51:57.005301	39.5	12.0	-68.1	0.0
2026-01-30 05:51:59.251002	39.8	12.1	-65.5	0.0
2026-01-30 05:52:01.497084	40.1	12.3	-68.1	0.0
2026-01-30 05:52:03.743418	40.4	12.5	-67.5	0.0
2026-01-30 05:52:05.991255	40.7	12.6	-67.6	0.0
2026-01-30 05:52:08.235758	41.0	12.8	-71.4	0.0
2026-01-30 05:52:10.481604	41.3	12.9	-68.5	0.0
2026-01-30 05:52:12.728134	41.6	13.1	-70.6	0.0
2026-01-30 05:52:14.975518	42.0	13.2	-66.7	0.0
2026-01-30 05:52:17.219338	42.3	13.4	-68.1	0.0
2026-01-30 05:52:19.462611	42.6	13.6	-67.6	0.0
2026-01-30 05:52:21.707413	42.9	13.7	-71.9	0.0
2026-01-30 05:52:23.951975	43.2	13.9	-70.3	0.0
2026-01-30 05:52:26.196886	43.6	14.0	-67.9	0.0
2026-01-30 05:52:28.441318	43.9	14.2	-70.6	0.0
2026-01-30 05:52:30.687919	44.3	14.4	-69.4	0.0
2026-01-30 05:52:32.930337	44.6	14.5	-69.8	0.0
2026-01-30 05:52:35.175925	44.9	14.7	-69.3	0.0
2026-01-30 05:52:37.419016	45.3	14.8	-70.8	0.0
2026-01-30 05:52:39.665461	45.6	15.0	-68.9	0.0
2026-01-30 05:52:41.910926	46.0	15.2	-68.2	0.0
2026-01-30 05:52:44.154460	46.4	15.3	-71.3	0.0
2026-01-30 05:52:46.399270	46.7	15.5	-70.4	0.0
2026-01-30 05:52:48.643738	47.1	15.6	-68.9	0.0
2026-01-30 05:52:50.890530	47.5	15.8	-69.5	0.0
2026-01-30 05:52:53.136378	47.8	16.0	-71.1	0.0
2026-01-30 05:52:55.381494	48.2	16.1	-70.6	0.0
2026-01-30 05:52:57.628813	48.6	16.3	-70.3	0.0
2026-01-30 05:52:59.873493	49.0	16.4	-65.8	0.0
2026-01-30 05:53:02.119413	49.4	16.6	-70.7	0.0
2026-01-30 05:53:04.364374	49.8	16.8	-70.3	0.0
2026-01-30 05:53:06.609763	50.2	16.9	-71.1	0.0
2026-01-30 05:53:08.852909	50.6	17.1	-71.2	0.0
2026-01-30 05:53:11.097405	51.0	17.2	-69.4	0.0
2026-01-30 05:53:13.344491	51.4	17.4	-71.9	0.0
2026-01-30 05:53:15.591364	51.8	17.6	-71.2	0.0
2026-01-30 05:53:17.838927	52.3	17.7	-71.3	0.0
2026-01-30 05:53:20.087112	52.7	17.9	-72.0	0.0
2026-01-30 05:53:22.330814	53.1	18.0	-72.7	0.0
2026-01-30 05:53:24.579214	53.6	18.2	-71.1	0.0
2026-01-30 05:53:26.826032	54.0	18.3	-69.0	0.0
2026-01-30 05:53:29.071654	54.4	18.5	-71.2	0.0
2026-01-30 05:53:31.318168	54.9	18.6	-71.3	0.0
2026-01-30 05:53:33.559506	55.3	18.8	-71.4	0.0
2026-01-30 05:53:35.804152	55.8	19.0	-71.6	0.0
2026-01-30 05:53:38.047273	56.3	19.1	-72.5	0.0
2026-01-30 05:53:40.294174	56.7	19.3	-72.6	0.0
2026-01-30 05:53:42.540113	57.2	19.4	-69.4	0.0
2026-01-30 05:53:44.784952	57.7	19.6	-70.5	0.0
2026-01-30 05:53:47.029104	58.1	19.7	-71.7	0.0
2026-01-30 05:53:49.275975	58.6	19.8	-65.3	0.0
2026-01-30 05:53:51.521968	59.1	20.0	-71.6	0.0
2026-01-30 05:53:53.765159	59.6	20.1	-68.5	0.0
2026-01-30 05:53:56.011271	60.1	20.3	-73.3	0.0
2026-01-30 05:53:58.257558	60.6	20.4	-71.8	0.0
2026-01-30 05:54:00.502035	61.1	20.6	-70.3	0.0
2026-01-30 05:54:02.746639	61.6	20.7	-69.2	0.0
2026-01-30 05:54:04.991873	62.2	20.8	-74.2	0.0
2026-01-30 05:54:07.239178	62.7	21.0	-71.0	0.0
2026-01-30 05:54:09.483880	63.2	21.1	-67.6	0.0
2026-01-30 05:54:11.730256	63.7	21.2	-70.7	0.0
2026-01-30 05:54:13.973478	64.3	21.4	-69.0	0.0
2026-01-30 05:54:16.218236	64.8	21.5	-70.2	0.0
2026-01-30 05:54:18.465549	65.3	21.6	-71.8	0.0
2026-01-30 05:54:20.715400	65.9	21.8	-71.5	0.0
2026-01-30 05:54:22.958565	66.4	21.9	-71.2	0.0
2026-01-30 05:54:25.206006	67.0	22.0	-71.6	0.0
2026-01-30 05:54:27.450865	67.6	22.1	-73.0	0.0
2026-01-30 05:54:29.698200	68.1	22.2	-72.4	0.0
2026-01-30 05:54:31.942291	68.7	22.3	-72.5	0.0
2026-01-30 05:54:34.188614	69.3	22.5	-73.5	0.0
2026-01-30 05:54:36.433187	69.9	22.6	-73.5	0.0
2026-01-30 05:54:38.678585	70.4	22.7	-71.2	0.0
2026-01-30 05:54:40.921871	71.0	22.8	-72.6	0.0
2026-01-30 05:54:43.164306	71.6	22.9	-72.9	0.0
2026-01-30 05:54:45.407682	72.2	23.0	-74.4	0.0
2026-01-30 05:54:47.655447	72.8	23.1	-73.3	0.0
2026-01-30 05:54:49.900555	73.4	23.2	-73.2	0.0
2026-01-30 05:54:52.144782	74.0	23.3	-73.7	0.0
2026-01-30 05:54:54.394270	74.6	23.3	-72.7	0.0
2026-01-30 05:54:56.643989	75.2	23.4	-73.2	0.0
2026-01-30 05:54:58.890179	75.8	23.5	-73.2	0.0
2026-01-30 05:55:01.136131	76.4	23.6	-73.0	0.0
2026-01-30 05:55:03.382730	77.1	23.7	-72.3	0.0
2026-01-30 05:55:05.628844	77.7	23.7	-72.8	0.0
2026-01-30 05:55:07.871006	78.3	23.8	-72.2	0.0
2026-01-30 05:55:10.119957	78.9	23.9	-73.3	0.0
2026-01-30 05:55:12.363086	79.6	23.9	-73.8	0.0
2026-01-30 05:55:14.607265	80.2	24.0	-74.1	0.0
2026-01-30 05:55:16.855098	80.8	24.0	-73.2	0.0
2026-01-30 05:55:19.102702	81.5	24.1	-72.9	0.0
2026-01-30 05:55:21.345566	82.1	24.1	-74.6	0.0
2026-01-30 05:55:23.591684	82.8	24.2	-73.9	0.0
2026-01-30 05:55:25.837187	83.4	24.2	-74.5	0.0
2026-01-30 05:55:28.078750	84.0	24.3	-74.2	0.0
2026-01-30 05:55:30.320474	84.7	24.3	-73.5	0.0
2026-01-30 05:55:32.565395	85.3	24.3	-75.1	0.0
2026-01-30 05:55:34.812190	86.0	24.4	-75.5	0.0
2026-01-30 05:55:37.054972	86.6	24.4	-75.0	0.0
2026-01-30 05:55:39.298314	87.3	24.4	-73.8	0.0
2026-01-30 05:55:41.543029	87.9	24.4	-74.7	0.0
2026-01-30 05:55:43.790185	88.6	24.4	-74.9	0.0
2026-01-30 05:55:46.034005	89.2	24.4	-75.0	0.0
2026-01-30 05:55:48.279827	89.9	24.4	-74.9	0.0
2026-01-30 05:55:50.527397	90.5	24.4	-75.1	0.0
2026-01-30 05:55:52.771709	91.2	24.4	-74.8	0.0
2026-01-30 05:55:55.020037	91.8	24.4	-75.2	0.0
2026-01-30 05:55:57.267282	92.5	24.4	-75.4	0.0
2026-01-30 05:55:59.511122	93.2	24.4	-73.6	0.0
2026-01-30 05:56:01.756221	93.8	24.4	-75.0	0.0
2026-01-30 05:56:04.001103	94.5	24.4	-75.1	0.0
2026-01-30 05:56:06.247844	95.1	24.3	-75.1	0.0
2026-01-30 05:56:08.493926	95.7	24.3	-74.6	0.0
2026-01-30 05:56:10.741471	96.4	24.3	-76.2	0.0
2026-01-30 05:56:12.984847	97.0	24.2	-75.9	0.0
2026-01-30 05:56:15.227864	97.7	24.2	-75.5	0.0
2026-01-30 05:56:17.475861	98.3	24.1	-75.8	0.0
2026-01-30 05:56:19.717836	99.0	24.1	-75.8	0.0
2026-01-30 05:56:21.960926	99.6	24.0	-75.8	0.0
2026-01-30 05:56:24.204059	100.2	24.0	-75.7	0.0
2026-01-30 05:56:26.449302	100.9	23.9	-75.9	0.0
2026-01-30 05:56:28.691637	101.5	23.9	-75.4	0.0
2026-01-30 05:56:30.935344	102.1	23.8	-76.0	0.0
2026-01-30 05:56:33.182328	102.8	23.7	-76.0	0.0
2026-01-30 05:56:35.426005	103.4	23.6	-75.3	0.0
2026-01-30 05:56:37.673420	104.0	23.6	-76.0	0.0
2026-01-30 05:56:39.922208	104.6	23.5	-75.7	0.0
2026-01-30 05:56:42.169217	105.2	23.4	-75.6	0.0
2026-01-30 05:56:44.413094	105.8	23.3	-75.6	0.0
2026-01-30 05:56:46.654819	106.4	23.2	-75.6	0.0
2026-01-30 05:56:48.901131	107.0	23.1	-74.8	0.0
2026-01-30 05:56:51.146286	107.6	23.0	-75.2	0.0
2026-01-30 05:56:53.392180	108.2	22.9	-75.0	0.0
2026-01-30 05:56:55.635694	108.8	22.8	-75.0	0.0
2026-01-30 05:56:57.879070	109.4	22.7	-74.9	0.0
2026-01-30 05:57:00.126072	110.0	22.6	-73.0	0.0
2026-01-30 05:57:02.371482	110.6	22.5	-73.6	0.0
2026-01-30 05:57:04.614328	111.2	22.4	-74.0	0.0
2026-01-30 05:57:06.859428	111.7	22.3	-74.5	0.0
2026-01-30 05:57:09.105172	112.3	22.2	-74.4	0.0
2026-01-30 05:57:11.350973	112.9	22.1	-75.1	0.0
2026-01-30 05:57:13.599644	113.4	21.9	-74.0	0.0
2026-01-30 05:57:15.840661	114.0	21.8	-72.7	0.0
2026-01-30 05:57:18.087556	114.5	21.7	-74.0	0.0
2026-01-30 05:57:20.330434	115.1	21.6	-74.8	0.0
2026-01-30 05:57:22.580736	115.6	21.4	-72.4	0.0
2026-01-30 05:57:24.827556	116.2	21.3	-74.0	0.0
2026-01-30 05:57:27.073867	116.7	21.2	-74.8	0.0
2026-01-30 05:57:29.319601	117.2	21.1	-74.4	0.0
2026-01-30 05:57:31.566398	117.8	20.9	-73.8	0.0
2026-01-30 05:57:33.813191	118.3	20.8	-73.6	0.0
2026-01-30 05:57:36.058278	118.8	20.6	-74.3	0.0
2026-01-30 05:57:38.303480	119.3	20.5	-74.7	0.0
2026-01-30 05:57:40.549055	119.8	20.4	-74.4	0.0
2026-01-30 05:57:42.796610	120.3	20.2	-74.2	0.0
2026-01-30 05:57:45.040167	120.8	20.1	-75.4	0.0
2026-01-30 05:57:47.281888	121.3	19.9	-75.0	0.0
2026-01-30 05:57:49.528494	121.8	19.8	-75.3	0.0
2026-01-30 05:57:51.774995	122.3	19.6	-73.7	0.0
2026-01-30 05:57:54.019545	122.8	19.5	-72.9	0.0
2026-01-30 05:57:56.264201	123.3	19.3	-73.3	0.0
2026-01-30 05:57:58.510930	123.7	19.2	-75.1	0.0
2026-01-30 05:58:00.753799	124.2	19.0	-74.5	0.0
2026-01-30 05:58:02.997582	124.7	18.9	-75.4	0.0
2026-01-30 05:58:05.242827	125.1	18.7	-74.5	0.0
2026-01-30 05:58:07.487332	125.6	18.6	-73.9	0.0
2026-01-30 05:58:09.731701	126.0	18.4	-75.3	0.0
2026-01-30 05:58:11.977894	126.5	18.3	-74.3	0.0
2026-01-30 05:58:14.220572	126.9	18.1	-74.2	0.0
2026-01-30 05:58:16.465095	127.3	17.9	-73.2	0.0
2026-01-30 05:58:18.708384	127.8	17.8	-73.4	0.0
2026-01-30 05:58:20.956561	128.2	17.6	-74.9	0.0
2026-01-30 05:58:23.203770	128.6	17.5	-75.2	0.0
2026-01-30 05:58:25.447880	129.0	17.3	-74.4	0.0
2026-01-30 05:58:27.693433	129.4	17.1	-74.4	0.0
2026-01-30 05:58:29.936980	129.8	17.0	-74.3	0.0
2026-01-30 05:58:32.184079	130.3	16.8	-74.4	0.0
2026-01-30 05:58:34.429527	130.7	16.7	-73.3	0.0
2026-01-30 05:58:36.677201	131.1	16.5	-72.8	0.0
2026-01-30 05:58:38.921001	131.4	16.3	-73.2	0.0
2026-01-30 05:58:41.163784	131.8	16.2	-72.5	0.0
2026-01-30 05:58:43.411583	132.2	16.0	-73.4	0.0
2026-01-30 05:58:45.657317	132.6	15.9	-73.0	0.0
2026-01-30 05:58:47.901629	133.0	15.7	-72.3	0.0
2026-01-30 05:58:50.147810	133.3	15.5	-72.9	0.0
2026-01-30 05:58:52.391142	133.7	15.4	-72.5	0.0
2026-01-30 05:58:54.639577	134.1	15.2	-71.8	0.0
2026-01-30 05:58:56.883485	134.4	15.0	-72.6	0.0
2026-01-30 05:58:59.129048	134.8	14.9	-73.3	0.0
2026-01-30 05:59:01.375567	135.2	14.7	-72.3	0.0
2026-01-30 05:59:03.619154	135.5	14.6	-72.4	0.0
2026-01-30 05:59:05.863267	135.8	14.4	-72.0	0.0
2026-01-30 05:59:08.108532	136.2	14.2	-71.7	0.0
2026-01-30 05:59:10.352305	136.5	14.1	-71.7	0.0
2026-01-30 05:59:12.597086	136.9	13.9	-72.2	0.0
2026-01-30 05:59:14.839075	137.2	13.8	-71.7	0.0
2026-01-30 05:59:17.084022	137.5	13.6	-71.2	0.0
2026-01-30 05:59:19.329901	137.8	13.4	-72.0	0.0
2026-01-30 05:59:21.575536	138.2	13.3	-71.2	0.0
2026-01-30 05:59:23.819350	138.5	13.1	-71.8	0.0
2026-01-30 05:59:26.065483	138.8	13.0	-71.3	0.0
2026-01-30 05:59:28.309696	139.1	12.8	-71.6	0.0
2026-01-30 05:59:30.554477	139.4	12.6	-71.1	0.0
2026-01-30 05:59:32.796709	139.7	12.5	-71.0	0.0
2026-01-30 05:59:35.041364	140.0	12.3	-70.9	0.0
2026-01-30 05:59:37.284499	140.3	12.2	-71.7	0.0
2026-01-30 05:59:39.529497	140.6	12.0	-71.3	0.0
2026-01-30 05:59:41.774542	140.9	11.8	-71.2	0.0
2026-01-30 05:59:44.017115	141.2	11.7	-71.2	0.0
2026-01-30 05:59:46.262423	141.5	11.5	-71.4	0.0
2026-01-30 05:59:48.507875	141.8	11.4	-71.2	0.0
2026-01-30 05:59:50.754933	142.0	11.2	-71.2	0.0
2026-01-30 05:59:52.999368	142.3	11.1	-70.2	0.0
2026-01-30 05:59:55.244252	142.6	10.9	-71.7	0.0
2026-01-30 05:59:57.487397	142.9	10.8	-73.3	0.0
2026-01-30 05:59:59.731740	143.1	10.6	-74.9	2.2
2026-01-30 06:00:01.974320	143.4	10.4	-76.7	0.0
2026-01-30 06:00:04.222595	143.7	10.3	-77.7	0.0
2026-01-30 06:00:06.462114	143.9	10.1	-76.5	0.0
#Closed at: 2026-01-30 05:51:22.920810