passes_logs/2026/01/30/planumMaritime01/planumMaritime01__20260130_124433_METEOR-M2_4_rec.log

#Pass ID: 20260130_124433_METEOR-M2 4
#Satellite: METEOR-M2 4
#Configuration: METEOR-M2 4
#Start time: 2026-01-30 12:44:38.579750

#LorettStation: 1.0.0 05.05.2024
#Station: planumMaritime01
#Location: 37.49445 lon 55.92918 lat
#TLE: 1 59051U 24039A   26029.53852645  .00000070  00000+0  50902-4 0  9991
#TLE: 2 59051  98.6836 350.7150 0006491 203.4282 156.6601 14.22410639 99559

#Time	Az	El	Level	SNR
2026-01-30 12:44:40.751651	214.3	10.2	-83.4	0.0
2026-01-30 12:44:43.002051	214.6	10.3	-83.2	0.0
2026-01-30 12:44:45.251412	214.8	10.5	-82.9	0.0
2026-01-30 12:44:47.501401	215.1	10.6	-81.8	0.0
2026-01-30 12:44:49.751305	215.4	10.8	-78.8	0.0
2026-01-30 12:44:52.000559	215.6	10.9	-77.6	4.0
2026-01-30 12:44:54.247728	215.9	11.1	-76.9	3.9
2026-01-30 12:44:56.497782	216.2	11.3	-76.7	4.3
2026-01-30 12:44:58.745840	216.4	11.4	-76.5	5.4
2026-01-30 12:45:00.994752	216.7	11.6	-76.3	4.2
2026-01-30 12:45:03.241310	217.0	11.7	-76.5	5.6
2026-01-30 12:45:05.490224	217.3	11.9	-76.6	7.2
2026-01-30 12:45:07.738991	217.6	12.1	-76.5	6.5
2026-01-30 12:45:09.984948	217.8	12.2	-76.4	5.0
2026-01-30 12:45:12.232863	218.1	12.4	-76.5	6.9
2026-01-30 12:45:14.480540	218.4	12.5	-76.1	5.5
2026-01-30 12:45:16.729732	218.7	12.7	-76.5	5.9
2026-01-30 12:45:18.975816	219.0	12.9	-76.3	6.2
2026-01-30 12:45:21.225644	219.3	13.0	-76.9	6.5
2026-01-30 12:45:23.474095	219.6	13.2	-76.5	6.4
2026-01-30 12:45:25.722481	219.9	13.4	-76.8	7.0
2026-01-30 12:45:27.968843	220.3	13.5	-76.5	7.6
2026-01-30 12:45:30.215603	220.6	13.7	-76.7	6.9
2026-01-30 12:45:32.463859	220.9	13.9	-76.6	7.6
2026-01-30 12:45:34.712267	221.2	14.0	-76.4	7.4
2026-01-30 12:45:36.960941	221.6	14.2	-76.6	7.1
2026-01-30 12:45:39.211309	221.9	14.3	-76.8	7.4
2026-01-30 12:45:41.461022	222.2	14.5	-76.4	6.2
2026-01-30 12:45:43.707801	222.6	14.7	-76.6	7.4
2026-01-30 12:45:45.951629	222.9	14.8	-76.8	7.3
2026-01-30 12:45:48.201567	223.3	15.0	-77.0	7.5
2026-01-30 12:45:50.452792	223.6	15.2	-77.4	7.4
2026-01-30 12:45:52.702594	224.0	15.4	-77.2	7.5
2026-01-30 12:45:54.949157	224.3	15.5	-77.5	7.6
2026-01-30 12:45:57.196713	224.7	15.7	-77.2	6.8
2026-01-30 12:45:59.447257	225.0	15.9	-77.5	9.2
2026-01-30 12:46:01.691403	225.4	16.0	-76.9	7.4
2026-01-30 12:46:03.938910	225.8	16.2	-77.6	7.9
2026-01-30 12:46:06.187856	226.2	16.4	-77.1	8.6
2026-01-30 12:46:08.437465	226.5	16.5	-77.5	10.1
2026-01-30 12:46:10.686826	226.9	16.7	-77.4	8.8
2026-01-30 12:46:12.933549	227.3	16.9	-77.1	9.2
2026-01-30 12:46:15.180349	227.7	17.0	-77.6	9.9
2026-01-30 12:46:17.429513	228.1	17.2	-77.4	9.7
2026-01-30 12:46:19.679144	228.5	17.4	-77.7	9.7
2026-01-30 12:46:21.927276	228.9	17.5	-77.7	9.2
2026-01-30 12:46:24.177047	229.3	17.7	-77.5	9.7
2026-01-30 12:46:26.424886	229.8	17.9	-77.8	11.3
2026-01-30 12:46:28.674667	230.2	18.0	-77.6	11.0
2026-01-30 12:46:30.925062	230.6	18.2	-77.6	8.2
2026-01-30 12:46:33.170192	231.0	18.4	-77.7	11.0
2026-01-30 12:46:35.419628	231.5	18.5	-77.3	10.0
2026-01-30 12:46:37.664941	231.9	18.7	-77.2	9.9
2026-01-30 12:46:39.914158	232.4	18.8	-77.5	10.9
2026-01-30 12:46:42.160768	232.8	19.0	-77.4	10.3
2026-01-30 12:46:44.411524	233.3	19.2	-78.0	10.4
2026-01-30 12:46:46.658897	233.7	19.3	-77.1	10.8
2026-01-30 12:46:48.905608	234.2	19.5	-77.4	11.0
2026-01-30 12:46:51.153475	234.6	19.7	-77.4	10.5
2026-01-30 12:46:53.402376	235.1	19.8	-77.4	10.9
2026-01-30 12:46:55.649009	235.6	20.0	-77.2	11.5
2026-01-30 12:46:57.895544	236.1	20.1	-77.3	11.0
2026-01-30 12:47:00.143349	236.6	20.3	-77.7	10.8
2026-01-30 12:47:02.393698	237.1	20.4	-77.8	10.7
2026-01-30 12:47:04.640568	237.6	20.6	-76.7	7.7
2026-01-30 12:47:06.890603	238.1	20.7	-77.9	10.9
2026-01-30 12:47:09.137122	238.6	20.9	-77.9	11.1
2026-01-30 12:47:11.383856	239.1	21.1	-77.6	12.0
2026-01-30 12:47:13.632152	239.6	21.2	-77.5	12.2
2026-01-30 12:47:15.878694	240.1	21.3	-77.4	11.3
2026-01-30 12:47:18.126232	240.6	21.5	-77.6	11.1
2026-01-30 12:47:20.371429	241.2	21.6	-77.7	11.9
2026-01-30 12:47:22.622471	241.7	21.8	-77.3	11.1
2026-01-30 12:47:24.869821	242.2	21.9	-77.0	9.5
2026-01-30 12:47:27.116087	242.8	22.1	-77.4	10.9
2026-01-30 12:47:29.365929	243.3	22.2	-77.4	11.0
2026-01-30 12:47:31.614392	243.9	22.3	-76.6	10.4
2026-01-30 12:47:33.859443	244.5	22.5	-76.8	10.5
2026-01-30 12:47:36.108458	245.0	22.6	-76.8	10.1
2026-01-30 12:47:38.359064	245.6	22.7	-77.3	10.7
2026-01-30 12:47:40.607768	246.2	22.8	-77.3	11.3
2026-01-30 12:47:42.854211	246.7	23.0	-77.3	10.8
2026-01-30 12:47:45.101144	247.3	23.1	-76.3	9.5
2026-01-30 12:47:47.348526	247.9	23.2	-76.2	10.0
2026-01-30 12:47:49.598954	248.5	23.3	-76.9	10.5
2026-01-30 12:47:51.845766	249.1	23.4	-76.8	11.6
2026-01-30 12:47:54.093405	249.7	23.6	-76.7	11.7
2026-01-30 12:47:56.341008	250.3	23.7	-76.6	12.2
2026-01-30 12:47:58.590655	250.9	23.8	-76.9	11.1
2026-01-30 12:48:00.837805	251.5	23.9	-77.1	11.3
2026-01-30 12:48:03.088194	252.1	24.0	-77.2	10.7
2026-01-30 12:48:05.336017	252.7	24.1	-77.0	10.7
2026-01-30 12:48:07.584688	253.4	24.2	-77.1	10.8
2026-01-30 12:48:09.838827	254.0	24.3	-76.8	11.5
2026-01-30 12:48:12.084728	254.6	24.3	-76.5	9.8
2026-01-30 12:48:14.333932	255.3	24.4	-77.0	7.6
2026-01-30 12:48:16.582688	255.9	24.5	-76.4	10.0
2026-01-30 12:48:18.832813	256.5	24.6	-76.4	10.8
2026-01-30 12:48:21.080122	257.2	24.7	-76.8	10.3
2026-01-30 12:48:23.326650	257.8	24.7	-76.5	11.7
2026-01-30 12:48:25.575109	258.5	24.8	-76.6	10.5
2026-01-30 12:48:27.820124	259.1	24.9	-76.1	10.7
2026-01-30 12:48:30.068490	259.8	24.9	-75.4	8.0
2026-01-30 12:48:32.313344	260.4	25.0	-76.8	11.3
2026-01-30 12:48:34.560953	261.1	25.0	-76.5	10.5
2026-01-30 12:48:36.808345	261.7	25.1	-76.4	10.8
2026-01-30 12:48:39.055241	262.4	25.1	-76.5	9.8
2026-01-30 12:48:41.305916	263.1	25.2	-75.9	9.7
2026-01-30 12:48:43.552051	263.7	25.2	-76.5	10.2
2026-01-30 12:48:45.799794	264.4	25.2	-76.4	10.1
2026-01-30 12:48:48.049854	265.1	25.2	-75.9	7.2
2026-01-30 12:48:50.299909	265.7	25.3	-76.4	10.7
2026-01-30 12:48:52.546677	266.4	25.3	-76.6	9.6
2026-01-30 12:48:54.794439	267.1	25.3	-76.5	9.1
2026-01-30 12:48:57.043716	267.7	25.3	-75.5	3.8
2026-01-30 12:48:59.290639	268.4	25.3	-74.5	4.2
2026-01-30 12:49:01.536199	269.1	25.3	-75.6	7.3
2026-01-30 12:49:03.785899	269.8	25.3	-75.1	5.6
2026-01-30 12:49:06.033796	270.4	25.3	-74.7	3.0
2026-01-30 12:49:08.280583	271.1	25.3	-74.2	3.5
2026-01-30 12:49:10.530232	271.8	25.3	-74.9	6.4
2026-01-30 12:49:12.776698	272.4	25.3	-75.6	7.6
2026-01-30 12:49:15.026965	273.1	25.3	-75.2	6.8
2026-01-30 12:49:17.276322	273.8	25.2	-74.5	0.3
2026-01-30 12:49:19.519519	274.4	25.2	-74.3	5.3
2026-01-30 12:49:21.764363	275.1	25.2	-75.3	5.7
2026-01-30 12:49:24.016992	275.8	25.1	-75.5	5.8
2026-01-30 12:49:26.263850	276.4	25.1	-72.8	1.1
2026-01-30 12:49:28.510607	277.1	25.1	-74.0	3.4
2026-01-30 12:49:30.757605	277.8	25.0	-74.3	4.2
2026-01-30 12:49:33.003813	278.4	25.0	-73.8	3.3
2026-01-30 12:49:35.254987	279.1	24.9	-74.4	3.4
2026-01-30 12:49:37.503750	279.7	24.8	-73.8	2.9
2026-01-30 12:49:39.750114	280.4	24.8	-73.7	2.7
2026-01-30 12:49:41.998118	281.0	24.7	-73.4	2.4
2026-01-30 12:49:44.244069	281.7	24.6	-73.4	4.6
2026-01-30 12:49:46.490297	282.3	24.6	-73.0	1.8
2026-01-30 12:49:48.738738	282.9	24.5	-72.0	0.0
2026-01-30 12:49:50.988283	283.6	24.4	-72.9	2.9
2026-01-30 12:49:53.234109	284.2	24.3	-72.3	1.6
2026-01-30 12:49:55.482172	284.8	24.2	-73.2	0.0
2026-01-30 12:49:57.728447	285.5	24.2	-73.0	1.0
2026-01-30 12:49:59.976272	286.1	24.1	-73.4	2.1
2026-01-30 12:50:02.224842	286.7	24.0	-73.1	1.3
2026-01-30 12:50:04.470850	287.3	23.9	-74.0	3.5
2026-01-30 12:50:06.715908	287.9	23.8	-74.6	3.3
2026-01-30 12:50:08.961869	288.5	23.7	-73.7	0.0
2026-01-30 12:50:11.208772	289.1	23.5	-72.7	0.0
2026-01-30 12:50:13.455201	289.7	23.4	-73.2	0.0
2026-01-30 12:50:15.704178	290.3	23.3	-73.4	1.1
2026-01-30 12:50:17.952204	290.9	23.2	-74.7	1.3
2026-01-30 12:50:20.201406	291.5	23.1	-74.5	1.2
2026-01-30 12:50:22.450800	292.1	23.0	-71.5	0.0
2026-01-30 12:50:24.699374	292.6	22.8	-72.2	0.0
2026-01-30 12:50:26.946558	293.2	22.7	-74.3	0.0
2026-01-30 12:50:29.194890	293.8	22.6	-71.2	0.0
2026-01-30 12:50:31.439023	294.3	22.5	-74.5	3.2
2026-01-30 12:50:33.688029	294.9	22.3	-74.3	1.4
2026-01-30 12:50:35.934856	295.4	22.2	-74.1	0.0
2026-01-30 12:50:38.181050	296.0	22.1	-73.5	0.0
2026-01-30 12:50:40.427130	296.5	21.9	-72.9	0.0
2026-01-30 12:50:42.676640	297.1	21.8	-73.4	0.0
2026-01-30 12:50:44.924842	297.6	21.6	-73.6	0.0
2026-01-30 12:50:47.172468	298.1	21.5	-73.7	0.0
2026-01-30 12:50:49.420606	298.7	21.3	-73.2	0.0
2026-01-30 12:50:51.666728	299.2	21.2	-73.8	0.0
2026-01-30 12:50:53.915552	299.7	21.0	-71.6	0.0
2026-01-30 12:50:56.161761	300.2	20.9	-72.6	0.0
2026-01-30 12:50:58.408072	300.7	20.8	-71.6	0.0
2026-01-30 12:51:00.657458	301.2	20.6	-68.2	0.0
2026-01-30 12:51:02.906447	301.7	20.4	-71.3	0.0
2026-01-30 12:51:05.154155	302.2	20.3	-72.4	0.0
2026-01-30 12:51:07.403477	302.7	20.1	-71.6	0.0
2026-01-30 12:51:09.649256	303.1	20.0	-72.5	0.0
2026-01-30 12:51:11.900842	303.6	19.8	-73.2	0.0
2026-01-30 12:51:14.147044	304.1	19.7	-73.0	0.0
2026-01-30 12:51:16.391924	304.6	19.5	-70.4	0.0
2026-01-30 12:51:18.639668	305.0	19.3	-71.1	0.0
2026-01-30 12:51:20.889319	305.5	19.2	-72.7	0.0
2026-01-30 12:51:23.137659	305.9	19.0	-73.0	0.0
2026-01-30 12:51:25.383394	306.4	18.9	-71.9	0.0
2026-01-30 12:51:27.628801	306.8	18.7	-73.8	0.0
2026-01-30 12:51:29.875767	307.3	18.5	-71.3	0.0
2026-01-30 12:51:32.123766	307.7	18.4	-70.6	0.0
2026-01-30 12:51:34.368111	308.1	18.2	-71.6	0.0
2026-01-30 12:51:36.616822	308.5	18.0	-72.7	0.0
2026-01-30 12:51:38.866442	309.0	17.9	-72.2	0.0
2026-01-30 12:51:41.116675	309.4	17.7	-72.3	0.0
2026-01-30 12:51:43.364344	309.8	17.6	-71.2	0.0
2026-01-30 12:51:45.610813	310.2	17.4	-70.0	0.0
2026-01-30 12:51:47.857294	310.6	17.2	-71.4	0.0
2026-01-30 12:51:50.103770	311.0	17.1	-74.0	0.0
2026-01-30 12:51:52.349256	311.4	16.9	-74.2	0.0
2026-01-30 12:51:54.598748	311.8	16.7	-68.5	0.0
2026-01-30 12:51:56.845819	312.2	16.6	-71.1	0.0
2026-01-30 12:51:59.090916	312.5	16.4	-70.7	0.0
2026-01-30 12:52:01.335841	312.9	16.2	-69.3	0.0
2026-01-30 12:52:03.588775	313.3	16.1	-67.1	0.0
2026-01-30 12:52:05.837274	313.7	15.9	-71.0	0.0
2026-01-30 12:52:08.085049	314.0	15.7	-72.1	0.0
2026-01-30 12:52:10.333871	314.4	15.6	-72.6	0.0
2026-01-30 12:52:12.580519	314.7	15.4	-72.9	0.0
2026-01-30 12:52:14.827676	315.1	15.2	-73.0	0.0
2026-01-30 12:52:17.075619	315.4	15.1	-70.1	0.0
2026-01-30 12:52:19.321875	315.8	14.9	-70.0	0.0
2026-01-30 12:52:21.568777	316.1	14.7	-69.2	0.0
2026-01-30 12:52:23.816491	316.5	14.6	-71.0	0.0
2026-01-30 12:52:26.062185	316.8	14.4	-71.1	0.0
2026-01-30 12:52:28.308521	317.1	14.2	-67.6	0.0
2026-01-30 12:52:30.552411	317.5	14.1	-71.2	0.0
2026-01-30 12:52:32.801892	317.8	13.9	-71.6	0.0
2026-01-30 12:52:35.051031	318.1	13.7	-69.7	0.0
2026-01-30 12:52:37.299307	318.4	13.6	-69.6	0.0
2026-01-30 12:52:39.544099	318.7	13.4	-70.4	0.0
2026-01-30 12:52:41.793721	319.0	13.3	-67.8	0.0
2026-01-30 12:52:44.040685	319.4	13.1	-70.2	0.0
2026-01-30 12:52:46.288672	319.7	12.9	-67.8	0.0
2026-01-30 12:52:48.536088	320.0	12.8	-69.7	0.0
2026-01-30 12:52:50.783840	320.3	12.6	-70.2	0.0
2026-01-30 12:52:53.032110	320.6	12.4	-69.2	0.0
2026-01-30 12:52:55.280746	320.8	12.3	-69.8	0.0
2026-01-30 12:52:57.530837	321.1	12.1	-69.4	0.0
2026-01-30 12:52:59.780900	321.4	12.0	-68.3	0.0
2026-01-30 12:53:02.023967	321.7	11.8	-69.2	0.0
2026-01-30 12:53:04.270629	322.0	11.6	-70.6	0.0
2026-01-30 12:53:06.518245	322.3	11.5	-70.4	0.0
2026-01-30 12:53:08.766071	322.5	11.3	-71.4	0.0
2026-01-30 12:53:11.012281	322.8	11.2	-71.2	0.0
2026-01-30 12:53:13.260211	323.1	11.0	-72.5	0.0
2026-01-30 12:53:15.506942	323.3	10.9	-72.6	0.0
2026-01-30 12:53:17.756945	323.6	10.7	-75.8	0.0
2026-01-30 12:53:20.003463	323.9	10.5	-74.3	0.0
2026-01-30 12:53:22.250311	324.1	10.4	-79.3	0.0
2026-01-30 12:53:24.497687	324.4	10.2	-80.2	0.0
2026-01-30 12:53:26.744865	324.6	10.1	-80.4	0.0
#Closed at: 2026-01-30 12:44:33.585590