passes_logs/2026/01/30/planumMaritime01/planumMaritime01__20260130_110305_METEOR-M2_4_rec.log

#Pass ID: 20260130_110305_METEOR-M2 4
#Satellite: METEOR-M2 4
#Configuration: METEOR-M2 4
#Start time: 2026-01-30 11:03:10.045556

#LorettStation: 1.0.0 05.05.2024
#Station: planumMaritime01
#Location: 37.49445 lon 55.92918 lat
#TLE: 1 59051U 24039A   26029.53852645  .00000070  00000+0  50902-4 0  9991
#TLE: 2 59051  98.6836 350.7150 0006491 203.4282 156.6601 14.22410639 99559

#Time	Az	El	Level	SNR
2026-01-30 11:03:12.215918	151.0	10.2	-81.1	0.0
2026-01-30 11:03:14.459475	151.0	10.4	-81.8	0.0
2026-01-30 11:03:16.702504	150.9	10.6	-81.1	0.0
2026-01-30 11:03:18.949907	150.9	10.8	-78.4	5.7
2026-01-30 11:03:21.197847	150.8	11.0	-77.2	5.3
2026-01-30 11:03:23.446982	150.8	11.2	-77.7	7.3
2026-01-30 11:03:25.696851	150.7	11.4	-77.2	5.7
2026-01-30 11:03:27.949009	150.7	11.6	-77.3	5.7
2026-01-30 11:03:30.196203	150.6	11.8	-77.7	5.1
2026-01-30 11:03:32.442964	150.6	12.0	-77.7	7.4
2026-01-30 11:03:34.695784	150.5	12.2	-77.9	8.0
2026-01-30 11:03:36.943720	150.5	12.5	-77.1	6.2
2026-01-30 11:03:39.196142	150.4	12.7	-77.4	7.6
2026-01-30 11:03:41.444787	150.4	12.9	-76.8	5.1
2026-01-30 11:03:43.690426	150.3	13.1	-78.0	8.0
2026-01-30 11:03:45.939884	150.3	13.3	-77.8	7.6
2026-01-30 11:03:48.186322	150.2	13.6	-78.0	8.3
2026-01-30 11:03:50.436650	150.2	13.8	-77.3	8.1
2026-01-30 11:03:52.685256	150.1	14.0	-77.5	8.6
2026-01-30 11:03:54.933744	150.0	14.3	-77.6	7.5
2026-01-30 11:03:57.181309	150.0	14.5	-76.9	6.9
2026-01-30 11:03:59.429910	149.9	14.7	-77.5	7.5
2026-01-30 11:04:01.675234	149.9	15.0	-76.9	5.8
2026-01-30 11:04:03.924379	149.8	15.2	-77.3	6.9
2026-01-30 11:04:06.172146	149.7	15.4	-76.6	6.4
2026-01-30 11:04:08.422867	149.7	15.7	-77.8	8.4
2026-01-30 11:04:10.668881	149.6	15.9	-77.2	8.1
2026-01-30 11:04:12.917804	149.5	16.2	-77.4	9.4
2026-01-30 11:04:15.161793	149.5	16.4	-77.1	6.8
2026-01-30 11:04:17.411350	149.4	16.7	-78.2	7.9
2026-01-30 11:04:19.656598	149.3	17.0	-77.3	8.6
2026-01-30 11:04:21.904990	149.2	17.2	-77.6	8.5
2026-01-30 11:04:24.153519	149.2	17.5	-77.3	8.9
2026-01-30 11:04:26.402027	149.1	17.7	-77.5	10.4
2026-01-30 11:04:28.648153	149.0	18.0	-77.1	8.3
2026-01-30 11:04:30.893759	148.9	18.3	-76.9	8.2
2026-01-30 11:04:33.140965	148.9	18.6	-76.5	7.5
2026-01-30 11:04:35.386544	148.8	18.8	-77.1	7.7
2026-01-30 11:04:37.632735	148.7	19.1	-76.9	7.4
2026-01-30 11:04:39.880954	148.6	19.4	-77.0	8.9
2026-01-30 11:04:42.127789	148.5	19.7	-76.7	8.1
2026-01-30 11:04:44.372429	148.4	20.0	-77.3	10.3
2026-01-30 11:04:46.622261	148.3	20.3	-77.2	9.4
2026-01-30 11:04:48.869781	148.2	20.6	-77.0	9.6
2026-01-30 11:04:51.118197	148.2	20.9	-76.9	8.6
2026-01-30 11:04:53.366601	148.1	21.2	-76.8	9.3
2026-01-30 11:04:55.615028	148.0	21.5	-76.9	7.8
2026-01-30 11:04:57.862941	147.9	21.8	-76.2	7.1
2026-01-30 11:05:00.115631	147.8	22.1	-76.6	8.6
2026-01-30 11:05:02.365635	147.6	22.4	-77.0	9.2
2026-01-30 11:05:04.614491	147.5	22.8	-76.8	9.0
2026-01-30 11:05:06.860451	147.4	23.1	-77.1	9.2
2026-01-30 11:05:09.105280	147.3	23.4	-77.1	9.7
2026-01-30 11:05:11.354653	147.2	23.8	-76.7	9.2
2026-01-30 11:05:13.599507	147.1	24.1	-76.6	7.3
2026-01-30 11:05:15.848171	147.0	24.4	-76.8	8.9
2026-01-30 11:05:18.097523	146.8	24.8	-76.5	8.4
2026-01-30 11:05:20.347362	146.7	25.1	-77.1	10.2
2026-01-30 11:05:22.597967	146.6	25.5	-77.5	9.7
2026-01-30 11:05:24.847127	146.5	25.9	-76.7	8.5
2026-01-30 11:05:27.095365	146.3	26.2	-77.0	8.8
2026-01-30 11:05:29.343883	146.2	26.6	-76.1	6.2
2026-01-30 11:05:31.592705	146.0	27.0	-76.8	9.0
2026-01-30 11:05:33.837456	145.9	27.4	-76.4	7.8
2026-01-30 11:05:36.084985	145.7	27.8	-77.1	9.4
2026-01-30 11:05:38.331213	145.6	28.2	-76.4	8.1
2026-01-30 11:05:40.576829	145.4	28.6	-76.8	8.3
2026-01-30 11:05:42.823961	145.3	29.0	-76.4	8.9
2026-01-30 11:05:45.071810	145.1	29.4	-77.3	9.7
2026-01-30 11:05:47.320828	144.9	29.8	-77.3	9.2
2026-01-30 11:05:49.566176	144.8	30.2	-76.4	7.4
2026-01-30 11:05:51.814199	144.6	30.6	-77.1	7.0
2026-01-30 11:05:54.063347	144.4	31.1	-77.1	9.4
2026-01-30 11:05:56.315079	144.2	31.5	-77.4	8.1
2026-01-30 11:05:58.561095	144.0	32.0	-76.5	8.2
2026-01-30 11:06:00.808566	143.8	32.4	-77.2	7.2
2026-01-30 11:06:03.054489	143.6	32.9	-76.8	7.8
2026-01-30 11:06:05.303702	143.4	33.3	-76.4	9.6
2026-01-30 11:06:07.550339	143.2	33.8	-77.5	9.0
2026-01-30 11:06:09.799806	142.9	34.3	-77.3	9.9
2026-01-30 11:06:12.050754	142.7	34.8	-76.9	6.6
2026-01-30 11:06:14.298498	142.5	35.3	-77.1	7.8
2026-01-30 11:06:16.548686	142.2	35.8	-76.3	5.5
2026-01-30 11:06:18.800429	142.0	36.3	-76.5	5.6
2026-01-30 11:06:21.046909	141.7	36.8	-76.7	7.8
2026-01-30 11:06:23.296152	141.4	37.3	-76.5	5.2
2026-01-30 11:06:25.547064	141.1	37.9	-76.8	8.6
2026-01-30 11:06:27.793511	140.9	38.4	-76.7	7.9
2026-01-30 11:06:30.044740	140.5	38.9	-76.8	7.0
2026-01-30 11:06:32.297129	140.2	39.5	-77.1	9.4
2026-01-30 11:06:34.543958	139.9	40.1	-76.9	9.3
2026-01-30 11:06:36.794751	139.6	40.6	-76.4	8.5
2026-01-30 11:06:39.044093	139.2	41.2	-76.8	9.8
2026-01-30 11:06:41.292679	138.9	41.8	-76.7	8.7
2026-01-30 11:06:43.543845	138.5	42.4	-77.0	9.2
2026-01-30 11:06:45.789475	138.1	43.0	-77.0	8.4
2026-01-30 11:06:48.038093	137.7	43.6	-77.2	8.3
2026-01-30 11:06:50.287236	137.3	44.2	-77.1	7.6
2026-01-30 11:06:52.536586	136.8	44.9	-77.9	5.8
2026-01-30 11:06:54.788772	136.4	45.5	-77.2	5.1
2026-01-30 11:06:57.036957	135.9	46.1	-78.1	6.9
2026-01-30 11:06:59.281502	135.4	46.8	-78.2	5.5
2026-01-30 11:07:01.530002	134.9	47.5	-78.3	5.4
2026-01-30 11:07:03.777233	134.4	48.1	-78.2	5.3
2026-01-30 11:07:06.026143	133.8	48.8	-77.7	5.0
2026-01-30 11:07:08.275527	133.2	49.5	-78.0	5.0
2026-01-30 11:07:10.521031	132.6	50.2	-77.6	4.4
2026-01-30 11:07:12.769235	131.9	50.9	-77.1	3.7
2026-01-30 11:07:15.014514	131.3	51.6	-77.9	5.6
2026-01-30 11:07:17.263081	130.6	52.3	-77.6	7.4
2026-01-30 11:07:19.511548	129.8	53.0	-77.5	4.4
2026-01-30 11:07:21.760169	129.0	53.7	-78.1	4.8
2026-01-30 11:07:24.007770	128.2	54.4	-77.3	3.7
2026-01-30 11:07:26.253698	127.3	55.2	-77.8	3.4
2026-01-30 11:07:28.500940	126.4	55.9	-78.5	6.0
2026-01-30 11:07:30.747187	125.5	56.6	-78.0	3.6
2026-01-30 11:07:32.995095	124.5	57.4	-78.1	1.0
2026-01-30 11:07:35.243796	123.4	58.1	-78.2	0.0
2026-01-30 11:07:37.490005	122.3	58.8	-78.2	0.4
2026-01-30 11:07:39.739951	121.1	59.6	-78.3	3.3
2026-01-30 11:07:41.984849	119.8	60.3	-78.3	2.2
2026-01-30 11:07:44.234886	118.4	61.0	-78.5	4.2
2026-01-30 11:07:46.484116	117.0	61.7	-78.5	3.7
2026-01-30 11:07:48.733463	115.5	62.4	-78.7	4.0
2026-01-30 11:07:50.984071	113.9	63.1	-78.0	3.0
2026-01-30 11:07:53.232071	112.2	63.8	-77.5	4.2
2026-01-30 11:07:55.483029	110.4	64.5	-77.0	4.7
2026-01-30 11:07:57.731365	108.5	65.1	-76.6	3.0
2026-01-30 11:07:59.978285	106.5	65.8	-77.5	4.2
2026-01-30 11:08:02.225482	104.4	66.4	-77.3	3.8
2026-01-30 11:08:04.474361	102.2	66.9	-77.5	2.7
2026-01-30 11:08:06.721899	99.8	67.5	-77.0	3.8
2026-01-30 11:08:08.971611	97.3	68.0	-76.1	2.6
2026-01-30 11:08:11.220460	94.7	68.5	-76.6	5.8
2026-01-30 11:08:13.469148	91.9	68.9	-75.5	4.8
2026-01-30 11:08:15.719047	89.1	69.3	-75.0	1.1
2026-01-30 11:08:17.966177	86.1	69.7	-76.4	3.6
2026-01-30 11:08:20.215055	83.0	69.9	-77.2	3.7
2026-01-30 11:08:22.460516	79.8	70.2	-75.9	0.0
2026-01-30 11:08:24.708387	76.6	70.3	-77.1	3.3
2026-01-30 11:08:26.954423	73.3	70.5	-76.0	3.7
2026-01-30 11:08:29.201414	70.0	70.5	-75.7	2.7
2026-01-30 11:08:31.450810	66.7	70.5	-75.5	1.5
2026-01-30 11:08:33.697678	63.4	70.4	-76.0	2.3
2026-01-30 11:08:35.947218	60.1	70.3	-75.5	4.2
2026-01-30 11:08:38.196421	56.9	70.1	-75.7	0.0
2026-01-30 11:08:40.442656	53.7	69.9	-76.7	2.4
2026-01-30 11:08:42.689287	50.7	69.6	-75.7	0.8
2026-01-30 11:08:44.938111	47.7	69.2	-75.4	2.4
2026-01-30 11:08:47.186991	44.9	68.8	-76.4	2.5
2026-01-30 11:08:49.434081	42.2	68.4	-75.9	2.9
2026-01-30 11:08:51.682363	39.6	67.9	-76.4	0.0
2026-01-30 11:08:53.929840	37.1	67.4	-76.7	1.8
2026-01-30 11:08:56.178325	34.8	66.8	-75.7	0.0
2026-01-30 11:08:58.427565	32.5	66.3	-75.9	0.7
2026-01-30 11:09:00.671472	30.4	65.6	-76.1	0.0
2026-01-30 11:09:02.918326	28.5	65.0	-76.6	0.3
2026-01-30 11:09:05.165062	26.6	64.4	-76.9	0.8
2026-01-30 11:09:07.411045	24.8	63.7	-76.3	0.0
2026-01-30 11:09:09.657451	23.2	63.0	-75.6	0.0
2026-01-30 11:09:11.907218	21.6	62.3	-77.0	1.1
2026-01-30 11:09:14.152749	20.1	61.6	-76.6	3.3
2026-01-30 11:09:16.399312	18.7	60.9	-76.8	3.9
2026-01-30 11:09:18.646831	17.4	60.2	-77.4	4.0
2026-01-30 11:09:20.895210	16.1	59.4	-76.1	0.9
2026-01-30 11:09:23.143870	14.9	58.7	-76.2	1.8
2026-01-30 11:09:25.391890	13.8	58.0	-76.7	0.0
2026-01-30 11:09:27.639159	12.8	57.2	-76.4	2.5
2026-01-30 11:09:29.886335	11.8	56.5	-77.4	2.8
2026-01-30 11:09:32.131908	10.8	55.8	-77.2	4.2
2026-01-30 11:09:34.376950	9.9	55.0	-77.4	3.7
2026-01-30 11:09:36.628259	9.1	54.3	-76.5	0.0
2026-01-30 11:09:38.873063	8.2	53.6	-77.4	3.8
2026-01-30 11:09:41.121482	7.5	52.9	-77.9	4.3
2026-01-30 11:09:43.367340	6.7	52.2	-75.3	0.0
2026-01-30 11:09:45.614832	6.0	51.5	-76.1	0.0
2026-01-30 11:09:47.861095	5.4	50.8	-75.4	0.0
2026-01-30 11:09:50.106762	4.7	50.1	-75.7	0.0
2026-01-30 11:09:52.354791	4.1	49.4	-76.3	0.3
2026-01-30 11:09:54.600835	3.5	48.7	-76.8	1.9
2026-01-30 11:09:56.852473	3.0	48.0	-76.5	0.9
2026-01-30 11:09:59.102452	2.4	47.4	-75.5	1.4
2026-01-30 11:10:01.349068	1.9	46.7	-74.7	0.0
2026-01-30 11:10:03.596585	1.4	46.1	-74.0	0.0
2026-01-30 11:10:05.843639	1.0	45.4	-75.3	1.6
2026-01-30 11:10:08.090477	0.5	44.8	-72.9	0.0
2026-01-30 11:10:10.338239	0.1	44.2	-72.0	0.0
2026-01-30 11:10:12.584600	359.7	43.6	-72.6	0.0
2026-01-30 11:10:14.831203	359.3	42.9	-72.8	0.0
2026-01-30 11:10:17.079225	358.9	42.3	-72.1	0.0
2026-01-30 11:10:19.329226	358.5	41.8	-74.0	0.0
2026-01-30 11:10:21.575516	358.1	41.2	-74.1	0.0
2026-01-30 11:10:23.823807	357.8	40.6	-70.7	0.0
2026-01-30 11:10:26.071432	357.5	40.0	-72.5	0.0
2026-01-30 11:10:28.319090	357.1	39.5	-72.2	0.0
2026-01-30 11:10:30.568247	356.8	38.9	-70.9	0.0
2026-01-30 11:10:32.816060	356.5	38.4	-69.1	0.0
2026-01-30 11:10:35.060404	356.2	37.8	-72.1	0.0
2026-01-30 11:10:37.311031	356.0	37.3	-69.9	0.0
2026-01-30 11:10:39.559074	355.7	36.8	-71.7	0.0
2026-01-30 11:10:41.810111	355.4	36.3	-70.8	0.0
2026-01-30 11:10:44.057990	355.2	35.8	-70.3	0.0
2026-01-30 11:10:46.305292	354.9	35.3	-72.4	0.0
2026-01-30 11:10:48.551016	354.7	34.8	-72.3	0.0
2026-01-30 11:10:50.798081	354.5	34.3	-71.2	0.0
2026-01-30 11:10:53.044148	354.2	33.8	-70.5	0.0
2026-01-30 11:10:55.291429	354.0	33.3	-69.1	0.0
2026-01-30 11:10:57.538692	353.8	32.9	-70.4	0.0
2026-01-30 11:10:59.786159	353.6	32.4	-71.3	0.0
2026-01-30 11:11:02.034888	353.4	32.0	-70.8	0.0
2026-01-30 11:11:04.283414	353.2	31.5	-71.3	0.0
2026-01-30 11:11:06.530945	353.0	31.1	-68.8	0.0
2026-01-30 11:11:08.781454	352.8	30.7	-69.0	0.0
2026-01-30 11:11:11.029601	352.7	30.2	-71.6	0.0
2026-01-30 11:11:13.278336	352.5	29.8	-70.6	0.0
2026-01-30 11:11:15.529328	352.3	29.4	-69.3	0.0
2026-01-30 11:11:17.779548	352.2	29.0	-71.1	0.0
2026-01-30 11:11:20.027929	352.0	28.6	-71.1	0.0
2026-01-30 11:11:22.273846	351.9	28.2	-69.7	0.0
2026-01-30 11:11:24.519637	351.7	27.8	-70.6	0.0
2026-01-30 11:11:26.764955	351.6	27.4	-69.6	0.0
2026-01-30 11:11:29.013568	351.4	27.0	-70.8	0.0
2026-01-30 11:11:31.259163	351.3	26.7	-70.9	0.0
2026-01-30 11:11:33.507847	351.1	26.3	-68.7	0.0
2026-01-30 11:11:35.753627	351.0	25.9	-70.3	0.0
2026-01-30 11:11:38.003307	350.9	25.6	-70.4	0.0
2026-01-30 11:11:40.250594	350.7	25.2	-70.0	0.0
2026-01-30 11:11:42.496217	350.6	24.8	-70.4	0.0
2026-01-30 11:11:44.743192	350.5	24.5	-69.9	0.0
2026-01-30 11:11:46.988777	350.4	24.2	-71.1	0.0
2026-01-30 11:11:49.236095	350.3	23.8	-69.6	0.0
2026-01-30 11:11:51.484771	350.1	23.5	-69.1	0.0
2026-01-30 11:11:53.736073	350.0	23.1	-67.2	0.0
2026-01-30 11:11:55.985094	349.9	22.8	-69.0	0.0
2026-01-30 11:11:58.231325	349.8	22.5	-70.3	0.0
2026-01-30 11:12:00.478188	349.7	22.2	-72.0	0.0
2026-01-30 11:12:02.723783	349.6	21.9	-71.9	0.0
2026-01-30 11:12:04.971566	349.5	21.6	-72.2	0.0
2026-01-30 11:12:07.222968	349.4	21.2	-69.2	0.0
2026-01-30 11:12:09.470364	349.3	20.9	-69.1	0.0
2026-01-30 11:12:11.717652	349.2	20.6	-71.6	0.0
2026-01-30 11:12:13.966197	349.1	20.3	-72.4	0.0
2026-01-30 11:12:16.212619	349.1	20.1	-69.6	0.0
2026-01-30 11:12:18.460432	349.0	19.8	-71.6	0.0
2026-01-30 11:12:20.706696	348.9	19.5	-71.4	0.0
2026-01-30 11:12:22.955264	348.8	19.2	-72.4	0.0
2026-01-30 11:12:25.207041	348.7	18.9	-72.4	0.0
2026-01-30 11:12:27.453022	348.6	18.6	-72.4	0.0
2026-01-30 11:12:29.699701	348.6	18.4	-70.8	0.0
2026-01-30 11:12:31.948448	348.5	18.1	-72.8	0.0
2026-01-30 11:12:34.196570	348.4	17.8	-69.0	0.0
2026-01-30 11:12:36.444048	348.3	17.6	-71.1	0.0
2026-01-30 11:12:38.690149	348.3	17.3	-71.5	0.0
2026-01-30 11:12:40.937964	348.2	17.0	-69.5	0.0
2026-01-30 11:12:43.182636	348.1	16.8	-70.6	0.0
2026-01-30 11:12:45.433128	348.1	16.5	-71.2	0.0
2026-01-30 11:12:47.681527	348.0	16.3	-73.1	0.0
2026-01-30 11:12:49.930835	347.9	16.0	-72.8	0.0
2026-01-30 11:12:52.179829	347.9	15.8	-73.2	0.0
2026-01-30 11:12:54.427215	347.8	15.5	-71.4	0.0
2026-01-30 11:12:56.672982	347.7	15.3	-71.5	0.0
2026-01-30 11:12:58.918288	347.7	15.1	-71.9	0.0
2026-01-30 11:13:01.164966	347.6	14.8	-73.8	0.0
2026-01-30 11:13:03.413320	347.6	14.6	-73.0	0.0
2026-01-30 11:13:05.660491	347.5	14.3	-71.9	0.0
2026-01-30 11:13:07.908307	347.4	14.1	-70.0	0.0
2026-01-30 11:13:10.154871	347.4	13.9	-72.4	0.0
2026-01-30 11:13:12.401043	347.3	13.7	-72.5	0.0
2026-01-30 11:13:14.647885	347.3	13.4	-68.6	0.0
2026-01-30 11:13:16.901262	347.2	13.2	-70.9	0.0
2026-01-30 11:13:19.147085	347.2	13.0	-71.6	0.0
2026-01-30 11:13:21.393460	347.1	12.8	-69.0	0.0
2026-01-30 11:13:23.640079	347.1	12.6	-72.3	0.0
2026-01-30 11:13:25.886284	347.0	12.3	-72.5	0.0
2026-01-30 11:13:28.134606	347.0	12.1	-72.0	0.0
2026-01-30 11:13:30.384082	346.9	11.9	-71.3	0.0
2026-01-30 11:13:32.630522	346.9	11.7	-72.6	0.0
2026-01-30 11:13:34.877736	346.8	11.5	-71.4	0.0
2026-01-30 11:13:37.126533	346.8	11.3	-72.0	0.0
2026-01-30 11:13:39.373700	346.7	11.1	-74.3	0.0
2026-01-30 11:13:41.618604	346.7	10.9	-71.3	0.0
2026-01-30 11:13:43.864364	346.7	10.7	-69.9	0.0
2026-01-30 11:13:46.108996	346.6	10.5	-67.5	0.0
2026-01-30 11:13:48.358132	346.6	10.3	-70.2	0.0
2026-01-30 11:13:50.604639	346.5	10.1	-73.9	0.0
#Closed at: 2026-01-30 11:03:05.050888