passes_logs/2026/01/30/planumMaritime01/planumMaritime01__20260130_011336_METEOR-M2_4_rec.log

#Pass ID: 20260130_011336_METEOR-M2 4
#Satellite: METEOR-M2 4
#Configuration: METEOR-M2 4
#Start time: 2026-01-30 01:13:41.338417

#LorettStation: 1.0.0 05.05.2024
#Station: planumMaritime01
#Location: 37.49445 lon 55.92918 lat
#TLE: 1 59051U 24039A   26029.53852645  .00000070  00000+0  50902-4 0  9991
#TLE: 2 59051  98.6836 350.7150 0006491 203.4282 156.6601 14.22410639 99559

#Time	Az	El	Level	SNR
2026-01-30 01:13:43.513068	14.8	10.2	-77.7	0.0
2026-01-30 01:13:45.759837	14.8	10.4	-77.5	0.0
2026-01-30 01:13:48.010910	14.8	10.6	-78.6	0.0
2026-01-30 01:13:50.256940	14.8	10.8	-72.0	0.0
2026-01-30 01:13:52.509466	14.8	11.0	-74.9	0.0
2026-01-30 01:13:54.757384	14.7	11.2	-73.8	0.0
2026-01-30 01:13:57.005436	14.7	11.4	-74.5	0.0
2026-01-30 01:13:59.255674	14.7	11.6	-74.4	0.0
2026-01-30 01:14:01.503242	14.7	11.8	-71.2	0.0
2026-01-30 01:14:03.749212	14.7	12.0	-74.2	0.0
2026-01-30 01:14:05.994426	14.6	12.2	-73.0	0.0
2026-01-30 01:14:08.242438	14.6	12.5	-74.8	0.0
2026-01-30 01:14:10.489020	14.6	12.7	-73.1	0.0
2026-01-30 01:14:12.735616	14.6	12.9	-70.2	0.0
2026-01-30 01:14:14.983336	14.5	13.1	-74.3	0.0
2026-01-30 01:14:17.231939	14.5	13.3	-74.0	0.0
2026-01-30 01:14:19.480968	14.5	13.6	-74.4	0.0
2026-01-30 01:14:21.726846	14.5	13.8	-73.6	0.0
2026-01-30 01:14:23.974888	14.4	14.0	-72.0	0.0
2026-01-30 01:14:26.224753	14.4	14.2	-72.5	0.0
2026-01-30 01:14:28.473825	14.4	14.5	-73.2	0.0
2026-01-30 01:14:30.721711	14.4	14.7	-72.1	0.0
2026-01-30 01:14:32.967843	14.3	14.9	-74.8	0.0
2026-01-30 01:14:35.218431	14.3	15.2	-72.8	0.0
2026-01-30 01:14:37.464189	14.3	15.4	-74.1	0.0
2026-01-30 01:14:39.710812	14.2	15.7	-73.7	0.0
2026-01-30 01:14:41.958733	14.2	15.9	-73.0	0.0
2026-01-30 01:14:44.204466	14.2	16.2	-73.8	0.0
2026-01-30 01:14:46.450759	14.1	16.4	-74.4	0.0
2026-01-30 01:14:48.698174	14.1	16.7	-72.9	0.0
2026-01-30 01:14:50.948196	14.1	16.9	-72.9	0.0
2026-01-30 01:14:53.196347	14.0	17.2	-73.2	0.0
2026-01-30 01:14:55.442932	14.0	17.5	-72.9	0.0
2026-01-30 01:14:57.692780	14.0	17.7	-70.4	0.0
2026-01-30 01:14:59.942623	13.9	18.0	-72.8	0.0
2026-01-30 01:15:02.189632	13.9	18.3	-72.6	0.0
2026-01-30 01:15:04.434701	13.9	18.5	-73.8	0.7
2026-01-30 01:15:06.684603	13.8	18.8	-72.7	0.0
2026-01-30 01:15:08.931903	13.8	19.1	-73.9	1.3
2026-01-30 01:15:11.183279	13.7	19.4	-71.1	0.0
2026-01-30 01:15:13.432709	13.7	19.7	-73.5	0.0
2026-01-30 01:15:15.681855	13.6	20.0	-70.9	0.0
2026-01-30 01:15:17.931021	13.6	20.3	-73.3	2.3
2026-01-30 01:15:20.179317	13.6	20.6	-70.4	0.0
2026-01-30 01:15:22.428414	13.5	20.9	-71.9	1.1
2026-01-30 01:15:24.676068	13.5	21.2	-73.6	0.0
2026-01-30 01:15:26.922526	13.4	21.5	-73.4	1.1
2026-01-30 01:15:29.170135	13.4	21.8	-72.5	0.4
2026-01-30 01:15:31.415547	13.3	22.1	-73.0	0.0
2026-01-30 01:15:33.663333	13.3	22.4	-70.5	0.0
2026-01-30 01:15:35.909801	13.2	22.8	-73.9	0.1
2026-01-30 01:15:38.157008	13.1	23.1	-74.1	2.7
2026-01-30 01:15:40.409883	13.1	23.4	-74.0	1.5
2026-01-30 01:15:42.654376	13.0	23.8	-73.7	0.0
2026-01-30 01:15:44.901579	13.0	24.1	-74.0	0.0
2026-01-30 01:15:47.150054	12.9	24.4	-73.8	0.0
2026-01-30 01:15:49.400187	12.8	24.8	-71.3	0.0
2026-01-30 01:15:51.644728	12.8	25.2	-72.9	0.0
2026-01-30 01:15:53.895612	12.7	25.5	-75.1	3.4
2026-01-30 01:15:56.142866	12.7	25.9	-74.3	0.1
2026-01-30 01:15:58.392943	12.6	26.3	-75.0	2.5
2026-01-30 01:16:00.643476	12.5	26.6	-73.6	1.1
2026-01-30 01:16:02.893486	12.4	27.0	-75.1	5.0
2026-01-30 01:16:05.141894	12.4	27.4	-71.9	0.0
2026-01-30 01:16:07.388859	12.3	27.8	-75.9	4.7
2026-01-30 01:16:09.639508	12.2	28.2	-73.7	1.4
2026-01-30 01:16:11.888703	12.1	28.6	-76.0	5.4
2026-01-30 01:16:14.136704	12.0	29.0	-72.0	0.0
2026-01-30 01:16:16.384447	12.0	29.4	-74.9	2.9
2026-01-30 01:16:18.634155	11.9	29.9	-74.5	2.8
2026-01-30 01:16:20.882945	11.8	30.3	-75.3	2.7
2026-01-30 01:16:23.132367	11.7	30.7	-75.1	1.6
2026-01-30 01:16:25.377505	11.6	31.2	-75.0	6.2
2026-01-30 01:16:27.623884	11.5	31.6	-75.6	6.9
2026-01-30 01:16:29.874193	11.4	32.1	-76.1	7.3
2026-01-30 01:16:32.123612	11.3	32.5	-75.5	6.5
2026-01-30 01:16:34.369386	11.2	33.0	-75.2	6.8
2026-01-30 01:16:36.617624	11.0	33.5	-76.1	8.9
2026-01-30 01:16:38.866298	10.9	34.0	-75.9	9.2
2026-01-30 01:16:41.113018	10.8	34.5	-76.0	7.6
2026-01-30 01:16:43.359962	10.7	35.0	-76.3	8.5
2026-01-30 01:16:45.609398	10.6	35.5	-75.8	7.3
2026-01-30 01:16:47.858137	10.4	36.0	-76.1	8.2
2026-01-30 01:16:50.105957	10.3	36.5	-76.1	9.5
2026-01-30 01:16:52.353164	10.1	37.0	-76.5	9.0
2026-01-30 01:16:54.600397	10.0	37.6	-76.1	8.3
2026-01-30 01:16:56.849714	9.8	38.1	-76.4	10.1
2026-01-30 01:16:59.098586	9.7	38.7	-76.4	8.2
2026-01-30 01:17:01.348024	9.5	39.3	-75.2	9.5
2026-01-30 01:17:03.596580	9.3	39.8	-75.3	8.1
2026-01-30 01:17:05.845123	9.2	40.4	-76.1	8.0
2026-01-30 01:17:08.092949	9.0	41.0	-76.9	7.8
2026-01-30 01:17:10.343324	8.8	41.6	-77.5	11.3
2026-01-30 01:17:12.592983	8.6	42.3	-77.2	9.6
2026-01-30 01:17:14.841396	8.4	42.9	-77.7	10.4
2026-01-30 01:17:17.092463	8.2	43.5	-77.9	11.5
2026-01-30 01:17:19.341107	7.9	44.2	-78.3	11.3
2026-01-30 01:17:21.588871	7.7	44.8	-77.9	10.2
2026-01-30 01:17:23.841822	7.5	45.5	-78.3	11.2
2026-01-30 01:17:26.092599	7.2	46.2	-77.8	11.1
2026-01-30 01:17:28.338395	6.9	46.9	-78.8	11.7
2026-01-30 01:17:30.585965	6.6	47.6	-78.6	9.1
2026-01-30 01:17:32.833192	6.3	48.3	-79.1	11.7
2026-01-30 01:17:35.080044	6.0	49.0	-79.2	10.8
2026-01-30 01:17:37.331178	5.7	49.8	-79.5	11.0
2026-01-30 01:17:39.580170	5.4	50.5	-79.5	10.7
2026-01-30 01:17:41.826422	5.0	51.3	-79.5	10.6
2026-01-30 01:17:44.074794	4.6	52.0	-79.9	11.4
2026-01-30 01:17:46.322055	4.2	52.8	-79.4	10.7
2026-01-30 01:17:48.571395	3.8	53.6	-78.9	8.7
2026-01-30 01:17:50.823298	3.4	54.4	-79.1	8.4
2026-01-30 01:17:53.071754	2.9	55.2	-79.7	10.8
2026-01-30 01:17:55.318512	2.4	56.0	-80.2	11.6
2026-01-30 01:17:57.568866	1.9	56.9	-79.7	10.4
2026-01-30 01:17:59.816254	1.3	57.7	-79.7	9.9
2026-01-30 01:18:02.064277	0.7	58.6	-80.1	10.6
2026-01-30 01:18:04.312259	0.0	59.4	-80.1	9.9
2026-01-30 01:18:06.558908	359.3	60.3	-78.9	5.8
2026-01-30 01:18:08.805591	358.6	61.2	-80.1	9.1
2026-01-30 01:18:11.056763	357.8	62.1	-80.3	9.2
2026-01-30 01:18:13.308001	356.9	63.0	-80.0	10.3
2026-01-30 01:18:15.558272	356.0	63.9	-80.0	9.5
2026-01-30 01:18:17.804323	355.0	64.8	-79.9	9.4
2026-01-30 01:18:20.053779	353.9	65.7	-79.3	8.4
2026-01-30 01:18:22.302115	352.8	66.6	-79.3	10.6
2026-01-30 01:18:24.546643	351.5	67.5	-79.5	10.7
2026-01-30 01:18:26.798187	350.1	68.4	-79.9	11.3
2026-01-30 01:18:29.049145	348.5	69.3	-79.7	10.6
2026-01-30 01:18:31.296755	346.9	70.2	-79.9	8.6
2026-01-30 01:18:33.544660	345.0	71.1	-80.5	8.3
2026-01-30 01:18:35.792470	342.9	72.0	-79.9	10.9
2026-01-30 01:18:38.039406	340.7	72.8	-78.6	10.8
2026-01-30 01:18:40.289588	338.1	73.7	-79.3	12.9
2026-01-30 01:18:42.538210	335.3	74.5	-79.1	11.3
2026-01-30 01:18:44.790152	332.2	75.2	-79.2	12.1
2026-01-30 01:18:47.039625	328.7	76.0	-79.3	12.5
2026-01-30 01:18:49.284983	324.9	76.7	-79.7	12.7
2026-01-30 01:18:51.534947	320.6	77.3	-79.7	12.2
2026-01-30 01:18:53.787324	315.9	77.8	-80.2	12.2
2026-01-30 01:18:56.034460	310.8	78.3	-80.0	12.4
2026-01-30 01:18:58.286201	305.3	78.6	-79.6	12.6
2026-01-30 01:19:00.534785	299.6	78.9	-79.3	12.4
2026-01-30 01:19:02.782778	293.6	79.0	-79.2	12.7
2026-01-30 01:19:05.032381	287.5	79.0	-79.6	13.2
2026-01-30 01:19:07.281657	281.5	78.9	-79.7	12.8
2026-01-30 01:19:09.534216	275.6	78.7	-80.0	12.6
2026-01-30 01:19:11.783924	270.0	78.4	-80.1	12.2
2026-01-30 01:19:14.029041	264.8	77.9	-79.9	13.6
2026-01-30 01:19:16.277018	260.0	77.4	-80.2	13.1
2026-01-30 01:19:18.523420	255.7	76.8	-80.3	12.6
2026-01-30 01:19:20.774267	251.7	76.2	-80.0	13.1
2026-01-30 01:19:23.019958	248.1	75.5	-80.6	12.9
2026-01-30 01:19:25.268922	244.9	74.7	-80.6	12.2
2026-01-30 01:19:27.520855	242.0	73.9	-80.5	12.9
2026-01-30 01:19:29.768592	239.4	73.1	-80.5	12.1
2026-01-30 01:19:32.015942	237.0	72.2	-80.9	10.9
2026-01-30 01:19:34.260586	234.9	71.3	-80.5	12.1
2026-01-30 01:19:36.510600	233.0	70.4	-80.4	13.4
2026-01-30 01:19:38.755638	231.3	69.6	-80.2	13.2
2026-01-30 01:19:41.004643	229.7	68.6	-80.3	12.7
2026-01-30 01:19:43.253485	228.2	67.7	-80.2	12.8
2026-01-30 01:19:45.503009	226.9	66.8	-80.7	12.6
2026-01-30 01:19:47.751191	225.7	65.9	-81.3	12.3
2026-01-30 01:19:49.998576	224.6	65.0	-81.2	10.3
2026-01-30 01:19:52.245921	223.6	64.1	-81.1	11.8
2026-01-30 01:19:54.494967	222.6	63.2	-81.2	11.1
2026-01-30 01:19:56.741282	221.8	62.3	-80.8	10.4
2026-01-30 01:19:58.988305	221.0	61.4	-81.0	12.6
2026-01-30 01:20:01.236236	220.2	60.5	-81.0	11.5
2026-01-30 01:20:03.483388	219.5	59.6	-81.0	11.6
2026-01-30 01:20:05.729094	218.8	58.8	-81.5	12.0
2026-01-30 01:20:07.977276	218.2	57.9	-81.7	10.4
2026-01-30 01:20:10.225206	217.6	57.1	-81.6	10.8
2026-01-30 01:20:12.473355	217.1	56.2	-81.9	11.6
2026-01-30 01:20:14.721037	216.6	55.4	-82.0	11.1
2026-01-30 01:20:16.968935	216.1	54.6	-81.4	11.3
2026-01-30 01:20:19.219241	215.6	53.8	-81.5	12.0
2026-01-30 01:20:21.466428	215.2	53.0	-81.4	12.3
2026-01-30 01:20:23.716598	214.8	52.2	-81.4	12.0
2026-01-30 01:20:25.965729	214.4	51.4	-81.5	11.3
2026-01-30 01:20:28.215793	214.1	50.6	-81.4	11.2
2026-01-30 01:20:30.466639	213.7	49.9	-81.2	12.1
2026-01-30 01:20:32.717728	213.4	49.1	-81.4	12.5
2026-01-30 01:20:34.967419	213.1	48.4	-81.0	12.4
2026-01-30 01:20:37.215131	212.8	47.7	-80.9	13.1
2026-01-30 01:20:39.462031	212.5	47.0	-80.8	13.1
2026-01-30 01:20:41.712490	212.2	46.3	-80.9	13.5
2026-01-30 01:20:43.963219	211.9	45.6	-80.6	13.8
2026-01-30 01:20:46.212431	211.7	44.9	-80.6	13.1
2026-01-30 01:20:48.462917	211.4	44.2	-80.3	13.2
2026-01-30 01:20:50.712271	211.2	43.6	-80.2	13.4
2026-01-30 01:20:52.961621	211.0	42.9	-80.2	13.1
2026-01-30 01:20:55.210532	210.8	42.3	-80.4	13.1
2026-01-30 01:20:57.458289	210.6	41.7	-79.9	14.1
2026-01-30 01:20:59.711315	210.4	41.1	-79.5	13.3
2026-01-30 01:21:01.962147	210.2	40.5	-79.7	13.0
2026-01-30 01:21:04.213755	210.0	39.9	-79.2	12.9
2026-01-30 01:21:06.462636	209.8	39.3	-79.5	12.2
2026-01-30 01:21:08.712468	209.7	38.7	-79.3	13.3
2026-01-30 01:21:10.962912	209.5	38.1	-79.8	12.2
2026-01-30 01:21:13.210512	209.4	37.6	-79.5	12.2
2026-01-30 01:21:15.459906	209.2	37.0	-79.2	11.0
2026-01-30 01:21:17.708121	209.1	36.5	-78.7	12.4
2026-01-30 01:21:19.954789	208.9	36.0	-78.7	9.6
2026-01-30 01:21:22.201406	208.8	35.4	-78.6	8.4
2026-01-30 01:21:24.447001	208.7	34.9	-78.1	8.9
2026-01-30 01:21:26.697550	208.5	34.4	-78.8	6.7
2026-01-30 01:21:28.944708	208.4	33.9	-79.0	9.6
2026-01-30 01:21:31.195043	208.3	33.4	-78.4	9.6
2026-01-30 01:21:33.443786	208.2	33.0	-78.1	12.0
2026-01-30 01:21:35.689370	208.1	32.5	-78.0	7.2
2026-01-30 01:21:37.941056	207.9	32.0	-77.9	7.8
2026-01-30 01:21:40.187272	207.8	31.5	-77.7	6.6
2026-01-30 01:21:42.434212	207.7	31.1	-77.8	5.0
2026-01-30 01:21:44.683362	207.6	30.6	-77.5	6.3
2026-01-30 01:21:46.928866	207.5	30.2	-78.5	5.9
2026-01-30 01:21:49.175429	207.5	29.8	-77.9	5.7
2026-01-30 01:21:51.425903	207.4	29.3	-78.2	10.3
2026-01-30 01:21:53.671930	207.3	28.9	-78.0	5.6
2026-01-30 01:21:55.920115	207.2	28.5	-78.7	7.1
2026-01-30 01:21:58.170639	207.1	28.1	-77.9	7.1
2026-01-30 01:22:00.419304	207.0	27.7	-77.1	3.3
2026-01-30 01:22:02.663558	206.9	27.3	-78.1	3.6
2026-01-30 01:22:04.911438	206.9	26.9	-77.5	7.0
2026-01-30 01:22:07.158916	206.8	26.5	-77.4	6.1
2026-01-30 01:22:09.404585	206.7	26.2	-77.3	2.9
2026-01-30 01:22:11.650894	206.6	25.8	-77.0	3.2
2026-01-30 01:22:13.898794	206.6	25.4	-77.3	7.7
2026-01-30 01:22:16.143036	206.5	25.0	-76.4	9.3
2026-01-30 01:22:18.393497	206.4	24.7	-76.9	3.1
2026-01-30 01:22:20.643055	206.4	24.3	-77.1	4.6
2026-01-30 01:22:22.890367	206.3	24.0	-77.0	5.9
2026-01-30 01:22:25.136371	206.3	23.6	-77.2	7.7
2026-01-30 01:22:27.383381	206.2	23.3	-76.5	3.5
2026-01-30 01:22:29.631436	206.1	23.0	-77.3	10.3
2026-01-30 01:22:31.880418	206.1	22.6	-77.4	6.8
2026-01-30 01:22:34.127540	206.0	22.3	-77.4	5.7
2026-01-30 01:22:36.374803	206.0	22.0	-78.3	3.7
2026-01-30 01:22:38.622964	205.9	21.7	-77.0	0.0
2026-01-30 01:22:40.871144	205.9	21.3	-77.4	1.3
2026-01-30 01:22:43.114730	205.8	21.0	-77.5	2.8
2026-01-30 01:22:45.361346	205.8	20.7	-78.0	9.6
2026-01-30 01:22:47.611092	205.7	20.4	-77.1	0.7
2026-01-30 01:22:49.856522	205.7	20.1	-76.8	2.4
2026-01-30 01:22:52.102400	205.6	19.8	-77.9	4.7
2026-01-30 01:22:54.350404	205.6	19.5	-76.8	4.0
2026-01-30 01:22:56.596358	205.5	19.2	-77.1	4.1
2026-01-30 01:22:58.846573	205.5	18.9	-77.0	3.9
2026-01-30 01:23:01.094756	205.4	18.7	-77.2	5.7
2026-01-30 01:23:03.338413	205.4	18.4	-77.6	3.8
2026-01-30 01:23:05.586998	205.4	18.1	-77.5	1.6
2026-01-30 01:23:07.832617	205.3	17.8	-76.9	1.9
2026-01-30 01:23:10.080879	205.3	17.6	-77.4	3.6
2026-01-30 01:23:12.330648	205.2	17.3	-77.4	0.7
2026-01-30 01:23:14.578026	205.2	17.0	-77.3	0.5
2026-01-30 01:23:16.824828	205.2	16.8	-77.3	2.9
2026-01-30 01:23:19.071866	205.1	16.5	-76.9	3.7
2026-01-30 01:23:21.320941	205.1	16.2	-78.3	3.0
2026-01-30 01:23:23.567768	205.1	16.0	-77.2	2.4
2026-01-30 01:23:25.818649	205.0	15.7	-77.4	2.2
2026-01-30 01:23:28.065519	205.0	15.5	-77.3	0.9
2026-01-30 01:23:30.312980	205.0	15.2	-78.4	1.5
2026-01-30 01:23:32.563711	204.9	15.0	-77.9	2.3
2026-01-30 01:23:34.811646	204.9	14.8	-77.5	1.9
2026-01-30 01:23:37.057650	204.9	14.5	-77.9	3.8
2026-01-30 01:23:39.307777	204.8	14.3	-77.6	0.1
2026-01-30 01:23:41.553711	204.8	14.0	-77.6	0.4
2026-01-30 01:23:43.800068	204.8	13.8	-77.8	3.2
2026-01-30 01:23:46.047823	204.7	13.6	-78.0	2.6
2026-01-30 01:23:48.296243	204.7	13.4	-76.9	1.6
2026-01-30 01:23:50.542382	204.7	13.1	-78.0	0.0
2026-01-30 01:23:52.790168	204.7	12.9	-77.9	0.0
2026-01-30 01:23:55.040016	204.6	12.7	-78.7	8.5
2026-01-30 01:23:57.287343	204.6	12.5	-77.3	0.0
2026-01-30 01:23:59.535164	204.6	12.3	-77.9	0.7
2026-01-30 01:24:01.783766	204.6	12.0	-78.1	2.1
2026-01-30 01:24:04.028803	204.5	11.8	-78.9	5.7
2026-01-30 01:24:06.276849	204.5	11.6	-79.2	0.0
2026-01-30 01:24:08.526794	204.5	11.4	-77.9	0.5
2026-01-30 01:24:10.776303	204.5	11.2	-78.1	4.6
2026-01-30 01:24:13.025417	204.4	11.0	-77.9	4.2
2026-01-30 01:24:15.274056	204.4	10.8	-80.1	1.3
2026-01-30 01:24:17.523525	204.4	10.6	-82.7	1.4
2026-01-30 01:24:19.771161	204.4	10.4	-85.3	0.0
2026-01-30 01:24:22.018106	204.4	10.2	-85.4	1.2
#Closed at: 2026-01-30 01:13:36.343319