passes_logs/2026/01/04/R4.6S_Anadyr_2ch/R4.6S_Anadyr_2ch__20260104_020532_FENGYUN_3D_rec.log

#Pass ID: 20260104_020532_FENGYUN 3D
#Satellite: FENGYUN 3D
#Configuration: FENGYUN 3D
#almurnet v.1.7.20251203
#Start time: 2026-01-04 02:05:34

#Version: 2.2.20231116
#Station: R4.6S_Anadyr_2ch
#Location: 177.4865 lon 64.73178 lat
#TLE: 1 43010U 17072A   25350.96693137  .00000321  00000+0  17364-3 0  9993
#TLE: 2 43010  98.9888 317.3403 0001146 169.6565 190.4634 14.19686173419132

#Time	Az	El	Level	Level2	SNR	BER	BlckErr	Temp	State	Recorded	gain1	gain2
2026-01-04 02:05:34.22	152.52	0.12	-52.8	-70.7	3.5	3.02e+01	0	34	0	0	60	178659
2026-01-04 02:05:38.26	152.52	0.37	-54.6	-67.0	3.6	8.44e-01	0	35	104	0	60	109569
2026-01-04 02:05:42.31	152.52	0.61	-54.2	-66.6	3.6	8.44e-01	0	35	104	0	60	104072
2026-01-04 02:05:46.35	152.52	0.86	-52.8	-65.3	3.6	8.46e-01	0	36	104	0	60	89628
2026-01-04 02:05:50.39	152.52	1.11	-51.5	-63.8	3.6	8.46e-01	0	36	104	0	60	75929
2026-01-04 02:05:54.44	152.52	1.37	-52.0	-64.3	3.6	8.43e-01	0	36	104	0	60	80361
2026-01-04 02:05:58.48	152.52	1.62	-51.7	-64.0	3.6	8.45e-01	0	36	104	0	60	77275
2026-01-04 02:06:02.52	152.51	1.88	-51.2	-63.2	3.6	8.44e-01	0	36	104	0	60	70218
2026-01-04 02:06:06.56	152.51	2.14	-51.8	-64.0	3.6	8.45e-01	0	36	104	0	60	77056
2026-01-04 02:06:10.61	152.51	2.40	-51.3	-63.5	3.6	8.44e-01	0	36	104	0	60	72733
2026-01-04 02:06:14.65	152.51	2.67	-51.2	-63.4	3.5	8.45e-01	0	36	104	0	60	72205
2026-01-04 02:06:18.69	152.50	2.93	-51.3	-62.9	3.6	8.46e-01	0	36	104	0	60	67957
2026-01-04 02:06:22.74	152.50	3.20	-51.3	-63.6	3.6	8.45e-01	0	36	104	0	60	73756
2026-01-04 02:06:26.78	152.50	3.48	-49.5	-53.7	8.0	4.02e-02	0	36	0	9437184	60	23520
2026-01-04 02:06:30.82	152.49	3.75	-45.4	-47.0	15.7	0.00e+00	0	36	0	32505856	60	10954
2026-01-04 02:06:34.87	152.49	4.03	-44.6	-46.1	16.0	0.00e+00	0	36	0	55574528	60	9866
2026-01-04 02:06:38.91	152.49	4.31	-43.9	-45.2	6.1	8.18e-01	0	36	104	59768832	60	8916
2026-01-04 02:06:42.96	152.48	4.60	-42.3	-43.4	19.3	0.00e+00	0	36	0	71303168	60	7185
2026-01-04 02:06:47.00	152.48	4.88	-41.1	-42.1	20.5	0.00e+00	0	36	0	94371840	60	6181
2026-01-04 02:06:51.05	152.47	5.17	-41.3	-42.2	20.7	0.00e+00	0	36	0	116391936	60	6283
2026-01-04 02:06:55.09	152.46	5.47	-41.0	-41.9	20.9	0.00e+00	0	36	0	139460608	60	6060
2026-01-04 02:06:59.14	152.46	5.76	-40.8	-41.7	21.1	0.00e+00	0	36	0	162529280	60	5954
2026-01-04 02:07:03.18	152.45	6.06	-40.6	-41.5	21.4	0.00e+00	0	36	0	184549376	60	5781
2026-01-04 02:07:07.22	152.45	6.37	-40.4	-41.3	21.6	0.00e+00	0	36	0	207618048	60	5652
2026-01-04 02:07:11.26	152.44	6.67	-40.6	-41.4	21.6	0.00e+00	0	36	0	230686720	60	5756
2026-01-04 02:07:15.31	152.43	6.99	-40.2	-41.1	22.0	0.00e+00	0	36	0	252706816	60	5504
2026-01-04 02:07:19.35	152.42	7.30	-40.2	-41.0	21.9	0.00e+00	0	36	0	275775488	58	6167
2026-01-04 02:07:23.40	152.41	7.62	-39.9	-40.8	22.2	0.00e+00	0	36	0	298844160	58	5967
2026-01-04 02:07:27.44	152.40	7.94	-39.6	-40.4	22.6	0.00e+00	0	36	0	321912832	58	5749
2026-01-04 02:07:31.49	152.39	8.27	-39.3	-40.1	23.0	0.00e+00	0	36	0	343932928	58	5559
2026-01-04 02:07:35.53	152.38	8.60	-39.2	-39.9	23.2	0.00e+00	0	36	0	367001600	56	6081
2026-01-04 02:07:39.58	152.37	8.94	-39.0	-39.8	23.3	0.00e+00	0	36	0	390070272	56	5988
2026-01-04 02:07:43.62	152.36	9.28	-39.2	-40.0	22.9	0.00e+00	0	36	0	412090368	56	6113
2026-01-04 02:07:47.66	152.35	9.62	-39.2	-39.9	23.5	0.00e+00	0	36	0	435159040	56	6100
2026-01-04 02:07:51.71	152.34	9.97	-38.9	-39.6	23.6	0.00e+00	0	36	0	458227712	56	5895
2026-01-04 02:07:55.75	152.33	10.33	-38.9	-39.7	23.5	0.00e+00	0	36	0	480247808	56	5914
2026-01-04 02:07:59.80	152.31	10.69	-38.8	-39.6	23.8	0.00e+00	0	36	0	503316480	56	5852
2026-01-04 02:08:03.84	152.30	11.05	-38.8	-39.5	23.9	0.00e+00	0	36	0	526385152	56	5804
2026-01-04 02:08:07.89	152.28	11.43	-39.2	-40.0	23.6	0.00e+00	0	37	0	549453824	56	6146
2026-01-04 02:08:11.93	152.27	11.80	-39.3	-40.1	23.7	0.00e+00	0	37	0	571473920	58	5524
2026-01-04 02:08:15.98	152.25	12.18	-38.3	-39.0	24.2	0.00e+00	0	36	0	594542592	56	5496
2026-01-04 02:08:20.02	152.23	12.57	-38.1	-38.8	24.3	0.00e+00	0	36	0	617611264	54	6018
2026-01-04 02:08:24.06	152.22	12.97	-38.0	-38.7	24.6	0.00e+00	0	36	0	639631360	54	5905
2026-01-04 02:08:28.11	152.20	13.37	-37.6	-38.3	24.9	0.00e+00	0	36	0	662700032	54	5671
2026-01-04 02:08:32.15	152.18	13.78	-37.6	-38.3	25.0	0.00e+00	0	36	0	685768704	54	5646
2026-01-04 02:08:36.19	152.16	14.19	-37.3	-38.0	25.3	0.00e+00	0	37	0	707788800	52	6126
2026-01-04 02:08:40.24	152.14	14.62	-37.0	-37.6	25.6	0.00e+00	0	37	0	730857472	52	5884
2026-01-04 02:08:44.28	152.11	15.05	-36.9	-37.5	25.7	0.00e+00	0	36	0	753926144	52	5821
2026-01-04 02:08:48.33	152.09	15.48	-37.0	-37.6	25.8	0.00e+00	0	37	0	775946240	52	5859
2026-01-04 02:08:52.37	152.06	15.93	-36.7	-37.4	25.9	0.00e+00	0	36	0	799014912	52	5708
2026-01-04 02:08:56.42	152.04	16.38	-37.2	-37.8	25.8	0.00e+00	0	36	0	822083584	52	6026
2026-01-04 02:09:00.46	152.01	16.85	-37.6	-38.3	25.4	0.00e+00	0	37	0	845152256	52	6332
2026-01-04 02:09:04.50	151.98	17.32	-37.2	-37.9	25.7	0.00e+00	0	36	0	867172352	52	6067
2026-01-04 02:09:08.55	151.95	17.80	-37.1	-37.8	26.2	0.00e+00	0	36	0	890241024	52	5990
2026-01-04 02:09:12.59	151.92	18.29	-36.3	-36.9	26.8	0.00e+00	0	37	0	913309696	50	6080
2026-01-04 02:09:16.64	151.89	18.79	-35.8	-36.5	27.0	0.00e+00	0	36	0	935329792	50	5780
2026-01-04 02:09:20.68	151.86	19.30	-36.3	-36.9	26.7	0.00e+00	0	36	0	958398464	50	6067
2026-01-04 02:09:24.73	151.82	19.82	-35.9	-36.5	27.0	0.00e+00	0	37	0	981467136	50	5793
2026-01-04 02:09:28.77	151.78	20.36	-35.9	-36.5	27.0	0.00e+00	0	37	0	1003487232	50	5797
2026-01-04 02:09:32.82	151.74	20.90	-36.0	-36.6	26.8	0.00e+00	0	37	0	1026555904	50	5860
2026-01-04 02:09:36.86	151.70	21.46	-35.6	-36.3	26.9	0.00e+00	0	37	0	1049624576	50	5636
2026-01-04 02:09:40.90	151.66	22.03	-36.0	-36.6	26.9	0.00e+00	0	37	0	1072693248	50	5894
2026-01-04 02:09:44.95	151.61	22.61	-36.5	-37.1	27.0	0.00e+00	0	36	0	1094713344	50	6212
2026-01-04 02:09:48.99	151.57	23.20	-36.3	-36.9	26.9	0.00e+00	0	37	0	1117782016	50	6068
2026-01-04 02:09:53.03	151.52	23.81	-36.9	-37.6	26.1	0.00e+00	0	36	0	1140850688	50	6564
2026-01-04 02:09:57.08	151.46	24.44	-36.3	-36.9	26.8	0.00e+00	0	37	0	1162870784	50	6093
2026-01-04 02:10:01.12	151.41	25.07	-35.2	-35.8	27.4	0.00e+00	0	36	0	1185939456	50	5351
2026-01-04 02:10:05.16	151.35	25.73	-34.8	-35.4	27.6	0.00e+00	0	37	0	1209008128	48	5746
2026-01-04 02:10:09.20	151.29	26.40	-34.8	-35.4	27.7	0.00e+00	0	36	0	1231028224	48	5728
2026-01-04 02:10:13.25	151.22	27.09	-34.3	-34.9	27.8	0.00e+00	0	37	0	1254096896	48	5432
2026-01-04 02:10:17.29	151.16	27.79	-34.1	-34.7	28.1	0.00e+00	0	37	0	1277165568	46	5908
2026-01-04 02:10:21.34	151.08	28.52	-34.1	-34.7	28.0	0.00e+00	0	37	0	1300234240	46	5922
2026-01-04 02:10:25.38	151.01	29.26	-34.3	-34.9	28.0	0.00e+00	0	37	0	1322254336	46	6056
2026-01-04 02:10:29.42	150.93	30.03	-34.3	-34.9	27.9	0.00e+00	0	37	0	1345323008	46	6088
2026-01-04 02:10:33.47	150.84	30.81	-34.4	-35.1	27.9	0.00e+00	0	37	0	1367343104	46	6187
2026-01-04 02:10:37.51	150.75	31.62	-34.3	-34.9	28.0	0.00e+00	0	37	0	1390411776	46	6097
2026-01-04 02:10:41.56	150.66	32.45	-33.9	-34.5	28.4	0.00e+00	0	37	0	1413480448	46	5779
2026-01-04 02:10:45.60	150.56	33.30	-33.7	-34.3	28.4	0.00e+00	0	36	0	1436549120	46	5643
2026-01-04 02:10:49.65	150.45	34.18	-34.0	-34.6	28.1	0.00e+00	0	36	0	1458569216	46	5833
2026-01-04 02:10:53.69	150.34	35.08	-34.0	-34.6	28.2	0.00e+00	0	37	0	1481637888	46	5854
2026-01-04 02:10:57.74	150.22	36.01	-33.8	-34.4	28.6	0.00e+00	0	37	0	1504706560	46	5708
2026-01-04 02:11:01.78	150.09	36.97	-33.9	-34.5	28.4	0.00e+00	0	37	0	1526726656	46	5800
2026-01-04 02:11:05.82	149.95	37.95	-33.7	-34.3	28.5	0.00e+00	0	37	0	1549795328	46	5644
2026-01-04 02:11:09.87	149.80	38.96	-33.7	-34.3	28.6	0.00e+00	0	37	0	1572864000	46	5675
2026-01-04 02:11:13.91	149.65	40.01	-34.7	-35.3	27.8	0.00e+00	0	37	0	1594884096	46	6367
2026-01-04 02:11:17.96	149.48	41.09	-34.6	-35.2	27.9	0.00e+00	0	37	0	1617952768	48	5582
2026-01-04 02:11:22.00	149.30	42.19	-34.6	-35.3	27.8	0.00e+00	0	37	0	1641021440	48	5638
2026-01-04 02:11:26.05	149.10	43.34	-34.7	-35.3	27.9	0.00e+00	0	37	0	1664090112	48	5666
2026-01-04 02:11:30.09	148.89	44.51	-34.9	-35.5	28.0	0.00e+00	0	37	0	1686110208	46	6487
2026-01-04 02:11:34.14	148.66	45.73	-34.3	-34.9	28.1	0.00e+00	0	37	0	1709178880	46	6099
2026-01-04 02:11:38.18	148.41	46.98	-34.3	-34.9	28.2	0.00e+00	0	37	0	1732247552	46	6061
2026-01-04 02:11:42.22	148.14	48.26	-34.2	-34.8	28.2	0.00e+00	0	37	0	1754267648	46	5991
2026-01-04 02:11:46.27	147.84	49.59	-34.4	-35.0	28.0	0.00e+00	0	37	0	1777336320	46	6161
2026-01-04 02:11:50.31	147.51	50.96	-34.6	-35.2	28.1	0.00e+00	0	37	0	1800404992	46	6250
2026-01-04 02:11:54.36	147.16	52.36	-35.6	-36.2	27.4	0.00e+00	0	37	0	1822425088	48	6315
2026-01-04 02:11:58.40	146.76	53.81	-36.2	-36.9	26.7	0.00e+00	0	37	0	1845493760	50	6063
2026-01-04 02:12:02.44	146.32	55.29	-35.2	-35.9	27.5	0.00e+00	0	37	0	1868562432	48	6040
2026-01-04 02:12:06.48	145.83	56.81	-35.6	-36.2	27.2	0.00e+00	0	37	0	1891631104	48	6279
2026-01-04 02:12:10.53	145.28	58.38	-35.3	-36.0	27.3	0.00e+00	0	37	0	1913651200	48	6144
2026-01-04 02:12:14.57	144.66	59.99	-35.2	-35.8	27.5	0.00e+00	0	37	0	1936719872	48	5976
2026-01-04 02:12:18.61	143.95	61.63	-34.3	-34.9	28.3	0.00e+00	0	37	0	1959788544	48	5404
2026-01-04 02:12:22.66	143.14	63.31	-34.6	-35.2	28.0	0.00e+00	0	37	0	1981808640	46	6296
2026-01-04 02:12:26.70	142.20	65.02	-34.7	-35.3	27.9	0.00e+00	0	37	0	2004877312	48	5667
2026-01-04 02:12:30.75	141.10	66.77	-33.5	-34.1	28.7	0.00e+00	0	37	0	2027945984	46	5517
2026-01-04 02:12:34.79	139.80	68.54	-34.1	-34.7	28.3	0.00e+00	0	37	0	2049966080	46	5921
2026-01-04 02:12:38.84	138.24	70.34	-34.0	-34.6	28.4	0.00e+00	0	37	0	2073034752	46	5852
2026-01-04 02:12:42.88	136.34	72.15	-33.8	-34.4	28.7	0.00e+00	0	37	0	2096103424	46	5722
2026-01-04 02:12:46.92	133.98	73.97	-34.3	-34.9	28.4	0.00e+00	0	37	0	2118123520	46	6042
2026-01-04 02:12:50.97	130.98	75.79	-34.5	-35.1	28.2	0.00e+00	0	37	0	2141192192	46	6233
2026-01-04 02:12:55.01	127.07	77.57	-33.4	-34.0	29.3	0.00e+00	0	37	0	2164260864	44	6136
2026-01-04 02:12:59.06	121.82	79.31	-32.2	-32.8	29.6	0.00e+00	0	37	0	2187329536	44	5356
2026-01-04 02:13:03.10	114.58	80.93	-32.1	-32.6	30.0	0.00e+00	0	37	0	2209349632	42	5895
2026-01-04 02:13:07.15	104.35	82.36	-31.7	-32.3	30.2	0.00e+00	0	37	0	2232418304	42	5675
2026-01-04 02:13:11.19	90.09	83.45	-31.1	-31.6	30.2	0.00e+00	0	37	0	2255486976	40	5891
2026-01-04 02:13:15.24	71.69	84.01	-31.8	-32.4	29.9	0.00e+00	0	37	0	2277507072	40	6448
2026-01-04 02:13:19.28	52.00	83.88	-32.8	-33.4	29.7	0.00e+00	0	37	0	2300575744	42	6410
2026-01-04 02:13:23.32	35.02	83.10	-32.7	-33.3	29.6	0.00e+00	0	37	0	2323644416	42	6343
2026-01-04 02:13:27.36	22.36	81.86	-32.4	-33.0	29.2	0.00e+00	0	37	0	2345664512	42	6155
2026-01-04 02:13:31.41	13.37	80.35	-32.0	-32.6	30.1	0.00e+00	0	37	0	2368733184	42	5829
2026-01-04 02:13:35.45	6.98	78.68	-32.0	-32.6	29.9	0.00e+00	0	37	0	2391801856	42	5870
2026-01-04 02:13:39.50	2.29	76.92	-31.9	-32.5	29.9	0.00e+00	0	37	0	2414870528	42	5805
2026-01-04 02:13:43.54	358.76	75.13	-32.2	-32.8	29.7	0.00e+00	0	37	0	2436890624	42	5979
2026-01-04 02:13:47.58	356.02	73.31	-32.9	-33.5	29.4	0.00e+00	0	37	0	2459959296	44	5765
2026-01-04 02:13:51.63	353.85	71.49	-32.6	-33.2	29.2	0.00e+00	0	37	0	2481979392	44	5594
2026-01-04 02:13:55.67	352.09	69.69	-33.0	-33.5	29.0	0.00e+00	0	37	0	2505048064	44	5823
2026-01-04 02:13:59.72	350.63	67.90	-33.4	-33.9	28.7	0.00e+00	0	37	0	2528116736	46	5413
2026-01-04 02:14:03.75	349.42	66.15	-34.7	-35.3	28.7	0.00e+00	0	37	0	2551185408	46	6338
2026-01-04 02:14:07.79	348.38	64.42	-33.4	-34.0	28.8	0.00e+00	0	37	0	2573205504	46	5485
2026-01-04 02:14:11.84	347.49	62.72	-33.1	-33.6	28.8	0.00e+00	0	37	0	2596274176	44	5836
2026-01-04 02:14:15.88	346.72	61.05	-34.5	-35.2	28.6	0.00e+00	0	37	0	2619342848	46	6247
2026-01-04 02:14:19.92	346.05	59.43	-34.6	-35.3	28.1	0.00e+00	0	37	0	2641362944	48	5691
2026-01-04 02:14:23.97	345.45	57.84	-33.9	-34.5	28.2	0.00e+00	0	37	0	2664431616	46	5812
2026-01-04 02:14:28.01	344.93	56.30	-34.1	-34.7	28.3	0.00e+00	0	37	0	2687500288	46	5901
2026-01-04 02:14:32.06	344.46	54.79	-35.7	-36.2	27.0	0.00e+00	0	37	0	2709520384	48	6310
2026-01-04 02:14:36.10	344.04	53.32	-36.2	-36.8	26.7	0.00e+00	0	37	0	2732589056	50	6031
2026-01-04 02:14:40.15	343.65	51.89	-35.3	-35.8	27.6	0.00e+00	0	37	0	2755657728	50	5342
2026-01-04 02:14:44.19	343.31	50.51	-35.0	-35.7	27.8	0.00e+00	0	37	0	2778726400	48	5904
2026-01-04 02:14:48.24	343.00	49.16	-34.4	-34.9	28.3	0.00e+00	0	37	0	2800746496	46	6097
2026-01-04 02:14:52.28	342.71	47.85	-34.5	-35.2	28.3	0.00e+00	0	37	0	2823815168	48	5599
2026-01-04 02:14:56.33	342.45	46.58	-34.3	-34.8	28.3	0.00e+00	0	37	0	2846883840	48	5350
2026-01-04 02:15:00.37	342.21	45.35	-34.8	-35.3	28.2	0.00e+00	0	37	0	2868903936	48	5676
2026-01-04 02:15:04.41	341.99	44.15	-34.9	-35.5	28.0	0.00e+00	0	37	0	2891972608	48	5824
2026-01-04 02:15:08.46	341.78	42.99	-34.9	-35.4	28.2	0.00e+00	0	37	0	2915041280	48	5740
2026-01-04 02:15:12.50	341.59	41.86	-34.7	-35.4	28.1	0.00e+00	0	37	0	2937061376	48	5719
2026-01-04 02:15:16.55	341.41	40.77	-34.3	-34.8	28.3	0.00e+00	0	37	0	2960130048	48	5354
2026-01-04 02:15:20.59	341.25	39.71	-34.0	-34.5	28.5	0.00e+00	0	37	0	2983198720	46	5815
2026-01-04 02:15:24.64	341.10	38.68	-33.7	-34.2	28.6	0.00e+00	0	37	0	3006267392	46	5602
2026-01-04 02:15:28.68	340.96	37.68	-33.4	-34.1	28.6	0.00e+00	0	37	0	3028287488	46	5559
2026-01-04 02:15:32.72	340.82	36.71	-33.2	-33.7	28.9	0.00e+00	0	37	0	3051356160	46	5273
2026-01-04 02:15:36.77	340.70	35.76	-33.7	-34.2	28.5	0.00e+00	0	37	0	3073376256	46	5620
2026-01-04 02:15:40.81	340.58	34.85	-34.0	-34.5	28.5	0.00e+00	0	37	0	3096444928	46	5795
2026-01-04 02:15:44.86	340.47	33.95	-33.7	-34.2	28.6	0.00e+00	0	37	0	3119513600	46	5600
2026-01-04 02:15:48.90	340.37	33.09	-33.8	-34.3	28.6	0.00e+00	0	37	0	3142582272	46	5680
2026-01-04 02:15:52.95	340.27	32.25	-33.9	-34.4	28.4	0.00e+00	0	37	0	3164602368	46	5754
2026-01-04 02:15:56.99	340.18	31.43	-34.2	-34.7	28.1	0.00e+00	0	37	0	3187671040	46	5957
2026-01-04 02:16:01.03	340.09	30.63	-36.0	-36.5	27.4	0.00e+00	0	37	0	3210739712	50	5825
2026-01-04 02:16:05.07	340.01	29.86	-35.2	-35.8	27.7	0.00e+00	0	37	0	3232759808	48	6005
2026-01-04 02:16:09.12	339.94	29.10	-35.4	-36.0	27.8	0.00e+00	0	37	0	3255828480	48	6139
2026-01-04 02:16:13.16	339.86	28.37	-34.8	-35.4	28.1	0.00e+00	0	37	0	3278897152	48	5701
2026-01-04 02:16:17.20	339.80	27.65	-35.2	-35.7	27.9	0.00e+00	0	37	0	3300917248	48	5917
2026-01-04 02:16:21.25	339.73	26.95	-35.1	-35.6	28.3	0.00e+00	0	37	0	3323985920	48	5883
2026-01-04 02:16:25.29	339.67	26.27	-34.8	-35.4	28.2	0.00e+00	0	37	0	3347054592	48	5714
2026-01-04 02:16:29.34	339.61	25.61	-35.2	-35.7	28.2	0.00e+00	0	37	0	3370123264	48	5944
2026-01-04 02:16:33.38	339.56	24.96	-35.2	-35.8	28.1	0.00e+00	0	37	0	3392143360	48	5977
2026-01-04 02:16:37.42	339.50	24.33	-36.3	-36.9	27.6	0.00e+00	0	37	0	3415212032	48	6796
2026-01-04 02:16:41.47	339.45	23.71	-36.1	-36.7	27.3	0.00e+00	0	37	0	3438280704	50	5963
2026-01-04 02:16:45.51	339.41	23.11	-35.8	-36.5	27.4	0.00e+00	0	37	0	3460300800	50	5792
2026-01-04 02:16:49.56	339.36	22.52	-35.6	-36.3	27.4	0.00e+00	0	37	0	3483369472	50	5647
2026-01-04 02:16:53.60	339.32	21.95	-35.9	-36.4	27.3	0.00e+00	0	37	0	3506438144	50	5744
2026-01-04 02:16:57.65	339.28	21.38	-35.9	-36.4	27.2	0.00e+00	0	37	0	3528458240	50	5742
2026-01-04 02:17:01.69	339.24	20.83	-35.6	-36.2	27.3	0.00e+00	0	37	0	3551526912	50	5576
2026-01-04 02:17:05.74	339.20	20.29	-35.9	-36.4	27.1	0.00e+00	0	37	0	3574595584	50	5744
2026-01-04 02:17:09.78	339.17	19.77	-36.3	-36.8	27.0	0.00e+00	0	37	0	3596615680	50	6027
2026-01-04 02:17:13.82	339.14	19.25	-35.6	-36.2	27.1	0.00e+00	0	37	0	3619684352	50	5592
2026-01-04 02:17:17.87	339.10	18.74	-35.8	-36.3	26.9	0.00e+00	0	37	0	3642753024	50	5693
2026-01-04 02:17:21.91	339.07	18.25	-36.7	-37.2	26.7	0.00e+00	0	37	0	3665821696	50	6311
2026-01-04 02:17:25.96	339.05	17.76	-36.8	-37.4	26.6	0.00e+00	0	37	0	3687841792	50	6405
2026-01-04 02:17:30.00	339.02	17.29	-37.0	-37.6	26.6	0.00e+00	0	37	0	3710910464	52	5863
2026-01-04 02:17:34.05	338.99	16.82	-37.4	-38.0	26.4	0.00e+00	0	37	0	3733979136	52	6168
2026-01-04 02:17:38.09	338.97	16.36	-37.0	-37.6	26.2	0.00e+00	0	37	0	3755999232	52	5838
2026-01-04 02:17:42.14	338.95	15.91	-37.0	-37.6	26.1	0.00e+00	0	37	0	3779067904	52	5856
2026-01-04 02:17:46.18	338.92	15.47	-38.1	-38.7	25.6	0.00e+00	0	37	0	3802136576	52	6638
2026-01-04 02:17:50.22	338.90	15.03	-37.2	-37.8	25.9	0.00e+00	0	37	0	3824156672	54	5338
2026-01-04 02:17:54.27	338.88	14.61	-37.9	-38.5	25.8	0.00e+00	0	37	0	3847225344	54	5801
2026-01-04 02:17:58.31	338.87	14.19	-38.1	-38.7	25.7	0.00e+00	0	37	0	3870294016	54	5909
2026-01-04 02:18:02.36	338.85	13.78	-38.3	-39.0	25.6	0.00e+00	0	37	0	3893362688	54	6108
2026-01-04 02:18:06.40	338.83	13.37	-38.5	-39.1	25.3	0.00e+00	0	37	0	3915382784	54	6244
2026-01-04 02:18:10.44	338.82	12.97	-38.0	-38.6	25.5	0.00e+00	0	37	0	3938451456	54	5889
2026-01-04 02:18:14.49	338.80	12.58	-38.1	-38.7	25.3	0.00e+00	0	37	0	3961520128	54	5934
2026-01-04 02:18:18.53	338.79	12.19	-37.8	-38.4	25.1	0.00e+00	0	37	0	3983540224	54	5726
2026-01-04 02:18:22.58	338.77	11.81	-37.9	-38.7	25.0	0.00e+00	0	37	0	4006608896	54	5927
2026-01-04 02:18:26.62	338.76	11.44	-37.5	-38.3	25.1	0.00e+00	0	37	0	4029677568	54	5669
2026-01-04 02:18:30.66	338.75	11.07	-37.7	-38.5	25.1	0.00e+00	0	37	0	4051697664	54	5794
2026-01-04 02:18:34.71	338.74	10.71	-38.1	-38.7	24.8	0.00e+00	0	37	0	4074766336	54	5949
2026-01-04 02:18:38.75	338.73	10.35	-39.0	-39.6	24.8	0.00e+00	0	37	0	4097835008	56	5861
2026-01-04 02:18:42.80	338.72	10.00	-39.3	-39.9	24.4	0.00e+00	0	37	0	4120903680	56	6096
2026-01-04 02:18:46.84	338.71	9.65	-38.9	-39.5	24.3	0.00e+00	0	37	0	4142923776	56	5804
2026-01-04 02:18:50.88	338.70	9.31	-38.8	-39.6	24.3	0.00e+00	0	37	0	4165992448	56	5883
2026-01-04 02:18:54.93	338.69	8.97	-38.8	-39.4	24.3	0.00e+00	0	37	0	4188012544	56	5759
2026-01-04 02:18:58.97	338.68	8.64	-39.0	-39.7	23.8	0.00e+00	0	37	0	4211081216	56	5907
2026-01-04 02:19:03.02	338.68	8.31	-39.1	-39.8	23.8	0.00e+00	0	37	0	4234149888	56	6000
2026-01-04 02:19:07.06	338.67	7.98	-38.9	-39.6	23.6	0.00e+00	0	37	0	4257218560	56	5870
2026-01-04 02:19:11.10	338.67	7.66	-38.9	-39.5	23.6	0.00e+00	0	37	0	4279238656	56	5827
2026-01-04 02:19:15.15	338.66	7.34	-38.7	-39.6	23.6	0.00e+00	0	37	0	4302307328	56	5838
2026-01-04 02:19:19.19	338.66	7.03	-39.3	-40.0	23.4	0.00e+00	0	37	0	4325376000	56	6112
2026-01-04 02:19:23.24	338.65	6.72	-40.3	-41.1	22.7	0.00e+00	0	37	0	4348444672	58	6234
2026-01-04 02:19:27.28	338.65	6.42	-39.7	-40.4	23.1	0.00e+00	0	37	0	4370464768	58	5705
2026-01-04 02:19:31.33	338.65	6.11	-39.4	-40.1	23.2	0.00e+00	0	37	0	4393533440	58	5538
2026-01-04 02:19:35.37	338.64	5.82	-39.7	-40.4	23.1	0.00e+00	0	37	0	4415553536	58	5729
2026-01-04 02:19:39.41	338.64	5.52	-40.0	-40.7	22.8	0.00e+00	0	37	0	4438622208	58	5934
2026-01-04 02:19:43.46	338.64	5.23	-40.5	-41.3	21.9	0.00e+00	0	37	0	4461690880	58	6322
2026-01-04 02:19:47.50	338.64	4.94	-41.7	-42.7	20.4	0.00e+00	0	37	0	4484759552	60	6621
2026-01-04 02:19:51.55	338.63	4.65	-43.6	-44.8	18.2	0.00e+00	0	37	0	4506779648	60	8429
2026-01-04 02:19:55.59	338.63	4.37	-44.8	-46.6	15.1	0.00e+00	0	37	0	4529848320	60	10408
2026-01-04 02:19:59.63	338.63	4.09	-46.6	-49.6	10.9	7.86e-04	0	37	0	4552916992	60	14681
2026-01-04 02:20:03.68	338.63	3.82	-47.7	-52.9	6.4	1.60e-01	0	38	0	4574937088	60	21477
2026-01-04 02:20:07.72	338.63	3.54	-48.3	-56.0	3.8	8.33e-01	0	37	0	4583325696	60	30880
2026-01-04 02:20:11.76	338.63	3.27	-48.3	-59.8	3.6	8.46e-01	0	37	104	4583325696	60	47418
2026-01-04 02:20:15.81	338.63	3.00	-48.8	-61.2	3.6	8.44e-01	0	37	104	4583325696	60	55713
2026-01-04 02:20:19.85	338.64	2.74	-49.3	-61.6	3.6	8.45e-01	0	37	104	4583325696	60	58457
2026-01-04 02:20:23.90	338.64	2.47	-53.3	-65.7	3.6	8.45e-01	0	37	104	4583325696	60	93949
2026-01-04 02:20:27.94	338.64	2.21	-53.6	-66.0	3.6	8.45e-01	0	37	104	4583325696	60	97124
2026-01-04 02:20:31.99	338.64	1.95	-53.6	-66.1	3.6	8.46e-01	0	37	104	4583325696	60	97852
2026-01-04 02:20:36.03	338.64	1.70	-53.8	-66.2	3.6	8.44e-01	0	37	104	4583325696	60	99678
2026-01-04 02:20:40.08	338.65	1.44	-53.6	-66.0	3.6	8.46e-01	0	37	104	4583325696	60	97024
2026-01-04 02:20:44.12	338.65	1.19	-53.8	-66.2	3.6	8.45e-01	0	37	104	4583325696	60	99978
2026-01-04 02:20:48.16	338.65	0.94	-54.3	-66.7	3.6	8.47e-01	0	37	104	4583325696	60	105951
2026-01-04 02:20:52.20	338.66	0.69	-53.3	-65.6	3.6	8.46e-01	0	37	104	4583325696	60	93308
2026-01-04 02:20:56.24	338.66	0.45	-54.7	-67.1	3.6	8.46e-01	0	37	104	4583325696	60	110960
2026-01-04 02:21:00.29	338.66	0.20	-53.5	-65.9	3.6	8.46e-01	0	37	104	4583325696	60	96709
2026-01-04 02:21:04.33	338.67	-0.04	-54.4	-66.9	3.6	8.45e-01	0	37	104	4583325696	60	107808

#Closed at: 2026-01-04 02:21:05
#Recorded file [4583 MB]: D:/lorett/data/35034_260104_050534.dat