passes_logs/2026/01/04/R4.6S_Anadyr_2ch/R4.6S_Anadyr_2ch__20260104_003507_NOAA_21_JPSS-2_rec.log

#Pass ID: 20260104_003507_NOAA 21 (JPSS-2)
#Satellite: NOAA 21 (JPSS-2)
#Configuration: NOAA-21
#almurnet v.1.7.20251203
#Start time: 2026-01-04 00:35:57

#Version: 2.2.20231116
#Station: R4.6S_Anadyr_2ch
#Location: 177.4865 lon 64.73178 lat
#TLE: 1 54234U 22150A   25350.97269056  .00000057  00000+0  47676-4 0  9992
#TLE: 2 54234  98.7466 287.2282 0002043  29.8355 330.2937 14.19525482160692

#Time	Az	El	Level	Level2	SNR	BER	BlckErr	Temp	State	Recorded	gain1	gain2
2026-01-04 00:35:57.47	166.30	3.16	-53.6	-64.4	3.4	7.05e-01	0	35	0	0	60	80983
2026-01-04 00:36:01.51	166.37	3.43	-44.9	-46.6	17.0	0.00e+00	122	36	0	8388608	60	10167
2026-01-04 00:36:05.55	166.44	3.70	-44.6	-46.3	17.3	0.00e+00	122	37	0	20971520	60	9735
2026-01-04 00:36:09.59	166.51	3.98	-49.8	-54.8	10.8	1.10e+00	22	36	104	32505856	60	26161
2026-01-04 00:36:13.63	166.58	4.25	-43.9	-45.4	18.6	0.00e+00	123	37	0	38797312	60	8805
2026-01-04 00:36:17.67	166.65	4.54	-43.6	-45.0	19.2	0.00e+00	123	37	0	51380224	60	8382
2026-01-04 00:36:21.72	166.73	4.82	-42.4	-43.6	20.3	0.00e+00	123	37	0	63963136	60	7160
2026-01-04 00:36:25.76	166.81	5.11	-42.4	-43.6	20.7	0.00e+00	122	37	0	76546048	60	7197
2026-01-04 00:36:29.80	166.88	5.40	-42.2	-43.4	20.6	0.00e+00	123	37	0	89128960	60	7014
2026-01-04 00:36:33.85	166.96	5.69	-42.1	-43.3	20.9	0.00e+00	123	37	0	101711872	60	6887
2026-01-04 00:36:37.89	167.04	5.99	-42.1	-43.3	20.5	0.00e+00	122	37	0	114294784	60	6930
2026-01-04 00:36:41.94	167.12	6.29	-41.9	-43.0	20.9	0.00e+00	122	37	0	127926272	60	6717
2026-01-04 00:36:45.98	167.21	6.59	-41.9	-43.0	21.2	0.00e+00	123	37	0	139460608	60	6717
2026-01-04 00:36:50.02	167.29	6.90	-41.6	-42.7	21.3	0.00e+00	122	37	0	153092096	60	6479
2026-01-04 00:36:54.07	167.38	7.21	-41.1	-42.2	21.7	0.00e+00	123	37	0	165675008	60	6093
2026-01-04 00:36:58.11	167.46	7.53	-41.5	-42.6	21.7	0.00e+00	123	37	0	178257920	60	6360
2026-01-04 00:37:02.15	167.55	7.85	-41.7	-42.8	21.6	0.00e+00	122	37	0	190840832	60	6547
2026-01-04 00:37:06.20	167.64	8.17	-41.0	-42.1	22.0	0.00e+00	122	37	0	203423744	60	6047
2026-01-04 00:37:10.24	167.73	8.50	-41.2	-42.3	22.1	0.00e+00	122	37	0	216006656	60	6152
2026-01-04 00:37:14.29	167.83	8.83	-40.8	-41.9	22.2	0.00e+00	120	37	0	228589568	60	5862
2026-01-04 00:37:18.33	167.93	9.17	-40.8	-41.8	22.5	0.00e+00	122	37	0	241172480	60	5813
2026-01-04 00:37:22.38	168.02	9.51	-40.6	-41.6	22.6	0.00e+00	121	37	0	253755392	60	5696
2026-01-04 00:37:26.42	168.12	9.85	-40.1	-41.1	22.7	0.00e+00	123	37	0	266338304	60	5403
2026-01-04 00:37:30.46	168.23	10.20	-40.1	-41.1	22.7	0.00e+00	123	37	0	278921216	58	6021
2026-01-04 00:37:34.51	168.33	10.56	-40.2	-41.2	22.8	0.00e+00	123	37	0	291504128	58	6072
2026-01-04 00:37:38.55	168.44	10.92	-39.9	-40.9	23.0	0.00e+00	123	37	0	304087040	58	5881
2026-01-04 00:37:42.59	168.54	11.28	-39.9	-40.8	23.2	0.00e+00	123	37	0	316669952	58	5850
2026-01-04 00:37:46.64	168.66	11.65	-40.1	-41.1	22.9	0.00e+00	123	37	0	329252864	58	6011
2026-01-04 00:37:50.68	168.77	12.03	-39.9	-40.9	23.2	0.00e+00	123	37	0	341835776	58	5875
2026-01-04 00:37:54.73	168.89	12.41	-39.6	-40.6	23.4	0.00e+00	122	37	0	354418688	58	5683
2026-01-04 00:37:58.77	169.01	12.80	-39.7	-40.6	23.4	0.00e+00	122	37	0	367001600	58	5713
2026-01-04 00:38:02.81	169.13	13.19	-39.7	-40.7	23.4	0.00e+00	123	37	0	380633088	58	5728
2026-01-04 00:38:06.85	169.25	13.59	-39.4	-40.4	23.5	0.00e+00	123	37	0	393216000	58	5569
2026-01-04 00:38:10.90	169.38	14.00	-39.2	-40.2	23.7	0.00e+00	122	37	0	405798912	58	5418
2026-01-04 00:38:14.94	169.51	14.42	-39.2	-40.1	23.8	0.00e+00	122	37	0	418381824	56	6046
2026-01-04 00:38:18.99	169.65	14.84	-39.1	-40.0	24.0	0.00e+00	123	37	0	430964736	56	5978
2026-01-04 00:38:23.03	169.78	15.27	-39.0	-39.9	24.0	0.00e+00	123	37	0	443547648	56	5914
2026-01-04 00:38:27.07	169.92	15.70	-39.4	-40.3	23.9	0.00e+00	123	37	0	456130560	56	6194
2026-01-04 00:38:31.12	170.07	16.15	-39.0	-40.0	24.0	0.00e+00	120	37	0	468713472	56	5939
2026-01-04 00:38:35.16	170.22	16.60	-39.2	-40.1	24.0	0.00e+00	122	37	0	481296384	56	6031
2026-01-04 00:38:39.20	170.37	17.06	-39.2	-40.1	23.9	0.00e+00	123	37	0	493879296	56	6055
2026-01-04 00:38:43.25	170.53	17.53	-39.1	-40.1	24.1	0.00e+00	120	37	0	506462208	56	5998
2026-01-04 00:38:47.29	170.69	18.01	-39.0	-39.9	23.9	0.00e+00	123	37	0	519045120	56	5905
2026-01-04 00:38:51.34	170.86	18.49	-38.9	-39.8	24.1	0.00e+00	123	37	0	531628032	56	5842
2026-01-04 00:38:55.38	171.03	18.99	-39.0	-39.9	24.0	0.00e+00	120	37	0	544210944	56	5902
2026-01-04 00:38:59.42	171.21	19.50	-39.2	-40.1	23.9	0.00e+00	123	38	0	556793856	56	6039
2026-01-04 00:39:03.47	171.39	20.02	-38.7	-39.6	24.3	0.00e+00	122	37	0	569376768	56	5716
2026-01-04 00:39:07.51	171.58	20.54	-38.7	-39.6	24.4	0.00e+00	123	37	0	581959680	56	5680
2026-01-04 00:39:11.55	171.78	21.08	-39.6	-40.5	24.3	0.00e+00	122	38	0	594542592	56	6344
2026-01-04 00:39:15.59	171.98	21.63	-38.8	-39.7	24.7	0.00e+00	123	38	0	607125504	56	5738
2026-01-04 00:39:19.63	172.18	22.19	-38.1	-39.0	24.8	0.00e+00	123	37	0	620756992	54	5936
2026-01-04 00:39:23.68	172.40	22.77	-38.0	-38.9	24.9	0.00e+00	123	37	0	632291328	54	5869
2026-01-04 00:39:27.72	172.62	23.36	-37.8	-38.6	25.3	0.00e+00	122	37	0	645922816	54	5711
2026-01-04 00:39:31.76	172.85	23.96	-37.4	-38.2	25.3	0.00e+00	122	38	0	658505728	54	5467
2026-01-04 00:39:35.80	173.09	24.57	-37.5	-38.4	25.1	0.00e+00	123	37	0	671088640	54	5562
2026-01-04 00:39:39.84	173.34	25.20	-38.0	-38.8	24.9	0.00e+00	122	38	0	683671552	54	5858
2026-01-04 00:39:43.89	173.60	25.84	-38.3	-39.1	24.8	0.00e+00	123	38	0	696254464	54	6060
2026-01-04 00:39:47.93	173.87	26.50	-38.8	-39.7	24.3	0.00e+00	123	38	0	708837376	54	6452
2026-01-04 00:39:51.97	174.15	27.17	-38.6	-39.5	24.3	0.00e+00	123	38	0	721420288	54	6325
2026-01-04 00:39:56.01	174.44	27.86	-39.6	-40.6	23.8	0.00e+00	123	38	0	734003200	56	6352
2026-01-04 00:40:00.06	174.74	28.57	-39.3	-40.2	23.9	0.00e+00	123	38	0	746586112	56	6109
2026-01-04 00:40:04.10	175.05	29.30	-39.0	-40.0	24.1	0.00e+00	123	38	0	759169024	56	5945
2026-01-04 00:40:08.14	175.38	30.04	-38.5	-39.3	24.5	0.00e+00	123	38	0	771751936	56	5529
2026-01-04 00:40:12.19	175.73	30.80	-39.1	-40.0	24.0	0.00e+00	120	38	0	784334848	56	5955
2026-01-04 00:40:16.23	176.09	31.58	-38.7	-39.7	24.3	0.00e+00	123	38	0	796917760	56	5736
2026-01-04 00:40:20.27	176.47	32.38	-39.4	-40.4	24.0	0.00e+00	122	38	0	809500672	56	6228
2026-01-04 00:40:24.32	176.86	33.21	-39.3	-40.2	24.1	0.00e+00	122	38	0	822083584	56	6131
2026-01-04 00:40:28.36	177.28	34.05	-40.1	-41.1	23.4	0.00e+00	120	38	0	834666496	58	5996
2026-01-04 00:40:32.41	177.72	34.92	-40.6	-41.6	23.0	0.00e+00	120	38	0	847249408	58	6423
2026-01-04 00:40:36.45	178.18	35.80	-40.7	-41.8	22.7	0.00e+00	123	38	0	859832320	58	6510
2026-01-04 00:40:40.49	178.67	36.71	-41.4	-42.4	22.5	0.00e+00	123	38	0	872415232	60	6258
2026-01-04 00:40:44.54	179.18	37.65	-41.3	-42.3	22.5	0.00e+00	120	38	0	886046720	60	6160
2026-01-04 00:40:48.58	179.72	38.61	-41.5	-42.5	22.4	0.00e+00	123	38	0	897581056	60	6315
2026-01-04 00:40:52.62	180.30	39.59	-41.5	-42.5	22.4	0.00e+00	122	38	0	911212544	60	6334
2026-01-04 00:40:56.67	180.91	40.60	-41.1	-42.2	22.6	0.00e+00	121	38	0	923795456	60	6071
2026-01-04 00:41:00.71	181.56	41.63	-40.8	-41.8	22.7	0.00e+00	123	38	0	936378368	60	5834
2026-01-04 00:41:04.75	182.25	42.69	-41.5	-42.5	22.3	0.00e+00	122	38	0	948961280	60	6310
2026-01-04 00:41:08.80	182.99	43.78	-41.4	-42.5	22.3	0.00e+00	123	38	0	961544192	60	6285
2026-01-04 00:41:12.84	183.78	44.89	-41.9	-43.0	21.3	0.00e+00	122	38	0	974127104	60	6717
2026-01-04 00:41:16.88	184.63	46.03	-41.8	-42.9	21.9	0.00e+00	122	38	0	986710016	60	6600
2026-01-04 00:41:20.93	185.54	47.19	-41.4	-42.4	22.1	0.00e+00	123	38	0	999292928	60	6255
2026-01-04 00:41:24.97	186.52	48.38	-41.1	-42.1	22.5	0.00e+00	123	38	0	1011875840	60	6052
2026-01-04 00:41:29.02	187.58	49.59	-40.7	-41.7	22.8	0.00e+00	122	38	0	1024458752	60	5757
2026-01-04 00:41:33.06	188.72	50.82	-41.2	-42.3	22.6	0.00e+00	122	38	0	1037041664	60	6144
2026-01-04 00:41:37.10	189.96	52.07	-40.1	-41.0	23.3	0.00e+00	123	38	0	1049624576	58	5984
2026-01-04 00:41:41.15	191.31	53.35	-39.8	-40.8	23.4	0.00e+00	123	38	0	1062207488	58	5794
2026-01-04 00:41:45.19	192.78	54.63	-40.4	-41.4	23.2	0.00e+00	123	38	0	1074790400	58	6239
2026-01-04 00:41:49.23	194.39	55.93	-39.3	-40.2	24.3	0.00e+00	122	38	0	1087373312	58	5424
2026-01-04 00:41:53.28	196.15	57.24	-38.6	-39.5	24.6	0.00e+00	122	38	0	1099956224	56	5625
2026-01-04 00:41:57.32	198.09	58.54	-38.8	-39.7	24.5	0.00e+00	123	38	0	1112539136	56	5778
2026-01-04 00:42:01.37	200.23	59.85	-39.7	-40.7	24.0	0.00e+00	122	38	0	1125122048	56	6429
2026-01-04 00:42:05.41	202.59	61.14	-38.5	-39.4	25.0	0.00e+00	122	38	0	1138753536	56	5532
2026-01-04 00:42:09.45	205.21	62.40	-37.8	-38.6	25.4	0.00e+00	123	38	0	1151336448	54	5710
2026-01-04 00:42:13.50	208.11	63.64	-37.8	-38.7	25.3	0.00e+00	123	38	0	1163919360	54	5746
2026-01-04 00:42:17.54	211.32	64.83	-37.6	-38.5	25.6	0.00e+00	122	38	0	1176502272	54	5598
2026-01-04 00:42:21.58	214.87	65.96	-38.0	-38.9	25.3	0.00e+00	123	38	0	1189085184	54	5896
2026-01-04 00:42:25.62	218.80	67.01	-37.8	-38.6	25.6	0.00e+00	122	38	0	1201668096	54	5709
2026-01-04 00:42:29.66	223.12	67.97	-37.2	-38.0	25.7	0.00e+00	123	38	0	1214251008	54	5316
2026-01-04 00:42:33.71	227.85	68.81	-37.3	-38.1	25.6	0.00e+00	122	38	0	1226833920	52	6032
2026-01-04 00:42:37.75	232.95	69.52	-37.6	-38.5	25.4	0.00e+00	122	38	0	1239416832	54	5632
2026-01-04 00:42:41.80	238.41	70.07	-38.4	-39.2	25.8	0.00e+00	123	38	0	1251999744	54	6112
2026-01-04 00:42:45.84	244.13	70.44	-38.0	-38.8	25.6	0.00e+00	121	38	0	1264582656	54	5818
2026-01-04 00:42:49.88	250.03	70.62	-38.2	-39.1	25.4	0.00e+00	122	38	0	1277165568	54	6027
2026-01-04 00:42:53.93	256.00	70.62	-37.9	-38.8	25.1	0.00e+00	123	38	0	1289748480	54	5807
2026-01-04 00:42:57.97	261.88	70.41	-38.8	-39.8	24.9	0.00e+00	123	38	0	1302331392	54	6511
2026-01-04 00:43:02.02	267.59	70.02	-38.5	-39.4	25.4	0.00e+00	122	38	0	1314914304	54	6213
2026-01-04 00:43:06.06	273.01	69.46	-39.2	-40.1	24.8	0.00e+00	123	38	0	1327497216	58	5390
2026-01-04 00:43:10.10	278.07	68.75	-38.9	-39.8	24.8	0.00e+00	122	38	0	1340080128	56	5796
2026-01-04 00:43:14.15	282.76	67.89	-37.6	-38.4	25.6	0.00e+00	121	38	0	1352663040	54	5591
2026-01-04 00:43:18.19	287.04	66.93	-37.8	-38.7	25.3	0.00e+00	123	38	0	1365245952	54	5777
2026-01-04 00:43:22.24	290.94	65.87	-37.4	-38.2	25.5	0.00e+00	122	38	0	1378877440	52	6126
2026-01-04 00:43:26.28	294.46	64.74	-37.5	-38.4	25.8	0.00e+00	122	38	0	1390411776	52	6215
2026-01-04 00:43:30.32	297.63	63.54	-38.9	-39.9	24.1	0.00e+00	123	38	0	1404043264	54	6582
2026-01-04 00:43:34.37	300.50	62.31	-37.8	-38.7	25.2	0.00e+00	122	38	0	1416626176	54	5766
2026-01-04 00:43:38.41	303.09	61.04	-38.8	-39.8	24.4	0.00e+00	123	38	0	1429209088	56	5814
2026-01-04 00:43:42.46	305.43	59.75	-39.1	-40.1	24.4	0.00e+00	122	38	0	1441792000	54	6740
2026-01-04 00:43:46.50	307.55	58.45	-38.9	-39.9	23.4	0.00e+00	123	38	0	1454374912	56	5916
2026-01-04 00:43:50.54	309.47	57.15	-39.1	-40.0	24.7	0.00e+00	122	38	0	1466957824	54	6676
2026-01-04 00:43:54.59	311.22	55.85	-39.8	-41.0	22.2	0.00e+00	123	38	0	1479540736	58	5942
2026-01-04 00:43:58.63	312.81	54.56	-39.5	-40.4	24.4	0.00e+00	123	38	0	1492123648	56	6236
2026-01-04 00:44:02.68	314.27	53.27	-41.5	-42.7	21.3	0.00e+00	122	38	0	1504706560	60	6471
2026-01-04 00:44:06.72	315.61	52.01	-39.3	-40.2	24.2	0.00e+00	123	38	0	1517289472	58	5433
2026-01-04 00:44:10.77	316.84	50.76	-42.5	-43.8	21.3	0.00e+00	122	38	0	1529872384	60	7303
2026-01-04 00:44:14.81	317.97	49.54	-42.3	-43.5	21.1	0.00e+00	122	38	0	1542455296	60	7106
2026-01-04 00:44:18.86	319.02	48.33	-41.0	-41.9	23.0	0.00e+00	123	38	0	1555038208	60	5921
2026-01-04 00:44:22.90	320.00	47.15	-41.8	-42.8	22.0	0.00e+00	123	38	0	1567621120	60	6567
2026-01-04 00:44:26.94	320.90	46.00	-41.9	-43.0	21.9	0.00e+00	122	38	0	1580204032	60	6684
2026-01-04 00:44:30.98	321.74	44.87	-41.6	-42.6	22.2	0.00e+00	122	38	0	1592786944	60	6400
2026-01-04 00:44:35.03	322.53	43.76	-42.8	-44.0	21.3	0.00e+00	123	38	0	1605369856	60	7470
2026-01-04 00:44:39.07	323.26	42.69	-41.6	-42.6	22.4	0.00e+00	123	38	0	1617952768	60	6415
2026-01-04 00:44:43.11	323.95	41.63	-42.1	-43.1	21.9	0.00e+00	120	38	0	1631584256	60	6784
2026-01-04 00:44:47.16	324.60	40.60	-43.0	-44.2	21.3	0.00e+00	120	38	0	1644167168	60	7666
2026-01-04 00:44:51.20	325.20	39.60	-43.3	-44.4	21.4	0.00e+00	120	38	0	1656750080	60	7869
2026-01-04 00:44:55.25	325.78	38.62	-41.7	-42.7	23.0	0.00e+00	123	38	0	1669332992	60	6428
2026-01-04 00:44:59.29	326.32	37.67	-40.9	-41.9	23.1	0.00e+00	120	38	0	1681915904	60	5891
2026-01-04 00:45:03.33	326.83	36.74	-40.6	-41.5	23.3	0.00e+00	120	38	0	1694498816	60	5648
2026-01-04 00:45:07.38	327.32	35.84	-40.8	-41.8	23.0	0.00e+00	120	38	0	1707081728	60	5808
2026-01-04 00:45:11.42	327.78	34.95	-41.4	-42.4	22.2	0.00e+00	123	38	0	1719664640	60	6263
2026-01-04 00:45:15.46	328.21	34.10	-41.6	-42.7	21.3	0.00e+00	122	38	0	1732247552	60	6448
2026-01-04 00:45:19.51	328.63	33.26	-39.9	-40.8	23.5	0.00e+00	123	38	0	1744830464	58	5843
2026-01-04 00:45:23.55	329.02	32.44	-39.8	-40.7	24.3	0.00e+00	123	38	0	1757413376	58	5746
2026-01-04 00:45:27.59	329.40	31.64	-39.6	-40.5	24.2	0.00e+00	123	38	0	1769996288	58	5620
2026-01-04 00:45:31.64	329.76	30.87	-40.1	-41.0	24.1	0.00e+00	123	38	0	1782579200	58	5951
2026-01-04 00:45:35.68	330.11	30.11	-40.7	-41.7	23.5	0.00e+00	123	38	0	1795162112	58	6431
2026-01-04 00:45:39.72	330.44	29.37	-40.7	-41.7	23.5	0.00e+00	123	38	0	1807745024	58	6460
2026-01-04 00:45:43.77	330.75	28.65	-40.9	-41.9	23.6	0.00e+00	123	38	0	1820327936	60	5866
2026-01-04 00:45:47.81	331.06	27.95	-39.6	-40.6	23.8	0.00e+00	122	38	0	1832910848	58	5695
2026-01-04 00:45:51.85	331.35	27.26	-39.6	-40.6	24.2	0.00e+00	122	38	0	1845493760	58	5667
2026-01-04 00:45:55.90	331.63	26.59	-38.8	-39.7	24.5	0.00e+00	123	38	0	1858076672	56	5761
2026-01-04 00:45:59.94	331.90	25.93	-38.0	-38.8	25.1	0.00e+00	123	38	0	1871708160	54	5840
2026-01-04 00:46:03.98	332.15	25.30	-38.6	-39.4	24.9	0.00e+00	123	38	0	1884291072	54	6270
2026-01-04 00:46:08.02	332.40	24.67	-38.9	-39.8	24.6	0.00e+00	123	38	0	1896873984	54	6540
2026-01-04 00:46:12.07	332.64	24.06	-38.7	-39.6	24.7	0.00e+00	122	38	0	1909456896	56	5681
2026-01-04 00:46:16.12	332.88	23.46	-39.1	-40.0	24.5	0.00e+00	120	38	0	1922039808	56	5980
2026-01-04 00:46:20.16	333.10	22.88	-39.2	-40.1	24.4	0.00e+00	123	38	0	1934622720	56	6028
2026-01-04 00:46:24.20	333.32	22.31	-38.9	-39.8	24.4	0.00e+00	123	38	0	1947205632	56	5845
2026-01-04 00:46:28.24	333.53	21.75	-39.2	-40.1	24.2	0.00e+00	123	38	0	1959788544	56	6003
2026-01-04 00:46:32.29	333.73	21.20	-38.9	-39.9	24.2	0.00e+00	123	38	0	1972371456	56	5863
2026-01-04 00:46:36.33	333.92	20.66	-39.2	-40.2	24.2	0.00e+00	122	38	0	1984954368	56	6070
2026-01-04 00:46:40.38	334.11	20.14	-39.0	-40.0	24.2	0.00e+00	122	38	0	1997537280	56	5952
2026-01-04 00:46:44.42	334.30	19.62	-38.9	-39.8	24.1	0.00e+00	123	38	0	2010120192	56	5839
2026-01-04 00:46:48.46	334.48	19.12	-39.1	-40.0	24.0	0.00e+00	122	38	0	2022703104	56	5989
2026-01-04 00:46:52.51	334.65	18.62	-39.1	-40.0	23.9	0.00e+00	123	38	0	2035286016	56	5956
2026-01-04 00:46:56.55	334.82	18.14	-38.9	-39.8	23.9	0.00e+00	123	38	0	2047868928	56	5841
2026-01-04 00:47:00.60	334.99	17.66	-39.0	-40.0	23.9	0.00e+00	122	38	0	2060451840	56	5945
2026-01-04 00:47:04.64	335.15	17.20	-39.3	-40.3	23.6	0.00e+00	122	38	0	2073034752	56	6160
2026-01-04 00:47:08.68	335.30	16.74	-39.3	-40.3	23.7	0.00e+00	123	38	0	2085617664	56	6157
2026-01-04 00:47:12.72	335.45	16.29	-39.5	-40.4	23.7	0.00e+00	120	38	0	2098200576	56	6275
2026-01-04 00:47:16.77	335.60	15.85	-39.6	-40.5	23.7	0.00e+00	123	38	0	2110783488	56	6315
2026-01-04 00:47:20.81	335.74	15.41	-39.4	-40.4	23.6	0.00e+00	120	38	0	2123366400	56	6214
2026-01-04 00:47:24.86	335.88	14.99	-40.0	-40.9	23.5	0.00e+00	121	38	0	2136997888	56	6640
2026-01-04 00:47:28.90	336.02	14.57	-39.3	-40.3	23.6	0.00e+00	123	38	0	2149580800	58	5489
2026-01-04 00:47:32.94	336.15	14.15	-39.5	-40.5	23.4	0.00e+00	122	38	0	2162163712	58	5611
2026-01-04 00:47:36.99	336.28	13.75	-39.4	-40.3	23.5	0.00e+00	122	38	0	2174746624	58	5500
2026-01-04 00:47:41.03	336.41	13.35	-39.6	-40.6	23.2	0.00e+00	123	38	0	2187329536	58	5695
2026-01-04 00:47:45.07	336.53	12.96	-39.9	-40.8	23.0	0.00e+00	123	38	0	2199912448	58	5848
2026-01-04 00:47:49.12	336.66	12.57	-40.1	-41.1	22.9	0.00e+00	122	38	0	2212495360	58	6039
2026-01-04 00:47:53.16	336.78	12.19	-40.1	-41.1	22.8	0.00e+00	123	38	0	2225078272	58	6035
2026-01-04 00:47:57.21	336.89	11.81	-40.4	-41.4	22.6	0.00e+00	123	38	0	2237661184	58	6250
2026-01-04 00:48:01.25	337.01	11.45	-41.1	-42.1	22.6	0.00e+00	122	38	0	2250244096	60	6048
2026-01-04 00:48:05.29	337.12	11.08	-40.8	-41.9	22.5	0.00e+00	123	38	0	2262827008	60	5859
2026-01-04 00:48:09.34	337.23	10.72	-40.9	-41.9	22.2	0.00e+00	122	38	0	2275409920	60	5921
2026-01-04 00:48:13.38	337.33	10.37	-41.5	-42.5	22.0	0.00e+00	120	38	0	2287992832	60	6348
2026-01-04 00:48:17.43	337.44	10.02	-41.1	-42.2	22.1	0.00e+00	122	38	0	2300575744	60	6082
2026-01-04 00:48:21.47	337.54	9.68	-41.1	-42.2	22.0	0.00e+00	123	38	0	2313158656	60	6104
2026-01-04 00:48:25.52	337.64	9.34	-41.0	-42.1	21.9	0.00e+00	123	38	0	2325741568	60	6052
2026-01-04 00:48:29.56	337.74	9.00	-41.1	-42.2	21.9	0.00e+00	123	38	0	2338324480	60	6065
2026-01-04 00:48:33.60	337.84	8.67	-41.4	-42.5	21.8	0.00e+00	121	38	0	2350907392	60	6324
2026-01-04 00:48:37.65	337.93	8.35	-41.5	-42.6	21.7	0.00e+00	123	38	0	2364538880	60	6371
2026-01-04 00:48:41.69	338.03	8.03	-41.8	-42.9	21.3	0.00e+00	120	38	0	2377121792	60	6581
2026-01-04 00:48:45.74	338.12	7.71	-42.1	-43.2	21.0	0.00e+00	123	38	0	2389704704	60	6880
2026-01-04 00:48:49.78	338.21	7.39	-42.1	-43.3	20.6	0.00e+00	122	38	0	2402287616	60	6942
2026-01-04 00:48:53.82	338.30	7.08	-42.0	-43.1	20.9	0.00e+00	123	38	0	2414870528	60	6793
2026-01-04 00:48:57.86	338.39	6.78	-42.0	-43.2	20.9	0.00e+00	122	38	0	2427453440	60	6833
2026-01-04 00:49:01.91	338.47	6.47	-42.0	-43.2	20.7	0.00e+00	123	38	0	2440036352	60	6807
2026-01-04 00:49:05.95	338.56	6.17	-42.1	-43.2	20.7	0.00e+00	122	38	0	2452619264	60	6870
2026-01-04 00:49:09.99	338.64	5.88	-42.3	-43.5	20.2	0.00e+00	123	38	0	2465202176	60	7119
2026-01-04 00:49:14.03	338.72	5.59	-42.7	-44.0	19.6	0.00e+00	122	38	0	2477785088	60	7504
2026-01-04 00:49:18.07	338.81	5.30	-43.7	-45.2	18.2	0.00e+00	123	38	0	2490368000	60	8623
2026-01-04 00:49:22.12	338.89	5.01	-45.0	-47.1	15.5	0.00e+00	122	38	0	2502950912	60	10679
2026-01-04 00:49:26.16	338.96	4.73	-46.3	-49.6	11.9	1.50e-04	122	38	0	2515533824	60	14235
2026-01-04 00:49:30.21	339.04	4.45	-47.4	-52.7	7.6	8.22e-02	122	38	0	2528116736	60	20331
2026-01-04 00:49:34.25	339.12	4.17	-48.0	-57.3	4.5	8.46e-01	122	38	104	2534408192	60	34762
2026-01-04 00:49:38.29	339.19	3.89	-48.7	-59.1	3.8	1.47e+00	0	38	104	2534408192	60	42782
2026-01-04 00:49:42.34	339.27	3.62	-48.2	-60.3	3.5	1.52e+00	0	38	104	2534408192	60	49270
2026-01-04 00:49:46.38	339.34	3.35	-48.2	-61.1	3.5	1.52e+00	0	38	104	2534408192	60	54006
2026-01-04 00:49:50.42	339.41	3.09	-48.2	-61.3	3.5	1.52e+00	0	38	104	2534408192	60	54808
2026-01-04 00:49:54.46	339.48	2.82	-52.8	-65.9	3.5	1.52e+00	0	38	104	2534408192	60	93264
2026-01-04 00:49:58.51	339.55	2.56	-53.1	-66.2	3.5	1.52e+00	0	38	104	2534408192	60	96180
2026-01-04 00:50:02.55	339.62	2.30	-52.7	-66.0	3.5	1.52e+00	0	38	104	2534408192	60	94001
2026-01-04 00:50:06.59	339.69	2.04	-53.3	-66.4	3.5	1.52e+00	0	38	104	2534408192	60	98569
2026-01-04 00:50:10.64	339.76	1.79	-53.3	-66.4	3.5	1.51e+00	0	38	104	2534408192	60	98563
2026-01-04 00:50:14.68	339.83	1.54	-53.5	-66.5	3.5	1.52e+00	0	38	104	2534408192	60	100287
2026-01-04 00:50:18.72	339.89	1.29	-53.0	-66.1	3.5	1.52e+00	0	38	104	2534408192	60	95267
2026-01-04 00:50:22.77	339.96	1.04	-53.1	-66.2	3.5	1.52e+00	0	38	104	2534408192	60	96274
2026-01-04 00:50:26.81	340.02	0.79	-53.3	-66.4	3.5	1.52e+00	0	38	104	2534408192	60	98375
2026-01-04 00:50:30.85	340.08	0.55	-53.4	-66.5	3.5	1.52e+00	0	38	104	2534408192	60	99669
2026-01-04 00:50:34.90	340.15	0.30	-53.6	-66.6	3.5	1.52e+00	0	38	104	2534408192	60	101651
2026-01-04 00:50:38.94	340.21	0.06	-53.5	-66.6	3.5	1.52e+00	0	38	104	2534408192	60	100887

#Closed at: 2026-01-04 00:50:41
#Recorded file [2534 MB]: D:/lorett/data/35034_260104_033557.dat