passes_logs/2026/01/04/R4.6S_Anadyr_2ch/R4.6S_Anadyr_2ch__20260104_223649_NOAA_21_JPSS-2_rec.log

#Pass ID: 20260104_223649_NOAA 21 (JPSS-2)
#Satellite: NOAA 21 (JPSS-2)
#Configuration: NOAA-21
#almurnet v.1.7.20251203
#Start time: 2026-01-04 22:36:52

#Version: 2.2.20231116
#Station: R4.6S_Anadyr_2ch
#Location: 177.4865 lon 64.73178 lat
#TLE: 1 54234U 22150A   25350.97269056  .00000057  00000+0  47676-4 0  9992
#TLE: 2 54234  98.7466 287.2282 0002043  29.8355 330.2937 14.19525482160692

#Time	Az	El	Level	Level2	SNR	BER	BlckErr	Temp	State	Recorded	gain1	gain2
2026-01-04 22:36:52.80	117.26	0.20	-50.6	-52.2	5.7	0.00e+00	0	27	0	0	60	68177
2026-01-04 22:36:56.84	117.11	0.43	-51.4	-64.5	3.5	1.52e+00	0	28	104	0	60	79414
2026-01-04 22:37:00.89	116.95	0.67	-51.3	-64.3	3.5	1.52e+00	0	29	104	0	60	77712
2026-01-04 22:37:04.93	116.78	0.91	-50.7	-64.1	3.5	1.52e+00	0	29	104	0	60	75584
2026-01-04 22:37:08.97	116.62	1.14	-49.1	-62.4	3.5	1.52e+00	0	29	104	0	60	62064
2026-01-04 22:37:13.02	116.45	1.39	-49.2	-62.5	3.5	1.52e+00	0	29	104	0	60	63038
2026-01-04 22:37:17.06	116.28	1.63	-49.1	-62.5	3.5	1.52e+00	0	29	104	0	60	62930
2026-01-04 22:37:21.11	116.10	1.87	-49.0	-62.5	3.5	1.52e+00	0	29	104	0	60	62953
2026-01-04 22:37:25.15	115.92	2.12	-49.0	-62.2	3.5	1.52e+00	0	29	104	0	60	60808
2026-01-04 22:37:29.19	115.74	2.37	-49.1	-62.1	3.5	1.52e+00	0	29	104	0	60	60059
2026-01-04 22:37:33.24	115.56	2.62	-49.1	-62.4	3.5	1.51e+00	0	29	104	0	60	62332
2026-01-04 22:37:37.28	115.37	2.87	-49.2	-62.4	3.5	1.52e+00	0	29	104	0	60	62590
2026-01-04 22:37:41.32	115.18	3.12	-49.0	-61.6	3.5	1.52e+00	0	29	104	0	60	56680
2026-01-04 22:37:45.36	114.98	3.38	-48.5	-57.5	5.2	1.51e+00	0	29	104	0	60	35377
2026-01-04 22:37:49.40	114.79	3.63	-46.7	-50.5	10.1	9.37e-04	0	29	0	3145728	60	15914
2026-01-04 22:37:53.45	114.58	3.89	-41.2	-42.6	19.4	0.00e+00	0	29	0	6291456	60	6400
2026-01-04 22:37:57.49	114.38	4.15	-41.0	-42.4	19.6	0.00e+00	0	29	0	15728640	60	6231
2026-01-04 22:38:01.54	114.17	4.42	-40.7	-42.0	20.0	0.00e+00	0	29	0	28311552	60	5953
2026-01-04 22:38:05.58	113.95	4.69	-40.6	-41.8	20.5	0.00e+00	0	29	0	40894464	60	5824
2026-01-04 22:38:09.63	113.73	4.95	-40.4	-41.6	20.6	0.00e+00	0	29	0	53477376	60	5671
2026-01-04 22:38:13.67	113.51	5.22	-39.9	-41.0	21.1	0.00e+00	0	29	0	66060288	58	5967
2026-01-04 22:38:17.72	113.28	5.50	-40.1	-41.3	20.9	0.00e+00	0	29	0	78643200	58	6158
2026-01-04 22:38:21.76	113.05	5.77	-41.0	-42.2	20.3	0.00e+00	0	29	0	91226112	58	6870
2026-01-04 22:38:25.81	112.82	6.05	-40.4	-41.6	20.6	0.00e+00	0	29	0	103809024	58	6379
2026-01-04 22:38:29.85	112.58	6.33	-40.5	-41.7	20.6	0.00e+00	0	29	0	116391936	60	5775
2026-01-04 22:38:33.89	112.33	6.62	-39.9	-41.0	21.2	0.00e+00	0	29	0	130023424	58	5967
2026-01-04 22:38:37.94	112.08	6.90	-39.7	-40.8	21.6	0.00e+00	0	30	0	142606336	58	5819
2026-01-04 22:38:41.98	111.82	7.19	-39.4	-40.5	21.6	0.00e+00	0	30	0	155189248	58	5649
2026-01-04 22:38:46.02	111.56	7.48	-39.1	-40.2	22.1	0.00e+00	0	29	0	167772160	56	6099
2026-01-04 22:38:50.07	111.29	7.78	-39.3	-40.4	21.8	0.00e+00	0	30	0	180355072	56	6262
2026-01-04 22:38:54.11	111.02	8.07	-39.0	-40.1	22.2	0.00e+00	0	29	0	192937984	56	6019
2026-01-04 22:38:58.16	110.74	8.37	-39.0	-40.0	22.3	0.00e+00	0	30	0	205520896	56	5976
2026-01-04 22:39:02.20	110.46	8.67	-38.7	-39.8	22.5	0.00e+00	0	30	0	218103808	56	5822
2026-01-04 22:39:06.25	110.17	8.98	-38.7	-39.7	22.7	0.00e+00	0	30	0	230686720	56	5758
2026-01-04 22:39:10.29	109.87	9.29	-38.4	-39.4	22.9	0.00e+00	0	30	0	243269632	56	5588
2026-01-04 22:39:14.34	109.57	9.60	-37.9	-38.9	23.2	0.00e+00	0	29	0	255852544	54	5926
2026-01-04 22:39:18.38	109.26	9.92	-38.1	-39.1	23.1	0.00e+00	0	29	0	268435456	54	6022
2026-01-04 22:39:22.42	108.94	10.23	-38.0	-38.9	23.2	0.00e+00	0	30	0	281018368	54	5910
2026-01-04 22:39:26.47	108.61	10.56	-37.9	-38.8	23.4	0.00e+00	0	30	0	293601280	54	5837
2026-01-04 22:39:30.51	108.28	10.88	-37.7	-38.7	23.5	0.00e+00	0	30	0	306184192	54	5741
2026-01-04 22:39:34.55	107.94	11.21	-37.7	-38.6	23.6	0.00e+00	0	30	0	318767104	54	5690
2026-01-04 22:39:38.60	107.59	11.54	-37.5	-38.4	23.7	0.00e+00	0	30	0	331350016	54	5569
2026-01-04 22:39:42.64	107.24	11.87	-37.8	-38.8	23.4	0.00e+00	0	30	0	343932928	54	5811
2026-01-04 22:39:46.69	106.87	12.21	-37.8	-38.8	23.4	0.00e+00	0	30	0	356515840	54	5825
2026-01-04 22:39:50.73	106.50	12.55	-37.9	-38.9	23.5	0.00e+00	0	30	0	370147328	54	5863
2026-01-04 22:39:54.78	106.11	12.90	-37.3	-38.3	23.9	0.00e+00	0	30	0	382730240	54	5478
2026-01-04 22:39:58.82	105.72	13.25	-37.3	-38.2	23.9	0.00e+00	0	30	0	395313152	54	5427
2026-01-04 22:40:02.86	105.32	13.60	-37.4	-38.3	23.8	0.00e+00	0	30	0	407896064	54	5505
2026-01-04 22:40:06.91	104.91	13.96	-37.3	-38.3	23.9	0.00e+00	0	30	0	420478976	54	5480
2026-01-04 22:40:10.95	104.49	14.32	-37.3	-38.2	24.0	0.00e+00	0	30	0	433061888	54	5431
2026-01-04 22:40:14.99	104.05	14.68	-37.2	-38.1	24.0	0.00e+00	0	30	0	445644800	52	6063
2026-01-04 22:40:19.04	103.61	15.05	-37.4	-38.4	23.9	0.00e+00	0	30	0	458227712	52	6222
2026-01-04 22:40:23.08	103.15	15.42	-37.3	-38.2	24.0	0.00e+00	0	30	0	470810624	52	6116
2026-01-04 22:40:27.13	102.69	15.79	-37.4	-38.4	24.0	0.00e+00	0	30	0	483393536	52	6208
2026-01-04 22:40:31.17	102.21	16.17	-37.6	-38.5	23.8	0.00e+00	0	30	0	495976448	52	6302
2026-01-04 22:40:35.22	101.72	16.55	-37.5	-38.5	23.6	0.00e+00	0	30	0	508559360	52	6288
2026-01-04 22:40:39.26	101.21	16.94	-37.6	-38.5	23.7	0.00e+00	0	30	0	521142272	52	6338
2026-01-04 22:40:43.31	100.69	17.33	-37.8	-38.7	23.6	0.00e+00	0	30	0	533725184	52	6462
2026-01-04 22:40:47.35	100.16	17.72	-37.8	-38.7	23.6	0.00e+00	0	30	0	546308096	52	6464
2026-01-04 22:40:51.39	99.62	18.12	-37.6	-38.6	23.7	0.00e+00	0	30	0	558891008	52	6351
2026-01-04 22:40:55.44	99.05	18.52	-37.8	-38.8	23.6	0.00e+00	0	30	0	571473920	52	6534
2026-01-04 22:40:59.48	98.48	18.93	-37.6	-38.5	23.9	0.00e+00	0	30	0	584056832	52	6304
2026-01-04 22:41:03.53	97.88	19.34	-37.1	-38.0	24.2	0.00e+00	0	30	0	597688320	52	5962
2026-01-04 22:41:07.57	97.28	19.75	-36.8	-37.7	24.3	0.00e+00	0	30	0	610271232	52	5779
2026-01-04 22:41:11.62	96.65	20.16	-37.0	-37.9	24.2	0.00e+00	0	30	0	622854144	52	5869
2026-01-04 22:41:15.66	96.01	20.58	-36.6	-37.5	24.7	0.00e+00	0	30	0	635437056	52	5610
2026-01-04 22:41:19.70	95.35	21.00	-36.1	-37.0	25.0	0.00e+00	0	30	0	648019968	50	5966
2026-01-04 22:41:23.75	94.67	21.43	-36.2	-37.1	24.9	0.00e+00	0	30	0	660602880	50	6027
2026-01-04 22:41:27.80	93.97	21.86	-36.5	-37.4	24.7	0.00e+00	0	30	0	673185792	50	6253
2026-01-04 22:41:31.84	93.25	22.28	-36.6	-37.5	24.6	0.00e+00	0	30	0	685768704	50	6300
2026-01-04 22:41:35.88	92.51	22.72	-36.0	-36.8	25.1	0.00e+00	0	30	0	698351616	50	5857
2026-01-04 22:41:39.93	91.75	23.15	-36.1	-37.0	24.8	0.00e+00	0	30	0	710934528	50	5984
2026-01-04 22:41:43.97	90.97	23.58	-36.4	-37.3	24.9	0.00e+00	0	30	0	723517440	50	6154
2026-01-04 22:41:48.01	90.16	24.02	-36.2	-37.1	24.9	0.00e+00	0	30	0	736100352	50	6015
2026-01-04 22:41:52.06	89.34	24.46	-36.6	-37.4	24.7	0.00e+00	0	30	0	748683264	50	6276
2026-01-04 22:41:56.11	88.49	24.90	-36.3	-37.1	24.9	0.00e+00	0	30	0	761266176	50	6056
2026-01-04 22:42:00.15	87.61	25.34	-36.5	-37.4	24.7	0.00e+00	0	30	0	773849088	50	6223
2026-01-04 22:42:04.19	86.71	25.77	-36.9	-37.8	24.5	0.00e+00	0	30	0	786432000	50	6557
2026-01-04 22:42:08.24	85.79	26.21	-37.3	-38.3	24.2	0.00e+00	0	30	0	799014912	52	6139
2026-01-04 22:42:12.28	84.84	26.65	-37.1	-38.0	24.3	0.00e+00	0	30	0	811597824	52	5990
2026-01-04 22:42:16.33	83.86	27.08	-37.1	-38.0	24.3	0.00e+00	0	30	0	824180736	52	5987
2026-01-04 22:42:20.37	82.85	27.51	-37.0	-37.9	24.4	0.00e+00	0	30	0	837812224	52	5911
2026-01-04 22:42:24.42	81.82	27.94	-36.6	-37.5	24.7	0.00e+00	0	30	0	850395136	52	5623
2026-01-04 22:42:28.46	80.76	28.36	-36.8	-37.8	24.5	0.00e+00	0	30	0	862978048	52	5796
2026-01-04 22:42:32.50	79.68	28.78	-36.8	-37.7	24.5	0.00e+00	0	30	0	875560960	52	5770
2026-01-04 22:42:36.55	78.56	29.19	-37.6	-38.5	23.8	0.00e+00	0	30	0	888143872	52	6338
2026-01-04 22:42:40.59	77.41	29.60	-36.8	-37.7	24.6	0.00e+00	0	30	0	900726784	52	5775
2026-01-04 22:42:44.64	76.24	30.00	-36.8	-37.7	24.5	0.00e+00	0	30	0	913309696	52	5784
2026-01-04 22:42:48.68	75.03	30.39	-36.7	-37.5	24.6	0.00e+00	0	30	0	925892608	52	5646
2026-01-04 22:42:52.73	73.80	30.77	-37.0	-37.9	24.5	0.00e+00	0	30	0	938475520	52	5905
2026-01-04 22:42:56.77	72.54	31.14	-37.0	-37.9	24.4	0.00e+00	0	30	0	951058432	52	5911
2026-01-04 22:43:00.81	71.25	31.50	-37.0	-37.9	24.5	0.00e+00	0	30	0	963641344	52	5887
2026-01-04 22:43:04.86	69.93	31.84	-37.6	-38.5	24.0	0.00e+00	0	30	0	976224256	52	6331
2026-01-04 22:43:08.90	68.58	32.17	-37.9	-38.8	23.8	0.00e+00	0	30	0	988807168	52	6535
2026-01-04 22:43:12.95	67.20	32.49	-37.6	-38.5	24.0	0.00e+00	0	30	0	1001390080	52	6327
2026-01-04 22:43:16.99	65.80	32.79	-37.3	-38.2	24.2	0.00e+00	0	30	0	1013972992	52	6099
2026-01-04 22:43:21.04	64.37	33.08	-37.7	-38.6	24.1	0.00e+00	0	30	0	1026555904	52	6399
2026-01-04 22:43:25.08	62.92	33.34	-37.8	-38.7	23.9	0.00e+00	0	30	0	1039138816	52	6445
2026-01-04 22:43:29.12	61.45	33.59	-37.9	-38.8	23.7	0.00e+00	0	30	0	1051721728	52	6565
2026-01-04 22:43:33.17	59.95	33.82	-37.5	-38.4	24.1	0.00e+00	0	30	0	1065353216	52	6274
2026-01-04 22:43:37.21	58.44	34.03	-37.6	-38.5	24.0	0.00e+00	0	30	0	1076887552	52	6324
2026-01-04 22:43:41.26	56.90	34.21	-37.9	-38.9	23.7	0.00e+00	0	30	0	1090519040	52	6605
2026-01-04 22:43:45.30	55.35	34.37	-37.8	-38.7	23.8	0.00e+00	0	30	0	1103101952	54	5784
2026-01-04 22:43:49.34	53.79	34.51	-38.1	-39.0	23.5	0.00e+00	0	30	0	1115684864	54	5994
2026-01-04 22:43:53.39	52.21	34.62	-38.2	-39.1	23.7	0.00e+00	0	30	0	1128267776	54	6031
2026-01-04 22:43:57.43	50.62	34.71	-38.2	-39.1	23.6	0.00e+00	0	30	0	1140850688	54	6045
2026-01-04 22:44:01.48	49.03	34.78	-38.6	-39.6	23.2	0.00e+00	0	30	0	1153433600	54	6394
2026-01-04 22:44:05.52	47.43	34.82	-38.3	-39.2	23.4	0.00e+00	0	30	0	1166016512	54	6125
2026-01-04 22:44:09.56	45.83	34.83	-37.9	-38.9	23.8	0.00e+00	0	30	0	1178599424	54	5866
2026-01-04 22:44:13.61	44.23	34.82	-38.5	-39.5	23.2	0.00e+00	0	30	0	1191182336	54	6279
2026-01-04 22:44:17.65	42.63	34.78	-38.4	-39.4	23.3	0.00e+00	0	30	0	1203765248	54	6232
2026-01-04 22:44:21.69	41.04	34.72	-38.2	-39.2	23.4	0.00e+00	0	30	0	1216348160	54	6093
2026-01-04 22:44:25.74	39.45	34.63	-38.3	-39.3	23.4	0.00e+00	0	30	0	1228931072	54	6173
2026-01-04 22:44:29.78	37.87	34.52	-38.5	-39.5	23.2	0.00e+00	0	30	0	1241513984	54	6316
2026-01-04 22:44:33.82	36.31	34.39	-38.1	-39.0	23.6	0.00e+00	0	30	0	1254096896	54	5994
2026-01-04 22:44:37.87	34.76	34.23	-38.1	-39.0	23.6	0.00e+00	0	30	0	1266679808	54	5988
2026-01-04 22:44:41.92	33.22	34.04	-37.6	-38.5	23.9	0.00e+00	0	30	0	1279262720	54	5630
2026-01-04 22:44:45.96	31.71	33.84	-37.8	-38.7	23.7	0.00e+00	0	30	0	1291845632	54	5765
2026-01-04 22:44:50.00	30.21	33.61	-37.9	-38.9	23.6	0.00e+00	0	30	0	1304428544	54	5861
2026-01-04 22:44:54.05	28.74	33.37	-38.2	-39.2	23.5	0.00e+00	0	30	0	1317011456	54	6072
2026-01-04 22:44:58.09	27.29	33.11	-37.8	-38.7	23.7	0.00e+00	0	30	0	1330642944	54	5785
2026-01-04 22:45:02.14	25.86	32.82	-37.9	-38.8	23.8	0.00e+00	0	30	0	1343225856	54	5831
2026-01-04 22:45:06.18	24.46	32.52	-37.3	-38.2	24.2	0.00e+00	0	30	0	1355808768	54	5465
2026-01-04 22:45:10.23	23.08	32.21	-37.5	-38.4	24.1	0.00e+00	0	30	0	1368391680	52	6266
2026-01-04 22:45:14.27	21.74	31.88	-37.8	-38.8	23.7	0.00e+00	0	30	0	1380974592	54	5822
2026-01-04 22:45:18.32	20.42	31.53	-37.4	-38.3	24.1	0.00e+00	0	30	0	1393557504	54	5521
2026-01-04 22:45:22.36	19.13	31.18	-37.6	-38.5	23.6	0.00e+00	0	30	0	1406140416	54	5649
2026-01-04 22:45:26.40	17.87	30.81	-36.5	-37.3	24.9	0.00e+00	0	30	0	1418723328	52	5510
2026-01-04 22:45:30.45	16.63	30.43	-38.1	-39.1	23.5	0.00e+00	0	30	0	1431306240	52	6759
2026-01-04 22:45:34.49	15.43	30.04	-37.0	-37.9	24.5	0.00e+00	0	30	0	1443889152	52	5897
2026-01-04 22:45:38.53	14.26	29.65	-37.3	-38.3	24.2	0.00e+00	0	30	0	1456472064	52	6155
2026-01-04 22:45:42.58	13.11	29.24	-37.3	-38.2	24.1	0.00e+00	0	30	0	1469054976	52	6122
2026-01-04 22:45:46.62	12.00	28.83	-37.4	-38.3	24.2	0.00e+00	0	30	0	1481637888	52	6170
2026-01-04 22:45:50.67	10.91	28.42	-36.9	-37.8	24.5	0.00e+00	0	30	0	1494220800	52	5840
2026-01-04 22:45:54.71	9.85	28.00	-36.7	-37.6	24.6	0.00e+00	0	30	0	1506803712	52	5681
2026-01-04 22:45:58.75	8.82	27.57	-36.8	-37.7	24.5	0.00e+00	0	30	0	1519386624	52	5779
2026-01-04 22:46:02.80	7.82	27.14	-36.7	-37.6	24.6	0.00e+00	0	30	0	1531969536	52	5714
2026-01-04 22:46:06.84	6.84	26.71	-36.7	-37.6	24.6	0.00e+00	0	30	0	1544552448	52	5725
2026-01-04 22:46:10.89	5.89	26.28	-36.6	-37.5	24.6	0.00e+00	0	30	0	1558183936	52	5656
2026-01-04 22:46:14.93	4.97	25.84	-36.6	-37.5	24.7	0.00e+00	0	30	0	1570766848	52	5595
2026-01-04 22:46:18.98	4.07	25.40	-36.7	-37.5	24.8	0.00e+00	0	30	0	1583349760	52	5655
2026-01-04 22:46:23.02	3.20	24.97	-36.9	-37.8	24.5	0.00e+00	0	30	0	1595932672	52	5846
2026-01-04 22:46:27.07	2.34	24.53	-36.3	-37.2	24.8	0.00e+00	0	30	0	1608515584	52	5408
2026-01-04 22:46:31.11	1.52	24.10	-36.0	-36.8	25.1	0.00e+00	0	30	0	1621098496	50	5846
2026-01-04 22:46:35.15	0.72	23.66	-36.1	-36.9	24.9	0.00e+00	0	30	0	1633681408	50	5905
2026-01-04 22:46:39.20	359.94	23.23	-36.6	-37.5	24.4	0.00e+00	0	30	0	1646264320	50	6285
2026-01-04 22:46:43.24	359.18	22.80	-36.6	-37.5	24.6	0.00e+00	0	30	0	1658847232	50	6299
2026-01-04 22:46:47.29	358.44	22.37	-36.5	-37.4	24.6	0.00e+00	0	30	0	1671430144	50	6272
2026-01-04 22:46:51.33	357.72	21.94	-36.4	-37.3	24.7	0.00e+00	0	30	0	1684013056	50	6170
2026-01-04 22:46:55.37	357.03	21.51	-36.7	-37.7	24.5	0.00e+00	0	30	0	1696595968	50	6426
2026-01-04 22:46:59.42	356.35	21.09	-37.2	-38.1	24.2	0.00e+00	0	30	0	1709178880	52	6026
2026-01-04 22:47:03.46	355.69	20.67	-37.1	-38.0	24.2	0.00e+00	0	30	0	1721761792	52	5989
2026-01-04 22:47:07.51	355.05	20.25	-36.8	-37.7	24.4	0.00e+00	0	30	0	1734344704	52	5776
2026-01-04 22:47:11.55	354.42	19.84	-36.8	-37.7	24.5	0.00e+00	0	30	0	1746927616	52	5782
2026-01-04 22:47:15.59	353.82	19.43	-36.7	-37.6	24.4	0.00e+00	0	30	0	1759510528	52	5701
2026-01-04 22:47:19.64	353.22	19.02	-36.6	-37.5	24.3	0.00e+00	0	30	0	1772093440	52	5655
2026-01-04 22:47:23.68	352.65	18.62	-36.5	-37.4	24.4	0.00e+00	0	30	0	1784676352	52	5583
2026-01-04 22:47:27.73	352.09	18.22	-36.7	-37.6	24.3	0.00e+00	0	30	0	1798307840	52	5689
2026-01-04 22:47:31.77	351.55	17.82	-37.1	-38.0	24.0	0.00e+00	0	30	0	1810890752	52	5972
2026-01-04 22:47:35.82	351.01	17.43	-37.3	-38.2	23.8	0.00e+00	0	30	0	1823473664	52	6114
2026-01-04 22:47:39.86	350.50	17.04	-37.3	-38.2	23.9	0.00e+00	0	30	0	1836056576	52	6099
2026-01-04 22:47:43.90	350.00	16.66	-37.4	-38.3	24.0	0.00e+00	0	30	0	1848639488	52	6168
2026-01-04 22:47:47.95	349.50	16.27	-37.6	-38.6	23.8	0.00e+00	0	30	0	1861222400	52	6366
2026-01-04 22:47:51.99	349.03	15.90	-37.9	-38.9	23.5	0.00e+00	0	30	0	1873805312	52	6578
2026-01-04 22:47:56.04	348.56	15.52	-37.9	-38.9	23.4	0.00e+00	0	30	0	1886388224	52	6619
2026-01-04 22:48:00.08	348.11	15.15	-37.9	-38.8	23.3	0.00e+00	0	30	0	1898971136	52	6556
2026-01-04 22:48:04.13	347.67	14.79	-37.7	-38.7	23.5	0.00e+00	0	30	0	1911554048	52	6456
2026-01-04 22:48:08.17	347.24	14.42	-37.6	-38.5	23.7	0.00e+00	0	30	0	1924136960	52	6342
2026-01-04 22:48:12.21	346.82	14.06	-38.0	-39.0	23.3	0.00e+00	0	30	0	1936719872	52	6673
2026-01-04 22:48:16.26	346.41	13.71	-38.2	-39.2	23.1	0.00e+00	0	30	0	1949302784	54	6073
2026-01-04 22:48:20.30	346.01	13.36	-38.1	-39.1	23.0	0.00e+00	0	30	0	1961885696	54	6012
2026-01-04 22:48:24.35	345.62	13.01	-37.7	-38.6	23.2	0.00e+00	0	30	0	1974468608	54	5704
2026-01-04 22:48:28.39	345.23	12.66	-37.7	-38.7	23.5	0.00e+00	0	30	0	1987051520	54	5757
2026-01-04 22:48:32.44	344.86	12.32	-37.8	-38.7	23.4	0.00e+00	0	30	0	1999634432	54	5785
2026-01-04 22:48:36.48	344.50	11.99	-38.1	-39.1	23.2	0.00e+00	0	30	0	2012217344	54	6037
2026-01-04 22:48:40.53	344.14	11.65	-38.5	-39.5	22.9	0.00e+00	0	30	0	2024800256	54	6296
2026-01-04 22:48:44.57	343.80	11.32	-38.5	-39.6	22.8	0.00e+00	0	30	0	2038431744	54	6351
2026-01-04 22:48:48.61	343.46	11.00	-38.6	-39.7	22.6	0.00e+00	0	30	0	2049966080	54	6432
2026-01-04 22:48:52.66	343.13	10.67	-38.7	-39.8	22.6	0.00e+00	0	30	0	2063597568	54	6499
2026-01-04 22:48:56.71	342.81	10.35	-38.9	-39.9	22.4	0.00e+00	0	30	0	2076180480	54	6627
2026-01-04 22:49:00.75	342.49	10.03	-38.8	-39.9	22.4	0.00e+00	0	30	0	2088763392	54	6586
2026-01-04 22:49:04.79	342.18	9.72	-38.8	-39.8	22.5	0.00e+00	0	30	0	2101346304	54	6562
2026-01-04 22:49:08.84	341.88	9.41	-38.8	-39.9	22.3	0.00e+00	0	30	0	2113929216	54	6580
2026-01-04 22:49:12.88	341.59	9.10	-38.8	-39.8	22.3	0.00e+00	0	30	0	2126512128	54	6573
2026-01-04 22:49:16.93	341.30	8.79	-38.9	-39.9	22.3	0.00e+00	0	30	0	2139095040	54	6635
2026-01-04 22:49:20.97	341.02	8.49	-39.0	-40.0	22.2	0.00e+00	0	30	0	2151677952	56	5992
2026-01-04 22:49:25.02	340.74	8.19	-39.3	-40.4	21.9	0.00e+00	0	30	0	2164260864	56	6241
2026-01-04 22:49:29.06	340.47	7.90	-39.6	-40.7	21.7	0.00e+00	0	30	0	2176843776	56	6464
2026-01-04 22:49:33.10	340.20	7.60	-39.4	-40.5	21.7	0.00e+00	0	30	0	2189426688	56	6318
2026-01-04 22:49:37.15	339.94	7.31	-40.0	-41.1	21.2	0.00e+00	0	30	0	2202009600	56	6731
2026-01-04 22:49:41.19	339.69	7.03	-40.1	-41.3	21.0	0.00e+00	0	30	0	2214592512	58	6165
2026-01-04 22:49:45.24	339.44	6.74	-39.9	-41.0	21.2	0.00e+00	0	30	0	2227175424	58	5979
2026-01-04 22:49:49.28	339.20	6.46	-40.0	-41.2	21.0	0.00e+00	0	30	0	2239758336	58	6069
2026-01-04 22:49:53.33	338.96	6.18	-40.5	-41.7	20.4	0.00e+00	0	30	0	2252341248	58	6473
2026-01-04 22:49:57.37	338.73	5.90	-41.3	-42.6	19.8	0.00e+00	0	30	0	2265972736	58	7184
2026-01-04 22:50:01.41	338.50	5.62	-41.3	-42.7	19.4	0.00e+00	0	31	0	2277507072	60	6460
2026-01-04 22:50:05.46	338.27	5.35	-42.0	-43.6	17.9	0.00e+00	0	30	0	2291138560	60	7154
2026-01-04 22:50:09.50	338.05	5.08	-43.2	-45.3	15.4	0.00e+00	0	30	0	2303721472	60	8679
2026-01-04 22:50:13.55	337.84	4.81	-44.7	-48.0	12.0	3.11e-04	0	30	0	2316304384	60	11906
2026-01-04 22:50:17.59	337.63	4.55	-45.9	-51.2	7.5	7.03e-02	0	30	0	2328887296	60	17264
2026-01-04 22:50:21.63	337.42	4.28	-46.1	-55.0	4.7	6.73e-01	0	30	104	2335178752	60	26748
2026-01-04 22:50:25.68	337.22	4.02	-46.2	-57.4	3.7	1.46e+00	0	31	104	2335178752	60	34920
2026-01-04 22:50:29.72	337.02	3.76	-46.3	-58.4	3.5	1.51e+00	0	30	104	2335178752	60	39254
2026-01-04 22:50:33.77	336.82	3.50	-46.2	-58.9	3.5	1.51e+00	0	30	104	2335178752	60	41786
2026-01-04 22:50:37.81	336.63	3.25	-46.1	-59.1	3.5	1.52e+00	0	30	104	2335178752	60	42814
2026-01-04 22:50:41.85	336.44	3.00	-50.2	-63.2	3.5	1.52e+00	0	31	104	2335178752	60	68625
2026-01-04 22:50:45.90	336.26	2.74	-51.3	-64.3	3.5	1.52e+00	0	31	104	2335178752	60	77506
2026-01-04 22:50:49.94	336.07	2.50	-51.3	-64.4	3.5	1.52e+00	0	30	104	2335178752	60	78912
2026-01-04 22:50:53.99	335.90	2.25	-51.3	-64.3	3.5	1.52e+00	0	31	104	2335178752	60	77829
2026-01-04 22:50:58.03	335.72	2.00	-51.4	-64.4	3.5	1.52e+00	0	30	104	2335178752	60	78485
2026-01-04 22:51:02.07	335.55	1.76	-51.3	-64.4	3.5	1.52e+00	0	31	104	2335178752	60	78171
2026-01-04 22:51:06.12	335.38	1.52	-51.3	-64.4	3.5	1.52e+00	0	31	104	2335178752	60	78155
2026-01-04 22:51:10.16	335.21	1.28	-51.2	-64.3	3.5	1.52e+00	0	31	104	2335178752	60	77443
2026-01-04 22:51:14.20	335.05	1.04	-51.5	-64.4	3.5	1.52e+00	0	31	104	2335178752	60	79011
2026-01-04 22:51:18.24	334.89	0.80	-51.3	-64.3	3.5	1.52e+00	0	30	104	2335178752	60	77601
2026-01-04 22:51:22.29	334.73	0.57	-51.4	-64.4	3.5	1.52e+00	0	31	104	2335178752	60	78628
2026-01-04 22:51:26.33	334.58	0.33	-51.4	-64.4	3.5	1.52e+00	0	31	104	2335178752	60	78573
2026-01-04 22:51:30.38	334.43	0.10	-51.5	-64.5	3.5	1.52e+00	0	31	104	2335178752	60	79439

#Closed at: 2026-01-04 22:51:32
#Recorded file [2335 MB]: D:/lorett/data/35034_260105_013652.dat