passes_logs/2026/01/04/R4.6S_Anadyr_2ch/R4.6S_Anadyr_2ch__20260104_142059_NOAA_21_JPSS-2_rec.log

#Pass ID: 20260104_142059_NOAA 21 (JPSS-2)
#Satellite: NOAA 21 (JPSS-2)
#Configuration: NOAA-21
#almurnet v.1.7.20251203
#Start time: 2026-01-04 14:21:02

#Version: 2.2.20231116
#Station: R4.6S_Anadyr_2ch
#Location: 177.4865 lon 64.73178 lat
#TLE: 1 54234U 22150A   25350.97269056  .00000057  00000+0  47676-4 0  9992
#TLE: 2 54234  98.7466 287.2282 0002043  29.8355 330.2937 14.19525482160692

#Time	Az	El	Level	Level2	SNR	BER	BlckErr	Temp	State	Recorded	gain1	gain2
2026-01-04 14:21:02.98	19.83	0.21	-54.2	-65.9	3.3	1.54e+00	0	35	0	0	60	93079
2026-01-04 14:21:07.02	19.90	0.45	-52.3	-65.5	3.5	1.51e+00	0	35	104	0	60	89294
2026-01-04 14:21:11.06	19.96	0.69	-52.0	-65.2	3.5	1.51e+00	0	36	104	0	60	86550
2026-01-04 14:21:15.11	20.02	0.94	-51.4	-64.5	3.5	1.52e+00	0	36	104	0	60	79288
2026-01-04 14:21:19.15	20.09	1.19	-50.7	-63.9	3.5	1.52e+00	0	36	104	0	60	74125
2026-01-04 14:21:23.19	20.15	1.44	-50.7	-63.8	3.5	1.52e+00	0	36	104	0	60	73490
2026-01-04 14:21:27.23	20.22	1.69	-50.7	-63.8	3.5	1.52e+00	0	36	104	0	60	72961
2026-01-04 14:21:31.27	20.28	1.94	-50.7	-63.9	3.5	1.52e+00	0	36	104	0	60	74437
2026-01-04 14:21:35.31	20.35	2.20	-50.7	-63.9	3.5	1.52e+00	0	36	104	0	60	74123
2026-01-04 14:21:39.36	20.42	2.46	-50.6	-62.4	3.5	1.52e+00	0	36	104	0	60	62491
2026-01-04 14:21:43.40	20.49	2.72	-50.6	-61.9	3.7	1.51e+00	0	36	104	0	60	58896
2026-01-04 14:21:47.45	20.56	2.98	-48.6	-52.8	9.9	4.35e-02	0	36	0	1048576	60	20717
2026-01-04 14:21:51.49	20.63	3.25	-44.9	-46.8	15.8	0.00e+00	0	36	0	13631488	60	10414
2026-01-04 14:21:55.54	20.70	3.52	-43.8	-45.4	17.7	0.00e+00	0	36	0	26214400	60	8856
2026-01-04 14:21:59.58	20.78	3.79	-43.6	-45.2	18.4	0.00e+00	0	36	0	38797312	60	8576
2026-01-04 14:22:03.63	20.85	4.06	-44.9	-46.8	11.2	0.00e+00	0	36	0	48234496	60	10366
2026-01-04 14:22:07.67	20.93	4.34	-44.8	-46.6	17.0	0.00e+00	0	36	0	54525952	60	10142
2026-01-04 14:22:11.71	21.00	4.62	-45.4	-47.3	16.5	0.00e+00	0	36	0	67108864	60	11019
2026-01-04 14:22:15.76	21.08	4.90	-45.0	-46.8	16.4	0.00e+00	0	36	0	79691776	60	10404
2026-01-04 14:22:19.80	21.16	5.19	-44.9	-46.7	16.8	0.00e+00	0	36	0	92274688	60	10262
2026-01-04 14:22:23.84	21.24	5.47	-43.4	-44.9	18.5	0.00e+00	0	36	0	104857600	60	8280
2026-01-04 14:22:27.89	21.32	5.77	-42.9	-44.3	19.2	0.00e+00	0	36	0	117440512	60	7748
2026-01-04 14:22:31.93	21.40	6.06	-41.4	-42.6	20.8	0.00e+00	0	36	0	130023424	60	6351
2026-01-04 14:22:35.98	21.48	6.36	-41.3	-42.5	20.8	0.00e+00	0	36	0	142606336	60	6307
2026-01-04 14:22:40.02	21.57	6.66	-41.2	-42.4	20.9	0.00e+00	0	36	0	155189248	60	6221
2026-01-04 14:22:44.06	21.66	6.97	-41.0	-42.1	21.1	0.00e+00	0	36	0	167772160	60	6043
2026-01-04 14:22:48.11	21.74	7.28	-40.5	-41.5	21.7	0.00e+00	0	36	0	180355072	60	5657
2026-01-04 14:22:52.15	21.83	7.59	-40.6	-41.7	21.6	0.00e+00	0	37	0	192937984	60	5760
2026-01-04 14:22:56.19	21.92	7.90	-40.5	-41.6	21.8	0.00e+00	0	36	0	205520896	60	5671
2026-01-04 14:23:00.24	22.02	8.23	-40.3	-41.4	22.0	0.00e+00	0	37	0	218103808	58	6226
2026-01-04 14:23:04.29	22.11	8.55	-40.2	-41.2	22.0	0.00e+00	0	37	0	230686720	58	6133
2026-01-04 14:23:08.33	22.20	8.88	-39.9	-40.9	22.2	0.00e+00	0	37	0	243269632	58	5911
2026-01-04 14:23:12.37	22.30	9.21	-39.8	-40.8	22.5	0.00e+00	0	36	0	255852544	58	5837
2026-01-04 14:23:16.42	22.40	9.55	-39.9	-40.9	22.4	0.00e+00	0	37	0	268435456	58	5892
2026-01-04 14:23:20.46	22.50	9.89	-39.5	-40.6	22.7	0.00e+00	0	37	0	282066944	58	5662
2026-01-04 14:23:24.51	22.61	10.24	-39.3	-40.3	22.8	0.00e+00	0	37	0	294649856	58	5525
2026-01-04 14:23:28.55	22.71	10.59	-39.2	-40.2	22.9	0.00e+00	0	37	0	307232768	58	5446
2026-01-04 14:23:32.59	22.82	10.95	-39.1	-40.1	23.0	0.00e+00	0	36	0	319815680	56	6022
2026-01-04 14:23:36.64	22.93	11.31	-39.1	-40.1	23.0	0.00e+00	0	37	0	332398592	56	6015
2026-01-04 14:23:40.68	23.04	11.68	-39.2	-40.2	23.0	0.00e+00	0	37	0	344981504	56	6075
2026-01-04 14:23:44.73	23.15	12.05	-38.8	-39.8	23.2	0.00e+00	0	36	0	357564416	56	5809
2026-01-04 14:23:48.77	23.27	12.43	-38.8	-39.8	23.2	0.00e+00	0	37	0	370147328	56	5792
2026-01-04 14:23:52.82	23.39	12.82	-38.7	-39.7	23.3	0.00e+00	0	37	0	382730240	56	5767
2026-01-04 14:23:56.80	23.51	13.20	-38.6	-39.6	23.5	0.00e+00	0	37	0	395313152	56	5660
2026-01-04 14:24:00.84	23.64	13.60	-38.5	-39.5	23.5	0.00e+00	0	37	0	407896064	56	5610
2026-01-04 14:24:04.89	23.76	14.00	-38.9	-39.9	23.2	0.00e+00	0	37	0	420478976	56	5889
2026-01-04 14:24:08.93	23.89	14.41	-38.5	-39.5	23.6	0.00e+00	0	37	0	433061888	56	5607
2026-01-04 14:24:12.98	24.03	14.83	-38.6	-39.6	23.6	0.00e+00	0	37	0	445644800	56	5662
2026-01-04 14:24:17.02	24.17	15.25	-39.0	-40.0	23.5	0.00e+00	0	37	0	458227712	56	5977
2026-01-04 14:24:21.07	24.31	15.68	-38.7	-39.7	23.6	0.00e+00	0	37	0	470810624	56	5742
2026-01-04 14:24:25.11	24.45	16.12	-38.9	-39.9	23.5	0.00e+00	0	37	0	483393536	56	5859
2026-01-04 14:24:29.16	24.60	16.57	-38.6	-39.6	23.6	0.00e+00	0	37	0	495976448	56	5675
2026-01-04 14:24:33.20	24.75	17.03	-39.0	-40.0	23.3	0.00e+00	0	37	0	508559360	56	5932
2026-01-04 14:24:37.24	24.91	17.49	-39.0	-40.0	23.3	0.00e+00	0	37	0	522190848	56	5960
2026-01-04 14:24:41.29	25.07	17.96	-38.8	-39.8	23.5	0.00e+00	0	37	0	534773760	56	5812
2026-01-04 14:24:45.33	25.23	18.44	-38.4	-39.3	23.8	0.00e+00	0	37	0	547356672	56	5513
2026-01-04 14:24:49.38	25.40	18.94	-38.3	-39.2	23.9	0.00e+00	0	37	0	559939584	56	5440
2026-01-04 14:24:53.42	25.58	19.44	-38.3	-39.2	23.9	0.00e+00	0	37	0	572522496	56	5429
2026-01-04 14:24:57.47	25.76	19.95	-38.0	-39.0	24.0	0.00e+00	0	37	0	585105408	54	5930
2026-01-04 14:25:01.51	25.94	20.47	-37.8	-38.7	24.2	0.00e+00	0	37	0	597688320	54	5761
2026-01-04 14:25:05.55	26.14	21.00	-37.7	-38.6	24.4	0.00e+00	0	37	0	610271232	54	5677
2026-01-04 14:25:09.60	26.33	21.54	-37.5	-38.4	24.5	0.00e+00	0	37	0	622854144	54	5572
2026-01-04 14:25:13.64	26.54	22.10	-37.3	-38.2	24.6	0.00e+00	0	37	0	635437056	54	5447
2026-01-04 14:25:17.69	26.75	22.67	-37.4	-38.3	24.6	0.00e+00	0	37	0	648019968	54	5508
2026-01-04 14:25:21.73	26.97	23.25	-36.9	-37.8	25.0	0.00e+00	0	37	0	660602880	52	5838
2026-01-04 14:25:25.78	27.20	23.84	-36.9	-37.7	25.0	0.00e+00	0	37	0	673185792	52	5782
2026-01-04 14:25:29.82	27.43	24.45	-36.9	-37.7	25.1	0.00e+00	0	37	0	685768704	52	5788
2026-01-04 14:25:33.86	27.67	25.07	-37.1	-38.0	24.9	0.00e+00	0	37	0	698351616	52	5953
2026-01-04 14:25:37.91	27.93	25.70	-37.5	-38.4	24.7	0.00e+00	0	37	0	710934528	52	6217
2026-01-04 14:25:41.95	28.19	26.35	-37.8	-38.7	24.5	0.00e+00	0	37	0	723517440	52	6450
2026-01-04 14:25:46.00	28.46	27.02	-38.1	-39.0	24.3	0.00e+00	0	37	0	736100352	52	6704
2026-01-04 14:25:50.05	28.74	27.70	-38.4	-39.3	24.0	0.00e+00	0	37	0	749731840	54	6204
2026-01-04 14:25:54.09	29.04	28.40	-39.0	-40.0	23.5	0.00e+00	0	37	0	762314752	54	6686
2026-01-04 14:25:58.13	29.34	29.11	-39.3	-40.3	23.2	0.00e+00	0	37	0	774897664	56	6173
2026-01-04 14:26:02.18	29.67	29.84	-38.7	-39.7	23.8	0.00e+00	0	37	0	787480576	56	5731
2026-01-04 14:26:06.22	30.00	30.59	-38.3	-39.2	24.2	0.00e+00	0	37	0	800063488	56	5444
2026-01-04 14:26:10.27	30.35	31.36	-38.1	-39.0	24.4	0.00e+00	0	37	0	812646400	54	5959
2026-01-04 14:26:14.31	30.72	32.15	-38.1	-39.0	24.4	0.00e+00	0	37	0	825229312	54	5978
2026-01-04 14:26:18.35	31.10	32.96	-38.3	-39.2	24.2	0.00e+00	0	37	0	837812224	54	6121
2026-01-04 14:26:22.40	31.51	33.80	-38.8	-39.7	24.0	0.00e+00	0	37	0	850395136	54	6474
2026-01-04 14:26:26.44	31.93	34.65	-39.4	-40.4	23.4	0.00e+00	0	37	0	862978048	56	6217
2026-01-04 14:26:30.49	32.38	35.52	-39.8	-40.7	23.0	0.00e+00	0	37	0	875560960	56	6496
2026-01-04 14:26:34.53	32.84	36.42	-39.5	-40.5	23.3	0.00e+00	0	37	0	888143872	56	6312
2026-01-04 14:26:38.57	33.34	37.34	-39.7	-40.6	23.2	0.00e+00	0	37	0	900726784	56	6419
2026-01-04 14:26:42.62	33.86	38.29	-39.5	-40.4	23.4	0.00e+00	0	37	0	913309696	56	6275
2026-01-04 14:26:46.66	34.42	39.25	-39.7	-40.6	23.1	0.00e+00	0	37	0	925892608	56	6395
2026-01-04 14:26:50.71	35.01	40.25	-40.2	-41.2	22.6	0.00e+00	0	37	0	938475520	58	6104
2026-01-04 14:26:54.75	35.63	41.27	-41.4	-42.6	21.6	0.00e+00	0	37	0	951058432	60	6362
2026-01-04 14:26:58.79	36.30	42.31	-41.5	-42.7	21.3	0.00e+00	0	37	0	963641344	60	6427
2026-01-04 14:27:02.84	37.01	43.39	-42.0	-43.1	21.1	0.00e+00	0	37	0	976224256	60	6796
2026-01-04 14:27:06.88	37.76	44.48	-41.4	-42.5	21.4	0.00e+00	0	37	0	989855744	60	6343
2026-01-04 14:27:10.93	38.57	45.61	-41.3	-42.5	21.3	0.00e+00	0	37	0	1001390080	60	6322
2026-01-04 14:27:14.97	39.44	46.76	-40.1	-41.1	22.7	0.00e+00	0	37	0	1015021568	58	6063
2026-01-04 14:27:19.02	40.38	47.93	-39.5	-40.5	23.1	0.00e+00	0	37	0	1027604480	58	5624
2026-01-04 14:27:23.06	41.39	49.13	-39.6	-40.6	23.1	0.00e+00	0	37	0	1040187392	58	5663
2026-01-04 14:27:27.10	42.48	50.35	-40.2	-41.2	22.8	0.00e+00	0	37	0	1052770304	58	6118
2026-01-04 14:27:31.15	43.66	51.59	-40.2	-41.3	22.7	0.00e+00	0	37	0	1065353216	58	6157
2026-01-04 14:27:35.19	44.94	52.85	-39.6	-40.6	23.3	0.00e+00	0	37	0	1077936128	58	5663
2026-01-04 14:27:39.23	46.34	54.13	-39.5	-40.5	23.2	0.00e+00	0	37	0	1090519040	58	5644
2026-01-04 14:27:43.28	47.86	55.43	-38.9	-39.9	23.9	0.00e+00	0	37	0	1103101952	56	5880
2026-01-04 14:27:47.32	49.54	56.73	-38.6	-39.5	23.9	0.00e+00	0	37	0	1115684864	56	5634
2026-01-04 14:27:51.37	51.38	58.04	-38.9	-39.8	24.0	0.00e+00	0	37	0	1128267776	56	5843
2026-01-04 14:27:55.41	53.40	59.35	-37.8	-38.7	24.7	0.00e+00	0	37	0	1140850688	54	5787
2026-01-04 14:27:59.46	55.64	60.65	-36.7	-37.6	25.3	0.00e+00	0	37	0	1153433600	52	5673
2026-01-04 14:28:03.50	58.11	61.93	-36.9	-37.8	25.1	0.00e+00	0	37	0	1166016512	52	5794
2026-01-04 14:28:07.54	60.85	63.19	-36.8	-37.6	25.4	0.00e+00	0	37	0	1178599424	52	5699
2026-01-04 14:28:11.59	63.90	64.41	-36.3	-37.2	25.1	0.00e+00	0	37	0	1191182336	52	5430
2026-01-04 14:28:15.63	67.28	65.58	-36.5	-37.4	25.2	0.00e+00	0	37	0	1203765248	50	6228
2026-01-04 14:28:19.68	71.02	66.68	-36.8	-37.7	25.1	0.00e+00	0	37	0	1216348160	50	6435
2026-01-04 14:28:23.72	75.16	67.70	-37.2	-38.0	25.0	0.00e+00	0	37	0	1228931072	52	5985
2026-01-04 14:28:27.77	79.70	68.61	-36.7	-37.5	25.3	0.00e+00	0	37	0	1242562560	52	5652
2026-01-04 14:28:31.81	84.64	69.39	-36.3	-37.1	25.4	0.00e+00	0	37	0	1255145472	52	5397
2026-01-04 14:28:35.85	89.96	70.03	-36.1	-36.9	25.8	0.00e+00	0	37	0	1267728384	50	5906
2026-01-04 14:28:39.90	95.62	70.50	-36.0	-36.8	25.3	0.00e+00	0	37	0	1280311296	50	5856
2026-01-04 14:28:43.94	101.50	70.79	-36.5	-37.4	24.7	0.00e+00	0	37	0	1292894208	50	6269
2026-01-04 14:28:47.99	107.53	70.88	-36.8	-37.6	25.1	0.00e+00	0	37	0	1305477120	52	5723
2026-01-04 14:28:52.03	113.53	70.77	-37.0	-37.9	24.9	0.00e+00	0	37	0	1318060032	52	5885
2026-01-04 14:28:56.08	119.41	70.47	-36.4	-37.3	25.3	0.00e+00	0	37	0	1330642944	50	6174
2026-01-04 14:29:00.12	125.04	69.99	-37.2	-38.1	25.0	0.00e+00	0	37	0	1343225856	52	6030
2026-01-04 14:29:04.17	130.35	69.34	-36.8	-37.6	25.5	0.00e+00	0	37	0	1355808768	52	5721
2026-01-04 14:29:08.21	135.27	68.55	-36.1	-37.0	25.8	0.00e+00	0	37	0	1368391680	50	5938
2026-01-04 14:29:12.25	139.78	67.63	-36.0	-36.8	25.9	0.00e+00	0	37	0	1380974592	50	5825
2026-01-04 14:29:16.30	143.90	66.60	-36.8	-37.6	25.3	0.00e+00	0	37	0	1393557504	50	6413
2026-01-04 14:29:20.34	147.62	65.50	-36.9	-37.8	25.4	0.00e+00	0	37	0	1406140416	50	6520
2026-01-04 14:29:24.39	150.98	64.32	-36.5	-37.4	25.2	0.00e+00	0	37	0	1418723328	52	5545
2026-01-04 14:29:28.43	154.00	63.09	-39.3	-40.4	23.9	7.00e-07	0	37	0	1431306240	54	6965
2026-01-04 14:29:32.48	156.73	61.83	-36.0	-36.8	26.0	0.00e+00	0	37	0	1443889152	52	5214
2026-01-04 14:29:36.52	159.19	60.54	-39.2	-40.2	23.6	0.00e+00	0	37	0	1456472064	56	6094
2026-01-04 14:29:40.57	161.41	59.23	-37.3	-38.1	25.5	0.00e+00	0	37	0	1469054976	52	6041
2026-01-04 14:29:44.61	163.43	57.92	-39.8	-40.9	22.5	0.00e+00	0	37	0	1482686464	58	5892
2026-01-04 14:29:48.66	165.25	56.61	-37.1	-37.9	25.3	0.00e+00	0	37	0	1495269376	52	5908
2026-01-04 14:29:52.70	166.92	55.30	-42.3	-43.5	22.0	0.00e+00	0	37	0	1507852288	60	7067
2026-01-04 14:29:56.74	168.43	54.01	-38.3	-39.2	24.7	0.00e+00	0	37	0	1520435200	56	5438
2026-01-04 14:30:00.79	169.82	52.72	-41.7	-42.9	21.6	0.00e+00	0	37	0	1533018112	60	6606
2026-01-04 14:30:04.83	171.10	51.46	-40.7	-41.8	21.8	0.00e+00	0	37	0	1545601024	60	5848
2026-01-04 14:30:08.88	172.28	50.21	-40.8	-41.8	22.8	0.00e+00	0	37	0	1558183936	58	6510
2026-01-04 14:30:12.92	173.36	48.99	-42.5	-43.7	21.1	0.00e+00	0	37	0	1570766848	60	7275
2026-01-04 14:30:16.97	174.36	47.79	-40.1	-41.1	22.7	0.00e+00	0	37	0	1583349760	58	6006
2026-01-04 14:30:21.01	175.29	46.62	-40.3	-41.3	22.7	0.00e+00	0	37	0	1595932672	58	6195
2026-01-04 14:30:25.06	176.16	45.46	-41.0	-42.0	22.7	0.00e+00	0	37	0	1608515584	60	5927
2026-01-04 14:30:29.10	176.96	44.34	-43.6	-44.9	20.3	0.00e+00	0	37	0	1621098496	60	8364
2026-01-04 14:30:33.14	177.72	43.24	-42.7	-43.9	21.5	0.00e+00	0	37	0	1633681408	60	7445
2026-01-04 14:30:37.19	178.42	42.17	-42.7	-43.8	21.2	0.00e+00	0	37	0	1646264320	60	7365
2026-01-04 14:30:41.23	179.08	41.12	-42.2	-43.1	22.0	0.00e+00	0	37	0	1658847232	60	6788
2026-01-04 14:30:45.28	179.70	40.10	-43.2	-44.3	21.0	0.00e+00	0	37	0	1671430144	60	7785
2026-01-04 14:30:49.32	180.29	39.10	-41.6	-42.7	21.8	0.00e+00	0	37	0	1684013056	60	6456
2026-01-04 14:30:53.37	180.84	38.13	-39.9	-40.8	22.9	0.00e+00	0	37	0	1696595968	58	5858
2026-01-04 14:30:57.41	181.36	37.19	-40.6	-41.6	23.0	0.00e+00	0	37	0	1709178880	58	6387
2026-01-04 14:31:01.46	181.86	36.26	-40.1	-41.1	22.9	0.00e+00	0	37	0	1722810368	58	6011
2026-01-04 14:31:05.50	182.32	35.36	-40.0	-40.9	23.2	0.00e+00	0	37	0	1735393280	58	5923
2026-01-04 14:31:09.54	182.76	34.49	-40.1	-41.1	23.2	0.00e+00	0	37	0	1747976192	58	6016
2026-01-04 14:31:13.59	183.19	33.63	-41.0	-42.1	22.0	0.00e+00	0	37	0	1760559104	60	6008
2026-01-04 14:31:17.63	183.59	32.80	-40.0	-41.1	23.0	0.00e+00	0	37	0	1773142016	58	5996
2026-01-04 14:31:21.68	183.97	31.99	-39.2	-40.2	23.6	0.00e+00	0	37	0	1785724928	56	6092
2026-01-04 14:31:25.72	184.33	31.20	-38.4	-39.3	24.0	0.00e+00	0	37	0	1798307840	56	5497
2026-01-04 14:31:29.77	184.68	30.43	-39.1	-40.1	23.6	0.00e+00	0	37	0	1810890752	56	6023
2026-01-04 14:31:33.81	185.01	29.68	-38.7	-39.6	23.9	0.00e+00	0	37	0	1823473664	56	5702
2026-01-04 14:31:37.85	185.33	28.94	-38.0	-38.9	24.2	0.00e+00	0	37	0	1836056576	54	5917
2026-01-04 14:31:41.90	185.64	28.23	-37.9	-38.8	24.3	0.00e+00	0	37	0	1848639488	54	5801
2026-01-04 14:31:45.94	185.93	27.53	-37.9	-38.8	24.4	0.00e+00	0	37	0	1861222400	54	5820
2026-01-04 14:31:49.99	186.21	26.85	-37.8	-38.7	24.4	0.00e+00	0	37	0	1873805312	54	5763
2026-01-04 14:31:54.03	186.48	26.18	-37.7	-38.6	24.4	0.00e+00	0	37	0	1886388224	54	5719
2026-01-04 14:31:58.08	186.74	25.53	-38.1	-39.1	24.2	0.00e+00	0	37	0	1898971136	54	5998
2026-01-04 14:32:02.12	186.99	24.89	-38.2	-39.1	24.2	0.00e+00	0	37	0	1911554048	54	6037
2026-01-04 14:32:06.17	187.23	24.27	-37.8	-38.7	24.2	0.00e+00	0	37	0	1924136960	54	5775
2026-01-04 14:32:10.21	187.46	23.67	-38.5	-39.5	23.6	0.00e+00	0	37	0	1936719872	54	6281
2026-01-04 14:32:14.26	187.69	23.07	-38.4	-39.4	23.6	0.00e+00	0	37	0	1950351360	54	6231
2026-01-04 14:32:18.30	187.90	22.49	-37.8	-38.7	24.3	0.00e+00	0	37	0	1962934272	54	5776
2026-01-04 14:32:22.35	188.11	21.92	-37.5	-38.4	24.3	0.00e+00	0	37	0	1975517184	54	5543
2026-01-04 14:32:26.39	188.31	21.37	-37.3	-38.2	24.5	0.00e+00	0	37	0	1988100096	54	5458
2026-01-04 14:32:30.43	188.51	20.82	-38.0	-38.9	24.5	0.00e+00	0	37	0	2000683008	54	5918
2026-01-04 14:32:34.48	188.70	20.29	-38.5	-39.4	24.5	0.00e+00	0	37	0	2013265920	54	6213
2026-01-04 14:32:38.52	188.88	19.77	-38.2	-39.1	24.3	0.00e+00	0	37	0	2025848832	54	6040
2026-01-04 14:32:42.57	189.06	19.26	-38.6	-39.5	24.1	0.00e+00	0	37	0	2038431744	56	5625
2026-01-04 14:32:46.61	189.23	18.76	-39.2	-40.2	23.7	0.00e+00	0	37	0	2051014656	56	6089
2026-01-04 14:32:50.66	189.40	18.26	-39.0	-40.0	23.7	0.00e+00	0	37	0	2063597568	56	5955
2026-01-04 14:32:54.70	189.56	17.78	-39.4	-40.4	23.5	0.00e+00	0	37	0	2076180480	56	6247
2026-01-04 14:32:58.74	189.72	17.31	-39.3	-40.3	23.3	0.00e+00	0	37	0	2088763392	56	6180
2026-01-04 14:33:02.79	189.87	16.84	-39.7	-40.7	23.2	0.00e+00	0	37	0	2101346304	56	6446
2026-01-04 14:33:06.83	190.02	16.39	-40.3	-41.3	22.8	0.00e+00	0	37	0	2113929216	58	6185
2026-01-04 14:33:10.88	190.17	15.94	-40.4	-41.4	23.2	0.00e+00	0	37	0	2126512128	58	6212
2026-01-04 14:33:14.92	190.31	15.50	-39.5	-40.5	23.1	0.00e+00	0	37	0	2139095040	58	5633
2026-01-04 14:33:18.97	190.45	15.07	-39.3	-40.3	23.2	0.00e+00	0	37	0	2151677952	58	5499
2026-01-04 14:33:23.01	190.58	14.64	-39.4	-40.4	23.2	0.00e+00	0	37	0	2164260864	56	6260
2026-01-04 14:33:27.05	190.71	14.23	-40.1	-41.1	22.8	0.00e+00	0	37	0	2176843776	56	6783
2026-01-04 14:33:31.10	190.84	13.81	-39.4	-40.4	23.1	0.00e+00	0	37	0	2190475264	58	5583
2026-01-04 14:33:35.14	190.97	13.41	-39.9	-40.9	22.6	0.00e+00	0	37	0	2203058176	58	5880
2026-01-04 14:33:39.19	191.09	13.01	-39.5	-40.5	23.2	0.00e+00	0	37	0	2215641088	58	5633
2026-01-04 14:33:43.23	191.21	12.62	-39.5	-40.5	23.2	0.00e+00	0	37	0	2228224000	58	5614
2026-01-04 14:33:47.28	191.32	12.24	-39.6	-40.6	23.0	0.00e+00	0	37	0	2240806912	58	5704
2026-01-04 14:33:51.32	191.44	11.86	-39.6	-40.6	23.0	0.00e+00	0	37	0	2253389824	58	5712
2026-01-04 14:33:55.37	191.55	11.48	-39.6	-40.6	22.9	0.00e+00	0	37	0	2265972736	58	5705
2026-01-04 14:33:59.41	191.66	11.12	-39.9	-40.9	23.1	0.00e+00	0	37	0	2278555648	58	5899
2026-01-04 14:34:03.45	191.76	10.75	-40.5	-41.5	22.7	0.00e+00	0	37	0	2291138560	58	6314
2026-01-04 14:34:07.50	191.87	10.40	-40.9	-41.9	22.7	0.00e+00	0	37	0	2303721472	60	5923
2026-01-04 14:34:11.54	191.97	10.04	-41.3	-42.3	22.5	0.00e+00	0	37	0	2316304384	60	6173
2026-01-04 14:34:15.59	192.07	9.70	-40.5	-41.5	22.5	0.00e+00	0	37	0	2328887296	60	5639
2026-01-04 14:34:19.63	192.17	9.35	-41.2	-42.2	22.3	0.00e+00	0	37	0	2341470208	60	6128
2026-01-04 14:34:23.67	192.26	9.02	-41.1	-42.1	22.2	0.00e+00	0	37	0	2354053120	60	6048
2026-01-04 14:34:27.72	192.36	8.68	-41.2	-42.2	22.1	0.00e+00	0	37	0	2366636032	60	6123
2026-01-04 14:34:31.76	192.45	8.35	-41.6	-42.7	22.0	0.00e+00	0	37	0	2379218944	60	6428
2026-01-04 14:34:35.81	192.54	8.03	-41.5	-42.6	21.8	0.00e+00	0	37	0	2391801856	60	6396
2026-01-04 14:34:39.85	192.63	7.71	-41.3	-42.4	21.9	0.00e+00	0	37	0	2404384768	60	6245
2026-01-04 14:34:43.90	192.72	7.39	-41.6	-42.8	21.7	0.00e+00	0	37	0	2418016256	60	6509
2026-01-04 14:34:47.94	192.80	7.08	-41.9	-43.0	21.5	0.00e+00	0	37	0	2430599168	60	6678
2026-01-04 14:34:51.98	192.88	6.77	-41.5	-42.7	21.0	0.00e+00	0	37	0	2442133504	60	6447
2026-01-04 14:34:56.03	192.97	6.46	-41.9	-43.1	21.0	0.00e+00	0	37	0	2455764992	60	6774
2026-01-04 14:35:00.07	193.05	6.16	-42.5	-43.7	20.7	0.00e+00	0	37	0	2468347904	60	7245
2026-01-04 14:35:04.12	193.13	5.86	-42.2	-43.4	20.4	0.00e+00	0	37	0	2480930816	60	7029
2026-01-04 14:35:08.16	193.21	5.57	-42.4	-43.6	20.1	0.00e+00	0	37	0	2493513728	60	7171
2026-01-04 14:35:12.20	193.28	5.27	-42.5	-43.8	19.9	0.00e+00	0	37	0	2506096640	60	7332
2026-01-04 14:35:16.25	193.36	4.98	-42.6	-43.9	19.7	0.00e+00	0	37	0	2518679552	60	7449
2026-01-04 14:35:20.29	193.43	4.70	-42.0	-43.3	19.9	0.00e+00	0	37	0	2531262464	60	6925
2026-01-04 14:35:24.34	193.51	4.42	-42.5	-43.8	19.4	0.00e+00	0	37	0	2543845376	60	7374
2026-01-04 14:35:28.38	193.58	4.14	-42.6	-44.0	19.0	0.00e+00	0	37	0	2556428288	60	7510
2026-01-04 14:35:32.43	193.65	3.86	-42.9	-44.3	18.9	0.00e+00	0	37	0	2569011200	60	7800
2026-01-04 14:35:36.47	193.72	3.58	-42.7	-44.1	19.1	0.00e+00	0	37	0	2581594112	60	7552
2026-01-04 14:35:40.52	193.79	3.31	-43.2	-44.7	18.2	0.00e+00	0	37	0	2594177024	60	8117
2026-01-04 14:35:44.56	193.86	3.04	-51.6	-64.7	3.5	1.52e+00	0	37	104	2603614208	60	81436
2026-01-04 14:35:48.61	193.93	2.78	-52.3	-65.5	3.5	1.52e+00	0	37	104	2603614208	60	89401
2026-01-04 14:35:52.65	193.99	2.51	-52.9	-66.1	3.5	1.52e+00	0	37	104	2603614208	60	95428
2026-01-04 14:35:56.70	194.06	2.25	-52.6	-65.8	3.5	1.52e+00	0	37	104	2603614208	60	92189
2026-01-04 14:36:00.74	194.12	1.99	-52.9	-66.0	3.5	1.52e+00	0	38	104	2603614208	60	94946
2026-01-04 14:36:04.78	194.18	1.73	-53.0	-66.2	3.5	1.52e+00	0	38	104	2603614208	60	97164
2026-01-04 14:36:08.82	194.25	1.48	-53.8	-67.0	3.5	1.52e+00	0	37	104	2603614208	60	105993
2026-01-04 14:36:12.87	194.31	1.23	-53.8	-67.0	3.5	1.52e+00	0	38	104	2603614208	60	105653
2026-01-04 14:36:16.92	194.37	0.98	-54.4	-67.6	3.5	1.52e+00	0	38	104	2603614208	60	113920
2026-01-04 14:36:20.96	194.43	0.73	-53.3	-66.5	3.5	1.52e+00	0	38	104	2603614208	60	100253
2026-01-04 14:36:25.00	194.49	0.48	-53.6	-66.8	3.5	1.52e+00	0	38	104	2603614208	60	103546
2026-01-04 14:36:29.05	194.55	0.24	-53.8	-67.0	3.5	1.52e+00	0	37	104	2603614208	60	105888
2026-01-04 14:36:33.09	194.60	-0.00	-53.4	-66.7	3.5	1.52e+00	0	38	104	2603614208	60	101938

#Closed at: 2026-01-04 14:36:34
#Recorded file [2603 MB]: D:/lorett/data/35034_260104_172102.dat