passes_logs/2026/01/04/R4.6S_Anadyr_2ch/R4.6S_Anadyr_2ch__20260104_145035_SUOMI_NPP_rec.log

#Pass ID: 20260104_145035_SUOMI NPP
#Satellite: SUOMI NPP
#Configuration: NPP
#almurnet v.1.7.20251203
#Start time: 2026-01-04 14:50:37

#Version: 2.2.20231116
#Station: R4.6S_Anadyr_2ch
#Location: 177.4865 lon 64.73178 lat
#TLE: 1 37849U 11061A   25350.92281687  .00000071  00000+0  54882-4 0  9996
#TLE: 2 37849  98.7777 288.2268 0002366 112.8570 247.2856 14.19515404732588

#Time	Az	El	Level	Level2	SNR	BER	BlckErr	Temp	State	Recorded	gain1	gain2
2026-01-04 14:50:37.12	20.65	0.10	-53.4	-66.3	3.4	1.51e+00	0	34	0	0	60	97270
2026-01-04 14:50:41.16	20.66	0.35	-52.2	-67.8	3.6	1.51e+00	0	35	104	0	60	119515
2026-01-04 14:50:45.20	20.67	0.59	-52.0	-67.6	3.5	1.51e+00	0	35	104	0	60	116578
2026-01-04 14:50:49.25	20.69	0.84	-51.4	-66.9	3.6	1.51e+00	0	35	104	0	60	108314
2026-01-04 14:50:53.29	20.70	1.09	-50.7	-66.2	3.6	1.51e+00	0	35	104	0	60	99177
2026-01-04 14:50:57.34	20.71	1.34	-50.6	-66.1	3.6	1.51e+00	0	35	104	0	60	98717
2026-01-04 14:51:01.38	20.72	1.59	-50.6	-66.1	3.6	1.51e+00	0	35	104	0	60	98046
2026-01-04 14:51:05.42	20.74	1.85	-50.6	-66.2	3.6	1.51e+00	0	35	104	0	60	99486
2026-01-04 14:51:09.46	20.75	2.10	-50.6	-66.1	3.6	1.51e+00	0	36	104	0	60	98732
2026-01-04 14:51:13.50	20.76	2.36	-50.6	-65.2	3.5	1.51e+00	0	36	104	0	60	89105
2026-01-04 14:51:17.55	20.77	2.63	-50.6	-65.3	3.6	1.51e+00	0	35	104	0	60	89419
2026-01-04 14:51:21.59	20.79	2.89	-50.3	-59.3	5.2	8.80e-01	0	35	0	1048576	60	45092
2026-01-04 14:51:25.63	20.80	3.16	-48.5	-52.8	12.2	1.68e-03	15	36	0	8388608	60	21399
2026-01-04 14:51:29.68	20.81	3.43	-48.2	-52.2	12.8	5.64e-05	0	36	0	15728640	60	19849
2026-01-04 14:51:33.72	20.82	3.70	-46.9	-49.6	15.5	2.01e-04	0	36	0	24117248	60	14677
2026-01-04 14:51:37.77	20.83	3.98	-50.2	-59.8	3.5	0.00e+00	15	36	0	27262976	60	47488
2026-01-04 14:51:41.81	20.84	4.25	-46.2	-48.6	16.7	0.00e+00	92	36	0	30408704	60	13069
2026-01-04 14:51:45.85	20.85	4.54	-45.5	-47.6	17.4	0.00e+00	0	36	0	38797312	60	11633
2026-01-04 14:51:49.90	20.87	4.82	-45.9	-48.0	16.8	0.00e+00	0	36	0	46137344	60	12199
2026-01-04 14:51:53.94	20.88	5.11	-46.2	-48.4	17.0	0.00e+00	19	36	0	53477376	60	12778
2026-01-04 14:51:57.99	20.89	5.40	-45.8	-47.8	17.9	0.00e+00	0	36	0	60817408	60	12021
2026-01-04 14:52:02.03	20.90	5.69	-45.3	-47.1	18.3	0.00e+00	0	36	0	69206016	60	11033
2026-01-04 14:52:06.08	20.91	5.99	-45.1	-46.9	18.6	0.00e+00	0	36	0	76546048	60	10775
2026-01-04 14:52:10.12	20.92	6.29	-45.3	-47.2	18.2	0.00e+00	85	36	0	83886080	60	11165
2026-01-04 14:52:14.16	20.93	6.59	-45.0	-46.7	18.6	0.00e+00	0	36	0	91226112	60	10601
2026-01-04 14:52:18.21	20.94	6.90	-45.0	-46.7	18.6	0.00e+00	0	36	0	98566144	60	10583
2026-01-04 14:52:22.25	20.95	7.21	-45.0	-46.7	18.7	0.00e+00	0	36	0	106954752	60	10583
2026-01-04 14:52:26.30	20.96	7.53	-45.3	-47.1	18.5	0.00e+00	91	36	0	114294784	60	10999
2026-01-04 14:52:30.34	20.97	7.85	-45.0	-46.7	18.8	0.00e+00	0	36	0	121634816	60	10510
2026-01-04 14:52:34.39	20.98	8.17	-44.7	-46.4	19.1	0.00e+00	0	36	0	128974848	60	10170
2026-01-04 14:52:38.43	20.99	8.50	-44.5	-46.1	19.4	0.00e+00	74	36	0	137363456	60	9874
2026-01-04 14:52:42.47	21.00	8.83	-45.0	-46.7	18.8	0.00e+00	89	36	0	144703488	60	10512
2026-01-04 14:52:46.52	21.01	9.17	-44.3	-45.8	19.7	0.00e+00	0	36	0	152043520	60	9493
2026-01-04 14:52:50.56	21.01	9.51	-44.3	-45.8	19.6	0.00e+00	0	36	0	159383552	60	9540
2026-01-04 14:52:54.61	21.02	9.85	-44.1	-45.6	19.9	0.00e+00	21	36	0	166723584	60	9261
2026-01-04 14:52:58.65	21.03	10.20	-43.9	-45.3	20.2	0.00e+00	0	36	0	175112192	60	8997
2026-01-04 14:53:02.69	21.04	10.56	-43.7	-45.0	20.5	0.00e+00	0	36	0	182452224	60	8707
2026-01-04 14:53:06.74	21.05	10.92	-43.6	-44.9	20.5	0.00e+00	0	36	0	189792256	60	8616
2026-01-04 14:53:10.78	21.05	11.28	-43.4	-44.7	20.7	0.00e+00	92	36	0	197132288	60	8396
2026-01-04 14:53:14.83	21.06	11.66	-43.4	-44.7	20.9	0.00e+00	0	36	0	205520896	60	8341
2026-01-04 14:53:18.87	21.07	12.03	-42.9	-44.2	21.3	0.00e+00	0	36	0	212860928	60	7878
2026-01-04 14:53:22.91	21.08	12.42	-43.1	-44.4	21.1	0.00e+00	23	36	0	220200960	60	8092
2026-01-04 14:53:26.96	21.08	12.81	-43.0	-44.2	21.3	0.00e+00	0	36	0	227540992	60	7919
2026-01-04 14:53:31.00	21.09	13.20	-42.8	-44.0	21.7	0.00e+00	0	36	0	235929600	60	7724
2026-01-04 14:53:35.05	21.09	13.60	-42.5	-43.6	21.8	0.00e+00	0	36	0	243269632	60	7399
2026-01-04 14:53:39.09	21.10	14.01	-41.9	-43.0	22.3	0.00e+00	64	36	0	250609664	60	6877
2026-01-04 14:53:43.14	21.10	14.43	-42.4	-43.5	22.1	0.00e+00	0	36	0	257949696	60	7291
2026-01-04 14:53:47.18	21.11	14.85	-41.7	-42.7	22.5	0.00e+00	0	36	0	266338304	60	6683
2026-01-04 14:53:51.23	21.11	15.28	-41.9	-43.0	22.4	0.00e+00	0	36	0	273678336	60	6856
2026-01-04 14:53:55.25	21.12	15.72	-41.8	-42.8	22.6	0.00e+00	91	36	0	281018368	60	6743
2026-01-04 14:53:59.30	21.12	16.17	-41.7	-42.7	22.4	0.00e+00	0	36	0	288358400	60	6688
2026-01-04 14:54:03.35	21.12	16.62	-41.5	-42.5	22.8	0.00e+00	0	36	0	295698432	60	6495
2026-01-04 14:54:07.39	21.13	17.09	-41.5	-42.5	22.9	0.00e+00	32	36	0	304087040	60	6512
2026-01-04 14:54:11.43	21.13	17.56	-41.4	-42.4	22.9	0.00e+00	0	36	0	311427072	60	6408
2026-01-04 14:54:15.48	21.13	18.04	-41.3	-42.3	23.1	0.00e+00	0	36	0	318767104	60	6336
2026-01-04 14:54:19.53	21.13	18.53	-41.4	-42.5	23.1	0.00e+00	0	36	0	326107136	60	6465
2026-01-04 14:54:23.57	21.13	19.04	-41.5	-42.6	22.9	0.00e+00	68	36	0	334495744	60	6546
2026-01-04 14:54:27.61	21.13	19.55	-41.6	-42.7	22.8	0.00e+00	0	36	0	341835776	60	6623
2026-01-04 14:54:31.66	21.13	20.07	-41.6	-42.7	22.9	0.00e+00	0	36	0	349175808	60	6638
2026-01-04 14:54:35.70	21.13	20.61	-41.5	-42.5	23.0	0.00e+00	0	36	0	356515840	60	6526
2026-01-04 14:54:39.75	21.13	21.15	-41.6	-42.6	22.8	0.00e+00	71	36	0	364904448	60	6600
2026-01-04 14:54:43.79	21.13	21.71	-41.9	-43.0	22.6	0.00e+00	0	36	0	372244480	60	6871
2026-01-04 14:54:47.84	21.13	22.28	-41.6	-42.6	22.9	0.00e+00	0	36	0	379584512	60	6609
2026-01-04 14:54:51.88	21.12	22.86	-41.6	-42.7	22.8	0.00e+00	47	36	0	386924544	60	6617
2026-01-04 14:54:55.92	21.12	23.46	-41.4	-42.4	23.0	0.00e+00	3	36	0	394264576	60	6415
2026-01-04 14:54:59.97	21.12	24.07	-41.6	-42.6	23.0	0.00e+00	0	36	0	402653184	60	6550
2026-01-04 14:55:04.01	21.11	24.70	-41.5	-42.5	23.0	0.00e+00	0	36	0	409993216	60	6486
2026-01-04 14:55:08.06	21.10	25.34	-41.1	-42.0	23.5	0.00e+00	0	36	0	417333248	60	6139
2026-01-04 14:55:12.10	21.09	26.00	-41.5	-42.4	23.1	0.00e+00	0	36	0	424673280	60	6447
2026-01-04 14:55:16.14	21.09	26.67	-41.8	-42.8	22.8	0.00e+00	0	36	0	433061888	60	6696
2026-01-04 14:55:20.19	21.08	27.36	-41.5	-42.5	22.9	0.00e+00	0	36	0	440401920	60	6482
2026-01-04 14:55:24.23	21.06	28.07	-42.0	-43.0	22.5	0.00e+00	92	36	0	447741952	60	6917
2026-01-04 14:55:28.28	21.05	28.80	-43.3	-44.5	21.4	0.00e+00	0	36	0	455081984	60	8174
2026-01-04 14:55:32.32	21.04	29.55	-43.5	-44.8	21.0	0.00e+00	0	36	0	463470592	60	8456
2026-01-04 14:55:36.37	21.02	30.32	-43.5	-44.8	20.9	0.00e+00	43	36	0	470810624	60	8471
2026-01-04 14:55:40.41	21.01	31.11	-44.0	-45.4	20.6	0.00e+00	60	36	0	478150656	60	9057
2026-01-04 14:55:44.45	20.99	31.92	-43.5	-44.7	21.2	0.00e+00	0	36	0	485490688	60	8418
2026-01-04 14:55:48.50	20.97	32.75	-43.4	-44.6	21.3	0.00e+00	0	36	0	492830720	60	8328
2026-01-04 14:55:52.54	20.95	33.61	-43.2	-44.4	21.8	0.00e+00	90	36	0	501219328	60	8054
2026-01-04 14:55:56.59	20.92	34.49	-41.9	-42.9	22.8	0.00e+00	0	36	0	508559360	60	6831
2026-01-04 14:56:00.63	20.89	35.40	-41.3	-42.3	23.4	0.00e+00	0	36	0	515899392	60	6364
2026-01-04 14:56:04.68	20.87	36.34	-40.4	-41.3	23.9	0.00e+00	0	36	0	523239424	60	5668
2026-01-04 14:56:08.72	20.83	37.30	-40.2	-41.2	24.1	0.00e+00	92	36	0	531628032	58	6250
2026-01-04 14:56:12.77	20.80	38.29	-40.1	-41.0	24.2	0.00e+00	0	36	0	538968064	58	6141
2026-01-04 14:56:16.81	20.76	39.31	-40.4	-41.3	23.9	0.00e+00	0	36	0	546308096	58	6347
2026-01-04 14:56:20.86	20.72	40.37	-40.8	-41.8	23.5	0.00e+00	59	36	0	553648128	58	6705
2026-01-04 14:56:24.90	20.67	41.45	-40.5	-41.5	23.5	0.00e+00	51	36	0	562036736	58	6465
2026-01-04 14:56:28.95	20.62	42.57	-40.7	-41.6	23.6	0.00e+00	0	36	0	569376768	58	6606
2026-01-04 14:56:32.99	20.57	43.72	-40.9	-41.8	23.7	0.00e+00	0	36	0	576716800	58	6732
2026-01-04 14:56:37.03	20.51	44.91	-42.0	-43.0	22.4	0.00e+00	1	36	0	584056832	60	6920
2026-01-04 14:56:41.08	20.44	46.14	-43.2	-44.5	21.6	0.00e+00	0	36	0	592445440	60	8159
2026-01-04 14:56:45.12	20.37	47.40	-43.3	-44.5	21.4	0.00e+00	0	36	0	599785472	60	8185
2026-01-04 14:56:49.17	20.29	48.70	-43.5	-44.7	21.3	0.00e+00	3	36	0	607125504	60	8422
2026-01-04 14:56:53.21	20.20	50.05	-42.2	-43.3	22.5	0.00e+00	58	36	0	614465536	60	7099
2026-01-04 14:56:57.26	20.10	51.43	-40.6	-41.5	23.7	0.00e+00	0	36	0	621805568	60	5792
2026-01-04 14:57:01.30	19.99	52.85	-40.7	-41.7	23.5	0.00e+00	0	36	0	630194176	60	5900
2026-01-04 14:57:05.35	19.87	54.32	-39.4	-40.2	24.6	0.00e+00	81	36	0	637534208	56	6247
2026-01-04 14:57:09.39	19.73	55.83	-39.7	-40.6	24.4	0.00e+00	0	36	0	644874240	58	5865
2026-01-04 14:57:13.43	19.58	57.38	-40.1	-40.9	24.2	0.00e+00	0	36	0	652214272	58	6087
2026-01-04 14:57:17.48	19.40	58.98	-42.6	-43.8	22.1	0.00e+00	0	36	0	660602880	60	7554
2026-01-04 14:57:21.52	19.20	60.61	-41.9	-43.0	22.6	0.00e+00	92	36	0	667942912	60	6869
2026-01-04 14:57:25.56	18.96	62.29	-39.3	-40.1	24.8	0.00e+00	0	36	0	675282944	56	6230
2026-01-04 14:57:29.61	18.69	64.02	-38.9	-39.7	24.5	0.00e+00	0	36	0	682622976	54	6672
2026-01-04 14:57:33.65	18.38	65.78	-40.0	-40.9	24.3	0.00e+00	0	36	0	689963008	56	6781
2026-01-04 14:57:37.70	18.00	67.59	-42.2	-43.2	22.6	0.00e+00	92	36	0	698351616	60	7041
2026-01-04 14:57:41.74	17.55	69.43	-46.3	-48.3	18.0	0.00e+00	0	36	0	705691648	60	12624
2026-01-04 14:57:45.79	17.00	71.31	-45.8	-47.6	18.8	0.00e+00	0	36	0	713031680	60	11661
2026-01-04 14:57:49.83	16.31	73.21	-43.6	-44.9	21.1	0.00e+00	31	36	0	720371712	60	8570
2026-01-04 14:57:53.87	15.43	75.15	-43.1	-44.3	21.6	0.00e+00	0	36	0	728760320	60	7969
2026-01-04 14:57:57.92	14.26	77.11	-44.9	-46.4	19.9	0.00e+00	0	36	0	736100352	60	10240
2026-01-04 14:58:01.96	12.66	79.09	-44.7	-46.2	19.8	0.00e+00	0	36	0	743440384	60	9925
2026-01-04 14:58:06.01	10.31	81.09	-45.2	-46.8	19.5	0.00e+00	91	36	0	750780416	60	10663
2026-01-04 14:58:10.05	6.58	83.07	-40.9	-41.8	23.8	0.00e+00	0	36	0	759169024	60	5985
2026-01-04 14:58:14.10	359.85	85.02	-40.5	-41.4	23.8	0.00e+00	0	36	0	766509056	58	6447
2026-01-04 14:58:18.14	345.01	86.82	-42.7	-43.8	22.1	0.00e+00	0	37	0	773849088	60	7566
2026-01-04 14:58:22.18	305.34	88.00	-43.8	-45.2	21.0	0.00e+00	92	36	0	781189120	60	8832
2026-01-04 14:58:26.23	252.71	87.44	-44.3	-45.6	20.8	0.00e+00	0	36	0	789577728	60	9274
2026-01-04 14:58:30.27	230.61	85.79	-41.1	-42.0	23.5	0.00e+00	0	36	0	796917760	60	6169
2026-01-04 14:58:34.32	221.57	83.88	-39.7	-40.5	24.7	0.00e+00	42	36	0	804257792	58	5794
2026-01-04 14:58:38.36	216.92	81.90	-42.4	-43.4	22.3	0.00e+00	0	36	0	811597824	60	7246
2026-01-04 14:58:42.41	214.11	79.91	-41.4	-42.4	23.0	0.00e+00	0	36	0	818937856	60	6420
2026-01-04 14:58:46.45	212.25	77.92	-40.5	-41.4	24.0	0.00e+00	0	36	0	827326464	60	5730
2026-01-04 14:58:50.49	210.93	75.95	-41.7	-42.7	23.0	0.00e+00	92	36	0	834666496	60	6621
2026-01-04 14:58:54.54	209.94	73.99	-42.2	-43.3	22.4	0.00e+00	0	36	0	842006528	60	7113
2026-01-04 14:58:58.58	209.19	72.07	-46.0	-47.9	18.4	0.00e+00	0	36	0	849346560	60	12094
2026-01-04 14:59:02.63	208.58	70.17	-45.8	-47.6	18.6	0.00e+00	0	36	0	857735168	60	11651
2026-01-04 14:59:06.67	208.09	68.32	-42.8	-43.9	22.2	0.00e+00	90	37	0	865075200	60	7636
2026-01-04 14:59:10.72	207.69	66.49	-40.8	-41.7	23.6	0.00e+00	0	36	0	872415232	60	5938
2026-01-04 14:59:14.76	207.35	64.71	-41.3	-42.3	23.1	0.00e+00	0	36	0	879755264	60	6345
2026-01-04 14:59:18.80	207.06	62.97	-41.6	-42.7	23.1	0.00e+00	47	36	0	887095296	60	6639
2026-01-04 14:59:22.85	206.81	61.27	-42.0	-43.1	22.7	0.00e+00	0	36	0	895483904	60	6953
2026-01-04 14:59:26.90	206.60	59.60	-41.2	-42.1	23.5	0.00e+00	0	36	0	902823936	60	6237
2026-01-04 14:59:30.94	206.41	57.99	-40.8	-41.7	23.6	0.00e+00	0	36	0	910163968	60	5909
2026-01-04 14:59:34.98	206.24	56.42	-39.2	-40.0	24.7	0.00e+00	92	37	0	917504000	58	5491
2026-01-04 14:59:39.03	206.10	54.88	-40.0	-40.9	24.1	0.00e+00	0	36	0	925892608	56	6770
2026-01-04 14:59:43.07	205.97	53.40	-40.2	-41.1	24.0	0.00e+00	0	37	0	933232640	60	5516
2026-01-04 14:59:47.12	205.85	51.95	-43.9	-45.4	20.6	0.00e+00	0	36	0	940572672	60	9064
2026-01-04 14:59:51.16	205.75	50.55	-42.5	-43.6	22.1	0.00e+00	92	36	0	947912704	60	7353
2026-01-04 14:59:55.20	205.65	49.19	-44.7	-46.3	20.0	0.00e+00	0	36	0	956301312	60	10027
2026-01-04 14:59:59.25	205.57	47.86	-42.4	-43.5	22.4	0.00e+00	0	36	0	963641344	60	7309
2026-01-04 15:00:03.29	205.49	46.58	-42.4	-43.5	22.1	0.00e+00	43	36	0	970981376	60	7258
2026-01-04 15:00:07.34	205.42	45.34	-47.3	-50.1	16.1	0.00e+00	36	36	0	978321408	60	15662
2026-01-04 15:00:11.38	205.36	44.13	-42.3	-43.4	22.3	0.00e+00	0	37	0	986710016	60	7218
2026-01-04 15:00:15.43	205.30	42.96	-42.7	-43.8	22.1	0.00e+00	0	37	0	994050048	60	7538
2026-01-04 15:00:19.47	205.25	41.82	-45.0	-46.7	19.6	0.00e+00	92	37	0	1001390080	60	10575
2026-01-04 15:00:23.52	205.20	40.72	-42.2	-43.2	22.6	0.00e+00	0	36	0	1008730112	60	7079
2026-01-04 15:00:27.56	205.16	39.65	-42.3	-43.4	22.2	0.00e+00	0	37	0	1017118720	60	7234
2026-01-04 15:00:31.61	205.12	38.62	-44.9	-46.5	19.6	0.00e+00	9	37	0	1024458752	60	10256
2026-01-04 15:00:35.65	205.08	37.61	-43.2	-44.4	21.5	0.00e+00	90	37	0	1031798784	60	8104
2026-01-04 15:00:39.70	205.05	36.63	-43.5	-44.7	21.2	0.00e+00	0	37	0	1039138816	60	8415
2026-01-04 15:00:43.74	205.01	35.68	-42.4	-43.6	22.1	0.00e+00	0	37	0	1046478848	60	7340
2026-01-04 15:00:47.78	204.99	34.76	-46.2	-48.2	17.6	0.00e+00	61	37	0	1054867456	60	12581
2026-01-04 15:00:51.83	204.96	33.87	-47.5	-50.2	16.2	0.00e+00	0	37	0	1062207488	60	15780
2026-01-04 15:00:55.87	204.93	33.00	-43.3	-44.6	21.3	0.00e+00	0	37	0	1069547520	60	8237
2026-01-04 15:00:59.92	204.91	32.15	-43.4	-44.6	21.1	0.00e+00	0	37	0	1076887552	60	8265
2026-01-04 15:01:03.96	204.89	31.33	-43.8	-45.1	20.9	0.00e+00	25	37	0	1085276160	60	8790
2026-01-04 15:01:08.01	204.87	30.53	-43.0	-44.2	21.6	0.00e+00	0	37	0	1092616192	60	7917
2026-01-04 15:01:12.05	204.86	29.75	-45.4	-47.0	19.0	0.00e+00	0	37	0	1099956224	60	10973
2026-01-04 15:01:16.10	204.84	28.99	-45.1	-46.7	19.7	0.00e+00	0	36	0	1107296256	60	10547
2026-01-04 15:01:20.14	204.82	28.26	-41.8	-42.8	22.7	0.00e+00	92	37	0	1114636288	60	6764
2026-01-04 15:01:24.19	204.81	27.54	-40.8	-41.7	23.5	0.00e+00	0	37	0	1123024896	60	5930
2026-01-04 15:01:28.23	204.80	26.84	-40.9	-41.8	23.6	0.00e+00	0	37	0	1130364928	60	5968
2026-01-04 15:01:32.27	204.79	26.16	-40.8	-41.8	23.5	0.00e+00	62	37	0	1137704960	60	5965
2026-01-04 15:01:36.32	204.78	25.49	-41.6	-42.6	22.8	0.00e+00	0	37	0	1145044992	60	6592
2026-01-04 15:01:40.36	204.77	24.84	-41.2	-42.2	23.2	0.00e+00	0	37	0	1153433600	60	6265
2026-01-04 15:01:44.41	204.76	24.21	-40.7	-41.7	23.6	0.00e+00	0	37	0	1160773632	60	5901
2026-01-04 15:01:48.45	204.75	23.59	-41.1	-42.1	23.2	0.00e+00	92	37	0	1168113664	60	6225
2026-01-04 15:01:52.50	204.75	22.98	-42.1	-43.2	22.3	0.00e+00	0	37	0	1175453696	60	7064
2026-01-04 15:01:56.54	204.74	22.39	-41.6	-42.7	22.8	0.00e+00	0	36	0	1183842304	60	6628
2026-01-04 15:02:00.59	204.74	21.81	-41.1	-42.1	23.3	0.00e+00	0	37	0	1191182336	60	6187
2026-01-04 15:02:04.63	204.73	21.25	-40.5	-41.4	23.8	0.00e+00	82	37	0	1198522368	60	5724
2026-01-04 15:02:08.67	204.73	20.70	-41.1	-42.1	23.2	0.00e+00	0	37	0	1205862400	60	6211
2026-01-04 15:02:12.72	204.73	20.16	-41.5	-42.5	22.9	0.00e+00	0	37	0	1214251008	60	6479
2026-01-04 15:02:16.76	204.72	19.63	-41.3	-42.3	23.0	0.00e+00	58	36	0	1221591040	60	6349
2026-01-04 15:02:20.81	204.72	19.11	-41.9	-42.9	22.6	0.00e+00	16	37	0	1228931072	60	6811
2026-01-04 15:02:24.85	204.72	18.61	-42.7	-43.8	21.7	0.00e+00	0	36	0	1236271104	60	7570
2026-01-04 15:02:28.89	204.72	18.11	-43.6	-44.9	20.7	0.00e+00	0	37	0	1243611136	60	8526
2026-01-04 15:02:32.94	204.72	17.62	-43.9	-45.3	20.6	0.00e+00	92	36	0	1251999744	60	8944
2026-01-04 15:02:36.98	204.72	17.14	-43.6	-44.9	20.8	0.00e+00	0	37	0	1259339776	60	8558
2026-01-04 15:02:41.03	204.72	16.68	-43.1	-44.2	21.5	0.00e+00	0	37	0	1266679808	60	7944
2026-01-04 15:02:45.07	204.72	16.22	-42.5	-43.6	22.2	0.00e+00	0	36	0	1274019840	60	7354
2026-01-04 15:02:49.12	204.72	15.76	-42.4	-43.5	22.1	0.00e+00	92	36	0	1282408448	60	7299
2026-01-04 15:02:53.16	204.72	15.32	-42.9	-44.0	21.7	0.00e+00	22	36	0	1289748480	60	7742
2026-01-04 15:02:57.20	204.72	14.89	-43.0	-44.1	21.6	0.00e+00	0	37	0	1297088512	60	7815
2026-01-04 15:03:01.25	204.73	14.46	-43.3	-44.5	21.1	0.00e+00	57	37	0	1304428544	60	8228
2026-01-04 15:03:05.29	204.73	14.04	-43.4	-44.6	21.1	0.00e+00	27	36	0	1311768576	60	8285
2026-01-04 15:03:09.34	204.73	13.63	-43.8	-45.1	20.7	0.00e+00	0	37	0	1320157184	60	8754
2026-01-04 15:03:13.38	204.73	13.22	-43.5	-44.7	21.0	0.00e+00	0	37	0	1327497216	60	8390
2026-01-04 15:03:17.42	204.74	12.82	-43.5	-44.7	20.9	0.00e+00	66	37	0	1334837248	60	8406
2026-01-04 15:03:21.47	204.74	12.43	-43.1	-44.4	21.2	0.00e+00	0	37	0	1342177280	60	8054
2026-01-04 15:03:25.51	204.74	12.04	-43.4	-44.7	20.9	0.00e+00	0	37	0	1350565888	60	8369
2026-01-04 15:03:29.56	204.75	11.66	-43.2	-44.4	21.2	0.00e+00	0	37	0	1357905920	60	8076
2026-01-04 15:03:33.60	204.75	11.29	-43.4	-44.7	20.9	0.00e+00	92	36	0	1365245952	60	8386
2026-01-04 15:03:37.65	204.76	10.92	-43.2	-44.5	21.1	0.00e+00	0	37	0	1372585984	60	8140
2026-01-04 15:03:41.69	204.76	10.56	-43.3	-44.5	21.0	0.00e+00	0	36	0	1380974592	60	8172
2026-01-04 15:03:45.73	204.77	10.20	-43.6	-44.9	20.6	0.00e+00	92	36	0	1388314624	60	8609
2026-01-04 15:03:49.78	204.77	9.84	-43.1	-44.3	21.2	0.00e+00	0	36	0	1395654656	60	8040
2026-01-04 15:03:53.82	204.78	9.50	-43.4	-44.7	20.9	0.00e+00	0	37	0	1402994688	60	8364
2026-01-04 15:03:57.87	204.78	9.15	-43.4	-44.7	20.8	0.00e+00	0	37	0	1411383296	60	8409
2026-01-04 15:04:01.91	204.79	8.81	-43.1	-44.4	21.0	0.00e+00	88	37	0	1418723328	60	8051
2026-01-04 15:04:05.96	204.79	8.48	-43.5	-44.8	20.6	0.00e+00	0	37	0	1426063360	60	8519
2026-01-04 15:04:10.00	204.80	8.15	-43.5	-44.9	20.5	0.00e+00	0	37	0	1433403392	60	8526
2026-01-04 15:04:14.05	204.81	7.83	-43.6	-44.9	20.5	0.00e+00	0	37	0	1440743424	60	8532
2026-01-04 15:04:18.09	204.81	7.50	-43.6	-44.9	20.4	0.00e+00	80	37	0	1449132032	60	8571
2026-01-04 15:04:22.13	204.82	7.19	-43.7	-45.1	20.1	0.00e+00	0	37	0	1456472064	60	8778
2026-01-04 15:04:26.18	204.83	6.87	-44.0	-45.4	19.9	0.00e+00	0	36	0	1463812096	60	9081
2026-01-04 15:04:30.22	204.83	6.56	-44.1	-45.6	19.6	0.00e+00	92	36	0	1471152128	60	9286
2026-01-04 15:04:34.27	204.84	6.26	-44.0	-45.5	19.5	0.00e+00	0	36	0	1479540736	60	9182
2026-01-04 15:04:38.31	204.85	5.96	-44.1	-45.6	19.6	0.00e+00	0	37	0	1486880768	60	9295
2026-01-04 15:04:42.36	204.85	5.66	-44.1	-45.6	19.5	0.00e+00	0	37	0	1494220800	60	9304
2026-01-04 15:04:46.40	204.86	5.36	-44.1	-45.6	19.5	0.00e+00	92	37	0	1501560832	60	9273
2026-01-04 15:04:50.44	204.87	5.07	-44.4	-46.0	18.9	0.00e+00	0	37	0	1509949440	60	9716
2026-01-04 15:04:54.49	204.87	4.78	-44.2	-45.8	19.1	0.00e+00	0	36	0	1517289472	60	9522
2026-01-04 15:04:58.53	204.88	4.49	-44.7	-46.4	18.6	0.00e+00	9	36	0	1524629504	60	10143
2026-01-04 15:05:02.57	204.89	4.21	-44.5	-46.1	18.7	0.00e+00	90	37	0	1531969536	60	9847
2026-01-04 15:05:06.62	204.90	3.93	-44.8	-46.5	18.5	0.00e+00	0	37	0	1539309568	60	10291
2026-01-04 15:05:10.66	204.90	3.65	-44.7	-46.4	18.5	0.00e+00	0	36	0	1547698176	60	10234
2026-01-04 15:05:14.71	204.91	3.38	-44.2	-45.8	19.0	0.00e+00	77	37	0	1555038208	60	9508
2026-01-04 15:05:18.75	204.92	3.11	-45.2	-47.1	18.0	0.00e+00	0	37	0	1562378240	60	11096
2026-01-04 15:05:22.80	204.93	2.84	-51.5	-66.9	3.6	1.51e+00	0	37	104	1563426816	60	108485
2026-01-04 15:05:26.84	204.94	2.57	-51.7	-67.3	3.6	1.51e+00	0	37	104	1563426816	60	113201
2026-01-04 15:05:30.89	204.94	2.31	-51.9	-67.3	3.6	1.51e+00	0	37	104	1563426816	60	112583
2026-01-04 15:05:34.93	204.95	2.05	-51.9	-67.4	3.6	1.51e+00	0	37	104	1563426816	60	113916
2026-01-04 15:05:38.98	204.96	1.79	-52.0	-67.3	3.6	1.51e+00	0	37	104	1563426816	60	113429
2026-01-04 15:05:43.02	204.97	1.53	-52.0	-67.3	3.6	1.51e+00	0	37	104	1563426816	60	113322
2026-01-04 15:05:47.06	204.98	1.28	-52.0	-67.4	3.6	1.51e+00	0	37	104	1563426816	60	114603
2026-01-04 15:05:51.11	204.99	1.02	-52.0	-67.3	3.6	1.51e+00	0	37	104	1563426816	60	113571
2026-01-04 15:05:55.15	204.99	0.77	-51.9	-67.3	3.6	1.51e+00	0	37	104	1563426816	60	113247
2026-01-04 15:05:59.19	205.00	0.53	-52.2	-67.6	3.6	1.51e+00	0	37	104	1563426816	60	117084
2026-01-04 15:06:03.24	205.01	0.28	-51.9	-67.3	3.6	1.51e+00	0	37	104	1563426816	60	113157
2026-01-04 15:06:07.28	205.02	0.04	-51.9	-67.3	3.6	1.51e+00	0	37	104	1563426816	60	113543

#Closed at: 2026-01-04 15:06:09
#Recorded file [1563 MB]: D:/lorett/data/35034_260104_175037.dat