passes_logs/2026/01/04/R4.6S_Anadyr_2ch/R4.6S_Anadyr_2ch__20260104_071608_FENGYUN_3E_rec.log

#Pass ID: 20260104_071608_FENGYUN 3E
#Satellite: FENGYUN 3E
#Configuration: FENGYUN 3E
#almurnet v.1.7.20251203
#Start time: 2026-01-04 07:16:09

#Version: 2.2.20231116
#Station: R4.6S_Anadyr_2ch
#Location: 177.4865 lon 64.73178 lat
#TLE: 1 49008U 21062A   25350.97288215  .00000176  00000+0  10353-3 0  9997
#TLE: 2 49008  98.7477 351.4440 0000638 234.3856 125.7261 14.19881381230726

#Time	Az	El	Level	Level2	SNR	BER	BlckErr	Temp	State	Recorded	gain1	gain2
2026-01-04 07:16:09.23	230.15	0.03	-54.0	-65.1	3.5	8.46e-01	0	34	0	0	60	88729
2026-01-04 07:16:12.25	230.41	0.17	-54.6	-66.2	3.5	8.45e-01	0	35	104	0	60	100712
2026-01-04 07:16:15.28	230.66	0.30	-54.6	-66.3	3.6	8.45e-01	0	35	104	0	60	101438
2026-01-04 07:16:18.32	230.93	0.44	-54.8	-66.5	3.6	8.45e-01	0	36	104	0	60	103831
2026-01-04 07:16:21.35	231.19	0.58	-54.3	-65.9	3.6	8.46e-01	0	36	104	0	60	97373
2026-01-04 07:16:24.38	231.46	0.72	-54.0	-65.7	3.6	8.44e-01	0	36	104	0	60	94824
2026-01-04 07:16:27.42	231.72	0.86	-54.1	-65.7	3.6	8.46e-01	0	36	104	0	60	94786
2026-01-04 07:16:30.45	231.99	1.00	-54.5	-66.1	3.6	8.47e-01	0	36	104	0	60	99754
2026-01-04 07:16:33.48	232.27	1.13	-54.7	-66.3	3.6	8.45e-01	0	36	104	0	60	101941
2026-01-04 07:16:36.51	232.54	1.27	-54.9	-66.5	3.6	8.45e-01	0	36	104	0	60	104402
2026-01-04 07:16:39.55	232.82	1.41	-54.5	-66.1	3.6	8.45e-01	0	36	104	0	60	99874
2026-01-04 07:16:42.58	233.10	1.55	-54.4	-65.9	3.6	8.45e-01	0	36	104	0	60	97506
2026-01-04 07:16:45.61	233.38	1.69	-54.9	-66.5	3.6	8.45e-01	0	36	104	0	60	104124
2026-01-04 07:16:48.64	233.67	1.83	-54.0	-65.6	3.6	8.46e-01	0	36	104	0	60	94240
2026-01-04 07:16:51.68	233.96	1.97	-55.1	-66.6	3.6	8.44e-01	0	36	104	0	60	105996
2026-01-04 07:16:54.70	234.25	2.11	-54.6	-66.2	3.6	8.45e-01	0	36	104	0	60	101251
2026-01-04 07:16:57.74	234.54	2.25	-54.4	-66.0	3.6	8.45e-01	0	36	104	0	60	98168
2026-01-04 07:17:00.75	234.84	2.39	-54.8	-66.4	3.6	8.45e-01	0	36	104	0	60	102913
2026-01-04 07:17:03.78	235.13	2.53	-53.6	-65.3	3.6	8.45e-01	0	36	104	0	60	90553
2026-01-04 07:17:06.81	235.43	2.67	-54.5	-66.1	3.6	8.45e-01	0	36	104	0	60	99709
2026-01-04 07:17:09.85	235.74	2.81	-54.7	-66.4	3.6	8.46e-01	0	36	104	0	60	102622
2026-01-04 07:17:12.88	236.05	2.95	-54.7	-66.3	3.6	8.46e-01	0	36	104	0	60	102055
2026-01-04 07:17:15.91	236.36	3.09	-54.9	-66.5	3.6	8.45e-01	0	36	104	0	60	104305
2026-01-04 07:17:18.94	236.67	3.23	-54.3	-65.9	3.6	8.45e-01	0	36	104	0	60	97536
2026-01-04 07:17:21.98	236.98	3.37	-54.6	-66.2	3.6	8.45e-01	0	36	104	0	60	100646
2026-01-04 07:17:25.00	237.30	3.51	-54.5	-66.0	3.6	8.44e-01	0	36	104	0	60	98950
2026-01-04 07:17:28.04	237.62	3.65	-54.1	-65.7	3.6	8.45e-01	0	36	104	0	60	95181
2026-01-04 07:17:31.07	237.95	3.79	-54.4	-66.0	3.6	8.45e-01	0	36	104	0	60	98230
2026-01-04 07:17:34.11	238.27	3.93	-53.9	-65.6	3.6	8.45e-01	0	36	104	0	60	93724
2026-01-04 07:17:37.14	238.60	4.07	-54.5	-66.0	3.6	8.45e-01	0	36	104	0	60	98968
2026-01-04 07:17:40.17	238.94	4.21	-54.5	-66.2	3.6	8.44e-01	0	36	104	0	60	101287
2026-01-04 07:17:43.20	239.27	4.35	-54.3	-65.8	3.6	8.45e-01	0	36	104	0	60	96681
2026-01-04 07:17:46.24	239.61	4.49	-54.4	-66.0	3.6	8.46e-01	0	36	104	0	60	98640
2026-01-04 07:17:49.27	239.96	4.63	-54.3	-65.9	3.6	8.44e-01	0	36	104	0	60	97382
2026-01-04 07:17:52.30	240.30	4.77	-54.5	-66.2	3.6	8.46e-01	0	36	104	0	60	100183
2026-01-04 07:17:55.33	240.65	4.91	-54.3	-66.0	3.6	8.46e-01	0	36	104	0	60	98280
2026-01-04 07:17:58.36	241.00	5.05	-54.7	-66.3	3.6	8.44e-01	0	37	104	0	60	101798
2026-01-04 07:18:01.39	241.36	5.19	-54.2	-65.9	3.6	8.47e-01	0	36	104	0	60	97011
2026-01-04 07:18:04.42	241.72	5.33	-54.2	-65.8	3.6	8.46e-01	0	36	104	0	60	96321
2026-01-04 07:18:07.46	242.08	5.47	-54.6	-66.6	3.6	8.45e-01	0	37	104	0	60	105941
2026-01-04 07:18:10.49	242.44	5.61	-54.3	-66.1	3.6	8.45e-01	0	36	104	0	60	99930
2026-01-04 07:18:13.52	242.81	5.75	-54.6	-66.3	3.6	8.45e-01	0	36	104	0	60	102163
2026-01-04 07:18:16.55	243.18	5.89	-53.6	-65.2	3.6	8.44e-01	0	36	104	0	60	89409
2026-01-04 07:18:19.58	243.56	6.03	-54.0	-65.6	3.6	8.46e-01	0	37	104	0	60	94054
2026-01-04 07:18:22.62	243.94	6.16	-52.3	-63.7	3.6	8.46e-01	0	37	104	0	60	75934
2026-01-04 07:18:25.65	244.32	6.30	-51.7	-61.4	3.6	8.45e-01	0	37	104	6291456	60	57935
2026-01-04 07:18:28.68	244.70	6.44	-44.6	-45.9	16.1	4.34e-05	0	37	0	19922944	60	9711
2026-01-04 07:18:31.71	245.09	6.58	-47.3	-49.4	11.9	8.58e-05	0	37	0	41943040	60	14520
2026-01-04 07:18:34.74	245.49	6.71	-46.0	-47.7	14.1	1.10e-06	0	37	0	63963136	60	11979
2026-01-04 07:18:37.77	245.88	6.85	-45.7	-47.2	14.7	0.00e+00	0	37	0	84934656	60	11267
2026-01-04 07:18:40.81	246.28	6.98	-46.4	-48.1	14.1	2.20e-06	0	37	0	106954752	60	12558
2026-01-04 07:18:43.84	246.69	7.12	-44.0	-45.3	16.1	0.00e+00	0	37	0	128974848	60	9127
2026-01-04 07:18:46.87	247.09	7.25	-42.9	-44.0	17.2	0.00e+00	0	37	0	150994944	60	7845
2026-01-04 07:18:49.90	247.50	7.39	-43.3	-44.5	17.6	0.00e+00	0	37	0	173015040	60	8247
2026-01-04 07:18:52.93	247.92	7.52	-42.8	-43.9	17.9	0.00e+00	0	37	0	195035136	60	7720
2026-01-04 07:18:55.96	248.33	7.65	-42.7	-43.7	18.3	0.00e+00	0	37	0	217055232	60	7575
2026-01-04 07:18:59.00	248.76	7.79	-42.1	-43.1	19.1	0.00e+00	0	37	0	239075328	60	7018
2026-01-04 07:19:02.02	249.18	7.92	-40.7	-41.6	19.8	0.00e+00	0	37	0	260046848	60	5928
2026-01-04 07:19:05.06	249.61	8.05	-41.5	-42.4	19.5	0.00e+00	0	37	0	282066944	60	6515
2026-01-04 07:19:08.09	250.04	8.18	-41.0	-41.9	19.5	0.00e+00	0	37	0	304087040	60	6122
2026-01-04 07:19:11.12	250.48	8.31	-40.7	-41.6	19.9	0.00e+00	0	37	0	326107136	58	6636
2026-01-04 07:19:14.15	250.92	8.44	-39.2	-40.0	20.8	0.00e+00	0	37	0	348127232	58	5555
2026-01-04 07:19:17.18	251.36	8.57	-39.4	-40.2	20.6	0.00e+00	0	37	0	370147328	58	5660
2026-01-04 07:19:20.21	251.81	8.69	-38.6	-39.4	20.9	0.00e+00	0	37	0	392167424	56	5805
2026-01-04 07:19:23.25	252.26	8.82	-37.5	-38.3	21.6	0.00e+00	0	37	0	414187520	54	5724
2026-01-04 07:19:26.28	252.72	8.94	-37.3	-38.0	21.9	0.00e+00	0	37	0	435159040	54	5563
2026-01-04 07:19:29.31	253.18	9.07	-37.1	-37.9	22.0	0.00e+00	0	37	0	457179136	52	6120
2026-01-04 07:19:32.34	253.64	9.19	-37.4	-38.1	21.9	0.00e+00	0	37	0	479199232	52	6303
2026-01-04 07:19:35.38	254.11	9.32	-37.3	-38.0	21.7	0.00e+00	0	37	0	501219328	52	6244
2026-01-04 07:19:38.41	254.58	9.44	-37.1	-37.8	21.9	0.00e+00	0	37	0	523239424	52	6097
2026-01-04 07:19:41.44	255.05	9.56	-37.0	-37.7	22.1	0.00e+00	0	37	0	545259520	52	6023
2026-01-04 07:19:44.48	255.53	9.68	-37.0	-37.7	22.1	0.00e+00	0	37	0	567279616	52	6024
2026-01-04 07:19:47.51	256.01	9.79	-37.0	-37.8	22.3	0.00e+00	0	37	0	589299712	52	6054
2026-01-04 07:19:50.54	256.49	9.91	-37.2	-38.0	22.2	0.00e+00	0	37	0	611319808	52	6181
2026-01-04 07:19:53.57	256.98	10.03	-36.9	-37.7	22.4	0.00e+00	0	37	0	632291328	52	5969
2026-01-04 07:19:56.61	257.48	10.14	-36.9	-37.7	22.2	0.00e+00	0	37	0	654311424	52	5965
2026-01-04 07:19:59.64	257.97	10.25	-36.8	-37.5	22.2	0.00e+00	0	37	0	676331520	52	5895
2026-01-04 07:20:02.67	258.47	10.36	-36.7	-37.5	22.3	0.00e+00	0	37	0	698351616	52	5835
2026-01-04 07:20:05.71	258.98	10.48	-36.6	-37.3	22.4	0.00e+00	0	37	0	720371712	52	5757
2026-01-04 07:20:08.74	259.49	10.58	-36.6	-37.3	22.3	0.00e+00	0	37	0	742391808	52	5743
2026-01-04 07:20:11.77	260.00	10.69	-36.7	-37.4	22.3	0.00e+00	0	37	0	764411904	52	5808
2026-01-04 07:20:14.81	260.51	10.80	-36.6	-37.3	22.4	0.00e+00	0	37	0	786432000	52	5714
2026-01-04 07:20:17.84	261.03	10.90	-36.6	-37.4	22.3	0.00e+00	0	37	0	808452096	52	5783
2026-01-04 07:20:20.87	261.55	11.00	-36.9	-37.6	22.2	0.00e+00	0	37	0	829423616	52	5929
2026-01-04 07:20:23.90	262.08	11.10	-37.5	-38.3	22.3	0.00e+00	0	37	0	851443712	52	6397
2026-01-04 07:20:26.94	262.61	11.20	-37.6	-38.3	22.6	0.00e+00	0	37	0	873463808	52	6439
2026-01-04 07:20:29.97	263.14	11.30	-37.2	-37.9	22.6	0.00e+00	0	37	0	895483904	52	6140
2026-01-04 07:20:33.00	263.67	11.39	-37.0	-37.7	22.5	0.00e+00	0	37	0	917504000	52	5978
2026-01-04 07:20:36.04	264.21	11.49	-37.2	-37.9	22.3	0.00e+00	0	37	0	939524096	52	6157
2026-01-04 07:20:39.07	264.75	11.58	-37.3	-38.0	22.3	0.00e+00	0	37	0	960495616	52	6240
2026-01-04 07:20:42.10	265.30	11.67	-38.3	-38.9	22.5	0.00e+00	0	37	0	982515712	54	6164
2026-01-04 07:20:45.14	265.85	11.76	-37.7	-38.4	22.5	0.00e+00	0	37	0	1004535808	54	5774
2026-01-04 07:20:48.17	266.40	11.84	-37.6	-38.3	22.0	0.00e+00	0	37	0	1026555904	52	6452
2026-01-04 07:20:51.20	266.95	11.92	-38.1	-38.9	21.9	0.00e+00	0	37	0	1048576000	52	6898
2026-01-04 07:20:54.23	267.51	12.00	-37.1	-37.8	22.4	0.00e+00	0	37	0	1070596096	52	6094
2026-01-04 07:20:57.26	268.07	12.08	-37.2	-37.9	22.3	0.00e+00	0	37	0	1092616192	52	6166
2026-01-04 07:21:00.30	268.64	12.16	-38.4	-39.2	22.2	0.00e+00	0	37	0	1114636288	54	6336
2026-01-04 07:21:03.33	269.20	12.23	-37.6	-38.4	22.2	0.00e+00	0	37	0	1135607808	54	5763
2026-01-04 07:21:06.36	269.77	12.31	-37.5	-38.2	22.4	0.00e+00	0	37	0	1157627904	52	6377
2026-01-04 07:21:09.39	270.34	12.38	-36.7	-37.4	22.6	0.00e+00	0	37	0	1179648000	52	5820
2026-01-04 07:21:12.43	270.92	12.44	-36.4	-37.1	22.6	0.00e+00	0	37	0	1201668096	52	5628
2026-01-04 07:21:15.46	271.49	12.51	-37.0	-37.8	22.6	0.00e+00	0	37	0	1223688192	52	6037
2026-01-04 07:21:18.49	272.07	12.57	-36.7	-37.4	22.7	0.00e+00	0	37	0	1245708288	52	5777
2026-01-04 07:21:21.52	272.65	12.63	-36.4	-37.0	22.8	0.00e+00	0	37	0	1267728384	52	5565
2026-01-04 07:21:24.55	273.23	12.69	-36.9	-37.6	22.7	0.00e+00	0	37	0	1289748480	52	5920
2026-01-04 07:21:27.58	273.82	12.74	-36.3	-37.0	22.8	0.00e+00	0	37	0	1310720000	52	5546
2026-01-04 07:21:30.61	274.41	12.80	-36.7	-37.4	22.7	0.00e+00	0	37	0	1332740096	52	5789
2026-01-04 07:21:33.65	275.00	12.84	-36.8	-37.5	22.7	0.00e+00	0	37	0	1354760192	52	5862
2026-01-04 07:21:36.68	275.59	12.89	-36.4	-37.1	22.8	0.00e+00	0	37	0	1376780288	52	5596
2026-01-04 07:21:39.71	276.18	12.94	-37.2	-37.9	22.7	0.00e+00	0	37	0	1398800384	52	6148
2026-01-04 07:21:42.74	276.78	12.98	-36.2	-36.9	22.8	0.00e+00	0	37	0	1420820480	52	5496
2026-01-04 07:21:45.77	277.37	13.02	-36.3	-37.0	22.8	0.00e+00	0	37	0	1442840576	52	5559
2026-01-04 07:21:48.80	277.97	13.05	-36.4	-37.1	22.9	0.00e+00	0	37	0	1464860672	52	5613
2026-01-04 07:21:51.84	278.57	13.09	-36.9	-37.6	22.7	0.00e+00	0	37	0	1485832192	52	5964
2026-01-04 07:21:54.87	279.17	13.12	-37.0	-37.7	22.7	0.00e+00	0	37	0	1507852288	52	5980
2026-01-04 07:21:57.90	279.77	13.14	-36.8	-37.5	22.6	0.00e+00	0	37	0	1529872384	52	5836
2026-01-04 07:22:00.93	280.37	13.17	-36.6	-37.3	22.6	0.00e+00	0	37	0	1551892480	52	5725
2026-01-04 07:22:03.96	280.98	13.19	-36.1	-36.8	22.8	0.00e+00	0	37	0	1573912576	50	6086
2026-01-04 07:22:07.00	281.58	13.21	-36.8	-37.5	22.7	0.00e+00	0	37	0	1595932672	50	6587
2026-01-04 07:22:10.03	282.18	13.23	-37.0	-37.7	22.5	0.00e+00	0	37	0	1617952768	50	6753
2026-01-04 07:22:13.06	282.79	13.24	-36.9	-37.6	22.5	0.00e+00	0	37	0	1639972864	52	5935
2026-01-04 07:22:16.09	283.39	13.25	-37.2	-37.8	22.8	0.00e+00	0	37	0	1661992960	52	6099
2026-01-04 07:22:19.12	284.00	13.26	-37.1	-37.8	22.8	0.00e+00	0	37	0	1682964480	52	6062
2026-01-04 07:22:22.15	284.61	13.26	-37.1	-37.8	22.8	0.00e+00	0	37	0	1704984576	52	6070
2026-01-04 07:22:25.18	285.21	13.26	-37.6	-38.3	22.6	0.00e+00	0	37	0	1727004672	54	5714
2026-01-04 07:22:28.21	285.82	13.26	-36.8	-37.5	22.7	0.00e+00	0	37	0	1749024768	52	5845
2026-01-04 07:22:31.25	286.43	13.26	-36.4	-37.1	22.9	0.00e+00	0	37	0	1771044864	52	5616
2026-01-04 07:22:34.28	287.03	13.25	-36.5	-37.2	22.8	0.00e+00	0	37	0	1793064960	50	6359
2026-01-04 07:22:37.31	287.64	13.24	-36.2	-36.9	22.8	0.00e+00	0	37	0	1815085056	50	6122
2026-01-04 07:22:40.34	288.24	13.23	-36.5	-37.1	22.8	0.00e+00	0	37	0	1837105152	50	6309
2026-01-04 07:22:43.38	288.85	13.21	-35.9	-36.6	22.9	0.00e+00	0	37	0	1858076672	50	5952
2026-01-04 07:22:46.41	289.45	13.19	-36.4	-37.1	22.7	0.00e+00	0	37	0	1880096768	50	6286
2026-01-04 07:22:49.44	290.05	13.17	-36.2	-36.9	22.5	0.00e+00	0	37	0	1902116864	50	6144
2026-01-04 07:22:52.48	290.66	13.15	-36.3	-37.0	22.6	0.00e+00	0	37	0	1924136960	50	6240
2026-01-04 07:22:55.51	291.26	13.12	-36.1	-36.8	22.7	0.00e+00	0	37	0	1946157056	50	6071
2026-01-04 07:22:58.55	291.86	13.09	-35.9	-36.6	22.7	0.00e+00	0	37	0	1968177152	50	5960
2026-01-04 07:23:01.58	292.45	13.05	-36.0	-36.7	22.7	0.00e+00	0	37	0	1990197248	50	6016
2026-01-04 07:23:04.61	293.05	13.02	-35.9	-36.6	22.9	0.00e+00	0	37	0	2012217344	50	5937
2026-01-04 07:23:07.64	293.65	12.98	-35.8	-36.5	23.0	0.00e+00	0	37	0	2034237440	50	5872
2026-01-04 07:23:10.67	294.24	12.94	-36.1	-36.8	22.7	0.00e+00	0	37	0	2055208960	50	6038
2026-01-04 07:23:13.70	294.83	12.90	-36.5	-37.2	22.4	0.00e+00	0	37	0	2077229056	50	6368
2026-01-04 07:23:16.74	295.42	12.85	-36.5	-37.3	22.5	0.00e+00	0	37	0	2099249152	50	6400
2026-01-04 07:23:19.77	296.01	12.80	-37.5	-38.2	22.3	0.00e+00	0	37	0	2121269248	52	6374
2026-01-04 07:23:22.80	296.60	12.75	-36.2	-36.9	23.0	0.00e+00	0	37	0	2143289344	50	6107
2026-01-04 07:23:25.83	297.18	12.69	-36.6	-37.3	22.5	0.00e+00	0	37	0	2164260864	50	6404
2026-01-04 07:23:28.87	297.77	12.64	-36.6	-37.3	22.4	0.00e+00	0	37	0	2186280960	50	6427
2026-01-04 07:23:31.90	298.34	12.58	-37.4	-38.2	22.0	0.00e+00	0	37	0	2208301056	50	7137
2026-01-04 07:23:34.93	298.92	12.51	-36.6	-37.3	22.4	0.00e+00	0	37	0	2230321152	52	5755
2026-01-04 07:23:37.96	299.50	12.45	-36.4	-37.1	22.6	0.00e+00	0	37	0	2252341248	52	5629
2026-01-04 07:23:40.99	300.07	12.38	-36.3	-37.0	22.6	0.00e+00	0	37	0	2274361344	52	5548
2026-01-04 07:23:44.02	300.64	12.31	-36.2	-36.9	22.5	0.00e+00	0	37	0	2296381440	52	5459
2026-01-04 07:23:47.06	301.21	12.24	-36.7	-37.4	22.4	0.00e+00	0	37	0	2318401536	52	5795
2026-01-04 07:23:50.09	301.77	12.17	-36.6	-37.3	22.5	0.00e+00	0	37	0	2340421632	52	5743
2026-01-04 07:23:53.16	302.34	12.09	-36.4	-37.2	22.5	0.00e+00	0	37	0	2363490304	52	5635
2026-01-04 07:23:55.90	302.85	12.02	-36.6	-37.3	22.5	0.00e+00	0	37	0	2383413248	52	5758
2026-01-04 07:23:59.22	303.45	11.93	-36.8	-37.4	25.0	0.00e+00	0	37	0	2407530496	52	5792
2026-01-04 07:24:01.96	303.95	11.86	-37.0	-37.5	24.8	0.00e+00	0	37	0	2427453440	52	5866
2026-01-04 07:24:05.28	304.56	11.77	-36.8	-37.4	24.8	0.00e+00	0	37	0	2451570688	52	5792
2026-01-04 07:24:08.03	305.05	11.69	-36.8	-37.4	24.9	0.00e+00	0	37	0	2471493632	52	5775
2026-01-04 07:24:11.35	305.65	11.59	-36.6	-37.2	25.0	0.00e+00	0	37	0	2495610880	52	5640
2026-01-04 07:24:14.10	306.14	11.51	-36.6	-37.1	25.0	0.00e+00	0	37	0	2515533824	52	5601
2026-01-04 07:24:17.41	306.72	11.41	-36.7	-37.3	24.9	0.00e+00	0	37	0	2538602496	52	5731
2026-01-04 07:24:20.16	307.21	11.32	-36.6	-37.1	25.1	0.00e+00	0	37	0	2558525440	52	5607
2026-01-04 07:24:23.48	307.79	11.22	-36.8	-37.4	24.8	0.00e+00	0	37	0	2582642688	52	5786
2026-01-04 07:24:26.23	308.27	11.13	-36.8	-37.3	24.7	0.00e+00	0	37	0	2602565632	52	5757
2026-01-04 07:24:29.55	308.84	11.02	-36.9	-37.5	24.7	0.00e+00	0	37	0	2626682880	52	5844
2026-01-04 07:24:32.29	309.31	10.93	-37.1	-37.7	24.5	0.00e+00	0	37	0	2646605824	52	5980
2026-01-04 07:24:35.61	309.88	10.81	-37.1	-37.7	24.6	0.00e+00	0	37	0	2670723072	52	6003
2026-01-04 07:24:38.36	310.34	10.72	-37.6	-38.2	24.4	0.00e+00	0	37	0	2690646016	52	6357
2026-01-04 07:24:41.68	310.90	10.60	-37.5	-38.0	24.3	0.00e+00	0	37	0	2713714688	52	6225
2026-01-04 07:24:44.42	311.36	10.51	-37.8	-38.3	24.7	0.00e+00	0	37	0	2733637632	52	6451
2026-01-04 07:24:47.75	311.91	10.39	-37.6	-38.1	24.3	0.00e+00	0	37	0	2757754880	54	5604
2026-01-04 07:24:50.49	312.36	10.29	-38.3	-38.9	23.4	0.00e+00	0	37	0	2777677824	54	6105
2026-01-04 07:24:53.81	312.90	10.16	-37.8	-38.4	24.0	0.00e+00	0	37	0	2801795072	54	5802
2026-01-04 07:24:56.55	313.35	10.06	-37.6	-38.1	24.3	0.00e+00	0	37	0	2821718016	54	5614
2026-01-04 07:24:59.87	313.88	9.94	-37.3	-37.9	24.2	0.00e+00	0	37	0	2845835264	54	5448
2026-01-04 07:25:02.62	314.32	9.83	-37.0	-37.5	24.6	0.00e+00	0	37	0	2865758208	52	5885
2026-01-04 07:25:05.94	314.84	9.70	-37.2	-37.8	24.5	0.00e+00	0	37	0	2889875456	52	6041
2026-01-04 07:25:08.68	315.27	9.60	-38.2	-38.8	24.0	0.00e+00	0	37	0	2909798400	52	6792
2026-01-04 07:25:12.00	315.79	9.47	-38.2	-38.8	24.0	0.00e+00	0	37	0	2932867072	56	5406
2026-01-04 07:25:14.75	316.22	9.36	-38.3	-38.9	23.8	0.00e+00	0	37	0	2952790016	56	5451
2026-01-04 07:25:18.07	316.73	9.22	-38.2	-38.8	24.0	0.00e+00	0	37	0	2976907264	54	6055
2026-01-04 07:25:20.81	317.14	9.11	-38.4	-38.9	23.7	0.00e+00	0	37	0	2996830208	54	6166
2026-01-04 07:25:24.13	317.64	8.98	-38.6	-39.2	23.2	0.00e+00	0	37	0	3020947456	54	6362
2026-01-04 07:25:26.87	318.05	8.87	-38.7	-39.3	23.3	0.00e+00	0	37	0	3040870400	56	5728
2026-01-04 07:25:30.19	318.55	8.73	-38.1	-38.7	23.7	0.00e+00	0	37	0	3064987648	56	5328
2026-01-04 07:25:32.94	318.95	8.61	-38.9	-39.5	23.2	0.00e+00	0	37	0	3083862016	56	5882
2026-01-04 07:25:36.26	319.44	8.48	-38.4	-39.0	23.5	0.00e+00	0	37	0	3107979264	56	5557
2026-01-04 07:25:39.00	319.83	8.36	-38.3	-38.8	23.6	0.00e+00	0	37	0	3127902208	56	5435
2026-01-04 07:25:42.32	320.31	8.22	-38.5	-39.1	23.6	0.00e+00	0	37	0	3152019456	56	5572
2026-01-04 07:25:45.07	320.70	8.10	-38.9	-39.5	23.2	0.00e+00	0	37	0	3171942400	56	5847
2026-01-04 07:25:48.39	321.17	7.96	-38.7	-39.3	23.2	0.00e+00	0	37	0	3196059648	56	5708
2026-01-04 07:25:51.14	321.55	7.84	-38.5	-39.1	23.4	0.00e+00	0	37	0	3215982592	56	5595
2026-01-04 07:25:54.46	322.01	7.70	-39.5	-40.1	23.5	0.00e+00	0	37	0	3240099840	58	5619
2026-01-04 07:25:57.20	322.39	7.58	-39.2	-39.7	23.7	0.00e+00	0	37	0	3258974208	56	6023
2026-01-04 07:26:00.52	322.84	7.43	-38.7	-39.2	23.7	0.00e+00	0	37	0	3283091456	56	5682
2026-01-04 07:26:03.27	323.22	7.31	-39.4	-40.0	23.6	0.00e+00	0	37	0	3303014400	56	6211
2026-01-04 07:26:06.59	323.66	7.17	-39.3	-39.9	23.3	0.00e+00	0	37	0	3327131648	56	6136
2026-01-04 07:26:09.33	324.02	7.05	-39.6	-40.2	22.9	0.00e+00	0	37	0	3347054592	56	6347
2026-01-04 07:26:12.66	324.46	6.90	-40.1	-40.7	22.8	0.00e+00	0	37	0	3371171840	58	6017
2026-01-04 07:26:15.40	324.82	6.78	-40.2	-40.8	22.8	0.00e+00	0	37	0	3391094784	58	6082
2026-01-04 07:26:18.72	325.25	6.63	-41.1	-41.7	22.2	0.00e+00	0	37	0	3414163456	60	5985
2026-01-04 07:26:21.47	325.60	6.51	-40.3	-40.9	23.2	0.00e+00	0	37	0	3434086400	58	6140
2026-01-04 07:26:24.79	326.02	6.36	-39.0	-39.6	23.3	0.00e+00	0	37	0	3458203648	56	5957
2026-01-04 07:26:27.54	326.37	6.23	-39.0	-39.6	23.4	0.00e+00	0	37	0	3478126592	56	5953
2026-01-04 07:26:30.86	326.78	6.09	-38.8	-39.4	23.1	0.00e+00	0	37	0	3502243840	56	5804
2026-01-04 07:26:33.60	327.12	5.96	-39.0	-39.7	22.7	0.00e+00	0	37	0	3522166784	56	5969
2026-01-04 07:26:36.92	327.53	5.81	-38.9	-39.5	22.7	0.00e+00	0	37	0	3546284032	56	5868
2026-01-04 07:26:39.67	327.86	5.69	-39.9	-40.5	22.4	0.00e+00	0	37	0	3566206976	56	6575
2026-01-04 07:26:42.99	328.26	5.54	-39.6	-40.2	22.2	0.00e+00	0	37	0	3590324224	58	5685
2026-01-04 07:26:45.73	328.59	5.41	-39.5	-40.1	22.2	0.00e+00	0	37	0	3610247168	58	5596
2026-01-04 07:26:49.06	328.98	5.26	-39.2	-39.8	22.3	0.00e+00	0	37	0	3633315840	58	5406
2026-01-04 07:26:51.80	329.30	5.14	-39.6	-40.2	22.4	0.00e+00	0	37	0	3653238784	56	6372
2026-01-04 07:26:55.12	329.69	4.98	-39.8	-40.5	22.2	0.00e+00	0	37	0	3677356032	56	6563
2026-01-04 07:26:57.87	330.00	4.86	-39.9	-40.5	22.4	0.00e+00	0	37	0	3697278976	58	5847
2026-01-04 07:27:01.19	330.38	4.71	-40.0	-40.6	22.1	0.00e+00	0	37	0	3721396224	58	5934
2026-01-04 07:27:03.93	330.69	4.58	-40.1	-40.7	22.0	0.00e+00	0	37	0	3741319168	58	5999
2026-01-04 07:27:07.26	331.06	4.43	-40.0	-40.7	21.7	0.00e+00	0	37	0	3765436416	58	5977
2026-01-04 07:27:10.00	331.37	4.30	-40.9	-41.6	21.3	0.00e+00	0	37	0	3785359360	60	5963
2026-01-04 07:27:13.32	331.73	4.15	-41.0	-41.7	20.5	0.00e+00	0	37	0	3808428032	60	5999
2026-01-04 07:27:16.07	332.03	4.03	-42.0	-42.8	19.1	0.00e+00	0	38	0	3828350976	60	6839
2026-01-04 07:27:19.39	332.39	3.87	-43.2	-44.3	16.6	0.00e+00	0	37	0	3852468224	60	8119
2026-01-04 07:27:22.13	332.68	3.75	-45.5	-47.4	13.1	1.14e-05	0	37	0	3872391168	60	11508
2026-01-04 07:27:25.46	333.03	3.60	-47.9	-51.7	7.2	9.94e-02	0	37	0	3896508416	60	19077
2026-01-04 07:27:28.20	333.32	3.47	-48.8	-57.6	3.7	8.37e-01	0	37	104	3901751296	60	37282
2026-01-04 07:27:31.52	333.67	3.32	-48.2	-59.0	3.6	8.46e-01	0	37	104	3901751296	60	43971
2026-01-04 07:27:34.27	333.95	3.19	-48.2	-59.7	3.6	8.46e-01	0	38	104	3901751296	60	47419
2026-01-04 07:27:37.59	334.29	3.04	-48.4	-60.0	3.6	8.45e-01	0	38	104	3901751296	60	49183
2026-01-04 07:27:40.33	334.57	2.91	-48.7	-60.3	3.6	8.45e-01	0	37	104	3901751296	60	50963
2026-01-04 07:27:43.66	334.90	2.76	-52.8	-64.5	3.6	8.45e-01	0	38	104	3901751296	60	83127
2026-01-04 07:27:46.40	335.18	2.64	-52.7	-64.8	3.6	8.45e-01	0	38	104	3901751296	60	85710
2026-01-04 07:27:49.72	335.50	2.49	-52.6	-64.5	3.6	8.46e-01	0	37	104	3901751296	60	83000
2026-01-04 07:27:52.47	335.77	2.36	-52.5	-64.5	3.6	8.45e-01	0	37	104	3901751296	60	82692
2026-01-04 07:27:55.79	336.09	2.21	-52.8	-64.5	3.6	8.45e-01	0	37	104	3901751296	60	82392
2026-01-04 07:27:58.53	336.36	2.08	-52.7	-64.5	3.6	8.46e-01	0	37	104	3901751296	60	82500
2026-01-04 07:28:01.86	336.67	1.93	-53.3	-64.9	3.6	8.45e-01	0	38	104	3901751296	60	87098
2026-01-04 07:28:04.60	336.93	1.81	-53.3	-64.9	3.6	8.45e-01	0	38	104	3901751296	60	87092
2026-01-04 07:28:07.92	337.24	1.66	-53.7	-65.4	3.6	8.45e-01	0	38	104	3901751296	60	91477
2026-01-04 07:28:10.67	337.50	1.53	-53.4	-65.0	3.6	8.45e-01	0	38	104	3901751296	60	87822
2026-01-04 07:28:13.99	337.80	1.38	-53.6	-65.3	3.6	8.45e-01	0	38	104	3901751296	60	90448
2026-01-04 07:28:16.73	338.05	1.26	-53.0	-64.6	3.6	8.46e-01	0	38	104	3901751296	60	84006
2026-01-04 07:28:20.06	338.35	1.10	-53.3	-65.1	3.5	8.45e-01	0	38	104	3901751296	60	88299
2026-01-04 07:28:22.80	338.60	0.98	-53.1	-64.8	3.6	8.45e-01	0	38	104	3901751296	60	85760
2026-01-04 07:28:26.12	338.89	0.83	-53.2	-64.8	3.6	8.45e-01	0	38	104	3901751296	60	85993
2026-01-04 07:28:28.87	339.13	0.71	-53.5	-65.2	3.6	8.46e-01	0	38	104	3901751296	60	89358
2026-01-04 07:28:32.19	339.42	0.56	-53.2	-64.9	3.6	8.45e-01	0	38	104	3901751296	60	86615
2026-01-04 07:28:34.94	339.66	0.43	-53.1	-64.7	3.6	8.46e-01	0	38	104	3901751296	60	84985
2026-01-04 07:28:38.26	339.95	0.28	-53.4	-65.1	3.6	8.45e-01	0	38	104	3901751296	60	88265
2026-01-04 07:28:41.00	340.18	0.16	-53.6	-65.3	3.6	8.45e-01	0	37	104	3901751296	60	90749
2026-01-04 07:28:44.32	340.46	0.01	-54.1	-65.8	3.6	8.45e-01	0	38	104	3901751296	60	96131
2026-01-04 07:28:47.06	340.69	-0.11	-53.7	-65.4	3.6	8.45e-01	0	38	104	3901751296	60	92298

#Closed at: 2026-01-04 07:28:48
#Recorded file [3901 MB]: D:/lorett/data/35034_260104_101609.dat