passes_logs/2026/01/04/R4.6S_Anadyr_2ch/R4.6S_Anadyr_2ch__20260104_053309_FENGYUN_3E_rec.log

#Pass ID: 20260104_053309_FENGYUN 3E
#Satellite: FENGYUN 3E
#Configuration: FENGYUN 3E
#almurnet v.1.7.20251203
#Start time: 2026-01-04 05:33:12

#Version: 2.2.20231116
#Station: R4.6S_Anadyr_2ch
#Location: 177.4865 lon 64.73178 lat
#TLE: 1 49008U 21062A   25350.97288215  .00000176  00000+0  10353-3 0  9997
#TLE: 2 49008  98.7477 351.4440 0000638 234.3856 125.7261 14.19881381230726

#Time	Az	El	Level	Level2	SNR	BER	BlckErr	Temp	State	Recorded	gain1	gain2
2026-01-04 05:33:12.36	183.10	0.17	-54.0	-64.1	3.3	8.39e-01	0	35	0	0	60	78759
2026-01-04 05:33:16.40	183.25	0.41	-54.6	-66.4	3.6	8.45e-01	0	36	104	0	60	103050
2026-01-04 05:33:20.44	183.39	0.65	-54.1	-65.9	3.6	8.45e-01	0	36	104	0	60	96983
2026-01-04 05:33:24.48	183.54	0.89	-53.8	-65.3	3.6	8.45e-01	0	36	104	0	60	90762
2026-01-04 05:33:28.53	183.69	1.13	-54.4	-65.9	3.6	8.45e-01	0	36	104	0	60	97636
2026-01-04 05:33:32.57	183.84	1.37	-51.5	-62.8	3.6	8.45e-01	0	36	104	0	60	68066
2026-01-04 05:33:36.61	183.99	1.62	-52.1	-63.7	3.6	8.45e-01	0	36	104	0	60	75865
2026-01-04 05:33:40.66	184.15	1.86	-52.4	-64.0	3.6	8.46e-01	0	36	104	0	60	78402
2026-01-04 05:33:44.70	184.31	2.11	-52.2	-63.7	3.6	8.46e-01	0	36	104	0	60	75773
2026-01-04 05:33:48.74	184.47	2.36	-51.9	-63.3	3.6	8.46e-01	0	36	104	0	60	72491
2026-01-04 05:33:52.78	184.63	2.62	-51.7	-63.1	3.6	8.47e-01	0	36	104	0	60	70372
2026-01-04 05:33:56.82	184.80	2.87	-51.1	-62.4	3.6	8.46e-01	0	36	104	0	60	64736
2026-01-04 05:34:00.86	184.97	3.13	-50.8	-59.7	3.7	8.39e-01	0	36	104	0	60	47880
2026-01-04 05:34:04.91	185.14	3.39	-50.5	-56.1	4.7	8.30e-01	0	36	0	0	60	31348
2026-01-04 05:34:08.95	185.31	3.65	-42.2	-43.1	18.9	0.00e+00	0	36	0	28311552	60	7057
2026-01-04 05:34:12.99	185.49	3.92	-41.0	-41.8	20.6	0.00e+00	0	36	0	57671680	60	6037
2026-01-04 05:34:17.04	185.67	4.18	-51.8	-58.9	4.3	5.24e-01	0	36	0	85983232	60	43561
2026-01-04 05:34:21.08	185.86	4.45	-40.1	-40.7	22.2	0.00e+00	0	36	0	110100480	58	6015
2026-01-04 05:34:25.12	186.04	4.72	-40.4	-41.1	22.2	0.00e+00	0	36	0	139460608	60	5578
2026-01-04 05:34:29.17	186.23	5.00	-40.0	-40.6	22.6	0.00e+00	0	36	0	168820736	58	5948
2026-01-04 05:34:33.21	186.43	5.28	-39.7	-40.4	22.7	0.00e+00	0	36	0	198180864	58	5790
2026-01-04 05:34:37.25	186.62	5.55	-40.0	-40.7	22.7	0.00e+00	0	36	0	226492416	58	5968
2026-01-04 05:34:41.30	186.82	5.84	-41.3	-42.0	22.8	0.00e+00	0	36	0	255852544	60	6209
2026-01-04 05:34:45.34	187.03	6.12	-41.4	-42.0	22.6	0.00e+00	0	36	0	285212672	60	6239
2026-01-04 05:34:49.38	187.23	6.41	-40.6	-41.3	23.1	0.00e+00	0	36	0	314572800	58	6393
2026-01-04 05:34:53.43	187.45	6.70	-39.9	-40.5	23.1	0.00e+00	0	36	0	343932928	58	5884
2026-01-04 05:34:57.47	187.66	7.00	-39.9	-40.5	23.4	0.00e+00	0	37	0	373293056	58	5882
2026-01-04 05:35:01.52	187.88	7.29	-40.2	-40.8	22.6	0.00e+00	0	36	0	401604608	60	5422
2026-01-04 05:35:05.56	188.11	7.59	-39.9	-40.5	23.4	0.00e+00	0	36	0	430964736	58	5875
2026-01-04 05:35:09.61	188.33	7.90	-39.2	-39.9	23.5	0.00e+00	0	36	0	460324864	56	6110
2026-01-04 05:35:13.65	188.57	8.20	-40.2	-40.8	23.2	0.00e+00	0	36	0	489684992	58	6082
2026-01-04 05:35:17.69	188.81	8.51	-39.7	-40.3	23.8	0.00e+00	0	36	0	519045120	58	5729
2026-01-04 05:35:21.74	189.05	8.83	-39.5	-40.1	23.8	0.00e+00	0	36	0	548405248	56	6272
2026-01-04 05:35:25.78	189.30	9.14	-39.1	-39.7	23.9	0.00e+00	0	36	0	577765376	58	5330
2026-01-04 05:35:29.82	189.55	9.47	-39.2	-39.7	23.8	0.00e+00	0	37	0	607125504	56	6021
2026-01-04 05:35:33.87	189.81	9.79	-38.9	-39.4	24.3	0.00e+00	0	36	0	635437056	56	5804
2026-01-04 05:35:37.91	190.07	10.12	-38.1	-38.7	24.5	0.00e+00	0	36	0	664797184	54	5996
2026-01-04 05:35:41.96	190.34	10.45	-38.8	-39.4	23.7	0.00e+00	0	36	0	694157312	56	5802
2026-01-04 05:35:46.00	190.61	10.79	-38.9	-39.4	23.9	0.00e+00	0	36	0	723517440	56	5811
2026-01-04 05:35:50.04	190.89	11.13	-37.7	-38.3	24.3	0.00e+00	0	36	0	752877568	54	5723
2026-01-04 05:35:54.09	191.18	11.47	-37.8	-38.3	24.4	0.00e+00	0	37	0	782237696	54	5734
2026-01-04 05:35:58.13	191.48	11.82	-39.7	-40.3	23.9	0.00e+00	0	36	0	810549248	58	5743
2026-01-04 05:36:02.18	191.78	12.18	-38.3	-38.9	24.6	0.00e+00	0	36	0	839909376	54	6115
2026-01-04 05:36:06.22	192.08	12.53	-38.1	-38.7	24.8	0.00e+00	0	36	0	869269504	56	5355
2026-01-04 05:36:10.27	192.40	12.90	-37.6	-38.1	24.9	0.00e+00	0	36	0	898629632	54	5603
2026-01-04 05:36:14.31	192.72	13.26	-37.5	-38.1	25.5	0.00e+00	0	37	0	927989760	54	5575
2026-01-04 05:36:18.36	193.05	13.63	-37.6	-38.2	25.6	0.00e+00	0	37	0	956301312	52	6328
2026-01-04 05:36:22.40	193.39	14.01	-36.5	-37.0	25.6	0.00e+00	0	36	0	985661440	52	5536
2026-01-04 05:36:26.44	193.73	14.39	-36.3	-36.8	25.5	0.00e+00	0	37	0	1015021568	52	5432
2026-01-04 05:36:30.49	194.09	14.78	-36.3	-36.8	25.6	0.00e+00	0	37	0	1044381696	52	5434
2026-01-04 05:36:34.53	194.45	15.17	-35.7	-36.2	25.9	0.00e+00	0	37	0	1073741824	50	5670
2026-01-04 05:36:38.58	194.83	15.57	-35.8	-36.3	25.9	0.00e+00	0	36	0	1103101952	50	5740
2026-01-04 05:36:42.62	195.21	15.97	-36.3	-36.8	25.8	0.00e+00	0	37	0	1131413504	50	6075
2026-01-04 05:36:46.66	195.60	16.38	-36.1	-36.6	26.0	0.00e+00	0	37	0	1160773632	50	5932
2026-01-04 05:36:50.71	196.01	16.80	-36.5	-37.1	26.1	0.00e+00	0	37	0	1190133760	50	6255
2026-01-04 05:36:54.75	196.42	17.22	-36.4	-36.9	26.5	0.00e+00	0	37	0	1219493888	50	6156
2026-01-04 05:36:58.79	196.85	17.64	-35.3	-35.8	26.7	0.00e+00	0	37	0	1248854016	50	5380
2026-01-04 05:37:02.84	197.28	18.07	-35.6	-36.1	26.9	0.00e+00	0	37	0	1278214144	48	6265
2026-01-04 05:37:06.88	197.73	18.51	-34.7	-35.2	26.9	0.00e+00	0	37	0	1307574272	48	5631
2026-01-04 05:37:10.93	198.20	18.96	-35.5	-36.0	26.8	0.00e+00	0	37	0	1336934400	48	6218
2026-01-04 05:37:14.97	198.67	19.41	-35.1	-35.6	27.0	0.00e+00	0	37	0	1365245952	48	5926
2026-01-04 05:37:19.02	199.16	19.87	-35.0	-35.5	26.9	0.00e+00	0	37	0	1394606080	48	5834
2026-01-04 05:37:23.06	199.66	20.33	-34.6	-35.2	26.5	0.00e+00	0	37	0	1423966208	48	5632
2026-01-04 05:37:27.11	200.18	20.80	-35.2	-35.7	27.0	0.00e+00	0	37	0	1453326336	48	5987
2026-01-04 05:37:31.15	200.72	21.27	-34.6	-35.1	27.0	0.00e+00	0	37	0	1482686464	48	5570
2026-01-04 05:37:35.19	201.27	21.76	-34.5	-35.0	26.9	0.00e+00	0	37	0	1512046592	48	5559
2026-01-04 05:37:39.24	201.84	22.25	-34.6	-35.1	26.9	0.00e+00	0	37	0	1540358144	48	5569
2026-01-04 05:37:43.28	202.42	22.74	-34.5	-35.0	27.2	0.00e+00	0	37	0	1569718272	48	5530
2026-01-04 05:37:47.32	203.02	23.25	-34.1	-34.6	27.3	0.00e+00	0	37	0	1599078400	46	5939
2026-01-04 05:37:51.37	203.65	23.76	-34.2	-34.7	27.4	0.00e+00	0	37	0	1628438528	46	5990
2026-01-04 05:37:55.41	204.29	24.27	-34.2	-34.6	27.5	0.00e+00	0	36	0	1657798656	46	5961
2026-01-04 05:37:59.45	204.95	24.79	-34.9	-35.3	27.4	0.00e+00	0	37	0	1686110208	46	6452
2026-01-04 05:38:03.50	205.64	25.32	-34.3	-34.8	27.1	0.00e+00	0	37	0	1715470336	46	6069
2026-01-04 05:38:07.54	206.35	25.86	-34.3	-34.8	27.4	0.00e+00	0	37	0	1744830464	46	6059
2026-01-04 05:38:11.59	207.08	26.40	-34.0	-34.5	27.5	0.00e+00	0	37	0	1774190592	46	5856
2026-01-04 05:38:15.63	207.84	26.95	-34.2	-34.7	27.5	0.00e+00	0	37	0	1803550720	46	6031
2026-01-04 05:38:19.67	208.62	27.50	-33.1	-33.5	28.1	0.00e+00	0	37	0	1832910848	44	5893
2026-01-04 05:38:23.72	209.43	28.06	-33.5	-34.0	28.0	0.00e+00	0	37	0	1861222400	44	6220
2026-01-04 05:38:27.76	210.27	28.63	-33.6	-34.1	27.9	0.00e+00	0	37	0	1890582528	44	6258
2026-01-04 05:38:31.81	211.14	29.20	-33.7	-34.2	27.6	0.00e+00	0	37	0	1919942656	44	6344
2026-01-04 05:38:35.85	212.04	29.77	-34.0	-34.5	27.7	0.00e+00	0	37	0	1949302784	44	6570
2026-01-04 05:38:39.90	212.97	30.35	-34.4	-34.9	27.5	0.00e+00	0	37	0	1978662912	46	6165
2026-01-04 05:38:43.94	213.93	30.93	-33.9	-34.4	27.5	0.00e+00	0	37	0	2008023040	46	5795
2026-01-04 05:38:47.98	214.93	31.51	-33.6	-34.0	27.9	0.00e+00	0	37	0	2037383168	46	5559
2026-01-04 05:38:52.03	215.97	32.09	-33.8	-34.2	27.7	0.00e+00	0	37	0	2066743296	46	5687
2026-01-04 05:38:56.07	217.04	32.68	-33.3	-33.8	27.7	0.00e+00	0	37	0	2095054848	46	5391
2026-01-04 05:39:00.12	218.15	33.27	-33.3	-33.8	27.8	0.00e+00	0	37	0	2124414976	46	5387
2026-01-04 05:39:04.16	219.30	33.85	-33.4	-33.8	27.8	0.00e+00	0	37	0	2153775104	44	6102
2026-01-04 05:39:08.21	220.49	34.44	-35.3	-35.7	27.5	0.00e+00	0	37	0	2183135232	48	6032
2026-01-04 05:39:12.25	221.72	35.02	-35.7	-36.2	27.4	0.00e+00	0	37	0	2212495360	48	6330
2026-01-04 05:39:16.30	223.00	35.59	-34.7	-35.2	27.9	0.00e+00	0	37	0	2241855488	48	5642
2026-01-04 05:39:20.34	224.32	36.16	-34.2	-34.7	28.0	0.00e+00	0	37	0	2270167040	48	5355
2026-01-04 05:39:24.38	225.69	36.72	-35.1	-35.5	27.9	0.00e+00	0	37	0	2299527168	48	5895
2026-01-04 05:39:28.43	227.11	37.28	-35.0	-35.5	27.9	0.00e+00	0	37	0	2328887296	48	5848
2026-01-04 05:39:32.47	228.57	37.82	-35.0	-35.5	27.6	0.00e+00	0	37	0	2358247424	48	5836
2026-01-04 05:39:36.52	230.08	38.35	-35.2	-35.7	27.5	0.00e+00	0	37	0	2387607552	48	6011
2026-01-04 05:39:40.56	231.64	38.87	-34.1	-34.5	27.9	0.00e+00	0	37	0	2415919104	46	5883
2026-01-04 05:39:44.61	233.25	39.37	-33.6	-34.1	28.0	0.00e+00	0	37	0	2445279232	46	5594
2026-01-04 05:39:48.65	234.90	39.85	-34.7	-35.1	27.5	0.00e+00	0	37	0	2474639360	46	6307
2026-01-04 05:39:52.69	236.60	40.31	-34.5	-34.9	27.7	0.00e+00	0	37	0	2503999488	48	5484
2026-01-04 05:39:56.74	238.36	40.75	-35.0	-35.5	27.4	0.00e+00	0	37	0	2533359616	46	6560
2026-01-04 05:40:00.78	240.15	41.16	-35.3	-35.8	27.5	0.00e+00	0	37	0	2562719744	48	6040
2026-01-04 05:40:04.83	242.00	41.54	-35.4	-35.9	27.7	0.00e+00	0	37	0	2592079872	48	6144
2026-01-04 05:40:08.87	243.88	41.90	-35.2	-35.7	27.8	0.00e+00	0	37	0	2621440000	48	5981
2026-01-04 05:40:12.92	245.80	42.22	-35.0	-35.5	27.7	0.00e+00	0	37	0	2649751552	48	5836
2026-01-04 05:40:16.96	247.76	42.51	-35.3	-35.8	27.7	0.00e+00	0	37	0	2679111680	48	6060
2026-01-04 05:40:21.00	249.75	42.76	-35.2	-35.7	27.8	0.00e+00	0	37	0	2708471808	50	5344
2026-01-04 05:40:25.05	251.77	42.98	-35.0	-35.5	27.6	0.00e+00	0	37	0	2737831936	48	5876
2026-01-04 05:40:29.09	253.82	43.16	-35.7	-36.1	27.3	0.00e+00	0	37	0	2767192064	50	5624
2026-01-04 05:40:33.14	255.89	43.30	-35.4	-35.9	27.2	0.00e+00	0	37	0	2796552192	48	6146
2026-01-04 05:40:37.18	257.96	43.40	-34.6	-35.1	27.8	0.00e+00	0	37	0	2824863744	48	5576
2026-01-04 05:40:41.23	260.06	43.46	-35.1	-35.6	27.5	0.00e+00	0	37	0	2854223872	48	5956
2026-01-04 05:40:45.27	262.15	43.47	-35.2	-35.7	27.3	0.00e+00	0	37	0	2883584000	46	6746
2026-01-04 05:40:49.32	264.25	43.45	-34.3	-34.8	27.6	0.00e+00	0	37	0	2912944128	48	5417
2026-01-04 05:40:53.36	266.33	43.38	-35.1	-35.6	27.2	0.00e+00	0	37	0	2942304256	48	5917
2026-01-04 05:40:57.41	268.41	43.27	-34.7	-35.1	26.9	0.00e+00	0	37	0	2971664384	48	5630
2026-01-04 05:41:01.45	270.47	43.12	-35.3	-35.8	27.5	0.00e+00	0	37	0	2999975936	48	6034
2026-01-04 05:41:05.50	272.51	42.94	-34.9	-35.4	27.4	0.00e+00	0	37	0	3029336064	48	5790
2026-01-04 05:41:09.54	274.52	42.71	-35.8	-36.3	27.1	0.00e+00	0	37	0	3058696192	48	6423
2026-01-04 05:41:13.58	276.50	42.45	-34.5	-35.0	27.5	0.00e+00	0	37	0	3088056320	48	5550
2026-01-04 05:41:17.63	278.45	42.15	-34.7	-35.2	27.5	0.00e+00	0	37	0	3117416448	48	5643
2026-01-04 05:41:21.67	280.36	41.82	-35.7	-36.2	27.6	0.00e+00	0	37	0	3146776576	50	5674
2026-01-04 05:41:25.72	282.24	41.46	-33.8	-34.3	27.9	0.00e+00	0	37	0	3175088128	46	5709
2026-01-04 05:41:29.76	284.06	41.07	-35.1	-35.5	26.9	0.00e+00	0	37	0	3204448256	48	5888
2026-01-04 05:41:33.80	285.84	40.66	-34.3	-34.8	27.3	0.00e+00	0	37	0	3233808384	46	6058
2026-01-04 05:41:37.85	287.58	40.22	-34.0	-34.5	27.6	0.00e+00	0	37	0	3263168512	46	5853
2026-01-04 05:41:41.89	289.27	39.75	-33.5	-34.0	28.0	0.00e+00	0	37	0	3292528640	46	5518
2026-01-04 05:41:45.93	290.91	39.27	-33.6	-34.0	27.8	0.00e+00	0	37	0	3321888768	46	5565
2026-01-04 05:41:49.97	292.50	38.77	-34.0	-34.5	27.7	0.00e+00	0	37	0	3351248896	46	5876
2026-01-04 05:41:54.02	294.05	38.25	-35.6	-36.1	26.7	0.00e+00	0	37	0	3379560448	48	6294
2026-01-04 05:41:58.06	295.55	37.72	-34.6	-35.0	27.9	0.00e+00	0	37	0	3408920576	46	6223
2026-01-04 05:42:02.11	297.00	37.18	-34.3	-34.8	27.7	0.00e+00	0	37	0	3438280704	46	6040
2026-01-04 05:42:06.15	298.40	36.63	-34.4	-34.9	27.9	0.00e+00	0	37	0	3467640832	46	6105
2026-01-04 05:42:10.20	299.75	36.06	-33.6	-34.1	27.9	0.00e+00	0	37	0	3497000960	46	5576
2026-01-04 05:42:14.24	301.06	35.50	-33.6	-34.0	28.1	0.00e+00	0	37	0	3526361088	46	5559
2026-01-04 05:42:18.28	302.33	34.92	-34.0	-34.5	27.8	0.00e+00	0	37	0	3554672640	46	5852
2026-01-04 05:42:22.33	303.55	34.34	-33.7	-34.2	27.8	0.00e+00	0	37	0	3584032768	46	5633
2026-01-04 05:42:26.37	304.73	33.76	-33.6	-34.1	27.9	0.00e+00	0	37	0	3613392896	46	5569
2026-01-04 05:42:30.42	305.87	33.18	-34.4	-34.8	27.8	0.00e+00	0	37	0	3642753024	48	5428
2026-01-04 05:42:34.46	306.96	32.60	-35.0	-35.6	27.4	0.00e+00	0	37	0	3672113152	48	5897
2026-01-04 05:42:38.50	308.02	32.01	-34.6	-35.1	27.2	0.00e+00	0	37	0	3701473280	48	5625
2026-01-04 05:42:42.55	309.05	31.43	-33.7	-34.2	27.8	0.00e+00	0	37	0	3729784832	46	5669
2026-01-04 05:42:46.59	310.04	30.85	-34.0	-34.5	27.8	0.00e+00	0	37	0	3759144960	46	5841
2026-01-04 05:42:50.64	310.99	30.28	-34.4	-34.9	27.5	0.00e+00	0	37	0	3788505088	46	6126
2026-01-04 05:42:54.68	311.92	29.70	-34.6	-35.0	27.7	0.00e+00	0	37	0	3817865216	48	5546
2026-01-04 05:42:58.73	312.81	29.13	-34.5	-34.9	27.4	0.00e+00	0	37	0	3847225344	48	5500
2026-01-04 05:43:02.77	313.67	28.57	-35.1	-35.6	27.4	0.00e+00	0	37	0	3876585472	48	5897
2026-01-04 05:43:06.81	314.50	28.01	-34.7	-35.2	27.5	0.00e+00	0	37	0	3904897024	48	5652
2026-01-04 05:43:10.86	315.30	27.45	-34.3	-34.8	27.5	0.00e+00	0	37	0	3934257152	48	5383
2026-01-04 05:43:14.90	316.08	26.91	-34.6	-35.1	27.2	0.00e+00	0	37	0	3963617280	48	5596
2026-01-04 05:43:18.94	316.83	26.36	-34.8	-35.3	27.3	0.00e+00	0	37	0	3992977408	48	5736
2026-01-04 05:43:22.99	317.56	25.82	-34.8	-35.3	27.1	0.00e+00	0	37	0	4022337536	48	5751
2026-01-04 05:43:27.03	318.26	25.29	-34.7	-35.2	26.7	0.00e+00	0	37	0	4051697664	48	5645
2026-01-04 05:43:31.07	318.94	24.77	-35.2	-35.7	26.9	0.00e+00	0	37	0	4081057792	48	5993
2026-01-04 05:43:35.12	319.60	24.25	-34.8	-35.3	26.8	0.00e+00	0	37	0	4109369344	48	5736
2026-01-04 05:43:39.16	320.24	23.74	-34.3	-34.8	27.5	0.00e+00	0	37	0	4138729472	48	5384
2026-01-04 05:43:43.21	320.86	23.23	-34.6	-35.1	27.4	0.00e+00	0	37	0	4168089600	48	5587
2026-01-04 05:43:47.25	321.46	22.73	-35.0	-35.5	27.3	0.00e+00	0	37	0	4197449728	48	5862
2026-01-04 05:43:51.29	322.04	22.24	-34.7	-35.2	27.1	0.00e+00	0	37	0	4226809856	48	5655
2026-01-04 05:43:55.34	322.60	21.76	-34.9	-35.4	27.1	0.00e+00	0	37	0	4256169984	48	5770
2026-01-04 05:43:59.38	323.15	21.28	-34.6	-35.0	27.3	0.00e+00	0	37	0	4284481536	48	5562
2026-01-04 05:44:03.43	323.68	20.80	-34.3	-34.8	27.3	0.00e+00	0	37	0	4313841664	48	5421
2026-01-04 05:44:07.47	324.20	20.34	-34.9	-35.4	26.9	0.00e+00	0	37	0	4343201792	48	5824
2026-01-04 05:44:11.51	324.70	19.88	-35.5	-36.0	26.5	0.00e+00	0	37	0	4372561920	48	6194
2026-01-04 05:44:15.56	325.19	19.43	-35.2	-35.7	26.6	0.00e+00	0	37	0	4401922048	48	5967
2026-01-04 05:44:19.60	325.66	18.98	-35.4	-35.9	26.6	0.00e+00	0	37	0	4431282176	48	6120
2026-01-04 05:44:23.65	326.12	18.54	-35.4	-35.9	26.6	0.00e+00	0	37	0	4459593728	48	6136
2026-01-04 05:44:27.69	326.57	18.10	-35.9	-36.4	26.5	0.00e+00	0	37	0	4488953856	48	6479
2026-01-04 05:44:31.73	327.00	17.68	-35.6	-36.1	26.4	0.00e+00	0	37	0	4518313984	48	6286
2026-01-04 05:44:35.78	327.43	17.25	-35.6	-36.2	26.2	0.00e+00	0	37	0	4547674112	48	6318
2026-01-04 05:44:39.82	327.84	16.84	-35.7	-36.2	26.1	0.00e+00	0	37	0	4577034240	48	6387
2026-01-04 05:44:43.87	328.24	16.42	-36.1	-36.6	26.0	0.00e+00	0	37	0	4605345792	50	5932
2026-01-04 05:44:47.91	328.64	16.02	-36.1	-36.6	26.0	0.00e+00	0	37	0	4634705920	50	5962
2026-01-04 05:44:51.95	329.02	15.62	-35.9	-36.4	26.0	0.00e+00	0	37	0	4664066048	50	5762
2026-01-04 05:44:56.00	329.39	15.22	-35.9	-36.4	25.9	0.00e+00	0	37	0	4693426176	50	5806
2026-01-04 05:45:00.04	329.76	14.84	-36.6	-37.1	25.6	0.00e+00	0	37	0	4722786304	50	6304
2026-01-04 05:45:04.09	330.11	14.45	-36.5	-37.1	25.5	0.00e+00	0	37	0	4752146432	50	6249
2026-01-04 05:45:08.13	330.46	14.07	-37.6	-38.1	25.1	0.00e+00	0	37	0	4781506560	52	6279
2026-01-04 05:45:12.18	330.80	13.70	-37.9	-38.4	25.1	0.00e+00	0	37	0	4810866688	54	5798
2026-01-04 05:45:16.22	331.13	13.33	-37.4	-37.9	25.1	0.00e+00	0	37	0	4840226816	54	5501
2026-01-04 05:45:20.27	331.45	12.96	-37.5	-38.0	24.9	0.00e+00	0	37	0	4868538368	54	5537
2026-01-04 05:45:24.31	331.76	12.60	-37.4	-37.9	24.9	0.00e+00	0	37	0	4897898496	54	5494
2026-01-04 05:45:28.35	332.07	12.25	-37.6	-38.1	24.8	0.00e+00	0	37	0	4927258624	54	5627
2026-01-04 05:45:32.40	332.37	11.90	-37.6	-38.1	24.9	0.00e+00	0	37	0	4956618752	54	5613
2026-01-04 05:45:36.44	332.67	11.55	-37.3	-37.8	24.8	0.00e+00	0	37	0	4985978880	54	5428
2026-01-04 05:45:40.49	332.96	11.21	-38.0	-38.6	24.7	0.00e+00	0	37	0	5014290432	54	5906
2026-01-04 05:45:44.53	333.24	10.87	-37.7	-38.3	24.3	0.00e+00	0	37	0	5043650560	54	5703
2026-01-04 05:45:48.58	333.52	10.54	-38.1	-38.7	24.4	0.00e+00	0	37	0	5073010688	54	5988
2026-01-04 05:45:52.62	333.79	10.21	-38.4	-39.0	24.0	0.00e+00	0	37	0	5102370816	54	6198
2026-01-04 05:45:56.66	334.05	9.88	-38.5	-39.1	24.1	0.00e+00	0	37	0	5131730944	54	6264
2026-01-04 05:46:00.71	334.31	9.56	-38.9	-39.4	23.7	0.00e+00	0	37	0	5161091072	54	6523
2026-01-04 05:46:04.75	334.56	9.24	-38.3	-38.9	23.7	0.00e+00	0	37	0	5189402624	54	6138
2026-01-04 05:46:08.79	334.81	8.93	-38.4	-39.0	23.7	0.00e+00	0	37	0	5218762752	54	6239
2026-01-04 05:46:12.83	335.06	8.61	-38.7	-39.3	23.8	0.00e+00	0	37	0	5248122880	54	6416
2026-01-04 05:46:16.88	335.30	8.31	-39.4	-40.0	23.3	0.00e+00	0	37	0	5277483008	56	6207
2026-01-04 05:46:20.92	335.53	8.00	-39.2	-39.7	23.6	0.00e+00	0	37	0	5306843136	56	6023
2026-01-04 05:46:24.96	335.76	7.70	-39.0	-39.6	23.3	0.00e+00	0	37	0	5335154688	56	5933
2026-01-04 05:46:29.00	335.99	7.40	-38.8	-39.4	23.0	0.00e+00	0	37	0	5364514816	56	5777
2026-01-04 05:46:33.05	336.21	7.11	-39.4	-40.0	23.2	0.00e+00	0	37	0	5393874944	56	6184
2026-01-04 05:46:37.09	336.43	6.81	-39.5	-40.1	22.9	0.00e+00	0	37	0	5423235072	56	6285
2026-01-04 05:46:41.14	336.64	6.53	-40.0	-40.6	22.6	0.00e+00	0	37	0	5452595200	58	5939
2026-01-04 05:46:45.18	336.85	6.24	-39.8	-40.4	22.7	0.00e+00	0	37	0	5481955328	58	5823
2026-01-04 05:46:49.22	337.06	5.96	-40.4	-41.1	21.9	0.00e+00	0	37	0	5511315456	58	6271
2026-01-04 05:46:53.27	337.26	5.68	-40.8	-41.5	21.4	0.00e+00	0	37	0	5539627008	60	5860
2026-01-04 05:46:57.31	337.46	5.40	-40.7	-41.5	20.8	0.00e+00	0	37	0	5568987136	60	5845
2026-01-04 05:47:01.36	337.66	5.12	-42.7	-43.5	19.2	0.00e+00	0	37	0	5598347264	60	7402
2026-01-04 05:47:05.40	337.85	4.85	-42.9	-44.0	17.5	0.00e+00	0	37	0	5627707392	60	7785
2026-01-04 05:47:09.44	338.04	4.58	-43.7	-45.0	15.6	0.00e+00	0	37	0	5657067520	60	8794
2026-01-04 05:47:13.49	338.23	4.31	-45.5	-47.5	12.4	1.06e-04	0	37	0	5686427648	60	11745
2026-01-04 05:47:17.53	338.41	4.05	-47.8	-51.2	8.8	2.26e-02	0	37	0	5715787776	60	17919
2026-01-04 05:47:21.58	338.59	3.78	-48.9	-54.1	5.2	7.02e-01	0	37	0	5742002176	60	25081
2026-01-04 05:47:25.62	338.77	3.52	-49.1	-58.4	3.6	8.43e-01	0	37	104	5743050752	60	41012
2026-01-04 05:47:29.67	338.94	3.26	-49.9	-60.7	3.6	8.45e-01	0	37	104	5743050752	60	53208
2026-01-04 05:47:33.71	339.12	3.01	-49.6	-61.2	3.6	8.46e-01	0	37	104	5743050752	60	56419
2026-01-04 05:47:37.75	339.28	2.76	-49.4	-61.0	3.6	8.45e-01	0	37	104	5743050752	60	55235
2026-01-04 05:47:41.79	339.45	2.50	-54.6	-66.2	3.6	8.46e-01	0	37	104	5743050752	60	100987
2026-01-04 05:47:45.84	339.62	2.25	-53.0	-64.7	3.6	8.46e-01	0	37	104	5743050752	60	84586
2026-01-04 05:47:49.88	339.78	2.01	-53.6	-65.3	3.6	8.44e-01	0	37	104	5743050752	60	90277
2026-01-04 05:47:53.93	339.94	1.76	-53.7	-65.3	3.6	8.45e-01	0	37	104	5743050752	60	90275
2026-01-04 05:47:57.97	340.10	1.52	-54.3	-66.0	3.6	8.45e-01	0	37	104	5743050752	60	97912
2026-01-04 05:48:02.01	340.25	1.28	-53.4	-65.1	3.6	8.45e-01	0	37	104	5743050752	60	88302
2026-01-04 05:48:06.06	340.40	1.04	-54.8	-66.5	3.6	8.45e-01	0	37	104	5743050752	60	103659
2026-01-04 05:48:10.10	340.56	0.80	-54.5	-66.1	3.6	8.46e-01	0	38	104	5743050752	60	99680
2026-01-04 05:48:14.14	340.70	0.56	-55.0	-66.6	3.6	8.46e-01	0	38	104	5743050752	60	105629
2026-01-04 05:48:18.19	340.85	0.33	-54.1	-65.8	3.6	8.46e-01	0	38	104	5743050752	60	95677
2026-01-04 05:48:22.23	341.00	0.09	-55.1	-66.7	3.6	8.47e-01	0	37	104	5743050752	60	106947

#Closed at: 2026-01-04 05:48:25
#Recorded file [5743 MB]: D:/lorett/data/35034_260104_083312.dat