passes_logs/2026/01/04/R4.6S_Anadyr_2ch/R4.6S_Anadyr_2ch__20260104_035236_FENGYUN_3E_rec.log

#Pass ID: 20260104_035236_FENGYUN 3E
#Satellite: FENGYUN 3E
#Configuration: FENGYUN 3E
#almurnet v.1.7.20251203
#Start time: 2026-01-04 03:52:37

#Version: 2.2.20231116
#Station: R4.6S_Anadyr_2ch
#Location: 177.4865 lon 64.73178 lat
#TLE: 1 49008U 21062A   25350.97288215  .00000176  00000+0  10353-3 0  9997
#TLE: 2 49008  98.7477 351.4440 0000638 234.3856 125.7261 14.19881381230726

#Time	Az	El	Level	Level2	SNR	BER	BlckErr	Temp	State	Recorded	gain1	gain2
2026-01-04 03:52:37.24	140.97	0.05	-53.9	-71.6	3.5	3.02e+01	0	34	0	0	60	197228
2026-01-04 03:52:41.28	140.91	0.29	-54.1	-65.7	3.6	8.44e-01	0	35	104	0	60	94570
2026-01-04 03:52:45.32	140.86	0.53	-52.8	-64.2	3.6	8.45e-01	0	35	104	0	60	79655
2026-01-04 03:52:49.37	140.80	0.78	-52.6	-64.1	3.6	8.46e-01	0	35	104	0	60	78643
2026-01-04 03:52:53.41	140.74	1.03	-52.3	-63.8	3.6	8.44e-01	0	35	104	0	60	76761
2026-01-04 03:52:57.45	140.68	1.28	-49.7	-61.2	3.6	8.45e-01	0	36	104	0	60	56841
2026-01-04 03:53:01.50	140.61	1.53	-49.7	-61.0	3.6	8.45e-01	0	36	104	0	60	55081
2026-01-04 03:53:05.54	140.55	1.79	-49.3	-61.5	3.6	8.46e-01	0	36	104	0	60	58305
2026-01-04 03:53:09.58	140.48	2.05	-49.5	-61.0	3.6	8.45e-01	0	36	104	0	60	55557
2026-01-04 03:53:13.63	140.42	2.31	-49.5	-60.9	3.6	8.45e-01	0	36	104	0	60	54894
2026-01-04 03:53:17.67	140.35	2.57	-49.8	-61.1	3.6	8.46e-01	0	36	104	0	60	55971
2026-01-04 03:53:21.71	140.28	2.83	-49.6	-60.9	3.6	8.45e-01	0	36	104	0	60	54716
2026-01-04 03:53:25.75	140.21	3.10	-49.7	-61.1	3.6	8.46e-01	0	36	104	0	60	55761
2026-01-04 03:53:29.79	140.14	3.37	-49.8	-58.9	3.6	8.43e-01	0	36	104	0	60	43236
2026-01-04 03:53:33.83	140.07	3.64	-48.0	-51.6	9.1	5.50e-02	0	36	0	12582912	60	18788
2026-01-04 03:53:37.88	139.99	3.91	-46.5	-48.9	11.8	5.60e-04	0	36	0	41943040	60	13742
2026-01-04 03:53:41.92	139.91	4.19	-48.8	-53.3	6.1	1.51e-02	0	36	0	56623104	60	22895
2026-01-04 03:53:45.97	139.83	4.47	-44.5	-46.2	14.4	5.70e-06	0	36	0	80740352	60	10013
2026-01-04 03:53:50.01	139.75	4.75	-43.7	-45.1	15.4	0.00e+00	0	36	0	110100480	60	8915
2026-01-04 03:53:53.98	139.67	5.04	-43.4	-44.7	16.2	0.00e+00	0	36	0	138412032	60	8474
2026-01-04 03:53:58.03	139.59	5.32	-42.7	-43.8	17.0	0.00e+00	0	36	0	167772160	60	7643
2026-01-04 03:54:02.07	139.50	5.62	-42.4	-43.5	17.6	0.00e+00	0	36	0	196083712	60	7357
2026-01-04 03:54:06.11	139.41	5.91	-41.9	-42.9	18.2	0.00e+00	0	36	0	225443840	60	6863
2026-01-04 03:54:10.16	139.32	6.21	-42.3	-43.2	18.5	0.00e+00	0	36	0	254803968	60	7154
2026-01-04 03:54:14.20	139.23	6.51	-40.9	-41.8	19.9	0.00e+00	0	36	0	284164096	60	6034
2026-01-04 03:54:18.25	139.14	6.82	-40.9	-41.7	20.6	0.00e+00	0	37	0	313524224	60	5996
2026-01-04 03:54:22.29	139.04	7.13	-40.4	-41.2	20.8	0.00e+00	0	36	0	342884352	60	5631
2026-01-04 03:54:26.33	138.94	7.44	-39.3	-39.9	21.8	0.00e+00	0	36	0	372244480	58	5493
2026-01-04 03:54:30.38	138.84	7.76	-39.0	-39.7	22.4	0.00e+00	0	37	0	401604608	56	5983
2026-01-04 03:54:34.42	138.74	8.08	-38.9	-39.6	22.3	0.00e+00	0	37	0	429916160	56	5909
2026-01-04 03:54:38.47	138.63	8.40	-38.5	-39.1	22.7	0.00e+00	0	37	0	459276288	56	5630
2026-01-04 03:54:42.51	138.52	8.73	-38.5	-39.1	23.1	0.00e+00	0	37	0	488636416	56	5618
2026-01-04 03:54:46.55	138.41	9.06	-37.3	-37.9	23.9	0.00e+00	0	37	0	517996544	54	5462
2026-01-04 03:54:50.60	138.29	9.40	-37.1	-37.7	24.1	0.00e+00	0	37	0	547356672	54	5334
2026-01-04 03:54:54.64	138.18	9.74	-37.2	-37.7	24.2	0.00e+00	0	37	0	576716800	52	6025
2026-01-04 03:54:58.69	138.06	10.09	-37.1	-37.6	24.2	0.00e+00	0	37	0	605028352	52	5932
2026-01-04 03:55:02.73	137.93	10.44	-37.3	-37.8	24.2	0.00e+00	0	37	0	634388480	52	6091
2026-01-04 03:55:06.78	137.80	10.80	-37.1	-37.7	24.4	0.00e+00	0	37	0	663748608	52	5983
2026-01-04 03:55:10.82	137.67	11.16	-36.9	-37.5	24.5	0.00e+00	0	37	0	693108736	52	5844
2026-01-04 03:55:14.86	137.54	11.53	-36.7	-37.2	24.7	0.00e+00	0	37	0	722468864	52	5674
2026-01-04 03:55:18.91	137.40	11.90	-36.8	-37.4	24.8	0.00e+00	0	37	0	750780416	52	5785
2026-01-04 03:55:22.95	137.26	12.28	-36.7	-37.3	24.9	0.00e+00	0	37	0	780140544	52	5712
2026-01-04 03:55:27.00	137.11	12.66	-36.3	-36.9	25.1	0.00e+00	0	37	0	809500672	52	5440
2026-01-04 03:55:31.04	136.96	13.05	-36.5	-37.0	25.0	0.00e+00	0	37	0	838860800	52	5549
2026-01-04 03:55:35.08	136.81	13.44	-36.1	-36.6	25.4	0.00e+00	0	37	0	868220928	52	5271
2026-01-04 03:55:39.13	136.65	13.85	-36.2	-36.7	25.4	0.00e+00	0	37	0	897581056	50	6007
2026-01-04 03:55:43.17	136.48	14.26	-36.4	-37.0	25.2	0.00e+00	0	37	0	925892608	52	5505
2026-01-04 03:55:47.21	136.31	14.67	-35.8	-36.3	25.6	0.00e+00	0	37	0	955252736	50	5756
2026-01-04 03:55:51.26	136.14	15.09	-35.5	-36.0	25.9	0.00e+00	0	37	0	984612864	50	5518
2026-01-04 03:55:55.30	135.96	15.52	-35.3	-35.8	26.0	0.00e+00	0	37	0	1013972992	50	5437
2026-01-04 03:55:59.35	135.77	15.96	-35.0	-35.5	26.3	0.00e+00	0	37	0	1043333120	48	5835
2026-01-04 03:56:03.39	135.58	16.40	-35.8	-36.3	25.7	0.00e+00	0	37	0	1072693248	48	6411
2026-01-04 03:56:07.44	135.38	16.85	-35.2	-35.7	26.2	0.00e+00	0	37	0	1102053376	48	6000
2026-01-04 03:56:11.48	135.18	17.31	-35.0	-35.5	26.4	0.00e+00	0	37	0	1131413504	48	5882
2026-01-04 03:56:15.53	134.97	17.78	-35.4	-36.0	26.3	0.00e+00	0	37	0	1159725056	48	6174
2026-01-04 03:56:19.57	134.75	18.26	-35.3	-35.8	26.4	0.00e+00	0	37	0	1189085184	48	6037
2026-01-04 03:56:23.61	134.53	18.74	-35.3	-35.8	26.6	0.00e+00	0	37	0	1218445312	48	6085
2026-01-04 03:56:27.66	134.29	19.24	-35.1	-35.6	26.5	0.00e+00	0	37	0	1247805440	48	5909
2026-01-04 03:56:31.70	134.05	19.74	-35.3	-35.8	26.3	0.00e+00	0	37	0	1277165568	48	6077
2026-01-04 03:56:35.75	133.80	20.26	-34.8	-35.3	26.7	0.00e+00	0	37	0	1306525696	48	5741
2026-01-04 03:56:39.79	133.55	20.78	-35.2	-35.7	26.3	0.00e+00	0	37	0	1334837248	48	6017
2026-01-04 03:56:43.84	133.28	21.32	-34.4	-34.9	27.0	0.00e+00	0	37	0	1364197376	48	5460
2026-01-04 03:56:47.88	133.00	21.86	-34.9	-35.4	26.7	0.00e+00	0	37	0	1393557504	48	5806
2026-01-04 03:56:51.92	132.71	22.42	-34.5	-35.0	27.0	0.00e+00	0	37	0	1422917632	48	5542
2026-01-04 03:56:55.97	132.41	22.99	-34.3	-34.8	27.3	0.00e+00	0	37	0	1452277760	48	5379
2026-01-04 03:57:00.01	132.10	23.57	-34.5	-35.0	27.0	0.00e+00	0	37	0	1481637888	48	5507
2026-01-04 03:57:04.06	131.78	24.16	-33.8	-34.3	27.3	0.00e+00	0	37	0	1509949440	46	5740
2026-01-04 03:57:08.10	131.44	24.77	-34.2	-34.6	27.3	0.00e+00	0	37	0	1539309568	46	5953
2026-01-04 03:57:12.14	131.09	25.39	-34.0	-34.5	27.5	0.00e+00	0	37	0	1568669696	46	5829
2026-01-04 03:57:16.19	130.73	26.02	-33.6	-34.1	27.4	0.00e+00	0	37	0	1598029824	46	5617
2026-01-04 03:57:20.23	130.35	26.66	-33.9	-34.4	27.6	0.00e+00	0	37	0	1627389952	46	5801
2026-01-04 03:57:24.27	129.95	27.32	-34.0	-34.4	27.6	0.00e+00	0	37	0	1656750080	46	5826
2026-01-04 03:57:28.32	129.53	28.00	-34.8	-35.2	27.3	0.00e+00	0	37	0	1685061632	46	6372
2026-01-04 03:57:32.36	129.10	28.69	-34.4	-34.9	27.1	0.00e+00	0	37	0	1714421760	46	6141
2026-01-04 03:57:36.40	128.65	29.39	-34.4	-34.9	26.9	0.00e+00	0	37	0	1743781888	48	5481
2026-01-04 03:57:40.45	128.18	30.11	-33.6	-34.1	27.6	0.00e+00	0	37	0	1773142016	46	5603
2026-01-04 03:57:44.49	127.68	30.85	-33.9	-34.4	27.6	0.00e+00	0	37	0	1802502144	46	5770
2026-01-04 03:57:48.54	127.16	31.61	-32.9	-33.4	28.2	0.00e+00	0	37	0	1831862272	44	5780
2026-01-04 03:57:52.58	126.62	32.38	-33.0	-33.5	28.1	0.00e+00	0	37	0	1861222400	44	5838
2026-01-04 03:57:56.62	126.04	33.16	-33.6	-34.1	27.8	0.00e+00	0	37	0	1890582528	44	6261
2026-01-04 03:58:00.67	125.44	33.97	-33.9	-34.4	27.6	0.00e+00	0	37	0	1918894080	46	5803
2026-01-04 03:58:04.71	124.81	34.79	-33.5	-34.0	27.8	0.00e+00	0	37	0	1948254208	46	5533
2026-01-04 03:58:08.76	124.14	35.63	-33.7	-34.2	27.7	0.00e+00	0	37	0	1977614336	46	5650
2026-01-04 03:58:12.80	123.44	36.49	-33.5	-34.0	27.9	0.00e+00	0	37	0	2006974464	46	5505
2026-01-04 03:58:16.85	122.70	37.36	-34.3	-34.8	27.5	0.00e+00	0	37	0	2036334592	48	5394
2026-01-04 03:58:20.89	121.91	38.26	-34.6	-35.0	27.4	0.00e+00	0	37	0	2064646144	48	5566
2026-01-04 03:58:24.94	121.08	39.17	-33.9	-34.4	27.7	0.00e+00	0	37	0	2094006272	46	5791
2026-01-04 03:58:28.98	120.21	40.09	-34.5	-35.0	27.0	0.00e+00	0	37	0	2123366400	46	6221
2026-01-04 03:58:33.02	119.28	41.04	-34.3	-34.8	27.4	0.00e+00	0	37	0	2152726528	46	6036
2026-01-04 03:58:37.07	118.29	42.00	-34.0	-34.4	27.5	0.00e+00	0	37	0	2182086656	48	5187
2026-01-04 03:58:41.11	117.24	42.97	-33.6	-34.0	27.9	0.00e+00	0	37	0	2211446784	46	5565
2026-01-04 03:58:45.16	116.12	43.96	-33.7	-34.2	28.1	0.00e+00	0	37	0	2239758336	46	5667
2026-01-04 03:58:49.20	114.93	44.96	-33.9	-34.4	27.6	0.00e+00	0	37	0	2269118464	46	5810
2026-01-04 03:58:53.25	113.66	45.98	-34.2	-34.7	27.5	0.00e+00	0	37	0	2298478592	46	5996
2026-01-04 03:58:57.29	112.31	47.00	-34.2	-34.8	27.4	0.00e+00	0	37	0	2327838720	46	6038
2026-01-04 03:59:01.34	110.87	48.03	-35.0	-35.5	26.8	0.00e+00	0	37	0	2357198848	48	5855
2026-01-04 03:59:05.38	109.32	49.05	-35.4	-35.9	26.5	0.00e+00	0	37	0	2386558976	48	6128
2026-01-04 03:59:09.43	107.67	50.08	-35.3	-35.8	26.6	0.00e+00	0	37	0	2415919104	48	6100
2026-01-04 03:59:13.47	105.90	51.11	-34.5	-34.9	26.9	0.00e+00	0	37	0	2444230656	48	5501
2026-01-04 03:59:17.51	104.01	52.12	-35.0	-35.5	26.7	0.00e+00	0	37	0	2473590784	48	5843
2026-01-04 03:59:21.56	101.98	53.13	-35.6	-36.1	26.3	0.00e+00	0	37	0	2502950912	48	6314
2026-01-04 03:59:25.60	99.81	54.11	-34.3	-34.7	27.2	0.00e+00	0	37	0	2532311040	48	5373
2026-01-04 03:59:29.65	97.48	55.07	-35.5	-36.0	26.6	0.00e+00	0	37	0	2561671168	48	6209
2026-01-04 03:59:33.69	95.00	55.99	-34.8	-35.3	27.1	0.00e+00	0	37	0	2591031296	48	5712
2026-01-04 03:59:37.74	92.34	56.87	-35.8	-36.3	26.3	0.00e+00	0	37	0	2620391424	50	5716
2026-01-04 03:59:41.78	89.52	57.70	-35.1	-35.6	27.1	0.00e+00	0	37	0	2648702976	48	5922
2026-01-04 03:59:45.83	86.53	58.47	-35.4	-35.9	26.6	0.00e+00	0	37	0	2678063104	50	5455
2026-01-04 03:59:49.87	83.36	59.17	-35.3	-35.8	26.3	0.00e+00	0	37	0	2707423232	50	5407
2026-01-04 03:59:53.91	80.04	59.80	-36.1	-36.7	26.0	0.00e+00	0	37	0	2736783360	50	5972
2026-01-04 03:59:57.95	76.56	60.34	-35.2	-35.6	26.5	0.00e+00	0	37	0	2766143488	48	5960
2026-01-04 04:00:02.00	72.93	60.78	-35.1	-35.6	26.7	0.00e+00	0	37	0	2794455040	48	5933
2026-01-04 04:00:06.04	69.20	61.12	-35.5	-36.0	25.9	0.00e+00	0	37	0	2823815168	48	6212
2026-01-04 04:00:10.09	65.37	61.36	-35.0	-35.5	26.5	0.00e+00	0	37	0	2853175296	48	5889
2026-01-04 04:00:14.13	61.50	61.48	-35.5	-36.1	26.3	0.00e+00	0	37	0	2882535424	48	6249
2026-01-04 04:00:18.18	57.60	61.48	-35.6	-36.0	26.7	0.00e+00	0	37	0	2911895552	48	6240
2026-01-04 04:00:22.22	53.72	61.37	-35.4	-35.9	26.7	0.00e+00	0	37	0	2941255680	50	5482
2026-01-04 04:00:26.26	49.90	61.15	-35.6	-36.1	26.6	0.00e+00	0	37	0	2969567232	48	6258
2026-01-04 04:00:30.31	46.15	60.82	-36.1	-36.6	26.1	0.00e+00	0	37	0	2998927360	50	5964
2026-01-04 04:00:34.35	42.52	60.39	-35.7	-36.2	26.2	0.00e+00	0	37	0	3028287488	50	5658
2026-01-04 04:00:38.40	39.02	59.86	-37.1	-37.6	25.6	0.00e+00	0	37	0	3057647616	50	6646
2026-01-04 04:00:42.44	35.68	59.24	-35.5	-36.0	26.5	0.00e+00	0	37	0	3087007744	50	5547
2026-01-04 04:00:46.48	32.51	58.55	-35.3	-35.8	26.7	0.00e+00	0	37	0	3116367872	50	5411
2026-01-04 04:00:50.53	29.49	57.78	-34.6	-35.0	27.1	0.00e+00	0	37	0	3145728000	48	5553
2026-01-04 04:00:54.57	26.66	56.96	-34.8	-35.3	26.4	0.00e+00	0	37	0	3174039552	48	5699
2026-01-04 04:00:58.61	24.00	56.09	-35.7	-36.2	26.8	0.00e+00	0	37	0	3203399680	50	5670
2026-01-04 04:01:02.65	21.51	55.17	-34.7	-35.2	26.9	0.00e+00	0	37	0	3232759808	48	5641
2026-01-04 04:01:06.70	19.17	54.22	-35.0	-35.5	26.7	0.00e+00	0	37	0	3262119936	48	5836
2026-01-04 04:01:10.74	16.99	53.24	-36.7	-37.2	25.8	0.00e+00	0	37	0	3291480064	52	5641
2026-01-04 04:01:14.79	14.94	52.24	-35.9	-36.4	26.1	0.00e+00	0	37	0	3320840192	48	6518
2026-01-04 04:01:18.83	13.04	51.23	-34.8	-35.3	26.8	0.00e+00	0	37	0	3350200320	48	5726
2026-01-04 04:01:22.88	11.26	50.21	-34.8	-35.2	27.1	0.00e+00	0	37	0	3378511872	48	5677
2026-01-04 04:01:26.92	9.60	49.18	-34.8	-35.3	27.0	0.00e+00	0	37	0	3407872000	48	5724
2026-01-04 04:01:30.96	8.05	48.16	-35.3	-35.8	26.4	0.00e+00	0	38	0	3437232128	48	6061
2026-01-04 04:01:35.01	6.59	47.13	-34.4	-34.9	27.2	0.00e+00	0	37	0	3466592256	48	5497
2026-01-04 04:01:39.05	5.24	46.12	-34.1	-34.6	27.4	0.00e+00	0	37	0	3495952384	46	5907
2026-01-04 04:01:43.10	3.96	45.10	-34.0	-34.5	27.4	0.00e+00	0	37	0	3524263936	46	5887
2026-01-04 04:01:47.14	2.77	44.11	-34.0	-34.4	27.3	0.00e+00	0	37	0	3553624064	46	5827
2026-01-04 04:01:51.19	1.65	43.12	-34.4	-34.8	27.6	0.00e+00	0	37	0	3582984192	50	4833
2026-01-04 04:01:55.22	0.59	42.15	-34.2	-34.6	27.4	0.00e+00	0	37	0	3612344320	46	5956
2026-01-04 04:01:59.27	359.60	41.19	-34.0	-34.5	27.5	0.00e+00	0	37	0	3641704448	46	5880
2026-01-04 04:02:03.32	358.67	40.24	-34.7	-35.2	27.3	0.00e+00	0	37	0	3671064576	48	5661
2026-01-04 04:02:07.36	357.79	39.32	-36.0	-36.4	26.7	0.00e+00	0	37	0	3699376128	48	6537
2026-01-04 04:02:11.40	356.95	38.41	-34.2	-34.7	26.9	0.00e+00	0	37	0	3728736256	46	5994
2026-01-04 04:02:15.45	356.17	37.52	-33.6	-34.1	27.9	0.00e+00	0	37	0	3758096384	46	5581
2026-01-04 04:02:19.49	355.42	36.64	-33.8	-34.3	27.3	0.00e+00	0	38	0	3787456512	46	5734
2026-01-04 04:02:23.54	354.72	35.78	-34.2	-34.7	27.7	0.00e+00	0	38	0	3816816640	46	5978
2026-01-04 04:02:27.58	354.05	34.95	-33.5	-34.0	27.7	0.00e+00	0	37	0	3846176768	46	5543
2026-01-04 04:02:31.62	353.41	34.13	-34.0	-34.5	27.4	0.00e+00	0	38	0	3875536896	46	5835
2026-01-04 04:02:35.67	352.81	33.32	-34.6	-35.0	27.9	0.00e+00	0	37	0	3903848448	46	6223
2026-01-04 04:02:39.71	352.24	32.53	-34.3	-34.7	28.0	0.00e+00	0	37	0	3933208576	46	6012
2026-01-04 04:02:43.76	351.69	31.76	-33.5	-33.9	28.0	0.00e+00	0	38	0	3962568704	46	5502
2026-01-04 04:02:47.80	351.17	31.01	-33.6	-34.1	28.0	0.00e+00	0	37	0	3991928832	46	5588
2026-01-04 04:02:51.85	350.67	30.27	-34.6	-35.1	27.9	0.00e+00	0	38	0	4021288960	48	5612
2026-01-04 04:02:55.89	350.20	29.55	-34.6	-35.1	27.6	0.00e+00	0	37	0	4050649088	48	5586
2026-01-04 04:02:59.94	349.75	28.85	-34.8	-35.3	27.4	0.00e+00	0	38	0	4080009216	48	5725
2026-01-04 04:03:03.98	349.32	28.16	-35.0	-35.5	26.7	0.00e+00	0	38	0	4108320768	48	5889
2026-01-04 04:03:08.02	348.90	27.49	-35.9	-36.4	26.1	0.00e+00	0	38	0	4137680896	50	5782
2026-01-04 04:03:12.07	348.50	26.83	-36.1	-36.6	26.3	0.00e+00	0	37	0	4167041024	50	5921
2026-01-04 04:03:16.11	348.12	26.18	-35.0	-35.4	27.4	0.00e+00	0	37	0	4196401152	48	5811
2026-01-04 04:03:20.15	347.76	25.55	-34.0	-34.5	27.9	0.00e+00	0	37	0	4225761280	46	5834
2026-01-04 04:03:24.20	347.41	24.93	-33.8	-34.3	27.5	0.00e+00	0	38	0	4254072832	46	5713
2026-01-04 04:03:28.24	347.07	24.33	-34.0	-34.4	27.3	0.00e+00	0	38	0	4283432960	46	5823
2026-01-04 04:03:32.29	346.75	23.73	-33.7	-34.2	27.5	0.00e+00	0	38	0	4312793088	46	5636
2026-01-04 04:03:36.33	346.44	23.15	-34.2	-34.7	27.4	0.00e+00	0	38	0	4342153216	46	5965
2026-01-04 04:03:40.37	346.14	22.59	-34.5	-35.0	27.2	0.00e+00	0	38	0	4371513344	46	6180
2026-01-04 04:03:44.42	345.85	22.03	-34.0	-34.5	27.4	0.00e+00	0	38	0	4400873472	46	5843
2026-01-04 04:03:48.46	345.58	21.48	-34.2	-34.7	27.1	0.00e+00	0	37	0	4429185024	46	5994
2026-01-04 04:03:52.51	345.31	20.95	-34.3	-34.8	27.2	0.00e+00	0	38	0	4458545152	46	6077
2026-01-04 04:03:56.55	345.05	20.42	-34.6	-35.1	27.0	0.00e+00	0	37	0	4487905280	46	6275
2026-01-04 04:04:00.60	344.81	19.91	-35.2	-35.7	26.5	0.00e+00	0	38	0	4517265408	48	6024
2026-01-04 04:04:04.64	344.57	19.40	-35.3	-35.8	26.6	0.00e+00	0	37	0	4546625536	50	5427
2026-01-04 04:04:08.68	344.33	18.91	-35.8	-36.3	26.5	0.00e+00	0	38	0	4575985664	50	5734
2026-01-04 04:04:12.73	344.11	18.42	-35.5	-36.0	26.2	0.00e+00	0	38	0	4605345792	50	5528
2026-01-04 04:04:16.78	343.89	17.95	-35.8	-36.3	26.1	0.00e+00	0	37	0	4634705920	50	5727
2026-01-04 04:04:20.82	343.69	17.48	-36.1	-36.6	26.1	0.00e+00	0	38	0	4663017472	52	5311
2026-01-04 04:04:24.86	343.48	17.02	-36.0	-36.5	26.0	0.00e+00	0	37	0	4692377600	50	5889
2026-01-04 04:04:28.91	343.29	16.57	-36.3	-36.8	25.8	0.00e+00	0	38	0	4721737728	50	6079
2026-01-04 04:04:32.95	343.10	16.12	-36.3	-36.8	25.5	0.00e+00	0	37	0	4751097856	52	5428
2026-01-04 04:04:37.00	342.91	15.69	-36.7	-37.3	25.1	0.00e+00	0	38	0	4780457984	52	5708
2026-01-04 04:04:41.04	342.74	15.26	-36.8	-37.3	25.6	0.00e+00	0	37	0	4808769536	50	6411
2026-01-04 04:04:45.09	342.56	14.84	-35.7	-36.2	26.1	0.00e+00	0	38	0	4838129664	50	5661
2026-01-04 04:04:49.13	342.40	14.42	-35.9	-36.5	25.7	0.00e+00	0	37	0	4867489792	50	5838
2026-01-04 04:04:53.17	342.23	14.01	-36.7	-37.3	25.0	0.00e+00	0	38	0	4896849920	50	6392
2026-01-04 04:04:57.22	342.08	13.61	-36.6	-37.1	25.2	0.00e+00	0	37	0	4926210048	50	6267
2026-01-04 04:05:01.25	341.92	13.22	-36.9	-37.4	25.3	0.00e+00	0	38	0	4955570176	52	5810
2026-01-04 04:05:05.30	341.78	12.83	-37.4	-38.0	24.6	0.00e+00	0	38	0	4983881728	52	6204
2026-01-04 04:05:09.34	341.63	12.45	-37.3	-37.9	24.8	0.00e+00	0	38	0	5013241856	52	6130
2026-01-04 04:05:13.39	341.49	12.07	-37.8	-38.3	24.3	0.00e+00	0	37	0	5042601984	54	5753
2026-01-04 04:05:17.43	341.36	11.70	-37.9	-38.5	24.2	0.00e+00	0	37	0	5071962112	54	5832
2026-01-04 04:05:21.48	341.22	11.33	-37.9	-38.5	24.1	0.00e+00	0	37	0	5101322240	54	5858
2026-01-04 04:05:25.52	341.09	10.97	-37.8	-38.3	24.2	0.00e+00	0	38	0	5129633792	54	5747
2026-01-04 04:05:29.56	340.97	10.61	-37.9	-38.5	24.3	0.00e+00	0	38	0	5158993920	54	5844
2026-01-04 04:05:33.61	340.85	10.26	-38.0	-38.6	24.1	0.00e+00	0	38	0	5188354048	54	5909
2026-01-04 04:05:37.65	340.73	9.91	-39.1	-39.7	24.1	0.00e+00	0	38	0	5217714176	56	5965
2026-01-04 04:05:41.70	340.61	9.57	-39.4	-40.0	23.9	0.00e+00	0	38	0	5247074304	58	5518
2026-01-04 04:05:45.74	340.50	9.23	-39.9	-40.5	23.5	0.00e+00	0	37	0	5276434432	56	6559
2026-01-04 04:05:49.79	340.39	8.90	-39.4	-40.1	23.1	0.00e+00	0	37	0	5305794560	58	5580
2026-01-04 04:05:53.83	340.29	8.57	-38.4	-39.0	23.5	0.00e+00	0	37	0	5335154688	56	5538
2026-01-04 04:05:57.87	340.18	8.25	-39.5	-40.1	23.3	0.00e+00	0	37	0	5364514816	56	6256
2026-01-04 04:06:01.92	340.08	7.93	-39.5	-40.1	23.4	0.00e+00	0	37	0	5392826368	56	6253
2026-01-04 04:06:05.96	339.98	7.61	-39.6	-40.2	23.5	0.00e+00	0	37	0	5422186496	56	6343
2026-01-04 04:06:10.01	339.89	7.30	-39.4	-40.1	23.4	0.00e+00	0	37	0	5451546624	58	5579
2026-01-04 04:06:14.05	339.79	6.99	-38.4	-39.0	22.9	0.00e+00	0	37	0	5480906752	56	5541
2026-01-04 04:06:18.10	339.70	6.68	-39.6	-40.2	22.9	0.00e+00	0	37	0	5510266880	56	6364
2026-01-04 04:06:22.14	339.61	6.38	-39.1	-39.7	22.9	0.00e+00	0	37	0	5538578432	56	5976
2026-01-04 04:06:26.19	339.52	6.08	-39.4	-40.0	22.6	0.00e+00	0	37	0	5567938560	56	6195
2026-01-04 04:06:30.23	339.44	5.79	-39.1	-39.7	22.8	0.00e+00	0	37	0	5597298688	56	6013
2026-01-04 04:06:34.28	339.36	5.49	-40.1	-40.7	21.9	0.00e+00	0	37	0	5626658816	58	6031
2026-01-04 04:06:38.32	339.27	5.21	-40.6	-41.3	20.7	0.00e+00	0	37	0	5656018944	60	5757
2026-01-04 04:06:42.37	339.20	4.92	-41.6	-42.6	18.2	0.00e+00	0	37	0	5685379072	60	6642
2026-01-04 04:06:46.41	339.12	4.64	-43.6	-45.0	15.5	0.00e+00	0	37	0	5713690624	60	8747
2026-01-04 04:06:50.45	339.04	4.36	-44.8	-47.0	12.0	1.09e-04	0	37	0	5743050752	60	10984
2026-01-04 04:06:54.50	338.97	4.08	-46.4	-50.2	8.1	4.18e-02	0	37	0	5772410880	60	15944
2026-01-04 04:06:58.54	338.90	3.81	-47.7	-53.1	4.9	7.15e-01	0	37	0	5796528128	60	22365
2026-01-04 04:07:02.58	338.83	3.53	-48.1	-57.6	3.8	8.44e-01	0	37	104	5797576704	60	37321
2026-01-04 04:07:06.63	338.76	3.26	-47.6	-58.3	3.6	8.44e-01	0	37	104	5797576704	60	40533
2026-01-04 04:07:10.67	338.69	3.00	-48.3	-59.7	3.6	8.45e-01	0	37	104	5797576704	60	47592
2026-01-04 04:07:14.72	338.63	2.73	-48.1	-59.6	3.6	8.46e-01	0	37	104	5797576704	60	47317
2026-01-04 04:07:18.76	338.56	2.47	-53.1	-65.0	3.6	8.47e-01	0	37	104	5797576704	60	87268
2026-01-04 04:07:22.80	338.50	2.21	-52.9	-64.8	3.6	8.45e-01	0	37	104	5797576704	60	85535
2026-01-04 04:07:26.85	338.44	1.96	-53.5	-65.2	3.6	8.45e-01	0	37	104	5797576704	60	89756
2026-01-04 04:07:30.89	338.38	1.70	-53.6	-65.2	3.6	8.45e-01	0	37	104	5797576704	60	89519
2026-01-04 04:07:34.94	338.32	1.45	-53.1	-64.6	3.6	8.46e-01	0	37	104	5797576704	60	84052
2026-01-04 04:07:38.98	338.26	1.20	-53.9	-65.5	3.6	8.45e-01	0	37	104	5797576704	60	92661
2026-01-04 04:07:43.02	338.21	0.95	-52.9	-64.5	3.6	8.45e-01	0	37	104	5797576704	60	83123
2026-01-04 04:07:47.06	338.15	0.70	-53.7	-65.3	3.5	8.46e-01	0	37	104	5797576704	60	90747
2026-01-04 04:07:51.10	338.10	0.46	-53.6	-65.2	3.6	8.45e-01	0	37	104	5797576704	60	90177
2026-01-04 04:07:55.15	338.05	0.22	-54.0	-65.6	3.6	8.45e-01	0	37	104	5797576704	60	93788
2026-01-04 04:07:59.19	337.99	-0.02	-54.5	-66.0	3.5	8.45e-01	0	37	104	5797576704	60	98959

#Closed at: 2026-01-04 04:08:00
#Recorded file [5797 MB]: D:/lorett/data/35034_260104_065237.dat