passes_logs/2026/01/04/R4.6S_Anadyr_2ch/R4.6S_Anadyr_2ch__20260104_010451_SUOMI_NPP_rec.log

#Pass ID: 20260104_010451_SUOMI NPP
#Satellite: SUOMI NPP
#Configuration: NPP
#almurnet v.1.7.20251203
#Start time: 2026-01-04 01:04:52

#Version: 2.2.20231116
#Station: R4.6S_Anadyr_2ch
#Location: 177.4865 lon 64.73178 lat
#TLE: 1 37849U 11061A   25350.92281687  .00000071  00000+0  54882-4 0  9996
#TLE: 2 37849  98.7777 288.2268 0002366 112.8570 247.2856 14.19515404732588

#Time	Az	El	Level	Level2	SNR	BER	BlckErr	Temp	State	Recorded	gain1	gain2
2026-01-04 01:04:52.84	176.29	0.08	-53.3	-66.0	3.4	1.52e+00	0	35	0	0	60	94703
2026-01-04 01:04:56.88	176.40	0.32	-54.2	-69.7	3.5	1.51e+00	0	36	104	0	60	149770
2026-01-04 01:05:00.92	176.51	0.56	-52.8	-68.3	3.6	1.51e+00	0	36	104	0	60	126375
2026-01-04 01:05:04.97	176.63	0.80	-52.4	-67.8	3.6	1.51e+00	0	36	104	0	60	120033
2026-01-04 01:05:09.01	176.74	1.05	-52.1	-67.5	3.6	1.51e+00	0	36	104	0	60	115523
2026-01-04 01:05:13.06	176.86	1.29	-52.1	-67.5	3.6	1.51e+00	0	36	104	0	60	115712
2026-01-04 01:05:17.10	176.98	1.54	-52.2	-67.6	3.6	1.51e+00	0	36	104	0	60	116937
2026-01-04 01:05:21.15	177.10	1.79	-51.6	-67.0	3.6	1.51e+00	0	37	104	0	60	109023
2026-01-04 01:05:25.19	177.22	2.05	-51.4	-66.8	3.6	1.51e+00	0	37	104	0	60	106723
2026-01-04 01:05:29.23	177.35	2.30	-51.4	-66.8	3.6	1.51e+00	0	37	104	0	60	106173
2026-01-04 01:05:33.27	177.47	2.56	-51.4	-65.9	3.6	1.51e+00	0	37	104	0	60	95802
2026-01-04 01:05:37.31	177.60	2.82	-51.5	-65.4	3.6	1.50e+00	0	37	104	0	60	90962
2026-01-04 01:05:41.36	177.73	3.08	-51.0	-58.5	7.0	3.95e-01	0	37	0	0	60	40857
2026-01-04 01:05:45.40	177.86	3.35	-47.8	-50.2	16.4	0.00e+00	0	37	0	7340032	60	15802
2026-01-04 01:05:49.44	178.00	3.61	-45.6	-47.2	18.7	0.00e+00	90	37	0	15728640	60	11197
2026-01-04 01:05:53.49	178.13	3.88	-49.2	-52.9	12.8	1.37e-05	92	37	0	23068672	60	21457
2026-01-04 01:05:57.53	178.27	4.15	-45.7	-47.4	18.3	0.00e+00	0	37	0	30408704	60	11452
2026-01-04 01:06:01.58	178.42	4.43	-45.9	-47.7	18.5	0.00e+00	92	37	0	37748736	60	11839
2026-01-04 01:06:05.62	178.56	4.71	-45.5	-47.1	18.9	0.00e+00	90	37	0	46137344	60	11078
2026-01-04 01:06:09.66	178.71	4.99	-45.7	-47.4	18.8	0.00e+00	0	37	0	53477376	60	11372
2026-01-04 01:06:13.71	178.85	5.27	-45.7	-47.3	18.9	0.00e+00	0	37	0	60817408	60	11260
2026-01-04 01:06:17.75	179.01	5.55	-46.1	-47.7	18.7	0.00e+00	92	37	0	68157440	60	11893
2026-01-04 01:06:21.80	179.16	5.84	-46.3	-47.9	19.0	0.00e+00	92	37	0	75497472	60	12149
2026-01-04 01:06:25.84	179.32	6.14	-44.9	-46.3	19.7	0.00e+00	0	37	0	83886080	60	10080
2026-01-04 01:06:29.88	179.48	6.43	-44.9	-46.3	20.1	0.00e+00	0	37	0	91226112	60	10026
2026-01-04 01:06:33.93	179.64	6.73	-44.7	-46.0	20.2	0.00e+00	80	37	0	98566144	60	9742
2026-01-04 01:06:37.97	179.81	7.03	-44.2	-45.5	20.9	0.00e+00	92	37	0	105906176	60	9133
2026-01-04 01:06:42.01	179.98	7.34	-44.1	-45.3	21.1	0.00e+00	0	37	0	114294784	60	8987
2026-01-04 01:06:46.06	180.15	7.64	-44.1	-45.3	21.2	0.00e+00	92	37	0	121634816	60	8994
2026-01-04 01:06:50.10	180.33	7.96	-44.0	-45.2	21.3	0.00e+00	92	37	0	128974848	60	8895
2026-01-04 01:06:54.15	180.51	8.27	-43.8	-44.9	21.3	0.00e+00	0	37	0	136314880	60	8608
2026-01-04 01:06:58.19	180.69	8.59	-44.2	-45.4	21.0	0.00e+00	0	37	0	144703488	60	9115
2026-01-04 01:07:02.23	180.88	8.92	-43.8	-45.0	21.4	0.00e+00	92	37	0	152043520	60	8671
2026-01-04 01:07:06.28	181.07	9.24	-44.2	-45.3	21.5	0.00e+00	91	37	0	159383552	60	9009
2026-01-04 01:07:10.32	181.26	9.58	-44.2	-45.3	21.7	0.00e+00	0	37	0	166723584	60	9025
2026-01-04 01:07:14.37	181.46	9.91	-43.6	-44.7	21.9	0.00e+00	17	37	0	174063616	60	8416
2026-01-04 01:07:18.41	181.67	10.25	-44.3	-45.4	21.9	0.00e+00	69	37	0	182452224	60	9107
2026-01-04 01:07:22.45	181.88	10.60	-43.3	-44.3	22.0	0.00e+00	92	37	0	189792256	60	8041
2026-01-04 01:07:26.50	182.09	10.95	-43.5	-44.6	22.0	0.00e+00	0	37	0	197132288	60	8315
2026-01-04 01:07:30.54	182.31	11.30	-43.1	-44.2	22.0	0.00e+00	92	37	0	204472320	60	7942
2026-01-04 01:07:34.59	182.53	11.66	-43.0	-44.1	22.1	0.00e+00	92	37	0	212860928	60	7789
2026-01-04 01:07:38.63	182.76	12.02	-43.2	-44.3	22.2	0.00e+00	0	37	0	220200960	60	7971
2026-01-04 01:07:42.67	182.99	12.39	-43.0	-44.0	22.4	0.00e+00	0	37	0	227540992	60	7727
2026-01-04 01:07:46.72	183.23	12.77	-42.7	-43.7	22.7	0.00e+00	92	37	0	234881024	60	7494
2026-01-04 01:07:50.76	183.48	13.15	-42.5	-43.5	22.6	0.00e+00	92	37	0	243269632	60	7311
2026-01-04 01:07:54.81	183.73	13.53	-42.4	-43.3	23.0	0.00e+00	0	37	0	250609664	60	7131
2026-01-04 01:07:58.85	183.98	13.92	-42.5	-43.5	22.9	0.00e+00	40	37	0	257949696	60	7270
2026-01-04 01:08:02.90	184.25	14.32	-42.1	-43.1	23.0	0.00e+00	80	37	0	265289728	60	6928
2026-01-04 01:08:06.94	184.52	14.72	-42.4	-43.3	23.0	0.00e+00	92	37	0	272629760	60	7145
2026-01-04 01:08:10.99	184.80	15.13	-42.1	-43.1	23.3	0.00e+00	0	37	0	281018368	60	6935
2026-01-04 01:08:15.03	185.08	15.55	-41.8	-42.7	23.3	0.00e+00	92	37	0	288358400	60	6662
2026-01-04 01:08:19.08	185.37	15.97	-41.6	-42.6	23.3	0.00e+00	64	37	0	295698432	60	6551
2026-01-04 01:08:23.12	185.67	16.40	-41.6	-42.6	23.3	0.00e+00	0	37	0	303038464	60	6554
2026-01-04 01:08:27.16	185.98	16.83	-41.9	-42.9	23.1	0.00e+00	0	37	0	311427072	60	6783
2026-01-04 01:08:31.21	186.30	17.28	-41.7	-42.7	23.2	0.00e+00	92	37	0	318767104	60	6656
2026-01-04 01:08:35.25	186.62	17.73	-41.1	-41.9	23.8	0.00e+00	90	37	0	326107136	60	6098
2026-01-04 01:08:39.30	186.96	18.19	-40.9	-41.8	24.0	0.00e+00	0	37	0	333447168	60	5984
2026-01-04 01:08:43.34	187.31	18.65	-40.9	-41.7	23.8	0.00e+00	45	37	0	341835776	60	5948
2026-01-04 01:08:47.39	187.66	19.13	-41.2	-42.1	23.8	0.00e+00	92	37	0	349175808	60	6215
2026-01-04 01:08:51.43	188.03	19.61	-41.4	-42.3	23.7	0.00e+00	90	37	0	356515840	60	6339
2026-01-04 01:08:55.47	188.41	20.10	-41.6	-42.6	23.5	0.00e+00	0	37	0	363855872	60	6557
2026-01-04 01:08:59.51	188.80	20.59	-41.5	-42.4	23.6	0.00e+00	92	37	0	372244480	60	6430
2026-01-04 01:09:03.56	189.20	21.10	-40.4	-41.2	24.2	0.00e+00	92	37	0	379584512	60	5621
2026-01-04 01:09:07.60	189.61	21.62	-40.4	-41.3	24.3	0.00e+00	0	37	0	386924544	60	5661
2026-01-04 01:09:11.64	190.04	22.14	-40.7	-41.5	24.2	0.00e+00	0	37	0	394264576	60	5824
2026-01-04 01:09:15.69	190.49	22.68	-40.0	-40.8	24.6	0.00e+00	92	37	0	401604608	58	5997
2026-01-04 01:09:19.73	190.95	23.22	-39.9	-40.7	24.7	0.00e+00	92	37	0	409993216	58	5934
2026-01-04 01:09:23.77	191.42	23.78	-40.0	-40.8	24.7	0.00e+00	0	37	0	417333248	58	5995
2026-01-04 01:09:27.81	191.91	24.34	-40.1	-40.9	24.6	0.00e+00	42	37	0	424673280	58	6084
2026-01-04 01:09:31.86	192.42	24.92	-41.0	-41.9	24.1	0.00e+00	84	37	0	432013312	60	6056
2026-01-04 01:09:35.90	192.94	25.50	-41.1	-42.0	23.9	0.00e+00	0	37	0	440401920	60	6108
2026-01-04 01:09:39.95	193.49	26.10	-41.6	-42.5	23.5	0.00e+00	0	37	0	447741952	60	6514
2026-01-04 01:09:43.99	194.06	26.71	-41.6	-42.5	23.6	0.00e+00	92	37	0	455081984	60	6510
2026-01-04 01:09:48.04	194.65	27.32	-41.9	-42.8	23.5	0.00e+00	70	37	0	462422016	60	6736
2026-01-04 01:09:52.08	195.26	27.95	-42.1	-43.0	23.3	0.00e+00	0	37	0	469762048	60	6904
2026-01-04 01:09:56.12	195.89	28.59	-42.3	-43.3	23.2	0.00e+00	0	37	0	478150656	60	7134
2026-01-04 01:10:00.17	196.55	29.24	-43.4	-44.5	22.1	0.00e+00	78	37	0	485490688	60	8179
2026-01-04 01:10:04.21	197.24	29.90	-44.6	-45.9	20.8	0.00e+00	92	37	0	492830720	60	9634
2026-01-04 01:10:08.26	197.95	30.58	-44.8	-46.1	20.8	0.00e+00	0	37	0	500170752	60	9824
2026-01-04 01:10:12.30	198.69	31.26	-44.5	-45.7	21.2	0.00e+00	48	37	0	508559360	60	9402
2026-01-04 01:10:16.34	199.47	31.95	-43.3	-44.4	22.0	0.00e+00	92	37	0	515899392	60	8094
2026-01-04 01:10:20.39	200.28	32.66	-43.4	-44.5	21.8	0.00e+00	0	38	0	523239424	60	8166
2026-01-04 01:10:24.43	201.12	33.38	-44.1	-45.3	21.4	0.00e+00	0	37	0	530579456	60	8964
2026-01-04 01:10:28.48	202.01	34.10	-42.6	-43.5	22.9	0.00e+00	92	37	0	538968064	60	7326
2026-01-04 01:10:32.52	202.93	34.84	-43.2	-44.3	22.3	0.00e+00	90	37	0	546308096	60	8008
2026-01-04 01:10:36.57	203.89	35.58	-43.5	-44.7	22.0	0.00e+00	0	37	0	553648128	60	8340
2026-01-04 01:10:40.61	204.90	36.33	-42.3	-43.2	23.0	0.00e+00	0	37	0	560988160	60	7088
2026-01-04 01:10:44.65	205.95	37.09	-42.3	-43.2	23.0	0.00e+00	90	37	0	569376768	60	7078
2026-01-04 01:10:48.70	207.06	37.86	-41.5	-42.4	23.7	0.00e+00	92	37	0	576716800	60	6451
2026-01-04 01:10:52.74	208.21	38.63	-41.0	-41.9	24.0	0.00e+00	0	37	0	584056832	60	6086
2026-01-04 01:10:56.79	209.43	39.41	-39.8	-40.6	24.7	0.00e+00	44	38	0	591396864	58	5868
2026-01-04 01:11:00.83	210.70	40.19	-41.1	-42.0	24.0	0.00e+00	64	38	0	598736896	58	6914
2026-01-04 01:11:04.87	212.03	40.97	-41.3	-42.2	23.7	0.00e+00	90	37	0	607125504	60	6296
2026-01-04 01:11:08.91	213.42	41.75	-41.4	-42.3	23.9	0.00e+00	0	37	0	614465536	60	6323
2026-01-04 01:11:12.96	214.89	42.52	-41.8	-42.7	23.6	0.00e+00	92	37	0	621805568	60	6622
2026-01-04 01:11:17.00	216.42	43.29	-42.5	-43.5	23.0	0.00e+00	91	37	0	629145600	60	7283
2026-01-04 01:11:21.05	218.03	44.06	-41.4	-42.2	23.7	0.00e+00	0	38	0	637534208	60	6316
2026-01-04 01:11:25.09	219.72	44.81	-43.2	-44.3	22.1	0.00e+00	0	37	0	644874240	60	8019
2026-01-04 01:11:29.14	221.49	45.55	-42.5	-43.5	22.6	0.00e+00	91	37	0	652214272	60	7286
2026-01-04 01:11:33.18	223.34	46.27	-43.1	-44.2	22.0	0.00e+00	92	37	0	659554304	60	7868
2026-01-04 01:11:37.22	225.27	46.96	-43.0	-44.1	22.3	0.00e+00	0	37	0	666894336	60	7796
2026-01-04 01:11:41.27	227.29	47.64	-41.7	-42.6	23.4	0.00e+00	48	37	0	675282944	60	6560
2026-01-04 01:11:45.31	229.39	48.28	-42.0	-42.9	23.2	0.00e+00	92	38	0	682622976	60	6821
2026-01-04 01:11:49.35	231.58	48.89	-42.4	-43.4	22.5	0.00e+00	77	37	0	689963008	60	7242
2026-01-04 01:11:53.40	233.86	49.47	-42.8	-43.8	22.6	0.00e+00	0	38	0	697303040	60	7582
2026-01-04 01:11:57.44	236.22	50.00	-43.1	-44.1	22.3	0.00e+00	92	37	0	705691648	60	7815
2026-01-04 01:12:01.49	238.66	50.48	-43.1	-44.1	22.1	0.00e+00	92	38	0	713031680	60	7860
2026-01-04 01:12:05.53	241.17	50.91	-44.2	-45.5	21.2	0.00e+00	0	37	0	720371712	60	9148
2026-01-04 01:12:09.58	243.76	51.29	-43.6	-44.8	21.9	0.00e+00	0	37	0	727711744	60	8474
2026-01-04 01:12:13.62	246.40	51.61	-42.3	-43.3	23.3	0.00e+00	89	37	0	736100352	60	7092
2026-01-04 01:12:17.66	249.08	51.87	-41.9	-42.9	23.8	0.00e+00	92	37	0	743440384	60	6775
2026-01-04 01:12:21.71	251.82	52.07	-42.2	-43.2	23.5	0.00e+00	0	37	0	750780416	60	7017
2026-01-04 01:12:25.75	254.58	52.19	-41.9	-42.9	23.3	0.00e+00	90	37	0	758120448	60	6786
2026-01-04 01:12:29.80	257.36	52.25	-42.8	-43.9	22.4	0.00e+00	91	37	0	765460480	60	7600
2026-01-04 01:12:33.84	260.15	52.24	-42.6	-43.7	22.6	0.00e+00	0	37	0	773849088	60	7428
2026-01-04 01:12:37.89	262.92	52.16	-41.6	-42.5	23.5	0.00e+00	0	37	0	781189120	60	6528
2026-01-04 01:12:41.93	265.68	52.02	-41.5	-42.4	23.8	0.00e+00	92	37	0	788529152	60	6407
2026-01-04 01:12:45.97	268.39	51.81	-41.0	-41.9	24.1	0.00e+00	92	37	0	795869184	60	6056
2026-01-04 01:12:50.02	271.08	51.53	-41.6	-42.5	23.7	0.00e+00	0	37	0	804257792	60	6486
2026-01-04 01:12:54.06	273.70	51.20	-40.9	-41.7	24.2	0.00e+00	0	37	0	811597824	58	6666
2026-01-04 01:12:58.11	276.26	50.80	-41.9	-42.9	23.4	0.00e+00	14	37	0	818937856	60	6789
2026-01-04 01:13:02.15	278.75	50.36	-42.7	-43.8	22.7	0.00e+00	57	37	0	826277888	60	7514
2026-01-04 01:13:06.19	281.16	49.86	-44.4	-45.7	21.2	0.00e+00	0	37	0	834666496	60	9348
2026-01-04 01:13:10.24	283.50	49.32	-42.1	-43.0	23.4	0.00e+00	44	37	0	842006528	60	6880
2026-01-04 01:13:14.28	285.74	48.74	-41.6	-42.5	23.5	0.00e+00	92	37	0	849346560	60	6531
2026-01-04 01:13:18.32	287.91	48.12	-44.0	-45.1	21.6	0.00e+00	0	37	0	856686592	60	8812
2026-01-04 01:13:22.37	289.99	47.47	-46.6	-48.3	18.9	0.00e+00	0	37	0	865075200	60	12683
2026-01-04 01:13:26.41	291.98	46.79	-47.2	-48.9	18.3	0.00e+00	61	37	0	872415232	60	13559
2026-01-04 01:13:30.46	293.89	46.09	-48.3	-50.5	16.3	0.00e+00	89	37	0	879755264	60	16423
2026-01-04 01:13:34.50	295.71	45.37	-46.6	-48.2	19.1	0.00e+00	0	37	0	887095296	60	12603
2026-01-04 01:13:38.54	297.45	44.63	-46.4	-48.0	19.3	0.00e+00	0	37	0	894435328	60	12258
2026-01-04 01:13:42.59	299.11	43.88	-42.5	-43.5	23.0	0.00e+00	71	37	0	902823936	60	7279
2026-01-04 01:13:46.63	300.70	43.12	-42.6	-43.5	23.1	0.00e+00	6	37	0	910163968	60	7323
2026-01-04 01:13:50.67	302.21	42.35	-41.8	-42.7	23.6	0.00e+00	0	37	0	917504000	60	6667
2026-01-04 01:13:54.72	303.65	41.57	-41.3	-42.2	24.1	0.00e+00	44	37	0	924844032	60	6258
2026-01-04 01:13:58.76	305.03	40.80	-43.8	-44.9	22.1	0.00e+00	80	37	0	933232640	60	8594
2026-01-04 01:14:02.78	306.33	40.03	-43.4	-44.4	22.5	0.00e+00	0	37	0	940572672	60	8108
2026-01-04 01:14:06.82	307.59	39.25	-45.1	-46.4	20.8	0.00e+00	0	37	0	947912704	60	10148
2026-01-04 01:14:10.87	308.78	38.48	-45.9	-47.2	20.5	0.00e+00	92	37	0	955252736	60	11215
2026-01-04 01:14:14.91	309.92	37.71	-43.7	-44.8	22.3	0.00e+00	68	37	0	962592768	60	8446
2026-01-04 01:14:18.95	311.01	36.95	-46.4	-48.0	19.4	0.00e+00	0	37	0	970981376	60	12193
2026-01-04 01:14:23.00	312.05	36.20	-43.4	-44.4	22.5	0.00e+00	0	37	0	978321408	60	8135
2026-01-04 01:14:27.04	313.05	35.45	-45.9	-47.3	20.0	0.00e+00	46	37	0	985661440	60	11300
2026-01-04 01:14:31.09	314.00	34.71	-42.3	-43.2	23.5	0.00e+00	49	37	0	993001472	60	7030
2026-01-04 01:14:35.13	314.91	33.98	-44.5	-45.6	21.2	0.00e+00	0	37	0	1001390080	60	9280
2026-01-04 01:14:39.17	315.78	33.26	-45.6	-47.0	20.1	0.00e+00	44	37	0	1008730112	60	10864
2026-01-04 01:14:43.22	316.61	32.55	-43.2	-44.2	22.2	0.00e+00	92	37	0	1016070144	60	7889
2026-01-04 01:14:47.26	317.41	31.86	-47.9	-50.2	17.1	0.00e+00	0	37	0	1023410176	60	15764
2026-01-04 01:14:51.31	318.18	31.17	-45.3	-46.8	20.1	0.00e+00	0	37	0	1031798784	60	10654
2026-01-04 01:14:55.35	318.92	30.49	-43.5	-44.5	22.3	0.00e+00	44	37	0	1039138816	60	8199
2026-01-04 01:14:59.40	319.63	29.82	-45.5	-46.8	20.4	0.00e+00	92	37	0	1046478848	60	10726
2026-01-04 01:15:03.44	320.30	29.17	-44.4	-45.5	21.7	0.00e+00	0	37	0	1053818880	60	9176
2026-01-04 01:15:07.49	320.96	28.52	-45.0	-46.1	21.5	0.00e+00	0	37	0	1061158912	60	9896
2026-01-04 01:15:11.53	321.59	27.89	-44.6	-45.7	22.0	0.00e+00	90	37	0	1069547520	60	9366
2026-01-04 01:15:15.58	322.19	27.27	-43.3	-44.3	22.6	0.00e+00	0	37	0	1076887552	60	8019
2026-01-04 01:15:19.62	322.77	26.65	-42.8	-43.8	22.9	0.00e+00	0	37	0	1084227584	60	7580
2026-01-04 01:15:23.66	323.34	26.05	-42.6	-43.5	23.2	0.00e+00	41	37	0	1091567616	60	7287
2026-01-04 01:15:27.70	323.88	25.46	-42.5	-43.5	23.1	0.00e+00	57	37	0	1099956224	60	7265
2026-01-04 01:15:31.75	324.40	24.88	-42.7	-43.7	22.8	0.00e+00	0	37	0	1107296256	60	7483
2026-01-04 01:15:35.79	324.90	24.31	-42.1	-43.0	23.4	0.00e+00	0	37	0	1114636288	60	6903
2026-01-04 01:15:39.83	325.39	23.76	-42.3	-43.2	23.3	0.00e+00	91	37	0	1121976320	60	7036
2026-01-04 01:15:43.88	325.86	23.21	-42.9	-43.9	22.6	0.00e+00	0	37	0	1130364928	60	7608
2026-01-04 01:15:47.92	326.32	22.67	-43.9	-45.1	21.9	0.00e+00	0	37	0	1137704960	60	8748
2026-01-04 01:15:51.97	326.76	22.13	-43.3	-44.5	22.1	0.00e+00	0	37	0	1145044992	60	8139
2026-01-04 01:15:56.01	327.18	21.61	-43.1	-44.1	22.6	0.00e+00	69	37	0	1152385024	60	7834
2026-01-04 01:16:00.05	327.60	21.10	-42.5	-43.4	23.1	0.00e+00	0	37	0	1160773632	60	7243
2026-01-04 01:16:04.09	328.00	20.60	-44.0	-45.2	21.8	0.00e+00	0	37	0	1168113664	60	8835
2026-01-04 01:16:08.14	328.39	20.11	-45.1	-46.4	20.6	0.00e+00	5	37	0	1175453696	60	10146
2026-01-04 01:16:12.18	328.76	19.62	-44.2	-45.4	21.4	0.00e+00	8	37	0	1182793728	60	9043
2026-01-04 01:16:16.22	329.13	19.14	-42.9	-44.0	22.5	0.00e+00	0	37	0	1190133760	60	7728
2026-01-04 01:16:20.27	329.48	18.67	-42.9	-43.8	23.0	0.00e+00	0	37	0	1198522368	60	7582
2026-01-04 01:16:24.31	329.83	18.21	-42.7	-43.7	22.9	0.00e+00	56	37	0	1205862400	60	7486
2026-01-04 01:16:28.36	330.16	17.76	-43.4	-44.5	22.6	0.00e+00	0	37	0	1213202432	60	8151
2026-01-04 01:16:32.40	330.49	17.31	-43.7	-44.7	22.3	0.00e+00	0	37	0	1220542464	60	8398
2026-01-04 01:16:36.45	330.81	16.87	-43.6	-44.7	22.2	0.00e+00	0	37	0	1227882496	60	8400
2026-01-04 01:16:40.49	331.11	16.44	-43.6	-44.6	22.2	0.00e+00	91	37	0	1236271104	60	8304
2026-01-04 01:16:44.54	331.42	16.01	-43.3	-44.4	22.3	0.00e+00	0	37	0	1243611136	60	8047
2026-01-04 01:16:48.58	331.71	15.59	-44.0	-45.0	22.3	0.00e+00	0	37	0	1250951168	60	8688
2026-01-04 01:16:52.62	331.99	15.18	-42.5	-43.4	23.1	0.00e+00	44	37	0	1258291200	60	7217
2026-01-04 01:16:56.66	332.27	14.78	-42.8	-43.7	22.8	0.00e+00	0	37	0	1266679808	60	7503
2026-01-04 01:17:00.71	332.54	14.38	-42.8	-43.8	22.6	0.00e+00	0	37	0	1274019840	60	7572
2026-01-04 01:17:04.75	332.80	13.98	-43.7	-44.8	22.0	0.00e+00	0	37	0	1281359872	60	8457
2026-01-04 01:17:08.80	333.06	13.59	-44.7	-45.9	21.1	0.00e+00	92	37	0	1288699904	60	9652
2026-01-04 01:17:12.84	333.31	13.21	-44.9	-46.3	20.5	0.00e+00	0	37	0	1297088512	60	10044
2026-01-04 01:17:16.88	333.56	12.84	-45.3	-46.8	20.0	0.00e+00	0	37	0	1304428544	60	10619
2026-01-04 01:17:20.93	333.80	12.46	-45.1	-46.6	20.2	0.00e+00	0	37	0	1311768576	60	10403
2026-01-04 01:17:24.97	334.03	12.10	-44.3	-45.6	20.8	0.00e+00	90	37	0	1319108608	60	9330
2026-01-04 01:17:29.01	334.26	11.74	-43.6	-44.8	21.4	0.00e+00	0	37	0	1327497216	60	8485
2026-01-04 01:17:33.05	334.49	11.38	-44.2	-45.3	21.7	0.00e+00	0	37	0	1334837248	60	9014
2026-01-04 01:17:37.10	334.71	11.03	-42.9	-43.9	22.1	0.00e+00	8	37	0	1342177280	60	7665
2026-01-04 01:17:41.14	334.92	10.68	-43.2	-44.2	22.3	0.00e+00	0	37	0	1349517312	60	7941
2026-01-04 01:17:45.19	335.13	10.34	-42.7	-43.7	22.3	0.00e+00	0	37	0	1356857344	60	7455
2026-01-04 01:17:49.23	335.34	10.00	-42.7	-43.7	22.4	0.00e+00	33	37	0	1365245952	60	7478
2026-01-04 01:17:53.27	335.54	9.67	-43.1	-44.1	22.3	0.00e+00	84	37	0	1372585984	60	7842
2026-01-04 01:17:57.32	335.74	9.34	-43.2	-44.3	21.8	0.00e+00	0	37	0	1379926016	60	8013
2026-01-04 01:18:01.36	335.93	9.01	-43.6	-44.8	21.6	0.00e+00	0	37	0	1387266048	60	8431
2026-01-04 01:18:05.40	336.12	8.69	-43.8	-44.9	21.5	0.00e+00	0	37	0	1395654656	60	8599
2026-01-04 01:18:09.45	336.30	8.37	-44.4	-45.7	21.0	0.00e+00	87	37	0	1402994688	60	9400
2026-01-04 01:18:13.49	336.49	8.06	-45.0	-46.3	20.6	0.00e+00	0	37	0	1410334720	60	10107
2026-01-04 01:18:17.54	336.67	7.75	-44.7	-46.1	20.1	0.00e+00	0	37	0	1417674752	60	9815
2026-01-04 01:18:21.58	336.84	7.44	-45.0	-46.5	19.8	0.00e+00	51	37	0	1426063360	60	10264
2026-01-04 01:18:25.62	337.01	7.14	-45.5	-47.0	19.4	0.00e+00	0	37	0	1433403392	60	10905
2026-01-04 01:18:29.67	337.18	6.84	-45.8	-47.4	19.1	0.00e+00	0	37	0	1440743424	60	11460
2026-01-04 01:18:33.71	337.35	6.54	-45.2	-46.8	19.3	0.00e+00	0	37	0	1448083456	60	10680
2026-01-04 01:18:37.75	337.51	6.25	-45.8	-47.4	19.3	0.00e+00	92	37	0	1455423488	60	11384
2026-01-04 01:18:41.80	337.67	5.96	-46.0	-47.7	18.8	0.00e+00	0	37	0	1463812096	60	11844
2026-01-04 01:18:45.85	337.83	5.67	-45.8	-47.6	18.1	0.00e+00	0	37	0	1471152128	60	11713
2026-01-04 01:18:49.89	337.98	5.39	-46.7	-48.9	16.8	0.00e+00	25	37	0	1478492160	60	13598
2026-01-04 01:18:53.93	338.14	5.11	-47.3	-50.4	14.4	0.00e+00	64	37	0	1485832192	60	16235
2026-01-04 01:18:57.97	338.28	4.83	-47.8	-52.0	12.1	1.45e-04	0	37	0	1494220800	60	19382
2026-01-04 01:19:02.02	338.43	4.55	-48.0	-54.3	8.3	2.45e-02	0	37	0	1501560832	60	25319
2026-01-04 01:19:06.06	338.58	4.28	-48.2	-56.7	5.1	4.49e-01	29	38	0	1508900864	60	33496
2026-01-04 01:19:10.10	338.72	4.01	-48.3	-61.0	3.8	1.46e+00	0	38	104	1514143744	60	54855
2026-01-04 01:19:14.15	338.86	3.74	-48.3	-62.7	3.6	1.51e+00	0	37	104	1514143744	60	66491
2026-01-04 01:19:18.19	339.00	3.48	-48.5	-63.8	3.6	1.51e+00	0	37	104	1514143744	60	75245
2026-01-04 01:19:22.23	339.13	3.22	-48.4	-63.6	3.6	1.51e+00	0	38	104	1514143744	60	74185
2026-01-04 01:19:26.27	339.27	2.96	-53.3	-68.7	3.6	1.51e+00	0	38	104	1514143744	60	132007
2026-01-04 01:19:30.32	339.40	2.70	-53.4	-68.8	3.5	1.51e+00	0	38	104	1514143744	60	134516
2026-01-04 01:19:34.36	339.53	2.44	-52.8	-68.8	3.6	1.51e+00	0	38	104	1514143744	60	134010
2026-01-04 01:19:38.41	339.66	2.19	-53.6	-69.0	3.6	1.51e+00	0	38	104	1514143744	60	137626
2026-01-04 01:19:42.45	339.78	1.94	-53.2	-68.6	3.6	1.51e+00	0	38	104	1514143744	60	131001
2026-01-04 01:19:46.49	339.91	1.69	-53.4	-68.8	3.6	1.51e+00	0	38	104	1514143744	60	134875
2026-01-04 01:19:50.54	340.03	1.44	-53.3	-68.7	3.6	1.51e+00	0	38	104	1514143744	60	132253
2026-01-04 01:19:54.58	340.15	1.19	-53.3	-68.8	3.6	1.51e+00	0	38	104	1514143744	60	133653
2026-01-04 01:19:58.62	340.27	0.95	-53.6	-69.0	3.6	1.51e+00	0	38	104	1514143744	60	138150
2026-01-04 01:20:02.67	340.39	0.71	-53.5	-68.9	3.6	1.51e+00	0	38	104	1514143744	60	136561
2026-01-04 01:20:06.71	340.50	0.47	-53.5	-68.8	3.6	1.51e+00	0	38	104	1514143744	60	134759
2026-01-04 01:20:10.75	340.62	0.23	-53.4	-68.8	3.6	1.51e+00	0	38	104	1514143744	60	134221
2026-01-04 01:20:14.79	340.73	-0.00	-53.2	-68.6	3.6	1.51e+00	0	38	104	1514143744	60	131626

#Closed at: 2026-01-04 01:20:15
#Recorded file [1514 MB]: D:/lorett/data/35034_260104_040452.dat