passes_logs/2026/01/04/R4.6S_Anadyr_2ch/R4.6S_Anadyr_2ch__20260104_115035_NOAA_20_JPSS-1_rec.log

#Pass ID: 20260104_115035_NOAA 20 (JPSS-1)
#Satellite: NOAA 20 (JPSS-1)
#Configuration: NOAA 20
#almurnet v.1.7.20251203
#Start time: 2026-01-04 11:50:37

#Version: 2.2.20231116
#Station: R4.6S_Anadyr_2ch
#Location: 177.4865 lon 64.73178 lat
#TLE: 1 43013U 17073A   25350.93759711  .00000080  00000+0  58734-4 0  9994
#TLE: 2 43013  98.7603 287.1885 0002156  81.1496 278.9924 14.19526878418610

#Time	Az	El	Level	Level2	SNR	BER	BlckErr	Temp	State	Recorded	gain1	gain2
2026-01-04 11:50:37.72	20.04	0.09	-53.2	-68.4	3.5	1.51e+00	0	35	0	0	60	127913
2026-01-04 11:50:40.76	20.31	0.22	-52.9	-68.4	3.6	1.51e+00	0	36	104	0	60	128510
2026-01-04 11:50:43.79	20.58	0.35	-52.9	-68.3	3.6	1.51e+00	0	36	104	0	60	127369
2026-01-04 11:50:46.82	20.85	0.48	-52.8	-68.3	3.6	1.51e+00	0	36	104	0	60	126399
2026-01-04 11:50:49.85	21.13	0.61	-52.3	-67.9	3.6	1.51e+00	0	36	104	0	60	120566
2026-01-04 11:50:52.89	21.41	0.74	-52.0	-67.4	3.6	1.51e+00	0	36	104	0	60	114675
2026-01-04 11:50:55.92	21.69	0.88	-50.6	-66.0	3.6	1.51e+00	0	36	104	0	60	97510
2026-01-04 11:50:58.95	21.97	1.01	-50.6	-66.0	3.6	1.51e+00	0	36	104	0	60	97477
2026-01-04 11:51:01.98	22.26	1.14	-50.5	-65.9	3.6	1.51e+00	0	36	104	0	60	96577
2026-01-04 11:51:05.02	22.54	1.27	-50.5	-65.9	3.6	1.51e+00	0	36	104	0	60	96386
2026-01-04 11:51:08.05	22.83	1.40	-50.5	-66.0	3.6	1.51e+00	0	36	104	0	60	97171
2026-01-04 11:51:11.08	23.13	1.53	-50.5	-66.0	3.6	1.51e+00	0	36	104	0	60	96740
2026-01-04 11:51:14.12	23.42	1.66	-50.5	-66.0	3.6	1.51e+00	0	36	104	0	60	97264
2026-01-04 11:51:17.15	23.72	1.79	-50.5	-66.0	3.6	1.51e+00	0	36	104	0	60	96895
2026-01-04 11:51:20.18	24.02	1.93	-50.5	-65.9	3.6	1.51e+00	0	36	104	0	60	96622
2026-01-04 11:51:23.21	24.32	2.06	-50.5	-65.9	3.6	1.51e+00	0	36	104	0	60	96445
2026-01-04 11:51:26.24	24.63	2.19	-50.5	-65.9	3.6	1.51e+00	0	37	104	0	60	96134
2026-01-04 11:51:29.27	24.93	2.32	-50.5	-65.9	3.6	1.51e+00	0	36	104	0	60	96412
2026-01-04 11:51:32.30	25.24	2.45	-50.6	-65.9	3.6	1.51e+00	0	37	104	0	60	96213
2026-01-04 11:51:35.34	25.56	2.58	-50.5	-65.6	3.6	1.51e+00	0	37	104	0	60	92409
2026-01-04 11:51:38.37	25.87	2.71	-49.1	-54.2	11.1	7.38e-02	0	37	0	1048576	60	25109
2026-01-04 11:51:41.40	26.19	2.85	-46.5	-49.0	16.4	0.00e+00	0	37	0	6291456	60	13699
2026-01-04 11:51:44.44	26.51	2.98	-47.6	-51.0	13.8	0.00e+00	0	37	0	12582912	60	17351
2026-01-04 11:51:47.47	26.84	3.11	-49.4	-55.8	5.6	1.51e+00	0	37	104	16777216	60	30178
2026-01-04 11:51:50.50	27.16	3.24	-50.1	-57.5	5.7	1.51e+00	0	37	104	18874368	60	36373
2026-01-04 11:51:53.53	27.49	3.37	-45.9	-47.9	17.7	0.00e+00	0	37	0	22020096	60	12111
2026-01-04 11:51:56.57	27.82	3.50	-45.5	-47.4	18.4	0.00e+00	0	37	0	27262976	60	11379
2026-01-04 11:51:59.60	28.16	3.63	-45.3	-47.0	18.7	0.00e+00	0	37	0	33554432	60	10925
2026-01-04 11:52:02.63	28.49	3.76	-45.1	-46.7	19.0	0.00e+00	0	37	0	38797312	60	10567
2026-01-04 11:52:05.67	28.84	3.89	-45.1	-46.7	19.4	0.00e+00	0	37	0	44040192	60	10597
2026-01-04 11:52:08.70	29.18	4.02	-44.5	-46.0	19.7	0.00e+00	0	37	0	50331648	60	9713
2026-01-04 11:52:11.74	29.53	4.15	-44.8	-46.3	19.5	0.00e+00	0	37	0	55574528	60	10096
2026-01-04 11:52:14.77	29.88	4.28	-45.0	-46.6	19.5	0.00e+00	0	37	0	61865984	60	10385
2026-01-04 11:52:17.80	30.23	4.41	-44.8	-46.3	19.5	0.00e+00	0	37	0	67108864	60	10088
2026-01-04 11:52:20.83	30.58	4.54	-44.5	-45.9	19.8	0.00e+00	0	37	0	72351744	60	9614
2026-01-04 11:52:23.87	30.94	4.67	-44.9	-46.5	19.5	0.00e+00	0	37	0	78643200	60	10267
2026-01-04 11:52:26.90	31.30	4.80	-44.1	-45.5	20.4	0.00e+00	0	37	0	83886080	60	9162
2026-01-04 11:52:29.93	31.67	4.93	-44.1	-45.4	20.5	0.00e+00	0	37	0	90177536	60	9109
2026-01-04 11:52:32.96	32.03	5.05	-44.1	-45.4	20.4	0.00e+00	0	37	0	95420416	60	9111
2026-01-04 11:52:36.00	32.40	5.18	-44.4	-45.8	20.1	0.00e+00	0	37	0	101711872	60	9495
2026-01-04 11:52:39.03	32.78	5.31	-44.2	-45.6	20.4	0.00e+00	0	37	0	106954752	60	9246
2026-01-04 11:52:42.06	33.15	5.43	-44.2	-45.6	20.4	0.00e+00	0	37	0	112197632	60	9300
2026-01-04 11:52:45.10	33.54	5.56	-44.1	-45.5	20.5	0.00e+00	0	37	0	118489088	60	9144
2026-01-04 11:52:48.13	33.92	5.69	-44.6	-46.0	20.2	0.00e+00	0	37	0	123731968	60	9750
2026-01-04 11:52:51.16	34.30	5.81	-44.0	-45.4	20.7	0.00e+00	0	37	0	130023424	60	9033
2026-01-04 11:52:54.20	34.69	5.94	-44.2	-45.5	20.6	0.00e+00	0	37	0	135266304	60	9204
2026-01-04 11:52:57.23	35.09	6.06	-44.0	-45.3	20.6	0.00e+00	0	37	0	141557760	60	8961
2026-01-04 11:53:00.26	35.48	6.19	-43.8	-45.1	20.8	0.00e+00	0	37	0	146800640	60	8729
2026-01-04 11:53:03.30	35.88	6.31	-43.9	-45.2	20.8	0.00e+00	0	37	0	152043520	60	8861
2026-01-04 11:53:06.33	36.28	6.43	-44.0	-45.4	20.7	0.00e+00	0	37	0	158334976	60	9040
2026-01-04 11:53:09.36	36.69	6.56	-44.3	-45.7	20.4	0.00e+00	0	37	0	163577856	60	9375
2026-01-04 11:53:12.40	37.10	6.68	-44.2	-45.5	20.5	0.00e+00	0	37	0	169869312	60	9221
2026-01-04 11:53:15.43	37.51	6.80	-44.0	-45.3	20.8	0.00e+00	0	37	0	175112192	60	8984
2026-01-04 11:53:18.46	37.93	6.92	-44.4	-45.8	20.2	0.00e+00	0	37	0	181403648	60	9558
2026-01-04 11:53:21.49	38.35	7.04	-44.0	-45.3	20.6	0.00e+00	0	37	0	186646528	60	8991
2026-01-04 11:53:24.53	38.77	7.16	-44.2	-45.5	20.5	0.00e+00	0	37	0	191889408	60	9236
2026-01-04 11:53:27.56	39.19	7.28	-44.3	-45.6	20.6	0.00e+00	0	37	0	198180864	60	9311
2026-01-04 11:53:30.59	39.62	7.39	-44.3	-45.7	20.5	0.00e+00	0	37	0	203423744	60	9406
2026-01-04 11:53:33.63	40.06	7.51	-44.4	-45.8	20.4	0.00e+00	0	37	0	209715200	60	9469
2026-01-04 11:53:36.66	40.49	7.63	-44.3	-45.6	20.6	0.00e+00	0	37	0	214958080	60	9284
2026-01-04 11:53:39.69	40.93	7.74	-44.3	-45.6	20.6	0.00e+00	0	37	0	221249536	60	9323
2026-01-04 11:53:42.73	41.37	7.86	-44.1	-45.4	20.7	0.00e+00	0	37	0	226492416	60	9064
2026-01-04 11:53:45.76	41.82	7.97	-44.2	-45.5	20.7	0.00e+00	0	37	0	231735296	60	9169
2026-01-04 11:53:48.79	42.27	8.08	-44.2	-45.5	20.7	0.00e+00	0	37	0	238026752	60	9178
2026-01-04 11:53:51.83	42.72	8.19	-43.8	-45.1	21.0	0.00e+00	0	37	0	243269632	60	8764
2026-01-04 11:53:54.85	43.17	8.30	-44.1	-45.4	20.8	0.00e+00	0	37	0	249561088	60	9101
2026-01-04 11:53:57.88	43.63	8.41	-44.3	-45.6	20.6	0.00e+00	0	37	0	254803968	60	9296
2026-01-04 11:54:00.92	44.10	8.52	-44.4	-45.8	20.3	0.00e+00	0	37	0	260046848	60	9527
2026-01-04 11:54:03.95	44.56	8.63	-44.1	-45.4	20.8	0.00e+00	0	37	0	266338304	60	9125
2026-01-04 11:54:06.98	45.03	8.73	-44.0	-45.3	20.9	0.00e+00	0	37	0	271581184	60	8961
2026-01-04 11:54:10.02	45.50	8.84	-43.8	-45.0	21.2	0.00e+00	0	37	0	277872640	60	8681
2026-01-04 11:54:13.05	45.98	8.94	-43.9	-45.2	21.1	0.00e+00	0	37	0	283115520	60	8832
2026-01-04 11:54:16.08	46.46	9.04	-44.1	-45.4	20.8	0.00e+00	0	37	0	289406976	60	9086
2026-01-04 11:54:19.11	46.94	9.14	-44.3	-45.6	20.6	0.00e+00	0	37	0	294649856	60	9272
2026-01-04 11:54:22.15	47.42	9.24	-44.4	-45.8	20.6	0.00e+00	0	37	0	299892736	60	9469
2026-01-04 11:54:25.18	47.91	9.34	-44.3	-45.6	20.8	0.00e+00	0	37	0	306184192	60	9321
2026-01-04 11:54:28.21	48.40	9.43	-44.3	-45.6	20.5	0.00e+00	0	37	0	311427072	60	9321
2026-01-04 11:54:31.24	48.90	9.53	-44.4	-45.7	20.4	0.00e+00	0	37	0	317718528	60	9433
2026-01-04 11:54:34.28	49.40	9.62	-44.1	-45.4	21.0	0.00e+00	0	37	0	322961408	60	9101
2026-01-04 11:54:37.31	49.90	9.72	-44.1	-45.4	20.9	0.00e+00	0	37	0	329252864	60	9104
2026-01-04 11:54:40.34	50.40	9.81	-44.2	-45.5	20.8	0.00e+00	0	37	0	334495744	60	9178
2026-01-04 11:54:43.38	50.91	9.89	-44.3	-45.6	20.7	0.00e+00	0	37	0	339738624	60	9320
2026-01-04 11:54:46.41	51.42	9.98	-44.3	-45.6	20.6	0.00e+00	0	37	0	346030080	60	9330
2026-01-04 11:54:49.44	51.93	10.07	-44.2	-45.5	20.9	0.00e+00	0	37	0	351272960	60	9202
2026-01-04 11:54:52.47	52.44	10.15	-44.0	-45.3	21.1	0.00e+00	0	37	0	357564416	60	8962
2026-01-04 11:54:55.51	52.96	10.23	-43.9	-45.1	21.3	0.00e+00	0	37	0	362807296	60	8751
2026-01-04 11:54:58.54	53.48	10.31	-43.8	-45.0	21.3	0.00e+00	0	37	0	369098752	60	8671
2026-01-04 11:55:01.58	54.01	10.39	-44.0	-45.2	21.1	0.00e+00	0	37	0	374341632	60	8913
2026-01-04 11:55:04.61	54.54	10.47	-43.9	-45.2	21.2	0.00e+00	0	37	0	379584512	60	8842
2026-01-04 11:55:07.64	55.07	10.54	-43.9	-45.1	21.2	0.00e+00	0	37	0	385875968	60	8800
2026-01-04 11:55:10.67	55.60	10.61	-43.7	-44.9	21.4	0.00e+00	0	37	0	391118848	60	8540
2026-01-04 11:55:13.71	56.13	10.69	-43.4	-44.6	21.7	0.00e+00	0	37	0	397410304	60	8243
2026-01-04 11:55:16.74	56.67	10.75	-43.6	-44.7	21.6	0.00e+00	0	37	0	402653184	60	8405
2026-01-04 11:55:19.77	57.21	10.82	-43.5	-44.7	21.7	0.00e+00	0	37	0	408944640	60	8389
2026-01-04 11:55:22.81	57.75	10.89	-43.9	-45.1	21.3	0.00e+00	0	37	0	414187520	60	8791
2026-01-04 11:55:25.84	58.30	10.95	-44.0	-45.3	21.1	0.00e+00	0	37	0	419430400	60	8949
2026-01-04 11:55:28.87	58.84	11.01	-44.0	-45.3	21.1	0.00e+00	0	37	0	425721856	60	8962
2026-01-04 11:55:31.91	59.39	11.07	-44.1	-45.4	21.0	0.00e+00	0	37	0	430964736	60	9053
2026-01-04 11:55:34.94	59.94	11.12	-44.4	-45.7	20.7	0.00e+00	0	37	0	437256192	60	9431
2026-01-04 11:55:37.97	60.49	11.18	-44.5	-45.9	20.5	0.00e+00	0	37	0	442499072	60	9609
2026-01-04 11:55:41.01	61.05	11.23	-44.5	-45.8	20.6	0.00e+00	0	37	0	447741952	60	9502
2026-01-04 11:55:44.04	61.61	11.28	-44.7	-46.1	20.4	0.00e+00	0	37	0	454033408	60	9803
2026-01-04 11:55:47.07	62.16	11.32	-44.6	-46.0	20.4	0.00e+00	0	37	0	459276288	60	9718
2026-01-04 11:55:50.11	62.73	11.37	-44.9	-46.3	20.1	0.00e+00	0	37	0	465567744	60	10096
2026-01-04 11:55:53.14	63.29	11.41	-44.7	-46.1	20.4	0.00e+00	0	37	0	470810624	60	9805
2026-01-04 11:55:56.17	63.85	11.45	-44.7	-46.0	20.2	0.00e+00	0	37	0	477102080	60	9784
2026-01-04 11:55:59.21	64.42	11.49	-44.3	-45.6	20.8	0.00e+00	0	37	0	482344960	60	9305
2026-01-04 11:56:02.24	64.98	11.52	-44.2	-45.5	20.9	0.00e+00	0	37	0	487587840	60	9210
2026-01-04 11:56:05.27	65.55	11.55	-44.4	-45.7	20.7	0.00e+00	0	37	0	493879296	60	9409
2026-01-04 11:56:08.30	66.12	11.58	-44.5	-45.9	20.6	0.00e+00	0	37	0	499122176	60	9568
2026-01-04 11:56:11.34	66.69	11.61	-44.0	-45.3	21.0	0.00e+00	0	37	0	505413632	60	8959
2026-01-04 11:56:14.37	67.26	11.64	-43.9	-45.1	21.1	0.00e+00	0	37	0	510656512	60	8796
2026-01-04 11:56:17.40	67.83	11.66	-44.0	-45.3	21.0	0.00e+00	0	37	0	516947968	60	8967
2026-01-04 11:56:20.44	68.40	11.68	-43.9	-45.1	21.3	0.00e+00	0	37	0	522190848	60	8770
2026-01-04 11:56:23.47	68.98	11.70	-44.0	-45.3	21.0	0.00e+00	0	37	0	527433728	60	8970
2026-01-04 11:56:26.50	69.55	11.71	-43.9	-45.1	21.2	0.00e+00	0	37	0	533725184	60	8771
2026-01-04 11:56:29.53	70.12	11.72	-43.7	-44.9	21.4	0.00e+00	0	37	0	538968064	60	8607
2026-01-04 11:56:32.57	70.70	11.73	-43.4	-44.6	21.6	0.00e+00	0	37	0	545259520	60	8263
2026-01-04 11:56:35.60	71.27	11.74	-43.0	-44.1	22.1	0.00e+00	0	37	0	550502400	60	7786
2026-01-04 11:56:38.63	71.85	11.75	-42.9	-44.0	22.2	0.00e+00	0	37	0	556793856	60	7691
2026-01-04 11:56:41.66	72.42	11.75	-42.9	-44.1	22.2	0.00e+00	0	37	0	562036736	60	7782
2026-01-04 11:56:44.70	73.00	11.75	-42.7	-43.8	22.4	0.00e+00	0	37	0	567279616	60	7531
2026-01-04 11:56:47.73	73.58	11.74	-42.7	-43.7	22.4	0.00e+00	0	37	0	573571072	60	7504
2026-01-04 11:56:50.76	74.15	11.74	-42.7	-43.8	22.5	0.00e+00	0	37	0	578813952	60	7514
2026-01-04 11:56:53.80	74.73	11.73	-42.9	-44.0	22.2	0.00e+00	0	37	0	585105408	60	7741
2026-01-04 11:56:56.83	75.30	11.72	-42.6	-43.6	22.5	0.00e+00	0	37	0	590348288	60	7418
2026-01-04 11:56:59.86	75.88	11.70	-42.5	-43.6	22.7	0.00e+00	0	37	0	595591168	60	7352
2026-01-04 11:57:02.90	76.45	11.69	-42.3	-43.4	22.8	0.00e+00	0	37	0	601882624	60	7178
2026-01-04 11:57:05.93	77.02	11.67	-42.6	-43.6	22.6	0.00e+00	0	37	0	607125504	60	7404
2026-01-04 11:57:08.96	77.60	11.65	-42.7	-43.8	22.4	0.00e+00	0	37	0	613416960	60	7531
2026-01-04 11:57:12.00	78.17	11.63	-42.7	-43.7	22.5	0.00e+00	0	37	0	618659840	60	7480
2026-01-04 11:57:15.03	78.74	11.60	-42.8	-43.9	22.2	0.00e+00	0	37	0	624951296	60	7612
2026-01-04 11:57:18.06	79.31	11.57	-42.7	-43.8	22.4	0.00e+00	0	37	0	630194176	60	7528
2026-01-04 11:57:21.09	79.88	11.54	-42.7	-43.7	22.4	0.00e+00	0	37	0	635437056	60	7503
2026-01-04 11:57:24.13	80.45	11.51	-42.9	-44.0	22.2	0.00e+00	0	37	0	641728512	60	7738
2026-01-04 11:57:27.16	81.01	11.47	-43.4	-44.5	21.7	0.00e+00	0	37	0	646971392	60	8229
2026-01-04 11:57:30.19	81.58	11.43	-43.4	-44.6	21.7	0.00e+00	0	37	0	653262848	60	8253
2026-01-04 11:57:33.23	82.14	11.39	-43.0	-44.1	22.1	0.00e+00	0	37	0	658505728	60	7835
2026-01-04 11:57:36.26	82.70	11.35	-42.8	-43.8	22.3	0.00e+00	0	37	0	664797184	60	7583
2026-01-04 11:57:39.29	83.26	11.30	-42.8	-43.9	22.3	0.00e+00	0	37	0	670040064	60	7607
2026-01-04 11:57:42.33	83.82	11.25	-42.8	-43.9	22.3	0.00e+00	0	37	0	675282944	60	7630
2026-01-04 11:57:45.36	84.38	11.20	-42.5	-43.6	22.4	0.00e+00	0	37	0	681574400	60	7380
2026-01-04 11:57:48.39	84.93	11.15	-42.6	-43.6	22.6	0.00e+00	0	37	0	686817280	60	7395
2026-01-04 11:57:51.42	85.49	11.09	-42.5	-43.5	22.6	0.00e+00	0	37	0	693108736	60	7323
2026-01-04 11:57:54.46	86.04	11.04	-42.4	-43.4	22.6	0.00e+00	0	37	0	698351616	60	7238
2026-01-04 11:57:57.49	86.59	10.98	-42.3	-43.4	22.8	0.00e+00	0	37	0	704643072	60	7207
2026-01-04 11:58:00.52	87.13	10.92	-42.1	-43.2	22.9	0.00e+00	0	37	0	709885952	60	7008
2026-01-04 11:58:03.56	87.68	10.85	-42.3	-43.3	22.8	0.00e+00	0	37	0	715128832	60	7138
2026-01-04 11:58:06.59	88.22	10.79	-42.6	-43.7	22.5	0.00e+00	0	37	0	721420288	60	7477
2026-01-04 11:58:09.62	88.76	10.72	-42.3	-43.4	22.8	0.00e+00	0	37	0	726663168	60	7202
2026-01-04 11:58:12.66	89.30	10.65	-42.5	-43.5	22.6	0.00e+00	0	37	0	732954624	60	7318
2026-01-04 11:58:15.69	89.83	10.58	-42.5	-43.6	22.6	0.00e+00	0	37	0	738197504	60	7368
2026-01-04 11:58:18.72	90.37	10.50	-42.2	-43.3	22.9	0.00e+00	0	37	0	744488960	60	7113
2026-01-04 11:58:21.76	90.90	10.43	-42.3	-43.3	22.8	0.00e+00	0	37	0	749731840	60	7138
2026-01-04 11:58:24.79	91.42	10.35	-42.5	-43.5	22.6	0.00e+00	0	37	0	754974720	60	7314
2026-01-04 11:58:27.82	91.95	10.27	-42.7	-43.8	22.4	0.00e+00	0	37	0	761266176	60	7567
2026-01-04 11:58:30.86	92.47	10.19	-42.8	-43.9	22.4	0.00e+00	0	37	0	766509056	60	7616
2026-01-04 11:58:33.89	92.99	10.11	-42.9	-44.0	22.1	0.00e+00	0	37	0	772800512	60	7736
2026-01-04 11:58:36.92	93.50	10.02	-43.3	-44.4	21.7	0.00e+00	0	37	0	778043392	60	8128
2026-01-04 11:58:39.96	94.02	9.93	-43.6	-44.8	21.4	0.00e+00	0	37	0	783286272	60	8476
2026-01-04 11:58:42.99	94.53	9.85	-43.9	-45.2	21.1	0.00e+00	0	37	0	789577728	60	8828
2026-01-04 11:58:46.02	95.03	9.76	-44.4	-45.7	20.6	0.00e+00	0	37	0	794820608	60	9440
2026-01-04 11:58:49.06	95.54	9.66	-44.6	-46.0	20.2	0.00e+00	0	37	0	801112064	60	9687
2026-01-04 11:58:52.09	96.04	9.57	-44.4	-45.7	20.6	0.00e+00	0	37	0	806354944	60	9435
2026-01-04 11:58:55.12	96.54	9.48	-44.2	-45.6	20.6	0.00e+00	0	37	0	812646400	60	9249
2026-01-04 11:58:58.16	97.03	9.38	-44.6	-46.0	20.3	0.00e+00	0	37	0	817889280	60	9726
2026-01-04 11:59:01.19	97.52	9.28	-44.8	-46.2	19.9	0.00e+00	0	37	0	823132160	60	9982
2026-01-04 11:59:04.22	98.01	9.18	-45.2	-46.8	19.5	0.00e+00	0	37	0	829423616	60	10643
2026-01-04 11:59:07.25	98.50	9.08	-45.8	-47.5	18.7	0.00e+00	0	37	0	834666496	60	11525
2026-01-04 11:59:10.29	98.98	8.98	-45.9	-47.7	18.5	0.00e+00	0	37	0	840957952	60	11846
2026-01-04 11:59:13.32	99.46	8.88	-45.8	-47.5	18.8	0.00e+00	0	37	0	846200832	60	11538
2026-01-04 11:59:16.35	99.93	8.77	-45.6	-47.3	18.9	0.00e+00	0	37	0	852492288	60	11263
2026-01-04 11:59:19.39	100.41	8.67	-45.4	-47.1	19.2	0.00e+00	0	37	0	857735168	60	11033
2026-01-04 11:59:22.42	100.87	8.56	-45.3	-46.9	19.3	0.00e+00	0	37	0	862978048	60	10825
2026-01-04 11:59:25.46	101.34	8.45	-45.7	-47.4	18.8	0.00e+00	0	37	0	869269504	60	11486
2026-01-04 11:59:28.49	101.80	8.34	-46.0	-47.8	18.3	0.00e+00	0	37	0	874512384	60	12035
2026-01-04 11:59:31.52	102.26	8.23	-45.6	-47.2	19.0	0.00e+00	0	37	0	880803840	60	11214
2026-01-04 11:59:34.55	102.72	8.12	-45.2	-46.9	19.4	0.00e+00	0	37	0	886046720	60	10828
2026-01-04 11:59:37.59	103.17	8.01	-45.3	-47.0	19.2	0.00e+00	0	37	0	892338176	60	10960
2026-01-04 11:59:40.62	103.62	7.89	-45.5	-47.2	19.0	0.00e+00	0	37	0	897581056	60	11126
2026-01-04 11:59:43.65	104.06	7.78	-45.4	-47.1	19.2	0.00e+00	0	37	0	902823936	60	11011
2026-01-04 11:59:46.69	104.51	7.66	-44.9	-46.4	19.8	0.00e+00	0	37	0	909115392	60	10161
2026-01-04 11:59:49.72	104.95	7.55	-44.4	-45.7	20.4	0.00e+00	0	37	0	914358272	60	9451
2026-01-04 11:59:52.75	105.38	7.43	-44.6	-46.0	20.1	0.00e+00	0	37	0	920649728	60	9766
2026-01-04 11:59:55.78	105.81	7.31	-44.6	-46.0	20.2	0.00e+00	0	37	0	925892608	60	9744
2026-01-04 11:59:58.82	106.24	7.19	-44.6	-46.0	20.1	0.00e+00	0	37	0	931135488	60	9747
2026-01-04 12:00:01.85	106.67	7.07	-44.6	-46.1	20.0	0.00e+00	0	37	0	937426944	60	9788
2026-01-04 12:00:04.88	107.09	6.95	-44.7	-46.2	19.9	0.00e+00	0	37	0	942669824	60	9950
2026-01-04 12:00:07.92	107.51	6.83	-44.4	-45.9	20.2	0.00e+00	0	37	0	948961280	60	9613
2026-01-04 12:00:10.95	107.92	6.71	-43.7	-45.1	20.8	0.00e+00	0	37	0	954204160	60	8795
2026-01-04 12:00:13.98	108.33	6.59	-43.5	-44.8	21.1	0.00e+00	0	37	0	960495616	60	8487
2026-01-04 12:00:17.01	108.74	6.47	-43.6	-45.0	21.0	0.00e+00	0	37	0	965738496	60	8629
2026-01-04 12:00:20.05	109.15	6.34	-43.8	-45.1	20.8	0.00e+00	0	37	0	970981376	60	8799
2026-01-04 12:00:23.08	109.55	6.22	-43.5	-44.8	21.1	0.00e+00	0	37	0	977272832	60	8454
2026-01-04 12:00:26.11	109.95	6.09	-43.5	-44.7	21.3	0.00e+00	0	37	0	982515712	60	8388
2026-01-04 12:00:29.15	110.34	5.97	-43.8	-45.2	20.8	0.00e+00	0	37	0	988807168	60	8831
2026-01-04 12:00:32.18	110.74	5.84	-44.2	-45.6	20.4	0.00e+00	0	37	0	994050048	60	9287
2026-01-04 12:00:35.21	111.12	5.71	-44.0	-45.4	20.5	0.00e+00	0	37	0	1000341504	60	9087
2026-01-04 12:00:38.25	111.51	5.59	-43.8	-45.1	20.8	0.00e+00	0	37	0	1005584384	60	8789
2026-01-04 12:00:41.28	111.89	5.46	-43.5	-44.8	21.1	0.00e+00	0	37	0	1010827264	60	8463
2026-01-04 12:00:44.31	112.27	5.33	-43.6	-44.9	21.0	0.00e+00	0	37	0	1017118720	60	8583
2026-01-04 12:00:47.34	112.65	5.20	-43.6	-44.9	20.8	0.00e+00	0	37	0	1022361600	60	8605
2026-01-04 12:00:50.38	113.02	5.07	-44.0	-45.3	20.6	0.00e+00	0	37	0	1028653056	60	9024
2026-01-04 12:00:53.41	113.39	4.95	-44.0	-45.4	20.6	0.00e+00	0	37	0	1033895936	60	9039
2026-01-04 12:00:56.44	113.76	4.82	-43.7	-45.0	20.6	0.00e+00	0	37	0	1040187392	60	8697
2026-01-04 12:00:59.48	114.12	4.69	-43.9	-45.3	20.4	0.00e+00	0	37	0	1045430272	60	8961
2026-01-04 12:01:02.51	114.48	4.56	-44.0	-45.4	20.1	0.00e+00	0	37	0	1050673152	60	9120
2026-01-04 12:01:05.54	114.84	4.43	-44.4	-45.9	19.7	0.00e+00	0	37	0	1056964608	60	9591
2026-01-04 12:01:08.57	115.19	4.30	-44.1	-45.5	20.1	0.00e+00	0	37	0	1062207488	60	9175
2026-01-04 12:01:11.61	115.55	4.17	-44.4	-45.9	19.7	0.00e+00	0	37	0	1068498944	60	9604
2026-01-04 12:01:14.64	115.89	4.03	-44.6	-46.1	19.5	0.00e+00	0	37	0	1073741824	60	9870
2026-01-04 12:01:17.67	116.24	3.90	-45.1	-46.8	18.9	0.00e+00	0	37	0	1080033280	60	10607
2026-01-04 12:01:20.71	116.58	3.77	-44.7	-46.3	19.3	0.00e+00	0	37	0	1085276160	60	10059
2026-01-04 12:01:23.74	116.92	3.64	-44.8	-46.5	19.1	0.00e+00	0	37	0	1090519040	60	10284
2026-01-04 12:01:26.77	117.26	3.51	-45.2	-47.0	18.4	0.00e+00	0	37	0	1096810496	60	10898
2026-01-04 12:01:29.81	117.59	3.38	-44.8	-46.6	18.7	0.00e+00	0	37	0	1102053376	60	10412
2026-01-04 12:01:32.84	117.92	3.24	-44.9	-46.7	18.6	0.00e+00	0	37	0	1108344832	60	10487
2026-01-04 12:01:35.87	118.25	3.11	-45.5	-47.5	17.8	0.00e+00	0	37	0	1113587712	60	11571
2026-01-04 12:01:38.91	118.58	2.98	-52.0	-67.5	3.6	1.51e+00	0	37	104	1116733440	60	115160
2026-01-04 12:01:41.94	118.90	2.85	-52.4	-68.0	3.6	1.51e+00	0	37	104	1116733440	60	121925
2026-01-04 12:01:44.97	119.22	2.71	-52.6	-68.1	3.6	1.51e+00	0	37	104	1116733440	60	123947
2026-01-04 12:01:48.01	119.54	2.58	-52.7	-68.2	3.6	1.51e+00	0	37	104	1116733440	60	125181
2026-01-04 12:01:51.04	119.85	2.45	-53.0	-68.6	3.6	1.51e+00	0	37	104	1116733440	60	130767
2026-01-04 12:01:54.08	120.16	2.32	-52.9	-68.4	3.6	1.51e+00	0	37	104	1116733440	60	128180
2026-01-04 12:01:57.11	120.47	2.18	-53.2	-68.7	3.6	1.51e+00	0	37	104	1116733440	60	133478
2026-01-04 12:02:00.14	120.78	2.05	-53.1	-68.7	3.6	1.51e+00	0	37	104	1116733440	60	132024
2026-01-04 12:02:03.17	121.08	1.92	-53.1	-68.6	3.6	1.51e+00	0	37	104	1116733440	60	130991
2026-01-04 12:02:06.20	121.38	1.79	-53.0	-68.5	3.6	1.51e+00	0	37	104	1116733440	60	130194
2026-01-04 12:02:09.24	121.68	1.65	-53.1	-68.6	3.6	1.51e+00	0	37	104	1116733440	60	131052
2026-01-04 12:02:12.27	121.98	1.52	-53.2	-68.7	3.6	1.51e+00	0	37	104	1116733440	60	132511
2026-01-04 12:02:15.30	122.27	1.39	-53.6	-69.1	3.6	1.51e+00	0	37	104	1116733440	60	138413
2026-01-04 12:02:18.34	122.56	1.25	-53.4	-69.0	3.6	1.51e+00	0	37	104	1116733440	60	137380
2026-01-04 12:02:21.37	122.85	1.12	-53.3	-68.8	3.6	1.51e+00	0	37	104	1116733440	60	134412
2026-01-04 12:02:24.40	123.13	0.99	-53.9	-69.4	3.6	1.51e+00	0	37	104	1116733440	60	144320
2026-01-04 12:02:27.44	123.42	0.86	-53.5	-69.0	3.6	1.51e+00	0	38	104	1116733440	60	136871
2026-01-04 12:02:30.47	123.70	0.72	-53.6	-69.1	3.6	1.51e+00	0	37	104	1116733440	60	139113
2026-01-04 12:02:33.50	123.98	0.59	-54.0	-69.6	3.6	1.51e+00	0	37	104	1116733440	60	146480
2026-01-04 12:02:36.53	124.25	0.46	-53.4	-68.9	3.6	1.51e+00	0	37	104	1116733440	60	136621
2026-01-04 12:02:39.57	124.53	0.33	-54.0	-69.5	3.6	1.51e+00	0	38	104	1116733440	60	146011
2026-01-04 12:02:42.60	124.80	0.19	-54.0	-69.5	3.6	1.51e+00	0	37	104	1116733440	60	145737
2026-01-04 12:02:45.63	125.07	0.06	-54.2	-69.7	3.6	1.51e+00	0	38	104	1116733440	60	149376

#Closed at: 2026-01-04 12:02:47
#Recorded file [1116 MB]: D:/lorett/data/35034_260104_145037.dat