passes_logs/2026/01/04/R4.6S_Anadyr_2ch/R4.6S_Anadyr_2ch__20260104_194927_SUOMI_NPP_rec.log

#Pass ID: 20260104_194927_SUOMI NPP
#Satellite: SUOMI NPP
#Configuration: NPP
#almurnet v.1.7.20251203
#Start time: 2026-01-04 19:49:28

#Version: 2.2.20231116
#Station: R4.6S_Anadyr_2ch
#Location: 177.4865 lon 64.73178 lat
#TLE: 1 37849U 11061A   25350.92281687  .00000071  00000+0  54882-4 0  9996
#TLE: 2 37849  98.7777 288.2268 0002366 112.8570 247.2856 14.19515404732588

#Time	Az	El	Level	Level2	SNR	BER	BlckErr	Temp	State	Recorded	gain1	gain2
2026-01-04 19:49:28.43	58.16	0.04	-51.3	-62.4	3.5	8.46e-01	0	24	0	0	60	64813
2026-01-04 19:49:31.46	57.94	0.19	-52.3	-67.7	3.5	1.51e+00	0	26	104	0	60	118775
2026-01-04 19:49:34.50	57.70	0.33	-51.8	-67.2	3.6	1.51e+00	0	26	104	0	60	111841
2026-01-04 19:49:37.53	57.47	0.48	-51.3	-66.8	3.6	1.51e+00	0	26	104	0	60	106916
2026-01-04 19:49:40.56	57.24	0.63	-51.2	-66.6	3.6	1.51e+00	0	26	104	0	60	104744
2026-01-04 19:49:43.60	57.00	0.78	-50.6	-66.1	3.6	1.51e+00	0	26	104	0	60	98340
2026-01-04 19:49:46.63	56.76	0.93	-49.8	-65.3	3.6	1.51e+00	0	26	104	0	60	89263
2026-01-04 19:49:49.66	56.51	1.08	-49.8	-65.2	3.6	1.51e+00	0	26	104	0	60	88805
2026-01-04 19:49:52.69	56.27	1.22	-49.8	-65.2	3.6	1.51e+00	0	26	104	0	60	88896
2026-01-04 19:49:55.72	56.02	1.37	-49.8	-65.2	3.6	1.51e+00	0	26	104	0	60	89060
2026-01-04 19:49:58.76	55.77	1.52	-49.8	-65.2	3.6	1.51e+00	0	26	104	0	60	88861
2026-01-04 19:50:01.79	55.51	1.67	-49.8	-65.2	3.6	1.51e+00	0	26	104	0	60	88610
2026-01-04 19:50:04.82	55.26	1.82	-49.8	-65.2	3.6	1.51e+00	0	26	104	0	60	89144
2026-01-04 19:50:07.85	55.00	1.97	-49.8	-65.2	3.6	1.51e+00	0	26	104	0	60	88338
2026-01-04 19:50:10.88	54.74	2.12	-49.8	-64.8	3.6	1.51e+00	0	26	104	0	60	84403
2026-01-04 19:50:13.91	54.47	2.28	-49.8	-65.2	3.6	1.51e+00	0	26	104	0	60	88808
2026-01-04 19:50:16.95	54.20	2.43	-49.8	-65.1	3.6	1.51e+00	0	26	104	0	60	87535
2026-01-04 19:50:19.98	53.93	2.58	-49.8	-65.2	3.5	1.51e+00	0	26	104	0	60	88287
2026-01-04 19:50:23.02	53.66	2.73	-49.7	-64.1	3.6	1.51e+00	0	26	104	0	60	78474
2026-01-04 19:50:26.05	53.38	2.88	-49.6	-62.5	3.8	1.51e+00	0	26	104	0	60	64812
2026-01-04 19:50:29.08	53.10	3.03	-49.8	-64.4	3.6	4.20e-01	0	27	104	3145728	60	81010
2026-01-04 19:50:32.11	52.82	3.19	-45.5	-47.9	16.5	9.66e-02	0	27	0	4194304	60	12074
2026-01-04 19:50:35.15	52.53	3.34	-45.7	-48.2	16.1	0.00e+00	0	26	0	5242880	60	12532
2026-01-04 19:50:38.18	52.25	3.49	-45.0	-47.2	17.1	0.00e+00	0	26	0	11534336	60	11231
2026-01-04 19:50:41.21	51.95	3.64	-45.1	-47.2	17.1	0.00e+00	0	27	0	16777216	60	11220
2026-01-04 19:50:44.25	51.66	3.80	-45.4	-47.8	16.5	0.00e+00	0	27	0	22020096	60	11912
2026-01-04 19:50:47.28	51.36	3.95	-45.0	-47.2	17.3	0.00e+00	0	27	0	28311552	60	11141
2026-01-04 19:50:50.32	51.06	4.10	-44.6	-46.6	17.8	0.00e+00	0	27	0	33554432	60	10436
2026-01-04 19:50:53.35	50.76	4.26	-44.5	-46.4	18.0	0.00e+00	0	27	0	39845888	60	10231
2026-01-04 19:50:56.38	50.45	4.41	-44.7	-46.7	17.7	0.00e+00	0	27	0	45088768	60	10603
2026-01-04 19:50:59.41	50.14	4.56	-44.7	-46.7	17.8	0.00e+00	0	27	0	51380224	60	10537
2026-01-04 19:51:02.45	49.82	4.72	-44.9	-46.9	17.6	0.00e+00	0	27	0	56623104	60	10805
2026-01-04 19:51:05.48	49.50	4.87	-44.7	-46.6	17.8	0.00e+00	0	27	0	61865984	60	10417
2026-01-04 19:51:08.51	49.18	5.02	-45.3	-47.5	17.1	0.00e+00	0	27	0	68157440	60	11604
2026-01-04 19:51:11.55	48.86	5.18	-46.3	-49.0	16.2	0.00e+00	0	27	0	73400320	60	13772
2026-01-04 19:51:14.58	48.53	5.33	-46.1	-48.6	15.8	0.00e+00	0	27	0	79691776	60	13192
2026-01-04 19:51:17.61	48.20	5.48	-46.3	-49.0	16.1	0.00e+00	0	27	0	84934656	60	13670
2026-01-04 19:51:20.65	47.86	5.64	-45.1	-47.2	17.2	0.00e+00	0	27	0	90177536	60	11118
2026-01-04 19:51:23.68	47.52	5.79	-44.1	-45.8	18.6	0.00e+00	0	27	0	96468992	60	9539
2026-01-04 19:51:26.71	47.18	5.95	-43.7	-45.3	19.2	0.00e+00	0	27	0	101711872	60	8985
2026-01-04 19:51:29.74	46.83	6.10	-43.8	-45.4	19.2	0.00e+00	0	27	0	108003328	60	9081
2026-01-04 19:51:32.78	46.48	6.25	-43.6	-45.1	19.4	0.00e+00	0	27	0	113246208	60	8774
2026-01-04 19:51:35.81	46.13	6.41	-44.0	-45.7	18.9	0.00e+00	0	27	0	119537664	60	9401
2026-01-04 19:51:38.84	45.77	6.56	-43.8	-45.4	19.1	0.00e+00	0	27	0	124780544	60	9070
2026-01-04 19:51:41.88	45.41	6.71	-43.7	-45.2	19.5	0.00e+00	0	27	0	130023424	60	8868
2026-01-04 19:51:44.91	45.04	6.86	-43.9	-45.5	19.3	0.00e+00	0	27	0	136314880	60	9216
2026-01-04 19:51:47.94	44.67	7.02	-43.8	-45.3	19.3	0.00e+00	0	27	0	141557760	60	9027
2026-01-04 19:51:50.97	44.30	7.17	-43.7	-45.3	19.4	0.00e+00	0	27	0	147849216	60	8939
2026-01-04 19:51:54.01	43.92	7.32	-43.9	-45.5	19.3	0.00e+00	0	27	0	153092096	60	9156
2026-01-04 19:51:57.04	43.54	7.47	-43.5	-45.0	19.7	0.00e+00	0	27	0	159383552	60	8719
2026-01-04 19:52:00.07	43.15	7.62	-43.5	-45.1	19.8	0.00e+00	0	27	0	164626432	60	8734
2026-01-04 19:52:03.11	42.76	7.78	-43.8	-45.3	19.5	0.00e+00	0	27	0	169869312	60	8990
2026-01-04 19:52:06.14	42.37	7.93	-43.4	-44.8	19.9	0.00e+00	0	27	0	176160768	60	8487
2026-01-04 19:52:09.17	41.97	8.08	-43.4	-44.9	19.9	0.00e+00	0	27	0	181403648	60	8546
2026-01-04 19:52:12.21	41.57	8.23	-43.1	-44.6	20.1	0.00e+00	0	27	0	187695104	60	8235
2026-01-04 19:52:15.24	41.16	8.38	-43.4	-44.8	19.8	0.00e+00	0	27	0	192937984	60	8513
2026-01-04 19:52:18.28	40.75	8.53	-43.6	-45.1	19.6	0.00e+00	0	27	0	199229440	60	8764
2026-01-04 19:52:21.31	40.33	8.67	-44.0	-45.6	19.3	0.00e+00	0	27	0	204472320	60	9329
2026-01-04 19:52:24.34	39.91	8.82	-43.5	-45.0	19.7	0.00e+00	0	27	0	209715200	60	8643
2026-01-04 19:52:27.37	39.49	8.97	-43.8	-45.4	19.5	0.00e+00	0	27	0	216006656	60	9057
2026-01-04 19:52:30.41	39.06	9.12	-43.2	-44.6	20.2	0.00e+00	0	27	0	221249536	60	8284
2026-01-04 19:52:33.44	38.63	9.26	-43.4	-44.9	20.0	0.00e+00	0	27	0	227540992	60	8580
2026-01-04 19:52:36.47	38.19	9.41	-42.9	-44.2	20.5	0.00e+00	0	27	0	232783872	60	7948
2026-01-04 19:52:39.51	37.75	9.55	-43.0	-44.3	20.5	0.00e+00	0	27	0	239075328	60	8019
2026-01-04 19:52:42.54	37.30	9.69	-43.1	-44.5	20.6	0.00e+00	0	27	0	244318208	60	8206
2026-01-04 19:52:45.57	36.85	9.84	-41.5	-42.6	21.9	0.00e+00	0	27	0	249561088	60	6565
2026-01-04 19:52:48.61	36.40	9.98	-41.3	-42.4	22.2	0.00e+00	0	27	0	255852544	60	6455
2026-01-04 19:52:51.64	35.94	10.12	-41.6	-42.7	21.9	0.00e+00	0	27	0	261095424	60	6663
2026-01-04 19:52:54.67	35.47	10.26	-41.9	-43.1	21.5	0.00e+00	0	27	0	267386880	60	6981
2026-01-04 19:52:57.71	35.00	10.40	-42.4	-43.7	21.1	0.00e+00	0	27	0	272629760	60	7432
2026-01-04 19:53:00.74	34.53	10.53	-41.7	-42.8	21.8	0.00e+00	0	27	0	277872640	60	6750
2026-01-04 19:53:03.78	34.05	10.67	-41.4	-42.5	22.1	0.00e+00	0	27	0	284164096	60	6499
2026-01-04 19:53:06.81	33.57	10.81	-41.1	-42.1	22.4	0.00e+00	0	27	0	289406976	60	6234
2026-01-04 19:53:09.84	33.08	10.94	-40.6	-41.6	22.8	0.00e+00	0	27	0	295698432	60	5842
2026-01-04 19:53:12.87	32.59	11.07	-40.8	-41.8	22.6	0.00e+00	0	27	0	300941312	60	5999
2026-01-04 19:53:15.91	32.10	11.20	-41.0	-42.0	22.5	0.00e+00	0	27	0	307232768	60	6166
2026-01-04 19:53:18.94	31.60	11.33	-40.7	-41.7	22.6	0.00e+00	0	27	0	312475648	60	5948
2026-01-04 19:53:21.97	31.09	11.46	-40.6	-41.5	23.0	0.00e+00	0	27	0	317718528	60	5828
2026-01-04 19:53:25.01	30.58	11.59	-40.3	-41.3	23.0	0.00e+00	0	27	0	324009984	58	6320
2026-01-04 19:53:28.04	30.07	11.71	-41.1	-42.1	22.5	0.00e+00	0	27	0	329252864	60	6215
2026-01-04 19:53:31.07	29.55	11.84	-41.1	-42.1	22.5	0.00e+00	0	27	0	335544320	60	6240
2026-01-04 19:53:34.11	29.03	11.96	-41.5	-42.6	22.1	0.00e+00	0	27	0	340787200	60	6607
2026-01-04 19:53:37.14	28.50	12.08	-41.3	-42.4	22.3	0.00e+00	0	27	0	347078656	60	6406
2026-01-04 19:53:40.17	27.97	12.20	-41.0	-42.0	22.6	0.00e+00	0	27	0	352321536	60	6136
2026-01-04 19:53:43.21	27.43	12.31	-41.4	-42.5	22.2	0.00e+00	0	27	0	357564416	60	6526
2026-01-04 19:53:46.24	26.89	12.43	-41.4	-42.5	22.2	0.00e+00	0	27	0	363855872	60	6527
2026-01-04 19:53:49.27	26.35	12.54	-41.0	-42.0	22.6	0.00e+00	0	27	0	369098752	60	6163
2026-01-04 19:53:52.31	25.80	12.65	-40.6	-41.6	23.0	0.00e+00	0	27	0	375390208	60	5842
2026-01-04 19:53:55.34	25.25	12.76	-40.9	-41.9	22.7	0.00e+00	0	27	0	380633088	60	6090
2026-01-04 19:53:58.09	24.74	12.86	-41.0	-42.1	22.5	0.00e+00	0	27	0	386924544	60	6190
2026-01-04 19:54:01.42	24.13	12.97	-41.0	-42.0	22.6	0.00e+00	0	27	0	393216000	60	6170
2026-01-04 19:54:04.16	23.62	13.06	-40.8	-41.8	22.6	0.00e+00	0	27	0	397410304	60	6007
2026-01-04 19:54:07.48	23.00	13.17	-41.4	-42.5	22.1	0.00e+00	0	27	0	403701760	60	6510
2026-01-04 19:54:10.23	22.48	13.26	-42.1	-43.4	21.5	0.00e+00	0	27	0	408944640	60	7207
2026-01-04 19:54:13.55	21.85	13.36	-41.1	-42.2	22.4	0.00e+00	0	27	0	415236096	60	6268
2026-01-04 19:54:16.29	21.32	13.44	-40.6	-41.6	22.9	0.00e+00	0	27	0	420478976	60	5831
2026-01-04 19:54:19.61	20.68	13.54	-39.7	-40.6	23.6	0.00e+00	0	27	0	426770432	58	5859
2026-01-04 19:54:22.36	20.15	13.62	-40.1	-41.0	23.3	0.00e+00	0	27	0	432013312	58	6133
2026-01-04 19:54:25.68	19.51	13.71	-40.5	-41.5	22.9	0.00e+00	0	27	0	438304768	58	6477
2026-01-04 19:54:28.42	18.97	13.79	-39.9	-40.8	23.4	0.00e+00	0	27	0	443547648	58	5988
2026-01-04 19:54:31.74	18.32	13.87	-40.3	-41.3	22.8	0.00e+00	0	27	0	449839104	58	6353
2026-01-04 19:54:34.49	17.77	13.94	-41.2	-42.3	22.4	0.00e+00	0	27	0	455081984	60	6363
2026-01-04 19:54:37.81	17.11	14.02	-41.5	-42.6	22.2	0.00e+00	0	27	0	461373440	60	6550
2026-01-04 19:54:40.56	16.56	14.08	-41.8	-43.0	21.8	0.00e+00	0	27	0	465567744	60	6872
2026-01-04 19:54:43.88	15.90	14.16	-41.7	-42.8	21.5	0.00e+00	0	27	0	471859200	60	6744
2026-01-04 19:54:46.62	15.35	14.21	-41.8	-43.0	21.7	0.00e+00	0	27	0	477102080	60	6872
2026-01-04 19:54:49.94	14.67	14.28	-41.4	-42.5	22.2	0.00e+00	0	27	0	483393536	60	6498
2026-01-04 19:54:52.69	14.11	14.33	-40.8	-41.8	22.7	0.00e+00	0	27	0	488636416	60	6032
2026-01-04 19:54:56.01	13.44	14.39	-40.6	-41.5	22.9	0.00e+00	0	27	0	494927872	60	5816
2026-01-04 19:54:58.75	12.88	14.44	-40.1	-41.1	23.2	0.00e+00	0	27	0	500170752	58	6191
2026-01-04 19:55:02.08	12.19	14.49	-41.0	-42.0	22.6	0.00e+00	0	27	0	506462208	58	6925
2026-01-04 19:55:04.82	11.63	14.53	-41.2	-42.3	22.4	0.00e+00	0	27	0	511705088	60	6380
2026-01-04 19:55:08.15	10.94	14.57	-41.0	-42.1	22.6	0.00e+00	0	27	0	517996544	60	6209
2026-01-04 19:55:10.89	10.37	14.61	-40.7	-41.7	22.8	0.00e+00	0	27	0	523239424	60	5916
2026-01-04 19:55:14.21	9.68	14.64	-41.3	-42.4	22.3	0.00e+00	0	27	0	529530880	60	6431
2026-01-04 19:55:16.96	9.11	14.67	-40.9	-42.0	22.7	0.00e+00	0	27	0	534773760	60	6116
2026-01-04 19:55:20.28	8.42	14.70	-41.0	-42.1	22.4	0.00e+00	0	27	0	541065216	60	6216
2026-01-04 19:55:23.02	7.85	14.72	-40.9	-42.0	22.7	0.00e+00	0	27	0	545259520	60	6115
2026-01-04 19:55:26.34	7.15	14.75	-40.6	-41.6	22.9	0.00e+00	0	27	0	551550976	60	5880
2026-01-04 19:55:29.09	6.57	14.76	-40.8	-41.8	22.8	0.00e+00	0	27	0	556793856	60	6029
2026-01-04 19:55:32.41	5.88	14.78	-40.9	-41.9	22.6	0.00e+00	0	27	0	563085312	60	6101
2026-01-04 19:55:35.15	5.30	14.78	-41.0	-42.0	22.6	0.00e+00	0	27	0	568328192	60	6165
2026-01-04 19:55:38.48	4.60	14.79	-41.2	-42.3	22.4	0.00e+00	0	27	0	574619648	60	6374
2026-01-04 19:55:41.22	4.03	14.79	-40.9	-41.9	22.6	0.00e+00	0	27	0	579862528	60	6081
2026-01-04 19:55:44.54	3.33	14.79	-40.5	-41.5	23.0	0.00e+00	0	27	0	586153984	60	5780
2026-01-04 19:55:47.28	2.76	14.79	-40.7	-41.8	22.8	0.00e+00	0	27	0	591396864	60	5979
2026-01-04 19:55:50.61	2.06	14.78	-41.0	-42.1	22.4	0.00e+00	0	27	0	597688320	60	6198
2026-01-04 19:55:53.35	1.48	14.77	-41.3	-42.4	22.2	0.00e+00	0	27	0	602931200	60	6437
2026-01-04 19:55:56.67	0.79	14.75	-41.3	-42.4	21.6	0.00e+00	0	27	0	609222656	60	6438
2026-01-04 19:55:59.41	0.21	14.73	-41.6	-42.7	21.9	0.00e+00	0	27	0	613416960	60	6689
2026-01-04 19:56:02.74	359.52	14.71	-41.3	-42.4	22.2	0.00e+00	0	27	0	619708416	60	6448
2026-01-04 19:56:05.48	358.94	14.69	-40.7	-41.8	22.7	0.00e+00	0	27	0	624951296	60	5983
2026-01-04 19:56:08.80	358.25	14.66	-40.6	-41.6	22.9	0.00e+00	0	27	0	631242752	60	5854
2026-01-04 19:56:11.55	357.68	14.63	-40.9	-41.9	22.6	0.00e+00	0	27	0	636485632	60	6073
2026-01-04 19:56:14.87	356.99	14.59	-41.0	-42.1	22.5	0.00e+00	0	27	0	642777088	60	6216
2026-01-04 19:56:17.62	356.42	14.55	-40.5	-41.5	23.0	0.00e+00	0	27	0	648019968	60	5805
2026-01-04 19:56:20.94	355.74	14.50	-40.0	-40.9	23.2	0.00e+00	0	27	0	654311424	58	6060
2026-01-04 19:56:23.68	355.18	14.46	-40.2	-41.2	23.2	0.00e+00	0	27	0	659554304	58	6252
2026-01-04 19:56:27.00	354.50	14.41	-40.5	-41.5	22.8	0.00e+00	0	27	0	665845760	58	6474
2026-01-04 19:56:29.75	353.93	14.36	-40.9	-42.0	22.5	0.00e+00	0	27	0	671088640	58	6893
2026-01-04 19:56:33.07	353.26	14.30	-41.0	-42.1	22.4	0.00e+00	0	27	0	677380096	60	6190
2026-01-04 19:56:35.81	352.70	14.25	-41.3	-42.4	22.5	0.00e+00	0	27	0	682622976	60	6430
2026-01-04 19:56:39.13	352.03	14.18	-40.9	-42.0	22.6	0.00e+00	0	27	0	688914432	60	6129
2026-01-04 19:56:41.88	351.48	14.12	-40.6	-41.6	22.9	0.00e+00	0	27	0	693108736	60	5855
2026-01-04 19:56:45.20	350.82	14.04	-40.4	-41.4	22.9	0.00e+00	0	27	0	699400192	60	5741
2026-01-04 19:56:47.95	350.27	13.98	-40.7	-41.7	22.7	0.00e+00	0	27	0	704643072	60	5916
2026-01-04 19:56:51.27	349.61	13.90	-40.6	-41.6	22.9	0.00e+00	0	27	0	710934528	60	5870
2026-01-04 19:56:54.01	349.07	13.83	-40.8	-41.8	22.6	0.00e+00	0	27	0	716177408	60	6023
2026-01-04 19:56:57.33	348.42	13.74	-41.2	-42.3	22.3	0.00e+00	0	27	0	722468864	60	6337
2026-01-04 19:57:00.08	347.88	13.67	-40.9	-42.0	22.5	0.00e+00	0	27	0	727711744	60	6148
2026-01-04 19:57:03.40	347.24	13.57	-41.0	-42.1	22.5	0.00e+00	0	27	0	734003200	60	6236
2026-01-04 19:57:06.14	346.71	13.49	-41.1	-42.2	22.4	0.00e+00	0	27	0	739246080	60	6306
2026-01-04 19:57:09.46	346.08	13.39	-41.2	-42.3	22.4	0.00e+00	0	27	0	745537536	60	6356
2026-01-04 19:57:12.21	345.55	13.31	-41.0	-42.1	22.5	0.00e+00	0	27	0	750780416	60	6183
2026-01-04 19:57:15.53	344.92	13.20	-40.7	-41.7	22.7	0.00e+00	0	27	0	757071872	60	5954
2026-01-04 19:57:18.28	344.41	13.11	-40.9	-41.9	22.6	0.00e+00	0	27	0	762314752	60	6092
2026-01-04 19:57:21.60	343.79	13.00	-40.7	-41.7	22.9	0.00e+00	0	27	0	767557632	60	5907
2026-01-04 19:57:24.34	343.28	12.91	-40.0	-41.0	23.3	0.00e+00	0	27	0	772800512	58	6120
2026-01-04 19:57:27.66	342.67	12.80	-40.2	-41.2	23.0	0.00e+00	0	27	0	779091968	58	6250
2026-01-04 19:57:30.41	342.17	12.70	-40.8	-41.8	22.1	0.00e+00	0	27	0	784334848	58	6758
2026-01-04 19:57:33.73	341.57	12.58	-41.3	-42.4	22.1	0.00e+00	0	27	0	790626304	60	6436
2026-01-04 19:57:36.48	341.07	12.48	-42.2	-43.4	21.5	0.00e+00	0	27	0	795869184	60	7245
2026-01-04 19:57:39.80	340.48	12.35	-41.7	-42.9	21.8	0.00e+00	0	27	0	802160640	60	6815
2026-01-04 19:57:42.54	339.99	12.25	-41.4	-42.6	22.0	0.00e+00	0	27	0	807403520	60	6547
2026-01-04 19:57:45.86	339.41	12.12	-41.5	-42.7	21.7	0.00e+00	0	27	0	813694976	60	6619
2026-01-04 19:57:48.61	338.93	12.01	-42.1	-43.3	21.4	0.00e+00	0	27	0	818937856	60	7139
2026-01-04 19:57:51.93	338.36	11.88	-42.3	-43.6	21.5	0.00e+00	0	27	0	825229312	60	7339
2026-01-04 19:57:54.67	337.89	11.77	-42.5	-43.8	21.0	0.00e+00	0	27	0	830472192	60	7540
2026-01-04 19:57:57.99	337.33	11.63	-42.8	-44.1	20.7	0.00e+00	0	27	0	836763648	60	7782
2026-01-04 19:58:00.74	336.86	11.52	-42.2	-43.4	21.3	0.00e+00	0	27	0	840957952	60	7200
2026-01-04 19:58:04.06	336.31	11.38	-41.3	-42.3	22.2	0.00e+00	0	27	0	847249408	60	6364
2026-01-04 19:58:06.81	335.85	11.26	-41.4	-42.4	22.0	0.00e+00	0	27	0	852492288	60	6447
2026-01-04 19:58:10.13	335.31	11.12	-42.5	-43.7	21.1	0.00e+00	0	27	0	858783744	60	7508
2026-01-04 19:58:12.87	334.86	11.00	-42.9	-44.2	20.5	0.00e+00	0	27	0	864026624	60	7903
2026-01-04 19:58:16.19	334.33	10.85	-42.8	-44.1	20.7	0.00e+00	0	27	0	870318080	60	7795
2026-01-04 19:58:18.94	333.89	10.73	-42.3	-43.4	21.3	0.00e+00	0	27	0	875560960	60	7246
2026-01-04 19:58:22.26	333.37	10.58	-42.8	-44.1	20.6	0.00e+00	0	27	0	881852416	60	7808
2026-01-04 19:58:25.00	332.94	10.46	-44.0	-45.6	19.3	0.00e+00	0	27	0	887095296	60	9267
2026-01-04 19:58:28.33	332.42	10.31	-45.1	-47.0	17.9	0.00e+00	0	27	0	893386752	60	10911
2026-01-04 19:58:31.07	332.00	10.18	-44.3	-46.0	19.0	0.00e+00	0	27	0	898629632	60	9700
2026-01-04 19:58:34.39	331.50	10.03	-44.1	-45.7	19.3	0.00e+00	0	27	0	904921088	60	9349
2026-01-04 19:58:37.14	331.08	9.90	-44.0	-45.5	19.4	0.00e+00	0	27	0	910163968	60	9194
2026-01-04 19:58:40.46	330.59	9.74	-43.7	-45.1	19.8	0.00e+00	0	27	0	915406848	60	8791
2026-01-04 19:58:43.20	330.18	9.62	-43.5	-45.0	20.0	0.00e+00	0	27	0	920649728	60	8627
2026-01-04 19:58:46.52	329.70	9.46	-43.5	-44.9	20.0	0.00e+00	0	27	0	926941184	60	8595
2026-01-04 19:58:49.27	329.30	9.33	-43.5	-44.9	19.9	0.00e+00	0	27	0	932184064	60	8582
2026-01-04 19:58:52.59	328.82	9.17	-42.9	-44.2	20.4	0.00e+00	0	27	0	938475520	60	7941
2026-01-04 19:58:55.33	328.44	9.04	-42.4	-43.6	21.0	0.00e+00	0	27	0	943718400	60	7411
2026-01-04 19:58:58.66	327.97	8.87	-42.4	-43.7	20.9	0.00e+00	0	27	0	950009856	60	7448
2026-01-04 19:59:01.40	327.59	8.74	-42.4	-43.7	20.9	0.00e+00	0	27	0	955252736	60	7439
2026-01-04 19:59:04.72	327.13	8.58	-42.6	-43.9	20.8	0.00e+00	0	27	0	961544192	60	7665
2026-01-04 19:59:07.47	326.76	8.44	-43.0	-44.4	20.1	0.00e+00	0	27	0	966787072	60	8104
2026-01-04 19:59:10.79	326.31	8.28	-42.8	-44.2	20.4	0.00e+00	0	27	0	973078528	60	7872
2026-01-04 19:59:13.53	325.95	8.15	-42.7	-44.0	20.6	0.00e+00	0	27	0	978321408	60	7764
2026-01-04 19:59:16.86	325.51	7.98	-42.6	-44.0	20.7	0.00e+00	0	27	0	983564288	60	7696
2026-01-04 19:59:19.60	325.15	7.85	-42.5	-43.8	20.7	0.00e+00	0	27	0	988807168	60	7592
2026-01-04 19:59:22.92	324.72	7.68	-42.1	-43.3	21.2	0.00e+00	0	27	0	995098624	60	7152
2026-01-04 19:59:25.67	324.37	7.54	-41.3	-42.4	21.7	0.00e+00	0	27	0	1000341504	60	6392
2026-01-04 19:59:28.99	323.95	7.38	-41.2	-42.3	22.1	0.00e+00	0	27	0	1006632960	60	6362
2026-01-04 19:59:31.73	323.61	7.24	-41.5	-42.7	21.7	0.00e+00	0	27	0	1011875840	60	6648
2026-01-04 19:59:35.05	323.20	7.07	-41.8	-43.0	21.5	0.00e+00	0	27	0	1018167296	60	6861
2026-01-04 19:59:37.80	322.86	6.94	-41.4	-42.5	21.8	0.00e+00	0	28	0	1023410176	60	6505
2026-01-04 19:59:41.12	322.46	6.77	-41.3	-42.4	21.9	0.00e+00	0	27	0	1029701632	60	6433
2026-01-04 19:59:43.87	322.13	6.63	-41.5	-42.6	21.7	0.00e+00	0	27	0	1034944512	60	6569
2026-01-04 19:59:47.19	321.74	6.46	-41.9	-43.1	21.3	0.00e+00	0	27	0	1041235968	60	6931
2026-01-04 19:59:49.93	321.42	6.32	-42.3	-43.6	21.0	0.00e+00	0	27	0	1046478848	60	7383
2026-01-04 19:59:53.26	321.03	6.16	-42.0	-43.3	21.0	0.00e+00	0	27	0	1052770304	60	7093
2026-01-04 19:59:56.00	320.72	6.02	-42.3	-43.6	20.9	0.00e+00	0	27	0	1056964608	60	7339
2026-01-04 19:59:59.32	320.34	5.85	-42.6	-43.9	20.8	0.00e+00	0	27	0	1063256064	60	7642
2026-01-04 20:00:02.07	320.03	5.71	-42.7	-44.1	20.4	0.00e+00	0	27	0	1068498944	60	7794
2026-01-04 20:00:05.39	319.66	5.54	-42.4	-43.7	20.7	0.00e+00	0	27	0	1074790400	60	7468
2026-01-04 20:00:08.13	319.36	5.40	-42.3	-43.6	20.8	0.00e+00	0	27	0	1080033280	60	7353
2026-01-04 20:00:11.45	319.00	5.24	-42.1	-43.3	21.2	0.00e+00	0	28	0	1086324736	60	7117
2026-01-04 20:00:14.20	318.71	5.10	-42.3	-43.5	21.0	0.00e+00	0	28	0	1091567616	60	7307
2026-01-04 20:00:17.52	318.35	4.93	-42.4	-43.7	21.0	0.00e+00	0	27	0	1097859072	60	7453
2026-01-04 20:00:20.27	318.07	4.79	-42.6	-43.9	20.4	0.00e+00	0	27	0	1103101952	60	7676
2026-01-04 20:00:23.59	317.72	4.62	-43.4	-44.9	19.8	0.00e+00	0	28	0	1109393408	60	8571
2026-01-04 20:00:26.33	317.44	4.48	-43.9	-45.5	19.1	0.00e+00	0	27	0	1114636288	60	9155
2026-01-04 20:00:29.66	317.10	4.31	-43.3	-44.7	19.7	0.00e+00	0	27	0	1120927744	60	8398
2026-01-04 20:00:32.40	316.82	4.18	-43.2	-44.6	20.3	0.00e+00	0	27	0	1126170624	60	8249
2026-01-04 20:00:35.72	316.49	4.01	-42.3	-43.6	20.8	0.00e+00	0	27	0	1132462080	60	7352
2026-01-04 20:00:38.47	316.22	3.87	-42.2	-43.4	21.1	0.00e+00	0	27	0	1136656384	60	7241
2026-01-04 20:00:41.79	315.90	3.70	-42.8	-44.1	20.4	0.00e+00	0	28	0	1142947840	60	7796
2026-01-04 20:00:44.53	315.63	3.56	-42.6	-44.0	20.5	0.00e+00	0	28	0	1148190720	60	7689
2026-01-04 20:00:47.86	315.32	3.40	-43.4	-44.9	19.6	0.00e+00	0	27	0	1154482176	60	8533
2026-01-04 20:00:50.60	315.06	3.26	-44.2	-45.8	19.0	0.00e+00	0	27	0	1159725056	60	9518
2026-01-04 20:00:53.92	314.75	3.09	-44.4	-46.2	18.5	0.00e+00	0	27	0	1166016512	60	9909
2026-01-04 20:00:56.67	314.49	2.95	-51.4	-66.9	3.6	1.51e+00	0	27	104	1167065088	60	107726
2026-01-04 20:00:59.99	314.19	2.79	-51.5	-67.1	3.6	1.51e+00	0	28	104	1167065088	60	110000
2026-01-04 20:01:02.73	313.94	2.65	-51.5	-67.0	3.6	1.51e+00	0	28	104	1167065088	60	109617
2026-01-04 20:01:06.05	313.65	2.49	-51.4	-66.9	3.6	1.51e+00	0	28	104	1167065088	60	108141
2026-01-04 20:01:08.80	313.40	2.35	-51.3	-66.9	3.6	1.51e+00	0	28	104	1167065088	60	107770
2026-01-04 20:01:12.12	313.11	2.18	-51.8	-67.3	3.6	1.51e+00	0	28	104	1167065088	60	112669
2026-01-04 20:01:14.87	312.87	2.05	-51.5	-67.1	3.5	1.51e+00	0	28	104	1167065088	60	110182
2026-01-04 20:01:18.19	312.59	1.88	-51.7	-67.2	3.6	1.51e+00	0	28	104	1167065088	60	111543
2026-01-04 20:01:20.93	312.36	1.75	-51.6	-67.2	3.6	1.51e+00	0	28	104	1167065088	60	111140
2026-01-04 20:01:24.25	312.08	1.58	-52.2	-67.7	3.5	1.51e+00	0	28	104	1167065088	60	118726
2026-01-04 20:01:26.99	311.85	1.45	-51.6	-67.1	3.5	1.51e+00	0	28	104	1167065088	60	110872
2026-01-04 20:01:30.32	311.58	1.28	-52.5	-68.1	3.6	1.51e+00	0	28	104	1167065088	60	123657
2026-01-04 20:01:33.06	311.35	1.15	-51.7	-67.2	3.6	1.51e+00	0	28	104	1167065088	60	112147
2026-01-04 20:01:36.38	311.09	0.99	-51.8	-67.4	3.6	1.51e+00	0	28	104	1167065088	60	114010
2026-01-04 20:01:39.12	310.87	0.85	-51.8	-67.3	3.6	1.51e+00	0	28	104	1167065088	60	113472
2026-01-04 20:01:42.44	310.61	0.69	-52.0	-67.5	3.6	1.51e+00	0	28	104	1167065088	60	115182
2026-01-04 20:01:45.19	310.39	0.55	-51.6	-67.1	3.6	1.51e+00	0	28	104	1167065088	60	111022
2026-01-04 20:01:48.50	310.14	0.39	-52.1	-67.6	3.6	1.51e+00	0	28	104	1167065088	60	117586
2026-01-04 20:01:51.25	309.93	0.26	-52.0	-67.4	3.6	1.51e+00	0	28	104	1167065088	60	114707
2026-01-04 20:01:54.57	309.67	0.10	-52.1	-67.6	3.6	1.51e+00	0	28	104	1167065088	60	117001
2026-01-04 20:01:57.31	309.47	-0.03	-51.6	-67.1	3.6	1.51e+00	0	28	104	1167065088	60	110357

#Closed at: 2026-01-04 20:01:59
#Recorded file [1167 MB]: D:/lorett/data/35034_260104_224928.dat