passes_logs/2026/01/04/R4.6S_Anadyr_2ch/R4.6S_Anadyr_2ch__20260104_124032_NOAA_21_JPSS-2_rec.log

#Pass ID: 20260104_124032_NOAA 21 (JPSS-2)
#Satellite: NOAA 21 (JPSS-2)
#Configuration: NOAA-21
#almurnet v.1.7.20251203
#Start time: 2026-01-04 12:40:34

#Version: 2.2.20231116
#Station: R4.6S_Anadyr_2ch
#Location: 177.4865 lon 64.73178 lat
#TLE: 1 54234U 22150A   25350.97269056  .00000057  00000+0  47676-4 0  9992
#TLE: 2 54234  98.7466 287.2282 0002043  29.8355 330.2937 14.19525482160692

#Time	Az	El	Level	Level2	SNR	BER	BlckErr	Temp	State	Recorded	gain1	gain2
2026-01-04 12:40:34.45	18.85	0.11	-53.8	-69.1	3.5	1.51e+00	0	34	0	0	60	138408
2026-01-04 12:40:38.49	19.11	0.32	-52.8	-66.0	3.5	1.51e+00	0	36	104	0	60	94192
2026-01-04 12:40:42.54	19.38	0.53	-52.4	-65.6	3.5	1.52e+00	0	36	104	0	60	90321
2026-01-04 12:40:46.58	19.65	0.74	-51.9	-65.1	3.5	1.52e+00	0	36	104	0	60	85622
2026-01-04 12:40:50.62	19.93	0.95	-50.7	-63.8	3.5	1.52e+00	0	36	104	0	60	73349
2026-01-04 12:40:54.67	20.20	1.16	-50.8	-63.9	3.5	1.51e+00	0	36	104	0	60	74274
2026-01-04 12:40:58.71	20.49	1.38	-50.8	-63.9	3.5	1.52e+00	0	36	104	0	60	74096
2026-01-04 12:41:02.76	20.77	1.59	-50.8	-63.9	3.5	1.52e+00	0	36	104	0	60	74267
2026-01-04 12:41:06.80	21.06	1.81	-50.7	-63.8	3.5	1.52e+00	0	36	104	0	60	73246
2026-01-04 12:41:10.84	21.36	2.03	-50.7	-63.8	3.5	1.52e+00	0	36	104	0	60	72978
2026-01-04 12:41:14.89	21.65	2.24	-50.8	-63.3	3.5	1.51e+00	0	37	104	0	60	69560
2026-01-04 12:41:18.93	21.95	2.46	-50.3	-59.5	3.8	1.51e+00	0	37	104	0	60	44694
2026-01-04 12:41:22.98	22.26	2.68	-44.7	-46.5	16.5	0.00e+00	122	37	0	9437184	60	10028
2026-01-04 12:41:27.02	22.57	2.90	-43.0	-44.5	18.5	0.00e+00	120	37	0	22020096	60	7956
2026-01-04 12:41:31.06	22.89	3.13	-43.9	-45.5	17.6	0.00e+00	120	37	0	34603008	60	8951
2026-01-04 12:41:35.11	23.21	3.35	-49.1	-53.2	11.5	1.52e-05	123	37	0	40894464	60	21746
2026-01-04 12:41:39.15	23.53	3.58	-43.7	-45.2	18.5	0.00e+00	122	37	0	53477376	60	8578
2026-01-04 12:41:43.20	23.86	3.80	-43.6	-45.1	18.7	0.00e+00	121	37	0	66060288	60	8474
2026-01-04 12:41:47.24	24.19	4.03	-43.7	-45.2	18.5	0.00e+00	123	37	0	78643200	60	8617
2026-01-04 12:41:51.28	24.53	4.26	-44.5	-46.2	17.6	0.00e+00	123	37	0	91226112	60	9645
2026-01-04 12:41:55.33	24.87	4.49	-42.9	-44.3	19.5	0.00e+00	123	37	0	103809024	60	7769
2026-01-04 12:41:59.37	25.22	4.72	-42.3	-43.5	20.0	0.00e+00	123	37	0	116391936	60	7123
2026-01-04 12:42:03.42	25.57	4.95	-42.2	-43.4	20.3	0.00e+00	122	37	0	130023424	60	6997
2026-01-04 12:42:07.46	25.93	5.18	-42.0	-43.3	20.4	0.00e+00	123	37	0	141557760	60	6889
2026-01-04 12:42:11.51	26.30	5.42	-42.3	-43.6	20.2	0.00e+00	122	37	0	155189248	60	7142
2026-01-04 12:42:15.55	26.67	5.65	-42.2	-43.4	20.4	0.00e+00	123	37	0	167772160	60	7031
2026-01-04 12:42:19.60	27.04	5.89	-42.1	-43.4	20.3	0.00e+00	123	37	0	180355072	60	6980
2026-01-04 12:42:23.64	27.42	6.12	-41.7	-42.9	20.8	0.00e+00	123	37	0	192937984	60	6598
2026-01-04 12:42:27.68	27.81	6.36	-41.8	-43.0	20.7	0.00e+00	122	37	0	205520896	60	6684
2026-01-04 12:42:31.73	28.21	6.60	-41.8	-43.0	20.8	0.00e+00	123	37	0	218103808	60	6675
2026-01-04 12:42:35.77	28.60	6.84	-41.6	-42.8	21.1	0.00e+00	122	37	0	230686720	60	6502
2026-01-04 12:42:39.82	29.01	7.09	-41.8	-42.9	20.9	0.00e+00	123	37	0	243269632	60	6631
2026-01-04 12:42:43.86	29.42	7.33	-41.7	-42.9	21.0	0.00e+00	122	37	0	255852544	60	6616
2026-01-04 12:42:47.91	29.84	7.57	-41.4	-42.5	21.3	0.00e+00	122	37	0	268435456	60	6301
2026-01-04 12:42:51.95	30.27	7.82	-41.3	-42.4	21.5	0.00e+00	122	37	0	281018368	60	6226
2026-01-04 12:42:56.00	30.70	8.07	-41.1	-42.3	21.6	0.00e+00	121	37	0	293601280	60	6144
2026-01-04 12:43:00.04	31.14	8.31	-40.8	-41.9	21.8	0.00e+00	120	37	0	306184192	60	5884
2026-01-04 12:43:04.09	31.59	8.56	-40.8	-41.9	22.0	0.00e+00	120	37	0	318767104	60	5879
2026-01-04 12:43:08.13	32.04	8.81	-40.8	-41.8	22.0	0.00e+00	123	37	0	331350016	60	5848
2026-01-04 12:43:12.17	32.50	9.06	-40.5	-41.6	22.3	0.00e+00	120	37	0	343932928	60	5670
2026-01-04 12:43:16.22	32.97	9.31	-40.6	-41.7	22.1	0.00e+00	120	37	0	357564416	60	5737
2026-01-04 12:43:20.26	33.45	9.57	-40.6	-41.7	22.2	0.00e+00	120	37	0	369098752	60	5743
2026-01-04 12:43:24.31	33.94	9.82	-40.4	-41.4	22.4	0.00e+00	120	37	0	382730240	60	5566
2026-01-04 12:43:28.35	34.43	10.07	-40.1	-41.1	22.6	0.00e+00	123	37	0	395313152	58	6026
2026-01-04 12:43:32.40	34.93	10.33	-40.0	-41.0	22.8	0.00e+00	122	37	0	407896064	58	5975
2026-01-04 12:43:36.44	35.44	10.58	-39.9	-40.9	22.8	0.00e+00	122	37	0	420478976	58	5911
2026-01-04 12:43:40.48	35.96	10.84	-39.8	-40.8	22.8	0.00e+00	122	37	0	433061888	58	5855
2026-01-04 12:43:44.53	36.49	11.10	-39.5	-40.5	23.2	0.00e+00	123	37	0	445644800	58	5619
2026-01-04 12:43:48.57	37.02	11.35	-39.6	-40.6	23.1	0.00e+00	123	37	0	458227712	58	5673
2026-01-04 12:43:52.62	37.57	11.61	-39.6	-40.6	23.0	0.00e+00	122	37	0	470810624	58	5684
2026-01-04 12:43:56.66	38.12	11.87	-39.7	-40.7	22.9	0.00e+00	122	37	0	483393536	58	5774
2026-01-04 12:44:00.70	38.69	12.13	-39.9	-40.9	22.9	0.00e+00	123	37	0	495976448	58	5880
2026-01-04 12:44:04.75	39.26	12.39	-39.5	-40.5	23.2	0.00e+00	120	37	0	508559360	58	5610
2026-01-04 12:44:08.80	39.85	12.65	-39.4	-40.4	23.2	0.00e+00	120	37	0	521142272	58	5561
2026-01-04 12:44:12.84	40.44	12.90	-39.3	-40.2	23.4	0.00e+00	123	37	0	533725184	58	5455
2026-01-04 12:44:16.88	41.04	13.16	-39.3	-40.2	23.4	0.00e+00	120	37	0	546308096	56	6128
2026-01-04 12:44:20.93	41.66	13.42	-39.1	-40.1	23.5	0.00e+00	127	37	0	558891008	56	6019
2026-01-04 12:44:24.97	42.28	13.68	-39.4	-40.3	23.3	0.00e+00	122	37	0	571473920	56	6195
2026-01-04 12:44:29.01	42.92	13.94	-39.1	-40.1	23.5	0.00e+00	122	37	0	584056832	56	6026
2026-01-04 12:44:33.06	43.57	14.20	-39.1	-40.0	23.5	0.00e+00	123	37	0	596639744	56	5967
2026-01-04 12:44:37.10	44.22	14.45	-39.3	-40.3	23.4	0.00e+00	122	37	0	609222656	56	6136
2026-01-04 12:44:41.15	44.89	14.71	-39.2	-40.2	23.5	0.00e+00	123	37	0	622854144	56	6070
2026-01-04 12:44:45.19	45.57	14.97	-39.1	-40.1	23.6	0.00e+00	122	37	0	635437056	56	6040
2026-01-04 12:44:49.23	46.26	15.22	-39.0	-39.9	23.8	0.00e+00	123	37	0	648019968	56	5892
2026-01-04 12:44:53.28	46.96	15.47	-39.3	-40.2	23.6	0.00e+00	123	37	0	660602880	56	6107
2026-01-04 12:44:57.32	47.68	15.73	-39.3	-40.2	23.5	0.00e+00	120	37	0	673185792	56	6116
2026-01-04 12:45:01.37	48.40	15.98	-39.4	-40.4	23.4	0.00e+00	123	37	0	685768704	56	6213
2026-01-04 12:45:05.41	49.14	16.22	-39.3	-40.3	23.6	0.00e+00	122	37	0	698351616	56	6142
2026-01-04 12:45:09.46	49.89	16.47	-39.0	-40.0	23.8	0.00e+00	120	37	0	710934528	56	5951
2026-01-04 12:45:13.50	50.65	16.71	-38.8	-39.8	23.9	0.00e+00	122	37	0	723517440	56	5805
2026-01-04 12:45:17.54	51.43	16.96	-39.0	-40.0	23.7	0.00e+00	123	37	0	736100352	56	5940
2026-01-04 12:45:21.58	52.21	17.19	-39.1	-40.0	23.7	0.00e+00	123	37	0	748683264	56	5984
2026-01-04 12:45:25.63	53.01	17.43	-38.9	-39.8	23.9	0.00e+00	122	37	0	761266176	56	5812
2026-01-04 12:45:29.67	53.82	17.66	-38.8	-39.7	23.9	0.00e+00	120	37	0	773849088	56	5759
2026-01-04 12:45:33.72	54.64	17.89	-38.9	-39.9	23.8	0.00e+00	121	38	0	786432000	56	5874
2026-01-04 12:45:37.76	55.48	18.12	-39.0	-39.9	23.8	0.00e+00	120	37	0	799014912	56	5895
2026-01-04 12:45:41.81	56.33	18.34	-38.7	-39.7	24.0	0.00e+00	123	37	0	811597824	56	5744
2026-01-04 12:45:45.85	57.18	18.56	-38.6	-39.6	24.1	0.00e+00	123	38	0	824180736	56	5670
2026-01-04 12:45:49.89	58.05	18.77	-38.7	-39.6	24.1	0.00e+00	122	37	0	836763648	56	5691
2026-01-04 12:45:53.94	58.94	18.98	-38.5	-39.4	24.2	0.00e+00	123	37	0	850395136	56	5549
2026-01-04 12:45:57.98	59.83	19.19	-38.4	-39.3	24.2	0.00e+00	122	37	0	862978048	56	5527
2026-01-04 12:46:02.03	60.74	19.39	-38.3	-39.2	24.3	0.00e+00	122	37	0	875560960	56	5461
2026-01-04 12:46:06.07	61.66	19.58	-38.4	-39.3	24.3	0.00e+00	122	38	0	888143872	56	5516
2026-01-04 12:46:10.12	62.59	19.77	-38.0	-38.9	24.6	0.00e+00	120	37	0	900726784	54	5913
2026-01-04 12:46:14.16	63.53	19.95	-38.2	-39.1	24.4	0.00e+00	125	37	0	913309696	54	6005
2026-01-04 12:46:18.21	64.48	20.12	-38.2	-39.1	24.4	0.00e+00	123	38	0	925892608	54	6023
2026-01-04 12:46:22.25	65.44	20.29	-37.8	-38.7	24.7	0.00e+00	123	37	0	938475520	54	5742
2026-01-04 12:46:26.29	66.41	20.45	-38.0	-38.9	24.6	0.00e+00	122	37	0	951058432	54	5872
2026-01-04 12:46:30.34	67.39	20.61	-38.2	-39.1	24.4	0.00e+00	123	38	0	963641344	54	6051
2026-01-04 12:46:34.38	68.38	20.75	-38.2	-39.1	24.3	0.00e+00	123	37	0	976224256	54	6057
2026-01-04 12:46:38.43	69.38	20.89	-38.1	-39.0	24.5	0.00e+00	123	38	0	988807168	54	5968
2026-01-04 12:46:42.47	70.39	21.02	-38.2	-39.1	24.4	0.00e+00	122	37	0	1001390080	54	6041
2026-01-04 12:46:46.52	71.41	21.15	-38.1	-39.0	24.5	0.00e+00	120	38	0	1013972992	54	5969
2026-01-04 12:46:50.56	72.43	21.26	-38.0	-38.9	24.5	0.00e+00	123	38	0	1026555904	54	5893
2026-01-04 12:46:54.61	73.47	21.36	-38.3	-39.2	24.4	0.00e+00	120	38	0	1039138816	54	6085
2026-01-04 12:46:58.65	74.50	21.46	-38.0	-38.9	24.6	0.00e+00	123	37	0	1051721728	54	5867
2026-01-04 12:47:02.69	75.55	21.55	-38.2	-39.1	24.6	0.00e+00	123	37	0	1064304640	54	6012
2026-01-04 12:47:06.74	76.60	21.63	-38.2	-39.1	24.5	0.00e+00	122	38	0	1076887552	54	6027
2026-01-04 12:47:10.78	77.65	21.69	-38.0	-38.9	24.4	0.00e+00	123	38	0	1090519040	54	5909
2026-01-04 12:47:14.83	78.71	21.75	-38.0	-38.9	24.6	0.00e+00	123	38	0	1103101952	54	5869
2026-01-04 12:47:18.87	79.78	21.80	-37.9	-38.7	24.7	0.00e+00	122	38	0	1115684864	54	5785
2026-01-04 12:47:22.92	80.84	21.84	-37.9	-38.8	24.7	0.00e+00	120	38	0	1128267776	54	5804
2026-01-04 12:47:26.96	81.91	21.87	-37.7	-38.6	24.8	0.00e+00	120	38	0	1140850688	54	5689
2026-01-04 12:47:31.01	82.98	21.89	-38.0	-38.9	24.6	0.00e+00	120	38	0	1153433600	54	5867
2026-01-04 12:47:35.05	84.05	21.90	-38.2	-39.2	24.3	0.00e+00	123	38	0	1166016512	54	6076
2026-01-04 12:47:39.10	85.13	21.90	-38.0	-38.9	24.5	0.00e+00	120	38	0	1178599424	54	5909
2026-01-04 12:47:43.14	86.20	21.89	-37.8	-38.7	24.6	0.00e+00	123	38	0	1191182336	54	5788
2026-01-04 12:47:47.18	87.27	21.87	-37.9	-38.8	24.7	0.00e+00	122	38	0	1203765248	54	5826
2026-01-04 12:47:51.23	88.34	21.84	-37.7	-38.6	24.8	0.00e+00	123	38	0	1216348160	54	5693
2026-01-04 12:47:55.27	89.40	21.80	-37.9	-38.7	24.6	0.00e+00	123	38	0	1228931072	54	5784
2026-01-04 12:47:59.32	90.47	21.74	-38.0	-38.9	24.5	0.00e+00	123	38	0	1241513984	54	5871
2026-01-04 12:48:03.36	91.53	21.68	-37.9	-38.8	24.6	0.00e+00	122	38	0	1254096896	54	5814
2026-01-04 12:48:07.41	92.58	21.61	-38.0	-38.9	24.6	0.00e+00	122	38	0	1266679808	54	5888
2026-01-04 12:48:11.45	93.63	21.53	-38.1	-39.0	24.4	0.00e+00	122	38	0	1279262720	54	5970
2026-01-04 12:48:15.49	94.68	21.45	-38.0	-38.9	24.5	0.00e+00	123	38	0	1291845632	54	5883
2026-01-04 12:48:19.54	95.72	21.35	-37.9	-38.8	24.6	0.00e+00	120	37	0	1304428544	54	5852
2026-01-04 12:48:23.58	96.75	21.24	-37.8	-38.7	24.6	0.00e+00	122	37	0	1318060032	54	5749
2026-01-04 12:48:27.63	97.78	21.12	-37.9	-38.8	24.6	0.00e+00	120	37	0	1330642944	54	5833
2026-01-04 12:48:31.67	98.79	21.00	-37.6	-38.4	24.8	0.00e+00	123	38	0	1343225856	54	5587
2026-01-04 12:48:35.72	99.80	20.87	-37.8	-38.7	24.6	0.00e+00	122	38	0	1355808768	54	5752
2026-01-04 12:48:39.76	100.80	20.73	-37.9	-38.8	24.5	0.00e+00	121	38	0	1368391680	54	5857
2026-01-04 12:48:43.81	101.80	20.58	-37.9	-38.8	24.4	0.00e+00	122	38	0	1380974592	54	5833
2026-01-04 12:48:47.85	102.78	20.42	-38.0	-38.9	24.4	0.00e+00	122	38	0	1393557504	54	5899
2026-01-04 12:48:51.89	103.75	20.26	-38.0	-38.9	24.4	0.00e+00	123	38	0	1406140416	54	5900
2026-01-04 12:48:55.94	104.71	20.09	-38.1	-39.0	24.3	0.00e+00	123	37	0	1418723328	54	5959
2026-01-04 12:48:59.98	105.66	19.91	-38.0	-38.9	24.3	0.00e+00	123	38	0	1431306240	54	5897
2026-01-04 12:49:04.02	106.60	19.73	-38.0	-38.9	24.2	0.00e+00	123	38	0	1443889152	54	5906
2026-01-04 12:49:08.07	107.54	19.54	-38.0	-38.9	24.4	0.00e+00	123	37	0	1456472064	54	5872
2026-01-04 12:49:12.11	108.45	19.34	-38.5	-39.4	24.1	0.00e+00	122	38	0	1469054976	54	6240
2026-01-04 12:49:16.15	109.36	19.14	-38.0	-38.9	24.3	0.00e+00	123	38	0	1481637888	54	5923
2026-01-04 12:49:20.20	110.26	18.94	-38.0	-38.9	24.4	0.00e+00	123	38	0	1494220800	54	5884
2026-01-04 12:49:24.24	111.14	18.73	-38.1	-39.0	24.3	0.00e+00	120	38	0	1506803712	54	5974
2026-01-04 12:49:28.29	112.01	18.51	-38.5	-39.4	24.0	0.00e+00	120	38	0	1519386624	54	6251
2026-01-04 12:49:32.33	112.87	18.29	-38.4	-39.3	24.1	0.00e+00	123	38	0	1531969536	54	6173
2026-01-04 12:49:36.38	113.72	18.07	-38.2	-39.2	24.2	0.00e+00	120	38	0	1544552448	54	6073
2026-01-04 12:49:40.42	114.55	17.84	-38.6	-39.5	23.9	0.00e+00	122	38	0	1558183936	54	6330
2026-01-04 12:49:44.46	115.38	17.61	-38.7	-39.7	23.8	0.00e+00	122	38	0	1569718272	54	6457
2026-01-04 12:49:48.51	116.19	17.37	-38.6	-39.5	23.9	0.00e+00	123	38	0	1583349760	54	6329
2026-01-04 12:49:52.55	116.99	17.13	-38.4	-39.4	23.9	0.00e+00	123	38	0	1595932672	54	6230
2026-01-04 12:49:56.59	117.77	16.89	-38.8	-39.7	23.7	0.00e+00	123	38	0	1608515584	54	6489
2026-01-04 12:50:00.64	118.55	16.65	-38.9	-39.8	23.6	0.00e+00	123	38	0	1621098496	54	6571
2026-01-04 12:50:04.68	119.31	16.40	-38.9	-39.9	23.6	0.00e+00	123	38	0	1633681408	54	6599
2026-01-04 12:50:08.73	120.06	16.15	-38.9	-39.9	23.5	0.00e+00	120	38	0	1646264320	54	6579
2026-01-04 12:50:12.77	120.80	15.90	-38.7	-39.7	23.8	0.00e+00	120	38	0	1658847232	54	6432
2026-01-04 12:50:16.82	121.53	15.65	-39.2	-40.2	23.6	0.00e+00	122	38	0	1671430144	56	6085
2026-01-04 12:50:20.86	122.24	15.40	-39.0	-40.0	23.7	0.00e+00	123	37	0	1684013056	56	5948
2026-01-04 12:50:24.90	122.94	15.14	-38.9	-39.9	23.7	0.00e+00	122	38	0	1696595968	56	5891
2026-01-04 12:50:28.95	123.63	14.88	-38.6	-39.5	24.0	0.00e+00	123	38	0	1709178880	56	5635
2026-01-04 12:50:32.99	124.31	14.63	-38.7	-39.6	23.8	0.00e+00	123	38	0	1721761792	56	5712
2026-01-04 12:50:37.04	124.98	14.37	-39.0	-39.9	23.6	0.00e+00	123	38	0	1734344704	56	5918
2026-01-04 12:50:41.08	125.64	14.11	-39.2	-40.1	23.5	0.00e+00	123	38	0	1746927616	56	6051
2026-01-04 12:50:45.12	126.28	13.85	-39.5	-40.5	23.0	0.00e+00	120	38	0	1759510528	56	6300
2026-01-04 12:50:49.17	126.92	13.59	-39.4	-40.4	23.2	0.00e+00	123	38	0	1772093440	56	6242
2026-01-04 12:50:53.21	127.54	13.33	-39.7	-40.7	22.9	0.00e+00	120	38	0	1784676352	56	6481
2026-01-04 12:50:57.26	128.16	13.07	-40.0	-41.0	22.8	0.00e+00	122	38	0	1797259264	56	6681
2026-01-04 12:51:01.30	128.76	12.81	-39.4	-40.4	23.3	0.00e+00	123	38	0	1809842176	56	6236
2026-01-04 12:51:05.35	129.36	12.54	-39.4	-40.4	23.2	0.00e+00	123	38	0	1823473664	56	6248
2026-01-04 12:51:09.39	129.94	12.28	-39.7	-40.7	22.9	0.00e+00	122	37	0	1836056576	56	6446
2026-01-04 12:51:13.43	130.51	12.02	-39.9	-40.9	22.7	0.00e+00	123	38	0	1848639488	56	6574
2026-01-04 12:51:17.48	131.08	11.76	-40.1	-41.2	22.5	0.00e+00	122	38	0	1861222400	58	6078
2026-01-04 12:51:21.52	131.63	11.50	-40.1	-41.2	22.4	0.00e+00	120	38	0	1873805312	58	6078
2026-01-04 12:51:25.57	132.18	11.24	-40.2	-41.3	22.4	0.00e+00	123	38	0	1886388224	58	6138
2026-01-04 12:51:29.61	132.71	10.98	-40.6	-41.7	22.0	0.00e+00	120	38	0	1898971136	58	6458
2026-01-04 12:51:33.66	133.24	10.72	-40.3	-41.3	22.5	0.00e+00	122	38	0	1911554048	58	6172
2026-01-04 12:51:37.70	133.76	10.46	-40.3	-41.3	22.4	0.00e+00	123	38	0	1924136960	58	6202
2026-01-04 12:51:41.75	134.27	10.21	-40.7	-41.8	21.9	0.00e+00	123	38	0	1936719872	58	6501
2026-01-04 12:51:45.79	134.77	9.95	-40.0	-41.0	22.5	0.00e+00	122	38	0	1949302784	58	5984
2026-01-04 12:51:49.83	135.26	9.69	-40.0	-41.1	22.5	0.00e+00	122	38	0	1961885696	58	5997
2026-01-04 12:51:53.88	135.74	9.44	-40.1	-41.1	22.5	0.00e+00	123	38	0	1974468608	58	6014
2026-01-04 12:51:57.92	136.22	9.19	-39.9	-41.0	22.6	0.00e+00	123	38	0	1987051520	58	5930
2026-01-04 12:52:01.97	136.69	8.93	-40.3	-41.4	22.2	0.00e+00	122	38	0	1999634432	58	6235
2026-01-04 12:52:06.01	137.15	8.68	-40.2	-41.2	22.3	0.00e+00	121	38	0	2012217344	58	6105
2026-01-04 12:52:10.06	137.60	8.43	-40.0	-41.0	22.6	0.00e+00	123	38	0	2024800256	58	5953
2026-01-04 12:52:14.10	138.05	8.18	-40.0	-41.1	22.4	0.00e+00	120	37	0	2037383168	58	6012
2026-01-04 12:52:18.14	138.48	7.93	-40.4	-41.5	21.9	0.00e+00	122	38	0	2051014656	58	6293
2026-01-04 12:52:22.19	138.92	7.68	-41.1	-42.2	21.1	0.00e+00	122	38	0	2063597568	58	6856
2026-01-04 12:52:26.23	139.34	7.43	-42.2	-43.5	17.8	0.00e+00	122	38	0	2076180480	60	7044
2026-01-04 12:52:30.28	139.76	7.19	-43.6	-45.2	15.7	3.93e-04	123	38	0	2088763392	60	8654
2026-01-04 12:52:34.32	140.17	6.94	-45.2	-47.3	11.9	7.26e-03	121	38	0	2101346304	60	10918
2026-01-04 12:52:38.37	140.57	6.70	-46.3	-48.9	13.3	2.06e-02	120	38	0	2113929216	60	13171
2026-01-04 12:52:42.41	140.97	6.46	-46.8	-49.9	11.4	6.37e-03	123	37	0	2126512128	60	14791
2026-01-04 12:52:46.46	141.36	6.21	-46.9	-50.0	12.4	3.14e-03	123	38	0	2139095040	60	14978
2026-01-04 12:52:50.50	141.74	5.97	-46.6	-49.5	13.0	4.20e-03	122	38	0	2151677952	60	14101
2026-01-04 12:52:54.55	142.12	5.73	-46.0	-48.5	14.1	1.13e-04	123	38	0	2164260864	60	12656
2026-01-04 12:52:58.59	142.50	5.50	-45.5	-47.7	14.4	2.21e-05	123	38	0	2176843776	60	11494
2026-01-04 12:53:02.63	142.86	5.26	-44.5	-46.4	16.5	0.00e+00	123	38	0	2189426688	60	9913
2026-01-04 12:53:06.68	143.23	5.02	-44.6	-46.5	16.6	0.00e+00	123	38	0	2202009600	60	9952
2026-01-04 12:53:10.72	143.58	4.79	-44.1	-45.9	17.2	0.00e+00	120	38	0	2214592512	60	9310
2026-01-04 12:53:14.77	143.93	4.55	-43.8	-45.4	17.6	0.00e+00	123	38	0	2227175424	60	8799
2026-01-04 12:53:18.81	144.28	4.32	-43.7	-45.4	17.6	0.00e+00	123	38	0	2239758336	60	8817
2026-01-04 12:53:22.86	144.62	4.09	-44.0	-45.7	17.3	0.00e+00	123	38	0	2252341248	60	9154
2026-01-04 12:53:26.90	144.96	3.86	-44.5	-46.3	16.5	0.00e+00	122	38	0	2264924160	60	9828
2026-01-04 12:53:30.94	145.29	3.63	-44.8	-46.8	16.0	0.00e+00	123	38	0	2277507072	60	10301
2026-01-04 12:53:34.99	145.61	3.40	-45.4	-47.6	15.3	0.00e+00	122	38	0	2291138560	60	11296
2026-01-04 12:53:39.03	145.93	3.18	-45.6	-48.0	14.4	7.00e-07	120	38	0	2303721472	60	11882
2026-01-04 12:53:43.08	146.25	2.95	-51.9	-65.1	3.5	1.51e+00	0	38	104	2307915776	60	85369
2026-01-04 12:53:47.12	146.56	2.73	-52.4	-65.6	3.5	1.51e+00	0	38	104	2307915776	60	90556
2026-01-04 12:53:51.17	146.87	2.51	-52.5	-65.7	3.5	1.52e+00	0	38	104	2307915776	60	91160
2026-01-04 12:53:55.50	147.19	2.27	-52.5	-65.7	3.5	1.52e+00	0	38	104	2307915776	60	91231
2026-01-04 12:53:59.55	147.49	2.05	-52.5	-65.7	3.5	1.52e+00	0	38	104	2307915776	60	91315
2026-01-04 12:54:03.59	147.79	1.83	-52.6	-65.8	3.5	1.52e+00	0	38	104	2307915776	60	92340
2026-01-04 12:54:07.64	148.08	1.61	-52.6	-65.8	3.5	1.52e+00	0	38	104	2307915776	60	92733
2026-01-04 12:54:11.68	148.36	1.39	-52.7	-66.0	3.5	1.52e+00	0	38	104	2307915776	60	93949
2026-01-04 12:54:15.72	148.64	1.18	-52.7	-66.0	3.5	1.52e+00	0	38	104	2307915776	60	94067
2026-01-04 12:54:19.77	148.92	0.96	-52.8	-66.0	3.5	1.51e+00	0	38	104	2307915776	60	94900
2026-01-04 12:54:23.81	149.20	0.75	-53.0	-66.2	3.5	1.52e+00	0	38	104	2307915776	60	96164
2026-01-04 12:54:27.85	149.47	0.53	-52.8	-66.1	3.5	1.52e+00	0	38	104	2307915776	60	95049
2026-01-04 12:54:31.90	149.74	0.32	-52.9	-66.1	3.5	1.52e+00	0	38	104	2307915776	60	95698
2026-01-04 12:54:35.94	150.00	0.11	-52.8	-66.1	3.5	1.52e+00	0	38	104	2307915776	60	95038

#Closed at: 2026-01-04 12:54:38
#Recorded file [2307 MB]: D:/lorett/data/35034_260104_154034.dat