passes_logs/2026/01/04/R4.6S_Anadyr_2ch/R4.6S_Anadyr_2ch__20260104_212733_SUOMI_NPP_rec.log

#Pass ID: 20260104_212733_SUOMI NPP
#Satellite: SUOMI NPP
#Configuration: NPP
#almurnet v.1.7.20251203
#Start time: 2026-01-04 21:27:36

#Version: 2.2.20231116
#Station: R4.6S_Anadyr_2ch
#Location: 177.4865 lon 64.73178 lat
#TLE: 1 37849U 11061A   25350.92281687  .00000071  00000+0  54882-4 0  9996
#TLE: 2 37849  98.7777 288.2268 0002366 112.8570 247.2856 14.19515404732588

#Time	Az	El	Level	Level2	SNR	BER	BlckErr	Temp	State	Recorded	gain1	gain2
2026-01-04 21:27:36.17	89.33	0.14	-51.0	-62.2	3.6	8.45e-01	0	26	0	0	60	63705
2026-01-04 21:27:40.21	89.08	0.35	-51.4	-67.0	3.6	1.51e+00	0	27	104	0	60	108869
2026-01-04 21:27:44.26	88.83	0.57	-51.2	-66.8	3.6	1.51e+00	0	27	104	0	60	106453
2026-01-04 21:27:48.30	88.57	0.78	-50.7	-66.2	3.6	1.51e+00	0	27	104	0	60	99742
2026-01-04 21:27:52.35	88.31	1.00	-49.4	-65.0	3.6	1.51e+00	0	27	104	0	60	87163
2026-01-04 21:27:56.39	88.04	1.22	-49.4	-65.1	3.6	1.51e+00	0	28	104	0	60	87537
2026-01-04 21:28:00.43	87.77	1.44	-49.4	-65.0	3.6	1.51e+00	0	28	104	0	60	86857
2026-01-04 21:28:04.47	87.49	1.66	-49.4	-65.0	3.6	1.51e+00	0	28	104	0	60	87015
2026-01-04 21:28:08.52	87.21	1.88	-49.4	-65.0	3.6	1.51e+00	0	28	104	0	60	86692
2026-01-04 21:28:12.56	86.93	2.10	-49.4	-64.6	3.6	1.51e+00	0	28	104	0	60	83270
2026-01-04 21:28:16.60	86.64	2.33	-49.4	-65.0	3.6	1.51e+00	0	28	104	0	60	86956
2026-01-04 21:28:20.65	86.35	2.55	-49.4	-65.1	3.6	1.51e+00	0	28	104	0	60	87709
2026-01-04 21:28:24.69	86.05	2.78	-49.4	-64.0	3.6	1.51e+00	0	28	104	0	60	76974
2026-01-04 21:28:28.73	85.74	3.00	-49.4	-61.8	3.7	1.50e+00	0	28	104	0	60	59688
2026-01-04 21:28:32.78	85.44	3.23	-49.5	-64.9	3.6	1.51e+00	0	28	104	3145728	60	86071
2026-01-04 21:28:36.82	85.12	3.46	-45.8	-48.8	16.7	1.42e+00	0	28	104	5242880	60	13379
2026-01-04 21:28:40.87	84.81	3.69	-44.7	-46.8	17.3	0.00e+00	0	28	0	11534336	60	10694
2026-01-04 21:28:44.91	84.48	3.92	-44.6	-46.7	17.5	0.00e+00	0	28	0	18874368	60	10555
2026-01-04 21:28:48.95	84.15	4.15	-44.3	-46.2	18.1	0.00e+00	0	28	0	26214400	60	10006
2026-01-04 21:28:53.00	83.82	4.39	-44.4	-46.3	18.1	0.00e+00	0	28	0	33554432	60	10096
2026-01-04 21:28:57.04	83.48	4.62	-44.2	-46.1	18.3	0.00e+00	0	28	0	41943040	60	9894
2026-01-04 21:29:01.09	83.14	4.86	-44.3	-46.2	18.3	0.00e+00	0	28	0	49283072	60	9919
2026-01-04 21:29:05.13	82.78	5.09	-43.9	-45.7	18.8	0.00e+00	0	28	0	56623104	60	9414
2026-01-04 21:29:09.18	82.43	5.33	-43.7	-45.5	19.1	0.00e+00	0	28	0	63963136	60	9170
2026-01-04 21:29:13.22	82.06	5.57	-42.6	-44.0	20.4	0.00e+00	0	28	0	71303168	60	7729
2026-01-04 21:29:17.27	81.69	5.81	-43.1	-44.7	19.9	0.00e+00	0	28	0	79691776	60	8344
2026-01-04 21:29:21.31	81.32	6.05	-43.3	-44.9	19.6	0.00e+00	0	28	0	87031808	60	8578
2026-01-04 21:29:25.35	80.94	6.29	-43.3	-44.9	19.7	0.00e+00	0	28	0	94371840	60	8586
2026-01-04 21:29:29.40	80.55	6.54	-43.6	-45.3	19.3	0.00e+00	0	28	0	101711872	60	9011
2026-01-04 21:29:33.44	80.15	6.78	-43.7	-45.5	19.3	0.00e+00	0	28	0	110100480	60	9155
2026-01-04 21:29:37.49	79.75	7.03	-44.1	-45.9	18.9	0.00e+00	0	28	0	117440512	60	9603
2026-01-04 21:29:41.53	79.34	7.27	-43.2	-44.8	19.7	0.00e+00	0	28	0	124780544	60	8464
2026-01-04 21:29:45.57	78.93	7.52	-42.8	-44.2	20.2	0.00e+00	0	28	0	132120576	60	7951
2026-01-04 21:29:49.62	78.50	7.77	-43.2	-44.7	20.0	0.00e+00	0	28	0	139460608	60	8348
2026-01-04 21:29:53.67	78.07	8.02	-42.7	-44.1	20.5	0.00e+00	0	28	0	147849216	60	7834
2026-01-04 21:29:57.71	77.63	8.27	-43.3	-44.9	19.8	0.00e+00	0	28	0	155189248	60	8558
2026-01-04 21:30:01.75	77.18	8.52	-43.2	-44.8	19.5	0.00e+00	0	28	0	162529280	60	8462
2026-01-04 21:30:05.80	76.73	8.77	-43.3	-45.0	19.7	0.00e+00	0	28	0	169869312	60	8625
2026-01-04 21:30:09.84	76.27	9.02	-43.0	-44.5	20.2	0.00e+00	0	28	0	178257920	60	8217
2026-01-04 21:30:13.89	75.79	9.27	-43.1	-44.6	20.3	0.00e+00	0	28	0	185597952	60	8252
2026-01-04 21:30:17.93	75.32	9.53	-42.4	-43.7	21.0	0.00e+00	0	28	0	192937984	60	7441
2026-01-04 21:30:21.98	74.83	9.78	-42.5	-43.8	20.9	0.00e+00	0	29	0	200278016	60	7580
2026-01-04 21:30:26.02	74.33	10.03	-42.5	-43.9	20.8	0.00e+00	0	28	0	208666624	60	7636
2026-01-04 21:30:30.07	73.82	10.29	-42.7	-44.1	20.6	0.00e+00	0	28	0	216006656	60	7794
2026-01-04 21:30:34.11	73.31	10.54	-43.3	-44.8	20.1	0.00e+00	0	28	0	223346688	60	8448
2026-01-04 21:30:38.15	72.79	10.80	-43.0	-44.5	20.3	0.00e+00	0	28	0	230686720	60	8186
2026-01-04 21:30:42.20	72.25	11.06	-42.9	-44.3	20.2	0.00e+00	0	28	0	239075328	60	8017
2026-01-04 21:30:46.24	71.71	11.31	-42.6	-43.9	20.9	1.50e-06	0	28	0	246415360	60	7613
2026-01-04 21:30:50.29	71.15	11.57	-42.4	-43.7	21.1	0.00e+00	0	28	0	253755392	60	7429
2026-01-04 21:30:54.33	70.59	11.83	-42.4	-43.7	21.1	0.00e+00	0	28	0	261095424	60	7438
2026-01-04 21:30:58.38	70.02	12.08	-42.2	-43.4	21.4	0.00e+00	0	28	0	268435456	60	7197
2026-01-04 21:31:02.42	69.44	12.34	-42.3	-43.6	21.2	0.00e+00	0	28	0	276824064	60	7347
2026-01-04 21:31:06.47	68.84	12.60	-42.3	-43.5	21.3	0.00e+00	0	29	0	284164096	60	7298
2026-01-04 21:31:10.51	68.24	12.85	-42.5	-43.7	21.1	0.00e+00	0	29	0	291504128	60	7476
2026-01-04 21:31:14.55	67.62	13.10	-42.5	-43.7	21.1	0.00e+00	0	29	0	298844160	60	7474
2026-01-04 21:31:18.60	67.00	13.36	-42.8	-44.1	20.7	0.00e+00	0	28	0	307232768	60	7830
2026-01-04 21:31:22.64	66.36	13.61	-42.4	-43.6	21.2	0.00e+00	0	29	0	314572800	60	7403
2026-01-04 21:31:26.69	65.71	13.87	-42.2	-43.4	21.2	0.00e+00	0	28	0	321912832	60	7202
2026-01-04 21:31:30.73	65.05	14.12	-42.3	-43.5	21.2	0.00e+00	0	29	0	329252864	60	7293
2026-01-04 21:31:34.78	64.38	14.37	-43.1	-44.5	20.5	0.00e+00	0	28	0	337641472	60	8179
2026-01-04 21:31:38.82	63.70	14.62	-42.8	-44.2	20.7	0.00e+00	0	29	0	344981504	60	7867
2026-01-04 21:31:42.86	63.01	14.86	-42.2	-43.4	21.4	0.00e+00	0	28	0	352321536	60	7195
2026-01-04 21:31:46.91	62.30	15.11	-41.4	-42.5	22.2	0.00e+00	0	29	0	359661568	60	6481
2026-01-04 21:31:50.95	61.59	15.35	-41.2	-42.3	22.3	0.00e+00	0	28	0	367001600	60	6325
2026-01-04 21:31:55.00	60.86	15.59	-40.7	-41.8	22.7	0.00e+00	0	29	0	375390208	60	5967
2026-01-04 21:31:59.04	60.12	15.83	-41.0	-42.0	22.7	0.00e+00	0	29	0	382730240	60	6167
2026-01-04 21:32:03.09	59.36	16.07	-40.6	-41.6	22.9	0.00e+00	0	28	0	390070272	60	5839
2026-01-04 21:32:07.13	58.60	16.30	-40.5	-41.6	22.9	0.00e+00	0	28	0	397410304	60	5834
2026-01-04 21:32:11.18	57.82	16.53	-40.4	-41.4	23.0	0.00e+00	0	29	0	405798912	60	5706
2026-01-04 21:32:15.22	57.03	16.76	-40.1	-41.1	23.3	0.00e+00	0	29	0	413138944	58	6227
2026-01-04 21:32:19.26	56.23	16.98	-39.7	-40.6	23.6	0.00e+00	0	29	0	420478976	58	5875
2026-01-04 21:32:23.31	55.42	17.20	-40.7	-41.7	22.6	0.00e+00	0	29	0	427819008	58	6692
2026-01-04 21:32:27.35	54.59	17.41	-40.4	-41.4	23.1	0.00e+00	0	29	0	436207616	58	6424
2026-01-04 21:32:31.40	53.76	17.62	-40.4	-41.3	22.6	2.20e-06	0	28	0	443547648	58	6383
2026-01-04 21:32:35.44	52.91	17.83	-39.9	-40.9	23.4	0.00e+00	0	28	0	450887680	58	6069
2026-01-04 21:32:39.49	52.05	18.03	-38.8	-39.6	24.3	0.00e+00	0	29	0	458227712	56	5872
2026-01-04 21:32:43.53	51.18	18.23	-38.8	-39.7	24.3	0.00e+00	0	28	0	465567744	56	5901
2026-01-04 21:32:47.58	50.29	18.42	-39.5	-40.4	23.9	0.00e+00	0	28	0	473956352	56	6411
2026-01-04 21:32:51.62	49.40	18.60	-39.7	-40.6	23.7	0.00e+00	0	29	0	481296384	56	6584
2026-01-04 21:32:55.66	48.50	18.78	-40.2	-41.1	23.3	0.00e+00	0	29	0	488636416	58	6241
2026-01-04 21:32:59.71	47.58	18.95	-39.8	-40.8	23.6	0.00e+00	0	28	0	495976448	58	5985
2026-01-04 21:33:03.75	46.66	19.12	-38.9	-39.7	24.4	0.00e+00	0	29	0	504365056	56	5960
2026-01-04 21:33:07.80	45.72	19.28	-39.1	-39.9	24.2	0.00e+00	0	29	0	511705088	56	6084
2026-01-04 21:33:11.84	44.78	19.43	-39.1	-39.9	24.3	0.00e+00	0	29	0	519045120	56	6091
2026-01-04 21:33:15.89	43.82	19.58	-39.5	-40.4	23.9	0.00e+00	0	29	0	526385152	56	6406
2026-01-04 21:33:19.93	42.86	19.71	-40.1	-41.0	23.4	0.00e+00	0	29	0	534773760	56	6891
2026-01-04 21:33:23.98	41.89	19.84	-40.9	-41.9	22.7	0.00e+00	0	29	0	542113792	58	6793
2026-01-04 21:33:28.02	40.91	19.96	-41.7	-42.8	22.1	0.00e+00	0	29	0	549453824	60	6745
2026-01-04 21:33:32.07	39.92	20.08	-41.2	-42.2	22.5	0.00e+00	0	29	0	556793856	60	6294
2026-01-04 21:33:36.11	38.93	20.18	-41.2	-42.3	22.4	0.00e+00	0	29	0	564133888	60	6362
2026-01-04 21:33:40.15	37.93	20.28	-41.2	-42.3	22.3	0.00e+00	0	29	0	572522496	60	6346
2026-01-04 21:33:44.20	36.92	20.36	-41.1	-42.2	22.5	0.00e+00	0	29	0	579862528	60	6257
2026-01-04 21:33:48.24	35.91	20.44	-41.7	-42.9	22.0	0.00e+00	0	29	0	587202560	60	6789
2026-01-04 21:33:52.29	34.89	20.51	-40.7	-41.7	22.8	0.00e+00	0	29	0	594542592	60	5915
2026-01-04 21:33:56.33	33.87	20.57	-41.1	-42.1	22.5	0.00e+00	0	29	0	602931200	60	6234
2026-01-04 21:34:00.38	32.85	20.62	-41.6	-42.7	22.1	0.00e+00	0	29	0	610271232	60	6632
2026-01-04 21:34:04.42	31.82	20.66	-41.4	-42.5	22.3	0.00e+00	0	29	0	617611264	60	6470
2026-01-04 21:34:08.47	30.79	20.69	-41.3	-42.3	22.5	0.00e+00	0	29	0	624951296	60	6381
2026-01-04 21:34:12.51	29.76	20.71	-40.7	-41.7	23.0	0.00e+00	0	29	0	633339904	60	5920
2026-01-04 21:34:16.55	28.73	20.72	-40.7	-41.7	23.0	0.00e+00	0	29	0	640679936	60	5929
2026-01-04 21:34:20.60	27.69	20.72	-41.1	-42.2	22.6	0.00e+00	0	29	0	648019968	60	6256
2026-01-04 21:34:24.64	26.66	20.71	-41.8	-43.0	21.9	0.00e+00	0	29	0	655360000	60	6859
2026-01-04 21:34:28.68	25.63	20.69	-40.4	-41.3	23.4	0.00e+00	0	29	0	662700032	60	5676
2026-01-04 21:34:32.73	24.60	20.66	-39.6	-40.4	23.8	0.00e+00	0	29	0	671088640	58	5751
2026-01-04 21:34:36.77	23.57	20.62	-39.3	-40.2	24.1	0.00e+00	0	29	0	678428672	58	5580
2026-01-04 21:34:40.82	22.55	20.58	-39.2	-40.1	24.0	0.00e+00	0	29	0	685768704	56	6208
2026-01-04 21:34:44.86	21.53	20.52	-39.2	-40.1	24.1	0.00e+00	0	29	0	693108736	56	6222
2026-01-04 21:34:48.90	20.51	20.45	-39.1	-40.0	24.1	0.00e+00	0	29	0	701497344	56	6135
2026-01-04 21:34:52.95	19.50	20.37	-39.4	-40.3	24.0	0.00e+00	0	29	0	708837376	56	6386
2026-01-04 21:34:56.99	18.49	20.29	-39.6	-40.4	23.8	0.00e+00	0	29	0	716177408	56	6459
2026-01-04 21:35:01.04	17.49	20.19	-39.7	-40.6	23.5	0.00e+00	0	29	0	723517440	56	6600
2026-01-04 21:35:05.08	16.50	20.09	-39.6	-40.5	23.6	0.00e+00	0	29	0	731906048	56	6495
2026-01-04 21:35:09.13	15.51	19.98	-41.1	-42.2	22.2	0.00e+00	0	29	0	739246080	58	7036
2026-01-04 21:35:13.17	14.53	19.86	-40.9	-41.9	22.7	0.00e+00	0	29	0	746586112	60	6064
2026-01-04 21:35:17.21	13.56	19.73	-41.1	-42.2	22.3	0.00e+00	0	29	0	753926144	60	6274
2026-01-04 21:35:21.26	12.60	19.60	-42.1	-43.3	21.7	0.00e+00	0	29	0	762314752	60	7092
2026-01-04 21:35:25.30	11.65	19.45	-42.0	-43.2	21.7	0.00e+00	0	29	0	769654784	60	7016
2026-01-04 21:35:29.35	10.70	19.30	-40.7	-41.7	22.9	0.00e+00	0	29	0	776994816	60	5947
2026-01-04 21:35:33.39	9.77	19.14	-40.7	-41.7	22.9	0.00e+00	0	29	0	784334848	60	5948
2026-01-04 21:35:37.44	8.84	18.98	-40.6	-41.6	22.9	0.00e+00	0	29	0	791674880	60	5858
2026-01-04 21:35:41.48	7.93	18.81	-39.8	-40.7	23.5	0.00e+00	0	29	0	800063488	58	5944
2026-01-04 21:35:45.53	7.02	18.63	-39.6	-40.5	23.8	0.00e+00	0	29	0	807403520	58	5809
2026-01-04 21:35:49.57	6.13	18.45	-40.5	-41.5	23.0	0.00e+00	0	29	0	814743552	58	6470
2026-01-04 21:35:53.61	5.25	18.26	-42.1	-43.3	21.5	0.00e+00	0	29	0	822083584	60	7155
2026-01-04 21:35:57.66	4.37	18.06	-42.4	-43.6	21.1	0.00e+00	0	29	0	830472192	60	7404
2026-01-04 21:36:01.70	3.52	17.86	-42.8	-44.2	20.8	0.00e+00	0	29	0	837812224	60	7873
2026-01-04 21:36:05.75	2.67	17.66	-42.4	-43.6	21.3	0.00e+00	0	29	0	845152256	60	7394
2026-01-04 21:36:09.79	1.83	17.45	-40.6	-41.7	22.9	0.00e+00	0	29	0	852492288	60	5914
2026-01-04 21:36:13.84	1.01	17.23	-39.8	-40.7	23.6	0.00e+00	0	29	0	859832320	58	5932
2026-01-04 21:36:17.88	0.19	17.02	-40.8	-41.8	22.6	0.00e+00	0	29	0	868220928	58	6753
2026-01-04 21:36:21.92	359.39	16.79	-40.6	-41.6	22.8	0.00e+00	0	29	0	875560960	60	5878
2026-01-04 21:36:25.97	358.60	16.57	-40.2	-41.2	23.0	0.00e+00	0	29	0	882900992	58	6252
2026-01-04 21:36:30.01	357.83	16.34	-42.0	-43.3	21.4	0.00e+00	0	29	0	890241024	60	7131
2026-01-04 21:36:34.05	357.06	16.11	-42.1	-43.3	21.5	0.00e+00	0	29	0	898629632	60	7116
2026-01-04 21:36:38.10	356.31	15.87	-41.1	-42.1	22.4	0.00e+00	0	29	0	905969664	60	6242
2026-01-04 21:36:42.14	355.57	15.64	-41.0	-42.1	22.6	0.00e+00	0	29	0	913309696	60	6181
2026-01-04 21:36:46.19	354.84	15.40	-41.1	-42.2	22.4	0.00e+00	0	29	0	920649728	60	6259
2026-01-04 21:36:50.23	354.13	15.15	-42.3	-43.6	21.4	0.00e+00	0	29	0	929038336	60	7348
2026-01-04 21:36:54.28	353.42	14.91	-41.9	-43.2	21.6	0.00e+00	0	29	0	936378368	60	7015
2026-01-04 21:36:58.32	352.73	14.66	-41.3	-42.4	22.2	0.00e+00	0	29	0	943718400	60	6427
2026-01-04 21:37:02.36	352.05	14.42	-41.5	-42.6	21.8	0.00e+00	0	29	0	951058432	60	6612
2026-01-04 21:37:06.41	351.38	14.17	-41.5	-42.7	21.9	0.00e+00	0	29	0	959447040	60	6616
2026-01-04 21:37:10.45	350.72	13.92	-40.9	-42.0	22.3	0.00e+00	0	29	0	966787072	60	6170
2026-01-04 21:37:14.50	350.07	13.66	-40.5	-41.5	22.5	0.00e+00	0	29	0	974127104	60	5817
2026-01-04 21:37:18.54	349.43	13.41	-39.8	-40.7	23.4	0.00e+00	0	29	0	981467136	58	5960
2026-01-04 21:37:22.59	348.81	13.16	-39.3	-40.2	23.8	0.00e+00	0	29	0	989855744	56	6246
2026-01-04 21:37:26.63	348.20	12.90	-40.0	-41.0	23.2	0.00e+00	0	29	0	997195776	56	6853
2026-01-04 21:37:30.68	347.59	12.65	-40.3	-41.3	22.9	0.00e+00	0	29	0	1004535808	58	6377
2026-01-04 21:37:34.72	347.00	12.39	-40.3	-41.3	22.8	0.00e+00	0	29	0	1011875840	58	6364
2026-01-04 21:37:38.77	346.42	12.14	-40.1	-41.1	22.9	0.00e+00	0	29	0	1019215872	58	6194
2026-01-04 21:37:42.81	345.84	11.88	-40.1	-41.2	22.8	0.00e+00	0	29	0	1027604480	58	6250
2026-01-04 21:37:46.85	345.28	11.63	-40.8	-41.9	22.2	0.00e+00	0	29	0	1034944512	58	6781
2026-01-04 21:37:50.90	344.73	11.37	-41.6	-42.8	21.6	0.00e+00	0	29	0	1042284544	60	6755
2026-01-04 21:37:54.94	344.19	11.11	-41.0	-42.1	22.1	0.00e+00	0	29	0	1049624576	60	6188
2026-01-04 21:37:58.99	343.65	10.86	-40.2	-41.2	22.6	0.00e+00	0	29	0	1058013184	58	6308
2026-01-04 21:38:03.03	343.13	10.60	-40.2	-41.2	22.7	0.00e+00	0	29	0	1065353216	58	6298
2026-01-04 21:38:07.08	342.62	10.35	-41.6	-42.8	21.3	0.00e+00	0	29	0	1072693248	60	6759
2026-01-04 21:38:11.12	342.11	10.09	-41.8	-43.1	21.2	0.00e+00	0	29	0	1080033280	60	6944
2026-01-04 21:38:15.17	341.61	9.84	-41.3	-42.5	21.7	0.00e+00	0	29	0	1087373312	60	6518
2026-01-04 21:38:19.21	341.13	9.59	-41.4	-42.6	21.5	0.00e+00	0	29	0	1095761920	60	6576
2026-01-04 21:38:23.25	340.65	9.33	-41.9	-43.1	21.1	0.00e+00	0	29	0	1103101952	60	6980
2026-01-04 21:38:27.30	340.18	9.08	-41.9	-43.2	21.0	0.00e+00	0	29	0	1110441984	60	7042
2026-01-04 21:38:31.34	339.72	8.83	-42.4	-43.7	20.6	0.00e+00	0	29	0	1117782016	60	7463
2026-01-04 21:38:35.39	339.26	8.58	-42.4	-43.8	20.6	0.00e+00	0	29	0	1126170624	60	7538
2026-01-04 21:38:39.43	338.82	8.33	-42.0	-43.3	20.8	0.00e+00	0	29	0	1133510656	60	7104
2026-01-04 21:38:43.47	338.38	8.08	-42.6	-44.0	20.2	0.00e+00	0	29	0	1140850688	60	7763
2026-01-04 21:38:47.52	337.95	7.83	-43.3	-44.9	19.4	0.00e+00	0	29	0	1148190720	60	8537
2026-01-04 21:38:51.56	337.53	7.58	-43.1	-44.6	19.6	0.00e+00	0	29	0	1156579328	60	8302
2026-01-04 21:38:55.60	337.11	7.34	-42.9	-44.3	19.9	0.00e+00	0	29	0	1163919360	60	7998
2026-01-04 21:38:59.65	336.70	7.09	-43.2	-44.7	19.6	0.00e+00	0	29	0	1171259392	60	8353
2026-01-04 21:39:03.69	336.30	6.85	-42.5	-43.8	20.3	0.00e+00	0	29	0	1178599424	60	7586
2026-01-04 21:39:07.74	335.91	6.60	-42.7	-44.2	19.8	0.00e+00	0	29	0	1186988032	60	7891
2026-01-04 21:39:11.78	335.52	6.36	-43.1	-44.7	19.2	0.00e+00	0	29	0	1194328064	60	8379
2026-01-04 21:39:15.82	335.14	6.12	-43.6	-45.4	18.3	0.00e+00	0	29	0	1201668096	60	9038
2026-01-04 21:39:19.87	334.77	5.88	-44.4	-46.7	16.5	0.00e+00	0	29	0	1209008128	60	10550
2026-01-04 21:39:23.91	334.40	5.64	-45.2	-48.3	14.5	0.00e+00	0	29	0	1216348160	60	12704
2026-01-04 21:39:27.96	334.04	5.40	-45.7	-49.6	12.8	2.28e-05	0	29	0	1224736768	60	14793
2026-01-04 21:39:32.00	333.68	5.16	-46.4	-51.3	10.9	1.32e-03	0	29	0	1232076800	60	17913
2026-01-04 21:39:36.04	333.33	4.93	-46.7	-52.5	9.3	1.82e-02	0	29	0	1239416832	60	20504
2026-01-04 21:39:40.09	332.99	4.69	-46.7	-52.7	8.9	3.01e-02	0	29	0	1246756864	60	21111
2026-01-04 21:39:44.13	332.65	4.46	-46.8	-52.1	10.1	6.62e-03	0	29	0	1255145472	60	19703
2026-01-04 21:39:48.18	332.32	4.22	-46.5	-50.9	11.8	5.23e-04	0	29	0	1262485504	60	17026
2026-01-04 21:39:52.22	331.99	3.99	-46.1	-49.9	12.9	6.17e-05	0	29	0	1269825536	60	15305
2026-01-04 21:39:56.27	331.67	3.76	-46.2	-49.9	13.0	7.60e-06	0	29	0	1277165568	60	15254
2026-01-04 21:40:00.31	331.35	3.53	-46.2	-50.0	13.1	5.64e-05	0	29	0	1284505600	60	15386
2026-01-04 21:40:04.35	331.04	3.30	-46.2	-50.5	12.0	3.58e-05	0	29	0	1292894208	60	16348
2026-01-04 21:40:08.40	330.73	3.07	-48.5	-59.9	3.4	3.19e-03	1	29	0	1300234240	60	48212
2026-01-04 21:40:12.44	330.43	2.85	-51.2	-66.7	3.6	1.51e+00	0	29	104	1300234240	60	105989
2026-01-04 21:40:16.49	330.14	2.62	-51.3	-66.9	3.6	1.51e+00	0	29	104	1300234240	60	107888
2026-01-04 21:40:20.53	329.84	2.40	-51.2	-66.8	3.6	1.51e+00	0	29	104	1300234240	60	106729
2026-01-04 21:40:24.58	329.56	2.17	-51.2	-66.8	3.6	1.51e+00	0	29	104	1300234240	60	106583
2026-01-04 21:40:28.62	329.27	1.95	-51.2	-66.8	3.6	1.51e+00	0	29	104	1300234240	60	106645
2026-01-04 21:40:32.67	329.00	1.73	-51.3	-66.8	3.6	1.51e+00	0	29	104	1300234240	60	107237
2026-01-04 21:40:36.71	328.72	1.51	-51.5	-67.1	3.6	1.51e+00	0	29	104	1300234240	60	110157
2026-01-04 21:40:40.75	328.45	1.29	-51.4	-67.0	3.6	1.51e+00	0	29	104	1300234240	60	108825
2026-01-04 21:40:44.79	328.19	1.07	-51.3	-66.9	3.6	1.51e+00	0	29	104	1300234240	60	108393
2026-01-04 21:40:48.84	327.93	0.86	-51.6	-67.2	3.6	1.51e+00	0	29	104	1300234240	60	111533
2026-01-04 21:40:52.88	327.67	0.64	-51.5	-67.0	3.6	1.51e+00	0	29	104	1300234240	60	109388
2026-01-04 21:40:56.93	327.42	0.43	-51.5	-67.1	3.6	1.51e+00	0	29	104	1300234240	60	110208
2026-01-04 21:41:00.97	327.17	0.21	-51.3	-66.9	3.6	1.51e+00	0	29	104	1300234240	60	107559
2026-01-04 21:41:05.02	326.92	-0.00	-51.4	-66.9	3.6	1.51e+00	0	29	104	1300234240	60	107817

#Closed at: 2026-01-04 21:41:07
#Recorded file [1300 MB]: D:/lorett/data/35034_260105_002736.dat