passes_logs/2026/01/04/R4.6S_Anadyr_2ch/R4.6S_Anadyr_2ch__20260104_163752_AQUA_rec.log

#Pass ID: 20260104_163752_AQUA
#Satellite: AQUA
#Configuration: AQUA
#almurnet v.1.7.20251203
#Start time: 2026-01-04 16:37:54

#Version: 2.2.20231116
#Station: R4.6S_Anadyr_2ch
#Location: 177.4865 lon 64.73178 lat
#TLE: 1 27424U 02022A   25351.00450321  .00000925  00000+0  19503-3 0  9992
#TLE: 2 27424  98.4041 311.9529 0001248 113.7180 322.1616 14.61819266256652

#Time	Az	El	Level	Level2	SNR	BER	BlckErr	Temp	State	Recorded	gain1	gain2
2026-01-04 16:37:54.95	20.07	0.18	-53.9	-70.2	3.2	3.02e+01	0	34	0	0	60	167413
2026-01-04 16:37:58.99	20.05	0.43	-54.0	-71.8	3.5	3.02e+01	0	34	104	0	60	201180
2026-01-04 16:38:03.03	20.03	0.68	-53.9	-71.7	3.5	3.02e+01	0	34	104	0	60	200286
2026-01-04 16:38:07.07	20.01	0.93	-54.5	-72.3	3.6	3.02e+01	0	34	104	0	60	214475
2026-01-04 16:38:11.11	19.99	1.19	-53.7	-71.6	3.5	3.02e+01	0	34	104	0	60	196709
2026-01-04 16:38:15.16	19.97	1.45	-53.3	-71.1	3.5	3.02e+01	0	34	104	0	60	186894
2026-01-04 16:38:19.20	19.95	1.71	-52.9	-70.7	3.5	3.02e+01	0	34	104	0	60	178084
2026-01-04 16:38:23.24	19.92	1.98	-53.4	-71.2	3.5	3.02e+01	0	34	104	0	60	187825
2026-01-04 16:38:27.28	19.90	2.25	-53.4	-71.1	3.5	3.02e+01	0	34	104	0	60	187158
2026-01-04 16:38:31.33	19.87	2.52	-54.0	-71.9	3.5	3.02e+01	0	34	104	0	60	203211
2026-01-04 16:38:35.37	19.85	2.79	-52.8	-70.7	3.5	3.02e+01	0	34	104	0	60	176981
2026-01-04 16:38:39.42	19.82	3.07	-52.5	-70.3	3.5	3.02e+01	0	34	104	0	60	170371
2026-01-04 16:38:43.46	19.79	3.35	-53.2	-71.1	3.5	3.02e+01	0	34	104	0	60	185680
2026-01-04 16:38:47.51	19.76	3.63	-52.3	-70.1	3.5	3.02e+01	0	34	104	0	60	166329
2026-01-04 16:38:51.55	19.73	3.92	-52.0	-69.8	3.5	3.02e+01	0	35	104	0	60	160529
2026-01-04 16:38:55.60	19.70	4.21	-51.0	-69.0	3.5	3.02e+01	0	35	104	0	60	146494
2026-01-04 16:38:59.64	19.67	4.50	-50.6	-68.4	3.5	3.02e+01	0	35	104	0	60	136107
2026-01-04 16:39:03.68	19.63	4.80	-50.5	-68.3	3.5	3.02e+01	0	34	104	0	60	135741
2026-01-04 16:39:07.72	19.60	5.10	-50.5	-67.1	3.5	3.02e+01	0	35	104	0	60	117711
2026-01-04 16:39:11.77	19.56	5.40	-50.6	-67.2	3.5	3.02e+01	0	35	104	0	60	118514
2026-01-04 16:39:15.81	19.53	5.71	-50.6	-68.3	3.5	3.02e+01	0	35	104	0	60	135462
2026-01-04 16:39:19.85	19.49	6.02	-50.6	-67.5	3.5	3.02e+01	0	35	104	0	60	122542
2026-01-04 16:39:23.90	19.45	6.34	-50.3	-62.9	3.8	3.02e+01	0	35	104	0	60	72720
2026-01-04 16:39:27.94	19.41	6.66	-50.3	-63.0	5.1	3.02e+01	0	35	104	524288	60	73589
2026-01-04 16:39:31.98	19.37	6.99	-47.5	-51.3	16.3	3.02e+01	47	35	0	6815744	60	19054
2026-01-04 16:39:36.03	19.32	7.32	-45.1	-47.5	21.2	3.02e+01	60	35	0	14155776	60	12352
2026-01-04 16:39:40.07	19.28	7.65	-45.4	-48.0	19.3	3.02e+01	45	35	0	22020096	60	13003
2026-01-04 16:39:44.12	19.23	7.99	-43.7	-45.7	22.4	3.02e+01	60	35	0	26738688	60	9994
2026-01-04 16:39:48.16	19.18	8.34	-43.7	-45.6	22.2	3.02e+01	49	34	0	31981568	60	9921
2026-01-04 16:39:52.20	19.13	8.69	-44.9	-47.1	20.7	3.02e+01	50	34	0	39321600	60	11801
2026-01-04 16:39:56.25	19.08	9.04	-41.7	-43.2	24.8	3.02e+01	57	35	0	47185920	60	7536
2026-01-04 16:40:00.29	19.02	9.40	-41.5	-43.0	25.2	3.02e+01	57	35	0	54525952	60	7300
2026-01-04 16:40:04.34	18.97	9.77	-40.5	-41.9	26.2	3.02e+01	61	35	0	62390272	60	6427
2026-01-04 16:40:08.38	18.91	10.15	-40.4	-41.8	26.2	3.02e+01	59	34	0	69730304	60	6373
2026-01-04 16:40:12.43	18.85	10.53	-40.4	-41.8	26.3	3.02e+01	60	34	0	77594624	60	6416
2026-01-04 16:40:16.47	18.79	10.91	-39.5	-40.8	27.2	3.02e+01	60	35	0	84934656	60	5701
2026-01-04 16:40:20.52	18.72	11.31	-39.7	-41.1	27.2	3.02e+01	58	35	0	92798976	58	6582
2026-01-04 16:40:24.56	18.65	11.71	-39.6	-40.9	27.2	3.02e+01	58	34	0	100139008	58	6457
2026-01-04 16:40:28.61	18.58	12.11	-39.0	-40.3	27.6	3.02e+01	59	34	0	108003328	58	6052
2026-01-04 16:40:32.65	18.51	12.53	-39.1	-40.4	27.7	3.02e+01	57	35	0	115343360	58	6094
2026-01-04 16:40:36.69	18.44	12.95	-39.1	-40.4	27.7	3.02e+01	57	35	0	123207680	58	6125
2026-01-04 16:40:40.74	18.36	13.39	-39.6	-41.0	27.5	3.02e+01	57	35	0	130547712	58	6511
2026-01-04 16:40:44.78	18.28	13.83	-39.3	-40.6	27.6	3.02e+01	61	35	0	138412032	58	6255
2026-01-04 16:40:48.83	18.19	14.28	-40.0	-41.3	27.0	3.02e+01	59	35	0	145752064	58	6783
2026-01-04 16:40:52.87	18.11	14.73	-39.1	-40.4	27.8	3.02e+01	61	35	0	153616384	58	6092
2026-01-04 16:40:56.92	18.02	15.20	-38.4	-39.6	28.6	3.02e+01	52	35	0	160956416	56	6259
2026-01-04 16:41:00.96	17.92	15.68	-38.4	-39.6	28.6	3.02e+01	59	35	0	168296448	56	6254
2026-01-04 16:41:05.00	17.82	16.17	-38.5	-39.8	28.5	3.02e+01	59	35	0	176160768	56	6368
2026-01-04 16:41:09.05	17.72	16.67	-38.3	-39.5	28.8	3.02e+01	54	35	0	183500800	56	6167
2026-01-04 16:41:13.09	17.61	17.18	-38.2	-39.4	28.9	3.02e+01	52	35	0	191365120	56	6085
2026-01-04 16:41:17.13	17.50	17.70	-38.2	-39.4	28.9	3.02e+01	57	35	0	198705152	56	6120
2026-01-04 16:41:21.18	17.38	18.24	-38.1	-39.4	28.9	3.02e+01	54	34	0	206569472	56	6074
2026-01-04 16:41:25.22	17.26	18.79	-38.0	-39.2	29.1	3.02e+01	53	35	0	213909504	56	5975
2026-01-04 16:41:29.27	17.14	19.35	-37.7	-38.9	29.4	3.02e+01	44	35	0	221773824	56	5734
2026-01-04 16:41:33.31	17.00	19.93	-37.9	-39.1	29.3	3.02e+01	57	35	0	229113856	56	5911
2026-01-04 16:41:37.36	16.86	20.52	-37.4	-38.6	29.6	3.02e+01	44	35	0	236978176	56	5551
2026-01-04 16:41:41.40	16.72	21.13	-37.5	-38.7	29.5	3.02e+01	60	35	0	244318208	54	6307
2026-01-04 16:41:45.44	16.57	21.75	-37.3	-38.5	29.7	3.02e+01	44	35	0	252182528	54	6136
2026-01-04 16:41:49.49	16.41	22.39	-37.3	-38.5	29.7	3.02e+01	55	35	0	259522560	54	6173
2026-01-04 16:41:53.53	16.24	23.05	-37.6	-38.8	29.4	3.02e+01	53	35	0	266862592	54	6396
2026-01-04 16:41:57.58	16.06	23.72	-37.7	-38.9	29.3	3.02e+01	61	35	0	274726912	54	6444
2026-01-04 16:42:01.62	15.88	24.42	-37.9	-39.1	29.3	3.02e+01	58	35	0	282066944	54	6585
2026-01-04 16:42:05.67	15.68	25.14	-37.4	-38.6	29.7	3.02e+01	60	35	0	289931264	54	6214
2026-01-04 16:42:09.71	15.48	25.87	-37.3	-38.5	29.7	3.02e+01	59	35	0	297271296	54	6179
2026-01-04 16:42:13.75	15.26	26.63	-37.7	-38.9	29.5	3.02e+01	60	35	0	305135616	54	6433
2026-01-04 16:42:17.80	15.04	27.41	-37.9	-39.1	29.3	3.02e+01	59	35	0	312475648	54	6625
2026-01-04 16:42:21.84	14.80	28.22	-38.0	-39.2	29.2	3.02e+01	63	35	0	320339968	54	6709
2026-01-04 16:42:25.89	14.54	29.05	-37.8	-39.0	29.5	3.02e+01	57	34	0	327680000	54	6507
2026-01-04 16:42:29.93	14.27	29.91	-37.9	-39.1	29.4	3.02e+01	55	34	0	335544320	54	6602
2026-01-04 16:42:33.98	13.98	30.80	-38.1	-39.3	29.2	3.02e+01	59	35	0	342884352	54	6767
2026-01-04 16:42:38.02	13.68	31.72	-37.9	-39.1	29.3	3.02e+01	61	35	0	350748672	54	6601
2026-01-04 16:42:42.07	13.36	32.66	-38.0	-39.2	29.2	3.02e+01	57	35	0	358088704	54	6677
2026-01-04 16:42:46.11	13.01	33.64	-38.5	-39.7	28.9	3.02e+01	61	35	0	365953024	56	6348
2026-01-04 16:42:50.16	12.64	34.65	-38.6	-39.8	28.8	3.02e+01	60	34	0	373293056	56	6390
2026-01-04 16:42:54.20	12.25	35.70	-38.0	-39.2	29.3	3.02e+01	45	34	0	380633088	56	5979
2026-01-04 16:42:58.24	11.83	36.78	-37.8	-39.0	29.5	3.02e+01	59	35	0	388497408	56	5832
2026-01-04 16:43:02.29	11.38	37.90	-38.0	-39.2	29.3	3.02e+01	56	34	0	395837440	56	5974
2026-01-04 16:43:06.33	10.89	39.06	-38.2	-39.5	29.1	3.02e+01	63	35	0	403701760	56	6137
2026-01-04 16:43:10.38	10.36	40.26	-37.6	-38.8	29.6	3.02e+01	46	34	0	411041792	56	5703
2026-01-04 16:43:14.42	9.79	41.49	-37.7	-38.9	29.7	3.02e+01	57	35	0	418906112	54	6448
2026-01-04 16:43:18.47	9.17	42.78	-37.7	-38.9	29.7	3.02e+01	57	35	0	426246144	54	6456
2026-01-04 16:43:22.51	8.50	44.10	-37.1	-38.3	30.1	3.02e+01	57	35	0	434110464	54	6036
2026-01-04 16:43:26.56	7.77	45.47	-37.5	-38.7	29.9	3.02e+01	47	34	0	441450496	54	6315
2026-01-04 16:43:30.60	6.96	46.88	-37.6	-38.7	29.9	3.02e+01	61	35	0	449314816	54	6338
2026-01-04 16:43:34.64	6.08	48.34	-37.9	-39.1	29.6	3.02e+01	45	35	0	456654848	54	6597
2026-01-04 16:43:38.69	5.11	49.85	-38.6	-39.9	28.7	3.02e+01	57	35	0	464519168	56	6426
2026-01-04 16:43:42.73	4.03	51.39	-38.9	-40.1	28.7	3.02e+01	46	34	0	471859200	56	6605
2026-01-04 16:43:46.77	2.82	52.98	-39.3	-40.5	28.2	3.02e+01	59	35	0	479723520	58	6189
2026-01-04 16:43:50.82	1.48	54.61	-39.3	-40.5	28.2	3.02e+01	45	34	0	487063552	58	6179
2026-01-04 16:43:54.86	359.96	56.28	-39.6	-40.9	28.0	3.02e+01	61	35	0	494403584	58	6439
2026-01-04 16:43:58.90	358.25	57.97	-39.8	-41.1	27.7	3.02e+01	52	34	0	502267904	58	6634
2026-01-04 16:44:02.95	356.30	59.70	-40.0	-41.2	27.5	3.02e+01	56	34	0	509607936	58	6724
2026-01-04 16:44:06.99	354.07	61.43	-39.0	-40.2	28.6	3.02e+01	61	35	0	517472256	58	5969
2026-01-04 16:44:11.04	351.50	63.17	-38.3	-39.5	29.1	3.02e+01	61	34	0	524812288	56	6196
2026-01-04 16:44:15.08	348.52	64.90	-38.2	-39.4	29.2	3.02e+01	60	34	0	532676608	56	6134
2026-01-04 16:44:19.12	345.04	66.60	-38.9	-40.2	28.8	3.02e+01	59	34	0	540016640	56	6650
2026-01-04 16:44:23.17	340.97	68.24	-38.5	-39.8	29.2	3.02e+01	58	34	0	547880960	56	6352
2026-01-04 16:44:27.21	336.19	69.79	-38.7	-39.9	28.8	3.02e+01	57	34	0	555220992	56	6483
2026-01-04 16:44:31.25	330.60	71.21	-39.0	-40.3	28.4	3.02e+01	58	34	0	562561024	56	6729
2026-01-04 16:44:35.30	324.07	72.45	-37.7	-38.9	29.7	3.02e+01	60	34	0	570425344	56	5777
2026-01-04 16:44:39.34	316.62	73.45	-37.2	-38.4	30.1	3.02e+01	60	34	0	577765376	54	6108
2026-01-04 16:44:43.39	308.29	74.16	-38.0	-39.2	29.2	3.02e+01	61	34	0	585629696	54	6668
2026-01-04 16:44:47.43	299.38	74.53	-38.8	-40.1	28.5	3.02e+01	60	34	0	592969728	56	6596
2026-01-04 16:44:51.48	290.22	74.52	-39.1	-40.3	28.5	3.02e+01	60	34	0	600834048	58	6056
2026-01-04 16:44:55.52	281.32	74.13	-39.3	-40.6	28.2	3.02e+01	58	34	0	608174080	58	6246
2026-01-04 16:44:59.56	273.05	73.41	-40.5	-41.8	27.3	3.02e+01	47	34	0	616038400	60	6421
2026-01-04 16:45:03.61	265.62	72.39	-41.5	-42.8	26.3	3.02e+01	61	34	0	623378432	60	7189
2026-01-04 16:45:07.65	259.15	71.14	-42.7	-44.2	25.0	3.02e+01	60	34	0	631242752	60	8430
2026-01-04 16:45:11.70	253.58	69.71	-43.1	-44.7	25.4	3.02e+01	58	34	0	638582784	60	8876
2026-01-04 16:45:15.74	248.83	68.15	-43.4	-45.0	24.5	3.02e+01	45	34	0	646447104	60	9232
2026-01-04 16:45:19.78	244.79	66.51	-43.7	-45.3	24.2	3.02e+01	61	34	0	653787136	60	9582
2026-01-04 16:45:23.83	241.34	64.80	-43.5	-45.1	24.9	3.02e+01	56	34	0	661651456	60	9340
2026-01-04 16:45:27.87	238.38	63.07	-43.1	-44.5	25.6	3.02e+01	58	34	0	668991488	60	8728
2026-01-04 16:45:31.92	235.82	61.33	-42.6	-44.1	25.5	3.02e+01	46	34	0	676855808	60	8348
2026-01-04 16:45:35.96	233.60	59.59	-44.3	-46.0	24.3	3.02e+01	56	34	0	684195840	60	10360
2026-01-04 16:45:40.00	231.66	57.86	-44.1	-45.7	24.8	3.02e+01	53	34	0	691535872	60	9954
2026-01-04 16:45:44.05	229.96	56.16	-43.3	-44.8	25.1	3.02e+01	61	34	0	699400192	60	9073
2026-01-04 16:45:48.09	228.45	54.50	-43.4	-44.9	25.5	3.02e+01	47	34	0	706740224	60	9165
2026-01-04 16:45:52.14	227.11	52.86	-44.2	-45.8	24.6	3.02e+01	59	34	0	714604544	60	10143
2026-01-04 16:45:56.18	225.91	51.27	-44.9	-46.6	23.7	3.02e+01	58	34	0	721944576	60	11163
2026-01-04 16:46:00.22	224.84	49.72	-43.9	-45.6	23.8	3.02e+01	61	34	0	729808896	60	9888
2026-01-04 16:46:04.27	223.86	48.22	-44.7	-46.4	24.1	3.02e+01	60	34	0	737148928	60	10866
2026-01-04 16:46:08.31	222.99	46.76	-44.1	-45.8	24.2	3.02e+01	57	34	0	745013248	60	10117
2026-01-04 16:46:12.35	222.18	45.34	-43.1	-44.7	25.3	3.02e+01	60	34	0	752353280	60	8871
2026-01-04 16:46:16.40	221.45	43.97	-41.5	-42.9	27.0	3.02e+01	58	34	0	760217600	60	7224
2026-01-04 16:46:20.44	220.78	42.64	-41.5	-42.9	26.2	3.02e+01	56	34	0	767557632	60	7263
2026-01-04 16:46:24.49	220.17	41.36	-41.1	-42.5	27.4	3.02e+01	60	34	0	774897664	60	6888
2026-01-04 16:46:28.53	219.60	40.12	-39.0	-40.2	28.3	3.02e+01	61	34	0	782761984	58	5967
2026-01-04 16:46:32.58	219.07	38.92	-37.9	-39.0	29.6	3.02e+01	58	34	0	790102016	56	5848
2026-01-04 16:46:36.62	218.58	37.76	-36.7	-37.8	30.6	3.02e+01	56	34	0	797966336	54	5712
2026-01-04 16:46:40.67	218.13	36.64	-37.3	-38.5	30.1	3.02e+01	61	34	0	805306368	52	6924
2026-01-04 16:46:44.71	217.71	35.55	-38.0	-39.1	29.8	3.02e+01	61	34	0	813170688	54	6633
2026-01-04 16:46:48.76	217.32	34.51	-37.9	-39.0	29.7	3.02e+01	57	34	0	820510720	56	5849
2026-01-04 16:46:52.80	216.95	33.49	-37.7	-38.8	29.6	3.02e+01	59	34	0	828375040	56	5717
2026-01-04 16:46:56.85	216.60	32.51	-37.5	-38.7	29.8	3.02e+01	53	34	0	835715072	56	5632
2026-01-04 16:47:00.89	216.28	31.57	-37.9	-39.1	29.5	3.02e+01	59	34	0	843579392	56	5884
2026-01-04 16:47:04.93	215.98	30.65	-38.2	-39.4	29.4	3.02e+01	48	34	0	850919424	56	6080
2026-01-04 16:47:08.98	215.69	29.76	-38.9	-40.1	28.9	3.02e+01	60	34	0	858783744	56	6607
2026-01-04 16:47:13.02	215.42	28.90	-39.3	-40.5	28.0	3.02e+01	53	34	0	866123776	58	6175
2026-01-04 16:47:17.06	215.16	28.07	-39.9	-41.2	27.9	3.02e+01	57	34	0	873988096	58	6667
2026-01-04 16:47:21.11	214.92	27.26	-40.0	-41.3	27.6	3.02e+01	51	34	0	881328128	58	6799
2026-01-04 16:47:25.15	214.69	26.48	-39.7	-40.9	28.0	3.02e+01	56	34	0	888668160	60	5786
2026-01-04 16:47:29.20	214.48	25.72	-39.2	-40.5	28.3	3.02e+01	53	34	0	896532480	58	6150
2026-01-04 16:47:33.24	214.27	24.98	-38.8	-40.1	28.9	3.02e+01	59	34	0	903872512	58	5862
2026-01-04 16:47:37.28	214.08	24.27	-38.4	-39.6	29.1	3.02e+01	45	34	0	911736832	58	5549
2026-01-04 16:47:41.33	213.89	23.57	-37.9	-39.1	29.6	3.02e+01	56	34	0	919076864	56	5891
2026-01-04 16:47:45.37	213.71	22.89	-37.6	-38.8	29.8	3.02e+01	55	34	0	926941184	56	5679
2026-01-04 16:47:49.41	213.54	22.24	-37.4	-38.6	29.9	3.02e+01	59	34	0	934281216	54	6220
2026-01-04 16:47:53.46	213.38	21.59	-37.5	-38.7	29.9	3.02e+01	47	34	0	942145536	54	6332
2026-01-04 16:47:57.50	213.23	20.97	-37.5	-38.7	29.8	3.02e+01	60	34	0	949485568	54	6298
2026-01-04 16:48:01.54	213.08	20.36	-37.5	-38.6	29.7	3.02e+01	56	34	0	957349888	54	6270
2026-01-04 16:48:05.59	212.94	19.77	-37.9	-39.1	29.5	3.02e+01	55	34	0	964689920	54	6613
2026-01-04 16:48:09.63	212.81	19.19	-37.6	-38.8	29.4	3.02e+01	60	34	0	972554240	54	6395
2026-01-04 16:48:13.68	212.68	18.63	-37.7	-38.9	29.6	3.02e+01	58	34	0	979894272	54	6450
2026-01-04 16:48:17.72	212.56	18.08	-38.4	-39.6	29.1	3.02e+01	60	34	0	987234304	56	6224
2026-01-04 16:48:21.76	212.44	17.55	-38.3	-39.5	29.2	3.02e+01	58	34	0	995098624	56	6171
2026-01-04 16:48:25.81	212.32	17.02	-38.5	-39.7	29.1	3.02e+01	59	34	0	1002438656	56	6342
2026-01-04 16:48:29.85	212.21	16.51	-38.5	-39.7	29.1	3.02e+01	61	34	0	1010302976	56	6319
2026-01-04 16:48:33.90	212.11	16.01	-38.5	-39.7	29.2	3.02e+01	59	34	0	1017643008	56	6316
2026-01-04 16:48:37.94	212.01	15.52	-38.4	-39.6	29.2	3.02e+01	60	34	0	1025507328	56	6229
2026-01-04 16:48:41.98	211.91	15.04	-38.7	-39.9	28.8	3.02e+01	61	34	0	1032847360	56	6498
2026-01-04 16:48:46.03	211.82	14.57	-38.6	-39.9	28.8	3.02e+01	61	34	0	1040711680	56	6447
2026-01-04 16:48:50.07	211.73	14.11	-38.6	-39.9	28.8	3.02e+01	58	34	0	1048051712	56	6440
2026-01-04 16:48:54.12	211.64	13.66	-39.3	-40.5	28.6	3.02e+01	57	34	0	1055916032	58	6178
2026-01-04 16:48:58.16	211.56	13.22	-38.4	-39.6	29.0	3.02e+01	57	34	0	1063256064	58	5549
2026-01-04 16:49:02.20	211.48	12.79	-38.7	-39.9	28.8	3.02e+01	59	34	0	1070596096	56	6487
2026-01-04 16:49:06.25	211.40	12.37	-38.6	-39.8	29.2	3.02e+01	60	34	0	1078460416	56	6403
2026-01-04 16:49:10.29	211.33	11.95	-38.2	-39.4	29.2	3.02e+01	45	34	0	1085800448	56	6081
2026-01-04 16:49:14.34	211.26	11.54	-38.2	-39.4	29.3	3.02e+01	57	34	0	1093664768	56	6081
2026-01-04 16:49:18.38	211.19	11.14	-38.4	-39.6	29.0	3.02e+01	46	34	0	1101004800	56	6268
2026-01-04 16:49:22.42	211.12	10.75	-38.4	-39.6	29.1	3.02e+01	61	34	0	1108869120	56	6227
2026-01-04 16:49:26.47	211.05	10.36	-38.3	-39.5	29.2	3.02e+01	55	34	0	1116209152	56	6171
2026-01-04 16:49:30.51	210.99	9.98	-38.2	-39.4	29.2	3.02e+01	60	34	0	1124073472	56	6067
2026-01-04 16:49:34.56	210.93	9.61	-38.4	-39.6	29.0	3.02e+01	48	34	0	1131413504	56	6223
2026-01-04 16:49:38.60	210.87	9.24	-38.1	-39.3	29.2	3.02e+01	55	34	0	1139277824	56	6042
2026-01-04 16:49:42.64	210.82	8.88	-38.1	-39.3	29.1	3.02e+01	45	34	0	1146617856	56	6052
2026-01-04 16:49:46.69	210.76	8.52	-38.1	-39.3	29.2	3.02e+01	60	34	0	1154482176	56	6039
2026-01-04 16:49:50.73	210.71	8.17	-38.5	-39.7	28.8	3.02e+01	46	34	0	1161822208	56	6310
2026-01-04 16:49:54.78	210.66	7.82	-38.5	-39.7	28.8	3.02e+01	58	34	0	1169686528	56	6320
2026-01-04 16:49:58.82	210.61	7.48	-38.7	-40.0	28.9	3.02e+01	46	34	0	1177026560	56	6509
2026-01-04 16:50:02.87	210.56	7.15	-38.6	-39.9	28.8	3.02e+01	62	34	0	1184890880	56	6432
2026-01-04 16:50:06.91	210.51	6.82	-38.6	-39.8	28.8	3.02e+01	57	34	0	1192230912	56	6391
2026-01-04 16:50:10.96	210.47	6.49	-38.6	-39.9	28.7	3.02e+01	57	34	0	1199570944	56	6428
2026-01-04 16:50:15.00	210.42	6.17	-38.8	-40.0	28.5	3.02e+01	60	34	0	1207435264	56	6546
2026-01-04 16:50:19.04	210.38	5.85	-39.3	-40.6	28.3	3.02e+01	62	34	0	1214775296	58	6226
2026-01-04 16:50:23.09	210.34	5.54	-38.6	-39.8	28.5	3.02e+01	63	34	0	1222639616	58	5689
2026-01-04 16:50:27.13	210.30	5.23	-38.8	-40.1	28.2	3.02e+01	61	34	0	1229979648	58	5888
2026-01-04 16:50:31.18	210.26	4.93	-39.3	-40.6	28.1	3.02e+01	58	34	0	1237843968	58	6228
2026-01-04 16:50:35.22	210.22	4.63	-39.2	-40.5	28.0	3.02e+01	58	34	0	1245184000	58	6173
2026-01-04 16:50:39.27	210.18	4.33	-39.3	-40.6	27.8	3.02e+01	58	34	0	1253048320	58	6272
2026-01-04 16:50:43.31	210.15	4.04	-39.5	-40.7	27.6	3.02e+01	58	34	0	1260388352	58	6350
2026-01-04 16:50:47.35	210.11	3.75	-39.4	-40.8	27.7	3.02e+01	61	34	0	1268252672	58	6351
2026-01-04 16:50:51.40	210.08	3.46	-39.6	-40.9	27.5	3.02e+01	61	34	0	1275592704	58	6456
2026-01-04 16:50:55.44	210.05	3.18	-40.4	-41.8	26.9	3.02e+01	59	34	0	1282932736	58	7143
2026-01-04 16:50:59.49	210.02	2.90	-40.0	-41.3	27.1	3.02e+01	62	34	0	1290797056	60	6047
2026-01-04 16:51:03.53	209.98	2.62	-39.7	-41.0	27.3	3.02e+01	63	34	0	1298137088	60	5854
2026-01-04 16:51:07.58	209.95	2.34	-40.3	-41.6	26.8	3.02e+01	46	34	0	1306001408	60	6276
2026-01-04 16:51:11.62	209.93	2.07	-40.0	-41.4	26.9	3.02e+01	63	34	0	1313341440	60	6081
2026-01-04 16:51:15.66	209.90	1.81	-40.7	-42.1	26.5	3.02e+01	55	34	0	1321205760	60	6644
2026-01-04 16:51:19.71	209.87	1.54	-40.1	-41.5	26.8	3.02e+01	58	34	0	1328545792	60	6166
2026-01-04 16:51:23.75	209.84	1.28	-40.2	-41.6	26.4	3.02e+01	55	34	0	1336410112	60	6260
2026-01-04 16:51:27.79	209.82	1.02	-40.8	-42.2	25.8	3.02e+01	60	34	0	1343750144	60	6711
2026-01-04 16:51:31.84	209.79	0.76	-41.1	-42.6	25.4	3.02e+01	54	34	0	1351614464	60	6988
2026-01-04 16:51:35.89	209.77	0.50	-41.5	-43.0	24.5	3.02e+01	63	34	0	1358954496	60	7363
2026-01-04 16:51:39.93	209.74	0.25	-40.7	-42.1	25.7	3.02e+01	45	34	0	1366818816	60	6649
2026-01-04 16:51:43.97	209.72	-0.00	-41.6	-43.1	24.9	3.02e+01	55	34	0	1374158848	60	7442

#Closed at: 2026-01-04 16:51:44
#Recorded file [1374 MB]: D:/lorett/data/35034_260104_193754.dat