passes_logs/2026/01/04/R4.6S_Anadyr_2ch/R4.6S_Anadyr_2ch__20260104_200942_NOAA_20_JPSS-1_rec.log

#Pass ID: 20260104_200942_NOAA 20 (JPSS-1)
#Satellite: NOAA 20 (JPSS-1)
#Configuration: NOAA 20
#almurnet v.1.7.20251203
#Start time: 2026-01-04 20:09:45

#Version: 2.2.20231116
#Station: R4.6S_Anadyr_2ch
#Location: 177.4865 lon 64.73178 lat
#TLE: 1 43013U 17073A   25350.93759711  .00000080  00000+0  58734-4 0  9994
#TLE: 2 43013  98.7603 287.1885 0002156  81.1496 278.9924 14.19526878418610

#Time	Az	El	Level	Level2	SNR	BER	BlckErr	Temp	State	Recorded	gain1	gain2
2026-01-04 20:09:45.14	64.95	0.12	-51.7	-66.9	3.4	1.51e+00	0	25	0	0	60	108244
2026-01-04 20:09:48.17	64.73	0.27	-51.6	-67.1	3.6	1.51e+00	0	26	104	0	60	110729
2026-01-04 20:09:51.21	64.50	0.42	-52.1	-67.6	3.5	1.51e+00	0	26	104	0	60	117526
2026-01-04 20:09:54.24	64.27	0.57	-51.3	-66.9	3.6	1.51e+00	0	26	104	0	60	107299
2026-01-04 20:09:57.27	64.04	0.72	-51.1	-66.6	3.6	1.51e+00	0	26	104	0	60	104555
2026-01-04 20:10:00.31	63.80	0.87	-50.1	-65.6	3.6	1.51e+00	0	26	104	0	60	93190
2026-01-04 20:10:03.34	63.56	1.02	-49.7	-65.2	3.6	1.51e+00	0	26	104	0	60	88937
2026-01-04 20:10:06.37	63.32	1.17	-49.7	-65.2	3.6	1.51e+00	0	26	104	0	60	88660
2026-01-04 20:10:09.40	63.08	1.33	-49.7	-65.3	3.6	1.51e+00	0	26	104	0	60	89325
2026-01-04 20:10:12.43	62.83	1.48	-49.7	-65.2	3.6	1.51e+00	0	26	104	0	60	89108
2026-01-04 20:10:15.47	62.58	1.63	-49.7	-65.2	3.6	1.51e+00	0	26	104	0	60	89030
2026-01-04 20:10:18.50	62.33	1.78	-49.7	-65.2	3.6	1.51e+00	0	27	104	0	60	89107
2026-01-04 20:10:21.53	62.08	1.93	-49.7	-65.2	3.6	1.51e+00	0	26	104	0	60	88789
2026-01-04 20:10:24.56	61.82	2.09	-49.7	-65.0	3.6	1.51e+00	0	27	104	0	60	86922
2026-01-04 20:10:27.59	61.57	2.24	-49.7	-65.1	3.6	1.51e+00	0	26	104	0	60	88154
2026-01-04 20:10:30.63	61.30	2.39	-49.7	-65.2	3.6	1.51e+00	0	27	104	0	60	88837
2026-01-04 20:10:33.66	61.04	2.54	-49.7	-65.2	3.6	1.51e+00	0	27	104	0	60	89112
2026-01-04 20:10:36.70	60.77	2.70	-49.7	-64.3	3.5	1.51e+00	0	27	104	0	60	80258
2026-01-04 20:10:39.73	60.50	2.85	-49.7	-64.8	3.6	1.51e+00	0	27	104	0	60	85005
2026-01-04 20:10:42.76	60.23	3.01	-49.1	-57.0	6.2	2.86e-01	0	27	0	1048576	60	34357
2026-01-04 20:10:45.79	59.95	3.16	-48.9	-56.7	4.5	1.51e+00	0	27	104	3145728	60	33335
2026-01-04 20:10:48.83	59.67	3.32	-45.4	-47.7	16.2	1.51e+00	90	27	104	4194304	60	11876
2026-01-04 20:10:51.86	59.39	3.47	-45.5	-47.9	16.5	0.00e+00	0	27	0	8388608	60	12044
2026-01-04 20:10:54.89	59.10	3.63	-45.6	-47.9	16.7	0.00e+00	0	27	0	13631488	60	12082
2026-01-04 20:10:57.93	58.81	3.78	-45.6	-47.9	16.6	0.00e+00	0	27	0	19922944	60	12121
2026-01-04 20:11:00.96	58.52	3.94	-44.9	-46.9	17.6	0.00e+00	0	27	0	25165824	60	10848
2026-01-04 20:11:03.99	58.23	4.09	-45.1	-47.3	17.2	0.00e+00	0	27	0	30408704	60	11271
2026-01-04 20:11:07.03	57.93	4.25	-45.1	-47.1	17.1	0.00e+00	0	27	0	36700160	60	11084
2026-01-04 20:11:10.06	57.63	4.40	-45.3	-47.4	17.2	0.00e+00	0	27	0	41943040	60	11437
2026-01-04 20:11:13.09	57.32	4.56	-44.7	-46.7	18.0	0.00e+00	0	27	0	48234496	60	10493
2026-01-04 20:11:16.13	57.01	4.72	-44.8	-46.7	17.9	0.00e+00	0	27	0	53477376	60	10576
2026-01-04 20:11:19.16	56.70	4.87	-44.8	-46.7	17.9	0.00e+00	0	27	0	59768832	60	10511
2026-01-04 20:11:22.19	56.39	5.03	-44.0	-45.7	18.8	0.00e+00	0	27	0	65011712	60	9390
2026-01-04 20:11:25.23	56.07	5.19	-44.0	-45.7	19.0	0.00e+00	0	27	0	70254592	60	9376
2026-01-04 20:11:28.26	55.74	5.34	-44.3	-46.1	18.6	0.00e+00	0	27	0	76546048	60	9843
2026-01-04 20:11:31.29	55.42	5.50	-44.3	-46.0	18.6	0.00e+00	0	27	0	81788928	60	9774
2026-01-04 20:11:34.33	55.09	5.66	-44.2	-45.9	18.9	0.00e+00	0	27	0	88080384	60	9571
2026-01-04 20:11:37.36	54.76	5.81	-43.9	-45.5	19.2	0.00e+00	0	27	0	93323264	60	9159
2026-01-04 20:11:40.39	54.42	5.97	-43.8	-45.3	19.4	0.00e+00	0	27	0	98566144	60	8999
2026-01-04 20:11:43.43	54.08	6.13	-43.7	-45.2	19.5	0.00e+00	0	27	0	104857600	60	8912
2026-01-04 20:11:46.46	53.73	6.28	-43.3	-44.7	20.0	0.00e+00	0	27	0	110100480	60	8387
2026-01-04 20:11:49.49	53.39	6.44	-44.0	-45.6	19.3	0.00e+00	0	27	0	116391936	60	9291
2026-01-04 20:11:52.53	53.03	6.60	-43.6	-45.2	19.7	0.00e+00	0	27	0	121634816	60	8825
2026-01-04 20:11:55.56	52.68	6.76	-43.8	-45.4	19.5	0.00e+00	0	27	0	127926272	60	9081
2026-01-04 20:11:58.59	52.32	6.91	-44.0	-45.6	19.3	0.00e+00	0	27	0	133169152	60	9332
2026-01-04 20:12:01.62	51.95	7.07	-43.7	-45.2	19.7	0.00e+00	0	27	0	138412032	60	8868
2026-01-04 20:12:04.66	51.59	7.22	-43.6	-45.1	19.8	0.00e+00	0	27	0	144703488	60	8740
2026-01-04 20:12:07.69	51.21	7.38	-43.5	-44.9	20.0	0.00e+00	0	27	0	149946368	60	8593
2026-01-04 20:12:10.72	50.84	7.54	-43.5	-45.0	19.9	0.00e+00	0	27	0	156237824	60	8679
2026-01-04 20:12:13.76	50.46	7.69	-43.4	-44.9	20.0	0.00e+00	0	27	0	161480704	60	8530
2026-01-04 20:12:16.79	50.07	7.85	-43.5	-45.0	20.0	0.00e+00	0	27	0	167772160	60	8659
2026-01-04 20:12:19.82	49.68	8.00	-43.4	-44.8	20.1	0.00e+00	0	27	0	173015040	60	8470
2026-01-04 20:12:22.85	49.29	8.16	-43.5	-45.0	20.0	0.00e+00	0	27	0	178257920	60	8643
2026-01-04 20:12:25.89	48.89	8.31	-43.3	-44.7	20.3	0.00e+00	0	27	0	184549376	60	8335
2026-01-04 20:12:28.92	48.49	8.47	-43.2	-44.6	20.3	0.00e+00	0	27	0	189792256	60	8316
2026-01-04 20:12:31.96	48.09	8.62	-43.1	-44.5	20.4	0.00e+00	0	27	0	196083712	60	8195
2026-01-04 20:12:34.99	47.68	8.77	-43.0	-44.3	20.6	0.00e+00	0	27	0	201326592	60	8038
2026-01-04 20:12:38.02	47.26	8.93	-43.1	-44.4	20.6	0.00e+00	0	27	0	207618048	60	8112
2026-01-04 20:12:41.05	46.84	9.08	-43.0	-44.3	20.7	0.00e+00	0	27	0	212860928	60	8007
2026-01-04 20:12:44.09	46.42	9.23	-43.1	-44.4	20.5	0.00e+00	0	27	0	218103808	60	8119
2026-01-04 20:12:47.12	45.99	9.38	-43.1	-44.4	20.6	0.00e+00	0	27	0	224395264	60	8116
2026-01-04 20:12:50.15	45.56	9.53	-43.3	-44.7	20.4	0.00e+00	0	27	0	229638144	60	8366
2026-01-04 20:12:53.19	45.12	9.68	-43.0	-44.3	20.8	0.00e+00	0	27	0	235929600	60	8002
2026-01-04 20:12:56.22	44.68	9.83	-42.6	-43.9	21.2	0.00e+00	0	27	0	241172480	60	7631
2026-01-04 20:12:59.26	44.23	9.98	-42.8	-44.1	20.9	0.00e+00	0	27	0	246415360	60	7801
2026-01-04 20:13:02.29	43.78	10.13	-42.4	-43.6	21.4	0.00e+00	0	27	0	252706816	60	7385
2026-01-04 20:13:05.32	43.33	10.27	-42.2	-43.3	21.6	0.00e+00	0	27	0	257949696	60	7167
2026-01-04 20:13:08.35	42.87	10.42	-42.1	-43.3	21.7	0.00e+00	0	27	0	264241152	60	7114
2026-01-04 20:13:11.39	42.40	10.56	-41.8	-42.9	22.2	0.00e+00	0	27	0	269484032	60	6785
2026-01-04 20:13:14.42	41.93	10.71	-41.8	-42.9	22.1	0.00e+00	0	27	0	275775488	60	6781
2026-01-04 20:13:17.45	41.46	10.85	-41.6	-42.6	22.4	0.00e+00	0	27	0	281018368	60	6597
2026-01-04 20:13:20.48	40.98	10.99	-41.5	-42.6	22.4	0.00e+00	0	27	0	286261248	60	6569
2026-01-04 20:13:23.52	40.50	11.13	-41.7	-42.8	22.3	0.00e+00	0	27	0	292552704	60	6718
2026-01-04 20:13:26.55	40.01	11.27	-41.4	-42.5	22.6	0.00e+00	0	27	0	297795584	60	6486
2026-01-04 20:13:29.58	39.52	11.41	-41.1	-42.1	22.9	0.00e+00	0	27	0	304087040	60	6243
2026-01-04 20:13:32.62	39.02	11.54	-41.1	-42.1	22.9	0.00e+00	0	27	0	309329920	60	6210
2026-01-04 20:13:35.65	38.52	11.68	-41.1	-42.1	23.0	0.00e+00	0	27	0	315621376	60	6203
2026-01-04 20:13:38.68	38.01	11.81	-40.8	-41.8	23.2	0.00e+00	0	27	0	320864256	60	5999
2026-01-04 20:13:41.72	37.50	11.94	-40.6	-41.6	23.3	0.00e+00	0	27	0	326107136	60	5830
2026-01-04 20:13:44.75	36.98	12.08	-40.6	-41.6	23.3	0.00e+00	0	27	0	332398592	60	5847
2026-01-04 20:13:47.78	36.46	12.20	-40.7	-41.7	23.3	0.00e+00	0	27	0	337641472	60	5936
2026-01-04 20:13:50.82	35.93	12.33	-40.8	-41.8	23.1	0.00e+00	0	27	0	343932928	60	6019
2026-01-04 20:13:53.85	35.40	12.46	-41.1	-42.1	23.1	0.00e+00	0	27	0	349175808	60	6225
2026-01-04 20:13:56.88	34.87	12.58	-41.1	-42.1	22.9	0.00e+00	0	27	0	355467264	60	6241
2026-01-04 20:13:59.92	34.33	12.70	-41.1	-42.1	22.9	0.00e+00	0	27	0	360710144	60	6220
2026-01-04 20:14:02.95	33.79	12.82	-41.3	-42.3	22.9	0.00e+00	0	27	0	365953024	60	6378
2026-01-04 20:14:05.98	33.24	12.94	-41.2	-42.2	22.9	0.00e+00	0	27	0	372244480	60	6314
2026-01-04 20:14:09.02	32.68	13.06	-41.0	-42.0	23.0	0.00e+00	0	27	0	377487360	60	6165
2026-01-04 20:14:12.05	32.13	13.17	-41.2	-42.2	22.9	0.00e+00	0	27	0	383778816	60	6272
2026-01-04 20:14:15.08	31.57	13.28	-41.0	-41.9	23.1	0.00e+00	0	27	0	389021696	60	6089
2026-01-04 20:14:18.12	31.00	13.39	-40.9	-41.9	23.2	0.00e+00	0	27	0	395313152	60	6060
2026-01-04 20:14:21.15	30.43	13.50	-40.8	-41.8	23.2	0.00e+00	0	27	0	400556032	60	6009
2026-01-04 20:14:24.18	29.86	13.60	-40.9	-41.8	23.2	0.00e+00	0	27	0	405798912	60	6028
2026-01-04 20:14:27.22	29.28	13.71	-41.0	-41.9	23.2	0.00e+00	0	27	0	412090368	60	6099
2026-01-04 20:14:30.25	28.70	13.81	-40.7	-41.7	23.3	0.00e+00	0	27	0	417333248	60	5907
2026-01-04 20:14:33.28	28.11	13.90	-40.5	-41.4	23.6	0.00e+00	0	27	0	423624704	60	5738
2026-01-04 20:14:36.32	27.52	14.00	-40.6	-41.5	23.5	0.00e+00	0	27	0	428867584	60	5806
2026-01-04 20:14:39.35	26.93	14.09	-40.4	-41.3	23.7	0.00e+00	0	27	0	434110464	60	5656
2026-01-04 20:14:42.38	26.33	14.18	-40.6	-41.6	23.5	0.00e+00	0	27	0	440401920	60	5860
2026-01-04 20:14:45.42	25.73	14.26	-40.5	-41.4	23.6	0.00e+00	0	27	0	445644800	60	5760
2026-01-04 20:14:48.45	25.12	14.35	-40.6	-41.6	23.4	0.00e+00	0	27	0	451936256	60	5855
2026-01-04 20:14:51.48	24.52	14.43	-40.7	-41.6	23.4	0.00e+00	0	27	0	457179136	60	5880
2026-01-04 20:14:54.51	23.91	14.51	-40.8	-41.8	23.2	0.00e+00	0	27	0	463470592	60	6008
2026-01-04 20:14:57.55	23.29	14.58	-41.1	-42.1	23.0	0.00e+00	0	27	0	468713472	60	6198
2026-01-04 20:15:00.58	22.68	14.65	-40.9	-41.9	23.2	0.00e+00	0	27	0	473956352	60	6083
2026-01-04 20:15:03.62	22.05	14.72	-41.3	-42.3	22.9	0.00e+00	0	27	0	480247808	60	6385
2026-01-04 20:15:06.65	21.43	14.79	-41.5	-42.5	22.7	0.00e+00	0	27	0	485490688	60	6510
2026-01-04 20:15:09.68	20.81	14.85	-41.4	-42.4	22.7	0.00e+00	0	27	0	491782144	60	6456
2026-01-04 20:15:12.72	20.18	14.91	-41.3	-42.3	22.8	0.00e+00	0	27	0	497025024	60	6358
2026-01-04 20:15:15.75	19.55	14.96	-41.5	-42.6	22.7	0.00e+00	0	27	0	503316480	60	6550
2026-01-04 20:15:18.78	18.92	15.01	-40.9	-41.9	23.2	0.00e+00	0	27	0	508559360	60	6043
2026-01-04 20:15:21.82	18.28	15.06	-40.9	-41.8	23.3	0.00e+00	0	27	0	513802240	60	6020
2026-01-04 20:15:24.85	17.64	15.11	-41.0	-42.0	23.2	0.00e+00	0	27	0	520093696	60	6127
2026-01-04 20:15:27.88	17.01	15.15	-41.0	-41.9	23.0	0.00e+00	0	27	0	525336576	60	6094
2026-01-04 20:15:30.91	16.37	15.18	-40.9	-41.8	23.2	0.00e+00	0	27	0	531628032	60	6025
2026-01-04 20:15:33.95	15.72	15.22	-41.1	-42.1	22.9	0.00e+00	0	27	0	536870912	60	6200
2026-01-04 20:15:36.98	15.08	15.25	-41.1	-42.1	23.0	0.00e+00	0	27	0	543162368	60	6179
2026-01-04 20:15:40.01	14.44	15.28	-41.1	-42.2	22.9	0.00e+00	0	27	0	548405248	60	6255
2026-01-04 20:15:43.05	13.79	15.30	-41.3	-42.3	22.9	0.00e+00	0	27	0	553648128	60	6337
2026-01-04 20:15:46.08	13.14	15.32	-41.0	-41.9	23.2	0.00e+00	0	27	0	559939584	60	6084
2026-01-04 20:15:49.12	12.49	15.34	-41.1	-42.1	23.1	0.00e+00	0	27	0	565182464	60	6240
2026-01-04 20:15:52.15	11.85	15.35	-41.5	-42.6	22.7	0.00e+00	0	27	0	571473920	60	6542
2026-01-04 20:15:55.18	11.20	15.36	-40.9	-41.9	23.1	0.00e+00	0	27	0	576716800	60	6087
2026-01-04 20:15:58.21	10.55	15.36	-41.6	-42.6	22.8	0.00e+00	0	27	0	583008256	60	6581
2026-01-04 20:16:01.25	9.90	15.36	-41.3	-42.3	22.9	0.00e+00	0	27	0	588251136	60	6357
2026-01-04 20:16:04.28	9.25	15.36	-41.1	-42.1	22.6	0.00e+00	0	27	0	593494016	60	6225
2026-01-04 20:16:07.32	8.60	15.36	-40.8	-41.8	23.3	0.00e+00	0	27	0	599785472	60	6000
2026-01-04 20:16:10.35	7.95	15.35	-41.2	-42.2	22.9	0.00e+00	0	27	0	605028352	60	6312
2026-01-04 20:16:13.38	7.31	15.33	-41.5	-42.5	22.7	0.00e+00	0	27	0	611319808	60	6514
2026-01-04 20:16:16.41	6.66	15.31	-41.3	-42.3	22.8	0.00e+00	0	27	0	616562688	60	6376
2026-01-04 20:16:19.45	6.01	15.29	-41.3	-42.4	22.7	0.00e+00	0	27	0	621805568	60	6404
2026-01-04 20:16:22.48	5.37	15.27	-41.2	-42.2	22.9	0.00e+00	0	27	0	628097024	60	6249
2026-01-04 20:16:25.52	4.72	15.24	-41.2	-42.2	23.0	0.00e+00	0	27	0	633339904	60	6255
2026-01-04 20:16:28.55	4.08	15.21	-41.2	-42.2	22.7	0.00e+00	0	27	0	639631360	60	6292
2026-01-04 20:16:31.58	3.44	15.17	-41.9	-43.0	22.1	0.00e+00	0	27	0	644874240	60	6892
2026-01-04 20:16:34.62	2.80	15.14	-41.2	-42.2	22.9	0.00e+00	0	27	0	651165696	60	6317
2026-01-04 20:16:37.65	2.16	15.09	-40.9	-41.9	22.9	0.00e+00	0	27	0	656408576	60	6059
2026-01-04 20:16:40.68	1.53	15.05	-40.9	-41.9	23.2	0.00e+00	0	27	0	661651456	60	6063
2026-01-04 20:16:43.72	0.89	15.00	-40.9	-41.9	23.2	0.00e+00	0	27	0	667942912	60	6096
2026-01-04 20:16:46.75	0.26	14.95	-40.7	-41.6	23.3	0.00e+00	0	27	0	673185792	60	5885
2026-01-04 20:16:49.78	359.63	14.89	-40.7	-41.7	23.3	0.00e+00	0	27	0	679477248	60	5938
2026-01-04 20:16:52.82	359.00	14.83	-40.8	-41.8	23.3	0.00e+00	0	27	0	684720128	60	5994
2026-01-04 20:16:55.85	358.38	14.77	-40.8	-41.8	23.1	0.00e+00	0	27	0	691011584	60	5988
2026-01-04 20:16:58.88	357.76	14.70	-40.7	-41.7	23.2	0.00e+00	0	27	0	696254464	60	5928
2026-01-04 20:17:01.92	357.14	14.63	-41.0	-42.0	23.1	0.00e+00	0	27	0	701497344	60	6107
2026-01-04 20:17:04.95	356.52	14.56	-41.0	-42.0	22.9	0.00e+00	0	27	0	707788800	60	6155
2026-01-04 20:17:07.98	355.91	14.49	-41.1	-42.1	22.9	0.00e+00	0	27	0	713031680	60	6244
2026-01-04 20:17:11.02	355.30	14.41	-41.3	-42.4	22.5	0.00e+00	0	27	0	719323136	60	6394
2026-01-04 20:17:14.05	354.69	14.33	-41.2	-42.3	22.8	0.00e+00	0	27	0	724566016	60	6324
2026-01-04 20:17:17.08	354.09	14.24	-41.2	-42.2	22.8	0.00e+00	0	27	0	730857472	60	6295
2026-01-04 20:17:20.12	353.49	14.15	-41.2	-42.2	22.8	0.00e+00	0	27	0	736100352	60	6296
2026-01-04 20:17:23.15	352.90	14.06	-41.1	-42.1	22.9	0.00e+00	0	27	0	741343232	60	6215
2026-01-04 20:17:26.18	352.30	13.97	-40.8	-41.8	23.3	0.00e+00	0	27	0	747634688	60	5997
2026-01-04 20:17:29.22	351.71	13.88	-40.7	-41.7	23.3	0.00e+00	0	27	0	752877568	60	5907
2026-01-04 20:17:32.25	351.13	13.78	-40.9	-41.9	23.1	0.00e+00	0	27	0	759169024	60	6047
2026-01-04 20:17:35.28	350.55	13.68	-40.8	-41.8	22.9	0.00e+00	0	27	0	764411904	60	5983
2026-01-04 20:17:38.32	349.97	13.58	-40.6	-41.6	23.1	0.00e+00	0	27	0	770703360	60	5840
2026-01-04 20:17:41.35	349.40	13.47	-41.3	-42.4	22.8	0.00e+00	0	27	0	775946240	60	6401
2026-01-04 20:17:44.38	348.84	13.36	-41.2	-42.3	22.8	0.00e+00	0	27	0	781189120	60	6331
2026-01-04 20:17:47.42	348.27	13.25	-41.1	-42.0	22.9	0.00e+00	0	27	0	787480576	60	6169
2026-01-04 20:17:50.45	347.71	13.14	-41.0	-42.0	22.9	0.00e+00	0	27	0	792723456	60	6156
2026-01-04 20:17:53.48	347.16	13.03	-41.0	-42.0	23.0	0.00e+00	0	27	0	799014912	60	6147
2026-01-04 20:17:56.52	346.60	12.91	-40.9	-41.9	23.1	0.00e+00	0	27	0	804257792	60	6038
2026-01-04 20:17:59.55	346.06	12.79	-41.1	-42.1	23.0	0.00e+00	0	27	0	809500672	60	6183
2026-01-04 20:18:02.58	345.52	12.67	-41.2	-42.3	22.7	0.00e+00	0	27	0	815792128	60	6327
2026-01-04 20:18:05.62	344.98	12.55	-41.5	-42.6	22.5	0.00e+00	0	27	0	821035008	60	6572
2026-01-04 20:18:08.65	344.45	12.42	-41.7	-42.8	22.3	0.00e+00	0	27	0	827326464	60	6694
2026-01-04 20:18:11.68	343.92	12.30	-41.7	-42.8	22.2	0.00e+00	0	27	0	832569344	60	6700
2026-01-04 20:18:14.72	343.39	12.17	-42.0	-43.1	22.0	0.00e+00	0	27	0	838860800	60	6965
2026-01-04 20:18:17.75	342.88	12.04	-42.3	-43.4	21.4	0.00e+00	0	27	0	844103680	60	7250
2026-01-04 20:18:20.78	342.36	11.91	-42.7	-44.0	21.1	0.00e+00	0	27	0	849346560	60	7705
2026-01-04 20:18:23.82	341.85	11.78	-43.4	-44.8	20.3	0.00e+00	0	27	0	855638016	60	8487
2026-01-04 20:18:26.85	341.35	11.64	-44.3	-45.9	19.1	0.00e+00	0	27	0	860880896	60	9617
2026-01-04 20:18:29.88	340.85	11.51	-43.7	-45.2	20.0	0.00e+00	0	27	0	867172352	60	8840
2026-01-04 20:18:32.92	340.35	11.37	-43.2	-44.6	20.6	0.00e+00	0	27	0	872415232	60	8276
2026-01-04 20:18:35.95	339.86	11.23	-43.1	-44.5	20.6	0.00e+00	0	27	0	878706688	60	8150
2026-01-04 20:18:38.98	339.38	11.10	-43.8	-45.3	19.6	0.00e+00	0	27	0	883949568	60	8974
2026-01-04 20:18:42.02	338.89	10.95	-44.1	-45.7	19.7	0.00e+00	0	27	0	889192448	60	9385
2026-01-04 20:18:45.05	338.42	10.81	-43.6	-45.1	19.9	0.00e+00	0	27	0	895483904	60	8786
2026-01-04 20:18:48.08	337.94	10.67	-43.7	-45.2	19.8	0.00e+00	0	27	0	900726784	60	8898
2026-01-04 20:18:51.12	337.48	10.53	-43.8	-45.4	19.8	0.00e+00	0	27	0	907018240	60	9046
2026-01-04 20:18:54.15	337.01	10.38	-44.0	-45.6	19.3	0.00e+00	0	27	0	912261120	60	9315
2026-01-04 20:18:57.18	336.56	10.24	-43.9	-45.5	19.6	0.00e+00	0	27	0	918552576	60	9152
2026-01-04 20:19:00.22	336.10	10.09	-43.9	-45.4	19.6	0.00e+00	0	27	0	923795456	60	9075
2026-01-04 20:19:03.25	335.65	9.94	-43.9	-45.5	19.3	0.00e+00	0	27	0	929038336	60	9193
2026-01-04 20:19:06.28	335.21	9.79	-44.2	-45.9	19.2	0.00e+00	0	27	0	935329792	60	9578
2026-01-04 20:19:09.32	334.77	9.65	-43.8	-45.3	19.8	0.00e+00	0	27	0	940572672	60	8988
2026-01-04 20:19:12.35	334.34	9.50	-43.9	-45.4	19.6	0.00e+00	0	27	0	946864128	60	9110
2026-01-04 20:19:15.38	333.91	9.35	-43.4	-44.8	20.1	0.00e+00	0	27	0	952107008	60	8427
2026-01-04 20:19:18.42	333.48	9.19	-43.5	-44.9	20.1	0.00e+00	0	27	0	958398464	60	8543
2026-01-04 20:19:21.45	333.06	9.04	-43.7	-45.1	20.1	0.00e+00	0	27	0	963641344	60	8796
2026-01-04 20:19:24.48	332.64	8.89	-43.1	-44.5	20.3	0.00e+00	0	27	0	968884224	60	8199
2026-01-04 20:19:27.52	332.23	8.74	-43.2	-44.6	20.4	0.00e+00	0	27	0	975175680	60	8260
2026-01-04 20:19:30.55	331.82	8.58	-42.7	-44.0	20.9	0.00e+00	0	27	0	980418560	60	7724
2026-01-04 20:19:33.58	331.42	8.43	-43.0	-44.3	21.0	0.00e+00	0	27	0	986710016	60	7965
2026-01-04 20:19:36.62	331.02	8.28	-42.5	-43.7	21.1	0.00e+00	0	27	0	991952896	60	7498
2026-01-04 20:19:39.65	330.62	8.12	-42.5	-43.7	21.4	0.00e+00	0	27	0	997195776	60	7458
2026-01-04 20:19:42.68	330.23	7.97	-42.2	-43.4	21.2	0.00e+00	0	27	0	1003487232	60	7237
2026-01-04 20:19:45.72	329.84	7.81	-42.0	-43.1	21.6	0.00e+00	0	27	0	1008730112	60	7002
2026-01-04 20:19:48.75	329.46	7.66	-41.8	-42.9	21.7	0.00e+00	0	27	0	1015021568	60	6846
2026-01-04 20:19:51.78	329.08	7.50	-41.9	-43.1	21.5	0.00e+00	0	27	0	1020264448	60	6969
2026-01-04 20:19:54.82	328.71	7.35	-41.4	-42.5	22.3	0.00e+00	0	27	0	1026555904	60	6499
2026-01-04 20:19:57.85	328.34	7.19	-42.1	-43.3	21.6	0.00e+00	0	27	0	1031798784	60	7125
2026-01-04 20:20:00.88	327.97	7.03	-41.8	-42.9	21.7	0.00e+00	0	27	0	1037041664	60	6824
2026-01-04 20:20:03.91	327.61	6.88	-42.2	-43.3	21.5	0.00e+00	0	27	0	1043333120	60	7170
2026-01-04 20:20:06.95	327.25	6.72	-41.9	-43.1	21.8	0.00e+00	0	27	0	1048576000	60	6944
2026-01-04 20:20:09.98	326.90	6.57	-41.8	-42.9	21.9	0.00e+00	0	27	0	1054867456	60	6839
2026-01-04 20:20:13.01	326.55	6.41	-42.2	-43.5	21.2	0.00e+00	0	27	0	1060110336	60	7254
2026-01-04 20:20:16.05	326.20	6.25	-42.0	-43.2	21.6	0.00e+00	0	27	0	1066401792	60	7014
2026-01-04 20:20:19.08	325.86	6.09	-42.4	-43.7	21.1	0.00e+00	0	27	0	1071644672	60	7463
2026-01-04 20:20:22.11	325.52	5.94	-42.7	-44.0	21.0	0.00e+00	0	27	0	1076887552	60	7691
2026-01-04 20:20:25.15	325.19	5.78	-42.4	-43.7	21.1	0.00e+00	0	27	0	1083179008	60	7463
2026-01-04 20:20:28.18	324.85	5.62	-42.2	-43.4	21.4	0.00e+00	0	27	0	1088421888	60	7205
2026-01-04 20:20:31.21	324.53	5.47	-42.2	-43.4	21.2	0.00e+00	0	27	0	1094713344	60	7242
2026-01-04 20:20:34.25	324.20	5.31	-42.9	-44.2	21.0	0.00e+00	0	27	0	1099956224	60	7886
2026-01-04 20:20:37.28	323.88	5.15	-42.6	-43.8	21.0	0.00e+00	0	27	0	1106247680	60	7585
2026-01-04 20:20:40.31	323.57	5.00	-43.0	-44.4	20.4	0.00e+00	0	27	0	1111490560	60	8106
2026-01-04 20:20:43.34	323.25	4.84	-43.5	-44.9	20.1	0.00e+00	0	27	0	1116733440	60	8603
2026-01-04 20:20:46.38	322.94	4.69	-44.0	-45.5	19.6	0.00e+00	0	27	0	1123024896	60	9223
2026-01-04 20:20:49.41	322.64	4.53	-43.7	-45.1	20.2	0.00e+00	0	27	0	1128267776	60	8821
2026-01-04 20:20:52.44	322.33	4.37	-43.1	-44.5	20.1	0.00e+00	0	27	0	1134559232	60	8233
2026-01-04 20:20:55.48	322.03	4.22	-43.8	-45.2	19.8	0.00e+00	0	27	0	1139802112	60	8919
2026-01-04 20:20:58.51	321.74	4.06	-43.9	-45.6	19.3	0.00e+00	0	27	0	1146093568	60	9239
2026-01-04 20:21:01.54	321.44	3.91	-43.5	-45.1	19.5	0.00e+00	0	27	0	1151336448	60	8731
2026-01-04 20:21:04.58	321.15	3.75	-44.4	-46.0	19.0	0.00e+00	0	27	0	1156579328	60	9708
2026-01-04 20:21:07.61	320.86	3.60	-44.5	-46.3	18.7	0.00e+00	0	27	0	1162870784	60	10041
2026-01-04 20:21:10.63	320.58	3.44	-44.0	-45.7	18.9	0.00e+00	0	27	0	1168113664	60	9417
2026-01-04 20:21:13.66	320.30	3.29	-44.6	-46.4	18.4	0.00e+00	0	27	0	1174405120	60	10224
2026-01-04 20:21:16.70	320.02	3.13	-44.5	-46.2	18.6	0.00e+00	0	27	0	1179648000	60	9998
2026-01-04 20:21:19.73	319.75	2.98	-51.0	-66.4	3.6	1.51e+00	0	27	104	1182793728	60	102258
2026-01-04 20:21:22.77	319.48	2.82	-51.4	-67.0	3.6	1.51e+00	0	27	104	1182793728	60	108657
2026-01-04 20:21:25.80	319.21	2.67	-51.5	-67.0	3.6	1.51e+00	0	27	104	1182793728	60	109459
2026-01-04 20:21:28.83	318.94	2.52	-51.3	-66.9	3.6	1.51e+00	0	27	104	1182793728	60	108225
2026-01-04 20:21:31.87	318.68	2.36	-51.4	-66.9	3.6	1.51e+00	0	27	104	1182793728	60	107629
2026-01-04 20:21:34.90	318.42	2.21	-52.0	-67.5	3.6	1.51e+00	0	27	104	1182793728	60	116191
2026-01-04 20:21:37.93	318.16	2.06	-51.8	-67.3	3.6	1.51e+00	0	27	104	1182793728	60	113499
2026-01-04 20:21:40.96	317.91	1.91	-51.7	-67.2	3.6	1.51e+00	0	27	104	1182793728	60	111300
2026-01-04 20:21:43.99	317.65	1.76	-51.6	-67.1	3.6	1.51e+00	0	27	104	1182793728	60	111058
2026-01-04 20:21:47.02	317.41	1.60	-51.7	-67.2	3.6	1.51e+00	0	27	104	1182793728	60	111770
2026-01-04 20:21:50.06	317.16	1.45	-51.6	-67.1	3.6	1.51e+00	0	27	104	1182793728	60	110924
2026-01-04 20:21:53.09	316.91	1.30	-51.7	-67.2	3.6	1.51e+00	0	27	104	1182793728	60	111697
2026-01-04 20:21:56.12	316.67	1.15	-52.3	-67.8	3.6	1.51e+00	0	27	104	1182793728	60	119997
2026-01-04 20:21:59.15	316.43	1.00	-51.4	-66.9	3.6	1.51e+00	0	27	104	1182793728	60	108242
2026-01-04 20:22:02.19	316.20	0.85	-51.8	-67.3	3.6	1.51e+00	0	27	104	1182793728	60	113244
2026-01-04 20:22:05.22	315.96	0.70	-51.7	-67.2	3.6	1.51e+00	0	27	104	1182793728	60	111655
2026-01-04 20:22:08.25	315.73	0.55	-51.8	-67.2	3.6	1.51e+00	0	27	104	1182793728	60	112135
2026-01-04 20:22:11.29	315.50	0.40	-51.8	-67.3	3.6	1.51e+00	0	27	104	1182793728	60	113145
2026-01-04 20:22:14.32	315.28	0.25	-51.9	-67.5	3.6	1.51e+00	0	27	104	1182793728	60	115164
2026-01-04 20:22:17.35	315.05	0.10	-51.9	-67.3	3.6	1.51e+00	0	27	104	1182793728	60	113412
2026-01-04 20:22:20.38	314.83	-0.05	-51.7	-67.3	3.6	1.51e+00	0	27	104	1182793728	60	112380

#Closed at: 2026-01-04 20:22:22
#Recorded file [1182 MB]: D:/lorett/data/35034_260104_230945.dat