passes_logs/2026/01/04/R4.6S_Anadyr_2ch/R4.6S_Anadyr_2ch__20260104_112955_SUOMI_NPP_rec.log

#Pass ID: 20260104_112955_SUOMI NPP
#Satellite: SUOMI NPP
#Configuration: NPP
#almurnet v.1.7.20251203
#Start time: 2026-01-04 11:29:56

#Version: 2.2.20231116
#Station: R4.6S_Anadyr_2ch
#Location: 177.4865 lon 64.73178 lat
#TLE: 1 37849U 11061A   25350.92281687  .00000071  00000+0  54882-4 0  9996
#TLE: 2 37849  98.7777 288.2268 0002366 112.8570 247.2856 14.19515404732588

#Time	Az	El	Level	Level2	SNR	BER	BlckErr	Temp	State	Recorded	gain1	gain2
2026-01-04 11:29:56.74	21.32	0.05	-53.6	-64.7	3.5	8.45e-01	0	34	0	0	60	84989
2026-01-04 11:29:59.77	21.62	0.16	-52.6	-68.2	3.6	1.51e+00	0	36	104	0	60	125478
2026-01-04 11:30:02.80	21.92	0.27	-52.5	-68.1	3.6	1.51e+00	0	36	104	0	60	123757
2026-01-04 11:30:05.83	22.23	0.39	-52.3	-67.9	3.6	1.51e+00	0	36	104	0	60	120803
2026-01-04 11:30:08.86	22.54	0.50	-52.0	-67.6	3.6	1.51e+00	0	36	104	0	60	116919
2026-01-04 11:30:11.89	22.85	0.61	-51.2	-66.7	3.6	1.51e+00	0	36	104	0	60	105758
2026-01-04 11:30:14.93	23.16	0.72	-50.5	-66.1	3.6	1.51e+00	0	36	104	0	60	98100
2026-01-04 11:30:17.96	23.48	0.84	-50.5	-66.1	3.6	1.51e+00	0	36	104	0	60	97968
2026-01-04 11:30:20.99	23.79	0.95	-50.5	-66.0	3.6	1.51e+00	0	36	104	0	60	97612
2026-01-04 11:30:24.02	24.11	1.06	-50.5	-66.0	3.6	1.51e+00	0	36	104	0	60	97729
2026-01-04 11:30:27.05	24.44	1.17	-50.4	-66.1	3.6	1.51e+00	0	36	104	0	60	97925
2026-01-04 11:30:30.09	24.76	1.28	-50.5	-66.0	3.6	1.51e+00	0	36	104	0	60	97389
2026-01-04 11:30:33.12	25.09	1.39	-50.5	-66.1	3.6	1.51e+00	0	36	104	0	60	98174
2026-01-04 11:30:36.16	25.42	1.51	-50.5	-66.0	3.6	1.51e+00	0	36	104	0	60	97664
2026-01-04 11:30:39.19	25.75	1.62	-50.5	-66.1	3.6	1.51e+00	0	36	104	0	60	97907
2026-01-04 11:30:42.22	26.08	1.73	-50.5	-66.1	3.6	1.51e+00	0	36	104	0	60	97916
2026-01-04 11:30:45.25	26.42	1.84	-50.5	-66.1	3.6	1.51e+00	0	37	104	0	60	98017
2026-01-04 11:30:48.29	26.76	1.95	-50.5	-66.0	3.6	1.51e+00	0	37	104	0	60	97127
2026-01-04 11:30:51.32	27.10	2.06	-50.5	-66.0	3.6	1.51e+00	0	37	104	0	60	97380
2026-01-04 11:30:54.35	27.44	2.16	-50.5	-66.1	3.6	1.51e+00	0	37	104	0	60	97944
2026-01-04 11:30:57.38	27.79	2.27	-50.5	-66.1	3.6	1.51e+00	0	37	104	0	60	97852
2026-01-04 11:31:00.42	28.13	2.38	-50.5	-66.0	3.6	1.51e+00	0	37	104	0	60	96740
2026-01-04 11:31:03.45	28.49	2.49	-50.5	-66.0	3.6	1.51e+00	0	37	104	0	60	97407
2026-01-04 11:31:06.48	28.84	2.60	-50.5	-65.4	3.6	1.51e+00	0	37	104	0	60	90504
2026-01-04 11:31:09.51	29.19	2.70	-50.4	-65.4	3.6	1.51e+00	0	37	104	0	60	90294
2026-01-04 11:31:12.55	29.55	2.81	-47.4	-50.6	14.8	2.67e-05	0	37	0	2097152	60	16585
2026-01-04 11:31:15.58	29.91	2.91	-45.3	-47.4	17.5	0.00e+00	0	37	0	8388608	60	11407
2026-01-04 11:31:18.61	30.27	3.02	-46.5	-49.1	16.3	4.27e-05	0	37	0	13631488	60	13915
2026-01-04 11:31:21.65	30.64	3.12	-47.1	-49.9	16.0	4.33e-02	0	37	0	15728640	60	15181
2026-01-04 11:31:24.68	31.01	3.23	-46.1	-48.3	16.7	1.31e-02	0	37	104	17825792	60	12748
2026-01-04 11:31:27.71	31.38	3.33	-46.3	-48.5	16.6	0.00e+00	0	37	0	23068672	60	13044
2026-01-04 11:31:30.74	31.75	3.44	-47.0	-49.6	15.8	0.00e+00	0	37	0	28311552	60	14736
2026-01-04 11:31:33.78	32.13	3.54	-47.1	-49.8	15.8	0.00e+00	0	37	0	34603008	60	14983
2026-01-04 11:31:36.81	32.50	3.64	-46.2	-48.3	17.1	0.00e+00	0	37	0	39845888	60	12715
2026-01-04 11:31:39.84	32.88	3.74	-46.2	-48.3	16.8	0.00e+00	0	37	0	46137344	60	12657
2026-01-04 11:31:42.88	33.27	3.84	-46.6	-48.9	16.7	0.00e+00	0	37	0	51380224	60	13586
2026-01-04 11:31:45.91	33.65	3.94	-46.0	-48.1	17.2	0.00e+00	0	37	0	56623104	60	12395
2026-01-04 11:31:48.94	34.04	4.04	-45.9	-47.9	17.8	0.00e+00	0	37	0	62914560	60	12066
2026-01-04 11:31:51.97	34.43	4.14	-45.3	-47.2	18.3	0.00e+00	0	37	0	68157440	60	11120
2026-01-04 11:31:55.01	34.82	4.24	-45.2	-47.0	18.4	0.00e+00	0	37	0	74448896	60	10977
2026-01-04 11:31:58.04	35.22	4.33	-45.1	-46.8	18.7	0.00e+00	0	37	0	79691776	60	10715
2026-01-04 11:32:01.08	35.62	4.43	-45.1	-46.8	18.7	0.00e+00	0	37	0	85983232	60	10698
2026-01-04 11:32:04.11	36.02	4.53	-44.5	-46.0	19.5	0.00e+00	0	37	0	91226112	60	9735
2026-01-04 11:32:07.14	36.42	4.62	-45.0	-46.7	19.0	0.00e+00	0	37	0	96468992	60	10529
2026-01-04 11:32:10.17	36.83	4.72	-44.8	-46.5	18.9	0.00e+00	0	37	0	102760448	60	10262
2026-01-04 11:32:13.21	37.24	4.81	-45.3	-47.1	18.6	0.00e+00	0	37	0	108003328	60	11013
2026-01-04 11:32:16.24	37.65	4.90	-44.8	-46.5	19.1	0.00e+00	0	37	0	114294784	60	10262
2026-01-04 11:32:19.27	38.06	4.99	-44.7	-46.2	19.3	0.00e+00	0	37	0	119537664	60	9991
2026-01-04 11:32:22.31	38.48	5.08	-44.9	-46.5	18.7	0.00e+00	0	37	0	125829120	60	10342
2026-01-04 11:32:25.34	38.89	5.17	-44.8	-46.4	19.2	0.00e+00	0	37	0	131072000	60	10204
2026-01-04 11:32:28.37	39.31	5.26	-44.8	-46.4	19.1	0.00e+00	0	37	0	136314880	60	10237
2026-01-04 11:32:31.41	39.74	5.35	-44.7	-46.3	19.3	0.00e+00	0	37	0	142606336	60	10033
2026-01-04 11:32:34.44	40.16	5.44	-45.3	-47.0	18.7	0.00e+00	0	37	0	147849216	60	10970
2026-01-04 11:32:37.47	40.59	5.52	-45.2	-46.9	18.8	0.00e+00	0	37	0	154140672	60	10783
2026-01-04 11:32:40.51	41.02	5.61	-44.8	-46.4	19.2	0.00e+00	0	37	0	159383552	60	10204
2026-01-04 11:32:43.54	41.45	5.69	-44.9	-46.5	19.1	0.00e+00	0	37	0	164626432	60	10327
2026-01-04 11:32:46.57	41.89	5.77	-45.3	-47.1	18.7	0.00e+00	0	37	0	170917888	60	10988
2026-01-04 11:32:49.61	42.33	5.85	-45.7	-47.6	18.3	0.00e+00	0	37	0	176160768	60	11690
2026-01-04 11:32:52.64	42.77	5.93	-45.5	-47.3	18.6	0.00e+00	0	37	0	182452224	60	11245
2026-01-04 11:32:55.67	43.21	6.01	-45.3	-47.1	18.6	0.00e+00	0	37	0	187695104	60	10988
2026-01-04 11:32:58.71	43.65	6.09	-45.5	-47.3	18.5	0.00e+00	0	37	0	193986560	60	11236
2026-01-04 11:33:01.74	44.10	6.17	-45.2	-46.9	18.8	0.00e+00	0	37	0	199229440	60	10836
2026-01-04 11:33:04.77	44.55	6.24	-45.3	-47.0	18.7	0.00e+00	0	37	0	204472320	60	10862
2026-01-04 11:33:07.80	45.00	6.32	-45.0	-46.6	19.2	0.00e+00	0	37	0	210763776	60	10430
2026-01-04 11:33:10.84	45.45	6.39	-45.1	-46.7	18.9	0.00e+00	0	37	0	216006656	60	10565
2026-01-04 11:33:13.87	45.91	6.46	-45.8	-47.7	18.1	0.00e+00	0	37	0	222298112	60	11894
2026-01-04 11:33:16.90	46.37	6.53	-46.2	-48.2	17.8	0.00e+00	0	37	0	227540992	60	12479
2026-01-04 11:33:19.94	46.83	6.60	-46.1	-48.0	17.8	0.00e+00	0	37	0	233832448	60	12272
2026-01-04 11:33:22.97	47.29	6.67	-45.9	-47.7	18.2	0.00e+00	0	37	0	239075328	60	11881
2026-01-04 11:33:26.00	47.75	6.73	-46.0	-47.9	17.9	0.00e+00	0	37	0	244318208	60	12089
2026-01-04 11:33:29.04	48.22	6.80	-45.3	-46.9	18.9	0.00e+00	0	37	0	250609664	60	10849
2026-01-04 11:33:32.07	48.69	6.86	-45.0	-46.7	19.2	0.00e+00	0	37	0	255852544	60	10486
2026-01-04 11:33:35.10	49.16	6.92	-44.9	-46.5	19.4	0.00e+00	0	37	0	262144000	60	10298
2026-01-04 11:33:38.13	49.63	6.98	-45.5	-47.2	18.6	0.00e+00	0	37	0	267386880	60	11215
2026-01-04 11:33:41.17	50.11	7.04	-46.0	-48.0	17.9	0.00e+00	0	37	0	273678336	60	12219
2026-01-04 11:33:44.20	50.58	7.10	-45.7	-47.5	18.5	0.00e+00	0	37	0	278921216	60	11572
2026-01-04 11:33:47.23	51.06	7.16	-45.2	-46.9	19.0	0.00e+00	0	37	0	284164096	60	10759
2026-01-04 11:33:50.27	51.54	7.21	-44.9	-46.4	19.4	0.00e+00	0	37	0	290455552	60	10212
2026-01-04 11:33:53.30	52.02	7.26	-44.8	-46.4	19.5	0.00e+00	0	37	0	295698432	60	10176
2026-01-04 11:33:56.33	52.50	7.32	-44.5	-46.0	19.8	0.00e+00	0	37	0	301989888	60	9750
2026-01-04 11:33:59.37	52.99	7.36	-44.5	-45.9	19.7	0.00e+00	0	37	0	307232768	60	9620
2026-01-04 11:34:02.40	53.47	7.41	-44.6	-46.2	19.9	0.00e+00	0	37	0	313524224	60	9904
2026-01-04 11:34:05.43	53.96	7.46	-44.5	-46.0	19.8	0.00e+00	0	37	0	318767104	60	9733
2026-01-04 11:34:08.47	54.45	7.50	-44.2	-45.6	20.2	0.00e+00	0	37	0	324009984	60	9243
2026-01-04 11:34:11.50	54.94	7.55	-44.7	-46.2	19.6	0.00e+00	0	37	0	330301440	60	9942
2026-01-04 11:34:14.53	55.43	7.59	-45.1	-46.7	19.2	0.00e+00	0	37	0	335544320	60	10571
2026-01-04 11:34:17.57	55.93	7.63	-45.2	-46.9	19.1	0.00e+00	0	37	0	341835776	60	10779
2026-01-04 11:34:20.60	56.42	7.66	-45.2	-46.8	19.1	0.00e+00	0	37	0	347078656	60	10694
2026-01-04 11:34:23.63	56.91	7.70	-45.3	-47.0	18.9	0.00e+00	0	37	0	352321536	60	10976
2026-01-04 11:34:26.67	57.41	7.73	-45.5	-47.2	18.6	0.00e+00	0	37	0	358612992	60	11204
2026-01-04 11:34:29.70	57.91	7.77	-45.3	-47.0	18.9	0.00e+00	0	37	0	363855872	60	10976
2026-01-04 11:34:32.73	58.41	7.80	-45.8	-47.6	18.3	0.00e+00	0	37	0	370147328	60	11711
2026-01-04 11:34:35.77	58.91	7.83	-46.4	-48.5	17.4	0.00e+00	0	37	0	375390208	60	13033
2026-01-04 11:34:38.80	59.41	7.85	-46.1	-48.1	18.0	0.00e+00	0	37	0	381681664	60	12373
2026-01-04 11:34:41.83	59.91	7.88	-45.9	-47.7	18.4	0.00e+00	0	37	0	386924544	60	11841
2026-01-04 11:34:44.87	60.42	7.90	-46.1	-48.1	17.9	0.00e+00	0	37	0	392167424	60	12325
2026-01-04 11:34:47.90	60.92	7.92	-45.8	-47.7	18.3	0.00e+00	0	37	0	398458880	60	11807
2026-01-04 11:34:50.93	61.42	7.94	-45.7	-47.5	18.5	0.00e+00	0	37	0	403701760	60	11551
2026-01-04 11:34:53.97	61.93	7.96	-45.3	-47.0	18.8	0.00e+00	0	37	0	409993216	60	10940
2026-01-04 11:34:57.00	62.43	7.98	-45.3	-47.0	18.9	0.00e+00	0	37	0	415236096	60	10916
2026-01-04 11:35:00.03	62.94	7.99	-45.6	-47.3	18.6	0.00e+00	0	37	0	421527552	60	11343
2026-01-04 11:35:03.06	63.45	8.00	-45.1	-46.7	19.2	0.00e+00	0	37	0	426770432	60	10592
2026-01-04 11:35:06.10	63.95	8.01	-44.7	-46.2	19.7	0.00e+00	0	37	0	432013312	60	9938
2026-01-04 11:35:09.13	64.46	8.02	-44.7	-46.3	19.6	0.00e+00	0	37	0	438304768	60	10016
2026-01-04 11:35:12.16	64.97	8.03	-44.8	-46.3	19.7	0.00e+00	0	37	0	443547648	60	10065
2026-01-04 11:35:15.20	65.48	8.03	-44.3	-45.7	20.1	0.00e+00	0	37	0	449839104	60	9448
2026-01-04 11:35:18.23	65.98	8.03	-44.2	-45.7	20.1	0.00e+00	0	37	0	455081984	60	9383
2026-01-04 11:35:21.26	66.49	8.03	-44.7	-46.2	19.6	0.00e+00	0	37	0	461373440	60	9992
2026-01-04 11:35:24.30	67.00	8.03	-44.8	-46.4	19.6	0.00e+00	0	37	0	466616320	60	10130
2026-01-04 11:35:27.33	67.51	8.03	-44.0	-45.3	20.4	0.00e+00	0	37	0	471859200	60	8989
2026-01-04 11:35:30.36	68.01	8.02	-44.1	-45.5	20.2	0.00e+00	0	37	0	478150656	60	9175
2026-01-04 11:35:33.39	68.52	8.02	-44.5	-46.0	19.8	0.00e+00	0	37	0	483393536	60	9696
2026-01-04 11:35:36.43	69.03	8.01	-44.3	-45.7	20.0	0.00e+00	0	37	0	489684992	60	9434
2026-01-04 11:35:39.46	69.54	8.00	-44.2	-45.6	20.0	0.00e+00	0	37	0	494927872	60	9315
2026-01-04 11:35:42.49	70.04	7.98	-44.1	-45.6	20.2	0.00e+00	0	37	0	500170752	60	9259
2026-01-04 11:35:45.52	70.55	7.97	-43.9	-45.3	20.4	0.00e+00	0	37	0	506462208	60	9013
2026-01-04 11:35:48.55	71.05	7.95	-43.4	-44.7	20.9	0.00e+00	0	37	0	511705088	60	8401
2026-01-04 11:35:51.59	71.56	7.93	-43.0	-44.2	21.4	0.00e+00	0	37	0	517996544	60	7863
2026-01-04 11:35:54.62	72.06	7.91	-42.8	-43.9	21.6	0.00e+00	0	37	0	523239424	60	7657
2026-01-04 11:35:57.65	72.56	7.89	-43.0	-44.2	21.4	0.00e+00	0	37	0	529530880	60	7910
2026-01-04 11:36:00.68	73.07	7.86	-43.3	-44.6	21.0	0.00e+00	0	37	0	534773760	60	8234
2026-01-04 11:36:03.72	73.57	7.84	-43.4	-44.7	20.9	0.00e+00	0	37	0	540016640	60	8377
2026-01-04 11:36:06.75	74.07	7.81	-43.5	-44.8	20.8	0.00e+00	0	37	0	546308096	60	8472
2026-01-04 11:36:09.78	74.57	7.78	-43.8	-45.2	20.5	0.00e+00	0	37	0	551550976	60	8858
2026-01-04 11:36:12.82	75.07	7.75	-43.4	-44.6	21.0	0.00e+00	0	37	0	557842432	60	8328
2026-01-04 11:36:15.85	75.57	7.72	-43.2	-44.4	21.2	0.00e+00	0	37	0	563085312	60	8105
2026-01-04 11:36:18.89	76.07	7.68	-43.3	-44.6	20.9	0.00e+00	0	37	0	569376768	60	8265
2026-01-04 11:36:21.92	76.56	7.64	-43.6	-45.0	20.5	0.00e+00	0	37	0	574619648	60	8641
2026-01-04 11:36:24.95	77.06	7.61	-44.1	-45.5	20.1	0.00e+00	0	37	0	579862528	60	9224
2026-01-04 11:36:27.98	77.55	7.57	-44.7	-46.2	19.7	0.00e+00	0	37	0	586153984	60	9947
2026-01-04 11:36:31.02	78.04	7.52	-44.5	-46.0	19.7	0.00e+00	0	37	0	591396864	60	9699
2026-01-04 11:36:34.05	78.53	7.48	-44.1	-45.5	20.2	0.00e+00	0	37	0	597688320	60	9167
2026-01-04 11:36:37.08	79.02	7.43	-43.6	-44.9	20.8	0.00e+00	0	37	0	602931200	60	8569
2026-01-04 11:36:40.12	79.51	7.39	-42.6	-43.8	21.7	0.00e+00	0	37	0	609222656	60	7543
2026-01-04 11:36:43.15	80.00	7.34	-42.3	-43.4	22.0	0.00e+00	0	37	0	614465536	60	7194
2026-01-04 11:36:46.18	80.48	7.29	-42.7	-43.9	21.6	0.00e+00	0	37	0	619708416	60	7667
2026-01-04 11:36:49.21	80.96	7.23	-42.9	-44.1	21.4	0.00e+00	0	37	0	625999872	60	7833
2026-01-04 11:36:52.25	81.45	7.18	-42.6	-43.7	21.7	0.00e+00	0	37	0	631242752	60	7483
2026-01-04 11:36:55.28	81.93	7.13	-42.4	-43.6	21.8	0.00e+00	0	37	0	637534208	60	7372
2026-01-04 11:36:58.31	82.40	7.07	-42.8	-44.0	21.5	0.00e+00	0	37	0	642777088	60	7756
2026-01-04 11:37:01.35	82.88	7.01	-43.1	-44.3	21.3	0.00e+00	0	37	0	648019968	60	8002
2026-01-04 11:37:04.38	83.35	6.95	-42.9	-44.1	21.4	0.00e+00	0	37	0	654311424	60	7835
2026-01-04 11:37:07.41	83.83	6.89	-42.8	-44.0	21.5	0.00e+00	0	37	0	659554304	60	7771
2026-01-04 11:37:10.44	84.30	6.83	-42.2	-43.3	22.2	0.00e+00	0	37	0	665845760	60	7146
2026-01-04 11:37:13.48	84.76	6.76	-42.2	-43.3	22.1	0.00e+00	0	37	0	671088640	60	7109
2026-01-04 11:37:16.51	85.23	6.69	-42.9	-44.1	21.3	0.00e+00	0	37	0	677380096	60	7785
2026-01-04 11:37:19.54	85.69	6.63	-43.2	-44.4	21.2	0.00e+00	0	37	0	682622976	60	8087
2026-01-04 11:37:22.58	86.16	6.56	-42.9	-44.1	21.2	0.00e+00	0	37	0	687865856	60	7802
2026-01-04 11:37:25.61	86.62	6.49	-43.0	-44.3	21.2	0.00e+00	0	37	0	694157312	60	7981
2026-01-04 11:37:28.64	87.08	6.42	-43.3	-44.6	20.8	0.00e+00	0	37	0	699400192	60	8313
2026-01-04 11:37:31.68	87.53	6.34	-43.6	-44.9	20.8	0.00e+00	0	37	0	705691648	60	8568
2026-01-04 11:37:34.71	87.99	6.27	-44.4	-45.8	19.8	0.00e+00	0	37	0	710934528	60	9560
2026-01-04 11:37:37.74	88.44	6.19	-44.8	-46.4	19.2	0.00e+00	0	37	0	717225984	60	10243
2026-01-04 11:37:40.78	88.89	6.12	-44.6	-46.2	19.5	0.00e+00	0	37	0	722468864	60	9907
2026-01-04 11:37:43.81	89.33	6.04	-44.8	-46.4	19.1	0.00e+00	0	37	0	727711744	60	10200
2026-01-04 11:37:46.84	89.78	5.96	-44.9	-46.6	19.2	0.00e+00	0	37	0	734003200	60	10409
2026-01-04 11:37:49.87	90.22	5.88	-44.7	-46.3	19.4	0.00e+00	0	37	0	739246080	60	10015
2026-01-04 11:37:52.91	90.66	5.80	-44.5	-46.0	19.4	0.00e+00	0	37	0	745537536	60	9772
2026-01-04 11:37:55.94	91.10	5.72	-44.6	-46.2	19.4	0.00e+00	0	37	0	750780416	60	9937
2026-01-04 11:37:58.97	91.53	5.63	-45.2	-47.0	18.7	0.00e+00	0	37	0	757071872	60	10895
2026-01-04 11:38:02.01	91.97	5.55	-45.2	-46.9	18.7	0.00e+00	0	37	0	762314752	60	10789
2026-01-04 11:38:05.04	92.40	5.46	-45.6	-47.5	18.1	0.00e+00	0	37	0	767557632	60	11590
2026-01-04 11:38:08.07	92.82	5.38	-46.3	-48.4	17.3	0.00e+00	0	37	0	773849088	60	12889
2026-01-04 11:38:11.11	93.25	5.29	-46.6	-48.9	16.8	0.00e+00	0	37	0	779091968	60	13542
2026-01-04 11:38:14.14	93.67	5.20	-46.5	-48.9	16.9	0.00e+00	0	37	0	785383424	60	13534
2026-01-04 11:38:17.17	94.09	5.11	-45.8	-47.9	17.7	0.00e+00	0	37	0	790626304	60	12060
2026-01-04 11:38:20.21	94.51	5.02	-45.7	-47.6	18.0	0.00e+00	0	37	0	796917760	60	11705
2026-01-04 11:38:23.24	94.93	4.93	-45.9	-47.9	17.8	0.00e+00	0	37	0	802160640	60	12047
2026-01-04 11:38:26.27	95.34	4.83	-45.9	-48.0	17.7	0.00e+00	0	37	0	807403520	60	12252
2026-01-04 11:38:29.31	95.75	4.74	-46.2	-48.5	17.2	0.00e+00	0	37	0	813694976	60	12933
2026-01-04 11:38:32.34	96.16	4.65	-46.0	-48.1	17.5	0.00e+00	0	37	0	818937856	60	12341
2026-01-04 11:38:35.37	96.57	4.55	-46.2	-48.3	17.3	0.00e+00	0	37	0	825229312	60	12688
2026-01-04 11:38:38.41	96.97	4.45	-45.6	-47.6	17.9	0.00e+00	0	37	0	830472192	60	11745
2026-01-04 11:38:41.44	97.37	4.36	-45.0	-46.7	18.6	0.00e+00	0	37	0	835715072	60	10574
2026-01-04 11:38:44.47	97.77	4.26	-45.3	-47.1	18.3	0.00e+00	0	37	0	842006528	60	11018
2026-01-04 11:38:47.51	98.16	4.16	-45.8	-47.8	17.7	0.00e+00	0	37	0	847249408	60	12010
2026-01-04 11:38:50.54	98.56	4.06	-45.9	-48.2	17.3	0.00e+00	0	37	0	853540864	60	12480
2026-01-04 11:38:53.57	98.95	3.96	-45.7	-47.8	17.7	0.00e+00	0	37	0	858783744	60	11930
2026-01-04 11:38:56.61	99.34	3.86	-45.1	-46.9	18.4	0.00e+00	0	37	0	865075200	60	10778
2026-01-04 11:38:59.64	99.72	3.76	-44.5	-46.2	19.0	0.00e+00	0	37	0	870318080	60	9947
2026-01-04 11:39:02.67	100.10	3.66	-44.7	-46.4	18.6	0.00e+00	0	37	0	875560960	60	10180
2026-01-04 11:39:05.71	100.48	3.56	-44.8	-46.6	18.6	0.00e+00	0	37	0	881852416	60	10461
2026-01-04 11:39:08.74	100.86	3.45	-44.9	-47.1	18.1	0.00e+00	0	37	0	887095296	60	10988
2026-01-04 11:39:11.77	101.24	3.35	-44.5	-47.2	17.8	0.00e+00	0	37	0	893386752	60	11172
2026-01-04 11:39:14.81	101.61	3.24	-45.4	-47.5	17.6	0.00e+00	0	37	0	898629632	60	11597
2026-01-04 11:39:17.84	101.98	3.14	-45.4	-47.5	17.6	0.00e+00	0	37	0	904921088	60	11542
2026-01-04 11:39:20.87	102.35	3.03	-51.5	-67.0	3.6	1.06e+00	0	37	104	909115392	60	108568
2026-01-04 11:39:23.90	102.71	2.93	-52.3	-67.8	3.6	1.51e+00	0	37	104	909115392	60	119697
2026-01-04 11:39:26.94	103.07	2.82	-52.4	-67.9	3.6	1.51e+00	0	37	104	909115392	60	121251
2026-01-04 11:39:29.97	103.43	2.71	-52.5	-68.0	3.6	1.51e+00	0	37	104	909115392	60	122033
2026-01-04 11:39:33.01	103.79	2.61	-52.5	-68.0	3.6	1.51e+00	0	38	104	909115392	60	122027
2026-01-04 11:39:36.04	104.15	2.50	-52.5	-68.0	3.6	1.51e+00	0	38	104	909115392	60	122591
2026-01-04 11:39:39.07	104.50	2.39	-52.8	-68.3	3.6	1.51e+00	0	38	104	909115392	60	126793
2026-01-04 11:39:42.11	104.85	2.28	-52.7	-68.1	3.6	1.51e+00	0	37	104	909115392	60	124517
2026-01-04 11:39:45.14	105.20	2.17	-52.6	-68.1	3.6	1.51e+00	0	38	104	909115392	60	123831
2026-01-04 11:39:48.17	105.54	2.06	-52.8	-68.2	3.6	1.51e+00	0	38	104	909115392	60	125930
2026-01-04 11:39:51.20	105.88	1.95	-53.1	-68.5	3.6	1.51e+00	0	37	104	909115392	60	130389
2026-01-04 11:39:54.23	106.22	1.84	-53.0	-68.4	3.6	1.51e+00	0	37	104	909115392	60	128896
2026-01-04 11:39:57.27	106.56	1.73	-52.9	-68.4	3.6	1.51e+00	0	38	104	909115392	60	128245
2026-01-04 11:40:00.30	106.90	1.62	-52.7	-68.2	3.6	1.51e+00	0	38	104	909115392	60	125583
2026-01-04 11:40:03.33	107.23	1.51	-53.0	-68.4	3.5	1.51e+00	0	38	104	909115392	60	128890
2026-01-04 11:40:06.36	107.56	1.40	-53.3	-68.8	3.6	1.51e+00	0	38	104	909115392	60	134967
2026-01-04 11:40:09.40	107.89	1.28	-53.0	-68.5	3.6	1.51e+00	0	38	104	909115392	60	129108
2026-01-04 11:40:12.43	108.21	1.17	-53.4	-68.9	3.6	1.51e+00	0	38	104	909115392	60	135622
2026-01-04 11:40:15.46	108.54	1.06	-53.1	-68.6	3.5	1.51e+00	0	37	104	909115392	60	130657
2026-01-04 11:40:18.49	108.86	0.95	-53.3	-68.8	3.6	1.51e+00	0	38	104	909115392	60	134690
2026-01-04 11:40:21.53	109.18	0.83	-53.3	-68.8	3.6	1.51e+00	0	37	104	909115392	60	133797
2026-01-04 11:40:24.56	109.49	0.72	-53.3	-68.8	3.6	1.51e+00	0	38	104	909115392	60	133795
2026-01-04 11:40:27.59	109.81	0.61	-53.4	-68.8	3.6	1.51e+00	0	38	104	909115392	60	134512
2026-01-04 11:40:30.63	110.12	0.49	-53.5	-69.0	3.5	1.51e+00	0	38	104	909115392	60	137988
2026-01-04 11:40:33.66	110.43	0.38	-53.5	-68.9	3.6	1.51e+00	0	38	104	909115392	60	136558
2026-01-04 11:40:36.69	110.74	0.26	-53.9	-69.4	3.6	1.51e+00	0	38	104	909115392	60	143084
2026-01-04 11:40:39.72	111.04	0.15	-53.6	-69.1	3.6	1.51e+00	0	38	104	909115392	60	138359
2026-01-04 11:40:42.76	111.35	0.03	-53.4	-68.8	3.6	1.51e+00	0	37	104	909115392	60	134401
2026-01-04 11:40:45.79	111.65	-0.08	-53.3	-68.8	3.6	1.51e+00	0	37	104	909115392	60	133940

#Closed at: 2026-01-04 11:40:46
#Recorded file [909 MB]: D:/lorett/data/35034_260104_142956.dat