passes_logs/2026/01/04/R4.6S_Anadyr_2ch/R4.6S_Anadyr_2ch__20260104_131007_SUOMI_NPP_rec.log

#Pass ID: 20260104_131007_SUOMI NPP
#Satellite: SUOMI NPP
#Configuration: NPP
#almurnet v.1.7.20251203
#Start time: 2026-01-04 13:10:09

#Version: 2.2.20231116
#Station: R4.6S_Anadyr_2ch
#Location: 177.4865 lon 64.73178 lat
#TLE: 1 37849U 11061A   25350.92281687  .00000071  00000+0  54882-4 0  9996
#TLE: 2 37849  98.7777 288.2268 0002366 112.8570 247.2856 14.19515404732588

#Time	Az	El	Level	Level2	SNR	BER	BlckErr	Temp	State	Recorded	gain1	gain2
2026-01-04 13:10:09.75	18.85	0.11	-52.7	-65.6	3.4	1.51e+00	0	34	0	0	60	90145
2026-01-04 13:10:13.79	19.07	0.33	-52.6	-68.1	3.6	1.51e+00	0	36	104	0	60	123937
2026-01-04 13:10:17.83	19.28	0.55	-52.2	-67.8	3.6	1.51e+00	0	36	104	0	60	119526
2026-01-04 13:10:21.87	19.50	0.78	-51.7	-67.3	3.6	1.51e+00	0	36	104	0	60	112434
2026-01-04 13:10:25.91	19.73	1.00	-50.7	-66.2	3.6	1.51e+00	0	36	104	0	60	99296
2026-01-04 13:10:29.95	19.95	1.23	-50.7	-66.2	3.6	1.51e+00	0	36	104	0	60	99983
2026-01-04 13:10:34.00	20.19	1.46	-50.7	-66.2	3.6	1.51e+00	0	36	104	0	60	99939
2026-01-04 13:10:38.04	20.42	1.68	-50.7	-66.1	3.6	1.51e+00	0	36	104	0	60	98667
2026-01-04 13:10:42.09	20.66	1.92	-50.7	-66.2	3.6	1.51e+00	0	36	104	0	60	99717
2026-01-04 13:10:46.13	20.90	2.15	-50.7	-66.2	3.6	1.51e+00	0	36	104	0	60	99434
2026-01-04 13:10:50.17	21.14	2.38	-50.7	-65.4	3.6	1.51e+00	0	36	104	0	60	91105
2026-01-04 13:10:54.22	21.39	2.62	-50.2	-59.3	5.9	8.39e-01	0	36	104	0	60	45049
2026-01-04 13:10:58.26	21.64	2.85	-46.5	-49.0	16.5	7.00e-07	0	36	0	6291456	60	13682
2026-01-04 13:11:02.31	21.89	3.09	-45.9	-48.1	16.9	0.00e+00	0	36	0	13631488	60	12359
2026-01-04 13:11:06.35	22.15	3.33	-46.0	-48.2	16.7	0.00e+00	0	36	0	22020096	60	12543
2026-01-04 13:11:10.39	22.42	3.57	-50.8	-65.5	3.6	1.18e+00	0	36	104	26214400	60	91540
2026-01-04 13:11:14.44	22.68	3.82	-45.5	-47.5	17.9	0.00e+00	0	36	0	30408704	60	11551
2026-01-04 13:11:18.48	22.95	4.06	-45.9	-48.0	17.0	0.00e+00	0	36	0	37748736	60	12242
2026-01-04 13:11:22.53	23.23	4.31	-45.4	-47.3	18.2	0.00e+00	0	36	0	46137344	60	11255
2026-01-04 13:11:26.57	23.51	4.56	-44.8	-46.4	19.0	0.00e+00	0	37	0	53477376	60	10231
2026-01-04 13:11:30.62	23.79	4.81	-44.0	-45.4	20.0	0.00e+00	0	37	0	60817408	60	9125
2026-01-04 13:11:34.66	24.08	5.06	-44.2	-45.7	19.9	0.00e+00	0	37	0	68157440	60	9403
2026-01-04 13:11:38.70	24.37	5.32	-43.5	-44.8	20.5	0.00e+00	0	37	0	75497472	60	8479
2026-01-04 13:11:42.75	24.67	5.57	-43.2	-44.5	21.0	0.00e+00	0	37	0	83886080	60	8184
2026-01-04 13:11:46.79	24.97	5.83	-43.4	-44.7	20.8	0.00e+00	0	37	0	91226112	60	8391
2026-01-04 13:11:50.84	25.28	6.09	-43.4	-44.7	20.9	0.00e+00	0	37	0	98566144	60	8358
2026-01-04 13:11:54.88	25.60	6.35	-43.2	-44.4	21.0	0.00e+00	0	37	0	105906176	60	8089
2026-01-04 13:11:58.93	25.92	6.62	-43.4	-44.7	21.0	0.00e+00	0	37	0	114294784	60	8404
2026-01-04 13:12:02.97	26.24	6.89	-43.2	-44.5	21.1	0.00e+00	0	37	0	121634816	60	8187
2026-01-04 13:12:07.02	26.57	7.15	-43.3	-44.6	21.1	0.00e+00	0	37	0	128974848	60	8264
2026-01-04 13:12:11.06	26.90	7.42	-43.4	-44.7	21.0	0.00e+00	0	37	0	136314880	60	8380
2026-01-04 13:12:15.10	27.25	7.70	-43.0	-44.2	21.4	0.00e+00	0	37	0	143654912	60	7886
2026-01-04 13:12:19.15	27.59	7.97	-42.9	-44.0	21.6	0.00e+00	0	37	0	152043520	60	7755
2026-01-04 13:12:23.19	27.95	8.25	-42.7	-43.9	21.7	0.00e+00	0	37	0	159383552	60	7614
2026-01-04 13:12:27.24	28.31	8.53	-42.7	-43.9	21.7	0.00e+00	0	37	0	166723584	60	7638
2026-01-04 13:12:31.28	28.68	8.81	-42.7	-43.9	21.6	0.00e+00	0	37	0	174063616	60	7596
2026-01-04 13:12:35.32	29.05	9.09	-42.9	-44.1	21.7	0.00e+00	0	37	0	182452224	60	7832
2026-01-04 13:12:39.37	29.43	9.38	-43.0	-44.2	21.4	0.00e+00	0	37	0	189792256	60	7910
2026-01-04 13:12:43.41	29.82	9.66	-42.5	-43.5	22.1	0.00e+00	0	37	0	197132288	60	7336
2026-01-04 13:12:47.45	30.21	9.95	-42.0	-43.1	22.4	0.00e+00	0	37	0	204472320	60	6951
2026-01-04 13:12:51.50	30.62	10.25	-42.1	-43.2	22.3	0.00e+00	0	37	0	212860928	60	7034
2026-01-04 13:12:55.54	31.03	10.54	-42.8	-43.9	21.9	0.00e+00	0	37	0	220200960	60	7647
2026-01-04 13:12:59.59	31.44	10.84	-43.3	-44.5	21.3	0.00e+00	0	37	0	227540992	60	8196
2026-01-04 13:13:03.63	31.87	11.14	-43.1	-44.3	21.5	0.00e+00	0	37	0	234881024	60	8024
2026-01-04 13:13:07.67	32.31	11.44	-43.1	-44.3	21.4	0.00e+00	0	37	0	243269632	60	8016
2026-01-04 13:13:11.72	32.75	11.74	-42.6	-43.8	21.9	0.00e+00	0	37	0	250609664	60	7512
2026-01-04 13:13:15.76	33.20	12.05	-42.3	-43.4	22.3	0.00e+00	0	37	0	257949696	60	7234
2026-01-04 13:13:19.81	33.66	12.36	-42.2	-43.2	22.4	0.00e+00	0	37	0	265289728	60	7053
2026-01-04 13:13:23.85	34.13	12.67	-42.0	-43.1	22.5	0.00e+00	0	37	0	272629760	60	6947
2026-01-04 13:13:27.89	34.62	12.98	-42.2	-43.3	22.4	0.00e+00	0	37	0	281018368	60	7140
2026-01-04 13:13:31.94	35.11	13.29	-42.1	-43.1	22.6	0.00e+00	0	37	0	288358400	60	6972
2026-01-04 13:13:35.98	35.61	13.61	-41.9	-42.9	22.7	0.00e+00	0	37	0	295698432	60	6819
2026-01-04 13:13:40.02	36.12	13.93	-42.1	-43.2	22.4	0.00e+00	0	37	0	303038464	60	7044
2026-01-04 13:13:44.07	36.64	14.25	-42.7	-43.8	21.7	0.00e+00	0	37	0	311427072	60	7566
2026-01-04 13:13:48.11	37.17	14.58	-42.9	-44.1	21.7	0.00e+00	0	37	0	318767104	60	7780
2026-01-04 13:13:52.15	37.72	14.90	-42.6	-43.7	22.0	0.00e+00	0	37	0	326107136	60	7467
2026-01-04 13:13:56.20	38.27	15.23	-42.3	-43.4	22.3	0.00e+00	0	37	0	333447168	60	7180
2026-01-04 13:14:00.24	38.84	15.56	-42.1	-43.1	22.5	0.00e+00	0	37	0	340787200	60	6982
2026-01-04 13:14:04.29	39.42	15.89	-41.7	-42.7	22.9	0.00e+00	0	37	0	349175808	60	6626
2026-01-04 13:14:08.33	40.01	16.22	-41.7	-42.7	22.8	0.00e+00	0	37	0	356515840	60	6681
2026-01-04 13:14:12.38	40.62	16.56	-41.7	-42.7	22.9	0.00e+00	0	37	0	363855872	60	6631
2026-01-04 13:14:16.42	41.24	16.90	-41.2	-42.2	23.3	0.00e+00	0	37	0	371195904	60	6247
2026-01-04 13:14:20.47	41.87	17.23	-41.4	-42.4	23.1	0.00e+00	0	37	0	379584512	60	6403
2026-01-04 13:14:24.51	42.52	17.57	-41.4	-42.3	23.2	0.00e+00	0	37	0	386924544	60	6373
2026-01-04 13:14:28.55	43.18	17.91	-41.2	-42.1	23.2	0.00e+00	0	37	0	394264576	60	6222
2026-01-04 13:14:32.60	43.86	18.26	-41.1	-42.1	23.4	0.00e+00	0	37	0	401604608	60	6191
2026-01-04 13:14:36.64	44.55	18.60	-40.5	-41.4	23.9	0.00e+00	0	37	0	409993216	60	5709
2026-01-04 13:14:40.69	45.25	18.94	-40.7	-41.6	23.9	0.00e+00	0	37	0	417333248	60	5832
2026-01-04 13:14:44.73	45.97	19.29	-41.0	-42.0	23.6	0.00e+00	0	37	0	424673280	60	6136
2026-01-04 13:14:48.78	46.71	19.63	-41.1	-42.1	23.4	0.00e+00	0	37	0	432013312	60	6199
2026-01-04 13:14:52.82	47.47	19.98	-40.8	-41.7	23.8	0.00e+00	0	37	0	440401920	60	5904
2026-01-04 13:14:56.86	48.24	20.32	-41.1	-42.1	23.4	0.00e+00	0	37	0	447741952	60	6204
2026-01-04 13:15:00.91	49.02	20.66	-40.5	-41.4	23.9	0.00e+00	0	37	0	455081984	60	5741
2026-01-04 13:15:04.95	49.83	21.01	-41.0	-41.9	23.4	0.00e+00	0	37	0	462422016	60	6088
2026-01-04 13:15:09.00	50.65	21.35	-40.5	-41.4	24.1	0.00e+00	0	37	0	469762048	60	5716
2026-01-04 13:15:13.04	51.49	21.69	-40.8	-41.7	23.9	0.00e+00	0	37	0	478150656	60	5910
2026-01-04 13:15:17.09	52.35	22.03	-40.6	-41.5	23.9	0.00e+00	0	37	0	485490688	60	5769
2026-01-04 13:15:21.13	53.23	22.37	-40.7	-41.6	23.8	0.00e+00	0	37	0	492830720	60	5862
2026-01-04 13:15:25.17	54.12	22.70	-40.9	-41.9	23.6	0.00e+00	0	37	0	500170752	60	6044
2026-01-04 13:15:29.21	55.04	23.03	-40.8	-41.7	23.8	0.00e+00	0	37	0	508559360	60	5908
2026-01-04 13:15:33.26	55.97	23.36	-40.8	-41.7	23.6	0.00e+00	0	37	0	515899392	60	5915
2026-01-04 13:15:37.30	56.92	23.69	-41.3	-42.3	23.3	0.00e+00	0	37	0	523239424	60	6319
2026-01-04 13:15:41.35	57.90	24.01	-41.3	-42.2	23.5	0.00e+00	0	37	0	530579456	60	6303
2026-01-04 13:15:45.39	58.89	24.32	-40.8	-41.7	23.6	0.00e+00	0	37	0	538968064	60	5963
2026-01-04 13:15:49.44	59.90	24.64	-40.7	-41.6	23.9	0.00e+00	0	37	0	546308096	60	5842
2026-01-04 13:15:53.48	60.93	24.94	-41.5	-42.5	23.2	0.00e+00	0	37	0	553648128	60	6496
2026-01-04 13:15:57.53	61.99	25.24	-40.7	-41.6	23.7	0.00e+00	0	37	0	560988160	60	5885
2026-01-04 13:16:01.57	63.06	25.53	-42.2	-43.3	22.5	0.00e+00	0	37	0	568328192	60	7093
2026-01-04 13:16:05.61	64.15	25.82	-41.6	-42.5	23.1	0.00e+00	0	37	0	576716800	60	6524
2026-01-04 13:16:09.66	65.26	26.09	-41.9	-43.0	22.8	0.00e+00	0	37	0	584056832	60	6853
2026-01-04 13:16:13.70	66.39	26.36	-42.3	-43.4	22.6	0.00e+00	0	37	0	591396864	60	7198
2026-01-04 13:16:17.75	67.53	26.62	-42.1	-43.1	22.8	0.00e+00	0	37	0	598736896	60	6996
2026-01-04 13:16:21.79	68.70	26.87	-41.9	-42.9	22.7	0.00e+00	0	37	0	607125504	60	6842
2026-01-04 13:16:25.83	69.88	27.11	-43.0	-44.2	21.8	0.00e+00	0	37	0	614465536	60	7906
2026-01-04 13:16:29.88	71.08	27.34	-41.3	-42.3	23.3	0.00e+00	0	37	0	621805568	60	6327
2026-01-04 13:16:33.92	72.30	27.55	-43.2	-44.4	21.8	0.00e+00	0	37	0	629145600	60	8086
2026-01-04 13:16:37.97	73.53	27.76	-44.0	-45.3	20.7	0.00e+00	0	37	0	637534208	60	8945
2026-01-04 13:16:42.01	74.78	27.95	-44.6	-46.0	20.3	0.00e+00	0	37	0	644874240	60	9772
2026-01-04 13:16:46.05	76.04	28.13	-45.0	-46.5	19.7	0.00e+00	0	37	0	652214272	60	10356
2026-01-04 13:16:50.10	77.32	28.29	-44.1	-45.4	20.9	0.00e+00	0	37	0	659554304	60	9049
2026-01-04 13:16:54.14	78.60	28.44	-45.0	-46.5	19.8	0.00e+00	0	37	0	666894336	60	10305
2026-01-04 13:16:58.19	79.90	28.58	-43.8	-45.0	21.1	0.00e+00	0	37	0	675282944	60	8714
2026-01-04 13:17:02.23	81.21	28.69	-42.4	-43.5	22.2	0.00e+00	0	37	0	682622976	60	7287
2026-01-04 13:17:06.27	82.53	28.80	-42.6	-43.7	22.2	0.00e+00	0	37	0	689963008	60	7433
2026-01-04 13:17:10.32	83.86	28.89	-42.7	-43.8	22.0	0.00e+00	0	37	0	697303040	60	7557
2026-01-04 13:17:14.36	85.19	28.96	-42.6	-43.7	22.1	0.00e+00	0	37	0	705691648	60	7463
2026-01-04 13:17:18.40	86.53	29.02	-42.4	-43.5	22.2	0.00e+00	0	37	0	713031680	60	7280
2026-01-04 13:17:22.45	87.87	29.05	-42.3	-43.3	22.6	0.00e+00	0	37	0	720371712	60	7163
2026-01-04 13:17:26.49	89.22	29.08	-42.9	-44.1	21.7	0.00e+00	0	37	0	727711744	60	7805
2026-01-04 13:17:30.54	90.57	29.08	-43.4	-44.6	21.5	0.00e+00	0	37	0	736100352	60	8325
2026-01-04 13:17:34.58	91.91	29.07	-42.7	-43.8	22.1	0.00e+00	0	37	0	743440384	60	7531
2026-01-04 13:17:38.63	93.26	29.04	-42.3	-43.4	22.3	0.00e+00	0	37	0	750780416	60	7199
2026-01-04 13:17:42.67	94.60	29.00	-43.8	-45.1	20.9	0.00e+00	0	37	0	758120448	60	8746
2026-01-04 13:17:46.71	95.94	28.94	-43.7	-45.0	21.0	0.00e+00	0	37	0	765460480	60	8649
2026-01-04 13:17:50.76	97.27	28.86	-44.4	-45.8	20.2	0.00e+00	0	37	0	773849088	60	9531
2026-01-04 13:17:54.81	98.60	28.76	-45.9	-47.7	18.7	0.00e+00	0	37	0	781189120	60	11807
2026-01-04 13:17:58.85	99.91	28.65	-45.0	-46.5	19.6	0.00e+00	0	37	0	788529152	60	10340
2026-01-04 13:18:02.89	101.22	28.53	-43.2	-44.4	21.6	0.00e+00	0	37	0	795869184	60	8069
2026-01-04 13:18:06.93	102.51	28.39	-43.9	-45.2	20.7	0.00e+00	0	37	0	804257792	60	8916
2026-01-04 13:18:10.98	103.80	28.23	-43.3	-44.6	21.4	0.00e+00	0	37	0	811597824	60	8238
2026-01-04 13:18:15.02	105.07	28.06	-42.1	-43.2	22.4	0.00e+00	0	37	0	818937856	60	7038
2026-01-04 13:18:19.07	106.34	27.88	-43.3	-44.5	21.3	0.00e+00	0	37	0	826277888	60	8206
2026-01-04 13:18:23.11	107.58	27.68	-42.3	-43.3	22.3	0.00e+00	0	37	0	834666496	60	7168
2026-01-04 13:18:27.15	108.81	27.47	-42.7	-43.8	22.0	0.00e+00	0	37	0	842006528	60	7540
2026-01-04 13:18:31.20	110.02	27.25	-42.1	-43.1	22.6	0.00e+00	0	37	0	849346560	60	6964
2026-01-04 13:18:35.24	111.22	27.02	-43.0	-44.2	21.9	0.00e+00	0	37	0	856686592	60	7896
2026-01-04 13:18:39.29	112.40	26.77	-44.4	-45.8	20.3	0.00e+00	0	37	0	864026624	60	9467
2026-01-04 13:18:43.33	113.56	26.52	-42.9	-44.1	21.7	0.00e+00	0	37	0	872415232	60	7815
2026-01-04 13:18:47.38	114.70	26.26	-42.9	-44.0	21.8	0.00e+00	0	37	0	879755264	60	7746
2026-01-04 13:18:51.42	115.83	25.98	-42.2	-43.3	22.4	0.00e+00	0	37	0	887095296	60	7131
2026-01-04 13:18:55.47	116.93	25.70	-43.2	-44.5	21.3	0.00e+00	0	37	0	894435328	60	8154
2026-01-04 13:18:59.51	118.02	25.41	-41.7	-42.7	22.8	0.00e+00	0	37	0	902823936	60	6636
2026-01-04 13:19:03.53	119.08	25.12	-42.0	-43.1	22.5	0.00e+00	0	37	0	910163968	60	6947
2026-01-04 13:19:07.58	120.13	24.82	-41.8	-42.8	22.8	0.00e+00	0	37	0	917504000	60	6734
2026-01-04 13:19:11.62	121.16	24.51	-41.4	-42.4	23.1	0.00e+00	0	37	0	924844032	60	6400
2026-01-04 13:19:15.66	122.16	24.19	-40.4	-41.3	23.9	0.00e+00	0	37	0	932184064	60	5661
2026-01-04 13:19:19.71	123.15	23.87	-41.5	-42.5	23.0	0.00e+00	0	37	0	940572672	60	6468
2026-01-04 13:19:23.75	124.12	23.55	-41.6	-42.6	22.8	0.00e+00	0	37	0	947912704	60	6599
2026-01-04 13:19:27.80	125.07	23.22	-40.8	-41.7	23.6	0.00e+00	0	37	0	955252736	60	5948
2026-01-04 13:19:31.84	126.00	22.89	-42.0	-43.1	22.4	0.00e+00	0	37	0	962592768	60	6952
2026-01-04 13:19:35.89	126.91	22.55	-41.8	-42.9	22.6	0.00e+00	0	37	0	970981376	60	6796
2026-01-04 13:19:39.93	127.80	22.22	-40.5	-41.4	23.8	0.00e+00	0	37	0	978321408	60	5728
2026-01-04 13:19:43.98	128.68	21.87	-40.5	-41.4	23.7	0.00e+00	0	37	0	985661440	60	5732
2026-01-04 13:19:48.02	129.53	21.53	-43.1	-44.3	21.4	0.00e+00	0	37	0	993001472	60	7997
2026-01-04 13:19:52.07	130.37	21.19	-43.4	-44.7	21.1	0.00e+00	0	37	0	1001390080	60	8334
2026-01-04 13:19:56.11	131.19	20.84	-41.7	-42.8	22.8	0.00e+00	0	37	0	1008730112	60	6705
2026-01-04 13:20:00.15	131.99	20.50	-41.2	-42.2	23.0	0.00e+00	0	37	0	1016070144	60	6276
2026-01-04 13:20:04.19	132.77	20.15	-40.6	-41.5	23.6	0.00e+00	0	37	0	1023410176	60	5802
2026-01-04 13:20:08.24	133.54	19.81	-41.6	-42.6	22.8	0.00e+00	0	37	0	1031798784	60	6589
2026-01-04 13:20:12.28	134.28	19.46	-41.3	-42.3	23.0	0.00e+00	0	37	0	1039138816	60	6340
2026-01-04 13:20:16.33	135.02	19.11	-42.3	-43.5	22.1	0.00e+00	0	37	0	1046478848	60	7255
2026-01-04 13:20:20.37	135.73	18.77	-40.9	-41.8	23.2	0.00e+00	0	37	0	1053818880	60	6029
2026-01-04 13:20:24.42	136.44	18.42	-40.3	-41.2	23.8	0.00e+00	0	37	0	1062207488	60	5598
2026-01-04 13:20:28.46	137.12	18.07	-40.3	-41.2	23.8	0.00e+00	0	37	0	1069547520	60	5596
2026-01-04 13:20:32.50	137.79	17.73	-40.2	-41.1	23.9	0.00e+00	0	37	0	1076887552	58	6197
2026-01-04 13:20:36.55	138.45	17.39	-40.5	-41.4	23.4	0.00e+00	0	37	0	1084227584	58	6458
2026-01-04 13:20:40.60	139.09	17.05	-40.9	-41.9	23.2	0.00e+00	0	37	0	1091567616	58	6795
2026-01-04 13:20:44.64	139.72	16.71	-40.3	-41.2	23.6	0.00e+00	0	37	0	1099956224	58	6300
2026-01-04 13:20:48.68	140.34	16.37	-40.2	-41.1	23.7	0.00e+00	0	37	0	1107296256	58	6189
2026-01-04 13:20:52.73	140.94	16.03	-40.7	-41.6	23.5	0.00e+00	0	37	0	1114636288	58	6576
2026-01-04 13:20:56.77	141.53	15.70	-40.4	-41.3	23.6	0.00e+00	0	37	0	1121976320	58	6379
2026-01-04 13:21:00.82	142.11	15.36	-40.6	-41.5	23.5	0.00e+00	0	37	0	1130364928	58	6515
2026-01-04 13:21:04.87	142.67	15.03	-41.8	-42.9	22.3	0.00e+00	0	37	0	1137704960	60	6791
2026-01-04 13:21:08.91	143.22	14.70	-41.9	-43.0	22.3	0.00e+00	0	37	0	1145044992	60	6888
2026-01-04 13:21:12.95	143.76	14.37	-41.7	-42.7	22.4	0.00e+00	0	37	0	1152385024	60	6664
2026-01-04 13:21:17.00	144.29	14.05	-41.7	-42.7	22.4	0.00e+00	0	37	0	1159725056	60	6671
2026-01-04 13:21:21.04	144.81	13.73	-43.0	-44.2	21.2	0.00e+00	0	37	0	1168113664	60	7931
2026-01-04 13:21:25.08	145.32	13.41	-43.5	-44.8	20.7	0.00e+00	0	37	0	1175453696	60	8462
2026-01-04 13:21:29.13	145.81	13.09	-43.5	-44.8	20.8	0.00e+00	0	37	0	1182793728	60	8474
2026-01-04 13:21:33.17	146.30	12.77	-42.9	-44.2	21.4	0.00e+00	0	37	0	1190133760	60	7877
2026-01-04 13:21:37.21	146.78	12.46	-42.6	-43.8	21.6	0.00e+00	0	37	0	1198522368	60	7550
2026-01-04 13:21:41.26	147.24	12.14	-42.1	-43.2	22.1	0.00e+00	0	37	0	1205862400	60	7029
2026-01-04 13:21:45.31	147.70	11.83	-41.6	-42.6	22.6	0.00e+00	0	37	0	1213202432	60	6602
2026-01-04 13:21:49.35	148.15	11.53	-41.7	-42.7	22.6	0.00e+00	0	37	0	1220542464	60	6657
2026-01-04 13:21:53.39	148.59	11.22	-42.1	-43.2	22.1	0.00e+00	0	37	0	1228931072	60	7068
2026-01-04 13:21:57.44	149.02	10.92	-42.7	-43.9	21.6	0.00e+00	0	37	0	1236271104	60	7604
2026-01-04 13:22:01.48	149.44	10.62	-43.2	-44.5	21.1	0.00e+00	0	37	0	1243611136	60	8164
2026-01-04 13:22:05.52	149.86	10.32	-42.8	-44.0	21.5	0.00e+00	0	37	0	1250951168	60	7700
2026-01-04 13:22:09.57	150.26	10.03	-42.5	-43.6	21.9	0.00e+00	0	37	0	1259339776	60	7373
2026-01-04 13:22:13.61	150.66	9.73	-42.3	-43.5	21.8	0.00e+00	0	37	0	1266679808	60	7257
2026-01-04 13:22:17.65	151.05	9.44	-42.8	-44.0	21.4	0.00e+00	0	37	0	1274019840	60	7741
2026-01-04 13:22:21.70	151.44	9.15	-42.9	-44.2	21.3	0.00e+00	0	37	0	1281359872	60	7890
2026-01-04 13:22:25.74	151.81	8.87	-42.6	-43.7	21.6	0.00e+00	0	37	0	1288699904	60	7488
2026-01-04 13:22:29.79	152.18	8.58	-42.5	-43.7	21.6	0.00e+00	0	37	0	1297088512	60	7468
2026-01-04 13:22:33.83	152.55	8.30	-42.2	-43.3	21.8	0.00e+00	0	37	0	1304428544	60	7165
2026-01-04 13:22:37.88	152.90	8.02	-43.5	-44.8	20.5	0.00e+00	0	37	0	1311768576	60	8488
2026-01-04 13:22:41.92	153.25	7.74	-44.1	-45.6	19.3	0.00e+00	0	37	0	1319108608	60	9330
2026-01-04 13:22:45.97	153.60	7.47	-45.0	-46.9	18.1	0.00e+00	0	37	0	1327497216	60	10780
2026-01-04 13:22:50.01	153.93	7.20	-45.8	-48.1	16.7	0.00e+00	0	37	0	1334837248	60	12354
2026-01-04 13:22:54.05	154.26	6.92	-45.8	-48.2	16.3	0.00e+00	0	37	0	1342177280	60	12528
2026-01-04 13:22:58.10	154.59	6.65	-46.1	-48.8	15.6	0.00e+00	0	37	0	1349517312	60	13463
2026-01-04 13:23:02.14	154.91	6.39	-46.5	-49.5	14.9	0.00e+00	0	37	0	1356857344	60	14583
2026-01-04 13:23:06.18	155.22	6.12	-46.3	-48.9	15.7	0.00e+00	0	37	0	1365245952	60	13545
2026-01-04 13:23:10.23	155.53	5.86	-46.3	-48.9	15.8	0.00e+00	0	38	0	1372585984	60	13543
2026-01-04 13:23:14.27	155.84	5.60	-45.5	-47.6	17.2	0.00e+00	0	37	0	1379926016	60	11762
2026-01-04 13:23:18.32	156.14	5.34	-45.3	-47.3	17.6	0.00e+00	0	37	0	1387266048	60	11342
2026-01-04 13:23:22.36	156.43	5.08	-44.4	-46.1	18.8	0.00e+00	0	37	0	1395654656	60	9846
2026-01-04 13:23:26.41	156.72	4.83	-44.4	-46.0	19.0	0.00e+00	0	37	0	1402994688	60	9732
2026-01-04 13:23:30.45	157.00	4.57	-44.0	-45.5	19.4	0.00e+00	0	37	0	1410334720	60	9162
2026-01-04 13:23:34.49	157.28	4.32	-44.3	-45.9	19.1	0.00e+00	0	37	0	1417674752	60	9652
2026-01-04 13:23:38.54	157.56	4.07	-45.2	-47.0	18.0	0.00e+00	0	37	0	1426063360	60	10942
2026-01-04 13:23:42.58	157.83	3.82	-45.3	-47.2	17.9	0.00e+00	0	37	0	1433403392	60	11189
2026-01-04 13:23:46.63	158.09	3.58	-45.9	-48.1	16.8	0.00e+00	0	37	0	1440743424	60	12416
2026-01-04 13:23:50.67	158.36	3.33	-46.0	-48.2	16.9	0.00e+00	0	37	0	1448083456	60	12566
2026-01-04 13:23:54.64	158.61	3.09	-50.7	-65.4	3.6	2.88e-01	0	37	104	1455423488	60	90988
2026-01-04 13:23:58.69	158.86	2.85	-51.7	-67.3	3.6	1.51e+00	0	37	104	1455423488	60	112937
2026-01-04 13:24:02.73	159.11	2.61	-52.2	-67.7	3.6	1.51e+00	0	37	104	1455423488	60	118764
2026-01-04 13:24:06.77	159.36	2.38	-52.1	-67.7	3.6	1.51e+00	0	37	104	1455423488	60	118269
2026-01-04 13:24:10.81	159.60	2.14	-52.2	-67.8	3.6	1.51e+00	0	38	104	1455423488	60	119090
2026-01-04 13:24:14.86	159.84	1.90	-52.2	-67.8	3.6	1.51e+00	0	38	104	1455423488	60	119635
2026-01-04 13:24:18.91	160.08	1.67	-52.1	-67.7	3.6	1.51e+00	0	38	104	1455423488	60	118824
2026-01-04 13:24:22.95	160.31	1.44	-52.2	-67.9	3.6	1.51e+00	0	37	104	1455423488	60	120548
2026-01-04 13:24:26.99	160.54	1.21	-52.3	-67.9	3.6	1.51e+00	0	37	104	1455423488	60	120870
2026-01-04 13:24:31.04	160.77	0.98	-52.3	-67.8	3.6	1.51e+00	0	38	104	1455423488	60	120316
2026-01-04 13:24:35.08	160.99	0.75	-52.3	-67.8	3.6	1.51e+00	0	38	104	1455423488	60	120326
2026-01-04 13:24:39.12	161.21	0.53	-52.2	-67.7	3.6	1.51e+00	0	38	104	1455423488	60	118441
2026-01-04 13:24:43.16	161.42	0.30	-52.2	-67.8	3.6	1.51e+00	0	38	104	1455423488	60	119246
2026-01-04 13:24:47.21	161.64	0.08	-52.3	-67.8	3.6	1.51e+00	0	37	104	1455423488	60	120001

#Closed at: 2026-01-04 13:24:51
#Recorded file [1455 MB]: D:/lorett/data/35034_260104_161009.dat