passes_logs/2026/01/04/R4.6S_Anadyr_2ch/R4.6S_Anadyr_2ch__20260104_024726_SUOMI_NPP_rec.log

#Pass ID: 20260104_024726_SUOMI NPP
#Satellite: SUOMI NPP
#Configuration: NPP
#almurnet v.1.7.20251203
#Start time: 2026-01-04 02:47:29

#Version: 2.2.20231116
#Station: R4.6S_Anadyr_2ch
#Location: 177.4865 lon 64.73178 lat
#TLE: 1 37849U 11061A   25350.92281687  .00000071  00000+0  54882-4 0  9996
#TLE: 2 37849  98.7777 288.2268 0002366 112.8570 247.2856 14.19515404732588

#Time	Az	El	Level	Level2	SNR	BER	BlckErr	Temp	State	Recorded	gain1	gain2
2026-01-04 02:47:29.55	222.53	0.16	-53.9	-67.9	3.3	1.54e+00	0	35	0	0	60	121178
2026-01-04 02:47:33.59	222.84	0.35	-53.1	-68.6	3.6	1.51e+00	0	35	104	0	60	130960
2026-01-04 02:47:37.63	223.16	0.55	-52.9	-68.7	3.6	1.51e+00	0	36	104	0	60	133442
2026-01-04 02:47:41.67	223.49	0.74	-52.4	-67.7	3.5	1.51e+00	0	36	104	0	60	118962
2026-01-04 02:47:45.71	223.82	0.94	-50.4	-65.8	3.6	1.51e+00	0	36	104	0	60	94907
2026-01-04 02:47:49.75	224.15	1.14	-50.4	-65.8	3.6	1.51e+00	0	36	104	0	60	94797
2026-01-04 02:47:53.80	224.49	1.34	-50.4	-65.8	3.6	1.51e+00	0	36	104	0	60	95093
2026-01-04 02:47:57.84	224.83	1.53	-50.3	-65.7	3.6	1.51e+00	0	36	104	0	60	93984
2026-01-04 02:48:01.88	225.17	1.73	-50.3	-65.8	3.6	1.51e+00	0	36	104	0	60	94703
2026-01-04 02:48:05.93	225.52	1.93	-50.3	-65.7	3.6	1.51e+00	0	36	104	0	60	93976
2026-01-04 02:48:09.97	225.88	2.13	-50.4	-65.8	3.6	1.51e+00	0	36	104	0	60	95010
2026-01-04 02:48:14.02	226.24	2.34	-50.3	-65.6	3.6	1.51e+00	0	36	104	0	60	92384
2026-01-04 02:48:18.06	226.60	2.54	-50.3	-65.0	3.6	1.51e+00	0	36	104	0	60	86889
2026-01-04 02:48:22.10	226.97	2.74	-49.9	-59.0	4.8	9.81e-01	68	36	0	1048576	60	43499
2026-01-04 02:48:26.14	227.34	2.94	-49.7	-57.1	7.0	1.63e-01	92	36	0	9437184	60	34858
2026-01-04 02:48:30.19	227.72	3.15	-50.4	-64.8	3.6	1.50e+00	0	36	104	15728640	60	84604
2026-01-04 02:48:34.23	228.10	3.35	-49.7	-56.2	8.0	7.81e-02	90	36	0	18874368	60	31453
2026-01-04 02:48:38.27	228.49	3.55	-49.8	-56.4	7.4	1.14e-01	92	36	0	26214400	60	32251
2026-01-04 02:48:42.32	228.89	3.76	-49.9	-56.9	7.6	1.00e-01	0	36	0	33554432	60	34002
2026-01-04 02:48:46.37	229.29	3.96	-50.0	-57.2	6.9	1.23e-01	0	36	0	40894464	60	35248
2026-01-04 02:48:50.41	229.69	4.17	-50.0	-57.0	7.2	1.21e-01	92	36	0	48234496	60	34516
2026-01-04 02:48:54.45	230.10	4.37	-50.0	-57.1	7.1	1.10e-01	92	36	0	56623104	60	34870
2026-01-04 02:48:58.50	230.52	4.58	-50.2	-57.8	6.6	1.67e-01	0	36	0	63963136	60	37834
2026-01-04 02:49:02.54	230.94	4.79	-50.3	-57.7	6.7	1.93e-01	0	36	0	71303168	60	37486
2026-01-04 02:49:06.58	231.36	4.99	-50.5	-58.2	6.3	2.48e-01	87	36	0	78643200	60	39834
2026-01-04 02:49:10.62	231.80	5.20	-50.6	-58.4	6.3	2.32e-01	92	36	0	87031808	60	40397
2026-01-04 02:49:14.67	232.24	5.41	-50.7	-58.1	6.6	1.83e-01	0	36	0	94371840	60	39165
2026-01-04 02:49:18.71	232.68	5.62	-50.6	-57.8	7.0	1.27e-01	92	36	0	101711872	60	37729
2026-01-04 02:49:22.76	233.13	5.82	-50.7	-57.5	7.7	9.08e-02	92	36	0	109051904	60	36357
2026-01-04 02:49:26.80	233.59	6.03	-50.8	-57.4	7.9	6.41e-02	92	36	0	116391936	60	35957
2026-01-04 02:49:30.85	234.05	6.24	-50.7	-57.3	8.0	5.99e-02	25	36	0	124780544	60	35645
2026-01-04 02:49:34.89	234.52	6.45	-50.8	-57.1	8.3	5.27e-02	90	36	0	132120576	60	35108
2026-01-04 02:49:38.94	235.00	6.66	-50.5	-56.5	8.9	2.87e-02	90	36	0	139460608	60	32551
2026-01-04 02:49:42.98	235.48	6.87	-50.5	-56.1	9.5	1.66e-02	0	36	0	146800640	60	31135
2026-01-04 02:49:47.02	235.97	7.07	-50.5	-56.1	9.8	1.07e-02	0	36	0	155189248	60	31160
2026-01-04 02:49:51.06	236.47	7.28	-50.3	-55.2	10.9	2.72e-03	92	36	0	162529280	60	27952
2026-01-04 02:49:55.11	236.97	7.49	-50.0	-54.5	11.6	1.45e-03	92	36	0	169869312	60	25969
2026-01-04 02:49:59.15	237.48	7.70	-49.7	-53.7	12.5	9.99e-05	6	36	0	177209344	60	23694
2026-01-04 02:50:03.20	238.00	7.91	-48.9	-52.2	14.0	5.30e-06	92	36	0	185597952	60	19797
2026-01-04 02:50:07.24	238.52	8.11	-48.6	-51.6	14.5	0.00e+00	92	36	0	192937984	60	18544
2026-01-04 02:50:11.28	239.05	8.32	-48.4	-51.1	15.4	0.00e+00	0	36	0	200278016	60	17570
2026-01-04 02:50:15.33	239.59	8.53	-48.3	-50.8	16.1	0.00e+00	0	36	0	207618048	60	16914
2026-01-04 02:50:19.37	240.14	8.73	-48.4	-50.7	16.6	0.00e+00	91	36	0	216006656	60	16714
2026-01-04 02:50:23.41	240.69	8.94	-47.5	-49.6	16.8	0.00e+00	92	36	0	223346688	60	14719
2026-01-04 02:50:27.46	241.25	9.14	-47.0	-48.9	17.8	0.00e+00	0	36	0	230686720	60	13626
2026-01-04 02:50:31.50	241.82	9.35	-46.7	-48.6	17.8	0.00e+00	4	36	0	238026752	60	13187
2026-01-04 02:50:35.55	242.40	9.55	-45.9	-47.5	19.3	0.00e+00	92	36	0	245366784	60	11544
2026-01-04 02:50:39.59	242.98	9.75	-44.7	-46.1	20.3	0.00e+00	90	36	0	253755392	60	9791
2026-01-04 02:50:43.64	243.58	9.96	-44.3	-45.5	20.9	0.00e+00	0	36	0	261095424	60	9195
2026-01-04 02:50:47.68	244.18	10.16	-43.5	-44.6	21.7	0.00e+00	92	36	0	268435456	60	8314
2026-01-04 02:50:51.72	244.78	10.36	-42.9	-44.0	22.4	0.00e+00	85	36	0	275775488	60	7699
2026-01-04 02:50:55.77	245.40	10.55	-43.0	-44.1	22.3	0.00e+00	0	36	0	284164096	60	7782
2026-01-04 02:50:59.81	246.03	10.75	-44.0	-45.1	22.2	0.00e+00	0	36	0	291504128	60	8741
2026-01-04 02:51:03.86	246.66	10.95	-43.9	-44.9	22.6	0.00e+00	92	36	0	298844160	60	8596
2026-01-04 02:51:07.90	247.30	11.14	-43.1	-44.1	22.8	0.00e+00	90	36	0	306184192	60	7825
2026-01-04 02:51:11.95	247.95	11.33	-43.5	-44.5	22.2	0.00e+00	0	36	0	313524224	60	8154
2026-01-04 02:51:15.99	248.61	11.52	-43.4	-44.4	22.7	0.00e+00	62	36	0	321912832	60	8047
2026-01-04 02:51:20.04	249.27	11.71	-43.5	-44.4	22.7	0.00e+00	60	36	0	329252864	60	8128
2026-01-04 02:51:24.08	249.94	11.90	-43.1	-44.0	23.0	0.00e+00	92	36	0	336592896	60	7735
2026-01-04 02:51:28.12	250.63	12.08	-43.6	-44.6	22.4	0.00e+00	0	36	0	343932928	60	8279
2026-01-04 02:51:32.17	251.32	12.26	-43.4	-44.5	22.3	0.00e+00	90	36	0	352321536	60	8150
2026-01-04 02:51:36.21	252.01	12.44	-43.5	-44.5	22.1	0.00e+00	92	36	0	359661568	60	8196
2026-01-04 02:51:40.26	252.72	12.62	-44.2	-45.3	22.1	0.00e+00	0	36	0	367001600	60	8967
2026-01-04 02:51:44.30	253.44	12.79	-44.2	-45.3	21.7	0.00e+00	0	36	0	374341632	60	9023
2026-01-04 02:51:48.35	254.16	12.96	-43.9	-45.0	21.7	0.00e+00	92	36	0	382730240	60	8633
2026-01-04 02:51:52.39	254.89	13.13	-43.8	-44.9	21.9	0.00e+00	92	36	0	390070272	60	8578
2026-01-04 02:51:56.44	255.63	13.30	-44.2	-45.4	21.6	0.00e+00	0	36	0	397410304	60	9071
2026-01-04 02:52:00.48	256.38	13.46	-44.0	-45.2	21.3	0.00e+00	28	36	0	404750336	60	8830
2026-01-04 02:52:04.52	257.13	13.62	-43.9	-45.1	21.5	0.00e+00	92	36	0	413138944	60	8771
2026-01-04 02:52:08.57	257.89	13.77	-44.8	-46.0	20.9	0.00e+00	71	36	0	420478976	60	9785
2026-01-04 02:52:12.61	258.66	13.92	-45.3	-46.6	20.6	0.00e+00	0	36	0	427819008	60	10462
2026-01-04 02:52:16.66	259.44	14.07	-46.1	-47.5	20.0	0.00e+00	90	36	0	435159040	60	11609
2026-01-04 02:52:20.70	260.22	14.21	-45.7	-47.0	20.7	0.00e+00	86	36	0	442499072	60	10965
2026-01-04 02:52:24.75	261.02	14.35	-44.3	-45.5	21.2	0.00e+00	0	36	0	450887680	60	9190
2026-01-04 02:52:28.79	261.82	14.49	-45.3	-46.6	20.7	0.00e+00	9	36	0	458227712	60	10404
2026-01-04 02:52:32.83	262.62	14.62	-44.8	-46.0	21.1	0.00e+00	92	36	0	465567744	60	9695
2026-01-04 02:52:36.88	263.44	14.74	-44.2	-45.4	21.6	0.00e+00	92	36	0	472907776	60	9063
2026-01-04 02:52:40.92	264.25	14.86	-42.9	-43.9	22.7	0.00e+00	0	36	0	481296384	60	7611
2026-01-04 02:52:44.97	265.08	14.98	-43.0	-43.9	22.7	0.00e+00	92	36	0	488636416	60	7682
2026-01-04 02:52:49.01	265.91	15.09	-42.9	-43.9	22.7	0.00e+00	72	37	0	495976448	60	7664
2026-01-04 02:52:53.06	266.75	15.19	-43.2	-44.3	22.6	0.00e+00	92	37	0	503316480	60	7970
2026-01-04 02:52:57.10	267.59	15.29	-43.3	-44.3	22.7	0.00e+00	0	37	0	511705088	60	8032
2026-01-04 02:53:01.14	268.44	15.39	-43.8	-44.9	21.9	0.00e+00	92	37	0	519045120	60	8547
2026-01-04 02:53:05.19	269.29	15.48	-43.0	-44.0	22.8	0.00e+00	92	37	0	526385152	60	7692
2026-01-04 02:53:09.23	270.15	15.56	-43.5	-44.6	22.1	0.00e+00	0	37	0	533725184	60	8261
2026-01-04 02:53:13.28	271.01	15.64	-43.7	-44.8	21.5	0.00e+00	11	37	0	541065216	60	8470
2026-01-04 02:53:17.32	271.88	15.71	-44.8	-46.0	20.8	0.00e+00	92	37	0	549453824	60	9755
2026-01-04 02:53:21.37	272.75	15.78	-43.5	-44.5	22.5	0.00e+00	92	37	0	556793856	60	8171
2026-01-04 02:53:25.41	273.63	15.84	-43.2	-44.3	22.4	0.00e+00	0	37	0	564133888	60	7955
2026-01-04 02:53:29.46	274.50	15.89	-42.9	-44.0	22.5	0.00e+00	4	37	0	571473920	60	7693
2026-01-04 02:53:33.50	275.38	15.94	-42.6	-43.6	22.8	0.00e+00	87	37	0	579862528	60	7361
2026-01-04 02:53:37.55	276.27	15.98	-43.0	-44.1	22.6	0.00e+00	0	37	0	587202560	60	7774
2026-01-04 02:53:41.59	277.15	16.01	-43.7	-44.8	22.1	0.00e+00	0	37	0	594542592	60	8497
2026-01-04 02:53:45.64	278.04	16.04	-44.0	-45.1	21.8	0.00e+00	92	37	0	601882624	60	8743
2026-01-04 02:53:49.68	278.92	16.06	-44.1	-45.3	21.4	0.00e+00	92	37	0	610271232	60	8963
2026-01-04 02:53:53.72	279.81	16.08	-44.8	-46.1	21.2	0.00e+00	0	37	0	617611264	60	9821
2026-01-04 02:53:57.76	280.70	16.09	-44.9	-46.2	20.6	0.00e+00	11	37	0	624951296	60	9958
2026-01-04 02:54:01.81	281.59	16.09	-44.8	-46.0	21.3	0.00e+00	13	37	0	632291328	60	9702
2026-01-04 02:54:05.85	282.48	16.09	-43.6	-44.7	22.1	0.00e+00	92	37	0	639631360	60	8366
2026-01-04 02:54:09.89	283.37	16.08	-42.9	-44.0	22.4	0.00e+00	0	37	0	648019968	60	7691
2026-01-04 02:54:13.94	284.26	16.06	-43.0	-44.0	22.4	0.00e+00	90	37	0	655360000	60	7752
2026-01-04 02:54:17.98	285.14	16.04	-42.9	-44.0	22.5	0.00e+00	59	37	0	662700032	60	7698
2026-01-04 02:54:22.03	286.03	16.01	-43.0	-44.1	22.5	0.00e+00	0	37	0	670040064	60	7794
2026-01-04 02:54:26.07	286.91	15.97	-43.2	-44.2	22.3	0.00e+00	0	37	0	678428672	60	7906
2026-01-04 02:54:30.11	287.79	15.93	-43.0	-44.0	22.6	0.00e+00	92	37	0	685768704	60	7763
2026-01-04 02:54:34.16	288.67	15.88	-43.6	-44.7	22.0	0.00e+00	92	37	0	693108736	60	8397
2026-01-04 02:54:38.20	289.55	15.82	-43.3	-44.4	22.4	0.00e+00	0	37	0	700448768	60	8086
2026-01-04 02:54:42.25	290.42	15.76	-42.9	-43.9	22.6	0.00e+00	0	37	0	708837376	60	7606
2026-01-04 02:54:46.29	291.29	15.69	-43.2	-44.2	22.3	0.00e+00	92	37	0	716177408	60	7939
2026-01-04 02:54:50.34	292.15	15.62	-43.3	-44.4	22.0	0.00e+00	36	37	0	723517440	60	8106
2026-01-04 02:54:54.38	293.01	15.54	-42.9	-44.0	22.4	0.00e+00	0	37	0	730857472	60	7711
2026-01-04 02:54:58.43	293.87	15.46	-42.4	-43.3	23.1	0.00e+00	92	37	0	739246080	60	7145
2026-01-04 02:55:02.47	294.72	15.37	-42.9	-43.9	23.5	0.00e+00	92	37	0	746586112	60	7641
2026-01-04 02:55:06.51	295.56	15.27	-41.9	-42.7	23.5	0.00e+00	0	37	0	753926144	60	6692
2026-01-04 02:55:10.56	296.40	15.17	-42.1	-43.1	23.4	0.00e+00	0	37	0	761266176	60	6930
2026-01-04 02:55:14.60	297.23	15.06	-42.7	-43.7	22.7	0.00e+00	33	37	0	768606208	60	7433
2026-01-04 02:55:18.65	298.06	14.95	-42.3	-43.3	23.2	0.00e+00	90	37	0	776994816	60	7099
2026-01-04 02:55:22.69	298.88	14.84	-42.5	-43.5	22.9	0.00e+00	0	37	0	784334848	60	7266
2026-01-04 02:55:26.74	299.70	14.71	-41.6	-42.5	23.5	0.00e+00	9	37	0	791674880	60	6511
2026-01-04 02:55:30.78	300.51	14.59	-41.6	-42.5	23.7	0.00e+00	64	37	0	799014912	60	6486
2026-01-04 02:55:34.83	301.31	14.46	-42.1	-43.0	23.5	0.00e+00	0	37	0	807403520	60	6876
2026-01-04 02:55:38.87	302.10	14.32	-42.4	-43.3	23.0	0.00e+00	0	37	0	814743552	60	7156
2026-01-04 02:55:42.91	302.89	14.18	-42.6	-43.6	22.9	0.00e+00	44	37	0	822083584	60	7360
2026-01-04 02:55:46.96	303.67	14.04	-43.0	-44.0	22.4	0.00e+00	92	37	0	829423616	60	7751
2026-01-04 02:55:51.00	304.44	13.89	-42.5	-43.5	22.6	0.00e+00	0	37	0	836763648	60	7308
2026-01-04 02:55:55.05	305.21	13.74	-42.5	-43.5	22.6	0.00e+00	0	37	0	845152256	60	7260
2026-01-04 02:55:59.09	305.97	13.59	-43.4	-44.5	22.6	0.00e+00	69	37	0	852492288	60	8190
2026-01-04 02:56:03.13	306.71	13.43	-43.3	-44.3	22.6	0.00e+00	82	37	0	859832320	60	8028
2026-01-04 02:56:07.18	307.46	13.27	-43.0	-44.0	22.4	0.00e+00	0	37	0	867172352	60	7738
2026-01-04 02:56:11.22	308.19	13.11	-43.6	-44.7	21.6	0.00e+00	10	37	0	875560960	60	8390
2026-01-04 02:56:15.27	308.92	12.94	-45.2	-46.5	20.1	0.00e+00	62	37	0	882900992	60	10260
2026-01-04 02:56:19.31	309.63	12.77	-44.8	-46.0	21.3	0.00e+00	0	37	0	890241024	60	9756
2026-01-04 02:56:23.36	310.35	12.59	-45.6	-46.9	20.3	0.00e+00	0	37	0	897581056	60	10845
2026-01-04 02:56:27.40	311.05	12.42	-44.0	-45.1	21.6	0.00e+00	91	37	0	905969664	60	8766
2026-01-04 02:56:31.45	311.74	12.24	-43.7	-44.8	21.9	0.00e+00	71	37	0	913309696	60	8447
2026-01-04 02:56:35.49	312.43	12.06	-45.1	-46.3	20.8	0.00e+00	0	37	0	920649728	60	10100
2026-01-04 02:56:39.54	313.10	11.87	-45.0	-46.4	20.5	0.00e+00	0	37	0	927989760	60	10139
2026-01-04 02:56:43.58	313.77	11.69	-44.5	-45.8	20.9	0.00e+00	9	37	0	936378368	60	9521
2026-01-04 02:56:47.62	314.43	11.50	-44.1	-45.3	21.4	0.00e+00	74	37	0	943718400	60	8958
2026-01-04 02:56:51.67	315.08	11.31	-44.1	-45.3	21.2	0.00e+00	0	37	0	951058432	60	8998
2026-01-04 02:56:55.71	315.73	11.12	-44.6	-45.8	21.3	0.00e+00	81	37	0	958398464	60	9488
2026-01-04 02:56:59.75	316.36	10.93	-44.3	-45.5	21.5	0.00e+00	92	37	0	965738496	60	9138
2026-01-04 02:57:03.80	316.99	10.74	-45.1	-46.3	21.0	0.00e+00	0	37	0	974127104	60	10127
2026-01-04 02:57:07.84	317.61	10.54	-44.8	-46.1	20.4	0.00e+00	0	37	0	981467136	60	9851
2026-01-04 02:57:11.89	318.22	10.34	-44.6	-45.9	20.5	0.00e+00	16	37	0	988807168	60	9647
2026-01-04 02:57:15.93	318.83	10.15	-43.9	-45.1	21.5	0.00e+00	0	37	0	996147200	60	8767
2026-01-04 02:57:19.98	319.43	9.95	-43.2	-44.3	21.9	0.00e+00	0	37	0	1004535808	60	8039
2026-01-04 02:57:24.02	320.01	9.75	-43.5	-44.7	21.9	0.00e+00	0	37	0	1011875840	60	8343
2026-01-04 02:57:28.06	320.59	9.55	-43.6	-44.7	21.6	0.00e+00	62	37	0	1019215872	60	8379
2026-01-04 02:57:32.11	321.17	9.35	-43.5	-44.6	21.8	0.00e+00	0	37	0	1026555904	60	8325
2026-01-04 02:57:36.15	321.73	9.14	-43.2	-44.3	21.9	0.00e+00	10	37	0	1033895936	60	8018
2026-01-04 02:57:40.20	322.29	8.94	-43.6	-44.7	21.6	0.00e+00	8	37	0	1042284544	60	8420
2026-01-04 02:57:44.24	322.84	8.74	-45.1	-46.3	21.2	0.00e+00	32	37	0	1049624576	60	10037
2026-01-04 02:57:48.29	323.38	8.53	-44.2	-45.4	21.8	0.00e+00	0	37	0	1056964608	60	9037
2026-01-04 02:57:52.33	323.92	8.33	-43.8	-44.9	21.9	0.00e+00	0	37	0	1064304640	60	8599
2026-01-04 02:57:56.37	324.45	8.12	-44.2	-45.3	21.5	0.00e+00	8	37	0	1072693248	60	9018
2026-01-04 02:58:00.42	324.97	7.92	-44.2	-45.4	21.5	0.00e+00	0	37	0	1080033280	60	9102
2026-01-04 02:58:04.46	325.48	7.71	-44.6	-45.8	21.3	0.00e+00	0	37	0	1087373312	60	9541
2026-01-04 02:58:08.51	325.99	7.50	-45.1	-46.3	21.1	0.00e+00	0	37	0	1094713344	60	10079
2026-01-04 02:58:12.55	326.49	7.30	-44.8	-46.0	21.1	0.00e+00	91	37	0	1103101952	60	9780
2026-01-04 02:58:16.60	326.98	7.09	-44.5	-45.6	21.6	0.00e+00	0	37	0	1110441984	60	9250
2026-01-04 02:58:20.64	327.47	6.88	-44.8	-46.0	21.0	0.00e+00	0	37	0	1117782016	60	9709
2026-01-04 02:58:24.69	327.95	6.68	-45.4	-46.6	21.0	0.00e+00	18	37	0	1125122048	60	10398
2026-01-04 02:58:28.73	328.43	6.47	-44.8	-46.0	20.9	0.00e+00	0	37	0	1133510656	60	9763
2026-01-04 02:58:32.78	328.89	6.27	-44.6	-45.9	20.7	0.00e+00	0	37	0	1140850688	60	9650
2026-01-04 02:58:36.82	329.36	6.06	-45.3	-46.7	20.1	0.00e+00	0	37	0	1148190720	60	10576
2026-01-04 02:58:40.86	329.81	5.85	-45.1	-46.6	19.9	0.00e+00	92	37	0	1155530752	60	10382
2026-01-04 02:58:44.91	330.26	5.65	-45.8	-47.4	19.3	0.00e+00	0	37	0	1163919360	60	11391
2026-01-04 02:58:48.95	330.70	5.44	-46.2	-47.9	19.0	0.00e+00	0	37	0	1171259392	60	12078
2026-01-04 02:58:53.00	331.14	5.24	-46.0	-47.6	19.1	0.00e+00	0	37	0	1178599424	60	11720
2026-01-04 02:58:57.04	331.57	5.03	-47.0	-48.8	18.4	0.00e+00	56	37	0	1185939456	60	13412
2026-01-04 02:59:01.09	332.00	4.83	-47.1	-49.1	17.7	0.00e+00	0	37	0	1193279488	60	13855
2026-01-04 02:59:05.13	332.42	4.62	-47.6	-50.7	14.1	0.00e+00	0	37	0	1201668096	60	16625
2026-01-04 02:59:09.17	332.83	4.42	-48.1	-54.6	8.1	2.01e-02	8	37	0	1209008128	60	26160
2026-01-04 02:59:13.22	333.24	4.21	-49.4	-60.3	3.6	1.39e+00	0	37	0	1215299584	60	50416
2026-01-04 02:59:17.26	333.64	4.01	-48.6	-63.5	3.6	1.51e+00	0	37	104	1215299584	60	72957
2026-01-04 02:59:21.30	334.04	3.81	-48.2	-63.6	3.6	1.51e+00	0	37	104	1215299584	60	73780
2026-01-04 02:59:25.35	334.43	3.61	-48.2	-63.6	3.6	1.51e+00	0	37	104	1215299584	60	73764
2026-01-04 02:59:29.39	334.82	3.40	-48.0	-63.3	3.6	1.51e+00	0	37	104	1215299584	60	71638
2026-01-04 02:59:33.44	335.21	3.20	-47.9	-63.3	3.6	1.51e+00	0	37	104	1215299584	60	71406
2026-01-04 02:59:37.48	335.58	3.00	-52.6	-68.1	3.6	1.51e+00	0	37	104	1215299584	60	123623
2026-01-04 02:59:41.52	335.96	2.80	-53.1	-68.6	3.6	1.51e+00	0	37	104	1215299584	60	130798
2026-01-04 02:59:45.57	336.32	2.60	-53.0	-68.6	3.6	1.51e+00	0	37	104	1215299584	60	131031
2026-01-04 02:59:49.61	336.69	2.40	-53.0	-68.4	3.6	1.51e+00	0	37	104	1215299584	60	128654
2026-01-04 02:59:53.65	337.05	2.20	-54.0	-69.4	3.6	1.51e+00	0	37	104	1215299584	60	143749
2026-01-04 02:59:57.70	337.40	2.00	-53.5	-69.0	3.6	1.51e+00	0	37	104	1215299584	60	136833
2026-01-04 03:00:01.74	337.75	1.81	-53.7	-69.2	3.6	1.51e+00	0	37	104	1215299584	60	139985
2026-01-04 03:00:05.78	338.10	1.61	-54.4	-69.9	3.6	1.51e+00	0	37	104	1215299584	60	152247
2026-01-04 03:00:09.83	338.44	1.41	-53.4	-68.9	3.6	1.51e+00	0	37	104	1215299584	60	135265
2026-01-04 03:00:13.87	338.78	1.22	-53.9	-69.4	3.6	1.51e+00	0	37	104	1215299584	60	144309
2026-01-04 03:00:17.91	339.11	1.02	-53.2	-68.7	3.6	1.51e+00	0	37	104	1215299584	60	132431
2026-01-04 03:00:21.95	339.44	0.83	-53.0	-68.5	3.6	1.51e+00	0	38	104	1215299584	60	129350
2026-01-04 03:00:26.00	339.76	0.63	-53.2	-68.7	3.6	1.51e+00	0	37	104	1215299584	60	132372
2026-01-04 03:00:30.04	340.08	0.44	-53.7	-69.1	3.6	1.51e+00	0	37	104	1215299584	60	139415
2026-01-04 03:00:34.09	340.40	0.24	-54.1	-69.6	3.6	1.51e+00	0	37	104	1215299584	60	147387
2026-01-04 03:00:38.13	340.72	0.05	-53.8	-69.2	3.6	1.51e+00	0	37	104	1215299584	60	140985

#Closed at: 2026-01-04 03:00:39
#Recorded file [1215 MB]: D:/lorett/data/35034_260104_054729.dat