passes_logs/2026/01/04/R4.6S_Anadyr_2ch/R4.6S_Anadyr_2ch__20260104_230601_SUOMI_NPP_rec.log

#Pass ID: 20260104_230601_SUOMI NPP
#Satellite: SUOMI NPP
#Configuration: NPP
#almurnet v.1.7.20251203
#Start time: 2026-01-04 23:06:04

#Version: 2.2.20231116
#Station: R4.6S_Anadyr_2ch
#Location: 177.4865 lon 64.73178 lat
#TLE: 1 37849U 11061A   25350.92281687  .00000071  00000+0  54882-4 0  9996
#TLE: 2 37849  98.7777 288.2268 0002366 112.8570 247.2856 14.19515404732588

#Time	Az	El	Level	Level2	SNR	BER	BlckErr	Temp	State	Recorded	gain1	gain2
2026-01-04 23:06:04.59	127.17	0.18	-52.1	-66.0	3.3	1.54e+00	0	28	0	0	60	96875
2026-01-04 23:06:08.63	127.05	0.42	-51.3	-66.8	3.6	1.51e+00	0	29	104	0	60	106241
2026-01-04 23:06:12.67	126.93	0.66	-51.2	-66.5	3.6	1.51e+00	0	29	104	0	60	103444
2026-01-04 23:06:16.72	126.81	0.90	-50.7	-66.1	3.6	1.51e+00	0	29	104	0	60	97996
2026-01-04 23:06:20.76	126.68	1.14	-49.7	-65.1	3.6	1.51e+00	0	29	104	0	60	87412
2026-01-04 23:06:24.81	126.56	1.39	-49.7	-65.0	3.6	1.51e+00	0	29	104	0	60	86614
2026-01-04 23:06:28.85	126.43	1.64	-49.7	-65.0	3.6	1.51e+00	0	29	104	0	60	87171
2026-01-04 23:06:32.89	126.30	1.89	-49.7	-64.9	3.6	1.51e+00	0	29	104	0	60	85394
2026-01-04 23:06:36.93	126.17	2.14	-49.7	-64.9	3.6	1.51e+00	0	29	104	0	60	85845
2026-01-04 23:06:40.98	126.03	2.39	-49.7	-65.1	3.6	1.51e+00	0	29	104	0	60	88013
2026-01-04 23:06:45.02	125.89	2.65	-49.7	-64.9	3.6	1.51e+00	0	29	104	0	60	85676
2026-01-04 23:06:49.06	125.75	2.91	-49.6	-64.1	3.6	1.51e+00	0	29	104	0	60	78045
2026-01-04 23:06:53.10	125.61	3.17	-49.6	-63.1	3.6	1.51e+00	0	29	104	0	60	69364
2026-01-04 23:06:57.15	125.46	3.43	-47.9	-52.6	11.6	1.76e-02	0	29	0	2097152	60	20863
2026-01-04 23:07:01.19	125.31	3.70	-50.0	-65.0	3.6	1.10e+00	0	29	104	8388608	60	87067
2026-01-04 23:07:05.24	125.16	3.97	-49.6	-64.4	3.6	1.51e+00	0	29	104	10485760	60	81385
2026-01-04 23:07:09.28	125.01	4.24	-44.0	-45.8	18.4	0.00e+00	0	29	0	14680064	60	9484
2026-01-04 23:07:13.32	124.85	4.51	-43.2	-44.8	19.2	0.00e+00	92	29	0	22020096	60	8491
2026-01-04 23:07:17.37	124.69	4.79	-43.1	-44.6	19.4	0.00e+00	91	29	0	30408704	60	8274
2026-01-04 23:07:21.41	124.52	5.07	-43.4	-45.0	19.0	0.00e+00	0	29	0	37748736	60	8698
2026-01-04 23:07:25.46	124.35	5.35	-43.3	-44.9	19.0	0.00e+00	0	29	0	45088768	60	8564
2026-01-04 23:07:29.50	124.18	5.63	-43.2	-44.7	19.4	0.00e+00	91	29	0	52428800	60	8388
2026-01-04 23:07:33.55	124.01	5.92	-42.7	-44.2	19.9	0.00e+00	91	29	0	60817408	60	7881
2026-01-04 23:07:37.59	123.83	6.21	-43.0	-44.5	19.9	0.00e+00	0	29	0	68157440	60	8166
2026-01-04 23:07:41.63	123.65	6.50	-42.9	-44.3	20.0	0.00e+00	0	29	0	75497472	60	8021
2026-01-04 23:07:45.68	123.46	6.80	-42.8	-44.2	20.0	0.00e+00	46	29	0	82837504	60	7948
2026-01-04 23:07:49.72	123.27	7.09	-42.7	-44.0	20.3	0.00e+00	92	29	0	91226112	60	7767
2026-01-04 23:07:53.77	123.07	7.40	-42.6	-44.0	20.4	0.00e+00	0	30	0	98566144	60	7720
2026-01-04 23:07:57.81	122.87	7.70	-42.3	-43.6	20.8	0.00e+00	43	30	0	105906176	60	7366
2026-01-04 23:08:01.86	122.67	8.01	-42.3	-43.6	20.9	0.00e+00	92	30	0	113246208	60	7374
2026-01-04 23:08:05.90	122.46	8.32	-42.2	-43.4	21.0	0.00e+00	6	30	0	120586240	60	7229
2026-01-04 23:08:09.94	122.25	8.64	-41.9	-43.0	21.5	0.00e+00	0	30	0	128974848	60	6920
2026-01-04 23:08:13.99	122.03	8.96	-41.8	-42.9	21.5	0.00e+00	90	30	0	136314880	60	6825
2026-01-04 23:08:18.03	121.81	9.28	-41.9	-43.0	21.4	0.00e+00	92	30	0	143654912	60	6925
2026-01-04 23:08:22.08	121.58	9.61	-41.6	-42.7	21.7	0.00e+00	0	29	0	150994944	60	6684
2026-01-04 23:08:26.12	121.34	9.94	-41.8	-43.0	21.6	0.00e+00	0	30	0	159383552	60	6867
2026-01-04 23:08:30.17	121.10	10.27	-42.0	-43.2	21.4	0.00e+00	71	30	0	166723584	60	7077
2026-01-04 23:08:34.21	120.86	10.61	-41.7	-42.8	21.8	0.00e+00	92	30	0	174063616	60	6767
2026-01-04 23:08:38.26	120.60	10.95	-41.4	-42.4	22.1	0.00e+00	0	29	0	181403648	60	6464
2026-01-04 23:08:42.30	120.35	11.30	-41.6	-42.7	21.9	0.00e+00	92	30	0	189792256	60	6633
2026-01-04 23:08:46.34	120.08	11.65	-41.3	-42.4	22.1	0.00e+00	92	30	0	197132288	60	6435
2026-01-04 23:08:50.39	119.81	12.01	-41.2	-42.3	22.2	0.00e+00	92	30	0	204472320	60	6327
2026-01-04 23:08:54.43	119.53	12.37	-41.2	-42.3	22.3	0.00e+00	0	30	0	211812352	60	6320
2026-01-04 23:08:58.48	119.25	12.73	-41.5	-42.6	22.0	0.00e+00	92	30	0	219152384	60	6562
2026-01-04 23:09:02.52	118.95	13.10	-40.9	-42.0	22.5	0.00e+00	92	30	0	227540992	60	6115
2026-01-04 23:09:06.57	118.65	13.48	-41.3	-42.4	22.3	0.00e+00	0	29	0	234881024	60	6405
2026-01-04 23:09:10.61	118.34	13.86	-41.0	-42.1	22.5	0.00e+00	0	30	0	242221056	60	6197
2026-01-04 23:09:14.65	118.03	14.24	-41.1	-42.2	22.3	0.00e+00	92	30	0	249561088	60	6275
2026-01-04 23:09:18.70	117.70	14.63	-41.5	-42.6	22.0	0.00e+00	92	30	0	257949696	60	6588
2026-01-04 23:09:22.74	117.37	15.03	-41.5	-42.7	22.0	0.00e+00	0	30	0	265289728	60	6621
2026-01-04 23:09:26.79	117.02	15.43	-41.3	-42.4	22.3	0.00e+00	91	30	0	272629760	60	6417
2026-01-04 23:09:30.83	116.67	15.84	-41.3	-42.5	22.2	0.00e+00	85	30	0	279969792	60	6468
2026-01-04 23:09:34.88	116.30	16.25	-41.0	-42.0	22.6	0.00e+00	86	30	0	288358400	60	6111
2026-01-04 23:09:38.92	115.93	16.67	-41.1	-42.1	22.5	0.00e+00	0	30	0	295698432	60	6211
2026-01-04 23:09:42.97	115.54	17.09	-41.5	-42.6	22.1	0.00e+00	92	30	0	303038464	60	6597
2026-01-04 23:09:47.01	115.14	17.52	-40.9	-41.9	22.7	0.00e+00	92	30	0	310378496	60	6059
2026-01-04 23:09:51.06	114.73	17.96	-40.9	-41.9	22.8	0.00e+00	0	30	0	318767104	60	6070
2026-01-04 23:09:55.10	114.31	18.40	-41.0	-42.0	22.7	0.00e+00	0	30	0	326107136	60	6131
2026-01-04 23:09:59.15	113.88	18.85	-41.2	-42.3	22.5	0.00e+00	62	30	0	333447168	60	6344
2026-01-04 23:10:03.19	113.43	19.31	-41.2	-42.2	22.5	0.00e+00	90	30	0	340787200	60	6286
2026-01-04 23:10:07.23	112.97	19.77	-41.1	-42.1	22.3	0.00e+00	0	30	0	348127232	60	6206
2026-01-04 23:10:11.28	112.49	20.24	-41.2	-42.2	22.5	0.00e+00	90	30	0	356515840	60	6293
2026-01-04 23:10:15.32	112.00	20.71	-41.0	-42.0	22.6	0.00e+00	92	30	0	363855872	60	6172
2026-01-04 23:10:19.36	111.50	21.19	-41.2	-42.3	22.4	0.00e+00	0	30	0	371195904	60	6321
2026-01-04 23:10:23.41	110.97	21.68	-42.0	-43.1	21.7	0.00e+00	0	30	0	378535936	60	6999
2026-01-04 23:10:27.45	110.43	22.18	-41.2	-42.3	22.5	0.00e+00	90	30	0	386924544	60	6353
2026-01-04 23:10:31.50	109.87	22.68	-41.5	-42.7	22.1	0.00e+00	92	30	0	394264576	60	6623
2026-01-04 23:10:35.54	109.29	23.19	-41.8	-42.9	21.9	0.00e+00	0	30	0	401604608	60	6824
2026-01-04 23:10:39.58	108.70	23.71	-41.9	-43.1	22.0	0.00e+00	50	30	0	408944640	60	6984
2026-01-04 23:10:43.63	108.08	24.23	-41.5	-42.6	22.2	0.00e+00	62	30	0	416284672	60	6542
2026-01-04 23:10:47.67	107.44	24.76	-41.0	-42.0	22.6	0.00e+00	92	30	0	424673280	60	6168
2026-01-04 23:10:51.72	106.78	25.30	-41.6	-42.6	21.7	0.00e+00	0	30	0	432013312	60	6603
2026-01-04 23:10:55.76	106.09	25.84	-41.4	-42.5	22.3	0.00e+00	92	30	0	439353344	60	6507
2026-01-04 23:10:59.80	105.39	26.39	-41.3	-42.4	22.3	0.00e+00	92	30	0	446693376	60	6430
2026-01-04 23:11:03.85	104.65	26.95	-41.5	-42.6	22.1	0.00e+00	53	30	0	455081984	60	6588
2026-01-04 23:11:07.89	103.89	27.51	-42.3	-43.6	21.4	0.00e+00	0	30	0	462422016	60	7345
2026-01-04 23:11:11.94	103.10	28.08	-41.9	-43.0	21.8	0.00e+00	92	30	0	469762048	60	6925
2026-01-04 23:11:15.98	102.28	28.65	-43.0	-44.3	20.7	0.00e+00	92	30	0	477102080	60	8000
2026-01-04 23:11:20.02	101.44	29.23	-43.6	-45.0	20.2	0.00e+00	0	30	0	485490688	60	8696
2026-01-04 23:11:24.07	100.55	29.81	-44.4	-46.0	19.3	0.00e+00	0	30	0	492830720	60	9759
2026-01-04 23:11:28.11	99.64	30.40	-43.9	-45.4	19.7	0.00e+00	92	30	0	500170752	60	9069
2026-01-04 23:11:32.16	98.70	30.99	-44.9	-46.6	18.5	0.00e+00	90	30	0	507510784	60	10442
2026-01-04 23:11:36.20	97.71	31.58	-43.4	-44.7	20.3	0.00e+00	0	30	0	514850816	60	8366
2026-01-04 23:11:40.24	96.70	32.18	-44.3	-45.9	19.5	0.00e+00	48	30	0	523239424	60	9611
2026-01-04 23:11:44.29	95.64	32.77	-42.9	-44.2	21.0	0.00e+00	92	30	0	530579456	60	7877
2026-01-04 23:11:48.33	94.54	33.37	-42.2	-43.3	21.9	0.00e+00	0	30	0	537919488	60	7106
2026-01-04 23:11:52.38	93.40	33.97	-43.2	-44.5	20.6	0.00e+00	0	30	0	545259520	60	8223
2026-01-04 23:11:56.42	92.22	34.56	-42.8	-44.0	21.1	0.00e+00	86	30	0	553648128	60	7724
2026-01-04 23:12:00.46	91.00	35.15	-42.4	-43.6	21.5	0.00e+00	92	30	0	560988160	60	7378
2026-01-04 23:12:04.51	89.72	35.74	-43.2	-44.6	20.7	0.00e+00	0	30	0	568328192	60	8258
2026-01-04 23:12:08.55	88.41	36.32	-44.1	-45.7	19.6	0.00e+00	0	30	0	575668224	60	9422
2026-01-04 23:12:12.59	87.05	36.89	-44.4	-46.1	19.3	0.00e+00	51	30	0	584056832	60	9830
2026-01-04 23:12:16.64	85.63	37.45	-43.4	-44.7	20.4	0.00e+00	75	30	0	591396864	60	8384
2026-01-04 23:12:20.68	84.17	38.00	-42.4	-43.6	21.5	0.00e+00	0	30	0	598736896	60	7386
2026-01-04 23:12:24.73	82.65	38.54	-42.4	-43.6	21.5	0.00e+00	92	30	0	606076928	60	7345
2026-01-04 23:12:28.77	81.09	39.06	-41.3	-42.3	22.7	0.00e+00	92	30	0	614465536	60	6355
2026-01-04 23:12:32.81	79.48	39.57	-41.4	-42.4	22.5	0.00e+00	0	30	0	621805568	60	6459
2026-01-04 23:12:36.86	77.82	40.05	-41.0	-42.1	22.5	0.00e+00	0	30	0	629145600	60	6201
2026-01-04 23:12:40.90	76.10	40.52	-41.0	-42.1	22.6	0.00e+00	46	30	0	636485632	60	6231
2026-01-04 23:12:44.95	74.34	40.96	-40.8	-41.9	23.3	0.00e+00	90	30	0	643825664	60	6064
2026-01-04 23:12:48.99	72.53	41.37	-39.2	-40.0	24.3	0.00e+00	0	30	0	652214272	56	6141
2026-01-04 23:12:53.03	70.68	41.75	-39.1	-39.9	24.1	0.00e+00	0	30	0	659554304	56	6051
2026-01-04 23:12:57.08	68.78	42.11	-41.5	-42.7	22.4	0.00e+00	36	30	0	666894336	60	6621
2026-01-04 23:13:01.12	66.85	42.43	-41.5	-42.6	22.3	0.00e+00	0	30	0	674234368	60	6562
2026-01-04 23:13:05.16	64.88	42.71	-40.9	-41.9	22.9	0.00e+00	0	30	0	682622976	60	6044
2026-01-04 23:13:09.21	62.87	42.96	-41.0	-42.1	22.7	0.00e+00	92	30	0	689963008	60	6179
2026-01-04 23:13:13.25	60.83	43.17	-40.7	-41.6	23.3	0.00e+00	92	30	0	697303040	60	5887
2026-01-04 23:13:17.30	58.77	43.34	-41.5	-42.6	22.4	0.00e+00	0	30	0	704643072	60	6573
2026-01-04 23:13:21.34	56.70	43.46	-42.1	-43.4	21.7	0.00e+00	0	30	0	711983104	60	7172
2026-01-04 23:13:25.39	54.60	43.55	-41.8	-43.0	22.0	0.00e+00	27	30	0	720371712	60	6879
2026-01-04 23:13:29.43	52.50	43.59	-42.0	-43.2	21.8	0.00e+00	68	30	0	727711744	60	7018
2026-01-04 23:13:33.47	50.40	43.59	-42.6	-43.8	21.4	0.00e+00	0	30	0	735051776	60	7565
2026-01-04 23:13:37.52	48.30	43.54	-43.5	-44.9	20.3	0.00e+00	51	30	0	742391808	60	8558
2026-01-04 23:13:41.56	46.21	43.46	-43.4	-44.8	20.3	0.00e+00	92	30	0	750780416	60	8471
2026-01-04 23:13:45.60	44.14	43.33	-43.1	-44.4	20.7	0.00e+00	0	30	0	758120448	60	8109
2026-01-04 23:13:49.65	42.08	43.16	-44.4	-46.0	19.5	0.00e+00	0	30	0	765460480	60	9723
2026-01-04 23:13:53.69	40.05	42.95	-44.3	-46.0	19.3	0.00e+00	92	30	0	772800512	60	9680
2026-01-04 23:13:57.74	38.04	42.70	-41.1	-42.2	22.5	0.00e+00	90	30	0	781189120	60	6293
2026-01-04 23:14:01.78	36.08	42.41	-41.2	-42.3	22.7	0.00e+00	0	30	0	788529152	60	6345
2026-01-04 23:14:05.82	34.15	42.09	-39.8	-40.7	23.6	0.00e+00	0	30	0	795869184	58	5948
2026-01-04 23:14:09.87	32.25	41.73	-39.5	-40.4	23.9	0.00e+00	56	30	0	803209216	58	5699
2026-01-04 23:14:13.91	30.41	41.35	-40.8	-41.8	22.9	0.00e+00	0	30	0	811597824	58	6755
2026-01-04 23:14:17.96	28.60	40.94	-38.9	-39.7	24.6	0.00e+00	0	30	0	818937856	56	5930
2026-01-04 23:14:22.00	26.85	40.50	-38.6	-39.4	24.6	0.00e+00	58	30	0	826277888	54	6451
2026-01-04 23:14:26.05	25.14	40.03	-38.9	-39.8	24.4	0.00e+00	80	30	0	833617920	56	5967
2026-01-04 23:14:30.09	23.48	39.55	-38.7	-39.6	24.4	0.00e+00	0	30	0	840957952	54	6573
2026-01-04 23:14:34.13	21.88	39.04	-38.4	-39.2	24.6	0.00e+00	0	30	0	849346560	56	5627
2026-01-04 23:14:38.18	20.32	38.52	-38.9	-39.7	24.4	0.00e+00	90	30	0	856686592	54	6664
2026-01-04 23:14:42.22	18.82	37.98	-40.0	-40.9	23.8	0.00e+00	90	30	0	864026624	58	6080
2026-01-04 23:14:46.27	17.36	37.43	-40.4	-41.4	23.3	0.00e+00	0	30	0	871366656	60	5740
2026-01-04 23:14:50.31	15.95	36.87	-40.9	-42.0	23.0	0.00e+00	0	30	0	879755264	60	6113
2026-01-04 23:14:54.36	14.59	36.30	-40.5	-41.5	23.3	0.00e+00	56	30	0	887095296	58	6469
2026-01-04 23:14:58.40	13.28	35.72	-40.2	-41.1	23.5	0.00e+00	14	30	0	894435328	58	6198
2026-01-04 23:15:02.45	12.02	35.14	-40.8	-41.7	22.9	0.00e+00	0	30	0	901775360	58	6679
2026-01-04 23:15:06.49	10.80	34.55	-40.6	-41.4	23.1	0.00e+00	50	30	0	910163968	60	5757
2026-01-04 23:15:10.53	9.62	33.96	-42.1	-43.2	21.7	0.00e+00	0	30	0	917504000	60	7075
2026-01-04 23:15:14.58	8.49	33.36	-44.7	-46.5	18.9	0.00e+00	0	30	0	924844032	60	10268
2026-01-04 23:15:18.62	7.40	32.77	-44.2	-45.8	19.3	0.00e+00	0	30	0	932184064	60	9486
2026-01-04 23:15:22.67	6.35	32.17	-43.9	-45.4	19.7	0.00e+00	63	30	0	939524096	60	9118
2026-01-04 23:15:26.71	5.33	31.58	-42.5	-43.6	21.4	0.00e+00	0	30	0	947912704	60	7381
2026-01-04 23:15:30.75	4.36	30.99	-43.2	-44.4	20.8	0.00e+00	0	30	0	955252736	60	8132
2026-01-04 23:15:34.80	3.41	30.40	-42.4	-43.6	21.5	0.00e+00	0	30	0	962592768	60	7347
2026-01-04 23:15:38.84	2.51	29.82	-43.1	-44.4	21.0	0.00e+00	51	30	0	969932800	60	8054
2026-01-04 23:15:42.89	1.63	29.24	-41.6	-42.7	22.2	0.00e+00	0	30	0	978321408	60	6645
2026-01-04 23:15:46.93	0.79	28.66	-42.1	-43.2	21.7	0.00e+00	0	30	0	985661440	60	7076
2026-01-04 23:15:50.98	359.98	28.09	-42.3	-43.4	21.5	0.00e+00	19	30	0	993001472	60	7238
2026-01-04 23:15:55.02	359.19	27.52	-42.1	-43.2	21.7	0.00e+00	0	30	0	1000341504	60	7067
2026-01-04 23:15:59.06	358.44	26.96	-41.1	-42.2	22.5	0.00e+00	0	30	0	1008730112	60	6250
2026-01-04 23:16:03.11	357.70	26.41	-41.8	-42.9	22.0	0.00e+00	0	30	0	1016070144	60	6803
2026-01-04 23:16:07.15	357.00	25.86	-42.1	-43.3	21.6	0.00e+00	18	30	0	1023410176	60	7093
2026-01-04 23:16:11.20	356.32	25.32	-40.5	-41.4	23.2	0.00e+00	0	30	0	1030750208	60	5734
2026-01-04 23:16:15.24	355.66	24.79	-41.3	-42.3	22.5	0.00e+00	0	30	0	1038090240	60	6350
2026-01-04 23:16:19.28	355.03	24.26	-41.6	-42.7	22.0	0.00e+00	0	30	0	1046478848	60	6688
2026-01-04 23:16:23.33	354.41	23.74	-43.0	-44.3	20.7	0.00e+00	92	30	0	1053818880	60	8002
2026-01-04 23:16:27.37	353.82	23.22	-43.3	-44.6	20.6	0.00e+00	0	30	0	1061158912	60	8306
2026-01-04 23:16:31.42	353.24	22.72	-41.6	-42.7	22.0	0.00e+00	0	30	0	1068498944	60	6635
2026-01-04 23:16:35.46	352.69	22.22	-40.8	-41.8	22.7	0.00e+00	18	30	0	1076887552	60	5998
2026-01-04 23:16:39.51	352.15	21.72	-41.1	-42.1	22.4	0.00e+00	0	30	0	1084227584	60	6214
2026-01-04 23:16:43.55	351.63	21.24	-41.4	-42.5	22.2	0.00e+00	0	30	0	1091567616	60	6527
2026-01-04 23:16:47.59	351.13	20.76	-41.0	-42.0	22.6	0.00e+00	0	30	0	1098907648	60	6147
2026-01-04 23:16:51.64	350.64	20.28	-41.3	-42.3	22.3	0.00e+00	47	30	0	1107296256	60	6384
2026-01-04 23:16:55.68	350.17	19.82	-42.9	-44.2	20.7	0.00e+00	0	30	0	1114636288	60	7909
2026-01-04 23:16:59.73	349.71	19.36	-43.4	-44.9	20.2	0.00e+00	0	30	0	1121976320	60	8549
2026-01-04 23:17:03.77	349.27	18.90	-42.6	-43.9	21.0	0.00e+00	17	30	0	1129316352	60	7672
2026-01-04 23:17:07.81	348.83	18.46	-41.9	-43.1	21.7	0.00e+00	51	30	0	1136656384	60	6947
2026-01-04 23:17:11.86	348.42	18.01	-41.4	-42.5	22.1	0.00e+00	0	30	0	1145044992	60	6480
2026-01-04 23:17:15.90	348.01	17.58	-41.4	-42.5	22.1	0.00e+00	0	30	0	1152385024	60	6516
2026-01-04 23:17:19.95	347.62	17.15	-41.6	-42.7	22.0	0.00e+00	51	30	0	1159725056	60	6624
2026-01-04 23:17:23.99	347.23	16.73	-41.9	-43.1	21.7	0.00e+00	7	30	0	1167065088	60	6956
2026-01-04 23:17:28.04	346.86	16.31	-42.1	-43.3	21.6	0.00e+00	0	30	0	1175453696	60	7151
2026-01-04 23:17:32.08	346.50	15.90	-41.9	-43.1	21.5	0.00e+00	0	30	0	1182793728	60	6990
2026-01-04 23:17:36.12	346.15	15.50	-42.8	-44.1	20.6	0.00e+00	24	30	0	1190133760	60	7830
2026-01-04 23:17:40.17	345.81	15.10	-43.5	-45.0	20.0	0.00e+00	0	30	0	1197473792	60	8625
2026-01-04 23:17:44.21	345.48	14.70	-43.3	-44.8	20.0	0.00e+00	0	30	0	1205862400	60	8476
2026-01-04 23:17:48.26	345.15	14.31	-42.6	-43.9	20.8	0.00e+00	17	30	0	1213202432	60	7674
2026-01-04 23:17:52.30	344.84	13.93	-42.1	-43.3	21.3	0.00e+00	92	30	0	1220542464	60	7125
2026-01-04 23:17:56.35	344.53	13.55	-42.1	-43.3	21.3	0.00e+00	0	30	0	1227882496	60	7108
2026-01-04 23:18:00.39	344.24	13.18	-42.2	-43.4	21.2	0.00e+00	0	30	0	1235222528	60	7227
2026-01-04 23:18:04.43	343.95	12.81	-42.3	-43.6	21.0	0.00e+00	40	30	0	1243611136	60	7376
2026-01-04 23:18:08.48	343.66	12.45	-42.6	-43.9	20.7	0.00e+00	0	30	0	1250951168	60	7656
2026-01-04 23:18:12.52	343.39	12.09	-43.1	-44.5	20.3	0.00e+00	0	30	0	1258291200	60	8168
2026-01-04 23:18:16.57	343.12	11.73	-43.4	-44.9	20.0	0.00e+00	0	30	0	1265631232	60	8553
2026-01-04 23:18:20.61	342.86	11.38	-43.1	-44.5	20.1	0.00e+00	43	30	0	1274019840	60	8168
2026-01-04 23:18:24.66	342.60	11.04	-43.2	-44.5	20.3	0.00e+00	0	30	0	1281359872	60	8228
2026-01-04 23:18:28.70	342.35	10.69	-43.1	-44.5	20.2	0.00e+00	0	30	0	1288699904	60	8191
2026-01-04 23:18:32.75	342.11	10.36	-42.9	-44.3	20.1	0.00e+00	0	30	0	1296039936	60	7982
2026-01-04 23:18:36.79	341.87	10.02	-43.1	-44.5	20.3	0.00e+00	52	30	0	1304428544	60	8199
2026-01-04 23:18:40.83	341.64	9.69	-42.9	-44.3	20.3	0.00e+00	0	30	0	1311768576	60	7983
2026-01-04 23:18:44.88	341.42	9.37	-43.2	-44.6	20.3	0.00e+00	0	30	0	1319108608	60	8247
2026-01-04 23:18:48.92	341.20	9.05	-43.7	-45.3	19.9	0.00e+00	46	30	0	1326448640	60	8932
2026-01-04 23:18:52.97	340.98	8.73	-43.3	-44.8	19.9	0.00e+00	0	30	0	1334837248	60	8454
2026-01-04 23:18:57.01	340.77	8.41	-43.4	-45.0	19.6	0.00e+00	0	30	0	1342177280	60	8635
2026-01-04 23:19:01.06	340.57	8.10	-44.1	-45.8	18.8	0.00e+00	0	30	0	1349517312	60	9529
2026-01-04 23:19:05.10	340.37	7.79	-44.2	-46.0	18.8	0.00e+00	17	30	0	1356857344	60	9702
2026-01-04 23:19:09.14	340.17	7.49	-44.2	-46.0	18.6	0.00e+00	0	30	0	1364197376	60	9720
2026-01-04 23:19:13.19	339.98	7.19	-44.3	-46.1	18.3	0.00e+00	0	30	0	1372585984	60	9853
2026-01-04 23:19:17.23	339.79	6.89	-44.1	-45.8	18.9	0.00e+00	0	30	0	1379926016	60	9537
2026-01-04 23:19:21.28	339.61	6.59	-44.1	-45.9	18.6	0.00e+00	92	30	0	1387266048	60	9618
2026-01-04 23:19:25.32	339.43	6.30	-44.3	-46.1	18.3	0.00e+00	0	30	0	1394606080	60	9831
2026-01-04 23:19:29.37	339.25	6.01	-44.3	-46.2	18.0	0.00e+00	0	30	0	1402994688	60	9982
2026-01-04 23:19:33.41	339.08	5.73	-44.4	-46.4	17.8	0.00e+00	46	30	0	1410334720	60	10209
2026-01-04 23:19:37.46	338.91	5.44	-44.7	-46.9	16.9	0.00e+00	0	30	0	1417674752	60	10787
2026-01-04 23:19:41.50	338.75	5.16	-45.4	-48.3	15.1	0.00e+00	0	30	0	1425014784	60	12616
2026-01-04 23:19:45.55	338.58	4.89	-45.9	-49.9	12.7	9.76e-05	0	30	0	1432354816	60	15209
2026-01-04 23:19:49.59	338.43	4.61	-46.5	-52.8	8.5	2.08e-02	81	30	0	1440743424	60	21258
2026-01-04 23:19:53.63	338.27	4.34	-46.4	-55.0	5.2	3.57e-01	0	30	0	1448083456	60	27318
2026-01-04 23:19:57.68	338.12	4.07	-46.3	-59.5	3.7	1.50e+00	0	30	104	1452277760	60	46002
2026-01-04 23:20:01.72	337.97	3.80	-46.3	-61.0	3.6	1.51e+00	0	30	104	1452277760	60	54667
2026-01-04 23:20:05.77	337.83	3.54	-46.2	-61.4	3.6	1.51e+00	0	30	104	1452277760	60	57521
2026-01-04 23:20:09.81	337.68	3.27	-46.2	-61.5	3.6	1.51e+00	0	30	104	1452277760	60	57822
2026-01-04 23:20:13.86	337.54	3.01	-50.2	-65.7	3.6	1.51e+00	0	30	104	1452277760	60	93483
2026-01-04 23:20:17.90	337.41	2.76	-51.3	-66.7	3.6	1.51e+00	0	30	104	1452277760	60	104850
2026-01-04 23:20:21.94	337.27	2.50	-51.3	-66.8	3.6	1.51e+00	0	30	104	1452277760	60	106096
2026-01-04 23:20:25.99	337.14	2.24	-51.3	-66.7	3.6	1.51e+00	0	30	104	1452277760	60	106059
2026-01-04 23:20:30.03	337.01	1.99	-51.3	-66.7	3.6	1.51e+00	0	30	104	1452277760	60	105220
2026-01-04 23:20:34.08	336.88	1.74	-51.5	-66.8	3.6	1.51e+00	0	30	104	1452277760	60	107010
2026-01-04 23:20:38.12	336.76	1.50	-51.4	-66.8	3.6	1.51e+00	0	30	104	1452277760	60	106568
2026-01-04 23:20:42.17	336.64	1.25	-51.4	-66.7	3.6	1.51e+00	0	31	104	1452277760	60	106055
2026-01-04 23:20:46.21	336.52	1.01	-51.4	-66.8	3.6	1.51e+00	0	30	104	1452277760	60	106355
2026-01-04 23:20:50.25	336.40	0.76	-51.3	-66.7	3.6	1.51e+00	0	30	104	1452277760	60	105341
2026-01-04 23:20:54.29	336.28	0.52	-51.5	-66.8	3.6	1.51e+00	0	30	104	1452277760	60	106992
2026-01-04 23:20:58.34	336.17	0.29	-51.4	-66.8	3.6	1.51e+00	0	30	104	1452277760	60	106908
2026-01-04 23:21:02.38	336.06	0.05	-51.4	-66.7	3.6	1.51e+00	0	31	104	1452277760	60	106041

#Closed at: 2026-01-04 23:21:05
#Recorded file [1452 MB]: D:/lorett/data/35034_260105_020604.dat