passes_logs/2026/01/04/R4.6S_Anadyr_2ch/R4.6S_Anadyr_2ch__20260104_214327_TY-42_rec.log

#Pass ID: 20260104_214327_TY-42
#Satellite: TY-42
#Configuration: TY-42_900M
#almurnet v.1.7.20251203
#Start time: 2026-01-04 21:43:57

#Version: 2.2.20231116
#Station: R4.6S_Anadyr_2ch
#Location: 177.4865 lon 64.73178 lat
#TLE: 1 64048U 25103A   25351.20653935  .00008008  00000-0  38191-3 0 09993
#TLE: 2 64048 097.4116 062.1676 0001744 093.8066 035.1511 15.19160500 32445

#Time	Az	El	Level	Level2	SNR	BER	BlckErr	Temp	State	Recorded	gain1	gain2
2026-01-04 21:43:57.23	25.85	1.64	-51.4	-66.7	3.5	1.51e+00	0	27	0	0	60	105411
2026-01-04 21:44:00.26	26.16	1.81	-51.5	-54.0	6.1	0.00e+00	0	28	104	0	60	83397
2026-01-04 21:44:03.30	26.48	1.98	-52.1	-54.5	6.1	0.00e+00	0	28	104	0	60	88824
2026-01-04 21:44:06.33	26.81	2.15	-51.8	-54.3	6.1	0.00e+00	0	28	104	0	60	86435
2026-01-04 21:44:09.36	27.14	2.32	-51.4	-53.9	6.1	0.00e+00	0	28	104	0	60	82899
2026-01-04 21:44:12.40	27.48	2.49	-51.3	-53.8	6.1	0.00e+00	0	29	104	0	60	81784
2026-01-04 21:44:15.43	27.81	2.66	-51.4	-53.8	6.1	0.00e+00	0	29	104	0	60	81874
2026-01-04 21:44:18.46	28.16	2.84	-51.6	-54.1	6.1	0.00e+00	0	29	104	0	60	84787
2026-01-04 21:44:21.50	28.51	3.01	-52.0	-54.5	6.1	0.00e+00	0	29	104	0	60	88953
2026-01-04 21:44:24.53	28.86	3.19	-52.0	-54.4	6.1	0.00e+00	0	29	104	0	60	87939
2026-01-04 21:44:27.56	29.22	3.36	-52.0	-54.5	6.1	0.00e+00	0	29	104	0	60	88955
2026-01-04 21:44:30.60	29.59	3.54	-51.6	-54.1	6.1	0.00e+00	0	29	104	0	60	84631
2026-01-04 21:44:33.63	29.96	3.72	-51.8	-54.3	6.1	0.00e+00	0	29	104	0	60	86662
2026-01-04 21:44:36.66	30.33	3.89	-52.3	-54.7	6.1	0.00e+00	0	29	104	0	60	91085
2026-01-04 21:44:39.69	30.72	4.07	-51.8	-54.3	6.1	0.00e+00	0	29	104	0	60	86452
2026-01-04 21:44:42.73	31.10	4.25	-51.8	-54.2	6.1	0.00e+00	0	29	104	0	60	86161
2026-01-04 21:44:45.76	31.50	4.43	-51.4	-53.9	6.1	0.00e+00	0	29	104	0	60	82566
2026-01-04 21:44:48.79	31.90	4.61	-52.1	-54.5	6.1	0.00e+00	0	29	104	0	60	88969
2026-01-04 21:44:51.82	32.30	4.79	-51.9	-54.4	6.1	0.00e+00	0	29	104	0	60	87606
2026-01-04 21:44:54.86	32.71	4.98	-51.8	-54.3	6.1	0.00e+00	0	29	104	0	60	87004
2026-01-04 21:44:57.89	33.13	5.16	-51.8	-54.3	6.1	0.00e+00	0	30	104	0	60	87201
2026-01-04 21:45:00.92	33.55	5.34	-51.9	-54.5	6.1	0.00e+00	0	29	104	0	60	88485
2026-01-04 21:45:03.96	33.99	5.52	-51.6	-54.1	6.1	0.00e+00	0	29	104	0	60	84817
2026-01-04 21:45:06.99	34.42	5.71	-51.8	-54.3	6.0	0.00e+00	0	30	104	0	60	86995
2026-01-04 21:45:10.02	34.87	5.89	-51.6	-54.1	6.1	0.00e+00	0	30	104	0	60	84474
2026-01-04 21:45:13.05	35.32	6.08	-52.1	-54.6	6.1	0.00e+00	0	30	104	0	60	89681
2026-01-04 21:45:16.09	35.78	6.26	-51.4	-53.9	6.1	0.00e+00	0	30	104	0	60	82681
2026-01-04 21:45:19.12	36.24	6.45	-51.7	-54.1	6.1	0.00e+00	0	30	104	0	60	85125
2026-01-04 21:45:22.15	36.71	6.64	-52.2	-54.7	6.1	0.00e+00	0	30	104	0	60	90492
2026-01-04 21:45:25.19	37.19	6.82	-51.6	-54.1	6.1	0.00e+00	0	30	104	0	60	84928
2026-01-04 21:45:28.22	37.68	7.01	-51.6	-54.1	6.1	0.00e+00	0	30	104	0	60	84529
2026-01-04 21:45:31.25	38.17	7.20	-51.8	-54.3	6.1	0.00e+00	0	30	104	0	60	86569
2026-01-04 21:45:34.28	38.68	7.39	-51.7	-54.1	6.1	0.00e+00	0	30	104	0	60	84939
2026-01-04 21:45:37.32	39.19	7.57	-51.6	-54.0	6.1	0.00e+00	0	30	104	0	60	84157
2026-01-04 21:45:40.35	39.71	7.76	-51.9	-54.4	6.1	0.00e+00	0	30	104	0	60	88065
2026-01-04 21:45:43.38	40.23	7.95	-51.7	-54.1	6.1	0.00e+00	0	30	104	0	60	84873
2026-01-04 21:45:46.42	40.77	8.14	-51.7	-54.2	6.1	0.00e+00	0	30	104	0	60	85954
2026-01-04 21:45:49.45	41.31	8.33	-51.5	-53.9	6.1	0.00e+00	0	30	104	0	60	82940
2026-01-04 21:45:52.48	41.86	8.52	-51.8	-54.3	6.1	0.00e+00	0	30	104	0	60	86362
2026-01-04 21:45:55.51	42.42	8.70	-51.9	-54.4	6.1	0.00e+00	0	30	104	0	60	87545
2026-01-04 21:45:58.54	42.99	8.89	-51.5	-53.9	6.1	0.00e+00	0	30	104	0	60	83137
2026-01-04 21:46:01.58	43.57	9.08	-51.3	-53.8	6.1	0.00e+00	0	30	104	0	60	81943
2026-01-04 21:46:04.61	44.16	9.27	-51.1	-53.6	6.1	0.00e+00	0	30	104	0	60	80158
2026-01-04 21:46:07.64	44.75	9.45	-50.7	-53.2	6.1	0.00e+00	0	30	104	0	60	76474
2026-01-04 21:46:10.68	45.36	9.64	-50.1	-52.6	6.1	0.00e+00	0	30	104	0	60	71441
2026-01-04 21:46:13.71	45.97	9.83	-49.4	-52.0	6.1	0.00e+00	0	30	104	0	60	66735
2026-01-04 21:46:16.74	46.60	10.01	-49.4	-51.9	6.1	0.00e+00	0	30	104	0	60	65417
2026-01-04 21:46:19.78	47.23	10.20	-49.4	-51.9	6.1	0.00e+00	0	31	104	0	60	65744
2026-01-04 21:46:22.81	47.88	10.38	-49.4	-51.9	6.1	0.00e+00	0	30	104	0	60	65695
2026-01-04 21:46:25.84	48.53	10.56	-49.4	-51.9	6.1	0.00e+00	0	30	104	0	60	65539
2026-01-04 21:46:28.87	49.19	10.74	-49.4	-51.9	6.1	0.00e+00	0	30	104	0	60	65658
2026-01-04 21:46:31.91	49.87	10.92	-49.4	-51.9	6.1	0.00e+00	0	31	104	0	60	65760
2026-01-04 21:46:34.94	50.55	11.10	-49.4	-51.9	6.1	0.00e+00	0	30	104	0	60	65643
2026-01-04 21:46:37.97	51.24	11.28	-49.4	-51.9	6.1	0.00e+00	0	30	104	0	60	65416
2026-01-04 21:46:41.00	51.94	11.46	-49.4	-51.9	6.1	0.00e+00	0	31	104	0	60	65748
2026-01-04 21:46:44.03	52.65	11.63	-49.4	-51.9	6.1	0.00e+00	0	31	104	0	60	65895
2026-01-04 21:46:47.06	53.37	11.80	-49.4	-52.0	6.1	0.00e+00	0	31	104	0	60	66340
2026-01-04 21:46:50.09	54.11	11.97	-49.2	-51.7	6.1	0.00e+00	0	31	104	0	60	63998
2026-01-04 21:46:53.13	54.85	12.14	-49.7	-52.1	6.1	0.00e+00	0	31	104	0	60	67419
2026-01-04 21:46:56.16	55.60	12.30	-49.7	-52.2	6.1	0.00e+00	0	31	104	0	60	68324
2026-01-04 21:46:59.19	56.36	12.47	-48.7	-50.7	6.1	0.00e+00	0	31	104	0	60	57357
2026-01-04 21:47:02.22	57.14	12.63	-46.4	-47.7	6.6	0.00e+00	0	31	104	0	60	40761
2026-01-04 21:47:05.26	57.92	12.79	-41.6	-42.1	10.6	0.00e+00	0	31	104	8388608	60	21188
2026-01-04 21:47:08.29	58.71	12.94	-30.4	-30.7	15.6	4.18e-02	0	31	0	218103808	40	18181
2026-01-04 21:47:11.33	59.52	13.09	-29.6	-30.0	15.9	4.03e-04	0	31	0	562036736	40	16722
2026-01-04 21:47:14.36	60.33	13.24	-29.0	-29.4	16.1	2.02e-04	0	31	0	897581056	38	17495
2026-01-04 21:47:17.39	61.15	13.38	-29.4	-29.8	16.1	1.80e-04	0	31	0	1241513984	38	18364
2026-01-04 21:47:20.42	61.98	13.53	-28.9	-29.3	16.3	2.18e-04	0	31	0	1585446912	38	17349
2026-01-04 21:47:23.46	62.82	13.66	-29.7	-30.2	16.3	8.17e-05	0	31	0	1929379840	38	19113
2026-01-04 21:47:26.49	63.67	13.80	-29.1	-29.5	16.4	1.74e-04	0	31	0	2264924160	38	17789
2026-01-04 21:47:29.52	64.53	13.92	-29.4	-29.9	16.3	2.23e-04	0	31	0	2608857088	40	16447
2026-01-04 21:47:32.56	65.39	14.05	-30.2	-30.6	16.1	3.49e-04	0	31	0	2952790016	40	17970
2026-01-04 21:47:35.59	66.27	14.17	-29.6	-30.0	16.3	3.49e-04	0	31	0	3288334336	40	16788
2026-01-04 21:47:38.63	67.15	14.28	-30.0	-30.5	16.2	1.69e-04	0	31	0	3632267264	40	17637
2026-01-04 21:47:41.66	68.04	14.39	-29.4	-29.9	16.4	1.58e-04	0	31	0	3976200192	40	16474
2026-01-04 21:47:44.69	68.94	14.50	-29.7	-30.1	16.3	2.29e-04	0	31	0	4311744512	40	16911
2026-01-04 21:47:47.72	69.85	14.60	-29.2	-29.6	16.5	2.02e-04	0	31	0	4655677440	40	16039
2026-01-04 21:47:50.76	70.76	14.69	-29.1	-29.5	16.4	1.14e-04	0	31	0	4999610368	38	17694
2026-01-04 21:47:53.79	71.68	14.78	-29.0	-29.5	16.5	1.25e-04	0	31	0	5335154688	38	17667
2026-01-04 21:47:56.82	72.60	14.86	-29.0	-29.4	16.6	7.08e-05	0	31	0	5679087616	38	17569
2026-01-04 21:47:59.86	73.54	14.94	-28.8	-29.2	16.6	6.53e-05	0	31	0	6023020544	38	17198
2026-01-04 21:48:02.89	74.47	15.01	-28.8	-29.2	16.7	4.35e-05	0	31	0	6358564864	38	17167
2026-01-04 21:48:05.92	75.42	15.07	-28.5	-29.0	16.5	2.17e-05	0	31	0	6702497792	38	16693
2026-01-04 21:48:08.96	76.36	15.13	-28.4	-28.8	16.4	7.62e-05	0	31	0	7046430720	38	16400
2026-01-04 21:48:11.99	77.31	15.19	-28.2	-28.7	16.7	3.26e-05	0	31	0	7381975040	38	16162
2026-01-04 21:48:15.02	78.27	15.23	-28.2	-28.7	16.7	2.72e-05	0	32	0	7725907968	38	16125
2026-01-04 21:48:18.06	79.23	15.27	-27.9	-28.4	16.9	2.17e-05	0	32	0	8069840896	36	17487
2026-01-04 21:48:21.09	80.19	15.30	-27.9	-28.4	16.8	2.17e-05	0	32	0	8405385216	36	17483
2026-01-04 21:48:24.12	81.15	15.33	-28.0	-28.5	16.9	1.63e-05	0	32	0	8749318144	36	17639
2026-01-04 21:48:27.16	82.12	15.35	-27.3	-27.8	17.0	1.08e-05	0	32	0	9093251072	36	16277
2026-01-04 21:48:30.19	83.08	15.36	-27.8	-28.3	16.9	1.63e-05	0	32	0	9428795392	36	17281
2026-01-04 21:48:33.22	84.05	15.37	-27.5	-28.0	16.8	5.40e-06	0	32	0	9772728320	36	16637
2026-01-04 21:48:36.25	85.01	15.36	-27.6	-28.0	16.8	2.72e-05	0	32	0	10116661248	36	16795
2026-01-04 21:48:39.29	85.98	15.36	-27.6	-28.1	16.9	1.63e-05	0	32	0	10452205568	36	16967
2026-01-04 21:48:42.32	86.95	15.34	-26.9	-27.4	17.0	0.00e+00	0	32	0	10796138496	34	17448
2026-01-04 21:48:45.35	87.91	15.32	-27.0	-27.5	16.9	5.40e-06	0	32	0	11140071424	34	17754
2026-01-04 21:48:48.39	88.87	15.29	-27.3	-27.8	16.8	1.08e-05	0	32	0	11475615744	34	18225
2026-01-04 21:48:51.42	89.83	15.26	-27.4	-27.9	16.8	2.72e-05	0	32	0	11819548672	34	18598
2026-01-04 21:48:54.45	90.79	15.21	-27.1	-27.6	16.8	2.72e-05	0	32	0	12163481600	34	17817
2026-01-04 21:48:57.49	91.75	15.17	-27.4	-27.8	16.8	1.08e-05	0	32	0	12499025920	34	18417
2026-01-04 21:49:00.52	92.70	15.11	-27.5	-28.0	16.9	1.08e-05	0	32	0	12842958848	34	18741
2026-01-04 21:49:03.55	93.64	15.05	-27.1	-27.6	16.7	5.40e-06	0	32	0	13186891776	34	17825
2026-01-04 21:49:06.59	94.59	14.98	-26.9	-27.4	16.7	5.40e-06	0	32	0	13522436096	34	17513
2026-01-04 21:49:09.62	95.52	14.91	-27.1	-27.6	16.8	2.17e-05	0	32	0	13866369024	34	17846
2026-01-04 21:49:12.65	96.45	14.83	-27.5	-28.0	16.7	5.40e-06	0	32	0	14210301952	34	18651
2026-01-04 21:49:15.68	97.38	14.74	-27.1	-27.6	16.5	5.40e-06	0	32	0	14545846272	34	17852
2026-01-04 21:49:18.71	98.30	14.65	-27.9	-28.3	16.5	3.81e-05	0	32	0	14889779200	34	19484
2026-01-04 21:49:21.74	99.21	14.56	-27.3	-27.8	16.5	2.17e-05	0	32	0	15225323520	34	18320
2026-01-04 21:49:24.77	100.11	14.45	-27.0	-27.4	16.9	3.81e-05	0	32	0	15569256448	34	17602
2026-01-04 21:49:27.81	101.01	14.35	-26.7	-27.2	16.7	1.08e-05	0	32	0	15913189376	34	17121
2026-01-04 21:49:30.84	101.90	14.23	-26.6	-27.1	16.9	5.40e-06	0	32	0	16248733696	34	16924
2026-01-04 21:49:33.87	102.79	14.12	-26.4	-26.9	16.7	5.40e-06	0	32	0	16592666624	34	16473
2026-01-04 21:49:36.91	103.66	13.99	-26.3	-26.7	16.9	0.00e+00	0	32	0	16936599552	34	16216
2026-01-04 21:49:39.94	104.53	13.87	-26.1	-26.6	16.8	5.40e-06	0	32	0	17272143872	32	17829
2026-01-04 21:49:42.97	105.39	13.74	-25.9	-26.4	16.7	0.00e+00	0	32	0	17616076800	32	17502
2026-01-04 21:49:46.01	106.24	13.60	-25.9	-26.4	16.6	1.08e-05	0	32	0	17960009728	32	17550
2026-01-04 21:49:49.04	107.08	13.46	-25.9	-26.4	16.5	0.00e+00	0	32	0	18303942656	32	17401
2026-01-04 21:49:52.07	107.90	13.32	-25.7	-26.2	16.7	0.00e+00	0	32	0	18639486976	32	17038
2026-01-04 21:49:55.11	108.73	13.17	-25.9	-26.4	17.0	5.40e-06	0	32	0	18983419904	32	17416
2026-01-04 21:49:58.14	109.54	13.02	-25.8	-26.3	16.9	0.00e+00	0	32	0	19327352832	32	17258
2026-01-04 21:50:01.17	110.34	12.87	-25.8	-26.2	17.1	0.00e+00	0	32	0	19662897152	32	17190
2026-01-04 21:50:04.20	111.13	12.71	-25.6	-26.0	17.0	0.00e+00	0	32	0	20006830080	32	16784
2026-01-04 21:50:07.24	111.91	12.55	-25.7	-26.2	16.6	0.00e+00	0	32	0	20350763008	32	17094
2026-01-04 21:50:10.27	112.69	12.39	-25.5	-26.0	17.1	0.00e+00	0	32	0	20694695936	32	16775
2026-01-04 21:50:13.30	113.45	12.22	-25.7	-26.2	16.9	0.00e+00	0	32	0	21030240256	32	17095
2026-01-04 21:50:16.34	114.20	12.06	-25.6	-26.1	16.8	0.00e+00	0	32	0	21374173184	32	16869
2026-01-04 21:50:19.37	114.94	11.89	-25.6	-26.1	16.7	5.40e-06	0	32	0	21718106112	32	16857
2026-01-04 21:50:22.40	115.67	11.71	-25.6	-26.1	17.0	0.00e+00	0	32	0	22053650432	32	16913
2026-01-04 21:50:25.43	116.40	11.54	-25.6	-26.1	17.0	0.00e+00	0	32	0	22397583360	32	16925
2026-01-04 21:50:28.47	117.11	11.36	-25.9	-26.3	17.0	0.00e+00	0	32	0	22741516288	32	17331
2026-01-04 21:50:31.50	117.81	11.19	-25.8	-26.3	17.0	0.00e+00	0	32	0	23077060608	32	17213
2026-01-04 21:50:34.54	118.50	11.01	-25.8	-26.2	17.0	0.00e+00	0	32	0	23420993536	32	17114
2026-01-04 21:50:37.57	119.18	10.82	-25.8	-26.3	16.4	5.40e-06	0	32	0	23764926464	32	17266
2026-01-04 21:50:40.60	119.86	10.64	-26.1	-26.5	16.7	1.63e-05	0	32	0	24108859392	32	17763
2026-01-04 21:50:43.64	120.52	10.46	-26.0	-26.4	16.9	1.08e-05	0	32	0	24444403712	32	17537
2026-01-04 21:50:46.67	121.17	10.27	-25.9	-26.3	16.7	0.00e+00	0	32	0	24788336640	32	17381
2026-01-04 21:50:49.70	121.81	10.09	-25.9	-26.4	16.6	0.00e+00	0	32	0	25132269568	32	17430
2026-01-04 21:50:52.74	122.45	9.90	-26.1	-26.6	16.8	5.40e-06	0	32	0	25467813888	32	17897
2026-01-04 21:50:55.77	123.07	9.72	-25.7	-26.1	16.8	0.00e+00	0	32	0	25811746816	32	16935
2026-01-04 21:50:58.80	123.68	9.53	-25.5	-26.0	16.9	0.00e+00	0	32	0	26155679744	32	16624
2026-01-04 21:51:01.84	124.29	9.34	-25.5	-25.9	16.9	0.00e+00	0	32	0	26491224064	32	16561
2026-01-04 21:51:04.87	124.88	9.15	-25.9	-26.3	16.8	0.00e+00	0	32	0	26835156992	32	17340
2026-01-04 21:51:07.90	125.47	8.96	-25.6	-26.0	16.8	5.40e-06	0	32	0	27179089920	32	16768
2026-01-04 21:51:10.93	126.05	8.77	-25.6	-26.1	16.8	0.00e+00	0	32	0	27514634240	32	16839
2026-01-04 21:51:13.97	126.62	8.58	-25.6	-26.1	16.8	5.40e-06	0	32	0	27858567168	32	16867
2026-01-04 21:51:17.00	127.18	8.39	-25.7	-26.2	16.7	0.00e+00	0	32	0	28202500096	32	17031
2026-01-04 21:51:20.03	127.73	8.20	-25.8	-26.2	16.8	0.00e+00	0	32	0	28538044416	32	17117
2026-01-04 21:51:23.07	128.27	8.01	-25.9	-26.4	16.7	0.00e+00	0	32	0	28881977344	32	17408
2026-01-04 21:51:26.10	128.80	7.82	-25.9	-26.3	16.7	0.00e+00	0	32	0	29225910272	32	17368
2026-01-04 21:51:29.13	129.33	7.63	-25.7	-26.1	16.7	0.00e+00	0	32	0	29561454592	32	16980
2026-01-04 21:51:32.16	129.84	7.44	-25.7	-26.1	16.7	0.00e+00	0	32	0	29905387520	32	16871
2026-01-04 21:51:35.19	130.35	7.25	-25.7	-26.2	16.7	0.00e+00	0	32	0	30240931840	32	17016
2026-01-04 21:51:38.22	130.85	7.06	-26.0	-26.4	16.7	1.08e-05	0	32	0	30584864768	32	17470
2026-01-04 21:51:41.26	131.35	6.87	-25.7	-26.1	16.8	0.00e+00	0	32	0	30928797696	32	16930
2026-01-04 21:51:44.29	131.83	6.69	-25.7	-26.1	16.8	0.00e+00	0	32	0	31264342016	32	16898
2026-01-04 21:51:47.32	132.31	6.50	-26.0	-26.4	16.7	5.40e-06	0	32	0	31608274944	32	17448
2026-01-04 21:51:50.36	132.78	6.31	-25.8	-26.2	16.7	0.00e+00	0	32	0	31952207872	32	17169
2026-01-04 21:51:53.39	133.25	6.12	-26.0	-26.5	16.8	0.00e+00	0	32	0	32287752192	32	17631
2026-01-04 21:51:56.42	133.70	5.94	-25.9	-26.3	16.8	0.00e+00	0	32	0	32631685120	32	17253
2026-01-04 21:51:59.46	134.15	5.75	-26.0	-26.4	16.8	5.40e-06	0	32	0	32975618048	32	17481
2026-01-04 21:52:02.49	134.60	5.56	-25.9	-26.3	16.9	0.00e+00	0	32	0	33311162368	32	17318
2026-01-04 21:52:05.53	135.03	5.38	-26.1	-26.5	16.9	0.00e+00	0	32	0	33655095296	32	17675
2026-01-04 21:52:08.56	135.46	5.19	-27.2	-27.6	16.9	0.00e+00	0	32	0	33999028224	32	20029
2026-01-04 21:52:11.59	135.88	5.01	-26.5	-26.9	16.9	0.00e+00	0	32	0	34334572544	34	16523
2026-01-04 21:52:14.63	136.30	4.82	-26.4	-26.8	17.0	0.00e+00	0	32	0	34678505472	34	16326
2026-01-04 21:52:17.66	136.71	4.64	-26.6	-27.0	16.7	0.00e+00	0	32	0	35022438400	34	16808
2026-01-04 21:52:20.69	137.11	4.46	-26.5	-26.9	16.8	0.00e+00	0	32	0	35357982720	34	16559
2026-01-04 21:52:23.72	137.51	4.28	-26.2	-26.6	16.9	0.00e+00	0	32	0	35701915648	34	15953
2026-01-04 21:52:26.76	137.90	4.10	-50.7	-53.2	6.1	0.00e+00	0	32	104	35978739712	60	76645
2026-01-04 21:52:29.79	138.29	3.92	-50.8	-53.2	6.1	5.40e-06	0	32	104	35978739712	60	76412
2026-01-04 21:52:32.82	138.67	3.74	-50.7	-53.2	6.1	5.40e-06	0	32	104	35978739712	60	76597
2026-01-04 21:52:35.85	139.04	3.56	-50.8	-53.3	6.1	5.40e-06	0	32	104	35978739712	60	77232
2026-01-04 21:52:38.89	139.41	3.38	-50.8	-53.2	6.1	5.40e-06	0	32	104	35978739712	60	76834
2026-01-04 21:52:41.92	139.77	3.20	-50.9	-53.3	6.1	0.00e+00	0	32	104	35978739712	60	77495
2026-01-04 21:52:44.95	140.13	3.03	-50.8	-53.3	6.1	0.00e+00	0	32	104	35978739712	60	76869
2026-01-04 21:52:47.98	140.48	2.85	-50.6	-53.1	6.1	0.00e+00	0	32	104	35978739712	60	75503
2026-01-04 21:52:51.02	140.83	2.67	-50.8	-53.2	6.1	0.00e+00	0	32	104	35978739712	60	76782
2026-01-04 21:52:54.05	141.18	2.50	-50.8	-53.3	6.1	0.00e+00	0	32	104	35978739712	60	76852
2026-01-04 21:52:57.08	141.51	2.33	-50.7	-53.2	6.1	0.00e+00	0	32	104	35978739712	60	76607
2026-01-04 21:53:00.12	141.85	2.15	-50.7	-53.2	6.1	0.00e+00	0	32	104	35978739712	60	76479
2026-01-04 21:53:03.15	142.17	1.98	-50.8	-53.3	6.1	0.00e+00	0	32	104	35978739712	60	77054
2026-01-04 21:53:06.18	142.50	1.81	-50.7	-53.3	6.1	0.00e+00	0	32	104	35978739712	60	77000
2026-01-04 21:53:09.21	142.82	1.64	-50.7	-53.3	6.1	0.00e+00	0	32	104	35978739712	60	76845
2026-01-04 21:53:12.25	143.13	1.47	-50.8	-53.2	6.1	0.00e+00	0	32	104	35978739712	60	76524
2026-01-04 21:53:15.28	143.44	1.30	-50.7	-53.2	6.1	0.00e+00	0	32	104	35978739712	60	76691
2026-01-04 21:53:18.31	143.75	1.13	-50.7	-53.2	6.1	0.00e+00	0	32	104	35978739712	60	76680
2026-01-04 21:53:21.35	144.05	0.96	-50.6	-53.1	6.1	0.00e+00	0	32	104	35978739712	60	75671
2026-01-04 21:53:24.38	144.35	0.79	-50.6	-53.1	6.1	0.00e+00	0	32	104	35978739712	60	75587
2026-01-04 21:53:27.41	144.64	0.63	-50.7	-53.2	6.0	0.00e+00	0	32	104	35978739712	60	76109
2026-01-04 21:53:30.45	144.93	0.46	-50.5	-53.0	6.1	0.00e+00	0	32	104	35978739712	60	74881
2026-01-04 21:53:33.48	145.21	0.29	-50.6	-53.1	6.1	0.00e+00	0	32	104	35978739712	60	75664
2026-01-04 21:53:36.51	145.50	0.13	-50.5	-53.0	6.1	0.00e+00	0	32	104	35978739712	60	74578
2026-01-04 21:53:39.55	145.77	-0.03	-50.6	-53.0	6.1	0.00e+00	0	32	104	35978739712	60	75022

#Closed at: 2026-01-04 21:53:40
#Recorded file [35978 MB]: D:/lorett/data/35034_260105_004357.dat