passes_logs/2026/01/04/R4.6S_Anadyr_2ch/R4.6S_Anadyr_2ch__20260104_031612_AQUA_rec.log

#Pass ID: 20260104_031612_AQUA
#Satellite: AQUA
#Configuration: AQUA
#almurnet v.1.7.20251203
#Start time: 2026-01-04 03:16:14

#Version: 2.2.20231116
#Station: R4.6S_Anadyr_2ch
#Location: 177.4865 lon 64.73178 lat
#TLE: 1 27424U 02022A   25351.00450321  .00000925  00000+0  19503-3 0  9992
#TLE: 2 27424  98.4041 311.9529 0001248 113.7180 322.1616 14.61819266256652

#Time	Az	El	Level	Level2	SNR	BER	BlckErr	Temp	State	Recorded	gain1	gain2
2026-01-04 03:16:14.34	192.44	0.10	-54.1	-69.3	3.5	1.51e+00	0	34	0	0	60	141527
2026-01-04 03:16:18.38	192.65	0.33	-55.4	-73.3	3.5	3.02e+01	0	35	104	0	60	239304
2026-01-04 03:16:22.43	192.86	0.57	-54.9	-72.8	3.5	3.02e+01	0	35	104	0	60	227239
2026-01-04 03:16:26.47	193.07	0.81	-55.4	-73.3	3.5	3.02e+01	0	35	104	0	60	240906
2026-01-04 03:16:30.51	193.29	1.05	-55.1	-73.0	3.5	3.02e+01	0	35	104	0	60	231598
2026-01-04 03:16:34.56	193.51	1.29	-55.0	-72.9	3.5	3.02e+01	0	35	104	0	60	229299
2026-01-04 03:16:38.60	193.73	1.54	-54.4	-72.4	3.5	3.02e+01	0	35	104	0	60	216025
2026-01-04 03:16:42.65	193.96	1.79	-55.0	-72.8	3.5	3.02e+01	0	35	104	0	60	226990
2026-01-04 03:16:46.69	194.19	2.03	-53.8	-71.7	3.5	3.02e+01	0	36	104	0	60	199531
2026-01-04 03:16:50.73	194.43	2.28	-55.3	-73.2	3.5	3.02e+01	0	36	104	0	60	236499
2026-01-04 03:16:54.78	194.67	2.54	-55.8	-73.7	3.5	3.02e+01	0	36	104	0	60	250015
2026-01-04 03:16:58.82	194.91	2.79	-55.1	-73.0	3.5	3.02e+01	0	36	104	0	60	230939
2026-01-04 03:17:02.87	195.16	3.05	-55.6	-73.7	3.5	3.02e+01	0	36	104	0	60	250978
2026-01-04 03:17:06.91	195.42	3.31	-54.8	-72.8	3.5	3.02e+01	0	36	104	0	60	227788
2026-01-04 03:17:10.95	195.68	3.57	-54.3	-72.2	3.5	3.02e+01	0	36	104	0	60	210375
2026-01-04 03:17:14.99	195.94	3.84	-52.9	-70.8	3.5	3.02e+01	0	36	104	0	60	179157
2026-01-04 03:17:19.03	196.21	4.11	-52.5	-70.4	3.5	3.02e+01	0	36	104	0	60	171301
2026-01-04 03:17:23.07	196.48	4.37	-52.2	-69.7	3.5	3.02e+01	0	36	104	0	60	159171
2026-01-04 03:17:27.11	196.76	4.65	-52.7	-70.3	3.5	3.02e+01	0	36	104	0	60	170196
2026-01-04 03:17:31.16	197.04	4.92	-53.1	-71.1	3.5	3.02e+01	0	36	104	0	60	186110
2026-01-04 03:17:35.20	197.33	5.20	-52.3	-70.1	3.5	3.02e+01	0	36	104	0	60	166562
2026-01-04 03:17:39.24	197.63	5.48	-52.4	-70.3	3.5	3.02e+01	0	36	104	0	60	169775
2026-01-04 03:17:43.29	197.93	5.76	-52.8	-70.5	3.5	3.02e+01	0	36	104	0	60	174462
2026-01-04 03:17:47.33	198.24	6.05	-51.8	-65.4	3.7	3.02e+01	0	36	104	0	60	96915
2026-01-04 03:17:51.37	198.55	6.34	-52.5	-66.5	4.6	3.02e+01	0	36	104	0	60	109654
2026-01-04 03:17:55.42	198.87	6.63	-46.5	-48.9	20.0	3.02e+01	92	36	0	6815744	60	14509
2026-01-04 03:17:59.46	199.20	6.92	-43.6	-45.2	22.9	3.02e+01	92	36	0	14680064	60	9470
2026-01-04 03:18:03.51	199.53	7.22	-44.5	-46.2	23.9	3.02e+01	92	36	0	19922944	60	10602
2026-01-04 03:18:07.55	199.87	7.52	-44.5	-46.2	23.6	3.02e+01	89	36	0	27262976	60	10625
2026-01-04 03:18:11.60	200.22	7.83	-44.3	-45.8	24.7	3.02e+01	92	36	0	34603008	60	10127
2026-01-04 03:18:15.64	200.58	8.13	-43.9	-45.4	24.8	3.02e+01	92	36	0	42467328	60	9710
2026-01-04 03:18:19.68	200.94	8.44	-44.1	-45.6	25.1	3.02e+01	92	36	0	49807360	60	9923
2026-01-04 03:18:23.73	201.32	8.76	-42.8	-44.3	25.8	3.02e+01	92	36	0	57671680	60	8513
2026-01-04 03:18:27.77	201.70	9.08	-44.0	-45.5	25.0	3.02e+01	92	36	0	65011712	60	9778
2026-01-04 03:18:31.82	202.09	9.40	-42.5	-43.9	26.1	3.02e+01	91	36	0	72876032	60	8172
2026-01-04 03:18:35.86	202.49	9.72	-42.4	-43.9	26.2	3.02e+01	91	36	0	80216064	60	8092
2026-01-04 03:18:39.90	202.90	10.05	-41.7	-43.1	26.6	3.02e+01	90	36	0	88080384	60	7402
2026-01-04 03:18:43.94	203.31	10.38	-42.7	-44.1	26.2	3.02e+01	92	36	0	95420416	60	8342
2026-01-04 03:18:47.99	203.74	10.72	-41.5	-42.9	26.9	3.02e+01	90	36	0	102760448	60	7222
2026-01-04 03:18:52.03	204.18	11.06	-41.3	-42.6	26.8	3.02e+01	90	36	0	110624768	60	7015
2026-01-04 03:18:56.08	204.63	11.40	-41.8	-43.2	26.3	3.02e+01	92	36	0	117964800	60	7492
2026-01-04 03:19:00.12	205.09	11.75	-42.2	-43.6	26.3	3.02e+01	87	36	0	125829120	60	7835
2026-01-04 03:19:04.16	205.56	12.10	-41.4	-42.8	27.0	3.02e+01	92	36	0	133169152	60	7156
2026-01-04 03:19:08.21	206.05	12.46	-40.9	-42.3	27.3	3.02e+01	92	36	0	141033472	60	6737
2026-01-04 03:19:12.25	206.54	12.82	-40.9	-42.3	27.5	3.02e+01	92	36	0	148373504	60	6729
2026-01-04 03:19:16.29	207.05	13.18	-40.8	-42.1	27.5	3.02e+01	92	36	0	156237824	60	6599
2026-01-04 03:19:20.34	207.57	13.55	-41.0	-42.3	27.4	3.02e+01	92	37	0	163577856	60	6753
2026-01-04 03:19:24.38	208.11	13.92	-40.8	-42.1	27.4	3.02e+01	92	37	0	171442176	60	6591
2026-01-04 03:19:28.43	208.66	14.29	-40.6	-41.9	27.8	3.02e+01	92	36	0	178782208	60	6437
2026-01-04 03:19:32.47	209.22	14.67	-40.8	-42.1	27.8	3.02e+01	92	36	0	186646528	60	6624
2026-01-04 03:19:36.51	209.80	15.06	-40.7	-42.0	27.9	3.02e+01	92	37	0	193986560	60	6525
2026-01-04 03:19:40.56	210.40	15.45	-40.3	-41.5	28.2	3.02e+01	90	37	0	201850880	60	6194
2026-01-04 03:19:44.60	211.01	15.84	-40.3	-41.5	28.1	3.02e+01	92	36	0	209190912	60	6184
2026-01-04 03:19:48.65	211.64	16.24	-40.6	-41.9	28.1	3.02e+01	92	37	0	216530944	60	6433
2026-01-04 03:19:52.69	212.28	16.64	-40.9	-42.2	28.0	3.02e+01	92	36	0	224395264	60	6684
2026-01-04 03:19:56.73	212.95	17.04	-41.0	-42.2	28.1	3.02e+01	92	36	0	231735296	60	6715
2026-01-04 03:20:00.78	213.63	17.45	-39.9	-41.2	28.7	3.02e+01	92	37	0	239599616	60	5933
2026-01-04 03:20:04.82	214.33	17.86	-40.2	-41.4	28.2	3.02e+01	89	36	0	246939648	60	6108
2026-01-04 03:20:08.87	215.05	18.28	-40.3	-41.6	28.3	3.02e+01	91	37	0	254803968	60	6228
2026-01-04 03:20:12.91	215.80	18.70	-40.1	-41.4	28.7	3.02e+01	90	37	0	262144000	60	6083
2026-01-04 03:20:16.96	216.56	19.12	-40.8	-42.0	28.7	3.02e+01	91	37	0	270008320	60	6551
2026-01-04 03:20:21.00	217.35	19.55	-39.9	-41.2	28.9	3.02e+01	89	37	0	277348352	60	5934
2026-01-04 03:20:25.05	218.16	19.98	-39.7	-40.9	28.8	3.02e+01	90	37	0	285212672	60	5776
2026-01-04 03:20:29.09	218.99	20.41	-39.4	-40.7	29.0	3.02e+01	92	37	0	292552704	60	5600
2026-01-04 03:20:33.13	219.85	20.84	-39.8	-41.0	28.7	3.02e+01	92	37	0	300417024	60	5822
2026-01-04 03:20:37.18	220.73	21.28	-39.9	-41.1	28.8	3.02e+01	90	37	0	307757056	60	5909
2026-01-04 03:20:41.22	221.64	21.71	-39.9	-41.1	28.7	3.02e+01	92	37	0	315097088	60	5899
2026-01-04 03:20:45.26	222.57	22.15	-39.5	-40.7	29.0	3.02e+01	91	37	0	322961408	60	5652
2026-01-04 03:20:49.31	223.53	22.59	-39.5	-40.8	29.0	3.02e+01	91	37	0	330301440	60	5665
2026-01-04 03:20:53.35	224.52	23.03	-39.7	-40.9	28.9	3.02e+01	92	37	0	338165760	60	5775
2026-01-04 03:20:57.40	225.54	23.46	-39.2	-40.4	29.2	3.02e+01	91	37	0	345505792	58	6134
2026-01-04 03:21:01.44	226.59	23.90	-39.3	-40.5	29.1	3.02e+01	90	37	0	353370112	58	6202
2026-01-04 03:21:05.48	227.67	24.33	-39.2	-40.4	29.3	3.02e+01	91	37	0	360710144	58	6124
2026-01-04 03:21:09.53	228.78	24.77	-39.5	-40.8	28.9	3.02e+01	92	37	0	368574464	58	6358
2026-01-04 03:21:13.57	229.92	25.20	-39.2	-40.4	29.3	3.02e+01	92	37	0	375914496	58	6085
2026-01-04 03:21:17.61	231.09	25.62	-39.3	-40.5	29.2	3.02e+01	92	37	0	383778816	58	6203
2026-01-04 03:21:21.66	232.30	26.04	-40.0	-41.2	29.0	3.02e+01	92	37	0	391118848	58	6702
2026-01-04 03:21:25.70	233.54	26.45	-39.9	-41.2	28.8	3.02e+01	90	37	0	398458880	58	6656
2026-01-04 03:21:29.74	234.81	26.86	-39.7	-40.9	28.9	3.02e+01	90	37	0	406323200	58	6477
2026-01-04 03:21:33.79	236.11	27.25	-39.3	-40.5	29.0	3.02e+01	90	37	0	413663232	58	6192
2026-01-04 03:21:37.83	237.45	27.64	-39.6	-40.8	28.8	3.02e+01	90	37	0	421527552	58	6406
2026-01-04 03:21:41.88	238.82	28.02	-39.5	-40.7	29.0	3.02e+01	92	37	0	428867584	58	6318
2026-01-04 03:21:45.92	240.22	28.38	-39.7	-41.0	28.8	3.02e+01	92	37	0	436731904	58	6500
2026-01-04 03:21:49.97	241.66	28.73	-39.6	-40.9	28.9	3.02e+01	92	37	0	444071936	58	6427
2026-01-04 03:21:54.01	243.12	29.07	-40.3	-41.6	28.8	3.02e+01	89	37	0	451936256	60	6216
2026-01-04 03:21:58.05	244.62	29.39	-40.0	-41.2	28.8	3.02e+01	90	37	0	459276288	60	5951
2026-01-04 03:22:02.09	246.14	29.69	-40.3	-41.6	28.5	3.02e+01	92	37	0	467140608	60	6223
2026-01-04 03:22:06.14	247.70	29.98	-40.0	-41.2	28.7	3.02e+01	90	37	0	474480640	60	5988
2026-01-04 03:22:10.18	249.28	30.25	-40.1	-41.3	28.5	3.02e+01	92	37	0	482344960	60	6049
2026-01-04 03:22:14.23	250.89	30.49	-39.6	-40.8	28.9	3.02e+01	90	37	0	489684992	60	5697
2026-01-04 03:22:18.27	252.52	30.71	-39.8	-41.0	28.7	3.02e+01	90	37	0	497549312	60	5811
2026-01-04 03:22:22.32	254.17	30.91	-39.8	-41.0	28.8	3.02e+01	92	37	0	504889344	60	5809
2026-01-04 03:22:26.36	255.84	31.09	-39.6	-40.8	28.8	3.02e+01	92	37	0	512753664	60	5710
2026-01-04 03:22:30.41	257.53	31.24	-39.5	-40.7	28.9	3.02e+01	92	37	0	520093696	60	5642
2026-01-04 03:22:34.45	259.24	31.36	-39.7	-41.0	28.8	3.02e+01	92	37	0	527433728	60	5806
2026-01-04 03:22:38.49	260.95	31.46	-39.6	-40.9	28.8	3.02e+01	92	37	0	535298048	60	5737
2026-01-04 03:22:42.54	262.68	31.53	-39.6	-40.9	28.9	3.02e+01	92	37	0	542638080	60	5726
2026-01-04 03:22:46.58	264.40	31.57	-40.0	-41.3	28.6	3.02e+01	92	37	0	550502400	60	6009
2026-01-04 03:22:50.63	266.14	31.59	-39.8	-41.0	28.9	3.02e+01	91	37	0	557842432	60	5827
2026-01-04 03:22:54.67	267.87	31.58	-39.6	-40.8	29.3	3.02e+01	92	37	0	565706752	60	5716
2026-01-04 03:22:58.71	269.60	31.54	-39.4	-40.6	29.3	3.02e+01	91	37	0	573046784	58	6265
2026-01-04 03:23:02.76	271.33	31.47	-39.7	-41.0	28.9	3.02e+01	92	37	0	580911104	58	6514
2026-01-04 03:23:06.80	273.04	31.37	-39.3	-40.5	29.4	3.02e+01	92	37	0	588251136	58	6178
2026-01-04 03:23:10.85	274.74	31.25	-39.5	-40.7	29.4	3.02e+01	92	37	0	596115456	58	6324
2026-01-04 03:23:14.89	276.43	31.11	-39.7	-40.8	29.5	3.02e+01	92	37	0	603455488	58	6423
2026-01-04 03:23:18.93	278.10	30.93	-39.2	-40.4	29.6	3.02e+01	92	37	0	610795520	58	6103
2026-01-04 03:23:22.97	279.75	30.74	-39.4	-40.6	29.3	3.02e+01	92	37	0	618659840	58	6271
2026-01-04 03:23:27.02	281.38	30.52	-38.9	-40.1	29.7	3.02e+01	90	37	0	625999872	58	5905
2026-01-04 03:23:31.06	282.99	30.27	-38.7	-39.9	29.9	3.02e+01	92	37	0	633864192	58	5736
2026-01-04 03:23:35.11	284.57	30.01	-38.8	-40.0	29.7	3.02e+01	90	37	0	641204224	58	5849
2026-01-04 03:23:39.15	286.12	29.73	-39.0	-40.3	29.7	3.02e+01	92	37	0	649068544	58	5998
2026-01-04 03:23:43.20	287.65	29.43	-39.2	-40.3	29.7	3.02e+01	92	37	0	656408576	58	6062
2026-01-04 03:23:47.24	289.14	29.11	-38.9	-40.0	29.6	3.02e+01	92	37	0	664272896	58	5856
2026-01-04 03:23:51.29	290.61	28.78	-38.8	-39.9	29.8	3.02e+01	92	37	0	671612928	58	5783
2026-01-04 03:23:55.33	292.04	28.43	-38.7	-39.9	30.0	3.02e+01	91	37	0	679477248	56	6456
2026-01-04 03:23:59.38	293.44	28.07	-38.5	-39.7	30.0	3.02e+01	92	37	0	686817280	56	6299
2026-01-04 03:24:03.42	294.81	27.69	-38.5	-39.7	29.8	3.02e+01	92	37	0	694681600	56	6327
2026-01-04 03:24:07.46	296.14	27.31	-38.4	-39.6	30.1	3.02e+01	92	37	0	702021632	56	6227
2026-01-04 03:24:11.51	297.45	26.91	-38.2	-39.4	30.2	3.02e+01	91	37	0	709361664	56	6092
2026-01-04 03:24:15.55	298.72	26.51	-38.1	-39.3	30.1	3.02e+01	60	37	0	717225984	56	6034
2026-01-04 03:24:19.60	299.96	26.10	-38.2	-39.3	30.2	3.02e+01	53	37	0	724566016	56	6039
2026-01-04 03:24:23.64	301.16	25.69	-38.2	-39.4	30.2	3.02e+01	60	37	0	732430336	56	6087
2026-01-04 03:24:27.69	302.33	25.27	-38.3	-39.4	30.1	3.02e+01	52	37	0	739770368	56	6128
2026-01-04 03:24:31.73	303.47	24.84	-38.4	-39.5	30.1	3.02e+01	61	37	0	747634688	56	6185
2026-01-04 03:24:35.77	304.58	24.41	-38.5	-39.7	30.0	3.02e+01	55	37	0	754974720	56	6291
2026-01-04 03:24:39.82	305.66	23.98	-38.5	-39.7	30.1	3.02e+01	60	37	0	762839040	56	6320
2026-01-04 03:24:43.86	306.71	23.55	-39.2	-40.4	29.4	3.02e+01	47	37	0	770179072	58	6128
2026-01-04 03:24:47.91	307.73	23.11	-39.4	-40.5	30.0	3.02e+01	57	37	0	778043392	58	6189
2026-01-04 03:24:51.95	308.71	22.68	-39.1	-40.3	29.8	3.02e+01	46	37	0	785383424	58	5997
2026-01-04 03:24:55.99	309.68	22.24	-39.2	-40.4	29.6	3.02e+01	60	37	0	793247744	58	6090
2026-01-04 03:25:00.04	310.61	21.81	-38.7	-39.9	30.0	3.02e+01	45	37	0	800587776	58	5739
2026-01-04 03:25:04.08	311.52	21.37	-39.1	-40.2	29.8	3.02e+01	57	37	0	808452096	58	5988
2026-01-04 03:25:08.12	312.40	20.94	-38.8	-40.0	29.8	3.02e+01	53	37	0	815792128	58	5822
2026-01-04 03:25:12.17	313.26	20.51	-39.1	-40.3	29.7	3.02e+01	60	37	0	823132160	58	6022
2026-01-04 03:25:16.21	314.09	20.08	-39.1	-40.3	29.4	3.02e+01	56	37	0	830996480	58	6048
2026-01-04 03:25:20.25	314.90	19.66	-38.7	-39.9	29.9	3.02e+01	57	37	0	838336512	58	5738
2026-01-04 03:25:24.30	315.69	19.23	-39.2	-40.4	29.7	3.02e+01	62	37	0	846200832	58	6124
2026-01-04 03:25:28.34	316.45	18.81	-39.7	-40.8	26.9	3.02e+01	59	37	0	853540864	58	6423
2026-01-04 03:25:32.39	317.19	18.40	-39.8	-41.0	29.5	3.02e+01	57	37	0	861405184	60	5792
2026-01-04 03:25:36.43	317.92	17.98	-40.3	-41.5	28.9	3.02e+01	62	37	0	868745216	60	6144
2026-01-04 03:25:40.48	318.62	17.57	-40.4	-41.6	29.6	3.02e+01	64	37	0	876609536	60	6213
2026-01-04 03:25:44.52	319.30	17.17	-39.9	-41.1	29.5	3.02e+01	57	37	0	883949568	60	5903
2026-01-04 03:25:48.56	319.97	16.77	-40.1	-41.2	29.6	3.02e+01	59	37	0	891813888	60	5980
2026-01-04 03:25:52.61	320.61	16.37	-40.4	-41.5	29.7	3.02e+01	57	37	0	899153920	60	6204
2026-01-04 03:25:56.65	321.24	15.97	-39.8	-41.0	29.7	3.02e+01	56	37	0	906493952	58	6534
2026-01-04 03:26:00.70	321.86	15.58	-40.0	-41.2	29.8	3.02e+01	58	37	0	914358272	60	5956
2026-01-04 03:26:04.74	322.45	15.20	-39.6	-40.8	29.5	3.02e+01	59	37	0	921698304	58	6357
2026-01-04 03:26:08.78	323.03	14.82	-38.9	-40.1	30.0	3.02e+01	63	37	0	929562624	58	5878
2026-01-04 03:26:12.83	323.60	14.44	-38.6	-39.8	29.8	3.02e+01	57	37	0	936902656	58	5706
2026-01-04 03:26:16.87	324.15	14.06	-38.5	-39.6	29.9	3.02e+01	56	37	0	944766976	58	5588
2026-01-04 03:26:20.92	324.69	13.69	-38.5	-39.7	29.8	3.02e+01	59	37	0	952107008	58	5619
2026-01-04 03:26:24.96	325.21	13.33	-39.2	-40.4	29.5	3.02e+01	50	37	0	959971328	58	6118
2026-01-04 03:26:29.00	325.72	12.97	-39.5	-40.7	29.4	3.02e+01	59	37	0	967311360	58	6323
2026-01-04 03:26:33.05	326.22	12.61	-38.8	-39.9	29.9	3.02e+01	47	37	0	975175680	58	5783
2026-01-04 03:26:37.09	326.70	12.26	-39.2	-40.4	29.8	3.02e+01	57	37	0	982515712	58	6081
2026-01-04 03:26:41.14	327.17	11.90	-39.1	-40.3	29.7	3.02e+01	51	37	0	990380032	58	6049
2026-01-04 03:26:45.18	327.64	11.56	-39.4	-40.6	29.7	3.02e+01	62	37	0	997720064	58	6221
2026-01-04 03:26:49.22	328.09	11.22	-38.9	-40.1	29.7	3.02e+01	44	37	0	1005584384	58	5908
2026-01-04 03:26:53.27	328.53	10.88	-39.3	-40.5	29.8	3.02e+01	59	37	0	1012924416	58	6177
2026-01-04 03:26:57.31	328.96	10.55	-39.3	-40.5	29.2	3.02e+01	47	37	0	1020788736	58	6162
2026-01-04 03:27:01.36	329.38	10.22	-39.4	-40.6	29.3	3.02e+01	57	37	0	1028128768	58	6225
2026-01-04 03:27:05.40	329.79	9.89	-39.4	-40.6	29.4	3.02e+01	45	37	0	1035468800	58	6245
2026-01-04 03:27:09.44	330.19	9.57	-38.7	-39.9	29.7	3.02e+01	59	37	0	1043333120	58	5772
2026-01-04 03:27:13.49	330.58	9.25	-39.1	-40.3	29.4	3.02e+01	53	37	0	1050673152	58	6058
2026-01-04 03:27:17.53	330.96	8.93	-39.0	-40.2	29.2	3.02e+01	56	37	0	1058537472	58	5958
2026-01-04 03:27:21.58	331.34	8.62	-39.2	-40.5	29.1	3.02e+01	59	37	0	1065877504	58	6146
2026-01-04 03:27:25.62	331.71	8.31	-39.4	-40.6	29.2	3.02e+01	61	37	0	1073741824	58	6233
2026-01-04 03:27:29.66	332.07	8.00	-39.3	-40.5	29.1	3.02e+01	60	37	0	1081081856	58	6205
2026-01-04 03:27:33.70	332.42	7.70	-40.0	-41.2	28.8	3.02e+01	61	37	0	1088946176	58	6694
2026-01-04 03:27:37.75	332.76	7.40	-40.1	-41.4	28.6	3.02e+01	59	37	0	1096286208	58	6814
2026-01-04 03:27:41.79	333.10	7.10	-39.6	-40.8	28.7	3.02e+01	62	37	0	1103626240	58	6418
2026-01-04 03:27:45.84	333.43	6.81	-40.4	-41.7	27.1	3.02e+01	58	37	0	1111490560	58	7111
2026-01-04 03:27:49.88	333.75	6.52	-40.5	-41.8	27.9	3.02e+01	61	37	0	1118830592	60	6393
2026-01-04 03:27:53.93	334.07	6.23	-40.0	-41.2	28.3	3.02e+01	58	37	0	1126694912	60	5983
2026-01-04 03:27:57.97	334.38	5.95	-40.6	-50.8	3.6	3.02e+01	0	37	104	1128792064	60	17962
2026-01-04 03:28:02.02	334.68	5.67	-51.6	-67.7	3.5	3.02e+01	0	37	104	1128792064	60	126299
2026-01-04 03:28:06.06	334.98	5.39	-41.5	-51.8	4.1	3.02e+01	0	37	104	1128792064	60	20100
2026-01-04 03:28:10.10	335.27	5.11	-52.5	-69.4	3.5	3.02e+01	0	37	104	1128792064	60	152702
2026-01-04 03:28:14.15	335.56	4.84	-44.2	-54.6	3.5	3.02e+01	0	37	104	1128792064	60	27983
2026-01-04 03:28:18.19	335.84	4.57	-44.3	-54.8	3.5	3.02e+01	0	37	104	1128792064	60	28368
2026-01-04 03:28:22.24	336.12	4.30	-42.9	-53.2	3.5	3.02e+01	0	37	104	1128792064	60	23800
2026-01-04 03:28:26.28	336.39	4.03	-43.8	-54.2	3.5	3.02e+01	0	37	104	1128792064	60	26516
2026-01-04 03:28:30.32	336.66	3.77	-45.3	-56.0	3.5	3.02e+01	0	37	104	1128792064	60	32724
2026-01-04 03:28:34.37	336.92	3.51	-43.9	-54.3	3.5	3.02e+01	0	37	104	1128792064	60	27028
2026-01-04 03:28:38.41	337.18	3.25	-47.6	-58.9	3.5	3.02e+01	0	37	104	1128792064	60	45572
2026-01-04 03:28:42.45	337.43	2.99	-45.9	-56.8	3.5	3.02e+01	0	37	104	1128792064	60	35905
2026-01-04 03:28:46.50	337.68	2.74	-48.7	-62.4	3.5	3.02e+01	0	37	104	1128792064	60	68375
2026-01-04 03:28:50.54	337.92	2.49	-47.5	-59.2	3.5	3.02e+01	0	37	104	1128792064	60	47590
2026-01-04 03:28:54.58	338.16	2.24	-48.9	-63.2	3.5	3.02e+01	0	37	104	1128792064	60	74664
2026-01-04 03:28:58.62	338.40	1.99	-48.9	-62.9	3.5	3.02e+01	0	37	104	1128792064	60	72097
2026-01-04 03:29:02.67	338.63	1.74	-49.4	-65.2	3.5	3.02e+01	0	37	104	1128792064	60	94459
2026-01-04 03:29:06.71	338.86	1.50	-50.1	-67.1	3.5	3.02e+01	0	37	104	1128792064	60	118082
2026-01-04 03:29:10.75	339.08	1.26	-49.7	-67.2	3.5	3.02e+01	0	37	104	1128792064	60	118944
2026-01-04 03:29:14.80	339.30	1.02	-49.5	-67.2	3.5	3.02e+01	0	37	104	1128792064	60	119415
2026-01-04 03:29:18.84	339.52	0.78	-48.8	-66.6	3.5	3.02e+01	0	37	104	1128792064	60	111363
2026-01-04 03:29:22.89	339.73	0.54	-48.9	-66.8	3.5	3.02e+01	0	37	104	1128792064	60	112938
2026-01-04 03:29:26.93	339.94	0.31	-49.0	-66.9	3.5	3.02e+01	0	37	104	1128792064	60	114675
2026-01-04 03:29:30.97	340.15	0.08	-53.2	-71.0	3.5	3.02e+01	0	37	104	1128792064	60	184480

#Closed at: 2026-01-04 03:29:34
#Recorded file [1128 MB]: D:/lorett/data/35034_260104_061614.dat