passes_logs/2026/01/04/R4.6S_Anadyr_2ch/R4.6S_Anadyr_2ch__20260104_181520_AQUA_rec.log

#Pass ID: 20260104_181520_AQUA
#Satellite: AQUA
#Configuration: AQUA
#almurnet v.1.7.20251203
#Start time: 2026-01-04 18:15:23

#Version: 2.2.20231116
#Station: R4.6S_Anadyr_2ch
#Location: 177.4865 lon 64.73178 lat
#TLE: 1 27424U 02022A   25351.00450321  .00000925  00000+0  19503-3 0  9992
#TLE: 2 27424  98.4041 311.9529 0001248 113.7180 322.1616 14.61819266256652

#Time	Az	El	Level	Level2	SNR	BER	BlckErr	Temp	State	Recorded	gain1	gain2
2026-01-04 18:15:23.47	23.90	0.17	-53.2	-69.7	3.3	3.02e+01	0	28	0	0	60	157910
2026-01-04 18:15:26.50	23.73	0.34	-53.1	-71.1	3.5	3.02e+01	0	28	104	0	60	185496
2026-01-04 18:15:29.53	23.57	0.52	-54.3	-72.2	3.6	3.02e+01	0	28	104	0	60	211242
2026-01-04 18:15:32.56	23.40	0.69	-54.1	-71.9	3.6	3.02e+01	0	28	104	0	60	204070
2026-01-04 18:15:35.59	23.23	0.87	-53.7	-71.6	3.5	3.02e+01	0	28	104	0	60	197956
2026-01-04 18:15:38.63	23.05	1.05	-52.6	-70.5	3.5	3.02e+01	0	28	104	0	60	173990
2026-01-04 18:15:41.66	22.88	1.22	-52.8	-70.8	3.5	3.02e+01	0	29	104	0	60	178992
2026-01-04 18:15:44.69	22.70	1.40	-52.6	-70.5	3.5	3.02e+01	0	29	104	0	60	174754
2026-01-04 18:15:47.73	22.52	1.58	-53.4	-71.3	3.6	3.02e+01	0	29	104	0	60	191714
2026-01-04 18:15:50.76	22.33	1.77	-52.9	-70.8	3.5	3.02e+01	0	29	104	0	60	180550
2026-01-04 18:15:53.79	22.15	1.95	-52.5	-70.5	3.5	3.02e+01	0	29	104	0	60	173383
2026-01-04 18:15:56.82	21.96	2.13	-52.5	-70.4	3.5	3.02e+01	0	29	104	0	60	171981
2026-01-04 18:15:59.86	21.77	2.32	-53.0	-70.9	3.5	3.02e+01	0	29	104	0	60	182160
2026-01-04 18:16:02.89	21.57	2.50	-53.2	-71.1	3.5	3.02e+01	0	29	104	0	60	185788
2026-01-04 18:16:05.92	21.37	2.69	-52.7	-70.6	3.4	3.02e+01	0	29	104	0	60	175966
2026-01-04 18:16:08.96	21.17	2.87	-53.7	-71.7	3.5	3.02e+01	0	29	104	0	60	199400
2026-01-04 18:16:11.99	20.97	3.06	-51.9	-69.7	3.5	3.02e+01	0	29	104	0	60	159356
2026-01-04 18:16:15.02	20.76	3.25	-52.2	-70.1	3.5	3.02e+01	0	29	104	0	60	165978
2026-01-04 18:16:18.06	20.55	3.44	-51.9	-69.8	3.5	3.02e+01	0	29	104	0	60	160324
2026-01-04 18:16:21.09	20.34	3.63	-51.4	-69.3	3.5	3.02e+01	0	29	104	0	60	150632
2026-01-04 18:16:24.12	20.12	3.83	-50.9	-68.9	3.5	3.02e+01	0	29	104	0	60	143830
2026-01-04 18:16:27.15	19.90	4.02	-50.4	-68.2	3.5	3.02e+01	0	29	104	0	60	133713
2026-01-04 18:16:30.18	19.68	4.22	-50.3	-68.1	3.5	3.02e+01	0	29	104	0	60	132427
2026-01-04 18:16:33.21	19.46	4.41	-50.3	-68.2	3.5	3.02e+01	0	29	104	0	60	133231
2026-01-04 18:16:36.25	19.22	4.61	-50.3	-68.1	3.5	3.02e+01	0	29	104	0	60	132377
2026-01-04 18:16:39.28	18.99	4.81	-50.4	-68.2	3.5	3.02e+01	0	29	104	0	60	133884
2026-01-04 18:16:42.31	18.75	5.01	-50.3	-68.1	3.5	3.02e+01	0	29	104	0	60	132226
2026-01-04 18:16:45.34	18.51	5.21	-50.3	-68.1	3.5	3.02e+01	0	29	104	0	60	131834
2026-01-04 18:16:48.38	18.27	5.41	-50.3	-68.0	3.5	3.02e+01	0	29	104	0	60	129909
2026-01-04 18:16:51.41	18.02	5.62	-50.3	-68.1	3.5	3.02e+01	0	29	104	0	60	132477
2026-01-04 18:16:54.44	17.77	5.82	-50.4	-68.2	3.5	3.02e+01	0	29	104	0	60	133827
2026-01-04 18:16:57.47	17.51	6.03	-50.3	-67.7	3.5	3.02e+01	0	29	104	0	60	126034
2026-01-04 18:17:00.51	17.25	6.24	-50.3	-67.9	3.5	3.02e+01	0	29	104	0	60	128309
2026-01-04 18:17:03.54	16.98	6.44	-49.9	-65.8	3.5	3.02e+01	0	29	104	0	60	101679
2026-01-04 18:17:06.57	16.71	6.65	-48.2	-61.1	3.5	3.02e+01	0	29	104	0	60	59107
2026-01-04 18:17:09.61	16.44	6.87	-43.6	-54.5	3.6	3.02e+01	0	29	104	0	60	27501
2026-01-04 18:17:12.64	16.16	7.08	-41.2	-51.7	3.5	3.02e+01	0	29	104	0	60	19913
2026-01-04 18:17:15.67	15.88	7.29	-41.6	-52.1	3.5	3.02e+01	0	29	104	0	60	20924
2026-01-04 18:17:18.70	15.59	7.51	-40.8	-51.3	3.5	3.02e+01	0	29	104	0	60	19055
2026-01-04 18:17:21.74	15.30	7.73	-43.9	-54.8	3.5	3.02e+01	0	29	104	0	60	28474
2026-01-04 18:17:24.77	15.00	7.94	-42.3	-52.9	3.5	3.02e+01	0	29	104	0	60	22964
2026-01-04 18:17:27.80	14.70	8.16	-40.5	-50.9	3.5	3.02e+01	0	29	104	0	60	18279
2026-01-04 18:17:30.83	14.39	8.39	-46.9	-58.7	3.5	3.02e+01	0	29	104	0	60	44935
2026-01-04 18:17:33.87	14.07	8.61	-43.6	-54.5	3.5	3.02e+01	0	29	104	0	60	27441
2026-01-04 18:17:36.90	13.75	8.83	-50.1	-65.8	3.5	3.02e+01	0	29	104	0	60	100836
2026-01-04 18:17:39.93	13.43	9.06	-50.6	-67.8	3.5	3.02e+01	0	29	104	0	60	127767
2026-01-04 18:17:42.96	13.10	9.28	-45.7	-57.0	3.5	3.02e+01	0	29	104	0	60	36863
2026-01-04 18:17:45.99	12.76	9.51	-50.6	-67.1	3.4	3.02e+01	0	29	104	0	60	117602
2026-01-04 18:17:49.02	12.42	9.74	-50.7	-68.5	3.5	3.02e+01	0	29	104	0	60	137676
2026-01-04 18:17:52.06	12.07	9.97	-39.9	-50.3	3.5	3.02e+01	0	29	104	0	60	16910
2026-01-04 18:17:55.09	11.72	10.20	-40.4	-50.8	3.5	3.02e+01	0	29	104	0	60	17969
2026-01-04 18:17:58.12	11.36	10.44	-47.5	-59.7	3.5	3.02e+01	0	29	104	0	60	49888
2026-01-04 18:18:01.15	10.99	10.67	-41.8	-52.3	3.5	3.02e+01	0	29	104	0	60	21493
2026-01-04 18:18:04.19	10.62	10.91	-49.6	-64.1	3.5	3.02e+01	0	29	104	0	60	82831
2026-01-04 18:18:07.22	10.24	11.15	-50.7	-67.8	3.5	3.02e+01	0	29	104	0	60	126927
2026-01-04 18:18:10.25	9.85	11.39	-42.4	-52.9	3.5	3.02e+01	0	29	104	0	60	23037
2026-01-04 18:18:13.29	9.46	11.63	-40.2	-50.6	3.5	3.02e+01	0	29	104	0	60	17540
2026-01-04 18:18:16.32	9.05	11.87	-44.1	-55.0	3.5	3.02e+01	0	29	104	0	60	29305
2026-01-04 18:18:19.35	8.65	12.11	-39.3	-49.6	3.5	3.02e+01	0	29	104	0	58	17617
2026-01-04 18:18:22.38	8.23	12.36	-40.0	-50.3	3.5	3.02e+01	0	29	104	0	58	19035
2026-01-04 18:18:25.41	7.81	12.60	-45.0	-56.1	3.5	3.02e+01	0	29	104	0	60	32997
2026-01-04 18:18:28.44	7.37	12.85	-41.7	-52.2	3.5	3.02e+01	0	29	104	0	60	21105
2026-01-04 18:18:31.48	6.93	13.10	-45.9	-57.2	3.5	3.02e+01	0	29	104	0	60	37743
2026-01-04 18:18:34.51	6.48	13.35	-51.0	-68.2	3.5	3.02e+01	0	29	104	0	60	133779
2026-01-04 18:18:37.54	6.03	13.60	-46.8	-58.4	3.5	3.02e+01	0	29	104	0	60	43052
2026-01-04 18:18:40.57	5.56	13.85	-44.6	-55.5	3.5	3.02e+01	0	29	104	0	60	30987
2026-01-04 18:18:43.61	5.09	14.11	-44.7	-55.8	3.5	3.02e+01	0	29	104	0	60	32156
2026-01-04 18:18:46.64	4.60	14.36	-39.1	-49.4	3.5	3.02e+01	0	29	104	0	58	17098
2026-01-04 18:18:49.67	4.11	14.62	-50.9	-68.2	3.5	3.02e+01	0	29	104	0	60	133584
2026-01-04 18:18:52.71	3.61	14.87	-42.5	-53.1	3.5	3.02e+01	0	29	104	0	60	23399
2026-01-04 18:18:55.74	3.10	15.13	-41.4	-51.8	3.5	3.02e+01	0	29	104	0	60	20216
2026-01-04 18:18:58.77	2.58	15.39	-44.5	-55.4	3.5	3.02e+01	0	29	104	0	60	30443
2026-01-04 18:19:01.81	2.05	15.64	-42.0	-52.5	3.5	3.02e+01	0	29	104	0	60	21985
2026-01-04 18:19:04.84	1.51	15.90	-40.0	-50.4	3.5	3.02e+01	0	29	104	0	60	17105
2026-01-04 18:19:07.87	0.96	16.16	-48.5	-61.2	3.5	3.02e+01	0	29	104	0	60	59339
2026-01-04 18:19:10.91	0.39	16.42	-40.8	-51.1	3.5	3.02e+01	0	29	104	0	60	18706
2026-01-04 18:19:13.94	359.82	16.68	-38.6	-48.9	3.5	3.02e+01	0	29	104	0	58	16257
2026-01-04 18:19:16.97	359.24	16.94	-50.9	-67.3	3.5	3.02e+01	0	29	104	0	60	120875
2026-01-04 18:19:20.00	358.65	17.20	-43.5	-54.2	3.5	3.02e+01	0	29	104	0	60	26644
2026-01-04 18:19:23.04	358.04	17.46	-44.9	-55.8	3.5	3.02e+01	0	29	104	0	60	31999
2026-01-04 18:19:26.07	357.43	17.72	-46.2	-57.4	3.5	3.02e+01	0	29	104	0	60	38705
2026-01-04 18:19:29.10	356.80	17.98	-42.1	-44.0	5.2	3.02e+01	0	29	104	0	60	8244
2026-01-04 18:19:32.14	356.16	18.24	-41.1	-42.6	25.3	3.02e+01	0	29	0	3145728	60	6994
2026-01-04 18:19:35.17	355.51	18.50	-40.4	-41.7	26.9	3.02e+01	0	29	0	8912896	60	6350
2026-01-04 18:19:38.20	354.84	18.76	-38.8	-40.1	28.0	3.02e+01	0	29	0	14680064	58	5894
2026-01-04 18:19:41.24	354.17	19.02	-39.5	-40.8	27.5	3.02e+01	0	29	0	20447232	60	5670
2026-01-04 18:19:44.27	353.48	19.27	-39.2	-40.4	27.4	3.02e+01	0	29	0	25690112	60	5450
2026-01-04 18:19:47.30	352.78	19.53	-39.6	-41.0	27.6	3.02e+01	0	29	0	31457280	58	6522
2026-01-04 18:19:50.34	352.07	19.78	-40.0	-41.3	27.2	3.02e+01	0	29	0	37224448	60	6010
2026-01-04 18:19:53.37	351.34	20.03	-40.0	-41.4	26.9	3.02e+01	0	29	0	42991616	60	6097
2026-01-04 18:19:56.41	350.60	20.28	-40.7	-42.1	25.8	3.02e+01	0	29	0	48758784	60	6597
2026-01-04 18:19:59.44	349.85	20.53	-38.7	-40.0	28.1	3.02e+01	0	29	0	54525952	58	5829
2026-01-04 18:20:02.46	349.09	20.77	-39.8	-41.1	28.3	3.02e+01	0	29	0	60293120	58	6599
2026-01-04 18:20:05.49	348.32	21.01	-39.7	-41.0	27.5	3.02e+01	0	29	0	65536000	58	6525
2026-01-04 18:20:08.52	347.53	21.25	-38.6	-39.8	28.7	3.02e+01	0	29	0	71303168	56	6399
2026-01-04 18:20:11.56	346.72	21.49	-38.0	-39.3	28.5	3.02e+01	0	29	0	77070336	56	6015
2026-01-04 18:20:14.59	345.91	21.72	-37.9	-39.1	28.5	3.02e+01	0	29	0	82837504	56	5877
2026-01-04 18:20:17.62	345.08	21.95	-38.1	-39.4	28.5	3.02e+01	0	29	0	88604672	56	6067
2026-01-04 18:20:20.66	344.24	22.17	-38.2	-39.4	28.7	3.02e+01	0	29	0	94371840	56	6111
2026-01-04 18:20:23.69	343.38	22.39	-38.6	-39.8	28.7	3.02e+01	0	29	0	100139008	56	6386
2026-01-04 18:20:26.72	342.52	22.61	-39.0	-40.2	28.3	3.02e+01	0	29	0	105381888	56	6714
2026-01-04 18:20:29.76	341.63	22.82	-37.9	-39.1	29.1	3.02e+01	0	29	0	111149056	56	5868
2026-01-04 18:20:32.79	340.74	23.03	-38.0	-39.3	28.8	3.02e+01	0	29	0	116916224	56	6007
2026-01-04 18:20:35.83	339.83	23.23	-37.6	-38.8	29.3	3.02e+01	0	29	0	122683392	56	5697
2026-01-04 18:20:38.86	338.92	23.42	-38.0	-39.3	28.8	3.02e+01	0	29	0	128450560	56	6000
2026-01-04 18:20:41.89	337.99	23.61	-38.5	-39.7	28.8	3.02e+01	0	29	0	134217728	56	6343
2026-01-04 18:20:44.92	337.05	23.79	-39.6	-40.9	27.5	3.02e+01	0	29	0	139460608	58	6430
2026-01-04 18:20:47.96	336.10	23.96	-39.2	-40.5	27.8	3.02e+01	0	29	0	145227776	58	6158
2026-01-04 18:20:50.99	335.13	24.13	-39.0	-40.3	28.4	3.02e+01	0	29	0	150994944	56	6733
2026-01-04 18:20:54.03	334.16	24.29	-39.1	-40.4	28.6	3.02e+01	0	29	0	156762112	58	6069
2026-01-04 18:20:57.06	333.18	24.44	-39.5	-40.8	28.1	3.02e+01	0	29	0	162529280	58	6400
2026-01-04 18:21:00.09	332.18	24.58	-39.0	-40.3	28.1	3.02e+01	0	29	0	168296448	58	6056
2026-01-04 18:21:03.13	331.18	24.72	-38.7	-40.0	28.2	3.02e+01	0	29	0	173539328	56	6526
2026-01-04 18:21:06.16	330.17	24.85	-38.8	-40.1	28.4	3.02e+01	0	29	0	179306496	56	6593
2026-01-04 18:21:09.19	329.15	24.96	-38.7	-40.0	28.2	3.02e+01	0	29	0	185073664	58	5797
2026-01-04 18:21:12.22	328.12	25.07	-38.7	-40.0	28.1	3.02e+01	0	29	0	190840832	58	5799
2026-01-04 18:21:15.26	327.08	25.17	-39.2	-40.5	27.9	3.02e+01	0	29	0	196608000	58	6186
2026-01-04 18:21:18.29	326.04	25.26	-38.5	-39.8	28.2	3.02e+01	0	29	0	202375168	56	6370
2026-01-04 18:21:21.32	325.00	25.34	-38.0	-39.2	29.1	3.02e+01	0	29	0	208142336	56	5943
2026-01-04 18:21:24.36	323.94	25.41	-38.2	-39.5	29.0	3.02e+01	0	29	0	213385216	56	6149
2026-01-04 18:21:27.39	322.88	25.47	-38.0	-39.2	29.1	3.02e+01	0	29	0	219152384	56	5980
2026-01-04 18:21:30.42	321.82	25.52	-38.3	-39.5	29.0	3.02e+01	0	29	0	224919552	56	6195
2026-01-04 18:21:33.46	320.76	25.56	-38.2	-39.4	29.0	3.02e+01	0	29	0	230686720	56	6112
2026-01-04 18:21:36.49	319.69	25.59	-38.7	-39.9	28.8	3.02e+01	0	29	0	236453888	56	6480
2026-01-04 18:21:39.52	318.62	25.61	-38.6	-39.8	28.9	3.02e+01	0	29	0	242221056	58	5693
2026-01-04 18:21:42.56	317.55	25.62	-38.7	-40.0	28.6	3.02e+01	0	29	0	247988224	56	6509
2026-01-04 18:21:45.59	316.48	25.62	-38.5	-39.8	28.7	3.02e+01	0	29	0	253231104	56	6357
2026-01-04 18:21:48.63	315.41	25.60	-39.4	-40.7	28.1	3.02e+01	0	29	0	258998272	56	7125
2026-01-04 18:21:51.66	314.34	25.58	-39.4	-40.6	28.1	3.02e+01	0	29	0	264765440	58	6273
2026-01-04 18:21:54.69	313.28	25.55	-39.1	-40.3	28.7	3.02e+01	0	29	0	270532608	58	6049
2026-01-04 18:21:57.73	312.21	25.50	-38.7	-39.9	28.8	3.02e+01	0	29	0	276299776	58	5782
2026-01-04 18:22:00.76	311.15	25.45	-39.0	-40.3	28.3	3.02e+01	0	29	0	282066944	58	6028
2026-01-04 18:22:03.79	310.09	25.38	-40.6	-41.9	27.6	3.02e+01	0	29	0	287834112	60	6468
2026-01-04 18:22:06.83	309.04	25.31	-39.1	-40.4	28.7	3.02e+01	0	29	0	293076992	58	6083
2026-01-04 18:22:09.86	308.00	25.22	-38.7	-39.9	29.2	3.02e+01	0	29	0	298844160	56	6438
2026-01-04 18:22:12.89	306.96	25.13	-39.0	-40.2	28.8	3.02e+01	0	29	0	304611328	58	5961
2026-01-04 18:22:15.92	305.93	25.02	-38.6	-39.8	29.3	3.02e+01	0	29	0	310378496	58	5702
2026-01-04 18:22:18.96	304.90	24.91	-40.0	-41.3	28.7	3.02e+01	0	29	0	316145664	58	6735
2026-01-04 18:22:21.99	303.88	24.79	-38.5	-39.7	29.1	3.02e+01	0	29	0	321912832	58	5619
2026-01-04 18:22:25.02	302.87	24.66	-38.8	-40.0	28.8	3.02e+01	0	29	0	327155712	58	5833
2026-01-04 18:22:28.06	301.87	24.52	-39.7	-40.9	28.6	3.02e+01	0	29	0	332922880	58	6464
2026-01-04 18:22:31.09	300.88	24.37	-39.6	-40.8	28.7	3.02e+01	0	29	0	338690048	58	6398
2026-01-04 18:22:34.12	299.90	24.21	-39.6	-40.8	28.7	3.02e+01	0	29	0	344457216	60	5694
2026-01-04 18:22:37.16	298.93	24.05	-39.2	-40.4	28.8	3.02e+01	0	29	0	350224384	58	6094
2026-01-04 18:22:40.19	297.97	23.88	-40.0	-41.3	28.2	3.02e+01	0	29	0	355991552	60	6031
2026-01-04 18:22:43.23	297.02	23.70	-40.6	-41.9	27.8	3.02e+01	0	29	0	361234432	60	6484
2026-01-04 18:22:46.26	296.08	23.52	-40.3	-41.6	28.7	3.02e+01	0	29	0	367001600	58	7005
2026-01-04 18:22:49.29	295.16	23.33	-39.9	-41.1	28.3	3.02e+01	0	29	0	372768768	58	6648
2026-01-04 18:22:52.32	294.24	23.13	-39.4	-40.7	28.0	3.02e+01	0	29	0	378535936	60	5610
2026-01-04 18:22:55.36	293.34	22.93	-40.8	-42.1	27.2	3.02e+01	0	29	0	384303104	60	6606
2026-01-04 18:22:58.39	292.45	22.72	-40.6	-42.0	26.6	3.02e+01	0	29	0	390070272	60	6553
2026-01-04 18:23:01.43	291.58	22.50	-39.8	-41.0	28.7	3.02e+01	0	29	0	395837440	60	5821
2026-01-04 18:23:04.46	290.71	22.29	-41.8	-43.2	27.4	3.02e+01	0	29	0	401080320	60	7544
2026-01-04 18:23:07.49	289.86	22.06	-39.9	-41.2	27.7	3.02e+01	0	29	0	406847488	58	6708
2026-01-04 18:23:10.52	289.03	21.84	-39.0	-40.2	28.5	3.02e+01	0	29	0	412614656	58	5944
2026-01-04 18:23:13.56	288.20	21.60	-39.6	-40.9	28.6	3.02e+01	0	29	0	418381824	60	5727
2026-01-04 18:23:16.59	287.39	21.37	-40.0	-41.4	27.6	3.02e+01	0	29	0	424148992	60	6075
2026-01-04 18:23:19.63	286.59	21.13	-39.2	-40.5	28.2	3.02e+01	0	29	0	429916160	56	6903
2026-01-04 18:23:22.66	285.80	20.89	-39.7	-41.0	28.1	3.02e+01	0	29	0	435683328	60	5814
2026-01-04 18:23:25.69	285.03	20.65	-40.1	-41.4	28.0	3.02e+01	0	29	0	440926208	58	6856
2026-01-04 18:23:28.73	284.27	20.40	-39.2	-40.5	28.1	3.02e+01	0	29	0	446693376	58	6186
2026-01-04 18:23:31.76	283.52	20.15	-39.2	-40.4	28.9	3.02e+01	0	29	0	452460544	58	6116
2026-01-04 18:23:34.79	282.79	19.90	-39.1	-40.4	28.9	3.02e+01	0	29	0	458227712	58	6065
2026-01-04 18:23:37.83	282.06	19.65	-40.2	-41.6	27.6	3.02e+01	0	29	0	463994880	60	6239
2026-01-04 18:23:40.86	281.36	19.39	-38.4	-39.5	28.9	3.02e+01	0	29	0	469762048	56	6205
2026-01-04 18:23:43.89	280.66	19.14	-39.8	-41.1	27.5	3.02e+01	0	29	0	475529216	58	6633
2026-01-04 18:23:46.93	279.97	18.88	-38.6	-39.8	28.8	3.02e+01	0	29	0	480772096	58	5699
2026-01-04 18:23:49.96	279.30	18.62	-39.3	-40.6	28.2	3.02e+01	0	29	0	486539264	58	6227
2026-01-04 18:23:52.99	278.64	18.36	-39.0	-40.2	28.6	3.02e+01	0	29	0	492306432	58	5982
2026-01-04 18:23:56.02	278.00	18.10	-39.6	-40.8	28.3	3.02e+01	0	29	0	498073600	58	6406
2026-01-04 18:23:59.06	277.36	17.84	-39.1	-40.3	28.7	3.02e+01	0	29	0	503840768	58	6060
2026-01-04 18:24:02.09	276.73	17.58	-38.6	-39.8	28.9	3.02e+01	0	29	0	509607936	58	5665
2026-01-04 18:24:05.12	276.12	17.32	-38.8	-40.1	28.8	3.02e+01	0	29	0	514850816	56	6598
2026-01-04 18:24:08.16	275.52	17.06	-38.7	-39.9	28.5	3.02e+01	0	29	0	520617984	58	5753
2026-01-04 18:24:11.19	274.93	16.80	-38.5	-39.7	28.8	3.02e+01	0	29	0	526385152	56	6299
2026-01-04 18:24:14.22	274.35	16.54	-38.6	-39.8	28.8	3.02e+01	0	29	0	532152320	56	6403
2026-01-04 18:24:17.26	273.78	16.27	-38.5	-39.7	29.0	3.02e+01	0	29	0	537919488	56	6339
2026-01-04 18:24:20.29	273.22	16.01	-38.8	-40.0	28.7	3.02e+01	0	29	0	543686656	56	6538
2026-01-04 18:24:23.32	272.67	15.75	-39.1	-40.3	26.1	3.02e+01	0	29	0	548929536	56	6792
2026-01-04 18:24:26.36	272.13	15.49	-38.9	-40.1	28.6	3.02e+01	0	29	0	554696704	58	5903
2026-01-04 18:24:29.39	271.60	15.24	-38.6	-39.8	28.9	3.02e+01	0	29	0	560463872	58	5676
2026-01-04 18:24:32.42	271.09	14.98	-38.8	-40.0	28.9	3.02e+01	0	29	0	566231040	58	5819
2026-01-04 18:24:35.46	270.58	14.72	-39.2	-40.4	28.7	3.02e+01	0	29	0	571998208	56	6866
2026-01-04 18:24:38.49	270.08	14.46	-38.0	-39.2	29.1	3.02e+01	0	29	0	577765376	56	5962
2026-01-04 18:24:41.52	269.59	14.21	-38.9	-40.2	28.4	3.02e+01	0	29	0	583532544	56	6697
2026-01-04 18:24:44.56	269.11	13.95	-38.3	-39.5	29.1	3.02e+01	0	29	0	588775424	56	6188
2026-01-04 18:24:47.59	268.63	13.70	-38.5	-39.7	28.8	3.02e+01	0	29	0	594542592	56	6321
2026-01-04 18:24:50.62	268.17	13.45	-39.6	-40.8	28.2	3.02e+01	0	29	0	600309760	58	6388
2026-01-04 18:24:53.65	267.72	13.20	-38.5	-39.7	28.9	3.02e+01	0	29	0	606076928	56	6318
2026-01-04 18:24:56.69	267.27	12.95	-38.8	-40.0	28.2	3.02e+01	0	29	0	611844096	58	5851
2026-01-04 18:24:59.72	266.83	12.70	-38.4	-39.6	29.0	3.02e+01	0	29	0	617611264	56	6276
2026-01-04 18:25:02.75	266.40	12.45	-39.2	-40.4	28.4	3.02e+01	0	29	0	623378432	58	6127
2026-01-04 18:25:05.79	265.98	12.20	-38.5	-39.7	28.8	3.02e+01	0	29	0	628621312	58	5651
2026-01-04 18:25:08.82	265.56	11.96	-38.7	-39.9	28.7	3.02e+01	0	29	0	634388480	56	6480
2026-01-04 18:25:11.85	265.15	11.72	-38.8	-40.0	28.5	3.02e+01	0	29	0	640155648	56	6529
2026-01-04 18:25:14.89	264.75	11.47	-39.1	-40.3	28.6	3.02e+01	0	29	0	645922816	58	6046
2026-01-04 18:25:17.92	264.36	11.23	-39.1	-40.3	28.2	3.02e+01	0	29	0	651689984	58	6031
2026-01-04 18:25:20.95	263.97	10.99	-38.6	-39.9	28.5	3.02e+01	0	29	0	657457152	58	5729
2026-01-04 18:25:23.99	263.59	10.76	-38.8	-40.0	28.7	3.02e+01	0	29	0	663224320	58	5830
2026-01-04 18:25:27.02	263.22	10.52	-39.4	-40.7	28.4	3.02e+01	0	29	0	668467200	58	6326
2026-01-04 18:25:30.05	262.86	10.28	-38.5	-39.7	28.6	3.02e+01	0	29	0	674234368	58	5652
2026-01-04 18:25:33.08	262.50	10.05	-39.0	-40.2	28.4	3.02e+01	0	29	0	680001536	58	5986
2026-01-04 18:25:36.12	262.14	9.82	-38.9	-40.1	28.4	3.02e+01	0	29	0	685768704	58	5886
2026-01-04 18:25:39.15	261.79	9.59	-38.9	-40.2	28.4	3.02e+01	0	29	0	691535872	58	5963
2026-01-04 18:25:42.19	261.45	9.36	-38.9	-40.2	28.4	3.02e+01	0	29	0	697303040	58	5952
2026-01-04 18:25:45.22	261.12	9.13	-39.1	-40.4	28.2	3.02e+01	0	29	0	702545920	58	6070
2026-01-04 18:25:48.25	260.79	8.90	-39.1	-40.4	28.1	3.02e+01	0	29	0	708313088	58	6097
2026-01-04 18:25:51.28	260.46	8.68	-39.2	-40.5	28.1	3.02e+01	0	29	0	714080256	58	6160
2026-01-04 18:25:54.32	260.15	8.45	-39.2	-40.5	27.9	3.02e+01	0	29	0	719847424	58	6137
2026-01-04 18:25:57.35	259.83	8.23	-39.0	-40.3	28.3	3.02e+01	0	29	0	725614592	58	6021
2026-01-04 18:26:00.38	259.52	8.01	-39.1	-40.4	27.9	3.02e+01	0	29	0	731381760	58	6094
2026-01-04 18:26:03.42	259.22	7.79	-39.4	-40.7	27.7	3.02e+01	0	29	0	736624640	58	6283
2026-01-04 18:26:06.45	258.92	7.57	-38.8	-40.0	28.2	3.02e+01	0	29	0	742391808	58	5854
2026-01-04 18:26:09.48	258.63	7.35	-39.1	-40.3	28.1	3.02e+01	0	29	0	748158976	58	6041
2026-01-04 18:26:12.52	258.34	7.14	-39.5	-40.8	27.9	3.02e+01	0	29	0	753926144	58	6355
2026-01-04 18:26:15.55	258.06	6.92	-39.2	-40.5	27.9	3.02e+01	0	29	0	759693312	58	6175
2026-01-04 18:26:18.58	257.78	6.71	-39.1	-40.3	27.9	3.02e+01	0	29	0	765460480	58	6055
2026-01-04 18:26:21.62	257.51	6.50	-39.9	-41.2	27.3	3.02e+01	0	29	0	771227648	58	6723
2026-01-04 18:26:24.65	257.24	6.29	-39.5	-40.8	27.6	3.02e+01	0	29	0	776470528	58	6400
2026-01-04 18:26:27.68	256.97	6.08	-39.6	-40.9	27.4	3.02e+01	0	29	0	782237696	58	6484
2026-01-04 18:26:30.72	256.71	5.87	-39.4	-40.7	27.5	3.02e+01	0	29	0	788004864	58	6324
2026-01-04 18:26:33.75	256.45	5.67	-39.6	-40.9	27.4	3.02e+01	0	29	0	793772032	58	6469
2026-01-04 18:26:36.78	256.20	5.46	-39.3	-40.6	27.4	3.02e+01	0	29	0	799539200	58	6239
2026-01-04 18:26:39.81	255.95	5.26	-39.4	-40.7	27.3	3.02e+01	0	29	0	805306368	58	6312
2026-01-04 18:26:42.85	255.71	5.06	-39.5	-40.9	27.2	3.02e+01	0	29	0	811073536	58	6436
2026-01-04 18:26:45.88	255.47	4.86	-39.4	-40.7	27.3	3.02e+01	0	29	0	816316416	58	6349
2026-01-04 18:26:48.91	255.23	4.66	-39.5	-40.8	27.2	3.02e+01	0	29	0	822083584	58	6423
2026-01-04 18:26:51.95	254.99	4.46	-40.0	-41.3	26.9	3.02e+01	0	29	0	827850752	58	6797
2026-01-04 18:26:54.98	254.76	4.26	-40.6	-42.0	26.7	3.02e+01	0	29	0	833617920	60	6544
2026-01-04 18:26:58.01	254.54	4.06	-40.3	-41.7	26.7	3.02e+01	0	29	0	839385088	60	6314
2026-01-04 18:27:01.05	254.31	3.87	-39.9	-41.2	26.9	3.02e+01	0	29	0	845152256	60	5968
2026-01-04 18:27:04.08	254.09	3.67	-40.4	-41.8	26.4	3.02e+01	0	29	0	850919424	60	6379
2026-01-04 18:27:07.11	253.88	3.48	-40.5	-41.9	26.3	3.02e+01	0	29	0	856162304	60	6436
2026-01-04 18:27:10.15	253.66	3.29	-40.3	-41.7	26.4	3.02e+01	0	29	0	861929472	60	6328
2026-01-04 18:27:13.18	253.45	3.10	-40.5	-41.9	26.4	3.02e+01	0	29	0	867696640	60	6444
2026-01-04 18:27:16.21	253.24	2.91	-40.4	-41.8	26.4	3.02e+01	0	29	0	873463808	60	6379
2026-01-04 18:27:19.25	253.04	2.72	-41.2	-42.6	25.8	3.02e+01	0	29	0	879230976	60	7021
2026-01-04 18:27:22.28	252.84	2.53	-41.2	-42.7	25.6	3.02e+01	0	29	0	884998144	60	7082
2026-01-04 18:27:25.31	252.64	2.35	-41.5	-43.0	24.9	3.02e+01	0	29	0	890241024	60	7339
2026-01-04 18:27:28.34	252.44	2.16	-41.9	-43.4	24.8	3.02e+01	0	29	0	896008192	60	7674
2026-01-04 18:27:31.38	252.25	1.98	-41.9	-43.5	24.9	3.02e+01	0	29	0	901775360	60	7748
2026-01-04 18:27:34.41	252.06	1.80	-42.2	-43.8	24.3	3.02e+01	0	29	0	907542528	60	8045
2026-01-04 18:27:37.45	251.87	1.61	-40.9	-42.4	25.4	3.02e+01	0	29	0	913309696	60	6856
2026-01-04 18:27:40.48	251.69	1.43	-41.2	-42.7	25.2	3.02e+01	0	29	0	919076864	60	7114
2026-01-04 18:27:43.51	251.51	1.25	-40.5	-42.0	25.8	3.02e+01	0	29	0	924319744	60	6502
2026-01-04 18:27:46.54	251.33	1.07	-41.1	-42.6	25.3	3.02e+01	0	29	0	930086912	60	6969
2026-01-04 18:27:49.58	251.15	0.89	-41.8	-43.3	24.7	3.02e+01	0	29	0	935854080	60	7624
2026-01-04 18:27:52.61	250.97	0.72	-41.3	-42.8	25.3	3.02e+01	0	29	0	941621248	60	7155
2026-01-04 18:27:55.64	250.80	0.54	-41.2	-42.8	25.1	3.02e+01	0	29	0	947388416	60	7127
2026-01-04 18:27:58.68	250.63	0.37	-41.1	-42.7	24.9	3.02e+01	0	29	0	953155584	60	7046
2026-01-04 18:28:01.71	250.46	0.19	-50.9	-68.4	3.5	3.02e+01	0	29	104	957874176	60	137031
2026-01-04 18:28:04.74	250.30	0.02	-51.8	-69.5	3.5	3.02e+01	0	29	104	957874176	60	155717

#Closed at: 2026-01-04 18:28:06
#Recorded file [957 MB]: D:/lorett/data/35034_260104_211523.dat