passes_logs/2026/01/04/R4.6S_Anadyr_2ch/R4.6S_Anadyr_2ch__20260104_013806_AQUA_rec.log

#Pass ID: 20260104_013806_AQUA
#Satellite: AQUA
#Configuration: AQUA
#almurnet v.1.7.20251203
#Start time: 2026-01-04 01:38:07

#Version: 2.2.20231116
#Station: R4.6S_Anadyr_2ch
#Location: 177.4865 lon 64.73178 lat
#TLE: 1 27424U 02022A   25351.00450321  .00000925  00000+0  19503-3 0  9992
#TLE: 2 27424  98.4041 311.9529 0001248 113.7180 322.1616 14.61819266256652

#Time	Az	El	Level	Level2	SNR	BER	BlckErr	Temp	State	Recorded	gain1	gain2
2026-01-04 01:38:07.87	148.83	0.07	-53.0	-68.1	3.5	1.51e+00	0	34	0	0	60	124379
2026-01-04 01:38:11.91	148.80	0.32	-54.7	-72.5	3.5	3.02e+01	0	35	104	0	60	218369
2026-01-04 01:38:15.96	148.77	0.57	-54.7	-72.6	3.5	3.02e+01	0	36	104	0	60	220613
2026-01-04 01:38:20.00	148.73	0.83	-54.5	-72.2	3.5	3.02e+01	0	36	104	0	60	212474
2026-01-04 01:38:24.04	148.70	1.08	-54.3	-72.2	3.5	3.02e+01	0	36	104	0	60	211402
2026-01-04 01:38:28.08	148.66	1.35	-53.9	-71.7	3.5	3.02e+01	0	36	104	0	60	199375
2026-01-04 01:38:32.12	148.63	1.61	-54.2	-72.1	3.5	3.02e+01	0	36	104	0	60	208697
2026-01-04 01:38:36.16	148.59	1.88	-54.8	-72.6	3.5	3.02e+01	0	36	104	0	60	222224
2026-01-04 01:38:40.21	148.55	2.14	-54.8	-72.6	3.5	3.02e+01	0	36	104	0	60	222545
2026-01-04 01:38:44.25	148.52	2.42	-54.3	-72.1	3.5	3.02e+01	0	36	104	0	60	210130
2026-01-04 01:38:48.29	148.48	2.69	-54.1	-71.9	3.5	3.02e+01	0	36	104	0	60	204043
2026-01-04 01:38:52.33	148.44	2.97	-54.5	-72.4	3.5	3.02e+01	0	36	104	0	60	217562
2026-01-04 01:38:56.37	148.40	3.25	-53.9	-71.7	3.5	3.02e+01	0	36	104	0	60	199337
2026-01-04 01:39:00.41	148.35	3.53	-53.0	-70.8	3.5	3.02e+01	0	36	104	0	60	181044
2026-01-04 01:39:04.45	148.31	3.82	-52.4	-70.2	3.5	3.02e+01	0	36	104	0	60	167668
2026-01-04 01:39:08.50	148.26	4.11	-51.4	-69.2	3.5	3.02e+01	0	36	104	0	60	149013
2026-01-04 01:39:12.54	148.22	4.41	-51.2	-69.2	3.5	3.02e+01	0	37	104	0	60	149357
2026-01-04 01:39:16.59	148.17	4.70	-51.2	-68.8	3.5	3.02e+01	0	37	104	0	60	143284
2026-01-04 01:39:20.63	148.12	5.00	-51.2	-68.6	3.5	3.02e+01	0	36	104	0	60	138938
2026-01-04 01:39:24.67	148.07	5.31	-51.2	-69.1	3.5	3.02e+01	0	37	104	0	60	148404
2026-01-04 01:39:28.71	148.02	5.62	-51.3	-69.3	3.5	3.02e+01	0	37	104	0	60	150939
2026-01-04 01:39:32.75	147.96	5.93	-51.2	-68.8	3.5	3.02e+01	0	37	104	0	60	142429
2026-01-04 01:39:36.79	147.91	6.25	-51.1	-68.1	3.5	3.02e+01	0	37	104	0	60	131741
2026-01-04 01:39:40.84	147.85	6.57	-51.1	-67.6	3.6	3.02e+01	0	37	104	0	60	124857
2026-01-04 01:39:44.88	147.79	6.90	-50.1	-57.1	11.3	3.02e+01	92	37	0	1572864	60	37093
2026-01-04 01:39:48.92	147.73	7.23	-45.9	-48.4	20.9	3.02e+01	87	37	0	8912896	60	13582
2026-01-04 01:39:52.97	147.67	7.57	-41.9	-43.4	25.5	3.02e+01	91	37	0	16777216	60	7661
2026-01-04 01:39:57.01	147.61	7.91	-42.2	-43.7	25.1	3.02e+01	92	37	0	22020096	60	7969
2026-01-04 01:40:01.05	147.54	8.25	-41.8	-43.3	25.7	3.02e+01	92	37	0	29884416	60	7558
2026-01-04 01:40:05.09	147.47	8.60	-41.2	-42.6	26.3	3.02e+01	92	37	0	37224448	60	6983
2026-01-04 01:40:09.14	147.40	8.96	-41.1	-42.5	26.5	3.02e+01	92	37	0	45088768	60	6939
2026-01-04 01:40:13.18	147.33	9.32	-41.3	-42.7	26.3	3.02e+01	92	37	0	52428800	60	7076
2026-01-04 01:40:17.23	147.26	9.69	-40.5	-41.8	27.1	3.02e+01	92	36	0	60293120	60	6384
2026-01-04 01:40:21.27	147.18	10.07	-40.4	-41.8	27.2	3.02e+01	92	37	0	67633152	60	6364
2026-01-04 01:40:25.31	147.10	10.45	-40.3	-41.7	27.3	3.02e+01	92	37	0	75497472	60	6292
2026-01-04 01:40:29.36	147.02	10.84	-40.2	-41.5	27.5	3.02e+01	92	37	0	82837504	60	6152
2026-01-04 01:40:33.40	146.93	11.23	-40.1	-41.4	27.7	3.02e+01	92	37	0	90177536	60	6083
2026-01-04 01:40:37.45	146.84	11.64	-40.1	-41.4	27.6	3.02e+01	92	37	0	98041856	60	6095
2026-01-04 01:40:41.49	146.75	12.04	-39.9	-41.2	27.8	3.02e+01	92	37	0	105381888	60	5938
2026-01-04 01:40:45.54	146.66	12.46	-39.8	-41.1	28.1	3.02e+01	88	37	0	113246208	60	5874
2026-01-04 01:40:49.58	146.56	12.89	-39.8	-41.1	28.2	3.02e+01	92	37	0	120586240	60	5890
2026-01-04 01:40:53.62	146.46	13.32	-39.4	-40.7	28.5	3.02e+01	91	37	0	128450560	60	5632
2026-01-04 01:40:57.67	146.36	13.76	-39.6	-40.8	28.4	3.02e+01	92	37	0	135790592	60	5710
2026-01-04 01:41:01.71	146.25	14.21	-39.3	-40.6	28.6	3.02e+01	91	37	0	143654912	58	6225
2026-01-04 01:41:05.75	146.13	14.67	-39.4	-40.7	28.5	3.02e+01	87	36	0	150994944	58	6301
2026-01-04 01:41:09.80	146.02	15.14	-39.2	-40.4	28.6	3.02e+01	90	37	0	158859264	58	6118
2026-01-04 01:41:13.84	145.90	15.62	-39.7	-40.9	28.4	3.02e+01	92	37	0	166199296	58	6480
2026-01-04 01:41:17.88	145.77	16.11	-39.4	-40.6	28.6	3.02e+01	90	37	0	174063616	58	6268
2026-01-04 01:41:21.93	145.64	16.62	-39.2	-40.4	28.7	3.02e+01	91	37	0	181403648	58	6109
2026-01-04 01:41:25.97	145.50	17.13	-38.9	-40.1	28.9	3.02e+01	92	37	0	188743680	58	5914
2026-01-04 01:41:30.02	145.36	17.66	-38.9	-40.1	29.0	3.02e+01	92	37	0	196608000	58	5875
2026-01-04 01:41:34.06	145.21	18.19	-38.8	-40.1	29.0	3.02e+01	91	37	0	203948032	58	5869
2026-01-04 01:41:38.10	145.06	18.74	-38.9	-40.1	28.9	3.02e+01	90	37	0	211812352	58	5882
2026-01-04 01:41:42.15	144.90	19.31	-39.2	-40.4	28.6	3.02e+01	92	37	0	219152384	58	6129
2026-01-04 01:41:46.19	144.73	19.89	-38.6	-39.8	29.3	3.02e+01	91	37	0	227016704	58	5668
2026-01-04 01:41:50.24	144.56	20.48	-38.8	-40.0	29.3	3.02e+01	92	37	0	234356736	58	5856
2026-01-04 01:41:54.28	144.37	21.09	-38.8	-40.0	29.3	3.02e+01	92	37	0	242221056	58	5806
2026-01-04 01:41:58.32	144.18	21.71	-38.8	-40.0	29.0	3.02e+01	92	37	0	249561088	58	5851
2026-01-04 01:42:02.36	143.98	22.35	-38.5	-39.7	29.4	3.02e+01	92	37	0	257425408	58	5616
2026-01-04 01:42:06.41	143.77	23.01	-38.6	-39.9	29.3	3.02e+01	91	37	0	264765440	58	5726
2026-01-04 01:42:10.45	143.55	23.69	-38.6	-39.7	29.3	3.02e+01	90	37	0	272629760	58	5657
2026-01-04 01:42:14.49	143.32	24.39	-38.4	-39.6	29.5	3.02e+01	91	37	0	279969792	58	5580
2026-01-04 01:42:18.54	143.08	25.10	-38.9	-40.2	28.8	3.02e+01	89	37	0	287834112	58	5937
2026-01-04 01:42:22.58	142.83	25.84	-38.7	-39.9	28.9	3.02e+01	91	37	0	295174144	58	5734
2026-01-04 01:42:26.62	142.56	26.60	-38.7	-39.9	29.3	3.02e+01	89	37	0	302514176	58	5744
2026-01-04 01:42:30.66	142.28	27.38	-39.2	-40.4	28.9	3.02e+01	92	37	0	310378496	58	6120
2026-01-04 01:42:34.71	141.98	28.19	-38.8	-40.0	29.4	3.02e+01	92	37	0	317718528	58	5817
2026-01-04 01:42:38.75	141.66	29.02	-38.7	-39.9	29.6	3.02e+01	92	37	0	325582848	58	5757
2026-01-04 01:42:42.79	141.33	29.88	-38.6	-39.8	29.6	3.02e+01	92	37	0	332922880	58	5698
2026-01-04 01:42:46.84	140.97	30.76	-38.7	-39.9	29.5	3.02e+01	91	37	0	340787200	58	5727
2026-01-04 01:42:50.88	140.60	31.68	-38.6	-39.8	29.5	3.02e+01	92	37	0	348127232	58	5708
2026-01-04 01:42:54.93	140.20	32.62	-38.9	-40.2	29.2	3.02e+01	90	37	0	355991552	58	5929
2026-01-04 01:42:58.97	139.78	33.59	-38.7	-39.9	29.3	3.02e+01	91	37	0	363331584	58	5785
2026-01-04 01:43:03.01	139.33	34.60	-39.1	-40.3	29.0	3.02e+01	92	37	0	370671616	58	6050
2026-01-04 01:43:07.05	138.84	35.64	-38.5	-39.7	29.5	3.02e+01	92	37	0	378535936	58	5643
2026-01-04 01:43:11.10	138.32	36.71	-38.5	-39.7	29.6	3.02e+01	91	37	0	385875968	58	5629
2026-01-04 01:43:15.14	137.77	37.82	-38.4	-39.6	29.8	3.02e+01	92	37	0	393740288	56	6213
2026-01-04 01:43:19.18	137.17	38.97	-38.1	-39.3	30.0	3.02e+01	92	37	0	401080320	56	6025
2026-01-04 01:43:23.23	136.53	40.15	-38.4	-39.6	29.7	3.02e+01	92	37	0	408944640	56	6246
2026-01-04 01:43:27.27	135.84	41.37	-38.0	-39.2	30.3	3.02e+01	92	37	0	416284672	56	5927
2026-01-04 01:43:31.31	135.09	42.64	-38.3	-39.5	30.1	3.02e+01	92	37	0	424148992	56	6136
2026-01-04 01:43:35.36	134.27	43.94	-38.3	-39.5	30.0	3.02e+01	92	37	0	431489024	56	6183
2026-01-04 01:43:39.40	133.38	45.28	-38.3	-39.4	30.0	3.02e+01	92	37	0	439353344	56	6125
2026-01-04 01:43:43.44	132.42	46.66	-39.0	-40.2	29.5	3.02e+01	92	37	0	446693376	56	6692
2026-01-04 01:43:47.48	131.35	48.08	-38.8	-40.0	29.5	3.02e+01	92	37	0	454033408	56	6510
2026-01-04 01:43:51.52	130.19	49.54	-39.5	-40.7	29.1	3.02e+01	92	37	0	461897728	58	6334
2026-01-04 01:43:55.57	128.89	51.04	-40.0	-41.3	28.5	3.02e+01	85	37	0	469237760	60	5995
2026-01-04 01:43:59.61	127.46	52.57	-40.5	-41.8	28.1	3.02e+01	91	37	0	477102080	60	6401
2026-01-04 01:44:03.66	125.87	54.13	-40.9	-42.2	27.7	3.02e+01	92	37	0	484442112	60	6676
2026-01-04 01:44:07.70	124.09	55.72	-41.3	-42.6	27.2	3.02e+01	90	37	0	492306432	60	7040
2026-01-04 01:44:11.75	122.09	57.32	-40.1	-41.3	28.3	3.02e+01	90	37	0	499646464	60	6045
2026-01-04 01:44:15.79	119.85	58.93	-40.8	-42.1	27.8	3.02e+01	92	37	0	507510784	60	6632
2026-01-04 01:44:19.83	117.30	60.54	-40.0	-41.3	28.4	3.02e+01	91	37	0	514850816	60	6025
2026-01-04 01:44:23.88	114.41	62.14	-38.7	-39.9	29.7	3.02e+01	91	37	0	522715136	58	5766
2026-01-04 01:44:27.91	111.12	63.69	-39.7	-41.0	28.6	3.02e+01	91	37	0	530055168	58	6500
2026-01-04 01:44:31.96	107.36	65.20	-40.2	-41.5	28.1	3.02e+01	89	37	0	537919488	60	6157
2026-01-04 01:44:36.00	103.07	66.63	-39.4	-40.6	29.0	3.02e+01	90	37	0	545259520	58	6234
2026-01-04 01:44:40.04	98.19	67.94	-38.8	-40.0	29.4	3.02e+01	90	37	0	553123840	58	5807
2026-01-04 01:44:44.09	92.66	69.10	-38.2	-39.4	30.0	3.02e+01	91	37	0	560463872	56	6067
2026-01-04 01:44:48.13	86.51	70.07	-38.2	-39.4	30.0	3.02e+01	89	37	0	567803904	56	6077
2026-01-04 01:44:52.17	79.75	70.81	-38.9	-40.1	29.3	3.02e+01	92	37	0	575668224	56	6623
2026-01-04 01:44:56.22	72.51	71.29	-39.2	-40.4	29.2	3.02e+01	87	37	0	583008256	58	6097
2026-01-04 01:45:00.26	65.01	71.47	-39.5	-40.8	28.8	3.02e+01	91	37	0	590872576	58	6366
2026-01-04 01:45:04.31	57.46	71.35	-39.9	-41.2	28.4	3.02e+01	91	37	0	598212608	58	6702
2026-01-04 01:45:08.35	50.17	70.94	-40.3	-41.5	28.2	3.02e+01	92	37	0	606076928	58	6954
2026-01-04 01:45:12.39	43.31	70.25	-40.9	-42.2	27.5	3.02e+01	92	37	0	613416960	60	6666
2026-01-04 01:45:16.44	37.01	69.32	-41.7	-43.1	27.0	3.02e+01	90	37	0	621281280	60	7389
2026-01-04 01:45:20.48	31.36	68.19	-43.9	-45.5	24.5	3.02e+01	90	37	0	628621312	60	9764
2026-01-04 01:45:24.53	26.35	66.91	-42.9	-44.3	25.8	3.02e+01	92	37	0	636485632	60	8566
2026-01-04 01:45:28.57	21.95	65.51	-42.9	-44.4	25.7	3.02e+01	90	37	0	643825664	60	8634
2026-01-04 01:45:32.61	18.09	64.02	-43.6	-45.2	25.0	3.02e+01	91	37	0	651689984	60	9407
2026-01-04 01:45:36.65	14.71	62.48	-43.1	-44.6	25.4	3.02e+01	90	37	0	659030016	60	8843
2026-01-04 01:45:40.69	11.75	60.89	-42.6	-44.0	26.0	3.02e+01	57	37	0	666370048	60	8253
2026-01-04 01:45:44.73	9.14	59.29	-42.8	-44.2	25.7	3.02e+01	59	37	0	674234368	60	8451
2026-01-04 01:45:48.78	6.83	57.68	-43.4	-44.9	25.2	3.02e+01	61	37	0	681574400	60	9171
2026-01-04 01:45:52.82	4.79	56.08	-42.4	-43.8	26.3	3.02e+01	57	37	0	689438720	60	8069
2026-01-04 01:45:56.86	2.98	54.50	-44.4	-46.1	24.1	3.02e+01	56	37	0	696778752	60	10429
2026-01-04 01:46:00.91	1.35	52.93	-44.3	-46.0	24.2	3.02e+01	46	37	0	704643072	60	10358
2026-01-04 01:46:04.95	359.89	51.40	-44.2	-45.8	24.3	3.02e+01	62	37	0	711983104	60	10179
2026-01-04 01:46:08.99	358.57	49.90	-45.2	-47.0	22.7	3.02e+01	61	37	0	719847424	60	11595
2026-01-04 01:46:13.04	357.38	48.44	-44.3	-45.9	24.2	3.02e+01	61	37	0	727187456	60	10282
2026-01-04 01:46:17.08	356.30	47.01	-43.1	-44.5	25.7	3.02e+01	48	37	0	735051776	60	8760
2026-01-04 01:46:21.13	355.31	45.63	-41.9	-43.3	26.9	3.02e+01	57	37	0	742391808	60	7552
2026-01-04 01:46:25.17	354.41	44.28	-41.1	-42.4	27.5	3.02e+01	58	37	0	749731840	60	6823
2026-01-04 01:46:29.22	353.58	42.97	-40.5	-41.7	27.9	3.02e+01	52	37	0	757596160	60	6344
2026-01-04 01:46:33.26	352.82	41.71	-40.5	-41.8	27.7	3.02e+01	46	37	0	764936192	60	6390
2026-01-04 01:46:37.31	352.11	40.48	-39.6	-40.8	28.9	3.02e+01	60	37	0	772800512	58	6403
2026-01-04 01:46:41.35	351.46	39.29	-38.3	-39.5	30.0	3.02e+01	47	37	0	780140544	56	6148
2026-01-04 01:46:45.39	350.86	38.14	-37.7	-38.9	30.2	3.02e+01	60	37	0	788004864	54	6444
2026-01-04 01:46:49.44	350.29	37.03	-38.3	-39.5	29.9	3.02e+01	46	37	0	795344896	56	6135
2026-01-04 01:46:53.48	349.77	35.95	-39.0	-40.2	29.3	3.02e+01	59	37	0	803209216	56	6714
2026-01-04 01:46:57.53	349.28	34.91	-39.3	-40.5	29.4	3.02e+01	48	37	0	810549248	58	6148
2026-01-04 01:47:01.57	348.83	33.90	-39.0	-40.2	29.4	3.02e+01	58	37	0	818413568	58	5949
2026-01-04 01:47:05.61	348.40	32.92	-38.7	-39.9	29.7	3.02e+01	56	37	0	825753600	58	5757
2026-01-04 01:47:09.65	348.00	31.97	-38.9	-40.0	29.4	3.02e+01	59	37	0	833617920	58	5856
2026-01-04 01:47:13.70	347.62	31.06	-39.0	-40.1	29.6	3.02e+01	59	37	0	840957952	58	5917
2026-01-04 01:47:17.74	347.26	30.17	-39.7	-41.0	28.8	3.02e+01	55	37	0	848822272	58	6508
2026-01-04 01:47:21.79	346.92	29.31	-39.9	-41.1	28.9	3.02e+01	59	37	0	856162304	58	6601
2026-01-04 01:47:25.83	346.61	28.47	-40.8	-42.1	27.9	3.02e+01	62	37	0	863502336	60	6649
2026-01-04 01:47:29.87	346.31	27.66	-40.4	-41.7	28.2	3.02e+01	58	37	0	871366656	60	6301
2026-01-04 01:47:33.92	346.02	26.88	-41.1	-42.4	28.0	3.02e+01	60	37	0	878706688	60	6845
2026-01-04 01:47:37.96	345.75	26.12	-40.0	-41.2	28.8	3.02e+01	59	37	0	886571008	60	5989
2026-01-04 01:47:42.01	345.50	25.38	-39.9	-41.2	28.9	3.02e+01	60	37	0	893911040	60	5937
2026-01-04 01:47:46.05	345.25	24.66	-39.2	-40.4	29.3	3.02e+01	59	37	0	901775360	58	6115
2026-01-04 01:47:50.10	345.02	23.96	-38.7	-39.9	29.8	3.02e+01	63	37	0	909115392	58	5744
2026-01-04 01:47:54.14	344.80	23.28	-38.7	-39.9	29.9	3.02e+01	55	37	0	916979712	58	5734
2026-01-04 01:47:58.18	344.59	22.62	-38.7	-39.9	29.9	3.02e+01	46	37	0	924319744	58	5747
2026-01-04 01:48:02.22	344.39	21.98	-38.6	-39.8	29.9	3.02e+01	58	37	0	932184064	58	5687
2026-01-04 01:48:06.27	344.20	21.35	-38.5	-39.7	30.0	3.02e+01	45	37	0	939524096	56	6278
2026-01-04 01:48:10.31	344.02	20.74	-38.4	-39.6	30.1	3.02e+01	60	37	0	946864128	56	6226
2026-01-04 01:48:14.35	343.85	20.14	-38.8	-40.0	29.9	3.02e+01	59	37	0	954728448	56	6516
2026-01-04 01:48:18.40	343.68	19.56	-39.3	-40.4	29.8	3.02e+01	62	37	0	962068480	58	6131
2026-01-04 01:48:22.44	343.52	19.00	-39.4	-40.6	29.4	3.02e+01	46	37	0	969932800	58	6264
2026-01-04 01:48:26.49	343.36	18.45	-39.7	-40.9	29.3	3.02e+01	59	37	0	977272832	58	6451
2026-01-04 01:48:30.53	343.22	17.91	-39.5	-40.8	29.2	3.02e+01	57	37	0	985137152	58	6361
2026-01-04 01:48:34.58	343.08	17.38	-40.3	-41.5	28.4	3.02e+01	61	37	0	992477184	60	6179
2026-01-04 01:48:38.62	342.94	16.87	-39.7	-40.9	29.2	3.02e+01	48	37	0	1000341504	60	5784
2026-01-04 01:48:42.67	342.81	16.36	-39.6	-40.9	29.0	3.02e+01	62	37	0	1007681536	58	6431
2026-01-04 01:48:46.71	342.69	15.87	-39.5	-40.7	28.8	3.02e+01	45	37	0	1015545856	58	6337
2026-01-04 01:48:50.75	342.57	15.39	-39.5	-40.8	28.8	3.02e+01	58	37	0	1022885888	58	6376
2026-01-04 01:48:54.80	342.45	14.92	-39.5	-40.7	28.8	3.02e+01	45	37	0	1030750208	58	6345
2026-01-04 01:48:58.84	342.34	14.46	-39.2	-40.5	29.0	3.02e+01	62	37	0	1038090240	58	6150
2026-01-04 01:49:02.89	342.23	14.00	-39.3	-40.5	29.0	3.02e+01	55	37	0	1045954560	58	6167
2026-01-04 01:49:06.93	342.13	13.56	-39.3	-40.5	29.3	3.02e+01	60	37	0	1053294592	58	6183
2026-01-04 01:49:10.97	342.03	13.13	-39.3	-40.5	29.3	3.02e+01	63	37	0	1060634624	58	6147
2026-01-04 01:49:15.01	341.93	12.70	-39.3	-40.5	29.4	3.02e+01	57	37	0	1068498944	58	6180
2026-01-04 01:49:19.06	341.84	12.28	-39.1	-40.3	29.3	3.02e+01	58	37	0	1075838976	58	6019
2026-01-04 01:49:23.10	341.75	11.87	-39.2	-40.4	29.2	3.02e+01	60	37	0	1083703296	58	6071
2026-01-04 01:49:27.15	341.67	11.47	-39.1	-40.4	29.2	3.02e+01	60	37	0	1091043328	58	6074
2026-01-04 01:49:31.19	341.58	11.08	-39.3	-40.5	29.0	3.02e+01	59	37	0	1098907648	58	6202
2026-01-04 01:49:35.23	341.50	10.69	-39.6	-40.9	28.9	3.02e+01	59	37	0	1106247680	58	6427
2026-01-04 01:49:39.28	341.42	10.30	-39.6	-40.9	29.0	3.02e+01	60	37	0	1114112000	58	6444
2026-01-04 01:49:43.32	341.35	9.93	-39.3	-40.5	28.9	3.02e+01	59	37	0	1121452032	58	6181
2026-01-04 01:49:47.37	341.28	9.56	-39.3	-40.6	29.0	3.02e+01	59	37	0	1129316352	58	6215
2026-01-04 01:49:51.41	341.21	9.20	-39.5	-40.7	29.2	3.02e+01	62	37	0	1136656384	58	6316
2026-01-04 01:49:55.45	341.14	8.84	-39.3	-40.6	29.1	3.02e+01	58	37	0	1144520704	58	6209
2026-01-04 01:49:59.50	341.07	8.49	-39.9	-41.1	28.7	3.02e+01	58	37	0	1151860736	58	6627
2026-01-04 01:50:03.54	341.01	8.14	-40.1	-41.4	28.7	3.02e+01	48	37	0	1159200768	58	6831
2026-01-04 01:50:07.59	340.95	7.80	-40.2	-50.5	3.4	3.02e+01	0	37	104	1166540800	60	17442
2026-01-04 01:50:11.63	340.89	7.46	-40.9	-51.0	3.6	3.02e+01	0	37	104	1166540800	60	18401
2026-01-04 01:50:15.67	340.83	7.13	-42.2	-52.4	3.6	3.02e+01	0	37	104	1166540800	60	21608
2026-01-04 01:50:19.72	340.78	6.80	-45.2	-55.8	3.6	3.02e+01	0	37	104	1166540800	60	31930
2026-01-04 01:50:23.76	340.72	6.48	-45.0	-55.4	3.4	3.02e+01	0	37	104	1166540800	60	30714
2026-01-04 01:50:27.81	340.67	6.16	-42.7	-52.8	4.1	3.02e+01	0	37	104	1166540800	60	22745
2026-01-04 01:50:31.85	340.62	5.85	-52.2	-67.9	3.5	3.02e+01	0	37	104	1166540800	60	129469
2026-01-04 01:50:35.89	340.57	5.54	-42.1	-52.4	3.5	3.02e+01	0	37	104	1166540800	60	21635
2026-01-04 01:50:39.94	340.52	5.23	-51.8	-68.1	3.5	3.02e+01	0	37	104	1166540800	60	132117
2026-01-04 01:50:43.98	340.48	4.93	-40.6	-50.9	3.5	3.02e+01	0	37	104	1166540800	60	18282
2026-01-04 01:50:48.03	340.43	4.63	-44.7	-55.5	3.5	3.02e+01	0	37	104	1166540800	60	31067
2026-01-04 01:50:52.07	340.39	4.34	-43.4	-53.8	3.5	3.02e+01	0	37	104	1166540800	60	25509
2026-01-04 01:50:56.11	340.35	4.05	-41.0	-51.2	3.5	3.02e+01	0	37	104	1166540800	60	18884
2026-01-04 01:51:00.15	340.30	3.76	-46.8	-58.0	3.5	3.02e+01	0	37	104	1166540800	60	41014
2026-01-04 01:51:04.20	340.27	3.48	-41.7	-52.0	3.5	3.02e+01	0	37	104	1166540800	60	20616
2026-01-04 01:51:08.24	340.23	3.19	-44.6	-55.1	3.5	3.02e+01	0	37	104	1166540800	60	29607
2026-01-04 01:51:12.28	340.19	2.92	-41.2	-51.3	3.5	3.02e+01	0	37	104	1166540800	60	19044
2026-01-04 01:51:16.32	340.15	2.64	-50.8	-67.2	3.5	3.02e+01	0	37	104	1166540800	60	119491
2026-01-04 01:51:20.37	340.12	2.37	-43.4	-53.9	3.5	3.02e+01	0	37	104	1166540800	60	25760
2026-01-04 01:51:24.41	340.08	2.10	-46.6	-58.3	3.6	3.02e+01	0	37	104	1166540800	60	42532
2026-01-04 01:51:28.45	340.05	1.83	-45.8	-56.9	3.5	3.02e+01	0	37	104	1166540800	60	36474
2026-01-04 01:51:32.50	340.02	1.57	-47.4	-60.0	3.5	3.02e+01	0	37	104	1166540800	60	52025
2026-01-04 01:51:36.54	339.99	1.31	-48.6	-64.7	3.5	3.02e+01	0	37	104	1166540800	60	88730
2026-01-04 01:51:40.59	339.96	1.05	-48.6	-65.7	3.5	3.02e+01	0	37	104	1166540800	60	99980
2026-01-04 01:51:44.63	339.93	0.79	-48.6	-66.3	3.5	3.02e+01	0	37	104	1166540800	60	106883
2026-01-04 01:51:48.67	339.90	0.54	-48.9	-66.7	3.5	3.02e+01	0	37	104	1166540800	60	112767
2026-01-04 01:51:52.72	339.87	0.29	-48.6	-66.6	3.5	3.02e+01	0	37	104	1166540800	60	110712
2026-01-04 01:51:56.76	339.85	0.04	-49.0	-66.9	3.5	3.02e+01	0	37	104	1166540800	60	114615

#Closed at: 2026-01-04 01:52:00
#Recorded file [1166 MB]: D:/lorett/data/35034_260104_043807.dat