passes_logs/2026/01/04/R4.6S_Anadyr_2ch/R4.6S_Anadyr_2ch__20260104_045651_AQUA_rec.log

#Pass ID: 20260104_045651_AQUA
#Satellite: AQUA
#Configuration: AQUA
#almurnet v.1.7.20251203
#Start time: 2026-01-04 04:56:52

#Version: 2.2.20231116
#Station: R4.6S_Anadyr_2ch
#Location: 177.4865 lon 64.73178 lat
#TLE: 1 27424U 02022A   25351.00450321  .00000925  00000+0  19503-3 0  9992
#TLE: 2 27424  98.4041 311.9529 0001248 113.7180 322.1616 14.61819266256652

#Time	Az	El	Level	Level2	SNR	BER	BlckErr	Temp	State	Recorded	gain1	gain2
2026-01-04 04:56:52.44	242.67	0.04	-53.9	-65.0	3.5	8.45e-01	0	34	0	0	60	87533
2026-01-04 04:56:55.46	243.00	0.17	-54.8	-72.6	3.5	3.05e+01	0	35	104	0	60	220333
2026-01-04 04:56:58.49	243.33	0.29	-55.4	-73.3	3.5	3.05e+01	0	36	104	0	60	240558
2026-01-04 04:57:01.53	243.66	0.42	-54.8	-72.7	3.5	3.05e+01	0	36	104	0	60	225040
2026-01-04 04:57:04.56	243.99	0.54	-55.3	-73.2	3.5	3.05e+01	0	36	104	0	60	235941
2026-01-04 04:57:07.59	244.33	0.66	-54.9	-72.8	3.5	3.05e+01	0	36	104	0	60	225362
2026-01-04 04:57:10.63	244.67	0.79	-55.1	-72.9	3.5	3.05e+01	0	36	104	0	60	229189
2026-01-04 04:57:13.66	245.02	0.91	-55.1	-72.9	3.5	3.05e+01	0	36	104	0	60	230163
2026-01-04 04:57:16.69	245.36	1.03	-54.8	-72.7	3.5	3.05e+01	0	36	104	0	60	223408
2026-01-04 04:57:19.72	245.71	1.15	-55.3	-73.1	3.5	3.05e+01	0	36	104	0	60	234671
2026-01-04 04:57:22.76	246.07	1.28	-55.2	-73.0	3.5	3.05e+01	0	36	104	0	60	232785
2026-01-04 04:57:25.79	246.42	1.40	-55.2	-73.1	3.5	3.05e+01	0	36	104	0	60	233698
2026-01-04 04:57:28.82	246.78	1.52	-55.4	-73.3	3.5	3.05e+01	0	36	104	0	60	239115
2026-01-04 04:57:31.85	247.14	1.64	-55.1	-73.0	3.5	3.05e+01	0	36	104	0	60	230824
2026-01-04 04:57:34.89	247.51	1.76	-55.3	-73.2	3.5	3.05e+01	0	36	104	0	60	237064
2026-01-04 04:57:37.92	247.88	1.88	-54.6	-72.6	3.4	3.05e+01	0	36	104	0	60	220489
2026-01-04 04:57:40.95	248.25	2.00	-55.4	-73.3	3.5	3.05e+01	0	36	104	0	60	239366
2026-01-04 04:57:43.98	248.63	2.12	-55.1	-73.1	3.5	3.05e+01	0	36	104	0	60	233701
2026-01-04 04:57:47.01	249.00	2.24	-55.8	-73.8	3.5	3.05e+01	0	36	104	0	60	254221
2026-01-04 04:57:50.04	249.39	2.36	-55.6	-73.4	3.5	3.05e+01	0	36	104	0	60	243861
2026-01-04 04:57:53.08	249.77	2.48	-54.9	-72.8	3.5	3.05e+01	0	36	104	0	60	226042
2026-01-04 04:57:56.11	250.16	2.60	-53.7	-71.6	3.5	3.05e+01	0	36	104	0	60	198303
2026-01-04 04:57:59.14	250.55	2.72	-52.5	-70.5	3.5	3.05e+01	0	36	104	0	60	173469
2026-01-04 04:58:02.18	250.95	2.84	-51.7	-69.6	3.5	3.05e+01	0	36	104	0	60	157302
2026-01-04 04:58:05.21	251.34	2.95	-51.6	-69.5	3.5	3.05e+01	0	36	104	0	60	154876
2026-01-04 04:58:08.24	251.74	3.07	-51.6	-69.5	3.5	3.05e+01	0	36	104	0	60	154133
2026-01-04 04:58:11.28	252.15	3.19	-52.1	-70.0	3.5	3.05e+01	0	36	104	0	60	163338
2026-01-04 04:58:14.31	252.56	3.30	-51.8	-69.7	3.5	3.05e+01	0	36	104	0	60	158908
2026-01-04 04:58:17.34	252.97	3.42	-51.7	-69.5	3.5	3.05e+01	0	36	104	0	60	155804
2026-01-04 04:58:20.37	253.38	3.53	-51.5	-69.4	3.5	3.05e+01	0	36	104	0	60	153701
2026-01-04 04:58:23.40	253.80	3.65	-51.7	-69.5	3.5	3.05e+01	0	36	104	0	60	155020
2026-01-04 04:58:26.44	254.22	3.76	-51.5	-69.4	3.5	3.05e+01	0	36	104	0	60	153693
2026-01-04 04:58:29.47	254.65	3.87	-51.7	-69.5	3.5	3.05e+01	0	37	104	0	60	155707
2026-01-04 04:58:32.50	255.08	3.98	-51.6	-69.2	3.5	3.05e+01	0	37	104	0	60	150161
2026-01-04 04:58:35.54	255.51	4.09	-51.6	-69.3	3.5	3.05e+01	0	37	104	0	60	151074
2026-01-04 04:58:38.57	255.94	4.20	-51.6	-69.4	3.5	3.05e+01	0	37	104	0	60	154069
2026-01-04 04:58:41.60	256.38	4.31	-51.5	-69.4	3.5	3.05e+01	0	37	104	0	60	152672
2026-01-04 04:58:44.63	256.83	4.42	-51.5	-69.3	3.5	3.05e+01	0	37	104	0	60	151418
2026-01-04 04:58:47.67	257.27	4.53	-51.5	-68.8	3.5	3.05e+01	0	37	104	0	60	143534
2026-01-04 04:58:50.70	257.72	4.64	-51.4	-67.1	3.7	3.05e+01	0	37	104	0	60	117034
2026-01-04 04:58:53.73	258.17	4.74	-49.2	-53.8	14.9	3.05e+01	0	37	0	2097152	60	25362
2026-01-04 04:58:56.77	258.63	4.85	-48.1	-51.5	14.8	3.05e+01	0	37	0	7340032	60	19545
2026-01-04 04:58:59.80	259.09	4.95	-48.2	-51.6	17.3	3.05e+01	0	37	0	11010048	60	19829
2026-01-04 04:59:02.83	259.55	5.05	-43.6	-45.2	23.7	3.05e+01	0	37	0	16252928	60	9500
2026-01-04 04:59:05.86	260.02	5.16	-43.2	-44.8	24.2	3.05e+01	0	37	0	22020096	60	9039
2026-01-04 04:59:08.90	260.49	5.26	-43.1	-44.8	24.2	3.05e+01	0	37	0	27787264	60	8974
2026-01-04 04:59:11.93	260.96	5.36	-42.9	-44.4	24.6	3.05e+01	0	37	0	33554432	60	8610
2026-01-04 04:59:14.96	261.44	5.46	-42.9	-44.5	24.8	3.05e+01	0	37	0	39321600	60	8690
2026-01-04 04:59:18.00	261.92	5.55	-42.9	-44.5	24.8	3.05e+01	0	37	0	45088768	60	8684
2026-01-04 04:59:21.03	262.40	5.65	-42.9	-44.4	24.7	3.05e+01	0	37	0	50331648	60	8665
2026-01-04 04:59:24.06	262.89	5.75	-42.4	-43.9	25.1	3.05e+01	0	37	0	56098816	60	8133
2026-01-04 04:59:27.10	263.38	5.84	-42.5	-44.0	25.2	3.05e+01	0	37	0	61865984	60	8214
2026-01-04 04:59:30.13	263.87	5.93	-42.6	-44.2	25.0	3.05e+01	0	37	0	67633152	60	8410
2026-01-04 04:59:33.16	264.37	6.02	-42.2	-43.7	25.4	3.05e+01	0	37	0	73400320	60	7978
2026-01-04 04:59:36.20	264.87	6.11	-42.4	-43.9	25.3	3.05e+01	0	37	0	79167488	60	8109
2026-01-04 04:59:39.23	265.37	6.20	-42.2	-43.7	25.4	3.05e+01	0	37	0	84410368	60	7941
2026-01-04 04:59:42.26	265.88	6.29	-42.6	-44.1	25.0	3.05e+01	0	37	0	90177536	60	8355
2026-01-04 04:59:45.30	266.39	6.38	-42.0	-43.5	25.6	3.05e+01	0	37	0	95944704	60	7731
2026-01-04 04:59:48.33	266.90	6.46	-42.3	-43.7	25.5	3.05e+01	0	37	0	101711872	60	7984
2026-01-04 04:59:51.36	267.42	6.54	-42.2	-43.7	25.4	3.05e+01	0	37	0	107479040	60	7941
2026-01-04 04:59:54.40	267.94	6.62	-41.9	-43.4	25.8	3.05e+01	0	37	0	113246208	60	7674
2026-01-04 04:59:57.43	268.46	6.70	-41.8	-43.3	25.9	3.05e+01	0	37	0	119013376	60	7591
2026-01-04 05:00:00.47	268.98	6.78	-41.7	-43.1	26.0	3.05e+01	0	37	0	124256256	60	7454
2026-01-04 05:00:03.50	269.51	6.86	-41.9	-43.4	25.8	3.05e+01	0	37	0	130023424	60	7640
2026-01-04 05:00:06.53	270.04	6.93	-41.8	-43.2	25.9	3.05e+01	0	37	0	135790592	60	7527
2026-01-04 05:00:09.57	270.58	7.00	-41.8	-43.3	25.9	3.05e+01	0	37	0	141557760	60	7557
2026-01-04 05:00:12.60	271.11	7.07	-41.9	-43.3	25.8	3.05e+01	0	37	0	147324928	60	7605
2026-01-04 05:00:15.63	271.65	7.14	-41.9	-43.4	25.9	3.05e+01	0	37	0	153092096	60	7635
2026-01-04 05:00:18.67	272.19	7.21	-41.6	-43.0	26.2	3.05e+01	0	37	0	158859264	60	7334
2026-01-04 05:00:21.70	272.74	7.28	-43.3	-44.7	25.5	3.05e+01	0	37	0	164102144	60	8893
2026-01-04 05:00:24.73	273.28	7.34	-41.8	-43.2	26.2	3.05e+01	0	37	0	169869312	60	7507
2026-01-04 05:00:27.77	273.83	7.40	-41.6	-43.1	26.3	3.05e+01	0	37	0	175636480	60	7377
2026-01-04 05:00:30.80	274.38	7.46	-41.8	-43.2	26.2	3.05e+01	0	37	0	181403648	60	7511
2026-01-04 05:00:33.83	274.94	7.52	-41.7	-43.1	26.5	3.05e+01	0	37	0	187170816	60	7423
2026-01-04 05:00:36.86	275.49	7.57	-41.8	-43.2	26.3	3.05e+01	0	37	0	192413696	60	7481
2026-01-04 05:00:39.90	276.05	7.63	-41.9	-43.3	26.2	3.05e+01	0	37	0	198180864	60	7613
2026-01-04 05:00:42.93	276.61	7.68	-42.2	-43.6	26.0	3.05e+01	0	37	0	203948032	60	7830
2026-01-04 05:00:45.96	277.17	7.73	-41.9	-43.3	26.1	3.05e+01	0	37	0	209715200	60	7591
2026-01-04 05:00:49.00	277.74	7.78	-42.0	-43.4	26.2	3.05e+01	0	37	0	215482368	60	7666
2026-01-04 05:00:52.03	278.30	7.82	-41.5	-42.8	26.7	3.05e+01	0	37	0	221249536	60	7206
2026-01-04 05:00:55.06	278.87	7.86	-41.6	-42.9	26.7	3.05e+01	0	37	0	227016704	60	7289
2026-01-04 05:00:58.10	279.44	7.90	-41.4	-42.7	26.8	3.05e+01	0	37	0	232259584	60	7115
2026-01-04 05:01:01.13	280.01	7.94	-41.6	-43.0	26.7	3.05e+01	0	37	0	238026752	60	7302
2026-01-04 05:01:04.16	280.58	7.98	-41.8	-43.2	26.3	3.05e+01	0	37	0	243793920	60	7521
2026-01-04 05:01:07.20	281.16	8.01	-41.4	-42.7	26.8	3.05e+01	0	37	0	249561088	60	7111
2026-01-04 05:01:10.23	281.73	8.04	-41.3	-42.7	26.7	3.05e+01	0	37	0	255328256	60	7062
2026-01-04 05:01:13.26	282.31	8.07	-41.1	-42.4	27.0	3.05e+01	0	37	0	261095424	60	6868
2026-01-04 05:01:16.30	282.89	8.10	-41.2	-42.6	26.8	3.05e+01	0	37	0	266338304	60	7020
2026-01-04 05:01:19.33	283.46	8.12	-41.2	-42.5	27.0	3.05e+01	0	37	0	272105472	60	6931
2026-01-04 05:01:22.36	284.04	8.15	-41.1	-42.5	27.1	3.05e+01	0	37	0	277872640	60	6900
2026-01-04 05:01:25.40	284.62	8.17	-41.3	-42.7	26.9	3.05e+01	0	37	0	283639808	60	7055
2026-01-04 05:01:28.43	285.21	8.18	-41.1	-42.4	27.1	3.05e+01	0	37	0	289406976	60	6873
2026-01-04 05:01:31.46	285.79	8.20	-41.1	-42.5	27.0	3.05e+01	0	37	0	295174144	60	6913
2026-01-04 05:01:34.49	286.37	8.21	-41.4	-42.7	27.0	3.05e+01	0	37	0	300417024	60	7092
2026-01-04 05:01:37.53	286.95	8.22	-41.2	-42.5	27.2	3.05e+01	0	37	0	306184192	60	6921
2026-01-04 05:01:40.56	287.54	8.23	-41.1	-42.4	27.4	3.05e+01	0	37	0	311951360	60	6840
2026-01-04 05:01:43.59	288.12	8.24	-41.1	-42.4	27.3	3.05e+01	0	37	0	317718528	60	6861
2026-01-04 05:01:46.63	288.70	8.24	-41.3	-42.7	27.1	3.05e+01	0	37	0	323485696	60	7044
2026-01-04 05:01:49.66	289.29	8.24	-41.2	-42.5	27.2	3.05e+01	0	37	0	329252864	60	6918
2026-01-04 05:01:52.69	289.87	8.24	-41.2	-42.5	27.1	3.05e+01	0	37	0	335020032	60	6931
2026-01-04 05:01:55.73	290.45	8.23	-41.1	-42.4	27.4	3.05e+01	0	37	0	340262912	60	6846
2026-01-04 05:01:58.76	291.04	8.23	-41.1	-42.5	27.1	3.05e+01	0	37	0	346030080	60	6887
2026-01-04 05:02:01.79	291.62	8.22	-40.8	-42.1	27.5	3.05e+01	0	37	0	351797248	60	6609
2026-01-04 05:02:04.82	292.20	8.21	-40.9	-42.3	27.2	3.05e+01	0	37	0	357564416	60	6736
2026-01-04 05:02:07.86	292.78	8.19	-40.9	-42.2	27.2	3.05e+01	0	37	0	363331584	60	6688
2026-01-04 05:02:10.89	293.36	8.18	-41.1	-42.4	27.2	3.05e+01	0	37	0	369098752	60	6860
2026-01-04 05:02:13.92	293.94	8.16	-40.8	-42.1	27.3	3.05e+01	0	37	0	374865920	60	6642
2026-01-04 05:02:16.96	294.52	8.14	-40.7	-42.0	27.4	3.05e+01	0	37	0	380108800	60	6555
2026-01-04 05:02:19.99	295.10	8.11	-40.8	-42.1	27.6	3.05e+01	0	37	0	385875968	60	6592
2026-01-04 05:02:23.03	295.68	8.09	-40.9	-42.2	27.4	3.05e+01	0	37	0	391643136	60	6714
2026-01-04 05:02:26.06	296.25	8.06	-41.3	-42.6	27.2	3.05e+01	0	37	0	397410304	60	7018
2026-01-04 05:02:29.10	296.83	8.03	-41.2	-42.5	27.3	3.05e+01	0	37	0	403177472	60	6910
2026-01-04 05:02:32.13	297.40	8.00	-40.8	-42.1	27.6	3.05e+01	0	37	0	408944640	60	6616
2026-01-04 05:02:35.16	297.98	7.96	-41.5	-42.8	27.3	3.05e+01	0	37	0	414711808	60	7186
2026-01-04 05:02:38.19	298.55	7.92	-41.5	-42.8	27.3	3.05e+01	0	37	0	419954688	60	7176
2026-01-04 05:02:41.23	299.12	7.89	-41.0	-42.3	27.5	3.05e+01	0	37	0	425721856	60	6772
2026-01-04 05:02:44.26	299.68	7.84	-41.1	-42.4	27.4	3.05e+01	0	37	0	431489024	60	6834
2026-01-04 05:02:47.29	300.25	7.80	-41.6	-42.9	27.1	3.05e+01	0	37	0	437256192	60	7264
2026-01-04 05:02:50.33	300.81	7.75	-41.4	-42.7	26.9	3.05e+01	0	37	0	443023360	60	7118
2026-01-04 05:02:53.36	301.37	7.71	-40.9	-42.2	27.5	3.05e+01	0	37	0	448790528	60	6670
2026-01-04 05:02:56.39	301.93	7.66	-40.8	-42.2	27.4	3.05e+01	0	37	0	454033408	60	6660
2026-01-04 05:02:59.43	302.49	7.60	-41.0	-42.3	27.2	3.05e+01	0	37	0	459800576	60	6750
2026-01-04 05:03:02.46	303.05	7.55	-41.1	-42.4	27.2	3.05e+01	0	37	0	465567744	60	6871
2026-01-04 05:03:05.49	303.60	7.49	-41.1	-42.4	27.4	3.05e+01	0	37	0	471334912	60	6826
2026-01-04 05:03:08.53	304.15	7.44	-41.0	-42.3	27.4	3.05e+01	0	37	0	477102080	60	6744
2026-01-04 05:03:11.56	304.70	7.38	-41.4	-42.7	27.4	3.05e+01	0	37	0	482869248	60	7119
2026-01-04 05:03:14.59	305.24	7.31	-41.0	-42.4	27.2	3.05e+01	0	37	0	488112128	60	6817
2026-01-04 05:03:17.63	305.79	7.25	-40.9	-42.2	27.2	3.05e+01	0	37	0	493879296	60	6699
2026-01-04 05:03:20.66	306.33	7.18	-41.4	-42.7	27.3	3.05e+01	0	37	0	499646464	60	7096
2026-01-04 05:03:23.69	306.87	7.12	-41.1	-42.4	27.3	3.05e+01	0	37	0	505413632	60	6835
2026-01-04 05:03:26.72	307.40	7.05	-41.6	-43.0	27.0	3.05e+01	0	37	0	511180800	60	7345
2026-01-04 05:03:29.76	307.94	6.97	-41.2	-42.5	27.3	3.05e+01	0	37	0	516947968	60	6914
2026-01-04 05:03:32.79	308.47	6.90	-41.4	-42.8	27.0	3.05e+01	0	37	0	522715136	60	7130
2026-01-04 05:03:35.82	308.99	6.83	-41.8	-43.1	27.1	3.05e+01	0	37	0	527958016	60	7449
2026-01-04 05:03:38.86	309.52	6.75	-41.3	-42.6	27.3	3.05e+01	0	37	0	533725184	60	6994
2026-01-04 05:03:41.89	310.04	6.67	-41.3	-42.6	27.2	3.05e+01	0	37	0	539492352	60	7007
2026-01-04 05:03:44.92	310.56	6.59	-41.1	-42.4	27.4	3.05e+01	0	37	0	545259520	60	6876
2026-01-04 05:03:47.95	311.07	6.51	-41.5	-42.8	27.0	3.05e+01	0	37	0	551026688	60	7207
2026-01-04 05:03:50.99	311.58	6.43	-41.3	-42.6	27.2	3.05e+01	0	37	0	556793856	60	7024
2026-01-04 05:03:54.02	312.09	6.35	-42.0	-43.3	26.6	3.05e+01	0	37	0	562561024	60	7605
2026-01-04 05:03:57.05	312.60	6.26	-41.1	-42.4	27.3	3.05e+01	0	37	0	567803904	60	6861
2026-01-04 05:04:00.09	313.10	6.17	-41.9	-43.3	27.2	3.05e+01	0	37	0	573571072	60	7610
2026-01-04 05:04:03.12	313.60	6.08	-41.3	-42.7	27.1	3.05e+01	0	37	0	579338240	60	7052
2026-01-04 05:04:06.15	314.10	5.99	-41.4	-42.8	27.2	3.05e+01	0	37	0	585105408	60	7180
2026-01-04 05:04:09.19	314.59	5.90	-41.6	-43.0	27.1	3.05e+01	0	37	0	590872576	60	7349
2026-01-04 05:04:12.22	315.08	5.81	-41.5	-42.9	27.1	3.05e+01	0	37	0	596639744	60	7238
2026-01-04 05:04:15.25	315.57	5.72	-41.5	-43.0	27.0	3.05e+01	0	37	0	602406912	60	7303
2026-01-04 05:04:18.29	316.05	5.62	-41.4	-42.8	27.0	3.05e+01	0	37	0	607649792	60	7187
2026-01-04 05:04:21.32	316.53	5.53	-41.5	-42.8	27.1	3.05e+01	0	37	0	613416960	60	7198
2026-01-04 05:04:24.35	317.01	5.43	-41.3	-42.7	26.9	3.05e+01	0	37	0	619184128	60	7084
2026-01-04 05:04:27.38	317.48	5.33	-41.4	-42.8	26.8	3.05e+01	0	37	0	624951296	60	7152
2026-01-04 05:04:30.41	317.95	5.23	-41.4	-42.8	26.9	3.05e+01	0	37	0	630718464	60	7141
2026-01-04 05:04:33.45	318.41	5.13	-41.4	-42.8	26.9	3.05e+01	0	37	0	636485632	60	7146
2026-01-04 05:04:36.48	318.88	5.03	-41.2	-42.7	26.9	3.05e+01	0	37	0	641728512	60	7061
2026-01-04 05:04:39.52	319.34	4.93	-41.4	-42.8	26.8	3.05e+01	0	37	0	647495680	60	7143
2026-01-04 05:04:42.55	319.79	4.82	-41.5	-42.9	26.6	3.05e+01	0	37	0	653262848	60	7212
2026-01-04 05:04:45.58	320.24	4.72	-41.8	-43.2	26.4	3.05e+01	0	37	0	659030016	60	7493
2026-01-04 05:04:48.62	320.70	4.61	-41.3	-42.7	26.8	3.05e+01	0	37	0	664797184	60	7054
2026-01-04 05:04:51.65	321.14	4.51	-41.5	-42.9	26.6	3.05e+01	0	37	0	670564352	60	7282
2026-01-04 05:04:54.68	321.58	4.40	-41.3	-42.7	26.8	3.05e+01	0	37	0	675807232	60	7073
2026-01-04 05:04:57.71	322.02	4.29	-41.7	-43.1	26.3	3.05e+01	0	37	0	681574400	60	7405
2026-01-04 05:05:00.75	322.46	4.18	-41.8	-43.2	26.3	3.05e+01	0	37	0	687341568	60	7519
2026-01-04 05:05:03.78	322.89	4.07	-41.8	-43.2	26.2	3.05e+01	0	37	0	693108736	60	7507
2026-01-04 05:05:06.82	323.32	3.96	-41.8	-43.2	26.4	3.05e+01	0	37	0	698875904	60	7484
2026-01-04 05:05:09.85	323.74	3.85	-42.5	-44.0	25.8	3.05e+01	0	37	0	704643072	60	8212
2026-01-04 05:05:12.88	324.16	3.74	-42.6	-44.1	25.9	3.05e+01	0	37	0	710410240	60	8286
2026-01-04 05:05:15.92	324.58	3.63	-42.4	-43.8	26.2	3.05e+01	0	37	0	715653120	60	8082
2026-01-04 05:05:18.95	325.00	3.51	-41.8	-43.2	26.4	3.05e+01	0	37	0	721420288	60	7502
2026-01-04 05:05:21.98	325.41	3.40	-42.7	-44.2	25.8	3.05e+01	0	37	0	727187456	60	8413
2026-01-04 05:05:25.01	325.82	3.29	-42.1	-43.5	26.1	3.05e+01	0	37	0	732954624	60	7762
2026-01-04 05:05:28.05	326.22	3.17	-41.8	-43.2	26.3	3.05e+01	0	37	0	738721792	60	7546
2026-01-04 05:05:31.08	326.62	3.06	-42.3	-43.8	26.1	3.05e+01	0	37	0	744488960	60	7997
2026-01-04 05:05:34.11	327.02	2.94	-42.2	-43.7	26.1	3.05e+01	0	37	0	750256128	60	7920
2026-01-04 05:05:37.15	327.42	2.82	-42.1	-43.5	26.2	3.05e+01	0	37	0	755499008	60	7768
2026-01-04 05:05:40.18	327.81	2.71	-42.8	-44.3	25.6	3.05e+01	0	37	0	761266176	60	8482
2026-01-04 05:05:43.21	328.20	2.59	-43.4	-44.9	25.6	3.05e+01	0	37	0	767033344	60	9103
2026-01-04 05:05:46.25	328.58	2.47	-42.9	-44.3	25.7	3.05e+01	0	37	0	772800512	60	8566
2026-01-04 05:05:49.28	328.96	2.35	-42.7	-44.1	25.9	3.05e+01	0	37	0	778567680	60	8339
2026-01-04 05:05:52.31	329.34	2.24	-43.6	-45.1	25.6	3.05e+01	0	37	0	784334848	60	9383
2026-01-04 05:05:55.35	329.72	2.12	-43.7	-45.3	25.7	3.05e+01	0	37	0	789577728	60	9505
2026-01-04 05:05:58.38	330.09	2.00	-43.6	-45.2	25.3	3.05e+01	0	37	0	795344896	60	9416
2026-01-04 05:06:01.41	330.46	1.88	-43.1	-44.6	25.5	3.05e+01	0	37	0	801112064	60	8862
2026-01-04 05:06:04.45	330.83	1.76	-43.4	-44.9	25.1	3.05e+01	0	37	0	806879232	60	9111
2026-01-04 05:06:07.48	331.19	1.64	-43.8	-54.2	3.6	3.05e+01	0	37	104	808452096	60	26514
2026-01-04 05:06:10.51	331.55	1.52	-44.6	-55.0	3.6	3.05e+01	0	37	104	808452096	60	29183
2026-01-04 05:06:13.55	331.91	1.40	-47.7	-59.2	3.4	3.05e+01	0	37	104	808452096	60	47321
2026-01-04 05:06:16.58	332.26	1.28	-46.4	-57.6	3.4	3.05e+01	0	37	104	808452096	60	39572
2026-01-04 05:06:19.61	332.61	1.16	-53.2	-71.0	3.5	3.05e+01	0	37	104	808452096	60	184617
2026-01-04 05:06:22.64	332.96	1.04	-52.7	-71.0	3.5	3.05e+01	0	37	104	808452096	60	185069
2026-01-04 05:06:25.68	333.30	0.91	-52.7	-70.9	3.5	3.05e+01	0	37	104	808452096	60	182721
2026-01-04 05:06:28.71	333.65	0.79	-53.4	-71.4	3.5	3.05e+01	0	37	104	808452096	60	193770
2026-01-04 05:06:31.74	333.98	0.67	-53.7	-71.6	3.5	3.05e+01	0	37	104	808452096	60	197949
2026-01-04 05:06:34.77	334.32	0.55	-54.1	-71.9	3.5	3.05e+01	0	37	104	808452096	60	204015
2026-01-04 05:06:37.81	334.65	0.43	-54.1	-71.9	3.5	3.05e+01	0	37	104	808452096	60	205265
2026-01-04 05:06:40.84	334.98	0.30	-53.9	-71.7	3.5	3.05e+01	0	37	104	808452096	60	200409
2026-01-04 05:06:43.88	335.31	0.18	-54.6	-72.4	3.5	3.05e+01	0	37	104	808452096	60	216629
2026-01-04 05:06:46.91	335.64	0.06	-54.2	-72.0	3.5	3.05e+01	0	37	104	808452096	60	207008
2026-01-04 05:06:49.94	335.96	-0.06	-54.1	-71.9	3.5	3.05e+01	0	37	104	808452096	60	205351

#Closed at: 2026-01-04 05:06:50
#Recorded file [808 MB]: D:/lorett/data/35034_260104_075652.dat