passes_logs/2026/01/04/R4.6S_Anadyr_2ch/R4.6S_Anadyr_2ch__20260104_191831_FENGYUN_3E_rec.log

#Pass ID: 20260104_191831_FENGYUN 3E
#Satellite: FENGYUN 3E
#Configuration: FENGYUN 3E
#almurnet v.1.7.20251203
#Start time: 2026-01-04 19:18:32

#Version: 2.2.20231116
#Station: R4.6S_Anadyr_2ch
#Location: 177.4865 lon 64.73178 lat
#TLE: 1 49008U 21062A   25350.97288215  .00000176  00000+0  10353-3 0  9997
#TLE: 2 49008  98.7477 351.4440 0000638 234.3856 125.7261 14.19881381230726

#Time	Az	El	Level	Level2	SNR	BER	BlckErr	Temp	State	Recorded	gain1	gain2
2026-01-04 19:18:32.90	21.16	0.10	-52.5	-67.6	3.5	1.51e+00	0	25	0	0	60	117255
2026-01-04 19:18:36.94	21.14	0.34	-52.7	-64.2	3.6	8.45e-01	0	26	104	0	60	80102
2026-01-04 19:18:40.99	21.13	0.59	-51.3	-62.9	3.6	8.45e-01	0	26	104	0	60	68791
2026-01-04 19:18:45.03	21.11	0.84	-51.0	-62.6	3.6	8.46e-01	0	27	104	0	60	66877
2026-01-04 19:18:49.07	21.09	1.08	-50.6	-62.2	3.6	8.45e-01	0	27	104	0	60	63218
2026-01-04 19:18:53.12	21.07	1.34	-49.7	-61.2	3.6	8.45e-01	0	26	104	0	60	56779
2026-01-04 19:18:57.16	21.05	1.59	-49.6	-61.0	3.6	8.45e-01	0	27	104	0	60	55482
2026-01-04 19:19:01.20	21.03	1.84	-49.6	-60.3	3.6	8.46e-01	0	27	104	0	60	51088
2026-01-04 19:19:05.25	21.01	2.10	-49.6	-60.6	3.6	8.45e-01	0	27	104	0	60	52984
2026-01-04 19:19:09.29	20.99	2.36	-49.6	-61.0	3.6	8.46e-01	0	27	104	0	60	55414
2026-01-04 19:19:13.33	20.96	2.62	-49.6	-60.5	3.6	8.46e-01	0	27	104	0	60	52178
2026-01-04 19:19:17.38	20.94	2.89	-49.3	-58.0	3.9	8.41e-01	0	27	104	0	60	39278
2026-01-04 19:19:21.42	20.91	3.15	-49.4	-58.7	3.7	8.42e-01	0	27	104	0	60	42321
2026-01-04 19:19:25.47	20.89	3.42	-46.6	-49.4	10.5	1.61e-02	0	27	0	16777216	60	14510
2026-01-04 19:19:29.51	20.86	3.70	-42.0	-43.2	17.3	0.00e+00	0	27	0	45088768	60	7112
2026-01-04 19:19:33.56	20.84	3.97	-41.1	-42.2	17.8	0.00e+00	0	27	0	74448896	60	6330
2026-01-04 19:19:37.60	20.81	4.25	-40.2	-41.2	18.4	0.00e+00	0	27	0	103809024	56	7118
2026-01-04 19:19:41.64	20.78	4.53	-41.1	-42.1	6.1	8.11e-01	0	27	104	111149056	60	6282
2026-01-04 19:19:45.69	20.75	4.81	-38.1	-38.7	21.4	0.00e+00	0	27	0	132120576	54	6019
2026-01-04 19:19:49.73	20.72	5.10	-37.4	-38.0	22.2	0.00e+00	0	27	0	161480704	54	5547
2026-01-04 19:19:53.77	20.69	5.39	-37.0	-37.6	22.3	0.00e+00	0	27	0	190840832	52	5940
2026-01-04 19:19:57.82	20.66	5.68	-36.8	-37.4	22.8	0.00e+00	0	27	0	220200960	52	5768
2026-01-04 19:20:01.85	20.62	5.98	-36.8	-37.4	22.9	0.00e+00	0	27	0	249561088	52	5789
2026-01-04 19:20:05.89	20.59	6.28	-37.0	-37.6	22.6	0.00e+00	0	27	0	277872640	52	5944
2026-01-04 19:20:09.93	20.55	6.58	-36.6	-37.2	23.3	0.00e+00	0	27	0	307232768	52	5657
2026-01-04 19:20:13.98	20.52	6.89	-36.2	-36.8	23.5	0.00e+00	0	27	0	336592896	52	5407
2026-01-04 19:20:18.02	20.48	7.20	-36.2	-36.8	23.6	0.00e+00	0	27	0	365953024	52	5388
2026-01-04 19:20:22.07	20.44	7.51	-36.2	-36.8	23.6	0.00e+00	0	27	0	395313152	50	6043
2026-01-04 19:20:26.11	20.40	7.83	-35.8	-36.3	24.1	0.00e+00	0	27	0	423624704	50	5735
2026-01-04 19:20:30.15	20.36	8.15	-35.7	-36.2	24.0	0.00e+00	0	27	0	452984832	50	5675
2026-01-04 19:20:34.20	20.31	8.48	-35.9	-36.5	24.0	0.00e+00	0	27	0	482344960	50	5853
2026-01-04 19:20:38.24	20.27	8.81	-35.6	-36.2	24.4	0.00e+00	0	27	0	511705088	50	5633
2026-01-04 19:20:42.29	20.22	9.15	-35.5	-36.1	24.3	0.00e+00	0	27	0	541065216	50	5580
2026-01-04 19:20:46.33	20.18	9.49	-35.5	-36.1	24.3	0.00e+00	0	27	0	570425344	50	5572
2026-01-04 19:20:50.37	20.13	9.83	-35.4	-35.9	24.4	0.00e+00	0	27	0	599785472	48	6164
2026-01-04 19:20:54.42	20.08	10.18	-35.1	-35.6	24.9	0.00e+00	0	27	0	629145600	48	5945
2026-01-04 19:20:58.46	20.03	10.53	-35.2	-35.8	24.6	0.00e+00	0	27	0	657457152	48	6049
2026-01-04 19:21:02.51	19.97	10.89	-34.9	-35.5	24.9	0.00e+00	0	27	0	686817280	48	5860
2026-01-04 19:21:06.55	19.92	11.26	-34.9	-35.5	25.0	0.00e+00	0	27	0	716177408	48	5850
2026-01-04 19:21:10.60	19.86	11.63	-34.9	-35.5	25.1	0.00e+00	0	27	0	745537536	48	5833
2026-01-04 19:21:14.65	19.80	12.00	-34.9	-35.4	25.1	0.00e+00	0	27	0	774897664	48	5787
2026-01-04 19:21:18.69	19.74	12.38	-34.8	-35.3	25.4	0.00e+00	0	27	0	804257792	48	5736
2026-01-04 19:21:22.74	19.68	12.77	-34.6	-35.1	25.4	0.00e+00	0	28	0	832569344	48	5589
2026-01-04 19:21:26.78	19.61	13.17	-34.5	-35.0	25.5	0.00e+00	0	28	0	861929472	48	5539
2026-01-04 19:21:30.83	19.54	13.57	-34.4	-34.9	25.5	0.00e+00	0	28	0	891289600	48	5462
2026-01-04 19:21:34.87	19.47	13.97	-34.3	-34.8	25.6	0.00e+00	0	27	0	920649728	48	5431
2026-01-04 19:21:38.91	19.40	14.39	-34.2	-34.7	25.8	0.00e+00	0	27	0	950009856	48	5348
2026-01-04 19:21:42.96	19.33	14.81	-34.2	-34.7	25.8	0.00e+00	0	27	0	979369984	46	5976
2026-01-04 19:21:47.00	19.25	15.24	-34.1	-34.7	25.8	0.00e+00	0	27	0	1007681536	46	5968
2026-01-04 19:21:51.05	19.17	15.67	-33.9	-34.4	26.0	0.00e+00	0	28	0	1037041664	46	5822
2026-01-04 19:21:55.09	19.09	16.11	-33.8	-34.3	26.1	0.00e+00	0	28	0	1066401792	46	5758
2026-01-04 19:21:59.14	19.00	16.57	-33.6	-34.1	26.3	0.00e+00	0	28	0	1095761920	46	5586
2026-01-04 19:22:03.18	18.91	17.03	-33.5	-34.0	26.5	0.00e+00	0	28	0	1125122048	46	5549
2026-01-04 19:22:07.22	18.82	17.50	-33.4	-33.9	26.4	0.00e+00	0	28	0	1154482176	46	5460
2026-01-04 19:22:11.27	18.72	17.97	-33.3	-33.8	26.7	0.00e+00	0	28	0	1183842304	46	5425
2026-01-04 19:22:15.31	18.62	18.46	-32.8	-33.3	27.1	0.00e+00	0	28	0	1212153856	44	5739
2026-01-04 19:22:19.36	18.52	18.96	-32.6	-33.1	27.2	0.00e+00	0	28	0	1241513984	44	5572
2026-01-04 19:22:23.40	18.41	19.47	-32.6	-33.1	27.2	0.00e+00	0	28	0	1270874112	44	5575
2026-01-04 19:22:27.45	18.30	19.98	-32.9	-33.3	27.2	0.00e+00	0	28	0	1300234240	44	5761
2026-01-04 19:22:31.49	18.18	20.51	-32.8	-33.3	27.1	0.00e+00	0	28	0	1329594368	44	5724
2026-01-04 19:22:35.53	18.06	21.05	-33.0	-33.5	27.0	0.00e+00	0	28	0	1358954496	44	5861
2026-01-04 19:22:39.58	17.93	21.60	-33.1	-33.5	27.0	0.00e+00	0	28	0	1388314624	44	5895
2026-01-04 19:22:43.63	17.80	22.17	-32.8	-33.3	27.1	0.00e+00	0	28	0	1416626176	44	5719
2026-01-04 19:22:47.67	17.67	22.74	-32.9	-33.4	27.1	0.00e+00	0	28	0	1445986304	44	5780
2026-01-04 19:22:51.71	17.52	23.33	-33.1	-33.6	27.1	0.00e+00	0	28	0	1475346432	44	5900
2026-01-04 19:22:55.76	17.38	23.94	-32.8	-33.3	27.3	0.00e+00	0	28	0	1504706560	44	5737
2026-01-04 19:22:59.80	17.22	24.55	-32.8	-33.3	27.3	0.00e+00	0	28	0	1534066688	44	5696
2026-01-04 19:23:03.85	17.06	25.19	-32.3	-32.8	27.6	0.00e+00	0	28	0	1562378240	44	5415
2026-01-04 19:23:07.89	16.89	25.83	-32.1	-32.6	27.7	0.00e+00	0	28	0	1591738368	42	5924
2026-01-04 19:23:11.94	16.71	26.50	-32.0	-32.4	27.8	0.00e+00	0	28	0	1621098496	42	5815
2026-01-04 19:23:15.98	16.53	27.17	-31.9	-32.3	28.0	0.00e+00	0	28	0	1650458624	42	5760
2026-01-04 19:23:20.02	16.33	27.87	-31.7	-32.1	28.1	0.00e+00	0	28	0	1679818752	42	5619
2026-01-04 19:23:24.07	16.13	28.58	-31.7	-32.2	28.0	0.00e+00	0	28	0	1709178880	42	5631
2026-01-04 19:23:28.11	15.91	29.31	-31.7	-32.1	28.1	0.00e+00	0	28	0	1737490432	42	5609
2026-01-04 19:23:32.16	15.69	30.07	-31.5	-32.0	28.1	0.00e+00	0	28	0	1766850560	42	5520
2026-01-04 19:23:36.20	15.45	30.84	-31.4	-31.9	28.3	0.00e+00	0	28	0	1796210688	42	5463
2026-01-04 19:23:40.25	15.20	31.63	-31.4	-31.9	28.2	0.00e+00	0	28	0	1825570816	42	5471
2026-01-04 19:23:44.29	14.94	32.44	-31.7	-32.2	28.0	0.00e+00	0	28	0	1854930944	42	5649
2026-01-04 19:23:48.33	14.66	33.27	-31.9	-32.4	27.9	0.00e+00	0	28	0	1884291072	42	5772
2026-01-04 19:23:52.38	14.37	34.13	-31.7	-32.2	28.0	0.00e+00	0	28	0	1913651200	42	5672
2026-01-04 19:23:56.44	14.06	35.01	-31.7	-32.2	28.0	0.00e+00	0	28	0	1940914176	42	5651
2026-01-04 19:24:00.49	13.73	35.92	-31.8	-32.2	27.8	0.00e+00	0	28	0	1969225728	42	5690
2026-01-04 19:24:04.53	13.39	36.85	-31.8	-32.3	27.9	0.00e+00	0	28	0	1998585856	42	5700
2026-01-04 19:24:08.58	13.02	37.81	-31.8	-32.3	28.0	0.00e+00	0	28	0	2027945984	42	5702
2026-01-04 19:24:12.62	12.62	38.79	-32.7	-33.2	27.6	0.00e+00	0	28	0	2057306112	42	6324
2026-01-04 19:24:16.67	12.21	39.80	-34.0	-34.5	23.9	0.00e+00	0	28	0	2086666240	46	5839
2026-01-04 19:24:20.71	11.76	40.84	-32.0	-32.4	27.9	0.00e+00	0	28	0	2114977792	42	5824
2026-01-04 19:24:24.76	11.28	41.90	-32.1	-32.6	27.8	0.00e+00	0	28	0	2144337920	42	5903
2026-01-04 19:24:28.80	10.77	43.00	-32.3	-32.8	27.7	0.00e+00	0	28	0	2173698048	42	6079
2026-01-04 19:24:32.84	10.22	44.12	-31.9	-32.4	27.9	0.00e+00	0	28	0	2203058176	42	5803
2026-01-04 19:24:36.89	9.63	45.28	-31.9	-32.4	28.0	0.00e+00	0	28	0	2232418304	42	5783
2026-01-04 19:24:40.93	8.99	46.46	-32.5	-33.0	27.5	0.00e+00	0	28	0	2261778432	42	6235
2026-01-04 19:24:44.98	8.30	47.68	-32.5	-33.0	27.5	0.00e+00	0	28	0	2291138560	44	5542
2026-01-04 19:24:49.02	7.55	48.93	-32.7	-33.2	27.2	0.00e+00	0	28	0	2319450112	44	5670
2026-01-04 19:24:53.07	6.74	50.21	-32.6	-33.0	27.4	0.00e+00	0	28	0	2348810240	44	5564
2026-01-04 19:24:57.11	5.85	51.52	-33.0	-33.5	26.9	0.00e+00	0	28	0	2378170368	44	5887
2026-01-04 19:25:01.15	4.88	52.85	-32.8	-33.2	27.2	0.00e+00	0	28	0	2407530496	44	5675
2026-01-04 19:25:05.20	3.81	54.22	-32.6	-33.0	27.4	0.00e+00	0	28	0	2436890624	44	5563
2026-01-04 19:25:09.24	2.64	55.60	-33.9	-34.4	26.2	0.00e+00	0	28	0	2466250752	46	5791
2026-01-04 19:25:13.29	1.34	57.02	-33.0	-33.4	27.1	0.00e+00	0	28	0	2495610880	44	5809
2026-01-04 19:25:17.33	359.90	58.45	-34.1	-34.6	26.8	0.00e+00	0	28	0	2523922432	46	5917
2026-01-04 19:25:21.38	358.28	59.90	-33.5	-34.0	26.6	0.00e+00	0	28	0	2553282560	46	5545
2026-01-04 19:25:25.42	356.48	61.36	-33.7	-34.2	26.6	0.00e+00	0	28	0	2582642688	44	6390
2026-01-04 19:25:29.47	354.44	62.82	-32.6	-33.0	27.4	0.00e+00	0	28	0	2612002816	44	5541
2026-01-04 19:25:33.51	352.14	64.28	-33.0	-33.5	27.4	0.00e+00	0	28	0	2641362944	42	6580
2026-01-04 19:25:37.55	349.54	65.73	-32.6	-33.1	27.4	0.00e+00	0	28	0	2670723072	42	6259
2026-01-04 19:25:41.60	346.55	67.15	-31.7	-32.1	28.0	0.00e+00	0	28	0	2699034624	42	5627
2026-01-04 19:25:45.64	343.15	68.53	-32.2	-32.6	27.9	0.00e+00	0	28	0	2728394752	42	5960
2026-01-04 19:25:49.69	339.24	69.84	-32.6	-33.1	27.6	0.00e+00	0	28	0	2757754880	42	6259
2026-01-04 19:25:53.73	334.76	71.08	-32.6	-33.1	27.8	0.00e+00	0	28	0	2787115008	42	6268
2026-01-04 19:25:57.78	329.64	72.20	-32.6	-33.1	27.6	0.00e+00	0	28	0	2816475136	44	5604
2026-01-04 19:26:01.82	323.86	73.18	-32.3	-32.8	27.8	0.00e+00	0	28	0	2845835264	44	5428
2026-01-04 19:26:05.86	317.39	73.98	-33.2	-33.6	27.4	0.00e+00	0	28	0	2874146816	44	5937
2026-01-04 19:26:09.91	310.29	74.57	-33.3	-33.7	27.8	0.00e+00	0	28	0	2903506944	44	6029
2026-01-04 19:26:13.95	302.74	74.91	-32.8	-33.3	27.3	0.00e+00	0	28	0	2932867072	44	5739
2026-01-04 19:26:18.00	294.95	74.99	-33.4	-33.8	27.6	0.00e+00	0	28	0	2962227200	44	6101
2026-01-04 19:26:22.04	287.23	74.81	-33.0	-33.5	28.2	0.00e+00	0	28	0	2991587328	44	5842
2026-01-04 19:26:26.09	279.82	74.37	-32.6	-33.0	28.2	0.00e+00	0	28	0	3020947456	44	5544
2026-01-04 19:26:30.13	272.95	73.70	-33.0	-33.5	27.7	0.00e+00	0	28	0	3050307584	42	6568
2026-01-04 19:26:34.18	266.71	72.82	-31.7	-32.2	28.2	0.00e+00	0	28	0	3079667712	42	5648
2026-01-04 19:26:38.22	261.18	71.79	-32.8	-33.3	27.6	0.00e+00	0	28	0	3107979264	44	5713
2026-01-04 19:26:42.26	256.32	70.62	-33.4	-33.8	27.4	0.00e+00	0	28	0	3137339392	44	6094
2026-01-04 19:26:46.31	252.05	69.35	-32.8	-33.3	27.8	0.00e+00	0	28	0	3166699520	44	5735
2026-01-04 19:26:50.35	248.34	68.00	-33.3	-33.7	27.4	0.00e+00	0	28	0	3196059648	44	6028
2026-01-04 19:26:54.40	245.10	66.60	-32.6	-33.1	28.0	0.00e+00	0	28	0	3225419776	44	5587
2026-01-04 19:26:58.44	242.27	65.17	-33.1	-33.5	27.9	0.00e+00	0	28	0	3253731328	44	5891
2026-01-04 19:27:02.48	239.78	63.72	-33.4	-33.9	27.6	0.00e+00	0	28	0	3283091456	44	6168
2026-01-04 19:27:06.53	237.58	62.25	-33.3	-33.7	27.1	0.00e+00	0	28	0	3312451584	44	6033
2026-01-04 19:27:10.57	235.63	60.78	-34.3	-34.8	26.5	0.00e+00	0	28	0	3341811712	46	6054
2026-01-04 19:27:14.62	233.90	59.32	-36.1	-36.7	24.9	0.00e+00	0	28	0	3371171840	50	5988
2026-01-04 19:27:18.66	232.36	57.88	-35.1	-35.6	26.0	0.00e+00	0	28	0	3400531968	48	5925
2026-01-04 19:27:22.71	230.97	56.45	-33.6	-34.1	26.5	0.00e+00	0	28	0	3428843520	46	5595
2026-01-04 19:27:26.75	229.71	55.04	-33.9	-34.4	26.7	0.00e+00	0	28	0	3458203648	46	5804
2026-01-04 19:27:30.79	228.58	53.66	-33.1	-33.6	27.3	0.00e+00	0	28	0	3487563776	44	5903
2026-01-04 19:27:34.84	227.55	52.30	-32.7	-33.2	27.1	0.00e+00	0	28	0	3516923904	44	5672
2026-01-04 19:27:38.88	226.61	50.97	-33.2	-33.7	26.8	0.00e+00	0	28	0	3546284032	44	6011
2026-01-04 19:27:42.93	225.75	49.67	-33.6	-34.1	26.7	0.00e+00	0	28	0	3575644160	44	6269
2026-01-04 19:27:46.97	224.96	48.40	-33.8	-34.3	26.6	0.00e+00	0	28	0	3603955712	44	6400
2026-01-04 19:27:51.02	224.23	47.15	-32.9	-33.4	27.0	0.00e+00	0	28	0	3633315840	44	5822
2026-01-04 19:27:55.06	223.56	45.95	-32.6	-33.1	27.4	0.00e+00	0	28	0	3662675968	44	5569
2026-01-04 19:27:59.10	222.94	44.77	-32.8	-33.3	26.9	0.00e+00	0	28	0	3692036096	44	5697
2026-01-04 19:28:03.15	222.37	43.62	-32.1	-32.6	27.7	0.00e+00	0	28	0	3721396224	42	5903
2026-01-04 19:28:07.19	221.83	42.50	-32.1	-32.6	27.8	0.00e+00	0	28	0	3750756352	42	5951
2026-01-04 19:28:11.24	221.33	41.41	-31.8	-32.3	27.8	0.00e+00	0	28	0	3780116480	42	5705
2026-01-04 19:28:15.28	220.86	40.36	-31.9	-32.4	27.8	0.00e+00	0	28	0	3809476608	42	5784
2026-01-04 19:28:19.33	220.43	39.32	-32.2	-32.7	27.4	0.00e+00	0	28	0	3837788160	42	6009
2026-01-04 19:28:23.37	220.02	38.32	-31.9	-32.4	27.7	0.00e+00	0	28	0	3867148288	42	5770
2026-01-04 19:28:27.42	219.63	37.35	-31.9	-32.4	28.0	0.00e+00	0	28	0	3896508416	42	5774
2026-01-04 19:28:31.46	219.27	36.40	-31.9	-32.4	27.7	0.00e+00	0	28	0	3925868544	42	5817
2026-01-04 19:28:35.50	218.93	35.48	-32.4	-32.9	27.6	0.00e+00	0	28	0	3955228672	42	6156
2026-01-04 19:28:39.55	218.61	34.58	-31.9	-32.4	28.0	0.00e+00	0	28	0	3983540224	42	5762
2026-01-04 19:28:43.59	218.30	33.70	-31.3	-31.8	28.3	0.00e+00	0	28	0	4012900352	42	5404
2026-01-04 19:28:47.64	218.02	32.85	-31.2	-31.7	28.4	0.00e+00	0	28	0	4042260480	42	5352
2026-01-04 19:28:51.68	217.74	32.02	-31.6	-32.1	28.2	0.00e+00	0	28	0	4071620608	42	5572
2026-01-04 19:28:55.73	217.48	31.22	-31.8	-32.2	28.0	0.00e+00	0	28	0	4100980736	42	5694
2026-01-04 19:28:59.77	217.24	30.43	-31.6	-32.0	28.2	0.00e+00	0	28	0	4130340864	42	5550
2026-01-04 19:29:03.82	217.01	29.67	-31.7	-32.1	28.1	0.00e+00	0	28	0	4158652416	42	5624
2026-01-04 19:29:07.86	216.78	28.92	-31.7	-32.2	28.0	0.00e+00	0	28	0	4188012544	42	5637
2026-01-04 19:29:11.90	216.57	28.19	-32.0	-32.5	27.5	0.00e+00	0	28	0	4217372672	42	5848
2026-01-04 19:29:15.95	216.37	27.48	-32.1	-32.6	27.7	0.00e+00	0	28	0	4246732800	42	5897
2026-01-04 19:29:19.99	216.18	26.79	-32.1	-32.6	28.0	0.00e+00	0	28	0	4276092928	42	5924
2026-01-04 19:29:24.04	215.99	26.12	-32.2	-32.7	27.8	0.00e+00	0	28	0	4305453056	42	6011
2026-01-04 19:29:28.08	215.82	25.46	-32.1	-32.6	27.9	0.00e+00	0	28	0	4334813184	42	5921
2026-01-04 19:29:32.12	215.65	24.82	-32.4	-32.8	27.6	0.00e+00	0	28	0	4363124736	42	6090
2026-01-04 19:29:36.17	215.49	24.19	-32.5	-33.0	27.4	0.00e+00	0	28	0	4392484864	42	6179
2026-01-04 19:29:40.21	215.33	23.58	-32.4	-32.8	27.6	0.00e+00	0	28	0	4421844992	42	6097
2026-01-04 19:29:44.26	215.18	22.98	-32.3	-32.7	27.6	0.00e+00	0	28	0	4451205120	42	6026
2026-01-04 19:29:48.30	215.04	22.39	-32.2	-32.7	27.6	0.00e+00	0	28	0	4480565248	42	5989
2026-01-04 19:29:52.34	214.91	21.82	-32.1	-32.5	27.6	0.00e+00	0	28	0	4509925376	42	5879
2026-01-04 19:29:56.39	214.77	21.26	-32.2	-32.7	27.6	0.00e+00	0	28	0	4539285504	42	5968
2026-01-04 19:30:00.43	214.65	20.71	-32.2	-32.7	27.6	0.00e+00	0	28	0	4567597056	42	5982
2026-01-04 19:30:04.48	214.53	20.17	-32.4	-32.8	27.5	0.00e+00	0	28	0	4596957184	42	6091
2026-01-04 19:30:08.52	214.41	19.65	-32.5	-33.0	27.5	0.00e+00	0	28	0	4626317312	42	6174
2026-01-04 19:30:12.56	214.30	19.13	-32.6	-33.1	27.2	0.00e+00	0	28	0	4655677440	42	6312
2026-01-04 19:30:16.61	214.19	18.63	-33.0	-33.4	27.1	0.00e+00	0	28	0	4685037568	42	6525
2026-01-04 19:30:20.65	214.09	18.13	-32.9	-33.4	27.0	0.00e+00	0	28	0	4713349120	44	5764
2026-01-04 19:30:24.70	213.98	17.65	-33.1	-33.6	26.9	0.00e+00	0	28	0	4742709248	44	5935
2026-01-04 19:30:28.74	213.89	17.17	-33.2	-33.7	26.9	0.00e+00	0	28	0	4772069376	44	5998
2026-01-04 19:30:32.79	213.79	16.70	-33.5	-34.0	26.6	0.00e+00	0	28	0	4801429504	44	6203
2026-01-04 19:30:36.83	213.70	16.25	-33.7	-34.2	26.5	0.00e+00	0	28	0	4830789632	46	5648
2026-01-04 19:30:40.88	213.62	15.80	-33.9	-34.4	26.2	0.00e+00	0	28	0	4860149760	46	5777
2026-01-04 19:30:44.92	213.53	15.35	-33.8	-34.3	26.3	0.00e+00	0	28	0	4888461312	46	5746
2026-01-04 19:30:48.97	213.45	14.92	-33.9	-34.4	26.2	0.00e+00	0	28	0	4917821440	46	5803
2026-01-04 19:30:53.01	213.37	14.49	-34.3	-34.8	25.9	0.00e+00	0	28	0	4947181568	46	6059
2026-01-04 19:30:57.05	213.29	14.08	-34.3	-34.8	26.0	0.00e+00	0	28	0	4976541696	46	6049
2026-01-04 19:31:01.10	213.22	13.66	-34.1	-34.6	26.1	0.00e+00	0	28	0	5005901824	46	5914
2026-01-04 19:31:05.14	213.15	13.26	-34.1	-34.6	26.0	0.00e+00	0	28	0	5035261952	46	5927
2026-01-04 19:31:09.19	213.08	12.86	-34.5	-35.0	25.8	0.00e+00	0	28	0	5064622080	46	6189
2026-01-04 19:31:13.23	213.01	12.47	-34.4	-34.9	25.7	0.00e+00	0	28	0	5093982208	46	6128
2026-01-04 19:31:17.28	212.95	12.08	-34.3	-34.8	25.7	0.00e+00	0	28	0	5122293760	46	6064
2026-01-04 19:31:21.32	212.88	11.70	-34.4	-34.9	25.7	0.00e+00	0	28	0	5151653888	46	6130
2026-01-04 19:31:25.37	212.82	11.33	-34.7	-35.2	25.5	0.00e+00	0	28	0	5181014016	46	6332
2026-01-04 19:31:29.41	212.76	10.96	-34.7	-35.2	25.3	0.00e+00	0	28	0	5210374144	46	6340
2026-01-04 19:31:33.45	212.71	10.60	-34.9	-35.4	25.3	0.00e+00	0	28	0	5239734272	46	6512
2026-01-04 19:31:37.50	212.65	10.24	-34.9	-35.5	25.2	0.00e+00	0	28	0	5269094400	48	5835
2026-01-04 19:31:41.54	212.60	9.88	-35.2	-35.8	25.0	0.00e+00	0	28	0	5297405952	48	6056
2026-01-04 19:31:45.59	212.54	9.54	-35.3	-35.9	24.9	0.00e+00	0	28	0	5326766080	48	6111
2026-01-04 19:31:49.63	212.49	9.19	-35.9	-36.4	24.1	0.00e+00	0	28	0	5356126208	48	6534
2026-01-04 19:31:53.68	212.44	8.85	-35.8	-36.3	24.2	0.00e+00	0	28	0	5385486336	50	5731
2026-01-04 19:31:57.72	212.39	8.52	-35.9	-36.5	24.1	0.00e+00	0	28	0	5414846464	50	5844
2026-01-04 19:32:01.77	212.35	8.19	-36.3	-36.9	23.6	0.00e+00	0	28	0	5443158016	50	6151
2026-01-04 19:32:05.81	212.30	7.87	-36.3	-36.9	23.7	0.00e+00	0	28	0	5472518144	50	6135
2026-01-04 19:32:09.85	212.26	7.54	-36.7	-37.3	23.3	0.00e+00	0	28	0	5501878272	50	6440
2026-01-04 19:32:13.90	212.21	7.23	-36.5	-37.1	23.5	0.00e+00	0	28	0	5531238400	50	6285
2026-01-04 19:32:17.94	212.17	6.91	-36.9	-37.5	23.3	0.00e+00	0	28	0	5560598528	50	6556
2026-01-04 19:32:21.99	212.13	6.60	-36.7	-37.3	23.2	0.00e+00	0	28	0	5589958656	50	6414
2026-01-04 19:32:26.03	212.09	6.30	-36.9	-37.6	23.0	0.00e+00	0	28	0	5619318784	50	6625
2026-01-04 19:32:30.07	212.05	5.99	-36.8	-37.4	23.2	0.00e+00	0	28	0	5648678912	52	5827
2026-01-04 19:32:34.12	212.02	5.70	-37.1	-37.8	22.8	0.00e+00	0	28	0	5676990464	52	6038
2026-01-04 19:32:38.16	211.98	5.40	-37.0	-37.6	22.9	0.00e+00	0	28	0	5706350592	52	5927
2026-01-04 19:32:42.21	211.94	5.11	-37.1	-37.7	22.6	0.00e+00	0	28	0	5735710720	52	6015
2026-01-04 19:32:46.25	211.91	4.82	-37.2	-37.9	22.5	0.00e+00	0	28	0	5765070848	52	6109
2026-01-04 19:32:50.30	211.88	4.53	-37.3	-37.9	22.5	0.00e+00	0	28	0	5794430976	52	6169
2026-01-04 19:32:54.34	211.84	4.25	-37.7	-38.3	22.0	0.00e+00	0	28	0	5823791104	52	6464
2026-01-04 19:32:58.38	211.81	3.97	-37.3	-37.9	22.2	0.00e+00	0	28	0	5852102656	52	6171
2026-01-04 19:33:02.43	211.78	3.69	-37.7	-38.3	22.0	0.00e+00	0	28	0	5881462784	52	6430
2026-01-04 19:33:06.47	211.75	3.42	-38.6	-39.4	20.9	0.00e+00	0	28	0	5910822912	54	6466
2026-01-04 19:33:10.52	211.72	3.14	-38.1	-38.8	21.5	0.00e+00	0	28	0	5940183040	54	6087
2026-01-04 19:33:14.56	211.69	2.88	-38.2	-38.9	21.1	0.00e+00	0	28	0	5969543168	54	6145
2026-01-04 19:33:18.60	211.66	2.61	-50.7	-62.3	3.6	8.46e-01	0	28	104	5985271808	60	64501
2026-01-04 19:33:22.65	211.64	2.35	-51.2	-62.8	3.6	8.45e-01	0	28	104	5985271808	60	68142
2026-01-04 19:33:26.69	211.61	2.08	-51.0	-62.8	3.6	8.44e-01	0	28	104	5985271808	60	68170
2026-01-04 19:33:30.74	211.58	1.82	-51.3	-62.9	3.6	8.46e-01	0	28	104	5985271808	60	68920
2026-01-04 19:33:34.78	211.56	1.57	-51.8	-63.3	3.6	8.45e-01	0	28	104	5985271808	60	72356
2026-01-04 19:33:38.83	211.53	1.31	-51.8	-63.3	3.6	8.47e-01	0	28	104	5985271808	60	72463
2026-01-04 19:33:42.87	211.51	1.06	-51.8	-63.4	3.6	8.45e-01	0	28	104	5985271808	60	72828
2026-01-04 19:33:46.92	211.49	0.81	-51.6	-63.2	3.6	8.45e-01	0	28	104	5985271808	60	71584
2026-01-04 19:33:50.96	211.46	0.56	-50.9	-62.6	3.6	8.45e-01	0	28	104	5985271808	60	66348
2026-01-04 19:33:55.00	211.44	0.32	-51.5	-63.2	3.6	8.44e-01	0	28	104	5985271808	60	70977
2026-01-04 19:33:59.05	211.42	0.07	-51.6	-63.2	3.6	8.45e-01	0	28	104	5985271808	60	71633

#Closed at: 2026-01-04 19:34:01
#Recorded file [5985 MB]: D:/lorett/data/35034_260104_221832.dat