passes_logs/2026/01/04/R4.6S_Anadyr_2ch/R4.6S_Anadyr_2ch__20260104_133055_NOAA_20_JPSS-1_rec.log

#Pass ID: 20260104_133055_NOAA 20 (JPSS-1)
#Satellite: NOAA 20 (JPSS-1)
#Configuration: NOAA 20
#almurnet v.1.7.20251203
#Start time: 2026-01-04 13:30:57

#Version: 2.2.20231116
#Station: R4.6S_Anadyr_2ch
#Location: 177.4865 lon 64.73178 lat
#TLE: 1 43013U 17073A   25350.93759711  .00000080  00000+0  58734-4 0  9994
#TLE: 2 43013  98.7603 287.1885 0002156  81.1496 278.9924 14.19526878418610

#Time	Az	El	Level	Level2	SNR	BER	BlckErr	Temp	State	Recorded	gain1	gain2
2026-01-04 13:30:57.14	18.91	0.07	-52.2	-67.5	3.5	1.51e+00	0	35	0	0	60	115412
2026-01-04 13:31:01.18	19.07	0.30	-52.3	-67.9	3.6	1.51e+00	0	36	104	0	60	121127
2026-01-04 13:31:05.23	19.24	0.53	-52.2	-67.7	3.6	1.51e+00	0	36	104	0	60	118868
2026-01-04 13:31:09.27	19.40	0.77	-51.9	-67.5	3.6	1.51e+00	0	36	104	0	60	115379
2026-01-04 13:31:13.32	19.58	1.00	-51.3	-66.9	3.6	1.51e+00	0	36	104	0	60	108056
2026-01-04 13:31:17.36	19.75	1.24	-50.6	-66.2	3.6	1.51e+00	0	36	104	0	60	99302
2026-01-04 13:31:21.40	19.92	1.48	-50.6	-66.1	3.6	1.51e+00	0	36	104	0	60	98550
2026-01-04 13:31:25.45	20.10	1.72	-50.6	-66.1	3.6	1.51e+00	0	36	104	0	60	98111
2026-01-04 13:31:29.49	20.28	1.96	-50.6	-66.2	3.6	1.51e+00	0	36	104	0	60	99276
2026-01-04 13:31:33.53	20.46	2.20	-50.6	-66.2	3.6	1.51e+00	0	37	104	0	60	99013
2026-01-04 13:31:37.57	20.65	2.45	-50.6	-65.4	3.6	1.51e+00	0	37	104	0	60	90977
2026-01-04 13:31:41.62	20.84	2.70	-50.6	-66.1	3.6	1.51e+00	0	37	104	0	60	97909
2026-01-04 13:31:45.66	21.03	2.95	-48.8	-53.6	11.6	7.74e-03	0	37	0	3145728	60	23300
2026-01-04 13:31:49.71	21.22	3.20	-46.0	-48.3	17.1	0.00e+00	0	37	0	10485760	60	12711
2026-01-04 13:31:53.75	21.42	3.45	-46.8	-49.5	15.7	0.00e+00	0	37	0	17825792	60	14626
2026-01-04 13:31:57.79	21.62	3.71	-45.8	-47.9	17.4	0.00e+00	0	37	0	25165824	60	12095
2026-01-04 13:32:01.84	21.82	3.97	-47.5	-50.3	15.2	5.78e-01	0	37	0	29360128	60	16026
2026-01-04 13:32:05.88	22.03	4.23	-46.5	-48.9	16.5	0.00e+00	0	37	0	36700160	60	13566
2026-01-04 13:32:09.93	22.24	4.49	-45.1	-46.9	18.6	0.00e+00	0	37	0	44040192	60	10775
2026-01-04 13:32:13.97	22.45	4.76	-45.3	-47.1	18.3	0.00e+00	0	37	0	51380224	60	11106
2026-01-04 13:32:18.02	22.67	5.02	-45.3	-47.1	18.4	0.00e+00	0	37	0	59768832	60	11030
2026-01-04 13:32:22.06	22.89	5.29	-44.9	-46.5	19.1	0.00e+00	0	37	0	67108864	60	10314
2026-01-04 13:32:26.10	23.12	5.57	-45.5	-47.3	18.3	0.00e+00	0	37	0	74448896	60	11308
2026-01-04 13:32:30.15	23.34	5.84	-45.1	-46.9	18.8	0.00e+00	0	37	0	81788928	60	10734
2026-01-04 13:32:34.19	23.58	6.12	-45.4	-47.1	18.7	0.00e+00	0	37	0	89128960	60	11078
2026-01-04 13:32:38.23	23.81	6.40	-45.3	-47.0	18.7	0.00e+00	0	37	0	97517568	60	10956
2026-01-04 13:32:42.28	24.05	6.68	-45.2	-47.0	18.8	0.00e+00	0	37	0	104857600	60	10878
2026-01-04 13:32:46.32	24.30	6.97	-44.4	-45.9	19.9	0.00e+00	0	37	0	112197632	60	9596
2026-01-04 13:32:50.36	24.55	7.25	-44.5	-46.0	19.7	0.00e+00	0	37	0	119537664	60	9729
2026-01-04 13:32:54.41	24.80	7.55	-44.3	-45.7	20.0	0.00e+00	0	37	0	127926272	60	9429
2026-01-04 13:32:58.45	25.06	7.84	-43.9	-45.3	20.5	0.00e+00	0	37	0	135266304	60	8959
2026-01-04 13:33:02.50	25.33	8.14	-44.1	-45.4	20.4	0.00e+00	0	37	0	142606336	60	9100
2026-01-04 13:33:06.54	25.60	8.44	-43.7	-45.0	20.8	0.00e+00	0	37	0	149946368	60	8661
2026-01-04 13:33:10.59	25.87	8.74	-43.7	-45.0	20.9	0.00e+00	0	37	0	158334976	60	8624
2026-01-04 13:33:14.63	26.15	9.05	-43.6	-44.9	20.9	0.00e+00	0	37	0	165675008	60	8540
2026-01-04 13:33:18.67	26.43	9.36	-43.3	-44.5	21.4	0.00e+00	0	37	0	173015040	60	8201
2026-01-04 13:33:22.72	26.73	9.67	-43.6	-44.8	21.1	0.00e+00	0	37	0	180355072	60	8479
2026-01-04 13:33:26.76	27.02	9.99	-43.6	-44.9	21.0	0.00e+00	0	37	0	188743680	60	8577
2026-01-04 13:33:30.81	27.33	10.31	-42.9	-44.1	21.8	0.00e+00	0	37	0	196083712	60	7799
2026-01-04 13:33:34.86	27.63	10.63	-42.6	-43.7	22.2	0.00e+00	0	37	0	203423744	60	7462
2026-01-04 13:33:38.90	27.95	10.96	-42.6	-43.7	22.2	0.00e+00	0	37	0	210763776	60	7484
2026-01-04 13:33:42.94	28.27	11.29	-42.5	-43.5	22.3	0.00e+00	0	37	0	218103808	60	7319
2026-01-04 13:33:46.99	28.60	11.62	-42.7	-43.7	22.2	0.00e+00	0	37	0	226492416	60	7503
2026-01-04 13:33:51.03	28.94	11.96	-42.4	-43.5	22.4	0.00e+00	0	37	0	233832448	60	7284
2026-01-04 13:33:55.08	29.28	12.30	-42.5	-43.6	22.4	0.00e+00	0	37	0	241172480	60	7361
2026-01-04 13:33:59.12	29.63	12.65	-42.0	-43.1	22.9	0.00e+00	0	37	0	248512512	60	6934
2026-01-04 13:34:03.16	29.99	13.00	-42.1	-43.1	22.9	0.00e+00	0	37	0	256901120	60	6967
2026-01-04 13:34:07.20	30.36	13.35	-41.9	-42.9	23.0	0.00e+00	0	37	0	264241152	60	6826
2026-01-04 13:34:11.25	30.74	13.71	-41.8	-42.8	23.2	0.00e+00	0	37	0	271581184	60	6693
2026-01-04 13:34:15.29	31.12	14.07	-41.4	-42.4	23.5	0.00e+00	0	37	0	278921216	60	6423
2026-01-04 13:34:19.34	31.52	14.44	-41.7	-42.7	23.3	0.00e+00	0	37	0	286261248	60	6617
2026-01-04 13:34:23.38	31.92	14.81	-41.7	-42.7	23.4	0.00e+00	0	37	0	294649856	60	6631
2026-01-04 13:34:27.42	32.33	15.19	-41.8	-42.8	23.2	0.00e+00	0	37	0	301989888	60	6710
2026-01-04 13:34:31.47	32.76	15.57	-41.8	-42.8	23.2	0.00e+00	0	37	0	309329920	60	6734
2026-01-04 13:34:35.51	33.19	15.95	-42.2	-43.2	22.9	0.00e+00	0	37	0	316669952	60	7055
2026-01-04 13:34:39.56	33.64	16.34	-42.0	-43.0	23.1	0.00e+00	0	37	0	325058560	60	6889
2026-01-04 13:34:43.60	34.09	16.74	-42.0	-43.0	23.0	0.00e+00	0	37	0	332398592	60	6912
2026-01-04 13:34:47.64	34.56	17.13	-42.0	-43.0	23.1	0.00e+00	0	37	0	339738624	60	6866
2026-01-04 13:34:51.69	35.04	17.54	-42.2	-43.2	22.9	0.00e+00	0	37	0	347078656	60	7046
2026-01-04 13:34:55.73	35.53	17.95	-42.7	-43.7	22.3	0.00e+00	0	37	0	355467264	60	7504
2026-01-04 13:34:59.78	36.04	18.36	-42.7	-43.8	22.3	0.00e+00	0	37	0	362807296	60	7536
2026-01-04 13:35:03.82	36.56	18.78	-43.1	-44.2	22.1	0.00e+00	0	37	0	370147328	60	7905
2026-01-04 13:35:07.87	37.09	19.20	-43.1	-44.2	21.9	0.00e+00	0	37	0	377487360	60	7902
2026-01-04 13:35:11.91	37.64	19.63	-43.1	-44.2	22.1	0.00e+00	0	37	0	385875968	60	7909
2026-01-04 13:35:15.95	38.20	20.06	-43.0	-44.1	22.1	0.00e+00	0	37	0	393216000	60	7820
2026-01-04 13:35:20.00	38.78	20.50	-42.9	-44.0	22.1	0.00e+00	0	37	0	400556032	60	7719
2026-01-04 13:35:24.04	39.37	20.95	-42.7	-43.8	22.5	0.00e+00	0	37	0	407896064	60	7520
2026-01-04 13:35:28.09	39.98	21.39	-42.8	-43.8	22.4	0.00e+00	0	37	0	415236096	60	7576
2026-01-04 13:35:32.13	40.61	21.85	-42.9	-44.0	22.1	0.00e+00	0	37	0	423624704	60	7756
2026-01-04 13:35:36.18	41.26	22.31	-42.7	-43.8	22.5	0.00e+00	0	37	0	430964736	60	7559
2026-01-04 13:35:40.22	41.92	22.77	-42.5	-43.5	22.8	0.00e+00	0	37	0	438304768	60	7285
2026-01-04 13:35:44.27	42.61	23.23	-42.4	-43.4	22.7	0.00e+00	0	37	0	445644800	60	7216
2026-01-04 13:35:48.31	43.32	23.70	-42.4	-43.4	22.8	0.00e+00	0	37	0	454033408	60	7215
2026-01-04 13:35:52.35	44.04	24.18	-42.1	-43.1	23.1	0.00e+00	0	37	0	461373440	60	6980
2026-01-04 13:35:56.40	44.79	24.66	-41.6	-42.5	23.7	0.00e+00	0	37	0	468713472	60	6503
2026-01-04 13:36:00.44	45.56	25.14	-41.4	-42.3	23.8	0.00e+00	0	37	0	476053504	60	6352
2026-01-04 13:36:04.48	46.36	25.63	-41.3	-42.2	24.0	0.00e+00	0	37	0	484442112	60	6272
2026-01-04 13:36:08.53	47.18	26.12	-41.3	-42.2	23.9	0.00e+00	0	37	0	491782144	60	6315
2026-01-04 13:36:12.57	48.02	26.61	-41.7	-42.6	23.4	0.00e+00	0	37	0	499122176	60	6604
2026-01-04 13:36:16.62	48.89	27.10	-42.0	-43.0	23.2	0.00e+00	0	37	0	506462208	60	6858
2026-01-04 13:36:20.66	49.78	27.60	-42.2	-43.2	23.0	0.00e+00	0	37	0	513802240	60	7038
2026-01-04 13:36:24.70	50.71	28.10	-42.2	-43.2	23.0	0.00e+00	0	37	0	522190848	60	7047
2026-01-04 13:36:28.75	51.66	28.60	-42.3	-43.3	22.9	0.00e+00	0	37	0	529530880	60	7136
2026-01-04 13:36:32.79	52.64	29.09	-43.0	-44.1	22.3	0.00e+00	0	37	0	536870912	60	7781
2026-01-04 13:36:36.84	53.66	29.59	-43.7	-44.9	21.6	0.00e+00	0	37	0	544210944	60	8582
2026-01-04 13:36:40.88	54.70	30.09	-43.9	-45.1	21.4	0.00e+00	0	37	0	552599552	60	8816
2026-01-04 13:36:44.93	55.78	30.59	-43.8	-44.9	21.5	0.00e+00	0	37	0	559939584	60	8618
2026-01-04 13:36:48.97	56.89	31.08	-45.3	-46.8	19.7	0.00e+00	0	37	0	567279616	60	10705
2026-01-04 13:36:53.02	58.03	31.57	-46.3	-48.1	18.5	0.00e+00	0	37	0	574619648	60	12388
2026-01-04 13:36:57.06	59.21	32.06	-45.6	-47.1	19.3	0.00e+00	0	37	0	583008256	60	11096
2026-01-04 13:37:01.10	60.42	32.54	-46.1	-47.9	18.7	0.00e+00	0	37	0	590348288	60	12061
2026-01-04 13:37:05.15	61.67	33.01	-46.4	-48.3	18.3	0.00e+00	0	37	0	597688320	60	12614
2026-01-04 13:37:09.19	62.95	33.48	-45.4	-46.9	19.8	0.00e+00	0	37	0	605028352	60	10740
2026-01-04 13:37:13.24	64.27	33.93	-45.4	-47.0	19.7	0.00e+00	0	37	0	612368384	60	10868
2026-01-04 13:37:17.28	65.63	34.38	-45.2	-46.7	19.9	0.00e+00	0	37	0	620756992	60	10517
2026-01-04 13:37:21.33	67.02	34.81	-44.7	-46.1	20.5	0.00e+00	0	37	0	628097024	60	9862
2026-01-04 13:37:25.37	68.45	35.23	-44.3	-45.5	20.8	0.00e+00	0	37	0	635437056	60	9237
2026-01-04 13:37:29.42	69.92	35.64	-43.6	-44.8	21.7	0.00e+00	0	37	0	642777088	60	8497
2026-01-04 13:37:33.46	71.42	36.03	-42.2	-43.2	22.8	0.00e+00	0	37	0	651165696	60	7055
2026-01-04 13:37:37.50	72.95	36.40	-42.6	-43.7	22.6	0.00e+00	0	37	0	658505728	60	7440
2026-01-04 13:37:41.55	74.53	36.76	-42.7	-43.7	22.6	0.00e+00	0	37	0	665845760	60	7463
2026-01-04 13:37:45.59	76.13	37.09	-43.4	-44.5	21.8	0.00e+00	0	37	0	673185792	60	8204
2026-01-04 13:37:49.64	77.77	37.40	-43.3	-44.4	22.0	0.00e+00	0	37	0	681574400	60	8059
2026-01-04 13:37:53.68	79.44	37.69	-43.6	-44.8	21.6	0.00e+00	0	37	0	688914432	60	8451
2026-01-04 13:37:57.73	81.13	37.95	-43.8	-45.0	21.4	0.00e+00	0	37	0	696254464	60	8670
2026-01-04 13:38:01.77	82.85	38.19	-44.0	-45.2	21.2	0.00e+00	0	37	0	703594496	60	8922
2026-01-04 13:38:05.81	84.59	38.40	-43.9	-45.1	21.2	0.00e+00	0	37	0	711983104	60	8766
2026-01-04 13:38:09.86	86.36	38.58	-44.8	-46.2	20.4	0.00e+00	0	37	0	719323136	60	9909
2026-01-04 13:38:13.91	88.15	38.73	-44.8	-46.2	20.4	0.00e+00	0	37	0	726663168	60	9908
2026-01-04 13:38:17.95	89.95	38.86	-45.5	-47.1	19.6	0.00e+00	0	37	0	734003200	60	10986
2026-01-04 13:38:21.99	91.75	38.95	-46.0	-47.6	19.0	0.00e+00	0	37	0	741343232	60	11716
2026-01-04 13:38:26.04	93.57	39.00	-45.1	-46.5	19.9	0.00e+00	0	37	0	749731840	60	10360
2026-01-04 13:38:30.08	95.40	39.03	-44.9	-46.3	20.2	0.00e+00	0	37	0	757071872	60	10093
2026-01-04 13:38:34.12	97.22	39.03	-44.2	-45.4	20.9	0.00e+00	0	37	0	764411904	60	9107
2026-01-04 13:38:38.17	99.05	38.99	-43.6	-44.8	21.6	0.00e+00	0	37	0	771751936	60	8449
2026-01-04 13:38:42.21	100.86	38.92	-44.6	-45.9	20.6	0.00e+00	0	37	0	780140544	60	9618
2026-01-04 13:38:46.26	102.67	38.82	-45.2	-46.7	19.8	0.00e+00	0	37	0	787480576	60	10576
2026-01-04 13:38:50.30	104.47	38.69	-46.3	-48.1	18.6	0.00e+00	0	37	0	794820608	60	12415
2026-01-04 13:38:54.34	106.24	38.53	-44.7	-46.0	20.5	0.00e+00	0	37	0	802160640	60	9753
2026-01-04 13:38:58.39	108.01	38.34	-45.2	-46.6	20.0	0.00e+00	0	37	0	809500672	60	10469
2026-01-04 13:39:02.43	109.75	38.12	-43.2	-44.3	22.0	0.00e+00	0	37	0	817889280	60	8045
2026-01-04 13:39:06.48	111.46	37.88	-42.0	-43.0	23.3	0.00e+00	0	37	0	825229312	60	6870
2026-01-04 13:39:10.52	113.15	37.61	-43.0	-44.1	22.2	0.00e+00	0	37	0	832569344	60	7809
2026-01-04 13:39:14.56	114.81	37.31	-42.3	-43.3	23.1	0.00e+00	0	37	0	839909376	60	7093
2026-01-04 13:39:18.61	116.44	36.99	-40.9	-41.7	24.5	0.00e+00	0	37	0	848297984	60	5951
2026-01-04 13:39:22.65	118.04	36.65	-41.8	-42.8	23.5	0.00e+00	0	37	0	855638016	60	6705
2026-01-04 13:39:26.69	119.60	36.29	-40.9	-41.7	24.3	0.00e+00	0	37	0	862978048	60	5928
2026-01-04 13:39:30.74	121.14	35.91	-40.3	-41.2	24.9	0.00e+00	0	37	0	870318080	60	5567
2026-01-04 13:39:34.78	122.63	35.51	-41.1	-42.0	24.2	0.00e+00	0	37	0	878706688	60	6148
2026-01-04 13:39:38.83	124.09	35.10	-41.7	-42.6	23.7	0.00e+00	0	37	0	886046720	60	6602
2026-01-04 13:39:42.87	125.51	34.67	-41.8	-42.8	23.5	0.00e+00	0	37	0	893386752	60	6696
2026-01-04 13:39:46.92	126.90	34.23	-42.1	-43.1	23.2	0.00e+00	0	36	0	900726784	60	6971
2026-01-04 13:39:50.96	128.25	33.78	-43.1	-44.2	22.2	0.00e+00	0	37	0	909115392	60	7920
2026-01-04 13:39:55.00	129.56	33.32	-42.3	-43.3	23.0	0.00e+00	0	37	0	916455424	60	7094
2026-01-04 13:39:59.05	130.84	32.85	-44.1	-45.4	21.1	0.00e+00	0	37	0	923795456	60	9063
2026-01-04 13:40:03.09	132.07	32.38	-43.3	-44.4	21.8	0.00e+00	0	37	0	931135488	60	8100
2026-01-04 13:40:07.13	133.28	31.89	-42.7	-43.7	22.6	0.00e+00	0	37	0	938475520	60	7447
2026-01-04 13:40:11.18	134.45	31.40	-44.1	-45.4	21.0	0.00e+00	0	37	0	946864128	60	9123
2026-01-04 13:40:15.22	135.58	30.91	-43.3	-44.4	21.9	0.00e+00	0	37	0	954204160	60	8053
2026-01-04 13:40:19.27	136.69	30.41	-44.0	-45.3	21.1	0.00e+00	0	37	0	961544192	60	8974
2026-01-04 13:40:23.31	137.75	29.91	-41.5	-42.4	23.7	0.00e+00	0	37	0	968884224	60	6463
2026-01-04 13:40:27.36	138.79	29.41	-42.8	-43.9	22.5	0.00e+00	0	37	0	977272832	60	7630
2026-01-04 13:40:31.40	139.80	28.91	-41.3	-42.2	23.8	0.00e+00	0	37	0	984612864	60	6297
2026-01-04 13:40:35.44	140.77	28.41	-42.5	-43.6	22.6	0.00e+00	0	37	0	991952896	60	7351
2026-01-04 13:40:39.49	141.72	27.91	-40.5	-41.4	24.5	0.00e+00	0	37	0	999292928	60	5715
2026-01-04 13:40:43.53	142.64	27.41	-41.6	-42.6	23.5	0.00e+00	0	37	0	1007681536	60	6588
2026-01-04 13:40:47.57	143.53	26.91	-39.2	-40.0	25.7	0.00e+00	0	37	0	1015021568	58	5460
2026-01-04 13:40:51.62	144.39	26.41	-41.9	-42.9	23.1	0.00e+00	0	37	0	1022361600	60	6800
2026-01-04 13:40:55.66	145.23	25.92	-40.7	-41.6	24.5	0.00e+00	0	37	0	1029701632	60	5844
2026-01-04 13:40:59.71	146.04	25.43	-39.9	-40.7	25.0	0.00e+00	0	37	0	1037041664	58	5912
2026-01-04 13:41:03.75	146.83	24.94	-40.1	-40.9	24.8	0.00e+00	0	37	0	1045430272	58	6075
2026-01-04 13:41:07.79	147.59	24.45	-39.3	-40.1	25.5	0.00e+00	0	37	0	1052770304	58	5506
2026-01-04 13:41:11.84	148.34	23.97	-40.2	-41.1	24.8	0.00e+00	0	37	0	1060110336	58	6175
2026-01-04 13:41:15.88	149.06	23.50	-40.0	-40.8	24.9	0.00e+00	0	37	0	1067450368	58	5990
2026-01-04 13:41:19.93	149.76	23.02	-40.6	-41.5	24.4	0.00e+00	0	37	0	1075838976	58	6481
2026-01-04 13:41:23.97	150.44	22.56	-40.3	-41.2	24.5	0.00e+00	0	36	0	1083179008	58	6264
2026-01-04 13:41:28.02	151.10	22.09	-40.4	-41.3	24.5	0.00e+00	0	37	0	1090519040	58	6327
2026-01-04 13:41:32.06	151.74	21.64	-40.9	-41.8	24.0	0.00e+00	0	37	0	1097859072	58	6736
2026-01-04 13:41:36.10	152.36	21.18	-40.7	-41.5	24.2	0.00e+00	0	37	0	1106247680	58	6534
2026-01-04 13:41:40.15	152.97	20.73	-41.7	-42.6	23.3	0.00e+00	0	37	0	1113587712	60	6606
2026-01-04 13:41:44.19	153.56	20.29	-42.4	-43.5	22.5	0.00e+00	0	37	0	1120927744	60	7308
2026-01-04 13:41:48.24	154.14	19.85	-41.9	-42.9	23.0	0.00e+00	0	37	0	1128267776	60	6811
2026-01-04 13:41:52.28	154.69	19.42	-42.5	-43.6	22.1	0.00e+00	0	37	0	1135607808	60	7351
2026-01-04 13:41:56.33	155.24	18.99	-43.4	-44.6	21.2	0.00e+00	0	37	0	1143996416	60	8313
2026-01-04 13:42:00.37	155.76	18.56	-43.3	-44.5	21.3	0.00e+00	0	36	0	1151336448	60	8194
2026-01-04 13:42:04.42	156.28	18.14	-42.0	-43.0	22.6	0.00e+00	0	37	0	1158676480	60	6921
2026-01-04 13:42:08.46	156.78	17.73	-41.4	-42.4	23.4	0.00e+00	0	37	0	1166016512	60	6422
2026-01-04 13:42:12.50	157.27	17.32	-41.5	-42.5	23.2	0.00e+00	0	37	0	1174405120	60	6470
2026-01-04 13:42:16.55	157.74	16.91	-41.6	-42.6	23.2	0.00e+00	0	37	0	1181745152	60	6586
2026-01-04 13:42:20.59	158.20	16.51	-42.2	-43.2	22.9	0.00e+00	0	37	0	1189085184	60	7055
2026-01-04 13:42:24.64	158.66	16.12	-42.1	-43.1	22.8	0.00e+00	0	37	0	1196425216	60	6960
2026-01-04 13:42:28.68	159.10	15.73	-42.3	-43.3	22.7	0.00e+00	0	36	0	1204813824	60	7130
2026-01-04 13:42:32.72	159.53	15.34	-42.5	-43.6	22.3	0.00e+00	0	37	0	1212153856	60	7340
2026-01-04 13:42:36.77	159.95	14.96	-42.4	-43.4	22.4	0.00e+00	0	37	0	1219493888	60	7238
2026-01-04 13:42:40.81	160.35	14.59	-42.2	-43.3	22.5	0.00e+00	0	37	0	1226833920	60	7127
2026-01-04 13:42:44.85	160.75	14.21	-41.8	-42.8	23.0	0.00e+00	0	37	0	1234173952	60	6741
2026-01-04 13:42:48.90	161.14	13.85	-41.9	-42.9	22.9	0.00e+00	0	37	0	1242562560	60	6832
2026-01-04 13:42:52.94	161.52	13.48	-42.2	-43.2	22.6	0.00e+00	0	37	0	1249902592	60	7053
2026-01-04 13:42:56.99	161.90	13.12	-42.3	-43.4	22.4	0.00e+00	0	37	0	1257242624	60	7213
2026-01-04 13:43:01.03	162.26	12.77	-42.6	-43.7	22.1	0.00e+00	0	37	0	1264582656	60	7507
2026-01-04 13:43:05.07	162.62	12.42	-42.7	-43.8	22.0	0.00e+00	0	37	0	1272971264	60	7575
2026-01-04 13:43:09.12	162.96	12.07	-42.7	-43.8	21.9	0.00e+00	0	37	0	1280311296	60	7540
2026-01-04 13:43:13.16	163.30	11.73	-42.8	-43.9	21.8	0.00e+00	0	37	0	1287651328	60	7682
2026-01-04 13:43:17.20	163.64	11.39	-42.9	-44.1	21.7	0.00e+00	0	37	0	1294991360	60	7841
2026-01-04 13:43:21.25	163.96	11.06	-43.3	-44.5	21.3	0.00e+00	0	37	0	1302331392	60	8217
2026-01-04 13:43:25.30	164.28	10.72	-43.7	-45.0	20.8	0.00e+00	0	37	0	1310720000	60	8663
2026-01-04 13:43:29.34	164.59	10.40	-43.6	-44.9	20.9	0.00e+00	0	37	0	1318060032	60	8584
2026-01-04 13:43:33.38	164.90	10.07	-43.4	-44.6	21.2	0.00e+00	0	37	0	1325400064	60	8295
2026-01-04 13:43:37.43	165.19	9.75	-43.2	-44.4	21.4	0.00e+00	0	37	0	1332740096	60	8062
2026-01-04 13:43:41.47	165.49	9.44	-43.1	-44.3	21.4	0.00e+00	0	37	0	1341128704	60	7964
2026-01-04 13:43:45.52	165.77	9.12	-43.1	-44.3	21.5	0.00e+00	0	37	0	1348468736	60	7961
2026-01-04 13:43:49.56	166.05	8.81	-43.7	-45.0	20.8	0.00e+00	0	37	0	1355808768	60	8706
2026-01-04 13:43:53.61	166.33	8.51	-43.8	-45.2	20.6	0.00e+00	0	37	0	1363148800	60	8858
2026-01-04 13:43:57.65	166.60	8.20	-44.5	-45.9	20.0	0.00e+00	0	37	0	1371537408	60	9657
2026-01-04 13:44:01.69	166.86	7.90	-44.8	-46.4	19.4	0.00e+00	0	37	0	1378877440	60	10169
2026-01-04 13:44:05.74	167.12	7.60	-44.9	-46.5	19.3	0.00e+00	0	37	0	1386217472	60	10310
2026-01-04 13:44:09.78	167.38	7.31	-45.2	-46.8	18.9	0.00e+00	0	37	0	1393557504	60	10725
2026-01-04 13:44:13.83	167.63	7.02	-44.9	-46.5	19.3	0.00e+00	0	37	0	1401946112	60	10346
2026-01-04 13:44:17.87	167.87	6.73	-44.5	-46.1	19.6	0.00e+00	0	37	0	1409286144	60	9817
2026-01-04 13:44:21.91	168.12	6.44	-44.6	-46.1	19.6	0.00e+00	0	37	0	1416626176	60	9835
2026-01-04 13:44:25.96	168.35	6.16	-44.4	-45.8	19.8	0.00e+00	0	37	0	1423966208	60	9547
2026-01-04 13:44:30.00	168.58	5.88	-44.4	-45.9	19.7	0.00e+00	0	37	0	1431306240	60	9622
2026-01-04 13:44:34.05	168.81	5.60	-44.1	-45.5	20.0	0.00e+00	0	37	0	1439694848	60	9168
2026-01-04 13:44:38.09	169.04	5.33	-44.6	-46.2	19.3	0.00e+00	0	37	0	1447034880	60	9926
2026-01-04 13:44:42.14	169.26	5.05	-45.0	-46.7	18.9	0.00e+00	0	37	0	1454374912	60	10530
2026-01-04 13:44:46.18	169.47	4.78	-45.4	-47.3	18.2	0.00e+00	0	37	0	1461714944	60	11303
2026-01-04 13:44:50.23	169.69	4.51	-45.3	-47.1	18.4	0.00e+00	0	37	0	1470103552	60	11097
2026-01-04 13:44:54.27	169.89	4.25	-45.3	-47.1	18.5	0.00e+00	0	37	0	1477443584	60	11018
2026-01-04 13:44:58.32	170.10	3.99	-45.6	-47.6	17.7	0.00e+00	0	37	0	1484783616	60	11706
2026-01-04 13:45:02.36	170.30	3.72	-45.5	-47.4	18.0	0.00e+00	0	37	0	1492123648	60	11430
2026-01-04 13:45:06.40	170.50	3.47	-45.3	-47.2	18.1	0.00e+00	0	37	0	1500512256	60	11156
2026-01-04 13:45:10.45	170.70	3.21	-45.3	-47.2	18.0	0.00e+00	0	37	0	1507852288	60	11202
2026-01-04 13:45:14.49	170.89	2.95	-51.6	-67.1	3.6	1.51e+00	0	37	104	1510998016	60	110664
2026-01-04 13:45:18.54	171.08	2.70	-52.2	-67.8	3.6	1.51e+00	0	37	104	1510998016	60	119570
2026-01-04 13:45:22.58	171.27	2.45	-52.2	-67.7	3.6	1.51e+00	0	37	104	1510998016	60	118836
2026-01-04 13:45:26.63	171.45	2.20	-52.2	-67.7	3.6	1.51e+00	0	37	104	1510998016	60	118492
2026-01-04 13:45:30.67	171.63	1.96	-52.2	-67.8	3.6	1.51e+00	0	37	104	1510998016	60	119158
2026-01-04 13:45:34.71	171.81	1.71	-52.2	-67.8	3.6	1.51e+00	0	37	104	1510998016	60	119353
2026-01-04 13:45:38.76	171.98	1.47	-52.2	-67.8	3.6	1.51e+00	0	37	104	1510998016	60	120359
2026-01-04 13:45:42.80	172.16	1.23	-52.3	-67.8	3.6	1.51e+00	0	37	104	1510998016	60	120171
2026-01-04 13:45:46.85	172.33	0.99	-52.3	-67.8	3.6	1.51e+00	0	37	104	1510998016	60	119908
2026-01-04 13:45:50.89	172.49	0.75	-52.3	-67.9	3.6	1.51e+00	0	37	104	1510998016	60	120941
2026-01-04 13:45:54.93	172.66	0.52	-52.4	-68.0	3.6	1.51e+00	0	37	104	1510998016	60	121812
2026-01-04 13:45:58.97	172.82	0.28	-52.3	-68.0	3.6	1.51e+00	0	37	104	1510998016	60	121956
2026-01-04 13:46:03.02	172.98	0.05	-52.4	-67.9	3.6	1.51e+00	0	37	104	1510998016	60	121578

#Closed at: 2026-01-04 13:46:04
#Recorded file [1510 MB]: D:/lorett/data/35034_260104_163057.dat