passes_logs/2026/01/04/R4.6S_Anadyr_2ch/R4.6S_Anadyr_2ch__20260104_183107_NOAA_20_JPSS-1_rec.log

#Pass ID: 20260104_183107_NOAA 20 (JPSS-1)
#Satellite: NOAA 20 (JPSS-1)
#Configuration: NOAA 20
#almurnet v.1.7.20251203
#Start time: 2026-01-04 18:31:11

#Version: 2.2.20231116
#Station: R4.6S_Anadyr_2ch
#Location: 177.4865 lon 64.73178 lat
#TLE: 1 43013U 17073A   25350.93759711  .00000080  00000+0  58734-4 0  9994
#TLE: 2 43013  98.7603 287.1885 0002156  81.1496 278.9924 14.19526878418610

#Time	Az	El	Level	Level2	SNR	BER	BlckErr	Temp	State	Recorded	gain1	gain2
2026-01-04 18:31:11.27	41.37	0.17	-52.6	-66.5	3.3	1.54e+00	0	27	0	0	60	103146
2026-01-04 18:31:14.30	41.15	0.32	-51.7	-67.1	3.6	1.51e+00	0	28	104	0	60	110426
2026-01-04 18:31:17.33	40.93	0.47	-51.7	-67.1	3.6	1.51e+00	0	28	104	0	60	110342
2026-01-04 18:31:20.36	40.70	0.62	-51.4	-66.8	3.6	1.51e+00	0	28	104	0	60	106086
2026-01-04 18:31:23.40	40.48	0.77	-51.1	-66.4	3.6	1.51e+00	0	28	104	0	60	102324
2026-01-04 18:31:26.43	40.25	0.93	-50.6	-65.9	3.6	1.51e+00	0	28	104	0	60	96673
2026-01-04 18:31:29.46	40.02	1.08	-49.9	-65.2	3.6	1.51e+00	0	28	104	0	60	89223
2026-01-04 18:31:32.50	39.78	1.23	-49.9	-65.3	3.6	1.51e+00	0	28	104	0	60	89505
2026-01-04 18:31:35.53	39.55	1.39	-49.9	-65.2	3.6	1.51e+00	0	28	104	0	60	89235
2026-01-04 18:31:38.57	39.31	1.54	-49.9	-65.2	3.6	1.51e+00	0	28	104	0	60	88437
2026-01-04 18:31:41.60	39.07	1.69	-49.9	-65.3	3.6	1.51e+00	0	28	104	0	60	89390
2026-01-04 18:31:44.63	38.82	1.85	-49.9	-65.3	3.6	1.51e+00	0	28	104	0	60	89528
2026-01-04 18:31:47.66	38.57	2.00	-49.9	-65.0	3.6	1.51e+00	0	28	104	0	60	86292
2026-01-04 18:31:50.70	38.32	2.16	-49.9	-65.0	3.5	1.51e+00	0	28	104	0	60	87044
2026-01-04 18:31:53.73	38.07	2.31	-49.9	-65.2	3.6	1.51e+00	0	28	104	0	60	88440
2026-01-04 18:31:56.76	37.82	2.47	-49.9	-65.3	3.6	1.51e+00	0	28	104	0	60	89459
2026-01-04 18:31:59.80	37.56	2.63	-49.9	-64.3	3.6	1.51e+00	0	28	104	0	60	79856
2026-01-04 18:32:02.83	37.30	2.78	-49.9	-64.4	3.7	1.51e+00	0	28	104	0	60	80704
2026-01-04 18:32:05.86	37.03	2.94	-49.1	-56.0	8.5	3.32e-01	0	28	0	0	60	30879
2026-01-04 18:32:08.89	36.77	3.10	-46.9	-50.1	14.3	1.50e+00	1	28	104	3145728	60	15592
2026-01-04 18:32:11.92	36.50	3.25	-46.9	-50.1	13.2	1.40e+00	0	28	104	3145728	60	15643
2026-01-04 18:32:14.96	36.22	3.41	-46.2	-48.8	16.0	0.00e+00	0	28	0	7340032	60	13433
2026-01-04 18:32:17.99	35.95	3.57	-45.3	-47.5	17.1	0.00e+00	0	28	0	13631488	60	11543
2026-01-04 18:32:21.02	35.67	3.73	-45.1	-47.1	17.2	0.00e+00	0	28	0	18874368	60	11054
2026-01-04 18:32:24.05	35.39	3.89	-44.8	-46.7	17.8	0.00e+00	0	28	0	24117248	60	10508
2026-01-04 18:32:27.09	35.10	4.04	-45.0	-46.9	17.7	0.00e+00	0	28	0	30408704	60	10835
2026-01-04 18:32:30.12	34.81	4.20	-45.3	-47.3	17.5	0.00e+00	0	28	0	35651584	60	11335
2026-01-04 18:32:33.15	34.52	4.36	-45.0	-46.9	17.9	0.00e+00	0	28	0	41943040	60	10828
2026-01-04 18:32:36.19	34.23	4.52	-45.1	-47.1	17.8	0.00e+00	0	28	0	47185920	60	11017
2026-01-04 18:32:39.22	33.93	4.68	-44.9	-46.8	17.8	0.00e+00	0	28	0	52428800	60	10702
2026-01-04 18:32:42.25	33.63	4.84	-44.8	-46.6	18.1	0.00e+00	0	28	0	58720256	60	10437
2026-01-04 18:32:45.29	33.32	5.00	-44.8	-46.6	18.3	0.00e+00	0	28	0	63963136	60	10453
2026-01-04 18:32:48.32	33.01	5.16	-44.6	-46.3	18.6	0.00e+00	0	28	0	70254592	60	10102
2026-01-04 18:32:51.35	32.70	5.32	-44.9	-46.7	18.3	0.00e+00	0	28	0	75497472	60	10521
2026-01-04 18:32:54.38	32.39	5.48	-44.7	-46.5	18.4	0.00e+00	0	28	0	81788928	60	10252
2026-01-04 18:32:57.42	32.07	5.64	-44.7	-46.5	18.4	0.00e+00	0	28	0	87031808	60	10303
2026-01-04 18:33:00.45	31.74	5.81	-44.7	-46.4	18.5	0.00e+00	0	28	0	92274688	60	10235
2026-01-04 18:33:03.48	31.42	5.97	-44.5	-46.2	18.8	0.00e+00	0	28	0	98566144	60	9957
2026-01-04 18:33:06.51	31.09	6.13	-44.2	-45.8	19.1	0.00e+00	0	28	0	103809024	60	9556
2026-01-04 18:33:09.55	30.75	6.29	-44.4	-46.1	18.9	0.00e+00	0	28	0	110100480	60	9801
2026-01-04 18:33:12.58	30.41	6.45	-43.9	-45.4	19.4	0.00e+00	0	28	0	115343360	60	9074
2026-01-04 18:33:15.62	30.07	6.61	-44.0	-45.6	19.5	0.00e+00	0	28	0	121634816	60	9258
2026-01-04 18:33:18.65	29.73	6.77	-43.9	-45.4	19.6	0.00e+00	0	28	0	126877696	60	9065
2026-01-04 18:33:21.68	29.38	6.93	-44.0	-45.5	19.5	0.00e+00	0	28	0	132120576	60	9230
2026-01-04 18:33:24.71	29.02	7.10	-43.8	-45.3	19.7	0.00e+00	0	28	0	138412032	60	9013
2026-01-04 18:33:27.75	28.66	7.26	-43.4	-44.7	20.2	0.00e+00	0	28	0	143654912	60	8404
2026-01-04 18:33:30.78	28.30	7.42	-43.5	-44.9	20.3	0.00e+00	0	28	0	149946368	60	8539
2026-01-04 18:33:33.82	27.93	7.58	-43.7	-45.1	20.1	0.00e+00	0	28	0	155189248	60	8762
2026-01-04 18:33:36.85	27.56	7.74	-43.7	-45.1	20.1	0.00e+00	0	28	0	161480704	60	8821
2026-01-04 18:33:39.88	27.19	7.90	-43.6	-44.9	20.2	0.00e+00	0	28	0	166723584	60	8598
2026-01-04 18:33:42.92	26.81	8.06	-43.8	-45.2	20.1	0.00e+00	0	28	0	171966464	60	8876
2026-01-04 18:33:45.95	26.43	8.22	-43.5	-45.0	20.2	0.00e+00	0	28	0	178257920	60	8626
2026-01-04 18:33:48.98	26.04	8.38	-43.4	-44.7	20.4	0.00e+00	0	28	0	183500800	60	8396
2026-01-04 18:33:52.02	25.65	8.54	-43.1	-44.4	20.6	0.00e+00	0	28	0	189792256	60	8133
2026-01-04 18:33:55.05	25.25	8.70	-43.4	-44.8	20.2	0.00e+00	0	28	0	195035136	60	8430
2026-01-04 18:33:58.08	24.85	8.86	-43.3	-44.7	20.5	0.00e+00	0	28	0	201326592	60	8332
2026-01-04 18:34:01.12	24.45	9.02	-43.4	-44.8	20.4	0.00e+00	0	28	0	206569472	60	8472
2026-01-04 18:34:04.15	24.04	9.18	-43.3	-44.6	20.7	0.00e+00	0	29	0	211812352	60	8261
2026-01-04 18:34:07.18	23.62	9.34	-43.6	-44.9	20.4	0.00e+00	0	29	0	218103808	60	8614
2026-01-04 18:34:10.21	23.20	9.50	-43.4	-44.7	20.4	0.00e+00	0	29	0	223346688	60	8388
2026-01-04 18:34:13.25	22.78	9.65	-43.5	-44.9	20.3	0.00e+00	0	28	0	229638144	60	8560
2026-01-04 18:34:16.28	22.35	9.81	-43.4	-44.8	20.4	0.00e+00	0	28	0	234881024	60	8429
2026-01-04 18:34:19.31	21.92	9.97	-44.0	-45.4	20.2	0.00e+00	0	29	0	240123904	60	9067
2026-01-04 18:34:22.35	21.48	10.12	-43.4	-44.7	20.5	0.00e+00	0	28	0	246415360	60	8411
2026-01-04 18:34:25.38	21.04	10.28	-43.1	-44.4	20.9	0.00e+00	0	28	0	251658240	60	8048
2026-01-04 18:34:28.41	20.59	10.43	-43.2	-44.5	20.7	0.00e+00	0	28	0	257949696	60	8146
2026-01-04 18:34:31.45	20.14	10.59	-43.3	-44.6	20.7	0.00e+00	0	28	0	263192576	60	8253
2026-01-04 18:34:34.48	19.68	10.74	-43.3	-44.6	20.8	0.00e+00	0	28	0	269484032	60	8254
2026-01-04 18:34:37.51	19.22	10.89	-43.2	-44.5	20.9	0.00e+00	0	28	0	274726912	60	8158
2026-01-04 18:34:40.55	18.75	11.04	-42.8	-44.0	21.3	0.00e+00	0	28	0	279969792	60	7723
2026-01-04 18:34:43.58	18.28	11.19	-42.6	-43.7	21.5	0.00e+00	0	28	0	286261248	60	7494
2026-01-04 18:34:46.61	17.80	11.34	-42.2	-43.4	21.7	0.00e+00	0	28	0	291504128	60	7206
2026-01-04 18:34:49.65	17.32	11.49	-42.3	-43.4	21.7	0.00e+00	0	28	0	297795584	60	7209
2026-01-04 18:34:52.68	16.84	11.63	-42.2	-43.3	21.7	0.00e+00	0	28	0	303038464	60	7151
2026-01-04 18:34:55.71	16.34	11.78	-42.2	-43.4	21.8	0.00e+00	0	28	0	309329920	60	7203
2026-01-04 18:34:58.75	15.85	11.93	-42.6	-43.9	21.5	0.00e+00	0	28	0	314572800	60	7600
2026-01-04 18:35:01.78	15.35	12.07	-42.1	-43.2	22.1	0.00e+00	0	28	0	319815680	60	7052
2026-01-04 18:35:04.81	14.84	12.21	-41.8	-42.9	22.1	0.00e+00	0	28	0	326107136	60	6793
2026-01-04 18:35:07.84	14.33	12.35	-41.6	-42.6	22.5	0.00e+00	0	29	0	331350016	60	6612
2026-01-04 18:35:10.88	13.81	12.49	-42.3	-43.4	21.8	0.00e+00	0	28	0	337641472	60	7233
2026-01-04 18:35:13.91	13.29	12.63	-42.3	-43.4	21.7	0.00e+00	0	29	0	342884352	60	7233
2026-01-04 18:35:16.94	12.77	12.76	-41.4	-42.4	22.9	0.00e+00	0	29	0	349175808	60	6409
2026-01-04 18:35:19.98	12.23	12.90	-40.9	-41.9	23.2	0.00e+00	0	28	0	354418688	60	6062
2026-01-04 18:35:23.01	11.70	13.03	-40.8	-41.8	23.3	0.00e+00	0	29	0	359661568	60	5986
2026-01-04 18:35:26.04	11.16	13.16	-41.1	-42.1	23.1	0.00e+00	0	28	0	365953024	60	6202
2026-01-04 18:35:29.08	10.61	13.29	-41.0	-41.9	23.1	0.00e+00	0	28	0	371195904	60	6094
2026-01-04 18:35:32.11	10.06	13.41	-41.7	-42.8	22.7	0.00e+00	0	28	0	377487360	60	6720
2026-01-04 18:35:35.14	9.51	13.54	-41.4	-42.5	22.7	0.00e+00	0	28	0	382730240	60	6485
2026-01-04 18:35:38.18	8.94	13.66	-41.4	-42.5	22.7	0.00e+00	0	29	0	387973120	60	6479
2026-01-04 18:35:41.21	8.38	13.78	-41.3	-42.4	22.7	0.00e+00	0	29	0	394264576	60	6410
2026-01-04 18:35:44.24	7.81	13.90	-41.2	-42.2	23.0	0.00e+00	0	29	0	399507456	60	6266
2026-01-04 18:35:47.27	7.24	14.02	-41.3	-42.2	22.8	0.00e+00	0	28	0	405798912	60	6316
2026-01-04 18:35:50.31	6.66	14.13	-41.2	-42.1	23.0	0.00e+00	0	28	0	411041792	60	6239
2026-01-04 18:35:53.34	6.08	14.24	-41.2	-42.1	23.2	0.00e+00	0	29	0	417333248	60	6242
2026-01-04 18:35:56.37	5.49	14.35	-41.1	-42.1	23.1	0.00e+00	0	29	0	422576128	60	6197
2026-01-04 18:35:59.41	4.90	14.46	-41.0	-42.0	22.7	0.00e+00	0	29	0	427819008	60	6116
2026-01-04 18:36:02.44	4.30	14.56	-41.2	-42.2	23.0	0.00e+00	0	28	0	434110464	60	6287
2026-01-04 18:36:05.47	3.70	14.66	-41.3	-42.3	22.8	0.00e+00	0	28	0	439353344	60	6358
2026-01-04 18:36:08.51	3.10	14.76	-40.9	-41.9	23.1	0.00e+00	0	29	0	445644800	60	6084
2026-01-04 18:36:11.54	2.49	14.85	-41.1	-42.0	23.1	0.00e+00	0	29	0	450887680	60	6163
2026-01-04 18:36:14.57	1.88	14.94	-41.6	-42.7	22.6	0.00e+00	0	29	0	457179136	60	6616
2026-01-04 18:36:17.61	1.26	15.03	-41.5	-42.5	22.8	0.00e+00	0	28	0	462422016	60	6520
2026-01-04 18:36:20.64	0.64	15.12	-41.7	-42.7	22.7	0.00e+00	0	29	0	467664896	60	6660
2026-01-04 18:36:23.67	0.02	15.20	-40.9	-41.9	23.2	0.00e+00	0	29	0	473956352	60	6078
2026-01-04 18:36:26.71	359.39	15.28	-40.9	-41.8	23.1	0.00e+00	0	29	0	479199232	60	6012
2026-01-04 18:36:29.74	358.76	15.36	-41.5	-42.5	22.5	0.00e+00	0	29	0	485490688	60	6516
2026-01-04 18:36:32.77	358.13	15.43	-40.9	-41.9	23.4	0.00e+00	0	29	0	490733568	60	6057
2026-01-04 18:36:35.80	357.50	15.50	-41.2	-42.2	23.2	1.50e-06	0	29	0	497025024	60	6299
2026-01-04 18:36:38.84	356.86	15.57	-41.5	-42.5	22.0	0.00e+00	0	29	0	502267904	60	6476
2026-01-04 18:36:41.87	356.21	15.63	-41.4	-42.4	22.6	0.00e+00	0	29	0	507510784	60	6428
2026-01-04 18:36:44.90	355.57	15.69	-42.1	-43.2	22.5	0.00e+00	0	29	0	513802240	60	7035
2026-01-04 18:36:47.94	354.92	15.75	-41.4	-42.4	23.0	0.00e+00	0	29	0	519045120	60	6433
2026-01-04 18:36:50.97	354.27	15.80	-41.2	-42.2	23.1	0.00e+00	0	29	0	525336576	60	6257
2026-01-04 18:36:54.00	353.62	15.85	-41.3	-42.3	23.2	0.00e+00	0	28	0	530579456	60	6322
2026-01-04 18:36:57.04	352.97	15.90	-41.2	-42.1	23.2	0.00e+00	0	28	0	536870912	60	6237
2026-01-04 18:37:00.07	352.31	15.94	-41.3	-42.3	22.9	7.00e-07	0	29	0	542113792	60	6350
2026-01-04 18:37:03.10	351.66	15.98	-41.8	-42.8	22.8	0.00e+00	0	28	0	547356672	60	6732
2026-01-04 18:37:06.14	350.99	16.01	-41.6	-42.6	22.7	0.00e+00	0	29	0	553648128	60	6577
2026-01-04 18:37:09.17	350.34	16.04	-41.6	-42.7	22.6	0.00e+00	0	28	0	558891008	60	6642
2026-01-04 18:37:12.20	349.67	16.07	-41.7	-42.7	22.6	0.00e+00	0	28	0	565182464	60	6647
2026-01-04 18:37:15.24	349.01	16.09	-42.8	-44.0	21.7	0.00e+00	0	28	0	570425344	60	7702
2026-01-04 18:37:18.27	348.35	16.11	-41.8	-42.8	22.9	0.00e+00	0	28	0	575668224	60	6743
2026-01-04 18:37:21.30	347.68	16.12	-41.7	-42.7	22.8	0.00e+00	0	29	0	581959680	60	6675
2026-01-04 18:37:24.34	347.02	16.13	-42.0	-43.1	22.2	7.00e-07	0	28	0	587202560	60	6964
2026-01-04 18:37:27.37	346.35	16.14	-42.0	-43.1	22.6	0.00e+00	0	29	0	593494016	60	6943
2026-01-04 18:37:30.40	345.69	16.14	-41.7	-42.8	22.7	7.00e-07	0	28	0	598736896	60	6695
2026-01-04 18:37:33.44	345.02	16.14	-42.0	-43.0	22.5	0.00e+00	0	28	0	605028352	60	6915
2026-01-04 18:37:36.47	344.35	16.14	-42.0	-43.1	22.5	0.00e+00	0	28	0	610271232	60	6951
2026-01-04 18:37:39.50	343.69	16.13	-41.9	-42.9	22.5	0.00e+00	0	28	0	615514112	60	6805
2026-01-04 18:37:42.54	343.02	16.12	-41.8	-42.8	22.8	0.00e+00	0	28	0	621805568	60	6740
2026-01-04 18:37:45.57	342.36	16.10	-42.7	-43.8	21.8	0.00e+00	0	28	0	627048448	60	7583
2026-01-04 18:37:48.60	341.70	16.08	-42.9	-44.0	22.3	0.00e+00	0	28	0	633339904	60	7705
2026-01-04 18:37:51.64	341.03	16.06	-42.6	-43.7	21.8	0.00e+00	0	28	0	638582784	60	7471
2026-01-04 18:37:54.67	340.37	16.03	-42.2	-43.2	22.4	0.00e+00	0	28	0	644874240	60	7075
2026-01-04 18:37:57.70	339.71	16.00	-41.6	-42.6	22.7	0.00e+00	0	28	0	650117120	60	6599
2026-01-04 18:38:00.73	339.05	15.96	-41.9	-43.0	22.7	7.00e-07	0	28	0	655360000	60	6874
2026-01-04 18:38:03.77	338.40	15.92	-41.6	-42.6	23.0	0.00e+00	0	29	0	661651456	60	6591
2026-01-04 18:38:06.80	337.74	15.88	-41.4	-42.4	23.1	0.00e+00	0	29	0	666894336	60	6424
2026-01-04 18:38:09.84	337.09	15.83	-41.5	-42.5	23.1	0.00e+00	0	28	0	673185792	60	6476
2026-01-04 18:38:12.87	336.44	15.78	-41.8	-42.8	23.1	0.00e+00	0	28	0	678428672	60	6740
2026-01-04 18:38:15.90	335.79	15.73	-41.5	-42.5	23.1	0.00e+00	0	28	0	684720128	60	6496
2026-01-04 18:38:18.94	335.14	15.67	-41.4	-42.3	23.2	0.00e+00	0	28	0	689963008	60	6388
2026-01-04 18:38:21.97	334.50	15.61	-42.2	-43.2	22.6	0.00e+00	0	28	0	695205888	60	7078
2026-01-04 18:38:25.00	333.86	15.54	-42.0	-43.0	22.7	0.00e+00	0	28	0	701497344	60	6907
2026-01-04 18:38:28.03	333.22	15.47	-42.1	-43.2	22.1	0.00e+00	0	28	0	706740224	60	7064
2026-01-04 18:38:31.06	332.59	15.40	-42.1	-43.1	23.1	0.00e+00	0	29	0	713031680	60	6989
2026-01-04 18:38:34.10	331.95	15.33	-41.9	-43.0	22.6	7.00e-07	0	28	0	718274560	60	6862
2026-01-04 18:38:37.13	331.33	15.25	-42.1	-43.1	22.5	0.00e+00	0	28	0	724566016	60	6945
2026-01-04 18:38:40.17	330.70	15.17	-41.7	-42.7	22.8	0.00e+00	0	29	0	729808896	60	6672
2026-01-04 18:38:43.20	330.08	15.08	-42.1	-43.2	22.4	0.00e+00	0	28	0	735051776	60	7030
2026-01-04 18:38:46.23	329.46	14.99	-42.0	-43.1	22.5	0.00e+00	0	28	0	741343232	60	6973
2026-01-04 18:38:49.26	328.85	14.90	-42.2	-43.3	21.9	0.00e+00	0	28	0	746586112	60	7129
2026-01-04 18:38:52.30	328.24	14.81	-43.3	-44.5	21.3	7.00e-07	0	28	0	752877568	60	8215
2026-01-04 18:38:55.33	327.63	14.71	-43.1	-44.2	21.8	0.00e+00	0	28	0	758120448	60	7938
2026-01-04 18:38:58.36	327.03	14.61	-42.8	-43.9	22.0	0.00e+00	0	28	0	763363328	60	7627
2026-01-04 18:39:01.40	326.43	14.51	-42.2	-43.2	22.8	0.00e+00	0	28	0	769654784	60	7072
2026-01-04 18:39:04.43	325.83	14.41	-41.7	-42.7	22.9	0.00e+00	0	28	0	774897664	60	6624
2026-01-04 18:39:07.46	325.25	14.30	-43.3	-44.6	21.5	0.00e+00	0	28	0	781189120	60	8240
2026-01-04 18:39:10.50	324.66	14.19	-41.6	-42.7	22.8	0.00e+00	0	28	0	786432000	60	6619
2026-01-04 18:39:13.53	324.08	14.08	-42.6	-43.7	22.5	0.00e+00	0	28	0	792723456	60	7448
2026-01-04 18:39:16.57	323.50	13.96	-42.2	-43.2	22.7	0.00e+00	0	28	0	797966336	60	7038
2026-01-04 18:39:19.60	322.93	13.85	-42.6	-43.7	22.4	0.00e+00	0	28	0	803209216	60	7428
2026-01-04 18:39:22.63	322.36	13.73	-43.8	-44.9	22.2	0.00e+00	0	28	0	809500672	60	8603
2026-01-04 18:39:25.67	321.80	13.61	-44.2	-45.3	21.8	0.00e+00	0	28	0	814743552	60	9000
2026-01-04 18:39:28.70	321.24	13.48	-42.3	-43.3	22.6	0.00e+00	0	28	0	821035008	60	7114
2026-01-04 18:39:31.73	320.69	13.36	-42.0	-43.0	23.1	0.00e+00	0	28	0	826277888	60	6879
2026-01-04 18:39:34.76	320.14	13.23	-42.5	-43.5	22.6	0.00e+00	0	28	0	832569344	60	7301
2026-01-04 18:39:37.80	319.59	13.10	-42.7	-43.8	22.2	0.00e+00	0	28	0	837812224	60	7522
2026-01-04 18:39:40.83	319.06	12.97	-44.0	-45.1	21.8	0.00e+00	0	28	0	843055104	60	8756
2026-01-04 18:39:43.87	318.52	12.83	-43.0	-44.2	21.9	0.00e+00	0	28	0	849346560	60	7867
2026-01-04 18:39:46.90	317.99	12.70	-42.8	-43.9	21.9	0.00e+00	0	29	0	854589440	60	7656
2026-01-04 18:39:49.93	317.47	12.56	-43.4	-44.5	21.8	0.00e+00	0	28	0	860880896	60	8216
2026-01-04 18:39:52.97	316.95	12.43	-44.2	-45.4	21.5	0.00e+00	0	28	0	866123776	60	9086
2026-01-04 18:39:56.00	316.43	12.29	-43.5	-44.7	21.0	0.00e+00	0	28	0	872415232	60	8403
2026-01-04 18:39:59.03	315.92	12.15	-43.6	-44.9	20.8	0.00e+00	0	28	0	877658112	60	8575
2026-01-04 18:40:02.07	315.42	12.00	-44.6	-45.9	20.8	0.00e+00	0	28	0	882900992	60	9644
2026-01-04 18:40:05.10	314.92	11.86	-43.6	-44.8	21.1	0.00e+00	0	28	0	889192448	60	8490
2026-01-04 18:40:08.13	314.42	11.71	-44.4	-45.7	20.8	0.00e+00	0	28	0	894435328	60	9424
2026-01-04 18:40:11.16	313.94	11.57	-44.6	-45.9	20.4	0.00e+00	0	28	0	900726784	60	9657
2026-01-04 18:40:14.20	313.45	11.42	-45.2	-46.6	20.3	0.00e+00	0	29	0	905969664	60	10373
2026-01-04 18:40:17.23	312.97	11.27	-44.5	-45.9	20.3	0.00e+00	0	28	0	912261120	60	9594
2026-01-04 18:40:20.26	312.50	11.12	-44.8	-46.2	20.1	0.00e+00	0	28	0	917504000	60	10007
2026-01-04 18:40:23.30	312.03	10.97	-44.6	-46.0	20.0	0.00e+00	0	28	0	922746880	60	9762
2026-01-04 18:40:26.33	311.56	10.82	-45.1	-46.5	20.1	0.00e+00	0	28	0	929038336	60	10294
2026-01-04 18:40:29.36	311.10	10.67	-45.3	-46.8	20.2	7.00e-07	0	29	0	934281216	60	10619
2026-01-04 18:40:32.40	310.64	10.52	-44.6	-46.0	20.1	0.00e+00	0	28	0	940572672	60	9689
2026-01-04 18:40:35.43	310.19	10.36	-45.3	-46.6	19.7	0.00e+00	0	28	0	945815552	60	10474
2026-01-04 18:40:38.46	309.75	10.21	-44.8	-46.2	20.0	0.00e+00	0	28	0	951058432	60	9983
2026-01-04 18:40:41.50	309.31	10.05	-45.0	-46.5	20.1	0.00e+00	0	28	0	957349888	60	10282
2026-01-04 18:40:44.53	308.87	9.90	-45.4	-47.0	19.8	0.00e+00	0	28	0	962592768	60	10900
2026-01-04 18:40:47.56	308.44	9.74	-45.1	-46.4	20.3	0.00e+00	0	28	0	968884224	60	10224
2026-01-04 18:40:50.60	308.01	9.58	-45.7	-47.1	20.1	0.00e+00	0	28	0	974127104	60	11036
2026-01-04 18:40:53.63	307.59	9.43	-44.3	-45.7	20.5	0.00e+00	0	28	0	980418560	60	9345
2026-01-04 18:40:56.66	307.17	9.27	-44.7	-46.1	19.9	0.00e+00	0	28	0	985661440	60	9804
2026-01-04 18:40:59.69	306.76	9.11	-43.7	-45.0	20.6	0.00e+00	0	28	0	990904320	60	8664
2026-01-04 18:41:02.73	306.35	8.95	-43.7	-44.9	21.3	0.00e+00	0	29	0	997195776	60	8589
2026-01-04 18:41:05.76	305.95	8.79	-43.0	-44.1	21.6	0.00e+00	0	28	0	1002438656	60	7830
2026-01-04 18:41:08.79	305.55	8.63	-43.2	-44.3	21.8	0.00e+00	0	28	0	1008730112	60	8023
2026-01-04 18:41:11.83	305.15	8.47	-43.4	-44.5	21.7	0.00e+00	0	28	0	1013972992	60	8208
2026-01-04 18:41:14.86	304.76	8.31	-43.3	-44.4	21.9	0.00e+00	0	28	0	1020264448	60	8124
2026-01-04 18:41:17.89	304.38	8.15	-43.8	-44.9	21.5	0.00e+00	0	28	0	1025507328	60	8607
2026-01-04 18:41:20.93	304.00	7.99	-43.2	-44.3	22.1	0.00e+00	0	28	0	1030750208	60	7994
2026-01-04 18:41:23.96	303.62	7.83	-43.0	-44.1	21.9	0.00e+00	0	28	0	1037041664	60	7797
2026-01-04 18:41:26.99	303.25	7.67	-43.1	-44.2	22.3	0.00e+00	0	28	0	1042284544	60	7914
2026-01-04 18:41:30.03	302.88	7.51	-42.8	-43.9	21.9	0.00e+00	0	28	0	1048576000	60	7676
2026-01-04 18:41:33.06	302.51	7.34	-42.9	-44.0	21.7	0.00e+00	0	28	0	1053818880	60	7753
2026-01-04 18:41:36.09	302.15	7.18	-42.7	-43.9	21.9	0.00e+00	0	28	0	1060110336	60	7623
2026-01-04 18:41:39.12	301.79	7.02	-43.2	-44.3	22.1	0.00e+00	0	28	0	1065353216	60	8013
2026-01-04 18:41:42.16	301.44	6.86	-43.8	-44.9	21.7	0.00e+00	0	28	0	1070596096	60	8599
2026-01-04 18:41:45.19	301.09	6.70	-42.3	-43.5	21.8	0.00e+00	0	28	0	1076887552	60	7280
2026-01-04 18:41:48.22	300.75	6.54	-42.3	-43.5	21.5	0.00e+00	0	28	0	1082130432	60	7281
2026-01-04 18:41:51.26	300.41	6.38	-42.3	-43.5	21.7	0.00e+00	0	28	0	1088421888	60	7287
2026-01-04 18:41:54.29	300.07	6.22	-43.0	-44.2	21.2	0.00e+00	0	28	0	1093664768	60	7925
2026-01-04 18:41:57.32	299.74	6.05	-43.0	-44.2	21.6	0.00e+00	0	28	0	1098907648	60	7873
2026-01-04 18:42:00.35	299.41	5.89	-44.3	-45.6	21.4	0.00e+00	0	28	0	1105199104	60	9276
2026-01-04 18:42:03.39	299.08	5.73	-43.2	-44.4	20.9	0.00e+00	0	28	0	1110441984	60	8110
2026-01-04 18:42:06.42	298.76	5.57	-43.9	-45.2	21.0	0.00e+00	0	28	0	1116733440	60	8900
2026-01-04 18:42:09.45	298.44	5.41	-43.5	-44.8	20.5	0.00e+00	0	28	0	1121976320	60	8477
2026-01-04 18:42:12.49	298.13	5.25	-43.6	-44.9	20.5	0.00e+00	0	28	0	1128267776	60	8617
2026-01-04 18:42:15.52	297.81	5.09	-44.0	-45.4	20.3	0.00e+00	0	28	0	1133510656	60	9052
2026-01-04 18:42:18.55	297.51	4.93	-44.3	-45.7	20.2	0.00e+00	0	28	0	1138753536	60	9422
2026-01-04 18:42:21.59	297.20	4.77	-44.0	-45.5	19.9	0.00e+00	0	28	0	1145044992	60	9134
2026-01-04 18:42:24.62	296.90	4.61	-44.1	-45.6	19.8	0.00e+00	0	28	0	1150287872	60	9261
2026-01-04 18:42:27.65	296.60	4.45	-44.0	-45.4	20.1	0.00e+00	0	28	0	1156579328	60	9063
2026-01-04 18:42:30.68	296.31	4.29	-44.1	-45.6	19.7	0.00e+00	0	28	0	1161822208	60	9294
2026-01-04 18:42:33.71	296.02	4.13	-44.7	-46.3	19.1	0.00e+00	0	28	0	1168113664	60	10043
2026-01-04 18:42:36.75	295.73	3.97	-44.7	-46.3	19.3	0.00e+00	0	28	0	1173356544	60	10091
2026-01-04 18:42:39.78	295.45	3.81	-45.2	-46.9	18.9	0.00e+00	0	28	0	1178599424	60	10788
2026-01-04 18:42:42.81	295.17	3.66	-44.4	-46.0	18.9	0.00e+00	0	28	0	1184890880	60	9783
2026-01-04 18:42:45.85	294.89	3.50	-44.4	-46.1	19.0	0.00e+00	0	28	0	1190133760	60	9809
2026-01-04 18:42:48.88	294.61	3.34	-44.9	-46.7	18.3	0.00e+00	0	28	0	1196425216	60	10536
2026-01-04 18:42:51.91	294.34	3.18	-44.9	-46.7	18.6	0.00e+00	0	28	0	1201668096	60	10526
2026-01-04 18:42:54.95	294.07	3.02	-51.5	-66.9	3.6	7.18e-01	0	28	104	1206910976	60	107482
2026-01-04 18:42:57.98	293.80	2.87	-51.8	-67.2	3.6	1.51e+00	0	28	104	1206910976	60	112035
2026-01-04 18:43:01.01	293.54	2.71	-52.3	-67.7	3.6	1.51e+00	0	28	104	1206910976	60	118398
2026-01-04 18:43:04.05	293.28	2.55	-52.6	-68.0	3.6	1.51e+00	0	28	104	1206910976	60	122097
2026-01-04 18:43:07.08	293.02	2.40	-52.4	-67.9	3.6	1.51e+00	0	29	104	1206910976	60	121197
2026-01-04 18:43:10.11	292.77	2.24	-53.0	-68.4	3.6	1.51e+00	0	28	104	1206910976	60	128069
2026-01-04 18:43:13.14	292.52	2.09	-52.3	-67.7	3.6	1.51e+00	0	29	104	1206910976	60	117702
2026-01-04 18:43:16.18	292.27	1.93	-52.9	-68.4	3.6	1.51e+00	0	28	104	1206910976	60	127567
2026-01-04 18:43:19.21	292.02	1.78	-53.2	-68.7	3.6	1.51e+00	0	29	104	1206910976	60	132912
2026-01-04 18:43:22.24	291.78	1.62	-52.2	-67.6	3.6	1.51e+00	0	28	104	1206910976	60	116677
2026-01-04 18:43:25.27	291.54	1.47	-52.5	-67.9	3.6	1.51e+00	0	28	104	1206910976	60	120835
2026-01-04 18:43:28.31	291.30	1.32	-52.2	-67.6	3.6	1.51e+00	0	28	104	1206910976	60	116603
2026-01-04 18:43:31.34	291.06	1.16	-52.2	-67.6	3.6	1.51e+00	0	28	104	1206910976	60	116554
2026-01-04 18:43:34.37	290.83	1.01	-51.9	-67.4	3.6	1.51e+00	0	29	104	1206910976	60	113824
2026-01-04 18:43:37.40	290.60	0.86	-52.0	-67.4	3.6	1.51e+00	0	28	104	1206910976	60	114415
2026-01-04 18:43:40.43	290.37	0.71	-52.3	-67.7	3.6	1.51e+00	0	29	104	1206910976	60	118237
2026-01-04 18:43:43.47	290.14	0.55	-52.5	-67.9	3.6	1.51e+00	0	28	104	1206910976	60	121270
2026-01-04 18:43:46.50	289.92	0.40	-52.8	-68.2	3.6	1.51e+00	0	28	104	1206910976	60	125208
2026-01-04 18:43:49.53	289.70	0.25	-53.4	-68.8	3.5	1.51e+00	0	28	104	1206910976	60	134547
2026-01-04 18:43:52.56	289.48	0.10	-52.8	-68.2	3.6	1.51e+00	0	29	104	1206910976	60	126016

#Closed at: 2026-01-04 18:43:54
#Recorded file [1206 MB]: D:/lorett/data/35034_260104_213111.dat