passes_logs/2026/01/04/R4.6S_Anadyr_2ch/R4.6S_Anadyr_2ch__20260104_173142_FENGYUN_3D_rec.log

#Pass ID: 20260104_173142_FENGYUN 3D
#Satellite: FENGYUN 3D
#Configuration: FENGYUN 3D
#almurnet v.1.7.20251203
#Start time: 2026-01-04 17:31:43

#Version: 2.2.20231116
#Station: R4.6S_Anadyr_2ch
#Location: 177.4865 lon 64.73178 lat
#TLE: 1 43010U 17072A   25350.96693137  .00000321  00000+0  17364-3 0  9993
#TLE: 2 43010  98.9888 317.3403 0001146 169.6565 190.4634 14.19686173419132

#Time	Az	El	Level	Level2	SNR	BER	BlckErr	Temp	State	Recorded	gain1	gain2
2026-01-04 17:31:43.12	22.94	0.05	-41.5	-43.0	6.5	3.02e+01	41	28	0	0	60	7346
2026-01-04 17:31:47.16	22.88	0.29	-53.5	-65.8	3.6	8.45e-01	0	29	104	0	60	95088
2026-01-04 17:31:51.20	22.82	0.53	-53.8	-66.1	3.6	8.44e-01	0	30	104	0	60	98746
2026-01-04 17:31:55.25	22.75	0.77	-51.7	-64.1	3.6	8.46e-01	0	30	104	0	60	78473
2026-01-04 17:31:59.29	22.68	1.02	-51.5	-63.9	3.6	8.45e-01	0	30	104	0	60	76339
2026-01-04 17:32:03.33	22.61	1.27	-50.9	-63.3	3.6	8.46e-01	0	30	104	0	60	71196
2026-01-04 17:32:07.37	22.54	1.52	-50.1	-62.4	3.6	8.46e-01	0	30	104	0	60	64387
2026-01-04 17:32:11.42	22.47	1.77	-50.0	-62.3	3.6	8.46e-01	0	30	104	0	60	63723
2026-01-04 17:32:15.46	22.40	2.03	-50.1	-62.0	3.6	8.45e-01	0	30	104	0	60	61229
2026-01-04 17:32:19.50	22.32	2.28	-50.1	-61.9	3.6	8.45e-01	0	30	104	0	60	60406
2026-01-04 17:32:23.55	22.25	2.54	-50.1	-62.4	3.6	8.46e-01	0	30	104	0	60	64642
2026-01-04 17:32:27.58	22.17	2.80	-50.1	-61.6	3.5	8.45e-01	0	30	104	0	60	58636
2026-01-04 17:32:31.63	22.09	3.07	-49.9	-60.2	3.6	8.44e-01	0	30	104	0	60	49770
2026-01-04 17:32:35.67	22.01	3.33	-50.0	-61.1	3.6	8.43e-01	0	30	104	0	60	55050
2026-01-04 17:32:39.71	21.92	3.60	-48.1	-51.9	9.9	4.52e-02	0	30	0	5242880	60	19227
2026-01-04 17:32:43.76	21.84	3.87	-43.5	-45.0	16.8	0.00e+00	0	30	0	28311552	60	8633
2026-01-04 17:32:47.80	21.75	4.15	-44.0	-45.5	16.0	0.00e+00	0	30	0	50331648	60	9214
2026-01-04 17:32:51.85	21.66	4.43	-38.9	-39.7	20.3	8.00e-06	0	30	104	54525952	56	5919
2026-01-04 17:32:55.89	21.57	4.70	-38.7	-39.5	22.1	0.00e+00	0	30	0	70254592	56	5819
2026-01-04 17:32:59.93	21.48	4.99	-38.6	-39.4	21.9	0.00e+00	0	30	0	92274688	54	6421
2026-01-04 17:33:03.98	21.38	5.27	-38.7	-39.5	22.1	0.00e+00	0	30	0	115343360	56	5823
2026-01-04 17:33:08.02	21.28	5.56	-38.6	-39.4	22.2	0.00e+00	0	30	0	138412032	56	5725
2026-01-04 17:33:12.07	21.18	5.85	-38.7	-39.5	21.8	0.00e+00	0	30	0	160432128	56	5799
2026-01-04 17:33:16.11	21.08	6.15	-38.7	-39.5	22.0	0.00e+00	0	30	0	183500800	56	5790
2026-01-04 17:33:20.15	20.98	6.45	-38.5	-39.3	22.4	0.00e+00	0	30	0	206569472	56	5654
2026-01-04 17:33:24.20	20.87	6.75	-38.3	-39.1	22.6	0.00e+00	0	30	0	228589568	54	6182
2026-01-04 17:33:28.24	20.76	7.05	-38.3	-39.0	22.7	0.00e+00	0	30	0	251658240	54	6171
2026-01-04 17:33:32.29	20.64	7.36	-37.6	-38.3	23.4	0.00e+00	0	30	0	274726912	54	5677
2026-01-04 17:33:36.33	20.53	7.67	-37.7	-38.5	23.3	0.00e+00	0	30	0	296747008	54	5779
2026-01-04 17:33:40.38	20.41	7.99	-37.8	-38.6	23.3	0.00e+00	0	30	0	319815680	54	5831
2026-01-04 17:33:44.42	20.29	8.31	-37.8	-38.6	23.3	0.00e+00	0	30	0	342884352	54	5850
2026-01-04 17:33:48.46	20.16	8.63	-37.8	-38.6	23.5	0.00e+00	0	30	0	365953024	54	5840
2026-01-04 17:33:52.51	20.04	8.96	-37.5	-38.3	23.5	0.00e+00	0	30	0	387973120	54	5642
2026-01-04 17:33:56.55	19.90	9.29	-37.0	-37.8	24.1	0.00e+00	0	30	0	411041792	52	5967
2026-01-04 17:34:00.60	19.77	9.63	-37.1	-37.8	24.0	0.00e+00	0	31	0	434110464	52	6025
2026-01-04 17:34:04.64	19.63	9.97	-36.6	-37.2	24.5	0.00e+00	0	30	0	456130560	52	5622
2026-01-04 17:34:08.69	19.49	10.32	-36.8	-37.5	24.3	0.00e+00	0	30	0	479199232	52	5802
2026-01-04 17:34:12.73	19.34	10.67	-36.7	-37.4	24.5	0.00e+00	0	30	0	502267904	52	5717
2026-01-04 17:34:16.78	19.19	11.02	-36.9	-37.6	24.2	0.00e+00	0	30	0	524288000	52	5871
2026-01-04 17:34:20.82	19.04	11.38	-36.9	-37.6	24.1	0.00e+00	0	31	0	547356672	52	5876
2026-01-04 17:34:24.86	18.88	11.75	-37.3	-38.0	24.1	0.00e+00	0	31	0	570425344	52	6128
2026-01-04 17:34:28.91	18.72	12.12	-37.0	-37.7	24.4	0.00e+00	0	31	0	593494016	52	5923
2026-01-04 17:34:32.95	18.55	12.49	-36.7	-37.4	24.5	0.00e+00	0	31	0	615514112	52	5734
2026-01-04 17:34:37.00	18.38	12.87	-37.5	-38.2	24.0	0.00e+00	0	31	0	638582784	52	6303
2026-01-04 17:34:41.04	18.21	13.26	-36.8	-37.5	24.4	0.00e+00	0	31	0	661651456	52	5775
2026-01-04 17:34:45.09	18.02	13.65	-36.8	-37.5	24.6	0.00e+00	0	31	0	683671552	52	5807
2026-01-04 17:34:49.13	17.84	14.05	-37.0	-37.7	24.4	0.00e+00	0	31	0	706740224	52	5930
2026-01-04 17:34:53.18	17.64	14.46	-36.6	-37.3	24.6	0.00e+00	0	31	0	729808896	52	5682
2026-01-04 17:34:57.22	17.44	14.87	-36.6	-37.3	24.4	0.00e+00	0	31	0	751828992	50	6320
2026-01-04 17:35:01.26	17.24	15.29	-36.1	-36.7	25.2	0.00e+00	0	30	0	774897664	50	5958
2026-01-04 17:35:05.31	17.03	15.71	-35.4	-36.1	25.8	0.00e+00	0	31	0	797966336	50	5517
2026-01-04 17:35:09.35	16.81	16.15	-35.3	-36.0	25.9	0.00e+00	0	30	0	821035008	50	5449
2026-01-04 17:35:13.40	16.59	16.59	-35.4	-36.1	25.9	0.00e+00	0	31	0	843055104	48	6179
2026-01-04 17:35:17.44	16.36	17.03	-34.9	-35.5	26.4	0.00e+00	0	31	0	866123776	48	5797
2026-01-04 17:35:21.49	16.12	17.49	-34.8	-35.4	26.4	0.00e+00	0	31	0	889192448	48	5729
2026-01-04 17:35:25.53	15.87	17.95	-34.7	-35.3	26.5	0.00e+00	0	30	0	911212544	48	5668
2026-01-04 17:35:29.57	15.61	18.43	-34.8	-35.5	26.4	0.00e+00	0	31	0	934281216	48	5771
2026-01-04 17:35:33.62	15.35	18.91	-34.8	-35.4	26.5	0.00e+00	0	30	0	957349888	48	5732
2026-01-04 17:35:37.66	15.08	19.40	-34.4	-35.1	26.8	0.00e+00	0	30	0	979369984	48	5512
2026-01-04 17:35:41.71	14.79	19.89	-34.4	-35.0	26.8	0.00e+00	0	31	0	1002438656	48	5461
2026-01-04 17:35:45.75	14.50	20.40	-34.4	-35.0	26.9	0.00e+00	0	31	0	1025507328	48	5491
2026-01-04 17:35:49.80	14.20	20.92	-34.3	-35.0	27.0	0.00e+00	0	31	0	1048576000	48	5448
2026-01-04 17:35:53.84	13.88	21.45	-34.1	-34.7	27.1	0.00e+00	0	31	0	1070596096	46	5953
2026-01-04 17:35:57.89	13.56	21.98	-33.9	-34.6	27.2	0.00e+00	0	31	0	1093664768	46	5837
2026-01-04 17:36:01.93	13.22	22.53	-34.0	-34.5	27.3	0.00e+00	0	31	0	1115684864	46	5826
2026-01-04 17:36:05.97	12.87	23.09	-33.6	-34.3	27.4	0.00e+00	0	31	0	1138753536	46	5634
2026-01-04 17:36:10.02	12.51	23.66	-33.6	-34.2	27.5	0.00e+00	0	30	0	1161822208	46	5604
2026-01-04 17:36:14.06	12.13	24.24	-33.8	-34.5	27.2	0.00e+00	0	31	0	1184890880	46	5787
2026-01-04 17:36:18.10	11.74	24.83	-33.7	-34.3	27.5	0.00e+00	0	31	0	1206910976	46	5664
2026-01-04 17:36:22.15	11.33	25.44	-33.4	-34.0	27.8	0.00e+00	0	31	0	1229979648	46	5453
2026-01-04 17:36:26.19	10.90	26.06	-33.2	-33.8	27.9	0.00e+00	0	31	0	1253048320	44	5975
2026-01-04 17:36:30.24	10.46	26.69	-33.3	-33.9	27.8	0.00e+00	0	31	0	1276116992	44	6082
2026-01-04 17:36:34.28	10.00	27.33	-33.2	-33.8	28.2	0.00e+00	0	31	0	1298137088	44	6007
2026-01-04 17:36:38.32	9.52	27.99	-32.9	-33.5	28.1	0.00e+00	0	31	0	1321205760	44	5815
2026-01-04 17:36:42.36	9.02	28.66	-32.8	-33.4	28.2	0.00e+00	0	31	0	1343225856	44	5741
2026-01-04 17:36:46.41	8.49	29.34	-33.0	-33.6	28.1	0.00e+00	0	31	0	1366294528	44	5860
2026-01-04 17:36:50.45	7.94	30.04	-32.6	-33.3	28.4	0.00e+00	0	31	0	1389363200	44	5652
2026-01-04 17:36:54.50	7.37	30.75	-32.7	-33.3	28.3	0.00e+00	0	31	0	1412431872	44	5670
2026-01-04 17:36:58.54	6.77	31.48	-32.9	-33.6	28.0	0.00e+00	0	31	0	1434451968	44	5838
2026-01-04 17:37:02.58	6.14	32.22	-32.9	-33.5	28.2	0.00e+00	0	31	0	1457520640	44	5799
2026-01-04 17:37:06.63	5.48	32.97	-32.6	-33.2	28.3	0.00e+00	0	31	0	1480589312	44	5623
2026-01-04 17:37:10.67	4.79	33.74	-33.1	-33.7	27.9	0.00e+00	0	31	0	1502609408	44	5934
2026-01-04 17:37:14.71	4.07	34.53	-32.6	-33.3	28.4	0.00e+00	0	31	0	1525678080	44	5636
2026-01-04 17:37:18.75	3.30	35.33	-32.5	-33.2	28.5	0.00e+00	0	31	0	1548746752	44	5567
2026-01-04 17:37:22.80	2.50	36.14	-32.5	-33.1	28.3	0.00e+00	0	31	0	1570766848	44	5520
2026-01-04 17:37:26.84	1.66	36.97	-32.4	-33.0	28.6	0.00e+00	0	31	0	1593835520	44	5478
2026-01-04 17:37:30.89	0.77	37.81	-32.8	-33.4	28.3	0.00e+00	0	31	0	1616904192	44	5706
2026-01-04 17:37:34.93	359.83	38.67	-33.6	-34.2	27.7	0.00e+00	0	31	0	1638924288	44	6295
2026-01-04 17:37:38.98	358.84	39.53	-32.7	-33.2	28.5	0.00e+00	0	31	0	1661992960	44	5610
2026-01-04 17:37:43.02	357.80	40.41	-32.8	-33.3	28.3	0.00e+00	0	31	0	1685061632	44	5676
2026-01-04 17:37:47.06	356.69	41.30	-32.9	-33.4	28.4	0.00e+00	0	31	0	1708130304	44	5761
2026-01-04 17:37:51.11	355.52	42.20	-32.8	-33.4	28.3	0.00e+00	0	31	0	1730150400	44	5706
2026-01-04 17:37:55.15	354.29	43.10	-33.0	-33.6	28.4	0.00e+00	0	31	0	1753219072	44	5895
2026-01-04 17:37:59.20	352.98	44.02	-33.1	-33.7	28.1	0.00e+00	0	31	0	1776287744	44	5929
2026-01-04 17:38:03.24	351.59	44.93	-33.4	-34.1	27.8	0.00e+00	0	31	0	1798307840	46	5508
2026-01-04 17:38:07.28	350.12	45.85	-33.1	-33.7	28.2	0.00e+00	0	31	0	1821376512	44	5964
2026-01-04 17:38:11.33	348.56	46.77	-32.9	-33.5	28.2	0.00e+00	0	31	0	1844445184	44	5801
2026-01-04 17:38:15.37	346.91	47.68	-33.4	-34.0	28.1	0.00e+00	0	31	0	1866465280	44	6145
2026-01-04 17:38:19.42	345.15	48.58	-34.5	-35.1	27.3	0.00e+00	0	31	0	1889533952	46	6219
2026-01-04 17:38:23.46	343.30	49.47	-33.9	-34.5	27.6	0.00e+00	0	31	0	1912602624	46	5822
2026-01-04 17:38:27.50	341.33	50.34	-34.2	-34.8	27.4	0.00e+00	0	31	0	1935671296	46	6003
2026-01-04 17:38:31.55	339.24	51.19	-36.1	-36.7	27.0	0.00e+00	0	31	0	1957691392	48	6656
2026-01-04 17:38:35.59	337.03	52.01	-34.2	-34.9	26.9	0.00e+00	0	31	0	1980760064	48	5384
2026-01-04 17:38:39.64	334.70	52.80	-34.1	-34.7	27.4	0.00e+00	0	31	0	2003828736	46	5944
2026-01-04 17:38:43.68	332.24	53.55	-34.9	-35.5	27.0	0.00e+00	0	31	0	2025848832	48	5783
2026-01-04 17:38:47.73	329.65	54.26	-34.2	-34.8	27.4	0.00e+00	0	30	0	2048917504	46	6019
2026-01-04 17:38:51.77	326.94	54.91	-34.1	-34.7	27.7	0.00e+00	0	31	0	2071986176	46	5942
2026-01-04 17:38:55.81	324.11	55.50	-34.6	-35.2	27.4	0.00e+00	0	31	0	2094006272	48	5602
2026-01-04 17:38:59.86	321.16	56.03	-34.4	-35.0	27.6	0.00e+00	0	30	0	2117074944	46	6137
2026-01-04 17:39:03.90	318.10	56.48	-34.1	-34.7	27.8	0.00e+00	0	31	0	2140143616	46	5944
2026-01-04 17:39:07.94	314.96	56.85	-34.7	-35.3	27.5	0.00e+00	0	31	0	2163212288	48	5669
2026-01-04 17:39:11.99	311.73	57.14	-34.3	-34.9	27.9	0.00e+00	0	31	0	2185232384	46	6079
2026-01-04 17:39:16.03	308.44	57.35	-35.0	-35.6	27.5	0.00e+00	0	31	0	2208301056	48	5866
2026-01-04 17:39:20.07	305.12	57.46	-34.1	-34.7	27.8	0.00e+00	0	31	0	2230321152	46	5949
2026-01-04 17:39:24.12	301.78	57.48	-34.9	-35.5	27.5	0.00e+00	0	31	0	2253389824	48	5806
2026-01-04 17:39:28.16	298.44	57.41	-34.6	-35.3	27.7	0.00e+00	0	31	0	2276458496	46	6327
2026-01-04 17:39:32.21	295.13	57.24	-34.3	-34.9	27.5	0.00e+00	0	31	0	2299527168	48	5388
2026-01-04 17:39:36.25	291.88	56.99	-34.0	-34.7	27.5	0.00e+00	0	31	0	2321547264	48	5291
2026-01-04 17:39:40.30	288.69	56.65	-34.0	-34.6	27.6	0.00e+00	0	31	0	2344615936	46	5879
2026-01-04 17:39:44.34	285.59	56.23	-34.3	-34.9	27.8	0.00e+00	0	31	0	2367684608	46	6103
2026-01-04 17:39:48.39	282.59	55.73	-35.7	-36.3	27.4	0.00e+00	0	30	0	2390753280	48	6322
2026-01-04 17:39:52.43	279.70	55.17	-35.4	-36.0	27.4	0.00e+00	0	31	0	2412773376	48	6123
2026-01-04 17:39:56.47	276.94	54.54	-33.3	-33.8	28.2	0.00e+00	0	31	0	2435842048	46	5356
2026-01-04 17:40:00.52	274.29	53.86	-33.2	-33.7	28.1	0.00e+00	0	31	0	2457862144	46	5303
2026-01-04 17:40:04.56	271.78	53.12	-33.8	-34.3	27.8	0.00e+00	0	31	0	2480930816	46	5688
2026-01-04 17:40:08.61	269.38	52.35	-34.9	-35.6	27.7	0.00e+00	0	31	0	2503999488	46	6587
2026-01-04 17:40:12.65	267.12	51.54	-33.8	-34.3	28.0	0.00e+00	0	30	0	2527068160	46	5648
2026-01-04 17:40:16.69	264.98	50.69	-34.7	-35.3	27.6	0.00e+00	0	31	0	2549088256	46	6389
2026-01-04 17:40:20.74	262.96	49.83	-35.0	-35.7	27.7	0.00e+00	0	30	0	2572156928	48	5934
2026-01-04 17:40:24.78	261.05	48.94	-33.8	-34.5	28.0	0.00e+00	0	30	0	2595225600	46	5799
2026-01-04 17:40:28.83	259.24	48.04	-33.7	-34.2	27.7	0.00e+00	0	31	0	2617245696	46	5611
2026-01-04 17:40:32.87	257.55	47.13	-34.0	-34.7	28.0	0.00e+00	0	30	0	2640314368	46	5934
2026-01-04 17:40:36.91	255.95	46.22	-33.3	-33.9	28.5	0.00e+00	0	31	0	2663383040	44	6088
2026-01-04 17:40:40.96	254.43	45.30	-32.9	-33.6	28.3	0.00e+00	0	30	0	2685403136	44	5864
2026-01-04 17:40:45.00	253.01	44.38	-32.9	-33.4	28.4	0.00e+00	0	31	0	2708471808	44	5755
2026-01-04 17:40:49.04	251.67	43.46	-32.7	-33.4	28.4	0.00e+00	0	30	0	2731540480	44	5722
2026-01-04 17:40:53.09	250.40	42.55	-33.1	-33.6	28.1	0.00e+00	0	31	0	2754609152	44	5886
2026-01-04 17:40:57.13	249.20	41.64	-32.6	-33.1	28.2	0.00e+00	0	31	0	2776629248	44	5548
2026-01-04 17:41:01.18	248.07	40.75	-32.6	-33.1	28.5	0.00e+00	0	30	0	2799697920	44	5555
2026-01-04 17:41:05.22	246.99	39.86	-32.7	-33.2	28.3	0.00e+00	0	30	0	2821718016	44	5597
2026-01-04 17:41:09.26	245.98	38.99	-32.9	-33.5	28.4	0.00e+00	0	31	0	2844786688	44	5823
2026-01-04 17:41:13.31	245.02	38.12	-32.2	-32.7	28.6	0.00e+00	0	31	0	2867855360	42	5947
2026-01-04 17:41:17.35	244.11	37.27	-32.4	-32.9	28.5	0.00e+00	0	31	0	2890924032	42	6062
2026-01-04 17:41:21.39	243.24	36.44	-32.9	-33.6	28.0	0.00e+00	0	31	0	2912944128	44	5861
2026-01-04 17:41:25.44	242.42	35.61	-32.6	-33.3	28.5	0.00e+00	0	30	0	2936012800	44	5636
2026-01-04 17:41:29.48	241.64	34.80	-32.3	-33.0	28.5	0.00e+00	0	31	0	2959081472	44	5441
2026-01-04 17:41:33.53	240.89	34.01	-32.6	-33.2	28.4	0.00e+00	0	31	0	2981101568	44	5575
2026-01-04 17:41:37.57	240.19	33.23	-32.5	-33.0	28.5	0.00e+00	0	31	0	3004170240	44	5499
2026-01-04 17:41:41.62	239.51	32.47	-32.3	-33.0	28.6	0.00e+00	0	30	0	3027238912	44	5469
2026-01-04 17:41:45.66	238.87	31.72	-32.7	-33.2	28.4	0.00e+00	0	30	0	3049259008	44	5627
2026-01-04 17:41:49.70	238.26	30.98	-33.3	-33.8	28.2	0.00e+00	0	31	0	3072327680	44	6005
2026-01-04 17:41:53.75	237.67	30.26	-32.7	-33.4	28.2	0.00e+00	0	30	0	3095396352	44	5712
2026-01-04 17:41:57.79	237.11	29.56	-33.0	-33.6	28.2	0.00e+00	0	30	0	3118465024	44	5843
2026-01-04 17:42:01.83	236.57	28.86	-33.3	-33.9	28.2	0.00e+00	0	31	0	3140485120	44	6052
2026-01-04 17:42:05.88	236.06	28.19	-33.5	-34.1	27.8	0.00e+00	0	31	0	3163553792	46	5525
2026-01-04 17:42:09.92	235.57	27.52	-33.1	-33.8	27.9	0.00e+00	0	31	0	3186622464	44	5965
2026-01-04 17:42:13.97	235.09	26.87	-33.2	-33.9	27.8	0.00e+00	0	31	0	3208642560	44	6093
2026-01-04 17:42:18.01	234.64	26.23	-32.9	-33.6	27.8	0.00e+00	0	30	0	3231711232	44	5882
2026-01-04 17:42:22.06	234.21	25.61	-33.3	-33.9	27.5	0.00e+00	0	30	0	3254779904	44	6061
2026-01-04 17:42:26.10	233.79	25.00	-32.9	-33.5	28.0	0.00e+00	0	30	0	3276800000	44	5773
2026-01-04 17:42:30.14	233.39	24.40	-33.0	-33.6	27.9	0.00e+00	0	30	0	3299868672	44	5830
2026-01-04 17:42:34.19	233.00	23.81	-33.0	-33.7	27.8	0.00e+00	0	30	0	3322937344	44	5958
2026-01-04 17:42:38.23	232.63	23.23	-33.5	-34.0	27.6	0.00e+00	0	30	0	3344957440	44	6141
2026-01-04 17:42:42.27	232.27	22.67	-33.5	-34.1	27.3	0.00e+00	0	30	0	3368026112	44	6204
2026-01-04 17:42:46.31	231.93	22.11	-33.5	-34.2	27.4	0.00e+00	0	30	0	3391094784	44	6293
2026-01-04 17:42:50.36	231.59	21.57	-33.5	-34.2	27.3	0.00e+00	0	31	0	3414163456	44	6301
2026-01-04 17:42:54.40	231.27	21.04	-33.7	-34.2	27.5	0.00e+00	0	31	0	3436183552	46	5613
2026-01-04 17:42:58.45	230.96	20.51	-33.6	-34.2	27.5	0.00e+00	0	31	0	3459252224	46	5567
2026-01-04 17:43:02.49	230.67	20.00	-33.7	-34.2	27.4	0.00e+00	0	30	0	3482320896	46	5621
2026-01-04 17:43:06.54	230.38	19.50	-33.8	-34.3	27.4	0.00e+00	0	30	0	3504340992	46	5685
2026-01-04 17:43:10.58	230.10	19.00	-33.9	-34.5	27.1	0.00e+00	0	30	0	3527409664	46	5792
2026-01-04 17:43:14.62	229.83	18.52	-34.6	-35.2	26.7	0.00e+00	0	30	0	3550478336	46	6287
2026-01-04 17:43:18.67	229.57	18.04	-34.8	-35.4	26.5	0.00e+00	0	30	0	3572498432	46	6406
2026-01-04 17:43:22.71	229.31	17.57	-34.9	-35.5	26.6	0.00e+00	0	30	0	3595567104	46	6491
2026-01-04 17:43:26.76	229.07	17.11	-34.8	-35.5	26.5	0.00e+00	0	30	0	3618635776	48	5826
2026-01-04 17:43:30.80	228.83	16.66	-35.1	-35.8	26.5	0.00e+00	0	30	0	3641704448	48	6015
2026-01-04 17:43:34.85	228.60	16.21	-35.3	-35.9	26.5	0.00e+00	0	30	0	3663724544	48	6037
2026-01-04 17:43:38.89	228.38	15.78	-35.6	-36.2	26.2	0.00e+00	0	30	0	3686793216	48	6262
2026-01-04 17:43:42.93	228.16	15.35	-35.2	-35.8	26.1	0.00e+00	0	30	0	3709861888	48	6000
2026-01-04 17:43:46.98	227.95	14.93	-35.3	-35.9	26.0	0.00e+00	0	30	0	3731881984	48	6065
2026-01-04 17:43:51.02	227.75	14.51	-35.7	-36.5	25.7	0.00e+00	0	30	0	3754950656	48	6482
2026-01-04 17:43:55.07	227.55	14.10	-35.4	-36.0	25.8	0.00e+00	0	30	0	3778019328	48	6125
2026-01-04 17:43:59.11	227.36	13.70	-35.6	-36.3	25.6	0.00e+00	0	30	0	3800039424	48	6348
2026-01-04 17:44:03.16	227.17	13.30	-36.0	-36.8	25.4	0.00e+00	0	30	0	3823108096	50	5970
2026-01-04 17:44:07.20	226.99	12.91	-36.4	-37.1	25.0	0.00e+00	0	30	0	3846176768	50	6240
2026-01-04 17:44:11.24	226.82	12.53	-36.7	-37.3	24.8	0.00e+00	0	30	0	3869245440	50	6389
2026-01-04 17:44:15.29	226.64	12.15	-36.7	-37.3	24.6	0.00e+00	0	30	0	3891265536	50	6352
2026-01-04 17:44:19.33	226.48	11.77	-37.2	-37.9	24.0	0.00e+00	0	30	0	3914334208	52	6048
2026-01-04 17:44:23.38	226.31	11.41	-37.5	-38.3	23.9	0.00e+00	0	30	0	3936354304	54	5680
2026-01-04 17:44:27.42	226.16	11.04	-38.0	-38.7	23.3	0.00e+00	0	30	0	3959422976	54	5920
2026-01-04 17:44:31.47	226.00	10.69	-37.8	-38.4	23.7	0.00e+00	0	30	0	3982491648	54	5746
2026-01-04 17:44:35.51	225.85	10.33	-37.8	-38.6	23.9	0.00e+00	0	30	0	4005560320	54	5862
2026-01-04 17:44:39.55	225.71	9.98	-38.1	-38.8	23.5	0.00e+00	0	30	0	4027580416	54	6007
2026-01-04 17:44:43.60	225.56	9.64	-37.9	-38.6	23.4	0.00e+00	0	30	0	4050649088	54	5849
2026-01-04 17:44:47.64	225.42	9.30	-38.2	-38.9	23.2	0.00e+00	0	30	0	4073717760	54	6088
2026-01-04 17:44:51.68	225.29	8.97	-38.1	-38.8	23.4	0.00e+00	0	30	0	4095737856	54	6003
2026-01-04 17:44:55.73	225.16	8.64	-38.2	-38.9	23.0	0.00e+00	0	30	0	4118806528	54	6087
2026-01-04 17:44:59.77	225.03	8.31	-38.5	-39.3	22.7	0.00e+00	0	30	0	4141875200	56	5672
2026-01-04 17:45:03.82	224.90	7.99	-38.7	-39.4	22.6	0.00e+00	0	30	0	4163895296	56	5753
2026-01-04 17:45:07.86	224.78	7.67	-39.1	-39.8	22.0	0.00e+00	0	30	0	4186963968	56	5997
2026-01-04 17:45:11.91	224.66	7.36	-39.2	-40.0	21.6	0.00e+00	0	30	0	4210032640	56	6106
2026-01-04 17:45:15.95	224.54	7.05	-39.7	-40.6	21.7	0.00e+00	0	30	0	4233101312	58	5867
2026-01-04 17:45:19.99	224.43	6.74	-39.5	-40.5	21.5	0.00e+00	0	30	0	4255121408	58	5770
2026-01-04 17:45:24.04	224.32	6.44	-39.6	-40.4	20.7	0.00e+00	0	30	0	4278190080	58	5740
2026-01-04 17:45:28.08	224.21	6.14	-39.9	-40.9	20.4	0.00e+00	0	30	0	4301258752	58	6051
2026-01-04 17:45:32.13	224.10	5.84	-40.6	-41.6	19.6	0.00e+00	0	30	0	4323278848	58	6603
2026-01-04 17:45:36.17	223.99	5.55	-40.1	-41.1	20.0	0.00e+00	0	30	0	4346347520	58	6183
2026-01-04 17:45:40.22	223.89	5.25	-40.5	-41.4	19.6	0.00e+00	0	30	0	4369416192	58	6433
2026-01-04 17:45:44.26	223.79	4.97	-40.6	-41.6	19.3	0.00e+00	0	30	0	4391436288	58	6546
2026-01-04 17:45:48.30	223.69	4.68	-40.6	-41.7	19.6	0.00e+00	0	30	0	4414504960	58	6690
2026-01-04 17:45:52.34	223.60	4.40	-40.7	-41.8	19.2	0.00e+00	0	30	0	4437573632	58	6760
2026-01-04 17:45:56.39	223.51	4.12	-40.6	-41.7	18.7	0.00e+00	0	30	0	4460642304	60	5916
2026-01-04 17:46:00.43	223.41	3.85	-41.3	-42.4	18.2	0.00e+00	0	30	0	4482662400	60	6435
2026-01-04 17:46:04.48	223.32	3.57	-41.1	-42.3	17.7	0.00e+00	0	30	0	4505731072	60	6320
2026-01-04 17:46:08.52	223.24	3.30	-41.8	-43.1	16.9	0.00e+00	0	30	0	4528799744	60	6993
2026-01-04 17:46:12.56	223.15	3.04	-42.9	-44.5	15.4	0.00e+00	0	30	0	4550819840	60	8192
2026-01-04 17:46:16.61	223.07	2.77	-41.3	-42.7	16.9	0.00e+00	0	30	0	4573888512	60	6639
2026-01-04 17:46:20.65	222.98	2.51	-51.2	-63.6	3.6	8.46e-01	0	30	104	4584374272	60	73701
2026-01-04 17:46:24.70	222.90	2.25	-51.7	-64.1	3.6	8.45e-01	0	30	104	4584374272	60	77912
2026-01-04 17:46:28.74	222.82	1.99	-51.5	-64.1	3.6	8.45e-01	0	30	104	4584374272	60	77821
2026-01-04 17:46:32.78	222.75	1.73	-51.7	-64.1	3.6	8.45e-01	0	30	104	4584374272	60	78498
2026-01-04 17:46:36.83	222.67	1.48	-52.2	-64.5	3.6	8.46e-01	0	30	104	4584374272	60	82283
2026-01-04 17:46:40.87	222.59	1.23	-52.1	-64.5	3.6	8.46e-01	0	30	104	4584374272	60	81583
2026-01-04 17:46:44.91	222.52	0.98	-52.3	-64.7	3.6	8.46e-01	0	30	104	4584374272	60	83680
2026-01-04 17:46:48.96	222.45	0.73	-51.9	-64.3	3.6	8.46e-01	0	30	104	4584374272	60	79568
2026-01-04 17:46:53.00	222.38	0.48	-52.9	-65.3	3.6	8.46e-01	0	30	104	4584374272	60	90095
2026-01-04 17:46:57.05	222.31	0.24	-52.3	-64.6	3.6	8.46e-01	0	30	104	4584374272	60	83256
2026-01-04 17:47:01.09	222.24	-0.00	-52.3	-64.7	3.6	8.45e-01	0	30	104	4584374272	60	83889

#Closed at: 2026-01-04 17:47:03
#Recorded file [4584 MB]: D:/lorett/data/35034_260104_203143.dat