passes_logs/2026/01/04/R4.6S_Anadyr_2ch/R4.6S_Anadyr_2ch__20260104_232631_NOAA_20_JPSS-1_rec.log

#Pass ID: 20260104_232631_NOAA 20 (JPSS-1)
#Satellite: NOAA 20 (JPSS-1)
#Configuration: NOAA 20
#almurnet v.1.7.20251203
#Start time: 2026-01-04 23:26:34

#Version: 2.2.20231116
#Station: R4.6S_Anadyr_2ch
#Location: 177.4865 lon 64.73178 lat
#TLE: 1 43013U 17073A   25350.93759711  .00000080  00000+0  58734-4 0  9994
#TLE: 2 43013  98.7603 287.1885 0002156  81.1496 278.9924 14.19526878418610

#Time	Az	El	Level	Level2	SNR	BER	BlckErr	Temp	State	Recorded	gain1	gain2
2026-01-04 23:26:34.10	137.18	0.16	-51.5	-66.6	3.5	1.51e+00	0	27	0	0	60	104069
2026-01-04 23:26:38.14	137.11	0.40	-51.5	-66.9	3.6	1.51e+00	0	29	104	0	60	108158
2026-01-04 23:26:42.19	137.03	0.65	-51.3	-66.7	3.6	1.51e+00	0	29	104	0	60	106012
2026-01-04 23:26:46.23	136.96	0.89	-51.0	-66.4	3.6	1.51e+00	0	29	104	0	60	102056
2026-01-04 23:26:50.27	136.88	1.14	-49.9	-65.3	3.6	1.51e+00	0	29	104	0	60	89410
2026-01-04 23:26:54.31	136.80	1.39	-49.7	-65.1	3.6	1.51e+00	0	29	104	0	60	87580
2026-01-04 23:26:58.35	136.72	1.65	-49.7	-65.1	3.6	1.51e+00	0	29	104	0	60	88028
2026-01-04 23:27:02.40	136.63	1.90	-49.8	-64.8	3.6	1.51e+00	0	29	104	0	60	84507
2026-01-04 23:27:06.44	136.55	2.16	-49.7	-64.9	3.6	1.51e+00	0	29	104	0	60	85389
2026-01-04 23:27:10.48	136.46	2.42	-49.7	-65.0	3.6	1.51e+00	0	29	104	0	60	86685
2026-01-04 23:27:14.53	136.38	2.68	-49.7	-64.3	3.6	1.51e+00	0	29	104	0	60	79663
2026-01-04 23:27:18.57	136.29	2.94	-49.6	-63.8	3.6	1.51e+00	0	29	104	0	60	75468
2026-01-04 23:27:22.62	136.19	3.21	-49.4	-59.9	4.1	1.51e+00	0	29	104	0	60	48202
2026-01-04 23:27:26.66	136.10	3.48	-47.0	-50.5	13.7	2.89e-05	92	29	0	5242880	60	16340
2026-01-04 23:27:30.70	136.01	3.75	-45.5	-47.9	15.8	0.00e+00	92	29	0	12582912	60	12167
2026-01-04 23:27:34.75	135.91	4.03	-49.0	-56.2	4.7	1.50e+00	0	29	104	13631488	60	31564
2026-01-04 23:27:38.79	135.81	4.30	-44.1	-45.9	18.3	0.00e+00	92	29	0	18874368	60	9654
2026-01-04 23:27:42.83	135.71	4.58	-42.4	-43.8	20.4	0.00e+00	6	29	0	26214400	60	7523
2026-01-04 23:27:46.88	135.60	4.87	-42.4	-43.7	21.1	0.00e+00	92	29	0	33554432	60	7426
2026-01-04 23:27:50.92	135.50	5.15	-43.0	-44.4	20.1	0.00e+00	92	29	0	41943040	60	8082
2026-01-04 23:27:54.96	135.39	5.44	-42.1	-43.3	21.1	0.00e+00	92	29	0	49283072	60	7150
2026-01-04 23:27:59.01	135.28	5.73	-42.1	-43.4	21.3	0.00e+00	0	29	0	56623104	60	7191
2026-01-04 23:28:03.05	135.16	6.03	-41.6	-42.7	21.9	0.00e+00	90	29	0	63963136	60	6649
2026-01-04 23:28:07.10	135.05	6.33	-41.5	-42.7	22.0	0.00e+00	92	29	0	72351744	60	6619
2026-01-04 23:28:11.14	134.93	6.63	-41.6	-42.7	21.9	0.00e+00	92	29	0	79691776	60	6656
2026-01-04 23:28:15.19	134.81	6.93	-41.1	-42.2	22.3	0.00e+00	0	29	0	87031808	60	6256
2026-01-04 23:28:19.23	134.68	7.24	-41.0	-42.1	22.4	0.00e+00	92	29	0	94371840	60	6193
2026-01-04 23:28:23.27	134.56	7.55	-41.4	-42.5	22.1	0.00e+00	92	29	0	101711872	60	6536
2026-01-04 23:28:27.32	134.43	7.87	-41.2	-42.3	22.3	0.00e+00	0	29	0	110100480	60	6367
2026-01-04 23:28:31.36	134.29	8.19	-41.0	-42.1	22.5	0.00e+00	12	29	0	117440512	60	6222
2026-01-04 23:28:35.41	134.16	8.51	-41.0	-42.0	22.5	0.00e+00	92	29	0	124780544	60	6156
2026-01-04 23:28:39.45	134.02	8.84	-40.8	-41.8	22.8	0.00e+00	92	29	0	132120576	60	5989
2026-01-04 23:28:43.49	133.87	9.17	-40.9	-42.0	22.7	0.00e+00	0	30	0	140509184	60	6122
2026-01-04 23:28:47.54	133.73	9.51	-40.9	-42.0	22.6	0.00e+00	92	29	0	147849216	60	6120
2026-01-04 23:28:51.58	133.58	9.85	-40.9	-41.9	22.9	0.00e+00	92	30	0	155189248	60	6067
2026-01-04 23:28:55.62	133.42	10.19	-40.7	-41.6	23.2	0.00e+00	90	29	0	162529280	60	5891
2026-01-04 23:28:59.67	133.26	10.54	-40.6	-41.6	23.3	0.00e+00	11	29	0	170917888	60	5850
2026-01-04 23:29:03.71	133.10	10.90	-40.4	-41.3	23.6	0.00e+00	92	30	0	178257920	60	5654
2026-01-04 23:29:07.75	132.93	11.26	-40.5	-41.4	23.5	0.00e+00	92	30	0	185597952	60	5734
2026-01-04 23:29:11.80	132.76	11.62	-40.4	-41.3	23.6	0.00e+00	92	29	0	192937984	60	5660
2026-01-04 23:29:15.84	132.58	11.99	-40.6	-41.5	23.6	0.00e+00	0	29	0	200278016	60	5808
2026-01-04 23:29:19.88	132.40	12.37	-40.3	-41.3	23.7	0.00e+00	90	30	0	208666624	60	5634
2026-01-04 23:29:23.93	132.22	12.75	-40.3	-41.2	23.7	0.00e+00	92	30	0	216006656	60	5608
2026-01-04 23:29:27.97	132.03	13.13	-40.4	-41.3	23.7	0.00e+00	92	30	0	223346688	60	5656
2026-01-04 23:29:32.02	131.83	13.53	-40.2	-41.1	23.8	0.00e+00	86	30	0	230686720	58	6231
2026-01-04 23:29:36.06	131.63	13.93	-40.6	-41.5	23.4	0.00e+00	92	30	0	239075328	58	6532
2026-01-04 23:29:40.10	131.42	14.33	-40.1	-41.1	23.8	0.00e+00	92	30	0	246415360	58	6185
2026-01-04 23:29:44.15	131.20	14.74	-40.2	-41.1	23.7	0.00e+00	90	30	0	253755392	58	6187
2026-01-04 23:29:48.19	130.98	15.16	-40.3	-41.2	23.8	0.00e+00	3	30	0	261095424	58	6264
2026-01-04 23:29:52.23	130.76	15.58	-40.1	-40.9	24.0	0.00e+00	92	30	0	269484032	58	6102
2026-01-04 23:29:56.28	130.52	16.01	-40.0	-40.9	24.0	0.00e+00	90	30	0	276824064	58	6063
2026-01-04 23:30:00.32	130.28	16.45	-39.9	-40.8	24.1	0.00e+00	92	30	0	284164096	58	5987
2026-01-04 23:30:04.37	130.03	16.90	-39.9	-40.8	24.0	0.00e+00	92	30	0	291504128	58	6007
2026-01-04 23:30:08.41	129.78	17.35	-40.3	-41.3	23.9	0.00e+00	90	30	0	298844160	58	6323
2026-01-04 23:30:12.46	129.51	17.82	-39.9	-40.8	24.1	0.00e+00	92	30	0	307232768	58	6019
2026-01-04 23:30:16.50	129.24	18.29	-40.0	-40.9	24.0	0.00e+00	6	30	0	314572800	58	6068
2026-01-04 23:30:20.55	128.95	18.77	-39.9	-40.8	24.1	0.00e+00	91	30	0	321912832	58	6021
2026-01-04 23:30:24.59	128.66	19.25	-40.2	-41.1	23.9	0.00e+00	92	30	0	329252864	58	6230
2026-01-04 23:30:28.63	128.36	19.75	-40.0	-40.9	23.9	0.00e+00	92	30	0	337641472	58	6083
2026-01-04 23:30:32.68	128.04	20.25	-40.0	-40.9	24.0	0.00e+00	6	30	0	344981504	58	6074
2026-01-04 23:30:36.72	127.72	20.77	-40.3	-41.2	23.7	0.00e+00	92	30	0	352321536	58	6268
2026-01-04 23:30:40.76	127.39	21.29	-40.3	-41.3	23.8	0.00e+00	92	30	0	359661568	60	5637
2026-01-04 23:30:44.81	127.04	21.83	-40.7	-41.7	23.5	0.00e+00	92	30	0	368050176	60	5925
2026-01-04 23:30:48.85	126.68	22.37	-40.9	-41.9	23.0	0.00e+00	0	30	0	375390208	60	6080
2026-01-04 23:30:52.90	126.30	22.93	-41.4	-42.4	22.9	0.00e+00	92	30	0	382730240	60	6451
2026-01-04 23:30:56.94	125.92	23.49	-41.5	-42.5	22.9	0.00e+00	91	30	0	390070272	60	6467
2026-01-04 23:31:00.98	125.52	24.07	-41.9	-43.0	22.4	0.00e+00	92	30	0	397410304	60	6856
2026-01-04 23:31:05.03	125.10	24.66	-41.7	-42.8	22.6	0.00e+00	75	30	0	405798912	60	6724
2026-01-04 23:31:09.07	124.66	25.25	-42.1	-43.2	22.2	0.00e+00	91	30	0	413138944	60	7010
2026-01-04 23:31:13.12	124.21	25.87	-42.1	-43.2	22.1	0.00e+00	92	30	0	420478976	60	7049
2026-01-04 23:31:17.16	123.74	26.49	-42.1	-43.2	22.3	0.00e+00	78	30	0	427819008	60	7012
2026-01-04 23:31:21.21	123.25	27.13	-42.5	-43.6	21.8	0.00e+00	92	30	0	436207616	60	7370
2026-01-04 23:31:25.25	122.74	27.78	-42.7	-43.8	21.6	0.00e+00	92	30	0	443547648	60	7555
2026-01-04 23:31:29.29	122.21	28.44	-42.9	-44.1	21.3	0.00e+00	92	30	0	450887680	60	7827
2026-01-04 23:31:33.34	121.65	29.11	-42.8	-43.9	21.5	0.00e+00	3	30	0	458227712	60	7667
2026-01-04 23:31:37.38	121.08	29.80	-42.1	-43.2	22.2	0.00e+00	92	30	0	466616320	60	7066
2026-01-04 23:31:41.42	120.47	30.50	-41.9	-42.9	22.5	0.00e+00	92	30	0	473956352	60	6806
2026-01-04 23:31:45.47	119.84	31.22	-42.1	-43.1	22.2	0.00e+00	91	30	0	481296384	60	7007
2026-01-04 23:31:49.51	119.17	31.94	-42.5	-43.6	21.9	0.00e+00	0	30	0	488636416	60	7379
2026-01-04 23:31:53.56	118.48	32.69	-43.1	-44.2	21.3	0.00e+00	92	30	0	495976448	60	7948
2026-01-04 23:31:57.60	117.75	33.44	-43.1	-44.3	21.2	0.00e+00	92	30	0	504365056	60	8004
2026-01-04 23:32:01.64	116.99	34.21	-43.9	-45.3	20.3	0.00e+00	90	30	0	511705088	60	8984
2026-01-04 23:32:05.69	116.19	34.99	-44.3	-45.7	19.9	0.00e+00	0	30	0	519045120	60	9436
2026-01-04 23:32:09.73	115.35	35.79	-44.3	-45.7	20.0	0.00e+00	92	30	0	526385152	60	9410
2026-01-04 23:32:13.78	114.47	36.60	-43.6	-44.9	20.9	0.00e+00	90	30	0	534773760	60	8571
2026-01-04 23:32:17.82	113.54	37.42	-43.3	-44.5	21.1	0.00e+00	80	30	0	542113792	60	8232
2026-01-04 23:32:21.87	112.56	38.25	-42.9	-44.1	21.4	0.00e+00	83	30	0	549453824	60	7799
2026-01-04 23:32:25.91	111.53	39.09	-43.3	-44.5	21.1	0.00e+00	90	30	0	556793856	60	8173
2026-01-04 23:32:29.95	110.45	39.94	-44.2	-45.7	19.9	0.00e+00	90	30	0	565182464	60	9387
2026-01-04 23:32:34.00	109.31	40.80	-43.8	-45.2	20.5	0.00e+00	0	30	0	572522496	60	8854
2026-01-04 23:32:38.04	108.10	41.67	-43.0	-44.2	21.4	0.00e+00	91	30	0	579862528	60	7927
2026-01-04 23:32:42.09	106.82	42.54	-42.6	-43.8	21.7	0.00e+00	91	30	0	587202560	60	7539
2026-01-04 23:32:46.13	105.48	43.41	-42.9	-44.1	21.5	0.00e+00	92	30	0	595591168	60	7845
2026-01-04 23:32:50.17	104.06	44.29	-43.7	-45.1	20.5	0.00e+00	2	30	0	602931200	60	8757
2026-01-04 23:32:54.22	102.55	45.17	-43.4	-44.7	20.9	0.00e+00	92	30	0	610271232	60	8351
2026-01-04 23:32:58.26	100.97	46.04	-43.2	-44.4	21.1	0.00e+00	90	30	0	617611264	60	8087
2026-01-04 23:33:02.31	99.29	46.90	-43.6	-44.9	20.8	0.00e+00	60	30	0	624951296	60	8591
2026-01-04 23:33:06.35	97.52	47.75	-42.9	-44.1	21.5	0.00e+00	0	30	0	633339904	60	7834
2026-01-04 23:33:10.40	95.64	48.59	-42.7	-43.9	21.7	0.00e+00	92	30	0	640679936	60	7628
2026-01-04 23:33:14.44	93.66	49.41	-41.6	-42.6	22.8	0.00e+00	92	30	0	648019968	60	6604
2026-01-04 23:33:18.49	91.58	50.20	-40.4	-41.3	24.0	0.00e+00	7	30	0	655360000	60	5641
2026-01-04 23:33:22.53	89.38	50.96	-40.0	-40.9	24.2	0.00e+00	19	30	0	663748608	58	6055
2026-01-04 23:33:26.57	87.08	51.69	-40.6	-41.5	23.9	0.00e+00	92	30	0	671088640	58	6469
2026-01-04 23:33:30.62	84.66	52.38	-40.4	-41.2	24.0	0.00e+00	92	30	0	678428672	58	6302
2026-01-04 23:33:34.66	82.13	53.02	-40.9	-41.8	23.4	0.00e+00	90	30	0	685768704	58	6758
2026-01-04 23:33:38.70	79.49	53.61	-40.1	-41.0	24.1	0.00e+00	75	30	0	693108736	58	6156
2026-01-04 23:33:42.75	76.74	54.14	-39.5	-40.3	24.7	0.00e+00	92	30	0	701497344	58	5657
2026-01-04 23:33:46.79	73.90	54.61	-39.3	-40.2	24.9	0.00e+00	1	30	0	708837376	56	6251
2026-01-04 23:33:50.84	70.97	55.01	-39.0	-39.8	25.2	0.00e+00	75	30	0	716177408	56	6019
2026-01-04 23:33:54.88	67.97	55.33	-38.7	-39.5	25.7	0.00e+00	92	30	0	723517440	56	5763
2026-01-04 23:33:58.92	64.91	55.58	-38.5	-39.3	25.4	0.00e+00	92	30	0	731906048	54	6360
2026-01-04 23:34:02.97	61.79	55.74	-38.2	-38.9	25.8	0.00e+00	0	30	0	739246080	54	6103
2026-01-04 23:34:07.01	58.66	55.82	-38.7	-39.5	25.3	0.00e+00	6	30	0	746586112	54	6487
2026-01-04 23:34:11.05	55.51	55.82	-38.6	-39.3	25.6	0.00e+00	92	30	0	753926144	56	5676
2026-01-04 23:34:15.10	52.37	55.73	-38.7	-39.5	25.3	0.00e+00	92	30	0	762314752	56	5798
2026-01-04 23:34:19.14	49.27	55.56	-37.3	-38.0	26.7	0.00e+00	0	30	0	769654784	54	5460
2026-01-04 23:34:23.19	46.21	55.30	-37.1	-37.8	26.8	0.00e+00	0	30	0	776994816	52	6011
2026-01-04 23:34:27.23	43.22	54.97	-37.2	-37.9	26.6	0.00e+00	92	30	0	784334848	52	6099
2026-01-04 23:34:31.27	40.30	54.57	-38.1	-38.9	26.1	0.00e+00	91	30	0	792723456	54	6046
2026-01-04 23:34:35.32	37.47	54.10	-39.2	-40.0	25.0	0.00e+00	0	30	0	800063488	56	6162
2026-01-04 23:34:39.36	34.74	53.56	-39.8	-40.7	24.8	0.00e+00	6	30	0	807403520	58	5900
2026-01-04 23:34:43.41	32.11	52.97	-39.2	-40.0	25.0	0.00e+00	92	30	0	814743552	56	6133
2026-01-04 23:34:47.45	29.59	52.32	-39.2	-40.0	25.2	0.00e+00	51	30	0	822083584	56	6105
2026-01-04 23:34:51.49	27.19	51.63	-40.0	-40.9	23.0	0.00e+00	0	30	0	830472192	56	6811
2026-01-04 23:34:55.53	24.90	50.90	-41.5	-42.5	23.0	0.00e+00	90	30	0	837812224	60	6522
2026-01-04 23:34:59.58	22.72	50.14	-41.9	-42.9	22.5	0.00e+00	90	30	0	845152256	60	6847
2026-01-04 23:35:03.62	20.65	49.34	-43.4	-44.7	20.9	0.00e+00	0	30	0	852492288	60	8383
2026-01-04 23:35:07.67	18.68	48.53	-44.2	-45.7	20.1	0.00e+00	6	30	0	860880896	60	9352
2026-01-04 23:35:11.71	16.83	47.69	-44.3	-45.8	19.8	0.00e+00	92	30	0	868220928	60	9472
2026-01-04 23:35:15.76	15.06	46.84	-43.6	-44.8	21.1	0.00e+00	91	30	0	875560960	60	8495
2026-01-04 23:35:19.80	13.40	45.98	-43.3	-44.5	21.3	0.00e+00	6	30	0	882900992	60	8169
2026-01-04 23:35:23.85	11.82	45.11	-43.0	-44.1	21.7	0.00e+00	76	30	0	891289600	60	7853
2026-01-04 23:35:27.89	10.33	44.24	-42.5	-43.6	21.9	0.00e+00	90	30	0	898629632	60	7396
2026-01-04 23:35:31.94	8.91	43.37	-42.8	-43.9	21.7	0.00e+00	61	30	0	905969664	60	7646
2026-01-04 23:35:35.98	7.58	42.49	-42.6	-43.8	21.8	0.00e+00	78	30	0	913309696	60	7527
2026-01-04 23:35:40.02	6.32	41.63	-43.3	-44.5	21.1	0.00e+00	0	30	0	920649728	60	8183
2026-01-04 23:35:44.07	5.12	40.76	-43.1	-44.3	21.3	0.00e+00	92	30	0	929038336	60	7977
2026-01-04 23:35:48.11	3.98	39.91	-43.0	-44.2	21.3	0.00e+00	26	30	0	936378368	60	7873
2026-01-04 23:35:52.15	2.91	39.06	-42.6	-43.7	21.8	0.00e+00	2	30	0	943718400	60	7495
2026-01-04 23:35:56.20	1.88	38.22	-43.3	-44.5	20.9	0.00e+00	0	30	0	951058432	60	8223
2026-01-04 23:36:00.24	0.92	37.40	-42.8	-44.0	21.5	0.00e+00	90	30	0	959447040	60	7703
2026-01-04 23:36:04.28	359.99	36.58	-42.7	-43.8	21.6	0.00e+00	0	30	0	966787072	60	7573
2026-01-04 23:36:08.33	359.12	35.78	-43.1	-44.4	21.0	0.00e+00	0	30	0	974127104	60	8082
2026-01-04 23:36:12.37	358.28	34.99	-44.2	-45.6	20.1	0.00e+00	92	30	0	981467136	60	9270
2026-01-04 23:36:16.42	357.49	34.21	-42.9	-44.1	21.4	0.00e+00	0	30	0	989855744	60	7862
2026-01-04 23:36:20.46	356.73	33.44	-43.4	-44.7	20.9	0.00e+00	78	30	0	997195776	60	8424
2026-01-04 23:36:24.50	356.01	32.69	-43.9	-45.3	20.4	0.00e+00	0	30	0	1004535808	60	8995
2026-01-04 23:36:28.55	355.32	31.95	-43.7	-45.0	20.7	0.00e+00	91	30	0	1011875840	60	8684
2026-01-04 23:36:32.59	354.67	31.23	-43.1	-44.4	21.1	0.00e+00	82	30	0	1019215872	60	8057
2026-01-04 23:36:36.64	354.04	30.52	-42.7	-43.9	21.6	0.00e+00	0	30	0	1027604480	60	7615
2026-01-04 23:36:40.68	353.44	29.82	-43.0	-44.2	21.3	0.00e+00	0	30	0	1034944512	60	7929
2026-01-04 23:36:44.73	352.86	29.14	-43.1	-44.4	21.1	0.00e+00	92	30	0	1042284544	60	8108
2026-01-04 23:36:48.77	352.31	28.47	-42.9	-44.1	21.4	0.00e+00	77	30	0	1049624576	60	7801
2026-01-04 23:36:52.82	351.78	27.81	-42.7	-43.9	21.4	0.00e+00	0	30	0	1058013184	60	7679
2026-01-04 23:36:56.86	351.28	27.16	-42.4	-43.5	22.1	0.00e+00	81	30	0	1065353216	60	7316
2026-01-04 23:37:00.90	350.79	26.53	-41.9	-43.0	22.3	0.00e+00	90	30	0	1072693248	60	6890
2026-01-04 23:37:04.95	350.32	25.91	-41.8	-42.9	22.5	0.00e+00	2	30	0	1080033280	60	6793
2026-01-04 23:37:08.99	349.88	25.30	-41.8	-42.8	22.5	0.00e+00	79	29	0	1088421888	60	6728
2026-01-04 23:37:13.03	349.45	24.70	-41.6	-42.7	22.6	0.00e+00	73	30	0	1095761920	60	6620
2026-01-04 23:37:17.07	349.03	24.12	-42.0	-43.1	21.9	0.00e+00	0	29	0	1103101952	60	6968
2026-01-04 23:37:21.12	348.63	23.55	-42.1	-43.2	22.1	0.00e+00	2	30	0	1110441984	60	7081
2026-01-04 23:37:25.16	348.25	22.98	-42.0	-43.1	22.1	0.00e+00	0	30	0	1117782016	60	6970
2026-01-04 23:37:29.21	347.88	22.43	-41.7	-42.8	22.5	0.00e+00	92	30	0	1126170624	60	6711
2026-01-04 23:37:33.25	347.52	21.89	-41.5	-42.6	22.8	0.00e+00	81	29	0	1133510656	60	6551
2026-01-04 23:37:37.29	347.18	21.36	-41.3	-42.3	22.9	0.00e+00	0	30	0	1140850688	60	6323
2026-01-04 23:37:41.34	346.85	20.84	-41.5	-42.5	22.7	0.00e+00	0	30	0	1148190720	60	6508
2026-01-04 23:37:45.38	346.53	20.32	-41.8	-42.9	22.6	0.00e+00	92	30	0	1156579328	60	6779
2026-01-04 23:37:49.43	346.22	19.82	-41.4	-42.4	22.8	0.00e+00	81	30	0	1163919360	60	6443
2026-01-04 23:37:53.47	345.92	19.33	-41.3	-42.4	22.7	0.00e+00	5	29	0	1171259392	60	6399
2026-01-04 23:37:57.51	345.63	18.84	-41.2	-42.1	22.8	0.00e+00	6	30	0	1178599424	60	6241
2026-01-04 23:38:01.56	345.35	18.37	-41.2	-42.2	22.8	0.00e+00	92	30	0	1185939456	60	6311
2026-01-04 23:38:05.60	345.08	17.90	-42.0	-43.0	22.2	0.00e+00	85	29	0	1194328064	60	6926
2026-01-04 23:38:09.65	344.81	17.44	-41.2	-42.2	22.7	0.00e+00	0	30	0	1201668096	60	6281
2026-01-04 23:38:13.69	344.56	16.99	-41.3	-42.4	22.7	0.00e+00	0	29	0	1209008128	60	6403
2026-01-04 23:38:17.74	344.31	16.54	-41.4	-42.5	22.6	0.00e+00	92	29	0	1216348160	60	6473
2026-01-04 23:38:21.78	344.08	16.10	-41.6	-42.7	22.4	0.00e+00	81	29	0	1224736768	60	6637
2026-01-04 23:38:25.82	343.85	15.68	-41.8	-42.8	22.2	0.00e+00	82	29	0	1232076800	60	6765
2026-01-04 23:38:29.87	343.62	15.25	-41.7	-42.8	22.2	0.00e+00	72	29	0	1239416832	60	6751
2026-01-04 23:38:33.91	343.40	14.84	-41.7	-42.8	22.2	0.00e+00	92	30	0	1246756864	60	6737
2026-01-04 23:38:37.96	343.19	14.43	-42.0	-43.1	21.9	0.00e+00	0	30	0	1255145472	60	7005
2026-01-04 23:38:42.00	342.99	14.02	-42.1	-43.3	21.8	0.00e+00	81	29	0	1262485504	60	7137
2026-01-04 23:38:46.04	342.79	13.63	-42.0	-43.1	21.9	0.00e+00	90	29	0	1269825536	60	7005
2026-01-04 23:38:50.08	342.59	13.24	-42.2	-43.3	21.7	0.00e+00	0	29	0	1277165568	60	7150
2026-01-04 23:38:54.13	342.41	12.85	-41.8	-43.0	22.0	0.00e+00	0	30	0	1285554176	60	6866
2026-01-04 23:38:58.17	342.22	12.47	-42.0	-43.1	22.0	0.00e+00	0	30	0	1292894208	60	6983
2026-01-04 23:39:02.22	342.04	12.10	-42.1	-43.3	21.8	0.00e+00	92	30	0	1300234240	60	7089
2026-01-04 23:39:06.26	341.87	11.73	-42.4	-43.5	21.6	0.00e+00	0	29	0	1307574272	60	7326
2026-01-04 23:39:10.30	341.70	11.37	-42.7	-43.9	21.1	0.00e+00	0	30	0	1314914304	60	7631
2026-01-04 23:39:14.35	341.54	11.01	-43.1	-44.4	20.5	0.00e+00	0	30	0	1323302912	60	8078
2026-01-04 23:39:18.39	341.38	10.65	-43.2	-44.5	20.5	0.00e+00	91	30	0	1330642944	60	8175
2026-01-04 23:39:22.44	341.22	10.31	-43.3	-44.7	20.4	0.00e+00	0	29	0	1337982976	60	8357
2026-01-04 23:39:26.48	341.07	9.96	-43.6	-45.0	20.0	0.00e+00	0	30	0	1345323008	60	8649
2026-01-04 23:39:30.53	340.93	9.62	-43.9	-45.4	19.8	0.00e+00	0	29	0	1353711616	60	9029
2026-01-04 23:39:34.57	340.78	9.29	-43.8	-45.3	19.7	0.00e+00	92	29	0	1361051648	60	8930
2026-01-04 23:39:38.61	340.64	8.96	-43.7	-45.2	19.8	0.00e+00	0	29	0	1368391680	60	8848
2026-01-04 23:39:42.65	340.50	8.63	-43.6	-45.1	19.8	0.00e+00	6	29	0	1375731712	60	8726
2026-01-04 23:39:46.69	340.37	8.31	-43.9	-45.4	19.5	0.00e+00	92	29	0	1384120320	60	9063
2026-01-04 23:39:50.73	340.24	7.99	-43.9	-45.4	19.5	0.00e+00	6	29	0	1391460352	60	9065
2026-01-04 23:39:54.78	340.11	7.67	-43.8	-45.3	19.6	0.00e+00	0	29	0	1398800384	60	8980
2026-01-04 23:39:58.82	339.99	7.36	-43.8	-45.4	19.7	0.00e+00	82	29	0	1406140416	60	9043
2026-01-04 23:40:02.86	339.87	7.06	-43.7	-45.2	19.4	0.00e+00	92	30	0	1413480448	60	8889
2026-01-04 23:40:06.91	339.75	6.75	-43.9	-45.5	19.2	0.00e+00	10	29	0	1421869056	60	9181
2026-01-04 23:40:10.95	339.64	6.45	-43.7	-45.2	19.4	0.00e+00	0	30	0	1429209088	60	8920
2026-01-04 23:40:15.00	339.52	6.15	-43.8	-45.4	19.1	0.00e+00	0	29	0	1436549120	60	9116
2026-01-04 23:40:19.04	339.41	5.86	-44.1	-45.9	18.6	0.00e+00	92	30	0	1443889152	60	9586
2026-01-04 23:40:23.09	339.31	5.57	-44.5	-46.5	17.5	0.00e+00	0	30	0	1452277760	60	10319
2026-01-04 23:40:27.13	339.20	5.28	-45.5	-48.2	15.2	0.00e+00	2	30	0	1459617792	60	12535
2026-01-04 23:40:31.17	339.10	5.00	-46.1	-49.8	13.2	3.80e-06	72	30	0	1466957824	60	15087
2026-01-04 23:40:35.22	339.00	4.71	-46.7	-52.3	9.5	6.46e-03	90	30	0	1474297856	60	20004
2026-01-04 23:40:39.26	338.90	4.43	-46.7	-54.0	6.7	1.63e-01	81	30	0	1481637888	60	24393
2026-01-04 23:40:43.31	338.80	4.16	-46.7	-56.8	4.0	9.61e-01	51	30	0	1490026496	60	33705
2026-01-04 23:40:47.35	338.71	3.88	-46.5	-60.2	3.6	1.50e+00	0	30	104	1491075072	60	49977
2026-01-04 23:40:51.39	338.62	3.61	-46.3	-61.3	3.6	1.51e+00	0	30	104	1491075072	60	56677
2026-01-04 23:40:55.44	338.53	3.34	-46.3	-61.5	3.6	1.51e+00	0	30	104	1491075072	60	58039
2026-01-04 23:40:59.48	338.44	3.08	-46.3	-61.6	3.6	1.51e+00	0	30	104	1491075072	60	58699
2026-01-04 23:41:03.53	338.36	2.81	-51.0	-66.3	3.6	1.51e+00	0	30	104	1491075072	60	100759
2026-01-04 23:41:07.57	338.27	2.55	-51.4	-66.8	3.6	1.51e+00	0	30	104	1491075072	60	106715
2026-01-04 23:41:11.61	338.19	2.30	-51.1	-66.8	3.6	1.51e+00	0	30	104	1491075072	60	106114
2026-01-04 23:41:15.65	338.11	2.04	-51.3	-66.7	3.6	1.51e+00	0	30	104	1491075072	60	105343
2026-01-04 23:41:19.69	338.03	1.78	-51.4	-66.8	3.6	1.51e+00	0	30	104	1491075072	60	106384
2026-01-04 23:41:23.73	337.95	1.53	-51.4	-66.9	3.6	1.51e+00	0	30	104	1491075072	60	107298
2026-01-04 23:41:27.77	337.88	1.28	-51.4	-66.7	3.6	1.51e+00	0	30	104	1491075072	60	105844
2026-01-04 23:41:31.81	337.80	1.04	-51.4	-66.7	3.6	1.51e+00	0	30	104	1491075072	60	105892
2026-01-04 23:41:35.86	337.73	0.79	-51.5	-66.9	3.6	1.51e+00	0	30	104	1491075072	60	107916
2026-01-04 23:41:39.90	337.66	0.55	-51.7	-67.0	3.6	1.51e+00	0	30	104	1491075072	60	109594
2026-01-04 23:41:43.95	337.59	0.30	-51.6	-67.0	3.6	1.51e+00	0	30	104	1491075072	60	109243
2026-01-04 23:41:47.99	337.52	0.06	-51.6	-67.0	3.6	1.51e+00	0	30	104	1491075072	60	108987

#Closed at: 2026-01-04 23:41:50
#Recorded file [1491 MB]: D:/lorett/data/35034_260105_022634.dat