passes_logs/2026/01/04/R4.6S_Anadyr_2ch/R4.6S_Anadyr_2ch__20260104_151122_NOAA_20_JPSS-1_rec.log

#Pass ID: 20260104_151122_NOAA 20 (JPSS-1)
#Satellite: NOAA 20 (JPSS-1)
#Configuration: NOAA 20
#almurnet v.1.7.20251203
#Start time: 2026-01-04 15:11:23

#Version: 2.2.20231116
#Station: R4.6S_Anadyr_2ch
#Location: 177.4865 lon 64.73178 lat
#TLE: 1 43013U 17073A   25350.93759711  .00000080  00000+0  58734-4 0  9994
#TLE: 2 43013  98.7603 287.1885 0002156  81.1496 278.9924 14.19526878418610

#Time	Az	El	Level	Level2	SNR	BER	BlckErr	Temp	State	Recorded	gain1	gain2
2026-01-04 15:11:23.52	21.61	0.03	-52.0	-67.1	3.5	1.51e+00	0	34	0	0	60	110685
2026-01-04 15:11:27.56	21.57	0.28	-52.3	-67.7	3.6	1.51e+00	0	35	104	0	60	118412
2026-01-04 15:11:31.61	21.53	0.52	-51.9	-67.3	3.6	1.51e+00	0	35	104	0	60	113436
2026-01-04 15:11:35.65	21.50	0.77	-51.7	-67.1	3.6	1.51e+00	0	36	104	0	60	110809
2026-01-04 15:11:39.70	21.46	1.01	-51.1	-66.5	3.6	1.51e+00	0	36	104	0	60	102960
2026-01-04 15:11:43.74	21.42	1.26	-50.4	-65.7	3.6	1.51e+00	0	36	104	0	60	93624
2026-01-04 15:11:47.78	21.38	1.51	-50.4	-65.3	3.6	1.51e+00	0	36	104	0	60	90040
2026-01-04 15:11:51.83	21.34	1.77	-50.4	-65.7	3.6	1.51e+00	0	36	104	0	60	94500
2026-01-04 15:11:55.88	21.30	2.03	-50.4	-65.7	3.6	1.51e+00	0	36	104	0	60	93866
2026-01-04 15:11:59.92	21.26	2.28	-50.4	-65.2	3.6	1.51e+00	0	36	104	0	60	88345
2026-01-04 15:12:03.96	21.22	2.54	-50.3	-64.6	3.6	1.51e+00	0	36	104	0	60	82764
2026-01-04 15:12:08.01	21.17	2.81	-50.3	-64.4	3.6	1.51e+00	0	36	104	0	60	80504
2026-01-04 15:12:12.05	21.12	3.07	-49.3	-55.5	8.7	1.22e-01	0	36	0	5242880	60	28880
2026-01-04 15:12:16.09	21.08	3.34	-48.4	-52.7	11.8	2.87e-04	92	36	0	12582912	60	21100
2026-01-04 15:12:20.14	21.03	3.61	-49.2	-55.0	9.2	7.33e-03	0	36	0	19922944	60	27571
2026-01-04 15:12:24.18	20.98	3.89	-44.7	-46.5	17.3	1.30e+00	0	36	104	24117248	60	10311
2026-01-04 15:12:28.23	20.93	4.16	-44.7	-46.5	18.5	0.00e+00	0	36	0	26214400	60	10293
2026-01-04 15:12:32.27	20.88	4.44	-44.8	-46.5	18.6	0.00e+00	92	36	0	34603008	60	10342
2026-01-04 15:12:36.32	20.82	4.73	-45.2	-47.1	18.0	0.00e+00	78	36	0	41943040	60	11037
2026-01-04 15:12:40.36	20.77	5.01	-45.0	-46.7	18.6	0.00e+00	80	36	0	49283072	60	10557
2026-01-04 15:12:44.41	20.71	5.30	-44.8	-46.4	18.7	0.00e+00	0	36	0	56623104	60	10228
2026-01-04 15:12:48.45	20.66	5.59	-44.3	-45.9	19.3	0.00e+00	92	36	0	65011712	60	9581
2026-01-04 15:12:52.49	20.60	5.88	-44.2	-45.7	19.6	0.00e+00	86	36	0	72351744	60	9386
2026-01-04 15:12:56.54	20.54	6.18	-44.1	-45.6	19.9	0.00e+00	85	36	0	79691776	60	9289
2026-01-04 15:13:00.58	20.47	6.48	-44.0	-45.5	20.0	0.00e+00	22	36	0	87031808	60	9132
2026-01-04 15:13:04.63	20.41	6.79	-44.0	-45.4	20.2	0.00e+00	92	36	0	95420416	60	9070
2026-01-04 15:13:08.67	20.35	7.10	-43.5	-44.9	20.4	0.00e+00	7	36	0	102760448	60	8524
2026-01-04 15:13:12.72	20.28	7.41	-43.5	-44.9	20.5	0.00e+00	81	36	0	110100480	60	8523
2026-01-04 15:13:16.76	20.21	7.72	-43.6	-44.9	20.3	0.00e+00	86	36	0	117440512	60	8608
2026-01-04 15:13:20.80	20.14	8.04	-43.4	-44.7	20.7	0.00e+00	84	36	0	124780544	60	8365
2026-01-04 15:13:24.85	20.06	8.37	-43.3	-44.6	20.6	0.00e+00	0	36	0	133169152	60	8322
2026-01-04 15:13:28.89	19.99	8.70	-43.1	-44.3	21.1	0.00e+00	80	36	0	140509184	60	8031
2026-01-04 15:13:32.94	19.91	9.03	-43.0	-44.2	21.2	0.00e+00	92	36	0	147849216	60	7899
2026-01-04 15:13:36.98	19.83	9.37	-43.0	-44.2	21.4	0.00e+00	80	36	0	155189248	60	7875
2026-01-04 15:13:41.03	19.75	9.71	-42.7	-43.9	21.8	0.00e+00	0	36	0	163577856	60	7619
2026-01-04 15:13:45.07	19.67	10.05	-42.8	-44.0	21.4	0.00e+00	2	36	0	170917888	60	7757
2026-01-04 15:13:49.12	19.58	10.40	-42.5	-43.7	21.8	0.00e+00	91	36	0	178257920	60	7440
2026-01-04 15:13:53.16	19.49	10.76	-42.6	-43.7	21.9	0.00e+00	0	36	0	185597952	60	7496
2026-01-04 15:13:57.21	19.40	11.12	-42.4	-43.5	22.1	0.00e+00	0	36	0	193986560	60	7255
2026-01-04 15:14:01.25	19.30	11.49	-42.3	-43.4	22.3	0.00e+00	0	36	0	201326592	60	7187
2026-01-04 15:14:05.29	19.21	11.86	-42.3	-43.3	22.2	0.00e+00	90	36	0	208666624	60	7159
2026-01-04 15:14:09.33	19.11	12.23	-42.0	-43.1	22.5	0.00e+00	0	36	0	216006656	60	6947
2026-01-04 15:14:13.38	19.00	12.62	-42.1	-43.2	22.5	0.00e+00	80	36	0	223346688	60	7017
2026-01-04 15:14:17.42	18.90	13.01	-41.8	-42.8	22.8	0.00e+00	4	36	0	231735296	60	6715
2026-01-04 15:14:21.47	18.79	13.40	-42.1	-43.1	22.4	0.00e+00	92	36	0	239075328	60	7002
2026-01-04 15:14:25.51	18.67	13.80	-41.3	-42.2	23.4	0.00e+00	6	36	0	246415360	60	6303
2026-01-04 15:14:29.56	18.56	14.21	-41.5	-42.5	23.1	0.00e+00	86	37	0	253755392	60	6522
2026-01-04 15:14:33.60	18.44	14.63	-41.1	-42.1	23.5	0.00e+00	70	37	0	262144000	60	6183
2026-01-04 15:14:37.64	18.31	15.05	-41.0	-42.0	23.6	0.00e+00	7	37	0	269484032	60	6115
2026-01-04 15:14:41.69	18.18	15.48	-40.8	-41.7	23.9	0.00e+00	0	37	0	276824064	60	5957
2026-01-04 15:14:45.73	18.05	15.92	-41.1	-42.0	23.6	0.00e+00	0	37	0	284164096	60	6133
2026-01-04 15:14:49.78	17.91	16.36	-40.7	-41.6	23.9	0.00e+00	92	36	0	292552704	60	5848
2026-01-04 15:14:53.82	17.77	16.81	-40.5	-41.4	24.1	0.00e+00	0	37	0	299892736	60	5726
2026-01-04 15:14:57.86	17.63	17.27	-40.5	-41.4	24.0	0.00e+00	2	37	0	307232768	60	5737
2026-01-04 15:15:01.91	17.47	17.74	-40.3	-41.1	24.4	0.00e+00	81	37	0	314572800	60	5560
2026-01-04 15:15:05.95	17.32	18.22	-40.3	-41.2	24.3	0.00e+00	91	37	0	322961408	60	5585
2026-01-04 15:15:10.00	17.15	18.71	-40.3	-41.1	24.4	0.00e+00	0	37	0	330301440	58	6227
2026-01-04 15:15:14.04	16.99	19.21	-40.3	-41.1	24.5	0.00e+00	0	37	0	337641472	58	6229
2026-01-04 15:15:18.08	16.81	19.72	-40.0	-40.8	24.6	0.00e+00	0	37	0	344981504	58	5991
2026-01-04 15:15:22.13	16.63	20.23	-39.9	-40.7	24.7	0.00e+00	92	37	0	352321536	58	5954
2026-01-04 15:15:26.17	16.44	20.76	-39.9	-40.8	24.7	0.00e+00	81	37	0	360710144	58	5967
2026-01-04 15:15:30.22	16.25	21.30	-39.9	-40.7	24.7	0.00e+00	0	37	0	368050176	58	5964
2026-01-04 15:15:34.26	16.04	21.85	-39.6	-40.4	24.9	0.00e+00	0	37	0	375390208	58	5754
2026-01-04 15:15:38.30	15.83	22.41	-39.7	-40.5	25.0	0.00e+00	55	37	0	382730240	58	5801
2026-01-04 15:15:42.35	15.61	22.99	-39.7	-40.5	24.9	0.00e+00	81	37	0	391118848	58	5822
2026-01-04 15:15:46.39	15.39	23.58	-39.7	-40.5	25.0	0.00e+00	0	37	0	398458880	58	5793
2026-01-04 15:15:50.44	15.15	24.18	-39.8	-40.6	24.9	0.00e+00	44	37	0	405798912	58	5890
2026-01-04 15:15:54.48	14.90	24.79	-40.3	-41.2	24.4	0.00e+00	1	37	0	413138944	58	6273
2026-01-04 15:15:58.53	14.64	25.42	-40.6	-41.4	24.2	0.00e+00	86	37	0	420478976	58	6462
2026-01-04 15:16:02.57	14.37	26.06	-41.0	-41.9	23.6	0.00e+00	85	37	0	428867584	58	6826
2026-01-04 15:16:06.61	14.09	26.72	-41.3	-42.2	23.6	0.00e+00	92	37	0	436207616	60	6307
2026-01-04 15:16:10.66	13.80	27.39	-41.8	-42.8	22.9	0.00e+00	2	37	0	443547648	60	6762
2026-01-04 15:16:14.70	13.49	28.08	-42.4	-43.4	22.5	0.00e+00	2	37	0	450887680	60	7244
2026-01-04 15:16:18.75	13.17	28.78	-43.2	-44.3	21.6	0.00e+00	0	37	0	459276288	60	8038
2026-01-04 15:16:22.79	12.83	29.51	-43.5	-44.7	21.4	0.00e+00	91	37	0	466616320	60	8357
2026-01-04 15:16:26.83	12.48	30.25	-43.7	-44.9	20.9	0.00e+00	0	37	0	473956352	60	8618
2026-01-04 15:16:30.88	12.11	31.00	-43.9	-45.2	20.9	0.00e+00	2	37	0	481296384	60	8834
2026-01-04 15:16:34.92	11.72	31.78	-44.3	-45.7	20.4	0.00e+00	0	37	0	489684992	60	9402
2026-01-04 15:16:38.97	11.31	32.58	-44.9	-46.4	19.7	0.00e+00	92	37	0	497025024	60	10203
2026-01-04 15:16:43.01	10.88	33.39	-45.4	-47.0	19.3	0.00e+00	0	37	0	504365056	60	10864
2026-01-04 15:16:47.05	10.42	34.23	-44.9	-46.3	19.8	0.00e+00	0	37	0	511705088	60	10099
2026-01-04 15:16:51.10	9.94	35.09	-44.3	-45.7	20.5	0.00e+00	92	37	0	520093696	60	9393
2026-01-04 15:16:55.14	9.44	35.97	-44.2	-45.6	20.6	0.00e+00	89	37	0	527433728	60	9260
2026-01-04 15:16:59.19	8.90	36.87	-44.5	-45.9	20.2	0.00e+00	0	37	0	534773760	60	9596
2026-01-04 15:17:03.23	8.33	37.79	-44.9	-46.4	19.8	0.00e+00	0	37	0	542113792	60	10140
2026-01-04 15:17:07.27	7.73	38.74	-45.1	-46.7	19.3	0.00e+00	92	37	0	549453824	60	10552
2026-01-04 15:17:11.32	7.09	39.71	-44.6	-46.0	20.2	0.00e+00	81	37	0	557842432	60	9685
2026-01-04 15:17:15.36	6.41	40.70	-44.1	-45.5	20.6	0.00e+00	0	37	0	565182464	60	9143
2026-01-04 15:17:19.41	5.69	41.71	-43.6	-44.8	21.3	0.00e+00	5	37	0	572522496	60	8507
2026-01-04 15:17:23.45	4.92	42.75	-43.1	-44.2	21.9	0.00e+00	92	37	0	579862528	60	7935
2026-01-04 15:17:27.50	4.09	43.81	-42.4	-43.4	22.6	0.00e+00	84	37	0	588251136	60	7244
2026-01-04 15:17:31.54	3.21	44.90	-42.0	-43.0	22.9	0.00e+00	0	37	0	595591168	60	6902
2026-01-04 15:17:35.58	2.26	46.00	-41.7	-42.6	23.2	0.00e+00	87	37	0	602931200	60	6606
2026-01-04 15:17:39.63	1.24	47.13	-41.6	-42.5	23.3	0.00e+00	91	37	0	610271232	60	6521
2026-01-04 15:17:43.67	0.14	48.28	-41.9	-42.9	23.1	0.00e+00	6	37	0	617611264	60	6810
2026-01-04 15:17:47.72	358.96	49.44	-41.8	-42.8	23.0	0.00e+00	79	37	0	625999872	60	6703
2026-01-04 15:17:51.76	357.68	50.62	-41.0	-41.9	23.9	0.00e+00	81	37	0	633339904	60	6050
2026-01-04 15:17:55.81	356.29	51.82	-39.6	-40.4	25.1	0.00e+00	92	37	0	640679936	58	5735
2026-01-04 15:17:59.85	354.79	53.03	-40.2	-41.0	24.5	0.00e+00	4	37	0	648019968	58	6157
2026-01-04 15:18:03.89	353.16	54.24	-40.4	-41.2	24.4	0.00e+00	5	37	0	656408576	58	6313
2026-01-04 15:18:07.94	351.37	55.46	-42.1	-43.1	22.8	0.00e+00	82	37	0	663748608	60	6950
2026-01-04 15:18:11.98	349.43	56.67	-45.2	-46.7	19.4	0.00e+00	92	37	0	671088640	60	10547
2026-01-04 15:18:16.03	347.31	57.88	-45.1	-46.6	19.7	0.00e+00	0	37	0	678428672	60	10390
2026-01-04 15:18:20.07	344.99	59.07	-42.8	-43.9	22.1	0.00e+00	2	37	0	686817280	60	7633
2026-01-04 15:18:24.12	342.44	60.23	-41.7	-42.7	23.2	0.00e+00	92	37	0	694157312	60	6653
2026-01-04 15:18:28.16	339.67	61.36	-39.6	-40.4	25.0	0.00e+00	76	37	0	701497344	58	5720
2026-01-04 15:18:32.21	336.62	62.45	-38.7	-39.5	25.8	0.00e+00	0	37	0	708837376	56	5766
2026-01-04 15:18:36.25	333.31	63.47	-39.7	-40.5	25.1	0.00e+00	0	37	0	717225984	56	6488
2026-01-04 15:18:40.29	329.70	64.42	-39.8	-40.6	24.8	0.00e+00	92	37	0	724566016	56	6600
2026-01-04 15:18:44.33	325.79	65.29	-40.4	-41.2	24.5	0.00e+00	79	37	0	731906048	58	6286
2026-01-04 15:18:48.38	321.58	66.05	-42.9	-44.0	22.0	0.00e+00	0	37	0	739246080	60	7753
2026-01-04 15:18:52.42	317.09	66.69	-42.6	-43.7	22.4	0.00e+00	0	37	0	746586112	60	7457
2026-01-04 15:18:56.47	312.34	67.20	-43.2	-44.4	21.7	0.00e+00	92	37	0	754974720	60	8090
2026-01-04 15:19:00.50	307.42	67.55	-42.6	-43.7	22.4	0.00e+00	5	37	0	762314752	60	7451
2026-01-04 15:19:04.55	302.33	67.75	-43.1	-44.2	21.8	0.00e+00	0	37	0	769654784	60	7946
2026-01-04 15:19:08.59	297.20	67.79	-43.1	-44.2	21.9	0.00e+00	0	37	0	776994816	60	7901
2026-01-04 15:19:12.63	292.09	67.66	-43.7	-44.9	21.2	0.00e+00	92	37	0	785383424	60	8551
2026-01-04 15:19:16.67	287.08	67.38	-42.7	-43.8	22.4	0.00e+00	7	37	0	792723456	60	7535
2026-01-04 15:19:20.72	282.23	66.93	-42.5	-43.6	22.5	0.00e+00	75	37	0	800063488	60	7347
2026-01-04 15:19:24.76	277.63	66.35	-42.1	-43.0	23.1	0.00e+00	59	37	0	807403520	60	6913
2026-01-04 15:19:28.81	273.28	65.64	-40.4	-41.2	24.6	0.00e+00	90	37	0	815792128	60	5602
2026-01-04 15:19:32.85	269.23	64.82	-39.7	-40.5	25.2	0.00e+00	2	37	0	823132160	58	5774
2026-01-04 15:19:36.90	265.48	63.91	-39.6	-40.4	25.3	0.00e+00	81	37	0	830472192	58	5732
2026-01-04 15:19:40.94	262.03	62.91	-40.6	-41.5	24.3	0.00e+00	92	37	0	837812224	58	6479
2026-01-04 15:19:44.98	258.86	61.85	-42.7	-43.8	22.4	0.00e+00	0	37	0	845152256	60	7550
2026-01-04 15:19:49.03	255.96	60.74	-43.4	-44.6	21.5	0.00e+00	0	37	0	853540864	60	8248
2026-01-04 15:19:53.07	253.32	59.58	-45.0	-46.5	19.9	0.00e+00	5	37	0	860880896	60	10310
2026-01-04 15:19:57.12	250.89	58.40	-44.0	-45.3	20.9	0.00e+00	92	37	0	868220928	60	8931
2026-01-04 15:20:01.16	248.68	57.20	-42.7	-43.7	22.7	0.00e+00	82	37	0	875560960	60	7446
2026-01-04 15:20:05.21	246.66	55.98	-41.7	-42.6	23.5	0.00e+00	0	37	0	883949568	60	6591
2026-01-04 15:20:09.25	244.81	54.77	-41.2	-42.1	23.8	0.00e+00	0	37	0	891289600	60	6199
2026-01-04 15:20:13.30	243.10	53.55	-41.4	-42.3	23.4	0.00e+00	92	37	0	898629632	60	6349
2026-01-04 15:20:17.34	241.54	52.33	-42.0	-43.0	23.0	0.00e+00	3	37	0	905969664	60	6876
2026-01-04 15:20:21.38	240.10	51.13	-42.1	-43.1	22.9	0.00e+00	0	37	0	913309696	60	6948
2026-01-04 15:20:25.43	238.77	49.94	-42.8	-43.9	22.2	0.00e+00	0	37	0	921698304	60	7625
2026-01-04 15:20:29.47	237.55	48.76	-42.8	-43.8	22.1	0.00e+00	91	37	0	929038336	60	7591
2026-01-04 15:20:33.52	236.41	47.60	-42.5	-43.6	22.4	0.00e+00	2	37	0	936378368	60	7356
2026-01-04 15:20:37.56	235.36	46.47	-42.4	-43.5	22.4	0.00e+00	0	37	0	943718400	60	7272
2026-01-04 15:20:41.61	234.37	45.35	-43.4	-44.6	21.4	0.00e+00	6	37	0	952107008	60	8250
2026-01-04 15:20:45.65	233.46	44.25	-43.3	-44.5	21.4	0.00e+00	67	37	0	959447040	60	8209
2026-01-04 15:20:49.70	232.61	43.17	-43.7	-45.0	21.0	0.00e+00	77	37	0	966787072	60	8671
2026-01-04 15:20:53.74	231.81	42.12	-45.0	-46.6	19.4	0.00e+00	78	37	0	974127104	60	10446
2026-01-04 15:20:57.78	231.06	41.10	-45.6	-47.4	18.7	0.00e+00	92	37	0	982515712	60	11388
2026-01-04 15:21:01.82	230.36	40.09	-45.6	-47.3	18.8	0.00e+00	75	37	0	989855744	60	11360
2026-01-04 15:21:05.87	229.70	39.11	-44.7	-46.2	19.8	0.00e+00	0	37	0	997195776	60	10000
2026-01-04 15:21:09.91	229.09	38.15	-44.0	-45.4	20.7	0.00e+00	81	37	0	1004535808	60	9035
2026-01-04 15:21:13.96	228.50	37.21	-43.9	-45.3	20.8	0.00e+00	92	37	0	1012924416	60	8970
2026-01-04 15:21:18.00	227.95	36.30	-43.7	-45.0	21.0	0.00e+00	0	37	0	1020264448	60	8664
2026-01-04 15:21:22.05	227.43	35.41	-43.7	-45.1	20.9	0.00e+00	0	37	0	1027604480	60	8772
2026-01-04 15:21:26.09	226.94	34.54	-43.8	-45.1	20.7	0.00e+00	0	37	0	1034944512	60	8806
2026-01-04 15:21:30.14	226.47	33.69	-43.8	-45.1	20.8	0.00e+00	90	37	0	1042284544	60	8815
2026-01-04 15:21:34.18	226.03	32.86	-43.4	-44.6	21.3	0.00e+00	80	37	0	1050673152	60	8328
2026-01-04 15:21:38.22	225.61	32.06	-44.2	-45.5	20.4	0.00e+00	0	37	0	1058013184	60	9232
2026-01-04 15:21:42.27	225.20	31.27	-44.4	-45.8	20.2	0.00e+00	0	37	0	1065353216	60	9512
2026-01-04 15:21:46.31	224.82	30.50	-44.6	-46.1	19.8	0.00e+00	92	37	0	1072693248	60	9848
2026-01-04 15:21:50.36	224.46	29.75	-45.1	-46.7	19.4	0.00e+00	81	37	0	1081081856	60	10524
2026-01-04 15:21:54.40	224.12	29.02	-45.2	-46.9	19.1	0.00e+00	6	37	0	1088421888	60	10761
2026-01-04 15:21:58.44	223.79	28.31	-45.0	-46.6	19.3	0.00e+00	90	37	0	1095761920	60	10367
2026-01-04 15:22:02.49	223.47	27.61	-44.6	-46.1	19.9	0.00e+00	0	37	0	1103101952	60	9790
2026-01-04 15:22:06.53	223.17	26.93	-44.4	-45.8	20.2	0.00e+00	0	37	0	1111490560	60	9472
2026-01-04 15:22:10.57	222.88	26.26	-44.3	-45.7	20.2	0.00e+00	0	37	0	1118830592	60	9367
2026-01-04 15:22:14.62	222.60	25.61	-43.7	-45.0	20.9	0.00e+00	92	37	0	1126170624	60	8660
2026-01-04 15:22:18.66	222.34	24.97	-43.4	-44.6	21.2	0.00e+00	7	37	0	1133510656	60	8290
2026-01-04 15:22:22.71	222.09	24.35	-43.3	-44.4	21.3	0.00e+00	81	37	0	1140850688	60	8135
2026-01-04 15:22:26.75	221.84	23.75	-43.0	-44.1	21.7	0.00e+00	80	37	0	1149239296	60	7828
2026-01-04 15:22:30.80	221.61	23.15	-42.7	-43.8	22.0	0.00e+00	92	37	0	1156579328	60	7554
2026-01-04 15:22:34.84	221.38	22.57	-42.5	-43.6	22.1	0.00e+00	2	37	0	1163919360	60	7397
2026-01-04 15:22:38.88	221.17	22.00	-42.4	-43.5	22.3	0.00e+00	2	37	0	1171259392	60	7298
2026-01-04 15:22:42.93	220.96	21.44	-42.1	-43.1	22.3	0.00e+00	4	37	0	1179648000	60	7003
2026-01-04 15:22:46.97	220.76	20.90	-42.1	-43.1	22.5	0.00e+00	92	37	0	1186988032	60	6977
2026-01-04 15:22:51.02	220.56	20.36	-41.9	-42.9	22.7	0.00e+00	0	37	0	1194328064	60	6804
2026-01-04 15:22:55.06	220.38	19.84	-42.1	-43.2	22.5	0.00e+00	0	37	0	1201668096	60	7012
2026-01-04 15:22:59.11	220.20	19.33	-42.2	-43.3	22.4	0.00e+00	0	37	0	1210056704	60	7126
2026-01-04 15:23:03.15	220.02	18.82	-42.1	-43.1	22.4	0.00e+00	90	37	0	1217396736	60	6993
2026-01-04 15:23:07.19	219.86	18.33	-42.1	-43.2	22.4	0.00e+00	0	37	0	1224736768	60	7013
2026-01-04 15:23:11.24	219.69	17.85	-42.2	-43.3	22.3	0.00e+00	0	37	0	1232076800	60	7108
2026-01-04 15:23:15.28	219.54	17.37	-42.4	-43.5	22.1	0.00e+00	75	37	0	1239416832	60	7257
2026-01-04 15:23:19.33	219.39	16.91	-42.6	-43.7	21.9	0.00e+00	92	37	0	1247805440	60	7462
2026-01-04 15:23:23.37	219.24	16.45	-42.8	-44.0	21.6	0.00e+00	0	37	0	1255145472	60	7728
2026-01-04 15:23:27.42	219.10	16.00	-42.8	-44.0	21.7	0.00e+00	0	37	0	1262485504	60	7719
2026-01-04 15:23:31.46	218.96	15.56	-42.7	-43.8	21.8	0.00e+00	92	37	0	1269825536	60	7568
2026-01-04 15:23:35.51	218.83	15.12	-42.8	-44.0	21.6	0.00e+00	16	37	0	1278214144	60	7720
2026-01-04 15:23:39.55	218.70	14.70	-42.7	-43.8	21.6	0.00e+00	3	37	0	1285554176	60	7563
2026-01-04 15:23:43.59	218.58	14.28	-43.0	-44.2	21.5	0.00e+00	0	37	0	1292894208	60	7901
2026-01-04 15:23:47.64	218.46	13.87	-43.1	-44.4	21.3	0.00e+00	92	37	0	1300234240	60	8063
2026-01-04 15:23:51.68	218.34	13.46	-43.2	-44.4	21.2	0.00e+00	0	37	0	1308622848	60	8126
2026-01-04 15:23:55.73	218.22	13.06	-43.4	-44.6	21.0	0.00e+00	81	37	0	1315962880	60	8312
2026-01-04 15:23:59.77	218.11	12.67	-43.5	-44.8	20.9	0.00e+00	80	37	0	1323302912	60	8468
2026-01-04 15:24:03.81	218.01	12.29	-43.8	-45.2	20.5	0.00e+00	91	37	0	1330642944	60	8852
2026-01-04 15:24:07.86	217.90	11.90	-43.9	-45.3	20.4	0.00e+00	0	37	0	1339031552	60	8943
2026-01-04 15:24:11.90	217.80	11.53	-43.9	-45.2	20.4	0.00e+00	0	37	0	1346371584	60	8875
2026-01-04 15:24:15.95	217.70	11.16	-44.0	-45.3	20.2	0.00e+00	0	37	0	1353711616	60	9007
2026-01-04 15:24:19.99	217.61	10.80	-44.1	-45.5	20.1	0.00e+00	92	37	0	1361051648	60	9211
2026-01-04 15:24:24.03	217.51	10.44	-43.8	-45.2	20.5	0.00e+00	0	37	0	1368391680	60	8864
2026-01-04 15:24:28.08	217.42	10.08	-43.9	-45.2	20.4	0.00e+00	0	37	0	1376780288	60	8888
2026-01-04 15:24:32.12	217.34	9.74	-43.7	-45.0	20.5	0.00e+00	41	37	0	1384120320	60	8686
2026-01-04 15:24:36.17	217.25	9.39	-43.8	-45.1	20.4	0.00e+00	92	37	0	1391460352	60	8797
2026-01-04 15:24:40.21	217.17	9.05	-44.0	-45.4	20.1	0.00e+00	0	37	0	1398800384	60	9031
2026-01-04 15:24:44.26	217.08	8.72	-43.8	-45.2	20.3	0.00e+00	0	37	0	1407188992	60	8892
2026-01-04 15:24:48.30	217.01	8.39	-43.9	-45.3	20.2	0.00e+00	90	37	0	1414529024	60	8933
2026-01-04 15:24:52.34	216.93	8.06	-44.2	-45.7	19.7	0.00e+00	82	37	0	1421869056	60	9437
2026-01-04 15:24:56.39	216.85	7.74	-44.4	-45.9	19.4	0.00e+00	0	37	0	1429209088	60	9640
2026-01-04 15:25:00.43	216.78	7.42	-44.3	-45.8	19.5	0.00e+00	0	37	0	1436549120	60	9535
2026-01-04 15:25:04.48	216.71	7.11	-44.7	-46.3	19.0	0.00e+00	90	37	0	1444937728	60	10072
2026-01-04 15:25:08.52	216.64	6.80	-44.8	-46.5	18.7	0.00e+00	77	37	0	1452277760	60	10290
2026-01-04 15:25:12.57	216.57	6.49	-44.8	-46.5	18.7	0.00e+00	78	37	0	1459617792	60	10319
2026-01-04 15:25:16.61	216.50	6.19	-45.4	-47.3	18.0	0.00e+00	0	37	0	1466957824	60	11272
2026-01-04 15:25:20.65	216.44	5.89	-45.1	-46.9	18.4	0.00e+00	92	37	0	1475346432	60	10736
2026-01-04 15:25:24.70	216.38	5.59	-44.9	-46.7	18.6	0.00e+00	0	37	0	1482686464	60	10490
2026-01-04 15:25:28.74	216.32	5.30	-44.9	-46.7	18.5	0.00e+00	80	37	0	1490026496	60	10523
2026-01-04 15:25:32.79	216.26	5.01	-45.0	-46.8	18.4	0.00e+00	75	37	0	1497366528	60	10619
2026-01-04 15:25:36.83	216.20	4.72	-45.3	-47.2	18.0	0.00e+00	92	37	0	1505755136	60	11118
2026-01-04 15:25:40.87	216.14	4.44	-45.4	-47.3	17.8	0.00e+00	0	37	0	1513095168	60	11298
2026-01-04 15:25:44.92	216.08	4.16	-45.2	-47.1	18.0	0.00e+00	0	37	0	1520435200	60	11070
2026-01-04 15:25:48.96	216.03	3.88	-45.3	-47.3	17.5	0.00e+00	92	37	0	1527775232	60	11345
2026-01-04 15:25:53.01	215.98	3.60	-45.9	-48.2	16.6	0.00e+00	92	37	0	1536163840	60	12509
2026-01-04 15:25:57.05	215.92	3.33	-45.5	-47.6	17.2	0.00e+00	0	37	0	1543503872	60	11729
2026-01-04 15:26:01.09	215.87	3.06	-45.4	-47.5	17.2	0.00e+00	81	37	0	1550843904	60	11564
2026-01-04 15:26:05.14	215.82	2.79	-51.6	-67.0	3.6	1.51e+00	0	37	104	1551892480	60	109449
2026-01-04 15:26:09.18	215.77	2.53	-51.8	-67.2	3.6	1.51e+00	0	37	104	1551892480	60	111146
2026-01-04 15:26:13.23	215.73	2.26	-51.7	-67.1	3.6	1.51e+00	0	37	104	1551892480	60	110964
2026-01-04 15:26:17.27	215.68	2.00	-51.7	-67.1	3.6	1.51e+00	0	37	104	1551892480	60	110848
2026-01-04 15:26:21.32	215.63	1.75	-51.8	-67.1	3.6	1.51e+00	0	37	104	1551892480	60	110804
2026-01-04 15:26:25.36	215.59	1.49	-51.7	-67.1	3.6	1.51e+00	0	37	104	1551892480	60	110723
2026-01-04 15:26:29.40	215.54	1.24	-51.8	-67.2	3.6	1.51e+00	0	37	104	1551892480	60	111776
2026-01-04 15:26:33.44	215.50	0.99	-51.7	-67.1	3.6	1.51e+00	0	37	104	1551892480	60	110803
2026-01-04 15:26:37.48	215.46	0.74	-51.9	-67.3	3.5	1.51e+00	0	37	104	1551892480	60	112517
2026-01-04 15:26:41.52	215.42	0.49	-51.8	-67.2	3.6	1.51e+00	0	37	104	1551892480	60	111468
2026-01-04 15:26:45.57	215.38	0.25	-51.8	-67.2	3.6	1.51e+00	0	37	104	1551892480	60	111396
2026-01-04 15:26:49.61	215.34	0.00	-51.7	-67.1	3.6	1.51e+00	0	37	104	1551892480	60	109841

#Closed at: 2026-01-04 15:26:51
#Recorded file [1551 MB]: D:/lorett/data/35034_260104_181123.dat