passes_logs/2026/01/04/R4.6S_Anadyr_2ch/R4.6S_Anadyr_2ch__20260104_205844_FENGYUN_3E_rec.log

#Pass ID: 20260104_205844_FENGYUN 3E
#Satellite: FENGYUN 3E
#Configuration: FENGYUN 3E
#almurnet v.1.7.20251203
#Start time: 2026-01-04 20:58:45

#Version: 2.2.20231116
#Station: R4.6S_Anadyr_2ch
#Location: 177.4865 lon 64.73178 lat
#TLE: 1 49008U 21062A   25350.97288215  .00000176  00000+0  10353-3 0  9997
#TLE: 2 49008  98.7477 351.4440 0000638 234.3856 125.7261 14.19881381230726

#Time	Az	El	Level	Level2	SNR	BER	BlckErr	Temp	State	Recorded	gain1	gain2
2026-01-04 20:58:45.85	27.32	0.10	-52.0	-67.2	3.5	1.51e+00	0	25	0	0	60	111352
2026-01-04 20:58:49.89	27.14	0.33	-51.4	-63.1	3.6	8.45e-01	0	27	104	0	60	70115
2026-01-04 20:58:53.94	26.95	0.56	-51.4	-63.1	3.6	8.45e-01	0	27	104	0	60	70314
2026-01-04 20:58:57.98	26.76	0.79	-50.7	-62.3	3.6	8.46e-01	0	27	104	0	60	64130
2026-01-04 20:59:02.03	26.56	1.02	-49.8	-61.4	3.6	8.45e-01	0	27	104	0	60	57820
2026-01-04 20:59:06.07	26.37	1.25	-49.3	-60.9	3.6	8.45e-01	0	27	104	0	60	54945
2026-01-04 20:59:10.11	26.17	1.49	-49.2	-60.8	3.6	8.45e-01	0	27	104	0	60	54308
2026-01-04 20:59:14.16	25.96	1.72	-49.3	-60.9	3.6	8.45e-01	0	27	104	0	60	54796
2026-01-04 20:59:18.20	25.75	1.96	-49.3	-60.9	3.6	8.46e-01	0	27	104	0	60	54910
2026-01-04 20:59:22.24	25.54	2.20	-49.2	-60.7	3.6	8.45e-01	0	27	104	0	60	53161
2026-01-04 20:59:26.29	25.33	2.44	-49.3	-60.8	3.6	8.45e-01	0	27	104	0	60	54184
2026-01-04 20:59:30.33	25.11	2.68	-49.3	-60.9	3.6	8.46e-01	0	27	104	0	60	54481
2026-01-04 20:59:34.37	24.89	2.93	-49.2	-60.3	3.6	8.45e-01	0	27	104	0	60	50937
2026-01-04 20:59:38.42	24.66	3.17	-49.2	-60.7	3.6	8.46e-01	0	28	104	0	60	53241
2026-01-04 20:59:42.46	24.43	3.42	-47.5	-51.4	7.2	8.69e-02	0	27	0	6291456	60	18391
2026-01-04 20:59:46.51	24.20	3.67	-45.3	-47.5	11.7	5.13e-04	0	27	0	35651584	60	11738
2026-01-04 20:59:50.55	23.96	3.92	-47.5	-52.2	4.4	0.00e+00	0	28	0	52428800	60	20105
2026-01-04 20:59:54.60	23.71	4.17	-38.4	-39.1	20.8	0.00e+00	0	27	0	67108864	54	6254
2026-01-04 20:59:58.64	23.46	4.43	-37.9	-38.6	21.5	0.00e+00	0	28	0	96468992	52	6653
2026-01-04 21:00:02.69	23.21	4.68	-37.4	-38.1	21.9	0.00e+00	0	28	0	125829120	54	5597
2026-01-04 21:00:06.73	22.95	4.94	-36.8	-37.4	22.4	0.00e+00	0	28	0	154140672	52	5802
2026-01-04 21:00:10.78	22.69	5.20	-36.8	-37.4	22.7	0.00e+00	0	28	0	183500800	52	5785
2026-01-04 21:00:14.82	22.42	5.47	-37.9	-38.5	21.7	0.00e+00	0	28	0	212860928	54	5891
2026-01-04 21:00:18.86	22.15	5.73	-37.2	-37.9	22.1	0.00e+00	0	28	0	242221056	54	5467
2026-01-04 21:00:22.91	21.87	6.00	-36.9	-37.5	22.5	0.00e+00	0	28	0	271581184	52	5847
2026-01-04 21:00:26.95	21.59	6.27	-36.8	-37.4	22.8	0.00e+00	0	28	0	300941312	52	5802
2026-01-04 21:00:31.00	21.30	6.54	-36.1	-36.7	23.3	0.00e+00	0	28	0	329252864	50	5982
2026-01-04 21:00:35.04	21.00	6.81	-36.5	-37.1	23.0	0.00e+00	0	28	0	358612992	50	6269
2026-01-04 21:00:39.09	20.70	7.08	-36.2	-36.8	23.3	0.00e+00	0	28	0	387973120	50	6044
2026-01-04 21:00:43.13	20.40	7.36	-36.0	-36.6	23.4	0.00e+00	0	28	0	417333248	50	5931
2026-01-04 21:00:47.17	20.08	7.64	-36.6	-37.2	22.7	0.00e+00	0	28	0	446693376	50	6351
2026-01-04 21:00:51.22	19.76	7.92	-36.1	-36.7	23.5	0.00e+00	0	28	0	476053504	50	5967
2026-01-04 21:00:55.26	19.44	8.21	-35.7	-36.3	23.8	0.00e+00	0	28	0	504365056	50	5722
2026-01-04 21:00:59.31	19.11	8.49	-36.3	-36.9	23.4	0.00e+00	0	28	0	533725184	50	6146
2026-01-04 21:01:03.35	18.77	8.78	-36.0	-36.6	23.8	0.00e+00	0	28	0	563085312	50	5923
2026-01-04 21:01:07.39	18.42	9.07	-35.5	-36.1	24.1	0.00e+00	0	28	0	592445440	50	5605
2026-01-04 21:01:11.44	18.07	9.36	-35.6	-36.1	24.3	0.00e+00	0	28	0	621805568	50	5600
2026-01-04 21:01:15.48	17.70	9.66	-35.5	-36.0	24.3	0.00e+00	0	28	0	651165696	50	5540
2026-01-04 21:01:19.53	17.33	9.96	-35.6	-36.1	24.2	0.00e+00	0	28	0	680525824	50	5615
2026-01-04 21:01:23.57	16.96	10.26	-35.4	-36.0	24.4	0.00e+00	0	28	0	709885952	50	5531
2026-01-04 21:01:27.62	16.57	10.56	-35.5	-36.1	24.3	0.00e+00	0	28	0	738197504	50	5571
2026-01-04 21:01:31.66	16.18	10.87	-35.6	-36.2	24.3	0.00e+00	0	28	0	767557632	50	5645
2026-01-04 21:01:35.70	15.78	11.17	-35.3	-35.8	24.7	0.00e+00	0	28	0	796917760	48	6079
2026-01-04 21:01:39.75	15.36	11.48	-34.9	-35.4	25.0	0.00e+00	0	28	0	826277888	48	5785
2026-01-04 21:01:43.79	14.94	11.80	-35.0	-35.5	25.0	0.00e+00	0	28	0	855638016	48	5883
2026-01-04 21:01:47.84	14.51	12.11	-34.8	-35.3	25.1	0.00e+00	0	28	0	883949568	48	5745
2026-01-04 21:01:51.88	14.08	12.43	-34.7	-35.2	25.2	0.00e+00	0	28	0	913309696	48	5655
2026-01-04 21:01:55.92	13.63	12.75	-34.7	-35.3	25.2	0.00e+00	0	28	0	942669824	48	5714
2026-01-04 21:01:59.97	13.17	13.07	-34.5	-35.1	25.3	0.00e+00	0	28	0	972029952	48	5573
2026-01-04 21:02:04.01	12.70	13.39	-34.6	-35.1	25.3	0.00e+00	0	28	0	1001390080	48	5589
2026-01-04 21:02:08.06	12.21	13.72	-34.6	-35.1	25.3	0.00e+00	0	28	0	1030750208	48	5622
2026-01-04 21:02:12.10	11.72	14.05	-34.6	-35.1	25.5	0.00e+00	0	28	0	1059061760	48	5595
2026-01-04 21:02:16.15	11.22	14.38	-34.3	-34.8	25.6	0.00e+00	0	28	0	1088421888	46	6066
2026-01-04 21:02:20.19	10.70	14.71	-34.1	-34.6	25.7	0.00e+00	0	28	0	1117782016	46	5963
2026-01-04 21:02:24.24	10.18	15.05	-34.2	-34.7	25.8	0.00e+00	0	28	0	1147142144	46	6023
2026-01-04 21:02:28.28	9.64	15.39	-34.1	-34.6	25.9	0.00e+00	0	28	0	1176502272	46	5959
2026-01-04 21:02:32.32	9.09	15.73	-34.2	-34.8	25.7	0.00e+00	0	28	0	1205862400	46	6034
2026-01-04 21:02:36.37	8.52	16.07	-34.3	-34.8	25.5	0.00e+00	0	28	0	1235222528	46	6050
2026-01-04 21:02:40.41	7.94	16.41	-33.9	-34.4	26.1	0.00e+00	0	28	0	1263534080	46	5796
2026-01-04 21:02:44.46	7.35	16.76	-33.4	-33.9	26.4	0.00e+00	0	28	0	1292894208	46	5456
2026-01-04 21:02:48.50	6.74	17.11	-33.2	-33.7	26.6	0.00e+00	0	28	0	1322254336	46	5337
2026-01-04 21:02:52.55	6.12	17.46	-33.7	-34.2	26.3	0.00e+00	0	28	0	1351614464	46	5675
2026-01-04 21:02:56.59	5.49	17.81	-33.6	-34.1	26.2	0.00e+00	0	28	0	1380974592	46	5628
2026-01-04 21:03:00.64	4.83	18.16	-33.7	-34.2	26.3	0.00e+00	0	28	0	1410334720	46	5681
2026-01-04 21:03:04.68	4.17	18.51	-33.2	-33.7	26.6	0.00e+00	0	28	0	1439694848	44	5970
2026-01-04 21:03:08.73	3.49	18.86	-33.2	-33.7	26.6	0.00e+00	0	28	0	1468006400	44	5965
2026-01-04 21:03:12.77	2.79	19.22	-33.2	-33.7	26.6	0.00e+00	0	28	0	1497366528	44	6019
2026-01-04 21:03:16.82	2.07	19.57	-33.0	-33.5	26.8	0.00e+00	0	28	0	1526726656	44	5878
2026-01-04 21:03:20.86	1.34	19.93	-33.1	-33.6	26.7	0.00e+00	0	28	0	1556086784	44	5927
2026-01-04 21:03:24.91	0.59	20.28	-32.8	-33.3	26.9	0.00e+00	0	28	0	1585446912	44	5706
2026-01-04 21:03:28.95	359.82	20.64	-32.9	-33.4	26.8	0.00e+00	0	28	0	1613758464	44	5769
2026-01-04 21:03:33.00	359.03	20.99	-33.0	-33.5	26.7	0.00e+00	0	28	0	1643118592	44	5882
2026-01-04 21:03:37.04	358.23	21.34	-33.3	-33.8	26.5	0.00e+00	0	28	0	1672478720	44	6043
2026-01-04 21:03:41.09	357.40	21.70	-33.3	-33.8	26.6	0.00e+00	0	28	0	1701838848	44	6054
2026-01-04 21:03:45.13	356.56	22.05	-32.8	-33.3	26.9	0.00e+00	0	28	0	1731198976	44	5740
2026-01-04 21:03:49.18	355.70	22.39	-32.9	-33.4	26.9	0.00e+00	0	29	0	1760559104	44	5805
2026-01-04 21:03:53.22	354.82	22.74	-33.0	-33.5	26.7	0.00e+00	0	28	0	1789919232	44	5841
2026-01-04 21:03:57.26	353.92	23.08	-32.8	-33.3	27.0	0.00e+00	0	28	0	1818230784	44	5704
2026-01-04 21:04:01.31	352.99	23.42	-32.3	-32.7	27.4	0.00e+00	0	28	0	1847590912	44	5370
2026-01-04 21:04:05.35	352.05	23.76	-32.2	-32.6	27.5	0.00e+00	0	28	0	1876951040	44	5313
2026-01-04 21:04:09.40	351.09	24.09	-32.1	-32.6	27.5	0.00e+00	0	28	0	1906311168	44	5300
2026-01-04 21:04:13.44	350.10	24.41	-32.3	-32.8	27.3	0.00e+00	0	28	0	1935671296	44	5403
2026-01-04 21:04:17.49	349.10	24.74	-32.1	-32.6	27.4	0.00e+00	0	28	0	1965031424	44	5292
2026-01-04 21:04:21.53	348.07	25.05	-32.1	-32.6	27.5	0.00e+00	0	28	0	1994391552	42	5923
2026-01-04 21:04:25.58	347.02	25.36	-32.2	-32.7	27.5	0.00e+00	0	28	0	2022703104	42	5991
2026-01-04 21:04:29.62	345.96	25.66	-32.4	-32.9	27.3	0.00e+00	0	29	0	2052063232	42	6148
2026-01-04 21:04:33.66	344.87	25.95	-32.8	-33.3	27.0	0.00e+00	0	29	0	2081423360	44	5742
2026-01-04 21:04:37.71	343.76	26.24	-32.5	-33.0	27.2	0.00e+00	0	28	0	2110783488	44	5518
2026-01-04 21:04:41.75	342.64	26.51	-32.1	-32.6	27.7	0.00e+00	0	29	0	2140143616	42	5903
2026-01-04 21:04:45.80	341.49	26.78	-32.6	-33.1	27.3	0.00e+00	0	28	0	2169503744	42	6264
2026-01-04 21:04:49.84	340.32	27.03	-32.3	-32.8	27.4	0.00e+00	0	29	0	2197815296	42	6079
2026-01-04 21:04:53.89	339.14	27.28	-32.5	-32.9	27.4	0.00e+00	0	29	0	2227175424	42	6156
2026-01-04 21:04:57.93	337.94	27.51	-33.1	-33.6	26.9	0.00e+00	0	28	0	2256535552	42	6660
2026-01-04 21:05:01.97	336.72	27.73	-32.6	-33.1	27.1	0.00e+00	0	29	0	2285895680	44	5571
2026-01-04 21:05:06.02	335.48	27.94	-32.0	-32.5	27.7	0.00e+00	0	28	0	2315255808	42	5858
2026-01-04 21:05:10.06	334.23	28.13	-31.8	-32.3	27.8	0.00e+00	0	29	0	2343567360	42	5723
2026-01-04 21:05:14.11	332.96	28.31	-32.1	-32.5	27.7	0.00e+00	0	29	0	2372927488	42	5892
2026-01-04 21:05:18.15	331.68	28.48	-32.0	-32.5	27.7	0.00e+00	0	28	0	2402287616	42	5840
2026-01-04 21:05:22.20	330.38	28.63	-32.1	-32.5	27.7	0.00e+00	0	29	0	2431647744	42	5896
2026-01-04 21:05:26.24	329.08	28.76	-32.8	-33.3	27.1	0.00e+00	0	28	0	2461007872	42	6444
2026-01-04 21:05:30.29	327.76	28.88	-32.4	-32.8	27.5	0.00e+00	0	28	0	2490368000	44	5434
2026-01-04 21:05:34.33	326.43	28.98	-32.1	-32.6	27.7	0.00e+00	0	29	0	2519728128	42	5927
2026-01-04 21:05:38.37	325.10	29.07	-32.5	-32.9	27.3	0.00e+00	0	29	0	2549088256	42	6172
2026-01-04 21:05:42.42	323.76	29.13	-33.0	-33.5	27.1	0.00e+00	0	29	0	2578448384	42	6553
2026-01-04 21:05:46.46	322.42	29.18	-32.6	-33.1	27.3	0.00e+00	0	29	0	2606759936	44	5583
2026-01-04 21:05:50.51	321.07	29.21	-32.2	-32.6	27.8	0.00e+00	0	29	0	2636120064	44	5311
2026-01-04 21:05:54.55	319.72	29.23	-32.3	-32.8	27.7	0.00e+00	0	29	0	2665480192	44	5385
2026-01-04 21:05:58.60	318.36	29.22	-32.1	-32.5	27.8	0.00e+00	0	29	0	2694840320	42	5896
2026-01-04 21:06:02.64	317.02	29.20	-32.1	-32.6	27.7	0.00e+00	0	28	0	2724200448	42	5944
2026-01-04 21:06:06.68	315.67	29.16	-32.0	-32.5	27.8	0.00e+00	0	29	0	2752512000	42	5869
2026-01-04 21:06:10.73	314.32	29.11	-32.1	-32.6	27.8	0.00e+00	0	29	0	2781872128	42	5912
2026-01-04 21:06:14.77	312.99	29.03	-32.0	-32.5	27.7	0.00e+00	0	29	0	2811232256	42	5836
2026-01-04 21:06:18.82	311.66	28.94	-32.2	-32.6	27.7	0.00e+00	0	29	0	2840592384	42	5948
2026-01-04 21:06:22.86	310.33	28.83	-32.3	-32.8	27.7	0.00e+00	0	28	0	2869952512	42	6049
2026-01-04 21:06:26.91	309.02	28.71	-32.1	-32.6	27.8	0.00e+00	0	29	0	2899312640	42	5954
2026-01-04 21:06:30.95	307.72	28.57	-32.4	-32.8	27.6	0.00e+00	0	29	0	2927624192	42	6090
2026-01-04 21:06:34.99	306.43	28.41	-32.1	-32.6	27.8	0.00e+00	0	28	0	2956984320	42	5907
2026-01-04 21:06:39.04	305.15	28.24	-32.1	-32.6	27.9	0.00e+00	0	28	0	2986344448	42	5919
2026-01-04 21:06:43.08	303.89	28.05	-32.3	-32.8	27.7	0.00e+00	0	29	0	3015704576	42	6079
2026-01-04 21:06:47.13	302.64	27.85	-32.2	-32.7	27.7	0.00e+00	0	29	0	3045064704	42	6019
2026-01-04 21:06:51.17	301.41	27.64	-32.4	-32.9	27.6	0.00e+00	0	29	0	3074424832	44	5443
2026-01-04 21:06:55.21	300.19	27.41	-32.3	-32.7	27.6	0.00e+00	0	29	0	3102736384	44	5375
2026-01-04 21:06:59.25	298.99	27.17	-32.2	-32.6	27.9	0.00e+00	0	28	0	3132096512	42	5938
2026-01-04 21:07:03.30	297.81	26.92	-32.1	-32.5	27.9	0.00e+00	0	29	0	3161456640	42	5879
2026-01-04 21:07:07.34	296.65	26.66	-32.4	-32.9	27.7	0.00e+00	0	29	0	3190816768	42	6136
2026-01-04 21:07:11.39	295.51	26.39	-32.4	-32.9	27.7	0.00e+00	0	29	0	3220176896	42	6130
2026-01-04 21:07:15.43	294.39	26.11	-32.4	-32.8	27.9	0.00e+00	0	29	0	3249537024	42	6084
2026-01-04 21:07:19.48	293.29	25.82	-32.5	-32.9	27.6	0.00e+00	0	29	0	3278897152	42	6173
2026-01-04 21:07:23.52	292.21	25.53	-32.2	-32.7	27.8	0.00e+00	0	29	0	3308257280	42	6010
2026-01-04 21:07:27.56	291.15	25.22	-32.2	-32.7	27.8	0.00e+00	0	29	0	3336568832	42	5972
2026-01-04 21:07:31.61	290.11	24.91	-32.6	-33.1	27.6	0.00e+00	0	29	0	3365928960	42	6280
2026-01-04 21:07:35.65	289.09	24.59	-32.8	-33.2	27.6	0.00e+00	0	29	0	3395289088	44	5684
2026-01-04 21:07:39.70	288.09	24.27	-32.6	-33.1	27.6	0.00e+00	0	29	0	3424649216	44	5619
2026-01-04 21:07:43.74	287.11	23.94	-32.4	-33.0	23.9	0.00e+00	0	29	0	3454009344	44	5544
2026-01-04 21:07:47.79	286.15	23.60	-32.2	-32.8	23.8	0.00e+00	0	29	0	3482320896	42	6096
2026-01-04 21:07:51.83	285.22	23.27	-32.1	-32.8	23.6	0.00e+00	0	29	0	3511681024	42	6055
2026-01-04 21:07:55.87	284.30	22.92	-32.2	-32.9	23.5	0.00e+00	0	29	0	3541041152	42	6125
2026-01-04 21:07:59.92	283.40	22.58	-32.2	-32.9	23.4	0.00e+00	0	29	0	3570401280	42	6160
2026-01-04 21:08:03.96	282.53	22.23	-32.1	-32.8	23.4	0.00e+00	0	29	0	3599761408	42	6074
2026-01-04 21:08:08.01	281.67	21.88	-32.3	-33.0	23.4	0.00e+00	0	29	0	3629121536	42	6224
2026-01-04 21:08:12.05	280.83	21.53	-32.1	-32.7	23.8	0.00e+00	0	29	0	3657433088	42	6017
2026-01-04 21:08:16.10	280.01	21.17	-32.3	-33.0	23.9	0.00e+00	0	29	0	3686793216	42	6177
2026-01-04 21:08:20.14	279.21	20.82	-32.5	-33.2	23.7	0.00e+00	0	29	0	3716153344	42	6374
2026-01-04 21:08:24.19	278.43	20.46	-32.4	-33.0	23.9	0.00e+00	0	29	0	3745513472	42	6240
2026-01-04 21:08:28.23	277.67	20.11	-32.5	-33.2	23.7	0.00e+00	0	29	0	3774873600	42	6337
2026-01-04 21:08:32.28	276.92	19.75	-32.6	-33.3	23.7	0.00e+00	0	29	0	3804233728	42	6414
2026-01-04 21:08:36.32	276.19	19.40	-32.3	-33.0	23.7	0.00e+00	0	29	0	3833593856	42	6213
2026-01-04 21:08:40.36	275.48	19.04	-32.6	-33.2	23.5	0.00e+00	0	29	0	3861905408	42	6388
2026-01-04 21:08:44.41	274.79	18.69	-32.9	-33.6	23.5	0.00e+00	0	29	0	3891265536	42	6642
2026-01-04 21:08:48.45	274.11	18.33	-33.1	-33.8	23.4	0.00e+00	0	29	0	3920625664	44	6088
2026-01-04 21:08:52.50	273.44	17.98	-33.2	-33.9	23.1	0.00e+00	0	29	0	3949985792	44	6147
2026-01-04 21:08:56.55	272.80	17.63	-33.6	-34.3	23.0	0.00e+00	0	29	0	3979345920	44	6416
2026-01-04 21:09:00.59	272.16	17.28	-33.5	-34.2	23.2	0.00e+00	0	29	0	4008706048	44	6333
2026-01-04 21:09:04.63	271.55	16.93	-33.8	-34.5	23.1	0.00e+00	0	29	0	4038066176	46	5862
2026-01-04 21:09:08.67	270.94	16.58	-33.4	-34.1	23.4	0.00e+00	0	29	0	4066377728	46	5573
2026-01-04 21:09:12.72	270.35	16.23	-33.7	-34.4	23.1	0.00e+00	0	29	0	4095737856	46	5798
2026-01-04 21:09:16.76	269.78	15.89	-33.8	-34.5	23.1	0.00e+00	0	29	0	4125097984	46	5869
2026-01-04 21:09:20.81	269.22	15.55	-33.7	-34.4	23.0	0.00e+00	0	29	0	4154458112	46	5804
2026-01-04 21:09:24.85	268.67	15.21	-33.9	-34.6	22.8	0.00e+00	0	29	0	4183818240	46	5925
2026-01-04 21:09:28.90	268.13	14.87	-33.9	-34.6	22.8	0.00e+00	0	29	0	4212129792	46	5930
2026-01-04 21:09:32.94	267.60	14.53	-34.0	-34.7	22.8	0.00e+00	0	29	0	4241489920	46	6026
2026-01-04 21:09:36.99	267.09	14.20	-34.4	-35.2	22.6	0.00e+00	0	29	0	4270850048	46	6320
2026-01-04 21:09:41.03	266.59	13.87	-34.5	-35.2	22.5	0.00e+00	0	29	0	4300210176	46	6352
2026-01-04 21:09:45.07	266.10	13.54	-34.7	-35.4	22.4	0.00e+00	0	29	0	4329570304	46	6529
2026-01-04 21:09:49.12	265.62	13.21	-34.7	-35.4	22.4	0.00e+00	0	29	0	4358930432	46	6490
2026-01-04 21:09:53.16	265.15	12.89	-35.0	-35.8	22.5	0.00e+00	0	29	0	4387241984	48	6034
2026-01-04 21:09:57.21	264.69	12.56	-34.5	-35.2	22.7	0.00e+00	0	29	0	4416602112	48	5642
2026-01-04 21:10:01.25	264.25	12.24	-34.5	-35.2	22.8	0.00e+00	0	29	0	4445962240	48	5641
2026-01-04 21:10:05.30	263.81	11.93	-34.5	-35.2	22.8	0.00e+00	0	29	0	4475322368	48	5645
2026-01-04 21:10:09.34	263.38	11.61	-34.6	-35.3	22.6	0.00e+00	0	29	0	4504682496	48	5735
2026-01-04 21:10:13.39	262.96	11.30	-34.6	-35.3	22.6	0.00e+00	0	29	0	4534042624	48	5734
2026-01-04 21:10:17.43	262.55	10.99	-34.9	-35.6	22.3	0.00e+00	0	29	0	4563402752	48	5964
2026-01-04 21:10:21.47	262.15	10.68	-35.3	-36.0	21.9	0.00e+00	0	29	0	4592762880	48	6243
2026-01-04 21:10:25.52	261.76	10.38	-35.5	-36.3	21.8	0.00e+00	0	29	0	4621074432	48	6458
2026-01-04 21:10:29.56	261.37	10.08	-35.6	-36.4	21.7	0.00e+00	0	29	0	4650434560	48	6507
2026-01-04 21:10:33.61	261.00	9.77	-35.7	-36.4	21.7	0.00e+00	0	29	0	4679794688	48	6535
2026-01-04 21:10:37.65	260.63	9.48	-35.7	-36.4	21.8	0.00e+00	0	29	0	4709154816	48	6527
2026-01-04 21:10:41.69	260.27	9.18	-35.6	-36.3	21.8	0.00e+00	0	29	0	4738514944	48	6449
2026-01-04 21:10:45.74	259.91	8.89	-35.7	-36.4	21.8	0.00e+00	0	29	0	4767875072	48	6507
2026-01-04 21:10:49.79	259.57	8.60	-36.1	-36.9	21.5	0.00e+00	0	29	0	4796186624	50	6124
2026-01-04 21:10:53.83	259.23	8.31	-36.2	-37.0	21.4	0.00e+00	0	29	0	4825546752	50	6214
2026-01-04 21:10:57.87	258.89	8.02	-36.3	-37.1	21.4	0.00e+00	0	29	0	4854906880	50	6276
2026-01-04 21:11:01.92	258.57	7.74	-36.1	-36.9	21.4	0.00e+00	0	29	0	4884267008	50	6142
2026-01-04 21:11:05.96	258.25	7.46	-36.4	-37.2	21.2	0.00e+00	0	29	0	4913627136	50	6361
2026-01-04 21:11:10.01	257.93	7.18	-36.6	-37.4	21.1	0.00e+00	0	29	0	4941938688	50	6513
2026-01-04 21:11:14.05	257.63	6.90	-36.3	-37.1	21.1	0.00e+00	0	29	0	4971298816	50	6291
2026-01-04 21:11:18.10	257.33	6.63	-36.5	-37.4	20.9	0.00e+00	0	29	0	5000658944	52	5775
2026-01-04 21:11:22.14	257.03	6.36	-36.8	-37.6	20.8	0.00e+00	0	29	0	5030019072	52	5943
2026-01-04 21:11:26.19	256.74	6.09	-37.0	-37.8	20.5	0.00e+00	0	29	0	5059379200	52	6087
2026-01-04 21:11:30.23	256.46	5.82	-37.0	-37.9	20.5	0.00e+00	0	29	0	5088739328	50	6856
2026-01-04 21:11:34.27	256.18	5.55	-37.8	-38.7	20.0	0.00e+00	0	29	0	5118099456	52	6739
2026-01-04 21:11:38.32	255.91	5.29	-37.1	-37.9	20.6	0.00e+00	0	29	0	5147459584	52	6159
2026-01-04 21:11:42.36	255.64	5.02	-36.5	-37.3	21.1	0.00e+00	0	29	0	5175771136	52	5748
2026-01-04 21:11:46.41	255.37	4.76	-36.8	-37.6	20.9	0.00e+00	0	29	0	5205131264	52	5908
2026-01-04 21:11:50.45	255.12	4.51	-37.3	-38.1	20.5	0.00e+00	0	29	0	5234491392	52	6261
2026-01-04 21:11:54.50	254.86	4.25	-37.6	-38.5	20.1	0.00e+00	0	29	0	5263851520	52	6559
2026-01-04 21:11:58.54	254.61	3.99	-37.7	-38.5	19.9	0.00e+00	0	29	0	5293211648	54	5894
2026-01-04 21:12:02.58	254.37	3.74	-37.4	-38.3	19.9	0.00e+00	0	29	0	5322571776	54	5731
2026-01-04 21:12:06.63	254.13	3.49	-37.6	-38.5	19.8	0.00e+00	0	29	0	5350883328	54	5862
2026-01-04 21:12:10.67	253.89	3.24	-38.9	-39.9	18.6	0.00e+00	0	29	0	5380243456	54	6892
2026-01-04 21:12:14.72	253.66	3.00	-39.3	-40.3	18.3	0.00e+00	0	29	0	5409603584	56	6436
2026-01-04 21:12:18.76	253.43	2.75	-49.8	-61.3	3.6	8.46e-01	0	29	104	5435817984	60	57488
2026-01-04 21:12:22.81	253.21	2.51	-51.0	-62.5	3.6	8.45e-01	0	29	104	5435817984	60	65991
2026-01-04 21:12:26.85	252.99	2.26	-51.0	-62.6	3.6	8.46e-01	0	29	104	5435817984	60	66508
2026-01-04 21:12:30.89	252.77	2.02	-50.5	-62.5	3.6	8.45e-01	0	29	104	5435817984	60	66048
2026-01-04 21:12:34.94	252.56	1.78	-50.9	-62.6	3.6	8.45e-01	0	29	104	5435817984	60	66415
2026-01-04 21:12:38.98	252.35	1.55	-51.0	-62.6	3.6	8.46e-01	0	29	104	5435817984	60	66794
2026-01-04 21:12:43.03	252.14	1.31	-50.9	-62.6	3.6	8.44e-01	0	29	104	5435817984	60	66699
2026-01-04 21:12:47.07	251.94	1.08	-51.0	-62.7	3.6	8.46e-01	0	29	104	5435817984	60	67543
2026-01-04 21:12:51.11	251.74	0.85	-51.0	-62.8	3.6	8.45e-01	0	29	104	5435817984	60	67843
2026-01-04 21:12:55.16	251.55	0.61	-51.1	-62.8	3.6	8.45e-01	0	29	104	5435817984	60	68187
2026-01-04 21:12:59.20	251.36	0.38	-51.1	-62.7	3.6	8.45e-01	0	29	104	5435817984	60	67695
2026-01-04 21:13:03.25	251.17	0.16	-51.0	-62.7	3.6	8.45e-01	0	29	104	5435817984	60	67649
2026-01-04 21:13:07.29	250.98	-0.07	-51.2	-62.9	3.6	8.46e-01	0	29	104	5435817984	60	68756

#Closed at: 2026-01-04 21:13:07
#Recorded file [5435 MB]: D:/lorett/data/35034_260104_235845.dat