passes_logs/2026/01/04/R4.6S_Anadyr_2ch/R4.6S_Anadyr_2ch__20260104_155118_FENGYUN_3D_rec.log

#Pass ID: 20260104_155118_FENGYUN 3D
#Satellite: FENGYUN 3D
#Configuration: FENGYUN 3D
#almurnet v.1.7.20251203
#Start time: 2026-01-04 15:51:22

#Version: 2.2.20231116
#Station: R4.6S_Anadyr_2ch
#Location: 177.4865 lon 64.73178 lat
#TLE: 1 43010U 17072A   25350.96693137  .00000321  00000+0  17364-3 0  9993
#TLE: 2 43010  98.9888 317.3403 0001146 169.6565 190.4634 14.19686173419132

#Time	Az	El	Level	Level2	SNR	BER	BlckErr	Temp	State	Recorded	gain1	gain2
2026-01-04 15:51:22.16	19.72	0.20	-52.2	-63.1	3.3	8.40e-01	0	36	0	0	60	69907
2026-01-04 15:51:26.19	19.85	0.43	-52.3	-64.6	3.6	8.46e-01	0	36	104	0	60	83193
2026-01-04 15:51:30.23	19.99	0.67	-51.8	-64.1	3.6	8.46e-01	0	36	104	0	60	78232
2026-01-04 15:51:34.28	20.12	0.91	-51.6	-63.9	3.6	8.45e-01	0	36	104	0	60	76688
2026-01-04 15:51:38.32	20.26	1.15	-51.1	-63.5	3.6	8.46e-01	0	36	104	0	60	72822
2026-01-04 15:51:42.36	20.40	1.39	-50.4	-62.7	3.6	8.45e-01	0	36	104	0	60	66295
2026-01-04 15:51:46.41	20.54	1.64	-50.3	-62.6	3.6	8.46e-01	0	36	104	0	60	65925
2026-01-04 15:51:50.45	20.68	1.88	-50.3	-62.5	3.6	8.46e-01	0	36	104	0	60	64843
2026-01-04 15:51:54.49	20.83	2.13	-50.3	-62.5	3.6	8.46e-01	0	36	104	0	60	65123
2026-01-04 15:51:58.54	20.98	2.38	-50.3	-62.6	3.6	8.45e-01	0	36	104	0	60	65566
2026-01-04 15:52:02.58	21.13	2.64	-50.3	-61.9	3.6	8.45e-01	0	36	104	0	60	60765
2026-01-04 15:52:06.63	21.28	2.89	-50.0	-59.6	3.9	8.41e-01	0	36	104	0	60	46328
2026-01-04 15:52:10.67	21.43	3.15	-49.0	-53.5	7.5	2.68e-01	0	36	0	3145728	60	23193
2026-01-04 15:52:14.71	21.59	3.41	-42.5	-43.7	18.0	0.00e+00	0	36	0	26214400	60	7462
2026-01-04 15:52:18.76	21.75	3.67	-40.0	-40.9	20.7	0.00e+00	0	36	0	49283072	58	6071
2026-01-04 15:52:22.80	21.91	3.94	-43.1	-44.5	17.0	0.00e+00	0	36	0	71303168	60	8149
2026-01-04 15:52:26.85	22.08	4.20	-49.4	-55.3	5.3	5.95e-05	0	36	0	93323264	60	28314
2026-01-04 15:52:30.89	22.24	4.47	-42.2	-43.3	18.5	0.00e+00	0	36	0	108003328	60	7153
2026-01-04 15:52:34.94	22.41	4.74	-40.6	-41.6	20.2	0.00e+00	0	37	0	131072000	60	5847
2026-01-04 15:52:38.98	22.59	5.02	-39.2	-40.1	21.9	0.00e+00	0	36	0	153092096	58	5528
2026-01-04 15:52:43.02	22.76	5.30	-39.6	-40.5	21.3	0.00e+00	0	36	0	176160768	56	6470
2026-01-04 15:52:47.07	22.94	5.58	-38.3	-39.1	22.8	0.00e+00	0	37	0	198180864	56	5517
2026-01-04 15:52:51.11	23.12	5.86	-38.0	-38.7	23.1	0.00e+00	0	37	0	221249536	54	5956
2026-01-04 15:52:55.16	23.31	6.14	-38.2	-39.0	23.0	0.00e+00	0	36	0	244318208	54	6138
2026-01-04 15:52:59.20	23.50	6.43	-38.2	-39.0	23.0	0.00e+00	0	37	0	267386880	54	6145
2026-01-04 15:53:03.24	23.69	6.72	-37.8	-38.6	23.3	0.00e+00	0	37	0	289406976	54	5862
2026-01-04 15:53:07.29	23.88	7.02	-38.0	-38.8	23.1	0.00e+00	0	37	0	312475648	54	6004
2026-01-04 15:53:11.33	24.08	7.32	-37.8	-38.6	23.4	0.00e+00	0	37	0	335544320	54	5860
2026-01-04 15:53:15.38	24.28	7.62	-37.6	-38.4	23.6	0.00e+00	0	37	0	358612992	54	5743
2026-01-04 15:53:19.42	24.49	7.92	-37.8	-38.5	23.5	0.00e+00	0	37	0	380633088	54	5809
2026-01-04 15:53:23.46	24.70	8.23	-37.6	-38.3	23.7	0.00e+00	0	37	0	403701760	54	5663
2026-01-04 15:53:27.51	24.91	8.54	-37.4	-38.1	23.9	0.00e+00	0	37	0	425721856	54	5555
2026-01-04 15:53:31.56	25.13	8.86	-37.3	-38.0	24.1	0.00e+00	0	37	0	448790528	52	6150
2026-01-04 15:53:35.60	25.36	9.18	-37.5	-38.2	23.9	0.00e+00	0	37	0	471859200	52	6305
2026-01-04 15:53:39.64	25.58	9.50	-37.2	-37.9	24.2	0.00e+00	0	37	0	494927872	52	6074
2026-01-04 15:53:43.69	25.82	9.83	-37.1	-37.8	24.4	0.00e+00	0	37	0	516947968	52	5992
2026-01-04 15:53:47.73	26.05	10.16	-36.9	-37.6	24.6	0.00e+00	0	37	0	540016640	52	5847
2026-01-04 15:53:51.78	26.30	10.49	-36.6	-37.2	24.8	0.00e+00	0	37	0	563085312	52	5619
2026-01-04 15:53:55.80	26.54	10.83	-36.7	-37.3	24.8	0.00e+00	0	37	0	584056832	52	5694
2026-01-04 15:53:59.85	26.80	11.17	-36.6	-37.3	24.8	0.00e+00	0	37	0	607125504	52	5635
2026-01-04 15:54:03.89	27.05	11.52	-36.4	-37.1	25.0	0.00e+00	0	37	0	629145600	52	5511
2026-01-04 15:54:07.93	27.32	11.87	-36.7	-37.4	24.8	0.00e+00	0	37	0	652214272	52	5697
2026-01-04 15:54:11.98	27.59	12.23	-36.9	-37.6	24.6	0.00e+00	0	37	0	675282944	52	5870
2026-01-04 15:54:16.02	27.86	12.59	-36.9	-37.6	24.6	0.00e+00	0	37	0	697303040	52	5839
2026-01-04 15:54:20.07	28.15	12.95	-36.5	-37.3	24.8	0.00e+00	0	37	0	720371712	52	5639
2026-01-04 15:54:24.11	28.44	13.33	-36.2	-36.9	25.2	0.00e+00	0	37	0	743440384	52	5412
2026-01-04 15:54:28.15	28.73	13.70	-36.2	-36.9	25.2	0.00e+00	0	37	0	765460480	52	5427
2026-01-04 15:54:32.20	29.04	14.08	-36.2	-36.8	25.3	0.00e+00	0	37	0	788529152	50	6032
2026-01-04 15:54:36.24	29.35	14.47	-35.9	-36.6	25.7	0.00e+00	0	37	0	811597824	50	5829
2026-01-04 15:54:40.28	29.67	14.86	-35.8	-36.5	25.7	0.00e+00	0	37	0	833617920	50	5809
2026-01-04 15:54:44.33	29.99	15.26	-35.9	-36.5	25.7	0.00e+00	0	37	0	856686592	50	5819
2026-01-04 15:54:48.37	30.33	15.67	-35.4	-36.1	26.0	0.00e+00	0	37	0	879755264	50	5540
2026-01-04 15:54:52.42	30.67	16.08	-35.4	-36.0	26.1	0.00e+00	0	37	0	902823936	50	5490
2026-01-04 15:54:56.46	31.02	16.49	-35.2	-35.8	26.3	0.00e+00	0	37	0	924844032	50	5375
2026-01-04 15:55:00.51	31.39	16.91	-35.3	-35.9	26.2	0.00e+00	0	37	0	947912704	48	6057
2026-01-04 15:55:04.55	31.76	17.34	-35.1	-35.8	26.4	0.00e+00	0	37	0	970981376	48	5993
2026-01-04 15:55:08.59	32.14	17.78	-34.9	-35.6	26.5	0.00e+00	0	37	0	993001472	48	5839
2026-01-04 15:55:12.63	32.54	18.22	-34.7	-35.3	26.7	0.00e+00	0	37	0	1016070144	48	5676
2026-01-04 15:55:16.68	32.94	18.67	-34.7	-35.4	26.8	0.00e+00	0	37	0	1039138816	48	5713
2026-01-04 15:55:20.72	33.36	19.12	-34.6	-35.3	26.8	0.00e+00	0	37	0	1061158912	48	5658
2026-01-04 15:55:24.77	33.78	19.59	-34.5	-35.1	26.9	0.00e+00	0	37	0	1084227584	48	5561
2026-01-04 15:55:28.81	34.23	20.06	-34.4	-35.0	27.0	0.00e+00	0	37	0	1107296256	48	5493
2026-01-04 15:55:32.85	34.68	20.53	-34.6	-35.2	26.8	0.00e+00	0	37	0	1130364928	48	5598
2026-01-04 15:55:36.89	35.15	21.02	-34.5	-35.2	26.9	0.00e+00	0	37	0	1152385024	48	5567
2026-01-04 15:55:40.94	35.63	21.51	-34.5	-35.2	26.8	0.00e+00	0	37	0	1175453696	48	5592
2026-01-04 15:55:44.98	36.13	22.01	-34.3	-34.9	27.1	0.00e+00	0	37	0	1197473792	48	5424
2026-01-04 15:55:49.03	36.64	22.52	-34.3	-34.9	27.1	0.00e+00	0	37	0	1220542464	48	5425
2026-01-04 15:55:53.07	37.17	23.04	-34.1	-34.7	27.2	0.00e+00	0	37	0	1243611136	46	5945
2026-01-04 15:55:57.11	37.72	23.56	-33.9	-34.5	27.6	0.00e+00	0	37	0	1266679808	46	5800
2026-01-04 15:56:01.16	38.28	24.09	-33.8	-34.4	27.5	0.00e+00	0	37	0	1288699904	46	5746
2026-01-04 15:56:05.20	38.87	24.63	-33.6	-34.3	27.6	0.00e+00	0	37	0	1311768576	46	5647
2026-01-04 15:56:09.25	39.47	25.18	-33.3	-34.0	27.9	0.00e+00	0	37	0	1334837248	46	5445
2026-01-04 15:56:13.29	40.10	25.74	-33.3	-33.9	27.9	0.00e+00	0	37	0	1357905920	44	6083
2026-01-04 15:56:17.33	40.74	26.30	-33.4	-34.1	27.8	0.00e+00	0	37	0	1379926016	44	6174
2026-01-04 15:56:21.38	41.41	26.88	-33.5	-34.1	27.8	0.00e+00	0	37	0	1402994688	44	6220
2026-01-04 15:56:25.43	42.11	27.46	-33.2	-33.8	28.1	0.00e+00	0	37	0	1425014784	44	6000
2026-01-04 15:56:29.47	42.83	28.05	-33.1	-33.7	28.1	0.00e+00	0	37	0	1448083456	44	5964
2026-01-04 15:56:33.51	43.57	28.65	-33.2	-33.8	28.0	0.00e+00	0	37	0	1471152128	44	5987
2026-01-04 15:56:37.56	44.35	29.25	-33.1	-33.7	28.0	0.00e+00	0	37	0	1494220800	44	5929
2026-01-04 15:56:41.60	45.15	29.87	-33.2	-33.8	28.0	0.00e+00	0	37	0	1516240896	44	5986
2026-01-04 15:56:45.65	45.99	30.49	-33.0	-33.5	28.2	0.00e+00	0	37	0	1539309568	44	5822
2026-01-04 15:56:49.69	46.85	31.11	-33.1	-33.7	28.2	0.00e+00	0	37	0	1562378240	44	5931
2026-01-04 15:56:53.74	47.75	31.75	-33.2	-33.8	28.0	0.00e+00	0	37	0	1584398336	44	6027
2026-01-04 15:56:57.78	48.68	32.39	-32.9	-33.5	28.1	0.00e+00	0	37	0	1607467008	44	5773
2026-01-04 15:57:01.82	49.65	33.03	-32.9	-33.5	28.3	0.00e+00	0	37	0	1630535680	44	5807
2026-01-04 15:57:05.87	50.67	33.68	-33.0	-33.6	28.2	0.00e+00	0	37	0	1652555776	44	5887
2026-01-04 15:57:09.91	51.72	34.33	-32.7	-33.3	28.4	0.00e+00	0	37	0	1675624448	44	5653
2026-01-04 15:57:13.96	52.81	34.99	-32.9	-33.6	28.2	0.00e+00	0	37	0	1698693120	44	5842
2026-01-04 15:57:18.00	53.95	35.65	-32.8	-33.4	28.4	0.00e+00	0	37	0	1721761792	44	5707
2026-01-04 15:57:22.05	55.13	36.31	-32.9	-33.5	28.2	0.00e+00	0	37	0	1743781888	44	5796
2026-01-04 15:57:26.09	56.36	36.97	-32.5	-33.2	28.6	0.00e+00	0	37	0	1766850560	44	5581
2026-01-04 15:57:30.13	57.64	37.63	-32.4	-33.1	28.6	0.00e+00	0	37	0	1789919232	44	5506
2026-01-04 15:57:34.18	58.98	38.28	-32.6	-33.2	28.5	0.00e+00	0	37	0	1811939328	44	5603
2026-01-04 15:57:38.22	60.37	38.93	-32.6	-33.2	28.5	0.00e+00	0	37	0	1835008000	44	5592
2026-01-04 15:57:42.27	61.81	39.57	-32.8	-33.5	28.4	0.00e+00	0	37	0	1858076672	44	5767
2026-01-04 15:57:46.31	63.31	40.21	-32.7	-33.4	28.3	0.00e+00	0	37	0	1880096768	44	5703
2026-01-04 15:57:50.36	64.87	40.83	-32.7	-33.3	28.3	0.00e+00	0	37	0	1903165440	44	5677
2026-01-04 15:57:54.40	66.49	41.44	-32.8	-33.4	28.3	0.00e+00	0	37	0	1926234112	44	5710
2026-01-04 15:57:58.44	68.16	42.03	-32.4	-33.0	28.7	0.00e+00	0	37	0	1949302784	44	5501
2026-01-04 15:58:02.48	69.90	42.60	-32.7	-33.3	28.4	0.00e+00	0	37	0	1971322880	44	5655
2026-01-04 15:58:06.53	71.71	43.16	-32.5	-33.1	28.5	0.00e+00	0	37	0	1994391552	44	5541
2026-01-04 15:58:10.57	73.57	43.68	-32.9	-33.5	28.3	0.00e+00	0	37	0	2017460224	44	5802
2026-01-04 15:58:14.62	75.49	44.19	-32.9	-33.5	28.3	0.00e+00	0	37	0	2039480320	44	5793
2026-01-04 15:58:18.66	77.48	44.66	-33.4	-34.0	27.9	0.00e+00	0	37	0	2062548992	44	6124
2026-01-04 15:58:22.71	79.52	45.10	-32.9	-33.5	28.3	0.00e+00	0	37	0	2085617664	44	5772
2026-01-04 15:58:26.75	81.61	45.50	-32.9	-33.5	28.2	0.00e+00	0	37	0	2107637760	44	5815
2026-01-04 15:58:30.80	83.76	45.86	-33.1	-33.6	28.1	0.00e+00	0	37	0	2130706432	44	5885
2026-01-04 15:58:34.84	85.95	46.19	-32.9	-33.5	28.2	0.00e+00	0	37	0	2153775104	44	5795
2026-01-04 15:58:38.88	88.18	46.47	-32.8	-33.4	28.4	0.00e+00	0	37	0	2175795200	44	5753
2026-01-04 15:58:42.93	90.46	46.70	-32.8	-33.4	28.4	0.00e+00	0	37	0	2198863872	44	5716
2026-01-04 15:58:46.97	92.76	46.88	-33.1	-33.8	28.2	0.00e+00	0	37	0	2221932544	44	5977
2026-01-04 15:58:51.02	95.09	47.02	-33.2	-33.8	28.0	0.00e+00	0	37	0	2245001216	44	6017
2026-01-04 15:58:55.06	97.43	47.11	-32.8	-33.5	28.4	0.00e+00	0	37	0	2267021312	44	5777
2026-01-04 15:58:59.11	99.78	47.14	-33.1	-33.7	28.1	0.00e+00	0	37	0	2290089984	44	5939
2026-01-04 15:59:03.15	102.14	47.12	-32.7	-33.4	28.4	0.00e+00	0	37	0	2313158656	44	5714
2026-01-04 15:59:07.19	104.48	47.06	-32.9	-33.6	28.2	0.00e+00	0	37	0	2335178752	44	5866
2026-01-04 15:59:11.24	106.82	46.94	-33.0	-33.5	28.0	0.00e+00	0	37	0	2358247424	44	5825
2026-01-04 15:59:15.28	109.13	46.77	-33.0	-33.7	28.1	0.00e+00	0	37	0	2381316096	44	5927
2026-01-04 15:59:19.33	111.42	46.55	-33.1	-33.7	28.3	0.00e+00	0	37	0	2403336192	44	5939
2026-01-04 15:59:23.37	113.67	46.28	-33.0	-33.6	28.2	0.00e+00	0	37	0	2426404864	44	5892
2026-01-04 15:59:27.42	115.88	45.97	-33.3	-33.9	28.0	0.00e+00	0	37	0	2449473536	44	6064
2026-01-04 15:59:31.46	118.04	45.62	-33.3	-33.9	27.9	0.00e+00	0	37	0	2472542208	44	6076
2026-01-04 15:59:35.50	120.16	45.23	-34.0	-34.7	27.4	0.00e+00	0	37	0	2494562304	44	6647
2026-01-04 15:59:39.55	122.22	44.80	-34.1	-34.7	27.6	0.00e+00	0	37	0	2517630976	46	5912
2026-01-04 15:59:43.59	124.22	44.34	-33.2	-33.9	28.0	0.00e+00	0	37	0	2540699648	44	6054
2026-01-04 15:59:47.64	126.18	43.85	-33.5	-34.1	28.0	0.00e+00	0	37	0	2562719744	44	6245
2026-01-04 15:59:51.68	128.06	43.33	-33.5	-34.1	28.0	0.00e+00	0	37	0	2585788416	46	5549
2026-01-04 15:59:55.72	129.89	42.78	-33.0	-33.6	28.2	0.00e+00	0	37	0	2608857088	44	5874
2026-01-04 15:59:59.77	131.65	42.21	-33.2	-33.8	28.1	0.00e+00	0	37	0	2630877184	44	5977
2026-01-04 16:00:03.81	133.35	41.62	-32.8	-33.4	28.4	0.00e+00	0	37	0	2653945856	44	5721
2026-01-04 16:00:07.86	135.00	41.01	-33.0	-33.5	28.2	0.00e+00	0	37	0	2677014528	44	5808
2026-01-04 16:00:11.90	136.58	40.39	-32.7	-33.4	28.4	0.00e+00	0	37	0	2700083200	44	5711
2026-01-04 16:00:15.94	138.10	39.76	-33.1	-33.6	28.2	0.00e+00	0	37	0	2722103296	44	5885
2026-01-04 16:00:19.99	139.57	39.12	-32.8	-33.4	28.5	0.00e+00	0	37	0	2745171968	44	5716
2026-01-04 16:00:24.03	140.98	38.47	-32.8	-33.5	28.4	0.00e+00	0	37	0	2767192064	44	5781
2026-01-04 16:00:28.08	142.33	37.81	-32.5	-33.0	28.5	0.00e+00	0	37	0	2790260736	44	5500
2026-01-04 16:00:32.12	143.63	37.15	-32.5	-33.1	28.5	0.00e+00	0	37	0	2813329408	44	5520
2026-01-04 16:00:36.17	144.89	36.49	-32.4	-32.9	28.7	0.00e+00	0	37	0	2836398080	44	5424
2026-01-04 16:00:40.21	146.09	35.83	-33.0	-33.7	28.0	0.00e+00	0	37	0	2858418176	44	5938
2026-01-04 16:00:44.26	147.24	35.16	-32.6	-33.2	28.4	0.00e+00	0	37	0	2881486848	44	5585
2026-01-04 16:00:48.30	148.35	34.50	-32.6	-33.3	28.4	0.00e+00	0	37	0	2904555520	44	5670
2026-01-04 16:00:52.35	149.42	33.84	-32.7	-33.3	28.4	0.00e+00	0	37	0	2927624192	44	5636
2026-01-04 16:00:56.39	150.44	33.19	-33.2	-33.8	28.1	0.00e+00	0	37	0	2949644288	44	5988
2026-01-04 16:01:00.43	151.43	32.54	-33.0	-33.6	28.2	0.00e+00	0	37	0	2972712960	44	5834
2026-01-04 16:01:04.47	152.38	31.90	-32.8	-33.5	28.2	0.00e+00	0	37	0	2994733056	44	5776
2026-01-04 16:01:08.52	153.29	31.26	-32.8	-33.4	28.1	0.00e+00	0	37	0	3017801728	44	5723
2026-01-04 16:01:12.56	154.17	30.62	-32.9	-33.5	28.2	0.00e+00	0	37	0	3040870400	44	5763
2026-01-04 16:01:16.61	155.01	30.00	-32.9	-33.6	28.3	0.00e+00	0	37	0	3063939072	44	5835
2026-01-04 16:01:20.65	155.83	29.38	-32.8	-33.4	28.3	0.00e+00	0	37	0	3085959168	44	5712
2026-01-04 16:01:24.70	156.61	28.77	-33.0	-33.7	28.1	0.00e+00	0	37	0	3109027840	44	5956
2026-01-04 16:01:28.74	157.37	28.16	-33.4	-34.0	27.9	0.00e+00	0	37	0	3132096512	44	6144
2026-01-04 16:01:32.78	158.09	27.57	-33.0	-33.7	28.2	0.00e+00	0	37	0	3154116608	44	5917
2026-01-04 16:01:36.83	158.80	26.98	-33.0	-33.7	28.1	0.00e+00	0	37	0	3177185280	44	5924
2026-01-04 16:01:40.87	159.47	26.40	-33.0	-33.5	28.3	0.00e+00	0	37	0	3200253952	44	5806
2026-01-04 16:01:44.92	160.13	25.83	-33.1	-33.7	28.1	0.00e+00	0	37	0	3222274048	44	5923
2026-01-04 16:01:48.96	160.76	25.27	-33.3	-33.9	27.9	0.00e+00	0	37	0	3245342720	44	6043
2026-01-04 16:01:53.01	161.37	24.71	-33.1	-33.9	27.9	0.00e+00	0	37	0	3268411392	44	6035
2026-01-04 16:01:57.05	161.96	24.17	-33.1	-33.8	28.1	0.00e+00	0	37	0	3291480064	44	6022
2026-01-04 16:02:01.10	162.54	23.63	-33.3	-33.9	27.9	0.00e+00	0	37	0	3313500160	44	6049
2026-01-04 16:02:05.14	163.09	23.10	-33.4	-34.1	27.8	0.00e+00	0	37	0	3336568832	44	6221
2026-01-04 16:02:09.19	163.62	22.58	-33.6	-34.2	27.7	0.00e+00	0	37	0	3358588928	44	6267
2026-01-04 16:02:13.23	164.14	22.06	-33.8	-34.3	27.5	0.00e+00	0	37	0	3381657600	44	6377
2026-01-04 16:02:17.28	164.64	21.56	-34.0	-34.6	27.3	0.00e+00	0	37	0	3404726272	44	6600
2026-01-04 16:02:21.32	165.13	21.06	-34.3	-34.9	27.2	0.00e+00	0	37	0	3427794944	46	6068
2026-01-04 16:02:25.36	165.60	20.57	-34.0	-34.7	27.2	0.00e+00	0	37	0	3449815040	46	5960
2026-01-04 16:02:29.41	166.06	20.09	-34.0	-34.6	27.4	0.00e+00	0	37	0	3472883712	46	5836
2026-01-04 16:02:33.45	166.50	19.61	-34.1	-34.7	27.2	0.00e+00	0	37	0	3495952384	46	5941
2026-01-04 16:02:37.50	166.94	19.15	-34.4	-35.0	27.0	0.00e+00	0	37	0	3519021056	46	6106
2026-01-04 16:02:41.54	167.35	18.69	-34.4	-35.1	27.0	0.00e+00	0	37	0	3541041152	46	6199
2026-01-04 16:02:45.58	167.76	18.23	-34.6	-35.2	26.8	0.00e+00	0	37	0	3564109824	46	6258
2026-01-04 16:02:49.63	168.16	17.79	-34.7	-35.2	26.7	0.00e+00	0	37	0	3586129920	46	6300
2026-01-04 16:02:53.67	168.54	17.35	-34.8	-35.4	26.6	0.00e+00	0	37	0	3609198592	46	6413
2026-01-04 16:02:57.72	168.92	16.91	-35.0	-35.6	26.4	0.00e+00	0	37	0	3632267264	46	6558
2026-01-04 16:03:01.76	169.28	16.49	-35.1	-35.7	26.3	0.00e+00	0	37	0	3655335936	48	5942
2026-01-04 16:03:05.81	169.63	16.07	-35.1	-35.8	26.3	0.00e+00	0	37	0	3677356032	48	5983
2026-01-04 16:03:09.85	169.98	15.65	-35.2	-35.8	26.2	0.00e+00	0	37	0	3700424704	48	6031
2026-01-04 16:03:13.90	170.32	15.25	-35.5	-36.1	25.9	0.00e+00	0	37	0	3723493376	48	6234
2026-01-04 16:03:17.94	170.64	14.84	-35.7	-36.3	25.8	0.00e+00	0	37	0	3746562048	48	6330
2026-01-04 16:03:21.98	170.96	14.45	-35.9	-36.7	25.5	0.00e+00	0	37	0	3768582144	48	6624
2026-01-04 16:03:26.03	171.27	14.06	-35.9	-36.6	25.5	0.00e+00	0	37	0	3791650816	48	6588
2026-01-04 16:03:30.07	171.58	13.67	-36.0	-36.8	25.5	0.00e+00	0	37	0	3813670912	48	6711
2026-01-04 16:03:34.12	171.87	13.29	-36.0	-36.6	25.4	0.00e+00	0	37	0	3836739584	48	6612
2026-01-04 16:03:38.16	172.16	12.92	-36.2	-37.0	25.2	0.00e+00	0	37	0	3859808256	50	6122
2026-01-04 16:03:42.20	172.45	12.55	-36.8	-37.5	24.6	0.00e+00	0	37	0	3882876928	50	6483
2026-01-04 16:03:46.25	172.72	12.18	-36.3	-37.1	25.1	0.00e+00	0	37	0	3904897024	50	6187
2026-01-04 16:03:50.29	172.99	11.82	-36.4	-37.0	25.0	0.00e+00	0	37	0	3927965696	50	6154
2026-01-04 16:03:54.34	173.26	11.47	-36.4	-37.0	24.9	0.00e+00	0	37	0	3951034368	50	6151
2026-01-04 16:03:58.38	173.51	11.12	-36.4	-37.0	24.9	0.00e+00	0	37	0	3973054464	50	6172
2026-01-04 16:04:02.42	173.77	10.77	-36.5	-37.2	24.8	0.00e+00	0	37	0	3996123136	50	6308
2026-01-04 16:04:06.47	174.01	10.43	-36.3	-37.0	25.0	0.00e+00	0	37	0	4019191808	50	6137
2026-01-04 16:04:10.51	174.25	10.09	-36.5	-37.1	24.8	0.00e+00	0	37	0	4041211904	50	6242
2026-01-04 16:04:14.56	174.49	9.76	-36.8	-37.6	24.5	0.00e+00	0	37	0	4064280576	50	6557
2026-01-04 16:04:18.60	174.72	9.43	-36.8	-37.5	24.5	0.00e+00	0	37	0	4087349248	50	6475
2026-01-04 16:04:22.65	174.95	9.11	-36.8	-37.5	24.5	0.00e+00	0	37	0	4110417920	50	6487
2026-01-04 16:04:26.69	175.17	8.79	-37.0	-37.6	24.3	0.00e+00	0	37	0	4132438016	50	6604
2026-01-04 16:04:30.73	175.39	8.47	-37.1	-37.7	24.3	0.00e+00	0	37	0	4155506688	52	5936
2026-01-04 16:04:34.78	175.60	8.15	-37.1	-37.7	24.2	0.00e+00	0	37	0	4178575360	52	5934
2026-01-04 16:04:38.82	175.81	7.84	-37.2	-38.0	24.1	0.00e+00	0	37	0	4200595456	52	6152
2026-01-04 16:04:42.87	176.01	7.54	-37.4	-38.1	23.9	0.00e+00	0	37	0	4223664128	52	6226
2026-01-04 16:04:46.91	176.21	7.23	-37.3	-38.0	23.9	0.00e+00	0	37	0	4246732800	52	6139
2026-01-04 16:04:50.96	176.41	6.93	-37.7	-38.5	23.6	0.00e+00	0	37	0	4268752896	52	6508
2026-01-04 16:04:55.00	176.60	6.64	-37.7	-38.4	23.5	0.00e+00	0	37	0	4291821568	52	6412
2026-01-04 16:04:59.04	176.79	6.34	-38.0	-38.8	23.2	0.00e+00	0	37	0	4314890240	52	6755
2026-01-04 16:05:03.09	176.98	6.05	-37.9	-38.6	23.3	0.00e+00	0	37	0	4337958912	54	5852
2026-01-04 16:05:07.13	177.16	5.76	-37.9	-38.5	23.3	0.00e+00	0	37	0	4359979008	54	5825
2026-01-04 16:05:11.18	177.34	5.48	-38.2	-38.9	22.9	0.00e+00	0	37	0	4383047680	54	6081
2026-01-04 16:05:15.22	177.52	5.20	-38.1	-39.0	22.9	0.00e+00	0	37	0	4406116352	54	6108
2026-01-04 16:05:19.26	177.69	4.92	-38.8	-39.5	22.3	0.00e+00	0	37	0	4428136448	54	6516
2026-01-04 16:05:23.31	177.86	4.64	-39.4	-40.2	22.2	0.00e+00	0	37	0	4451205120	56	6264
2026-01-04 16:05:27.35	178.03	4.37	-39.8	-40.7	21.3	0.00e+00	0	37	0	4474273792	58	5959
2026-01-04 16:05:31.39	178.19	4.10	-39.6	-40.5	21.7	0.00e+00	0	37	0	4496293888	58	5800
2026-01-04 16:05:35.44	178.35	3.83	-38.8	-39.6	22.1	0.00e+00	0	37	0	4519362560	56	5879
2026-01-04 16:05:39.48	178.51	3.56	-38.8	-39.7	22.3	0.00e+00	0	37	0	4542431232	56	5913
2026-01-04 16:05:43.53	178.67	3.30	-39.2	-40.0	21.7	0.00e+00	0	37	0	4564451328	56	6114
2026-01-04 16:05:47.57	178.82	3.04	-39.4	-40.3	21.4	0.00e+00	0	37	0	4587520000	56	6387
2026-01-04 16:05:51.62	178.97	2.78	-39.0	-39.9	21.8	0.00e+00	0	37	0	4610588672	56	6051
2026-01-04 16:05:55.66	179.12	2.52	-51.2	-63.6	3.6	8.46e-01	0	37	104	4622123008	60	73557
2026-01-04 16:05:59.70	179.27	2.27	-51.7	-64.0	3.6	8.47e-01	0	37	104	4622123008	60	77630
2026-01-04 16:06:03.75	179.41	2.01	-51.7	-64.1	3.6	8.46e-01	0	37	104	4622123008	60	78106
2026-01-04 16:06:07.79	179.55	1.76	-51.7	-64.0	3.6	8.44e-01	0	37	104	4622123008	60	77489
2026-01-04 16:06:11.84	179.69	1.51	-51.6	-64.1	3.6	8.46e-01	0	37	104	4622123008	60	77758
2026-01-04 16:06:15.88	179.83	1.27	-51.7	-64.0	3.6	8.46e-01	0	37	104	4622123008	60	77587
2026-01-04 16:06:19.93	179.97	1.02	-51.7	-64.1	3.6	8.46e-01	0	37	104	4622123008	60	78521
2026-01-04 16:06:23.97	180.10	0.78	-51.8	-64.2	3.6	8.46e-01	0	37	104	4622123008	60	78730
2026-01-04 16:06:28.02	180.23	0.54	-51.8	-64.2	3.6	8.45e-01	0	37	104	4622123008	60	78788
2026-01-04 16:06:32.06	180.36	0.30	-51.8	-64.2	3.6	8.45e-01	0	37	104	4622123008	60	79153
2026-01-04 16:06:36.11	180.49	0.06	-51.7	-64.2	3.6	8.45e-01	0	37	104	4622123008	60	78691

#Closed at: 2026-01-04 16:06:39
#Recorded file [4622 MB]: D:/lorett/data/35034_260104_185122.dat