passes_logs/2026/01/06/R4.6S_Anadyr/R4.6S_Anadyr__20260106_191233_SUOMI_NPP_rec.log

#Pass ID: 20260106_191233_SUOMI NPP
#Satellite: SUOMI NPP
#Configuration: NPP
#almurnet v.1.7.20251203
#Start time: 2026-01-06 19:12:39

#Version: 2.2.20231116
#Station: R4.6S_Anadyr
#Location: 177.4865 lon 64.73178 lat
#TLE: 1 37849U 11061A   26004.95404768  .00000136  00000+0  85334-4 0  9991
#TLE: 2 37849  98.7801 307.0898 0002575  80.6707 279.4760 14.19522289735281

#Time	Az	El	Level	Level2	SNR	BER	BlckErr	Temp	State	Recorded	gain1	gain2
2026-01-06 19:12:39.79	48.65	0.31	-48.5	-63.6	3.5	1.51e+00	0	32	104	0	60	54975
2026-01-06 19:12:42.81	48.42	0.45	-48.5	-63.7	3.6	1.51e+00	0	32	104	0	60	55173
2026-01-06 19:12:45.84	48.19	0.60	-48.5	-63.7	3.6	1.51e+00	0	32	104	0	60	55221
2026-01-06 19:12:48.87	47.95	0.75	-48.4	-63.7	3.6	1.51e+00	0	32	104	0	60	55242
2026-01-06 19:12:51.90	47.71	0.90	-48.4	-63.7	3.5	1.51e+00	0	32	104	0	60	55057
2026-01-06 19:12:54.93	47.47	1.05	-48.4	-63.7	3.6	1.51e+00	0	32	104	0	60	55117
2026-01-06 19:12:57.96	47.23	1.20	-48.5	-63.7	3.6	1.51e+00	0	32	104	0	60	55029
2026-01-06 19:13:00.99	46.98	1.35	-48.5	-63.6	3.6	1.51e+00	0	32	104	0	60	54905
2026-01-06 19:13:04.02	46.73	1.50	-48.5	-63.7	3.6	1.51e+00	0	32	104	0	60	55197
2026-01-06 19:13:07.05	46.48	1.65	-48.5	-63.7	3.6	1.51e+00	0	32	104	0	60	55224
2026-01-06 19:13:10.08	46.22	1.80	-48.5	-63.6	3.6	1.51e+00	0	33	104	0	60	54990
2026-01-06 19:13:13.11	45.97	1.95	-48.5	-63.7	3.6	1.51e+00	0	32	104	0	60	55039
2026-01-06 19:13:16.14	45.70	2.10	-48.5	-63.6	3.6	1.51e+00	0	32	104	0	60	54988
2026-01-06 19:13:19.16	45.44	2.25	-48.5	-63.7	3.6	1.51e+00	0	33	104	0	60	55136
2026-01-06 19:13:22.19	45.18	2.40	-48.5	-63.7	3.6	1.51e+00	0	33	104	0	60	55127
2026-01-06 19:13:25.22	44.91	2.55	-48.5	-63.7	3.6	1.51e+00	0	33	104	0	60	55211
2026-01-06 19:13:28.25	44.64	2.70	-48.5	-63.7	3.6	1.51e+00	0	33	104	0	60	55498
2026-01-06 19:13:31.29	44.36	2.86	-48.5	-63.7	3.6	1.51e+00	0	33	104	0	60	55063
2026-01-06 19:13:34.32	44.08	3.01	-48.5	-63.7	3.6	1.51e+00	0	33	104	0	60	55302
2026-01-06 19:13:37.35	43.80	3.16	-48.5	-63.7	3.6	1.51e+00	0	33	104	0	60	55148
2026-01-06 19:13:40.37	43.52	3.31	-48.5	-63.6	3.6	1.51e+00	0	33	104	0	60	54780
2026-01-06 19:13:43.40	43.24	3.46	-48.5	-63.7	3.6	1.51e+00	0	33	104	0	60	55377
2026-01-06 19:13:46.43	42.95	3.62	-48.5	-63.6	3.6	1.51e+00	0	33	104	0	60	54940
2026-01-06 19:13:49.46	42.65	3.77	-48.4	-63.6	3.6	1.51e+00	0	33	104	0	60	55015
2026-01-06 19:13:52.49	42.36	3.92	-48.5	-63.7	3.6	1.51e+00	0	33	104	0	60	55481
2026-01-06 19:13:55.52	42.06	4.08	-48.5	-63.7	3.6	1.51e+00	0	33	104	0	60	55059
2026-01-06 19:13:58.55	41.76	4.23	-48.5	-63.7	3.6	1.51e+00	0	33	104	0	60	55105
2026-01-06 19:14:01.58	41.45	4.38	-48.5	-63.6	3.6	1.51e+00	0	33	104	0	60	54974
2026-01-06 19:14:04.61	41.14	4.54	-48.5	-63.7	3.6	1.51e+00	0	33	104	0	60	55112
2026-01-06 19:14:07.64	40.83	4.69	-48.4	-63.7	3.6	1.51e+00	0	33	104	0	60	55086
2026-01-06 19:14:10.67	40.51	4.85	-48.4	-63.7	3.6	1.51e+00	0	33	104	0	60	55132
2026-01-06 19:14:13.70	40.19	5.00	-48.4	-63.6	3.6	1.51e+00	0	33	104	0	60	54857
2026-01-06 19:14:16.73	39.87	5.15	-48.5	-63.7	3.6	1.51e+00	0	33	104	0	60	55104
2026-01-06 19:14:19.76	39.54	5.31	-48.5	-63.7	3.6	1.51e+00	0	33	104	0	60	55034
2026-01-06 19:14:22.79	39.22	5.46	-48.4	-63.6	3.6	1.51e+00	0	33	104	0	60	54442
2026-01-06 19:14:25.82	38.88	5.62	-48.4	-63.6	3.6	1.51e+00	0	33	104	0	60	54744
2026-01-06 19:14:28.85	38.54	5.77	-48.4	-63.6	3.6	1.51e+00	0	33	104	0	60	54973
2026-01-06 19:14:31.88	38.20	5.92	-48.4	-63.6	3.6	1.51e+00	0	33	104	0	60	54905
2026-01-06 19:14:34.91	37.86	6.08	-48.4	-63.6	3.6	1.51e+00	0	33	104	0	60	54797
2026-01-06 19:14:37.94	37.51	6.23	-48.4	-63.6	3.6	1.51e+00	0	33	104	0	60	54860
2026-01-06 19:14:40.96	37.16	6.38	-48.5	-63.6	3.6	1.51e+00	0	33	104	0	60	54956
2026-01-06 19:14:43.99	36.80	6.54	-48.5	-63.6	3.6	1.51e+00	0	33	104	0	60	54807
2026-01-06 19:14:47.02	36.45	6.69	-48.5	-63.7	3.6	1.51e+00	0	33	104	0	60	55088
2026-01-06 19:14:50.05	36.08	6.84	-48.4	-63.6	3.6	1.51e+00	0	33	104	0	60	54615
2026-01-06 19:14:53.08	35.71	7.00	-48.4	-63.6	3.6	1.51e+00	0	33	104	0	60	54677
2026-01-06 19:14:56.10	35.34	7.15	-48.4	-63.6	3.6	1.51e+00	0	33	104	0	60	55005
2026-01-06 19:14:59.13	34.97	7.30	-48.4	-63.6	3.6	1.51e+00	0	33	104	0	60	54836
2026-01-06 19:15:02.16	34.59	7.45	-48.5	-63.7	3.6	1.51e+00	0	33	104	0	60	55223
2026-01-06 19:15:05.19	34.21	7.61	-48.4	-63.7	3.6	1.51e+00	0	33	104	0	60	55027
2026-01-06 19:15:08.21	33.82	7.76	-48.4	-63.6	3.6	1.51e+00	0	33	104	0	60	54811
2026-01-06 19:15:11.24	33.43	7.91	-48.4	-63.6	3.6	1.51e+00	0	33	104	0	60	54881
2026-01-06 19:15:14.27	33.03	8.06	-48.4	-63.6	3.6	1.51e+00	0	33	104	0	60	54785
2026-01-06 19:15:17.30	32.63	8.21	-48.4	-63.6	3.6	1.51e+00	0	33	104	0	60	54858
2026-01-06 19:15:20.33	32.23	8.36	-48.4	-63.7	3.6	1.51e+00	0	33	104	0	60	55078
2026-01-06 19:15:23.36	31.82	8.51	-48.3	-63.6	3.6	1.51e+00	0	33	104	0	60	54992
2026-01-06 19:15:26.39	31.40	8.66	-48.3	-63.6	3.6	1.51e+00	0	33	104	0	60	54709
2026-01-06 19:15:29.42	30.99	8.81	-48.3	-63.6	3.6	1.51e+00	0	33	104	0	60	54655
2026-01-06 19:15:32.45	30.56	8.96	-48.3	-63.6	3.6	1.51e+00	0	33	104	0	60	54750
2026-01-06 19:15:35.48	30.14	9.10	-48.4	-63.6	3.6	1.51e+00	0	33	104	0	60	55015
2026-01-06 19:15:38.52	29.71	9.25	-48.4	-63.6	3.6	1.51e+00	0	33	104	0	60	54900
2026-01-06 19:15:41.55	29.27	9.40	-48.3	-63.6	3.6	1.51e+00	0	33	104	0	60	54902
2026-01-06 19:15:44.58	28.83	9.54	-48.3	-63.6	3.6	1.51e+00	0	33	104	0	60	54990
2026-01-06 19:15:47.60	28.39	9.69	-48.4	-63.6	3.6	1.51e+00	0	33	104	0	60	54727
2026-01-06 19:15:50.63	27.94	9.83	-48.4	-63.6	3.6	1.51e+00	0	33	104	0	60	54770
2026-01-06 19:15:53.66	27.49	9.97	-48.4	-63.6	3.6	1.51e+00	0	33	104	0	60	54822
2026-01-06 19:15:56.69	27.03	10.11	-48.4	-63.6	3.6	1.51e+00	0	33	104	0	60	54770
2026-01-06 19:15:59.72	26.57	10.25	-48.4	-63.6	3.6	1.51e+00	0	33	104	0	60	54744
2026-01-06 19:16:02.75	26.10	10.39	-48.4	-63.6	3.6	1.51e+00	0	33	104	0	60	54778
2026-01-06 19:16:05.78	25.63	10.53	-48.4	-63.6	3.6	1.51e+00	0	33	104	0	60	54619
2026-01-06 19:16:08.81	25.16	10.67	-48.4	-63.6	3.6	1.51e+00	0	33	104	0	60	54682
2026-01-06 19:16:11.84	24.68	10.81	-48.4	-63.6	3.6	1.51e+00	0	33	104	0	60	54644
2026-01-06 19:16:14.86	24.19	10.94	-48.4	-63.6	3.6	1.51e+00	0	33	104	0	60	54581
2026-01-06 19:16:17.89	23.70	11.07	-48.4	-63.6	3.6	1.51e+00	0	33	104	0	60	54712
2026-01-06 19:16:20.91	23.21	11.21	-48.4	-63.6	3.6	1.51e+00	0	33	104	0	60	54683
2026-01-06 19:16:23.94	22.71	11.34	-48.4	-63.6	3.6	1.51e+00	0	33	104	0	60	54683
2026-01-06 19:16:26.97	22.21	11.47	-48.4	-63.6	3.6	1.51e+00	0	33	104	0	60	54463
2026-01-06 19:16:30.00	21.70	11.59	-48.4	-63.6	3.6	1.51e+00	0	33	104	0	60	54540
2026-01-06 19:16:33.02	21.19	11.72	-48.4	-63.6	3.6	1.51e+00	0	33	104	0	60	54588
2026-01-06 19:16:36.05	20.68	11.85	-48.4	-63.6	3.5	1.51e+00	0	33	104	0	60	54672
2026-01-06 19:16:39.09	20.15	11.97	-48.4	-63.6	3.6	1.51e+00	0	33	104	0	60	54626
2026-01-06 19:16:42.11	19.63	12.09	-48.4	-63.5	3.6	1.51e+00	0	33	104	0	60	54198
2026-01-06 19:16:45.15	19.10	12.21	-48.4	-63.6	3.6	1.51e+00	0	33	104	0	60	54702
2026-01-06 19:16:48.17	18.57	12.33	-48.4	-63.6	3.6	1.51e+00	0	34	104	0	60	54459
2026-01-06 19:16:51.20	18.03	12.44	-48.4	-63.6	3.6	1.51e+00	0	33	104	0	60	54498
2026-01-06 19:16:54.23	17.49	12.56	-48.4	-63.6	3.6	1.51e+00	0	33	104	0	60	54566
2026-01-06 19:16:57.26	16.94	12.67	-48.4	-63.6	3.6	1.51e+00	0	33	104	0	60	54607
2026-01-06 19:17:00.29	16.39	12.78	-48.4	-63.6	3.6	1.51e+00	0	34	104	0	60	54559
2026-01-06 19:17:03.31	15.83	12.89	-48.4	-63.6	3.6	1.51e+00	0	34	104	0	60	54691
2026-01-06 19:17:06.34	15.28	12.99	-48.4	-63.6	3.6	1.51e+00	0	33	104	0	60	54585
2026-01-06 19:17:09.38	14.71	13.10	-48.4	-63.5	3.5	1.51e+00	0	34	104	0	60	54364
2026-01-06 19:17:12.41	14.14	13.20	-48.4	-63.5	3.6	1.51e+00	0	33	104	0	60	54196
2026-01-06 19:17:15.43	13.57	13.30	-48.4	-63.5	3.6	1.51e+00	0	34	104	0	60	54214
2026-01-06 19:17:18.46	13.00	13.39	-48.4	-63.5	3.6	1.51e+00	0	33	104	0	60	54250
2026-01-06 19:17:21.49	12.42	13.49	-48.4	-63.5	3.6	1.51e+00	0	34	104	0	60	54388
2026-01-06 19:17:24.52	11.84	13.58	-48.4	-63.5	3.6	1.51e+00	0	34	104	0	60	54227
2026-01-06 19:17:27.55	11.25	13.66	-48.4	-63.5	3.6	1.51e+00	0	33	104	0	60	54388
2026-01-06 19:17:30.57	10.67	13.75	-48.3	-63.5	3.6	1.51e+00	0	33	104	0	60	54140
2026-01-06 19:17:33.60	10.07	13.83	-48.3	-63.5	3.6	1.51e+00	0	33	104	0	60	54006
2026-01-06 19:17:36.63	9.48	13.91	-48.3	-63.5	3.6	1.51e+00	0	34	104	0	60	54335
2026-01-06 19:17:39.66	8.88	13.99	-48.3	-63.5	3.6	1.51e+00	0	33	104	0	60	54215
2026-01-06 19:17:42.69	8.27	14.07	-48.3	-63.5	3.6	1.51e+00	0	33	104	0	60	54086
2026-01-06 19:17:45.72	7.67	14.14	-48.3	-63.5	3.6	1.51e+00	0	33	104	0	60	53990
2026-01-06 19:17:48.75	7.06	14.20	-48.3	-63.5	3.6	1.51e+00	0	34	104	0	60	53910
2026-01-06 19:17:51.77	6.45	14.27	-48.3	-63.5	3.6	1.51e+00	0	34	104	0	60	53952
2026-01-06 19:17:54.80	5.84	14.33	-48.3	-63.5	3.6	1.51e+00	0	33	104	0	60	54073
2026-01-06 19:17:57.83	5.22	14.39	-48.3	-63.5	3.6	1.51e+00	0	33	104	0	60	53888
2026-01-06 19:18:00.85	4.60	14.45	-48.3	-63.5	3.6	1.51e+00	0	34	104	0	60	53784
2026-01-06 19:18:03.88	3.98	14.50	-48.3	-63.5	3.6	1.51e+00	0	33	104	0	60	54002
2026-01-06 19:18:06.90	3.36	14.55	-48.3	-63.5	3.6	1.51e+00	0	34	104	0	60	53818
2026-01-06 19:18:09.94	2.74	14.60	-48.3	-63.4	3.6	1.51e+00	0	34	104	0	60	53719
2026-01-06 19:18:12.96	2.11	14.64	-48.2	-63.4	3.6	1.51e+00	0	34	104	0	60	53727
2026-01-06 19:18:15.99	1.48	14.68	-48.2	-63.4	3.6	1.51e+00	0	34	104	0	60	53763
2026-01-06 19:18:19.02	0.85	14.71	-48.2	-63.4	3.6	1.51e+00	0	33	104	0	60	53362
2026-01-06 19:18:22.05	0.22	14.75	-48.2	-63.4	3.6	1.51e+00	0	33	104	0	60	53495
2026-01-06 19:18:25.07	359.59	14.78	-48.2	-63.4	3.6	1.51e+00	0	34	104	0	60	53589
2026-01-06 19:18:28.10	358.95	14.80	-48.2	-63.4	3.6	1.51e+00	0	34	104	0	60	53518
2026-01-06 19:18:31.13	358.32	14.82	-48.2	-63.4	3.6	1.51e+00	0	34	104	0	60	53454
2026-01-06 19:18:34.16	357.68	14.84	-48.2	-63.4	3.6	1.51e+00	0	34	104	0	60	53391
2026-01-06 19:18:37.19	357.04	14.86	-48.2	-63.4	3.6	1.51e+00	0	34	104	0	60	53229
2026-01-06 19:18:40.22	356.41	14.87	-48.2	-63.4	3.6	1.51e+00	0	34	104	0	60	53432
2026-01-06 19:18:43.25	355.77	14.88	-48.2	-63.3	3.6	1.51e+00	0	34	104	0	60	52988
2026-01-06 19:18:46.28	355.13	14.88	-48.2	-63.4	3.6	1.51e+00	0	34	104	0	60	53211
2026-01-06 19:18:49.31	354.49	14.88	-48.2	-63.3	3.6	1.51e+00	0	34	104	0	60	53089
2026-01-06 19:18:52.34	353.85	14.88	-48.1	-63.3	3.6	1.51e+00	0	34	104	0	60	53111
2026-01-06 19:18:55.37	353.21	14.87	-48.1	-63.3	3.6	1.51e+00	0	34	104	0	60	52903
2026-01-06 19:18:58.39	352.58	14.86	-48.1	-63.3	3.6	1.51e+00	0	34	104	0	60	52744
2026-01-06 19:19:01.42	351.94	14.85	-48.1	-63.3	3.6	1.51e+00	0	34	104	0	60	52832
2026-01-06 19:19:04.45	351.30	14.83	-48.1	-63.3	3.6	1.51e+00	0	34	104	0	60	52726
2026-01-06 19:19:07.48	350.67	14.81	-48.1	-63.2	3.6	1.51e+00	0	34	104	0	60	52462
2026-01-06 19:19:10.51	350.03	14.79	-48.1	-63.2	3.6	1.51e+00	0	34	104	0	60	52337
2026-01-06 19:19:13.54	349.40	14.76	-48.1	-63.3	3.6	1.51e+00	0	34	104	0	60	52577
2026-01-06 19:19:16.56	348.77	14.73	-48.0	-63.2	3.6	1.51e+00	0	33	104	0	60	52412
2026-01-06 19:19:19.59	348.14	14.70	-48.0	-63.2	3.6	1.51e+00	0	34	104	0	60	52235
2026-01-06 19:19:22.63	347.51	14.66	-48.0	-63.1	3.6	1.51e+00	0	34	104	0	60	51914
2026-01-06 19:19:25.66	346.88	14.62	-48.0	-63.1	3.6	1.51e+00	0	34	104	0	60	51942
2026-01-06 19:19:28.69	346.25	14.57	-48.0	-63.2	3.6	1.51e+00	0	34	104	0	60	51974
2026-01-06 19:19:31.72	345.63	14.52	-47.9	-63.2	3.6	1.51e+00	0	33	104	0	60	52008
2026-01-06 19:19:34.75	345.00	14.47	-47.9	-63.1	3.6	1.51e+00	0	34	104	0	60	51710
2026-01-06 19:19:37.78	344.38	14.42	-47.9	-63.1	3.6	1.51e+00	0	33	104	0	60	51431
2026-01-06 19:19:40.81	343.77	14.36	-47.9	-63.1	3.6	1.51e+00	0	33	104	0	60	51662
2026-01-06 19:19:43.83	343.15	14.30	-47.9	-63.1	3.6	1.51e+00	0	33	104	0	60	51457
2026-01-06 19:19:46.86	342.54	14.24	-47.9	-63.1	3.5	1.51e+00	0	34	104	0	60	51503
2026-01-06 19:19:49.89	341.93	14.17	-47.8	-63.0	3.6	1.51e+00	0	34	104	0	60	50872
2026-01-06 19:19:52.92	341.33	14.10	-47.8	-63.0	3.5	1.51e+00	0	34	104	0	60	51018
2026-01-06 19:19:55.95	340.72	14.03	-47.8	-63.0	3.6	1.51e+00	0	33	104	0	60	50778
2026-01-06 19:19:58.98	340.12	13.95	-47.7	-62.9	3.6	1.51e+00	0	34	104	0	60	50508
2026-01-06 19:20:02.01	339.52	13.87	-47.7	-62.9	3.6	1.51e+00	0	33	104	0	60	50437
2026-01-06 19:20:05.04	338.93	13.79	-47.7	-62.9	3.6	1.51e+00	0	34	104	0	60	50356
2026-01-06 19:20:08.07	338.34	13.70	-47.6	-62.8	3.6	1.51e+00	0	33	104	0	60	49910
2026-01-06 19:20:11.09	337.75	13.62	-47.6	-62.8	3.6	1.51e+00	0	33	104	0	60	50104
2026-01-06 19:20:14.12	337.17	13.53	-47.6	-62.7	3.6	1.51e+00	0	33	104	0	60	49569
2026-01-06 19:20:17.15	336.59	13.44	-47.5	-62.7	3.6	1.51e+00	0	34	104	0	60	49401
2026-01-06 19:20:20.18	336.01	13.34	-47.5	-62.7	3.6	1.51e+00	0	33	104	0	60	49050
2026-01-06 19:20:23.20	335.44	13.24	-47.5	-62.6	3.6	1.51e+00	0	34	104	0	60	48784
2026-01-06 19:20:26.24	334.87	13.14	-47.4	-62.6	3.6	1.51e+00	0	33	104	0	60	48756
2026-01-06 19:20:29.26	334.30	13.04	-47.3	-62.5	3.6	1.51e+00	0	34	104	0	60	48350
2026-01-06 19:20:32.29	333.74	12.94	-47.3	-62.4	3.6	1.51e+00	0	33	104	0	60	47905
2026-01-06 19:20:35.32	333.19	12.83	-47.2	-62.4	3.6	1.51e+00	0	34	104	0	60	47710
2026-01-06 19:20:38.35	332.63	12.72	-47.2	-62.3	3.6	1.51e+00	0	34	104	0	60	47366
2026-01-06 19:20:41.38	332.08	12.61	-47.1	-62.3	3.6	1.51e+00	0	34	104	0	60	47093
2026-01-06 19:20:44.41	331.54	12.50	-47.0	-62.2	3.6	1.51e+00	0	34	104	0	60	46414
2026-01-06 19:20:47.44	331.00	12.38	-46.9	-62.1	3.6	1.51e+00	0	34	104	0	60	46277
2026-01-06 19:20:50.46	330.47	12.27	-47.6	-62.8	3.6	1.51e+00	0	34	104	0	60	49818
2026-01-06 19:20:53.49	329.93	12.15	-48.1	-63.3	3.6	1.51e+00	0	34	104	0	60	52697
2026-01-06 19:20:56.52	329.41	12.03	-48.3	-63.5	3.6	1.51e+00	0	34	104	0	60	53910
2026-01-06 19:20:59.55	328.88	11.90	-48.5	-63.7	3.6	1.51e+00	0	34	104	0	60	55232
2026-01-06 19:21:02.58	328.36	11.78	-48.5	-63.8	3.6	1.51e+00	0	34	104	0	60	55730
2026-01-06 19:21:05.61	327.85	11.65	-48.3	-63.8	3.6	1.51e+00	0	34	104	0	60	55784
2026-01-06 19:21:08.64	327.34	11.53	-48.5	-63.8	3.6	1.51e+00	0	34	104	0	60	55971
2026-01-06 19:21:11.68	326.83	11.40	-48.3	-63.7	3.6	1.51e+00	0	33	104	0	60	55400
2026-01-06 19:21:14.70	326.34	11.27	-48.4	-63.6	3.6	1.51e+00	0	33	104	0	60	54966
2026-01-06 19:21:17.73	325.84	11.13	-48.4	-63.5	3.6	1.51e+00	0	34	104	0	60	54328
2026-01-06 19:21:20.76	325.35	11.00	-41.6	-43.2	18.6	3.45e-02	0	34	0	0	54	7373
2026-01-06 19:21:23.79	324.86	10.87	-40.1	-41.4	18.8	0.00e+00	92	33	0	5242880	54	6005
2026-01-06 19:21:26.82	324.38	10.73	-42.1	-43.7	18.6	3.17e-03	0	33	0	7340032	60	5523
2026-01-06 19:21:29.84	323.90	10.60	-39.6	-40.8	20.9	0.00e+00	0	33	0	13631488	52	6247
2026-01-06 19:21:32.87	323.43	10.46	-40.4	-41.8	20.1	0.00e+00	0	33	0	18874368	52	7021
2026-01-06 19:21:35.90	322.96	10.32	-41.8	-43.4	18.6	0.00e+00	25	33	0	25165824	56	6753
2026-01-06 19:21:38.93	322.50	10.18	-41.7	-43.4	18.5	0.00e+00	0	33	0	30408704	56	6743
2026-01-06 19:21:41.96	322.04	10.04	-41.5	-43.1	18.8	0.00e+00	0	34	0	36700160	56	6527
2026-01-06 19:21:44.99	321.58	9.89	-41.1	-42.6	19.4	0.00e+00	55	33	0	41943040	56	6123
2026-01-06 19:21:48.01	321.13	9.75	-40.7	-42.1	19.8	0.00e+00	0	33	0	47185920	56	5773
2026-01-06 19:21:51.04	320.69	9.61	-40.1	-41.4	20.4	0.00e+00	0	33	0	53477376	54	5989
2026-01-06 19:21:54.06	320.25	9.46	-40.0	-41.3	20.3	0.00e+00	60	33	0	58720256	54	5922
2026-01-06 19:21:57.09	319.81	9.32	-40.0	-41.3	20.4	0.00e+00	0	33	0	65011712	54	5907
2026-01-06 19:22:00.12	319.38	9.17	-39.8	-41.0	20.7	0.00e+00	0	33	0	70254592	54	5705
2026-01-06 19:22:03.15	318.95	9.02	-39.4	-40.6	21.1	0.00e+00	0	33	0	75497472	52	6110
2026-01-06 19:22:06.17	318.52	8.88	-39.0	-40.1	21.5	0.00e+00	44	33	0	81788928	52	5793
2026-01-06 19:22:09.20	318.10	8.73	-38.9	-40.0	21.5	0.00e+00	0	33	0	87031808	52	5741
2026-01-06 19:22:12.23	317.69	8.58	-39.1	-40.2	21.4	0.00e+00	0	33	0	93323264	52	5857
2026-01-06 19:22:15.26	317.28	8.43	-39.4	-40.5	21.0	0.00e+00	59	33	0	98566144	52	6097
2026-01-06 19:22:18.28	316.87	8.28	-39.6	-40.8	20.7	0.00e+00	0	33	0	103809024	52	6304
2026-01-06 19:22:21.31	316.47	8.13	-39.6	-40.7	20.9	0.00e+00	0	33	0	110100480	52	6245
2026-01-06 19:22:24.34	316.07	7.98	-39.4	-40.6	21.0	0.00e+00	32	33	0	115343360	52	6123
2026-01-06 19:22:27.36	315.68	7.83	-39.4	-40.6	21.0	0.00e+00	0	33	0	121634816	52	6154
2026-01-06 19:22:30.39	315.29	7.68	-39.2	-40.3	21.3	0.00e+00	0	33	0	126877696	52	5936
2026-01-06 19:22:33.42	314.90	7.53	-38.8	-39.9	21.5	0.00e+00	33	33	0	132120576	50	6365
2026-01-06 19:22:36.44	314.52	7.38	-38.0	-39.0	22.3	0.00e+00	57	33	0	138412032	50	5718
2026-01-06 19:22:39.47	314.15	7.22	-38.0	-39.0	22.3	0.00e+00	33	33	0	143654912	50	5709
2026-01-06 19:22:42.50	313.77	7.07	-38.3	-39.3	22.0	0.00e+00	0	33	0	149946368	50	5950
2026-01-06 19:22:45.53	313.40	6.92	-38.2	-39.2	22.1	0.00e+00	92	33	0	155189248	50	5851
2026-01-06 19:22:48.55	313.04	6.76	-37.9	-38.9	22.2	0.00e+00	0	33	0	161480704	50	5668
2026-01-06 19:22:51.58	312.68	6.61	-37.9	-38.9	22.3	0.00e+00	0	33	0	166723584	48	6344
2026-01-06 19:22:54.61	312.32	6.46	-38.1	-39.1	22.2	0.00e+00	92	33	0	171966464	48	6536
2026-01-06 19:22:57.64	311.96	6.30	-38.4	-39.5	21.8	0.00e+00	0	33	0	178257920	48	6770
2026-01-06 19:23:00.66	311.62	6.15	-38.7	-39.8	21.6	0.00e+00	0	33	0	183500800	50	6273
2026-01-06 19:23:03.69	311.27	6.00	-38.8	-39.9	21.4	0.00e+00	0	33	0	189792256	50	6389
2026-01-06 19:23:06.72	310.93	5.84	-39.2	-40.4	21.0	0.00e+00	12	33	0	195035136	50	6693
2026-01-06 19:23:09.75	310.59	5.69	-39.2	-40.4	20.8	0.00e+00	0	33	0	200278016	50	6762
2026-01-06 19:23:12.78	310.25	5.53	-39.0	-40.2	21.0	0.00e+00	0	33	0	206569472	50	6577
2026-01-06 19:23:15.81	309.92	5.38	-39.1	-40.3	21.0	0.00e+00	92	33	0	211812352	50	6619
2026-01-06 19:23:18.84	309.59	5.23	-39.0	-40.1	20.7	0.00e+00	0	33	0	218103808	50	6524
2026-01-06 19:23:21.86	309.27	5.07	-38.7	-39.9	21.2	0.00e+00	0	33	0	223346688	50	6327
2026-01-06 19:23:24.89	308.95	4.92	-38.5	-39.7	21.5	0.00e+00	49	33	0	228589568	50	6174
2026-01-06 19:23:27.92	308.63	4.77	-38.9	-40.1	21.0	0.00e+00	0	33	0	234881024	50	6519
2026-01-06 19:23:30.95	308.32	4.61	-39.1	-40.3	20.8	0.00e+00	0	33	0	240123904	50	6684
2026-01-06 19:23:33.98	308.00	4.46	-39.8	-41.2	20.1	0.00e+00	0	33	0	246415360	52	6558
2026-01-06 19:23:37.00	307.70	4.30	-39.7	-41.1	20.1	0.00e+00	56	33	0	251658240	52	6474
2026-01-06 19:23:40.03	307.39	4.15	-39.5	-40.8	20.4	0.00e+00	0	33	0	257949696	52	6267
2026-01-06 19:23:43.06	307.09	4.00	-39.3	-40.6	20.6	0.00e+00	0	33	0	263192576	52	6107
2026-01-06 19:23:46.09	306.80	3.84	-38.7	-39.9	21.1	0.00e+00	91	33	0	268435456	52	5643
2026-01-06 19:23:49.11	306.50	3.69	-39.2	-40.5	20.7	0.00e+00	0	33	0	274726912	50	6794
2026-01-06 19:23:52.14	306.21	3.54	-38.7	-39.8	21.0	0.00e+00	0	33	0	279969792	50	6315
2026-01-06 19:23:55.17	305.92	3.39	-39.5	-40.8	20.2	0.00e+00	77	33	0	286261248	50	7026
2026-01-06 19:23:58.20	305.64	3.23	-40.1	-41.6	19.4	0.00e+00	0	33	0	291504128	52	6879
2026-01-06 19:24:01.23	305.36	3.08	-40.7	-42.3	18.7	0.00e+00	0	33	0	296747008	54	6618
2026-01-06 19:24:04.26	305.08	2.93	-48.2	-63.3	3.6	1.51e+00	0	33	104	299892736	60	52884
2026-01-06 19:24:07.28	304.80	2.78	-48.6	-63.7	3.6	1.51e+00	0	33	104	299892736	60	55501
2026-01-06 19:24:10.31	304.53	2.63	-48.7	-63.8	3.6	1.51e+00	0	33	104	299892736	60	55995
2026-01-06 19:24:13.34	304.26	2.47	-48.7	-63.9	3.6	1.51e+00	0	33	104	299892736	60	56566
2026-01-06 19:24:16.37	303.99	2.32	-48.6	-63.8	3.6	1.51e+00	0	33	104	299892736	60	56145
2026-01-06 19:24:19.41	303.72	2.17	-48.6	-63.8	3.6	1.51e+00	0	34	104	299892736	60	55896
2026-01-06 19:24:22.43	303.46	2.02	-48.6	-63.8	3.6	1.51e+00	0	34	104	299892736	60	55753
2026-01-06 19:24:25.46	303.20	1.87	-48.6	-63.7	3.6	1.51e+00	0	33	104	299892736	60	55506
2026-01-06 19:24:28.49	302.95	1.72	-48.6	-63.8	3.6	1.51e+00	0	33	104	299892736	60	55740
2026-01-06 19:24:31.52	302.69	1.57	-48.5	-63.7	3.6	1.51e+00	0	34	104	299892736	60	55335
2026-01-06 19:24:34.55	302.44	1.42	-48.5	-63.7	3.5	1.51e+00	0	33	104	299892736	60	55231
2026-01-06 19:24:37.58	302.20	1.27	-48.5	-63.7	3.6	1.51e+00	0	34	104	299892736	60	55264
2026-01-06 19:24:40.61	301.95	1.12	-48.5	-63.7	3.6	1.51e+00	0	34	104	299892736	60	55221
2026-01-06 19:24:43.64	301.71	0.97	-48.5	-63.7	3.6	1.51e+00	0	34	104	299892736	60	55456
2026-01-06 19:24:46.67	301.47	0.82	-48.5	-63.7	3.6	1.51e+00	0	34	104	299892736	60	55259
2026-01-06 19:24:49.70	301.23	0.67	-48.5	-63.7	3.6	1.51e+00	0	34	104	299892736	60	55330
2026-01-06 19:24:52.73	300.99	0.53	-48.5	-63.7	3.6	1.51e+00	0	34	104	299892736	60	55493
2026-01-06 19:24:55.76	300.76	0.38	-48.5	-63.7	3.6	1.51e+00	0	34	104	299892736	60	55117
2026-01-06 19:24:58.78	300.53	0.23	-48.5	-63.6	3.6	1.51e+00	0	34	104	299892736	60	54919
2026-01-06 19:25:01.81	300.30	0.08	-48.5	-63.7	3.6	1.51e+00	0	34	104	299892736	60	55300

#Closed at: 2026-01-06 19:25:03
#Recorded file [299 MB]: D:/lorett/data/35029_260107_071239.dat