passes_logs/2026/01/06/R4.6S_Anadyr/R4.6S_Anadyr__20260106_120257_NOAA_21_JPSS-2_rec.log

#Pass ID: 20260106_120257_NOAA 21 (JPSS-2)
#Satellite: NOAA 21 (JPSS-2)
#Configuration: NOAA-21
#almurnet v.1.7.20251203
#Start time: 2026-01-06 12:02:57

#Version: 2.2.20231116
#Station: R4.6S_Anadyr
#Location: 177.4865 lon 64.73178 lat
#TLE: 1 54234U 22150A   26005.42670836  .00000142  00000+0  88292-4 0  9996
#TLE: 2 54234  98.7490 306.4427 0001045 340.6622  19.4514 14.19532269163451

#Time	Az	El	Level	Level2	SNR	BER	BlckErr	Temp	State	Recorded	gain1	gain2
2026-01-06 12:02:57.83	19.45	0.04	-48.7	-59.4	3.5	8.44e-01	0	33	0	0	60	33675
2026-01-06 12:03:01.86	19.78	0.22	-48.7	-61.6	3.5	1.52e+00	0	34	104	0	60	42266
2026-01-06 12:03:05.90	20.12	0.40	-48.7	-61.6	3.5	1.52e+00	0	34	104	0	60	42049
2026-01-06 12:03:09.94	20.46	0.59	-48.3	-61.2	3.5	1.52e+00	0	34	104	0	60	40363
2026-01-06 12:03:13.98	20.81	0.77	-47.4	-60.3	3.5	1.52e+00	0	35	104	0	60	36232
2026-01-06 12:03:18.02	21.16	0.96	-47.1	-60.0	3.5	1.52e+00	0	35	104	0	60	35033
2026-01-06 12:03:22.06	21.51	1.14	-47.1	-59.9	3.5	1.52e+00	0	35	104	0	60	34804
2026-01-06 12:03:26.10	21.87	1.33	-47.1	-60.0	3.5	1.51e+00	0	35	104	0	60	35063
2026-01-06 12:03:30.14	22.23	1.52	-47.1	-60.0	3.5	1.52e+00	0	35	104	0	60	35005
2026-01-06 12:03:34.18	22.60	1.70	-47.1	-59.9	3.5	1.52e+00	0	35	104	0	60	34845
2026-01-06 12:03:38.21	22.97	1.89	-47.1	-59.9	3.5	1.52e+00	0	35	104	0	60	34785
2026-01-06 12:03:42.26	23.35	2.08	-47.1	-59.8	3.5	1.52e+00	0	35	104	0	60	34330
2026-01-06 12:03:46.29	23.73	2.26	-47.1	-59.9	3.5	1.52e+00	0	35	104	0	60	34775
2026-01-06 12:03:50.34	24.12	2.45	-47.0	-58.8	3.5	1.51e+00	0	35	104	0	60	30467
2026-01-06 12:03:54.38	24.51	2.64	-44.4	-47.9	11.2	6.28e-03	123	35	0	2097152	60	8688
2026-01-06 12:03:58.42	24.90	2.83	-38.5	-39.9	19.2	0.00e+00	123	35	0	14680064	50	6136
2026-01-06 12:04:02.45	25.30	3.02	-43.2	-45.8	12.9	0.00e+00	123	35	0	28311552	58	7719
2026-01-06 12:04:06.50	25.71	3.21	-45.8	-51.3	9.0	6.73e-01	122	35	104	33554432	60	12906
2026-01-06 12:04:10.53	26.11	3.40	-41.3	-43.1	17.0	0.00e+00	123	35	0	37748736	56	6327
2026-01-06 12:04:14.57	26.53	3.58	-41.1	-42.8	16.3	0.00e+00	122	35	0	50331648	54	6880
2026-01-06 12:04:18.61	26.95	3.77	-40.6	-42.2	17.3	0.00e+00	122	35	0	62914560	56	5692
2026-01-06 12:04:22.64	27.37	3.96	-38.6	-39.8	19.5	0.00e+00	121	35	0	75497472	50	6130
2026-01-06 12:04:26.68	27.80	4.15	-38.0	-39.2	20.1	0.00e+00	120	35	0	88080384	50	5688
2026-01-06 12:04:30.71	28.24	4.34	-37.3	-38.4	20.8	0.00e+00	123	35	0	100663296	48	5852
2026-01-06 12:04:34.76	28.68	4.53	-37.3	-38.4	20.9	0.00e+00	123	35	0	113246208	48	5832
2026-01-06 12:04:38.80	29.12	4.72	-37.2	-38.3	21.0	0.00e+00	123	35	0	125829120	48	5738
2026-01-06 12:04:42.84	29.58	4.91	-37.1	-38.2	21.1	0.00e+00	120	35	0	138412032	48	5707
2026-01-06 12:04:46.88	30.03	5.10	-37.1	-38.2	21.1	0.00e+00	123	35	0	150994944	48	5689
2026-01-06 12:04:50.91	30.49	5.29	-36.8	-37.9	21.4	0.00e+00	123	35	0	163577856	46	6179
2026-01-06 12:04:54.95	30.96	5.48	-37.0	-38.1	21.3	0.00e+00	120	35	0	176160768	46	6302
2026-01-06 12:04:58.99	31.44	5.66	-37.2	-38.3	21.1	0.00e+00	122	35	0	188743680	46	6434
2026-01-06 12:05:03.02	31.92	5.85	-37.2	-38.3	21.1	0.00e+00	120	36	0	201326592	46	6485
2026-01-06 12:05:07.06	32.40	6.04	-37.1	-38.2	21.3	0.00e+00	122	36	0	213909504	46	6356
2026-01-06 12:05:11.10	32.90	6.23	-36.9	-38.0	21.4	0.00e+00	123	36	0	226492416	46	6254
2026-01-06 12:05:15.14	33.39	6.42	-37.0	-38.1	21.4	0.00e+00	122	36	0	239075328	46	6336
2026-01-06 12:05:19.17	33.90	6.60	-36.7	-37.7	21.7	0.00e+00	123	36	0	251658240	46	6057
2026-01-06 12:05:23.21	34.41	6.79	-36.7	-37.7	21.8	0.00e+00	123	36	0	264241152	46	6051
2026-01-06 12:05:27.25	34.93	6.97	-36.6	-37.7	21.8	0.00e+00	123	36	0	276824064	46	6013
2026-01-06 12:05:31.29	35.45	7.16	-36.2	-37.3	22.2	0.00e+00	122	36	0	289406976	46	5727
2026-01-06 12:05:35.32	35.98	7.34	-36.2	-37.2	22.3	0.00e+00	123	36	0	301989888	46	5680
2026-01-06 12:05:39.36	36.52	7.53	-36.4	-37.4	22.0	0.00e+00	123	36	0	314572800	46	5838
2026-01-06 12:05:43.40	37.06	7.71	-36.2	-37.2	22.2	0.00e+00	123	36	0	328204288	46	5688
2026-01-06 12:05:47.44	37.61	7.89	-36.1	-37.1	22.4	0.00e+00	123	36	0	340787200	46	5636
2026-01-06 12:05:51.48	38.17	8.07	-36.1	-37.1	22.5	0.00e+00	123	36	0	353370112	46	5657
2026-01-06 12:05:55.52	38.73	8.25	-36.0	-37.0	22.5	0.00e+00	122	36	0	365953024	46	5561
2026-01-06 12:05:59.55	39.30	8.43	-36.0	-37.0	22.6	0.00e+00	120	35	0	378535936	46	5535
2026-01-06 12:06:03.59	39.87	8.61	-35.9	-36.9	22.6	0.00e+00	122	36	0	391118848	44	6144
2026-01-06 12:06:07.63	40.46	8.79	-35.8	-36.8	22.6	0.00e+00	123	36	0	403701760	44	6090
2026-01-06 12:06:11.66	41.05	8.96	-35.8	-36.8	22.6	0.00e+00	121	36	0	416284672	44	6110
2026-01-06 12:06:15.70	41.64	9.14	-35.7	-36.7	22.8	0.00e+00	123	36	0	428867584	44	6045
2026-01-06 12:06:19.74	42.25	9.31	-35.9	-37.0	22.6	0.00e+00	123	36	0	441450496	44	6206
2026-01-06 12:06:23.78	42.86	9.48	-35.6	-36.6	22.9	0.00e+00	123	36	0	454033408	44	5933
2026-01-06 12:06:27.81	43.47	9.65	-35.7	-36.7	22.8	0.00e+00	122	36	0	466616320	44	6009
2026-01-06 12:06:31.85	44.10	9.82	-35.7	-36.6	22.9	0.00e+00	123	36	0	479199232	44	5993
2026-01-06 12:06:35.89	44.73	9.98	-35.8	-36.8	22.8	0.00e+00	120	36	0	491782144	44	6117
2026-01-06 12:06:39.93	45.37	10.15	-36.1	-37.1	22.7	0.00e+00	120	36	0	504365056	44	6322
2026-01-06 12:06:43.97	46.01	10.31	-35.3	-36.3	23.2	0.00e+00	123	36	0	516947968	44	5748
2026-01-06 12:06:48.01	46.67	10.47	-35.5	-36.5	22.9	0.00e+00	120	36	0	529530880	44	5898
2026-01-06 12:06:52.05	47.33	10.62	-35.8	-36.8	22.8	0.00e+00	122	36	0	542113792	44	6076
2026-01-06 12:06:56.09	47.99	10.78	-35.7	-36.7	22.9	0.00e+00	122	36	0	554696704	44	6017
2026-01-06 12:07:00.12	48.66	10.93	-35.5	-36.5	23.0	0.00e+00	123	36	0	567279616	44	5890
2026-01-06 12:07:04.16	49.34	11.08	-35.7	-36.6	22.9	0.00e+00	122	36	0	579862528	44	5989
2026-01-06 12:07:08.20	50.03	11.23	-35.5	-36.5	23.1	0.00e+00	120	36	0	592445440	44	5890
2026-01-06 12:07:12.24	50.72	11.37	-35.4	-36.3	23.1	0.00e+00	123	36	0	605028352	44	5780
2026-01-06 12:07:16.28	51.42	11.51	-35.6	-36.5	22.9	0.00e+00	122	36	0	617611264	44	5919
2026-01-06 12:07:20.32	52.13	11.65	-35.8	-36.8	22.7	0.00e+00	123	36	0	630194176	44	6090
2026-01-06 12:07:24.36	52.84	11.79	-35.9	-36.9	22.6	0.00e+00	123	36	0	642777088	44	6146
2026-01-06 12:07:28.40	53.56	11.92	-35.5	-36.4	23.1	0.00e+00	122	36	0	655360000	44	5855
2026-01-06 12:07:32.44	54.29	12.05	-35.4	-36.4	23.2	0.00e+00	122	36	0	667942912	44	5796
2026-01-06 12:07:36.48	55.02	12.17	-35.2	-36.2	23.3	0.00e+00	120	36	0	680525824	44	5695
2026-01-06 12:07:40.52	55.76	12.30	-35.3	-36.3	23.2	0.00e+00	120	36	0	694157312	44	5741
2026-01-06 12:07:44.55	56.50	12.41	-35.3	-36.3	23.2	0.00e+00	122	36	0	706740224	44	5749
2026-01-06 12:07:48.59	57.25	12.53	-35.4	-36.4	23.2	0.00e+00	123	36	0	719323136	44	5800
2026-01-06 12:07:52.63	58.00	12.64	-35.0	-36.0	23.5	0.00e+00	121	36	0	731906048	44	5533
2026-01-06 12:07:56.66	58.76	12.74	-35.4	-36.3	23.2	0.00e+00	123	36	0	744488960	44	5786
2026-01-06 12:08:00.70	59.53	12.85	-35.3	-36.2	23.2	0.00e+00	123	36	0	757071872	44	5709
2026-01-06 12:08:04.74	60.30	12.94	-34.9	-35.9	23.4	0.00e+00	122	36	0	769654784	44	5485
2026-01-06 12:08:08.77	61.07	13.04	-35.0	-36.0	23.4	0.00e+00	123	36	0	782237696	44	5548
2026-01-06 12:08:12.82	61.85	13.13	-34.9	-35.8	23.7	0.00e+00	123	36	0	794820608	44	5425
2026-01-06 12:08:16.85	62.64	13.21	-35.2	-36.1	23.3	0.00e+00	123	36	0	807403520	44	5635
2026-01-06 12:08:20.89	63.43	13.29	-35.2	-36.2	23.3	0.00e+00	123	36	0	819986432	44	5697
2026-01-06 12:08:24.93	64.22	13.37	-34.9	-35.8	23.5	0.00e+00	122	36	0	832569344	42	6111
2026-01-06 12:08:28.97	65.02	13.44	-35.3	-36.2	23.2	0.00e+00	123	36	0	845152256	42	6411
2026-01-06 12:08:33.00	65.81	13.50	-34.9	-35.8	23.5	0.00e+00	122	36	0	857735168	42	6120
2026-01-06 12:08:37.04	66.62	13.56	-35.0	-36.0	23.5	0.00e+00	120	36	0	870318080	42	6247
2026-01-06 12:08:41.08	67.43	13.62	-35.2	-36.1	23.3	0.00e+00	123	36	0	882900992	42	6338
2026-01-06 12:08:45.12	68.24	13.67	-35.0	-36.0	23.4	0.00e+00	123	36	0	895483904	42	6237
2026-01-06 12:08:49.16	69.05	13.71	-35.1	-36.1	23.4	0.00e+00	122	36	0	908066816	42	6324
2026-01-06 12:08:53.19	69.86	13.75	-34.9	-35.8	23.6	0.00e+00	120	36	0	920649728	42	6089
2026-01-06 12:08:57.23	70.68	13.79	-34.9	-35.8	23.7	0.00e+00	122	36	0	933232640	42	6111
2026-01-06 12:09:01.27	71.50	13.82	-34.9	-35.9	23.6	0.00e+00	122	36	0	945815552	42	6176
2026-01-06 12:09:05.31	72.32	13.84	-35.0	-36.0	23.5	0.00e+00	122	36	0	958398464	42	6236
2026-01-06 12:09:09.35	73.14	13.86	-35.2	-36.1	23.5	0.00e+00	122	36	0	970981376	42	6326
2026-01-06 12:09:13.39	73.96	13.87	-34.9	-35.8	23.6	0.00e+00	123	36	0	983564288	42	6085
2026-01-06 12:09:17.43	74.79	13.88	-35.3	-36.3	23.3	0.00e+00	120	36	0	996147200	42	6427
2026-01-06 12:09:21.46	75.61	13.89	-34.8	-35.7	23.7	0.00e+00	123	36	0	1008730112	42	6043
2026-01-06 12:09:25.50	76.43	13.88	-34.6	-35.6	23.8	0.00e+00	123	36	0	1021313024	42	5947
2026-01-06 12:09:29.54	77.25	13.87	-34.8	-35.7	23.8	0.00e+00	123	36	0	1033895936	42	6026
2026-01-06 12:09:33.58	78.08	13.86	-35.2	-36.1	23.4	0.00e+00	123	36	0	1046478848	42	6339
2026-01-06 12:09:37.62	78.90	13.84	-35.0	-36.0	23.5	0.00e+00	123	36	0	1060110336	42	6227
2026-01-06 12:09:41.65	79.72	13.82	-35.1	-36.1	23.3	0.00e+00	122	36	0	1072693248	42	6310
2026-01-06 12:09:45.69	80.54	13.79	-34.9	-35.9	23.5	0.00e+00	122	36	0	1085276160	42	6145
2026-01-06 12:09:49.73	81.36	13.75	-35.0	-35.9	23.5	0.00e+00	123	36	0	1097859072	42	6204
2026-01-06 12:09:53.77	82.17	13.71	-35.1	-36.0	23.6	0.00e+00	122	36	0	1110441984	42	6241
2026-01-06 12:09:57.81	82.98	13.67	-34.8	-35.7	23.8	0.00e+00	122	36	0	1123024896	42	6027
2026-01-06 12:10:01.85	83.80	13.61	-35.1	-36.1	23.5	0.00e+00	122	36	0	1135607808	42	6286
2026-01-06 12:10:05.88	84.60	13.56	-34.9	-35.9	23.6	0.00e+00	123	36	0	1148190720	42	6135
2026-01-06 12:10:09.92	85.41	13.50	-34.9	-35.8	23.7	0.00e+00	122	36	0	1160773632	42	6134
2026-01-06 12:10:13.96	86.21	13.43	-34.7	-35.6	23.7	0.00e+00	122	36	0	1173356544	42	5994
2026-01-06 12:10:17.99	87.01	13.36	-34.8	-35.8	23.8	0.00e+00	120	36	0	1185939456	42	6099
2026-01-06 12:10:22.03	87.80	13.28	-34.8	-35.8	23.7	0.00e+00	122	36	0	1198522368	42	6081
2026-01-06 12:10:26.07	88.59	13.20	-35.0	-36.0	23.6	0.00e+00	122	36	0	1211105280	42	6235
2026-01-06 12:10:30.11	89.38	13.12	-34.8	-35.8	23.7	0.00e+00	123	36	0	1223688192	42	6071
2026-01-06 12:10:34.15	90.16	13.03	-34.9	-35.8	23.7	0.00e+00	123	36	0	1236271104	42	6124
2026-01-06 12:10:38.18	90.94	12.94	-35.0	-36.0	23.6	0.00e+00	123	36	0	1248854016	42	6212
2026-01-06 12:10:42.22	91.71	12.84	-35.1	-36.1	23.5	0.00e+00	122	36	0	1261436928	42	6288
2026-01-06 12:10:46.26	92.48	12.73	-35.1	-36.1	23.4	0.00e+00	122	36	0	1274019840	42	6330
2026-01-06 12:10:50.30	93.24	12.63	-35.1	-36.1	23.5	0.00e+00	120	36	0	1286602752	42	6314
2026-01-06 12:10:54.33	93.99	12.52	-35.1	-36.1	23.5	0.00e+00	122	36	0	1299185664	42	6278
2026-01-06 12:10:58.37	94.74	12.40	-35.1	-36.1	23.5	0.00e+00	120	36	0	1311768576	42	6300
2026-01-06 12:11:02.41	95.49	12.28	-35.1	-36.0	23.4	0.00e+00	121	36	0	1324351488	42	6262
2026-01-06 12:11:06.45	96.23	12.16	-35.1	-36.0	23.4	0.00e+00	122	36	0	1336934400	42	6270
2026-01-06 12:11:10.48	96.96	12.03	-34.9	-35.9	23.5	0.00e+00	123	36	0	1349517312	42	6142
2026-01-06 12:11:14.52	97.69	11.90	-35.0	-36.0	23.4	0.00e+00	120	36	0	1362100224	42	6215
2026-01-06 12:11:18.56	98.41	11.77	-34.9	-35.9	23.5	0.00e+00	120	36	0	1374683136	42	6169
2026-01-06 12:11:22.61	99.13	11.63	-35.1	-36.1	23.4	0.00e+00	123	36	0	1387266048	42	6287
2026-01-06 12:11:26.64	99.83	11.49	-35.3	-36.2	23.2	0.00e+00	121	36	0	1400897536	42	6388
2026-01-06 12:11:30.68	100.53	11.35	-35.1	-36.1	23.3	0.00e+00	122	36	0	1412431872	42	6296
2026-01-06 12:11:34.72	101.23	11.21	-35.2	-36.1	23.3	0.00e+00	122	36	0	1425014784	42	6348
2026-01-06 12:11:38.76	101.92	11.06	-35.4	-36.4	23.1	0.00e+00	122	36	0	1438646272	42	6509
2026-01-06 12:11:42.80	102.60	10.91	-35.3	-36.4	23.0	0.00e+00	123	36	0	1451229184	42	6502
2026-01-06 12:11:46.84	103.28	10.75	-35.3	-36.4	23.1	0.00e+00	123	36	0	1463812096	42	6501
2026-01-06 12:11:50.88	103.94	10.60	-35.3	-36.3	23.1	0.00e+00	123	36	0	1476395008	42	6463
2026-01-06 12:11:54.92	104.61	10.44	-35.5	-36.5	22.9	0.00e+00	123	36	0	1488977920	42	6622
2026-01-06 12:11:58.96	105.26	10.28	-35.6	-36.6	22.8	0.00e+00	123	36	0	1501560832	42	6674
2026-01-06 12:12:03.00	105.91	10.11	-35.8	-36.8	22.6	0.00e+00	122	36	0	1514143744	44	6097
2026-01-06 12:12:07.04	106.55	9.95	-35.7	-36.7	22.7	0.00e+00	123	36	0	1526726656	44	6063
2026-01-06 12:12:11.08	107.18	9.78	-35.7	-36.7	22.7	0.00e+00	122	36	0	1539309568	44	6061
2026-01-06 12:12:15.12	107.81	9.61	-35.9	-37.0	22.5	0.00e+00	123	36	0	1551892480	44	6214
2026-01-06 12:12:19.15	108.43	9.44	-35.9	-37.0	22.5	0.00e+00	123	36	0	1564475392	44	6225
2026-01-06 12:12:23.20	109.04	9.27	-36.0	-37.1	22.4	0.00e+00	123	36	0	1577058304	44	6298
2026-01-06 12:12:27.23	109.64	9.09	-35.9	-37.0	22.5	0.00e+00	123	36	0	1589641216	44	6240
2026-01-06 12:12:31.27	110.24	8.92	-35.9	-37.0	22.5	0.00e+00	120	36	0	1602224128	44	6262
2026-01-06 12:12:35.31	110.84	8.74	-36.1	-37.2	22.3	0.00e+00	120	36	0	1614807040	44	6396
2026-01-06 12:12:39.34	111.42	8.56	-36.3	-37.4	22.1	0.00e+00	122	36	0	1627389952	44	6501
2026-01-06 12:12:43.38	112.00	8.38	-36.3	-37.4	22.1	0.00e+00	123	36	0	1639972864	44	6501
2026-01-06 12:12:47.42	112.57	8.20	-36.5	-37.6	22.0	0.00e+00	123	36	0	1652555776	44	6657
2026-01-06 12:12:51.46	113.13	8.02	-36.4	-37.5	21.9	0.00e+00	123	36	0	1665138688	44	6639
2026-01-06 12:12:55.49	113.69	7.84	-36.5	-37.6	21.8	0.00e+00	120	36	0	1677721600	44	6715
2026-01-06 12:12:59.53	114.24	7.65	-36.5	-37.5	21.9	0.00e+00	122	36	0	1690304512	44	6633
2026-01-06 12:13:03.57	114.78	7.47	-36.5	-37.5	21.9	0.00e+00	123	36	0	1702887424	44	6617
2026-01-06 12:13:07.61	115.32	7.28	-36.5	-37.6	21.9	0.00e+00	120	36	0	1715470336	44	6660
2026-01-06 12:13:11.64	115.85	7.10	-36.5	-37.5	21.9	0.00e+00	120	36	0	1728053248	44	6632
2026-01-06 12:13:15.68	116.38	6.91	-36.4	-37.6	21.8	0.00e+00	123	36	0	1740636160	44	6659
2026-01-06 12:13:19.71	116.89	6.72	-36.5	-37.6	21.9	0.00e+00	122	36	0	1753219072	46	5958
2026-01-06 12:13:23.75	117.40	6.54	-36.4	-37.5	21.9	0.00e+00	123	36	0	1765801984	46	5864
2026-01-06 12:13:27.79	117.91	6.35	-36.8	-37.9	21.6	0.00e+00	122	36	0	1778384896	46	6139
2026-01-06 12:13:31.83	118.41	6.16	-36.8	-37.9	21.4	0.00e+00	123	36	0	1790967808	46	6198
2026-01-06 12:13:35.86	118.90	5.97	-37.0	-38.1	21.3	0.00e+00	123	36	0	1804599296	46	6280
2026-01-06 12:13:39.90	119.39	5.78	-37.1	-38.3	21.1	0.00e+00	123	36	0	1817182208	46	6440
2026-01-06 12:13:43.94	119.87	5.59	-37.2	-38.4	21.0	0.00e+00	122	36	0	1829765120	46	6549
2026-01-06 12:13:47.98	120.34	5.40	-37.1	-38.3	21.0	0.00e+00	120	36	0	1842348032	46	6492
2026-01-06 12:13:52.02	120.81	5.21	-37.0	-38.2	21.0	0.00e+00	123	36	0	1854930944	46	6371
2026-01-06 12:13:56.06	121.28	5.02	-37.2	-38.4	20.9	0.00e+00	122	36	0	1867513856	46	6529
2026-01-06 12:14:00.09	121.73	4.83	-37.3	-38.5	20.9	0.00e+00	124	36	0	1880096768	46	6576
2026-01-06 12:14:04.13	122.19	4.63	-37.4	-38.6	20.7	0.00e+00	123	36	0	1892679680	46	6654
2026-01-06 12:14:08.17	122.63	4.44	-37.9	-39.1	20.1	0.00e+00	123	36	0	1905262592	48	6328
2026-01-06 12:14:12.20	123.07	4.25	-37.3	-38.5	20.7	0.00e+00	123	36	0	1917845504	48	5860
2026-01-06 12:14:16.24	123.51	4.06	-37.8	-39.0	20.1	0.00e+00	123	36	0	1930428416	48	6254
2026-01-06 12:14:20.28	123.94	3.87	-37.8	-39.0	20.1	0.00e+00	122	36	0	1943011328	48	6246
2026-01-06 12:14:24.31	124.36	3.68	-37.7	-38.9	20.1	0.00e+00	123	36	0	1955594240	48	6201
2026-01-06 12:14:28.35	124.78	3.49	-38.1	-39.4	19.7	0.00e+00	122	36	0	1968177152	48	6505
2026-01-06 12:14:32.38	125.19	3.30	-38.0	-39.2	19.8	0.00e+00	123	36	0	1980760064	48	6416
2026-01-06 12:14:36.42	125.60	3.11	-37.9	-39.2	19.7	0.00e+00	122	36	0	1993342976	48	6390
2026-01-06 12:14:40.46	126.00	2.92	-48.0	-61.0	3.5	1.52e+00	0	36	104	2000683008	60	39311
2026-01-06 12:14:44.49	126.40	2.73	-48.6	-61.5	3.5	1.52e+00	0	36	104	2000683008	60	41742
2026-01-06 12:14:48.53	126.80	2.54	-48.8	-61.6	3.5	1.52e+00	0	36	104	2000683008	60	42140
2026-01-06 12:14:52.58	127.19	2.34	-48.7	-61.6	3.5	1.52e+00	0	36	104	2000683008	60	42064
2026-01-06 12:14:56.61	127.57	2.16	-48.7	-61.5	3.5	1.52e+00	0	36	104	2000683008	60	41882
2026-01-06 12:15:00.65	127.95	1.97	-48.7	-61.5	3.5	1.52e+00	0	36	104	2000683008	60	41777
2026-01-06 12:15:04.69	128.33	1.78	-48.7	-61.5	3.5	1.52e+00	0	36	104	2000683008	60	41660
2026-01-06 12:15:08.73	128.70	1.59	-48.7	-61.5	3.5	1.52e+00	0	36	104	2000683008	60	41674
2026-01-06 12:15:12.77	129.06	1.40	-48.7	-61.5	3.5	1.52e+00	0	36	104	2000683008	60	41735
2026-01-06 12:15:16.81	129.42	1.21	-48.7	-61.5	3.5	1.52e+00	0	36	104	2000683008	60	41829
2026-01-06 12:15:20.85	129.78	1.02	-48.6	-61.5	3.5	1.51e+00	0	36	104	2000683008	60	41715
2026-01-06 12:15:24.89	130.13	0.83	-48.6	-61.5	3.5	1.52e+00	0	36	104	2000683008	60	41641
2026-01-06 12:15:28.93	130.48	0.65	-48.6	-61.5	3.5	1.52e+00	0	36	104	2000683008	60	41621
2026-01-06 12:15:32.97	130.83	0.46	-48.6	-61.5	3.5	1.52e+00	0	36	104	2000683008	60	41636
2026-01-06 12:15:37.01	131.17	0.27	-48.7	-61.5	3.5	1.52e+00	0	36	104	2000683008	60	41693
2026-01-06 12:15:41.05	131.51	0.09	-48.7	-61.5	3.5	1.52e+00	0	36	104	2000683008	60	41601

#Closed at: 2026-01-06 12:15:44
#Recorded file [2000 MB]: D:/lorett/data/35029_260107_000257.dat