passes_logs/2026/01/06/R4.6S_Anadyr/R4.6S_Anadyr__20260106_173321_SUOMI_NPP_rec.log

#Pass ID: 20260106_173321_SUOMI NPP
#Satellite: SUOMI NPP
#Configuration: NPP
#almurnet v.1.7.20251203
#Start time: 2026-01-06 17:33:24

#Version: 2.2.20231116
#Station: R4.6S_Anadyr
#Location: 177.4865 lon 64.73178 lat
#TLE: 1 37849U 11061A   26004.95404768  .00000136  00000+0  85334-4 0  9991
#TLE: 2 37849  98.7801 307.0898 0002575  80.6707 279.4760 14.19522289735281

#Time	Az	El	Level	Level2	SNR	BER	BlckErr	Temp	State	Recorded	gain1	gain2
2026-01-06 17:33:24.03	32.19	0.14	-48.4	-60.0	3.5	8.43e-01	0	31	0	0	60	36213
2026-01-06 17:33:28.07	31.95	0.35	-48.5	-63.7	3.6	1.51e+00	0	32	104	0	60	55451
2026-01-06 17:33:32.11	31.70	0.57	-48.6	-63.8	3.6	1.51e+00	0	32	104	0	60	55969
2026-01-06 17:33:36.14	31.45	0.78	-48.3	-63.5	3.6	1.51e+00	0	32	104	0	60	54361
2026-01-06 17:33:40.18	31.20	1.00	-47.6	-62.7	3.6	1.51e+00	0	32	104	0	60	49414
2026-01-06 17:33:44.22	30.94	1.22	-47.0	-62.1	3.5	1.51e+00	0	32	104	0	60	46037
2026-01-06 17:33:48.26	30.68	1.44	-47.0	-62.0	3.6	1.51e+00	0	33	104	0	60	45753
2026-01-06 17:33:52.30	30.41	1.66	-47.0	-62.1	3.6	1.51e+00	0	32	104	0	60	45955
2026-01-06 17:33:56.34	30.14	1.89	-47.0	-62.2	3.6	1.51e+00	0	33	104	0	60	46333
2026-01-06 17:34:00.38	29.87	2.11	-47.0	-62.1	3.6	1.51e+00	0	33	104	0	60	46107
2026-01-06 17:34:04.42	29.59	2.33	-47.0	-61.9	3.6	1.51e+00	0	33	104	0	60	45060
2026-01-06 17:34:08.46	29.31	2.56	-47.0	-62.1	3.6	1.51e+00	0	33	104	0	60	46010
2026-01-06 17:34:12.50	29.02	2.79	-47.0	-62.1	3.6	1.51e+00	0	33	104	0	60	45925
2026-01-06 17:34:16.53	28.73	3.01	-46.9	-61.4	3.6	1.51e+00	0	33	104	0	60	42682
2026-01-06 17:34:20.57	28.43	3.24	-46.6	-55.8	5.0	1.06e+00	0	33	0	0	60	22225
2026-01-06 17:34:24.61	28.13	3.47	-46.9	-59.8	3.6	2.20e-06	11	33	104	3145728	60	35526
2026-01-06 17:34:28.65	27.82	3.71	-41.7	-43.6	17.5	0.00e+00	0	33	0	5242880	56	6903
2026-01-06 17:34:32.69	27.51	3.94	-41.0	-42.6	18.5	0.00e+00	0	33	0	12582912	56	6172
2026-01-06 17:34:36.73	27.19	4.17	-40.7	-42.4	18.8	0.00e+00	0	33	0	19922944	54	6693
2026-01-06 17:34:40.76	26.87	4.41	-40.5	-42.1	19.1	0.00e+00	0	33	0	28311552	54	6465
2026-01-06 17:34:44.80	26.54	4.64	-40.6	-42.1	19.2	0.00e+00	0	33	0	35651584	54	6507
2026-01-06 17:34:48.84	26.20	4.88	-40.3	-41.8	19.5	0.00e+00	0	33	0	42991616	54	6282
2026-01-06 17:34:52.87	25.86	5.12	-40.6	-42.1	19.2	0.00e+00	0	33	0	50331648	54	6516
2026-01-06 17:34:56.91	25.52	5.36	-40.8	-42.3	19.0	0.00e+00	0	33	0	57671680	54	6692
2026-01-06 17:35:00.95	25.17	5.60	-40.8	-42.4	18.8	0.00e+00	0	33	0	66060288	54	6749
2026-01-06 17:35:04.98	24.81	5.84	-40.8	-42.4	18.9	0.00e+00	0	33	0	73400320	54	6724
2026-01-06 17:35:09.01	24.45	6.09	-40.7	-42.3	19.1	0.00e+00	0	33	0	80740352	54	6627
2026-01-06 17:35:13.05	24.08	6.33	-40.4	-41.9	19.5	0.00e+00	0	33	0	88080384	54	6320
2026-01-06 17:35:17.09	23.70	6.58	-40.0	-41.4	20.0	0.00e+00	0	33	0	95420416	54	5974
2026-01-06 17:35:21.13	23.31	6.82	-40.0	-41.3	20.0	0.00e+00	0	33	0	103809024	54	5944
2026-01-06 17:35:25.15	22.93	7.07	-39.6	-40.9	20.6	0.00e+00	0	33	0	111149056	52	6343
2026-01-06 17:35:29.18	22.53	7.32	-39.4	-40.6	20.7	0.00e+00	0	33	0	118489088	52	6168
2026-01-06 17:35:33.22	22.12	7.57	-39.5	-40.8	20.7	0.00e+00	0	33	0	125829120	52	6250
2026-01-06 17:35:37.26	21.71	7.82	-39.6	-40.8	20.6	0.00e+00	0	33	0	134217728	52	6314
2026-01-06 17:35:41.29	21.29	8.07	-39.6	-40.8	20.7	0.00e+00	0	33	0	141557760	52	6274
2026-01-06 17:35:45.33	20.87	8.32	-39.8	-41.1	20.6	0.00e+00	0	33	0	148897792	52	6490
2026-01-06 17:35:49.37	20.43	8.58	-40.2	-41.5	20.0	0.00e+00	0	33	0	156237824	52	6829
2026-01-06 17:35:53.41	19.99	8.83	-39.9	-41.2	20.4	0.00e+00	0	33	0	163577856	52	6571
2026-01-06 17:35:57.44	19.54	9.09	-39.6	-40.8	20.8	0.00e+00	0	33	0	171966464	52	6314
2026-01-06 17:36:01.48	19.08	9.35	-39.7	-41.0	20.6	0.00e+00	0	33	0	179306496	52	6402
2026-01-06 17:36:05.51	18.61	9.60	-39.5	-40.7	20.8	0.00e+00	0	33	0	186646528	52	6239
2026-01-06 17:36:09.55	18.14	9.86	-39.7	-40.9	20.7	0.00e+00	0	33	0	193986560	52	6359
2026-01-06 17:36:13.59	17.65	10.12	-40.0	-41.3	20.4	0.00e+00	0	33	0	202375168	52	6692
2026-01-06 17:36:17.63	17.16	10.38	-39.6	-40.8	20.8	0.00e+00	0	33	0	209715200	52	6306
2026-01-06 17:36:21.66	16.66	10.64	-39.5	-40.7	21.0	0.00e+00	0	33	0	217055232	52	6211
2026-01-06 17:36:25.70	16.15	10.90	-39.1	-40.2	21.4	0.00e+00	0	33	0	224395264	52	5887
2026-01-06 17:36:29.74	15.62	11.16	-38.8	-39.9	21.7	0.00e+00	0	33	0	231735296	50	6326
2026-01-06 17:36:33.77	15.09	11.43	-38.5	-39.6	21.9	0.00e+00	0	33	0	240123904	50	6141
2026-01-06 17:36:37.82	14.55	11.69	-38.7	-39.9	21.7	0.00e+00	0	33	0	247463936	50	6320
2026-01-06 17:36:41.85	14.00	11.95	-38.8	-39.9	21.7	0.00e+00	0	33	0	254803968	50	6360
2026-01-06 17:36:45.89	13.44	12.21	-39.3	-40.5	21.1	0.00e+00	0	33	0	262144000	50	6821
2026-01-06 17:36:49.93	12.87	12.48	-39.0	-40.2	21.2	0.00e+00	0	33	0	270532608	50	6550
2026-01-06 17:36:53.96	12.29	12.74	-38.9	-40.0	21.5	0.00e+00	0	33	0	277872640	50	6454
2026-01-06 17:36:58.00	11.70	13.00	-38.6	-39.6	22.1	0.00e+00	0	33	0	285212672	50	6168
2026-01-06 17:37:02.03	11.10	13.26	-38.4	-39.5	22.0	0.00e+00	0	33	0	292552704	50	6058
2026-01-06 17:37:06.07	10.48	13.53	-38.8	-39.9	21.7	0.00e+00	0	33	0	299892736	50	6336
2026-01-06 17:37:10.11	9.85	13.79	-38.9	-40.0	21.5	0.00e+00	0	33	0	308281344	50	6461
2026-01-06 17:37:14.14	9.22	14.05	-39.4	-40.6	21.0	0.00e+00	0	33	0	315621376	50	6893
2026-01-06 17:37:18.17	8.57	14.31	-38.9	-39.9	21.6	0.00e+00	0	33	0	322961408	50	6370
2026-01-06 17:37:22.20	7.91	14.56	-39.4	-40.6	21.2	0.00e+00	0	33	0	330301440	50	6884
2026-01-06 17:37:26.24	7.24	14.82	-39.0	-40.1	21.6	0.00e+00	0	33	0	337641472	50	6535
2026-01-06 17:37:30.28	6.56	15.08	-38.9	-40.0	21.5	0.00e+00	0	33	0	346030080	50	6404
2026-01-06 17:37:34.31	5.86	15.33	-39.0	-40.1	21.5	0.00e+00	0	33	0	353370112	50	6520
2026-01-06 17:37:38.35	5.16	15.59	-39.0	-40.1	21.4	0.00e+00	0	33	0	360710144	50	6511
2026-01-06 17:37:42.39	4.44	15.84	-39.7	-41.0	20.9	0.00e+00	0	33	0	368050176	52	6402
2026-01-06 17:37:46.43	3.70	16.09	-38.8	-40.0	21.6	0.00e+00	0	33	0	376438784	50	6399
2026-01-06 17:37:50.46	2.96	16.33	-38.4	-39.5	22.1	0.00e+00	0	33	0	383778816	50	6076
2026-01-06 17:37:54.50	2.20	16.58	-37.5	-38.5	23.1	0.00e+00	0	33	0	391118848	48	6052
2026-01-06 17:37:58.54	1.43	16.82	-37.7	-38.7	22.8	0.00e+00	0	33	0	398458880	48	6215
2026-01-06 17:38:02.57	0.65	17.05	-37.1	-38.0	23.3	0.00e+00	0	33	0	405798912	48	5728
2026-01-06 17:38:06.61	359.86	17.29	-37.1	-38.0	23.4	0.00e+00	0	33	0	414187520	48	5733
2026-01-06 17:38:10.65	359.05	17.52	-36.9	-37.8	23.5	0.00e+00	0	33	0	421527552	48	5584
2026-01-06 17:38:14.68	358.23	17.75	-36.9	-37.8	23.5	0.00e+00	0	33	0	428867584	46	6269
2026-01-06 17:38:18.72	357.40	17.97	-36.2	-37.0	24.0	0.00e+00	0	33	0	436207616	46	5725
2026-01-06 17:38:22.76	356.55	18.19	-36.7	-37.6	23.7	0.00e+00	0	33	0	443547648	46	6170
2026-01-06 17:38:26.80	355.69	18.41	-36.9	-37.8	23.0	0.00e+00	0	33	0	451936256	46	6279
2026-01-06 17:38:30.84	354.82	18.61	-37.4	-38.3	23.2	0.00e+00	0	33	0	459276288	46	6677
2026-01-06 17:38:34.87	353.94	18.82	-36.8	-37.7	23.7	0.00e+00	0	33	0	466616320	46	6195
2026-01-06 17:38:38.91	353.05	19.02	-36.7	-37.6	23.6	0.00e+00	0	33	0	473956352	46	6135
2026-01-06 17:38:42.95	352.14	19.21	-35.6	-36.4	24.5	0.00e+00	0	33	0	482344960	44	6005
2026-01-06 17:38:46.99	351.23	19.40	-35.9	-36.7	24.3	0.00e+00	0	33	0	489684992	44	6222
2026-01-06 17:38:51.02	350.30	19.58	-35.9	-36.8	24.0	0.00e+00	0	33	0	497025024	44	6268
2026-01-06 17:38:55.06	349.36	19.75	-36.4	-37.3	23.9	0.00e+00	0	33	0	504365056	44	6655
2026-01-06 17:38:59.10	348.41	19.92	-36.3	-37.2	24.0	0.00e+00	0	33	0	511705088	44	6567
2026-01-06 17:39:03.14	347.45	20.08	-36.4	-37.3	23.8	0.00e+00	0	33	0	520093696	44	6633
2026-01-06 17:39:07.17	346.48	20.23	-35.6	-36.4	24.5	0.00e+00	0	33	0	527433728	44	6024
2026-01-06 17:39:11.21	345.50	20.37	-35.9	-36.7	24.4	0.00e+00	0	33	0	534773760	44	6198
2026-01-06 17:39:15.24	344.52	20.51	-35.5	-36.3	24.6	0.00e+00	0	33	0	542113792	44	5959
2026-01-06 17:39:19.27	343.52	20.63	-36.7	-37.6	23.8	0.00e+00	0	33	0	550502400	44	6863
2026-01-06 17:39:23.31	342.52	20.75	-37.1	-38.1	23.2	0.00e+00	0	33	0	557842432	46	6465
2026-01-06 17:39:27.34	341.51	20.86	-38.4	-39.4	22.3	0.00e+00	0	33	0	565182464	48	6767
2026-01-06 17:39:31.38	340.49	20.96	-37.6	-38.6	22.9	0.00e+00	0	33	0	572522496	48	6144
2026-01-06 17:39:35.42	339.46	21.06	-37.3	-38.3	23.2	0.00e+00	0	33	0	579862528	48	5918
2026-01-06 17:39:39.46	338.43	21.14	-38.7	-39.8	22.1	0.00e+00	0	33	0	588251136	48	7034
2026-01-06 17:39:43.49	337.39	21.21	-37.4	-38.3	23.2	0.00e+00	0	34	0	595591168	48	5947
2026-01-06 17:39:47.52	336.35	21.27	-38.5	-39.5	22.2	0.00e+00	0	33	0	602931200	48	6831
2026-01-06 17:39:51.56	335.31	21.33	-37.3	-38.3	23.2	0.00e+00	0	33	0	610271232	48	5916
2026-01-06 17:39:55.59	334.26	21.37	-37.9	-38.9	22.7	0.00e+00	0	33	0	618659840	48	6335
2026-01-06 17:39:59.63	333.21	21.40	-38.3	-39.3	22.3	0.00e+00	0	33	0	625999872	48	6665
2026-01-06 17:40:03.66	332.16	21.42	-38.4	-39.5	22.1	0.00e+00	0	33	0	633339904	48	6812
2026-01-06 17:40:07.70	331.10	21.43	-38.5	-39.6	22.2	0.00e+00	0	34	0	640679936	48	6887
2026-01-06 17:40:11.74	330.05	21.43	-37.0	-37.9	23.5	0.00e+00	0	33	0	648019968	48	5633
2026-01-06 17:40:15.77	328.99	21.43	-37.2	-38.1	23.3	0.00e+00	0	33	0	656408576	48	5785
2026-01-06 17:40:19.81	327.94	21.41	-37.7	-38.7	23.0	0.00e+00	0	33	0	663748608	48	6221
2026-01-06 17:40:23.85	326.89	21.38	-37.5	-38.5	22.4	0.00e+00	0	33	0	671088640	48	6084
2026-01-06 17:40:27.88	325.84	21.34	-37.3	-38.3	23.3	0.00e+00	0	33	0	678428672	48	5903
2026-01-06 17:40:31.92	324.79	21.29	-36.2	-37.1	24.1	0.00e+00	0	33	0	685768704	46	5773
2026-01-06 17:40:35.96	323.75	21.23	-35.8	-36.6	24.5	0.00e+00	0	33	0	694157312	46	5442
2026-01-06 17:40:39.99	322.71	21.16	-36.1	-37.0	24.3	0.00e+00	0	33	0	701497344	44	6398
2026-01-06 17:40:44.03	321.67	21.08	-36.2	-37.1	24.0	0.00e+00	0	33	0	708837376	44	6496
2026-01-06 17:40:48.07	320.64	20.99	-35.7	-36.5	24.5	0.00e+00	0	33	0	716177408	44	6077
2026-01-06 17:40:52.10	319.62	20.89	-35.8	-36.7	24.3	0.00e+00	0	33	0	724566016	44	6189
2026-01-06 17:40:56.14	318.61	20.78	-36.3	-37.1	24.2	0.00e+00	0	33	0	731906048	44	6497
2026-01-06 17:41:00.17	317.60	20.67	-36.2	-37.0	24.2	0.00e+00	0	33	0	739246080	44	6440
2026-01-06 17:41:04.21	316.60	20.54	-36.5	-37.3	24.0	0.00e+00	0	33	0	746586112	44	6658
2026-01-06 17:41:08.24	315.61	20.41	-37.5	-38.5	23.1	0.00e+00	0	34	0	753926144	46	6796
2026-01-06 17:41:12.28	314.63	20.27	-36.9	-37.8	23.7	0.00e+00	0	33	0	762314752	46	6292
2026-01-06 17:41:16.32	313.66	20.12	-37.6	-38.6	23.0	0.00e+00	0	33	0	769654784	46	6873
2026-01-06 17:41:20.35	312.69	19.96	-38.6	-39.7	22.1	0.00e+00	0	33	0	776994816	48	6937
2026-01-06 17:41:24.39	311.74	19.80	-38.8	-39.9	22.0	0.00e+00	0	33	0	784334848	50	6341
2026-01-06 17:41:28.43	310.80	19.62	-37.7	-38.6	23.1	0.00e+00	0	33	0	792723456	50	5461
2026-01-06 17:41:32.47	309.86	19.45	-38.0	-39.0	22.7	0.00e+00	0	33	0	800063488	48	6446
2026-01-06 17:41:36.50	308.94	19.26	-37.2	-38.1	23.5	0.00e+00	0	33	0	807403520	48	5783
2026-01-06 17:41:40.54	308.03	19.07	-36.3	-37.1	24.0	0.00e+00	0	33	0	814743552	46	5805
2026-01-06 17:41:44.58	307.13	18.87	-36.2	-37.0	24.1	0.00e+00	0	33	0	822083584	46	5757
2026-01-06 17:41:48.61	306.25	18.67	-37.0	-37.9	23.5	0.00e+00	0	33	0	830472192	46	6362
2026-01-06 17:41:52.66	305.37	18.46	-38.9	-40.0	21.9	0.00e+00	0	33	0	837812224	50	6411
2026-01-06 17:41:56.69	304.51	18.25	-38.9	-40.0	21.9	0.00e+00	0	33	0	845152256	50	6427
2026-01-06 17:42:00.73	303.66	18.03	-40.2	-41.5	20.6	0.00e+00	0	33	0	852492288	52	6834
2026-01-06 17:42:04.76	302.83	17.81	-39.5	-40.6	21.5	0.00e+00	0	33	0	859832320	52	6169
2026-01-06 17:42:08.80	302.00	17.58	-37.3	-38.2	23.3	0.00e+00	0	33	0	868220928	48	5868
2026-01-06 17:42:12.84	301.19	17.35	-36.9	-37.8	23.6	0.00e+00	0	33	0	875560960	48	5594
2026-01-06 17:42:16.87	300.39	17.11	-37.8	-38.7	22.8	0.00e+00	0	33	0	882900992	46	6979
2026-01-06 17:42:20.91	299.60	16.88	-37.7	-38.6	23.0	0.00e+00	0	33	0	890241024	48	6135
2026-01-06 17:42:24.95	298.83	16.64	-37.1	-38.0	23.5	0.00e+00	0	33	0	898629632	46	6439
2026-01-06 17:42:28.99	298.06	16.39	-38.7	-39.7	21.9	0.00e+00	0	33	0	905969664	50	6228
2026-01-06 17:42:33.02	297.31	16.15	-38.7	-39.7	22.0	0.00e+00	0	33	0	913309696	50	6215
2026-01-06 17:42:37.06	296.58	15.90	-38.1	-39.1	22.5	0.00e+00	0	33	0	920649728	50	5800
2026-01-06 17:42:41.10	295.85	15.65	-37.7	-38.7	22.8	0.00e+00	0	33	0	927989760	48	6187
2026-01-06 17:42:45.14	295.14	15.39	-37.8	-38.7	22.7	0.00e+00	0	33	0	936378368	48	6225
2026-01-06 17:42:49.17	294.44	15.14	-38.7	-39.8	21.9	0.00e+00	0	33	0	943718400	50	6282
2026-01-06 17:42:53.21	293.75	14.88	-38.4	-39.4	22.3	0.00e+00	0	33	0	951058432	50	5969
2026-01-06 17:42:57.25	293.07	14.63	-37.8	-38.8	22.8	0.00e+00	0	33	0	958398464	48	6272
2026-01-06 17:43:01.29	292.41	14.37	-38.3	-39.4	22.3	0.00e+00	0	33	0	966787072	48	6694
2026-01-06 17:43:05.32	291.75	14.11	-38.3	-39.3	22.1	0.00e+00	0	33	0	974127104	48	6685
2026-01-06 17:43:09.36	291.11	13.85	-37.6	-38.5	23.1	0.00e+00	0	33	0	981467136	48	6101
2026-01-06 17:43:13.40	290.48	13.58	-37.2	-38.1	23.3	0.00e+00	0	33	0	988807168	48	5786
2026-01-06 17:43:17.43	289.86	13.32	-36.6	-37.4	23.8	0.00e+00	0	33	0	996147200	46	6002
2026-01-06 17:43:21.47	289.26	13.06	-36.3	-37.1	24.1	0.00e+00	0	33	0	1004535808	46	5785
2026-01-06 17:43:25.51	288.66	12.80	-36.7	-37.6	23.7	0.00e+00	0	33	0	1011875840	46	6106
2026-01-06 17:43:29.55	288.07	12.53	-37.5	-38.4	23.0	0.00e+00	0	33	0	1019215872	46	6744
2026-01-06 17:43:33.58	287.50	12.27	-37.3	-38.3	23.1	0.00e+00	0	34	0	1026555904	46	6625
2026-01-06 17:43:37.62	286.93	12.01	-36.5	-37.3	23.9	0.00e+00	0	33	0	1033895936	46	5948
2026-01-06 17:43:41.66	286.37	11.74	-36.6	-37.5	23.7	0.00e+00	0	33	0	1042284544	46	6040
2026-01-06 17:43:45.70	285.83	11.48	-37.5	-38.5	22.9	0.00e+00	0	33	0	1049624576	46	6770
2026-01-06 17:43:49.73	285.29	11.22	-37.8	-38.8	22.6	0.00e+00	0	33	0	1056964608	48	6291
2026-01-06 17:43:53.76	284.77	10.96	-38.0	-39.1	21.9	0.00e+00	0	33	0	1064304640	48	6477
2026-01-06 17:43:57.80	284.25	10.70	-37.0	-37.9	23.3	0.00e+00	0	33	0	1072693248	48	5644
2026-01-06 17:44:01.84	283.75	10.43	-36.5	-37.4	23.8	0.00e+00	0	34	0	1080033280	46	5965
2026-01-06 17:44:05.88	283.25	10.17	-37.2	-38.2	23.1	0.00e+00	0	33	0	1087373312	46	6557
2026-01-06 17:44:09.92	282.76	9.91	-38.1	-39.1	22.3	0.00e+00	0	33	0	1094713344	48	6510
2026-01-06 17:44:13.95	282.28	9.66	-38.0	-39.0	22.4	0.00e+00	0	33	0	1102053376	48	6430
2026-01-06 17:44:17.99	281.81	9.40	-37.8	-38.7	22.5	0.00e+00	0	34	0	1110441984	48	6241
2026-01-06 17:44:22.03	281.35	9.14	-38.0	-39.1	22.3	0.00e+00	0	33	0	1117782016	48	6470
2026-01-06 17:44:26.07	280.89	8.88	-38.4	-39.4	22.0	0.00e+00	0	33	0	1125122048	48	6739
2026-01-06 17:44:30.11	280.44	8.63	-38.8	-39.9	21.5	0.00e+00	0	33	0	1132462080	50	6357
2026-01-06 17:44:34.14	280.01	8.37	-39.1	-40.2	21.1	0.00e+00	0	33	0	1140850688	50	6578
2026-01-06 17:44:38.18	279.57	8.12	-38.9	-40.0	21.5	0.00e+00	0	33	0	1148190720	50	6414
2026-01-06 17:44:42.22	279.15	7.87	-38.6	-39.7	21.7	0.00e+00	0	33	0	1155530752	50	6196
2026-01-06 17:44:46.25	278.74	7.61	-39.6	-40.8	20.7	0.00e+00	0	33	0	1162870784	50	7061
2026-01-06 17:44:50.29	278.33	7.36	-40.3	-41.7	19.9	0.00e+00	0	33	0	1170210816	52	6978
2026-01-06 17:44:54.33	277.93	7.11	-40.0	-41.3	20.3	0.00e+00	0	33	0	1178599424	52	6621
2026-01-06 17:44:58.37	277.53	6.87	-39.2	-40.4	21.0	0.00e+00	0	33	0	1185939456	52	5998
2026-01-06 17:45:02.41	277.14	6.62	-39.1	-40.2	21.0	0.00e+00	0	33	0	1193279488	52	5876
2026-01-06 17:45:06.45	276.76	6.37	-39.1	-40.2	21.2	0.00e+00	0	33	0	1200619520	52	5863
2026-01-06 17:45:10.48	276.39	6.13	-39.5	-40.7	20.7	0.00e+00	0	33	0	1209008128	52	6219
2026-01-06 17:45:14.51	276.02	5.88	-39.5	-40.7	20.7	0.00e+00	0	33	0	1216348160	52	6211
2026-01-06 17:45:18.55	275.66	5.64	-39.2	-40.3	21.0	0.00e+00	0	33	0	1223688192	52	5963
2026-01-06 17:45:22.59	275.30	5.40	-39.5	-40.7	20.6	0.00e+00	0	33	0	1231028224	52	6215
2026-01-06 17:45:26.62	274.96	5.16	-39.2	-40.4	20.8	0.00e+00	0	33	0	1238368256	52	5999
2026-01-06 17:45:30.66	274.61	4.92	-39.5	-40.7	20.5	0.00e+00	0	33	0	1246756864	52	6229
2026-01-06 17:45:34.69	274.27	4.68	-40.0	-41.4	19.9	0.00e+00	0	33	0	1254096896	52	6698
2026-01-06 17:45:38.73	273.94	4.44	-40.6	-42.2	19.1	0.00e+00	0	33	0	1261436928	52	7344
2026-01-06 17:45:42.77	273.62	4.21	-41.4	-43.1	18.0	0.00e+00	0	33	0	1268776960	54	7328
2026-01-06 17:45:46.81	273.29	3.97	-41.9	-43.9	17.6	0.00e+00	0	33	0	1276116992	56	7118
2026-01-06 17:45:50.85	272.98	3.74	-41.9	-43.8	17.4	0.00e+00	0	33	0	1284505600	56	7072
2026-01-06 17:45:54.89	272.67	3.51	-41.7	-43.6	17.5	0.00e+00	0	33	0	1291845632	56	6910
2026-01-06 17:45:58.93	272.36	3.28	-41.4	-43.2	17.8	0.00e+00	0	33	0	1299185664	56	6604
2026-01-06 17:46:02.97	272.06	3.05	-41.7	-43.6	17.6	0.00e+00	0	34	0	1306525696	56	6889
2026-01-06 17:46:07.01	271.76	2.82	-48.4	-63.6	3.6	1.51e+00	0	33	104	1307574272	60	54578
2026-01-06 17:46:11.05	271.47	2.59	-48.5	-63.7	3.6	1.51e+00	0	34	104	1307574272	60	55640
2026-01-06 17:46:15.09	271.19	2.36	-48.2	-63.7	3.6	1.51e+00	0	34	104	1307574272	60	55108
2026-01-06 17:46:19.13	270.90	2.14	-48.3	-63.6	3.6	1.51e+00	0	33	104	1307574272	60	54614
2026-01-06 17:46:23.17	270.63	1.91	-48.5	-63.6	3.6	1.51e+00	0	34	104	1307574272	60	54803
2026-01-06 17:46:27.20	270.35	1.69	-48.5	-63.7	3.6	1.51e+00	0	34	104	1307574272	60	55208
2026-01-06 17:46:31.24	270.08	1.47	-48.5	-63.6	3.6	1.51e+00	0	34	104	1307574272	60	54654
2026-01-06 17:46:35.28	269.82	1.25	-48.5	-63.6	3.6	1.51e+00	0	34	104	1307574272	60	54575
2026-01-06 17:46:39.32	269.56	1.03	-48.5	-63.6	3.6	1.51e+00	0	34	104	1307574272	60	54756
2026-01-06 17:46:43.36	269.30	0.81	-48.5	-63.6	3.6	1.51e+00	0	34	104	1307574272	60	54852
2026-01-06 17:46:47.40	269.05	0.59	-48.5	-63.6	3.6	1.51e+00	0	34	104	1307574272	60	54440
2026-01-06 17:46:51.44	268.80	0.38	-48.4	-63.6	3.6	1.51e+00	0	34	104	1307574272	60	54894
2026-01-06 17:46:55.48	268.55	0.16	-48.4	-63.6	3.6	1.51e+00	0	34	104	1307574272	60	54767
2026-01-06 17:46:59.52	268.31	-0.05	-48.4	-63.6	3.6	1.51e+00	0	34	104	1307574272	60	54678

#Closed at: 2026-01-06 17:47:01
#Recorded file [1307 MB]: D:/lorett/data/35029_260107_053324.dat