passes_logs/2026/01/06/R4.6S_Anadyr/R4.6S_Anadyr__20260106_013832_NOAA_21_JPSS-2_rec.log

#Pass ID: 20260106_013832_NOAA 21 (JPSS-2)
#Satellite: NOAA 21 (JPSS-2)
#Configuration: NOAA-21
#almurnet v.1.7.20251203
#Start time: 2026-01-06 01:38:34

#Version: 2.2.20231116
#Station: R4.6S_Anadyr
#Location: 177.4865 lon 64.73178 lat
#TLE: 1 54234U 22150A   26005.42670836  .00000142  00000+0  88292-4 0  9996
#TLE: 2 54234  98.7490 306.4427 0001045 340.6622  19.4514 14.19532269163451

#Time	Az	El	Level	Level2	SNR	BER	BlckErr	Temp	State	Recorded	gain1	gain2
2026-01-06 01:38:34.40	192.77	0.09	-48.8	-66.6	3.5	3.02e+01	0	31	0	0	60	82239
2026-01-06 01:38:38.44	192.96	0.32	-48.6	-61.5	3.5	1.52e+00	0	33	104	0	60	41536
2026-01-06 01:38:42.48	193.15	0.55	-48.7	-61.5	3.5	1.52e+00	0	33	104	0	60	41882
2026-01-06 01:38:46.52	193.34	0.78	-48.4	-61.2	3.5	1.51e+00	0	33	104	0	60	40253
2026-01-06 01:38:50.56	193.54	1.01	-47.3	-60.0	3.5	1.52e+00	0	33	104	0	60	35185
2026-01-06 01:38:54.60	193.74	1.24	-47.3	-60.1	3.5	1.52e+00	0	33	104	0	60	35327
2026-01-06 01:38:58.64	193.94	1.48	-47.3	-60.1	3.5	1.52e+00	0	33	104	0	60	35459
2026-01-06 01:39:02.68	194.14	1.72	-47.3	-60.1	3.5	1.52e+00	0	33	104	0	60	35314
2026-01-06 01:39:06.72	194.35	1.96	-47.3	-59.9	3.5	1.52e+00	0	33	104	0	60	34736
2026-01-06 01:39:10.76	194.56	2.20	-47.3	-60.1	3.5	1.52e+00	0	33	104	0	60	35362
2026-01-06 01:39:14.80	194.77	2.44	-47.3	-60.1	3.5	1.52e+00	0	33	104	0	60	35555
2026-01-06 01:39:18.84	194.99	2.69	-47.2	-58.6	3.6	1.51e+00	0	33	104	0	60	29827
2026-01-06 01:39:22.88	195.21	2.93	-47.2	-58.9	3.5	1.51e+00	0	33	104	0	60	30814
2026-01-06 01:39:26.92	195.44	3.18	-42.9	-45.3	14.1	1.75e-05	122	34	0	8388608	60	6454
2026-01-06 01:39:30.96	195.66	3.43	-39.8	-41.3	17.9	0.00e+00	123	33	0	20971520	54	5733
2026-01-06 01:39:35.00	195.90	3.68	-39.9	-41.8	17.1	1.41e+00	22	33	104	29360128	50	7642
2026-01-06 01:39:39.04	196.13	3.94	-39.1	-40.5	19.0	0.00e+00	123	34	0	39845888	52	5878
2026-01-06 01:39:43.07	196.37	4.19	-38.6	-39.9	19.5	0.00e+00	122	34	0	52428800	50	6173
2026-01-06 01:39:47.11	196.61	4.45	-37.6	-38.8	20.5	0.00e+00	123	34	0	65011712	48	6075
2026-01-06 01:39:51.15	196.86	4.71	-37.6	-38.7	20.6	0.00e+00	123	34	0	77594624	48	6033
2026-01-06 01:39:55.19	197.11	4.98	-37.3	-38.5	20.9	0.00e+00	123	34	0	90177536	48	5879
2026-01-06 01:39:59.22	197.37	5.24	-37.0	-38.1	21.2	0.00e+00	123	34	0	102760448	48	5645
2026-01-06 01:40:03.25	197.63	5.51	-37.0	-38.1	21.3	0.00e+00	122	34	0	115343360	48	5611
2026-01-06 01:40:07.29	197.89	5.77	-37.0	-38.1	21.3	0.00e+00	120	34	0	127926272	48	5620
2026-01-06 01:40:11.33	198.16	6.05	-36.7	-37.8	21.7	0.00e+00	121	34	0	140509184	46	6101
2026-01-06 01:40:15.37	198.43	6.32	-37.0	-38.1	21.3	0.00e+00	122	34	0	153092096	46	6331
2026-01-06 01:40:19.40	198.71	6.60	-36.5	-37.5	21.9	0.00e+00	121	34	0	165675008	46	5920
2026-01-06 01:40:23.43	199.00	6.87	-36.5	-37.6	21.8	0.00e+00	120	34	0	178257920	46	5944
2026-01-06 01:40:27.47	199.28	7.16	-36.1	-37.1	22.2	0.00e+00	122	34	0	190840832	46	5649
2026-01-06 01:40:31.51	199.58	7.44	-36.1	-37.1	22.3	0.00e+00	123	34	0	203423744	46	5634
2026-01-06 01:40:35.55	199.88	7.73	-36.2	-37.2	22.3	0.00e+00	120	34	0	216006656	46	5689
2026-01-06 01:40:39.59	200.19	8.01	-36.0	-37.0	22.4	0.00e+00	121	34	0	228589568	46	5545
2026-01-06 01:40:43.63	200.50	8.31	-35.9	-36.9	22.6	0.00e+00	123	34	0	241172480	46	5489
2026-01-06 01:40:47.67	200.82	8.60	-35.8	-36.8	22.6	0.00e+00	122	34	0	253755392	46	5454
2026-01-06 01:40:51.71	201.14	8.90	-35.8	-36.8	22.6	0.00e+00	120	34	0	266338304	46	5460
2026-01-06 01:40:55.75	201.47	9.20	-35.6	-36.6	22.8	0.00e+00	123	34	0	278921216	44	5954
2026-01-06 01:40:59.79	201.81	9.50	-35.8	-36.8	22.6	0.00e+00	123	34	0	291504128	44	6097
2026-01-06 01:41:03.83	202.15	9.80	-35.7	-36.7	22.7	0.00e+00	120	34	0	304087040	44	6005
2026-01-06 01:41:07.86	202.50	10.11	-35.5	-36.4	23.0	0.00e+00	123	34	0	316669952	44	5834
2026-01-06 01:41:11.90	202.86	10.42	-35.3	-36.3	23.1	0.00e+00	123	34	0	329252864	44	5743
2026-01-06 01:41:15.94	203.22	10.74	-35.4	-36.4	23.1	0.00e+00	123	34	0	342884352	44	5795
2026-01-06 01:41:19.97	203.59	11.05	-35.2	-36.2	23.2	0.00e+00	120	34	0	355467264	44	5669
2026-01-06 01:41:24.01	203.97	11.37	-35.4	-36.4	23.1	0.00e+00	120	34	0	367001600	44	5816
2026-01-06 01:41:28.05	204.36	11.70	-34.9	-35.9	23.5	0.00e+00	123	34	0	380633088	44	5505
2026-01-06 01:41:32.08	204.76	12.02	-34.8	-35.8	23.6	0.00e+00	122	34	0	393216000	44	5415
2026-01-06 01:41:36.12	205.16	12.35	-34.9	-35.8	23.6	0.00e+00	123	34	0	405798912	44	5438
2026-01-06 01:41:40.16	205.58	12.69	-34.9	-35.8	23.5	0.00e+00	122	34	0	418381824	42	6107
2026-01-06 01:41:44.19	206.00	13.02	-34.6	-35.5	23.8	0.00e+00	122	34	0	430964736	42	5926
2026-01-06 01:41:48.23	206.43	13.36	-34.7	-35.6	23.7	0.00e+00	123	34	0	443547648	42	5969
2026-01-06 01:41:52.27	206.88	13.71	-34.6	-35.5	23.8	0.00e+00	123	34	0	456130560	42	5890
2026-01-06 01:41:56.31	207.33	14.05	-34.7	-35.6	23.7	0.00e+00	123	34	0	468713472	42	5952
2026-01-06 01:42:00.34	207.79	14.40	-34.6	-35.6	23.8	0.00e+00	120	34	0	481296384	42	5952
2026-01-06 01:42:04.38	208.26	14.75	-34.6	-35.6	23.8	0.00e+00	123	34	0	493879296	42	5949
2026-01-06 01:42:08.42	208.75	15.11	-34.7	-35.6	23.9	0.00e+00	123	34	0	506462208	42	5975
2026-01-06 01:42:12.46	209.24	15.47	-34.6	-35.5	23.9	0.00e+00	123	34	0	519045120	42	5925
2026-01-06 01:42:16.49	209.75	15.83	-34.7	-35.6	23.9	0.00e+00	122	34	0	531628032	42	5959
2026-01-06 01:42:20.53	210.27	16.20	-34.7	-35.6	23.9	0.00e+00	122	34	0	544210944	42	5957
2026-01-06 01:42:24.56	210.80	16.57	-34.6	-35.5	24.0	0.00e+00	122	34	0	556793856	42	5918
2026-01-06 01:42:28.60	211.34	16.94	-34.6	-35.5	24.0	0.00e+00	122	34	0	569376768	42	5877
2026-01-06 01:42:32.64	211.90	17.31	-34.4	-35.3	24.1	0.00e+00	123	34	0	581959680	42	5784
2026-01-06 01:42:36.67	212.47	17.69	-34.5	-35.4	24.1	0.00e+00	122	34	0	594542592	42	5827
2026-01-06 01:42:40.71	213.05	18.08	-34.3	-35.2	24.2	0.00e+00	123	34	0	607125504	42	5688
2026-01-06 01:42:44.74	213.65	18.46	-34.5	-35.4	24.0	0.00e+00	123	34	0	619708416	42	5843
2026-01-06 01:42:48.78	214.27	18.85	-34.2	-35.1	24.3	0.00e+00	121	34	0	632291328	42	5605
2026-01-06 01:42:52.82	214.90	19.24	-34.2	-35.2	24.3	0.00e+00	123	34	0	644874240	42	5662
2026-01-06 01:42:56.86	215.54	19.63	-34.2	-35.1	24.2	0.00e+00	120	34	0	657457152	42	5639
2026-01-06 01:43:00.90	216.21	20.03	-33.8	-34.7	24.4	0.00e+00	120	34	0	670040064	42	5404
2026-01-06 01:43:04.93	216.88	20.43	-33.8	-34.7	24.5	0.00e+00	120	34	0	682622976	40	6028
2026-01-06 01:43:08.97	217.58	20.83	-33.7	-34.6	24.4	0.00e+00	123	34	0	695205888	40	5957
2026-01-06 01:43:13.01	218.30	21.23	-33.4	-34.3	24.8	0.00e+00	123	34	0	707788800	40	5736
2026-01-06 01:43:17.04	219.03	21.64	-33.3	-34.2	24.9	0.00e+00	122	34	0	720371712	40	5698
2026-01-06 01:43:21.08	219.78	22.05	-33.2	-34.1	25.0	0.00e+00	123	34	0	732954624	40	5646
2026-01-06 01:43:25.12	220.55	22.46	-33.0	-33.9	25.2	0.00e+00	121	34	0	746586112	40	5505
2026-01-06 01:43:29.16	221.34	22.87	-33.0	-33.9	25.1	0.00e+00	122	34	0	758120448	40	5487
2026-01-06 01:43:33.20	222.15	23.28	-32.8	-33.7	25.1	0.00e+00	122	34	0	771751936	40	5377
2026-01-06 01:43:37.23	222.98	23.69	-32.9	-33.8	25.1	0.00e+00	122	34	0	784334848	40	5446
2026-01-06 01:43:41.27	223.84	24.10	-32.8	-33.7	25.1	0.00e+00	123	34	0	796917760	40	5350
2026-01-06 01:43:45.31	224.72	24.51	-33.0	-33.9	25.0	0.00e+00	123	34	0	809500672	40	5506
2026-01-06 01:43:49.34	225.61	24.92	-33.1	-34.0	25.1	0.00e+00	122	34	0	822083584	40	5546
2026-01-06 01:43:53.38	226.54	25.33	-33.3	-34.2	25.0	0.00e+00	123	34	0	834666496	40	5668
2026-01-06 01:43:57.42	227.48	25.74	-33.7	-34.6	24.7	0.00e+00	123	34	0	847249408	40	5978
2026-01-06 01:44:01.46	228.45	26.15	-34.0	-34.9	24.4	0.00e+00	120	34	0	859832320	40	6163
2026-01-06 01:44:05.50	229.45	26.55	-33.6	-34.4	24.8	0.00e+00	123	34	0	872415232	40	5844
2026-01-06 01:44:09.54	230.46	26.95	-33.7	-34.6	24.7	0.00e+00	122	34	0	884998144	40	5961
2026-01-06 01:44:13.57	231.51	27.35	-34.0	-34.9	24.5	0.00e+00	122	34	0	897581056	40	6160
2026-01-06 01:44:17.61	232.58	27.74	-34.0	-34.8	24.6	0.00e+00	123	34	0	910163968	40	6126
2026-01-06 01:44:21.65	233.67	28.12	-33.7	-34.6	24.8	0.00e+00	123	34	0	922746880	40	5961
2026-01-06 01:44:25.69	234.79	28.50	-34.2	-35.1	24.3	0.00e+00	122	34	0	935329792	40	6299
2026-01-06 01:44:29.73	235.94	28.88	-34.1	-35.0	24.3	0.00e+00	123	34	0	947912704	40	6254
2026-01-06 01:44:33.76	237.11	29.24	-34.0	-34.9	24.5	0.00e+00	122	34	0	960495616	40	6139
2026-01-06 01:44:37.80	238.31	29.60	-34.1	-35.0	24.4	0.00e+00	123	34	0	973078528	40	6229
2026-01-06 01:44:41.84	239.54	29.95	-34.1	-35.0	24.6	0.00e+00	122	34	0	985661440	40	6210
2026-01-06 01:44:45.88	240.79	30.29	-33.8	-34.6	24.7	0.00e+00	123	34	0	998244352	40	5990
2026-01-06 01:44:49.92	242.07	30.61	-33.7	-34.6	24.9	0.00e+00	123	34	0	1010827264	40	5938
2026-01-06 01:44:53.95	243.37	30.93	-33.9	-34.8	24.4	0.00e+00	123	34	0	1023410176	40	6074
2026-01-06 01:44:57.99	244.69	31.23	-33.8	-34.7	24.7	0.00e+00	123	34	0	1035993088	40	6053
2026-01-06 01:45:02.03	246.04	31.52	-34.5	-35.5	24.1	0.00e+00	123	34	0	1048576000	40	6574
2026-01-06 01:45:06.06	247.41	31.79	-34.4	-35.3	24.3	0.00e+00	123	34	0	1061158912	42	5748
2026-01-06 01:45:10.10	248.81	32.05	-34.7	-35.6	24.1	0.00e+00	123	34	0	1073741824	42	5960
2026-01-06 01:45:14.14	250.22	32.29	-34.7	-35.6	23.9	0.00e+00	123	34	0	1086324736	42	5973
2026-01-06 01:45:18.17	251.66	32.51	-34.8	-35.7	24.0	0.00e+00	120	34	0	1098907648	42	6027
2026-01-06 01:45:22.21	253.11	32.72	-34.4	-35.3	24.2	0.00e+00	123	34	0	1111490560	42	5730
2026-01-06 01:45:26.25	254.58	32.90	-34.3	-35.2	24.3	0.00e+00	122	34	0	1124073472	42	5692
2026-01-06 01:45:30.29	256.07	33.07	-34.4	-35.3	24.1	0.00e+00	123	34	0	1137704960	42	5737
2026-01-06 01:45:34.33	257.57	33.21	-34.5	-35.4	24.1	0.00e+00	123	34	0	1150287872	42	5855
2026-01-06 01:45:38.36	259.08	33.34	-34.7	-35.6	24.1	0.00e+00	123	34	0	1162870784	42	5971
2026-01-06 01:45:42.39	260.61	33.44	-34.7	-35.6	24.1	0.00e+00	123	34	0	1175453696	42	5946
2026-01-06 01:45:46.43	262.14	33.52	-34.6	-35.5	24.2	0.00e+00	122	34	0	1188036608	42	5877
2026-01-06 01:45:50.47	263.68	33.58	-34.9	-35.8	23.8	0.00e+00	120	34	0	1200619520	42	6110
2026-01-06 01:45:54.51	265.22	33.62	-35.0	-35.9	23.8	0.00e+00	123	34	0	1213202432	42	6188
2026-01-06 01:45:58.55	266.77	33.63	-34.8	-35.7	24.0	0.00e+00	122	34	0	1225785344	42	6058
2026-01-06 01:46:02.58	268.31	33.62	-34.9	-35.8	23.9	0.00e+00	120	34	0	1238368256	42	6067
2026-01-06 01:46:06.62	269.85	33.59	-35.4	-36.3	23.5	0.00e+00	120	34	0	1250951168	42	6456
2026-01-06 01:46:10.66	271.39	33.53	-34.9	-35.8	23.9	0.00e+00	122	34	0	1263534080	42	6111
2026-01-06 01:46:14.70	272.92	33.46	-34.3	-35.2	24.4	0.00e+00	123	34	0	1276116992	42	5703
2026-01-06 01:46:18.74	274.45	33.36	-34.4	-35.3	24.3	0.00e+00	123	34	0	1288699904	42	5783
2026-01-06 01:46:22.78	275.96	33.24	-35.0	-35.9	23.8	0.00e+00	121	34	0	1301282816	42	6176
2026-01-06 01:46:26.82	277.46	33.10	-34.8	-35.7	23.9	0.00e+00	123	34	0	1313865728	42	6047
2026-01-06 01:46:30.86	278.95	32.93	-34.7	-35.5	24.1	0.00e+00	123	34	0	1326448640	42	5919
2026-01-06 01:46:34.90	280.42	32.75	-34.5	-35.4	24.2	0.00e+00	122	34	0	1339031552	42	5845
2026-01-06 01:46:38.94	281.88	32.55	-34.7	-35.7	23.8	0.00e+00	123	34	0	1351614464	42	6016
2026-01-06 01:46:42.98	283.32	32.33	-34.6	-35.5	23.7	0.00e+00	120	34	0	1364197376	42	5897
2026-01-06 01:46:47.02	284.73	32.09	-34.6	-35.5	23.9	0.00e+00	120	34	0	1376780288	42	5906
2026-01-06 01:46:51.06	286.13	31.84	-34.3	-35.3	23.8	0.00e+00	122	34	0	1389363200	42	5726
2026-01-06 01:46:55.10	287.50	31.57	-34.5	-35.3	24.2	0.00e+00	120	34	0	1401946112	42	5781
2026-01-06 01:46:59.14	288.85	31.29	-34.2	-35.1	24.4	0.00e+00	123	34	0	1414529024	42	5602
2026-01-06 01:47:03.18	290.18	30.99	-34.1	-35.0	24.5	0.00e+00	120	34	0	1427111936	42	5584
2026-01-06 01:47:07.22	291.48	30.68	-34.4	-35.3	24.3	0.00e+00	123	34	0	1439694848	42	5736
2026-01-06 01:47:11.25	292.76	30.36	-34.1	-35.0	24.5	0.00e+00	120	34	0	1452277760	42	5540
2026-01-06 01:47:15.29	294.01	30.02	-33.9	-34.8	24.6	0.00e+00	123	34	0	1464860672	42	5442
2026-01-06 01:47:19.33	295.24	29.68	-33.9	-34.8	24.6	0.00e+00	122	34	0	1478492160	42	5444
2026-01-06 01:47:23.37	296.44	29.32	-33.9	-34.8	24.5	0.00e+00	123	34	0	1491075072	42	5433
2026-01-06 01:47:27.41	297.61	28.96	-34.0	-34.9	24.4	0.00e+00	123	34	0	1503657984	40	6193
2026-01-06 01:47:31.44	298.76	28.59	-33.5	-34.4	24.6	0.00e+00	123	34	0	1516240896	40	5834
2026-01-06 01:47:35.48	299.88	28.21	-33.3	-34.2	24.9	0.00e+00	120	34	0	1528823808	40	5709
2026-01-06 01:47:39.52	300.98	27.83	-33.2	-34.1	25.0	0.00e+00	120	34	0	1541406720	40	5613
2026-01-06 01:47:43.56	302.05	27.44	-33.3	-34.2	24.8	0.00e+00	122	34	0	1553989632	40	5687
2026-01-06 01:47:47.60	303.09	27.05	-33.3	-34.2	25.0	0.00e+00	122	34	0	1566572544	40	5702
2026-01-06 01:47:51.64	304.11	26.65	-33.0	-33.9	25.2	0.00e+00	123	34	0	1579155456	40	5488
2026-01-06 01:47:55.67	305.11	26.25	-33.3	-34.1	25.0	0.00e+00	122	34	0	1591738368	40	5651
2026-01-06 01:47:59.71	306.08	25.85	-33.2	-34.1	24.9	0.00e+00	120	34	0	1604321280	40	5629
2026-01-06 01:48:03.75	307.02	25.44	-33.1	-34.0	25.1	0.00e+00	120	34	0	1616904192	40	5539
2026-01-06 01:48:07.79	307.95	25.04	-33.2	-34.0	25.2	0.00e+00	120	34	0	1629487104	40	5587
2026-01-06 01:48:11.83	308.85	24.63	-33.2	-34.1	25.1	0.00e+00	123	34	0	1642070016	40	5619
2026-01-06 01:48:15.87	309.73	24.22	-33.4	-34.2	24.8	0.00e+00	122	34	0	1654652928	40	5722
2026-01-06 01:48:19.91	310.58	23.81	-33.5	-34.4	24.7	0.00e+00	123	34	0	1667235840	40	5818
2026-01-06 01:48:23.95	311.41	23.40	-33.6	-34.5	24.7	0.00e+00	122	34	0	1679818752	40	5870
2026-01-06 01:48:27.98	312.23	23.00	-33.4	-34.3	24.7	0.00e+00	122	34	0	1692401664	40	5749
2026-01-06 01:48:32.02	313.02	22.59	-33.4	-34.3	24.7	0.00e+00	122	34	0	1704984576	40	5768
2026-01-06 01:48:36.06	313.79	22.18	-33.5	-34.3	24.7	0.00e+00	123	34	0	1717567488	40	5789
2026-01-06 01:48:40.10	314.55	21.78	-33.3	-34.2	24.9	0.00e+00	123	34	0	1730150400	40	5669
2026-01-06 01:48:44.13	315.28	21.38	-33.5	-34.3	24.7	0.00e+00	123	34	0	1742733312	40	5790
2026-01-06 01:48:48.17	315.99	20.97	-34.0	-34.9	24.4	0.00e+00	122	34	0	1755316224	40	6177
2026-01-06 01:48:52.21	316.69	20.58	-34.1	-35.0	24.4	0.00e+00	123	34	0	1767899136	40	6233
2026-01-06 01:48:56.25	317.37	20.18	-34.2	-35.1	24.3	0.00e+00	127	34	0	1780482048	40	6310
2026-01-06 01:49:00.29	318.04	19.78	-33.4	-34.3	24.9	0.00e+00	123	34	0	1793064960	40	5745
2026-01-06 01:49:04.32	318.68	19.39	-33.3	-34.1	25.0	0.00e+00	123	34	0	1805647872	40	5643
2026-01-06 01:49:08.36	319.32	19.00	-33.3	-34.2	24.9	0.00e+00	122	34	0	1818230784	40	5661
2026-01-06 01:49:12.40	319.93	18.62	-33.3	-34.2	24.8	0.00e+00	123	34	0	1830813696	40	5674
2026-01-06 01:49:16.44	320.53	18.23	-33.5	-34.4	24.6	0.00e+00	122	34	0	1844445184	40	5799
2026-01-06 01:49:20.48	321.12	17.85	-33.6	-34.5	24.5	0.00e+00	123	34	0	1857028096	40	5866
2026-01-06 01:49:24.52	321.69	17.48	-33.7	-34.6	24.4	0.00e+00	123	34	0	1869611008	40	5928
2026-01-06 01:49:28.56	322.25	17.10	-33.9	-34.8	24.4	0.00e+00	120	34	0	1882193920	40	6092
2026-01-06 01:49:32.60	322.80	16.73	-34.2	-35.1	24.2	0.00e+00	123	34	0	1894776832	40	6350
2026-01-06 01:49:36.64	323.33	16.37	-34.0	-34.9	24.3	0.00e+00	122	34	0	1907359744	40	6193
2026-01-06 01:49:40.68	323.85	16.00	-34.3	-35.2	24.1	0.00e+00	123	34	0	1919942656	40	6417
2026-01-06 01:49:44.72	324.36	15.64	-34.7	-35.6	23.9	0.00e+00	123	34	0	1932525568	40	6711
2026-01-06 01:49:48.76	324.86	15.28	-34.6	-35.5	23.7	0.00e+00	122	34	0	1945108480	40	6644
2026-01-06 01:49:52.80	325.35	14.93	-34.9	-35.8	23.4	0.00e+00	122	34	0	1957691392	42	6107
2026-01-06 01:49:56.84	325.82	14.58	-35.2	-36.1	23.3	0.00e+00	122	34	0	1970274304	42	6331
2026-01-06 01:50:00.89	326.29	14.23	-35.0	-35.9	23.6	0.00e+00	123	34	0	1982857216	42	6153
2026-01-06 01:50:04.92	326.74	13.89	-34.9	-35.9	23.6	0.00e+00	122	34	0	1995440128	42	6140
2026-01-06 01:50:08.96	327.19	13.54	-35.1	-36.0	23.3	0.00e+00	122	34	0	2008023040	42	6275
2026-01-06 01:50:13.00	327.62	13.21	-35.4	-36.3	23.2	0.00e+00	123	34	0	2020605952	42	6485
2026-01-06 01:50:17.03	328.05	12.87	-35.4	-36.4	23.2	0.00e+00	123	34	0	2033188864	42	6530
2026-01-06 01:50:21.07	328.46	12.54	-35.0	-36.0	23.4	0.00e+00	122	34	0	2045771776	42	6223
2026-01-06 01:50:25.11	328.87	12.21	-35.0	-36.0	23.4	0.00e+00	123	34	0	2058354688	42	6216
2026-01-06 01:50:29.14	329.27	11.89	-35.1	-36.1	23.3	0.00e+00	123	34	0	2070937600	42	6290
2026-01-06 01:50:33.18	329.66	11.57	-35.5	-36.5	22.9	0.00e+00	123	34	0	2083520512	42	6609
2026-01-06 01:50:37.22	330.04	11.25	-35.3	-36.2	23.2	0.00e+00	122	34	0	2096103424	42	6409
2026-01-06 01:50:41.26	330.42	10.93	-35.4	-36.3	23.1	0.00e+00	123	34	0	2108686336	42	6497
2026-01-06 01:50:45.30	330.79	10.62	-35.5	-36.5	22.9	0.00e+00	120	34	0	2121269248	42	6608
2026-01-06 01:50:49.34	331.15	10.31	-35.4	-36.4	22.9	0.00e+00	122	34	0	2133852160	42	6503
2026-01-06 01:50:53.37	331.50	10.00	-35.4	-36.4	22.9	0.00e+00	122	34	0	2146435072	42	6553
2026-01-06 01:50:57.40	331.85	9.70	-35.7	-36.7	22.8	0.00e+00	121	34	0	2159017984	44	6024
2026-01-06 01:51:01.44	332.19	9.40	-35.2	-36.2	23.0	0.00e+00	122	34	0	2171600896	44	5697
2026-01-06 01:51:05.48	332.52	9.10	-35.3	-36.2	23.0	0.00e+00	123	34	0	2185232384	44	5708
2026-01-06 01:51:09.51	332.84	8.81	-35.5	-36.5	22.7	0.00e+00	123	34	0	2196766720	44	5860
2026-01-06 01:51:13.55	333.17	8.51	-35.7	-36.7	22.5	0.00e+00	122	34	0	2209349632	44	6006
2026-01-06 01:51:17.59	333.48	8.22	-35.9	-36.9	22.3	0.00e+00	123	34	0	2222981120	44	6172
2026-01-06 01:51:21.63	333.79	7.94	-36.0	-37.0	22.2	0.00e+00	123	34	0	2235564032	44	6266
2026-01-06 01:51:25.66	334.09	7.65	-36.2	-37.3	22.0	0.00e+00	120	34	0	2248146944	44	6425
2026-01-06 01:51:29.70	334.39	7.37	-36.2	-37.3	21.9	0.00e+00	123	34	0	2260729856	44	6430
2026-01-06 01:51:33.74	334.68	7.09	-36.3	-37.4	21.6	0.00e+00	123	34	0	2273312768	44	6551
2026-01-06 01:51:37.78	334.97	6.81	-36.3	-37.4	21.5	0.00e+00	123	34	0	2285895680	44	6535
2026-01-06 01:51:41.82	335.25	6.54	-36.3	-37.4	21.5	0.00e+00	122	34	0	2298478592	44	6526
2026-01-06 01:51:45.86	335.53	6.27	-36.8	-37.9	20.8	0.00e+00	122	34	0	2311061504	46	6197
2026-01-06 01:51:49.90	335.80	6.00	-37.2	-38.4	20.3	0.00e+00	123	34	0	2323644416	46	6567
2026-01-06 01:51:53.94	336.07	5.73	-38.2	-39.6	18.9	0.00e+00	123	34	0	2336227328	48	6684
2026-01-06 01:51:57.98	336.33	5.46	-39.0	-40.6	17.3	0.00e+00	123	34	0	2348810240	50	6683
2026-01-06 01:52:02.01	336.59	5.20	-40.5	-42.7	14.8	0.00e+00	123	34	0	2361393152	52	7550
2026-01-06 01:52:06.05	336.85	4.94	-41.5	-44.4	12.0	2.27e-04	123	35	0	2373976064	54	8269
2026-01-06 01:52:10.09	337.10	4.68	-42.5	-46.7	9.2	1.39e-02	120	34	0	2386558976	56	9606
2026-01-06 01:52:14.13	337.35	4.42	-43.0	-48.7	6.3	1.72e-01	122	34	0	2399141888	58	10748
2026-01-06 01:52:18.16	337.59	4.17	-43.3	-51.8	3.8	1.43e+00	0	34	104	2403336192	58	15377
2026-01-06 01:52:22.20	337.83	3.91	-43.4	-53.7	3.9	1.48e+00	0	34	104	2403336192	58	19076
2026-01-06 01:52:26.23	338.06	3.66	-43.7	-55.2	3.5	1.51e+00	0	34	104	2403336192	58	22784
2026-01-06 01:52:30.27	338.29	3.41	-43.5	-55.8	3.5	1.52e+00	0	35	104	2403336192	58	24188
2026-01-06 01:52:34.30	338.52	3.17	-43.4	-56.2	3.5	1.52e+00	0	34	104	2403336192	58	25354
2026-01-06 01:52:38.34	338.75	2.92	-46.3	-59.2	3.5	1.52e+00	0	34	104	2403336192	60	31898
2026-01-06 01:52:42.38	338.97	2.68	-48.5	-61.4	3.5	1.52e+00	0	34	104	2403336192	60	41053
2026-01-06 01:52:46.41	339.18	2.44	-48.6	-61.5	3.5	1.52e+00	0	34	104	2403336192	60	41841
2026-01-06 01:52:50.45	339.40	2.20	-48.4	-61.3	3.5	1.52e+00	0	34	104	2403336192	60	40907
2026-01-06 01:52:54.49	339.61	1.96	-48.6	-61.4	3.5	1.52e+00	0	34	104	2403336192	60	41246
2026-01-06 01:52:58.53	339.82	1.72	-48.6	-61.4	3.5	1.52e+00	0	35	104	2403336192	60	41273
2026-01-06 01:53:02.57	340.03	1.49	-48.5	-61.3	3.5	1.52e+00	0	34	104	2403336192	60	40863
2026-01-06 01:53:06.61	340.23	1.25	-48.5	-61.4	3.5	1.52e+00	0	34	104	2403336192	60	41039
2026-01-06 01:53:10.65	340.43	1.02	-48.5	-61.4	3.5	1.52e+00	0	34	104	2403336192	60	41152
2026-01-06 01:53:14.68	340.62	0.79	-48.5	-61.4	3.5	1.51e+00	0	35	104	2403336192	60	41029
2026-01-06 01:53:18.73	340.82	0.56	-48.5	-61.3	3.5	1.52e+00	0	34	104	2403336192	60	40886
2026-01-06 01:53:22.77	341.01	0.34	-48.5	-61.3	3.5	1.52e+00	0	34	104	2403336192	60	40951
2026-01-06 01:53:26.81	341.20	0.11	-48.5	-61.4	3.5	1.52e+00	0	35	104	2403336192	60	41072

#Closed at: 2026-01-06 01:53:30
#Recorded file [2403 MB]: D:/lorett/data/35029_260106_133834.dat