passes_logs/2026/01/06/R4.6S_Anadyr/R4.6S_Anadyr__20260106_202035_FENGYUN_3E_rec.log

#Pass ID: 20260106_202035_FENGYUN 3E
#Satellite: FENGYUN 3E
#Configuration: FENGYUN 3E
#almurnet v.1.7.20251203
#Start time: 2026-01-06 20:20:37

#Version: 2.2.20231116
#Station: R4.6S_Anadyr
#Location: 177.4865 lon 64.73178 lat
#TLE: 1 49008U 21062A   26005.56299987  .00000339  00000+0  18069-3 0  9991
#TLE: 2 49008  98.7472  10.8019 0001562 158.0357 202.0886 14.19884907233502

#Time	Az	El	Level	Level2	SNR	BER	BlckErr	Temp	State	Recorded	gain1	gain2
2026-01-06 20:20:37.70	24.41	0.10	-48.5	-63.4	3.5	1.51e+00	0	31	0	0	60	53693
2026-01-06 20:20:41.74	24.29	0.34	-48.5	-59.7	3.6	8.45e-01	0	32	104	0	60	34910
2026-01-06 20:20:45.78	24.16	0.57	-48.2	-59.7	3.6	8.46e-01	0	32	104	0	60	35003
2026-01-06 20:20:49.82	24.03	0.81	-48.1	-59.3	3.6	8.45e-01	0	32	104	0	60	33313
2026-01-06 20:20:53.86	23.89	1.05	-47.1	-58.1	3.6	8.46e-01	0	32	104	0	60	29130
2026-01-06 20:20:57.90	23.76	1.29	-47.0	-58.2	3.6	8.45e-01	0	32	104	0	60	29468
2026-01-06 20:21:01.94	23.62	1.54	-47.0	-58.1	3.6	8.44e-01	0	32	104	0	60	29187
2026-01-06 20:21:05.98	23.48	1.78	-47.0	-58.2	3.6	8.45e-01	0	33	104	0	60	29278
2026-01-06 20:21:10.02	23.33	2.03	-47.0	-57.6	3.6	8.45e-01	0	33	104	0	60	27434
2026-01-06 20:21:14.06	23.18	2.28	-47.0	-58.2	3.6	8.45e-01	0	33	104	0	60	29288
2026-01-06 20:21:18.10	23.04	2.53	-47.0	-58.0	3.6	8.45e-01	0	33	104	0	60	28798
2026-01-06 20:21:22.14	22.88	2.79	-46.9	-57.3	3.6	8.45e-01	0	33	104	0	60	26599
2026-01-06 20:21:26.18	22.73	3.04	-47.0	-58.0	3.6	8.45e-01	0	33	104	0	60	28652
2026-01-06 20:21:30.22	22.57	3.30	-45.9	-50.6	5.6	7.41e-01	0	33	0	0	60	12258
2026-01-06 20:21:34.26	22.41	3.56	-43.9	-46.5	10.3	6.42e-03	0	33	0	28311552	60	7617
2026-01-06 20:21:38.29	22.24	3.82	-46.7	-55.6	3.6	8.44e-01	0	33	104	41943040	60	21846
2026-01-06 20:21:42.33	22.07	4.09	-36.8	-37.6	19.7	0.00e+00	0	33	0	61865984	46	6106
2026-01-06 20:21:46.37	21.90	4.36	-35.0	-35.6	21.5	0.00e+00	0	33	0	91226112	44	5476
2026-01-06 20:21:50.41	21.73	4.63	-35.3	-35.9	21.8	0.00e+00	0	33	0	119537664	42	6364
2026-01-06 20:21:54.45	21.55	4.90	-34.8	-35.4	21.9	0.00e+00	0	33	0	148897792	42	5986
2026-01-06 20:21:58.49	21.37	5.17	-34.0	-34.6	22.6	0.00e+00	0	33	0	178257920	42	5451
2026-01-06 20:22:02.53	21.18	5.45	-33.8	-34.4	22.9	0.00e+00	0	33	0	207618048	40	6001
2026-01-06 20:22:06.57	20.99	5.73	-33.8	-34.4	23.0	0.00e+00	0	33	0	236978176	40	5972
2026-01-06 20:22:10.61	20.80	6.01	-34.1	-34.7	22.6	0.00e+00	0	33	0	265289728	40	6222
2026-01-06 20:22:14.65	20.60	6.30	-33.7	-34.3	23.1	0.00e+00	0	33	0	294649856	40	5910
2026-01-06 20:22:18.69	20.40	6.59	-33.7	-34.2	23.2	0.00e+00	0	33	0	324009984	40	5890
2026-01-06 20:22:22.72	20.19	6.88	-33.6	-34.1	23.3	0.00e+00	0	33	0	353370112	40	5825
2026-01-06 20:22:26.76	19.98	7.17	-33.5	-34.0	23.5	0.00e+00	0	33	0	381681664	40	5759
2026-01-06 20:22:30.80	19.76	7.47	-33.4	-34.0	23.6	0.00e+00	0	33	0	411041792	40	5727
2026-01-06 20:22:34.84	19.54	7.77	-33.1	-33.7	23.9	0.00e+00	0	33	0	440401920	40	5512
2026-01-06 20:22:38.88	19.32	8.07	-33.1	-33.7	23.9	0.00e+00	0	33	0	469762048	40	5515
2026-01-06 20:22:42.92	19.09	8.38	-33.2	-33.8	23.8	0.00e+00	0	33	0	499122176	40	5579
2026-01-06 20:22:46.96	18.85	8.69	-33.1	-33.7	24.0	0.00e+00	0	33	0	527433728	40	5523
2026-01-06 20:22:51.00	18.61	9.00	-32.8	-33.4	24.3	0.00e+00	0	33	0	556793856	40	5333
2026-01-06 20:22:55.04	18.36	9.31	-32.6	-33.1	24.5	0.00e+00	0	33	0	586153984	38	5820
2026-01-06 20:22:59.08	18.11	9.63	-32.6	-33.2	24.5	0.00e+00	0	33	0	615514112	38	5853
2026-01-06 20:23:03.12	17.85	9.96	-32.5	-33.1	24.6	0.00e+00	0	33	0	644874240	38	5767
2026-01-06 20:23:07.16	17.59	10.28	-32.4	-32.9	24.8	0.00e+00	0	33	0	673185792	38	5670
2026-01-06 20:23:11.20	17.31	10.62	-32.3	-32.8	24.8	0.00e+00	0	33	0	702545920	38	5629
2026-01-06 20:23:15.24	17.04	10.95	-32.3	-32.8	24.8	0.00e+00	0	33	0	731906048	38	5607
2026-01-06 20:23:19.27	16.75	11.29	-32.1	-32.6	25.1	0.00e+00	0	33	0	761266176	38	5467
2026-01-06 20:23:23.31	16.46	11.63	-31.8	-32.3	25.4	0.00e+00	0	33	0	790626304	36	5943
2026-01-06 20:23:27.35	16.16	11.98	-31.7	-32.2	25.4	0.00e+00	0	33	0	818937856	36	5880
2026-01-06 20:23:31.39	15.85	12.33	-31.6	-32.1	25.5	0.00e+00	0	33	0	848297984	36	5793
2026-01-06 20:23:35.42	15.54	12.68	-31.5	-32.0	25.7	0.00e+00	0	33	0	877658112	36	5742
2026-01-06 20:23:39.46	15.22	13.04	-31.5	-32.0	25.7	0.00e+00	0	33	0	907018240	36	5716
2026-01-06 20:23:43.50	14.89	13.40	-31.2	-31.7	25.9	0.00e+00	0	33	0	936378368	36	5509
2026-01-06 20:23:47.54	14.55	13.77	-31.2	-31.7	25.9	0.00e+00	0	33	0	965738496	36	5560
2026-01-06 20:23:51.58	14.20	14.15	-31.1	-31.6	26.0	0.00e+00	0	33	0	994050048	36	5479
2026-01-06 20:23:55.61	13.84	14.52	-31.0	-31.5	26.1	0.00e+00	0	33	0	1023410176	36	5411
2026-01-06 20:23:59.65	13.47	14.90	-31.2	-31.6	26.2	0.00e+00	0	33	0	1052770304	34	6164
2026-01-06 20:24:03.69	13.10	15.29	-30.9	-31.4	26.2	0.00e+00	0	33	0	1082130432	34	5997
2026-01-06 20:24:07.72	12.71	15.68	-31.3	-31.8	26.0	0.00e+00	0	34	0	1111490560	34	6317
2026-01-06 20:24:11.77	12.31	16.08	-31.0	-31.5	26.2	0.00e+00	0	34	0	1140850688	34	6056
2026-01-06 20:24:15.80	11.90	16.48	-30.8	-31.3	26.3	0.00e+00	0	33	0	1169162240	34	5960
2026-01-06 20:24:19.84	11.48	16.89	-30.7	-31.2	26.5	0.00e+00	0	34	0	1198522368	34	5855
2026-01-06 20:24:23.88	11.05	17.30	-30.6	-31.1	26.5	0.00e+00	0	33	0	1227882496	34	5812
2026-01-06 20:24:27.92	10.60	17.72	-30.5	-31.0	26.6	0.00e+00	0	34	0	1257242624	34	5715
2026-01-06 20:24:31.96	10.14	18.14	-30.5	-31.0	26.6	0.00e+00	0	33	0	1285554176	34	5756
2026-01-06 20:24:36.00	9.67	18.57	-30.4	-30.8	26.8	0.00e+00	0	34	0	1314914304	34	5620
2026-01-06 20:24:40.04	9.18	19.00	-30.3	-30.8	26.8	0.00e+00	0	34	0	1344274432	34	5587
2026-01-06 20:24:44.08	8.68	19.44	-30.1	-30.5	27.1	0.00e+00	0	33	0	1373634560	34	5434
2026-01-06 20:24:48.12	8.16	19.88	-29.9	-30.3	27.2	0.00e+00	0	34	0	1402994688	32	5954
2026-01-06 20:24:52.16	7.63	20.33	-29.3	-29.8	27.5	0.00e+00	0	34	0	1431306240	32	5597
2026-01-06 20:24:56.19	7.09	20.79	-29.4	-29.9	27.5	0.00e+00	0	34	0	1460666368	32	5670
2026-01-06 20:25:00.23	6.52	21.25	-29.6	-30.1	27.4	0.00e+00	0	34	0	1490026496	32	5797
2026-01-06 20:25:04.27	5.94	21.71	-29.7	-30.2	27.4	0.00e+00	0	34	0	1519386624	32	5833
2026-01-06 20:25:08.31	5.34	22.19	-29.3	-29.8	27.8	0.00e+00	0	34	0	1547698176	32	5609
2026-01-06 20:25:12.35	4.72	22.66	-29.2	-29.7	27.7	0.00e+00	0	34	0	1577058304	32	5536
2026-01-06 20:25:16.39	4.08	23.14	-29.0	-29.5	28.0	0.00e+00	0	34	0	1606418432	32	5395
2026-01-06 20:25:20.43	3.42	23.63	-29.2	-29.7	27.7	0.00e+00	0	34	0	1635778560	32	5557
2026-01-06 20:25:24.47	2.74	24.12	-29.3	-29.8	27.7	0.00e+00	0	33	0	1665138688	32	5576
2026-01-06 20:25:28.51	2.03	24.62	-29.4	-29.9	27.7	0.00e+00	0	34	0	1694498816	32	5653
2026-01-06 20:25:32.55	1.30	25.12	-29.1	-29.6	27.9	0.00e+00	0	34	0	1722810368	32	5491
2026-01-06 20:25:36.59	0.55	25.63	-29.0	-29.5	28.0	0.00e+00	0	34	0	1752170496	30	6082
2026-01-06 20:25:40.63	359.78	26.14	-29.2	-29.7	27.8	0.00e+00	0	34	0	1781530624	30	6175
2026-01-06 20:25:44.67	358.97	26.65	-29.4	-29.9	27.7	0.00e+00	0	34	0	1810890752	30	6320
2026-01-06 20:25:48.71	358.15	27.17	-29.4	-29.8	27.8	0.00e+00	0	34	0	1840250880	30	6307
2026-01-06 20:25:52.75	357.29	27.69	-29.3	-29.8	27.7	0.00e+00	0	34	0	1868562432	32	5612
2026-01-06 20:25:56.79	356.40	28.21	-29.3	-29.8	27.7	0.00e+00	0	34	0	1897922560	32	5571
2026-01-06 20:26:00.82	355.49	28.73	-29.0	-29.5	28.0	0.00e+00	0	34	0	1927282688	32	5386
2026-01-06 20:26:04.86	354.54	29.26	-28.9	-29.4	28.1	0.00e+00	0	34	0	1956642816	30	5979
2026-01-06 20:26:08.90	353.57	29.78	-28.5	-29.0	28.3	0.00e+00	0	33	0	1986002944	30	5707
2026-01-06 20:26:12.94	352.56	30.31	-28.4	-28.9	28.4	0.00e+00	0	34	0	2015363072	30	5671
2026-01-06 20:26:16.98	351.51	30.83	-28.4	-28.9	28.2	0.00e+00	0	34	0	2043674624	30	5656
2026-01-06 20:26:21.01	350.43	31.36	-28.4	-28.9	28.2	0.00e+00	0	34	0	2073034752	30	5647
2026-01-06 20:26:25.04	349.32	31.87	-28.8	-29.3	28.2	0.00e+00	0	34	0	2102394880	30	5944
2026-01-06 20:26:29.07	348.17	32.39	-29.0	-29.5	28.0	0.00e+00	0	34	0	2131755008	30	6056
2026-01-06 20:26:33.11	346.98	32.90	-29.2	-29.7	27.9	0.00e+00	0	34	0	2160066560	30	6222
2026-01-06 20:26:37.15	345.75	33.41	-29.3	-29.7	27.9	0.00e+00	0	34	0	2189426688	30	6240
2026-01-06 20:26:41.18	344.49	33.91	-28.7	-29.1	28.3	0.00e+00	0	34	0	2218786816	30	5810
2026-01-06 20:26:45.22	343.18	34.40	-28.5	-29.0	28.4	0.00e+00	0	34	0	2248146944	30	5718
2026-01-06 20:26:49.26	341.84	34.88	-28.2	-28.7	28.6	0.00e+00	0	34	0	2276458496	30	5503
2026-01-06 20:26:53.30	340.45	35.35	-28.6	-29.1	28.4	0.00e+00	0	34	0	2305818624	30	5762
2026-01-06 20:26:57.33	339.03	35.81	-29.0	-29.5	28.1	0.00e+00	0	34	0	2335178752	30	6055
2026-01-06 20:27:01.36	337.57	36.25	-29.0	-29.5	28.1	0.00e+00	0	34	0	2364538880	30	6039
2026-01-06 20:27:05.40	336.06	36.67	-29.1	-29.5	28.1	0.00e+00	0	34	0	2393899008	30	6091
2026-01-06 20:27:09.44	334.51	37.08	-28.8	-29.2	28.3	0.00e+00	0	34	0	2423259136	30	5865
2026-01-06 20:27:13.48	332.93	37.47	-28.8	-29.3	28.3	0.00e+00	0	34	0	2451570688	30	5941
2026-01-06 20:27:17.52	331.30	37.84	-28.9	-29.4	28.1	0.00e+00	0	34	0	2480930816	30	6005
2026-01-06 20:27:21.55	329.65	38.18	-29.0	-29.5	28.2	0.00e+00	0	34	0	2510290944	30	6034
2026-01-06 20:27:25.59	327.96	38.50	-29.0	-29.5	28.1	0.00e+00	0	34	0	2539651072	30	6054
2026-01-06 20:27:29.63	326.23	38.79	-28.9	-29.4	28.2	0.00e+00	0	34	0	2569011200	30	5992
2026-01-06 20:27:33.67	324.47	39.06	-29.1	-29.5	28.2	0.00e+00	0	34	0	2597322752	30	6086
2026-01-06 20:27:37.71	322.69	39.30	-29.0	-29.5	28.1	0.00e+00	0	34	0	2626682880	30	6047
2026-01-06 20:27:41.75	320.88	39.50	-29.0	-29.5	28.1	0.00e+00	0	34	0	2656043008	30	6040
2026-01-06 20:27:45.79	319.05	39.67	-29.1	-29.5	28.0	0.00e+00	0	34	0	2685403136	30	6081
2026-01-06 20:27:49.82	317.21	39.81	-28.9	-29.3	28.2	0.00e+00	0	34	0	2714763264	30	5951
2026-01-06 20:27:53.86	315.35	39.92	-29.1	-29.5	28.0	0.00e+00	0	34	0	2743074816	30	6098
2026-01-06 20:27:57.90	313.47	39.99	-29.1	-29.6	27.9	0.00e+00	0	34	0	2772434944	30	6115
2026-01-06 20:28:01.94	311.59	40.03	-28.8	-29.2	28.3	0.00e+00	0	34	0	2801795072	30	5892
2026-01-06 20:28:05.98	309.71	40.03	-28.6	-29.0	28.5	0.00e+00	0	34	0	2831155200	30	5747
2026-01-06 20:28:10.01	307.84	40.00	-29.1	-29.5	28.1	0.00e+00	0	34	0	2859466752	30	6099
2026-01-06 20:28:14.04	305.97	39.94	-28.8	-29.3	28.2	0.00e+00	0	34	0	2888826880	30	5936
2026-01-06 20:28:18.08	304.10	39.83	-29.1	-29.6	27.9	0.00e+00	0	34	0	2918187008	30	6156
2026-01-06 20:28:22.12	302.25	39.70	-28.5	-28.9	28.5	0.00e+00	0	34	0	2947547136	30	5688
2026-01-06 20:28:26.16	300.41	39.53	-29.3	-29.8	27.8	0.00e+00	0	34	0	2976907264	30	6285
2026-01-06 20:28:30.19	298.60	39.33	-29.0	-29.5	28.2	0.00e+00	0	34	0	3005218816	30	6041
2026-01-06 20:28:34.23	296.81	39.10	-29.2	-29.7	28.0	0.00e+00	0	34	0	3034578944	30	6193
2026-01-06 20:28:38.27	295.05	38.84	-28.4	-28.9	28.6	0.00e+00	0	34	0	3063939072	30	5662
2026-01-06 20:28:42.30	293.32	38.55	-29.0	-29.4	28.2	0.00e+00	0	34	0	3093299200	30	6014
2026-01-06 20:28:46.34	291.62	38.23	-28.9	-29.4	28.2	0.00e+00	0	34	0	3122659328	30	5970
2026-01-06 20:28:50.38	289.95	37.89	-28.4	-28.9	28.5	0.00e+00	0	34	0	3150970880	30	5632
2026-01-06 20:28:54.42	288.32	37.53	-28.7	-29.2	28.4	0.00e+00	0	34	0	3180331008	30	5843
2026-01-06 20:28:58.46	286.73	37.14	-28.6	-29.1	28.3	0.00e+00	0	34	0	3209691136	30	5774
2026-01-06 20:29:02.50	285.17	36.73	-28.5	-29.0	28.5	0.00e+00	0	34	0	3239051264	30	5697
2026-01-06 20:29:06.54	283.65	36.31	-28.8	-29.2	28.3	0.00e+00	0	34	0	3268411392	30	5885
2026-01-06 20:29:10.57	282.18	35.87	-29.0	-29.5	28.2	0.00e+00	0	34	0	3297771520	30	6071
2026-01-06 20:29:14.61	280.74	35.41	-28.9	-29.4	28.2	0.00e+00	0	34	0	3326083072	30	5970
2026-01-06 20:29:18.65	279.35	34.94	-28.7	-29.2	28.3	0.00e+00	0	34	0	3355443200	30	5849
2026-01-06 20:29:22.68	277.99	34.46	-28.9	-29.4	28.2	0.00e+00	0	34	0	3384803328	30	5984
2026-01-06 20:29:26.72	276.68	33.97	-28.6	-29.0	28.4	0.00e+00	0	34	0	3414163456	30	5742
2026-01-06 20:29:30.76	275.40	33.47	-28.9	-29.4	28.2	0.00e+00	0	34	0	3442475008	30	6001
2026-01-06 20:29:34.79	274.16	32.97	-28.9	-29.4	28.2	0.00e+00	0	34	0	3471835136	30	5988
2026-01-06 20:29:38.84	272.96	32.45	-28.4	-28.9	28.6	0.00e+00	0	34	0	3501195264	30	5639
2026-01-06 20:29:42.87	271.80	31.94	-28.6	-29.1	28.3	0.00e+00	0	34	0	3530555392	30	5793
2026-01-06 20:29:46.91	270.68	31.41	-28.7	-29.1	28.3	0.00e+00	0	34	0	3558866944	30	5810
2026-01-06 20:29:50.94	269.59	30.89	-28.9	-29.4	28.2	0.00e+00	0	34	0	3588227072	30	5973
2026-01-06 20:29:54.98	268.54	30.36	-28.8	-29.4	24.0	0.00e+00	0	34	0	3617587200	30	6030
2026-01-06 20:29:59.02	267.52	29.83	-28.8	-29.5	24.2	0.00e+00	0	34	0	3646947328	30	6051
2026-01-06 20:30:03.06	266.53	29.31	-28.7	-29.3	24.1	0.00e+00	0	34	0	3676307456	30	5944
2026-01-06 20:30:07.10	265.58	28.78	-29.0	-29.6	24.2	0.00e+00	0	34	0	3704619008	30	6152
2026-01-06 20:30:11.13	264.66	28.25	-28.8	-29.4	24.5	0.00e+00	0	34	0	3733979136	30	6003
2026-01-06 20:30:15.17	263.77	27.73	-29.2	-29.8	24.2	0.00e+00	0	34	0	3763339264	32	5590
2026-01-06 20:30:19.21	262.90	27.21	-29.4	-30.1	23.9	0.00e+00	0	34	0	3792699392	32	5763
2026-01-06 20:30:23.25	262.06	26.69	-29.2	-29.8	24.1	0.00e+00	0	34	0	3822059520	32	5603
2026-01-06 20:30:27.29	261.26	26.17	-29.0	-29.7	24.1	0.00e+00	0	34	0	3851419648	32	5520
2026-01-06 20:30:31.33	260.47	25.66	-29.0	-29.7	24.1	0.00e+00	0	34	0	3879731200	32	5533
2026-01-06 20:30:35.37	259.71	25.15	-29.0	-29.7	24.0	0.00e+00	0	34	0	3909091328	32	5504
2026-01-06 20:30:39.41	258.98	24.65	-29.2	-29.8	23.8	0.00e+00	0	34	0	3938451456	32	5626
2026-01-06 20:30:43.44	258.27	24.15	-28.9	-29.5	24.3	0.00e+00	0	34	0	3967811584	32	5428
2026-01-06 20:30:47.48	257.58	23.66	-29.3	-29.9	24.1	0.00e+00	0	34	0	3997171712	32	5645
2026-01-06 20:30:51.52	256.92	23.17	-29.4	-30.1	24.0	0.00e+00	0	34	0	4025483264	32	5778
2026-01-06 20:30:55.56	256.27	22.68	-29.2	-29.8	24.2	0.00e+00	0	34	0	4054843392	32	5595
2026-01-06 20:30:59.60	255.65	22.20	-29.3	-29.9	24.1	0.00e+00	0	34	0	4084203520	32	5672
2026-01-06 20:31:03.64	255.04	21.73	-29.1	-29.8	24.1	0.00e+00	0	34	0	4113563648	32	5585
2026-01-06 20:31:07.68	254.45	21.26	-29.5	-30.2	24.0	0.00e+00	0	34	0	4142923776	32	5836
2026-01-06 20:31:11.71	253.88	20.80	-29.4	-30.1	24.1	0.00e+00	0	34	0	4171235328	32	5785
2026-01-06 20:31:15.75	253.33	20.34	-29.3	-29.9	24.4	0.00e+00	0	34	0	4200595456	32	5656
2026-01-06 20:31:19.79	252.79	19.89	-29.6	-30.2	24.2	0.00e+00	0	34	0	4229955584	32	5874
2026-01-06 20:31:23.83	252.27	19.44	-30.1	-30.7	23.6	0.00e+00	0	34	0	4259315712	32	6225
2026-01-06 20:31:27.87	251.76	19.00	-30.3	-30.9	23.6	0.00e+00	0	34	0	4288675840	32	6382
2026-01-06 20:31:31.92	251.27	18.56	-30.4	-31.0	23.6	0.00e+00	0	34	0	4318035968	32	6439
2026-01-06 20:31:35.95	250.79	18.13	-30.5	-31.2	23.6	0.00e+00	0	34	0	4346347520	32	6592
2026-01-06 20:31:40.00	250.33	17.71	-30.6	-31.3	23.6	0.00e+00	0	34	0	4375707648	32	6651
2026-01-06 20:31:44.03	249.88	17.29	-30.5	-31.2	23.7	0.00e+00	0	34	0	4405067776	32	6552
2026-01-06 20:31:48.07	249.44	16.87	-30.5	-31.1	23.7	0.00e+00	0	34	0	4434427904	32	6524
2026-01-06 20:31:52.11	249.02	16.46	-30.7	-31.3	23.6	0.00e+00	0	34	0	4462739456	32	6684
2026-01-06 20:31:56.15	248.60	16.06	-30.8	-31.4	23.6	0.00e+00	0	34	0	4492099584	34	6012
2026-01-06 20:32:00.19	248.20	15.66	-31.0	-31.7	23.5	0.00e+00	0	34	0	4521459712	34	6189
2026-01-06 20:32:04.23	247.81	15.27	-31.3	-32.0	23.3	0.00e+00	0	34	0	4550819840	34	6423
2026-01-06 20:32:08.27	247.42	14.88	-31.4	-32.1	23.2	0.00e+00	0	34	0	4580179968	34	6516
2026-01-06 20:32:12.31	247.05	14.49	-31.4	-32.1	23.3	0.00e+00	0	34	0	4608491520	34	6476
2026-01-06 20:32:16.35	246.69	14.12	-31.4	-32.1	23.2	0.00e+00	0	34	0	4637851648	34	6498
2026-01-06 20:32:20.39	246.34	13.74	-31.6	-32.3	23.0	0.00e+00	0	34	0	4667211776	34	6659
2026-01-06 20:32:24.43	245.99	13.37	-31.9	-32.6	22.8	0.00e+00	0	34	0	4696571904	36	6144
2026-01-06 20:32:28.47	245.66	13.01	-32.2	-33.0	22.5	0.00e+00	0	34	0	4725932032	36	6415
2026-01-06 20:32:32.51	245.33	12.64	-32.4	-33.2	22.4	0.00e+00	0	34	0	4754243584	36	6561
2026-01-06 20:32:36.55	245.01	12.29	-32.4	-33.2	22.3	0.00e+00	0	34	0	4783603712	36	6545
2026-01-06 20:32:40.59	244.70	11.94	-32.4	-33.1	22.4	0.00e+00	0	34	0	4812963840	36	6532
2026-01-06 20:32:44.63	244.40	11.59	-32.4	-33.1	22.5	0.00e+00	0	34	0	4842323968	36	6485
2026-01-06 20:32:48.67	244.11	11.24	-32.7	-33.4	22.4	0.00e+00	0	34	0	4871684096	36	6757
2026-01-06 20:32:52.71	243.82	10.90	-33.0	-33.8	22.1	0.00e+00	0	34	0	4899995648	38	6257
2026-01-06 20:32:56.74	243.54	10.57	-33.6	-34.2	23.6	0.00e+00	0	34	0	4929355776	38	6572
2026-01-06 20:33:00.78	243.26	10.24	-34.0	-34.6	23.2	0.00e+00	0	34	0	4958715904	40	6137
2026-01-06 20:33:04.82	242.99	9.91	-34.5	-35.1	22.7	0.00e+00	0	34	0	4988076032	40	6496
2026-01-06 20:33:08.86	242.73	9.58	-35.0	-35.7	22.1	0.00e+00	0	34	0	5017436160	42	6178
2026-01-06 20:33:12.90	242.47	9.26	-35.7	-36.3	21.4	0.00e+00	0	34	0	5046796288	42	6668
2026-01-06 20:33:16.94	242.22	8.94	-36.2	-36.9	20.8	0.00e+00	0	34	0	5075107840	44	6346
2026-01-06 20:33:20.98	241.98	8.63	-36.8	-37.6	20.1	0.00e+00	0	34	0	5104467968	46	6119
2026-01-06 20:33:25.02	241.74	8.32	-37.3	-38.1	19.5	0.00e+00	0	34	0	5133828096	46	6526
2026-01-06 20:33:29.06	241.50	8.01	-37.8	-38.6	19.1	0.00e+00	0	34	0	5163188224	48	6132
2026-01-06 20:33:33.09	241.27	7.71	-38.3	-39.1	18.4	0.00e+00	0	34	0	5192548352	48	6530
2026-01-06 20:33:37.13	241.05	7.41	-38.8	-39.8	17.8	0.00e+00	0	34	0	5221908480	50	6282
2026-01-06 20:33:41.17	240.83	7.11	-39.3	-40.4	17.1	0.00e+00	0	34	0	5250220032	50	6694
2026-01-06 20:33:45.21	240.61	6.81	-40.0	-41.2	16.3	0.00e+00	0	34	0	5279580160	52	6568
2026-01-06 20:33:49.25	240.40	6.52	-40.7	-42.1	15.3	0.00e+00	0	34	0	5308940288	54	6465
2026-01-06 20:33:53.29	240.20	6.23	-41.0	-43.0	14.2	1.10e-06	0	34	0	5338300416	54	7242
2026-01-06 20:33:57.32	240.00	5.95	-41.8	-44.2	13.0	3.31e-05	0	34	0	5367660544	56	7391
2026-01-06 20:34:01.36	239.80	5.66	-42.7	-45.3	11.6	6.00e-04	0	34	0	5395972096	58	7476
2026-01-06 20:34:05.40	239.61	5.38	-43.4	-46.3	10.4	4.62e-03	0	34	0	5425332224	58	8394
2026-01-06 20:34:09.44	239.42	5.10	-43.7	-47.3	9.2	1.98e-02	0	34	0	5454692352	58	9413
2026-01-06 20:34:13.48	239.23	4.83	-44.1	-48.2	8.2	5.24e-02	0	34	0	5484052480	60	9286
2026-01-06 20:34:17.52	239.05	4.55	-45.0	-49.2	6.9	1.37e-01	0	34	0	5513412608	60	10366
2026-01-06 20:34:21.55	238.87	4.29	-45.4	-50.1	5.8	3.31e-01	0	34	0	5541724160	60	11583
2026-01-06 20:34:25.60	238.69	4.02	-45.3	-51.1	4.8	7.58e-01	0	34	0	5555355648	60	12989
2026-01-06 20:34:29.63	238.52	3.75	-45.4	-52.3	4.1	8.22e-01	0	34	0	5555355648	60	14885
2026-01-06 20:34:33.67	238.35	3.49	-46.0	-54.7	3.9	8.42e-01	0	34	104	5555355648	60	19716
2026-01-06 20:34:37.71	238.19	3.23	-45.7	-55.7	3.6	8.44e-01	0	34	104	5555355648	60	22034
2026-01-06 20:34:41.75	238.03	2.97	-46.1	-57.9	3.6	8.44e-01	0	34	104	5555355648	60	28428
2026-01-06 20:34:45.78	237.87	2.71	-48.7	-59.9	3.6	8.46e-01	0	34	104	5555355648	60	35591
2026-01-06 20:34:49.83	237.71	2.46	-48.7	-59.9	3.6	8.46e-01	0	34	104	5555355648	60	35690
2026-01-06 20:34:53.87	237.56	2.20	-48.5	-59.8	3.6	8.45e-01	0	34	104	5555355648	60	35393
2026-01-06 20:34:57.91	237.41	1.95	-48.5	-59.8	3.6	8.46e-01	0	34	104	5555355648	60	35338
2026-01-06 20:35:01.95	237.26	1.70	-48.6	-59.8	3.6	8.45e-01	0	34	104	5555355648	60	35426
2026-01-06 20:35:05.98	237.11	1.46	-48.6	-59.8	3.6	8.45e-01	0	34	104	5555355648	60	35232
2026-01-06 20:35:10.02	236.97	1.21	-48.6	-59.8	3.6	8.45e-01	0	34	104	5555355648	60	35406
2026-01-06 20:35:14.06	236.83	0.97	-48.6	-59.8	3.6	8.44e-01	0	34	104	5555355648	60	35405
2026-01-06 20:35:18.09	236.69	0.73	-48.6	-59.8	3.6	8.46e-01	0	34	104	5555355648	60	35362
2026-01-06 20:35:22.13	236.56	0.49	-48.6	-59.8	3.6	8.46e-01	0	34	104	5555355648	60	35304
2026-01-06 20:35:26.17	236.43	0.25	-48.6	-59.8	3.6	8.45e-01	0	34	104	5555355648	60	35290
2026-01-06 20:35:30.21	236.30	0.02	-48.6	-59.8	3.6	8.45e-01	0	34	104	5555355648	60	35199

#Closed at: 2026-01-06 20:35:32
#Recorded file [5555 MB]: D:/lorett/data/35029_260107_082037.dat