passes_logs/2026/01/06/R4.6S_Anadyr/R4.6S_Anadyr__20260106_063633_FENGYUN_3E_rec.log

#Pass ID: 20260106_063633_FENGYUN 3E
#Satellite: FENGYUN 3E
#Configuration: FENGYUN 3E
#almurnet v.1.7.20251203
#Start time: 2026-01-06 06:36:35

#Version: 2.2.20231116
#Station: R4.6S_Anadyr
#Location: 177.4865 lon 64.73178 lat
#TLE: 1 49008U 21062A   26005.56299987  .00000339  00000+0  18069-3 0  9991
#TLE: 2 49008  98.7472  10.8019 0001562 158.0357 202.0886 14.19884907233502

#Time	Az	El	Level	Level2	SNR	BER	BlckErr	Temp	State	Recorded	gain1	gain2
2026-01-06 06:36:35.95	211.39	0.13	-48.6	-59.4	3.5	8.45e-01	0	32	0	0	60	33620
2026-01-06 06:36:39.99	211.66	0.34	-48.5	-59.9	3.6	8.44e-01	0	34	104	0	60	35620
2026-01-06 06:36:44.03	211.93	0.55	-48.6	-59.9	3.6	8.45e-01	0	34	104	0	60	35790
2026-01-06 06:36:48.07	212.21	0.77	-48.5	-59.8	3.6	8.46e-01	0	34	104	0	60	35271
2026-01-06 06:36:52.11	212.49	0.98	-48.0	-59.2	3.6	8.44e-01	0	34	104	0	60	33029
2026-01-06 06:36:56.15	212.78	1.19	-47.2	-58.4	3.6	8.45e-01	0	34	104	0	60	30042
2026-01-06 06:37:00.19	213.06	1.41	-47.2	-58.3	3.6	8.46e-01	0	34	104	0	60	29825
2026-01-06 06:37:04.23	213.36	1.62	-47.2	-58.4	3.6	8.44e-01	0	34	104	0	60	30214
2026-01-06 06:37:08.26	213.65	1.84	-47.2	-58.5	3.6	8.46e-01	0	34	104	0	60	30250
2026-01-06 06:37:12.30	213.95	2.05	-47.2	-58.2	3.6	8.45e-01	0	34	104	0	60	29308
2026-01-06 06:37:16.34	214.26	2.27	-47.2	-58.3	3.6	8.44e-01	0	35	104	0	60	29572
2026-01-06 06:37:20.37	214.57	2.49	-47.2	-58.4	3.6	8.45e-01	0	35	104	0	60	29980
2026-01-06 06:37:24.42	214.88	2.71	-46.9	-55.5	3.8	8.43e-01	0	35	104	0	60	21655
2026-01-06 06:37:28.46	215.20	2.94	-45.4	-49.9	7.6	2.43e-01	0	35	0	0	60	11287
2026-01-06 06:37:32.50	215.53	3.16	-38.0	-39.2	17.8	0.00e+00	0	35	0	29360128	50	5844
2026-01-06 06:37:36.54	215.85	3.38	-40.4	-41.8	17.4	3.82e-01	0	35	104	52428800	60	4441
2026-01-06 06:37:40.57	216.18	3.61	-35.8	-36.6	19.8	0.00e+00	0	35	0	78643200	46	5462
2026-01-06 06:37:44.61	216.52	3.83	-35.4	-36.2	20.1	0.00e+00	0	35	0	106954752	44	5890
2026-01-06 06:37:48.66	216.87	4.06	-35.6	-36.4	20.3	0.00e+00	0	35	0	136314880	44	5971
2026-01-06 06:37:52.69	217.21	4.29	-35.2	-36.0	20.6	0.00e+00	0	35	0	165675008	44	5706
2026-01-06 06:37:56.73	217.57	4.52	-35.0	-35.7	20.8	0.00e+00	0	35	0	195035136	44	5557
2026-01-06 06:38:00.77	217.92	4.75	-34.6	-35.3	21.1	0.00e+00	0	35	0	224395264	42	5935
2026-01-06 06:38:04.80	218.29	4.98	-34.5	-35.3	21.0	0.00e+00	0	35	0	252706816	42	5915
2026-01-06 06:38:08.84	218.66	5.21	-34.4	-35.2	21.3	0.00e+00	0	35	0	282066944	42	5858
2026-01-06 06:38:12.88	219.03	5.44	-34.1	-34.9	21.5	0.00e+00	0	35	0	311427072	42	5648
2026-01-06 06:38:16.92	219.41	5.68	-34.0	-34.7	21.6	0.00e+00	0	35	0	340787200	42	5543
2026-01-06 06:38:20.95	219.80	5.91	-33.9	-34.6	21.6	0.00e+00	0	35	0	370147328	40	6172
2026-01-06 06:38:24.99	220.19	6.15	-33.8	-34.5	21.7	0.00e+00	0	35	0	398458880	40	6065
2026-01-06 06:38:29.03	220.59	6.39	-33.8	-34.6	21.7	0.00e+00	0	35	0	427819008	40	6122
2026-01-06 06:38:33.07	220.99	6.63	-33.6	-34.3	21.8	0.00e+00	0	35	0	457179136	40	5955
2026-01-06 06:38:37.11	221.41	6.87	-33.7	-34.5	21.8	0.00e+00	0	35	0	486539264	40	6055
2026-01-06 06:38:41.14	221.82	7.11	-34.0	-34.7	21.5	0.00e+00	0	35	0	515899392	40	6241
2026-01-06 06:38:45.18	222.25	7.35	-33.9	-34.7	21.5	0.00e+00	0	35	0	545259520	40	6183
2026-01-06 06:38:49.22	222.68	7.59	-33.8	-34.6	21.5	0.00e+00	0	35	0	573571072	40	6135
2026-01-06 06:38:53.26	223.12	7.84	-33.6	-34.3	21.8	0.00e+00	0	35	0	602931200	40	5933
2026-01-06 06:38:57.29	223.56	8.08	-33.7	-34.4	21.7	0.00e+00	0	35	0	632291328	40	6032
2026-01-06 06:39:01.33	224.02	8.33	-34.0	-34.7	21.4	0.00e+00	0	35	0	661651456	40	6222
2026-01-06 06:39:05.37	224.48	8.57	-34.1	-34.9	21.4	0.00e+00	0	35	0	689963008	40	6351
2026-01-06 06:39:09.41	224.94	8.82	-34.2	-35.1	21.4	0.00e+00	0	35	0	719323136	40	6488
2026-01-06 06:39:13.44	225.42	9.07	-34.1	-34.9	21.6	0.00e+00	0	35	0	748683264	40	6349
2026-01-06 06:39:17.47	225.90	9.32	-34.0	-34.7	21.8	0.00e+00	0	35	0	778043392	40	6240
2026-01-06 06:39:21.51	226.39	9.57	-34.0	-34.7	21.9	0.00e+00	0	35	0	806354944	40	6214
2026-01-06 06:39:25.55	226.89	9.82	-34.2	-34.9	21.7	0.00e+00	0	35	0	835715072	40	6343
2026-01-06 06:39:29.58	227.40	10.07	-34.0	-34.8	21.8	0.00e+00	0	35	0	865075200	40	6273
2026-01-06 06:39:33.62	227.91	10.32	-34.1	-34.9	21.7	0.00e+00	0	35	0	894435328	40	6337
2026-01-06 06:39:37.66	228.44	10.57	-34.0	-34.7	21.6	0.00e+00	0	35	0	923795456	40	6238
2026-01-06 06:39:41.69	228.97	10.82	-34.2	-35.0	21.4	0.00e+00	0	35	0	953155584	40	6407
2026-01-06 06:39:45.73	229.51	11.08	-34.0	-34.8	21.4	0.00e+00	0	35	0	981467136	40	6275
2026-01-06 06:39:49.77	230.07	11.33	-33.8	-34.5	21.7	0.00e+00	0	35	0	1010827264	40	6087
2026-01-06 06:39:53.81	230.63	11.58	-33.8	-34.5	21.8	0.00e+00	0	35	0	1040187392	40	6080
2026-01-06 06:39:57.85	231.20	11.84	-33.8	-34.6	21.7	0.00e+00	0	35	0	1069547520	40	6125
2026-01-06 06:40:01.89	231.78	12.09	-33.7	-34.4	21.8	0.00e+00	0	35	0	1098907648	40	5985
2026-01-06 06:40:05.93	232.37	12.34	-33.2	-33.9	22.3	0.00e+00	0	35	0	1127219200	40	5651
2026-01-06 06:40:09.97	232.97	12.60	-33.3	-34.0	22.3	0.00e+00	0	35	0	1156579328	40	5714
2026-01-06 06:40:14.01	233.58	12.85	-33.3	-34.0	22.2	0.00e+00	0	35	0	1185939456	40	5737
2026-01-06 06:40:18.05	234.20	13.10	-33.1	-33.8	22.4	0.00e+00	0	35	0	1215299584	40	5615
2026-01-06 06:40:22.09	234.83	13.36	-32.7	-33.4	22.6	0.00e+00	0	36	0	1244659712	38	6023
2026-01-06 06:40:26.13	235.47	13.61	-32.4	-33.1	22.9	0.00e+00	0	35	0	1274019840	38	5800
2026-01-06 06:40:30.17	236.12	13.86	-32.2	-32.9	23.0	0.00e+00	0	35	0	1302331392	38	5664
2026-01-06 06:40:34.20	236.78	14.11	-31.9	-32.5	23.0	0.00e+00	0	35	0	1331691520	38	5431
2026-01-06 06:40:38.24	237.46	14.36	-31.8	-32.5	22.9	0.00e+00	0	35	0	1361051648	36	6060
2026-01-06 06:40:42.28	238.14	14.61	-31.8	-32.5	22.9	0.00e+00	0	35	0	1390411776	36	6081
2026-01-06 06:40:46.32	238.83	14.85	-31.4	-32.0	23.3	0.00e+00	0	35	0	1419771904	36	5747
2026-01-06 06:40:50.35	239.54	15.10	-31.1	-31.7	23.4	0.00e+00	0	35	0	1448083456	36	5563
2026-01-06 06:40:54.39	240.26	15.34	-30.8	-31.5	23.8	0.00e+00	0	35	0	1477443584	36	5387
2026-01-06 06:40:58.43	240.99	15.58	-30.7	-31.3	23.9	0.00e+00	0	35	0	1506803712	34	5919
2026-01-06 06:41:02.47	241.73	15.82	-30.6	-31.2	24.0	0.00e+00	0	35	0	1536163840	34	5896
2026-01-06 06:41:06.51	242.48	16.06	-30.6	-31.2	24.0	0.00e+00	0	36	0	1564475392	34	5893
2026-01-06 06:41:10.55	243.24	16.30	-30.6	-31.3	23.9	0.00e+00	0	35	0	1593835520	34	5907
2026-01-06 06:41:14.58	244.02	16.53	-30.6	-31.3	23.6	0.00e+00	0	35	0	1623195648	34	5927
2026-01-06 06:41:18.62	244.80	16.76	-30.6	-31.2	23.8	0.00e+00	0	35	0	1652555776	34	5878
2026-01-06 06:41:22.66	245.60	16.99	-30.5	-31.1	23.9	0.00e+00	0	35	0	1680867328	34	5798
2026-01-06 06:41:26.70	246.41	17.21	-30.3	-30.9	24.0	0.00e+00	0	35	0	1710227456	34	5679
2026-01-06 06:41:30.74	247.23	17.43	-30.2	-30.8	24.2	0.00e+00	0	35	0	1739587584	34	5581
2026-01-06 06:41:34.77	248.07	17.64	-30.4	-31.1	23.9	0.00e+00	0	35	0	1768947712	34	5775
2026-01-06 06:41:38.81	248.91	17.86	-30.3	-30.9	24.1	0.00e+00	0	36	0	1798307840	34	5667
2026-01-06 06:41:42.85	249.77	18.06	-30.3	-30.9	24.0	0.00e+00	0	36	0	1827667968	34	5677
2026-01-06 06:41:46.89	250.64	18.27	-30.5	-31.2	23.7	0.00e+00	0	35	0	1855979520	34	5857
2026-01-06 06:41:50.92	251.51	18.47	-30.1	-30.7	23.9	0.00e+00	0	35	0	1885339648	34	5530
2026-01-06 06:41:54.96	252.40	18.66	-30.2	-30.8	23.9	0.00e+00	0	35	0	1914699776	34	5623
2026-01-06 06:41:59.00	253.30	18.85	-29.9	-30.6	24.2	0.00e+00	0	35	0	1944059904	34	5447
2026-01-06 06:42:03.04	254.22	19.03	-30.1	-30.7	24.0	0.00e+00	0	35	0	1973420032	34	5532
2026-01-06 06:42:07.07	255.14	19.21	-30.1	-30.7	24.0	0.00e+00	0	36	0	2001731584	34	5552
2026-01-06 06:42:11.12	256.07	19.38	-30.1	-30.8	24.0	0.00e+00	0	35	0	2031091712	34	5583
2026-01-06 06:42:15.16	257.01	19.54	-30.1	-30.8	23.7	0.00e+00	0	36	0	2060451840	34	5575
2026-01-06 06:42:19.20	257.96	19.70	-29.9	-30.5	23.8	0.00e+00	0	36	0	2089811968	34	5431
2026-01-06 06:42:23.23	258.92	19.85	-30.1	-30.7	23.8	0.00e+00	0	36	0	2119172096	34	5563
2026-01-06 06:42:27.27	259.89	19.99	-30.1	-30.7	23.8	0.00e+00	0	36	0	2148532224	34	5542
2026-01-06 06:42:31.30	260.87	20.13	-29.7	-30.4	24.1	0.00e+00	0	35	0	2176843776	34	5327
2026-01-06 06:42:35.34	261.86	20.26	-29.8	-30.4	24.2	0.00e+00	0	35	0	2206203904	32	5999
2026-01-06 06:42:39.38	262.85	20.38	-29.9	-30.5	23.9	0.00e+00	0	36	0	2235564032	32	6101
2026-01-06 06:42:43.41	263.85	20.49	-29.8	-30.4	24.2	0.00e+00	0	35	0	2263875584	32	6004
2026-01-06 06:42:47.45	264.86	20.59	-29.8	-30.5	24.0	0.00e+00	0	35	0	2293235712	32	6055
2026-01-06 06:42:51.49	265.88	20.69	-29.8	-30.5	23.7	0.00e+00	0	35	0	2322595840	32	6037
2026-01-06 06:42:55.52	266.90	20.78	-29.7	-30.4	23.8	0.00e+00	0	35	0	2351955968	32	5991
2026-01-06 06:42:59.56	267.92	20.85	-29.7	-30.3	24.1	0.00e+00	0	36	0	2381316096	32	5944
2026-01-06 06:43:03.59	268.95	20.92	-29.7	-30.3	24.1	0.00e+00	0	36	0	2409627648	32	5928
2026-01-06 06:43:07.63	269.99	20.98	-29.8	-30.5	24.0	0.00e+00	0	36	0	2438987776	32	6052
2026-01-06 06:43:11.66	271.02	21.03	-29.9	-30.6	23.8	0.00e+00	0	36	0	2468347904	32	6120
2026-01-06 06:43:15.70	272.07	21.08	-29.9	-30.6	23.8	0.00e+00	0	35	0	2497708032	32	6112
2026-01-06 06:43:19.74	273.11	21.11	-29.9	-30.6	23.6	0.00e+00	0	35	0	2527068160	32	6132
2026-01-06 06:43:23.78	274.16	21.13	-29.6	-30.3	23.8	0.00e+00	0	35	0	2556428288	32	5897
2026-01-06 06:43:27.81	275.20	21.14	-29.6	-30.2	24.0	0.00e+00	0	35	0	2584739840	32	5878
2026-01-06 06:43:31.85	276.25	21.15	-29.6	-30.3	23.9	0.00e+00	0	35	0	2614099968	32	5901
2026-01-06 06:43:35.89	277.30	21.14	-29.7	-30.4	23.9	0.00e+00	0	36	0	2643460096	32	5978
2026-01-06 06:43:39.93	278.34	21.13	-30.0	-30.6	23.8	0.00e+00	0	35	0	2672820224	32	6166
2026-01-06 06:43:43.96	279.39	21.10	-29.9	-30.6	23.8	0.00e+00	0	36	0	2701131776	32	6132
2026-01-06 06:43:48.00	280.43	21.07	-30.1	-30.7	23.6	0.00e+00	0	35	0	2730491904	32	6231
2026-01-06 06:43:52.04	281.47	21.03	-29.7	-30.3	23.7	0.00e+00	0	35	0	2759852032	32	5954
2026-01-06 06:43:56.08	282.51	20.97	-29.9	-30.6	23.6	0.00e+00	0	36	0	2789212160	32	6156
2026-01-06 06:44:00.12	283.54	20.91	-29.6	-30.2	23.9	0.00e+00	0	35	0	2818572288	32	5857
2026-01-06 06:44:04.16	284.57	20.84	-29.6	-30.3	24.0	0.00e+00	0	36	0	2846883840	32	5913
2026-01-06 06:44:08.19	285.59	20.76	-29.7	-30.3	23.8	0.00e+00	0	35	0	2876243968	32	5928
2026-01-06 06:44:12.23	286.61	20.67	-29.9	-30.6	23.6	0.00e+00	0	36	0	2905604096	32	6160
2026-01-06 06:44:16.27	287.62	20.57	-30.0	-30.6	23.8	0.00e+00	0	36	0	2934964224	32	6170
2026-01-06 06:44:20.31	288.63	20.47	-29.8	-30.5	24.0	0.00e+00	0	36	0	2963275776	32	6053
2026-01-06 06:44:24.35	289.63	20.35	-30.0	-30.6	23.9	0.00e+00	0	35	0	2992635904	32	6150
2026-01-06 06:44:28.38	290.62	20.23	-29.9	-30.5	23.9	0.00e+00	0	36	0	3021996032	32	6101
2026-01-06 06:44:32.42	291.60	20.10	-29.9	-30.6	23.9	0.00e+00	0	35	0	3051356160	32	6115
2026-01-06 06:44:36.46	292.57	19.97	-30.1	-30.8	23.7	0.00e+00	0	35	0	3080716288	32	6281
2026-01-06 06:44:40.49	293.54	19.82	-30.2	-30.9	23.6	0.00e+00	0	36	0	3110076416	32	6324
2026-01-06 06:44:44.53	294.50	19.67	-30.3	-31.0	23.3	0.00e+00	0	35	0	3138387968	32	6459
2026-01-06 06:44:48.57	295.44	19.51	-30.1	-30.7	23.8	0.00e+00	0	36	0	3167748096	32	6235
2026-01-06 06:44:52.61	296.38	19.35	-30.2	-30.9	23.6	0.00e+00	0	36	0	3197108224	32	6332
2026-01-06 06:44:56.65	297.31	19.18	-30.2	-30.9	23.5	0.00e+00	0	35	0	3226468352	32	6337
2026-01-06 06:45:00.68	298.22	19.00	-30.4	-30.9	27.0	0.00e+00	0	36	0	3255828480	32	6355
2026-01-06 06:45:04.72	299.13	18.82	-30.8	-31.2	26.7	0.00e+00	0	36	0	3284140032	34	5893
2026-01-06 06:45:08.76	300.03	18.63	-30.9	-31.4	26.5	0.00e+00	0	36	0	3313500160	34	6014
2026-01-06 06:45:12.80	300.91	18.44	-30.7	-31.2	26.6	0.00e+00	0	36	0	3342860288	34	5871
2026-01-06 06:45:16.84	301.79	18.24	-30.5	-31.0	26.9	0.00e+00	0	35	0	3372220416	34	5720
2026-01-06 06:45:20.87	302.65	18.03	-30.8	-31.3	26.5	0.00e+00	0	36	0	3401580544	34	5935
2026-01-06 06:45:24.91	303.50	17.83	-31.0	-31.5	26.4	0.00e+00	0	36	0	3429892096	34	6054
2026-01-06 06:45:28.95	304.34	17.62	-31.0	-31.5	26.4	0.00e+00	0	36	0	3459252224	34	6085
2026-01-06 06:45:32.99	305.17	17.40	-31.0	-31.5	26.4	0.00e+00	0	35	0	3488612352	34	6075
2026-01-06 06:45:37.03	305.98	17.18	-31.0	-31.5	26.4	0.00e+00	0	36	0	3517972480	34	6075
2026-01-06 06:45:41.06	306.79	16.96	-31.1	-31.6	26.4	0.00e+00	0	36	0	3546284032	34	6114
2026-01-06 06:45:45.10	307.58	16.73	-30.7	-31.2	26.7	0.00e+00	0	36	0	3575644160	34	5841
2026-01-06 06:45:49.14	308.36	16.50	-31.0	-31.5	26.4	0.00e+00	0	36	0	3605004288	34	6057
2026-01-06 06:45:53.19	309.13	16.27	-31.3	-31.8	26.2	0.00e+00	0	36	0	3634364416	34	6280
2026-01-06 06:45:57.22	309.89	16.04	-31.6	-32.1	25.9	0.00e+00	0	36	0	3663724544	34	6483
2026-01-06 06:46:01.27	310.64	15.80	-31.4	-31.9	26.1	0.00e+00	0	36	0	3692036096	34	6325
2026-01-06 06:46:05.31	311.38	15.56	-31.2	-31.7	26.1	0.00e+00	0	36	0	3721396224	34	6220
2026-01-06 06:46:09.35	312.10	15.32	-31.3	-31.7	26.2	0.00e+00	0	36	0	3750756352	34	6238
2026-01-06 06:46:13.38	312.81	15.08	-31.6	-32.1	25.8	0.00e+00	0	36	0	3780116480	34	6510
2026-01-06 06:46:17.42	313.51	14.84	-31.8	-32.3	25.7	0.00e+00	0	36	0	3809476608	36	5930
2026-01-06 06:46:21.46	314.20	14.59	-31.9	-32.5	25.6	0.00e+00	0	36	0	3837788160	36	6036
2026-01-06 06:46:25.50	314.88	14.34	-31.9	-32.4	25.6	0.00e+00	0	36	0	3867148288	36	6000
2026-01-06 06:46:29.54	315.55	14.10	-31.9	-32.4	25.6	0.00e+00	0	36	0	3896508416	36	5974
2026-01-06 06:46:33.57	316.21	13.85	-31.8	-32.3	25.7	0.00e+00	0	36	0	3925868544	36	5915
2026-01-06 06:46:37.61	316.86	13.60	-32.1	-32.7	25.4	0.00e+00	0	36	0	3955228672	36	6175
2026-01-06 06:46:41.65	317.49	13.35	-32.3	-32.8	25.2	0.00e+00	0	36	0	3984588800	36	6274
2026-01-06 06:46:45.68	318.12	13.10	-32.1	-32.6	25.4	0.00e+00	0	36	0	4012900352	36	6144
2026-01-06 06:46:49.72	318.74	12.85	-31.8	-32.2	25.6	0.00e+00	0	36	0	4042260480	36	5895
2026-01-06 06:46:53.76	319.34	12.60	-31.9	-32.4	25.5	0.00e+00	0	36	0	4071620608	36	5998
2026-01-06 06:46:57.80	319.94	12.35	-32.1	-32.6	25.4	0.00e+00	0	36	0	4100980736	36	6173
2026-01-06 06:47:01.84	320.52	12.09	-32.4	-32.9	25.0	0.00e+00	0	36	0	4130340864	36	6333
2026-01-06 06:47:05.88	321.10	11.84	-32.5	-33.1	25.0	0.00e+00	0	36	0	4158652416	36	6466
2026-01-06 06:47:09.91	321.67	11.59	-32.6	-33.1	24.9	0.00e+00	0	36	0	4188012544	38	5782
2026-01-06 06:47:13.96	322.23	11.34	-32.5	-33.0	25.0	0.00e+00	0	36	0	4217372672	38	5739
2026-01-06 06:47:17.99	322.78	11.09	-32.5	-33.0	25.0	0.00e+00	0	36	0	4246732800	38	5726
2026-01-06 06:47:22.04	323.32	10.84	-32.6	-33.1	24.9	0.00e+00	0	36	0	4276092928	38	5787
2026-01-06 06:47:26.08	323.85	10.59	-32.8	-33.3	24.6	0.00e+00	0	36	0	4305453056	38	5942
2026-01-06 06:47:30.11	324.37	10.34	-33.1	-33.6	24.3	0.00e+00	0	36	0	4333764608	38	6155
2026-01-06 06:47:34.14	324.88	10.09	-33.0	-33.6	24.4	0.00e+00	0	36	0	4363124736	38	6104
2026-01-06 06:47:38.18	325.39	9.84	-32.9	-33.4	24.4	0.00e+00	0	36	0	4392484864	38	6031
2026-01-06 06:47:42.21	325.88	9.59	-32.9	-33.5	24.3	0.00e+00	0	36	0	4420796416	38	6053
2026-01-06 06:47:46.25	326.37	9.35	-33.1	-33.6	24.2	0.00e+00	0	36	0	4450156544	38	6136
2026-01-06 06:47:50.29	326.86	9.10	-33.1	-33.6	24.1	0.00e+00	0	36	0	4479516672	38	6147
2026-01-06 06:47:54.33	327.33	8.85	-33.0	-33.5	24.1	0.00e+00	0	36	0	4508876800	38	6059
2026-01-06 06:47:58.37	327.80	8.61	-33.1	-33.7	24.0	0.00e+00	0	36	0	4538236928	38	6182
2026-01-06 06:48:02.40	328.25	8.36	-33.2	-33.7	24.0	0.00e+00	0	36	0	4566548480	38	6242
2026-01-06 06:48:06.44	328.71	8.12	-33.3	-33.8	23.8	0.00e+00	0	36	0	4595908608	38	6305
2026-01-06 06:48:10.48	329.15	7.88	-33.7	-34.2	23.5	0.00e+00	0	36	0	4625268736	38	6608
2026-01-06 06:48:14.52	329.59	7.64	-33.7	-34.2	23.5	0.00e+00	0	36	0	4654628864	40	5894
2026-01-06 06:48:18.56	330.02	7.40	-34.0	-34.6	23.0	0.00e+00	0	36	0	4683988992	40	6150
2026-01-06 06:48:22.60	330.44	7.16	-33.7	-34.2	23.5	0.00e+00	0	36	0	4713349120	40	5895
2026-01-06 06:48:26.63	330.86	6.92	-33.6	-34.2	23.5	0.00e+00	0	36	0	4741660672	40	5864
2026-01-06 06:48:30.67	331.27	6.68	-33.7	-34.2	23.4	0.00e+00	0	36	0	4771020800	40	5884
2026-01-06 06:48:34.71	331.67	6.44	-33.9	-34.5	23.1	0.00e+00	0	36	0	4800380928	40	6080
2026-01-06 06:48:38.75	332.07	6.21	-33.9	-34.5	23.1	0.00e+00	0	36	0	4829741056	40	6035
2026-01-06 06:48:42.79	332.47	5.97	-33.9	-34.5	23.0	0.00e+00	0	36	0	4859101184	40	6072
2026-01-06 06:48:46.82	332.85	5.74	-34.5	-35.1	22.2	0.00e+00	0	36	0	4887412736	40	6483
2026-01-06 06:48:50.86	333.23	5.51	-35.8	-36.5	20.1	0.00e+00	0	36	0	4916772864	42	6802
2026-01-06 06:48:54.90	333.61	5.28	-37.8	-38.8	16.8	0.00e+00	0	36	0	4946132992	46	7047
2026-01-06 06:48:58.94	333.98	5.04	-40.4	-42.4	11.6	3.04e-04	0	36	0	4975493120	52	7556
2026-01-06 06:49:02.98	334.34	4.82	-42.2	-46.1	6.8	1.30e-01	0	36	0	5004853248	56	9198
2026-01-06 06:49:07.01	334.70	4.59	-42.9	-48.4	4.4	7.91e-01	0	36	0	5018484736	58	10616
2026-01-06 06:49:11.05	335.05	4.36	-43.2	-51.9	3.8	8.42e-01	0	36	104	5018484736	58	16034
2026-01-06 06:49:15.09	335.40	4.13	-43.4	-53.2	3.6	8.45e-01	0	36	104	5018484736	58	18586
2026-01-06 06:49:19.13	335.74	3.91	-43.5	-54.5	3.6	8.45e-01	0	36	104	5018484736	58	21619
2026-01-06 06:49:23.17	336.08	3.69	-43.5	-54.6	3.6	8.45e-01	0	36	104	5018484736	58	21677
2026-01-06 06:49:27.20	336.41	3.46	-43.4	-54.5	3.6	8.45e-01	0	36	104	5018484736	58	21644
2026-01-06 06:49:31.23	336.74	3.24	-43.5	-54.6	3.5	8.45e-01	0	36	104	5018484736	58	21661
2026-01-06 06:49:35.27	337.07	3.02	-43.5	-54.6	3.6	8.45e-01	0	36	104	5018484736	58	21802
2026-01-06 06:49:39.31	337.39	2.80	-48.5	-59.7	3.6	8.46e-01	0	36	104	5018484736	60	34891
2026-01-06 06:49:43.35	337.70	2.58	-48.2	-60.0	3.6	8.46e-01	0	36	104	5018484736	60	36013
2026-01-06 06:49:47.39	338.01	2.36	-48.5	-59.9	3.6	8.46e-01	0	36	104	5018484736	60	35764
2026-01-06 06:49:51.43	338.32	2.15	-48.5	-59.9	3.6	8.45e-01	0	36	104	5018484736	60	35818
2026-01-06 06:49:55.47	338.62	1.93	-48.7	-59.9	3.6	8.45e-01	0	36	104	5018484736	60	35643
2026-01-06 06:49:59.51	338.92	1.72	-48.7	-59.9	3.6	8.46e-01	0	36	104	5018484736	60	35826
2026-01-06 06:50:03.55	339.22	1.50	-48.7	-59.9	3.6	8.46e-01	0	36	104	5018484736	60	35812
2026-01-06 06:50:07.59	339.51	1.29	-48.7	-59.9	3.6	8.46e-01	0	36	104	5018484736	60	35706
2026-01-06 06:50:11.63	339.79	1.08	-48.7	-59.9	3.6	8.45e-01	0	36	104	5018484736	60	35704
2026-01-06 06:50:15.67	340.08	0.87	-48.7	-59.9	3.6	8.45e-01	0	36	104	5018484736	60	35740
2026-01-06 06:50:19.71	340.36	0.66	-48.7	-59.9	3.6	8.45e-01	0	36	104	5018484736	60	35604
2026-01-06 06:50:23.75	340.63	0.45	-48.7	-59.9	3.6	8.45e-01	0	36	104	5018484736	60	35811
2026-01-06 06:50:27.79	340.90	0.24	-48.7	-59.9	3.6	8.44e-01	0	36	104	5018484736	60	35614
2026-01-06 06:50:31.83	341.17	0.04	-48.7	-59.9	3.6	8.45e-01	0	36	104	5018484736	60	35544

#Closed at: 2026-01-06 06:50:34
#Recorded file [5018 MB]: D:/lorett/data/35029_260106_183635.dat