passes_logs/2026/01/06/R4.6S_Anadyr/R4.6S_Anadyr__20260106_233848_NOAA_21_JPSS-2_rec.log

#Pass ID: 20260106_233848_NOAA 21 (JPSS-2)
#Satellite: NOAA 21 (JPSS-2)
#Configuration: NOAA-21
#almurnet v.1.7.20251203
#Start time: 2026-01-06 23:38:54

#Version: 2.2.20231116
#Station: R4.6S_Anadyr
#Location: 177.4865 lon 64.73178 lat
#TLE: 1 54234U 22150A   26005.42670836  .00000142  00000+0  88292-4 0  9996
#TLE: 2 54234  98.7490 306.4427 0001045 340.6622  19.4514 14.19532269163451

#Time	Az	El	Level	Level2	SNR	BER	BlckErr	Temp	State	Recorded	gain1	gain2
2026-01-06 23:38:54.28	142.16	0.36	-49.3	-50.9	5.7	0.00e+00	0	31	0	0	60	42983
2026-01-06 23:38:58.18	142.11	0.59	-49.2	-62.0	3.5	1.52e+00	0	33	104	0	60	44184
2026-01-06 23:39:02.09	142.06	0.83	-48.9	-61.7	3.5	1.52e+00	0	33	104	0	60	42577
2026-01-06 23:39:06.00	142.01	1.07	-46.3	-57.0	3.6	1.52e+00	0	33	104	0	60	24948
2026-01-06 23:39:09.92	141.95	1.32	-45.8	-58.7	3.5	1.52e+00	0	33	104	0	60	30262
2026-01-06 23:39:13.82	141.90	1.56	-45.8	-58.6	3.5	1.52e+00	0	34	104	0	60	29782
2026-01-06 23:39:17.73	141.84	1.81	-45.8	-58.9	3.5	1.51e+00	0	34	104	0	60	30963
2026-01-06 23:39:21.65	141.79	2.06	-45.7	-58.7	3.5	1.52e+00	0	34	104	0	60	30161
2026-01-06 23:39:25.56	141.73	2.31	-45.0	-58.6	3.5	1.52e+00	0	34	104	0	60	29725
2026-01-06 23:39:29.47	141.67	2.56	-45.5	-58.7	3.5	1.52e+00	0	34	104	0	60	30256
2026-01-06 23:39:33.37	141.61	2.82	-45.5	-58.6	3.5	1.52e+00	0	34	104	0	60	30025
2026-01-06 23:39:37.27	141.55	3.08	-45.7	-57.8	3.5	1.52e+00	0	34	104	0	60	27218
2026-01-06 23:39:41.19	141.48	3.34	-45.7	-57.7	3.5	1.51e+00	0	34	104	0	60	27080
2026-01-06 23:39:45.10	141.42	3.60	-45.7	-58.5	3.5	1.52e+00	0	34	104	0	60	29581
2026-01-06 23:39:49.00	141.35	3.87	-45.7	-58.8	3.5	1.52e+00	0	34	104	0	60	30428
2026-01-06 23:39:52.91	141.29	4.13	-46.3	-59.0	3.4	1.52e+00	0	34	104	0	60	31296
2026-01-06 23:39:56.82	141.22	4.41	-45.0	-50.8	6.5	2.40e-01	0	34	0	2097152	60	12221
2026-01-06 23:40:00.73	141.15	4.68	-44.7	-49.5	7.4	9.60e-02	0	34	0	13631488	60	10491
2026-01-06 23:40:04.63	141.08	4.95	-44.4	-49.0	6.9	1.98e-01	0	34	0	26214400	60	9892
2026-01-06 23:40:08.54	141.01	5.23	-44.3	-48.7	6.8	2.68e-01	0	34	0	38797312	60	9542
2026-01-06 23:40:12.45	140.93	5.52	-44.1	-47.7	7.5	2.21e-01	0	34	0	50331648	60	8516
2026-01-06 23:40:16.36	140.85	5.80	-43.8	-47.5	8.7	6.48e-02	0	34	0	62914560	60	8277
2026-01-06 23:40:20.26	140.78	6.09	-43.6	-46.9	9.5	4.45e-02	0	34	0	75497472	60	7725
2026-01-06 23:40:24.17	140.70	6.38	-42.7	-45.5	10.7	3.36e-02	0	34	0	87031808	60	6584
2026-01-06 23:40:28.08	140.61	6.67	-42.1	-44.5	14.3	3.67e-02	0	34	0	99614720	58	6575
2026-01-06 23:40:32.00	140.53	6.97	-41.5	-43.4	12.4	5.99e-03	0	34	0	112197632	56	6557
2026-01-06 23:40:35.90	140.45	7.27	-40.5	-42.3	13.4	4.62e-03	0	34	0	123731968	54	6458
2026-01-06 23:40:39.81	140.36	7.58	-39.9	-41.4	16.3	2.97e-05	0	34	0	136314880	54	5801
2026-01-06 23:40:43.71	140.27	7.89	-39.2	-40.5	17.8	0.00e+00	0	34	0	148897792	52	5909
2026-01-06 23:40:47.62	140.18	8.20	-38.6	-39.8	19.6	0.00e+00	0	34	0	160432128	50	6114
2026-01-06 23:40:51.53	140.08	8.51	-38.2	-39.4	20.2	0.00e+00	0	34	0	173015040	50	5806
2026-01-06 23:40:55.43	139.99	8.83	-37.6	-38.8	20.7	0.00e+00	0	34	0	184549376	48	6081
2026-01-06 23:40:59.33	139.89	9.16	-37.4	-38.5	21.2	0.00e+00	0	34	0	197132288	48	5875
2026-01-06 23:41:03.23	139.79	9.48	-36.9	-38.0	21.7	0.00e+00	0	34	0	209715200	48	5561
2026-01-06 23:41:07.14	139.68	9.82	-36.9	-37.9	21.9	0.00e+00	0	34	0	221249536	46	6205
2026-01-06 23:41:11.05	139.57	10.15	-36.5	-37.6	22.2	0.00e+00	0	34	0	233832448	46	5937
2026-01-06 23:41:14.96	139.46	10.49	-36.3	-37.3	22.4	0.00e+00	0	34	0	246415360	46	5787
2026-01-06 23:41:18.87	139.35	10.84	-36.0	-37.0	22.7	0.00e+00	0	34	0	257949696	46	5587
2026-01-06 23:41:22.76	139.24	11.19	-35.9	-36.9	22.9	0.00e+00	0	34	0	270532608	46	5494
2026-01-06 23:41:26.67	139.12	11.55	-35.7	-36.7	23.1	0.00e+00	0	34	0	283115520	44	6013
2026-01-06 23:41:30.58	139.00	11.91	-35.4	-36.4	23.3	0.00e+00	0	34	0	294649856	44	5819
2026-01-06 23:41:34.49	138.87	12.27	-35.1	-36.1	23.6	0.00e+00	0	34	0	307232768	44	5597
2026-01-06 23:41:38.39	138.74	12.64	-35.1	-36.0	23.7	0.00e+00	0	34	0	319815680	44	5567
2026-01-06 23:41:42.30	138.61	13.02	-34.9	-35.8	23.9	0.00e+00	0	34	0	331350016	44	5465
2026-01-06 23:41:46.21	138.48	13.40	-34.7	-35.6	24.1	0.00e+00	0	34	0	343932928	42	5986
2026-01-06 23:41:50.12	138.34	13.79	-34.7	-35.6	24.1	0.00e+00	0	34	0	355467264	42	5935
2026-01-06 23:41:54.03	138.19	14.19	-34.5	-35.4	24.3	0.00e+00	0	34	0	368050176	42	5804
2026-01-06 23:41:57.94	138.04	14.59	-34.5	-35.4	24.3	0.00e+00	0	34	0	380633088	42	5828
2026-01-06 23:42:01.86	137.89	15.00	-34.4	-35.3	24.4	0.00e+00	0	34	0	393216000	42	5750
2026-01-06 23:42:05.77	137.73	15.41	-34.6	-35.4	24.3	0.00e+00	0	34	0	404750336	42	5851
2026-01-06 23:42:09.68	137.57	15.83	-34.6	-35.4	24.3	0.00e+00	0	34	0	417333248	42	5849
2026-01-06 23:42:13.58	137.41	16.26	-34.5	-35.4	24.3	0.00e+00	0	35	0	428867584	42	5834
2026-01-06 23:42:17.49	137.23	16.70	-34.6	-35.5	24.2	0.00e+00	0	34	0	441450496	42	5905
2026-01-06 23:42:21.40	137.06	17.14	-34.6	-35.5	24.1	0.00e+00	0	35	0	454033408	42	5913
2026-01-06 23:42:25.32	136.87	17.59	-34.8	-35.7	24.1	0.00e+00	0	34	0	465567744	42	6023
2026-01-06 23:42:29.22	136.68	18.05	-34.9	-35.8	23.8	0.00e+00	0	34	0	478150656	42	6091
2026-01-06 23:42:33.13	136.49	18.52	-35.0	-36.0	23.9	0.00e+00	0	34	0	490733568	42	6215
2026-01-06 23:42:37.04	136.29	19.00	-35.0	-35.9	23.9	0.00e+00	0	35	0	502267904	42	6159
2026-01-06 23:42:40.95	136.08	19.48	-34.8	-35.8	24.0	0.00e+00	0	34	0	514850816	42	6074
2026-01-06 23:42:44.86	135.86	19.98	-34.8	-35.7	24.2	0.00e+00	0	34	0	527433728	42	6003
2026-01-06 23:42:48.78	135.64	20.48	-34.3	-35.2	24.5	0.00e+00	0	34	0	538968064	42	5697
2026-01-06 23:42:52.68	135.41	21.00	-34.2	-35.1	24.7	0.00e+00	0	35	0	551550976	42	5624
2026-01-06 23:42:56.59	135.17	21.52	-33.6	-34.5	25.1	0.00e+00	0	35	0	564133888	40	5886
2026-01-06 23:43:00.49	134.92	22.05	-33.4	-34.3	25.1	0.00e+00	0	35	0	575668224	40	5740
2026-01-06 23:43:04.40	134.66	22.60	-33.2	-34.0	25.3	0.00e+00	0	35	0	588251136	40	5576
2026-01-06 23:43:08.32	134.39	23.16	-33.3	-34.1	25.2	0.00e+00	0	35	0	600834048	40	5650
2026-01-06 23:43:12.23	134.12	23.73	-33.2	-34.0	25.3	0.00e+00	0	35	0	612368384	40	5572
2026-01-06 23:43:16.15	133.83	24.31	-33.3	-34.2	25.3	0.00e+00	0	35	0	624951296	40	5674
2026-01-06 23:43:20.06	133.53	24.90	-33.5	-34.4	25.1	0.00e+00	0	35	0	637534208	40	5824
2026-01-06 23:43:23.97	133.21	25.51	-34.0	-34.9	24.8	0.00e+00	0	35	0	649068544	40	6139
2026-01-06 23:43:27.88	132.89	26.12	-34.2	-35.1	24.5	0.00e+00	0	35	0	661651456	40	6299
2026-01-06 23:43:31.79	132.55	26.75	-34.7	-35.6	24.2	0.00e+00	0	35	0	673185792	40	6678
2026-01-06 23:43:35.69	132.20	27.40	-35.1	-36.0	23.9	0.00e+00	0	34	0	685768704	42	6274
2026-01-06 23:43:39.60	131.83	28.06	-35.3	-36.2	23.8	0.00e+00	0	35	0	698351616	42	6406
2026-01-06 23:43:43.51	131.45	28.73	-35.0	-35.9	24.1	0.00e+00	0	35	0	709885952	42	6136
2026-01-06 23:43:47.42	131.05	29.42	-35.1	-36.0	24.0	0.00e+00	0	35	0	722468864	42	6274
2026-01-06 23:43:51.33	130.63	30.13	-34.5	-35.4	24.4	0.00e+00	0	34	0	735051776	42	5799
2026-01-06 23:43:55.25	130.19	30.85	-34.3	-35.1	24.6	0.00e+00	0	35	0	746586112	42	5652
2026-01-06 23:43:59.16	129.73	31.58	-34.3	-35.2	24.7	0.00e+00	0	35	0	759169024	42	5680
2026-01-06 23:44:03.07	129.25	32.34	-34.4	-35.2	24.7	0.00e+00	0	34	0	771751936	42	5717
2026-01-06 23:44:06.98	128.75	33.11	-34.6	-35.5	24.4	0.00e+00	0	34	0	783286272	42	5902
2026-01-06 23:44:10.88	128.22	33.89	-35.1	-36.0	24.2	0.00e+00	0	35	0	795869184	42	6244
2026-01-06 23:44:14.80	127.66	34.70	-35.5	-36.4	23.9	0.00e+00	0	35	0	808452096	42	6517
2026-01-06 23:44:18.70	127.07	35.52	-36.1	-37.1	23.2	0.00e+00	0	35	0	819986432	44	6287
2026-01-06 23:44:22.61	126.46	36.36	-36.5	-37.5	23.1	0.00e+00	0	35	0	832569344	44	6590
2026-01-06 23:44:26.52	125.81	37.22	-36.9	-37.9	22.6	0.00e+00	0	35	0	845152256	46	6172
2026-01-06 23:44:30.43	125.12	38.10	-36.8	-37.8	22.7	0.00e+00	0	34	0	856686592	46	6068
2026-01-06 23:44:34.34	124.39	38.99	-37.2	-38.2	22.4	0.00e+00	0	35	0	869269504	46	6395
2026-01-06 23:44:38.24	123.63	39.90	-37.0	-38.1	22.5	0.00e+00	0	35	0	881852416	46	6284
2026-01-06 23:44:42.15	122.81	40.83	-36.2	-37.2	23.2	0.00e+00	0	35	0	893386752	46	5663
2026-01-06 23:44:46.06	121.95	41.78	-36.3	-37.3	23.0	0.00e+00	0	35	0	905969664	46	5736
2026-01-06 23:44:49.97	121.04	42.75	-36.9	-37.9	22.8	0.00e+00	0	35	0	917504000	46	6181
2026-01-06 23:44:53.88	120.06	43.73	-37.9	-39.0	21.6	0.00e+00	0	35	0	930086912	48	6230
2026-01-06 23:44:57.79	119.03	44.73	-37.3	-38.4	22.0	0.00e+00	0	35	0	942669824	48	5815
2026-01-06 23:45:01.69	117.92	45.73	-36.9	-37.9	22.6	0.00e+00	0	35	0	955252736	48	5528
2026-01-06 23:45:05.60	116.75	46.76	-36.7	-37.6	22.9	0.00e+00	0	35	0	966787072	46	5967
2026-01-06 23:45:09.52	115.48	47.80	-35.5	-36.4	23.7	0.00e+00	0	35	0	979369984	44	5830
2026-01-06 23:45:13.43	114.14	48.84	-36.4	-37.4	22.9	0.00e+00	0	35	0	990904320	44	6502
2026-01-06 23:45:17.35	112.69	49.89	-35.9	-36.9	23.4	0.00e+00	0	35	0	1003487232	44	6142
2026-01-06 23:45:21.26	111.14	50.94	-36.6	-37.6	22.8	0.00e+00	0	35	0	1016070144	46	5948
2026-01-06 23:45:25.18	109.48	52.00	-35.7	-36.6	23.3	0.00e+00	0	35	0	1027604480	44	5980
2026-01-06 23:45:29.09	107.69	53.05	-35.6	-36.5	23.7	0.00e+00	0	35	0	1040187392	44	5893
2026-01-06 23:45:33.00	105.78	54.09	-35.0	-36.0	23.7	0.00e+00	0	35	0	1052770304	42	6237
2026-01-06 23:45:36.91	103.72	55.11	-34.7	-35.6	24.3	0.00e+00	0	35	0	1064304640	42	5947
2026-01-06 23:45:40.82	101.50	56.12	-35.1	-36.0	23.9	0.00e+00	0	35	0	1076887552	42	6234
2026-01-06 23:45:44.73	99.13	57.10	-33.8	-34.7	24.6	0.00e+00	0	35	0	1089470464	42	5346
2026-01-06 23:45:48.64	96.57	58.04	-34.2	-35.1	24.7	0.00e+00	0	35	0	1101004800	42	5628
2026-01-06 23:45:52.55	93.84	58.94	-34.4	-35.3	24.6	0.00e+00	0	35	0	1113587712	42	5729
2026-01-06 23:45:56.45	90.93	59.79	-33.7	-34.5	25.0	0.00e+00	0	35	0	1126170624	40	5917
2026-01-06 23:46:00.36	87.82	60.57	-33.1	-33.9	25.6	0.00e+00	0	35	0	1137704960	40	5501
2026-01-06 23:46:04.27	84.51	61.29	-33.4	-34.2	25.3	0.00e+00	0	35	0	1150287872	40	5686
2026-01-06 23:46:08.20	81.01	61.93	-33.2	-34.0	25.2	0.00e+00	0	35	0	1162870784	40	5580
2026-01-06 23:46:12.11	77.35	62.47	-33.6	-34.4	25.2	0.00e+00	0	35	0	1174405120	40	5842
2026-01-06 23:46:16.02	73.54	62.91	-33.1	-34.0	25.5	0.00e+00	0	35	0	1186988032	40	5543
2026-01-06 23:46:19.92	69.61	63.25	-32.9	-33.8	25.0	0.00e+00	0	35	0	1199570944	40	5423
2026-01-06 23:46:23.84	65.57	63.47	-33.5	-34.4	25.2	0.00e+00	0	35	0	1211105280	40	5817
2026-01-06 23:46:27.73	61.51	63.57	-33.3	-34.1	25.4	0.00e+00	0	35	0	1223688192	40	5643
2026-01-06 23:46:31.64	57.41	63.55	-33.2	-34.1	25.2	0.00e+00	0	35	0	1236271104	40	5610
2026-01-06 23:46:35.55	53.33	63.41	-33.3	-34.1	25.5	0.00e+00	0	35	0	1247805440	40	5641
2026-01-06 23:46:39.46	49.33	63.16	-32.7	-33.5	25.6	0.00e+00	0	35	0	1260388352	38	5904
2026-01-06 23:46:43.37	45.43	62.79	-33.6	-34.5	25.1	0.00e+00	0	35	0	1271922688	40	5859
2026-01-06 23:46:47.28	41.66	62.32	-34.1	-35.0	24.9	0.00e+00	0	35	0	1284505600	40	6274
2026-01-06 23:46:51.19	38.06	61.75	-33.7	-34.6	24.8	0.00e+00	0	35	0	1297088512	40	5983
2026-01-06 23:46:55.11	34.62	61.09	-33.6	-34.5	25.1	0.00e+00	0	35	0	1308622848	40	5885
2026-01-06 23:46:59.01	31.38	60.36	-33.7	-34.6	25.2	0.00e+00	0	35	0	1321205760	40	5958
2026-01-06 23:47:02.91	28.34	59.55	-33.8	-34.7	24.7	0.00e+00	0	35	0	1333788672	40	5998
2026-01-06 23:47:06.81	25.48	58.69	-34.3	-35.2	24.7	0.00e+00	0	35	0	1345323008	40	6400
2026-01-06 23:47:10.73	22.80	57.78	-33.4	-34.3	25.2	0.00e+00	0	35	0	1357905920	40	5755
2026-01-06 23:47:14.63	20.31	56.83	-35.4	-36.4	23.8	0.00e+00	0	35	0	1370488832	42	6524
2026-01-06 23:47:18.54	17.98	55.85	-34.3	-35.2	24.6	0.00e+00	0	35	0	1382023168	42	5670
2026-01-06 23:47:22.45	15.82	54.84	-35.4	-36.3	23.9	0.00e+00	0	35	0	1394606080	44	5758
2026-01-06 23:47:26.36	13.80	53.81	-34.3	-35.1	24.8	0.00e+00	0	35	0	1407188992	42	5643
2026-01-06 23:47:30.28	11.92	52.77	-37.7	-38.9	20.9	0.00e+00	0	35	0	1418723328	46	6934
2026-01-06 23:47:34.19	10.18	51.72	-36.1	-37.0	23.4	0.00e+00	0	35	0	1431306240	46	5581
2026-01-06 23:47:38.09	8.56	50.68	-37.0	-38.1	22.5	0.00e+00	0	35	0	1443889152	46	6285
2026-01-06 23:47:42.00	7.05	49.63	-36.1	-37.1	23.2	0.00e+00	0	35	0	1455423488	46	5610
2026-01-06 23:47:45.91	5.63	48.58	-36.7	-37.7	22.8	0.00e+00	0	35	0	1468006400	44	6735
2026-01-06 23:47:49.83	4.31	47.54	-38.5	-39.7	21.1	0.00e+00	0	35	0	1479540736	48	6758
2026-01-06 23:47:53.74	3.08	46.51	-37.6	-38.6	22.1	0.00e+00	0	35	0	1492123648	48	5977
2026-01-06 23:47:57.64	1.92	45.50	-37.3	-38.3	22.4	0.00e+00	0	35	0	1504706560	46	6463
2026-01-06 23:48:01.55	0.84	44.49	-36.3	-37.3	23.2	0.00e+00	0	35	0	1517289472	46	5739
2026-01-06 23:48:05.46	359.82	43.51	-36.4	-37.4	22.6	0.00e+00	0	35	0	1528823808	46	5796
2026-01-06 23:48:09.37	358.87	42.53	-36.7	-37.7	22.8	0.00e+00	0	35	0	1541406720	46	6003
2026-01-06 23:48:13.28	357.97	41.57	-37.9	-39.1	21.2	0.00e+00	0	35	0	1552941056	48	6323
2026-01-06 23:48:17.20	357.12	40.63	-36.6	-37.6	22.9	0.00e+00	0	35	0	1565523968	46	5982
2026-01-06 23:48:21.10	356.33	39.71	-36.4	-37.4	23.1	0.00e+00	0	35	0	1578106880	46	5798
2026-01-06 23:48:25.01	355.57	38.81	-36.0	-36.9	23.4	0.00e+00	0	35	0	1589641216	46	5519
2026-01-06 23:48:28.93	354.86	37.92	-37.0	-38.0	22.5	0.00e+00	0	35	0	1602224128	46	6271
2026-01-06 23:48:32.84	354.18	37.05	-35.7	-36.7	23.5	0.00e+00	0	35	0	1614807040	46	5359
2026-01-06 23:48:36.75	353.54	36.20	-36.2	-37.2	23.0	0.00e+00	0	35	0	1626341376	44	6401
2026-01-06 23:48:40.67	352.94	35.36	-36.8	-37.8	22.5	0.00e+00	0	35	0	1638924288	46	6093
2026-01-06 23:48:44.58	352.36	34.55	-35.3	-36.3	23.9	0.00e+00	0	35	0	1651507200	44	5743
2026-01-06 23:48:48.50	351.81	33.75	-35.2	-36.1	24.0	0.00e+00	0	35	0	1663041536	44	5623
2026-01-06 23:48:52.41	351.29	32.97	-35.7	-36.6	23.7	0.00e+00	0	35	0	1675624448	44	5973
2026-01-06 23:48:56.32	350.80	32.21	-35.4	-36.3	23.9	0.00e+00	0	35	0	1688207360	44	5782
2026-01-06 23:49:00.24	350.32	31.46	-35.2	-36.2	23.9	0.00e+00	0	35	0	1699741696	44	5661
2026-01-06 23:49:04.16	349.87	30.73	-34.7	-35.6	24.3	0.00e+00	0	35	0	1712324608	42	5933
2026-01-06 23:49:08.08	349.44	30.01	-34.3	-35.2	24.7	0.00e+00	0	35	0	1724907520	42	5662
2026-01-06 23:49:11.99	349.03	29.32	-33.8	-34.7	25.0	0.00e+00	0	35	0	1736441856	42	5364
2026-01-06 23:49:15.92	348.63	28.63	-34.1	-35.0	24.7	0.00e+00	0	35	0	1749024768	42	5552
2026-01-06 23:49:19.83	348.25	27.96	-34.8	-35.7	24.3	0.00e+00	0	35	0	1761607680	42	6061
2026-01-06 23:49:23.75	347.89	27.31	-34.8	-35.8	24.2	0.00e+00	0	35	0	1773142016	42	6066
2026-01-06 23:49:27.68	347.54	26.67	-34.5	-35.4	24.4	0.00e+00	0	35	0	1785724928	42	5846
2026-01-06 23:49:31.62	347.21	26.04	-34.2	-35.1	24.6	0.00e+00	0	35	0	1798307840	42	5624
2026-01-06 23:49:35.54	346.89	25.42	-33.8	-34.7	25.0	0.00e+00	0	35	0	1810890752	42	5369
2026-01-06 23:49:39.49	346.58	24.82	-33.7	-34.6	25.0	0.00e+00	0	35	0	1822425088	40	5944
2026-01-06 23:49:43.47	346.28	24.22	-33.9	-34.8	24.9	0.00e+00	0	35	0	1835008000	40	6112
2026-01-06 23:49:47.45	345.99	23.64	-34.2	-35.1	24.7	0.00e+00	0	35	0	1847590912	40	6304
2026-01-06 23:49:51.42	345.72	23.07	-34.2	-35.1	24.7	0.00e+00	0	35	0	1860173824	40	6289
2026-01-06 23:49:55.38	345.45	22.51	-34.2	-35.1	24.6	0.00e+00	0	35	0	1872756736	40	6334
2026-01-06 23:49:59.41	345.19	21.95	-34.3	-35.2	24.6	0.00e+00	0	35	0	1885339648	40	6360
2026-01-06 23:50:03.42	344.94	21.41	-34.4	-35.3	24.6	0.00e+00	0	35	0	1897922560	40	6470
2026-01-06 23:50:07.40	344.71	20.88	-34.4	-35.3	24.6	0.00e+00	0	35	0	1910505472	40	6484
2026-01-06 23:50:11.39	344.48	20.36	-34.6	-35.5	24.3	0.00e+00	0	35	0	1922039808	40	6590
2026-01-06 23:50:15.37	344.25	19.86	-34.6	-35.5	24.4	0.00e+00	0	35	0	1934622720	40	6604
2026-01-06 23:50:19.37	344.04	19.36	-34.6	-35.6	24.3	0.00e+00	0	35	0	1947205632	42	5941
2026-01-06 23:50:23.40	343.83	18.86	-34.7	-35.6	24.2	0.00e+00	0	35	0	1959788544	42	5963
2026-01-06 23:50:27.44	343.63	18.38	-34.6	-35.5	24.3	0.00e+00	0	35	0	1972371456	42	5914
2026-01-06 23:50:31.48	343.43	17.90	-34.7	-35.6	24.1	0.00e+00	0	35	0	1984954368	42	5982
2026-01-06 23:50:35.52	343.24	17.43	-34.7	-35.6	24.1	0.00e+00	0	35	0	1997537280	42	5961
2026-01-06 23:50:39.56	343.06	16.97	-35.0	-35.9	23.8	0.00e+00	0	35	0	2010120192	42	6166
2026-01-06 23:50:43.60	342.88	16.52	-34.9	-35.8	23.9	0.00e+00	0	35	0	2022703104	42	6094
2026-01-06 23:50:47.64	342.71	16.08	-35.0	-35.9	23.9	0.00e+00	0	35	0	2036334592	42	6146
2026-01-06 23:50:51.68	342.55	15.64	-35.0	-35.9	23.8	0.00e+00	0	35	0	2047868928	42	6201
2026-01-06 23:50:55.72	342.38	15.21	-35.0	-35.9	23.9	0.00e+00	0	35	0	2061500416	42	6155
2026-01-06 23:50:59.76	342.23	14.79	-35.1	-36.0	23.8	0.00e+00	0	35	0	2074083328	42	6249
2026-01-06 23:51:03.80	342.08	14.38	-35.2	-36.2	23.7	0.00e+00	0	35	0	2086666240	42	6362
2026-01-06 23:51:07.83	341.93	13.97	-35.3	-36.3	23.6	0.00e+00	0	35	0	2099249152	42	6439
2026-01-06 23:51:11.87	341.79	13.57	-35.5	-36.4	23.4	0.00e+00	0	35	0	2111832064	42	6569
2026-01-06 23:51:15.91	341.65	13.17	-35.5	-36.4	23.4	0.00e+00	0	35	0	2124414976	42	6539
2026-01-06 23:51:19.95	341.52	12.78	-35.6	-36.6	23.3	0.00e+00	0	35	0	2136997888	42	6652
2026-01-06 23:51:23.99	341.39	12.40	-35.7	-36.7	23.2	0.00e+00	0	35	0	2149580800	44	6001
2026-01-06 23:51:28.02	341.26	12.02	-35.7	-36.7	23.1	0.00e+00	0	35	0	2162163712	44	6025
2026-01-06 23:51:32.05	341.14	11.65	-35.8	-36.8	23.0	0.00e+00	0	35	0	2174746624	44	6101
2026-01-06 23:51:36.10	341.02	11.29	-35.9	-36.8	22.9	0.00e+00	0	35	0	2187329536	44	6134
2026-01-06 23:51:40.13	340.90	10.93	-36.0	-37.0	22.8	0.00e+00	0	35	0	2199912448	44	6220
2026-01-06 23:51:44.18	340.79	10.57	-36.1	-37.1	22.7	0.00e+00	0	35	0	2212495360	44	6343
2026-01-06 23:51:48.22	340.68	10.22	-36.1	-37.1	22.7	0.00e+00	0	35	0	2225078272	44	6279
2026-01-06 23:51:52.25	340.57	9.87	-36.1	-37.1	22.7	0.00e+00	0	35	0	2237661184	44	6334
2026-01-06 23:51:56.29	340.47	9.53	-36.1	-37.2	22.6	0.00e+00	0	35	0	2250244096	44	6355
2026-01-06 23:52:00.33	340.37	9.19	-36.1	-37.1	22.6	0.00e+00	0	35	0	2262827008	44	6334
2026-01-06 23:52:04.37	340.27	8.86	-36.2	-37.2	22.5	0.00e+00	0	35	0	2275409920	44	6413
2026-01-06 23:52:08.41	340.18	8.53	-36.2	-37.3	22.5	0.00e+00	0	35	0	2287992832	44	6429
2026-01-06 23:52:12.45	340.08	8.21	-36.4	-37.4	22.4	0.00e+00	0	35	0	2300575744	44	6537
2026-01-06 23:52:16.49	339.99	7.89	-36.5	-37.6	22.1	0.00e+00	0	35	0	2313158656	44	6675
2026-01-06 23:52:20.52	339.90	7.57	-36.7	-37.8	22.0	0.00e+00	0	35	0	2325741568	46	6069
2026-01-06 23:52:24.56	339.82	7.26	-36.8	-37.8	21.9	0.00e+00	0	35	0	2338324480	46	6113
2026-01-06 23:52:28.60	339.73	6.95	-36.9	-38.0	21.8	0.00e+00	0	35	0	2350907392	46	6211
2026-01-06 23:52:32.64	339.65	6.65	-37.0	-38.1	21.6	0.00e+00	0	35	0	2363490304	46	6322
2026-01-06 23:52:36.68	339.57	6.35	-37.0	-38.1	21.6	0.00e+00	0	35	0	2376073216	46	6293
2026-01-06 23:52:40.72	339.49	6.05	-37.0	-38.1	21.5	0.00e+00	0	35	0	2388656128	46	6332
2026-01-06 23:52:44.76	339.42	5.75	-37.4	-38.6	20.9	0.00e+00	0	35	0	2401239040	46	6684
2026-01-06 23:52:48.80	339.34	5.46	-38.1	-39.4	19.7	0.00e+00	0	35	0	2414870528	48	6550
2026-01-06 23:52:52.84	339.27	5.17	-39.3	-40.8	17.9	0.00e+00	0	35	0	2426404864	50	6871
2026-01-06 23:52:56.87	339.20	4.89	-40.7	-42.9	15.2	0.00e+00	0	35	0	2440036352	54	6934
2026-01-06 23:53:00.91	339.13	4.61	-42.4	-45.8	11.5	5.01e-04	0	35	0	2452619264	56	8586
2026-01-06 23:53:04.95	339.06	4.33	-43.4	-48.7	7.5	7.92e-02	0	35	0	2465202176	58	10757
2026-01-06 23:53:08.99	339.00	4.05	-43.9	-52.8	4.7	7.74e-01	0	35	104	2471493632	60	15303
2026-01-06 23:53:13.03	338.93	3.77	-44.2	-56.0	3.6	1.51e+00	0	35	104	2471493632	60	22106
2026-01-06 23:53:17.06	338.87	3.50	-44.1	-56.5	3.5	1.52e+00	0	35	104	2471493632	60	23456
2026-01-06 23:53:21.10	338.81	3.24	-44.1	-57.0	3.5	1.52e+00	0	35	104	2471493632	60	24905
2026-01-06 23:53:25.14	338.75	2.97	-44.1	-57.0	3.5	1.52e+00	0	35	104	2471493632	60	24730
2026-01-06 23:53:29.18	338.69	2.71	-49.1	-62.0	3.5	1.52e+00	0	35	104	2471493632	60	44010
2026-01-06 23:53:33.22	338.63	2.44	-49.3	-62.2	3.5	1.52e+00	0	35	104	2471493632	60	45026
2026-01-06 23:53:37.26	338.58	2.18	-49.0	-62.0	3.5	1.52e+00	0	35	104	2471493632	60	44305
2026-01-06 23:53:41.30	338.52	1.93	-49.2	-62.1	3.5	1.52e+00	0	35	104	2471493632	60	44624
2026-01-06 23:53:45.34	338.47	1.67	-49.1	-62.0	3.5	1.52e+00	0	35	104	2471493632	60	44236
2026-01-06 23:53:49.37	338.42	1.42	-49.1	-62.0	3.5	1.52e+00	0	35	104	2471493632	60	44423
2026-01-06 23:53:53.42	338.37	1.17	-49.1	-62.0	3.5	1.52e+00	0	35	104	2471493632	60	43948
2026-01-06 23:53:57.45	338.32	0.92	-49.1	-62.0	3.5	1.52e+00	0	35	104	2471493632	60	44105
2026-01-06 23:54:01.49	338.27	0.68	-49.1	-62.1	3.5	1.52e+00	0	35	104	2471493632	60	44488
2026-01-06 23:54:05.53	338.22	0.43	-49.1	-62.0	3.5	1.52e+00	0	35	104	2471493632	60	44020
2026-01-06 23:54:09.57	338.18	0.19	-49.1	-62.0	3.5	1.52e+00	0	35	104	2471493632	60	44237
2026-01-06 23:54:13.60	338.13	-0.05	-49.1	-62.0	3.5	1.52e+00	0	35	104	2471493632	60	44151

#Closed at: 2026-01-06 23:54:15
#Recorded file [2471 MB]: D:/lorett/data/35029_260107_113854.dat