passes_logs/2026/01/06/R4.6S_Anadyr/R4.6S_Anadyr__20260106_045435_FENGYUN_3E_rec.log

#Pass ID: 20260106_045435_FENGYUN 3E
#Satellite: FENGYUN 3E
#Configuration: FENGYUN 3E
#almurnet v.1.7.20251203
#Start time: 2026-01-06 04:54:36

#Version: 2.2.20231116
#Station: R4.6S_Anadyr
#Location: 177.4865 lon 64.73178 lat
#TLE: 1 49008U 21062A   26005.56299987  .00000339  00000+0  18069-3 0  9991
#TLE: 2 49008  98.7472  10.8019 0001562 158.0357 202.0886 14.19884907233502

#Time	Az	El	Level	Level2	SNR	BER	BlckErr	Temp	State	Recorded	gain1	gain2
2026-01-06 04:54:36.71	166.60	0.06	-49.0	-66.7	3.5	3.04e+01	0	32	0	0	60	83524
2026-01-06 04:54:40.74	166.66	0.30	-48.6	-59.8	3.6	8.46e-01	0	33	104	0	60	35351
2026-01-06 04:54:44.78	166.73	0.55	-48.7	-59.8	3.6	8.46e-01	0	33	104	0	60	35471
2026-01-06 04:54:48.82	166.79	0.79	-48.2	-59.4	3.6	8.45e-01	0	34	104	0	60	33802
2026-01-06 04:54:52.86	166.86	1.04	-47.2	-58.4	3.6	8.45e-01	0	34	104	0	60	29962
2026-01-06 04:54:56.90	166.92	1.29	-47.2	-58.3	3.6	8.45e-01	0	34	104	0	60	29748
2026-01-06 04:55:00.94	166.99	1.54	-47.2	-58.0	3.6	8.45e-01	0	34	104	0	60	28872
2026-01-06 04:55:04.98	167.06	1.80	-47.1	-58.0	3.6	8.45e-01	0	34	104	0	60	28859
2026-01-06 04:55:09.02	167.13	2.06	-47.2	-58.4	3.6	8.45e-01	0	34	104	0	60	30013
2026-01-06 04:55:13.06	167.20	2.32	-47.1	-57.9	3.6	8.45e-01	0	34	104	0	60	28346
2026-01-06 04:55:17.10	167.27	2.58	-46.9	-56.1	3.6	8.44e-01	0	34	104	0	60	23088
2026-01-06 04:55:21.14	167.35	2.84	-47.1	-57.4	3.6	8.45e-01	0	34	104	0	60	26699
2026-01-06 04:55:25.17	167.42	3.11	-43.5	-45.8	11.5	3.26e-03	0	34	0	13631488	60	7043
2026-01-06 04:55:29.21	167.50	3.38	-38.2	-39.2	18.2	0.00e+00	0	34	0	42991616	50	5868
2026-01-06 04:55:33.25	167.57	3.65	-38.0	-39.0	18.4	0.00e+00	0	34	0	72351744	48	6402
2026-01-06 04:55:37.28	167.65	3.92	-47.1	-57.4	3.6	5.89e-01	0	34	104	99614720	60	26888
2026-01-06 04:55:41.32	167.73	4.20	-36.5	-37.3	20.3	0.00e+00	0	34	0	111149056	44	6677
2026-01-06 04:55:45.36	167.81	4.48	-35.1	-35.9	21.6	0.00e+00	0	34	0	140509184	44	5689
2026-01-06 04:55:49.40	167.89	4.76	-34.1	-34.9	22.6	0.00e+00	0	34	0	169869312	42	5636
2026-01-06 04:55:53.43	167.97	5.05	-33.9	-34.6	22.9	0.00e+00	0	34	0	199229440	42	5493
2026-01-06 04:55:57.47	168.06	5.34	-34.1	-34.8	22.8	0.00e+00	0	34	0	227540992	40	6278
2026-01-06 04:56:01.51	168.14	5.63	-33.7	-34.4	23.3	0.00e+00	0	34	0	256901120	40	5986
2026-01-06 04:56:05.55	168.23	5.92	-33.6	-34.3	23.3	0.00e+00	0	34	0	286261248	40	5910
2026-01-06 04:56:09.59	168.32	6.22	-33.5	-34.1	23.5	0.00e+00	0	34	0	315621376	40	5816
2026-01-06 04:56:13.63	168.41	6.53	-33.3	-33.9	23.6	0.00e+00	0	34	0	344981504	40	5692
2026-01-06 04:56:17.67	168.50	6.83	-33.1	-33.8	23.8	0.00e+00	0	34	0	373293056	40	5600
2026-01-06 04:56:21.71	168.59	7.14	-33.3	-34.0	23.6	0.00e+00	0	34	0	402653184	40	5733
2026-01-06 04:56:25.75	168.69	7.45	-33.3	-34.0	23.7	0.00e+00	0	34	0	432013312	40	5732
2026-01-06 04:56:29.78	168.78	7.77	-32.9	-33.5	24.3	0.00e+00	0	34	0	461373440	38	6084
2026-01-06 04:56:33.82	168.88	8.09	-32.8	-33.5	24.5	0.00e+00	0	34	0	490733568	38	6052
2026-01-06 04:56:37.86	168.98	8.42	-32.6	-33.2	24.6	0.00e+00	0	35	0	519045120	38	5880
2026-01-06 04:56:41.90	169.09	8.75	-32.5	-33.1	24.6	0.00e+00	0	34	0	548405248	38	5819
2026-01-06 04:56:45.93	169.19	9.08	-32.4	-33.0	24.8	0.00e+00	0	34	0	577765376	38	5758
2026-01-06 04:56:49.97	169.30	9.42	-32.3	-33.0	24.6	0.00e+00	0	34	0	607125504	38	5696
2026-01-06 04:56:54.01	169.41	9.76	-32.2	-32.8	25.1	0.00e+00	0	35	0	635437056	38	5596
2026-01-06 04:56:58.05	169.52	10.11	-32.3	-32.9	24.9	0.00e+00	0	34	0	664797184	38	5668
2026-01-06 04:57:02.09	169.63	10.46	-32.2	-32.8	25.1	0.00e+00	0	35	0	694157312	38	5599
2026-01-06 04:57:06.12	169.75	10.82	-31.9	-32.5	25.3	0.00e+00	0	35	0	723517440	38	5417
2026-01-06 04:57:10.16	169.87	11.18	-31.9	-32.5	25.3	0.00e+00	0	34	0	752877568	38	5439
2026-01-06 04:57:14.20	169.99	11.55	-32.1	-32.7	25.2	0.00e+00	0	34	0	781189120	36	6228
2026-01-06 04:57:18.24	170.11	11.92	-31.5	-32.1	25.7	0.00e+00	0	35	0	810549248	36	5827
2026-01-06 04:57:22.29	170.24	12.30	-31.4	-32.0	25.8	0.00e+00	0	34	0	839909376	36	5720
2026-01-06 04:57:26.33	170.37	12.69	-31.3	-32.0	25.8	0.00e+00	0	35	0	869269504	36	5698
2026-01-06 04:57:30.36	170.50	13.08	-31.1	-31.7	26.0	0.00e+00	0	35	0	898629632	36	5545
2026-01-06 04:57:34.40	170.64	13.47	-31.1	-31.7	26.1	0.00e+00	0	35	0	927989760	36	5514
2026-01-06 04:57:38.44	170.78	13.88	-31.0	-31.6	26.1	0.00e+00	0	35	0	956301312	36	5461
2026-01-06 04:57:42.47	170.92	14.29	-31.2	-31.8	26.1	0.00e+00	0	34	0	985661440	36	5587
2026-01-06 04:57:46.51	171.07	14.70	-31.0	-31.6	26.1	0.00e+00	0	35	0	1015021568	36	5490
2026-01-06 04:57:50.55	171.22	15.13	-31.0	-31.6	26.3	0.00e+00	0	35	0	1044381696	36	5468
2026-01-06 04:57:54.59	171.37	15.56	-30.9	-31.5	26.3	0.00e+00	0	35	0	1073741824	34	6055
2026-01-06 04:57:58.63	171.53	16.00	-30.6	-31.2	26.6	0.00e+00	0	35	0	1102053376	34	5865
2026-01-06 04:58:02.66	171.69	16.45	-30.5	-31.2	26.6	0.00e+00	0	35	0	1131413504	34	5832
2026-01-06 04:58:06.70	171.86	16.90	-30.4	-31.0	26.8	0.00e+00	0	35	0	1160773632	34	5727
2026-01-06 04:58:10.74	172.03	17.37	-30.2	-30.9	26.9	0.00e+00	0	35	0	1190133760	34	5636
2026-01-06 04:58:14.78	172.21	17.84	-30.2	-30.8	27.0	0.00e+00	0	35	0	1219493888	34	5592
2026-01-06 04:58:18.82	172.39	18.32	-30.0	-30.6	27.0	0.00e+00	0	34	0	1247805440	34	5469
2026-01-06 04:58:22.85	172.58	18.81	-29.9	-30.5	27.3	0.00e+00	0	35	0	1277165568	34	5386
2026-01-06 04:58:26.89	172.77	19.31	-29.8	-30.4	27.2	0.00e+00	0	35	0	1306525696	32	5971
2026-01-06 04:58:30.93	172.97	19.82	-29.5	-30.1	27.6	0.00e+00	0	35	0	1335885824	32	5816
2026-01-06 04:58:34.96	173.18	20.34	-29.4	-30.0	27.7	0.00e+00	0	35	0	1364197376	32	5723
2026-01-06 04:58:39.00	173.39	20.88	-29.4	-30.0	27.6	0.00e+00	0	35	0	1393557504	32	5739
2026-01-06 04:58:43.04	173.61	21.42	-29.4	-30.0	27.6	0.00e+00	0	35	0	1422917632	32	5732
2026-01-06 04:58:47.07	173.84	21.97	-29.5	-30.1	27.6	0.00e+00	0	35	0	1452277760	32	5788
2026-01-06 04:58:51.11	174.07	22.54	-29.7	-30.3	27.4	0.00e+00	0	35	0	1481637888	32	5919
2026-01-06 04:58:55.15	174.32	23.12	-29.6	-30.2	27.5	0.00e+00	0	35	0	1509949440	32	5848
2026-01-06 04:58:59.19	174.57	23.71	-29.4	-30.0	27.6	0.00e+00	0	35	0	1539309568	32	5746
2026-01-06 04:59:03.23	174.83	24.31	-29.4	-30.0	27.6	0.00e+00	0	35	0	1568669696	32	5739
2026-01-06 04:59:07.26	175.10	24.93	-29.0	-29.6	28.0	0.00e+00	0	35	0	1598029824	32	5449
2026-01-06 04:59:11.30	175.38	25.56	-28.7	-29.3	28.2	0.00e+00	0	35	0	1627389952	32	5298
2026-01-06 04:59:15.34	175.67	26.21	-28.5	-29.1	28.4	0.00e+00	0	35	0	1655701504	30	5778
2026-01-06 04:59:19.38	175.97	26.88	-28.5	-29.1	28.3	0.00e+00	0	35	0	1685061632	30	5791
2026-01-06 04:59:23.42	176.29	27.55	-28.5	-29.1	28.4	0.00e+00	0	35	0	1714421760	30	5799
2026-01-06 04:59:27.46	176.62	28.25	-28.6	-29.2	28.3	0.00e+00	0	35	0	1743781888	30	5849
2026-01-06 04:59:31.49	176.96	28.96	-28.9	-29.5	28.1	0.00e+00	0	35	0	1773142016	30	6037
2026-01-06 04:59:35.53	177.32	29.69	-28.5	-29.0	28.4	0.00e+00	0	35	0	1802502144	30	5751
2026-01-06 04:59:39.57	177.69	30.44	-28.4	-29.0	28.4	0.00e+00	0	35	0	1830813696	30	5705
2026-01-06 04:59:43.61	178.08	31.20	-28.5	-29.1	28.5	0.00e+00	0	35	0	1860173824	30	5766
2026-01-06 04:59:47.65	178.49	31.99	-28.7	-29.3	28.4	0.00e+00	0	35	0	1889533952	30	5915
2026-01-06 04:59:51.69	178.92	32.79	-28.5	-29.1	28.4	0.00e+00	0	35	0	1918894080	30	5801
2026-01-06 04:59:55.72	179.37	33.61	-28.8	-29.4	28.2	0.00e+00	0	35	0	1947205632	30	6016
2026-01-06 04:59:59.76	179.84	34.46	-28.6	-29.1	28.4	0.00e+00	0	35	0	1976565760	30	5826
2026-01-06 05:00:03.80	180.34	35.33	-28.6	-29.2	28.3	0.00e+00	0	35	0	2005925888	30	5848
2026-01-06 05:00:07.84	180.87	36.21	-28.7	-29.3	28.3	0.00e+00	0	35	0	2035286016	30	5926
2026-01-06 05:00:11.87	181.42	37.12	-28.9	-29.4	28.2	0.00e+00	0	35	0	2063597568	30	6020
2026-01-06 05:00:15.91	182.00	38.06	-28.8	-29.3	28.3	0.00e+00	0	35	0	2092957696	30	5954
2026-01-06 05:00:19.95	182.62	39.01	-29.1	-29.7	28.2	0.00e+00	0	35	0	2122317824	30	6188
2026-01-06 05:00:23.99	183.28	40.00	-29.3	-29.9	27.9	0.00e+00	0	35	0	2151677952	30	6364
2026-01-06 05:00:28.02	183.97	41.00	-28.9	-29.5	28.3	0.00e+00	0	35	0	2181038080	30	6046
2026-01-06 05:00:32.06	184.71	42.02	-28.9	-29.5	28.2	0.00e+00	0	35	0	2210398208	30	6048
2026-01-06 05:00:36.10	185.50	43.08	-29.2	-29.7	28.3	0.00e+00	0	35	0	2238709760	30	6244
2026-01-06 05:00:40.14	186.34	44.15	-29.2	-29.8	27.9	0.00e+00	0	35	0	2268069888	30	6262
2026-01-06 05:00:44.17	187.23	45.25	-29.2	-29.8	28.0	0.00e+00	0	35	0	2297430016	30	6283
2026-01-06 05:00:48.21	188.19	46.37	-29.6	-30.1	27.7	0.00e+00	0	35	0	2326790144	32	5820
2026-01-06 05:00:52.24	189.22	47.51	-29.9	-30.5	27.5	0.00e+00	0	35	0	2356150272	32	6072
2026-01-06 05:00:56.28	190.33	48.67	-30.2	-30.8	27.2	0.00e+00	0	35	0	2384461824	32	6281
2026-01-06 05:01:00.32	191.53	49.86	-30.4	-31.0	27.2	0.00e+00	0	35	0	2413821952	32	6442
2026-01-06 05:01:04.36	192.82	51.06	-30.1	-30.7	27.3	0.00e+00	0	35	0	2443182080	32	6196
2026-01-06 05:01:08.40	194.22	52.27	-30.3	-30.9	27.0	0.00e+00	0	35	0	2472542208	32	6354
2026-01-06 05:01:12.43	195.74	53.50	-30.9	-31.5	27.1	0.00e+00	0	35	0	2501902336	34	6042
2026-01-06 05:01:16.47	197.39	54.73	-30.4	-31.0	27.1	0.00e+00	0	35	0	2530213888	34	5747
2026-01-06 05:01:20.51	199.19	55.97	-30.3	-30.9	27.1	0.00e+00	0	35	0	2559574016	32	6353
2026-01-06 05:01:24.54	201.15	57.21	-30.3	-30.9	27.3	0.00e+00	0	35	0	2588934144	32	6332
2026-01-06 05:01:28.58	203.29	58.44	-29.9	-30.5	27.3	0.00e+00	0	35	0	2618294272	34	5411
2026-01-06 05:01:32.62	205.65	59.65	-30.0	-30.6	27.4	0.00e+00	0	35	0	2646605824	32	6133
2026-01-06 05:01:36.65	208.22	60.84	-30.1	-30.7	27.4	0.00e+00	0	35	0	2675965952	32	6180
2026-01-06 05:01:40.68	211.04	61.99	-29.7	-30.3	27.7	0.00e+00	0	35	0	2705326080	32	5943
2026-01-06 05:01:44.72	214.14	63.10	-29.9	-30.5	27.4	0.00e+00	0	35	0	2734686208	32	6088
2026-01-06 05:01:48.76	217.54	64.16	-29.2	-29.8	27.4	0.00e+00	0	35	0	2764046336	32	5627
2026-01-06 05:01:52.79	221.23	65.13	-29.6	-30.3	27.6	0.00e+00	0	35	0	2792357888	32	5897
2026-01-06 05:01:56.83	225.26	66.02	-29.3	-29.9	27.8	0.00e+00	0	35	0	2821718016	32	5636
2026-01-06 05:02:00.87	229.61	66.80	-28.9	-29.5	28.2	0.00e+00	0	35	0	2851078144	32	5412
2026-01-06 05:02:04.90	234.24	67.46	-28.8	-29.4	28.2	0.00e+00	0	35	0	2880438272	30	6017
2026-01-06 05:02:08.94	239.16	67.98	-28.9	-29.5	28.1	0.00e+00	0	35	0	2909798400	30	6034
2026-01-06 05:02:12.98	244.31	68.35	-28.9	-29.5	28.1	0.00e+00	0	35	0	2939158528	30	6039
2026-01-06 05:02:17.02	249.59	68.55	-28.9	-29.5	28.0	0.00e+00	0	35	0	2967470080	30	6070
2026-01-06 05:02:21.06	254.94	68.59	-28.7	-29.3	28.2	0.00e+00	0	35	0	2996830208	30	5943
2026-01-06 05:02:25.11	260.28	68.45	-28.7	-29.2	28.2	0.00e+00	0	35	0	3026190336	30	5894
2026-01-06 05:02:29.15	265.48	68.14	-28.7	-29.3	28.1	0.00e+00	0	35	0	3055550464	30	5933
2026-01-06 05:02:33.19	270.49	67.68	-29.3	-29.9	27.9	0.00e+00	0	35	0	3084910592	30	6373
2026-01-06 05:02:37.22	275.24	67.07	-28.8	-29.4	28.3	0.00e+00	0	35	0	3113222144	30	5968
2026-01-06 05:02:41.26	279.70	66.34	-28.9	-29.4	28.1	0.00e+00	0	35	0	3142582272	30	6028
2026-01-06 05:02:45.30	283.85	65.49	-29.2	-29.8	27.6	0.00e+00	0	35	0	3171942400	30	6269
2026-01-06 05:02:49.34	287.67	64.55	-29.7	-30.4	27.5	0.00e+00	0	35	0	3201302528	32	5969
2026-01-06 05:02:53.37	291.17	63.52	-30.1	-30.7	27.2	0.00e+00	0	35	0	3230662656	32	6218
2026-01-06 05:02:57.41	294.38	62.44	-29.7	-30.3	27.3	0.00e+00	0	35	0	3258974208	32	5954
2026-01-06 05:03:01.45	297.31	61.30	-30.4	-31.0	27.0	0.00e+00	0	35	0	3288334336	32	6399
2026-01-06 05:03:05.49	299.98	60.12	-30.4	-31.0	27.0	0.00e+00	0	35	0	3317694464	32	6442
2026-01-06 05:03:09.53	302.42	58.92	-30.7	-31.3	26.7	0.00e+00	0	35	0	3347054592	34	5905
2026-01-06 05:03:13.56	304.63	57.70	-30.5	-31.1	26.8	0.00e+00	0	35	0	3375366144	34	5797
2026-01-06 05:03:17.60	306.66	56.47	-30.3	-30.9	27.1	0.00e+00	0	35	0	3404726272	34	5641
2026-01-06 05:03:21.64	308.52	55.23	-30.5	-31.1	26.6	0.00e+00	0	35	0	3434086400	34	5793
2026-01-06 05:03:25.68	310.23	54.00	-30.4	-31.0	26.9	0.00e+00	0	35	0	3463446528	34	5719
2026-01-06 05:03:29.72	311.79	52.77	-30.5	-31.1	26.9	0.00e+00	0	35	0	3492806656	34	5777
2026-01-06 05:03:33.76	313.24	51.55	-30.2	-30.9	27.1	0.00e+00	0	35	0	3521118208	34	5631
2026-01-06 05:03:37.79	314.56	50.36	-30.7	-31.3	26.7	0.00e+00	0	35	0	3550478336	34	5913
2026-01-06 05:03:41.83	315.80	49.17	-30.5	-31.1	26.5	0.00e+00	0	35	0	3579838464	34	5787
2026-01-06 05:03:45.87	316.94	48.00	-30.3	-30.9	26.9	0.00e+00	0	35	0	3609198592	34	5688
2026-01-06 05:03:49.91	318.00	46.85	-29.8	-30.4	27.5	0.00e+00	0	35	0	3638558720	32	6004
2026-01-06 05:03:53.95	318.99	45.73	-29.2	-29.8	28.0	0.00e+00	0	35	0	3666870272	32	5608
2026-01-06 05:03:57.99	319.91	44.62	-29.2	-29.8	28.0	0.00e+00	0	35	0	3696230400	32	5591
2026-01-06 05:04:02.03	320.77	43.54	-29.4	-30.0	27.7	0.00e+00	0	35	0	3725590528	32	5734
2026-01-06 05:04:06.07	321.58	42.49	-29.0	-29.6	27.9	0.00e+00	0	35	0	3754950656	32	5448
2026-01-06 05:04:10.11	322.33	41.45	-28.7	-29.3	28.2	0.00e+00	0	35	0	3784310784	30	5943
2026-01-06 05:04:14.14	323.04	40.45	-28.9	-29.5	28.2	0.00e+00	0	35	0	3812622336	30	6039
2026-01-06 05:04:18.18	323.71	39.46	-28.7	-29.3	28.0	0.00e+00	0	35	0	3841982464	30	5959
2026-01-06 05:04:22.22	324.35	38.50	-28.8	-29.4	27.9	0.00e+00	0	35	0	3871342592	30	6008
2026-01-06 05:04:26.26	324.94	37.56	-29.2	-29.8	27.7	0.00e+00	0	35	0	3900702720	30	6263
2026-01-06 05:04:30.30	325.51	36.64	-29.1	-29.7	28.0	0.00e+00	0	35	0	3930062848	30	6217
2026-01-06 05:04:34.34	326.05	35.75	-28.4	-29.0	28.3	0.00e+00	0	35	0	3959422976	30	5731
2026-01-06 05:04:38.38	326.55	34.88	-28.5	-29.1	28.5	0.00e+00	0	35	0	3987734528	30	5794
2026-01-06 05:04:42.42	327.04	34.02	-28.6	-29.2	28.1	0.00e+00	0	35	0	4017094656	30	5840
2026-01-06 05:04:46.46	327.50	33.19	-28.8	-29.4	28.2	0.00e+00	0	35	0	4046454784	30	5971
2026-01-06 05:04:50.50	327.94	32.39	-28.7	-29.3	28.3	0.00e+00	0	35	0	4075814912	30	5948
2026-01-06 05:04:54.53	328.35	31.60	-28.6	-29.2	28.4	0.00e+00	0	35	0	4105175040	30	5839
2026-01-06 05:04:58.57	328.75	30.83	-28.8	-29.4	28.1	0.00e+00	0	35	0	4133486592	30	5972
2026-01-06 05:05:02.60	329.13	30.08	-28.9	-29.5	27.9	0.00e+00	0	35	0	4162846720	30	6039
2026-01-06 05:05:06.64	329.50	29.34	-29.2	-29.8	27.7	0.00e+00	0	35	0	4192206848	30	6265
2026-01-06 05:05:10.67	329.85	28.63	-29.2	-29.8	27.9	0.00e+00	0	35	0	4221566976	30	6306
2026-01-06 05:05:14.71	330.18	27.93	-29.3	-29.9	27.8	0.00e+00	0	35	0	4249878528	30	6321
2026-01-06 05:05:18.75	330.50	27.25	-29.2	-29.8	27.9	0.00e+00	0	35	0	4279238656	30	6269
2026-01-06 05:05:22.79	330.81	26.58	-29.2	-29.7	28.0	0.00e+00	0	35	0	4308598784	30	6240
2026-01-06 05:05:26.83	331.11	25.93	-29.4	-29.9	27.7	0.00e+00	0	35	0	4337958912	30	6379
2026-01-06 05:05:30.86	331.40	25.29	-29.4	-30.0	27.7	0.00e+00	0	35	0	4367319040	30	6436
2026-01-06 05:05:34.90	331.67	24.67	-29.5	-30.1	27.7	0.00e+00	0	35	0	4395630592	30	6489
2026-01-06 05:05:38.94	331.94	24.06	-29.7	-30.3	27.4	0.00e+00	0	35	0	4424990720	30	6630
2026-01-06 05:05:42.98	332.20	23.47	-29.6	-30.2	27.6	0.00e+00	0	35	0	4454350848	32	5868
2026-01-06 05:05:47.01	332.44	22.89	-29.6	-30.2	27.5	0.00e+00	0	35	0	4483710976	32	5873
2026-01-06 05:05:51.05	332.68	22.32	-29.5	-30.1	27.5	0.00e+00	0	35	0	4513071104	32	5775
2026-01-06 05:05:55.09	332.92	21.76	-29.3	-29.9	27.5	0.00e+00	0	35	0	4541382656	32	5684
2026-01-06 05:05:59.12	333.14	21.22	-29.5	-30.1	27.6	0.00e+00	0	35	0	4570742784	32	5801
2026-01-06 05:06:03.16	333.36	20.68	-29.8	-30.4	27.4	0.00e+00	0	35	0	4600102912	32	5971
2026-01-06 05:06:07.20	333.57	20.16	-29.9	-30.5	27.3	0.00e+00	0	35	0	4629463040	32	6046
2026-01-06 05:06:11.24	333.77	19.64	-30.1	-30.7	27.2	0.00e+00	0	35	0	4658823168	32	6187
2026-01-06 05:06:15.28	333.97	19.14	-30.3	-30.9	27.0	0.00e+00	0	35	0	4688183296	32	6325
2026-01-06 05:06:19.31	334.16	18.65	-30.4	-31.0	26.8	0.00e+00	0	35	0	4716494848	32	6398
2026-01-06 05:06:23.35	334.35	18.16	-30.4	-31.0	26.8	0.00e+00	0	35	0	4745854976	32	6415
2026-01-06 05:06:27.38	334.53	17.69	-30.5	-31.1	26.8	0.00e+00	0	35	0	4775215104	32	6479
2026-01-06 05:06:31.42	334.70	17.22	-30.4	-31.0	26.7	0.00e+00	0	35	0	4804575232	32	6457
2026-01-06 05:06:35.45	334.88	16.77	-30.5	-31.1	26.7	0.00e+00	0	35	0	4832886784	32	6522
2026-01-06 05:06:39.49	335.04	16.32	-30.7	-31.3	26.4	0.00e+00	0	35	0	4862246912	34	5927
2026-01-06 05:06:43.53	335.21	15.88	-30.8	-31.3	26.2	0.00e+00	0	35	0	4891607040	34	5964
2026-01-06 05:06:47.57	335.36	15.44	-30.9	-31.5	26.3	0.00e+00	0	35	0	4920967168	34	6072
2026-01-06 05:06:51.60	335.52	15.02	-31.1	-31.7	26.0	0.00e+00	0	35	0	4949278720	34	6211
2026-01-06 05:06:55.64	335.67	14.60	-31.4	-32.0	25.9	0.00e+00	0	35	0	4978638848	34	6422
2026-01-06 05:06:59.68	335.82	14.19	-31.4	-32.0	26.0	0.00e+00	0	35	0	5007998976	34	6428
2026-01-06 05:07:03.72	335.96	13.78	-31.6	-32.2	25.7	0.00e+00	0	35	0	5037359104	34	6567
2026-01-06 05:07:07.76	336.10	13.38	-31.8	-32.4	25.6	0.00e+00	0	35	0	5066719232	36	6005
2026-01-06 05:07:11.79	336.24	12.99	-31.7	-32.4	25.5	0.00e+00	0	35	0	5095030784	36	5975
2026-01-06 05:07:15.83	336.37	12.60	-31.8	-32.4	25.5	0.00e+00	0	35	0	5124390912	36	5986
2026-01-06 05:07:19.87	336.50	12.22	-32.0	-32.6	25.3	0.00e+00	0	35	0	5153751040	36	6161
2026-01-06 05:07:23.91	336.63	11.85	-32.0	-32.7	25.2	0.00e+00	0	35	0	5183111168	36	6175
2026-01-06 05:07:27.94	336.75	11.48	-32.3	-32.9	25.0	0.00e+00	0	35	0	5212471296	36	6354
2026-01-06 05:07:31.99	336.88	11.12	-32.1	-32.7	25.2	0.00e+00	0	35	0	5241831424	36	6229
2026-01-06 05:07:36.02	337.00	10.76	-32.3	-32.9	25.1	0.00e+00	0	35	0	5270142976	36	6371
2026-01-06 05:07:40.06	337.12	10.40	-32.4	-33.0	24.9	0.00e+00	0	35	0	5299503104	36	6450
2026-01-06 05:07:44.10	337.23	10.06	-32.6	-33.2	24.5	0.00e+00	0	35	0	5328863232	36	6588
2026-01-06 05:07:48.14	337.34	9.71	-32.6	-33.2	24.7	0.00e+00	0	35	0	5358223360	36	6593
2026-01-06 05:07:52.18	337.45	9.37	-32.6	-33.3	24.6	0.00e+00	0	35	0	5387583488	38	5936
2026-01-06 05:07:56.22	337.56	9.04	-32.7	-33.4	24.5	0.00e+00	0	35	0	5415895040	38	5974
2026-01-06 05:08:00.26	337.67	8.71	-32.9	-33.6	24.3	0.00e+00	0	35	0	5445255168	38	6124
2026-01-06 05:08:04.30	337.78	8.38	-33.0	-33.7	24.1	0.00e+00	0	35	0	5474615296	38	6185
2026-01-06 05:08:08.33	337.88	8.06	-33.1	-33.8	24.1	0.00e+00	0	35	0	5503975424	38	6259
2026-01-06 05:08:12.37	337.98	7.74	-33.2	-33.9	24.0	0.00e+00	0	35	0	5532286976	38	6322
2026-01-06 05:08:16.40	338.08	7.43	-33.4	-34.1	23.7	0.00e+00	0	35	0	5561647104	38	6500
2026-01-06 05:08:20.44	338.18	7.12	-33.8	-34.5	23.4	0.00e+00	0	35	0	5591007232	40	6036
2026-01-06 05:08:24.48	338.27	6.81	-33.7	-34.4	23.3	0.00e+00	0	35	0	5620367360	40	5974
2026-01-06 05:08:28.52	338.37	6.51	-33.9	-34.6	23.2	0.00e+00	0	35	0	5648678912	40	6126
2026-01-06 05:08:32.56	338.46	6.21	-33.7	-34.4	23.1	0.00e+00	0	35	0	5678039040	40	6032
2026-01-06 05:08:36.58	338.55	5.92	-33.6	-34.3	23.2	0.00e+00	0	35	0	5707399168	40	5928
2026-01-06 05:08:40.62	338.64	5.62	-34.1	-34.9	22.4	0.00e+00	0	35	0	5736759296	40	6325
2026-01-06 05:08:44.66	338.73	5.33	-34.8	-35.6	21.4	0.00e+00	0	35	0	5766119424	42	6145
2026-01-06 05:08:48.69	338.81	5.05	-36.1	-37.1	19.2	0.00e+00	0	35	0	5795479552	44	6490
2026-01-06 05:08:52.73	338.90	4.76	-38.1	-39.4	16.3	0.00e+00	0	35	0	5823791104	48	6734
2026-01-06 05:08:56.77	338.98	4.48	-40.3	-42.4	12.3	7.78e-05	0	35	0	5853151232	52	7548
2026-01-06 05:09:00.81	339.07	4.21	-42.0	-45.7	8.0	4.23e-02	0	35	0	5882511360	56	8732
2026-01-06 05:09:04.84	339.15	3.93	-42.9	-48.8	4.4	7.89e-01	0	35	0	5902434304	58	11135
2026-01-06 05:09:08.88	339.23	3.66	-43.3	-52.8	3.7	8.45e-01	0	35	104	5902434304	58	17778
2026-01-06 05:09:12.92	339.31	3.39	-43.4	-54.1	3.6	8.44e-01	0	35	104	5902434304	58	20582
2026-01-06 05:09:16.96	339.39	3.12	-43.5	-54.7	3.6	8.46e-01	0	35	104	5902434304	58	22095
2026-01-06 05:09:21.00	339.47	2.86	-48.2	-59.5	3.6	8.45e-01	0	35	104	5902434304	60	33984
2026-01-06 05:09:25.05	339.54	2.60	-48.7	-59.9	3.6	8.46e-01	0	35	104	5902434304	60	35699
2026-01-06 05:09:29.09	339.62	2.34	-48.2	-59.9	3.6	8.44e-01	0	35	104	5902434304	60	35934
2026-01-06 05:09:33.13	339.69	2.08	-48.5	-59.9	3.6	8.46e-01	0	35	104	5902434304	60	35536
2026-01-06 05:09:37.16	339.77	1.82	-48.7	-59.9	3.6	8.44e-01	0	35	104	5902434304	60	35860
2026-01-06 05:09:41.20	339.84	1.57	-48.7	-59.9	3.6	8.45e-01	0	35	104	5902434304	60	35780
2026-01-06 05:09:45.24	339.91	1.32	-48.7	-59.9	3.6	8.45e-01	0	35	104	5902434304	60	35685
2026-01-06 05:09:49.28	339.98	1.07	-48.6	-59.9	3.6	8.45e-01	0	35	104	5902434304	60	35761
2026-01-06 05:09:53.32	340.05	0.83	-48.6	-59.9	3.6	8.44e-01	0	35	104	5902434304	60	35676
2026-01-06 05:09:57.36	340.12	0.58	-48.6	-59.9	3.6	8.44e-01	0	35	104	5902434304	60	35612
2026-01-06 05:10:01.40	340.19	0.34	-48.6	-59.9	3.6	8.45e-01	0	35	104	5902434304	60	35712
2026-01-06 05:10:05.44	340.26	0.10	-48.6	-59.8	3.6	8.46e-01	0	35	104	5902434304	60	35523

#Closed at: 2026-01-06 05:10:08
#Recorded file [5902 MB]: D:/lorett/data/35029_260106_165436.dat