passes_logs/2026/01/06/R4.6S_Anadyr/R4.6S_Anadyr__20260106_141257_SUOMI_NPP_rec.log

#Pass ID: 20260106_141257_SUOMI NPP
#Satellite: SUOMI NPP
#Configuration: NPP
#almurnet v.1.7.20251203
#Start time: 2026-01-06 14:12:58

#Version: 2.2.20231116
#Station: R4.6S_Anadyr
#Location: 177.4865 lon 64.73178 lat
#TLE: 1 37849U 11061A   26004.95404768  .00000136  00000+0  85334-4 0  9991
#TLE: 2 37849  98.7801 307.0898 0002575  80.6707 279.4760 14.19522289735281

#Time	Az	El	Level	Level2	SNR	BER	BlckErr	Temp	State	Recorded	gain1	gain2
2026-01-06 14:12:58.45	19.57	0.06	-48.8	-61.4	3.4	1.52e+00	0	33	0	0	60	41106
2026-01-06 14:13:02.48	19.66	0.30	-48.8	-64.0	3.6	1.51e+00	0	35	104	0	60	57366
2026-01-06 14:13:06.52	19.75	0.54	-48.9	-64.0	3.6	1.51e+00	0	35	104	0	60	57491
2026-01-06 14:13:10.56	19.84	0.79	-48.5	-63.7	3.6	1.51e+00	0	35	104	0	60	55041
2026-01-06 14:13:14.61	19.93	1.03	-47.5	-62.6	3.6	1.51e+00	0	35	104	0	60	48994
2026-01-06 14:13:18.64	20.02	1.28	-47.4	-62.5	3.6	1.51e+00	0	35	104	0	60	47996
2026-01-06 14:13:22.68	20.11	1.52	-47.4	-62.5	3.6	1.51e+00	0	35	104	0	60	48322
2026-01-06 14:13:26.72	20.21	1.78	-47.4	-62.5	3.6	1.51e+00	0	35	104	0	60	48204
2026-01-06 14:13:30.77	20.30	2.03	-47.4	-62.5	3.6	1.51e+00	0	35	104	0	60	48398
2026-01-06 14:13:34.81	20.40	2.28	-47.3	-60.9	3.6	1.51e+00	0	35	104	0	60	40037
2026-01-06 14:13:38.85	20.50	2.54	-47.3	-60.3	3.6	1.50e+00	0	35	104	0	60	37508
2026-01-06 14:13:42.88	20.60	2.80	-46.1	-51.6	9.4	7.27e-02	0	35	0	3145728	60	13710
2026-01-06 14:13:46.92	20.70	3.06	-43.3	-45.8	15.7	0.00e+00	50	35	0	11534336	60	7042
2026-01-06 14:13:50.96	20.80	3.33	-42.8	-45.1	16.2	0.00e+00	0	35	0	18874368	58	7278
2026-01-06 14:13:54.99	20.91	3.59	-45.6	-50.3	10.9	3.61e-04	0	35	0	26214400	60	11775
2026-01-06 14:13:59.03	21.01	3.86	-47.5	-62.5	3.6	2.53e-01	0	35	104	33554432	60	48283
2026-01-06 14:14:03.07	21.12	4.14	-45.1	-49.0	12.7	3.97e-04	90	35	0	34603008	60	10150
2026-01-06 14:14:07.10	21.23	4.41	-44.6	-47.8	14.0	7.00e-07	0	35	0	41943040	60	8847
2026-01-06 14:14:11.14	21.34	4.69	-42.8	-44.9	16.8	0.00e+00	0	35	0	49283072	60	6353
2026-01-06 14:14:15.18	21.46	4.97	-41.1	-42.7	19.0	0.00e+00	0	35	0	56623104	56	6178
2026-01-06 14:14:19.21	21.57	5.25	-40.5	-41.9	19.7	0.00e+00	59	35	0	65011712	54	6347
2026-01-06 14:14:23.25	21.69	5.54	-40.2	-41.5	20.1	0.00e+00	0	35	0	72351744	54	6097
2026-01-06 14:14:27.29	21.80	5.83	-40.3	-41.6	19.9	0.00e+00	0	35	0	79691776	54	6168
2026-01-06 14:14:31.32	21.93	6.12	-40.2	-41.5	20.1	0.00e+00	13	35	0	87031808	54	6069
2026-01-06 14:14:35.36	22.05	6.41	-40.2	-41.5	20.2	0.00e+00	67	35	0	94371840	54	6093
2026-01-06 14:14:39.40	22.17	6.71	-39.8	-41.0	20.7	0.00e+00	0	35	0	102760448	52	6428
2026-01-06 14:14:43.44	22.30	7.02	-39.4	-40.6	20.9	0.00e+00	0	35	0	110100480	52	6150
2026-01-06 14:14:47.47	22.43	7.32	-39.1	-40.3	21.3	0.00e+00	44	35	0	117440512	52	5916
2026-01-06 14:14:51.51	22.56	7.63	-39.0	-40.1	21.5	0.00e+00	0	35	0	124780544	52	5821
2026-01-06 14:14:55.54	22.69	7.94	-38.9	-40.0	21.6	0.00e+00	0	35	0	133169152	52	5728
2026-01-06 14:14:59.58	22.83	8.26	-38.7	-39.8	21.8	0.00e+00	0	35	0	140509184	52	5603
2026-01-06 14:15:03.62	22.97	8.58	-38.6	-39.7	21.9	0.00e+00	75	35	0	147849216	50	6216
2026-01-06 14:15:07.66	23.11	8.91	-38.5	-39.6	22.0	0.00e+00	0	35	0	155189248	50	6134
2026-01-06 14:15:11.69	23.26	9.24	-38.5	-39.5	22.1	0.00e+00	0	35	0	162529280	50	6090
2026-01-06 14:15:15.73	23.40	9.57	-38.4	-39.4	22.2	0.00e+00	0	35	0	170917888	50	6028
2026-01-06 14:15:19.77	23.55	9.91	-38.3	-39.3	22.2	0.00e+00	90	36	0	178257920	50	5938
2026-01-06 14:15:23.81	23.71	10.25	-38.4	-39.4	22.1	0.00e+00	0	35	0	185597952	50	6012
2026-01-06 14:15:27.85	23.87	10.60	-38.1	-39.1	22.4	0.00e+00	0	35	0	192937984	50	5768
2026-01-06 14:15:31.88	24.03	10.95	-38.1	-39.0	22.6	0.00e+00	54	35	0	201326592	50	5761
2026-01-06 14:15:35.92	24.19	11.31	-37.8	-38.7	22.6	0.00e+00	0	35	0	208666624	48	6222
2026-01-06 14:15:39.96	24.36	11.67	-37.8	-38.8	22.8	0.00e+00	0	35	0	216006656	48	6259
2026-01-06 14:15:43.99	24.53	12.04	-37.7	-38.6	22.9	0.00e+00	0	36	0	223346688	48	6170
2026-01-06 14:15:48.03	24.70	12.41	-37.8	-38.7	22.9	0.00e+00	53	36	0	230686720	48	6237
2026-01-06 14:15:52.07	24.88	12.79	-37.9	-38.8	22.8	0.00e+00	0	36	0	239075328	48	6294
2026-01-06 14:15:56.11	25.07	13.17	-37.6	-38.5	23.0	0.00e+00	0	35	0	246415360	48	6073
2026-01-06 14:16:00.14	25.25	13.56	-37.7	-38.7	22.9	0.00e+00	0	36	0	253755392	48	6199
2026-01-06 14:16:04.18	25.44	13.96	-37.5	-38.4	23.1	0.00e+00	74	36	0	261095424	48	6033
2026-01-06 14:16:08.22	25.64	14.36	-37.7	-38.7	22.9	0.00e+00	0	36	0	269484032	48	6179
2026-01-06 14:16:12.25	25.84	14.77	-37.9	-38.9	22.8	0.00e+00	0	36	0	276824064	48	6340
2026-01-06 14:16:16.29	26.05	15.19	-38.0	-38.9	22.7	0.00e+00	0	36	0	284164096	48	6383
2026-01-06 14:16:20.33	26.26	15.61	-38.1	-39.1	22.7	0.00e+00	92	36	0	291504128	48	6520
2026-01-06 14:16:24.37	26.48	16.04	-38.0	-38.9	22.8	0.00e+00	0	36	0	298844160	48	6390
2026-01-06 14:16:28.41	26.71	16.48	-37.9	-38.8	22.9	0.00e+00	0	36	0	307232768	48	6308
2026-01-06 14:16:32.45	26.94	16.93	-37.8	-38.8	23.1	0.00e+00	55	36	0	314572800	48	6275
2026-01-06 14:16:36.48	27.17	17.38	-38.1	-39.0	22.7	0.00e+00	0	36	0	321912832	48	6464
2026-01-06 14:16:40.52	27.42	17.84	-38.2	-39.1	22.7	0.00e+00	0	36	0	329252864	48	6536
2026-01-06 14:16:44.56	27.67	18.31	-37.9	-38.8	22.9	0.00e+00	0	36	0	336592896	48	6295
2026-01-06 14:16:48.60	27.92	18.79	-37.7	-38.6	23.1	0.00e+00	81	36	0	344981504	48	6118
2026-01-06 14:16:52.64	28.19	19.27	-37.6	-38.6	23.2	0.00e+00	0	36	0	352321536	48	6118
2026-01-06 14:16:56.67	28.46	19.77	-37.3	-38.2	23.5	0.00e+00	0	36	0	359661568	48	5864
2026-01-06 14:17:00.71	28.74	20.28	-36.9	-37.7	23.9	0.00e+00	0	36	0	367001600	48	5530
2026-01-06 14:17:04.75	29.03	20.79	-36.0	-36.8	24.5	0.00e+00	55	36	0	375390208	46	5614
2026-01-06 14:17:08.79	29.34	21.32	-35.8	-36.6	24.6	0.00e+00	0	36	0	382730240	46	5469
2026-01-06 14:17:12.83	29.65	21.85	-35.6	-36.3	24.8	0.00e+00	0	36	0	390070272	44	5944
2026-01-06 14:17:16.86	29.97	22.40	-35.6	-36.4	24.8	0.00e+00	27	36	0	397410304	44	6006
2026-01-06 14:17:20.90	30.30	22.96	-35.8	-36.6	24.7	0.00e+00	0	36	0	404750336	44	6136
2026-01-06 14:17:24.94	30.64	23.53	-35.8	-36.6	24.5	0.00e+00	0	36	0	413138944	44	6169
2026-01-06 14:17:28.98	31.00	24.11	-35.7	-36.5	24.8	0.00e+00	0	36	0	420478976	44	6041
2026-01-06 14:17:33.02	31.36	24.70	-35.7	-36.5	24.8	0.00e+00	92	36	0	427819008	44	6045
2026-01-06 14:17:37.05	31.74	25.31	-35.7	-36.5	24.8	0.00e+00	0	36	0	435159040	44	6061
2026-01-06 14:17:41.09	32.14	25.93	-35.5	-36.3	24.9	0.00e+00	0	36	0	443547648	44	5902
2026-01-06 14:17:45.13	32.55	26.56	-35.5	-36.3	24.9	0.00e+00	0	36	0	450887680	44	5904
2026-01-06 14:17:49.16	32.98	27.21	-35.6	-36.4	24.8	0.00e+00	92	36	0	458227712	44	5997
2026-01-06 14:17:53.20	33.42	27.87	-35.5	-36.2	24.8	0.00e+00	0	36	0	465567744	44	5878
2026-01-06 14:17:57.23	33.88	28.54	-36.3	-37.1	24.4	0.00e+00	33	36	0	472907776	44	6500
2026-01-06 14:18:01.27	34.37	29.23	-37.2	-38.1	23.6	0.00e+00	57	36	0	481296384	46	6508
2026-01-06 14:18:05.31	34.87	29.93	-37.8	-38.8	23.2	0.00e+00	92	36	0	488636416	48	6257
2026-01-06 14:18:09.34	35.39	30.65	-39.1	-40.1	22.0	0.00e+00	0	36	0	495976448	50	6517
2026-01-06 14:18:13.37	35.94	31.39	-39.9	-41.0	21.2	0.00e+00	0	36	0	503316480	52	6446
2026-01-06 14:18:17.41	36.51	32.14	-40.0	-41.2	21.1	0.00e+00	60	36	0	510656512	52	6596
2026-01-06 14:18:21.45	37.11	32.91	-39.7	-40.9	21.6	0.00e+00	0	36	0	519045120	52	6336
2026-01-06 14:18:25.48	37.74	33.69	-39.2	-40.3	21.8	0.00e+00	0	36	0	526385152	52	5945
2026-01-06 14:18:29.52	38.39	34.49	-39.3	-40.4	21.5	0.00e+00	0	36	0	533725184	50	6710
2026-01-06 14:18:33.56	39.08	35.31	-39.6	-40.8	21.4	0.00e+00	51	36	0	541065216	52	6269
2026-01-06 14:18:37.59	39.81	36.14	-39.4	-40.5	21.8	0.00e+00	0	36	0	549453824	52	6078
2026-01-06 14:18:41.64	40.57	37.00	-38.6	-39.6	22.5	0.00e+00	0	36	0	556793856	50	6166
2026-01-06 14:18:45.67	41.38	37.87	-39.0	-40.1	22.0	0.00e+00	25	36	0	564133888	50	6488
2026-01-06 14:18:49.71	42.22	38.75	-38.6	-39.6	22.5	0.00e+00	92	36	0	571473920	50	6143
2026-01-06 14:18:53.75	43.12	39.65	-38.1	-39.0	22.9	0.00e+00	0	36	0	578813952	50	5730
2026-01-06 14:18:57.79	44.06	40.57	-37.5	-38.4	23.4	0.00e+00	0	36	0	587202560	48	6023
2026-01-06 14:19:01.82	45.06	41.50	-38.1	-39.0	22.9	0.00e+00	58	36	0	594542592	48	6463
2026-01-06 14:19:05.85	46.11	42.45	-37.5	-38.4	23.3	0.00e+00	0	36	0	601882624	48	6013
2026-01-06 14:19:09.89	47.23	43.41	-39.2	-40.3	21.9	0.00e+00	0	36	0	609222656	50	6682
2026-01-06 14:19:13.93	48.42	44.38	-38.6	-39.6	22.4	0.00e+00	0	36	0	617611264	50	6144
2026-01-06 14:19:17.96	49.68	45.37	-38.8	-39.9	22.2	0.00e+00	61	36	0	624951296	50	6341
2026-01-06 14:19:22.00	51.03	46.36	-38.4	-39.4	22.6	0.00e+00	0	36	0	632291328	50	6026
2026-01-06 14:19:26.04	52.46	47.36	-38.5	-39.6	22.4	0.00e+00	0	36	0	639631360	50	6118
2026-01-06 14:19:30.07	53.98	48.36	-39.2	-40.3	21.9	0.00e+00	0	36	0	646971392	50	6669
2026-01-06 14:19:34.11	55.61	49.36	-39.5	-40.7	21.8	0.00e+00	92	36	0	655360000	52	6199
2026-01-06 14:19:38.14	57.34	50.36	-38.8	-39.8	22.3	0.00e+00	0	36	0	662700032	50	6306
2026-01-06 14:19:42.18	59.19	51.35	-40.7	-42.2	20.1	0.00e+00	0	36	0	670040064	54	6571
2026-01-06 14:19:46.22	61.17	52.33	-38.9	-40.0	22.1	0.00e+00	0	36	0	677380096	52	5712
2026-01-06 14:19:50.26	63.28	53.29	-39.9	-41.2	21.2	0.00e+00	92	36	0	684720128	52	6574
2026-01-06 14:19:54.30	65.53	54.23	-38.1	-39.1	22.7	0.00e+00	0	36	0	693108736	50	5782
2026-01-06 14:19:58.34	67.93	55.14	-37.5	-38.5	23.2	0.00e+00	0	36	0	700448768	48	6059
2026-01-06 14:20:02.38	70.49	56.02	-39.3	-40.5	21.6	0.00e+00	60	36	0	707788800	50	6800
2026-01-06 14:20:06.41	73.19	56.84	-37.0	-37.8	23.7	0.00e+00	0	36	0	715128832	48	5613
2026-01-06 14:20:10.45	76.07	57.62	-37.1	-38.0	23.7	0.00e+00	0	36	0	723517440	46	6435
2026-01-06 14:20:14.48	79.10	58.33	-38.0	-39.0	22.9	0.00e+00	0	36	0	730857472	48	6430
2026-01-06 14:20:18.52	82.30	58.98	-36.7	-37.5	24.1	0.00e+00	51	36	0	738197504	46	6081
2026-01-06 14:20:22.56	85.65	59.54	-37.1	-38.0	23.9	0.00e+00	0	36	0	745537536	46	6412
2026-01-06 14:20:26.59	89.13	60.02	-38.2	-39.2	22.9	0.00e+00	0	36	0	752877568	50	5849
2026-01-06 14:20:30.63	92.73	60.40	-38.5	-39.5	22.5	0.00e+00	0	36	0	761266176	48	6838
2026-01-06 14:20:34.67	96.43	60.69	-37.1	-38.0	23.6	0.00e+00	92	36	0	768606208	48	5752
2026-01-06 14:20:38.70	100.19	60.87	-38.2	-39.1	23.0	0.00e+00	0	36	0	775946240	50	5788
2026-01-06 14:20:42.74	103.99	60.94	-36.6	-37.5	24.1	0.00e+00	0	36	0	783286272	46	6080
2026-01-06 14:20:46.77	107.79	60.90	-37.0	-37.9	23.7	0.00e+00	58	36	0	791674880	46	6319
2026-01-06 14:20:50.81	111.57	60.75	-36.8	-37.7	23.0	0.00e+00	92	36	0	799014912	46	6177
2026-01-06 14:20:54.85	115.30	60.49	-36.9	-37.8	23.7	0.00e+00	0	36	0	806354944	46	6297
2026-01-06 14:20:58.88	118.92	60.13	-39.8	-41.0	21.3	0.00e+00	0	36	0	813694976	52	6424
2026-01-06 14:21:02.92	122.44	59.68	-39.4	-40.4	21.8	0.00e+00	57	36	0	821035008	52	6020
2026-01-06 14:21:06.96	125.83	59.14	-38.9	-39.9	22.1	0.00e+00	0	36	0	829423616	52	5680
2026-01-06 14:21:10.99	129.07	58.51	-40.0	-41.3	21.1	0.00e+00	0	36	0	836763648	50	7431
2026-01-06 14:21:15.03	132.16	57.82	-37.3	-38.2	23.5	0.00e+00	0	36	0	844103680	48	5840
2026-01-06 14:21:19.07	135.08	57.06	-35.4	-36.2	25.0	0.00e+00	59	36	0	851443712	44	5835
2026-01-06 14:21:23.10	137.84	56.24	-37.0	-37.9	23.8	0.00e+00	0	36	0	859832320	46	6329
2026-01-06 14:21:27.14	140.44	55.38	-34.6	-35.4	25.6	0.00e+00	0	36	0	867172352	42	5975
2026-01-06 14:21:31.18	142.89	54.47	-33.2	-33.9	26.2	0.00e+00	0	36	0	874512384	40	5640
2026-01-06 14:21:35.21	145.18	53.54	-34.3	-35.0	25.7	0.00e+00	92	36	0	881852416	40	6431
2026-01-06 14:21:39.25	147.33	52.58	-34.1	-34.9	25.4	0.00e+00	0	36	0	889192448	42	5652
2026-01-06 14:21:43.29	149.34	51.60	-34.5	-35.2	25.6	0.00e+00	0	36	0	897581056	42	5870
2026-01-06 14:21:47.32	151.23	50.61	-35.9	-36.7	24.8	0.00e+00	21	36	0	904921088	44	6206
2026-01-06 14:21:51.36	152.99	49.61	-36.1	-36.9	24.4	0.00e+00	0	36	0	912261120	44	6339
2026-01-06 14:21:55.39	154.65	48.60	-39.7	-40.9	21.4	0.00e+00	0	36	0	919601152	52	6328
2026-01-06 14:21:59.43	156.20	47.60	-41.6	-43.4	19.1	0.00e+00	0	36	0	926941184	54	7516
2026-01-06 14:22:03.47	157.66	46.59	-38.4	-39.4	22.6	0.00e+00	92	36	0	935329792	50	5990
2026-01-06 14:22:07.50	159.02	45.60	-41.3	-42.8	19.9	0.00e+00	0	36	0	942669824	56	6281
2026-01-06 14:22:11.54	160.31	44.61	-40.3	-41.6	20.7	0.00e+00	0	36	0	950009856	52	6926
2026-01-06 14:22:15.58	161.52	43.63	-36.2	-37.0	24.5	0.00e+00	0	36	0	957349888	46	5728
2026-01-06 14:22:19.62	162.66	42.66	-38.7	-39.8	22.3	0.00e+00	90	36	0	965738496	50	6260
2026-01-06 14:22:23.65	163.74	41.71	-35.5	-36.2	24.9	0.00e+00	0	36	0	973078528	44	5888
2026-01-06 14:22:27.69	164.75	40.77	-40.6	-42.1	20.6	0.00e+00	33	36	0	980418560	54	6496
2026-01-06 14:22:31.73	165.71	39.84	-35.6	-36.4	24.7	0.00e+00	15	36	0	987758592	44	5967
2026-01-06 14:22:35.76	166.62	38.93	-37.6	-38.6	23.6	0.00e+00	60	36	0	995098624	48	6144
2026-01-06 14:22:39.80	167.47	38.04	-34.9	-35.7	25.1	0.00e+00	0	36	0	1003487232	42	6191
2026-01-06 14:22:43.83	168.29	37.16	-38.2	-39.1	22.8	0.00e+00	0	36	0	1010827264	48	6509
2026-01-06 14:22:47.87	169.06	36.30	-38.5	-39.6	22.5	0.00e+00	17	36	0	1018167296	50	6116
2026-01-06 14:22:51.91	169.80	35.46	-38.8	-39.8	22.5	0.00e+00	0	36	0	1025507328	50	6307
2026-01-06 14:22:55.95	170.50	34.63	-38.4	-39.4	22.6	0.00e+00	0	36	0	1033895936	50	5983
2026-01-06 14:22:59.99	171.16	33.82	-38.0	-38.9	22.9	0.00e+00	0	36	0	1041235968	48	6390
2026-01-06 14:23:04.02	171.80	33.03	-37.9	-38.8	23.0	0.00e+00	81	36	0	1048576000	48	6271
2026-01-06 14:23:08.06	172.40	32.26	-37.5	-38.4	23.4	0.00e+00	0	36	0	1055916032	48	6009
2026-01-06 14:23:12.10	172.98	31.50	-37.4	-38.2	23.5	0.00e+00	0	36	0	1063256064	48	5875
2026-01-06 14:23:16.14	173.54	30.75	-39.3	-40.4	21.9	0.00e+00	0	36	0	1071644672	50	6704
2026-01-06 14:23:20.17	174.06	30.03	-39.3	-40.5	21.7	0.00e+00	92	36	0	1078984704	52	6037
2026-01-06 14:23:24.21	174.57	29.32	-37.8	-38.7	23.1	0.00e+00	33	36	0	1086324736	50	5557
2026-01-06 14:23:28.25	175.06	28.62	-38.6	-39.6	22.4	0.00e+00	0	36	0	1093664768	50	6155
2026-01-06 14:23:32.28	175.52	27.94	-38.4	-39.4	22.6	0.00e+00	22	36	0	1102053376	50	5975
2026-01-06 14:23:36.32	175.97	27.28	-37.5	-38.4	23.3	0.00e+00	6	36	0	1109393408	48	6001
2026-01-06 14:23:40.35	176.40	26.62	-37.3	-38.2	23.6	0.00e+00	0	36	0	1116733440	48	5836
2026-01-06 14:23:44.39	176.81	25.99	-37.0	-37.8	23.6	0.00e+00	0	36	0	1124073472	46	6307
2026-01-06 14:23:48.43	177.21	25.36	-37.6	-38.6	23.2	0.00e+00	52	36	0	1131413504	46	6866
2026-01-06 14:23:52.46	177.60	24.75	-37.5	-38.5	23.1	0.00e+00	0	36	0	1139802112	48	6073
2026-01-06 14:23:56.50	177.97	24.15	-37.5	-38.4	23.3	0.00e+00	0	36	0	1147142144	48	6023
2026-01-06 14:24:00.54	178.32	23.56	-36.6	-37.4	23.9	0.00e+00	0	36	0	1154482176	46	6007
2026-01-06 14:24:04.58	178.67	22.99	-34.9	-35.6	25.2	0.00e+00	92	36	0	1161822208	44	5493
2026-01-06 14:24:08.61	179.00	22.43	-34.7	-35.4	25.6	0.00e+00	0	36	0	1169162240	42	5995
2026-01-06 14:24:12.65	179.32	21.87	-35.3	-36.1	25.0	0.00e+00	0	36	0	1177550848	42	6497
2026-01-06 14:24:16.69	179.63	21.33	-36.0	-36.8	24.5	0.00e+00	50	36	0	1184890880	44	6260
2026-01-06 14:24:20.72	179.93	20.80	-35.7	-36.5	24.7	0.00e+00	86	36	0	1192230912	44	6076
2026-01-06 14:24:24.76	180.23	20.28	-35.2	-36.0	25.1	0.00e+00	0	36	0	1199570944	44	5718
2026-01-06 14:24:28.79	180.51	19.77	-35.0	-35.8	25.2	0.00e+00	0	36	0	1207959552	44	5575
2026-01-06 14:24:32.83	180.78	19.27	-35.4	-36.1	24.9	0.00e+00	50	36	0	1215299584	44	5828
2026-01-06 14:24:36.86	181.05	18.78	-35.7	-36.5	24.7	0.00e+00	0	36	0	1222639616	44	6044
2026-01-06 14:24:40.90	181.30	18.30	-36.5	-37.3	24.0	0.00e+00	0	36	0	1229979648	44	6656
2026-01-06 14:24:44.94	181.55	17.83	-37.0	-37.8	23.6	0.00e+00	0	36	0	1237319680	46	6312
2026-01-06 14:24:48.97	181.80	17.36	-36.9	-37.8	23.8	0.00e+00	92	36	0	1245708288	46	6280
2026-01-06 14:24:53.01	182.03	16.91	-36.7	-37.5	23.9	0.00e+00	0	36	0	1253048320	46	6095
2026-01-06 14:24:57.05	182.26	16.46	-36.3	-37.1	24.3	0.00e+00	0	36	0	1260388352	46	5787
2026-01-06 14:25:01.08	182.49	16.02	-36.1	-36.9	24.4	0.00e+00	0	36	0	1267728384	46	5638
2026-01-06 14:25:05.12	182.70	15.58	-36.1	-36.9	24.2	0.00e+00	91	36	0	1276116992	46	5684
2026-01-06 14:25:09.16	182.92	15.16	-36.5	-37.4	24.0	0.00e+00	0	36	0	1283457024	46	5980
2026-01-06 14:25:13.20	183.12	14.74	-36.7	-37.6	23.8	0.00e+00	0	36	0	1290797056	46	6116
2026-01-06 14:25:17.23	183.32	14.33	-37.0	-37.8	23.6	0.00e+00	47	36	0	1298137088	46	6298
2026-01-06 14:25:21.27	183.52	13.92	-37.1	-38.0	23.3	0.00e+00	92	36	0	1305477120	46	6411
2026-01-06 14:25:25.31	183.71	13.52	-37.4	-38.3	23.2	0.00e+00	0	36	0	1313865728	46	6684
2026-01-06 14:25:29.34	183.89	13.13	-37.6	-38.5	23.1	0.00e+00	0	36	0	1321205760	46	6833
2026-01-06 14:25:33.38	184.08	12.74	-37.7	-38.6	22.9	0.00e+00	63	36	0	1328545792	48	6166
2026-01-06 14:25:37.42	184.25	12.36	-38.0	-38.9	22.6	0.00e+00	0	36	0	1335885824	48	6382
2026-01-06 14:25:41.46	184.43	11.99	-37.8	-38.8	22.6	7.00e-07	0	36	0	1343225856	48	6267
2026-01-06 14:25:45.49	184.60	11.62	-38.0	-38.9	22.4	0.00e+00	0	36	0	1351614464	48	6384
2026-01-06 14:25:49.52	184.76	11.25	-37.9	-38.9	22.7	0.00e+00	75	36	0	1358954496	48	6333
2026-01-06 14:25:53.56	184.92	10.89	-37.8	-38.7	22.7	0.00e+00	0	36	0	1366294528	48	6231
2026-01-06 14:25:57.59	185.08	10.54	-37.7	-38.7	22.8	0.00e+00	0	36	0	1373634560	48	6188
2026-01-06 14:26:01.62	185.24	10.19	-38.2	-39.2	22.4	0.00e+00	0	36	0	1382023168	48	6585
2026-01-06 14:26:05.66	185.39	9.84	-38.1	-39.1	22.5	0.00e+00	43	36	0	1389363200	48	6487
2026-01-06 14:26:09.69	185.54	9.50	-38.0	-39.0	22.5	0.00e+00	0	36	0	1396703232	48	6436
2026-01-06 14:26:13.73	185.68	9.17	-38.1	-39.1	22.4	0.00e+00	0	36	0	1404043264	48	6523
2026-01-06 14:26:17.77	185.82	8.84	-38.2	-39.2	22.4	0.00e+00	45	36	0	1411383296	48	6571
2026-01-06 14:26:21.81	185.96	8.51	-38.0	-39.1	22.4	0.00e+00	63	36	0	1419771904	48	6468
2026-01-06 14:26:25.84	186.10	8.19	-38.2	-39.2	22.3	0.00e+00	0	36	0	1427111936	48	6579
2026-01-06 14:26:29.88	186.23	7.87	-38.1	-39.1	22.3	0.00e+00	0	36	0	1434451968	48	6510
2026-01-06 14:26:33.91	186.37	7.55	-38.3	-39.3	22.1	0.00e+00	68	36	0	1441792000	48	6672
2026-01-06 14:26:37.96	186.49	7.24	-38.3	-39.3	22.2	0.00e+00	0	36	0	1449132032	48	6655
2026-01-06 14:26:41.99	186.62	6.93	-38.5	-39.6	21.8	0.00e+00	0	36	0	1457520640	48	6852
2026-01-06 14:26:46.02	186.74	6.63	-38.3	-39.3	22.0	0.00e+00	0	36	0	1464860672	48	6661
2026-01-06 14:26:50.06	186.87	6.33	-38.4	-39.4	22.0	7.00e-07	92	36	0	1472200704	48	6755
2026-01-06 14:26:54.09	186.99	6.03	-38.5	-39.5	21.8	0.00e+00	0	36	0	1479540736	48	6839
2026-01-06 14:26:58.13	187.10	5.74	-38.6	-39.7	21.7	0.00e+00	0	36	0	1487929344	48	6955
2026-01-06 14:27:02.16	187.22	5.45	-38.5	-39.6	21.7	0.00e+00	9	36	0	1495269376	50	6158
2026-01-06 14:27:06.20	187.33	5.16	-39.1	-40.2	21.1	0.00e+00	92	36	0	1502609408	50	6611
2026-01-06 14:27:10.24	187.44	4.87	-38.6	-39.7	21.5	0.00e+00	0	36	0	1509949440	50	6220
2026-01-06 14:27:14.28	187.55	4.59	-38.9	-40.0	21.3	0.00e+00	0	36	0	1517289472	50	6422
2026-01-06 14:27:18.31	187.66	4.31	-39.2	-40.3	20.9	0.00e+00	91	36	0	1525678080	50	6679
2026-01-06 14:27:22.35	187.77	4.04	-39.4	-40.6	20.6	0.00e+00	0	36	0	1533018112	50	6904
2026-01-06 14:27:26.39	187.87	3.76	-39.5	-40.7	20.6	0.00e+00	0	36	0	1540358144	52	6208
2026-01-06 14:27:30.42	187.97	3.49	-39.8	-41.1	20.1	0.00e+00	0	36	0	1547698176	52	6525
2026-01-06 14:27:34.46	188.07	3.22	-40.2	-41.6	19.6	0.00e+00	92	36	0	1556086784	52	6894
2026-01-06 14:27:38.50	188.17	2.96	-47.9	-62.9	3.6	1.51e+00	0	36	104	1561329664	60	50505
2026-01-06 14:27:42.54	188.27	2.69	-48.6	-63.8	3.6	1.51e+00	0	36	104	1561329664	60	56027
2026-01-06 14:27:46.58	188.37	2.43	-48.7	-64.0	3.6	1.51e+00	0	36	104	1561329664	60	57228
2026-01-06 14:27:50.62	188.46	2.17	-48.6	-63.9	3.6	1.51e+00	0	36	104	1561329664	60	56815
2026-01-06 14:27:54.66	188.56	1.92	-48.8	-63.9	3.6	1.51e+00	0	36	104	1561329664	60	56907
2026-01-06 14:27:58.69	188.65	1.66	-48.7	-63.9	3.6	1.51e+00	0	36	104	1561329664	60	56912
2026-01-06 14:28:02.73	188.74	1.41	-48.7	-64.0	3.6	1.51e+00	0	36	104	1561329664	60	57017
2026-01-06 14:28:06.77	188.83	1.16	-48.7	-63.9	3.6	1.51e+00	0	36	104	1561329664	60	56673
2026-01-06 14:28:10.82	188.92	0.91	-48.7	-63.9	3.6	1.51e+00	0	36	104	1561329664	60	56349
2026-01-06 14:28:14.86	189.00	0.67	-48.7	-63.9	3.6	1.51e+00	0	36	104	1561329664	60	56744
2026-01-06 14:28:18.90	189.09	0.42	-48.7	-63.9	3.6	1.51e+00	0	36	104	1561329664	60	56755
2026-01-06 14:28:22.94	189.17	0.18	-48.7	-63.9	3.6	1.51e+00	0	36	104	1561329664	60	56573
2026-01-06 14:28:26.98	189.26	-0.06	-48.7	-63.9	3.6	1.51e+00	0	36	104	1561329664	60	56373

#Closed at: 2026-01-06 14:28:27
#Recorded file [1561 MB]: D:/lorett/data/35029_260107_021258.dat