passes_logs/2026/01/06/R4.6S_Anadyr/R4.6S_Anadyr__20260106_143344_NOAA_20_JPSS-1_rec.log

#Pass ID: 20260106_143344_NOAA 20 (JPSS-1)
#Satellite: NOAA 20 (JPSS-1)
#Configuration: NOAA 20
#almurnet v.1.7.20251203
#Start time: 2026-01-06 14:33:47

#Version: 2.2.20231116
#Station: R4.6S_Anadyr
#Location: 177.4865 lon 64.73178 lat
#TLE: 1 43013U 17073A   26005.46207808  .00000128  00000+0  81791-4 0  9997
#TLE: 2 43013  98.7627 306.5027 0001826  53.0458 307.0885 14.19533487421381

#Time	Az	El	Level	Level2	SNR	BER	BlckErr	Temp	State	Recorded	gain1	gain2
2026-01-06 14:33:47.33	20.21	0.14	-48.7	-63.6	3.5	1.51e+00	0	33	0	0	60	54714
2026-01-06 14:33:51.37	20.25	0.39	-48.8	-64.0	3.6	1.51e+00	0	34	104	0	60	57040
2026-01-06 14:33:55.41	20.29	0.63	-48.7	-63.9	3.5	1.51e+00	0	35	104	0	60	56714
2026-01-06 14:33:59.45	20.33	0.88	-48.2	-63.4	3.6	1.51e+00	0	35	104	0	60	53452
2026-01-06 14:34:03.48	20.36	1.13	-47.4	-62.5	3.6	1.51e+00	0	35	104	0	60	48394
2026-01-06 14:34:07.52	20.40	1.38	-47.3	-62.4	3.6	1.51e+00	0	35	104	0	60	47758
2026-01-06 14:34:11.56	20.44	1.63	-47.3	-62.4	3.6	1.51e+00	0	35	104	0	60	47519
2026-01-06 14:34:15.60	20.48	1.88	-47.3	-62.5	3.6	1.51e+00	0	35	104	0	60	48138
2026-01-06 14:34:19.64	20.52	2.14	-47.3	-62.5	3.5	1.51e+00	0	35	104	0	60	47998
2026-01-06 14:34:23.68	20.56	2.40	-47.3	-61.2	3.6	1.51e+00	0	35	104	0	60	41496
2026-01-06 14:34:27.71	20.60	2.66	-47.2	-60.5	3.7	1.50e+00	0	35	104	0	60	38235
2026-01-06 14:34:31.75	20.64	2.93	-46.9	-55.2	5.3	6.50e-01	34	35	0	2097152	60	20850
2026-01-06 14:34:35.79	20.68	3.19	-45.1	-49.2	12.2	4.14e-04	24	35	0	9437184	60	10388
2026-01-06 14:34:39.83	20.72	3.46	-44.1	-47.1	14.3	1.50e-06	63	35	0	16777216	60	8223
2026-01-06 14:34:43.87	20.77	3.73	-45.7	-50.7	10.4	1.42e-03	91	35	0	24117248	60	12451
2026-01-06 14:34:47.91	20.81	4.01	-47.3	-61.7	3.6	3.73e-05	0	35	104	31457280	60	44152
2026-01-06 14:34:51.95	20.85	4.29	-42.2	-44.1	17.6	0.00e+00	0	35	0	31457280	58	6477
2026-01-06 14:34:55.99	20.89	4.57	-42.0	-43.8	18.2	0.00e+00	23	35	0	38797312	56	7080
2026-01-06 14:35:00.02	20.94	4.85	-40.6	-42.0	19.7	0.00e+00	90	35	0	46137344	54	6456
2026-01-06 14:35:04.06	20.98	5.14	-40.5	-41.9	19.8	0.00e+00	57	35	0	54525952	54	6328
2026-01-06 14:35:08.09	21.03	5.42	-40.5	-41.9	19.8	0.00e+00	0	35	0	61865984	54	6383
2026-01-06 14:35:12.13	21.07	5.72	-40.1	-41.4	20.4	0.00e+00	0	35	0	69206016	54	5981
2026-01-06 14:35:16.17	21.12	6.01	-40.1	-41.4	20.5	0.00e+00	89	35	0	76546048	54	6000
2026-01-06 14:35:20.21	21.16	6.31	-40.5	-41.8	20.1	0.00e+00	27	35	0	83886080	54	6316
2026-01-06 14:35:24.24	21.21	6.62	-39.8	-41.1	20.8	0.00e+00	62	35	0	92274688	54	5768
2026-01-06 14:35:28.21	21.26	6.92	-39.7	-40.8	21.1	0.00e+00	53	35	0	99614720	52	6316
2026-01-06 14:35:32.25	21.31	7.23	-39.5	-40.7	21.2	0.00e+00	92	35	0	106954752	52	6194
2026-01-06 14:35:36.29	21.36	7.54	-39.5	-40.6	21.3	0.00e+00	0	35	0	114294784	52	6162
2026-01-06 14:35:40.32	21.41	7.86	-39.3	-40.5	21.5	0.00e+00	0	35	0	121634816	52	6050
2026-01-06 14:35:44.36	21.46	8.18	-39.7	-40.8	21.3	0.00e+00	25	35	0	130023424	52	6302
2026-01-06 14:35:48.39	21.51	8.51	-39.3	-40.4	21.5	0.00e+00	92	35	0	137363456	52	6026
2026-01-06 14:35:52.43	21.56	8.84	-38.9	-40.0	22.1	0.00e+00	0	35	0	144703488	52	5716
2026-01-06 14:35:56.47	21.61	9.17	-39.0	-40.1	21.9	0.00e+00	3	35	0	152043520	52	5772
2026-01-06 14:36:00.51	21.67	9.51	-38.8	-39.9	22.1	0.00e+00	32	35	0	160432128	52	5647
2026-01-06 14:36:04.54	21.72	9.85	-38.7	-39.8	22.3	0.00e+00	91	35	0	167772160	50	6251
2026-01-06 14:36:08.58	21.77	10.20	-38.6	-39.6	22.5	0.00e+00	6	35	0	175112192	50	6132
2026-01-06 14:36:12.62	21.83	10.56	-38.7	-39.7	22.6	0.00e+00	66	36	0	182452224	50	6207
2026-01-06 14:36:16.66	21.89	10.92	-38.4	-39.4	22.6	0.00e+00	80	36	0	189792256	50	6019
2026-01-06 14:36:20.70	21.95	11.28	-38.6	-39.6	22.4	0.00e+00	60	36	0	198180864	50	6140
2026-01-06 14:36:24.74	22.00	11.65	-38.2	-39.2	22.9	0.00e+00	52	36	0	205520896	50	5847
2026-01-06 14:36:28.78	22.06	12.03	-38.2	-39.1	23.0	0.00e+00	0	36	0	212860928	50	5819
2026-01-06 14:36:32.81	22.13	12.41	-37.9	-38.9	23.2	0.00e+00	90	36	0	220200960	50	5633
2026-01-06 14:36:36.85	22.19	12.79	-37.9	-38.8	23.3	0.00e+00	0	36	0	228589568	50	5587
2026-01-06 14:36:40.89	22.25	13.19	-38.0	-38.9	23.3	0.00e+00	26	36	0	235929600	50	5654
2026-01-06 14:36:44.92	22.32	13.59	-37.7	-38.6	23.5	0.00e+00	24	36	0	243269632	48	6132
2026-01-06 14:36:48.96	22.38	13.99	-37.6	-38.5	23.5	0.00e+00	92	36	0	250609664	48	6086
2026-01-06 14:36:53.00	22.45	14.41	-37.6	-38.5	23.5	0.00e+00	0	36	0	257949696	48	6101
2026-01-06 14:36:57.04	22.52	14.83	-37.6	-38.5	23.7	0.00e+00	0	36	0	266338304	48	6041
2026-01-06 14:37:01.07	22.59	15.26	-37.6	-38.5	23.6	0.00e+00	0	36	0	273678336	48	6050
2026-01-06 14:37:05.11	22.66	15.69	-37.6	-38.5	23.6	0.00e+00	90	36	0	281018368	48	6080
2026-01-06 14:37:09.15	22.73	16.14	-37.6	-38.5	23.6	0.00e+00	58	36	0	288358400	48	6083
2026-01-06 14:37:13.19	22.81	16.59	-37.7	-38.6	23.5	0.00e+00	53	36	0	296747008	48	6162
2026-01-06 14:37:17.23	22.89	17.05	-37.7	-38.6	23.6	0.00e+00	0	36	0	304087040	48	6127
2026-01-06 14:37:21.26	22.97	17.52	-37.8	-38.7	23.5	0.00e+00	90	36	0	311427072	48	6227
2026-01-06 14:37:25.30	23.05	18.00	-38.0	-38.9	23.3	0.00e+00	0	36	0	318767104	48	6336
2026-01-06 14:37:29.34	23.13	18.49	-38.0	-39.0	23.3	0.00e+00	54	36	0	326107136	48	6391
2026-01-06 14:37:33.37	23.21	18.98	-38.1	-39.0	23.2	0.00e+00	22	36	0	334495744	48	6443
2026-01-06 14:37:37.41	23.30	19.49	-38.1	-39.0	23.2	0.00e+00	92	36	0	341835776	48	6460
2026-01-06 14:37:41.45	23.39	20.01	-38.3	-39.2	23.1	0.00e+00	0	36	0	349175808	48	6592
2026-01-06 14:37:45.48	23.48	20.54	-38.4	-39.3	22.9	0.00e+00	0	36	0	356515840	48	6661
2026-01-06 14:37:49.52	23.58	21.08	-38.4	-39.4	22.9	0.00e+00	46	36	0	363855872	48	6707
2026-01-06 14:37:53.56	23.68	21.63	-38.7	-39.7	22.8	0.00e+00	0	36	0	372244480	48	6928
2026-01-06 14:37:57.59	23.78	22.20	-38.7	-39.7	22.7	0.00e+00	7	36	0	379584512	48	6992
2026-01-06 14:38:01.63	23.88	22.78	-38.8	-39.8	22.6	0.00e+00	0	36	0	386924544	50	6253
2026-01-06 14:38:05.66	23.99	23.37	-38.7	-39.7	22.7	0.00e+00	92	36	0	394264576	50	6219
2026-01-06 14:38:09.70	24.10	23.97	-38.7	-39.7	22.7	0.00e+00	0	36	0	402653184	50	6196
2026-01-06 14:38:13.74	24.21	24.59	-38.5	-39.4	23.0	0.00e+00	31	36	0	409993216	50	6016
2026-01-06 14:38:17.78	24.33	25.23	-38.3	-39.3	23.1	0.00e+00	52	36	0	417333248	50	5908
2026-01-06 14:38:21.81	24.45	25.87	-38.3	-39.2	23.2	0.00e+00	92	36	0	424673280	50	5867
2026-01-06 14:38:25.85	24.58	26.54	-38.3	-39.2	23.2	0.00e+00	0	36	0	432013312	50	5871
2026-01-06 14:38:29.89	24.71	27.22	-38.2	-39.2	23.2	0.00e+00	0	36	0	440401920	50	5857
2026-01-06 14:38:33.92	24.85	27.92	-38.6	-39.5	22.9	0.00e+00	0	36	0	447741952	50	6094
2026-01-06 14:38:37.95	24.99	28.64	-38.9	-39.9	22.6	0.00e+00	90	36	0	455081984	50	6347
2026-01-06 14:38:41.99	25.14	29.38	-39.1	-40.2	22.3	0.00e+00	0	36	0	462422016	50	6544
2026-01-06 14:38:46.02	25.29	30.13	-39.5	-40.6	22.0	0.00e+00	51	36	0	470810624	50	6862
2026-01-06 14:38:50.06	25.45	30.91	-39.9	-41.0	21.7	0.00e+00	0	36	0	478150656	52	6417
2026-01-06 14:38:54.10	25.62	31.71	-40.0	-41.1	21.5	0.00e+00	91	36	0	485490688	52	6514
2026-01-06 14:38:58.13	25.80	32.53	-39.8	-40.9	21.7	0.00e+00	0	36	0	492830720	52	6346
2026-01-06 14:39:02.17	25.98	33.37	-39.2	-40.3	22.3	0.00e+00	33	36	0	500170752	52	5900
2026-01-06 14:39:06.21	26.17	34.24	-38.3	-39.3	23.2	0.00e+00	0	36	0	508559360	50	5903
2026-01-06 14:39:10.24	26.38	35.13	-37.7	-38.6	23.8	0.00e+00	92	36	0	515899392	48	6112
2026-01-06 14:39:14.28	26.59	36.05	-37.6	-38.4	23.9	0.00e+00	0	36	0	523239424	48	6015
2026-01-06 14:39:18.32	26.82	36.99	-37.3	-38.1	24.1	0.00e+00	32	36	0	530579456	48	5816
2026-01-06 14:39:22.35	27.05	37.96	-37.1	-37.9	24.3	0.00e+00	0	36	0	538968064	48	5652
2026-01-06 14:39:26.39	27.31	38.96	-37.7	-38.6	23.7	0.00e+00	92	36	0	546308096	48	6130
2026-01-06 14:39:30.43	27.57	39.99	-38.4	-39.3	23.2	0.00e+00	5	36	0	553648128	48	6660
2026-01-06 14:39:34.46	27.85	41.05	-38.8	-39.8	22.7	0.00e+00	7	36	0	560988160	50	6279
2026-01-06 14:39:38.50	28.16	42.14	-38.8	-39.8	22.7	0.00e+00	65	36	0	568328192	50	6269
2026-01-06 14:39:42.54	28.48	43.27	-37.9	-38.8	23.7	0.00e+00	92	36	0	576716800	50	5625
2026-01-06 14:39:46.58	28.82	44.42	-38.3	-39.2	23.2	0.00e+00	52	36	0	584056832	50	5851
2026-01-06 14:39:50.61	29.19	45.61	-39.8	-40.9	21.7	0.00e+00	7	36	0	591396864	50	7118
2026-01-06 14:39:54.65	29.59	46.84	-40.1	-41.2	21.5	0.00e+00	92	36	0	598736896	52	6591
2026-01-06 14:39:58.68	30.02	48.10	-39.4	-40.4	22.1	0.00e+00	33	36	0	607125504	52	5997
2026-01-06 14:40:02.71	30.48	49.39	-38.8	-39.7	23.0	0.00e+00	33	36	0	614465536	52	5561
2026-01-06 14:40:06.74	30.99	50.72	-37.2	-38.1	24.4	0.00e+00	54	36	0	621805568	48	5766
2026-01-06 14:40:10.78	31.54	52.10	-35.0	-35.7	26.0	0.00e+00	90	36	0	629145600	44	5562
2026-01-06 14:40:14.82	32.14	53.51	-34.2	-34.9	26.8	0.00e+00	54	36	0	636485632	42	5662
2026-01-06 14:40:18.85	32.80	54.95	-34.5	-35.2	26.7	0.00e+00	2	36	0	644874240	42	5832
2026-01-06 14:40:22.89	33.54	56.43	-35.3	-36.0	25.9	0.00e+00	32	36	0	652214272	42	6461
2026-01-06 14:40:26.93	34.36	57.95	-36.1	-36.9	25.2	0.00e+00	92	36	0	659554304	44	6347
2026-01-06 14:40:30.97	35.27	59.51	-35.9	-36.6	25.3	0.00e+00	48	36	0	666894336	44	6149
2026-01-06 14:40:35.01	36.30	61.09	-34.8	-35.5	26.3	0.00e+00	0	36	0	674234368	44	5415
2026-01-06 14:40:39.04	37.47	62.71	-35.2	-35.9	26.0	0.00e+00	2	36	0	682622976	42	6373
2026-01-06 14:40:43.08	38.80	64.35	-36.6	-37.4	24.8	0.00e+00	92	36	0	689963008	44	6733
2026-01-06 14:40:47.11	40.34	66.01	-37.6	-38.5	23.4	0.00e+00	0	36	0	697303040	46	6807
2026-01-06 14:40:51.15	42.13	67.70	-38.7	-39.7	22.8	0.00e+00	0	36	0	704643072	50	6183
2026-01-06 14:40:55.19	44.25	69.39	-37.6	-38.5	23.5	0.00e+00	0	36	0	713031680	48	6044
2026-01-06 14:40:59.23	46.77	71.09	-37.8	-38.7	23.8	0.00e+00	53	36	0	720371712	48	6177
2026-01-06 14:41:03.27	49.82	72.77	-38.5	-39.5	22.9	0.00e+00	0	36	0	727711744	50	6084
2026-01-06 14:41:07.30	53.55	74.42	-40.7	-42.0	20.7	0.00e+00	0	36	0	735051776	54	6410
2026-01-06 14:41:11.33	58.17	76.01	-40.0	-41.1	21.3	0.00e+00	0	36	0	742391808	52	6487
2026-01-06 14:41:15.37	64.00	77.51	-41.4	-42.8	19.9	0.00e+00	59	36	0	750780416	56	6256
2026-01-06 14:41:19.41	71.36	78.86	-38.5	-39.4	23.1	0.00e+00	48	36	0	758120448	50	6027
2026-01-06 14:41:23.45	80.62	80.00	-37.9	-38.8	23.7	0.00e+00	0	36	0	765460480	48	6284
2026-01-06 14:41:27.49	91.91	80.82	-38.0	-38.9	23.4	0.00e+00	71	36	0	772800512	48	6382
2026-01-06 14:41:31.53	104.86	81.24	-37.7	-38.5	23.6	0.00e+00	53	36	0	781189120	48	6089
2026-01-06 14:41:35.57	118.35	81.19	-38.7	-39.7	22.4	0.00e+00	33	36	0	788529152	50	6208
2026-01-06 14:41:39.60	130.98	80.67	-37.7	-38.5	23.8	0.00e+00	8	36	0	795869184	50	5432
2026-01-06 14:41:43.64	141.85	79.77	-37.2	-38.1	24.2	0.00e+00	92	36	0	803209216	46	6495
2026-01-06 14:41:47.68	150.68	78.58	-38.2	-39.1	23.2	0.00e+00	33	36	0	810549248	48	6524
2026-01-06 14:41:51.72	157.68	77.19	-38.7	-39.6	22.8	0.00e+00	0	36	0	818937856	50	6137
2026-01-06 14:41:55.76	163.23	75.67	-40.2	-41.3	21.3	0.00e+00	33	36	0	826277888	52	6653
2026-01-06 14:41:59.79	167.64	74.06	-40.2	-41.3	21.3	0.00e+00	91	36	0	833617920	54	5957
2026-01-06 14:42:03.83	171.21	72.40	-38.8	-39.8	22.7	0.00e+00	0	36	0	840957952	52	5607
2026-01-06 14:42:07.86	174.12	70.71	-38.4	-39.4	22.9	0.00e+00	0	36	0	848297984	48	6700
2026-01-06 14:42:11.90	176.55	69.01	-40.2	-41.4	21.1	0.00e+00	0	36	0	856686592	52	6751
2026-01-06 14:42:15.94	178.59	67.32	-39.7	-40.8	21.7	0.00e+00	92	36	0	864026624	52	6301
2026-01-06 14:42:19.97	180.32	65.64	-37.6	-38.5	23.9	0.00e+00	34	36	0	871366656	48	6057
2026-01-06 14:42:24.01	181.82	63.97	-37.6	-38.5	24.0	0.00e+00	49	36	0	878706688	50	5389
2026-01-06 14:42:28.05	183.11	62.33	-36.2	-37.0	24.9	0.00e+00	2	36	0	887095296	46	5751
2026-01-06 14:42:32.09	184.25	60.71	-36.5	-37.3	24.7	0.00e+00	90	36	0	894435328	46	5915
2026-01-06 14:42:36.12	185.25	59.13	-38.8	-39.8	22.7	0.00e+00	0	36	0	901775360	50	6261
2026-01-06 14:42:40.16	186.14	57.58	-38.7	-39.7	23.0	0.00e+00	28	36	0	909115392	50	6217
2026-01-06 14:42:44.20	186.94	56.07	-37.0	-37.8	24.5	0.00e+00	59	36	0	916455424	48	5607
2026-01-06 14:42:48.23	187.65	54.59	-36.1	-36.9	25.3	0.00e+00	92	36	0	924844032	46	5635
2026-01-06 14:42:52.26	188.30	53.15	-36.8	-37.6	24.7	0.00e+00	0	36	0	932184064	46	6112
2026-01-06 14:42:56.30	188.89	51.75	-38.5	-39.5	23.0	0.00e+00	31	36	0	939524096	48	6773
2026-01-06 14:43:00.35	189.44	50.38	-42.9	-44.7	18.2	0.00e+00	0	36	0	946864128	58	6974
2026-01-06 14:43:04.39	189.93	49.05	-41.7	-43.1	19.8	0.00e+00	73	36	0	955252736	56	6486
2026-01-06 14:43:08.43	190.39	47.75	-43.8	-46.2	16.9	0.00e+00	0	36	0	962592768	60	7356
2026-01-06 14:43:12.47	190.81	46.49	-39.3	-40.3	22.3	0.00e+00	5	36	0	969932800	52	5962
2026-01-06 14:43:16.51	191.20	45.27	-39.8	-40.8	21.9	0.00e+00	16	36	0	977272832	52	6315
2026-01-06 14:43:20.54	191.56	44.09	-38.5	-39.5	23.1	0.00e+00	54	36	0	984612864	50	6054
2026-01-06 14:43:24.58	191.90	42.93	-34.9	-35.6	26.2	0.00e+00	7	36	0	993001472	44	5475
2026-01-06 14:43:28.62	192.21	41.81	-37.9	-38.9	23.5	0.00e+00	55	36	0	1000341504	48	6329
2026-01-06 14:43:32.65	192.51	40.73	-38.1	-39.0	23.4	0.00e+00	90	36	0	1007681536	50	5725
2026-01-06 14:43:36.69	192.79	39.67	-37.2	-38.1	24.2	0.00e+00	4	36	0	1015021568	48	5768
2026-01-06 14:43:40.73	193.05	38.65	-40.3	-41.5	21.2	0.00e+00	24	36	0	1023410176	52	6798
2026-01-06 14:43:44.77	193.30	37.65	-42.2	-44.0	18.9	0.00e+00	27	36	0	1030750208	58	6396
2026-01-06 14:43:48.80	193.53	36.68	-40.0	-41.2	21.6	0.00e+00	90	36	0	1038090240	54	5847
2026-01-06 14:43:52.84	193.75	35.74	-38.2	-39.1	23.4	0.00e+00	0	36	0	1045430272	50	5819
2026-01-06 14:43:56.88	193.96	34.83	-40.9	-42.2	20.4	0.00e+00	0	36	0	1052770304	54	6577
2026-01-06 14:44:00.91	194.16	33.94	-44.2	-46.6	16.3	0.00e+00	0	36	0	1061158912	60	7722
2026-01-06 14:44:04.95	194.35	33.08	-42.6	-44.4	18.6	0.00e+00	92	36	0	1068498944	58	6729
2026-01-06 14:44:08.99	194.53	32.24	-40.4	-41.6	21.0	0.00e+00	2	36	0	1075838976	54	6151
2026-01-06 14:44:13.02	194.71	31.42	-40.7	-41.9	20.8	0.00e+00	0	36	0	1083179008	54	6352
2026-01-06 14:44:17.06	194.87	30.62	-40.7	-41.9	20.8	0.00e+00	0	36	0	1090519040	54	6368
2026-01-06 14:44:21.10	195.03	29.85	-40.9	-42.1	20.4	0.00e+00	90	36	0	1098907648	54	6538
2026-01-06 14:44:25.14	195.18	29.09	-40.2	-41.4	21.3	0.00e+00	53	36	0	1106247680	54	5968
2026-01-06 14:44:29.18	195.32	28.36	-39.4	-40.4	22.0	0.00e+00	0	36	0	1113587712	52	6031
2026-01-06 14:44:33.21	195.46	27.64	-38.3	-39.2	23.3	0.00e+00	0	36	0	1120927744	50	5871
2026-01-06 14:44:37.25	195.60	26.95	-37.8	-38.6	23.7	0.00e+00	92	36	0	1129316352	48	6169
2026-01-06 14:44:41.28	195.73	26.27	-37.8	-38.7	23.6	0.00e+00	0	36	0	1136656384	48	6218
2026-01-06 14:44:45.32	195.85	25.60	-37.8	-38.7	23.5	0.00e+00	0	36	0	1143996416	48	6240
2026-01-06 14:44:49.36	195.97	24.95	-37.6	-38.5	23.9	0.00e+00	0	36	0	1151336448	48	6038
2026-01-06 14:44:53.39	196.09	24.32	-36.9	-37.7	24.3	0.00e+00	91	36	0	1158676480	48	5566
2026-01-06 14:44:57.43	196.20	23.71	-36.4	-37.2	24.9	0.00e+00	5	36	0	1167065088	46	5850
2026-01-06 14:45:01.47	196.30	23.10	-36.2	-37.0	24.8	0.00e+00	0	36	0	1174405120	46	5749
2026-01-06 14:45:05.50	196.41	22.51	-36.3	-37.1	24.9	0.00e+00	92	36	0	1181745152	46	5823
2026-01-06 14:45:09.54	196.51	21.94	-36.7	-37.6	24.7	0.00e+00	58	36	0	1189085184	46	6113
2026-01-06 14:45:13.57	196.61	21.37	-37.0	-37.9	24.2	0.00e+00	5	36	0	1197473792	46	6335
2026-01-06 14:45:17.61	196.70	20.82	-37.1	-38.0	24.2	0.00e+00	66	36	0	1204813824	46	6425
2026-01-06 14:45:21.64	196.79	20.28	-37.4	-38.2	23.9	0.00e+00	90	36	0	1212153856	46	6613
2026-01-06 14:45:25.68	196.88	19.75	-37.5	-38.4	23.8	0.00e+00	0	36	0	1219493888	46	6717
2026-01-06 14:45:29.72	196.97	19.24	-37.4	-38.3	23.8	0.00e+00	26	36	0	1226833920	46	6660
2026-01-06 14:45:33.75	197.06	18.73	-37.6	-38.5	23.7	0.00e+00	56	36	0	1235222528	48	6100
2026-01-06 14:45:37.79	197.14	18.23	-37.6	-38.5	23.7	0.00e+00	92	36	0	1242562560	48	6068
2026-01-06 14:45:41.82	197.22	17.75	-37.7	-38.7	23.5	0.00e+00	62	36	0	1249902592	48	6174
2026-01-06 14:45:45.86	197.30	17.27	-37.7	-38.6	23.6	0.00e+00	0	36	0	1257242624	48	6168
2026-01-06 14:45:49.90	197.37	16.80	-37.8	-38.7	23.5	0.00e+00	0	36	0	1265631232	48	6219
2026-01-06 14:45:53.94	197.45	16.34	-37.6	-38.6	23.6	0.00e+00	92	36	0	1272971264	48	6106
2026-01-06 14:45:57.97	197.52	15.89	-37.7	-38.7	23.3	0.00e+00	56	36	0	1280311296	48	6211
2026-01-06 14:46:02.01	197.59	15.45	-37.6	-38.5	23.6	0.00e+00	0	36	0	1287651328	48	6036
2026-01-06 14:46:06.05	197.66	15.01	-37.6	-38.5	23.6	0.00e+00	0	36	0	1294991360	48	6043
2026-01-06 14:46:10.09	197.73	14.59	-37.4	-38.3	23.7	0.00e+00	92	36	0	1303379968	48	5942
2026-01-06 14:46:14.13	197.79	14.17	-37.5	-38.4	23.7	0.00e+00	63	36	0	1310720000	48	5975
2026-01-06 14:46:18.16	197.86	13.75	-37.6	-38.5	23.5	0.00e+00	0	36	0	1318060032	48	6091
2026-01-06 14:46:22.19	197.92	13.35	-37.8	-38.7	23.4	0.00e+00	78	36	0	1325400064	48	6245
2026-01-06 14:46:26.23	197.98	12.95	-37.9	-38.8	23.3	0.00e+00	67	36	0	1333788672	48	6314
2026-01-06 14:46:30.27	198.04	12.55	-38.2	-39.1	23.0	0.00e+00	0	36	0	1341128704	48	6537
2026-01-06 14:46:34.31	198.10	12.17	-38.2	-39.2	22.9	0.00e+00	0	36	0	1348468736	48	6561
2026-01-06 14:46:38.34	198.16	11.79	-38.3	-39.2	22.8	0.00e+00	92	36	0	1355808768	48	6609
2026-01-06 14:46:42.38	198.22	11.41	-38.4	-39.3	22.8	0.00e+00	68	36	0	1363148800	48	6688
2026-01-06 14:46:46.42	198.27	11.04	-38.4	-39.4	22.7	0.00e+00	61	36	0	1371537408	48	6724
2026-01-06 14:46:50.46	198.33	10.68	-38.4	-39.5	22.6	0.00e+00	5	36	0	1378877440	48	6771
2026-01-06 14:46:54.49	198.38	10.32	-38.4	-39.4	22.6	0.00e+00	91	36	0	1386217472	48	6751
2026-01-06 14:46:58.53	198.43	9.97	-38.4	-39.4	22.6	0.00e+00	21	36	0	1393557504	48	6736
2026-01-06 14:47:02.57	198.48	9.62	-38.5	-39.5	22.6	0.00e+00	67	36	0	1400897536	48	6772
2026-01-06 14:47:06.61	198.54	9.28	-38.5	-39.5	22.5	0.00e+00	3	36	0	1409286144	48	6831
2026-01-06 14:47:10.64	198.59	8.94	-38.4	-39.4	22.5	0.00e+00	90	36	0	1416626176	48	6757
2026-01-06 14:47:14.68	198.63	8.60	-38.5	-39.5	22.5	0.00e+00	20	36	0	1423966208	48	6801
2026-01-06 14:47:18.71	198.68	8.27	-38.7	-39.7	22.3	0.00e+00	1	36	0	1431306240	48	6956
2026-01-06 14:47:22.75	198.73	7.95	-38.9	-39.9	22.0	0.00e+00	20	36	0	1439694848	50	6387
2026-01-06 14:47:26.78	198.78	7.63	-38.7	-39.8	22.2	0.00e+00	92	36	0	1447034880	50	6256
2026-01-06 14:47:30.82	198.82	7.31	-38.7	-39.8	22.0	0.00e+00	63	36	0	1454374912	50	6268
2026-01-06 14:47:34.86	198.87	6.99	-38.8	-39.8	21.9	0.00e+00	2	36	0	1461714944	50	6302
2026-01-06 14:47:38.90	198.91	6.68	-38.9	-39.9	21.7	0.00e+00	0	36	0	1469054976	50	6360
2026-01-06 14:47:42.94	198.96	6.38	-39.0	-40.1	21.7	0.00e+00	92	36	0	1477443584	50	6515
2026-01-06 14:47:46.97	199.00	6.08	-39.1	-40.2	21.6	0.00e+00	4	36	0	1484783616	50	6589
2026-01-06 14:47:51.01	199.04	5.78	-39.4	-40.6	21.1	0.00e+00	62	36	0	1492123648	50	6853
2026-01-06 14:47:55.05	199.09	5.48	-39.7	-40.9	20.9	0.00e+00	0	36	0	1499463680	52	6324
2026-01-06 14:47:59.08	199.13	5.19	-39.6	-40.8	21.0	0.00e+00	91	36	0	1507852288	52	6272
2026-01-06 14:48:03.11	199.17	4.90	-39.7	-41.0	20.8	0.00e+00	0	36	0	1515192320	52	6407
2026-01-06 14:48:07.14	199.21	4.61	-39.9	-41.2	20.5	0.00e+00	12	36	0	1522532352	52	6593
2026-01-06 14:48:11.18	199.25	4.33	-39.9	-41.2	20.4	0.00e+00	4	36	0	1529872384	52	6543
2026-01-06 14:48:15.21	199.29	4.05	-40.1	-41.5	20.1	0.00e+00	92	36	0	1537212416	52	6790
2026-01-06 14:48:19.25	199.33	3.77	-40.2	-41.6	20.0	0.00e+00	0	36	0	1545601024	52	6864
2026-01-06 14:48:23.29	199.37	3.50	-40.5	-41.9	19.5	0.00e+00	17	36	0	1552941056	52	7129
2026-01-06 14:48:27.33	199.40	3.23	-40.0	-41.4	20.1	0.00e+00	17	36	0	1560281088	54	6000
2026-01-06 14:48:31.36	199.44	2.96	-47.9	-63.1	3.6	1.51e+00	0	36	104	1566572544	60	51389
2026-01-06 14:48:35.40	199.48	2.69	-48.6	-63.8	3.6	1.51e+00	0	36	104	1566572544	60	56084
2026-01-06 14:48:39.44	199.51	2.43	-48.7	-64.0	3.6	1.51e+00	0	36	104	1566572544	60	57066
2026-01-06 14:48:43.48	199.55	2.17	-48.7	-64.0	3.6	1.51e+00	0	36	104	1566572544	60	57029
2026-01-06 14:48:47.51	199.59	1.91	-48.8	-63.9	3.6	1.51e+00	0	36	104	1566572544	60	56860
2026-01-06 14:48:51.55	199.62	1.65	-48.7	-63.9	3.6	1.51e+00	0	36	104	1566572544	60	56661
2026-01-06 14:48:55.59	199.66	1.40	-48.7	-63.9	3.6	1.51e+00	0	36	104	1566572544	60	56514
2026-01-06 14:48:59.63	199.69	1.14	-48.7	-63.9	3.6	1.51e+00	0	36	104	1566572544	60	56524
2026-01-06 14:49:03.67	199.73	0.89	-48.7	-63.9	3.6	1.51e+00	0	36	104	1566572544	60	56468
2026-01-06 14:49:07.71	199.76	0.64	-48.7	-63.8	3.6	1.51e+00	0	36	104	1566572544	60	56271
2026-01-06 14:49:11.75	199.79	0.40	-48.7	-63.9	3.6	1.51e+00	0	36	104	1566572544	60	56412
2026-01-06 14:49:15.79	199.83	0.15	-48.7	-63.8	3.6	1.51e+00	0	36	104	1566572544	60	56264

#Closed at: 2026-01-06 14:49:19
#Recorded file [1566 MB]: D:/lorett/data/35029_260107_023347.dat