passes_logs/2026/01/06/R4.6S_Anadyr/R4.6S_Anadyr__20260106_175451_AQUA_rec.log

#Pass ID: 20260106_175451_AQUA
#Satellite: AQUA
#Configuration: AQUA
#almurnet v.1.7.20251203
#Start time: 2026-01-06 17:54:53

#Version: 2.2.20231116
#Station: R4.6S_Anadyr
#Location: 177.4865 lon 64.73178 lat
#TLE: 1 27424U 02022A   26004.96787593  .00001598  00000+0  32997-3 0  9996
#TLE: 2 27424  98.4069 331.2279 0002002  90.2377   0.6092 14.61798176259425

#Time	Az	El	Level	Level2	SNR	BER	BlckErr	Temp	State	Recorded	gain1	gain2
2026-01-06 17:54:53.44	22.74	0.12	-48.4	-63.3	3.5	1.51e+00	0	31	0	0	60	52777
2026-01-06 17:54:56.46	22.61	0.30	-48.8	-66.7	3.5	3.02e+01	0	32	104	0	60	83040
2026-01-06 17:54:59.49	22.47	0.48	-48.9	-66.8	3.5	3.02e+01	0	32	104	0	60	84044
2026-01-06 17:55:02.51	22.33	0.66	-48.8	-66.7	3.5	3.02e+01	0	32	104	0	60	82824
2026-01-06 17:55:05.54	22.19	0.84	-48.4	-66.4	3.5	3.02e+01	0	32	104	0	60	80285
2026-01-06 17:55:08.57	22.05	1.02	-47.8	-65.8	3.5	3.02e+01	0	32	104	0	60	75018
2026-01-06 17:55:11.60	21.90	1.20	-47.4	-65.4	3.5	3.02e+01	0	32	104	0	60	71511
2026-01-06 17:55:14.62	21.75	1.39	-47.4	-65.3	3.6	3.02e+01	0	32	104	0	60	70902
2026-01-06 17:55:17.65	21.60	1.57	-47.4	-65.4	3.5	3.02e+01	0	32	104	0	60	71360
2026-01-06 17:55:20.68	21.45	1.76	-47.4	-65.3	3.5	3.02e+01	0	32	104	0	60	71178
2026-01-06 17:55:23.71	21.30	1.95	-47.4	-65.3	3.5	3.02e+01	0	32	104	0	60	71160
2026-01-06 17:55:26.73	21.14	2.13	-47.4	-65.3	3.5	3.02e+01	0	32	104	0	60	71195
2026-01-06 17:55:29.76	20.98	2.32	-47.3	-65.1	3.5	3.02e+01	0	32	104	0	60	69591
2026-01-06 17:55:32.79	20.82	2.52	-47.3	-65.2	3.5	3.02e+01	0	32	104	0	60	69926
2026-01-06 17:55:35.82	20.66	2.71	-47.4	-65.3	3.5	3.02e+01	0	33	104	0	60	71051
2026-01-06 17:55:38.85	20.49	2.90	-47.4	-65.4	3.5	3.02e+01	0	33	104	0	60	71334
2026-01-06 17:55:41.87	20.32	3.10	-47.3	-64.7	3.5	3.02e+01	0	32	104	0	60	66466
2026-01-06 17:55:44.90	20.15	3.29	-47.3	-65.0	3.5	3.02e+01	0	32	104	0	60	68155
2026-01-06 17:55:47.93	19.97	3.49	-46.9	-63.0	3.5	3.02e+01	0	33	104	0	60	54114
2026-01-06 17:55:50.95	19.80	3.69	-45.7	-59.3	3.5	3.02e+01	0	33	104	0	60	35446
2026-01-06 17:55:53.98	19.61	3.89	-47.0	-63.4	3.5	3.02e+01	0	33	104	0	60	56917
2026-01-06 17:55:57.00	19.43	4.09	-37.6	-48.0	3.5	3.02e+01	0	33	104	0	50	17235
2026-01-06 17:56:00.03	19.25	4.29	-37.4	-47.8	3.5	3.02e+01	0	33	104	0	50	16817
2026-01-06 17:56:03.06	19.06	4.50	-47.4	-65.1	3.5	3.02e+01	0	33	104	0	60	68874
2026-01-06 17:56:06.09	18.86	4.70	-39.1	-49.7	3.5	3.02e+01	0	33	104	0	54	16525
2026-01-06 17:56:09.11	18.67	4.91	-37.9	-48.3	3.5	3.02e+01	0	33	104	0	52	15933
2026-01-06 17:56:12.14	18.47	5.12	-47.5	-65.1	3.5	3.02e+01	0	33	104	0	60	68935
2026-01-06 17:56:15.17	18.27	5.33	-38.7	-49.2	3.5	3.02e+01	0	33	104	0	52	17642
2026-01-06 17:56:18.20	18.06	5.54	-37.7	-48.1	3.5	3.02e+01	0	32	104	0	50	17293
2026-01-06 17:56:21.23	17.85	5.75	-47.5	-64.6	3.5	3.02e+01	0	33	104	0	60	65275
2026-01-06 17:56:24.25	17.64	5.97	-40.9	-51.6	3.5	3.02e+01	0	33	104	0	56	18503
2026-01-06 17:56:27.29	17.42	6.18	-40.5	-51.2	3.5	3.02e+01	0	33	104	0	54	19674
2026-01-06 17:56:30.31	17.20	6.40	-47.4	-63.1	3.5	3.02e+01	0	33	104	0	60	55266
2026-01-06 17:56:33.34	16.98	6.62	-42.5	-53.7	3.5	3.02e+01	0	33	104	0	60	18554
2026-01-06 17:56:36.37	16.75	6.84	-40.5	-51.2	3.5	3.02e+01	0	33	104	0	54	19713
2026-01-06 17:56:39.40	16.52	7.07	-47.6	-64.6	3.5	3.02e+01	0	33	104	0	60	65194
2026-01-06 17:56:42.43	16.28	7.29	-37.4	-47.8	3.5	3.02e+01	0	33	104	0	50	16754
2026-01-06 17:56:45.45	16.04	7.52	-36.1	-46.3	3.6	3.02e+01	0	33	104	0	48	15874
2026-01-06 17:56:48.48	15.80	7.75	-47.6	-64.4	3.5	3.02e+01	0	33	104	0	60	63685
2026-01-06 17:56:51.51	15.55	7.98	-39.5	-50.0	3.5	3.02e+01	0	33	104	0	54	17276
2026-01-06 17:56:54.54	15.30	8.21	-37.1	-47.4	3.5	3.02e+01	0	33	104	0	50	16111
2026-01-06 17:56:57.56	15.04	8.44	-44.4	-56.5	3.5	3.02e+01	0	33	104	0	60	25575
2026-01-06 17:57:00.59	14.78	8.68	-40.7	-51.4	3.5	3.02e+01	0	33	104	0	58	15988
2026-01-06 17:57:03.62	14.51	8.91	-46.9	-61.4	3.5	3.02e+01	0	33	104	0	60	45108
2026-01-06 17:57:06.65	14.24	9.15	-47.5	-63.0	3.5	3.02e+01	0	33	104	0	60	54314
2026-01-06 17:57:09.68	13.96	9.40	-37.5	-47.8	3.5	3.02e+01	0	33	104	0	50	16790
2026-01-06 17:57:12.71	13.68	9.64	-36.8	-47.0	3.5	3.02e+01	0	33	104	0	48	17214
2026-01-06 17:57:15.74	13.39	9.89	-41.7	-52.9	3.6	3.02e+01	0	33	104	0	60	16970
2026-01-06 17:57:18.77	13.09	10.13	-40.8	-51.7	3.5	3.02e+01	0	33	104	0	56	18656
2026-01-06 17:57:21.80	12.79	10.38	-43.2	-54.6	3.6	3.02e+01	0	33	104	0	58	23121
2026-01-06 17:57:24.82	12.49	10.63	-47.9	-64.5	3.5	3.02e+01	0	33	104	0	60	64910
2026-01-06 17:57:27.85	12.18	10.89	-39.1	-49.6	3.5	3.02e+01	0	33	104	0	52	18390
2026-01-06 17:57:30.88	11.86	11.15	-35.0	-45.2	3.5	3.02e+01	0	33	104	0	46	15717
2026-01-06 17:57:33.91	11.54	11.40	-40.2	-50.9	3.5	3.02e+01	0	33	104	0	56	17067
2026-01-06 17:57:36.94	11.21	11.66	-39.4	-50.0	3.5	3.02e+01	0	33	104	0	54	17141
2026-01-06 17:57:39.96	10.87	11.93	-47.8	-64.3	3.5	3.02e+01	0	33	104	0	60	63255
2026-01-06 17:57:42.99	10.53	12.19	-47.4	-62.3	3.5	3.02e+01	0	33	104	0	60	50269
2026-01-06 17:57:46.02	10.18	12.46	-36.8	-47.0	3.5	3.02e+01	0	33	104	0	48	17284
2026-01-06 17:57:49.05	9.82	12.73	-37.4	-47.8	3.5	3.02e+01	0	33	104	0	48	18781
2026-01-06 17:57:52.07	9.45	13.00	-47.4	-62.3	3.5	3.02e+01	0	33	104	0	60	49939
2026-01-06 17:57:55.10	9.08	13.27	-38.1	-48.5	3.5	3.02e+01	0	33	104	0	50	18113
2026-01-06 17:57:58.13	8.70	13.55	-38.2	-48.6	3.5	3.02e+01	0	33	104	0	50	18421
2026-01-06 17:58:01.16	8.31	13.83	-37.7	-48.0	3.5	3.02e+01	0	33	104	0	52	15369
2026-01-06 17:58:04.19	7.92	14.11	-37.9	-48.3	3.5	3.02e+01	0	33	104	0	52	15817
2026-01-06 17:58:07.22	7.51	14.39	-48.3	-65.6	3.5	3.02e+01	0	33	104	0	60	73255
2026-01-06 17:58:10.24	7.10	14.68	-43.5	-55.1	3.5	3.02e+01	0	33	104	0	60	21836
2026-01-06 17:58:13.27	6.68	14.96	-36.3	-46.6	3.5	3.02e+01	0	33	104	0	48	16423
2026-01-06 17:58:16.30	6.25	15.25	-35.5	-45.7	3.5	3.02e+01	0	33	104	0	46	16553
2026-01-06 17:58:19.32	5.81	15.54	-40.3	-50.9	3.5	3.02e+01	0	33	104	0	60	13521
2026-01-06 17:58:22.35	5.36	15.84	-38.9	-49.4	3.5	3.02e+01	0	33	104	0	52	17951
2026-01-06 17:58:25.37	4.90	16.13	-37.5	-47.8	3.5	3.02e+01	0	33	104	0	48	18761
2026-01-06 17:58:28.40	4.43	16.43	-37.7	-48.0	3.5	3.02e+01	0	33	104	0	46	21543
2026-01-06 17:58:31.43	3.95	16.73	-37.8	-48.1	3.5	3.02e+01	0	33	104	0	50	17350
2026-01-06 17:58:34.46	3.46	17.03	-39.4	-49.9	3.4	3.02e+01	0	33	104	0	56	15066
2026-01-06 17:58:37.49	2.96	17.34	-36.4	-46.7	3.5	3.02e+01	0	33	104	0	52	13205
2026-01-06 17:58:40.51	2.45	17.65	-37.7	-48.0	3.5	3.02e+01	0	33	104	0	50	17128
2026-01-06 17:58:43.54	1.92	17.95	-35.0	-45.2	3.5	3.02e+01	0	33	104	0	46	15726
2026-01-06 17:58:46.57	1.39	18.26	-36.7	-46.9	3.5	3.02e+01	0	33	104	0	48	16965
2026-01-06 17:58:49.60	0.84	18.58	-38.4	-48.8	3.6	3.02e+01	0	33	104	0	52	16786
2026-01-06 17:58:52.63	0.28	18.89	-35.6	-45.8	3.5	3.02e+01	0	33	104	0	48	14892
2026-01-06 17:58:55.66	359.71	19.21	-38.6	-49.0	3.5	3.02e+01	0	33	104	0	48	21714
2026-01-06 17:58:58.69	359.12	19.52	-35.8	-46.0	3.5	3.02e+01	0	33	104	0	46	17107
2026-01-06 17:59:01.72	358.53	19.84	-35.6	-45.8	3.5	3.02e+01	0	33	104	0	46	16812
2026-01-06 17:59:04.74	357.92	20.16	-37.3	-47.6	3.5	3.02e+01	0	33	104	0	44	23122
2026-01-06 17:59:07.77	357.29	20.48	-34.8	-45.0	3.6	3.02e+01	0	33	104	0	44	17182
2026-01-06 17:59:10.80	356.65	20.80	-35.2	-45.4	3.5	3.02e+01	0	33	104	0	46	16093
2026-01-06 17:59:13.83	356.00	21.12	-43.4	-54.8	3.5	3.02e+01	0	33	104	0	56	26591
2026-01-06 17:59:16.85	355.33	21.45	-36.9	-47.1	3.4	3.02e+01	0	33	104	0	50	15547
2026-01-06 17:59:19.87	354.65	21.77	-35.7	-45.9	3.5	3.02e+01	0	33	104	0	46	17017
2026-01-06 17:59:22.90	353.95	22.09	-44.7	-56.6	3.5	3.02e+01	0	33	104	0	58	29148
2026-01-06 17:59:25.93	353.23	22.42	-36.9	-47.3	3.5	3.02e+01	0	33	104	0	48	17706
2026-01-06 17:59:28.96	352.50	22.74	-36.2	-46.4	3.5	3.02e+01	0	33	104	0	46	18030
2026-01-06 17:59:31.99	351.75	23.06	-47.3	-61.6	3.5	3.02e+01	0	33	104	0	60	46371
2026-01-06 17:59:35.01	350.99	23.38	-37.0	-47.2	3.5	3.02e+01	0	33	104	0	50	15647
2026-01-06 17:59:38.04	350.21	23.70	-36.5	-46.8	3.5	3.02e+01	0	33	104	0	46	18804
2026-01-06 17:59:41.07	349.41	24.02	-48.0	-63.8	3.5	3.02e+01	0	33	104	0	60	59700
2026-01-06 17:59:44.10	348.60	24.34	-35.9	-46.1	3.5	3.02e+01	0	33	104	0	46	17381
2026-01-06 17:59:47.13	347.77	24.66	-35.9	-46.1	3.6	3.02e+01	0	33	104	0	46	17407
2026-01-06 17:59:50.15	346.92	24.97	-48.1	-64.2	3.5	3.02e+01	0	33	104	0	60	62684
2026-01-06 17:59:53.18	346.05	25.28	-36.6	-46.8	3.5	3.02e+01	0	33	104	0	48	16895
2026-01-06 17:59:56.20	345.17	25.59	-35.9	-46.1	3.5	3.02e+01	0	33	104	0	46	17468
2026-01-06 17:59:59.23	344.26	25.89	-47.8	-63.0	3.5	3.02e+01	0	33	104	0	60	54139
2026-01-06 18:00:02.26	343.34	26.19	-35.1	-45.3	3.5	3.02e+01	0	33	104	0	46	15925
2026-01-06 18:00:05.29	342.40	26.48	-35.7	-45.9	3.5	3.02e+01	0	33	104	0	48	15208
2026-01-06 18:00:08.32	341.44	26.77	-48.3	-65.2	3.5	3.02e+01	0	33	104	0	60	70039
2026-01-06 18:00:11.35	340.46	27.06	-37.9	-48.2	3.5	3.02e+01	0	33	104	0	52	15709
2026-01-06 18:00:14.38	339.47	27.34	-38.0	-48.4	3.6	3.02e+01	0	33	104	0	52	16053
2026-01-06 18:00:17.41	338.45	27.61	-48.7	-66.3	3.5	3.02e+01	0	33	104	0	60	79771
2026-01-06 18:00:20.43	337.43	27.87	-36.0	-46.2	3.5	3.02e+01	0	33	104	0	48	15693
2026-01-06 18:00:23.46	336.38	28.13	-37.7	-47.9	3.5	3.02e+01	0	33	104	0	46	21424
2026-01-06 18:00:26.48	335.31	28.38	-43.9	-55.4	3.5	3.02e+01	0	33	104	0	60	22591
2026-01-06 18:00:29.51	334.23	28.62	-37.0	-47.3	3.5	3.02e+01	0	33	104	0	48	17728
2026-01-06 18:00:32.54	333.13	28.85	-38.6	-48.9	3.5	3.02e+01	0	33	104	0	50	19171
2026-01-06 18:00:35.56	332.01	29.08	-48.6	-66.6	3.5	3.02e+01	0	33	104	0	60	82128
2026-01-06 18:00:38.59	330.88	29.29	-44.8	-56.6	3.5	3.02e+01	0	33	104	0	60	26068
2026-01-06 18:00:41.62	329.73	29.49	-37.0	-47.2	3.5	3.02e+01	0	33	104	0	48	17609
2026-01-06 18:00:44.64	328.57	29.68	-44.1	-55.9	3.6	3.02e+01	0	33	104	0	60	24006
2026-01-06 18:00:47.67	327.39	29.86	-36.0	-46.3	3.5	3.02e+01	0	33	104	0	48	15856
2026-01-06 18:00:50.70	326.20	30.02	-43.3	-54.6	3.5	3.02e+01	0	33	104	0	54	29033
2026-01-06 18:00:53.73	325.00	30.18	-39.9	-50.3	3.5	3.02e+01	0	33	104	0	60	12660
2026-01-06 18:00:56.76	323.78	30.32	-35.0	-45.2	3.5	3.02e+01	0	33	104	0	46	15670
2026-01-06 18:00:59.79	322.56	30.44	-47.7	-62.5	3.5	3.02e+01	0	33	104	0	60	51589
2026-01-06 18:01:02.81	321.33	30.56	-45.0	-56.8	3.6	3.02e+01	0	33	104	0	60	26736
2026-01-06 18:01:05.84	320.08	30.65	-45.6	-49.4	17.0	3.02e+01	0	33	0	1048576	60	11388
2026-01-06 18:01:08.87	318.83	30.74	-45.7	-49.6	15.7	3.02e+01	0	33	0	6815744	60	11676
2026-01-06 18:01:11.90	317.57	30.81	-42.1	-44.2	22.2	3.02e+01	0	33	0	12058624	60	6213
2026-01-06 18:01:14.92	316.32	30.86	-41.7	-43.6	21.9	3.02e+01	0	33	0	17825792	56	7363
2026-01-06 18:01:17.95	315.05	30.90	-39.0	-40.5	25.2	3.02e+01	0	33	0	23592960	52	6485
2026-01-06 18:01:20.98	313.78	30.92	-34.3	-35.5	29.8	3.02e+01	0	33	0	29360128	44	5762
2026-01-06 18:01:24.00	312.52	30.93	-34.6	-35.8	29.6	3.02e+01	0	33	0	35127296	42	6662
2026-01-06 18:01:27.03	311.25	30.93	-33.7	-34.9	30.4	3.02e+01	0	33	0	40894464	44	5356
2026-01-06 18:01:30.06	309.98	30.90	-34.2	-35.4	29.6	3.02e+01	0	33	0	46137344	42	6384
2026-01-06 18:01:33.09	308.71	30.87	-34.3	-35.5	29.6	3.02e+01	0	33	0	51904512	44	5747
2026-01-06 18:01:36.12	307.45	30.81	-33.9	-35.1	30.1	3.02e+01	0	33	0	57671680	42	6152
2026-01-06 18:01:39.14	306.19	30.74	-34.7	-35.9	29.4	3.02e+01	0	33	0	63438848	42	6804
2026-01-06 18:01:42.17	304.94	30.66	-33.9	-35.1	30.2	3.02e+01	0	33	0	69206016	44	5478
2026-01-06 18:01:45.20	303.70	30.56	-34.7	-35.9	29.6	3.02e+01	0	33	0	74448896	42	6763
2026-01-06 18:01:48.22	302.46	30.45	-34.0	-35.1	30.1	3.02e+01	0	33	0	80216064	44	5529
2026-01-06 18:01:51.25	301.24	30.33	-34.8	-36.0	29.4	3.02e+01	0	33	0	85983232	44	6129
2026-01-06 18:01:54.28	300.02	30.19	-34.9	-36.2	29.3	3.02e+01	0	33	0	91750400	44	6221
2026-01-06 18:01:57.30	298.82	30.04	-36.2	-37.5	28.1	3.02e+01	0	33	0	97517568	46	6469
2026-01-06 18:02:00.33	297.62	29.87	-36.0	-37.3	27.9	3.02e+01	0	33	0	103284736	46	6287
2026-01-06 18:02:03.35	296.45	29.69	-34.5	-35.7	29.7	3.02e+01	0	33	0	108527616	44	5870
2026-01-06 18:02:06.38	295.28	29.50	-34.8	-36.1	29.1	3.02e+01	0	33	0	114294784	42	6890
2026-01-06 18:02:09.41	294.13	29.30	-35.4	-36.7	28.7	3.02e+01	0	33	0	120061952	44	6596
2026-01-06 18:02:12.43	292.99	29.09	-35.6	-36.9	28.5	3.02e+01	0	33	0	125829120	44	6793
2026-01-06 18:02:15.46	291.87	28.87	-35.1	-36.4	29.0	3.02e+01	0	33	0	131596288	44	6366
2026-01-06 18:02:18.48	290.77	28.64	-35.8	-37.1	28.5	3.02e+01	0	33	0	137363456	44	6909
2026-01-06 18:02:21.51	289.68	28.40	-34.8	-36.0	29.3	3.02e+01	0	33	0	142606336	44	6097
2026-01-06 18:02:24.54	288.61	28.15	-35.0	-36.3	29.2	3.02e+01	0	33	0	148373504	44	6287
2026-01-06 18:02:27.56	287.56	27.89	-35.0	-36.2	29.2	3.02e+01	0	33	0	154140672	44	6211
2026-01-06 18:02:30.59	286.52	27.63	-34.8	-35.9	29.5	3.02e+01	0	33	0	159907840	44	6051
2026-01-06 18:02:33.62	285.51	27.35	-34.8	-36.0	29.0	3.02e+01	0	33	0	165675008	44	6124
2026-01-06 18:02:36.65	284.51	27.08	-36.1	-37.4	28.2	3.02e+01	0	33	0	170917888	46	6375
2026-01-06 18:02:39.68	283.52	26.79	-35.5	-36.7	28.7	3.02e+01	0	33	0	176685056	46	5909
2026-01-06 18:02:42.71	282.56	26.50	-35.6	-36.8	28.7	3.02e+01	0	33	0	182452224	44	6726
2026-01-06 18:02:45.73	281.62	26.21	-35.4	-36.6	28.8	3.02e+01	0	33	0	188219392	44	6549
2026-01-06 18:02:48.76	280.69	25.91	-35.8	-37.1	28.2	3.02e+01	0	33	0	193986560	44	6891
2026-01-06 18:02:51.79	279.78	25.60	-35.0	-36.2	29.2	3.02e+01	0	33	0	199753728	46	5558
2026-01-06 18:02:54.82	278.89	25.29	-35.0	-36.2	29.1	3.02e+01	0	33	0	205520896	44	6249
2026-01-06 18:02:57.85	278.02	24.98	-35.4	-36.6	28.8	3.02e+01	0	33	0	210763776	44	6533
2026-01-06 18:03:00.87	277.17	24.67	-36.3	-37.5	27.9	3.02e+01	0	33	0	216530944	46	6495
2026-01-06 18:03:03.90	276.33	24.35	-35.5	-36.7	28.6	3.02e+01	0	33	0	222298112	46	5914
2026-01-06 18:03:06.93	275.51	24.03	-35.9	-37.3	28.3	3.02e+01	0	33	0	228065280	46	6290
2026-01-06 18:03:09.96	274.71	23.71	-35.4	-36.7	28.8	3.02e+01	0	33	0	233832448	44	6578
2026-01-06 18:03:12.98	273.93	23.39	-34.6	-35.7	29.5	3.02e+01	0	33	0	239075328	44	5910
2026-01-06 18:03:16.01	273.16	23.07	-35.4	-36.6	28.5	3.02e+01	0	33	0	244842496	44	6571
2026-01-06 18:03:19.04	272.41	22.74	-36.3	-37.6	27.9	3.02e+01	0	33	0	250609664	46	6568
2026-01-06 18:03:22.06	271.68	22.42	-34.6	-35.8	29.4	3.02e+01	0	33	0	256376832	44	5928
2026-01-06 18:03:25.09	270.96	22.10	-35.3	-36.5	28.9	3.02e+01	0	33	0	262144000	44	6480
2026-01-06 18:03:28.11	270.26	21.77	-35.2	-36.4	29.0	3.02e+01	0	33	0	267911168	44	6365
2026-01-06 18:03:31.14	269.57	21.45	-35.2	-36.4	29.0	3.02e+01	0	33	0	273154048	44	6421
2026-01-06 18:03:34.16	268.90	21.12	-35.4	-36.7	28.7	3.02e+01	0	33	0	278921216	44	6588
2026-01-06 18:03:37.19	268.24	20.80	-34.9	-36.1	29.3	3.02e+01	0	33	0	284688384	44	6136
2026-01-06 18:03:40.22	267.60	20.48	-35.1	-36.4	29.0	3.02e+01	0	33	0	290455552	44	6356
2026-01-06 18:03:43.25	266.97	20.16	-35.0	-36.2	29.1	3.02e+01	0	33	0	296222720	44	6230
2026-01-06 18:03:46.28	266.35	19.84	-35.0	-36.3	29.1	3.02e+01	0	33	0	301989888	44	6291
2026-01-06 18:03:49.30	265.75	19.52	-35.1	-36.3	29.1	3.02e+01	0	33	0	307232768	44	6292
2026-01-06 18:03:52.33	265.16	19.20	-34.8	-36.0	29.3	3.02e+01	0	33	0	312999936	44	6125
2026-01-06 18:03:55.36	264.59	18.88	-35.2	-36.4	29.1	3.02e+01	0	33	0	318767104	44	6392
2026-01-06 18:03:58.38	264.03	18.57	-35.3	-36.6	28.7	3.02e+01	0	33	0	324534272	44	6532
2026-01-06 18:04:01.41	263.48	18.25	-34.7	-35.9	29.4	3.02e+01	0	33	0	330301440	44	6016
2026-01-06 18:04:04.44	262.94	17.94	-34.9	-36.1	29.2	3.02e+01	0	33	0	335544320	44	6172
2026-01-06 18:04:07.47	262.41	17.63	-35.0	-36.3	29.0	3.02e+01	0	33	0	341311488	44	6284
2026-01-06 18:04:10.50	261.89	17.32	-35.0	-36.3	29.0	3.02e+01	0	33	0	347078656	44	6284
2026-01-06 18:04:13.53	261.39	17.02	-34.8	-36.0	29.2	3.02e+01	0	33	0	352845824	44	6119
2026-01-06 18:04:16.56	260.90	16.71	-35.1	-36.3	29.0	3.02e+01	0	33	0	358612992	44	6315
2026-01-06 18:04:19.59	260.41	16.41	-35.0	-36.2	29.0	3.02e+01	0	33	0	364380160	44	6267
2026-01-06 18:04:22.62	259.94	16.11	-35.1	-36.3	28.9	3.02e+01	0	33	0	370147328	44	6320
2026-01-06 18:04:25.64	259.48	15.82	-34.9	-36.1	29.1	3.02e+01	0	33	0	375390208	44	6158
2026-01-06 18:04:28.67	259.03	15.52	-35.1	-36.3	28.9	3.02e+01	0	33	0	381157376	44	6318
2026-01-06 18:04:31.70	258.58	15.23	-35.0	-36.2	28.9	3.02e+01	0	33	0	386924544	44	6258
2026-01-06 18:04:34.73	258.15	14.94	-34.8	-36.0	29.1	3.02e+01	0	33	0	392691712	44	6128
2026-01-06 18:04:37.76	257.72	14.65	-34.8	-36.0	29.2	3.02e+01	0	33	0	398458880	44	6102
2026-01-06 18:04:40.79	257.31	14.36	-35.1	-36.3	29.0	3.02e+01	0	33	0	403701760	44	6333
2026-01-06 18:04:43.82	256.90	14.08	-35.0	-36.3	29.0	3.02e+01	0	33	0	409468928	44	6287
2026-01-06 18:04:46.84	256.50	13.80	-35.0	-36.2	29.0	3.02e+01	0	33	0	415236096	44	6269
2026-01-06 18:04:49.87	256.11	13.52	-35.1	-36.3	28.9	3.02e+01	0	33	0	421003264	44	6339
2026-01-06 18:04:52.90	255.73	13.24	-35.2	-36.4	28.9	3.02e+01	0	33	0	426770432	44	6379
2026-01-06 18:04:55.92	255.35	12.97	-35.3	-36.5	28.7	3.02e+01	0	33	0	432537600	44	6454
2026-01-06 18:04:58.95	254.99	12.69	-35.3	-36.6	28.7	3.02e+01	0	33	0	438304768	44	6500
2026-01-06 18:05:01.98	254.63	12.42	-35.4	-36.6	28.6	3.02e+01	0	33	0	443547648	44	6548
2026-01-06 18:05:05.01	254.27	12.15	-35.3	-36.5	28.6	3.02e+01	0	33	0	449314816	44	6478
2026-01-06 18:05:08.03	253.93	11.89	-35.3	-36.6	28.5	3.02e+01	0	33	0	455081984	44	6500
2026-01-06 18:05:11.06	253.59	11.63	-35.5	-36.7	28.4	3.02e+01	0	33	0	460849152	44	6634
2026-01-06 18:05:14.09	253.25	11.36	-35.6	-36.9	28.2	3.02e+01	0	33	0	466616320	44	6765
2026-01-06 18:05:17.12	252.93	11.10	-35.5	-36.7	28.3	3.02e+01	0	33	0	471859200	44	6627
2026-01-06 18:05:20.15	252.61	10.85	-35.3	-36.5	28.5	3.02e+01	0	33	0	477626368	44	6494
2026-01-06 18:05:23.18	252.29	10.59	-35.5	-36.8	28.3	3.02e+01	0	33	0	483393536	44	6668
2026-01-06 18:05:26.21	251.99	10.34	-35.7	-36.9	28.1	3.02e+01	0	33	0	489160704	44	6804
2026-01-06 18:05:29.23	251.68	10.09	-35.8	-37.0	28.0	3.02e+01	0	33	0	494927872	44	6879
2026-01-06 18:05:32.27	251.39	9.84	-35.8	-37.1	28.1	3.02e+01	0	33	0	500695040	44	6898
2026-01-06 18:05:35.30	251.10	9.59	-35.8	-37.1	28.1	3.02e+01	0	33	0	505937920	44	6893
2026-01-06 18:05:38.32	250.81	9.35	-36.0	-37.3	27.8	3.02e+01	0	33	0	511705088	46	6330
2026-01-06 18:05:41.35	250.53	9.11	-36.0	-37.2	27.9	3.02e+01	0	33	0	517472256	46	6277
2026-01-06 18:05:44.38	250.26	8.87	-36.0	-37.3	27.8	3.02e+01	0	33	0	523239424	46	6323
2026-01-06 18:05:47.41	249.99	8.63	-36.0	-37.3	27.8	3.02e+01	0	33	0	529006592	46	6341
2026-01-06 18:05:50.44	249.72	8.39	-36.3	-37.6	27.6	3.02e+01	0	33	0	534773760	46	6526
2026-01-06 18:05:53.46	249.46	8.16	-36.2	-37.5	27.5	3.02e+01	0	33	0	540016640	46	6478
2026-01-06 18:05:56.49	249.20	7.92	-36.4	-37.7	27.4	3.02e+01	0	33	0	545783808	46	6601
2026-01-06 18:05:59.52	248.95	7.69	-36.5	-37.9	27.3	3.02e+01	0	33	0	551550976	46	6729
2026-01-06 18:06:02.55	248.71	7.46	-36.6	-38.0	27.0	3.02e+01	0	33	0	557318144	46	6817
2026-01-06 18:06:05.58	248.46	7.24	-36.8	-38.2	26.9	3.02e+01	0	33	0	563085312	46	6986
2026-01-06 18:06:08.61	248.22	7.01	-37.1	-38.5	26.6	3.02e+01	0	33	0	568852480	48	6430
2026-01-06 18:06:11.64	247.99	6.79	-36.8	-38.2	26.8	3.02e+01	0	33	0	574095360	48	6255
2026-01-06 18:06:14.66	247.76	6.56	-37.0	-38.4	26.5	3.02e+01	0	33	0	579862528	48	6405
2026-01-06 18:06:17.69	247.53	6.34	-37.3	-38.8	26.2	3.02e+01	0	33	0	585629696	48	6650
2026-01-06 18:06:20.72	247.31	6.13	-37.6	-39.0	25.9	3.02e+01	0	33	0	591396864	48	6865
2026-01-06 18:06:23.74	247.09	5.91	-37.9	-39.4	25.5	3.02e+01	0	33	0	597164032	48	7150
2026-01-06 18:06:26.77	246.88	5.69	-38.1	-39.7	25.2	3.02e+01	0	33	0	602931200	50	6590
2026-01-06 18:06:29.80	246.67	5.48	-38.3	-39.9	25.0	3.02e+01	0	33	0	608174080	50	6771
2026-01-06 18:06:32.82	246.46	5.27	-38.7	-40.4	24.5	3.02e+01	0	33	0	613941248	50	7136
2026-01-06 18:06:35.85	246.25	5.06	-38.7	-40.4	24.4	3.02e+01	0	33	0	619708416	50	7128
2026-01-06 18:06:38.88	246.05	4.85	-39.0	-40.7	24.1	3.02e+01	0	33	0	625475584	52	6605
2026-01-06 18:06:41.90	245.85	4.64	-39.4	-41.1	23.5	3.02e+01	0	33	0	631242752	52	6955
2026-01-06 18:06:44.93	245.66	4.43	-39.6	-41.4	23.2	3.02e+01	0	33	0	636485632	52	7206
2026-01-06 18:06:47.96	245.47	4.23	-39.9	-41.8	22.8	3.02e+01	0	33	0	642252800	54	6674
2026-01-06 18:06:50.98	245.28	4.03	-40.4	-42.5	22.2	3.02e+01	0	33	0	648019968	54	7208
2026-01-06 18:06:54.02	245.09	3.82	-40.5	-42.6	21.9	3.02e+01	0	33	0	653787136	54	7341
2026-01-06 18:06:57.05	244.91	3.62	-40.9	-43.1	21.3	3.02e+01	0	33	0	659554304	56	6924
2026-01-06 18:07:00.08	244.73	3.42	-41.3	-43.7	20.7	3.02e+01	0	33	0	665321472	56	7399
2026-01-06 18:07:03.10	244.55	3.23	-41.8	-44.4	20.0	3.02e+01	0	33	0	671088640	56	8024
2026-01-06 18:07:06.13	244.38	3.03	-42.7	-45.8	18.4	3.02e+01	0	33	0	676331520	58	8434
2026-01-06 18:07:09.16	244.21	2.83	-48.7	-66.6	3.5	3.02e+01	0	33	104	676855808	60	81906
2026-01-06 18:07:12.19	244.04	2.64	-48.8	-66.7	3.5	3.02e+01	0	33	104	676855808	60	83374
2026-01-06 18:07:15.22	243.87	2.45	-48.8	-66.8	3.5	3.02e+01	0	33	104	676855808	60	83896
2026-01-06 18:07:18.25	243.71	2.26	-48.7	-66.6	3.5	3.02e+01	0	33	104	676855808	60	82617
2026-01-06 18:07:21.28	243.54	2.07	-48.6	-66.6	3.5	3.02e+01	0	33	104	676855808	60	82486
2026-01-06 18:07:24.31	243.38	1.88	-48.7	-66.6	3.5	3.02e+01	0	33	104	676855808	60	82675
2026-01-06 18:07:27.34	243.23	1.69	-48.7	-66.6	3.5	3.02e+01	0	33	104	676855808	60	82101
2026-01-06 18:07:30.36	243.07	1.50	-48.7	-66.6	3.5	3.02e+01	0	33	104	676855808	60	82163
2026-01-06 18:07:33.40	242.92	1.32	-48.7	-66.6	3.5	3.02e+01	0	33	104	676855808	60	82622
2026-01-06 18:07:36.43	242.77	1.13	-48.7	-66.7	3.5	3.02e+01	0	33	104	676855808	60	82759
2026-01-06 18:07:39.46	242.62	0.95	-48.7	-66.6	3.5	3.02e+01	0	33	104	676855808	60	82274
2026-01-06 18:07:42.49	242.47	0.77	-48.7	-66.6	3.5	3.02e+01	0	33	104	676855808	60	82412
2026-01-06 18:07:45.51	242.33	0.59	-48.7	-66.6	3.5	3.02e+01	0	33	104	676855808	60	82039
2026-01-06 18:07:48.55	242.19	0.40	-48.7	-66.6	3.5	3.02e+01	0	33	104	676855808	60	82383
2026-01-06 18:07:51.57	242.05	0.23	-48.7	-66.6	3.5	3.02e+01	0	33	104	676855808	60	82127
2026-01-06 18:07:54.60	241.91	0.05	-48.7	-66.6	3.5	3.02e+01	0	33	104	676855808	60	82168
2026-01-06 18:07:57.63	241.77	-0.13	-48.7	-66.6	3.5	3.02e+01	0	33	104	676855808	60	82167

#Closed at: 2026-01-06 18:07:57
#Recorded file [676 MB]: D:/lorett/data/35029_260107_055453.dat