passes_logs/2026/01/06/R4.6S_Anadyr/R4.6S_Anadyr__20260106_184015_FENGYUN_3E_rec.log

#Pass ID: 20260106_184015_FENGYUN 3E
#Satellite: FENGYUN 3E
#Configuration: FENGYUN 3E
#almurnet v.1.7.20251203
#Start time: 2026-01-06 18:40:17

#Version: 2.2.20231116
#Station: R4.6S_Anadyr
#Location: 177.4865 lon 64.73178 lat
#TLE: 1 49008U 21062A   26005.56299987  .00000339  00000+0  18069-3 0  9991
#TLE: 2 49008  98.7472  10.8019 0001562 158.0357 202.0886 14.19884907233502

#Time	Az	El	Level	Level2	SNR	BER	BlckErr	Temp	State	Recorded	gain1	gain2
2026-01-06 18:40:17.56	19.88	0.11	-48.7	-66.5	3.5	3.02e+01	0	30	0	0	60	80997
2026-01-06 18:40:21.60	19.94	0.35	-48.3	-59.6	3.6	8.45e-01	0	32	104	0	60	34514
2026-01-06 18:40:25.64	20.00	0.59	-48.4	-59.6	3.6	8.45e-01	0	32	104	0	60	34372
2026-01-06 18:40:29.68	20.05	0.84	-47.9	-59.2	3.6	8.45e-01	0	32	104	0	60	32889
2026-01-06 18:40:33.72	20.11	1.09	-47.0	-58.1	3.6	8.45e-01	0	32	104	0	60	28897
2026-01-06 18:40:37.75	20.17	1.33	-46.8	-57.7	3.6	8.46e-01	0	32	104	0	60	27634
2026-01-06 18:40:41.80	20.23	1.59	-46.8	-57.8	3.6	8.44e-01	0	32	104	0	60	28044
2026-01-06 18:40:45.83	20.30	1.84	-46.8	-57.9	3.6	8.45e-01	0	32	104	0	60	28473
2026-01-06 18:40:49.87	20.36	2.10	-46.8	-58.0	3.6	8.45e-01	0	32	104	0	60	28673
2026-01-06 18:40:53.91	20.42	2.35	-46.5	-55.4	3.6	8.44e-01	0	32	104	0	60	21267
2026-01-06 18:40:57.95	20.48	2.61	-46.3	-52.7	4.0	8.27e-01	0	32	0	0	60	15516
2026-01-06 18:41:01.98	20.55	2.88	-44.1	-47.1	9.6	1.77e-02	0	33	0	11534336	60	8192
2026-01-06 18:41:06.02	20.61	3.14	-39.0	-40.2	16.9	0.00e+00	0	33	0	40894464	52	5864
2026-01-06 18:41:10.06	20.68	3.41	-37.8	-38.9	18.2	0.00e+00	0	32	0	69206016	48	6327
2026-01-06 18:41:14.10	20.75	3.68	-41.3	-43.0	13.9	0.00e+00	0	33	0	98566144	54	7197
2026-01-06 18:41:18.15	20.82	3.95	-46.9	-57.6	3.6	5.11e-01	0	33	104	126877696	60	27396
2026-01-06 18:41:22.18	20.88	4.23	-38.5	-39.6	17.3	0.00e+00	0	32	0	128974848	50	6138
2026-01-06 18:41:26.22	20.95	4.51	-37.5	-38.5	18.9	0.00e+00	0	32	0	158334976	48	6042
2026-01-06 18:41:30.26	21.02	4.79	-36.2	-37.0	20.5	0.00e+00	0	33	0	187695104	46	5712
2026-01-06 18:41:34.30	21.10	5.07	-33.9	-34.6	22.7	0.00e+00	0	33	0	216006656	40	6136
2026-01-06 18:41:38.34	21.17	5.36	-33.7	-34.4	22.7	0.00e+00	0	33	0	245366784	40	6030
2026-01-06 18:41:42.38	21.24	5.65	-33.4	-34.1	23.3	0.00e+00	0	33	0	274726912	40	5765
2026-01-06 18:41:46.42	21.32	5.94	-33.2	-33.9	23.4	0.00e+00	0	33	0	304087040	40	5682
2026-01-06 18:41:50.46	21.39	6.24	-33.1	-33.8	23.5	0.00e+00	0	33	0	333447168	40	5568
2026-01-06 18:41:54.50	21.47	6.54	-32.9	-33.6	23.7	0.00e+00	0	33	0	361758720	40	5460
2026-01-06 18:41:58.54	21.55	6.85	-32.9	-33.6	23.9	0.00e+00	0	33	0	391118848	40	5445
2026-01-06 18:42:02.58	21.63	7.15	-33.0	-33.6	23.8	0.00e+00	0	33	0	420478976	38	6165
2026-01-06 18:42:06.61	21.71	7.47	-32.7	-33.4	24.1	0.00e+00	0	33	0	449839104	38	5980
2026-01-06 18:42:10.65	21.79	7.78	-32.5	-33.2	24.3	0.00e+00	0	33	0	479199232	38	5863
2026-01-06 18:42:14.69	21.88	8.10	-32.8	-33.4	24.1	0.00e+00	0	33	0	508559360	38	6032
2026-01-06 18:42:18.73	21.96	8.42	-32.6	-33.2	24.3	0.00e+00	0	33	0	536870912	38	5876
2026-01-06 18:42:22.77	22.05	8.75	-32.2	-32.9	24.6	0.00e+00	0	33	0	566231040	38	5644
2026-01-06 18:42:26.81	22.14	9.08	-32.2	-32.9	24.6	0.00e+00	0	33	0	595591168	38	5650
2026-01-06 18:42:30.85	22.23	9.42	-32.1	-32.8	24.6	0.00e+00	0	33	0	624951296	38	5575
2026-01-06 18:42:34.89	22.32	9.76	-32.0	-32.6	24.9	0.00e+00	0	33	0	654311424	38	5497
2026-01-06 18:42:38.92	22.42	10.11	-32.0	-32.7	24.9	0.00e+00	0	33	0	682622976	38	5504
2026-01-06 18:42:42.96	22.51	10.46	-32.0	-32.6	24.9	0.00e+00	0	33	0	711983104	38	5478
2026-01-06 18:42:47.00	22.61	10.81	-32.1	-32.7	24.9	0.00e+00	0	33	0	741343232	36	6239
2026-01-06 18:42:51.04	22.71	11.17	-32.0	-32.6	25.0	0.00e+00	0	33	0	770703360	36	6170
2026-01-06 18:42:55.08	22.81	11.54	-31.7	-32.4	25.2	0.00e+00	0	33	0	800063488	36	5975
2026-01-06 18:42:59.11	22.91	11.91	-31.6	-32.2	25.4	0.00e+00	0	33	0	828375040	36	5880
2026-01-06 18:43:03.15	23.02	12.29	-31.4	-32.0	25.6	0.00e+00	0	33	0	857735168	36	5722
2026-01-06 18:43:07.19	23.13	12.67	-31.4	-32.0	25.6	0.00e+00	0	33	0	887095296	36	5744
2026-01-06 18:43:11.23	23.24	13.06	-30.9	-31.5	26.0	0.00e+00	0	33	0	916455424	36	5431
2026-01-06 18:43:15.27	23.35	13.45	-30.9	-31.5	26.0	0.00e+00	0	33	0	944766976	36	5434
2026-01-06 18:43:19.30	23.47	13.85	-30.7	-31.3	26.2	0.00e+00	0	33	0	974127104	34	5936
2026-01-06 18:43:23.34	23.58	14.26	-30.4	-31.1	26.2	0.00e+00	0	33	0	1003487232	34	5762
2026-01-06 18:43:27.38	23.71	14.68	-30.5	-31.1	26.4	0.00e+00	0	33	0	1032847360	34	5787
2026-01-06 18:43:31.42	23.83	15.10	-30.1	-30.7	26.7	0.00e+00	0	33	0	1062207488	34	5566
2026-01-06 18:43:35.46	23.96	15.53	-30.1	-30.7	26.7	0.00e+00	0	33	0	1090519040	34	5531
2026-01-06 18:43:39.50	24.09	15.97	-30.4	-31.0	26.6	0.00e+00	0	33	0	1119879168	34	5700
2026-01-06 18:43:43.54	24.22	16.41	-30.1	-30.7	26.8	0.00e+00	0	33	0	1149239296	34	5515
2026-01-06 18:43:47.58	24.36	16.87	-30.0	-30.6	26.9	0.00e+00	0	33	0	1178599424	34	5470
2026-01-06 18:43:51.62	24.50	17.33	-30.1	-30.7	26.9	0.00e+00	0	33	0	1207959552	34	5510
2026-01-06 18:43:55.66	24.64	17.80	-29.9	-30.5	26.8	0.00e+00	0	33	0	1237319680	32	6091
2026-01-06 18:43:59.69	24.79	18.28	-29.8	-30.4	27.2	0.00e+00	0	33	0	1265631232	32	5971
2026-01-06 18:44:03.73	24.95	18.77	-29.6	-30.2	27.2	0.00e+00	0	33	0	1294991360	32	5847
2026-01-06 18:44:07.77	25.10	19.27	-29.3	-29.9	27.5	0.00e+00	0	33	0	1324351488	32	5676
2026-01-06 18:44:11.81	25.27	19.78	-29.2	-29.8	27.5	0.00e+00	0	33	0	1353711616	32	5616
2026-01-06 18:44:15.85	25.43	20.30	-29.2	-29.8	27.5	0.00e+00	0	33	0	1383071744	32	5576
2026-01-06 18:44:19.88	25.61	20.83	-29.2	-29.7	27.5	0.00e+00	0	33	0	1411383296	32	5554
2026-01-06 18:44:23.92	25.78	21.37	-29.1	-29.7	27.5	0.00e+00	0	33	0	1440743424	32	5549
2026-01-06 18:44:27.96	25.97	21.93	-29.1	-29.7	27.6	0.00e+00	0	33	0	1470103552	32	5524
2026-01-06 18:44:32.00	26.16	22.49	-29.1	-29.7	27.6	0.00e+00	0	33	0	1499463680	32	5531
2026-01-06 18:44:36.04	26.35	23.07	-29.4	-30.0	27.4	0.00e+00	0	33	0	1528823808	32	5701
2026-01-06 18:44:40.07	26.56	23.66	-29.1	-29.7	27.6	0.00e+00	0	33	0	1558183936	32	5552
2026-01-06 18:44:44.11	26.77	24.27	-29.0	-29.6	27.7	0.00e+00	0	33	0	1586495488	32	5441
2026-01-06 18:44:48.15	26.99	24.88	-28.9	-29.5	27.8	0.00e+00	0	33	0	1615855616	32	5386
2026-01-06 18:44:52.19	27.21	25.52	-28.6	-29.2	28.1	0.00e+00	0	33	0	1645215744	30	5880
2026-01-06 18:44:56.23	27.45	26.17	-28.6	-29.1	28.1	0.00e+00	0	33	0	1674575872	30	5821
2026-01-06 18:45:00.28	27.69	26.83	-28.4	-29.0	28.1	0.00e+00	0	33	0	1703936000	30	5751
2026-01-06 18:45:04.31	27.95	27.51	-28.3	-28.9	28.3	0.00e+00	0	33	0	1732247552	30	5657
2026-01-06 18:45:08.35	28.21	28.21	-28.4	-29.0	28.3	0.00e+00	0	33	0	1761607680	30	5696
2026-01-06 18:45:12.39	28.48	28.92	-28.4	-29.0	28.1	0.00e+00	0	33	0	1790967808	30	5726
2026-01-06 18:45:16.43	28.77	29.66	-28.3	-28.9	28.4	0.00e+00	0	33	0	1820327936	30	5647
2026-01-06 18:45:20.47	29.07	30.41	-27.9	-28.5	28.6	0.00e+00	0	33	0	1848639488	30	5411
2026-01-06 18:45:24.51	29.39	31.18	-27.9	-28.5	28.6	0.00e+00	0	33	0	1877999616	30	5406
2026-01-06 18:45:28.55	29.71	31.97	-28.5	-29.0	28.1	0.00e+00	0	33	0	1907359744	30	5754
2026-01-06 18:45:32.58	30.06	32.78	-28.4	-28.9	28.3	0.00e+00	0	33	0	1936719872	30	5687
2026-01-06 18:45:36.63	30.42	33.62	-28.3	-28.8	28.3	0.00e+00	0	33	0	1966080000	30	5621
2026-01-06 18:45:40.66	30.80	34.47	-28.4	-29.0	28.2	0.00e+00	0	33	0	1994391552	30	5699
2026-01-06 18:45:44.70	31.20	35.35	-28.5	-29.1	28.2	0.00e+00	0	33	0	2023751680	30	5785
2026-01-06 18:45:48.74	31.62	36.25	-28.3	-28.9	28.5	0.00e+00	0	33	0	2053111808	30	5646
2026-01-06 18:45:52.78	32.06	37.18	-28.4	-29.0	28.1	0.00e+00	0	33	0	2082471936	30	5738
2026-01-06 18:45:56.81	32.53	38.13	-28.6	-29.2	28.1	0.00e+00	0	33	0	2111832064	30	5862
2026-01-06 18:46:00.86	33.03	39.10	-28.4	-29.0	28.3	0.00e+00	0	33	0	2140143616	30	5748
2026-01-06 18:46:04.89	33.55	40.11	-28.7	-29.3	28.1	0.00e+00	0	33	0	2169503744	30	5909
2026-01-06 18:46:08.93	34.11	41.13	-28.6	-29.1	28.2	0.00e+00	0	33	0	2198863872	30	5811
2026-01-06 18:46:12.97	34.71	42.19	-28.6	-29.2	28.1	0.00e+00	0	33	0	2228224000	30	5830
2026-01-06 18:46:17.01	35.35	43.28	-28.5	-29.0	28.3	0.00e+00	0	33	0	2257584128	30	5760
2026-01-06 18:46:21.05	36.03	44.39	-29.4	-30.0	27.5	0.00e+00	0	33	0	2286944256	30	6419
2026-01-06 18:46:25.09	36.75	45.53	-29.3	-29.9	27.6	0.00e+00	0	33	0	2315255808	32	5668
2026-01-06 18:46:29.13	37.54	46.70	-29.1	-29.7	27.7	0.00e+00	0	33	0	2344615936	30	6187
2026-01-06 18:46:33.17	38.38	47.89	-29.3	-29.8	27.7	0.00e+00	0	33	0	2373976064	32	5628
2026-01-06 18:46:37.21	39.29	49.11	-29.8	-30.4	27.2	0.00e+00	0	33	0	2403336192	32	5985
2026-01-06 18:46:41.25	40.27	50.36	-30.2	-30.9	26.9	0.00e+00	0	34	0	2432696320	32	6330
2026-01-06 18:46:45.29	41.34	51.64	-29.9	-30.5	27.1	0.00e+00	0	33	0	2461007872	32	6072
2026-01-06 18:46:49.33	42.50	52.94	-29.7	-30.3	27.0	0.00e+00	0	33	0	2490368000	32	5924
2026-01-06 18:46:53.37	43.78	54.26	-30.2	-30.8	27.0	0.00e+00	0	33	0	2519728128	32	6264
2026-01-06 18:46:57.41	45.17	55.60	-30.1	-30.7	27.0	0.00e+00	0	33	0	2549088256	32	6199
2026-01-06 18:47:01.45	46.70	56.95	-29.8	-30.3	27.2	0.00e+00	0	33	0	2578448384	32	5952
2026-01-06 18:47:05.48	48.39	58.32	-29.9	-30.5	26.9	0.00e+00	0	34	0	2607808512	32	6077
2026-01-06 18:47:09.52	50.26	59.69	-29.9	-30.5	27.5	0.00e+00	0	33	0	2636120064	32	6085
2026-01-06 18:47:13.56	52.34	61.07	-29.6	-30.2	27.4	0.00e+00	0	33	0	2665480192	32	5868
2026-01-06 18:47:17.60	54.66	62.44	-29.2	-29.8	27.9	0.00e+00	0	33	0	2694840320	32	5575
2026-01-06 18:47:21.64	57.25	63.79	-29.1	-29.6	27.6	0.00e+00	0	33	0	2724200448	32	5491
2026-01-06 18:47:25.68	60.15	65.11	-28.9	-29.5	28.0	0.00e+00	0	33	0	2753560576	30	6074
2026-01-06 18:47:29.71	63.41	66.39	-28.6	-29.2	28.1	0.00e+00	0	33	0	2781872128	30	5866
2026-01-06 18:47:33.75	67.07	67.61	-28.5	-29.1	28.0	0.00e+00	0	33	0	2811232256	30	5798
2026-01-06 18:47:37.79	71.18	68.76	-28.6	-29.2	27.9	0.00e+00	0	33	0	2840592384	30	5876
2026-01-06 18:47:41.83	75.78	69.81	-28.9	-29.5	27.9	0.00e+00	0	33	0	2869952512	30	6086
2026-01-06 18:47:45.87	80.88	70.73	-28.9	-29.5	27.9	0.00e+00	0	33	0	2898264064	30	6040
2026-01-06 18:47:49.91	86.48	71.51	-29.4	-30.0	27.6	0.00e+00	0	33	0	2927624192	30	6452
2026-01-06 18:47:53.95	92.54	72.11	-28.9	-29.5	27.8	0.00e+00	0	33	0	2956984320	30	6070
2026-01-06 18:47:57.99	98.97	72.51	-28.8	-29.4	27.9	0.00e+00	0	33	0	2986344448	30	6019
2026-01-06 18:48:02.03	105.63	72.69	-29.0	-29.6	27.5	0.00e+00	0	33	0	3015704576	30	6168
2026-01-06 18:48:06.06	112.33	72.65	-28.7	-29.3	27.8	0.00e+00	0	33	0	3044016128	30	5948
2026-01-06 18:48:10.10	118.93	72.39	-28.7	-29.3	27.8	0.00e+00	0	33	0	3073376256	30	5940
2026-01-06 18:48:14.14	125.25	71.92	-28.7	-29.3	27.4	0.00e+00	0	33	0	3102736384	30	5927
2026-01-06 18:48:18.18	131.17	71.26	-28.6	-29.1	28.1	0.00e+00	0	33	0	3132096512	30	5816
2026-01-06 18:48:22.22	136.60	70.43	-29.0	-29.5	27.9	0.00e+00	0	33	0	3161456640	30	6085
2026-01-06 18:48:26.25	141.52	69.46	-28.5	-29.1	28.1	0.00e+00	0	33	0	3189768192	30	5812
2026-01-06 18:48:30.29	145.95	68.37	-28.5	-29.1	28.2	0.00e+00	0	33	0	3219128320	30	5784
2026-01-06 18:48:34.33	149.91	67.20	-28.6	-29.2	28.2	0.00e+00	0	33	0	3248488448	30	5863
2026-01-06 18:48:38.37	153.44	65.95	-28.2	-28.8	28.4	0.00e+00	0	33	0	3277848576	30	5587
2026-01-06 18:48:42.41	156.58	64.65	-28.7	-29.3	28.0	0.00e+00	0	33	0	3307208704	30	5927
2026-01-06 18:48:46.45	159.37	63.31	-29.2	-29.8	27.4	0.00e+00	0	33	0	3335520256	30	6256
2026-01-06 18:48:50.48	161.86	61.95	-29.2	-29.8	27.8	0.00e+00	0	33	0	3364880384	30	6246
2026-01-06 18:48:54.52	164.10	60.58	-29.7	-30.3	27.3	0.00e+00	0	33	0	3394240512	30	6638
2026-01-06 18:48:58.56	166.10	59.20	-30.2	-30.9	26.8	0.00e+00	0	33	0	3423600640	32	6328
2026-01-06 18:49:02.60	167.91	57.82	-30.2	-30.8	26.9	0.00e+00	0	33	0	3452960768	32	6287
2026-01-06 18:49:06.64	169.55	56.45	-30.1	-30.7	26.9	0.00e+00	0	33	0	3482320896	32	6214
2026-01-06 18:49:10.68	171.03	55.09	-30.3	-30.9	26.0	0.00e+00	0	33	0	3510632448	32	6364
2026-01-06 18:49:14.72	172.38	53.76	-29.7	-30.3	27.3	0.00e+00	0	33	0	3539992576	32	5957
2026-01-06 18:49:18.76	173.61	52.44	-29.5	-30.1	27.2	0.00e+00	0	33	0	3569352704	32	5797
2026-01-06 18:49:22.80	174.74	51.14	-29.3	-29.9	27.4	0.00e+00	0	33	0	3598712832	32	5647
2026-01-06 18:49:26.84	175.78	49.87	-29.9	-30.5	26.9	0.00e+00	0	33	0	3628072960	32	6062
2026-01-06 18:49:30.88	176.74	48.63	-29.5	-30.1	27.5	0.00e+00	0	33	0	3656384512	32	5789
2026-01-06 18:49:34.92	177.62	47.41	-30.2	-30.9	26.6	0.00e+00	0	33	0	3685744640	32	6340
2026-01-06 18:49:38.96	178.44	46.22	-29.1	-29.7	27.7	0.00e+00	0	33	0	3715104768	32	5531
2026-01-06 18:49:42.99	179.20	45.06	-28.8	-29.4	27.7	0.00e+00	0	33	0	3744464896	30	5995
2026-01-06 18:49:47.03	179.91	43.92	-28.1	-28.6	28.4	0.00e+00	0	33	0	3773825024	30	5497
2026-01-06 18:49:51.07	180.58	42.82	-28.4	-28.9	28.4	0.00e+00	0	33	0	3802136576	30	5691
2026-01-06 18:49:55.10	181.20	41.74	-28.5	-29.1	27.6	0.00e+00	0	33	0	3831496704	30	5810
2026-01-06 18:49:59.14	181.78	40.69	-28.7	-29.3	27.3	0.00e+00	0	33	0	3860856832	30	5915
2026-01-06 18:50:03.18	182.33	39.66	-28.4	-28.9	27.4	0.00e+00	0	33	0	3890216960	30	5692
2026-01-06 18:50:07.22	182.84	38.67	-28.4	-29.0	27.7	0.00e+00	0	33	0	3918528512	30	5735
2026-01-06 18:50:11.26	183.33	37.70	-28.6	-29.2	27.9	0.00e+00	0	33	0	3947888640	30	5879
2026-01-06 18:50:15.29	183.79	36.75	-28.5	-29.1	28.1	0.00e+00	0	33	0	3977248768	30	5784
2026-01-06 18:50:19.33	184.22	35.83	-28.3	-28.8	28.1	0.00e+00	0	33	0	4006608896	30	5620
2026-01-06 18:50:23.37	184.64	34.93	-28.4	-29.0	27.4	0.00e+00	0	33	0	4035969024	30	5705
2026-01-06 18:50:27.41	185.03	34.06	-28.3	-28.9	28.3	0.00e+00	0	33	0	4064280576	30	5654
2026-01-06 18:50:31.45	185.40	33.21	-28.1	-28.7	28.4	0.00e+00	0	34	0	4093640704	30	5532
2026-01-06 18:50:35.49	185.75	32.38	-27.9	-28.5	28.7	0.00e+00	0	34	0	4123000832	30	5387
2026-01-06 18:50:39.53	186.09	31.57	-28.0	-28.7	28.5	0.00e+00	0	33	0	4152360960	30	5506
2026-01-06 18:50:43.57	186.41	30.78	-28.3	-28.9	28.4	0.00e+00	0	34	0	4181721088	30	5678
2026-01-06 18:50:47.61	186.72	30.02	-28.6	-29.2	28.1	0.00e+00	0	34	0	4210032640	30	5833
2026-01-06 18:50:51.64	187.01	29.27	-28.4	-29.0	28.3	0.00e+00	0	34	0	4239392768	30	5711
2026-01-06 18:50:55.68	187.29	28.54	-28.5	-29.1	28.3	0.00e+00	0	34	0	4268752896	30	5771
2026-01-06 18:50:59.72	187.56	27.83	-28.6	-29.2	27.5	0.00e+00	0	34	0	4298113024	30	5881
2026-01-06 18:51:03.75	187.82	27.14	-28.7	-29.3	27.6	0.00e+00	0	33	0	4327473152	30	5930
2026-01-06 18:51:07.79	188.07	26.46	-28.7	-29.3	28.0	0.00e+00	0	33	0	4356833280	30	5920
2026-01-06 18:51:11.83	188.31	25.80	-28.7	-29.3	28.0	0.00e+00	0	33	0	4385144832	30	5946
2026-01-06 18:51:15.87	188.54	25.15	-28.5	-29.1	28.1	0.00e+00	0	33	0	4414504960	30	5814
2026-01-06 18:51:19.91	188.76	24.52	-28.5	-29.1	28.2	0.00e+00	0	34	0	4443865088	30	5815
2026-01-06 18:51:23.95	188.98	23.91	-28.6	-29.2	28.0	0.00e+00	0	34	0	4473225216	30	5849
2026-01-06 18:51:27.98	189.18	23.31	-28.6	-29.2	27.6	0.00e+00	0	34	0	4502585344	30	5858
2026-01-06 18:51:32.02	189.38	22.72	-28.6	-29.2	27.9	0.00e+00	0	33	0	4530896896	30	5860
2026-01-06 18:51:36.06	189.57	22.14	-28.6	-29.2	27.9	0.00e+00	0	34	0	4560257024	30	5870
2026-01-06 18:51:40.10	189.76	21.58	-28.9	-29.5	27.8	0.00e+00	0	33	0	4589617152	30	6063
2026-01-06 18:51:44.14	189.94	21.03	-29.0	-29.6	27.7	0.00e+00	0	33	0	4618977280	30	6138
2026-01-06 18:51:48.18	190.11	20.49	-29.2	-29.8	27.5	0.00e+00	0	34	0	4648337408	30	6246
2026-01-06 18:51:52.21	190.28	19.96	-29.3	-29.9	27.5	0.00e+00	0	34	0	4676648960	30	6361
2026-01-06 18:51:56.25	190.45	19.44	-29.6	-30.2	27.3	0.00e+00	0	33	0	4706009088	30	6552
2026-01-06 18:52:00.29	190.60	18.93	-29.7	-30.3	27.2	0.00e+00	0	33	0	4735369216	30	6671
2026-01-06 18:52:04.33	190.76	18.44	-29.6	-30.3	27.1	0.00e+00	0	34	0	4764729344	32	5900
2026-01-06 18:52:08.37	190.91	17.95	-29.8	-30.4	27.0	0.00e+00	0	34	0	4793040896	32	6032
2026-01-06 18:52:12.41	191.05	17.47	-29.7	-30.3	27.1	0.00e+00	0	34	0	4822401024	32	5953
2026-01-06 18:52:16.45	191.19	17.00	-30.0	-30.6	26.9	0.00e+00	0	34	0	4851761152	32	6170
2026-01-06 18:52:20.49	191.33	16.54	-30.1	-30.7	26.9	0.00e+00	0	34	0	4881121280	32	6182
2026-01-06 18:52:24.53	191.46	16.09	-30.2	-30.8	26.4	0.00e+00	0	34	0	4910481408	32	6270
2026-01-06 18:52:28.57	191.59	15.64	-30.4	-31.1	26.3	0.00e+00	0	34	0	4938792960	32	6476
2026-01-06 18:52:32.60	191.72	15.21	-30.7	-31.3	26.3	0.00e+00	0	34	0	4968153088	32	6630
2026-01-06 18:52:36.65	191.85	14.78	-30.8	-31.4	26.2	0.00e+00	0	34	0	4997513216	34	6004
2026-01-06 18:52:40.69	191.97	14.36	-30.9	-31.5	26.0	0.00e+00	0	33	0	5026873344	34	6103
2026-01-06 18:52:44.72	192.08	13.94	-31.0	-31.7	26.0	0.00e+00	0	33	0	5056233472	34	6184
2026-01-06 18:52:48.76	192.20	13.54	-31.2	-31.8	25.9	0.00e+00	0	34	0	5085593600	34	6300
2026-01-06 18:52:52.80	192.31	13.14	-31.4	-32.1	25.4	0.00e+00	0	33	0	5113905152	34	6479
2026-01-06 18:52:56.84	192.42	12.74	-31.5	-32.1	25.5	0.00e+00	0	33	0	5143265280	34	6534
2026-01-06 18:53:00.88	192.53	12.35	-31.5	-32.1	25.5	0.00e+00	0	33	0	5172625408	34	6514
2026-01-06 18:53:04.91	192.63	11.97	-31.5	-32.2	25.5	0.00e+00	0	33	0	5201985536	34	6564
2026-01-06 18:53:08.95	192.73	11.60	-31.6	-32.2	25.3	0.00e+00	0	34	0	5231345664	36	5896
2026-01-06 18:53:12.99	192.83	11.23	-31.8	-32.4	25.3	0.00e+00	0	34	0	5259657216	36	5992
2026-01-06 18:53:17.03	192.93	10.86	-32.0	-32.7	25.0	0.00e+00	0	33	0	5289017344	36	6175
2026-01-06 18:53:21.07	193.03	10.50	-32.0	-32.7	25.0	0.00e+00	0	34	0	5318377472	36	6181
2026-01-06 18:53:25.10	193.12	10.15	-32.0	-32.6	25.0	0.00e+00	0	34	0	5347737600	36	6161
2026-01-06 18:53:29.14	193.21	9.80	-32.1	-32.8	24.8	0.00e+00	0	33	0	5377097728	36	6282
2026-01-06 18:53:33.19	193.30	9.45	-32.2	-32.8	24.7	0.00e+00	0	34	0	5405409280	36	6300
2026-01-06 18:53:37.23	193.39	9.11	-32.3	-32.9	24.6	0.00e+00	0	34	0	5434769408	36	6381
2026-01-06 18:53:41.26	193.48	8.78	-32.4	-33.1	24.6	0.00e+00	0	34	0	5464129536	36	6495
2026-01-06 18:53:45.31	193.56	8.44	-32.6	-33.2	24.3	0.00e+00	0	34	0	5493489664	36	6613
2026-01-06 18:53:49.35	193.64	8.12	-32.8	-33.5	24.2	0.00e+00	0	34	0	5522849792	38	6052
2026-01-06 18:53:53.39	193.73	7.79	-32.9	-33.5	24.0	0.00e+00	0	33	0	5552209920	38	6092
2026-01-06 18:53:57.43	193.81	7.48	-32.9	-33.6	23.8	0.00e+00	0	34	0	5580521472	38	6154
2026-01-06 18:54:01.46	193.88	7.16	-33.0	-33.7	23.8	0.00e+00	0	34	0	5609881600	38	6200
2026-01-06 18:54:05.50	193.96	6.85	-33.2	-33.9	23.7	0.00e+00	0	34	0	5639241728	38	6321
2026-01-06 18:54:09.54	194.04	6.54	-33.4	-34.1	23.4	0.00e+00	0	34	0	5668601856	38	6517
2026-01-06 18:54:13.58	194.11	6.24	-33.3	-34.0	23.5	0.00e+00	0	34	0	5697961984	38	6446
2026-01-06 18:54:17.62	194.19	5.94	-33.5	-34.2	23.2	0.00e+00	0	33	0	5726273536	38	6593
2026-01-06 18:54:21.65	194.26	5.64	-33.6	-34.2	23.2	0.00e+00	0	33	0	5755633664	38	6609
2026-01-06 18:54:25.69	194.33	5.35	-33.7	-34.4	23.0	0.00e+00	0	33	0	5784993792	40	5977
2026-01-06 18:54:29.73	194.40	5.06	-33.7	-34.4	22.8	0.00e+00	0	33	0	5814353920	40	6032
2026-01-06 18:54:33.76	194.47	4.77	-33.9	-34.6	22.7	0.00e+00	0	34	0	5842665472	40	6137
2026-01-06 18:54:37.80	194.54	4.49	-34.0	-34.7	22.6	0.00e+00	0	34	0	5872025600	40	6224
2026-01-06 18:54:41.84	194.60	4.21	-34.3	-35.1	22.1	0.00e+00	0	33	0	5901385728	40	6480
2026-01-06 18:54:45.88	194.67	3.93	-34.1	-34.8	22.2	0.00e+00	0	34	0	5930745856	40	6281
2026-01-06 18:54:49.92	194.73	3.65	-34.5	-35.2	21.9	0.00e+00	0	34	0	5960105984	40	6608
2026-01-06 18:54:53.95	194.80	3.38	-34.8	-35.5	21.5	0.00e+00	0	34	0	5988417536	40	6819
2026-01-06 18:54:57.99	194.86	3.11	-34.7	-35.5	21.5	0.00e+00	0	34	0	6017777664	42	6077
2026-01-06 18:55:02.03	194.92	2.84	-47.9	-59.2	3.6	8.45e-01	0	34	104	6030360576	60	32930
2026-01-06 18:55:06.07	194.98	2.58	-48.2	-59.5	3.6	8.45e-01	0	34	104	6030360576	60	34290
2026-01-06 18:55:10.11	195.04	2.32	-48.4	-59.7	3.6	8.44e-01	0	34	104	6030360576	60	34878
2026-01-06 18:55:14.15	195.10	2.06	-48.2	-59.6	3.6	8.46e-01	0	34	104	6030360576	60	34370
2026-01-06 18:55:18.19	195.16	1.80	-48.3	-59.6	3.6	8.45e-01	0	34	104	6030360576	60	34367
2026-01-06 18:55:22.22	195.22	1.54	-48.3	-59.5	3.6	8.45e-01	0	34	104	6030360576	60	34321
2026-01-06 18:55:26.26	195.27	1.29	-48.3	-59.5	3.5	8.47e-01	0	34	104	6030360576	60	34312
2026-01-06 18:55:30.30	195.33	1.04	-48.3	-59.5	3.6	8.45e-01	0	34	104	6030360576	60	34251
2026-01-06 18:55:34.34	195.39	0.79	-48.3	-59.5	3.6	8.45e-01	0	34	104	6030360576	60	34147
2026-01-06 18:55:38.38	195.44	0.54	-48.3	-59.5	3.6	8.45e-01	0	34	104	6030360576	60	34149
2026-01-06 18:55:42.42	195.49	0.30	-48.3	-59.5	3.6	8.45e-01	0	34	104	6030360576	60	34263
2026-01-06 18:55:46.46	195.55	0.05	-48.3	-59.5	3.6	8.45e-01	0	34	104	6030360576	60	34134

#Closed at: 2026-01-06 18:55:48
#Recorded file [6030 MB]: D:/lorett/data/35029_260107_064017.dat