passes_logs/2026/01/06/R4.6S_Anadyr/R4.6S_Anadyr__20260106_161719_AQUA_rec.log

#Pass ID: 20260106_161719_AQUA
#Satellite: AQUA
#Configuration: AQUA
#almurnet v.1.7.20251203
#Start time: 2026-01-06 16:17:22

#Version: 2.2.20231116
#Station: R4.6S_Anadyr
#Location: 177.4865 lon 64.73178 lat
#TLE: 1 27424U 02022A   26004.96787593  .00001598  00000+0  32997-3 0  9996
#TLE: 2 27424  98.4069 331.2279 0002002  90.2377   0.6092 14.61798176259425

#Time	Az	El	Level	Level2	SNR	BER	BlckErr	Temp	State	Recorded	gain1	gain2
2026-01-06 16:17:22.34	19.77	0.16	-48.4	-63.3	3.5	1.51e+00	0	32	0	0	60	53111
2026-01-06 16:17:26.37	19.80	0.41	-48.8	-66.7	3.5	3.02e+01	0	33	104	0	60	83463
2026-01-06 16:17:30.41	19.83	0.66	-48.7	-66.7	3.5	3.02e+01	0	33	104	0	60	83612
2026-01-06 16:17:34.45	19.86	0.92	-48.5	-66.4	3.5	3.02e+01	0	33	104	0	60	80330
2026-01-06 16:17:38.50	19.89	1.18	-47.5	-65.0	3.5	3.02e+01	0	33	104	0	60	68135
2026-01-06 16:17:42.53	19.92	1.43	-47.5	-65.2	3.5	3.02e+01	0	33	104	0	60	70428
2026-01-06 16:17:46.57	19.95	1.70	-47.5	-64.6	3.5	3.02e+01	0	33	104	0	60	65195
2026-01-06 16:17:50.61	19.98	1.96	-47.5	-64.9	3.5	3.02e+01	0	33	104	0	60	67344
2026-01-06 16:17:54.65	20.01	2.23	-47.5	-65.2	3.5	3.02e+01	0	33	104	0	60	70169
2026-01-06 16:17:58.69	20.04	2.50	-47.4	-63.7	3.5	3.02e+01	0	34	104	0	60	58819
2026-01-06 16:18:02.73	20.07	2.77	-47.2	-58.1	6.0	3.02e+01	91	34	0	524288	60	30917
2026-01-06 16:18:06.76	20.10	3.05	-46.9	-56.0	8.0	3.02e+01	71	34	0	7864320	60	24203
2026-01-06 16:18:10.80	20.14	3.33	-44.1	-47.7	17.2	3.02e+01	60	34	0	15728640	60	9327
2026-01-06 16:18:14.84	20.17	3.61	-42.3	-44.8	20.2	3.02e+01	60	34	0	23068672	60	6651
2026-01-06 16:18:18.88	20.20	3.90	-44.7	-48.8	16.0	3.02e+01	57	34	0	30408704	60	10586
2026-01-06 16:18:22.91	20.23	4.18	-47.3	-59.6	3.9	3.02e+01	0	34	104	37748736	60	36542
2026-01-06 16:18:26.96	20.27	4.48	-37.9	-39.4	25.5	3.02e+01	58	34	0	41418752	50	6405
2026-01-06 16:18:30.99	20.30	4.77	-37.0	-38.4	26.4	3.02e+01	59	34	0	48758784	48	6419
2026-01-06 16:18:35.02	20.34	5.07	-36.9	-38.3	26.6	3.02e+01	61	34	0	56623104	48	6282
2026-01-06 16:18:39.06	20.37	5.38	-36.8	-38.2	26.8	3.02e+01	58	34	0	63963136	48	6233
2026-01-06 16:18:43.10	20.41	5.68	-36.5	-37.9	27.0	3.02e+01	61	34	0	71827456	48	6012
2026-01-06 16:18:47.14	20.44	6.00	-36.3	-37.7	27.2	3.02e+01	59	34	0	79167488	48	5873
2026-01-06 16:18:51.18	20.48	6.31	-36.2	-37.6	27.4	3.02e+01	59	34	0	86507520	48	5800
2026-01-06 16:18:55.21	20.51	6.63	-36.4	-37.7	27.3	3.02e+01	53	34	0	94371840	48	5912
2026-01-06 16:18:59.25	20.55	6.96	-36.3	-37.6	27.4	3.02e+01	59	34	0	101711872	48	5853
2026-01-06 16:19:03.28	20.59	7.29	-36.1	-37.4	27.6	3.02e+01	61	34	0	109576192	48	5714
2026-01-06 16:19:07.32	20.62	7.62	-36.2	-37.6	27.6	3.02e+01	62	34	0	116916224	48	5792
2026-01-06 16:19:11.36	20.66	7.96	-36.0	-37.3	27.8	3.02e+01	59	34	0	124780544	46	6285
2026-01-06 16:19:15.39	20.70	8.30	-35.8	-37.1	28.0	3.02e+01	59	34	0	132120576	46	6189
2026-01-06 16:19:19.43	20.74	8.65	-35.7	-36.9	28.1	3.02e+01	60	34	0	139460608	46	6062
2026-01-06 16:19:23.46	20.78	9.01	-35.6	-36.9	28.2	3.02e+01	53	34	0	147324928	46	6009
2026-01-06 16:19:27.50	20.82	9.37	-35.5	-36.7	28.4	3.02e+01	61	34	0	154664960	46	5913
2026-01-06 16:19:31.54	20.86	9.74	-35.2	-36.4	28.6	3.02e+01	46	34	0	162529280	46	5719
2026-01-06 16:19:35.57	20.90	10.11	-35.2	-36.4	28.7	3.02e+01	58	34	0	169869312	46	5717
2026-01-06 16:19:39.61	20.94	10.49	-35.0	-36.2	28.9	3.02e+01	60	34	0	177733632	46	5557
2026-01-06 16:19:43.65	20.99	10.87	-34.8	-36.1	28.9	3.02e+01	60	34	0	185073664	44	6178
2026-01-06 16:19:47.69	21.03	11.27	-34.9	-36.1	29.0	3.02e+01	55	34	0	192937984	44	6179
2026-01-06 16:19:51.72	21.07	11.67	-34.8	-36.1	29.0	3.02e+01	61	34	0	200278016	44	6169
2026-01-06 16:19:55.76	21.12	12.07	-35.0	-36.2	28.9	3.02e+01	51	34	0	207618048	44	6270
2026-01-06 16:19:59.79	21.17	12.49	-34.8	-36.0	29.0	3.02e+01	61	34	0	215482368	44	6133
2026-01-06 16:20:03.83	21.21	12.91	-34.8	-36.0	29.2	3.02e+01	52	34	0	222822400	44	6096
2026-01-06 16:20:07.87	21.26	13.34	-34.6	-35.8	29.3	3.02e+01	62	34	0	230686720	44	5972
2026-01-06 16:20:11.90	21.31	13.78	-34.4	-35.6	29.5	3.02e+01	53	34	0	238026752	44	5796
2026-01-06 16:20:15.94	21.36	14.23	-34.3	-35.5	29.7	3.02e+01	62	34	0	245891072	44	5759
2026-01-06 16:20:19.97	21.41	14.69	-34.2	-35.3	29.7	3.02e+01	46	34	0	253231104	44	5659
2026-01-06 16:20:24.01	21.46	15.16	-34.3	-35.5	29.6	3.02e+01	61	34	0	261095424	44	5767
2026-01-06 16:20:28.05	21.52	15.64	-34.3	-35.5	29.6	3.02e+01	46	34	0	268435456	44	5787
2026-01-06 16:20:32.08	21.57	16.12	-34.5	-35.7	29.5	3.02e+01	58	34	0	275775488	44	5884
2026-01-06 16:20:36.12	21.63	16.62	-34.3	-35.4	29.8	3.02e+01	52	34	0	283639808	44	5721
2026-01-06 16:20:40.16	21.68	17.14	-34.1	-35.3	29.8	3.02e+01	59	34	0	290979840	44	5648
2026-01-06 16:20:44.19	21.74	17.66	-34.1	-35.3	29.8	3.02e+01	56	34	0	298844160	44	5614
2026-01-06 16:20:48.22	21.80	18.19	-34.2	-35.4	29.8	3.02e+01	57	34	0	306184192	44	5686
2026-01-06 16:20:52.25	21.87	18.74	-34.2	-35.4	29.8	3.02e+01	58	34	0	314048512	44	5713
2026-01-06 16:20:56.29	21.93	19.31	-34.6	-35.8	29.6	3.02e+01	55	34	0	321388544	44	5930
2026-01-06 16:21:00.33	22.00	19.88	-34.4	-35.6	29.6	3.02e+01	59	34	0	328728576	44	5853
2026-01-06 16:21:04.37	22.06	20.48	-34.6	-35.8	29.5	3.02e+01	58	34	0	336592896	44	5943
2026-01-06 16:21:08.40	22.13	21.08	-34.6	-35.8	29.5	3.02e+01	61	34	0	343932928	44	5966
2026-01-06 16:21:12.44	22.21	21.71	-34.7	-35.9	29.4	3.02e+01	60	34	0	351797248	44	6007
2026-01-06 16:21:16.47	22.28	22.35	-34.6	-35.8	29.6	3.02e+01	58	34	0	359137280	44	5929
2026-01-06 16:21:20.50	22.36	23.01	-34.7	-35.9	29.5	3.02e+01	60	34	0	367001600	44	6020
2026-01-06 16:21:24.55	22.44	23.69	-34.7	-35.9	29.4	3.02e+01	60	34	0	374341632	44	6046
2026-01-06 16:21:28.59	22.52	24.39	-34.8	-36.1	29.3	3.02e+01	59	34	0	381681664	44	6151
2026-01-06 16:21:32.62	22.61	25.11	-35.1	-36.3	29.1	3.02e+01	57	34	0	389545984	44	6321
2026-01-06 16:21:36.66	22.70	25.85	-34.9	-36.2	29.3	3.02e+01	57	34	0	396886016	44	6215
2026-01-06 16:21:40.70	22.79	26.62	-34.7	-35.9	29.4	3.02e+01	59	34	0	404750336	44	6041
2026-01-06 16:21:44.73	22.89	27.41	-34.4	-35.6	29.7	3.02e+01	62	34	0	412090368	44	5845
2026-01-06 16:21:48.77	22.99	28.22	-34.6	-35.8	29.6	3.02e+01	62	34	0	419954688	44	5983
2026-01-06 16:21:52.81	23.10	29.06	-34.1	-35.3	30.0	3.02e+01	44	34	0	427294720	44	5618
2026-01-06 16:21:56.85	23.21	29.93	-34.1	-35.3	29.9	3.02e+01	51	34	0	434634752	44	5636
2026-01-06 16:22:00.88	23.32	30.83	-34.1	-35.3	30.1	3.02e+01	43	34	0	442499072	44	5611
2026-01-06 16:22:04.92	23.45	31.76	-34.2	-35.4	29.9	3.02e+01	59	34	0	449839104	44	5693
2026-01-06 16:22:08.95	23.58	32.72	-34.4	-35.6	29.8	3.02e+01	53	34	0	457703424	44	5820
2026-01-06 16:22:12.99	23.71	33.71	-34.8	-36.0	29.5	3.02e+01	60	34	0	465043456	44	6099
2026-01-06 16:22:17.02	23.86	34.74	-34.9	-36.1	29.3	3.02e+01	53	34	0	472907776	44	6190
2026-01-06 16:22:21.06	24.01	35.81	-35.5	-36.8	28.8	3.02e+01	59	34	0	480247808	44	6662
2026-01-06 16:22:25.10	24.18	36.91	-35.9	-37.1	28.4	3.02e+01	50	34	0	487587840	44	6960
2026-01-06 16:22:29.13	24.35	38.06	-36.4	-37.7	28.0	3.02e+01	59	34	0	495452160	46	6631
2026-01-06 16:22:33.17	24.54	39.25	-36.7	-38.0	27.7	3.02e+01	54	34	0	502792192	46	6842
2026-01-06 16:22:37.21	24.74	40.49	-36.1	-37.4	28.3	3.02e+01	60	34	0	510656512	46	6389
2026-01-06 16:22:41.24	24.95	41.77	-35.6	-36.9	28.8	3.02e+01	46	34	0	517996544	46	5995
2026-01-06 16:22:45.28	25.18	43.10	-34.7	-35.8	29.6	3.02e+01	59	34	0	525860864	44	5994
2026-01-06 16:22:49.32	25.43	44.48	-34.4	-35.6	29.9	3.02e+01	46	34	0	533200896	44	5800
2026-01-06 16:22:53.36	25.71	45.91	-34.3	-35.5	29.9	3.02e+01	60	34	0	541065216	44	5756
2026-01-06 16:22:57.39	26.00	47.40	-34.4	-35.6	29.9	3.02e+01	46	34	0	548405248	44	5844
2026-01-06 16:23:01.43	26.33	48.94	-34.2	-35.4	30.0	3.02e+01	57	34	0	555745280	44	5674
2026-01-06 16:23:05.46	26.69	50.54	-34.4	-35.6	29.8	3.02e+01	54	34	0	563609600	44	5851
2026-01-06 16:23:09.50	27.10	52.20	-33.8	-35.0	30.3	3.02e+01	60	34	0	570949632	42	6116
2026-01-06 16:23:13.54	27.54	53.92	-33.5	-34.6	30.6	3.02e+01	60	34	0	578813952	42	5846
2026-01-06 16:23:17.57	28.05	55.70	-34.1	-35.2	30.2	3.02e+01	59	34	0	586153984	42	6261
2026-01-06 16:23:21.61	28.62	57.54	-35.4	-36.7	28.9	3.02e+01	58	34	0	594018304	44	6581
2026-01-06 16:23:25.65	29.28	59.45	-35.4	-36.6	28.9	3.02e+01	58	34	0	601358336	44	6541
2026-01-06 16:23:29.68	30.04	61.40	-36.1	-37.3	28.3	3.02e+01	57	34	0	608698368	46	6329
2026-01-06 16:23:33.71	30.92	63.42	-37.4	-38.8	27.0	3.02e+01	57	34	0	616562688	48	6669
2026-01-06 16:23:37.75	31.98	65.49	-39.3	-40.9	24.9	3.02e+01	61	34	0	623902720	52	6736
2026-01-06 16:23:41.79	33.26	67.62	-39.6	-41.2	24.8	3.02e+01	59	34	0	631767040	52	6979
2026-01-06 16:23:45.83	34.83	69.78	-39.6	-41.2	24.8	3.02e+01	58	34	0	639107072	52	7022
2026-01-06 16:23:49.86	36.80	71.98	-38.9	-40.3	25.5	3.02e+01	57	34	0	646971392	52	6347
2026-01-06 16:23:53.91	39.37	74.21	-37.7	-39.1	26.7	3.02e+01	59	34	0	654311424	50	6149
2026-01-06 16:23:57.94	42.81	76.42	-37.6	-39.0	26.7	3.02e+01	57	34	0	661651456	50	6112
2026-01-06 16:24:01.98	47.63	78.62	-36.6	-37.9	27.7	3.02e+01	59	34	0	669515776	48	6055
2026-01-06 16:24:06.02	54.76	80.72	-35.2	-36.4	29.1	3.02e+01	59	34	0	676855808	46	5706
2026-01-06 16:24:10.05	65.83	82.62	-34.7	-35.9	29.5	3.02e+01	59	34	0	684720128	44	6035
2026-01-06 16:24:14.09	83.49	84.09	-35.0	-36.2	29.1	3.02e+01	56	34	0	692060160	44	6240
2026-01-06 16:24:18.13	108.64	84.72	-35.3	-36.5	29.0	3.02e+01	59	34	0	699924480	44	6495
2026-01-06 16:24:22.17	134.42	84.22	-34.8	-36.0	29.4	3.02e+01	45	34	0	707264512	44	6079
2026-01-06 16:24:26.20	153.04	82.84	-35.1	-36.3	29.2	3.02e+01	56	34	0	715128832	44	6300
2026-01-06 16:24:30.24	164.81	80.97	-35.5	-36.7	28.8	3.02e+01	44	34	0	722468864	44	6625
2026-01-06 16:24:34.28	172.33	78.88	-35.7	-36.9	28.5	3.02e+01	63	34	0	729808896	44	6804
2026-01-06 16:24:38.32	177.38	76.69	-37.8	-39.1	26.6	3.02e+01	47	34	0	737673216	48	6960
2026-01-06 16:24:42.35	180.95	74.47	-38.3	-39.8	26.1	3.02e+01	59	34	0	745013248	50	6650
2026-01-06 16:24:46.39	183.61	72.25	-38.4	-39.8	26.0	3.02e+01	47	34	0	752877568	50	6710
2026-01-06 16:24:50.43	185.65	70.04	-38.7	-40.2	25.7	3.02e+01	59	34	0	760217600	50	7004
2026-01-06 16:24:54.46	187.26	67.87	-39.0	-40.6	25.5	3.02e+01	52	34	0	768081920	52	6500
2026-01-06 16:24:58.50	188.57	65.73	-38.4	-39.8	26.1	3.02e+01	55	34	0	775421952	52	5993
2026-01-06 16:25:02.54	189.65	63.65	-36.8	-38.1	27.7	3.02e+01	47	34	0	783286272	48	6196
2026-01-06 16:25:06.58	190.56	61.62	-36.0	-37.2	28.4	3.02e+01	62	34	0	790626304	46	6249
2026-01-06 16:25:10.61	191.33	59.65	-35.8	-37.1	28.4	3.02e+01	48	34	0	797966336	46	6147
2026-01-06 16:25:14.65	192.00	57.73	-35.4	-36.6	29.1	3.02e+01	60	34	0	805830656	46	5834
2026-01-06 16:25:18.69	192.58	55.88	-34.4	-35.6	29.9	3.02e+01	49	34	0	813170688	44	5798
2026-01-06 16:25:22.73	193.09	54.08	-33.8	-34.9	30.3	3.02e+01	59	34	0	821035008	42	6046
2026-01-06 16:25:26.76	193.54	52.36	-33.7	-34.8	30.5	3.02e+01	60	34	0	828375040	42	5973
2026-01-06 16:25:30.80	193.95	50.68	-34.6	-35.9	29.6	3.02e+01	58	34	0	836239360	42	6728
2026-01-06 16:25:34.84	194.32	49.07	-35.2	-36.4	29.1	3.02e+01	58	34	0	843579392	44	6420
2026-01-06 16:25:38.88	194.65	47.51	-34.6	-35.8	29.7	3.02e+01	62	34	0	851443712	44	5934
2026-01-06 16:25:42.92	194.95	46.01	-34.9	-36.0	29.4	3.02e+01	59	34	0	858783744	44	6133
2026-01-06 16:25:46.95	195.22	44.57	-34.6	-35.8	29.6	3.02e+01	59	34	0	866123776	44	5959
2026-01-06 16:25:50.99	195.48	43.18	-34.8	-36.0	29.3	3.02e+01	61	34	0	873988096	44	6127
2026-01-06 16:25:55.03	195.71	41.84	-35.5	-36.7	28.8	3.02e+01	60	34	0	881328128	44	6641
2026-01-06 16:25:59.06	195.92	40.55	-35.7	-37.0	28.6	3.02e+01	60	34	0	889192448	44	6843
2026-01-06 16:26:03.10	196.12	39.30	-35.7	-36.9	28.7	3.02e+01	57	34	0	896532480	44	6791
2026-01-06 16:26:07.14	196.31	38.11	-35.9	-37.2	28.5	3.02e+01	61	34	0	904396800	44	6990
2026-01-06 16:26:11.17	196.49	36.95	-35.7	-37.0	28.6	3.02e+01	57	34	0	911736832	46	6093
2026-01-06 16:26:15.21	196.65	35.84	-35.2	-36.4	29.1	3.02e+01	57	34	0	919076864	46	5683
2026-01-06 16:26:19.25	196.80	34.76	-34.5	-35.7	29.8	3.02e+01	59	34	0	926941184	44	5859
2026-01-06 16:26:23.29	196.95	33.72	-34.1	-35.3	30.0	3.02e+01	60	34	0	934281216	44	5640
2026-01-06 16:26:27.32	197.08	32.72	-33.7	-34.8	30.5	3.02e+01	58	34	0	942145536	42	5985
2026-01-06 16:26:31.36	197.21	31.75	-33.7	-34.9	30.3	3.02e+01	60	34	0	949485568	42	6026
2026-01-06 16:26:35.39	197.34	30.82	-33.7	-34.9	30.3	3.02e+01	59	34	0	957349888	42	6006
2026-01-06 16:26:39.43	197.45	29.92	-33.9	-35.1	30.2	3.02e+01	55	34	0	964689920	42	6148
2026-01-06 16:26:43.47	197.56	29.04	-34.1	-35.3	29.9	3.02e+01	47	34	0	972554240	42	6339
2026-01-06 16:26:47.50	197.67	28.20	-34.0	-35.2	30.0	3.02e+01	60	34	0	979894272	42	6244
2026-01-06 16:26:51.54	197.77	27.38	-34.1	-35.3	30.0	3.02e+01	47	34	0	987234304	42	6319
2026-01-06 16:26:55.58	197.87	26.58	-34.2	-35.3	29.9	3.02e+01	57	34	0	995098624	42	6330
2026-01-06 16:26:59.62	197.96	25.81	-34.4	-35.6	29.8	3.02e+01	56	34	0	1002438656	42	6555
2026-01-06 16:27:03.65	198.05	25.07	-34.8	-36.0	29.4	3.02e+01	56	34	0	1010302976	42	6815
2026-01-06 16:27:07.69	198.13	24.34	-34.8	-36.0	29.3	3.02e+01	56	34	0	1017643008	44	6131
2026-01-06 16:27:11.73	198.21	23.64	-34.8	-36.1	29.3	3.02e+01	59	34	0	1025507328	44	6136
2026-01-06 16:27:15.77	198.29	22.96	-34.8	-36.0	29.3	3.02e+01	56	34	0	1032847360	44	6104
2026-01-06 16:27:19.80	198.37	22.29	-34.7	-35.9	29.4	3.02e+01	60	34	0	1040711680	44	6061
2026-01-06 16:27:23.84	198.44	21.65	-34.6	-35.8	29.4	3.02e+01	45	34	0	1048051712	44	5976
2026-01-06 16:27:27.88	198.51	21.02	-34.7	-35.9	29.4	3.02e+01	58	34	0	1055391744	44	6007
2026-01-06 16:27:31.92	198.58	20.41	-34.5	-35.7	29.5	3.02e+01	46	34	0	1063256064	44	5903
2026-01-06 16:27:35.95	198.65	19.81	-34.6	-35.8	29.6	3.02e+01	59	34	0	1070596096	44	5943
2026-01-06 16:27:39.99	198.71	19.23	-34.5	-35.7	29.6	3.02e+01	49	34	0	1078460416	44	5900
2026-01-06 16:27:44.03	198.77	18.66	-34.5	-35.7	29.6	3.02e+01	61	34	0	1085800448	44	5920
2026-01-06 16:27:48.07	198.83	18.11	-34.6	-35.8	29.5	3.02e+01	45	34	0	1093664768	44	5954
2026-01-06 16:27:52.10	198.89	17.57	-34.5	-35.7	29.4	3.02e+01	57	34	0	1101004800	44	5914
2026-01-06 16:27:56.14	198.95	17.05	-34.6	-35.8	29.4	3.02e+01	51	34	0	1108344832	44	5954
2026-01-06 16:28:00.17	199.01	16.53	-34.5	-35.7	29.5	3.02e+01	60	34	0	1116209152	44	5909
2026-01-06 16:28:04.21	199.06	16.03	-34.5	-35.7	29.5	3.02e+01	58	34	0	1123549184	44	5871
2026-01-06 16:28:08.25	199.11	15.54	-34.3	-35.5	29.7	3.02e+01	60	34	0	1131413504	44	5739
2026-01-06 16:28:12.28	199.16	15.06	-34.3	-35.5	29.7	3.02e+01	59	34	0	1138753536	44	5749
2026-01-06 16:28:16.32	199.21	14.59	-34.4	-35.6	29.5	3.02e+01	58	34	0	1146617856	44	5826
2026-01-06 16:28:20.36	199.26	14.13	-34.4	-35.6	29.5	3.02e+01	60	34	0	1153957888	44	5848
2026-01-06 16:28:24.39	199.31	13.68	-34.3	-35.5	29.6	3.02e+01	60	34	0	1161297920	44	5751
2026-01-06 16:28:28.43	199.36	13.24	-34.4	-35.6	29.6	3.02e+01	59	34	0	1169162240	44	5811
2026-01-06 16:28:32.46	199.40	12.80	-34.4	-35.6	29.5	3.02e+01	61	34	0	1176502272	44	5856
2026-01-06 16:28:36.50	199.45	12.38	-34.5	-35.8	29.3	3.02e+01	62	34	0	1184366592	44	5933
2026-01-06 16:28:40.54	199.49	11.96	-34.5	-35.7	29.4	3.02e+01	58	34	0	1191706624	44	5885
2026-01-06 16:28:44.57	199.53	11.55	-34.5	-35.7	29.4	3.02e+01	56	34	0	1199570944	44	5901
2026-01-06 16:28:48.61	199.58	11.15	-34.6	-35.9	29.3	3.02e+01	59	34	0	1206910976	44	6001
2026-01-06 16:28:52.65	199.62	10.76	-34.7	-35.9	29.1	3.02e+01	59	34	0	1214251008	44	6009
2026-01-06 16:28:56.68	199.66	10.37	-34.8	-36.0	29.0	3.02e+01	60	34	0	1222115328	44	6125
2026-01-06 16:29:00.72	199.70	9.99	-34.9	-36.1	29.0	3.02e+01	59	34	0	1229455360	44	6189
2026-01-06 16:29:04.75	199.74	9.62	-34.9	-36.2	28.9	3.02e+01	60	34	0	1237319680	44	6213
2026-01-06 16:29:08.79	199.77	9.25	-35.0	-36.2	28.8	3.02e+01	58	34	0	1244659712	44	6240
2026-01-06 16:29:12.83	199.81	8.88	-35.1	-36.3	28.8	3.02e+01	45	34	0	1252524032	44	6337
2026-01-06 16:29:16.86	199.85	8.53	-35.2	-36.4	28.7	3.02e+01	55	34	0	1259864064	44	6380
2026-01-06 16:29:20.90	199.88	8.18	-35.3	-36.6	28.4	3.02e+01	46	34	0	1267204096	44	6505
2026-01-06 16:29:24.94	199.92	7.83	-35.5	-36.8	28.3	3.02e+01	58	34	0	1275068416	44	6671
2026-01-06 16:29:28.98	199.95	7.49	-35.6	-36.9	28.2	3.02e+01	56	34	0	1282408448	44	6730
2026-01-06 16:29:33.01	199.99	7.16	-35.7	-36.9	28.0	3.02e+01	62	34	0	1290272768	44	6798
2026-01-06 16:29:37.04	200.02	6.83	-35.8	-37.0	28.0	3.02e+01	52	34	0	1297612800	44	6864
2026-01-06 16:29:41.08	200.06	6.50	-36.1	-37.4	27.7	3.02e+01	60	34	0	1305477120	46	6361
2026-01-06 16:29:45.12	200.09	6.18	-36.1	-37.4	27.5	3.02e+01	48	34	0	1312817152	46	6412
2026-01-06 16:29:49.15	200.12	5.86	-36.2	-37.5	27.5	3.02e+01	57	34	0	1320681472	46	6444
2026-01-06 16:29:53.19	200.15	5.55	-36.3	-37.6	27.2	3.02e+01	54	34	0	1328021504	46	6564
2026-01-06 16:29:57.23	200.19	5.24	-36.3	-37.6	27.3	3.02e+01	57	34	0	1335361536	46	6563
2026-01-06 16:30:01.26	200.22	4.94	-36.5	-37.8	27.1	3.02e+01	53	34	0	1343225856	46	6710
2026-01-06 16:30:05.30	200.25	4.64	-36.7	-38.1	26.8	3.02e+01	59	34	0	1350565888	46	6930
2026-01-06 16:30:09.34	200.28	4.34	-36.7	-38.0	26.7	3.02e+01	45	34	0	1358430208	48	6123
2026-01-06 16:30:13.37	200.31	4.05	-36.8	-38.2	26.5	3.02e+01	60	34	0	1365770240	48	6258
2026-01-06 16:30:17.41	200.34	3.76	-37.0	-38.4	26.3	3.02e+01	54	34	0	1373634560	48	6420
2026-01-06 16:30:21.45	200.37	3.47	-37.5	-38.9	25.8	3.02e+01	59	34	0	1380974592	48	6780
2026-01-06 16:30:25.48	200.40	3.19	-37.4	-38.8	25.7	3.02e+01	61	34	0	1388314624	48	6701
2026-01-06 16:30:29.51	200.42	2.91	-48.1	-65.9	3.5	3.02e+01	0	34	104	1394081792	60	75554
2026-01-06 16:30:33.55	200.45	2.63	-48.7	-66.7	3.5	3.02e+01	0	34	104	1394081792	60	82855
2026-01-06 16:30:37.59	200.48	2.36	-48.9	-66.9	3.5	3.02e+01	0	34	104	1394081792	60	84727
2026-01-06 16:30:41.63	200.51	2.08	-48.5	-66.7	3.5	3.02e+01	0	34	104	1394081792	60	82884
2026-01-06 16:30:45.67	200.54	1.82	-48.8	-66.7	3.5	3.02e+01	0	34	104	1394081792	60	83520
2026-01-06 16:30:49.71	200.56	1.55	-48.8	-66.8	3.5	3.02e+01	0	34	104	1394081792	60	83742
2026-01-06 16:30:53.75	200.59	1.29	-48.8	-66.7	3.5	3.02e+01	0	34	104	1394081792	60	83243
2026-01-06 16:30:57.79	200.62	1.03	-48.8	-66.7	3.5	3.02e+01	0	34	104	1394081792	60	83040
2026-01-06 16:31:01.82	200.64	0.77	-48.8	-66.6	3.5	3.02e+01	0	34	104	1394081792	60	82671
2026-01-06 16:31:05.86	200.67	0.51	-48.7	-66.7	3.5	3.02e+01	0	34	104	1394081792	60	82928
2026-01-06 16:31:09.90	200.69	0.26	-48.7	-66.7	3.5	3.02e+01	0	34	104	1394081792	60	83104
2026-01-06 16:31:13.94	200.72	0.01	-48.7	-66.7	3.5	3.02e+01	0	34	104	1394081792	60	82939

#Closed at: 2026-01-06 16:31:14
#Recorded file [1394 MB]: D:/lorett/data/35029_260107_041722.dat