passes_logs/2026/01/06/R4.6S_Anadyr/R4.6S_Anadyr__20260106_002703_SUOMI_NPP_rec.log

#Pass ID: 20260106_002703_SUOMI NPP
#Satellite: SUOMI NPP
#Configuration: NPP
#almurnet v.1.7.20251203
#Start time: 2026-01-06 00:27:07

#Version: 2.2.20231116
#Station: R4.6S_Anadyr
#Location: 177.4865 lon 64.73178 lat
#TLE: 1 37849U 11061A   26004.95404768  .00000136  00000+0  85334-4 0  9991
#TLE: 2 37849  98.7801 307.0898 0002575  80.6707 279.4760 14.19522289735281

#Time	Az	El	Level	Level2	SNR	BER	BlckErr	Temp	State	Recorded	gain1	gain2
2026-01-06 00:27:07.34	160.34	0.21	-48.7	-62.5	3.3	1.54e+00	0	32	0	0	60	47964
2026-01-06 00:27:11.37	160.37	0.46	-48.8	-64.0	3.6	1.51e+00	0	32	104	0	60	57524
2026-01-06 00:27:15.41	160.41	0.70	-48.5	-63.7	3.6	1.51e+00	0	32	104	0	60	55532
2026-01-06 00:27:19.45	160.44	0.95	-47.4	-62.6	3.6	1.51e+00	0	32	104	0	60	48508
2026-01-06 00:27:23.49	160.48	1.20	-47.4	-62.5	3.6	1.51e+00	0	32	104	0	60	48171
2026-01-06 00:27:27.53	160.51	1.46	-47.4	-62.3	3.6	1.51e+00	0	32	104	0	60	47164
2026-01-06 00:27:31.57	160.55	1.71	-47.4	-62.3	3.6	1.51e+00	0	33	104	0	60	47367
2026-01-06 00:27:35.61	160.59	1.97	-47.4	-62.6	3.6	1.51e+00	0	33	104	0	60	48508
2026-01-06 00:27:39.64	160.62	2.23	-47.4	-62.4	3.6	1.51e+00	0	33	104	0	60	47402
2026-01-06 00:27:43.69	160.66	2.49	-47.4	-61.7	3.6	1.51e+00	0	33	104	0	60	44184
2026-01-06 00:27:47.73	160.70	2.76	-47.4	-61.7	3.6	1.51e+00	0	33	104	0	60	44177
2026-01-06 00:27:51.76	160.74	3.02	-47.1	-58.0	4.4	1.24e+00	3	33	104	0	60	28781
2026-01-06 00:27:55.81	160.78	3.30	-45.6	-50.2	11.1	3.81e-03	0	33	0	6291456	60	11742
2026-01-06 00:27:59.84	160.82	3.57	-44.6	-48.0	13.2	1.29e-05	0	33	0	13631488	60	9121
2026-01-06 00:28:03.88	160.85	3.84	-47.0	-55.5	6.0	1.36e+00	0	33	104	19922944	60	21545
2026-01-06 00:28:07.91	160.90	4.12	-43.7	-46.5	5.9	1.50e+00	0	33	104	20971520	60	7596
2026-01-06 00:28:11.94	160.94	4.40	-42.2	-44.2	17.3	0.00e+00	0	33	0	26214400	58	6552
2026-01-06 00:28:15.98	160.98	4.69	-41.7	-43.4	18.2	0.00e+00	0	33	0	33554432	56	6737
2026-01-06 00:28:20.02	161.02	4.97	-41.6	-43.3	18.2	0.00e+00	0	33	0	41943040	56	6627
2026-01-06 00:28:24.05	161.06	5.26	-42.1	-43.9	17.9	0.00e+00	0	33	0	49283072	56	7104
2026-01-06 00:28:28.08	161.10	5.55	-41.7	-43.4	18.3	0.00e+00	0	33	0	56623104	56	6717
2026-01-06 00:28:32.12	161.15	5.85	-41.3	-42.9	18.9	0.00e+00	0	33	0	63963136	56	6323
2026-01-06 00:28:36.15	161.19	6.15	-41.2	-42.8	18.9	0.00e+00	0	33	0	72351744	56	6254
2026-01-06 00:28:40.20	161.24	6.46	-41.2	-42.7	19.0	0.00e+00	0	33	0	79691776	56	6243
2026-01-06 00:28:44.23	161.28	6.76	-41.1	-42.6	19.2	0.00e+00	0	33	0	87031808	56	6170
2026-01-06 00:28:48.27	161.33	7.07	-41.2	-42.8	19.1	0.00e+00	0	33	0	94371840	56	6260
2026-01-06 00:28:52.31	161.38	7.39	-41.0	-42.4	19.4	0.00e+00	0	33	0	101711872	56	6006
2026-01-06 00:28:56.35	161.43	7.71	-40.6	-42.0	19.7	0.00e+00	0	33	0	110100480	54	6423
2026-01-06 00:29:00.39	161.47	8.03	-40.7	-42.1	19.7	0.00e+00	0	33	0	117440512	54	6476
2026-01-06 00:29:04.43	161.52	8.36	-40.5	-41.9	19.9	0.00e+00	0	33	0	124780544	54	6323
2026-01-06 00:29:08.46	161.57	8.69	-40.4	-41.8	20.1	0.00e+00	0	33	0	132120576	54	6252
2026-01-06 00:29:12.50	161.62	9.02	-40.4	-41.8	20.1	0.00e+00	0	33	0	140509184	54	6250
2026-01-06 00:29:16.54	161.68	9.37	-40.2	-41.5	20.2	0.00e+00	0	33	0	147849216	54	6095
2026-01-06 00:29:20.56	161.73	9.71	-40.3	-41.6	20.3	0.00e+00	0	33	0	155189248	54	6140
2026-01-06 00:29:24.60	161.78	10.06	-39.7	-40.9	20.9	0.00e+00	0	33	0	162529280	52	6348
2026-01-06 00:29:28.64	161.84	10.41	-39.4	-40.6	21.1	0.00e+00	0	33	0	169869312	52	6140
2026-01-06 00:29:32.68	161.89	10.77	-39.3	-40.5	21.3	0.00e+00	0	33	0	178257920	52	6042
2026-01-06 00:29:36.71	161.95	11.14	-39.1	-40.2	21.5	0.00e+00	0	33	0	185597952	52	5839
2026-01-06 00:29:40.75	162.01	11.51	-39.0	-40.1	21.6	0.00e+00	0	33	0	192937984	52	5806
2026-01-06 00:29:44.78	162.07	11.89	-38.6	-39.6	22.0	0.00e+00	0	33	0	200278016	50	6153
2026-01-06 00:29:48.80	162.13	12.27	-38.6	-39.7	22.1	0.00e+00	0	33	0	207618048	50	6180
2026-01-06 00:29:52.84	162.19	12.66	-38.3	-39.3	22.3	0.00e+00	0	33	0	216006656	50	5964
2026-01-06 00:29:56.87	162.25	13.05	-38.0	-39.0	22.6	0.00e+00	0	33	0	223346688	50	5753
2026-01-06 00:30:00.90	162.32	13.45	-37.7	-38.7	22.8	0.00e+00	0	33	0	230686720	48	6184
2026-01-06 00:30:04.94	162.38	13.86	-37.4	-38.3	23.1	0.00e+00	0	33	0	238026752	48	5951
2026-01-06 00:30:08.98	162.45	14.27	-37.2	-38.1	23.3	0.00e+00	0	33	0	245366784	48	5789
2026-01-06 00:30:13.02	162.52	14.70	-37.0	-37.9	23.4	0.00e+00	0	33	0	253755392	48	5668
2026-01-06 00:30:17.06	162.59	15.13	-36.9	-37.8	23.5	0.00e+00	0	33	0	261095424	48	5627
2026-01-06 00:30:21.09	162.66	15.56	-36.9	-37.8	23.5	0.00e+00	0	34	0	268435456	48	5571
2026-01-06 00:30:25.13	162.74	16.01	-36.8	-37.7	23.2	0.00e+00	0	33	0	275775488	48	5543
2026-01-06 00:30:29.17	162.81	16.46	-36.9	-37.8	23.7	0.00e+00	0	34	0	284164096	46	6251
2026-01-06 00:30:33.20	162.89	16.92	-36.8	-37.7	23.6	0.00e+00	0	33	0	291504128	46	6232
2026-01-06 00:30:37.24	162.97	17.40	-36.5	-37.3	23.9	0.00e+00	0	34	0	298844160	46	5964
2026-01-06 00:30:41.28	163.05	17.88	-36.4	-37.3	24.0	0.00e+00	0	33	0	306184192	46	5925
2026-01-06 00:30:45.31	163.14	18.37	-36.6	-37.4	23.9	0.00e+00	0	34	0	313524224	46	6016
2026-01-06 00:30:49.35	163.22	18.87	-36.8	-37.7	23.6	0.00e+00	0	33	0	321912832	46	6201
2026-01-06 00:30:53.38	163.31	19.37	-36.7	-37.5	23.9	0.00e+00	0	33	0	329252864	46	6091
2026-01-06 00:30:57.42	163.40	19.90	-36.8	-37.7	23.8	0.00e+00	0	34	0	336592896	46	6223
2026-01-06 00:31:01.45	163.50	20.43	-37.0	-37.9	23.6	0.00e+00	0	33	0	343932928	46	6347
2026-01-06 00:31:05.49	163.59	20.97	-37.3	-38.2	23.4	0.00e+00	0	34	0	352321536	46	6580
2026-01-06 00:31:09.53	163.69	21.53	-37.9	-38.9	22.9	0.00e+00	0	34	0	359661568	48	6334
2026-01-06 00:31:13.56	163.79	22.09	-37.9	-38.9	22.8	0.00e+00	0	34	0	367001600	48	6389
2026-01-06 00:31:17.60	163.90	22.67	-38.3	-39.3	22.6	0.00e+00	0	34	0	374341632	48	6672
2026-01-06 00:31:21.64	164.01	23.27	-38.2	-39.2	22.6	0.00e+00	0	34	0	381681664	48	6609
2026-01-06 00:31:25.68	164.12	23.88	-38.4	-39.4	22.4	0.00e+00	0	34	0	390070272	48	6762
2026-01-06 00:31:29.72	164.24	24.50	-38.4	-39.4	22.4	0.00e+00	0	33	0	397410304	48	6731
2026-01-06 00:31:33.75	164.36	25.13	-37.9	-38.9	22.9	0.00e+00	0	34	0	404750336	48	6334
2026-01-06 00:31:37.79	164.49	25.79	-38.5	-39.5	22.4	0.00e+00	0	34	0	412090368	48	6840
2026-01-06 00:31:41.83	164.62	26.46	-38.0	-39.0	22.9	0.00e+00	0	34	0	420478976	48	6419
2026-01-06 00:31:45.86	164.76	27.14	-37.8	-38.8	23.0	0.00e+00	0	34	0	427819008	48	6267
2026-01-06 00:31:49.90	164.90	27.85	-38.0	-39.0	22.8	0.00e+00	0	34	0	435159040	48	6413
2026-01-06 00:31:53.94	165.05	28.57	-38.2	-39.2	22.7	0.00e+00	0	34	0	442499072	48	6562
2026-01-06 00:31:57.98	165.20	29.31	-38.4	-39.4	22.6	0.00e+00	0	34	0	449839104	48	6727
2026-01-06 00:32:02.01	165.36	30.07	-38.6	-39.7	22.4	0.00e+00	0	33	0	458227712	50	6189
2026-01-06 00:32:06.05	165.53	30.85	-38.9	-40.0	21.9	0.00e+00	0	33	0	465567744	50	6396
2026-01-06 00:32:10.09	165.70	31.65	-38.9	-40.0	22.1	0.00e+00	0	34	0	472907776	50	6394
2026-01-06 00:32:14.12	165.88	32.48	-40.2	-41.4	20.9	0.00e+00	0	34	0	480247808	52	6762
2026-01-06 00:32:18.15	166.07	33.32	-40.2	-41.4	20.5	0.00e+00	0	34	0	488636416	52	6718
2026-01-06 00:32:22.19	166.28	34.20	-40.2	-41.4	21.0	0.00e+00	0	34	0	495976448	52	6728
2026-01-06 00:32:26.23	166.49	35.09	-39.0	-40.1	21.9	0.00e+00	0	34	0	503316480	50	6510
2026-01-06 00:32:30.26	166.71	36.01	-37.7	-38.7	23.1	0.00e+00	0	34	0	510656512	48	6225
2026-01-06 00:32:34.30	166.94	36.96	-37.0	-37.9	23.5	0.00e+00	0	34	0	517996544	48	5693
2026-01-06 00:32:38.34	167.19	37.94	-36.2	-37.0	24.4	0.00e+00	0	34	0	526385152	46	5718
2026-01-06 00:32:42.38	167.46	38.95	-36.1	-36.9	24.4	0.00e+00	0	34	0	533725184	46	5647
2026-01-06 00:32:46.42	167.74	39.98	-36.5	-37.3	24.1	0.00e+00	0	34	0	541065216	46	5948
2026-01-06 00:32:50.45	168.03	41.04	-37.4	-38.3	23.3	0.00e+00	0	34	0	548405248	46	6624
2026-01-06 00:32:54.49	168.35	42.14	-38.0	-39.0	22.8	0.00e+00	0	34	0	555745280	48	6427
2026-01-06 00:32:58.53	168.69	43.27	-37.8	-38.8	23.0	0.00e+00	0	34	0	564133888	48	6246
2026-01-06 00:33:02.56	169.05	44.43	-37.3	-38.2	23.4	0.00e+00	0	34	0	571473920	48	5863
2026-01-06 00:33:06.60	169.44	45.63	-39.2	-40.4	21.5	0.00e+00	0	34	0	578813952	50	6732
2026-01-06 00:33:10.64	169.85	46.86	-40.9	-42.3	20.1	0.00e+00	0	34	0	586153984	54	6686
2026-01-06 00:33:14.67	170.30	48.13	-40.0	-41.3	20.7	0.00e+00	0	34	0	594542592	54	5925
2026-01-06 00:33:18.71	170.79	49.43	-37.3	-38.2	23.4	0.00e+00	0	34	0	601882624	48	5872
2026-01-06 00:33:22.75	171.33	50.78	-35.5	-36.3	24.7	0.00e+00	0	34	0	609222656	44	5900
2026-01-06 00:33:26.78	171.91	52.15	-35.9	-36.8	24.4	0.00e+00	0	34	0	616562688	44	6249
2026-01-06 00:33:30.82	172.54	53.57	-35.4	-36.2	24.8	0.00e+00	0	34	0	623902720	44	5847
2026-01-06 00:33:34.86	173.24	55.02	-35.0	-35.8	25.1	0.00e+00	0	34	0	632291328	44	5590
2026-01-06 00:33:38.90	174.02	56.51	-34.2	-34.9	25.6	0.00e+00	0	34	0	639631360	42	5660
2026-01-06 00:33:42.93	174.88	58.03	-35.7	-36.5	24.9	0.00e+00	0	34	0	646971392	44	6040
2026-01-06 00:33:46.98	175.85	59.59	-35.4	-36.2	24.9	0.00e+00	0	34	0	654311424	42	6587
2026-01-06 00:33:51.01	176.94	61.17	-35.0	-35.8	25.1	0.00e+00	0	34	0	662700032	44	5607
2026-01-06 00:33:55.05	178.17	62.79	-34.8	-35.6	25.4	0.00e+00	0	34	0	670040064	42	6167
2026-01-06 00:33:59.09	179.59	64.43	-35.6	-36.4	24.6	0.00e+00	0	34	0	677380096	42	6764
2026-01-06 00:34:03.12	181.21	66.09	-35.1	-35.9	25.2	0.00e+00	0	34	0	684720128	44	5665
2026-01-06 00:34:07.16	183.12	67.77	-38.5	-39.5	22.5	0.00e+00	0	34	0	692060160	48	6812
2026-01-06 00:34:11.20	185.35	69.46	-39.0	-40.1	22.0	0.00e+00	0	34	0	700448768	50	6486
2026-01-06 00:34:15.23	188.01	71.14	-41.4	-42.8	19.7	0.00e+00	0	34	0	707788800	56	6315
2026-01-06 00:34:19.27	191.23	72.80	-37.6	-38.6	23.1	0.00e+00	0	34	0	715128832	48	6128
2026-01-06 00:34:23.30	195.15	74.42	-38.4	-39.4	22.8	0.00e+00	0	34	0	722468864	50	6001
2026-01-06 00:34:27.34	200.01	75.98	-38.3	-39.2	23.0	0.00e+00	0	34	0	729808896	48	6552
2026-01-06 00:34:31.38	206.08	77.43	-38.7	-39.7	22.3	0.00e+00	0	34	0	738197504	50	6207
2026-01-06 00:34:35.42	213.67	78.72	-39.5	-40.6	21.6	0.00e+00	0	34	0	745537536	50	6872
2026-01-06 00:34:39.45	223.03	79.78	-40.1	-41.4	21.5	0.00e+00	0	34	0	752877568	52	6705
2026-01-06 00:34:43.49	234.25	80.52	-41.5	-43.1	19.2	0.00e+00	0	34	0	760217600	54	7306
2026-01-06 00:34:47.53	246.83	80.85	-40.4	-41.8	20.6	0.00e+00	0	34	0	768606208	52	7010
2026-01-06 00:34:51.56	259.67	80.73	-40.2	-41.5	21.1	0.00e+00	0	33	0	775946240	52	6795
2026-01-06 00:34:55.60	271.64	80.18	-39.8	-41.0	21.3	0.00e+00	0	34	0	783286272	52	6409
2026-01-06 00:34:59.64	281.92	79.26	-40.6	-41.9	20.4	0.00e+00	0	34	0	790626304	54	6342
2026-01-06 00:35:03.67	290.32	78.07	-40.5	-41.9	20.5	0.00e+00	0	34	0	797966336	52	7116
2026-01-06 00:35:07.71	297.07	76.69	-36.7	-37.5	24.1	0.00e+00	0	34	0	806354944	48	5383
2026-01-06 00:35:11.75	302.47	75.18	-38.3	-39.4	22.5	0.00e+00	0	34	0	813694976	48	6723
2026-01-06 00:35:15.79	306.81	73.59	-38.1	-39.1	22.9	0.00e+00	0	34	0	821035008	50	5762
2026-01-06 00:35:19.83	310.35	71.94	-38.9	-39.9	22.2	0.00e+00	0	34	0	828375040	50	6383
2026-01-06 00:35:23.79	313.20	70.30	-41.1	-42.5	19.9	0.00e+00	0	34	0	836763648	54	6809
2026-01-06 00:35:27.82	315.63	68.63	-42.1	-43.9	18.9	0.00e+00	0	34	0	844103680	56	7118
2026-01-06 00:35:31.86	317.69	66.95	-35.9	-36.7	24.6	0.00e+00	0	34	0	851443712	46	5549
2026-01-06 00:35:35.90	319.45	65.28	-36.5	-37.4	24.1	0.00e+00	0	34	0	858783744	46	5980
2026-01-06 00:35:39.93	320.96	63.63	-37.4	-38.4	23.3	0.00e+00	0	34	0	866123776	46	6765
2026-01-06 00:35:43.97	322.28	62.00	-37.3	-38.3	23.5	0.00e+00	0	34	0	874512384	46	6658
2026-01-06 00:35:48.00	323.44	60.41	-35.8	-36.6	24.8	0.00e+00	0	34	0	881852416	44	6109
2026-01-06 00:35:52.04	324.46	58.84	-40.2	-41.7	20.6	0.00e+00	0	34	0	889192448	52	6955
2026-01-06 00:35:56.08	325.38	57.30	-37.4	-38.4	23.3	0.00e+00	0	34	0	896532480	48	5966
2026-01-06 00:36:00.11	326.19	55.80	-35.9	-36.8	24.6	0.00e+00	0	34	0	903872512	46	5596
2026-01-06 00:36:04.14	326.93	54.34	-36.2	-37.1	24.3	0.00e+00	0	34	0	912261120	44	6482
2026-01-06 00:36:08.17	327.60	52.92	-35.3	-36.1	25.1	0.00e+00	0	34	0	919601152	44	5794
2026-01-06 00:36:12.21	328.21	51.52	-37.8	-38.7	22.9	0.00e+00	0	34	0	926941184	48	6239
2026-01-06 00:36:16.25	328.76	50.17	-38.7	-39.8	22.1	0.00e+00	0	34	0	934281216	50	6304
2026-01-06 00:36:20.28	329.27	48.85	-39.5	-40.7	21.5	0.00e+00	0	34	0	942669824	52	6211
2026-01-06 00:36:24.32	329.74	47.57	-39.1	-40.3	21.9	0.00e+00	0	34	0	950009856	50	6629
2026-01-06 00:36:28.36	330.18	46.32	-42.3	-44.3	18.4	0.00e+00	0	34	0	957349888	58	6679
2026-01-06 00:36:32.39	330.58	45.11	-38.2	-39.2	22.8	0.00e+00	0	34	0	964689920	50	5892
2026-01-06 00:36:36.43	330.96	43.93	-37.9	-38.9	22.9	0.00e+00	0	34	0	972029952	48	6361
2026-01-06 00:36:40.46	331.31	42.79	-40.2	-41.5	21.2	0.00e+00	0	34	0	980418560	52	6810
2026-01-06 00:36:44.50	331.63	41.68	-36.1	-36.9	24.4	0.00e+00	0	34	0	987758592	46	5674
2026-01-06 00:36:48.54	331.94	40.60	-38.0	-39.0	22.9	0.00e+00	0	34	0	995098624	48	6430
2026-01-06 00:36:52.58	332.23	39.56	-36.3	-37.1	24.3	0.00e+00	0	34	0	1002438656	46	5811
2026-01-06 00:36:56.62	332.50	38.54	-37.8	-38.7	23.2	0.00e+00	0	34	0	1010827264	48	6236
2026-01-06 00:37:00.65	332.76	37.55	-38.5	-39.6	22.4	0.00e+00	0	34	0	1018167296	48	6866
2026-01-06 00:37:04.69	333.00	36.59	-40.0	-41.4	21.0	0.00e+00	0	34	0	1025507328	52	6726
2026-01-06 00:37:08.73	333.23	35.66	-39.2	-40.4	21.9	0.00e+00	0	34	0	1032847360	52	5973
2026-01-06 00:37:12.77	333.45	34.75	-37.5	-38.4	23.6	0.00e+00	0	34	0	1040187392	48	5997
2026-01-06 00:37:16.80	333.66	33.87	-40.4	-41.7	20.7	0.00e+00	0	34	0	1048576000	52	6963
2026-01-06 00:37:20.84	333.86	33.01	-42.2	-44.0	18.7	0.00e+00	0	34	0	1055916032	56	7177
2026-01-06 00:37:24.88	334.05	32.18	-40.0	-41.3	20.9	0.00e+00	0	34	0	1063256064	54	5903
2026-01-06 00:37:28.92	334.23	31.37	-38.4	-39.4	22.7	0.00e+00	0	34	0	1070596096	50	6009
2026-01-06 00:37:32.96	334.40	30.58	-37.4	-38.3	23.4	0.00e+00	0	34	0	1078984704	48	5940
2026-01-06 00:37:37.00	334.56	29.81	-37.2	-38.1	23.5	0.00e+00	0	34	0	1086324736	48	5799
2026-01-06 00:37:41.04	334.72	29.06	-37.8	-38.7	23.1	0.00e+00	0	34	0	1093664768	48	6219
2026-01-06 00:37:45.08	334.87	28.33	-40.2	-41.4	20.9	0.00e+00	0	34	0	1101004800	52	6745
2026-01-06 00:37:49.12	335.02	27.62	-40.0	-41.3	21.0	0.00e+00	0	34	0	1108344832	52	6616
2026-01-06 00:37:53.15	335.16	26.93	-38.7	-39.8	22.3	0.00e+00	0	34	0	1116733440	50	6281
2026-01-06 00:37:57.19	335.29	26.25	-37.4	-38.3	23.4	0.00e+00	0	34	0	1124073472	48	5944
2026-01-06 00:38:01.22	335.42	25.59	-36.7	-37.6	23.9	0.00e+00	0	34	0	1131413504	46	6146
2026-01-06 00:38:05.26	335.55	24.95	-36.2	-37.1	24.2	0.00e+00	0	34	0	1138753536	46	5774
2026-01-06 00:38:09.30	335.67	24.32	-35.9	-36.7	24.6	0.00e+00	0	34	0	1147142144	46	5559
2026-01-06 00:38:13.35	335.79	23.71	-35.3	-36.1	24.9	0.00e+00	0	34	0	1154482176	44	5810
2026-01-06 00:38:17.38	335.90	23.11	-35.8	-36.6	24.5	0.00e+00	0	34	0	1161822208	44	6143
2026-01-06 00:38:21.42	336.01	22.52	-36.6	-37.4	23.9	0.00e+00	0	34	0	1169162240	44	6752
2026-01-06 00:38:25.46	336.12	21.95	-36.8	-37.6	23.9	0.00e+00	0	34	0	1176502272	46	6173
2026-01-06 00:38:29.50	336.22	21.39	-36.3	-37.1	24.2	0.00e+00	0	34	0	1184890880	46	5814
2026-01-06 00:38:33.53	336.32	20.84	-35.7	-36.5	24.7	0.00e+00	0	34	0	1192230912	44	6058
2026-01-06 00:38:37.57	336.42	20.31	-35.9	-36.7	24.5	0.00e+00	0	34	0	1199570944	44	6199
2026-01-06 00:38:41.60	336.51	19.78	-35.9	-36.8	24.5	0.00e+00	0	34	0	1206910976	44	6260
2026-01-06 00:38:45.64	336.61	19.27	-35.8	-36.6	24.5	0.00e+00	0	34	0	1215299584	44	6143
2026-01-06 00:38:49.67	336.70	18.76	-35.5	-36.3	24.6	0.00e+00	0	34	0	1222639616	44	5908
2026-01-06 00:38:53.71	336.78	18.27	-35.5	-36.3	24.7	0.00e+00	0	34	0	1229979648	44	5925
2026-01-06 00:38:57.75	336.87	17.79	-35.7	-36.5	24.6	0.00e+00	0	34	0	1237319680	44	6083
2026-01-06 00:39:01.79	336.95	17.31	-36.3	-37.1	24.1	0.00e+00	0	34	0	1244659712	44	6539
2026-01-06 00:39:05.83	337.03	16.85	-36.9	-37.8	23.4	0.00e+00	0	34	0	1253048320	46	6303
2026-01-06 00:39:09.87	337.11	16.39	-37.5	-38.4	23.1	0.00e+00	0	34	0	1260388352	46	6768
2026-01-06 00:39:13.91	337.19	15.94	-37.7	-38.7	22.9	0.00e+00	0	34	0	1267728384	48	6206
2026-01-06 00:39:17.94	337.26	15.50	-38.1	-39.1	22.5	0.00e+00	0	34	0	1275068416	48	6508
2026-01-06 00:39:21.98	337.34	15.07	-38.0	-39.0	22.6	0.00e+00	0	34	0	1283457024	48	6455
2026-01-06 00:39:26.02	337.41	14.64	-38.5	-39.6	22.2	0.00e+00	0	34	0	1290797056	50	6144
2026-01-06 00:39:30.05	337.48	14.23	-38.4	-39.4	22.3	0.00e+00	0	34	0	1298137088	50	5990
2026-01-06 00:39:34.09	337.55	13.81	-38.3	-39.3	22.6	0.00e+00	0	34	0	1305477120	50	5916
2026-01-06 00:39:38.13	337.62	13.41	-38.1	-39.2	22.7	0.00e+00	0	34	0	1312817152	50	5829
2026-01-06 00:39:42.16	337.69	13.01	-38.1	-39.1	22.6	0.00e+00	0	34	0	1321205760	50	5778
2026-01-06 00:39:46.20	337.75	12.62	-38.2	-39.2	22.5	0.00e+00	0	34	0	1328545792	50	5874
2026-01-06 00:39:50.24	337.81	12.24	-38.2	-39.2	22.4	0.00e+00	0	34	0	1335885824	50	5880
2026-01-06 00:39:54.27	337.88	11.86	-38.1	-39.1	22.5	0.00e+00	0	34	0	1343225856	50	5785
2026-01-06 00:39:58.32	337.94	11.49	-38.2	-39.2	22.4	0.00e+00	0	34	0	1350565888	50	5861
2026-01-06 00:40:02.35	338.00	11.12	-38.2	-39.2	22.4	0.00e+00	0	34	0	1358954496	50	5874
2026-01-06 00:40:06.39	338.06	10.76	-38.4	-39.4	22.3	0.00e+00	0	34	0	1366294528	50	6005
2026-01-06 00:40:10.43	338.12	10.40	-38.2	-39.2	22.4	0.00e+00	0	34	0	1373634560	50	5857
2026-01-06 00:40:14.47	338.18	10.05	-38.0	-39.1	22.6	0.00e+00	0	34	0	1380974592	50	5762
2026-01-06 00:40:18.51	338.23	9.70	-38.0	-39.0	22.5	0.00e+00	0	34	0	1389363200	50	5698
2026-01-06 00:40:22.55	338.29	9.36	-38.0	-39.0	22.5	0.00e+00	0	34	0	1396703232	50	5712
2026-01-06 00:40:26.58	338.34	9.02	-37.8	-38.8	22.6	0.00e+00	0	34	0	1404043264	48	6292
2026-01-06 00:40:30.62	338.40	8.69	-37.7	-38.7	22.7	0.00e+00	0	34	0	1411383296	48	6198
2026-01-06 00:40:34.66	338.45	8.36	-37.7	-38.7	22.7	0.00e+00	0	34	0	1418723328	48	6179
2026-01-06 00:40:38.70	338.50	8.04	-37.8	-38.7	22.6	0.00e+00	0	34	0	1427111936	48	6219
2026-01-06 00:40:42.74	338.55	7.72	-37.5	-38.4	22.8	0.00e+00	0	34	0	1434451968	48	6001
2026-01-06 00:40:46.77	338.60	7.40	-37.6	-38.6	22.7	0.00e+00	0	34	0	1441792000	48	6111
2026-01-06 00:40:50.81	338.65	7.09	-37.6	-38.6	22.7	0.00e+00	0	34	0	1449132032	48	6120
2026-01-06 00:40:54.85	338.70	6.78	-37.7	-38.7	22.5	0.00e+00	0	34	0	1457520640	48	6211
2026-01-06 00:40:58.88	338.75	6.48	-37.5	-38.5	22.7	0.00e+00	0	34	0	1464860672	48	6056
2026-01-06 00:41:02.92	338.80	6.18	-37.6	-38.6	22.5	0.00e+00	0	34	0	1472200704	48	6110
2026-01-06 00:41:06.96	338.85	5.88	-37.5	-38.5	22.5	0.00e+00	0	34	0	1479540736	48	6069
2026-01-06 00:41:11.00	338.90	5.58	-38.2	-39.3	21.6	0.00e+00	0	34	0	1486880768	48	6655
2026-01-06 00:41:15.03	338.94	5.29	-39.0	-40.3	20.0	0.00e+00	0	34	0	1495269376	50	6660
2026-01-06 00:41:19.08	338.99	5.00	-40.3	-42.1	17.8	0.00e+00	0	34	0	1502609408	52	7337
2026-01-06 00:41:23.11	339.03	4.72	-41.8	-44.8	14.3	7.00e-07	0	34	0	1509949440	54	8892
2026-01-06 00:41:27.15	339.08	4.44	-43.1	-48.2	10.0	3.30e-03	0	34	0	1517289472	58	10446
2026-01-06 00:41:31.19	339.12	4.16	-43.6	-51.4	5.9	2.46e-01	0	34	0	1525678080	58	15011
2026-01-06 00:41:35.23	339.17	3.88	-43.7	-56.1	3.9	1.48e+00	0	34	104	1530920960	58	25983
2026-01-06 00:41:39.27	339.21	3.61	-43.7	-58.0	3.6	1.51e+00	0	34	104	1530920960	58	32381
2026-01-06 00:41:43.30	339.25	3.34	-43.8	-59.1	3.6	1.51e+00	0	34	104	1530920960	60	32418
2026-01-06 00:41:47.34	339.30	3.07	-43.8	-59.0	3.6	1.51e+00	0	34	104	1530920960	60	32134
2026-01-06 00:41:51.38	339.34	2.80	-48.6	-63.7	3.6	1.51e+00	0	34	104	1530920960	60	55635
2026-01-06 00:41:55.42	339.38	2.54	-48.9	-64.1	3.6	1.51e+00	0	34	104	1530920960	60	57780
2026-01-06 00:41:59.46	339.42	2.28	-48.8	-64.0	3.6	1.51e+00	0	34	104	1530920960	60	57198
2026-01-06 00:42:03.50	339.46	2.02	-48.8	-64.0	3.6	1.51e+00	0	34	104	1530920960	60	56962
2026-01-06 00:42:07.54	339.50	1.77	-48.8	-64.0	3.6	1.51e+00	0	34	104	1530920960	60	57062
2026-01-06 00:42:11.58	339.54	1.51	-48.8	-64.0	3.6	1.51e+00	0	34	104	1530920960	60	56963
2026-01-06 00:42:15.62	339.58	1.26	-48.8	-64.0	3.6	1.51e+00	0	34	104	1530920960	60	56989
2026-01-06 00:42:19.66	339.62	1.01	-48.8	-64.0	3.6	1.51e+00	0	34	104	1530920960	60	57034
2026-01-06 00:42:23.70	339.66	0.76	-48.8	-64.0	3.6	1.51e+00	0	34	104	1530920960	60	57069
2026-01-06 00:42:27.74	339.70	0.52	-48.8	-63.9	3.6	1.51e+00	0	34	104	1530920960	60	56768
2026-01-06 00:42:31.78	339.74	0.28	-48.8	-64.0	3.6	1.51e+00	0	34	104	1530920960	60	57166
2026-01-06 00:42:35.82	339.78	0.03	-48.8	-63.9	3.6	1.51e+00	0	34	104	1530920960	60	56846

#Closed at: 2026-01-06 00:42:37
#Recorded file [1530 MB]: D:/lorett/data/35029_260106_122707.dat