passes_logs/2026/01/06/R4.6S_Anadyr/R4.6S_Anadyr__20260106_031447_FENGYUN_3E_rec.log

#Pass ID: 20260106_031447_FENGYUN 3E
#Satellite: FENGYUN 3E
#Configuration: FENGYUN 3E
#almurnet v.1.7.20251203
#Start time: 2026-01-06 03:14:49

#Version: 2.2.20231116
#Station: R4.6S_Anadyr
#Location: 177.4865 lon 64.73178 lat
#TLE: 1 49008U 21062A   26005.56299987  .00000339  00000+0  18069-3 0  9991
#TLE: 2 49008  98.7472  10.8019 0001562 158.0357 202.0886 14.19884907233502

#Time	Az	El	Level	Level2	SNR	BER	BlckErr	Temp	State	Recorded	gain1	gain2
2026-01-06 03:14:49.32	125.66	0.13	-48.8	-66.6	3.5	3.02e+01	0	31	0	0	60	82352
2026-01-06 03:14:53.35	125.54	0.36	-48.5	-59.7	3.6	8.46e-01	0	33	104	0	60	34910
2026-01-06 03:14:57.39	125.42	0.60	-48.5	-59.7	3.6	8.45e-01	0	33	104	0	60	35090
2026-01-06 03:15:01.43	125.29	0.84	-48.1	-59.5	3.6	8.46e-01	0	33	104	0	60	34152
2026-01-06 03:15:05.47	125.16	1.09	-47.3	-58.8	3.5	8.45e-01	0	33	104	0	60	31629
2026-01-06 03:15:09.51	125.03	1.33	-46.9	-58.2	3.6	8.44e-01	0	33	104	0	60	29254
2026-01-06 03:15:13.54	124.89	1.58	-46.9	-58.2	3.6	8.45e-01	0	33	104	0	60	29293
2026-01-06 03:15:17.58	124.75	1.83	-46.9	-58.2	3.6	8.46e-01	0	33	104	0	60	29325
2026-01-06 03:15:21.62	124.61	2.08	-46.9	-57.8	3.6	8.45e-01	0	33	104	0	60	28217
2026-01-06 03:15:25.66	124.47	2.33	-46.9	-57.7	3.6	8.44e-01	0	33	104	0	60	27810
2026-01-06 03:15:29.70	124.33	2.58	-46.9	-58.2	3.6	8.44e-01	0	33	104	0	60	29263
2026-01-06 03:15:33.74	124.18	2.84	-46.9	-57.7	3.6	8.45e-01	0	34	104	0	60	27775
2026-01-06 03:15:37.78	124.03	3.10	-46.7	-56.4	3.6	8.45e-01	0	34	104	0	60	23932
2026-01-06 03:15:41.82	123.88	3.36	-46.4	-54.0	4.3	8.36e-01	0	34	104	0	60	18156
2026-01-06 03:15:45.86	123.72	3.62	-41.5	-43.1	14.1	1.02e-05	0	34	0	25165824	56	6506
2026-01-06 03:15:49.90	123.56	3.89	-46.2	-56.4	3.6	8.83e-01	0	34	104	37748736	60	23866
2026-01-06 03:15:53.94	123.40	4.16	-37.1	-37.9	19.5	0.00e+00	0	34	0	52428800	48	5679
2026-01-06 03:15:57.98	123.23	4.43	-35.3	-36.0	21.1	0.00e+00	0	34	0	81788928	44	5736
2026-01-06 03:16:02.02	123.06	4.70	-34.4	-35.0	22.2	0.00e+00	0	34	0	111149056	42	5761
2026-01-06 03:16:06.05	122.89	4.98	-34.1	-34.7	22.6	0.00e+00	0	34	0	139460608	42	5544
2026-01-06 03:16:10.09	122.71	5.26	-34.2	-34.8	22.7	0.00e+00	0	34	0	168820736	42	5580
2026-01-06 03:16:14.13	122.53	5.54	-33.9	-34.5	22.9	0.00e+00	0	34	0	198180864	42	5391
2026-01-06 03:16:18.16	122.35	5.82	-33.7	-34.3	23.0	0.00e+00	0	34	0	227540992	40	5960
2026-01-06 03:16:22.20	122.16	6.11	-33.6	-34.1	23.3	0.00e+00	0	34	0	256901120	40	5826
2026-01-06 03:16:26.24	121.97	6.40	-33.5	-34.0	23.3	0.00e+00	0	34	0	286261248	40	5757
2026-01-06 03:16:30.28	121.78	6.69	-33.5	-34.1	23.4	0.00e+00	0	34	0	314572800	40	5797
2026-01-06 03:16:34.32	121.58	6.99	-33.5	-34.0	23.4	0.00e+00	0	34	0	343932928	40	5760
2026-01-06 03:16:38.36	121.37	7.28	-33.3	-33.9	23.6	0.00e+00	0	34	0	373293056	40	5632
2026-01-06 03:16:42.39	121.17	7.59	-33.5	-34.0	23.4	0.00e+00	0	34	0	402653184	40	5752
2026-01-06 03:16:46.43	120.95	7.89	-33.1	-33.7	23.9	0.00e+00	0	34	0	432013312	40	5505
2026-01-06 03:16:50.47	120.74	8.20	-33.1	-33.6	23.9	0.00e+00	0	34	0	460324864	40	5481
2026-01-06 03:16:54.51	120.51	8.51	-32.9	-33.5	24.0	0.00e+00	0	34	0	489684992	40	5390
2026-01-06 03:16:58.55	120.29	8.83	-32.7	-33.3	24.3	0.00e+00	0	34	0	519045120	38	5910
2026-01-06 03:17:02.58	120.05	9.14	-32.8	-33.4	24.4	0.00e+00	0	34	0	548405248	38	5978
2026-01-06 03:17:06.62	119.81	9.47	-32.6	-33.1	24.4	0.00e+00	0	34	0	576716800	38	5804
2026-01-06 03:17:10.66	119.57	9.79	-32.4	-32.9	24.7	0.00e+00	0	34	0	606076928	38	5673
2026-01-06 03:17:14.70	119.32	10.12	-32.2	-32.8	24.9	0.00e+00	0	34	0	635437056	38	5567
2026-01-06 03:17:18.74	119.06	10.46	-32.1	-32.6	24.9	0.00e+00	0	34	0	664797184	38	5494
2026-01-06 03:17:22.78	118.80	10.79	-32.0	-32.6	25.0	0.00e+00	0	34	0	693108736	38	5441
2026-01-06 03:17:26.81	118.53	11.13	-32.1	-32.6	24.9	0.00e+00	0	34	0	722468864	38	5492
2026-01-06 03:17:30.85	118.26	11.48	-32.1	-32.6	25.1	0.00e+00	0	34	0	751828992	38	5497
2026-01-06 03:17:34.89	117.98	11.83	-32.1	-32.6	25.1	0.00e+00	0	34	0	781189120	38	5464
2026-01-06 03:17:38.93	117.69	12.19	-31.7	-32.2	25.4	0.00e+00	0	34	0	810549248	36	5880
2026-01-06 03:17:42.97	117.39	12.54	-31.7	-32.2	25.4	0.00e+00	0	34	0	839909376	36	5854
2026-01-06 03:17:47.00	117.09	12.91	-31.5	-32.0	25.6	0.00e+00	0	34	0	868220928	36	5742
2026-01-06 03:17:51.04	116.78	13.28	-31.6	-32.1	25.5	0.00e+00	0	34	0	897581056	36	5811
2026-01-06 03:17:55.08	116.45	13.65	-31.7	-32.3	25.4	0.00e+00	0	34	0	926941184	36	5917
2026-01-06 03:17:59.12	116.13	14.03	-31.3	-31.9	26.0	0.00e+00	0	34	0	956301312	36	5631
2026-01-06 03:18:03.15	115.79	14.41	-31.3	-31.8	25.8	0.00e+00	0	34	0	985661440	36	5617
2026-01-06 03:18:07.19	115.44	14.80	-31.4	-31.9	25.7	0.00e+00	0	34	0	1015021568	36	5671
2026-01-06 03:18:11.23	115.09	15.19	-31.4	-31.9	25.8	0.00e+00	0	34	0	1043333120	36	5652
2026-01-06 03:18:15.27	114.72	15.59	-31.3	-31.8	26.3	0.00e+00	0	34	0	1072693248	36	5591
2026-01-06 03:18:19.31	114.34	15.99	-30.9	-31.4	26.2	0.00e+00	0	34	0	1102053376	36	5371
2026-01-06 03:18:23.34	113.96	16.40	-30.7	-31.2	26.3	0.00e+00	0	34	0	1131413504	34	5895
2026-01-06 03:18:27.38	113.56	16.81	-30.8	-31.3	26.2	0.00e+00	0	34	0	1160773632	34	5930
2026-01-06 03:18:31.42	113.15	17.23	-30.7	-31.2	26.4	0.00e+00	0	34	0	1189085184	34	5888
2026-01-06 03:18:35.46	112.73	17.66	-30.5	-31.0	26.5	0.00e+00	0	34	0	1218445312	34	5748
2026-01-06 03:18:39.49	112.29	18.09	-30.6	-31.1	26.5	0.00e+00	0	34	0	1247805440	34	5805
2026-01-06 03:18:43.53	111.85	18.53	-30.3	-30.8	26.7	0.00e+00	0	34	0	1277165568	34	5617
2026-01-06 03:18:47.57	111.39	18.97	-30.0	-30.5	27.1	0.00e+00	0	34	0	1305477120	32	6052
2026-01-06 03:18:51.61	110.91	19.42	-29.6	-30.1	27.4	0.00e+00	0	34	0	1334837248	32	5795
2026-01-06 03:18:55.65	110.42	19.88	-29.6	-30.1	27.3	0.00e+00	0	34	0	1364197376	32	5797
2026-01-06 03:18:59.69	109.92	20.34	-29.7	-30.1	27.3	0.00e+00	0	34	0	1393557504	32	5828
2026-01-06 03:19:03.72	109.40	20.81	-29.8	-30.2	27.1	0.00e+00	0	34	0	1421869056	32	5886
2026-01-06 03:19:07.76	108.87	21.28	-29.7	-30.1	27.4	0.00e+00	0	34	0	1451229184	32	5818
2026-01-06 03:19:11.80	108.31	21.76	-29.3	-29.7	27.6	0.00e+00	0	34	0	1480589312	32	5547
2026-01-06 03:19:15.84	107.74	22.25	-29.1	-29.6	27.8	0.00e+00	0	34	0	1509949440	32	5476
2026-01-06 03:19:19.87	107.15	22.74	-29.3	-29.8	27.6	0.00e+00	0	34	0	1539309568	32	5568
2026-01-06 03:19:23.90	106.54	23.24	-29.2	-29.7	27.6	0.00e+00	0	34	0	1568669696	32	5534
2026-01-06 03:19:27.94	105.91	23.74	-29.2	-29.7	27.5	0.00e+00	0	34	0	1596981248	32	5547
2026-01-06 03:19:31.98	105.26	24.25	-29.3	-29.8	27.7	0.00e+00	0	34	0	1626341376	32	5602
2026-01-06 03:19:36.02	104.59	24.77	-29.4	-29.9	27.6	0.00e+00	0	34	0	1655701504	32	5651
2026-01-06 03:19:40.05	103.90	25.29	-29.0	-29.5	27.8	0.00e+00	0	34	0	1685061632	30	6054
2026-01-06 03:19:44.09	103.18	25.82	-29.1	-29.6	27.6	0.00e+00	0	34	0	1714421760	30	6167
2026-01-06 03:19:48.13	102.44	26.35	-29.2	-29.7	27.8	0.00e+00	0	34	0	1742733312	30	6224
2026-01-06 03:19:52.17	101.67	26.89	-29.5	-30.0	27.5	0.00e+00	0	34	0	1772093440	30	6439
2026-01-06 03:19:56.20	100.87	27.43	-29.5	-30.0	27.5	0.00e+00	0	34	0	1801453568	32	5727
2026-01-06 03:20:00.24	100.05	27.98	-29.3	-29.8	27.9	0.00e+00	0	34	0	1830813696	32	5584
2026-01-06 03:20:04.28	99.19	28.53	-29.0	-29.5	27.9	0.00e+00	0	34	0	1859125248	32	5402
2026-01-06 03:20:08.32	98.31	29.09	-28.8	-29.3	28.0	0.00e+00	0	34	0	1888485376	32	5291
2026-01-06 03:20:12.36	97.39	29.64	-28.7	-29.2	28.2	0.00e+00	0	34	0	1917845504	30	5859
2026-01-06 03:20:16.39	96.45	30.20	-28.4	-28.9	28.3	0.00e+00	0	34	0	1947205632	30	5653
2026-01-06 03:20:20.43	95.47	30.77	-28.3	-28.8	28.4	0.00e+00	0	34	0	1975517184	30	5572
2026-01-06 03:20:24.45	94.46	31.33	-28.4	-28.9	28.3	0.00e+00	0	34	0	2004877312	30	5671
2026-01-06 03:20:28.49	93.40	31.89	-28.8	-29.2	28.1	0.00e+00	0	34	0	2034237440	30	5879
2026-01-06 03:20:32.53	92.31	32.45	-29.0	-29.5	27.9	0.00e+00	0	34	0	2063597568	30	6060
2026-01-06 03:20:36.57	91.18	33.02	-28.5	-29.0	28.3	0.00e+00	0	34	0	2092957696	30	5696
2026-01-06 03:20:40.61	90.02	33.57	-28.5	-29.0	28.3	0.00e+00	0	34	0	2122317824	30	5716
2026-01-06 03:20:44.65	88.81	34.13	-28.8	-29.3	28.1	0.00e+00	0	34	0	2150629376	30	5897
2026-01-06 03:20:48.69	87.55	34.68	-28.5	-29.0	28.3	0.00e+00	0	34	0	2179989504	30	5731
2026-01-06 03:20:52.73	86.26	35.22	-28.6	-29.0	28.3	0.00e+00	0	34	0	2209349632	30	5758
2026-01-06 03:20:56.77	84.92	35.75	-28.6	-29.1	28.3	0.00e+00	0	34	0	2238709760	30	5802
2026-01-06 03:21:00.80	83.54	36.28	-28.8	-29.3	28.2	0.00e+00	0	34	0	2268069888	30	5899
2026-01-06 03:21:04.84	82.11	36.79	-28.6	-29.1	28.3	0.00e+00	0	34	0	2297430016	30	5792
2026-01-06 03:21:08.88	80.64	37.29	-28.7	-29.2	28.2	0.00e+00	0	34	0	2325741568	30	5840
2026-01-06 03:21:12.91	79.13	37.78	-29.2	-29.7	27.7	0.00e+00	0	34	0	2355101696	30	6224
2026-01-06 03:21:16.95	77.56	38.24	-29.5	-30.0	27.6	0.00e+00	0	34	0	2384461824	30	6428
2026-01-06 03:21:20.99	75.95	38.69	-28.8	-29.3	28.1	0.00e+00	0	34	0	2413821952	30	5921
2026-01-06 03:21:25.03	74.30	39.12	-29.0	-29.5	28.1	0.00e+00	0	34	0	2442133504	30	6037
2026-01-06 03:21:29.07	72.61	39.53	-29.3	-29.8	27.8	0.00e+00	0	34	0	2471493632	30	6280
2026-01-06 03:21:33.11	70.87	39.91	-29.1	-29.6	27.9	0.00e+00	0	34	0	2500853760	30	6115
2026-01-06 03:21:37.15	69.09	40.26	-28.6	-29.0	28.3	0.00e+00	0	34	0	2530213888	30	5741
2026-01-06 03:21:41.18	67.28	40.59	-28.8	-29.2	28.2	0.00e+00	0	34	0	2558525440	30	5896
2026-01-06 03:21:45.21	65.44	40.88	-29.1	-29.6	27.9	0.00e+00	0	34	0	2587885568	30	6156
2026-01-06 03:21:49.25	63.55	41.15	-28.9	-29.3	28.1	0.00e+00	0	34	0	2617245696	30	5957
2026-01-06 03:21:53.29	61.64	41.37	-28.9	-29.3	28.1	0.00e+00	0	34	0	2646605824	30	5949
2026-01-06 03:21:57.32	59.71	41.57	-28.5	-28.9	28.4	0.00e+00	0	34	0	2675965952	30	5687
2026-01-06 03:22:01.36	57.76	41.72	-28.4	-28.9	28.5	0.00e+00	0	35	0	2704277504	30	5666
2026-01-06 03:22:05.40	55.78	41.84	-28.6	-29.1	28.3	0.00e+00	0	34	0	2733637632	30	5771
2026-01-06 03:22:09.44	53.80	41.92	-28.6	-29.0	28.3	0.00e+00	0	34	0	2762997760	30	5744
2026-01-06 03:22:13.47	51.81	41.97	-28.6	-29.1	28.2	0.00e+00	0	34	0	2792357888	30	5783
2026-01-06 03:22:17.51	49.81	41.97	-28.5	-29.0	28.3	0.00e+00	0	34	0	2821718016	30	5728
2026-01-06 03:22:21.55	47.82	41.93	-28.4	-28.9	28.4	0.00e+00	0	34	0	2851078144	30	5660
2026-01-06 03:22:25.59	45.83	41.86	-28.4	-28.9	28.3	0.00e+00	0	34	0	2879389696	30	5675
2026-01-06 03:22:29.62	43.86	41.74	-29.0	-29.4	27.9	0.00e+00	0	34	0	2908749824	30	6007
2026-01-06 03:22:33.66	41.90	41.59	-28.8	-29.2	28.2	0.00e+00	0	34	0	2938109952	30	5881
2026-01-06 03:22:37.70	39.97	41.40	-29.1	-29.6	27.9	0.00e+00	0	34	0	2967470080	30	6145
2026-01-06 03:22:41.74	38.05	41.18	-28.8	-29.3	28.2	0.00e+00	0	34	0	2996830208	30	5902
2026-01-06 03:22:45.78	36.17	40.92	-28.5	-29.0	28.4	0.00e+00	0	35	0	3025141760	30	5734
2026-01-06 03:22:49.81	34.32	40.63	-28.5	-28.9	28.4	0.00e+00	0	34	0	3054501888	30	5673
2026-01-06 03:22:53.85	32.50	40.31	-28.9	-29.3	28.1	0.00e+00	0	34	0	3083862016	30	5949
2026-01-06 03:22:57.89	30.72	39.96	-28.6	-29.1	28.3	0.00e+00	0	34	0	3113222144	30	5789
2026-01-06 03:23:01.93	28.98	39.58	-28.5	-29.0	28.4	0.00e+00	0	34	0	3141533696	30	5714
2026-01-06 03:23:05.97	27.29	39.18	-28.2	-28.7	28.5	0.00e+00	0	34	0	3170893824	30	5538
2026-01-06 03:23:10.01	25.63	38.76	-28.5	-28.9	28.4	0.00e+00	0	35	0	3200253952	30	5687
2026-01-06 03:23:14.05	24.02	38.31	-28.6	-29.0	28.3	0.00e+00	0	34	0	3229614080	30	5759
2026-01-06 03:23:18.09	22.45	37.84	-28.5	-29.0	28.0	0.00e+00	0	34	0	3258974208	30	5731
2026-01-06 03:23:22.13	20.93	37.36	-28.4	-28.9	28.5	0.00e+00	0	34	0	3287285760	30	5640
2026-01-06 03:23:26.17	19.46	36.87	-28.8	-29.3	28.1	0.00e+00	0	35	0	3316645888	30	5911
2026-01-06 03:23:30.20	18.03	36.36	-28.7	-29.1	28.3	0.00e+00	0	34	0	3346006016	30	5816
2026-01-06 03:23:34.24	16.64	35.83	-28.3	-28.8	28.5	0.00e+00	0	35	0	3375366144	30	5582
2026-01-06 03:23:38.28	15.30	35.30	-28.3	-28.8	28.4	0.00e+00	0	35	0	3404726272	30	5582
2026-01-06 03:23:42.32	14.01	34.76	-28.4	-28.9	28.3	0.00e+00	0	35	0	3433037824	30	5677
2026-01-06 03:23:46.36	12.75	34.21	-28.3	-28.7	28.6	0.00e+00	0	34	0	3462397952	30	5549
2026-01-06 03:23:50.40	11.54	33.66	-28.6	-29.1	28.3	0.00e+00	0	35	0	3491758080	30	5773
2026-01-06 03:23:54.44	10.37	33.11	-28.5	-29.0	28.3	0.00e+00	0	34	0	3521118208	30	5730
2026-01-06 03:23:58.48	9.24	32.55	-28.3	-28.7	28.5	0.00e+00	0	34	0	3550478336	30	5552
2026-01-06 03:24:02.51	8.15	31.99	-28.3	-28.8	28.5	0.00e+00	0	34	0	3578789888	30	5569
2026-01-06 03:24:06.55	7.09	31.42	-27.9	-28.4	28.7	0.00e+00	0	34	0	3608150016	30	5319
2026-01-06 03:24:10.59	6.07	30.86	-28.4	-28.8	28.5	0.00e+00	0	34	0	3637510144	30	5623
2026-01-06 03:24:14.62	5.09	30.30	-28.9	-29.3	28.0	0.00e+00	0	34	0	3666870272	30	5961
2026-01-06 03:24:18.66	4.14	29.74	-29.0	-29.5	28.0	0.00e+00	0	34	0	3696230400	30	6034
2026-01-06 03:24:22.70	3.23	29.19	-28.5	-28.9	28.4	0.00e+00	0	35	0	3725590528	30	5674
2026-01-06 03:24:26.74	2.34	28.63	-28.6	-29.1	28.2	0.00e+00	0	35	0	3753902080	30	5771
2026-01-06 03:24:30.78	1.49	28.08	-28.8	-29.2	27.6	0.00e+00	0	35	0	3783262208	30	5881
2026-01-06 03:24:34.81	0.66	27.54	-28.7	-29.1	28.2	0.00e+00	0	35	0	3812622336	30	5824
2026-01-06 03:24:38.85	359.87	26.99	-28.9	-29.4	28.0	0.00e+00	0	35	0	3841982464	30	5972
2026-01-06 03:24:42.89	359.10	26.46	-28.8	-29.2	28.0	0.00e+00	0	35	0	3871342592	30	5891
2026-01-06 03:24:46.93	358.35	25.92	-28.8	-29.3	27.8	0.00e+00	0	35	0	3899654144	30	5911
2026-01-06 03:24:50.97	357.63	25.40	-28.8	-29.2	27.6	0.00e+00	0	35	0	3929014272	30	5894
2026-01-06 03:24:55.01	356.94	24.88	-29.2	-29.6	27.6	0.00e+00	0	35	0	3958374400	30	6158
2026-01-06 03:24:59.04	356.27	24.36	-29.1	-29.5	27.5	0.00e+00	0	35	0	3987734528	30	6087
2026-01-06 03:25:03.08	355.62	23.85	-28.8	-29.2	28.0	0.00e+00	0	34	0	4016046080	30	5867
2026-01-06 03:25:07.12	354.99	23.35	-29.0	-29.5	27.8	0.00e+00	0	35	0	4045406208	30	6060
2026-01-06 03:25:11.16	354.38	22.85	-29.1	-29.5	27.8	0.00e+00	0	35	0	4074766336	30	6084
2026-01-06 03:25:15.19	353.79	22.36	-29.2	-29.6	27.8	0.00e+00	0	35	0	4104126464	30	6173
2026-01-06 03:25:19.24	353.22	21.87	-29.3	-29.8	27.5	0.00e+00	0	35	0	4133486592	30	6287
2026-01-06 03:25:23.28	352.66	21.39	-29.3	-29.8	27.7	0.00e+00	0	34	0	4161798144	30	6284
2026-01-06 03:25:27.32	352.13	20.92	-29.5	-30.0	27.5	0.00e+00	0	34	0	4191158272	30	6426
2026-01-06 03:25:31.35	351.61	20.45	-30.1	-30.5	27.0	0.00e+00	0	35	0	4220518400	32	6103
2026-01-06 03:25:35.39	351.10	19.99	-29.9	-30.3	27.2	0.00e+00	0	35	0	4249878528	32	5957
2026-01-06 03:25:39.44	350.62	19.53	-30.1	-30.6	27.1	0.00e+00	0	35	0	4279238656	32	6140
2026-01-06 03:25:43.48	350.14	19.09	-30.2	-30.7	26.6	0.00e+00	0	35	0	4307550208	32	6215
2026-01-06 03:25:47.52	349.68	18.64	-30.2	-30.7	26.9	0.00e+00	0	35	0	4336910336	32	6210
2026-01-06 03:25:51.56	349.24	18.21	-30.0	-30.5	27.1	0.00e+00	0	34	0	4366270464	32	6052
2026-01-06 03:25:55.60	348.80	17.77	-30.0	-30.5	27.1	0.00e+00	0	35	0	4395630592	32	6059
2026-01-06 03:25:59.64	348.38	17.35	-30.2	-30.7	26.8	0.00e+00	0	35	0	4424990720	32	6206
2026-01-06 03:26:03.67	347.97	16.93	-30.4	-30.9	26.6	0.00e+00	0	35	0	4454350848	32	6354
2026-01-06 03:26:07.71	347.58	16.52	-30.5	-31.0	26.6	0.00e+00	0	35	0	4482662400	32	6393
2026-01-06 03:26:11.75	347.19	16.11	-30.5	-31.0	26.6	0.00e+00	0	35	0	4512022528	32	6428
2026-01-06 03:26:15.78	346.82	15.70	-30.5	-31.0	26.5	0.00e+00	0	34	0	4541382656	32	6421
2026-01-06 03:26:19.82	346.45	15.31	-30.8	-31.3	26.3	0.00e+00	0	35	0	4570742784	34	5934
2026-01-06 03:26:23.86	346.10	14.91	-30.9	-31.4	26.2	0.00e+00	0	35	0	4600102912	34	6024
2026-01-06 03:26:27.90	345.75	14.53	-31.3	-31.8	25.9	0.00e+00	0	35	0	4628414464	34	6255
2026-01-06 03:26:31.94	345.42	14.14	-31.4	-31.9	25.7	0.00e+00	0	35	0	4657774592	34	6355
2026-01-06 03:26:35.97	345.09	13.77	-31.6	-32.1	25.5	0.00e+00	0	35	0	4687134720	34	6512
2026-01-06 03:26:40.01	344.77	13.40	-31.8	-32.3	25.4	0.00e+00	0	35	0	4716494848	36	5954
2026-01-06 03:26:44.05	344.46	13.03	-31.9	-32.5	25.2	0.00e+00	0	35	0	4745854976	36	6054
2026-01-06 03:26:48.09	344.16	12.66	-32.0	-32.6	25.0	0.00e+00	0	35	0	4774166528	36	6116
2026-01-06 03:26:52.13	343.86	12.30	-32.2	-32.7	25.0	0.00e+00	0	35	0	4803526656	36	6223
2026-01-06 03:26:56.16	343.57	11.95	-32.2	-32.8	24.9	0.00e+00	0	35	0	4832886784	36	6250
2026-01-06 03:27:00.20	343.29	11.60	-32.2	-32.7	24.9	0.00e+00	0	35	0	4862246912	36	6239
2026-01-06 03:27:04.24	343.02	11.26	-32.2	-32.8	24.9	0.00e+00	0	35	0	4891607040	36	6249
2026-01-06 03:27:08.28	342.75	10.91	-32.4	-32.9	24.7	0.00e+00	0	35	0	4920967168	36	6387
2026-01-06 03:27:12.32	342.49	10.58	-32.5	-33.0	24.6	0.00e+00	0	34	0	4949278720	36	6431
2026-01-06 03:27:16.36	342.24	10.24	-32.6	-33.1	24.5	0.00e+00	0	35	0	4978638848	36	6505
2026-01-06 03:27:20.40	341.99	9.91	-32.7	-33.2	24.4	0.00e+00	0	35	0	5007998976	38	5881
2026-01-06 03:27:24.44	341.75	9.59	-32.8	-33.4	24.2	0.00e+00	0	35	0	5037359104	38	5981
2026-01-06 03:27:28.48	341.51	9.27	-33.0	-33.5	24.1	0.00e+00	0	35	0	5065670656	38	6085
2026-01-06 03:27:32.52	341.28	8.95	-33.1	-33.7	23.8	0.00e+00	0	35	0	5095030784	38	6190
2026-01-06 03:27:36.56	341.06	8.63	-33.2	-33.7	23.8	0.00e+00	0	35	0	5124390912	38	6242
2026-01-06 03:27:40.60	340.84	8.32	-33.4	-34.0	23.6	0.00e+00	0	35	0	5153751040	38	6409
2026-01-06 03:27:44.64	340.62	8.01	-33.4	-33.9	23.6	0.00e+00	0	34	0	5183111168	38	6373
2026-01-06 03:27:48.68	340.41	7.71	-33.4	-34.0	23.5	0.00e+00	0	35	0	5211422720	38	6444
2026-01-06 03:27:52.72	340.20	7.41	-33.6	-34.2	23.3	0.00e+00	0	35	0	5240782848	38	6576
2026-01-06 03:27:56.76	340.00	7.11	-33.6	-34.2	23.2	0.00e+00	0	35	0	5270142976	40	5848
2026-01-06 03:28:00.79	339.81	6.81	-33.6	-34.2	23.3	0.00e+00	0	35	0	5299503104	40	5868
2026-01-06 03:28:04.83	339.61	6.52	-33.5	-34.0	23.3	0.00e+00	0	35	0	5328863232	40	5757
2026-01-06 03:28:08.87	339.42	6.23	-33.5	-34.1	23.2	0.00e+00	0	35	0	5357174784	40	5790
2026-01-06 03:28:12.90	339.24	5.94	-33.9	-34.5	22.6	0.00e+00	0	35	0	5386534912	40	6047
2026-01-06 03:28:16.94	339.06	5.66	-33.7	-34.3	22.8	0.00e+00	0	35	0	5415895040	40	5900
2026-01-06 03:28:20.98	338.88	5.38	-34.3	-34.9	21.8	1.10e-06	0	35	0	5445255168	40	6361
2026-01-06 03:28:25.02	338.71	5.10	-35.7	-36.5	19.8	0.00e+00	0	35	0	5474615296	42	6789
2026-01-06 03:28:29.06	338.54	4.83	-37.2	-38.3	17.1	0.00e+00	0	35	0	5502926848	46	6630
2026-01-06 03:28:33.09	338.37	4.55	-39.4	-41.1	13.4	5.70e-06	0	35	0	5532286976	50	7284
2026-01-06 03:28:37.13	338.21	4.28	-41.4	-44.5	8.7	1.86e-02	0	35	0	5561647104	54	8611
2026-01-06 03:28:41.17	338.05	4.01	-42.7	-48.3	4.6	7.58e-01	0	35	0	5585764352	56	11780
2026-01-06 03:28:45.20	337.89	3.75	-43.0	-52.8	3.6	8.45e-01	0	35	104	5585764352	58	17793
2026-01-06 03:28:49.24	337.74	3.49	-43.1	-54.0	3.6	8.45e-01	0	35	104	5585764352	58	20345
2026-01-06 03:28:53.28	337.59	3.22	-43.2	-54.3	3.6	8.47e-01	0	35	104	5585764352	58	21123
2026-01-06 03:28:57.31	337.44	2.97	-46.3	-57.6	3.6	8.45e-01	0	35	104	5585764352	60	27264
2026-01-06 03:29:01.35	337.30	2.71	-48.4	-59.6	3.6	8.46e-01	0	35	104	5585764352	60	34664
2026-01-06 03:29:05.39	337.16	2.45	-48.4	-59.8	3.6	8.47e-01	0	35	104	5585764352	60	35415
2026-01-06 03:29:09.43	337.02	2.20	-48.1	-59.7	3.6	8.45e-01	0	35	104	5585764352	60	34835
2026-01-06 03:29:13.47	336.88	1.95	-48.5	-59.8	3.6	8.46e-01	0	35	104	5585764352	60	35167
2026-01-06 03:29:17.51	336.75	1.70	-48.5	-59.7	3.6	8.45e-01	0	35	104	5585764352	60	34996
2026-01-06 03:29:21.54	336.62	1.46	-48.4	-59.7	3.6	8.45e-01	0	35	104	5585764352	60	34937
2026-01-06 03:29:25.58	336.49	1.21	-48.4	-59.7	3.6	8.45e-01	0	35	104	5585764352	60	34981
2026-01-06 03:29:29.62	336.36	0.97	-48.4	-59.7	3.6	8.47e-01	0	35	104	5585764352	60	34923
2026-01-06 03:29:33.66	336.24	0.73	-48.4	-59.7	3.6	8.46e-01	0	35	104	5585764352	60	34841
2026-01-06 03:29:37.70	336.11	0.49	-48.4	-59.7	3.6	8.46e-01	0	35	104	5585764352	60	35042
2026-01-06 03:29:41.73	335.99	0.25	-48.4	-59.7	3.6	8.46e-01	0	35	104	5585764352	60	34981
2026-01-06 03:29:45.78	335.88	0.02	-48.4	-59.7	3.5	8.46e-01	0	35	104	5585764352	60	34885

#Closed at: 2026-01-06 03:29:46
#Recorded file [5585 MB]: D:/lorett/data/35029_260106_151449.dat