passes_logs/2026/01/06/R4.6S_Anadyr/R4.6S_Anadyr__20260106_134320_NOAA_21_JPSS-2_rec.log

#Pass ID: 20260106_134320_NOAA 21 (JPSS-2)
#Satellite: NOAA 21 (JPSS-2)
#Configuration: NOAA-21
#almurnet v.1.7.20251203
#Start time: 2026-01-06 13:43:20

#Version: 2.2.20231116
#Station: R4.6S_Anadyr
#Location: 177.4865 lon 64.73178 lat
#TLE: 1 54234U 22150A   26005.42670836  .00000142  00000+0  88292-4 0  9996
#TLE: 2 54234  98.7490 306.4427 0001045 340.6622  19.4514 14.19532269163451

#Time	Az	El	Level	Level2	SNR	BER	BlckErr	Temp	State	Recorded	gain1	gain2
2026-01-06 13:43:20.57	19.01	0.03	-48.7	-63.6	3.5	1.51e+00	0	33	0	0	60	54502
2026-01-06 13:43:24.60	19.14	0.27	-48.9	-61.7	3.5	1.52e+00	0	34	104	0	60	42696
2026-01-06 13:43:28.65	19.28	0.50	-48.9	-61.7	3.5	1.51e+00	0	34	104	0	60	42788
2026-01-06 13:43:32.68	19.42	0.74	-48.5	-61.3	3.5	1.52e+00	0	34	104	0	60	40548
2026-01-06 13:43:36.72	19.57	0.98	-47.5	-60.3	3.5	1.52e+00	0	35	104	0	60	36261
2026-01-06 13:43:40.76	19.71	1.22	-47.4	-60.2	3.5	1.52e+00	0	35	104	0	60	35935
2026-01-06 13:43:44.80	19.86	1.46	-47.4	-60.1	3.5	1.52e+00	0	35	104	0	60	35484
2026-01-06 13:43:48.84	20.01	1.70	-47.4	-60.2	3.5	1.52e+00	0	35	104	0	60	35999
2026-01-06 13:43:52.88	20.16	1.95	-47.4	-60.3	3.5	1.52e+00	0	35	104	0	60	36146
2026-01-06 13:43:56.91	20.31	2.20	-47.3	-59.2	3.5	1.52e+00	0	35	104	0	60	32175
2026-01-06 13:44:00.94	20.47	2.45	-47.3	-59.5	3.5	1.52e+00	0	35	104	0	60	33273
2026-01-06 13:44:04.98	20.62	2.70	-44.9	-48.6	10.7	5.62e-03	123	35	0	4194304	60	9432
2026-01-06 13:44:09.02	20.78	2.95	-40.1	-41.7	17.7	0.00e+00	123	35	0	16777216	54	6009
2026-01-06 13:44:13.05	20.95	3.21	-39.8	-41.3	18.0	0.00e+00	123	35	0	29360128	52	6464
2026-01-06 13:44:17.09	21.11	3.47	-44.2	-47.2	12.1	1.02e-04	120	35	0	41943040	60	8045
2026-01-06 13:44:21.13	21.28	3.73	-47.5	-59.3	3.5	5.90e-01	0	35	104	51380224	60	32395
2026-01-06 13:44:25.17	21.45	3.99	-42.3	-44.4	15.3	7.00e-07	120	35	0	52428800	58	6499
2026-01-06 13:44:29.20	21.62	4.26	-39.2	-40.6	19.2	0.00e+00	120	35	0	65011712	52	5940
2026-01-06 13:44:33.22	21.80	4.52	-38.0	-39.2	20.3	0.00e+00	120	35	0	77594624	50	5666
2026-01-06 13:44:37.26	21.98	4.79	-38.0	-39.2	20.4	0.00e+00	120	35	0	90177536	50	5671
2026-01-06 13:44:41.30	22.16	5.07	-37.7	-38.9	20.6	0.00e+00	123	35	0	103809024	48	6146
2026-01-06 13:44:45.34	22.35	5.34	-37.9	-39.0	20.6	0.00e+00	123	35	0	116391936	48	6250
2026-01-06 13:44:49.38	22.53	5.62	-37.5	-38.6	21.1	0.00e+00	123	35	0	128974848	48	5953
2026-01-06 13:44:53.42	22.73	5.90	-37.3	-38.4	21.2	0.00e+00	123	35	0	141557760	48	5843
2026-01-06 13:44:57.46	22.92	6.19	-37.0	-38.1	21.4	0.00e+00	122	35	0	154140672	48	5629
2026-01-06 13:45:01.49	23.12	6.47	-37.2	-38.3	21.3	0.00e+00	123	35	0	166723584	48	5759
2026-01-06 13:45:05.53	23.32	6.76	-37.0	-38.1	21.5	0.00e+00	122	35	0	179306496	48	5650
2026-01-06 13:45:09.57	23.53	7.05	-36.8	-37.8	21.8	0.00e+00	123	36	0	191889408	48	5459
2026-01-06 13:45:13.60	23.74	7.35	-36.8	-37.8	21.9	0.00e+00	122	35	0	204472320	46	6092
2026-01-06 13:45:17.65	23.95	7.65	-36.5	-37.5	22.1	0.00e+00	120	35	0	217055232	46	5917
2026-01-06 13:45:21.68	24.17	7.95	-36.6	-37.6	22.1	0.00e+00	123	36	0	229638144	46	5984
2026-01-06 13:45:25.72	24.39	8.26	-36.3	-37.3	22.3	0.00e+00	122	35	0	242221056	46	5779
2026-01-06 13:45:29.76	24.62	8.57	-36.3	-37.3	22.3	0.00e+00	122	36	0	254803968	46	5781
2026-01-06 13:45:33.80	24.85	8.88	-36.0	-37.0	22.6	0.00e+00	123	36	0	267386880	46	5565
2026-01-06 13:45:37.83	25.08	9.20	-36.0	-37.0	22.6	0.00e+00	120	36	0	279969792	46	5547
2026-01-06 13:45:41.87	25.32	9.52	-35.8	-36.8	22.9	0.00e+00	122	36	0	292552704	46	5409
2026-01-06 13:45:45.90	25.57	9.84	-35.7	-36.7	22.9	0.00e+00	123	36	0	305135616	44	6026
2026-01-06 13:45:49.94	25.82	10.17	-35.5	-36.5	23.0	0.00e+00	123	36	0	317718528	44	5879
2026-01-06 13:45:53.98	26.07	10.50	-35.4	-36.4	23.1	0.00e+00	123	36	0	330301440	44	5815
2026-01-06 13:45:58.02	26.33	10.83	-35.3	-36.3	23.3	0.00e+00	122	35	0	342884352	44	5729
2026-01-06 13:46:02.06	26.60	11.17	-35.2	-36.1	23.5	0.00e+00	123	36	0	355467264	44	5631
2026-01-06 13:46:06.09	26.87	11.52	-35.1	-36.0	23.5	0.00e+00	122	36	0	368050176	44	5591
2026-01-06 13:46:10.13	27.15	11.86	-34.9	-35.8	23.7	0.00e+00	122	36	0	380633088	44	5431
2026-01-06 13:46:14.17	27.43	12.22	-34.8	-35.8	23.7	0.00e+00	122	36	0	393216000	44	5406
2026-01-06 13:46:18.20	27.72	12.57	-34.6	-35.6	23.9	0.00e+00	123	36	0	405798912	42	5938
2026-01-06 13:46:22.25	28.02	12.94	-34.6	-35.5	23.9	0.00e+00	123	36	0	418381824	42	5910
2026-01-06 13:46:26.28	28.32	13.30	-34.4	-35.3	24.0	0.00e+00	122	36	0	430964736	42	5791
2026-01-06 13:46:30.32	28.64	13.67	-34.6	-35.5	24.0	0.00e+00	123	36	0	443547648	42	5869
2026-01-06 13:46:34.37	28.96	14.05	-34.6	-35.5	24.0	0.00e+00	122	36	0	456130560	42	5889
2026-01-06 13:46:38.40	29.28	14.43	-34.6	-35.5	24.0	0.00e+00	123	36	0	468713472	42	5902
2026-01-06 13:46:42.44	29.62	14.82	-34.6	-35.5	24.1	0.00e+00	123	36	0	482344960	42	5873
2026-01-06 13:46:46.48	29.96	15.21	-34.7	-35.6	23.9	0.00e+00	123	36	0	493879296	42	5973
2026-01-06 13:46:50.51	30.31	15.61	-34.9	-35.8	23.8	0.00e+00	122	36	0	507510784	42	6115
2026-01-06 13:46:54.55	30.67	16.01	-35.0	-35.9	23.8	0.00e+00	123	36	0	520093696	42	6178
2026-01-06 13:46:58.59	31.04	16.42	-35.2	-36.1	23.6	0.00e+00	123	36	0	532676608	42	6318
2026-01-06 13:47:02.62	31.42	16.84	-35.2	-36.2	23.6	0.00e+00	120	36	0	545259520	42	6366
2026-01-06 13:47:06.66	31.81	17.26	-35.4	-36.3	23.5	0.00e+00	122	36	0	557842432	42	6482
2026-01-06 13:47:10.70	32.21	17.69	-35.5	-36.4	23.4	0.00e+00	122	36	0	570425344	42	6541
2026-01-06 13:47:14.74	32.63	18.12	-35.4	-36.4	23.5	0.00e+00	122	36	0	583008256	42	6521
2026-01-06 13:47:18.78	33.05	18.56	-35.4	-36.3	23.5	0.00e+00	120	36	0	595591168	42	6468
2026-01-06 13:47:22.82	33.49	19.01	-35.0	-36.0	23.7	0.00e+00	123	36	0	608174080	42	6221
2026-01-06 13:47:26.85	33.93	19.46	-34.7	-35.6	24.1	0.00e+00	123	36	0	620756992	42	5944
2026-01-06 13:47:30.89	34.39	19.92	-34.5	-35.4	24.2	0.00e+00	123	36	0	633339904	42	5830
2026-01-06 13:47:34.92	34.87	20.39	-34.1	-35.0	24.4	0.00e+00	123	36	0	645922816	42	5560
2026-01-06 13:47:38.96	35.36	20.86	-33.8	-34.6	24.7	0.00e+00	122	36	0	658505728	42	5343
2026-01-06 13:47:43.00	35.86	21.34	-33.4	-34.3	24.9	0.00e+00	123	36	0	671088640	40	5739
2026-01-06 13:47:47.04	36.38	21.83	-33.3	-34.1	25.0	0.00e+00	123	36	0	683671552	40	5647
2026-01-06 13:47:51.07	36.91	22.32	-33.2	-34.1	25.0	0.00e+00	120	36	0	696254464	40	5632
2026-01-06 13:47:55.11	37.47	22.83	-33.2	-34.0	25.1	0.00e+00	123	36	0	708837376	40	5575
2026-01-06 13:47:59.15	38.04	23.34	-33.1	-34.0	25.1	0.00e+00	120	36	0	721420288	40	5534
2026-01-06 13:48:03.19	38.62	23.85	-33.0	-33.9	25.3	0.00e+00	122	36	0	734003200	40	5468
2026-01-06 13:48:07.23	39.23	24.38	-33.3	-34.2	25.1	0.00e+00	120	36	0	746586112	40	5669
2026-01-06 13:48:11.26	39.86	24.91	-33.5	-34.4	25.0	0.00e+00	122	36	0	759169024	40	5834
2026-01-06 13:48:15.30	40.50	25.45	-34.0	-34.9	24.7	0.00e+00	123	36	0	771751936	40	6151
2026-01-06 13:48:19.34	41.17	25.99	-33.9	-34.8	24.9	0.00e+00	122	36	0	784334848	40	6086
2026-01-06 13:48:23.38	41.87	26.55	-34.1	-35.0	24.6	0.00e+00	122	36	0	796917760	40	6252
2026-01-06 13:48:27.42	42.59	27.11	-34.1	-34.9	24.7	0.00e+00	122	36	0	809500672	40	6201
2026-01-06 13:48:31.46	43.33	27.68	-34.4	-35.3	24.4	0.00e+00	120	36	0	822083584	40	6442
2026-01-06 13:48:35.50	44.10	28.25	-34.3	-35.2	24.4	0.00e+00	123	36	0	834666496	40	6379
2026-01-06 13:48:39.53	44.89	28.83	-34.4	-35.3	24.5	0.00e+00	120	36	0	848297984	40	6427
2026-01-06 13:48:43.56	45.71	29.42	-34.1	-35.0	24.6	0.00e+00	123	36	0	859832320	40	6234
2026-01-06 13:48:47.60	46.57	30.01	-34.0	-34.9	24.7	0.00e+00	123	36	0	873463808	40	6142
2026-01-06 13:48:51.64	47.45	30.61	-34.3	-35.2	24.4	0.00e+00	123	36	0	886046720	40	6408
2026-01-06 13:48:55.68	48.37	31.21	-35.0	-35.9	24.0	0.00e+00	122	36	0	898629632	42	6170
2026-01-06 13:48:59.71	49.32	31.82	-35.2	-36.2	23.7	0.00e+00	123	36	0	911212544	42	6352
2026-01-06 13:49:03.74	50.31	32.43	-35.5	-36.4	23.7	0.00e+00	123	36	0	923795456	42	6550
2026-01-06 13:49:07.78	51.34	33.04	-35.0	-35.9	24.1	0.00e+00	123	36	0	936378368	42	6171
2026-01-06 13:49:11.82	52.40	33.66	-35.3	-36.3	23.8	0.00e+00	122	36	0	948961280	42	6430
2026-01-06 13:49:15.86	53.51	34.28	-35.2	-36.1	23.8	0.00e+00	123	36	0	961544192	42	6332
2026-01-06 13:49:19.90	54.66	34.90	-35.5	-36.5	23.6	0.00e+00	123	36	0	974127104	42	6597
2026-01-06 13:49:23.94	55.85	35.51	-35.7	-36.7	23.4	0.00e+00	123	36	0	986710016	44	6007
2026-01-06 13:49:27.98	57.09	36.13	-35.6	-36.5	23.4	0.00e+00	122	36	0	999292928	44	5903
2026-01-06 13:49:32.01	58.37	36.74	-35.8	-36.7	23.3	0.00e+00	122	36	0	1011875840	44	6048
2026-01-06 13:49:36.05	59.70	37.35	-35.8	-36.7	23.4	0.00e+00	123	36	0	1024458752	44	6047
2026-01-06 13:49:40.08	61.08	37.95	-36.2	-37.2	22.9	0.00e+00	123	36	0	1037041664	44	6378
2026-01-06 13:49:44.12	62.51	38.54	-36.0	-36.9	23.3	0.00e+00	123	36	0	1049624576	44	6169
2026-01-06 13:49:48.16	63.99	39.12	-35.8	-36.7	23.4	0.00e+00	123	36	0	1062207488	44	6057
2026-01-06 13:49:52.19	65.53	39.69	-36.1	-37.0	23.2	0.00e+00	122	36	0	1074790400	44	6265
2026-01-06 13:49:56.23	67.12	40.25	-37.1	-38.1	22.3	0.00e+00	120	36	0	1087373312	46	6330
2026-01-06 13:50:00.27	68.76	40.79	-36.9	-37.9	22.6	0.00e+00	122	36	0	1099956224	46	6153
2026-01-06 13:50:04.31	70.46	41.31	-37.0	-38.0	22.4	0.00e+00	123	36	0	1112539136	46	6254
2026-01-06 13:50:08.35	72.22	41.81	-37.6	-38.6	21.6	0.00e+00	122	36	0	1125122048	46	6705
2026-01-06 13:50:12.38	74.02	42.29	-37.8	-38.8	21.5	0.00e+00	122	36	0	1137704960	48	6133
2026-01-06 13:50:16.42	75.88	42.74	-37.5	-38.7	21.5	0.00e+00	123	36	0	1150287872	48	5998
2026-01-06 13:50:20.46	77.79	43.16	-36.6	-37.6	22.4	0.00e+00	122	36	0	1162870784	46	5987
2026-01-06 13:50:24.50	79.74	43.55	-37.2	-38.2	22.2	0.00e+00	120	36	0	1175453696	46	6400
2026-01-06 13:50:28.54	81.75	43.90	-38.2	-39.4	20.8	0.00e+00	120	36	0	1188036608	48	6544
2026-01-06 13:50:32.58	83.80	44.22	-36.8	-37.8	22.2	0.00e+00	122	36	0	1200619520	48	5456
2026-01-06 13:50:36.62	85.88	44.51	-37.0	-37.9	22.5	0.00e+00	123	36	0	1213202432	48	5527
2026-01-06 13:50:40.66	88.00	44.75	-36.8	-37.8	22.6	0.00e+00	123	36	0	1225785344	46	6130
2026-01-06 13:50:44.70	90.15	44.95	-37.1	-38.1	22.4	0.00e+00	120	36	0	1239416832	46	6322
2026-01-06 13:50:48.74	92.33	45.11	-37.3	-38.4	21.8	0.00e+00	123	36	0	1251999744	46	6504
2026-01-06 13:50:52.78	94.52	45.22	-37.0	-38.0	22.3	0.00e+00	123	36	0	1264582656	46	6238
2026-01-06 13:50:56.82	96.72	45.29	-36.8	-37.9	22.4	0.00e+00	123	36	0	1277165568	46	6137
2026-01-06 13:51:00.86	98.94	45.31	-37.2	-38.3	22.0	0.00e+00	120	36	0	1289748480	46	6451
2026-01-06 13:51:04.90	101.15	45.28	-36.5	-37.5	22.7	0.00e+00	123	36	0	1302331392	46	5920
2026-01-06 13:51:08.94	103.35	45.21	-36.5	-37.5	22.8	0.00e+00	122	36	0	1314914304	46	5886
2026-01-06 13:51:12.97	105.54	45.10	-36.9	-37.9	22.3	0.00e+00	122	36	0	1327497216	46	6193
2026-01-06 13:51:17.01	107.71	44.93	-37.0	-38.0	22.4	0.00e+00	123	36	0	1340080128	46	6227
2026-01-06 13:51:21.04	109.86	44.73	-36.3	-37.3	22.6	0.00e+00	123	36	0	1352663040	46	5771
2026-01-06 13:51:25.08	111.98	44.49	-36.9	-37.9	22.5	0.00e+00	122	36	0	1365245952	46	6187
2026-01-06 13:51:29.12	114.06	44.20	-36.6	-37.6	22.6	0.00e+00	122	36	0	1377828864	46	5933
2026-01-06 13:51:33.17	116.12	43.87	-37.3	-38.3	22.0	0.00e+00	123	36	0	1390411776	46	6452
2026-01-06 13:51:37.21	118.12	43.51	-36.1	-37.1	23.0	0.00e+00	122	36	0	1402994688	46	5603
2026-01-06 13:51:41.24	120.07	43.12	-36.8	-37.7	22.3	0.00e+00	123	36	0	1415577600	46	6045
2026-01-06 13:51:45.28	121.98	42.70	-36.9	-37.9	22.5	0.00e+00	122	36	0	1428160512	46	6174
2026-01-06 13:51:49.32	123.84	42.24	-36.8	-37.8	22.4	0.00e+00	123	36	0	1440743424	46	6114
2026-01-06 13:51:53.36	125.65	41.76	-36.3	-37.2	23.1	0.00e+00	123	36	0	1453326336	46	5710
2026-01-06 13:51:57.39	127.40	41.26	-36.3	-37.3	23.0	0.00e+00	119	36	0	1465909248	46	5736
2026-01-06 13:52:01.44	129.10	40.74	-36.1	-37.0	23.0	0.00e+00	122	36	0	1478492160	44	6272
2026-01-06 13:52:05.48	130.74	40.19	-36.3	-37.3	23.0	0.00e+00	122	36	0	1491075072	46	5755
2026-01-06 13:52:09.52	132.33	39.63	-36.8	-37.7	22.6	0.00e+00	123	36	0	1503657984	46	6060
2026-01-06 13:52:13.55	133.87	39.06	-37.2	-38.2	22.3	0.00e+00	122	36	0	1516240896	46	6362
2026-01-06 13:52:17.58	135.35	38.47	-36.5	-37.5	23.0	0.00e+00	122	36	0	1528823808	46	5871
2026-01-06 13:52:21.62	136.78	37.88	-36.2	-37.1	23.2	0.00e+00	123	36	0	1541406720	46	5635
2026-01-06 13:52:25.66	138.16	37.27	-35.7	-36.6	23.6	0.00e+00	123	36	0	1553989632	44	5987
2026-01-06 13:52:29.70	139.49	36.66	-35.4	-36.3	23.8	0.00e+00	123	36	0	1566572544	44	5748
2026-01-06 13:52:33.73	140.77	36.05	-35.0	-35.9	23.8	0.00e+00	120	36	0	1580204032	44	5525
2026-01-06 13:52:37.77	142.00	35.43	-34.8	-35.7	24.2	0.00e+00	122	36	0	1591738368	42	6031
2026-01-06 13:52:41.81	143.20	34.81	-35.3	-36.2	23.7	0.00e+00	123	36	0	1605369856	42	6393
2026-01-06 13:52:45.85	144.34	34.19	-35.1	-36.0	23.9	0.00e+00	120	36	0	1617952768	42	6225
2026-01-06 13:52:49.89	145.45	33.56	-35.0	-35.9	24.1	0.00e+00	123	36	0	1630535680	42	6150
2026-01-06 13:52:53.93	146.51	32.94	-35.2	-36.2	23.8	0.00e+00	123	36	0	1643118592	42	6379
2026-01-06 13:52:57.96	147.53	32.33	-34.8	-35.7	24.1	0.00e+00	122	36	0	1655701504	42	6045
2026-01-06 13:53:02.00	148.52	31.71	-34.4	-35.3	24.6	0.00e+00	123	36	0	1668284416	42	5739
2026-01-06 13:53:06.03	149.47	31.10	-33.8	-34.7	25.0	0.00e+00	122	36	0	1680867328	42	5351
2026-01-06 13:53:10.07	150.39	30.50	-34.1	-34.9	24.6	0.00e+00	123	36	0	1693450240	42	5529
2026-01-06 13:53:14.11	151.28	29.90	-34.1	-35.0	24.5	0.00e+00	120	36	0	1706033152	42	5585
2026-01-06 13:53:18.14	152.13	29.30	-34.4	-35.3	24.3	0.00e+00	123	36	0	1718616064	42	5752
2026-01-06 13:53:22.18	152.95	28.71	-34.6	-35.5	24.2	0.00e+00	123	36	0	1731198976	42	5880
2026-01-06 13:53:26.22	153.74	28.13	-34.6	-35.5	24.0	0.00e+00	123	36	0	1743781888	42	5896
2026-01-06 13:53:30.26	154.51	27.55	-34.2	-35.1	24.3	0.00e+00	123	36	0	1756364800	42	5655
2026-01-06 13:53:34.30	155.25	26.98	-34.0	-34.9	24.8	0.00e+00	122	36	0	1768947712	42	5483
2026-01-06 13:53:38.33	155.97	26.42	-33.6	-34.5	24.9	0.00e+00	122	36	0	1781530624	40	5883
2026-01-06 13:53:42.37	156.66	25.86	-34.0	-34.9	24.8	0.00e+00	122	36	0	1794113536	40	6138
2026-01-06 13:53:46.41	157.33	25.32	-34.0	-34.9	24.7	0.00e+00	123	36	0	1806696448	40	6137
2026-01-06 13:53:50.45	157.97	24.77	-33.3	-34.2	24.8	0.00e+00	123	36	0	1819279360	40	5703
2026-01-06 13:53:54.49	158.60	24.24	-33.5	-34.4	24.7	0.00e+00	122	36	0	1831862272	40	5831
2026-01-06 13:53:58.53	159.20	23.71	-33.8	-34.7	24.8	0.00e+00	123	36	0	1844445184	40	6037
2026-01-06 13:54:02.56	159.79	23.20	-33.7	-34.6	24.6	0.00e+00	120	36	0	1857028096	40	5929
2026-01-06 13:54:06.60	160.36	22.68	-33.8	-34.7	24.4	0.00e+00	120	36	0	1869611008	40	6021
2026-01-06 13:54:10.64	160.91	22.18	-33.8	-34.7	24.6	0.00e+00	122	36	0	1882193920	40	6049
2026-01-06 13:54:14.68	161.44	21.68	-34.1	-35.0	24.5	0.00e+00	123	36	0	1894776832	40	6229
2026-01-06 13:54:18.72	161.96	21.19	-34.6	-35.5	24.2	0.00e+00	122	36	0	1907359744	40	6642
2026-01-06 13:54:22.75	162.46	20.71	-34.7	-35.7	24.1	0.00e+00	123	36	0	1919942656	42	6006
2026-01-06 13:54:26.79	162.94	20.23	-34.6	-35.5	24.2	0.00e+00	123	36	0	1932525568	42	5859
2026-01-06 13:54:30.82	163.42	19.77	-34.0	-34.9	24.4	0.00e+00	123	36	0	1945108480	42	5476
2026-01-06 13:54:34.86	163.87	19.31	-33.9	-34.8	24.3	0.00e+00	122	36	0	1957691392	42	5451
2026-01-06 13:54:38.90	164.32	18.85	-33.9	-34.7	24.7	0.00e+00	123	36	0	1971322880	40	6039
2026-01-06 13:54:42.94	164.75	18.40	-33.7	-34.6	24.9	0.00e+00	123	36	0	1983905792	40	5959
2026-01-06 13:54:46.98	165.18	17.96	-34.0	-34.9	24.6	0.00e+00	121	36	0	1995440128	40	6180
2026-01-06 13:54:51.01	165.58	17.53	-34.6	-35.5	24.1	0.00e+00	123	36	0	2009071616	40	6641
2026-01-06 13:54:55.05	165.98	17.10	-34.8	-35.8	23.8	0.00e+00	122	36	0	2021654528	42	6079
2026-01-06 13:54:59.09	166.37	16.67	-35.0	-35.9	23.6	0.00e+00	122	36	0	2034237440	42	6192
2026-01-06 13:55:03.12	166.75	16.26	-34.7	-35.6	23.8	0.00e+00	123	36	0	2046820352	42	5958
2026-01-06 13:55:07.15	167.12	15.85	-34.5	-35.4	23.9	0.00e+00	123	36	0	2059403264	42	5809
2026-01-06 13:55:11.19	167.48	15.44	-34.6	-35.5	23.9	0.00e+00	121	36	0	2071986176	42	5888
2026-01-06 13:55:15.23	167.83	15.04	-34.6	-35.5	24.1	0.00e+00	122	36	0	2084569088	42	5859
2026-01-06 13:55:19.26	168.17	14.65	-34.6	-35.5	24.1	0.00e+00	123	36	0	2097152000	42	5898
2026-01-06 13:55:23.30	168.50	14.26	-34.8	-35.7	24.0	0.00e+00	120	36	0	2109734912	42	6004
2026-01-06 13:55:27.34	168.82	13.88	-35.0	-36.0	23.7	0.00e+00	120	36	0	2122317824	42	6228
2026-01-06 13:55:31.37	169.14	13.50	-35.2	-36.2	23.5	0.00e+00	120	36	0	2134900736	42	6380
2026-01-06 13:55:35.41	169.45	13.13	-35.4	-36.4	23.4	0.00e+00	123	36	0	2147483648	42	6499
2026-01-06 13:55:39.45	169.75	12.76	-35.3	-36.2	23.4	0.00e+00	120	36	0	2160066560	42	6397
2026-01-06 13:55:43.49	170.04	12.40	-35.2	-36.2	23.5	0.00e+00	123	36	0	2172649472	42	6370
2026-01-06 13:55:47.52	170.33	12.04	-35.3	-36.3	23.3	0.00e+00	123	36	0	2185232384	42	6434
2026-01-06 13:55:51.55	170.61	11.68	-35.4	-36.4	23.1	0.00e+00	123	36	0	2197815296	42	6524
2026-01-06 13:55:55.59	170.89	11.33	-35.5	-36.5	23.2	0.00e+00	122	36	0	2210398208	42	6611
2026-01-06 13:55:59.62	171.16	10.99	-35.7	-36.7	22.9	0.00e+00	122	36	0	2222981120	42	6744
2026-01-06 13:56:03.66	171.42	10.65	-35.9	-36.9	22.8	0.00e+00	122	36	0	2235564032	44	6183
2026-01-06 13:56:07.70	171.68	10.31	-35.8	-36.8	22.8	0.00e+00	123	36	0	2248146944	44	6071
2026-01-06 13:56:11.74	171.93	9.98	-35.8	-36.8	22.7	0.00e+00	123	36	0	2260729856	44	6128
2026-01-06 13:56:15.78	172.18	9.65	-36.2	-37.2	22.4	0.00e+00	122	36	0	2273312768	44	6375
2026-01-06 13:56:19.82	172.42	9.33	-36.2	-37.3	22.4	0.00e+00	122	36	0	2285895680	44	6425
2026-01-06 13:56:23.86	172.65	9.01	-36.2	-37.2	22.3	0.00e+00	122	36	0	2298478592	44	6378
2026-01-06 13:56:27.90	172.89	8.69	-36.0	-37.0	22.4	0.00e+00	120	36	0	2311061504	44	6275
2026-01-06 13:56:31.94	173.11	8.37	-36.2	-37.2	22.3	0.00e+00	122	36	0	2323644416	44	6375
2026-01-06 13:56:35.98	173.34	8.06	-36.2	-37.2	22.3	0.00e+00	122	36	0	2336227328	44	6384
2026-01-06 13:56:40.02	173.55	7.76	-36.4	-37.5	22.1	0.00e+00	122	36	0	2348810240	44	6576
2026-01-06 13:56:44.05	173.77	7.45	-36.5	-37.6	22.0	0.00e+00	122	36	0	2361393152	44	6673
2026-01-06 13:56:48.08	173.98	7.15	-36.7	-37.7	21.9	0.00e+00	120	36	0	2373976064	44	6767
2026-01-06 13:56:52.11	174.18	6.86	-36.8	-37.9	21.9	0.00e+00	122	36	0	2386558976	46	6154
2026-01-06 13:56:56.15	174.39	6.56	-36.9	-37.9	21.7	0.00e+00	120	36	0	2400190464	46	6189
2026-01-06 13:57:00.19	174.58	6.27	-37.0	-38.0	21.7	0.00e+00	123	36	0	2412773376	46	6244
2026-01-06 13:57:04.23	174.78	5.99	-37.0	-38.0	21.6	0.00e+00	122	36	0	2425356288	46	6253
2026-01-06 13:57:08.27	174.97	5.70	-37.3	-38.4	21.4	0.00e+00	123	36	0	2437939200	46	6544
2026-01-06 13:57:12.31	175.16	5.42	-37.5	-38.6	20.9	0.00e+00	120	37	0	2450522112	46	6701
2026-01-06 13:57:16.35	175.34	5.14	-37.6	-38.7	20.8	0.00e+00	120	36	0	2463105024	48	6048
2026-01-06 13:57:20.38	175.53	4.86	-37.6	-38.8	20.7	0.00e+00	123	36	0	2475687936	48	6074
2026-01-06 13:57:24.42	175.70	4.59	-38.0	-39.2	20.4	0.00e+00	122	36	0	2488270848	48	6372
2026-01-06 13:57:28.46	175.88	4.32	-38.0	-39.2	20.2	0.00e+00	122	36	0	2500853760	48	6382
2026-01-06 13:57:32.50	176.05	4.05	-38.0	-39.3	20.1	0.00e+00	120	36	0	2513436672	48	6427
2026-01-06 13:57:36.53	176.22	3.78	-38.4	-39.6	19.9	0.00e+00	123	37	0	2526019584	48	6696
2026-01-06 13:57:40.57	176.39	3.52	-38.7	-39.9	19.6	0.00e+00	123	36	0	2538602496	50	6185
2026-01-06 13:57:44.61	176.55	3.26	-38.5	-39.8	19.1	0.00e+00	120	36	0	2551185408	50	6085
2026-01-06 13:57:48.65	176.71	3.00	-47.7	-60.4	3.5	4.50e-06	0	36	104	2563768320	60	36679
2026-01-06 13:57:52.69	176.87	2.74	-48.8	-61.6	3.5	1.52e+00	0	36	104	2563768320	60	42293
2026-01-06 13:57:56.73	177.03	2.49	-48.9	-61.8	3.5	1.52e+00	0	37	104	2563768320	60	43105
2026-01-06 13:58:00.77	177.18	2.23	-48.9	-61.7	3.5	1.52e+00	0	37	104	2563768320	60	42909
2026-01-06 13:58:04.80	177.33	1.98	-48.9	-61.7	3.5	1.52e+00	0	37	104	2563768320	60	42836
2026-01-06 13:58:08.84	177.48	1.73	-48.9	-61.7	3.5	1.52e+00	0	37	104	2563768320	60	42766
2026-01-06 13:58:12.88	177.63	1.49	-48.9	-61.7	3.5	1.52e+00	0	37	104	2563768320	60	42606
2026-01-06 13:58:16.92	177.77	1.24	-48.9	-61.7	3.5	1.52e+00	0	37	104	2563768320	60	42497
2026-01-06 13:58:20.95	177.92	1.00	-48.8	-61.7	3.5	1.52e+00	0	37	104	2563768320	60	42585
2026-01-06 13:58:24.99	178.06	0.76	-48.8	-61.7	3.5	1.52e+00	0	37	104	2563768320	60	42683
2026-01-06 13:58:29.04	178.19	0.52	-48.8	-61.7	3.5	1.52e+00	0	37	104	2563768320	60	42453
2026-01-06 13:58:33.07	178.33	0.28	-48.8	-61.7	3.5	1.52e+00	0	37	104	2563768320	60	42541
2026-01-06 13:58:37.11	178.47	0.05	-48.8	-61.7	3.5	1.52e+00	0	37	104	2563768320	60	42716

#Closed at: 2026-01-06 13:58:38
#Recorded file [2563 MB]: D:/lorett/data/35029_260107_014320.dat