passes_logs/2026/01/06/R4.6S_Anadyr/R4.6S_Anadyr__20260106_043521_AQUA_rec.log

#Pass ID: 20260106_043521_AQUA
#Satellite: AQUA
#Configuration: AQUA
#almurnet v.1.7.20251203
#Start time: 2026-01-06 04:35:25

#Version: 2.2.20231116
#Station: R4.6S_Anadyr
#Location: 177.4865 lon 64.73178 lat
#TLE: 1 27424U 02022A   26004.96787593  .00001598  00000+0  32997-3 0  9996
#TLE: 2 27424  98.4069 331.2279 0002002  90.2377   0.6092 14.61798176259425

#Time	Az	El	Level	Level2	SNR	BER	BlckErr	Temp	State	Recorded	gain1	gain2
2026-01-06 04:35:25.35	231.19	0.16	-48.6	-65.5	3.3	3.04e+01	0	33	0	0	60	72316
2026-01-06 04:35:28.38	231.48	0.30	-49.0	-67.0	3.5	3.04e+01	0	33	104	0	60	86150
2026-01-06 04:35:31.41	231.78	0.44	-49.1	-67.0	3.5	3.04e+01	0	33	104	0	60	85979
2026-01-06 04:35:34.44	232.08	0.58	-49.0	-66.9	3.5	3.04e+01	0	33	104	0	60	85404
2026-01-06 04:35:37.47	232.38	0.72	-48.1	-66.2	3.5	3.04e+01	0	33	104	0	60	78481
2026-01-06 04:35:40.50	232.69	0.86	-46.1	-64.8	3.5	3.04e+01	0	33	104	0	60	66524
2026-01-06 04:35:43.53	232.99	1.00	-46.1	-64.7	3.5	3.04e+01	0	33	104	0	60	66231
2026-01-06 04:35:46.56	233.31	1.14	-46.1	-64.8	3.5	3.04e+01	0	34	104	0	60	66571
2026-01-06 04:35:49.58	233.62	1.28	-46.1	-64.7	3.5	3.04e+01	0	34	104	0	60	66487
2026-01-06 04:35:52.61	233.94	1.42	-46.1	-64.7	3.5	3.04e+01	0	34	104	0	60	66291
2026-01-06 04:35:55.65	234.26	1.56	-46.1	-64.7	3.5	3.04e+01	0	34	104	0	60	66265
2026-01-06 04:35:58.68	234.59	1.70	-46.1	-64.7	3.5	3.04e+01	0	34	104	0	60	65968
2026-01-06 04:36:01.71	234.92	1.84	-46.1	-64.7	3.5	3.04e+01	0	34	104	0	60	66407
2026-01-06 04:36:04.74	235.25	1.98	-46.1	-64.7	3.5	3.04e+01	0	34	104	0	60	66377
2026-01-06 04:36:07.76	235.58	2.12	-46.1	-64.8	3.5	3.04e+01	0	34	104	0	60	66533
2026-01-06 04:36:10.79	235.92	2.26	-46.1	-64.7	3.5	3.04e+01	0	34	104	0	60	66028
2026-01-06 04:36:13.82	236.26	2.40	-46.1	-64.7	3.5	3.04e+01	0	34	104	0	60	66273
2026-01-06 04:36:16.86	236.61	2.54	-46.1	-64.7	3.5	3.04e+01	0	34	104	0	60	66395
2026-01-06 04:36:19.89	236.95	2.69	-46.1	-64.7	3.5	3.04e+01	0	34	104	0	60	66355
2026-01-06 04:36:22.92	237.31	2.83	-46.1	-64.6	3.5	3.04e+01	0	34	104	0	60	65717
2026-01-06 04:36:25.95	237.66	2.97	-46.1	-64.4	3.5	3.04e+01	0	34	104	0	60	63946
2026-01-06 04:36:28.98	238.02	3.11	-46.3	-62.7	3.5	3.04e+01	0	34	104	0	60	52734
2026-01-06 04:36:32.01	238.38	3.25	-45.4	-62.7	3.6	3.04e+01	0	34	104	0	60	52312
2026-01-06 04:36:35.03	238.75	3.39	-46.4	-61.1	4.4	3.04e+01	0	34	104	0	60	43868
2026-01-06 04:36:38.06	239.12	3.53	-46.7	-58.4	5.5	3.04e+01	0	34	0	524288	60	32088
2026-01-06 04:36:41.09	239.49	3.67	-46.3	-58.8	5.6	3.04e+01	92	34	0	1048576	60	33562
2026-01-06 04:36:44.12	239.87	3.81	-46.5	-56.0	7.7	3.04e+01	92	34	0	6291456	60	24399
2026-01-06 04:36:47.15	240.25	3.95	-46.4	-54.7	9.3	3.04e+01	90	34	0	11534336	60	20859
2026-01-06 04:36:50.17	240.64	4.09	-45.5	-53.8	10.5	3.04e+01	90	34	0	17301504	60	18866
2026-01-06 04:36:53.20	241.02	4.23	-45.2	-50.8	13.8	3.04e+01	90	34	0	23068672	60	13372
2026-01-06 04:36:56.22	241.42	4.37	-44.9	-49.8	15.0	3.04e+01	92	34	0	28835840	60	11883
2026-01-06 04:36:59.25	241.81	4.51	-44.5	-48.5	16.4	3.04e+01	92	34	0	34603008	60	10251
2026-01-06 04:37:02.27	242.21	4.64	-44.2	-48.0	17.0	3.04e+01	90	34	0	40370176	60	9632
2026-01-06 04:37:05.30	242.62	4.78	-43.8	-47.1	18.0	3.04e+01	92	34	0	45613056	60	8712
2026-01-06 04:37:08.33	243.03	4.92	-43.1	-46.2	19.0	3.04e+01	91	34	0	51380224	60	7844
2026-01-06 04:37:11.36	243.44	5.06	-42.0	-44.5	20.7	3.04e+01	92	34	0	57147392	60	6482
2026-01-06 04:37:14.38	243.86	5.20	-41.7	-44.0	21.2	3.04e+01	90	34	0	62914560	58	6829
2026-01-06 04:37:17.41	244.28	5.33	-41.4	-43.6	21.6	3.04e+01	90	34	0	68681728	58	6504
2026-01-06 04:37:20.43	244.70	5.47	-40.9	-42.9	22.3	3.04e+01	92	34	0	73924608	56	6742
2026-01-06 04:37:23.46	245.13	5.61	-40.5	-42.4	22.9	3.04e+01	92	34	0	79691776	56	6365
2026-01-06 04:37:26.49	245.57	5.74	-40.2	-42.1	23.3	3.04e+01	92	34	0	85458944	56	6137
2026-01-06 04:37:29.52	246.00	5.88	-39.5	-41.1	24.1	3.04e+01	90	34	0	91226112	54	6185
2026-01-06 04:37:32.54	246.45	6.01	-38.8	-40.4	25.0	3.04e+01	92	34	0	96993280	52	6374
2026-01-06 04:37:35.56	246.89	6.14	-38.7	-40.3	25.2	3.04e+01	90	34	0	102760448	52	6295
2026-01-06 04:37:38.59	247.34	6.28	-38.4	-39.9	25.5	3.04e+01	92	34	0	108003328	52	6010
2026-01-06 04:37:41.62	247.80	6.41	-38.2	-39.6	25.9	3.04e+01	92	34	0	113770496	52	5828
2026-01-06 04:37:44.65	248.26	6.54	-37.8	-39.2	26.2	3.04e+01	90	34	0	119537664	50	6268
2026-01-06 04:37:47.68	248.72	6.67	-37.5	-38.9	26.5	3.04e+01	92	34	0	125304832	50	6035
2026-01-06 04:37:50.71	249.19	6.80	-37.6	-39.0	26.6	3.04e+01	90	34	0	131072000	50	6077
2026-01-06 04:37:53.73	249.66	6.93	-37.3	-38.7	26.7	3.04e+01	90	34	0	136839168	50	5904
2026-01-06 04:37:56.76	250.14	7.06	-37.2	-38.5	27.0	3.04e+01	92	34	0	142082048	50	5766
2026-01-06 04:37:59.79	250.62	7.19	-37.2	-38.5	27.0	3.04e+01	92	34	0	147849216	50	5785
2026-01-06 04:38:02.82	251.11	7.32	-36.9	-38.3	27.2	3.04e+01	92	34	0	153616384	48	6279
2026-01-06 04:38:05.84	251.60	7.44	-37.0	-38.4	27.1	3.04e+01	92	34	0	159383552	48	6373
2026-01-06 04:38:08.87	252.09	7.57	-36.8	-38.1	27.3	3.04e+01	92	34	0	165150720	48	6191
2026-01-06 04:38:11.90	252.59	7.69	-36.8	-38.1	27.4	3.04e+01	92	34	0	170393600	48	6194
2026-01-06 04:38:14.92	253.09	7.82	-37.0	-38.3	27.2	3.04e+01	92	34	0	176160768	48	6331
2026-01-06 04:38:17.95	253.60	7.94	-36.9	-38.2	27.3	3.04e+01	92	34	0	181927936	48	6253
2026-01-06 04:38:20.98	254.12	8.06	-36.7	-38.0	27.5	3.04e+01	92	34	0	187695104	48	6100
2026-01-06 04:38:24.00	254.63	8.18	-36.7	-38.0	27.5	3.04e+01	92	34	0	193462272	48	6114
2026-01-06 04:38:27.03	255.15	8.30	-36.7	-38.0	27.5	3.04e+01	92	34	0	199229440	48	6105
2026-01-06 04:38:30.06	255.68	8.41	-36.6	-37.8	27.7	3.04e+01	90	34	0	204472320	48	5994
2026-01-06 04:38:33.09	256.21	8.53	-36.5	-37.9	27.6	3.04e+01	87	34	0	210239488	48	6004
2026-01-06 04:38:36.12	256.75	8.64	-36.5	-37.8	27.7	3.04e+01	92	34	0	216006656	48	5953
2026-01-06 04:38:39.14	257.29	8.75	-36.4	-37.7	27.8	3.04e+01	92	34	0	221773824	48	5924
2026-01-06 04:38:42.17	257.83	8.86	-36.5	-37.8	27.7	3.04e+01	91	34	0	227540992	48	5969
2026-01-06 04:38:45.20	258.38	8.97	-36.5	-37.8	27.7	3.04e+01	92	34	0	233308160	48	5956
2026-01-06 04:38:48.23	258.93	9.08	-36.4	-37.7	27.8	3.04e+01	92	34	0	238551040	48	5892
2026-01-06 04:38:51.25	259.49	9.19	-36.2	-37.5	28.0	3.04e+01	92	34	0	244318208	48	5757
2026-01-06 04:38:54.28	260.05	9.29	-36.5	-37.8	27.8	3.04e+01	92	34	0	250085376	48	5930
2026-01-06 04:38:57.31	260.61	9.39	-36.2	-37.4	28.1	3.04e+01	92	34	0	255852544	48	5711
2026-01-06 04:39:00.34	261.18	9.49	-36.2	-37.5	27.9	3.04e+01	90	34	0	261619712	48	5769
2026-01-06 04:39:03.37	261.75	9.59	-36.3	-37.5	28.0	3.04e+01	92	34	0	267386880	48	5787
2026-01-06 04:39:06.40	262.33	9.69	-36.1	-37.3	28.2	3.04e+01	90	34	0	272629760	48	5656
2026-01-06 04:39:09.43	262.91	9.78	-36.1	-37.4	28.1	3.04e+01	92	34	0	278396928	46	6381
2026-01-06 04:39:12.46	263.50	9.88	-36.0	-37.3	28.2	3.04e+01	90	34	0	284164096	46	6288
2026-01-06 04:39:15.48	264.09	9.97	-36.2	-37.5	28.0	3.04e+01	92	34	0	289931264	46	6442
2026-01-06 04:39:18.51	264.68	10.06	-36.0	-37.2	28.1	3.04e+01	92	34	0	295698432	46	6266
2026-01-06 04:39:21.53	265.27	10.14	-36.4	-37.7	27.9	3.04e+01	90	34	0	301465600	46	6600
2026-01-06 04:39:24.55	265.87	10.22	-36.1	-37.4	28.1	3.04e+01	90	34	0	306708480	46	6384
2026-01-06 04:39:27.58	266.48	10.31	-35.8	-37.1	28.4	3.04e+01	92	34	0	312475648	46	6151
2026-01-06 04:39:30.61	267.08	10.39	-36.1	-37.4	28.1	3.04e+01	91	34	0	318242816	46	6354
2026-01-06 04:39:33.63	267.69	10.46	-35.9	-37.2	28.3	3.04e+01	89	34	0	324009984	46	6208
2026-01-06 04:39:36.66	268.30	10.54	-35.7	-37.0	28.5	3.04e+01	89	34	0	329777152	46	6099
2026-01-06 04:39:39.69	268.92	10.61	-35.8	-37.1	28.4	3.04e+01	91	34	0	335020032	46	6138
2026-01-06 04:39:42.72	269.54	10.68	-35.9	-37.2	28.4	3.04e+01	90	34	0	340787200	46	6239
2026-01-06 04:39:45.75	270.17	10.74	-35.8	-37.1	28.5	3.04e+01	92	34	0	346554368	46	6140
2026-01-06 04:39:48.78	270.79	10.81	-35.7	-36.9	28.5	3.04e+01	90	34	0	352321536	46	6061
2026-01-06 04:39:51.81	271.42	10.87	-35.8	-37.0	28.6	3.04e+01	92	34	0	358088704	46	6093
2026-01-06 04:39:54.83	272.05	10.93	-35.8	-37.0	28.5	3.04e+01	91	34	0	363855872	46	6119
2026-01-06 04:39:57.86	272.68	10.98	-35.5	-36.8	28.7	3.04e+01	91	34	0	369098752	46	5939
2026-01-06 04:40:00.89	273.32	11.03	-35.6	-36.9	28.6	3.04e+01	91	34	0	374865920	46	6013
2026-01-06 04:40:03.92	273.96	11.08	-35.7	-36.9	28.6	3.04e+01	92	34	0	380633088	46	6063
2026-01-06 04:40:06.94	274.60	11.13	-35.7	-37.0	28.5	3.04e+01	92	34	0	386400256	46	6068
2026-01-06 04:40:09.97	275.24	11.17	-35.9	-37.2	28.5	3.04e+01	92	34	0	392167424	46	6221
2026-01-06 04:40:13.00	275.88	11.21	-35.7	-36.9	28.6	3.04e+01	92	34	0	397934592	46	6047
2026-01-06 04:40:16.03	276.53	11.25	-35.7	-36.9	28.6	3.04e+01	92	34	0	403177472	46	6047
2026-01-06 04:40:19.06	277.18	11.29	-35.7	-36.9	28.7	3.04e+01	92	34	0	408944640	46	6026
2026-01-06 04:40:22.09	277.83	11.32	-35.6	-36.8	28.7	3.04e+01	92	34	0	414711808	46	5965
2026-01-06 04:40:25.11	278.48	11.35	-35.7	-36.9	28.6	3.04e+01	90	34	0	420478976	46	6021
2026-01-06 04:40:28.14	279.13	11.37	-35.5	-36.7	28.7	3.04e+01	91	34	0	426246144	46	5920
2026-01-06 04:40:31.17	279.78	11.40	-35.6	-36.9	28.6	3.04e+01	92	34	0	432013312	46	6006
2026-01-06 04:40:34.19	280.43	11.42	-35.6	-36.8	28.7	3.04e+01	88	34	0	437256192	46	5970
2026-01-06 04:40:37.22	281.09	11.43	-35.5	-36.7	28.8	3.04e+01	90	34	0	443023360	46	5908
2026-01-06 04:40:40.25	281.75	11.44	-35.6	-36.9	28.6	3.04e+01	92	34	0	448790528	46	6023
2026-01-06 04:40:43.27	282.40	11.45	-35.6	-36.8	28.7	3.04e+01	91	34	0	454557696	46	5975
2026-01-06 04:40:46.30	283.06	11.46	-35.6	-36.9	28.6	3.04e+01	92	34	0	460324864	46	6002
2026-01-06 04:40:49.32	283.71	11.46	-35.4	-36.7	28.9	3.04e+01	91	34	0	466092032	46	5864
2026-01-06 04:40:52.35	284.37	11.46	-35.7	-36.9	28.5	3.04e+01	88	34	0	471334912	46	6027
2026-01-06 04:40:55.38	285.02	11.46	-35.5	-36.7	28.8	3.04e+01	92	34	0	477102080	46	5914
2026-01-06 04:40:58.41	285.68	11.46	-35.6	-36.9	28.6	3.04e+01	90	34	0	482869248	46	6006
2026-01-06 04:41:01.44	286.34	11.45	-35.6	-36.8	28.7	3.04e+01	92	34	0	488636416	46	5992
2026-01-06 04:41:04.47	286.99	11.43	-35.6	-36.9	28.6	3.04e+01	90	34	0	494403584	46	6020
2026-01-06 04:41:07.49	287.64	11.42	-35.6	-36.8	28.7	3.04e+01	92	34	0	499646464	46	5993
2026-01-06 04:41:10.52	288.30	11.40	-35.6	-36.9	28.7	3.04e+01	92	34	0	505413632	46	6029
2026-01-06 04:41:13.55	288.95	11.38	-35.4	-36.6	28.8	3.04e+01	92	34	0	511180800	46	5854
2026-01-06 04:41:16.58	289.60	11.35	-35.6	-36.8	28.7	3.04e+01	92	34	0	516947968	46	5986
2026-01-06 04:41:19.60	290.25	11.32	-35.5	-36.7	28.8	3.04e+01	92	34	0	522715136	46	5924
2026-01-06 04:41:22.63	290.90	11.29	-35.4	-36.6	28.8	3.04e+01	61	34	0	528482304	46	5847
2026-01-06 04:41:25.66	291.55	11.26	-35.5	-36.7	28.7	3.04e+01	59	34	0	533725184	46	5916
2026-01-06 04:41:28.69	292.19	11.22	-35.4	-36.6	28.8	3.04e+01	59	34	0	539492352	46	5852
2026-01-06 04:41:31.71	292.83	11.18	-35.6	-36.8	28.7	3.04e+01	51	34	0	545259520	46	5954
2026-01-06 04:41:34.74	293.48	11.14	-35.5	-36.7	28.8	3.04e+01	46	34	0	551026688	46	5888
2026-01-06 04:41:37.77	294.12	11.09	-35.5	-36.7	28.8	3.04e+01	58	34	0	556793856	46	5899
2026-01-06 04:41:40.80	294.75	11.04	-35.6	-36.8	28.7	3.04e+01	58	34	0	562561024	46	5951
2026-01-06 04:41:43.83	295.39	10.99	-35.5	-36.8	28.7	3.04e+01	58	34	0	567803904	46	5929
2026-01-06 04:41:46.85	296.02	10.94	-35.5	-36.7	28.8	3.04e+01	60	34	0	573571072	46	5919
2026-01-06 04:41:49.88	296.65	10.88	-35.6	-36.8	28.7	3.04e+01	57	34	0	579338240	46	5966
2026-01-06 04:41:52.91	297.28	10.82	-35.5	-36.7	28.8	3.04e+01	57	34	0	585105408	46	5906
2026-01-06 04:41:55.93	297.90	10.75	-35.5	-36.8	28.7	3.04e+01	59	34	0	590872576	46	5938
2026-01-06 04:41:58.96	298.52	10.69	-35.7	-36.9	28.7	3.04e+01	50	34	0	596115456	46	6030
2026-01-06 04:42:01.99	299.14	10.62	-35.6	-36.9	28.7	3.04e+01	57	34	0	601882624	46	5996
2026-01-06 04:42:05.02	299.76	10.55	-35.6	-36.8	28.7	3.04e+01	62	34	0	607649792	46	5993
2026-01-06 04:42:08.04	300.37	10.48	-35.6	-36.8	28.7	3.04e+01	56	34	0	613416960	46	5991
2026-01-06 04:42:11.07	300.98	10.40	-35.5	-36.8	28.6	3.04e+01	58	34	0	619184128	46	5927
2026-01-06 04:42:14.10	301.58	10.32	-35.7	-36.9	28.5	3.04e+01	61	34	0	624951296	46	6035
2026-01-06 04:42:17.13	302.18	10.24	-35.7	-37.0	28.5	3.04e+01	46	34	0	630718464	46	6079
2026-01-06 04:42:20.16	302.78	10.16	-35.4	-36.7	28.8	3.04e+01	44	34	0	635961344	46	5882
2026-01-06 04:42:23.18	303.38	10.07	-35.6	-36.8	28.6	3.04e+01	59	34	0	641728512	46	5987
2026-01-06 04:42:26.20	303.96	9.99	-35.9	-37.1	28.3	3.04e+01	56	34	0	647495680	46	6205
2026-01-06 04:42:29.23	304.55	9.90	-35.7	-37.0	28.4	3.04e+01	61	34	0	653262848	46	6080
2026-01-06 04:42:32.26	305.14	9.80	-35.7	-37.0	28.4	3.04e+01	58	34	0	659030016	46	6098
2026-01-06 04:42:35.28	305.71	9.71	-35.7	-36.9	28.5	3.04e+01	58	34	0	664272896	46	6061
2026-01-06 04:42:38.31	306.29	9.62	-35.7	-37.0	28.4	3.04e+01	52	34	0	670040064	46	6122
2026-01-06 04:42:41.34	306.86	9.52	-35.7	-36.9	28.4	3.04e+01	53	34	0	675807232	46	6063
2026-01-06 04:42:44.37	307.43	9.42	-35.6	-36.9	28.5	3.04e+01	44	34	0	681574400	46	6040
2026-01-06 04:42:47.40	307.99	9.32	-35.8	-37.0	28.4	3.04e+01	55	34	0	687341568	46	6120
2026-01-06 04:42:50.43	308.55	9.21	-35.9	-37.2	28.2	3.04e+01	60	34	0	693108736	46	6218
2026-01-06 04:42:53.45	309.10	9.11	-35.8	-37.1	28.3	3.04e+01	58	34	0	698351616	46	6181
2026-01-06 04:42:56.48	309.66	9.00	-35.9	-37.2	28.3	3.04e+01	59	34	0	704118784	46	6208
2026-01-06 04:42:59.50	310.20	8.89	-35.9	-37.1	28.3	3.04e+01	60	34	0	709885952	46	6203
2026-01-06 04:43:02.53	310.74	8.78	-36.0	-37.2	28.2	3.04e+01	44	34	0	715653120	46	6263
2026-01-06 04:43:05.56	311.28	8.67	-36.0	-37.3	28.1	3.04e+01	53	34	0	721420288	46	6332
2026-01-06 04:43:08.59	311.81	8.56	-36.3	-37.6	27.8	3.04e+01	56	34	0	727187456	46	6564
2026-01-06 04:43:11.62	312.34	8.45	-36.0	-37.3	28.1	3.04e+01	59	34	0	732430336	46	6326
2026-01-06 04:43:14.65	312.87	8.33	-36.0	-37.3	28.0	3.04e+01	60	34	0	738197504	46	6310
2026-01-06 04:43:17.68	313.39	8.21	-36.3	-37.6	27.8	3.04e+01	61	34	0	743964672	46	6563
2026-01-06 04:43:20.71	313.91	8.10	-36.0	-37.3	28.0	3.04e+01	57	34	0	749731840	46	6330
2026-01-06 04:43:23.73	314.42	7.98	-36.1	-37.4	28.0	3.04e+01	52	34	0	755499008	46	6417
2026-01-06 04:43:26.76	314.92	7.86	-36.0	-37.2	28.1	3.04e+01	51	34	0	760741888	46	6272
2026-01-06 04:43:29.79	315.43	7.73	-36.1	-37.4	28.0	3.04e+01	60	34	0	766509056	46	6403
2026-01-06 04:43:32.82	315.92	7.61	-36.2	-37.6	27.7	3.04e+01	61	34	0	772276224	46	6507
2026-01-06 04:43:35.85	316.42	7.49	-36.2	-37.5	27.7	3.04e+01	58	34	0	778043392	46	6494
2026-01-06 04:43:38.87	316.91	7.36	-36.2	-37.5	27.8	3.04e+01	61	34	0	783810560	46	6432
2026-01-06 04:43:41.90	317.39	7.24	-36.3	-37.6	27.7	3.04e+01	56	34	0	789577728	46	6553
2026-01-06 04:43:44.93	317.87	7.11	-36.5	-37.8	27.5	3.04e+01	61	34	0	795344896	46	6710
2026-01-06 04:43:47.96	318.35	6.98	-36.5	-37.8	27.5	3.04e+01	56	35	0	800587776	46	6685
2026-01-06 04:43:50.99	318.82	6.85	-36.6	-37.9	27.4	3.04e+01	44	34	0	806354944	46	6757
2026-01-06 04:43:54.01	319.28	6.72	-36.4	-37.7	27.5	3.04e+01	58	34	0	812122112	46	6623
2026-01-06 04:43:57.04	319.75	6.59	-36.5	-37.8	27.4	3.04e+01	57	34	0	817889280	46	6722
2026-01-06 04:44:00.07	320.21	6.46	-36.6	-37.9	27.3	3.04e+01	58	34	0	823656448	46	6766
2026-01-06 04:44:03.10	320.66	6.33	-36.8	-38.1	27.2	3.04e+01	56	34	0	828899328	46	6928
2026-01-06 04:44:06.13	321.11	6.20	-36.9	-38.2	27.0	3.04e+01	59	34	0	834666496	48	6268
2026-01-06 04:44:09.16	321.56	6.07	-36.6	-37.9	27.3	3.04e+01	46	34	0	840433664	48	6053
2026-01-06 04:44:12.18	322.00	5.93	-36.7	-38.0	27.1	3.04e+01	44	34	0	846200832	48	6094
2026-01-06 04:44:15.21	322.43	5.80	-36.7	-38.1	27.0	3.04e+01	58	34	0	851968000	48	6145
2026-01-06 04:44:18.24	322.87	5.67	-36.7	-38.0	27.1	3.04e+01	59	34	0	857735168	48	6113
2026-01-06 04:44:21.27	323.30	5.53	-37.0	-38.4	26.8	3.04e+01	61	34	0	863502336	48	6398
2026-01-06 04:44:24.29	323.72	5.40	-37.2	-38.6	26.5	3.04e+01	59	34	0	868745216	48	6562
2026-01-06 04:44:27.32	324.14	5.26	-37.0	-38.4	26.7	3.04e+01	61	34	0	874512384	48	6355
2026-01-06 04:44:30.35	324.56	5.12	-36.8	-38.2	26.9	3.04e+01	59	34	0	880279552	48	6238
2026-01-06 04:44:33.38	324.97	4.99	-37.2	-38.6	26.5	3.04e+01	51	34	0	886046720	48	6562
2026-01-06 04:44:36.41	325.38	4.85	-37.2	-38.6	26.5	3.04e+01	53	34	0	891813888	48	6509
2026-01-06 04:44:39.44	325.78	4.71	-37.3	-38.7	26.3	3.04e+01	59	34	0	897056768	48	6619
2026-01-06 04:44:42.47	326.18	4.58	-37.4	-38.8	26.3	3.04e+01	59	34	0	902823936	48	6713
2026-01-06 04:44:45.50	326.58	4.44	-37.6	-47.9	3.4	3.04e+01	0	34	104	906493952	48	19102
2026-01-06 04:44:48.52	326.97	4.30	-37.8	-48.0	3.6	3.04e+01	0	34	104	906493952	50	17223
2026-01-06 04:44:51.55	327.36	4.16	-47.3	-63.5	3.5	3.04e+01	0	34	104	906493952	60	57349
2026-01-06 04:44:54.58	327.74	4.02	-39.9	-50.4	4.1	3.04e+01	0	35	104	906493952	54	17903
2026-01-06 04:44:57.61	328.12	3.89	-43.1	-54.4	3.9	3.04e+01	0	34	104	906493952	60	20143
2026-01-06 04:45:00.64	328.50	3.75	-44.6	-57.1	3.5	3.04e+01	0	34	104	906493952	60	27645
2026-01-06 04:45:03.67	328.87	3.61	-38.9	-49.4	3.5	3.04e+01	0	35	104	906493952	52	18056
2026-01-06 04:45:06.70	329.24	3.47	-38.7	-49.3	3.5	3.04e+01	0	34	104	906493952	52	17777
2026-01-06 04:45:09.73	329.61	3.33	-41.7	-53.2	3.5	3.04e+01	0	35	104	906493952	60	17629
2026-01-06 04:45:12.76	329.97	3.19	-41.3	-52.5	3.5	3.04e+01	0	35	104	906493952	56	20471
2026-01-06 04:45:15.79	330.33	3.05	-41.1	-52.4	3.5	3.04e+01	0	35	104	906493952	56	20308
2026-01-06 04:45:18.81	330.68	2.91	-48.4	-66.5	3.5	3.04e+01	0	35	104	906493952	60	81587
2026-01-06 04:45:21.84	331.04	2.77	-48.6	-66.9	3.5	3.04e+01	0	35	104	906493952	60	85398
2026-01-06 04:45:24.87	331.38	2.63	-48.7	-67.0	3.5	3.04e+01	0	35	104	906493952	60	86393
2026-01-06 04:45:27.90	331.73	2.49	-48.7	-67.0	3.5	3.04e+01	0	35	104	906493952	60	85884
2026-01-06 04:45:30.92	332.07	2.36	-49.0	-66.9	3.5	3.04e+01	0	35	104	906493952	60	85269
2026-01-06 04:45:33.95	332.41	2.22	-49.0	-66.9	3.5	3.04e+01	0	35	104	906493952	60	85443
2026-01-06 04:45:36.98	332.74	2.08	-49.0	-67.0	3.5	3.04e+01	0	35	104	906493952	60	85749
2026-01-06 04:45:40.01	333.07	1.94	-49.0	-67.0	3.5	3.04e+01	0	35	104	906493952	60	85760
2026-01-06 04:45:43.05	333.40	1.80	-49.0	-66.9	3.5	3.04e+01	0	35	104	906493952	60	84974
2026-01-06 04:45:46.07	333.73	1.66	-49.0	-66.9	3.5	3.04e+01	0	35	104	906493952	60	85063
2026-01-06 04:45:49.10	334.05	1.52	-49.0	-66.9	3.5	3.04e+01	0	35	104	906493952	60	85015
2026-01-06 04:45:52.13	334.37	1.38	-49.0	-66.9	3.5	3.04e+01	0	35	104	906493952	60	85578
2026-01-06 04:45:55.16	334.68	1.24	-49.0	-66.9	3.5	3.04e+01	0	35	104	906493952	60	85063
2026-01-06 04:45:58.19	335.00	1.10	-49.0	-66.9	3.5	3.04e+01	0	35	104	906493952	60	85321
2026-01-06 04:46:01.22	335.30	0.97	-49.0	-66.9	3.5	3.04e+01	0	35	104	906493952	60	84988
2026-01-06 04:46:04.25	335.61	0.83	-49.0	-66.9	3.5	3.04e+01	0	35	104	906493952	60	84839
2026-01-06 04:46:07.27	335.91	0.69	-49.0	-66.9	3.5	3.04e+01	0	35	104	906493952	60	84941
2026-01-06 04:46:10.29	336.21	0.55	-49.0	-66.9	3.5	3.04e+01	0	35	104	906493952	60	85530
2026-01-06 04:46:13.32	336.51	0.41	-49.0	-66.9	3.5	3.04e+01	0	35	104	906493952	60	84717
2026-01-06 04:46:16.35	336.81	0.28	-49.0	-66.8	3.5	3.04e+01	0	35	104	906493952	60	84603
2026-01-06 04:46:19.38	337.10	0.14	-49.0	-66.9	3.5	3.04e+01	0	35	104	906493952	60	84697
2026-01-06 04:46:22.41	337.39	-0.00	-49.0	-66.8	3.5	3.04e+01	0	35	104	906493952	60	84412

#Closed at: 2026-01-06 04:46:23
#Recorded file [906 MB]: D:/lorett/data/35029_260106_163525.dat