passes_logs/2026/01/06/R4.6S_Anadyr/R4.6S_Anadyr__20260106_004756_NOAA_20_JPSS-1_rec.log

#Pass ID: 20260106_004756_NOAA 20 (JPSS-1)
#Satellite: NOAA 20 (JPSS-1)
#Configuration: NOAA 20
#almurnet v.1.7.20251203
#Start time: 2026-01-06 00:47:57

#Version: 2.2.20231116
#Station: R4.6S_Anadyr
#Location: 177.4865 lon 64.73178 lat
#TLE: 1 43013U 17073A   26005.46207808  .00000128  00000+0  81791-4 0  9997
#TLE: 2 43013  98.7627 306.5027 0001826  53.0458 307.0885 14.19533487421381

#Time	Az	El	Level	Level2	SNR	BER	BlckErr	Temp	State	Recorded	gain1	gain2
2026-01-06 00:47:57.20	170.90	0.07	-48.8	-63.7	3.5	1.51e+00	0	31	0	0	60	55157
2026-01-06 00:48:01.24	170.98	0.31	-48.7	-63.9	3.6	1.51e+00	0	32	104	0	60	56537
2026-01-06 00:48:05.27	171.07	0.55	-48.8	-63.9	3.6	1.51e+00	0	33	104	0	60	56740
2026-01-06 00:48:09.31	171.15	0.80	-48.6	-63.8	3.5	1.51e+00	0	33	104	0	60	56155
2026-01-06 00:48:13.35	171.24	1.04	-48.0	-63.2	3.6	1.51e+00	0	33	104	0	60	52120
2026-01-06 00:48:17.39	171.33	1.29	-47.4	-62.5	3.6	1.51e+00	0	33	104	0	60	48417
2026-01-06 00:48:21.43	171.42	1.54	-47.4	-62.5	3.6	1.51e+00	0	33	104	0	60	48109
2026-01-06 00:48:25.47	171.51	1.80	-47.4	-62.2	3.6	1.51e+00	0	33	104	0	60	46722
2026-01-06 00:48:29.51	171.61	2.05	-47.4	-62.6	3.6	1.51e+00	0	33	104	0	60	48544
2026-01-06 00:48:33.55	171.70	2.31	-47.4	-62.3	3.6	1.51e+00	0	33	104	0	60	47336
2026-01-06 00:48:37.60	171.80	2.57	-47.3	-61.5	3.6	1.51e+00	0	33	104	0	60	42887
2026-01-06 00:48:41.64	171.90	2.83	-47.4	-62.2	3.6	1.51e+00	0	33	104	0	60	46389
2026-01-06 00:48:45.67	171.99	3.10	-46.5	-52.8	8.0	2.14e-01	0	33	0	2097152	60	15743
2026-01-06 00:48:49.70	172.10	3.36	-43.2	-45.6	15.9	0.00e+00	0	33	0	9437184	60	6890
2026-01-06 00:48:53.74	172.20	3.63	-41.4	-43.1	18.4	0.00e+00	0	33	0	16777216	56	6536
2026-01-06 00:48:57.78	172.30	3.91	-46.3	-52.4	7.1	3.35e-03	0	33	0	25165824	60	15036
2026-01-06 00:49:01.82	172.41	4.18	-42.8	-45.0	16.6	0.00e+00	0	33	0	27262976	60	6412
2026-01-06 00:49:05.85	172.51	4.46	-41.4	-43.1	18.8	0.00e+00	0	33	0	34603008	56	6485
2026-01-06 00:49:09.89	172.62	4.74	-39.8	-41.1	20.5	0.00e+00	0	33	0	41943040	52	6477
2026-01-06 00:49:13.93	172.73	5.02	-39.4	-40.6	21.0	0.00e+00	0	33	0	50331648	52	6148
2026-01-06 00:49:17.97	172.85	5.31	-39.3	-40.5	21.2	0.00e+00	0	33	0	57671680	52	6036
2026-01-06 00:49:22.00	172.96	5.60	-39.1	-40.3	21.3	0.00e+00	0	33	0	65011712	52	5911
2026-01-06 00:49:26.03	173.08	5.89	-39.2	-40.4	21.3	0.00e+00	0	33	0	72351744	52	5994
2026-01-06 00:49:30.07	173.20	6.19	-38.9	-40.0	21.7	0.00e+00	0	33	0	79691776	52	5713
2026-01-06 00:49:34.10	173.32	6.49	-39.1	-40.2	21.5	0.00e+00	0	34	0	88080384	52	5887
2026-01-06 00:49:38.14	173.44	6.79	-38.8	-39.9	21.8	0.00e+00	0	34	0	95420416	52	5683
2026-01-06 00:49:42.18	173.57	7.10	-38.9	-39.9	21.9	0.00e+00	0	33	0	102760448	50	6384
2026-01-06 00:49:46.22	173.70	7.41	-38.6	-39.7	22.1	0.00e+00	0	33	0	110100480	50	6190
2026-01-06 00:49:50.26	173.83	7.72	-38.5	-39.5	22.2	0.00e+00	0	34	0	117440512	50	6096
2026-01-06 00:49:54.30	173.96	8.04	-38.5	-39.5	22.4	0.00e+00	0	34	0	125829120	50	6051
2026-01-06 00:49:58.33	174.10	8.36	-38.5	-39.5	22.5	0.00e+00	0	34	0	133169152	50	6052
2026-01-06 00:50:02.37	174.24	8.68	-38.2	-39.2	22.7	0.00e+00	0	34	0	140509184	50	5854
2026-01-06 00:50:06.40	174.38	9.01	-38.0	-39.0	22.9	0.00e+00	0	34	0	147849216	50	5712
2026-01-06 00:50:10.45	174.52	9.35	-38.0	-39.0	22.9	0.00e+00	0	34	0	156237824	50	5718
2026-01-06 00:50:14.48	174.67	9.69	-37.8	-38.7	23.1	0.00e+00	0	34	0	163577856	48	6228
2026-01-06 00:50:18.52	174.82	10.03	-37.7	-38.7	23.1	0.00e+00	0	34	0	170917888	48	6183
2026-01-06 00:50:22.56	174.98	10.38	-37.9	-38.8	23.2	0.00e+00	0	34	0	178257920	48	6306
2026-01-06 00:50:26.59	175.13	10.73	-37.8	-38.7	23.2	0.00e+00	0	34	0	185597952	48	6206
2026-01-06 00:50:30.63	175.29	11.09	-37.7	-38.6	23.3	0.00e+00	0	34	0	193986560	48	6139
2026-01-06 00:50:34.67	175.46	11.45	-37.6	-38.5	23.4	0.00e+00	0	34	0	201326592	48	6094
2026-01-06 00:50:38.71	175.63	11.82	-37.7	-38.6	23.4	0.00e+00	0	34	0	208666624	48	6129
2026-01-06 00:50:42.74	175.80	12.19	-37.4	-38.3	23.6	0.00e+00	0	33	0	216006656	48	5936
2026-01-06 00:50:46.78	175.98	12.57	-37.3	-38.2	23.8	0.00e+00	0	34	0	224395264	48	5842
2026-01-06 00:50:50.81	176.16	12.95	-37.3	-38.1	23.8	0.00e+00	0	34	0	231735296	48	5828
2026-01-06 00:50:54.85	176.34	13.34	-37.2	-38.1	23.9	0.00e+00	0	34	0	239075328	48	5796
2026-01-06 00:50:58.89	176.53	13.74	-37.3	-38.1	23.8	0.00e+00	0	34	0	246415360	48	5824
2026-01-06 00:51:02.93	176.73	14.14	-37.4	-38.3	23.7	0.00e+00	0	34	0	253755392	48	5944
2026-01-06 00:51:06.97	176.92	14.55	-37.5	-38.4	23.6	0.00e+00	0	34	0	262144000	48	5995
2026-01-06 00:51:11.00	177.13	14.97	-37.6	-38.5	23.5	0.00e+00	0	34	0	269484032	48	6077
2026-01-06 00:51:15.04	177.34	15.39	-37.4	-38.2	23.8	0.00e+00	0	34	0	276824064	48	5887
2026-01-06 00:51:19.08	177.55	15.82	-37.6	-38.5	23.7	0.00e+00	0	34	0	284164096	48	6084
2026-01-06 00:51:23.11	177.78	16.26	-37.4	-38.3	23.9	0.00e+00	0	34	0	292552704	48	5906
2026-01-06 00:51:27.15	178.00	16.70	-37.5	-38.4	23.7	0.00e+00	0	34	0	299892736	48	5968
2026-01-06 00:51:31.19	178.24	17.16	-37.4	-38.3	23.8	0.00e+00	0	34	0	307232768	48	5936
2026-01-06 00:51:35.22	178.48	17.62	-37.6	-38.5	23.7	0.00e+00	0	34	0	314572800	48	6047
2026-01-06 00:51:39.26	178.73	18.09	-37.5	-38.4	23.7	0.00e+00	0	34	0	321912832	48	6015
2026-01-06 00:51:43.30	178.98	18.57	-37.4	-38.3	23.8	0.00e+00	0	34	0	330301440	48	5919
2026-01-06 00:51:47.34	179.25	19.05	-37.4	-38.2	23.9	0.00e+00	0	34	0	337641472	48	5877
2026-01-06 00:51:51.37	179.52	19.55	-37.3	-38.2	23.9	0.00e+00	0	34	0	344981504	48	5861
2026-01-06 00:51:55.40	179.80	20.05	-37.6	-38.5	23.7	0.00e+00	0	34	0	352321536	48	6051
2026-01-06 00:51:59.44	180.08	20.57	-37.7	-38.6	23.7	0.00e+00	0	34	0	359661568	48	6115
2026-01-06 00:52:03.48	180.38	21.09	-37.5	-38.3	23.8	0.00e+00	0	34	0	368050176	48	5958
2026-01-06 00:52:07.52	180.69	21.63	-37.5	-38.3	23.8	0.00e+00	0	34	0	375390208	48	5961
2026-01-06 00:52:11.55	181.01	22.18	-37.1	-37.9	24.2	0.00e+00	0	34	0	382730240	48	5674
2026-01-06 00:52:15.59	181.34	22.73	-37.1	-38.0	24.2	0.00e+00	0	34	0	390070272	48	5713
2026-01-06 00:52:19.63	181.68	23.30	-36.8	-37.7	24.4	0.00e+00	0	34	0	398458880	46	6197
2026-01-06 00:52:23.66	182.03	23.88	-36.5	-37.3	24.7	0.00e+00	0	34	0	405798912	46	5958
2026-01-06 00:52:27.70	182.40	24.48	-36.4	-37.2	24.8	0.00e+00	0	34	0	413138944	46	5870
2026-01-06 00:52:31.73	182.78	25.08	-36.2	-36.9	25.1	0.00e+00	0	34	0	420478976	46	5691
2026-01-06 00:52:35.77	183.17	25.70	-36.2	-37.0	25.1	0.00e+00	0	34	0	427819008	46	5743
2026-01-06 00:52:39.80	183.58	26.33	-36.1	-36.8	25.2	0.00e+00	0	34	0	436207616	46	5624
2026-01-06 00:52:43.84	184.00	26.98	-36.3	-37.1	24.9	0.00e+00	0	34	0	443547648	46	5806
2026-01-06 00:52:47.88	184.44	27.64	-36.7	-37.5	24.7	0.00e+00	0	34	0	450887680	46	6073
2026-01-06 00:52:51.91	184.90	28.31	-37.1	-37.9	24.2	0.00e+00	0	34	0	458227712	46	6373
2026-01-06 00:52:55.95	185.38	29.00	-37.5	-38.4	23.9	0.00e+00	0	34	0	466616320	46	6695
2026-01-06 00:53:00.00	185.88	29.71	-38.0	-38.9	23.4	0.00e+00	0	34	0	473956352	48	6350
2026-01-06 00:53:04.04	186.41	30.43	-38.3	-39.2	23.1	0.00e+00	0	34	0	481296384	48	6609
2026-01-06 00:53:08.07	186.95	31.16	-39.1	-40.2	22.2	0.00e+00	0	34	0	488636416	50	6548
2026-01-06 00:53:12.11	187.52	31.91	-39.8	-41.0	21.7	0.00e+00	0	34	0	495976448	52	6391
2026-01-06 00:53:16.15	188.12	32.68	-39.8	-40.9	21.6	0.00e+00	0	34	0	504365056	52	6383
2026-01-06 00:53:20.19	188.74	33.46	-39.7	-40.8	21.9	0.00e+00	0	34	0	511705088	52	6290
2026-01-06 00:53:24.23	189.40	34.27	-39.6	-40.7	21.9	0.00e+00	0	34	0	519045120	52	6235
2026-01-06 00:53:28.26	190.08	35.08	-39.5	-40.6	21.9	0.00e+00	0	34	0	526385152	52	6156
2026-01-06 00:53:32.30	190.80	35.92	-39.6	-40.7	21.8	0.00e+00	0	34	0	534773760	52	6240
2026-01-06 00:53:36.34	191.56	36.77	-39.6	-40.7	21.9	0.00e+00	0	34	0	542113792	52	6177
2026-01-06 00:53:40.38	192.36	37.64	-39.7	-40.7	21.9	0.00e+00	0	34	0	549453824	52	6236
2026-01-06 00:53:44.42	193.21	38.52	-39.4	-40.4	22.2	0.00e+00	0	34	0	556793856	52	6018
2026-01-06 00:53:48.45	194.09	39.42	-39.3	-40.4	22.1	0.00e+00	0	34	0	564133888	52	5995
2026-01-06 00:53:52.49	195.03	40.34	-38.9	-39.9	22.6	0.00e+00	0	34	0	572522496	52	5676
2026-01-06 00:53:56.53	196.03	41.27	-38.1	-39.0	23.3	0.00e+00	0	34	0	579862528	50	5757
2026-01-06 00:54:00.56	197.08	42.22	-38.0	-39.0	23.5	0.00e+00	0	34	0	587202560	50	5702
2026-01-06 00:54:04.60	198.19	43.18	-38.4	-39.4	23.1	0.00e+00	0	34	0	594542592	50	5985
2026-01-06 00:54:08.64	199.37	44.15	-38.3	-39.2	23.1	0.00e+00	0	34	0	602931200	50	5878
2026-01-06 00:54:12.67	200.63	45.13	-39.4	-40.4	22.1	0.00e+00	0	34	0	610271232	50	6745
2026-01-06 00:54:16.71	201.96	46.13	-38.8	-39.8	22.5	0.00e+00	0	34	0	617611264	50	6267
2026-01-06 00:54:20.75	203.38	47.13	-39.8	-40.9	21.7	0.00e+00	0	34	0	624951296	50	7165
2026-01-06 00:54:24.78	204.89	48.13	-39.6	-40.7	21.9	0.00e+00	0	34	0	632291328	52	6212
2026-01-06 00:54:28.82	206.51	49.13	-39.3	-40.4	22.1	0.00e+00	0	34	0	640679936	50	6708
2026-01-06 00:54:32.86	208.23	50.13	-39.7	-40.8	22.0	0.00e+00	0	34	0	648019968	52	6267
2026-01-06 00:54:36.90	210.07	51.12	-37.9	-38.8	23.5	0.00e+00	0	34	0	655360000	48	6281
2026-01-06 00:54:40.94	212.03	52.10	-37.4	-38.2	24.1	0.00e+00	0	34	0	662700032	48	5893
2026-01-06 00:54:44.97	214.12	53.07	-37.0	-37.8	24.4	0.00e+00	0	34	0	671088640	48	5597
2026-01-06 00:54:49.01	216.35	54.01	-36.3	-37.1	25.0	0.00e+00	0	34	0	678428672	46	5763
2026-01-06 00:54:53.05	218.73	54.92	-37.0	-37.8	24.4	0.00e+00	0	34	0	685768704	46	6307
2026-01-06 00:54:57.09	221.26	55.80	-37.2	-38.1	24.2	0.00e+00	0	34	0	693108736	46	6484
2026-01-06 00:55:01.12	223.95	56.63	-38.1	-39.1	23.3	0.00e+00	0	34	0	700448768	48	6496
2026-01-06 00:55:05.16	226.80	57.41	-37.7	-38.6	23.7	0.00e+00	0	34	0	708837376	48	6119
2026-01-06 00:55:09.20	229.81	58.14	-37.6	-38.5	23.8	0.00e+00	0	34	0	716177408	48	6034
2026-01-06 00:55:13.23	232.97	58.79	-38.0	-38.9	23.5	0.00e+00	0	34	0	723517440	48	6371
2026-01-06 00:55:17.26	236.28	59.36	-37.8	-38.6	23.6	0.00e+00	0	34	0	730857472	48	6166
2026-01-06 00:55:21.29	239.73	59.85	-37.4	-38.3	23.9	0.00e+00	0	34	0	738197504	48	5917
2026-01-06 00:55:25.33	243.31	60.25	-38.0	-38.9	23.5	0.00e+00	0	34	0	746586112	48	6366
2026-01-06 00:55:29.37	246.98	60.54	-37.9	-38.8	23.5	0.00e+00	0	34	0	753926144	48	6286
2026-01-06 00:55:33.41	250.72	60.74	-37.4	-38.2	24.0	0.00e+00	0	34	0	761266176	48	5888
2026-01-06 00:55:37.45	254.51	60.82	-37.9	-38.8	23.4	0.00e+00	0	34	0	768606208	48	6306
2026-01-06 00:55:41.49	258.30	60.80	-37.0	-37.8	24.3	0.00e+00	0	34	0	776994816	48	5624
2026-01-06 00:55:45.53	262.07	60.66	-36.4	-37.2	24.8	0.00e+00	0	34	0	784334848	46	5877
2026-01-06 00:55:49.56	265.77	60.43	-36.6	-37.4	24.6	0.00e+00	0	34	0	791674880	46	6028
2026-01-06 00:55:53.59	269.40	60.09	-37.5	-38.4	23.9	0.00e+00	0	34	0	799014912	48	5983
2026-01-06 00:55:57.63	272.92	59.65	-38.9	-39.9	22.5	0.00e+00	0	34	0	806354944	50	6370
2026-01-06 00:56:01.67	276.31	59.12	-40.5	-41.8	20.8	0.00e+00	0	34	0	814743552	54	6264
2026-01-06 00:56:05.71	279.56	58.51	-40.9	-42.2	20.4	0.00e+00	0	34	0	822083584	52	7411
2026-01-06 00:56:09.75	282.66	57.83	-38.1	-39.0	23.4	0.00e+00	0	34	0	829423616	50	5747
2026-01-06 00:56:13.78	285.59	57.08	-38.1	-39.0	23.3	0.00e+00	0	34	0	836763648	50	5732
2026-01-06 00:56:17.82	288.37	56.28	-36.7	-37.5	24.6	0.00e+00	0	34	0	845152256	48	5416
2026-01-06 00:56:21.86	290.99	55.43	-37.2	-38.0	24.1	0.00e+00	0	34	0	852492288	46	6461
2026-01-06 00:56:25.89	293.44	54.54	-36.4	-37.2	24.8	0.00e+00	0	34	0	859832320	44	6581
2026-01-06 00:56:29.93	295.75	53.62	-35.0	-35.7	26.1	0.00e+00	0	34	0	867172352	44	5543
2026-01-06 00:56:33.97	297.92	52.67	-35.0	-35.7	26.0	0.00e+00	0	34	0	874512384	42	6219
2026-01-06 00:56:38.01	299.95	51.70	-36.1	-36.8	25.1	0.00e+00	0	34	0	882900992	44	6312
2026-01-06 00:56:42.04	301.85	50.71	-35.9	-36.6	25.4	0.00e+00	0	34	0	890241024	46	5488
2026-01-06 00:56:46.08	303.63	49.72	-38.9	-40.0	22.5	0.00e+00	0	34	0	897581056	50	6431
2026-01-06 00:56:50.12	305.30	48.72	-39.7	-40.8	21.3	0.00e+00	0	34	0	904921088	50	7081
2026-01-06 00:56:54.16	306.87	47.72	-40.6	-42.0	20.6	0.00e+00	0	34	0	912261120	54	6394
2026-01-06 00:56:58.20	308.34	46.73	-42.8	-44.6	18.2	0.00e+00	0	34	0	920649728	56	7734
2026-01-06 00:57:02.24	309.72	45.73	-40.2	-41.4	21.2	0.00e+00	0	34	0	927989760	54	5988
2026-01-06 00:57:06.28	311.02	44.75	-40.5	-41.8	20.9	0.00e+00	0	34	0	935329792	54	6246
2026-01-06 00:57:10.32	312.24	43.77	-39.4	-40.5	22.1	0.00e+00	0	34	0	942669824	52	6051
2026-01-06 00:57:14.36	313.39	42.81	-39.0	-40.0	22.6	0.00e+00	0	34	0	951058432	52	5756
2026-01-06 00:57:18.40	314.48	41.86	-38.2	-39.1	23.2	0.00e+00	0	34	0	958398464	48	6525
2026-01-06 00:57:22.44	315.50	40.92	-38.9	-40.0	22.6	0.00e+00	0	34	0	965738496	50	6391
2026-01-06 00:57:26.48	316.47	40.00	-38.1	-39.0	23.5	0.00e+00	0	34	0	973078528	50	5700
2026-01-06 00:57:30.52	317.39	39.09	-39.2	-40.3	22.2	0.00e+00	0	34	0	981467136	50	6622
2026-01-06 00:57:34.56	318.25	38.20	-37.6	-38.5	23.9	0.00e+00	0	34	0	988807168	48	6061
2026-01-06 00:57:38.59	319.07	37.33	-36.9	-37.7	24.5	0.00e+00	0	34	0	996147200	46	6236
2026-01-06 00:57:42.63	319.86	36.47	-38.8	-39.8	22.7	0.00e+00	0	34	0	1003487232	50	6300
2026-01-06 00:57:46.67	320.60	35.63	-37.3	-38.2	24.1	0.00e+00	0	34	0	1010827264	48	5830
2026-01-06 00:57:50.71	321.30	34.81	-38.4	-39.4	23.0	0.00e+00	0	34	0	1019215872	48	6746
2026-01-06 00:57:54.75	321.98	34.00	-40.1	-41.3	21.4	0.00e+00	0	34	0	1026555904	52	6620
2026-01-06 00:57:58.79	322.62	33.21	-38.2	-39.1	23.3	0.00e+00	0	34	0	1033895936	50	5817
2026-01-06 00:58:02.82	323.23	32.44	-39.0	-40.1	22.4	0.00e+00	0	34	0	1041235968	50	6472
2026-01-06 00:58:06.85	323.81	31.68	-39.7	-40.8	21.8	0.00e+00	0	34	0	1048576000	52	6288
2026-01-06 00:58:10.89	324.37	30.94	-38.8	-39.8	22.7	0.00e+00	0	34	0	1056964608	52	5599
2026-01-06 00:58:14.92	324.91	30.22	-39.3	-40.4	22.1	0.00e+00	0	34	0	1064304640	52	5979
2026-01-06 00:58:18.96	325.42	29.51	-39.5	-40.6	22.0	0.00e+00	0	34	0	1071644672	52	6151
2026-01-06 00:58:23.00	325.91	28.81	-38.5	-39.4	23.0	0.00e+00	0	34	0	1078984704	50	6031
2026-01-06 00:58:27.04	326.38	28.13	-39.2	-40.2	22.2	0.00e+00	0	34	0	1087373312	50	6606
2026-01-06 00:58:31.07	326.84	27.47	-39.6	-40.7	21.8	0.00e+00	0	34	0	1094713344	52	6208
2026-01-06 00:58:35.10	327.27	26.82	-39.0	-40.1	22.5	0.00e+00	0	34	0	1102053376	52	5779
2026-01-06 00:58:39.14	327.69	26.18	-38.4	-39.4	22.9	0.00e+00	0	34	0	1109393408	50	5978
2026-01-06 00:58:43.18	328.09	25.56	-38.9	-40.0	22.5	0.00e+00	0	34	0	1116733440	50	6399
2026-01-06 00:58:47.22	328.48	24.95	-39.1	-40.2	22.3	0.00e+00	0	34	0	1125122048	50	6569
2026-01-06 00:58:51.26	328.86	24.35	-38.6	-39.6	22.8	0.00e+00	0	34	0	1132462080	50	6107
2026-01-06 00:58:55.30	329.22	23.76	-38.0	-38.9	23.5	0.00e+00	0	34	0	1139802112	50	5662
2026-01-06 00:58:59.33	329.57	23.19	-37.6	-38.5	23.6	0.00e+00	0	34	0	1147142144	48	6060
2026-01-06 00:59:03.37	329.91	22.63	-37.5	-38.4	23.8	0.00e+00	0	34	0	1155530752	48	5976
2026-01-06 00:59:07.41	330.23	22.08	-37.7	-38.6	23.6	0.00e+00	0	34	0	1162870784	48	6137
2026-01-06 00:59:11.44	330.55	21.54	-38.0	-39.0	23.4	0.00e+00	0	34	0	1170210816	48	6422
2026-01-06 00:59:15.48	330.85	21.01	-38.1	-39.0	23.2	0.00e+00	0	34	0	1177550848	48	6456
2026-01-06 00:59:19.52	331.15	20.49	-37.6	-38.5	23.8	0.00e+00	0	34	0	1184890880	48	6043
2026-01-06 00:59:23.56	331.43	19.98	-36.6	-37.4	24.6	0.00e+00	0	34	0	1193279488	46	5976
2026-01-06 00:59:27.59	331.71	19.48	-36.4	-37.2	24.6	0.00e+00	0	34	0	1200619520	46	5850
2026-01-06 00:59:31.63	331.98	18.99	-36.7	-37.5	24.5	0.00e+00	0	34	0	1207959552	46	6103
2026-01-06 00:59:35.67	332.24	18.51	-37.0	-37.9	24.1	0.00e+00	0	34	0	1215299584	46	6320
2026-01-06 00:59:39.71	332.50	18.04	-37.3	-38.2	23.9	0.00e+00	0	34	0	1222639616	46	6541
2026-01-06 00:59:43.75	332.74	17.57	-37.0	-37.9	24.2	0.00e+00	0	34	0	1231028224	46	6331
2026-01-06 00:59:47.78	332.98	17.12	-37.0	-37.8	24.2	0.00e+00	0	34	0	1238368256	46	6299
2026-01-06 00:59:51.82	333.22	16.67	-36.9	-37.8	24.2	0.00e+00	0	34	0	1245708288	46	6277
2026-01-06 00:59:55.86	333.45	16.23	-37.0	-37.9	24.1	0.00e+00	0	34	0	1253048320	46	6343
2026-01-06 00:59:59.90	333.67	15.79	-37.2	-38.0	23.9	0.00e+00	0	34	0	1261436928	46	6457
2026-01-06 01:00:03.94	333.88	15.37	-37.4	-38.3	23.8	0.00e+00	0	34	0	1268776960	46	6626
2026-01-06 01:00:07.98	334.09	14.95	-37.5	-38.4	23.6	0.00e+00	0	34	0	1276116992	46	6723
2026-01-06 01:00:12.02	334.30	14.54	-37.6	-38.5	23.4	0.00e+00	0	34	0	1283457024	46	6833
2026-01-06 01:00:16.05	334.50	14.13	-37.8	-38.7	23.4	0.00e+00	0	34	0	1290797056	48	6207
2026-01-06 01:00:20.09	334.69	13.73	-37.8	-38.7	23.2	0.00e+00	0	34	0	1299185664	48	6239
2026-01-06 01:00:24.13	334.88	13.34	-37.9	-38.8	23.2	0.00e+00	0	34	0	1306525696	48	6292
2026-01-06 01:00:28.16	335.07	12.96	-37.9	-38.8	23.1	0.00e+00	0	34	0	1313865728	48	6311
2026-01-06 01:00:32.20	335.25	12.58	-37.9	-38.8	23.2	0.00e+00	0	34	0	1321205760	48	6281
2026-01-06 01:00:36.24	335.43	12.20	-37.8	-38.7	23.2	0.00e+00	0	34	0	1329594368	48	6216
2026-01-06 01:00:40.28	335.60	11.83	-37.8	-38.8	23.1	0.00e+00	0	34	0	1336934400	48	6264
2026-01-06 01:00:44.32	335.77	11.47	-37.9	-38.8	23.0	0.00e+00	0	34	0	1344274432	48	6316
2026-01-06 01:00:48.35	335.94	11.11	-37.9	-38.9	22.9	0.00e+00	0	34	0	1351614464	48	6356
2026-01-06 01:00:52.39	336.10	10.75	-38.2	-39.1	22.7	0.00e+00	0	34	0	1358954496	48	6538
2026-01-06 01:00:56.43	336.26	10.40	-38.3	-39.3	22.6	0.00e+00	0	34	0	1367343104	48	6654
2026-01-06 01:01:00.46	336.41	10.06	-38.4	-39.5	22.4	0.00e+00	0	34	0	1374683136	48	6785
2026-01-06 01:01:04.50	336.56	9.72	-38.6	-39.7	22.2	0.00e+00	0	34	0	1382023168	48	6987
2026-01-06 01:01:08.54	336.71	9.38	-38.6	-39.7	22.2	0.00e+00	0	34	0	1389363200	50	6232
2026-01-06 01:01:12.58	336.86	9.05	-38.9	-40.0	21.8	0.00e+00	0	34	0	1397751808	50	6440
2026-01-06 01:01:16.61	337.00	8.73	-39.0	-40.1	21.7	0.00e+00	0	34	0	1405091840	50	6509
2026-01-06 01:01:20.65	337.14	8.40	-39.1	-40.3	21.5	0.00e+00	0	34	0	1412431872	50	6624
2026-01-06 01:01:24.68	337.28	8.09	-39.0	-40.2	21.5	0.00e+00	0	34	0	1419771904	50	6596
2026-01-06 01:01:28.72	337.42	7.77	-39.1	-40.4	21.4	0.00e+00	0	34	0	1427111936	50	6709
2026-01-06 01:01:32.76	337.55	7.46	-39.1	-40.4	21.4	0.00e+00	0	34	0	1435500544	50	6699
2026-01-06 01:01:36.79	337.68	7.15	-39.0	-40.3	21.5	0.00e+00	0	34	0	1442840576	50	6626
2026-01-06 01:01:40.83	337.81	6.85	-39.2	-40.4	21.2	0.00e+00	0	34	0	1450180608	50	6769
2026-01-06 01:01:44.87	337.94	6.55	-38.9	-40.2	21.4	0.00e+00	0	34	0	1457520640	50	6558
2026-01-06 01:01:48.90	338.06	6.25	-38.9	-40.1	21.4	0.00e+00	0	34	0	1464860672	50	6514
2026-01-06 01:01:52.94	338.18	5.96	-39.0	-40.2	21.2	0.00e+00	0	34	0	1473249280	50	6608
2026-01-06 01:01:56.98	338.30	5.67	-39.3	-40.7	20.6	0.00e+00	0	34	0	1480589312	50	6931
2026-01-06 01:02:01.02	338.42	5.38	-39.8	-41.4	19.5	0.00e+00	0	34	0	1487929344	52	6725
2026-01-06 01:02:05.06	338.54	5.09	-40.8	-42.9	17.4	0.00e+00	0	34	0	1495269376	54	7166
2026-01-06 01:02:09.10	338.65	4.81	-41.9	-45.0	14.5	7.00e-07	0	34	0	1503657984	56	8108
2026-01-06 01:02:13.13	338.76	4.54	-42.9	-47.8	10.8	9.78e-04	0	34	0	1510998016	58	9935
2026-01-06 01:02:17.17	338.87	4.26	-43.3	-50.8	6.6	1.10e-01	0	34	0	1518338048	58	14088
2026-01-06 01:02:21.21	338.98	3.99	-43.4	-53.9	3.8	1.02e+00	0	34	0	1525678080	58	20030
2026-01-06 01:02:25.25	339.09	3.72	-43.4	-57.4	3.6	1.51e+00	0	34	104	1525678080	58	29964
2026-01-06 01:02:29.28	339.19	3.45	-43.4	-58.4	3.6	1.51e+00	0	34	104	1525678080	58	33760
2026-01-06 01:02:33.32	339.30	3.18	-43.5	-58.7	3.6	1.51e+00	0	34	104	1525678080	58	34734
2026-01-06 01:02:37.36	339.40	2.92	-46.9	-62.2	3.6	1.51e+00	0	34	104	1525678080	60	46781
2026-01-06 01:02:41.40	339.50	2.66	-48.6	-63.8	3.6	1.51e+00	0	34	104	1525678080	60	55870
2026-01-06 01:02:45.44	339.60	2.40	-48.4	-63.9	3.5	1.51e+00	0	34	104	1525678080	60	56461
2026-01-06 01:02:49.48	339.70	2.15	-48.6	-63.7	3.6	1.51e+00	0	34	104	1525678080	60	55640
2026-01-06 01:02:53.52	339.79	1.89	-48.6	-63.8	3.6	1.51e+00	0	34	104	1525678080	60	55776
2026-01-06 01:02:57.55	339.89	1.64	-48.6	-63.8	3.6	1.51e+00	0	34	104	1525678080	60	55750
2026-01-06 01:03:01.59	339.98	1.39	-48.6	-63.7	3.6	1.51e+00	0	34	104	1525678080	60	55488
2026-01-06 01:03:05.63	340.08	1.14	-48.6	-63.7	3.6	1.51e+00	0	34	104	1525678080	60	55641
2026-01-06 01:03:09.67	340.17	0.90	-48.6	-63.7	3.6	1.51e+00	0	34	104	1525678080	60	55538
2026-01-06 01:03:13.71	340.26	0.66	-48.6	-63.7	3.6	1.51e+00	0	34	104	1525678080	60	55482
2026-01-06 01:03:17.74	340.35	0.41	-48.6	-63.8	3.6	1.51e+00	0	34	104	1525678080	60	55702
2026-01-06 01:03:21.78	340.44	0.18	-48.6	-63.7	3.6	1.51e+00	0	34	104	1525678080	60	55506
2026-01-06 01:03:25.82	340.52	-0.06	-48.6	-63.7	3.6	1.51e+00	0	34	104	1525678080	60	55503

#Closed at: 2026-01-06 01:03:27
#Recorded file [1525 MB]: D:/lorett/data/35029_260106_124757.dat