passes_logs/2026/01/06/R4.6S_Anadyr/R4.6S_Anadyr__20260106_211100_NOAA_20_JPSS-1_rec.log

#Pass ID: 20260106_211100_NOAA 20 (JPSS-1)
#Satellite: NOAA 20 (JPSS-1)
#Configuration: NOAA 20
#almurnet v.1.7.20251203
#Start time: 2026-01-06 21:11:03

#Version: 2.2.20231116
#Station: R4.6S_Anadyr
#Location: 177.4865 lon 64.73178 lat
#TLE: 1 43013U 17073A   26005.46207808  .00000128  00000+0  81791-4 0  9997
#TLE: 2 43013  98.7627 306.5027 0001826  53.0458 307.0885 14.19533487421381

#Time	Az	El	Level	Level2	SNR	BER	BlckErr	Temp	State	Recorded	gain1	gain2
2026-01-06 21:11:03.59	84.93	0.14	-48.6	-59.2	3.5	8.44e-01	0	31	0	0	60	33121
2026-01-06 21:11:07.63	84.67	0.36	-48.8	-64.0	3.6	1.51e+00	0	32	104	0	60	57116
2026-01-06 21:11:11.66	84.40	0.57	-48.7	-64.1	3.6	1.51e+00	0	32	104	0	60	58076
2026-01-06 21:11:15.70	84.13	0.78	-48.8	-64.1	3.6	1.51e+00	0	32	104	0	60	57703
2026-01-06 21:11:19.74	83.86	0.99	-47.9	-63.3	3.6	1.51e+00	0	32	104	0	60	53072
2026-01-06 21:11:23.79	83.58	1.21	-47.2	-62.6	3.6	1.51e+00	0	32	104	0	60	48605
2026-01-06 21:11:27.83	83.29	1.42	-47.2	-62.5	3.6	1.51e+00	0	33	104	0	60	48376
2026-01-06 21:11:31.86	83.01	1.64	-47.2	-62.5	3.6	1.51e+00	0	33	104	0	60	48048
2026-01-06 21:11:35.90	82.72	1.86	-47.2	-62.5	3.6	1.51e+00	0	33	104	0	60	48106
2026-01-06 21:11:39.94	82.42	2.07	-47.2	-62.4	3.6	1.51e+00	0	33	104	0	60	47922
2026-01-06 21:11:43.98	82.12	2.29	-47.2	-62.1	3.6	1.51e+00	0	33	104	0	60	46242
2026-01-06 21:11:48.02	81.81	2.51	-47.2	-62.5	3.6	1.51e+00	0	33	104	0	60	47931
2026-01-06 21:11:52.06	81.50	2.73	-47.2	-62.5	3.6	1.51e+00	0	33	104	0	60	48075
2026-01-06 21:11:56.10	81.18	2.96	-47.1	-62.0	3.6	1.51e+00	0	33	104	0	60	45364
2026-01-06 21:12:00.14	80.86	3.18	-46.3	-53.1	7.5	1.38e-01	0	33	0	1048576	60	16359
2026-01-06 21:12:04.17	80.54	3.40	-45.5	-50.6	11.3	3.14e-01	0	33	104	5242880	60	12296
2026-01-06 21:12:08.21	80.21	3.63	-41.7	-43.4	18.2	0.00e+00	0	33	0	9437184	56	6754
2026-01-06 21:12:12.25	79.87	3.85	-41.6	-43.3	18.5	0.00e+00	0	33	0	16777216	56	6622
2026-01-06 21:12:16.29	79.53	4.08	-41.6	-43.3	18.5	0.00e+00	0	33	0	24117248	56	6621
2026-01-06 21:12:20.33	79.18	4.31	-41.6	-43.3	18.4	0.00e+00	0	33	0	32505856	56	6658
2026-01-06 21:12:24.36	78.83	4.53	-41.5	-43.2	18.6	0.00e+00	0	33	0	39845888	56	6544
2026-01-06 21:12:28.40	78.47	4.76	-41.5	-43.1	18.8	0.00e+00	0	33	0	47185920	56	6488
2026-01-06 21:12:32.44	78.11	4.99	-41.5	-43.1	18.8	0.00e+00	0	33	0	54525952	56	6531
2026-01-06 21:12:36.48	77.74	5.22	-41.3	-42.9	19.1	0.00e+00	0	33	0	62914560	56	6352
2026-01-06 21:12:40.52	77.36	5.46	-41.3	-42.9	19.1	0.00e+00	0	33	0	70254592	56	6339
2026-01-06 21:12:44.56	76.98	5.69	-41.4	-42.9	19.1	0.00e+00	0	33	0	77594624	56	6358
2026-01-06 21:12:48.59	76.59	5.92	-41.5	-43.1	19.0	0.00e+00	0	33	0	84934656	56	6474
2026-01-06 21:12:52.63	76.19	6.16	-41.4	-43.0	19.1	0.00e+00	0	33	0	92274688	56	6398
2026-01-06 21:12:56.67	75.79	6.39	-41.5	-43.0	19.1	0.00e+00	0	33	0	100663296	56	6431
2026-01-06 21:13:00.71	75.38	6.63	-41.5	-43.1	19.1	0.00e+00	0	33	0	108003328	56	6485
2026-01-06 21:13:04.74	74.97	6.87	-41.3	-42.8	19.3	0.00e+00	0	33	0	115343360	56	6307
2026-01-06 21:13:08.78	74.55	7.10	-41.4	-42.9	19.3	0.00e+00	0	33	0	122683392	56	6334
2026-01-06 21:13:12.81	74.12	7.34	-41.2	-42.7	19.5	0.00e+00	0	33	0	131072000	56	6174
2026-01-06 21:13:16.85	73.68	7.58	-41.3	-42.8	19.4	0.00e+00	0	33	0	138412032	56	6275
2026-01-06 21:13:20.89	73.23	7.82	-41.1	-42.5	19.6	0.00e+00	0	33	0	145752064	56	6100
2026-01-06 21:13:24.92	72.78	8.06	-41.0	-42.4	19.9	0.00e+00	0	33	0	153092096	56	6016
2026-01-06 21:13:28.95	72.32	8.30	-40.9	-42.2	20.0	0.00e+00	0	33	0	160432128	56	5895
2026-01-06 21:13:32.99	71.86	8.54	-40.3	-41.5	20.6	0.00e+00	0	33	0	168820736	54	6095
2026-01-06 21:13:37.03	71.38	8.78	-40.3	-41.6	20.6	0.00e+00	0	33	0	176160768	54	6110
2026-01-06 21:13:41.06	70.90	9.02	-40.0	-41.3	20.9	0.00e+00	0	33	0	183500800	54	5897
2026-01-06 21:13:45.10	70.41	9.27	-40.0	-41.2	21.0	0.00e+00	0	33	0	190840832	54	5834
2026-01-06 21:13:49.14	69.90	9.51	-40.0	-41.2	21.0	0.00e+00	0	33	0	198180864	54	5888
2026-01-06 21:13:53.17	69.40	9.75	-39.8	-40.9	21.3	0.00e+00	0	33	0	206569472	52	6380
2026-01-06 21:13:57.21	68.88	9.99	-39.8	-40.9	21.3	0.00e+00	0	33	0	213909504	52	6383
2026-01-06 21:14:01.25	68.35	10.24	-40.0	-41.1	21.1	0.00e+00	0	33	0	221249536	52	6534
2026-01-06 21:14:05.29	67.82	10.48	-40.0	-41.2	21.1	0.00e+00	0	33	0	228589568	52	6590
2026-01-06 21:14:09.33	67.27	10.72	-40.0	-41.2	21.1	0.00e+00	0	33	0	236978176	52	6564
2026-01-06 21:14:13.37	66.72	10.97	-40.0	-41.2	21.1	0.00e+00	0	33	0	244318208	52	6555
2026-01-06 21:14:17.40	66.15	11.21	-39.9	-41.0	21.3	0.00e+00	0	33	0	251658240	52	6452
2026-01-06 21:14:21.44	65.58	11.45	-39.8	-40.9	21.4	0.00e+00	0	33	0	258998272	52	6363
2026-01-06 21:14:25.48	65.00	11.69	-39.8	-41.0	21.3	0.00e+00	0	33	0	266338304	52	6415
2026-01-06 21:14:29.52	64.41	11.93	-40.0	-41.2	21.2	0.00e+00	0	33	0	274726912	52	6571
2026-01-06 21:14:33.56	63.80	12.17	-40.1	-41.3	21.1	0.00e+00	0	33	0	282066944	52	6659
2026-01-06 21:14:37.60	63.19	12.41	-40.0	-41.2	21.2	0.00e+00	0	33	0	289406976	52	6594
2026-01-06 21:14:41.64	62.57	12.65	-40.0	-41.1	21.3	0.00e+00	0	33	0	296747008	52	6525
2026-01-06 21:14:45.67	61.94	12.89	-39.7	-40.8	21.6	0.00e+00	0	33	0	305135616	52	6273
2026-01-06 21:14:49.71	61.29	13.13	-39.8	-40.9	21.3	0.00e+00	0	33	0	312475648	52	6388
2026-01-06 21:14:53.74	60.64	13.36	-39.5	-40.6	21.8	0.00e+00	0	33	0	319815680	52	6138
2026-01-06 21:14:57.78	59.98	13.59	-39.3	-40.4	22.0	0.00e+00	0	33	0	327155712	52	5971
2026-01-06 21:15:01.81	59.30	13.83	-39.0	-40.0	22.3	0.00e+00	0	33	0	334495744	52	5735
2026-01-06 21:15:05.85	58.62	14.06	-38.9	-40.0	22.3	0.00e+00	0	33	0	342884352	52	5703
2026-01-06 21:15:09.89	57.92	14.28	-38.7	-39.7	22.6	0.00e+00	0	33	0	350224384	50	6230
2026-01-06 21:15:13.93	57.21	14.51	-38.4	-39.3	22.9	0.00e+00	0	33	0	357564416	50	5952
2026-01-06 21:15:17.96	56.49	14.73	-38.2	-39.1	23.2	0.00e+00	0	33	0	364904448	50	5796
2026-01-06 21:15:22.00	55.76	14.95	-38.1	-39.0	23.2	0.00e+00	0	33	0	373293056	50	5748
2026-01-06 21:15:26.04	55.02	15.17	-37.6	-38.5	23.7	0.00e+00	0	33	0	380633088	48	6062
2026-01-06 21:15:30.08	54.27	15.39	-37.3	-38.1	24.0	0.00e+00	0	33	0	387973120	48	5821
2026-01-06 21:15:34.12	53.51	15.60	-37.2	-38.1	24.1	0.00e+00	0	33	0	395313152	48	5771
2026-01-06 21:15:38.15	52.74	15.81	-37.2	-38.0	24.0	0.00e+00	0	34	0	402653184	48	5736
2026-01-06 21:15:42.19	51.96	16.01	-37.3	-38.2	23.9	0.00e+00	0	33	0	411041792	48	5869
2026-01-06 21:15:46.22	51.16	16.21	-37.5	-38.4	23.8	0.00e+00	0	34	0	418381824	48	5983
2026-01-06 21:15:50.26	50.36	16.41	-37.7	-38.6	23.5	0.00e+00	0	33	0	425721856	48	6161
2026-01-06 21:15:54.30	49.54	16.60	-37.8	-38.7	23.5	0.00e+00	0	34	0	433061888	48	6220
2026-01-06 21:15:58.33	48.72	16.79	-37.6	-38.5	23.7	0.00e+00	0	33	0	441450496	48	6051
2026-01-06 21:16:02.36	47.88	16.97	-37.2	-38.1	24.1	0.00e+00	0	34	0	448790528	48	5789
2026-01-06 21:16:06.41	47.03	17.15	-36.8	-37.7	24.5	0.00e+00	0	33	0	456130560	48	5508
2026-01-06 21:16:10.44	46.18	17.32	-37.0	-37.8	24.4	0.00e+00	0	33	0	463470592	46	6270
2026-01-06 21:16:14.48	45.31	17.49	-36.9	-37.7	24.4	0.00e+00	0	33	0	470810624	46	6212
2026-01-06 21:16:18.52	44.43	17.65	-36.9	-37.8	24.4	0.00e+00	0	33	0	479199232	46	6264
2026-01-06 21:16:22.55	43.55	17.81	-36.8	-37.6	24.5	0.00e+00	0	33	0	486539264	46	6163
2026-01-06 21:16:26.59	42.65	17.96	-36.6	-37.4	24.8	0.00e+00	0	33	0	493879296	46	5976
2026-01-06 21:16:30.63	41.75	18.10	-36.8	-37.7	24.5	0.00e+00	0	33	0	501219328	46	6176
2026-01-06 21:16:34.67	40.84	18.24	-37.2	-38.0	24.2	0.00e+00	0	34	0	509607936	46	6441
2026-01-06 21:16:38.70	39.92	18.37	-37.1	-38.0	24.3	0.00e+00	0	34	0	516947968	46	6401
2026-01-06 21:16:42.75	38.99	18.49	-37.2	-38.0	24.2	0.00e+00	0	33	0	524288000	46	6443
2026-01-06 21:16:46.79	38.06	18.60	-37.5	-38.4	23.9	0.00e+00	0	34	0	531628032	46	6721
2026-01-06 21:16:50.83	37.11	18.71	-37.7	-38.6	23.6	0.00e+00	0	34	0	538968064	48	6156
2026-01-06 21:16:54.87	36.17	18.81	-37.9	-38.8	23.5	0.00e+00	0	33	0	547356672	48	6286
2026-01-06 21:16:58.91	35.21	18.91	-38.0	-38.9	23.5	0.00e+00	0	33	0	554696704	48	6364
2026-01-06 21:17:02.95	34.25	18.99	-37.9	-38.8	23.5	0.00e+00	0	33	0	562036736	48	6299
2026-01-06 21:17:06.99	33.29	19.07	-38.4	-39.4	23.0	0.00e+00	0	34	0	569376768	48	6701
2026-01-06 21:17:11.03	32.32	19.13	-38.6	-39.6	22.9	0.00e+00	0	34	0	577765376	48	6872
2026-01-06 21:17:15.07	31.34	19.19	-38.5	-39.4	23.0	0.00e+00	0	34	0	585105408	50	6017
2026-01-06 21:17:19.12	30.36	19.24	-38.6	-39.5	22.9	0.00e+00	0	33	0	592445440	50	6085
2026-01-06 21:17:23.15	29.38	19.29	-38.5	-39.5	22.9	0.00e+00	0	33	0	599785472	50	6064
2026-01-06 21:17:27.19	28.40	19.32	-38.7	-39.7	22.9	0.00e+00	0	33	0	607125504	50	6224
2026-01-06 21:17:31.23	27.42	19.35	-38.4	-39.3	23.0	0.00e+00	0	33	0	615514112	50	5961
2026-01-06 21:17:35.27	26.43	19.36	-38.3	-39.3	23.2	0.00e+00	0	33	0	622854144	50	5907
2026-01-06 21:17:39.31	25.44	19.37	-38.6	-39.6	22.9	0.00e+00	0	33	0	630194176	50	6111
2026-01-06 21:17:43.35	24.46	19.37	-37.9	-38.8	23.5	0.00e+00	0	34	0	637534208	50	5567
2026-01-06 21:17:47.38	23.47	19.36	-37.7	-38.6	23.7	0.00e+00	0	34	0	645922816	48	6108
2026-01-06 21:17:51.42	22.49	19.34	-37.7	-38.5	23.8	0.00e+00	0	33	0	653262848	48	6094
2026-01-06 21:17:55.46	21.50	19.31	-37.3	-38.1	24.1	0.00e+00	0	34	0	660602880	48	5819
2026-01-06 21:17:59.50	20.52	19.27	-37.2	-38.1	24.2	0.00e+00	0	34	0	667942912	48	5773
2026-01-06 21:18:03.53	19.55	19.23	-37.1	-37.9	24.3	0.00e+00	0	33	0	675282944	48	5683
2026-01-06 21:18:07.57	18.57	19.17	-36.9	-37.7	24.4	0.00e+00	0	34	0	683671552	48	5543
2026-01-06 21:18:11.61	17.60	19.11	-36.5	-37.3	24.8	0.00e+00	0	33	0	691011584	46	5954
2026-01-06 21:18:15.65	16.63	19.04	-36.5	-37.3	24.8	0.00e+00	0	34	0	698351616	46	5962
2026-01-06 21:18:19.69	15.67	18.96	-36.6	-37.5	24.7	0.00e+00	0	34	0	705691648	46	6041
2026-01-06 21:18:23.73	14.71	18.87	-36.9	-37.7	24.6	0.00e+00	0	34	0	714080256	46	6211
2026-01-06 21:18:27.77	13.76	18.77	-36.9	-37.7	24.4	0.00e+00	0	34	0	721420288	46	6208
2026-01-06 21:18:31.81	12.82	18.67	-37.1	-37.9	24.4	0.00e+00	0	34	0	728760320	46	6341
2026-01-06 21:18:35.85	11.88	18.56	-37.1	-38.0	24.3	0.00e+00	0	34	0	736100352	46	6408
2026-01-06 21:18:39.89	10.95	18.44	-37.8	-38.7	23.7	0.00e+00	0	34	0	743440384	48	6195
2026-01-06 21:18:43.93	10.02	18.32	-37.7	-38.6	23.8	0.00e+00	0	34	0	751828992	48	6113
2026-01-06 21:18:47.97	9.11	18.18	-37.9	-38.8	23.5	0.00e+00	0	34	0	759169024	48	6315
2026-01-06 21:18:52.01	8.20	18.05	-37.9	-38.8	23.6	0.00e+00	0	34	0	766509056	48	6300
2026-01-06 21:18:56.05	7.30	17.90	-37.7	-38.6	23.8	0.00e+00	0	33	0	773849088	48	6147
2026-01-06 21:19:00.09	6.41	17.75	-37.8	-38.7	23.7	0.00e+00	0	34	0	782237696	48	6182
2026-01-06 21:19:04.13	5.53	17.59	-37.7	-38.6	23.7	0.00e+00	0	34	0	789577728	48	6124
2026-01-06 21:19:08.16	4.66	17.43	-38.0	-38.9	23.4	0.00e+00	0	34	0	796917760	48	6345
2026-01-06 21:19:12.20	3.80	17.26	-38.0	-38.9	23.4	0.00e+00	0	34	0	804257792	48	6370
2026-01-06 21:19:16.24	2.95	17.08	-38.3	-39.2	23.1	0.00e+00	0	33	0	811597824	48	6560
2026-01-06 21:19:20.28	2.11	16.90	-38.6	-39.5	23.0	0.00e+00	0	33	0	819986432	48	6844
2026-01-06 21:19:24.32	1.28	16.72	-38.3	-39.2	23.2	0.00e+00	0	34	0	827326464	48	6612
2026-01-06 21:19:28.36	0.45	16.53	-38.5	-39.5	22.9	0.00e+00	0	34	0	834666496	48	6781
2026-01-06 21:19:32.40	359.64	16.33	-38.8	-39.8	22.9	0.00e+00	0	34	0	842006528	50	6255
2026-01-06 21:19:36.44	358.84	16.13	-38.7	-39.7	22.8	0.00e+00	0	33	0	850395136	50	6176
2026-01-06 21:19:40.48	358.06	15.93	-38.6	-39.5	22.9	0.00e+00	0	34	0	857735168	50	6082
2026-01-06 21:19:44.52	357.28	15.73	-38.7	-39.7	22.7	0.00e+00	0	34	0	865075200	50	6218
2026-01-06 21:19:48.56	356.51	15.52	-38.7	-39.7	22.7	0.00e+00	0	34	0	872415232	50	6232
2026-01-06 21:19:52.60	355.76	15.30	-38.6	-39.6	22.8	0.00e+00	0	34	0	879755264	50	6120
2026-01-06 21:19:56.64	355.01	15.09	-38.5	-39.5	22.9	0.00e+00	0	34	0	888143872	50	6038
2026-01-06 21:20:00.68	354.28	14.87	-39.1	-40.1	22.3	0.00e+00	0	34	0	895483904	50	6529
2026-01-06 21:20:04.72	353.55	14.65	-39.2	-40.3	22.1	0.00e+00	0	34	0	902823936	50	6632
2026-01-06 21:20:08.76	352.84	14.42	-39.5	-40.6	21.9	0.00e+00	0	34	0	910163968	50	6913
2026-01-06 21:20:12.79	352.14	14.20	-39.5	-40.5	22.0	0.00e+00	0	34	0	918552576	50	6829
2026-01-06 21:20:16.83	351.45	13.97	-39.4	-40.5	22.1	0.00e+00	0	34	0	925892608	50	6772
2026-01-06 21:20:20.87	350.77	13.74	-39.5	-40.6	21.8	0.00e+00	0	34	0	933232640	50	6905
2026-01-06 21:20:24.91	350.10	13.51	-39.4	-40.4	22.0	0.00e+00	0	34	0	940572672	50	6752
2026-01-06 21:20:28.95	349.44	13.27	-38.8	-39.8	22.6	0.00e+00	0	34	0	947912704	50	6259
2026-01-06 21:20:32.98	348.80	13.04	-38.7	-39.7	22.7	0.00e+00	0	34	0	956301312	50	6187
2026-01-06 21:20:37.02	348.16	12.80	-38.6	-39.6	22.7	0.00e+00	0	34	0	963641344	50	6135
2026-01-06 21:20:41.06	347.53	12.57	-38.7	-39.7	22.7	0.00e+00	0	34	0	970981376	50	6192
2026-01-06 21:20:45.10	346.92	12.33	-38.2	-39.2	23.0	0.00e+00	0	34	0	978321408	50	5851
2026-01-06 21:20:49.14	346.31	12.09	-38.0	-39.0	23.3	0.00e+00	0	34	0	986710016	50	5701
2026-01-06 21:20:53.17	345.72	11.85	-37.9	-38.8	23.4	0.00e+00	0	34	0	994050048	50	5595
2026-01-06 21:20:57.21	345.13	11.61	-37.7	-38.7	23.5	0.00e+00	0	34	0	1001390080	48	6177
2026-01-06 21:21:01.24	344.55	11.37	-37.5	-38.4	23.6	0.00e+00	0	34	0	1008730112	48	6031
2026-01-06 21:21:05.28	343.99	11.12	-37.6	-38.5	23.4	0.00e+00	0	34	0	1016070144	48	6054
2026-01-06 21:21:09.32	343.43	10.88	-37.6	-38.5	23.5	0.00e+00	0	34	0	1024458752	48	6087
2026-01-06 21:21:13.37	342.88	10.64	-37.8	-38.8	23.3	0.00e+00	0	34	0	1031798784	48	6249
2026-01-06 21:21:17.41	342.34	10.40	-38.0	-39.0	23.1	0.00e+00	0	34	0	1039138816	48	6411
2026-01-06 21:21:21.45	341.81	10.15	-38.4	-39.4	22.7	0.00e+00	0	34	0	1046478848	48	6732
2026-01-06 21:21:25.49	341.29	9.91	-38.3	-39.3	22.9	0.00e+00	0	34	0	1054867456	48	6651
2026-01-06 21:21:29.53	340.78	9.67	-38.2	-39.1	22.9	0.00e+00	0	34	0	1062207488	48	6538
2026-01-06 21:21:33.57	340.27	9.43	-38.3	-39.3	22.8	0.00e+00	0	34	0	1069547520	48	6660
2026-01-06 21:21:37.61	339.78	9.18	-38.3	-39.4	22.7	0.00e+00	0	34	0	1076887552	48	6708
2026-01-06 21:21:41.65	339.29	8.94	-38.6	-39.6	22.5	0.00e+00	0	34	0	1084227584	48	6916
2026-01-06 21:21:45.68	338.81	8.70	-38.9	-39.9	22.3	0.00e+00	0	34	0	1092616192	50	6364
2026-01-06 21:21:49.72	338.34	8.46	-39.0	-40.1	22.0	0.00e+00	0	34	0	1099956224	50	6472
2026-01-06 21:21:53.76	337.88	8.22	-39.2	-40.3	21.8	0.00e+00	0	34	0	1107296256	50	6617
2026-01-06 21:21:57.80	337.43	7.98	-39.4	-40.6	21.5	0.00e+00	0	34	0	1114636288	50	6860
2026-01-06 21:22:01.84	336.98	7.74	-39.8	-41.0	21.2	0.00e+00	0	34	0	1123024896	52	6404
2026-01-06 21:22:05.88	336.54	7.50	-39.9	-41.1	21.0	0.00e+00	0	34	0	1130364928	52	6508
2026-01-06 21:22:09.92	336.11	7.26	-40.0	-41.2	20.9	0.00e+00	0	34	0	1137704960	52	6591
2026-01-06 21:22:13.95	335.68	7.03	-40.1	-41.3	20.7	0.00e+00	0	34	0	1145044992	52	6680
2026-01-06 21:22:17.99	335.27	6.79	-40.2	-41.5	20.5	0.00e+00	0	34	0	1152385024	52	6777
2026-01-06 21:22:22.03	334.85	6.55	-40.1	-41.4	20.4	0.00e+00	0	34	0	1160773632	52	6714
2026-01-06 21:22:26.07	334.45	6.32	-40.4	-41.7	20.0	0.00e+00	0	34	0	1168113664	52	7004
2026-01-06 21:22:30.11	334.05	6.08	-40.9	-42.4	18.9	0.00e+00	0	34	0	1175453696	54	6751
2026-01-06 21:22:34.15	333.66	5.85	-41.4	-43.2	18.2	0.00e+00	0	34	0	1182793728	54	7346
2026-01-06 21:22:38.18	333.28	5.62	-41.7	-43.6	17.6	0.00e+00	0	34	0	1191182336	54	7752
2026-01-06 21:22:42.22	332.90	5.39	-41.9	-43.8	17.5	0.00e+00	0	34	0	1198522368	56	7026
2026-01-06 21:22:46.26	332.53	5.15	-41.8	-43.7	17.6	0.00e+00	0	34	0	1205862400	56	6958
2026-01-06 21:22:50.30	332.16	4.92	-41.7	-43.5	17.9	0.00e+00	0	34	0	1213202432	56	6847
2026-01-06 21:22:54.33	331.80	4.70	-41.7	-43.5	17.9	0.00e+00	0	34	0	1220542464	56	6809
2026-01-06 21:22:58.37	331.45	4.47	-41.6	-43.3	18.3	0.00e+00	0	34	0	1228931072	56	6684
2026-01-06 21:23:02.41	331.10	4.24	-41.3	-42.9	18.7	0.00e+00	0	34	0	1236271104	56	6352
2026-01-06 21:23:06.45	330.76	4.01	-41.3	-43.0	18.6	0.00e+00	0	34	0	1243611136	56	6395
2026-01-06 21:23:10.49	330.42	3.79	-41.6	-43.4	17.9	0.00e+00	0	34	0	1250951168	56	6746
2026-01-06 21:23:14.53	330.09	3.56	-42.0	-44.0	17.0	0.00e+00	0	34	0	1259339776	56	7228
2026-01-06 21:23:18.57	329.76	3.34	-42.4	-44.6	16.4	0.00e+00	0	34	0	1266679808	56	7720
2026-01-06 21:23:22.61	329.44	3.11	-42.7	-45.2	15.4	0.00e+00	0	34	0	1274019840	56	8324
2026-01-06 21:23:26.65	329.12	2.89	-48.5	-63.7	3.6	1.51e+00	0	34	104	1277165568	60	55451
2026-01-06 21:23:30.69	328.81	2.67	-49.0	-64.2	3.6	1.51e+00	0	34	104	1277165568	60	58655
2026-01-06 21:23:34.73	328.51	2.45	-49.0	-64.2	3.6	1.51e+00	0	34	104	1277165568	60	58386
2026-01-06 21:23:38.77	328.20	2.23	-48.9	-64.1	3.6	1.51e+00	0	34	104	1277165568	60	57743
2026-01-06 21:23:42.81	327.91	2.01	-49.0	-64.1	3.6	1.51e+00	0	34	104	1277165568	60	58097
2026-01-06 21:23:46.85	327.61	1.80	-48.9	-64.1	3.6	1.51e+00	0	34	104	1277165568	60	57992
2026-01-06 21:23:50.89	327.33	1.58	-48.9	-64.1	3.6	1.51e+00	0	34	104	1277165568	60	57825
2026-01-06 21:23:54.93	327.04	1.36	-48.9	-64.1	3.6	1.51e+00	0	34	104	1277165568	60	57918
2026-01-06 21:23:58.97	326.76	1.15	-48.9	-64.1	3.6	1.51e+00	0	34	104	1277165568	60	57812
2026-01-06 21:24:03.00	326.49	0.94	-48.9	-64.1	3.6	1.51e+00	0	34	104	1277165568	60	57679
2026-01-06 21:24:07.04	326.22	0.72	-48.9	-64.1	3.6	1.51e+00	0	34	104	1277165568	60	58031
2026-01-06 21:24:11.08	325.95	0.51	-48.9	-64.1	3.6	1.51e+00	0	34	104	1277165568	60	57710
2026-01-06 21:24:15.12	325.69	0.30	-48.9	-64.1	3.6	1.51e+00	0	34	104	1277165568	60	57784
2026-01-06 21:24:19.16	325.43	0.09	-48.9	-64.1	3.6	1.51e+00	0	34	104	1277165568	60	57931

#Closed at: 2026-01-06 21:24:21
#Recorded file [1277 MB]: D:/lorett/data/35029_260107_091103.dat