passes_logs/2026/01/06/R4.6S_Anadyr/R4.6S_Anadyr__20260106_165352_FENGYUN_3D_rec.log

#Pass ID: 20260106_165352_FENGYUN 3D
#Satellite: FENGYUN 3D
#Configuration: FENGYUN 3D
#almurnet v.1.7.20251203
#Start time: 2026-01-06 16:53:55

#Version: 2.2.20231116
#Station: R4.6S_Anadyr
#Location: 177.4865 lon 64.73178 lat
#TLE: 1 43010U 17072A   26005.48915933 -.00000051  00000+0 -21983-5 0  9995
#TLE: 2 43010  98.9919 337.1582 0002001 124.6377 235.4988 14.19691925421909

#Time	Az	El	Level	Level2	SNR	BER	BlckErr	Temp	State	Recorded	gain1	gain2
2026-01-06 16:53:55.32	21.28	0.19	-48.5	-59.1	3.3	8.40e-01	0	32	0	0	60	32742
2026-01-06 16:53:59.36	21.29	0.44	-48.5	-60.6	3.6	8.45e-01	0	32	104	0	60	38912
2026-01-06 16:54:03.40	21.30	0.68	-48.2	-60.2	3.6	8.45e-01	0	33	104	0	60	37144
2026-01-06 16:54:07.44	21.30	0.93	-47.2	-59.2	3.6	8.45e-01	0	33	104	0	60	33083
2026-01-06 16:54:11.47	21.31	1.18	-47.1	-59.0	3.6	8.46e-01	0	33	104	0	60	32055
2026-01-06 16:54:15.51	21.32	1.43	-47.0	-58.6	3.6	8.45e-01	0	33	104	0	60	30666
2026-01-06 16:54:19.55	21.32	1.68	-47.1	-59.1	3.6	8.46e-01	0	33	104	0	60	32429
2026-01-06 16:54:23.59	21.33	1.94	-47.1	-59.0	3.6	8.46e-01	0	33	104	0	60	32236
2026-01-06 16:54:27.63	21.33	2.20	-46.9	-57.8	3.6	8.45e-01	0	33	104	0	60	28122
2026-01-06 16:54:31.67	21.34	2.46	-46.7	-55.7	3.7	8.34e-01	0	33	104	0	60	22141
2026-01-06 16:54:35.71	21.35	2.72	-46.6	-55.1	4.2	8.41e-01	0	33	104	0	60	20662
2026-01-06 16:54:39.75	21.35	2.99	-43.7	-46.3	11.6	2.54e-03	0	33	0	15728640	60	7487
2026-01-06 16:54:43.79	21.36	3.26	-40.9	-42.5	15.8	0.00e+00	0	33	0	38797312	56	6035
2026-01-06 16:54:47.83	21.36	3.53	-42.1	-44.0	14.0	3.40e-06	0	33	0	60817408	56	7236
2026-01-06 16:54:51.87	21.36	3.80	-42.8	-44.9	13.3	3.40e-06	0	33	0	83886080	56	8023
2026-01-06 16:54:55.90	21.37	4.08	-35.5	-36.3	6.2	8.18e-01	0	33	104	88080384	46	5306
2026-01-06 16:54:59.94	21.37	4.36	-35.0	-35.8	22.4	0.00e+00	0	33	0	105906176	44	5616
2026-01-06 16:55:03.98	21.38	4.64	-34.7	-35.4	22.8	0.00e+00	0	33	0	128974848	42	6014
2026-01-06 16:55:08.02	21.38	4.92	-34.7	-35.4	23.0	0.00e+00	0	33	0	152043520	42	6010
2026-01-06 16:55:12.06	21.38	5.21	-34.7	-35.5	22.9	0.00e+00	0	33	0	174063616	42	6052
2026-01-06 16:55:16.10	21.39	5.50	-34.5	-35.2	23.2	0.00e+00	0	33	0	197132288	42	5876
2026-01-06 16:55:20.13	21.39	5.80	-34.5	-35.2	23.2	0.00e+00	0	33	0	219152384	42	5870
2026-01-06 16:55:24.17	21.39	6.09	-34.3	-35.0	23.4	0.00e+00	0	33	0	242221056	42	5732
2026-01-06 16:55:28.20	21.39	6.39	-34.0	-34.7	23.7	0.00e+00	0	33	0	265289728	42	5556
2026-01-06 16:55:32.23	21.39	6.70	-34.0	-34.7	23.8	0.00e+00	0	33	0	287309824	42	5555
2026-01-06 16:55:36.27	21.39	7.01	-33.8	-34.5	23.9	0.00e+00	0	33	0	310378496	42	5439
2026-01-06 16:55:40.30	21.39	7.32	-34.0	-34.7	23.8	0.00e+00	0	34	0	333447168	42	5531
2026-01-06 16:55:44.34	21.39	7.64	-33.8	-34.5	24.0	0.00e+00	0	33	0	356515840	42	5438
2026-01-06 16:55:48.38	21.39	7.96	-33.6	-34.3	24.3	0.00e+00	0	33	0	378535936	40	5907
2026-01-06 16:55:52.42	21.39	8.28	-33.6	-34.2	24.3	0.00e+00	0	33	0	401604608	40	5895
2026-01-06 16:55:56.45	21.39	8.61	-33.5	-34.1	24.5	0.00e+00	0	34	0	423624704	40	5824
2026-01-06 16:56:00.49	21.39	8.94	-33.4	-34.1	24.5	0.00e+00	0	33	0	446693376	40	5777
2026-01-06 16:56:04.53	21.39	9.28	-33.1	-33.8	24.7	0.00e+00	0	33	0	469762048	40	5591
2026-01-06 16:56:08.56	21.39	9.62	-33.2	-33.9	24.7	0.00e+00	0	33	0	491782144	40	5670
2026-01-06 16:56:12.60	21.39	9.97	-33.0	-33.7	24.9	0.00e+00	0	34	0	514850816	40	5550
2026-01-06 16:56:16.63	21.38	10.32	-32.9	-33.6	25.1	0.00e+00	0	34	0	537919488	40	5472
2026-01-06 16:56:20.66	21.38	10.67	-33.0	-33.6	24.9	0.00e+00	0	34	0	559939584	40	5492
2026-01-06 16:56:24.70	21.38	11.03	-33.1	-33.8	24.8	0.00e+00	0	34	0	583008256	40	5572
2026-01-06 16:56:28.74	21.37	11.40	-32.8	-33.5	25.1	0.00e+00	0	34	0	606076928	38	6054
2026-01-06 16:56:32.78	21.37	11.78	-32.8	-33.5	25.1	0.00e+00	0	34	0	628097024	38	6090
2026-01-06 16:56:36.81	21.36	12.15	-32.8	-33.5	25.1	0.00e+00	0	34	0	651165696	38	6048
2026-01-06 16:56:40.85	21.35	12.54	-32.6	-33.3	25.4	0.00e+00	0	34	0	674234368	38	5903
2026-01-06 16:56:44.89	21.35	12.93	-32.5	-33.2	25.4	0.00e+00	0	33	0	696254464	38	5883
2026-01-06 16:56:48.92	21.34	13.33	-32.3	-32.9	25.6	0.00e+00	0	34	0	719323136	38	5690
2026-01-06 16:56:52.97	21.33	13.73	-32.1	-32.7	25.8	0.00e+00	0	34	0	742391808	38	5561
2026-01-06 16:56:57.00	21.32	14.14	-31.7	-32.3	26.2	0.00e+00	0	34	0	764411904	38	5312
2026-01-06 16:57:01.04	21.31	14.56	-31.7	-32.4	26.2	0.00e+00	0	34	0	787480576	36	5992
2026-01-06 16:57:05.07	21.30	14.98	-31.3	-32.0	26.5	0.00e+00	0	34	0	809500672	36	5696
2026-01-06 16:57:09.12	21.29	15.42	-31.2	-31.8	26.6	0.00e+00	0	34	0	832569344	36	5630
2026-01-06 16:57:13.16	21.28	15.86	-31.1	-31.7	26.7	0.00e+00	0	34	0	855638016	36	5554
2026-01-06 16:57:17.19	21.26	16.31	-31.1	-31.7	26.7	0.00e+00	0	34	0	878706688	36	5542
2026-01-06 16:57:21.23	21.25	16.76	-31.0	-31.6	26.8	0.00e+00	0	34	0	900726784	36	5474
2026-01-06 16:57:25.27	21.23	17.23	-31.0	-31.6	26.9	0.00e+00	0	34	0	923795456	36	5456
2026-01-06 16:57:29.30	21.22	17.70	-31.0	-31.6	26.8	0.00e+00	0	33	0	946864128	36	5478
2026-01-06 16:57:33.34	21.20	18.19	-30.8	-31.4	27.1	0.00e+00	0	33	0	968884224	34	6003
2026-01-06 16:57:37.38	21.18	18.68	-30.7	-31.3	27.1	0.00e+00	0	34	0	991952896	34	5930
2026-01-06 16:57:41.41	21.16	19.19	-30.4	-31.0	27.3	0.00e+00	0	34	0	1013972992	34	5756
2026-01-06 16:57:45.45	21.14	19.70	-30.3	-30.9	27.5	0.00e+00	0	34	0	1037041664	34	5679
2026-01-06 16:57:49.48	21.12	20.23	-30.3	-30.9	27.4	0.00e+00	0	34	0	1060110336	34	5679
2026-01-06 16:57:53.52	21.10	20.76	-30.2	-30.8	27.6	0.00e+00	0	34	0	1082130432	34	5599
2026-01-06 16:57:57.56	21.07	21.31	-30.2	-30.8	27.6	0.00e+00	0	34	0	1105199104	34	5612
2026-01-06 16:58:01.60	21.05	21.87	-30.0	-30.6	27.7	0.00e+00	0	34	0	1128267776	34	5480
2026-01-06 16:58:05.63	21.02	22.44	-30.1	-30.7	27.7	0.00e+00	0	34	0	1151336448	34	5561
2026-01-06 16:58:09.67	20.99	23.03	-30.1	-30.7	27.7	0.00e+00	0	34	0	1173356544	34	5512
2026-01-06 16:58:13.71	20.96	23.63	-29.9	-30.6	27.8	0.00e+00	0	34	0	1196425216	34	5471
2026-01-06 16:58:17.74	20.93	24.25	-29.8	-30.5	27.8	0.00e+00	0	34	0	1218445312	34	5390
2026-01-06 16:58:21.78	20.89	24.88	-29.7	-30.3	28.0	0.00e+00	0	34	0	1241513984	32	5933
2026-01-06 16:58:25.82	20.85	25.52	-29.5	-30.1	28.2	0.00e+00	0	34	0	1264582656	32	5827
2026-01-06 16:58:29.86	20.81	26.18	-29.6	-30.2	28.1	0.00e+00	0	34	0	1286602752	32	5886
2026-01-06 16:58:33.90	20.77	26.86	-29.3	-30.0	28.2	0.00e+00	0	34	0	1309671424	32	5719
2026-01-06 16:58:37.94	20.73	27.56	-29.4	-30.0	28.3	0.00e+00	0	34	0	1332740096	32	5735
2026-01-06 16:58:41.98	20.68	28.27	-29.4	-30.0	28.2	0.00e+00	0	34	0	1354760192	32	5735
2026-01-06 16:58:46.01	20.63	29.00	-29.3	-29.9	28.4	0.00e+00	0	34	0	1377828864	32	5640
2026-01-06 16:58:50.05	20.58	29.75	-29.3	-29.8	28.4	0.00e+00	0	34	0	1400897536	32	5628
2026-01-06 16:58:54.09	20.52	30.53	-29.4	-30.0	28.3	0.00e+00	0	34	0	1422917632	32	5748
2026-01-06 16:58:58.12	20.46	31.32	-29.4	-30.0	28.3	0.00e+00	0	34	0	1445986304	32	5733
2026-01-06 16:59:02.16	20.40	32.13	-28.8	-29.4	28.8	0.00e+00	0	34	0	1469054976	32	5333
2026-01-06 16:59:06.20	20.33	32.97	-28.7	-29.3	28.8	0.00e+00	0	34	0	1491075072	30	5936
2026-01-06 16:59:10.24	20.25	33.84	-29.0	-29.6	28.6	0.00e+00	0	34	0	1514143744	30	6156
2026-01-06 16:59:14.28	20.18	34.72	-28.6	-29.2	28.9	0.00e+00	0	34	0	1537212416	30	5889
2026-01-06 16:59:18.33	20.09	35.64	-29.0	-29.6	28.6	0.00e+00	0	34	0	1559232512	30	6132
2026-01-06 16:59:22.36	20.00	36.58	-28.8	-29.4	28.8	0.00e+00	0	34	0	1582301184	30	5977
2026-01-06 16:59:26.40	19.91	37.55	-28.3	-28.9	29.1	0.00e+00	0	34	0	1605369856	30	5670
2026-01-06 16:59:30.44	19.81	38.54	-29.0	-29.6	28.6	0.00e+00	0	34	0	1627389952	30	6166
2026-01-06 16:59:34.48	19.70	39.57	-28.8	-29.4	28.7	0.00e+00	0	34	0	1650458624	30	6033
2026-01-06 16:59:38.52	19.58	40.63	-29.0	-29.6	28.6	0.00e+00	0	34	0	1673527296	30	6151
2026-01-06 16:59:42.55	19.45	41.72	-29.1	-29.7	28.6	0.00e+00	0	34	0	1695547392	30	6203
2026-01-06 16:59:46.59	19.31	42.84	-29.2	-29.8	28.6	0.00e+00	0	34	0	1718616064	30	6278
2026-01-06 16:59:50.63	19.17	44.00	-29.7	-30.3	28.1	0.00e+00	0	34	0	1741684736	30	6691
2026-01-06 16:59:54.66	19.00	45.20	-29.3	-29.9	28.4	0.00e+00	0	34	0	1763704832	32	5671
2026-01-06 16:59:58.71	18.83	46.43	-29.9	-30.5	28.0	0.00e+00	0	34	0	1786773504	32	6077
2026-01-06 17:00:02.74	18.64	47.70	-28.9	-29.5	28.6	0.00e+00	0	34	0	1809842176	32	5425
2026-01-06 17:00:06.78	18.43	49.00	-29.3	-30.0	28.4	0.00e+00	0	34	0	1831862272	32	5721
2026-01-06 17:00:10.82	18.20	50.35	-29.5	-30.0	28.3	0.00e+00	0	34	0	1854930944	32	5748
2026-01-06 17:00:14.86	17.95	51.74	-30.2	-30.9	27.8	0.00e+00	0	34	0	1877999616	32	6319
2026-01-06 17:00:18.89	17.67	53.16	-30.6	-31.3	27.4	0.00e+00	0	34	0	1900019712	34	5899
2026-01-06 17:00:22.93	17.36	54.63	-31.0	-31.7	27.1	0.00e+00	0	34	0	1923088384	34	6203
2026-01-06 17:00:26.97	17.01	56.14	-30.0	-30.7	27.9	0.00e+00	0	34	0	1946157056	34	5504
2026-01-06 17:00:31.00	16.63	57.69	-30.0	-30.6	27.9	0.00e+00	0	34	0	1968177152	34	5464
2026-01-06 17:00:35.04	16.19	59.28	-29.1	-29.7	28.5	0.00e+00	0	34	0	1991245824	32	5555
2026-01-06 17:00:39.08	15.69	60.92	-29.3	-29.9	28.4	0.00e+00	0	34	0	2013265920	32	5633
2026-01-06 17:00:43.12	15.12	62.59	-29.3	-30.0	28.3	0.00e+00	0	34	0	2036334592	32	5699
2026-01-06 17:00:47.15	14.47	64.30	-28.8	-29.4	28.5	0.00e+00	0	34	0	2059403264	30	6023
2026-01-06 17:00:51.19	13.70	66.05	-28.5	-29.1	28.9	0.00e+00	0	34	0	2082471936	30	5808
2026-01-06 17:00:55.23	12.79	67.83	-28.5	-29.0	28.9	0.00e+00	0	34	0	2104492032	30	5757
2026-01-06 17:00:59.27	11.71	69.65	-28.1	-28.7	29.2	0.00e+00	0	34	0	2127560704	30	5543
2026-01-06 17:01:03.31	10.39	71.49	-27.7	-28.3	29.4	0.00e+00	0	34	0	2150629376	28	5952
2026-01-06 17:01:07.34	8.76	73.35	-27.3	-27.9	29.7	0.00e+00	0	34	0	2172649472	28	5694
2026-01-06 17:01:11.38	6.68	75.23	-27.4	-28.0	29.6	0.00e+00	0	34	0	2195718144	28	5713
2026-01-06 17:01:15.42	3.97	77.11	-27.2	-27.9	29.8	0.00e+00	0	34	0	2217738240	28	5646
2026-01-06 17:01:19.45	0.31	78.97	-26.7	-27.4	30.0	0.00e+00	0	34	0	2240806912	28	5338
2026-01-06 17:01:23.49	355.13	80.79	-26.6	-27.2	30.1	0.00e+00	0	34	0	2263875584	26	5877
2026-01-06 17:01:27.53	347.43	82.51	-26.3	-26.9	30.3	0.00e+00	0	34	0	2285895680	26	5692
2026-01-06 17:01:31.57	335.44	84.04	-26.6	-27.2	30.1	0.00e+00	0	34	0	2308964352	26	5844
2026-01-06 17:01:35.61	316.68	85.14	-27.0	-27.6	29.8	0.00e+00	0	34	0	2332033024	26	6136
2026-01-06 17:01:39.64	291.41	85.51	-26.8	-27.5	29.9	0.00e+00	0	34	0	2355101696	26	6042
2026-01-06 17:01:43.68	267.06	84.96	-27.1	-27.7	29.8	0.00e+00	0	34	0	2377121792	26	6177
2026-01-06 17:01:47.72	249.88	83.74	-26.9	-27.5	30.0	0.00e+00	0	34	0	2400190464	26	6075
2026-01-06 17:01:51.76	238.98	82.16	-26.2	-26.8	30.4	0.00e+00	0	34	0	2422210560	26	5607
2026-01-06 17:01:55.79	231.93	80.42	-26.4	-27.0	30.2	0.00e+00	0	34	0	2445279232	26	5758
2026-01-06 17:01:59.83	227.13	78.58	-26.5	-27.1	30.2	0.00e+00	0	34	0	2468347904	26	5821
2026-01-06 17:02:03.87	223.69	76.71	-26.9	-27.6	29.8	0.00e+00	0	34	0	2490368000	26	6113
2026-01-06 17:02:07.91	221.13	74.83	-27.6	-28.1	29.5	0.00e+00	0	34	0	2513436672	26	6521
2026-01-06 17:02:11.95	219.16	72.95	-27.9	-28.5	29.2	0.00e+00	0	34	0	2536505344	28	6088
2026-01-06 17:02:15.99	217.60	71.08	-28.2	-28.8	29.1	0.00e+00	0	34	0	2559574016	28	6251
2026-01-06 17:02:20.03	216.34	69.24	-28.4	-29.0	28.9	0.00e+00	0	34	0	2581594112	28	6447
2026-01-06 17:02:24.06	215.30	67.44	-28.5	-29.2	28.8	0.00e+00	0	34	0	2604662784	28	6548
2026-01-06 17:02:28.10	214.42	65.65	-28.4	-29.1	28.9	0.00e+00	0	34	0	2626682880	28	6523
2026-01-06 17:02:32.13	213.68	63.91	-28.2	-28.7	29.1	0.00e+00	0	34	0	2649751552	28	6214
2026-01-06 17:02:36.17	213.04	62.20	-28.2	-28.7	29.1	0.00e+00	0	34	0	2672820224	28	6204
2026-01-06 17:02:40.21	212.49	60.53	-28.8	-29.4	28.7	0.00e+00	0	34	0	2694840320	30	5983
2026-01-06 17:02:44.25	212.01	58.90	-29.1	-29.8	28.5	0.00e+00	0	34	0	2717908992	30	6252
2026-01-06 17:02:48.28	211.58	57.32	-29.6	-30.1	28.0	0.00e+00	0	34	0	2740977664	30	6516
2026-01-06 17:02:52.32	211.20	55.77	-30.2	-30.8	27.5	0.00e+00	0	34	0	2762997760	32	6253
2026-01-06 17:02:56.36	210.86	54.27	-30.3	-30.9	27.6	0.00e+00	0	34	0	2786066432	32	6366
2026-01-06 17:03:00.40	210.56	52.80	-29.9	-30.4	27.9	0.00e+00	0	34	0	2809135104	32	6026
2026-01-06 17:03:04.44	210.28	51.38	-29.3	-30.0	28.2	0.00e+00	0	34	0	2831155200	32	5743
2026-01-06 17:03:08.47	210.04	50.00	-29.3	-30.0	28.3	0.00e+00	0	34	0	2854223872	32	5723
2026-01-06 17:03:12.51	209.81	48.66	-29.0	-29.5	28.5	0.00e+00	0	34	0	2877292544	32	5435
2026-01-06 17:03:16.55	209.60	47.35	-28.7	-29.4	28.7	0.00e+00	0	34	0	2899312640	30	5971
2026-01-06 17:03:20.59	209.42	46.09	-28.8	-29.3	28.7	0.00e+00	0	34	0	2922381312	30	5938
2026-01-06 17:03:24.63	209.24	44.86	-28.9	-29.6	28.7	0.00e+00	0	34	0	2945449984	30	6107
2026-01-06 17:03:28.67	209.08	43.67	-29.0	-29.7	28.6	0.00e+00	0	34	0	2967470080	30	6188
2026-01-06 17:03:32.71	208.94	42.52	-28.9	-29.5	28.7	0.00e+00	0	34	0	2990538752	30	6103
2026-01-06 17:03:36.75	208.80	41.39	-29.2	-29.9	28.4	0.00e+00	0	34	0	3013607424	30	6336
2026-01-06 17:03:40.79	208.67	40.31	-28.5	-29.2	28.9	0.00e+00	0	34	0	3035627520	30	5839
2026-01-06 17:03:44.83	208.56	39.25	-28.2	-28.7	29.1	0.00e+00	0	34	0	3058696192	30	5560
2026-01-06 17:03:48.87	208.45	38.23	-28.1	-28.8	29.1	0.00e+00	0	34	0	3081764864	30	5607
2026-01-06 17:03:52.90	208.34	37.24	-27.9	-28.5	29.2	0.00e+00	0	34	0	3103784960	30	5385
2026-01-06 17:03:56.94	208.25	36.27	-28.3	-28.9	29.0	0.00e+00	0	34	0	3126853632	30	5645
2026-01-06 17:04:00.98	208.16	35.33	-28.8	-29.5	28.7	0.00e+00	0	34	0	3149922304	30	6065
2026-01-06 17:04:05.02	208.08	34.42	-28.7	-29.2	28.7	0.00e+00	0	34	0	3171942400	30	5891
2026-01-06 17:04:09.06	208.00	33.54	-28.7	-29.2	28.7	0.00e+00	0	34	0	3195011072	30	5853
2026-01-06 17:04:13.09	207.93	32.68	-29.0	-29.5	28.7	0.00e+00	0	34	0	3218079744	30	6060
2026-01-06 17:04:17.13	207.86	31.84	-29.1	-29.7	28.5	0.00e+00	0	34	0	3240099840	30	6175
2026-01-06 17:04:21.17	207.79	31.03	-28.9	-29.5	28.6	0.00e+00	0	34	0	3263168512	30	6045
2026-01-06 17:04:25.21	207.73	30.24	-28.8	-29.5	28.6	0.00e+00	0	34	0	3286237184	30	6059
2026-01-06 17:04:29.25	207.67	29.47	-28.8	-29.5	28.6	0.00e+00	0	34	0	3308257280	30	6084
2026-01-06 17:04:33.29	207.62	28.72	-29.1	-29.7	28.4	0.00e+00	0	34	0	3331325952	30	6243
2026-01-06 17:04:37.33	207.57	27.99	-29.2	-29.7	28.4	0.00e+00	0	34	0	3354394624	30	6236
2026-01-06 17:04:41.36	207.52	27.28	-29.0	-29.7	28.5	0.00e+00	0	34	0	3376414720	30	6189
2026-01-06 17:04:45.41	207.47	26.58	-28.8	-29.5	28.6	0.00e+00	0	34	0	3399483392	30	6066
2026-01-06 17:04:49.44	207.43	25.91	-29.1	-29.7	28.5	0.00e+00	0	34	0	3422552064	30	6242
2026-01-06 17:04:53.48	207.39	25.25	-29.3	-30.0	28.2	0.00e+00	0	34	0	3444572160	30	6440
2026-01-06 17:04:57.52	207.35	24.60	-29.6	-30.3	28.1	0.00e+00	0	34	0	3467640832	30	6649
2026-01-06 17:05:01.56	207.32	23.97	-29.7	-30.3	27.8	0.00e+00	0	34	0	3490709504	32	5940
2026-01-06 17:05:05.59	207.28	23.36	-29.6	-30.2	27.9	0.00e+00	0	34	0	3512729600	32	5848
2026-01-06 17:05:09.63	207.25	22.76	-29.7	-30.4	27.9	0.00e+00	0	34	0	3535798272	32	6029
2026-01-06 17:05:13.67	207.22	22.18	-29.6	-30.1	28.0	0.00e+00	0	34	0	3558866944	32	5807
2026-01-06 17:05:17.71	207.19	21.61	-29.7	-30.3	27.9	0.00e+00	0	34	0	3580887040	32	5926
2026-01-06 17:05:21.74	207.16	21.05	-30.1	-30.6	27.7	0.00e+00	0	34	0	3603955712	32	6147
2026-01-06 17:05:25.78	207.13	20.50	-30.2	-30.8	27.5	0.00e+00	0	34	0	3625975808	32	6248
2026-01-06 17:05:29.82	207.11	19.96	-30.3	-30.8	27.5	0.00e+00	0	34	0	3649044480	32	6308
2026-01-06 17:05:33.86	207.08	19.44	-30.4	-31.0	27.3	0.00e+00	0	34	0	3672113152	32	6420
2026-01-06 17:05:37.90	207.06	18.92	-30.7	-31.3	27.1	0.00e+00	0	34	0	3695181824	32	6635
2026-01-06 17:05:41.93	207.04	18.42	-30.8	-31.5	27.0	0.00e+00	0	34	0	3717201920	34	6089
2026-01-06 17:05:45.97	207.02	17.93	-30.8	-31.3	27.0	0.00e+00	0	34	0	3740270592	34	5947
2026-01-06 17:05:50.01	207.00	17.45	-31.1	-31.7	26.7	0.00e+00	0	34	0	3763339264	34	6208
2026-01-06 17:05:54.05	206.98	16.97	-31.1	-31.8	26.7	0.00e+00	0	34	0	3785359360	34	6295
2026-01-06 17:05:58.08	206.97	16.51	-31.4	-32.1	26.5	0.00e+00	0	34	0	3808428032	34	6482
2026-01-06 17:06:02.13	206.95	16.05	-31.4	-32.1	26.5	0.00e+00	0	34	0	3830448128	34	6477
2026-01-06 17:06:06.16	206.93	15.60	-31.4	-32.1	26.5	0.00e+00	0	34	0	3853516800	34	6506
2026-01-06 17:06:10.20	206.92	15.16	-31.6	-32.3	26.3	0.00e+00	0	34	0	3876585472	34	6677
2026-01-06 17:06:14.24	206.91	14.73	-31.7	-32.4	26.2	0.00e+00	0	34	0	3899654144	36	6019
2026-01-06 17:06:18.28	206.89	14.31	-31.8	-32.4	26.2	0.00e+00	0	34	0	3921674240	36	6003
2026-01-06 17:06:22.32	206.88	13.89	-32.0	-32.6	25.9	0.00e+00	0	34	0	3944742912	36	6110
2026-01-06 17:06:26.36	206.87	13.48	-32.1	-32.7	25.8	0.00e+00	0	34	0	3967811584	36	6240
2026-01-06 17:06:30.40	206.86	13.07	-32.2	-32.8	25.8	0.00e+00	0	34	0	3989831680	36	6303
2026-01-06 17:06:34.44	206.85	12.68	-32.3	-32.9	25.7	0.00e+00	0	34	0	4012900352	36	6364
2026-01-06 17:06:38.48	206.84	12.29	-32.3	-32.9	25.6	0.00e+00	0	34	0	4034920448	36	6383
2026-01-06 17:06:42.52	206.83	11.90	-32.5	-33.1	25.4	0.00e+00	0	34	0	4057989120	36	6501
2026-01-06 17:06:46.56	206.82	11.52	-32.6	-33.2	25.4	0.00e+00	0	34	0	4081057792	36	6549
2026-01-06 17:06:50.60	206.81	11.15	-32.6	-33.2	25.3	0.00e+00	0	34	0	4104126464	38	5856
2026-01-06 17:06:54.64	206.81	10.79	-32.7	-33.3	25.2	0.00e+00	0	34	0	4126146560	38	5952
2026-01-06 17:06:58.68	206.80	10.42	-32.8	-33.4	25.1	0.00e+00	0	34	0	4149215232	38	6011
2026-01-06 17:07:02.72	206.79	10.07	-33.1	-33.7	24.9	0.00e+00	0	34	0	4172283904	38	6194
2026-01-06 17:07:06.76	206.79	9.72	-33.0	-33.7	24.9	0.00e+00	0	34	0	4194304000	38	6175
2026-01-06 17:07:10.81	206.78	9.37	-33.1	-33.9	24.7	0.00e+00	0	34	0	4217372672	38	6371
2026-01-06 17:07:14.85	206.78	9.03	-33.2	-34.0	24.6	0.00e+00	0	34	0	4240441344	38	6449
2026-01-06 17:07:18.89	206.77	8.69	-33.3	-34.1	24.6	0.00e+00	0	34	0	4262461440	38	6513
2026-01-06 17:07:22.93	206.77	8.36	-33.6	-34.3	24.3	0.00e+00	0	34	0	4285530112	38	6631
2026-01-06 17:07:26.97	206.76	8.03	-33.6	-34.3	24.2	0.00e+00	0	34	0	4308598784	40	5929
2026-01-06 17:07:31.01	206.76	7.71	-33.8	-34.4	24.1	0.00e+00	0	34	0	4330618880	40	6014
2026-01-06 17:07:35.05	206.76	7.39	-33.7	-34.5	24.0	0.00e+00	0	34	0	4353687552	40	6094
2026-01-06 17:07:39.09	206.75	7.07	-33.9	-34.5	23.9	0.00e+00	0	34	0	4376756224	40	6094
2026-01-06 17:07:43.13	206.75	6.76	-34.0	-34.8	23.7	0.00e+00	0	34	0	4398776320	40	6275
2026-01-06 17:07:47.17	206.75	6.45	-34.2	-34.9	23.5	0.00e+00	0	34	0	4421844992	40	6332
2026-01-06 17:07:51.21	206.75	6.14	-34.2	-35.0	23.5	0.00e+00	0	34	0	4444913664	40	6458
2026-01-06 17:07:55.24	206.74	5.84	-34.4	-35.2	23.2	0.00e+00	0	34	0	4466933760	40	6583
2026-01-06 17:07:59.29	206.74	5.55	-34.4	-35.2	23.2	0.00e+00	0	34	0	4490002432	40	6542
2026-01-06 17:08:03.32	206.74	5.25	-34.6	-35.5	23.0	0.00e+00	0	34	0	4513071104	42	6060
2026-01-06 17:08:07.36	206.74	4.96	-34.8	-35.5	22.7	0.00e+00	0	34	0	4535091200	42	6090
2026-01-06 17:08:11.40	206.74	4.67	-35.0	-35.7	22.5	0.00e+00	0	34	0	4558159872	42	6217
2026-01-06 17:08:15.43	206.74	4.39	-35.1	-36.0	22.3	0.00e+00	0	34	0	4581228544	42	6426
2026-01-06 17:08:19.47	206.74	4.11	-35.3	-36.2	22.1	0.00e+00	0	34	0	4603248640	42	6592
2026-01-06 17:08:23.51	206.74	3.83	-35.4	-36.1	22.0	0.00e+00	0	34	0	4626317312	42	6517
2026-01-06 17:08:27.55	206.74	3.55	-35.7	-36.7	21.4	0.00e+00	0	34	0	4649385984	44	6184
2026-01-06 17:08:31.59	206.74	3.28	-35.9	-36.8	21.2	0.00e+00	0	34	0	4671406080	44	6303
2026-01-06 17:08:35.63	206.74	3.01	-47.1	-58.8	3.6	0.00e+00	0	34	104	4693426176	60	31607
2026-01-06 17:08:39.67	206.74	2.74	-48.2	-60.4	3.6	8.45e-01	0	34	104	4693426176	60	38058
2026-01-06 17:08:43.71	206.74	2.47	-48.5	-60.7	3.6	8.45e-01	0	34	104	4693426176	60	38963
2026-01-06 17:08:47.75	206.75	2.21	-48.4	-60.6	3.6	8.46e-01	0	34	104	4693426176	60	38641
2026-01-06 17:08:51.79	206.75	1.95	-48.5	-60.5	3.6	8.45e-01	0	34	104	4693426176	60	38476
2026-01-06 17:08:55.83	206.75	1.69	-48.5	-60.5	3.6	8.46e-01	0	34	104	4693426176	60	38265
2026-01-06 17:08:59.87	206.75	1.44	-48.4	-60.5	3.6	8.45e-01	0	34	104	4693426176	60	38344
2026-01-06 17:09:03.91	206.75	1.18	-48.4	-60.5	3.6	8.45e-01	0	34	104	4693426176	60	38492
2026-01-06 17:09:07.95	206.76	0.93	-48.4	-60.6	3.6	8.45e-01	0	34	104	4693426176	60	38513
2026-01-06 17:09:11.99	206.76	0.68	-48.4	-60.5	3.6	8.44e-01	0	34	104	4693426176	60	38156
2026-01-06 17:09:16.03	206.76	0.44	-48.4	-60.5	3.6	8.45e-01	0	34	104	4693426176	60	38275
2026-01-06 17:09:20.07	206.76	0.19	-48.4	-60.5	3.6	8.46e-01	0	34	104	4693426176	60	38116
2026-01-06 17:09:24.11	206.77	-0.05	-48.4	-60.5	3.6	8.45e-01	0	34	104	4693426176	60	38384

#Closed at: 2026-01-06 17:09:24
#Recorded file [4693 MB]: D:/lorett/data/35029_260107_045355.dat