passes_logs/2026/01/06/R4.6S_Anadyr/R4.6S_Anadyr__20260106_222900_SUOMI_NPP_rec.log

#Pass ID: 20260106_222900_SUOMI NPP
#Satellite: SUOMI NPP
#Configuration: NPP
#almurnet v.1.7.20251203
#Start time: 2026-01-06 22:29:01

#Version: 2.2.20231116
#Station: R4.6S_Anadyr
#Location: 177.4865 lon 64.73178 lat
#TLE: 1 37849U 11061A   26004.95404768  .00000136  00000+0  85334-4 0  9991
#TLE: 2 37849  98.7801 307.0898 0002575  80.6707 279.4760 14.19522289735281

#Time	Az	El	Level	Level2	SNR	BER	BlckErr	Temp	State	Recorded	gain1	gain2
2026-01-06 22:29:01.49	112.59	0.03	-48.9	-61.4	3.4	1.52e+00	0	31	0	0	60	41063
2026-01-06 22:29:05.53	112.42	0.26	-48.9	-64.1	3.6	1.51e+00	0	32	104	0	60	57807
2026-01-06 22:29:09.57	112.24	0.49	-49.0	-64.2	3.6	1.51e+00	0	32	104	0	60	58396
2026-01-06 22:29:13.61	112.06	0.72	-48.9	-64.1	3.6	1.51e+00	0	33	104	0	60	57769
2026-01-06 22:29:17.65	111.88	0.96	-48.0	-63.3	3.6	1.51e+00	0	33	104	0	60	52904
2026-01-06 22:29:21.69	111.69	1.19	-46.6	-61.9	3.6	1.51e+00	0	33	104	0	60	45238
2026-01-06 22:29:25.73	111.50	1.43	-46.6	-61.9	3.6	1.51e+00	0	33	104	0	60	45204
2026-01-06 22:29:29.77	111.31	1.67	-46.6	-62.0	3.6	1.51e+00	0	33	104	0	60	45570
2026-01-06 22:29:33.81	111.12	1.91	-46.6	-61.9	3.6	1.51e+00	0	33	104	0	60	45142
2026-01-06 22:29:37.85	110.92	2.15	-46.6	-61.9	3.6	1.51e+00	0	33	104	0	60	44742
2026-01-06 22:29:41.89	110.72	2.40	-46.6	-62.0	3.6	1.51e+00	0	33	104	0	60	45316
2026-01-06 22:29:45.93	110.51	2.64	-46.6	-61.9	3.6	1.51e+00	0	33	104	0	60	44811
2026-01-06 22:29:49.97	110.30	2.89	-46.6	-61.8	3.6	1.51e+00	0	33	104	0	60	44478
2026-01-06 22:29:54.01	110.09	3.14	-46.6	-61.6	3.6	1.51e+00	0	33	104	0	60	43273
2026-01-06 22:29:58.05	109.87	3.39	-45.6	-51.8	8.4	9.11e-02	92	33	0	3145728	60	14052
2026-01-06 22:30:02.09	109.65	3.65	-46.2	-61.5	3.6	7.43e-01	0	33	104	5242880	60	42964
2026-01-06 22:30:06.13	109.42	3.90	-44.6	-48.9	12.5	3.61e-04	0	33	0	7340032	60	10118
2026-01-06 22:30:10.17	109.19	4.16	-44.5	-48.7	12.2	2.62e-04	3	33	0	15728640	60	9877
2026-01-06 22:30:14.21	108.96	4.42	-44.5	-48.6	12.5	5.79e-05	92	33	0	23068672	60	9735
2026-01-06 22:30:18.25	108.72	4.68	-41.7	-43.5	18.2	0.00e+00	92	33	0	30408704	56	6799
2026-01-06 22:30:22.28	108.48	4.94	-41.0	-42.5	19.1	0.00e+00	0	33	0	37748736	56	6071
2026-01-06 22:30:26.31	108.23	5.21	-41.1	-42.7	18.9	0.00e+00	92	33	0	46137344	56	6242
2026-01-06 22:30:30.35	107.98	5.47	-40.4	-42.0	19.6	0.00e+00	92	33	0	53477376	54	6448
2026-01-06 22:30:34.39	107.72	5.74	-40.4	-42.0	19.6	0.00e+00	0	33	0	60817408	54	6416
2026-01-06 22:30:38.44	107.46	6.02	-40.6	-42.3	19.5	0.00e+00	0	33	0	68157440	54	6625
2026-01-06 22:30:42.48	107.19	6.29	-40.0	-41.5	20.2	0.00e+00	90	33	0	75497472	54	6036
2026-01-06 22:30:46.52	106.92	6.57	-39.9	-41.2	20.4	0.00e+00	92	33	0	83886080	52	6603
2026-01-06 22:30:50.56	106.64	6.85	-40.7	-42.2	19.5	0.00e+00	20	33	0	91226112	52	7419
2026-01-06 22:30:54.60	106.36	7.13	-40.5	-41.9	19.9	0.00e+00	18	33	0	98566144	54	6320
2026-01-06 22:30:58.64	106.07	7.41	-40.3	-41.6	20.2	0.00e+00	90	33	0	105906176	54	6156
2026-01-06 22:31:02.67	105.77	7.70	-40.4	-41.8	20.0	0.00e+00	92	33	0	114294784	54	6278
2026-01-06 22:31:06.71	105.47	7.99	-40.3	-41.6	20.3	0.00e+00	0	33	0	121634816	54	6127
2026-01-06 22:31:10.75	105.17	8.28	-40.1	-41.4	20.5	0.00e+00	92	34	0	128974848	54	5976
2026-01-06 22:31:14.79	104.85	8.57	-40.1	-41.4	20.5	0.00e+00	92	33	0	136314880	54	6031
2026-01-06 22:31:18.82	104.53	8.87	-39.8	-41.0	20.9	0.00e+00	66	34	0	143654912	52	6408
2026-01-06 22:31:22.86	104.20	9.17	-39.7	-41.0	20.9	0.00e+00	0	34	0	152043520	52	6410
2026-01-06 22:31:26.90	103.87	9.47	-39.6	-40.9	21.0	0.00e+00	92	34	0	159383552	52	6351
2026-01-06 22:31:30.94	103.53	9.77	-39.2	-40.3	21.6	0.00e+00	92	34	0	166723584	52	5919
2026-01-06 22:31:34.97	103.18	10.08	-39.4	-40.6	21.3	0.00e+00	0	34	0	174063616	52	6155
2026-01-06 22:31:39.01	102.82	10.39	-39.6	-40.8	21.2	0.00e+00	0	34	0	182452224	52	6271
2026-01-06 22:31:43.05	102.45	10.70	-39.3	-40.4	21.5	0.00e+00	92	33	0	189792256	52	5992
2026-01-06 22:31:47.08	102.08	11.02	-39.2	-40.3	21.7	0.00e+00	90	34	0	197132288	52	5907
2026-01-06 22:31:51.12	101.70	11.34	-39.4	-40.6	21.3	0.00e+00	0	34	0	204472320	52	6148
2026-01-06 22:31:55.16	101.31	11.66	-38.8	-39.8	22.1	0.00e+00	92	33	0	211812352	52	5625
2026-01-06 22:31:59.20	100.91	11.98	-38.7	-39.8	22.1	0.00e+00	92	34	0	220200960	50	6274
2026-01-06 22:32:03.24	100.50	12.31	-38.8	-39.9	22.1	0.00e+00	92	34	0	227540992	50	6331
2026-01-06 22:32:07.28	100.08	12.64	-39.1	-40.2	21.8	0.00e+00	0	34	0	234881024	50	6558
2026-01-06 22:32:11.32	99.66	12.97	-39.1	-40.2	21.8	0.00e+00	90	34	0	242221056	50	6601
2026-01-06 22:32:15.35	99.22	13.31	-39.4	-40.6	21.4	0.00e+00	90	33	0	249561088	50	6878
2026-01-06 22:32:19.39	98.77	13.65	-39.2	-40.3	21.7	0.00e+00	0	34	0	257949696	50	6643
2026-01-06 22:32:23.43	98.31	13.99	-39.0	-40.0	22.1	0.00e+00	0	34	0	265289728	50	6459
2026-01-06 22:32:27.47	97.84	14.34	-39.4	-40.6	21.6	0.00e+00	91	34	0	272629760	50	6851
2026-01-06 22:32:31.51	97.36	14.68	-38.5	-39.5	22.7	0.00e+00	91	34	0	279969792	50	6079
2026-01-06 22:32:35.55	96.87	15.04	-38.5	-39.6	22.3	0.00e+00	0	34	0	288358400	50	6133
2026-01-06 22:32:39.59	96.36	15.39	-38.4	-39.4	22.7	0.00e+00	92	34	0	295698432	50	6018
2026-01-06 22:32:43.63	95.85	15.75	-39.2	-40.4	21.7	0.00e+00	92	34	0	303038464	50	6744
2026-01-06 22:32:47.66	95.32	16.10	-38.8	-39.8	22.2	0.00e+00	91	34	0	310378496	50	6299
2026-01-06 22:32:51.70	94.77	16.47	-39.6	-40.7	21.4	0.00e+00	0	34	0	317718528	50	6988
2026-01-06 22:32:55.74	94.22	16.83	-38.9	-39.9	22.2	0.00e+00	92	34	0	326107136	52	5655
2026-01-06 22:32:59.78	93.65	17.20	-39.2	-40.3	21.8	0.00e+00	91	34	0	333447168	50	6646
2026-01-06 22:33:03.81	93.06	17.57	-38.3	-39.3	22.6	0.00e+00	0	34	0	340787200	50	5924
2026-01-06 22:33:07.85	92.46	17.94	-38.3	-39.3	22.7	0.00e+00	0	34	0	348127232	50	5921
2026-01-06 22:33:11.89	91.85	18.32	-38.1	-39.1	22.7	0.00e+00	92	34	0	356515840	50	5765
2026-01-06 22:33:15.93	91.22	18.69	-38.2	-39.1	22.7	0.00e+00	92	34	0	363855872	50	5818
2026-01-06 22:33:19.97	90.57	19.07	-38.8	-39.9	22.2	0.00e+00	0	34	0	371195904	50	6335
2026-01-06 22:33:24.01	89.91	19.45	-38.6	-39.6	22.4	0.00e+00	0	34	0	378535936	50	6152
2026-01-06 22:33:28.04	89.23	19.83	-38.9	-39.9	22.3	0.00e+00	92	34	0	385875968	50	6351
2026-01-06 22:33:32.08	88.53	20.22	-38.4	-39.3	22.8	0.00e+00	90	34	0	394264576	50	5941
2026-01-06 22:33:36.12	87.81	20.60	-37.2	-38.0	23.3	0.00e+00	0	34	0	401604608	48	5727
2026-01-06 22:33:40.16	87.08	20.99	-38.2	-39.1	22.9	0.00e+00	91	34	0	408944640	48	6532
2026-01-06 22:33:44.20	86.33	21.38	-38.6	-39.6	22.4	0.00e+00	92	34	0	416284672	48	6882
2026-01-06 22:33:48.24	85.56	21.76	-38.1	-39.1	23.0	0.00e+00	3	34	0	424673280	50	5767
2026-01-06 22:33:52.28	84.76	22.15	-38.4	-39.4	22.6	0.00e+00	0	34	0	432013312	50	5975
2026-01-06 22:33:56.31	83.95	22.54	-37.9	-38.9	23.0	0.00e+00	92	34	0	439353344	50	5642
2026-01-06 22:34:00.35	83.12	22.93	-38.4	-39.4	22.6	0.00e+00	92	34	0	446693376	50	6011
2026-01-06 22:34:04.39	82.27	23.31	-38.3	-39.3	22.8	0.00e+00	0	34	0	454033408	50	5928
2026-01-06 22:34:08.43	81.39	23.70	-38.9	-39.9	22.2	0.00e+00	0	34	0	462422016	50	6361
2026-01-06 22:34:12.46	80.50	24.08	-38.7	-39.7	22.5	0.00e+00	92	34	0	469762048	50	6203
2026-01-06 22:34:16.50	79.58	24.46	-37.4	-38.3	23.5	0.00e+00	92	34	0	477102080	48	5927
2026-01-06 22:34:20.54	78.63	24.84	-36.6	-37.4	24.1	0.00e+00	0	34	0	484442112	46	5998
2026-01-06 22:34:24.58	77.67	25.21	-36.7	-37.5	24.1	0.00e+00	23	34	0	492830720	46	6074
2026-01-06 22:34:28.61	76.68	25.58	-37.2	-38.1	23.8	0.00e+00	92	34	0	500170752	46	6465
2026-01-06 22:34:32.65	75.67	25.95	-37.8	-38.7	23.1	0.00e+00	0	34	0	507510784	48	6238
2026-01-06 22:34:36.69	74.63	26.31	-37.5	-38.4	23.4	0.00e+00	0	34	0	514850816	48	6009
2026-01-06 22:34:40.73	73.58	26.67	-37.9	-38.9	23.2	0.00e+00	90	34	0	522190848	48	6335
2026-01-06 22:34:44.77	72.49	27.02	-38.1	-39.1	23.0	0.00e+00	90	34	0	530579456	48	6519
2026-01-06 22:34:48.81	71.39	27.36	-38.0	-38.9	23.1	0.00e+00	0	34	0	537919488	48	6374
2026-01-06 22:34:52.85	70.25	27.69	-38.4	-39.4	22.2	0.00e+00	28	34	0	545259520	48	6747
2026-01-06 22:34:56.88	69.10	28.02	-38.5	-39.5	22.6	0.00e+00	27	34	0	552599552	50	6075
2026-01-06 22:35:00.92	67.92	28.33	-38.6	-39.6	22.6	0.00e+00	91	34	0	560988160	50	6114
2026-01-06 22:35:04.96	66.72	28.64	-38.3	-39.3	22.8	0.00e+00	0	34	0	568328192	50	5939
2026-01-06 22:35:09.00	65.50	28.93	-38.6	-39.7	22.5	0.00e+00	92	34	0	575668224	50	6192
2026-01-06 22:35:13.03	64.26	29.21	-38.8	-39.8	22.3	0.00e+00	55	34	0	583008256	50	6293
2026-01-06 22:35:17.07	62.99	29.48	-37.9	-38.9	23.2	0.00e+00	0	34	0	590348288	50	5631
2026-01-06 22:35:21.11	61.70	29.74	-37.8	-38.7	23.0	0.00e+00	0	34	0	598736896	48	6239
2026-01-06 22:35:25.15	60.39	29.98	-38.3	-39.2	22.8	0.00e+00	92	34	0	606076928	48	6609
2026-01-06 22:35:29.15	59.08	30.20	-38.6	-39.6	22.5	0.00e+00	80	34	0	613416960	50	6128
2026-01-06 22:35:33.19	57.73	30.41	-37.5	-38.3	23.7	0.00e+00	0	34	0	620756992	48	5946
2026-01-06 22:35:37.23	56.37	30.61	-37.9	-38.8	23.1	0.00e+00	0	34	0	629145600	48	6291
2026-01-06 22:35:41.27	54.99	30.78	-39.5	-40.7	21.8	0.00e+00	30	34	0	636485632	50	6928
2026-01-06 22:35:45.31	53.60	30.94	-39.1	-40.2	22.2	0.00e+00	92	34	0	643825664	52	5839
2026-01-06 22:35:49.35	52.19	31.08	-39.9	-41.1	21.5	0.00e+00	0	34	0	651165696	52	6535
2026-01-06 22:35:53.39	50.78	31.20	-38.2	-39.2	23.0	0.00e+00	0	34	0	658505728	50	5832
2026-01-06 22:35:57.43	49.35	31.31	-39.3	-40.4	22.0	0.00e+00	92	34	0	666894336	50	6698
2026-01-06 22:36:01.47	47.91	31.39	-38.5	-39.5	22.7	0.00e+00	0	34	0	674234368	50	6059
2026-01-06 22:36:05.51	46.47	31.45	-39.2	-40.3	22.1	0.00e+00	0	34	0	681574400	50	6661
2026-01-06 22:36:09.55	45.03	31.49	-39.0	-39.9	22.3	0.00e+00	57	34	0	688914432	50	6390
2026-01-06 22:36:13.59	43.58	31.51	-40.1	-41.3	21.3	0.00e+00	92	34	0	697303040	52	6640
2026-01-06 22:36:17.63	42.13	31.51	-38.6	-39.6	22.6	0.00e+00	0	34	0	704643072	50	6111
2026-01-06 22:36:21.67	40.68	31.49	-38.0	-38.9	23.0	0.00e+00	0	34	0	711983104	48	6340
2026-01-06 22:36:25.71	39.24	31.45	-39.1	-40.2	22.2	0.00e+00	29	34	0	719323136	50	6569
2026-01-06 22:36:29.75	37.80	31.39	-39.1	-40.1	22.1	0.00e+00	91	34	0	726663168	50	6506
2026-01-06 22:36:33.79	36.36	31.31	-39.1	-40.1	22.1	0.00e+00	0	34	0	735051776	52	5823
2026-01-06 22:36:37.83	34.94	31.20	-39.3	-40.4	21.8	0.00e+00	21	34	0	742391808	50	6764
2026-01-06 22:36:41.87	33.52	31.08	-39.3	-40.4	21.8	0.00e+00	85	34	0	749731840	52	5994
2026-01-06 22:36:45.91	32.12	30.94	-38.0	-39.0	23.0	0.00e+00	0	34	0	757071872	50	5715
2026-01-06 22:36:49.95	30.72	30.78	-38.9	-39.9	22.2	0.00e+00	0	34	0	765460480	50	6365
2026-01-06 22:36:53.99	29.35	30.61	-39.1	-40.2	22.1	0.00e+00	92	34	0	772800512	50	6577
2026-01-06 22:36:58.03	27.99	30.41	-38.8	-39.9	22.3	0.00e+00	33	34	0	780140544	50	6329
2026-01-06 22:37:02.07	26.64	30.20	-37.9	-38.8	23.1	0.00e+00	0	34	0	787480576	50	5615
2026-01-06 22:37:06.11	25.32	29.98	-39.2	-40.3	21.8	0.00e+00	13	34	0	794820608	50	6652
2026-01-06 22:37:10.15	24.01	29.73	-39.6	-40.7	21.6	0.00e+00	90	34	0	803209216	52	6235
2026-01-06 22:37:14.18	22.73	29.48	-40.9	-42.2	20.2	0.00e+00	24	34	0	810549248	54	6583
2026-01-06 22:37:18.22	21.47	29.21	-40.3	-41.6	21.0	0.00e+00	0	34	0	817889280	54	6117
2026-01-06 22:37:22.26	20.22	28.93	-40.6	-41.9	20.6	0.00e+00	0	34	0	825229312	54	6337
2026-01-06 22:37:26.30	19.00	28.64	-39.1	-40.1	22.3	0.00e+00	92	34	0	833617920	52	5820
2026-01-06 22:37:30.33	17.81	28.33	-36.9	-37.8	23.9	0.00e+00	0	34	0	840957952	48	5568
2026-01-06 22:37:34.37	16.63	28.02	-37.9	-38.8	22.9	0.00e+00	0	34	0	848297984	48	6264
2026-01-06 22:37:38.41	15.48	27.69	-39.2	-40.2	22.1	0.00e+00	45	34	0	855638016	50	6572
2026-01-06 22:37:42.45	14.35	27.36	-37.7	-38.6	23.2	0.00e+00	0	34	0	862978048	48	6158
2026-01-06 22:37:46.49	13.25	27.02	-40.9	-42.3	20.3	0.00e+00	0	34	0	871366656	54	6622
2026-01-06 22:37:50.53	12.17	26.67	-39.3	-40.4	22.0	0.00e+00	0	34	0	878706688	52	5989
2026-01-06 22:37:54.56	11.12	26.32	-38.3	-39.3	22.7	0.00e+00	90	34	0	886046720	50	5954
2026-01-06 22:37:58.60	10.08	25.96	-36.8	-37.6	24.1	0.00e+00	0	34	0	893386752	48	5495
2026-01-06 22:38:02.64	9.07	25.59	-37.2	-38.1	23.8	0.00e+00	0	34	0	901775360	46	6479
2026-01-06 22:38:06.68	8.09	25.22	-37.2	-38.0	23.7	0.00e+00	0	34	0	909115392	46	6458
2026-01-06 22:38:10.72	7.13	24.85	-37.7	-38.6	23.3	0.00e+00	92	34	0	916455424	48	6170
2026-01-06 22:38:14.76	6.19	24.47	-37.5	-38.4	23.5	0.00e+00	0	34	0	923795456	48	6001
2026-01-06 22:38:18.80	5.27	24.09	-36.7	-37.5	24.0	0.00e+00	0	34	0	931135488	46	6071
2026-01-06 22:38:22.84	4.38	23.71	-35.4	-36.2	25.1	0.00e+00	24	34	0	939524096	44	5839
2026-01-06 22:38:26.88	3.51	23.32	-36.4	-37.3	24.3	0.00e+00	47	34	0	946864128	44	6629
2026-01-06 22:38:30.92	2.66	22.94	-36.6	-37.5	24.1	0.00e+00	0	34	0	954204160	46	6075
2026-01-06 22:38:34.96	1.83	22.55	-36.5	-37.4	24.3	0.00e+00	0	34	0	961544192	46	5972
2026-01-06 22:38:39.00	1.02	22.17	-36.4	-37.3	24.3	0.00e+00	69	34	0	969932800	46	5899
2026-01-06 22:38:43.04	0.23	21.78	-36.8	-37.6	24.1	0.00e+00	0	34	0	977272832	46	6168
2026-01-06 22:38:47.08	359.46	21.39	-36.5	-37.3	24.2	0.00e+00	0	34	0	984612864	46	5963
2026-01-06 22:38:51.12	358.71	21.01	-36.8	-37.7	23.9	0.00e+00	0	34	0	991952896	46	6192
2026-01-06 22:38:55.16	357.98	20.62	-37.3	-38.2	23.5	0.00e+00	91	34	0	999292928	46	6600
2026-01-06 22:38:59.20	357.27	20.24	-36.5	-37.3	24.3	0.00e+00	0	34	0	1007681536	46	5935
2026-01-06 22:39:03.24	356.57	19.86	-36.6	-37.4	23.9	0.00e+00	0	34	0	1015021568	46	6002
2026-01-06 22:39:07.27	355.90	19.48	-38.3	-39.3	22.6	0.00e+00	24	34	0	1022361600	48	6643
2026-01-06 22:39:11.31	355.24	19.10	-38.5	-39.5	22.5	0.00e+00	92	34	0	1029701632	48	6792
2026-01-06 22:39:15.35	354.59	18.72	-37.2	-38.1	23.6	0.00e+00	0	34	0	1038090240	48	5802
2026-01-06 22:39:19.38	353.97	18.34	-37.7	-38.7	23.2	0.00e+00	0	34	0	1045430272	48	6180
2026-01-06 22:39:23.42	353.35	17.97	-38.1	-39.0	22.9	0.00e+00	18	34	0	1052770304	48	6450
2026-01-06 22:39:27.46	352.76	17.60	-37.2	-38.1	23.6	0.00e+00	0	34	0	1060110336	48	5791
2026-01-06 22:39:31.50	352.18	17.23	-36.8	-37.7	23.9	0.00e+00	0	34	0	1067450368	46	6208
2026-01-06 22:39:35.54	351.61	16.86	-37.2	-38.1	23.6	0.00e+00	0	34	0	1075838976	46	6479
2026-01-06 22:39:39.58	351.05	16.50	-37.5	-38.4	23.3	0.00e+00	92	34	0	1083179008	46	6750
2026-01-06 22:39:43.62	350.51	16.14	-36.9	-37.7	23.9	0.00e+00	0	34	0	1090519040	46	6220
2026-01-06 22:39:47.65	349.99	15.78	-38.0	-39.0	22.8	0.00e+00	0	34	0	1097859072	48	6423
2026-01-06 22:39:51.69	349.47	15.43	-39.9	-41.1	21.0	0.00e+00	0	34	0	1106247680	52	6486
2026-01-06 22:39:55.73	348.97	15.07	-39.5	-40.6	21.6	0.00e+00	92	34	0	1113587712	52	6117
2026-01-06 22:39:59.77	348.48	14.72	-37.6	-38.5	23.2	0.00e+00	0	34	0	1120927744	48	6046
2026-01-06 22:40:03.81	348.00	14.38	-37.4	-38.3	23.3	0.00e+00	0	34	0	1128267776	48	5957
2026-01-06 22:40:07.85	347.54	14.03	-38.8	-39.9	22.0	0.00e+00	59	34	0	1135607808	50	6345
2026-01-06 22:40:11.88	347.08	13.69	-39.3	-40.4	21.6	0.00e+00	0	34	0	1143996416	50	6768
2026-01-06 22:40:15.92	346.64	13.35	-39.2	-40.3	21.7	0.00e+00	0	34	0	1151336448	50	6667
2026-01-06 22:40:19.96	346.20	13.02	-39.1	-40.2	21.8	0.00e+00	0	34	0	1158676480	50	6579
2026-01-06 22:40:24.00	345.78	12.69	-39.4	-40.6	21.4	0.00e+00	6	34	0	1166016512	50	6851
2026-01-06 22:40:28.03	345.36	12.36	-39.6	-40.7	21.4	0.00e+00	0	34	0	1174405120	50	6995
2026-01-06 22:40:32.07	344.96	12.03	-39.7	-40.9	21.1	0.00e+00	0	34	0	1181745152	52	6371
2026-01-06 22:40:36.11	344.56	11.71	-38.9	-39.9	22.0	0.00e+00	0	34	0	1189085184	52	5667
2026-01-06 22:40:40.15	344.17	11.39	-38.4	-39.4	22.3	0.00e+00	92	34	0	1196425216	50	6023
2026-01-06 22:40:44.20	343.79	11.07	-38.4	-39.4	22.3	0.00e+00	0	34	0	1203765248	50	6017
2026-01-06 22:40:48.24	343.42	10.75	-39.3	-40.4	21.4	0.00e+00	0	34	0	1212153856	50	6769
2026-01-06 22:40:52.28	343.06	10.44	-40.4	-41.7	20.4	0.00e+00	20	34	0	1219493888	52	6944
2026-01-06 22:40:56.32	342.70	10.13	-41.0	-42.5	19.8	0.00e+00	82	34	0	1226833920	54	6804
2026-01-06 22:41:00.34	342.36	9.83	-40.8	-42.2	19.9	0.00e+00	0	34	0	1234173952	54	6555
2026-01-06 22:41:04.39	342.02	9.52	-40.6	-42.0	20.0	0.00e+00	0	34	0	1242562560	54	6447
2026-01-06 22:41:08.43	341.69	9.22	-40.2	-41.5	20.4	0.00e+00	92	34	0	1249902592	54	6058
2026-01-06 22:41:12.46	341.36	8.92	-39.7	-40.9	21.0	0.00e+00	0	34	0	1257242624	52	6321
2026-01-06 22:41:16.50	341.05	8.63	-39.4	-40.6	21.3	0.00e+00	0	34	0	1264582656	52	6129
2026-01-06 22:41:20.54	340.73	8.34	-39.7	-40.8	21.0	0.00e+00	0	34	0	1271922688	52	6300
2026-01-06 22:41:24.57	340.43	8.05	-40.3	-41.6	20.3	0.00e+00	76	34	0	1280311296	52	6876
2026-01-06 22:41:28.62	340.13	7.76	-40.9	-42.4	19.6	0.00e+00	0	34	0	1287651328	54	6735
2026-01-06 22:41:32.65	339.84	7.47	-41.4	-43.0	19.1	0.00e+00	0	34	0	1294991360	54	7191
2026-01-06 22:41:36.69	339.55	7.19	-41.2	-42.7	19.1	0.00e+00	0	34	0	1302331392	54	7005
2026-01-06 22:41:40.73	339.27	6.91	-41.5	-43.1	18.8	0.00e+00	92	34	0	1310720000	54	7336
2026-01-06 22:41:44.77	339.00	6.63	-41.3	-42.9	18.9	0.00e+00	0	34	0	1318060032	54	7136
2026-01-06 22:41:48.81	338.73	6.35	-41.5	-43.2	18.6	0.00e+00	0	34	0	1325400064	54	7385
2026-01-06 22:41:52.85	338.46	6.08	-41.8	-43.6	18.2	0.00e+00	18	34	0	1332740096	56	6908
2026-01-06 22:41:56.88	338.20	5.81	-42.2	-44.2	17.6	0.00e+00	0	34	0	1340080128	56	7346
2026-01-06 22:42:00.92	337.95	5.54	-42.5	-44.7	16.7	0.00e+00	0	34	0	1348468736	56	7847
2026-01-06 22:42:04.95	337.70	5.27	-42.6	-45.2	15.5	0.00e+00	0	34	0	1355808768	56	8282
2026-01-06 22:42:08.99	337.46	5.01	-43.1	-46.9	12.8	1.98e-05	37	34	0	1363148800	58	8990
2026-01-06 22:42:13.03	337.22	4.74	-43.6	-49.2	9.4	8.26e-03	0	34	0	1370488832	58	11689
2026-01-06 22:42:17.06	336.98	4.48	-43.9	-51.9	5.4	3.89e-01	0	34	0	1377828864	60	14271
2026-01-06 22:42:21.10	336.75	4.23	-43.8	-56.4	3.8	1.47e+00	0	34	104	1383071744	60	23914
2026-01-06 22:42:25.14	336.53	3.97	-43.8	-58.4	3.6	1.51e+00	0	34	104	1383071744	60	29899
2026-01-06 22:42:29.18	336.30	3.71	-44.0	-58.7	3.6	1.51e+00	0	34	104	1383071744	60	31247
2026-01-06 22:42:33.22	336.08	3.46	-43.8	-59.0	3.6	1.51e+00	0	34	104	1383071744	60	32142
2026-01-06 22:42:37.25	335.87	3.21	-43.7	-58.9	3.6	1.51e+00	0	34	104	1383071744	60	31829
2026-01-06 22:42:41.29	335.66	2.96	-47.3	-62.5	3.6	1.51e+00	0	34	104	1383071744	60	48034
2026-01-06 22:42:45.33	335.45	2.71	-48.9	-64.1	3.6	1.51e+00	0	34	104	1383071744	60	57771
2026-01-06 22:42:49.37	335.25	2.47	-49.0	-64.2	3.6	1.51e+00	0	34	104	1383071744	60	58645
2026-01-06 22:42:53.41	335.05	2.23	-48.9	-64.1	3.6	1.51e+00	0	34	104	1383071744	60	58211
2026-01-06 22:42:57.44	334.86	1.98	-49.0	-64.2	3.6	1.51e+00	0	34	104	1383071744	60	58472
2026-01-06 22:43:01.48	334.66	1.74	-48.9	-64.1	3.6	1.51e+00	0	34	104	1383071744	60	58002
2026-01-06 22:43:05.52	334.48	1.51	-48.9	-64.1	3.6	1.51e+00	0	34	104	1383071744	60	58013
2026-01-06 22:43:09.56	334.29	1.27	-48.9	-64.2	3.6	1.51e+00	0	34	104	1383071744	60	58412
2026-01-06 22:43:13.59	334.11	1.03	-48.9	-64.0	3.6	1.51e+00	0	34	104	1383071744	60	57613
2026-01-06 22:43:17.63	333.93	0.80	-48.9	-64.1	3.6	1.51e+00	0	34	104	1383071744	60	57878
2026-01-06 22:43:21.67	333.75	0.57	-48.9	-64.1	3.6	1.51e+00	0	34	104	1383071744	60	58085
2026-01-06 22:43:25.71	333.58	0.34	-48.9	-64.1	3.6	1.51e+00	0	34	104	1383071744	60	57789
2026-01-06 22:43:29.75	333.41	0.11	-48.9	-64.1	3.6	1.51e+00	0	34	104	1383071744	60	57925

#Closed at: 2026-01-06 22:43:31
#Recorded file [1383 MB]: D:/lorett/data/35029_260107_102901.dat