passes_logs/2026/01/06/R4.6S_Anadyr/R4.6S_Anadyr__20260106_025521_AQUA_rec.log

#Pass ID: 20260106_025521_AQUA
#Satellite: AQUA
#Configuration: AQUA
#almurnet v.1.7.20251203
#Start time: 2026-01-06 02:55:21

#Version: 2.2.20231116
#Station: R4.6S_Anadyr
#Location: 177.4865 lon 64.73178 lat
#TLE: 1 27424U 02022A   26004.96787593  .00001598  00000+0  32997-3 0  9996
#TLE: 2 27424  98.4069 331.2279 0002002  90.2377   0.6092 14.61798176259425

#Time	Az	El	Level	Level2	SNR	BER	BlckErr	Temp	State	Recorded	gain1	gain2
2026-01-06 02:55:21.70	182.74	0.04	-48.5	-63.4	3.5	1.51e+00	0	31	0	0	60	53416
2026-01-06 02:55:25.73	182.90	0.28	-48.6	-66.9	3.5	3.02e+01	0	32	104	0	60	84995
2026-01-06 02:55:29.77	183.05	0.52	-48.9	-66.8	3.5	3.02e+01	0	33	104	0	60	84467
2026-01-06 02:55:33.81	183.21	0.77	-48.5	-66.5	3.5	3.02e+01	0	33	104	0	60	80903
2026-01-06 02:55:37.84	183.37	1.02	-47.6	-65.5	3.5	3.02e+01	0	33	104	0	60	72446
2026-01-06 02:55:41.88	183.54	1.27	-47.6	-65.3	3.5	3.02e+01	0	33	104	0	60	71209
2026-01-06 02:55:45.92	183.70	1.52	-47.6	-65.6	3.5	3.02e+01	0	33	104	0	60	73134
2026-01-06 02:55:49.96	183.88	1.78	-47.6	-65.4	3.5	3.02e+01	0	33	104	0	60	71630
2026-01-06 02:55:53.99	184.05	2.03	-47.6	-65.3	3.5	3.02e+01	0	33	104	0	60	70462
2026-01-06 02:55:58.03	184.22	2.29	-47.6	-65.5	3.5	3.02e+01	0	33	104	0	60	72118
2026-01-06 02:56:02.07	184.40	2.56	-47.6	-65.3	3.5	3.02e+01	0	33	104	0	60	70897
2026-01-06 02:56:06.11	184.59	2.82	-47.4	-61.1	4.7	3.02e+01	0	33	104	0	60	43818
2026-01-06 02:56:10.14	184.77	3.09	-47.5	-61.4	3.7	3.02e+01	0	33	104	0	60	44986
2026-01-06 02:56:14.18	184.96	3.36	-42.3	-44.7	20.6	3.02e+01	0	33	0	5767168	60	6649
2026-01-06 02:56:18.22	185.15	3.63	-39.0	-40.6	24.3	3.02e+01	0	33	0	13631488	52	6549
2026-01-06 02:56:22.25	185.35	3.91	-40.7	-42.6	22.5	3.02e+01	0	33	0	18350080	56	6571
2026-01-06 02:56:26.29	185.55	4.19	-38.3	-39.8	25.2	3.02e+01	0	33	0	26214400	52	5982
2026-01-06 02:56:30.33	185.76	4.47	-37.7	-39.2	25.7	3.02e+01	0	33	0	33554432	50	6230
2026-01-06 02:56:34.36	185.97	4.75	-37.7	-39.2	25.8	3.02e+01	0	33	0	41418752	50	6233
2026-01-06 02:56:38.40	186.18	5.04	-37.1	-38.5	26.5	3.02e+01	0	33	0	48758784	50	5776
2026-01-06 02:56:42.44	186.40	5.33	-37.1	-38.6	26.6	3.02e+01	0	33	0	56098816	48	6506
2026-01-06 02:56:46.47	186.62	5.62	-36.8	-38.2	26.9	3.02e+01	0	33	0	63963136	48	6257
2026-01-06 02:56:50.51	186.84	5.92	-36.7	-38.1	27.1	3.02e+01	0	33	0	71303168	48	6185
2026-01-06 02:56:54.55	187.07	6.22	-36.6	-38.0	27.2	3.02e+01	0	33	0	79167488	48	6072
2026-01-06 02:56:58.59	187.31	6.53	-36.7	-38.1	27.1	3.02e+01	0	33	0	86507520	48	6158
2026-01-06 02:57:02.62	187.55	6.84	-36.7	-38.1	27.1	3.02e+01	0	33	0	94371840	48	6184
2026-01-06 02:57:06.66	187.80	7.15	-36.6	-38.0	27.3	3.02e+01	0	33	0	101711872	48	6072
2026-01-06 02:57:10.70	188.05	7.47	-36.4	-37.7	27.6	3.02e+01	0	33	0	109051904	48	5907
2026-01-06 02:57:14.73	188.31	7.79	-36.2	-37.5	27.7	3.02e+01	0	33	0	116916224	48	5750
2026-01-06 02:57:18.77	188.57	8.11	-36.0	-37.4	27.9	3.02e+01	0	33	0	124256256	48	5665
2026-01-06 02:57:22.81	188.84	8.44	-36.0	-37.3	27.9	3.02e+01	0	33	0	132120576	48	5651
2026-01-06 02:57:26.84	189.12	8.77	-36.2	-37.5	27.8	3.02e+01	0	33	0	139460608	48	5780
2026-01-06 02:57:30.88	189.40	9.11	-36.1	-37.4	27.9	3.02e+01	0	33	0	147324928	48	5696
2026-01-06 02:57:34.92	189.69	9.45	-35.9	-37.2	28.2	3.02e+01	0	33	0	154664960	46	6209
2026-01-06 02:57:38.95	189.99	9.80	-35.9	-37.1	28.2	3.02e+01	0	33	0	162004992	46	6184
2026-01-06 02:57:42.99	190.29	10.15	-35.9	-37.2	28.1	3.02e+01	0	34	0	169869312	46	6234
2026-01-06 02:57:47.03	190.60	10.51	-35.7	-37.0	28.3	3.02e+01	0	34	0	177209344	46	6096
2026-01-06 02:57:51.07	190.92	10.87	-35.5	-36.8	28.5	3.02e+01	0	33	0	185073664	46	5963
2026-01-06 02:57:55.10	191.25	11.24	-35.4	-36.6	28.7	3.02e+01	0	34	0	192413696	46	5852
2026-01-06 02:57:59.14	191.59	11.61	-35.3	-36.6	28.7	3.02e+01	0	34	0	200278016	46	5813
2026-01-06 02:58:03.17	191.93	11.99	-35.3	-36.6	28.8	3.02e+01	0	33	0	207618048	46	5807
2026-01-06 02:58:07.21	192.29	12.37	-35.3	-36.5	28.9	3.02e+01	0	33	0	214958080	46	5791
2026-01-06 02:58:11.25	192.65	12.76	-35.3	-36.6	28.8	3.02e+01	0	34	0	222822400	46	5797
2026-01-06 02:58:15.29	193.03	13.16	-35.1	-36.4	29.0	3.02e+01	0	33	0	230162432	46	5665
2026-01-06 02:58:19.32	193.41	13.56	-35.1	-36.3	29.1	3.02e+01	0	34	0	238026752	46	5651
2026-01-06 02:58:23.36	193.81	13.97	-35.1	-36.3	29.1	3.02e+01	0	33	0	245366784	46	5638
2026-01-06 02:58:27.40	194.22	14.38	-34.8	-36.0	29.3	3.02e+01	0	34	0	253231104	44	6089
2026-01-06 02:58:31.43	194.63	14.80	-34.9	-36.1	29.3	3.02e+01	0	34	0	260571136	44	6148
2026-01-06 02:58:35.47	195.07	15.23	-34.9	-36.1	29.3	3.02e+01	0	34	0	268435456	44	6160
2026-01-06 02:58:39.50	195.51	15.67	-34.7	-35.9	29.4	3.02e+01	0	34	0	275775488	44	6032
2026-01-06 02:58:43.54	195.97	16.11	-34.8	-36.0	29.4	3.02e+01	0	34	0	283115520	44	6071
2026-01-06 02:58:47.58	196.44	16.56	-34.6	-35.8	29.5	3.02e+01	0	34	0	290979840	44	5948
2026-01-06 02:58:51.61	196.93	17.02	-34.7	-35.9	29.5	3.02e+01	0	34	0	298319872	44	6027
2026-01-06 02:58:55.65	197.43	17.48	-34.7	-35.9	29.4	3.02e+01	0	34	0	306184192	44	6022
2026-01-06 02:58:59.69	197.95	17.96	-34.8	-36.0	29.3	3.02e+01	0	34	0	313524224	44	6116
2026-01-06 02:59:03.72	198.49	18.44	-34.5	-35.7	29.7	3.02e+01	0	34	0	321388544	44	5922
2026-01-06 02:59:07.76	199.04	18.93	-34.8	-35.9	29.5	3.02e+01	0	34	0	328728576	44	6063
2026-01-06 02:59:11.80	199.62	19.42	-34.6	-35.8	29.6	3.02e+01	0	34	0	336592896	44	5945
2026-01-06 02:59:15.83	200.21	19.93	-34.9	-36.1	29.4	3.02e+01	0	34	0	343932928	44	6168
2026-01-06 02:59:19.87	200.82	20.44	-34.5	-35.7	29.6	3.02e+01	0	34	0	351272960	44	5914
2026-01-06 02:59:23.91	201.46	20.97	-35.1	-36.3	29.2	3.02e+01	0	34	0	359137280	44	6301
2026-01-06 02:59:27.94	202.11	21.50	-34.9	-36.1	29.3	3.02e+01	0	34	0	366477312	44	6199
2026-01-06 02:59:31.98	202.79	22.04	-34.9	-36.1	29.4	3.02e+01	0	34	0	374341632	44	6191
2026-01-06 02:59:36.01	203.50	22.59	-35.0	-36.2	29.3	3.02e+01	0	34	0	381681664	44	6251
2026-01-06 02:59:40.04	204.23	23.14	-34.8	-36.0	29.4	3.02e+01	0	34	0	389545984	44	6131
2026-01-06 02:59:44.08	204.99	23.71	-35.0	-36.3	29.3	3.02e+01	0	34	0	396886016	44	6286
2026-01-06 02:59:48.11	205.77	24.28	-34.8	-36.0	29.5	3.02e+01	0	34	0	404750336	44	6108
2026-01-06 02:59:52.15	206.59	24.87	-34.9	-36.1	29.4	3.02e+01	0	34	0	412090368	44	6141
2026-01-06 02:59:56.18	207.44	25.46	-35.0	-36.2	29.2	3.02e+01	0	34	0	419430400	44	6257
2026-01-06 03:00:00.22	208.32	26.05	-35.0	-36.2	29.3	3.02e+01	0	34	0	427294720	44	6235
2026-01-06 03:00:04.26	209.24	26.66	-34.9	-36.1	29.4	3.02e+01	0	34	0	434634752	44	6176
2026-01-06 03:00:08.29	210.19	27.27	-35.0	-36.2	29.3	3.02e+01	0	34	0	442499072	44	6247
2026-01-06 03:00:12.33	211.18	27.89	-35.1	-36.3	29.3	3.02e+01	0	34	0	449839104	44	6303
2026-01-06 03:00:16.37	212.21	28.52	-35.0	-36.2	29.3	3.02e+01	0	34	0	457703424	44	6260
2026-01-06 03:00:20.40	213.28	29.15	-34.9	-36.1	29.4	3.02e+01	0	34	0	465043456	44	6195
2026-01-06 03:00:24.44	214.40	29.79	-34.9	-36.1	29.4	3.02e+01	0	34	0	472383488	44	6167
2026-01-06 03:00:28.47	215.56	30.42	-35.1	-36.3	29.3	3.02e+01	0	34	0	480247808	44	6282
2026-01-06 03:00:32.51	216.77	31.07	-35.1	-36.3	29.3	3.02e+01	0	34	0	487587840	44	6335
2026-01-06 03:00:36.55	218.03	31.71	-35.2	-36.4	29.2	3.02e+01	0	34	0	495452160	44	6389
2026-01-06 03:00:40.58	219.34	32.35	-35.2	-36.5	29.2	3.02e+01	0	34	0	502792192	44	6443
2026-01-06 03:00:44.61	220.70	32.99	-35.2	-36.4	29.3	3.02e+01	0	34	0	510656512	44	6366
2026-01-06 03:00:48.65	222.12	33.63	-35.5	-36.7	29.0	3.02e+01	0	34	0	517996544	44	6614
2026-01-06 03:00:52.69	223.60	34.26	-35.4	-36.6	29.0	3.02e+01	0	34	0	525336576	44	6538
2026-01-06 03:00:56.72	225.13	34.88	-35.4	-36.6	29.0	3.02e+01	0	34	0	533200896	44	6538
2026-01-06 03:01:00.76	226.72	35.49	-35.4	-36.6	29.0	3.02e+01	0	34	0	540540928	44	6561
2026-01-06 03:01:04.80	228.38	36.10	-35.3	-36.5	29.1	3.02e+01	0	34	0	548405248	44	6484
2026-01-06 03:01:08.84	230.10	36.68	-35.5	-36.7	29.0	3.02e+01	0	34	0	555745280	44	6601
2026-01-06 03:01:12.87	231.88	37.25	-35.4	-36.6	29.1	3.02e+01	0	34	0	563609600	44	6530
2026-01-06 03:01:16.91	233.72	37.79	-35.3	-36.5	29.1	3.02e+01	0	34	0	570949632	44	6482
2026-01-06 03:01:20.95	235.63	38.32	-35.2	-36.4	29.2	3.02e+01	0	34	0	578289664	44	6359
2026-01-06 03:01:24.99	237.59	38.81	-35.2	-36.4	29.2	3.02e+01	0	34	0	586153984	44	6384
2026-01-06 03:01:29.03	239.62	39.28	-35.0	-36.3	29.3	3.02e+01	0	34	0	593494016	44	6279
2026-01-06 03:01:33.07	241.70	39.71	-34.8	-36.0	29.6	3.02e+01	0	34	0	601358336	44	6086
2026-01-06 03:01:37.11	243.84	40.10	-34.7	-35.9	29.7	3.02e+01	0	34	0	608698368	44	6013
2026-01-06 03:01:41.14	246.02	40.45	-34.7	-35.9	29.7	3.02e+01	0	34	0	616562688	44	6007
2026-01-06 03:01:45.18	248.25	40.76	-34.7	-35.9	29.8	3.02e+01	0	34	0	623902720	44	6020
2026-01-06 03:01:49.22	250.52	41.03	-34.5	-35.7	29.8	3.02e+01	0	34	0	631767040	44	5897
2026-01-06 03:01:53.25	252.82	41.24	-34.7	-35.9	29.6	3.02e+01	0	34	0	639107072	44	6047
2026-01-06 03:01:57.29	255.15	41.41	-34.7	-35.9	29.7	3.02e+01	0	34	0	646447104	44	6030
2026-01-06 03:02:01.33	257.50	41.52	-34.8	-36.0	29.6	3.02e+01	0	34	0	654311424	44	6068
2026-01-06 03:02:05.36	259.86	41.59	-34.7	-35.8	29.6	3.02e+01	0	34	0	661651456	44	5980
2026-01-06 03:02:09.40	262.23	41.60	-34.6	-35.8	29.7	3.02e+01	0	34	0	669515776	44	5972
2026-01-06 03:02:13.44	264.60	41.55	-34.7	-35.9	29.7	3.02e+01	0	34	0	676855808	44	6033
2026-01-06 03:02:17.47	266.95	41.46	-35.2	-36.4	29.2	3.02e+01	0	34	0	684720128	44	6403
2026-01-06 03:02:21.51	269.29	41.31	-34.6	-35.8	29.8	3.02e+01	0	34	0	692060160	44	5955
2026-01-06 03:02:25.54	271.60	41.11	-35.2	-36.4	29.4	3.02e+01	0	34	0	699400192	44	6415
2026-01-06 03:02:29.58	273.88	40.87	-35.0	-36.2	29.4	3.02e+01	0	34	0	707264512	44	6235
2026-01-06 03:02:33.62	276.13	40.57	-34.9	-36.2	29.4	3.02e+01	0	34	0	714604544	44	6206
2026-01-06 03:02:37.65	278.32	40.24	-34.9	-36.1	29.4	3.02e+01	0	34	0	722468864	44	6198
2026-01-06 03:02:41.69	280.47	39.86	-34.8	-36.0	29.6	3.02e+01	0	34	0	729808896	44	6120
2026-01-06 03:02:45.73	282.57	39.45	-35.0	-36.2	29.4	3.02e+01	0	34	0	737673216	44	6256
2026-01-06 03:02:49.77	284.61	39.00	-34.9	-36.1	29.4	3.02e+01	0	34	0	745013248	44	6189
2026-01-06 03:02:53.81	286.60	38.51	-35.0	-36.2	29.4	3.02e+01	0	34	0	752353280	44	6229
2026-01-06 03:02:57.85	288.52	38.00	-35.0	-36.3	29.4	3.02e+01	0	34	0	760217600	44	6298
2026-01-06 03:03:01.88	290.38	37.47	-34.6	-35.8	29.7	3.02e+01	0	34	0	767557632	44	5992
2026-01-06 03:03:05.92	292.18	36.91	-34.5	-35.7	29.9	3.02e+01	0	34	0	775421952	44	5877
2026-01-06 03:03:09.96	293.92	36.33	-34.3	-35.5	29.9	3.02e+01	0	34	0	782761984	44	5780
2026-01-06 03:03:13.99	295.59	35.74	-34.1	-35.3	30.1	3.02e+01	0	34	0	790626304	44	5654
2026-01-06 03:03:18.03	297.20	35.14	-34.0	-35.2	30.3	3.02e+01	0	34	0	797966336	44	5574
2026-01-06 03:03:22.07	298.76	34.52	-33.8	-35.0	30.4	3.02e+01	0	34	0	805830656	42	6107
2026-01-06 03:03:26.11	300.25	33.89	-33.6	-34.8	30.6	3.02e+01	0	34	0	813170688	42	5929
2026-01-06 03:03:30.15	301.69	33.26	-33.2	-34.4	31.0	3.02e+01	0	34	0	820510720	42	5660
2026-01-06 03:03:34.18	303.07	32.63	-33.3	-34.5	30.7	3.02e+01	0	34	0	828375040	42	5746
2026-01-06 03:03:38.21	304.40	31.99	-33.3	-34.5	30.8	3.02e+01	0	34	0	835715072	42	5756
2026-01-06 03:03:42.25	305.67	31.35	-33.3	-34.5	30.8	3.02e+01	0	34	0	843579392	42	5732
2026-01-06 03:03:46.29	306.90	30.71	-33.1	-34.3	30.9	3.02e+01	0	34	0	850919424	42	5628
2026-01-06 03:03:50.32	308.07	30.08	-33.2	-34.3	31.0	3.02e+01	0	34	0	858783744	42	5655
2026-01-06 03:03:54.36	309.20	29.44	-33.5	-34.7	30.5	3.02e+01	0	34	0	866123776	42	5862
2026-01-06 03:03:58.40	310.29	28.81	-33.3	-34.5	30.8	3.02e+01	0	34	0	873463808	42	5728
2026-01-06 03:04:02.43	311.33	28.19	-33.6	-34.8	30.5	3.02e+01	0	34	0	881328128	42	5938
2026-01-06 03:04:06.47	312.34	27.57	-33.6	-34.8	30.5	3.02e+01	0	34	0	888668160	42	5941
2026-01-06 03:04:10.51	313.30	26.96	-33.8	-35.0	30.4	3.02e+01	0	34	0	896532480	42	6112
2026-01-06 03:04:14.55	314.23	26.35	-34.0	-35.2	30.2	3.02e+01	0	34	0	903872512	42	6235
2026-01-06 03:04:18.59	315.13	25.75	-33.9	-35.1	30.3	3.02e+01	0	34	0	911736832	42	6140
2026-01-06 03:04:22.62	315.98	25.16	-34.2	-35.3	30.0	3.02e+01	0	34	0	919076864	42	6331
2026-01-06 03:04:26.66	316.81	24.58	-33.9	-35.1	30.2	3.02e+01	0	34	0	926416896	42	6189
2026-01-06 03:04:30.70	317.61	24.00	-34.0	-35.2	30.1	3.02e+01	0	34	0	934281216	42	6245
2026-01-06 03:04:34.74	318.38	23.44	-33.9	-35.0	30.3	3.02e+01	0	34	0	941621248	42	6121
2026-01-06 03:04:38.78	319.12	22.88	-34.1	-35.3	30.1	3.02e+01	0	34	0	949485568	42	6280
2026-01-06 03:04:42.82	319.84	22.33	-34.2	-35.4	29.9	3.02e+01	0	34	0	956825600	42	6369
2026-01-06 03:04:46.86	320.52	21.79	-34.0	-35.2	30.2	3.02e+01	0	34	0	964689920	42	6230
2026-01-06 03:04:50.90	321.19	21.26	-34.1	-35.2	30.1	3.02e+01	0	34	0	972029952	42	6274
2026-01-06 03:04:54.93	321.83	20.74	-33.8	-35.0	30.3	3.02e+01	0	34	0	979894272	42	6118
2026-01-06 03:04:58.97	322.45	20.22	-33.9	-35.1	30.2	3.02e+01	0	34	0	987234304	42	6140
2026-01-06 03:05:03.01	323.05	19.71	-34.0	-35.2	30.1	3.02e+01	0	34	0	994574336	42	6237
2026-01-06 03:05:07.04	323.63	19.22	-33.8	-35.0	30.1	3.02e+01	0	34	0	1002438656	42	6089
2026-01-06 03:05:11.08	324.19	18.73	-33.9	-35.0	30.2	3.02e+01	0	34	0	1009778688	42	6122
2026-01-06 03:05:15.12	324.74	18.24	-33.7	-34.8	30.3	3.02e+01	0	34	0	1017643008	42	5987
2026-01-06 03:05:19.16	325.26	17.77	-33.8	-35.0	30.2	3.02e+01	0	34	0	1024983040	42	6115
2026-01-06 03:05:23.20	325.77	17.30	-34.0	-35.2	30.1	3.02e+01	0	34	0	1032847360	42	6220
2026-01-06 03:05:27.23	326.27	16.85	-34.0	-35.2	30.0	3.02e+01	0	34	0	1040187392	42	6217
2026-01-06 03:05:31.27	326.75	16.40	-33.8	-35.0	30.1	3.02e+01	0	34	0	1048051712	42	6111
2026-01-06 03:05:35.31	327.21	15.95	-33.6	-34.8	30.4	3.02e+01	0	34	0	1055391744	42	5968
2026-01-06 03:05:39.34	327.66	15.52	-34.0	-35.2	30.0	3.02e+01	0	34	0	1062731776	42	6254
2026-01-06 03:05:43.38	328.10	15.09	-33.9	-35.1	30.1	3.02e+01	0	34	0	1070596096	42	6164
2026-01-06 03:05:47.41	328.52	14.67	-33.9	-35.1	30.0	3.02e+01	0	34	0	1077936128	42	6154
2026-01-06 03:05:51.45	328.94	14.25	-33.9	-35.1	30.0	3.02e+01	0	34	0	1085800448	42	6185
2026-01-06 03:05:55.49	329.34	13.84	-34.4	-35.6	29.7	3.02e+01	0	34	0	1093140480	42	6512
2026-01-06 03:05:59.52	329.73	13.44	-34.4	-35.6	29.6	3.02e+01	0	34	0	1101004800	42	6545
2026-01-06 03:06:03.56	330.11	13.04	-34.4	-35.6	29.5	3.02e+01	0	34	0	1108344832	42	6531
2026-01-06 03:06:07.59	330.48	12.65	-34.4	-35.6	29.5	3.02e+01	0	34	0	1116209152	42	6561
2026-01-06 03:06:11.63	330.84	12.27	-34.2	-35.4	29.7	3.02e+01	0	34	0	1123549184	42	6382
2026-01-06 03:06:15.67	331.19	11.89	-34.2	-35.4	29.7	3.02e+01	0	34	0	1130889216	42	6400
2026-01-06 03:06:19.71	331.53	11.52	-34.4	-35.6	29.5	3.02e+01	0	34	0	1138753536	42	6514
2026-01-06 03:06:23.74	331.86	11.15	-34.7	-35.9	29.2	3.02e+01	0	34	0	1146093568	42	6755
2026-01-06 03:06:27.78	332.19	10.79	-34.7	-36.0	29.2	3.02e+01	0	34	0	1153957888	42	6810
2026-01-06 03:06:31.81	332.50	10.43	-35.1	-45.1	3.5	3.02e+01	0	34	104	1158152192	44	17407
2026-01-06 03:06:35.85	332.81	10.08	-47.4	-63.0	3.5	3.02e+01	0	34	104	1158152192	60	54520
2026-01-06 03:06:39.89	333.12	9.73	-37.8	-48.1	3.6	3.02e+01	0	34	104	1158152192	50	17307
2026-01-06 03:06:43.92	333.41	9.39	-42.8	-53.9	3.4	3.02e+01	0	34	104	1158152192	60	19117
2026-01-06 03:06:47.95	333.70	9.05	-37.1	-47.4	4.1	3.02e+01	0	34	104	1158152192	50	16071
2026-01-06 03:06:51.99	333.98	8.72	-36.0	-46.1	4.1	3.02e+01	0	34	104	1158152192	46	17438
2026-01-06 03:06:56.03	334.25	8.39	-43.0	-54.3	3.5	3.02e+01	0	34	104	1158152192	58	22318
2026-01-06 03:07:00.07	334.52	8.07	-38.3	-48.7	3.5	3.02e+01	0	34	104	1158152192	50	18565
2026-01-06 03:07:04.11	334.78	7.74	-47.9	-65.6	3.5	3.02e+01	0	34	104	1158152192	60	73309
2026-01-06 03:07:08.15	335.04	7.43	-36.1	-46.4	3.5	3.02e+01	0	34	104	1158152192	48	16029
2026-01-06 03:07:12.18	335.29	7.12	-47.7	-65.0	3.5	3.02e+01	0	34	104	1158152192	60	68200
2026-01-06 03:07:16.22	335.54	6.81	-36.2	-46.5	3.5	3.02e+01	0	34	104	1158152192	48	16171
2026-01-06 03:07:20.26	335.78	6.50	-36.8	-47.1	3.5	3.02e+01	0	34	104	1158152192	50	15578
2026-01-06 03:07:24.29	336.01	6.20	-38.7	-49.2	3.5	3.02e+01	0	34	104	1158152192	52	17515
2026-01-06 03:07:28.33	336.25	5.90	-40.4	-51.4	3.5	3.02e+01	0	34	104	1158152192	56	18013
2026-01-06 03:07:32.37	336.47	5.61	-39.9	-50.8	3.5	3.02e+01	0	34	104	1158152192	54	18955
2026-01-06 03:07:36.41	336.69	5.32	-39.8	-50.9	3.5	3.02e+01	0	34	104	1158152192	54	19003
2026-01-06 03:07:40.44	336.91	5.03	-41.6	-53.7	3.5	3.02e+01	0	34	104	1158152192	60	18654
2026-01-06 03:07:44.48	337.12	4.74	-42.3	-54.7	3.5	3.02e+01	0	34	104	1158152192	58	23461
2026-01-06 03:07:48.51	337.33	4.46	-43.8	-60.8	3.5	3.02e+01	0	34	104	1158152192	60	42051
2026-01-06 03:07:52.55	337.54	4.18	-43.7	-59.6	3.5	3.02e+01	0	34	104	1158152192	60	36750
2026-01-06 03:07:56.58	337.74	3.91	-43.8	-61.3	3.5	3.02e+01	0	34	104	1158152192	60	44818
2026-01-06 03:08:00.62	337.94	3.64	-43.9	-61.6	3.5	3.02e+01	0	34	104	1158152192	60	46372
2026-01-06 03:08:04.66	338.13	3.37	-43.9	-61.8	3.5	3.02e+01	0	34	104	1158152192	60	47386
2026-01-06 03:08:08.69	338.32	3.10	-44.0	-61.9	3.5	3.02e+01	0	34	104	1158152192	60	47635
2026-01-06 03:08:12.73	338.51	2.83	-48.5	-66.3	3.5	3.02e+01	0	34	104	1158152192	60	79700
2026-01-06 03:08:16.77	338.69	2.57	-48.9	-66.8	3.5	3.02e+01	0	34	104	1158152192	60	84161
2026-01-06 03:08:20.81	338.88	2.31	-48.6	-66.9	3.5	3.02e+01	0	34	104	1158152192	60	84705
2026-01-06 03:08:24.85	339.05	2.05	-48.2	-66.8	3.5	3.02e+01	0	34	104	1158152192	60	83754
2026-01-06 03:08:28.89	339.23	1.80	-48.9	-66.8	3.5	3.02e+01	0	34	104	1158152192	60	83779
2026-01-06 03:08:32.92	339.40	1.55	-48.9	-66.8	3.5	3.02e+01	0	34	104	1158152192	60	83900
2026-01-06 03:08:36.95	339.57	1.30	-48.8	-66.7	3.5	3.02e+01	0	34	104	1158152192	60	83351
2026-01-06 03:08:40.99	339.74	1.05	-48.9	-66.7	3.5	3.02e+01	0	34	104	1158152192	60	83421
2026-01-06 03:08:45.03	339.90	0.80	-48.9	-66.8	3.5	3.02e+01	0	34	104	1158152192	60	83902
2026-01-06 03:08:49.07	340.06	0.56	-48.8	-66.8	3.5	3.02e+01	0	34	104	1158152192	60	83720
2026-01-06 03:08:53.11	340.22	0.32	-48.8	-66.7	3.5	3.02e+01	0	34	104	1158152192	60	83483
2026-01-06 03:08:57.16	340.38	0.08	-48.8	-66.7	3.5	3.02e+01	0	34	104	1158152192	60	83164

#Closed at: 2026-01-06 03:08:59
#Recorded file [1158 MB]: D:/lorett/data/35029_260106_145521.dat