passes_logs/2026/01/06/R4.6S_Anadyr/R4.6S_Anadyr__20260106_152346_NOAA_21_JPSS-2_rec.log

#Pass ID: 20260106_152346_NOAA 21 (JPSS-2)
#Satellite: NOAA 21 (JPSS-2)
#Configuration: NOAA-21
#almurnet v.1.7.20251203
#Start time: 2026-01-06 15:23:48

#Version: 2.2.20231116
#Station: R4.6S_Anadyr
#Location: 177.4865 lon 64.73178 lat
#TLE: 1 54234U 22150A   26005.42670836  .00000142  00000+0  88292-4 0  9996
#TLE: 2 54234  98.7490 306.4427 0001045 340.6622  19.4514 14.19532269163451

#Time	Az	El	Level	Level2	SNR	BER	BlckErr	Temp	State	Recorded	gain1	gain2
2026-01-06 15:23:48.75	22.14	0.15	-48.7	-63.6	3.5	1.51e+00	0	33	0	0	60	54583
2026-01-06 15:23:52.79	22.08	0.39	-48.6	-61.5	3.5	1.51e+00	0	34	104	0	60	41617
2026-01-06 15:23:56.83	22.02	0.63	-48.6	-61.4	3.5	1.52e+00	0	34	104	0	60	41206
2026-01-06 15:24:00.87	21.96	0.87	-48.2	-61.0	3.5	1.52e+00	0	34	104	0	60	39309
2026-01-06 15:24:04.91	21.90	1.12	-47.2	-60.0	3.5	1.52e+00	0	35	104	0	60	34959
2026-01-06 15:24:08.94	21.84	1.37	-47.2	-59.9	3.5	1.52e+00	0	35	104	0	60	34769
2026-01-06 15:24:12.98	21.77	1.62	-47.1	-59.6	3.5	1.52e+00	0	35	104	0	60	33362
2026-01-06 15:24:17.02	21.71	1.88	-47.1	-59.6	3.5	1.51e+00	0	35	104	0	60	33471
2026-01-06 15:24:21.06	21.64	2.13	-47.1	-60.0	3.5	1.52e+00	0	35	104	0	60	34960
2026-01-06 15:24:25.10	21.57	2.39	-47.1	-59.6	3.5	1.52e+00	0	35	104	0	60	33645
2026-01-06 15:24:29.13	21.50	2.65	-47.0	-58.7	3.5	1.51e+00	0	35	104	0	60	30096
2026-01-06 15:24:33.17	21.43	2.91	-47.1	-59.2	3.5	1.52e+00	0	35	104	0	60	32109
2026-01-06 15:24:37.21	21.35	3.18	-46.6	-55.4	4.7	1.34e+00	123	35	104	0	60	20580
2026-01-06 15:24:41.25	21.28	3.44	-44.9	-48.8	10.1	7.69e-03	123	35	0	7340032	60	9684
2026-01-06 15:24:45.29	21.20	3.71	-44.7	-48.5	10.3	3.93e-03	122	35	0	19922944	60	9368
2026-01-06 15:24:49.32	21.12	3.99	-47.0	-58.9	3.6	1.51e+00	0	35	104	23068672	60	30777
2026-01-06 15:24:53.36	21.04	4.26	-37.2	-38.3	20.7	0.00e+00	122	35	0	28311552	48	5775
2026-01-06 15:24:57.40	20.96	4.54	-37.1	-38.2	20.8	0.00e+00	122	35	0	40894464	48	5711
2026-01-06 15:25:01.44	20.87	4.82	-36.8	-37.9	21.2	0.00e+00	122	35	0	53477376	48	5509
2026-01-06 15:25:05.47	20.79	5.10	-36.8	-37.8	21.2	0.00e+00	120	35	0	66060288	46	6133
2026-01-06 15:25:09.51	20.70	5.39	-36.6	-37.7	21.4	0.00e+00	123	35	0	78643200	46	6041
2026-01-06 15:25:13.55	20.61	5.68	-36.6	-37.6	21.5	0.00e+00	123	35	0	91226112	46	5972
2026-01-06 15:25:17.59	20.51	5.97	-36.4	-37.4	21.7	0.00e+00	123	35	0	103809024	46	5857
2026-01-06 15:25:21.63	20.42	6.27	-36.3	-37.3	21.9	0.00e+00	123	35	0	116391936	46	5771
2026-01-06 15:25:25.67	20.32	6.57	-36.2	-37.2	21.9	0.00e+00	120	35	0	128974848	46	5711
2026-01-06 15:25:29.71	20.22	6.87	-36.2	-37.3	21.9	0.00e+00	123	35	0	141557760	46	5743
2026-01-06 15:25:33.74	20.12	7.18	-36.2	-37.2	22.0	0.00e+00	123	35	0	154140672	46	5690
2026-01-06 15:25:37.78	20.02	7.49	-36.0	-37.0	22.3	0.00e+00	123	35	0	166723584	46	5591
2026-01-06 15:25:41.82	19.91	7.80	-35.9	-36.9	22.3	0.00e+00	123	35	0	179306496	46	5529
2026-01-06 15:25:45.86	19.80	8.12	-35.7	-36.7	22.5	0.00e+00	122	35	0	191889408	44	6006
2026-01-06 15:25:49.89	19.69	8.44	-35.5	-36.5	22.7	0.00e+00	118	35	0	204472320	44	5919
2026-01-06 15:25:53.93	19.57	8.77	-35.4	-36.4	22.8	0.00e+00	123	35	0	217055232	44	5831
2026-01-06 15:25:57.97	19.45	9.10	-35.2	-36.2	23.0	0.00e+00	123	36	0	229638144	44	5689
2026-01-06 15:26:02.01	19.33	9.43	-35.4	-36.4	22.8	0.00e+00	123	35	0	242221056	44	5797
2026-01-06 15:26:06.04	19.20	9.77	-35.3	-36.3	22.9	0.00e+00	123	35	0	254803968	44	5751
2026-01-06 15:26:10.08	19.07	10.11	-35.3	-36.2	23.0	0.00e+00	123	35	0	267386880	44	5722
2026-01-06 15:26:14.12	18.94	10.46	-34.7	-35.6	23.4	0.00e+00	122	35	0	279969792	42	5988
2026-01-06 15:26:18.16	18.81	10.81	-34.7	-35.7	23.5	0.00e+00	123	35	0	292552704	42	6025
2026-01-06 15:26:22.20	18.67	11.17	-34.6	-35.5	23.6	0.00e+00	123	36	0	305135616	42	5894
2026-01-06 15:26:26.24	18.52	11.53	-34.5	-35.4	23.8	0.00e+00	120	36	0	317718528	42	5842
2026-01-06 15:26:30.28	18.38	11.90	-34.4	-35.3	23.9	0.00e+00	123	35	0	330301440	42	5743
2026-01-06 15:26:34.32	18.23	12.27	-34.4	-35.3	23.9	0.00e+00	121	35	0	342884352	42	5748
2026-01-06 15:26:38.35	18.07	12.65	-34.2	-35.1	24.1	0.00e+00	122	36	0	355467264	42	5611
2026-01-06 15:26:42.39	17.91	13.03	-34.2	-35.1	24.1	0.00e+00	123	35	0	369098752	42	5654
2026-01-06 15:26:46.43	17.75	13.42	-34.1	-35.0	24.2	0.00e+00	123	36	0	381681664	42	5535
2026-01-06 15:26:50.47	17.58	13.82	-34.1	-35.1	24.1	0.00e+00	123	36	0	393216000	42	5601
2026-01-06 15:26:54.51	17.40	14.22	-34.1	-35.0	24.1	0.00e+00	123	36	0	406847488	42	5586
2026-01-06 15:26:58.54	17.22	14.63	-34.2	-35.1	24.0	0.00e+00	123	36	0	419430400	42	5624
2026-01-06 15:27:02.58	17.03	15.05	-34.3	-35.2	24.0	0.00e+00	123	36	0	432013312	42	5692
2026-01-06 15:27:06.62	16.84	15.47	-34.1	-35.0	24.0	0.00e+00	122	36	0	444596224	42	5577
2026-01-06 15:27:10.65	16.65	15.90	-34.3	-35.2	23.9	0.00e+00	120	36	0	457179136	42	5725
2026-01-06 15:27:14.69	16.44	16.33	-34.2	-35.1	24.1	0.00e+00	120	35	0	469762048	42	5626
2026-01-06 15:27:18.73	16.23	16.78	-34.3	-35.2	24.0	0.00e+00	120	35	0	482344960	42	5714
2026-01-06 15:27:22.77	16.02	17.23	-34.3	-35.2	24.0	0.00e+00	123	36	0	494927872	42	5714
2026-01-06 15:27:26.81	15.79	17.69	-34.3	-35.3	24.1	0.00e+00	123	35	0	507510784	42	5728
2026-01-06 15:27:30.84	15.56	18.16	-34.2	-35.1	24.2	0.00e+00	120	36	0	520093696	42	5601
2026-01-06 15:27:34.88	15.32	18.64	-34.2	-35.1	24.1	0.00e+00	122	36	0	532676608	42	5627
2026-01-06 15:27:38.92	15.07	19.12	-34.2	-35.2	24.0	0.00e+00	123	36	0	545259520	42	5661
2026-01-06 15:27:42.96	14.82	19.62	-34.1	-35.0	24.2	0.00e+00	123	36	0	557842432	42	5543
2026-01-06 15:27:47.00	14.55	20.12	-34.1	-35.0	24.0	0.00e+00	122	36	0	570425344	42	5549
2026-01-06 15:27:51.04	14.28	20.64	-33.7	-34.6	24.3	0.00e+00	122	36	0	583008256	40	5965
2026-01-06 15:27:55.07	13.99	21.16	-33.8	-34.7	24.4	0.00e+00	122	36	0	595591168	40	6034
2026-01-06 15:27:59.11	13.70	21.69	-33.3	-34.1	24.9	0.00e+00	123	36	0	608174080	40	5648
2026-01-06 15:28:03.15	13.39	22.24	-33.0	-33.8	25.1	0.00e+00	123	36	0	620756992	40	5464
2026-01-06 15:28:07.18	13.08	22.79	-32.7	-33.6	25.4	0.00e+00	123	36	0	633339904	38	5953
2026-01-06 15:28:11.22	12.75	23.36	-32.8	-33.6	25.2	0.00e+00	122	36	0	645922816	38	5967
2026-01-06 15:28:15.26	12.40	23.94	-32.7	-33.5	25.2	0.00e+00	123	36	0	658505728	38	5910
2026-01-06 15:28:19.30	12.05	24.53	-32.9	-33.7	25.1	0.00e+00	123	36	0	671088640	38	6059
2026-01-06 15:28:23.34	11.68	25.13	-33.2	-34.0	25.0	0.00e+00	122	36	0	683671552	38	6255
2026-01-06 15:28:27.37	11.29	25.74	-33.5	-34.3	24.7	0.00e+00	123	36	0	696254464	38	6473
2026-01-06 15:28:31.41	10.89	26.37	-33.7	-34.6	24.6	0.00e+00	123	36	0	708837376	38	6686
2026-01-06 15:28:35.45	10.47	27.01	-34.3	-35.2	24.1	0.00e+00	123	36	0	721420288	40	6408
2026-01-06 15:28:39.48	10.04	27.67	-34.3	-35.2	24.2	0.00e+00	122	36	0	734003200	40	6423
2026-01-06 15:28:43.52	9.58	28.34	-34.3	-35.2	24.2	0.00e+00	123	36	0	747634688	40	6421
2026-01-06 15:28:47.56	9.10	29.02	-34.4	-35.3	24.2	0.00e+00	123	36	0	759169024	40	6435
2026-01-06 15:28:51.59	8.61	29.72	-34.0	-34.9	24.5	0.00e+00	123	36	0	772800512	40	6190
2026-01-06 15:28:55.63	8.09	30.43	-33.7	-34.6	24.7	0.00e+00	122	36	0	785383424	40	5948
2026-01-06 15:28:59.67	7.54	31.16	-33.1	-34.0	25.3	0.00e+00	122	36	0	797966336	40	5557
2026-01-06 15:29:03.71	6.97	31.90	-33.4	-34.3	24.9	0.00e+00	123	36	0	810549248	40	5735
2026-01-06 15:29:07.74	6.37	32.66	-33.8	-34.7	24.6	0.00e+00	123	36	0	823132160	40	6020
2026-01-06 15:29:11.78	5.75	33.43	-34.0	-34.9	24.6	0.00e+00	123	36	0	835715072	40	6136
2026-01-06 15:29:15.82	5.09	34.22	-34.2	-35.1	24.3	0.00e+00	123	36	0	848297984	40	6337
2026-01-06 15:29:19.86	4.39	35.03	-34.9	-35.8	23.9	0.00e+00	123	36	0	860880896	42	6122
2026-01-06 15:29:23.90	3.66	35.85	-35.7	-36.6	23.2	0.00e+00	122	36	0	873463808	42	6693
2026-01-06 15:29:27.94	2.90	36.69	-35.8	-36.7	23.1	0.00e+00	122	36	0	886046720	44	6053
2026-01-06 15:29:31.98	2.09	37.54	-35.6	-36.6	23.2	0.00e+00	123	36	0	898629632	44	5954
2026-01-06 15:29:36.02	1.23	38.41	-35.7	-36.7	23.1	0.00e+00	122	36	0	911212544	44	6021
2026-01-06 15:29:40.06	0.33	39.30	-35.9	-36.9	22.9	0.00e+00	122	36	0	923795456	44	6179
2026-01-06 15:29:44.09	359.38	40.19	-35.6	-36.6	23.3	0.00e+00	122	36	0	936378368	44	5929
2026-01-06 15:29:48.13	358.37	41.10	-34.9	-35.8	23.7	0.00e+00	123	36	0	948961280	42	6086
2026-01-06 15:29:52.17	357.30	42.03	-36.1	-37.1	22.7	0.00e+00	122	36	0	961544192	44	6349
2026-01-06 15:29:56.20	356.16	42.96	-37.0	-38.1	22.0	0.00e+00	123	36	0	974127104	46	6305
2026-01-06 15:30:00.24	354.96	43.91	-36.8	-37.8	22.1	0.00e+00	122	36	0	986710016	46	6117
2026-01-06 15:30:04.27	353.68	44.86	-36.3	-37.3	22.7	0.00e+00	123	36	0	999292928	46	5775
2026-01-06 15:30:08.31	352.33	45.82	-35.7	-36.6	23.2	0.00e+00	123	36	0	1011875840	44	5972
2026-01-06 15:30:12.35	350.88	46.78	-35.7	-36.6	23.2	0.00e+00	120	36	0	1024458752	44	5986
2026-01-06 15:30:16.39	349.34	47.75	-35.9	-36.9	22.6	0.00e+00	122	36	0	1037041664	44	6192
2026-01-06 15:30:20.44	347.70	48.71	-36.5	-37.6	22.0	0.00e+00	123	36	0	1049624576	44	6652
2026-01-06 15:30:24.47	345.97	49.67	-35.9	-36.8	22.8	0.00e+00	122	36	0	1062207488	44	6133
2026-01-06 15:30:28.51	344.11	50.61	-36.0	-37.0	22.8	0.00e+00	120	36	0	1074790400	44	6251
2026-01-06 15:30:32.54	342.14	51.54	-35.9	-36.9	23.0	0.00e+00	123	36	0	1087373312	44	6205
2026-01-06 15:30:36.58	340.04	52.45	-35.0	-35.9	23.8	0.00e+00	122	36	0	1099956224	44	5507
2026-01-06 15:30:40.62	337.80	53.34	-35.3	-36.3	23.4	0.00e+00	123	36	0	1113587712	44	5742
2026-01-06 15:30:44.65	335.43	54.19	-35.0	-36.0	23.5	0.00e+00	123	36	0	1125122048	42	6256
2026-01-06 15:30:48.68	332.92	55.00	-34.8	-35.8	23.4	0.00e+00	122	36	0	1138753536	42	6097
2026-01-06 15:30:52.72	330.26	55.77	-34.6	-35.5	24.0	0.00e+00	123	36	0	1151336448	42	5888
2026-01-06 15:30:56.76	327.45	56.48	-33.8	-34.6	24.7	0.00e+00	123	36	0	1163919360	42	5341
2026-01-06 15:31:00.80	324.50	57.13	-33.1	-33.9	25.1	0.00e+00	123	36	0	1176502272	40	5515
2026-01-06 15:31:04.84	321.42	57.71	-33.1	-34.0	25.0	0.00e+00	122	36	0	1189085184	40	5542
2026-01-06 15:31:08.87	318.21	58.22	-33.5	-34.4	24.5	0.00e+00	122	36	0	1201668096	40	5856
2026-01-06 15:31:12.91	314.88	58.64	-33.6	-34.5	24.8	0.00e+00	122	36	0	1214251008	40	5868
2026-01-06 15:31:16.95	311.46	58.97	-33.4	-34.3	24.4	0.00e+00	123	36	0	1226833920	40	5763
2026-01-06 15:31:20.99	307.96	59.20	-33.6	-34.6	23.9	0.00e+00	122	36	0	1239416832	40	5948
2026-01-06 15:31:25.03	304.41	59.34	-33.8	-34.7	24.3	0.00e+00	120	36	0	1251999744	40	6045
2026-01-06 15:31:29.06	300.85	59.37	-32.8	-33.7	25.2	0.00e+00	122	36	0	1264582656	40	5347
2026-01-06 15:31:33.10	297.28	59.31	-32.4	-33.3	25.3	0.00e+00	122	36	0	1277165568	38	5726
2026-01-06 15:31:37.14	293.74	59.14	-33.3	-34.2	24.9	0.00e+00	123	36	0	1289748480	38	6409
2026-01-06 15:31:41.18	290.26	58.87	-33.0	-33.8	25.3	0.00e+00	122	36	0	1302331392	40	5465
2026-01-06 15:31:45.22	286.87	58.51	-33.6	-34.5	24.3	0.00e+00	122	36	0	1314914304	40	5907
2026-01-06 15:31:49.26	283.57	58.06	-33.6	-34.5	24.2	0.00e+00	123	36	0	1327497216	40	5920
2026-01-06 15:31:53.29	280.40	57.53	-33.7	-34.6	24.8	0.00e+00	120	36	0	1340080128	40	5961
2026-01-06 15:31:57.33	277.35	56.93	-33.8	-34.7	24.6	0.00e+00	123	36	0	1352663040	40	6061
2026-01-06 15:32:01.37	274.45	56.26	-34.1	-35.0	24.3	0.00e+00	123	36	0	1365245952	40	6220
2026-01-06 15:32:05.40	271.69	55.52	-34.9	-35.8	23.9	0.00e+00	123	36	0	1377828864	42	6126
2026-01-06 15:32:09.44	269.07	54.74	-33.6	-34.5	24.8	0.00e+00	120	36	0	1390411776	40	5878
2026-01-06 15:32:13.48	266.60	53.91	-35.1	-36.1	23.2	0.00e+00	120	36	0	1402994688	42	6291
2026-01-06 15:32:17.51	264.27	53.05	-35.7	-36.7	22.7	0.00e+00	120	36	0	1415577600	44	6028
2026-01-06 15:32:21.55	262.07	52.15	-34.9	-35.9	23.5	0.00e+00	120	36	0	1428160512	44	5471
2026-01-06 15:32:25.59	260.01	51.23	-36.5	-37.6	22.4	0.00e+00	122	36	0	1440743424	44	6675
2026-01-06 15:32:29.63	258.07	50.29	-36.3	-37.4	22.1	0.00e+00	123	36	0	1453326336	46	5849
2026-01-06 15:32:33.66	256.25	49.34	-35.6	-36.5	23.3	0.00e+00	120	36	0	1465909248	44	5878
2026-01-06 15:32:37.70	254.54	48.38	-36.9	-38.0	21.8	0.00e+00	123	36	0	1478492160	48	5577
2026-01-06 15:32:41.74	252.93	47.41	-35.5	-36.5	23.1	0.00e+00	122	36	0	1491075072	44	5862
2026-01-06 15:32:45.78	251.42	46.45	-37.6	-38.7	21.1	0.00e+00	122	36	0	1504706560	46	6798
2026-01-06 15:32:49.81	250.01	45.48	-35.3	-36.2	23.5	0.00e+00	123	36	0	1516240896	44	5701
2026-01-06 15:32:53.85	248.67	44.52	-36.1	-37.1	22.8	0.00e+00	123	36	0	1529872384	44	6333
2026-01-06 15:32:57.89	247.42	43.57	-36.8	-37.9	22.1	0.00e+00	122	36	0	1542455296	46	6153
2026-01-06 15:33:01.92	246.24	42.62	-35.8	-36.8	22.9	0.00e+00	123	36	0	1555038208	44	6085
2026-01-06 15:33:05.96	245.12	41.69	-38.3	-39.5	20.1	0.00e+00	122	36	0	1567621120	48	6631
2026-01-06 15:33:10.00	244.07	40.77	-36.0	-37.0	23.0	0.00e+00	123	36	0	1580204032	46	5534
2026-01-06 15:33:14.05	243.07	39.85	-36.8	-37.8	22.3	0.00e+00	123	36	0	1592786944	46	6100
2026-01-06 15:33:18.08	242.14	38.96	-36.8	-37.9	22.3	0.00e+00	120	36	0	1605369856	46	6137
2026-01-06 15:33:22.12	241.25	38.08	-35.1	-36.0	23.4	0.00e+00	122	36	0	1617952768	44	5577
2026-01-06 15:33:26.15	240.41	37.21	-35.5	-36.4	23.4	0.00e+00	123	36	0	1630535680	44	5839
2026-01-06 15:33:30.18	239.61	36.36	-35.6	-36.6	23.3	0.00e+00	123	36	0	1643118592	44	5934
2026-01-06 15:33:34.22	238.85	35.53	-35.0	-35.9	23.6	0.00e+00	123	36	0	1655701504	44	5522
2026-01-06 15:33:38.26	238.13	34.71	-34.2	-35.0	24.4	0.00e+00	120	36	0	1668284416	42	5589
2026-01-06 15:33:42.30	237.45	33.90	-34.5	-35.4	24.0	0.00e+00	122	36	0	1680867328	42	5849
2026-01-06 15:33:46.33	236.80	33.12	-34.4	-35.3	24.2	0.00e+00	123	36	0	1693450240	42	5726
2026-01-06 15:33:50.37	236.18	32.34	-33.9	-34.8	24.6	0.00e+00	122	36	0	1706033152	42	5441
2026-01-06 15:33:54.41	235.59	31.59	-34.4	-35.3	24.2	0.00e+00	120	36	0	1718616064	42	5773
2026-01-06 15:33:58.45	235.02	30.85	-34.2	-35.1	24.4	0.00e+00	122	36	0	1731198976	42	5621
2026-01-06 15:34:02.48	234.49	30.12	-34.3	-35.3	24.0	0.00e+00	120	36	0	1743781888	42	5733
2026-01-06 15:34:06.52	233.97	29.41	-34.0	-35.0	24.0	0.00e+00	122	36	0	1756364800	42	5549
2026-01-06 15:34:10.55	233.48	28.72	-34.0	-34.9	24.3	0.00e+00	123	36	0	1768947712	42	5511
2026-01-06 15:34:14.59	233.01	28.04	-33.6	-34.5	24.8	0.00e+00	120	36	0	1781530624	40	5908
2026-01-06 15:34:18.63	232.56	27.37	-33.6	-34.5	24.8	0.00e+00	121	36	0	1794113536	40	5911
2026-01-06 15:34:22.67	232.12	26.72	-33.4	-34.2	25.0	0.00e+00	123	36	0	1806696448	40	5720
2026-01-06 15:34:26.70	231.71	26.08	-33.7	-34.6	24.8	0.00e+00	122	36	0	1819279360	40	5931
2026-01-06 15:34:30.74	231.31	25.46	-33.6	-34.5	24.8	0.00e+00	122	36	0	1831862272	40	5873
2026-01-06 15:34:34.78	230.93	24.84	-33.4	-34.3	24.8	0.00e+00	120	36	0	1844445184	40	5766
2026-01-06 15:34:38.82	230.56	24.24	-33.4	-34.2	24.7	0.00e+00	123	36	0	1857028096	40	5713
2026-01-06 15:34:42.86	230.21	23.65	-33.2	-34.1	24.8	0.00e+00	122	36	0	1869611008	40	5603
2026-01-06 15:34:46.90	229.87	23.08	-33.2	-34.1	24.9	0.00e+00	123	36	0	1882193920	40	5612
2026-01-06 15:34:50.94	229.54	22.51	-33.4	-34.3	24.8	0.00e+00	120	36	0	1895825408	40	5759
2026-01-06 15:34:54.98	229.22	21.96	-33.7	-34.6	24.6	0.00e+00	122	36	0	1908408320	40	5962
2026-01-06 15:34:59.01	228.92	21.42	-33.7	-34.6	24.6	0.00e+00	120	36	0	1919942656	40	5988
2026-01-06 15:35:03.05	228.63	20.89	-33.6	-34.5	24.8	0.00e+00	122	36	0	1933574144	40	5876
2026-01-06 15:35:07.09	228.34	20.36	-33.5	-34.4	24.8	0.00e+00	123	36	0	1946157056	40	5830
2026-01-06 15:35:11.13	228.07	19.85	-33.6	-34.5	24.5	0.00e+00	122	36	0	1958739968	40	5908
2026-01-06 15:35:15.17	227.80	19.35	-33.6	-34.4	24.5	0.00e+00	123	36	0	1971322880	40	5854
2026-01-06 15:35:19.20	227.55	18.86	-33.6	-34.5	24.3	0.00e+00	123	36	0	1983905792	40	5884
2026-01-06 15:35:23.24	227.30	18.37	-33.7	-34.6	24.2	0.00e+00	122	36	0	1996488704	40	5965
2026-01-06 15:35:27.24	227.07	17.90	-33.7	-34.6	24.4	0.00e+00	123	36	0	2009071616	40	5934
2026-01-06 15:35:31.28	226.83	17.44	-33.7	-34.5	24.5	0.00e+00	123	36	0	2021654528	40	5904
2026-01-06 15:35:35.32	226.61	16.98	-33.8	-34.7	24.4	0.00e+00	123	36	0	2034237440	40	6002
2026-01-06 15:35:39.36	226.39	16.53	-33.9	-34.8	24.3	0.00e+00	120	36	0	2046820352	40	6126
2026-01-06 15:35:43.39	226.18	16.08	-34.1	-35.0	24.2	0.00e+00	123	36	0	2059403264	40	6276
2026-01-06 15:35:47.43	225.98	15.65	-34.5	-35.4	24.0	0.00e+00	122	36	0	2071986176	40	6520
2026-01-06 15:35:51.47	225.78	15.22	-34.3	-35.2	24.0	0.00e+00	120	36	0	2084569088	40	6421
2026-01-06 15:35:55.50	225.59	14.80	-34.4	-35.3	24.0	0.00e+00	123	36	0	2097152000	40	6458
2026-01-06 15:35:59.54	225.40	14.39	-34.3	-35.2	24.0	0.00e+00	122	36	0	2109734912	40	6401
2026-01-06 15:36:03.58	225.22	13.98	-34.2	-35.1	24.0	0.00e+00	122	36	0	2122317824	40	6296
2026-01-06 15:36:07.61	225.05	13.58	-34.2	-35.1	23.9	0.00e+00	123	36	0	2134900736	40	6327
2026-01-06 15:36:11.64	224.88	13.18	-34.2	-35.1	23.9	0.00e+00	123	36	0	2147483648	40	6342
2026-01-06 15:36:15.67	224.71	12.79	-34.3	-35.2	23.9	0.00e+00	123	36	0	2160066560	40	6414
2026-01-06 15:36:19.70	224.55	12.41	-34.4	-35.3	23.8	0.00e+00	123	36	0	2172649472	40	6456
2026-01-06 15:36:23.74	224.39	12.03	-34.5	-35.5	23.7	0.00e+00	123	36	0	2185232384	40	6585
2026-01-06 15:36:27.78	224.24	11.66	-34.6	-35.5	23.7	0.00e+00	122	36	0	2197815296	40	6597
2026-01-06 15:36:31.81	224.09	11.30	-34.7	-35.6	23.6	0.00e+00	122	36	0	2210398208	40	6680
2026-01-06 15:36:35.85	223.95	10.94	-34.8	-35.8	23.4	0.00e+00	123	36	0	2222981120	42	6078
2026-01-06 15:36:39.89	223.80	10.58	-35.1	-36.1	23.2	0.00e+00	121	36	0	2235564032	42	6278
2026-01-06 15:36:43.92	223.67	10.23	-35.1	-36.1	23.1	0.00e+00	121	36	0	2248146944	42	6294
2026-01-06 15:36:47.96	223.53	9.88	-35.5	-36.4	22.9	0.00e+00	123	36	0	2260729856	42	6545
2026-01-06 15:36:52.00	223.40	9.54	-35.6	-36.6	22.7	0.00e+00	123	36	0	2273312768	42	6704
2026-01-06 15:36:56.04	223.28	9.20	-35.7	-36.6	22.6	0.00e+00	123	36	0	2285895680	42	6715
2026-01-06 15:37:00.08	223.15	8.87	-35.8	-36.8	22.5	0.00e+00	121	36	0	2298478592	44	6107
2026-01-06 15:37:04.11	223.03	8.54	-36.1	-37.1	22.3	0.00e+00	123	36	0	2311061504	44	6298
2026-01-06 15:37:08.15	222.91	8.21	-36.2	-37.2	22.1	0.00e+00	123	36	0	2324692992	44	6417
2026-01-06 15:37:12.19	222.80	7.89	-36.4	-37.5	21.9	0.00e+00	123	36	0	2337275904	44	6579
2026-01-06 15:37:16.22	222.69	7.58	-36.6	-37.7	21.6	0.00e+00	123	36	0	2349858816	44	6744
2026-01-06 15:37:20.27	222.58	7.26	-36.9	-37.9	21.4	0.00e+00	123	36	0	2362441728	46	6201
2026-01-06 15:37:24.30	222.47	6.95	-37.2	-38.3	20.9	0.00e+00	123	36	0	2375024640	46	6465
2026-01-06 15:37:28.34	222.36	6.65	-37.3	-38.5	20.8	0.00e+00	122	36	0	2387607552	46	6587
2026-01-06 15:37:32.38	222.26	6.35	-37.5	-38.6	20.6	0.00e+00	122	36	0	2400190464	46	6721
2026-01-06 15:37:36.42	222.16	6.05	-37.7	-38.9	20.3	0.00e+00	123	36	0	2412773376	46	6947
2026-01-06 15:37:40.45	222.07	5.75	-37.9	-39.2	20.0	0.00e+00	122	36	0	2425356288	48	6368
2026-01-06 15:37:44.49	221.97	5.46	-38.1	-39.4	19.7	0.00e+00	123	36	0	2437939200	48	6517
2026-01-06 15:37:48.53	221.88	5.17	-38.2	-39.4	19.6	0.00e+00	123	36	0	2450522112	48	6563
2026-01-06 15:37:52.57	221.79	4.88	-38.4	-39.7	19.4	0.00e+00	123	36	0	2463105024	48	6780
2026-01-06 15:37:56.61	221.70	4.60	-38.5	-39.9	19.0	0.00e+00	123	35	0	2475687936	48	6911
2026-01-06 15:38:00.65	221.61	4.32	-38.5	-39.8	19.0	0.00e+00	123	36	0	2488270848	48	6871
2026-01-06 15:38:04.68	221.52	4.04	-38.6	-39.9	18.9	0.00e+00	123	36	0	2500853760	50	6179
2026-01-06 15:38:08.72	221.44	3.77	-39.1	-40.5	18.3	0.00e+00	123	36	0	2513436672	50	6616
2026-01-06 15:38:12.76	221.36	3.49	-39.1	-40.5	18.2	0.00e+00	122	36	0	2526019584	50	6647
2026-01-06 15:38:16.79	221.28	3.22	-39.1	-40.6	18.2	0.00e+00	123	36	0	2538602496	50	6666
2026-01-06 15:38:20.84	221.20	2.96	-47.1	-59.8	3.5	1.52e+00	0	36	104	2550136832	60	34203
2026-01-06 15:38:24.88	221.12	2.69	-48.5	-61.3	3.5	1.52e+00	0	36	104	2550136832	60	40959
2026-01-06 15:38:28.92	221.05	2.43	-48.6	-61.4	3.5	1.52e+00	0	36	104	2550136832	60	41413
2026-01-06 15:38:32.96	220.97	2.17	-48.4	-61.3	3.5	1.52e+00	0	36	104	2550136832	60	40942
2026-01-06 15:38:37.00	220.90	1.91	-48.5	-61.3	3.5	1.52e+00	0	36	104	2550136832	60	40905
2026-01-06 15:38:41.03	220.83	1.66	-48.5	-61.3	3.5	1.52e+00	0	36	104	2550136832	60	40875
2026-01-06 15:38:45.07	220.76	1.40	-48.5	-61.3	3.5	1.52e+00	0	36	104	2550136832	60	40975
2026-01-06 15:38:49.11	220.69	1.15	-48.5	-61.3	3.5	1.52e+00	0	36	104	2550136832	60	40804
2026-01-06 15:38:53.15	220.62	0.90	-48.5	-61.3	3.5	1.52e+00	0	36	104	2550136832	60	40811
2026-01-06 15:38:57.19	220.56	0.66	-48.5	-61.3	3.5	1.51e+00	0	36	104	2550136832	60	40970
2026-01-06 15:39:01.23	220.50	0.41	-48.5	-61.3	3.5	1.52e+00	0	36	104	2550136832	60	40746
2026-01-06 15:39:05.27	220.43	0.17	-48.5	-61.3	3.5	1.52e+00	0	36	104	2550136832	60	40896

#Closed at: 2026-01-06 15:39:09
#Recorded file [2550 MB]: D:/lorett/data/35029_260107_032348.dat