passes_logs/2026/01/06/R4.6S_Anadyr/R4.6S_Anadyr__20260106_155321_SUOMI_NPP_rec.log

#Pass ID: 20260106_155321_SUOMI NPP
#Satellite: SUOMI NPP
#Configuration: NPP
#almurnet v.1.7.20251203
#Start time: 2026-01-06 15:53:23

#Version: 2.2.20231116
#Station: R4.6S_Anadyr
#Location: 177.4865 lon 64.73178 lat
#TLE: 1 37849U 11061A   26004.95404768  .00000136  00000+0  85334-4 0  9991
#TLE: 2 37849  98.7801 307.0898 0002575  80.6707 279.4760 14.19522289735281

#Time	Az	El	Level	Level2	SNR	BER	BlckErr	Temp	State	Recorded	gain1	gain2
2026-01-06 15:53:23.85	23.53	0.16	-48.5	-61.0	3.5	1.51e+00	0	32	0	0	60	39353
2026-01-06 15:53:27.88	23.43	0.40	-48.6	-63.7	3.6	1.51e+00	0	33	104	0	60	55521
2026-01-06 15:53:31.92	23.32	0.64	-48.5	-63.7	3.6	1.51e+00	0	33	104	0	60	55232
2026-01-06 15:53:35.95	23.22	0.88	-48.1	-63.3	3.6	1.51e+00	0	33	104	0	60	52815
2026-01-06 15:53:39.99	23.11	1.13	-47.1	-62.2	3.6	1.51e+00	0	34	104	0	60	46821
2026-01-06 15:53:44.03	23.00	1.37	-47.1	-62.3	3.6	1.51e+00	0	34	104	0	60	46960
2026-01-06 15:53:48.07	22.89	1.62	-47.1	-62.3	3.6	1.51e+00	0	34	104	0	60	46882
2026-01-06 15:53:52.10	22.77	1.87	-47.1	-62.0	3.6	1.51e+00	0	34	104	0	60	45729
2026-01-06 15:53:56.14	22.66	2.12	-47.1	-61.8	3.6	1.51e+00	0	34	104	0	60	44705
2026-01-06 15:54:00.18	22.54	2.38	-47.1	-62.3	3.6	1.51e+00	0	34	104	0	60	47092
2026-01-06 15:54:04.23	22.42	2.63	-47.1	-61.8	3.6	1.51e+00	0	34	104	0	60	44537
2026-01-06 15:54:08.26	22.29	2.89	-47.0	-60.9	3.6	1.51e+00	0	34	104	0	60	40127
2026-01-06 15:54:12.30	22.17	3.15	-47.1	-62.1	3.6	1.51e+00	0	34	104	0	60	45947
2026-01-06 15:54:16.34	22.04	3.41	-46.7	-55.3	5.4	5.12e-01	0	34	0	0	60	21138
2026-01-06 15:54:20.38	21.91	3.68	-45.5	-50.6	10.1	7.50e-03	0	34	0	7340032	60	12253
2026-01-06 15:54:24.42	21.77	3.95	-43.1	-45.7	12.2	0.00e+00	0	34	0	11534336	54	9882
2026-01-06 15:54:28.46	21.63	4.22	-40.5	-42.0	19.1	0.00e+00	0	34	0	15728640	54	6412
2026-01-06 15:54:32.49	21.49	4.49	-39.2	-40.5	20.6	0.00e+00	0	34	0	24117248	52	6067
2026-01-06 15:54:36.53	21.35	4.77	-38.4	-39.5	21.4	0.00e+00	86	34	0	31457280	50	6040
2026-01-06 15:54:40.57	21.21	5.04	-38.4	-39.5	21.4	0.00e+00	0	34	0	38797312	50	6074
2026-01-06 15:54:44.60	21.06	5.32	-38.5	-39.6	21.4	0.00e+00	0	34	0	46137344	50	6148
2026-01-06 15:54:48.64	20.90	5.61	-38.5	-39.7	21.4	0.00e+00	0	34	0	54525952	50	6196
2026-01-06 15:54:52.68	20.75	5.89	-39.1	-40.3	21.0	0.00e+00	92	34	0	61865984	50	6670
2026-01-06 15:54:56.71	20.59	6.18	-38.5	-39.6	21.5	0.00e+00	0	34	0	69206016	50	6135
2026-01-06 15:55:00.74	20.43	6.47	-38.4	-39.5	21.6	0.00e+00	0	34	0	76546048	50	6089
2026-01-06 15:55:04.77	20.26	6.77	-38.5	-39.6	21.5	0.00e+00	0	34	0	83886080	50	6135
2026-01-06 15:55:08.81	20.09	7.07	-38.4	-39.5	21.4	0.00e+00	87	34	0	92274688	50	6085
2026-01-06 15:55:12.84	19.92	7.37	-38.3	-39.4	21.6	0.00e+00	0	34	0	99614720	50	6004
2026-01-06 15:55:16.87	19.74	7.67	-38.2	-39.2	22.0	0.00e+00	0	34	0	106954752	50	5872
2026-01-06 15:55:20.91	19.56	7.98	-38.2	-39.2	21.9	0.00e+00	1	34	0	114294784	50	5884
2026-01-06 15:55:24.95	19.37	8.29	-38.0	-39.0	22.2	0.00e+00	0	34	0	122683392	50	5756
2026-01-06 15:55:28.99	19.18	8.61	-38.1	-39.1	22.2	0.00e+00	0	34	0	130023424	50	5806
2026-01-06 15:55:33.02	18.99	8.93	-37.7	-38.7	22.5	0.00e+00	0	34	0	137363456	48	6183
2026-01-06 15:55:37.06	18.79	9.25	-37.8	-38.8	22.5	0.00e+00	64	34	0	144703488	48	6251
2026-01-06 15:55:41.10	18.58	9.58	-37.7	-38.7	22.6	0.00e+00	0	34	0	152043520	48	6204
2026-01-06 15:55:45.13	18.37	9.91	-37.4	-38.4	22.7	0.00e+00	0	34	0	160432128	48	5988
2026-01-06 15:55:49.17	18.16	10.24	-37.4	-38.4	22.7	0.00e+00	4	34	0	167772160	48	5986
2026-01-06 15:55:53.21	17.94	10.58	-37.4	-38.3	22.9	0.00e+00	91	34	0	175112192	48	5940
2026-01-06 15:55:57.25	17.71	10.93	-37.5	-38.5	22.7	0.00e+00	0	34	0	182452224	48	6075
2026-01-06 15:56:01.28	17.48	11.27	-37.7	-38.7	22.6	0.00e+00	0	34	0	190840832	48	6237
2026-01-06 15:56:05.32	17.24	11.63	-37.5	-38.4	22.8	0.00e+00	90	34	0	198180864	48	6031
2026-01-06 15:56:09.36	17.00	11.98	-37.3	-38.2	23.0	0.00e+00	0	34	0	205520896	48	5875
2026-01-06 15:56:13.40	16.75	12.35	-37.2	-38.1	23.2	0.00e+00	0	34	0	212860928	48	5792
2026-01-06 15:56:17.44	16.49	12.71	-37.0	-38.0	23.3	0.00e+00	0	34	0	220200960	48	5699
2026-01-06 15:56:21.47	16.23	13.08	-37.2	-38.1	23.1	0.00e+00	87	35	0	228589568	48	5794
2026-01-06 15:56:25.51	15.95	13.46	-37.1	-38.1	23.1	0.00e+00	0	34	0	235929600	48	5763
2026-01-06 15:56:29.54	15.68	13.84	-37.2	-38.2	23.1	0.00e+00	0	34	0	243269632	48	5861
2026-01-06 15:56:33.58	15.39	14.23	-37.2	-38.1	23.2	0.00e+00	0	34	0	250609664	48	5795
2026-01-06 15:56:37.62	15.10	14.62	-37.3	-38.2	23.0	0.00e+00	40	34	0	258998272	48	5860
2026-01-06 15:56:41.66	14.79	15.02	-37.2	-38.1	23.3	0.00e+00	0	34	0	266338304	48	5815
2026-01-06 15:56:45.70	14.48	15.42	-37.4	-38.4	23.0	0.00e+00	0	34	0	273678336	48	5988
2026-01-06 15:56:49.74	14.16	15.83	-37.3	-38.2	23.2	0.00e+00	67	34	0	281018368	48	5868
2026-01-06 15:56:53.77	13.83	16.25	-37.6	-38.6	22.9	0.00e+00	29	34	0	288358400	48	6136
2026-01-06 15:56:57.81	13.49	16.67	-37.5	-38.5	22.9	0.00e+00	0	35	0	296747008	48	6077
2026-01-06 15:57:01.85	13.14	17.10	-37.4	-38.3	23.1	0.00e+00	9	34	0	304087040	48	5956
2026-01-06 15:57:05.89	12.78	17.53	-37.2	-38.1	23.3	0.00e+00	10	34	0	311427072	48	5814
2026-01-06 15:57:09.92	12.41	17.97	-37.2	-38.1	23.2	0.00e+00	0	34	0	318767104	46	6524
2026-01-06 15:57:13.96	12.03	18.42	-37.0	-38.0	23.4	0.00e+00	0	34	0	327155712	46	6395
2026-01-06 15:57:18.00	11.63	18.88	-37.2	-38.1	23.3	0.00e+00	0	34	0	334495744	46	6529
2026-01-06 15:57:22.04	11.23	19.34	-37.3	-38.2	23.2	0.00e+00	68	34	0	341835776	46	6574
2026-01-06 15:57:26.07	10.81	19.81	-37.3	-38.2	23.2	0.00e+00	0	34	0	349175808	46	6605
2026-01-06 15:57:30.11	10.37	20.28	-37.8	-38.8	22.7	0.00e+00	0	34	0	356515840	48	6299
2026-01-06 15:57:34.15	9.92	20.77	-38.4	-39.4	22.3	0.00e+00	22	34	0	364904448	48	6731
2026-01-06 15:57:38.19	9.46	21.26	-38.2	-39.2	22.5	0.00e+00	90	34	0	372244480	48	6569
2026-01-06 15:57:42.22	8.98	21.75	-37.6	-38.5	23.0	0.00e+00	0	34	0	379584512	48	6082
2026-01-06 15:57:46.26	8.49	22.26	-37.9	-38.8	22.8	0.00e+00	0	35	0	386924544	48	6305
2026-01-06 15:57:50.29	7.98	22.77	-38.3	-39.3	22.3	0.00e+00	74	34	0	394264576	48	6659
2026-01-06 15:57:54.33	7.45	23.30	-38.0	-38.9	22.8	0.00e+00	0	34	0	402653184	48	6378
2026-01-06 15:57:58.37	6.90	23.83	-38.0	-39.0	22.7	0.00e+00	0	34	0	409993216	48	6434
2026-01-06 15:58:02.41	6.33	24.36	-38.5	-39.6	22.3	0.00e+00	0	34	0	417333248	48	6865
2026-01-06 15:58:06.44	5.75	24.91	-38.7	-39.8	22.0	0.00e+00	30	35	0	424673280	50	6299
2026-01-06 15:58:10.48	5.14	25.46	-38.7	-39.7	22.2	0.00e+00	0	34	0	433061888	50	6240
2026-01-06 15:58:14.52	4.50	26.02	-37.8	-38.8	23.0	0.00e+00	0	34	0	440401920	50	5574
2026-01-06 15:58:18.56	3.85	26.59	-38.2	-39.2	22.6	0.00e+00	0	34	0	447741952	48	6580
2026-01-06 15:58:22.59	3.17	27.17	-38.3	-39.3	22.5	0.00e+00	90	34	0	455081984	48	6659
2026-01-06 15:58:26.63	2.47	27.76	-37.7	-38.7	23.1	0.00e+00	0	35	0	462422016	48	6188
2026-01-06 15:58:30.67	1.73	28.35	-38.0	-39.0	22.8	0.00e+00	0	34	0	470810624	48	6395
2026-01-06 15:58:34.70	0.97	28.95	-38.9	-40.0	22.1	0.00e+00	7	34	0	478150656	50	6399
2026-01-06 15:58:38.74	0.18	29.55	-38.4	-39.4	22.3	0.00e+00	27	35	0	485490688	50	5984
2026-01-06 15:58:42.78	359.36	30.17	-38.3	-39.3	22.4	0.00e+00	0	35	0	492830720	50	5954
2026-01-06 15:58:46.81	358.51	30.79	-39.5	-40.7	21.4	0.00e+00	0	35	0	501219328	50	6970
2026-01-06 15:58:50.85	357.62	31.41	-39.7	-40.9	21.2	0.00e+00	10	35	0	508559360	52	6381
2026-01-06 15:58:54.88	356.70	32.04	-39.6	-40.7	21.3	0.00e+00	0	34	0	515899392	52	6223
2026-01-06 15:58:58.92	355.74	32.68	-39.1	-40.2	21.7	0.00e+00	0	35	0	523239424	50	6555
2026-01-06 15:59:02.96	354.74	33.32	-39.9	-41.1	21.1	0.00e+00	0	34	0	530579456	52	6466
2026-01-06 15:59:06.99	353.70	33.96	-39.4	-40.5	21.5	0.00e+00	92	35	0	538968064	52	6074
2026-01-06 15:59:11.03	352.62	34.61	-40.5	-41.8	20.4	0.00e+00	0	35	0	546308096	52	7081
2026-01-06 15:59:15.07	351.49	35.25	-41.6	-43.2	19.3	0.00e+00	9	35	0	553648128	56	6593
2026-01-06 15:59:19.11	350.32	35.90	-39.6	-40.8	21.3	0.00e+00	25	35	0	560988160	54	5604
2026-01-06 15:59:23.14	349.10	36.54	-38.2	-39.1	22.6	0.00e+00	92	35	0	568328192	50	5821
2026-01-06 15:59:27.18	347.83	37.19	-38.3	-39.3	22.5	0.00e+00	0	35	0	576716800	50	5924
2026-01-06 15:59:31.22	346.50	37.82	-39.8	-41.1	21.1	0.00e+00	0	35	0	584056832	52	6520
2026-01-06 15:59:35.25	345.13	38.46	-40.6	-42.0	20.3	0.00e+00	10	35	0	591396864	54	6449
2026-01-06 15:59:39.29	343.70	39.08	-38.4	-39.4	22.6	0.00e+00	18	34	0	598736896	50	5982
2026-01-06 15:59:43.32	342.22	39.69	-40.7	-42.2	20.1	0.00e+00	0	35	0	607125504	52	7361
2026-01-06 15:59:47.36	340.67	40.29	-38.5	-39.5	22.4	0.00e+00	0	35	0	614465536	50	6047
2026-01-06 15:59:51.40	339.07	40.88	-38.6	-39.7	22.3	0.00e+00	37	35	0	621805568	50	6209
2026-01-06 15:59:55.44	337.41	41.45	-37.7	-38.7	23.1	0.00e+00	0	35	0	629145600	48	6184
2026-01-06 15:59:59.47	335.70	42.00	-38.2	-39.2	23.1	0.00e+00	0	35	0	636485632	48	6608
2026-01-06 16:00:03.51	333.92	42.53	-37.5	-38.4	23.2	0.00e+00	0	35	0	644874240	48	6024
2026-01-06 16:00:07.55	332.08	43.03	-38.3	-39.3	22.6	0.00e+00	92	35	0	652214272	48	6640
2026-01-06 16:00:11.59	330.19	43.51	-36.3	-37.1	24.2	0.00e+00	0	35	0	659554304	46	5820
2026-01-06 16:00:15.63	328.24	43.95	-36.7	-37.5	23.9	0.00e+00	0	35	0	666894336	44	6846
2026-01-06 16:00:19.66	326.24	44.36	-38.4	-39.5	22.0	0.00e+00	14	35	0	674234368	50	6087
2026-01-06 16:00:23.69	324.19	44.73	-40.8	-42.4	20.0	0.00e+00	91	35	0	682622976	54	6707
2026-01-06 16:00:27.72	322.09	45.07	-36.8	-37.6	23.9	0.00e+00	0	35	0	689963008	48	5456
2026-01-06 16:00:31.76	319.95	45.37	-38.7	-39.8	22.1	0.00e+00	0	35	0	697303040	50	6275
2026-01-06 16:00:35.80	317.77	45.62	-39.8	-41.1	20.9	0.00e+00	71	35	0	704643072	52	6490
2026-01-06 16:00:39.83	315.56	45.82	-39.9	-41.1	21.1	0.00e+00	0	35	0	713031680	52	6532
2026-01-06 16:00:43.87	313.32	45.98	-38.4	-39.4	22.4	0.00e+00	0	35	0	720371712	50	5996
2026-01-06 16:00:47.90	311.07	46.09	-40.5	-42.0	20.2	0.00e+00	0	35	0	727711744	52	7232
2026-01-06 16:00:51.94	308.80	46.15	-38.4	-39.4	22.5	0.00e+00	36	35	0	735051776	50	6004
2026-01-06 16:00:55.97	306.53	46.17	-39.1	-40.3	21.8	0.00e+00	0	35	0	742391808	50	6652
2026-01-06 16:01:00.01	304.25	46.13	-38.1	-39.1	22.7	0.00e+00	0	35	0	750780416	50	5793
2026-01-06 16:01:04.04	301.99	46.04	-38.6	-39.6	22.0	0.00e+00	0	35	0	758120448	50	6147
2026-01-06 16:01:08.08	299.74	45.91	-38.8	-39.8	22.1	0.00e+00	92	35	0	765460480	50	6316
2026-01-06 16:01:12.12	297.51	45.72	-38.2	-39.3	22.4	0.00e+00	0	35	0	772800512	48	6656
2026-01-06 16:01:16.16	295.32	45.49	-38.9	-40.0	21.9	0.00e+00	0	35	0	780140544	50	6409
2026-01-06 16:01:20.19	293.16	45.22	-38.4	-39.4	21.5	0.00e+00	11	35	0	788529152	48	6765
2026-01-06 16:01:24.23	291.03	44.90	-37.8	-38.8	22.9	0.00e+00	85	35	0	795869184	48	6279
2026-01-06 16:01:28.27	288.95	44.54	-38.4	-39.4	22.4	0.00e+00	0	35	0	803209216	50	5985
2026-01-06 16:01:32.31	286.92	44.15	-38.3	-39.3	22.7	0.00e+00	0	35	0	810549248	50	5942
2026-01-06 16:01:36.34	284.95	43.72	-37.6	-38.5	23.2	0.00e+00	11	35	0	818937856	48	6074
2026-01-06 16:01:40.38	283.03	43.26	-37.5	-38.5	23.2	0.00e+00	0	35	0	826277888	46	6822
2026-01-06 16:01:44.42	281.16	42.77	-36.4	-37.2	24.2	0.00e+00	0	35	0	833617920	46	5896
2026-01-06 16:01:48.45	279.35	42.25	-36.5	-37.4	24.0	0.00e+00	0	35	0	840957952	46	6018
2026-01-06 16:01:52.49	277.60	41.71	-35.3	-36.1	24.9	0.00e+00	68	35	0	848297984	44	5792
2026-01-06 16:01:56.53	275.91	41.15	-34.2	-34.9	25.6	0.00e+00	0	35	0	856686592	42	5664
2026-01-06 16:02:00.57	274.28	40.57	-35.1	-35.8	25.1	0.00e+00	0	35	0	864026624	42	6316
2026-01-06 16:02:04.60	272.71	39.97	-35.6	-36.4	24.8	0.00e+00	0	35	0	871366656	42	6731
2026-01-06 16:02:08.64	271.19	39.36	-37.3	-38.3	23.4	0.00e+00	92	35	0	878706688	46	6643
2026-01-06 16:02:12.67	269.73	38.74	-37.1	-38.0	23.6	0.00e+00	0	35	0	887095296	46	6453
2026-01-06 16:02:16.71	268.33	38.11	-37.8	-38.8	22.7	0.00e+00	0	35	0	894435328	46	7049
2026-01-06 16:02:20.75	266.98	37.47	-36.7	-37.6	23.8	0.00e+00	52	35	0	901775360	46	6141
2026-01-06 16:02:24.78	265.68	36.83	-36.4	-37.2	24.1	0.00e+00	0	35	0	909115392	46	5875
2026-01-06 16:02:28.82	264.43	36.19	-37.3	-38.2	21.7	0.00e+00	0	35	0	916455424	46	6567
2026-01-06 16:02:32.85	263.24	35.54	-38.4	-39.4	22.6	0.00e+00	0	35	0	924844032	50	5981
2026-01-06 16:02:36.89	262.08	34.89	-39.4	-40.5	21.8	0.00e+00	72	35	0	932184064	50	6774
2026-01-06 16:02:40.92	260.98	34.24	-41.2	-42.6	19.6	0.00e+00	0	35	0	939524096	54	6899
2026-01-06 16:02:44.96	259.92	33.60	-40.0	-41.2	20.9	0.00e+00	0	35	0	946864128	52	6558
2026-01-06 16:02:49.00	258.89	32.95	-41.9	-43.5	19.2	0.00e+00	0	35	0	955252736	56	6808
2026-01-06 16:02:53.03	257.91	32.32	-41.0	-42.4	19.9	0.00e+00	68	35	0	962592768	54	6718
2026-01-06 16:02:57.07	256.97	31.68	-39.4	-40.5	21.6	0.00e+00	0	35	0	969932800	52	6045
2026-01-06 16:03:01.11	256.06	31.05	-39.2	-40.2	21.8	0.00e+00	0	35	0	977272832	52	5886
2026-01-06 16:03:05.15	255.19	30.42	-40.0	-41.2	21.0	0.00e+00	92	35	0	984612864	52	6592
2026-01-06 16:03:09.18	254.35	29.81	-38.9	-40.0	21.8	0.00e+00	39	35	0	993001472	52	5705
2026-01-06 16:03:13.22	253.55	29.19	-40.1	-41.3	20.9	0.00e+00	0	35	0	1000341504	52	6627
2026-01-06 16:03:17.26	252.77	28.59	-39.2	-40.2	21.8	0.00e+00	0	35	0	1007681536	52	5887
2026-01-06 16:03:21.29	252.02	27.99	-39.2	-40.2	21.7	0.00e+00	4	35	0	1015021568	52	5896
2026-01-06 16:03:25.33	251.30	27.40	-38.4	-39.4	22.4	0.00e+00	0	34	0	1023410176	50	6009
2026-01-06 16:03:29.37	250.61	26.82	-38.1	-39.1	22.7	0.00e+00	0	35	0	1030750208	50	5806
2026-01-06 16:03:33.40	249.94	26.24	-39.9	-41.2	21.0	0.00e+00	0	35	0	1038090240	52	6552
2026-01-06 16:03:37.43	249.30	25.68	-38.4	-39.4	22.3	0.00e+00	91	35	0	1045430272	50	5995
2026-01-06 16:03:41.46	248.67	25.12	-37.0	-37.9	23.6	0.00e+00	0	35	0	1052770304	48	5644
2026-01-06 16:03:45.50	248.07	24.57	-38.3	-39.2	22.6	0.00e+00	0	34	0	1061158912	48	6604
2026-01-06 16:03:49.54	247.49	24.02	-38.8	-39.9	22.0	0.00e+00	0	35	0	1068498944	50	6330
2026-01-06 16:03:53.58	246.93	23.49	-40.0	-41.3	20.7	0.00e+00	90	35	0	1075838976	52	6639
2026-01-06 16:03:57.62	246.39	22.96	-39.8	-40.9	21.2	0.00e+00	0	35	0	1083179008	52	6367
2026-01-06 16:04:01.65	245.87	22.44	-37.9	-38.8	22.9	0.00e+00	0	34	0	1090519040	50	5623
2026-01-06 16:04:05.69	245.37	21.93	-37.6	-38.5	23.1	0.00e+00	64	35	0	1098907648	48	6055
2026-01-06 16:04:09.72	244.88	21.43	-37.8	-38.7	22.9	0.00e+00	44	34	0	1106247680	48	6206
2026-01-06 16:04:13.76	244.41	20.93	-38.4	-39.4	22.4	0.00e+00	0	34	0	1113587712	48	6768
2026-01-06 16:04:17.80	243.95	20.44	-38.0	-39.0	22.7	0.00e+00	0	34	0	1120927744	50	5696
2026-01-06 16:04:21.84	243.51	19.96	-37.8	-38.8	22.8	0.00e+00	3	35	0	1129316352	50	5592
2026-01-06 16:04:25.88	243.08	19.49	-39.0	-40.1	21.7	0.00e+00	0	35	0	1136656384	50	6516
2026-01-06 16:04:29.91	242.66	19.02	-39.7	-40.9	21.0	0.00e+00	0	35	0	1143996416	52	6382
2026-01-06 16:04:33.95	242.26	18.56	-39.5	-40.7	21.2	0.00e+00	0	35	0	1151336448	52	6192
2026-01-06 16:04:37.99	241.87	18.11	-39.2	-40.3	21.6	0.00e+00	90	35	0	1158676480	52	5946
2026-01-06 16:04:42.02	241.49	17.67	-38.6	-39.7	22.0	0.00e+00	0	35	0	1167065088	50	6187
2026-01-06 16:04:46.06	241.12	17.23	-38.1	-39.1	22.5	0.00e+00	2	35	0	1174405120	50	5788
2026-01-06 16:04:50.09	240.76	16.80	-38.5	-39.5	22.1	0.00e+00	1	35	0	1181745152	50	6063
2026-01-06 16:04:54.12	240.42	16.37	-39.3	-40.4	21.5	0.00e+00	90	34	0	1189085184	50	6741
2026-01-06 16:04:58.16	240.08	15.95	-38.8	-39.8	21.9	0.00e+00	0	35	0	1197473792	50	6312
2026-01-06 16:05:02.19	239.76	15.54	-38.3	-39.3	22.3	0.00e+00	0	34	0	1204813824	50	5949
2026-01-06 16:05:06.23	239.44	15.13	-39.3	-40.4	21.4	0.00e+00	90	34	0	1212153856	50	6748
2026-01-06 16:05:10.26	239.13	14.73	-40.2	-41.5	20.4	0.00e+00	67	35	0	1219493888	52	6823
2026-01-06 16:05:14.29	238.83	14.34	-40.8	-42.2	19.8	0.00e+00	0	35	0	1226833920	54	6551
2026-01-06 16:05:18.33	238.54	13.94	-40.7	-42.1	19.8	0.00e+00	0	35	0	1235222528	54	6529
2026-01-06 16:05:22.36	238.25	13.56	-40.1	-41.4	20.4	0.00e+00	90	35	0	1242562560	54	5974
2026-01-06 16:05:26.40	237.97	13.18	-39.8	-41.1	20.6	0.00e+00	0	35	0	1249902592	54	5789
2026-01-06 16:05:30.44	237.70	12.81	-40.1	-41.3	20.3	0.00e+00	0	35	0	1257242624	54	5957
2026-01-06 16:05:34.48	237.44	12.44	-40.4	-41.8	19.9	0.00e+00	0	35	0	1264582656	54	6262
2026-01-06 16:05:38.51	237.19	12.07	-40.9	-42.4	19.2	0.00e+00	82	34	0	1272971264	54	6753
2026-01-06 16:05:42.55	236.94	11.71	-41.4	-43.0	18.8	0.00e+00	0	35	0	1280311296	54	7187
2026-01-06 16:05:46.58	236.69	11.36	-41.7	-43.4	18.4	0.00e+00	0	35	0	1287651328	56	6719
2026-01-06 16:05:50.62	236.46	11.01	-42.4	-44.3	17.5	0.00e+00	73	35	0	1294991360	56	7492
2026-01-06 16:05:54.65	236.22	10.66	-42.6	-44.6	17.1	0.00e+00	92	35	0	1302331392	58	6926
2026-01-06 16:05:58.69	236.00	10.32	-43.0	-45.1	16.6	0.00e+00	0	35	0	1310720000	58	7333
2026-01-06 16:06:02.73	235.78	9.98	-43.4	-45.7	16.0	0.00e+00	0	35	0	1318060032	58	7850
2026-01-06 16:06:06.76	235.56	9.65	-43.5	-46.0	15.7	0.00e+00	23	35	0	1325400064	58	8092
2026-01-06 16:06:10.80	235.35	9.32	-44.2	-47.2	14.5	0.00e+00	0	35	0	1332740096	60	8244
2026-01-06 16:06:14.84	235.15	8.99	-44.8	-48.2	13.5	3.80e-06	0	35	0	1341128704	60	9241
2026-01-06 16:06:18.88	234.95	8.67	-45.1	-48.9	12.6	4.34e-05	0	35	0	1348468736	60	10066
2026-01-06 16:06:22.92	234.75	8.35	-45.4	-49.5	11.9	3.56e-04	92	35	0	1355808768	60	10777
2026-01-06 16:06:26.95	234.56	8.04	-45.4	-49.6	11.7	6.06e-04	0	35	0	1363148800	60	10960
2026-01-06 16:06:30.99	234.37	7.73	-45.6	-50.3	11.0	1.50e-03	0	35	0	1370488832	60	11776
2026-01-06 16:06:35.03	234.19	7.42	-45.8	-50.7	10.4	3.45e-03	0	35	0	1378877440	60	12453
2026-01-06 16:06:39.07	234.01	7.12	-46.0	-51.5	9.3	1.43e-02	61	35	0	1386217472	60	13602
2026-01-06 16:06:43.11	233.84	6.82	-46.2	-52.3	8.4	4.23e-02	0	35	0	1393557504	60	14902
2026-01-06 16:06:47.14	233.67	6.52	-46.3	-52.9	7.6	8.49e-02	0	35	0	1400897536	60	16017
2026-01-06 16:06:51.18	233.50	6.22	-46.4	-53.7	6.6	1.94e-01	85	35	0	1409286144	60	17570
2026-01-06 16:06:55.22	233.33	5.93	-46.5	-54.5	5.6	3.42e-01	85	35	0	1416626176	60	19116
2026-01-06 16:06:59.25	233.17	5.65	-46.5	-55.1	5.0	5.99e-01	0	35	0	1423966208	60	20451
2026-01-06 16:07:03.29	233.02	5.36	-46.5	-55.6	4.5	7.40e-01	0	35	0	1431306240	60	21838
2026-01-06 16:07:07.33	232.86	5.08	-46.5	-56.1	4.2	9.67e-01	84	35	0	1438646272	60	23109
2026-01-06 16:07:11.37	232.71	4.80	-46.5	-56.5	4.0	1.27e+00	42	35	0	1445986304	60	24281
2026-01-06 16:07:15.41	232.57	4.52	-46.4	-56.8	3.8	1.39e+00	0	35	0	1449132032	60	25037
2026-01-06 16:07:19.44	232.42	4.25	-46.3	-58.7	3.7	1.43e+00	0	35	104	1449132032	60	31140
2026-01-06 16:07:23.48	232.28	3.97	-46.2	-58.7	3.8	1.49e+00	0	35	104	1449132032	60	31018
2026-01-06 16:07:27.52	232.14	3.71	-46.1	-59.0	3.6	1.49e+00	0	35	104	1449132032	60	32374
2026-01-06 16:07:31.56	232.00	3.44	-46.0	-59.0	3.7	1.50e+00	0	35	104	1449132032	60	32181
2026-01-06 16:07:35.60	231.87	3.17	-45.9	-59.2	3.6	1.51e+00	0	35	104	1449132032	60	33071
2026-01-06 16:07:39.63	231.74	2.91	-47.6	-62.8	3.6	1.51e+00	0	35	104	1449132032	60	49818
2026-01-06 16:07:43.67	231.61	2.65	-48.6	-63.7	3.6	1.51e+00	0	35	104	1449132032	60	55660
2026-01-06 16:07:47.72	231.49	2.39	-48.5	-63.8	3.6	1.51e+00	0	35	104	1449132032	60	56005
2026-01-06 16:07:51.76	231.36	2.14	-48.5	-63.7	3.6	1.51e+00	0	35	104	1449132032	60	55636
2026-01-06 16:07:55.80	231.24	1.89	-48.6	-63.8	3.6	1.51e+00	0	35	104	1449132032	60	56047
2026-01-06 16:07:59.83	231.12	1.64	-48.5	-63.8	3.6	1.51e+00	0	35	104	1449132032	60	55683
2026-01-06 16:08:03.88	231.00	1.39	-48.5	-63.6	3.6	1.51e+00	0	35	104	1449132032	60	54889
2026-01-06 16:08:07.91	230.89	1.14	-48.5	-63.6	3.6	1.51e+00	0	35	104	1449132032	60	54943
2026-01-06 16:08:11.96	230.78	0.89	-48.4	-63.6	3.6	1.51e+00	0	35	104	1449132032	60	54673
2026-01-06 16:08:16.00	230.67	0.65	-48.5	-63.6	3.6	1.51e+00	0	35	104	1449132032	60	54762
2026-01-06 16:08:20.03	230.56	0.41	-48.5	-63.6	3.6	1.51e+00	0	35	104	1449132032	60	54843
2026-01-06 16:08:24.07	230.45	0.17	-48.4	-63.6	3.6	1.51e+00	0	35	104	1449132032	60	54912
2026-01-06 16:08:28.11	230.35	-0.07	-48.4	-63.6	3.6	1.51e+00	0	35	104	1449132032	60	54779

#Closed at: 2026-01-06 16:08:30
#Recorded file [1449 MB]: D:/lorett/data/35029_260107_035323.dat