passes_logs/2026/01/06/R4.6S_Anadyr/R4.6S_Anadyr__20260106_123231_SUOMI_NPP_rec.log

#Pass ID: 20260106_123231_SUOMI NPP
#Satellite: SUOMI NPP
#Configuration: NPP
#almurnet v.1.7.20251203
#Start time: 2026-01-06 12:32:34

#Version: 2.2.20231116
#Station: R4.6S_Anadyr
#Location: 177.4865 lon 64.73178 lat
#TLE: 1 37849U 11061A   26004.95404768  .00000136  00000+0  85334-4 0  9991
#TLE: 2 37849  98.7801 307.0898 0002575  80.6707 279.4760 14.19522289735281

#Time	Az	El	Level	Level2	SNR	BER	BlckErr	Temp	State	Recorded	gain1	gain2
2026-01-06 12:32:34.20	19.18	0.14	-48.7	-61.1	3.5	1.52e+00	0	33	0	0	60	39969
2026-01-06 12:32:38.23	19.47	0.34	-48.7	-64.0	3.6	1.51e+00	0	34	104	0	60	57196
2026-01-06 12:32:42.27	19.76	0.54	-48.8	-63.9	3.6	1.51e+00	0	34	104	0	60	56862
2026-01-06 12:32:46.31	20.06	0.74	-48.4	-63.5	3.6	1.51e+00	0	34	104	0	60	54362
2026-01-06 12:32:50.35	20.36	0.95	-47.2	-62.3	3.6	1.51e+00	0	35	104	0	60	47267
2026-01-06 12:32:54.39	20.67	1.15	-47.2	-62.3	3.6	1.51e+00	0	34	104	0	60	47134
2026-01-06 12:32:58.43	20.98	1.36	-47.2	-62.3	3.6	1.51e+00	0	35	104	0	60	47069
2026-01-06 12:33:02.47	21.29	1.56	-47.2	-62.3	3.6	1.51e+00	0	35	104	0	60	47237
2026-01-06 12:33:06.50	21.61	1.77	-47.2	-62.2	3.6	1.51e+00	0	35	104	0	60	46486
2026-01-06 12:33:10.54	21.93	1.98	-47.2	-62.2	3.6	1.51e+00	0	35	104	0	60	46826
2026-01-06 12:33:14.58	22.25	2.18	-47.2	-62.2	3.6	1.51e+00	0	35	104	0	60	46689
2026-01-06 12:33:18.62	22.58	2.39	-47.1	-61.3	3.6	1.51e+00	0	35	104	0	60	42163
2026-01-06 12:33:22.66	22.92	2.60	-45.2	-49.6	11.5	4.31e-03	78	35	0	2097152	60	10954
2026-01-06 12:33:26.70	23.26	2.81	-41.8	-43.7	17.4	0.00e+00	0	35	0	9437184	58	6221
2026-01-06 12:33:30.74	23.60	3.03	-45.0	-49.1	12.0	2.20e-06	0	35	0	16777216	60	10273
2026-01-06 12:33:34.78	23.95	3.24	-46.6	-55.4	4.8	1.51e+00	0	35	104	23068672	60	21166
2026-01-06 12:33:38.82	24.30	3.45	-45.0	-49.0	12.5	9.53e-05	73	35	0	24117248	60	10168
2026-01-06 12:33:42.85	24.66	3.67	-42.9	-45.2	16.2	0.00e+00	0	35	0	31457280	60	6605
2026-01-06 12:33:46.89	25.02	3.88	-42.0	-44.0	17.5	0.00e+00	0	35	0	38797312	58	6397
2026-01-06 12:33:50.93	25.39	4.10	-40.9	-42.5	19.0	0.00e+00	0	35	0	46137344	56	6080
2026-01-06 12:33:54.97	25.76	4.31	-40.4	-41.9	19.4	0.00e+00	61	35	0	53477376	54	6345
2026-01-06 12:33:59.01	26.14	4.53	-40.3	-41.7	19.7	0.00e+00	0	35	0	61865984	54	6227
2026-01-06 12:34:03.05	26.53	4.75	-40.3	-41.7	19.7	0.00e+00	0	35	0	69206016	54	6220
2026-01-06 12:34:07.09	26.92	4.97	-40.3	-41.7	19.8	0.00e+00	84	35	0	76546048	54	6190
2026-01-06 12:34:11.12	27.31	5.19	-40.3	-41.7	19.7	0.00e+00	0	35	0	83886080	54	6240
2026-01-06 12:34:15.16	27.71	5.41	-40.4	-41.9	19.7	0.00e+00	0	35	0	92274688	54	6324
2026-01-06 12:34:19.19	28.12	5.63	-40.8	-42.3	19.2	0.00e+00	0	35	0	99614720	54	6643
2026-01-06 12:34:23.23	28.53	5.85	-40.4	-41.8	19.8	0.00e+00	92	35	0	106954752	54	6248
2026-01-06 12:34:27.26	28.95	6.07	-40.1	-41.4	20.3	0.00e+00	0	35	0	114294784	54	6003
2026-01-06 12:34:31.30	29.37	6.30	-39.8	-41.0	20.6	0.00e+00	0	35	0	121634816	52	6435
2026-01-06 12:34:35.34	29.80	6.52	-39.1	-40.3	21.2	0.00e+00	9	35	0	130023424	52	5922
2026-01-06 12:34:39.38	30.24	6.74	-38.8	-39.9	21.5	0.00e+00	60	35	0	137363456	50	6341
2026-01-06 12:34:43.41	30.68	6.97	-38.7	-39.8	21.6	0.00e+00	0	35	0	144703488	50	6292
2026-01-06 12:34:47.45	31.13	7.19	-39.1	-40.3	21.3	0.00e+00	0	35	0	152043520	50	6652
2026-01-06 12:34:51.49	31.59	7.42	-38.9	-40.0	21.5	0.00e+00	81	35	0	159383552	50	6447
2026-01-06 12:34:55.52	32.05	7.65	-39.1	-40.2	21.4	0.00e+00	0	35	0	167772160	50	6579
2026-01-06 12:34:59.56	32.52	7.87	-39.1	-40.3	21.3	0.00e+00	0	35	0	175112192	50	6633
2026-01-06 12:35:03.60	33.00	8.10	-39.2	-40.3	21.3	0.00e+00	0	35	0	182452224	50	6653
2026-01-06 12:35:07.64	33.49	8.33	-39.0	-40.2	21.4	0.00e+00	90	35	0	189792256	50	6541
2026-01-06 12:35:11.66	33.98	8.56	-39.2	-40.3	21.2	0.00e+00	0	35	0	198180864	50	6657
2026-01-06 12:35:15.70	34.47	8.78	-38.9	-40.0	21.5	0.00e+00	0	35	0	205520896	50	6406
2026-01-06 12:35:19.74	34.98	9.01	-39.1	-40.2	21.4	0.00e+00	0	35	0	212860928	50	6574
2026-01-06 12:35:23.77	35.50	9.24	-38.7	-39.8	21.8	0.00e+00	88	35	0	220200960	50	6255
2026-01-06 12:35:27.86	36.03	9.47	-38.6	-39.7	21.3	0.00e+00	0	35	0	228589568	50	6178
2026-01-06 12:35:31.89	36.56	9.70	-38.7	-39.7	21.9	0.00e+00	0	35	0	235929600	50	6221
2026-01-06 12:35:35.93	37.09	9.93	-38.5	-39.5	22.1	0.00e+00	49	35	0	243269632	50	6093
2026-01-06 12:35:39.97	37.64	10.16	-38.5	-39.6	22.0	0.00e+00	0	35	0	251658240	50	6112
2026-01-06 12:35:44.00	38.20	10.39	-38.6	-39.7	22.0	0.00e+00	0	35	0	258998272	50	6192
2026-01-06 12:35:48.04	38.76	10.62	-38.8	-39.9	21.7	0.00e+00	0	35	0	266338304	50	6365
2026-01-06 12:35:52.07	39.33	10.85	-38.8	-39.8	22.0	0.00e+00	63	35	0	273678336	50	6302
2026-01-06 12:35:56.11	39.91	11.07	-38.1	-39.1	22.5	0.00e+00	0	35	0	281018368	50	5768
2026-01-06 12:36:00.14	40.50	11.30	-38.0	-39.0	22.6	0.00e+00	0	36	0	289406976	50	5743
2026-01-06 12:36:04.17	41.10	11.53	-38.0	-38.9	22.7	0.00e+00	5	35	0	296747008	50	5691
2026-01-06 12:36:08.20	41.70	11.75	-37.3	-38.2	23.2	0.00e+00	37	35	0	304087040	48	5863
2026-01-06 12:36:12.24	42.32	11.98	-37.5	-38.5	23.0	0.00e+00	0	35	0	311427072	48	6046
2026-01-06 12:36:16.27	42.95	12.20	-37.7	-38.7	22.9	0.00e+00	0	35	0	319815680	48	6223
2026-01-06 12:36:20.31	43.58	12.43	-37.8	-38.8	22.9	0.00e+00	92	36	0	327155712	48	6250
2026-01-06 12:36:24.35	44.23	12.65	-37.4	-38.3	23.2	0.00e+00	0	36	0	334495744	48	5954
2026-01-06 12:36:28.38	44.88	12.87	-37.4	-38.4	23.2	0.00e+00	0	35	0	341835776	48	5980
2026-01-06 12:36:32.42	45.54	13.09	-37.6	-38.5	22.9	0.00e+00	0	35	0	349175808	48	6089
2026-01-06 12:36:36.46	46.22	13.31	-37.7	-38.7	22.9	0.00e+00	57	36	0	357564416	48	6215
2026-01-06 12:36:40.50	46.90	13.52	-37.7	-38.7	22.9	0.00e+00	0	35	0	364904448	48	6195
2026-01-06 12:36:44.53	47.59	13.74	-38.5	-39.5	22.4	0.00e+00	0	36	0	372244480	48	6803
2026-01-06 12:36:48.57	48.29	13.95	-38.2	-39.2	22.4	0.00e+00	65	36	0	379584512	48	6605
2026-01-06 12:36:52.61	49.01	14.16	-38.0	-38.9	22.6	0.00e+00	91	36	0	386924544	48	6385
2026-01-06 12:36:56.64	49.73	14.37	-38.4	-39.5	22.3	0.00e+00	0	36	0	395313152	48	6782
2026-01-06 12:37:00.68	50.46	14.57	-38.9	-40.0	21.9	0.00e+00	0	36	0	402653184	50	6398
2026-01-06 12:37:04.72	51.20	14.78	-38.7	-39.7	22.1	0.00e+00	84	36	0	409993216	50	6221
2026-01-06 12:37:08.75	51.95	14.98	-38.4	-39.5	22.3	0.00e+00	0	36	0	417333248	50	6035
2026-01-06 12:37:12.78	52.71	15.17	-38.4	-39.5	22.3	0.00e+00	0	36	0	425721856	50	6054
2026-01-06 12:37:16.82	53.48	15.37	-39.0	-40.1	21.9	0.00e+00	2	36	0	433061888	50	6465
2026-01-06 12:37:20.86	54.27	15.56	-38.4	-39.4	22.3	0.00e+00	73	36	0	440401920	50	6025
2026-01-06 12:37:24.89	55.06	15.75	-38.8	-39.8	21.9	0.00e+00	0	36	0	447741952	50	6317
2026-01-06 12:37:28.93	55.86	15.93	-38.9	-40.0	22.1	0.00e+00	0	36	0	455081984	50	6417
2026-01-06 12:37:32.96	56.66	16.11	-38.9	-40.0	21.8	0.00e+00	0	36	0	463470592	50	6392
2026-01-06 12:37:37.00	57.48	16.29	-38.7	-39.8	22.1	0.00e+00	92	36	0	470810624	50	6268
2026-01-06 12:37:41.04	58.31	16.46	-38.6	-39.6	22.3	0.00e+00	0	36	0	478150656	50	6124
2026-01-06 12:37:45.07	59.15	16.62	-38.9	-40.0	21.8	0.00e+00	0	36	0	485490688	50	6439
2026-01-06 12:37:49.11	60.00	16.79	-38.0	-39.0	22.9	0.00e+00	0	36	0	492830720	50	5733
2026-01-06 12:37:53.15	60.85	16.94	-37.9	-38.8	22.8	0.00e+00	64	36	0	501219328	48	6293
2026-01-06 12:37:57.18	61.72	17.09	-38.3	-39.3	22.6	0.00e+00	7	36	0	508559360	48	6651
2026-01-06 12:38:01.21	62.59	17.24	-38.2	-39.2	22.6	0.00e+00	0	36	0	515899392	50	5836
2026-01-06 12:38:05.24	63.47	17.38	-37.3	-38.3	23.3	0.00e+00	75	36	0	523239424	48	5908
2026-01-06 12:38:09.28	64.36	17.52	-37.9	-38.9	22.8	0.00e+00	0	36	0	531628032	48	6342
2026-01-06 12:38:13.32	65.25	17.65	-37.9	-38.9	22.9	0.00e+00	0	36	0	538968064	48	6333
2026-01-06 12:38:17.36	66.16	17.77	-37.6	-38.5	22.9	0.00e+00	0	35	0	546308096	48	6082
2026-01-06 12:38:21.40	67.07	17.89	-36.8	-37.7	23.7	0.00e+00	92	36	0	553648128	48	5553
2026-01-06 12:38:25.43	67.99	18.00	-37.5	-38.4	23.0	0.00e+00	0	35	0	560988160	48	6019
2026-01-06 12:38:29.47	68.91	18.10	-37.3	-38.2	23.2	0.00e+00	0	36	0	569376768	48	5868
2026-01-06 12:38:33.51	69.84	18.20	-37.9	-38.9	22.8	0.00e+00	0	36	0	576716800	48	6362
2026-01-06 12:38:37.55	70.78	18.29	-37.6	-38.5	23.2	0.00e+00	92	36	0	584056832	48	6061
2026-01-06 12:38:41.57	71.72	18.37	-38.3	-39.3	22.6	0.00e+00	0	36	0	591396864	48	6631
2026-01-06 12:38:45.61	72.67	18.45	-38.0	-39.0	22.8	0.00e+00	0	36	0	599785472	48	6427
2026-01-06 12:38:49.65	73.62	18.52	-38.9	-40.0	22.1	0.00e+00	65	36	0	607125504	50	6395
2026-01-06 12:38:53.68	74.57	18.58	-38.7	-39.8	22.0	0.00e+00	1	36	0	614465536	50	6268
2026-01-06 12:38:57.72	75.53	18.63	-38.7	-39.7	22.2	0.00e+00	0	36	0	621805568	50	6205
2026-01-06 12:39:01.78	76.50	18.67	-38.0	-38.9	22.9	0.00e+00	0	36	0	629145600	50	5685
2026-01-06 12:39:05.81	77.46	18.71	-38.4	-39.4	22.7	0.00e+00	1	36	0	637534208	50	5982
2026-01-06 12:39:09.85	78.43	18.74	-38.3	-39.3	22.6	0.00e+00	0	36	0	644874240	50	5902
2026-01-06 12:39:13.88	79.39	18.76	-38.7	-39.8	22.2	0.00e+00	0	36	0	652214272	50	6253
2026-01-06 12:39:17.92	80.36	18.78	-39.2	-40.3	21.7	0.00e+00	5	36	0	659554304	50	6664
2026-01-06 12:39:21.96	81.33	18.78	-38.6	-39.6	22.3	0.00e+00	92	36	0	667942912	50	6173
2026-01-06 12:39:25.99	82.30	18.78	-38.0	-39.0	22.8	0.00e+00	0	36	0	675282944	50	5745
2026-01-06 12:39:30.03	83.27	18.77	-38.4	-39.4	22.4	0.00e+00	0	36	0	682622976	50	6031
2026-01-06 12:39:34.07	84.24	18.75	-38.8	-39.9	22.1	0.00e+00	0	36	0	689963008	50	6354
2026-01-06 12:39:38.11	85.21	18.73	-38.6	-39.7	22.2	0.00e+00	92	36	0	697303040	50	6194
2026-01-06 12:39:42.14	86.17	18.69	-38.7	-39.8	22.0	0.00e+00	0	36	0	705691648	50	6248
2026-01-06 12:39:46.18	87.14	18.65	-38.2	-39.2	22.7	0.00e+00	0	36	0	713031680	50	5836
2026-01-06 12:39:50.22	88.10	18.60	-37.5	-38.4	23.2	0.00e+00	55	36	0	720371712	48	6015
2026-01-06 12:39:54.26	89.06	18.55	-38.2	-39.2	22.5	0.00e+00	0	35	0	727711744	48	6614
2026-01-06 12:39:58.29	90.01	18.48	-38.6	-39.6	22.3	0.00e+00	0	35	0	736100352	48	6899
2026-01-06 12:40:02.33	90.96	18.41	-38.4	-39.4	22.2	0.00e+00	0	36	0	743440384	48	6751
2026-01-06 12:40:06.37	91.91	18.33	-37.8	-38.8	23.0	0.00e+00	89	36	0	750780416	48	6276
2026-01-06 12:40:10.40	92.85	18.24	-38.5	-39.5	22.3	0.00e+00	0	36	0	758120448	48	6844
2026-01-06 12:40:14.44	93.78	18.15	-38.2	-39.2	22.6	0.00e+00	0	36	0	765460480	50	5895
2026-01-06 12:40:18.48	94.71	18.05	-37.7	-38.7	23.0	0.00e+00	0	36	0	773849088	48	6175
2026-01-06 12:40:22.52	95.64	17.94	-37.8	-38.8	23.0	0.00e+00	90	36	0	781189120	48	6248
2026-01-06 12:40:26.55	96.55	17.83	-36.9	-37.8	23.5	0.00e+00	0	36	0	788529152	48	5628
2026-01-06 12:40:30.59	97.46	17.71	-37.6	-38.6	23.1	0.00e+00	0	35	0	795869184	48	6118
2026-01-06 12:40:34.62	98.36	17.58	-37.0	-37.9	23.6	0.00e+00	89	36	0	804257792	48	5659
2026-01-06 12:40:38.66	99.26	17.45	-37.2	-38.1	23.3	0.00e+00	85	36	0	811597824	48	5799
2026-01-06 12:40:42.70	100.15	17.31	-37.3	-38.2	23.4	0.00e+00	0	36	0	818937856	48	5847
2026-01-06 12:40:46.74	101.03	17.16	-37.8	-38.7	22.9	0.00e+00	0	36	0	826277888	48	6243
2026-01-06 12:40:50.78	101.90	17.01	-37.3	-38.2	23.2	0.00e+00	44	35	0	833617920	48	5895
2026-01-06 12:40:54.81	102.76	16.86	-37.9	-38.9	22.9	0.00e+00	0	36	0	842006528	48	6323
2026-01-06 12:40:58.85	103.61	16.70	-37.3	-38.3	23.3	0.00e+00	0	35	0	849346560	48	5916
2026-01-06 12:41:02.89	104.46	16.53	-38.4	-39.5	22.2	0.00e+00	0	35	0	856686592	48	6844
2026-01-06 12:41:06.93	105.30	16.36	-38.3	-39.3	22.4	0.00e+00	91	35	0	864026624	48	6668
2026-01-06 12:41:10.96	106.12	16.19	-37.7	-38.7	23.0	0.00e+00	0	36	0	871366656	48	6183
2026-01-06 12:41:15.00	106.94	16.01	-37.4	-38.3	23.3	0.00e+00	0	36	0	879755264	48	5925
2026-01-06 12:41:19.04	107.75	15.83	-38.1	-39.1	22.4	0.00e+00	0	36	0	887095296	48	6481
2026-01-06 12:41:23.08	108.55	15.64	-39.6	-40.8	21.2	0.00e+00	90	36	0	894435328	50	7050
2026-01-06 12:41:27.11	109.33	15.45	-39.1	-40.2	21.8	0.00e+00	0	36	0	901775360	52	5881
2026-01-06 12:41:31.15	110.11	15.26	-38.1	-39.1	22.6	0.00e+00	0	35	0	910163968	50	5796
2026-01-06 12:41:35.19	110.88	15.06	-37.7	-38.6	23.0	0.00e+00	90	36	0	917504000	48	6161
2026-01-06 12:41:39.23	111.64	14.86	-39.2	-40.3	21.4	0.00e+00	0	36	0	924844032	50	6691
2026-01-06 12:41:43.26	112.39	14.66	-38.7	-39.7	22.1	0.00e+00	0	36	0	932184064	50	6240
2026-01-06 12:41:47.30	113.13	14.45	-38.3	-39.3	22.4	0.00e+00	0	36	0	939524096	50	5951
2026-01-06 12:41:51.33	113.86	14.24	-38.1	-39.1	22.5	0.00e+00	79	36	0	947912704	50	5796
2026-01-06 12:41:55.37	114.58	14.03	-37.8	-38.8	22.8	0.00e+00	0	36	0	955252736	50	5600
2026-01-06 12:41:59.41	115.29	13.82	-38.6	-39.7	22.1	0.00e+00	0	36	0	962592768	50	6191
2026-01-06 12:42:03.45	115.99	13.60	-37.6	-38.6	22.8	0.00e+00	0	36	0	969932800	48	6127
2026-01-06 12:42:07.49	116.68	13.38	-37.7	-38.7	22.9	0.00e+00	92	36	0	978321408	48	6175
2026-01-06 12:42:11.52	117.36	13.17	-38.0	-39.1	22.3	0.00e+00	0	36	0	985661440	48	6472
2026-01-06 12:42:15.56	118.03	12.94	-38.1	-39.1	22.6	0.00e+00	0	36	0	993001472	48	6509
2026-01-06 12:42:19.60	118.69	12.72	-38.2	-39.2	22.5	0.00e+00	86	36	0	1000341504	48	6567
2026-01-06 12:42:23.65	119.34	12.50	-37.3	-38.3	23.2	0.00e+00	0	36	0	1007681536	48	5914
2026-01-06 12:42:27.68	119.98	12.27	-37.1	-38.1	23.3	0.00e+00	0	36	0	1016070144	48	5764
2026-01-06 12:42:31.72	120.62	12.05	-38.1	-39.1	22.5	0.00e+00	0	36	0	1023410176	48	6504
2026-01-06 12:42:35.76	121.24	11.82	-37.7	-38.7	22.9	0.00e+00	89	36	0	1030750208	48	6187
2026-01-06 12:42:39.79	121.85	11.59	-37.3	-38.3	23.1	0.00e+00	0	36	0	1038090240	48	5910
2026-01-06 12:42:43.83	122.46	11.37	-38.0	-39.0	22.6	0.00e+00	0	36	0	1046478848	48	6402
2026-01-06 12:42:47.87	123.05	11.14	-37.7	-38.7	22.7	0.00e+00	0	36	0	1053818880	48	6221
2026-01-06 12:42:51.91	123.64	10.91	-38.1	-39.1	22.4	0.00e+00	92	36	0	1061158912	48	6470
2026-01-06 12:42:55.95	124.22	10.68	-39.0	-40.2	21.6	0.00e+00	0	36	0	1068498944	50	6547
2026-01-06 12:42:59.99	124.79	10.45	-38.8	-39.9	21.9	0.00e+00	0	36	0	1075838976	50	6328
2026-01-06 12:43:04.02	125.35	10.22	-38.4	-39.4	22.2	0.00e+00	0	36	0	1084227584	50	6033
2026-01-06 12:43:08.06	125.90	9.99	-38.8	-39.8	21.9	0.00e+00	92	36	0	1091567616	50	6303
2026-01-06 12:43:12.10	126.44	9.75	-38.5	-39.5	22.1	0.00e+00	0	36	0	1098907648	50	6089
2026-01-06 12:43:16.13	126.98	9.52	-38.5	-39.6	22.0	0.00e+00	0	36	0	1106247680	50	6108
2026-01-06 12:43:20.17	127.51	9.29	-38.9	-40.1	21.6	0.00e+00	88	36	0	1114636288	50	6487
2026-01-06 12:43:24.21	128.03	9.06	-38.5	-39.6	22.0	0.00e+00	33	36	0	1121976320	50	6136
2026-01-06 12:43:28.25	128.54	8.83	-38.6	-39.6	21.9	0.00e+00	0	36	0	1129316352	50	6162
2026-01-06 12:43:32.28	129.04	8.60	-38.8	-39.9	21.7	0.00e+00	0	36	0	1136656384	50	6365
2026-01-06 12:43:36.32	129.54	8.37	-38.9	-40.0	21.6	0.00e+00	86	36	0	1143996416	50	6439
2026-01-06 12:43:40.36	130.03	8.14	-38.2	-39.2	22.1	0.00e+00	0	36	0	1152385024	50	5866
2026-01-06 12:43:44.40	130.51	7.91	-38.1	-39.1	22.0	0.00e+00	0	36	0	1159725056	50	5773
2026-01-06 12:43:48.43	130.98	7.68	-38.7	-39.8	21.6	0.00e+00	0	36	0	1167065088	50	6259
2026-01-06 12:43:52.47	131.45	7.45	-39.7	-40.9	20.6	0.00e+00	83	36	0	1174405120	50	7150
2026-01-06 12:43:56.50	131.91	7.22	-39.8	-41.1	20.6	0.00e+00	0	36	0	1181745152	52	6467
2026-01-06 12:44:00.54	132.36	7.00	-40.8	-42.2	19.5	0.00e+00	0	36	0	1190133760	54	6592
2026-01-06 12:44:04.58	132.81	6.77	-41.1	-42.7	19.0	0.00e+00	84	36	0	1197473792	54	6932
2026-01-06 12:44:08.61	133.25	6.54	-40.9	-42.5	19.3	0.00e+00	0	36	0	1204813824	54	6776
2026-01-06 12:44:12.64	133.68	6.32	-40.1	-41.5	20.1	0.00e+00	0	36	0	1212153856	54	6044
2026-01-06 12:44:16.68	134.11	6.09	-39.9	-41.3	20.3	0.00e+00	0	36	0	1220542464	52	6623
2026-01-06 12:44:20.72	134.53	5.87	-39.9	-41.3	20.1	0.00e+00	81	36	0	1227882496	52	6649
2026-01-06 12:44:24.76	134.94	5.64	-40.1	-41.5	20.0	0.00e+00	0	36	0	1235222528	52	6819
2026-01-06 12:44:28.80	135.35	5.42	-39.5	-40.8	20.6	0.00e+00	0	36	0	1242562560	52	6280
2026-01-06 12:44:32.83	135.75	5.20	-39.8	-41.1	20.3	0.00e+00	0	36	0	1249902592	52	6507
2026-01-06 12:44:36.87	136.15	4.98	-40.0	-41.3	20.0	0.00e+00	88	36	0	1258291200	52	6678
2026-01-06 12:44:40.91	136.54	4.75	-40.6	-42.1	19.3	0.00e+00	0	36	0	1265631232	52	7308
2026-01-06 12:44:44.94	136.93	4.53	-40.6	-42.1	19.2	0.00e+00	0	36	0	1272971264	54	6526
2026-01-06 12:44:48.98	137.31	4.31	-40.8	-42.4	18.9	0.00e+00	0	36	0	1280311296	54	6719
2026-01-06 12:44:53.02	137.68	4.10	-40.5	-42.1	19.1	0.00e+00	87	36	0	1288699904	54	6485
2026-01-06 12:44:57.06	138.05	3.88	-40.5	-42.1	19.0	0.00e+00	0	36	0	1296039936	54	6492
2026-01-06 12:45:01.10	138.41	3.66	-40.9	-42.5	18.5	0.00e+00	0	36	0	1303379968	54	6832
2026-01-06 12:45:05.13	138.77	3.44	-41.8	-43.8	17.0	0.00e+00	53	36	0	1310720000	56	7066
2026-01-06 12:45:09.17	139.13	3.23	-42.7	-45.4	15.3	0.00e+00	0	36	0	1318060032	58	7595
2026-01-06 12:45:13.21	139.48	3.01	-43.6	-47.3	13.0	1.83e-05	0	36	0	1326448640	58	9358
2026-01-06 12:45:17.24	139.82	2.80	-48.5	-63.7	3.6	1.51e+00	0	36	104	1326448640	60	55245
2026-01-06 12:45:21.28	140.16	2.59	-48.7	-64.0	3.6	1.51e+00	0	36	104	1326448640	60	57417
2026-01-06 12:45:25.31	140.49	2.37	-48.7	-64.0	3.6	1.51e+00	0	36	104	1326448640	60	57159
2026-01-06 12:45:29.35	140.82	2.16	-48.7	-64.0	3.6	1.51e+00	0	36	104	1326448640	60	56978
2026-01-06 12:45:33.39	141.15	1.95	-48.7	-63.9	3.6	1.51e+00	0	36	104	1326448640	60	56704
2026-01-06 12:45:37.43	141.47	1.74	-48.7	-63.9	3.6	1.51e+00	0	36	104	1326448640	60	56565
2026-01-06 12:45:41.47	141.79	1.53	-48.7	-63.9	3.6	1.51e+00	0	36	104	1326448640	60	56914
2026-01-06 12:45:45.50	142.10	1.33	-48.7	-63.9	3.6	1.51e+00	0	36	104	1326448640	60	56916
2026-01-06 12:45:49.54	142.41	1.12	-48.7	-63.9	3.6	1.51e+00	0	36	104	1326448640	60	56824
2026-01-06 12:45:53.58	142.71	0.91	-48.7	-63.9	3.6	1.51e+00	0	36	104	1326448640	60	56882
2026-01-06 12:45:57.61	143.01	0.71	-48.7	-63.9	3.6	1.51e+00	0	36	104	1326448640	60	56601
2026-01-06 12:46:01.65	143.31	0.50	-48.7	-63.9	3.6	1.51e+00	0	36	104	1326448640	60	56507
2026-01-06 12:46:05.69	143.60	0.30	-48.7	-63.9	3.6	1.51e+00	0	36	104	1326448640	60	56521
2026-01-06 12:46:09.73	143.89	0.09	-48.7	-63.9	3.6	1.51e+00	0	36	104	1326448640	60	56428

#Closed at: 2026-01-06 12:46:12
#Recorded file [1326 MB]: D:/lorett/data/35029_260107_003234.dat