passes_logs/2026/01/06/R4.6S_Anadyr/R4.6S_Anadyr__20260106_224533_TY-42_rec.log

#Pass ID: 20260106_224533_TY-42
#Satellite: TY-42
#Configuration: TY-42_900M
#almurnet v.1.7.20251203
#Start time: 2026-01-06 22:46:06

#Version: 2.2.20231116
#Station: R4.6S_Anadyr
#Location: 177.4865 lon 64.73178 lat
#TLE: 1 64048U 25103A   26005.68684028  .00008011  00000-0  38191-3 0 09993
#TLE: 2 64048 097.4106 081.2795 0001725 092.4682 306.5290 15.19173644 35407

#Time	Az	El	Level	Level2	SNR	BER	BlckErr	Temp	State	Recorded	gain1	gain2
2026-01-06 22:46:06.00	20.56	2.07	-48.9	-63.8	3.5	1.51e+00	0	32	0	0	60	55915
2026-01-06 22:46:09.03	20.71	2.28	-48.0	-50.5	6.0	0.00e+00	0	33	104	0	60	41171
2026-01-06 22:46:12.05	20.86	2.48	-48.0	-50.5	6.1	0.00e+00	0	33	104	0	60	41044
2026-01-06 22:46:15.08	21.01	2.69	-48.0	-50.5	6.1	0.00e+00	0	34	104	0	60	40971
2026-01-06 22:46:18.11	21.16	2.90	-48.0	-50.5	6.1	0.00e+00	0	34	104	0	60	41119
2026-01-06 22:46:21.14	21.32	3.11	-48.0	-50.5	6.1	0.00e+00	0	34	104	0	60	41058
2026-01-06 22:46:24.17	21.48	3.33	-35.3	-35.6	12.3	1.20e-01	754	34	0	0	46	16591
2026-01-06 22:46:27.20	21.64	3.54	-30.0	-30.4	14.9	1.13e-01	0	34	0	335544320	36	16095
2026-01-06 22:46:30.23	21.80	3.76	-30.4	-30.7	14.7	4.63e-03	0	34	0	679477248	34	18846
2026-01-06 22:46:33.26	21.97	3.98	-33.3	-33.6	13.6	7.13e-02	0	34	0	1015021568	46	13086
2026-01-06 22:46:36.28	22.14	4.20	-43.7	-44.5	8.2	0.00e+00	0	34	104	1090519040	60	20642
2026-01-06 22:46:39.31	22.32	4.43	-32.2	-32.5	13.8	0.00e+00	0	34	0	1098907648	40	16422
2026-01-06 22:46:42.34	22.49	4.65	-29.9	-30.3	14.9	4.53e-02	0	35	0	1434451968	36	15964
2026-01-06 22:46:45.37	22.67	4.88	-29.3	-29.7	15.2	4.23e-03	0	35	0	1778384896	34	16628
2026-01-06 22:46:48.40	22.86	5.12	-28.4	-28.8	15.4	1.31e-03	0	35	0	2113929216	32	16845
2026-01-06 22:46:51.43	23.04	5.35	-27.9	-28.3	15.7	9.05e-04	0	35	0	2457862144	32	15973
2026-01-06 22:46:54.46	23.23	5.59	-28.1	-28.5	15.7	7.14e-04	0	35	0	2793406464	32	16315
2026-01-06 22:46:57.49	23.43	5.83	-27.7	-28.0	15.9	6.48e-04	0	35	0	3137339392	30	17365
2026-01-06 22:47:00.51	23.62	6.07	-27.6	-27.9	16.0	3.49e-04	0	35	0	3481272320	30	17132
2026-01-06 22:47:03.54	23.82	6.32	-27.5	-27.9	15.9	3.16e-04	0	35	0	3816816640	30	17058
2026-01-06 22:47:06.57	24.03	6.56	-27.4	-27.8	16.0	2.40e-04	0	35	0	4160749568	30	16838
2026-01-06 22:47:09.60	24.24	6.82	-27.2	-27.6	16.1	2.56e-04	0	35	0	4504682496	30	16452
2026-01-06 22:47:12.63	24.45	7.07	-27.1	-27.5	16.1	1.09e-04	0	35	0	4840226816	30	16255
2026-01-06 22:47:15.66	24.67	7.33	-27.0	-27.4	16.2	1.42e-04	0	36	0	5184159744	30	16161
2026-01-06 22:47:18.69	24.90	7.59	-26.8	-27.2	16.2	1.20e-04	0	35	0	5528092672	30	15697
2026-01-06 22:47:21.71	25.12	7.85	-26.7	-27.1	16.3	1.14e-04	0	36	0	5872025600	30	15582
2026-01-06 22:47:24.74	25.36	8.12	-26.6	-27.0	16.3	4.90e-05	0	36	0	6207569920	28	17204
2026-01-06 22:47:27.77	25.59	8.39	-26.4	-26.8	16.3	5.99e-05	0	36	0	6551502848	28	16836
2026-01-06 22:47:30.80	25.84	8.66	-26.3	-26.6	16.4	5.99e-05	0	36	0	6887047168	28	16589
2026-01-06 22:47:33.83	26.08	8.94	-26.1	-26.5	16.5	3.26e-05	0	36	0	7230980096	28	16303
2026-01-06 22:47:36.86	26.34	9.22	-25.9	-26.3	16.5	2.17e-05	0	36	0	7574913024	28	15874
2026-01-06 22:47:39.89	26.60	9.51	-25.9	-26.2	16.5	1.08e-05	0	36	0	7910457344	26	17804
2026-01-06 22:47:42.92	26.86	9.80	-25.8	-26.2	16.6	2.17e-05	0	36	0	8254390272	26	17621
2026-01-06 22:47:45.95	27.14	10.09	-25.5	-25.9	16.7	1.08e-05	0	36	0	8589934592	26	17028
2026-01-06 22:47:48.98	27.42	10.39	-25.4	-25.8	16.6	0.00e+00	0	36	0	8933867520	26	16813
2026-01-06 22:47:52.01	27.70	10.69	-25.3	-25.7	16.6	1.08e-05	0	36	0	9269411840	26	16734
2026-01-06 22:47:55.04	27.99	11.00	-25.2	-25.6	16.7	0.00e+00	0	36	0	9613344768	26	16504
2026-01-06 22:47:58.06	28.29	11.31	-25.0	-25.4	16.8	0.00e+00	0	36	0	9957277696	26	16163
2026-01-06 22:48:01.09	28.60	11.63	-24.9	-25.3	16.7	0.00e+00	0	36	0	10292822016	24	17867
2026-01-06 22:48:04.12	28.91	11.95	-24.7	-25.0	16.7	0.00e+00	0	36	0	10636754944	24	17378
2026-01-06 22:48:07.15	29.24	12.27	-24.7	-25.1	16.7	0.00e+00	0	36	0	10972299264	24	17542
2026-01-06 22:48:10.18	29.57	12.60	-24.4	-24.8	16.9	5.40e-06	0	36	0	11316232192	24	16856
2026-01-06 22:48:13.21	29.91	12.94	-24.3	-24.7	16.9	0.00e+00	0	36	0	11660165120	24	16654
2026-01-06 22:48:16.24	30.26	13.28	-24.2	-24.6	16.9	0.00e+00	0	36	0	11995709440	24	16524
2026-01-06 22:48:19.27	30.61	13.63	-24.1	-24.5	16.9	0.00e+00	0	36	0	12339642368	24	16353
2026-01-06 22:48:22.30	30.98	13.98	-23.8	-24.2	17.0	0.00e+00	0	36	0	12683575296	24	15782
2026-01-06 22:48:25.33	31.36	14.34	-23.8	-24.2	17.0	0.00e+00	0	36	0	13019119616	22	17733
2026-01-06 22:48:28.36	31.75	14.71	-23.5	-23.9	17.0	0.00e+00	0	36	0	13363052544	22	17194
2026-01-06 22:48:31.39	32.15	15.08	-23.5	-23.9	17.0	0.00e+00	0	36	0	13706985472	22	17025
2026-01-06 22:48:34.42	32.56	15.45	-23.5	-23.9	17.1	0.00e+00	0	36	0	14050918400	22	17031
2026-01-06 22:48:37.45	32.99	15.84	-23.4	-23.8	17.1	0.00e+00	0	36	0	14386462720	22	16942
2026-01-06 22:48:40.48	33.42	16.23	-23.2	-23.6	17.1	0.00e+00	0	36	0	14730395648	22	16507
2026-01-06 22:48:43.51	33.87	16.62	-23.2	-23.6	17.1	0.00e+00	0	36	0	15065939968	22	16481
2026-01-06 22:48:46.54	34.34	17.03	-22.9	-23.3	17.1	0.00e+00	0	37	0	15409872896	22	15952
2026-01-06 22:48:49.57	34.82	17.44	-22.7	-23.1	17.1	0.00e+00	0	36	0	15753805824	20	17439
2026-01-06 22:48:52.60	35.31	17.86	-22.6	-23.0	17.1	0.00e+00	0	37	0	16089350144	20	17310
2026-01-06 22:48:55.63	35.82	18.28	-22.3	-22.7	17.2	0.00e+00	0	37	0	16433283072	20	16724
2026-01-06 22:48:58.65	36.34	18.71	-22.3	-22.7	17.2	0.00e+00	0	37	0	16768827392	20	16738
2026-01-06 22:49:01.68	36.88	19.15	-22.0	-22.4	17.2	0.00e+00	0	37	0	17112760320	20	16160
2026-01-06 22:49:04.71	37.44	19.60	-21.7	-22.1	17.2	0.00e+00	0	37	0	17456693248	18	17553
2026-01-06 22:49:07.74	38.02	20.06	-21.6	-22.1	17.2	0.00e+00	0	37	0	17792237568	18	17434
2026-01-06 22:49:10.77	38.62	20.52	-21.5	-21.9	17.3	0.00e+00	0	37	0	18136170496	18	17092
2026-01-06 22:49:13.80	39.24	20.99	-21.5	-22.0	17.3	0.00e+00	0	37	0	18471714816	18	17213
2026-01-06 22:49:16.83	39.88	21.47	-21.1	-21.5	17.3	0.00e+00	0	37	0	18815647744	18	16378
2026-01-06 22:49:19.86	40.55	21.96	-20.9	-21.3	17.3	0.00e+00	0	37	0	19151192064	18	16043
2026-01-06 22:49:22.88	41.23	22.46	-20.9	-21.3	17.3	0.00e+00	0	37	0	19495124992	16	17921
2026-01-06 22:49:25.91	41.94	22.96	-20.8	-21.3	17.4	0.00e+00	0	37	0	19839057920	16	17825
2026-01-06 22:49:28.94	42.68	23.47	-20.4	-20.9	17.3	0.00e+00	0	37	0	20174602240	16	17075
2026-01-06 22:49:31.97	43.45	24.00	-20.2	-20.7	17.4	0.00e+00	0	37	0	20518535168	16	16670
2026-01-06 22:49:35.00	44.24	24.53	-20.2	-20.6	17.4	0.00e+00	0	37	0	20862468096	16	16527
2026-01-06 22:49:38.03	45.06	25.06	-19.8	-20.2	17.4	0.00e+00	0	37	0	21198012416	16	15827
2026-01-06 22:49:41.06	45.92	25.61	-19.5	-20.0	17.4	0.00e+00	0	37	0	21541945344	14	17249
2026-01-06 22:49:44.08	46.80	26.16	-19.4	-19.9	17.4	0.00e+00	0	37	0	21885878272	14	17005
2026-01-06 22:49:47.12	47.73	26.72	-19.4	-19.8	17.4	0.00e+00	0	37	0	22229811200	14	16961
2026-01-06 22:49:50.14	48.68	27.28	-19.1	-19.5	17.5	0.00e+00	0	37	0	22565355520	14	16347
2026-01-06 22:49:53.17	49.68	27.85	-18.8	-19.3	17.5	0.00e+00	0	37	0	22909288448	12	17839
2026-01-06 22:49:56.20	50.72	28.43	-18.7	-19.1	17.5	0.00e+00	0	37	0	23244832768	12	17590
2026-01-06 22:49:59.22	51.79	29.01	-18.3	-18.7	17.5	0.00e+00	0	37	0	23588765696	12	16807
2026-01-06 22:50:02.25	52.91	29.60	-18.2	-18.6	17.5	0.00e+00	0	37	0	23924310016	12	16537
2026-01-06 22:50:05.28	54.07	30.19	-18.1	-18.5	17.5	0.00e+00	0	37	0	24268242944	12	16367
2026-01-06 22:50:08.31	55.28	30.78	-17.8	-18.3	17.5	0.00e+00	0	37	0	24603787264	12	15895
2026-01-06 22:50:11.34	56.54	31.37	-17.5	-18.0	17.5	0.00e+00	0	37	0	24947720192	10	17291
2026-01-06 22:50:14.37	57.85	31.96	-17.3	-17.8	17.6	0.00e+00	0	37	0	25291653120	10	16853
2026-01-06 22:50:17.40	59.21	32.55	-17.1	-17.5	17.5	0.00e+00	0	37	0	25627197440	10	16359
2026-01-06 22:50:20.42	60.61	33.13	-17.0	-17.4	17.6	0.00e+00	0	37	0	25971130368	10	16150
2026-01-06 22:50:23.44	62.08	33.71	-16.9	-17.3	17.6	0.00e+00	0	37	0	26306674688	10	16015
2026-01-06 22:50:26.47	63.60	34.28	-16.7	-17.1	17.6	0.00e+00	0	37	0	26650607616	8	17596
2026-01-06 22:50:29.50	65.18	34.84	-16.6	-17.1	17.6	0.00e+00	0	37	0	26986151936	8	17417
2026-01-06 22:50:32.52	66.81	35.39	-16.6	-17.0	17.6	0.00e+00	0	37	0	27330084864	8	17351
2026-01-06 22:50:35.55	68.51	35.93	-16.5	-17.0	17.7	0.00e+00	0	37	0	27674017792	8	17239
2026-01-06 22:50:38.58	70.27	36.45	-16.3	-16.7	17.6	0.00e+00	0	37	0	28017950720	8	16731
2026-01-06 22:50:41.61	72.08	36.94	-16.3	-16.7	17.6	0.00e+00	0	37	0	28353495040	8	16696
2026-01-06 22:50:44.64	73.95	37.42	-16.0	-16.4	17.6	0.00e+00	0	37	0	28697427968	8	16168
2026-01-06 22:50:47.67	75.88	37.87	-15.9	-16.4	17.6	0.00e+00	0	37	0	29041360896	8	16108
2026-01-06 22:50:50.69	77.85	38.28	-15.7	-16.1	17.6	0.00e+00	0	37	0	29376905216	6	17550
2026-01-06 22:50:53.73	79.89	38.67	-15.5	-16.0	17.6	0.00e+00	0	37	0	29720838144	6	17219
2026-01-06 22:50:56.75	81.97	39.03	-15.5	-15.9	17.6	0.00e+00	0	37	0	30056382464	6	17110
2026-01-06 22:50:59.79	84.11	39.34	-15.6	-16.0	17.6	0.00e+00	0	37	0	30400315392	6	17366
2026-01-06 22:51:02.81	86.27	39.62	-15.3	-15.7	17.6	0.00e+00	0	37	0	30744248320	6	16682
2026-01-06 22:51:05.84	88.48	39.85	-15.1	-15.5	17.5	0.00e+00	0	37	0	31079792640	6	16425
2026-01-06 22:51:08.88	90.72	40.04	-15.3	-15.7	17.5	0.00e+00	0	37	0	31423725568	6	16674
2026-01-06 22:51:11.90	92.97	40.18	-15.1	-15.5	17.6	0.00e+00	0	37	0	31759269888	6	16423
2026-01-06 22:51:14.93	95.25	40.28	-15.2	-15.6	17.5	0.00e+00	0	37	0	32103202816	6	16542
2026-01-06 22:51:17.96	97.54	40.32	-15.2	-15.6	17.5	0.00e+00	0	37	0	32447135744	6	16606
2026-01-06 22:51:20.99	99.83	40.32	-15.3	-15.7	17.5	0.00e+00	0	37	0	32782680064	6	16746
2026-01-06 22:51:24.03	102.13	40.27	-15.3	-15.7	17.5	0.00e+00	0	37	0	33126612992	6	16663
2026-01-06 22:51:27.06	104.40	40.17	-15.4	-15.8	17.5	0.00e+00	0	37	0	33462157312	6	16968
2026-01-06 22:51:30.09	106.66	40.02	-15.2	-15.6	17.5	0.00e+00	0	37	0	33806090240	6	16575
2026-01-06 22:51:33.12	108.90	39.83	-15.3	-15.7	17.4	0.00e+00	0	37	0	34150023168	6	16769
2026-01-06 22:51:36.14	111.10	39.59	-49.4	-51.8	6.1	0.00e+00	0	37	104	34384904192	60	47834
2026-01-06 22:51:39.18	113.28	39.31	-49.4	-51.9	6.1	0.00e+00	0	37	104	34384904192	60	48037
2026-01-06 22:51:42.20	115.40	39.00	-49.3	-51.8	6.1	0.00e+00	0	37	104	34384904192	60	47671
2026-01-06 22:51:45.23	117.48	38.64	-49.3	-51.8	6.1	0.00e+00	0	37	104	34384904192	60	47886
2026-01-06 22:51:48.26	119.52	38.25	-49.4	-51.9	6.1	0.00e+00	0	37	104	34384904192	60	48088
2026-01-06 22:51:51.29	121.50	37.82	-49.4	-51.8	6.1	0.00e+00	0	37	104	34384904192	60	47895
2026-01-06 22:51:54.32	123.42	37.37	-49.4	-51.9	6.1	0.00e+00	0	37	104	34384904192	60	47957
2026-01-06 22:51:57.35	125.30	36.89	-49.3	-51.8	6.1	0.00e+00	0	37	104	34384904192	60	47623
2026-01-06 22:52:00.37	127.10	36.39	-49.2	-51.7	6.1	0.00e+00	0	37	104	34384904192	60	47148
2026-01-06 22:52:03.40	128.86	35.87	-49.2	-51.7	6.1	0.00e+00	0	37	104	34384904192	60	47195
2026-01-06 22:52:06.42	130.55	35.33	-49.3	-51.8	6.1	0.00e+00	0	37	104	34384904192	60	47862
2026-01-06 22:52:09.45	132.19	34.78	-49.4	-51.9	6.1	0.00e+00	0	37	104	34384904192	60	48095
2026-01-06 22:52:12.48	133.77	34.21	-49.4	-51.8	6.1	0.00e+00	0	37	104	34384904192	60	47818
2026-01-06 22:52:15.51	135.29	33.64	-49.4	-51.8	6.1	0.00e+00	0	37	104	34384904192	60	47845
2026-01-06 22:52:18.54	136.76	33.06	-49.3	-51.8	6.1	0.00e+00	0	37	104	34384904192	60	47800
2026-01-06 22:52:21.57	138.17	32.47	-49.4	-51.8	6.1	0.00e+00	0	37	104	34384904192	60	47525
2026-01-06 22:52:24.60	139.53	31.87	-49.3	-51.8	6.1	0.00e+00	0	37	104	34384904192	60	47716
2026-01-06 22:52:27.63	140.84	31.28	-49.3	-51.8	6.1	0.00e+00	0	37	104	34384904192	60	47752
2026-01-06 22:52:30.66	142.09	30.68	-49.3	-51.8	6.1	0.00e+00	0	37	104	34384904192	60	47690
2026-01-06 22:52:33.69	143.30	30.09	-49.3	-51.8	6.1	0.00e+00	0	37	104	34384904192	60	47666
2026-01-06 22:52:36.72	144.47	29.50	-49.3	-51.8	6.1	0.00e+00	0	37	104	34384904192	60	47597
2026-01-06 22:52:39.74	145.58	28.91	-49.3	-51.8	6.1	0.00e+00	0	37	104	34384904192	60	47552
2026-01-06 22:52:42.77	146.66	28.33	-49.3	-51.8	6.1	0.00e+00	0	37	104	34384904192	60	47596
2026-01-06 22:52:45.80	147.69	27.75	-49.3	-51.8	6.1	0.00e+00	0	37	104	34384904192	60	47522
2026-01-06 22:52:48.83	148.69	27.17	-49.3	-51.8	6.1	0.00e+00	0	37	104	34384904192	60	47428
2026-01-06 22:52:51.86	149.64	26.60	-49.2	-51.7	6.1	0.00e+00	0	37	104	34384904192	60	47371
2026-01-06 22:52:54.88	150.56	26.04	-49.3	-51.7	6.1	0.00e+00	0	37	104	34384904192	60	47281
2026-01-06 22:52:57.91	151.45	25.49	-49.2	-51.7	6.1	0.00e+00	0	37	104	34384904192	60	47084
2026-01-06 22:53:00.94	152.30	24.94	-49.3	-51.7	6.1	0.00e+00	0	37	104	34384904192	60	47254
2026-01-06 22:53:03.97	153.13	24.40	-49.1	-51.6	6.1	0.00e+00	0	37	104	34384904192	60	46577
2026-01-06 22:53:07.00	153.92	23.87	-49.2	-51.7	6.1	0.00e+00	0	37	104	34384904192	60	47209
2026-01-06 22:53:10.03	154.68	23.35	-49.2	-51.7	6.1	0.00e+00	0	37	104	34384904192	60	47112
2026-01-06 22:53:13.05	155.42	22.83	-49.2	-51.7	6.1	0.00e+00	0	37	104	34384904192	60	47257
2026-01-06 22:53:16.08	156.13	22.33	-49.2	-51.7	6.1	0.00e+00	0	37	104	34384904192	60	47123
2026-01-06 22:53:19.11	156.82	21.83	-49.2	-51.7	6.1	0.00e+00	0	37	104	34384904192	60	46955
2026-01-06 22:53:22.14	157.48	21.34	-49.1	-51.6	6.1	0.00e+00	0	37	104	34384904192	60	46629
2026-01-06 22:53:25.16	158.12	20.86	-49.2	-51.6	6.1	0.00e+00	0	37	104	34384904192	60	46830
2026-01-06 22:53:28.19	158.73	20.38	-49.1	-51.6	6.1	0.00e+00	0	37	104	34384904192	60	46461
2026-01-06 22:53:31.22	159.33	19.92	-49.1	-51.6	6.1	0.00e+00	0	37	104	34384904192	60	46580
2026-01-06 22:53:34.25	159.91	19.46	-49.1	-51.6	6.1	0.00e+00	0	37	104	34384904192	60	46650
2026-01-06 22:53:37.27	160.47	19.01	-49.1	-51.6	6.1	0.00e+00	0	37	104	34384904192	60	46780
2026-01-06 22:53:40.30	161.01	18.57	-49.1	-51.6	6.1	0.00e+00	0	37	104	34384904192	60	46445
2026-01-06 22:53:43.33	161.53	18.13	-49.1	-51.6	6.1	0.00e+00	0	37	104	34384904192	60	46574
2026-01-06 22:53:46.36	162.04	17.71	-49.1	-51.6	6.1	0.00e+00	0	37	104	34384904192	60	46372
2026-01-06 22:53:49.39	162.53	17.29	-49.1	-51.6	6.1	0.00e+00	0	37	104	34384904192	60	46472
2026-01-06 22:53:52.41	163.01	16.88	-49.0	-51.5	6.1	0.00e+00	0	37	104	34384904192	60	46108
2026-01-06 22:53:55.44	163.47	16.47	-49.0	-51.5	6.1	0.00e+00	0	37	104	34384904192	60	46154
2026-01-06 22:53:58.47	163.92	16.07	-49.0	-51.5	6.1	0.00e+00	0	37	104	34384904192	60	46220
2026-01-06 22:54:01.50	164.36	15.68	-49.0	-51.5	6.1	0.00e+00	0	37	104	34384904192	60	46269
2026-01-06 22:54:04.53	164.78	15.30	-49.0	-51.5	6.1	0.00e+00	0	37	104	34384904192	60	45819
2026-01-06 22:54:07.55	165.19	14.92	-49.0	-51.4	6.0	0.00e+00	0	37	104	34384904192	60	45725
2026-01-06 22:54:10.58	165.59	14.55	-49.0	-51.5	6.1	0.00e+00	0	36	104	34384904192	60	45977
2026-01-06 22:54:13.60	165.97	14.18	-49.0	-51.5	6.1	0.00e+00	0	37	104	34384904192	60	45803
2026-01-06 22:54:16.63	166.35	13.82	-49.0	-51.4	6.1	0.00e+00	0	37	104	34384904192	60	45536
2026-01-06 22:54:19.66	166.72	13.47	-48.9	-51.4	6.1	0.00e+00	0	37	104	34384904192	60	45764
2026-01-06 22:54:22.69	167.08	13.12	-48.9	-51.5	6.1	0.00e+00	0	37	104	34384904192	60	45783
2026-01-06 22:54:25.71	167.42	12.78	-48.9	-51.4	6.1	0.00e+00	0	37	104	34384904192	60	45688
2026-01-06 22:54:28.75	167.76	12.44	-49.0	-51.4	6.1	0.00e+00	0	37	104	34384904192	60	45729
2026-01-06 22:54:31.78	168.09	12.11	-48.9	-51.4	6.1	0.00e+00	0	37	104	34384904192	60	45509
2026-01-06 22:54:34.80	168.41	11.78	-48.9	-51.5	6.1	0.00e+00	0	37	104	34384904192	60	45925
2026-01-06 22:54:37.83	168.72	11.46	-48.9	-51.4	6.1	0.00e+00	0	37	104	34384904192	60	45588
2026-01-06 22:54:40.86	169.03	11.15	-48.9	-51.4	6.1	0.00e+00	0	37	104	34384904192	60	45267
2026-01-06 22:54:43.88	169.33	10.83	-48.7	-51.3	6.1	0.00e+00	0	37	104	34384904192	60	44766
2026-01-06 22:54:46.91	169.62	10.53	-48.9	-51.4	6.1	0.00e+00	0	37	104	34384904192	60	45267
2026-01-06 22:54:49.94	169.90	10.22	-48.8	-51.3	6.1	0.00e+00	0	37	104	34384904192	60	44993
2026-01-06 22:54:52.97	170.18	9.92	-48.8	-51.3	6.1	0.00e+00	0	37	104	34384904192	60	45094
2026-01-06 22:54:56.00	170.45	9.63	-48.7	-51.2	6.1	0.00e+00	0	37	104	34384904192	60	44297
2026-01-06 22:54:59.03	170.71	9.34	-48.7	-51.2	6.1	0.00e+00	0	37	104	34384904192	60	44469
2026-01-06 22:55:02.06	170.97	9.05	-48.6	-51.1	6.1	0.00e+00	0	37	104	34384904192	60	43889
2026-01-06 22:55:05.08	171.22	8.77	-48.7	-51.1	6.1	0.00e+00	0	37	104	34384904192	60	44145
2026-01-06 22:55:08.11	171.47	8.49	-48.5	-50.9	6.1	0.00e+00	0	36	104	34384904192	60	43109
2026-01-06 22:55:11.14	171.71	8.22	-48.6	-51.1	6.1	0.00e+00	0	37	104	34384904192	60	43923
2026-01-06 22:55:14.17	171.95	7.94	-48.4	-50.9	6.1	0.00e+00	0	36	104	34384904192	60	43071
2026-01-06 22:55:17.20	172.18	7.68	-48.6	-51.1	6.1	0.00e+00	0	37	104	34384904192	60	43783
2026-01-06 22:55:20.23	172.40	7.41	-48.5	-51.0	6.1	0.00e+00	0	37	104	34384904192	60	43235
2026-01-06 22:55:23.26	172.63	7.15	-48.5	-51.0	6.1	0.00e+00	0	37	104	34384904192	60	43507
2026-01-06 22:55:26.28	172.84	6.89	-48.4	-50.9	6.1	0.00e+00	0	37	104	34384904192	60	43156
2026-01-06 22:55:29.31	173.05	6.64	-48.5	-51.0	6.1	0.00e+00	0	37	104	34384904192	60	43571
2026-01-06 22:55:32.34	173.26	6.39	-48.3	-50.8	6.1	0.00e+00	0	37	104	34384904192	60	42656
2026-01-06 22:55:35.36	173.46	6.14	-48.5	-51.0	6.1	0.00e+00	0	37	104	34384904192	60	43299
2026-01-06 22:55:38.38	173.66	5.89	-48.4	-50.9	6.1	0.00e+00	0	37	104	34384904192	60	42885
2026-01-06 22:55:41.41	173.86	5.65	-48.5	-50.9	6.1	0.00e+00	0	37	104	34384904192	60	43206
2026-01-06 22:55:44.44	174.05	5.41	-48.4	-50.9	6.1	0.00e+00	0	37	104	34384904192	60	43000
2026-01-06 22:55:47.47	174.24	5.17	-48.4	-50.8	6.1	0.00e+00	0	37	104	34384904192	60	42489
2026-01-06 22:55:50.50	174.42	4.94	-48.2	-50.7	6.1	0.00e+00	0	37	104	34384904192	60	42162
2026-01-06 22:55:53.52	174.60	4.70	-48.3	-50.8	6.1	0.00e+00	0	37	104	34384904192	60	42445
2026-01-06 22:55:56.56	174.78	4.47	-48.3	-50.8	6.1	0.00e+00	0	36	104	34384904192	60	42382
2026-01-06 22:55:59.59	174.96	4.24	-48.3	-50.7	6.1	0.00e+00	0	37	104	34384904192	60	42137
2026-01-06 22:56:02.61	175.13	4.02	-48.3	-50.8	6.1	0.00e+00	0	37	104	34384904192	60	42663
2026-01-06 22:56:05.64	175.30	3.80	-48.2	-50.7	6.1	0.00e+00	0	37	104	34384904192	60	41792
2026-01-06 22:56:08.67	175.46	3.57	-48.2	-50.7	6.1	0.00e+00	0	36	104	34384904192	60	41882
2026-01-06 22:56:11.70	175.62	3.36	-48.1	-50.6	6.1	0.00e+00	0	37	104	34384904192	60	41637
2026-01-06 22:56:14.73	175.78	3.14	-48.2	-50.6	6.1	0.00e+00	0	36	104	34384904192	60	41713
2026-01-06 22:56:17.75	175.94	2.93	-48.8	-51.3	6.1	0.00e+00	0	37	104	34384904192	60	45087
2026-01-06 22:56:20.78	176.09	2.71	-49.3	-51.8	6.1	0.00e+00	0	36	104	34384904192	60	47527
2026-01-06 22:56:23.81	176.25	2.50	-49.4	-51.9	6.1	0.00e+00	0	37	104	34384904192	60	48013
2026-01-06 22:56:26.84	176.39	2.29	-49.4	-51.9	6.1	0.00e+00	0	37	104	34384904192	60	48274
2026-01-06 22:56:29.87	176.54	2.09	-49.4	-51.8	6.1	0.00e+00	0	37	104	34384904192	60	47701
2026-01-06 22:56:32.90	176.68	1.88	-49.4	-51.9	6.1	0.00e+00	0	37	104	34384904192	60	47973
2026-01-06 22:56:35.92	176.83	1.68	-49.4	-51.8	6.1	0.00e+00	0	37	104	34384904192	60	47679
2026-01-06 22:56:38.95	176.97	1.48	-49.3	-51.8	6.1	0.00e+00	0	37	104	34384904192	60	47778
2026-01-06 22:56:41.99	177.10	1.28	-49.3	-51.8	6.1	0.00e+00	0	37	104	34384904192	60	47669
2026-01-06 22:56:45.02	177.24	1.08	-49.3	-51.9	6.1	0.00e+00	0	37	104	34384904192	60	48040
2026-01-06 22:56:48.04	177.37	0.88	-49.3	-51.8	6.1	0.00e+00	0	37	104	34384904192	60	47788
2026-01-06 22:56:51.07	177.50	0.69	-49.3	-51.9	6.1	0.00e+00	0	37	104	34384904192	60	47940
2026-01-06 22:56:54.10	177.63	0.50	-49.3	-51.8	6.1	0.00e+00	0	37	104	34384904192	60	47820
2026-01-06 22:56:57.13	177.76	0.30	-49.3	-51.8	6.1	0.00e+00	0	37	104	34384904192	60	47810
2026-01-06 22:57:00.16	177.88	0.11	-49.3	-51.8	6.1	0.00e+00	0	36	104	34384904192	60	47880

#Closed at: 2026-01-06 22:57:02
#Recorded file [34384 MB]: D:/lorett/data/35029_260107_104605.dat