passes_logs/2026/01/06/R4.6S_Anadyr/R4.6S_Anadyr__20260106_215954_NOAA_21_JPSS-2_rec.log

#Pass ID: 20260106_215954_NOAA 21 (JPSS-2)
#Satellite: NOAA 21 (JPSS-2)
#Configuration: NOAA-21
#almurnet v.1.7.20251203
#Start time: 2026-01-06 21:59:55

#Version: 2.2.20231116
#Station: R4.6S_Anadyr
#Location: 177.4865 lon 64.73178 lat
#TLE: 1 54234U 22150A   26005.42670836  .00000142  00000+0  88292-4 0  9996
#TLE: 2 54234  98.7490 306.4427 0001045 340.6622  19.4514 14.19532269163451

#Time	Az	El	Level	Level2	SNR	BER	BlckErr	Temp	State	Recorded	gain1	gain2
2026-01-06 21:59:55.57	103.03	0.07	-48.9	-63.8	3.5	1.51e+00	0	31	0	0	60	55886
2026-01-06 21:59:59.61	102.83	0.29	-48.9	-61.7	3.5	1.52e+00	0	32	104	0	60	42857
2026-01-06 22:00:03.65	102.61	0.52	-49.0	-61.8	3.5	1.51e+00	0	33	104	0	60	43312
2026-01-06 22:00:07.68	102.40	0.74	-48.8	-61.7	3.5	1.51e+00	0	33	104	0	60	42602
2026-01-06 22:00:11.73	102.18	0.97	-48.1	-61.0	3.5	1.51e+00	0	33	104	0	60	39239
2026-01-06 22:00:15.77	101.96	1.20	-46.8	-60.1	3.5	1.52e+00	0	33	104	0	60	35343
2026-01-06 22:00:19.80	101.73	1.43	-46.8	-60.0	3.5	1.52e+00	0	33	104	0	60	34944
2026-01-06 22:00:23.84	101.50	1.66	-46.8	-60.2	3.5	1.52e+00	0	33	104	0	60	35743
2026-01-06 22:00:27.89	101.27	1.90	-46.8	-60.1	3.5	1.52e+00	0	33	104	0	60	35614
2026-01-06 22:00:31.93	101.03	2.13	-46.7	-59.9	3.5	1.52e+00	0	33	104	0	60	34810
2026-01-06 22:00:35.96	100.79	2.37	-46.8	-60.0	3.5	1.52e+00	0	33	104	0	60	35158
2026-01-06 22:00:40.00	100.55	2.60	-46.7	-60.1	3.5	1.52e+00	0	33	104	0	60	35507
2026-01-06 22:00:44.04	100.30	2.84	-46.7	-59.8	3.5	1.52e+00	0	33	104	0	60	34178
2026-01-06 22:00:48.08	100.05	3.08	-46.8	-59.8	3.5	1.52e+00	0	33	104	0	60	34416
2026-01-06 22:00:52.12	99.79	3.32	-44.2	-47.8	11.3	3.92e-03	123	33	0	5242880	60	8658
2026-01-06 22:00:56.16	99.53	3.57	-42.9	-46.8	13.3	2.63e-04	122	33	104	10485760	58	8640
2026-01-06 22:01:00.20	99.26	3.81	-38.3	-39.7	19.5	0.00e+00	120	33	0	14680064	50	5995
2026-01-06 22:01:04.23	98.99	4.06	-37.8	-39.0	20.2	0.00e+00	123	33	0	27262976	48	6244
2026-01-06 22:01:08.27	98.71	4.31	-37.8	-39.0	20.3	0.00e+00	123	34	0	39845888	48	6216
2026-01-06 22:01:12.31	98.43	4.56	-37.7	-38.9	20.4	0.00e+00	120	33	0	52428800	48	6167
2026-01-06 22:01:16.35	98.14	4.81	-37.9	-39.1	20.3	0.00e+00	122	34	0	66060288	48	6329
2026-01-06 22:01:20.39	97.85	5.06	-37.5	-38.7	20.8	0.00e+00	123	34	0	78643200	48	6046
2026-01-06 22:01:24.43	97.56	5.32	-37.4	-38.6	21.0	0.00e+00	122	34	0	90177536	48	5928
2026-01-06 22:01:28.47	97.25	5.57	-37.2	-38.3	21.2	0.00e+00	123	34	0	103809024	48	5772
2026-01-06 22:01:32.51	96.95	5.83	-37.2	-38.3	21.1	0.00e+00	122	34	0	116391936	48	5790
2026-01-06 22:01:36.55	96.63	6.09	-37.0	-38.1	21.4	0.00e+00	123	34	0	128974848	48	5654
2026-01-06 22:01:40.59	96.31	6.35	-37.0	-38.1	21.4	0.00e+00	123	34	0	141557760	48	5622
2026-01-06 22:01:44.63	95.99	6.62	-37.0	-38.1	21.5	0.00e+00	122	34	0	154140672	48	5624
2026-01-06 22:01:48.68	95.65	6.88	-36.8	-38.0	21.6	0.00e+00	123	34	0	166723584	48	5533
2026-01-06 22:01:52.72	95.32	7.15	-37.0	-38.0	21.6	0.00e+00	123	34	0	179306496	48	5593
2026-01-06 22:01:56.76	94.97	7.42	-36.6	-37.7	21.9	0.00e+00	122	34	0	191889408	46	6012
2026-01-06 22:02:00.80	94.62	7.69	-36.6	-37.6	21.9	0.00e+00	123	34	0	204472320	46	5970
2026-01-06 22:02:04.84	94.26	7.96	-36.4	-37.5	22.2	0.00e+00	123	34	0	217055232	46	5875
2026-01-06 22:02:08.88	93.90	8.24	-36.1	-37.1	22.5	0.00e+00	123	34	0	229638144	46	5621
2026-01-06 22:02:12.91	93.53	8.52	-36.1	-37.1	22.5	0.00e+00	122	34	0	242221056	46	5631
2026-01-06 22:02:16.95	93.15	8.79	-35.8	-36.8	22.7	0.00e+00	123	34	0	254803968	46	5453
2026-01-06 22:02:20.98	92.76	9.07	-35.7	-36.6	22.8	0.00e+00	123	34	0	267386880	44	5989
2026-01-06 22:02:25.01	92.37	9.36	-35.5	-36.5	23.0	0.00e+00	122	34	0	279969792	44	5885
2026-01-06 22:02:29.05	91.96	9.64	-35.4	-36.3	23.2	0.00e+00	122	34	0	292552704	44	5777
2026-01-06 22:02:33.09	91.55	9.93	-35.3	-36.2	23.3	0.00e+00	122	34	0	305135616	44	5716
2026-01-06 22:02:37.13	91.13	10.21	-35.1	-36.0	23.5	0.00e+00	123	34	0	317718528	44	5585
2026-01-06 22:02:41.17	90.71	10.50	-34.9	-35.8	23.6	0.00e+00	123	34	0	330301440	44	5454
2026-01-06 22:02:45.20	90.27	10.79	-34.7	-35.6	23.8	0.00e+00	123	34	0	342884352	42	5971
2026-01-06 22:02:49.23	89.83	11.09	-34.8	-35.8	23.6	0.00e+00	120	34	0	355467264	42	6094
2026-01-06 22:02:53.27	89.37	11.38	-34.7	-35.6	23.9	0.00e+00	123	34	0	368050176	42	5968
2026-01-06 22:02:57.31	88.91	11.68	-34.7	-35.6	23.9	0.00e+00	123	34	0	380633088	42	5960
2026-01-06 22:03:01.34	88.43	11.98	-34.7	-35.6	23.8	0.00e+00	120	34	0	393216000	42	5989
2026-01-06 22:03:05.38	87.95	12.28	-34.8	-35.7	23.8	0.00e+00	123	34	0	405798912	42	6022
2026-01-06 22:03:09.41	87.46	12.58	-34.6	-35.5	24.1	0.00e+00	123	34	0	418381824	42	5875
2026-01-06 22:03:13.46	86.95	12.88	-34.6	-35.5	24.0	0.00e+00	123	34	0	430964736	42	5923
2026-01-06 22:03:17.50	86.43	13.19	-34.5	-35.5	23.9	0.00e+00	123	34	0	444596224	42	5865
2026-01-06 22:03:21.53	85.91	13.49	-34.9	-35.8	23.8	0.00e+00	123	34	0	457179136	42	6115
2026-01-06 22:03:25.57	85.37	13.80	-34.6	-35.6	24.0	0.00e+00	122	34	0	469762048	42	5939
2026-01-06 22:03:29.61	84.82	14.11	-34.5	-35.4	24.2	0.00e+00	123	34	0	482344960	42	5812
2026-01-06 22:03:33.66	84.26	14.42	-34.5	-35.4	24.1	0.00e+00	122	34	0	494927872	42	5844
2026-01-06 22:03:37.70	83.69	14.73	-34.7	-35.6	24.0	0.00e+00	123	34	0	507510784	42	5934
2026-01-06 22:03:41.74	83.10	15.04	-34.8	-35.7	23.9	0.00e+00	122	34	0	520093696	42	6025
2026-01-06 22:03:45.78	82.51	15.36	-34.9	-35.8	23.7	0.00e+00	123	34	0	532676608	42	6112
2026-01-06 22:03:49.82	81.89	15.67	-35.2	-36.2	23.5	0.00e+00	123	34	0	545259520	42	6362
2026-01-06 22:03:53.86	81.27	15.99	-35.2	-36.1	23.7	0.00e+00	122	34	0	557842432	42	6300
2026-01-06 22:03:57.89	80.64	16.30	-35.1	-36.0	23.7	0.00e+00	122	34	0	570425344	42	6242
2026-01-06 22:04:01.93	79.98	16.62	-35.3	-36.2	23.6	0.00e+00	123	34	0	583008256	42	6396
2026-01-06 22:04:05.97	79.32	16.93	-35.0	-36.0	23.7	0.00e+00	123	34	0	595591168	42	6209
2026-01-06 22:04:10.01	78.64	17.25	-34.9	-35.8	23.9	0.00e+00	122	34	0	608174080	42	6121
2026-01-06 22:04:14.04	77.95	17.56	-34.8	-35.7	24.0	0.00e+00	122	34	0	620756992	42	6009
2026-01-06 22:04:18.07	77.24	17.88	-34.6	-35.5	24.1	0.00e+00	122	34	0	633339904	42	5889
2026-01-06 22:04:22.11	76.52	18.19	-34.3	-35.2	24.4	0.00e+00	122	34	0	645922816	42	5702
2026-01-06 22:04:26.15	75.78	18.50	-34.3	-35.2	24.5	0.00e+00	123	34	0	658505728	42	5707
2026-01-06 22:04:30.18	75.03	18.82	-34.3	-35.2	24.4	0.00e+00	123	34	0	671088640	42	5664
2026-01-06 22:04:34.22	74.26	19.13	-34.2	-35.1	24.4	0.00e+00	120	34	0	683671552	42	5646
2026-01-06 22:04:38.26	73.47	19.44	-34.0	-34.9	24.6	0.00e+00	123	34	0	696254464	42	5518
2026-01-06 22:04:42.30	72.67	19.75	-34.2	-35.1	24.4	0.00e+00	123	34	0	708837376	42	5629
2026-01-06 22:04:46.33	71.85	20.05	-33.9	-34.8	24.7	0.00e+00	123	34	0	721420288	42	5440
2026-01-06 22:04:50.37	71.02	20.35	-33.7	-34.6	24.6	0.00e+00	120	34	0	734003200	40	5986
2026-01-06 22:04:54.42	70.16	20.65	-33.7	-34.6	24.7	0.00e+00	120	34	0	746586112	40	5953
2026-01-06 22:04:58.46	69.29	20.95	-33.8	-34.7	24.8	0.00e+00	122	34	0	759169024	40	6000
2026-01-06 22:05:02.50	68.41	21.24	-33.9	-34.8	24.7	0.00e+00	123	34	0	771751936	40	6101
2026-01-06 22:05:06.53	67.51	21.53	-34.0	-34.9	24.6	0.00e+00	123	34	0	785383424	40	6175
2026-01-06 22:05:10.57	66.59	21.81	-34.2	-35.1	24.4	0.00e+00	123	34	0	796917760	40	6292
2026-01-06 22:05:14.61	65.65	22.09	-34.0	-34.9	24.6	0.00e+00	123	34	0	810549248	40	6181
2026-01-06 22:05:18.65	64.70	22.37	-34.0	-34.9	24.7	0.00e+00	123	34	0	823132160	40	6189
2026-01-06 22:05:22.69	63.73	22.64	-33.9	-34.8	24.7	0.00e+00	123	34	0	835715072	40	6115
2026-01-06 22:05:26.73	62.74	22.90	-33.8	-34.7	24.8	0.00e+00	123	34	0	848297984	40	6035
2026-01-06 22:05:30.77	61.74	23.15	-33.7	-34.6	24.9	0.00e+00	123	34	0	860880896	40	5961
2026-01-06 22:05:34.81	60.72	23.40	-33.8	-34.7	24.7	0.00e+00	123	34	0	873463808	40	6007
2026-01-06 22:05:38.85	59.68	23.64	-33.8	-34.7	24.7	0.00e+00	122	34	0	886046720	40	6043
2026-01-06 22:05:42.89	58.63	23.87	-34.1	-35.0	24.6	0.00e+00	120	34	0	898629632	40	6210
2026-01-06 22:05:46.93	57.56	24.10	-33.8	-34.7	24.9	0.00e+00	123	34	0	911212544	40	5996
2026-01-06 22:05:50.97	56.48	24.31	-33.6	-34.5	24.8	0.00e+00	123	34	0	923795456	40	5874
2026-01-06 22:05:55.01	55.39	24.52	-33.7	-34.6	24.8	0.00e+00	122	34	0	936378368	40	5932
2026-01-06 22:05:59.05	54.27	24.71	-33.7	-34.6	24.9	0.00e+00	123	34	0	948961280	40	5939
2026-01-06 22:06:03.09	53.15	24.89	-33.8	-34.7	24.8	0.00e+00	123	34	0	961544192	40	6039
2026-01-06 22:06:07.13	52.01	25.07	-33.5	-34.4	25.0	0.00e+00	123	34	0	974127104	40	5817
2026-01-06 22:06:11.17	50.86	25.23	-33.2	-34.1	25.2	0.00e+00	122	34	0	986710016	40	5604
2026-01-06 22:06:15.20	49.71	25.38	-33.3	-34.1	25.0	0.00e+00	123	34	0	999292928	40	5649
2026-01-06 22:06:19.24	48.54	25.52	-33.8	-34.7	24.8	0.00e+00	123	34	0	1011875840	40	6004
2026-01-06 22:06:23.28	47.35	25.64	-33.6	-34.5	24.9	0.00e+00	122	34	0	1024458752	40	5879
2026-01-06 22:06:27.32	46.16	25.75	-33.7	-34.6	24.9	0.00e+00	122	34	0	1037041664	40	5943
2026-01-06 22:06:31.36	44.97	25.85	-33.6	-34.5	25.0	0.00e+00	123	34	0	1049624576	40	5881
2026-01-06 22:06:35.40	43.76	25.94	-33.7	-34.6	25.0	0.00e+00	120	34	0	1062207488	40	5945
2026-01-06 22:06:39.43	42.55	26.01	-34.1	-35.0	24.6	0.00e+00	123	34	0	1074790400	40	6254
2026-01-06 22:06:43.47	41.34	26.07	-33.4	-34.3	25.2	0.00e+00	123	34	0	1087373312	40	5758
2026-01-06 22:06:47.51	40.12	26.11	-33.8	-34.7	24.9	0.00e+00	120	34	0	1099956224	40	6010
2026-01-06 22:06:51.55	38.90	26.14	-33.9	-34.8	24.8	0.00e+00	123	34	0	1112539136	40	6079
2026-01-06 22:06:55.59	37.67	26.16	-33.9	-34.8	24.8	0.00e+00	120	34	0	1126170624	40	6097
2026-01-06 22:06:59.63	36.45	26.16	-34.0	-34.9	24.8	0.00e+00	120	34	0	1137704960	40	6167
2026-01-06 22:07:03.67	35.23	26.14	-33.7	-34.6	24.9	0.00e+00	123	34	0	1151336448	40	5963
2026-01-06 22:07:07.70	34.01	26.11	-33.4	-34.3	25.2	0.00e+00	123	34	0	1163919360	40	5751
2026-01-06 22:07:11.75	32.78	26.07	-33.5	-34.4	25.1	0.00e+00	122	34	0	1176502272	40	5804
2026-01-06 22:07:15.79	31.57	26.01	-33.8	-34.7	24.9	0.00e+00	122	34	0	1189085184	40	6021
2026-01-06 22:07:19.83	30.36	25.94	-33.7	-34.5	25.0	0.00e+00	122	34	0	1201668096	40	5918
2026-01-06 22:07:23.87	29.15	25.86	-34.0	-34.9	24.8	0.00e+00	122	34	0	1214251008	40	6146
2026-01-06 22:07:27.91	27.96	25.76	-33.6	-34.5	25.0	0.00e+00	123	34	0	1226833920	40	5892
2026-01-06 22:07:31.96	26.77	25.65	-33.6	-34.4	25.0	0.00e+00	122	34	0	1239416832	40	5841
2026-01-06 22:07:35.99	25.59	25.53	-33.6	-34.5	24.8	0.00e+00	123	34	0	1251999744	40	5870
2026-01-06 22:07:40.04	24.41	25.39	-33.4	-34.3	24.8	0.00e+00	122	34	0	1264582656	40	5756
2026-01-06 22:07:44.08	23.25	25.24	-33.5	-34.3	24.9	0.00e+00	122	34	0	1277165568	40	5788
2026-01-06 22:07:48.12	22.11	25.08	-33.3	-34.1	25.1	0.00e+00	123	34	0	1289748480	40	5649
2026-01-06 22:07:52.16	20.97	24.91	-33.6	-34.4	25.0	0.00e+00	123	34	0	1302331392	40	5854
2026-01-06 22:07:56.20	19.85	24.73	-33.5	-34.4	25.1	0.00e+00	120	34	0	1314914304	40	5824
2026-01-06 22:08:00.24	18.74	24.53	-33.5	-34.3	25.1	0.00e+00	123	34	0	1327497216	40	5781
2026-01-06 22:08:04.28	17.64	24.33	-33.9	-34.8	24.8	0.00e+00	123	34	0	1340080128	40	6101
2026-01-06 22:08:08.32	16.56	24.11	-34.0	-34.9	24.6	0.00e+00	122	34	0	1352663040	40	6153
2026-01-06 22:08:12.36	15.50	23.89	-33.9	-34.8	24.7	0.00e+00	123	34	0	1365245952	40	6095
2026-01-06 22:08:16.40	14.44	23.66	-33.8	-34.7	24.9	0.00e+00	123	34	0	1377828864	40	6058
2026-01-06 22:08:20.44	13.41	23.42	-33.9	-34.8	24.8	0.00e+00	123	34	0	1390411776	40	6115
2026-01-06 22:08:24.47	12.39	23.18	-33.5	-34.3	24.8	0.00e+00	123	34	0	1402994688	40	5790
2026-01-06 22:08:28.52	11.39	22.92	-33.6	-34.4	24.9	0.00e+00	123	34	0	1415577600	40	5855
2026-01-06 22:08:32.56	10.40	22.66	-34.1	-35.0	24.5	0.00e+00	123	34	0	1428160512	40	6261
2026-01-06 22:08:36.60	9.44	22.39	-33.6	-34.5	25.0	0.00e+00	122	34	0	1441792000	40	5874
2026-01-06 22:08:40.64	8.48	22.12	-33.4	-34.3	25.2	0.00e+00	123	34	0	1454374912	40	5742
2026-01-06 22:08:44.68	7.55	21.84	-33.5	-34.4	25.0	0.00e+00	123	34	0	1466957824	40	5833
2026-01-06 22:08:48.72	6.63	21.56	-33.4	-34.3	25.2	0.00e+00	123	34	0	1479540736	40	5742
2026-01-06 22:08:52.75	5.73	21.27	-33.6	-34.4	25.1	0.00e+00	123	34	0	1492123648	40	5853
2026-01-06 22:08:56.78	4.85	20.98	-33.3	-34.2	25.2	0.00e+00	120	34	0	1504706560	40	5688
2026-01-06 22:09:00.82	3.98	20.69	-33.6	-34.5	25.0	0.00e+00	120	34	0	1517289472	40	5890
2026-01-06 22:09:04.86	3.13	20.39	-34.0	-34.9	24.7	0.00e+00	122	34	0	1529872384	40	6182
2026-01-06 22:09:08.90	2.30	20.09	-34.0	-34.9	24.7	0.00e+00	123	34	0	1542455296	40	6175
2026-01-06 22:09:12.94	1.48	19.78	-34.0	-34.9	24.6	0.00e+00	122	34	0	1555038208	40	6149
2026-01-06 22:09:16.98	0.68	19.48	-34.1	-35.0	24.6	0.00e+00	123	34	0	1567621120	40	6216
2026-01-06 22:09:21.02	359.90	19.17	-34.0	-34.8	24.8	0.00e+00	123	34	0	1580204032	40	6124
2026-01-06 22:09:25.06	359.13	18.86	-34.6	-35.5	24.3	0.00e+00	123	34	0	1592786944	40	6589
2026-01-06 22:09:29.09	358.38	18.55	-34.8	-35.7	24.0	0.00e+00	123	34	0	1605369856	42	6020
2026-01-06 22:09:33.13	357.64	18.23	-34.6	-35.6	24.2	0.00e+00	123	34	0	1617952768	42	5932
2026-01-06 22:09:37.17	356.92	17.92	-34.7	-35.6	24.0	0.00e+00	123	34	0	1630535680	42	5937
2026-01-06 22:09:41.21	356.21	17.61	-34.5	-35.4	24.2	0.00e+00	123	34	0	1643118592	42	5845
2026-01-06 22:09:45.24	355.52	17.29	-34.5	-35.4	24.3	0.00e+00	123	34	0	1655701504	42	5799
2026-01-06 22:09:49.27	354.85	16.98	-34.1	-34.9	24.6	0.00e+00	123	34	0	1668284416	42	5517
2026-01-06 22:09:53.31	354.19	16.66	-34.1	-35.0	24.5	0.00e+00	122	34	0	1680867328	42	5567
2026-01-06 22:09:57.35	353.54	16.35	-34.5	-35.3	24.1	0.00e+00	123	34	0	1693450240	42	5787
2026-01-06 22:10:01.39	352.90	16.03	-34.5	-35.4	24.1	0.00e+00	122	34	0	1706033152	42	5840
2026-01-06 22:10:05.43	352.28	15.72	-34.2	-35.1	24.4	0.00e+00	123	34	0	1718616064	42	5645
2026-01-06 22:10:09.46	351.67	15.41	-34.8	-35.7	24.0	0.00e+00	123	34	0	1731198976	42	6050
2026-01-06 22:10:13.50	351.08	15.10	-35.1	-36.1	23.7	0.00e+00	123	34	0	1743781888	42	6291
2026-01-06 22:10:17.53	350.49	14.79	-34.5	-35.4	23.9	0.00e+00	122	34	0	1756364800	42	5853
2026-01-06 22:10:21.57	349.92	14.47	-34.6	-35.5	24.1	0.00e+00	122	34	0	1768947712	42	5872
2026-01-06 22:10:25.61	349.36	14.17	-35.3	-36.2	23.5	0.00e+00	123	34	0	1781530624	42	6397
2026-01-06 22:10:29.64	348.82	13.86	-35.6	-36.6	23.1	0.00e+00	123	34	0	1794113536	42	6669
2026-01-06 22:10:33.69	348.28	13.55	-35.0	-36.0	23.5	0.00e+00	123	34	0	1807745024	42	6216
2026-01-06 22:10:37.73	347.76	13.25	-34.9	-35.8	23.8	0.00e+00	122	34	0	1819279360	42	6129
2026-01-06 22:10:41.77	347.24	12.94	-35.3	-36.3	23.5	0.00e+00	122	34	0	1832910848	42	6452
2026-01-06 22:10:45.81	346.74	12.64	-35.6	-36.6	23.1	0.00e+00	122	34	0	1845493760	42	6652
2026-01-06 22:10:49.85	346.25	12.34	-35.1	-36.0	23.4	0.00e+00	123	34	0	1858076672	42	6274
2026-01-06 22:10:53.89	345.77	12.04	-34.8	-35.7	23.9	0.00e+00	123	34	0	1870659584	42	6046
2026-01-06 22:10:57.94	345.29	11.74	-34.7	-35.6	23.9	0.00e+00	122	34	0	1883242496	42	5974
2026-01-06 22:11:01.98	344.83	11.44	-35.6	-36.5	23.2	0.00e+00	123	34	0	1895825408	42	6636
2026-01-06 22:11:06.02	344.38	11.15	-35.8	-36.8	22.9	0.00e+00	122	34	0	1908408320	44	6087
2026-01-06 22:11:10.06	343.93	10.86	-35.7	-36.7	22.8	0.00e+00	120	35	0	1920991232	44	5997
2026-01-06 22:11:14.10	343.50	10.57	-35.0	-36.0	23.5	0.00e+00	122	34	0	1933574144	44	5534
2026-01-06 22:11:18.14	343.07	10.28	-35.2	-36.1	23.4	0.00e+00	123	34	0	1946157056	44	5649
2026-01-06 22:11:22.18	342.66	9.99	-35.8	-36.8	23.0	0.00e+00	123	34	0	1958739968	44	6105
2026-01-06 22:11:26.22	342.25	9.70	-36.2	-37.2	22.5	0.00e+00	123	34	0	1971322880	44	6412
2026-01-06 22:11:30.26	341.85	9.42	-36.1	-37.1	22.4	0.00e+00	122	34	0	1983905792	44	6348
2026-01-06 22:11:34.30	341.45	9.14	-36.0	-37.1	22.4	0.00e+00	122	34	0	1996488704	44	6280
2026-01-06 22:11:38.34	341.07	8.86	-36.1	-37.1	22.4	0.00e+00	122	34	0	2009071616	44	6335
2026-01-06 22:11:42.38	340.69	8.58	-36.2	-37.2	22.5	0.00e+00	122	34	0	2021654528	44	6379
2026-01-06 22:11:46.42	340.32	8.31	-36.5	-37.6	22.1	0.00e+00	123	34	0	2034237440	44	6652
2026-01-06 22:11:50.46	339.96	8.03	-37.1	-38.1	21.7	0.00e+00	122	34	0	2046820352	46	6337
2026-01-06 22:11:54.50	339.60	7.76	-37.0	-38.1	21.7	0.00e+00	123	35	0	2059403264	46	6297
2026-01-06 22:11:58.54	339.25	7.49	-37.0	-38.1	21.5	0.00e+00	120	34	0	2071986176	46	6309
2026-01-06 22:12:02.57	338.91	7.22	-37.0	-38.0	21.6	0.00e+00	122	34	0	2084569088	46	6269
2026-01-06 22:12:06.60	338.58	6.95	-36.7	-37.8	21.8	0.00e+00	123	34	0	2097152000	46	6071
2026-01-06 22:12:10.64	338.25	6.69	-36.9	-38.0	21.6	0.00e+00	123	34	0	2109734912	46	6240
2026-01-06 22:12:14.68	337.92	6.43	-37.1	-38.2	21.4	0.00e+00	122	35	0	2122317824	46	6373
2026-01-06 22:12:18.72	337.61	6.16	-37.2	-38.3	21.2	0.00e+00	122	35	0	2134900736	46	6454
2026-01-06 22:12:22.76	337.30	5.91	-37.8	-39.0	20.3	0.00e+00	123	35	0	2148532224	48	6213
2026-01-06 22:12:26.80	336.99	5.65	-38.6	-39.9	19.0	0.00e+00	122	34	0	2161115136	48	6952
2026-01-06 22:12:30.84	336.69	5.39	-39.9	-41.7	16.7	0.00e+00	123	35	0	2173698048	52	6747
2026-01-06 22:12:34.88	336.40	5.14	-41.2	-43.7	13.7	1.50e-06	123	35	0	2186280960	54	7591
2026-01-06 22:12:38.92	336.11	4.88	-42.7	-46.7	9.7	7.50e-03	122	34	0	2198863872	56	9596
2026-01-06 22:12:42.95	335.82	4.63	-43.5	-50.7	4.0	1.03e+00	0	34	104	2210398208	58	13515
2026-01-06 22:12:46.99	335.54	4.38	-43.8	-54.4	3.7	1.50e+00	0	35	104	2210398208	60	18360
2026-01-06 22:12:51.03	335.27	4.14	-44.1	-55.1	3.6	1.51e+00	0	35	104	2210398208	60	19862
2026-01-06 22:12:55.07	335.00	3.89	-43.9	-56.0	3.5	1.51e+00	0	35	104	2210398208	60	22111
2026-01-06 22:12:59.11	334.74	3.64	-43.8	-56.5	3.5	1.52e+00	0	35	104	2210398208	60	23591
2026-01-06 22:13:03.15	334.48	3.40	-43.8	-56.6	3.5	1.52e+00	0	35	104	2210398208	60	23700
2026-01-06 22:13:07.19	334.22	3.16	-43.8	-56.6	3.5	1.52e+00	0	35	104	2210398208	60	23661
2026-01-06 22:13:11.23	333.97	2.92	-48.4	-61.2	3.5	1.52e+00	0	35	104	2210398208	60	40512
2026-01-06 22:13:15.27	333.72	2.68	-49.0	-61.8	3.5	1.52e+00	0	35	104	2210398208	60	43142
2026-01-06 22:13:19.31	333.48	2.44	-49.0	-61.8	3.5	1.52e+00	0	35	104	2210398208	60	43056
2026-01-06 22:13:23.34	333.24	2.21	-48.8	-61.8	3.5	1.52e+00	0	35	104	2210398208	60	43015
2026-01-06 22:13:27.39	333.01	1.98	-48.9	-61.8	3.5	1.52e+00	0	35	104	2210398208	60	43134
2026-01-06 22:13:31.42	332.78	1.74	-48.9	-61.8	3.5	1.52e+00	0	35	104	2210398208	60	43349
2026-01-06 22:13:35.47	332.55	1.51	-48.9	-61.7	3.5	1.52e+00	0	35	104	2210398208	60	42854
2026-01-06 22:13:39.51	332.33	1.28	-48.9	-61.7	3.5	1.52e+00	0	35	104	2210398208	60	42676
2026-01-06 22:13:43.55	332.11	1.05	-48.9	-61.8	3.5	1.52e+00	0	35	104	2210398208	60	42973
2026-01-06 22:13:47.58	331.90	0.83	-48.9	-61.7	3.5	1.51e+00	0	35	104	2210398208	60	42671
2026-01-06 22:13:51.62	331.68	0.60	-48.9	-61.8	3.5	1.51e+00	0	35	104	2210398208	60	42934
2026-01-06 22:13:55.66	331.47	0.38	-48.9	-61.7	3.5	1.52e+00	0	35	104	2210398208	60	42839
2026-01-06 22:13:59.70	331.27	0.15	-48.9	-61.7	3.5	1.51e+00	0	35	104	2210398208	60	42716
2026-01-06 22:14:03.74	331.07	-0.07	-48.9	-61.7	3.5	1.51e+00	0	35	104	2210398208	60	42755

#Closed at: 2026-01-06 22:14:04
#Recorded file [2210 MB]: D:/lorett/data/35029_260107_095955.dat