passes_logs/2026/01/06/R4.6S_Anadyr/R4.6S_Anadyr__20260106_020841_SUOMI_NPP_rec.log

#Pass ID: 20260106_020841_SUOMI NPP
#Satellite: SUOMI NPP
#Configuration: NPP
#almurnet v.1.7.20251203
#Start time: 2026-01-06 02:08:44

#Version: 2.2.20231116
#Station: R4.6S_Anadyr
#Location: 177.4865 lon 64.73178 lat
#TLE: 1 37849U 11061A   26004.95404768  .00000136  00000+0  85334-4 0  9991
#TLE: 2 37849  98.7801 307.0898 0002575  80.6707 279.4760 14.19522289735281

#Time	Az	El	Level	Level2	SNR	BER	BlckErr	Temp	State	Recorded	gain1	gain2
2026-01-06 02:08:44.27	204.40	0.17	-48.7	-62.5	3.3	1.54e+00	0	32	0	0	60	47935
2026-01-06 02:08:48.31	204.64	0.39	-48.6	-63.9	3.6	1.51e+00	0	32	104	0	60	56602
2026-01-06 02:08:52.35	204.89	0.61	-48.2	-63.6	3.6	1.51e+00	0	32	104	0	60	54966
2026-01-06 02:08:56.38	205.13	0.83	-47.7	-62.9	3.6	1.51e+00	0	33	104	0	60	50483
2026-01-06 02:09:00.42	205.38	1.05	-47.2	-62.4	3.6	1.51e+00	0	33	104	0	60	47402
2026-01-06 02:09:04.46	205.64	1.27	-47.2	-62.4	3.6	1.51e+00	0	33	104	0	60	47439
2026-01-06 02:09:08.50	205.90	1.49	-47.2	-62.4	3.6	1.51e+00	0	33	104	0	60	47558
2026-01-06 02:09:12.54	206.16	1.72	-47.2	-62.4	3.6	1.51e+00	0	33	104	0	60	47715
2026-01-06 02:09:16.57	206.42	1.94	-47.2	-62.3	3.6	1.51e+00	0	33	104	0	60	47255
2026-01-06 02:09:20.62	206.69	2.17	-47.2	-62.3	3.6	1.51e+00	0	33	104	0	60	47250
2026-01-06 02:09:24.66	206.97	2.40	-47.2	-62.4	3.6	1.51e+00	0	33	104	0	60	47719
2026-01-06 02:09:28.70	207.25	2.63	-47.2	-60.5	3.6	1.51e+00	0	33	104	0	60	38104
2026-01-06 02:09:32.74	207.53	2.86	-47.0	-57.8	4.6	1.50e+00	0	33	104	0	60	27942
2026-01-06 02:09:36.78	207.81	3.10	-43.9	-46.8	14.4	2.20e-06	0	33	0	5242880	60	7937
2026-01-06 02:09:40.82	208.10	3.33	-46.3	-52.8	5.1	1.48e+00	0	33	104	11534336	60	15840
2026-01-06 02:09:44.86	208.40	3.57	-42.4	-44.4	17.1	0.00e+00	0	33	0	12582912	58	6718
2026-01-06 02:09:48.89	208.70	3.80	-42.6	-44.7	17.1	0.00e+00	0	33	0	20971520	58	6938
2026-01-06 02:09:52.94	209.00	4.04	-40.8	-42.4	19.1	0.00e+00	0	33	0	28311552	56	5977
2026-01-06 02:09:56.98	209.31	4.28	-40.1	-41.5	19.9	0.00e+00	0	33	0	35651584	54	6065
2026-01-06 02:10:01.01	209.62	4.52	-40.1	-41.5	19.9	0.00e+00	0	33	0	42991616	54	6071
2026-01-06 02:10:05.05	209.94	4.77	-39.8	-41.1	20.3	0.00e+00	0	33	0	50331648	54	5826
2026-01-06 02:10:09.09	210.27	5.01	-39.5	-40.8	20.6	0.00e+00	0	33	0	58720256	52	6269
2026-01-06 02:10:13.13	210.60	5.26	-39.0	-40.2	21.1	0.00e+00	0	33	0	66060288	52	5849
2026-01-06 02:10:17.16	210.93	5.51	-39.0	-40.1	21.3	0.00e+00	0	33	0	73400320	52	5803
2026-01-06 02:10:21.20	211.27	5.76	-39.4	-40.6	20.9	0.00e+00	0	33	0	80740352	52	6124
2026-01-06 02:10:25.24	211.62	6.01	-39.2	-40.4	21.0	0.00e+00	0	33	0	89128960	52	6023
2026-01-06 02:10:29.28	211.97	6.26	-39.2	-40.3	21.2	0.00e+00	0	33	0	96468992	52	5958
2026-01-06 02:10:33.31	212.32	6.51	-39.2	-40.3	21.2	0.00e+00	0	33	0	103809024	52	5953
2026-01-06 02:10:37.35	212.69	6.77	-39.1	-40.3	21.3	0.00e+00	0	33	0	111149056	52	5900
2026-01-06 02:10:41.39	213.06	7.03	-39.0	-40.1	21.4	0.00e+00	0	33	0	118489088	52	5798
2026-01-06 02:10:45.42	213.43	7.29	-39.2	-40.3	21.2	0.00e+00	0	33	0	126877696	52	5944
2026-01-06 02:10:49.46	213.81	7.55	-38.9	-40.1	21.5	0.00e+00	0	33	0	134217728	50	6471
2026-01-06 02:10:53.50	214.20	7.81	-38.7	-39.8	21.7	0.00e+00	0	34	0	141557760	50	6309
2026-01-06 02:10:57.54	214.60	8.07	-38.8	-39.9	21.8	0.00e+00	0	33	0	148897792	50	6323
2026-01-06 02:11:01.58	215.00	8.34	-38.4	-39.4	22.1	0.00e+00	0	33	0	156237824	50	6004
2026-01-06 02:11:05.61	215.41	8.60	-38.2	-39.3	22.3	0.00e+00	0	33	0	164626432	50	5897
2026-01-06 02:11:09.65	215.83	8.87	-37.9	-38.9	22.6	0.00e+00	0	33	0	171966464	50	5635
2026-01-06 02:11:13.68	216.25	9.14	-38.2	-39.2	22.2	0.00e+00	0	33	0	179306496	50	5864
2026-01-06 02:11:17.72	216.68	9.41	-38.6	-39.7	22.0	0.00e+00	0	33	0	186646528	50	6213
2026-01-06 02:11:21.75	217.12	9.69	-38.8	-39.9	21.9	0.00e+00	0	33	0	195035136	50	6381
2026-01-06 02:11:25.79	217.57	9.96	-38.7	-39.8	21.9	0.00e+00	0	33	0	202375168	50	6284
2026-01-06 02:11:29.83	218.02	10.24	-38.3	-39.3	22.2	0.00e+00	0	34	0	209715200	50	5959
2026-01-06 02:11:33.87	218.49	10.52	-38.4	-39.4	22.3	0.00e+00	0	34	0	217055232	50	5979
2026-01-06 02:11:37.90	218.96	10.80	-38.1	-39.1	22.6	0.00e+00	0	34	0	224395264	50	5773
2026-01-06 02:11:41.94	219.44	11.08	-38.0	-39.0	22.6	0.00e+00	0	34	0	232783872	50	5705
2026-01-06 02:11:45.98	219.93	11.36	-38.0	-39.0	22.6	0.00e+00	0	34	0	240123904	50	5744
2026-01-06 02:11:50.02	220.43	11.64	-37.9	-38.9	22.7	0.00e+00	0	33	0	247463936	50	5631
2026-01-06 02:11:54.06	220.94	11.93	-38.0	-38.9	22.7	0.00e+00	0	34	0	254803968	50	5678
2026-01-06 02:11:58.09	221.46	12.21	-38.0	-38.9	22.6	0.00e+00	0	34	0	263192576	50	5694
2026-01-06 02:12:02.13	221.99	12.50	-38.3	-39.3	22.3	0.00e+00	0	34	0	270532608	50	5926
2026-01-06 02:12:06.17	222.53	12.79	-38.7	-39.8	22.1	0.00e+00	0	33	0	277872640	50	6271
2026-01-06 02:12:10.20	223.07	13.08	-38.2	-39.2	22.4	0.00e+00	0	33	0	285212672	50	5857
2026-01-06 02:12:14.24	223.63	13.37	-37.8	-38.8	22.8	0.00e+00	0	34	0	292552704	50	5576
2026-01-06 02:12:18.28	224.20	13.66	-37.8	-38.7	23.0	0.00e+00	0	34	0	300941312	48	6222
2026-01-06 02:12:22.31	224.78	13.96	-37.3	-38.2	23.3	0.00e+00	0	34	0	308281344	48	5854
2026-01-06 02:12:26.35	225.38	14.25	-37.3	-38.2	23.3	0.00e+00	0	34	0	315621376	48	5888
2026-01-06 02:12:30.39	225.98	14.55	-37.3	-38.2	23.3	0.00e+00	0	34	0	322961408	48	5842
2026-01-06 02:12:34.42	226.60	14.84	-37.5	-38.4	22.6	0.00e+00	0	34	0	330301440	48	5991
2026-01-06 02:12:38.46	227.22	15.14	-38.1	-39.1	22.6	0.00e+00	0	34	0	338690048	48	6494
2026-01-06 02:12:42.49	227.86	15.43	-37.8	-38.8	22.9	0.00e+00	0	34	0	346030080	48	6253
2026-01-06 02:12:46.53	228.51	15.73	-37.5	-38.4	23.3	0.00e+00	0	34	0	353370112	48	5981
2026-01-06 02:12:50.57	229.18	16.02	-36.7	-37.6	23.8	0.00e+00	0	34	0	360710144	46	6107
2026-01-06 02:12:54.61	229.86	16.32	-36.7	-37.5	23.8	0.00e+00	0	34	0	369098752	46	6079
2026-01-06 02:12:58.65	230.55	16.62	-36.3	-37.1	24.1	0.00e+00	0	34	0	376438784	46	5822
2026-01-06 02:13:02.68	231.25	16.91	-36.8	-37.7	23.7	0.00e+00	0	34	0	383778816	46	6179
2026-01-06 02:13:06.72	231.97	17.21	-37.1	-38.0	23.6	0.00e+00	0	34	0	391118848	46	6444
2026-01-06 02:13:10.76	232.70	17.50	-37.1	-38.0	23.5	0.00e+00	0	34	0	398458880	46	6415
2026-01-06 02:13:14.80	233.44	17.79	-37.3	-38.2	23.3	0.00e+00	0	34	0	406847488	46	6587
2026-01-06 02:13:18.83	234.20	18.09	-36.8	-37.6	23.8	0.00e+00	0	34	0	414187520	46	6146
2026-01-06 02:13:22.86	234.97	18.38	-36.1	-36.9	24.5	0.00e+00	0	34	0	421527552	46	5648
2026-01-06 02:13:26.90	235.76	18.66	-35.7	-36.5	24.6	0.00e+00	0	34	0	428867584	44	6062
2026-01-06 02:13:30.94	236.57	18.95	-35.7	-36.5	24.5	0.00e+00	0	34	0	437256192	44	6079
2026-01-06 02:13:34.97	237.38	19.23	-35.3	-36.1	24.9	0.00e+00	0	34	0	444596224	44	5800
2026-01-06 02:13:39.01	238.21	19.52	-35.6	-36.4	24.6	0.00e+00	0	34	0	451936256	44	5983
2026-01-06 02:13:43.05	239.06	19.80	-35.6	-36.4	24.6	0.00e+00	0	34	0	459276288	44	5975
2026-01-06 02:13:47.08	239.92	20.07	-36.0	-36.8	24.4	0.00e+00	0	34	0	466616320	44	6268
2026-01-06 02:13:51.12	240.80	20.34	-35.6	-36.3	24.7	0.00e+00	0	34	0	475004928	44	5963
2026-01-06 02:13:55.16	241.69	20.61	-35.8	-36.6	24.7	0.00e+00	0	34	0	482344960	44	6107
2026-01-06 02:13:59.19	242.60	20.88	-36.5	-37.3	24.1	0.00e+00	0	34	0	489684992	44	6655
2026-01-06 02:14:03.23	243.52	21.14	-36.3	-37.1	24.2	0.00e+00	0	34	0	497025024	44	6509
2026-01-06 02:14:07.27	244.46	21.39	-36.6	-37.4	24.0	0.00e+00	0	34	0	504365056	46	6015
2026-01-06 02:14:11.31	245.41	21.64	-36.2	-37.0	24.2	0.00e+00	0	34	0	512753664	46	5741
2026-01-06 02:14:15.35	246.38	21.89	-37.6	-38.5	23.3	0.00e+00	0	34	0	520093696	48	6057
2026-01-06 02:14:19.38	247.36	22.12	-36.2	-37.0	24.3	0.00e+00	0	34	0	527433728	46	5755
2026-01-06 02:14:23.42	248.36	22.35	-36.3	-37.1	24.2	0.00e+00	0	34	0	534773760	46	5820
2026-01-06 02:14:27.46	249.37	22.58	-36.7	-37.5	24.0	0.00e+00	0	34	0	543162368	46	6079
2026-01-06 02:14:31.50	250.40	22.80	-36.7	-37.5	24.0	0.00e+00	0	34	0	550502400	46	6065
2026-01-06 02:14:35.53	251.43	23.01	-36.9	-37.7	23.8	0.00e+00	0	34	0	557842432	46	6232
2026-01-06 02:14:39.57	252.49	23.21	-37.9	-38.8	22.9	0.00e+00	0	34	0	565182464	48	6274
2026-01-06 02:14:43.61	253.55	23.40	-38.0	-38.9	22.9	0.00e+00	0	34	0	572522496	48	6340
2026-01-06 02:14:47.64	254.63	23.59	-37.2	-38.1	23.5	0.00e+00	0	34	0	580911104	48	5768
2026-01-06 02:14:51.68	255.72	23.76	-38.9	-40.0	22.1	0.00e+00	0	34	0	588251136	50	6396
2026-01-06 02:14:55.71	256.82	23.93	-39.1	-40.2	21.9	0.00e+00	0	34	0	595591168	50	6576
2026-01-06 02:14:59.74	257.93	24.08	-38.7	-39.7	22.3	0.00e+00	0	34	0	602931200	50	6192
2026-01-06 02:15:03.78	259.05	24.23	-41.3	-42.7	19.7	0.00e+00	0	34	0	611319808	54	7005
2026-01-06 02:15:07.82	260.19	24.36	-39.9	-41.1	21.2	0.00e+00	0	34	0	618659840	54	5780
2026-01-06 02:15:11.86	261.33	24.49	-39.9	-41.1	21.1	0.00e+00	0	34	0	625999872	54	5798
2026-01-06 02:15:15.89	262.48	24.60	-39.0	-40.1	21.9	0.00e+00	0	34	0	633339904	52	5792
2026-01-06 02:15:19.93	263.64	24.70	-40.0	-41.1	21.1	0.00e+00	0	34	0	640679936	52	6529
2026-01-06 02:15:23.97	264.80	24.79	-39.4	-40.5	21.6	0.00e+00	0	34	0	649068544	52	6040
2026-01-06 02:15:28.01	265.97	24.86	-38.0	-38.9	22.9	0.00e+00	0	34	0	656408576	50	5683
2026-01-06 02:15:32.05	267.15	24.93	-37.3	-38.1	23.4	0.00e+00	0	34	0	663748608	48	5822
2026-01-06 02:15:36.08	268.33	24.98	-38.5	-39.5	22.5	0.00e+00	0	34	0	671088640	50	6036
2026-01-06 02:15:40.12	269.51	25.02	-38.1	-39.0	22.9	0.00e+00	0	34	0	679477248	48	6462
2026-01-06 02:15:44.15	270.69	25.05	-37.7	-38.6	23.0	0.00e+00	0	34	0	686817280	48	6172
2026-01-06 02:15:48.19	271.88	25.06	-38.1	-39.0	22.9	0.00e+00	0	34	0	694157312	48	6448
2026-01-06 02:15:52.23	273.07	25.07	-36.7	-37.6	24.1	0.00e+00	0	34	0	701497344	46	6112
2026-01-06 02:15:56.27	274.26	25.05	-37.5	-38.4	23.3	0.00e+00	0	34	0	708837376	46	6768
2026-01-06 02:16:00.30	275.44	25.03	-36.9	-37.7	23.8	0.00e+00	0	34	0	717225984	46	6220
2026-01-06 02:16:04.34	276.62	24.99	-37.3	-38.2	23.4	0.00e+00	0	34	0	724566016	46	6551
2026-01-06 02:16:08.38	277.80	24.95	-38.0	-39.0	22.8	0.00e+00	0	34	0	731906048	48	6432
2026-01-06 02:16:12.42	278.98	24.88	-37.3	-38.2	23.4	0.00e+00	0	34	0	739246080	48	5836
2026-01-06 02:16:16.46	280.15	24.81	-37.0	-37.9	23.7	0.00e+00	0	34	0	747634688	48	5652
2026-01-06 02:16:20.50	281.32	24.73	-37.2	-38.0	23.6	0.00e+00	0	34	0	754974720	48	5748
2026-01-06 02:16:24.53	282.47	24.63	-36.9	-37.8	23.7	0.00e+00	0	34	0	762314752	48	5608
2026-01-06 02:16:28.56	283.62	24.52	-36.2	-36.9	24.5	0.00e+00	0	34	0	769654784	46	5692
2026-01-06 02:16:32.60	284.77	24.40	-36.6	-37.4	23.8	0.00e+00	0	34	0	776994816	46	6008
2026-01-06 02:16:36.64	285.90	24.27	-36.3	-37.1	24.3	0.00e+00	0	34	0	785383424	46	5770
2026-01-06 02:16:40.68	287.02	24.13	-36.0	-36.8	24.5	0.00e+00	0	34	0	792723456	46	5615
2026-01-06 02:16:44.72	288.14	23.97	-35.6	-36.3	24.7	0.00e+00	0	34	0	800063488	44	5959
2026-01-06 02:16:48.75	289.24	23.81	-36.9	-37.8	23.8	0.00e+00	0	34	0	807403520	46	6306
2026-01-06 02:16:52.79	290.33	23.64	-35.5	-36.3	24.6	0.00e+00	0	34	0	815792128	44	5952
2026-01-06 02:16:56.83	291.41	23.46	-35.2	-35.9	25.1	0.00e+00	0	34	0	823132160	44	5693
2026-01-06 02:17:00.87	292.48	23.27	-34.6	-35.4	25.4	0.00e+00	0	34	0	830472192	42	5986
2026-01-06 02:17:04.90	293.53	23.07	-34.8	-35.5	25.4	0.00e+00	0	34	0	837812224	42	6063
2026-01-06 02:17:08.94	294.57	22.86	-35.2	-35.9	25.1	0.00e+00	0	34	0	845152256	42	6367
2026-01-06 02:17:12.98	295.59	22.65	-34.5	-35.2	25.3	0.00e+00	0	34	0	853540864	42	5890
2026-01-06 02:17:17.02	296.61	22.43	-35.4	-36.2	24.8	0.00e+00	0	34	0	860880896	42	6599
2026-01-06 02:17:21.05	297.60	22.20	-34.9	-35.6	25.3	0.00e+00	0	34	0	868220928	42	6152
2026-01-06 02:17:25.09	298.59	21.96	-35.6	-36.4	24.7	0.00e+00	0	34	0	875560960	42	6742
2026-01-06 02:17:29.13	299.56	21.72	-35.3	-36.1	24.8	0.00e+00	0	34	0	882900992	44	5796
2026-01-06 02:17:33.17	300.51	21.48	-35.8	-36.6	24.6	0.00e+00	0	34	0	891289600	44	6109
2026-01-06 02:17:37.21	301.45	21.22	-36.9	-37.8	23.8	0.00e+00	0	34	0	898629632	46	6247
2026-01-06 02:17:41.24	302.37	20.97	-36.1	-37.0	24.4	0.00e+00	0	34	0	905969664	46	5702
2026-01-06 02:17:45.28	303.28	20.71	-35.7	-36.5	24.5	0.00e+00	0	34	0	913309696	44	6095
2026-01-06 02:17:49.31	304.17	20.44	-36.9	-37.7	23.7	0.00e+00	0	34	0	921698304	46	6220
2026-01-06 02:17:53.35	305.05	20.17	-37.2	-38.1	23.5	0.00e+00	0	34	0	929038336	46	6496
2026-01-06 02:17:57.39	305.91	19.90	-36.3	-37.2	24.2	0.00e+00	0	34	0	936378368	46	5843
2026-01-06 02:18:01.42	306.76	19.62	-36.8	-37.7	23.8	0.00e+00	0	34	0	943718400	46	6192
2026-01-06 02:18:05.46	307.59	19.34	-37.4	-38.3	23.2	0.00e+00	0	34	0	951058432	46	6686
2026-01-06 02:18:09.50	308.41	19.06	-37.2	-38.1	23.5	0.00e+00	0	34	0	959447040	46	6468
2026-01-06 02:18:13.53	309.22	18.78	-37.9	-38.8	22.9	0.00e+00	0	34	0	966787072	48	6308
2026-01-06 02:18:17.57	310.01	18.49	-37.4	-38.3	23.1	0.00e+00	0	34	0	974127104	48	5938
2026-01-06 02:18:21.61	310.78	18.20	-37.7	-38.6	23.0	0.00e+00	0	34	0	981467136	48	6148
2026-01-06 02:18:25.64	311.54	17.92	-36.6	-37.5	23.8	0.00e+00	0	34	0	989855744	46	6071
2026-01-06 02:18:29.68	312.29	17.63	-37.1	-38.0	23.4	0.00e+00	0	34	0	997195776	46	6405
2026-01-06 02:18:33.72	313.02	17.33	-37.5	-38.4	23.2	0.00e+00	0	34	0	1004535808	46	6732
2026-01-06 02:18:37.76	313.74	17.04	-37.6	-38.6	23.0	0.00e+00	0	34	0	1011875840	46	6871
2026-01-06 02:18:41.79	314.44	16.75	-38.9	-40.0	21.8	0.00e+00	0	34	0	1019215872	50	6423
2026-01-06 02:18:45.83	315.14	16.45	-37.0	-37.9	23.5	0.00e+00	0	34	0	1027604480	48	5660
2026-01-06 02:18:49.87	315.82	16.16	-37.2	-38.1	23.3	0.00e+00	0	34	0	1034944512	46	6520
2026-01-06 02:18:53.90	316.48	15.87	-37.6	-38.5	23.1	0.00e+00	0	34	0	1042284544	46	6819
2026-01-06 02:18:57.93	317.13	15.57	-36.8	-37.7	23.6	0.00e+00	0	34	0	1049624576	46	6182
2026-01-06 02:19:01.97	317.78	15.28	-37.5	-38.5	23.1	0.00e+00	0	34	0	1056964608	46	6773
2026-01-06 02:19:06.00	318.40	14.99	-37.4	-38.4	23.1	0.00e+00	0	34	0	1065353216	48	5976
2026-01-06 02:19:10.04	319.02	14.69	-37.5	-38.5	23.0	0.00e+00	0	34	0	1072693248	48	6049
2026-01-06 02:19:14.08	319.63	14.40	-38.2	-39.2	22.3	0.00e+00	0	34	0	1080033280	48	6567
2026-01-06 02:19:18.12	320.22	14.11	-37.8	-38.7	22.8	0.00e+00	0	34	0	1087373312	48	6225
2026-01-06 02:19:22.16	320.81	13.82	-37.7	-38.6	22.4	0.00e+00	0	34	0	1095761920	48	6150
2026-01-06 02:19:26.19	321.38	13.53	-38.8	-39.9	21.8	0.00e+00	0	34	0	1103101952	50	6387
2026-01-06 02:19:30.23	321.94	13.24	-38.3	-39.3	22.2	0.00e+00	0	34	0	1110441984	50	5940
2026-01-06 02:19:34.27	322.49	12.95	-38.3	-39.3	22.2	0.00e+00	0	34	0	1117782016	50	5927
2026-01-06 02:19:38.30	323.03	12.67	-38.4	-39.4	22.2	0.00e+00	0	34	0	1125122048	50	6032
2026-01-06 02:19:42.34	323.56	12.38	-38.0	-38.9	22.5	0.00e+00	0	34	0	1133510656	50	5681
2026-01-06 02:19:46.38	324.08	12.09	-37.3	-38.3	23.0	0.00e+00	0	34	0	1140850688	48	5899
2026-01-06 02:19:50.42	324.59	11.81	-37.3	-38.2	23.1	0.00e+00	0	34	0	1148190720	48	5871
2026-01-06 02:19:54.46	325.10	11.53	-37.8	-38.8	22.6	0.00e+00	0	34	0	1155530752	48	6279
2026-01-06 02:19:58.50	325.59	11.25	-37.7	-38.7	22.7	0.00e+00	0	34	0	1163919360	48	6204
2026-01-06 02:20:02.54	326.07	10.97	-38.0	-39.0	22.5	0.00e+00	0	34	0	1171259392	48	6392
2026-01-06 02:20:06.57	326.55	10.69	-38.0	-39.0	22.5	0.00e+00	0	34	0	1178599424	48	6443
2026-01-06 02:20:10.61	327.02	10.42	-38.2	-39.2	22.2	0.00e+00	0	34	0	1185939456	48	6593
2026-01-06 02:20:14.65	327.47	10.14	-38.2	-39.2	22.2	0.00e+00	0	34	0	1193279488	48	6574
2026-01-06 02:20:18.69	327.92	9.87	-38.3	-39.3	22.0	0.00e+00	0	34	0	1201668096	48	6692
2026-01-06 02:20:22.73	328.37	9.60	-38.6	-39.7	21.7	0.00e+00	0	34	0	1209008128	48	6932
2026-01-06 02:20:26.76	328.80	9.33	-39.1	-40.3	21.3	0.00e+00	0	34	0	1216348160	50	6616
2026-01-06 02:20:30.80	329.23	9.06	-38.9	-40.0	21.5	0.00e+00	0	34	0	1223688192	50	6432
2026-01-06 02:20:34.84	329.65	8.79	-38.8	-40.0	21.5	0.00e+00	0	34	0	1232076800	50	6398
2026-01-06 02:20:38.88	330.06	8.52	-38.4	-39.4	21.8	0.00e+00	0	34	0	1239416832	50	6014
2026-01-06 02:20:42.91	330.46	8.26	-38.5	-39.6	21.8	0.00e+00	0	34	0	1246756864	50	6140
2026-01-06 02:20:46.95	330.86	8.00	-38.7	-39.9	21.6	0.00e+00	0	34	0	1254096896	50	6320
2026-01-06 02:20:50.99	331.25	7.74	-38.7	-39.9	21.4	0.00e+00	0	34	0	1261436928	50	6329
2026-01-06 02:20:55.03	331.64	7.48	-38.6	-39.7	21.4	0.00e+00	0	34	0	1269825536	50	6234
2026-01-06 02:20:59.06	332.02	7.22	-38.6	-39.7	21.6	0.00e+00	0	34	0	1277165568	50	6188
2026-01-06 02:21:03.10	332.39	6.97	-39.2	-40.5	20.9	0.00e+00	0	34	0	1284505600	50	6771
2026-01-06 02:21:07.14	332.76	6.71	-39.9	-41.3	19.9	0.00e+00	0	34	0	1291845632	52	6616
2026-01-06 02:21:11.17	333.12	6.46	-40.3	-41.7	19.7	0.00e+00	0	34	0	1299185664	52	6979
2026-01-06 02:21:15.21	333.47	6.21	-40.0	-41.4	19.8	0.00e+00	0	34	0	1307574272	52	6707
2026-01-06 02:21:19.25	333.82	5.96	-40.2	-41.8	18.6	0.00e+00	0	34	0	1314914304	52	7057
2026-01-06 02:21:23.29	334.16	5.71	-41.0	-43.3	16.2	0.00e+00	0	34	0	1322254336	54	7425
2026-01-06 02:21:27.33	334.50	5.46	-42.0	-45.4	13.3	3.00e-06	0	34	0	1329594368	56	8444
2026-01-06 02:21:31.37	334.83	5.22	-42.8	-48.0	9.6	5.09e-03	0	34	0	1337982976	58	10211
2026-01-06 02:21:35.40	335.16	4.98	-43.3	-50.5	6.5	1.52e-01	0	34	0	1345323008	58	13575
2026-01-06 02:21:39.44	335.48	4.73	-43.5	-52.0	4.7	6.05e-01	0	34	0	1352663040	58	16171
2026-01-06 02:21:43.48	335.80	4.49	-43.6	-53.7	3.9	1.32e+00	0	34	0	1360003072	58	19642
2026-01-06 02:21:47.51	336.11	4.26	-43.5	-56.4	3.7	1.49e+00	0	34	104	1360003072	58	26841
2026-01-06 02:21:51.54	336.42	4.02	-43.5	-57.2	3.6	1.51e+00	0	34	104	1360003072	58	29349
2026-01-06 02:21:55.58	336.72	3.78	-43.5	-57.7	3.6	1.51e+00	0	34	104	1360003072	58	31190
2026-01-06 02:21:59.62	337.02	3.55	-43.5	-58.1	3.5	1.51e+00	0	34	104	1360003072	58	32740
2026-01-06 02:22:03.65	337.31	3.32	-43.3	-58.4	3.6	1.51e+00	0	34	104	1360003072	58	33676
2026-01-06 02:22:07.69	337.60	3.08	-43.3	-58.4	3.6	1.51e+00	0	34	104	1360003072	58	33845
2026-01-06 02:22:11.73	337.89	2.85	-48.1	-63.3	3.6	1.51e+00	0	34	104	1360003072	60	52991
2026-01-06 02:22:15.77	338.17	2.62	-48.6	-63.8	3.6	1.51e+00	0	34	104	1360003072	60	55999
2026-01-06 02:22:19.80	338.45	2.40	-48.5	-63.8	3.6	1.51e+00	0	34	104	1360003072	60	55878
2026-01-06 02:22:23.84	338.72	2.17	-48.5	-63.8	3.6	1.51e+00	0	34	104	1360003072	60	56095
2026-01-06 02:22:27.88	338.99	1.95	-48.6	-63.8	3.6	1.51e+00	0	34	104	1360003072	60	55898
2026-01-06 02:22:31.92	339.26	1.72	-48.6	-63.7	3.6	1.51e+00	0	34	104	1360003072	60	55587
2026-01-06 02:22:35.96	339.52	1.50	-48.6	-63.8	3.6	1.51e+00	0	34	104	1360003072	60	56112
2026-01-06 02:22:40.00	339.78	1.28	-48.6	-63.7	3.5	1.51e+00	0	34	104	1360003072	60	55479
2026-01-06 02:22:44.04	340.03	1.06	-48.6	-63.7	3.6	1.51e+00	0	34	104	1360003072	60	55400
2026-01-06 02:22:48.08	340.29	0.84	-48.6	-63.7	3.6	1.51e+00	0	34	104	1360003072	60	55542
2026-01-06 02:22:52.12	340.53	0.62	-48.6	-63.7	3.6	1.51e+00	0	34	104	1360003072	60	55572
2026-01-06 02:22:56.15	340.78	0.41	-48.6	-63.7	3.6	1.51e+00	0	34	104	1360003072	60	55312
2026-01-06 02:23:00.20	341.02	0.19	-48.5	-63.7	3.6	1.51e+00	0	34	104	1360003072	60	55392
2026-01-06 02:23:04.24	341.26	-0.02	-48.5	-63.7	3.6	1.51e+00	0	34	104	1360003072	60	55488

#Closed at: 2026-01-06 02:23:04
#Recorded file [1360 MB]: D:/lorett/data/35029_260106_140844.dat