passes_logs/2026/01/06/R4.6S_Anadyr/R4.6S_Anadyr__20260106_023010_NOAA_20_JPSS-1_rec.log

#Pass ID: 20260106_023010_NOAA 20 (JPSS-1)
#Satellite: NOAA 20 (JPSS-1)
#Configuration: NOAA 20
#almurnet v.1.7.20251203
#Start time: 2026-01-06 02:30:13

#Version: 2.2.20231116
#Station: R4.6S_Anadyr
#Location: 177.4865 lon 64.73178 lat
#TLE: 1 43013U 17073A   26005.46207808  .00000128  00000+0  81791-4 0  9997
#TLE: 2 43013  98.7627 306.5027 0001826  53.0458 307.0885 14.19533487421381

#Time	Az	El	Level	Level2	SNR	BER	BlckErr	Temp	State	Recorded	gain1	gain2
2026-01-06 02:30:13.81	216.32	0.15	-48.5	-62.2	3.3	1.54e+00	0	32	0	0	60	46645
2026-01-06 02:30:17.85	216.61	0.36	-48.5	-63.7	3.6	1.51e+00	0	33	104	0	60	55376
2026-01-06 02:30:21.88	216.90	0.56	-48.5	-63.7	3.6	1.51e+00	0	33	104	0	60	55029
2026-01-06 02:30:25.92	217.20	0.76	-48.5	-63.7	3.6	1.51e+00	0	33	104	0	60	55182
2026-01-06 02:30:29.96	217.51	0.97	-48.5	-63.7	3.6	1.51e+00	0	33	104	0	60	55138
2026-01-06 02:30:34.00	217.81	1.18	-48.5	-63.7	3.6	1.51e+00	0	33	104	0	60	55046
2026-01-06 02:30:38.04	218.12	1.38	-48.5	-63.7	3.6	1.51e+00	0	33	104	0	60	55185
2026-01-06 02:30:42.08	218.44	1.59	-48.5	-63.7	3.6	1.51e+00	0	33	104	0	60	55202
2026-01-06 02:30:46.12	218.76	1.80	-48.4	-63.7	3.6	1.51e+00	0	33	104	0	60	55061
2026-01-06 02:30:50.16	219.08	2.01	-48.5	-63.7	3.6	1.51e+00	0	33	104	0	60	55182
2026-01-06 02:30:54.20	219.41	2.22	-48.5	-63.7	3.6	1.51e+00	0	33	104	0	60	55190
2026-01-06 02:30:58.23	219.74	2.43	-48.5	-63.7	3.6	1.51e+00	0	33	104	0	60	55194
2026-01-06 02:31:02.27	220.08	2.65	-48.5	-63.7	3.6	1.51e+00	0	33	104	0	60	55264
2026-01-06 02:31:06.31	220.42	2.86	-48.5	-63.6	3.6	1.51e+00	0	33	104	0	60	54937
2026-01-06 02:31:10.35	220.76	3.07	-48.5	-63.7	3.6	1.51e+00	0	33	104	0	60	55111
2026-01-06 02:31:14.39	221.12	3.29	-48.5	-63.7	3.6	1.51e+00	0	33	104	0	60	55451
2026-01-06 02:31:18.43	221.47	3.51	-48.5	-63.7	3.5	1.51e+00	0	33	104	0	60	55234
2026-01-06 02:31:22.47	221.83	3.72	-48.5	-63.7	3.6	1.51e+00	0	33	104	0	60	55212
2026-01-06 02:31:26.51	222.20	3.94	-48.5	-63.7	3.6	1.51e+00	0	34	104	0	60	55218
2026-01-06 02:31:30.54	222.57	4.16	-48.4	-63.6	3.6	1.51e+00	0	34	104	0	60	54972
2026-01-06 02:31:34.58	222.95	4.38	-48.4	-63.7	3.6	1.51e+00	0	34	104	0	60	55126
2026-01-06 02:31:38.62	223.33	4.60	-48.4	-63.8	3.6	1.51e+00	0	34	104	0	60	55906
2026-01-06 02:31:42.66	223.72	4.82	-48.4	-63.8	3.6	1.51e+00	0	34	104	0	60	55946
2026-01-06 02:31:46.70	224.11	5.04	-48.5	-63.7	3.6	1.51e+00	0	34	104	0	60	55479
2026-01-06 02:31:50.75	224.51	5.26	-48.5	-63.7	3.6	1.51e+00	0	34	104	0	60	55659
2026-01-06 02:31:54.79	224.92	5.48	-48.5	-63.7	3.6	1.51e+00	0	34	104	0	60	55384
2026-01-06 02:31:58.82	225.33	5.71	-48.5	-63.7	3.6	1.51e+00	0	34	104	0	60	55267
2026-01-06 02:32:02.87	225.74	5.93	-48.5	-63.7	3.6	1.51e+00	0	34	104	0	60	55419
2026-01-06 02:32:06.91	226.17	6.16	-48.5	-63.7	3.6	1.51e+00	0	34	104	0	60	55581
2026-01-06 02:32:10.94	226.60	6.38	-48.5	-63.7	3.6	1.51e+00	0	34	104	0	60	55460
2026-01-06 02:32:14.98	227.03	6.61	-48.5	-63.7	3.6	1.51e+00	0	34	104	0	60	55554
2026-01-06 02:32:19.02	227.47	6.84	-48.5	-63.7	3.6	1.51e+00	0	34	104	0	60	55638
2026-01-06 02:32:23.06	227.92	7.06	-48.5	-63.7	3.6	1.51e+00	0	34	104	0	60	55460
2026-01-06 02:32:27.10	228.38	7.29	-48.5	-63.7	3.6	1.51e+00	0	34	104	0	60	55259
2026-01-06 02:32:31.13	228.84	7.52	-48.5	-63.8	3.6	1.51e+00	0	34	104	0	60	55870
2026-01-06 02:32:35.16	229.31	7.75	-48.5	-63.7	3.6	1.51e+00	0	34	104	0	60	55529
2026-01-06 02:32:39.20	229.79	7.98	-48.5	-63.7	3.6	1.51e+00	0	34	104	0	60	55345
2026-01-06 02:32:43.24	230.27	8.21	-48.5	-63.7	3.6	1.51e+00	0	34	104	0	60	55641
2026-01-06 02:32:47.28	230.76	8.44	-48.5	-63.7	3.6	1.51e+00	0	34	104	0	60	55511
2026-01-06 02:32:51.32	231.26	8.67	-48.5	-63.7	3.6	1.51e+00	0	34	104	0	60	55487
2026-01-06 02:32:55.36	231.77	8.90	-48.5	-63.7	3.6	1.51e+00	0	34	104	0	60	55299
2026-01-06 02:32:59.40	232.29	9.13	-48.5	-63.7	3.6	1.51e+00	0	34	104	0	60	55421
2026-01-06 02:33:03.44	232.81	9.36	-48.4	-63.7	3.6	1.51e+00	0	34	104	0	60	55530
2026-01-06 02:33:07.47	233.34	9.59	-48.4	-63.7	3.6	1.51e+00	0	34	104	0	60	55354
2026-01-06 02:33:11.51	233.88	9.82	-48.5	-63.8	3.6	1.51e+00	0	34	104	0	60	55725
2026-01-06 02:33:15.55	234.42	10.05	-48.5	-63.8	3.6	1.51e+00	0	34	104	0	60	55729
2026-01-06 02:33:19.59	234.98	10.28	-48.5	-63.7	3.6	1.51e+00	0	34	104	0	60	55592
2026-01-06 02:33:23.63	235.54	10.51	-48.5	-63.8	3.6	1.51e+00	0	34	104	0	60	55666
2026-01-06 02:33:27.67	236.12	10.74	-48.4	-63.7	3.6	1.51e+00	0	34	104	0	60	55388
2026-01-06 02:33:31.70	236.70	10.97	-48.4	-63.7	3.6	1.51e+00	0	34	104	0	60	55530
2026-01-06 02:33:35.75	237.29	11.20	-48.4	-63.7	3.6	1.51e+00	0	34	104	0	60	55504
2026-01-06 02:33:39.78	237.89	11.43	-48.5	-63.8	3.6	1.51e+00	0	34	104	0	60	55697
2026-01-06 02:33:43.82	238.49	11.66	-48.5	-63.7	3.6	1.51e+00	0	34	104	0	60	55640
2026-01-06 02:33:47.86	239.11	11.88	-48.6	-63.7	3.6	1.51e+00	0	34	104	0	60	55491
2026-01-06 02:33:51.90	239.74	12.11	-48.6	-63.8	3.6	1.51e+00	0	34	104	0	60	55816
2026-01-06 02:33:55.94	240.37	12.34	-48.6	-63.8	3.6	1.51e+00	0	34	104	0	60	55764
2026-01-06 02:33:59.98	241.02	12.56	-48.5	-63.7	3.6	1.51e+00	0	34	104	0	60	55613
2026-01-06 02:34:04.00	241.67	12.78	-48.6	-63.8	3.6	1.51e+00	0	34	104	0	60	55775
2026-01-06 02:34:08.04	242.34	13.00	-48.5	-63.7	3.6	1.51e+00	0	34	104	0	60	55577
2026-01-06 02:34:12.08	243.01	13.22	-48.5	-63.8	3.6	1.51e+00	0	34	104	0	60	55779
2026-01-06 02:34:16.12	243.70	13.44	-48.4	-63.8	3.6	1.51e+00	0	34	104	0	60	55696
2026-01-06 02:34:20.16	244.39	13.66	-48.4	-63.7	3.6	1.51e+00	0	34	104	0	60	55590
2026-01-06 02:34:24.20	245.09	13.87	-48.4	-63.8	3.6	1.51e+00	0	34	104	0	60	55843
2026-01-06 02:34:28.25	245.81	14.08	-48.4	-63.7	3.6	1.51e+00	0	34	104	0	60	55218
2026-01-06 02:34:32.28	246.53	14.29	-48.4	-63.8	3.6	1.51e+00	0	34	104	0	60	55669
2026-01-06 02:34:36.32	247.26	14.50	-48.4	-63.8	3.6	1.51e+00	0	34	104	0	60	55759
2026-01-06 02:34:40.36	248.01	14.71	-48.4	-63.7	3.6	1.51e+00	0	34	104	0	60	55436
2026-01-06 02:34:44.40	248.76	14.91	-48.4	-63.7	3.6	1.51e+00	0	34	104	0	60	55620
2026-01-06 02:34:48.44	249.52	15.11	-48.4	-63.7	3.6	1.51e+00	0	34	104	0	60	55518
2026-01-06 02:34:52.47	250.29	15.30	-48.5	-63.7	3.6	1.51e+00	0	34	104	0	60	55513
2026-01-06 02:34:56.51	251.08	15.49	-48.4	-63.7	3.6	1.51e+00	0	34	104	0	60	55613
2026-01-06 02:35:00.55	251.87	15.68	-48.4	-63.8	3.6	1.51e+00	0	34	104	0	60	55772
2026-01-06 02:35:04.58	252.67	15.87	-48.4	-63.7	3.6	1.51e+00	0	34	104	0	60	55468
2026-01-06 02:35:08.62	253.48	16.05	-48.4	-63.8	3.6	1.51e+00	0	34	104	0	60	55882
2026-01-06 02:35:12.66	254.30	16.23	-48.4	-63.7	3.6	1.51e+00	0	34	104	0	60	55468
2026-01-06 02:35:16.71	255.13	16.40	-48.4	-63.7	3.6	1.51e+00	0	34	104	0	60	55532
2026-01-06 02:35:20.74	255.97	16.57	-48.4	-63.7	3.6	1.51e+00	0	34	104	0	60	55409
2026-01-06 02:35:24.77	256.82	16.73	-48.5	-63.7	3.6	1.51e+00	0	34	104	0	60	55371
2026-01-06 02:35:28.81	257.67	16.89	-48.5	-63.7	3.6	1.51e+00	0	34	104	0	60	55655
2026-01-06 02:35:32.85	258.54	17.04	-48.5	-63.7	3.6	1.51e+00	0	34	104	0	60	55513
2026-01-06 02:35:36.89	259.41	17.19	-48.5	-63.8	3.6	1.51e+00	0	34	104	0	60	55674
2026-01-06 02:35:40.93	260.30	17.33	-48.5	-63.8	3.6	1.51e+00	0	34	104	0	60	55685
2026-01-06 02:35:44.96	261.18	17.47	-48.5	-63.7	3.6	1.51e+00	0	34	104	0	60	55315
2026-01-06 02:35:49.00	262.08	17.60	-48.5	-63.8	3.6	1.51e+00	0	34	104	0	60	55718
2026-01-06 02:35:53.04	262.99	17.72	-48.5	-63.7	3.6	1.51e+00	0	34	104	0	60	55294
2026-01-06 02:35:57.08	263.90	17.84	-48.5	-63.7	3.6	1.51e+00	0	34	104	0	60	55189
2026-01-06 02:36:01.11	264.82	17.95	-48.5	-63.7	3.6	1.51e+00	0	34	104	0	60	55602
2026-01-06 02:36:05.15	265.74	18.06	-48.5	-63.7	3.6	1.51e+00	0	34	104	0	60	55254
2026-01-06 02:36:09.19	266.67	18.15	-48.5	-63.7	3.6	1.51e+00	0	34	104	0	60	55375
2026-01-06 02:36:13.23	267.61	18.24	-48.5	-63.7	3.6	1.51e+00	0	34	104	0	60	55279
2026-01-06 02:36:17.27	268.55	18.33	-48.5	-63.7	3.6	1.51e+00	0	34	104	0	60	55139
2026-01-06 02:36:21.31	269.50	18.41	-48.5	-63.6	3.6	1.51e+00	0	34	104	0	60	54976
2026-01-06 02:36:25.34	270.45	18.47	-48.4	-63.7	3.6	1.51e+00	0	34	104	0	60	55412
2026-01-06 02:36:29.38	271.40	18.54	-48.4	-63.7	3.6	1.51e+00	0	34	104	0	60	55194
2026-01-06 02:36:33.41	272.36	18.59	-48.4	-63.7	3.6	1.51e+00	0	34	104	0	60	55172
2026-01-06 02:36:37.45	273.32	18.64	-48.4	-63.7	3.6	1.51e+00	0	34	104	0	60	55158
2026-01-06 02:36:41.49	274.28	18.68	-48.5	-63.7	3.6	1.51e+00	0	34	104	0	60	55208
2026-01-06 02:36:45.53	275.25	18.71	-48.5	-63.7	3.6	1.51e+00	0	34	104	0	60	55289
2026-01-06 02:36:49.57	276.22	18.73	-48.5	-63.7	3.6	1.51e+00	0	34	104	0	60	55476
2026-01-06 02:36:53.60	277.18	18.74	-48.5	-63.7	3.6	1.51e+00	0	34	104	0	60	55295
2026-01-06 02:36:57.64	278.15	18.75	-48.4	-63.7	3.6	1.51e+00	0	34	104	0	60	55207
2026-01-06 02:37:01.68	279.12	18.75	-48.4	-63.7	3.6	1.51e+00	0	34	104	0	60	55140
2026-01-06 02:37:05.72	280.09	18.74	-48.3	-63.7	3.6	1.51e+00	0	34	104	0	60	55130
2026-01-06 02:37:09.75	281.06	18.72	-48.3	-63.7	3.6	1.51e+00	0	34	104	0	60	55117
2026-01-06 02:37:13.79	282.03	18.70	-48.3	-63.6	3.6	1.51e+00	0	34	104	0	60	54809
2026-01-06 02:37:17.83	282.99	18.67	-48.2	-63.7	3.6	1.51e+00	0	34	104	0	60	55029
2026-01-06 02:37:21.87	283.95	18.63	-48.2	-63.7	3.6	1.51e+00	0	34	104	0	60	55238
2026-01-06 02:37:25.90	284.91	18.58	-48.1	-63.7	3.6	1.51e+00	0	34	104	0	60	55195
2026-01-06 02:37:29.94	285.87	18.52	-48.2	-63.6	3.6	1.51e+00	0	34	104	0	60	54891
2026-01-06 02:37:33.98	286.82	18.46	-48.3	-63.6	3.6	1.51e+00	0	34	104	0	60	54871
2026-01-06 02:37:38.02	287.77	18.39	-48.3	-63.7	3.6	1.51e+00	0	34	104	0	60	55054
2026-01-06 02:37:42.06	288.71	18.31	-48.3	-63.6	3.6	1.51e+00	0	34	104	0	60	54779
2026-01-06 02:37:46.10	289.65	18.22	-48.3	-63.6	3.6	1.51e+00	0	34	104	0	60	54894
2026-01-06 02:37:50.14	290.59	18.13	-48.2	-63.6	3.6	1.51e+00	0	34	104	0	60	54768
2026-01-06 02:37:54.18	291.51	18.03	-48.2	-63.6	3.6	1.51e+00	0	34	104	0	60	54654
2026-01-06 02:37:58.22	292.43	17.93	-48.2	-63.6	3.5	1.51e+00	0	34	104	0	60	54777
2026-01-06 02:38:02.26	293.35	17.81	-48.1	-63.6	3.5	1.51e+00	0	34	104	0	60	54470
2026-01-06 02:38:06.30	294.26	17.69	-48.1	-63.6	3.6	1.51e+00	0	34	104	0	60	54613
2026-01-06 02:38:10.34	295.16	17.57	-48.1	-63.6	3.6	1.51e+00	0	34	104	0	60	54814
2026-01-06 02:38:14.38	296.05	17.44	-48.0	-63.6	3.6	1.51e+00	0	34	104	0	60	54490
2026-01-06 02:38:18.42	296.94	17.30	-48.0	-63.6	3.6	1.51e+00	0	34	104	0	60	54500
2026-01-06 02:38:22.45	297.81	17.16	-48.0	-63.6	3.6	1.51e+00	0	34	104	0	60	54504
2026-01-06 02:38:26.49	298.68	17.01	-47.9	-63.6	3.6	1.51e+00	0	34	104	0	60	54607
2026-01-06 02:38:30.53	299.54	16.86	-47.9	-63.6	3.6	1.51e+00	0	34	104	0	60	54635
2026-01-06 02:38:34.57	300.39	16.70	-47.9	-63.6	3.6	1.51e+00	0	34	104	0	60	54417
2026-01-06 02:38:38.62	301.24	16.53	-47.8	-63.5	3.6	1.51e+00	0	34	104	0	60	54092
2026-01-06 02:38:42.66	302.07	16.37	-47.9	-63.5	3.6	1.51e+00	0	34	104	0	60	53988
2026-01-06 02:38:46.69	302.90	16.19	-47.9	-63.5	3.6	1.51e+00	0	34	104	0	60	54174
2026-01-06 02:38:50.73	303.71	16.02	-48.0	-63.6	3.6	1.51e+00	0	34	104	0	60	54405
2026-01-06 02:38:54.77	304.52	15.84	-48.1	-63.5	3.6	1.51e+00	0	34	104	0	60	54258
2026-01-06 02:38:58.81	305.31	15.65	-48.2	-63.4	3.6	1.51e+00	0	34	104	0	60	53741
2026-01-06 02:39:02.85	306.10	15.46	-48.2	-63.5	3.6	1.51e+00	0	34	104	0	60	54132
2026-01-06 02:39:06.89	306.88	15.27	-48.3	-63.5	3.6	1.51e+00	0	34	104	0	60	53970
2026-01-06 02:39:10.92	307.64	15.08	-48.3	-63.5	3.6	1.51e+00	0	34	104	0	60	54034
2026-01-06 02:39:14.97	308.40	14.88	-48.3	-63.4	3.6	1.51e+00	0	34	104	0	60	53569
2026-01-06 02:39:19.00	309.15	14.68	-48.3	-63.5	3.6	1.51e+00	0	34	104	0	60	54206
2026-01-06 02:39:23.04	309.89	14.47	-48.2	-63.4	3.6	1.51e+00	0	34	104	0	60	53714
2026-01-06 02:39:27.08	310.61	14.27	-48.2	-63.4	3.6	1.51e+00	0	34	104	0	60	53517
2026-01-06 02:39:31.12	311.33	14.06	-48.2	-63.4	3.6	1.51e+00	0	34	104	0	60	53614
2026-01-06 02:39:35.16	312.04	13.85	-48.1	-63.4	3.6	1.51e+00	0	34	104	0	60	53722
2026-01-06 02:39:39.20	312.74	13.63	-48.1	-63.4	3.6	1.51e+00	0	34	104	0	60	53475
2026-01-06 02:39:43.23	313.43	13.42	-48.1	-63.4	3.6	1.51e+00	0	34	104	0	60	53277
2026-01-06 02:39:47.27	314.11	13.20	-48.1	-63.4	3.6	1.51e+00	0	34	104	0	60	53363
2026-01-06 02:39:51.31	314.77	12.98	-48.1	-63.3	3.6	1.51e+00	0	34	104	0	60	52975
2026-01-06 02:39:55.34	315.43	12.77	-48.0	-63.3	3.6	1.51e+00	0	34	104	0	60	53125
2026-01-06 02:39:59.38	316.08	12.54	-48.0	-63.3	3.6	1.51e+00	0	34	104	0	60	53114
2026-01-06 02:40:03.42	316.72	12.32	-48.0	-63.3	3.6	1.51e+00	0	34	104	0	60	52838
2026-01-06 02:40:07.46	317.36	12.10	-48.0	-63.3	3.6	1.51e+00	0	34	104	0	60	52621
2026-01-06 02:40:11.50	317.98	11.87	-48.0	-63.3	3.6	1.51e+00	0	34	104	0	60	52687
2026-01-06 02:40:15.54	318.59	11.65	-48.0	-63.2	3.6	1.51e+00	0	34	104	0	60	52362
2026-01-06 02:40:19.58	319.19	11.42	-48.0	-63.2	3.6	1.51e+00	0	34	104	0	60	52329
2026-01-06 02:40:23.62	319.79	11.20	-48.0	-63.1	3.6	1.51e+00	0	34	104	0	60	51942
2026-01-06 02:40:27.66	320.38	10.97	-48.0	-63.1	3.6	1.51e+00	0	34	104	0	60	51936
2026-01-06 02:40:31.69	320.95	10.74	-47.9	-63.1	3.6	1.51e+00	0	34	104	0	60	51768
2026-01-06 02:40:35.73	321.52	10.51	-47.9	-63.1	3.6	1.51e+00	0	34	104	0	60	51695
2026-01-06 02:40:39.77	322.08	10.29	-47.9	-63.1	3.6	1.51e+00	0	34	104	0	60	51368
2026-01-06 02:40:43.81	322.63	10.06	-47.8	-63.0	3.6	1.51e+00	0	34	104	0	60	51144
2026-01-06 02:40:47.85	323.18	9.83	-47.8	-63.0	3.6	1.51e+00	0	34	104	0	60	51296
2026-01-06 02:40:51.89	323.71	9.60	-47.8	-62.9	3.6	1.51e+00	0	34	104	0	60	50731
2026-01-06 02:40:55.93	324.24	9.37	-47.7	-62.9	3.6	1.51e+00	0	34	104	0	60	50200
2026-01-06 02:40:59.97	324.76	9.14	-47.7	-62.9	3.6	1.51e+00	0	34	104	0	60	50230
2026-01-06 02:41:04.01	325.27	8.91	-47.6	-62.8	3.6	1.51e+00	0	34	104	0	60	49675
2026-01-06 02:41:08.05	325.78	8.69	-47.5	-62.7	3.6	1.51e+00	0	34	104	0	60	49279
2026-01-06 02:41:12.09	326.27	8.46	-47.4	-62.6	3.6	1.51e+00	0	34	104	0	60	48895
2026-01-06 02:41:16.12	326.76	8.23	-47.4	-62.6	3.6	1.51e+00	0	34	104	0	60	48546
2026-01-06 02:41:20.16	327.24	8.00	-47.3	-62.4	3.6	1.51e+00	0	34	104	0	60	47851
2026-01-06 02:41:24.20	327.72	7.78	-47.2	-62.3	3.6	1.51e+00	0	34	104	0	60	47320
2026-01-06 02:41:28.24	328.19	7.55	-47.1	-62.2	3.6	1.51e+00	0	34	104	0	60	46743
2026-01-06 02:41:32.28	328.65	7.32	-47.0	-62.1	3.6	1.51e+00	0	34	104	0	60	46074
2026-01-06 02:41:36.31	329.10	7.10	-46.8	-62.1	3.5	1.51e+00	0	34	104	0	60	45874
2026-01-06 02:41:40.35	329.55	6.87	-47.7	-62.9	3.6	1.51e+00	0	34	104	0	60	50595
2026-01-06 02:41:44.39	329.99	6.65	-48.3	-63.5	3.6	1.51e+00	0	34	104	0	60	53880
2026-01-06 02:41:48.43	330.42	6.42	-48.3	-63.5	3.6	1.51e+00	0	34	104	0	60	54246
2026-01-06 02:41:52.47	330.85	6.20	-48.3	-63.5	3.6	1.51e+00	0	34	104	0	60	53797
2026-01-06 02:41:56.51	331.27	5.98	-48.1	-63.3	3.6	1.51e+00	0	34	104	0	60	52731
2026-01-06 02:42:00.55	331.69	5.76	-47.7	-62.8	3.6	1.51e+00	0	34	104	0	60	49743
2026-01-06 02:42:04.58	332.10	5.54	-46.4	-60.4	3.6	1.51e+00	0	34	104	1048576	60	37935
2026-01-06 02:42:08.62	332.50	5.31	-43.7	-46.5	15.0	8.30e-06	0	34	0	5242880	60	7638
2026-01-06 02:42:12.66	332.90	5.09	-42.1	-44.7	15.5	0.00e+00	0	34	0	12582912	58	6961
2026-01-06 02:42:16.70	333.29	4.88	-43.2	-47.9	10.8	7.35e-04	0	34	0	19922944	58	10023
2026-01-06 02:42:20.74	333.68	4.66	-43.5	-51.4	5.5	3.20e-01	0	34	0	27262976	58	15085
2026-01-06 02:42:24.77	334.06	4.44	-43.3	-55.8	3.8	1.48e+00	0	34	104	32505856	58	24922
2026-01-06 02:42:28.81	334.44	4.22	-43.2	-57.3	3.6	1.51e+00	0	34	104	32505856	58	29681
2026-01-06 02:42:32.85	334.81	4.01	-43.2	-58.2	3.6	1.51e+00	0	34	104	32505856	58	33042
2026-01-06 02:42:36.89	335.18	3.79	-43.3	-58.4	3.6	1.51e+00	0	34	104	32505856	58	33593
2026-01-06 02:42:40.92	335.54	3.58	-43.3	-58.4	3.6	1.51e+00	0	34	104	32505856	58	33730
2026-01-06 02:42:44.96	335.89	3.36	-43.3	-58.4	3.6	1.51e+00	0	34	104	32505856	58	33820
2026-01-06 02:42:49.00	336.24	3.15	-43.3	-58.3	3.6	1.51e+00	0	34	104	32505856	58	33468
2026-01-06 02:42:53.04	336.59	2.94	-47.9	-63.1	3.6	1.51e+00	0	34	104	32505856	60	51590
2026-01-06 02:42:57.08	336.93	2.73	-48.5	-63.7	3.6	1.51e+00	0	34	104	32505856	60	55506
2026-01-06 02:43:01.11	337.27	2.52	-48.2	-63.8	3.6	1.51e+00	0	34	104	32505856	60	55955
2026-01-06 02:43:05.15	337.60	2.31	-48.4	-63.7	3.6	1.51e+00	0	34	104	32505856	60	55391
2026-01-06 02:43:09.19	337.93	2.10	-48.5	-63.7	3.6	1.51e+00	0	34	104	32505856	60	55300
2026-01-06 02:43:13.23	338.25	1.89	-48.5	-63.7	3.6	1.51e+00	0	34	104	32505856	60	55373
2026-01-06 02:43:17.27	338.57	1.68	-48.5	-63.7	3.6	1.51e+00	0	34	104	32505856	60	55281
2026-01-06 02:43:21.31	338.89	1.48	-48.5	-63.7	3.6	1.51e+00	0	34	104	32505856	60	55458
2026-01-06 02:43:25.34	339.20	1.27	-48.5	-63.7	3.6	1.51e+00	0	34	104	32505856	60	55217
2026-01-06 02:43:29.38	339.51	1.07	-48.5	-63.7	3.6	1.51e+00	0	34	104	32505856	60	55106
2026-01-06 02:43:33.42	339.81	0.87	-48.5	-63.7	3.6	1.51e+00	0	34	104	32505856	60	55102
2026-01-06 02:43:37.46	340.11	0.66	-48.5	-63.6	3.6	1.51e+00	0	34	104	32505856	60	54958
2026-01-06 02:43:41.49	340.41	0.46	-48.5	-63.7	3.6	1.51e+00	0	34	104	32505856	60	55032
2026-01-06 02:43:45.53	340.70	0.26	-48.5	-63.7	3.6	1.51e+00	0	34	104	32505856	60	55309
2026-01-06 02:43:49.57	340.99	0.06	-48.5	-63.7	3.6	1.51e+00	0	34	104	32505856	60	55447

#Closed at: 2026-01-06 02:43:51
#Recorded file [32 MB]: D:/lorett/data/35029_260106_143013.dat