passes_logs/2026/01/06/R4.6S_Anadyr/R4.6S_Anadyr__20260106_193252_NOAA_20_JPSS-1_rec.log

#Pass ID: 20260106_193252_NOAA 20 (JPSS-1)
#Satellite: NOAA 20 (JPSS-1)
#Configuration: NOAA 20
#almurnet v.1.7.20251203
#Start time: 2026-01-06 19:32:55

#Version: 2.2.20231116
#Station: R4.6S_Anadyr
#Location: 177.4865 lon 64.73178 lat
#TLE: 1 43013U 17073A   26005.46207808  .00000128  00000+0  81791-4 0  9997
#TLE: 2 43013  98.7627 306.5027 0001826  53.0458 307.0885 14.19533487421381

#Time	Az	El	Level	Level2	SNR	BER	BlckErr	Temp	State	Recorded	gain1	gain2
2026-01-06 19:32:55.16	54.79	0.13	-48.5	-63.4	3.5	1.51e+00	0	31	0	0	60	53507
2026-01-06 19:32:58.18	54.56	0.28	-48.6	-63.7	3.6	1.51e+00	0	32	104	0	60	55184
2026-01-06 19:33:01.21	54.33	0.42	-48.6	-63.8	3.6	1.51e+00	0	32	104	0	60	55956
2026-01-06 19:33:04.24	54.09	0.57	-48.6	-63.8	3.6	1.51e+00	0	32	104	0	60	55949
2026-01-06 19:33:07.27	53.86	0.72	-48.5	-63.7	3.6	1.51e+00	0	32	104	0	60	55469
2026-01-06 19:33:10.30	53.62	0.87	-48.2	-63.3	3.6	1.51e+00	0	32	104	0	60	53036
2026-01-06 19:33:13.33	53.37	1.01	-47.0	-62.1	3.6	1.51e+00	0	32	104	0	60	46205
2026-01-06 19:33:16.36	53.13	1.16	-47.0	-62.1	3.6	1.51e+00	0	32	104	0	60	46065
2026-01-06 19:33:19.39	52.88	1.31	-47.0	-62.1	3.6	1.51e+00	0	32	104	0	60	45998
2026-01-06 19:33:22.42	52.63	1.46	-47.0	-62.1	3.6	1.51e+00	0	32	104	0	60	46286
2026-01-06 19:33:25.44	52.38	1.61	-47.0	-62.2	3.6	1.51e+00	0	32	104	0	60	46328
2026-01-06 19:33:28.47	52.12	1.76	-47.0	-62.0	3.6	1.51e+00	0	32	104	0	60	45751
2026-01-06 19:33:31.50	51.86	1.91	-47.0	-62.1	3.6	1.51e+00	0	32	104	0	60	46258
2026-01-06 19:33:34.53	51.60	2.06	-47.0	-62.0	3.6	1.51e+00	0	33	104	0	60	45713
2026-01-06 19:33:37.56	51.33	2.21	-47.0	-61.8	3.6	1.51e+00	0	33	104	0	60	44703
2026-01-06 19:33:40.59	51.07	2.36	-47.0	-62.1	3.6	1.51e+00	0	33	104	0	60	46167
2026-01-06 19:33:43.62	50.80	2.51	-47.0	-61.9	3.6	1.51e+00	0	33	104	0	60	45082
2026-01-06 19:33:46.65	50.52	2.66	-47.0	-62.0	3.6	1.51e+00	0	33	104	0	60	45582
2026-01-06 19:33:49.68	50.25	2.81	-46.9	-61.3	3.5	1.51e+00	0	33	104	0	60	41946
2026-01-06 19:33:52.71	49.97	2.96	-46.8	-58.4	4.1	1.50e+00	0	33	104	0	60	30150
2026-01-06 19:33:55.74	49.69	3.11	-47.0	-59.4	3.9	1.51e+00	0	33	104	2097152	60	33909
2026-01-06 19:33:58.77	49.40	3.27	-46.4	-54.9	4.9	1.51e+00	0	33	104	2097152	60	20084
2026-01-06 19:34:01.80	49.12	3.42	-45.4	-50.3	10.6	5.44e-03	92	33	0	5242880	60	11774
2026-01-06 19:34:04.82	48.83	3.57	-45.6	-50.7	9.5	1.41e-02	92	33	0	11534336	60	12456
2026-01-06 19:34:07.84	48.53	3.72	-46.0	-52.2	8.8	4.22e-02	18	33	0	16777216	60	14725
2026-01-06 19:34:10.87	48.24	3.87	-43.3	-45.9	15.6	7.00e-07	19	33	0	22020096	60	7098
2026-01-06 19:34:13.90	47.94	4.03	-42.0	-44.0	17.5	0.00e+00	92	33	0	28311552	58	6393
2026-01-06 19:34:16.92	47.63	4.18	-41.6	-43.3	18.1	0.00e+00	66	33	0	33554432	56	6678
2026-01-06 19:34:19.94	47.33	4.33	-41.8	-43.6	18.0	0.00e+00	4	33	0	39845888	56	6882
2026-01-06 19:34:22.97	47.02	4.48	-41.5	-43.2	18.4	0.00e+00	92	33	0	45088768	56	6561
2026-01-06 19:34:26.00	46.70	4.63	-41.3	-43.0	18.5	0.00e+00	0	33	0	51380224	56	6435
2026-01-06 19:34:29.03	46.39	4.79	-41.3	-43.0	18.6	0.00e+00	20	33	0	56623104	56	6425
2026-01-06 19:34:32.06	46.07	4.94	-41.1	-42.7	18.9	0.00e+00	90	33	0	61865984	56	6230
2026-01-06 19:34:35.09	45.74	5.09	-41.1	-42.7	18.9	0.00e+00	92	33	0	68157440	56	6229
2026-01-06 19:34:38.12	45.42	5.25	-41.1	-42.7	18.9	0.00e+00	0	33	0	73400320	56	6233
2026-01-06 19:34:41.14	45.09	5.40	-40.8	-42.3	19.3	0.00e+00	32	33	0	79691776	56	5960
2026-01-06 19:34:44.17	44.75	5.55	-40.8	-42.3	19.4	0.00e+00	92	33	0	84934656	56	5911
2026-01-06 19:34:47.19	44.42	5.70	-40.8	-42.3	19.3	0.00e+00	20	33	0	90177536	54	6681
2026-01-06 19:34:50.23	44.07	5.86	-40.6	-42.0	19.6	0.00e+00	61	33	0	96468992	54	6437
2026-01-06 19:34:53.25	43.73	6.01	-40.5	-42.0	19.7	0.00e+00	90	33	0	101711872	54	6406
2026-01-06 19:34:56.28	43.38	6.16	-40.8	-42.2	19.4	0.00e+00	65	33	0	108003328	54	6614
2026-01-06 19:34:59.31	43.03	6.31	-40.7	-42.2	19.5	0.00e+00	0	33	0	113246208	54	6568
2026-01-06 19:35:02.34	42.67	6.47	-40.9	-42.4	19.3	0.00e+00	0	33	0	119537664	54	6719
2026-01-06 19:35:05.36	42.31	6.62	-40.5	-41.9	19.8	0.00e+00	92	33	0	124780544	54	6357
2026-01-06 19:35:08.39	41.95	6.77	-40.4	-41.8	19.9	0.00e+00	0	33	0	130023424	54	6283
2026-01-06 19:35:11.42	41.58	6.92	-40.4	-41.7	20.0	0.00e+00	22	33	0	136314880	54	6236
2026-01-06 19:35:14.44	41.21	7.07	-40.3	-41.7	20.0	0.00e+00	92	33	0	141557760	54	6212
2026-01-06 19:35:17.47	40.83	7.22	-40.4	-41.8	20.0	0.00e+00	59	33	0	147849216	54	6255
2026-01-06 19:35:20.49	40.45	7.37	-40.4	-41.7	20.0	0.00e+00	0	33	0	153092096	54	6228
2026-01-06 19:35:23.52	40.07	7.52	-40.2	-41.5	20.2	0.00e+00	92	33	0	158334976	54	6059
2026-01-06 19:35:26.58	39.68	7.68	-40.3	-41.6	20.2	0.00e+00	81	33	0	164626432	54	6168
2026-01-06 19:35:29.32	39.32	7.81	-40.1	-41.4	20.4	0.00e+00	0	33	0	169869312	54	5970
2026-01-06 19:35:32.63	38.89	7.98	-39.8	-41.1	20.7	0.00e+00	64	33	0	176160768	54	5780
2026-01-06 19:35:35.37	38.53	8.11	-39.9	-41.2	20.6	0.00e+00	0	33	0	181403648	54	5858
2026-01-06 19:35:38.69	38.08	8.27	-39.8	-41.1	20.7	0.00e+00	0	33	0	187695104	54	5787
2026-01-06 19:35:41.43	37.71	8.41	-40.0	-41.2	20.6	0.00e+00	64	33	0	192937984	52	6589
2026-01-06 19:35:44.75	37.26	8.57	-39.7	-40.9	20.9	0.00e+00	92	33	0	199229440	52	6345
2026-01-06 19:35:47.48	36.88	8.70	-39.7	-40.9	21.0	0.00e+00	0	33	0	204472320	52	6342
2026-01-06 19:35:50.80	36.42	8.86	-39.8	-41.0	20.8	0.00e+00	23	33	0	210763776	52	6402
2026-01-06 19:35:53.54	36.04	8.99	-39.8	-41.1	20.9	0.00e+00	92	33	0	216006656	52	6479
2026-01-06 19:35:56.86	35.57	9.15	-39.8	-41.1	20.8	0.00e+00	15	33	0	221249536	52	6477
2026-01-06 19:35:59.60	35.17	9.28	-39.8	-41.1	20.8	0.00e+00	20	33	0	226492416	52	6469
2026-01-06 19:36:02.91	34.69	9.44	-39.6	-40.8	21.2	0.00e+00	2	33	0	232783872	52	6271
2026-01-06 19:36:05.66	34.29	9.57	-39.3	-40.4	21.5	0.00e+00	64	33	0	238026752	52	6007
2026-01-06 19:36:08.97	33.80	9.72	-39.1	-40.2	21.7	0.00e+00	22	33	0	244318208	52	5861
2026-01-06 19:36:11.71	33.39	9.85	-39.0	-40.0	21.9	0.00e+00	6	33	0	249561088	52	5753
2026-01-06 19:36:15.03	32.89	10.00	-38.9	-40.0	21.9	0.00e+00	90	33	0	255852544	52	5704
2026-01-06 19:36:17.77	32.47	10.13	-38.4	-39.4	22.4	0.00e+00	21	33	0	261095424	50	6032
2026-01-06 19:36:21.08	31.96	10.28	-38.4	-39.4	22.5	0.00e+00	0	33	0	267386880	50	5976
2026-01-06 19:36:23.82	31.54	10.40	-38.4	-39.4	22.5	0.00e+00	92	33	0	272629760	50	6025
2026-01-06 19:36:27.14	31.02	10.55	-38.2	-39.2	22.7	0.00e+00	0	33	0	278921216	50	5871
2026-01-06 19:36:29.87	30.59	10.67	-38.0	-39.0	22.9	0.00e+00	0	33	0	284164096	50	5719
2026-01-06 19:36:33.19	30.06	10.82	-38.1	-39.1	22.8	0.00e+00	61	33	0	289406976	50	5774
2026-01-06 19:36:35.93	29.62	10.94	-37.9	-38.9	22.9	0.00e+00	0	33	0	294649856	50	5661
2026-01-06 19:36:39.25	29.08	11.08	-37.7	-38.6	23.2	0.00e+00	56	33	0	300941312	48	6144
2026-01-06 19:36:41.99	28.63	11.20	-37.7	-38.7	23.1	0.00e+00	64	33	0	306184192	48	6195
2026-01-06 19:36:45.30	28.08	11.34	-37.5	-38.4	23.4	0.00e+00	91	33	0	312475648	48	6018
2026-01-06 19:36:48.04	27.62	11.45	-37.3	-38.2	23.5	0.00e+00	0	33	0	317718528	48	5896
2026-01-06 19:36:51.36	27.06	11.59	-37.4	-38.3	23.5	0.00e+00	2	33	0	324009984	48	5954
2026-01-06 19:36:54.10	26.60	11.70	-37.4	-38.3	23.4	0.00e+00	79	33	0	329252864	48	5915
2026-01-06 19:36:57.42	26.03	11.83	-37.6	-38.6	23.2	0.00e+00	58	33	0	335544320	48	6117
2026-01-06 19:37:00.16	25.55	11.94	-37.6	-38.5	23.3	0.00e+00	0	33	0	340787200	48	6102
2026-01-06 19:37:03.47	24.98	12.07	-37.6	-38.6	23.3	0.00e+00	0	33	0	347078656	48	6119
2026-01-06 19:37:06.21	24.50	12.17	-37.9	-38.8	23.1	0.00e+00	2	33	0	352321536	48	6298
2026-01-06 19:37:09.52	23.91	12.30	-37.9	-38.9	23.0	0.00e+00	4	33	0	357564416	48	6363
2026-01-06 19:37:12.26	23.42	12.40	-38.0	-39.0	22.9	0.00e+00	92	33	0	362807296	48	6402
2026-01-06 19:37:15.58	22.82	12.52	-37.7	-38.7	23.2	0.00e+00	92	33	0	369098752	48	6182
2026-01-06 19:37:18.32	22.33	12.62	-37.7	-38.6	23.2	0.00e+00	22	33	0	374341632	48	6155
2026-01-06 19:37:21.63	21.72	12.74	-37.7	-38.6	23.2	0.00e+00	7	33	0	380633088	48	6173
2026-01-06 19:37:24.37	21.22	12.83	-37.7	-38.6	23.3	0.00e+00	15	33	0	385875968	48	6119
2026-01-06 19:37:27.69	20.61	12.94	-37.6	-38.5	23.3	0.00e+00	0	33	0	392167424	48	6093
2026-01-06 19:37:30.43	20.10	13.03	-37.5	-38.4	22.5	0.00e+00	0	33	0	397410304	48	5993
2026-01-06 19:37:33.75	19.47	13.14	-37.6	-38.5	23.4	0.00e+00	92	33	0	403701760	48	6062
2026-01-06 19:37:36.49	18.96	13.22	-37.6	-38.5	23.3	0.00e+00	1	33	0	408944640	48	6074
2026-01-06 19:37:39.80	18.33	13.32	-37.6	-38.5	23.4	0.00e+00	17	33	0	415236096	48	6055
2026-01-06 19:37:42.54	17.80	13.40	-37.4	-38.3	23.5	0.00e+00	92	33	0	419430400	48	5933
2026-01-06 19:37:45.85	17.17	13.50	-37.3	-38.2	23.6	0.00e+00	75	33	0	425721856	48	5887
2026-01-06 19:37:48.59	16.64	13.57	-37.6	-38.5	23.4	0.00e+00	65	33	0	430964736	48	6093
2026-01-06 19:37:51.91	15.99	13.66	-37.4	-38.3	23.6	0.00e+00	0	33	0	437256192	48	5927
2026-01-06 19:37:54.64	15.46	13.73	-37.7	-38.6	23.4	0.00e+00	0	33	0	442499072	48	6135
2026-01-06 19:37:57.96	14.80	13.82	-37.4	-38.3	23.5	0.00e+00	22	33	0	448790528	48	5956
2026-01-06 19:38:00.70	14.26	13.88	-37.6	-38.6	23.4	0.00e+00	24	33	0	454033408	48	6110
2026-01-06 19:38:04.02	13.60	13.96	-37.9	-38.8	23.2	0.00e+00	92	33	0	460324864	48	6285
2026-01-06 19:38:06.76	13.06	14.02	-37.8	-38.7	23.2	0.00e+00	4	33	0	465567744	48	6228
2026-01-06 19:38:10.07	12.39	14.09	-38.2	-39.2	22.7	0.00e+00	2	33	0	471859200	48	6551
2026-01-06 19:38:12.81	11.84	14.14	-38.4	-39.4	22.6	0.00e+00	92	33	0	477102080	48	6711
2026-01-06 19:38:16.13	11.17	14.21	-38.1	-39.1	22.9	0.00e+00	0	33	0	483393536	48	6518
2026-01-06 19:38:18.87	10.61	14.26	-38.4	-39.4	22.7	0.00e+00	0	33	0	487587840	48	6703
2026-01-06 19:38:22.18	9.94	14.31	-37.8	-38.7	23.2	0.00e+00	24	33	0	493879296	48	6204
2026-01-06 19:38:24.92	9.38	14.36	-37.6	-38.6	23.4	0.00e+00	0	33	0	499122176	48	6112
2026-01-06 19:38:28.24	8.70	14.41	-37.6	-38.5	23.4	0.00e+00	0	33	0	505413632	48	6101
2026-01-06 19:38:30.97	8.14	14.44	-37.5	-38.4	23.6	0.00e+00	78	33	0	510656512	48	5974
2026-01-06 19:38:34.28	7.46	14.49	-38.0	-39.0	22.9	0.00e+00	92	33	0	516947968	48	6416
2026-01-06 19:38:37.02	6.89	14.52	-37.8	-38.7	23.2	0.00e+00	64	33	0	522190848	48	6227
2026-01-06 19:38:40.34	6.20	14.55	-37.8	-38.8	23.2	0.00e+00	0	33	0	528482304	48	6267
2026-01-06 19:38:43.08	5.63	14.58	-37.9	-38.8	23.2	0.00e+00	92	33	0	533725184	48	6296
2026-01-06 19:38:46.40	4.94	14.60	-37.7	-38.6	23.3	0.00e+00	64	33	0	540016640	48	6147
2026-01-06 19:38:49.13	4.37	14.62	-37.7	-38.6	23.3	0.00e+00	24	33	0	545259520	48	6123
2026-01-06 19:38:52.45	3.68	14.64	-37.8	-38.7	23.2	0.00e+00	48	33	0	550502400	48	6236
2026-01-06 19:38:55.19	3.11	14.66	-37.6	-38.6	23.3	0.00e+00	23	33	0	555745280	48	6107
2026-01-06 19:38:58.50	2.42	14.67	-37.5	-38.4	23.6	0.00e+00	5	34	0	562036736	48	5971
2026-01-06 19:39:01.24	1.85	14.67	-37.6	-38.5	23.4	0.00e+00	92	33	0	567279616	48	6083
2026-01-06 19:39:04.56	1.15	14.68	-37.8	-38.7	23.3	0.00e+00	92	33	0	573571072	48	6224
2026-01-06 19:39:07.30	0.58	14.68	-37.7	-38.6	23.4	0.00e+00	0	33	0	578813952	48	6173
2026-01-06 19:39:10.61	359.89	14.68	-37.7	-38.7	23.0	0.00e+00	68	33	0	585105408	48	6184
2026-01-06 19:39:13.35	359.31	14.67	-37.6	-38.6	23.4	0.00e+00	0	33	0	590348288	48	6108
2026-01-06 19:39:16.67	358.62	14.66	-37.9	-38.8	23.3	0.00e+00	0	33	0	596639744	48	6285
2026-01-06 19:39:19.41	358.05	14.65	-37.8	-38.7	23.4	0.00e+00	22	33	0	601882624	48	6193
2026-01-06 19:39:22.73	357.36	14.63	-38.2	-39.1	23.0	0.00e+00	74	33	0	608174080	48	6518
2026-01-06 19:39:25.47	356.78	14.61	-38.3	-39.2	22.9	0.00e+00	0	33	0	613416960	48	6595
2026-01-06 19:39:28.78	356.10	14.58	-38.2	-39.1	23.0	0.00e+00	58	33	0	618659840	48	6524
2026-01-06 19:39:31.52	355.53	14.56	-37.9	-38.9	23.0	0.00e+00	92	33	0	623902720	48	6356
2026-01-06 19:39:34.83	354.84	14.52	-38.3	-39.3	22.7	0.00e+00	0	33	0	630194176	48	6641
2026-01-06 19:39:37.58	354.27	14.49	-38.4	-39.4	22.6	0.00e+00	5	33	0	635437056	48	6759
2026-01-06 19:39:40.89	353.59	14.45	-38.0	-39.0	23.0	0.00e+00	0	33	0	641728512	48	6436
2026-01-06 19:39:43.63	353.03	14.41	-37.9	-38.8	23.2	0.00e+00	65	33	0	646971392	48	6314
2026-01-06 19:39:46.94	352.35	14.37	-37.9	-38.8	23.1	0.00e+00	0	33	0	653262848	48	6297
2026-01-06 19:39:49.68	351.79	14.32	-38.0	-39.0	23.1	0.00e+00	0	33	0	658505728	48	6408
2026-01-06 19:39:53.00	351.11	14.27	-38.0	-38.9	23.1	0.00e+00	90	33	0	664797184	48	6388
2026-01-06 19:39:55.74	350.56	14.22	-37.7	-38.7	23.3	0.00e+00	2	33	0	670040064	48	6179
2026-01-06 19:39:59.04	349.89	14.16	-37.6	-38.5	23.4	0.00e+00	0	33	0	676331520	48	6099
2026-01-06 19:40:01.78	349.34	14.10	-37.5	-38.5	23.5	0.00e+00	92	33	0	680525824	48	6048
2026-01-06 19:40:05.10	348.67	14.03	-37.7	-38.6	23.4	0.00e+00	2	33	0	686817280	48	6165
2026-01-06 19:40:07.84	348.12	13.97	-37.9	-38.8	23.2	0.00e+00	60	33	0	692060160	48	6283
2026-01-06 19:40:11.15	347.46	13.90	-37.9	-38.8	23.1	0.00e+00	0	33	0	698351616	48	6302
2026-01-06 19:40:13.89	346.92	13.83	-37.9	-38.9	23.0	0.00e+00	0	33	0	703594496	48	6344
2026-01-06 19:40:17.21	346.27	13.75	-38.1	-39.0	22.9	0.00e+00	15	33	0	709885952	48	6458
2026-01-06 19:40:19.94	345.73	13.68	-37.9	-38.9	23.0	0.00e+00	92	33	0	715128832	48	6336
2026-01-06 19:40:23.26	345.09	13.59	-38.2	-39.2	22.8	0.00e+00	92	33	0	721420288	48	6551
2026-01-06 19:40:26.00	344.56	13.51	-38.0	-38.9	23.0	0.00e+00	66	33	0	726663168	48	6364
2026-01-06 19:40:29.32	343.92	13.42	-38.1	-39.1	22.8	0.00e+00	0	33	0	732954624	48	6487
2026-01-06 19:40:32.06	343.39	13.34	-38.1	-39.1	22.8	0.00e+00	92	33	0	738197504	48	6528
2026-01-06 19:40:35.37	342.76	13.24	-37.8	-38.7	23.2	0.00e+00	2	33	0	744488960	48	6236
2026-01-06 19:40:38.11	342.25	13.16	-37.6	-38.6	23.3	0.00e+00	0	33	0	748683264	48	6120
2026-01-06 19:40:41.43	341.62	13.05	-37.6	-38.5	23.3	0.00e+00	25	33	0	754974720	48	6094
2026-01-06 19:40:44.17	341.11	12.96	-37.7	-38.7	23.2	0.00e+00	22	33	0	760217600	48	6215
2026-01-06 19:40:47.49	340.50	12.85	-37.4	-38.4	23.5	0.00e+00	2	33	0	766509056	48	5973
2026-01-06 19:40:50.22	339.99	12.76	-37.5	-38.4	23.4	0.00e+00	90	33	0	771751936	48	5993
2026-01-06 19:40:53.54	339.39	12.64	-37.7	-38.6	23.2	0.00e+00	92	33	0	778043392	48	6154
2026-01-06 19:40:56.28	338.89	12.54	-37.6	-38.5	23.3	0.00e+00	0	33	0	783286272	48	6092
2026-01-06 19:40:59.60	338.29	12.42	-37.5	-38.4	23.4	0.00e+00	67	33	0	789577728	48	6021
2026-01-06 19:41:02.35	337.80	12.32	-37.6	-38.5	23.3	0.00e+00	0	33	0	794820608	48	6101
2026-01-06 19:41:05.67	337.21	12.20	-37.6	-38.5	23.3	0.00e+00	7	33	0	801112064	48	6101
2026-01-06 19:41:08.41	336.73	12.09	-37.7	-38.6	23.1	0.00e+00	62	33	0	806354944	48	6155
2026-01-06 19:41:11.72	336.16	11.97	-37.8	-38.8	23.0	0.00e+00	92	33	0	812646400	48	6249
2026-01-06 19:41:14.47	335.68	11.86	-38.1	-39.1	22.8	0.00e+00	5	33	0	816840704	48	6532
2026-01-06 19:41:17.78	335.11	11.73	-38.2	-39.3	22.6	0.00e+00	20	33	0	823132160	48	6620
2026-01-06 19:41:20.52	334.65	11.61	-38.3	-39.3	22.5	0.00e+00	90	33	0	828375040	48	6676
2026-01-06 19:41:23.84	334.09	11.48	-38.6	-39.6	22.2	0.00e+00	15	33	0	834666496	48	6879
2026-01-06 19:41:26.58	333.63	11.36	-38.8	-39.9	22.0	0.00e+00	19	33	0	839909376	50	6341
2026-01-06 19:41:29.90	333.08	11.22	-39.0	-40.0	21.9	0.00e+00	0	33	0	846200832	50	6459
2026-01-06 19:41:32.64	332.63	11.11	-39.2	-40.3	21.6	0.00e+00	68	33	0	851443712	50	6632
2026-01-06 19:41:35.96	332.09	10.97	-39.4	-40.6	21.3	0.00e+00	0	33	0	857735168	50	6864
2026-01-06 19:41:38.69	331.65	10.85	-39.6	-40.8	21.2	0.00e+00	4	33	0	862978048	50	7030
2026-01-06 19:41:42.01	331.12	10.70	-39.7	-40.9	21.0	0.00e+00	92	33	0	869269504	52	6373
2026-01-06 19:41:44.75	330.68	10.58	-39.8	-41.0	21.0	0.00e+00	6	33	0	874512384	52	6402
2026-01-06 19:41:48.06	330.16	10.43	-40.1	-41.4	20.7	0.00e+00	0	33	0	880803840	52	6695
2026-01-06 19:41:50.80	329.74	10.31	-40.4	-41.8	20.2	0.00e+00	92	33	0	884998144	52	7018
2026-01-06 19:41:54.12	329.23	10.16	-40.4	-41.7	20.4	0.00e+00	16	33	0	891289600	52	6942
2026-01-06 19:41:56.86	328.81	10.03	-40.2	-41.5	20.5	0.00e+00	0	33	0	896532480	52	6781
2026-01-06 19:42:00.18	328.31	9.88	-40.6	-42.0	20.1	0.00e+00	19	33	0	902823936	52	7171
2026-01-06 19:42:02.92	327.90	9.75	-40.7	-42.0	19.9	0.00e+00	0	33	0	908066816	52	7244
2026-01-06 19:42:06.24	327.40	9.60	-40.8	-42.2	19.8	0.00e+00	63	33	0	914358272	54	6564
2026-01-06 19:42:08.97	327.00	9.47	-40.8	-42.2	19.8	0.00e+00	67	33	0	919601152	54	6599
2026-01-06 19:42:12.29	326.52	9.31	-40.7	-42.1	20.0	0.00e+00	92	33	0	925892608	54	6477
2026-01-06 19:42:15.03	326.13	9.18	-40.7	-42.1	19.8	0.00e+00	63	33	0	931135488	54	6515
2026-01-06 19:42:18.35	325.66	9.02	-40.8	-42.2	19.6	0.00e+00	2	33	0	937426944	54	6598
2026-01-06 19:42:21.09	325.27	8.89	-40.6	-41.9	20.0	0.00e+00	92	33	0	942669824	54	6375
2026-01-06 19:42:24.40	324.81	8.73	-40.2	-41.5	20.4	0.00e+00	63	33	0	947912704	54	6097
2026-01-06 19:42:27.14	324.43	8.60	-40.1	-41.4	20.5	0.00e+00	0	33	0	953155584	54	5981
2026-01-06 19:42:30.46	323.98	8.44	-40.2	-41.5	20.4	0.00e+00	80	33	0	959447040	54	6071
2026-01-06 19:42:33.20	323.61	8.30	-40.1	-41.4	20.5	0.00e+00	63	33	0	964689920	54	5978
2026-01-06 19:42:36.51	323.16	8.14	-40.1	-41.4	20.6	0.00e+00	5	33	0	970981376	54	5992
2026-01-06 19:42:39.25	322.80	8.01	-40.1	-41.4	20.4	0.00e+00	92	33	0	976224256	54	6006
2026-01-06 19:42:42.57	322.37	7.84	-39.7	-40.9	20.9	0.00e+00	90	33	0	982515712	52	6376
2026-01-06 19:42:45.31	322.01	7.71	-39.3	-40.5	21.3	0.00e+00	0	33	0	987758592	52	6051
2026-01-06 19:42:48.62	321.59	7.54	-39.2	-40.3	21.4	0.00e+00	68	33	0	994050048	52	5927
2026-01-06 19:42:51.36	321.24	7.41	-39.2	-40.4	21.4	0.00e+00	16	33	0	999292928	52	5973
2026-01-06 19:42:54.68	320.82	7.24	-39.1	-40.3	21.5	0.00e+00	5	33	0	1005584384	52	5899
2026-01-06 19:42:57.42	320.48	7.11	-38.7	-39.8	21.9	0.00e+00	66	34	0	1010827264	52	5589
2026-01-06 19:43:00.74	320.07	6.94	-38.6	-39.7	22.0	0.00e+00	18	33	0	1016070144	50	6206
2026-01-06 19:43:03.47	319.74	6.80	-38.6	-39.6	21.8	0.00e+00	5	33	0	1021313024	50	6163
2026-01-06 19:43:06.79	319.34	6.64	-38.5	-39.5	22.0	0.00e+00	70	33	0	1027604480	50	6082
2026-01-06 19:43:09.53	319.02	6.50	-38.4	-39.4	22.2	0.00e+00	92	33	0	1032847360	50	6015
2026-01-06 19:43:12.85	318.62	6.33	-38.5	-39.5	22.0	0.00e+00	92	33	0	1039138816	50	6099
2026-01-06 19:43:15.59	318.30	6.20	-38.6	-39.7	21.8	0.00e+00	69	33	0	1044381696	50	6208
2026-01-06 19:43:18.91	317.92	6.03	-38.6	-39.7	21.8	0.00e+00	2	34	0	1050673152	50	6223
2026-01-06 19:43:21.65	317.61	5.89	-38.8	-39.9	21.7	0.00e+00	0	33	0	1055916032	50	6376
2026-01-06 19:43:24.96	317.24	5.72	-38.7	-39.8	21.8	0.00e+00	16	33	0	1062207488	50	6267
2026-01-06 19:43:27.70	316.93	5.59	-38.7	-39.8	21.7	0.00e+00	4	34	0	1067450368	50	6316
2026-01-06 19:43:31.02	316.56	5.42	-38.8	-39.9	21.6	0.00e+00	91	34	0	1073741824	50	6390
2026-01-06 19:43:33.76	316.26	5.28	-39.1	-40.2	21.2	0.00e+00	64	33	0	1078984704	50	6589
2026-01-06 19:43:37.08	315.90	5.11	-39.1	-40.3	21.2	0.00e+00	0	33	0	1084227584	50	6681
2026-01-06 19:43:39.82	315.61	4.97	-39.1	-40.3	21.0	0.00e+00	92	34	0	1089470464	50	6680
2026-01-06 19:43:43.14	315.26	4.81	-39.2	-40.4	21.0	0.00e+00	0	34	0	1095761920	50	6759
2026-01-06 19:43:45.88	314.97	4.67	-39.1	-40.3	21.1	0.00e+00	0	34	0	1101004800	50	6658
2026-01-06 19:43:49.19	314.63	4.50	-39.1	-40.3	21.1	0.00e+00	65	34	0	1107296256	50	6619
2026-01-06 19:43:51.93	314.35	4.36	-39.3	-40.5	20.9	0.00e+00	0	33	0	1112539136	50	6791
2026-01-06 19:43:55.25	314.01	4.20	-39.5	-40.7	20.6	0.00e+00	0	33	0	1118830592	50	7005
2026-01-06 19:43:57.99	313.74	4.06	-39.8	-41.1	20.2	0.00e+00	17	33	0	1124073472	52	6502
2026-01-06 19:44:01.30	313.41	3.89	-39.9	-41.3	20.0	0.00e+00	92	34	0	1130364928	52	6641
2026-01-06 19:44:04.04	313.14	3.76	-40.0	-41.4	19.9	0.00e+00	0	33	0	1135607808	52	6712
2026-01-06 19:44:07.36	312.82	3.59	-39.9	-41.3	20.0	0.00e+00	74	33	0	1141899264	52	6649
2026-01-06 19:44:10.10	312.56	3.45	-40.4	-41.9	19.2	0.00e+00	92	33	0	1146093568	52	7132
2026-01-06 19:44:13.42	312.24	3.29	-40.2	-41.6	19.5	0.00e+00	0	33	0	1152385024	52	6919
2026-01-06 19:44:16.16	311.98	3.15	-40.6	-42.1	19.0	0.00e+00	0	33	0	1157627904	52	7303
2026-01-06 19:44:19.47	311.68	2.98	-44.4	-48.1	3.5	1.08e-01	9	34	0	1163919360	54	12993
2026-01-06 19:44:22.21	311.42	2.85	-48.4	-63.5	3.6	1.51e+00	0	34	104	1163919360	60	54366
2026-01-06 19:44:25.53	311.12	2.68	-48.6	-63.8	3.6	1.51e+00	0	34	104	1163919360	60	55742
2026-01-06 19:44:28.28	310.87	2.54	-48.6	-63.8	3.6	1.51e+00	0	34	104	1163919360	60	56247
2026-01-06 19:44:31.59	310.58	2.38	-48.5	-63.7	3.6	1.51e+00	0	34	104	1163919360	60	55387
2026-01-06 19:44:34.34	310.34	2.24	-48.5	-63.7	3.6	1.51e+00	0	34	104	1163919360	60	55294
2026-01-06 19:44:37.66	310.05	2.08	-48.6	-63.8	3.6	1.51e+00	0	34	104	1163919360	60	55699
2026-01-06 19:44:40.40	309.81	1.94	-48.5	-63.7	3.6	1.51e+00	0	34	104	1163919360	60	55235
2026-01-06 19:44:43.71	309.53	1.78	-48.5	-63.7	3.6	1.51e+00	0	34	104	1163919360	60	55539
2026-01-06 19:44:46.45	309.29	1.64	-48.5	-63.7	3.6	1.51e+00	0	34	104	1163919360	60	55158
2026-01-06 19:44:49.77	309.02	1.48	-48.5	-63.7	3.6	1.51e+00	0	34	104	1163919360	60	55151
2026-01-06 19:44:52.51	308.79	1.35	-48.5	-63.7	3.6	1.51e+00	0	34	104	1163919360	60	55232
2026-01-06 19:44:55.83	308.52	1.18	-48.5	-63.6	3.6	1.51e+00	0	34	104	1163919360	60	54937
2026-01-06 19:44:58.57	308.29	1.05	-48.5	-63.7	3.6	1.51e+00	0	34	104	1163919360	60	55312
2026-01-06 19:45:01.89	308.03	0.89	-48.5	-63.7	3.6	1.51e+00	0	34	104	1163919360	60	55225
2026-01-06 19:45:04.63	307.81	0.75	-48.5	-63.7	3.6	1.51e+00	0	34	104	1163919360	60	55232
2026-01-06 19:45:07.95	307.55	0.59	-48.5	-63.7	3.6	1.51e+00	0	34	104	1163919360	60	55083
2026-01-06 19:45:10.68	307.34	0.46	-48.5	-63.6	3.6	1.51e+00	0	34	104	1163919360	60	54981
2026-01-06 19:45:14.00	307.08	0.30	-48.5	-63.7	3.6	1.51e+00	0	34	104	1163919360	60	55035
2026-01-06 19:45:16.75	306.87	0.16	-48.5	-63.6	3.6	1.51e+00	0	34	104	1163919360	60	54909
2026-01-06 19:45:20.07	306.62	0.00	-48.5	-63.7	3.6	1.51e+00	0	34	104	1163919360	60	55095

#Closed at: 2026-01-06 19:45:22
#Recorded file [1163 MB]: D:/lorett/data/35029_260107_073255.dat