passes_logs/2026/01/06/R4.6S_Anadyr/R4.6S_Anadyr__20260106_125317_NOAA_20_JPSS-1_rec.log

#Pass ID: 20260106_125317_NOAA 20 (JPSS-1)
#Satellite: NOAA 20 (JPSS-1)
#Configuration: NOAA 20
#almurnet v.1.7.20251203
#Start time: 2026-01-06 12:53:18

#Version: 2.2.20231116
#Station: R4.6S_Anadyr
#Location: 177.4865 lon 64.73178 lat
#TLE: 1 43013U 17073A   26005.46207808  .00000128  00000+0  81791-4 0  9997
#TLE: 2 43013  98.7627 306.5027 0001826  53.0458 307.0885 14.19533487421381

#Time	Az	El	Level	Level2	SNR	BER	BlckErr	Temp	State	Recorded	gain1	gain2
2026-01-06 12:53:18.34	18.77	0.05	-48.7	-63.6	3.5	1.51e+00	0	33	0	0	60	54616
2026-01-06 12:53:22.37	19.00	0.27	-48.8	-63.9	3.6	1.51e+00	0	34	104	0	60	56895
2026-01-06 12:53:26.41	19.25	0.48	-48.8	-64.1	3.6	1.51e+00	0	34	104	0	60	57872
2026-01-06 12:53:30.45	19.49	0.70	-48.5	-63.7	3.6	1.51e+00	0	35	104	0	60	55144
2026-01-06 12:53:34.49	19.74	0.92	-47.6	-62.7	3.6	1.51e+00	0	34	104	0	60	49295
2026-01-06 12:53:38.53	19.99	1.14	-47.3	-62.4	3.6	1.51e+00	0	35	104	0	60	47751
2026-01-06 12:53:42.57	20.25	1.36	-47.3	-62.5	3.6	1.51e+00	0	35	104	0	60	48138
2026-01-06 12:53:46.61	20.51	1.58	-47.3	-62.3	3.6	1.51e+00	0	35	104	0	60	47315
2026-01-06 12:53:50.65	20.77	1.80	-47.3	-62.3	3.5	1.51e+00	0	35	104	0	60	47268
2026-01-06 12:53:54.70	21.04	2.03	-47.3	-62.4	3.6	1.51e+00	0	35	104	0	60	47804
2026-01-06 12:53:58.74	21.31	2.25	-47.2	-61.2	3.6	1.51e+00	0	35	104	0	60	41280
2026-01-06 12:54:02.78	21.58	2.48	-47.1	-59.1	3.7	1.51e+00	0	35	104	0	60	32489
2026-01-06 12:54:06.82	21.86	2.71	-43.0	-45.4	16.2	0.00e+00	0	35	0	5242880	60	6716
2026-01-06 12:54:10.86	22.14	2.94	-40.7	-42.2	19.1	0.00e+00	92	35	0	12582912	54	6563
2026-01-06 12:54:14.90	22.43	3.17	-44.8	-48.6	12.4	1.83e-05	0	35	0	20971520	60	9770
2026-01-06 12:54:18.94	22.72	3.40	-46.9	-55.7	4.2	1.33e+00	68	35	104	26214400	60	22147
2026-01-06 12:54:22.98	23.01	3.64	-44.6	-48.0	13.4	1.14e-05	68	35	0	29360128	60	9082
2026-01-06 12:54:27.01	23.31	3.87	-43.9	-46.6	15.0	0.00e+00	0	35	0	36700160	60	7747
2026-01-06 12:54:31.05	23.61	4.11	-42.0	-43.8	17.9	0.00e+00	12	35	0	44040192	58	6297
2026-01-06 12:54:35.09	23.92	4.35	-40.8	-42.3	19.4	0.00e+00	0	35	0	51380224	56	5932
2026-01-06 12:54:39.13	24.23	4.59	-40.1	-41.5	20.1	0.00e+00	92	35	0	59768832	54	6037
2026-01-06 12:54:43.16	24.55	4.83	-40.0	-41.3	20.4	0.00e+00	0	35	0	67108864	54	5923
2026-01-06 12:54:47.19	24.87	5.07	-39.9	-41.2	20.5	0.00e+00	70	35	0	74448896	54	5866
2026-01-06 12:54:51.22	25.20	5.31	-39.9	-41.1	20.7	0.00e+00	0	35	0	81788928	52	6501
2026-01-06 12:54:55.26	25.53	5.56	-39.7	-40.9	20.9	0.00e+00	91	35	0	89128960	52	6338
2026-01-06 12:54:59.30	25.87	5.81	-39.8	-41.1	20.8	0.00e+00	2	35	0	97517568	52	6465
2026-01-06 12:55:03.33	26.21	6.06	-39.7	-40.9	20.9	0.00e+00	2	35	0	104857600	52	6330
2026-01-06 12:55:07.36	26.56	6.31	-39.7	-40.9	20.8	0.00e+00	0	35	0	112197632	52	6374
2026-01-06 12:55:11.40	26.92	6.56	-39.7	-40.9	21.0	0.00e+00	90	35	0	119537664	52	6324
2026-01-06 12:55:15.44	27.28	6.81	-39.6	-40.8	21.2	0.00e+00	0	35	0	126877696	52	6262
2026-01-06 12:55:19.47	27.64	7.07	-39.5	-40.6	21.3	0.00e+00	6	35	0	135266304	52	6138
2026-01-06 12:55:23.51	28.01	7.32	-39.5	-40.7	21.3	0.00e+00	5	35	0	142606336	52	6176
2026-01-06 12:55:27.55	28.39	7.58	-39.3	-40.4	21.5	0.00e+00	92	35	0	149946368	52	6033
2026-01-06 12:55:31.59	28.78	7.84	-39.0	-40.1	21.9	0.00e+00	0	35	0	157286400	52	5772
2026-01-06 12:55:35.62	29.17	8.10	-39.0	-40.0	22.0	0.00e+00	70	35	0	165675008	52	5744
2026-01-06 12:55:39.66	29.57	8.37	-39.0	-40.1	21.9	0.00e+00	16	35	0	173015040	52	5799
2026-01-06 12:55:43.70	29.98	8.63	-39.1	-40.2	21.7	0.00e+00	92	35	0	180355072	52	5880
2026-01-06 12:55:47.74	30.39	8.90	-39.2	-40.3	21.8	0.00e+00	0	35	0	187695104	52	5913
2026-01-06 12:55:51.78	30.81	9.17	-39.0	-40.1	21.8	0.00e+00	72	35	0	195035136	52	5772
2026-01-06 12:55:55.81	31.24	9.44	-39.1	-40.2	21.9	0.00e+00	0	35	0	203423744	52	5840
2026-01-06 12:55:59.85	31.67	9.71	-39.1	-40.2	22.0	0.00e+00	90	35	0	210763776	52	5840
2026-01-06 12:56:03.89	32.12	9.98	-38.9	-40.0	22.2	0.00e+00	11	35	0	218103808	52	5722
2026-01-06 12:56:07.93	32.57	10.26	-38.8	-39.8	22.3	0.00e+00	0	35	0	225443840	52	5614
2026-01-06 12:56:11.96	33.03	10.53	-38.7	-39.7	22.5	0.00e+00	92	35	0	233832448	50	6245
2026-01-06 12:56:15.99	33.49	10.81	-38.7	-39.7	22.4	0.00e+00	15	35	0	241172480	50	6203
2026-01-06 12:56:20.02	33.97	11.09	-38.5	-39.4	22.7	0.00e+00	71	35	0	248512512	50	6028
2026-01-06 12:56:24.06	34.45	11.37	-38.2	-39.2	23.0	0.00e+00	0	35	0	255852544	50	5835
2026-01-06 12:56:28.10	34.95	11.65	-38.1	-39.1	23.1	0.00e+00	92	35	0	263192576	50	5762
2026-01-06 12:56:32.14	35.45	11.94	-38.2	-39.2	22.9	0.00e+00	0	35	0	271581184	50	5838
2026-01-06 12:56:36.18	35.96	12.22	-38.2	-39.1	23.0	0.00e+00	0	35	0	278921216	50	5815
2026-01-06 12:56:40.21	36.49	12.51	-38.1	-39.0	23.1	0.00e+00	8	35	0	286261248	50	5761
2026-01-06 12:56:44.25	37.02	12.79	-38.0	-39.0	23.1	0.00e+00	92	35	0	293601280	50	5712
2026-01-06 12:56:48.29	37.56	13.08	-38.0	-39.0	23.2	0.00e+00	0	36	0	301989888	50	5706
2026-01-06 12:56:52.33	38.11	13.37	-37.9	-38.9	23.2	0.00e+00	0	35	0	309329920	50	5634
2026-01-06 12:56:56.37	38.68	13.66	-37.9	-38.8	23.2	0.00e+00	0	36	0	316669952	50	5612
2026-01-06 12:57:00.41	39.25	13.95	-37.8	-38.7	23.4	0.00e+00	92	35	0	324009984	48	6207
2026-01-06 12:57:04.44	39.84	14.25	-37.7	-38.6	23.5	0.00e+00	8	35	0	331350016	48	6143
2026-01-06 12:57:08.48	40.43	14.54	-37.6	-38.5	23.7	0.00e+00	5	35	0	339738624	48	6075
2026-01-06 12:57:12.52	41.04	14.83	-37.5	-38.4	23.7	0.00e+00	5	35	0	347078656	48	6019
2026-01-06 12:57:16.55	41.66	15.13	-37.5	-38.4	23.7	0.00e+00	92	35	0	354418688	48	5998
2026-01-06 12:57:20.59	42.29	15.42	-37.5	-38.4	23.7	0.00e+00	73	35	0	361758720	48	6000
2026-01-06 12:57:24.63	42.93	15.72	-37.7	-38.6	23.6	0.00e+00	73	35	0	370147328	48	6172
2026-01-06 12:57:28.67	43.59	16.01	-37.8	-38.7	23.4	0.00e+00	0	35	0	377487360	48	6219
2026-01-06 12:57:32.70	44.26	16.31	-37.8	-38.7	23.6	0.00e+00	92	35	0	384827392	48	6179
2026-01-06 12:57:36.75	44.94	16.61	-37.8	-38.7	23.6	0.00e+00	0	35	0	392167424	48	6174
2026-01-06 12:57:40.78	45.64	16.90	-37.5	-38.4	23.7	0.00e+00	67	35	0	399507456	48	5990
2026-01-06 12:57:44.82	46.34	17.20	-37.4	-38.2	23.9	0.00e+00	58	35	0	407896064	48	5878
2026-01-06 12:57:48.86	47.07	17.49	-37.2	-38.1	24.1	0.00e+00	92	35	0	415236096	48	5763
2026-01-06 12:57:52.90	47.80	17.78	-36.8	-37.7	24.4	0.00e+00	0	35	0	422576128	48	5514
2026-01-06 12:57:56.93	48.55	18.08	-37.0	-37.8	24.3	0.00e+00	0	35	0	429916160	48	5618
2026-01-06 12:58:00.97	49.32	18.37	-36.9	-37.8	24.3	0.00e+00	45	35	0	438304768	48	5573
2026-01-06 12:58:05.01	50.09	18.66	-36.7	-37.6	24.5	0.00e+00	8	36	0	445644800	46	6109
2026-01-06 12:58:09.05	50.89	18.94	-36.7	-37.6	24.6	0.00e+00	67	36	0	452984832	46	6108
2026-01-06 12:58:13.08	51.69	19.23	-36.7	-37.6	24.5	0.00e+00	2	36	0	460324864	46	6119
2026-01-06 12:58:17.12	52.52	19.51	-36.9	-37.7	24.4	0.00e+00	92	36	0	467664896	46	6212
2026-01-06 12:58:21.15	53.35	19.79	-36.9	-37.7	24.4	0.00e+00	73	35	0	476053504	46	6207
2026-01-06 12:58:25.19	54.20	20.07	-36.9	-37.7	24.4	0.00e+00	74	36	0	483393536	46	6232
2026-01-06 12:58:29.23	55.07	20.34	-37.4	-38.3	24.0	0.00e+00	5	35	0	490733568	46	6639
2026-01-06 12:58:33.27	55.96	20.62	-37.8	-38.7	23.5	0.00e+00	92	36	0	498073600	48	6185
2026-01-06 12:58:37.30	56.85	20.88	-37.8	-38.7	23.6	0.00e+00	0	36	0	506462208	48	6186
2026-01-06 12:58:41.34	57.76	21.14	-38.3	-39.3	23.0	0.00e+00	0	36	0	513802240	48	6616
2026-01-06 12:58:45.37	58.69	21.40	-38.5	-39.5	22.9	0.00e+00	0	35	0	521142272	48	6793
2026-01-06 12:58:49.41	59.64	21.66	-37.8	-38.7	23.7	0.00e+00	92	36	0	528482304	48	6223
2026-01-06 12:58:53.45	60.59	21.90	-37.5	-38.4	23.8	0.00e+00	6	36	0	535822336	48	5968
2026-01-06 12:58:57.49	61.57	22.15	-37.7	-38.6	23.7	0.00e+00	5	36	0	544210944	48	6141
2026-01-06 12:59:01.53	62.56	22.38	-37.9	-38.8	23.6	0.00e+00	5	36	0	551550976	48	6264
2026-01-06 12:59:05.57	63.56	22.61	-37.7	-38.6	23.7	0.00e+00	92	36	0	558891008	48	6115
2026-01-06 12:59:09.61	64.58	22.83	-38.5	-39.5	23.0	0.00e+00	17	36	0	566231040	48	6775
2026-01-06 12:59:13.65	65.61	23.05	-38.7	-39.7	22.8	0.00e+00	0	35	0	573571072	50	6193
2026-01-06 12:59:17.68	66.65	23.25	-38.2	-39.2	23.2	0.00e+00	19	36	0	581959680	50	5846
2026-01-06 12:59:21.72	67.71	23.45	-38.2	-39.1	23.3	0.00e+00	92	36	0	589299712	50	5792
2026-01-06 12:59:25.76	68.78	23.64	-38.6	-39.5	23.0	0.00e+00	0	36	0	596639744	50	6079
2026-01-06 12:59:29.79	69.87	23.82	-38.3	-39.3	23.1	0.00e+00	74	36	0	603979776	50	5927
2026-01-06 12:59:33.83	70.96	24.00	-38.8	-39.8	22.6	0.00e+00	69	36	0	612368384	50	6290
2026-01-06 12:59:37.87	72.07	24.16	-39.3	-40.3	22.1	0.00e+00	25	36	0	619708416	50	6678
2026-01-06 12:59:41.90	73.19	24.31	-38.7	-39.7	22.8	0.00e+00	0	35	0	627048448	50	6228
2026-01-06 12:59:45.93	74.32	24.45	-38.8	-39.9	22.6	0.00e+00	0	36	0	634388480	50	6328
2026-01-06 12:59:49.97	75.46	24.58	-38.6	-39.6	22.9	0.00e+00	90	36	0	641728512	50	6173
2026-01-06 12:59:54.00	76.60	24.70	-38.1	-39.0	23.4	0.00e+00	7	36	0	650117120	50	5726
2026-01-06 12:59:58.04	77.76	24.81	-37.9	-38.8	23.4	0.00e+00	6	36	0	657457152	50	5623
2026-01-06 13:00:02.07	78.92	24.90	-37.9	-38.9	23.4	0.00e+00	7	35	0	664797184	50	5632
2026-01-06 13:00:06.11	80.09	24.99	-37.8	-38.7	23.6	0.00e+00	92	36	0	672137216	48	6187
2026-01-06 13:00:10.15	81.27	25.06	-38.8	-39.8	22.6	0.00e+00	0	36	0	679477248	50	6286
2026-01-06 13:00:14.18	82.45	25.12	-38.1	-39.0	23.4	0.00e+00	0	36	0	687865856	50	5750
2026-01-06 13:00:18.22	83.63	25.17	-37.7	-38.6	23.7	0.00e+00	0	36	0	695205888	48	6160
2026-01-06 13:00:22.26	84.82	25.20	-38.1	-39.0	23.4	0.00e+00	92	36	0	702545920	48	6433
2026-01-06 13:00:26.29	86.01	25.22	-37.4	-38.2	23.9	0.00e+00	0	35	0	709885952	48	5890
2026-01-06 13:00:30.33	87.20	25.23	-37.5	-38.4	23.9	7.00e-07	0	36	0	718274560	48	5968
2026-01-06 13:00:34.37	88.39	25.23	-37.9	-38.8	23.5	0.00e+00	2	36	0	725614592	48	6277
2026-01-06 13:00:38.41	89.59	25.21	-37.0	-37.8	24.3	0.00e+00	92	36	0	732954624	48	5611
2026-01-06 13:00:42.44	90.77	25.18	-38.2	-39.1	23.2	0.00e+00	0	35	0	740294656	48	6522
2026-01-06 13:00:46.47	91.96	25.14	-38.5	-39.5	23.0	0.00e+00	6	35	0	747634688	50	6063
2026-01-06 13:00:50.51	93.14	25.08	-38.1	-39.1	23.3	0.00e+00	0	36	0	756023296	50	5771
2026-01-06 13:00:54.55	94.32	25.02	-37.9	-38.9	23.5	0.00e+00	92	36	0	763363328	48	6335
2026-01-06 13:00:58.58	95.49	24.94	-38.2	-39.1	23.2	0.00e+00	0	35	0	770703360	48	6537
2026-01-06 13:01:02.61	96.66	24.85	-37.5	-38.4	23.9	0.00e+00	72	35	0	778043392	48	5978
2026-01-06 13:01:06.65	97.82	24.74	-37.9	-38.8	23.6	0.00e+00	35	36	0	786432000	48	6249
2026-01-06 13:01:10.69	98.97	24.63	-37.2	-38.0	24.1	0.00e+00	92	36	0	793772032	48	5761
2026-01-06 13:01:14.73	100.12	24.50	-37.1	-38.0	23.9	0.00e+00	6	36	0	801112064	48	5709
2026-01-06 13:01:18.76	101.25	24.36	-37.1	-37.9	24.2	0.00e+00	74	36	0	808452096	48	5693
2026-01-06 13:01:22.79	102.38	24.21	-36.5	-37.3	24.8	0.00e+00	73	35	0	815792128	46	5919
2026-01-06 13:01:26.83	103.49	24.06	-36.5	-37.3	24.7	0.00e+00	91	35	0	824180736	46	5947
2026-01-06 13:01:30.86	104.59	23.89	-36.1	-36.9	25.2	0.00e+00	2	35	0	831520768	46	5635
2026-01-06 13:01:34.90	105.68	23.71	-36.1	-36.9	25.1	0.00e+00	0	35	0	838860800	46	5690
2026-01-06 13:01:38.94	106.76	23.52	-35.7	-36.5	25.4	0.00e+00	92	36	0	846200832	44	6060
2026-01-06 13:01:42.97	107.83	23.33	-36.5	-37.3	24.7	0.00e+00	92	35	0	853540864	44	6644
2026-01-06 13:01:47.01	108.88	23.12	-35.9	-36.7	25.2	0.00e+00	0	35	0	861929472	44	6190
2026-01-06 13:01:51.05	109.92	22.91	-36.3	-37.1	24.9	0.00e+00	0	35	0	869269504	44	6496
2026-01-06 13:01:55.09	110.95	22.69	-36.9	-37.8	24.3	0.00e+00	90	35	0	876609536	46	6264
2026-01-06 13:01:59.13	111.96	22.46	-37.6	-38.5	23.7	0.00e+00	13	35	0	883949568	48	6062
2026-01-06 13:02:03.16	112.96	22.23	-37.6	-38.5	23.7	0.00e+00	0	35	0	892338176	48	6066
2026-01-06 13:02:07.20	113.94	21.98	-37.2	-38.0	24.1	0.00e+00	0	35	0	899678208	48	5739
2026-01-06 13:02:11.23	114.90	21.74	-37.0	-37.8	24.2	0.00e+00	92	36	0	907018240	48	5621
2026-01-06 13:02:15.27	115.86	21.49	-37.4	-38.3	23.9	0.00e+00	2	35	0	914358272	48	5944
2026-01-06 13:02:19.31	116.79	21.23	-37.6	-38.5	23.8	0.00e+00	2	35	0	921698304	48	6037
2026-01-06 13:02:23.34	117.71	20.97	-37.1	-38.0	24.2	0.00e+00	2	35	0	930086912	48	5702
2026-01-06 13:02:27.38	118.62	20.70	-37.3	-38.2	24.0	0.00e+00	90	35	0	937426944	48	5850
2026-01-06 13:02:31.42	119.51	20.43	-37.1	-38.0	24.1	0.00e+00	10	35	0	944766976	48	5717
2026-01-06 13:02:35.46	120.39	20.15	-37.5	-38.3	23.8	0.00e+00	5	35	0	952107008	48	5945
2026-01-06 13:02:39.50	121.25	19.87	-37.6	-38.5	23.7	0.00e+00	0	35	0	960495616	48	6038
2026-01-06 13:02:43.54	122.10	19.59	-39.0	-40.2	22.2	0.00e+00	92	35	0	967835648	50	6543
2026-01-06 13:02:47.57	122.93	19.31	-38.1	-39.1	23.2	0.00e+00	71	35	0	975175680	50	5792
2026-01-06 13:02:51.61	123.74	19.02	-38.5	-39.5	22.8	0.00e+00	15	35	0	982515712	50	6061
2026-01-06 13:02:55.65	124.54	18.73	-38.1	-39.1	23.1	0.00e+00	80	35	0	989855744	50	5782
2026-01-06 13:02:59.69	125.33	18.44	-38.1	-39.1	23.1	0.00e+00	92	35	0	998244352	48	6473
2026-01-06 13:03:03.73	126.10	18.15	-38.2	-39.1	23.1	0.00e+00	0	36	0	1005584384	48	6532
2026-01-06 13:03:07.76	126.86	17.86	-38.2	-39.1	23.0	0.00e+00	0	36	0	1012924416	48	6515
2026-01-06 13:03:11.80	127.60	17.56	-38.8	-39.8	22.4	0.00e+00	65	36	0	1020264448	50	6295
2026-01-06 13:03:15.84	128.33	17.27	-37.5	-38.4	23.7	0.00e+00	90	36	0	1028653056	48	5982
2026-01-06 13:03:19.88	129.05	16.97	-39.2	-40.3	22.0	0.00e+00	11	36	0	1035993088	50	6683
2026-01-06 13:03:23.92	129.75	16.67	-38.7	-39.8	22.5	0.00e+00	0	36	0	1043333120	50	6255
2026-01-06 13:03:27.95	130.44	16.37	-38.0	-38.9	23.3	0.00e+00	92	36	0	1050673152	50	5671
2026-01-06 13:03:31.99	131.11	16.08	-38.2	-39.2	23.0	0.00e+00	70	36	0	1058013184	50	5836
2026-01-06 13:03:36.03	131.77	15.78	-37.8	-38.7	23.5	0.00e+00	11	36	0	1066401792	48	6193
2026-01-06 13:03:40.06	132.42	15.48	-38.3	-39.2	22.9	0.00e+00	2	36	0	1073741824	48	6600
2026-01-06 13:03:44.11	133.06	15.18	-38.4	-39.4	22.8	0.00e+00	92	35	0	1081081856	48	6726
2026-01-06 13:03:48.15	133.69	14.89	-38.0	-39.0	23.0	0.00e+00	0	36	0	1088421888	48	6423
2026-01-06 13:03:52.18	134.30	14.59	-38.2	-39.1	22.9	0.00e+00	0	36	0	1096810496	48	6528
2026-01-06 13:03:56.22	134.90	14.29	-38.1	-39.1	23.1	0.00e+00	70	36	0	1104150528	48	6516
2026-01-06 13:04:00.25	135.49	14.00	-37.7	-38.6	23.4	0.00e+00	92	36	0	1111490560	48	6173
2026-01-06 13:04:04.28	136.07	13.71	-37.8	-38.7	23.3	0.00e+00	10	35	0	1118830592	48	6211
2026-01-06 13:04:08.32	136.64	13.41	-38.2	-39.2	22.9	0.00e+00	0	35	0	1126170624	48	6558
2026-01-06 13:04:12.35	137.19	13.12	-38.3	-39.2	22.8	0.00e+00	0	36	0	1134559232	48	6592
2026-01-06 13:04:16.39	137.74	12.83	-38.4	-39.4	22.7	0.00e+00	92	36	0	1141899264	48	6695
2026-01-06 13:04:20.43	138.28	12.54	-38.5	-39.5	22.6	0.00e+00	69	35	0	1149239296	48	6798
2026-01-06 13:04:24.47	138.80	12.25	-38.5	-39.5	22.5	0.00e+00	12	35	0	1156579328	48	6827
2026-01-06 13:04:28.50	139.32	11.96	-39.1	-40.2	21.8	0.00e+00	0	36	0	1164967936	50	6591
2026-01-06 13:04:32.54	139.83	11.68	-39.8	-41.1	20.7	0.00e+00	91	36	0	1172307968	52	6499
2026-01-06 13:04:36.57	140.32	11.39	-41.0	-42.5	18.9	0.00e+00	60	36	0	1179648000	54	6838
2026-01-06 13:04:40.61	140.81	11.11	-42.0	-44.0	17.3	0.00e+00	23	35	0	1186988032	56	7215
2026-01-06 13:04:44.65	141.29	10.83	-42.1	-44.1	17.2	0.00e+00	0	36	0	1194328064	56	7280
2026-01-06 13:04:48.69	141.76	10.55	-41.7	-43.5	18.0	0.00e+00	92	36	0	1202716672	56	6807
2026-01-06 13:04:52.72	142.22	10.27	-41.3	-43.0	18.8	0.00e+00	6	36	0	1210056704	56	6399
2026-01-06 13:04:56.76	142.68	9.99	-40.6	-42.1	19.7	0.00e+00	0	36	0	1217396736	54	6470
2026-01-06 13:05:00.80	143.12	9.72	-40.2	-41.6	20.1	0.00e+00	7	36	0	1224736768	54	6119
2026-01-06 13:05:04.83	143.56	9.44	-40.1	-41.4	20.3	0.00e+00	92	36	0	1232076800	54	6007
2026-01-06 13:05:08.87	143.99	9.17	-40.4	-41.8	19.9	0.00e+00	20	36	0	1240465408	54	6272
2026-01-06 13:05:12.91	144.41	8.90	-40.3	-41.6	20.2	0.00e+00	0	36	0	1247805440	54	6167
2026-01-06 13:05:16.95	144.83	8.63	-40.0	-41.3	20.5	0.00e+00	92	36	0	1255145472	54	5914
2026-01-06 13:05:20.98	145.23	8.36	-39.6	-40.7	21.0	0.00e+00	68	36	0	1262485504	52	6244
2026-01-06 13:05:25.02	145.64	8.10	-39.1	-40.2	21.6	0.00e+00	66	36	0	1270874112	52	5864
2026-01-06 13:05:29.06	146.03	7.83	-39.4	-40.5	21.3	0.00e+00	0	36	0	1278214144	52	6092
2026-01-06 13:05:33.09	146.42	7.57	-39.9	-41.1	20.7	0.00e+00	92	36	0	1285554176	52	6502
2026-01-06 13:05:37.13	146.80	7.31	-39.9	-41.1	20.7	0.00e+00	0	36	0	1292894208	52	6525
2026-01-06 13:05:41.17	147.17	7.05	-39.6	-40.8	21.0	0.00e+00	61	36	0	1300234240	52	6315
2026-01-06 13:05:45.21	147.54	6.79	-39.3	-40.5	21.3	0.00e+00	16	36	0	1308622848	52	6034
2026-01-06 13:05:49.24	147.90	6.53	-39.3	-40.5	21.3	0.00e+00	92	36	0	1315962880	52	6061
2026-01-06 13:05:53.27	148.25	6.28	-39.4	-40.6	21.1	0.00e+00	0	35	0	1323302912	52	6156
2026-01-06 13:05:57.31	148.60	6.03	-39.6	-40.8	20.9	0.00e+00	0	36	0	1330642944	52	6275
2026-01-06 13:06:01.35	148.95	5.78	-39.6	-40.8	20.9	0.00e+00	0	36	0	1337982976	52	6287
2026-01-06 13:06:05.38	149.28	5.53	-39.7	-41.0	20.8	0.00e+00	92	36	0	1346371584	52	6396
2026-01-06 13:06:09.42	149.62	5.28	-39.3	-40.5	21.1	0.00e+00	24	36	0	1353711616	52	6063
2026-01-06 13:06:13.46	149.94	5.03	-39.4	-40.6	21.0	0.00e+00	6	36	0	1361051648	52	6118
2026-01-06 13:06:17.50	150.27	4.79	-39.5	-40.8	20.8	0.00e+00	0	36	0	1368391680	52	6248
2026-01-06 13:06:21.54	150.58	4.54	-40.0	-41.3	20.2	0.00e+00	92	36	0	1376780288	52	6677
2026-01-06 13:06:25.57	150.90	4.30	-39.9	-41.2	20.2	0.00e+00	7	36	0	1384120320	52	6602
2026-01-06 13:06:29.61	151.20	4.06	-40.2	-41.6	19.8	0.00e+00	64	36	0	1391460352	52	6891
2026-01-06 13:06:33.65	151.51	3.82	-39.9	-41.3	20.0	0.00e+00	51	36	0	1398800384	52	6624
2026-01-06 13:06:37.69	151.80	3.58	-40.0	-41.3	20.0	0.00e+00	90	36	0	1406140416	52	6692
2026-01-06 13:06:41.73	152.10	3.35	-40.4	-41.9	19.3	0.00e+00	0	36	0	1414529024	52	7160
2026-01-06 13:06:45.77	152.39	3.11	-40.4	-41.9	19.2	0.00e+00	0	36	0	1421869056	54	6326
2026-01-06 13:06:49.81	152.67	2.88	-47.6	-62.7	3.6	1.51e+00	0	36	104	1425014784	60	49563
2026-01-06 13:06:53.84	152.95	2.65	-48.8	-64.0	3.6	1.51e+00	0	36	104	1425014784	60	57013
2026-01-06 13:06:57.88	153.23	2.42	-48.8	-64.0	3.6	1.51e+00	0	36	104	1425014784	60	56960
2026-01-06 13:07:01.92	153.50	2.19	-48.8	-64.0	3.6	1.51e+00	0	36	104	1425014784	60	57409
2026-01-06 13:07:05.95	153.77	1.96	-48.7	-63.9	3.6	1.51e+00	0	36	104	1425014784	60	56517
2026-01-06 13:07:09.99	154.03	1.73	-48.7	-63.9	3.6	1.51e+00	0	36	104	1425014784	60	56642
2026-01-06 13:07:14.03	154.29	1.51	-48.7	-63.9	3.6	1.51e+00	0	36	104	1425014784	60	56634
2026-01-06 13:07:18.07	154.55	1.28	-48.7	-63.9	3.6	1.51e+00	0	36	104	1425014784	60	56448
2026-01-06 13:07:22.10	154.80	1.06	-48.7	-63.9	3.6	1.51e+00	0	36	104	1425014784	60	56442
2026-01-06 13:07:26.13	155.05	0.84	-48.7	-63.9	3.6	1.51e+00	0	36	104	1425014784	60	56609
2026-01-06 13:07:30.17	155.30	0.62	-48.7	-63.9	3.6	1.51e+00	0	36	104	1425014784	60	56656
2026-01-06 13:07:34.21	155.54	0.40	-48.7	-63.9	3.6	1.51e+00	0	36	104	1425014784	60	56584
2026-01-06 13:07:38.26	155.78	0.18	-48.7	-63.9	3.6	1.51e+00	0	36	104	1425014784	60	56386
2026-01-06 13:07:42.29	156.02	-0.03	-48.7	-63.8	3.6	1.51e+00	0	36	104	1425014784	60	56304

#Closed at: 2026-01-06 13:07:44
#Recorded file [1425 MB]: D:/lorett/data/35029_260107_005318.dat