passes_logs/2026/01/06/R4.6S_Anadyr/R4.6S_Anadyr__20260106_011741_AQUA_rec.log

#Pass ID: 20260106_011741_AQUA
#Satellite: AQUA
#Configuration: AQUA
#almurnet v.1.7.20251203
#Start time: 2026-01-06 01:17:42

#Version: 2.2.20231116
#Station: R4.6S_Anadyr
#Location: 177.4865 lon 64.73178 lat
#TLE: 1 27424U 02022A   26004.96787593  .00001598  00000+0  32997-3 0  9996
#TLE: 2 27424  98.4069 331.2279 0002002  90.2377   0.6092 14.61798176259425

#Time	Az	El	Level	Level2	SNR	BER	BlckErr	Temp	State	Recorded	gain1	gain2
2026-01-06 01:17:42.46	139.95	0.08	-48.6	-63.4	3.5	1.51e+00	0	31	0	0	60	53452
2026-01-06 01:17:46.50	139.88	0.33	-48.9	-66.8	3.5	3.02e+01	0	32	104	0	60	84395
2026-01-06 01:17:50.54	139.80	0.58	-49.0	-66.9	3.5	3.02e+01	0	33	104	0	60	85244
2026-01-06 01:17:54.57	139.72	0.83	-48.6	-66.5	3.5	3.02e+01	0	33	104	0	60	81768
2026-01-06 01:17:58.62	139.63	1.09	-47.6	-65.5	3.5	3.02e+01	0	33	104	0	60	72366
2026-01-06 01:18:02.66	139.55	1.35	-47.4	-65.3	3.5	3.02e+01	0	33	104	0	60	70783
2026-01-06 01:18:06.69	139.46	1.61	-47.4	-65.2	3.5	3.02e+01	0	33	104	0	60	70331
2026-01-06 01:18:10.73	139.37	1.87	-47.4	-65.2	3.5	3.02e+01	0	33	104	0	60	70397
2026-01-06 01:18:14.77	139.28	2.14	-47.4	-64.4	3.5	3.02e+01	0	33	104	0	60	64210
2026-01-06 01:18:18.81	139.19	2.40	-47.4	-65.0	3.5	3.02e+01	0	33	104	0	60	68789
2026-01-06 01:18:22.85	139.09	2.68	-47.4	-64.9	3.5	3.02e+01	0	33	104	0	60	67388
2026-01-06 01:18:26.89	139.00	2.95	-47.4	-63.9	3.5	3.02e+01	0	33	104	0	60	60147
2026-01-06 01:18:30.93	138.90	3.23	-47.4	-65.3	3.5	3.02e+01	0	33	104	0	60	70791
2026-01-06 01:18:34.97	138.80	3.51	-45.7	-51.3	13.6	3.02e+01	0	33	0	3670016	60	14154
2026-01-06 01:18:39.01	138.69	3.79	-42.7	-45.3	19.7	3.02e+01	0	33	0	11010048	60	7112
2026-01-06 01:18:43.04	138.58	4.08	-47.1	-58.3	6.4	3.02e+01	90	33	104	14155776	60	31516
2026-01-06 01:18:47.07	138.48	4.37	-37.8	-39.3	25.4	3.02e+01	0	33	0	16777216	50	6304
2026-01-06 01:18:51.11	138.36	4.66	-37.5	-39.0	25.8	3.02e+01	0	33	0	24641536	50	6085
2026-01-06 01:18:55.15	138.25	4.96	-36.8	-38.2	26.7	3.02e+01	0	33	0	31981568	48	6223
2026-01-06 01:18:59.19	138.13	5.26	-36.9	-38.3	26.6	3.02e+01	0	33	0	39845888	48	6348
2026-01-06 01:19:03.23	138.01	5.56	-36.5	-37.9	27.1	3.02e+01	0	33	0	47185920	48	6007
2026-01-06 01:19:07.27	137.89	5.87	-36.1	-37.4	27.5	3.02e+01	0	33	0	54525952	48	5682
2026-01-06 01:19:11.30	137.76	6.18	-36.1	-37.4	27.6	3.02e+01	0	33	0	62390272	46	6391
2026-01-06 01:19:15.34	137.63	6.50	-36.2	-37.5	27.6	3.02e+01	0	33	0	69730304	46	6486
2026-01-06 01:19:19.38	137.50	6.82	-35.7	-37.0	28.1	3.02e+01	0	33	0	77594624	46	6091
2026-01-06 01:19:23.41	137.36	7.15	-35.8	-37.1	28.0	3.02e+01	0	33	0	84934656	46	6183
2026-01-06 01:19:27.45	137.22	7.48	-35.7	-37.0	28.2	3.02e+01	0	33	0	92798976	46	6088
2026-01-06 01:19:31.49	137.08	7.81	-36.2	-46.4	3.6	3.02e+01	0	33	104	99614720	46	18024
2026-01-06 01:19:35.53	136.93	8.15	-41.4	-52.3	3.6	3.02e+01	0	33	104	99614720	60	15850
2026-01-06 01:19:39.57	136.77	8.49	-39.4	-49.9	3.6	3.02e+01	0	34	104	99614720	56	15111
2026-01-06 01:19:43.61	136.62	8.84	-37.6	-47.8	4.0	3.02e+01	0	33	104	99614720	48	18941
2026-01-06 01:19:47.64	136.46	9.20	-39.0	-49.4	4.1	3.02e+01	0	33	104	99614720	54	16001
2026-01-06 01:19:51.68	136.29	9.56	-38.4	-48.8	3.6	3.02e+01	0	33	104	99614720	52	16887
2026-01-06 01:19:55.72	136.12	9.92	-41.3	-52.2	3.5	3.02e+01	0	34	104	99614720	60	15694
2026-01-06 01:19:59.76	135.94	10.29	-37.7	-48.1	3.5	3.02e+01	0	34	104	99614720	50	17313
2026-01-06 01:20:03.80	135.76	10.67	-48.2	-65.5	3.5	3.02e+01	0	34	104	99614720	60	72461
2026-01-06 01:20:07.83	135.58	11.05	-39.6	-50.1	3.5	3.02e+01	0	34	104	99614720	54	17465
2026-01-06 01:20:11.87	135.38	11.44	-41.6	-52.5	3.5	3.02e+01	0	34	104	99614720	54	22881
2026-01-06 01:20:15.91	135.18	11.84	-43.0	-54.2	3.5	3.02e+01	0	34	104	99614720	60	19694
2026-01-06 01:20:19.94	134.98	12.24	-40.7	-51.5	3.5	3.02e+01	0	33	104	99614720	54	20365
2026-01-06 01:20:23.97	134.77	12.65	-48.4	-66.1	3.5	3.02e+01	0	34	104	99614720	60	77519
2026-01-06 01:20:28.00	134.55	13.07	-36.7	-46.9	3.5	3.02e+01	0	34	104	99614720	48	17073
2026-01-06 01:20:32.03	134.33	13.50	-48.3	-65.2	3.5	3.02e+01	0	34	104	99614720	60	70140
2026-01-06 01:20:36.07	134.09	13.93	-36.6	-46.9	3.5	3.02e+01	0	34	104	99614720	48	16934
2026-01-06 01:20:40.11	133.85	14.37	-48.3	-65.3	3.5	3.02e+01	0	34	104	99614720	60	70730
2026-01-06 01:20:44.15	133.61	14.82	-40.2	-50.8	3.5	3.02e+01	0	34	104	99614720	56	16743
2026-01-06 01:20:48.19	133.35	15.28	-39.0	-49.4	3.5	3.02e+01	0	34	104	99614720	54	16092
2026-01-06 01:20:52.22	133.08	15.75	-37.8	-48.1	3.5	3.02e+01	0	34	104	99614720	50	17477
2026-01-06 01:20:56.26	132.81	16.23	-47.4	-62.0	3.5	3.02e+01	0	34	104	99614720	60	48530
2026-01-06 01:21:00.30	132.52	16.72	-39.6	-50.2	3.5	3.02e+01	0	34	104	99614720	52	19647
2026-01-06 01:21:04.33	132.22	17.21	-36.3	-46.6	3.5	3.02e+01	0	34	104	99614720	48	16356
2026-01-06 01:21:08.37	131.92	17.72	-36.9	-47.2	3.5	3.02e+01	0	34	104	99614720	50	15688
2026-01-06 01:21:12.41	131.60	18.24	-38.3	-48.6	3.5	3.02e+01	0	34	104	99614720	52	16411
2026-01-06 01:21:16.45	131.26	18.78	-48.3	-64.6	3.5	3.02e+01	0	34	104	99614720	60	65025
2026-01-06 01:21:20.48	130.92	19.32	-36.1	-46.4	3.5	3.02e+01	0	34	104	99614720	48	15965
2026-01-06 01:21:24.52	130.56	19.87	-38.4	-48.8	3.6	3.02e+01	0	34	104	99614720	48	21185
2026-01-06 01:21:28.55	130.19	20.44	-37.6	-47.9	3.5	3.02e+01	0	34	104	99614720	50	16961
2026-01-06 01:21:32.59	129.80	21.02	-46.8	-60.4	3.5	3.02e+01	0	34	104	99614720	60	40374
2026-01-06 01:21:36.63	129.40	21.62	-40.7	-51.3	3.5	3.02e+01	0	34	104	99614720	58	15921
2026-01-06 01:21:40.67	128.97	22.22	-34.8	-44.9	3.5	3.02e+01	0	34	104	99614720	44	16998
2026-01-06 01:21:44.71	128.53	22.85	-44.0	-55.4	3.5	3.02e+01	0	34	104	99614720	54	31862
2026-01-06 01:21:48.75	128.07	23.48	-35.6	-45.8	3.5	3.02e+01	0	34	104	99614720	46	16866
2026-01-06 01:21:52.79	127.59	24.14	-43.7	-55.0	3.5	3.02e+01	0	34	104	99614720	60	21709
2026-01-06 01:21:56.83	127.09	24.81	-38.1	-48.5	3.5	3.02e+01	0	34	104	99614720	50	18118
2026-01-06 01:22:00.86	126.56	25.49	-48.3	-64.5	3.5	3.02e+01	0	34	104	99614720	60	64712
2026-01-06 01:22:04.90	126.01	26.19	-40.2	-50.8	3.6	3.02e+01	0	34	104	99614720	54	18897
2026-01-06 01:22:08.94	125.43	26.91	-37.8	-48.1	3.5	3.02e+01	0	34	104	99614720	50	17426
2026-01-06 01:22:12.98	124.82	27.65	-40.3	-50.8	3.5	3.02e+01	0	34	104	99614720	56	16876
2026-01-06 01:22:17.02	124.19	28.41	-38.7	-49.2	3.5	3.02e+01	0	34	104	99614720	52	17525
2026-01-06 01:22:21.05	123.52	29.18	-48.7	-66.6	3.5	3.02e+01	0	34	104	99614720	60	82142
2026-01-06 01:22:25.09	122.81	29.97	-34.3	-44.4	3.6	3.02e+01	0	34	104	99614720	44	16130
2026-01-06 01:22:29.13	122.07	30.78	-42.2	-53.1	3.5	3.02e+01	0	34	104	99614720	60	17482
2026-01-06 01:22:33.17	121.28	31.61	-38.4	-48.7	3.5	3.02e+01	0	34	104	99614720	52	16693
2026-01-06 01:22:37.20	120.46	32.46	-44.7	-56.4	3.5	3.02e+01	0	34	104	99614720	60	25488
2026-01-06 01:22:41.24	119.58	33.33	-36.4	-46.7	3.5	3.02e+01	0	34	104	99614720	48	16595
2026-01-06 01:22:45.27	118.66	34.22	-36.7	-47.0	3.5	3.02e+01	0	34	104	99614720	50	15280
2026-01-06 01:22:49.31	117.68	35.12	-38.2	-48.7	3.5	3.02e+01	0	34	104	99614720	52	16608
2026-01-06 01:22:53.35	116.65	36.05	-39.3	-49.6	3.5	3.02e+01	0	34	104	99614720	56	14706
2026-01-06 01:22:57.38	115.55	36.99	-47.9	-63.3	3.5	3.02e+01	0	34	104	99614720	60	56531
2026-01-06 01:23:01.42	114.38	37.94	-41.4	-52.2	3.6	3.02e+01	0	34	104	99614720	56	19738
2026-01-06 01:23:05.46	113.14	38.92	-47.5	-61.8	3.6	3.02e+01	0	34	104	99614720	60	47243
2026-01-06 01:23:09.50	111.81	39.91	-38.0	-48.4	3.5	3.02e+01	0	34	104	99614720	52	16090
2026-01-06 01:23:13.53	110.41	40.90	-48.0	-64.0	3.6	3.02e+01	0	34	104	99614720	60	60844
2026-01-06 01:23:17.57	108.91	41.91	-39.2	-49.7	3.5	3.02e+01	0	34	104	99614720	54	16651
2026-01-06 01:23:21.61	107.31	42.92	-40.0	-50.4	3.5	3.02e+01	0	34	104	99614720	46	28572
2026-01-06 01:23:25.64	105.61	43.93	-39.5	-50.0	3.5	3.02e+01	0	34	104	99614720	54	17209
2026-01-06 01:23:29.68	103.79	44.94	-47.8	-62.4	3.5	3.02e+01	0	34	104	99614720	60	50641
2026-01-06 01:23:33.71	101.86	45.95	-38.9	-49.4	3.5	3.02e+01	0	34	104	99614720	54	16014
2026-01-06 01:23:37.75	99.79	46.94	-36.2	-46.4	3.5	3.02e+01	0	34	104	99614720	46	18091
2026-01-06 01:23:41.79	97.58	47.91	-48.0	-62.7	3.5	3.02e+01	0	34	104	99614720	60	52469
2026-01-06 01:23:45.82	95.24	48.86	-38.2	-48.6	3.6	3.02e+01	0	34	104	99614720	52	16458
2026-01-06 01:23:49.86	92.74	49.77	-47.3	-61.1	3.5	3.02e+01	0	34	104	99614720	60	43622
2026-01-06 01:23:53.90	90.09	50.64	-39.4	-49.7	3.5	3.02e+01	0	34	104	99614720	52	18716
2026-01-06 01:23:57.93	87.30	51.45	-48.6	-65.0	3.5	3.02e+01	0	34	104	99614720	60	68113
2026-01-06 01:24:01.97	84.34	52.21	-39.1	-49.5	3.5	3.02e+01	0	34	104	99614720	52	18198
2026-01-06 01:24:06.01	81.23	52.89	-48.8	-66.7	3.5	3.02e+01	0	34	104	99614720	60	83163
2026-01-06 01:24:10.05	77.99	53.50	-36.1	-46.3	3.5	3.02e+01	0	34	104	99614720	46	17706
2026-01-06 01:24:14.08	74.62	54.01	-37.1	-47.4	3.5	3.02e+01	0	34	104	99614720	48	18061
2026-01-06 01:24:18.12	71.13	54.42	-48.9	-66.6	3.5	3.02e+01	0	34	104	99614720	60	82410
2026-01-06 01:24:22.16	67.56	54.73	-39.8	-50.4	3.5	3.02e+01	0	34	104	99614720	54	17900
2026-01-06 01:24:26.19	63.93	54.93	-48.6	-65.4	3.5	3.02e+01	0	34	104	99614720	60	71309
2026-01-06 01:24:30.23	60.25	55.01	-37.4	-47.6	3.5	3.02e+01	0	34	104	99614720	50	16447
2026-01-06 01:24:34.27	56.57	54.97	-48.7	-65.9	3.5	3.02e+01	0	34	104	99614720	60	76000
2026-01-06 01:24:38.31	52.91	54.82	-39.5	-50.1	3.5	3.02e+01	0	34	104	99614720	54	17384
2026-01-06 01:24:42.34	49.32	54.56	-35.4	-45.8	3.6	3.02e+01	0	34	104	99614720	48	14980
2026-01-06 01:24:46.38	45.80	54.18	-40.7	-51.5	3.5	3.02e+01	0	34	104	99614720	56	18282
2026-01-06 01:24:50.42	42.38	53.71	-39.6	-50.0	3.5	3.02e+01	0	34	104	99614720	60	12160
2026-01-06 01:24:54.46	39.08	53.14	-46.1	-58.6	3.5	3.02e+01	0	34	104	99614720	60	32570
2026-01-06 01:24:58.49	35.93	52.49	-43.1	-54.3	3.5	3.02e+01	0	34	104	99614720	56	25144
2026-01-06 01:25:02.53	32.92	51.76	-37.7	-47.7	3.5	3.02e+01	0	34	104	99614720	50	16631
2026-01-06 01:25:06.57	30.06	50.97	-38.3	-48.8	3.5	3.02e+01	0	34	104	99614720	52	16726
2026-01-06 01:25:10.60	27.36	50.13	-47.8	-62.7	3.5	3.02e+01	0	34	104	99614720	60	52621
2026-01-06 01:25:14.64	24.81	49.23	-38.1	-48.4	3.5	3.02e+01	0	34	104	99614720	52	16081
2026-01-06 01:25:18.68	22.40	48.30	-48.2	-63.8	3.5	3.02e+01	0	34	104	99614720	58	66888
2026-01-06 01:25:22.71	20.15	47.34	-40.2	-50.7	3.5	3.02e+01	0	34	104	99614720	56	16538
2026-01-06 01:25:26.75	18.03	46.36	-34.5	-44.6	3.5	3.02e+01	0	34	104	99614720	44	16483
2026-01-06 01:25:30.79	16.05	45.36	-38.5	-48.7	3.5	3.02e+01	0	34	104	99614720	54	14853
2026-01-06 01:25:34.83	14.19	44.35	-37.0	-47.1	3.5	3.02e+01	0	34	104	99614720	46	19530
2026-01-06 01:25:38.86	12.45	43.35	-47.0	-60.3	3.5	3.02e+01	0	34	104	99614720	60	39742
2026-01-06 01:25:42.90	10.81	42.34	-35.6	-45.9	3.5	3.02e+01	0	34	104	99614720	46	17063
2026-01-06 01:25:46.93	9.28	41.33	-46.4	-59.0	3.5	3.02e+01	0	34	104	99614720	60	34397
2026-01-06 01:25:50.97	7.84	40.33	-42.5	-53.3	3.6	3.02e+01	0	34	104	99614720	60	17881
2026-01-06 01:25:55.01	6.49	39.35	-48.7	-65.9	3.5	3.02e+01	0	34	104	99614720	60	75974
2026-01-06 01:25:59.05	5.22	38.37	-38.3	-48.3	3.5	3.02e+01	0	34	104	99614720	52	15932
2026-01-06 01:26:03.09	4.02	37.41	-37.0	-38.6	5.2	3.02e+01	0	34	104	99614720	48	6511
2026-01-06 01:26:07.12	2.90	36.47	-38.7	-40.3	25.9	3.02e+01	0	34	0	101187584	52	6285
2026-01-06 01:26:11.16	1.84	35.54	-35.9	-37.1	28.6	3.02e+01	0	34	0	108527616	46	6173
2026-01-06 01:26:15.20	0.84	34.63	-35.8	-37.1	28.7	3.02e+01	0	34	0	116391936	46	6146
2026-01-06 01:26:19.23	359.90	33.74	-34.8	-36.0	29.4	3.02e+01	0	34	0	123731968	44	6116
2026-01-06 01:26:23.27	359.01	32.86	-34.8	-36.0	29.5	3.02e+01	0	34	0	131596288	44	6070
2026-01-06 01:26:27.31	358.17	32.01	-34.3	-35.5	29.9	3.02e+01	0	34	0	138936320	44	5763
2026-01-06 01:26:31.34	357.37	31.18	-34.1	-35.2	30.1	3.02e+01	0	34	0	146800640	44	5594
2026-01-06 01:26:35.37	356.62	30.36	-34.1	-35.3	30.1	3.02e+01	0	34	0	154140672	42	6320
2026-01-06 01:26:39.41	355.90	29.56	-34.1	-35.3	30.1	3.02e+01	0	34	0	161480704	42	6286
2026-01-06 01:26:43.45	355.22	28.79	-34.0	-35.2	30.2	3.02e+01	0	34	0	169345024	42	6217
2026-01-06 01:26:47.49	354.57	28.03	-34.4	-35.6	29.8	3.02e+01	0	34	0	176685056	42	6549
2026-01-06 01:26:51.52	353.95	27.29	-34.6	-35.8	29.6	3.02e+01	0	34	0	184549376	42	6708
2026-01-06 01:26:55.55	353.37	26.56	-34.4	-35.5	29.8	3.02e+01	0	34	0	191889408	42	6490
2026-01-06 01:26:59.59	352.81	25.86	-34.5	-35.7	29.8	3.02e+01	0	34	0	199753728	42	6629
2026-01-06 01:27:03.62	352.27	25.17	-34.8	-36.0	29.5	3.02e+01	0	34	0	207093760	42	6854
2026-01-06 01:27:07.66	351.76	24.49	-35.0	-36.2	29.2	3.02e+01	0	34	0	214433792	44	6272
2026-01-06 01:27:11.70	351.27	23.84	-34.7	-35.9	29.5	3.02e+01	0	34	0	222298112	44	6041
2026-01-06 01:27:15.74	350.81	23.19	-34.9	-36.1	29.3	3.02e+01	0	34	0	229638144	44	6199
2026-01-06 01:27:19.77	350.36	22.57	-35.0	-36.2	29.5	3.02e+01	0	34	0	237502464	44	6208
2026-01-06 01:27:23.81	349.94	21.96	-35.0	-36.2	29.4	3.02e+01	0	34	0	244842496	44	6264
2026-01-06 01:27:27.84	349.53	21.36	-35.0	-36.2	29.2	3.02e+01	0	34	0	252706816	44	6254
2026-01-06 01:27:31.87	349.13	20.78	-34.9	-36.0	29.4	3.02e+01	0	34	0	260046848	44	6129
2026-01-06 01:27:35.90	348.76	20.21	-34.7	-35.9	29.4	3.02e+01	0	34	0	267386880	44	6052
2026-01-06 01:27:39.93	348.40	19.65	-34.8	-36.0	29.4	3.02e+01	0	34	0	275251200	44	6109
2026-01-06 01:27:43.97	348.05	19.10	-34.8	-36.1	29.3	3.02e+01	0	34	0	282591232	44	6148
2026-01-06 01:27:48.01	347.71	18.57	-34.6	-35.8	29.5	3.02e+01	0	34	0	290455552	44	5962
2026-01-06 01:27:52.04	347.39	18.04	-34.8	-36.0	29.4	3.02e+01	0	34	0	297795584	44	6089
2026-01-06 01:27:56.08	347.08	17.53	-34.8	-36.0	29.4	3.02e+01	0	34	0	305659904	44	6093
2026-01-06 01:28:00.11	346.78	17.03	-34.8	-36.0	29.3	3.02e+01	0	34	0	312999936	44	6115
2026-01-06 01:28:04.15	346.49	16.54	-34.7	-35.9	29.3	3.02e+01	0	34	0	320339968	44	6041
2026-01-06 01:28:08.19	346.22	16.06	-34.5	-35.7	29.4	3.02e+01	0	34	0	328204288	44	5902
2026-01-06 01:28:12.23	345.95	15.59	-34.6	-35.8	29.4	3.02e+01	0	34	0	335544320	44	5988
2026-01-06 01:28:16.27	345.69	15.13	-34.4	-35.6	29.5	3.02e+01	0	34	0	343408640	44	5833
2026-01-06 01:28:20.31	345.44	14.67	-34.5	-35.7	29.4	3.02e+01	0	34	0	350748672	44	5900
2026-01-06 01:28:24.35	345.20	14.23	-34.6	-35.8	29.4	3.02e+01	0	34	0	358612992	44	5964
2026-01-06 01:28:28.38	344.96	13.79	-34.7	-36.0	29.3	3.02e+01	0	34	0	365953024	44	6067
2026-01-06 01:28:32.42	344.74	13.36	-35.0	-36.2	29.0	3.02e+01	0	34	0	373293056	44	6255
2026-01-06 01:28:36.46	344.52	12.94	-35.0	-36.3	28.9	3.02e+01	0	34	0	381157376	44	6289
2026-01-06 01:28:40.49	344.31	12.53	-34.9	-36.2	29.1	3.02e+01	0	34	0	388497408	44	6208
2026-01-06 01:28:44.53	344.10	12.13	-34.9	-36.1	29.2	3.02e+01	0	34	0	396361728	44	6137
2026-01-06 01:28:48.56	343.91	11.73	-34.9	-36.1	29.0	3.02e+01	0	34	0	403701760	44	6197
2026-01-06 01:28:52.60	343.71	11.34	-35.0	-36.2	28.9	3.02e+01	0	34	0	411566080	44	6260
2026-01-06 01:28:56.63	343.53	10.95	-35.2	-36.4	28.7	3.02e+01	0	34	0	418906112	44	6396
2026-01-06 01:29:00.67	343.35	10.57	-35.2	-36.5	28.7	3.02e+01	0	34	0	426246144	44	6451
2026-01-06 01:29:04.70	343.17	10.20	-35.1	-36.4	28.7	3.02e+01	0	34	0	434110464	44	6354
2026-01-06 01:29:08.74	343.00	9.83	-35.2	-36.4	28.7	3.02e+01	0	34	0	441450496	44	6393
2026-01-06 01:29:12.77	342.84	9.47	-35.4	-36.7	28.4	3.02e+01	0	34	0	449314816	44	6600
2026-01-06 01:29:16.81	342.68	9.12	-35.4	-36.7	28.5	3.02e+01	0	34	0	456654848	44	6596
2026-01-06 01:29:20.84	342.52	8.77	-35.7	-37.0	28.2	3.02e+01	0	34	0	464519168	44	6808
2026-01-06 01:29:24.88	342.37	8.42	-35.7	-36.9	28.2	3.02e+01	0	34	0	471859200	44	6800
2026-01-06 01:29:28.91	342.22	8.08	-35.9	-37.2	27.9	3.02e+01	0	34	0	479199232	44	7039
2026-01-06 01:29:32.94	342.08	7.75	-35.8	-37.1	27.9	3.02e+01	0	34	0	487063552	44	6959
2026-01-06 01:29:36.97	341.94	7.42	-36.1	-37.5	27.6	3.02e+01	0	34	0	494403584	46	6431
2026-01-06 01:29:41.00	341.80	7.09	-36.2	-37.5	27.6	3.02e+01	0	34	0	502267904	46	6471
2026-01-06 01:29:45.04	341.67	6.77	-36.2	-37.5	27.5	3.02e+01	0	34	0	509607936	46	6439
2026-01-06 01:29:49.08	341.54	6.45	-36.3	-37.6	27.2	3.02e+01	0	34	0	517472256	46	6563
2026-01-06 01:29:53.10	341.42	6.14	-36.8	-38.2	26.5	3.02e+01	0	34	0	524812288	46	6988
2026-01-06 01:29:57.14	341.30	5.83	-37.3	-38.7	25.8	3.02e+01	0	34	0	532152320	48	6630
2026-01-06 01:30:01.18	341.18	5.52	-38.6	-40.3	23.8	3.02e+01	0	34	0	540016640	50	7120
2026-01-06 01:30:05.21	341.06	5.22	-40.1	-42.3	21.2	3.02e+01	0	34	0	547356672	54	7111
2026-01-06 01:30:09.24	340.95	4.92	-41.9	-45.3	17.8	3.02e+01	0	34	0	555220992	56	8873
2026-01-06 01:30:13.28	340.84	4.63	-43.4	-48.9	13.4	3.02e+01	0	34	0	562561024	60	10671
2026-01-06 01:30:17.31	340.73	4.34	-44.0	-52.8	8.4	3.02e+01	6	34	0	570425344	60	16853
2026-01-06 01:30:21.35	340.63	4.05	-44.2	-57.7	4.6	3.02e+01	0	34	104	574619648	60	29664
2026-01-06 01:30:25.38	340.53	3.77	-44.2	-60.9	3.5	3.02e+01	0	34	104	574619648	60	42695
2026-01-06 01:30:29.41	340.43	3.49	-44.3	-60.7	3.5	3.02e+01	0	34	104	574619648	60	41880
2026-01-06 01:30:33.45	340.33	3.21	-44.3	-61.9	3.5	3.02e+01	0	34	104	574619648	60	48168
2026-01-06 01:30:37.48	340.24	2.93	-47.7	-65.6	3.5	3.02e+01	0	34	104	574619648	60	73685
2026-01-06 01:30:41.52	340.14	2.66	-48.9	-66.8	3.5	3.02e+01	0	34	104	574619648	60	84277
2026-01-06 01:30:45.56	340.05	2.39	-48.9	-66.9	3.5	3.02e+01	0	34	104	574619648	60	85020
2026-01-06 01:30:49.60	339.97	2.12	-48.8	-66.7	3.5	3.02e+01	0	34	104	574619648	60	83642
2026-01-06 01:30:53.64	339.88	1.86	-48.9	-66.8	3.5	3.02e+01	0	34	104	574619648	60	84514
2026-01-06 01:30:57.68	339.80	1.60	-48.9	-66.8	3.5	3.02e+01	0	34	104	574619648	60	83971
2026-01-06 01:31:01.72	339.71	1.34	-48.9	-66.8	3.5	3.02e+01	0	34	104	574619648	60	84127
2026-01-06 01:31:05.76	339.63	1.08	-48.9	-66.8	3.5	3.02e+01	0	34	104	574619648	60	83929
2026-01-06 01:31:09.80	339.55	0.83	-48.9	-66.7	3.5	3.02e+01	0	34	104	574619648	60	83705
2026-01-06 01:31:13.84	339.48	0.58	-48.9	-66.7	3.5	3.02e+01	0	34	104	574619648	60	83682
2026-01-06 01:31:17.88	339.40	0.33	-48.9	-66.8	3.5	3.02e+01	0	34	104	574619648	60	84295
2026-01-06 01:31:21.92	339.33	0.08	-48.9	-66.8	3.5	3.02e+01	0	34	104	574619648	60	83808

#Closed at: 2026-01-06 01:31:23
#Recorded file [574 MB]: D:/lorett/data/35029_260106_131742.dat