passes_logs/2025/01/09/PPK-1/PPK-1__20250109_002520_TY-39_rec.log

#Pass ID: 20250109_002520_TY-39
#Satellite: TY-39
#Configuration: TY-39
#almurnet v.1.7.20230919.trace
#Start time: 2025-01-09 00:25:21

#Version: 2.2.20231116
#Station: PPK-1
#Location: 158.6 lon 53.06666 lat
#TLE: 1 51832U 22019J   25007.94199359  .00004615  00000+0  23732-3 0  9991
#TLE: 2 51832  97.4109  78.3043 0007692 262.2370  97.7990 15.16914621158070

#Time	Az	El	Level	Level2	SNR	BER	BlckErr	Temp	State
2025-01-09 00:25:21.27	6.70	8.10	-67.3	-72.8	3.6	0.00e+00	0	46	0
2025-01-09 00:25:23.16	6.61	8.27	-67.3	-72.9	3.6	0.00e+00	0	46	104
2025-01-09 00:25:25.06	6.53	8.45	-67.6	-73.5	3.6	0.00e+00	0	47	104
2025-01-09 00:25:26.96	6.44	8.63	-67.5	-73.3	3.7	0.00e+00	0	47	104
2025-01-09 00:25:28.86	6.35	8.81	-67.6	-73.5	3.7	0.00e+00	0	47	104
2025-01-09 00:25:30.75	6.26	8.99	-67.6	-73.6	3.7	0.00e+00	0	47	104
2025-01-09 00:25:32.65	6.17	9.17	-67.6	-73.6	3.6	0.00e+00	0	48	104
2025-01-09 00:25:34.55	6.08	9.35	-67.6	-73.5	3.6	0.00e+00	0	48	104
2025-01-09 00:25:36.45	5.99	9.54	-67.5	-73.4	3.6	0.00e+00	0	49	104
2025-01-09 00:25:38.35	5.89	9.73	-67.5	-73.4	3.7	0.00e+00	0	48	104
2025-01-09 00:25:40.24	5.79	9.92	-67.4	-73.1	3.7	0.00e+00	0	49	104
2025-01-09 00:25:42.14	5.69	10.11	-67.3	-72.8	3.6	0.00e+00	0	49	104
2025-01-09 00:25:44.04	5.59	10.30	-67.2	-72.6	3.6	0.00e+00	0	50	104
2025-01-09 00:25:45.94	5.49	10.49	-67.2	-72.4	3.5	0.00e+00	0	50	104
2025-01-09 00:25:47.83	5.39	10.69	-67.3	-72.7	3.5	0.00e+00	0	50	104
2025-01-09 00:25:49.73	5.28	10.89	-67.4	-72.9	3.7	0.00e+00	0	50	104
2025-01-09 00:25:51.63	5.17	11.09	-67.5	-73.1	3.6	0.00e+00	0	50	104
2025-01-09 00:25:53.53	5.06	11.29	-67.5	-73.3	3.7	0.00e+00	0	51	104
2025-01-09 00:25:55.43	4.95	11.50	-67.5	-73.3	3.6	0.00e+00	0	51	104
2025-01-09 00:25:57.33	4.84	11.71	-67.4	-73.1	3.6	0.00e+00	0	51	104
2025-01-09 00:25:59.23	4.72	11.92	-67.4	-72.9	3.6	0.00e+00	0	52	104
2025-01-09 00:26:01.13	4.60	12.13	-67.4	-72.9	3.7	0.00e+00	0	52	104
2025-01-09 00:26:03.02	4.48	12.34	-67.5	-73.2	3.7	0.00e+00	0	52	104
2025-01-09 00:26:04.92	4.36	12.56	-67.7	-73.6	3.7	0.00e+00	0	52	104
2025-01-09 00:26:06.81	4.24	12.78	-67.7	-73.7	3.6	0.00e+00	0	53	104
2025-01-09 00:26:08.71	4.11	13.00	-67.8	-73.8	3.6	0.00e+00	0	53	104
2025-01-09 00:26:10.61	3.98	13.22	-67.8	-73.9	3.6	0.00e+00	0	53	104
2025-01-09 00:26:12.51	3.85	13.45	-67.7	-74.0	3.7	0.00e+00	0	53	104
2025-01-09 00:26:14.41	3.71	13.68	-67.7	-73.4	3.7	0.00e+00	0	53	104
2025-01-09 00:26:16.31	3.57	13.91	-67.7	-73.2	3.7	0.00e+00	0	54	104
2025-01-09 00:26:18.21	3.43	14.14	-67.7	-73.2	3.6	0.00e+00	0	54	104
2025-01-09 00:26:20.11	3.29	14.38	-67.8	-73.4	3.6	0.00e+00	0	54	104
2025-01-09 00:26:22.01	3.15	14.62	-54.3	-56.9	12.8	0.00e+00	0	55	104
2025-01-09 00:26:23.91	3.00	14.86	-53.7	-56.1	13.3	2.77e-05	0	55	0
2025-01-09 00:26:25.81	2.84	15.11	-53.8	-56.4	10.3	4.26e-03	0	55	0
2025-01-09 00:26:27.71	2.69	15.36	-53.4	-56.0	10.3	4.06e-03	0	56	0
2025-01-09 00:26:29.60	2.53	15.61	-52.8	-55.4	10.5	4.58e-03	0	56	0
2025-01-09 00:26:31.49	2.37	15.86	-52.7	-55.1	13.5	2.37e-03	0	56	0
2025-01-09 00:26:33.39	2.21	16.12	-53.4	-56.5	13.3	6.90e-06	0	56	0
2025-01-09 00:26:35.29	2.04	16.38	-53.3	-56.3	13.5	0.00e+00	0	57	0
2025-01-09 00:26:37.19	1.87	16.65	-53.3	-56.3	13.5	0.00e+00	0	57	0
2025-01-09 00:26:39.08	1.69	16.92	-53.5	-56.7	13.3	0.00e+00	0	57	0
2025-01-09 00:26:40.97	1.51	17.19	-53.4	-56.6	13.4	0.00e+00	0	58	0
2025-01-09 00:26:42.87	1.33	17.46	-52.7	-55.1	13.8	0.00e+00	0	58	0
2025-01-09 00:26:44.77	1.14	17.74	-52.5	-55.2	13.9	0.00e+00	0	58	0
2025-01-09 00:26:46.66	0.95	18.02	-52.2	-54.6	14.1	0.00e+00	0	58	0
2025-01-09 00:26:48.55	0.76	18.31	-52.2	-55.1	14.1	0.00e+00	0	58	0
2025-01-09 00:26:50.44	0.56	18.60	-52.4	-55.5	14.1	0.00e+00	0	58	0
2025-01-09 00:26:52.33	0.35	18.89	-52.6	-56.0	13.9	0.00e+00	0	58	0
2025-01-09 00:26:54.22	0.15	19.19	-52.9	-56.1	13.6	0.00e+00	0	59	0
2025-01-09 00:26:56.12	359.93	19.49	-52.6	-55.3	13.8	0.00e+00	0	59	0
2025-01-09 00:26:58.01	359.71	19.80	-52.3	-54.7	14.1	0.00e+00	0	59	0
2025-01-09 00:26:59.91	359.49	20.11	-51.7	-54.2	14.5	0.00e+00	0	59	0
2025-01-09 00:27:01.80	359.26	20.43	-51.5	-54.2	14.4	0.00e+00	0	59	0
2025-01-09 00:27:03.69	359.02	20.75	-51.3	-53.8	14.4	6.90e-06	0	60	0
2025-01-09 00:27:05.58	358.78	21.07	-51.6	-54.3	14.4	0.00e+00	0	60	0
2025-01-09 00:27:07.48	358.53	21.40	-51.8	-54.7	14.4	0.00e+00	0	60	0
2025-01-09 00:27:09.37	358.28	21.73	-52.0	-55.2	14.3	0.00e+00	0	60	0
2025-01-09 00:27:11.27	358.02	22.07	-51.7	-54.6	14.4	0.00e+00	0	60	0
2025-01-09 00:27:13.17	357.75	22.42	-51.2	-53.6	14.7	0.00e+00	0	61	0
2025-01-09 00:27:15.06	357.48	22.77	-50.8	-53.2	15.0	0.00e+00	0	61	0
2025-01-09 00:27:16.96	357.20	23.12	-50.5	-53.3	15.1	0.00e+00	0	61	0
2025-01-09 00:27:18.85	356.91	23.48	-50.7	-53.7	15.0	0.00e+00	0	61	0
2025-01-09 00:27:20.74	356.62	23.85	-50.7	-53.7	14.9	0.00e+00	0	61	0
2025-01-09 00:27:22.64	356.31	24.22	-50.9	-54.1	14.9	0.00e+00	0	62	0
2025-01-09 00:27:24.54	356.00	24.60	-50.5	-53.2	15.1	0.00e+00	0	62	0
2025-01-09 00:27:26.44	355.68	24.98	-50.1	-52.4	15.2	0.00e+00	0	62	0
2025-01-09 00:27:28.33	355.35	25.37	-49.8	-52.4	15.3	0.00e+00	0	62	0
2025-01-09 00:27:30.22	355.01	25.76	-49.7	-52.6	15.2	0.00e+00	0	62	0
2025-01-09 00:27:32.11	354.66	26.16	-49.7	-52.7	15.3	0.00e+00	0	62	0
2025-01-09 00:27:34.00	354.31	26.57	-49.9	-53.1	15.3	0.00e+00	0	62	0
2025-01-09 00:27:35.90	353.94	26.98	-49.5	-52.2	15.4	0.00e+00	0	62	0
2025-01-09 00:27:37.80	353.56	27.40	-49.3	-51.7	15.4	0.00e+00	0	62	0
2025-01-09 00:27:39.70	353.16	27.83	-48.0	-50.6	15.3	0.00e+00	0	62	0
2025-01-09 00:27:41.60	352.76	28.26	-48.0	-50.7	15.4	0.00e+00	0	62	0
2025-01-09 00:27:43.50	352.34	28.70	-47.9	-50.5	15.3	0.00e+00	0	63	0
2025-01-09 00:27:45.40	351.91	29.15	-48.0	-50.7	15.2	0.00e+00	0	63	0
2025-01-09 00:27:47.30	351.47	29.60	-47.7	-50.2	15.4	0.00e+00	0	63	0
2025-01-09 00:27:49.20	351.01	30.06	-47.4	-49.9	15.5	0.00e+00	0	63	0
2025-01-09 00:27:51.10	350.54	30.53	-47.3	-49.7	15.5	0.00e+00	0	63	0
2025-01-09 00:27:52.99	350.06	31.00	-47.5	-50.1	15.5	0.00e+00	0	63	0
2025-01-09 00:27:54.89	349.56	31.49	-47.4	-49.9	15.6	0.00e+00	0	64	0
2025-01-09 00:27:56.79	349.04	31.97	-47.1	-49.5	15.7	0.00e+00	0	64	0
2025-01-09 00:27:58.69	348.50	32.47	-46.8	-49.3	15.8	0.00e+00	0	64	0
2025-01-09 00:28:00.59	347.94	32.97	-46.7	-49.0	15.7	0.00e+00	0	64	0
2025-01-09 00:28:02.49	347.37	33.48	-46.8	-49.3	15.7	0.00e+00	0	64	0
2025-01-09 00:28:04.39	346.78	34.00	-46.8	-49.4	15.8	0.00e+00	0	64	0
2025-01-09 00:28:06.29	346.16	34.52	-46.7	-49.1	15.8	0.00e+00	0	64	0
2025-01-09 00:28:08.19	345.53	35.05	-46.3	-48.8	16.0	0.00e+00	0	64	0
2025-01-09 00:28:10.09	344.87	35.58	-46.2	-48.6	15.9	0.00e+00	0	64	0
2025-01-09 00:28:11.99	344.19	36.12	-46.2	-48.6	15.9	0.00e+00	0	65	0
2025-01-09 00:28:13.88	343.48	36.67	-46.1	-48.5	16.0	0.00e+00	0	65	0
2025-01-09 00:28:15.78	342.75	37.22	-45.9	-48.5	16.0	0.00e+00	0	65	0
2025-01-09 00:28:17.68	341.99	37.78	-45.8	-48.3	16.0	0.00e+00	0	65	0
2025-01-09 00:28:19.58	341.20	38.34	-45.7	-48.1	16.0	0.00e+00	0	65	0
2025-01-09 00:28:21.48	340.39	38.91	-45.7	-48.1	16.0	0.00e+00	0	65	0
2025-01-09 00:28:23.38	339.54	39.49	-45.7	-48.0	16.2	0.00e+00	0	65	0
2025-01-09 00:28:25.27	338.66	40.06	-45.4	-47.9	16.2	0.00e+00	0	65	0
2025-01-09 00:28:27.17	337.75	40.64	-45.3	-47.8	16.1	0.00e+00	0	66	0
2025-01-09 00:28:29.07	336.80	41.22	-45.3	-47.8	16.2	0.00e+00	0	66	0
2025-01-09 00:28:30.97	335.81	41.80	-45.3	-47.7	16.2	0.00e+00	0	66	0
2025-01-09 00:28:32.87	334.79	42.39	-45.1	-47.4	16.3	0.00e+00	0	66	0
2025-01-09 00:28:34.77	333.73	42.97	-45.2	-48.0	16.3	0.00e+00	0	66	0
2025-01-09 00:28:36.66	332.63	43.55	-45.2	-48.1	16.3	0.00e+00	0	66	0
2025-01-09 00:28:38.56	331.48	44.13	-45.1	-47.9	16.2	0.00e+00	0	66	0
2025-01-09 00:28:40.46	330.29	44.71	-44.9	-47.5	16.3	0.00e+00	0	66	0
2025-01-09 00:28:42.35	329.06	45.28	-44.9	-47.5	16.3	0.00e+00	0	66	0
2025-01-09 00:28:44.25	327.77	45.85	-45.0	-47.6	16.3	0.00e+00	0	66	0
2025-01-09 00:28:46.15	326.44	46.41	-44.9	-47.4	16.3	0.00e+00	0	66	0
2025-01-09 00:28:48.05	325.06	46.96	-44.8	-47.4	16.3	0.00e+00	0	66	0
2025-01-09 00:28:49.95	323.62	47.50	-44.8	-47.2	16.3	0.00e+00	0	67	0
2025-01-09 00:28:51.85	322.14	48.03	-45.3	-48.2	16.1	0.00e+00	0	67	0
2025-01-09 00:28:53.75	320.60	48.55	-44.9	-47.4	16.2	0.00e+00	0	67	0
2025-01-09 00:28:55.65	319.01	49.05	-45.2	-48.0	16.2	0.00e+00	0	67	0
2025-01-09 00:28:57.55	317.36	49.53	-45.1	-47.8	16.2	0.00e+00	0	67	0
2025-01-09 00:28:59.45	315.67	49.99	-44.9	-47.4	16.2	0.00e+00	0	67	0
2025-01-09 00:29:01.34	313.92	50.42	-45.1	-47.8	16.0	0.00e+00	0	67	0
2025-01-09 00:29:03.24	312.12	50.84	-45.5	-48.6	16.0	0.00e+00	0	67	0
2025-01-09 00:29:05.14	310.27	51.23	-45.6	-48.9	16.0	0.00e+00	0	67	0
2025-01-09 00:29:07.04	308.37	51.59	-45.9	-49.0	16.0	0.00e+00	0	67	0
2025-01-09 00:29:08.94	306.42	51.92	-46.8	-50.3	15.7	0.00e+00	0	67	0
2025-01-09 00:29:10.84	304.43	52.22	-46.4	-49.1	15.8	0.00e+00	0	67	0
2025-01-09 00:29:12.74	302.40	52.48	-46.7	-49.6	15.8	0.00e+00	0	68	0
2025-01-09 00:29:14.64	300.34	52.71	-46.3	-49.2	16.0	0.00e+00	0	68	0
2025-01-09 00:29:16.54	298.24	52.90	-46.2	-49.1	15.9	0.00e+00	0	67	0
2025-01-09 00:29:18.44	296.12	53.05	-46.1	-48.9	15.9	0.00e+00	0	68	0
2025-01-09 00:29:20.34	293.98	53.17	-46.3	-49.3	15.7	0.00e+00	0	68	0
2025-01-09 00:29:22.23	291.84	53.24	-46.0	-48.7	16.0	0.00e+00	0	68	0
2025-01-09 00:29:24.13	289.67	53.27	-46.8	-49.7	15.8	0.00e+00	0	68	0
2025-01-09 00:29:26.02	287.52	53.27	-46.8	-49.8	15.7	0.00e+00	0	68	0
2025-01-09 00:29:27.92	285.36	53.22	-46.9	-49.9	15.6	0.00e+00	0	68	0
2025-01-09 00:29:29.82	283.21	53.13	-46.3	-49.2	15.7	0.00e+00	0	68	0
2025-01-09 00:29:31.72	281.07	53.00	-46.4	-49.4	15.9	0.00e+00	0	68	0
2025-01-09 00:29:33.62	278.96	52.83	-46.1	-48.8	16.0	0.00e+00	0	68	0
2025-01-09 00:29:35.51	276.88	52.62	-46.4	-49.4	15.9	0.00e+00	0	68	0
2025-01-09 00:29:37.41	274.83	52.38	-46.2	-49.1	16.0	0.00e+00	0	68	0
2025-01-09 00:29:39.31	272.81	52.10	-47.1	-50.0	15.7	0.00e+00	0	69	0
2025-01-09 00:29:41.21	270.83	51.79	-47.1	-50.4	15.7	0.00e+00	0	68	0
2025-01-09 00:29:43.11	268.90	51.45	-46.3	-48.8	15.9	0.00e+00	0	68	0
2025-01-09 00:29:45.01	267.01	51.08	-46.0	-48.6	16.1	0.00e+00	0	68	0
2025-01-09 00:29:46.91	265.18	50.68	-45.5	-48.2	16.2	0.00e+00	0	69	0
2025-01-09 00:29:48.80	263.40	50.25	-45.4	-48.0	16.3	0.00e+00	0	69	0
2025-01-09 00:29:50.70	261.66	49.80	-45.9	-48.9	16.2	0.00e+00	0	69	0
2025-01-09 00:29:52.59	259.99	49.33	-45.9	-48.9	16.2	0.00e+00	0	69	0
2025-01-09 00:29:54.49	258.36	48.84	-45.3	-47.9	16.3	0.00e+00	0	69	0
2025-01-09 00:29:56.39	256.78	48.34	-45.3	-48.3	16.3	0.00e+00	0	69	0
2025-01-09 00:29:58.29	255.26	47.81	-45.2	-48.2	16.3	0.00e+00	0	69	0
2025-01-09 00:30:00.19	253.79	47.28	-45.4	-48.6	16.3	0.00e+00	0	69	0
2025-01-09 00:30:02.09	252.37	46.73	-45.7	-48.6	16.2	0.00e+00	0	69	0
2025-01-09 00:30:03.99	251.00	46.17	-45.7	-48.5	16.2	0.00e+00	0	69	0
2025-01-09 00:30:05.89	249.68	45.60	-45.5	-48.1	16.1	0.00e+00	0	69	0
2025-01-09 00:30:07.79	248.41	45.03	-45.5	-48.1	16.1	0.00e+00	0	69	0
2025-01-09 00:30:09.68	247.20	44.45	-45.9	-48.9	15.9	0.00e+00	0	69	0
2025-01-09 00:30:11.58	246.02	43.87	-45.7	-48.5	16.0	0.00e+00	0	69	0
2025-01-09 00:30:13.48	244.88	43.28	-45.5	-48.3	16.1	0.00e+00	0	69	0
2025-01-09 00:30:15.37	243.79	42.70	-45.5	-48.2	16.0	0.00e+00	0	69	0
2025-01-09 00:30:17.27	242.74	42.11	-45.8	-48.7	15.9	0.00e+00	0	69	0
2025-01-09 00:30:19.17	241.73	41.52	-46.0	-49.1	15.8	0.00e+00	0	69	0
2025-01-09 00:30:21.07	240.75	40.94	-45.8	-48.7	16.0	0.00e+00	0	69	0
2025-01-09 00:30:22.97	239.82	40.35	-45.7	-48.6	16.0	0.00e+00	0	70	0
2025-01-09 00:30:24.87	238.91	39.77	-46.0	-49.1	15.8	0.00e+00	0	70	0
2025-01-09 00:30:26.77	238.04	39.19	-46.5	-49.7	15.7	0.00e+00	0	70	0
2025-01-09 00:30:28.67	237.20	38.62	-46.4	-49.5	15.8	0.00e+00	0	70	0
2025-01-09 00:30:30.57	236.39	38.05	-46.7	-49.5	15.8	0.00e+00	0	70	0
2025-01-09 00:30:32.47	235.61	37.48	-46.9	-50.0	15.7	0.00e+00	0	70	0
2025-01-09 00:30:34.37	234.86	36.92	-47.1	-50.4	15.5	0.00e+00	0	70	0
2025-01-09 00:30:36.26	234.14	36.37	-46.6	-49.4	15.6	0.00e+00	0	70	0
2025-01-09 00:30:38.16	233.44	35.82	-46.4	-48.9	15.5	0.00e+00	0	70	0
2025-01-09 00:30:40.05	232.77	35.28	-46.4	-49.0	15.6	0.00e+00	0	70	0
2025-01-09 00:30:41.95	232.11	34.74	-46.9	-49.9	15.6	0.00e+00	0	70	0
2025-01-09 00:30:43.85	231.49	34.21	-47.3	-50.8	15.6	0.00e+00	0	70	0
2025-01-09 00:30:45.75	230.88	33.69	-47.2	-50.1	15.6	0.00e+00	0	70	0
2025-01-09 00:30:47.65	230.29	33.17	-47.0	-49.6	15.7	0.00e+00	0	70	0
2025-01-09 00:30:49.55	229.72	32.66	-47.1	-49.8	15.7	0.00e+00	0	70	0
2025-01-09 00:30:51.45	229.17	32.16	-47.3	-50.3	15.6	0.00e+00	0	70	0
2025-01-09 00:30:53.35	228.64	31.66	-47.4	-50.6	15.6	0.00e+00	0	70	0
2025-01-09 00:30:55.25	228.12	31.18	-47.6	-50.8	15.6	0.00e+00	0	70	0
2025-01-09 00:30:57.15	227.62	30.69	-47.5	-50.2	15.6	0.00e+00	0	71	0
2025-01-09 00:30:59.05	227.14	30.22	-47.7	-50.5	15.6	0.00e+00	0	70	0
2025-01-09 00:31:00.94	226.68	29.75	-47.8	-50.7	15.5	0.00e+00	0	70	0
2025-01-09 00:31:02.84	226.22	29.29	-48.1	-51.5	15.4	0.00e+00	0	71	0
2025-01-09 00:31:04.73	225.79	28.84	-48.0	-50.8	15.4	0.00e+00	0	71	0
2025-01-09 00:31:06.63	225.36	28.39	-47.8	-50.4	15.5	0.00e+00	0	70	0
2025-01-09 00:31:08.53	224.95	27.95	-47.9	-50.5	15.6	0.00e+00	0	71	0
2025-01-09 00:31:10.43	224.54	27.52	-48.0	-50.8	15.4	0.00e+00	0	71	0
2025-01-09 00:31:12.33	224.15	27.09	-48.3	-51.4	15.3	0.00e+00	0	71	0
2025-01-09 00:31:14.23	223.78	26.67	-48.7	-52.2	15.2	0.00e+00	0	71	0
2025-01-09 00:31:16.13	223.41	26.26	-48.9	-51.9	15.1	0.00e+00	0	71	0
2025-01-09 00:31:18.03	223.05	25.85	-48.5	-51.1	15.3	0.00e+00	0	71	0
2025-01-09 00:31:19.92	222.71	25.45	-48.5	-51.2	15.4	0.00e+00	0	71	0
2025-01-09 00:31:21.82	222.37	25.05	-48.8	-51.7	15.3	0.00e+00	0	71	0
2025-01-09 00:31:23.72	222.04	24.66	-49.4	-52.4	15.0	0.00e+00	0	71	0
2025-01-09 00:31:25.62	221.72	24.28	-49.5	-52.6	15.0	0.00e+00	0	71	0
2025-01-09 00:31:27.51	221.41	23.90	-49.5	-52.8	14.9	0.00e+00	0	71	0
2025-01-09 00:31:29.41	221.11	23.53	-49.2	-52.1	15.1	0.00e+00	0	71	0
2025-01-09 00:31:31.31	220.81	23.16	-49.1	-51.9	15.1	0.00e+00	0	71	0
2025-01-09 00:31:33.21	220.52	22.80	-49.4	-52.5	14.9	0.00e+00	0	71	0
2025-01-09 00:31:35.11	220.24	22.45	-49.4	-52.6	14.9	0.00e+00	0	71	0
2025-01-09 00:31:37.01	219.97	22.10	-50.9	-54.1	15.0	0.00e+00	0	72	0
2025-01-09 00:31:38.91	219.71	21.75	-51.2	-54.6	14.9	0.00e+00	0	71	0
2025-01-09 00:31:40.81	219.45	21.41	-51.3	-54.7	14.9	0.00e+00	0	71	0
2025-01-09 00:31:42.71	219.19	21.08	-50.9	-53.6	15.0	0.00e+00	0	71	0
2025-01-09 00:31:44.61	218.95	20.75	-50.8	-53.3	15.1	0.00e+00	0	71	0
2025-01-09 00:31:46.51	218.71	20.42	-51.0	-53.7	15.0	0.00e+00	0	71	0
2025-01-09 00:31:48.40	218.47	20.10	-51.0	-53.8	15.0	0.00e+00	0	71	0
2025-01-09 00:31:50.30	218.24	19.79	-51.3	-54.4	14.8	0.00e+00	0	71	0
2025-01-09 00:31:52.20	218.02	19.47	-51.6	-54.9	14.7	0.00e+00	0	71	0
2025-01-09 00:31:54.10	217.80	19.17	-51.6	-55.0	14.7	0.00e+00	0	71	0
2025-01-09 00:31:56.00	217.58	18.86	-51.8	-55.3	14.6	0.00e+00	0	71	0
2025-01-09 00:31:57.90	217.38	18.56	-51.5	-54.7	14.8	0.00e+00	0	72	0
2025-01-09 00:31:59.80	217.17	18.27	-68.0	-74.0	3.7	0.00e+00	0	71	104
2025-01-09 00:32:01.70	216.97	17.98	-67.9	-74.0	3.6	0.00e+00	0	71	104
2025-01-09 00:32:03.60	216.78	17.69	-68.0	-74.0	3.6	0.00e+00	0	71	104
2025-01-09 00:32:05.50	216.58	17.41	-68.0	-74.0	3.6	0.00e+00	0	71	104
2025-01-09 00:32:07.40	216.40	17.13	-67.9	-73.9	3.6	0.00e+00	0	71	104
2025-01-09 00:32:09.29	216.22	16.86	-67.9	-73.8	3.7	0.00e+00	0	71	104
2025-01-09 00:32:11.19	216.04	16.58	-67.9	-73.7	3.7	0.00e+00	0	71	104
2025-01-09 00:32:13.09	215.86	16.32	-67.9	-73.9	3.6	0.00e+00	0	71	104
2025-01-09 00:32:14.99	215.69	16.05	-67.9	-73.8	3.6	0.00e+00	0	71	104
2025-01-09 00:32:16.89	215.52	15.79	-68.0	-73.9	3.6	0.00e+00	0	71	104
2025-01-09 00:32:18.79	215.36	15.53	-68.0	-73.9	3.6	0.00e+00	0	71	104
2025-01-09 00:32:20.69	215.20	15.28	-68.0	-73.8	3.7	0.00e+00	0	71	104
2025-01-09 00:32:22.59	215.04	15.02	-68.0	-73.8	3.7	0.00e+00	0	71	104
2025-01-09 00:32:24.49	214.88	14.78	-68.0	-73.8	3.7	0.00e+00	0	71	104
2025-01-09 00:32:26.39	214.73	14.53	-68.0	-73.7	3.6	0.00e+00	0	71	104
2025-01-09 00:32:28.29	214.58	14.29	-68.0	-73.8	3.6	0.00e+00	0	71	104
2025-01-09 00:32:30.18	214.44	14.05	-68.0	-73.8	3.6	0.00e+00	0	71	104
2025-01-09 00:32:32.08	214.29	13.81	-67.9	-73.6	3.7	0.00e+00	0	71	104
2025-01-09 00:32:33.97	214.15	13.58	-67.9	-73.6	3.7	0.00e+00	0	71	104
2025-01-09 00:32:35.87	214.02	13.35	-67.9	-73.5	3.6	0.00e+00	0	71	104
2025-01-09 00:32:37.77	213.88	13.12	-67.9	-73.6	3.6	0.00e+00	0	71	104
2025-01-09 00:32:39.67	213.75	12.89	-67.8	-73.6	3.6	0.00e+00	0	71	104
2025-01-09 00:32:41.57	213.62	12.67	-67.8	-73.6	3.6	0.00e+00	0	71	104
2025-01-09 00:32:43.47	213.49	12.45	-67.9	-73.7	3.6	0.00e+00	0	71	104
2025-01-09 00:32:45.37	213.36	12.23	-67.9	-73.7	3.7	0.00e+00	0	71	104
2025-01-09 00:32:47.26	213.24	12.01	-67.8	-73.6	3.7	0.00e+00	0	71	104
2025-01-09 00:32:49.16	213.12	11.80	-67.8	-73.5	3.6	0.00e+00	0	71	104
2025-01-09 00:32:51.06	213.00	11.59	-67.8	-73.5	3.6	0.00e+00	0	71	104
2025-01-09 00:32:52.96	212.89	11.38	-67.8	-73.5	3.6	0.00e+00	0	71	104
2025-01-09 00:32:54.86	212.77	11.17	-67.7	-73.5	3.6	0.00e+00	0	71	104
2025-01-09 00:32:56.75	212.66	10.97	-67.6	-73.1	3.6	0.00e+00	0	71	104
2025-01-09 00:32:58.65	212.55	10.76	-67.6	-73.1	3.7	0.00e+00	0	71	104
2025-01-09 00:33:00.55	212.44	10.56	-67.6	-73.1	3.7	0.00e+00	0	71	104
2025-01-09 00:33:02.45	212.33	10.36	-67.7	-73.2	3.6	0.00e+00	0	71	104
2025-01-09 00:33:04.35	212.23	10.17	-67.7	-73.2	3.6	0.00e+00	0	71	104
2025-01-09 00:33:06.25	212.12	9.97	-67.7	-73.2	3.6	0.00e+00	0	71	104
2025-01-09 00:33:08.15	212.02	9.78	-67.6	-72.9	3.7	0.00e+00	0	71	104
2025-01-09 00:33:10.05	211.92	9.59	-67.6	-72.7	3.7	0.00e+00	0	71	104
2025-01-09 00:33:11.95	211.82	9.40	-67.5	-72.5	3.6	0.00e+00	0	71	104
2025-01-09 00:33:13.85	211.73	9.21	-67.5	-72.6	3.6	0.00e+00	0	71	104
2025-01-09 00:33:15.75	211.63	9.02	-67.6	-72.9	3.6	0.00e+00	0	71	104
2025-01-09 00:33:17.64	211.54	8.84	-67.6	-73.0	3.6	0.00e+00	0	71	104
2025-01-09 00:33:19.54	211.45	8.66	-67.6	-73.0	3.7	0.00e+00	0	71	104
2025-01-09 00:33:21.44	211.36	8.48	-67.6	-72.9	3.7	0.00e+00	0	71	104
2025-01-09 00:33:23.34	211.27	8.30	-67.5	-72.7	3.7	0.00e+00	0	71	104
2025-01-09 00:33:25.24	211.18	8.12	-67.5	-72.7	3.6	0.00e+00	0	71	104
2025-01-09 00:33:27.14	211.09	7.95	-67.3	-72.6	3.6	0.00e+00	0	71	104

#Closed at: 2025-01-09 00:33:27
#Recorded file [25274 MB]: D:/data/31015_250109_123158.dat