passes_logs/2025/01/09/PPK-1/PPK-1__20250109_105735_TY-41_rec.log

#Pass ID: 20250109_105735_TY-41
#Satellite: TY-41
#Configuration: TY-39
#almurnet v.1.7.20230919.trace
#Start time: 2025-01-09 10:57:34

#Version: 2.2.20231116
#Station: PPK-1
#Location: 158.6 lon 53.06666 lat
#TLE: 1 61231U 24173E   25008.85676764  .00003832  00000+0  18544-3 0  9994
#TLE: 2 61231  97.4118  85.8617 0001777  86.7136 273.4302 15.19172156 16155

#Time	Az	El	Level	Level2	SNR	BER	BlckErr	Temp	State
2025-01-09 10:57:34.85	155.13	7.94	-63.7	-69.2	3.4	0.00e+00	0	46	0
2025-01-09 10:57:36.74	155.08	8.12	-62.1	-68.1	3.3	0.00e+00	0	46	104
2025-01-09 10:57:38.64	155.02	8.30	-63.0	-68.9	3.3	0.00e+00	0	46	104
2025-01-09 10:57:40.54	154.97	8.48	-63.0	-68.2	3.7	0.00e+00	0	47	104
2025-01-09 10:57:42.44	154.92	8.67	-64.2	-69.9	3.7	0.00e+00	0	47	104
2025-01-09 10:57:44.34	154.86	8.85	-64.6	-69.9	3.5	0.00e+00	0	47	104
2025-01-09 10:57:46.23	154.81	9.04	-65.5	-70.9	3.4	0.00e+00	0	48	104
2025-01-09 10:57:48.13	154.75	9.23	-66.0	-71.4	3.5	0.00e+00	0	48	104
2025-01-09 10:57:50.03	154.69	9.42	-66.1	-71.7	3.4	0.00e+00	0	48	104
2025-01-09 10:57:51.93	154.63	9.61	-65.9	-71.3	3.7	0.00e+00	0	49	104
2025-01-09 10:57:53.83	154.57	9.81	-65.4	-70.3	3.6	0.00e+00	0	49	104
2025-01-09 10:57:55.73	154.51	10.01	-64.6	-69.5	3.5	0.00e+00	0	49	104
2025-01-09 10:57:57.63	154.45	10.21	-63.5	-69.4	3.4	0.00e+00	0	50	104
2025-01-09 10:57:59.53	154.38	10.41	-62.5	-69.0	3.4	0.00e+00	0	50	104
2025-01-09 10:58:01.43	154.32	10.61	-61.7	-68.5	3.4	0.00e+00	0	50	104
2025-01-09 10:58:03.33	154.25	10.82	-61.7	-69.2	3.7	0.00e+00	0	50	104
2025-01-09 10:58:05.23	154.19	11.03	-62.1	-69.6	3.7	0.00e+00	0	51	104
2025-01-09 10:58:07.12	154.12	11.24	-62.8	-69.8	3.5	0.00e+00	0	51	104
2025-01-09 10:58:09.02	154.05	11.45	-63.7	-70.0	3.5	0.00e+00	0	51	104
2025-01-09 10:58:10.91	153.98	11.66	-64.4	-70.3	3.4	0.00e+00	0	52	104
2025-01-09 10:58:12.81	153.91	11.88	-55.4	-58.2	10.0	4.97e-03	0	52	0
2025-01-09 10:58:14.70	153.83	12.10	-54.9	-58.2	10.3	1.88e-03	0	53	0
2025-01-09 10:58:16.60	153.76	12.32	-56.4	-59.4	8.9	3.21e-02	0	53	0
2025-01-09 10:58:18.49	153.68	12.55	-53.5	-56.4	11.1	1.14e-03	0	53	0
2025-01-09 10:58:20.39	153.60	12.78	-53.1	-55.5	11.8	4.30e-04	0	54	0
2025-01-09 10:58:22.29	153.53	13.01	-52.5	-55.3	12.8	6.90e-06	0	54	0
2025-01-09 10:58:24.18	153.44	13.24	-52.4	-55.2	13.2	0.00e+00	0	54	0
2025-01-09 10:58:26.08	153.36	13.48	-52.3	-54.9	13.4	1.38e-05	0	55	0
2025-01-09 10:58:27.97	153.28	13.72	-52.3	-54.8	13.3	0.00e+00	0	55	0
2025-01-09 10:58:29.86	153.19	13.96	-52.3	-54.8	13.5	0.00e+00	0	55	0
2025-01-09 10:58:31.75	153.10	14.20	-52.3	-54.7	13.7	0.00e+00	0	55	0
2025-01-09 10:58:33.65	153.01	14.45	-52.2	-54.5	13.9	0.00e+00	0	55	0
2025-01-09 10:58:35.55	152.92	14.71	-52.1	-54.4	13.8	0.00e+00	0	55	0
2025-01-09 10:58:37.44	152.83	14.96	-52.0	-54.6	13.7	0.00e+00	0	56	0
2025-01-09 10:58:39.33	152.73	15.22	-51.9	-54.5	13.6	0.00e+00	0	56	0
2025-01-09 10:58:41.22	152.64	15.48	-51.7	-54.1	13.7	0.00e+00	0	56	0
2025-01-09 10:58:43.12	152.54	15.75	-51.7	-54.1	13.8	0.00e+00	0	57	0
2025-01-09 10:58:45.02	152.43	16.02	-51.6	-54.0	13.6	0.00e+00	0	57	0
2025-01-09 10:58:46.92	152.33	16.29	-51.5	-54.1	13.7	0.00e+00	0	57	0
2025-01-09 10:58:48.81	152.22	16.57	-51.4	-54.1	13.7	0.00e+00	0	57	0
2025-01-09 10:58:50.70	152.11	16.85	-51.4	-54.1	13.5	0.00e+00	0	58	0
2025-01-09 10:58:52.60	152.00	17.14	-51.4	-54.0	14.0	0.00e+00	0	58	0
2025-01-09 10:58:54.49	151.89	17.43	-51.2	-53.7	14.3	0.00e+00	0	58	0
2025-01-09 10:58:56.39	151.77	17.72	-51.2	-53.6	14.6	0.00e+00	0	58	0
2025-01-09 10:58:58.29	151.65	18.02	-51.1	-53.4	15.0	0.00e+00	0	58	0
2025-01-09 10:59:00.18	151.53	18.32	-51.1	-53.3	15.2	0.00e+00	0	58	0
2025-01-09 10:59:02.07	151.40	18.63	-51.0	-53.7	15.1	0.00e+00	0	59	0
2025-01-09 10:59:03.97	151.27	18.94	-51.0	-53.6	15.1	0.00e+00	0	59	0
2025-01-09 10:59:05.87	151.14	19.26	-50.9	-53.6	15.2	0.00e+00	0	59	0
2025-01-09 10:59:07.77	151.01	19.58	-50.9	-53.4	15.2	0.00e+00	0	59	0
2025-01-09 10:59:09.67	150.87	19.91	-50.8	-53.2	15.1	0.00e+00	0	60	0
2025-01-09 10:59:11.57	150.72	20.25	-50.7	-53.0	15.2	0.00e+00	0	60	0
2025-01-09 10:59:13.46	150.58	20.58	-50.6	-53.3	15.3	0.00e+00	0	60	0
2025-01-09 10:59:15.36	150.43	20.93	-50.5	-53.1	15.1	0.00e+00	0	60	0
2025-01-09 10:59:17.25	150.27	21.28	-50.3	-52.9	15.1	0.00e+00	0	60	0
2025-01-09 10:59:19.15	150.12	21.64	-50.3	-52.7	15.1	0.00e+00	0	61	0
2025-01-09 10:59:21.05	149.95	22.00	-50.3	-52.7	15.1	0.00e+00	0	61	0
2025-01-09 10:59:22.95	149.79	22.37	-50.2	-52.5	15.4	0.00e+00	0	61	0
2025-01-09 10:59:24.85	149.61	22.74	-50.0	-52.7	15.4	0.00e+00	0	61	0
2025-01-09 10:59:26.75	149.44	23.13	-49.9	-52.5	15.2	0.00e+00	0	61	0
2025-01-09 10:59:28.65	149.25	23.51	-49.8	-52.2	15.2	0.00e+00	0	61	0
2025-01-09 10:59:30.55	149.07	23.91	-49.7	-52.1	15.4	0.00e+00	0	61	0
2025-01-09 10:59:32.45	148.87	24.31	-49.7	-52.1	15.7	0.00e+00	0	61	0
2025-01-09 10:59:34.34	148.68	24.72	-49.7	-52.1	15.8	0.00e+00	0	62	0
2025-01-09 10:59:36.24	148.47	25.14	-49.7	-52.1	15.8	0.00e+00	0	62	0
2025-01-09 10:59:38.14	148.26	25.57	-49.5	-52.1	15.9	0.00e+00	0	62	0
2025-01-09 10:59:40.03	148.04	26.00	-49.4	-51.9	15.8	0.00e+00	0	62	0
2025-01-09 10:59:41.93	147.82	26.44	-49.3	-51.8	15.9	0.00e+00	0	62	0
2025-01-09 10:59:43.83	147.59	26.89	-49.3	-51.7	15.9	0.00e+00	0	62	0
2025-01-09 10:59:45.73	147.35	27.35	-49.1	-51.3	15.9	0.00e+00	0	62	0
2025-01-09 10:59:47.63	147.10	27.82	-47.8	-50.3	15.7	0.00e+00	0	62	0
2025-01-09 10:59:49.53	146.85	28.29	-47.8	-50.3	15.8	0.00e+00	0	62	0
2025-01-09 10:59:51.43	146.58	28.78	-47.8	-50.2	15.8	0.00e+00	0	63	0
2025-01-09 10:59:53.33	146.31	29.28	-47.9	-50.3	15.8	0.00e+00	0	63	0
2025-01-09 10:59:55.23	146.03	29.78	-47.7	-50.1	15.8	0.00e+00	0	63	0
2025-01-09 10:59:57.13	145.74	30.30	-47.5	-50.2	15.8	0.00e+00	0	63	0
2025-01-09 10:59:59.03	145.43	30.83	-47.5	-50.2	16.0	0.00e+00	0	63	0
2025-01-09 11:00:00.92	145.12	31.36	-47.5	-50.0	16.0	0.00e+00	0	63	0
2025-01-09 11:00:02.82	144.80	31.91	-47.4	-49.9	16.1	0.00e+00	0	64	0
2025-01-09 11:00:04.72	144.46	32.47	-47.3	-49.8	16.0	0.00e+00	0	63	0
2025-01-09 11:00:06.62	144.11	33.04	-47.4	-49.9	15.8	0.00e+00	0	64	0
2025-01-09 11:00:08.52	143.74	33.62	-47.3	-49.8	15.9	0.00e+00	0	64	0
2025-01-09 11:00:10.42	143.36	34.21	-47.5	-50.2	15.7	0.00e+00	0	64	0
2025-01-09 11:00:12.32	142.97	34.81	-47.6	-50.3	15.8	0.00e+00	0	64	0
2025-01-09 11:00:14.22	142.56	35.43	-47.4	-50.0	16.0	0.00e+00	0	64	0
2025-01-09 11:00:16.12	142.13	36.06	-47.7	-50.5	16.0	0.00e+00	0	64	0
2025-01-09 11:00:18.02	141.69	36.70	-47.5	-50.2	16.0	0.00e+00	0	64	0
2025-01-09 11:00:19.92	141.22	37.36	-48.2	-51.5	15.7	0.00e+00	0	64	0
2025-01-09 11:00:21.81	140.74	38.02	-51.5	-54.7	14.8	0.00e+00	0	65	0
2025-01-09 11:00:23.71	140.23	38.70	-51.4	-54.5	15.0	0.00e+00	0	65	0
2025-01-09 11:00:25.61	139.70	39.40	-51.8	-55.2	14.9	0.00e+00	0	65	0
2025-01-09 11:00:27.51	139.15	40.11	-52.3	-55.7	14.5	0.00e+00	0	65	0
2025-01-09 11:00:29.41	138.56	40.83	-51.6	-53.8	14.8	0.00e+00	0	65	0
2025-01-09 11:00:31.31	137.95	41.56	-51.5	-54.3	14.6	0.00e+00	0	65	0
2025-01-09 11:00:33.21	137.32	42.31	-52.0	-55.1	14.4	0.00e+00	0	65	0
2025-01-09 11:00:35.11	136.64	43.07	-52.1	-54.9	14.4	0.00e+00	0	66	0
2025-01-09 11:00:37.01	135.94	43.84	-52.0	-54.8	14.7	0.00e+00	0	66	0
2025-01-09 11:00:38.91	135.19	44.63	-52.9	-56.0	14.3	0.00e+00	0	66	0
2025-01-09 11:00:40.81	134.41	45.43	-53.3	-56.4	14.0	0.00e+00	0	66	0
2025-01-09 11:00:42.70	133.59	46.23	-52.3	-54.8	14.4	0.00e+00	0	66	0
2025-01-09 11:00:44.60	132.72	47.05	-52.8	-55.7	14.2	0.00e+00	0	66	0
2025-01-09 11:00:46.49	131.81	47.88	-53.3	-56.2	13.9	6.90e-06	0	66	0
2025-01-09 11:00:48.39	130.84	48.72	-52.6	-55.0	14.2	0.00e+00	0	66	0
2025-01-09 11:00:50.29	129.81	49.57	-53.0	-55.7	13.9	0.00e+00	0	66	0
2025-01-09 11:00:52.19	128.72	50.43	-53.0	-55.6	14.1	0.00e+00	0	66	0
2025-01-09 11:00:54.09	127.56	51.29	-52.8	-55.3	14.3	0.00e+00	0	66	0
2025-01-09 11:00:55.99	126.34	52.16	-53.3	-56.3	13.9	0.00e+00	0	67	0
2025-01-09 11:00:57.89	125.04	53.03	-53.5	-56.2	13.8	0.00e+00	0	67	0
2025-01-09 11:00:59.79	123.65	53.91	-53.2	-55.6	14.0	0.00e+00	0	67	0
2025-01-09 11:01:01.68	122.19	54.77	-53.8	-56.9	13.4	0.00e+00	0	67	0
2025-01-09 11:01:03.58	120.63	55.64	-53.6	-56.3	13.7	0.00e+00	0	67	0
2025-01-09 11:01:05.48	118.96	56.50	-53.7	-56.6	13.7	0.00e+00	0	67	0
2025-01-09 11:01:07.38	117.18	57.35	-54.0	-57.2	13.6	0.00e+00	0	67	0
2025-01-09 11:01:09.27	115.30	58.18	-53.7	-56.7	13.1	0.00e+00	0	67	0
2025-01-09 11:01:11.17	113.29	59.00	-53.9	-57.0	13.5	1.38e-05	0	67	0
2025-01-09 11:01:13.07	111.15	59.79	-54.3	-57.7	13.2	6.90e-06	0	67	0
2025-01-09 11:01:14.97	108.87	60.56	-54.1	-56.9	13.7	0.00e+00	0	67	0
2025-01-09 11:01:16.87	106.46	61.30	-54.2	-57.2	13.5	0.00e+00	0	67	0
2025-01-09 11:01:18.77	103.89	61.99	-54.5	-57.6	13.4	0.00e+00	0	68	0
2025-01-09 11:01:20.67	101.18	62.64	-54.6	-57.9	13.2	1.38e-05	0	68	0
2025-01-09 11:01:22.57	98.33	63.25	-55.0	-58.2	13.2	0.00e+00	0	68	0
2025-01-09 11:01:24.47	95.33	63.79	-55.0	-58.2	13.0	1.38e-05	0	68	0
2025-01-09 11:01:26.37	92.20	64.27	-55.0	-58.3	13.0	2.08e-05	0	68	0
2025-01-09 11:01:28.27	88.94	64.69	-55.4	-58.5	12.8	6.90e-06	0	68	0
2025-01-09 11:01:30.16	85.58	65.03	-55.1	-57.9	13.0	6.90e-06	0	68	0
2025-01-09 11:01:32.06	82.12	65.29	-55.0	-57.8	12.9	4.85e-05	0	68	0
2025-01-09 11:01:33.96	78.59	65.47	-54.8	-57.3	12.4	6.90e-06	0	68	0
2025-01-09 11:01:35.86	75.01	65.57	-54.4	-57.1	13.2	6.90e-06	0	68	0
2025-01-09 11:01:37.76	71.41	65.58	-53.5	-56.2	13.5	6.90e-06	0	68	0
2025-01-09 11:01:39.66	67.83	65.50	-53.1	-55.4	14.1	0.00e+00	0	68	0
2025-01-09 11:01:41.56	64.28	65.34	-52.2	-54.6	14.5	0.00e+00	0	69	0
2025-01-09 11:01:43.46	60.80	65.10	-51.2	-53.5	15.0	0.00e+00	0	69	0
2025-01-09 11:01:45.36	57.41	64.78	-50.4	-53.0	15.4	0.00e+00	0	69	0
2025-01-09 11:01:47.26	54.12	64.38	-49.9	-52.5	15.5	0.00e+00	0	69	0
2025-01-09 11:01:49.16	50.96	63.91	-49.4	-52.0	15.9	0.00e+00	0	69	0
2025-01-09 11:01:51.05	47.95	63.38	-48.1	-50.8	15.7	0.00e+00	0	69	0
2025-01-09 11:01:52.95	45.07	62.80	-48.4	-51.4	15.6	0.00e+00	0	69	0
2025-01-09 11:01:54.85	42.33	62.16	-48.0	-50.6	15.7	0.00e+00	0	69	0
2025-01-09 11:01:56.75	39.73	61.47	-47.4	-50.0	15.9	0.00e+00	0	69	0
2025-01-09 11:01:58.65	37.29	60.75	-47.0	-49.6	16.1	0.00e+00	0	69	0
2025-01-09 11:02:00.55	34.98	59.99	-47.0	-49.6	16.1	0.00e+00	0	69	0
2025-01-09 11:02:02.45	32.81	59.20	-46.9	-49.5	16.3	0.00e+00	0	69	0
2025-01-09 11:02:04.35	30.77	58.39	-46.1	-48.3	16.5	0.00e+00	0	69	0
2025-01-09 11:02:06.25	28.86	57.56	-46.1	-48.9	16.4	0.00e+00	0	69	0
2025-01-09 11:02:08.15	27.06	56.72	-46.2	-49.0	16.2	0.00e+00	0	69	0
2025-01-09 11:02:10.05	25.37	55.86	-45.2	-47.5	16.7	0.00e+00	0	69	0
2025-01-09 11:02:11.94	23.79	55.01	-45.2	-47.6	16.6	0.00e+00	0	70	0
2025-01-09 11:02:13.84	22.30	54.14	-45.3	-47.7	16.7	0.00e+00	0	69	0
2025-01-09 11:02:15.73	20.91	53.27	-45.0	-47.7	16.8	0.00e+00	0	69	0
2025-01-09 11:02:17.63	19.59	52.40	-45.2	-48.0	16.6	0.00e+00	0	70	0
2025-01-09 11:02:19.53	18.35	51.54	-45.2	-48.1	16.7	0.00e+00	0	70	0
2025-01-09 11:02:21.43	17.18	50.68	-45.2	-48.1	16.7	0.00e+00	0	70	0
2025-01-09 11:02:23.33	16.08	49.82	-45.4	-48.4	16.6	0.00e+00	0	70	0
2025-01-09 11:02:25.23	15.04	48.97	-45.3	-48.3	16.7	0.00e+00	0	70	0
2025-01-09 11:02:27.13	14.05	48.13	-45.4	-48.4	16.6	0.00e+00	0	70	0
2025-01-09 11:02:29.02	13.13	47.31	-45.6	-48.9	16.6	0.00e+00	0	70	0
2025-01-09 11:02:30.92	12.25	46.49	-45.4	-48.5	16.6	0.00e+00	0	70	0
2025-01-09 11:02:32.82	11.42	45.68	-45.6	-48.8	16.6	0.00e+00	0	70	0
2025-01-09 11:02:34.72	10.63	44.88	-45.8	-48.6	16.5	0.00e+00	0	70	0
2025-01-09 11:02:36.62	9.88	44.09	-45.6	-48.3	16.6	0.00e+00	0	70	0
2025-01-09 11:02:38.51	9.17	43.32	-45.5	-48.2	16.6	0.00e+00	0	70	0
2025-01-09 11:02:40.41	8.49	42.56	-45.7	-48.6	16.6	0.00e+00	0	70	0
2025-01-09 11:02:42.31	7.84	41.82	-45.7	-48.5	16.5	0.00e+00	0	70	0
2025-01-09 11:02:44.21	7.23	41.08	-45.7	-48.6	16.5	0.00e+00	0	70	0
2025-01-09 11:02:46.11	6.64	40.36	-45.9	-48.9	16.5	0.00e+00	0	70	0
2025-01-09 11:02:48.01	6.08	39.65	-45.9	-49.0	16.5	0.00e+00	0	70	0
2025-01-09 11:02:49.91	5.54	38.96	-45.8	-48.8	16.5	0.00e+00	0	70	0
2025-01-09 11:02:51.81	5.03	38.28	-46.0	-49.0	16.5	0.00e+00	0	70	0
2025-01-09 11:02:53.71	4.54	37.61	-46.1	-49.4	16.4	0.00e+00	0	70	0
2025-01-09 11:02:55.61	4.07	36.96	-46.1	-49.3	16.4	0.00e+00	0	71	0
2025-01-09 11:02:57.51	3.62	36.31	-46.1	-49.3	16.5	0.00e+00	0	70	0
2025-01-09 11:02:59.40	3.20	35.69	-46.2	-49.5	16.5	0.00e+00	0	71	0
2025-01-09 11:03:01.30	2.78	35.07	-46.4	-49.4	16.3	0.00e+00	0	70	0
2025-01-09 11:03:03.20	2.39	34.46	-46.4	-49.4	16.3	0.00e+00	0	70	0
2025-01-09 11:03:05.10	2.00	33.87	-46.5	-49.6	16.3	0.00e+00	0	71	0
2025-01-09 11:03:07.00	1.64	33.29	-46.5	-49.7	16.3	0.00e+00	0	71	0
2025-01-09 11:03:08.90	1.28	32.72	-46.7	-49.9	16.2	0.00e+00	0	71	0
2025-01-09 11:03:10.80	0.94	32.16	-46.7	-50.0	16.3	0.00e+00	0	71	0
2025-01-09 11:03:12.70	0.62	31.61	-46.8	-50.2	16.1	0.00e+00	0	71	0
2025-01-09 11:03:14.60	0.30	31.07	-46.9	-50.0	15.9	0.00e+00	0	71	0
2025-01-09 11:03:16.50	360.00	30.55	-47.0	-50.1	16.0	0.00e+00	0	71	0
2025-01-09 11:03:18.40	359.70	30.03	-47.1	-50.4	16.0	0.00e+00	0	71	0
2025-01-09 11:03:20.29	359.42	29.53	-47.2	-50.5	16.1	0.00e+00	0	71	0
2025-01-09 11:03:22.19	359.15	29.03	-47.4	-50.4	16.0	0.00e+00	0	71	0
2025-01-09 11:03:24.08	358.88	28.54	-47.5	-50.6	15.8	0.00e+00	0	71	0
2025-01-09 11:03:25.98	358.63	28.07	-47.5	-50.7	15.7	0.00e+00	0	71	0
2025-01-09 11:03:27.88	358.38	27.60	-47.6	-50.9	15.8	0.00e+00	0	71	0
2025-01-09 11:03:29.78	358.14	27.14	-47.7	-51.1	16.0	0.00e+00	0	71	0
2025-01-09 11:03:31.68	357.91	26.69	-47.9	-51.0	16.0	0.00e+00	0	71	0
2025-01-09 11:03:33.58	357.68	26.25	-67.9	-73.7	3.7	0.00e+00	0	71	104
2025-01-09 11:03:35.48	357.46	25.81	-67.8	-73.3	3.6	0.00e+00	0	71	104
2025-01-09 11:03:37.38	357.25	25.39	-67.5	-72.7	3.6	0.00e+00	0	71	104
2025-01-09 11:03:39.27	357.05	24.97	-67.6	-73.1	3.6	0.00e+00	0	71	104
2025-01-09 11:03:41.17	356.85	24.56	-67.7	-73.4	3.7	0.00e+00	0	71	104
2025-01-09 11:03:43.07	356.66	24.15	-68.1	-74.0	3.7	0.00e+00	0	71	104
2025-01-09 11:03:44.97	356.47	23.76	-67.9	-73.6	3.6	0.00e+00	0	71	104
2025-01-09 11:03:46.86	356.29	23.37	-67.7	-73.1	3.6	0.00e+00	0	71	104
2025-01-09 11:03:48.76	356.11	22.99	-67.7	-73.1	3.6	0.00e+00	0	71	104
2025-01-09 11:03:50.66	355.94	22.61	-67.8	-73.5	3.6	0.00e+00	0	71	104
2025-01-09 11:03:52.56	355.77	22.24	-67.8	-73.6	3.7	0.00e+00	0	71	104
2025-01-09 11:03:54.46	355.61	21.88	-68.0	-73.8	3.7	0.00e+00	0	71	104
2025-01-09 11:03:56.35	355.45	21.52	-67.9	-73.6	3.7	0.00e+00	0	71	104
2025-01-09 11:03:58.25	355.30	21.17	-67.6	-73.2	3.6	0.00e+00	0	71	104
2025-01-09 11:04:00.15	355.15	20.83	-67.4	-73.1	3.6	0.00e+00	0	71	104
2025-01-09 11:04:02.05	355.00	20.49	-67.3	-73.1	3.6	0.00e+00	0	71	104
2025-01-09 11:04:03.95	354.86	20.15	-67.5	-73.3	3.6	0.00e+00	0	71	104
2025-01-09 11:04:05.85	354.72	19.82	-67.6	-73.4	3.7	0.00e+00	0	71	104
2025-01-09 11:04:07.75	354.58	19.50	-67.7	-73.4	3.7	0.00e+00	0	71	104
2025-01-09 11:04:09.64	354.45	19.18	-67.4	-72.9	3.6	0.00e+00	0	71	104
2025-01-09 11:04:11.54	354.32	18.87	-67.2	-72.5	3.6	0.00e+00	0	71	104
2025-01-09 11:04:13.44	354.20	18.56	-67.1	-72.8	3.6	0.00e+00	0	71	104
2025-01-09 11:04:15.34	354.07	18.26	-67.1	-72.8	3.6	0.00e+00	0	71	104
2025-01-09 11:04:17.24	353.96	17.96	-67.2	-73.0	3.7	0.00e+00	0	71	104
2025-01-09 11:04:19.14	353.84	17.66	-67.4	-73.4	3.7	0.00e+00	0	71	104
2025-01-09 11:04:21.04	353.72	17.37	-67.5	-73.5	3.6	0.00e+00	0	71	104
2025-01-09 11:04:22.94	353.61	17.08	-67.7	-73.8	3.6	0.00e+00	0	71	104
2025-01-09 11:04:24.84	353.50	16.80	-67.8	-73.3	3.6	0.00e+00	0	71	104
2025-01-09 11:04:26.74	353.40	16.52	-67.7	-73.2	3.6	0.00e+00	0	71	104
2025-01-09 11:04:28.64	353.29	16.25	-67.4	-72.8	3.7	0.00e+00	0	71	104
2025-01-09 11:04:30.54	353.19	15.98	-67.2	-72.7	3.7	0.00e+00	0	71	104
2025-01-09 11:04:32.43	353.09	15.71	-67.4	-72.8	3.7	0.00e+00	0	71	104
2025-01-09 11:04:34.33	353.00	15.45	-67.5	-72.9	3.6	0.00e+00	0	71	104
2025-01-09 11:04:36.23	352.90	15.19	-67.6	-72.8	3.6	0.00e+00	0	71	104
2025-01-09 11:04:38.13	352.81	14.93	-67.5	-72.7	3.6	0.00e+00	0	71	104
2025-01-09 11:04:40.03	352.72	14.68	-67.4	-72.5	3.7	0.00e+00	0	71	104
2025-01-09 11:04:41.93	352.63	14.43	-67.3	-72.6	3.7	0.00e+00	0	71	104
2025-01-09 11:04:43.83	352.54	14.19	-67.3	-72.7	3.7	0.00e+00	0	71	104
2025-01-09 11:04:45.73	352.46	13.94	-67.3	-72.8	3.6	0.00e+00	0	71	104
2025-01-09 11:04:47.63	352.37	13.70	-67.4	-72.9	3.6	0.00e+00	0	71	104
2025-01-09 11:04:49.52	352.29	13.47	-67.5	-73.0	3.6	0.00e+00	0	71	104
2025-01-09 11:04:51.42	352.21	13.23	-67.6	-73.2	3.7	0.00e+00	0	71	104
2025-01-09 11:04:53.32	352.13	13.00	-67.6	-73.1	3.7	0.00e+00	0	71	104
2025-01-09 11:04:55.21	352.06	12.77	-67.6	-73.0	3.7	0.00e+00	0	71	104
2025-01-09 11:04:57.11	351.98	12.55	-67.6	-73.0	3.6	0.00e+00	0	71	104
2025-01-09 11:04:59.01	351.91	12.32	-67.6	-73.0	3.6	0.00e+00	0	71	104
2025-01-09 11:05:00.91	351.83	12.10	-67.7	-73.2	3.6	0.00e+00	0	71	104
2025-01-09 11:05:02.81	351.76	11.89	-67.7	-73.1	3.7	0.00e+00	0	71	104
2025-01-09 11:05:04.71	351.69	11.67	-67.6	-73.1	3.7	0.00e+00	0	71	104
2025-01-09 11:05:06.60	351.62	11.46	-67.6	-73.1	3.7	0.00e+00	0	71	104
2025-01-09 11:05:08.50	351.56	11.25	-67.7	-73.3	3.6	0.00e+00	0	71	104
2025-01-09 11:05:10.40	351.49	11.04	-67.7	-73.3	3.6	0.00e+00	0	71	104
2025-01-09 11:05:12.30	351.43	10.83	-67.7	-73.3	3.6	0.00e+00	0	71	104
2025-01-09 11:05:14.20	351.36	10.63	-67.7	-73.3	3.7	0.00e+00	0	71	104
2025-01-09 11:05:16.10	351.30	10.43	-67.7	-73.3	3.7	0.00e+00	0	71	104
2025-01-09 11:05:17.99	351.24	10.23	-67.7	-73.2	3.6	0.00e+00	0	71	104
2025-01-09 11:05:19.89	351.18	10.03	-67.6	-73.0	3.6	0.00e+00	0	71	104
2025-01-09 11:05:21.79	351.12	9.84	-67.4	-72.8	3.6	0.00e+00	0	71	104
2025-01-09 11:05:23.68	351.07	9.64	-67.3	-72.7	3.6	0.00e+00	0	71	104
2025-01-09 11:05:25.58	351.01	9.45	-67.3	-72.6	3.7	0.00e+00	0	71	104
2025-01-09 11:05:27.48	350.95	9.26	-67.3	-72.6	3.7	0.00e+00	0	71	104
2025-01-09 11:05:29.38	350.90	9.08	-67.3	-72.5	3.7	0.00e+00	0	71	104
2025-01-09 11:05:31.28	350.85	8.89	-67.2	-72.3	3.6	0.00e+00	0	71	104
2025-01-09 11:05:33.18	350.79	8.71	-67.2	-72.3	3.6	0.00e+00	0	71	104
2025-01-09 11:05:35.08	350.74	8.52	-67.2	-72.3	3.6	0.00e+00	0	71	104
2025-01-09 11:05:36.98	350.69	8.34	-67.2	-72.3	3.7	0.00e+00	0	71	104
2025-01-09 11:05:38.88	350.64	8.16	-67.2	-72.2	3.7	0.00e+00	0	71	104
2025-01-09 11:05:40.78	350.59	7.99	-67.4	-72.9	3.7	0.00e+00	0	71	104

#Closed at: 2025-01-09 11:05:41
#Recorded file [24075 MB]: D:/data/31015_250109_230333.dat