passes_logs/2026/01/10/R2.0S_Moscow/R2.0S_Moscow__20260110_112041_NOAA_20_JPSS-1_rec.log

#Pass ID: 20260110_112041_NOAA 20 (JPSS-1)
#Satellite: NOAA 20 (JPSS-1)
#Configuration: NOAA 20
#almurnet v.1.7.20251203
#Start time: 2026-01-10 11:20:41

#Version: 2.2.20231116
#Station: R2.0S_Moscow
#Location: 37.707566 lon 55.798166 lat
#TLE: 1 43013U 17073A   26009.26828276  .00000112  00000+0  74203-4 0  9990
#TLE: 2 43013  98.7631 310.2683 0001700  47.4387 312.6933 14.19534764421920

#Time	Az	El	Level	Level2	SNR	BER	BlckErr	Temp	State	Recorded	gain1	gain2
2026-01-10 11:20:41.26	203.58	1.97	-43.9	-58.5	3.8	1.49e+00	0	48	0	0	59	19228
2026-01-10 11:20:45.31	203.85	2.20	-44.0	-58.5	3.8	1.49e+00	0	48	104	0	59	19277
2026-01-10 11:20:49.36	204.12	2.43	-44.0	-58.5	3.8	1.49e+00	0	48	104	0	59	19255
2026-01-10 11:20:53.40	204.40	2.66	-44.0	-58.5	3.8	1.49e+00	0	49	104	0	59	19237
2026-01-10 11:20:57.44	204.68	2.90	-44.0	-58.5	3.8	1.49e+00	0	49	104	0	59	19229
2026-01-10 11:21:01.49	204.97	3.13	-44.0	-58.5	3.8	1.49e+00	0	49	104	0	59	19287
2026-01-10 11:21:05.53	205.26	3.37	-44.0	-58.5	3.8	1.49e+00	0	49	104	0	59	19278
2026-01-10 11:21:09.58	205.56	3.60	-44.0	-58.5	3.8	1.49e+00	0	50	104	0	59	19232
2026-01-10 11:21:13.62	205.86	3.84	-44.0	-58.5	3.8	1.49e+00	0	50	104	0	59	19231
2026-01-10 11:21:17.67	206.17	4.08	-44.0	-58.5	3.8	1.49e+00	0	50	104	0	59	19283
2026-01-10 11:21:21.71	206.48	4.32	-44.0	-58.5	3.8	1.49e+00	0	51	104	0	59	19220
2026-01-10 11:21:25.75	206.79	4.57	-44.0	-58.5	3.8	1.49e+00	0	51	104	0	59	19198
2026-01-10 11:21:29.80	207.11	4.81	-44.0	-58.5	3.8	1.49e+00	0	51	104	0	59	19215
2026-01-10 11:21:33.84	207.44	5.06	-44.0	-58.5	3.8	1.49e+00	0	51	104	0	59	19246
2026-01-10 11:21:37.89	207.77	5.30	-44.0	-58.5	3.8	1.49e+00	0	51	104	0	59	19221
2026-01-10 11:21:41.93	208.10	5.55	-44.0	-58.4	3.8	1.49e+00	0	51	104	0	59	19051
2026-01-10 11:21:45.98	208.45	5.80	-43.9	-57.7	3.8	1.49e+00	0	52	104	0	59	17571
2026-01-10 11:21:50.02	208.79	6.06	-43.8	-56.3	3.8	1.49e+00	0	52	104	0	59	14918
2026-01-10 11:21:54.06	209.15	6.31	-43.8	-56.0	4.0	1.48e+00	0	52	104	0	59	14531
2026-01-10 11:21:58.11	209.51	6.56	-43.8	-55.2	4.1	1.41e+00	0	52	0	0	59	13147
2026-01-10 11:22:02.15	209.87	6.82	-43.6	-53.8	4.6	1.11e+00	0	52	0	2097152	59	11253
2026-01-10 11:22:06.20	210.24	7.08	-43.2	-51.1	6.2	3.15e-01	0	53	0	9437184	58	8744
2026-01-10 11:22:10.24	210.62	7.34	-42.5	-48.1	9.1	2.88e-02	0	53	0	16777216	56	6938
2026-01-10 11:22:14.28	211.01	7.60	-41.5	-45.9	11.3	1.99e-03	0	53	0	24117248	55	5670
2026-01-10 11:22:18.32	211.40	7.86	-41.4	-45.5	11.7	4.12e-04	0	53	0	32505856	54	5782
2026-01-10 11:22:22.36	211.80	8.13	-41.3	-45.2	12.1	1.33e-03	0	53	0	39845888	54	5579
2026-01-10 11:22:26.39	212.20	8.40	-43.4	-51.8	5.5	1.47e+00	0	53	104	44040192	58	9391
2026-01-10 11:22:30.43	212.61	8.66	-41.1	-44.9	12.5	1.73e-04	0	53	0	50331648	54	5355
2026-01-10 11:22:34.47	213.03	8.93	-41.2	-44.9	12.5	1.59e-04	0	53	0	58720256	54	5357
2026-01-10 11:22:38.51	213.46	9.20	-41.2	-44.9	12.6	7.01e-05	0	53	0	66060288	54	5355
2026-01-10 11:22:42.55	213.89	9.48	-41.1	-44.7	12.7	9.99e-05	0	53	0	73400320	54	5279
2026-01-10 11:22:46.59	214.34	9.75	-41.2	-44.8	12.7	1.01e-04	0	54	0	80740352	54	5334
2026-01-10 11:22:50.62	214.79	10.03	-41.2	-44.7	12.8	5.41e-05	0	54	0	89128960	54	5265
2026-01-10 11:22:54.66	215.25	10.30	-41.0	-44.4	13.2	2.67e-05	0	54	0	96468992	54	5069
2026-01-10 11:22:58.70	215.71	10.58	-40.8	-44.1	13.5	6.10e-06	0	54	0	103809024	53	5184
2026-01-10 11:23:02.74	216.19	10.86	-40.9	-44.2	13.5	5.30e-06	0	54	0	111149056	53	5224
2026-01-10 11:23:06.77	216.68	11.14	-40.8	-44.1	13.6	3.80e-06	0	54	0	118489088	53	5160
2026-01-10 11:23:10.81	217.17	11.43	-40.8	-44.0	13.7	5.30e-06	0	54	0	126877696	53	5117
2026-01-10 11:23:14.85	217.67	11.71	-40.9	-44.2	13.5	1.44e-05	0	54	0	134217728	53	5266
2026-01-10 11:23:18.89	218.19	12.00	-41.0	-44.4	13.4	1.75e-05	0	54	0	141557760	53	5350
2026-01-10 11:23:22.92	218.71	12.28	-40.9	-44.2	13.6	1.29e-05	0	54	0	148897792	53	5243
2026-01-10 11:23:26.96	219.24	12.57	-40.8	-43.9	13.9	3.00e-06	0	54	0	156237824	53	5057
2026-01-10 11:23:31.00	219.79	12.86	-40.7	-43.7	14.1	5.30e-06	0	55	0	164626432	53	4965
2026-01-10 11:23:35.04	220.34	13.15	-40.7	-43.7	14.2	7.00e-07	0	55	0	171966464	53	4947
2026-01-10 11:23:39.08	220.90	13.44	-40.6	-43.6	14.3	0.00e+00	0	55	0	179306496	53	4871
2026-01-10 11:23:43.11	221.48	13.73	-40.7	-43.7	14.2	7.00e-07	0	55	0	186646528	53	4963
2026-01-10 11:23:47.16	222.07	14.03	-40.7	-43.8	14.1	2.20e-06	0	55	0	195035136	53	4994
2026-01-10 11:23:51.19	222.66	14.32	-40.7	-43.8	14.2	1.50e-06	0	55	0	202375168	53	4992
2026-01-10 11:23:55.23	223.27	14.62	-40.7	-43.6	14.3	7.00e-07	0	55	0	209715200	53	4918
2026-01-10 11:23:59.27	223.89	14.91	-40.7	-43.6	14.3	0.00e+00	0	55	0	217055232	53	4918
2026-01-10 11:24:03.30	224.53	15.21	-40.7	-43.6	14.3	1.50e-06	0	55	0	224395264	53	4911
2026-01-10 11:24:07.34	225.17	15.50	-40.6	-43.5	14.5	0.00e+00	0	55	0	232783872	53	4819
2026-01-10 11:24:11.38	225.83	15.80	-40.5	-43.3	14.7	0.00e+00	0	55	0	240123904	53	4744
2026-01-10 11:24:15.42	226.50	16.09	-40.4	-43.1	14.9	1.50e-06	0	55	0	247463936	52	4921
2026-01-10 11:24:19.45	227.18	16.39	-40.4	-43.1	15.0	0.00e+00	0	55	0	254803968	52	4893
2026-01-10 11:24:23.49	227.88	16.69	-40.4	-43.1	15.0	0.00e+00	0	55	0	263192576	52	4874
2026-01-10 11:24:27.53	228.59	16.98	-40.3	-43.0	15.0	0.00e+00	0	55	0	270532608	52	4867
2026-01-10 11:24:31.57	229.32	17.27	-40.5	-43.3	14.8	0.00e+00	0	55	0	277872640	52	4991
2026-01-10 11:24:35.61	230.05	17.57	-40.7	-43.6	14.5	0.00e+00	0	56	0	285212672	52	5161
2026-01-10 11:24:39.64	230.80	17.86	-40.6	-43.5	14.5	0.00e+00	0	55	0	292552704	52	5147
2026-01-10 11:24:43.68	231.57	18.15	-40.4	-43.0	15.1	0.00e+00	0	55	0	300941312	52	4857
2026-01-10 11:24:47.72	232.35	18.44	-40.3	-42.9	15.2	0.00e+00	0	56	0	308281344	52	4797
2026-01-10 11:24:51.76	233.15	18.73	-40.1	-42.7	15.4	0.00e+00	0	55	0	315621376	52	4673
2026-01-10 11:24:55.80	233.96	19.01	-39.9	-42.3	15.9	0.00e+00	0	56	0	322961408	51	4736
2026-01-10 11:24:59.84	234.78	19.29	-39.9	-42.3	15.9	0.00e+00	0	56	0	331350016	51	4712
2026-01-10 11:25:03.87	235.62	19.57	-39.8	-42.1	16.1	0.00e+00	0	56	0	338690048	51	4647
2026-01-10 11:25:07.91	236.48	19.85	-39.7	-42.0	16.1	0.00e+00	0	56	0	346030080	51	4595
2026-01-10 11:25:11.95	237.35	20.12	-39.8	-42.2	16.0	0.00e+00	0	56	0	353370112	51	4666
2026-01-10 11:25:15.99	238.23	20.39	-39.9	-42.2	16.0	0.00e+00	0	56	0	360710144	51	4690
2026-01-10 11:25:20.02	239.13	20.66	-40.0	-42.4	15.8	0.00e+00	0	56	0	369098752	51	4792
2026-01-10 11:25:24.06	240.04	20.92	-40.0	-42.5	15.7	0.00e+00	0	56	0	376438784	51	4840
2026-01-10 11:25:28.10	240.97	21.18	-40.1	-42.6	15.6	0.00e+00	0	56	0	383778816	51	4917
2026-01-10 11:25:32.14	241.92	21.43	-40.5	-43.2	15.0	0.00e+00	0	56	0	391118848	51	5230
2026-01-10 11:25:36.18	242.88	21.68	-40.5	-43.2	15.0	0.00e+00	0	56	0	399507456	51	5266
2026-01-10 11:25:40.22	243.86	21.92	-40.7	-43.5	14.8	7.00e-07	0	56	0	406847488	51	5410
2026-01-10 11:25:44.26	244.85	22.15	-40.6	-43.4	14.8	0.00e+00	0	56	0	414187520	52	5071
2026-01-10 11:25:48.30	245.85	22.38	-40.3	-43.0	15.2	0.00e+00	0	56	0	421527552	52	4832
2026-01-10 11:25:52.33	246.87	22.60	-40.5	-43.2	15.0	0.00e+00	0	56	0	428867584	52	4947
2026-01-10 11:25:56.37	247.90	22.81	-40.7	-43.6	14.6	0.00e+00	0	56	0	437256192	52	5172
2026-01-10 11:26:00.41	248.94	23.02	-40.9	-43.8	14.3	1.50e-06	0	56	0	444596224	52	5308
2026-01-10 11:26:04.45	250.00	23.21	-41.0	-44.0	14.1	1.50e-06	0	56	0	451936256	52	5463
2026-01-10 11:26:08.49	251.08	23.40	-41.4	-44.7	13.4	1.75e-05	0	56	0	459276288	53	5569
2026-01-10 11:26:12.52	252.16	23.58	-41.1	-44.2	13.9	3.00e-06	0	56	0	467664896	53	5256
2026-01-10 11:26:16.56	253.25	23.75	-40.9	-43.9	14.3	7.00e-07	0	56	0	475004928	53	5061
2026-01-10 11:26:20.60	254.36	23.91	-41.3	-44.6	13.6	1.06e-05	0	56	0	482344960	53	5481
2026-01-10 11:26:24.63	255.48	24.06	-41.2	-44.5	13.7	9.10e-06	0	56	0	489684992	53	5408
2026-01-10 11:26:28.67	256.60	24.19	-41.4	-44.7	13.5	1.22e-05	0	56	0	497025024	53	5538
2026-01-10 11:26:32.71	257.74	24.32	-41.7	-45.3	12.9	4.88e-05	0	56	0	505413632	54	5621
2026-01-10 11:26:36.74	258.88	24.44	-41.5	-44.8	13.3	1.90e-05	0	56	0	512753664	54	5323
2026-01-10 11:26:40.78	260.04	24.55	-41.5	-45.0	13.2	2.21e-05	0	56	0	520093696	54	5403
2026-01-10 11:26:44.82	261.20	24.64	-41.5	-44.9	13.2	2.21e-05	0	56	0	527433728	54	5382
2026-01-10 11:26:48.85	262.36	24.72	-40.9	-43.8	14.4	1.50e-06	0	56	0	535822336	53	4989
2026-01-10 11:26:52.89	263.53	24.79	-40.7	-43.5	14.7	0.00e+00	0	56	0	543162368	53	4828
2026-01-10 11:26:56.93	264.71	24.85	-40.7	-43.6	14.6	3.00e-06	0	56	0	550502400	53	4886
2026-01-10 11:27:00.97	265.89	24.89	-40.7	-43.6	14.7	0.00e+00	0	56	0	557842432	53	4877
2026-01-10 11:27:05.00	267.07	24.92	-41.4	-44.6	13.5	6.80e-06	0	56	0	565182464	53	5522
2026-01-10 11:27:09.04	268.26	24.94	-41.1	-44.1	14.1	3.00e-06	0	56	0	573571072	53	5210
2026-01-10 11:27:13.08	269.44	24.95	-40.8	-43.6	14.6	7.00e-07	0	56	0	580911104	53	4886
2026-01-10 11:27:17.12	270.63	24.95	-41.1	-44.1	14.1	0.00e+00	0	56	0	588251136	53	5179
2026-01-10 11:27:21.16	271.81	24.93	-40.8	-43.7	14.5	7.00e-07	0	56	0	595591168	53	4948
2026-01-10 11:27:25.20	272.99	24.90	-40.7	-43.6	14.6	1.50e-06	0	56	0	603979776	53	4896
2026-01-10 11:27:29.23	274.17	24.85	-41.0	-44.0	14.2	7.00e-07	0	56	0	611319808	53	5158
2026-01-10 11:27:33.27	275.35	24.80	-40.5	-43.3	14.9	0.00e+00	0	56	0	618659840	53	4711
2026-01-10 11:27:37.31	276.52	24.73	-40.8	-43.7	14.5	0.00e+00	0	56	0	625999872	52	5233
2026-01-10 11:27:41.35	277.69	24.65	-41.2	-44.4	13.8	8.30e-06	0	56	0	633339904	53	5348
2026-01-10 11:27:45.39	278.84	24.56	-41.1	-44.2	13.9	1.50e-06	0	56	0	641728512	53	5270
2026-01-10 11:27:49.42	279.99	24.45	-40.9	-43.8	14.3	1.50e-06	0	57	0	649068544	53	5040
2026-01-10 11:27:53.46	281.14	24.34	-41.1	-44.2	13.9	1.50e-06	0	56	0	656408576	53	5276
2026-01-10 11:27:57.49	282.27	24.21	-40.7	-43.6	14.5	7.00e-07	0	56	0	663748608	53	4898
2026-01-10 11:28:01.53	283.40	24.07	-40.9	-43.8	14.4	7.00e-07	0	56	0	672137216	53	5006
2026-01-10 11:28:05.57	284.51	23.93	-40.4	-43.1	15.1	0.00e+00	0	56	0	679477248	52	4880
2026-01-10 11:28:09.61	285.62	23.77	-40.4	-43.1	15.1	0.00e+00	0	56	0	686817280	52	4880
2026-01-10 11:28:13.65	286.71	23.60	-40.5	-43.2	14.9	0.00e+00	0	56	0	694157312	52	4978
2026-01-10 11:28:17.69	287.79	23.42	-40.4	-43.0	15.2	0.00e+00	0	57	0	701497344	52	4852
2026-01-10 11:28:21.73	288.86	23.24	-40.0	-42.5	15.6	0.00e+00	0	57	0	709885952	52	4598
2026-01-10 11:28:25.77	289.92	23.04	-39.8	-42.2	16.1	0.00e+00	0	56	0	717225984	51	4663
2026-01-10 11:28:29.81	290.96	22.84	-39.5	-41.7	16.5	0.00e+00	0	56	0	724566016	50	4692
2026-01-10 11:28:33.84	291.99	22.63	-39.6	-41.8	16.5	0.00e+00	0	56	0	731906048	50	4722
2026-01-10 11:28:37.88	293.01	22.41	-39.7	-42.0	16.3	0.00e+00	0	57	0	740294656	50	4815
2026-01-10 11:28:41.92	294.01	22.19	-40.2	-42.8	15.4	0.00e+00	0	56	0	747634688	51	5017
2026-01-10 11:28:45.96	295.00	21.96	-39.9	-42.3	15.9	0.00e+00	0	57	0	754974720	51	4743
2026-01-10 11:28:50.00	295.97	21.72	-39.9	-42.3	15.9	0.00e+00	0	56	0	762314752	51	4711
2026-01-10 11:28:54.04	296.93	21.47	-40.3	-42.9	15.3	0.00e+00	0	57	0	769654784	51	5043
2026-01-10 11:28:58.08	297.87	21.23	-41.0	-44.0	14.0	7.00e-07	0	56	0	778043392	52	5460
2026-01-10 11:29:02.12	298.80	20.97	-41.1	-44.2	13.9	1.50e-06	0	56	0	785383424	52	5549
2026-01-10 11:29:06.16	299.71	20.71	-40.6	-43.4	14.6	0.00e+00	0	56	0	792723456	52	5099
2026-01-10 11:29:10.20	300.61	20.45	-40.3	-43.0	15.1	0.00e+00	0	57	0	800063488	52	4852
2026-01-10 11:29:14.23	301.49	20.18	-40.7	-43.6	14.4	1.50e-06	0	57	0	808452096	52	5213
2026-01-10 11:29:18.27	302.36	19.91	-40.9	-43.9	14.1	1.50e-06	0	57	0	815792128	52	5400
2026-01-10 11:29:22.31	303.21	19.64	-40.8	-43.8	14.2	3.00e-06	0	57	0	823132160	52	5335
2026-01-10 11:29:26.34	304.05	19.36	-40.4	-43.0	15.0	0.00e+00	0	56	0	830472192	52	4867
2026-01-10 11:29:30.38	304.87	19.08	-40.7	-43.6	14.5	7.00e-07	0	56	0	837812224	52	5168
2026-01-10 11:29:34.42	305.68	18.80	-40.5	-43.3	14.7	1.50e-06	0	56	0	846200832	52	5012
2026-01-10 11:29:38.46	306.47	18.51	-40.7	-43.6	14.5	1.50e-06	0	57	0	853540864	52	5171
2026-01-10 11:29:42.49	307.25	18.23	-40.8	-43.8	14.2	7.00e-07	0	57	0	860880896	52	5321
2026-01-10 11:29:46.53	308.02	17.94	-41.2	-44.6	13.4	7.60e-06	0	57	0	868220928	53	5483
2026-01-10 11:29:50.57	308.77	17.65	-40.8	-43.8	14.2	1.50e-06	0	57	0	876609536	53	5022
2026-01-10 11:29:54.61	309.50	17.36	-40.8	-43.8	14.2	0.00e+00	0	57	0	883949568	52	5313
2026-01-10 11:29:58.64	310.23	17.07	-41.3	-44.7	13.3	1.90e-05	0	57	0	891289600	53	5545
2026-01-10 11:30:02.68	310.94	16.78	-40.8	-43.8	14.1	3.80e-06	0	56	0	898629632	53	5026
2026-01-10 11:30:06.72	311.63	16.49	-41.1	-44.3	13.7	4.50e-06	0	57	0	905969664	53	5302
2026-01-10 11:30:10.76	312.31	16.19	-40.8	-43.9	14.0	3.00e-06	0	57	0	914358272	53	5052
2026-01-10 11:30:14.79	312.98	15.90	-40.8	-43.8	14.1	1.50e-06	0	57	0	921698304	53	5030
2026-01-10 11:30:18.83	313.64	15.61	-41.2	-44.6	13.2	1.98e-05	0	57	0	929038336	53	5513
2026-01-10 11:30:22.87	314.29	15.31	-40.9	-43.9	13.9	2.20e-06	0	57	0	936378368	53	5099
2026-01-10 11:30:26.90	314.92	15.02	-41.0	-44.3	13.6	9.10e-06	0	57	0	943718400	53	5304
2026-01-10 11:30:30.94	315.54	14.73	-41.3	-44.8	13.0	3.35e-05	0	57	0	952107008	53	5632
2026-01-10 11:30:34.98	316.15	14.44	-40.8	-44.0	13.9	6.10e-06	0	57	0	959447040	53	5105
2026-01-10 11:30:39.02	316.75	14.15	-41.1	-44.5	13.3	1.14e-05	0	57	0	966787072	53	5440
2026-01-10 11:30:43.06	317.33	13.86	-41.4	-45.0	12.8	5.72e-05	0	57	0	974127104	53	5757
2026-01-10 11:30:47.10	317.91	13.57	-40.9	-44.2	13.6	9.10e-06	0	57	0	982515712	53	5231
2026-01-10 11:30:51.14	318.47	13.28	-41.1	-44.5	13.3	1.60e-05	0	57	0	989855744	53	5429
2026-01-10 11:30:55.17	319.03	12.99	-41.3	-44.8	12.9	4.65e-05	0	57	0	997195776	53	5655
2026-01-10 11:30:59.21	319.57	12.70	-41.2	-44.6	13.1	2.82e-05	0	57	0	1004535808	53	5508
2026-01-10 11:31:03.25	320.10	12.42	-41.2	-44.7	13.1	1.83e-05	0	56	0	1011875840	53	5530
2026-01-10 11:31:07.28	320.63	12.13	-41.5	-45.4	12.3	2.35e-04	0	57	0	1020264448	53	5999
2026-01-10 11:31:11.32	321.14	11.85	-41.4	-45.0	12.6	9.76e-05	0	57	0	1027604480	53	5775
2026-01-10 11:31:15.36	321.65	11.57	-41.2	-44.7	13.0	3.43e-05	0	57	0	1034944512	53	5533
2026-01-10 11:31:19.40	322.14	11.29	-41.1	-44.6	13.0	4.11e-05	0	57	0	1042284544	53	5487
2026-01-10 11:31:23.44	322.63	11.01	-41.3	-45.0	12.6	6.71e-05	0	57	0	1050673152	53	5735
2026-01-10 11:31:27.47	323.10	10.73	-41.3	-44.9	12.6	1.37e-04	0	57	0	1058013184	53	5712
2026-01-10 11:31:31.51	323.57	10.46	-41.5	-45.5	12.1	1.97e-04	0	57	0	1065353216	53	6087
2026-01-10 11:31:35.55	324.03	10.18	-41.7	-45.8	11.7	5.51e-04	0	57	0	1072693248	53	6286
2026-01-10 11:31:39.59	324.49	9.91	-41.6	-45.6	11.9	3.98e-04	0	57	0	1080033280	54	5832
2026-01-10 11:31:43.62	324.93	9.64	-41.5	-45.4	12.0	3.52e-04	0	57	0	1088421888	54	5710
2026-01-10 11:31:47.66	325.37	9.37	-41.6	-45.7	11.7	4.81e-04	0	57	0	1095761920	54	5857
2026-01-10 11:31:51.70	325.80	9.10	-41.7	-45.9	11.4	7.62e-04	0	57	0	1103101952	54	6057
2026-01-10 11:31:55.74	326.22	8.83	-41.9	-46.5	10.8	2.47e-03	0	57	0	1110441984	54	6471
2026-01-10 11:31:59.78	326.63	8.57	-41.8	-46.3	10.9	2.76e-03	0	57	0	1118830592	54	6339
2026-01-10 11:32:03.82	327.04	8.30	-42.0	-46.9	10.3	4.81e-03	0	57	0	1126170624	54	6780
2026-01-10 11:32:07.85	327.44	8.04	-42.0	-46.9	10.3	5.24e-03	0	57	0	1133510656	54	6724
2026-01-10 11:32:11.90	327.83	7.78	-44.8	-59.5	3.8	1.49e+00	0	57	104	1134559232	60	20537
2026-01-10 11:32:15.94	328.22	7.52	-45.2	-59.9	3.8	1.49e+00	0	57	104	1134559232	60	21425
2026-01-10 11:32:19.98	328.60	7.26	-45.0	-59.9	3.8	1.49e+00	0	57	104	1134559232	60	21327
2026-01-10 11:32:24.02	328.97	7.01	-45.0	-59.8	3.8	1.49e+00	0	57	104	1134559232	60	21197
2026-01-10 11:32:28.07	329.34	6.75	-45.0	-59.8	3.8	1.49e+00	0	57	104	1134559232	60	21195
2026-01-10 11:32:32.11	329.70	6.50	-45.0	-59.8	3.8	1.49e+00	0	57	104	1134559232	60	21120
2026-01-10 11:32:36.16	330.06	6.25	-45.0	-59.8	3.8	1.49e+00	0	57	104	1134559232	60	21138
2026-01-10 11:32:40.20	330.41	6.00	-45.0	-59.8	3.8	1.49e+00	0	57	104	1134559232	60	21095
2026-01-10 11:32:44.25	330.76	5.75	-45.0	-59.8	3.8	1.49e+00	0	57	104	1134559232	60	21061
2026-01-10 11:32:48.29	331.10	5.50	-45.0	-59.8	3.8	1.49e+00	0	57	104	1134559232	60	21080
2026-01-10 11:32:52.33	331.43	5.26	-45.0	-59.8	3.8	1.49e+00	0	57	104	1134559232	60	21138
2026-01-10 11:32:56.38	331.76	5.01	-44.9	-59.8	3.8	1.49e+00	0	57	104	1134559232	60	21028
2026-01-10 11:33:00.42	332.08	4.77	-44.9	-59.8	3.8	1.49e+00	0	57	104	1134559232	60	21041
2026-01-10 11:33:04.46	332.40	4.53	-45.0	-59.8	3.8	1.49e+00	0	57	104	1134559232	60	21101
2026-01-10 11:33:08.51	332.72	4.29	-45.0	-59.8	3.8	1.49e+00	0	57	104	1134559232	60	21033
2026-01-10 11:33:12.55	333.02	4.05	-44.9	-59.7	3.8	1.49e+00	0	57	104	1134559232	60	20939
2026-01-10 11:33:16.60	333.33	3.82	-44.9	-59.8	3.8	1.49e+00	0	57	104	1134559232	60	21030
2026-01-10 11:33:20.64	333.63	3.58	-44.9	-59.7	3.8	1.49e+00	0	57	104	1134559232	60	20949
2026-01-10 11:33:24.68	333.92	3.35	-44.9	-59.7	3.8	1.49e+00	0	57	104	1134559232	60	20931
2026-01-10 11:33:28.73	334.22	3.12	-44.9	-59.7	3.8	1.49e+00	0	57	104	1134559232	60	20955
2026-01-10 11:33:32.77	334.50	2.89	-44.9	-59.7	3.8	1.49e+00	0	57	104	1134559232	60	20968
2026-01-10 11:33:36.82	334.78	2.66	-44.9	-59.7	3.8	1.49e+00	0	57	104	1134559232	60	20928
2026-01-10 11:33:40.86	335.06	2.43	-44.9	-59.7	3.8	1.49e+00	0	57	104	1134559232	60	20927
2026-01-10 11:33:44.91	335.34	2.20	-44.9	-59.7	3.8	1.49e+00	0	57	104	1134559232	60	20946
2026-01-10 11:33:48.95	335.61	1.98	-44.9	-59.7	3.8	1.49e+00	0	57	104	1134559232	60	20921

#Closed at: 2026-01-10 11:33:49
#Recorded file [1134 MB]: D:/lorett/data/31039_260110_142041.dat