passes_logs/2026/01/10/R2.0S_Moscow/R2.0S_Moscow__20260110_152532_FENGYUN_3E_rec.log

#Pass ID: 20260110_152532_FENGYUN 3E
#Satellite: FENGYUN 3E
#Configuration: FENGYUN 3E
#almurnet v.1.7.20251203
#Start time: 2026-01-10 15:25:35

#Version: 2.2.20231116
#Station: R2.0S_Moscow
#Location: 37.707566 lon 55.798166 lat
#TLE: 1 49008U 21062A   26009.86154543 -.00000176  00000+0 -62220-4 0  9996
#TLE: 2 49008  98.7486  15.0498 0001782 147.3871 212.7416 14.19883371234110

#Time	Az	El	Level	Level2	SNR	BER	BlckErr	Temp	State	Recorded	gain1	gain2
2026-01-10 15:25:35.12	197.41	2.13	-44.2	-54.9	3.8	8.45e-01	0	47	0	0	59	12025
2026-01-10 15:25:39.16	197.65	2.37	-44.2	-54.9	3.8	8.46e-01	0	48	104	0	59	12043
2026-01-10 15:25:43.20	197.89	2.61	-44.2	-54.9	3.8	8.47e-01	0	48	104	0	59	11999
2026-01-10 15:25:47.24	198.13	2.85	-44.2	-54.9	3.8	8.46e-01	0	49	104	0	59	11966
2026-01-10 15:25:51.29	198.38	3.09	-44.2	-54.9	3.8	8.46e-01	0	49	104	0	59	11982
2026-01-10 15:25:55.33	198.63	3.34	-44.2	-54.9	3.8	8.47e-01	0	49	104	0	59	12003
2026-01-10 15:25:59.38	198.89	3.58	-44.2	-54.9	3.8	8.47e-01	0	49	104	0	59	12037
2026-01-10 15:26:03.42	199.15	3.83	-44.2	-54.9	3.8	8.46e-01	0	49	104	0	59	11996
2026-01-10 15:26:07.47	199.41	4.08	-44.2	-54.9	3.8	8.48e-01	0	50	104	0	59	12017
2026-01-10 15:26:11.51	199.68	4.34	-44.2	-54.9	3.8	8.46e-01	0	50	104	0	59	12016
2026-01-10 15:26:15.56	199.95	4.59	-44.2	-54.9	3.8	8.46e-01	0	50	104	0	59	12002
2026-01-10 15:26:19.60	200.23	4.85	-44.1	-54.9	3.8	8.47e-01	0	50	104	0	59	11978
2026-01-10 15:26:23.64	200.51	5.10	-44.2	-54.9	3.8	8.45e-01	0	51	104	0	59	11981
2026-01-10 15:26:27.69	200.80	5.36	-44.1	-54.8	3.8	8.46e-01	0	51	104	0	59	11862
2026-01-10 15:26:31.73	201.09	5.62	-44.0	-53.8	3.8	8.46e-01	0	51	104	0	59	10578
2026-01-10 15:26:35.78	201.39	5.89	-43.5	-50.8	4.3	8.33e-01	0	51	0	0	57	8446
2026-01-10 15:26:39.82	201.69	6.15	-43.1	-49.6	4.8	7.93e-01	0	52	0	0	57	7365
2026-01-10 15:26:43.86	202.00	6.42	-43.0	-49.3	5.0	7.93e-01	0	52	0	0	57	7065
2026-01-10 15:26:47.91	202.32	6.69	-42.9	-48.8	5.3	7.37e-01	0	52	0	0	56	7074
2026-01-10 15:26:51.95	202.63	6.96	-41.8	-46.3	7.1	1.61e-01	0	52	0	22020096	54	5945
2026-01-10 15:26:56.00	202.96	7.24	-40.3	-43.6	9.9	1.06e-02	0	52	0	51380224	51	5165
2026-01-10 15:27:00.04	203.29	7.52	-38.5	-41.1	12.5	1.88e-04	0	52	0	80740352	48	4618
2026-01-10 15:27:04.09	203.63	7.79	-37.6	-39.9	13.4	1.14e-05	0	53	0	109051904	46	4542
2026-01-10 15:27:08.13	203.97	8.08	-39.1	-41.8	11.6	6.68e-04	0	53	0	138412032	47	5324
2026-01-10 15:27:12.17	204.32	8.36	-41.3	-45.5	7.8	1.51e-01	0	53	0	154140672	53	5737
2026-01-10 15:27:16.21	204.67	8.64	-38.3	-40.7	13.1	1.48e-05	0	53	0	183500800	47	4658
2026-01-10 15:27:20.24	205.04	8.93	-37.5	-39.7	14.1	2.20e-06	0	53	0	212860928	46	4398
2026-01-10 15:27:24.28	205.41	9.22	-37.7	-39.9	14.0	1.10e-06	0	53	0	242221056	46	4523
2026-01-10 15:27:28.33	205.78	9.51	-37.5	-39.6	14.3	2.20e-06	0	53	0	270532608	45	4620
2026-01-10 15:27:32.37	206.17	9.81	-37.3	-39.3	14.6	0.00e+00	0	53	0	299892736	45	4488
2026-01-10 15:27:36.40	206.56	10.10	-37.1	-39.1	14.8	1.10e-06	0	53	0	329252864	44	4639
2026-01-10 15:27:40.44	206.96	10.40	-37.0	-39.0	14.9	0.00e+00	0	54	0	358612992	44	4598
2026-01-10 15:27:44.49	207.37	10.71	-37.0	-39.1	15.0	0.00e+00	0	54	0	387973120	44	4607
2026-01-10 15:27:48.52	207.78	11.01	-36.9	-39.0	15.0	0.00e+00	0	54	0	416284672	44	4592
2026-01-10 15:27:52.57	208.21	11.32	-36.7	-38.9	15.1	0.00e+00	0	54	0	445644800	44	4503
2026-01-10 15:27:56.61	208.64	11.63	-36.8	-38.9	15.1	0.00e+00	0	54	0	475004928	44	4521
2026-01-10 15:28:00.64	209.08	11.94	-36.6	-38.8	15.2	0.00e+00	0	54	0	504365056	44	4455
2026-01-10 15:28:04.68	209.53	12.25	-36.7	-38.9	15.1	0.00e+00	0	54	0	533725184	44	4513
2026-01-10 15:28:08.72	209.99	12.57	-36.3	-38.5	15.4	0.00e+00	0	54	0	562036736	43	4554
2026-01-10 15:28:12.76	210.46	12.89	-36.2	-38.3	15.6	0.00e+00	0	54	0	591396864	43	4456
2026-01-10 15:28:16.79	210.94	13.21	-36.2	-38.3	15.6	0.00e+00	0	55	0	620756992	43	4472
2026-01-10 15:28:20.83	211.43	13.54	-36.3	-38.4	15.4	0.00e+00	0	55	0	650117120	43	4523
2026-01-10 15:28:24.87	211.93	13.86	-36.2	-38.2	15.7	0.00e+00	0	55	0	678428672	43	4408
2026-01-10 15:28:28.90	212.44	14.19	-36.1	-38.0	15.9	0.00e+00	0	55	0	707788800	43	4333
2026-01-10 15:28:32.94	212.96	14.52	-36.1	-38.1	15.9	0.00e+00	0	55	0	737148928	43	4342
2026-01-10 15:28:36.98	213.50	14.86	-36.0	-37.9	16.1	0.00e+00	0	55	0	766509056	42	4525
2026-01-10 15:28:41.02	214.04	15.19	-35.9	-37.7	16.3	0.00e+00	0	55	0	795869184	42	4431
2026-01-10 15:28:45.06	214.60	15.53	-35.8	-37.6	16.5	0.00e+00	0	55	0	824180736	42	4366
2026-01-10 15:28:49.10	215.17	15.87	-35.7	-37.6	16.6	0.00e+00	0	55	0	853540864	42	4341
2026-01-10 15:28:53.14	215.76	16.21	-35.6	-37.5	16.6	0.00e+00	0	55	0	882900992	42	4307
2026-01-10 15:28:57.18	216.35	16.56	-35.5	-37.4	16.7	0.00e+00	0	55	0	912261120	41	4501
2026-01-10 15:29:01.22	216.96	16.90	-35.2	-37.1	16.9	0.00e+00	0	55	0	941621248	41	4362
2026-01-10 15:29:05.25	217.59	17.25	-35.1	-36.9	17.1	0.00e+00	0	55	0	970981376	40	4530
2026-01-10 15:29:09.29	218.22	17.60	-35.0	-36.8	17.2	0.00e+00	0	55	0	999292928	40	4462
2026-01-10 15:29:13.33	218.88	17.95	-35.1	-37.0	17.0	0.00e+00	0	55	0	1028653056	40	4574
2026-01-10 15:29:17.37	219.54	18.31	-35.1	-37.0	17.0	0.00e+00	0	55	0	1058013184	40	4552
2026-01-10 15:29:21.41	220.23	18.66	-34.9	-36.8	17.3	0.00e+00	0	55	0	1087373312	40	4446
2026-01-10 15:29:25.44	220.92	19.01	-34.8	-36.6	17.5	0.00e+00	0	56	0	1116733440	40	4361
2026-01-10 15:29:29.48	221.64	19.37	-34.8	-36.5	17.6	0.00e+00	0	56	0	1145044992	40	4314
2026-01-10 15:29:33.52	222.37	19.73	-34.9	-36.7	17.4	0.00e+00	0	55	0	1174405120	40	4408
2026-01-10 15:29:37.57	223.12	20.09	-35.0	-36.8	17.3	0.00e+00	0	56	0	1203765248	40	4472
2026-01-10 15:29:41.60	223.88	20.44	-34.7	-36.5	17.6	0.00e+00	0	56	0	1233125376	40	4318
2026-01-10 15:29:45.64	224.66	20.80	-34.6	-36.3	17.8	0.00e+00	0	56	0	1262485504	39	4473
2026-01-10 15:29:49.68	225.46	21.16	-34.5	-36.3	17.8	0.00e+00	0	56	0	1291845632	39	4443
2026-01-10 15:29:53.72	226.28	21.51	-34.6	-36.3	17.7	0.00e+00	0	56	0	1320157184	39	4477
2026-01-10 15:29:57.76	227.12	21.87	-34.5	-36.3	17.8	0.00e+00	0	56	0	1349517312	39	4458
2026-01-10 15:30:01.80	227.97	22.22	-34.5	-36.2	17.9	0.00e+00	0	56	0	1378877440	39	4414
2026-01-10 15:30:05.84	228.85	22.57	-34.4	-36.1	18.1	0.00e+00	0	56	0	1408237568	39	4362
2026-01-10 15:30:09.88	229.74	22.92	-34.3	-36.0	18.1	0.00e+00	0	56	0	1437597696	39	4322
2026-01-10 15:30:13.92	230.66	23.27	-34.2	-35.8	18.3	0.00e+00	0	56	0	1465909248	39	4230
2026-01-10 15:30:17.96	231.59	23.62	-34.2	-36.0	18.2	0.00e+00	0	56	0	1495269376	39	4301
2026-01-10 15:30:21.99	232.54	23.96	-34.3	-36.0	18.0	0.00e+00	0	56	0	1524629504	39	4338
2026-01-10 15:30:26.03	233.52	24.30	-34.1	-35.8	18.3	0.00e+00	0	56	0	1553989632	39	4213
2026-01-10 15:30:30.07	234.51	24.63	-34.1	-35.8	18.3	0.00e+00	0	56	0	1582301184	39	4237
2026-01-10 15:30:34.10	235.53	24.96	-34.2	-35.9	18.3	0.00e+00	0	56	0	1611661312	39	4249
2026-01-10 15:30:38.15	236.57	25.28	-34.0	-35.7	18.5	0.00e+00	0	56	0	1641021440	38	4393
2026-01-10 15:30:42.19	237.62	25.60	-34.0	-35.7	18.4	0.00e+00	0	56	0	1670381568	38	4404
2026-01-10 15:30:46.22	238.70	25.90	-34.0	-35.7	18.4	0.00e+00	0	56	0	1699741696	38	4407
2026-01-10 15:30:50.26	239.80	26.21	-33.9	-35.6	18.4	0.00e+00	0	56	0	1728053248	38	4386
2026-01-10 15:30:54.30	240.92	26.50	-33.9	-35.5	18.6	0.00e+00	0	56	0	1757413376	38	4327
2026-01-10 15:30:58.34	242.05	26.79	-33.8	-35.4	18.7	0.00e+00	0	56	0	1786773504	38	4260
2026-01-10 15:31:02.38	243.21	27.07	-33.8	-35.4	18.7	0.00e+00	0	56	0	1816133632	38	4258
2026-01-10 15:31:06.42	244.39	27.33	-33.7	-35.3	18.8	0.00e+00	0	56	0	1845493760	38	4203
2026-01-10 15:31:10.46	245.59	27.59	-33.8	-35.5	18.6	0.00e+00	0	57	0	1873805312	38	4300
2026-01-10 15:31:14.49	246.80	27.83	-33.8	-35.5	18.6	0.00e+00	0	57	0	1903165440	38	4329
2026-01-10 15:31:18.53	248.04	28.07	-33.9	-35.6	18.4	0.00e+00	0	56	0	1932525568	38	4389
2026-01-10 15:31:22.57	249.29	28.29	-34.5	-35.6	19.1	0.00e+00	0	56	0	1961885696	38	4347
2026-01-10 15:31:26.61	250.56	28.50	-34.5	-35.6	19.2	0.00e+00	0	56	0	1991245824	38	4342
2026-01-10 15:31:30.65	251.84	28.69	-34.4	-35.5	19.2	0.00e+00	0	57	0	2020605952	38	4320
2026-01-10 15:31:34.69	253.14	28.87	-34.5	-35.6	19.1	0.00e+00	0	56	0	2048917504	38	4346
2026-01-10 15:31:38.73	254.45	29.04	-34.3	-35.4	19.3	0.00e+00	0	56	0	2078277632	38	4270
2026-01-10 15:31:42.77	255.77	29.19	-34.0	-35.0	19.7	0.00e+00	0	56	0	2107637760	38	4062
2026-01-10 15:31:46.80	257.10	29.32	-34.1	-35.2	19.5	0.00e+00	0	57	0	2136997888	38	4162
2026-01-10 15:31:50.84	258.45	29.44	-34.3	-35.3	19.4	0.00e+00	0	57	0	2166358016	38	4236
2026-01-10 15:31:54.87	259.80	29.54	-34.5	-35.6	19.1	0.00e+00	0	57	0	2194669568	38	4371
2026-01-10 15:31:58.91	261.16	29.62	-34.4	-35.5	19.2	0.00e+00	0	57	0	2224029696	38	4322
2026-01-10 15:32:02.95	262.53	29.69	-34.3	-35.3	19.4	0.00e+00	0	57	0	2253389824	38	4240
2026-01-10 15:32:06.99	263.91	29.74	-34.4	-35.4	19.3	0.00e+00	0	57	0	2282749952	38	4280
2026-01-10 15:32:11.03	265.28	29.77	-34.6	-35.7	19.1	0.00e+00	0	56	0	2312110080	38	4399
2026-01-10 15:32:15.06	266.66	29.79	-34.6	-35.7	19.0	0.00e+00	0	56	0	2340421632	38	4420
2026-01-10 15:32:19.11	268.04	29.78	-34.5	-35.5	19.2	0.00e+00	0	57	0	2369781760	38	4340
2026-01-10 15:32:23.15	269.42	29.76	-34.4	-35.5	19.2	0.00e+00	0	57	0	2399141888	38	4313
2026-01-10 15:32:27.19	270.79	29.72	-34.4	-35.5	19.2	0.00e+00	0	57	0	2428502016	38	4308
2026-01-10 15:32:31.22	272.16	29.67	-34.6	-35.7	19.0	0.00e+00	0	56	0	2456813568	38	4412
2026-01-10 15:32:35.26	273.52	29.59	-34.5	-35.6	19.2	0.00e+00	0	57	0	2486173696	38	4347
2026-01-10 15:32:39.30	274.88	29.50	-34.2	-35.3	19.4	0.00e+00	0	57	0	2515533824	38	4222
2026-01-10 15:32:43.34	276.23	29.39	-34.3	-35.4	19.3	0.00e+00	0	57	0	2544893952	38	4257
2026-01-10 15:32:47.38	277.57	29.27	-34.5	-35.6	19.1	0.00e+00	0	57	0	2574254080	38	4366
2026-01-10 15:32:51.42	278.90	29.13	-34.3	-35.4	19.3	0.00e+00	0	57	0	2602565632	38	4272
2026-01-10 15:32:55.46	280.22	28.97	-34.3	-35.4	19.3	0.00e+00	0	56	0	2631925760	38	4250
2026-01-10 15:32:59.50	281.52	28.80	-34.3	-35.4	19.3	0.00e+00	0	57	0	2661285888	38	4256
2026-01-10 15:33:03.54	282.81	28.62	-34.2	-35.3	19.4	0.00e+00	0	57	0	2690646016	38	4201
2026-01-10 15:33:07.58	284.08	28.42	-34.5	-35.6	19.1	0.00e+00	0	57	0	2720006144	38	4349
2026-01-10 15:33:11.62	285.34	28.20	-34.4	-35.5	19.2	0.00e+00	0	57	0	2748317696	38	4292
2026-01-10 15:33:15.66	286.58	27.98	-34.4	-35.5	19.2	0.00e+00	0	57	0	2777677824	38	4321
2026-01-10 15:33:19.70	287.81	27.74	-34.5	-35.6	19.1	0.00e+00	0	57	0	2807037952	38	4383
2026-01-10 15:33:23.74	289.01	27.49	-34.6	-35.7	19.0	0.00e+00	0	57	0	2836398080	38	4436
2026-01-10 15:33:27.78	290.20	27.23	-34.5	-35.6	19.0	0.00e+00	0	57	0	2865758208	38	4386
2026-01-10 15:33:31.81	291.36	26.96	-34.7	-35.8	18.9	0.00e+00	0	57	0	2895118336	38	4455
2026-01-10 15:33:35.85	292.51	26.69	-34.9	-36.0	18.6	0.00e+00	0	57	0	2923429888	39	4338
2026-01-10 15:33:39.89	293.64	26.40	-34.6	-35.7	19.0	0.00e+00	0	57	0	2952790016	39	4183
2026-01-10 15:33:43.93	294.74	26.10	-34.5	-35.6	19.1	0.00e+00	0	56	0	2982150144	39	4102
2026-01-10 15:33:47.97	295.83	25.80	-34.5	-35.6	19.0	0.00e+00	0	57	0	3011510272	39	4120
2026-01-10 15:33:52.00	296.89	25.49	-34.9	-36.0	18.7	0.00e+00	0	57	0	3040870400	39	4314
2026-01-10 15:33:56.04	297.94	25.17	-35.1	-36.3	18.3	0.00e+00	0	57	0	3069181952	40	4222
2026-01-10 15:34:00.08	298.96	24.85	-34.9	-36.0	18.6	0.00e+00	0	57	0	3098542080	40	4071
2026-01-10 15:34:04.12	299.97	24.52	-34.7	-35.8	18.7	0.00e+00	0	57	0	3127902208	40	4003
2026-01-10 15:34:08.16	300.95	24.19	-34.9	-36.0	18.5	0.00e+00	0	57	0	3157262336	40	4086
2026-01-10 15:34:12.20	301.92	23.85	-34.9	-36.0	18.5	0.00e+00	0	57	0	3186622464	40	4094
2026-01-10 15:34:16.23	302.86	23.51	-35.0	-36.2	18.4	0.00e+00	0	57	0	3215982592	40	4148
2026-01-10 15:34:20.27	303.78	23.17	-35.0	-36.2	18.3	0.00e+00	0	57	0	3244294144	40	4155
2026-01-10 15:34:24.31	304.68	22.82	-35.1	-36.3	18.3	0.00e+00	0	57	0	3273654272	40	4195
2026-01-10 15:34:28.35	305.57	22.47	-35.1	-36.3	18.2	0.00e+00	0	57	0	3303014400	40	4221
2026-01-10 15:34:32.39	306.43	22.12	-35.3	-36.5	18.0	0.00e+00	0	57	0	3332374528	40	4314
2026-01-10 15:34:36.42	307.27	21.77	-35.3	-36.5	18.0	0.00e+00	0	57	0	3360686080	40	4322
2026-01-10 15:34:40.46	308.10	21.42	-35.5	-36.7	17.8	0.00e+00	0	57	0	3390046208	40	4420
2026-01-10 15:34:44.50	308.91	21.07	-35.6	-36.8	17.7	0.00e+00	0	57	0	3419406336	40	4466
2026-01-10 15:34:48.54	309.70	20.71	-35.4	-36.6	17.9	0.00e+00	0	57	0	3448766464	40	4343
2026-01-10 15:34:52.58	310.47	20.36	-35.4	-36.6	17.8	0.00e+00	0	57	0	3478126592	40	4378
2026-01-10 15:34:56.62	311.23	20.00	-36.0	-37.3	17.2	0.00e+00	0	57	0	3506438144	41	4449
2026-01-10 15:35:00.66	311.97	19.65	-36.0	-37.3	17.2	0.00e+00	0	57	0	3535798272	41	4458
2026-01-10 15:35:04.70	312.69	19.29	-35.7	-36.9	17.5	0.00e+00	0	57	0	3565158400	41	4270
2026-01-10 15:35:08.74	313.40	18.94	-35.6	-36.9	17.6	0.00e+00	0	57	0	3594518528	41	4254
2026-01-10 15:35:12.78	314.09	18.59	-35.8	-37.0	17.4	0.00e+00	0	57	0	3623878656	41	4318
2026-01-10 15:35:16.81	314.76	18.24	-36.1	-37.4	16.9	0.00e+00	0	57	0	3652190208	41	4534
2026-01-10 15:35:20.86	315.42	17.89	-36.3	-37.7	16.7	0.00e+00	0	57	0	3681550336	42	4399
2026-01-10 15:35:24.90	316.07	17.54	-36.2	-37.5	16.9	0.00e+00	0	57	0	3710910464	42	4316
2026-01-10 15:35:28.94	316.70	17.19	-35.9	-37.2	17.2	0.00e+00	0	57	0	3740270592	42	4152
2026-01-10 15:35:32.98	317.32	16.85	-36.0	-37.2	17.1	0.00e+00	0	57	0	3769630720	42	4190
2026-01-10 15:35:37.02	317.92	16.51	-36.3	-37.6	16.7	0.00e+00	0	57	0	3797942272	42	4383
2026-01-10 15:35:41.06	318.51	16.17	-36.6	-38.0	16.4	0.00e+00	0	57	0	3827302400	42	4566
2026-01-10 15:35:45.09	319.09	15.83	-36.6	-38.0	16.4	0.00e+00	0	57	0	3856662528	42	4552
2026-01-10 15:35:49.14	319.65	15.49	-36.4	-37.7	16.6	0.00e+00	0	57	0	3886022656	42	4430
2026-01-10 15:35:53.18	320.21	15.16	-36.2	-37.5	16.8	0.00e+00	0	57	0	3915382784	42	4301
2026-01-10 15:35:57.22	320.75	14.82	-36.3	-37.6	16.7	0.00e+00	0	57	0	3943694336	42	4363
2026-01-10 15:36:01.25	321.28	14.49	-36.5	-37.8	16.4	0.00e+00	0	57	0	3973054464	42	4470
2026-01-10 15:36:05.30	321.80	14.17	-36.7	-38.1	16.1	0.00e+00	0	57	0	4002414592	42	4615
2026-01-10 15:36:09.34	322.30	13.84	-36.7	-38.1	16.1	0.00e+00	0	57	0	4031774720	43	4385
2026-01-10 15:36:13.38	322.80	13.52	-36.7	-38.1	16.1	0.00e+00	0	57	0	4061134848	43	4378
2026-01-10 15:36:17.42	323.29	13.20	-36.6	-38.1	16.1	0.00e+00	0	57	0	4090494976	43	4349
2026-01-10 15:36:21.46	323.77	12.88	-36.8	-38.2	15.9	0.00e+00	0	57	0	4118806528	43	4431
2026-01-10 15:36:25.49	324.23	12.56	-37.0	-38.4	15.7	0.00e+00	0	57	0	4148166656	43	4531
2026-01-10 15:36:29.53	324.69	12.25	-37.1	-38.7	15.5	0.00e+00	0	57	0	4177526784	43	4654
2026-01-10 15:36:33.57	325.14	11.94	-37.5	-39.1	15.2	0.00e+00	0	57	0	4206886912	44	4642
2026-01-10 15:36:37.61	325.58	11.63	-37.7	-39.4	14.9	0.00e+00	0	57	0	4236247040	45	4498
2026-01-10 15:36:41.65	326.01	11.32	-37.5	-39.1	15.2	0.00e+00	0	57	0	4264558592	45	4346
2026-01-10 15:36:45.69	326.43	11.02	-37.4	-39.0	15.2	0.00e+00	0	57	0	4293918720	45	4323
2026-01-10 15:36:49.73	326.84	10.72	-37.7	-39.3	14.8	0.00e+00	0	57	0	4323278848	45	4483
2026-01-10 15:36:53.77	327.25	10.42	-37.9	-39.6	14.5	0.00e+00	0	57	0	4352638976	45	4615
2026-01-10 15:36:57.81	327.65	10.12	-37.9	-39.6	14.5	0.00e+00	0	57	0	4381999104	45	4601
2026-01-10 15:37:01.85	328.04	9.83	-37.9	-39.6	14.4	0.00e+00	0	57	0	4411359232	45	4608
2026-01-10 15:37:05.89	328.42	9.54	-37.8	-39.5	14.5	0.00e+00	0	57	0	4439670784	45	4586
2026-01-10 15:37:09.93	328.80	9.25	-37.7	-39.4	14.6	0.00e+00	0	57	0	4469030912	45	4510
2026-01-10 15:37:13.97	329.17	8.96	-37.8	-39.6	14.4	0.00e+00	0	57	0	4498391040	45	4611
2026-01-10 15:37:18.01	329.53	8.68	-37.9	-39.6	14.3	3.40e-06	0	57	0	4527751168	45	4624
2026-01-10 15:37:22.04	329.88	8.40	-38.0	-39.8	14.1	3.40e-06	0	57	0	4557111296	45	4732
2026-01-10 15:37:26.08	330.23	8.12	-38.4	-40.2	13.6	8.00e-06	0	57	0	4585422848	46	4704
2026-01-10 15:37:30.13	330.58	7.84	-45.2	-55.9	3.8	8.46e-01	0	57	104	4596957184	59	13479
2026-01-10 15:37:34.17	330.91	7.56	-45.5	-56.5	3.8	8.46e-01	0	57	104	4596957184	60	13665
2026-01-10 15:37:38.20	331.24	7.29	-45.4	-56.5	3.8	8.46e-01	0	57	104	4596957184	60	13599
2026-01-10 15:37:42.24	331.57	7.02	-45.4	-56.4	3.8	8.46e-01	0	57	104	4596957184	60	13471
2026-01-10 15:37:46.28	331.89	6.75	-45.4	-56.4	3.8	8.46e-01	0	57	104	4596957184	60	13485
2026-01-10 15:37:50.32	332.20	6.48	-45.4	-56.4	3.8	8.47e-01	0	57	104	4596957184	60	13476
2026-01-10 15:37:54.37	332.51	6.22	-45.4	-56.4	3.8	8.46e-01	0	57	104	4596957184	60	13489
2026-01-10 15:37:58.41	332.81	5.96	-45.4	-56.3	3.8	8.46e-01	0	57	104	4596957184	60	13413
2026-01-10 15:38:02.45	333.11	5.69	-45.4	-56.4	3.8	8.47e-01	0	57	104	4596957184	60	13456
2026-01-10 15:38:06.50	333.41	5.44	-45.3	-56.3	3.8	8.46e-01	0	57	104	4596957184	60	13386
2026-01-10 15:38:10.54	333.70	5.18	-45.4	-56.3	3.8	8.46e-01	0	57	104	4596957184	60	13408
2026-01-10 15:38:14.59	333.98	4.92	-45.4	-56.4	3.8	8.46e-01	0	57	104	4596957184	60	13496
2026-01-10 15:38:18.63	334.26	4.67	-45.3	-56.3	3.8	8.46e-01	0	57	104	4596957184	60	13401
2026-01-10 15:38:22.67	334.53	4.42	-45.3	-56.4	3.8	8.46e-01	0	57	104	4596957184	60	13417
2026-01-10 15:38:26.72	334.81	4.17	-44.8	-55.9	3.8	8.46e-01	0	57	104	4596957184	59	13438
2026-01-10 15:38:30.76	335.07	3.92	-45.3	-56.4	3.8	8.46e-01	0	57	104	4596957184	60	13420
2026-01-10 15:38:34.81	335.33	3.68	-45.3	-56.3	3.8	8.47e-01	0	57	104	4596957184	60	13371
2026-01-10 15:38:38.85	335.59	3.43	-45.3	-56.3	3.8	8.46e-01	0	57	104	4596957184	60	13378
2026-01-10 15:38:42.90	335.85	3.19	-45.3	-56.3	3.8	8.46e-01	0	57	104	4596957184	60	13393
2026-01-10 15:38:46.94	336.10	2.95	-45.3	-56.3	3.8	8.46e-01	0	57	104	4596957184	60	13407
2026-01-10 15:38:50.99	336.35	2.71	-45.1	-56.3	3.8	8.46e-01	0	57	104	4596957184	60	13333
2026-01-10 15:38:55.03	336.59	2.47	-45.3	-56.3	3.8	8.47e-01	0	57	104	4596957184	60	13405
2026-01-10 15:38:59.07	336.83	2.24	-45.3	-56.4	3.8	8.47e-01	0	58	104	4596957184	60	13417
2026-01-10 15:39:03.12	337.06	2.00	-45.3	-56.3	3.8	8.46e-01	0	58	104	4596957184	60	13320

#Closed at: 2026-01-10 15:39:05
#Recorded file [4596 MB]: D:/lorett/data/31039_260110_182534.dat