passes_logs/2026/01/10/R2.0S_Moscow/R2.0S_Moscow__20260110_235122_AQUA_rec.log

#Pass ID: 20260110_235122_AQUA
#Satellite: AQUA
#Configuration: AQUA
#almurnet v.1.7.20251203
#Start time: 2026-01-10 23:51:24

#Version: 2.2.20231116
#Station: R2.0S_Moscow
#Location: 37.707566 lon 55.798166 lat
#TLE: 1 27424U 02022A   26009.89520876  .00001045  00000+0  21914-3 0  9996
#TLE: 2 27424  98.4076 336.2372 0002032  84.5955   1.0356 14.61811442260144

#Time	Az	El	Level	Level2	SNR	BER	BlckErr	Temp	State	Recorded	gain1	gain2
2026-01-10 23:51:24.02	27.94	2.08	-42.5	-62.7	3.8	7.45e-01	0	48	0	0	56	37160
2026-01-10 23:51:27.05	28.20	2.25	-42.3	-62.6	3.8	7.47e-01	0	48	104	0	55	38938
2026-01-10 23:51:30.08	28.46	2.42	-42.4	-62.6	3.8	7.47e-01	0	48	104	0	55	38916
2026-01-10 23:51:33.11	28.73	2.59	-42.4	-62.6	3.8	7.47e-01	0	49	104	0	55	38840
2026-01-10 23:51:36.15	29.00	2.75	-42.4	-62.6	3.8	7.47e-01	0	49	104	0	55	38926
2026-01-10 23:51:39.18	29.27	2.92	-42.4	-62.6	3.8	7.48e-01	0	49	104	0	55	38858
2026-01-10 23:51:42.21	29.55	3.09	-42.4	-62.6	3.8	7.48e-01	0	49	104	0	55	38945
2026-01-10 23:51:45.25	29.83	3.27	-42.4	-62.6	3.8	7.47e-01	0	49	104	0	55	38883
2026-01-10 23:51:48.28	30.11	3.44	-42.4	-62.6	3.8	7.45e-01	0	50	104	0	55	38858
2026-01-10 23:51:51.31	30.40	3.61	-42.4	-62.6	3.8	7.44e-01	0	50	104	0	55	38888
2026-01-10 23:51:54.35	30.69	3.78	-42.4	-62.6	3.8	7.47e-01	0	50	104	0	55	38867
2026-01-10 23:51:57.38	30.98	3.96	-42.4	-62.6	3.8	7.46e-01	0	50	104	0	55	38789
2026-01-10 23:52:00.41	31.28	4.13	-42.4	-62.6	3.8	7.44e-01	0	50	104	0	55	38907
2026-01-10 23:52:03.45	31.58	4.31	-42.4	-62.6	3.8	7.46e-01	0	50	104	0	55	38781
2026-01-10 23:52:06.48	31.88	4.48	-42.4	-62.6	3.8	7.46e-01	0	51	104	0	55	38871
2026-01-10 23:52:09.51	32.19	4.66	-42.4	-62.6	3.8	7.47e-01	0	51	104	0	55	38755
2026-01-10 23:52:12.55	32.50	4.84	-42.4	-62.6	3.8	7.47e-01	0	51	104	0	55	38814
2026-01-10 23:52:15.58	32.82	5.01	-42.4	-62.6	3.8	7.44e-01	0	51	104	0	55	38817
2026-01-10 23:52:18.61	33.14	5.19	-42.4	-62.6	3.8	7.43e-01	0	51	104	0	55	38759
2026-01-10 23:52:21.65	33.47	5.37	-42.4	-62.6	3.8	7.43e-01	0	51	104	0	55	38828
2026-01-10 23:52:24.68	33.80	5.55	-42.4	-62.6	3.8	7.45e-01	0	51	104	0	55	38823
2026-01-10 23:52:27.71	34.13	5.73	-42.4	-62.6	3.8	7.46e-01	0	52	104	0	55	38826
2026-01-10 23:52:30.74	34.47	5.91	-42.4	-62.6	3.8	7.48e-01	0	52	104	0	55	38764
2026-01-10 23:52:33.78	34.81	6.10	-42.4	-62.6	3.8	7.45e-01	0	52	104	0	55	38711
2026-01-10 23:52:36.81	35.15	6.28	-42.4	-62.6	3.8	7.44e-01	0	52	104	0	55	38742
2026-01-10 23:52:39.84	35.50	6.46	-42.4	-62.6	3.8	7.44e-01	0	52	104	0	55	38714
2026-01-10 23:52:42.87	35.86	6.64	-42.4	-62.6	3.8	7.46e-01	0	52	104	0	55	38775
2026-01-10 23:52:45.91	36.22	6.83	-42.3	-62.5	3.8	7.42e-01	0	52	104	0	55	38453
2026-01-10 23:52:48.94	36.59	7.01	-42.4	-62.5	3.8	7.42e-01	0	52	104	0	55	38640
2026-01-10 23:52:51.97	36.96	7.20	-42.3	-61.9	3.8	7.45e-01	0	53	104	0	55	35782
2026-01-10 23:52:55.01	37.33	7.39	-42.3	-60.2	3.9	7.43e-01	0	53	104	0	55	29608
2026-01-10 23:52:58.04	37.71	7.57	-42.3	-61.1	3.8	7.43e-01	0	53	104	0	55	32887
2026-01-10 23:53:01.07	38.10	7.76	-42.0	-53.5	7.8	6.52e-01	91	53	0	1048576	55	13579
2026-01-10 23:53:04.10	38.49	7.95	-40.7	-46.5	15.0	6.04e-01	0	53	0	6815744	53	6812
2026-01-10 23:53:07.13	38.88	8.13	-43.3	-54.5	6.6	6.67e-01	92	53	0	12582912	57	13607
2026-01-10 23:53:10.16	39.28	8.32	-41.3	-45.9	16.2	6.01e-01	0	53	0	16777216	53	6367
2026-01-10 23:53:13.19	39.69	8.51	-40.6	-44.5	17.6	6.03e-01	0	53	0	22020096	53	5451
2026-01-10 23:53:16.22	40.10	8.70	-40.6	-44.2	18.1	6.04e-01	0	53	0	27787264	52	5557
2026-01-10 23:53:19.25	40.52	8.89	-41.0	-44.8	17.6	6.04e-01	0	53	0	33554432	52	5983
2026-01-10 23:53:22.28	40.94	9.08	-41.0	-44.8	17.6	6.03e-01	0	54	0	39321600	52	5951
2026-01-10 23:53:25.31	41.37	9.27	-41.0	-44.9	17.5	6.03e-01	0	54	0	45088768	52	6026
2026-01-10 23:53:28.33	41.80	9.46	-40.8	-44.4	18.1	6.03e-01	0	54	0	50331648	52	5712
2026-01-10 23:53:31.36	42.25	9.65	-40.9	-44.7	17.9	6.01e-01	0	53	0	56098816	52	5864
2026-01-10 23:53:34.39	42.69	9.84	-40.5	-43.9	18.6	6.02e-01	0	54	0	61865984	52	5401
2026-01-10 23:53:37.42	43.15	10.04	-40.6	-43.9	18.8	6.02e-01	0	54	0	67633152	52	5354
2026-01-10 23:53:40.45	43.61	10.23	-40.6	-43.8	19.0	6.04e-01	0	54	0	73400320	52	5290
2026-01-10 23:53:43.48	44.07	10.42	-40.6	-43.7	19.0	6.03e-01	0	54	0	79167488	52	5278
2026-01-10 23:53:46.51	44.54	10.61	-40.6	-43.7	19.1	6.02e-01	0	54	0	84410368	52	5261
2026-01-10 23:53:49.54	45.02	10.80	-40.6	-43.7	19.2	6.04e-01	0	54	0	90177536	52	5242
2026-01-10 23:53:52.57	45.51	10.99	-40.6	-43.8	19.1	6.01e-01	0	54	0	95944704	52	5295
2026-01-10 23:53:55.60	46.00	11.19	-40.4	-43.4	19.5	6.03e-01	0	54	0	101711872	52	5092
2026-01-10 23:53:58.63	46.50	11.38	-40.4	-43.4	19.5	6.02e-01	0	54	0	107479040	52	5071
2026-01-10 23:54:01.65	47.01	11.57	-40.5	-43.5	19.6	6.03e-01	0	54	0	113246208	52	5104
2026-01-10 23:54:04.68	47.52	11.76	-40.6	-43.6	19.3	6.04e-01	0	54	0	118489088	52	5211
2026-01-10 23:54:07.71	48.04	11.95	-40.4	-43.3	19.7	6.02e-01	0	54	0	124256256	52	4999
2026-01-10 23:54:10.74	48.57	12.14	-40.3	-43.2	19.8	6.04e-01	0	54	0	130023424	52	4953
2026-01-10 23:54:13.76	49.10	12.33	-40.4	-43.2	19.5	6.03e-01	0	54	0	135790592	52	4977
2026-01-10 23:54:16.79	49.64	12.52	-40.3	-43.1	19.9	6.03e-01	0	55	0	141557760	52	4912
2026-01-10 23:54:19.83	50.19	12.71	-40.3	-43.2	19.8	6.04e-01	0	54	0	147324928	52	4946
2026-01-10 23:54:22.86	50.75	12.90	-40.3	-43.1	19.8	6.04e-01	0	54	0	152567808	52	4924
2026-01-10 23:54:25.89	51.31	13.09	-40.3	-43.0	20.0	6.03e-01	0	54	0	158334976	52	4868
2026-01-10 23:54:28.91	51.88	13.27	-40.3	-43.1	20.0	6.06e-01	0	55	0	164102144	52	4905
2026-01-10 23:54:31.94	52.46	13.46	-40.3	-43.0	20.1	6.02e-01	0	55	0	169869312	52	4830
2026-01-10 23:54:34.97	53.05	13.64	-40.2	-42.9	20.2	6.05e-01	0	55	0	175636480	52	4762
2026-01-10 23:54:38.00	53.64	13.83	-40.1	-42.8	20.3	6.04e-01	0	55	0	181403648	52	4731
2026-01-10 23:54:41.03	54.24	14.01	-40.1	-42.8	20.4	6.02e-01	0	55	0	186646528	52	4711
2026-01-10 23:54:44.05	54.85	14.19	-40.2	-42.8	20.3	6.02e-01	0	55	0	192413696	52	4744
2026-01-10 23:54:47.08	55.47	14.37	-40.0	-42.6	20.5	6.01e-01	0	55	0	198180864	52	4638
2026-01-10 23:54:50.11	56.10	14.55	-40.1	-42.7	20.4	6.03e-01	0	55	0	203948032	52	4702
2026-01-10 23:54:53.14	56.73	14.73	-40.1	-42.6	20.5	6.04e-01	0	55	0	209715200	52	4644
2026-01-10 23:54:56.17	57.37	14.90	-40.2	-42.8	20.4	6.04e-01	0	55	0	215482368	52	4726
2026-01-10 23:54:59.20	58.02	15.08	-40.1	-42.7	20.4	6.04e-01	0	55	0	220725248	52	4700
2026-01-10 23:55:02.23	58.68	15.25	-40.1	-42.7	20.5	6.03e-01	0	55	0	226492416	52	4678
2026-01-10 23:55:05.26	59.34	15.42	-40.1	-42.7	20.4	6.01e-01	0	55	0	232259584	52	4673
2026-01-10 23:55:08.28	60.02	15.58	-40.1	-42.8	20.4	6.05e-01	0	55	0	238026752	52	4719
2026-01-10 23:55:11.31	60.70	15.75	-40.0	-42.6	20.5	6.02e-01	0	55	0	243793920	52	4640
2026-01-10 23:55:14.34	61.39	15.91	-40.0	-42.6	20.5	6.02e-01	0	55	0	249561088	52	4619
2026-01-10 23:55:17.37	62.08	16.07	-40.0	-42.6	20.6	6.00e-01	0	55	0	254803968	51	4883
2026-01-10 23:55:20.39	62.79	16.23	-40.1	-42.6	20.5	6.03e-01	0	55	0	260571136	51	4915
2026-01-10 23:55:23.42	63.50	16.38	-40.0	-42.6	20.5	6.03e-01	0	55	0	266338304	51	4896
2026-01-10 23:55:26.45	64.22	16.53	-40.1	-42.8	20.3	6.02e-01	0	55	0	272105472	51	4993
2026-01-10 23:55:29.48	64.95	16.68	-40.1	-42.7	20.4	6.03e-01	0	55	0	277872640	51	4940
2026-01-10 23:55:32.51	65.68	16.82	-40.1	-42.8	20.2	6.03e-01	0	55	0	283115520	51	5024
2026-01-10 23:55:35.54	66.42	16.97	-40.1	-42.9	20.0	6.04e-01	0	55	0	288882688	51	5056
2026-01-10 23:55:38.57	67.17	17.10	-40.3	-43.2	19.4	6.02e-01	0	55	0	294649856	51	5276
2026-01-10 23:55:41.60	67.93	17.24	-40.3	-43.4	19.0	6.04e-01	0	55	0	300417024	51	5381
2026-01-10 23:55:44.63	68.69	17.37	-40.3	-43.6	18.4	6.02e-01	0	56	0	306184192	51	5523
2026-01-10 23:55:47.66	69.46	17.50	-40.4	-44.2	17.4	6.04e-01	0	55	0	311951360	51	5895
2026-01-10 23:55:50.69	70.24	17.62	-40.7	-45.2	15.9	6.03e-01	0	56	0	317718528	51	6635
2026-01-10 23:55:53.72	71.03	17.74	-40.7	-45.7	15.0	6.03e-01	0	55	0	322961408	52	6645
2026-01-10 23:55:56.75	71.82	17.85	-40.7	-45.8	15.0	6.03e-01	0	56	0	328728576	52	6670
2026-01-10 23:55:59.78	72.61	17.96	-40.7	-45.9	14.8	6.03e-01	0	56	0	334495744	52	6750
2026-01-10 23:56:02.81	73.41	18.06	-40.7	-45.7	15.0	6.04e-01	0	56	0	340262912	52	6612
2026-01-10 23:56:05.84	74.22	18.16	-40.8	-46.0	14.8	6.04e-01	0	56	0	346030080	52	6807
2026-01-10 23:56:08.87	75.04	18.26	-40.6	-45.3	15.6	6.03e-01	0	56	0	351797248	52	6337
2026-01-10 23:56:11.90	75.85	18.35	-40.6	-45.5	15.4	6.03e-01	0	56	0	357040128	52	6433
2026-01-10 23:56:14.94	76.68	18.43	-40.6	-45.2	15.9	6.01e-01	0	56	0	362807296	52	6247
2026-01-10 23:56:17.97	77.51	18.51	-40.7	-45.3	15.9	6.02e-01	0	56	0	368574464	52	6286
2026-01-10 23:56:20.99	78.34	18.59	-41.0	-46.1	14.8	6.03e-01	0	56	0	374341632	52	6951
2026-01-10 23:56:24.02	79.18	18.65	-40.8	-45.6	15.4	6.02e-01	0	56	0	380108800	52	6498
2026-01-10 23:56:27.05	80.02	18.72	-40.8	-45.1	16.3	6.03e-01	0	56	0	385875968	52	6174
2026-01-10 23:56:30.07	80.86	18.77	-40.5	-44.1	17.8	6.05e-01	0	56	0	391118848	52	5468
2026-01-10 23:56:33.10	81.71	18.83	-40.3	-43.5	18.6	6.01e-01	0	56	0	396886016	52	5147
2026-01-10 23:56:36.13	82.56	18.87	-40.4	-43.7	18.5	6.02e-01	0	56	0	402653184	52	5276
2026-01-10 23:56:39.17	83.41	18.91	-40.3	-43.7	18.5	6.04e-01	0	56	0	408420352	52	5226
2026-01-10 23:56:42.20	84.27	18.95	-40.3	-43.8	18.2	6.03e-01	0	56	0	414187520	52	5298
2026-01-10 23:56:45.23	85.13	18.97	-40.6	-44.5	17.3	6.01e-01	0	56	0	419954688	52	5723
2026-01-10 23:56:48.26	85.98	19.00	-40.8	-44.9	16.7	6.05e-01	0	56	0	425197568	52	6039
2026-01-10 23:56:51.28	86.84	19.01	-40.8	-45.1	16.3	6.04e-01	0	56	0	430964736	52	6181
2026-01-10 23:56:54.31	87.70	19.02	-40.9	-45.0	16.7	6.03e-01	0	56	0	436731904	52	6094
2026-01-10 23:56:57.34	88.56	19.03	-40.7	-44.3	17.6	6.02e-01	0	56	0	442499072	52	5650
2026-01-10 23:57:00.37	89.42	19.02	-40.6	-44.1	18.2	6.04e-01	0	56	0	448266240	52	5465
2026-01-10 23:57:03.40	90.29	19.01	-40.5	-43.5	19.1	6.02e-01	0	56	0	454033408	52	5142
2026-01-10 23:57:06.43	91.15	19.00	-40.5	-43.4	19.6	6.03e-01	0	56	0	459276288	52	5044
2026-01-10 23:57:09.46	92.01	18.98	-40.5	-43.3	19.8	6.03e-01	0	56	0	465043456	52	5007
2026-01-10 23:57:12.48	92.86	18.95	-40.3	-42.9	20.3	6.02e-01	0	56	0	470810624	52	4787
2026-01-10 23:57:15.51	93.72	18.92	-40.3	-43.0	20.4	6.03e-01	0	56	0	476577792	52	4817
2026-01-10 23:57:18.54	94.57	18.88	-40.2	-42.7	20.7	6.02e-01	0	56	0	482344960	52	4679
2026-01-10 23:57:21.57	95.42	18.84	-40.3	-42.8	20.6	6.03e-01	0	56	0	488112128	52	4725
2026-01-10 23:57:24.60	96.27	18.79	-40.4	-43.0	20.4	6.02e-01	0	56	0	493355008	52	4865
2026-01-10 23:57:27.63	97.12	18.73	-40.3	-42.8	20.6	6.02e-01	0	56	0	499122176	52	4753
2026-01-10 23:57:30.65	97.96	18.67	-40.3	-42.9	20.5	6.02e-01	0	56	0	504889344	52	4798
2026-01-10 23:57:33.68	98.80	18.60	-40.4	-42.9	20.6	6.04e-01	0	56	0	510656512	51	5075
2026-01-10 23:57:36.71	99.64	18.53	-39.3	-42.7	20.8	6.03e-01	0	56	0	516423680	51	4950
2026-01-10 23:57:39.74	100.47	18.45	-40.3	-42.9	20.6	6.03e-01	0	56	0	521666560	51	5051
2026-01-10 23:57:42.77	101.29	18.37	-40.2	-42.8	20.7	6.00e-01	0	56	0	527433728	51	5028
2026-01-10 23:57:45.80	102.12	18.28	-40.4	-42.9	20.6	6.02e-01	0	56	0	533200896	51	5096
2026-01-10 23:57:48.82	102.93	18.19	-40.5	-43.1	20.4	6.02e-01	0	56	0	538968064	51	5217
2026-01-10 23:57:51.85	103.74	18.09	-40.3	-42.8	20.7	6.04e-01	0	56	0	544735232	51	5041
2026-01-10 23:57:54.88	104.55	17.98	-40.3	-42.9	20.7	6.04e-01	0	56	0	550502400	51	5042
2026-01-10 23:57:57.91	105.35	17.87	-40.2	-42.7	20.9	6.02e-01	0	56	0	555745280	51	4940
2026-01-10 23:58:00.94	106.14	17.76	-40.4	-42.9	20.6	6.03e-01	0	56	0	561512448	51	5083
2026-01-10 23:58:03.97	106.93	17.64	-40.4	-42.9	20.6	6.01e-01	0	56	0	567279616	51	5082
2026-01-10 23:58:07.00	107.71	17.52	-40.4	-43.0	20.5	6.03e-01	0	56	0	573046784	51	5139
2026-01-10 23:58:10.03	108.49	17.40	-40.2	-42.6	20.9	6.04e-01	0	56	0	578813952	51	4926
2026-01-10 23:58:13.06	109.26	17.27	-40.3	-42.8	20.8	6.02e-01	0	56	0	584581120	51	5005
2026-01-10 23:58:16.09	110.02	17.13	-40.3	-42.9	20.6	6.05e-01	0	56	0	589824000	51	5049
2026-01-10 23:58:19.12	110.77	16.99	-40.4	-43.0	20.5	6.00e-01	0	56	0	595591168	51	5115
2026-01-10 23:58:22.15	111.52	16.85	-40.4	-43.0	20.5	6.04e-01	0	56	0	601358336	51	5131
2026-01-10 23:58:25.18	112.26	16.71	-40.4	-43.0	20.4	6.00e-01	0	56	0	607125504	51	5159
2026-01-10 23:58:28.21	112.99	16.56	-40.3	-42.8	20.4	6.05e-01	0	56	0	612892672	51	5017
2026-01-10 23:58:31.24	113.72	16.41	-40.3	-42.8	19.8	6.02e-01	0	56	0	618659840	51	5041
2026-01-10 23:58:34.27	114.44	16.25	-40.2	-42.9	19.7	6.04e-01	0	56	0	624427008	51	5053
2026-01-10 23:58:37.29	115.15	16.10	-39.0	-42.5	19.1	6.07e-01	0	56	0	629669888	49	5448
2026-01-10 23:58:40.32	115.85	15.93	-40.1	-42.8	18.0	6.04e-01	0	56	0	635437056	50	5334
2026-01-10 23:58:43.35	116.54	15.77	-39.8	-42.8	18.8	6.06e-01	0	56	0	641204224	50	5322
2026-01-10 23:58:46.38	117.23	15.61	-39.3	-42.9	18.3	6.04e-01	0	56	0	646971392	50	5359
2026-01-10 23:58:49.41	117.91	15.44	-39.9	-43.0	18.5	6.03e-01	0	56	0	652738560	50	5414
2026-01-10 23:58:52.44	118.58	15.27	-39.7	-42.9	18.4	6.06e-01	0	56	0	657981440	50	5348
2026-01-10 23:58:55.46	119.24	15.10	-39.6	-43.2	17.7	6.04e-01	0	56	0	663748608	50	5537
2026-01-10 23:58:58.49	119.89	14.92	-39.6	-43.1	13.3	6.05e-01	1	56	0	669515776	49	5831
2026-01-10 23:59:01.52	120.54	14.75	-39.3	-42.8	15.7	6.05e-01	3	56	0	675282944	48	5938
2026-01-10 23:59:04.55	121.18	14.57	-37.8	-42.1	10.1	6.23e-01	59	56	0	681050112	45	6567
2026-01-10 23:59:07.58	121.81	14.39	-38.5	-42.7	11.2	6.14e-01	13	56	0	686292992	42	8345
2026-01-10 23:59:10.61	122.43	14.21	-37.7	-42.4	13.3	6.15e-01	29	56	0	692060160	44	7172
2026-01-10 23:59:13.63	123.04	14.02	-38.4	-42.8	14.6	6.05e-01	3	56	0	697827328	47	6317
2026-01-10 23:59:16.66	123.65	13.84	-39.1	-42.7	16.6	6.06e-01	1	56	0	703594496	48	5900
2026-01-10 23:59:19.69	124.25	13.65	-38.5	-42.7	15.1	6.07e-01	3	56	0	709361664	46	6625
2026-01-10 23:59:22.72	124.84	13.47	-35.2	-42.3	14.8	6.08e-01	11	56	0	715128832	41	8397
2026-01-10 23:59:25.74	125.42	13.28	-32.7	-42.4	13.8	6.07e-01	26	56	0	720371712	38	10163
2026-01-10 23:59:28.77	126.00	13.09	-31.4	-41.3	10.5	6.38e-01	63	56	0	726138880	32	12527
2026-01-10 23:59:31.80	126.57	12.90	-30.4	-41.7	9.6	6.16e-01	36	56	0	731906048	26	18677
2026-01-10 23:59:34.83	127.13	12.71	-28.6	-41.3	8.9	6.36e-01	88	56	0	737148928	26	17742
2026-01-10 23:59:37.86	127.68	12.52	-25.6	-41.3	7.7	6.48e-01	75	56	0	742391808	23	21192
2026-01-10 23:59:40.89	128.23	12.33	-25.3	-41.0	7.8	6.43e-01	5	56	0	746061824	19	25759
2026-01-10 23:59:43.91	128.77	12.14	-18.8	-41.7	4.6	7.20e-01	0	56	104	746586112	18	29591
2026-01-10 23:59:46.94	129.30	11.95	-23.2	-39.0	4.6	7.33e-01	0	56	104	746586112	14	27210
2026-01-10 23:59:49.97	129.82	11.75	-18.7	-38.7	3.9	7.35e-01	0	57	104	746586112	9	35059
2026-01-10 23:59:53.00	130.34	11.56	-21.8	-42.6	4.2	7.42e-01	0	56	104	746586112	11	48711
2026-01-10 23:59:56.02	130.85	11.37	-19.4	-42.1	3.6	7.47e-01	0	56	104	746586112	12	43431
2026-01-10 23:59:59.05	131.35	11.18	-23.2	-39.4	4.4	7.35e-01	0	56	104	746586112	15	26870
2026-01-11 00:00:02.08	131.85	10.98	-22.7	-40.7	4.1	7.48e-01	0	56	104	746586112	14	33155
2026-01-11 00:00:05.11	132.33	10.79	-22.8	-43.9	3.6	7.46e-01	0	57	104	746586112	14	47847
2026-01-11 00:00:08.14	132.82	10.59	-21.2	-38.8	3.5	7.50e-01	0	56	104	746586112	10	33520
2026-01-11 00:00:11.17	133.29	10.40	-21.1	-40.5	4.0	7.43e-01	0	56	104	746586112	11	38339
2026-01-11 00:00:14.20	133.76	10.21	-21.3	-42.5	3.7	7.42e-01	0	57	104	746586112	15	38358
2026-01-11 00:00:17.22	134.22	10.01	-35.8	-55.0	4.1	7.52e-01	0	57	104	746586112	36	48460
2026-01-11 00:00:20.25	134.68	9.82	-29.4	-51.9	3.9	7.56e-01	0	57	104	746586112	27	57195
2026-01-11 00:00:23.28	135.13	9.63	-42.7	-61.5	4.0	7.45e-01	0	57	104	746586112	56	32501
2026-01-11 00:00:26.32	135.57	9.43	-26.8	-49.1	4.1	7.41e-01	0	57	104	746586112	28	39073
2026-01-11 00:00:29.34	136.01	9.24	-33.3	-55.6	4.1	7.46e-01	0	57	104	746586112	48	25926
2026-01-11 00:00:32.37	136.44	9.05	-43.0	-62.1	3.8	7.47e-01	0	57	104	746586112	56	34745
2026-01-11 00:00:35.40	136.87	8.86	-43.0	-62.1	3.8	7.46e-01	0	57	104	746586112	56	34728
2026-01-11 00:00:38.43	137.29	8.67	-42.6	-61.5	4.1	7.49e-01	0	57	104	746586112	53	38269
2026-01-11 00:00:41.46	137.70	8.47	-43.4	-61.3	3.8	7.47e-01	0	57	104	746586112	52	39727
2026-01-11 00:00:44.49	138.11	8.28	-42.4	-61.7	3.9	7.48e-01	0	57	104	746586112	54	37114
2026-01-11 00:00:47.53	138.51	8.09	-43.7	-61.9	3.8	7.44e-01	0	57	104	746586112	58	30174
2026-01-11 00:00:50.56	138.91	7.90	-45.1	-64.4	4.1	7.43e-01	0	57	104	746586112	60	35753
2026-01-11 00:00:53.59	139.30	7.71	-46.1	-64.9	3.8	7.46e-01	0	57	104	746586112	62	33889
2026-01-11 00:00:56.62	139.69	7.52	-46.3	-65.1	3.8	7.43e-01	0	57	104	746586112	63	32794
2026-01-11 00:00:59.66	140.07	7.33	-46.2	-65.1	3.8	7.45e-01	0	57	104	746586112	63	32653
2026-01-11 00:01:02.69	140.45	7.15	-46.1	-65.0	3.8	7.45e-01	0	57	104	746586112	63	32205
2026-01-11 00:01:05.72	140.82	6.96	-46.0	-64.8	3.8	7.46e-01	0	57	104	746586112	63	31773
2026-01-11 00:01:08.75	141.19	6.77	-46.0	-64.8	3.8	7.44e-01	0	57	104	746586112	63	31787
2026-01-11 00:01:11.79	141.55	6.59	-46.0	-64.9	3.8	7.42e-01	0	57	104	746586112	63	31848
2026-01-11 00:01:14.82	141.91	6.40	-46.0	-64.9	3.8	7.46e-01	0	57	104	746586112	63	31830
2026-01-11 00:01:17.85	142.26	6.22	-45.9	-64.9	3.8	7.45e-01	0	57	104	746586112	63	31830
2026-01-11 00:01:20.89	142.61	6.03	-46.0	-64.9	3.8	7.45e-01	0	57	104	746586112	63	31869
2026-01-11 00:01:23.92	142.95	5.85	-46.0	-64.8	3.8	7.43e-01	0	57	104	746586112	63	31772
2026-01-11 00:01:26.95	143.29	5.66	-46.0	-64.8	3.8	7.48e-01	0	57	104	746586112	63	31765
2026-01-11 00:01:29.99	143.62	5.48	-45.9	-64.8	3.8	7.46e-01	0	57	104	746586112	63	31772
2026-01-11 00:01:33.02	143.95	5.30	-45.9	-64.9	3.8	7.46e-01	0	57	104	746586112	63	31825
2026-01-11 00:01:36.05	144.27	5.12	-45.9	-64.8	3.8	7.45e-01	0	57	104	746586112	63	31697
2026-01-11 00:01:39.09	144.60	4.94	-45.9	-64.8	3.8	7.49e-01	0	57	104	746586112	63	31752
2026-01-11 00:01:42.12	144.91	4.76	-45.9	-64.8	3.8	7.45e-01	0	57	104	746586112	63	31787
2026-01-11 00:01:45.15	145.23	4.58	-45.9	-64.8	3.8	7.45e-01	0	57	104	746586112	63	31734
2026-01-11 00:01:48.19	145.53	4.40	-45.9	-64.8	3.8	7.47e-01	0	57	104	746586112	63	31712
2026-01-11 00:01:51.22	145.84	4.22	-45.9	-64.8	3.8	7.43e-01	0	57	104	746586112	63	31795
2026-01-11 00:01:54.25	146.14	4.05	-45.9	-64.8	3.8	7.44e-01	0	57	104	746586112	63	31650
2026-01-11 00:01:57.28	146.44	3.87	-45.9	-64.8	3.8	7.47e-01	0	57	104	746586112	63	31645
2026-01-11 00:02:00.32	146.73	3.69	-45.9	-64.8	3.8	7.45e-01	0	57	104	746586112	63	31690
2026-01-11 00:02:03.35	147.02	3.52	-45.9	-64.8	3.8	7.45e-01	0	57	104	746586112	63	31728
2026-01-11 00:02:06.38	147.31	3.34	-45.9	-64.8	3.8	7.44e-01	0	57	104	746586112	63	31769
2026-01-11 00:02:09.42	147.59	3.17	-45.9	-64.8	3.8	7.47e-01	0	57	104	746586112	63	31741
2026-01-11 00:02:12.45	147.87	3.00	-45.9	-64.8	3.8	7.44e-01	0	57	104	746586112	63	31734
2026-01-11 00:02:15.48	148.14	2.82	-45.9	-64.8	3.8	7.45e-01	0	57	104	746586112	63	31698
2026-01-11 00:02:18.52	148.41	2.65	-45.9	-64.8	3.8	7.48e-01	0	57	104	746586112	63	31730
2026-01-11 00:02:21.55	148.68	2.48	-45.9	-64.8	3.8	7.47e-01	0	57	104	746586112	63	31794
2026-01-11 00:02:24.58	148.95	2.31	-45.9	-64.8	3.8	7.48e-01	0	57	104	746586112	63	31670
2026-01-11 00:02:27.62	149.21	2.14	-45.9	-64.8	3.8	7.45e-01	0	57	104	746586112	63	31704
2026-01-11 00:02:30.65	149.47	1.97	-45.9	-64.8	3.8	7.43e-01	0	57	104	746586112	63	31707

#Closed at: 2026-01-11 00:02:31
#Recorded file [746 MB]: D:/lorett/data/31039_260111_025123.dat