passes_logs/2026/01/10/R2.0S_Moscow/R2.0S_Moscow__20260110_101959_FENGYUN_3D_rec.log

#Pass ID: 20260110_101959_FENGYUN 3D
#Satellite: FENGYUN 3D
#Configuration: FENGYUN 3D
#almurnet v.1.7.20251203
#Start time: 2026-01-10 10:19:58

#Version: 2.2.20231116
#Station: R2.0S_Moscow
#Location: 37.707566 lon 55.798166 lat
#TLE: 1 43010U 17072A   26009.29492227  .00000158  00000+0  96483-4 0  9996
#TLE: 2 43010  98.9936 341.0229 0002153 117.3665 242.7729 14.19694440422446

#Time	Az	El	Level	Level2	SNR	BER	BlckErr	Temp	State	Recorded	gain1	gain2
2026-01-10 10:19:58.74	113.00	1.97	-41.9	-53.9	3.8	8.46e-01	0	47	0	0	54	15188
2026-01-10 10:20:01.75	112.80	2.14	-41.2	-53.7	3.9	8.47e-01	0	47	104	0	53	15723
2026-01-10 10:20:04.78	112.60	2.31	-41.5	-53.8	3.9	8.46e-01	0	48	104	0	53	15768
2026-01-10 10:20:07.81	112.40	2.49	-41.8	-53.9	3.8	8.46e-01	0	48	104	0	54	15151
2026-01-10 10:20:10.84	112.20	2.66	-41.2	-53.6	3.9	8.46e-01	0	48	104	0	53	15560
2026-01-10 10:20:13.86	111.99	2.83	-41.7	-53.9	3.8	8.46e-01	0	48	104	0	53	16039
2026-01-10 10:20:16.89	111.79	3.01	-42.0	-53.8	3.8	8.46e-01	0	48	104	0	53	15815
2026-01-10 10:20:19.92	111.57	3.19	-42.2	-53.8	3.9	8.45e-01	0	48	104	0	51	17729
2026-01-10 10:20:22.95	111.36	3.36	-37.8	-52.5	3.9	8.47e-01	0	49	104	0	40	28985
2026-01-10 10:20:25.97	111.14	3.54	-39.4	-53.7	3.8	8.46e-01	0	49	104	0	53	15694
2026-01-10 10:20:29.00	110.93	3.72	-41.6	-53.9	3.8	8.47e-01	0	49	104	0	54	15216
2026-01-10 10:20:32.02	110.70	3.90	-42.6	-54.3	3.7	8.46e-01	0	49	104	0	54	15849
2026-01-10 10:20:35.05	110.48	4.08	-41.1	-53.7	3.8	8.45e-01	0	49	104	0	53	15690
2026-01-10 10:20:38.08	110.25	4.26	-41.8	-53.8	3.8	8.45e-01	0	49	104	0	53	15861
2026-01-10 10:20:41.10	110.02	4.44	-41.7	-54.0	3.9	8.45e-01	0	50	104	0	54	15229
2026-01-10 10:20:44.13	109.79	4.63	-42.1	-53.5	3.8	8.45e-01	0	50	104	0	50	18180
2026-01-10 10:20:47.16	109.55	4.81	-41.0	-53.8	3.8	8.46e-01	0	50	104	0	52	16839
2026-01-10 10:20:50.19	109.31	5.00	-42.0	-53.8	3.8	8.47e-01	0	50	104	0	53	15763
2026-01-10 10:20:53.22	109.07	5.18	-33.2	-50.9	3.6	8.46e-01	0	50	104	0	42	21295
2026-01-10 10:20:56.25	108.82	5.37	-38.3	-52.8	4.0	8.47e-01	0	50	104	0	52	14953
2026-01-10 10:20:59.27	108.57	5.55	-37.3	-52.2	3.9	8.46e-01	0	51	104	0	42	24952
2026-01-10 10:21:02.30	108.32	5.74	-39.4	-52.2	3.9	8.46e-01	0	51	104	0	38	31205
2026-01-10 10:21:05.32	108.07	5.93	-37.8	-52.2	3.9	8.45e-01	0	51	104	0	41	26201
2026-01-10 10:21:08.35	107.81	6.12	-40.4	-53.5	4.0	8.45e-01	0	51	104	0	52	16150
2026-01-10 10:21:11.38	107.54	6.31	-41.2	-53.4	3.9	8.46e-01	0	51	104	0	52	16006
2026-01-10 10:21:14.40	107.28	6.50	-34.0	-51.9	3.9	8.45e-01	0	51	104	0	51	14345
2026-01-10 10:21:17.43	107.01	6.69	-39.1	-52.9	3.9	8.45e-01	0	52	104	0	51	16113
2026-01-10 10:21:20.45	106.73	6.88	-40.3	-53.6	3.8	8.45e-01	0	52	104	0	48	20602
2026-01-10 10:21:23.48	106.46	7.08	-41.2	-52.7	4.0	8.46e-01	0	52	104	0	42	26194
2026-01-10 10:21:26.51	106.17	7.27	-40.8	-50.2	4.0	8.41e-01	0	52	0	0	50	12513
2026-01-10 10:21:29.53	105.89	7.47	-40.5	-45.9	6.6	3.28e-01	0	52	0	4194304	50	7606
2026-01-10 10:21:32.56	105.60	7.66	-37.6	-42.0	10.1	4.49e-02	0	52	0	19922944	46	6079
2026-01-10 10:21:35.59	105.31	7.86	-37.6	-40.5	12.1	1.81e-02	0	52	0	37748736	45	5418
2026-01-10 10:21:38.62	105.01	8.06	-42.6	-52.5	3.9	1.17e-01	0	52	104	53477376	55	12108
2026-01-10 10:21:41.64	104.71	8.25	-39.5	-45.4	7.8	1.31e-01	0	52	0	58720256	51	6760
2026-01-10 10:21:44.66	104.40	8.45	-35.7	-40.2	11.8	1.48e-02	0	52	0	72351744	42	6236
2026-01-10 10:21:47.68	104.10	8.65	-27.0	-39.1	7.5	2.09e-01	0	52	0	88080384	25	14656
2026-01-10 10:21:50.70	103.78	8.85	-34.4	-40.4	10.7	1.67e-02	0	53	0	103809024	38	8012
2026-01-10 10:21:53.72	103.46	9.05	-35.8	-40.2	10.8	3.56e-01	0	53	0	120586240	39	7432
2026-01-10 10:21:56.75	103.14	9.26	-37.1	-40.4	11.8	1.17e-02	0	53	0	137363456	41	6756
2026-01-10 10:21:59.77	102.81	9.46	-36.4	-40.0	11.6	1.84e-02	0	53	0	154140672	41	6482
2026-01-10 10:22:02.80	102.48	9.66	-31.5	-39.7	11.2	2.78e-02	0	53	0	170917888	39	6981
2026-01-10 10:22:05.83	102.14	9.87	-27.3	-37.4	7.1	1.42e-01	0	53	0	187695104	28	10076
2026-01-10 10:22:08.86	101.80	10.07	-35.6	-41.6	9.7	9.25e-02	0	53	0	204472320	41	7726
2026-01-10 10:22:11.88	101.45	10.28	-34.8	-40.9	9.9	7.83e-02	0	53	0	220200960	41	7123
2026-01-10 10:22:14.90	101.10	10.48	-35.8	-41.0	8.7	1.18e-01	0	53	0	236978176	36	9653
2026-01-10 10:22:17.93	100.75	10.69	-35.9	-42.6	7.5	4.51e-01	0	53	0	250609664	41	8729
2026-01-10 10:22:20.95	100.38	10.90	-36.1	-41.8	8.4	2.21e-01	0	53	0	265289728	41	7926
2026-01-10 10:22:23.97	100.02	11.11	-33.7	-37.8	7.4	1.21e-01	0	54	0	279969792	30	9442
2026-01-10 10:22:26.99	99.65	11.32	-35.5	-39.5	11.5	4.15e-02	0	54	0	296747008	41	6063
2026-01-10 10:22:30.01	99.27	11.52	-35.0	-39.3	11.4	4.12e-02	0	54	0	313524224	39	6708
2026-01-10 10:22:33.03	98.89	11.73	-35.7	-39.2	12.1	1.60e-02	0	54	0	330301440	39	6634
2026-01-10 10:22:36.05	98.50	11.94	-35.7	-39.0	12.9	2.76e-01	0	54	0	346030080	41	5739
2026-01-10 10:22:39.08	98.10	12.16	-36.4	-38.8	14.1	2.56e-03	0	54	0	362807296	43	5020
2026-01-10 10:22:42.10	97.70	12.37	-36.6	-38.7	14.6	2.36e-04	0	54	0	380633088	43	4934
2026-01-10 10:22:45.12	97.30	12.58	-35.8	-38.6	13.7	1.26e-03	0	54	0	397410304	41	5516
2026-01-10 10:22:48.14	96.88	12.79	-36.9	-38.9	15.0	2.20e-06	0	54	0	414187520	44	4788
2026-01-10 10:22:51.16	96.47	13.00	-37.0	-39.0	15.0	0.00e+00	0	54	0	430964736	44	4829
2026-01-10 10:22:54.19	96.04	13.22	-37.1	-39.0	14.9	0.00e+00	0	54	0	448790528	44	4861
2026-01-10 10:22:57.21	95.61	13.43	-37.1	-39.0	15.0	0.00e+00	0	54	0	465567744	44	4828
2026-01-10 10:23:00.24	95.17	13.65	-36.7	-38.5	15.4	0.00e+00	0	54	0	482344960	44	4597
2026-01-10 10:23:03.27	94.73	13.86	-36.6	-38.4	15.6	0.00e+00	0	54	0	499122176	44	4524
2026-01-10 10:23:06.30	94.28	14.07	-36.6	-38.4	15.6	0.00e+00	0	55	0	516947968	44	4532
2026-01-10 10:23:09.32	93.82	14.29	-36.6	-38.4	15.6	0.00e+00	0	54	0	533725184	44	4535
2026-01-10 10:23:12.34	93.36	14.50	-36.5	-38.3	15.8	0.00e+00	0	54	0	550502400	44	4451
2026-01-10 10:23:15.36	92.89	14.72	-36.5	-38.3	15.8	0.00e+00	0	55	0	567279616	44	4448
2026-01-10 10:23:18.38	92.41	14.93	-36.5	-38.2	15.8	0.00e+00	0	55	0	584056832	44	4433
2026-01-10 10:23:21.40	91.93	15.14	-36.4	-38.1	15.9	0.00e+00	0	55	0	601882624	44	4367
2026-01-10 10:23:24.42	91.43	15.36	-36.5	-38.3	15.5	0.00e+00	0	55	0	618659840	44	4493
2026-01-10 10:23:27.44	90.94	15.57	-36.6	-38.4	15.4	0.00e+00	0	55	0	635437056	44	4539
2026-01-10 10:23:30.46	90.43	15.78	-36.6	-38.5	15.2	0.00e+00	0	55	0	652214272	44	4571
2026-01-10 10:23:33.48	89.92	16.00	-36.4	-38.2	15.5	0.00e+00	0	55	0	668991488	44	4426
2026-01-10 10:23:36.50	89.40	16.21	-36.4	-38.2	15.2	0.00e+00	0	55	0	686817280	44	4434
2026-01-10 10:23:39.52	88.87	16.42	-36.9	-38.9	14.4	1.10e-06	0	55	0	703594496	44	4801
2026-01-10 10:23:42.53	88.34	16.63	-37.1	-39.2	14.0	0.00e+00	0	55	0	720371712	44	4974
2026-01-10 10:23:45.55	87.80	16.84	-37.2	-39.4	13.8	2.20e-06	0	55	0	737148928	44	5055
2026-01-10 10:23:48.57	87.25	17.05	-37.2	-39.5	13.4	6.80e-06	0	55	0	753926144	44	5101
2026-01-10 10:23:51.59	86.69	17.25	-37.2	-39.5	13.2	1.25e-05	0	55	0	771751936	45	4866
2026-01-10 10:23:54.62	86.12	17.46	-37.3	-39.7	13.1	1.94e-05	0	55	0	788529152	45	4935
2026-01-10 10:23:57.64	85.55	17.67	-37.1	-39.4	13.4	4.50e-06	0	55	0	805306368	45	4806
2026-01-10 10:24:00.67	84.96	17.87	-36.8	-39.0	13.8	3.40e-06	0	55	0	822083584	45	4584
2026-01-10 10:24:03.69	84.38	18.08	-36.5	-38.6	14.3	0.00e+00	0	55	0	838860800	45	4361
2026-01-10 10:24:06.71	83.78	18.28	-36.5	-38.5	14.6	0.00e+00	0	55	0	856686592	44	4549
2026-01-10 10:24:09.73	83.17	18.48	-36.2	-38.1	15.2	0.00e+00	0	55	0	873463808	44	4363
2026-01-10 10:24:12.75	82.56	18.68	-36.2	-38.0	15.3	0.00e+00	0	55	0	890241024	44	4326
2026-01-10 10:24:15.77	81.94	18.87	-36.2	-38.1	15.3	0.00e+00	0	55	0	907018240	44	4344
2026-01-10 10:24:18.79	81.31	19.07	-36.4	-38.3	15.0	0.00e+00	0	55	0	923795456	44	4469
2026-01-10 10:24:21.82	80.67	19.26	-36.5	-38.5	14.6	0.00e+00	0	55	0	941621248	44	4598
2026-01-10 10:24:24.84	80.02	19.45	-36.8	-39.0	14.0	0.00e+00	0	55	0	958398464	44	4817
2026-01-10 10:24:27.86	79.37	19.64	-37.0	-39.3	13.6	6.80e-06	0	55	0	975175680	45	4718
2026-01-10 10:24:30.89	78.71	19.82	-36.8	-39.0	13.9	2.20e-06	0	55	0	991952896	45	4581
2026-01-10 10:24:33.92	78.03	20.01	-36.5	-38.5	14.6	1.10e-06	0	55	0	1008730112	45	4317
2026-01-10 10:24:36.95	77.35	20.19	-36.1	-38.0	15.4	0.00e+00	0	55	0	1026555904	44	4315
2026-01-10 10:24:39.98	76.67	20.36	-35.6	-37.3	15.9	0.00e+00	0	56	0	1043333120	43	4215
2026-01-10 10:24:43.00	75.97	20.54	-35.6	-37.3	16.0	0.00e+00	0	56	0	1060110336	43	4222
2026-01-10 10:24:46.03	75.27	20.71	-35.8	-37.6	15.8	0.00e+00	0	56	0	1076887552	43	4347
2026-01-10 10:24:49.05	74.56	20.87	-35.6	-37.3	16.2	0.00e+00	0	56	0	1094713344	43	4205
2026-01-10 10:24:52.08	73.84	21.04	-35.6	-37.3	16.2	0.00e+00	0	56	0	1111490560	43	4242
2026-01-10 10:24:55.11	73.11	21.19	-35.4	-37.0	16.6	0.00e+00	0	56	0	1128267776	42	4324
2026-01-10 10:24:58.14	72.38	21.35	-35.3	-36.9	16.7	0.00e+00	0	56	0	1146093568	42	4249
2026-01-10 10:25:01.17	71.64	21.50	-35.2	-36.8	16.8	0.00e+00	0	56	0	1162870784	42	4222
2026-01-10 10:25:04.19	70.89	21.65	-35.1	-36.7	17.1	0.00e+00	0	56	0	1179648000	42	4153
2026-01-10 10:25:07.21	70.14	21.79	-35.1	-36.7	17.3	0.00e+00	0	56	0	1196425216	42	4166
2026-01-10 10:25:10.23	69.38	21.93	-34.8	-36.3	17.8	0.00e+00	0	56	0	1213202432	41	4220
2026-01-10 10:25:13.27	68.61	22.06	-34.7	-36.2	18.0	0.00e+00	0	56	0	1231028224	41	4148
2026-01-10 10:25:16.29	67.83	22.19	-34.7	-36.1	18.1	0.00e+00	0	56	0	1247805440	41	4131
2026-01-10 10:25:19.31	67.05	22.31	-34.8	-36.2	18.1	0.00e+00	0	56	0	1264582656	41	4178
2026-01-10 10:25:22.34	66.26	22.43	-34.8	-36.2	18.1	0.00e+00	0	56	0	1281359872	41	4173
2026-01-10 10:25:25.36	65.47	22.55	-34.9	-36.4	18.0	0.00e+00	0	56	0	1298137088	41	4247
2026-01-10 10:25:28.38	64.68	22.65	-34.8	-36.3	18.1	0.00e+00	0	56	0	1315962880	41	4196
2026-01-10 10:25:31.41	63.87	22.76	-34.6	-36.0	18.3	0.00e+00	0	56	0	1332740096	41	4079
2026-01-10 10:25:34.43	63.06	22.85	-34.6	-36.0	18.4	0.00e+00	0	56	0	1349517312	41	4057
2026-01-10 10:25:37.45	62.25	22.94	-34.2	-35.5	18.8	0.00e+00	0	56	0	1366294528	40	4097
2026-01-10 10:25:40.47	61.43	23.03	-34.1	-35.5	18.9	0.00e+00	0	56	0	1383071744	40	4056
2026-01-10 10:25:43.49	60.61	23.10	-34.3	-35.7	18.7	0.00e+00	0	56	0	1400897536	40	4168
2026-01-10 10:25:46.52	59.78	23.18	-34.4	-35.8	18.6	0.00e+00	0	56	0	1417674752	40	4197
2026-01-10 10:25:49.54	58.95	23.24	-34.5	-35.9	18.5	0.00e+00	0	56	0	1434451968	40	4271
2026-01-10 10:25:52.56	58.12	23.30	-34.2	-35.6	18.9	0.00e+00	0	56	0	1451229184	40	4101
2026-01-10 10:25:55.58	57.29	23.36	-34.3	-35.6	18.8	0.00e+00	0	56	0	1468006400	40	4124
2026-01-10 10:25:58.61	56.44	23.40	-34.3	-35.7	18.7	0.00e+00	0	56	0	1485832192	40	4157
2026-01-10 10:26:01.64	55.60	23.44	-34.3	-35.6	18.8	0.00e+00	0	56	0	1502609408	40	4130
2026-01-10 10:26:04.67	54.76	23.48	-34.1	-35.5	19.0	0.00e+00	0	56	0	1519386624	40	4066
2026-01-10 10:26:07.70	53.91	23.50	-34.3	-35.5	19.4	0.00e+00	0	56	0	1537212416	40	4059
2026-01-10 10:26:10.73	53.06	23.52	-34.5	-35.7	19.2	0.00e+00	0	56	0	1553989632	40	4161
2026-01-10 10:26:13.75	52.22	23.54	-34.4	-35.6	19.3	0.00e+00	0	56	0	1570766848	40	4111
2026-01-10 10:26:16.78	51.37	23.54	-34.5	-35.7	19.2	0.00e+00	0	56	0	1587544064	40	4160
2026-01-10 10:26:19.80	50.52	23.54	-34.5	-35.7	19.2	0.00e+00	0	56	0	1605369856	40	4160
2026-01-10 10:26:22.83	49.67	23.54	-34.5	-35.7	19.2	0.00e+00	0	56	0	1622147072	40	4163
2026-01-10 10:26:25.85	48.83	23.52	-34.3	-35.5	19.4	0.00e+00	0	56	0	1638924288	40	4052
2026-01-10 10:26:28.87	47.98	23.50	-34.5	-35.7	19.2	0.00e+00	0	56	0	1655701504	40	4159
2026-01-10 10:26:31.90	47.13	23.48	-34.5	-35.7	19.2	0.00e+00	0	56	0	1672478720	40	4171
2026-01-10 10:26:34.92	46.29	23.44	-34.4	-35.6	19.3	0.00e+00	0	56	0	1690304512	40	4103
2026-01-10 10:26:37.94	45.45	23.40	-34.4	-35.6	19.3	0.00e+00	0	56	0	1707081728	40	4120
2026-01-10 10:26:40.97	44.61	23.36	-34.6	-35.8	19.1	0.00e+00	0	56	0	1723858944	40	4212
2026-01-10 10:26:44.00	43.78	23.30	-34.3	-35.5	19.4	0.00e+00	0	56	0	1740636160	40	4069
2026-01-10 10:26:47.02	42.94	23.24	-34.5	-35.8	19.1	0.00e+00	0	56	0	1757413376	40	4194
2026-01-10 10:26:50.05	42.11	23.18	-34.4	-35.6	19.3	0.00e+00	0	56	0	1775239168	40	4127
2026-01-10 10:26:53.07	41.29	23.10	-34.5	-35.8	19.1	0.00e+00	0	56	0	1792016384	40	4196
2026-01-10 10:26:56.10	40.47	23.03	-34.5	-35.7	19.2	0.00e+00	0	56	0	1808793600	40	4172
2026-01-10 10:26:59.12	39.65	22.94	-34.6	-35.8	19.1	0.00e+00	0	56	0	1825570816	40	4227
2026-01-10 10:27:02.14	38.84	22.85	-34.6	-35.9	19.1	0.00e+00	0	56	0	1843396608	40	4245
2026-01-10 10:27:05.16	38.03	22.76	-34.4	-35.6	19.3	0.00e+00	0	56	0	1860173824	40	4120
2026-01-10 10:27:08.18	37.23	22.65	-34.6	-35.8	19.1	0.00e+00	0	56	0	1876951040	40	4225
2026-01-10 10:27:11.21	36.43	22.55	-34.6	-35.8	19.1	0.00e+00	0	56	0	1893728256	40	4214
2026-01-10 10:27:14.23	35.64	22.43	-34.6	-35.8	19.1	0.00e+00	0	56	0	1910505472	40	4228
2026-01-10 10:27:17.25	34.86	22.32	-34.7	-35.9	19.0	0.00e+00	0	56	0	1928331264	40	4280
2026-01-10 10:27:20.27	34.08	22.19	-34.5	-35.7	19.2	0.00e+00	0	56	0	1945108480	40	4188
2026-01-10 10:27:23.29	33.31	22.07	-34.7	-35.9	19.0	0.00e+00	0	56	0	1961885696	40	4272
2026-01-10 10:27:26.32	32.54	21.93	-34.7	-35.9	19.0	0.00e+00	0	56	0	1978662912	40	4277
2026-01-10 10:27:29.35	31.78	21.79	-34.9	-36.2	18.7	0.00e+00	0	56	0	1996488704	40	4409
2026-01-10 10:27:32.37	31.03	21.65	-34.8	-36.0	18.9	0.00e+00	0	56	0	2013265920	40	4336
2026-01-10 10:27:35.40	30.28	21.50	-34.9	-36.2	18.7	0.00e+00	0	56	0	2030043136	40	4413
2026-01-10 10:27:38.42	29.55	21.35	-34.7	-35.9	19.0	0.00e+00	0	56	0	2046820352	40	4287
2026-01-10 10:27:41.44	28.82	21.20	-34.7	-36.0	19.0	0.00e+00	0	56	0	2064646144	40	4298
2026-01-10 10:27:44.46	28.09	21.04	-34.7	-36.0	19.0	0.00e+00	0	56	0	2081423360	40	4296
2026-01-10 10:27:47.48	27.38	20.88	-35.0	-36.2	18.7	0.00e+00	0	56	0	2098200576	40	4441
2026-01-10 10:27:50.50	26.67	20.71	-34.9	-36.1	18.8	0.00e+00	0	56	0	2114977792	40	4388
2026-01-10 10:27:53.52	25.97	20.54	-35.2	-36.5	18.4	0.00e+00	0	56	0	2131755008	40	4576
2026-01-10 10:27:56.54	25.28	20.37	-35.3	-36.6	18.4	0.00e+00	0	56	0	2149580800	41	4357
2026-01-10 10:27:59.56	24.60	20.19	-35.2	-36.5	18.4	0.00e+00	0	56	0	2166358016	41	4316
2026-01-10 10:28:02.58	23.92	20.02	-35.1	-36.4	18.5	0.00e+00	0	56	0	2183135232	41	4245
2026-01-10 10:28:05.60	23.25	19.83	-35.3	-36.6	18.3	0.00e+00	0	56	0	2199912448	41	4387
2026-01-10 10:28:08.63	22.59	19.65	-35.5	-36.8	18.1	0.00e+00	0	56	0	2216689664	41	4448
2026-01-10 10:28:11.65	21.94	19.46	-35.7	-37.0	17.9	0.00e+00	0	56	0	2234515456	41	4595
2026-01-10 10:28:14.68	21.30	19.27	-35.6	-36.9	18.0	0.00e+00	0	56	0	2251292672	41	4515
2026-01-10 10:28:17.71	20.66	19.08	-35.8	-37.1	17.7	0.00e+00	0	56	0	2268069888	42	4387
2026-01-10 10:28:20.74	20.03	18.89	-35.7	-37.0	17.9	0.00e+00	0	56	0	2284847104	42	4324
2026-01-10 10:28:23.76	19.41	18.69	-35.6	-37.0	17.9	0.00e+00	0	56	0	2301624320	42	4299
2026-01-10 10:28:26.78	18.80	18.49	-35.8	-37.2	17.7	0.00e+00	0	56	0	2319450112	42	4398
2026-01-10 10:28:29.80	18.20	18.29	-35.6	-37.0	17.9	0.00e+00	0	56	0	2336227328	42	4303
2026-01-10 10:28:32.83	17.60	18.09	-35.8	-37.2	17.7	0.00e+00	0	56	0	2353004544	42	4400
2026-01-10 10:28:35.85	17.01	17.89	-35.7	-37.0	17.9	0.00e+00	0	56	0	2369781760	42	4331
2026-01-10 10:28:38.87	16.44	17.69	-35.7	-37.0	17.9	0.00e+00	0	56	0	2386558976	42	4319
2026-01-10 10:28:41.89	15.87	17.48	-35.7	-37.0	17.8	0.00e+00	0	56	0	2404384768	42	4321
2026-01-10 10:28:44.91	15.30	17.28	-35.7	-37.1	17.7	0.00e+00	0	56	0	2421161984	42	4367
2026-01-10 10:28:47.93	14.75	17.07	-35.8	-37.2	17.6	0.00e+00	0	56	0	2437939200	42	4416
2026-01-10 10:28:50.94	14.20	16.86	-35.9	-37.3	17.5	0.00e+00	0	57	0	2454716416	42	4463
2026-01-10 10:28:53.96	13.66	16.65	-36.1	-37.5	17.3	0.00e+00	0	56	0	2471493632	42	4581
2026-01-10 10:28:56.98	13.13	16.44	-36.2	-37.7	17.1	0.00e+00	0	56	0	2489319424	42	4655
2026-01-10 10:29:00.00	12.60	16.23	-36.2	-37.7	17.1	0.00e+00	0	56	0	2506096640	42	4654
2026-01-10 10:29:03.02	12.09	16.02	-36.2	-37.7	17.0	0.00e+00	0	56	0	2522873856	43	4410
2026-01-10 10:29:06.04	11.58	15.81	-36.1	-37.5	17.2	0.00e+00	0	57	0	2539651072	43	4333
2026-01-10 10:29:09.06	11.08	15.60	-36.1	-37.6	17.1	0.00e+00	0	56	0	2556428288	43	4357
2026-01-10 10:29:12.09	10.58	15.38	-36.3	-37.7	16.9	0.00e+00	0	56	0	2574254080	43	4433
2026-01-10 10:29:15.11	10.09	15.17	-36.4	-37.9	16.7	0.00e+00	0	56	0	2591031296	43	4511
2026-01-10 10:29:18.13	9.61	14.96	-36.4	-37.9	16.6	0.00e+00	0	56	0	2607808512	43	4534
2026-01-10 10:29:21.16	9.13	14.74	-36.3	-37.8	16.6	0.00e+00	0	56	0	2624585728	43	4487
2026-01-10 10:29:24.17	8.67	14.53	-36.3	-37.9	16.5	0.00e+00	0	57	0	2641362944	43	4495
2026-01-10 10:29:27.19	8.21	14.32	-36.5	-38.1	16.2	0.00e+00	0	56	0	2659188736	43	4625
2026-01-10 10:29:30.22	7.75	14.10	-36.5	-38.1	16.2	0.00e+00	0	56	0	2675965952	43	4623
2026-01-10 10:29:33.24	7.31	13.89	-36.4	-38.0	16.1	0.00e+00	0	56	0	2692743168	43	4568
2026-01-10 10:29:36.27	6.86	13.68	-37.1	-38.9	15.1	0.00e+00	0	56	0	2709520384	44	4812
2026-01-10 10:29:39.30	6.43	13.46	-36.6	-38.4	15.4	0.00e+00	0	56	0	2727346176	44	4499
2026-01-10 10:29:42.33	6.00	13.25	-36.7	-38.5	15.0	0.00e+00	0	56	0	2744123392	44	4586
2026-01-10 10:29:45.36	5.58	13.04	-36.8	-38.8	14.6	0.00e+00	0	56	0	2760900608	44	4719
2026-01-10 10:29:48.39	5.16	12.83	-36.3	-38.1	15.2	0.00e+00	0	56	0	2778726400	44	4363
2026-01-10 10:29:51.43	4.75	12.61	-37.8	-40.4	12.4	3.31e-05	0	56	0	2795503616	46	5085
2026-01-10 10:29:54.46	4.34	12.40	-40.5	-46.2	6.1	2.51e-01	0	56	0	2812280832	51	7428
2026-01-10 10:29:57.48	3.95	12.19	-40.9	-51.0	3.8	8.45e-01	0	57	104	2814377984	52	12175
2026-01-10 10:30:00.52	3.55	11.98	-40.6	-51.8	3.8	8.46e-01	0	57	104	2814377984	52	13349
2026-01-10 10:30:03.55	3.17	11.77	-40.6	-52.0	3.8	8.46e-01	0	57	104	2814377984	52	13689
2026-01-10 10:30:06.58	2.78	11.56	-40.3	-51.9	3.8	8.45e-01	0	57	104	2814377984	52	13551
2026-01-10 10:30:09.62	2.41	11.35	-40.4	-52.1	3.8	8.46e-01	0	56	104	2814377984	52	13851
2026-01-10 10:30:12.65	2.04	11.14	-40.1	-51.7	3.8	8.46e-01	0	57	104	2814377984	51	13920
2026-01-10 10:30:15.68	1.67	10.93	-39.9	-51.6	3.8	8.46e-01	0	57	104	2814377984	51	13742
2026-01-10 10:30:18.71	1.31	10.72	-39.8	-51.5	3.8	8.45e-01	0	57	104	2814377984	51	13617
2026-01-10 10:30:21.74	0.96	10.52	-39.8	-51.6	3.8	8.45e-01	0	57	104	2814377984	51	13763
2026-01-10 10:30:24.77	0.61	10.31	-39.9	-51.6	3.8	8.45e-01	0	57	104	2814377984	51	13756
2026-01-10 10:30:27.79	0.27	10.11	-40.0	-51.7	3.8	8.47e-01	0	57	104	2814377984	51	13964
2026-01-10 10:30:30.81	359.93	9.90	-39.8	-51.5	3.8	8.48e-01	0	57	104	2814377984	51	13723
2026-01-10 10:30:33.84	359.59	9.70	-39.9	-51.6	3.8	8.47e-01	0	57	104	2814377984	50	14646
2026-01-10 10:30:36.88	359.26	9.49	-39.5	-51.5	3.8	8.46e-01	0	57	104	2814377984	50	14495
2026-01-10 10:30:39.91	358.94	9.29	-39.5	-51.4	3.8	8.46e-01	0	57	104	2814377984	50	14340
2026-01-10 10:30:42.94	358.62	9.09	-39.3	-51.5	3.8	8.46e-01	0	57	104	2814377984	50	14464
2026-01-10 10:30:45.97	358.30	8.89	-38.8	-51.4	3.8	8.47e-01	0	57	104	2814377984	49	15105
2026-01-10 10:30:49.00	357.99	8.69	-39.4	-51.4	3.8	8.46e-01	0	57	104	2814377984	49	15144
2026-01-10 10:30:52.02	357.68	8.49	-39.2	-51.4	3.8	8.46e-01	0	57	104	2814377984	49	15210
2026-01-10 10:30:55.04	357.38	8.29	-39.1	-51.3	3.8	8.46e-01	0	57	104	2814377984	49	15048
2026-01-10 10:30:58.07	357.08	8.09	-38.9	-51.4	3.8	8.46e-01	0	57	104	2814377984	49	15163
2026-01-10 10:31:01.11	356.79	7.90	-43.3	-54.9	3.8	8.46e-01	0	57	104	2814377984	57	14369
2026-01-10 10:31:04.14	356.50	7.70	-45.0	-56.8	3.8	8.46e-01	0	57	104	2814377984	60	15011
2026-01-10 10:31:07.17	356.21	7.50	-45.2	-57.1	3.8	8.47e-01	0	57	104	2814377984	60	15411
2026-01-10 10:31:10.21	355.93	7.31	-45.2	-57.0	3.8	8.47e-01	0	57	104	2814377984	61	14497
2026-01-10 10:31:13.24	355.65	7.12	-45.1	-56.9	3.8	8.46e-01	0	57	104	2814377984	61	14360
2026-01-10 10:31:16.27	355.38	6.92	-45.0	-56.9	3.8	8.46e-01	0	57	104	2814377984	61	14342
2026-01-10 10:31:19.30	355.11	6.73	-45.0	-56.9	3.8	8.46e-01	0	57	104	2814377984	61	14297
2026-01-10 10:31:22.33	354.84	6.54	-44.9	-56.8	3.8	8.46e-01	0	57	104	2814377984	61	14155
2026-01-10 10:31:25.36	354.58	6.35	-45.0	-56.9	3.8	8.46e-01	0	57	104	2814377984	61	14252
2026-01-10 10:31:28.39	354.32	6.16	-45.0	-56.8	3.8	8.46e-01	0	57	104	2814377984	61	14192
2026-01-10 10:31:31.42	354.06	5.97	-45.0	-56.8	3.8	8.47e-01	0	57	104	2814377984	61	14197
2026-01-10 10:31:34.45	353.81	5.78	-45.0	-56.9	3.8	8.46e-01	0	57	104	2814377984	61	14210
2026-01-10 10:31:37.48	353.56	5.59	-45.0	-56.8	3.8	8.46e-01	0	57	104	2814377984	61	14197
2026-01-10 10:31:40.52	353.31	5.41	-45.0	-56.9	3.8	8.47e-01	0	57	104	2814377984	61	14232
2026-01-10 10:31:43.55	353.07	5.22	-45.0	-56.8	3.8	8.46e-01	0	57	104	2814377984	61	14143
2026-01-10 10:31:46.58	352.83	5.04	-45.0	-56.9	3.8	8.46e-01	0	57	104	2814377984	61	14233
2026-01-10 10:31:49.61	352.59	4.85	-45.0	-56.8	3.8	8.47e-01	0	57	104	2814377984	61	14177
2026-01-10 10:31:52.64	352.36	4.67	-45.0	-56.9	3.8	8.45e-01	0	57	104	2814377984	61	14225
2026-01-10 10:31:55.68	352.13	4.49	-45.0	-56.8	3.8	8.46e-01	0	57	104	2814377984	61	14198
2026-01-10 10:31:58.71	351.90	4.30	-44.9	-56.8	3.8	8.46e-01	0	57	104	2814377984	61	14166
2026-01-10 10:32:01.74	351.68	4.12	-45.0	-56.8	3.8	8.46e-01	0	57	104	2814377984	61	14177
2026-01-10 10:32:04.77	351.45	3.94	-45.0	-56.8	3.8	8.47e-01	0	57	104	2814377984	61	14170
2026-01-10 10:32:07.81	351.24	3.76	-45.0	-56.8	3.8	8.46e-01	0	57	104	2814377984	61	14161
2026-01-10 10:32:10.84	351.02	3.58	-45.0	-56.8	3.8	8.46e-01	0	57	104	2814377984	61	14167
2026-01-10 10:32:13.87	350.81	3.41	-45.0	-56.8	3.8	8.46e-01	0	57	104	2814377984	61	14186
2026-01-10 10:32:16.90	350.60	3.23	-45.0	-56.8	3.8	8.46e-01	0	57	104	2814377984	61	14186
2026-01-10 10:32:19.93	350.39	3.05	-45.0	-56.8	3.8	8.47e-01	0	57	104	2814377984	60	15017
2026-01-10 10:32:22.97	350.18	2.88	-45.0	-56.8	3.8	8.46e-01	0	57	104	2814377984	60	15040
2026-01-10 10:32:26.00	349.98	2.70	-45.0	-56.8	3.8	8.46e-01	0	57	104	2814377984	60	14986
2026-01-10 10:32:29.03	349.78	2.53	-45.0	-56.8	3.8	8.45e-01	0	57	104	2814377984	60	15017
2026-01-10 10:32:32.07	349.58	2.36	-45.0	-56.8	3.8	8.47e-01	0	57	104	2814377984	60	15010
2026-01-10 10:32:35.10	349.39	2.18	-45.0	-56.8	3.8	8.44e-01	0	57	104	2814377984	60	15008
2026-01-10 10:32:38.13	349.19	2.01	-45.0	-56.8	3.8	8.47e-01	0	57	104	2814377984	60	15004

#Closed at: 2026-01-10 10:32:40
#Recorded file [2814 MB]: D:/lorett/data/31039_260110_131958.dat