passes_logs/2026/01/10/R2.0S_Moscow/R2.0S_Moscow__20260110_134043_FENGYUN_3D_rec.log

#Pass ID: 20260110_134043_FENGYUN 3D
#Satellite: FENGYUN 3D
#Configuration: FENGYUN 3D
#almurnet v.1.7.20251203
#Start time: 2026-01-10 13:40:45

#Version: 2.2.20231116
#Station: R2.0S_Moscow
#Location: 37.707566 lon 55.798166 lat
#TLE: 1 43010U 17072A   26009.85873963 -.00000290  00000+0 -11536-3 0  9992
#TLE: 2 43010  98.9936 341.5952 0002172 116.8419 243.2979 14.19692971422525

#Time	Az	El	Level	Level2	SNR	BER	BlckErr	Temp	State	Recorded	gain1	gain2
2026-01-10 13:40:45.83	213.39	2.11	-43.8	-55.4	3.8	8.46e-01	0	46	0	0	59	13537
2026-01-10 13:40:48.86	213.63	2.27	-43.8	-55.4	3.8	8.46e-01	0	47	104	0	59	13544
2026-01-10 13:40:51.89	213.88	2.43	-43.8	-55.4	3.8	8.45e-01	0	47	104	0	59	13528
2026-01-10 13:40:54.93	214.13	2.59	-43.8	-55.4	3.8	8.46e-01	0	47	104	0	59	13509
2026-01-10 13:40:57.96	214.38	2.75	-43.8	-55.4	3.8	8.46e-01	0	47	104	0	59	13523
2026-01-10 13:41:00.99	214.64	2.91	-43.8	-55.4	3.8	8.47e-01	0	48	104	0	59	13568
2026-01-10 13:41:04.03	214.89	3.08	-43.8	-55.4	3.8	8.46e-01	0	48	104	0	59	13517
2026-01-10 13:41:07.06	215.15	3.24	-43.8	-55.4	3.8	8.46e-01	0	48	104	0	59	13519
2026-01-10 13:41:10.09	215.42	3.40	-43.8	-55.4	3.8	8.46e-01	0	48	104	0	59	13530
2026-01-10 13:41:13.13	215.68	3.57	-43.8	-55.4	3.8	8.46e-01	0	48	104	0	59	13518
2026-01-10 13:41:16.16	215.95	3.73	-43.8	-55.4	3.8	8.47e-01	0	49	104	0	59	13494
2026-01-10 13:41:19.19	216.23	3.90	-43.8	-55.4	3.8	8.45e-01	0	49	104	0	59	13483
2026-01-10 13:41:22.23	216.50	4.06	-43.8	-55.4	3.8	8.46e-01	0	49	104	0	59	13480
2026-01-10 13:41:25.25	216.78	4.23	-43.8	-55.4	3.8	8.46e-01	0	49	104	0	59	13464
2026-01-10 13:41:28.28	217.06	4.39	-43.8	-55.4	3.8	8.45e-01	0	49	104	0	59	13507
2026-01-10 13:41:31.32	217.34	4.56	-43.8	-55.4	3.8	8.46e-01	0	49	104	0	59	13498
2026-01-10 13:41:34.35	217.63	4.72	-43.8	-55.4	3.8	8.46e-01	0	50	104	0	59	13421
2026-01-10 13:41:37.38	217.92	4.89	-43.8	-55.3	3.8	8.46e-01	0	50	104	0	59	13414
2026-01-10 13:41:40.42	218.22	5.06	-43.8	-55.4	3.8	8.46e-01	0	50	104	0	59	13534
2026-01-10 13:41:43.45	218.51	5.23	-43.8	-55.4	3.8	8.47e-01	0	50	104	0	59	13471
2026-01-10 13:41:46.48	218.81	5.40	-43.8	-55.4	3.8	8.45e-01	0	50	104	0	59	13455
2026-01-10 13:41:49.52	219.12	5.57	-43.8	-55.4	3.8	8.45e-01	0	50	104	0	59	13440
2026-01-10 13:41:52.55	219.42	5.74	-43.8	-55.4	3.8	8.46e-01	0	51	104	0	59	13477
2026-01-10 13:41:55.58	219.73	5.91	-43.8	-55.4	3.8	8.47e-01	0	51	104	0	59	13498
2026-01-10 13:41:58.62	220.05	6.08	-43.8	-55.2	3.8	8.47e-01	0	51	104	0	59	13168
2026-01-10 13:42:01.65	220.37	6.25	-43.7	-54.1	3.8	8.46e-01	0	51	104	0	59	11607
2026-01-10 13:42:04.68	220.69	6.42	-43.4	-52.2	4.1	8.43e-01	0	51	104	0	58	9936
2026-01-10 13:42:07.72	221.01	6.59	-43.2	-51.0	4.4	8.26e-01	0	51	0	0	58	8657
2026-01-10 13:42:10.75	221.34	6.76	-43.1	-50.4	4.7	8.07e-01	0	51	0	0	58	8026
2026-01-10 13:42:13.78	221.67	6.93	-42.9	-49.4	5.2	7.59e-01	0	52	0	0	57	7603
2026-01-10 13:42:16.81	222.01	7.11	-42.5	-48.3	6.1	3.87e-01	0	51	0	3145728	57	6665
2026-01-10 13:42:19.85	222.35	7.28	-41.5	-45.8	8.1	9.41e-02	0	52	0	20971520	55	5631
2026-01-10 13:42:22.88	222.70	7.45	-40.0	-42.9	11.3	2.18e-03	0	52	0	37748736	51	5057
2026-01-10 13:42:25.92	223.04	7.63	-38.6	-40.9	13.4	4.00e-05	0	52	0	54525952	49	4499
2026-01-10 13:42:28.95	223.40	7.80	-37.7	-39.6	14.6	0.00e+00	0	52	0	71303168	47	4369
2026-01-10 13:42:31.98	223.75	7.97	-38.4	-40.6	13.6	8.00e-06	0	52	0	89128960	47	4894
2026-01-10 13:42:35.01	224.11	8.15	-37.8	-39.8	14.4	3.23e-01	0	52	0	97517568	47	4474
2026-01-10 13:42:38.04	224.48	8.32	-41.8	-46.1	8.1	1.88e-02	0	52	0	110100480	54	6182
2026-01-10 13:42:41.06	224.84	8.50	-37.8	-39.8	14.5	0.00e+00	0	52	0	127926272	47	4453
2026-01-10 13:42:44.09	225.22	8.67	-37.8	-39.7	14.6	0.00e+00	0	52	0	144703488	47	4411
2026-01-10 13:42:47.12	225.59	8.85	-37.6	-39.5	14.9	0.00e+00	0	53	0	161480704	47	4301
2026-01-10 13:42:50.15	225.98	9.02	-37.2	-38.9	15.5	0.00e+00	0	53	0	178257920	46	4261
2026-01-10 13:42:53.18	226.36	9.20	-37.2	-38.9	15.5	0.00e+00	0	53	0	196083712	46	4263
2026-01-10 13:42:56.21	226.75	9.37	-37.2	-38.9	15.5	0.00e+00	0	53	0	212860928	46	4270
2026-01-10 13:42:59.24	227.15	9.55	-37.3	-39.1	15.3	0.00e+00	0	53	0	229638144	46	4379
2026-01-10 13:43:02.27	227.55	9.72	-37.5	-39.3	15.2	0.00e+00	0	53	0	246415360	46	4464
2026-01-10 13:43:05.30	227.95	9.90	-37.4	-39.2	15.3	0.00e+00	0	53	0	264241152	46	4426
2026-01-10 13:43:08.33	228.36	10.07	-37.3	-39.1	15.4	0.00e+00	0	53	0	281018368	46	4356
2026-01-10 13:43:11.36	228.77	10.25	-37.4	-39.1	15.4	0.00e+00	0	53	0	297795584	46	4379
2026-01-10 13:43:14.38	229.19	10.42	-37.4	-39.1	15.4	0.00e+00	0	53	0	314572800	46	4374
2026-01-10 13:43:17.41	229.61	10.60	-37.3	-39.0	15.6	0.00e+00	0	53	0	332398592	46	4308
2026-01-10 13:43:20.44	230.04	10.77	-37.1	-38.7	15.9	0.00e+00	0	53	0	349175808	46	4179
2026-01-10 13:43:23.47	230.48	10.95	-37.0	-38.6	15.9	0.00e+00	0	53	0	365953024	46	4140
2026-01-10 13:43:26.50	230.92	11.12	-37.1	-38.7	15.8	0.00e+00	0	53	0	382730240	45	4437
2026-01-10 13:43:29.53	231.36	11.30	-36.7	-38.3	16.3	0.00e+00	0	54	0	400556032	45	4215
2026-01-10 13:43:32.56	231.81	11.47	-36.6	-38.1	16.5	0.00e+00	0	54	0	417333248	45	4140
2026-01-10 13:43:35.60	232.26	11.65	-36.9	-38.5	16.1	0.00e+00	0	54	0	434110464	45	4300
2026-01-10 13:43:38.62	232.72	11.82	-36.9	-38.5	16.1	0.00e+00	0	54	0	450887680	45	4315
2026-01-10 13:43:41.65	233.18	11.99	-36.9	-38.5	16.1	0.00e+00	0	54	0	468713472	45	4332
2026-01-10 13:43:44.68	233.65	12.16	-37.1	-38.7	16.0	0.00e+00	0	54	0	485490688	45	4419
2026-01-10 13:43:47.71	234.13	12.34	-37.1	-38.7	15.9	0.00e+00	0	54	0	502267904	45	4438
2026-01-10 13:43:50.73	234.61	12.51	-36.9	-38.6	16.1	0.00e+00	0	54	0	519045120	45	4348
2026-01-10 13:43:53.76	235.09	12.68	-36.9	-38.5	16.2	0.00e+00	0	54	0	536870912	45	4320
2026-01-10 13:43:56.79	235.59	12.85	-36.9	-38.5	16.2	0.00e+00	0	54	0	553648128	45	4331
2026-01-10 13:43:59.82	236.08	13.02	-36.8	-38.4	16.3	0.00e+00	0	54	0	570425344	45	4279
2026-01-10 13:44:02.85	236.59	13.19	-36.5	-38.0	16.7	0.00e+00	0	54	0	587202560	44	4309
2026-01-10 13:44:05.87	237.09	13.35	-36.8	-38.4	16.4	0.00e+00	0	54	0	603979776	44	4504
2026-01-10 13:44:08.91	237.61	13.52	-36.6	-38.1	16.7	0.00e+00	0	54	0	621805568	44	4345
2026-01-10 13:44:11.94	238.13	13.68	-36.6	-38.2	16.6	0.00e+00	0	54	0	638582784	44	4392
2026-01-10 13:44:14.97	238.65	13.85	-36.6	-38.1	16.7	0.00e+00	0	54	0	655360000	44	4345
2026-01-10 13:44:18.00	239.18	14.01	-36.3	-37.8	17.0	0.00e+00	0	54	0	673185792	44	4201
2026-01-10 13:44:21.02	239.72	14.17	-36.2	-37.6	17.2	0.00e+00	0	54	0	689963008	44	4133
2026-01-10 13:44:24.05	240.26	14.34	-36.3	-37.8	17.0	0.00e+00	0	54	0	706740224	44	4199
2026-01-10 13:44:27.08	240.81	14.49	-36.4	-37.9	16.9	0.00e+00	0	54	0	723517440	44	4270
2026-01-10 13:44:30.12	241.36	14.65	-36.5	-37.9	16.9	0.00e+00	0	54	0	741343232	44	4285
2026-01-10 13:44:33.15	241.92	14.81	-36.2	-37.7	17.1	0.00e+00	0	54	0	758120448	44	4161
2026-01-10 13:44:36.17	242.48	14.96	-36.1	-37.6	17.2	0.00e+00	0	54	0	774897664	44	4110
2026-01-10 13:44:39.20	243.05	15.12	-36.1	-37.6	17.2	0.00e+00	0	54	0	791674880	44	4109
2026-01-10 13:44:42.23	243.63	15.27	-36.1	-37.5	17.3	0.00e+00	0	54	0	809500672	44	4068
2026-01-10 13:44:45.26	244.21	15.42	-36.3	-37.8	17.0	0.00e+00	0	55	0	826277888	44	4205
2026-01-10 13:44:48.30	244.80	15.57	-36.3	-37.8	17.1	0.00e+00	0	54	0	843055104	44	4197
2026-01-10 13:44:51.33	245.39	15.71	-36.1	-37.5	17.3	0.00e+00	0	55	0	860880896	44	4081
2026-01-10 13:44:54.36	245.99	15.86	-35.7	-37.1	17.5	0.00e+00	0	55	0	877658112	43	4132
2026-01-10 13:44:57.38	246.60	16.00	-35.7	-37.1	17.5	0.00e+00	0	55	0	894435328	43	4133
2026-01-10 13:45:00.41	247.21	16.14	-35.9	-37.3	17.4	0.00e+00	0	55	0	911212544	43	4231
2026-01-10 13:45:03.44	247.82	16.28	-35.6	-37.0	17.6	0.00e+00	0	55	0	927989760	43	4079
2026-01-10 13:45:06.47	248.44	16.41	-35.6	-37.0	17.6	0.00e+00	0	55	0	945815552	43	4076
2026-01-10 13:45:09.50	249.07	16.54	-35.7	-37.1	17.5	0.00e+00	0	55	0	962592768	43	4133
2026-01-10 13:45:12.53	249.70	16.67	-35.8	-37.2	17.5	0.00e+00	0	55	0	979369984	43	4156
2026-01-10 13:45:15.56	250.34	16.80	-35.7	-37.1	17.6	0.00e+00	0	55	0	996147200	43	4101
2026-01-10 13:45:18.59	250.98	16.93	-35.5	-36.9	17.7	0.00e+00	0	55	0	1013972992	43	4032
2026-01-10 13:45:21.62	251.63	17.05	-35.4	-36.8	17.9	0.00e+00	0	55	0	1030750208	42	4218
2026-01-10 13:45:24.65	252.28	17.17	-35.7	-37.1	17.6	0.00e+00	0	55	0	1047527424	42	4342
2026-01-10 13:45:27.68	252.93	17.28	-35.6	-36.9	17.7	0.00e+00	0	55	0	1065353216	42	4291
2026-01-10 13:45:30.72	253.60	17.40	-35.5	-36.9	17.8	0.00e+00	0	55	0	1082130432	42	4243
2026-01-10 13:45:33.75	254.27	17.50	-35.5	-36.9	17.8	0.00e+00	0	55	0	1098907648	42	4246
2026-01-10 13:45:36.78	254.94	17.61	-35.4	-36.7	17.9	0.00e+00	0	55	0	1115684864	42	4182
2026-01-10 13:45:39.80	255.61	17.71	-35.4	-36.7	18.0	0.00e+00	0	55	0	1132462080	42	4180
2026-01-10 13:45:42.83	256.29	17.81	-35.4	-36.7	18.0	0.00e+00	0	55	0	1150287872	42	4173
2026-01-10 13:45:45.86	256.98	17.91	-35.2	-36.5	18.2	0.00e+00	0	55	0	1167065088	42	4069
2026-01-10 13:45:48.89	257.66	18.00	-35.3	-36.6	18.1	0.00e+00	0	55	0	1183842304	42	4135
2026-01-10 13:45:51.92	258.36	18.09	-35.3	-36.6	18.1	0.00e+00	0	55	0	1200619520	42	4140
2026-01-10 13:45:54.95	259.05	18.17	-35.2	-36.5	18.2	0.00e+00	0	55	0	1218445312	42	4087
2026-01-10 13:45:57.98	259.75	18.25	-35.2	-36.5	18.2	0.00e+00	0	55	0	1235222528	42	4089
2026-01-10 13:46:01.01	260.46	18.33	-35.2	-36.5	18.2	0.00e+00	0	55	0	1251999744	42	4090
2026-01-10 13:46:04.04	261.16	18.40	-35.3	-36.6	18.0	0.00e+00	0	55	0	1269825536	42	4142
2026-01-10 13:46:07.07	261.87	18.47	-35.3	-36.7	18.1	0.00e+00	0	55	0	1286602752	42	4163
2026-01-10 13:46:10.10	262.59	18.54	-35.2	-36.5	18.2	0.00e+00	0	55	0	1303379968	42	4095
2026-01-10 13:46:13.13	263.30	18.60	-35.1	-36.4	18.3	0.00e+00	0	55	0	1320157184	42	4032
2026-01-10 13:46:16.17	264.02	18.66	-35.1	-36.4	18.3	0.00e+00	0	55	0	1336934400	42	4043
2026-01-10 13:46:19.20	264.74	18.71	-35.2	-36.5	18.3	0.00e+00	0	55	0	1354760192	42	4056
2026-01-10 13:46:22.23	265.47	18.75	-35.3	-36.6	18.2	0.00e+00	0	55	0	1371537408	42	4103
2026-01-10 13:46:25.25	266.19	18.80	-35.0	-36.3	18.5	0.00e+00	0	55	0	1388314624	42	3975
2026-01-10 13:46:28.28	266.92	18.84	-35.2	-36.5	18.3	0.00e+00	0	55	0	1406140416	42	4068
2026-01-10 13:46:31.31	267.65	18.87	-35.1	-36.4	18.3	0.00e+00	0	55	0	1422917632	42	4030
2026-01-10 13:46:34.34	268.38	18.90	-35.2	-36.5	18.3	0.00e+00	0	55	0	1439694848	42	4057
2026-01-10 13:46:37.37	269.11	18.93	-34.9	-36.2	18.5	0.00e+00	0	55	0	1456472064	41	4180
2026-01-10 13:46:40.40	269.84	18.95	-34.9	-36.2	18.5	0.00e+00	0	55	0	1474297856	41	4165
2026-01-10 13:46:43.42	270.57	18.96	-35.0	-36.3	18.4	0.00e+00	0	55	0	1491075072	41	4205
2026-01-10 13:46:46.45	271.31	18.98	-35.0	-36.3	18.4	0.00e+00	0	55	0	1507852288	41	4202
2026-01-10 13:46:49.48	272.04	18.98	-35.1	-36.4	18.4	0.00e+00	0	55	0	1524629504	41	4253
2026-01-10 13:46:52.51	272.78	18.99	-35.0	-36.3	18.4	0.00e+00	0	55	0	1541406720	41	4199
2026-01-10 13:46:55.54	273.51	18.98	-35.0	-36.3	18.4	0.00e+00	0	55	0	1559232512	41	4203
2026-01-10 13:46:58.57	274.25	18.98	-35.1	-36.5	18.2	0.00e+00	0	55	0	1576009728	41	4295
2026-01-10 13:47:01.59	274.98	18.97	-35.0	-36.3	18.4	0.00e+00	0	55	0	1592786944	41	4204
2026-01-10 13:47:04.62	275.71	18.95	-35.1	-36.4	18.3	0.00e+00	0	55	0	1609564160	41	4290
2026-01-10 13:47:07.65	276.44	18.93	-35.1	-36.4	18.3	0.00e+00	0	55	0	1627389952	41	4276
2026-01-10 13:47:10.68	277.17	18.90	-35.1	-36.5	18.2	0.00e+00	0	55	0	1644167168	41	4292
2026-01-10 13:47:13.71	277.90	18.88	-35.3	-36.6	18.1	0.00e+00	0	55	0	1660944384	41	4362
2026-01-10 13:47:16.74	278.63	18.84	-35.2	-36.5	18.2	0.00e+00	0	55	0	1678770176	41	4317
2026-01-10 13:47:19.77	279.36	18.80	-35.1	-36.3	18.3	0.00e+00	0	56	0	1695547392	41	4239
2026-01-10 13:47:22.80	280.08	18.76	-35.0	-36.3	18.3	0.00e+00	0	55	0	1712324608	41	4238
2026-01-10 13:47:25.83	280.81	18.71	-35.0	-36.3	18.4	0.00e+00	0	56	0	1729101824	41	4230
2026-01-10 13:47:28.86	281.53	18.66	-35.3	-36.7	18.0	0.00e+00	0	55	0	1745879040	41	4399
2026-01-10 13:47:31.89	282.25	18.61	-35.4	-36.8	17.8	0.00e+00	0	56	0	1763704832	41	4470
2026-01-10 13:47:34.92	282.96	18.55	-35.4	-36.7	17.9	0.00e+00	0	56	0	1780482048	41	4432
2026-01-10 13:47:37.95	283.67	18.48	-35.6	-37.0	17.6	0.00e+00	0	56	0	1797259264	41	4566
2026-01-10 13:47:40.99	284.38	18.41	-35.8	-37.2	17.5	0.00e+00	0	56	0	1815085056	42	4411
2026-01-10 13:47:44.01	285.09	18.34	-35.6	-37.1	17.6	0.00e+00	0	56	0	1831862272	42	4342
2026-01-10 13:47:47.04	285.79	18.27	-35.5	-36.8	17.8	0.00e+00	0	55	0	1848639488	42	4231
2026-01-10 13:47:50.07	286.49	18.19	-35.5	-36.9	17.7	0.00e+00	0	55	0	1865416704	42	4264
2026-01-10 13:47:53.10	287.18	18.10	-35.5	-36.9	17.8	0.00e+00	0	55	0	1883242496	42	4247
2026-01-10 13:47:56.13	287.87	18.01	-35.5	-36.9	17.7	0.00e+00	0	56	0	1900019712	42	4271
2026-01-10 13:47:59.16	288.56	17.92	-35.6	-37.1	17.6	0.00e+00	0	56	0	1916796928	42	4342
2026-01-10 13:48:02.19	289.24	17.83	-35.7	-37.1	17.6	0.00e+00	0	56	0	1933574144	42	4357
2026-01-10 13:48:05.21	289.92	17.73	-35.5	-36.9	17.7	0.00e+00	0	56	0	1950351360	42	4276
2026-01-10 13:48:08.24	290.60	17.63	-35.5	-36.9	17.7	0.00e+00	0	56	0	1968177152	42	4271
2026-01-10 13:48:11.27	291.26	17.52	-35.6	-37.0	17.6	0.00e+00	0	55	0	1984954368	42	4306
2026-01-10 13:48:14.30	291.93	17.41	-35.7	-37.1	17.5	0.00e+00	0	56	0	2001731584	42	4390
2026-01-10 13:48:17.33	292.59	17.30	-35.7	-37.1	17.5	0.00e+00	0	56	0	2019557376	42	4366
2026-01-10 13:48:20.36	293.25	17.19	-35.6	-37.0	17.7	0.00e+00	0	56	0	2036334592	42	4295
2026-01-10 13:48:23.39	293.90	17.07	-35.6	-37.0	17.6	0.00e+00	0	56	0	2053111808	42	4335
2026-01-10 13:48:26.42	294.54	16.95	-35.8	-37.2	17.4	0.00e+00	0	56	0	2069889024	42	4418
2026-01-10 13:48:29.45	295.18	16.83	-35.8	-37.2	17.4	0.00e+00	0	56	0	2087714816	42	4435
2026-01-10 13:48:32.47	295.82	16.70	-35.9	-37.4	17.3	0.00e+00	0	56	0	2104492032	42	4495
2026-01-10 13:48:35.50	296.44	16.57	-36.2	-37.7	17.0	0.00e+00	0	56	0	2121269248	42	4658
2026-01-10 13:48:38.54	297.07	16.44	-36.0	-37.5	17.2	0.00e+00	0	56	0	2138046464	42	4549
2026-01-10 13:48:41.57	297.69	16.31	-36.0	-37.4	17.2	0.00e+00	0	56	0	2154823680	42	4536
2026-01-10 13:48:44.60	298.30	16.17	-36.1	-37.6	17.1	0.00e+00	0	56	0	2172649472	42	4607
2026-01-10 13:48:47.62	298.91	16.03	-36.1	-37.6	17.1	0.00e+00	0	56	0	2189426688	42	4605
2026-01-10 13:48:50.65	299.51	15.89	-36.2	-37.7	16.9	0.00e+00	0	56	0	2206203904	42	4669
2026-01-10 13:48:53.68	300.11	15.75	-36.1	-37.6	17.0	0.00e+00	0	56	0	2224029696	42	4611
2026-01-10 13:48:56.71	300.70	15.61	-36.0	-37.4	17.2	0.00e+00	0	56	0	2240806912	42	4517
2026-01-10 13:48:59.74	301.29	15.46	-36.1	-37.6	17.0	0.00e+00	0	56	0	2257584128	42	4615
2026-01-10 13:49:02.77	301.87	15.31	-36.1	-37.6	17.0	0.00e+00	0	56	0	2274361344	42	4635
2026-01-10 13:49:05.80	302.44	15.16	-36.1	-37.6	17.0	0.00e+00	0	56	0	2292187136	43	4371
2026-01-10 13:49:08.83	303.01	15.01	-36.3	-37.8	16.7	0.00e+00	0	56	0	2308964352	43	4483
2026-01-10 13:49:11.85	303.57	14.85	-36.4	-37.9	16.7	0.00e+00	0	56	0	2325741568	43	4533
2026-01-10 13:49:14.88	304.13	14.70	-36.6	-38.2	16.4	0.00e+00	0	56	0	2342518784	43	4689
2026-01-10 13:49:17.91	304.68	14.54	-36.5	-38.0	16.5	0.00e+00	0	56	0	2359296000	43	4586
2026-01-10 13:49:20.94	305.23	14.39	-36.4	-38.0	16.6	0.00e+00	0	56	0	2377121792	43	4564
2026-01-10 13:49:23.97	305.77	14.23	-36.5	-38.1	16.5	0.00e+00	0	56	0	2393899008	43	4601
2026-01-10 13:49:27.00	306.30	14.07	-36.6	-38.2	16.3	0.00e+00	0	56	0	2410676224	43	4680
2026-01-10 13:49:30.02	306.83	13.90	-36.7	-38.3	16.2	0.00e+00	0	56	0	2427453440	43	4727
2026-01-10 13:49:33.05	307.36	13.74	-37.0	-38.6	16.1	0.00e+00	0	56	0	2445279232	44	4641
2026-01-10 13:49:36.08	307.87	13.58	-37.0	-38.6	16.1	0.00e+00	0	56	0	2462056448	44	4627
2026-01-10 13:49:39.11	308.39	13.41	-37.0	-38.7	16.0	0.00e+00	0	56	0	2478833664	44	4656
2026-01-10 13:49:42.14	308.89	13.25	-37.1	-38.7	15.9	0.00e+00	0	56	0	2496659456	44	4685
2026-01-10 13:49:45.17	309.39	13.08	-37.1	-38.8	15.9	0.00e+00	0	56	0	2513436672	44	4719
2026-01-10 13:49:48.20	309.89	12.91	-37.0	-38.7	15.9	0.00e+00	0	56	0	2530213888	44	4673
2026-01-10 13:49:51.23	310.38	12.74	-36.9	-38.5	16.2	0.00e+00	0	56	0	2546991104	44	4562
2026-01-10 13:49:54.26	310.87	12.58	-36.9	-38.5	16.1	0.00e+00	0	56	0	2563768320	44	4592
2026-01-10 13:49:57.29	311.35	12.41	-37.2	-38.9	15.7	0.00e+00	0	56	0	2581594112	44	4777
2026-01-10 13:50:00.31	311.82	12.24	-37.2	-38.9	15.7	0.00e+00	0	56	0	2598371328	45	4534
2026-01-10 13:50:03.35	312.29	12.07	-37.1	-38.7	15.8	0.00e+00	0	56	0	2615148544	45	4432
2026-01-10 13:50:06.38	312.75	11.89	-37.2	-38.9	15.7	0.00e+00	0	56	0	2632974336	45	4526
2026-01-10 13:50:09.41	313.21	11.72	-37.2	-38.9	15.6	0.00e+00	0	56	0	2649751552	45	4527
2026-01-10 13:50:12.44	313.66	11.55	-37.5	-39.3	15.3	0.00e+00	0	56	0	2666528768	45	4727
2026-01-10 13:50:15.47	314.11	11.38	-37.5	-39.4	15.2	0.00e+00	0	56	0	2683305984	45	4761
2026-01-10 13:50:18.50	314.56	11.21	-37.4	-39.1	15.4	0.00e+00	0	56	0	2701131776	45	4627
2026-01-10 13:50:21.53	314.99	11.03	-37.6	-39.3	15.2	0.00e+00	0	56	0	2717908992	45	4757
2026-01-10 13:50:24.56	315.43	10.86	-37.5	-39.2	15.3	0.00e+00	0	56	0	2734686208	45	4704
2026-01-10 13:50:27.59	315.85	10.69	-37.5	-39.2	15.3	0.00e+00	0	56	0	2751463424	45	4700
2026-01-10 13:50:30.62	316.28	10.51	-37.7	-39.5	15.0	0.00e+00	0	56	0	2768240640	45	4844
2026-01-10 13:50:33.64	316.69	10.34	-37.5	-39.3	15.2	0.00e+00	0	56	0	2786066432	46	4484
2026-01-10 13:50:36.67	317.11	10.17	-37.4	-39.2	15.3	0.00e+00	0	56	0	2802843648	46	4404
2026-01-10 13:50:39.70	317.52	9.99	-37.4	-39.1	15.4	0.00e+00	0	56	0	2819620864	46	4364
2026-01-10 13:50:42.74	317.92	9.82	-37.4	-39.1	15.4	0.00e+00	0	56	0	2837446656	46	4381
2026-01-10 13:50:45.77	318.32	9.65	-37.7	-39.5	14.9	0.00e+00	0	56	0	2854223872	46	4595
2026-01-10 13:50:48.79	318.72	9.47	-37.8	-39.6	14.8	1.10e-06	0	56	0	2871001088	46	4644
2026-01-10 13:50:51.82	319.11	9.30	-37.7	-39.5	14.9	1.10e-06	0	56	0	2887778304	46	4580
2026-01-10 13:50:54.85	319.49	9.13	-38.0	-39.9	14.5	0.00e+00	0	56	0	2905604096	46	4806
2026-01-10 13:50:57.87	319.87	8.95	-38.1	-40.2	14.3	3.40e-06	0	56	0	2922381312	46	4932
2026-01-10 13:51:00.91	320.25	8.78	-38.0	-40.0	14.4	1.10e-06	0	56	0	2939158528	47	4551
2026-01-10 13:51:03.94	320.63	8.61	-38.0	-39.9	14.5	1.10e-06	0	56	0	2955935744	47	4533
2026-01-10 13:51:06.96	320.99	8.43	-38.2	-40.2	14.2	3.40e-06	0	56	0	2972712960	47	4661
2026-01-10 13:51:09.99	321.36	8.26	-38.0	-40.0	14.3	0.00e+00	0	56	0	2990538752	47	4571
2026-01-10 13:51:13.02	321.72	8.09	-38.1	-40.0	14.3	5.70e-06	0	56	0	3007315968	47	4591
2026-01-10 13:51:16.05	322.07	7.92	-44.5	-55.5	3.8	8.46e-01	0	56	104	3016753152	59	13651
2026-01-10 13:51:19.08	322.43	7.74	-44.9	-56.7	3.8	8.46e-01	0	56	104	3016753152	60	14805
2026-01-10 13:51:22.11	322.78	7.57	-45.0	-56.9	3.8	8.46e-01	0	56	104	3016753152	60	15057
2026-01-10 13:51:25.14	323.12	7.40	-45.0	-56.9	3.8	8.46e-01	0	56	104	3016753152	60	15055
2026-01-10 13:51:28.18	323.46	7.23	-45.0	-56.8	3.8	8.46e-01	0	56	104	3016753152	60	14978
2026-01-10 13:51:31.21	323.80	7.06	-45.0	-56.8	3.8	8.46e-01	0	56	104	3016753152	60	14932
2026-01-10 13:51:34.24	324.13	6.89	-45.0	-56.8	3.8	8.46e-01	0	56	104	3016753152	60	14937
2026-01-10 13:51:37.27	324.46	6.72	-44.9	-56.8	3.8	8.46e-01	0	56	104	3016753152	60	14886
2026-01-10 13:51:40.30	324.79	6.55	-44.8	-56.8	3.8	8.46e-01	0	56	104	3016753152	60	14918
2026-01-10 13:51:43.33	325.11	6.38	-44.9	-56.8	3.8	8.47e-01	0	56	104	3016753152	60	14915
2026-01-10 13:51:46.37	325.43	6.21	-44.9	-56.8	3.8	8.46e-01	0	56	104	3016753152	60	14922
2026-01-10 13:51:49.40	325.74	6.04	-44.9	-56.8	3.8	8.46e-01	0	56	104	3016753152	60	14917
2026-01-10 13:51:52.43	326.06	5.87	-44.9	-56.8	3.8	8.47e-01	0	56	104	3016753152	60	14900
2026-01-10 13:51:55.47	326.36	5.71	-44.9	-56.7	3.8	8.46e-01	0	56	104	3016753152	60	14868
2026-01-10 13:51:58.50	326.67	5.54	-44.9	-56.8	3.8	8.47e-01	0	56	104	3016753152	60	14917
2026-01-10 13:52:01.53	326.97	5.37	-44.9	-56.8	3.8	8.47e-01	0	56	104	3016753152	60	14911
2026-01-10 13:52:04.57	327.27	5.21	-44.9	-56.8	3.8	8.46e-01	0	56	104	3016753152	60	14884
2026-01-10 13:52:07.60	327.57	5.04	-44.9	-56.8	3.8	8.46e-01	0	56	104	3016753152	60	14890
2026-01-10 13:52:10.63	327.86	4.87	-44.9	-56.8	3.8	8.47e-01	0	56	104	3016753152	60	14911
2026-01-10 13:52:13.66	328.15	4.71	-44.9	-56.8	3.8	8.45e-01	0	56	104	3016753152	60	14911
2026-01-10 13:52:16.70	328.43	4.54	-44.9	-56.8	3.8	8.46e-01	0	56	104	3016753152	60	14895
2026-01-10 13:52:19.73	328.72	4.38	-44.9	-56.7	3.8	8.45e-01	0	56	104	3016753152	60	14858
2026-01-10 13:52:22.76	329.00	4.22	-44.9	-56.8	3.8	8.45e-01	0	56	104	3016753152	60	14912
2026-01-10 13:52:25.80	329.27	4.05	-44.9	-56.7	3.8	8.45e-01	0	56	104	3016753152	60	14842
2026-01-10 13:52:28.83	329.55	3.89	-44.9	-56.7	3.8	8.46e-01	0	56	104	3016753152	60	14859
2026-01-10 13:52:31.86	329.82	3.73	-44.9	-56.8	3.8	8.46e-01	0	56	104	3016753152	60	14894
2026-01-10 13:52:34.89	330.09	3.57	-44.9	-56.7	3.8	8.46e-01	0	56	104	3016753152	60	14859
2026-01-10 13:52:37.93	330.35	3.40	-44.9	-56.8	3.8	8.48e-01	0	56	104	3016753152	60	14927
2026-01-10 13:52:40.96	330.61	3.24	-44.9	-56.7	3.8	8.46e-01	0	56	104	3016753152	60	14865
2026-01-10 13:52:44.00	330.88	3.08	-44.9	-56.7	3.8	8.46e-01	0	56	104	3016753152	60	14870
2026-01-10 13:52:47.03	331.13	2.92	-44.9	-56.7	3.8	8.47e-01	0	57	104	3016753152	60	14866
2026-01-10 13:52:50.06	331.39	2.76	-44.9	-56.7	3.8	8.46e-01	0	56	104	3016753152	60	14860
2026-01-10 13:52:53.09	331.64	2.60	-44.9	-56.7	3.8	8.47e-01	0	56	104	3016753152	60	14839
2026-01-10 13:52:56.13	331.89	2.45	-44.9	-56.7	3.8	8.46e-01	0	56	104	3016753152	60	14866
2026-01-10 13:52:59.16	332.14	2.29	-44.9	-56.8	3.8	8.46e-01	0	56	104	3016753152	60	14883
2026-01-10 13:53:02.19	332.38	2.13	-44.9	-56.7	3.8	8.47e-01	0	56	104	3016753152	60	14854
2026-01-10 13:53:05.23	332.62	1.97	-44.9	-56.8	3.8	8.46e-01	0	56	104	3016753152	60	14883

#Closed at: 2026-01-10 13:53:05
#Recorded file [3016 MB]: D:/lorett/data/31039_260110_164045.dat