passes_logs/2026/01/10/R2.0S_Moscow/R2.0S_Moscow__20260110_080103_NOAA_20_JPSS-1_rec.log

#Pass ID: 20260110_080103_NOAA 20 (JPSS-1)
#Satellite: NOAA 20 (JPSS-1)
#Configuration: NOAA 20
#almurnet v.1.7.20251203
#Start time: 2026-01-10 08:01:04

#Version: 2.2.20231116
#Station: R2.0S_Moscow
#Location: 37.707566 lon 55.798166 lat
#TLE: 1 43013U 17073A   26009.26828276  .00000112  00000+0  74203-4 0  9990
#TLE: 2 43013  98.7631 310.2683 0001700  47.4387 312.6933 14.19534764421920

#Time	Az	El	Level	Level2	SNR	BER	BlckErr	Temp	State	Recorded	gain1	gain2
2026-01-10 08:01:04.23	104.49	2.04	-39.5	-54.4	3.9	1.49e+00	0	46	0	0	49	21415
2026-01-10 08:01:07.26	104.26	2.20	-39.4	-54.4	3.7	1.49e+00	0	46	104	0	49	21339
2026-01-10 08:01:10.28	104.03	2.37	-39.8	-54.6	3.8	1.49e+00	0	47	104	0	50	20698
2026-01-10 08:01:13.31	103.80	2.53	-39.9	-54.4	3.8	1.49e+00	0	47	104	0	50	20231
2026-01-10 08:01:16.33	103.56	2.70	-39.9	-54.4	3.8	1.49e+00	0	47	104	0	50	20201
2026-01-10 08:01:19.36	103.32	2.86	-39.9	-54.5	3.8	1.49e+00	0	47	104	0	50	20377
2026-01-10 08:01:22.39	103.07	3.03	-39.9	-54.4	3.8	1.49e+00	0	48	104	0	50	20287
2026-01-10 08:01:25.42	102.83	3.19	-39.9	-54.5	3.8	1.49e+00	0	48	104	0	50	20367
2026-01-10 08:01:28.45	102.58	3.36	-39.7	-54.6	3.9	1.49e+00	0	48	104	0	50	20713
2026-01-10 08:01:31.47	102.33	3.53	-39.9	-54.5	3.8	1.49e+00	0	48	104	0	50	20374
2026-01-10 08:01:34.51	102.07	3.70	-39.9	-54.5	3.8	1.49e+00	0	48	104	0	50	20412
2026-01-10 08:01:37.53	101.81	3.86	-39.8	-54.3	3.8	1.49e+00	0	48	104	0	50	19967
2026-01-10 08:01:40.56	101.55	4.03	-39.9	-54.5	3.8	1.49e+00	0	49	104	0	50	20335
2026-01-10 08:01:43.59	101.29	4.20	-39.9	-54.5	3.8	1.49e+00	0	49	104	0	50	20441
2026-01-10 08:01:46.61	101.02	4.37	-40.0	-54.5	3.8	1.49e+00	0	49	104	0	50	20392
2026-01-10 08:01:49.65	100.75	4.54	-39.8	-54.5	3.8	1.49e+00	0	49	104	0	50	20343
2026-01-10 08:01:52.67	100.48	4.71	-39.9	-54.5	3.8	1.49e+00	0	49	104	0	50	20385
2026-01-10 08:01:55.70	100.20	4.88	-39.9	-54.5	3.8	1.49e+00	0	50	104	0	50	20394
2026-01-10 08:01:58.71	99.92	5.05	-39.8	-54.5	3.8	1.49e+00	0	50	104	0	50	20325
2026-01-10 08:02:01.74	99.64	5.23	-39.9	-54.5	3.8	1.49e+00	0	50	104	0	50	20339
2026-01-10 08:02:04.77	99.35	5.40	-39.9	-54.5	3.8	1.49e+00	0	50	104	0	50	20338
2026-01-10 08:02:07.80	99.06	5.57	-39.9	-54.5	3.8	1.49e+00	0	51	104	0	50	20422
2026-01-10 08:02:10.82	98.77	5.75	-39.7	-54.4	3.8	1.49e+00	0	50	104	0	50	20251
2026-01-10 08:02:13.85	98.47	5.92	-39.7	-54.3	3.8	1.49e+00	0	51	104	0	50	20049
2026-01-10 08:02:16.88	98.17	6.09	-39.3	-54.5	3.8	1.49e+00	0	51	104	0	50	20306
2026-01-10 08:02:19.91	97.86	6.27	-40.0	-54.5	3.8	1.49e+00	0	51	104	0	50	20414
2026-01-10 08:02:22.93	97.55	6.44	-39.7	-54.4	3.8	1.49e+00	0	51	104	0	50	20240
2026-01-10 08:02:25.96	97.24	6.62	-39.9	-54.5	3.8	1.49e+00	0	51	104	0	50	20355
2026-01-10 08:02:28.99	96.92	6.80	-39.9	-54.4	3.8	1.49e+00	0	51	104	0	50	20190
2026-01-10 08:02:32.01	96.60	6.97	-40.0	-54.5	3.8	1.49e+00	0	51	104	0	50	20392
2026-01-10 08:02:35.04	96.28	7.15	-39.8	-54.5	3.8	1.49e+00	0	51	104	0	50	20341
2026-01-10 08:02:38.06	95.95	7.33	-39.9	-54.5	3.8	1.49e+00	0	52	104	0	50	20366
2026-01-10 08:02:41.08	95.62	7.50	-39.9	-54.5	3.8	1.49e+00	0	52	104	0	50	20310
2026-01-10 08:02:44.10	95.28	7.68	-39.9	-54.4	3.8	1.49e+00	0	52	104	0	50	20274
2026-01-10 08:02:47.13	94.94	7.86	-39.9	-54.5	3.8	1.49e+00	0	52	104	0	50	20363
2026-01-10 08:02:50.16	94.59	8.04	-40.0	-54.5	3.8	1.49e+00	0	52	104	0	50	20309
2026-01-10 08:02:53.18	94.25	8.21	-39.7	-54.3	3.8	1.49e+00	0	52	104	0	49	21205
2026-01-10 08:02:56.21	93.89	8.39	-40.0	-54.5	3.8	1.49e+00	0	52	104	0	50	20502
2026-01-10 08:02:59.24	93.53	8.57	-39.8	-54.4	3.8	1.49e+00	0	52	104	0	51	19040
2026-01-10 08:03:02.27	93.17	8.75	-40.1	-54.6	3.8	1.49e+00	0	52	104	0	50	20719
2026-01-10 08:03:05.30	92.80	8.93	-40.0	-54.5	3.8	1.49e+00	0	53	104	0	50	20483
2026-01-10 08:03:08.33	92.43	9.11	-40.0	-54.5	3.8	1.49e+00	0	52	104	0	51	19261
2026-01-10 08:03:11.36	92.05	9.29	-40.0	-54.6	3.8	1.49e+00	0	53	104	0	51	19530
2026-01-10 08:03:14.38	91.67	9.47	-40.1	-54.9	3.8	1.49e+00	0	53	104	0	52	19099
2026-01-10 08:03:17.41	91.28	9.65	-40.0	-54.3	3.8	1.49e+00	0	53	104	0	51	18925
2026-01-10 08:03:20.44	90.89	9.83	-40.3	-53.9	3.8	1.49e+00	0	53	104	0	51	18087
2026-01-10 08:03:23.47	90.49	10.01	-40.4	-54.2	3.8	1.49e+00	0	53	104	0	52	17631
2026-01-10 08:03:26.50	90.09	10.19	-40.9	-54.3	3.8	1.49e+00	0	53	104	0	52	17729
2026-01-10 08:03:29.52	89.69	10.37	-40.9	-55.2	3.8	1.49e+00	0	53	104	0	52	19811
2026-01-10 08:03:32.54	89.28	10.55	-40.7	-55.2	3.8	1.49e+00	0	53	104	0	52	19685
2026-01-10 08:03:35.56	88.86	10.73	-40.4	-54.9	3.8	1.49e+00	0	53	104	0	52	19071
2026-01-10 08:03:38.58	88.44	10.91	-40.3	-54.9	3.8	1.49e+00	0	53	104	0	52	19044
2026-01-10 08:03:41.62	88.01	11.09	-40.4	-55.2	3.8	1.49e+00	0	53	104	0	52	19826
2026-01-10 08:03:44.64	87.58	11.27	-40.4	-55.0	3.8	1.49e+00	0	53	104	0	52	19196
2026-01-10 08:03:47.67	87.14	11.44	-40.3	-54.9	3.8	1.49e+00	0	53	104	0	52	19094
2026-01-10 08:03:50.70	86.70	11.62	-40.3	-54.8	3.8	1.49e+00	0	53	104	0	52	18838
2026-01-10 08:03:53.73	86.25	11.80	-40.3	-54.8	3.8	1.49e+00	0	54	104	0	52	18849
2026-01-10 08:03:56.75	85.80	11.98	-40.3	-54.8	3.8	1.49e+00	0	53	104	0	52	18899
2026-01-10 08:03:59.78	85.34	12.16	-40.5	-55.1	3.8	1.49e+00	0	54	104	0	52	19394
2026-01-10 08:04:02.81	84.87	12.33	-40.3	-54.9	3.8	1.49e+00	0	54	104	0	52	18965
2026-01-10 08:04:05.83	84.40	12.51	-40.5	-54.9	3.8	1.49e+00	0	53	104	0	52	19160
2026-01-10 08:04:08.86	83.92	12.68	-40.2	-54.7	3.8	1.49e+00	0	54	104	0	52	18551
2026-01-10 08:04:11.89	83.44	12.86	-40.4	-54.8	3.8	1.49e+00	0	54	104	0	52	18880
2026-01-10 08:04:14.92	82.95	13.03	-40.3	-54.7	3.8	1.49e+00	0	54	104	0	52	18659
2026-01-10 08:04:17.95	82.46	13.20	-40.5	-54.9	3.8	1.49e+00	0	54	104	0	52	19040
2026-01-10 08:04:20.98	81.96	13.38	-40.4	-54.8	3.8	1.49e+00	0	54	104	0	52	18751
2026-01-10 08:04:24.00	81.45	13.55	-41.1	-55.4	3.8	1.49e+00	0	54	104	0	52	20108
2026-01-10 08:04:27.03	80.94	13.72	-40.4	-54.8	3.8	1.49e+00	0	54	104	0	52	18812
2026-01-10 08:04:30.05	80.42	13.88	-40.4	-52.9	3.8	1.49e+00	0	54	104	0	52	15099
2026-01-10 08:04:33.08	79.90	14.05	-40.4	-51.5	4.2	1.47e+00	0	54	0	0	52	12959
2026-01-10 08:04:36.10	79.37	14.22	-40.4	-50.7	4.6	1.07e+00	0	54	0	2097152	52	11688
2026-01-10 08:04:39.13	78.84	14.38	-40.3	-49.7	5.0	7.17e-01	0	54	0	5242880	52	10530
2026-01-10 08:04:42.16	78.29	14.55	-40.0	-46.6	7.7	1.35e-01	0	54	0	11534336	51	7771
2026-01-10 08:04:45.18	77.75	14.71	-40.1	-46.4	8.2	7.89e-02	0	54	0	16777216	51	7566
2026-01-10 08:04:48.21	77.19	14.87	-40.5	-47.7	7.0	1.08e-01	0	54	0	23068672	51	8814
2026-01-10 08:04:51.23	76.64	15.03	-40.7	-48.7	6.0	3.43e-01	0	54	0	28311552	51	9931
2026-01-10 08:04:54.25	76.07	15.18	-40.4	-48.0	6.5	2.43e-01	0	54	0	34603008	51	9143
2026-01-10 08:04:57.27	75.50	15.34	-40.3	-47.9	6.5	2.33e-01	0	54	0	39845888	51	9020
2026-01-10 08:05:00.29	74.93	15.49	-40.4	-48.3	6.1	2.75e-01	0	55	0	45088768	51	9448
2026-01-10 08:05:03.31	74.34	15.64	-40.5	-48.6	6.0	3.26e-01	0	55	0	51380224	51	9789
2026-01-10 08:05:06.33	73.76	15.79	-40.6	-48.7	6.0	3.47e-01	0	55	0	56623104	51	9834
2026-01-10 08:05:09.35	73.16	15.94	-40.6	-48.3	6.4	2.40e-01	0	55	0	62914560	51	9418
2026-01-10 08:05:12.37	72.56	16.08	-40.6	-48.1	6.5	2.27e-01	0	55	0	68157440	51	9250
2026-01-10 08:05:15.39	71.96	16.22	-40.6	-48.2	6.4	2.27e-01	0	55	0	73400320	51	9368
2026-01-10 08:05:18.42	71.34	16.36	-40.6	-48.3	6.3	2.81e-01	0	55	0	79691776	51	9490
2026-01-10 08:05:21.44	70.73	16.50	-40.6	-47.7	7.0	1.84e-01	0	55	0	84934656	51	8808
2026-01-10 08:05:24.46	70.10	16.64	-40.4	-46.1	8.9	3.72e-02	0	55	0	91226112	51	7363
2026-01-10 08:05:27.48	69.48	16.77	-40.4	-45.2	10.4	5.21e-03	0	55	0	96468992	51	6582
2026-01-10 08:05:30.50	68.84	16.90	-40.3	-44.5	11.4	9.84e-04	0	55	0	101711872	51	6130
2026-01-10 08:05:33.53	68.20	17.02	-40.2	-43.9	12.5	2.08e-04	0	55	0	108003328	51	5693
2026-01-10 08:05:36.55	67.56	17.14	-40.3	-43.7	13.1	4.04e-05	0	55	0	113246208	51	5563
2026-01-10 08:05:39.57	66.91	17.26	-40.1	-43.3	13.8	5.30e-06	0	55	0	119537664	51	5302
2026-01-10 08:05:42.58	66.26	17.38	-40.1	-43.1	14.1	2.20e-06	0	55	0	124780544	51	5206
2026-01-10 08:05:45.60	65.60	17.49	-40.1	-43.0	14.4	0.00e+00	0	55	0	130023424	51	5124
2026-01-10 08:05:48.62	64.93	17.60	-40.2	-43.2	14.3	2.20e-06	0	55	0	136314880	51	5246
2026-01-10 08:05:51.64	64.26	17.71	-40.3	-43.2	14.4	2.20e-06	0	55	0	141557760	51	5247
2026-01-10 08:05:54.66	63.59	17.81	-40.1	-42.9	14.7	0.00e+00	0	55	0	147849216	51	5072
2026-01-10 08:05:57.68	62.91	17.91	-40.2	-43.0	14.7	0.00e+00	0	55	0	153092096	51	5108
2026-01-10 08:06:00.70	62.23	18.01	-40.3	-43.1	14.6	7.00e-07	0	55	0	158334976	51	5204
2026-01-10 08:06:03.72	61.54	18.10	-40.4	-43.3	14.4	0.00e+00	0	55	0	164626432	51	5305
2026-01-10 08:06:06.75	60.85	18.18	-40.5	-43.5	14.2	7.00e-07	0	55	0	169869312	51	5423
2026-01-10 08:06:09.77	60.15	18.27	-40.7	-43.9	13.8	3.00e-06	0	55	0	176160768	52	5355
2026-01-10 08:06:12.80	59.45	18.35	-40.8	-43.9	13.8	4.50e-06	0	55	0	181403648	52	5388
2026-01-10 08:06:15.82	58.75	18.42	-40.6	-43.6	14.1	7.00e-07	0	55	0	186646528	52	5216
2026-01-10 08:06:18.84	58.05	18.49	-40.6	-43.7	14.0	2.20e-06	0	55	0	192937984	52	5254
2026-01-10 08:06:21.86	57.34	18.56	-40.7	-43.7	14.0	3.00e-06	0	55	0	198180864	52	5268
2026-01-10 08:06:24.88	56.63	18.62	-40.9	-44.1	13.7	6.80e-06	0	55	0	204472320	52	5486
2026-01-10 08:06:27.91	55.91	18.68	-41.1	-44.4	13.3	1.67e-05	0	55	0	209715200	52	5714
2026-01-10 08:06:30.93	55.19	18.73	-41.1	-44.5	13.3	2.36e-05	0	55	0	214958080	52	5728
2026-01-10 08:06:33.95	54.47	18.78	-41.0	-44.4	13.4	1.29e-05	0	55	0	221249536	52	5673
2026-01-10 08:06:36.97	53.75	18.82	-41.0	-44.3	13.5	8.30e-06	0	55	0	226492416	52	5612
2026-01-10 08:06:40.00	53.03	18.86	-41.1	-44.5	13.3	1.52e-05	0	55	0	232783872	52	5731
2026-01-10 08:06:43.02	52.30	18.90	-41.0	-44.3	13.4	1.60e-05	0	55	0	238026752	52	5656
2026-01-10 08:06:46.05	51.57	18.93	-41.0	-44.3	13.5	1.14e-05	0	55	0	243269632	52	5617
2026-01-10 08:06:49.07	50.84	18.95	-40.9	-44.1	13.7	9.90e-06	0	55	0	249561088	52	5526
2026-01-10 08:06:52.10	50.11	18.97	-40.9	-44.1	13.7	3.00e-06	0	55	0	254803968	52	5486
2026-01-10 08:06:55.12	49.38	18.99	-41.1	-44.4	13.4	1.22e-05	0	55	0	261095424	52	5671
2026-01-10 08:06:58.13	48.65	19.00	-41.0	-44.3	13.5	1.06e-05	0	55	0	266338304	52	5625
2026-01-10 08:07:01.15	47.92	19.01	-40.8	-43.9	13.9	4.50e-06	0	55	0	271581184	52	5373
2026-01-10 08:07:04.17	47.19	19.01	-40.6	-43.6	14.3	0.00e+00	0	55	0	277872640	52	5167
2026-01-10 08:07:07.19	46.46	19.00	-40.7	-43.7	14.2	1.50e-06	0	55	0	283115520	52	5244
2026-01-10 08:07:10.21	45.73	18.99	-40.6	-43.6	14.3	0.00e+00	0	55	0	289406976	52	5166
2026-01-10 08:07:13.24	45.00	18.98	-40.5	-43.4	14.4	0.00e+00	0	55	0	294649856	52	5099
2026-01-10 08:07:16.26	44.27	18.96	-40.3	-43.0	14.9	7.00e-07	0	55	0	299892736	52	4837
2026-01-10 08:07:19.28	43.54	18.94	-40.3	-43.1	14.8	0.00e+00	0	55	0	306184192	52	4883
2026-01-10 08:07:22.30	42.82	18.91	-40.3	-43.0	14.9	0.00e+00	0	55	0	311427072	52	4836
2026-01-10 08:07:25.31	42.09	18.88	-40.1	-42.8	15.1	0.00e+00	0	55	0	317718528	52	4738
2026-01-10 08:07:28.32	41.37	18.84	-40.2	-42.9	15.0	0.00e+00	0	55	0	322961408	52	4770
2026-01-10 08:07:31.34	40.65	18.80	-40.1	-42.7	15.2	0.00e+00	0	55	0	328204288	52	4684
2026-01-10 08:07:34.36	39.93	18.75	-40.1	-42.6	15.3	0.00e+00	0	55	0	334495744	51	4911
2026-01-10 08:07:37.38	39.21	18.70	-40.1	-42.7	15.2	0.00e+00	0	55	0	339738624	51	4970
2026-01-10 08:07:40.40	38.50	18.65	-40.2	-42.8	15.1	0.00e+00	0	55	0	346030080	51	5040
2026-01-10 08:07:43.42	37.79	18.58	-40.2	-42.9	15.0	0.00e+00	0	55	0	351272960	51	5096
2026-01-10 08:07:46.45	37.08	18.52	-40.3	-43.1	14.9	0.00e+00	0	56	0	356515840	51	5169
2026-01-10 08:07:49.48	36.37	18.45	-40.4	-43.1	14.9	0.00e+00	0	55	0	362807296	51	5190
2026-01-10 08:07:52.50	35.67	18.38	-40.4	-43.1	14.8	1.50e-06	0	56	0	368050176	51	5205
2026-01-10 08:07:55.53	34.97	18.30	-40.6	-43.4	14.5	0.00e+00	0	55	0	374341632	51	5397
2026-01-10 08:07:58.55	34.27	18.22	-40.7	-43.6	14.3	1.50e-06	0	55	0	379584512	51	5511
2026-01-10 08:08:01.57	33.58	18.13	-40.6	-43.4	14.5	7.00e-07	0	56	0	384827392	51	5401
2026-01-10 08:08:04.58	32.90	18.04	-40.7	-43.7	14.2	1.50e-06	0	56	0	391118848	52	5255
2026-01-10 08:08:07.60	32.21	17.95	-40.9	-44.0	13.9	4.50e-06	0	56	0	396361728	52	5426
2026-01-10 08:08:10.62	31.54	17.85	-40.7	-43.7	14.2	3.00e-06	0	55	0	402653184	52	5240
2026-01-10 08:08:13.65	30.86	17.75	-40.7	-43.8	14.1	1.50e-06	0	55	0	407896064	52	5282
2026-01-10 08:08:16.68	30.19	17.65	-40.8	-44.0	13.9	2.20e-06	0	56	0	414187520	52	5419
2026-01-10 08:08:19.70	29.53	17.54	-40.8	-43.9	13.9	2.20e-06	0	55	0	419430400	52	5366
2026-01-10 08:08:22.72	28.87	17.43	-40.6	-43.6	14.2	0.00e+00	0	56	0	424673280	52	5205
2026-01-10 08:08:25.74	28.21	17.31	-40.9	-44.2	13.7	5.30e-06	0	55	0	430964736	52	5539
2026-01-10 08:08:28.76	27.56	17.19	-41.0	-44.2	13.6	3.00e-06	0	56	0	436207616	52	5589
2026-01-10 08:08:31.78	26.92	17.07	-40.7	-43.8	14.0	2.20e-06	0	56	0	442499072	52	5317
2026-01-10 08:08:34.80	26.28	16.95	-40.9	-44.1	13.8	3.00e-06	0	56	0	447741952	52	5484
2026-01-10 08:08:37.82	25.65	16.82	-41.1	-44.5	13.4	1.90e-05	0	56	0	452984832	52	5726
2026-01-10 08:08:40.84	25.02	16.69	-41.2	-44.6	13.2	1.29e-05	0	56	0	459276288	52	5810
2026-01-10 08:08:43.87	24.39	16.56	-41.1	-44.5	13.3	1.67e-05	0	56	0	464519168	52	5736
2026-01-10 08:08:46.89	23.78	16.42	-41.3	-44.8	13.0	4.88e-05	0	56	0	470810624	53	5601
2026-01-10 08:08:49.91	23.17	16.29	-41.2	-44.8	13.0	5.26e-05	0	56	0	476053504	53	5613
2026-01-10 08:08:52.93	22.56	16.14	-41.0	-44.4	13.4	2.13e-05	0	56	0	481296384	53	5364
2026-01-10 08:08:55.95	21.96	16.00	-41.1	-44.5	13.3	2.44e-05	0	56	0	487587840	53	5414
2026-01-10 08:08:58.97	21.37	15.86	-41.1	-44.6	13.2	2.44e-05	0	56	0	492830720	53	5491
2026-01-10 08:09:01.99	20.78	15.71	-41.2	-44.8	13.0	4.42e-05	0	56	0	499122176	53	5593
2026-01-10 08:09:05.01	20.20	15.56	-41.3	-44.9	12.7	6.40e-05	0	56	0	504365056	53	5722
2026-01-10 08:09:08.03	19.62	15.41	-41.3	-45.0	12.7	7.85e-05	0	56	0	509607936	53	5724
2026-01-10 08:09:11.05	19.05	15.25	-41.2	-44.7	13.0	5.87e-05	0	56	0	515899392	53	5567
2026-01-10 08:09:14.07	18.49	15.10	-41.1	-44.6	13.0	2.97e-05	0	56	0	521142272	53	5496
2026-01-10 08:09:17.10	17.93	14.94	-41.4	-45.1	12.6	7.47e-05	0	56	0	527433728	53	5801
2026-01-10 08:09:20.12	17.38	14.78	-41.6	-45.5	12.1	2.49e-04	0	56	0	532676608	53	6062
2026-01-10 08:09:23.14	16.83	14.62	-41.6	-45.4	12.2	2.09e-04	0	56	0	537919488	53	6060
2026-01-10 08:09:26.16	16.29	14.46	-41.7	-45.7	11.9	3.65e-04	0	56	0	544210944	53	6214
2026-01-10 08:09:29.17	15.76	14.30	-41.7	-45.7	11.8	5.02e-04	0	56	0	549453824	54	5921
2026-01-10 08:09:32.19	15.23	14.13	-41.6	-45.6	12.0	3.81e-04	0	56	0	555745280	54	5795
2026-01-10 08:09:35.21	14.71	13.97	-41.5	-45.5	12.0	2.94e-04	0	56	0	560988160	54	5761
2026-01-10 08:09:38.22	14.20	13.80	-41.7	-45.8	11.7	4.97e-04	0	56	0	566231040	54	5937
2026-01-10 08:09:41.24	13.69	13.63	-41.7	-45.8	11.7	5.50e-04	0	56	0	572522496	54	5937
2026-01-10 08:09:44.27	13.18	13.46	-41.5	-45.5	11.9	4.18e-04	0	56	0	577765376	54	5769
2026-01-10 08:09:47.29	12.68	13.29	-41.3	-45.1	12.4	1.36e-04	0	56	0	584056832	54	5482
2026-01-10 08:09:50.31	12.19	13.12	-41.3	-45.1	12.3	1.47e-04	0	56	0	589299712	54	5507
2026-01-10 08:09:53.33	11.70	12.95	-41.2	-45.1	12.2	2.30e-04	0	56	0	594542592	54	5493
2026-01-10 08:09:56.35	11.22	12.77	-40.9	-44.7	12.4	1.37e-04	0	56	0	600834048	53	5575
2026-01-10 08:09:59.37	10.75	12.60	-40.8	-44.6	12.4	1.75e-04	0	56	0	606076928	53	5469
2026-01-10 08:10:02.39	10.28	12.43	-40.5	-44.4	12.4	1.51e-04	0	56	0	612368384	53	5361
2026-01-10 08:10:05.41	9.82	12.25	-40.1	-43.7	12.8	5.95e-05	0	56	0	617611264	52	5233
2026-01-10 08:10:08.44	9.36	12.08	-39.9	-43.5	12.9	5.11e-05	0	56	0	622854144	51	5407
2026-01-10 08:10:11.47	8.90	11.90	-40.0	-44.2	11.7	3.75e-04	0	56	0	629145600	51	5873
2026-01-10 08:10:14.49	8.46	11.72	-40.4	-45.7	9.8	7.75e-03	0	56	0	634388480	51	6976
2026-01-10 08:10:17.51	8.01	11.55	-40.6	-47.2	7.9	4.84e-02	0	56	0	640679936	51	8278
2026-01-10 08:10:20.54	7.58	11.37	-40.8	-49.8	5.3	3.92e-01	0	56	0	645922816	52	10542
2026-01-10 08:10:23.55	7.15	11.19	-40.7	-52.9	3.8	1.42e+00	0	56	104	649068544	52	15077
2026-01-10 08:10:26.57	6.72	11.01	-40.6	-54.4	3.8	1.49e+00	0	56	104	649068544	52	17965
2026-01-10 08:10:29.60	6.30	10.83	-40.5	-54.6	3.8	1.49e+00	0	56	104	649068544	52	18467
2026-01-10 08:10:32.63	5.88	10.65	-40.1	-54.7	3.8	1.49e+00	0	56	104	649068544	52	18592
2026-01-10 08:10:35.66	5.47	10.48	-40.3	-54.8	3.8	1.49e+00	0	56	104	649068544	52	18901
2026-01-10 08:10:38.69	5.07	10.30	-40.4	-54.9	3.8	1.49e+00	0	56	104	649068544	51	20197
2026-01-10 08:10:41.71	4.67	10.12	-39.9	-54.4	3.8	1.49e+00	0	56	104	649068544	51	19094
2026-01-10 08:10:44.74	4.27	9.94	-39.8	-54.3	3.8	1.49e+00	0	56	104	649068544	51	18831
2026-01-10 08:10:47.76	3.88	9.76	-40.0	-54.6	3.8	1.49e+00	0	56	104	649068544	51	19399
2026-01-10 08:10:50.79	3.50	9.58	-40.1	-54.6	3.8	1.49e+00	0	56	104	649068544	51	19535
2026-01-10 08:10:53.82	3.12	9.40	-40.0	-54.5	3.8	1.49e+00	0	56	104	649068544	51	19273
2026-01-10 08:10:56.85	2.74	9.22	-40.0	-54.5	3.8	1.49e+00	0	56	104	649068544	51	19377
2026-01-10 08:10:59.87	2.37	9.04	-39.8	-54.4	3.8	1.49e+00	0	56	104	649068544	51	18966
2026-01-10 08:11:02.90	2.00	8.86	-39.8	-54.4	3.8	1.49e+00	0	56	104	649068544	51	19157
2026-01-10 08:11:05.92	1.64	8.69	-39.9	-54.4	3.8	1.49e+00	0	56	104	649068544	51	19116
2026-01-10 08:11:08.95	1.28	8.51	-39.6	-54.4	3.8	1.49e+00	0	56	104	649068544	51	19020
2026-01-10 08:11:11.98	0.93	8.33	-39.9	-54.5	3.8	1.49e+00	0	56	104	649068544	51	19169
2026-01-10 08:11:15.00	0.58	8.15	-39.7	-54.4	3.8	1.49e+00	0	56	104	649068544	51	19075
2026-01-10 08:11:18.03	0.24	7.97	-39.9	-54.5	3.8	1.49e+00	0	56	104	649068544	51	19210
2026-01-10 08:11:21.06	359.90	7.80	-44.9	-59.6	3.8	1.49e+00	0	56	104	649068544	60	20632
2026-01-10 08:11:24.09	359.56	7.62	-45.2	-59.9	3.8	1.49e+00	0	56	104	649068544	61	20275
2026-01-10 08:11:27.11	359.23	7.44	-45.2	-60.0	3.8	1.49e+00	0	56	104	649068544	60	21598
2026-01-10 08:11:30.14	358.90	7.26	-45.1	-59.9	3.8	1.49e+00	0	56	104	649068544	60	21300
2026-01-10 08:11:33.17	358.58	7.09	-45.0	-59.8	3.8	1.49e+00	0	56	104	649068544	60	21235
2026-01-10 08:11:36.20	358.26	6.91	-45.0	-59.8	3.8	1.49e+00	0	56	104	649068544	60	21239
2026-01-10 08:11:39.23	357.95	6.74	-45.0	-59.8	3.8	1.49e+00	0	56	104	649068544	60	21155
2026-01-10 08:11:42.26	357.63	6.56	-45.0	-59.8	3.8	1.49e+00	0	56	104	649068544	60	21186
2026-01-10 08:11:45.29	357.33	6.39	-45.0	-59.8	3.8	1.49e+00	0	56	104	649068544	60	21139
2026-01-10 08:11:48.31	357.02	6.21	-45.0	-59.8	3.8	1.49e+00	0	56	104	649068544	60	21114
2026-01-10 08:11:51.34	356.72	6.04	-45.0	-59.8	3.8	1.49e+00	0	56	104	649068544	60	21120
2026-01-10 08:11:54.36	356.43	5.87	-45.0	-59.8	3.8	1.49e+00	0	56	104	649068544	60	21061
2026-01-10 08:11:57.39	356.13	5.69	-44.9	-59.8	3.8	1.49e+00	0	56	104	649068544	60	21069
2026-01-10 08:12:00.42	355.85	5.52	-44.9	-59.8	3.8	1.49e+00	0	56	104	649068544	60	21053
2026-01-10 08:12:03.45	355.56	5.35	-44.9	-59.8	3.8	1.49e+00	0	56	104	649068544	60	21051
2026-01-10 08:12:06.48	355.28	5.17	-45.0	-59.8	3.8	1.49e+00	0	56	104	649068544	60	21082
2026-01-10 08:12:09.50	355.00	5.00	-44.9	-59.8	3.8	1.49e+00	0	56	104	649068544	60	21082
2026-01-10 08:12:12.52	354.72	4.83	-44.9	-59.8	3.8	1.49e+00	0	56	104	649068544	60	21060
2026-01-10 08:12:15.55	354.45	4.66	-44.9	-59.8	3.8	1.49e+00	0	56	104	649068544	60	21110
2026-01-10 08:12:18.58	354.18	4.49	-44.9	-59.8	3.8	1.49e+00	0	56	104	649068544	60	21035
2026-01-10 08:12:21.60	353.92	4.32	-44.9	-59.8	3.8	1.49e+00	0	56	104	649068544	60	21031
2026-01-10 08:12:24.63	353.66	4.15	-44.9	-59.8	3.8	1.49e+00	0	56	104	649068544	60	21034
2026-01-10 08:12:27.66	353.40	3.99	-44.9	-59.8	3.8	1.49e+00	0	56	104	649068544	60	21063
2026-01-10 08:12:30.69	353.14	3.82	-44.9	-59.7	3.8	1.49e+00	0	56	104	649068544	60	21014
2026-01-10 08:12:33.71	352.89	3.65	-44.9	-59.8	3.8	1.49e+00	0	56	104	649068544	60	21038
2026-01-10 08:12:36.73	352.64	3.48	-44.9	-59.8	3.8	1.49e+00	0	56	104	649068544	60	21082
2026-01-10 08:12:39.76	352.39	3.32	-44.9	-59.8	3.8	1.49e+00	0	56	104	649068544	60	21041
2026-01-10 08:12:42.79	352.15	3.15	-44.9	-59.8	3.8	1.49e+00	0	56	104	649068544	60	21032
2026-01-10 08:12:45.81	351.91	2.99	-44.9	-59.7	3.8	1.49e+00	0	56	104	649068544	60	20996
2026-01-10 08:12:48.84	351.67	2.82	-44.9	-59.8	3.8	1.49e+00	0	56	104	649068544	60	21029
2026-01-10 08:12:51.87	351.43	2.66	-44.9	-59.7	3.8	1.49e+00	0	56	104	649068544	60	20996
2026-01-10 08:12:54.90	351.20	2.49	-44.9	-59.7	3.8	1.49e+00	0	56	104	649068544	60	20980
2026-01-10 08:12:57.93	350.97	2.33	-44.9	-59.7	3.8	1.49e+00	0	56	104	649068544	60	21001
2026-01-10 08:13:00.94	350.74	2.17	-44.8	-59.7	3.8	1.49e+00	0	56	104	649068544	60	20975
2026-01-10 08:13:03.96	350.52	2.00	-44.9	-59.8	3.8	1.49e+00	0	56	104	649068544	60	21040

#Closed at: 2026-01-10 08:13:06
#Recorded file [649 MB]: D:/lorett/data/31039_260110_110104.dat