passes_logs/2026/01/10/R2.0S_Moscow/R2.0S_Moscow__20260110_084940_NOAA_21_JPSS-2_rec.log

#Pass ID: 20260110_084940_NOAA 21 (JPSS-2)
#Satellite: NOAA 21 (JPSS-2)
#Configuration: NOAA-21
#almurnet v.1.7.20251203
#Start time: 2026-01-10 08:49:39

#Version: 2.2.20231116
#Station: R2.0S_Moscow
#Location: 37.707566 lon 55.798166 lat
#TLE: 1 54234U 22150A   26009.23291724  .00000115  00000+0  75298-4 0  9996
#TLE: 2 54234  98.7494 310.2026 0000856 324.9272  35.1848 14.19533567163994

#Time	Az	El	Level	Level2	SNR	BER	BlckErr	Temp	State	Recorded	gain1	gain2
2026-01-10 08:49:39.83	128.81	1.99	-31.4	-47.4	4.1	1.51e+00	0	46	0	0	33	24076
2026-01-10 08:49:43.86	128.63	2.24	-38.0	-52.5	4.0	1.50e+00	0	47	104	0	43	24306
2026-01-10 08:49:47.89	128.45	2.49	-31.6	-46.6	4.0	1.50e+00	0	47	104	0	35	19505
2026-01-10 08:49:51.93	128.26	2.74	-34.7	-50.7	3.9	1.50e+00	0	47	104	0	39	24925
2026-01-10 08:49:55.96	128.07	2.99	-37.8	-52.4	3.4	1.51e+00	0	47	104	0	40	28376
2026-01-10 08:50:00.00	127.87	3.24	-37.7	-52.6	4.0	1.50e+00	0	48	104	0	43	24595
2026-01-10 08:50:04.03	127.68	3.50	-29.2	-44.1	4.1	1.51e+00	0	48	104	0	30	19602
2026-01-10 08:50:08.06	127.48	3.76	-24.3	-40.9	3.6	1.51e+00	0	48	104	0	20	23881
2026-01-10 08:50:12.10	127.27	4.02	-36.3	-51.7	4.0	1.51e+00	0	48	104	0	37	31342
2026-01-10 08:50:16.14	127.06	4.28	-35.4	-51.4	3.7	1.50e+00	0	49	104	0	40	25303
2026-01-10 08:50:20.17	126.85	4.55	-31.7	-48.2	3.8	1.51e+00	0	49	104	0	38	19731
2026-01-10 08:50:24.21	126.63	4.81	-34.1	-49.8	3.6	1.50e+00	0	49	104	0	39	22272
2026-01-10 08:50:28.24	126.41	5.08	-33.3	-49.1	4.0	1.51e+00	0	49	104	0	36	24524
2026-01-10 08:50:32.28	126.19	5.35	-28.6	-44.1	4.0	1.50e+00	0	50	104	0	32	17340
2026-01-10 08:50:36.31	125.96	5.63	-32.4	-47.5	4.0	1.50e+00	0	50	104	0	38	18226
2026-01-10 08:50:40.35	125.72	5.91	-34.2	-50.9	3.9	1.50e+00	0	50	104	0	42	21294
2026-01-10 08:50:44.38	125.48	6.18	-34.5	-50.9	4.2	1.50e+00	0	50	104	0	43	20122
2026-01-10 08:50:48.41	125.24	6.47	-37.7	-52.7	3.9	1.50e+00	0	50	104	0	45	22253
2026-01-10 08:50:52.44	124.99	6.75	-29.6	-45.1	3.8	1.50e+00	0	51	104	0	33	18450
2026-01-10 08:50:56.48	124.74	7.04	-33.9	-50.8	4.0	1.50e+00	0	51	104	0	45	17769
2026-01-10 08:51:00.52	124.48	7.33	-37.2	-51.0	3.9	1.49e+00	0	51	104	0	44	19336
2026-01-10 08:51:04.56	124.21	7.62	-32.4	-45.8	4.0	1.48e+00	0	51	104	0	37	15933
2026-01-10 08:51:08.60	123.94	7.92	-37.0	-44.3	7.2	8.95e-01	12	51	104	0	44	8875
2026-01-10 08:51:12.63	123.67	8.21	-35.3	-41.6	4.5	1.49e+00	0	51	104	1048576	27	17425
2026-01-10 08:51:16.66	123.38	8.51	-37.5	-42.2	9.5	2.30e-01	0	52	0	3145728	43	7408
2026-01-10 08:51:20.69	123.10	8.82	-38.3	-43.3	9.7	8.25e-02	0	52	0	14680064	47	6720
2026-01-10 08:51:24.71	122.80	9.12	-36.6	-43.8	8.9	3.79e-01	0	52	0	26214400	45	7911
2026-01-10 08:51:28.73	122.50	9.43	-37.6	-42.9	8.1	3.68e-01	7	52	0	37748736	43	8030
2026-01-10 08:51:32.76	122.20	9.74	-34.3	-40.7	12.0	1.39e-02	0	52	0	49283072	43	6265
2026-01-10 08:51:36.79	121.88	10.06	-32.6	-40.5	10.8	3.65e-02	0	52	0	61865984	40	7230
2026-01-10 08:51:40.81	121.56	10.38	-36.9	-41.9	10.6	3.63e-02	0	52	0	74448896	44	6766
2026-01-10 08:51:44.84	121.23	10.70	-36.4	-41.6	11.8	3.74e-02	0	52	0	87031808	45	6187
2026-01-10 08:51:48.87	120.90	11.03	-35.9	-41.1	11.3	3.08e-02	0	52	0	99614720	42	6950
2026-01-10 08:51:52.90	120.56	11.35	-36.6	-41.1	12.0	7.16e-02	0	53	0	112197632	44	6145
2026-01-10 08:51:56.93	120.20	11.69	-37.7	-41.2	12.2	3.21e-02	0	52	0	120586240	45	5888
2026-01-10 08:52:00.96	119.84	12.02	-36.3	-41.1	11.2	9.89e-02	0	53	0	133169152	44	6168
2026-01-10 08:52:05.00	119.48	12.36	-37.2	-40.8	11.4	2.73e-01	0	53	0	145752064	42	6687
2026-01-10 08:52:09.03	119.10	12.71	-37.8	-41.0	13.4	1.07e-02	0	53	0	158334976	46	5416
2026-01-10 08:52:13.06	118.71	13.05	-35.5	-40.3	12.9	9.15e-03	0	53	0	170917888	43	5965
2026-01-10 08:52:17.09	118.32	13.40	-36.2	-40.6	14.0	8.36e-03	0	53	0	183500800	46	5176
2026-01-10 08:52:21.12	117.91	13.76	-37.2	-40.5	14.2	4.03e-03	0	53	0	196083712	46	5104
2026-01-10 08:52:25.15	117.49	14.11	-37.8	-40.3	14.3	2.90e-03	0	53	0	208666624	46	4989
2026-01-10 08:52:29.17	117.07	14.47	-38.0	-40.3	14.7	5.24e-04	0	53	0	221249536	46	5012
2026-01-10 08:52:33.20	116.63	14.84	-38.3	-40.3	15.0	1.69e-04	0	53	0	233832448	47	4753
2026-01-10 08:52:37.23	116.19	15.21	-38.1	-40.1	15.2	1.46e-04	0	54	0	246415360	47	4649
2026-01-10 08:52:41.25	115.73	15.58	-38.1	-40.2	15.1	9.46e-05	0	54	0	258998272	47	4681
2026-01-10 08:52:45.27	115.26	15.96	-38.2	-40.2	15.1	3.73e-05	0	54	0	271581184	47	4689
2026-01-10 08:52:49.30	114.77	16.34	-38.3	-40.3	15.1	2.21e-05	0	54	0	284164096	47	4727
2026-01-10 08:52:53.33	114.28	16.72	-38.5	-40.5	14.0	4.47e-04	0	54	0	296747008	46	5113
2026-01-10 08:52:57.35	113.77	17.11	-38.6	-40.6	14.9	1.50e-06	0	54	0	309329920	47	4900
2026-01-10 08:53:01.38	113.25	17.50	-38.5	-40.4	15.1	0.00e+00	0	54	0	321912832	47	4786
2026-01-10 08:53:05.41	112.71	17.89	-38.5	-40.4	15.1	0.00e+00	0	54	0	334495744	47	4805
2026-01-10 08:53:09.44	112.16	18.29	-38.6	-40.6	14.9	0.00e+00	0	54	0	347078656	47	4874
2026-01-10 08:53:13.48	111.59	18.70	-38.3	-40.2	15.4	0.00e+00	0	54	0	359661568	47	4681
2026-01-10 08:53:17.51	111.01	19.10	-38.2	-40.1	15.5	0.00e+00	0	54	0	372244480	47	4601
2026-01-10 08:53:21.53	110.42	19.51	-38.0	-39.8	15.7	0.00e+00	0	54	0	384827392	47	4468
2026-01-10 08:53:25.56	109.80	19.93	-38.0	-39.7	15.8	0.00e+00	0	54	0	397410304	47	4436
2026-01-10 08:53:29.59	109.17	20.34	-37.9	-39.6	16.0	0.00e+00	0	54	0	409993216	47	4353
2026-01-10 08:53:33.62	108.52	20.76	-37.5	-39.2	16.4	0.00e+00	0	54	0	422576128	47	4147
2026-01-10 08:53:37.65	107.86	21.19	-37.5	-39.2	16.4	0.00e+00	0	54	0	435159040	46	4408
2026-01-10 08:53:41.67	107.17	21.61	-37.5	-39.1	16.5	0.00e+00	0	54	0	447741952	46	4371
2026-01-10 08:53:45.70	106.47	22.04	-37.5	-39.2	16.4	0.00e+00	0	54	0	460324864	46	4395
2026-01-10 08:53:49.74	105.74	22.47	-37.3	-38.8	16.8	0.00e+00	0	55	0	472907776	46	4229
2026-01-10 08:53:53.76	105.00	22.90	-37.5	-39.1	16.6	0.00e+00	0	54	0	485490688	46	4359
2026-01-10 08:53:57.79	104.23	23.34	-37.6	-39.2	16.4	0.00e+00	0	55	0	498073600	46	4433
2026-01-10 08:54:01.82	103.44	23.78	-37.4	-39.0	16.6	0.00e+00	0	54	0	510656512	46	4320
2026-01-10 08:54:05.85	102.63	24.22	-37.7	-39.3	16.4	0.00e+00	0	54	0	523239424	46	4478
2026-01-10 08:54:09.87	101.80	24.65	-37.5	-39.1	16.6	0.00e+00	0	55	0	535822336	46	4374
2026-01-10 08:54:13.90	100.94	25.09	-37.7	-39.4	16.4	0.00e+00	0	55	0	548405248	46	4503
2026-01-10 08:54:17.93	100.06	25.53	-37.8	-39.5	16.2	0.00e+00	0	55	0	560988160	46	4565
2026-01-10 08:54:21.96	99.15	25.97	-38.0	-39.7	16.0	0.00e+00	0	55	0	573571072	46	4690
2026-01-10 08:54:25.99	98.22	26.41	-38.3	-40.1	15.6	0.00e+00	0	55	0	586153984	47	4646
2026-01-10 08:54:30.01	97.26	26.85	-38.2	-39.9	15.8	0.00e+00	0	55	0	598736896	47	4517
2026-01-10 08:54:34.04	96.28	27.28	-38.3	-40.1	15.7	0.00e+00	0	55	0	611319808	47	4621
2026-01-10 08:54:38.07	95.26	27.71	-37.9	-39.6	16.2	0.00e+00	0	55	0	623902720	47	4376
2026-01-10 08:54:42.09	94.23	28.14	-37.8	-39.5	16.3	0.00e+00	0	55	0	636485632	47	4300
2026-01-10 08:54:46.12	93.16	28.56	-37.8	-39.5	16.3	0.00e+00	0	55	0	649068544	47	4310
2026-01-10 08:54:50.16	92.06	28.98	-38.1	-39.8	16.0	0.00e+00	0	55	0	661651456	47	4486
2026-01-10 08:54:54.19	90.93	29.40	-38.1	-39.8	16.0	0.00e+00	0	55	0	674234368	47	4484
2026-01-10 08:54:58.23	89.77	29.80	-37.9	-39.5	16.3	0.00e+00	0	55	0	686817280	47	4328
2026-01-10 08:55:02.26	88.59	30.20	-37.9	-39.5	16.3	0.00e+00	0	55	0	699400192	47	4325
2026-01-10 08:55:06.29	87.37	30.59	-38.2	-39.9	15.9	0.00e+00	0	55	0	711983104	47	4522
2026-01-10 08:55:10.32	86.13	30.97	-38.1	-39.8	16.0	0.00e+00	0	55	0	724566016	47	4476
2026-01-10 08:55:14.35	84.86	31.34	-38.1	-39.8	16.1	0.00e+00	0	55	0	737148928	47	4457
2026-01-10 08:55:18.39	83.55	31.70	-38.2	-39.9	15.9	0.00e+00	0	55	0	749731840	47	4545
2026-01-10 08:55:22.42	82.22	32.04	-39.0	-40.8	15.1	7.00e-07	0	55	0	762314752	48	4756
2026-01-10 08:55:26.45	80.87	32.38	-38.8	-40.7	15.3	0.00e+00	0	55	0	774897664	48	4654
2026-01-10 08:55:30.47	79.48	32.69	-38.8	-40.6	15.4	0.00e+00	0	55	0	787480576	48	4625
2026-01-10 08:55:34.51	78.07	32.99	-38.9	-40.8	15.2	0.00e+00	0	55	0	800063488	48	4725
2026-01-10 08:55:38.55	76.63	33.27	-38.7	-40.4	15.6	0.00e+00	0	55	0	812646400	48	4529
2026-01-10 08:55:42.58	75.17	33.54	-39.1	-41.0	15.1	0.00e+00	0	55	0	825229312	48	4845
2026-01-10 08:55:46.61	73.68	33.78	-39.1	-41.1	15.0	0.00e+00	0	55	0	837812224	49	4610
2026-01-10 08:55:50.64	72.18	34.00	-38.8	-40.7	15.4	0.00e+00	0	55	0	850395136	49	4392
2026-01-10 08:55:54.68	70.65	34.21	-39.0	-40.8	15.3	0.00e+00	0	55	0	862978048	49	4477
2026-01-10 08:55:58.71	69.10	34.39	-39.2	-41.1	15.0	0.00e+00	0	55	0	875560960	49	4630
2026-01-10 08:56:02.74	67.54	34.54	-39.0	-40.8	15.2	0.00e+00	0	55	0	888143872	49	4493
2026-01-10 08:56:06.77	65.97	34.68	-39.1	-41.0	15.1	0.00e+00	0	55	0	900726784	49	4564
2026-01-10 08:56:10.80	64.38	34.79	-39.2	-41.2	14.9	0.00e+00	0	55	0	913309696	49	4669
2026-01-10 08:56:14.83	62.79	34.87	-39.5	-41.5	14.6	0.00e+00	0	55	0	925892608	49	4839
2026-01-10 08:56:18.86	61.19	34.93	-39.3	-41.2	14.8	7.00e-07	0	55	0	938475520	49	4704
2026-01-10 08:56:22.89	59.58	34.96	-39.0	-40.8	15.3	0.00e+00	0	55	0	951058432	49	4458
2026-01-10 08:56:26.92	57.98	34.97	-39.3	-41.2	14.9	0.00e+00	0	55	0	963641344	49	4675
2026-01-10 08:56:30.95	56.37	34.95	-39.5	-41.5	14.6	7.00e-07	0	55	0	976224256	49	4840
2026-01-10 08:56:34.98	54.77	34.91	-39.3	-41.3	14.8	7.00e-07	0	55	0	988807168	49	4733
2026-01-10 08:56:39.01	53.17	34.84	-39.6	-41.6	14.5	7.00e-07	0	55	0	1001390080	49	4904
2026-01-10 08:56:43.05	51.57	34.75	-39.4	-41.4	14.7	0.00e+00	0	56	0	1013972992	49	4791
2026-01-10 08:56:47.08	49.99	34.63	-39.7	-41.9	14.3	3.80e-06	0	56	0	1027604480	50	4771
2026-01-10 08:56:51.12	48.42	34.49	-39.3	-41.3	14.9	0.00e+00	0	55	0	1039138816	50	4465
2026-01-10 08:56:55.14	46.88	34.32	-38.9	-40.8	15.4	0.00e+00	0	55	0	1052770304	49	4462
2026-01-10 08:56:59.18	45.34	34.13	-39.1	-41.0	15.1	0.00e+00	0	55	0	1064304640	49	4589
2026-01-10 08:57:03.21	43.82	33.92	-39.1	-40.9	15.2	0.00e+00	0	55	0	1077936128	49	4539
2026-01-10 08:57:07.24	42.33	33.69	-39.5	-41.5	14.7	0.00e+00	0	56	0	1090519040	49	4846
2026-01-10 08:57:11.27	40.85	33.44	-39.4	-41.4	14.7	0.00e+00	0	56	0	1102053376	50	4537
2026-01-10 08:57:15.30	39.41	33.17	-39.2	-41.1	15.1	0.00e+00	0	56	0	1115684864	49	4620
2026-01-10 08:57:19.33	37.98	32.88	-39.5	-41.5	14.7	0.00e+00	0	56	0	1128267776	49	4829
2026-01-10 08:57:23.36	36.58	32.58	-38.8	-40.6	15.5	0.00e+00	0	55	0	1140850688	49	4368
2026-01-10 08:57:27.40	35.21	32.26	-39.3	-41.3	14.9	0.00e+00	0	56	0	1153433600	49	4706
2026-01-10 08:57:31.43	33.87	31.92	-38.7	-40.4	15.8	0.00e+00	0	55	0	1166016512	49	4281
2026-01-10 08:57:35.45	32.55	31.58	-39.0	-40.9	15.2	0.00e+00	0	56	0	1178599424	49	4529
2026-01-10 08:57:39.48	31.27	31.22	-38.6	-40.3	15.9	0.00e+00	0	56	0	1191182336	49	4212
2026-01-10 08:57:43.51	30.01	30.84	-38.8	-40.7	15.5	0.00e+00	0	55	0	1203765248	48	4653
2026-01-10 08:57:47.54	28.78	30.46	-38.7	-40.5	15.6	0.00e+00	0	55	0	1216348160	48	4590
2026-01-10 08:57:51.58	27.58	30.07	-39.0	-40.9	15.2	0.00e+00	0	55	0	1228931072	48	4790
2026-01-10 08:57:55.60	26.41	29.67	-38.6	-40.4	15.8	0.00e+00	0	55	0	1241513984	48	4505
2026-01-10 08:57:59.63	25.27	29.26	-38.6	-40.4	15.8	0.00e+00	0	55	0	1254096896	48	4509
2026-01-10 08:58:03.67	24.16	28.85	-38.5	-40.2	15.9	0.00e+00	0	56	0	1266679808	48	4438
2026-01-10 08:58:07.70	23.08	28.43	-38.3	-40.0	16.0	0.00e+00	0	56	0	1279262720	48	4333
2026-01-10 08:58:11.74	22.02	28.01	-38.5	-40.3	15.8	0.00e+00	0	56	0	1291845632	48	4476
2026-01-10 08:58:15.77	21.00	27.58	-38.4	-40.1	16.0	0.00e+00	0	56	0	1304428544	48	4345
2026-01-10 08:58:19.80	20.00	27.15	-38.6	-40.4	15.7	0.00e+00	0	56	0	1317011456	48	4532
2026-01-10 08:58:23.83	19.03	26.71	-38.3	-40.0	16.0	0.00e+00	0	56	0	1329594368	48	4330
2026-01-10 08:58:27.85	18.08	26.28	-38.4	-40.1	16.0	0.00e+00	0	56	0	1342177280	48	4353
2026-01-10 08:58:31.88	17.17	25.84	-38.3	-40.0	16.1	0.00e+00	0	56	0	1354760192	48	4308
2026-01-10 08:58:35.92	16.27	25.41	-38.8	-40.6	15.5	0.00e+00	0	55	0	1367343104	48	4628
2026-01-10 08:58:39.95	15.40	24.97	-38.7	-40.6	15.5	0.00e+00	0	55	0	1379926016	48	4605
2026-01-10 08:58:43.98	14.56	24.53	-38.0	-39.6	16.4	0.00e+00	0	56	0	1392508928	48	4123
2026-01-10 08:58:48.01	13.74	24.09	-37.9	-39.5	16.4	0.00e+00	0	56	0	1405091840	47	4337
2026-01-10 08:58:52.03	12.94	23.66	-37.6	-39.2	16.6	0.00e+00	0	56	0	1417674752	47	4175
2026-01-10 08:58:56.07	12.16	23.22	-37.7	-39.4	16.5	0.00e+00	0	56	0	1430257664	47	4245
2026-01-10 08:59:00.09	11.41	22.79	-38.2	-39.9	16.0	0.00e+00	0	56	0	1442840576	47	4507
2026-01-10 08:59:04.13	10.68	22.36	-38.2	-39.9	15.9	0.00e+00	0	56	0	1455423488	47	4524
2026-01-10 08:59:08.17	9.96	21.93	-38.3	-40.1	15.8	0.00e+00	0	56	0	1468006400	47	4629
2026-01-10 08:59:12.19	9.27	21.51	-38.8	-40.7	15.3	0.00e+00	0	56	0	1480589312	48	4665
2026-01-10 08:59:16.22	8.59	21.08	-38.2	-40.0	15.9	0.00e+00	0	56	0	1493172224	48	4294
2026-01-10 08:59:20.26	7.94	20.66	-38.3	-40.1	15.8	0.00e+00	0	56	0	1505755136	48	4351
2026-01-10 08:59:24.29	7.30	20.25	-38.4	-40.2	15.7	0.00e+00	0	56	0	1518338048	48	4421
2026-01-10 08:59:28.32	6.68	19.83	-38.3	-40.1	15.7	0.00e+00	0	56	0	1530920960	48	4373
2026-01-10 08:59:32.36	6.07	19.42	-38.1	-39.8	15.9	0.00e+00	0	56	0	1543503872	48	4237
2026-01-10 08:59:36.39	5.49	19.01	-37.6	-39.3	16.3	0.00e+00	0	56	0	1556086784	47	4216
2026-01-10 08:59:40.42	4.92	18.61	-37.8	-39.5	16.1	0.00e+00	0	56	0	1568669696	47	4326
2026-01-10 08:59:44.45	4.36	18.21	-38.1	-39.9	15.7	0.00e+00	0	56	0	1581252608	47	4496
2026-01-10 08:59:48.48	3.82	17.82	-38.0	-39.9	15.6	0.00e+00	0	56	0	1593835520	47	4516
2026-01-10 08:59:52.51	3.29	17.42	-37.9	-39.8	15.6	0.00e+00	0	56	0	1606418432	47	4465
2026-01-10 08:59:56.54	2.78	17.04	-38.2	-40.1	15.3	0.00e+00	0	56	0	1619001344	47	4613
2026-01-10 09:00:00.57	2.28	16.65	-38.6	-40.7	14.7	7.00e-07	0	56	0	1631584256	47	4965
2026-01-10 09:00:04.60	1.79	16.27	-38.9	-41.0	14.4	1.50e-06	0	56	0	1644167168	48	4855
2026-01-10 09:00:08.64	1.32	15.89	-39.0	-41.2	14.1	2.20e-06	0	56	0	1656750080	48	4958
2026-01-10 09:00:12.67	0.85	15.52	-38.6	-40.7	14.4	0.00e+00	0	56	0	1669332992	48	4672
2026-01-10 09:00:16.69	0.40	15.15	-38.7	-41.0	13.8	3.00e-06	0	56	0	1681915904	48	4850
2026-01-10 09:00:20.72	359.96	14.78	-38.7	-41.1	13.4	6.80e-06	0	56	0	1694498816	48	4894
2026-01-10 09:00:24.75	359.54	14.42	-39.2	-42.0	12.3	1.29e-04	0	56	0	1707081728	48	5434
2026-01-10 09:00:28.79	359.12	14.06	-38.5	-41.0	13.2	2.05e-05	0	56	0	1719664640	49	4558
2026-01-10 09:00:32.82	358.71	13.71	-38.4	-41.2	12.5	9.68e-05	0	56	0	1732247552	48	4947
2026-01-10 09:00:36.85	358.31	13.36	-39.2	-42.7	10.6	3.24e-03	0	56	0	1744830464	48	5884
2026-01-10 09:00:40.88	357.92	13.01	-39.2	-43.0	10.0	7.08e-03	0	56	0	1757413376	48	6121
2026-01-10 09:00:44.90	357.55	12.67	-39.7	-44.5	8.3	5.22e-02	0	56	0	1769996288	49	6816
2026-01-10 09:00:48.93	357.18	12.33	-39.5	-44.2	8.7	3.23e-02	0	56	0	1782579200	49	6593
2026-01-10 09:00:52.96	356.82	11.99	-40.2	-48.3	4.9	6.61e-01	0	56	0	1795162112	51	9484
2026-01-10 09:00:57.00	356.46	11.66	-40.4	-50.7	4.0	1.48e+00	0	56	104	1796210688	51	12470
2026-01-10 09:01:01.03	356.12	11.33	-41.2	-53.5	3.8	1.49e+00	0	56	104	1796210688	52	16236
2026-01-10 09:01:05.06	355.78	11.00	-39.9	-52.5	3.8	1.49e+00	0	56	104	1796210688	51	15235
2026-01-10 09:01:09.10	355.45	10.68	-39.6	-52.2	3.8	1.49e+00	0	56	104	1796210688	49	16591
2026-01-10 09:01:13.13	355.13	10.36	-39.2	-52.1	3.8	1.49e+00	0	56	104	1796210688	49	16442
2026-01-10 09:01:17.18	354.82	10.04	-39.9	-52.4	3.8	1.49e+00	0	56	104	1796210688	50	15946
2026-01-10 09:01:21.21	354.51	9.73	-39.6	-52.2	3.8	1.49e+00	0	56	104	1796210688	50	15756
2026-01-10 09:01:25.25	354.21	9.41	-39.8	-52.3	3.8	1.49e+00	0	56	104	1796210688	50	15823
2026-01-10 09:01:29.29	353.91	9.11	-40.0	-52.3	3.8	1.49e+00	0	56	104	1796210688	50	15849
2026-01-10 09:01:33.32	353.63	8.80	-39.8	-52.3	3.8	1.49e+00	0	56	104	1796210688	50	15791
2026-01-10 09:01:37.36	353.34	8.50	-40.2	-52.5	3.8	1.49e+00	0	56	104	1796210688	50	16133
2026-01-10 09:01:41.39	353.07	8.20	-40.1	-52.4	3.8	1.49e+00	0	56	104	1796210688	51	15203
2026-01-10 09:01:45.42	352.80	7.91	-40.7	-53.0	3.8	1.49e+00	0	56	104	1796210688	51	16162
2026-01-10 09:01:49.45	352.54	7.61	-45.0	-57.5	3.8	1.49e+00	0	56	104	1796210688	60	16286
2026-01-10 09:01:53.49	352.28	7.32	-45.2	-57.7	3.8	1.49e+00	0	56	104	1796210688	60	16655
2026-01-10 09:01:57.52	352.03	7.04	-45.0	-57.6	3.8	1.49e+00	0	56	104	1796210688	60	16469
2026-01-10 09:02:01.56	351.78	6.75	-45.0	-57.6	3.8	1.49e+00	0	56	104	1796210688	60	16377
2026-01-10 09:02:05.60	351.54	6.47	-45.0	-57.6	3.8	1.49e+00	0	56	104	1796210688	60	16417
2026-01-10 09:02:09.64	351.30	6.19	-45.0	-57.5	3.8	1.49e+00	0	56	104	1796210688	60	16312
2026-01-10 09:02:13.67	351.07	5.91	-44.9	-57.5	3.8	1.49e+00	0	56	104	1796210688	60	16283
2026-01-10 09:02:17.70	350.84	5.64	-44.9	-57.5	3.8	1.49e+00	0	56	104	1796210688	60	16232
2026-01-10 09:02:21.74	350.62	5.36	-44.9	-57.5	3.8	1.49e+00	0	56	104	1796210688	60	16237
2026-01-10 09:02:25.78	350.40	5.09	-44.9	-57.5	3.8	1.49e+00	0	56	104	1796210688	60	16284
2026-01-10 09:02:29.81	350.18	4.83	-44.9	-57.5	3.8	1.49e+00	0	56	104	1796210688	60	16239
2026-01-10 09:02:33.85	349.97	4.56	-44.9	-57.5	3.8	1.49e+00	0	56	104	1796210688	60	16260
2026-01-10 09:02:37.89	349.76	4.30	-44.9	-57.5	3.8	1.49e+00	0	56	104	1796210688	60	16257
2026-01-10 09:02:41.93	349.56	4.03	-44.9	-57.5	3.8	1.49e+00	0	56	104	1796210688	60	16288
2026-01-10 09:02:45.96	349.36	3.78	-44.9	-57.5	3.8	1.49e+00	0	56	104	1796210688	60	16265
2026-01-10 09:02:50.00	349.17	3.52	-44.9	-57.5	3.8	1.49e+00	0	56	104	1796210688	60	16275
2026-01-10 09:02:54.04	348.98	3.26	-44.9	-57.5	3.8	1.49e+00	0	56	104	1796210688	60	16243
2026-01-10 09:02:58.06	348.79	3.01	-44.9	-57.5	3.8	1.49e+00	0	56	104	1796210688	60	16228
2026-01-10 09:03:02.10	348.61	2.76	-44.9	-57.5	3.8	1.49e+00	0	56	104	1796210688	60	16243
2026-01-10 09:03:06.14	348.42	2.51	-44.9	-57.5	3.8	1.49e+00	0	56	104	1796210688	60	16275
2026-01-10 09:03:10.16	348.25	2.27	-44.9	-57.5	3.8	1.49e+00	0	56	104	1796210688	60	16244
2026-01-10 09:03:14.20	348.07	2.02	-44.9	-57.5	3.8	1.49e+00	0	56	104	1796210688	60	16268

#Closed at: 2026-01-10 09:03:15
#Recorded file [1796 MB]: D:/lorett/data/31039_260110_114939.dat