passes_logs/2026/01/10/R2.0S_Moscow/R2.0S_Moscow__20260110_003846_NOAA_21_JPSS-2_rec.log

#Pass ID: 20260110_003846_NOAA 21 (JPSS-2)
#Satellite: NOAA 21 (JPSS-2)
#Configuration: NOAA-21
#almurnet v.1.7.20251203
#Start time: 2026-01-10 00:41:35

#Version: 2.2.20231116
#Station: R2.0S_Moscow
#Location: 37.707566 lon 55.798166 lat
#TLE: 1 54234U 22150A   26009.23291724  .00000115  00000+0  75298-4 0  9996
#TLE: 2 54234  98.7494 310.2026 0000856 324.9272  35.1848 14.19533567163994

#Time	Az	El	Level	Level2	SNR	BER	BlckErr	Temp	State	Recorded	gain1	gain2
2026-01-10 00:41:35.30	2.24	14.65	-44.6	-56.5	3.8	8.47e-01	0	56	0	0	60	14468
2026-01-10 00:41:38.31	1.95	14.93	-44.9	-57.4	3.8	1.49e+00	0	56	104	0	61	15202
2026-01-10 00:41:41.34	1.66	15.21	-44.7	-57.2	3.8	1.49e+00	0	56	104	0	61	14865
2026-01-10 00:41:44.36	1.36	15.50	-43.3	-55.2	3.8	1.49e+00	0	56	104	0	58	13929
2026-01-10 00:41:47.40	1.05	15.79	-43.3	-55.4	3.8	1.49e+00	0	56	104	0	58	14325
2026-01-10 00:41:50.43	0.74	16.09	-43.3	-55.5	3.8	1.49e+00	0	56	104	0	58	14414
2026-01-10 00:41:53.46	0.42	16.39	-43.3	-55.3	3.8	1.49e+00	0	56	104	0	58	14052
2026-01-10 00:41:56.49	0.09	16.69	-43.3	-55.5	3.8	1.49e+00	0	56	104	0	58	14456
2026-01-10 00:41:59.53	359.76	16.99	-43.3	-55.5	3.8	1.49e+00	0	56	104	0	58	14396
2026-01-10 00:42:02.56	359.42	17.29	-43.2	-54.7	3.8	1.49e+00	0	56	104	0	58	13190
2026-01-10 00:42:05.60	359.07	17.60	-43.2	-54.7	3.8	1.49e+00	0	56	104	0	58	13168
2026-01-10 00:42:08.63	358.71	17.91	-43.2	-54.7	3.8	1.49e+00	0	56	104	0	58	13132
2026-01-10 00:42:11.66	358.35	18.23	-42.9	-52.3	3.9	1.46e+00	0	56	104	0	57	10569
2026-01-10 00:42:14.69	357.98	18.54	-42.4	-49.4	5.4	6.26e-01	0	56	0	2097152	56	7993
2026-01-10 00:42:17.73	357.60	18.86	-42.8	-51.6	4.3	1.36e+00	0	56	104	8388608	56	10388
2026-01-10 00:42:20.76	357.21	19.19	-42.8	-52.2	3.9	1.48e+00	0	56	104	8388608	57	10510
2026-01-10 00:42:23.79	356.82	19.51	-40.1	-43.5	10.7	4.99e-03	0	56	0	16777216	52	5155
2026-01-10 00:42:26.82	356.42	19.84	-39.5	-42.4	12.0	3.31e-04	0	56	0	26214400	50	5045
2026-01-10 00:42:29.86	356.00	20.17	-40.2	-43.5	11.0	1.06e-03	0	56	0	35651584	50	5749
2026-01-10 00:42:32.89	355.58	20.50	-42.6	-49.1	5.8	1.02e-01	0	56	0	45088768	55	8207
2026-01-10 00:42:35.92	355.15	20.84	-37.6	-39.7	14.5	2.20e-06	0	56	0	51380224	47	4416
2026-01-10 00:42:38.95	354.71	21.18	-37.0	-38.9	15.4	0.00e+00	0	56	0	61865984	46	4267
2026-01-10 00:42:41.98	354.26	21.52	-37.2	-39.2	15.1	0.00e+00	0	56	0	71303168	46	4398
2026-01-10 00:42:45.01	353.80	21.86	-37.1	-39.0	15.4	0.00e+00	0	56	0	80740352	46	4313
2026-01-10 00:42:48.05	353.32	22.21	-36.8	-38.6	15.9	0.00e+00	0	56	0	90177536	45	4377
2026-01-10 00:42:51.08	352.84	22.56	-37.4	-39.2	15.4	0.00e+00	0	56	0	99614720	45	4698
2026-01-10 00:42:54.12	352.34	22.91	-37.3	-39.0	15.8	0.00e+00	0	56	0	109051904	45	4594
2026-01-10 00:42:57.15	351.84	23.27	-37.4	-39.1	15.9	0.00e+00	0	56	0	118489088	45	4637
2026-01-10 00:43:00.18	351.32	23.63	-37.3	-39.0	16.2	0.00e+00	0	56	0	127926272	45	4582
2026-01-10 00:43:03.21	350.79	23.99	-37.6	-39.3	15.9	0.00e+00	0	56	0	137363456	45	4758
2026-01-10 00:43:06.25	350.25	24.35	-37.8	-39.6	15.7	0.00e+00	0	56	0	146800640	46	4632
2026-01-10 00:43:09.28	349.69	24.71	-38.0	-39.8	15.5	0.00e+00	0	56	0	156237824	46	4744
2026-01-10 00:43:12.32	349.12	25.08	-38.0	-39.9	15.5	0.00e+00	0	56	0	165675008	46	4772
2026-01-10 00:43:15.35	348.54	25.45	-38.2	-40.1	15.3	0.00e+00	0	56	0	175112192	46	4881
2026-01-10 00:43:18.38	347.94	25.82	-38.3	-40.2	15.2	0.00e+00	0	56	0	184549376	47	4695
2026-01-10 00:43:21.42	347.33	26.19	-38.5	-40.4	15.0	0.00e+00	0	56	0	193986560	47	4811
2026-01-10 00:43:24.45	346.70	26.56	-38.7	-40.8	14.7	0.00e+00	0	56	0	203423744	47	4989
2026-01-10 00:43:27.48	346.06	26.93	-38.3	-40.1	15.3	0.00e+00	0	56	0	212860928	47	4651
2026-01-10 00:43:30.52	345.41	27.31	-38.2	-40.1	15.4	0.00e+00	0	56	0	222298112	47	4618
2026-01-10 00:43:33.55	344.73	27.68	-38.4	-40.3	15.2	0.00e+00	0	56	0	231735296	47	4716
2026-01-10 00:43:36.58	344.05	28.06	-38.3	-40.2	15.3	0.00e+00	0	56	0	241172480	47	4677
2026-01-10 00:43:39.62	343.34	28.44	-38.2	-40.1	15.4	0.00e+00	0	56	0	250609664	47	4621
2026-01-10 00:43:42.65	342.62	28.82	-38.5	-40.5	15.1	0.00e+00	0	56	0	260046848	47	4820
2026-01-10 00:43:45.68	341.88	29.19	-38.3	-40.2	15.4	0.00e+00	0	56	0	269484032	47	4678
2026-01-10 00:43:48.71	341.12	29.57	-38.2	-40.1	15.5	0.00e+00	0	56	0	278921216	47	4606
2026-01-10 00:43:51.74	340.35	29.94	-38.3	-40.1	15.5	0.00e+00	0	56	0	288358400	47	4617
2026-01-10 00:43:54.78	339.55	30.32	-38.4	-40.2	15.4	0.00e+00	0	56	0	297795584	47	4690
2026-01-10 00:43:57.81	338.74	30.69	-38.3	-40.2	15.4	0.00e+00	0	56	0	308281344	47	4666
2026-01-10 00:44:00.84	337.91	31.06	-38.2	-40.0	15.6	0.00e+00	0	56	0	317718528	47	4598
2026-01-10 00:44:03.87	337.06	31.43	-38.2	-40.1	15.6	0.00e+00	0	56	0	327155712	47	4601
2026-01-10 00:44:06.91	336.18	31.80	-38.5	-40.4	15.3	0.00e+00	0	56	0	336592896	47	4794
2026-01-10 00:44:09.94	335.29	32.16	-38.8	-40.7	15.0	0.00e+00	0	56	0	346030080	48	4677
2026-01-10 00:44:12.97	334.38	32.52	-38.9	-40.9	14.8	7.00e-07	0	56	0	355467264	48	4779
2026-01-10 00:44:16.01	333.45	32.88	-38.8	-40.7	15.1	7.00e-07	0	56	0	364904448	48	4673
2026-01-10 00:44:19.04	332.50	33.23	-38.7	-40.6	15.1	7.00e-07	0	56	0	374341632	48	4634
2026-01-10 00:44:22.07	331.53	33.57	-38.6	-40.5	15.2	0.00e+00	0	56	0	383778816	48	4573
2026-01-10 00:44:25.10	330.53	33.91	-38.7	-40.6	15.2	0.00e+00	0	56	0	393216000	48	4606
2026-01-10 00:44:28.13	329.52	34.25	-39.0	-41.1	14.7	0.00e+00	0	56	0	402653184	48	4878
2026-01-10 00:44:31.17	328.48	34.57	-38.9	-40.9	14.8	0.00e+00	0	56	0	412090368	48	4801
2026-01-10 00:44:34.20	327.42	34.89	-39.0	-41.0	14.7	0.00e+00	0	56	0	421527552	48	4853
2026-01-10 00:44:37.23	326.35	35.20	-39.2	-41.3	14.5	1.50e-06	0	56	0	430964736	49	4750
2026-01-10 00:44:40.26	325.25	35.50	-39.4	-41.6	14.1	3.00e-06	0	56	0	440401920	49	4909
2026-01-10 00:44:43.29	324.13	35.80	-39.2	-41.3	14.5	7.00e-07	0	56	0	449839104	49	4743
2026-01-10 00:44:46.33	322.99	36.08	-39.0	-41.0	14.8	0.00e+00	0	56	0	459276288	49	4569
2026-01-10 00:44:49.36	321.83	36.35	-39.1	-41.1	14.7	0.00e+00	0	56	0	468713472	49	4640
2026-01-10 00:44:52.39	320.65	36.61	-39.1	-41.0	14.7	0.00e+00	0	56	0	478150656	49	4598
2026-01-10 00:44:55.42	319.46	36.86	-39.1	-41.1	14.7	0.00e+00	0	56	0	487587840	49	4625
2026-01-10 00:44:58.46	318.24	37.09	-39.3	-41.4	14.4	7.00e-07	0	56	0	497025024	49	4770
2026-01-10 00:45:01.49	317.01	37.32	-39.8	-42.2	13.7	6.10e-06	0	56	0	506462208	50	4932
2026-01-10 00:45:04.52	315.76	37.52	-40.0	-42.4	13.4	9.10e-06	0	56	0	515899392	50	5082
2026-01-10 00:45:07.55	314.50	37.72	-39.9	-42.2	13.6	9.10e-06	0	56	0	525336576	50	4969
2026-01-10 00:45:10.59	313.21	37.90	-39.8	-42.2	13.7	8.30e-06	0	56	0	534773760	50	4931
2026-01-10 00:45:13.62	311.92	38.06	-40.0	-42.4	13.5	9.10e-06	0	56	0	544210944	50	5049
2026-01-10 00:45:16.65	310.62	38.21	-39.7	-41.9	13.9	5.30e-06	0	56	0	554696704	50	4806
2026-01-10 00:45:19.68	309.30	38.34	-39.8	-42.1	13.8	1.50e-06	0	56	0	563085312	50	4880
2026-01-10 00:45:22.72	307.97	38.45	-39.7	-42.0	13.9	7.00e-07	0	56	0	573571072	50	4848
2026-01-10 00:45:25.75	306.64	38.55	-39.5	-41.7	14.1	2.20e-06	0	56	0	583008256	50	4680
2026-01-10 00:45:28.78	305.30	38.63	-39.7	-41.9	14.0	2.20e-06	0	56	0	592445440	50	4763
2026-01-10 00:45:31.82	303.94	38.69	-40.0	-42.3	13.5	9.10e-06	0	56	0	601882624	50	5033
2026-01-10 00:45:34.85	302.59	38.73	-40.0	-42.3	13.6	1.37e-05	0	56	0	611319808	50	5027
2026-01-10 00:45:37.88	301.24	38.75	-39.9	-42.3	13.5	6.10e-06	0	56	0	620756992	50	5018
2026-01-10 00:45:40.91	299.88	38.76	-40.0	-42.4	13.5	1.14e-05	0	56	0	630194176	50	5042
2026-01-10 00:45:43.94	298.52	38.75	-40.3	-42.8	13.1	2.59e-05	0	56	0	639631360	51	5006
2026-01-10 00:45:46.97	297.17	38.72	-40.0	-42.4	13.4	1.22e-05	0	56	0	649068544	51	4806
2026-01-10 00:45:50.01	295.81	38.67	-39.7	-42.0	13.8	6.80e-06	0	56	0	658505728	51	4566
2026-01-10 00:45:53.04	294.47	38.60	-39.6	-41.8	13.9	4.50e-06	0	56	0	667942912	50	4738
2026-01-10 00:45:56.07	293.13	38.52	-39.7	-41.9	13.9	3.00e-06	0	56	0	677380096	50	4809
2026-01-10 00:45:59.10	291.79	38.42	-39.9	-42.3	13.5	1.29e-05	0	56	0	686817280	50	5015
2026-01-10 00:46:02.13	290.47	38.30	-39.8	-42.1	13.7	3.80e-06	0	56	0	696254464	50	4882
2026-01-10 00:46:05.17	289.15	38.16	-39.4	-41.5	14.3	1.50e-06	0	57	0	705691648	50	4571
2026-01-10 00:46:08.20	287.85	38.01	-39.1	-41.2	14.7	0.00e+00	0	56	0	715128832	50	4399
2026-01-10 00:46:11.23	286.56	37.84	-39.3	-41.4	14.5	2.20e-06	0	56	0	724566016	50	4499
2026-01-10 00:46:14.27	285.28	37.66	-39.2	-41.3	14.5	7.00e-07	0	56	0	734003200	50	4470
2026-01-10 00:46:17.30	284.02	37.46	-39.6	-41.9	13.9	2.20e-06	0	56	0	743440384	50	4760
2026-01-10 00:46:20.33	282.77	37.25	-39.9	-42.3	13.5	1.29e-05	0	56	0	752877568	50	4997
2026-01-10 00:46:23.36	281.54	37.02	-39.5	-41.6	14.2	1.50e-06	0	57	0	762314752	50	4636
2026-01-10 00:46:26.40	280.33	36.78	-39.2	-41.3	14.5	0.00e+00	0	56	0	771751936	50	4478
2026-01-10 00:46:29.43	279.13	36.53	-39.6	-41.8	14.0	7.00e-07	0	56	0	781189120	50	4741
2026-01-10 00:46:32.47	277.96	36.26	-39.3	-41.5	14.3	1.50e-06	0	56	0	790626304	50	4553
2026-01-10 00:46:35.50	276.80	35.99	-38.6	-40.4	15.3	0.00e+00	0	56	0	801112064	49	4282
2026-01-10 00:46:38.53	275.67	35.70	-38.8	-40.7	15.0	0.00e+00	0	56	0	809500672	49	4431
2026-01-10 00:46:41.56	274.55	35.41	-39.6	-41.8	14.0	3.00e-06	0	56	0	819986432	49	5015
2026-01-10 00:46:44.59	273.46	35.10	-38.9	-40.9	14.8	7.00e-07	0	56	0	829423616	49	4509
2026-01-10 00:46:47.62	272.38	34.79	-39.0	-41.0	14.8	0.00e+00	0	56	0	838860800	49	4551
2026-01-10 00:46:50.65	271.33	34.47	-39.8	-42.2	13.6	8.30e-06	0	56	0	848297984	50	4950
2026-01-10 00:46:53.69	270.29	34.13	-39.2	-41.3	14.4	7.00e-07	0	56	0	857735168	50	4467
2026-01-10 00:46:56.72	269.28	33.80	-39.6	-41.9	13.8	4.50e-06	0	56	0	867172352	50	4795
2026-01-10 00:46:59.75	268.29	33.46	-39.3	-41.4	14.3	1.50e-06	0	56	0	876609536	50	4514
2026-01-10 00:47:02.79	267.32	33.11	-38.4	-40.2	15.5	0.00e+00	0	56	0	886046720	48	4429
2026-01-10 00:47:05.82	266.37	32.75	-39.3	-41.4	14.3	0.00e+00	0	56	0	895483904	49	4784
2026-01-10 00:47:08.85	265.44	32.40	-39.6	-41.9	13.8	6.10e-06	0	56	0	904921088	50	4787
2026-01-10 00:47:11.88	264.53	32.03	-38.2	-39.9	15.8	0.00e+00	0	56	0	914358272	48	4267
2026-01-10 00:47:14.92	263.64	31.67	-38.3	-40.1	15.5	0.00e+00	0	56	0	923795456	48	4375
2026-01-10 00:47:17.95	262.78	31.30	-38.4	-40.3	15.3	0.00e+00	0	56	0	933232640	48	4454
2026-01-10 00:47:20.99	261.92	30.93	-38.1	-39.9	15.8	0.00e+00	0	56	0	942669824	48	4256
2026-01-10 00:47:24.02	261.10	30.55	-38.3	-40.2	15.5	0.00e+00	0	56	0	952107008	48	4406
2026-01-10 00:47:27.05	260.29	30.18	-38.5	-40.4	15.2	0.00e+00	0	56	0	961544192	48	4503
2026-01-10 00:47:30.08	259.50	29.80	-38.1	-39.9	15.7	0.00e+00	0	56	0	970981376	48	4271
2026-01-10 00:47:33.11	258.72	29.42	-38.2	-40.0	15.6	0.00e+00	0	57	0	980418560	48	4328
2026-01-10 00:47:36.15	257.97	29.05	-38.4	-40.4	15.3	0.00e+00	0	56	0	989855744	48	4495
2026-01-10 00:47:39.18	257.23	28.67	-38.0	-39.7	15.9	0.00e+00	0	56	0	999292928	48	4172
2026-01-10 00:47:42.21	256.51	28.29	-37.8	-39.5	16.0	0.00e+00	0	57	0	1008730112	47	4331
2026-01-10 00:47:45.24	255.81	27.91	-38.1	-39.9	15.7	0.00e+00	0	56	0	1018167296	47	4497
2026-01-10 00:47:48.28	255.12	27.53	-37.7	-39.4	16.1	0.00e+00	0	56	0	1027604480	47	4275
2026-01-10 00:47:51.31	254.45	27.15	-37.8	-39.5	15.9	0.00e+00	0	57	0	1037041664	47	4337
2026-01-10 00:47:54.34	253.79	26.78	-38.7	-40.7	14.8	7.00e-07	0	56	0	1046478848	47	4980
2026-01-10 00:47:57.38	253.15	26.40	-38.2	-40.0	15.6	0.00e+00	0	57	0	1055916032	48	4333
2026-01-10 00:48:00.41	252.53	26.03	-37.6	-39.3	16.1	0.00e+00	0	56	0	1066401792	47	4233
2026-01-10 00:48:03.44	251.92	25.66	-37.7	-39.4	16.1	0.00e+00	0	56	0	1075838976	47	4269
2026-01-10 00:48:06.48	251.32	25.28	-37.9	-39.7	15.7	0.00e+00	0	57	0	1085276160	47	4435
2026-01-10 00:48:09.51	250.74	24.92	-38.3	-40.2	15.3	0.00e+00	0	56	0	1094713344	47	4678
2026-01-10 00:48:12.54	250.18	24.55	-37.9	-39.6	15.8	0.00e+00	0	56	0	1104150528	47	4381
2026-01-10 00:48:15.58	249.62	24.18	-37.4	-39.0	16.5	0.00e+00	0	57	0	1113587712	46	4316
2026-01-10 00:48:18.61	249.08	23.82	-37.3	-38.9	16.6	0.00e+00	0	57	0	1123024896	46	4244
2026-01-10 00:48:21.64	248.55	23.46	-37.6	-39.3	16.2	0.00e+00	0	56	0	1132462080	46	4446
2026-01-10 00:48:24.68	248.03	23.10	-37.7	-39.4	16.0	0.00e+00	0	57	0	1141899264	46	4525
2026-01-10 00:48:27.71	247.52	22.75	-37.5	-39.2	16.2	0.00e+00	0	56	0	1151336448	46	4414
2026-01-10 00:48:30.74	247.03	22.39	-37.9	-39.7	15.8	0.00e+00	0	56	0	1160773632	46	4666
2026-01-10 00:48:33.77	246.55	22.04	-38.0	-39.8	15.7	0.00e+00	0	57	0	1170210816	46	4721
2026-01-10 00:48:36.80	246.08	21.70	-37.7	-39.4	16.0	0.00e+00	0	57	0	1179648000	46	4521
2026-01-10 00:48:39.84	245.61	21.35	-37.8	-39.6	15.9	0.00e+00	0	56	0	1189085184	46	4607
2026-01-10 00:48:42.87	245.16	21.01	-38.2	-40.2	15.3	0.00e+00	0	57	0	1198522368	47	4652
2026-01-10 00:48:45.90	244.72	20.67	-38.3	-40.2	15.2	0.00e+00	0	57	0	1207959552	47	4683
2026-01-10 00:48:48.93	244.29	20.33	-38.0	-39.8	15.6	0.00e+00	0	56	0	1217396736	47	4462
2026-01-10 00:48:51.97	243.87	20.00	-37.8	-39.6	15.8	0.00e+00	0	56	0	1226833920	47	4368
2026-01-10 00:48:55.00	243.45	19.67	-37.8	-39.6	15.8	0.00e+00	0	56	0	1236271104	47	4345
2026-01-10 00:48:58.03	243.05	19.34	-37.8	-39.5	15.9	0.00e+00	0	56	0	1245708288	47	4316
2026-01-10 00:49:01.07	242.65	19.01	-37.5	-39.2	16.1	0.00e+00	0	57	0	1255145472	47	4183
2026-01-10 00:49:04.10	242.27	18.69	-37.8	-39.6	15.8	0.00e+00	0	56	0	1264582656	47	4347
2026-01-10 00:49:07.13	241.89	18.37	-37.8	-39.6	15.8	0.00e+00	0	57	0	1274019840	47	4350
2026-01-10 00:49:10.16	241.52	18.05	-37.7	-39.4	15.9	0.00e+00	0	57	0	1283457024	47	4265
2026-01-10 00:49:13.19	241.16	17.74	-37.7	-39.5	15.8	0.00e+00	0	57	0	1292894208	47	4320
2026-01-10 00:49:16.23	240.80	17.43	-37.8	-39.6	15.7	0.00e+00	0	56	0	1302331392	47	4364
2026-01-10 00:49:19.26	240.45	17.12	-38.0	-39.9	15.4	0.00e+00	0	57	0	1312817152	47	4510
2026-01-10 00:49:22.29	240.11	16.81	-38.3	-40.2	15.1	0.00e+00	0	56	0	1321205760	47	4689
2026-01-10 00:49:25.32	239.78	16.51	-38.6	-40.7	14.7	0.00e+00	0	57	0	1331691520	47	4929
2026-01-10 00:49:28.35	239.45	16.21	-38.6	-40.7	14.6	0.00e+00	0	57	0	1341128704	47	4942
2026-01-10 00:49:31.38	239.13	15.91	-38.6	-40.6	14.6	0.00e+00	0	57	0	1350565888	47	4922
2026-01-10 00:49:34.41	238.82	15.62	-38.6	-40.6	14.6	7.00e-07	0	57	0	1360003072	47	4897
2026-01-10 00:49:37.44	238.51	15.32	-38.4	-40.4	14.9	0.00e+00	0	57	0	1369440256	47	4774
2026-01-10 00:49:40.47	238.21	15.03	-38.5	-40.5	14.7	0.00e+00	0	56	0	1378877440	47	4865
2026-01-10 00:49:43.50	237.91	14.75	-38.5	-40.6	14.7	7.00e-07	0	57	0	1388314624	47	4887
2026-01-10 00:49:46.54	237.62	14.46	-38.9	-41.0	14.3	0.00e+00	0	56	0	1397751808	48	4870
2026-01-10 00:49:49.57	237.34	14.18	-39.0	-41.1	14.2	7.00e-07	0	57	0	1407188992	48	4911
2026-01-10 00:49:52.60	237.06	13.90	-39.1	-41.3	14.0	2.20e-06	0	57	0	1416626176	48	4988
2026-01-10 00:49:55.63	236.78	13.62	-38.9	-41.1	14.2	3.00e-06	0	57	0	1426063360	48	4891
2026-01-10 00:49:58.67	236.51	13.35	-38.8	-40.9	14.3	7.00e-07	0	57	0	1435500544	48	4772
2026-01-10 00:50:01.70	236.25	13.08	-38.5	-40.4	14.8	0.00e+00	0	56	0	1444937728	48	4542
2026-01-10 00:50:04.73	235.99	12.81	-38.4	-40.4	14.8	0.00e+00	0	57	0	1454374912	48	4517
2026-01-10 00:50:07.77	235.74	12.54	-38.5	-40.5	14.8	0.00e+00	0	57	0	1463812096	48	4547
2026-01-10 00:50:10.80	235.49	12.28	-38.7	-40.8	14.4	7.00e-07	0	57	0	1473249280	48	4709
2026-01-10 00:50:13.83	235.24	12.01	-38.8	-41.0	14.2	1.50e-06	0	56	0	1482686464	48	4826
2026-01-10 00:50:16.86	235.00	11.75	-39.0	-41.2	13.9	4.50e-06	0	57	0	1492123648	48	4980
2026-01-10 00:50:19.89	234.77	11.50	-39.0	-41.3	13.9	3.80e-06	0	56	0	1501560832	49	4714
2026-01-10 00:50:22.92	234.54	11.24	-39.2	-41.5	13.7	3.00e-06	0	57	0	1510998016	49	4826
2026-01-10 00:50:25.96	234.31	10.99	-39.2	-41.5	13.5	1.14e-05	0	57	0	1520435200	49	4863
2026-01-10 00:50:28.99	234.08	10.74	-39.2	-41.5	13.6	1.29e-05	0	57	0	1529872384	49	4845
2026-01-10 00:50:32.02	233.86	10.49	-39.1	-41.5	13.6	1.37e-05	0	57	0	1539309568	49	4824
2026-01-10 00:50:35.05	233.65	10.24	-39.1	-41.5	13.6	9.90e-06	0	57	0	1548746752	49	4831
2026-01-10 00:50:38.08	233.44	9.99	-39.2	-41.5	13.5	1.75e-05	0	57	0	1558183936	49	4834
2026-01-10 00:50:41.11	233.23	9.75	-39.1	-41.5	13.5	9.90e-06	0	57	0	1567621120	49	4828
2026-01-10 00:50:44.14	233.02	9.51	-39.2	-41.6	13.4	1.98e-05	0	57	0	1577058304	49	4909
2026-01-10 00:50:47.17	232.82	9.27	-39.3	-41.8	13.2	1.44e-05	0	57	0	1587544064	49	4997
2026-01-10 00:50:50.21	232.62	9.03	-39.3	-41.7	13.2	2.59e-05	0	57	0	1596981248	49	4968
2026-01-10 00:50:53.24	232.43	8.80	-39.4	-41.9	13.0	3.89e-05	0	57	0	1606418432	49	5051
2026-01-10 00:50:56.27	232.24	8.56	-39.4	-42.0	12.9	4.34e-05	0	57	0	1615855616	49	5126
2026-01-10 00:50:59.31	232.05	8.33	-39.4	-42.0	12.8	6.63e-05	0	57	0	1625292800	49	5140
2026-01-10 00:51:02.34	231.86	8.10	-39.4	-42.0	12.8	9.07e-05	0	57	0	1634729984	49	5117
2026-01-10 00:51:05.37	231.68	7.88	-44.5	-56.8	3.8	1.49e+00	0	57	104	1638924288	59	15791
2026-01-10 00:51:08.41	231.50	7.65	-44.8	-57.3	3.8	1.49e+00	0	57	104	1638924288	60	15768
2026-01-10 00:51:11.44	231.32	7.42	-44.9	-57.4	3.8	1.49e+00	0	57	104	1638924288	60	16031
2026-01-10 00:51:14.47	231.15	7.20	-44.9	-57.4	3.8	1.49e+00	0	57	104	1638924288	60	16054
2026-01-10 00:51:17.51	230.98	6.98	-44.8	-57.4	3.8	1.49e+00	0	57	104	1638924288	60	15973
2026-01-10 00:51:20.54	230.81	6.76	-44.8	-57.3	3.8	1.49e+00	0	57	104	1638924288	60	15922
2026-01-10 00:51:23.57	230.64	6.54	-44.8	-57.4	3.8	1.49e+00	0	57	104	1638924288	60	15984
2026-01-10 00:51:26.60	230.48	6.33	-44.8	-57.3	3.8	1.49e+00	0	57	104	1638924288	60	15900
2026-01-10 00:51:29.63	230.32	6.11	-44.8	-57.4	3.8	1.49e+00	0	57	104	1638924288	60	15963
2026-01-10 00:51:32.65	230.16	5.90	-44.8	-57.3	3.8	1.49e+00	0	57	104	1638924288	60	15883
2026-01-10 00:51:35.68	230.01	5.69	-44.8	-57.3	3.8	1.49e+00	0	57	104	1638924288	60	15911
2026-01-10 00:51:38.70	229.85	5.48	-44.8	-57.3	3.8	1.49e+00	0	57	104	1638924288	60	15892
2026-01-10 00:51:41.73	229.70	5.27	-44.8	-57.3	3.8	1.49e+00	0	57	104	1638924288	60	15872
2026-01-10 00:51:44.76	229.55	5.06	-44.7	-57.3	3.8	1.49e+00	0	57	104	1638924288	60	15877
2026-01-10 00:51:47.79	229.41	4.86	-44.8	-57.3	3.8	1.49e+00	0	57	104	1638924288	60	15889
2026-01-10 00:51:50.81	229.26	4.65	-44.8	-57.3	3.8	1.49e+00	0	57	104	1638924288	60	15891
2026-01-10 00:51:53.83	229.12	4.45	-44.7	-57.3	3.8	1.49e+00	0	57	104	1638924288	60	15852
2026-01-10 00:51:56.86	228.98	4.25	-44.7	-57.3	3.8	1.49e+00	0	57	104	1638924288	60	15844
2026-01-10 00:51:59.88	228.84	4.05	-44.7	-57.3	3.8	1.49e+00	0	57	104	1638924288	60	15874
2026-01-10 00:52:02.91	228.70	3.85	-44.7	-57.3	3.8	1.49e+00	0	57	104	1638924288	60	15806
2026-01-10 00:52:05.94	228.57	3.65	-44.7	-57.3	3.8	1.49e+00	0	57	104	1638924288	60	15822
2026-01-10 00:52:08.97	228.44	3.46	-44.7	-57.3	3.8	1.49e+00	0	57	104	1638924288	60	15820
2026-01-10 00:52:12.00	228.31	3.26	-44.7	-57.3	3.8	1.49e+00	0	57	104	1638924288	60	15791
2026-01-10 00:52:15.02	228.18	3.07	-44.7	-57.3	3.8	1.49e+00	0	57	104	1638924288	60	15857
2026-01-10 00:52:18.05	228.05	2.88	-44.7	-57.3	3.8	1.49e+00	0	57	104	1638924288	60	15762
2026-01-10 00:52:21.08	227.92	2.69	-44.7	-57.2	3.8	1.49e+00	0	57	104	1638924288	60	15728
2026-01-10 00:52:24.11	227.80	2.50	-44.7	-57.2	3.8	1.49e+00	0	57	104	1638924288	60	15712
2026-01-10 00:52:27.14	227.68	2.31	-44.7	-57.2	3.8	1.49e+00	0	57	104	1638924288	60	15716
2026-01-10 00:52:30.17	227.56	2.12	-44.7	-57.2	3.8	1.49e+00	0	57	104	1638924288	60	15756
2026-01-10 00:52:33.20	227.44	1.93	-44.7	-57.3	3.8	1.49e+00	0	57	104	1638924288	60	15785

#Closed at: 2026-01-10 00:52:33
#Recorded file [1638 MB]: D:/lorett/data/31039_260110_034135.dat