passes_logs/2026/01/10/R2.0S_Moscow/R2.0S_Moscow__20260110_120641_FENGYUN_3E_rec.log

#Pass ID: 20260110_120641_FENGYUN 3E
#Satellite: FENGYUN 3E
#Configuration: FENGYUN 3E
#almurnet v.1.7.20251203
#Start time: 2026-01-10 12:13:17

#Version: 2.2.20231116
#Station: R2.0S_Moscow
#Location: 37.707566 lon 55.798166 lat
#TLE: 1 49008U 21062A   26009.29780149 -.00000002  00000+0  19895-4 0  9997
#TLE: 2 49008  98.7484  14.4929 0001744 148.2300 211.8982 14.19883977234036

#Time	Az	El	Level	Level2	SNR	BER	BlckErr	Temp	State	Recorded	gain1	gain2
2026-01-10 12:13:17.58	33.78	16.05	-44.9	-56.7	3.8	8.46e-01	0	56	0	0	60	14874
2026-01-10 12:13:19.61	33.35	16.01	-45.7	-56.7	3.8	8.46e-01	0	57	104	0	62	12501
2026-01-10 12:13:21.62	32.92	15.96	-45.6	-56.7	3.8	8.45e-01	0	57	104	0	62	12469
2026-01-10 12:13:23.65	32.48	15.91	-45.3	-56.4	3.8	8.46e-01	0	57	104	0	61	12715
2026-01-10 12:13:25.67	32.05	15.87	-45.0	-56.0	3.8	8.45e-01	0	57	104	0	60	12919
2026-01-10 12:13:27.69	31.62	15.82	-44.8	-55.9	3.8	8.46e-01	0	57	104	0	60	12784
2026-01-10 12:13:29.71	31.20	15.76	-44.8	-55.9	3.8	8.46e-01	0	57	104	0	60	12787
2026-01-10 12:13:31.73	30.77	15.71	-44.8	-55.9	3.8	8.47e-01	0	57	104	0	60	12772
2026-01-10 12:13:33.75	30.35	15.66	-44.8	-55.8	3.8	8.46e-01	0	57	104	0	60	12611
2026-01-10 12:13:35.77	29.92	15.60	-44.8	-55.8	3.8	8.47e-01	0	57	104	0	60	12611
2026-01-10 12:13:37.79	29.50	15.54	-44.8	-55.9	3.8	8.47e-01	0	57	104	0	60	12752
2026-01-10 12:13:39.81	29.08	15.48	-44.8	-55.8	3.8	8.47e-01	0	57	104	0	60	12663
2026-01-10 12:13:41.83	28.67	15.42	-44.8	-55.9	3.8	8.46e-01	0	57	104	0	60	12673
2026-01-10 12:13:43.85	28.25	15.36	-44.8	-56.0	3.8	8.47e-01	0	57	104	0	60	12812
2026-01-10 12:13:45.87	27.84	15.30	-44.8	-55.9	3.8	8.46e-01	0	57	104	0	60	12793
2026-01-10 12:13:47.89	27.42	15.23	-44.8	-55.9	3.8	8.46e-01	0	57	104	0	60	12673
2026-01-10 12:13:49.91	27.01	15.17	-44.8	-55.8	3.8	8.45e-01	0	57	104	0	60	12659
2026-01-10 12:13:51.93	26.60	15.10	-44.7	-55.4	3.8	8.47e-01	0	57	104	0	60	12088
2026-01-10 12:13:53.95	26.20	15.03	-44.6	-54.1	3.8	8.45e-01	0	57	104	0	60	10332
2026-01-10 12:13:55.97	25.79	14.96	-44.3	-51.6	4.3	8.34e-01	0	57	0	0	59	8256
2026-01-10 12:13:57.99	25.39	14.89	-43.8	-49.8	5.2	7.54e-01	0	57	0	0	58	7079
2026-01-10 12:14:00.01	24.99	14.82	-43.4	-48.6	6.1	3.74e-01	0	57	0	6291456	57	6501
2026-01-10 12:14:02.03	24.59	14.75	-42.8	-47.1	7.4	1.48e-01	0	57	0	20971520	56	5790
2026-01-10 12:14:04.05	24.19	14.67	-41.6	-44.7	9.7	1.90e-02	0	57	0	35651584	54	4956
2026-01-10 12:14:06.08	23.80	14.60	-40.0	-42.2	12.4	3.34e-04	0	57	0	49283072	51	4422
2026-01-10 12:14:08.10	23.40	14.52	-38.5	-40.3	14.4	3.40e-06	0	57	0	65011712	48	4199
2026-01-10 12:14:10.12	23.01	14.44	-38.1	-39.8	14.7	1.10e-06	0	57	0	78643200	47	4199
2026-01-10 12:14:12.14	22.62	14.37	-39.2	-41.2	13.2	1.94e-05	0	57	0	93323264	47	4928
2026-01-10 12:14:14.17	22.23	14.29	-38.3	-40.1	14.3	5.70e-06	0	57	0	96468992	46	4605
2026-01-10 12:14:16.18	21.85	14.21	-38.7	-40.5	14.1	3.08e-05	0	57	0	109051904	48	4316
2026-01-10 12:14:18.21	21.47	14.12	-38.1	-39.7	14.7	0.00e+00	0	57	0	119537664	47	4187
2026-01-10 12:14:20.23	21.09	14.04	-37.7	-39.3	15.1	0.00e+00	0	57	0	134217728	46	4217
2026-01-10 12:14:22.25	20.71	13.96	-37.4	-38.9	15.5	0.00e+00	0	57	0	148897792	45	4280
2026-01-10 12:14:24.27	20.33	13.87	-37.2	-38.7	15.7	0.00e+00	0	57	0	163577856	45	4161
2026-01-10 12:14:26.29	19.96	13.79	-37.3	-38.8	15.6	0.00e+00	0	57	0	178257920	45	4213
2026-01-10 12:14:28.31	19.59	13.70	-37.1	-38.7	15.7	0.00e+00	0	57	0	192937984	45	4146
2026-01-10 12:14:30.33	19.22	13.61	-37.1	-38.6	15.7	0.00e+00	0	57	0	207618048	45	4138
2026-01-10 12:14:32.35	18.85	13.52	-37.0	-38.5	15.8	0.00e+00	0	57	0	222298112	45	4087
2026-01-10 12:14:34.37	18.49	13.43	-37.0	-38.5	15.8	0.00e+00	0	57	0	236978176	44	4324
2026-01-10 12:14:36.38	18.13	13.35	-37.1	-38.6	15.8	0.00e+00	0	57	0	251658240	44	4361
2026-01-10 12:14:38.40	17.77	13.25	-37.2	-38.7	15.6	0.00e+00	0	57	0	266338304	44	4415
2026-01-10 12:14:40.42	17.41	13.16	-37.3	-38.9	15.4	0.00e+00	0	57	0	279969792	44	4515
2026-01-10 12:14:42.44	17.05	13.07	-37.3	-38.9	15.4	0.00e+00	0	57	0	294649856	44	4512
2026-01-10 12:14:44.46	16.70	12.98	-37.4	-39.0	15.3	0.00e+00	0	57	0	309329920	44	4565
2026-01-10 12:14:46.48	16.35	12.88	-37.4	-39.0	15.2	0.00e+00	0	57	0	324009984	44	4591
2026-01-10 12:14:48.50	16.00	12.79	-37.6	-39.3	15.0	0.00e+00	0	57	0	338690048	44	4719
2026-01-10 12:14:50.52	15.65	12.70	-37.8	-39.5	14.7	1.10e-06	0	57	0	353370112	45	4572
2026-01-10 12:14:52.54	15.31	12.60	-37.9	-39.6	14.6	0.00e+00	0	57	0	368050176	45	4609
2026-01-10 12:14:54.56	14.97	12.50	-37.8	-39.4	14.7	0.00e+00	0	57	0	382730240	45	4539
2026-01-10 12:14:56.58	14.63	12.41	-37.8	-39.4	14.7	0.00e+00	0	57	0	396361728	45	4539
2026-01-10 12:14:58.59	14.29	12.31	-37.5	-39.1	15.0	0.00e+00	0	57	0	412090368	45	4378
2026-01-10 12:15:00.61	13.96	12.21	-37.5	-39.1	15.0	1.10e-06	0	57	0	425721856	45	4359
2026-01-10 12:15:02.63	13.62	12.11	-37.6	-39.2	14.9	0.00e+00	0	57	0	440401920	45	4441
2026-01-10 12:15:04.65	13.29	12.01	-37.7	-39.4	14.7	1.10e-06	0	57	0	455081984	45	4501
2026-01-10 12:15:06.67	12.96	11.91	-37.8	-39.5	14.6	2.20e-06	0	57	0	469762048	45	4561
2026-01-10 12:15:08.68	12.64	11.81	-37.5	-39.3	14.6	1.10e-06	0	57	0	484442112	45	4442
2026-01-10 12:15:10.70	12.32	11.71	-37.6	-39.4	14.4	1.10e-06	0	57	0	499122176	45	4504
2026-01-10 12:15:12.73	11.99	11.61	-37.6	-39.4	14.2	1.10e-06	0	57	0	513802240	45	4521
2026-01-10 12:15:14.75	11.67	11.51	-37.4	-39.2	14.2	1.10e-06	0	57	0	528482304	45	4439
2026-01-10 12:15:16.77	11.36	11.41	-37.4	-39.3	14.0	1.10e-06	0	57	0	543162368	45	4480
2026-01-10 12:15:18.79	11.04	11.31	-38.2	-40.4	12.6	9.26e-05	0	57	0	557842432	45	5090
2026-01-10 12:15:20.81	10.73	11.20	-39.0	-41.7	10.8	1.90e-03	0	57	0	571473920	47	5278
2026-01-10 12:15:22.83	10.42	11.10	-40.0	-43.8	8.4	3.40e-02	0	57	0	586153984	49	5961
2026-01-10 12:15:24.84	10.11	11.00	-40.7	-45.9	6.1	2.62e-01	0	57	0	600834048	50	7170
2026-01-10 12:15:26.86	9.81	10.89	-41.2	-48.6	4.4	8.20e-01	0	57	0	605028352	51	9223
2026-01-10 12:15:28.88	9.50	10.79	-41.1	-50.0	3.8	8.43e-01	0	57	104	605028352	52	10285
2026-01-10 12:15:30.90	9.20	10.68	-40.9	-49.3	4.1	8.41e-01	0	57	0	605028352	52	9483
2026-01-10 12:15:32.93	8.90	10.58	-41.0	-50.3	3.9	8.45e-01	0	57	104	605028352	52	10644
2026-01-10 12:15:34.94	8.60	10.47	-40.9	-51.2	3.8	8.46e-01	0	57	104	605028352	52	11708
2026-01-10 12:15:36.96	8.31	10.37	-40.9	-51.2	3.8	8.46e-01	0	57	104	605028352	52	11765
2026-01-10 12:15:38.99	8.02	10.26	-40.9	-51.1	3.8	8.47e-01	0	57	104	605028352	52	11551
2026-01-10 12:15:41.00	7.73	10.15	-40.8	-51.4	3.8	8.45e-01	0	57	104	605028352	52	12073
2026-01-10 12:15:43.02	7.44	10.05	-40.6	-51.6	3.8	8.47e-01	0	57	104	605028352	52	12338
2026-01-10 12:15:45.04	7.15	9.94	-40.3	-51.4	3.8	8.47e-01	0	57	104	605028352	51	12702
2026-01-10 12:15:47.06	6.87	9.83	-40.6	-51.6	3.8	8.46e-01	0	57	104	605028352	51	13058
2026-01-10 12:15:49.07	6.59	9.73	-40.5	-51.6	3.8	8.46e-01	0	57	104	605028352	51	12974
2026-01-10 12:15:51.10	6.31	9.62	-40.3	-51.3	3.8	8.47e-01	0	57	104	605028352	51	12536
2026-01-10 12:15:53.11	6.03	9.51	-40.2	-51.2	3.8	8.47e-01	0	57	104	605028352	51	12478
2026-01-10 12:15:55.13	5.75	9.41	-40.2	-51.2	3.8	8.47e-01	0	57	104	605028352	51	12444
2026-01-10 12:15:57.15	5.48	9.30	-40.6	-51.7	3.8	8.46e-01	0	57	104	605028352	51	13159
2026-01-10 12:15:59.18	5.21	9.19	-40.3	-51.3	3.8	8.46e-01	0	57	104	605028352	51	12622
2026-01-10 12:16:01.20	4.94	9.08	-40.3	-51.3	3.8	8.47e-01	0	57	104	605028352	51	12567
2026-01-10 12:16:03.22	4.67	8.97	-40.2	-51.2	3.8	8.45e-01	0	57	104	605028352	51	12452
2026-01-10 12:16:05.24	4.40	8.86	-40.2	-51.2	3.8	8.46e-01	0	57	104	605028352	51	12488
2026-01-10 12:16:07.26	4.14	8.76	-40.1	-51.2	3.8	8.46e-01	0	57	104	605028352	51	12470
2026-01-10 12:16:09.28	3.88	8.65	-40.2	-51.2	3.8	8.46e-01	0	57	104	605028352	51	12493
2026-01-10 12:16:11.30	3.62	8.54	-40.3	-51.3	3.8	8.46e-01	0	57	104	605028352	51	12576
2026-01-10 12:16:13.32	3.36	8.43	-40.2	-51.3	3.8	8.47e-01	0	57	104	605028352	51	12561
2026-01-10 12:16:15.34	3.11	8.32	-40.2	-51.3	3.8	8.47e-01	0	58	104	605028352	51	12560
2026-01-10 12:16:17.36	2.85	8.21	-40.2	-51.3	3.8	8.45e-01	0	57	104	605028352	51	12553
2026-01-10 12:16:19.38	2.60	8.10	-40.2	-51.2	3.8	8.47e-01	0	58	104	605028352	51	12508
2026-01-10 12:16:21.40	2.35	7.99	-40.2	-51.2	3.8	8.47e-01	0	57	104	605028352	51	12499
2026-01-10 12:16:23.42	2.11	7.88	-44.8	-55.7	3.8	8.46e-01	0	58	104	605028352	59	13132
2026-01-10 12:16:25.44	1.86	7.77	-45.4	-56.5	3.8	8.47e-01	0	58	104	605028352	60	13669
2026-01-10 12:16:27.46	1.62	7.67	-45.6	-56.7	3.8	8.45e-01	0	57	104	605028352	60	13980
2026-01-10 12:16:29.48	1.37	7.56	-45.7	-56.8	3.8	8.46e-01	0	57	104	605028352	60	14050
2026-01-10 12:16:31.50	1.13	7.45	-45.6	-56.7	3.8	8.46e-01	0	57	104	605028352	60	13959
2026-01-10 12:16:33.52	0.90	7.34	-45.5	-56.5	3.8	8.46e-01	0	57	104	605028352	60	13704
2026-01-10 12:16:35.54	0.66	7.23	-45.5	-56.5	3.8	8.46e-01	0	58	104	605028352	60	13600
2026-01-10 12:16:37.56	0.42	7.12	-45.4	-56.4	3.8	8.46e-01	0	57	104	605028352	60	13492
2026-01-10 12:16:39.58	0.19	7.01	-45.4	-56.4	3.8	8.47e-01	0	57	104	605028352	60	13529
2026-01-10 12:16:41.60	359.96	6.90	-45.4	-56.4	3.8	8.45e-01	0	57	104	605028352	60	13488
2026-01-10 12:16:43.63	359.73	6.79	-45.4	-56.4	3.8	8.46e-01	0	57	104	605028352	60	13498
2026-01-10 12:16:45.65	359.50	6.68	-45.4	-56.4	3.8	8.45e-01	0	57	104	605028352	60	13458
2026-01-10 12:16:47.67	359.28	6.57	-45.4	-56.4	3.8	8.46e-01	0	57	104	605028352	60	13443
2026-01-10 12:16:49.69	359.05	6.46	-45.4	-56.4	3.8	8.46e-01	0	57	104	605028352	60	13426
2026-01-10 12:16:51.72	358.83	6.35	-45.4	-56.4	3.8	8.47e-01	0	57	104	605028352	60	13440
2026-01-10 12:16:53.74	358.61	6.25	-45.4	-56.3	3.8	8.46e-01	0	57	104	605028352	60	13412
2026-01-10 12:16:55.76	358.39	6.14	-45.4	-56.4	3.8	8.47e-01	0	57	104	605028352	60	13430
2026-01-10 12:16:57.78	358.17	6.03	-45.4	-56.4	3.8	8.46e-01	0	57	104	605028352	60	13423
2026-01-10 12:16:59.80	357.96	5.92	-45.4	-56.3	3.8	8.46e-01	0	58	104	605028352	60	13408
2026-01-10 12:17:01.82	357.74	5.81	-45.4	-56.4	3.8	8.46e-01	0	57	104	605028352	60	13424
2026-01-10 12:17:03.85	357.53	5.70	-45.4	-56.4	3.8	8.46e-01	0	57	104	605028352	60	13448
2026-01-10 12:17:05.87	357.32	5.59	-45.4	-56.3	3.8	8.46e-01	0	57	104	605028352	60	13412
2026-01-10 12:17:07.89	357.11	5.48	-45.4	-56.4	3.8	8.47e-01	0	57	104	605028352	60	13441
2026-01-10 12:17:09.91	356.90	5.38	-45.4	-56.3	3.8	8.46e-01	0	58	104	605028352	60	13351
2026-01-10 12:17:11.93	356.70	5.27	-45.3	-56.3	3.8	8.46e-01	0	57	104	605028352	60	13403
2026-01-10 12:17:13.95	356.49	5.16	-45.3	-56.3	3.8	8.45e-01	0	58	104	605028352	60	13411
2026-01-10 12:17:15.97	356.29	5.05	-45.3	-56.3	3.8	8.46e-01	0	58	104	605028352	60	13333
2026-01-10 12:17:17.99	356.09	4.94	-45.3	-56.3	3.8	8.46e-01	0	58	104	605028352	60	13332
2026-01-10 12:17:20.02	355.89	4.83	-45.3	-56.3	3.8	8.47e-01	0	57	104	605028352	60	13339
2026-01-10 12:17:22.04	355.69	4.73	-45.3	-56.3	3.8	8.47e-01	0	57	104	605028352	60	13388
2026-01-10 12:17:24.06	355.50	4.62	-45.3	-56.3	3.8	8.45e-01	0	58	104	605028352	60	13405
2026-01-10 12:17:26.08	355.30	4.51	-45.3	-56.3	3.8	8.46e-01	0	57	104	605028352	60	13378
2026-01-10 12:17:28.10	355.11	4.40	-45.3	-56.3	3.8	8.46e-01	0	58	104	605028352	60	13363
2026-01-10 12:17:30.12	354.92	4.30	-45.3	-56.3	3.8	8.47e-01	0	58	104	605028352	60	13346
2026-01-10 12:17:32.14	354.72	4.19	-45.3	-56.3	3.8	8.47e-01	0	57	104	605028352	60	13385
2026-01-10 12:17:34.16	354.54	4.08	-45.3	-56.3	3.8	8.47e-01	0	58	104	605028352	60	13366
2026-01-10 12:17:36.19	354.35	3.98	-45.3	-56.3	3.8	8.46e-01	0	58	104	605028352	60	13356
2026-01-10 12:17:38.21	354.16	3.87	-45.3	-56.3	3.8	8.46e-01	0	58	104	605028352	60	13339
2026-01-10 12:17:40.23	353.98	3.76	-45.3	-56.3	3.8	8.46e-01	0	58	104	605028352	60	13389
2026-01-10 12:17:42.25	353.79	3.66	-45.2	-56.2	3.8	8.48e-01	0	58	104	605028352	60	13188
2026-01-10 12:17:44.27	353.61	3.55	-45.3	-56.3	3.8	8.47e-01	0	58	104	605028352	60	13387
2026-01-10 12:17:46.30	353.43	3.44	-45.3	-56.3	3.8	8.47e-01	0	58	104	605028352	60	13329
2026-01-10 12:17:48.32	353.25	3.34	-45.3	-56.3	3.8	8.47e-01	0	58	104	605028352	60	13322
2026-01-10 12:17:50.34	353.07	3.23	-45.3	-56.3	3.8	8.46e-01	0	58	104	605028352	60	13374
2026-01-10 12:17:52.36	352.90	3.12	-45.3	-56.3	3.8	8.46e-01	0	58	104	605028352	60	13389
2026-01-10 12:17:54.39	352.72	3.02	-45.3	-56.3	3.8	8.46e-01	0	57	104	605028352	60	13364
2026-01-10 12:17:56.41	352.54	2.91	-45.3	-56.3	3.8	8.45e-01	0	58	104	605028352	60	13348
2026-01-10 12:17:58.43	352.37	2.81	-45.3	-56.3	3.8	8.46e-01	0	58	104	605028352	60	13352
2026-01-10 12:18:00.45	352.20	2.70	-45.3	-56.3	3.8	8.46e-01	0	58	104	605028352	60	13352
2026-01-10 12:18:02.47	352.03	2.60	-45.3	-56.3	3.8	8.46e-01	0	58	104	605028352	60	13314
2026-01-10 12:18:04.50	351.86	2.49	-45.3	-56.3	3.8	8.47e-01	0	58	104	605028352	60	13336
2026-01-10 12:18:06.52	351.69	2.39	-45.3	-56.3	3.8	8.46e-01	0	58	104	605028352	60	13344
2026-01-10 12:18:08.54	351.53	2.28	-45.3	-56.3	3.8	8.46e-01	0	57	104	605028352	60	13358
2026-01-10 12:18:10.56	351.36	2.18	-45.3	-56.3	3.8	8.47e-01	0	58	104	605028352	60	13355
2026-01-10 12:18:12.58	351.20	2.07	-45.3	-56.3	3.8	8.46e-01	0	58	104	605028352	60	13370
2026-01-10 12:18:14.60	351.03	1.97	-45.3	-56.3	3.8	8.46e-01	0	58	104	605028352	60	13358

#Closed at: 2026-01-10 12:18:15
#Recorded file [605 MB]: D:/lorett/data/31039_260110_151317.dat