passes_logs/2026/01/10/R2.0S_Moscow/R2.0S_Moscow__20260110_134436_FENGYUN_3E_rec.log

#Pass ID: 20260110_134436_FENGYUN 3E
#Satellite: FENGYUN 3E
#Configuration: FENGYUN 3E
#almurnet v.1.7.20251203
#Start time: 2026-01-10 13:53:12

#Version: 2.2.20231116
#Station: R2.0S_Moscow
#Location: 37.707566 lon 55.798166 lat
#TLE: 1 49008U 21062A   26009.86154543 -.00000176  00000+0 -62220-4 0  9996
#TLE: 2 49008  98.7486  15.0498 0001782 147.3871 212.7416 14.19883371234110

#Time	Az	El	Level	Level2	SNR	BER	BlckErr	Temp	State	Recorded	gain1	gain2
2026-01-10 13:53:12.65	11.33	43.68	-44.9	-56.7	3.8	8.46e-01	0	56	0	0	60	14876
2026-01-10 13:53:14.67	10.74	43.20	-45.6	-56.6	3.8	8.46e-01	0	56	104	0	61	13008
2026-01-10 13:53:16.69	10.17	42.72	-45.3	-54.7	3.8	8.45e-01	0	56	104	0	61	10514
2026-01-10 13:53:18.71	9.62	42.25	-45.4	-55.8	3.8	8.45e-01	0	56	104	0	60	12526
2026-01-10 13:53:20.73	9.08	41.78	-45.4	-56.2	3.8	8.46e-01	0	56	104	0	60	13178
2026-01-10 13:53:22.76	8.56	41.30	-45.3	-56.1	3.8	8.46e-01	0	56	104	0	60	13081
2026-01-10 13:53:24.78	8.05	40.84	-45.3	-56.2	3.8	8.46e-01	0	56	104	0	60	13258
2026-01-10 13:53:26.80	7.56	40.38	-45.3	-56.2	3.8	8.46e-01	0	56	104	0	60	13164
2026-01-10 13:53:28.82	7.08	39.92	-45.3	-56.1	3.8	8.46e-01	0	56	104	0	60	12975
2026-01-10 13:53:30.84	6.62	39.46	-45.3	-56.1	3.8	8.45e-01	0	56	104	0	60	13066
2026-01-10 13:53:32.86	6.17	39.01	-45.3	-56.0	3.8	8.47e-01	0	56	104	0	60	12925
2026-01-10 13:53:34.88	5.73	38.56	-45.3	-56.0	3.8	8.45e-01	0	56	104	0	60	12853
2026-01-10 13:53:36.90	5.31	38.12	-45.3	-55.8	3.8	8.46e-01	0	56	104	0	60	12608
2026-01-10 13:53:38.93	4.89	37.68	-45.3	-55.8	3.8	8.46e-01	0	56	104	0	60	12579
2026-01-10 13:53:40.95	4.49	37.24	-45.3	-56.2	3.8	8.46e-01	0	57	104	0	60	13219
2026-01-10 13:53:42.97	4.09	36.81	-45.3	-56.3	3.8	8.46e-01	0	56	104	0	60	13361
2026-01-10 13:53:44.99	3.71	36.38	-45.3	-56.4	3.8	8.46e-01	0	56	104	0	60	13466
2026-01-10 13:53:47.01	3.34	35.96	-45.3	-56.3	3.8	8.46e-01	0	56	104	0	60	13335
2026-01-10 13:53:49.03	2.97	35.54	-45.3	-56.4	3.8	8.45e-01	0	56	104	0	60	13543
2026-01-10 13:53:51.05	2.62	35.13	-45.3	-56.2	3.8	8.46e-01	0	56	104	0	60	13141
2026-01-10 13:53:53.07	2.28	34.72	-44.9	-53.5	4.0	8.45e-01	0	56	104	0	60	9649
2026-01-10 13:53:55.09	1.94	34.31	-44.0	-49.2	6.0	6.47e-01	0	56	0	1048576	59	6210
2026-01-10 13:53:57.11	1.61	33.91	-42.9	-46.6	8.3	7.37e-02	0	56	0	15728640	56	5527
2026-01-10 13:53:59.13	1.29	33.51	-41.6	-44.4	10.5	7.05e-03	0	56	0	30408704	54	4774
2026-01-10 13:54:01.15	0.98	33.12	-39.3	-41.1	13.9	1.60e-05	0	57	0	45088768	49	4390
2026-01-10 13:54:03.18	0.68	32.73	-36.5	-37.8	17.1	0.00e+00	0	57	0	59768832	44	3985
2026-01-10 13:54:05.20	0.38	32.34	-34.8	-35.9	18.9	0.00e+00	0	57	0	74448896	40	4020
2026-01-10 13:54:07.22	0.09	31.96	-35.2	-36.3	18.4	0.00e+00	0	57	0	89128960	40	4226
2026-01-10 13:54:09.24	359.81	31.58	-37.0	-38.4	16.5	0.00e+00	0	56	0	103809024	45	4012
2026-01-10 13:54:11.26	359.53	31.21	-35.4	-36.6	18.1	0.00e+00	0	56	0	118489088	41	4107
2026-01-10 13:54:13.28	359.26	30.84	-35.1	-36.2	18.5	0.00e+00	0	57	0	131072000	41	3956
2026-01-10 13:54:15.30	359.00	30.47	-35.2	-36.3	18.4	0.00e+00	0	56	0	145752064	41	3994
2026-01-10 13:54:17.32	358.74	30.11	-34.7	-35.8	18.9	0.00e+00	0	57	0	160432128	40	4003
2026-01-10 13:54:19.34	358.49	29.75	-34.6	-35.7	19.0	0.00e+00	0	56	0	175112192	40	3924
2026-01-10 13:54:21.36	358.25	29.40	-34.5	-35.7	19.1	0.00e+00	0	56	0	189792256	40	3915
2026-01-10 13:54:23.38	358.01	29.05	-34.7	-35.8	18.9	0.00e+00	0	56	0	204472320	40	3975
2026-01-10 13:54:25.39	357.77	28.71	-34.8	-35.9	18.8	0.00e+00	0	56	0	219152384	40	4022
2026-01-10 13:54:27.41	357.54	28.36	-35.0	-36.1	18.6	0.00e+00	0	56	0	233832448	40	4126
2026-01-10 13:54:29.43	357.32	28.02	-35.2	-36.4	18.3	0.00e+00	0	57	0	247463936	40	4260
2026-01-10 13:54:31.45	357.10	27.69	-35.3	-36.4	18.2	0.00e+00	0	57	0	262144000	40	4288
2026-01-10 13:54:33.46	356.88	27.36	-35.3	-36.5	18.1	0.00e+00	0	57	0	276824064	40	4331
2026-01-10 13:54:35.48	356.67	27.03	-35.2	-36.4	18.2	0.00e+00	0	57	0	291504128	40	4279
2026-01-10 13:54:37.50	356.47	26.71	-35.1	-36.3	18.3	0.00e+00	0	57	0	306184192	40	4226
2026-01-10 13:54:39.52	356.26	26.38	-35.1	-36.3	18.3	0.00e+00	0	57	0	320864256	40	4225
2026-01-10 13:54:41.54	356.07	26.07	-35.1	-36.3	18.3	0.00e+00	0	56	0	335544320	40	4198
2026-01-10 13:54:43.56	355.87	25.75	-35.1	-36.3	18.3	0.00e+00	0	57	0	350224384	40	4204
2026-01-10 13:54:45.59	355.68	25.44	-34.9	-36.0	18.5	0.00e+00	0	56	0	363855872	40	4097
2026-01-10 13:54:47.61	355.49	25.13	-34.9	-36.0	18.6	0.00e+00	0	56	0	379584512	40	4073
2026-01-10 13:54:49.62	355.31	24.83	-35.0	-36.1	18.4	0.00e+00	0	57	0	393216000	40	4132
2026-01-10 13:54:51.64	355.13	24.53	-35.0	-36.2	18.3	0.00e+00	0	56	0	407896064	40	4158
2026-01-10 13:54:53.66	354.96	24.23	-35.0	-36.2	18.3	0.00e+00	0	57	0	422576128	40	4154
2026-01-10 13:54:55.68	354.79	23.93	-35.1	-36.2	18.2	0.00e+00	0	56	0	437256192	40	4192
2026-01-10 13:54:57.70	354.62	23.64	-35.2	-36.4	18.0	0.00e+00	0	57	0	451936256	40	4261
2026-01-10 13:54:59.72	354.45	23.35	-35.3	-36.5	17.9	0.00e+00	0	56	0	466616320	40	4313
2026-01-10 13:55:01.75	354.29	23.06	-35.1	-36.4	17.9	0.00e+00	0	57	0	481296384	40	4257
2026-01-10 13:55:03.77	354.13	22.78	-35.3	-36.5	17.7	0.00e+00	0	56	0	495976448	40	4321
2026-01-10 13:55:05.78	353.98	22.50	-35.3	-36.6	17.4	0.00e+00	0	57	0	510656512	40	4342
2026-01-10 13:55:07.80	353.82	22.22	-35.0	-36.3	17.3	0.00e+00	0	57	0	525336576	40	4234
2026-01-10 13:55:09.82	353.67	21.95	-35.3	-36.6	16.8	0.00e+00	0	57	0	538968064	40	4387
2026-01-10 13:55:11.84	353.52	21.68	-35.4	-36.9	16.4	0.00e+00	0	57	0	553648128	40	4502
2026-01-10 13:55:13.86	353.38	21.41	-36.6	-38.3	14.7	0.00e+00	0	57	0	568328192	42	4733
2026-01-10 13:55:15.88	353.24	21.14	-38.2	-40.6	12.1	1.20e-04	0	57	0	583008256	45	5182
2026-01-10 13:55:17.90	353.10	20.88	-39.8	-43.5	8.6	2.20e-02	0	56	0	597688320	49	5769
2026-01-10 13:55:19.91	352.96	20.62	-40.7	-46.5	5.6	3.62e-01	0	57	0	612368384	50	7658
2026-01-10 13:55:21.93	352.83	20.36	-41.1	-49.1	4.2	8.33e-01	0	57	0	613416960	51	9786
2026-01-10 13:55:23.95	352.69	20.10	-41.2	-51.0	3.8	8.45e-01	0	57	104	613416960	51	12200
2026-01-10 13:55:25.97	352.56	19.84	-41.1	-51.8	3.8	8.46e-01	0	57	104	613416960	52	12610
2026-01-10 13:55:27.99	352.43	19.59	-41.0	-52.0	3.8	8.45e-01	0	57	104	613416960	52	12918
2026-01-10 13:55:30.01	352.31	19.34	-40.8	-51.9	3.8	8.47e-01	0	57	104	613416960	52	12707
2026-01-10 13:55:32.03	352.19	19.10	-41.2	-52.1	3.8	8.47e-01	0	57	104	613416960	52	13100
2026-01-10 13:55:34.04	352.06	18.85	-41.1	-52.2	3.8	8.46e-01	0	57	104	613416960	52	13123
2026-01-10 13:55:36.06	351.94	18.61	-40.8	-52.0	3.8	8.47e-01	0	57	104	613416960	52	12858
2026-01-10 13:55:38.08	351.83	18.37	-40.8	-52.0	3.8	8.47e-01	0	57	104	613416960	52	12874
2026-01-10 13:55:40.10	351.71	18.13	-40.9	-52.0	3.8	8.47e-01	0	57	104	613416960	52	12818
2026-01-10 13:55:42.12	351.60	17.90	-40.9	-51.9	3.8	8.45e-01	0	57	104	613416960	52	12799
2026-01-10 13:55:44.14	351.49	17.66	-40.6	-52.1	3.8	8.45e-01	0	57	104	613416960	52	13106
2026-01-10 13:55:46.16	351.38	17.43	-40.5	-52.2	3.8	8.46e-01	0	57	104	613416960	51	13957
2026-01-10 13:55:48.18	351.27	17.20	-41.0	-52.2	3.8	8.45e-01	0	57	104	613416960	51	13886
2026-01-10 13:55:50.20	351.16	16.97	-41.0	-52.3	3.8	8.44e-01	0	57	104	613416960	51	14139
2026-01-10 13:55:52.22	351.06	16.75	-40.6	-52.1	3.8	8.46e-01	0	57	104	613416960	51	13884
2026-01-10 13:55:54.25	350.95	16.52	-40.7	-52.2	3.8	8.45e-01	0	57	104	613416960	51	13914
2026-01-10 13:55:56.26	350.85	16.30	-40.8	-52.4	3.8	8.47e-01	0	57	104	613416960	51	14221
2026-01-10 13:55:58.28	350.75	16.08	-40.8	-52.3	3.8	8.45e-01	0	57	104	613416960	51	14066
2026-01-10 13:56:00.31	350.65	15.86	-40.8	-52.4	3.8	8.46e-01	0	57	104	613416960	51	14225
2026-01-10 13:56:02.32	350.56	15.65	-40.8	-52.4	3.8	8.45e-01	0	57	104	613416960	51	14297
2026-01-10 13:56:04.34	350.46	15.43	-40.9	-52.2	3.8	8.46e-01	0	57	104	613416960	51	13926
2026-01-10 13:56:06.36	350.37	15.22	-40.9	-52.3	3.8	8.46e-01	0	57	104	613416960	51	14120
2026-01-10 13:56:08.38	350.28	15.01	-40.7	-52.2	3.8	8.46e-01	0	57	104	613416960	51	14032
2026-01-10 13:56:10.40	350.19	14.80	-40.7	-52.2	3.8	8.46e-01	0	57	104	613416960	51	13992
2026-01-10 13:56:12.42	350.10	14.59	-40.7	-52.4	3.8	8.46e-01	0	57	104	613416960	51	14216
2026-01-10 13:56:14.43	350.01	14.39	-40.7	-52.3	3.8	8.46e-01	0	57	104	613416960	51	14117
2026-01-10 13:56:16.45	349.92	14.19	-40.8	-52.1	3.8	8.46e-01	0	57	104	613416960	51	13812
2026-01-10 13:56:18.47	349.84	13.98	-40.9	-52.1	3.8	8.45e-01	0	57	104	613416960	51	13848
2026-01-10 13:56:20.49	349.75	13.78	-40.8	-52.0	3.8	8.46e-01	0	57	104	613416960	52	12948
2026-01-10 13:56:22.51	349.67	13.58	-40.8	-52.1	3.8	8.46e-01	0	57	104	613416960	52	12971
2026-01-10 13:56:24.53	349.59	13.39	-40.8	-52.2	3.8	8.46e-01	0	57	104	613416960	51	13897
2026-01-10 13:56:26.55	349.51	13.19	-40.8	-52.1	3.8	8.47e-01	0	57	104	613416960	51	13872
2026-01-10 13:56:28.57	349.43	13.00	-40.7	-52.1	3.8	8.45e-01	0	57	104	613416960	51	13872
2026-01-10 13:56:30.59	349.35	12.80	-40.6	-52.1	3.8	8.46e-01	0	57	104	613416960	51	13838
2026-01-10 13:56:32.60	349.27	12.61	-40.6	-52.1	3.8	8.46e-01	0	57	104	613416960	51	13823
2026-01-10 13:56:34.62	349.20	12.42	-40.6	-52.1	3.8	8.47e-01	0	57	104	613416960	51	13874
2026-01-10 13:56:36.64	349.12	12.23	-40.4	-52.0	3.8	8.46e-01	0	57	104	613416960	51	13670
2026-01-10 13:56:38.66	349.05	12.05	-40.4	-51.9	3.8	8.46e-01	0	57	104	613416960	51	13568
2026-01-10 13:56:40.68	348.97	11.86	-40.5	-52.1	3.8	8.46e-01	0	57	104	613416960	51	13828
2026-01-10 13:56:42.70	348.90	11.67	-40.5	-52.1	3.8	8.46e-01	0	57	104	613416960	51	13840
2026-01-10 13:56:44.72	348.83	11.49	-40.7	-52.0	3.8	8.45e-01	0	57	104	613416960	52	12843
2026-01-10 13:56:46.74	348.76	11.31	-40.9	-52.0	3.8	8.47e-01	0	57	104	613416960	52	12941
2026-01-10 13:56:48.76	348.69	11.13	-40.6	-52.0	3.8	8.45e-01	0	57	104	613416960	52	12947
2026-01-10 13:56:50.78	348.62	10.95	-40.8	-52.0	3.8	8.47e-01	0	57	104	613416960	52	12904
2026-01-10 13:56:52.80	348.56	10.77	-41.0	-52.0	3.8	8.45e-01	0	57	104	613416960	52	12852
2026-01-10 13:56:54.82	348.49	10.59	-41.0	-52.0	3.8	8.46e-01	0	57	104	613416960	52	12857
2026-01-10 13:56:56.84	348.42	10.42	-41.1	-52.2	3.8	8.47e-01	0	57	104	613416960	52	13134
2026-01-10 13:56:58.86	348.36	10.24	-41.1	-52.2	3.8	8.45e-01	0	57	104	613416960	52	13118
2026-01-10 13:57:00.88	348.30	10.07	-41.1	-52.0	3.8	8.47e-01	0	57	104	613416960	52	12890
2026-01-10 13:57:02.90	348.23	9.90	-41.1	-52.1	3.8	8.46e-01	0	57	104	613416960	52	12992
2026-01-10 13:57:04.92	348.17	9.73	-41.2	-52.2	3.8	8.46e-01	0	57	104	613416960	52	13188
2026-01-10 13:57:06.94	348.11	9.56	-41.2	-52.2	3.8	8.46e-01	0	57	104	613416960	52	13150
2026-01-10 13:57:08.97	348.05	9.39	-41.3	-52.2	3.8	8.46e-01	0	57	104	613416960	52	13182
2026-01-10 13:57:10.99	347.99	9.22	-41.3	-52.2	3.8	8.46e-01	0	57	104	613416960	52	13230
2026-01-10 13:57:13.00	347.93	9.06	-41.3	-52.2	3.8	8.46e-01	0	57	104	613416960	52	13222
2026-01-10 13:57:15.03	347.87	8.89	-41.3	-52.2	3.8	8.46e-01	0	57	104	613416960	52	13231
2026-01-10 13:57:17.04	347.82	8.73	-41.3	-52.3	3.8	8.46e-01	0	57	104	613416960	52	13272
2026-01-10 13:57:19.06	347.76	8.56	-41.3	-52.3	3.8	8.47e-01	0	57	104	613416960	52	13268
2026-01-10 13:57:21.08	347.70	8.40	-41.4	-52.3	3.8	8.47e-01	0	57	104	613416960	52	13333
2026-01-10 13:57:23.10	347.65	8.24	-41.4	-52.3	3.8	8.46e-01	0	57	104	613416960	52	13311
2026-01-10 13:57:25.12	347.59	8.08	-41.3	-52.3	3.8	8.45e-01	0	57	104	613416960	52	13264
2026-01-10 13:57:27.14	347.54	7.92	-41.2	-52.3	3.8	8.47e-01	0	57	104	613416960	52	13273
2026-01-10 13:57:29.16	347.49	7.76	-43.9	-54.9	3.8	8.46e-01	0	57	104	613416960	57	13453
2026-01-10 13:57:31.18	347.43	7.60	-45.3	-56.4	3.8	8.45e-01	0	57	104	613416960	60	13462
2026-01-10 13:57:33.20	347.38	7.45	-45.4	-56.5	3.8	8.47e-01	0	57	104	613416960	60	13680
2026-01-10 13:57:35.22	347.33	7.29	-45.5	-56.6	3.8	8.46e-01	0	57	104	613416960	60	13760
2026-01-10 13:57:37.25	347.28	7.14	-45.3	-56.5	3.8	8.47e-01	0	57	104	613416960	60	13720
2026-01-10 13:57:39.27	347.23	6.98	-45.4	-56.5	3.8	8.45e-01	0	57	104	613416960	60	13607
2026-01-10 13:57:41.29	347.18	6.83	-45.4	-56.4	3.8	8.45e-01	0	57	104	613416960	60	13504
2026-01-10 13:57:43.31	347.13	6.68	-45.3	-56.4	3.8	8.46e-01	0	57	104	613416960	60	13436
2026-01-10 13:57:45.33	347.08	6.53	-45.3	-56.4	3.8	8.47e-01	0	58	104	613416960	60	13425
2026-01-10 13:57:47.36	347.04	6.38	-45.4	-56.3	3.8	8.46e-01	0	57	104	613416960	60	13397
2026-01-10 13:57:49.38	346.99	6.23	-45.3	-56.3	3.8	8.45e-01	0	58	104	613416960	60	13390
2026-01-10 13:57:51.40	346.94	6.08	-45.3	-56.3	3.8	8.46e-01	0	57	104	613416960	60	13398
2026-01-10 13:57:53.42	346.90	5.93	-45.3	-56.4	3.8	8.46e-01	0	57	104	613416960	60	13420
2026-01-10 13:57:55.44	346.85	5.78	-45.3	-56.4	3.8	8.46e-01	0	57	104	613416960	60	13418
2026-01-10 13:57:57.47	346.81	5.64	-45.3	-56.3	3.8	8.46e-01	0	57	104	613416960	60	13397
2026-01-10 13:57:59.49	346.76	5.49	-45.3	-56.4	3.8	8.45e-01	0	57	104	613416960	60	13427
2026-01-10 13:58:01.51	346.72	5.35	-45.3	-56.3	3.8	8.46e-01	0	57	104	613416960	60	13387
2026-01-10 13:58:03.53	346.68	5.20	-45.3	-56.3	3.8	8.45e-01	0	57	104	613416960	60	13327
2026-01-10 13:58:05.55	346.63	5.06	-45.3	-56.4	3.8	8.46e-01	0	57	104	613416960	60	13418
2026-01-10 13:58:07.58	346.59	4.92	-45.3	-56.3	3.8	8.47e-01	0	57	104	613416960	60	13365
2026-01-10 13:58:09.60	346.55	4.77	-45.3	-56.3	3.8	8.46e-01	0	57	104	613416960	60	13373
2026-01-10 13:58:11.62	346.51	4.63	-45.3	-56.4	3.8	8.46e-01	0	58	104	613416960	60	13433
2026-01-10 13:58:13.64	346.47	4.49	-45.3	-56.3	3.8	8.46e-01	0	58	104	613416960	60	13389
2026-01-10 13:58:15.67	346.43	4.35	-45.3	-56.3	3.8	8.47e-01	0	57	104	613416960	60	13366
2026-01-10 13:58:17.69	346.39	4.22	-45.3	-56.3	3.8	8.45e-01	0	57	104	613416960	60	13405
2026-01-10 13:58:19.71	346.35	4.08	-45.3	-56.3	3.8	8.46e-01	0	57	104	613416960	60	13367
2026-01-10 13:58:21.73	346.31	3.94	-45.3	-56.3	3.8	8.46e-01	0	58	104	613416960	60	13391
2026-01-10 13:58:23.75	346.27	3.80	-45.3	-56.3	3.8	8.46e-01	0	57	104	613416960	60	13354
2026-01-10 13:58:25.77	346.23	3.67	-45.3	-56.3	3.8	8.47e-01	0	58	104	613416960	60	13328
2026-01-10 13:58:27.79	346.19	3.53	-45.3	-56.3	3.8	8.47e-01	0	57	104	613416960	60	13372
2026-01-10 13:58:29.81	346.16	3.40	-45.3	-56.3	3.8	8.46e-01	0	57	104	613416960	60	13345
2026-01-10 13:58:31.84	346.12	3.26	-45.3	-56.3	3.8	8.46e-01	0	57	104	613416960	60	13405
2026-01-10 13:58:33.86	346.08	3.13	-45.3	-56.3	3.8	8.46e-01	0	57	104	613416960	60	13379
2026-01-10 13:58:35.88	346.05	3.00	-45.3	-56.3	3.8	8.47e-01	0	57	104	613416960	60	13286
2026-01-10 13:58:37.90	346.01	2.86	-45.3	-56.3	3.8	8.45e-01	0	57	104	613416960	60	13411
2026-01-10 13:58:39.92	345.98	2.73	-45.3	-56.3	3.8	8.46e-01	0	57	104	613416960	60	13327
2026-01-10 13:58:41.95	345.94	2.60	-45.3	-56.3	3.8	8.46e-01	0	58	104	613416960	60	13348
2026-01-10 13:58:43.97	345.91	2.47	-45.3	-56.4	3.8	8.47e-01	0	58	104	613416960	60	13421
2026-01-10 13:58:45.99	345.87	2.34	-45.3	-56.3	3.8	8.46e-01	0	57	104	613416960	60	13356
2026-01-10 13:58:48.01	345.84	2.21	-45.3	-56.3	3.8	8.47e-01	0	57	104	613416960	60	13383
2026-01-10 13:58:50.04	345.81	2.08	-45.3	-56.3	3.8	8.46e-01	0	57	104	613416960	60	13380
2026-01-10 13:58:52.06	345.77	1.96	-45.3	-56.3	3.8	8.46e-01	0	57	104	613416960	60	13324

#Closed at: 2026-01-10 13:58:53
#Recorded file [613 MB]: D:/lorett/data/31039_260110_165312.dat