passes_logs/2026/01/10/R2.0S_Moscow/R2.0S_Moscow__20260110_230911_SUOMI_NPP_rec.log

#Pass ID: 20260110_230911_SUOMI NPP
#Satellite: SUOMI NPP
#Configuration: NPP
#almurnet v.1.7.20251203
#Start time: 2026-01-10 23:09:11

#Version: 2.2.20231116
#Station: R2.0S_Moscow
#Location: 37.707566 lon 55.798166 lat
#TLE: 1 37849U 11061A   26009.81756760  .00000113  00000+0  74747-4 0  9994
#TLE: 2 37849  98.7806 311.9110 0002525  72.5604 287.5848 14.19524046735974

#Time	Az	El	Level	Level2	SNR	BER	BlckErr	Temp	State	Recorded	gain1	gain2
2026-01-10 23:09:11.59	19.14	2.03	-41.4	-56.1	3.8	1.49e+00	0	47	0	0	54	19585
2026-01-10 23:09:15.62	19.27	2.28	-41.3	-56.1	3.8	1.49e+00	0	47	104	0	54	19553
2026-01-10 23:09:19.66	19.39	2.54	-41.3	-56.1	3.8	1.49e+00	0	48	104	0	54	19558
2026-01-10 23:09:23.71	19.52	2.80	-41.3	-56.1	3.8	1.49e+00	0	48	104	0	54	19525
2026-01-10 23:09:27.75	19.65	3.05	-41.3	-56.1	3.8	1.49e+00	0	48	104	0	54	19539
2026-01-10 23:09:31.80	19.78	3.32	-41.3	-56.1	3.8	1.49e+00	0	48	104	0	54	19572
2026-01-10 23:09:35.84	19.91	3.58	-41.3	-56.1	3.8	1.49e+00	0	49	104	0	54	19570
2026-01-10 23:09:39.88	20.05	3.85	-41.3	-56.1	3.8	1.49e+00	0	49	104	0	54	19559
2026-01-10 23:09:43.93	20.19	4.12	-41.3	-56.1	3.8	1.49e+00	0	49	104	0	54	19532
2026-01-10 23:09:47.97	20.33	4.39	-41.3	-56.1	3.8	1.49e+00	0	49	104	0	54	19556
2026-01-10 23:09:52.01	20.47	4.66	-41.3	-56.1	3.8	1.49e+00	0	50	104	0	54	19523
2026-01-10 23:09:56.06	20.61	4.94	-41.3	-56.1	3.8	1.49e+00	0	50	104	0	54	19499
2026-01-10 23:10:00.10	20.76	5.22	-41.3	-56.1	3.8	1.49e+00	0	50	104	0	54	19439
2026-01-10 23:10:04.15	20.91	5.50	-41.3	-56.1	3.8	1.49e+00	0	50	104	0	54	19500
2026-01-10 23:10:08.19	21.06	5.79	-41.3	-56.1	3.8	1.49e+00	0	50	104	0	54	19449
2026-01-10 23:10:12.23	21.22	6.08	-41.3	-56.1	3.8	1.49e+00	0	51	104	0	54	19513
2026-01-10 23:10:16.28	21.38	6.37	-41.3	-56.1	3.8	1.49e+00	0	51	104	0	54	19463
2026-01-10 23:10:20.32	21.54	6.66	-41.3	-56.1	3.8	1.49e+00	0	51	104	0	54	19533
2026-01-10 23:10:24.36	21.70	6.96	-41.3	-56.0	3.8	1.49e+00	0	51	104	0	54	19355
2026-01-10 23:10:28.41	21.87	7.27	-41.3	-55.7	3.8	1.49e+00	0	51	104	0	54	18595
2026-01-10 23:10:32.45	22.04	7.57	-41.3	-55.5	3.8	1.49e+00	0	52	104	0	54	18159
2026-01-10 23:10:36.50	22.21	7.88	-41.0	-51.5	4.5	1.39e+00	0	52	0	0	54	11434
2026-01-10 23:10:40.54	22.38	8.19	-41.1	-53.4	4.0	7.31e-01	0	52	0	7340032	53	15160
2026-01-10 23:10:44.58	22.56	8.51	-40.2	-45.5	9.8	8.04e-02	0	52	0	11534336	52	6478
2026-01-10 23:10:48.62	22.75	8.83	-40.9	-45.8	10.4	4.02e-03	0	52	0	18874368	52	6715
2026-01-10 23:10:52.66	22.93	9.15	-40.8	-45.2	11.3	1.20e-03	0	52	0	27262976	52	6242
2026-01-10 23:10:56.70	23.12	9.48	-40.9	-45.3	11.3	1.47e-03	0	52	0	34603008	52	6345
2026-01-10 23:11:00.74	23.32	9.81	-41.0	-45.4	11.3	1.05e-03	0	53	0	41943040	52	6352
2026-01-10 23:11:04.78	23.52	10.15	-41.2	-45.5	11.3	8.56e-04	0	53	0	49283072	53	6099
2026-01-10 23:11:08.82	23.72	10.49	-41.1	-45.2	11.8	6.91e-04	0	53	0	56623104	53	5861
2026-01-10 23:11:12.86	23.93	10.83	-41.0	-45.0	12.1	3.11e-04	0	53	0	65011712	53	5729
2026-01-10 23:11:16.89	24.14	11.18	-41.1	-45.0	12.1	2.88e-04	0	53	0	72351744	53	5765
2026-01-10 23:11:20.93	24.35	11.53	-41.0	-44.8	12.3	1.20e-04	0	53	0	79691776	53	5638
2026-01-10 23:11:24.97	24.57	11.89	-41.0	-44.7	12.4	6.63e-05	0	53	0	87031808	53	5559
2026-01-10 23:11:29.01	24.80	12.26	-41.0	-44.6	12.6	7.24e-05	0	53	0	95420416	53	5520
2026-01-10 23:11:33.05	25.03	12.63	-40.6	-43.9	13.4	1.44e-05	0	53	0	102760448	53	5042
2026-01-10 23:11:37.08	25.27	13.00	-40.4	-43.6	13.7	9.90e-06	0	53	0	110100480	52	5186
2026-01-10 23:11:41.12	25.51	13.38	-40.4	-43.4	14.0	2.20e-06	0	54	0	117440512	52	5065
2026-01-10 23:11:45.16	25.76	13.77	-40.2	-43.1	14.4	7.00e-07	0	54	0	124780544	52	4906
2026-01-10 23:11:49.20	26.01	14.16	-40.1	-42.8	14.6	1.50e-06	0	53	0	133169152	52	4759
2026-01-10 23:11:53.23	26.27	14.55	-40.2	-43.0	14.7	0.00e+00	0	54	0	140509184	51	5124
2026-01-10 23:11:57.28	26.54	14.96	-40.2	-43.1	14.6	0.00e+00	0	54	0	147849216	51	5163
2026-01-10 23:12:01.31	26.82	15.37	-40.2	-43.0	14.6	7.00e-07	0	54	0	155189248	51	5152
2026-01-10 23:12:05.35	27.10	15.78	-40.1	-42.8	14.9	0.00e+00	0	54	0	163577856	51	5039
2026-01-10 23:12:09.39	27.39	16.21	-40.2	-43.0	14.8	0.00e+00	0	54	0	170917888	51	5127
2026-01-10 23:12:13.43	27.68	16.64	-40.3	-43.1	14.7	0.00e+00	0	54	0	178257920	51	5203
2026-01-10 23:12:17.46	27.99	17.07	-40.0	-42.6	15.3	0.00e+00	0	54	0	185597952	51	4877
2026-01-10 23:12:21.50	28.30	17.52	-40.0	-42.6	15.3	0.00e+00	0	54	0	192937984	51	4917
2026-01-10 23:12:25.54	28.62	17.97	-40.1	-42.8	15.1	0.00e+00	0	54	0	201326592	51	4996
2026-01-10 23:12:29.58	28.96	18.43	-40.2	-42.8	15.1	0.00e+00	0	54	0	208666624	51	5009
2026-01-10 23:12:33.62	29.30	18.89	-40.1	-42.7	15.3	0.00e+00	0	54	0	216006656	51	4931
2026-01-10 23:12:37.65	29.65	19.37	-39.9	-42.4	15.6	0.00e+00	0	55	0	223346688	51	4774
2026-01-10 23:12:41.69	30.01	19.85	-40.0	-42.5	15.5	0.00e+00	0	55	0	231735296	51	4865
2026-01-10 23:12:45.73	30.38	20.34	-40.0	-42.4	15.5	0.00e+00	0	55	0	239075328	51	4800
2026-01-10 23:12:49.77	30.77	20.84	-40.0	-42.5	15.5	0.00e+00	0	55	0	246415360	51	4818
2026-01-10 23:12:53.80	31.17	21.35	-40.1	-42.7	15.4	0.00e+00	0	55	0	253755392	51	4946
2026-01-10 23:12:57.84	31.58	21.87	-40.1	-42.6	15.6	0.00e+00	0	55	0	261095424	51	4879
2026-01-10 23:13:01.85	32.00	22.39	-40.1	-42.7	15.5	0.00e+00	0	55	0	269484032	51	4950
2026-01-10 23:13:05.89	32.44	22.93	-40.1	-42.7	15.5	0.00e+00	0	55	0	276824064	51	4937
2026-01-10 23:13:09.93	32.89	23.48	-40.1	-42.7	15.4	0.00e+00	0	55	0	284164096	51	4929
2026-01-10 23:13:13.97	33.36	24.03	-40.1	-42.6	15.5	0.00e+00	0	55	0	291504128	51	4918
2026-01-10 23:13:18.01	33.84	24.60	-40.3	-42.9	15.3	7.00e-07	0	55	0	299892736	51	5057
2026-01-10 23:13:22.05	34.34	25.18	-40.4	-43.0	15.2	0.00e+00	0	55	0	307232768	51	5152
2026-01-10 23:13:26.09	34.86	25.77	-40.7	-43.4	14.8	0.00e+00	0	55	0	314572800	51	5380
2026-01-10 23:13:30.13	35.40	26.37	-40.7	-43.4	14.7	0.00e+00	0	55	0	321912832	52	5099
2026-01-10 23:13:34.17	35.96	26.98	-40.6	-43.4	14.7	0.00e+00	0	55	0	329252864	52	5061
2026-01-10 23:13:38.21	36.54	27.60	-40.6	-43.4	14.7	0.00e+00	0	55	0	337641472	52	5052
2026-01-10 23:13:42.24	37.15	28.23	-41.1	-44.1	14.1	7.00e-07	0	55	0	344981504	52	5498
2026-01-10 23:13:46.28	37.77	28.87	-41.4	-44.7	13.4	1.37e-05	0	55	0	352321536	53	5569
2026-01-10 23:13:50.32	38.43	29.53	-42.0	-45.7	12.5	1.82e-04	0	55	0	359661568	54	5884
2026-01-10 23:13:54.36	39.11	30.19	-41.9	-45.5	12.7	1.27e-04	0	55	0	368050176	55	5439
2026-01-10 23:13:58.40	39.81	30.87	-41.8	-45.4	12.8	6.94e-05	0	55	0	375390208	55	5363
2026-01-10 23:14:02.44	40.55	31.56	-41.6	-44.9	13.3	9.90e-06	0	55	0	382730240	55	5053
2026-01-10 23:14:06.48	41.32	32.26	-41.6	-45.0	13.3	1.83e-05	0	55	0	390070272	54	5447
2026-01-10 23:14:10.52	42.12	32.97	-41.7	-45.1	13.2	2.74e-05	0	56	0	397410304	54	5483
2026-01-10 23:14:14.56	42.96	33.70	-40.6	-43.3	14.9	7.00e-07	0	56	0	405798912	53	4729
2026-01-10 23:14:18.60	43.84	34.43	-41.0	-43.9	14.3	7.00e-07	0	55	0	413138944	52	5396
2026-01-10 23:14:22.64	44.75	35.17	-41.2	-44.3	14.1	5.30e-06	0	56	0	420478976	53	5287
2026-01-10 23:14:26.68	45.71	35.93	-41.0	-43.9	14.4	2.20e-06	0	56	0	427819008	53	5076
2026-01-10 23:14:30.72	46.71	36.69	-40.7	-43.3	15.0	0.00e+00	0	56	0	436207616	52	5031
2026-01-10 23:14:34.76	47.76	37.46	-40.6	-43.2	15.1	0.00e+00	0	56	0	443547648	52	4962
2026-01-10 23:14:38.80	48.86	38.23	-40.3	-42.8	15.6	0.00e+00	0	56	0	450887680	52	4716
2026-01-10 23:14:42.84	50.02	39.02	-40.6	-43.3	15.0	0.00e+00	0	56	0	458227712	52	5020
2026-01-10 23:14:46.87	51.22	39.80	-40.8	-43.5	14.9	0.00e+00	0	56	0	465567744	52	5130
2026-01-10 23:14:50.92	52.49	40.59	-40.5	-43.0	15.3	0.00e+00	0	56	0	473956352	52	4862
2026-01-10 23:14:54.95	53.82	41.39	-40.4	-42.9	15.5	0.00e+00	0	56	0	481296384	52	4790
2026-01-10 23:14:58.99	55.22	42.18	-41.1	-43.9	14.4	7.00e-07	0	56	0	488636416	52	5380
2026-01-10 23:15:03.02	56.68	42.96	-40.5	-43.1	15.3	0.00e+00	0	56	0	495976448	52	4898
2026-01-10 23:15:07.05	58.22	43.75	-40.9	-43.6	14.8	0.00e+00	0	56	0	504365056	52	5206
2026-01-10 23:15:11.09	59.84	44.52	-40.9	-43.6	14.6	0.00e+00	0	56	0	511705088	52	5195
2026-01-10 23:15:15.13	61.53	45.29	-41.3	-44.3	14.2	0.00e+00	0	56	0	519045120	53	5289
2026-01-10 23:15:19.16	63.31	46.04	-41.5	-44.6	13.9	6.80e-06	0	56	0	526385152	54	5199
2026-01-10 23:15:23.20	65.17	46.78	-40.9	-43.6	14.7	0.00e+00	0	56	0	533725184	53	4901
2026-01-10 23:15:27.24	67.12	47.49	-40.3	-42.7	15.7	0.00e+00	0	56	0	542113792	52	4696
2026-01-10 23:15:31.28	69.16	48.18	-40.4	-42.8	15.6	0.00e+00	0	56	0	549453824	52	4742
2026-01-10 23:15:35.32	71.29	48.84	-40.8	-43.6	14.8	0.00e+00	0	56	0	556793856	52	5178
2026-01-10 23:15:39.36	73.51	49.46	-40.9	-43.7	14.6	1.50e-06	0	56	0	564133888	52	5257
2026-01-10 23:15:43.40	75.82	50.05	-41.6	-44.8	13.6	1.37e-05	0	56	0	572522496	54	5321
2026-01-10 23:15:47.43	78.21	50.59	-41.5	-44.7	13.7	3.80e-06	0	56	0	579862528	54	5228
2026-01-10 23:15:51.47	80.69	51.09	-42.3	-46.1	12.2	1.40e-04	0	56	0	587202560	55	5793
2026-01-10 23:15:55.51	83.25	51.53	-41.4	-44.4	14.0	4.50e-06	0	56	0	594542592	54	5073
2026-01-10 23:15:59.55	85.89	51.92	-40.4	-42.8	15.6	0.00e+00	0	56	0	601882624	52	4745
2026-01-10 23:16:03.59	88.58	52.24	-40.5	-42.9	15.5	0.00e+00	0	56	0	610271232	52	4807
2026-01-10 23:16:07.63	91.33	52.51	-41.1	-44.0	14.5	3.00e-06	0	56	0	617611264	53	5111
2026-01-10 23:16:11.67	94.12	52.70	-41.3	-44.3	14.2	7.00e-07	0	56	0	624951296	53	5305
2026-01-10 23:16:15.71	96.95	52.83	-41.8	-45.2	13.2	4.50e-06	0	56	0	632291328	54	5578
2026-01-10 23:16:19.74	99.78	52.89	-41.3	-44.4	14.1	1.50e-06	0	56	0	640679936	54	5042
2026-01-10 23:16:23.78	102.63	52.87	-42.2	-46.0	12.5	7.01e-05	0	56	0	648019968	54	6064
2026-01-10 23:16:27.82	105.46	52.79	-41.5	-44.6	13.8	7.60e-06	0	56	0	655360000	54	5171
2026-01-10 23:16:31.86	108.28	52.63	-40.9	-43.7	14.8	0.00e+00	0	56	0	662700032	53	4937
2026-01-10 23:16:35.89	111.05	52.41	-40.1	-42.4	16.1	0.00e+00	0	56	0	670040064	51	4808
2026-01-10 23:16:39.93	113.78	52.12	-41.6	-44.8	13.6	2.20e-06	0	56	0	678428672	53	5625
2026-01-10 23:16:43.97	116.45	51.77	-41.9	-45.4	13.0	4.88e-05	0	56	0	685768704	54	5665
2026-01-10 23:16:48.01	119.06	51.35	-40.0	-42.4	16.0	0.00e+00	0	56	0	693108736	52	4498
2026-01-10 23:16:52.04	121.59	50.89	-40.9	-43.7	14.7	0.00e+00	0	56	0	700448768	52	5250
2026-01-10 23:16:56.09	124.04	50.37	-40.5	-43.0	15.4	0.00e+00	0	56	0	707788800	52	4844
2026-01-10 23:17:00.12	126.40	49.81	-40.6	-43.2	15.2	0.00e+00	0	56	0	716177408	52	4966
2026-01-10 23:17:04.16	128.68	49.20	-41.0	-43.9	14.5	3.00e-06	0	56	0	723517440	53	5050
2026-01-10 23:17:08.20	130.87	48.56	-41.5	-44.6	13.9	7.00e-07	0	56	0	730857472	53	5513
2026-01-10 23:17:12.23	132.96	47.89	-42.2	-45.8	12.5	2.82e-05	0	56	0	738197504	54	5977
2026-01-10 23:17:16.27	134.97	47.19	-42.8	-47.0	11.5	1.13e-03	0	56	0	746586112	56	6107
2026-01-10 23:17:20.31	136.89	46.46	-42.7	-46.8	11.7	1.27e-03	0	56	0	753926144	56	5950
2026-01-10 23:17:24.35	138.72	45.72	-43.3	-48.2	10.4	9.22e-04	0	56	0	761266176	57	6579
2026-01-10 23:17:28.39	140.47	44.95	-43.5	-48.7	9.8	7.33e-03	0	56	0	768606208	58	6587
2026-01-10 23:17:32.42	142.13	44.18	-44.2	-51.1	7.1	1.07e-01	0	56	0	775946240	59	8205
2026-01-10 23:17:36.46	143.72	43.40	-44.4	-52.6	6.0	5.38e-01	0	56	0	784334848	60	9279
2026-01-10 23:17:40.50	145.23	42.61	-44.0	-50.2	8.2	5.78e-02	0	56	0	791674880	59	7413
2026-01-10 23:17:44.53	146.67	41.81	-43.8	-49.7	8.7	4.51e-02	0	56	0	799014912	59	6976
2026-01-10 23:17:48.57	148.04	41.02	-44.4	-52.0	6.3	2.12e-01	0	56	0	806354944	59	9141
2026-01-10 23:17:52.61	149.35	40.22	-41.5	-44.6	13.9	7.00e-07	0	56	0	814743552	54	5199
2026-01-10 23:17:56.65	150.59	39.43	-42.7	-47.0	11.5	5.25e-03	0	56	0	822083584	57	5730
2026-01-10 23:18:00.69	151.78	38.64	-42.5	-46.7	11.5	2.66e-04	0	56	0	829423616	55	6251
2026-01-10 23:18:04.73	152.91	37.85	-42.2	-45.9	12.7	2.36e-04	0	56	0	836763648	56	5342
2026-01-10 23:18:08.77	153.99	37.08	-41.0	-43.8	14.5	7.00e-07	0	56	0	844103680	53	5030
2026-01-10 23:18:12.80	155.02	36.31	-41.3	-44.4	13.9	8.30e-06	0	56	0	852492288	54	5044
2026-01-10 23:18:16.84	156.00	35.55	-41.0	-43.9	14.4	0.00e+00	0	56	0	859832320	53	5093
2026-01-10 23:18:20.88	156.94	34.79	-42.5	-46.6	11.6	5.40e-04	0	56	0	867172352	55	6194
2026-01-10 23:18:24.91	157.84	34.05	-42.1	-45.9	12.3	2.64e-04	0	56	0	874512384	55	5665
2026-01-10 23:18:28.95	158.70	33.32	-42.0	-45.7	12.5	5.79e-05	0	56	0	882900992	55	5589
2026-01-10 23:18:32.99	159.53	32.60	-42.4	-46.5	11.9	1.37e-03	0	56	0	890241024	56	5782
2026-01-10 23:18:37.03	160.31	31.89	-41.3	-44.4	13.9	2.20e-06	0	56	0	897581056	54	5066
2026-01-10 23:18:41.07	161.07	31.19	-41.4	-44.5	13.7	6.80e-06	0	56	0	904921088	54	5144
2026-01-10 23:18:45.11	161.79	30.50	-41.8	-45.4	12.7	8.01e-05	0	56	0	912261120	54	5681
2026-01-10 23:18:49.15	162.49	29.82	-42.6	-47.1	11.0	1.24e-03	0	56	0	920649728	55	6535
2026-01-10 23:18:53.19	163.16	29.15	-41.7	-45.3	12.9	3.81e-05	0	56	0	927989760	55	5280
2026-01-10 23:18:57.22	163.80	28.50	-40.5	-43.3	15.0	0.00e+00	0	56	0	935329792	53	4706
2026-01-10 23:19:01.26	164.42	27.86	-40.7	-43.5	14.7	7.00e-07	0	56	0	942669824	52	5120
2026-01-10 23:19:05.30	165.01	27.23	-40.4	-43.1	15.1	0.00e+00	0	56	0	951058432	52	4883
2026-01-10 23:19:09.34	165.58	26.61	-41.0	-44.1	14.2	3.80e-06	0	56	0	958398464	52	5482
2026-01-10 23:19:13.38	166.13	26.00	-41.5	-44.8	13.3	3.80e-06	0	56	0	965738496	53	5652
2026-01-10 23:19:17.42	166.66	25.40	-42.0	-45.8	12.3	1.13e-04	0	56	0	973078528	54	5925
2026-01-10 23:19:21.46	167.17	24.82	-41.9	-45.7	12.3	2.16e-04	0	56	0	980418560	55	5571
2026-01-10 23:19:25.49	167.66	24.24	-40.7	-43.5	14.6	1.50e-06	0	56	0	988807168	53	4850
2026-01-10 23:19:29.53	168.14	23.68	-41.1	-44.2	13.8	3.80e-06	0	57	0	996147200	53	5267
2026-01-10 23:19:33.57	168.60	23.12	-41.8	-45.6	12.5	1.13e-04	0	56	0	1003487232	54	5811
2026-01-10 23:19:37.60	169.05	22.58	-41.4	-44.7	13.3	4.80e-05	0	56	0	1010827264	54	5263
2026-01-10 23:19:41.64	169.48	22.04	-40.6	-43.5	14.5	0.00e+00	0	56	0	1019215872	53	4819
2026-01-10 23:19:45.68	169.89	21.51	-40.8	-43.7	14.3	1.50e-06	0	56	0	1026555904	53	4967
2026-01-10 23:19:49.72	170.29	21.00	-41.1	-44.3	13.7	6.10e-06	0	56	0	1033895936	53	5313
2026-01-10 23:19:53.76	170.69	20.49	-40.8	-43.8	14.1	1.50e-06	0	57	0	1041235968	53	5001
2026-01-10 23:19:57.80	171.06	19.99	-40.4	-43.1	14.8	7.00e-07	0	56	0	1048576000	52	4920
2026-01-10 23:20:01.84	171.43	19.50	-40.1	-42.8	15.2	0.00e+00	0	56	0	1056964608	52	4707
2026-01-10 23:20:05.88	171.79	19.02	-40.1	-42.8	15.1	0.00e+00	0	56	0	1064304640	52	4710
2026-01-10 23:20:09.92	172.13	18.54	-40.8	-43.9	14.0	0.00e+00	0	56	0	1071644672	52	5373
2026-01-10 23:20:13.95	172.46	18.08	-41.4	-44.9	12.9	3.43e-05	0	56	0	1078984704	53	5669
2026-01-10 23:20:17.99	172.79	17.62	-41.6	-45.4	12.4	1.09e-04	0	57	0	1086324736	54	5678
2026-01-10 23:20:22.02	173.11	17.17	-41.5	-45.2	12.6	1.45e-04	0	57	0	1094713344	54	5564
2026-01-10 23:20:26.06	173.41	16.73	-41.2	-44.6	13.2	3.50e-05	0	56	0	1102053376	54	5201
2026-01-10 23:20:30.10	173.71	16.29	-40.8	-44.0	13.7	3.00e-06	0	57	0	1109393408	53	5121
2026-01-10 23:20:34.14	174.00	15.87	-40.6	-43.5	14.2	2.20e-06	0	56	0	1116733440	53	4869
2026-01-10 23:20:38.18	174.29	15.44	-40.4	-43.3	14.4	0.00e+00	0	56	0	1125122048	52	5028
2026-01-10 23:20:42.22	174.56	15.03	-40.2	-42.9	14.7	0.00e+00	0	56	0	1132462080	52	4783
2026-01-10 23:20:46.26	174.83	14.62	-40.2	-43.1	14.6	7.00e-07	0	57	0	1139802112	52	4872
2026-01-10 23:20:50.29	175.09	14.22	-40.2	-43.0	14.7	0.00e+00	0	56	0	1147142144	52	4838
2026-01-10 23:20:54.33	175.35	13.82	-40.3	-43.2	14.5	0.00e+00	0	57	0	1154482176	52	4943
2026-01-10 23:20:58.37	175.59	13.43	-40.4	-43.4	14.2	7.00e-07	0	56	0	1162870784	52	5072
2026-01-10 23:21:02.41	175.84	13.05	-40.4	-43.3	14.2	1.50e-06	0	57	0	1170210816	52	5030
2026-01-10 23:21:06.45	176.07	12.67	-40.2	-43.1	14.5	1.50e-06	0	56	0	1177550848	52	4888
2026-01-10 23:21:10.49	176.31	12.29	-40.3	-43.3	14.2	0.00e+00	0	56	0	1184890880	52	4984
2026-01-10 23:21:14.53	176.53	11.92	-40.1	-43.0	14.4	0.00e+00	0	56	0	1193279488	52	4844
2026-01-10 23:21:18.57	176.75	11.56	-40.4	-43.5	13.9	6.80e-06	0	57	0	1200619520	52	5128
2026-01-10 23:21:22.60	176.97	11.20	-40.5	-43.6	13.7	3.80e-06	0	57	0	1207959552	52	5200
2026-01-10 23:21:26.64	177.18	10.85	-40.8	-44.3	13.0	2.36e-05	0	57	0	1215299584	52	5612
2026-01-10 23:21:30.68	177.38	10.50	-41.0	-44.6	12.6	8.92e-05	0	56	0	1222639616	52	5853
2026-01-10 23:21:34.72	177.58	10.16	-41.2	-45.0	12.2	2.06e-04	0	56	0	1231028224	53	5752
2026-01-10 23:21:38.76	177.78	9.82	-41.3	-45.2	11.9	4.23e-04	0	57	0	1238368256	53	5920
2026-01-10 23:21:42.80	177.97	9.48	-41.4	-45.6	11.5	7.16e-04	0	56	0	1245708288	53	6145
2026-01-10 23:21:46.84	178.16	9.15	-41.5	-45.8	11.3	1.32e-03	0	57	0	1253048320	53	6294
2026-01-10 23:21:50.88	178.35	8.82	-41.4	-45.6	11.3	1.36e-03	0	57	0	1261436928	53	6188
2026-01-10 23:21:54.92	178.53	8.50	-41.2	-45.4	11.5	1.06e-03	0	57	0	1268776960	53	6054
2026-01-10 23:21:58.96	178.70	8.18	-41.3	-45.6	11.2	8.83e-04	0	56	0	1276116992	53	6155
2026-01-10 23:22:03.00	178.88	7.86	-44.7	-59.1	3.8	1.49e+00	0	57	104	1281359872	59	20695
2026-01-10 23:22:07.04	179.05	7.55	-45.0	-59.7	3.8	1.49e+00	0	56	104	1281359872	60	20794
2026-01-10 23:22:11.08	179.22	7.24	-45.2	-59.9	3.8	1.49e+00	0	57	104	1281359872	60	21371
2026-01-10 23:22:15.13	179.38	6.94	-45.1	-59.8	3.8	1.49e+00	0	56	104	1281359872	60	21158
2026-01-10 23:22:19.17	179.54	6.64	-45.0	-59.8	3.8	1.49e+00	0	57	104	1281359872	60	21137
2026-01-10 23:22:23.21	179.70	6.34	-45.0	-59.8	3.8	1.49e+00	0	57	104	1281359872	60	21092
2026-01-10 23:22:27.26	179.85	6.04	-45.0	-59.8	3.8	1.49e+00	0	57	104	1281359872	60	21136
2026-01-10 23:22:31.30	180.00	5.75	-45.0	-59.8	3.8	1.49e+00	0	57	104	1281359872	60	21069
2026-01-10 23:22:35.34	180.15	5.46	-45.0	-59.8	3.8	1.49e+00	0	57	104	1281359872	60	21056
2026-01-10 23:22:39.39	180.30	5.18	-45.0	-59.8	3.8	1.49e+00	0	57	104	1281359872	60	21109
2026-01-10 23:22:43.43	180.44	4.90	-45.0	-59.8	3.8	1.49e+00	0	57	104	1281359872	60	21062
2026-01-10 23:22:47.47	180.58	4.62	-45.0	-59.7	3.8	1.49e+00	0	57	104	1281359872	60	20990
2026-01-10 23:22:51.52	180.72	4.34	-45.0	-59.8	3.8	1.49e+00	0	57	104	1281359872	60	21052
2026-01-10 23:22:55.56	180.86	4.06	-45.0	-59.8	3.8	1.49e+00	0	57	104	1281359872	60	21033
2026-01-10 23:22:59.61	180.99	3.79	-45.0	-59.7	3.8	1.49e+00	0	57	104	1281359872	60	21009
2026-01-10 23:23:03.65	181.12	3.52	-45.0	-59.7	3.8	1.49e+00	0	57	104	1281359872	60	21001
2026-01-10 23:23:07.69	181.25	3.26	-45.0	-59.8	3.8	1.49e+00	0	56	104	1281359872	60	21040
2026-01-10 23:23:11.74	181.38	2.99	-44.9	-59.8	3.8	1.49e+00	0	57	104	1281359872	60	21022
2026-01-10 23:23:15.78	181.51	2.73	-45.0	-59.7	3.8	1.49e+00	0	57	104	1281359872	60	20932
2026-01-10 23:23:19.83	181.63	2.47	-44.9	-59.7	3.8	1.49e+00	0	57	104	1281359872	60	20939
2026-01-10 23:23:23.87	181.75	2.21	-45.0	-59.7	3.8	1.49e+00	0	57	104	1281359872	60	20978
2026-01-10 23:23:27.92	181.87	1.96	-44.9	-59.7	3.8	1.49e+00	0	57	104	1281359872	60	20997

#Closed at: 2026-01-10 23:23:30
#Recorded file [1281 MB]: D:/lorett/data/31039_260111_020911.dat