passes_logs/2026/01/10/R2.0S_Moscow/R2.0S_Moscow__20260110_232952_NOAA_20_JPSS-1_rec.log

#Pass ID: 20260110_232952_NOAA 20 (JPSS-1)
#Satellite: NOAA 20 (JPSS-1)
#Configuration: NOAA 20
#almurnet v.1.7.20251203
#Start time: 2026-01-10 23:29:52

#Version: 2.2.20231116
#Station: R2.0S_Moscow
#Location: 37.707566 lon 55.798166 lat
#TLE: 1 43013U 17073A   26009.69119415  .00000109  00000+0  72598-4 0  9996
#TLE: 2 43013  98.7631 310.6868 0001678  46.7442 313.3874 14.19534878421981

#Time	Az	El	Level	Level2	SNR	BER	BlckErr	Temp	State	Recorded	gain1	gain2
2026-01-10 23:29:52.85	16.96	2.01	-41.1	-56.3	3.8	1.49e+00	0	48	0	0	54	19918
2026-01-10 23:29:56.89	17.00	2.27	-41.1	-56.2	3.8	1.49e+00	0	48	104	0	53	20971
2026-01-10 23:30:00.94	17.05	2.53	-41.1	-56.3	3.8	1.49e+00	0	48	104	0	53	21099
2026-01-10 23:30:04.98	17.10	2.79	-41.1	-56.3	3.8	1.49e+00	0	49	104	0	53	21023
2026-01-10 23:30:09.03	17.15	3.06	-41.1	-56.2	3.8	1.49e+00	0	49	104	0	53	20960
2026-01-10 23:30:13.07	17.20	3.33	-41.1	-56.3	3.8	1.49e+00	0	49	104	0	53	21018
2026-01-10 23:30:17.11	17.25	3.60	-41.0	-56.3	3.8	1.49e+00	0	49	104	0	53	21042
2026-01-10 23:30:21.15	17.30	3.87	-41.1	-56.3	3.8	1.49e+00	0	50	104	0	53	21026
2026-01-10 23:30:25.20	17.35	4.15	-41.0	-56.2	3.8	1.49e+00	0	50	104	0	53	20988
2026-01-10 23:30:29.24	17.40	4.42	-41.0	-56.2	3.8	1.49e+00	0	50	104	0	53	21002
2026-01-10 23:30:33.29	17.45	4.71	-41.1	-56.2	3.8	1.49e+00	0	51	104	0	53	21012
2026-01-10 23:30:37.33	17.50	4.99	-41.1	-56.3	3.8	1.49e+00	0	51	104	0	53	21022
2026-01-10 23:30:41.38	17.56	5.28	-41.1	-56.3	3.8	1.49e+00	0	51	104	0	53	21018
2026-01-10 23:30:45.42	17.61	5.57	-41.0	-56.2	3.8	1.49e+00	0	51	104	0	53	20954
2026-01-10 23:30:49.47	17.67	5.86	-41.0	-56.2	3.8	1.49e+00	0	51	104	0	53	20885
2026-01-10 23:30:53.51	17.72	6.16	-41.0	-56.2	3.8	1.49e+00	0	51	104	0	53	20942
2026-01-10 23:30:57.55	17.78	6.46	-41.1	-56.2	3.8	1.49e+00	0	52	104	0	53	20934
2026-01-10 23:31:01.60	17.84	6.77	-41.1	-56.2	3.8	1.49e+00	0	52	104	0	53	20912
2026-01-10 23:31:05.64	17.90	7.08	-41.0	-55.8	3.8	1.49e+00	0	52	104	0	53	19983
2026-01-10 23:31:09.69	17.95	7.39	-41.0	-55.3	3.8	1.49e+00	0	52	104	0	53	18862
2026-01-10 23:31:13.73	18.01	7.70	-40.8	-52.2	4.3	1.36e+00	92	52	0	0	53	13130
2026-01-10 23:31:17.77	18.07	8.02	-40.3	-48.6	6.4	2.84e-01	0	52	0	7340032	52	9208
2026-01-10 23:31:21.82	18.14	8.35	-40.8	-55.2	3.8	1.49e+00	0	53	104	13631488	52	19666
2026-01-10 23:31:25.85	18.20	8.68	-41.0	-45.9	10.5	7.89e-03	0	53	0	18874368	52	6743
2026-01-10 23:31:29.89	18.26	9.01	-40.9	-45.3	11.3	6.93e-04	0	53	0	26214400	52	6316
2026-01-10 23:31:33.93	18.33	9.34	-40.8	-45.1	11.6	5.35e-04	0	53	0	34603008	52	6137
2026-01-10 23:31:37.98	18.39	9.69	-40.8	-45.0	11.8	4.67e-04	0	53	0	41943040	52	6081
2026-01-10 23:31:42.01	18.46	10.03	-40.6	-44.5	12.4	1.83e-04	0	53	0	49283072	52	5774
2026-01-10 23:31:46.05	18.53	10.38	-40.8	-44.6	12.4	9.38e-05	0	53	0	56623104	52	5827
2026-01-10 23:31:50.09	18.60	10.74	-40.8	-44.5	12.5	8.46e-05	0	53	0	63963136	52	5788
2026-01-10 23:31:54.13	18.67	11.10	-40.8	-44.4	12.7	7.78e-05	0	54	0	72351744	52	5721
2026-01-10 23:31:58.17	18.74	11.47	-40.8	-44.4	12.8	5.95e-05	0	54	0	79691776	52	5707
2026-01-10 23:32:02.21	18.82	11.84	-40.8	-44.3	13.0	4.04e-05	0	54	0	87031808	52	5636
2026-01-10 23:32:06.24	18.89	12.22	-40.6	-43.9	13.5	1.60e-05	0	54	0	94371840	52	5343
2026-01-10 23:32:10.28	18.97	12.60	-40.6	-43.8	13.7	2.20e-06	0	54	0	102760448	52	5320
2026-01-10 23:32:14.32	19.04	12.99	-40.6	-43.7	13.8	6.80e-06	0	54	0	110100480	52	5271
2026-01-10 23:32:18.36	19.12	13.39	-40.5	-43.6	13.9	2.20e-06	0	54	0	117440512	52	5166
2026-01-10 23:32:22.40	19.21	13.79	-40.4	-43.5	14.0	7.00e-07	0	54	0	124780544	52	5111
2026-01-10 23:32:26.43	19.29	14.20	-40.4	-43.5	14.1	3.80e-06	0	54	0	132120576	52	5118
2026-01-10 23:32:30.47	19.37	14.61	-40.4	-43.4	14.1	1.50e-06	0	54	0	140509184	52	5098
2026-01-10 23:32:34.52	19.46	15.04	-40.4	-43.4	14.2	0.00e+00	0	54	0	147849216	52	5076
2026-01-10 23:32:38.55	19.55	15.47	-40.6	-43.6	14.2	7.00e-07	0	54	0	155189248	52	5163
2026-01-10 23:32:42.59	19.64	15.91	-40.7	-43.8	14.0	6.10e-06	0	54	0	162529280	52	5301
2026-01-10 23:32:46.63	19.74	16.36	-40.6	-43.7	14.0	4.50e-06	0	54	0	170917888	52	5275
2026-01-10 23:32:50.67	19.83	16.81	-40.7	-43.8	14.0	1.50e-06	0	54	0	178257920	52	5292
2026-01-10 23:32:54.71	19.93	17.28	-40.8	-43.9	13.9	6.80e-06	0	55	0	185597952	52	5370
2026-01-10 23:32:58.75	20.03	17.75	-40.9	-44.1	13.7	8.30e-06	0	55	0	192937984	52	5514
2026-01-10 23:33:02.79	20.13	18.23	-41.2	-44.6	13.3	1.90e-05	0	55	0	200278016	52	5804
2026-01-10 23:33:06.83	20.24	18.72	-41.3	-44.8	13.1	2.28e-05	0	55	0	208666624	53	5598
2026-01-10 23:33:10.87	20.35	19.23	-41.4	-44.8	13.1	2.97e-05	0	55	0	216006656	53	5642
2026-01-10 23:33:14.91	20.46	19.74	-41.5	-45.2	12.7	6.48e-05	0	55	0	223346688	53	5861
2026-01-10 23:33:18.95	20.58	20.26	-41.5	-45.0	13.0	4.19e-05	0	55	0	230686720	53	5724
2026-01-10 23:33:22.99	20.70	20.79	-41.6	-45.2	12.7	6.63e-05	0	55	0	239075328	53	5877
2026-01-10 23:33:27.02	20.82	21.34	-41.5	-45.0	13.0	4.34e-05	0	55	0	246415360	53	5759
2026-01-10 23:33:31.06	20.95	21.90	-41.4	-44.8	13.2	1.75e-05	0	55	0	253755392	53	5652
2026-01-10 23:33:35.10	21.08	22.47	-41.4	-44.8	13.2	1.60e-05	0	55	0	261095424	53	5609
2026-01-10 23:33:39.14	21.21	23.05	-41.4	-44.8	13.3	1.52e-05	0	55	0	268435456	53	5593
2026-01-10 23:33:43.19	21.35	23.65	-41.3	-44.6	13.4	1.06e-05	0	55	0	276824064	53	5523
2026-01-10 23:33:47.22	21.50	24.26	-41.0	-44.1	13.9	1.50e-06	0	55	0	284164096	53	5205
2026-01-10 23:33:51.26	21.65	24.88	-41.0	-44.0	14.1	7.00e-07	0	55	0	291504128	53	5131
2026-01-10 23:33:55.31	21.80	25.52	-41.0	-44.1	14.0	2.20e-06	0	55	0	298844160	53	5192
2026-01-10 23:33:59.34	21.96	26.18	-41.2	-44.4	13.8	3.00e-06	0	55	0	307232768	53	5355
2026-01-10 23:34:03.38	22.13	26.85	-41.5	-44.8	13.3	1.52e-05	0	55	0	314572800	53	5654
2026-01-10 23:34:07.42	22.31	27.54	-41.8	-45.4	12.8	6.17e-05	0	55	0	321912832	54	5673
2026-01-10 23:34:11.46	22.49	28.24	-42.0	-45.9	12.2	1.50e-04	0	56	0	329252864	54	5997
2026-01-10 23:34:15.50	22.68	28.97	-42.2	-46.2	11.9	3.60e-04	0	55	0	337641472	55	5907
2026-01-10 23:34:19.54	22.87	29.71	-42.2	-46.1	12.0	4.03e-04	0	55	0	344981504	55	5851
2026-01-10 23:34:23.58	23.08	30.48	-42.4	-46.5	11.6	6.39e-04	0	55	0	352321536	55	6088
2026-01-10 23:34:27.62	23.29	31.26	-42.3	-46.4	11.8	7.93e-04	0	56	0	359661568	55	6007
2026-01-10 23:34:31.66	23.52	32.07	-42.4	-46.6	11.5	6.69e-04	0	56	0	367001600	55	6189
2026-01-10 23:34:35.69	23.75	32.89	-42.3	-46.3	11.9	4.40e-04	0	56	0	375390208	55	5953
2026-01-10 23:34:39.73	24.00	33.74	-42.0	-45.8	12.4	1.29e-04	0	56	0	382730240	55	5599
2026-01-10 23:34:43.77	24.26	34.61	-41.0	-44.2	13.5	1.75e-05	0	56	0	390070272	54	4959
2026-01-10 23:34:47.81	24.53	35.51	-41.1	-44.1	14.2	2.20e-06	0	56	0	397410304	54	4923
2026-01-10 23:34:51.84	24.82	36.43	-41.1	-44.0	14.3	1.50e-06	0	56	0	404750336	54	4840
2026-01-10 23:34:55.88	25.12	37.38	-40.9	-43.8	14.5	7.00e-07	0	56	0	413138944	53	5003
2026-01-10 23:34:59.92	25.44	38.36	-41.4	-44.7	13.6	4.50e-06	0	56	0	420478976	53	5538
2026-01-10 23:35:03.96	25.78	39.37	-41.3	-44.4	13.9	6.10e-06	0	56	0	427819008	53	5374
2026-01-10 23:35:08.00	26.14	40.40	-41.4	-44.5	13.8	2.20e-06	0	56	0	435159040	53	5428
2026-01-10 23:35:12.04	26.53	41.47	-41.6	-44.9	13.4	6.10e-06	0	56	0	443547648	53	5707
2026-01-10 23:35:16.08	26.94	42.56	-41.6	-44.9	13.4	2.21e-05	0	56	0	450887680	54	5355
2026-01-10 23:35:20.12	27.38	43.69	-41.7	-45.0	13.4	1.06e-05	0	56	0	458227712	54	5439
2026-01-10 23:35:24.15	27.85	44.84	-42.2	-46.0	12.4	1.30e-04	0	56	0	465567744	54	6072
2026-01-10 23:35:28.19	28.35	46.04	-42.1	-45.8	12.5	1.19e-04	0	56	0	472907776	54	5984
2026-01-10 23:35:32.23	28.89	47.26	-42.1	-45.8	12.6	5.95e-05	0	56	0	481296384	54	5939
2026-01-10 23:35:36.27	29.48	48.52	-42.1	-45.7	12.6	7.70e-05	0	56	0	488636416	55	5592
2026-01-10 23:35:40.31	30.12	49.81	-41.2	-44.2	14.2	2.20e-06	0	56	0	495976448	54	4952
2026-01-10 23:35:44.35	30.81	51.14	-39.9	-42.2	16.3	0.00e+00	0	56	0	503316480	51	4684
2026-01-10 23:35:48.38	31.57	52.50	-39.3	-41.3	17.2	0.00e+00	0	56	0	511705088	50	4471
2026-01-10 23:35:52.42	32.40	53.89	-38.8	-40.7	17.8	0.00e+00	0	56	0	519045120	49	4420
2026-01-10 23:35:56.46	33.31	55.32	-39.0	-40.9	17.6	0.00e+00	0	56	0	526385152	49	4540
2026-01-10 23:36:00.50	34.32	56.78	-39.9	-42.1	16.4	0.00e+00	0	56	0	533725184	50	4925
2026-01-10 23:36:04.54	35.44	58.27	-39.8	-42.0	16.5	0.00e+00	0	56	0	541065216	51	4575
2026-01-10 23:36:08.57	36.69	59.78	-39.1	-41.1	17.4	0.00e+00	0	56	0	549453824	50	4345
2026-01-10 23:36:12.61	38.10	61.32	-38.5	-40.3	18.1	0.00e+00	0	56	0	556793856	49	4234
2026-01-10 23:36:16.65	39.69	62.88	-38.6	-40.4	18.1	0.00e+00	0	56	0	564133888	48	4538
2026-01-10 23:36:20.69	41.51	64.45	-39.4	-41.5	17.0	0.00e+00	0	56	0	571473920	49	4840
2026-01-10 23:36:24.73	43.59	66.04	-40.4	-42.9	15.6	0.00e+00	0	56	0	579862528	51	5077
2026-01-10 23:36:28.76	45.99	67.61	-41.1	-44.1	14.3	7.00e-07	0	56	0	587202560	53	5192
2026-01-10 23:36:32.80	48.80	69.18	-41.6	-44.9	13.5	8.30e-06	0	56	0	594542592	53	5682
2026-01-10 23:36:36.84	52.09	70.72	-41.1	-44.1	14.3	1.50e-06	0	56	0	601882624	53	5183
2026-01-10 23:36:40.88	55.98	72.21	-42.2	-46.0	12.3	8.69e-05	0	56	0	609222656	54	6104
2026-01-10 23:36:44.91	60.59	73.63	-42.3	-46.3	12.1	2.18e-04	0	56	0	617611264	55	5926
2026-01-10 23:36:48.95	66.10	74.95	-41.0	-43.9	14.5	0.00e+00	0	56	0	624951296	54	4789
2026-01-10 23:36:52.99	72.63	76.12	-41.9	-45.5	12.9	4.34e-05	0	56	0	632291328	54	5729
2026-01-10 23:36:57.03	80.30	77.09	-41.8	-45.3	13.0	6.56e-05	0	56	0	639631360	55	5310
2026-01-10 23:37:01.07	89.07	77.81	-42.2	-46.1	12.2	4.80e-05	0	56	0	648019968	54	6165
2026-01-10 23:37:05.11	98.72	78.23	-42.0	-45.8	12.6	4.65e-05	0	56	0	655360000	55	5606
2026-01-10 23:37:09.15	108.78	78.30	-41.4	-44.6	13.7	7.60e-06	0	56	0	662700032	54	5198
2026-01-10 23:37:13.18	118.64	78.02	-42.4	-46.6	11.7	2.94e-04	0	56	0	670040064	55	6150
2026-01-10 23:37:17.22	127.81	77.42	-43.2	-48.3	10.0	2.68e-03	0	56	0	677380096	56	7110
2026-01-10 23:37:21.26	135.95	76.54	-43.1	-48.1	10.3	5.39e-03	0	56	0	685768704	57	6537
2026-01-10 23:37:25.30	142.94	75.44	-42.4	-46.3	12.2	1.99e-04	0	57	0	693108736	56	5617
2026-01-10 23:37:29.33	148.84	74.18	-42.9	-47.4	11.0	2.23e-03	0	56	0	700448768	57	6052
2026-01-10 23:37:33.37	153.81	72.79	-42.5	-46.7	11.8	1.14e-03	0	56	0	707788800	57	5530
2026-01-10 23:37:37.40	157.97	71.33	-41.6	-45.0	13.3	1.98e-05	0	56	0	716177408	55	5153
2026-01-10 23:37:41.44	161.49	69.80	-42.1	-45.8	12.5	6.56e-05	0	56	0	723517440	54	5989
2026-01-10 23:37:45.47	164.48	68.24	-42.8	-47.2	11.3	2.44e-03	0	56	0	730857472	56	6233
2026-01-10 23:37:49.51	167.04	66.66	-42.1	-45.7	12.8	3.97e-04	0	57	0	738197504	56	5238
2026-01-10 23:37:53.55	169.25	65.08	-40.9	-43.7	14.7	1.50e-06	0	56	0	745537536	53	4951
2026-01-10 23:37:57.59	171.17	63.49	-39.4	-41.5	17.0	0.00e+00	0	56	0	753926144	50	4566
2026-01-10 23:38:01.63	172.85	61.92	-38.7	-40.6	17.8	0.00e+00	0	56	0	761266176	48	4640
2026-01-10 23:38:05.67	174.33	60.37	-41.3	-44.4	13.9	3.80e-06	0	56	0	768606208	53	5402
2026-01-10 23:38:09.71	175.64	58.84	-41.7	-45.2	13.2	0.00e+00	0	57	0	775946240	53	5866
2026-01-10 23:38:13.75	176.81	57.33	-41.1	-44.1	14.3	2.20e-06	0	57	0	784334848	54	4888
2026-01-10 23:38:17.78	177.86	55.86	-40.6	-43.2	15.2	0.00e+00	0	57	0	791674880	53	4682
2026-01-10 23:38:21.82	178.81	54.42	-39.7	-41.9	16.6	0.00e+00	0	56	0	799014912	50	4769
2026-01-10 23:38:25.86	179.67	53.00	-40.1	-42.5	16.0	0.00e+00	0	57	0	806354944	51	4820
2026-01-10 23:38:29.90	180.46	51.62	-41.4	-44.6	13.6	2.20e-06	0	56	0	813694976	53	5500
2026-01-10 23:38:33.94	181.17	50.28	-43.4	-48.8	9.5	2.79e-02	0	56	0	822083584	57	7086
2026-01-10 23:38:37.98	181.83	48.97	-43.4	-48.8	9.5	1.83e-02	0	56	0	829423616	57	7052
2026-01-10 23:38:42.02	182.44	47.69	-43.0	-47.9	10.4	2.09e-03	0	57	0	836763648	57	6349
2026-01-10 23:38:46.06	183.00	46.45	-42.2	-45.9	12.5	2.17e-04	0	57	0	844103680	56	5369
2026-01-10 23:38:50.09	183.52	45.24	-40.6	-43.3	15.0	7.00e-07	0	56	0	852492288	53	4710
2026-01-10 23:38:54.13	184.00	44.06	-41.2	-44.3	14.0	2.20e-06	0	56	0	859832320	52	5614
2026-01-10 23:38:58.17	184.45	42.92	-40.1	-42.6	15.6	1.50e-06	0	57	0	867172352	52	4614
2026-01-10 23:39:02.21	184.87	41.81	-40.0	-42.3	16.0	0.00e+00	0	57	0	874512384	50	5006
2026-01-10 23:39:06.25	185.26	40.73	-42.0	-45.9	12.3	1.38e-04	0	57	0	881852416	54	6061
2026-01-10 23:39:10.29	185.63	39.68	-40.9	-43.8	14.4	3.00e-06	0	57	0	890241024	53	5022
2026-01-10 23:39:14.33	185.98	38.66	-41.3	-44.5	13.7	3.00e-06	0	57	0	897581056	53	5450
2026-01-10 23:39:18.37	186.31	37.66	-43.3	-48.7	9.5	1.21e-02	0	56	0	904921088	57	7010
2026-01-10 23:39:22.41	186.61	36.70	-42.2	-46.1	12.1	4.43e-04	0	56	0	912261120	56	5528
2026-01-10 23:39:26.45	186.91	35.76	-41.3	-44.4	13.8	6.80e-06	0	57	0	920649728	54	5097
2026-01-10 23:39:30.48	187.18	34.85	-42.1	-46.0	12.1	1.32e-04	0	56	0	927989760	54	6115
2026-01-10 23:39:34.52	187.45	33.97	-43.5	-49.5	8.7	2.95e-02	0	57	0	935329792	57	7650
2026-01-10 23:39:38.55	187.70	33.11	-43.3	-48.7	9.4	2.24e-02	0	57	0	942669824	57	7023
2026-01-10 23:39:42.59	187.93	32.27	-42.4	-46.6	11.7	8.79e-04	0	57	0	950009856	56	5815
2026-01-10 23:39:46.62	188.16	31.45	-42.5	-46.7	11.4	9.11e-04	0	56	0	958398464	56	5898
2026-01-10 23:39:50.66	188.38	30.66	-42.3	-46.4	11.8	5.49e-04	0	57	0	965738496	56	5680
2026-01-10 23:39:54.70	188.58	29.88	-41.8	-45.4	12.6	1.16e-04	0	57	0	973078528	55	5394
2026-01-10 23:39:58.74	188.78	29.13	-41.7	-45.3	12.7	7.40e-05	0	57	0	980418560	55	5288
2026-01-10 23:40:02.78	188.97	28.39	-41.4	-44.8	13.3	2.51e-05	0	57	0	988807168	54	5302
2026-01-10 23:40:06.82	189.15	27.68	-41.1	-44.1	13.9	1.50e-06	0	57	0	996147200	54	4926
2026-01-10 23:40:10.86	189.33	26.98	-40.8	-43.8	14.4	2.20e-06	0	56	0	1003487232	53	4987
2026-01-10 23:40:14.89	189.49	26.30	-40.6	-43.4	14.6	1.50e-06	0	57	0	1010827264	53	4812
2026-01-10 23:40:18.93	189.66	25.64	-40.6	-43.5	14.6	0.00e+00	0	57	0	1018167296	53	4836
2026-01-10 23:40:22.97	189.81	24.99	-40.4	-43.2	14.9	0.00e+00	0	57	0	1026555904	52	4941
2026-01-10 23:40:27.01	189.96	24.36	-40.1	-42.7	15.4	0.00e+00	0	57	0	1033895936	52	4657
2026-01-10 23:40:31.04	190.10	23.74	-40.0	-42.4	15.7	0.00e+00	0	57	0	1041235968	51	4783
2026-01-10 23:40:35.09	190.24	23.13	-39.8	-42.2	15.9	7.00e-07	0	57	0	1048576000	51	4661
2026-01-10 23:40:39.13	190.38	22.54	-39.8	-42.2	15.9	0.00e+00	0	57	0	1056964608	51	4654
2026-01-10 23:40:43.16	190.51	21.97	-39.9	-42.3	15.7	0.00e+00	0	57	0	1064304640	51	4749
2026-01-10 23:40:47.20	190.63	21.40	-40.0	-42.5	15.6	0.00e+00	0	57	0	1071644672	51	4842
2026-01-10 23:40:51.24	190.76	20.85	-40.1	-42.6	15.4	0.00e+00	0	57	0	1078984704	51	4925
2026-01-10 23:40:55.28	190.87	20.31	-40.2	-42.8	15.3	0.00e+00	0	57	0	1086324736	51	5003
2026-01-10 23:40:59.32	190.99	19.78	-40.3	-43.0	15.1	0.00e+00	0	57	0	1094713344	51	5102
2026-01-10 23:41:03.35	191.10	19.26	-40.3	-43.0	15.0	0.00e+00	0	56	0	1102053376	51	5158
2026-01-10 23:41:07.39	191.21	18.76	-40.6	-43.4	14.5	0.00e+00	0	57	0	1109393408	51	5395
2026-01-10 23:41:11.43	191.31	18.26	-40.6	-43.6	14.4	0.00e+00	0	57	0	1116733440	51	5465
2026-01-10 23:41:15.47	191.41	17.77	-40.7	-43.7	14.2	1.50e-06	0	57	0	1125122048	52	5254
2026-01-10 23:41:19.51	191.51	17.29	-40.7	-43.8	14.1	1.50e-06	0	57	0	1132462080	52	5302
2026-01-10 23:41:23.54	191.61	16.83	-40.7	-43.8	14.0	2.20e-06	0	57	0	1139802112	52	5309
2026-01-10 23:41:27.58	191.70	16.37	-40.7	-43.8	14.0	3.00e-06	0	57	0	1147142144	52	5301
2026-01-10 23:41:31.62	191.79	15.91	-40.7	-43.7	14.0	3.00e-06	0	57	0	1154482176	52	5272
2026-01-10 23:41:35.66	191.88	15.47	-40.6	-43.6	14.2	3.00e-06	0	57	0	1162870784	52	5166
2026-01-10 23:41:39.70	191.97	15.03	-40.5	-43.5	14.3	1.50e-06	0	57	0	1170210816	52	5104
2026-01-10 23:41:43.73	192.05	14.61	-40.6	-43.5	14.2	2.20e-06	0	57	0	1177550848	52	5152
2026-01-10 23:41:47.77	192.13	14.19	-40.5	-43.5	14.2	7.00e-07	0	57	0	1184890880	52	5138
2026-01-10 23:41:51.81	192.21	13.77	-40.6	-43.7	14.0	3.80e-06	0	57	0	1193279488	52	5243
2026-01-10 23:41:55.85	192.29	13.37	-40.7	-43.8	13.8	0.00e+00	0	57	0	1200619520	52	5325
2026-01-10 23:41:59.89	192.37	12.97	-40.8	-44.0	13.6	5.30e-06	0	57	0	1207959552	52	5430
2026-01-10 23:42:03.92	192.44	12.57	-40.9	-44.1	13.5	8.30e-06	0	57	0	1215299584	52	5516
2026-01-10 23:42:07.96	192.52	12.19	-41.0	-44.4	13.2	2.36e-05	0	57	0	1222639616	52	5659
2026-01-10 23:42:12.00	192.59	11.80	-41.0	-44.4	13.1	2.59e-05	0	57	0	1231028224	52	5700
2026-01-10 23:42:16.04	192.66	11.43	-41.1	-44.7	12.8	5.34e-05	0	57	0	1238368256	52	5893
2026-01-10 23:42:20.08	192.73	11.06	-41.2	-44.8	12.7	5.11e-05	0	57	0	1245708288	52	5975
2026-01-10 23:42:24.12	192.80	10.70	-41.2	-44.9	12.5	9.30e-05	0	57	0	1253048320	53	5696
2026-01-10 23:42:28.15	192.86	10.34	-41.2	-44.9	12.5	9.38e-05	0	57	0	1260388352	53	5712
2026-01-10 23:42:32.19	192.93	9.98	-41.2	-45.0	12.4	1.52e-04	0	57	0	1268776960	53	5744
2026-01-10 23:42:36.23	192.99	9.63	-41.1	-44.8	12.6	1.01e-04	0	57	0	1276116992	53	5641
2026-01-10 23:42:40.27	193.05	9.29	-41.1	-44.8	12.6	9.61e-05	0	57	0	1283457024	53	5597
2026-01-10 23:42:44.31	193.11	8.95	-41.0	-44.6	12.7	1.08e-04	0	57	0	1290797056	53	5511
2026-01-10 23:42:48.34	193.17	8.62	-41.0	-44.7	12.5	6.86e-05	0	57	0	1299185664	53	5572
2026-01-10 23:42:52.38	193.23	8.29	-40.9	-44.5	12.7	1.32e-04	0	57	0	1306525696	53	5455
2026-01-10 23:42:56.42	193.29	7.96	-44.4	-58.8	3.8	1.48e+00	0	57	104	1312817152	59	20017
2026-01-10 23:43:00.47	193.35	7.64	-45.1	-59.7	3.8	1.49e+00	0	57	104	1312817152	60	21005
2026-01-10 23:43:04.51	193.40	7.32	-45.2	-59.9	3.8	1.49e+00	0	57	104	1312817152	60	21286
2026-01-10 23:43:08.55	193.46	7.00	-45.1	-59.9	3.8	1.49e+00	0	57	104	1312817152	60	21311
2026-01-10 23:43:12.60	193.51	6.69	-45.1	-59.8	3.8	1.49e+00	0	57	104	1312817152	60	21178
2026-01-10 23:43:16.64	193.56	6.39	-45.0	-59.8	3.8	1.49e+00	0	57	104	1312817152	60	21162
2026-01-10 23:43:20.68	193.62	6.08	-45.0	-59.8	3.8	1.49e+00	0	57	104	1312817152	60	21137
2026-01-10 23:43:24.73	193.67	5.78	-45.0	-59.8	3.8	1.49e+00	0	57	104	1312817152	60	21094
2026-01-10 23:43:28.77	193.72	5.49	-45.0	-59.8	3.8	1.49e+00	0	57	104	1312817152	60	21137
2026-01-10 23:43:32.81	193.77	5.19	-45.0	-59.8	3.8	1.49e+00	0	57	104	1312817152	60	21039
2026-01-10 23:43:36.86	193.82	4.90	-45.0	-59.8	3.8	1.49e+00	0	57	104	1312817152	60	21054
2026-01-10 23:43:40.91	193.86	4.62	-45.0	-59.8	3.8	1.49e+00	0	57	104	1312817152	60	21060
2026-01-10 23:43:44.95	193.91	4.33	-45.0	-59.8	3.8	1.49e+00	0	57	104	1312817152	60	21031
2026-01-10 23:43:48.99	193.96	4.05	-45.0	-59.8	3.8	1.49e+00	0	57	104	1312817152	60	21028
2026-01-10 23:43:53.04	194.00	3.77	-45.0	-59.8	3.8	1.49e+00	0	57	104	1312817152	60	21065
2026-01-10 23:43:57.08	194.05	3.50	-45.0	-59.8	3.8	1.49e+00	0	57	104	1312817152	60	21038
2026-01-10 23:44:01.12	194.09	3.23	-45.0	-59.8	3.8	1.49e+00	0	57	104	1312817152	60	21051
2026-01-10 23:44:05.17	194.14	2.96	-45.0	-59.7	3.8	1.49e+00	0	57	104	1312817152	60	20967
2026-01-10 23:44:09.21	194.18	2.69	-45.0	-59.7	3.8	1.49e+00	0	57	104	1312817152	60	20948
2026-01-10 23:44:13.26	194.22	2.43	-45.0	-59.8	3.8	1.49e+00	0	57	104	1312817152	60	21039
2026-01-10 23:44:17.30	194.27	2.16	-45.0	-59.7	3.8	1.49e+00	0	57	104	1312817152	60	20951
2026-01-10 23:44:21.35	194.31	1.90	-45.0	-59.8	3.8	1.49e+00	0	57	104	1312817152	60	21040

#Closed at: 2026-01-10 23:44:22
#Recorded file [1312 MB]: D:/lorett/data/31039_260111_022952.dat