passes_logs/2026/01/10/R2.0S_Moscow/R2.0S_Moscow__20260110_021406_FENGYUN_3E_rec.log

#Pass ID: 20260110_021406_FENGYUN 3E
#Satellite: FENGYUN 3E
#Configuration: FENGYUN 3E
#almurnet v.1.7.20251203
#Start time: 2026-01-10 02:22:40

#Version: 2.2.20231116
#Station: R2.0S_Moscow
#Location: 37.707566 lon 55.798166 lat
#TLE: 1 49008U 21062A   26009.29780149 -.00000002  00000+0  19895-4 0  9997
#TLE: 2 49008  98.7484  14.4929 0001744 148.2300 211.8982 14.19883977234036

#Time	Az	El	Level	Level2	SNR	BER	BlckErr	Temp	State	Recorded	gain1	gain2
2026-01-10 02:22:40.61	117.88	14.29	-44.8	-56.6	3.8	8.47e-01	0	56	0	0	60	14584
2026-01-10 02:22:41.61	118.06	14.24	-45.6	-56.6	3.8	8.46e-01	0	57	104	0	61	13075
2026-01-10 02:22:42.62	118.24	14.18	-45.5	-56.6	3.8	8.46e-01	0	56	104	0	61	13025
2026-01-10 02:22:43.63	118.42	14.13	-45.5	-56.6	3.8	8.46e-01	0	57	104	0	61	13040
2026-01-10 02:22:44.64	118.60	14.08	-45.4	-56.5	3.8	8.46e-01	0	57	104	0	61	12938
2026-01-10 02:22:45.65	118.78	14.03	-45.3	-56.4	3.8	8.44e-01	0	57	104	0	61	12784
2026-01-10 02:22:46.66	118.96	13.97	-45.2	-56.3	3.8	8.45e-01	0	57	104	0	61	12595
2026-01-10 02:22:47.67	119.14	13.92	-45.0	-56.3	3.8	8.47e-01	0	57	104	0	60	13293
2026-01-10 02:22:48.68	119.32	13.87	-44.9	-56.0	3.8	8.48e-01	0	57	104	0	60	12886
2026-01-10 02:22:49.69	119.50	13.82	-44.1	-54.2	3.9	8.46e-01	0	57	104	0	57	12471
2026-01-10 02:22:50.70	119.68	13.76	-34.2	-50.1	4.4	8.34e-01	0	56	104	0	37	24657
2026-01-10 02:22:51.71	119.86	13.71	-30.4	-44.2	3.7	8.13e-01	0	57	104	0	25	24943
2026-01-10 02:22:52.72	120.03	13.66	-32.2	-46.1	4.6	8.13e-01	0	57	104	0	31	21967
2026-01-10 02:22:53.73	120.21	13.60	-26.6	-44.7	4.1	8.12e-01	0	56	104	0	27	23479
2026-01-10 02:22:54.75	120.38	13.55	-31.8	-44.7	4.4	8.11e-01	0	57	104	0	29	20956
2026-01-10 02:22:55.76	120.56	13.50	-27.0	-45.5	4.5	8.12e-01	0	57	104	0	29	22861
2026-01-10 02:22:56.77	120.73	13.44	-28.0	-43.8	4.2	8.12e-01	0	57	104	0	27	21031
2026-01-10 02:22:57.78	120.91	13.39	-24.9	-37.0	3.6	8.12e-01	0	56	104	0	21	13710
2026-01-10 02:22:58.79	121.08	13.33	-29.5	-46.5	4.3	8.07e-01	0	57	104	0	28	27254
2026-01-10 02:22:59.80	121.25	13.28	-29.9	-46.5	4.3	8.12e-01	0	57	104	0	27	28700
2026-01-10 02:23:00.81	121.42	13.23	-29.3	-45.6	4.3	8.16e-01	0	57	104	0	30	21831
2026-01-10 02:23:01.82	121.59	13.17	-29.2	-46.3	4.6	8.20e-01	0	57	104	0	29	25029
2026-01-10 02:23:02.83	121.76	13.12	-31.2	-44.5	4.3	8.12e-01	0	57	104	0	30	19321
2026-01-10 02:23:03.85	121.93	13.06	-32.6	-46.3	4.4	8.11e-01	0	57	104	0	30	23683
2026-01-10 02:23:04.86	122.10	13.01	-26.3	-45.0	4.3	8.12e-01	0	57	104	0	29	21586
2026-01-10 02:23:05.87	122.27	12.95	-30.3	-45.8	4.2	8.13e-01	0	57	104	0	28	25126
2026-01-10 02:23:06.88	122.44	12.90	-29.2	-45.5	4.4	8.08e-01	0	57	104	0	27	25741
2026-01-10 02:23:07.89	122.61	12.84	-29.5	-46.9	4.3	8.13e-01	0	57	104	0	30	25359
2026-01-10 02:23:08.90	122.77	12.79	-31.0	-44.9	3.9	8.12e-01	0	57	104	0	25	26794
2026-01-10 02:23:09.91	122.94	12.73	-27.1	-45.4	4.6	8.16e-01	0	57	104	0	30	21393
2026-01-10 02:23:10.92	123.11	12.68	-28.5	-44.7	4.5	8.14e-01	0	57	104	0	29	20978
2026-01-10 02:23:11.94	123.27	12.62	-27.5	-44.4	4.4	8.13e-01	0	57	104	0	28	21466
2026-01-10 02:23:12.95	123.44	12.56	-28.2	-42.7	4.3	8.15e-01	0	57	104	0	25	20835
2026-01-10 02:23:13.96	123.60	12.51	-27.9	-44.2	4.2	8.13e-01	0	57	104	0	23	27729
2026-01-10 02:23:14.97	123.76	12.45	-29.5	-45.4	4.3	8.12e-01	0	57	104	0	28	24088
2026-01-10 02:23:15.98	123.92	12.40	-31.0	-45.4	3.9	8.10e-01	0	57	104	0	25	28441
2026-01-10 02:23:16.99	124.09	12.34	-26.6	-44.4	4.1	8.14e-01	0	57	104	0	23	28572
2026-01-10 02:23:18.00	124.25	12.29	-29.2	-46.3	4.3	8.09e-01	0	57	104	0	34	18857
2026-01-10 02:23:19.01	124.41	12.23	-27.3	-45.7	4.4	8.22e-01	0	57	104	0	28	24788
2026-01-10 02:23:20.02	124.57	12.17	-27.2	-45.7	4.4	8.22e-01	0	57	104	0	29	23402
2026-01-10 02:23:21.04	124.73	12.12	-28.2	-44.8	4.4	8.20e-01	0	57	104	0	27	23614
2026-01-10 02:23:22.05	124.89	12.06	-27.2	-40.5	4.0	8.24e-01	0	57	104	0	23	18102
2026-01-10 02:23:23.06	125.05	12.01	-30.6	-43.4	5.0	8.28e-01	0	57	104	0	29	17961
2026-01-10 02:23:24.07	125.20	11.95	-31.3	-43.2	5.0	8.17e-01	0	57	104	0	31	15645
2026-01-10 02:23:25.08	125.36	11.89	-31.1	-43.0	4.6	8.20e-01	0	57	104	0	28	18230
2026-01-10 02:23:26.09	125.52	11.84	-29.8	-42.7	5.0	8.17e-01	0	57	104	0	24	22132
2026-01-10 02:23:27.10	125.67	11.78	-29.4	-43.4	4.9	8.20e-01	0	57	104	0	29	17931
2026-01-10 02:23:28.11	125.83	11.72	-30.2	-44.1	4.6	8.28e-01	0	57	104	0	26	23255
2026-01-10 02:23:29.12	125.98	11.67	-25.7	-45.1	4.3	8.25e-01	0	57	104	0	25	27636
2026-01-10 02:23:30.13	126.14	11.61	-27.5	-46.1	4.4	8.26e-01	0	57	104	0	28	25981
2026-01-10 02:23:31.14	126.29	11.55	-27.7	-43.2	4.2	8.25e-01	0	57	104	0	23	24702
2026-01-10 02:23:32.15	126.44	11.50	-26.8	-41.0	4.2	8.28e-01	0	57	104	0	25	17250
2026-01-10 02:23:33.16	126.60	11.44	-25.5	-36.8	4.5	7.97e-01	0	57	104	0	22	12577
2026-01-10 02:23:34.18	126.75	11.38	-29.3	-40.1	5.2	7.86e-01	0	57	104	0	30	11625
2026-01-10 02:23:35.19	126.90	11.32	-31.0	-39.3	5.2	7.79e-01	0	57	104	0	28	11926
2026-01-10 02:23:36.20	127.05	11.27	-29.6	-41.4	3.9	8.01e-01	0	57	104	0	26	16986
2026-01-10 02:23:37.21	127.20	11.21	-26.2	-41.9	4.2	8.14e-01	0	57	104	0	25	18964
2026-01-10 02:23:38.22	127.35	11.15	-26.1	-39.4	4.9	7.71e-01	0	57	104	0	28	12025
2026-01-10 02:23:39.23	127.50	11.10	-28.8	-39.4	5.1	8.17e-01	0	57	104	0	26	13515
2026-01-10 02:23:40.24	127.65	11.04	-29.9	-44.5	4.2	8.29e-01	0	57	104	0	27	22805
2026-01-10 02:23:41.25	127.80	10.98	-26.4	-38.9	5.0	8.13e-01	0	57	104	0	26	12778
2026-01-10 02:23:42.26	127.95	10.93	-27.6	-39.4	4.5	8.11e-01	0	57	104	0	22	16974
2026-01-10 02:23:43.28	128.09	10.87	-26.2	-37.4	4.7	8.11e-01	0	57	104	0	20	15163
2026-01-10 02:23:44.29	128.24	10.81	-27.2	-38.1	4.9	8.21e-01	0	57	104	0	22	14650
2026-01-10 02:23:45.30	128.39	10.75	-23.9	-35.0	4.6	8.20e-01	0	57	104	0	21	10812
2026-01-10 02:23:46.31	128.53	10.70	-28.3	-37.8	4.9	8.12e-01	0	57	104	0	23	13268
2026-01-10 02:23:47.32	128.68	10.64	-26.0	-36.3	4.6	8.16e-01	0	57	104	0	21	12606
2026-01-10 02:23:48.33	128.82	10.58	-23.0	-38.2	4.8	8.20e-01	0	57	104	0	24	13120
2026-01-10 02:23:49.34	128.96	10.52	-22.8	-38.2	4.6	8.26e-01	0	57	104	0	22	14848
2026-01-10 02:23:50.35	129.11	10.47	-23.4	-36.4	4.1	8.26e-01	0	57	104	0	22	11960
2026-01-10 02:23:51.36	129.25	10.41	-23.5	-36.2	3.4	8.20e-01	0	57	104	0	10	23351
2026-01-10 02:23:52.37	129.39	10.35	-25.6	-37.1	3.9	8.19e-01	0	57	104	0	18	16366
2026-01-10 02:23:53.38	129.53	10.29	-26.2	-38.0	3.8	8.18e-01	0	57	104	0	22	14535
2026-01-10 02:23:54.39	129.67	10.24	-23.2	-34.7	3.5	8.16e-01	0	57	104	0	16	13899
2026-01-10 02:23:55.40	129.81	10.18	-26.1	-37.7	3.5	8.12e-01	0	57	104	0	22	13980
2026-01-10 02:23:56.41	129.95	10.12	-24.6	-37.7	3.6	7.98e-01	0	57	104	0	23	13157
2026-01-10 02:23:57.42	130.09	10.06	-14.8	-26.5	3.6	8.19e-01	0	57	104	0	1	12898
2026-01-10 02:23:58.43	130.23	10.01	-23.2	-35.0	3.5	8.08e-01	0	57	104	0	18	12945
2026-01-10 02:23:59.44	130.37	9.95	-23.1	-37.2	3.5	8.22e-01	0	57	104	0	21	13911
2026-01-10 02:24:00.45	130.51	9.89	-22.7	-36.1	3.9	8.17e-01	0	57	104	0	16	16353
2026-01-10 02:24:01.46	130.64	9.83	-23.1	-37.1	3.6	8.05e-01	0	57	104	0	18	16454
2026-01-10 02:24:02.48	130.78	9.78	-19.3	-29.0	3.4	8.23e-01	0	57	104	0	9	10890
2026-01-10 02:24:03.48	130.92	9.72	-17.1	-28.4	3.5	8.29e-01	0	57	104	0	5	12704
2026-01-10 02:24:04.50	131.05	9.66	-19.9	-27.9	3.4	8.21e-01	0	57	104	0	9	9596
2026-01-10 02:24:05.51	131.19	9.60	-19.7	-26.2	3.9	8.35e-01	0	57	104	0	11	6984
2026-01-10 02:24:06.52	131.32	9.54	-20.5	-28.6	3.8	8.13e-01	0	57	104	0	12	8748
2026-01-10 02:24:07.53	131.46	9.49	-19.3	-28.1	3.4	8.28e-01	0	57	104	0	8	10304
2026-01-10 02:24:08.54	131.59	9.43	-24.1	-35.9	3.6	8.07e-01	0	57	104	0	20	12702
2026-01-10 02:24:09.55	131.72	9.37	-22.1	-37.0	3.6	8.06e-01	0	57	104	0	21	13663
2026-01-10 02:24:10.56	131.85	9.31	-22.4	-37.2	3.6	8.18e-01	0	57	104	0	18	16527
2026-01-10 02:24:11.57	131.99	9.26	-28.6	-39.7	3.5	8.09e-01	0	57	104	0	19	20963
2026-01-10 02:24:12.58	132.12	9.20	-26.0	-41.3	3.8	8.15e-01	0	57	104	0	21	22472
2026-01-10 02:24:13.59	132.25	9.14	-23.8	-40.0	3.6	8.15e-01	0	57	104	0	21	19308
2026-01-10 02:24:14.60	132.38	9.08	-27.4	-40.3	3.9	8.13e-01	0	57	104	0	24	16817
2026-01-10 02:24:15.61	132.51	9.03	-20.5	-37.6	3.9	8.18e-01	0	57	104	0	22	13870
2026-01-10 02:24:16.62	132.64	8.97	-25.5	-37.3	3.7	8.17e-01	0	57	104	0	22	13377
2026-01-10 02:24:17.63	132.77	8.91	-27.5	-41.7	3.9	8.19e-01	0	57	104	0	22	22166
2026-01-10 02:24:18.65	132.90	8.85	-26.2	-42.3	4.0	8.21e-01	0	57	104	0	23	22365
2026-01-10 02:24:19.66	133.03	8.80	-28.5	-40.6	3.8	8.18e-01	0	57	104	0	23	18469
2026-01-10 02:24:20.67	133.15	8.74	-26.3	-40.5	3.7	8.11e-01	0	57	104	0	22	19366
2026-01-10 02:24:21.68	133.28	8.68	-24.5	-38.4	3.8	8.15e-01	0	57	104	0	23	14338
2026-01-10 02:24:22.69	133.41	8.62	-26.5	-41.0	3.7	8.14e-01	0	57	104	0	22	20347
2026-01-10 02:24:23.70	133.53	8.56	-17.3	-38.6	3.7	8.24e-01	0	57	104	0	5	41276
2026-01-10 02:24:24.71	133.66	8.51	-27.2	-42.3	4.0	8.32e-01	0	57	104	0	13	39925
2026-01-10 02:24:25.72	133.78	8.45	-26.1	-41.6	3.9	8.20e-01	0	57	104	0	23	20724
2026-01-10 02:24:26.73	133.91	8.39	-27.7	-42.3	4.0	8.20e-01	0	57	104	0	26	18822
2026-01-10 02:24:27.74	134.03	8.33	-36.7	-48.6	4.1	8.23e-01	0	57	104	0	42	15429
2026-01-10 02:24:28.75	134.16	8.28	-28.2	-45.4	4.1	8.35e-01	0	57	104	0	30	21427
2026-01-10 02:24:29.76	134.28	8.22	-34.1	-45.7	4.1	8.26e-01	0	57	104	0	33	18725
2026-01-10 02:24:30.77	134.40	8.16	-30.4	-43.6	4.1	8.22e-01	0	57	104	0	28	19408
2026-01-10 02:24:31.79	134.52	8.10	-32.9	-46.9	4.1	8.31e-01	0	57	104	0	31	23857
2026-01-10 02:24:32.80	134.65	8.05	-31.0	-45.6	4.0	8.34e-01	0	57	104	0	30	21937
2026-01-10 02:24:33.81	134.77	7.99	-26.5	-40.2	3.9	8.26e-01	0	57	104	0	25	15611
2026-01-10 02:24:34.82	134.89	7.93	-35.1	-52.0	4.2	8.24e-01	0	57	104	0	46	18256
2026-01-10 02:24:35.83	135.01	7.88	-44.9	-55.9	3.8	8.47e-01	0	57	104	0	59	13485
2026-01-10 02:24:36.84	135.13	7.82	-45.2	-56.4	3.8	8.46e-01	0	57	104	0	60	13498
2026-01-10 02:24:37.85	135.25	7.76	-45.3	-56.6	3.8	8.47e-01	0	57	104	0	60	13780
2026-01-10 02:24:38.86	135.37	7.70	-45.4	-56.6	3.8	8.47e-01	0	57	104	0	60	13885
2026-01-10 02:24:39.87	135.49	7.65	-45.5	-56.8	3.8	8.46e-01	0	57	104	0	60	14119
2026-01-10 02:24:40.88	135.60	7.59	-45.6	-56.9	3.8	8.46e-01	0	57	104	0	60	14243
2026-01-10 02:24:41.90	135.72	7.53	-45.7	-56.9	3.8	8.46e-01	0	57	104	0	60	14353
2026-01-10 02:24:42.91	135.84	7.47	-45.7	-56.9	3.8	8.45e-01	0	57	104	0	60	14281
2026-01-10 02:24:43.92	135.96	7.42	-45.6	-56.8	3.8	8.45e-01	0	57	104	0	60	14085
2026-01-10 02:24:44.93	136.07	7.36	-45.5	-56.7	3.8	8.46e-01	0	57	104	0	60	13939
2026-01-10 02:24:45.94	136.19	7.30	-45.5	-56.6	3.8	8.45e-01	0	57	104	0	60	13750
2026-01-10 02:24:46.95	136.30	7.25	-45.5	-56.5	3.8	8.45e-01	0	57	104	0	60	13644
2026-01-10 02:24:47.96	136.42	7.19	-45.4	-56.4	3.8	8.46e-01	0	57	104	0	60	13564
2026-01-10 02:24:48.97	136.53	7.13	-45.4	-56.4	3.8	8.47e-01	0	57	104	0	60	13458
2026-01-10 02:24:49.98	136.65	7.07	-45.3	-56.3	3.8	8.46e-01	0	57	104	0	60	13389
2026-01-10 02:24:50.99	136.76	7.02	-45.3	-56.3	3.8	8.47e-01	0	57	104	0	60	13395
2026-01-10 02:24:52.00	136.88	6.96	-45.3	-56.3	3.8	8.47e-01	0	57	104	0	60	13363
2026-01-10 02:24:53.01	136.99	6.90	-45.3	-56.3	3.8	8.46e-01	0	57	104	0	60	13387
2026-01-10 02:24:54.02	137.10	6.85	-45.3	-56.4	3.8	8.47e-01	0	58	104	0	60	13426
2026-01-10 02:24:55.04	137.21	6.79	-45.3	-56.3	3.8	8.46e-01	0	58	104	0	60	13275
2026-01-10 02:24:56.05	137.33	6.73	-45.3	-56.3	3.8	8.46e-01	0	57	104	0	60	13379
2026-01-10 02:24:57.06	137.44	6.68	-45.3	-56.3	3.8	8.47e-01	0	57	104	0	60	13351
2026-01-10 02:24:58.07	137.55	6.62	-45.3	-56.3	3.8	8.45e-01	0	57	104	0	60	13338
2026-01-10 02:24:59.08	137.66	6.56	-45.3	-56.3	3.8	8.46e-01	0	57	104	0	60	13291
2026-01-10 02:25:00.09	137.77	6.51	-45.3	-56.3	3.8	8.47e-01	0	57	104	0	60	13349
2026-01-10 02:25:01.10	137.88	6.45	-45.3	-56.3	3.8	8.46e-01	0	57	104	0	60	13368
2026-01-10 02:25:02.11	137.99	6.39	-45.3	-56.3	3.8	8.45e-01	0	57	104	0	60	13325
2026-01-10 02:25:03.12	138.10	6.34	-45.3	-56.3	3.8	8.46e-01	0	57	104	0	60	13360
2026-01-10 02:25:04.13	138.20	6.28	-45.3	-56.3	3.8	8.46e-01	0	57	104	0	60	13274
2026-01-10 02:25:05.14	138.31	6.22	-45.3	-56.3	3.8	8.46e-01	0	57	104	0	60	13319
2026-01-10 02:25:06.15	138.42	6.17	-45.3	-56.3	3.8	8.47e-01	0	57	104	0	60	13351
2026-01-10 02:25:07.16	138.53	6.11	-45.3	-56.3	3.8	8.45e-01	0	57	104	0	60	13316
2026-01-10 02:25:08.18	138.63	6.05	-45.3	-56.3	3.8	8.45e-01	0	57	104	0	60	13313
2026-01-10 02:25:09.19	138.74	6.00	-45.3	-56.3	3.8	8.46e-01	0	57	104	0	60	13326
2026-01-10 02:25:10.20	138.85	5.94	-45.3	-56.3	3.8	8.46e-01	0	57	104	0	60	13335
2026-01-10 02:25:11.21	138.95	5.89	-45.3	-56.3	3.8	8.46e-01	0	57	104	0	60	13315
2026-01-10 02:25:12.22	139.06	5.83	-45.3	-56.3	3.8	8.46e-01	0	58	104	0	60	13349
2026-01-10 02:25:13.23	139.16	5.77	-45.3	-56.3	3.8	8.46e-01	0	57	104	0	60	13334
2026-01-10 02:25:14.24	139.27	5.72	-45.3	-56.3	3.8	8.47e-01	0	57	104	0	60	13320
2026-01-10 02:25:15.25	139.37	5.66	-45.3	-56.3	3.8	8.47e-01	0	57	104	0	60	13310
2026-01-10 02:25:16.26	139.47	5.61	-45.3	-56.3	3.8	8.46e-01	0	57	104	0	60	13342
2026-01-10 02:25:17.27	139.58	5.55	-45.3	-56.3	3.8	8.46e-01	0	57	104	0	60	13277
2026-01-10 02:25:18.29	139.68	5.49	-45.3	-56.3	3.8	8.46e-01	0	57	104	0	60	13333
2026-01-10 02:25:19.30	139.78	5.44	-45.3	-56.3	3.8	8.46e-01	0	58	104	0	60	13317
2026-01-10 02:25:20.31	139.88	5.38	-45.3	-56.3	3.8	8.46e-01	0	57	104	0	60	13319
2026-01-10 02:25:21.32	139.99	5.33	-45.3	-56.3	3.8	8.45e-01	0	58	104	0	60	13332
2026-01-10 02:25:22.33	140.09	5.27	-45.3	-56.3	3.8	8.47e-01	0	57	104	0	60	13267
2026-01-10 02:25:23.34	140.19	5.21	-45.3	-56.3	3.8	8.46e-01	0	57	104	0	60	13333
2026-01-10 02:25:24.35	140.29	5.16	-45.3	-56.3	3.8	8.45e-01	0	57	104	0	60	13291
2026-01-10 02:25:25.36	140.39	5.10	-45.3	-56.3	3.8	8.46e-01	0	57	104	0	60	13309
2026-01-10 02:25:26.37	140.49	5.05	-45.3	-56.3	3.8	8.46e-01	0	57	104	0	60	13273
2026-01-10 02:25:27.39	140.59	4.99	-45.3	-56.3	3.8	8.47e-01	0	57	104	0	60	13308
2026-01-10 02:25:28.40	140.69	4.94	-45.3	-56.3	3.8	8.46e-01	0	58	104	0	60	13300
2026-01-10 02:25:29.41	140.79	4.88	-45.3	-56.3	3.8	8.47e-01	0	57	104	0	60	13325
2026-01-10 02:25:30.42	140.89	4.83	-45.3	-56.2	3.8	8.46e-01	0	57	104	0	60	13248
2026-01-10 02:25:31.43	140.98	4.77	-45.3	-56.2	3.8	8.46e-01	0	57	104	0	60	13250
2026-01-10 02:25:32.44	141.08	4.72	-45.3	-56.3	3.8	8.46e-01	0	57	104	0	60	13289
2026-01-10 02:25:33.45	141.18	4.66	-45.3	-56.3	3.8	8.46e-01	0	58	104	0	60	13283
2026-01-10 02:25:34.46	141.28	4.61	-45.3	-56.3	3.8	8.46e-01	0	57	104	0	60	13283
2026-01-10 02:25:35.47	141.37	4.55	-45.3	-56.3	3.8	8.45e-01	0	58	104	0	60	13318
2026-01-10 02:25:36.49	141.47	4.49	-45.3	-56.3	3.8	8.46e-01	0	57	104	0	60	13288
2026-01-10 02:25:37.50	141.57	4.44	-45.3	-56.3	3.8	8.44e-01	0	58	104	0	60	13283
2026-01-10 02:25:38.51	141.66	4.38	-45.3	-56.2	3.8	8.46e-01	0	58	104	0	60	13252
2026-01-10 02:25:39.52	141.76	4.33	-45.3	-56.3	3.8	8.46e-01	0	58	104	0	60	13291
2026-01-10 02:25:40.53	141.85	4.27	-45.3	-56.3	3.8	8.47e-01	0	57	104	0	60	13280
2026-01-10 02:25:41.54	141.95	4.22	-45.3	-56.2	3.8	8.46e-01	0	57	104	0	60	13210
2026-01-10 02:25:42.55	142.04	4.16	-45.3	-56.3	3.8	8.46e-01	0	58	104	0	60	13276
2026-01-10 02:25:43.56	142.13	4.11	-45.3	-56.3	3.8	8.46e-01	0	57	104	0	60	13291
2026-01-10 02:25:44.57	142.23	4.06	-45.3	-56.2	3.8	8.46e-01	0	57	104	0	60	13230
2026-01-10 02:25:45.58	142.32	4.00	-45.2	-56.2	3.8	8.45e-01	0	57	104	0	60	13229
2026-01-10 02:25:46.60	142.41	3.95	-45.3	-56.2	3.8	8.46e-01	0	57	104	0	60	13250
2026-01-10 02:25:47.61	142.51	3.89	-45.3	-56.3	3.8	8.45e-01	0	57	104	0	60	13266
2026-01-10 02:25:48.62	142.60	3.84	-45.2	-56.3	3.8	8.46e-01	0	58	104	0	60	13266
2026-01-10 02:25:49.63	142.69	3.78	-45.3	-56.2	3.8	8.46e-01	0	58	104	0	60	13245
2026-01-10 02:25:50.64	142.78	3.73	-45.3	-56.3	3.8	8.46e-01	0	57	104	0	60	13276
2026-01-10 02:25:51.65	142.87	3.67	-45.3	-56.3	3.8	8.46e-01	0	57	104	0	60	13270
2026-01-10 02:25:52.66	142.96	3.62	-45.3	-56.2	3.8	8.47e-01	0	58	104	0	60	13235
2026-01-10 02:25:53.67	143.05	3.57	-45.3	-56.3	3.8	8.47e-01	0	58	104	0	60	13290
2026-01-10 02:25:54.68	143.15	3.51	-45.2	-56.3	3.8	8.45e-01	0	58	104	0	60	13264
2026-01-10 02:25:55.69	143.24	3.46	-45.3	-56.3	3.8	8.46e-01	0	58	104	0	60	13304
2026-01-10 02:25:56.70	143.32	3.40	-45.3	-56.2	3.8	8.47e-01	0	58	104	0	60	13251
2026-01-10 02:25:57.71	143.41	3.35	-45.3	-56.3	3.8	8.47e-01	0	58	104	0	60	13270
2026-01-10 02:25:58.73	143.50	3.29	-45.3	-56.2	3.8	8.46e-01	0	58	104	0	60	13257
2026-01-10 02:25:59.74	143.59	3.24	-45.3	-56.2	3.8	8.46e-01	0	58	104	0	60	13260
2026-01-10 02:26:00.75	143.68	3.19	-45.3	-56.3	3.8	8.45e-01	0	57	104	0	60	13264
2026-01-10 02:26:01.76	143.77	3.13	-45.3	-56.3	3.8	8.46e-01	0	58	104	0	60	13278
2026-01-10 02:26:02.77	143.86	3.08	-45.3	-56.3	3.8	8.46e-01	0	58	104	0	60	13279
2026-01-10 02:26:03.78	143.94	3.03	-45.3	-56.3	3.8	8.46e-01	0	58	104	0	60	13272
2026-01-10 02:26:04.79	144.03	2.97	-45.2	-56.3	3.8	8.45e-01	0	58	104	0	60	13261
2026-01-10 02:26:05.80	144.12	2.92	-45.2	-56.2	3.8	8.47e-01	0	58	104	0	60	13218
2026-01-10 02:26:06.81	144.20	2.86	-45.2	-56.2	3.8	8.46e-01	0	58	104	0	60	13198
2026-01-10 02:26:07.82	144.29	2.81	-45.2	-56.2	3.8	8.47e-01	0	58	104	0	60	13223
2026-01-10 02:26:08.83	144.38	2.76	-45.3	-56.3	3.8	8.45e-01	0	57	104	0	60	13272
2026-01-10 02:26:09.84	144.46	2.70	-45.2	-56.2	3.8	8.45e-01	0	58	104	0	60	13245
2026-01-10 02:26:10.85	144.55	2.65	-45.2	-56.2	3.8	8.47e-01	0	58	104	0	60	13246
2026-01-10 02:26:11.86	144.63	2.60	-45.2	-56.2	3.8	8.47e-01	0	58	104	0	60	13191
2026-01-10 02:26:12.87	144.72	2.54	-45.2	-56.2	3.8	8.46e-01	0	58	104	0	60	13240
2026-01-10 02:26:13.88	144.80	2.49	-45.2	-56.2	3.8	8.47e-01	0	58	104	0	60	13215
2026-01-10 02:26:14.90	144.89	2.44	-45.2	-56.2	3.8	8.46e-01	0	58	104	0	60	13212
2026-01-10 02:26:15.91	144.97	2.38	-45.2	-56.2	3.8	8.46e-01	0	58	104	0	60	13233
2026-01-10 02:26:16.92	145.05	2.33	-45.2	-56.3	3.8	8.47e-01	0	58	104	0	60	13296
2026-01-10 02:26:17.93	145.14	2.28	-45.2	-56.2	3.8	8.46e-01	0	58	104	0	60	13224
2026-01-10 02:26:18.94	145.22	2.23	-45.2	-56.2	3.8	8.46e-01	0	58	104	0	60	13190
2026-01-10 02:26:19.95	145.30	2.17	-45.2	-56.2	3.8	8.46e-01	0	58	104	0	60	13247
2026-01-10 02:26:20.96	145.38	2.12	-45.2	-56.2	3.8	8.45e-01	0	58	104	0	60	13238
2026-01-10 02:26:21.97	145.47	2.07	-45.2	-56.2	3.8	8.46e-01	0	58	104	0	60	13241
2026-01-10 02:26:22.98	145.55	2.01	-45.2	-56.2	3.8	8.46e-01	0	57	104	0	60	13193

#Closed at: 2026-01-10 02:26:23
#Recorded file [0 MB]: D:/lorett/data/31039_260110_052240.dat