passes_logs/2026/01/10/R2.0S_Moscow/R2.0S_Moscow__20260110_005027_AQUA_rec.log

#Pass ID: 20260110_005027_AQUA
#Satellite: AQUA
#Configuration: AQUA
#almurnet v.1.7.20251203
#Start time: 2026-01-10 00:52:40

#Version: 2.2.20231116
#Station: R2.0S_Moscow
#Location: 37.707566 lon 55.798166 lat
#TLE: 1 27424U 02022A   26009.00333547  .00001046  00000+0  21942-3 0  9998
#TLE: 2 27424  98.4075 335.3304 0002025  85.7625 349.1392 14.61808998260011

#Time	Az	El	Level	Level2	SNR	BER	BlckErr	Temp	State	Recorded	gain1	gain2
2026-01-10 00:52:40.38	24.73	12.53	-44.7	-57.2	3.8	1.49e+00	0	57	0	0	60	15717
2026-01-10 00:52:43.41	24.92	12.84	-46.0	-64.8	3.8	7.43e-01	0	57	104	0	62	33455
2026-01-10 00:52:46.45	25.12	13.15	-45.7	-64.4	3.8	7.45e-01	0	57	104	0	62	31969
2026-01-10 00:52:49.48	25.32	13.46	-45.3	-63.5	3.8	7.42e-01	0	57	104	0	62	28764
2026-01-10 00:52:52.51	25.52	13.78	-45.3	-63.7	3.8	7.45e-01	0	57	104	0	62	29549
2026-01-10 00:52:55.54	25.72	14.10	-45.3	-63.9	3.8	7.45e-01	0	57	104	0	62	30302
2026-01-10 00:52:58.57	25.94	14.43	-45.3	-64.1	3.8	7.44e-01	0	57	104	0	62	30850
2026-01-10 00:53:01.60	26.15	14.76	-45.3	-63.7	3.8	7.47e-01	0	57	104	0	62	29545
2026-01-10 00:53:04.64	26.37	15.10	-45.3	-63.8	3.8	7.44e-01	0	57	104	0	62	29979
2026-01-10 00:53:07.67	26.60	15.44	-45.3	-63.6	3.8	7.46e-01	0	57	104	0	62	29128
2026-01-10 00:53:10.70	26.83	15.78	-45.2	-62.1	3.9	7.46e-01	0	57	104	0	62	24559
2026-01-10 00:53:13.74	27.07	16.14	-45.2	-63.8	3.8	7.47e-01	0	57	104	0	62	29807
2026-01-10 00:53:16.77	27.31	16.49	-45.1	-58.4	5.0	7.06e-01	0	57	0	0	62	16027
2026-01-10 00:53:19.79	27.56	16.85	-44.3	-52.1	10.8	6.16e-01	0	57	0	4718592	60	8702
2026-01-10 00:53:22.82	27.82	17.22	-44.2	-51.7	11.3	6.12e-01	0	57	0	10485760	60	8324
2026-01-10 00:53:25.84	28.08	17.59	-45.1	-59.0	4.8	7.16e-01	0	57	0	15728640	60	19275
2026-01-10 00:53:28.87	28.35	17.97	-43.9	-50.0	13.3	6.06e-01	0	57	0	18874368	59	7232
2026-01-10 00:53:31.90	28.62	18.36	-41.2	-44.2	19.1	6.03e-01	0	57	0	24641536	54	4970
2026-01-10 00:53:34.93	28.90	18.75	-42.2	-46.0	17.4	6.03e-01	0	57	0	30408704	55	5768
2026-01-10 00:53:37.96	29.19	19.14	-44.6	-53.4	9.9	6.23e-01	0	57	0	36175872	60	10082
2026-01-10 00:53:40.98	29.49	19.55	-40.0	-42.5	20.8	6.03e-01	0	57	0	41943040	52	4561
2026-01-10 00:53:44.01	29.79	19.96	-40.1	-42.5	20.9	6.03e-01	0	57	0	47185920	51	4847
2026-01-10 00:53:47.03	30.11	20.37	-40.3	-42.9	20.6	6.03e-01	0	57	0	52953088	51	5057
2026-01-10 00:53:50.05	30.43	20.80	-40.3	-42.8	20.6	6.03e-01	0	57	0	58720256	51	5022
2026-01-10 00:53:53.08	30.76	21.23	-40.2	-42.7	20.8	6.03e-01	0	57	0	64487424	51	4961
2026-01-10 00:53:56.10	31.10	21.66	-40.4	-42.9	20.6	6.03e-01	0	57	0	70254592	51	5078
2026-01-10 00:53:59.12	31.45	22.11	-40.2	-42.7	20.9	6.00e-01	0	57	0	75497472	51	4930
2026-01-10 00:54:02.14	31.81	22.56	-40.3	-42.8	20.8	6.04e-01	0	56	0	81264640	51	4989
2026-01-10 00:54:05.16	32.18	23.02	-40.4	-43.0	20.6	6.05e-01	0	57	0	87031808	51	5120
2026-01-10 00:54:08.18	32.57	23.49	-40.3	-42.8	20.8	6.04e-01	0	57	0	92798976	51	4997
2026-01-10 00:54:11.20	32.96	23.96	-40.4	-43.0	20.6	6.04e-01	0	57	0	98566144	51	5120
2026-01-10 00:54:14.22	33.37	24.45	-40.5	-43.1	20.4	6.04e-01	0	57	0	103809024	51	5171
2026-01-10 00:54:17.24	33.79	24.94	-40.3	-42.7	20.9	6.04e-01	0	57	0	109576192	51	4982
2026-01-10 00:54:20.26	34.22	25.44	-40.4	-42.9	20.8	6.04e-01	0	57	0	115343360	51	5044
2026-01-10 00:54:23.28	34.67	25.95	-40.1	-42.4	21.2	6.05e-01	0	57	0	121110528	51	4806
2026-01-10 00:54:26.30	35.13	26.47	-40.3	-42.8	20.9	6.03e-01	0	57	0	126877696	51	5013
2026-01-10 00:54:29.32	35.61	27.00	-39.9	-42.2	21.5	6.02e-01	0	57	0	132120576	51	4660
2026-01-10 00:54:32.35	36.11	27.54	-40.3	-42.7	21.0	6.02e-01	0	56	0	137887744	51	4931
2026-01-10 00:54:35.37	36.62	28.09	-39.9	-42.1	21.6	6.03e-01	0	56	0	143654912	51	4638
2026-01-10 00:54:38.40	37.15	28.65	-40.0	-42.3	21.4	6.03e-01	0	57	0	149422080	51	4708
2026-01-10 00:54:41.42	37.70	29.21	-40.0	-42.3	21.4	6.03e-01	0	57	0	155189248	51	4758
2026-01-10 00:54:44.45	38.28	29.79	-40.0	-42.3	21.4	6.04e-01	0	57	0	160432128	51	4741
2026-01-10 00:54:47.47	38.87	30.38	-40.1	-42.4	21.3	6.02e-01	0	57	0	166199296	51	4808
2026-01-10 00:54:50.50	39.48	30.97	-40.1	-42.5	21.3	6.04e-01	0	56	0	171966464	51	4831
2026-01-10 00:54:53.53	40.12	31.58	-40.3	-42.6	21.1	6.07e-01	0	57	0	177733632	51	4918
2026-01-10 00:54:56.56	40.79	32.20	-40.2	-42.6	21.2	6.02e-01	0	56	0	183500800	51	4877
2026-01-10 00:54:59.58	41.47	32.82	-40.4	-42.8	21.0	6.03e-01	0	56	0	189267968	51	4998
2026-01-10 00:55:02.61	42.19	33.46	-40.4	-42.9	20.9	6.03e-01	0	56	0	194510848	51	5047
2026-01-10 00:55:05.64	42.94	34.10	-40.5	-43.0	20.8	6.02e-01	0	56	0	200278016	51	5136
2026-01-10 00:55:08.67	43.72	34.76	-40.8	-43.4	20.4	6.03e-01	0	56	0	206045184	52	5043
2026-01-10 00:55:11.70	44.53	35.42	-40.8	-43.5	20.3	6.02e-01	0	57	0	211812352	52	5102
2026-01-10 00:55:14.73	45.37	36.09	-41.0	-43.7	20.0	6.02e-01	0	56	0	217579520	52	5270
2026-01-10 00:55:17.76	46.25	36.78	-40.8	-43.4	20.3	6.02e-01	0	56	0	223346688	52	5095
2026-01-10 00:55:20.79	47.17	37.46	-41.2	-43.9	19.8	6.03e-01	0	56	0	228589568	52	5395
2026-01-10 00:55:23.81	48.13	38.16	-41.3	-44.2	19.6	6.04e-01	0	56	0	234356736	53	5238
2026-01-10 00:55:26.84	49.13	38.86	-41.4	-44.3	19.5	6.04e-01	0	56	0	240123904	53	5295
2026-01-10 00:55:29.87	50.17	39.57	-41.1	-43.8	20.1	6.02e-01	0	56	0	245891072	53	4991
2026-01-10 00:55:32.89	51.26	40.28	-41.2	-44.0	19.8	6.02e-01	0	56	0	251658240	53	5129
2026-01-10 00:55:35.92	52.41	40.99	-40.6	-43.0	20.8	6.02e-01	0	56	0	256901120	53	4598
2026-01-10 00:55:38.95	53.60	41.71	-40.3	-42.7	21.2	6.04e-01	0	56	0	262668288	52	4659
2026-01-10 00:55:41.97	54.85	42.43	-40.2	-42.6	21.3	6.04e-01	0	56	0	268435456	52	4601
2026-01-10 00:55:45.00	56.15	43.14	-40.0	-42.2	21.6	6.03e-01	0	56	0	274202624	52	4421
2026-01-10 00:55:48.02	57.52	43.86	-39.7	-41.9	22.0	6.01e-01	0	56	0	279969792	51	4506
2026-01-10 00:55:51.05	58.94	44.57	-39.8	-41.9	22.0	6.04e-01	0	56	0	285736960	51	4540
2026-01-10 00:55:54.08	60.44	45.27	-39.8	-41.9	22.0	6.02e-01	0	56	0	291504128	51	4538
2026-01-10 00:55:57.11	62.00	45.97	-39.8	-41.9	22.0	6.02e-01	0	56	0	296747008	51	4537
2026-01-10 00:56:00.14	63.64	46.65	-39.9	-42.0	21.9	6.04e-01	0	56	0	302514176	51	4594
2026-01-10 00:56:03.16	65.34	47.32	-39.7	-41.8	22.2	6.02e-01	0	56	0	308281344	51	4464
2026-01-10 00:56:06.18	67.11	47.97	-39.8	-42.0	22.1	6.05e-01	0	56	0	314048512	51	4546
2026-01-10 00:56:09.20	68.96	48.60	-40.0	-42.2	21.8	6.04e-01	0	56	0	319815680	51	4702
2026-01-10 00:56:12.22	70.89	49.21	-40.0	-42.2	21.7	6.03e-01	0	56	0	325058560	51	4704
2026-01-10 00:56:15.24	72.89	49.79	-40.3	-42.5	21.4	6.01e-01	0	56	0	330825728	51	4869
2026-01-10 00:56:18.26	74.97	50.34	-40.2	-42.5	21.5	6.04e-01	0	56	0	336592896	51	4823
2026-01-10 00:56:21.28	77.13	50.85	-40.4	-42.7	21.4	6.04e-01	0	56	0	342360064	51	4933
2026-01-10 00:56:24.30	79.35	51.33	-40.0	-42.2	21.8	6.03e-01	0	56	0	348127232	51	4693
2026-01-10 00:56:27.32	81.65	51.77	-40.2	-42.5	21.5	6.01e-01	0	56	0	353370112	52	4548
2026-01-10 00:56:30.34	84.02	52.17	-40.2	-42.5	21.4	6.00e-01	0	56	0	359137280	52	4594
2026-01-10 00:56:33.36	86.44	52.51	-40.3	-42.7	21.3	6.04e-01	0	56	0	364904448	52	4666
2026-01-10 00:56:36.38	88.92	52.81	-40.5	-43.0	21.1	6.06e-01	0	56	0	370671616	52	4818
2026-01-10 00:56:39.39	91.43	53.05	-40.7	-43.2	20.8	6.04e-01	0	56	0	376438784	52	4963
2026-01-10 00:56:42.42	94.00	53.24	-40.8	-43.3	20.7	6.02e-01	0	56	0	381681664	52	5002
2026-01-10 00:56:45.44	96.59	53.37	-41.0	-43.6	20.5	6.04e-01	0	56	0	387448832	52	5195
2026-01-10 00:56:48.46	99.20	53.44	-40.7	-43.2	20.8	6.01e-01	0	56	0	393216000	52	4940
2026-01-10 00:56:51.48	101.82	53.45	-40.6	-43.1	20.9	6.03e-01	0	56	0	398983168	52	4876
2026-01-10 00:56:54.51	104.44	53.41	-40.5	-42.8	21.2	6.02e-01	0	56	0	404750336	52	4753
2026-01-10 00:56:57.54	107.05	53.30	-40.7	-43.1	20.9	6.05e-01	0	56	0	409993216	52	4913
2026-01-10 00:57:00.56	109.62	53.14	-40.9	-43.5	20.5	6.02e-01	0	56	0	415760384	52	5109
2026-01-10 00:57:03.59	112.18	52.91	-40.6	-43.0	21.0	6.03e-01	0	56	0	421527552	52	4846
2026-01-10 00:57:06.61	114.68	52.64	-40.5	-42.9	21.0	6.04e-01	0	56	0	427294720	52	4802
2026-01-10 00:57:09.64	117.13	52.31	-40.6	-43.0	21.0	6.04e-01	0	56	0	433061888	52	4850
2026-01-10 00:57:12.66	119.52	51.93	-40.8	-43.4	20.6	6.04e-01	0	56	0	438304768	52	5051
2026-01-10 00:57:15.68	121.85	51.51	-40.6	-43.1	20.8	6.02e-01	0	56	0	444071936	52	4903
2026-01-10 00:57:18.70	124.11	51.05	-40.6	-43.1	20.8	6.02e-01	0	56	0	449839104	52	4894
2026-01-10 00:57:21.72	126.30	50.55	-41.0	-43.6	20.4	6.03e-01	0	56	0	455606272	52	5170
2026-01-10 00:57:24.75	128.42	50.00	-40.7	-43.2	20.7	6.01e-01	0	56	0	461373440	52	4974
2026-01-10 00:57:27.78	130.47	49.43	-40.9	-43.5	20.4	6.05e-01	0	56	0	467140608	52	5112
2026-01-10 00:57:30.81	132.43	48.83	-40.7	-43.2	20.7	6.03e-01	0	56	0	472383488	52	4968
2026-01-10 00:57:33.84	134.32	48.20	-40.5	-43.0	20.9	6.03e-01	0	56	0	478150656	52	4831
2026-01-10 00:57:36.86	136.13	47.56	-40.7	-43.2	20.6	6.01e-01	0	56	0	483917824	52	4972
2026-01-10 00:57:39.88	137.86	46.89	-40.5	-43.0	20.9	6.02e-01	0	56	0	489684992	52	4828
2026-01-10 00:57:42.92	139.53	46.21	-40.6	-43.1	20.9	6.01e-01	0	56	0	495452160	52	4872
2026-01-10 00:57:45.94	141.12	45.52	-40.3	-42.7	21.1	6.03e-01	0	56	0	501219328	52	4669
2026-01-10 00:57:48.97	142.65	44.81	-40.4	-42.8	21.1	6.03e-01	0	56	0	506462208	52	4714
2026-01-10 00:57:52.00	144.11	44.10	-40.3	-42.6	21.3	6.03e-01	0	56	0	512229376	52	4615
2026-01-10 00:57:55.03	145.50	43.38	-40.6	-43.1	20.7	6.04e-01	0	56	0	517996544	52	4878
2026-01-10 00:57:58.05	146.83	42.67	-40.6	-43.0	20.8	6.04e-01	0	56	0	523763712	52	4851
2026-01-10 00:58:01.08	148.10	41.94	-40.7	-43.2	20.6	6.03e-01	0	56	0	529530880	52	4934
2026-01-10 00:58:04.09	149.31	41.23	-40.9	-43.6	20.2	6.02e-01	0	56	0	534773760	52	5181
2026-01-10 00:58:07.11	150.47	40.51	-40.7	-43.2	20.6	6.02e-01	0	56	0	540540928	52	4965
2026-01-10 00:58:10.14	151.59	39.79	-41.4	-44.3	19.4	6.02e-01	0	56	0	546308096	53	5337
2026-01-10 00:58:13.16	152.65	39.08	-41.0	-43.7	20.1	6.04e-01	0	56	0	552075264	53	4934
2026-01-10 00:58:16.19	153.67	38.37	-40.9	-43.5	20.3	6.05e-01	0	56	0	557842432	53	4820
2026-01-10 00:58:19.21	154.64	37.67	-40.7	-43.3	20.5	6.04e-01	0	56	0	563085312	53	4710
2026-01-10 00:58:22.25	155.58	36.98	-40.6	-43.1	20.7	6.03e-01	0	56	0	568852480	53	4601
2026-01-10 00:58:25.28	156.48	36.29	-40.7	-43.3	20.5	6.01e-01	0	56	0	574619648	52	4994
2026-01-10 00:58:28.30	157.34	35.61	-40.2	-42.6	21.1	6.03e-01	0	56	0	580386816	52	4623
2026-01-10 00:58:31.32	158.16	34.94	-40.2	-42.5	21.2	6.03e-01	0	56	0	586153984	52	4574
2026-01-10 00:58:34.34	158.95	34.28	-40.0	-42.2	21.6	6.03e-01	0	56	0	591921152	51	4690
2026-01-10 00:58:37.37	159.71	33.63	-39.9	-42.1	21.7	6.03e-01	0	56	0	597164032	51	4642
2026-01-10 00:58:40.39	160.43	32.99	-39.7	-41.8	21.9	6.01e-01	0	56	0	602931200	51	4488
2026-01-10 00:58:43.41	161.13	32.36	-39.5	-41.6	22.2	6.02e-01	0	56	0	608698368	50	4626
2026-01-10 00:58:46.44	161.81	31.73	-39.5	-41.7	22.1	6.02e-01	0	56	0	614465536	50	4656
2026-01-10 00:58:49.47	162.46	31.12	-39.6	-41.7	22.0	6.04e-01	0	56	0	620232704	50	4679
2026-01-10 00:58:52.50	163.08	30.52	-39.6	-41.7	22.0	6.03e-01	0	56	0	625999872	50	4679
2026-01-10 00:58:55.52	163.68	29.92	-39.5	-41.7	22.1	6.04e-01	0	56	0	631242752	50	4654
2026-01-10 00:58:58.55	164.26	29.34	-39.5	-41.6	22.1	6.00e-01	0	56	0	637009920	50	4620
2026-01-10 00:59:01.57	164.82	28.77	-39.7	-41.9	21.8	6.05e-01	0	56	0	642777088	50	4791
2026-01-10 00:59:04.60	165.36	28.20	-39.5	-41.6	22.0	6.02e-01	0	56	0	648544256	50	4643
2026-01-10 00:59:07.62	165.88	27.65	-39.7	-41.9	21.8	6.05e-01	0	56	0	654311424	50	4798
2026-01-10 00:59:10.64	166.38	27.10	-39.9	-42.1	21.5	6.05e-01	0	56	0	659554304	50	4911
2026-01-10 00:59:13.66	166.87	26.57	-39.9	-42.2	21.4	6.03e-01	0	56	0	665321472	50	4980
2026-01-10 00:59:16.68	167.34	26.04	-39.9	-42.2	21.4	6.02e-01	0	56	0	671088640	50	4969
2026-01-10 00:59:19.71	167.79	25.52	-40.1	-42.4	21.2	6.05e-01	0	56	0	676855808	50	5079
2026-01-10 00:59:22.74	168.23	25.02	-40.2	-42.6	21.0	6.04e-01	0	56	0	682622976	50	5216
2026-01-10 00:59:25.76	168.66	24.52	-40.2	-42.6	21.0	6.04e-01	0	56	0	687865856	51	4908
2026-01-10 00:59:28.79	169.07	24.02	-40.4	-42.9	20.6	6.03e-01	0	56	0	693633024	51	5089
2026-01-10 00:59:31.82	169.47	23.54	-40.1	-42.5	20.9	6.03e-01	0	56	0	699400192	51	4869
2026-01-10 00:59:34.85	169.86	23.07	-40.1	-42.5	21.0	6.04e-01	0	56	0	705167360	51	4860
2026-01-10 00:59:37.87	170.23	22.60	-40.0	-42.4	21.1	6.03e-01	0	56	0	710934528	51	4801
2026-01-10 00:59:40.89	170.60	22.14	-40.0	-42.3	21.2	6.04e-01	0	56	0	716701696	51	4754
2026-01-10 00:59:43.91	170.95	21.69	-39.9	-42.3	21.2	6.04e-01	0	56	0	721944576	51	4706
2026-01-10 00:59:46.93	171.29	21.25	-40.0	-42.4	21.1	6.05e-01	0	56	0	727711744	51	4767
2026-01-10 00:59:49.96	171.63	20.82	-40.2	-42.7	20.8	6.04e-01	0	56	0	733478912	51	4949
2026-01-10 00:59:52.99	171.95	20.39	-40.2	-42.6	20.7	6.03e-01	0	56	0	739246080	51	4926
2026-01-10 00:59:56.02	172.27	19.97	-40.1	-42.6	20.7	6.01e-01	0	56	0	745013248	51	4913
2026-01-10 00:59:59.04	172.57	19.55	-40.1	-42.6	20.8	6.02e-01	0	56	0	750780416	51	4905
2026-01-10 01:00:02.06	172.87	19.15	-39.9	-42.3	21.1	6.04e-01	0	56	0	756023296	51	4706
2026-01-10 01:00:05.09	173.16	18.74	-39.9	-42.4	21.0	6.03e-01	0	56	0	761790464	51	4765
2026-01-10 01:00:08.12	173.45	18.35	-40.0	-42.4	21.0	6.03e-01	0	56	0	767557632	51	4788
2026-01-10 01:00:11.14	173.72	17.96	-39.8	-42.2	21.1	6.02e-01	0	56	0	773324800	51	4689
2026-01-10 01:00:14.17	173.99	17.58	-39.7	-42.1	21.2	6.03e-01	0	56	0	779091968	51	4633
2026-01-10 01:00:17.19	174.25	17.20	-39.9	-42.3	21.0	6.01e-01	0	56	0	784334848	51	4720
2026-01-10 01:00:20.22	174.51	16.83	-39.7	-42.0	21.3	6.05e-01	0	56	0	790102016	51	4569
2026-01-10 01:00:23.24	174.76	16.47	-39.7	-42.1	21.2	6.04e-01	0	56	0	795869184	51	4622
2026-01-10 01:00:26.26	175.00	16.11	-39.9	-42.3	21.0	6.05e-01	0	56	0	801636352	51	4734
2026-01-10 01:00:29.28	175.24	15.75	-39.8	-42.3	21.0	6.00e-01	0	56	0	807403520	51	4718
2026-01-10 01:00:32.30	175.47	15.41	-39.9	-42.4	20.8	6.04e-01	0	56	0	812646400	51	4797
2026-01-10 01:00:35.33	175.69	15.06	-39.8	-42.2	20.9	6.02e-01	0	56	0	818413568	51	4702
2026-01-10 01:00:38.35	175.91	14.72	-39.9	-42.4	20.8	6.02e-01	0	56	0	824180736	51	4769
2026-01-10 01:00:41.38	176.13	14.39	-39.9	-42.3	20.8	5.98e-01	0	56	0	829947904	51	4753
2026-01-10 01:00:44.40	176.34	14.06	-40.1	-42.6	20.5	6.03e-01	0	56	0	835715072	51	4920
2026-01-10 01:00:47.42	176.55	13.74	-40.1	-42.7	20.5	6.05e-01	0	56	0	840957952	51	4946
2026-01-10 01:00:50.44	176.75	13.42	-39.9	-42.4	20.6	6.02e-01	0	56	0	846725120	51	4800
2026-01-10 01:00:53.46	176.95	13.10	-40.0	-42.6	20.4	6.02e-01	0	56	0	852492288	51	4905
2026-01-10 01:00:56.49	177.14	12.79	-40.0	-42.6	20.4	6.03e-01	0	56	0	858259456	51	4879
2026-01-10 01:00:59.52	177.33	12.48	-40.1	-42.7	20.3	6.02e-01	0	56	0	864026624	51	4952
2026-01-10 01:01:02.54	177.52	12.18	-40.1	-42.7	20.3	6.01e-01	0	56	0	869793792	51	4969
2026-01-10 01:01:05.55	177.70	11.88	-40.1	-42.8	20.2	6.02e-01	0	56	0	875036672	51	4985
2026-01-10 01:01:08.57	177.87	11.58	-40.2	-42.9	20.1	6.02e-01	0	56	0	880803840	51	5053
2026-01-10 01:01:11.59	178.05	11.29	-40.2	-43.0	20.0	6.02e-01	0	56	0	886571008	51	5116
2026-01-10 01:01:14.61	178.22	11.00	-40.2	-43.0	19.9	6.01e-01	0	56	0	892338176	51	5123
2026-01-10 01:01:17.64	178.39	10.72	-40.3	-43.0	19.9	6.03e-01	0	56	0	898105344	51	5139
2026-01-10 01:01:20.66	178.55	10.44	-40.3	-43.0	19.8	6.05e-01	0	56	0	903348224	51	5155
2026-01-10 01:01:23.69	178.71	10.16	-40.4	-43.4	19.5	6.01e-01	0	56	0	909115392	51	5348
2026-01-10 01:01:26.71	178.87	9.88	-40.4	-43.3	19.6	6.02e-01	0	56	0	914882560	51	5295
2026-01-10 01:01:29.74	179.02	9.61	-40.3	-43.1	19.8	6.04e-01	0	56	0	920649728	51	5172
2026-01-10 01:01:32.76	179.18	9.34	-40.4	-43.3	19.5	6.03e-01	0	56	0	926416896	51	5284
2026-01-10 01:01:35.78	179.32	9.08	-40.5	-43.4	19.3	6.02e-01	0	56	0	932184064	51	5394
2026-01-10 01:01:38.81	179.47	8.81	-40.6	-43.6	19.1	6.03e-01	0	56	0	937426944	51	5508
2026-01-10 01:01:41.83	179.61	8.56	-40.6	-43.7	19.0	6.03e-01	0	56	0	943194112	52	5230
2026-01-10 01:01:44.85	179.76	8.30	-40.5	-43.6	19.0	6.04e-01	0	56	0	948961280	52	5187
2026-01-10 01:01:47.88	179.89	8.04	-40.6	-43.7	18.8	6.01e-01	0	56	0	954728448	52	5271
2026-01-10 01:01:50.90	180.03	7.79	-45.3	-64.2	3.8	7.45e-01	0	56	104	956825600	61	33114
2026-01-10 01:01:53.93	180.16	7.54	-45.7	-64.7	3.8	7.46e-01	0	56	104	956825600	62	33079
2026-01-10 01:01:56.96	180.30	7.30	-45.9	-64.8	3.8	7.45e-01	0	56	104	956825600	62	33663
2026-01-10 01:01:59.98	180.43	7.05	-45.9	-64.8	3.8	7.42e-01	0	56	104	956825600	62	33591
2026-01-10 01:02:03.01	180.55	6.81	-45.9	-64.8	3.8	7.43e-01	0	56	104	956825600	62	33382
2026-01-10 01:02:06.04	180.68	6.57	-45.8	-64.7	3.8	7.45e-01	0	56	104	956825600	62	33140
2026-01-10 01:02:09.07	180.80	6.34	-45.8	-64.7	3.8	7.46e-01	0	56	104	956825600	62	33133
2026-01-10 01:02:12.09	180.92	6.10	-45.8	-64.7	3.8	7.44e-01	0	56	104	956825600	62	33085
2026-01-10 01:02:15.12	181.04	5.87	-45.8	-64.7	3.8	7.45e-01	0	56	104	956825600	62	33079
2026-01-10 01:02:18.14	181.16	5.64	-45.8	-64.7	3.8	7.49e-01	0	56	104	956825600	62	33085
2026-01-10 01:02:21.17	181.28	5.41	-45.8	-64.7	3.8	7.47e-01	0	56	104	956825600	62	32968
2026-01-10 01:02:24.20	181.39	5.19	-45.8	-64.7	3.8	7.46e-01	0	56	104	956825600	62	33005
2026-01-10 01:02:27.22	181.50	4.96	-45.8	-64.7	3.8	7.49e-01	0	56	104	956825600	62	32991
2026-01-10 01:02:30.25	181.61	4.74	-45.8	-64.7	3.8	7.45e-01	0	56	104	956825600	62	33025
2026-01-10 01:02:33.26	181.72	4.52	-45.7	-64.7	3.8	7.47e-01	0	56	104	956825600	62	32957
2026-01-10 01:02:36.28	181.83	4.31	-45.8	-64.7	3.8	7.43e-01	0	56	104	956825600	62	32957
2026-01-10 01:02:39.31	181.93	4.09	-45.7	-64.6	3.8	7.47e-01	0	56	104	956825600	62	32916
2026-01-10 01:02:42.34	182.04	3.88	-45.7	-64.7	3.8	7.45e-01	0	56	104	956825600	62	32985
2026-01-10 01:02:45.37	182.14	3.66	-45.7	-64.6	3.8	7.44e-01	0	56	104	956825600	62	32854
2026-01-10 01:02:48.39	182.24	3.45	-45.7	-64.6	3.8	7.46e-01	0	56	104	956825600	62	32861
2026-01-10 01:02:51.42	182.34	3.25	-45.7	-64.7	3.8	7.50e-01	0	56	104	956825600	62	32945
2026-01-10 01:02:54.45	182.44	3.04	-45.7	-64.6	3.8	7.47e-01	0	56	104	956825600	62	32852
2026-01-10 01:02:57.48	182.53	2.83	-45.7	-64.6	3.8	7.45e-01	0	56	104	956825600	62	32883
2026-01-10 01:03:00.51	182.63	2.63	-45.7	-64.6	3.8	7.44e-01	0	56	104	956825600	62	32838
2026-01-10 01:03:03.54	182.72	2.43	-45.7	-64.6	3.8	7.45e-01	0	56	104	956825600	62	32851
2026-01-10 01:03:06.56	182.82	2.23	-45.7	-64.6	3.8	7.45e-01	0	56	104	956825600	62	32906
2026-01-10 01:03:09.58	182.91	2.03	-45.7	-64.6	3.8	7.45e-01	0	56	104	956825600	62	32888
2026-01-10 01:03:12.62	183.00	1.83	-45.7	-64.6	3.8	7.46e-01	0	56	104	956825600	62	32869

#Closed at: 2026-01-10 01:03:12
#Recorded file [956 MB]: D:/lorett/data/31039_260110_035240.dat