passes_logs/2026/01/10/R2.0S_Moscow/R2.0S_Moscow__20260110_053433_FENGYUN_3E_rec.log

#Pass ID: 20260110_053433_FENGYUN 3E
#Satellite: FENGYUN 3E
#Configuration: FENGYUN 3E
#almurnet v.1.7.20251203
#Start time: 2026-01-10 05:34:34

#Version: 2.2.20231116
#Station: R2.0S_Moscow
#Location: 37.707566 lon 55.798166 lat
#TLE: 1 49008U 21062A   26009.29780149 -.00000002  00000+0  19895-4 0  9997
#TLE: 2 49008  98.7484  14.4929 0001744 148.2300 211.8982 14.19883977234036

#Time	Az	El	Level	Level2	SNR	BER	BlckErr	Temp	State	Recorded	gain1	gain2
2026-01-10 05:34:34.31	10.29	2.03	-40.1	-51.2	3.8	8.46e-01	0	46	0	0	51	12397
2026-01-10 05:34:37.33	10.09	2.20	-40.1	-51.1	3.8	8.46e-01	0	47	104	0	51	12373
2026-01-10 05:34:40.36	9.90	2.37	-40.1	-51.1	3.8	8.46e-01	0	47	104	0	51	12355
2026-01-10 05:34:43.38	9.71	2.54	-40.1	-51.1	3.8	8.46e-01	0	47	104	0	51	12369
2026-01-10 05:34:46.41	9.51	2.72	-40.1	-51.1	3.8	8.46e-01	0	48	104	0	51	12353
2026-01-10 05:34:49.44	9.31	2.89	-40.1	-51.2	3.8	8.47e-01	0	48	104	0	51	12391
2026-01-10 05:34:52.47	9.10	3.07	-40.1	-51.1	3.8	8.46e-01	0	48	104	0	51	12349
2026-01-10 05:34:55.49	8.90	3.24	-40.1	-51.1	3.8	8.45e-01	0	48	104	0	51	12363
2026-01-10 05:34:58.52	8.69	3.42	-40.1	-51.1	3.8	8.46e-01	0	48	104	0	51	12370
2026-01-10 05:35:01.54	8.48	3.60	-40.1	-51.1	3.8	8.46e-01	0	49	104	0	51	12338
2026-01-10 05:35:04.57	8.26	3.78	-40.1	-51.2	3.8	8.45e-01	0	49	104	0	51	12376
2026-01-10 05:35:07.60	8.04	3.96	-40.1	-51.1	3.8	8.46e-01	0	49	104	0	51	12357
2026-01-10 05:35:10.63	7.82	4.14	-40.1	-51.2	3.8	8.47e-01	0	49	104	0	51	12402
2026-01-10 05:35:13.66	7.60	4.32	-40.1	-51.1	3.8	8.47e-01	0	49	104	0	51	12345
2026-01-10 05:35:16.68	7.38	4.50	-40.1	-51.1	3.8	8.46e-01	0	49	104	0	51	12367
2026-01-10 05:35:19.71	7.15	4.68	-40.1	-51.1	3.8	8.45e-01	0	50	104	0	51	12361
2026-01-10 05:35:22.73	6.91	4.87	-40.1	-51.2	3.8	8.45e-01	0	50	104	0	51	12389
2026-01-10 05:35:25.76	6.68	5.05	-40.1	-51.1	3.8	8.47e-01	0	50	104	0	51	12371
2026-01-10 05:35:28.78	6.44	5.24	-40.1	-51.1	3.8	8.46e-01	0	50	104	0	51	12326
2026-01-10 05:35:31.81	6.20	5.42	-40.1	-51.1	3.8	8.45e-01	0	50	104	0	51	12371
2026-01-10 05:35:34.83	5.96	5.61	-40.1	-51.1	3.8	8.47e-01	0	51	104	0	51	12357
2026-01-10 05:35:37.86	5.71	5.80	-40.1	-51.2	3.8	8.46e-01	0	51	104	0	51	12393
2026-01-10 05:35:40.89	5.46	5.98	-40.1	-51.1	3.8	8.46e-01	0	51	104	0	51	12352
2026-01-10 05:35:43.91	5.20	6.17	-40.1	-51.1	3.8	8.47e-01	0	51	104	0	51	12346
2026-01-10 05:35:46.94	4.95	6.36	-40.1	-51.1	3.8	8.46e-01	0	51	104	0	51	12372
2026-01-10 05:35:49.97	4.68	6.55	-40.1	-51.2	3.8	8.45e-01	0	51	104	0	51	12396
2026-01-10 05:35:52.99	4.42	6.75	-40.1	-51.2	3.8	8.47e-01	0	52	104	0	51	12406
2026-01-10 05:35:56.01	4.15	6.94	-40.1	-51.1	3.8	8.46e-01	0	52	104	0	51	12364
2026-01-10 05:35:59.04	3.88	7.13	-40.1	-51.2	3.8	8.46e-01	0	52	104	0	51	12397
2026-01-10 05:36:02.07	3.60	7.33	-40.1	-51.1	3.8	8.46e-01	0	52	104	0	51	12341
2026-01-10 05:36:05.10	3.32	7.52	-40.1	-51.2	3.8	8.47e-01	0	52	104	0	51	12382
2026-01-10 05:36:08.13	3.04	7.72	-40.1	-51.2	3.8	8.45e-01	0	52	104	0	51	12384
2026-01-10 05:36:11.15	2.75	7.91	-40.1	-51.1	3.8	8.47e-01	0	52	104	0	51	12315
2026-01-10 05:36:14.18	2.46	8.11	-40.1	-51.2	3.8	8.46e-01	0	52	104	0	51	12419
2026-01-10 05:36:17.21	2.16	8.31	-40.2	-51.3	3.8	8.47e-01	0	52	104	0	51	12609
2026-01-10 05:36:20.24	1.86	8.51	-40.1	-51.2	3.8	8.45e-01	0	53	104	0	51	12390
2026-01-10 05:36:23.26	1.55	8.71	-40.1	-51.3	3.8	8.46e-01	0	53	104	0	51	12597
2026-01-10 05:36:26.29	1.24	8.91	-40.2	-51.3	3.8	8.47e-01	0	53	104	0	51	12555
2026-01-10 05:36:29.32	0.93	9.11	-40.0	-51.2	3.8	8.45e-01	0	53	104	0	51	12490
2026-01-10 05:36:32.35	0.61	9.31	-39.9	-51.2	3.8	8.46e-01	0	53	104	0	50	13196
2026-01-10 05:36:35.38	0.29	9.52	-40.0	-51.3	3.8	8.45e-01	0	53	104	0	50	13291
2026-01-10 05:36:38.41	359.96	9.72	-40.0	-51.2	3.8	8.45e-01	0	53	104	0	50	13236
2026-01-10 05:36:41.43	359.63	9.92	-40.0	-51.3	3.8	8.45e-01	0	53	104	0	50	13297
2026-01-10 05:36:44.46	359.29	10.13	-40.1	-51.3	3.8	8.46e-01	0	53	104	0	50	13345
2026-01-10 05:36:47.48	358.95	10.34	-40.0	-51.3	3.8	8.46e-01	0	53	104	0	50	13311
2026-01-10 05:36:50.51	358.60	10.54	-39.8	-51.3	3.8	8.47e-01	0	54	104	0	50	13349
2026-01-10 05:36:53.53	358.25	10.75	-39.8	-51.4	3.8	8.46e-01	0	54	104	0	50	13474
2026-01-10 05:36:56.56	357.89	10.96	-40.1	-51.4	3.8	8.45e-01	0	53	104	0	50	13464
2026-01-10 05:36:59.59	357.53	11.17	-40.0	-51.5	3.8	8.46e-01	0	54	104	0	50	13592
2026-01-10 05:37:02.62	357.16	11.38	-40.1	-51.3	3.8	8.46e-01	0	54	104	0	50	13306
2026-01-10 05:37:05.65	356.79	11.59	-40.1	-51.2	3.8	8.47e-01	0	54	104	0	50	13123
2026-01-10 05:37:08.68	356.41	11.80	-41.0	-50.2	4.0	8.45e-01	0	54	104	0	51	11132
2026-01-10 05:37:11.71	356.02	12.01	-40.6	-49.8	4.0	8.44e-01	0	54	104	0	50	11181
2026-01-10 05:37:14.74	355.63	12.22	-40.7	-50.6	3.8	8.47e-01	0	54	104	0	51	11624
2026-01-10 05:37:17.76	355.23	12.43	-40.3	-50.9	3.8	8.46e-01	0	54	104	0	51	12000
2026-01-10 05:37:20.79	354.83	12.65	-40.5	-51.2	3.8	8.47e-01	0	54	104	0	51	12435
2026-01-10 05:37:23.82	354.42	12.86	-40.4	-51.6	3.8	8.48e-01	0	54	104	0	51	13007
2026-01-10 05:37:26.83	354.01	13.07	-40.9	-51.9	3.8	8.47e-01	0	54	104	0	51	13415
2026-01-10 05:37:29.86	353.59	13.28	-40.6	-51.7	3.8	8.46e-01	0	54	104	0	51	13184
2026-01-10 05:37:32.89	353.16	13.50	-41.0	-52.0	3.8	8.47e-01	0	54	104	0	51	13616
2026-01-10 05:37:35.92	352.73	13.71	-40.9	-51.9	3.8	8.46e-01	0	55	104	0	51	13533
2026-01-10 05:37:38.94	352.29	13.93	-40.9	-52.0	3.8	8.47e-01	0	54	104	0	51	13655
2026-01-10 05:37:41.97	351.84	14.14	-40.9	-52.0	3.8	8.46e-01	0	54	104	0	51	13632
2026-01-10 05:37:45.00	351.39	14.36	-40.9	-52.1	3.8	8.45e-01	0	55	104	0	51	13730
2026-01-10 05:37:48.02	350.93	14.57	-41.0	-52.0	3.8	8.46e-01	0	54	104	0	51	13639
2026-01-10 05:37:51.05	350.46	14.79	-40.9	-52.1	3.8	8.46e-01	0	55	104	0	51	13822
2026-01-10 05:37:54.07	349.99	15.00	-40.5	-52.1	3.8	8.47e-01	0	55	104	0	51	13766
2026-01-10 05:37:57.10	349.51	15.22	-41.1	-52.5	3.8	8.46e-01	0	54	104	0	51	14479
2026-01-10 05:38:00.13	349.02	15.43	-41.1	-52.5	3.8	8.47e-01	0	55	104	0	52	13580
2026-01-10 05:38:03.16	348.53	15.65	-41.3	-52.8	3.8	8.46e-01	0	55	104	0	52	14054
2026-01-10 05:38:06.18	348.02	15.86	-41.1	-52.5	3.8	8.47e-01	0	55	104	0	52	13599
2026-01-10 05:38:09.21	347.51	16.08	-41.7	-52.7	3.8	8.46e-01	0	55	104	0	52	14039
2026-01-10 05:38:12.24	347.00	16.29	-41.4	-52.8	3.8	8.46e-01	0	55	104	0	52	14077
2026-01-10 05:38:15.27	346.47	16.50	-41.4	-52.5	3.8	8.44e-01	0	55	104	0	52	13680
2026-01-10 05:38:18.29	345.94	16.71	-40.7	-52.2	3.8	8.46e-01	0	55	104	0	52	13118
2026-01-10 05:38:21.32	345.40	16.92	-41.1	-52.2	3.8	8.45e-01	0	55	104	0	52	13178
2026-01-10 05:38:24.35	344.85	17.14	-40.9	-52.2	3.8	8.46e-01	0	55	104	0	52	13181
2026-01-10 05:38:27.38	344.29	17.35	-40.7	-52.1	3.8	8.46e-01	0	55	104	0	51	13732
2026-01-10 05:38:30.40	343.73	17.55	-40.9	-52.0	3.8	8.46e-01	0	55	104	0	52	12859
2026-01-10 05:38:33.43	343.16	17.76	-40.5	-51.9	3.8	8.45e-01	0	55	104	0	51	13434
2026-01-10 05:38:36.46	342.58	17.97	-40.6	-51.9	3.8	8.47e-01	0	55	104	0	51	13502
2026-01-10 05:38:39.49	341.99	18.17	-40.6	-51.9	3.8	8.47e-01	0	55	104	0	51	13516
2026-01-10 05:38:42.52	341.40	18.38	-40.9	-52.1	3.8	8.46e-01	0	55	104	0	51	13792
2026-01-10 05:38:45.55	340.79	18.58	-41.0	-52.0	3.8	8.46e-01	0	55	104	0	52	12852
2026-01-10 05:38:48.57	340.18	18.78	-41.4	-52.3	3.8	8.46e-01	0	55	104	0	52	13339
2026-01-10 05:38:51.59	339.56	18.98	-42.0	-50.6	4.0	8.45e-01	0	56	104	0	53	10338
2026-01-10 05:38:54.62	338.93	19.17	-42.7	-49.9	4.5	8.28e-01	0	55	0	0	55	8524
2026-01-10 05:38:57.65	338.29	19.37	-40.9	-44.1	9.4	2.50e-02	0	55	0	10485760	52	5194
2026-01-10 05:39:00.68	337.65	19.56	-38.6	-40.5	13.5	5.70e-06	0	55	0	32505856	48	4336
2026-01-10 05:39:03.70	337.00	19.75	-36.5	-38.0	16.2	0.00e+00	0	55	0	54525952	44	4053
2026-01-10 05:39:06.72	336.34	19.93	-36.0	-37.3	16.8	0.00e+00	0	55	0	76546048	42	4231
2026-01-10 05:39:09.75	335.67	20.12	-35.9	-37.2	16.9	0.00e+00	0	55	0	98566144	42	4172
2026-01-10 05:39:12.76	334.99	20.30	-35.7	-37.0	17.2	0.00e+00	0	56	0	119537664	42	4072
2026-01-10 05:39:15.78	334.31	20.48	-35.8	-37.1	17.2	0.00e+00	0	55	0	141557760	42	4099
2026-01-10 05:39:18.80	333.62	20.65	-35.6	-36.9	17.4	0.00e+00	0	56	0	163577856	42	4022
2026-01-10 05:39:21.82	332.92	20.82	-35.6	-36.9	17.3	0.00e+00	0	56	0	185597952	42	4036
2026-01-10 05:39:24.85	332.21	20.99	-35.6	-36.9	17.4	0.00e+00	0	56	0	207618048	41	4256
2026-01-10 05:39:27.87	331.49	21.16	-35.5	-36.7	17.6	0.00e+00	0	56	0	228589568	41	4180
2026-01-10 05:39:30.89	330.77	21.32	-35.4	-36.7	17.6	0.00e+00	0	56	0	250609664	41	4165
2026-01-10 05:39:33.91	330.03	21.48	-35.3	-36.5	17.8	0.00e+00	0	56	0	272629760	41	4064
2026-01-10 05:39:36.94	329.29	21.63	-35.4	-36.6	17.7	0.00e+00	0	56	0	294649856	41	4140
2026-01-10 05:39:39.96	328.55	21.78	-35.3	-36.6	17.8	0.00e+00	0	56	0	316669952	41	4105
2026-01-10 05:39:42.97	327.80	21.92	-35.4	-36.6	17.7	0.00e+00	0	56	0	337641472	41	4114
2026-01-10 05:39:45.99	327.03	22.06	-35.3	-36.5	17.9	0.00e+00	0	56	0	359661568	41	4070
2026-01-10 05:39:49.01	326.27	22.20	-35.2	-36.4	18.0	0.00e+00	0	56	0	381681664	41	4028
2026-01-10 05:39:52.03	325.49	22.33	-34.8	-36.0	18.3	0.00e+00	0	56	0	403701760	40	4070
2026-01-10 05:39:55.05	324.71	22.45	-34.9	-36.1	18.3	0.00e+00	0	56	0	425721856	40	4113
2026-01-10 05:39:58.07	323.93	22.57	-35.2	-36.4	18.0	0.00e+00	0	56	0	446693376	40	4256
2026-01-10 05:40:01.09	323.13	22.69	-35.3	-36.5	17.9	0.00e+00	0	56	0	468713472	40	4313
2026-01-10 05:40:04.12	322.33	22.80	-35.1	-36.3	18.0	0.00e+00	0	56	0	490733568	40	4228
2026-01-10 05:40:07.14	321.53	22.90	-35.2	-36.4	18.0	0.00e+00	0	56	0	512753664	40	4280
2026-01-10 05:40:10.16	320.72	23.00	-35.2	-36.5	17.9	0.00e+00	0	56	0	534773760	40	4293
2026-01-10 05:40:13.18	319.90	23.09	-35.0	-36.2	18.2	0.00e+00	0	56	0	555745280	40	4168
2026-01-10 05:40:16.20	319.08	23.18	-34.8	-36.1	18.3	0.00e+00	0	56	0	577765376	40	4105
2026-01-10 05:40:19.22	318.26	23.26	-34.7	-36.2	18.1	0.00e+00	0	56	0	599785472	40	4161
2026-01-10 05:40:22.24	317.43	23.34	-34.5	-36.4	18.0	0.00e+00	0	56	0	621805568	39	4520
2026-01-10 05:40:25.26	316.60	23.40	-34.9	-36.2	18.2	0.00e+00	0	56	0	643825664	39	4439
2026-01-10 05:40:28.28	315.76	23.46	-35.0	-36.4	18.0	0.00e+00	0	56	0	664797184	39	4504
2026-01-10 05:40:31.31	314.92	23.52	-35.1	-36.3	18.1	0.00e+00	0	56	0	686817280	39	4489
2026-01-10 05:40:34.33	314.08	23.57	-35.0	-36.1	18.3	0.00e+00	0	56	0	708837376	39	4383
2026-01-10 05:40:37.36	313.23	23.61	-35.0	-36.2	18.2	0.00e+00	0	56	0	730857472	39	4397
2026-01-10 05:40:40.39	312.38	23.65	-35.0	-36.1	18.3	0.00e+00	0	56	0	751828992	39	4378
2026-01-10 05:40:43.41	311.53	23.67	-35.0	-36.1	18.3	0.00e+00	0	56	0	773849088	39	4381
2026-01-10 05:40:46.44	310.68	23.70	-35.1	-36.2	18.2	0.00e+00	0	56	0	795869184	39	4438
2026-01-10 05:40:49.47	309.83	23.71	-35.2	-36.5	17.9	0.00e+00	0	56	0	817889280	40	4295
2026-01-10 05:40:52.50	308.97	23.72	-35.2	-36.4	18.0	0.00e+00	0	56	0	839909376	40	4253
2026-01-10 05:40:55.52	308.12	23.72	-35.1	-36.3	18.1	0.00e+00	0	56	0	861929472	40	4205
2026-01-10 05:40:58.54	307.27	23.72	-35.1	-36.3	18.1	0.00e+00	0	56	0	882900992	40	4198
2026-01-10 05:41:01.55	306.42	23.70	-35.0	-36.1	18.2	0.00e+00	0	56	0	904921088	40	4130
2026-01-10 05:41:04.58	305.57	23.68	-34.9	-36.1	18.3	0.00e+00	0	56	0	926941184	40	4110
2026-01-10 05:41:07.60	304.72	23.66	-34.9	-36.1	18.3	0.00e+00	0	56	0	948961280	40	4128
2026-01-10 05:41:10.62	303.87	23.63	-35.0	-36.2	18.1	0.00e+00	0	56	0	970981376	40	4166
2026-01-10 05:41:13.64	303.02	23.59	-35.0	-36.2	18.2	0.00e+00	0	56	0	991952896	40	4161
2026-01-10 05:41:16.66	302.18	23.54	-35.1	-36.3	18.1	0.00e+00	0	56	0	1013972992	40	4196
2026-01-10 05:41:19.68	301.34	23.49	-34.9	-36.0	18.3	0.00e+00	0	56	0	1035993088	40	4094
2026-01-10 05:41:22.70	300.50	23.43	-35.2	-36.4	18.0	0.00e+00	0	56	0	1058013184	40	4258
2026-01-10 05:41:25.73	299.66	23.36	-35.0	-36.2	18.1	0.00e+00	0	56	0	1080033280	40	4187
2026-01-10 05:41:28.75	298.83	23.29	-35.1	-36.3	18.1	0.00e+00	0	56	0	1102053376	40	4216
2026-01-10 05:41:31.77	298.01	23.21	-35.0	-36.1	18.2	0.00e+00	0	56	0	1123024896	40	4142
2026-01-10 05:41:34.80	297.18	23.13	-34.8	-36.0	18.4	0.00e+00	0	56	0	1145044992	40	4081
2026-01-10 05:41:37.83	296.36	23.04	-34.8	-36.0	18.4	0.00e+00	0	56	0	1167065088	40	4065
2026-01-10 05:41:40.86	295.54	22.94	-34.9	-36.0	18.3	0.00e+00	0	56	0	1189085184	40	4094
2026-01-10 05:41:43.89	294.73	22.84	-34.9	-36.1	18.2	0.00e+00	0	56	0	1211105280	40	4121
2026-01-10 05:41:46.92	293.93	22.73	-34.9	-36.1	18.3	0.00e+00	0	56	0	1233125376	40	4103
2026-01-10 05:41:49.94	293.13	22.62	-34.8	-35.9	18.4	0.00e+00	0	56	0	1254096896	40	4039
2026-01-10 05:41:52.96	292.34	22.50	-34.9	-36.1	18.3	0.00e+00	0	56	0	1276116992	40	4100
2026-01-10 05:41:55.98	291.55	22.37	-34.8	-36.0	18.3	0.00e+00	0	56	0	1298137088	40	4069
2026-01-10 05:41:59.00	290.77	22.25	-35.1	-36.2	18.1	0.00e+00	0	56	0	1320157184	40	4193
2026-01-10 05:42:02.03	290.00	22.11	-35.2	-36.4	17.9	0.00e+00	0	56	0	1342177280	40	4263
2026-01-10 05:42:05.05	289.23	21.97	-35.1	-36.3	18.0	0.00e+00	0	56	0	1364197376	40	4232
2026-01-10 05:42:08.07	288.47	21.83	-35.0	-36.2	18.1	0.00e+00	0	56	0	1385168896	40	4169
2026-01-10 05:42:11.09	287.72	21.68	-35.1	-36.3	18.0	0.00e+00	0	56	0	1407188992	40	4201
2026-01-10 05:42:14.11	286.98	21.53	-35.0	-36.2	18.1	0.00e+00	0	56	0	1429209088	40	4155
2026-01-10 05:42:17.13	286.24	21.37	-35.2	-36.3	18.0	0.00e+00	0	56	0	1451229184	40	4238
2026-01-10 05:42:20.16	285.51	21.21	-35.4	-36.7	17.7	0.00e+00	0	56	0	1473249280	40	4395
2026-01-10 05:42:23.18	284.79	21.05	-35.4	-36.6	17.7	0.00e+00	0	56	0	1494220800	40	4384
2026-01-10 05:42:26.21	284.07	20.88	-35.2	-36.4	17.9	0.00e+00	0	56	0	1516240896	40	4267
2026-01-10 05:42:29.24	283.36	20.71	-35.1	-36.3	18.0	0.00e+00	0	56	0	1538260992	40	4224
2026-01-10 05:42:32.27	282.66	20.53	-35.2	-36.4	17.8	0.00e+00	0	56	0	1560281088	40	4288
2026-01-10 05:42:35.29	281.97	20.36	-35.2	-36.4	17.8	0.00e+00	0	56	0	1581252608	40	4273
2026-01-10 05:42:38.31	281.29	20.18	-35.4	-36.6	17.6	0.00e+00	0	56	0	1603272704	40	4377
2026-01-10 05:42:41.33	280.62	19.99	-35.5	-36.8	17.5	0.00e+00	0	56	0	1625292800	40	4453
2026-01-10 05:42:44.35	279.95	19.81	-35.5	-36.8	17.5	0.00e+00	0	56	0	1647312896	40	4457
2026-01-10 05:42:47.38	279.29	19.62	-35.4	-36.6	17.6	0.00e+00	0	56	0	1669332992	40	4368
2026-01-10 05:42:50.40	278.64	19.43	-35.5	-36.7	17.5	0.00e+00	0	56	0	1691353088	40	4429
2026-01-10 05:42:53.43	278.00	19.23	-35.6	-36.9	17.3	0.00e+00	0	56	0	1712324608	40	4523
2026-01-10 05:42:56.46	277.36	19.03	-35.9	-37.2	17.0	0.00e+00	0	56	0	1734344704	41	4408
2026-01-10 05:42:59.49	276.74	18.84	-35.8	-37.1	17.0	0.00e+00	0	56	0	1756364800	41	4387
2026-01-10 05:43:02.51	276.12	18.64	-35.7	-36.9	17.2	0.00e+00	0	56	0	1778384896	41	4285
2026-01-10 05:43:05.53	275.51	18.43	-35.7	-37.0	17.1	0.00e+00	0	56	0	1800404992	41	4331
2026-01-10 05:43:08.55	274.91	18.23	-35.8	-37.1	17.1	0.00e+00	0	56	0	1822425088	41	4348
2026-01-10 05:43:11.57	274.32	18.03	-35.9	-37.3	16.9	0.00e+00	0	56	0	1843396608	41	4456
2026-01-10 05:43:14.59	273.73	17.82	-35.9	-37.2	16.9	0.00e+00	0	56	0	1865416704	41	4440
2026-01-10 05:43:17.61	273.16	17.61	-36.0	-37.3	16.8	0.00e+00	0	56	0	1887436800	41	4489
2026-01-10 05:43:20.63	272.59	17.40	-36.1	-37.5	16.7	0.00e+00	0	56	0	1909456896	41	4550
2026-01-10 05:43:23.66	272.03	17.19	-35.8	-37.1	17.0	0.00e+00	0	56	0	1931476992	41	4386
2026-01-10 05:43:26.68	271.47	16.98	-35.9	-37.2	16.9	0.00e+00	0	56	0	1952448512	41	4437
2026-01-10 05:43:29.70	270.93	16.77	-36.1	-37.5	16.6	0.00e+00	0	57	0	1974468608	41	4572
2026-01-10 05:43:32.72	270.39	16.56	-36.2	-37.5	16.6	0.00e+00	0	57	0	1996488704	42	4319
2026-01-10 05:43:35.74	269.86	16.35	-36.0	-37.4	16.7	0.00e+00	0	56	0	2018508800	42	4251
2026-01-10 05:43:38.77	269.34	16.13	-36.3	-37.7	16.5	0.00e+00	0	56	0	2040528896	42	4401
2026-01-10 05:43:41.78	268.82	15.92	-36.6	-38.0	16.1	0.00e+00	0	56	0	2061500416	42	4578
2026-01-10 05:43:44.80	268.32	15.70	-36.6	-38.0	16.1	0.00e+00	0	56	0	2083520512	43	4322
2026-01-10 05:43:47.82	267.82	15.49	-36.8	-38.2	15.9	0.00e+00	0	56	0	2105540608	43	4425
2026-01-10 05:43:50.84	267.32	15.27	-36.9	-38.4	15.6	0.00e+00	0	57	0	2127560704	43	4545
2026-01-10 05:43:53.86	266.84	15.06	-36.8	-38.3	15.7	0.00e+00	0	56	0	2149580800	43	4475
2026-01-10 05:43:56.89	266.36	14.84	-36.7	-38.2	15.8	0.00e+00	0	57	0	2170552320	43	4406
2026-01-10 05:43:59.91	265.89	14.63	-36.5	-37.9	16.2	0.00e+00	0	56	0	2192572416	43	4255
2026-01-10 05:44:02.93	265.42	14.41	-36.6	-38.0	16.0	0.00e+00	0	56	0	2214592512	43	4324
2026-01-10 05:44:05.95	264.96	14.20	-36.8	-38.3	15.7	0.00e+00	0	56	0	2236612608	43	4473
2026-01-10 05:44:08.98	264.51	13.98	-36.8	-38.3	15.7	0.00e+00	0	56	0	2258632704	43	4451
2026-01-10 05:44:12.00	264.06	13.76	-36.9	-38.4	15.5	0.00e+00	0	56	0	2280652800	43	4528
2026-01-10 05:44:15.03	263.63	13.55	-37.1	-38.7	15.3	0.00e+00	0	57	0	2301624320	43	4658
2026-01-10 05:44:18.07	263.19	13.33	-37.5	-39.1	15.0	0.00e+00	0	57	0	2323644416	44	4648
2026-01-10 05:44:21.09	262.76	13.12	-37.5	-39.1	15.0	0.00e+00	0	57	0	2345664512	44	4628
2026-01-10 05:44:24.11	262.35	12.90	-37.6	-39.3	14.7	1.10e-06	0	57	0	2367684608	44	4725
2026-01-10 05:44:27.14	261.93	12.69	-37.5	-39.2	14.9	0.00e+00	0	56	0	2389704704	44	4664
2026-01-10 05:44:30.16	261.52	12.48	-37.7	-39.4	14.6	0.00e+00	0	56	0	2410676224	45	4512
2026-01-10 05:44:33.19	261.12	12.26	-37.5	-39.2	14.8	0.00e+00	0	56	0	2432696320	45	4404
2026-01-10 05:44:36.21	260.73	12.05	-37.5	-39.1	14.9	1.10e-06	0	57	0	2454716416	45	4355
2026-01-10 05:44:39.22	260.34	11.84	-37.4	-39.0	15.0	0.00e+00	0	57	0	2476736512	45	4314
2026-01-10 05:44:42.24	259.95	11.63	-37.5	-39.1	14.8	0.00e+00	0	56	0	2498756608	45	4358
2026-01-10 05:44:45.26	259.58	11.42	-37.7	-39.4	14.5	0.00e+00	0	56	0	2519728128	45	4544
2026-01-10 05:44:48.29	259.20	11.21	-38.1	-39.9	14.0	2.20e-06	0	57	0	2541748224	45	4789
2026-01-10 05:44:51.31	258.83	11.00	-37.8	-39.6	14.3	0.00e+00	0	56	0	2563768320	46	4354
2026-01-10 05:44:54.34	258.47	10.79	-37.7	-39.4	14.4	0.00e+00	0	56	0	2585788416	46	4279
2026-01-10 05:44:57.37	258.11	10.58	-37.6	-39.3	14.5	1.10e-06	0	57	0	2607808512	45	4471
2026-01-10 05:45:00.39	257.76	10.37	-37.8	-39.5	14.3	1.10e-06	0	56	0	2629828608	45	4553
2026-01-10 05:45:03.41	257.41	10.17	-38.4	-40.3	13.6	1.02e-05	0	57	0	2650800128	46	4715
2026-01-10 05:45:06.44	257.07	9.96	-38.4	-40.3	13.5	6.80e-06	0	56	0	2672820224	46	4741
2026-01-10 05:45:09.46	256.73	9.75	-38.4	-40.3	13.5	4.50e-06	0	56	0	2694840320	46	4711
2026-01-10 05:45:12.48	256.40	9.55	-38.1	-40.0	13.8	4.50e-06	0	56	0	2716860416	46	4562
2026-01-10 05:45:15.50	256.07	9.35	-38.1	-39.9	13.8	4.50e-06	0	57	0	2738880512	46	4515
2026-01-10 05:45:18.52	255.75	9.14	-38.2	-40.0	13.6	9.10e-06	0	56	0	2759852032	46	4593
2026-01-10 05:45:21.54	255.43	8.94	-38.0	-39.8	13.9	4.50e-06	0	57	0	2781872128	46	4468
2026-01-10 05:45:24.56	255.12	8.74	-38.0	-39.8	13.8	2.20e-06	0	57	0	2803892224	46	4492
2026-01-10 05:45:27.58	254.81	8.54	-37.9	-39.7	13.9	0.00e+00	0	57	0	2825912320	46	4431
2026-01-10 05:45:30.61	254.50	8.34	-37.9	-39.8	13.8	1.10e-06	0	57	0	2847932416	46	4448
2026-01-10 05:45:33.64	254.20	8.14	-38.5	-40.5	13.0	2.97e-05	0	57	0	2868903936	46	4839
2026-01-10 05:45:36.66	253.90	7.94	-44.7	-55.5	3.8	8.47e-01	0	56	104	2883584000	59	12865
2026-01-10 05:45:39.69	253.61	7.74	-45.2	-56.2	3.8	8.46e-01	0	57	104	2883584000	60	13232
2026-01-10 05:45:42.72	253.32	7.54	-45.4	-56.4	3.8	8.47e-01	0	57	104	2883584000	60	13542
2026-01-10 05:45:45.75	253.04	7.35	-45.4	-56.5	3.8	8.45e-01	0	57	104	2883584000	60	13587
2026-01-10 05:45:48.78	252.75	7.15	-45.3	-56.3	3.8	8.46e-01	0	57	104	2883584000	60	13392
2026-01-10 05:45:51.81	252.48	6.96	-45.3	-56.3	3.8	8.46e-01	0	57	104	2883584000	60	13397
2026-01-10 05:45:54.83	252.20	6.77	-45.3	-56.3	3.8	8.45e-01	0	57	104	2883584000	60	13363
2026-01-10 05:45:57.86	251.93	6.57	-45.3	-56.3	3.8	8.45e-01	0	57	104	2883584000	60	13331
2026-01-10 05:46:00.89	251.67	6.38	-45.3	-56.3	3.8	8.47e-01	0	57	104	2883584000	60	13275
2026-01-10 05:46:03.91	251.40	6.19	-45.3	-56.3	3.8	8.47e-01	0	57	104	2883584000	60	13269
2026-01-10 05:46:06.94	251.14	6.00	-45.2	-56.3	3.8	8.47e-01	0	57	104	2883584000	60	13285
2026-01-10 05:46:09.96	250.89	5.81	-45.3	-56.2	3.8	8.46e-01	0	57	104	2883584000	60	13253
2026-01-10 05:46:12.99	250.64	5.62	-45.2	-56.3	3.8	8.46e-01	0	56	104	2883584000	60	13311
2026-01-10 05:46:16.01	250.39	5.43	-45.3	-56.2	3.8	8.47e-01	0	57	104	2883584000	60	13237
2026-01-10 05:46:19.03	250.14	5.25	-45.2	-56.3	3.8	8.46e-01	0	56	104	2883584000	60	13262
2026-01-10 05:46:22.05	249.90	5.06	-45.2	-56.2	3.8	8.46e-01	0	57	104	2883584000	60	13152
2026-01-10 05:46:25.08	249.66	4.88	-45.2	-56.2	3.8	8.46e-01	0	56	104	2883584000	60	13252
2026-01-10 05:46:28.11	249.42	4.69	-45.2	-56.3	3.8	8.46e-01	0	57	104	2883584000	60	13275
2026-01-10 05:46:31.13	249.19	4.51	-45.2	-56.3	3.8	8.47e-01	0	57	104	2883584000	60	13271
2026-01-10 05:46:34.16	248.96	4.33	-45.2	-56.2	3.8	8.46e-01	0	57	104	2883584000	60	13256
2026-01-10 05:46:37.18	248.73	4.15	-45.2	-56.3	3.8	8.46e-01	0	57	104	2883584000	60	13269
2026-01-10 05:46:40.21	248.51	3.96	-45.2	-56.3	3.8	8.46e-01	0	57	104	2883584000	60	13309
2026-01-10 05:46:43.23	248.29	3.78	-45.2	-56.3	3.8	8.45e-01	0	57	104	2883584000	60	13264
2026-01-10 05:46:46.26	248.07	3.60	-45.2	-56.2	3.8	8.46e-01	0	57	104	2883584000	60	13233
2026-01-10 05:46:49.29	247.85	3.43	-45.3	-56.2	3.8	8.45e-01	0	57	104	2883584000	60	13233
2026-01-10 05:46:52.32	247.64	3.25	-45.2	-56.2	3.8	8.46e-01	0	57	104	2883584000	60	13192
2026-01-10 05:46:55.34	247.43	3.07	-45.2	-56.2	3.8	8.46e-01	0	57	104	2883584000	60	13247
2026-01-10 05:46:58.36	247.22	2.89	-45.2	-56.2	3.8	8.47e-01	0	57	104	2883584000	60	13180
2026-01-10 05:47:01.38	247.01	2.72	-45.2	-56.2	3.8	8.46e-01	0	57	104	2883584000	60	13243
2026-01-10 05:47:04.41	246.81	2.54	-45.2	-56.2	3.8	8.46e-01	0	57	104	2883584000	60	13235
2026-01-10 05:47:07.44	246.61	2.37	-45.2	-56.2	3.8	8.46e-01	0	57	104	2883584000	60	13254
2026-01-10 05:47:10.47	246.41	2.20	-45.2	-56.2	3.8	8.46e-01	0	57	104	2883584000	60	13241
2026-01-10 05:47:13.49	246.21	2.02	-45.2	-56.2	3.8	8.46e-01	0	57	104	2883584000	60	13233

#Closed at: 2026-01-10 05:47:15
#Recorded file [2883 MB]: D:/lorett/data/31039_260110_083434.dat