passes_logs/2026/01/10/R2.0S_Moscow/R2.0S_Moscow__20260110_102923_NOAA_21_JPSS-2_rec.log

#Pass ID: 20260110_102923_NOAA 21 (JPSS-2)
#Satellite: NOAA 21 (JPSS-2)
#Configuration: NOAA-21
#almurnet v.1.7.20251203
#Start time: 2026-01-10 10:36:55

#Version: 2.2.20231116
#Station: R2.0S_Moscow
#Location: 37.707566 lon 55.798166 lat
#TLE: 1 54234U 22150A   26009.23291724  .00000115  00000+0  75298-4 0  9996
#TLE: 2 54234  98.7494 310.2026 0000856 324.9272  35.1848 14.19533567163994

#Time	Az	El	Level	Level2	SNR	BER	BlckErr	Temp	State	Recorded	gain1	gain2
2026-01-10 10:36:55.32	277.16	52.88	-45.9	-64.9	3.8	7.47e-01	0	57	0	0	62	33717
2026-01-10 10:36:57.34	278.50	52.66	-45.2	-57.7	3.8	1.49e+00	0	57	104	0	60	16584
2026-01-10 10:36:59.36	279.82	52.41	-45.1	-57.6	3.8	1.49e+00	0	57	104	0	60	16438
2026-01-10 10:37:01.38	281.12	52.15	-45.1	-57.6	3.8	1.49e+00	0	57	104	0	60	16446
2026-01-10 10:37:03.40	282.39	51.88	-45.1	-57.7	3.8	1.49e+00	0	57	104	0	60	16516
2026-01-10 10:37:05.42	283.64	51.60	-45.1	-57.6	3.8	1.49e+00	0	57	104	0	60	16459
2026-01-10 10:37:07.44	284.87	51.31	-45.1	-57.6	3.8	1.49e+00	0	57	104	0	60	16460
2026-01-10 10:37:09.46	286.07	51.00	-45.1	-57.6	3.8	1.49e+00	0	57	104	0	60	16493
2026-01-10 10:37:11.48	287.25	50.68	-45.1	-57.6	3.8	1.49e+00	0	57	104	0	60	16451
2026-01-10 10:37:13.51	288.41	50.35	-45.1	-57.6	3.8	1.49e+00	0	57	104	0	60	16442
2026-01-10 10:37:15.53	289.54	50.02	-45.1	-57.6	3.8	1.49e+00	0	57	104	0	60	16443
2026-01-10 10:37:17.55	290.65	49.67	-45.1	-57.6	3.8	1.49e+00	0	57	104	0	60	16418
2026-01-10 10:37:19.57	291.72	49.32	-45.1	-57.6	3.8	1.49e+00	0	57	104	0	60	16423
2026-01-10 10:37:21.59	292.78	48.96	-45.1	-57.6	3.8	1.49e+00	0	57	104	0	60	16360
2026-01-10 10:37:23.62	293.81	48.59	-45.1	-57.6	3.8	1.49e+00	0	57	104	0	60	16426
2026-01-10 10:37:25.63	294.81	48.21	-45.1	-57.6	3.8	1.49e+00	0	57	104	0	60	16445
2026-01-10 10:37:27.65	295.80	47.83	-45.1	-57.6	3.8	1.49e+00	0	57	104	0	60	16430
2026-01-10 10:37:29.67	296.75	47.45	-45.1	-57.6	3.8	1.49e+00	0	57	104	0	60	16449
2026-01-10 10:37:31.69	297.69	47.06	-45.1	-57.6	3.8	1.49e+00	0	57	104	0	60	16359
2026-01-10 10:37:33.72	298.60	46.66	-45.1	-57.6	3.8	1.49e+00	0	57	104	0	60	16427
2026-01-10 10:37:35.74	299.49	46.26	-45.1	-57.6	3.8	1.49e+00	0	57	104	0	60	16352
2026-01-10 10:37:37.76	300.36	45.86	-45.0	-57.2	3.8	1.49e+00	0	57	104	0	60	15680
2026-01-10 10:37:39.78	301.20	45.46	-44.8	-55.3	3.9	1.49e+00	0	57	104	0	60	12649
2026-01-10 10:37:41.81	302.03	45.05	-44.6	-53.2	4.4	1.40e+00	0	57	104	0	60	9942
2026-01-10 10:37:43.83	302.83	44.64	-44.0	-50.5	6.0	4.80e-01	0	57	0	3145728	60	7268
2026-01-10 10:37:45.85	303.62	44.23	-42.3	-45.9	10.3	1.03e-02	0	57	0	9437184	56	5371
2026-01-10 10:37:47.87	304.38	43.82	-41.0	-43.8	12.4	1.52e-04	0	57	0	15728640	54	4714
2026-01-10 10:37:49.89	305.12	43.41	-42.2	-45.8	10.4	2.74e-04	0	57	0	22020096	54	5930
2026-01-10 10:37:51.91	305.85	43.00	-43.6	-48.7	7.7	5.86e-04	0	57	0	28311552	57	6971
2026-01-10 10:37:53.93	306.55	42.58	-44.6	-52.9	4.7	3.34e-02	0	57	0	34603008	59	10134
2026-01-10 10:37:55.95	307.24	42.17	-40.3	-42.7	13.6	4.50e-06	0	57	0	38797312	51	4943
2026-01-10 10:37:57.98	307.92	41.75	-40.6	-43.0	13.3	2.74e-05	0	57	0	45088768	51	5126
2026-01-10 10:38:00.00	308.57	41.34	-40.4	-42.8	13.4	1.22e-05	0	57	0	51380224	51	5019
2026-01-10 10:38:02.01	309.21	40.93	-40.4	-42.7	13.5	1.06e-05	0	57	0	57671680	51	4966
2026-01-10 10:38:04.03	309.83	40.52	-40.5	-42.9	13.3	1.67e-05	0	57	0	63963136	51	5097
2026-01-10 10:38:06.05	310.44	40.11	-40.6	-43.1	13.1	3.12e-05	0	57	0	70254592	51	5167
2026-01-10 10:38:08.07	311.03	39.70	-40.7	-43.2	13.0	2.82e-05	0	57	0	76546048	51	5252
2026-01-10 10:38:10.09	311.61	39.30	-40.4	-42.8	13.4	1.29e-05	0	57	0	82837504	51	5035
2026-01-10 10:38:12.11	312.17	38.89	-40.2	-42.6	13.7	6.80e-06	0	57	0	89128960	51	4872
2026-01-10 10:38:14.14	312.73	38.48	-40.1	-42.3	13.9	4.50e-06	0	57	0	95420416	51	4748
2026-01-10 10:38:16.15	313.26	38.09	-39.5	-41.5	14.7	7.00e-07	0	57	0	101711872	51	4316
2026-01-10 10:38:18.18	313.79	37.68	-39.4	-41.4	14.8	0.00e+00	0	57	0	108003328	50	4528
2026-01-10 10:38:20.19	314.30	37.29	-40.0	-42.1	14.1	7.00e-07	0	57	0	114294784	50	4921
2026-01-10 10:38:22.21	314.80	36.89	-39.9	-42.1	14.1	2.20e-06	0	57	0	120586240	50	4883
2026-01-10 10:38:24.23	315.28	36.50	-39.5	-41.5	14.7	0.00e+00	0	57	0	126877696	50	4576
2026-01-10 10:38:26.25	315.76	36.11	-39.4	-41.4	14.8	0.00e+00	0	57	0	133169152	50	4533
2026-01-10 10:38:28.26	316.22	35.73	-39.4	-41.5	14.8	0.00e+00	0	57	0	139460608	50	4558
2026-01-10 10:38:30.28	316.68	35.34	-39.6	-41.7	14.5	1.50e-06	0	57	0	145752064	50	4676
2026-01-10 10:38:32.31	317.12	34.96	-39.5	-41.6	14.6	0.00e+00	0	57	0	152043520	50	4615
2026-01-10 10:38:34.33	317.56	34.58	-39.1	-41.1	15.1	0.00e+00	0	57	0	158334976	50	4356
2026-01-10 10:38:36.35	317.98	34.20	-38.9	-40.8	15.4	0.00e+00	0	57	0	164626432	49	4465
2026-01-10 10:38:38.37	318.40	33.83	-39.2	-41.1	15.0	0.00e+00	0	57	0	170917888	49	4644
2026-01-10 10:38:40.39	318.80	33.46	-39.3	-41.2	14.9	0.00e+00	0	57	0	177209344	49	4699
2026-01-10 10:38:42.41	319.20	33.09	-38.8	-40.6	15.6	0.00e+00	0	57	0	183500800	49	4353
2026-01-10 10:38:44.42	319.59	32.73	-38.8	-40.6	15.6	0.00e+00	0	57	0	189792256	49	4358
2026-01-10 10:38:46.45	319.97	32.37	-38.6	-40.4	15.7	0.00e+00	0	57	0	196083712	49	4274
2026-01-10 10:38:48.47	320.34	32.01	-38.5	-40.3	15.8	0.00e+00	0	57	0	202375168	49	4225
2026-01-10 10:38:50.49	320.71	31.65	-38.3	-40.0	16.1	0.00e+00	0	57	0	208666624	48	4320
2026-01-10 10:38:52.51	321.06	31.30	-37.8	-39.4	16.6	0.00e+00	0	57	0	214958080	47	4243
2026-01-10 10:38:54.53	321.41	30.95	-37.8	-39.4	16.6	0.00e+00	0	57	0	221249536	47	4270
2026-01-10 10:38:56.55	321.75	30.61	-38.0	-39.6	16.4	0.00e+00	0	58	0	227540992	47	4369
2026-01-10 10:38:58.57	322.09	30.26	-38.2	-39.9	16.1	0.00e+00	0	57	0	233832448	47	4524
2026-01-10 10:39:00.59	322.42	29.92	-38.4	-40.1	15.9	0.00e+00	0	57	0	240123904	47	4638
2026-01-10 10:39:02.61	322.74	29.59	-38.6	-40.4	15.6	0.00e+00	0	57	0	246415360	47	4811
2026-01-10 10:39:04.64	323.05	29.25	-38.5	-40.3	15.7	0.00e+00	0	57	0	252706816	47	4732
2026-01-10 10:39:06.65	323.36	28.92	-38.3	-40.0	16.0	0.00e+00	0	57	0	258998272	47	4586
2026-01-10 10:39:08.68	323.66	28.59	-38.0	-39.7	16.3	0.00e+00	0	57	0	265289728	47	4393
2026-01-10 10:39:10.69	323.96	28.27	-38.0	-39.7	16.3	0.00e+00	0	57	0	271581184	47	4418
2026-01-10 10:39:12.71	324.25	27.95	-38.1	-39.9	16.1	0.00e+00	0	57	0	278921216	47	4496
2026-01-10 10:39:14.73	324.53	27.63	-38.1	-39.8	16.2	0.00e+00	0	57	0	284164096	47	4476
2026-01-10 10:39:16.75	324.81	27.32	-38.0	-39.6	16.3	0.00e+00	0	57	0	290455552	47	4387
2026-01-10 10:39:18.77	325.09	27.00	-38.0	-39.6	16.3	0.00e+00	0	57	0	297795584	47	4381
2026-01-10 10:39:20.79	325.36	26.69	-38.0	-39.7	16.3	0.00e+00	0	57	0	304087040	47	4426
2026-01-10 10:39:22.81	325.62	26.39	-38.0	-39.6	16.3	0.00e+00	0	57	0	310378496	47	4388
2026-01-10 10:39:24.83	325.88	26.08	-38.0	-39.7	16.3	0.00e+00	0	57	0	316669952	47	4416
2026-01-10 10:39:26.85	326.14	25.78	-38.1	-39.8	16.2	0.00e+00	0	58	0	322961408	47	4448
2026-01-10 10:39:28.87	326.39	25.48	-38.1	-39.8	16.2	0.00e+00	0	57	0	329252864	47	4464
2026-01-10 10:39:30.89	326.63	25.19	-38.0	-39.7	16.3	0.00e+00	0	57	0	335544320	47	4405
2026-01-10 10:39:32.91	326.87	24.90	-38.0	-39.6	16.3	0.00e+00	0	57	0	341835776	47	4381
2026-01-10 10:39:34.93	327.11	24.61	-38.0	-39.7	16.2	0.00e+00	0	57	0	348127232	47	4406
2026-01-10 10:39:36.95	327.34	24.32	-38.0	-39.7	16.2	0.00e+00	0	57	0	354418688	47	4440
2026-01-10 10:39:38.97	327.57	24.03	-38.1	-39.8	16.1	0.00e+00	0	57	0	360710144	47	4480
2026-01-10 10:39:40.99	327.80	23.75	-38.1	-39.8	16.1	0.00e+00	0	58	0	367001600	47	4466
2026-01-10 10:39:43.01	328.02	23.47	-38.0	-39.8	16.1	0.00e+00	0	57	0	373293056	47	4451
2026-01-10 10:39:45.03	328.23	23.20	-38.0	-39.7	16.2	0.00e+00	0	57	0	379584512	47	4418
2026-01-10 10:39:47.04	328.45	22.92	-38.0	-39.7	16.2	0.00e+00	0	57	0	385875968	47	4410
2026-01-10 10:39:49.06	328.66	22.65	-37.9	-39.6	16.2	0.00e+00	0	57	0	392167424	47	4385
2026-01-10 10:39:51.08	328.86	22.38	-37.9	-39.6	16.2	0.00e+00	0	57	0	398458880	47	4375
2026-01-10 10:39:53.10	329.07	22.12	-37.8	-39.5	16.4	0.00e+00	0	57	0	404750336	47	4311
2026-01-10 10:39:55.12	329.27	21.85	-37.9	-39.6	16.2	0.00e+00	0	57	0	411041792	47	4388
2026-01-10 10:39:57.13	329.46	21.59	-38.0	-39.7	16.1	0.00e+00	0	58	0	417333248	47	4441
2026-01-10 10:39:59.15	329.66	21.33	-38.1	-39.9	16.0	0.00e+00	0	57	0	423624704	47	4494
2026-01-10 10:40:01.17	329.85	21.07	-38.1	-39.8	16.0	0.00e+00	0	57	0	429916160	47	4484
2026-01-10 10:40:03.19	330.03	20.82	-38.2	-40.0	15.8	0.00e+00	0	57	0	436207616	47	4551
2026-01-10 10:40:05.21	330.22	20.57	-38.2	-40.0	15.8	0.00e+00	0	57	0	442499072	47	4579
2026-01-10 10:40:07.22	330.40	20.32	-38.2	-40.0	15.7	0.00e+00	0	57	0	448790528	47	4590
2026-01-10 10:40:09.25	330.58	20.07	-38.4	-40.3	15.4	0.00e+00	0	57	0	455081984	47	4737
2026-01-10 10:40:11.27	330.76	19.82	-38.4	-40.3	15.5	0.00e+00	0	57	0	461373440	47	4715
2026-01-10 10:40:13.29	330.93	19.58	-38.3	-40.2	15.6	0.00e+00	0	57	0	467664896	47	4664
2026-01-10 10:40:15.30	331.10	19.34	-38.2	-40.1	15.7	0.00e+00	0	57	0	473956352	47	4603
2026-01-10 10:40:17.32	331.27	19.10	-38.1	-39.9	15.8	0.00e+00	0	57	0	480247808	47	4512
2026-01-10 10:40:19.35	331.43	18.86	-38.1	-39.9	15.8	0.00e+00	0	57	0	486539264	47	4499
2026-01-10 10:40:21.36	331.60	18.63	-38.0	-39.7	15.9	0.00e+00	0	57	0	492830720	47	4441
2026-01-10 10:40:23.38	331.76	18.39	-38.0	-39.8	15.9	0.00e+00	0	57	0	499122176	47	4468
2026-01-10 10:40:25.40	331.92	18.16	-38.0	-39.8	15.9	0.00e+00	0	57	0	505413632	47	4465
2026-01-10 10:40:27.42	332.07	17.93	-38.0	-39.7	16.0	0.00e+00	0	57	0	511705088	47	4424
2026-01-10 10:40:29.44	332.23	17.71	-37.9	-39.7	15.9	0.00e+00	0	57	0	517996544	47	4409
2026-01-10 10:40:31.45	332.38	17.48	-38.0	-39.7	15.9	0.00e+00	0	57	0	524288000	47	4419
2026-01-10 10:40:33.48	332.53	17.26	-37.9	-39.7	15.9	0.00e+00	0	57	0	530579456	47	4412
2026-01-10 10:40:35.49	332.68	17.04	-37.9	-39.7	15.9	0.00e+00	0	57	0	536870912	47	4405
2026-01-10 10:40:37.51	332.82	16.82	-38.0	-39.7	15.8	0.00e+00	0	57	0	543162368	47	4421
2026-01-10 10:40:39.54	332.97	16.60	-38.0	-39.8	15.7	0.00e+00	0	57	0	549453824	47	4483
2026-01-10 10:40:41.56	333.11	16.38	-38.2	-40.0	15.5	0.00e+00	0	57	0	555745280	47	4588
2026-01-10 10:40:43.58	333.25	16.17	-38.3	-40.1	15.4	0.00e+00	0	57	0	562036736	47	4637
2026-01-10 10:40:45.60	333.39	15.95	-38.3	-40.3	15.2	0.00e+00	0	57	0	568328192	47	4712
2026-01-10 10:40:47.61	333.52	15.74	-38.5	-40.5	15.0	0.00e+00	0	57	0	574619648	47	4845
2026-01-10 10:40:49.63	333.66	15.53	-38.7	-40.8	14.7	7.00e-07	0	57	0	580911104	47	4999
2026-01-10 10:40:51.65	333.79	15.33	-38.8	-40.8	14.7	7.00e-07	0	57	0	587202560	48	4754
2026-01-10 10:40:53.67	333.92	15.12	-38.8	-40.9	14.6	0.00e+00	0	57	0	593494016	48	4775
2026-01-10 10:40:55.69	334.05	14.92	-39.0	-41.1	14.4	1.50e-06	0	57	0	599785472	48	4905
2026-01-10 10:40:57.71	334.18	14.71	-38.8	-40.9	14.6	7.00e-07	0	57	0	606076928	48	4792
2026-01-10 10:40:59.73	334.31	14.51	-39.0	-41.1	14.4	7.00e-07	0	57	0	612368384	48	4886
2026-01-10 10:41:01.75	334.43	14.31	-38.8	-41.0	14.5	1.50e-06	0	57	0	618659840	48	4832
2026-01-10 10:41:03.77	334.56	14.11	-38.8	-41.2	14.2	7.00e-07	0	57	0	624951296	48	4960
2026-01-10 10:41:05.79	334.68	13.92	-39.0	-41.3	14.1	2.20e-06	0	57	0	631242752	48	4996
2026-01-10 10:41:07.81	334.80	13.72	-38.9	-41.0	14.3	1.50e-06	0	57	0	637534208	48	4864
2026-01-10 10:41:09.83	334.92	13.53	-38.9	-41.0	14.4	1.50e-06	0	57	0	644874240	48	4864
2026-01-10 10:41:11.85	335.03	13.34	-38.8	-40.9	14.4	2.20e-06	0	57	0	650117120	48	4814
2026-01-10 10:41:13.87	335.15	13.14	-38.9	-41.2	14.1	4.50e-06	0	57	0	657457152	48	4962
2026-01-10 10:41:15.89	335.26	12.95	-38.9	-41.2	14.2	2.20e-06	0	57	0	663748608	48	4929
2026-01-10 10:41:17.90	335.38	12.77	-39.0	-41.2	14.1	3.80e-06	0	57	0	668991488	48	4976
2026-01-10 10:41:19.92	335.49	12.58	-39.0	-41.2	14.1	4.50e-06	0	57	0	676331520	48	4974
2026-01-10 10:41:21.94	335.60	12.40	-39.1	-41.4	13.9	1.50e-06	0	57	0	682622976	48	5048
2026-01-10 10:41:23.96	335.71	12.21	-39.1	-41.3	14.0	3.80e-06	0	57	0	688914432	48	5036
2026-01-10 10:41:25.97	335.82	12.03	-39.2	-41.5	13.8	3.80e-06	0	57	0	695205888	48	5109
2026-01-10 10:41:27.99	335.92	11.85	-39.1	-41.3	13.9	4.50e-06	0	57	0	701497344	49	4757
2026-01-10 10:41:30.01	336.03	11.67	-39.2	-41.5	13.8	4.50e-06	0	57	0	707788800	49	4834
2026-01-10 10:41:32.03	336.13	11.49	-39.3	-41.6	13.6	1.06e-05	0	57	0	714080256	49	4925
2026-01-10 10:41:34.05	336.24	11.31	-39.3	-41.7	13.5	1.06e-05	0	57	0	720371712	49	4944
2026-01-10 10:41:36.07	336.34	11.13	-39.4	-41.8	13.4	1.52e-05	0	57	0	726663168	49	5031
2026-01-10 10:41:38.09	336.44	10.96	-39.4	-41.8	13.4	1.37e-05	0	57	0	732954624	49	5005
2026-01-10 10:41:40.11	336.54	10.78	-39.4	-41.8	13.3	2.67e-05	0	57	0	739246080	49	5017
2026-01-10 10:41:42.13	336.64	10.61	-39.2	-41.5	13.6	1.22e-05	0	58	0	745537536	49	4864
2026-01-10 10:41:44.15	336.74	10.44	-39.2	-41.7	13.3	1.29e-05	0	57	0	751828992	49	4942
2026-01-10 10:41:46.17	336.83	10.27	-39.4	-41.9	13.0	2.44e-05	0	57	0	758120448	49	5079
2026-01-10 10:41:48.18	336.93	10.10	-39.3	-41.8	13.0	3.73e-05	0	57	0	764411904	49	5024
2026-01-10 10:41:50.20	337.02	9.93	-39.1	-41.6	13.3	3.43e-05	0	57	0	770703360	49	4883
2026-01-10 10:41:52.22	337.12	9.76	-39.0	-41.5	13.2	1.90e-05	0	57	0	776994816	49	4861
2026-01-10 10:41:54.25	337.21	9.60	-38.9	-41.4	13.2	2.13e-05	0	57	0	783286272	49	4789
2026-01-10 10:41:56.27	337.30	9.43	-38.9	-41.4	13.2	2.36e-05	0	57	0	789577728	49	4767
2026-01-10 10:41:58.29	337.40	9.27	-39.1	-41.7	12.8	5.18e-05	0	57	0	795869184	49	4980
2026-01-10 10:42:00.30	337.48	9.10	-39.2	-42.0	12.5	1.06e-04	0	57	0	802160640	49	5112
2026-01-10 10:42:02.33	337.57	8.94	-39.3	-42.1	12.3	1.92e-04	0	57	0	808452096	49	5172
2026-01-10 10:42:04.35	337.66	8.78	-39.3	-42.2	12.1	2.21e-04	0	57	0	814743552	49	5226
2026-01-10 10:42:06.37	337.75	8.62	-39.3	-42.1	12.2	1.85e-04	0	57	0	821035008	49	5198
2026-01-10 10:42:08.39	337.84	8.46	-39.0	-41.7	12.4	1.36e-04	0	57	0	827326464	49	4969
2026-01-10 10:42:10.40	337.92	8.30	-39.1	-41.9	12.2	2.02e-04	0	57	0	833617920	49	5057
2026-01-10 10:42:12.42	338.01	8.14	-39.1	-42.0	12.0	4.03e-04	0	57	0	839909376	49	5142
2026-01-10 10:42:14.44	338.09	7.99	-39.3	-42.4	11.7	3.97e-04	0	57	0	846200832	49	5361
2026-01-10 10:42:16.46	338.17	7.83	-44.6	-56.9	3.8	1.49e+00	0	57	104	847249408	59	16055
2026-01-10 10:42:18.49	338.26	7.68	-44.9	-57.4	3.8	1.49e+00	0	57	104	847249408	60	16094
2026-01-10 10:42:20.51	338.34	7.52	-45.1	-57.7	3.8	1.49e+00	0	57	104	847249408	60	16525
2026-01-10 10:42:22.53	338.42	7.37	-45.2	-57.8	3.8	1.49e+00	0	57	104	847249408	61	15803
2026-01-10 10:42:24.55	338.50	7.22	-45.2	-57.8	3.8	1.49e+00	0	57	104	847249408	61	15825
2026-01-10 10:42:26.57	338.58	7.07	-45.1	-57.7	3.8	1.49e+00	0	57	104	847249408	60	16616
2026-01-10 10:42:28.59	338.66	6.92	-45.1	-57.6	3.8	1.49e+00	0	57	104	847249408	60	16497
2026-01-10 10:42:30.61	338.74	6.77	-45.1	-57.7	3.8	1.49e+00	0	57	104	847249408	60	16551
2026-01-10 10:42:32.64	338.81	6.62	-45.1	-57.6	3.8	1.49e+00	0	57	104	847249408	60	16485
2026-01-10 10:42:34.66	338.89	6.47	-45.1	-57.6	3.8	1.49e+00	0	57	104	847249408	60	16483
2026-01-10 10:42:36.68	338.97	6.32	-45.0	-57.6	3.8	1.49e+00	0	57	104	847249408	60	16420
2026-01-10 10:42:38.70	339.04	6.18	-45.0	-57.6	3.8	1.49e+00	0	58	104	847249408	60	16482
2026-01-10 10:42:40.72	339.12	6.03	-45.0	-57.6	3.8	1.49e+00	0	57	104	847249408	60	16465
2026-01-10 10:42:42.75	339.19	5.89	-45.0	-57.6	3.8	1.49e+00	0	57	104	847249408	60	16438
2026-01-10 10:42:44.77	339.27	5.74	-45.0	-57.6	3.8	1.49e+00	0	57	104	847249408	60	16434
2026-01-10 10:42:46.79	339.34	5.60	-45.0	-57.6	3.8	1.49e+00	0	57	104	847249408	60	16457
2026-01-10 10:42:48.81	339.41	5.46	-45.0	-57.6	3.8	1.49e+00	0	57	104	847249408	60	16456
2026-01-10 10:42:50.83	339.48	5.32	-45.0	-57.6	3.8	1.49e+00	0	57	104	847249408	60	16360
2026-01-10 10:42:52.85	339.55	5.17	-45.0	-57.6	3.8	1.49e+00	0	57	104	847249408	60	16412
2026-01-10 10:42:54.88	339.62	5.03	-45.0	-57.6	3.8	1.49e+00	0	57	104	847249408	60	16411
2026-01-10 10:42:56.90	339.69	4.89	-45.0	-57.6	3.8	1.49e+00	0	57	104	847249408	60	16399
2026-01-10 10:42:58.92	339.76	4.76	-45.0	-57.6	3.8	1.49e+00	0	57	104	847249408	60	16355
2026-01-10 10:43:00.94	339.83	4.62	-45.0	-57.6	3.8	1.49e+00	0	57	104	847249408	60	16361
2026-01-10 10:43:02.96	339.90	4.48	-45.0	-57.6	3.8	1.49e+00	0	57	104	847249408	60	16353
2026-01-10 10:43:04.98	339.97	4.34	-45.0	-57.6	3.8	1.49e+00	0	58	104	847249408	60	16349
2026-01-10 10:43:07.01	340.03	4.21	-45.0	-57.5	3.8	1.49e+00	0	57	104	847249408	60	16301
2026-01-10 10:43:09.03	340.10	4.07	-45.0	-57.6	3.8	1.49e+00	0	58	104	847249408	60	16347
2026-01-10 10:43:11.05	340.17	3.94	-45.0	-57.6	3.8	1.49e+00	0	57	104	847249408	60	16322
2026-01-10 10:43:13.07	340.23	3.80	-45.0	-57.6	3.8	1.49e+00	0	57	104	847249408	60	16327
2026-01-10 10:43:15.09	340.30	3.67	-45.0	-57.6	3.8	1.49e+00	0	57	104	847249408	60	16352
2026-01-10 10:43:17.12	340.36	3.53	-45.0	-57.5	3.8	1.49e+00	0	57	104	847249408	60	16243
2026-01-10 10:43:19.14	340.43	3.40	-45.0	-57.6	3.8	1.49e+00	0	57	104	847249408	60	16327
2026-01-10 10:43:21.16	340.49	3.27	-45.0	-57.6	3.8	1.49e+00	0	57	104	847249408	60	16332
2026-01-10 10:43:23.18	340.55	3.14	-45.0	-57.6	3.8	1.49e+00	0	58	104	847249408	60	16326
2026-01-10 10:43:25.20	340.61	3.01	-45.0	-57.6	3.8	1.49e+00	0	58	104	847249408	60	16330
2026-01-10 10:43:27.22	340.68	2.88	-45.0	-57.5	3.8	1.49e+00	0	57	104	847249408	60	16314
2026-01-10 10:43:29.24	340.74	2.75	-45.0	-57.5	3.8	1.49e+00	0	57	104	847249408	60	16278
2026-01-10 10:43:31.26	340.80	2.62	-45.0	-57.6	3.8	1.49e+00	0	57	104	847249408	60	16330
2026-01-10 10:43:33.29	340.86	2.49	-44.9	-57.6	3.8	1.49e+00	0	58	104	847249408	60	16325
2026-01-10 10:43:35.31	340.92	2.37	-45.0	-57.6	3.8	1.49e+00	0	58	104	847249408	60	16336
2026-01-10 10:43:37.33	340.98	2.24	-45.0	-57.6	3.8	1.49e+00	0	57	104	847249408	60	16336
2026-01-10 10:43:39.35	341.04	2.11	-45.0	-57.6	3.8	1.49e+00	0	57	104	847249408	60	16365

#Closed at: 2026-01-10 10:43:41
#Recorded file [847 MB]: D:/lorett/data/31039_260110_133655.dat