passes_logs/2026/01/10/R2.0S_Moscow/R2.0S_Moscow__20260110_093919_NOAA_20_JPSS-1_rec.log

#Pass ID: 20260110_093919_NOAA 20 (JPSS-1)
#Satellite: NOAA 20 (JPSS-1)
#Configuration: NOAA 20
#almurnet v.1.7.20251203
#Start time: 2026-01-10 09:39:19

#Version: 2.2.20231116
#Station: R2.0S_Moscow
#Location: 37.707566 lon 55.798166 lat
#TLE: 1 43013U 17073A   26009.26828276  .00000112  00000+0  74203-4 0  9990
#TLE: 2 43013  98.7631 310.2683 0001700  47.4387 312.6933 14.19534764421920

#Time	Az	El	Level	Level2	SNR	BER	BlckErr	Temp	State	Recorded	gain1	gain2
2026-01-10 09:39:19.30	152.89	2.01	-43.8	-58.2	3.8	1.49e+00	0	47	0	0	58	19705
2026-01-10 09:39:23.32	152.85	2.27	-43.6	-58.2	3.8	1.49e+00	0	47	104	0	59	18553
2026-01-10 09:39:27.36	152.81	2.53	-43.8	-58.2	3.8	1.49e+00	0	48	104	0	58	19695
2026-01-10 09:39:31.39	152.77	2.80	-43.8	-58.2	3.8	1.49e+00	0	48	104	0	58	19672
2026-01-10 09:39:35.43	152.73	3.06	-43.7	-58.2	3.8	1.49e+00	0	48	104	0	58	19683
2026-01-10 09:39:39.46	152.69	3.33	-43.7	-58.2	3.8	1.49e+00	0	49	104	0	58	19692
2026-01-10 09:39:43.50	152.65	3.61	-43.7	-58.2	3.8	1.49e+00	0	49	104	0	58	19660
2026-01-10 09:39:47.53	152.60	3.88	-43.7	-58.2	3.8	1.49e+00	0	49	104	0	58	19624
2026-01-10 09:39:51.57	152.56	4.16	-43.7	-58.2	3.8	1.49e+00	0	49	104	0	58	19655
2026-01-10 09:39:55.60	152.51	4.44	-43.7	-58.2	3.8	1.49e+00	0	50	104	0	58	19689
2026-01-10 09:39:59.65	152.47	4.73	-43.7	-58.1	3.8	1.49e+00	0	50	104	0	58	19605
2026-01-10 09:40:03.68	152.42	5.02	-43.7	-58.1	3.8	1.49e+00	0	50	104	0	58	19583
2026-01-10 09:40:07.72	152.37	5.31	-43.7	-57.9	3.8	1.49e+00	0	50	104	0	58	19107
2026-01-10 09:40:11.76	152.32	5.60	-43.7	-57.7	3.8	1.49e+00	0	51	104	0	58	18537
2026-01-10 09:40:15.79	152.27	5.90	-43.7	-57.6	3.8	1.49e+00	0	51	104	0	58	18350
2026-01-10 09:40:19.82	152.22	6.20	-43.7	-57.9	3.8	1.49e+00	0	51	104	0	58	19040
2026-01-10 09:40:23.86	152.16	6.50	-43.7	-58.1	3.8	1.49e+00	0	51	104	0	58	19548
2026-01-10 09:40:27.90	152.11	6.81	-43.6	-56.5	3.8	1.49e+00	0	51	104	0	58	16301
2026-01-10 09:40:31.94	152.05	7.12	-43.3	-52.7	5.0	8.42e-01	0	51	0	2097152	58	10443
2026-01-10 09:40:35.97	151.99	7.44	-42.6	-49.0	7.8	9.42e-02	0	51	0	10485760	57	7260
2026-01-10 09:40:40.00	151.93	7.76	-42.0	-47.1	9.8	1.39e-02	0	52	0	17825792	56	6180
2026-01-10 09:40:44.03	151.87	8.08	-41.6	-46.5	10.2	6.72e-03	0	52	0	25165824	55	6100
2026-01-10 09:40:48.07	151.81	8.41	-42.2	-47.6	9.3	6.05e-04	0	52	0	28311552	55	6911
2026-01-10 09:40:52.10	151.74	8.74	-40.8	-44.4	12.5	1.50e-04	0	52	0	34603008	53	5400
2026-01-10 09:40:56.14	151.68	9.08	-40.8	-44.5	12.6	7.62e-05	0	52	0	41943040	53	5419
2026-01-10 09:41:00.17	151.61	9.42	-40.8	-44.3	12.8	6.33e-05	0	52	0	49283072	53	5315
2026-01-10 09:41:04.20	151.54	9.76	-40.7	-44.2	13.0	4.88e-05	0	52	0	57671680	53	5235
2026-01-10 09:41:08.23	151.46	10.11	-40.7	-44.1	13.2	1.60e-05	0	53	0	65011712	53	5183
2026-01-10 09:41:12.27	151.39	10.47	-40.6	-43.9	13.5	1.52e-05	0	53	0	72351744	53	5054
2026-01-10 09:41:16.30	151.31	10.83	-40.6	-43.8	13.5	1.22e-05	0	53	0	79691776	53	5035
2026-01-10 09:41:20.33	151.24	11.19	-40.6	-43.8	13.6	5.30e-06	0	53	0	87031808	53	4994
2026-01-10 09:41:24.35	151.16	11.56	-40.6	-43.7	13.8	5.30e-06	0	53	0	95420416	53	4961
2026-01-10 09:41:28.38	151.07	11.94	-40.6	-43.6	13.9	3.80e-06	0	53	0	102760448	53	4921
2026-01-10 09:41:32.41	150.99	12.32	-40.6	-43.6	14.0	2.20e-06	0	53	0	110100480	52	5191
2026-01-10 09:41:36.43	150.90	12.71	-40.5	-43.5	14.1	7.00e-07	0	53	0	117440512	52	5142
2026-01-10 09:41:40.47	150.81	13.10	-40.5	-43.4	14.3	1.50e-06	0	53	0	125829120	52	5084
2026-01-10 09:41:44.50	150.72	13.50	-40.3	-43.1	14.6	7.00e-07	0	53	0	133169152	52	4922
2026-01-10 09:41:48.53	150.62	13.91	-40.3	-43.1	14.6	0.00e+00	0	53	0	140509184	52	4905
2026-01-10 09:41:52.56	150.52	14.32	-40.4	-43.2	14.5	1.50e-06	0	54	0	147849216	52	4960
2026-01-10 09:41:56.59	150.42	14.75	-40.2	-42.9	14.9	0.00e+00	0	54	0	155189248	52	4807
2026-01-10 09:42:00.62	150.31	15.17	-40.3	-43.0	14.8	0.00e+00	0	54	0	163577856	52	4848
2026-01-10 09:42:04.64	150.21	15.61	-40.2	-43.0	14.9	0.00e+00	0	54	0	170917888	52	4826
2026-01-10 09:42:08.67	150.09	16.05	-40.2	-43.0	14.9	0.00e+00	0	54	0	178257920	52	4826
2026-01-10 09:42:12.69	149.98	16.50	-40.1	-42.7	15.2	0.00e+00	0	54	0	185597952	52	4663
2026-01-10 09:42:16.72	149.86	16.97	-40.0	-42.6	15.3	7.00e-07	0	54	0	192937984	52	4624
2026-01-10 09:42:20.75	149.73	17.43	-40.1	-42.7	15.2	0.00e+00	0	54	0	200278016	52	4694
2026-01-10 09:42:24.78	149.61	17.91	-40.1	-42.7	15.3	0.00e+00	0	54	0	208666624	52	4681
2026-01-10 09:42:28.81	149.47	18.40	-40.0	-42.5	15.5	0.00e+00	0	54	0	216006656	52	4573
2026-01-10 09:42:32.84	149.33	18.90	-40.1	-42.6	15.5	0.00e+00	0	54	0	223346688	51	4905
2026-01-10 09:42:36.87	149.19	19.41	-40.1	-42.6	15.5	0.00e+00	0	54	0	230686720	51	4913
2026-01-10 09:42:40.91	149.04	19.92	-40.0	-42.4	15.7	0.00e+00	0	54	0	239075328	51	4806
2026-01-10 09:42:44.94	148.89	20.45	-39.9	-42.3	15.9	0.00e+00	0	54	0	246415360	51	4734
2026-01-10 09:42:48.97	148.73	20.99	-40.1	-42.5	15.7	0.00e+00	0	54	0	253755392	51	4854
2026-01-10 09:42:52.99	148.57	21.54	-40.0	-42.4	15.8	0.00e+00	0	54	0	261095424	51	4808
2026-01-10 09:42:57.02	148.40	22.11	-39.8	-42.1	16.1	0.00e+00	0	54	0	268435456	51	4620
2026-01-10 09:43:01.05	148.22	22.68	-39.9	-42.2	16.0	0.00e+00	0	54	0	276824064	51	4699
2026-01-10 09:43:05.07	148.03	23.27	-40.2	-42.7	15.6	0.00e+00	0	55	0	284164096	51	4957
2026-01-10 09:43:09.10	147.84	23.87	-40.1	-42.6	15.7	0.00e+00	0	54	0	291504128	51	4893
2026-01-10 09:43:13.12	147.64	24.48	-40.4	-42.9	15.4	7.00e-07	0	55	0	298844160	51	5085
2026-01-10 09:43:17.15	147.43	25.12	-40.6	-43.2	15.1	0.00e+00	0	55	0	306184192	51	5260
2026-01-10 09:43:21.18	147.21	25.76	-40.7	-43.4	14.8	0.00e+00	0	55	0	314572800	52	5085
2026-01-10 09:43:25.21	146.98	26.42	-41.0	-44.0	14.3	1.50e-06	0	55	0	321912832	52	5423
2026-01-10 09:43:29.24	146.74	27.10	-41.3	-44.4	13.9	2.20e-06	0	55	0	329252864	53	5351
2026-01-10 09:43:33.26	146.49	27.79	-41.6	-44.9	13.3	9.10e-06	0	55	0	336592896	53	5718
2026-01-10 09:43:37.29	146.23	28.50	-41.9	-45.5	12.8	7.17e-05	0	55	0	343932928	54	5756
2026-01-10 09:43:41.32	145.96	29.23	-42.1	-45.9	12.3	1.59e-04	0	55	0	352321536	54	6035
2026-01-10 09:43:45.35	145.67	29.97	-42.4	-46.6	11.7	6.05e-04	0	55	0	359661568	55	6147
2026-01-10 09:43:49.37	145.37	30.74	-42.5	-46.6	11.6	6.97e-04	0	55	0	367001600	55	6164
2026-01-10 09:43:53.40	145.05	31.52	-42.9	-47.3	11.0	1.83e-03	0	55	0	374341632	56	6330
2026-01-10 09:43:57.44	144.72	32.33	-43.1	-47.9	10.5	3.64e-03	0	55	0	381681664	56	6778
2026-01-10 09:44:01.48	144.37	33.16	-43.3	-48.3	10.1	5.93e-03	0	55	0	390070272	57	6695
2026-01-10 09:44:05.51	144.00	34.01	-43.4	-48.6	9.8	9.12e-03	0	55	0	397410304	57	6904
2026-01-10 09:44:09.55	143.60	34.88	-43.1	-47.8	10.6	4.05e-03	0	55	0	404750336	57	6307
2026-01-10 09:44:13.58	143.19	35.77	-42.8	-47.1	11.4	1.57e-03	0	55	0	412090368	57	5850
2026-01-10 09:44:17.61	142.75	36.69	-43.0	-47.5	10.9	1.82e-03	0	55	0	420478976	57	6118
2026-01-10 09:44:21.63	142.29	37.63	-43.4	-48.6	9.8	8.21e-03	0	55	0	427819008	57	6921
2026-01-10 09:44:25.66	141.80	38.60	-43.3	-48.3	10.1	7.07e-03	0	55	0	435159040	57	6690
2026-01-10 09:44:29.68	141.28	39.59	-43.3	-48.3	10.2	6.93e-03	0	55	0	442499072	57	6671
2026-01-10 09:44:33.71	140.72	40.61	-43.1	-47.8	10.7	3.28e-03	0	55	0	449839104	57	6304
2026-01-10 09:44:37.74	140.12	41.65	-42.9	-47.3	11.2	1.38e-03	0	55	0	457179136	57	5965
2026-01-10 09:44:41.77	139.49	42.73	-42.6	-46.5	12.1	3.58e-04	0	55	0	465567744	57	5416
2026-01-10 09:44:45.81	138.80	43.83	-42.4	-46.1	12.5	1.07e-04	0	55	0	472907776	56	5504
2026-01-10 09:44:49.84	138.07	44.95	-41.7	-45.1	13.4	1.52e-05	0	55	0	480247808	55	5175
2026-01-10 09:44:53.87	137.29	46.11	-41.3	-44.3	14.2	3.00e-06	0	55	0	487587840	54	4993
2026-01-10 09:44:57.91	136.44	47.29	-41.2	-44.1	14.4	1.50e-06	0	55	0	495976448	54	4874
2026-01-10 09:45:01.94	135.52	48.49	-41.2	-44.0	14.5	0.00e+00	0	55	0	503316480	54	4868
2026-01-10 09:45:05.97	134.53	49.72	-41.2	-44.1	14.4	3.00e-06	0	55	0	510656512	54	4895
2026-01-10 09:45:10.00	133.45	50.98	-40.5	-43.0	15.4	0.00e+00	0	55	0	517996544	53	4594
2026-01-10 09:45:14.03	132.28	52.26	-40.4	-42.9	15.6	0.00e+00	0	55	0	525336576	52	4778
2026-01-10 09:45:18.06	131.00	53.55	-40.3	-42.7	15.7	0.00e+00	0	55	0	533725184	52	4687
2026-01-10 09:45:22.08	129.60	54.86	-40.5	-43.1	15.4	0.00e+00	0	55	0	541065216	52	4877
2026-01-10 09:45:26.12	128.06	56.20	-41.6	-44.8	13.7	3.00e-06	0	56	0	548405248	53	5621
2026-01-10 09:45:30.15	126.36	57.54	-42.6	-46.9	11.4	7.29e-04	0	56	0	555745280	55	6400
2026-01-10 09:45:34.19	124.49	58.88	-42.7	-46.9	11.5	1.67e-03	0	55	0	563085312	57	5720
2026-01-10 09:45:38.22	122.41	60.22	-41.8	-45.1	13.3	3.05e-05	0	55	0	571473920	55	5194
2026-01-10 09:45:42.25	120.11	61.55	-41.1	-43.9	14.4	7.00e-07	0	55	0	578813952	54	4802
2026-01-10 09:45:46.28	117.54	62.87	-40.1	-42.5	16.0	0.00e+00	0	55	0	586153984	51	4833
2026-01-10 09:45:50.31	114.68	64.15	-40.6	-43.2	15.2	0.00e+00	0	55	0	593494016	52	4971
2026-01-10 09:45:54.35	111.48	65.39	-41.3	-44.4	14.0	0.00e+00	0	56	0	600834048	53	5362
2026-01-10 09:45:58.38	107.92	66.57	-42.5	-46.7	11.7	5.65e-04	0	55	0	609222656	55	6229
2026-01-10 09:46:02.40	103.96	67.68	-42.5	-46.6	11.8	6.91e-04	0	55	0	616562688	55	6145
2026-01-10 09:46:06.43	99.56	68.68	-42.0	-45.6	12.8	9.61e-05	0	56	0	623902720	55	5495
2026-01-10 09:46:10.47	94.71	69.57	-41.1	-44.1	14.3	2.20e-06	0	56	0	631242752	54	4886
2026-01-10 09:46:14.51	89.42	70.32	-41.4	-44.6	13.8	5.30e-06	0	56	0	639631360	53	5490
2026-01-10 09:46:18.54	83.75	70.90	-41.3	-44.4	14.0	7.00e-07	0	56	0	646971392	53	5383
2026-01-10 09:46:22.58	77.74	71.30	-41.4	-44.5	13.9	2.20e-06	0	55	0	654311424	53	5444
2026-01-10 09:46:26.60	71.56	71.50	-41.6	-45.0	13.4	1.22e-05	0	55	0	661651456	53	5726
2026-01-10 09:46:30.63	65.31	71.48	-41.3	-44.3	14.1	3.00e-06	0	55	0	668991488	53	5307
2026-01-10 09:46:34.65	59.15	71.27	-41.0	-43.9	14.6	2.20e-06	0	56	0	677380096	53	5042
2026-01-10 09:46:38.68	53.19	70.85	-41.1	-44.1	14.3	1.50e-06	0	55	0	684720128	53	5187
2026-01-10 09:46:42.70	47.57	70.25	-42.0	-45.6	12.8	2.97e-05	0	56	0	692060160	54	5800
2026-01-10 09:46:46.73	42.34	69.49	-43.1	-47.8	10.7	1.74e-03	0	56	0	699400192	56	6714
2026-01-10 09:46:50.75	37.56	68.59	-42.8	-47.0	11.5	7.71e-04	0	56	0	706740224	56	6129
2026-01-10 09:46:54.78	33.21	67.58	-43.2	-47.9	10.7	5.66e-03	0	56	0	715128832	57	6354
2026-01-10 09:46:58.80	29.30	66.47	-42.4	-46.3	12.3	2.33e-04	0	56	0	722468864	56	5625
2026-01-10 09:47:02.83	25.78	65.29	-40.8	-43.6	15.0	0.00e+00	0	55	0	729808896	53	4879
2026-01-10 09:47:06.86	22.62	64.05	-40.1	-42.5	16.1	0.00e+00	0	56	0	737148928	52	4569
2026-01-10 09:47:10.89	19.80	62.76	-40.1	-42.5	16.2	0.00e+00	0	55	0	744488960	51	4820
2026-01-10 09:47:14.92	17.26	61.45	-40.6	-43.2	15.3	0.00e+00	0	55	0	752877568	52	4982
2026-01-10 09:47:18.96	14.98	60.12	-41.1	-44.0	14.7	7.00e-07	0	55	0	760217600	52	5417
2026-01-10 09:47:22.99	12.92	58.78	-42.2	-45.9	12.6	1.03e-04	0	56	0	767557632	55	5697
2026-01-10 09:47:27.02	11.07	57.44	-42.6	-46.7	11.6	4.80e-04	0	56	0	774897664	55	6271
2026-01-10 09:47:31.05	9.39	56.11	-41.6	-44.9	13.7	6.80e-06	0	56	0	782237696	55	5071
2026-01-10 09:47:35.08	7.87	54.79	-40.6	-43.1	15.3	0.00e+00	0	56	0	790626304	53	4645
2026-01-10 09:47:39.11	6.48	53.48	-40.3	-42.8	15.8	0.00e+00	0	56	0	797966336	51	4999
2026-01-10 09:47:43.14	5.22	52.19	-40.5	-43.0	15.5	1.50e-06	0	56	0	805306368	51	5148
2026-01-10 09:47:47.17	4.05	50.92	-41.6	-44.8	13.7	6.80e-06	0	56	0	812646400	53	5638
2026-01-10 09:47:51.20	2.99	49.67	-42.2	-46.0	12.5	8.77e-05	0	56	0	819986432	54	6079
2026-01-10 09:47:55.24	2.00	48.44	-42.3	-46.2	12.2	1.25e-04	0	56	0	828375040	55	5903
2026-01-10 09:47:59.26	1.10	47.25	-42.2	-45.9	12.5	1.44e-04	0	56	0	835715072	55	5716
2026-01-10 09:48:03.29	0.26	46.07	-42.1	-45.7	12.7	4.42e-05	0	56	0	843055104	55	5585
2026-01-10 09:48:07.31	359.48	44.93	-42.1	-45.9	12.5	1.12e-04	0	56	0	850395136	55	5687
2026-01-10 09:48:11.33	358.76	43.81	-42.0	-45.6	12.8	6.79e-05	0	56	0	857735168	55	5502
2026-01-10 09:48:15.36	358.08	42.72	-42.9	-47.3	11.2	1.09e-03	0	56	0	866123776	56	6283
2026-01-10 09:48:19.40	357.45	41.65	-42.8	-47.2	11.4	9.16e-04	0	56	0	873463808	56	6234
2026-01-10 09:48:23.43	356.86	40.62	-42.8	-47.1	11.3	1.18e-03	0	56	0	880803840	56	6197
2026-01-10 09:48:27.46	356.31	39.60	-42.6	-46.6	11.9	3.52e-04	0	56	0	888143872	56	5818
2026-01-10 09:48:31.50	355.79	38.61	-42.0	-45.6	12.8	7.70e-05	0	56	0	896532480	55	5486
2026-01-10 09:48:35.53	355.30	37.65	-42.1	-45.7	12.6	9.15e-05	0	56	0	903872512	55	5592
2026-01-10 09:48:39.56	354.84	36.72	-41.9	-45.5	12.8	5.41e-05	0	56	0	911212544	55	5443
2026-01-10 09:48:43.58	354.41	35.81	-42.3	-46.4	11.8	4.15e-04	0	56	0	918552576	55	6007
2026-01-10 09:48:47.61	354.00	34.92	-42.3	-46.3	12.0	2.51e-04	0	56	0	925892608	55	5925
2026-01-10 09:48:51.64	353.61	34.05	-42.4	-46.7	11.5	8.47e-04	0	56	0	933232640	55	6206
2026-01-10 09:48:55.66	353.25	33.21	-42.7	-47.2	11.0	1.49e-03	0	56	0	941621248	55	6590
2026-01-10 09:48:59.69	352.90	32.39	-42.4	-46.7	11.5	9.84e-04	0	56	0	948961280	55	6217
2026-01-10 09:49:03.72	352.57	31.59	-42.6	-47.0	11.2	1.25e-03	0	56	0	956301312	55	6425
2026-01-10 09:49:07.75	352.26	30.81	-42.9	-47.6	10.7	3.05e-03	0	56	0	963641344	56	6511
2026-01-10 09:49:11.78	351.96	30.04	-42.9	-47.5	10.7	3.09e-03	0	56	0	972029952	56	6484
2026-01-10 09:49:15.81	351.68	29.30	-42.6	-47.0	11.2	1.39e-03	0	56	0	979369984	56	6104
2026-01-10 09:49:19.84	351.40	28.58	-42.6	-47.0	11.3	1.25e-03	0	56	0	986710016	56	6071
2026-01-10 09:49:23.86	351.15	27.87	-42.3	-46.4	11.9	4.58e-04	0	56	0	994050048	56	5665
2026-01-10 09:49:27.89	350.90	27.18	-42.1	-45.9	12.3	2.14e-04	0	56	0	1001390080	56	5359
2026-01-10 09:49:31.92	350.66	26.51	-41.9	-45.7	12.3	1.66e-04	0	56	0	1009778688	55	5540
2026-01-10 09:49:35.95	350.44	25.85	-41.8	-45.6	12.4	1.53e-04	0	56	0	1017118720	55	5488
2026-01-10 09:49:39.98	350.22	25.21	-41.6	-45.4	12.6	1.15e-04	0	56	0	1024458752	55	5347
2026-01-10 09:49:44.01	350.02	24.59	-41.5	-45.1	12.8	7.17e-05	0	56	0	1031798784	54	5505
2026-01-10 09:49:48.04	349.82	23.97	-41.2	-44.6	13.2	2.21e-05	0	56	0	1039138816	54	5203
2026-01-10 09:49:52.07	349.63	23.37	-41.0	-44.6	13.0	2.67e-05	0	56	0	1047527424	53	5465
2026-01-10 09:49:56.10	349.45	22.79	-40.9	-44.7	12.4	1.31e-04	0	56	0	1054867456	53	5583
2026-01-10 09:50:00.12	349.27	22.22	-40.4	-44.1	12.6	8.31e-05	0	56	0	1062207488	52	5517
2026-01-10 09:50:04.15	349.10	21.66	-40.8	-45.5	10.8	1.61e-03	0	56	0	1069547520	52	6484
2026-01-10 09:50:08.18	348.94	21.11	-41.6	-49.6	6.1	1.82e-01	0	56	0	1076887552	53	9812
2026-01-10 09:50:12.21	348.79	20.57	-41.2	-53.8	3.8	1.49e+00	0	56	104	1081081856	53	15845
2026-01-10 09:50:16.24	348.64	20.05	-40.5	-54.9	3.8	1.49e+00	0	56	104	1081081856	53	17945
2026-01-10 09:50:20.27	348.49	19.53	-40.7	-55.2	3.8	1.49e+00	0	56	104	1081081856	52	19761
2026-01-10 09:50:24.30	348.35	19.03	-40.4	-55.2	3.8	1.49e+00	0	56	104	1081081856	52	19841
2026-01-10 09:50:28.33	348.22	18.53	-40.6	-55.2	3.8	1.49e+00	0	56	104	1081081856	52	19690
2026-01-10 09:50:32.37	348.09	18.04	-40.6	-55.3	3.8	1.49e+00	0	56	104	1081081856	53	18832
2026-01-10 09:50:36.41	347.96	17.57	-40.7	-55.2	3.8	1.49e+00	0	56	104	1081081856	53	18640
2026-01-10 09:50:40.44	347.84	17.10	-41.4	-56.0	3.8	1.49e+00	0	56	104	1081081856	53	20517
2026-01-10 09:50:44.48	347.73	16.64	-40.9	-55.5	3.8	1.49e+00	0	56	104	1081081856	53	19196
2026-01-10 09:50:48.51	347.61	16.19	-41.4	-56.0	3.8	1.49e+00	0	56	104	1081081856	53	20520
2026-01-10 09:50:52.54	347.50	15.75	-41.3	-56.0	3.8	1.49e+00	0	56	104	1081081856	53	20345
2026-01-10 09:50:56.58	347.40	15.31	-41.4	-56.0	3.8	1.49e+00	0	56	104	1081081856	53	20506
2026-01-10 09:51:00.62	347.30	14.88	-41.2	-55.9	3.8	1.49e+00	0	56	104	1081081856	53	20176
2026-01-10 09:51:04.66	347.20	14.46	-41.4	-56.1	3.8	1.49e+00	0	56	104	1081081856	53	20573
2026-01-10 09:51:08.70	347.10	14.05	-41.1	-55.7	3.8	1.49e+00	0	56	104	1081081856	53	19811
2026-01-10 09:51:12.74	347.01	13.64	-41.2	-55.9	3.8	1.49e+00	0	56	104	1081081856	53	20097
2026-01-10 09:51:16.77	346.92	13.24	-40.9	-55.6	3.8	1.49e+00	0	56	104	1081081856	53	19603
2026-01-10 09:51:20.81	346.83	12.85	-41.0	-55.6	3.8	1.49e+00	0	56	104	1081081856	53	19523
2026-01-10 09:51:24.85	346.75	12.46	-40.9	-55.5	3.8	1.49e+00	0	56	104	1081081856	53	19313
2026-01-10 09:51:28.88	346.67	12.08	-40.8	-55.4	3.8	1.49e+00	0	56	104	1081081856	53	19041
2026-01-10 09:51:32.91	346.59	11.71	-40.9	-55.4	3.8	1.49e+00	0	56	104	1081081856	53	19129
2026-01-10 09:51:36.95	346.51	11.34	-40.6	-55.2	3.8	1.49e+00	0	56	104	1081081856	53	18579
2026-01-10 09:51:40.98	346.44	10.97	-40.8	-55.3	3.8	1.49e+00	0	56	104	1081081856	53	18819
2026-01-10 09:51:45.01	346.37	10.62	-40.5	-55.1	3.8	1.49e+00	0	56	104	1081081856	53	18423
2026-01-10 09:51:49.05	346.30	10.26	-40.7	-55.3	3.8	1.49e+00	0	56	104	1081081856	53	18942
2026-01-10 09:51:53.08	346.23	9.91	-40.4	-54.9	3.8	1.49e+00	0	56	104	1081081856	52	19159
2026-01-10 09:51:57.12	346.16	9.57	-40.4	-54.9	3.8	1.49e+00	0	56	104	1081081856	52	19063
2026-01-10 09:52:01.16	346.10	9.23	-40.5	-55.0	3.8	1.49e+00	0	56	104	1081081856	52	19329
2026-01-10 09:52:05.19	346.04	8.89	-40.5	-55.0	3.8	1.49e+00	0	56	104	1081081856	52	19293
2026-01-10 09:52:09.22	345.98	8.56	-40.5	-55.1	3.8	1.49e+00	0	56	104	1081081856	52	19415
2026-01-10 09:52:13.25	345.92	8.24	-40.4	-55.0	3.8	1.49e+00	0	56	104	1081081856	52	19224
2026-01-10 09:52:17.29	345.86	7.92	-40.7	-55.3	3.8	1.49e+00	0	56	104	1081081856	52	20029
2026-01-10 09:52:21.32	345.81	7.60	-44.9	-59.6	3.8	1.49e+00	0	56	104	1081081856	60	20720
2026-01-10 09:52:25.36	345.75	7.28	-45.1	-59.9	3.8	1.49e+00	0	56	104	1081081856	60	21286
2026-01-10 09:52:29.40	345.70	6.97	-45.0	-59.8	3.8	1.49e+00	0	56	104	1081081856	60	21151
2026-01-10 09:52:33.44	345.65	6.67	-44.9	-59.7	3.8	1.49e+00	0	56	104	1081081856	60	21014
2026-01-10 09:52:37.48	345.60	6.36	-44.9	-59.7	3.8	1.49e+00	0	56	104	1081081856	60	20954
2026-01-10 09:52:41.51	345.55	6.06	-44.9	-59.7	3.8	1.49e+00	0	56	104	1081081856	60	20922
2026-01-10 09:52:45.55	345.51	5.77	-44.9	-59.7	3.8	1.49e+00	0	56	104	1081081856	60	20968
2026-01-10 09:52:49.58	345.46	5.47	-44.9	-59.7	3.8	1.49e+00	0	56	104	1081081856	60	20971
2026-01-10 09:52:53.61	345.42	5.19	-44.9	-59.7	3.8	1.49e+00	0	56	104	1081081856	60	20876
2026-01-10 09:52:57.65	345.37	4.90	-44.9	-59.7	3.8	1.49e+00	0	56	104	1081081856	60	20853
2026-01-10 09:53:01.69	345.33	4.61	-44.9	-59.7	3.8	1.49e+00	0	56	104	1081081856	60	20791
2026-01-10 09:53:05.72	345.29	4.33	-44.9	-59.7	3.8	1.49e+00	0	56	104	1081081856	60	20828
2026-01-10 09:53:09.76	345.25	4.06	-44.9	-59.7	3.8	1.49e+00	0	56	104	1081081856	60	20821
2026-01-10 09:53:13.79	345.21	3.78	-44.9	-59.7	3.8	1.49e+00	0	56	104	1081081856	60	20895
2026-01-10 09:53:17.83	345.18	3.51	-44.8	-59.7	3.8	1.49e+00	0	56	104	1081081856	60	20822
2026-01-10 09:53:21.86	345.14	3.24	-44.9	-59.7	3.8	1.49e+00	0	56	104	1081081856	60	20859
2026-01-10 09:53:25.89	345.10	2.97	-44.8	-59.7	3.8	1.49e+00	0	56	104	1081081856	60	20854
2026-01-10 09:53:29.93	345.07	2.71	-44.9	-59.7	3.8	1.49e+00	0	56	104	1081081856	60	20801
2026-01-10 09:53:33.96	345.04	2.45	-44.9	-59.7	3.8	1.49e+00	0	56	104	1081081856	60	20879
2026-01-10 09:53:37.99	345.00	2.19	-44.9	-59.7	3.8	1.49e+00	0	56	104	1081081856	60	20830
2026-01-10 09:53:42.02	344.97	1.93	-44.9	-59.7	3.8	1.49e+00	0	56	104	1081081856	60	20850

#Closed at: 2026-01-10 09:53:42
#Recorded file [1081 MB]: D:/lorett/data/31039_260110_123919.dat