passes_logs/2026/01/10/R2.0S_Moscow/R2.0S_Moscow__20260110_002805_FENGYUN_3D_rec.log

#Pass ID: 20260110_002805_FENGYUN 3D
#Satellite: FENGYUN 3D
#Configuration: FENGYUN 3D
#almurnet v.1.7.20251203
#Start time: 2026-01-10 00:28:08

#Version: 2.2.20231116
#Station: R2.0S_Moscow
#Location: 37.707566 lon 55.798166 lat
#TLE: 1 43010U 17072A   26009.29492227  .00000158  00000+0  96483-4 0  9996
#TLE: 2 43010  98.9936 341.0229 0002153 117.3665 242.7729 14.19694440422446

#Time	Az	El	Level	Level2	SNR	BER	BlckErr	Temp	State	Recorded	gain1	gain2
2026-01-10 00:28:08.16	24.02	2.13	-41.8	-54.1	3.8	8.46e-01	0	47	0	0	55	14694
2026-01-10 00:28:12.19	24.27	2.36	-41.8	-54.2	3.8	8.46e-01	0	47	104	0	54	15593
2026-01-10 00:28:16.21	24.52	2.59	-41.8	-54.2	3.8	8.47e-01	0	47	104	0	54	15590
2026-01-10 00:28:20.25	24.78	2.83	-41.8	-54.1	3.8	8.46e-01	0	47	104	0	54	15552
2026-01-10 00:28:24.29	25.04	3.07	-41.8	-54.1	3.8	8.47e-01	0	48	104	0	54	15552
2026-01-10 00:28:28.33	25.31	3.30	-41.8	-54.2	3.8	8.46e-01	0	48	104	0	54	15583
2026-01-10 00:28:32.37	25.58	3.54	-41.8	-54.1	3.8	8.46e-01	0	48	104	0	54	15532
2026-01-10 00:28:36.40	25.85	3.78	-41.8	-54.1	3.8	8.46e-01	0	49	104	0	54	15498
2026-01-10 00:28:40.44	26.13	4.03	-41.8	-54.1	3.8	8.46e-01	0	49	104	0	54	15520
2026-01-10 00:28:44.48	26.41	4.27	-41.8	-54.1	3.8	8.45e-01	0	49	104	0	54	15526
2026-01-10 00:28:48.51	26.70	4.52	-41.8	-54.1	3.8	8.47e-01	0	49	104	0	54	15523
2026-01-10 00:28:52.55	26.99	4.77	-41.8	-54.1	3.8	8.46e-01	0	50	104	0	54	15485
2026-01-10 00:28:56.59	27.28	5.02	-41.8	-54.1	3.8	8.45e-01	0	50	104	0	54	15481
2026-01-10 00:29:00.62	27.59	5.27	-41.8	-54.1	3.8	8.46e-01	0	50	104	0	54	15491
2026-01-10 00:29:04.66	27.89	5.52	-41.8	-54.1	3.8	8.46e-01	0	50	104	0	54	15499
2026-01-10 00:29:08.70	28.20	5.78	-41.8	-54.1	3.8	8.46e-01	0	51	104	0	54	15467
2026-01-10 00:29:12.73	28.52	6.03	-41.8	-54.1	3.8	8.46e-01	0	51	104	0	54	15455
2026-01-10 00:29:16.77	28.84	6.29	-41.8	-54.1	3.8	8.46e-01	0	51	104	0	54	15432
2026-01-10 00:29:20.80	29.17	6.55	-41.7	-53.7	3.8	8.47e-01	0	51	104	0	54	14774
2026-01-10 00:29:24.84	29.50	6.81	-41.7	-52.8	3.8	8.46e-01	0	51	104	0	54	13390
2026-01-10 00:29:28.88	29.84	7.08	-41.4	-50.2	4.3	8.35e-01	0	51	0	0	54	9942
2026-01-10 00:29:32.91	30.18	7.34	-41.5	-51.6	3.9	8.45e-01	0	51	104	0	54	11629
2026-01-10 00:29:36.95	30.53	7.61	-40.3	-45.5	7.3	1.82e-01	0	52	0	5242880	52	6453
2026-01-10 00:29:40.98	30.89	7.88	-38.6	-41.9	11.0	2.30e-03	0	52	0	28311552	49	5080
2026-01-10 00:29:45.03	31.25	8.16	-40.2	-51.4	3.8	5.72e-01	0	52	104	49283072	51	13545
2026-01-10 00:29:49.07	31.62	8.43	-37.4	-39.9	13.5	2.97e-05	0	52	0	67108864	46	4760
2026-01-10 00:29:53.10	31.99	8.71	-37.4	-39.7	13.8	4.50e-06	0	52	0	89128960	46	4666
2026-01-10 00:29:57.13	32.37	8.98	-37.3	-39.4	14.1	1.10e-06	0	52	0	112197632	46	4522
2026-01-10 00:30:01.15	32.76	9.26	-37.4	-39.6	14.0	4.50e-06	0	53	0	135266304	46	4634
2026-01-10 00:30:05.18	33.16	9.55	-37.5	-39.6	14.1	6.80e-06	0	53	0	157286400	46	4623
2026-01-10 00:30:09.20	33.56	9.83	-37.6	-39.7	14.1	1.10e-06	0	53	0	180355072	46	4663
2026-01-10 00:30:13.24	33.97	10.12	-37.7	-39.8	14.0	5.70e-06	0	53	0	202375168	46	4745
2026-01-10 00:30:17.28	34.39	10.41	-37.6	-39.7	14.3	2.20e-06	0	53	0	225443840	46	4658
2026-01-10 00:30:21.31	34.82	10.70	-37.3	-39.2	14.8	0.00e+00	0	53	0	248512512	46	4421
2026-01-10 00:30:25.35	35.26	10.99	-37.4	-39.3	14.7	0.00e+00	0	53	0	270532608	46	4488
2026-01-10 00:30:29.38	35.70	11.28	-37.3	-39.2	14.9	0.00e+00	0	53	0	293601280	46	4429
2026-01-10 00:30:33.41	36.15	11.58	-37.3	-39.1	15.0	0.00e+00	0	53	0	316669952	46	4359
2026-01-10 00:30:37.45	36.62	11.88	-37.1	-38.8	15.3	0.00e+00	0	54	0	338690048	46	4227
2026-01-10 00:30:41.49	37.09	12.18	-37.0	-38.7	15.5	1.10e-06	0	54	0	361758720	45	4410
2026-01-10 00:30:45.53	37.57	12.49	-37.0	-38.8	15.5	0.00e+00	0	54	0	384827392	45	4446
2026-01-10 00:30:49.56	38.06	12.79	-37.0	-38.7	15.5	0.00e+00	0	53	0	406847488	45	4436
2026-01-10 00:30:53.59	38.56	13.10	-36.7	-38.4	15.9	0.00e+00	0	54	0	429916160	45	4275
2026-01-10 00:30:57.61	39.06	13.41	-37.0	-38.7	15.6	0.00e+00	0	54	0	452984832	45	4424
2026-01-10 00:31:01.64	39.58	13.72	-36.8	-38.4	15.9	0.00e+00	0	54	0	475004928	45	4288
2026-01-10 00:31:05.67	40.12	14.03	-36.5	-38.1	16.2	0.00e+00	0	54	0	498073600	45	4139
2026-01-10 00:31:09.70	40.66	14.34	-36.5	-38.1	16.3	0.00e+00	0	54	0	520093696	44	4344
2026-01-10 00:31:13.74	41.21	14.66	-36.4	-38.0	16.3	0.00e+00	0	54	0	543162368	44	4328
2026-01-10 00:31:17.77	41.78	14.98	-36.3	-37.8	16.6	0.00e+00	0	54	0	566231040	44	4227
2026-01-10 00:31:21.80	42.35	15.30	-36.4	-37.9	16.4	0.00e+00	0	54	0	588251136	44	4285
2026-01-10 00:31:25.82	42.94	15.62	-36.1	-37.6	16.8	0.00e+00	0	54	0	611319808	44	4100
2026-01-10 00:31:29.85	43.54	15.94	-36.2	-37.7	16.7	0.00e+00	0	54	0	633339904	44	4179
2026-01-10 00:31:33.87	44.15	16.27	-36.2	-37.7	16.7	0.00e+00	0	54	0	656408576	44	4188
2026-01-10 00:31:37.90	44.78	16.59	-36.0	-37.5	16.9	0.00e+00	0	54	0	679477248	44	4093
2026-01-10 00:31:41.92	45.42	16.92	-35.8	-37.3	17.0	0.00e+00	0	54	0	701497344	43	4215
2026-01-10 00:31:45.95	46.07	17.24	-35.8	-37.2	17.1	0.00e+00	0	54	0	724566016	43	4191
2026-01-10 00:31:49.97	46.73	17.57	-35.6	-37.0	17.4	0.00e+00	0	54	0	746586112	43	4059
2026-01-10 00:31:54.00	47.42	17.90	-35.5	-36.9	17.4	0.00e+00	0	55	0	769654784	42	4287
2026-01-10 00:31:58.03	48.11	18.23	-35.6	-37.0	17.4	0.00e+00	0	55	0	792723456	42	4313
2026-01-10 00:32:02.06	48.82	18.56	-35.5	-36.9	17.5	0.00e+00	0	55	0	814743552	42	4257
2026-01-10 00:32:06.09	49.55	18.89	-35.2	-36.6	17.9	0.00e+00	0	55	0	837812224	42	4122
2026-01-10 00:32:10.12	50.29	19.22	-35.2	-36.6	17.8	0.00e+00	0	55	0	860880896	42	4122
2026-01-10 00:32:14.15	51.05	19.55	-35.4	-36.7	17.7	0.00e+00	0	55	0	882900992	42	4184
2026-01-10 00:32:18.19	51.83	19.88	-35.2	-36.5	18.0	0.00e+00	0	55	0	905969664	42	4074
2026-01-10 00:32:22.22	52.62	20.20	-35.1	-36.5	18.0	0.00e+00	0	55	0	927989760	42	4052
2026-01-10 00:32:26.26	53.42	20.53	-35.1	-36.4	18.0	0.00e+00	0	55	0	951058432	42	4049
2026-01-10 00:32:30.29	54.25	20.86	-35.1	-36.5	17.9	0.00e+00	0	55	0	974127104	42	4072
2026-01-10 00:32:34.32	55.09	21.18	-34.6	-35.8	18.6	0.00e+00	0	55	0	996147200	41	3989
2026-01-10 00:32:38.35	55.95	21.50	-34.8	-36.1	18.3	0.00e+00	0	55	0	1019215872	41	4128
2026-01-10 00:32:42.38	56.82	21.82	-34.7	-36.0	18.4	0.00e+00	0	55	0	1042284544	41	4089
2026-01-10 00:32:46.41	57.72	22.14	-34.8	-36.2	17.9	0.00e+00	0	55	0	1064304640	41	4187
2026-01-10 00:32:50.44	58.63	22.45	-34.7	-36.2	17.9	0.00e+00	0	55	0	1087373312	41	4155
2026-01-10 00:32:54.46	59.56	22.76	-34.2	-35.5	18.6	0.00e+00	0	55	0	1109393408	40	4093
2026-01-10 00:32:58.49	60.51	23.07	-34.6	-36.0	18.1	0.00e+00	0	55	0	1132462080	40	4326
2026-01-10 00:33:02.52	61.47	23.37	-34.0	-35.3	18.8	0.00e+00	0	55	0	1155530752	40	3993
2026-01-10 00:33:06.55	62.46	23.66	-34.3	-35.7	18.5	0.00e+00	0	55	0	1177550848	40	4165
2026-01-10 00:33:10.58	63.46	23.95	-34.0	-35.3	18.8	0.00e+00	0	55	0	1200619520	40	3988
2026-01-10 00:33:14.61	64.48	24.24	-34.2	-35.5	18.7	0.00e+00	0	55	0	1223688192	39	4332
2026-01-10 00:33:18.65	65.53	24.52	-34.1	-35.5	18.8	0.00e+00	0	55	0	1245708288	39	4293
2026-01-10 00:33:22.69	66.59	24.79	-34.1	-35.4	18.8	0.00e+00	0	55	0	1268776960	39	4272
2026-01-10 00:33:26.72	67.66	25.05	-34.1	-35.5	18.7	0.00e+00	0	55	0	1290797056	39	4306
2026-01-10 00:33:30.75	68.75	25.31	-34.1	-35.5	18.7	0.00e+00	0	55	0	1313865728	39	4308
2026-01-10 00:33:34.78	69.87	25.55	-34.0	-35.3	18.9	0.00e+00	0	55	0	1336934400	39	4205
2026-01-10 00:33:38.81	70.99	25.79	-33.8	-35.1	19.1	0.00e+00	0	55	0	1358954496	39	4104
2026-01-10 00:33:42.83	72.13	26.02	-33.9	-35.2	19.0	0.00e+00	0	55	0	1382023168	39	4163
2026-01-10 00:33:46.87	73.30	26.24	-33.9	-35.3	18.9	0.00e+00	0	55	0	1405091840	39	4196
2026-01-10 00:33:50.90	74.47	26.44	-33.9	-35.2	18.9	0.00e+00	0	55	0	1427111936	39	4189
2026-01-10 00:33:54.92	75.66	26.64	-33.9	-35.2	19.0	0.00e+00	0	55	0	1450180608	39	4177
2026-01-10 00:33:58.96	76.87	26.83	-33.9	-35.3	18.9	0.00e+00	0	55	0	1472200704	39	4198
2026-01-10 00:34:02.99	78.09	27.00	-33.8	-35.1	19.1	0.00e+00	0	55	0	1495269376	39	4103
2026-01-10 00:34:07.03	79.32	27.16	-33.6	-34.9	19.2	0.00e+00	0	56	0	1518338048	39	4051
2026-01-10 00:34:11.07	80.57	27.30	-33.6	-34.9	19.3	0.00e+00	0	56	0	1540358144	39	4031
2026-01-10 00:34:15.10	81.82	27.44	-33.6	-34.9	19.3	0.00e+00	0	55	0	1563426816	38	4243
2026-01-10 00:34:19.13	83.08	27.55	-33.8	-35.1	19.1	0.00e+00	0	55	0	1586495488	38	4356
2026-01-10 00:34:23.15	84.35	27.66	-33.9	-35.2	19.0	0.00e+00	0	55	0	1608515584	38	4438
2026-01-10 00:34:27.18	85.63	27.75	-33.8	-35.1	19.1	0.00e+00	0	56	0	1631584256	38	4377
2026-01-10 00:34:31.21	86.92	27.82	-33.6	-34.9	19.3	0.00e+00	0	56	0	1653604352	38	4248
2026-01-10 00:34:35.23	88.21	27.88	-33.7	-35.0	19.2	0.00e+00	0	56	0	1676673024	38	4302
2026-01-10 00:34:39.26	89.51	27.92	-33.6	-34.9	19.3	0.00e+00	0	55	0	1699741696	38	4269
2026-01-10 00:34:43.29	90.80	27.95	-33.8	-35.1	19.1	0.00e+00	0	56	0	1721761792	38	4374
2026-01-10 00:34:47.32	92.11	27.96	-33.6	-34.8	19.4	0.00e+00	0	56	0	1744830464	38	4238
2026-01-10 00:34:51.34	93.40	27.96	-33.7	-35.0	19.2	0.00e+00	0	56	0	1766850560	38	4320
2026-01-10 00:34:55.37	94.71	27.94	-33.6	-34.9	19.4	0.00e+00	0	56	0	1789919232	38	4246
2026-01-10 00:34:59.39	96.00	27.91	-33.8	-35.1	19.1	0.00e+00	0	56	0	1812987904	38	4365
2026-01-10 00:35:03.42	97.30	27.86	-33.9	-35.2	19.1	0.00e+00	0	56	0	1835008000	38	4401
2026-01-10 00:35:07.44	98.58	27.79	-33.8	-35.1	19.1	0.00e+00	0	56	0	1858076672	38	4369
2026-01-10 00:35:11.47	99.87	27.71	-33.7	-35.0	19.3	0.00e+00	0	56	0	1880096768	38	4313
2026-01-10 00:35:15.50	101.15	27.62	-33.8	-35.1	19.2	0.00e+00	0	56	0	1903165440	38	4360
2026-01-10 00:35:19.53	102.42	27.51	-33.7	-35.0	19.3	0.00e+00	0	56	0	1926234112	38	4336
2026-01-10 00:35:23.55	103.68	27.38	-33.6	-34.8	19.5	0.00e+00	0	56	0	1948254208	38	4230
2026-01-10 00:35:27.58	104.93	27.25	-34.0	-35.3	19.0	0.00e+00	0	56	0	1971322880	38	4491
2026-01-10 00:35:31.61	106.17	27.09	-33.9	-35.2	19.1	0.00e+00	0	56	0	1994391552	38	4421
2026-01-10 00:35:35.65	107.40	26.93	-34.0	-35.4	19.0	0.00e+00	0	56	0	2016411648	38	4495
2026-01-10 00:35:39.68	108.62	26.75	-33.8	-35.1	19.2	0.00e+00	0	56	0	2039480320	38	4366
2026-01-10 00:35:43.71	109.82	26.56	-34.0	-35.4	19.0	0.00e+00	0	56	0	2061500416	38	4497
2026-01-10 00:35:47.74	111.01	26.36	-34.1	-35.4	18.9	0.00e+00	0	56	0	2084569088	38	4530
2026-01-10 00:35:51.77	112.18	26.15	-34.1	-35.5	18.8	0.00e+00	0	56	0	2107637760	38	4565
2026-01-10 00:35:55.81	113.35	25.92	-33.8	-35.1	19.2	0.00e+00	0	56	0	2129657856	38	4353
2026-01-10 00:35:59.85	114.49	25.69	-34.1	-35.5	18.8	0.00e+00	0	56	0	2152726528	39	4308
2026-01-10 00:36:03.89	115.62	25.45	-34.0	-35.3	18.9	0.00e+00	0	56	0	2175795200	39	4241
2026-01-10 00:36:07.92	116.72	25.19	-34.3	-35.6	18.7	0.00e+00	0	56	0	2197815296	39	4379
2026-01-10 00:36:11.95	117.81	24.93	-34.2	-35.5	18.8	0.00e+00	0	56	0	2220883968	39	4328
2026-01-10 00:36:15.98	118.89	24.66	-34.3	-35.6	18.7	0.00e+00	0	56	0	2242904064	39	4383
2026-01-10 00:36:20.01	119.94	24.39	-34.4	-35.8	18.5	0.00e+00	0	56	0	2265972736	39	4458
2026-01-10 00:36:24.03	120.98	24.11	-34.5	-35.9	18.4	0.00e+00	0	56	0	2289041408	39	4516
2026-01-10 00:36:28.06	121.99	23.82	-34.4	-35.7	18.6	0.00e+00	0	56	0	2311061504	39	4433
2026-01-10 00:36:32.08	122.99	23.52	-34.5	-35.9	18.4	0.00e+00	0	56	0	2334130176	39	4528
2026-01-10 00:36:36.12	123.98	23.22	-34.4	-35.8	18.5	0.00e+00	0	56	0	2357198848	39	4456
2026-01-10 00:36:40.15	124.94	22.92	-34.5	-35.9	18.4	0.00e+00	0	56	0	2379218944	39	4514
2026-01-10 00:36:44.17	125.88	22.61	-34.5	-35.9	18.3	0.00e+00	0	56	0	2402287616	39	4544
2026-01-10 00:36:48.20	126.81	22.30	-34.6	-36.0	18.2	0.00e+00	0	56	0	2424307712	39	4581
2026-01-10 00:36:52.22	127.71	21.98	-35.0	-36.4	17.8	0.00e+00	0	56	0	2447376384	40	4545
2026-01-10 00:36:56.25	128.60	21.66	-34.7	-36.1	18.1	0.00e+00	0	56	0	2469396480	40	4375
2026-01-10 00:37:00.28	129.48	21.34	-34.8	-36.2	18.0	0.00e+00	0	56	0	2492465152	40	4421
2026-01-10 00:37:04.30	130.33	21.01	-34.9	-36.4	17.8	0.00e+00	0	56	0	2515533824	40	4505
2026-01-10 00:37:08.33	131.17	20.69	-35.0	-36.5	17.6	0.00e+00	0	56	0	2537553920	40	4559
2026-01-10 00:37:12.36	131.99	20.36	-35.1	-36.6	17.6	0.00e+00	0	56	0	2560622592	40	4617
2026-01-10 00:37:16.37	132.79	20.03	-35.2	-36.7	17.4	0.00e+00	0	56	0	2582642688	40	4681
2026-01-10 00:37:20.40	133.57	19.70	-35.4	-37.0	17.1	0.00e+00	0	56	0	2605711360	41	4570
2026-01-10 00:37:24.43	134.34	19.37	-35.5	-37.1	17.0	0.00e+00	0	56	0	2628780032	41	4624
2026-01-10 00:37:28.45	135.10	19.03	-35.5	-37.1	17.1	0.00e+00	0	56	0	2650800128	41	4601
2026-01-10 00:37:32.48	135.83	18.70	-35.6	-37.2	16.9	0.00e+00	0	56	0	2673868800	41	4687
2026-01-10 00:37:36.51	136.56	18.37	-35.8	-37.4	16.6	0.00e+00	0	56	0	2696937472	42	4545
2026-01-10 00:37:40.54	137.26	18.04	-35.5	-37.1	17.0	0.00e+00	0	56	0	2718957568	42	4371
2026-01-10 00:37:44.56	137.96	17.71	-35.6	-37.2	16.9	0.00e+00	0	56	0	2742026240	42	4401
2026-01-10 00:37:48.60	138.63	17.37	-35.6	-37.2	16.9	0.00e+00	0	56	0	2764046336	42	4408
2026-01-10 00:37:52.63	139.30	17.04	-35.6	-37.2	16.8	0.00e+00	0	56	0	2787115008	42	4432
2026-01-10 00:37:56.65	139.95	16.71	-35.9	-37.5	16.5	0.00e+00	0	56	0	2810183680	42	4592
2026-01-10 00:38:00.68	140.58	16.38	-36.1	-37.8	16.2	0.00e+00	0	56	0	2832203776	42	4733
2026-01-10 00:38:04.72	141.21	16.06	-36.3	-38.0	16.1	0.00e+00	0	56	0	2855272448	43	4561
2026-01-10 00:38:08.76	141.82	15.73	-36.4	-38.1	15.9	0.00e+00	0	56	0	2878341120	43	4649
2026-01-10 00:38:12.79	142.41	15.40	-36.9	-38.8	15.5	0.00e+00	0	56	0	2900361216	44	4714
2026-01-10 00:38:16.81	143.00	15.08	-37.0	-38.8	15.4	0.00e+00	0	56	0	2923429888	44	4737
2026-01-10 00:38:20.84	143.57	14.76	-36.4	-38.1	16.1	0.00e+00	0	56	0	2945449984	44	4362
2026-01-10 00:38:24.87	144.13	14.44	-36.5	-38.3	15.9	0.00e+00	0	56	0	2968518656	44	4463
2026-01-10 00:38:28.90	144.68	14.12	-36.5	-38.3	15.8	0.00e+00	0	56	0	2991587328	44	4451
2026-01-10 00:38:32.93	145.22	13.80	-36.4	-38.2	15.9	0.00e+00	0	56	0	3013607424	44	4397
2026-01-10 00:38:36.98	145.74	13.49	-36.5	-38.3	15.8	0.00e+00	0	56	0	3036676096	44	4467
2026-01-10 00:38:41.01	146.26	13.17	-36.9	-38.8	15.3	0.00e+00	0	56	0	3059744768	44	4710
2026-01-10 00:38:45.03	146.76	12.86	-36.9	-38.7	15.3	0.00e+00	0	56	0	3081764864	44	4693
2026-01-10 00:38:49.06	147.26	12.55	-36.9	-38.7	15.3	0.00e+00	0	56	0	3104833536	44	4681
2026-01-10 00:38:53.08	147.74	12.25	-37.0	-38.9	15.1	0.00e+00	0	56	0	3126853632	44	4782
2026-01-10 00:38:57.11	148.22	11.94	-37.1	-39.1	14.9	0.00e+00	0	56	0	3149922304	44	4877
2026-01-10 00:39:01.15	148.69	11.64	-37.2	-39.2	14.7	0.00e+00	0	56	0	3172990976	44	4953
2026-01-10 00:39:05.19	149.14	11.34	-37.3	-39.3	14.6	1.10e-06	0	56	0	3195011072	45	4734
2026-01-10 00:39:09.23	149.59	11.04	-37.4	-39.5	14.3	3.40e-06	0	56	0	3218079744	45	4826
2026-01-10 00:39:13.26	150.03	10.74	-37.5	-39.7	14.1	3.40e-06	0	56	0	3241148416	45	4929
2026-01-10 00:39:17.30	150.47	10.45	-37.6	-39.7	14.1	2.20e-06	0	56	0	3263168512	46	4679
2026-01-10 00:39:21.33	150.89	10.16	-37.7	-39.8	13.9	5.70e-06	0	56	0	3286237184	46	4757
2026-01-10 00:39:25.36	151.30	9.86	-37.6	-39.7	13.9	4.50e-06	0	56	0	3308257280	46	4686
2026-01-10 00:39:29.38	151.71	9.58	-37.7	-39.9	13.7	1.02e-05	0	56	0	3331325952	46	4767
2026-01-10 00:39:33.41	152.11	9.29	-37.9	-40.2	13.4	1.02e-05	0	56	0	3354394624	46	4933
2026-01-10 00:39:37.44	152.50	9.01	-37.9	-40.2	13.3	3.20e-05	0	56	0	3376414720	46	4966
2026-01-10 00:39:41.47	152.88	8.73	-37.8	-40.1	13.3	3.54e-05	0	56	0	3399483392	46	4914
2026-01-10 00:39:45.50	153.26	8.45	-37.8	-40.1	13.2	2.86e-05	0	56	0	3422552064	46	4915
2026-01-10 00:39:49.54	153.63	8.17	-37.9	-40.3	13.0	4.46e-05	0	56	0	3444572160	46	5023
2026-01-10 00:39:53.58	154.00	7.89	-44.4	-55.8	3.8	8.46e-01	0	56	104	3457155072	59	14094
2026-01-10 00:39:57.61	154.35	7.62	-44.9	-56.7	3.8	8.46e-01	0	56	104	3457155072	60	14809
2026-01-10 00:40:01.65	154.70	7.35	-44.9	-56.7	3.8	8.47e-01	0	56	104	3457155072	60	14763
2026-01-10 00:40:05.68	155.05	7.08	-44.8	-56.7	3.8	8.45e-01	0	56	104	3457155072	60	14729
2026-01-10 00:40:09.72	155.39	6.81	-44.8	-56.6	3.8	8.45e-01	0	56	104	3457155072	60	14642
2026-01-10 00:40:13.76	155.72	6.54	-44.8	-56.6	3.8	8.46e-01	0	56	104	3457155072	60	14617
2026-01-10 00:40:17.79	156.05	6.28	-44.7	-56.6	3.8	8.46e-01	0	56	104	3457155072	60	14584
2026-01-10 00:40:21.83	156.37	6.02	-44.7	-56.6	3.8	8.47e-01	0	56	104	3457155072	60	14568
2026-01-10 00:40:25.86	156.69	5.76	-44.7	-56.6	3.8	8.46e-01	0	56	104	3457155072	60	14552
2026-01-10 00:40:29.89	157.00	5.50	-44.7	-56.5	3.8	8.46e-01	0	56	104	3457155072	60	14493
2026-01-10 00:40:33.93	157.30	5.24	-44.7	-56.5	3.8	8.47e-01	0	56	104	3457155072	60	14509
2026-01-10 00:40:37.97	157.60	4.99	-44.7	-56.5	3.8	8.46e-01	0	56	104	3457155072	60	14488
2026-01-10 00:40:42.01	157.90	4.73	-44.7	-56.5	3.8	8.47e-01	0	56	104	3457155072	60	14523
2026-01-10 00:40:46.05	158.19	4.48	-44.7	-56.5	3.8	8.47e-01	0	56	104	3457155072	60	14495
2026-01-10 00:40:50.08	158.48	4.23	-44.7	-56.5	3.8	8.45e-01	0	56	104	3457155072	60	14506
2026-01-10 00:40:54.12	158.76	3.99	-44.7	-56.5	3.8	8.46e-01	0	56	104	3457155072	60	14519
2026-01-10 00:40:58.16	159.04	3.74	-44.7	-56.5	3.8	8.46e-01	0	56	104	3457155072	60	14463
2026-01-10 00:41:02.19	159.31	3.50	-44.7	-56.5	3.8	8.46e-01	0	56	104	3457155072	60	14488
2026-01-10 00:41:06.23	159.58	3.25	-44.7	-56.5	3.8	8.45e-01	0	57	104	3457155072	60	14538
2026-01-10 00:41:10.27	159.84	3.01	-44.7	-56.5	3.8	8.46e-01	0	56	104	3457155072	60	14466
2026-01-10 00:41:14.31	160.10	2.77	-44.7	-56.5	3.8	8.46e-01	0	56	104	3457155072	60	14503
2026-01-10 00:41:18.34	160.36	2.54	-44.7	-56.5	3.8	8.46e-01	0	56	104	3457155072	60	14437
2026-01-10 00:41:22.38	160.61	2.30	-44.7	-56.5	3.8	8.46e-01	0	56	104	3457155072	60	14428
2026-01-10 00:41:26.42	160.86	2.07	-44.7	-56.5	3.8	8.47e-01	0	56	104	3457155072	60	14475

#Closed at: 2026-01-10 00:41:28
#Recorded file [3457 MB]: D:/lorett/data/31039_260110_032807.dat