passes_logs/2026/01/10/R2.0S_Moscow/R2.0S_Moscow__20260110_223937_NOAA_21_JPSS-2_rec.log

#Pass ID: 20260110_223937_NOAA 21 (JPSS-2)
#Satellite: NOAA 21 (JPSS-2)
#Configuration: NOAA-21
#almurnet v.1.7.20251203
#Start time: 2026-01-10 22:39:37

#Version: 2.2.20231116
#Station: R2.0S_Moscow
#Location: 37.707566 lon 55.798166 lat
#TLE: 1 54234U 22150A   26009.79679979  .00000100  00000+0  68070-4 0  9993
#TLE: 2 54234  98.7494 310.7596 0000833 322.2782  37.8335 14.19533646164071

#Time	Az	El	Level	Level2	SNR	BER	BlckErr	Temp	State	Recorded	gain1	gain2
2026-01-10 22:39:37.51	21.51	1.98	-42.3	-55.2	3.8	1.49e+00	0	47	0	0	56	15633
2026-01-10 22:39:41.55	21.71	2.22	-42.1	-55.0	3.8	1.49e+00	0	47	104	0	54	17139
2026-01-10 22:39:45.60	21.91	2.46	-42.1	-55.0	3.8	1.49e+00	0	48	104	0	54	17145
2026-01-10 22:39:49.64	22.12	2.71	-42.2	-55.0	3.8	1.49e+00	0	48	104	0	54	17173
2026-01-10 22:39:53.68	22.32	2.95	-42.1	-55.0	3.8	1.49e+00	0	48	104	0	54	17147
2026-01-10 22:39:57.73	22.53	3.20	-42.1	-55.0	3.8	1.49e+00	0	48	104	0	54	17092
2026-01-10 22:40:01.77	22.75	3.45	-42.2	-55.0	3.8	1.49e+00	0	49	104	0	54	17179
2026-01-10 22:40:05.81	22.97	3.70	-42.2	-55.0	3.8	1.49e+00	0	49	104	0	54	17163
2026-01-10 22:40:09.86	23.19	3.96	-42.1	-55.0	3.8	1.49e+00	0	49	104	0	54	17174
2026-01-10 22:40:13.90	23.41	4.22	-42.1	-55.0	3.8	1.49e+00	0	49	104	0	54	17108
2026-01-10 22:40:17.95	23.64	4.48	-42.1	-55.0	3.8	1.49e+00	0	50	104	0	54	17168
2026-01-10 22:40:21.99	23.87	4.74	-42.2	-55.0	3.8	1.49e+00	0	50	104	0	54	17160
2026-01-10 22:40:26.04	24.11	5.00	-42.2	-55.0	3.8	1.49e+00	0	50	104	0	54	17168
2026-01-10 22:40:30.08	24.35	5.27	-42.1	-55.0	3.8	1.49e+00	0	50	104	0	54	17092
2026-01-10 22:40:34.12	24.59	5.53	-42.1	-55.0	3.8	1.49e+00	0	51	104	0	54	17155
2026-01-10 22:40:38.17	24.84	5.80	-42.1	-55.0	3.8	1.49e+00	0	51	104	0	54	17096
2026-01-10 22:40:42.21	25.09	6.08	-42.1	-55.0	3.8	1.49e+00	0	51	104	0	54	17098
2026-01-10 22:40:46.25	25.35	6.35	-42.1	-55.0	3.8	1.49e+00	0	51	104	0	54	17087
2026-01-10 22:40:50.29	25.61	6.63	-42.1	-54.9	3.8	1.49e+00	0	51	104	0	54	17054
2026-01-10 22:40:54.34	25.88	6.91	-42.1	-54.8	3.8	1.49e+00	0	52	104	0	54	16778
2026-01-10 22:40:58.38	26.15	7.19	-42.1	-54.9	3.8	1.49e+00	0	52	104	0	54	16961
2026-01-10 22:41:02.43	26.43	7.48	-42.0	-53.7	3.8	1.49e+00	0	52	104	0	54	14861
2026-01-10 22:41:06.47	26.71	7.77	-40.9	-47.0	6.7	2.22e-01	0	52	0	3145728	53	7214
2026-01-10 22:41:10.51	26.99	8.06	-41.1	-47.0	7.1	1.16e-02	0	52	0	15728640	52	7674
2026-01-10 22:41:14.55	27.29	8.35	-39.6	-42.7	11.4	1.19e+00	0	52	104	19922944	51	4967
2026-01-10 22:41:18.59	27.58	8.65	-39.3	-42.3	11.9	4.27e-04	0	52	0	32505856	50	5035
2026-01-10 22:41:22.62	27.89	8.94	-39.3	-42.2	12.2	2.70e-04	0	53	0	45088768	50	4964
2026-01-10 22:41:26.66	28.19	9.25	-39.3	-42.1	12.5	1.05e-04	0	53	0	57671680	50	4905
2026-01-10 22:41:30.70	28.51	9.55	-39.1	-41.7	13.0	3.96e-05	0	53	0	70254592	50	4673
2026-01-10 22:41:34.74	28.83	9.86	-39.2	-41.7	13.0	4.50e-05	0	53	0	82837504	50	4698
2026-01-10 22:41:38.78	29.16	10.17	-39.2	-41.6	13.2	3.35e-05	0	53	0	95420416	50	4640
2026-01-10 22:41:42.82	29.49	10.49	-39.1	-41.5	13.4	2.28e-05	0	53	0	108003328	50	4551
2026-01-10 22:41:46.87	29.83	10.80	-38.9	-41.2	13.8	6.80e-06	0	53	0	120586240	49	4671
2026-01-10 22:41:50.91	30.18	11.13	-38.9	-41.2	13.8	4.50e-06	0	53	0	133169152	49	4667
2026-01-10 22:41:54.95	30.54	11.45	-39.0	-41.3	13.8	5.30e-06	0	53	0	145752064	49	4747
2026-01-10 22:41:58.99	30.90	11.78	-38.8	-41.0	14.1	1.50e-06	0	54	0	158334976	49	4578
2026-01-10 22:42:03.03	31.27	12.11	-38.7	-40.8	14.4	0.00e+00	0	54	0	170917888	49	4452
2026-01-10 22:42:07.07	31.65	12.44	-38.8	-40.9	14.2	1.50e-06	0	54	0	183500800	49	4541
2026-01-10 22:42:11.11	32.04	12.78	-38.7	-40.8	14.4	7.00e-07	0	54	0	196083712	49	4480
2026-01-10 22:42:15.15	32.44	13.12	-38.7	-40.8	14.4	0.00e+00	0	54	0	208666624	49	4481
2026-01-10 22:42:19.19	32.84	13.47	-38.6	-40.6	14.6	7.00e-07	0	54	0	221249536	49	4377
2026-01-10 22:42:23.23	33.26	13.82	-38.7	-40.8	14.4	0.00e+00	0	54	0	233832448	49	4493
2026-01-10 22:42:27.26	33.68	14.17	-38.7	-40.8	14.5	0.00e+00	0	54	0	246415360	49	4479
2026-01-10 22:42:31.30	34.11	14.53	-38.7	-40.7	14.7	0.00e+00	0	54	0	258998272	49	4398
2026-01-10 22:42:35.35	34.56	14.89	-38.7	-40.8	14.6	1.50e-06	0	54	0	271581184	49	4449
2026-01-10 22:42:39.39	35.01	15.25	-38.8	-40.8	14.6	7.00e-07	0	54	0	284164096	49	4473
2026-01-10 22:42:43.42	35.48	15.62	-38.9	-40.9	14.5	7.00e-07	0	54	0	296747008	49	4544
2026-01-10 22:42:47.46	35.95	15.99	-38.8	-40.8	14.7	0.00e+00	0	54	0	309329920	49	4451
2026-01-10 22:42:51.50	36.44	16.37	-38.8	-40.8	14.8	0.00e+00	0	54	0	321912832	49	4458
2026-01-10 22:42:55.54	36.94	16.75	-38.7	-40.7	14.8	0.00e+00	0	55	0	334495744	49	4426
2026-01-10 22:42:59.58	37.45	17.13	-38.6	-40.5	15.0	0.00e+00	0	55	0	348127232	49	4333
2026-01-10 22:43:03.62	37.98	17.52	-38.7	-40.6	15.0	0.00e+00	0	55	0	360710144	49	4373
2026-01-10 22:43:07.66	38.52	17.91	-38.5	-40.4	15.1	0.00e+00	0	54	0	373293056	49	4279
2026-01-10 22:43:11.70	39.07	18.31	-38.7	-40.7	14.9	0.00e+00	0	55	0	385875968	49	4421
2026-01-10 22:43:15.74	39.63	18.71	-38.5	-40.4	15.2	0.00e+00	0	55	0	398458880	48	4500
2026-01-10 22:43:19.78	40.22	19.11	-38.6	-40.5	15.2	0.00e+00	0	55	0	411041792	48	4576
2026-01-10 22:43:23.82	40.81	19.52	-38.6	-40.5	15.2	0.00e+00	0	55	0	423624704	48	4560
2026-01-10 22:43:27.86	41.42	19.93	-38.3	-40.1	15.5	0.00e+00	0	55	0	436207616	48	4372
2026-01-10 22:43:31.90	42.05	20.35	-38.2	-39.9	15.7	0.00e+00	0	55	0	448790528	48	4275
2026-01-10 22:43:35.94	42.70	20.77	-37.9	-39.6	16.0	0.00e+00	0	55	0	461373440	47	4372
2026-01-10 22:43:39.99	43.36	21.19	-37.9	-39.6	16.0	0.00e+00	0	55	0	473956352	47	4360
2026-01-10 22:43:44.02	44.04	21.61	-37.7	-39.4	16.2	0.00e+00	0	55	0	486539264	47	4273
2026-01-10 22:43:48.06	44.74	22.04	-37.5	-39.1	16.5	0.00e+00	0	55	0	499122176	47	4140
2026-01-10 22:43:52.11	45.46	22.47	-37.6	-39.2	16.4	0.00e+00	0	55	0	511705088	46	4427
2026-01-10 22:43:56.15	46.19	22.91	-37.5	-39.2	16.5	0.00e+00	0	55	0	524288000	46	4396
2026-01-10 22:44:00.19	46.95	23.34	-37.4	-39.0	16.6	0.00e+00	0	55	0	536870912	46	4315
2026-01-10 22:44:04.23	47.73	23.78	-37.6	-39.2	16.5	0.00e+00	0	55	0	549453824	46	4421
2026-01-10 22:44:08.28	48.53	24.22	-37.5	-39.1	16.5	0.00e+00	0	55	0	562036736	46	4376
2026-01-10 22:44:12.32	49.35	24.67	-37.6	-39.3	16.4	0.00e+00	0	55	0	574619648	46	4448
2026-01-10 22:44:16.36	50.20	25.11	-37.8	-39.5	16.2	0.00e+00	0	55	0	587202560	46	4571
2026-01-10 22:44:20.40	51.07	25.55	-37.9	-39.6	16.1	0.00e+00	0	55	0	600834048	46	4633
2026-01-10 22:44:24.44	51.96	26.00	-38.1	-39.8	15.9	0.00e+00	0	55	0	612368384	46	4757
2026-01-10 22:44:28.48	52.88	26.44	-38.3	-40.1	15.7	0.00e+00	0	55	0	624951296	47	4616
2026-01-10 22:44:32.52	53.83	26.89	-38.2	-40.0	15.8	0.00e+00	0	55	0	638582784	47	4578
2026-01-10 22:44:36.57	54.80	27.33	-38.3	-40.1	15.7	0.00e+00	0	55	0	651165696	47	4642
2026-01-10 22:44:40.61	55.80	27.77	-38.6	-40.4	15.4	0.00e+00	0	55	0	663748608	47	4801
2026-01-10 22:44:44.65	56.82	28.21	-38.6	-40.4	15.4	0.00e+00	0	55	0	676331520	47	4802
2026-01-10 22:44:48.69	57.87	28.65	-38.3	-40.1	15.8	7.00e-07	0	56	0	688914432	47	4611
2026-01-10 22:44:52.73	58.96	29.08	-38.4	-40.3	15.6	0.00e+00	0	55	0	701497344	47	4717
2026-01-10 22:44:56.77	60.07	29.51	-38.3	-40.1	15.7	0.00e+00	0	56	0	714080256	47	4638
2026-01-10 22:45:00.82	61.21	29.94	-38.1	-39.8	16.0	0.00e+00	0	56	0	726663168	47	4472
2026-01-10 22:45:04.86	62.38	30.35	-38.2	-40.0	15.9	0.00e+00	0	56	0	739246080	47	4571
2026-01-10 22:45:08.90	63.58	30.76	-38.4	-40.2	15.7	0.00e+00	0	56	0	751828992	47	4687
2026-01-10 22:45:12.93	64.80	31.16	-38.5	-40.3	15.5	0.00e+00	0	56	0	764411904	47	4753
2026-01-10 22:45:16.97	66.06	31.56	-38.2	-39.9	16.0	0.00e+00	0	56	0	776994816	47	4524
2026-01-10 22:45:21.01	67.35	31.94	-38.5	-40.4	15.6	0.00e+00	0	56	0	789577728	47	4763
2026-01-10 22:45:25.05	68.67	32.31	-38.5	-40.3	15.6	0.00e+00	0	56	0	802160640	47	4739
2026-01-10 22:45:29.09	70.02	32.67	-39.1	-41.0	15.0	0.00e+00	0	56	0	814743552	48	4850
2026-01-10 22:45:33.14	71.40	33.01	-39.0	-40.9	15.1	0.00e+00	0	56	0	827326464	48	4793
2026-01-10 22:45:37.18	72.81	33.34	-39.1	-41.0	15.0	0.00e+00	0	56	0	839909376	48	4835
2026-01-10 22:45:41.22	74.24	33.66	-39.0	-40.9	15.2	0.00e+00	0	56	0	852492288	48	4762
2026-01-10 22:45:45.26	75.70	33.96	-38.9	-40.8	15.2	0.00e+00	0	56	0	865075200	48	4748
2026-01-10 22:45:49.30	77.19	34.24	-38.8	-40.6	15.4	0.00e+00	0	56	0	877658112	48	4639
2026-01-10 22:45:53.34	78.71	34.50	-39.1	-41.1	14.9	0.00e+00	0	56	0	890241024	48	4881
2026-01-10 22:45:57.38	80.24	34.74	-39.1	-41.0	15.0	7.00e-07	0	56	0	902823936	49	4587
2026-01-10 22:46:01.41	81.80	34.96	-39.0	-41.0	15.1	0.00e+00	0	56	0	916455424	49	4555
2026-01-10 22:46:05.45	83.37	35.16	-39.0	-40.9	15.1	0.00e+00	0	56	0	929038336	49	4508
2026-01-10 22:46:09.50	84.97	35.33	-39.3	-41.3	14.7	0.00e+00	0	56	0	941621248	49	4754
2026-01-10 22:46:13.54	86.58	35.48	-39.6	-41.8	14.2	1.50e-06	0	56	0	954204160	49	5006
2026-01-10 22:46:17.58	88.21	35.61	-39.2	-41.2	14.9	0.00e+00	0	56	0	966787072	49	4660
2026-01-10 22:46:21.62	89.85	35.71	-39.4	-41.5	14.6	0.00e+00	0	56	0	979369984	49	4819
2026-01-10 22:46:25.66	91.49	35.78	-39.3	-41.3	14.7	7.00e-07	0	56	0	991952896	49	4752
2026-01-10 22:46:29.70	93.15	35.83	-39.1	-41.0	15.0	0.00e+00	0	56	0	1004535808	49	4567
2026-01-10 22:46:33.74	94.80	35.86	-38.8	-40.6	15.5	0.00e+00	0	56	0	1017118720	49	4385
2026-01-10 22:46:37.78	96.46	35.85	-38.9	-40.8	15.2	0.00e+00	0	56	0	1029701632	49	4480
2026-01-10 22:46:41.82	98.11	35.82	-39.2	-41.1	15.0	0.00e+00	0	56	0	1042284544	49	4623
2026-01-10 22:46:45.86	99.77	35.77	-39.3	-41.3	14.7	0.00e+00	0	56	0	1054867456	49	4744
2026-01-10 22:46:49.90	101.41	35.69	-39.3	-41.2	14.8	7.00e-07	0	56	0	1067450368	49	4695
2026-01-10 22:46:53.94	103.05	35.58	-39.4	-41.4	14.6	0.00e+00	0	56	0	1080033280	49	4797
2026-01-10 22:46:57.98	104.67	35.45	-39.6	-41.7	14.3	0.00e+00	0	56	0	1092616192	49	4968
2026-01-10 22:47:02.01	106.28	35.29	-39.3	-41.3	14.8	0.00e+00	0	56	0	1105199104	49	4730
2026-01-10 22:47:06.05	107.87	35.11	-39.3	-41.3	14.8	0.00e+00	0	56	0	1117782016	49	4723
2026-01-10 22:47:10.09	109.45	34.91	-39.4	-41.4	14.7	7.00e-07	0	56	0	1130364928	49	4773
2026-01-10 22:47:14.13	111.00	34.68	-39.4	-41.4	14.6	0.00e+00	0	56	0	1142947840	49	4814
2026-01-10 22:47:18.17	112.54	34.43	-39.5	-41.5	14.5	7.00e-07	0	56	0	1155530752	49	4852
2026-01-10 22:47:22.21	114.05	34.17	-38.8	-40.6	15.4	7.00e-07	0	56	0	1168113664	49	4380
2026-01-10 22:47:26.25	115.53	33.88	-39.4	-41.5	14.6	2.20e-06	0	56	0	1180696576	49	4834
2026-01-10 22:47:30.29	116.99	33.58	-39.1	-41.0	15.1	7.00e-07	0	56	0	1193279488	49	4554
2026-01-10 22:47:34.33	118.43	33.26	-39.2	-41.2	14.8	0.00e+00	0	56	0	1205862400	49	4697
2026-01-10 22:47:38.37	119.83	32.92	-38.6	-40.4	15.6	0.00e+00	0	56	0	1218445312	49	4267
2026-01-10 22:47:42.41	121.21	32.57	-38.7	-40.5	15.5	0.00e+00	0	56	0	1232076800	49	4305
2026-01-10 22:47:46.45	122.55	32.21	-38.5	-40.2	15.8	0.00e+00	0	56	0	1243611136	48	4426
2026-01-10 22:47:50.49	123.87	31.83	-38.5	-40.3	15.7	0.00e+00	0	56	0	1257242624	48	4461
2026-01-10 22:47:54.53	125.15	31.44	-38.7	-40.6	15.4	0.00e+00	0	56	0	1269825536	48	4608
2026-01-10 22:47:58.57	126.41	31.05	-38.2	-39.9	16.1	0.00e+00	0	56	0	1282408448	48	4272
2026-01-10 22:48:02.61	127.64	30.64	-38.6	-40.4	15.6	0.00e+00	0	56	0	1294991360	48	4512
2026-01-10 22:48:06.65	128.83	30.23	-38.5	-40.2	15.8	0.00e+00	0	56	0	1307574272	48	4422
2026-01-10 22:48:10.69	130.00	29.80	-38.1	-39.7	16.2	0.00e+00	0	56	0	1320157184	48	4193
2026-01-10 22:48:14.73	131.13	29.38	-37.8	-39.4	16.5	0.00e+00	0	56	0	1332740096	47	4269
2026-01-10 22:48:18.77	132.24	28.94	-37.8	-39.4	16.4	0.00e+00	0	56	0	1345323008	47	4290
2026-01-10 22:48:22.81	133.32	28.51	-38.3	-40.0	15.8	0.00e+00	0	56	0	1357905920	47	4586
2026-01-10 22:48:26.85	134.37	28.07	-38.2	-39.9	16.0	0.00e+00	0	56	0	1370488832	47	4508
2026-01-10 22:48:30.89	135.39	27.62	-38.1	-39.8	16.1	0.00e+00	0	56	0	1383071744	47	4442
2026-01-10 22:48:34.93	136.38	27.18	-38.0	-39.6	16.2	0.00e+00	0	56	0	1395654656	47	4383
2026-01-10 22:48:38.97	137.35	26.73	-38.1	-39.8	16.0	0.00e+00	0	56	0	1408237568	47	4471
2026-01-10 22:48:43.01	138.29	26.28	-38.3	-40.0	15.7	0.00e+00	0	56	0	1420820480	47	4586
2026-01-10 22:48:47.05	139.21	25.83	-37.7	-39.3	16.4	0.00e+00	0	56	0	1433403392	47	4240
2026-01-10 22:48:51.09	140.10	25.39	-37.5	-39.1	16.7	0.00e+00	0	56	0	1445986304	47	4102
2026-01-10 22:48:55.14	140.96	24.94	-37.5	-39.1	16.7	0.00e+00	0	56	0	1458569216	47	4104
2026-01-10 22:48:59.18	141.81	24.49	-37.5	-39.1	16.6	0.00e+00	0	57	0	1471152128	47	4124
2026-01-10 22:49:03.22	142.63	24.04	-37.6	-39.3	16.5	0.00e+00	0	56	0	1483735040	46	4450
2026-01-10 22:49:07.27	143.42	23.60	-37.9	-39.6	16.2	0.00e+00	0	56	0	1496317952	46	4599
2026-01-10 22:49:11.31	144.20	23.16	-37.8	-39.4	16.3	0.00e+00	0	56	0	1508900864	46	4544
2026-01-10 22:49:15.35	144.95	22.72	-37.9	-39.6	16.1	0.00e+00	0	57	0	1521483776	46	4635
2026-01-10 22:49:19.39	145.69	22.28	-38.0	-39.7	16.1	0.00e+00	0	56	0	1534066688	46	4672
2026-01-10 22:49:23.43	146.40	21.85	-38.1	-39.8	15.9	0.00e+00	0	56	0	1547698176	46	4754
2026-01-10 22:49:27.48	147.10	21.42	-38.4	-40.3	15.5	0.00e+00	0	56	0	1560281088	47	4706
2026-01-10 22:49:31.52	147.77	20.99	-38.4	-40.2	15.5	0.00e+00	0	56	0	1572864000	47	4701
2026-01-10 22:49:35.56	148.43	20.57	-38.4	-40.2	15.5	0.00e+00	0	56	0	1585446912	47	4697
2026-01-10 22:49:39.60	149.07	20.14	-38.3	-40.2	15.6	0.00e+00	0	57	0	1598029824	47	4652
2026-01-10 22:49:43.64	149.70	19.73	-38.0	-39.8	15.9	0.00e+00	0	57	0	1610612736	47	4449
2026-01-10 22:49:47.68	150.31	19.31	-37.8	-39.5	16.2	0.00e+00	0	56	0	1623195648	47	4313
2026-01-10 22:49:51.73	150.90	18.90	-37.9	-39.6	16.1	0.00e+00	0	56	0	1635778560	47	4375
2026-01-10 22:49:55.77	151.48	18.50	-38.0	-39.8	15.9	0.00e+00	0	56	0	1648361472	47	4443
2026-01-10 22:49:59.81	152.04	18.10	-38.2	-40.0	15.7	0.00e+00	0	56	0	1660944384	47	4583
2026-01-10 22:50:03.84	152.59	17.70	-38.3	-40.1	15.6	0.00e+00	0	57	0	1673527296	47	4611
2026-01-10 22:50:07.88	153.12	17.30	-38.2	-40.0	15.6	0.00e+00	0	56	0	1686110208	47	4564
2026-01-10 22:50:11.92	153.64	16.91	-38.4	-40.3	15.4	0.00e+00	0	57	0	1698693120	47	4714
2026-01-10 22:50:15.96	154.15	16.53	-38.4	-40.3	15.3	0.00e+00	0	57	0	1711276032	47	4725
2026-01-10 22:50:20.00	154.65	16.15	-38.5	-40.4	15.2	0.00e+00	0	56	0	1723858944	47	4799
2026-01-10 22:50:24.03	155.13	15.77	-38.7	-40.7	14.9	0.00e+00	0	56	0	1736441856	47	4937
2026-01-10 22:50:28.07	155.60	15.40	-38.8	-40.8	14.9	0.00e+00	0	56	0	1749024768	48	4718
2026-01-10 22:50:32.11	156.07	15.02	-39.0	-41.1	14.6	7.00e-07	0	57	0	1761607680	48	4875
2026-01-10 22:50:36.15	156.52	14.66	-38.9	-40.9	14.8	7.00e-07	0	57	0	1774190592	48	4764
2026-01-10 22:50:40.19	156.96	14.30	-38.8	-40.8	14.9	0.00e+00	0	57	0	1786773504	48	4708
2026-01-10 22:50:44.23	157.39	13.94	-38.9	-40.9	14.7	0.00e+00	0	57	0	1799356416	48	4761
2026-01-10 22:50:48.27	157.80	13.58	-38.9	-40.9	14.6	1.50e-06	0	57	0	1811939328	48	4795
2026-01-10 22:50:52.31	158.22	13.23	-39.3	-41.4	14.2	0.00e+00	0	57	0	1824522240	49	4774
2026-01-10 22:50:56.35	158.62	12.88	-39.1	-41.2	14.2	1.50e-06	0	57	0	1837105152	49	4703
2026-01-10 22:51:00.39	159.01	12.54	-39.4	-41.6	13.9	3.00e-06	0	57	0	1849688064	49	4873
2026-01-10 22:51:04.42	159.39	12.20	-39.2	-41.4	14.0	2.20e-06	0	56	0	1863319552	49	4777
2026-01-10 22:51:08.46	159.77	11.87	-39.1	-41.2	14.2	7.00e-07	0	56	0	1875902464	49	4703
2026-01-10 22:51:12.50	160.13	11.53	-39.2	-41.3	14.1	0.00e+00	0	56	0	1888485376	49	4732
2026-01-10 22:51:16.54	160.49	11.20	-39.3	-41.6	13.8	3.00e-06	0	56	0	1901068288	49	4892
2026-01-10 22:51:20.58	160.84	10.88	-40.2	-42.4	13.1	1.67e-05	0	57	0	1913651200	50	5064
2026-01-10 22:51:24.62	161.19	10.56	-39.7	-42.1	13.2	1.60e-05	0	56	0	1926234112	50	4893
2026-01-10 22:51:28.66	161.53	10.24	-39.8	-42.2	13.0	4.11e-05	0	57	0	1938817024	50	4978
2026-01-10 22:51:32.70	161.86	9.92	-39.9	-42.5	12.7	8.92e-05	0	57	0	1951399936	50	5127
2026-01-10 22:51:36.74	162.18	9.61	-39.7	-42.1	13.0	4.19e-05	0	57	0	1963982848	50	4918
2026-01-10 22:51:40.78	162.50	9.30	-39.8	-42.4	12.7	6.63e-05	0	56	0	1976565760	50	5055
2026-01-10 22:51:44.81	162.81	8.99	-39.6	-42.1	12.9	4.73e-05	0	57	0	1989148672	50	4922
2026-01-10 22:51:48.85	163.11	8.69	-39.7	-42.3	12.8	6.56e-05	0	57	0	2001731584	50	4997
2026-01-10 22:51:52.89	163.41	8.39	-39.9	-42.5	12.4	1.40e-04	0	57	0	2014314496	50	5158
2026-01-10 22:51:56.93	163.70	8.09	-39.9	-42.6	12.4	1.54e-04	0	57	0	2026897408	50	5164
2026-01-10 22:52:00.98	163.99	7.79	-44.8	-57.3	3.8	1.49e+00	0	57	104	2032140288	60	15837
2026-01-10 22:52:05.02	164.27	7.50	-45.1	-57.7	3.8	1.49e+00	0	57	104	2032140288	60	16549
2026-01-10 22:52:09.06	164.55	7.21	-45.1	-57.7	3.8	1.49e+00	0	57	104	2032140288	60	16512
2026-01-10 22:52:13.10	164.82	6.93	-45.0	-57.6	3.8	1.49e+00	0	57	104	2032140288	60	16416
2026-01-10 22:52:17.14	165.08	6.64	-45.0	-57.6	3.8	1.49e+00	0	57	104	2032140288	60	16356
2026-01-10 22:52:21.19	165.34	6.36	-45.0	-57.6	3.8	1.49e+00	0	57	104	2032140288	60	16315
2026-01-10 22:52:25.23	165.60	6.08	-45.0	-57.6	3.8	1.49e+00	0	57	104	2032140288	60	16341
2026-01-10 22:52:29.27	165.85	5.81	-45.0	-57.6	3.8	1.49e+00	0	57	104	2032140288	60	16319
2026-01-10 22:52:33.32	166.10	5.53	-45.0	-57.6	3.8	1.49e+00	0	57	104	2032140288	60	16319
2026-01-10 22:52:37.36	166.34	5.26	-45.0	-57.5	3.8	1.49e+00	0	57	104	2032140288	60	16252
2026-01-10 22:52:41.40	166.58	4.99	-45.0	-57.6	3.8	1.49e+00	0	57	104	2032140288	60	16317
2026-01-10 22:52:45.45	166.82	4.73	-45.0	-57.5	3.8	1.49e+00	0	57	104	2032140288	60	16294
2026-01-10 22:52:49.49	167.05	4.46	-45.0	-57.5	3.8	1.49e+00	0	57	104	2032140288	60	16291
2026-01-10 22:52:53.53	167.28	4.20	-45.0	-57.5	3.8	1.49e+00	0	57	104	2032140288	60	16300
2026-01-10 22:52:57.57	167.50	3.94	-45.0	-57.5	3.8	1.49e+00	0	57	104	2032140288	60	16270
2026-01-10 22:53:01.61	167.72	3.68	-45.0	-57.5	3.8	1.49e+00	0	57	104	2032140288	60	16235
2026-01-10 22:53:05.66	167.93	3.43	-45.0	-57.5	3.8	1.49e+00	0	57	104	2032140288	60	16305
2026-01-10 22:53:09.70	168.15	3.17	-45.0	-57.5	3.8	1.49e+00	0	57	104	2032140288	60	16292
2026-01-10 22:53:13.75	168.36	2.92	-45.0	-57.5	3.8	1.49e+00	0	57	104	2032140288	60	16269
2026-01-10 22:53:17.79	168.56	2.67	-45.0	-57.5	3.8	1.49e+00	0	57	104	2032140288	60	16279
2026-01-10 22:53:21.84	168.76	2.42	-45.0	-57.5	3.8	1.49e+00	0	57	104	2032140288	60	16304
2026-01-10 22:53:25.88	168.96	2.18	-44.9	-57.5	3.8	1.49e+00	0	57	104	2032140288	60	16244
2026-01-10 22:53:29.92	169.16	1.93	-45.0	-57.5	3.8	1.49e+00	0	57	104	2032140288	60	16253

#Closed at: 2026-01-10 22:53:30
#Recorded file [2032 MB]: D:/lorett/data/31039_260111_013937.dat