passes_logs/2026/01/10/R2.0S_Moscow/R2.0S_Moscow__20260110_012916_NOAA_20_JPSS-1_rec.log

#Pass ID: 20260110_012916_NOAA 20 (JPSS-1)
#Satellite: NOAA 20 (JPSS-1)
#Configuration: NOAA 20
#almurnet v.1.7.20251203
#Start time: 2026-01-10 01:29:16

#Version: 2.2.20231116
#Station: R2.0S_Moscow
#Location: 37.707566 lon 55.798166 lat
#TLE: 1 43013U 17073A   26009.26828276  .00000112  00000+0  74203-4 0  9990
#TLE: 2 43013  98.7631 310.2683 0001700  47.4387 312.6933 14.19534764421920

#Time	Az	El	Level	Level2	SNR	BER	BlckErr	Temp	State	Recorded	gain1	gain2
2026-01-10 01:29:16.34	9.87	1.97	-39.6	-54.3	3.8	1.49e+00	0	47	0	0	51	18831
2026-01-10 01:29:19.37	9.66	2.14	-39.6	-54.3	3.8	1.49e+00	0	47	104	0	50	19991
2026-01-10 01:29:22.40	9.45	2.30	-39.6	-54.3	3.8	1.49e+00	0	47	104	0	50	20040
2026-01-10 01:29:25.43	9.23	2.47	-39.6	-54.3	3.8	1.49e+00	0	48	104	0	50	19946
2026-01-10 01:29:28.46	9.01	2.64	-39.6	-54.3	3.8	1.49e+00	0	48	104	0	50	20010
2026-01-10 01:29:31.48	8.79	2.81	-39.6	-54.3	3.8	1.49e+00	0	48	104	0	50	20003
2026-01-10 01:29:34.50	8.57	2.98	-39.6	-54.3	3.8	1.49e+00	0	48	104	0	50	20059
2026-01-10 01:29:37.53	8.34	3.15	-39.6	-54.3	3.8	1.49e+00	0	48	104	0	50	19996
2026-01-10 01:29:40.55	8.11	3.32	-39.6	-54.3	3.8	1.49e+00	0	49	104	0	50	20030
2026-01-10 01:29:43.58	7.88	3.49	-39.6	-54.3	3.8	1.49e+00	0	49	104	0	50	19956
2026-01-10 01:29:46.60	7.65	3.66	-39.6	-54.3	3.8	1.49e+00	0	49	104	0	50	19988
2026-01-10 01:29:49.63	7.41	3.83	-39.6	-54.3	3.8	1.49e+00	0	49	104	0	50	20000
2026-01-10 01:29:52.66	7.17	4.01	-39.6	-54.3	3.8	1.49e+00	0	49	104	0	50	20007
2026-01-10 01:29:55.68	6.92	4.18	-39.6	-54.3	3.8	1.49e+00	0	49	104	0	50	19952
2026-01-10 01:29:58.71	6.68	4.35	-39.6	-54.3	3.8	1.49e+00	0	50	104	0	50	19973
2026-01-10 01:30:01.74	6.43	4.53	-39.6	-54.3	3.8	1.49e+00	0	50	104	0	50	19914
2026-01-10 01:30:04.77	6.17	4.70	-39.6	-54.3	3.8	1.49e+00	0	50	104	0	50	20007
2026-01-10 01:30:07.79	5.92	4.88	-39.6	-54.3	3.8	1.49e+00	0	50	104	0	50	19991
2026-01-10 01:30:10.82	5.66	5.06	-39.6	-54.3	3.8	1.49e+00	0	50	104	0	50	19945
2026-01-10 01:30:13.85	5.39	5.23	-39.6	-54.3	3.8	1.49e+00	0	51	104	0	50	19955
2026-01-10 01:30:16.88	5.13	5.41	-39.6	-54.3	3.8	1.49e+00	0	50	104	0	50	19943
2026-01-10 01:30:19.91	4.86	5.59	-39.5	-54.3	3.8	1.49e+00	0	51	104	0	50	19971
2026-01-10 01:30:22.93	4.58	5.77	-39.6	-54.3	3.8	1.49e+00	0	51	104	0	50	19979
2026-01-10 01:30:25.95	4.31	5.95	-39.6	-54.3	3.8	1.49e+00	0	51	104	0	50	19939
2026-01-10 01:30:28.98	4.03	6.13	-39.5	-54.3	3.8	1.49e+00	0	51	104	0	50	19994
2026-01-10 01:30:32.01	3.74	6.31	-39.5	-54.3	3.8	1.49e+00	0	51	104	0	50	20001
2026-01-10 01:30:35.03	3.46	6.49	-39.5	-54.3	3.8	1.49e+00	0	51	104	0	50	19897
2026-01-10 01:30:38.04	3.17	6.67	-39.5	-54.3	3.8	1.49e+00	0	52	104	0	50	19927
2026-01-10 01:30:41.07	2.87	6.86	-39.5	-54.3	3.8	1.49e+00	0	51	104	0	50	19899
2026-01-10 01:30:44.09	2.57	7.04	-39.5	-54.3	3.8	1.49e+00	0	52	104	0	50	19900
2026-01-10 01:30:47.12	2.27	7.22	-39.5	-54.3	3.8	1.49e+00	0	52	104	0	50	19901
2026-01-10 01:30:50.15	1.96	7.41	-39.5	-54.3	3.8	1.49e+00	0	52	104	0	50	19900
2026-01-10 01:30:53.18	1.65	7.59	-39.5	-54.3	3.8	1.49e+00	0	52	104	0	50	19904
2026-01-10 01:30:56.20	1.34	7.78	-39.5	-54.3	3.8	1.49e+00	0	52	104	0	50	19897
2026-01-10 01:30:59.23	1.02	7.96	-39.5	-54.3	3.8	1.49e+00	0	52	104	0	50	19943
2026-01-10 01:31:02.27	0.69	8.15	-39.7	-54.4	3.8	1.49e+00	0	52	104	0	50	20126
2026-01-10 01:31:05.29	0.36	8.34	-39.6	-54.3	3.8	1.49e+00	0	52	104	0	50	19922
2026-01-10 01:31:08.32	0.03	8.52	-39.6	-54.4	3.8	1.49e+00	0	53	104	0	50	20192
2026-01-10 01:31:11.35	359.69	8.71	-39.7	-54.4	3.8	1.49e+00	0	53	104	0	50	20147
2026-01-10 01:31:14.38	359.35	8.90	-39.5	-54.4	3.8	1.49e+00	0	53	104	0	50	20107
2026-01-10 01:31:17.41	359.01	9.09	-39.4	-54.4	3.8	1.49e+00	0	53	104	0	50	20119
2026-01-10 01:31:20.43	358.66	9.28	-39.4	-54.3	3.8	1.49e+00	0	53	104	0	50	20021
2026-01-10 01:31:23.46	358.30	9.47	-39.2	-54.2	3.8	1.49e+00	0	53	104	0	50	19832
2026-01-10 01:31:26.48	357.94	9.66	-39.5	-54.3	3.8	1.49e+00	0	53	104	0	50	19964
2026-01-10 01:31:29.51	357.58	9.85	-39.3	-54.3	3.8	1.49e+00	0	53	104	0	49	21019
2026-01-10 01:31:32.53	357.21	10.04	-39.5	-54.3	3.8	1.49e+00	0	53	104	0	49	21230
2026-01-10 01:31:35.56	356.83	10.23	-39.8	-54.5	3.8	1.49e+00	0	53	104	0	50	20322
2026-01-10 01:31:38.58	356.45	10.42	-39.4	-54.3	3.8	1.49e+00	0	53	104	0	50	19994
2026-01-10 01:31:41.61	356.07	10.61	-39.8	-54.4	3.8	1.49e+00	0	53	104	0	50	20262
2026-01-10 01:31:44.64	355.68	10.80	-39.7	-54.4	3.8	1.49e+00	0	53	104	0	50	20173
2026-01-10 01:31:47.67	355.28	10.99	-39.7	-54.4	3.8	1.49e+00	0	54	104	0	50	20084
2026-01-10 01:31:50.70	354.88	11.19	-40.0	-54.8	3.8	1.49e+00	0	54	104	0	50	21106
2026-01-10 01:31:53.72	354.48	11.38	-40.1	-54.7	3.8	1.49e+00	0	53	104	0	51	19667
2026-01-10 01:31:56.75	354.06	11.57	-39.9	-54.5	3.8	1.49e+00	0	54	104	0	51	19272
2026-01-10 01:31:59.77	353.65	11.76	-39.9	-54.8	3.8	1.49e+00	0	54	104	0	51	20043
2026-01-10 01:32:02.80	353.22	11.95	-40.1	-54.7	3.8	1.49e+00	0	54	104	0	51	19683
2026-01-10 01:32:05.83	352.79	12.14	-40.4	-54.9	3.8	1.49e+00	0	54	104	0	51	20197
2026-01-10 01:32:08.86	352.36	12.34	-40.1	-54.9	3.8	1.49e+00	0	54	104	0	51	20117
2026-01-10 01:32:11.89	351.92	12.53	-40.6	-55.2	3.8	1.49e+00	0	54	104	0	51	20824
2026-01-10 01:32:14.92	351.47	12.72	-40.4	-55.0	3.8	1.49e+00	0	54	104	0	51	20377
2026-01-10 01:32:17.95	351.02	12.91	-40.6	-55.3	3.8	1.49e+00	0	54	104	0	51	21216
2026-01-10 01:32:20.97	350.56	13.10	-40.4	-55.1	3.8	1.49e+00	0	54	104	0	51	20541
2026-01-10 01:32:24.00	350.10	13.29	-40.2	-55.3	3.8	1.49e+00	0	54	104	0	51	21169
2026-01-10 01:32:27.03	349.63	13.48	-40.6	-55.3	3.8	1.49e+00	0	54	104	0	51	21249
2026-01-10 01:32:30.05	349.15	13.67	-40.3	-55.4	3.8	1.49e+00	0	54	104	0	51	21442
2026-01-10 01:32:33.08	348.67	13.86	-40.1	-55.2	3.8	1.49e+00	0	54	104	0	52	19709
2026-01-10 01:32:36.11	348.18	14.05	-41.1	-55.8	3.8	1.49e+00	0	54	104	0	52	21107
2026-01-10 01:32:39.13	347.69	14.24	-40.9	-55.6	3.8	1.49e+00	0	54	104	0	52	20564
2026-01-10 01:32:42.16	347.18	14.42	-41.2	-55.8	3.8	1.49e+00	0	54	104	0	53	20043
2026-01-10 01:32:45.19	346.67	14.61	-41.0	-55.6	3.8	1.49e+00	0	54	104	0	53	19512
2026-01-10 01:32:48.22	346.16	14.80	-40.7	-55.3	3.8	1.49e+00	0	55	104	0	53	18871
2026-01-10 01:32:51.25	345.64	14.98	-40.5	-55.3	3.8	1.49e+00	0	54	104	0	53	18756
2026-01-10 01:32:54.27	345.11	15.16	-40.7	-55.4	3.8	1.49e+00	0	55	104	0	53	19005
2026-01-10 01:32:57.30	344.57	15.35	-40.5	-55.3	3.8	1.49e+00	0	54	104	0	52	19972
2026-01-10 01:33:00.32	344.03	15.53	-40.5	-55.1	3.8	1.49e+00	0	55	104	0	52	19392
2026-01-10 01:33:03.34	343.49	15.71	-40.6	-55.2	3.8	1.49e+00	0	54	104	0	52	19644
2026-01-10 01:33:06.37	342.93	15.89	-40.2	-55.1	3.8	1.49e+00	0	55	104	0	51	20661
2026-01-10 01:33:09.38	342.37	16.06	-40.5	-55.1	3.8	1.49e+00	0	55	104	0	52	19405
2026-01-10 01:33:12.41	341.81	16.24	-40.2	-54.9	3.8	1.49e+00	0	55	104	0	52	19047
2026-01-10 01:33:15.43	341.23	16.41	-40.5	-55.1	3.8	1.49e+00	0	55	104	0	52	19432
2026-01-10 01:33:18.45	340.65	16.58	-40.5	-55.0	3.8	1.49e+00	0	55	104	0	52	19331
2026-01-10 01:33:21.47	340.06	16.75	-40.8	-54.6	3.8	1.49e+00	0	55	104	0	52	18515
2026-01-10 01:33:24.50	339.47	16.92	-41.2	-50.3	5.2	9.85e-01	0	55	0	1048576	52	11261
2026-01-10 01:33:27.52	338.87	17.09	-40.3	-44.7	11.3	4.39e-03	0	55	0	6291456	52	5895
2026-01-10 01:33:30.55	338.26	17.25	-39.8	-43.1	13.5	1.14e-05	0	55	0	12582912	51	5204
2026-01-10 01:33:33.57	337.64	17.41	-39.9	-43.3	13.6	6.10e-06	0	55	0	17825792	51	5280
2026-01-10 01:33:36.60	337.02	17.57	-39.8	-42.8	14.3	2.20e-06	0	55	0	24117248	51	5027
2026-01-10 01:33:39.62	336.39	17.73	-40.2	-43.2	14.2	3.80e-06	0	55	0	29360128	51	5241
2026-01-10 01:33:42.65	335.76	17.88	-40.1	-43.1	14.4	7.00e-07	0	55	0	34603008	51	5169
2026-01-10 01:33:45.67	335.12	18.03	-40.2	-43.2	14.4	0.00e+00	0	55	0	40894464	51	5241
2026-01-10 01:33:48.69	334.47	18.18	-40.4	-43.4	14.1	3.00e-06	0	55	0	46137344	51	5385
2026-01-10 01:33:51.72	333.82	18.33	-40.6	-43.7	13.9	1.50e-06	0	55	0	52428800	51	5554
2026-01-10 01:33:54.75	333.15	18.47	-40.5	-43.5	14.1	2.20e-06	0	55	0	57671680	51	5456
2026-01-10 01:33:57.77	332.49	18.61	-40.6	-43.7	14.0	1.50e-06	0	55	0	62914560	51	5531
2026-01-10 01:34:00.79	331.82	18.75	-40.4	-43.4	14.3	0.00e+00	0	55	0	69206016	51	5358
2026-01-10 01:34:03.81	331.14	18.88	-40.2	-43.0	14.7	0.00e+00	0	55	0	74448896	51	5139
2026-01-10 01:34:06.83	330.45	19.01	-40.0	-42.7	15.0	0.00e+00	0	55	0	80740352	51	4980
2026-01-10 01:34:09.84	329.77	19.13	-39.9	-42.6	15.2	0.00e+00	0	55	0	85983232	51	4892
2026-01-10 01:34:12.87	329.07	19.26	-39.9	-42.6	15.2	0.00e+00	0	55	0	91226112	51	4884
2026-01-10 01:34:15.90	328.36	19.37	-39.9	-42.5	15.3	0.00e+00	0	55	0	97517568	51	4827
2026-01-10 01:34:18.93	327.66	19.49	-39.9	-42.6	15.2	0.00e+00	0	55	0	102760448	51	4896
2026-01-10 01:34:21.95	326.94	19.60	-39.8	-42.4	15.4	0.00e+00	0	55	0	109051904	51	4795
2026-01-10 01:34:24.98	326.22	19.70	-39.7	-42.2	15.6	0.00e+00	0	55	0	114294784	51	4701
2026-01-10 01:34:28.00	325.50	19.80	-39.9	-42.5	15.3	0.00e+00	0	55	0	119537664	51	4831
2026-01-10 01:34:31.02	324.77	19.90	-40.0	-42.7	15.1	0.00e+00	0	55	0	125829120	51	4972
2026-01-10 01:34:34.04	324.04	19.99	-40.1	-42.8	15.0	0.00e+00	0	55	0	131072000	51	4997
2026-01-10 01:34:37.06	323.31	20.08	-40.3	-43.1	14.7	0.00e+00	0	55	0	137363456	51	5191
2026-01-10 01:34:40.09	322.57	20.16	-40.2	-43.0	14.8	0.00e+00	0	55	0	142606336	51	5155
2026-01-10 01:34:43.11	321.82	20.24	-40.2	-43.0	14.8	0.00e+00	0	55	0	147849216	51	5140
2026-01-10 01:34:46.13	321.07	20.32	-40.4	-43.3	14.5	0.00e+00	0	55	0	154140672	51	5286
2026-01-10 01:34:49.15	320.32	20.38	-40.6	-43.7	14.1	7.00e-07	0	55	0	159383552	51	5538
2026-01-10 01:34:52.17	319.57	20.45	-40.7	-43.8	13.9	4.50e-06	0	55	0	165675008	52	5327
2026-01-10 01:34:55.19	318.81	20.51	-40.7	-43.9	13.9	2.20e-06	0	55	0	170917888	52	5341
2026-01-10 01:34:58.22	318.05	20.56	-40.9	-44.2	13.6	8.30e-06	0	55	0	176160768	52	5539
2026-01-10 01:35:01.25	317.28	20.61	-41.0	-44.3	13.4	1.75e-05	0	55	0	182452224	52	5636
2026-01-10 01:35:04.28	316.51	20.65	-41.1	-44.5	13.3	1.06e-05	0	55	0	187695104	52	5728
2026-01-10 01:35:07.30	315.75	20.69	-41.1	-44.5	13.2	1.83e-05	0	55	0	193986560	52	5784
2026-01-10 01:35:10.33	314.98	20.72	-41.2	-44.7	13.0	3.35e-05	0	55	0	199229440	53	5566
2026-01-10 01:35:13.34	314.21	20.74	-40.9	-44.2	13.5	1.29e-05	0	55	0	205520896	53	5245
2026-01-10 01:35:16.36	313.44	20.77	-41.0	-44.4	13.3	1.22e-05	0	56	0	210763776	53	5361
2026-01-10 01:35:19.38	312.66	20.78	-41.2	-44.7	13.0	3.35e-05	0	55	0	216006656	53	5590
2026-01-10 01:35:22.40	311.89	20.79	-41.2	-44.7	13.0	4.42e-05	0	55	0	222298112	53	5581
2026-01-10 01:35:25.42	311.12	20.80	-41.1	-44.6	13.2	3.05e-05	0	55	0	227540992	53	5471
2026-01-10 01:35:28.44	310.34	20.79	-41.0	-44.4	13.4	1.44e-05	0	55	0	233832448	53	5361
2026-01-10 01:35:31.47	309.57	20.79	-40.9	-44.1	13.7	8.30e-06	0	56	0	239075328	53	5173
2026-01-10 01:35:34.49	308.79	20.78	-40.8	-44.1	13.7	6.10e-06	0	56	0	244318208	53	5168
2026-01-10 01:35:37.51	308.02	20.76	-40.8	-43.9	13.8	6.80e-06	0	56	0	250609664	53	5098
2026-01-10 01:35:40.54	307.25	20.74	-40.9	-44.3	13.5	6.10e-06	0	56	0	255852544	53	5280
2026-01-10 01:35:43.56	306.48	20.71	-40.7	-43.7	14.0	6.80e-06	0	55	0	262144000	53	4976
2026-01-10 01:35:46.57	305.71	20.67	-40.5	-43.6	14.2	4.50e-06	0	56	0	267386880	53	4871
2026-01-10 01:35:49.59	304.94	20.63	-40.3	-43.1	14.7	7.00e-07	0	56	0	272629760	52	4903
2026-01-10 01:35:52.61	304.18	20.59	-40.1	-42.9	14.8	0.00e+00	0	55	0	278921216	52	4800
2026-01-10 01:35:55.63	303.41	20.54	-40.1	-42.9	14.8	7.00e-07	0	55	0	284164096	52	4794
2026-01-10 01:35:58.66	302.65	20.48	-40.1	-42.9	14.9	0.00e+00	0	56	0	290455552	52	4773
2026-01-10 01:36:01.68	301.89	20.42	-40.0	-42.7	15.2	0.00e+00	0	56	0	295698432	51	4949
2026-01-10 01:36:04.71	301.14	20.36	-39.9	-42.5	15.3	0.00e+00	0	56	0	300941312	51	4866
2026-01-10 01:36:07.73	300.39	20.29	-39.7	-42.2	15.6	0.00e+00	0	56	0	307232768	51	4672
2026-01-10 01:36:10.76	299.64	20.21	-39.5	-42.0	15.9	0.00e+00	0	56	0	312475648	51	4551
2026-01-10 01:36:13.78	298.89	20.13	-39.6	-42.1	15.7	0.00e+00	0	56	0	318767104	51	4614
2026-01-10 01:36:16.80	298.15	20.05	-39.9	-42.6	15.2	0.00e+00	0	56	0	324009984	51	4876
2026-01-10 01:36:19.82	297.42	19.96	-39.8	-42.4	15.4	0.00e+00	0	55	0	329252864	51	4769
2026-01-10 01:36:22.84	296.69	19.86	-39.7	-42.2	15.6	0.00e+00	0	56	0	335544320	51	4684
2026-01-10 01:36:25.86	295.96	19.76	-39.8	-42.3	15.5	0.00e+00	0	56	0	340787200	51	4719
2026-01-10 01:36:28.89	295.24	19.66	-40.1	-42.8	15.0	0.00e+00	0	56	0	347078656	51	4996
2026-01-10 01:36:31.92	294.52	19.55	-40.3	-43.2	14.6	0.00e+00	0	56	0	352321536	51	5243
2026-01-10 01:36:34.95	293.80	19.44	-40.5	-43.4	14.4	7.00e-07	0	55	0	357564416	51	5362
2026-01-10 01:36:37.98	293.09	19.33	-40.4	-43.3	14.4	7.00e-07	0	56	0	363855872	51	5338
2026-01-10 01:36:41.01	292.39	19.21	-40.5	-43.5	14.2	1.50e-06	0	56	0	369098752	51	5447
2026-01-10 01:36:44.03	291.70	19.08	-40.8	-44.1	13.6	6.10e-06	0	55	0	375390208	52	5480
2026-01-10 01:36:47.05	291.01	18.96	-40.6	-43.7	13.9	5.30e-06	0	56	0	380633088	52	5255
2026-01-10 01:36:50.08	290.32	18.82	-40.6	-43.8	13.9	3.00e-06	0	56	0	385875968	52	5297
2026-01-10 01:36:53.10	289.64	18.69	-40.8	-44.0	13.7	6.10e-06	0	56	0	392167424	52	5421
2026-01-10 01:36:56.12	288.97	18.55	-40.7	-44.0	13.7	3.00e-06	0	56	0	397410304	52	5413
2026-01-10 01:36:59.14	288.31	18.41	-40.8	-44.2	13.4	1.14e-05	0	56	0	403701760	52	5535
2026-01-10 01:37:02.17	287.64	18.27	-41.1	-44.6	13.0	5.03e-05	0	55	0	408944640	52	5799
2026-01-10 01:37:05.20	286.99	18.12	-40.8	-44.1	13.5	2.05e-05	0	56	0	415236096	52	5476
2026-01-10 01:37:08.22	286.34	17.97	-40.7	-43.9	13.6	6.10e-06	0	56	0	420478976	52	5376
2026-01-10 01:37:11.25	285.70	17.82	-40.9	-44.3	13.2	1.83e-05	0	56	0	425721856	52	5611
2026-01-10 01:37:14.28	285.06	17.66	-41.1	-44.6	12.9	6.02e-05	0	56	0	432013312	52	5854
2026-01-10 01:37:17.30	284.44	17.50	-41.3	-45.1	12.4	1.41e-04	0	56	0	437256192	53	5799
2026-01-10 01:37:20.31	283.82	17.34	-41.2	-44.9	12.6	8.62e-05	0	56	0	443547648	53	5660
2026-01-10 01:37:23.33	283.20	17.18	-41.2	-44.9	12.6	1.34e-04	0	56	0	448790528	53	5687
2026-01-10 01:37:26.35	282.60	17.01	-41.1	-44.7	12.8	6.48e-05	0	56	0	454033408	53	5533
2026-01-10 01:37:29.37	282.00	16.85	-41.0	-44.6	12.8	8.39e-05	0	56	0	460324864	53	5514
2026-01-10 01:37:32.39	281.40	16.68	-40.8	-44.2	13.3	2.74e-05	0	56	0	465567744	53	5229
2026-01-10 01:37:35.41	280.82	16.51	-40.8	-44.2	13.3	1.29e-05	0	56	0	471859200	53	5227
2026-01-10 01:37:38.43	280.24	16.33	-41.0	-44.6	12.9	4.27e-05	0	56	0	477102080	53	5469
2026-01-10 01:37:41.45	279.66	16.16	-41.1	-44.8	12.5	1.13e-04	0	56	0	482344960	53	5642
2026-01-10 01:37:44.46	279.10	15.98	-41.0	-44.6	12.8	8.01e-05	0	56	0	488636416	53	5483
2026-01-10 01:37:47.48	278.54	15.81	-40.8	-44.2	13.1	2.89e-05	0	56	0	493879296	53	5256
2026-01-10 01:37:50.51	277.98	15.63	-41.0	-44.6	12.8	5.64e-05	0	56	0	500170752	53	5480
2026-01-10 01:37:53.54	277.43	15.45	-41.3	-45.2	12.1	2.70e-04	0	56	0	505413632	53	5880
2026-01-10 01:37:56.57	276.89	15.26	-41.3	-45.2	12.1	2.85e-04	0	56	0	510656512	53	5886
2026-01-10 01:37:59.59	276.36	15.08	-41.4	-45.5	11.8	4.05e-04	0	56	0	516947968	53	6090
2026-01-10 01:38:02.61	275.83	14.90	-41.4	-45.5	11.8	5.15e-04	0	56	0	522190848	53	6064
2026-01-10 01:38:05.63	275.31	14.71	-41.5	-45.6	11.6	6.26e-04	0	56	0	528482304	53	6182
2026-01-10 01:38:08.65	274.80	14.53	-41.4	-45.5	11.7	6.10e-04	0	56	0	533725184	53	6119
2026-01-10 01:38:11.67	274.29	14.34	-41.3	-45.3	12.0	3.12e-04	0	56	0	538968064	53	5924
2026-01-10 01:38:14.69	273.79	14.15	-41.4	-45.6	11.6	6.50e-04	0	56	0	545259520	53	6143
2026-01-10 01:38:17.71	273.29	13.96	-41.3	-45.4	11.8	4.88e-04	0	56	0	550502400	53	6037
2026-01-10 01:38:20.73	272.81	13.77	-41.2	-45.1	12.1	3.28e-04	0	56	0	556793856	53	5830
2026-01-10 01:38:23.75	272.32	13.58	-41.0	-44.8	12.4	1.26e-04	0	56	0	562036736	53	5600
2026-01-10 01:38:26.78	271.85	13.39	-40.8	-44.5	12.7	8.31e-05	0	56	0	567279616	53	5424
2026-01-10 01:38:29.79	271.38	13.20	-40.9	-44.6	12.6	1.03e-04	0	56	0	573571072	53	5492
2026-01-10 01:38:32.81	270.91	13.01	-40.8	-44.5	12.6	8.46e-05	0	56	0	578813952	53	5433
2026-01-10 01:38:35.84	270.46	12.82	-40.7	-44.3	12.8	5.11e-05	0	56	0	585105408	53	5299
2026-01-10 01:38:38.87	270.00	12.63	-40.6	-44.0	13.0	3.81e-05	0	56	0	590348288	53	5158
2026-01-10 01:38:41.89	269.56	12.44	-40.4	-43.8	13.3	1.67e-05	0	56	0	595591168	52	5321
2026-01-10 01:38:44.92	269.12	12.25	-40.5	-43.9	13.2	1.90e-05	0	56	0	601882624	52	5365
2026-01-10 01:38:47.95	268.68	12.05	-40.5	-44.0	13.0	4.11e-05	0	56	0	607125504	52	5435
2026-01-10 01:38:50.97	268.25	11.86	-40.4	-43.7	13.3	3.35e-05	0	56	0	613416960	52	5270
2026-01-10 01:38:54.00	267.83	11.67	-40.5	-44.0	13.1	2.36e-05	0	56	0	618659840	52	5410
2026-01-10 01:38:57.02	267.41	11.48	-40.4	-43.7	13.3	1.90e-05	0	56	0	623902720	52	5261
2026-01-10 01:39:00.05	267.00	11.28	-40.3	-43.7	13.3	2.36e-05	0	56	0	630194176	52	5267
2026-01-10 01:39:03.07	266.59	11.09	-40.4	-43.9	13.1	2.59e-05	0	56	0	635437056	52	5363
2026-01-10 01:39:06.09	266.19	10.90	-40.2	-43.5	13.4	1.90e-05	0	56	0	641728512	52	5154
2026-01-10 01:39:09.11	265.79	10.71	-40.2	-43.6	13.3	1.83e-05	0	56	0	646971392	52	5174
2026-01-10 01:39:12.12	265.41	10.52	-40.3	-43.8	13.1	3.05e-05	0	56	0	652214272	52	5304
2026-01-10 01:39:15.14	265.02	10.33	-40.3	-43.9	12.8	5.18e-05	0	56	0	658505728	52	5386
2026-01-10 01:39:18.17	264.64	10.13	-40.4	-44.1	12.7	9.30e-05	0	56	0	663748608	52	5472
2026-01-10 01:39:21.20	264.26	9.94	-40.4	-44.2	12.6	9.99e-05	0	56	0	670040064	52	5542
2026-01-10 01:39:24.22	263.89	9.75	-40.4	-44.1	12.6	9.91e-05	0	56	0	675282944	52	5490
2026-01-10 01:39:27.24	263.53	9.56	-40.4	-44.2	12.5	1.11e-04	0	56	0	681574400	52	5541
2026-01-10 01:39:30.27	263.17	9.37	-40.5	-44.1	12.6	8.92e-05	0	56	0	686817280	52	5525
2026-01-10 01:39:33.29	262.81	9.18	-40.4	-44.1	12.6	6.94e-05	0	56	0	692060160	52	5496
2026-01-10 01:39:36.31	262.46	8.99	-40.6	-44.5	12.3	1.84e-04	0	56	0	698351616	52	5757
2026-01-10 01:39:39.34	262.11	8.80	-40.6	-44.5	12.2	1.96e-04	0	56	0	703594496	52	5734
2026-01-10 01:39:42.36	261.77	8.62	-40.9	-45.1	11.6	5.77e-04	0	56	0	709885952	52	6156
2026-01-10 01:39:45.38	261.43	8.43	-41.0	-45.4	11.3	1.08e-03	0	56	0	715128832	52	6366
2026-01-10 01:39:48.41	261.10	8.24	-40.9	-45.2	11.5	7.51e-04	0	56	0	720371712	52	6218
2026-01-10 01:39:51.43	260.77	8.05	-41.1	-45.4	11.3	1.07e-03	0	56	0	726663168	52	6369
2026-01-10 01:39:54.46	260.44	7.87	-44.4	-58.9	3.8	1.49e+00	0	56	104	728760320	59	20205
2026-01-10 01:39:57.48	260.12	7.68	-44.7	-59.4	3.8	1.49e+00	0	56	104	728760320	60	20288
2026-01-10 01:40:00.51	259.81	7.50	-44.9	-59.6	3.8	1.49e+00	0	56	104	728760320	60	20742
2026-01-10 01:40:03.54	259.49	7.31	-44.9	-59.6	3.8	1.49e+00	0	56	104	728760320	60	20702
2026-01-10 01:40:06.56	259.19	7.13	-44.9	-59.6	3.8	1.49e+00	0	56	104	728760320	60	20651
2026-01-10 01:40:09.59	258.88	6.94	-44.9	-59.6	3.8	1.49e+00	0	56	104	728760320	60	20743
2026-01-10 01:40:12.62	258.58	6.76	-44.8	-59.6	3.8	1.49e+00	0	56	104	728760320	60	20706
2026-01-10 01:40:15.63	258.28	6.58	-44.9	-59.6	3.8	1.49e+00	0	56	104	728760320	60	20728
2026-01-10 01:40:18.66	257.99	6.39	-44.8	-59.6	3.8	1.49e+00	0	56	104	728760320	60	20691
2026-01-10 01:40:21.69	257.70	6.21	-44.8	-59.6	3.8	1.49e+00	0	56	104	728760320	60	20688
2026-01-10 01:40:24.72	257.41	6.03	-44.8	-59.6	3.8	1.49e+00	0	56	104	728760320	60	20675
2026-01-10 01:40:27.74	257.13	5.85	-44.8	-59.6	3.8	1.49e+00	0	56	104	728760320	60	20749
2026-01-10 01:40:30.77	256.85	5.67	-44.8	-59.6	3.8	1.49e+00	0	56	104	728760320	60	20633
2026-01-10 01:40:33.80	256.58	5.49	-44.8	-59.6	3.8	1.49e+00	0	56	104	728760320	60	20636
2026-01-10 01:40:36.82	256.31	5.31	-44.8	-59.6	3.8	1.49e+00	0	56	104	728760320	60	20597
2026-01-10 01:40:39.85	256.04	5.13	-44.8	-59.6	3.8	1.49e+00	0	56	104	728760320	60	20585
2026-01-10 01:40:42.86	255.78	4.96	-44.8	-59.6	3.8	1.49e+00	0	56	104	728760320	60	20576
2026-01-10 01:40:45.89	255.51	4.78	-44.8	-59.6	3.8	1.49e+00	0	56	104	728760320	60	20642
2026-01-10 01:40:48.92	255.25	4.60	-44.8	-59.6	3.8	1.49e+00	0	56	104	728760320	60	20628
2026-01-10 01:40:51.94	255.00	4.43	-44.8	-59.6	3.8	1.49e+00	0	56	104	728760320	60	20627
2026-01-10 01:40:54.96	254.75	4.25	-44.8	-59.6	3.8	1.49e+00	0	56	104	728760320	60	20641
2026-01-10 01:40:57.99	254.50	4.08	-44.8	-59.6	3.8	1.49e+00	0	56	104	728760320	60	20626
2026-01-10 01:41:01.02	254.25	3.91	-44.8	-59.6	3.8	1.49e+00	0	56	104	728760320	60	20580
2026-01-10 01:41:04.04	254.01	3.73	-44.8	-59.6	3.8	1.49e+00	0	56	104	728760320	60	20628
2026-01-10 01:41:07.06	253.77	3.56	-44.8	-59.6	3.8	1.49e+00	0	56	104	728760320	60	20680
2026-01-10 01:41:10.09	253.53	3.39	-44.8	-59.6	3.8	1.49e+00	0	56	104	728760320	60	20660
2026-01-10 01:41:13.12	253.30	3.22	-44.8	-59.6	3.8	1.49e+00	0	56	104	728760320	60	20543
2026-01-10 01:41:16.14	253.07	3.05	-44.8	-59.6	3.8	1.49e+00	0	56	104	728760320	60	20564
2026-01-10 01:41:19.17	252.84	2.88	-44.8	-59.6	3.8	1.49e+00	0	56	104	728760320	60	20595
2026-01-10 01:41:22.20	252.61	2.71	-44.8	-59.5	3.8	1.49e+00	0	56	104	728760320	60	20521
2026-01-10 01:41:25.23	252.39	2.54	-44.8	-59.6	3.8	1.49e+00	0	56	104	728760320	60	20576
2026-01-10 01:41:28.25	252.17	2.37	-44.8	-59.6	3.8	1.49e+00	0	56	104	728760320	60	20569
2026-01-10 01:41:31.28	251.95	2.20	-44.8	-59.6	3.8	1.49e+00	0	56	104	728760320	60	20586
2026-01-10 01:41:34.31	251.73	2.03	-44.8	-59.6	3.8	1.49e+00	0	56	104	728760320	60	20644

#Closed at: 2026-01-10 01:41:36
#Recorded file [728 MB]: D:/lorett/data/31039_260110_042916.dat