passes_logs/2026/01/10/R2.0S_Moscow/R2.0S_Moscow__20260110_215001_NOAA_20_JPSS-1_rec.log

#Pass ID: 20260110_215001_NOAA 20 (JPSS-1)
#Satellite: NOAA 20 (JPSS-1)
#Configuration: NOAA 20
#almurnet v.1.7.20251203
#Start time: 2026-01-10 21:50:02

#Version: 2.2.20231116
#Station: R2.0S_Moscow
#Location: 37.707566 lon 55.798166 lat
#TLE: 1 43013U 17073A   26009.69119415  .00000109  00000+0  72598-4 0  9996
#TLE: 2 43013  98.7631 310.6868 0001678  46.7442 313.3874 14.19534878421981

#Time	Az	El	Level	Level2	SNR	BER	BlckErr	Temp	State	Recorded	gain1	gain2
2026-01-10 21:50:02.45	28.48	2.04	-42.6	-57.4	3.8	1.49e+00	0	46	0	0	57	18995
2026-01-10 21:50:05.48	28.75	2.19	-42.6	-57.4	3.8	1.49e+00	0	46	104	0	56	20208
2026-01-10 21:50:08.52	29.01	2.34	-42.6	-57.4	3.8	1.49e+00	0	47	104	0	56	20200
2026-01-10 21:50:11.55	29.28	2.49	-42.6	-57.4	3.8	1.49e+00	0	47	104	0	56	20142
2026-01-10 21:50:14.58	29.55	2.65	-42.6	-57.4	3.8	1.49e+00	0	47	104	0	56	20143
2026-01-10 21:50:17.62	29.82	2.80	-42.6	-57.4	3.8	1.49e+00	0	47	104	0	56	20207
2026-01-10 21:50:20.65	30.10	2.95	-42.6	-57.4	3.8	1.49e+00	0	48	104	0	56	20104
2026-01-10 21:50:23.68	30.37	3.10	-42.5	-57.3	3.8	1.49e+00	0	48	104	0	56	20060
2026-01-10 21:50:26.71	30.65	3.25	-42.6	-57.4	3.8	1.49e+00	0	48	104	0	56	20116
2026-01-10 21:50:29.75	30.94	3.41	-42.6	-57.4	3.8	1.49e+00	0	48	104	0	56	20122
2026-01-10 21:50:32.78	31.22	3.56	-42.6	-57.4	3.8	1.49e+00	0	48	104	0	56	20106
2026-01-10 21:50:35.81	31.51	3.71	-42.5	-57.4	3.8	1.49e+00	0	48	104	0	56	20076
2026-01-10 21:50:38.85	31.81	3.87	-42.6	-57.4	3.8	1.49e+00	0	49	104	0	56	20137
2026-01-10 21:50:41.88	32.10	4.02	-42.5	-57.4	3.8	1.49e+00	0	49	104	0	56	20079
2026-01-10 21:50:44.91	32.40	4.18	-42.5	-57.4	3.8	1.49e+00	0	49	104	0	56	20115
2026-01-10 21:50:47.94	32.70	4.33	-42.5	-57.4	3.8	1.49e+00	0	49	104	0	56	20095
2026-01-10 21:50:50.98	33.00	4.49	-42.5	-57.4	3.8	1.49e+00	0	49	104	0	56	20134
2026-01-10 21:50:54.01	33.31	4.64	-42.6	-57.4	3.8	1.49e+00	0	50	104	0	56	20076
2026-01-10 21:50:57.04	33.62	4.80	-42.5	-57.4	3.8	1.49e+00	0	50	104	0	56	20136
2026-01-10 21:51:00.08	33.93	4.95	-42.5	-57.4	3.8	1.49e+00	0	50	104	0	56	20109
2026-01-10 21:51:03.11	34.25	5.11	-42.5	-57.4	3.8	1.49e+00	0	50	104	0	56	20130
2026-01-10 21:51:06.14	34.57	5.27	-42.5	-57.4	3.8	1.49e+00	0	50	104	0	56	20138
2026-01-10 21:51:09.18	34.89	5.42	-42.5	-57.3	3.8	1.49e+00	0	50	104	0	56	20065
2026-01-10 21:51:12.21	35.22	5.58	-42.6	-57.4	3.8	1.49e+00	0	51	104	0	56	20101
2026-01-10 21:51:15.24	35.55	5.74	-42.6	-57.4	3.8	1.49e+00	0	51	104	0	56	20102
2026-01-10 21:51:18.28	35.88	5.89	-42.5	-57.3	3.8	1.49e+00	0	51	104	0	56	20067
2026-01-10 21:51:21.31	36.22	6.05	-42.5	-57.3	3.8	1.49e+00	0	51	104	0	56	20005
2026-01-10 21:51:24.34	36.56	6.21	-42.5	-57.3	3.8	1.49e+00	0	51	104	0	56	20020
2026-01-10 21:51:27.37	36.90	6.36	-42.5	-57.4	3.8	1.49e+00	0	51	104	0	56	20083
2026-01-10 21:51:30.40	37.25	6.52	-42.5	-57.4	3.8	1.49e+00	0	51	104	0	56	20075
2026-01-10 21:51:33.44	37.60	6.68	-42.5	-57.3	3.8	1.49e+00	0	51	104	0	56	20054
2026-01-10 21:51:36.47	37.95	6.84	-42.5	-57.3	3.8	1.49e+00	0	51	104	0	56	19991
2026-01-10 21:51:39.50	38.31	6.99	-42.5	-57.4	3.8	1.49e+00	0	51	104	0	56	20131
2026-01-10 21:51:42.54	38.67	7.15	-42.5	-56.8	3.8	1.49e+00	0	51	104	0	56	18836
2026-01-10 21:51:45.57	39.04	7.31	-42.4	-54.4	3.9	1.46e+00	0	52	104	0	56	14322
2026-01-10 21:51:48.60	39.41	7.47	-42.3	-53.3	4.4	1.14e+00	73	52	0	3145728	56	12569
2026-01-10 21:51:51.63	39.78	7.62	-42.5	-56.6	3.8	1.49e+00	0	52	104	3145728	56	18384
2026-01-10 21:51:54.67	40.16	7.78	-42.1	-51.9	4.9	9.54e-01	0	52	0	4194304	56	10759
2026-01-10 21:51:57.70	40.54	7.94	-41.5	-48.7	7.2	1.81e-01	0	52	0	10485760	55	7855
2026-01-10 21:52:00.73	40.93	8.10	-42.2	-52.9	4.5	1.52e-01	3	52	0	15728640	54	13557
2026-01-10 21:52:03.76	41.31	8.25	-41.0	-46.1	10.0	8.53e-01	0	52	0	16777216	53	6561
2026-01-10 21:52:06.79	41.71	8.41	-40.9	-46.2	9.9	9.00e-03	0	52	0	22020096	53	6608
2026-01-10 21:52:09.81	42.10	8.57	-41.1	-46.3	10.0	7.41e-03	0	52	0	27262976	53	6667
2026-01-10 21:52:12.84	42.50	8.72	-40.8	-45.4	11.1	2.07e-03	0	53	0	33554432	53	6028
2026-01-10 21:52:15.87	42.91	8.88	-40.7	-45.0	11.7	7.59e-04	0	52	0	38797312	53	5743
2026-01-10 21:52:18.90	43.32	9.04	-40.6	-44.7	12.0	3.58e-04	0	53	0	45088768	53	5560
2026-01-10 21:52:21.94	43.73	9.19	-40.6	-44.5	12.3	2.31e-04	0	53	0	50331648	53	5445
2026-01-10 21:52:24.96	44.15	9.35	-40.4	-44.1	12.8	8.31e-05	0	53	0	56623104	52	5499
2026-01-10 21:52:27.99	44.57	9.50	-40.4	-43.9	13.0	3.96e-05	0	53	0	61865984	52	5390
2026-01-10 21:52:31.02	45.00	9.66	-40.4	-44.0	12.9	4.11e-05	0	53	0	67108864	52	5444
2026-01-10 21:52:34.05	45.43	9.81	-40.4	-43.9	13.1	2.44e-05	0	53	0	73400320	52	5370
2026-01-10 21:52:37.08	45.87	9.97	-40.5	-44.1	12.9	4.42e-05	0	53	0	78643200	52	5512
2026-01-10 21:52:40.11	46.31	10.12	-40.4	-43.9	13.1	2.51e-05	0	53	0	84934656	52	5392
2026-01-10 21:52:43.13	46.75	10.27	-40.5	-44.0	13.2	2.13e-05	0	53	0	90177536	52	5417
2026-01-10 21:52:46.16	47.20	10.43	-40.4	-43.9	13.3	1.44e-05	0	53	0	95420416	52	5350
2026-01-10 21:52:49.19	47.65	10.58	-40.5	-43.9	13.2	1.98e-05	0	53	0	101711872	52	5401
2026-01-10 21:52:52.22	48.11	10.73	-40.5	-44.0	13.2	2.74e-05	0	53	0	106954752	52	5428
2026-01-10 21:52:55.25	48.58	10.88	-40.5	-44.0	13.2	3.05e-05	0	53	0	113246208	52	5424
2026-01-10 21:52:58.28	49.04	11.03	-40.4	-43.8	13.4	8.30e-06	0	53	0	118489088	52	5305
2026-01-10 21:53:01.30	49.51	11.18	-40.5	-43.8	13.3	2.13e-05	0	53	0	124780544	52	5333
2026-01-10 21:53:04.33	49.99	11.33	-40.6	-44.1	13.2	1.52e-05	0	53	0	130023424	52	5493
2026-01-10 21:53:07.36	50.47	11.48	-40.6	-44.0	13.2	2.67e-05	0	54	0	135266304	52	5452
2026-01-10 21:53:10.39	50.96	11.62	-40.6	-44.0	13.2	1.37e-05	0	54	0	141557760	52	5460
2026-01-10 21:53:13.42	51.45	11.77	-40.6	-44.0	13.3	2.05e-05	0	54	0	146800640	52	5449
2026-01-10 21:53:16.45	51.95	11.91	-40.7	-44.2	13.1	3.12e-05	0	54	0	153092096	52	5583
2026-01-10 21:53:19.47	52.44	12.05	-40.8	-44.4	12.9	5.49e-05	0	54	0	158334976	52	5670
2026-01-10 21:53:22.50	52.95	12.20	-40.9	-44.4	12.9	5.79e-05	0	54	0	163577856	52	5693
2026-01-10 21:53:25.53	53.46	12.34	-41.0	-44.6	12.7	5.18e-05	0	54	0	169869312	52	5843
2026-01-10 21:53:28.56	53.97	12.48	-41.1	-44.8	12.5	1.13e-04	0	54	0	175112192	52	5946
2026-01-10 21:53:31.59	54.49	12.62	-41.2	-45.0	12.3	1.81e-04	0	54	0	181403648	52	6095
2026-01-10 21:53:34.62	55.02	12.75	-41.3	-45.2	12.2	2.72e-04	0	54	0	186646528	53	5859
2026-01-10 21:53:37.65	55.55	12.89	-41.3	-45.2	12.1	2.84e-04	0	54	0	192937984	53	5891
2026-01-10 21:53:40.68	56.08	13.02	-41.3	-45.3	12.0	3.63e-04	0	54	0	198180864	53	5955
2026-01-10 21:53:43.70	56.62	13.16	-41.4	-45.4	11.8	4.18e-04	0	54	0	203423744	53	6045
2026-01-10 21:53:46.73	57.16	13.29	-41.4	-45.5	11.7	5.55e-04	0	54	0	209715200	53	6109
2026-01-10 21:53:49.76	57.71	13.42	-41.5	-45.6	11.6	7.41e-04	0	54	0	214958080	53	6177
2026-01-10 21:53:52.79	58.26	13.55	-41.4	-45.5	11.8	4.28e-04	0	54	0	221249536	53	6092
2026-01-10 21:53:55.82	58.82	13.67	-41.6	-45.8	11.5	7.19e-04	0	54	0	226492416	53	6315
2026-01-10 21:53:58.85	59.38	13.80	-41.6	-45.9	11.4	9.70e-04	0	54	0	231735296	53	6382
2026-01-10 21:54:01.88	59.95	13.92	-41.8	-46.2	11.1	1.81e-03	0	54	0	238026752	54	6264
2026-01-10 21:54:04.91	60.52	14.04	-41.7	-46.0	11.3	1.28e-03	0	54	0	243269632	54	6092
2026-01-10 21:54:07.94	61.10	14.16	-41.4	-45.5	11.8	5.26e-04	0	54	0	249561088	54	5767
2026-01-10 21:54:10.97	61.68	14.27	-41.4	-45.5	11.8	4.39e-04	0	54	0	254803968	54	5755
2026-01-10 21:54:14.00	62.26	14.39	-41.3	-45.4	11.8	3.95e-04	0	55	0	261095424	54	5711
2026-01-10 21:54:17.03	62.85	14.50	-41.2	-45.2	11.9	3.26e-04	0	54	0	266338304	54	5582
2026-01-10 21:54:20.06	63.44	14.61	-40.9	-44.7	12.4	1.98e-04	0	54	0	271581184	53	5550
2026-01-10 21:54:23.09	64.04	14.72	-40.9	-44.7	12.3	1.89e-04	0	55	0	277872640	53	5540
2026-01-10 21:54:26.12	64.64	14.82	-40.3	-43.7	13.3	1.98e-05	0	55	0	283115520	52	5225
2026-01-10 21:54:29.15	65.25	14.92	-40.2	-43.8	12.9	3.28e-05	0	54	0	289406976	52	5310
2026-01-10 21:54:32.18	65.86	15.02	-40.4	-44.2	12.2	2.16e-04	0	55	0	294649856	52	5585
2026-01-10 21:54:35.20	66.47	15.12	-40.3	-44.4	12.0	2.36e-04	0	55	0	299892736	52	5667
2026-01-10 21:54:38.23	67.09	15.21	-40.4	-44.8	11.2	8.19e-04	0	55	0	306184192	52	5934
2026-01-10 21:54:41.26	67.71	15.30	-40.4	-44.8	11.1	1.64e-03	0	55	0	311427072	52	5926
2026-01-10 21:54:44.29	68.34	15.39	-40.4	-45.2	10.5	2.83e-03	0	55	0	317718528	52	6232
2026-01-10 21:54:47.32	68.96	15.48	-40.5	-45.6	9.9	7.92e-03	0	55	0	322961408	52	6534
2026-01-10 21:54:50.35	69.60	15.56	-40.6	-46.6	8.6	2.87e-02	0	55	0	329252864	52	7295
2026-01-10 21:54:53.37	70.23	15.64	-40.7	-47.7	7.2	1.14e-01	0	55	0	334495744	52	8292
2026-01-10 21:54:56.40	70.87	15.72	-40.7	-48.6	6.2	2.59e-01	0	55	0	339738624	52	9202
2026-01-10 21:54:59.43	71.51	15.79	-40.7	-48.8	6.0	3.51e-01	0	55	0	346030080	52	9457
2026-01-10 21:55:02.46	72.16	15.86	-40.7	-48.6	6.1	3.24e-01	0	55	0	351272960	52	9280
2026-01-10 21:55:05.48	72.80	15.93	-40.6	-48.2	6.5	2.34e-01	0	55	0	357564416	52	8852
2026-01-10 21:55:08.52	73.46	15.99	-40.7	-48.6	6.2	2.66e-01	0	55	0	362807296	52	9210
2026-01-10 21:55:11.54	74.11	16.05	-40.6	-48.9	5.9	3.69e-01	0	55	0	368050176	52	9586
2026-01-10 21:55:14.57	74.77	16.11	-40.5	-48.2	6.4	2.69e-01	0	55	0	374341632	52	8851
2026-01-10 21:55:17.60	75.42	16.17	-40.4	-47.4	7.3	1.31e-01	0	55	0	379584512	52	8017
2026-01-10 21:55:20.63	76.09	16.22	-40.5	-47.3	7.5	1.06e-01	0	55	0	385875968	52	7906
2026-01-10 21:55:23.65	76.75	16.26	-40.5	-47.1	7.8	8.86e-02	0	55	0	391118848	52	7742
2026-01-10 21:55:26.68	77.41	16.31	-40.5	-46.8	8.1	5.71e-02	0	55	0	396361728	52	7473
2026-01-10 21:55:29.71	78.08	16.35	-40.6	-46.8	8.3	5.17e-02	0	55	0	402653184	52	7497
2026-01-10 21:55:32.74	78.75	16.38	-40.7	-47.2	7.9	6.89e-02	0	55	0	407896064	52	7849
2026-01-10 21:55:35.76	79.42	16.41	-40.7	-47.2	7.8	7.97e-02	0	55	0	414187520	52	7891
2026-01-10 21:55:38.79	80.09	16.44	-40.7	-47.0	8.1	6.84e-02	0	55	0	419430400	52	7687
2026-01-10 21:55:41.82	80.76	16.47	-40.8	-46.7	8.7	3.95e-02	0	55	0	425721856	52	7410
2026-01-10 21:55:44.85	81.43	16.49	-41.0	-46.5	9.3	1.90e-02	0	55	0	430964736	52	7246
2026-01-10 21:55:47.87	82.11	16.51	-40.9	-46.0	9.8	9.83e-03	0	55	0	436207616	52	6868
2026-01-10 21:55:50.90	82.78	16.52	-40.8	-45.8	10.1	6.25e-03	0	55	0	442499072	52	6669
2026-01-10 21:55:53.93	83.46	16.53	-40.7	-45.8	9.9	8.46e-03	0	55	0	447741952	52	6714
2026-01-10 21:55:56.96	84.14	16.54	-40.7	-46.1	9.6	1.42e-02	0	55	0	454033408	52	6882
2026-01-10 21:55:59.98	84.81	16.54	-40.7	-46.1	9.4	1.47e-02	0	55	0	459276288	52	6912
2026-01-10 21:56:03.01	85.49	16.54	-40.7	-46.2	9.1	2.23e-02	0	55	0	464519168	52	7028
2026-01-10 21:56:06.04	86.16	16.53	-40.6	-46.0	9.4	1.84e-02	0	55	0	470810624	52	6874
2026-01-10 21:56:09.07	86.84	16.52	-40.4	-45.5	10.0	8.02e-03	0	55	0	476053504	52	6450
2026-01-10 21:56:12.10	87.52	16.51	-40.6	-45.5	10.3	5.40e-03	0	55	0	482344960	52	6475
2026-01-10 21:56:15.13	88.19	16.49	-40.8	-45.5	10.7	4.08e-03	0	55	0	487587840	52	6458
2026-01-10 21:56:18.16	88.87	16.47	-40.6	-44.8	11.6	9.67e-04	0	55	0	493879296	52	5962
2026-01-10 21:56:21.18	89.54	16.45	-40.3	-44.0	12.5	1.34e-04	0	55	0	499122176	52	5461
2026-01-10 21:56:24.22	90.21	16.42	-40.4	-44.0	12.9	7.01e-05	0	55	0	504365056	52	5405
2026-01-10 21:56:27.24	90.88	16.39	-40.5	-44.0	13.0	3.81e-05	0	55	0	510656512	52	5458
2026-01-10 21:56:30.27	91.55	16.35	-40.4	-43.6	13.7	6.80e-06	0	55	0	515899392	52	5167
2026-01-10 21:56:33.30	92.22	16.31	-40.2	-43.2	14.1	0.00e+00	0	55	0	522190848	52	4978
2026-01-10 21:56:36.33	92.89	16.27	-40.2	-43.2	14.2	1.50e-06	0	55	0	527433728	52	4940
2026-01-10 21:56:39.36	93.55	16.23	-40.1	-43.0	14.4	7.00e-07	0	55	0	532676608	52	4861
2026-01-10 21:56:42.39	94.22	16.18	-40.2	-43.1	14.3	0.00e+00	0	55	0	538968064	52	4902
2026-01-10 21:56:45.42	94.88	16.12	-40.1	-43.1	14.3	1.50e-06	0	55	0	544210944	52	4885
2026-01-10 21:56:48.45	95.54	16.07	-40.1	-42.9	14.5	7.00e-07	0	55	0	550502400	51	5098
2026-01-10 21:56:51.48	96.19	16.01	-40.2	-43.1	14.3	7.00e-07	0	55	0	555745280	51	5217
2026-01-10 21:56:54.51	96.84	15.94	-40.5	-43.7	13.9	3.80e-06	0	55	0	562036736	51	5542
2026-01-10 21:56:57.54	97.50	15.88	-40.3	-43.2	14.3	1.50e-06	0	55	0	567279616	51	5257
2026-01-10 21:57:00.57	98.14	15.81	-40.0	-42.8	14.7	7.00e-07	0	55	0	572522496	51	5000
2026-01-10 21:57:03.60	98.79	15.73	-39.8	-42.4	15.1	7.00e-07	0	55	0	578813952	51	4809
2026-01-10 21:57:06.63	99.43	15.66	-39.9	-42.7	14.9	0.00e+00	0	56	0	584056832	50	5236
2026-01-10 21:57:09.66	100.07	15.58	-39.9	-42.7	14.8	0.00e+00	0	55	0	590348288	50	5273
2026-01-10 21:57:12.69	100.70	15.49	-39.9	-42.8	14.8	0.00e+00	0	55	0	595591168	50	5292
2026-01-10 21:57:15.72	101.33	15.41	-40.0	-42.9	14.7	0.00e+00	0	55	0	600834048	50	5360
2026-01-10 21:57:18.75	101.96	15.32	-39.9	-42.7	14.8	0.00e+00	0	55	0	607125504	50	5257
2026-01-10 21:57:21.79	102.59	15.23	-39.6	-42.6	14.9	0.00e+00	0	55	0	612368384	50	5195
2026-01-10 21:57:24.81	103.21	15.13	-39.8	-42.6	15.0	7.00e-07	0	55	0	618659840	50	5169
2026-01-10 21:57:27.84	103.83	15.04	-39.1	-43.3	14.0	4.73e-05	0	55	0	623902720	50	5639
2026-01-10 21:57:30.87	104.44	14.94	-36.7	-43.2	13.3	1.37e-05	0	55	0	630194176	45	7455
2026-01-10 21:57:33.89	105.05	14.84	-38.8	-43.6	13.6	1.67e-04	0	55	0	635437056	50	5828
2026-01-10 21:57:36.92	105.65	14.73	-40.4	-43.7	13.8	3.12e-04	0	55	0	640679936	51	5530
2026-01-10 21:57:39.95	106.25	14.62	-39.4	-43.5	13.7	3.23e-04	0	55	0	646971392	50	5762
2026-01-10 21:57:42.98	106.85	14.51	-39.7	-43.6	13.7	1.65e-03	0	55	0	652214272	49	6155
2026-01-10 21:57:46.01	107.44	14.40	-40.8	-44.3	13.0	3.85e-04	0	55	0	658505728	52	5653
2026-01-10 21:57:49.04	108.03	14.29	-36.3	-45.1	11.5	2.28e-03	0	56	0	663748608	47	8264
2026-01-10 21:57:52.07	108.61	14.17	-40.8	-45.8	11.5	8.00e-04	0	55	0	668991488	52	6667
2026-01-10 21:57:55.10	109.19	14.05	-41.5	-45.7	11.6	1.11e-03	0	56	0	675282944	53	6235
2026-01-10 21:57:58.12	109.76	13.93	-41.5	-45.5	11.8	5.28e-04	0	56	0	680525824	53	6127
2026-01-10 21:58:01.15	110.33	13.81	-41.3	-45.2	12.2	3.21e-04	0	55	0	686817280	53	5857
2026-01-10 21:58:04.18	110.90	13.68	-41.2	-44.9	12.5	1.07e-04	0	55	0	692060160	52	6021
2026-01-10 21:58:07.21	111.46	13.56	-41.3	-45.3	12.0	2.38e-04	0	55	0	698351616	53	5937
2026-01-10 21:58:10.24	112.02	13.43	-41.5	-45.5	11.7	4.52e-04	0	55	0	703594496	53	6126
2026-01-10 21:58:13.27	112.57	13.30	-41.6	-46.0	11.3	1.06e-03	0	56	0	708837376	53	6470
2026-01-10 21:58:16.30	113.11	13.17	-41.5	-46.0	11.2	1.68e-03	0	55	0	715128832	53	6443
2026-01-10 21:58:19.33	113.65	13.03	-40.8	-45.4	11.8	6.99e-04	0	56	0	720371712	53	6023
2026-01-10 21:58:22.35	114.19	12.90	-40.8	-45.3	11.8	2.63e-03	0	56	0	726663168	52	6315
2026-01-10 21:58:25.38	114.72	12.76	-40.0	-45.6	8.2	1.25e-02	0	55	0	731906048	39	13732
2026-01-10 21:58:28.41	115.25	12.62	-38.8	-44.9	11.7	2.87e-02	0	55	0	737148928	48	7551
2026-01-10 21:58:31.44	115.77	12.48	-39.2	-44.3	11.8	3.53e-02	0	55	0	743440384	48	7043
2026-01-10 21:58:34.47	116.29	12.34	-31.7	-44.3	12.1	1.73e-02	0	56	0	748683264	48	7067
2026-01-10 21:58:37.50	116.80	12.20	-39.2	-44.8	11.4	2.80e-02	0	56	0	754974720	49	7073
2026-01-10 21:58:40.53	117.31	12.06	-36.4	-45.2	9.7	1.52e-01	1	56	0	760217600	47	8312
2026-01-10 21:58:43.56	117.82	11.91	-34.1	-44.6	10.4	5.17e-02	0	55	0	766509056	46	8268
2026-01-10 21:58:46.59	118.32	11.77	-33.9	-45.7	7.8	6.86e-02	0	55	0	771751936	44	10460
2026-01-10 21:58:49.62	118.81	11.62	-24.0	-42.9	6.9	1.28e-01	2	56	0	776994816	19	32104
2026-01-10 21:58:52.65	119.30	11.47	-33.9	-43.8	10.8	2.94e-02	0	56	0	783286272	47	7113
2026-01-10 21:58:55.68	119.78	11.32	-32.0	-43.5	10.5	3.31e-02	0	56	0	788529152	41	9701
2026-01-10 21:58:58.71	120.26	11.17	-35.6	-45.1	9.9	6.82e-02	0	56	0	794820608	44	9732
2026-01-10 21:59:01.74	120.74	11.02	-34.3	-44.4	11.3	2.89e-01	0	56	0	800063488	43	9535
2026-01-10 21:59:04.77	121.21	10.87	-37.9	-44.6	10.9	2.60e-02	0	56	0	805306368	47	7727
2026-01-10 21:59:07.80	121.67	10.72	-37.7	-47.9	7.6	1.93e-01	1	56	0	811597824	48	10682
2026-01-10 21:59:10.82	122.13	10.57	-34.9	-47.7	6.8	1.69e-01	1	56	0	816840704	41	15661
2026-01-10 21:59:13.85	122.59	10.41	-36.2	-46.8	8.2	1.22e-01	0	56	0	823132160	44	11894
2026-01-10 21:59:16.88	123.04	10.26	-37.5	-43.6	12.2	2.39e-02	0	56	0	828375040	47	6935
2026-01-10 21:59:19.91	123.49	10.11	-37.7	-45.2	9.9	7.70e-02	0	56	0	833617920	48	7892
2026-01-10 21:59:22.94	123.93	9.95	-38.6	-44.3	11.5	7.48e-02	0	56	0	839909376	47	7521
2026-01-10 21:59:25.97	124.37	9.79	-37.2	-44.3	9.1	7.14e-02	2	56	0	845152256	44	8911
2026-01-10 21:59:29.00	124.80	9.64	-35.9	-44.8	8.5	2.77e-01	12	56	0	851443712	44	9464
2026-01-10 21:59:32.02	125.23	9.48	-26.2	-42.5	4.5	5.48e-01	12	56	0	853540864	23	24401
2026-01-10 21:59:35.05	125.65	9.33	-25.4	-41.7	5.5	4.85e-01	55	56	0	857735168	26	18721
2026-01-10 21:59:38.09	126.08	9.17	-28.8	-43.0	5.1	9.63e-01	0	56	104	861929472	28	19286
2026-01-10 21:59:41.12	126.49	9.01	-25.8	-41.7	4.8	1.35e+00	0	56	104	861929472	23	22232
2026-01-10 21:59:44.15	126.90	8.85	-23.7	-37.9	4.3	1.45e+00	0	56	104	861929472	17	20167
2026-01-10 21:59:47.17	127.31	8.69	-18.2	-36.2	4.1	1.43e+00	0	56	104	861929472	11	23406
2026-01-10 21:59:50.20	127.71	8.54	-18.5	-36.6	4.1	1.47e+00	0	56	104	861929472	8	29218
2026-01-10 21:59:53.23	128.11	8.38	-21.2	-38.9	4.1	1.46e+00	0	56	0	861929472	17	22532
2026-01-10 21:59:56.27	128.51	8.22	-21.5	-40.5	3.6	1.50e+00	0	56	104	861929472	17	27290
2026-01-10 21:59:59.29	128.90	8.06	-21.6	-39.0	3.9	1.50e+00	0	56	104	861929472	17	23001
2026-01-10 22:00:02.33	129.28	7.90	-44.6	-59.0	3.8	1.49e+00	0	56	104	861929472	59	20428
2026-01-10 22:00:05.36	129.67	7.74	-45.1	-59.8	3.8	1.49e+00	0	56	104	861929472	60	21022
2026-01-10 22:00:08.39	130.04	7.58	-45.3	-60.0	3.8	1.49e+00	0	56	104	861929472	61	20347
2026-01-10 22:00:11.43	130.42	7.42	-45.2	-59.9	3.8	1.49e+00	0	56	104	861929472	61	20088
2026-01-10 22:00:14.46	130.79	7.26	-45.0	-59.8	3.8	1.49e+00	0	56	104	861929472	61	19971
2026-01-10 22:00:17.49	131.16	7.10	-45.0	-59.7	3.8	1.49e+00	0	56	104	861929472	61	19838
2026-01-10 22:00:20.53	131.52	6.94	-45.0	-59.8	3.8	1.49e+00	0	56	104	861929472	61	19851
2026-01-10 22:00:23.56	131.88	6.78	-44.9	-59.8	3.8	1.49e+00	0	56	104	861929472	61	19851
2026-01-10 22:00:26.59	132.24	6.62	-45.0	-59.8	3.8	1.49e+00	0	56	104	861929472	61	19844
2026-01-10 22:00:29.62	132.59	6.47	-44.9	-59.7	3.8	1.49e+00	0	56	104	861929472	61	19814
2026-01-10 22:00:32.66	132.94	6.31	-44.9	-59.7	3.8	1.49e+00	0	56	104	861929472	60	20985
2026-01-10 22:00:35.69	133.28	6.15	-44.9	-59.7	3.8	1.49e+00	0	56	104	861929472	60	20998
2026-01-10 22:00:38.72	133.62	5.99	-44.9	-59.7	3.8	1.49e+00	0	56	104	861929472	60	20965
2026-01-10 22:00:41.75	133.96	5.83	-44.9	-59.7	3.8	1.49e+00	0	56	104	861929472	60	21001
2026-01-10 22:00:44.79	134.29	5.67	-44.9	-59.7	3.8	1.49e+00	0	56	104	861929472	60	20937
2026-01-10 22:00:47.82	134.62	5.51	-44.9	-59.7	3.8	1.49e+00	0	56	104	861929472	60	20994
2026-01-10 22:00:50.85	134.95	5.35	-44.9	-59.7	3.8	1.49e+00	0	56	104	861929472	60	20973
2026-01-10 22:00:53.89	135.27	5.19	-44.9	-59.7	3.8	1.49e+00	0	56	104	861929472	60	21005
2026-01-10 22:00:56.92	135.59	5.04	-44.9	-59.7	3.8	1.49e+00	0	56	104	861929472	60	20861
2026-01-10 22:00:59.95	135.91	4.88	-44.9	-59.7	3.8	1.49e+00	0	56	104	861929472	60	20892
2026-01-10 22:01:02.98	136.22	4.72	-44.9	-59.7	3.8	1.49e+00	0	56	104	861929472	60	21005
2026-01-10 22:01:06.01	136.53	4.56	-44.9	-59.7	3.8	1.49e+00	0	56	104	861929472	60	20918
2026-01-10 22:01:09.05	136.84	4.41	-44.9	-59.7	3.8	1.49e+00	0	56	104	861929472	60	20954
2026-01-10 22:01:12.08	137.14	4.25	-44.9	-59.7	3.8	1.49e+00	0	56	104	861929472	60	20968
2026-01-10 22:01:15.11	137.44	4.09	-44.9	-59.7	3.8	1.49e+00	0	56	104	861929472	60	20981
2026-01-10 22:01:18.14	137.74	3.94	-44.9	-59.7	3.8	1.49e+00	0	56	104	861929472	60	20979
2026-01-10 22:01:21.18	138.03	3.78	-44.9	-59.7	3.8	1.49e+00	0	56	104	861929472	60	20966
2026-01-10 22:01:24.21	138.33	3.63	-44.9	-59.7	3.8	1.49e+00	0	56	104	861929472	60	20913
2026-01-10 22:01:27.24	138.61	3.47	-44.9	-59.7	3.8	1.49e+00	0	56	104	861929472	60	20958
2026-01-10 22:01:30.27	138.90	3.32	-44.9	-59.7	3.8	1.49e+00	0	56	104	861929472	60	20922
2026-01-10 22:01:33.31	139.18	3.16	-44.9	-59.7	3.8	1.49e+00	0	56	104	861929472	60	20928
2026-01-10 22:01:36.34	139.46	3.01	-44.9	-59.7	3.8	1.49e+00	0	56	104	861929472	60	20959
2026-01-10 22:01:39.37	139.74	2.85	-44.9	-59.7	3.8	1.49e+00	0	56	104	861929472	60	20978
2026-01-10 22:01:42.41	140.01	2.70	-44.9	-59.7	3.8	1.49e+00	0	56	104	861929472	60	20924
2026-01-10 22:01:45.44	140.29	2.54	-44.9	-59.7	3.8	1.49e+00	0	56	104	861929472	60	20932
2026-01-10 22:01:48.47	140.55	2.39	-44.9	-59.7	3.8	1.49e+00	0	56	104	861929472	60	20904
2026-01-10 22:01:51.51	140.82	2.24	-44.9	-59.7	3.8	1.49e+00	0	56	104	861929472	60	20970
2026-01-10 22:01:54.54	141.08	2.09	-44.9	-59.7	3.8	1.49e+00	0	56	104	861929472	60	20953
2026-01-10 22:01:57.57	141.35	1.93	-44.9	-59.7	3.8	1.49e+00	0	56	104	861929472	60	20922

#Closed at: 2026-01-10 22:01:58
#Recorded file [861 MB]: D:/lorett/data/31039_260111_005002.dat