passes_logs/2026/01/10/R2.0S_Moscow/R2.0S_Moscow__20260110_034850_FENGYUN_3D_rec.log

#Pass ID: 20260110_034850_FENGYUN 3D
#Satellite: FENGYUN 3D
#Configuration: FENGYUN 3D
#almurnet v.1.7.20251203
#Start time: 2026-01-10 03:48:50

#Version: 2.2.20231116
#Station: R2.0S_Moscow
#Location: 37.707566 lon 55.798166 lat
#TLE: 1 43010U 17072A   26009.29492227  .00000158  00000+0  96483-4 0  9996
#TLE: 2 43010  98.9936 341.0229 0002153 117.3665 242.7729 14.19694440422446

#Time	Az	El	Level	Level2	SNR	BER	BlckErr	Temp	State	Recorded	gain1	gain2
2026-01-10 03:48:50.76	9.65	2.04	-39.2	-51.5	3.8	8.46e-01	0	47	0	0	50	14384
2026-01-10 03:48:53.78	9.42	2.20	-39.2	-51.4	3.8	8.46e-01	0	47	104	0	49	15162
2026-01-10 03:48:56.81	9.17	2.36	-39.2	-51.4	3.8	8.45e-01	0	47	104	0	49	15169
2026-01-10 03:48:59.83	8.93	2.52	-39.2	-51.4	3.8	8.46e-01	0	48	104	0	49	15164
2026-01-10 03:49:02.86	8.69	2.68	-39.2	-51.4	3.8	8.46e-01	0	48	104	0	49	15207
2026-01-10 03:49:05.88	8.44	2.84	-39.2	-51.4	3.8	8.45e-01	0	48	104	0	49	15176
2026-01-10 03:49:08.91	8.19	3.00	-39.2	-51.4	3.8	8.46e-01	0	49	104	0	49	15164
2026-01-10 03:49:11.93	7.93	3.16	-39.2	-51.4	3.8	8.47e-01	0	49	104	0	49	15137
2026-01-10 03:49:14.96	7.68	3.32	-39.2	-51.4	3.8	8.45e-01	0	49	104	0	49	15199
2026-01-10 03:49:17.99	7.42	3.48	-39.2	-51.4	3.8	8.46e-01	0	49	104	0	49	15153
2026-01-10 03:49:21.02	7.15	3.65	-39.2	-51.4	3.8	8.46e-01	0	49	104	0	49	15122
2026-01-10 03:49:24.04	6.89	3.81	-39.2	-51.4	3.8	8.47e-01	0	50	104	0	49	15193
2026-01-10 03:49:27.07	6.62	3.97	-39.2	-51.4	3.8	8.45e-01	0	50	104	0	49	15132
2026-01-10 03:49:30.10	6.34	4.14	-39.2	-51.4	3.8	8.46e-01	0	50	104	0	49	15151
2026-01-10 03:49:33.13	6.07	4.30	-39.2	-51.4	3.8	8.47e-01	0	50	104	0	49	15133
2026-01-10 03:49:36.14	5.79	4.47	-39.2	-51.4	3.8	8.46e-01	0	50	104	0	49	15124
2026-01-10 03:49:39.17	5.51	4.63	-39.2	-51.4	3.8	8.47e-01	0	50	104	0	49	15166
2026-01-10 03:49:42.20	5.22	4.80	-39.2	-51.4	3.8	8.46e-01	0	51	104	0	49	15160
2026-01-10 03:49:45.23	4.93	4.96	-39.2	-51.4	3.8	8.45e-01	0	51	104	0	49	15179
2026-01-10 03:49:48.25	4.64	5.13	-39.2	-51.4	3.8	8.46e-01	0	51	104	0	49	15138
2026-01-10 03:49:51.28	4.34	5.29	-39.2	-51.4	3.8	8.46e-01	0	51	104	0	49	15159
2026-01-10 03:49:54.31	4.04	5.46	-39.2	-51.4	3.8	8.46e-01	0	51	104	0	49	15145
2026-01-10 03:49:57.33	3.74	5.63	-39.2	-51.4	3.8	8.46e-01	0	51	104	0	49	15179
2026-01-10 03:50:00.35	3.44	5.79	-39.2	-51.4	3.8	8.47e-01	0	51	104	0	49	15090
2026-01-10 03:50:03.38	3.13	5.96	-39.2	-51.4	3.8	8.47e-01	0	51	104	0	49	15139
2026-01-10 03:50:06.41	2.81	6.13	-39.2	-51.4	3.8	8.46e-01	0	52	104	0	49	15187
2026-01-10 03:50:09.44	2.49	6.30	-39.2	-51.4	3.8	8.46e-01	0	52	104	0	49	15096
2026-01-10 03:50:12.47	2.17	6.46	-39.2	-51.4	3.8	8.47e-01	0	52	104	0	49	15199
2026-01-10 03:50:15.49	1.85	6.63	-39.2	-51.4	3.8	8.47e-01	0	52	104	0	49	15139
2026-01-10 03:50:18.51	1.52	6.80	-39.2	-51.4	3.8	8.45e-01	0	52	104	0	49	15160
2026-01-10 03:50:21.54	1.18	6.97	-39.2	-51.4	3.8	8.46e-01	0	52	104	0	49	15144
2026-01-10 03:50:24.56	0.85	7.14	-39.2	-51.4	3.8	8.47e-01	0	53	104	0	49	15195
2026-01-10 03:50:27.59	0.50	7.31	-39.2	-51.3	3.8	8.46e-01	0	53	104	0	49	15032
2026-01-10 03:50:30.62	0.16	7.48	-39.2	-51.4	3.8	8.45e-01	0	53	104	0	49	15108
2026-01-10 03:50:33.65	359.81	7.65	-39.2	-51.4	3.8	8.47e-01	0	53	104	0	49	15166
2026-01-10 03:50:36.67	359.46	7.82	-39.2	-51.4	3.8	8.46e-01	0	53	104	0	49	15185
2026-01-10 03:50:39.70	359.10	7.99	-39.2	-51.4	3.8	8.47e-01	0	53	104	0	49	15108
2026-01-10 03:50:42.73	358.73	8.16	-39.2	-51.4	3.8	8.45e-01	0	53	104	0	49	15161
2026-01-10 03:50:45.76	358.37	8.33	-39.1	-51.3	3.8	8.47e-01	0	53	104	0	49	15008
2026-01-10 03:50:48.78	358.00	8.49	-38.9	-51.3	3.8	8.47e-01	0	53	104	0	49	15003
2026-01-10 03:50:51.81	357.62	8.66	-38.7	-51.4	3.8	8.46e-01	0	53	104	0	49	15149
2026-01-10 03:50:54.83	357.24	8.83	-38.9	-51.3	3.8	8.45e-01	0	53	104	0	49	15024
2026-01-10 03:50:57.86	356.85	9.00	-39.0	-51.4	3.8	8.46e-01	0	53	104	0	49	15144
2026-01-10 03:51:00.88	356.47	9.17	-38.7	-51.3	3.8	8.46e-01	0	53	104	0	49	15034
2026-01-10 03:51:03.91	356.07	9.34	-39.3	-51.4	3.8	8.47e-01	0	53	104	0	49	15205
2026-01-10 03:51:06.93	355.67	9.51	-39.4	-51.4	3.8	8.47e-01	0	54	104	0	49	15087
2026-01-10 03:51:09.95	355.27	9.68	-39.8	-51.6	3.8	8.47e-01	0	54	104	0	50	14573
2026-01-10 03:51:12.98	354.86	9.85	-39.7	-51.4	3.8	8.46e-01	0	54	104	0	50	14340
2026-01-10 03:51:16.00	354.45	10.02	-39.9	-51.6	3.8	8.46e-01	0	54	104	0	50	14655
2026-01-10 03:51:19.03	354.03	10.18	-39.8	-51.6	3.8	8.45e-01	0	54	104	0	50	14569
2026-01-10 03:51:22.06	353.61	10.35	-40.0	-51.7	3.8	8.47e-01	0	54	104	0	50	14810
2026-01-10 03:51:25.08	353.18	10.52	-39.9	-51.6	3.8	8.46e-01	0	54	104	0	50	14624
2026-01-10 03:51:28.11	352.74	10.69	-39.9	-52.0	3.8	8.45e-01	0	54	104	0	50	15235
2026-01-10 03:51:31.13	352.31	10.85	-40.2	-51.9	3.8	8.47e-01	0	54	104	0	50	15097
2026-01-10 03:51:34.15	351.86	11.02	-40.6	-52.2	3.8	8.46e-01	0	54	104	0	51	14717
2026-01-10 03:51:37.18	351.42	11.18	-40.3	-51.9	3.8	8.46e-01	0	54	104	0	51	14296
2026-01-10 03:51:40.21	350.96	11.35	-40.6	-52.3	3.8	8.47e-01	0	55	104	0	51	14947
2026-01-10 03:51:43.24	350.50	11.51	-40.6	-52.1	3.8	8.46e-01	0	54	104	0	51	14687
2026-01-10 03:51:46.27	350.04	11.67	-40.5	-52.2	3.8	8.45e-01	0	55	104	0	51	14786
2026-01-10 03:51:49.30	349.57	11.84	-40.5	-52.2	3.8	8.46e-01	0	55	104	0	51	14749
2026-01-10 03:51:52.33	349.09	12.00	-40.4	-52.4	3.8	8.47e-01	0	55	104	0	51	15126
2026-01-10 03:51:55.36	348.61	12.16	-40.7	-52.5	3.8	8.46e-01	0	55	104	0	52	14429
2026-01-10 03:51:58.38	348.12	12.32	-41.0	-52.7	3.8	8.46e-01	0	54	104	0	52	14785
2026-01-10 03:52:01.41	347.63	12.48	-40.8	-52.5	3.8	8.45e-01	0	55	104	0	52	14508
2026-01-10 03:52:04.44	347.14	12.64	-41.0	-52.8	3.8	8.46e-01	0	55	104	0	52	14900
2026-01-10 03:52:07.46	346.63	12.79	-41.0	-52.7	3.8	8.46e-01	0	55	104	0	52	14842
2026-01-10 03:52:10.49	346.13	12.95	-40.9	-52.6	3.8	8.47e-01	0	55	104	0	52	14610
2026-01-10 03:52:13.52	345.61	13.10	-40.6	-52.3	3.8	8.47e-01	0	55	104	0	52	14100
2026-01-10 03:52:16.55	345.09	13.25	-40.6	-52.2	3.8	8.46e-01	0	55	104	0	52	14036
2026-01-10 03:52:19.57	344.57	13.41	-40.7	-52.4	3.8	8.47e-01	0	55	104	0	52	14282
2026-01-10 03:52:22.59	344.04	13.56	-40.5	-52.3	3.8	8.45e-01	0	55	104	0	52	14154
2026-01-10 03:52:25.62	343.51	13.70	-40.1	-52.2	3.8	8.46e-01	0	55	104	0	52	13896
2026-01-10 03:52:28.64	342.97	13.85	-40.2	-52.1	3.8	8.45e-01	0	55	104	0	52	13865
2026-01-10 03:52:31.67	342.42	14.00	-40.6	-52.2	3.8	8.48e-01	0	55	104	0	52	13983
2026-01-10 03:52:34.69	341.87	14.14	-40.2	-52.0	3.8	8.46e-01	0	55	104	0	52	13703
2026-01-10 03:52:37.72	341.32	14.28	-40.4	-52.1	3.8	8.46e-01	0	55	104	0	52	13762
2026-01-10 03:52:40.74	340.75	14.42	-40.6	-52.2	3.8	8.47e-01	0	56	104	0	52	13886
2026-01-10 03:52:43.76	340.19	14.56	-41.0	-50.5	4.0	8.45e-01	0	55	104	0	52	11453
2026-01-10 03:52:46.79	339.61	14.69	-40.8	-46.6	6.2	3.65e-01	0	55	0	2097152	52	7293
2026-01-10 03:52:49.80	339.04	14.82	-40.6	-45.0	8.2	6.46e-02	0	56	0	18874368	52	6123
2026-01-10 03:52:52.83	338.46	14.96	-39.1	-41.9	11.8	1.40e-03	0	55	0	36700160	50	4768
2026-01-10 03:52:55.85	337.87	15.08	-37.2	-39.1	14.7	1.10e-06	0	55	0	53477376	46	4391
2026-01-10 03:52:58.88	337.27	15.21	-37.1	-38.9	15.3	0.00e+00	0	56	0	70254592	46	4280
2026-01-10 03:53:01.90	336.68	15.33	-36.9	-38.6	15.8	0.00e+00	0	55	0	87031808	45	4359
2026-01-10 03:53:04.93	336.07	15.46	-36.5	-38.1	16.4	0.00e+00	0	56	0	103809024	45	4106
2026-01-10 03:53:07.95	335.47	15.57	-36.2	-37.7	16.8	0.00e+00	0	56	0	121634816	44	4174
2026-01-10 03:53:10.98	334.85	15.69	-36.3	-37.9	16.7	0.00e+00	0	56	0	138412032	44	4243
2026-01-10 03:53:14.01	334.23	15.80	-36.2	-37.7	16.9	0.00e+00	0	56	0	155189248	44	4153
2026-01-10 03:53:17.04	333.61	15.91	-35.9	-37.3	17.1	0.00e+00	0	56	0	171966464	43	4232
2026-01-10 03:53:20.07	332.98	16.02	-35.8	-37.2	17.2	0.00e+00	0	56	0	189792256	43	4192
2026-01-10 03:53:23.08	332.35	16.12	-35.9	-37.3	17.1	0.00e+00	0	56	0	206569472	43	4235
2026-01-10 03:53:26.11	331.71	16.23	-35.9	-37.3	17.2	0.00e+00	0	56	0	223346688	43	4219
2026-01-10 03:53:29.13	331.07	16.32	-35.6	-37.0	17.5	0.00e+00	0	56	0	240123904	43	4080
2026-01-10 03:53:32.15	330.43	16.42	-35.6	-37.0	17.5	0.00e+00	0	56	0	256901120	43	4083
2026-01-10 03:53:35.18	329.78	16.51	-35.7	-37.1	17.4	0.00e+00	0	56	0	274726912	43	4134
2026-01-10 03:53:38.20	329.13	16.60	-35.9	-37.3	17.2	0.00e+00	0	56	0	291504128	43	4240
2026-01-10 03:53:41.22	328.47	16.68	-36.1	-37.5	17.0	0.00e+00	0	56	0	308281344	43	4337
2026-01-10 03:53:44.24	327.81	16.76	-35.9	-37.3	17.2	0.00e+00	0	56	0	325058560	43	4237
2026-01-10 03:53:47.26	327.15	16.84	-35.9	-37.3	17.2	0.00e+00	0	56	0	341835776	43	4224
2026-01-10 03:53:50.28	326.48	16.91	-35.9	-37.4	17.2	0.00e+00	0	56	0	359661568	43	4256
2026-01-10 03:53:53.30	325.81	16.98	-36.0	-37.4	17.1	0.00e+00	0	56	0	376438784	43	4286
2026-01-10 03:53:56.33	325.14	17.05	-35.7	-37.2	17.4	0.00e+00	0	56	0	393216000	43	4149
2026-01-10 03:53:59.35	324.46	17.11	-35.7	-37.1	17.4	0.00e+00	0	56	0	409993216	43	4133
2026-01-10 03:54:02.38	323.78	17.17	-35.6	-37.0	17.5	0.00e+00	0	56	0	427819008	43	4094
2026-01-10 03:54:05.41	323.10	17.22	-35.6	-37.0	17.5	0.00e+00	0	56	0	444596224	43	4098
2026-01-10 03:54:08.43	322.42	17.27	-35.6	-37.1	17.5	0.00e+00	0	56	0	461373440	43	4105
2026-01-10 03:54:11.46	321.73	17.32	-35.5	-36.9	17.7	0.00e+00	0	56	0	478150656	43	4031
2026-01-10 03:54:14.48	321.04	17.36	-35.6	-37.0	17.6	0.00e+00	0	56	0	495976448	43	4054
2026-01-10 03:54:17.51	320.35	17.40	-35.4	-36.8	17.8	0.00e+00	0	56	0	512753664	42	4220
2026-01-10 03:54:20.54	319.66	17.43	-35.4	-36.8	17.8	0.00e+00	0	56	0	529530880	42	4216
2026-01-10 03:54:23.56	318.96	17.46	-35.4	-36.8	17.8	0.00e+00	0	56	0	546308096	42	4199
2026-01-10 03:54:26.59	318.27	17.48	-35.6	-37.0	17.6	0.00e+00	0	56	0	563085312	42	4313
2026-01-10 03:54:29.61	317.57	17.50	-35.7	-37.1	17.5	0.00e+00	0	56	0	580911104	42	4376
2026-01-10 03:54:32.62	316.88	17.52	-35.5	-36.9	17.7	0.00e+00	0	56	0	597688320	42	4276
2026-01-10 03:54:35.64	316.18	17.53	-35.7	-37.1	17.5	0.00e+00	0	56	0	614465536	42	4382
2026-01-10 03:54:38.66	315.49	17.54	-35.5	-36.9	17.7	0.00e+00	0	56	0	631242752	42	4277
2026-01-10 03:54:41.69	314.79	17.54	-35.2	-36.5	18.1	0.00e+00	0	56	0	648019968	42	4069
2026-01-10 03:54:44.72	314.09	17.54	-35.1	-36.4	18.1	0.00e+00	0	56	0	665845760	42	4045
2026-01-10 03:54:47.75	313.39	17.54	-35.3	-36.7	17.9	0.00e+00	0	56	0	682622976	42	4150
2026-01-10 03:54:50.78	312.69	17.53	-35.6	-36.9	17.7	0.00e+00	0	56	0	699400192	42	4285
2026-01-10 03:54:53.81	311.99	17.51	-35.6	-36.9	17.6	0.00e+00	0	56	0	716177408	42	4285
2026-01-10 03:54:56.84	311.29	17.49	-35.7	-37.1	17.5	0.00e+00	0	56	0	734003200	42	4359
2026-01-10 03:54:59.86	310.60	17.47	-35.7	-37.1	17.5	0.00e+00	0	56	0	750780416	42	4372
2026-01-10 03:55:02.88	309.90	17.44	-35.7	-37.1	17.5	0.00e+00	0	56	0	767557632	42	4361
2026-01-10 03:55:05.91	309.21	17.41	-35.2	-36.6	18.0	0.00e+00	0	56	0	784334848	42	4122
2026-01-10 03:55:08.94	308.51	17.37	-35.4	-36.8	17.8	0.00e+00	0	56	0	802160640	42	4208
2026-01-10 03:55:11.97	307.82	17.33	-35.3	-36.6	18.0	0.00e+00	0	56	0	818937856	42	4126
2026-01-10 03:55:14.99	307.14	17.29	-35.3	-36.6	18.0	0.00e+00	0	56	0	835715072	42	4116
2026-01-10 03:55:18.01	306.45	17.24	-35.4	-36.8	17.8	0.00e+00	0	56	0	852492288	42	4217
2026-01-10 03:55:21.04	305.77	17.19	-35.7	-37.1	17.4	0.00e+00	0	56	0	870318080	42	4380
2026-01-10 03:55:24.06	305.09	17.13	-35.6	-37.1	17.5	0.00e+00	0	56	0	887095296	42	4342
2026-01-10 03:55:27.09	304.41	17.07	-35.7	-37.1	17.5	0.00e+00	0	56	0	903872512	42	4341
2026-01-10 03:55:30.12	303.73	17.01	-35.4	-36.8	17.8	0.00e+00	0	56	0	920649728	42	4214
2026-01-10 03:55:33.14	303.06	16.94	-35.7	-37.1	17.5	0.00e+00	0	56	0	937426944	42	4352
2026-01-10 03:55:36.17	302.39	16.87	-36.0	-37.5	17.0	0.00e+00	0	56	0	955252736	42	4562
2026-01-10 03:55:39.20	301.72	16.79	-35.8	-37.3	17.2	0.00e+00	0	56	0	972029952	42	4452
2026-01-10 03:55:42.23	301.05	16.71	-35.6	-37.0	17.5	0.00e+00	0	56	0	988807168	42	4325
2026-01-10 03:55:45.25	300.39	16.63	-35.8	-37.3	17.2	0.00e+00	0	56	0	1005584384	42	4447
2026-01-10 03:55:48.28	299.74	16.54	-36.0	-37.5	17.0	0.00e+00	0	56	0	1023410176	42	4558
2026-01-10 03:55:51.31	299.08	16.45	-36.0	-37.4	17.1	0.00e+00	0	56	0	1040187392	42	4524
2026-01-10 03:55:54.33	298.44	16.36	-36.0	-37.5	17.0	0.00e+00	0	56	0	1056964608	42	4548
2026-01-10 03:55:57.36	297.79	16.26	-35.8	-37.2	17.2	0.00e+00	0	56	0	1073741824	42	4434
2026-01-10 03:56:00.38	297.15	16.16	-35.9	-37.4	17.1	0.00e+00	0	56	0	1091567616	42	4499
2026-01-10 03:56:03.41	296.52	16.06	-35.9	-37.4	17.0	0.00e+00	0	56	0	1108344832	42	4536
2026-01-10 03:56:06.43	295.89	15.95	-36.0	-37.5	16.9	0.00e+00	0	56	0	1125122048	42	4564
2026-01-10 03:56:09.44	295.26	15.84	-36.0	-37.5	16.9	0.00e+00	0	56	0	1141899264	42	4553
2026-01-10 03:56:12.46	294.64	15.73	-35.9	-37.4	17.0	0.00e+00	0	56	0	1159725056	42	4516
2026-01-10 03:56:15.49	294.02	15.62	-35.7	-37.2	17.2	0.00e+00	0	56	0	1176502272	42	4410
2026-01-10 03:56:18.50	293.42	15.50	-35.9	-37.4	16.9	0.00e+00	0	56	0	1193279488	42	4539
2026-01-10 03:56:21.53	292.81	15.38	-36.1	-37.6	16.7	0.00e+00	0	56	0	1210056704	42	4611
2026-01-10 03:56:24.56	292.20	15.26	-36.1	-37.6	16.7	0.00e+00	0	56	0	1226833920	42	4625
2026-01-10 03:56:27.59	291.60	15.13	-36.1	-37.7	16.6	0.00e+00	0	56	0	1244659712	42	4655
2026-01-10 03:56:30.62	291.01	15.00	-36.2	-37.7	16.5	0.00e+00	0	56	0	1261436928	43	4435
2026-01-10 03:56:33.65	290.42	14.87	-36.3	-37.9	16.3	0.00e+00	0	56	0	1278214144	43	4501
2026-01-10 03:56:36.67	289.84	14.74	-36.3	-37.9	16.3	0.00e+00	0	56	0	1294991360	43	4504
2026-01-10 03:56:39.70	289.26	14.60	-36.3	-37.9	16.2	0.00e+00	0	56	0	1311768576	43	4527
2026-01-10 03:56:42.73	288.69	14.47	-36.2	-37.8	16.3	0.00e+00	0	57	0	1329594368	43	4446
2026-01-10 03:56:45.75	288.13	14.33	-36.1	-37.7	16.3	0.00e+00	0	56	0	1346371584	43	4392
2026-01-10 03:56:48.77	287.57	14.19	-36.0	-37.6	16.3	0.00e+00	0	57	0	1363148800	43	4380
2026-01-10 03:56:51.80	287.01	14.04	-36.1	-37.7	16.2	0.00e+00	0	56	0	1379926016	43	4406
2026-01-10 03:56:54.82	286.46	13.90	-36.2	-37.8	16.0	0.00e+00	0	57	0	1397751808	43	4476
2026-01-10 03:56:57.85	285.92	13.75	-36.1	-37.8	16.1	0.00e+00	0	57	0	1414529024	43	4442
2026-01-10 03:57:00.87	285.38	13.60	-36.4	-38.1	15.7	0.00e+00	0	57	0	1431306240	43	4635
2026-01-10 03:57:03.90	284.84	13.45	-36.3	-37.9	15.9	0.00e+00	0	57	0	1448083456	43	4537
2026-01-10 03:57:06.92	284.32	13.30	-36.3	-37.9	15.8	0.00e+00	0	56	0	1465909248	43	4530
2026-01-10 03:57:09.95	283.79	13.15	-36.4	-38.1	15.7	0.00e+00	0	57	0	1482686464	43	4639
2026-01-10 03:57:12.97	283.28	13.00	-36.4	-38.0	15.8	0.00e+00	0	57	0	1499463680	43	4590
2026-01-10 03:57:15.99	282.76	12.84	-36.5	-38.2	15.7	0.00e+00	0	57	0	1516240896	43	4698
2026-01-10 03:57:19.01	282.26	12.69	-37.0	-38.7	15.4	0.00e+00	0	57	0	1533018112	44	4680
2026-01-10 03:57:22.03	281.76	12.53	-36.9	-38.6	15.5	0.00e+00	0	56	0	1550843904	44	4627
2026-01-10 03:57:25.05	281.26	12.37	-37.2	-39.1	15.0	0.00e+00	0	57	0	1567621120	45	4625
2026-01-10 03:57:28.08	280.77	12.21	-36.8	-38.5	15.5	0.00e+00	0	57	0	1584398336	45	4336
2026-01-10 03:57:31.10	280.29	12.05	-36.9	-38.6	15.5	0.00e+00	0	57	0	1601175552	45	4352
2026-01-10 03:57:34.12	279.81	11.89	-36.8	-38.6	15.5	0.00e+00	0	57	0	1619001344	45	4349
2026-01-10 03:57:37.15	279.33	11.72	-36.6	-38.3	15.6	0.00e+00	0	57	0	1635778560	45	4232
2026-01-10 03:57:40.17	278.87	11.56	-36.7	-38.4	15.6	0.00e+00	0	57	0	1652555776	45	4250
2026-01-10 03:57:43.20	278.40	11.40	-36.9	-38.7	15.2	0.00e+00	0	56	0	1669332992	45	4430
2026-01-10 03:57:46.23	277.94	11.23	-37.2	-39.2	14.6	1.10e-06	0	56	0	1686110208	45	4656
2026-01-10 03:57:49.26	277.49	11.07	-37.0	-38.9	14.7	0.00e+00	0	57	0	1703936000	45	4529
2026-01-10 03:57:52.28	277.04	10.90	-37.3	-39.3	14.3	0.00e+00	0	57	0	1720713216	45	4743
2026-01-10 03:57:55.31	276.60	10.73	-37.4	-39.5	13.9	6.80e-06	0	56	0	1737490432	45	4860
2026-01-10 03:57:58.33	276.16	10.57	-37.5	-39.7	13.7	1.25e-05	0	57	0	1754267648	45	4953
2026-01-10 03:58:01.36	275.73	10.40	-37.9	-40.3	12.9	5.14e-05	0	57	0	1771044864	46	4987
2026-01-10 03:58:04.38	275.30	10.23	-38.3	-40.9	12.2	2.28e-04	0	57	0	1788870656	47	5058
2026-01-10 03:58:07.41	274.87	10.06	-38.6	-41.5	11.4	1.18e-03	0	56	0	1805647872	47	5407
2026-01-10 03:58:10.42	274.46	9.90	-39.1	-42.4	10.3	5.90e-03	0	57	0	1822425088	48	5663
2026-01-10 03:58:13.45	274.04	9.73	-39.6	-43.5	8.9	2.96e-02	0	56	0	1839202304	49	6125
2026-01-10 03:58:16.47	273.64	9.56	-40.0	-44.8	7.4	1.11e-01	0	56	0	1857028096	50	6648
2026-01-10 03:58:19.50	273.23	9.39	-40.2	-45.8	6.2	2.75e-01	0	57	0	1873805312	51	7102
2026-01-10 03:58:22.52	272.83	9.22	-40.4	-46.7	5.5	6.67e-01	0	57	0	1888485376	51	7825
2026-01-10 03:58:25.55	272.44	9.05	-40.4	-46.9	5.3	7.44e-01	0	57	0	1891631104	51	8067
2026-01-10 03:58:28.57	272.05	8.88	-40.5	-46.7	5.5	6.04e-01	0	57	0	1900019712	51	7870
2026-01-10 03:58:31.60	271.66	8.71	-40.6	-46.9	5.3	7.25e-01	0	57	0	1906311168	51	8074
2026-01-10 03:58:34.62	271.29	8.54	-40.6	-47.3	5.1	7.53e-01	0	57	0	1909456896	51	8380
2026-01-10 03:58:37.64	270.91	8.37	-40.7	-47.6	4.9	7.79e-01	0	57	0	1910505472	51	8747
2026-01-10 03:58:40.67	270.54	8.20	-40.6	-48.3	4.5	8.22e-01	0	57	0	1911554048	51	9480
2026-01-10 03:58:43.69	270.17	8.03	-40.6	-49.0	4.2	8.35e-01	0	57	0	1911554048	51	10290
2026-01-10 03:58:46.71	269.81	7.86	-44.6	-56.1	3.8	8.46e-01	0	57	104	1911554048	59	14644
2026-01-10 03:58:49.74	269.45	7.69	-44.9	-56.6	3.8	8.47e-01	0	57	104	1911554048	60	14665
2026-01-10 03:58:52.76	269.10	7.52	-45.0	-56.8	3.8	8.46e-01	0	57	104	1911554048	60	14902
2026-01-10 03:58:55.79	268.75	7.35	-45.0	-56.7	3.8	8.46e-01	0	57	104	1911554048	60	14864
2026-01-10 03:58:58.82	268.40	7.18	-44.9	-56.7	3.8	8.46e-01	0	57	104	1911554048	60	14841
2026-01-10 03:59:01.85	268.06	7.01	-44.9	-56.7	3.8	8.46e-01	0	57	104	1911554048	60	14832
2026-01-10 03:59:04.88	267.72	6.84	-44.9	-56.7	3.8	8.45e-01	0	57	104	1911554048	60	14811
2026-01-10 03:59:07.91	267.38	6.67	-44.9	-56.7	3.8	8.45e-01	0	57	104	1911554048	60	14788
2026-01-10 03:59:10.93	267.05	6.50	-44.9	-56.7	3.8	8.47e-01	0	57	104	1911554048	60	14775
2026-01-10 03:59:13.96	266.73	6.33	-44.8	-56.7	3.8	8.45e-01	0	57	104	1911554048	60	14763
2026-01-10 03:59:16.98	266.41	6.16	-44.8	-56.7	3.8	8.46e-01	0	57	104	1911554048	60	14753
2026-01-10 03:59:20.00	266.09	6.00	-44.9	-56.7	3.8	8.46e-01	0	57	104	1911554048	60	14751
2026-01-10 03:59:23.03	265.77	5.83	-44.8	-56.7	3.8	8.47e-01	0	57	104	1911554048	60	14764
2026-01-10 03:59:26.05	265.46	5.66	-44.8	-56.7	3.8	8.48e-01	0	57	104	1911554048	60	14734
2026-01-10 03:59:29.08	265.15	5.49	-44.8	-56.6	3.8	8.48e-01	0	57	104	1911554048	60	14700
2026-01-10 03:59:32.11	264.85	5.33	-44.8	-56.7	3.8	8.46e-01	0	57	104	1911554048	60	14711
2026-01-10 03:59:35.14	264.55	5.16	-44.8	-56.7	3.8	8.46e-01	0	57	104	1911554048	60	14766
2026-01-10 03:59:38.17	264.25	4.99	-44.8	-56.6	3.8	8.47e-01	0	57	104	1911554048	60	14689
2026-01-10 03:59:41.20	263.96	4.83	-44.8	-56.7	3.8	8.46e-01	0	57	104	1911554048	60	14743
2026-01-10 03:59:44.22	263.67	4.66	-44.8	-56.7	3.8	8.46e-01	0	57	104	1911554048	60	14724
2026-01-10 03:59:47.25	263.38	4.50	-44.8	-56.7	3.8	8.48e-01	0	57	104	1911554048	60	14725
2026-01-10 03:59:50.28	263.10	4.33	-44.8	-56.7	3.8	8.45e-01	0	57	104	1911554048	60	14717
2026-01-10 03:59:53.31	262.82	4.17	-44.8	-56.6	3.8	8.47e-01	0	57	104	1911554048	60	14661
2026-01-10 03:59:56.33	262.54	4.00	-44.8	-56.6	3.8	8.46e-01	0	57	104	1911554048	60	14664
2026-01-10 03:59:59.35	262.27	3.84	-44.8	-56.6	3.8	8.47e-01	0	57	104	1911554048	60	14670
2026-01-10 04:00:02.38	262.00	3.67	-44.8	-56.6	3.8	8.45e-01	0	57	104	1911554048	60	14620
2026-01-10 04:00:05.40	261.73	3.51	-44.8	-56.6	3.8	8.45e-01	0	57	104	1911554048	60	14655
2026-01-10 04:00:08.43	261.47	3.35	-44.8	-56.6	3.8	8.46e-01	0	57	104	1911554048	60	14647
2026-01-10 04:00:11.46	261.20	3.19	-44.8	-56.6	3.8	8.45e-01	0	57	104	1911554048	60	14647
2026-01-10 04:00:14.48	260.95	3.02	-44.8	-56.6	3.8	8.47e-01	0	57	104	1911554048	60	14624
2026-01-10 04:00:17.50	260.69	2.86	-44.8	-56.6	3.8	8.45e-01	0	57	104	1911554048	60	14649
2026-01-10 04:00:20.53	260.44	2.70	-44.8	-56.6	3.8	8.46e-01	0	57	104	1911554048	60	14628
2026-01-10 04:00:23.56	260.19	2.54	-44.8	-56.6	3.8	8.46e-01	0	57	104	1911554048	60	14676
2026-01-10 04:00:26.59	259.94	2.38	-44.8	-56.6	3.8	8.46e-01	0	57	104	1911554048	60	14617
2026-01-10 04:00:29.60	259.70	2.22	-44.8	-56.6	3.8	8.46e-01	0	57	104	1911554048	60	14696
2026-01-10 04:00:32.62	259.45	2.06	-44.8	-56.6	3.8	8.46e-01	0	57	104	1911554048	60	14644
2026-01-10 04:00:35.65	259.21	1.90	-44.8	-56.6	3.8	8.46e-01	0	57	104	1911554048	60	14613

#Closed at: 2026-01-10 04:00:36
#Recorded file [1911 MB]: D:/lorett/data/31039_260110_064850.dat