passes_logs/2026/01/10/R2.0S_Moscow/R2.0S_Moscow__20260110_091851_SUOMI_NPP_rec.log

#Pass ID: 20260110_091851_SUOMI NPP
#Satellite: SUOMI NPP
#Configuration: NPP
#almurnet v.1.7.20251203
#Start time: 2026-01-10 09:18:52

#Version: 2.2.20231116
#Station: R2.0S_Moscow
#Location: 37.707566 lon 55.798166 lat
#TLE: 1 37849U 11061A   26008.83076692  .00000095  00000+0  66074-4 0  9997
#TLE: 2 37849  98.7806 310.9327 0002533  74.3004 285.8451 14.19523607735834

#Time	Az	El	Level	Level2	SNR	BER	BlckErr	Temp	State	Recorded	gain1	gain2
2026-01-10 09:18:52.43	140.82	2.08	-42.2	-56.7	3.8	1.49e+00	0	46	0	0	54	20830
2026-01-10 09:18:56.45	140.71	2.34	-39.6	-56.2	3.8	1.49e+00	0	47	104	0	52	22152
2026-01-10 09:19:00.48	140.60	2.60	-41.6	-56.2	3.7	1.49e+00	0	47	104	0	51	23372
2026-01-10 09:19:04.52	140.48	2.86	-42.1	-56.6	3.8	1.49e+00	0	47	104	0	54	20740
2026-01-10 09:19:08.55	140.36	3.12	-38.0	-54.0	4.0	1.49e+00	0	48	104	0	46	24379
2026-01-10 09:19:12.59	140.24	3.39	-41.9	-56.7	3.9	1.49e+00	0	48	104	0	53	22145
2026-01-10 09:19:16.63	140.12	3.65	-34.3	-54.5	3.8	1.49e+00	0	48	104	0	51	19356
2026-01-10 09:19:20.66	139.99	3.92	-34.4	-53.8	4.2	1.49e+00	0	48	104	0	45	25134
2026-01-10 09:19:24.70	139.87	4.20	-42.2	-56.6	4.1	1.50e+00	0	49	104	0	54	20620
2026-01-10 09:19:28.74	139.73	4.47	-42.0	-56.4	3.8	1.49e+00	0	49	104	0	54	20103
2026-01-10 09:19:32.78	139.60	4.75	-42.1	-56.0	3.8	1.49e+00	0	49	104	0	54	19230
2026-01-10 09:19:36.82	139.47	5.03	-41.4	-55.9	3.9	1.49e+00	0	49	104	0	54	19116
2026-01-10 09:19:40.85	139.33	5.32	-41.6	-55.9	4.0	1.49e+00	0	50	104	0	52	21351
2026-01-10 09:19:44.88	139.19	5.60	-42.5	-56.8	3.8	1.49e+00	0	50	104	0	54	21056
2026-01-10 09:19:48.92	139.04	5.90	-41.7	-56.6	3.8	1.49e+00	0	50	104	0	54	20663
2026-01-10 09:19:52.96	138.89	6.19	-42.0	-56.6	3.8	1.49e+00	0	50	104	0	54	20579
2026-01-10 09:19:57.00	138.74	6.49	-42.1	-56.9	4.0	1.49e+00	0	50	104	0	53	22570
2026-01-10 09:20:01.04	138.59	6.79	-37.2	-56.3	3.7	1.49e+00	0	50	104	0	49	26557
2026-01-10 09:20:05.07	138.43	7.09	-38.5	-56.0	3.8	1.49e+00	0	51	104	0	49	25677
2026-01-10 09:20:09.11	138.27	7.39	-38.8	-56.2	3.7	1.49e+00	0	51	104	0	49	26345
2026-01-10 09:20:13.15	138.10	7.70	-41.7	-56.7	3.8	1.49e+00	0	51	104	0	54	20860
2026-01-10 09:20:17.19	137.93	8.02	-42.2	-56.7	3.8	1.49e+00	0	51	104	0	55	19617
2026-01-10 09:20:21.23	137.76	8.34	-41.5	-56.7	3.8	1.49e+00	0	51	104	0	55	19808
2026-01-10 09:20:25.27	137.58	8.66	-42.1	-56.1	4.2	1.49e+00	0	51	104	0	50	24609
2026-01-10 09:20:29.31	137.40	8.98	-42.0	-56.5	3.8	1.49e+00	0	52	104	0	54	20525
2026-01-10 09:20:33.34	137.22	9.31	-41.7	-56.8	3.8	1.49e+00	0	52	104	0	54	21214
2026-01-10 09:20:37.38	137.03	9.64	-42.3	-56.4	3.7	1.49e+00	0	52	104	0	54	20277
2026-01-10 09:20:41.41	136.83	9.98	-42.5	-56.7	4.2	1.49e+00	0	52	104	0	55	19659
2026-01-10 09:20:45.45	136.63	10.32	-42.8	-56.9	3.9	1.49e+00	0	52	104	0	56	19078
2026-01-10 09:20:49.49	136.43	10.67	-41.5	-49.9	6.5	4.62e-01	0	52	0	2097152	55	9031
2026-01-10 09:20:53.52	136.22	11.02	-40.6	-45.0	11.7	5.16e-03	0	52	0	8388608	52	6074
2026-01-10 09:20:57.55	136.00	11.37	-33.1	-46.4	8.6	8.36e-02	0	52	0	16777216	47	9515
2026-01-10 09:21:01.57	135.78	11.73	-40.2	-46.4	10.1	1.75e-02	0	52	0	24117248	52	7165
2026-01-10 09:21:05.60	135.56	12.10	-39.6	-42.7	13.8	7.35e-03	0	53	0	31457280	49	5574
2026-01-10 09:21:09.63	135.33	12.47	-36.8	-43.1	12.4	4.57e-03	0	53	0	38797312	48	6147
2026-01-10 09:21:13.66	135.09	12.84	-39.7	-45.4	11.4	1.39e-02	0	53	0	46137344	51	6751
2026-01-10 09:21:17.69	134.85	13.22	-39.9	-44.0	12.6	6.59e-03	0	53	0	54525952	51	5743
2026-01-10 09:21:21.71	134.60	13.61	-39.5	-43.0	13.9	6.70e-03	0	53	0	61865984	49	5755
2026-01-10 09:21:25.74	134.34	14.00	-38.5	-44.4	10.3	4.93e-02	0	53	0	69206016	48	7200
2026-01-10 09:21:29.78	134.07	14.40	-39.1	-44.1	12.3	3.28e-03	0	53	0	76546048	50	6173
2026-01-10 09:21:33.81	133.80	14.80	-39.8	-42.9	14.1	4.90e-03	0	53	0	83886080	50	5392
2026-01-10 09:21:37.85	133.52	15.21	-39.5	-44.4	8.8	1.35e-01	0	53	0	92274688	42	10073
2026-01-10 09:21:41.88	133.23	15.62	-39.8	-43.9	12.7	1.09e-03	0	53	0	99614720	51	5677
2026-01-10 09:21:45.91	132.93	16.04	-40.1	-43.2	14.2	1.69e-03	0	53	0	106954752	51	5276
2026-01-10 09:21:49.94	132.63	16.47	-40.4	-44.3	13.2	2.17e-03	0	54	0	114294784	52	5629
2026-01-10 09:21:53.97	132.31	16.91	-40.4	-43.6	14.0	2.93e-04	0	54	0	121634816	51	5527
2026-01-10 09:21:57.99	131.99	17.35	-40.2	-43.2	14.5	1.04e-04	0	54	0	130023424	51	5247
2026-01-10 09:22:02.02	131.65	17.80	-40.6	-43.6	14.1	7.40e-05	0	54	0	137363456	52	5203
2026-01-10 09:22:06.05	131.31	18.25	-40.1	-43.4	14.4	4.65e-05	0	54	0	144703488	51	5346
2026-01-10 09:22:10.09	130.95	18.72	-40.7	-43.6	14.2	6.79e-05	0	54	0	152043520	52	5212
2026-01-10 09:22:14.12	130.59	19.19	-40.6	-43.4	14.5	3.00e-06	0	54	0	159383552	51	5342
2026-01-10 09:22:18.16	130.21	19.67	-40.8	-44.0	13.8	4.50e-06	0	54	0	167772160	52	5449
2026-01-10 09:22:22.18	129.81	20.16	-41.0	-44.1	13.7	7.60e-06	0	54	0	175112192	52	5498
2026-01-10 09:22:26.22	129.41	20.65	-41.1	-44.2	13.6	5.30e-06	0	54	0	182452224	52	5567
2026-01-10 09:22:30.25	128.99	21.16	-41.4	-44.8	13.0	2.89e-05	0	54	0	189792256	53	5625
2026-01-10 09:22:34.27	128.56	21.67	-40.8	-43.7	14.2	7.00e-07	0	54	0	197132288	53	4950
2026-01-10 09:22:38.31	128.11	22.19	-41.0	-44.2	13.7	4.50e-06	0	54	0	205520896	53	5250
2026-01-10 09:22:42.34	127.65	22.72	-41.0	-44.0	13.9	2.20e-06	0	54	0	212860928	53	5138
2026-01-10 09:22:46.37	127.17	23.26	-41.3	-44.6	13.3	2.67e-05	0	54	0	220200960	53	5503
2026-01-10 09:22:50.39	126.67	23.81	-41.3	-44.6	13.4	3.80e-06	0	54	0	227540992	53	5482
2026-01-10 09:22:54.42	126.16	24.36	-41.2	-44.5	13.5	1.06e-05	0	54	0	234881024	53	5407
2026-01-10 09:22:58.45	125.62	24.93	-41.6	-45.1	12.9	1.90e-05	0	55	0	243269632	53	5815
2026-01-10 09:23:02.48	125.07	25.51	-41.6	-45.1	12.8	5.72e-05	0	55	0	250609664	54	5508
2026-01-10 09:23:06.52	124.49	26.09	-41.4	-44.8	13.2	1.29e-05	0	54	0	257949696	54	5291
2026-01-10 09:23:10.56	123.89	26.69	-41.1	-44.2	13.7	2.20e-06	0	55	0	265289728	54	4976
2026-01-10 09:23:14.59	123.27	27.30	-41.2	-44.4	13.5	9.90e-06	0	55	0	273678336	53	5368
2026-01-10 09:23:18.62	122.63	27.91	-41.0	-44.0	14.0	3.00e-06	0	54	0	281018368	53	5144
2026-01-10 09:23:22.65	121.96	28.54	-41.6	-45.1	12.9	4.42e-05	0	55	0	288358400	53	5802
2026-01-10 09:23:26.67	121.26	29.17	-41.5	-44.9	13.2	2.97e-05	0	55	0	295698432	54	5356
2026-01-10 09:23:30.70	120.53	29.81	-41.2	-44.4	13.7	9.10e-06	0	55	0	303038464	54	5044
2026-01-10 09:23:34.72	119.78	30.46	-41.5	-44.8	13.3	7.60e-06	0	55	0	311427072	54	5317
2026-01-10 09:23:38.75	118.99	31.13	-41.8	-45.4	12.7	4.65e-05	0	55	0	318767104	54	5663
2026-01-10 09:23:42.79	118.16	31.80	-42.2	-46.1	12.0	2.50e-04	0	55	0	326107136	54	6145
2026-01-10 09:23:46.81	117.31	32.48	-41.9	-45.5	12.5	8.01e-05	0	55	0	333447168	54	5765
2026-01-10 09:23:50.84	116.41	33.16	-41.9	-45.6	12.4	1.55e-04	0	55	0	340787200	54	5828
2026-01-10 09:23:54.88	115.48	33.86	-42.3	-46.3	11.7	4.62e-04	0	55	0	349175808	55	5986
2026-01-10 09:23:58.91	114.50	34.56	-41.9	-45.6	12.5	8.08e-05	0	55	0	356515840	55	5503
2026-01-10 09:24:02.95	113.48	35.27	-42.0	-45.8	12.3	9.68e-05	0	55	0	363855872	55	5593
2026-01-10 09:24:06.98	112.42	35.98	-43.1	-48.1	10.1	5.14e-03	0	55	0	371195904	56	6900
2026-01-10 09:24:11.00	111.31	36.70	-42.6	-46.9	11.3	2.52e-03	0	55	0	378535936	56	6020
2026-01-10 09:24:15.03	110.15	37.42	-42.3	-46.2	12.1	2.53e-04	0	55	0	386924544	56	5559
2026-01-10 09:24:19.05	108.93	38.13	-41.7	-45.2	13.0	1.98e-05	0	55	0	394264576	54	5548
2026-01-10 09:24:23.08	107.66	38.85	-41.6	-44.9	13.3	1.37e-05	0	55	0	401604608	54	5343
2026-01-10 09:24:27.11	106.33	39.57	-42.1	-45.9	12.1	2.27e-04	0	55	0	408944640	55	5717
2026-01-10 09:24:31.14	104.95	40.29	-42.1	-46.0	12.1	4.52e-04	0	55	0	416284672	55	5724
2026-01-10 09:24:35.17	103.50	41.00	-41.9	-45.5	12.6	6.71e-05	0	55	0	424673280	55	5435
2026-01-10 09:24:39.21	101.98	41.70	-41.5	-44.8	13.3	3.28e-05	0	55	0	432013312	55	5004
2026-01-10 09:24:43.25	100.39	42.39	-42.1	-45.8	12.4	7.01e-05	0	55	0	439353344	54	5933
2026-01-10 09:24:47.27	98.74	43.07	-42.6	-47.0	11.1	6.96e-04	0	55	0	446693376	55	6492
2026-01-10 09:24:51.30	97.02	43.73	-40.5	-43.4	14.6	0.00e+00	0	55	0	454033408	53	4799
2026-01-10 09:24:55.33	95.22	44.37	-40.2	-42.8	15.4	0.00e+00	0	55	0	462422016	51	5034
2026-01-10 09:24:59.36	93.36	44.99	-41.6	-45.5	12.5	4.80e-05	0	55	0	469762048	53	6088
2026-01-10 09:25:03.39	91.42	45.58	-41.3	-44.9	13.2	2.21e-05	0	55	0	477102080	53	5715
2026-01-10 09:25:07.42	89.40	46.15	-41.2	-44.5	13.7	6.10e-06	0	55	0	484442112	53	5441
2026-01-10 09:25:11.44	87.32	46.68	-40.8	-43.9	14.4	2.20e-06	0	55	0	492830720	52	5364
2026-01-10 09:25:15.48	85.17	47.17	-42.2	-46.8	11.3	9.92e-04	0	55	0	500170752	55	6301
2026-01-10 09:25:19.50	82.95	47.63	-43.3	-50.1	8.3	1.10e-01	0	55	0	507510784	57	8235
2026-01-10 09:25:23.53	80.67	48.04	-42.7	-48.1	10.1	1.37e-02	0	55	0	514850816	57	6516
2026-01-10 09:25:27.56	78.33	48.40	-41.7	-45.7	12.3	1.44e-04	0	55	0	522190848	55	5537
2026-01-10 09:25:31.59	75.94	48.71	-41.8	-46.0	12.1	1.56e-04	0	55	0	530579456	54	6127
2026-01-10 09:25:35.61	73.51	48.97	-40.9	-44.3	13.9	3.80e-06	0	55	0	537919488	53	5285
2026-01-10 09:25:39.64	71.04	49.17	-40.1	-43.1	15.1	0.00e+00	0	55	0	545259520	52	4872
2026-01-10 09:25:43.67	68.53	49.32	-40.2	-43.0	15.2	0.00e+00	0	55	0	552599552	51	5137
2026-01-10 09:25:47.71	66.01	49.41	-41.4	-45.4	12.6	8.62e-05	0	55	0	559939584	53	6028
2026-01-10 09:25:51.75	63.47	49.44	-41.0	-44.7	13.3	6.80e-06	0	55	0	568328192	53	5568
2026-01-10 09:25:55.78	60.94	49.40	-40.2	-43.2	14.9	1.50e-06	0	56	0	575668224	52	4952
2026-01-10 09:25:59.81	58.42	49.31	-39.9	-42.6	15.6	0.00e+00	0	55	0	583008256	51	4886
2026-01-10 09:26:03.84	55.93	49.16	-40.6	-43.9	14.2	0.00e+00	0	55	0	590348288	52	5383
2026-01-10 09:26:07.87	53.46	48.96	-40.6	-43.8	14.3	1.50e-06	0	55	0	597688320	53	5027
2026-01-10 09:26:11.90	51.03	48.69	-41.4	-45.2	12.9	2.97e-05	0	55	0	606076928	53	5921
2026-01-10 09:26:15.93	48.64	48.38	-41.3	-45.0	13.1	1.06e-05	0	55	0	613416960	53	5781
2026-01-10 09:26:19.97	46.30	48.01	-42.3	-47.2	10.9	1.11e-03	0	55	0	620756992	55	6574
2026-01-10 09:26:23.99	44.03	47.60	-41.7	-45.6	12.7	5.49e-05	0	55	0	628097024	54	5813
2026-01-10 09:26:28.02	41.82	47.15	-41.5	-45.5	12.7	6.71e-05	0	55	0	635437056	54	5724
2026-01-10 09:26:32.05	39.67	46.65	-41.7	-45.7	12.6	1.96e-04	0	55	0	643825664	54	5920
2026-01-10 09:26:36.07	37.60	46.12	-41.4	-45.1	13.0	6.40e-05	0	56	0	651165696	54	5501
2026-01-10 09:26:40.10	35.60	45.56	-41.1	-44.5	13.8	6.80e-06	0	56	0	658505728	53	5429
2026-01-10 09:26:44.13	33.67	44.97	-42.4	-47.2	10.9	8.29e-04	0	56	0	665845760	55	6580
2026-01-10 09:26:48.15	31.81	44.35	-42.1	-46.3	11.9	9.61e-05	0	56	0	673185792	54	6296
2026-01-10 09:26:52.18	30.03	43.71	-41.4	-44.8	13.6	3.43e-05	0	55	0	681574400	54	5286
2026-01-10 09:26:56.21	28.31	43.05	-40.7	-43.7	14.6	7.00e-07	0	55	0	688914432	53	4937
2026-01-10 09:27:00.24	26.67	42.37	-41.0	-44.2	14.0	2.20e-06	0	55	0	696254464	53	5260
2026-01-10 09:27:04.27	25.10	41.68	-41.8	-45.6	12.7	9.38e-05	0	55	0	703594496	54	5807
2026-01-10 09:27:08.30	23.59	40.98	-42.9	-48.2	10.1	7.67e-03	0	56	0	710934528	56	6969
2026-01-10 09:27:12.32	22.15	40.28	-42.2	-46.2	12.2	6.14e-04	0	56	0	719323136	56	5543
2026-01-10 09:27:16.35	20.77	39.57	-42.1	-46.3	12.0	3.18e-04	0	56	0	726663168	55	5958
2026-01-10 09:27:20.37	19.45	38.85	-41.8	-45.6	12.7	5.87e-05	0	56	0	734003200	55	5478
2026-01-10 09:27:24.40	18.19	38.13	-43.5	-50.2	8.0	3.14e-02	0	56	0	741343232	57	8274
2026-01-10 09:27:28.43	16.98	37.42	-43.0	-48.5	9.8	6.51e-03	0	56	0	748683264	57	6811
2026-01-10 09:27:32.46	15.82	36.70	-42.5	-46.9	11.4	8.24e-03	0	56	0	757071872	56	6049
2026-01-10 09:27:36.49	14.72	35.99	-41.3	-44.5	13.7	4.50e-06	0	56	0	764411904	54	5133
2026-01-10 09:27:40.52	13.66	35.28	-41.8	-45.6	12.6	4.95e-05	0	56	0	771751936	54	5847
2026-01-10 09:27:44.56	12.64	34.57	-43.2	-48.8	9.5	7.76e-03	0	56	0	779091968	56	7459
2026-01-10 09:27:48.59	11.67	33.88	-43.2	-48.7	9.5	1.39e-02	0	56	0	787480576	57	7039
2026-01-10 09:27:52.62	10.74	33.19	-42.1	-46.1	12.2	4.29e-04	0	56	0	794820608	56	5478
2026-01-10 09:27:56.65	9.86	32.50	-41.9	-45.8	12.4	5.72e-05	0	56	0	802160640	54	5941
2026-01-10 09:28:00.68	9.00	31.83	-42.6	-47.1	11.1	3.23e-03	0	56	0	809500672	56	6200
2026-01-10 09:28:04.71	8.19	31.16	-40.9	-43.8	14.3	0.00e+00	0	56	0	816840704	53	5030
2026-01-10 09:28:08.74	7.40	30.50	-42.4	-46.9	11.1	3.12e-04	0	56	0	825229312	55	6368
2026-01-10 09:28:12.77	6.65	29.85	-42.2	-46.5	11.6	1.09e-03	0	56	0	832569344	55	6068
2026-01-10 09:28:16.81	5.93	29.21	-42.0	-46.1	11.9	3.51e-04	0	56	0	839909376	55	5813
2026-01-10 09:28:20.85	5.23	28.58	-41.3	-44.7	13.5	2.44e-05	0	56	0	847249408	54	5247
2026-01-10 09:28:24.88	4.56	27.95	-41.1	-44.4	13.7	1.06e-05	0	56	0	854589440	53	5389
2026-01-10 09:28:28.91	3.92	27.34	-41.6	-45.4	12.8	5.34e-05	0	56	0	862978048	53	6057
2026-01-10 09:28:32.94	3.31	26.74	-42.5	-47.6	10.4	5.12e-03	0	56	0	870318080	55	6941
2026-01-10 09:28:36.97	2.71	26.15	-42.0	-46.4	11.6	7.55e-04	0	56	0	877658112	55	6018
2026-01-10 09:28:41.00	2.14	25.56	-41.6	-45.5	12.5	1.04e-04	0	56	0	884998144	55	5407
2026-01-10 09:28:45.04	1.59	24.99	-40.6	-43.8	14.1	7.00e-07	0	56	0	892338176	53	5035
2026-01-10 09:28:49.07	1.06	24.43	-41.2	-45.0	12.9	2.89e-05	0	56	0	900726784	53	5763
2026-01-10 09:28:53.09	0.55	23.87	-41.3	-45.0	12.9	7.85e-05	0	56	0	908066816	53	5748
2026-01-10 09:28:57.12	0.06	23.33	-40.7	-44.3	13.5	6.80e-06	0	56	0	915406848	53	5292
2026-01-10 09:29:01.15	359.58	22.79	-40.2	-43.6	14.2	3.00e-06	0	56	0	922746880	52	5172
2026-01-10 09:29:05.18	359.12	22.26	-40.5	-44.0	13.8	1.50e-06	0	56	0	930086912	52	5424
2026-01-10 09:29:09.21	358.68	21.74	-41.0	-45.3	12.4	8.46e-05	0	56	0	938475520	52	6279
2026-01-10 09:29:13.24	358.25	21.23	-41.1	-45.2	12.4	2.16e-04	0	56	0	945815552	53	5893
2026-01-10 09:29:17.27	357.84	20.73	-40.5	-44.6	12.8	4.65e-05	0	56	0	953155584	52	5852
2026-01-10 09:29:21.30	357.44	20.24	-40.5	-45.0	12.1	2.75e-04	0	56	0	960495616	52	6131
2026-01-10 09:29:25.33	357.05	19.76	-40.2	-44.5	12.4	2.26e-04	0	56	0	968884224	52	5742
2026-01-10 09:29:29.36	356.67	19.28	-40.2	-44.3	12.1	2.49e-04	0	56	0	976224256	52	5652
2026-01-10 09:29:33.39	356.31	18.81	-40.6	-45.8	10.0	4.56e-03	0	56	0	983564288	52	6681
2026-01-10 09:29:37.41	355.96	18.35	-41.0	-48.8	6.3	1.72e-01	0	56	0	990904320	52	9455
2026-01-10 09:29:41.44	355.62	17.89	-41.0	-52.0	4.3	1.32e+00	0	56	0	998244352	52	13623
2026-01-10 09:29:45.48	355.29	17.45	-40.8	-54.4	3.8	1.49e+00	0	56	104	998244352	52	18059
2026-01-10 09:29:49.51	354.97	17.01	-40.6	-55.0	3.8	1.49e+00	0	56	104	998244352	52	19277
2026-01-10 09:29:53.55	354.66	16.57	-40.6	-55.0	3.8	1.49e+00	0	56	104	998244352	53	18249
2026-01-10 09:29:57.59	354.35	16.14	-40.4	-54.9	3.8	1.49e+00	0	56	104	998244352	52	19118
2026-01-10 09:30:01.63	354.06	15.72	-40.6	-55.1	3.8	1.49e+00	0	56	104	998244352	52	19465
2026-01-10 09:30:05.66	353.77	15.31	-40.5	-55.0	3.8	1.49e+00	0	56	104	998244352	52	19331
2026-01-10 09:30:09.69	353.50	14.90	-40.4	-54.9	3.8	1.49e+00	0	56	104	998244352	52	19000
2026-01-10 09:30:13.73	353.23	14.50	-40.4	-54.9	3.8	1.49e+00	0	56	104	998244352	52	19010
2026-01-10 09:30:17.76	352.97	14.10	-40.5	-55.0	3.8	1.49e+00	0	56	104	998244352	52	19242
2026-01-10 09:30:21.79	352.71	13.72	-40.5	-55.0	3.8	1.49e+00	0	56	104	998244352	52	19207
2026-01-10 09:30:25.83	352.47	13.33	-40.5	-55.0	3.8	1.49e+00	0	56	104	998244352	52	19181
2026-01-10 09:30:29.87	352.23	12.95	-40.6	-55.1	3.8	1.49e+00	0	56	104	998244352	52	19498
2026-01-10 09:30:33.90	351.99	12.58	-40.1	-54.9	3.8	1.49e+00	0	56	104	998244352	52	19151
2026-01-10 09:30:37.92	351.76	12.21	-40.6	-55.1	3.8	1.49e+00	0	56	104	998244352	52	19507
2026-01-10 09:30:41.96	351.54	11.85	-40.3	-55.1	3.8	1.49e+00	0	56	104	998244352	52	19514
2026-01-10 09:30:45.99	351.33	11.49	-40.4	-55.0	3.8	1.49e+00	0	56	104	998244352	52	19251
2026-01-10 09:30:50.02	351.12	11.13	-40.3	-54.8	3.8	1.49e+00	0	56	104	998244352	52	18925
2026-01-10 09:30:54.06	350.91	10.79	-40.4	-55.0	3.8	1.49e+00	0	56	104	998244352	52	19249
2026-01-10 09:30:58.10	350.71	10.44	-40.2	-54.7	3.8	1.49e+00	0	56	104	998244352	52	18703
2026-01-10 09:31:02.13	350.52	10.10	-40.5	-55.0	3.8	1.49e+00	0	56	104	998244352	52	19355
2026-01-10 09:31:06.17	350.33	9.76	-40.5	-55.0	3.8	1.49e+00	0	56	104	998244352	52	19307
2026-01-10 09:31:10.21	350.14	9.43	-40.3	-54.9	3.8	1.49e+00	0	56	104	998244352	52	18988
2026-01-10 09:31:14.24	349.96	9.10	-40.6	-55.1	3.8	1.49e+00	0	56	104	998244352	52	19499
2026-01-10 09:31:18.27	349.78	8.78	-40.6	-55.1	3.8	1.49e+00	0	56	104	998244352	52	19456
2026-01-10 09:31:22.31	349.61	8.46	-40.4	-54.9	3.8	1.49e+00	0	56	104	998244352	52	19100
2026-01-10 09:31:26.34	349.44	8.15	-40.5	-55.0	3.8	1.49e+00	0	56	104	998244352	52	19304
2026-01-10 09:31:30.38	349.28	7.83	-40.6	-55.1	3.8	1.49e+00	0	56	104	998244352	52	19498
2026-01-10 09:31:34.42	349.12	7.52	-45.0	-59.7	3.8	1.49e+00	0	56	104	998244352	60	20895
2026-01-10 09:31:38.45	348.96	7.22	-45.1	-59.8	3.8	1.49e+00	0	56	104	998244352	60	21240
2026-01-10 09:31:42.49	348.81	6.92	-45.0	-59.8	3.8	1.49e+00	0	56	104	998244352	60	21113
2026-01-10 09:31:46.52	348.66	6.62	-44.9	-59.8	3.8	1.49e+00	0	56	104	998244352	60	21046
2026-01-10 09:31:50.56	348.51	6.32	-44.9	-59.7	3.8	1.49e+00	0	56	104	998244352	60	21006
2026-01-10 09:31:54.59	348.37	6.03	-44.9	-59.7	3.8	1.49e+00	0	56	104	998244352	60	20970
2026-01-10 09:31:58.63	348.23	5.74	-44.9	-59.7	3.8	1.49e+00	0	56	104	998244352	60	20893
2026-01-10 09:32:02.66	348.09	5.45	-44.9	-59.7	3.8	1.49e+00	0	56	104	998244352	60	20957
2026-01-10 09:32:06.69	347.96	5.17	-44.9	-59.7	3.8	1.49e+00	0	56	104	998244352	60	20924
2026-01-10 09:32:10.72	347.83	4.89	-44.9	-59.7	3.8	1.49e+00	0	56	104	998244352	60	20944
2026-01-10 09:32:14.76	347.70	4.61	-44.9	-59.7	3.8	1.49e+00	0	56	104	998244352	60	20809
2026-01-10 09:32:18.79	347.57	4.34	-44.9	-59.7	3.8	1.49e+00	0	56	104	998244352	60	20842
2026-01-10 09:32:22.83	347.45	4.06	-44.9	-59.7	3.8	1.49e+00	0	56	104	998244352	60	20899
2026-01-10 09:32:26.85	347.33	3.80	-44.9	-59.7	3.8	1.49e+00	0	56	104	998244352	60	20852
2026-01-10 09:32:30.88	347.21	3.53	-44.9	-59.7	3.8	1.49e+00	0	56	104	998244352	60	20854
2026-01-10 09:32:34.92	347.10	3.26	-44.9	-59.7	3.8	1.49e+00	0	56	104	998244352	60	20823
2026-01-10 09:32:38.95	346.98	3.00	-44.9	-59.7	3.8	1.49e+00	0	56	104	998244352	60	20815
2026-01-10 09:32:42.98	346.87	2.74	-44.9	-59.7	3.8	1.49e+00	0	56	104	998244352	60	20847
2026-01-10 09:32:47.01	346.76	2.48	-44.9	-59.7	3.8	1.49e+00	0	56	104	998244352	60	20883
2026-01-10 09:32:51.05	346.66	2.23	-44.9	-59.7	3.8	1.49e+00	0	56	104	998244352	60	20877

#Closed at: 2026-01-10 09:32:54
#Recorded file [998 MB]: D:/lorett/data/31039_260110_121852.dat