passes_logs/2026/01/10/R2.0S_Moscow/R2.0S_Moscow__20260110_020814_FENGYUN_3D_rec.log

#Pass ID: 20260110_020814_FENGYUN 3D
#Satellite: FENGYUN 3D
#Configuration: FENGYUN 3D
#almurnet v.1.7.20251203
#Start time: 2026-01-10 02:08:16

#Version: 2.2.20231116
#Station: R2.0S_Moscow
#Location: 37.707566 lon 55.798166 lat
#TLE: 1 43010U 17072A   26009.29492227  .00000158  00000+0  96483-4 0  9996
#TLE: 2 43010  98.9936 341.0229 0002153 117.3665 242.7729 14.19694440422446

#Time	Az	El	Level	Level2	SNR	BER	BlckErr	Temp	State	Recorded	gain1	gain2
2026-01-10 02:08:16.35	14.92	2.10	-43.0	-54.6	3.8	8.46e-01	0	47	0	0	58	13107
2026-01-10 02:08:20.39	14.87	2.36	-43.0	-54.7	3.8	8.46e-01	0	47	104	0	57	13890
2026-01-10 02:08:24.42	14.81	2.62	-43.0	-54.6	3.8	8.45e-01	0	47	104	0	57	13827
2026-01-10 02:08:28.45	14.76	2.88	-43.0	-54.6	3.8	8.46e-01	0	48	104	0	57	13837
2026-01-10 02:08:32.49	14.70	3.15	-43.0	-54.6	3.8	8.46e-01	0	48	104	0	57	13814
2026-01-10 02:08:36.53	14.64	3.41	-43.0	-54.6	3.8	8.45e-01	0	48	104	0	57	13782
2026-01-10 02:08:40.56	14.58	3.68	-43.0	-54.5	3.8	8.46e-01	0	48	104	0	57	13722
2026-01-10 02:08:44.60	14.52	3.96	-43.0	-54.6	3.8	8.47e-01	0	49	104	0	57	13754
2026-01-10 02:08:48.64	14.45	4.23	-43.0	-54.6	3.8	8.45e-01	0	49	104	0	57	13748
2026-01-10 02:08:52.68	14.39	4.51	-43.0	-54.5	3.8	8.45e-01	0	50	104	0	57	13709
2026-01-10 02:08:56.71	14.32	4.79	-43.0	-54.2	3.8	8.45e-01	0	50	104	0	57	13135
2026-01-10 02:09:00.75	14.25	5.08	-42.9	-53.4	3.8	8.46e-01	0	50	104	0	57	12055
2026-01-10 02:09:04.78	14.18	5.37	-42.8	-52.8	3.8	8.45e-01	0	50	104	0	57	11166
2026-01-10 02:09:08.82	14.11	5.66	-42.7	-52.1	4.0	8.45e-01	0	50	104	0	57	10365
2026-01-10 02:09:12.86	14.03	5.95	-42.9	-53.8	3.8	8.46e-01	0	50	104	0	57	12662
2026-01-10 02:09:16.90	13.96	6.25	-43.0	-54.4	3.8	8.46e-01	0	51	104	0	57	13449
2026-01-10 02:09:20.94	13.88	6.55	-42.4	-50.1	4.5	8.29e-01	0	51	0	0	56	8671
2026-01-10 02:09:24.97	13.80	6.85	-40.6	-44.8	8.3	7.72e-02	0	51	0	14680064	53	5641
2026-01-10 02:09:29.01	13.72	7.16	-39.5	-42.6	10.8	3.30e-03	0	51	0	36700160	50	5168
2026-01-10 02:09:33.04	13.63	7.47	-39.1	-41.9	11.5	1.18e-03	0	51	0	59768832	50	4760
2026-01-10 02:09:37.07	13.55	7.79	-39.5	-42.6	10.7	4.21e-03	0	52	0	81788928	49	5499
2026-01-10 02:09:41.10	13.46	8.11	-40.9	-45.3	7.9	5.86e-02	0	52	0	104857600	52	6316
2026-01-10 02:09:45.13	13.37	8.43	-42.3	-52.9	3.8	8.36e-01	0	52	104	117440512	55	12740
2026-01-10 02:09:49.16	13.27	8.76	-38.4	-40.8	12.8	1.01e-04	0	52	0	136314880	48	4726
2026-01-10 02:09:53.18	13.18	9.09	-38.1	-40.2	13.4	2.40e-05	0	52	0	158334976	48	4440
2026-01-10 02:09:57.22	13.08	9.42	-38.0	-40.2	13.3	2.63e-05	0	52	0	181403648	47	4669
2026-01-10 02:10:01.24	12.98	9.76	-38.0	-40.2	13.3	2.05e-05	0	52	0	203423744	47	4697
2026-01-10 02:10:05.28	12.87	10.11	-37.6	-39.7	13.8	5.70e-06	0	53	0	226492416	47	4410
2026-01-10 02:10:09.32	12.77	10.46	-37.4	-39.5	14.0	2.20e-06	0	53	0	249561088	46	4550
2026-01-10 02:10:13.36	12.66	10.81	-37.7	-39.8	13.8	1.02e-05	0	53	0	272629760	46	4718
2026-01-10 02:10:17.39	12.54	11.17	-37.7	-39.8	13.8	1.48e-05	0	53	0	294649856	46	4759
2026-01-10 02:10:21.43	12.43	11.54	-37.7	-39.8	13.9	1.10e-06	0	53	0	317718528	46	4752
2026-01-10 02:10:25.46	12.31	11.91	-37.5	-39.4	14.5	2.20e-06	0	53	0	339738624	46	4533
2026-01-10 02:10:29.48	12.19	12.28	-37.3	-39.2	14.8	0.00e+00	0	53	0	362807296	46	4418
2026-01-10 02:10:33.51	12.06	12.66	-37.2	-39.0	15.2	0.00e+00	0	53	0	385875968	46	4295
2026-01-10 02:10:37.55	11.93	13.05	-37.2	-38.9	15.4	0.00e+00	0	53	0	407896064	46	4284
2026-01-10 02:10:41.59	11.79	13.44	-37.1	-38.8	15.5	0.00e+00	0	53	0	430964736	46	4242
2026-01-10 02:10:45.62	11.66	13.84	-36.9	-38.5	15.8	0.00e+00	0	54	0	454033408	45	4323
2026-01-10 02:10:49.65	11.51	14.25	-36.9	-38.6	15.8	0.00e+00	0	54	0	476053504	45	4373
2026-01-10 02:10:53.68	11.37	14.66	-36.7	-38.3	16.2	0.00e+00	0	54	0	499122176	45	4208
2026-01-10 02:10:57.70	11.21	15.08	-36.6	-38.2	16.3	0.00e+00	0	54	0	521142272	45	4156
2026-01-10 02:11:01.73	11.06	15.51	-36.5	-38.0	16.6	0.00e+00	0	54	0	544210944	44	4314
2026-01-10 02:11:05.76	10.90	15.94	-36.3	-37.8	16.8	0.00e+00	0	54	0	567279616	44	4219
2026-01-10 02:11:09.79	10.73	16.38	-36.2	-37.7	16.9	0.00e+00	0	54	0	589299712	44	4181
2026-01-10 02:11:13.82	10.56	16.83	-36.2	-37.6	17.1	0.00e+00	0	54	0	612368384	44	4132
2026-01-10 02:11:17.85	10.38	17.29	-36.2	-37.6	17.1	0.00e+00	0	54	0	635437056	44	4130
2026-01-10 02:11:21.88	10.20	17.75	-36.2	-37.6	17.1	0.00e+00	0	54	0	657457152	44	4145
2026-01-10 02:11:25.91	10.00	18.23	-36.1	-37.6	17.2	0.00e+00	0	54	0	680525824	44	4116
2026-01-10 02:11:29.94	9.81	18.71	-36.1	-37.5	17.2	0.00e+00	0	54	0	702545920	44	4093
2026-01-10 02:11:33.96	9.60	19.20	-36.0	-37.4	17.4	0.00e+00	0	54	0	725614592	44	4047
2026-01-10 02:11:37.99	9.39	19.71	-35.8	-37.2	17.5	0.00e+00	0	54	0	747634688	43	4167
2026-01-10 02:11:42.02	9.17	20.22	-35.7	-37.1	17.6	0.00e+00	0	54	0	770703360	43	4117
2026-01-10 02:11:46.05	8.95	20.74	-35.7	-37.1	17.6	0.00e+00	0	54	0	793772032	43	4115
2026-01-10 02:11:50.08	8.71	21.28	-35.5	-36.9	17.8	0.00e+00	0	55	0	815792128	43	4031
2026-01-10 02:11:54.10	8.47	21.82	-35.2	-36.5	18.2	0.00e+00	0	54	0	838860800	42	4078
2026-01-10 02:11:58.13	8.22	22.37	-34.9	-36.2	18.5	0.00e+00	0	55	0	860880896	41	4169
2026-01-10 02:12:02.13	7.95	22.94	-34.9	-36.1	18.6	0.00e+00	0	55	0	883949568	41	4138
2026-01-10 02:12:06.16	7.68	23.52	-34.8	-36.1	18.6	0.00e+00	0	55	0	907018240	41	4125
2026-01-10 02:12:10.19	7.40	24.11	-34.8	-36.1	18.7	0.00e+00	0	55	0	929038336	41	4115
2026-01-10 02:12:14.21	7.10	24.71	-34.8	-36.1	18.7	0.00e+00	0	55	0	952107008	41	4099
2026-01-10 02:12:18.24	6.79	25.33	-34.7	-35.9	18.8	0.00e+00	0	55	0	974127104	41	4044
2026-01-10 02:12:22.27	6.47	25.96	-34.6	-35.9	18.9	0.00e+00	0	55	0	997195776	41	4026
2026-01-10 02:12:26.30	6.14	26.61	-34.6	-35.9	18.9	0.00e+00	0	55	0	1019215872	41	4020
2026-01-10 02:12:30.34	5.78	27.27	-34.8	-36.1	18.8	0.00e+00	0	55	0	1042284544	41	4099
2026-01-10 02:12:34.37	5.42	27.95	-34.7	-36.0	18.9	0.00e+00	0	55	0	1065353216	41	4053
2026-01-10 02:12:38.40	5.04	28.64	-34.4	-35.6	19.2	0.00e+00	0	55	0	1087373312	40	4143
2026-01-10 02:12:42.43	4.64	29.35	-34.4	-35.6	19.2	0.00e+00	0	55	0	1110441984	40	4127
2026-01-10 02:12:46.45	4.22	30.07	-34.2	-35.4	19.5	0.00e+00	0	55	0	1133510656	40	4023
2026-01-10 02:12:50.48	3.78	30.81	-34.2	-35.4	19.5	0.00e+00	0	55	0	1155530752	40	4009
2026-01-10 02:12:54.50	3.32	31.57	-34.2	-35.4	19.5	0.00e+00	0	55	0	1178599424	40	4037
2026-01-10 02:12:58.54	2.84	32.35	-34.0	-35.2	19.8	0.00e+00	0	55	0	1200619520	39	4174
2026-01-10 02:13:02.57	2.33	33.14	-34.2	-35.4	19.6	0.00e+00	0	55	0	1223688192	39	4253
2026-01-10 02:13:06.60	1.79	33.96	-34.1	-35.3	19.7	0.00e+00	0	55	0	1246756864	39	4202
2026-01-10 02:13:10.63	1.23	34.79	-34.2	-35.4	19.6	0.00e+00	0	55	0	1268776960	39	4246
2026-01-10 02:13:14.67	0.63	35.64	-34.1	-35.3	19.8	0.00e+00	0	55	0	1291845632	39	4203
2026-01-10 02:13:18.71	0.01	36.51	-34.1	-35.3	19.7	0.00e+00	0	55	0	1314914304	39	4228
2026-01-10 02:13:22.74	359.34	37.41	-34.2	-35.4	19.7	0.00e+00	0	55	0	1336934400	39	4247
2026-01-10 02:13:26.77	358.64	38.32	-34.1	-35.2	19.8	0.00e+00	0	55	0	1360003072	39	4186
2026-01-10 02:13:30.79	357.90	39.25	-34.4	-35.6	19.4	0.00e+00	0	55	0	1382023168	39	4366
2026-01-10 02:13:34.82	357.11	40.20	-34.5	-35.8	19.3	0.00e+00	0	56	0	1405091840	39	4450
2026-01-10 02:13:38.85	356.28	41.17	-34.5	-35.8	19.3	0.00e+00	0	55	0	1428160512	39	4442
2026-01-10 02:13:42.88	355.39	42.16	-34.3	-35.5	19.6	0.00e+00	0	55	0	1450180608	39	4331
2026-01-10 02:13:46.91	354.44	43.16	-34.6	-35.8	19.4	0.00e+00	0	55	0	1473249280	39	4447
2026-01-10 02:13:50.94	353.43	44.19	-34.5	-35.7	19.4	0.00e+00	0	55	0	1496317952	39	4429
2026-01-10 02:13:54.96	352.35	45.23	-34.6	-35.8	19.2	0.00e+00	0	55	0	1518338048	40	4239
2026-01-10 02:13:58.99	351.20	46.29	-34.2	-35.3	19.7	0.00e+00	0	56	0	1541406720	40	4004
2026-01-10 02:14:03.01	349.97	47.36	-34.7	-35.9	19.2	0.00e+00	0	55	0	1563426816	40	4278
2026-01-10 02:14:07.04	348.64	48.44	-34.7	-35.9	19.2	0.00e+00	0	55	0	1586495488	40	4279
2026-01-10 02:14:11.07	347.22	49.53	-34.8	-36.0	19.1	0.00e+00	0	55	0	1609564160	40	4306
2026-01-10 02:14:15.11	345.69	50.63	-35.4	-36.7	18.4	0.00e+00	0	55	0	1631584256	41	4433
2026-01-10 02:14:19.15	344.03	51.74	-35.2	-36.5	18.6	0.00e+00	0	55	0	1654652928	41	4319
2026-01-10 02:14:23.17	342.26	52.84	-34.9	-36.2	19.0	0.00e+00	0	56	0	1677721600	41	4152
2026-01-10 02:14:27.20	340.35	53.93	-35.6	-36.9	18.2	0.00e+00	0	56	0	1699741696	42	4286
2026-01-10 02:14:31.23	338.28	55.01	-34.8	-36.0	19.1	0.00e+00	0	56	0	1722810368	41	4087
2026-01-10 02:14:35.26	336.05	56.08	-35.0	-36.3	18.8	0.00e+00	0	56	0	1744830464	41	4214
2026-01-10 02:14:39.28	333.66	57.12	-34.9	-36.3	18.5	0.00e+00	0	56	0	1767899136	41	4239
2026-01-10 02:14:43.31	331.06	58.12	-34.7	-36.0	18.8	0.00e+00	0	56	0	1790967808	41	4094
2026-01-10 02:14:47.33	328.28	59.08	-34.8	-36.1	18.7	0.00e+00	0	56	0	1812987904	40	4382
2026-01-10 02:14:51.36	325.28	59.99	-34.5	-35.8	19.0	0.00e+00	0	56	0	1836056576	40	4213
2026-01-10 02:14:55.39	322.07	60.84	-34.5	-35.8	18.9	0.00e+00	0	56	0	1858076672	40	4222
2026-01-10 02:14:59.42	318.64	61.61	-34.3	-35.6	19.1	0.00e+00	0	56	0	1881145344	40	4141
2026-01-10 02:15:03.44	315.02	62.29	-34.3	-35.6	19.1	0.00e+00	0	56	0	1903165440	40	4118
2026-01-10 02:15:07.47	311.18	62.88	-33.8	-35.0	19.8	0.00e+00	0	56	0	1926234112	39	4079
2026-01-10 02:15:11.50	307.18	63.36	-33.6	-34.8	19.9	0.00e+00	0	56	0	1949302784	39	3991
2026-01-10 02:15:15.53	303.03	63.72	-33.5	-34.7	20.0	0.00e+00	0	56	0	1971322880	38	4150
2026-01-10 02:15:19.56	298.77	63.95	-33.5	-34.8	19.9	0.00e+00	0	56	0	1994391552	38	4196
2026-01-10 02:15:23.59	294.44	64.06	-33.4	-34.6	20.1	0.00e+00	0	56	0	2017460224	38	4128
2026-01-10 02:15:27.61	290.11	64.03	-33.3	-34.5	20.2	0.00e+00	0	56	0	2039480320	38	4076
2026-01-10 02:15:31.64	285.81	63.87	-33.4	-34.6	20.2	0.00e+00	0	56	0	2062548992	38	4101
2026-01-10 02:15:35.67	281.59	63.58	-33.2	-34.4	20.3	0.00e+00	0	56	0	2084569088	38	4019
2026-01-10 02:15:39.70	277.49	63.17	-33.4	-34.6	20.1	0.00e+00	0	56	0	2107637760	38	4118
2026-01-10 02:15:43.73	273.55	62.65	-33.8	-35.0	19.8	0.00e+00	0	56	0	2130706432	38	4322
2026-01-10 02:15:47.77	269.78	62.01	-33.9	-35.1	19.5	0.00e+00	0	56	0	2152726528	38	4381
2026-01-10 02:15:51.81	266.22	61.29	-33.7	-35.0	19.7	0.00e+00	0	56	0	2175795200	38	4300
2026-01-10 02:15:55.85	262.87	60.48	-33.8	-35.1	19.7	0.00e+00	0	56	0	2198863872	38	4355
2026-01-10 02:15:59.88	259.75	59.60	-34.1	-35.4	19.3	0.00e+00	0	56	0	2220883968	39	4272
2026-01-10 02:16:03.92	256.83	58.66	-34.2	-35.5	19.3	0.00e+00	0	56	0	2243952640	39	4309
2026-01-10 02:16:07.96	254.11	57.68	-34.4	-35.8	19.0	0.00e+00	0	56	0	2267021312	39	4444
2026-01-10 02:16:11.99	251.60	56.65	-34.7	-36.1	18.7	0.00e+00	0	56	0	2289041408	40	4341
2026-01-10 02:16:16.02	249.27	55.60	-34.7	-36.1	18.7	0.00e+00	0	56	0	2312110080	40	4355
2026-01-10 02:16:20.05	247.11	54.52	-34.7	-36.0	18.7	0.00e+00	0	56	0	2334130176	40	4327
2026-01-10 02:16:24.08	245.11	53.43	-34.4	-35.8	19.0	0.00e+00	0	56	0	2357198848	40	4198
2026-01-10 02:16:28.11	243.25	52.33	-34.3	-35.6	19.2	0.00e+00	0	56	0	2380267520	40	4099
2026-01-10 02:16:32.13	241.53	51.22	-34.4	-35.7	19.0	0.00e+00	0	56	0	2402287616	40	4167
2026-01-10 02:16:36.16	239.94	50.12	-34.2	-35.4	19.2	0.00e+00	0	56	0	2425356288	40	4050
2026-01-10 02:16:40.20	238.45	49.02	-34.2	-35.5	19.1	0.00e+00	0	56	0	2447376384	40	4078
2026-01-10 02:16:44.22	237.07	47.92	-34.0	-35.2	19.5	0.00e+00	0	56	0	2470445056	39	4180
2026-01-10 02:16:48.26	235.78	46.84	-33.5	-34.7	20.0	0.00e+00	0	56	0	2493513728	39	3937
2026-01-10 02:16:52.29	234.58	45.77	-33.7	-34.9	19.7	0.00e+00	0	56	0	2515533824	38	4274
2026-01-10 02:16:56.31	233.45	44.72	-33.5	-34.8	19.8	0.00e+00	0	56	0	2538602496	38	4197
2026-01-10 02:17:00.34	232.40	43.68	-33.6	-34.8	19.8	0.00e+00	0	56	0	2561671168	38	4221
2026-01-10 02:17:04.36	231.42	42.66	-33.3	-34.5	20.1	0.00e+00	0	56	0	2583691264	38	4093
2026-01-10 02:17:08.39	230.50	41.65	-33.6	-34.9	19.7	0.00e+00	0	56	0	2606759936	38	4268
2026-01-10 02:17:12.42	229.63	40.67	-33.4	-34.6	19.9	0.00e+00	0	56	0	2628780032	38	4130
2026-01-10 02:17:16.44	228.81	39.71	-33.3	-34.6	20.0	0.00e+00	0	56	0	2651848704	38	4108
2026-01-10 02:17:20.47	228.04	38.76	-33.5	-34.8	19.7	0.00e+00	0	56	0	2674917376	38	4199
2026-01-10 02:17:24.50	227.32	37.83	-33.3	-34.5	19.9	0.00e+00	0	56	0	2696937472	38	4081
2026-01-10 02:17:28.54	226.63	36.93	-33.4	-34.7	19.8	0.00e+00	0	56	0	2720006144	38	4148
2026-01-10 02:17:32.57	225.98	36.04	-33.4	-34.7	19.7	0.00e+00	0	56	0	2743074816	38	4169
2026-01-10 02:17:36.60	225.37	35.17	-33.4	-34.7	19.7	0.00e+00	0	56	0	2765094912	38	4175
2026-01-10 02:17:40.63	224.78	34.33	-33.3	-34.5	19.9	0.00e+00	0	56	0	2788163584	38	4092
2026-01-10 02:17:44.66	224.23	33.50	-33.4	-34.6	19.8	0.00e+00	0	56	0	2810183680	38	4139
2026-01-10 02:17:48.69	223.71	32.69	-33.7	-35.0	19.5	0.00e+00	0	56	0	2833252352	38	4324
2026-01-10 02:17:52.73	223.21	31.90	-33.6	-34.8	19.6	0.00e+00	0	56	0	2856321024	38	4233
2026-01-10 02:17:56.76	222.73	31.13	-33.5	-34.8	19.7	0.00e+00	0	56	0	2878341120	38	4209
2026-01-10 02:18:00.80	222.28	30.37	-33.6	-34.9	19.6	0.00e+00	0	56	0	2901409792	38	4261
2026-01-10 02:18:04.84	221.84	29.63	-33.8	-35.1	19.4	0.00e+00	0	56	0	2924478464	38	4381
2026-01-10 02:18:08.86	221.43	28.92	-33.9	-35.2	19.2	0.00e+00	0	56	0	2946498560	38	4429
2026-01-10 02:18:12.89	221.04	28.21	-34.1	-35.4	19.1	0.00e+00	0	56	0	2969567232	38	4510
2026-01-10 02:18:16.93	220.66	27.52	-34.0	-35.3	19.2	0.00e+00	0	56	0	2991587328	38	4477
2026-01-10 02:18:20.95	220.30	26.85	-34.0	-35.2	19.2	0.00e+00	0	56	0	3014656000	38	4437
2026-01-10 02:18:24.98	219.95	26.20	-33.9	-35.2	19.2	0.00e+00	0	56	0	3037724672	38	4431
2026-01-10 02:18:29.01	219.62	25.56	-34.1	-35.4	19.0	0.00e+00	0	56	0	3059744768	38	4532
2026-01-10 02:18:33.04	219.30	24.93	-34.1	-35.5	19.0	0.00e+00	0	56	0	3082813440	38	4546
2026-01-10 02:18:37.08	218.99	24.31	-34.1	-35.4	19.0	0.00e+00	0	56	0	3105882112	38	4529
2026-01-10 02:18:41.10	218.70	23.71	-34.2	-35.5	18.9	0.00e+00	0	56	0	3127902208	38	4560
2026-01-10 02:18:45.13	218.42	23.12	-34.3	-35.6	18.8	0.00e+00	0	56	0	3150970880	39	4364
2026-01-10 02:18:49.15	218.15	22.55	-34.4	-35.7	18.7	0.00e+00	0	56	0	3172990976	39	4418
2026-01-10 02:18:53.18	217.89	21.98	-34.5	-35.8	18.6	0.00e+00	0	56	0	3196059648	39	4485
2026-01-10 02:18:57.21	217.63	21.43	-34.6	-35.9	18.5	0.00e+00	0	56	0	3219128320	39	4535
2026-01-10 02:19:01.24	217.39	20.89	-34.6	-36.0	18.4	0.00e+00	0	56	0	3241148416	39	4564
2026-01-10 02:19:05.28	217.16	20.36	-34.8	-36.2	18.1	0.00e+00	0	56	0	3264217088	40	4401
2026-01-10 02:19:09.32	216.93	19.84	-35.0	-36.4	17.9	0.00e+00	0	56	0	3287285760	40	4532
2026-01-10 02:19:13.35	216.71	19.33	-35.2	-36.7	17.6	0.00e+00	0	56	0	3309305856	40	4669
2026-01-10 02:19:17.38	216.50	18.83	-35.3	-36.8	17.5	0.00e+00	0	56	0	3332374528	41	4474
2026-01-10 02:19:21.40	216.30	18.34	-35.3	-36.8	17.5	0.00e+00	0	56	0	3354394624	41	4467
2026-01-10 02:19:25.43	216.10	17.86	-35.2	-36.6	17.7	0.00e+00	0	56	0	3377463296	41	4380
2026-01-10 02:19:29.46	215.91	17.39	-35.1	-36.6	17.7	0.00e+00	0	56	0	3400531968	41	4345
2026-01-10 02:19:33.50	215.73	16.92	-35.2	-36.6	17.6	0.00e+00	0	56	0	3422552064	41	4378
2026-01-10 02:19:37.52	215.55	16.47	-35.3	-36.8	17.5	0.00e+00	0	56	0	3445620736	41	4453
2026-01-10 02:19:41.55	215.38	16.02	-35.5	-37.0	17.2	0.00e+00	0	56	0	3468689408	41	4553
2026-01-10 02:19:45.58	215.21	15.58	-35.6	-37.2	17.0	0.00e+00	0	56	0	3490709504	41	4673
2026-01-10 02:19:49.62	215.04	15.15	-35.9	-37.5	16.7	0.00e+00	0	56	0	3513778176	42	4560
2026-01-10 02:19:53.65	214.89	14.72	-36.1	-37.7	16.5	0.00e+00	0	56	0	3535798272	42	4675
2026-01-10 02:19:57.68	214.73	14.31	-36.3	-37.9	16.2	0.00e+00	0	56	0	3558866944	43	4542
2026-01-10 02:20:01.71	214.59	13.90	-36.4	-38.1	16.1	0.00e+00	0	57	0	3581935616	43	4624
2026-01-10 02:20:05.74	214.44	13.49	-36.6	-38.4	15.8	0.00e+00	0	56	0	3603955712	43	4761
2026-01-10 02:20:09.76	214.30	13.10	-36.7	-38.5	15.7	0.00e+00	0	56	0	3627024384	43	4837
2026-01-10 02:20:13.79	214.17	12.71	-37.1	-38.9	15.4	0.00e+00	0	56	0	3649044480	44	4769
2026-01-10 02:20:17.82	214.03	12.32	-37.1	-39.0	15.3	1.10e-06	0	56	0	3672113152	45	4564
2026-01-10 02:20:21.84	213.91	11.94	-37.1	-38.9	15.3	0.00e+00	0	56	0	3694133248	45	4526
2026-01-10 02:20:25.87	213.78	11.57	-37.2	-39.1	15.1	0.00e+00	0	56	0	3717201920	45	4623
2026-01-10 02:20:29.90	213.66	11.20	-37.3	-39.3	14.9	0.00e+00	0	56	0	3740270592	45	4726
2026-01-10 02:20:33.93	213.54	10.84	-37.4	-39.3	14.8	0.00e+00	0	56	0	3762290688	45	4739
2026-01-10 02:20:37.96	213.42	10.48	-37.4	-39.4	14.7	0.00e+00	0	57	0	3785359360	45	4783
2026-01-10 02:20:41.99	213.31	10.13	-37.6	-39.6	14.4	2.20e-06	0	56	0	3808428032	45	4912
2026-01-10 02:20:46.02	213.20	9.78	-37.6	-39.7	14.3	1.10e-06	0	57	0	3830448128	45	4954
2026-01-10 02:20:50.06	213.10	9.43	-37.5	-39.6	14.4	1.10e-06	0	56	0	3853516800	45	4886
2026-01-10 02:20:54.09	212.99	9.10	-37.6	-39.7	14.3	3.40e-06	0	56	0	3875536896	45	4946
2026-01-10 02:20:58.12	212.89	8.76	-37.6	-39.6	14.2	1.10e-06	0	56	0	3898605568	45	4924
2026-01-10 02:21:02.15	212.79	8.43	-37.6	-39.7	14.1	2.20e-06	0	57	0	3921674240	45	4971
2026-01-10 02:21:06.18	212.70	8.11	-37.8	-39.9	13.8	1.02e-05	0	56	0	3943694336	46	4807
2026-01-10 02:21:10.21	212.60	7.79	-44.6	-56.2	3.8	8.45e-01	0	57	104	3953131520	59	14743
2026-01-10 02:21:14.24	212.51	7.47	-45.0	-56.7	3.8	8.46e-01	0	56	104	3953131520	60	14783
2026-01-10 02:21:18.27	212.42	7.15	-44.9	-56.7	3.8	8.46e-01	0	56	104	3953131520	60	14839
2026-01-10 02:21:22.30	212.33	6.84	-44.9	-56.7	3.8	8.46e-01	0	57	104	3953131520	60	14759
2026-01-10 02:21:26.33	212.25	6.54	-44.9	-56.7	3.8	8.45e-01	0	56	104	3953131520	60	14744
2026-01-10 02:21:30.37	212.16	6.23	-44.9	-56.7	3.8	8.47e-01	0	56	104	3953131520	60	14767
2026-01-10 02:21:34.40	212.08	5.94	-44.9	-56.7	3.8	8.47e-01	0	57	104	3953131520	60	14766
2026-01-10 02:21:38.44	212.00	5.64	-44.8	-56.7	3.8	8.46e-01	0	57	104	3953131520	60	14717
2026-01-10 02:21:42.48	211.92	5.34	-44.8	-56.6	3.8	8.45e-01	0	57	104	3953131520	60	14706
2026-01-10 02:21:46.51	211.85	5.06	-44.8	-56.7	3.8	8.46e-01	0	57	104	3953131520	60	14756
2026-01-10 02:21:50.55	211.77	4.77	-44.8	-56.7	3.8	8.46e-01	0	57	104	3953131520	60	14743
2026-01-10 02:21:54.58	211.70	4.48	-44.8	-56.6	3.8	8.46e-01	0	57	104	3953131520	60	14679
2026-01-10 02:21:58.62	211.63	4.20	-44.8	-56.6	3.8	8.45e-01	0	57	104	3953131520	60	14669
2026-01-10 02:22:02.66	211.56	3.93	-44.8	-56.6	3.8	8.45e-01	0	57	104	3953131520	60	14620
2026-01-10 02:22:06.69	211.49	3.65	-44.8	-56.6	3.8	8.47e-01	0	57	104	3953131520	60	14621
2026-01-10 02:22:10.72	211.42	3.38	-44.8	-56.6	3.8	8.45e-01	0	57	104	3953131520	60	14666
2026-01-10 02:22:14.75	211.36	3.11	-44.8	-56.6	3.8	8.45e-01	0	57	104	3953131520	60	14644
2026-01-10 02:22:18.79	211.29	2.84	-44.8	-56.6	3.8	8.47e-01	0	57	104	3953131520	60	14620
2026-01-10 02:22:22.82	211.23	2.58	-44.8	-56.6	3.8	8.46e-01	0	57	104	3953131520	60	14626
2026-01-10 02:22:26.86	211.17	2.31	-44.8	-56.6	3.8	8.46e-01	0	57	104	3953131520	60	14588
2026-01-10 02:22:30.90	211.11	2.05	-44.8	-56.6	3.8	8.46e-01	0	57	104	3953131520	60	14620

#Closed at: 2026-01-10 02:22:33
#Recorded file [3953 MB]: D:/lorett/data/31039_260110_050816.dat