passes_logs/2026/01/10/R2.0S_Moscow/R2.0S_Moscow__20260110_022806_AQUA_rec.log

#Pass ID: 20260110_022806_AQUA
#Satellite: AQUA
#Configuration: AQUA
#almurnet v.1.7.20251203
#Start time: 2026-01-10 02:28:07

#Version: 2.2.20231116
#Station: R2.0S_Moscow
#Location: 37.707566 lon 55.798166 lat
#TLE: 1 27424U 02022A   26009.00333547  .00001046  00000+0  21942-3 0  9998
#TLE: 2 27424  98.4075 335.3304 0002025  85.7625 349.1392 14.61808998260011

#Time	Az	El	Level	Level2	SNR	BER	BlckErr	Temp	State	Recorded	gain1	gain2
2026-01-10 02:28:07.11	9.23	2.01	-40.6	-59.6	3.8	7.46e-01	0	53	0	0	53	30980
2026-01-10 02:28:10.14	9.06	2.20	-40.6	-59.6	3.8	7.46e-01	0	53	104	0	52	32765
2026-01-10 02:28:13.17	8.89	2.39	-40.6	-59.6	3.8	7.46e-01	0	53	104	0	52	32718
2026-01-10 02:28:16.20	8.72	2.58	-40.6	-59.6	3.8	7.43e-01	0	53	104	0	52	32763
2026-01-10 02:28:19.24	8.54	2.77	-40.6	-59.6	3.8	7.48e-01	0	53	104	0	52	32708
2026-01-10 02:28:22.27	8.37	2.96	-40.6	-59.6	3.8	7.42e-01	0	53	104	0	52	32733
2026-01-10 02:28:25.30	8.19	3.16	-40.6	-59.6	3.8	7.46e-01	0	53	104	0	52	32704
2026-01-10 02:28:28.33	8.01	3.35	-40.6	-59.6	3.8	7.46e-01	0	54	104	0	52	32748
2026-01-10 02:28:31.37	7.82	3.55	-40.6	-59.6	3.8	7.47e-01	0	53	104	0	52	32778
2026-01-10 02:28:34.40	7.63	3.75	-40.6	-59.6	3.8	7.47e-01	0	54	104	0	52	32726
2026-01-10 02:28:37.43	7.44	3.94	-40.6	-59.6	3.8	7.45e-01	0	54	104	0	52	32702
2026-01-10 02:28:40.47	7.25	4.15	-40.6	-59.6	3.8	7.47e-01	0	54	104	0	52	32638
2026-01-10 02:28:43.50	7.05	4.35	-40.6	-59.6	3.8	7.43e-01	0	54	104	0	52	32747
2026-01-10 02:28:46.53	6.85	4.55	-40.6	-59.6	3.8	7.44e-01	0	54	104	0	52	32707
2026-01-10 02:28:49.56	6.65	4.75	-40.6	-59.6	3.8	7.42e-01	0	54	104	0	52	32667
2026-01-10 02:28:52.60	6.44	4.96	-40.6	-59.6	3.8	7.42e-01	0	54	104	0	52	32706
2026-01-10 02:28:55.63	6.23	5.17	-40.6	-59.6	3.8	7.45e-01	0	54	104	0	52	32691
2026-01-10 02:28:58.66	6.02	5.38	-40.6	-59.6	3.8	7.47e-01	0	54	104	0	52	32656
2026-01-10 02:29:01.69	5.80	5.59	-40.6	-59.6	3.8	7.46e-01	0	55	104	0	52	32703
2026-01-10 02:29:04.73	5.58	5.80	-40.6	-59.6	3.8	7.44e-01	0	54	104	0	52	32683
2026-01-10 02:29:07.76	5.35	6.01	-40.6	-59.6	3.8	7.43e-01	0	54	104	0	52	32718
2026-01-10 02:29:10.79	5.13	6.23	-40.6	-59.6	3.8	7.45e-01	0	55	104	0	52	32682
2026-01-10 02:29:13.82	4.89	6.44	-40.6	-59.6	3.8	7.43e-01	0	55	104	0	52	32682
2026-01-10 02:29:16.85	4.66	6.66	-40.6	-59.6	3.8	7.46e-01	0	55	104	0	52	32723
2026-01-10 02:29:19.89	4.42	6.88	-40.6	-59.6	3.8	7.43e-01	0	55	104	0	52	32730
2026-01-10 02:29:22.92	4.17	7.10	-40.6	-59.6	3.8	7.43e-01	0	55	104	0	52	32713
2026-01-10 02:29:25.95	3.92	7.32	-40.6	-59.6	3.8	7.44e-01	0	55	104	0	52	32678
2026-01-10 02:29:28.99	3.67	7.55	-40.6	-59.6	3.8	7.44e-01	0	55	104	0	52	32620
2026-01-10 02:29:32.02	3.41	7.77	-40.6	-59.6	3.8	7.44e-01	0	55	104	0	52	32649
2026-01-10 02:29:35.05	3.15	8.00	-40.6	-59.6	3.8	7.49e-01	0	55	104	0	52	32594
2026-01-10 02:29:38.08	2.88	8.23	-40.6	-59.6	3.8	7.49e-01	0	55	104	0	52	32684
2026-01-10 02:29:41.12	2.61	8.46	-40.6	-59.6	3.8	7.44e-01	0	55	104	0	52	32684
2026-01-10 02:29:44.15	2.33	8.70	-40.6	-59.7	3.8	7.45e-01	0	55	104	0	52	33107
2026-01-10 02:29:47.18	2.05	8.93	-40.5	-59.6	3.8	7.47e-01	0	55	104	0	52	32567
2026-01-10 02:29:50.21	1.76	9.17	-40.5	-59.6	3.8	7.42e-01	0	55	104	0	52	32886
2026-01-10 02:29:53.24	1.47	9.41	-40.6	-59.6	3.8	7.44e-01	0	55	104	0	52	32794
2026-01-10 02:29:56.28	1.17	9.65	-40.5	-59.6	3.8	7.43e-01	0	55	104	0	52	32855
2026-01-10 02:29:59.31	0.87	9.89	-40.3	-59.6	3.8	7.45e-01	0	55	104	0	52	32645
2026-01-10 02:30:02.34	0.56	10.13	-40.5	-59.7	3.8	7.45e-01	0	56	104	0	52	33127
2026-01-10 02:30:05.37	0.24	10.38	-40.4	-59.6	3.8	7.44e-01	0	55	104	0	52	32767
2026-01-10 02:30:08.40	359.92	10.63	-40.6	-59.8	3.8	7.44e-01	0	56	104	0	52	33422
2026-01-10 02:30:11.43	359.60	10.88	-40.6	-59.7	3.8	7.44e-01	0	56	104	0	52	33264
2026-01-10 02:30:14.47	359.26	11.13	-40.5	-59.9	3.8	7.43e-01	0	56	104	0	52	33738
2026-01-10 02:30:17.50	358.92	11.38	-40.4	-59.9	3.8	7.49e-01	0	56	104	0	51	35903
2026-01-10 02:30:20.53	358.58	11.64	-40.5	-59.9	3.8	7.45e-01	0	56	104	0	52	34013
2026-01-10 02:30:23.56	358.22	11.90	-40.1	-59.7	3.8	7.45e-01	0	56	104	0	51	35282
2026-01-10 02:30:26.60	357.86	12.16	-41.1	-60.1	3.8	7.44e-01	0	56	104	0	52	34636
2026-01-10 02:30:29.63	357.49	12.42	-40.1	-58.9	3.9	7.46e-01	0	56	104	0	52	30047
2026-01-10 02:30:32.66	357.12	12.68	-38.5	-44.0	15.5	6.05e-01	0	56	0	2097152	49	6493
2026-01-10 02:30:35.69	356.74	12.95	-39.4	-46.2	13.9	6.05e-01	0	56	0	7864320	49	8340
2026-01-10 02:30:38.73	356.34	13.22	-40.3	-47.1	13.3	6.05e-01	0	56	0	13631488	51	8207
2026-01-10 02:30:41.76	355.95	13.49	-41.1	-49.4	10.5	6.19e-01	0	56	0	19398656	52	10146
2026-01-10 02:30:44.79	355.54	13.76	-41.4	-53.7	6.0	6.83e-01	92	56	0	24641536	53	15688
2026-01-10 02:30:47.82	355.13	14.04	-41.2	-57.8	3.8	7.42e-01	0	56	104	25165824	53	25156
2026-01-10 02:30:50.85	354.70	14.31	-41.2	-60.0	3.8	7.46e-01	0	56	104	25165824	54	30718
2026-01-10 02:30:53.89	354.27	14.59	-41.6	-59.8	3.8	7.47e-01	0	56	104	25165824	54	29840
2026-01-10 02:30:56.92	353.83	14.87	-41.3	-60.2	3.8	7.46e-01	0	56	104	25165824	54	31237
2026-01-10 02:30:59.95	353.38	15.15	-41.2	-60.3	3.8	7.47e-01	0	56	104	25165824	53	33356
2026-01-10 02:31:02.98	352.92	15.44	-41.5	-60.4	3.8	7.44e-01	0	56	104	25165824	53	33765
2026-01-10 02:31:06.02	352.45	15.72	-40.9	-60.5	3.8	7.44e-01	0	56	104	25165824	52	36195
2026-01-10 02:31:09.05	351.97	16.01	-41.2	-60.5	3.8	7.46e-01	0	56	104	25165824	52	36264
2026-01-10 02:31:12.08	351.48	16.30	-40.5	-60.7	3.8	7.48e-01	0	57	104	25165824	52	37168
2026-01-10 02:31:15.12	350.98	16.59	-40.9	-60.5	3.8	7.47e-01	0	56	104	25165824	52	36116
2026-01-10 02:31:18.15	350.47	16.88	-41.2	-60.4	3.8	7.45e-01	0	56	104	25165824	52	35922
2026-01-10 02:31:21.18	349.95	17.18	-40.6	-60.7	3.8	7.44e-01	0	57	104	25165824	52	37332
2026-01-10 02:31:24.22	349.42	17.47	-41.4	-60.3	3.8	7.44e-01	0	56	104	25165824	53	33652
2026-01-10 02:31:27.25	348.87	17.77	-41.4	-60.4	3.8	7.45e-01	0	57	104	25165824	53	33844
2026-01-10 02:31:30.28	348.32	18.07	-41.5	-60.5	3.8	7.42e-01	0	56	104	25165824	54	32459
2026-01-10 02:31:33.31	347.75	18.37	-41.7	-60.7	3.8	7.42e-01	0	56	104	25165824	54	33045
2026-01-10 02:31:36.35	347.17	18.67	-41.3	-60.5	3.8	7.47e-01	0	56	104	25165824	54	32528
2026-01-10 02:31:39.38	346.58	18.97	-41.3	-60.5	3.8	7.45e-01	0	57	104	25165824	54	32426
2026-01-10 02:31:42.41	345.98	19.28	-41.6	-60.2	3.8	7.48e-01	0	57	104	25165824	54	31219
2026-01-10 02:31:45.45	345.36	19.58	-41.5	-59.7	3.8	7.50e-01	0	57	104	25165824	54	29541
2026-01-10 02:31:48.48	344.73	19.89	-42.0	-58.6	3.9	7.44e-01	0	57	104	25165824	56	23299
2026-01-10 02:31:51.51	344.08	20.19	-42.0	-54.8	5.5	6.94e-01	0	57	0	25165824	54	16865
2026-01-10 02:31:54.55	343.42	20.50	-42.6	-52.5	8.4	6.37e-01	20	57	0	30408704	55	12208
2026-01-10 02:31:57.58	342.75	20.80	-42.4	-49.6	11.6	6.13e-01	0	57	0	35651584	55	8737
2026-01-10 02:32:00.61	342.06	21.11	-41.2	-45.8	15.8	5.99e-01	0	57	0	41418752	54	5933
2026-01-10 02:32:03.64	341.36	21.41	-39.9	-43.2	18.9	6.02e-01	0	56	0	47185920	51	5226
2026-01-10 02:32:06.68	340.64	21.72	-39.8	-42.7	19.6	5.99e-01	0	57	0	52953088	51	4938
2026-01-10 02:32:09.71	339.91	22.02	-40.4	-43.3	19.5	6.03e-01	0	56	0	58720256	51	5315
2026-01-10 02:32:12.74	339.16	22.33	-40.3	-42.9	20.4	5.99e-01	0	57	0	64487424	51	5067
2026-01-10 02:32:15.78	338.40	22.63	-40.1	-42.5	20.9	5.99e-01	0	57	0	70254592	51	4860
2026-01-10 02:32:18.81	337.62	22.93	-40.1	-42.6	20.9	6.03e-01	0	57	0	75497472	51	4879
2026-01-10 02:32:21.84	336.82	23.23	-40.2	-42.6	20.9	6.01e-01	0	57	0	81264640	51	4897
2026-01-10 02:32:24.88	336.01	23.53	-40.2	-42.6	20.9	6.01e-01	0	57	0	87031808	51	4908
2026-01-10 02:32:27.91	335.18	23.82	-40.2	-42.6	21.0	5.99e-01	0	57	0	92798976	51	4900
2026-01-10 02:32:30.94	334.34	24.11	-40.2	-42.6	21.0	6.00e-01	0	57	0	98566144	51	4898
2026-01-10 02:32:33.98	333.48	24.40	-40.1	-42.5	21.1	6.01e-01	0	57	0	104333312	51	4818
2026-01-10 02:32:37.01	332.60	24.69	-40.1	-42.5	21.1	6.00e-01	0	57	0	110100480	51	4829
2026-01-10 02:32:40.04	331.71	24.97	-40.1	-42.5	21.1	6.02e-01	0	57	0	115343360	51	4821
2026-01-10 02:32:43.07	330.80	25.24	-40.2	-42.6	21.0	6.01e-01	0	57	0	121110528	51	4900
2026-01-10 02:32:46.11	329.86	25.52	-40.1	-42.4	21.2	6.02e-01	0	57	0	126877696	51	4802
2026-01-10 02:32:49.14	328.92	25.78	-40.0	-42.3	21.3	5.99e-01	0	56	0	132644864	51	4742
2026-01-10 02:32:52.17	327.96	26.04	-40.1	-42.5	21.1	6.00e-01	0	57	0	138412032	51	4841
2026-01-10 02:32:55.20	326.98	26.30	-40.0	-42.4	21.3	6.00e-01	0	57	0	143654912	51	4773
2026-01-10 02:32:58.23	325.99	26.55	-40.1	-42.5	21.2	6.01e-01	0	57	0	149422080	51	4839
2026-01-10 02:33:01.27	324.97	26.79	-40.0	-42.3	21.4	6.03e-01	0	57	0	155189248	51	4734
2026-01-10 02:33:04.30	323.95	27.03	-40.0	-42.2	21.4	6.00e-01	0	57	0	160956416	51	4700
2026-01-10 02:33:07.33	322.91	27.25	-39.9	-42.2	21.5	6.00e-01	0	57	0	166723584	51	4664
2026-01-10 02:33:10.36	321.85	27.47	-39.9	-42.2	21.5	6.00e-01	0	57	0	172490752	51	4678
2026-01-10 02:33:13.40	320.77	27.68	-39.9	-42.2	21.5	6.01e-01	0	57	0	178257920	51	4670
2026-01-10 02:33:16.43	319.68	27.88	-40.0	-42.3	21.4	6.03e-01	0	57	0	183500800	51	4729
2026-01-10 02:33:19.46	318.58	28.07	-39.9	-42.2	21.5	6.01e-01	0	57	0	189267968	51	4670
2026-01-10 02:33:22.49	317.47	28.25	-39.8	-42.0	21.8	6.01e-01	0	57	0	195035136	51	4547
2026-01-10 02:33:25.53	316.34	28.42	-39.7	-41.9	21.9	6.02e-01	0	57	0	200802304	51	4505
2026-01-10 02:33:28.56	315.20	28.58	-39.8	-42.1	21.7	6.02e-01	0	57	0	206569472	51	4603
2026-01-10 02:33:31.59	314.05	28.73	-39.7	-41.9	21.8	5.99e-01	0	57	0	212336640	51	4535
2026-01-10 02:33:34.62	312.89	28.86	-39.6	-41.7	22.0	6.00e-01	0	57	0	218103808	51	4427
2026-01-10 02:33:37.66	311.71	28.98	-39.7	-41.9	21.9	6.00e-01	0	57	0	223346688	51	4506
2026-01-10 02:33:40.69	310.53	29.09	-39.7	-41.9	21.8	6.02e-01	0	57	0	229113856	51	4528
2026-01-10 02:33:43.72	309.34	29.19	-39.9	-42.2	21.6	6.02e-01	0	57	0	234881024	51	4660
2026-01-10 02:33:46.75	308.15	29.28	-39.9	-42.2	21.6	6.02e-01	0	57	0	240648192	51	4663
2026-01-10 02:33:49.78	306.94	29.35	-40.0	-42.3	21.5	6.04e-01	0	57	0	246415360	51	4731
2026-01-10 02:33:52.81	305.74	29.40	-40.1	-42.4	21.3	6.01e-01	0	57	0	252182528	51	4813
2026-01-10 02:33:55.84	304.53	29.45	-40.0	-42.3	21.5	6.00e-01	0	57	0	257425408	51	4727
2026-01-10 02:33:58.85	303.32	29.48	-39.9	-42.1	21.5	6.01e-01	0	57	0	263192576	51	4609
2026-01-10 02:34:01.88	302.10	29.49	-39.6	-41.8	21.9	6.02e-01	0	57	0	268959744	51	4453
2026-01-10 02:34:04.91	300.89	29.50	-40.6	-43.2	20.6	6.00e-01	0	57	0	274726912	51	5259
2026-01-10 02:34:07.93	299.68	29.48	-40.5	-43.0	20.8	6.00e-01	0	57	0	280494080	51	5103
2026-01-10 02:34:10.96	298.46	29.46	-40.0	-42.2	21.5	6.00e-01	0	57	0	286261248	51	4682
2026-01-10 02:34:13.98	297.25	29.42	-39.9	-42.2	21.4	6.01e-01	0	57	0	291504128	51	4667
2026-01-10 02:34:17.00	296.05	29.36	-40.1	-42.5	21.3	6.02e-01	0	57	0	297271296	51	4817
2026-01-10 02:34:20.02	294.85	29.30	-39.9	-42.1	21.6	6.00e-01	0	56	0	303038464	51	4609
2026-01-10 02:34:23.04	293.65	29.22	-40.4	-42.9	20.7	6.00e-01	0	57	0	308805632	51	5092
2026-01-10 02:34:26.06	292.46	29.12	-40.9	-43.6	20.1	6.01e-01	0	57	0	314572800	52	5189
2026-01-10 02:34:29.08	291.28	29.02	-40.2	-42.6	21.2	6.02e-01	0	57	0	319815680	51	4886
2026-01-10 02:34:32.10	290.11	28.90	-39.6	-41.7	21.8	5.98e-01	0	57	0	325582848	51	4427
2026-01-10 02:34:35.12	288.95	28.77	-40.9	-43.7	19.9	5.99e-01	0	57	0	331350016	52	5278
2026-01-10 02:34:38.14	287.80	28.62	-39.6	-41.7	22.0	6.00e-01	0	57	0	337117184	51	4401
2026-01-10 02:34:41.15	286.66	28.47	-40.4	-42.9	20.7	6.00e-01	0	57	0	342884352	51	5055
2026-01-10 02:34:44.18	285.53	28.30	-39.7	-41.9	21.8	6.02e-01	0	57	0	348127232	51	4517
2026-01-10 02:34:47.20	284.41	28.12	-40.7	-43.3	20.4	6.00e-01	0	57	0	353894400	52	5024
2026-01-10 02:34:50.23	283.30	27.94	-40.3	-42.8	20.7	6.02e-01	0	57	0	359661568	52	4729
2026-01-10 02:34:53.25	282.21	27.74	-40.3	-42.8	20.9	6.01e-01	0	57	0	365428736	52	4709
2026-01-10 02:34:56.28	281.13	27.53	-40.2	-42.6	21.0	6.01e-01	0	57	0	371195904	52	4644
2026-01-10 02:34:59.31	280.06	27.32	-40.5	-43.0	20.7	6.01e-01	0	57	0	376438784	52	4856
2026-01-10 02:35:02.33	279.02	27.09	-40.3	-42.8	20.9	6.01e-01	0	57	0	382205952	52	4730
2026-01-10 02:35:05.35	277.99	26.86	-40.6	-43.1	20.5	6.02e-01	0	57	0	387973120	52	4911
2026-01-10 02:35:08.37	276.97	26.62	-40.5	-43.1	20.5	6.00e-01	0	57	0	393740288	52	4890
2026-01-10 02:35:11.40	275.97	26.37	-40.6	-43.2	20.4	6.03e-01	0	57	0	399507456	52	4977
2026-01-10 02:35:14.42	274.98	26.12	-40.5	-43.1	20.5	6.02e-01	0	57	0	404750336	52	4885
2026-01-10 02:35:17.45	274.01	25.86	-40.6	-43.2	20.4	6.02e-01	0	57	0	410517504	52	4977
2026-01-10 02:35:20.47	273.06	25.60	-40.5	-43.1	20.5	6.04e-01	0	57	0	416284672	52	4893
2026-01-10 02:35:23.50	272.13	25.32	-40.7	-43.4	20.3	5.99e-01	0	57	0	422051840	52	5058
2026-01-10 02:35:26.52	271.21	25.05	-40.5	-43.1	20.5	6.00e-01	0	57	0	427819008	52	4878
2026-01-10 02:35:29.55	270.31	24.77	-40.6	-43.3	20.3	6.00e-01	0	57	0	433061888	52	5005
2026-01-10 02:35:32.57	269.42	24.48	-40.6	-43.2	20.4	6.01e-01	0	57	0	438829056	52	4946
2026-01-10 02:35:35.59	268.56	24.20	-40.6	-43.2	20.4	6.01e-01	0	57	0	444596224	52	4958
2026-01-10 02:35:38.61	267.71	23.91	-40.6	-43.2	20.4	6.02e-01	0	57	0	450363392	52	4946
2026-01-10 02:35:41.63	266.87	23.61	-40.7	-43.3	20.3	6.01e-01	0	57	0	456130560	52	5023
2026-01-10 02:35:44.65	266.06	23.32	-40.7	-43.4	20.2	6.02e-01	0	57	0	461373440	52	5060
2026-01-10 02:35:47.67	265.25	23.02	-40.5	-43.1	20.5	6.00e-01	0	57	0	467140608	52	4891
2026-01-10 02:35:50.69	264.47	22.72	-40.7	-43.4	20.2	6.01e-01	0	57	0	472907776	52	5072
2026-01-10 02:35:53.72	263.70	22.42	-40.6	-43.2	20.3	6.02e-01	0	57	0	478674944	52	4976
2026-01-10 02:35:56.74	262.94	22.11	-40.6	-43.2	20.3	6.04e-01	0	57	0	484442112	52	4980
2026-01-10 02:35:59.77	262.20	21.81	-40.5	-43.1	20.4	6.02e-01	0	57	0	490209280	52	4888
2026-01-10 02:36:02.79	261.48	21.50	-40.6	-43.3	20.3	6.00e-01	0	57	0	495452160	52	4995
2026-01-10 02:36:05.82	260.77	21.20	-40.4	-42.9	20.5	6.00e-01	0	57	0	501219328	52	4804
2026-01-10 02:36:08.84	260.07	20.89	-40.6	-43.2	20.3	5.99e-01	0	57	0	506986496	52	4948
2026-01-10 02:36:11.86	259.39	20.58	-40.4	-43.0	20.5	6.00e-01	0	57	0	512753664	52	4857
2026-01-10 02:36:14.88	258.73	20.28	-40.7	-43.5	20.0	6.00e-01	0	57	0	518520832	52	5116
2026-01-10 02:36:17.90	258.08	19.97	-40.4	-42.9	20.5	6.01e-01	0	57	0	523763712	52	4789
2026-01-10 02:36:20.92	257.44	19.67	-40.6	-43.3	20.2	6.02e-01	0	57	0	529530880	52	4986
2026-01-10 02:36:23.94	256.82	19.36	-40.5	-43.2	20.2	6.00e-01	0	57	0	535298048	52	4928
2026-01-10 02:36:26.96	256.20	19.06	-40.4	-43.0	20.5	6.00e-01	0	57	0	541065216	52	4818
2026-01-10 02:36:29.98	255.61	18.75	-40.5	-43.1	20.3	5.99e-01	0	57	0	546832384	52	4900
2026-01-10 02:36:33.00	255.02	18.45	-40.5	-43.2	20.2	6.01e-01	0	57	0	552075264	52	4957
2026-01-10 02:36:36.03	254.44	18.15	-40.6	-43.3	20.1	6.00e-01	0	57	0	557842432	52	4987
2026-01-10 02:36:39.06	253.88	17.85	-40.4	-43.1	20.3	6.02e-01	0	57	0	563609600	52	4875
2026-01-10 02:36:42.09	253.33	17.55	-40.4	-43.0	20.3	6.01e-01	0	57	0	569376768	52	4858
2026-01-10 02:36:45.12	252.79	17.25	-40.4	-43.1	20.3	6.01e-01	0	57	0	575143936	52	4889
2026-01-10 02:36:48.14	252.26	16.96	-40.5	-43.2	20.0	6.01e-01	0	57	0	580911104	52	4982
2026-01-10 02:36:51.16	251.75	16.66	-40.3	-42.8	20.5	6.01e-01	0	57	0	586153984	52	4756
2026-01-10 02:36:54.18	251.24	16.37	-40.4	-43.1	20.2	6.00e-01	0	57	0	591921152	52	4903
2026-01-10 02:36:57.20	250.75	16.08	-40.4	-43.0	20.2	6.00e-01	0	57	0	597688320	52	4861
2026-01-10 02:37:00.22	250.26	15.79	-40.5	-43.3	20.0	6.01e-01	0	57	0	603455488	52	4993
2026-01-10 02:37:03.24	249.79	15.51	-40.5	-43.2	20.1	6.00e-01	0	57	0	609222656	52	4940
2026-01-10 02:37:06.27	249.32	15.22	-40.4	-43.1	20.1	6.01e-01	0	57	0	614465536	52	4884
2026-01-10 02:37:09.29	248.86	14.94	-40.4	-43.1	20.1	6.02e-01	0	57	0	620232704	52	4923
2026-01-10 02:37:12.31	248.42	14.66	-40.6	-43.3	19.9	6.01e-01	0	57	0	625999872	52	5021
2026-01-10 02:37:15.33	247.98	14.38	-40.5	-43.3	19.9	6.02e-01	0	57	0	631767040	52	5019
2026-01-10 02:37:18.35	247.55	14.10	-40.5	-43.2	20.0	6.02e-01	0	57	0	637534208	52	4952
2026-01-10 02:37:21.37	247.13	13.82	-40.6	-43.5	19.7	6.02e-01	0	57	0	642777088	52	5120
2026-01-10 02:37:24.38	246.72	13.55	-40.6	-43.4	19.8	6.01e-01	0	56	0	648544256	52	5081
2026-01-10 02:37:27.40	246.32	13.28	-40.6	-43.4	19.8	6.02e-01	0	57	0	654311424	52	5042
2026-01-10 02:37:30.42	245.92	13.01	-40.6	-43.4	19.8	5.99e-01	0	57	0	660078592	52	5068
2026-01-10 02:37:33.45	245.53	12.74	-40.6	-43.5	19.6	6.02e-01	0	57	0	665845760	52	5126
2026-01-10 02:37:36.48	245.15	12.48	-40.7	-43.7	19.5	6.02e-01	0	57	0	671088640	52	5239
2026-01-10 02:37:39.50	244.78	12.21	-40.7	-43.6	19.5	6.02e-01	0	57	0	676855808	52	5218
2026-01-10 02:37:42.52	244.41	11.95	-40.7	-43.7	19.4	5.98e-01	0	56	0	682622976	52	5252
2026-01-10 02:37:45.54	244.05	11.69	-40.7	-43.7	19.4	6.01e-01	0	57	0	688390144	52	5234
2026-01-10 02:37:48.57	243.70	11.44	-40.8	-43.8	19.3	6.00e-01	0	57	0	694157312	52	5310
2026-01-10 02:37:51.59	243.36	11.18	-40.8	-43.8	19.2	6.02e-01	0	56	0	699400192	52	5293
2026-01-10 02:37:54.61	243.02	10.93	-40.7	-43.7	19.3	6.01e-01	0	57	0	705167360	52	5268
2026-01-10 02:37:57.63	242.69	10.68	-40.8	-43.8	19.2	5.98e-01	0	57	0	710934528	52	5299
2026-01-10 02:38:00.65	242.36	10.43	-40.9	-44.0	18.9	6.02e-01	0	57	0	716701696	52	5455
2026-01-10 02:38:03.67	242.04	10.18	-40.8	-43.9	19.0	6.02e-01	0	57	0	722468864	52	5387
2026-01-10 02:38:06.69	241.72	9.94	-40.9	-44.1	18.8	6.01e-01	0	56	0	728236032	52	5468
2026-01-10 02:38:09.72	241.42	9.69	-41.0	-44.2	18.6	6.00e-01	0	57	0	733478912	52	5589
2026-01-10 02:38:12.73	241.11	9.45	-41.0	-44.3	18.6	6.01e-01	0	57	0	739246080	52	5603
2026-01-10 02:38:15.75	240.82	9.21	-40.9	-44.2	18.7	6.00e-01	0	56	0	745013248	52	5529
2026-01-10 02:38:18.78	240.52	8.97	-41.0	-44.2	18.5	6.02e-01	0	57	0	750780416	52	5571
2026-01-10 02:38:21.80	240.24	8.74	-41.1	-44.4	18.4	6.01e-01	0	57	0	756547584	52	5684
2026-01-10 02:38:24.83	239.95	8.50	-41.1	-44.5	18.2	6.00e-01	0	57	0	761790464	52	5780
2026-01-10 02:38:27.86	239.68	8.27	-41.2	-44.6	18.1	6.00e-01	0	56	0	767557632	53	5528
2026-01-10 02:38:30.88	239.40	8.04	-41.2	-44.6	18.0	6.00e-01	0	57	0	773324800	53	5525
2026-01-10 02:38:33.91	239.14	7.81	-45.5	-64.3	3.8	7.46e-01	0	57	104	774897664	61	33493
2026-01-10 02:38:36.93	238.87	7.58	-45.8	-64.7	3.8	7.42e-01	0	57	104	774897664	62	32946
2026-01-10 02:38:39.96	238.61	7.36	-46.0	-64.9	3.8	7.46e-01	0	57	104	774897664	62	33815
2026-01-10 02:38:42.98	238.36	7.13	-45.9	-64.8	3.8	7.46e-01	0	57	104	774897664	62	33590
2026-01-10 02:38:46.00	238.11	6.91	-45.9	-64.8	3.8	7.44e-01	0	57	104	774897664	62	33532
2026-01-10 02:38:49.03	237.87	6.69	-45.9	-64.8	3.8	7.44e-01	0	57	104	774897664	62	33457
2026-01-10 02:38:52.06	237.62	6.47	-45.9	-64.8	3.8	7.46e-01	0	57	104	774897664	62	33395
2026-01-10 02:38:55.09	237.39	6.25	-45.9	-64.8	3.8	7.44e-01	0	57	104	774897664	62	33413
2026-01-10 02:38:58.11	237.15	6.04	-45.9	-64.8	3.8	7.46e-01	0	57	104	774897664	62	33321
2026-01-10 02:39:01.14	236.92	5.82	-45.8	-64.8	3.8	7.45e-01	0	57	104	774897664	62	33376
2026-01-10 02:39:04.17	236.70	5.61	-45.8	-64.7	3.8	7.46e-01	0	57	104	774897664	62	33274
2026-01-10 02:39:07.19	236.48	5.40	-45.8	-64.7	3.8	7.45e-01	0	57	104	774897664	62	33294
2026-01-10 02:39:10.22	236.26	5.19	-45.8	-64.7	3.8	7.45e-01	0	57	104	774897664	62	33275
2026-01-10 02:39:13.25	236.04	4.98	-45.8	-64.7	3.8	7.43e-01	0	57	104	774897664	62	33215
2026-01-10 02:39:16.27	235.83	4.77	-45.8	-64.7	3.8	7.47e-01	0	57	104	774897664	62	33213
2026-01-10 02:39:19.30	235.62	4.57	-45.8	-64.7	3.8	7.46e-01	0	57	104	774897664	62	33198
2026-01-10 02:39:22.33	235.42	4.36	-45.8	-64.7	3.8	7.46e-01	0	57	104	774897664	62	33180
2026-01-10 02:39:25.35	235.21	4.16	-45.8	-64.7	3.8	7.48e-01	0	57	104	774897664	62	33240
2026-01-10 02:39:28.38	235.02	3.96	-45.8	-64.7	3.8	7.43e-01	0	57	104	774897664	62	33212
2026-01-10 02:39:31.41	234.82	3.76	-45.8	-64.7	3.8	7.44e-01	0	57	104	774897664	62	33208
2026-01-10 02:39:34.43	234.63	3.56	-45.8	-64.7	3.8	7.45e-01	0	57	104	774897664	62	33160
2026-01-10 02:39:37.46	234.44	3.37	-45.8	-64.7	3.8	7.46e-01	0	57	104	774897664	62	33100
2026-01-10 02:39:40.48	234.25	3.17	-45.8	-64.7	3.8	7.45e-01	0	57	104	774897664	62	33108
2026-01-10 02:39:43.51	234.07	2.97	-45.8	-64.7	3.8	7.45e-01	0	57	104	774897664	62	33158
2026-01-10 02:39:46.54	233.88	2.78	-45.8	-64.7	3.8	7.47e-01	0	57	104	774897664	62	33133
2026-01-10 02:39:49.56	233.71	2.59	-45.8	-64.7	3.8	7.43e-01	0	57	104	774897664	62	33106
2026-01-10 02:39:52.58	233.53	2.40	-45.8	-64.7	3.8	7.44e-01	0	57	104	774897664	62	33081
2026-01-10 02:39:55.61	233.36	2.21	-45.8	-64.7	3.8	7.48e-01	0	57	104	774897664	62	33058
2026-01-10 02:39:58.63	233.19	2.02	-45.8	-64.7	3.8	7.46e-01	0	57	104	774897664	62	33144

#Closed at: 2026-01-10 02:39:59
#Recorded file [774 MB]: D:/lorett/data/31039_260110_052806.dat