passes_logs/2026/01/10/R2.0S_Moscow/R2.0S_Moscow__20260110_105922_SUOMI_NPP_rec.log

#Pass ID: 20260110_105922_SUOMI NPP
#Satellite: SUOMI NPP
#Configuration: NPP
#almurnet v.1.7.20251203
#Start time: 2026-01-10 10:59:22

#Version: 2.2.20231116
#Station: R2.0S_Moscow
#Location: 37.707566 lon 55.798166 lat
#TLE: 1 37849U 11061A   26008.83076692  .00000095  00000+0  66074-4 0  9997
#TLE: 2 37849  98.7806 310.9327 0002533  74.3004 285.8451 14.19523607735834

#Time	Az	El	Level	Level2	SNR	BER	BlckErr	Temp	State	Recorded	gain1	gain2
2026-01-10 10:59:22.98	190.25	2.05	-44.0	-58.5	3.8	1.49e+00	0	47	0	0	59	19337
2026-01-10 10:59:27.03	190.44	2.30	-44.0	-58.5	3.8	1.49e+00	0	47	104	0	59	19379
2026-01-10 10:59:31.07	190.64	2.55	-44.0	-58.5	3.8	1.49e+00	0	48	104	0	59	19340
2026-01-10 10:59:35.12	190.84	2.80	-44.0	-58.5	3.8	1.49e+00	0	48	104	0	59	19355
2026-01-10 10:59:39.16	191.04	3.05	-44.0	-58.5	3.9	1.49e+00	0	48	104	0	59	19345
2026-01-10 10:59:43.20	191.25	3.30	-44.0	-58.5	3.8	1.49e+00	0	49	104	0	59	19363
2026-01-10 10:59:47.24	191.46	3.56	-44.0	-58.5	3.8	1.49e+00	0	49	104	0	59	19362
2026-01-10 10:59:51.29	191.68	3.82	-44.0	-58.5	3.8	1.49e+00	0	49	104	0	59	19348
2026-01-10 10:59:55.33	191.89	4.08	-44.0	-58.5	3.8	1.49e+00	0	49	104	0	59	19321
2026-01-10 10:59:59.38	192.11	4.34	-44.0	-58.5	3.8	1.49e+00	0	49	104	0	59	19320
2026-01-10 11:00:03.42	192.34	4.60	-44.0	-58.5	3.8	1.49e+00	0	50	104	0	59	19368
2026-01-10 11:00:07.46	192.57	4.87	-44.0	-58.5	3.8	1.49e+00	0	50	104	0	59	19208
2026-01-10 11:00:11.51	192.80	5.14	-44.0	-58.0	3.8	1.49e+00	0	50	104	0	59	18217
2026-01-10 11:00:15.55	193.04	5.41	-44.0	-57.5	3.8	1.49e+00	0	50	104	0	59	17266
2026-01-10 11:00:19.59	193.28	5.68	-43.9	-57.0	3.8	1.49e+00	0	50	104	0	59	16297
2026-01-10 11:00:23.64	193.53	5.96	-43.9	-56.9	3.8	1.49e+00	0	51	104	0	59	16109
2026-01-10 11:00:27.68	193.78	6.24	-43.9	-56.4	3.8	1.49e+00	0	51	104	0	59	15214
2026-01-10 11:00:31.72	194.03	6.52	-43.8	-55.3	4.1	1.43e+00	0	51	0	0	59	13270
2026-01-10 11:00:35.77	194.29	6.80	-43.6	-52.9	5.0	7.44e-01	0	51	0	4194304	59	10111
2026-01-10 11:00:39.81	194.55	7.09	-43.0	-49.9	7.3	1.46e-01	0	52	0	12582912	58	7626
2026-01-10 11:00:43.85	194.82	7.38	-42.4	-47.7	9.5	2.09e-02	0	52	0	19922944	56	6607
2026-01-10 11:00:47.89	195.10	7.67	-42.0	-46.7	10.5	4.40e-03	0	52	0	27262976	56	5910
2026-01-10 11:00:51.94	195.38	7.97	-42.4	-47.8	9.4	1.19e-02	0	52	0	34603008	56	6676
2026-01-10 11:00:55.98	195.66	8.27	-43.9	-53.6	5.0	7.51e-02	0	52	0	41943040	58	11600
2026-01-10 11:01:00.02	195.96	8.57	-42.2	-47.0	10.4	4.66e-03	0	52	0	47185920	56	6083
2026-01-10 11:01:04.05	196.25	8.87	-41.6	-45.9	11.4	1.82e-03	0	52	0	54525952	55	5659
2026-01-10 11:01:08.09	196.55	9.18	-41.5	-45.6	11.7	5.32e-04	0	52	0	61865984	54	5810
2026-01-10 11:01:12.13	196.86	9.49	-41.3	-45.1	12.2	2.60e-04	0	53	0	69206016	54	5528
2026-01-10 11:01:16.17	197.18	9.80	-40.8	-44.8	11.8	3.39e-04	0	53	0	76546048	53	5612
2026-01-10 11:01:20.20	197.50	10.12	-39.7	-44.4	10.6	4.14e-03	0	53	0	84934656	51	6010
2026-01-10 11:01:24.24	197.83	10.44	-39.0	-44.2	9.9	8.51e-03	0	53	0	92274688	50	6263
2026-01-10 11:01:28.28	198.16	10.76	-39.3	-44.2	10.5	3.78e-03	0	53	0	99614720	50	6250
2026-01-10 11:01:32.32	198.51	11.09	-40.2	-44.3	11.8	7.60e-04	0	53	0	106954752	50	6281
2026-01-10 11:01:36.36	198.86	11.42	-40.7	-44.3	12.7	1.31e-04	0	53	0	115343360	52	5632
2026-01-10 11:01:40.39	199.21	11.75	-40.6	-44.4	12.6	1.31e-04	0	53	0	122683392	52	5659
2026-01-10 11:01:44.43	199.58	12.09	-40.3	-44.4	12.0	3.51e-04	0	54	0	130023424	52	5716
2026-01-10 11:01:48.46	199.95	12.43	-40.1	-44.4	11.7	5.16e-04	0	54	0	137363456	52	5680
2026-01-10 11:01:52.50	200.34	12.77	-40.3	-44.0	12.6	9.68e-05	0	54	0	144703488	52	5410
2026-01-10 11:01:56.54	200.73	13.12	-40.4	-43.9	13.0	4.95e-05	0	54	0	153092096	52	5341
2026-01-10 11:02:00.58	201.13	13.47	-40.6	-43.8	13.5	1.98e-05	0	54	0	160432128	52	5293
2026-01-10 11:02:04.61	201.54	13.83	-40.7	-43.7	14.1	7.00e-07	0	54	0	167772160	52	5222
2026-01-10 11:02:08.65	201.96	14.19	-40.6	-43.6	14.3	1.50e-06	0	54	0	175112192	52	5165
2026-01-10 11:02:12.69	202.39	14.55	-40.7	-43.8	14.0	7.00e-07	0	54	0	183500800	52	5291
2026-01-10 11:02:16.73	202.83	14.92	-40.5	-43.5	14.3	3.00e-06	0	54	0	190840832	52	5120
2026-01-10 11:02:20.76	203.27	15.29	-40.8	-43.8	14.1	3.00e-06	0	54	0	198180864	52	5307
2026-01-10 11:02:24.80	203.74	15.67	-41.0	-44.1	13.9	7.00e-07	0	54	0	205520896	52	5497
2026-01-10 11:02:28.84	204.21	16.05	-40.9	-44.0	14.0	2.20e-06	0	54	0	212860928	52	5435
2026-01-10 11:02:32.88	204.69	16.43	-41.0	-44.2	13.7	3.00e-06	0	54	0	221249536	52	5576
2026-01-10 11:02:36.91	205.19	16.82	-41.1	-44.4	13.8	6.10e-06	0	54	0	228589568	52	5661
2026-01-10 11:02:40.95	205.70	17.21	-41.1	-44.3	13.7	1.37e-05	0	54	0	235929600	53	5291
2026-01-10 11:02:44.99	206.22	17.61	-40.9	-43.9	14.1	7.00e-07	0	54	0	243269632	53	5097
2026-01-10 11:02:49.03	206.76	18.01	-40.7	-43.6	14.4	7.00e-07	0	55	0	250609664	53	4916
2026-01-10 11:02:53.06	207.31	18.42	-41.0	-44.1	14.0	7.00e-07	0	55	0	258998272	53	5168
2026-01-10 11:02:57.10	207.87	18.83	-41.2	-44.4	13.7	4.50e-06	0	55	0	266338304	53	5368
2026-01-10 11:03:01.14	208.45	19.24	-41.3	-44.7	13.4	1.52e-05	0	55	0	273678336	53	5537
2026-01-10 11:03:05.18	209.05	19.66	-41.3	-44.6	13.4	8.30e-06	0	55	0	281018368	53	5518
2026-01-10 11:03:09.22	209.66	20.08	-41.1	-44.2	13.9	5.30e-06	0	55	0	289406976	53	5248
2026-01-10 11:03:13.26	210.29	20.51	-41.1	-44.1	14.0	3.00e-06	0	55	0	296747008	53	5199
2026-01-10 11:03:17.30	210.93	20.94	-41.1	-44.3	13.8	3.00e-06	0	55	0	304087040	53	5298
2026-01-10 11:03:21.34	211.60	21.37	-41.3	-44.6	13.5	1.37e-05	0	55	0	311427072	53	5490
2026-01-10 11:03:25.38	212.28	21.81	-41.4	-44.6	13.5	1.06e-05	0	55	0	318767104	53	5501
2026-01-10 11:03:29.42	212.98	22.25	-41.0	-43.9	14.2	3.80e-06	0	55	0	327155712	53	5094
2026-01-10 11:03:33.45	213.70	22.69	-41.0	-44.0	14.2	1.50e-06	0	55	0	334495744	53	5159
2026-01-10 11:03:37.49	214.44	23.14	-41.2	-44.3	13.9	6.80e-06	0	55	0	341835776	53	5297
2026-01-10 11:03:41.53	215.20	23.59	-40.7	-43.5	14.7	7.00e-07	0	55	0	349175808	53	4818
2026-01-10 11:03:45.58	215.98	24.04	-40.7	-43.5	14.6	7.00e-07	0	55	0	357564416	53	4849
2026-01-10 11:03:49.61	216.79	24.49	-41.4	-44.7	13.4	5.30e-06	0	55	0	364904448	53	5576
2026-01-10 11:03:53.65	217.62	24.95	-41.0	-44.0	14.2	3.00e-06	0	55	0	372244480	53	5113
2026-01-10 11:03:57.69	218.47	25.41	-40.7	-43.5	14.8	0.00e+00	0	55	0	379584512	53	4820
2026-01-10 11:04:01.72	219.34	25.86	-40.7	-43.5	14.7	7.00e-07	0	55	0	386924544	53	4835
2026-01-10 11:04:05.76	220.25	26.32	-40.7	-43.4	14.8	0.00e+00	0	55	0	395313152	53	4798
2026-01-10 11:04:09.80	221.18	26.78	-40.5	-43.1	15.1	0.00e+00	0	55	0	402653184	53	4649
2026-01-10 11:04:13.83	222.13	27.24	-40.5	-43.2	15.0	0.00e+00	0	56	0	409993216	52	4946
2026-01-10 11:04:17.87	223.11	27.70	-40.7	-43.5	14.7	7.00e-07	0	56	0	417333248	52	5112
2026-01-10 11:04:21.91	224.12	28.16	-41.0	-44.0	14.3	7.00e-07	0	55	0	425721856	52	5404
2026-01-10 11:04:25.95	225.16	28.61	-41.0	-44.0	14.3	1.50e-06	0	55	0	433061888	52	5425
2026-01-10 11:04:29.99	226.23	29.07	-41.1	-44.2	14.1	3.00e-06	0	56	0	440401920	53	5227
2026-01-10 11:04:34.02	227.32	29.51	-41.7	-45.1	13.1	2.13e-05	0	56	0	447741952	54	5504
2026-01-10 11:04:38.06	228.45	29.96	-41.6	-44.9	13.4	2.67e-05	0	55	0	455081984	54	5384
2026-01-10 11:04:42.10	229.61	30.40	-42.4	-46.5	11.7	4.38e-04	0	56	0	463470592	55	6070
2026-01-10 11:04:46.13	230.79	30.83	-42.9	-47.3	11.1	1.70e-03	0	56	0	470810624	56	6321
2026-01-10 11:04:50.17	232.02	31.25	-43.3	-48.4	9.9	5.55e-03	0	56	0	478150656	57	6768
2026-01-10 11:04:54.21	233.27	31.67	-42.9	-47.4	10.9	3.81e-03	0	56	0	485490688	57	6024
2026-01-10 11:04:58.25	234.55	32.08	-42.8	-47.3	11.2	1.07e-03	0	56	0	493879296	57	5953
2026-01-10 11:05:02.28	235.86	32.47	-43.2	-48.2	10.2	6.01e-03	0	56	0	501219328	57	6571
2026-01-10 11:05:06.32	237.21	32.86	-43.0	-47.8	10.5	2.67e-03	0	56	0	508559360	57	6277
2026-01-10 11:05:10.37	238.59	33.23	-42.8	-47.3	11.3	1.47e-03	0	56	0	515899392	57	5935
2026-01-10 11:05:14.41	240.00	33.59	-42.5	-46.5	11.9	4.52e-04	0	56	0	523239424	56	5724
2026-01-10 11:05:18.45	241.44	33.93	-42.1	-46.0	12.2	1.60e-04	0	56	0	531628032	55	5742
2026-01-10 11:05:22.49	242.91	34.25	-42.6	-46.8	11.6	7.87e-04	0	56	0	538968064	56	5961
2026-01-10 11:05:26.53	244.40	34.56	-41.3	-44.4	13.9	6.10e-06	0	56	0	546308096	54	5056
2026-01-10 11:05:30.57	245.93	34.85	-41.9	-45.4	12.9	1.44e-05	0	56	0	553648128	54	5711
2026-01-10 11:05:34.61	247.48	35.12	-41.3	-44.4	13.9	6.80e-06	0	56	0	562036736	54	5089
2026-01-10 11:05:38.64	249.05	35.37	-41.4	-44.6	13.8	1.67e-05	0	56	0	569376768	54	5165
2026-01-10 11:05:42.68	250.64	35.59	-41.3	-44.5	13.8	3.00e-06	0	56	0	576716800	53	5435
2026-01-10 11:05:46.72	252.26	35.79	-41.0	-44.0	14.3	7.00e-07	0	56	0	584056832	53	5112
2026-01-10 11:05:50.76	253.89	35.97	-41.7	-45.0	13.2	3.28e-05	0	56	0	591396864	54	5464
2026-01-10 11:05:54.80	255.54	36.12	-41.3	-44.5	13.8	4.50e-06	0	56	0	599785472	54	5123
2026-01-10 11:05:58.83	257.20	36.25	-41.7	-45.1	13.3	3.00e-06	0	56	0	607125504	53	5846
2026-01-10 11:06:02.87	258.88	36.35	-42.0	-45.7	12.5	2.43e-04	0	56	0	614465536	55	5535
2026-01-10 11:06:06.91	260.57	36.43	-42.0	-45.6	12.6	6.86e-05	0	56	0	621805568	55	5505
2026-01-10 11:06:10.95	262.26	36.47	-42.4	-46.6	11.7	8.26e-04	0	56	0	630194176	55	6156
2026-01-10 11:06:14.98	263.95	36.49	-41.9	-45.5	12.7	2.12e-04	0	56	0	637534208	55	5459
2026-01-10 11:06:19.02	265.64	36.48	-41.9	-45.6	12.7	4.95e-05	0	56	0	644874240	55	5474
2026-01-10 11:06:23.06	267.33	36.44	-42.3	-46.3	11.9	3.28e-04	0	56	0	652214272	55	5970
2026-01-10 11:06:27.10	269.02	36.38	-41.8	-45.4	12.9	8.85e-05	0	56	0	659554304	55	5341
2026-01-10 11:06:31.13	270.69	36.29	-41.9	-45.5	12.8	6.40e-05	0	56	0	667942912	55	5413
2026-01-10 11:06:35.18	272.37	36.17	-43.5	-49.2	9.2	1.48e-02	0	56	0	675282944	57	7377
2026-01-10 11:06:39.22	274.02	36.03	-43.2	-48.1	10.2	4.63e-03	0	56	0	682622976	57	6547
2026-01-10 11:06:43.26	275.66	35.86	-42.4	-46.2	12.2	2.66e-04	0	56	0	689963008	56	5580
2026-01-10 11:06:47.29	277.28	35.67	-43.1	-47.7	10.6	8.52e-03	0	56	0	698351616	57	6271
2026-01-10 11:06:51.33	278.88	35.45	-43.6	-49.2	9.1	8.89e-03	0	56	0	705691648	57	7416
2026-01-10 11:06:55.37	280.46	35.21	-43.7	-49.7	8.6	3.26e-02	0	56	0	713031680	57	7848
2026-01-10 11:06:59.41	282.01	34.95	-43.8	-49.9	8.4	4.27e-02	0	56	0	720371712	58	7598
2026-01-10 11:07:03.45	283.54	34.67	-44.1	-51.1	7.2	1.53e-01	0	56	0	727711744	59	8180
2026-01-10 11:07:07.48	285.04	34.37	-43.5	-49.0	9.2	4.73e-02	0	56	0	736100352	59	6423
2026-01-10 11:07:11.52	286.51	34.06	-42.3	-46.2	12.1	2.64e-04	0	56	0	743440384	56	5532
2026-01-10 11:07:15.56	287.96	33.72	-42.0	-45.6	12.6	7.62e-05	0	56	0	750780416	55	5514
2026-01-10 11:07:19.60	289.37	33.37	-42.9	-47.6	10.7	2.15e-03	0	56	0	758120448	56	6504
2026-01-10 11:07:23.63	290.76	33.01	-42.8	-47.3	11.1	6.45e-04	0	56	0	766509056	56	6287
2026-01-10 11:07:27.67	292.11	32.63	-41.7	-45.2	13.1	1.07e-04	0	56	0	773849088	55	5248
2026-01-10 11:07:31.70	293.43	32.24	-42.3	-46.2	12.0	4.54e-04	0	56	0	781189120	55	5892
2026-01-10 11:07:35.74	294.72	31.84	-41.7	-45.2	13.1	2.13e-05	0	57	0	788529152	54	5535
2026-01-10 11:07:39.78	295.98	31.43	-41.1	-44.0	14.2	1.29e-05	0	57	0	795869184	54	4870
2026-01-10 11:07:43.81	297.21	31.01	-41.4	-44.6	13.7	7.00e-07	0	56	0	804257792	53	5470
2026-01-10 11:07:47.85	298.40	30.58	-41.1	-44.0	14.2	2.20e-06	0	56	0	811597824	54	4868
2026-01-10 11:07:51.89	299.57	30.15	-41.8	-45.4	12.8	4.11e-05	0	56	0	818937856	54	5713
2026-01-10 11:07:55.93	300.70	29.71	-39.9	-42.3	16.0	0.00e+00	0	56	0	826277888	51	4718
2026-01-10 11:07:59.97	301.81	29.27	-41.2	-44.3	14.0	6.10e-06	0	56	0	834666496	53	5301
2026-01-10 11:08:04.01	302.88	28.82	-40.6	-43.4	14.8	0.00e+00	0	56	0	842006528	52	5081
2026-01-10 11:08:08.05	303.93	28.37	-40.8	-43.7	14.5	0.00e+00	0	57	0	849346560	53	4962
2026-01-10 11:08:12.09	304.95	27.91	-41.4	-44.7	13.5	3.80e-06	0	56	0	856686592	53	5564
2026-01-10 11:08:16.12	305.93	27.46	-40.3	-42.9	15.3	7.00e-07	0	56	0	864026624	52	4760
2026-01-10 11:08:20.16	306.90	27.00	-41.0	-44.1	14.1	0.00e+00	0	56	0	872415232	52	5489
2026-01-10 11:08:24.20	307.83	26.55	-40.9	-43.9	14.2	5.30e-06	0	56	0	879755264	53	5087
2026-01-10 11:08:28.23	308.74	26.09	-41.7	-45.2	12.9	1.83e-05	0	56	0	887095296	53	5916
2026-01-10 11:08:32.27	309.62	25.64	-40.8	-43.6	14.5	7.00e-07	0	57	0	894435328	53	4903
2026-01-10 11:08:36.31	310.48	25.18	-42.2	-46.3	11.8	2.37e-04	0	56	0	901775360	54	6315
2026-01-10 11:08:40.35	311.32	24.73	-41.1	-44.2	13.9	1.37e-05	0	56	0	910163968	54	4983
2026-01-10 11:08:44.39	312.13	24.28	-40.8	-43.7	14.4	0.00e+00	0	57	0	917504000	52	5264
2026-01-10 11:08:48.42	312.92	23.83	-41.2	-44.4	13.7	1.67e-05	0	56	0	924844032	53	5357
2026-01-10 11:08:52.46	313.69	23.38	-39.9	-42.3	15.9	0.00e+00	0	56	0	932184064	51	4727
2026-01-10 11:08:56.50	314.43	22.94	-40.6	-43.4	14.7	0.00e+00	0	56	0	940572672	52	5057
2026-01-10 11:09:00.54	315.16	22.49	-40.3	-42.9	15.2	0.00e+00	0	56	0	947912704	52	4769
2026-01-10 11:09:04.57	315.87	22.06	-40.3	-42.9	15.2	0.00e+00	0	56	0	955252736	51	5097
2026-01-10 11:09:08.61	316.55	21.62	-40.6	-43.4	14.7	0.00e+00	0	56	0	962592768	51	5350
2026-01-10 11:09:12.65	317.22	21.19	-40.2	-42.8	15.3	0.00e+00	0	56	0	969932800	51	5006
2026-01-10 11:09:16.69	317.87	20.76	-40.2	-42.7	15.4	0.00e+00	0	56	0	978321408	51	4967
2026-01-10 11:09:20.73	318.51	20.34	-40.4	-43.1	15.0	0.00e+00	0	57	0	985661440	51	5194
2026-01-10 11:09:24.77	319.12	19.92	-40.4	-43.1	15.0	0.00e+00	0	56	0	993001472	51	5197
2026-01-10 11:09:28.81	319.73	19.50	-40.1	-42.7	15.4	0.00e+00	0	56	0	1000341504	51	4937
2026-01-10 11:09:32.84	320.31	19.09	-40.3	-43.0	15.1	0.00e+00	0	56	0	1008730112	51	5121
2026-01-10 11:09:36.88	320.88	18.68	-40.1	-42.7	15.4	0.00e+00	0	56	0	1016070144	51	4964
2026-01-10 11:09:40.92	321.44	18.28	-40.2	-42.7	15.2	0.00e+00	0	56	0	1023410176	51	4973
2026-01-10 11:09:44.96	321.98	17.88	-40.4	-43.2	14.9	0.00e+00	0	57	0	1030750208	51	5224
2026-01-10 11:09:48.99	322.51	17.48	-41.2	-44.6	13.2	2.44e-05	0	57	0	1038090240	53	5513
2026-01-10 11:09:53.03	323.02	17.09	-41.8	-45.8	12.0	1.11e-04	0	56	0	1046478848	54	5965
2026-01-10 11:09:57.07	323.52	16.70	-41.6	-45.3	12.5	1.37e-04	0	56	0	1053818880	54	5655
2026-01-10 11:10:01.11	324.01	16.32	-41.0	-44.2	13.6	3.00e-06	0	56	0	1061158912	53	5234
2026-01-10 11:10:05.15	324.49	15.94	-40.9	-44.0	13.8	5.30e-06	0	56	0	1068498944	53	5118
2026-01-10 11:10:09.19	324.96	15.57	-41.3	-44.8	13.0	2.82e-05	0	57	0	1076887552	53	5606
2026-01-10 11:10:13.23	325.41	15.19	-41.3	-44.8	13.0	4.65e-05	0	56	0	1084227584	53	5603
2026-01-10 11:10:17.27	325.86	14.83	-40.8	-43.9	13.8	5.30e-06	0	57	0	1091567616	53	5097
2026-01-10 11:10:21.31	326.29	14.46	-40.7	-43.8	13.9	3.00e-06	0	57	0	1098907648	53	4996
2026-01-10 11:10:25.35	326.72	14.11	-40.9	-44.2	13.5	6.10e-06	0	57	0	1106247680	53	5234
2026-01-10 11:10:29.39	327.13	13.75	-41.0	-44.4	13.3	2.44e-05	0	57	0	1114636288	53	5386
2026-01-10 11:10:33.43	327.54	13.40	-40.8	-44.0	13.6	6.80e-06	0	56	0	1121976320	53	5139
2026-01-10 11:10:37.46	327.94	13.05	-40.6	-43.7	14.0	7.00e-07	0	57	0	1129316352	53	4928
2026-01-10 11:10:41.50	328.32	12.71	-40.7	-43.9	13.8	4.50e-06	0	57	0	1136656384	52	5368
2026-01-10 11:10:45.54	328.70	12.37	-41.0	-44.4	13.2	2.89e-05	0	57	0	1145044992	52	5714
2026-01-10 11:10:49.58	329.07	12.03	-41.3	-44.9	12.7	5.72e-05	0	57	0	1152385024	53	5701
2026-01-10 11:10:53.62	329.44	11.70	-41.2	-44.8	12.7	9.00e-05	0	57	0	1159725056	53	5656
2026-01-10 11:10:57.65	329.79	11.37	-41.1	-44.7	12.8	5.87e-05	0	57	0	1167065088	53	5551
2026-01-10 11:11:01.69	330.14	11.05	-40.9	-44.4	13.1	3.50e-05	0	57	0	1174405120	53	5369
2026-01-10 11:11:05.73	330.48	10.72	-41.1	-44.7	12.8	5.18e-05	0	56	0	1182793728	53	5562
2026-01-10 11:11:09.77	330.81	10.40	-41.0	-44.6	12.8	7.70e-05	0	56	0	1190133760	53	5523
2026-01-10 11:11:13.80	331.14	10.09	-40.9	-44.5	12.9	6.17e-05	0	57	0	1197473792	53	5439
2026-01-10 11:11:17.84	331.46	9.78	-40.7	-44.2	13.2	4.27e-05	0	57	0	1204813824	53	5237
2026-01-10 11:11:21.88	331.78	9.47	-40.7	-44.2	13.1	3.12e-05	0	57	0	1213202432	53	5258
2026-01-10 11:11:25.92	332.08	9.16	-40.6	-44.0	13.3	1.98e-05	0	57	0	1220542464	53	5124
2026-01-10 11:11:29.96	332.39	8.86	-40.6	-44.0	13.2	2.59e-05	0	57	0	1227882496	53	5153
2026-01-10 11:11:34.00	332.68	8.56	-40.7	-44.3	12.9	4.80e-05	0	56	0	1235222528	53	5305
2026-01-10 11:11:38.04	332.97	8.26	-40.9	-44.6	12.6	1.17e-04	0	57	0	1242562560	53	5479
2026-01-10 11:11:42.08	333.26	7.97	-44.2	-57.7	3.8	1.11e+00	0	56	104	1249902592	59	17664
2026-01-10 11:11:46.13	333.54	7.68	-45.0	-59.7	3.8	1.49e+00	0	57	104	1249902592	60	20984
2026-01-10 11:11:50.17	333.81	7.39	-45.2	-59.9	3.8	1.49e+00	0	57	104	1249902592	60	21489
2026-01-10 11:11:54.21	334.08	7.10	-45.1	-59.9	3.8	1.49e+00	0	57	104	1249902592	60	21302
2026-01-10 11:11:58.26	334.35	6.82	-45.0	-59.9	3.8	1.49e+00	0	57	104	1249902592	60	21283
2026-01-10 11:12:02.30	334.61	6.54	-45.0	-59.8	3.8	1.49e+00	0	57	104	1249902592	60	21181
2026-01-10 11:12:06.34	334.86	6.26	-45.0	-59.8	3.8	1.49e+00	0	57	104	1249902592	60	21112
2026-01-10 11:12:10.39	335.12	5.98	-45.0	-59.8	3.8	1.49e+00	0	57	104	1249902592	60	21063
2026-01-10 11:12:14.43	335.36	5.71	-45.0	-59.8	3.8	1.49e+00	0	57	104	1249902592	60	21081
2026-01-10 11:12:18.47	335.61	5.44	-45.0	-59.8	3.8	1.49e+00	0	57	104	1249902592	60	21195
2026-01-10 11:12:22.52	335.84	5.17	-44.9	-59.8	3.8	1.49e+00	0	57	104	1249902592	60	21104
2026-01-10 11:12:26.56	336.08	4.91	-45.0	-59.8	3.8	1.49e+00	0	57	104	1249902592	60	21086
2026-01-10 11:12:30.60	336.31	4.64	-45.0	-59.8	3.8	1.49e+00	0	56	104	1249902592	60	21064
2026-01-10 11:12:34.65	336.54	4.38	-45.0	-59.8	3.8	1.49e+00	0	57	104	1249902592	60	21071
2026-01-10 11:12:38.69	336.76	4.12	-45.0	-59.8	3.8	1.49e+00	0	57	104	1249902592	60	21039
2026-01-10 11:12:42.74	336.98	3.86	-44.9	-59.8	3.8	1.49e+00	0	57	104	1249902592	60	21111
2026-01-10 11:12:46.78	337.20	3.61	-45.0	-59.8	3.8	1.49e+00	0	57	104	1249902592	60	21033
2026-01-10 11:12:50.82	337.41	3.36	-45.0	-59.7	3.8	1.49e+00	0	57	104	1249902592	60	20973
2026-01-10 11:12:54.87	337.62	3.11	-45.0	-59.7	3.8	1.49e+00	0	57	104	1249902592	60	20996
2026-01-10 11:12:58.91	337.82	2.86	-45.0	-59.8	3.8	1.49e+00	0	57	104	1249902592	60	21024
2026-01-10 11:13:02.93	338.03	2.61	-45.0	-59.8	3.8	1.49e+00	0	57	104	1249902592	60	21022
2026-01-10 11:13:06.98	338.23	2.37	-45.0	-59.7	3.8	1.49e+00	0	57	104	1249902592	60	21013
2026-01-10 11:13:11.02	338.42	2.12	-45.0	-59.8	3.8	1.49e+00	0	57	104	1249902592	60	21027

#Closed at: 2026-01-10 11:13:13
#Recorded file [1249 MB]: D:/lorett/data/31039_260110_135922.dat