passes_logs/2026/01/10/R2.0S_Moscow/R2.0S_Moscow__20260110_115843_FENGYUN_3D_rec.log

#Pass ID: 20260110_115843_FENGYUN 3D
#Satellite: FENGYUN 3D
#Configuration: FENGYUN 3D
#almurnet v.1.7.20251203
#Start time: 2026-01-10 11:58:44

#Version: 2.2.20231116
#Station: R2.0S_Moscow
#Location: 37.707566 lon 55.798166 lat
#TLE: 1 43010U 17072A   26009.29492227  .00000158  00000+0  96483-4 0  9996
#TLE: 2 43010  98.9936 341.0229 0002153 117.3665 242.7729 14.19694440422446

#Time	Az	El	Level	Level2	SNR	BER	BlckErr	Temp	State	Recorded	gain1	gain2
2026-01-10 11:58:44.04	161.10	2.04	-44.0	-55.5	3.8	8.46e-01	0	47	0	0	59	13681
2026-01-10 11:58:48.08	161.12	2.30	-43.9	-55.4	3.8	8.46e-01	0	48	104	0	59	13564
2026-01-10 11:58:52.12	161.14	2.57	-43.9	-55.5	3.8	8.46e-01	0	48	104	0	59	13592
2026-01-10 11:58:56.17	161.15	2.83	-43.9	-55.5	3.8	8.46e-01	0	48	104	0	59	13621
2026-01-10 11:59:00.21	161.17	3.10	-43.9	-55.5	3.8	8.46e-01	0	49	104	0	59	13624
2026-01-10 11:59:04.26	161.18	3.38	-43.9	-55.5	3.8	8.46e-01	0	49	104	0	59	13580
2026-01-10 11:59:08.30	161.20	3.65	-43.9	-55.5	3.8	8.46e-01	0	49	104	0	59	13578
2026-01-10 11:59:12.34	161.22	3.93	-43.9	-55.5	3.8	8.46e-01	0	49	104	0	59	13629
2026-01-10 11:59:16.38	161.23	4.21	-43.9	-55.4	3.8	8.45e-01	0	50	104	0	59	13545
2026-01-10 11:59:20.43	161.25	4.49	-43.9	-55.4	3.8	8.46e-01	0	50	104	0	59	13499
2026-01-10 11:59:24.47	161.26	4.78	-43.9	-55.3	3.8	8.46e-01	0	50	104	0	59	13386
2026-01-10 11:59:28.51	161.28	5.07	-43.8	-54.8	3.8	8.46e-01	0	51	104	0	59	12601
2026-01-10 11:59:32.56	161.30	5.36	-43.8	-54.8	3.8	8.46e-01	0	51	104	0	59	12656
2026-01-10 11:59:36.60	161.32	5.66	-43.9	-55.3	3.8	8.45e-01	0	51	104	0	58	14188
2026-01-10 11:59:40.65	161.33	5.96	-43.9	-55.4	3.8	8.46e-01	0	51	104	0	58	14353
2026-01-10 11:59:44.69	161.35	6.26	-43.9	-55.3	3.8	8.45e-01	0	51	104	0	58	14158
2026-01-10 11:59:48.73	161.37	6.56	-43.6	-53.3	3.8	8.47e-01	0	51	104	0	58	11191
2026-01-10 11:59:52.78	161.38	6.87	-42.9	-49.6	5.1	7.74e-01	0	52	0	0	57	7805
2026-01-10 11:59:56.82	161.40	7.19	-41.3	-45.4	8.5	8.56e-02	0	52	0	17825792	54	5722
2026-01-10 12:00:00.86	161.42	7.51	-39.9	-42.9	11.2	2.41e-03	0	52	0	40894464	51	5065
2026-01-10 12:00:04.91	161.44	7.83	-39.2	-41.8	12.3	2.35e-04	0	52	0	62914560	50	4730
2026-01-10 12:00:08.95	161.46	8.15	-38.6	-40.9	13.4	1.02e-05	0	52	0	85983232	48	4761
2026-01-10 12:00:12.99	161.47	8.48	-43.0	-50.3	4.6	1.77e-01	0	52	0	105906176	56	8913
2026-01-10 12:00:17.02	161.49	8.82	-38.0	-40.1	14.1	1.10e-06	0	53	0	126877696	47	4607
2026-01-10 12:00:21.06	161.51	9.16	-37.7	-39.7	14.5	3.40e-06	0	53	0	149946368	47	4436
2026-01-10 12:00:25.10	161.53	9.50	-37.7	-39.7	14.5	0.00e+00	0	53	0	173015040	47	4435
2026-01-10 12:00:29.14	161.55	9.85	-37.8	-39.8	14.6	0.00e+00	0	53	0	195035136	47	4447
2026-01-10 12:00:33.18	161.57	10.20	-37.8	-39.7	14.7	0.00e+00	0	53	0	218103808	47	4427
2026-01-10 12:00:37.22	161.59	10.56	-37.5	-39.4	15.0	0.00e+00	0	53	0	241172480	47	4274
2026-01-10 12:00:41.26	161.61	10.92	-37.5	-39.4	15.1	0.00e+00	0	53	0	263192576	46	4520
2026-01-10 12:00:45.30	161.63	11.29	-37.5	-39.4	15.1	0.00e+00	0	53	0	286261248	46	4535
2026-01-10 12:00:49.34	161.65	11.67	-37.5	-39.4	15.2	0.00e+00	0	54	0	309329920	46	4518
2026-01-10 12:00:53.38	161.67	12.05	-37.4	-39.2	15.4	0.00e+00	0	54	0	331350016	46	4420
2026-01-10 12:00:57.41	161.69	12.44	-37.3	-39.1	15.5	1.10e-06	0	54	0	354418688	46	4365
2026-01-10 12:01:01.45	161.71	12.83	-37.2	-39.0	15.7	0.00e+00	0	54	0	377487360	46	4294
2026-01-10 12:01:05.49	161.73	13.23	-37.0	-38.8	15.9	0.00e+00	0	54	0	399507456	46	4201
2026-01-10 12:01:09.53	161.75	13.64	-37.0	-38.7	16.0	0.00e+00	0	54	0	422576128	45	4426
2026-01-10 12:01:13.57	161.78	14.05	-36.8	-38.5	16.2	0.00e+00	0	54	0	445644800	45	4331
2026-01-10 12:01:17.60	161.80	14.47	-36.7	-38.4	16.3	0.00e+00	0	54	0	467664896	45	4282
2026-01-10 12:01:21.64	161.82	14.90	-36.7	-38.3	16.4	0.00e+00	0	54	0	490733568	45	4236
2026-01-10 12:01:25.68	161.84	15.33	-36.6	-38.3	16.5	0.00e+00	0	54	0	513802240	45	4203
2026-01-10 12:01:29.72	161.87	15.78	-36.5	-38.2	16.6	0.00e+00	0	54	0	535822336	45	4148
2026-01-10 12:01:33.76	161.89	16.23	-36.4	-38.0	16.8	0.00e+00	0	54	0	558891008	44	4312
2026-01-10 12:01:37.80	161.91	16.69	-36.2	-37.8	17.0	0.00e+00	0	54	0	581959680	44	4220
2026-01-10 12:01:41.83	161.94	17.16	-36.2	-37.8	17.0	0.00e+00	0	55	0	603979776	44	4196
2026-01-10 12:01:45.87	161.96	17.64	-35.8	-37.3	17.3	0.00e+00	0	55	0	627048448	43	4236
2026-01-10 12:01:49.91	161.99	18.12	-35.6	-37.1	17.6	0.00e+00	0	55	0	650117120	43	4126
2026-01-10 12:01:53.95	162.01	18.62	-35.5	-37.0	17.7	0.00e+00	0	55	0	672137216	43	4065
2026-01-10 12:01:57.99	162.04	19.13	-35.3	-36.8	17.9	0.00e+00	0	55	0	695205888	42	4216
2026-01-10 12:02:02.03	162.06	19.65	-35.2	-36.6	18.1	0.00e+00	0	55	0	718274560	42	4118
2026-01-10 12:02:06.06	162.09	20.18	-35.2	-36.6	18.1	0.00e+00	0	55	0	740294656	42	4119
2026-01-10 12:02:10.10	162.12	20.72	-35.2	-36.6	18.1	0.00e+00	0	55	0	763363328	42	4125
2026-01-10 12:02:14.14	162.15	21.27	-35.1	-36.5	18.2	0.00e+00	0	55	0	786432000	42	4067
2026-01-10 12:02:18.19	162.17	21.84	-35.1	-36.6	18.2	0.00e+00	0	55	0	808452096	42	4109
2026-01-10 12:02:22.23	162.20	22.42	-35.2	-36.7	18.1	0.00e+00	0	55	0	831520768	42	4153
2026-01-10 12:02:26.27	162.23	23.01	-35.1	-36.6	18.1	0.00e+00	0	55	0	854589440	42	4103
2026-01-10 12:02:30.31	162.26	23.62	-35.1	-36.5	18.2	0.00e+00	0	55	0	876609536	42	4079
2026-01-10 12:02:34.35	162.29	24.24	-35.0	-36.4	18.3	0.00e+00	0	55	0	899678208	42	4042
2026-01-10 12:02:38.39	162.33	24.87	-34.7	-36.1	18.6	0.00e+00	0	55	0	922746880	41	4105
2026-01-10 12:02:42.43	162.36	25.52	-34.7	-36.0	18.7	0.00e+00	0	55	0	944766976	41	4096
2026-01-10 12:02:46.46	162.39	26.19	-34.6	-36.0	18.7	0.00e+00	0	55	0	967835648	41	4068
2026-01-10 12:02:50.51	162.43	26.88	-34.6	-35.9	18.8	0.00e+00	0	55	0	990904320	41	4029
2026-01-10 12:02:54.55	162.46	27.58	-34.6	-36.0	18.8	0.00e+00	0	55	0	1012924416	41	4057
2026-01-10 12:02:58.59	162.50	28.30	-34.7	-36.0	18.7	0.00e+00	0	55	0	1035993088	41	4086
2026-01-10 12:03:02.62	162.54	29.04	-34.6	-35.9	18.8	0.00e+00	0	55	0	1059061760	41	4037
2026-01-10 12:03:06.66	162.58	29.80	-34.5	-35.8	18.9	0.00e+00	0	55	0	1081081856	40	4222
2026-01-10 12:03:10.70	162.62	30.58	-34.4	-35.7	19.0	0.00e+00	0	56	0	1104150528	40	4189
2026-01-10 12:03:14.74	162.66	31.38	-34.2	-35.6	19.2	0.00e+00	0	55	0	1127219200	40	4100
2026-01-10 12:03:18.78	162.70	32.21	-34.1	-35.4	19.3	0.00e+00	0	55	0	1150287872	40	4019
2026-01-10 12:03:22.82	162.75	33.06	-34.4	-35.7	19.0	0.00e+00	0	56	0	1172307968	40	4193
2026-01-10 12:03:26.85	162.79	33.93	-34.2	-35.5	19.2	0.00e+00	0	56	0	1195376640	40	4076
2026-01-10 12:03:30.89	162.84	34.83	-34.2	-35.5	19.3	0.00e+00	0	56	0	1217396736	40	4065
2026-01-10 12:03:34.93	162.89	35.75	-34.2	-35.6	19.2	0.00e+00	0	56	0	1240465408	40	4106
2026-01-10 12:03:38.97	162.95	36.71	-33.8	-35.0	19.8	0.00e+00	0	56	0	1263534080	39	4085
2026-01-10 12:03:43.01	163.00	37.69	-33.9	-35.1	19.7	0.00e+00	0	56	0	1285554176	39	4142
2026-01-10 12:03:47.05	163.06	38.70	-34.1	-35.5	19.4	0.00e+00	0	56	0	1308622848	39	4292
2026-01-10 12:03:51.09	163.12	39.74	-34.3	-35.5	19.3	0.00e+00	0	56	0	1331691520	39	4334
2026-01-10 12:03:55.13	163.18	40.81	-34.6	-35.9	19.0	0.00e+00	0	56	0	1354760192	39	4535
2026-01-10 12:03:59.17	163.25	41.92	-34.7	-36.0	18.8	0.00e+00	0	56	0	1376780288	40	4328
2026-01-10 12:04:03.20	163.32	43.06	-34.6	-35.9	18.9	0.00e+00	0	56	0	1399848960	40	4272
2026-01-10 12:04:07.24	163.40	44.24	-34.2	-35.5	19.4	0.00e+00	0	56	0	1421869056	40	4057
2026-01-10 12:04:11.28	163.48	45.45	-34.4	-35.7	19.3	0.00e+00	0	56	0	1444937728	40	4149
2026-01-10 12:04:15.32	163.56	46.70	-34.5	-35.9	19.1	0.00e+00	0	56	0	1468006400	40	4248
2026-01-10 12:04:19.36	163.66	47.99	-34.0	-35.2	19.8	0.00e+00	0	56	0	1490026496	40	3942
2026-01-10 12:04:23.40	163.76	49.32	-34.3	-35.5	19.5	0.00e+00	0	56	0	1513095168	40	4087
2026-01-10 12:04:27.43	163.86	50.68	-34.8	-36.1	18.9	0.00e+00	0	56	0	1536163840	40	4364
2026-01-10 12:04:31.47	163.98	52.10	-35.9	-37.4	17.6	0.00e+00	0	56	0	1558183936	42	4540
2026-01-10 12:04:35.51	164.11	53.55	-35.5	-36.9	18.1	0.00e+00	0	56	0	1581252608	42	4283
2026-01-10 12:04:39.56	164.25	55.05	-35.6	-37.1	18.0	0.00e+00	0	56	0	1604321280	42	4356
2026-01-10 12:04:43.59	164.40	56.58	-35.2	-36.6	18.5	0.00e+00	0	56	0	1626341376	42	4101
2026-01-10 12:04:47.63	164.57	58.17	-35.0	-36.4	18.6	0.00e+00	0	56	0	1649410048	41	4270
2026-01-10 12:04:51.67	164.76	59.79	-34.3	-35.6	19.4	0.00e+00	0	56	0	1672478720	40	4110
2026-01-10 12:04:55.71	164.97	61.46	-34.3	-35.6	19.4	0.00e+00	0	56	0	1694498816	40	4107
2026-01-10 12:04:59.76	165.22	63.18	-34.1	-35.4	19.6	0.00e+00	0	56	0	1717567488	40	4012
2026-01-10 12:05:03.80	165.50	64.93	-33.7	-35.0	20.0	0.00e+00	0	56	0	1740636160	39	4064
2026-01-10 12:05:07.83	165.82	66.72	-33.7	-34.9	20.0	0.00e+00	0	56	0	1763704832	38	4266
2026-01-10 12:05:11.87	166.20	68.55	-33.3	-34.4	20.4	0.00e+00	0	56	0	1785724928	38	4050
2026-01-10 12:05:15.90	166.66	70.42	-33.1	-34.3	20.5	0.00e+00	0	56	0	1808793600	38	3991
2026-01-10 12:05:19.94	167.22	72.32	-32.9	-34.1	20.6	0.00e+00	0	56	0	1830813696	37	4126
2026-01-10 12:05:23.98	167.92	74.26	-32.8	-34.0	20.6	0.00e+00	0	56	0	1853882368	37	4074
2026-01-10 12:05:28.02	168.82	76.22	-32.4	-33.5	21.1	0.00e+00	0	56	0	1876951040	36	4084
2026-01-10 12:05:32.05	170.03	78.20	-31.2	-32.3	21.4	0.00e+00	0	56	0	1898971136	34	3985
2026-01-10 12:05:36.09	171.75	80.20	-30.8	-31.9	21.6	0.00e+00	0	56	0	1922039808	33	4044
2026-01-10 12:05:40.13	174.36	82.21	-30.6	-31.6	22.0	0.00e+00	0	56	0	1945108480	33	3907
2026-01-10 12:05:44.17	178.79	84.21	-30.7	-31.8	21.8	0.00e+00	0	56	0	1967128576	33	3967
2026-01-10 12:05:48.21	187.81	86.15	-31.2	-32.4	21.3	0.00e+00	0	56	0	1990197248	33	4244
2026-01-10 12:05:52.24	212.43	87.83	-31.4	-32.6	21.0	0.00e+00	0	56	0	2013265920	33	4375
2026-01-10 12:05:56.28	274.72	88.18	-31.4	-32.5	21.1	0.00e+00	0	56	0	2035286016	33	4333
2026-01-10 12:06:00.32	311.04	86.75	-31.4	-32.6	21.2	0.00e+00	0	56	0	2058354688	33	4359
2026-01-10 12:06:04.36	323.10	84.86	-30.9	-32.0	21.6	0.00e+00	0	56	0	2081423360	33	4076
2026-01-10 12:06:08.40	328.55	82.87	-30.9	-32.0	21.6	0.00e+00	0	56	0	2103443456	32	4325
2026-01-10 12:06:12.44	331.61	80.86	-30.8	-32.0	21.7	0.00e+00	0	56	0	2126512128	32	4303
2026-01-10 12:06:16.48	333.56	78.86	-31.3	-32.5	21.3	0.00e+00	0	56	0	2149580800	33	4294
2026-01-10 12:06:20.52	334.91	76.87	-31.6	-32.7	21.0	0.00e+00	0	56	0	2171600896	33	4431
2026-01-10 12:06:24.56	335.90	74.90	-32.0	-33.2	20.7	0.00e+00	0	56	0	2194669568	34	4422
2026-01-10 12:06:28.60	336.66	72.96	-32.2	-33.4	20.6	0.00e+00	0	56	0	2217738240	35	4263
2026-01-10 12:06:32.64	337.26	71.05	-32.4	-33.6	20.5	0.00e+00	0	56	0	2239758336	35	4341
2026-01-10 12:06:36.68	337.75	69.17	-32.5	-33.8	20.3	0.00e+00	0	56	0	2262827008	35	4448
2026-01-10 12:06:40.72	338.15	67.33	-33.3	-34.5	20.3	0.00e+00	0	56	0	2285895680	37	4335
2026-01-10 12:06:44.76	338.49	65.53	-33.5	-34.8	20.1	0.00e+00	0	56	0	2307915776	37	4445
2026-01-10 12:06:48.80	338.79	63.77	-33.6	-34.8	20.2	0.00e+00	0	56	0	2330984448	37	4447
2026-01-10 12:06:52.84	339.04	62.04	-33.5	-34.7	20.3	0.00e+00	0	56	0	2354053120	37	4431
2026-01-10 12:06:56.87	339.26	60.37	-34.0	-35.2	19.8	0.00e+00	0	56	0	2376073216	38	4424
2026-01-10 12:07:00.91	339.46	58.74	-34.4	-35.7	19.3	0.00e+00	0	56	0	2399141888	39	4422
2026-01-10 12:07:04.96	339.64	57.14	-34.9	-36.3	18.7	0.00e+00	0	56	0	2422210560	40	4453
2026-01-10 12:07:08.99	339.80	55.60	-35.1	-36.5	18.5	0.00e+00	0	56	0	2444230656	40	4584
2026-01-10 12:07:13.03	339.94	54.09	-35.2	-36.6	18.4	0.00e+00	0	56	0	2467299328	41	4368
2026-01-10 12:07:17.07	340.07	52.63	-35.0	-36.2	19.1	0.00e+00	0	56	0	2490368000	41	4182
2026-01-10 12:07:21.11	340.19	51.21	-34.6	-35.8	19.5	0.00e+00	0	56	0	2512388096	41	3994
2026-01-10 12:07:25.15	340.30	49.83	-34.3	-35.5	19.9	0.00e+00	0	56	0	2535456768	40	4058
2026-01-10 12:07:29.18	340.41	48.49	-34.4	-35.6	19.8	0.00e+00	0	56	0	2558525440	40	4101
2026-01-10 12:07:33.21	340.50	47.20	-33.7	-34.8	20.5	0.00e+00	0	56	0	2580545536	39	3997
2026-01-10 12:07:37.25	340.59	45.94	-34.0	-35.1	20.2	0.00e+00	0	56	0	2603614208	39	4129
2026-01-10 12:07:41.29	340.68	44.72	-34.2	-35.4	20.0	0.00e+00	0	56	0	2626682880	39	4262
2026-01-10 12:07:45.33	340.75	43.53	-34.0	-35.1	20.2	0.00e+00	0	56	0	2648702976	39	4128
2026-01-10 12:07:49.37	340.83	42.39	-34.1	-35.2	20.1	0.00e+00	0	57	0	2671771648	39	4193
2026-01-10 12:07:53.42	340.90	41.27	-33.9	-35.0	20.3	0.00e+00	0	56	0	2694840320	39	4087
2026-01-10 12:07:57.45	340.97	40.19	-33.8	-34.9	20.4	0.00e+00	0	56	0	2716860416	39	4025
2026-01-10 12:08:01.49	341.03	39.14	-33.9	-35.0	20.3	0.00e+00	0	56	0	2739929088	39	4080
2026-01-10 12:08:05.53	341.09	38.12	-33.7	-34.8	20.5	0.00e+00	0	56	0	2762997760	39	3965
2026-01-10 12:08:09.58	341.15	37.13	-33.6	-34.6	20.6	0.00e+00	0	56	0	2786066432	39	3908
2026-01-10 12:08:13.61	341.20	36.18	-33.6	-34.7	20.5	0.00e+00	0	56	0	2808086528	39	3944
2026-01-10 12:08:17.65	341.26	35.25	-33.6	-34.7	20.5	0.00e+00	0	56	0	2831155200	39	3940
2026-01-10 12:08:21.69	341.31	34.34	-33.8	-34.9	20.3	0.00e+00	0	56	0	2853175296	39	4025
2026-01-10 12:08:25.73	341.36	33.46	-34.0	-35.1	20.1	0.00e+00	0	57	0	2876243968	39	4144
2026-01-10 12:08:29.77	341.40	32.61	-34.1	-35.2	20.0	0.00e+00	0	56	0	2899312640	39	4175
2026-01-10 12:08:33.81	341.45	31.78	-34.2	-35.3	19.9	0.00e+00	0	56	0	2921332736	39	4240
2026-01-10 12:08:37.84	341.49	30.97	-34.3	-35.4	19.7	0.00e+00	0	56	0	2944401408	39	4284
2026-01-10 12:08:41.88	341.54	30.19	-34.4	-35.6	19.6	0.00e+00	0	56	0	2967470080	39	4367
2026-01-10 12:08:45.93	341.58	29.42	-34.4	-35.6	19.6	0.00e+00	0	56	0	2989490176	39	4362
2026-01-10 12:08:49.97	341.62	28.67	-34.3	-35.5	19.6	0.00e+00	0	56	0	3012558848	39	4319
2026-01-10 12:08:54.00	341.66	27.95	-34.2	-35.3	19.7	0.00e+00	0	56	0	3035627520	39	4230
2026-01-10 12:08:58.05	341.69	27.24	-34.1	-35.2	19.8	0.00e+00	0	57	0	3057647616	39	4166
2026-01-10 12:09:02.09	341.73	26.55	-34.2	-35.4	19.6	0.00e+00	0	57	0	3080716288	39	4255
2026-01-10 12:09:06.13	341.77	25.88	-34.4	-35.6	19.4	0.00e+00	0	56	0	3103784960	39	4386
2026-01-10 12:09:10.17	341.80	25.23	-34.5	-35.8	19.2	0.00e+00	0	56	0	3126853632	39	4465
2026-01-10 12:09:14.21	341.84	24.59	-34.5	-35.8	19.1	0.00e+00	0	56	0	3148873728	39	4455
2026-01-10 12:09:18.25	341.87	23.97	-34.5	-35.7	19.1	0.00e+00	0	56	0	3171942400	39	4402
2026-01-10 12:09:22.29	341.91	23.36	-34.5	-35.7	19.0	0.00e+00	0	56	0	3193962496	39	4438
2026-01-10 12:09:26.33	341.94	22.76	-34.6	-35.9	18.5	0.00e+00	0	56	0	3217031168	39	4510
2026-01-10 12:09:30.37	341.97	22.18	-34.0	-35.3	18.6	0.00e+00	0	56	0	3240099840	40	3976
2026-01-10 12:09:34.41	342.00	21.61	-34.7	-36.2	17.4	0.00e+00	0	56	0	3262119936	40	4395
2026-01-10 12:09:38.45	342.03	21.06	-37.3	-39.6	13.5	5.70e-06	0	57	0	3285188608	45	4886
2026-01-10 12:09:42.49	342.06	20.51	-39.6	-44.1	7.9	6.04e-02	0	57	0	3308257280	49	6533
2026-01-10 12:09:46.53	342.09	19.98	-40.7	-49.3	4.2	8.34e-01	0	57	0	3319791616	51	10614
2026-01-10 12:09:50.57	342.12	19.46	-40.5	-51.9	3.8	8.45e-01	0	56	104	3319791616	52	13496
2026-01-10 12:09:54.61	342.15	18.95	-40.3	-52.2	3.8	8.46e-01	0	57	104	3319791616	52	13921
2026-01-10 12:09:58.64	342.18	18.45	-40.3	-52.4	3.8	8.47e-01	0	57	104	3319791616	52	14246
2026-01-10 12:10:02.68	342.21	17.96	-40.3	-52.3	3.8	8.47e-01	0	57	104	3319791616	52	14193
2026-01-10 12:10:06.72	342.24	17.48	-40.3	-52.2	3.8	8.46e-01	0	57	104	3319791616	52	13924
2026-01-10 12:10:10.76	342.26	17.01	-40.5	-52.2	3.8	8.45e-01	0	57	104	3319791616	52	13998
2026-01-10 12:10:14.79	342.29	16.55	-40.2	-52.1	3.8	8.45e-01	0	57	104	3319791616	52	13764
2026-01-10 12:10:18.83	342.32	16.09	-40.7	-52.3	3.8	8.46e-01	0	57	104	3319791616	52	14196
2026-01-10 12:10:22.87	342.34	15.65	-40.5	-52.1	3.8	8.46e-01	0	57	104	3319791616	52	13758
2026-01-10 12:10:26.91	342.37	15.21	-40.6	-52.2	3.8	8.47e-01	0	57	104	3319791616	52	13978
2026-01-10 12:10:30.95	342.40	14.78	-40.4	-52.0	3.8	8.46e-01	0	57	104	3319791616	52	13650
2026-01-10 12:10:34.98	342.42	14.36	-40.6	-52.3	3.8	8.46e-01	0	57	104	3319791616	52	14098
2026-01-10 12:10:39.02	342.45	13.95	-40.3	-52.1	3.8	8.46e-01	0	57	104	3319791616	52	13789
2026-01-10 12:10:43.06	342.47	13.54	-40.5	-52.2	3.8	8.47e-01	0	57	104	3319791616	52	13925
2026-01-10 12:10:47.09	342.50	13.14	-40.1	-52.1	3.8	8.46e-01	0	57	104	3319791616	52	13744
2026-01-10 12:10:51.13	342.52	12.74	-40.3	-52.1	3.8	8.46e-01	0	57	104	3319791616	52	13803
2026-01-10 12:10:55.18	342.55	12.36	-40.1	-52.0	3.8	8.46e-01	0	57	104	3319791616	52	13616
2026-01-10 12:10:59.21	342.57	11.97	-40.5	-52.2	3.8	8.47e-01	0	57	104	3319791616	52	13922
2026-01-10 12:11:03.25	342.59	11.60	-40.3	-52.0	3.8	8.47e-01	0	57	104	3319791616	52	13623
2026-01-10 12:11:07.29	342.62	11.23	-40.4	-52.0	3.8	8.47e-01	0	57	104	3319791616	52	13657
2026-01-10 12:11:11.33	342.64	10.86	-40.4	-52.0	3.8	8.46e-01	0	57	104	3319791616	52	13632
2026-01-10 12:11:15.37	342.67	10.50	-40.3	-51.9	3.8	8.46e-01	0	57	104	3319791616	52	13426
2026-01-10 12:11:19.41	342.69	10.15	-40.2	-51.8	3.8	8.46e-01	0	57	104	3319791616	52	13341
2026-01-10 12:11:23.44	342.71	9.80	-40.4	-52.0	3.8	8.46e-01	0	57	104	3319791616	52	13606
2026-01-10 12:11:27.48	342.74	9.46	-40.4	-52.0	3.8	8.47e-01	0	57	104	3319791616	52	13581
2026-01-10 12:11:31.52	342.76	9.12	-40.4	-52.0	3.8	8.45e-01	0	57	104	3319791616	52	13713
2026-01-10 12:11:35.56	342.78	8.78	-40.4	-52.0	3.8	8.46e-01	0	57	104	3319791616	52	13688
2026-01-10 12:11:39.59	342.80	8.45	-40.4	-52.0	3.8	8.46e-01	0	57	104	3319791616	52	13657
2026-01-10 12:11:43.63	342.83	8.12	-40.3	-51.9	3.8	8.46e-01	0	57	104	3319791616	52	13560
2026-01-10 12:11:47.68	342.85	7.80	-43.9	-55.6	3.8	8.47e-01	0	57	104	3319791616	58	14593
2026-01-10 12:11:51.72	342.87	7.48	-45.1	-56.9	3.8	8.46e-01	0	57	104	3319791616	60	15144
2026-01-10 12:11:55.77	342.89	7.17	-45.1	-57.0	3.8	8.45e-01	0	57	104	3319791616	60	15274
2026-01-10 12:11:59.81	342.92	6.86	-45.0	-56.9	3.8	8.46e-01	0	57	104	3319791616	60	15053
2026-01-10 12:12:03.86	342.94	6.55	-45.0	-56.8	3.8	8.47e-01	0	57	104	3319791616	60	15018
2026-01-10 12:12:07.90	342.96	6.25	-45.0	-56.8	3.8	8.46e-01	0	57	104	3319791616	60	14969
2026-01-10 12:12:11.95	342.98	5.95	-45.0	-56.8	3.8	8.46e-01	0	57	104	3319791616	60	15012
2026-01-10 12:12:15.99	343.00	5.65	-44.9	-56.8	3.8	8.45e-01	0	57	104	3319791616	60	14959
2026-01-10 12:12:20.03	343.03	5.36	-44.9	-56.8	3.8	8.46e-01	0	57	104	3319791616	60	14951
2026-01-10 12:12:24.08	343.05	5.07	-44.7	-56.8	3.8	8.46e-01	0	57	104	3319791616	60	14953
2026-01-10 12:12:28.12	343.07	4.78	-44.9	-56.8	3.8	8.46e-01	0	57	104	3319791616	60	14959
2026-01-10 12:12:32.17	343.09	4.50	-44.9	-56.8	3.8	8.47e-01	0	57	104	3319791616	60	14980
2026-01-10 12:12:36.21	343.11	4.22	-44.7	-56.8	3.8	8.46e-01	0	57	104	3319791616	60	14968
2026-01-10 12:12:40.25	343.13	3.94	-44.9	-56.8	3.8	8.47e-01	0	57	104	3319791616	60	14899
2026-01-10 12:12:44.30	343.16	3.66	-44.9	-56.8	3.8	8.46e-01	0	57	104	3319791616	60	14888
2026-01-10 12:12:48.34	343.18	3.39	-44.9	-56.8	3.8	8.45e-01	0	57	104	3319791616	60	14932
2026-01-10 12:12:52.39	343.20	3.12	-44.9	-56.8	3.8	8.46e-01	0	57	104	3319791616	60	14936
2026-01-10 12:12:56.43	343.22	2.86	-44.9	-56.8	3.8	8.47e-01	0	57	104	3319791616	60	14956
2026-01-10 12:13:00.46	343.24	2.59	-44.9	-56.8	3.8	8.46e-01	0	57	104	3319791616	60	14945
2026-01-10 12:13:04.51	343.26	2.33	-44.9	-56.8	3.8	8.47e-01	0	57	104	3319791616	60	14900
2026-01-10 12:13:08.55	343.28	2.07	-44.9	-56.8	3.8	8.47e-01	0	57	104	3319791616	60	14894

#Closed at: 2026-01-10 12:13:10
#Recorded file [3319 MB]: D:/lorett/data/31039_260110_145843.dat