passes_logs/2026/01/10/R2.0S_Moscow/R2.0S_Moscow__20260110_010828_SUOMI_NPP_rec.log

#Pass ID: 20260110_010828_SUOMI NPP
#Satellite: SUOMI NPP
#Configuration: NPP
#almurnet v.1.7.20251203
#Start time: 2026-01-10 01:12:22

#Version: 2.2.20231116
#Station: R2.0S_Moscow
#Location: 37.707566 lon 55.798166 lat
#TLE: 1 37849U 11061A   26008.83076692  .00000095  00000+0  66074-4 0  9997
#TLE: 2 37849  98.7806 310.9327 0002533  74.3004 285.8451 14.19523607735834

#Time	Az	El	Level	Level2	SNR	BER	BlckErr	Temp	State	Recorded	gain1	gain2
2026-01-10 01:12:22.99	347.28	18.98	-44.9	-63.4	3.8	8.47e-01	0	55	0	0	60	31830
2026-01-10 01:12:26.02	346.73	19.24	-45.0	-59.7	3.8	1.49e+00	0	55	104	0	61	19799
2026-01-10 01:12:29.05	346.18	19.49	-44.8	-59.6	3.8	1.49e+00	0	55	104	0	61	19452
2026-01-10 01:12:32.08	345.61	19.75	-44.6	-59.3	3.8	1.49e+00	0	56	104	0	61	18911
2026-01-10 01:12:35.10	345.04	20.00	-44.6	-59.3	3.8	1.49e+00	0	55	104	0	61	18885
2026-01-10 01:12:38.13	344.45	20.25	-44.6	-59.3	3.8	1.49e+00	0	56	104	0	61	18776
2026-01-10 01:12:41.16	343.86	20.51	-44.6	-59.3	3.8	1.49e+00	0	55	104	0	61	18801
2026-01-10 01:12:44.19	343.25	20.76	-44.6	-59.3	3.8	1.49e+00	0	56	104	0	61	18845
2026-01-10 01:12:47.21	342.64	21.01	-44.5	-59.2	3.8	1.49e+00	0	56	104	0	61	18698
2026-01-10 01:12:50.24	342.02	21.26	-44.5	-59.3	3.8	1.49e+00	0	56	104	0	61	18787
2026-01-10 01:12:53.27	341.38	21.51	-44.5	-59.2	3.8	1.49e+00	0	56	104	0	61	18721
2026-01-10 01:12:56.31	340.73	21.76	-44.5	-59.1	3.8	1.49e+00	0	56	104	0	61	18316
2026-01-10 01:12:59.34	340.08	22.00	-44.5	-59.2	3.8	1.49e+00	0	56	104	0	61	18608
2026-01-10 01:13:02.37	339.41	22.25	-44.5	-58.8	3.8	1.49e+00	0	56	104	0	61	17805
2026-01-10 01:13:05.40	338.73	22.49	-44.5	-57.7	3.8	1.49e+00	0	56	104	0	60	16680
2026-01-10 01:13:08.43	338.04	22.73	-43.9	-51.9	6.1	3.67e-01	0	56	0	3145728	59	9042
2026-01-10 01:13:11.46	337.35	22.97	-44.6	-58.0	3.8	1.45e+00	0	56	104	7340032	59	18258
2026-01-10 01:13:14.50	336.63	23.20	-42.3	-46.9	11.0	1.34e-02	0	56	0	10485760	56	6022
2026-01-10 01:13:17.53	335.91	23.44	-40.7	-44.0	13.8	3.80e-06	0	56	0	15728640	52	5445
2026-01-10 01:13:20.56	335.18	23.67	-42.4	-47.3	10.5	5.03e-04	0	56	0	22020096	55	6709
2026-01-10 01:13:23.59	334.44	23.89	-40.2	-43.1	14.7	2.20e-06	0	56	0	27262976	52	4878
2026-01-10 01:13:26.62	333.68	24.12	-40.4	-43.3	14.5	7.00e-07	0	56	0	33554432	52	5024
2026-01-10 01:13:29.64	332.92	24.33	-40.8	-44.1	13.7	1.06e-05	0	56	0	38797312	52	5484
2026-01-10 01:13:32.67	332.15	24.55	-40.3	-43.2	14.6	2.20e-06	0	56	0	45088768	52	4982
2026-01-10 01:13:35.69	331.36	24.76	-40.1	-42.8	15.1	0.00e+00	0	56	0	50331648	51	5014
2026-01-10 01:13:38.71	330.57	24.97	-40.1	-42.8	15.1	0.00e+00	0	56	0	55574528	51	5025
2026-01-10 01:13:41.74	329.76	25.17	-40.1	-42.8	15.1	0.00e+00	0	56	0	61865984	51	5006
2026-01-10 01:13:44.76	328.95	25.37	-40.1	-42.7	15.2	0.00e+00	0	56	0	67108864	51	4973
2026-01-10 01:13:47.78	328.12	25.56	-40.5	-43.4	14.6	0.00e+00	0	56	0	73400320	51	5384
2026-01-10 01:13:50.80	327.29	25.75	-40.6	-43.6	14.4	7.00e-07	0	56	0	78643200	51	5480
2026-01-10 01:13:53.83	326.44	25.93	-40.4	-43.4	14.5	0.00e+00	0	56	0	83886080	52	5093
2026-01-10 01:13:56.85	325.59	26.11	-40.4	-43.4	14.3	0.00e+00	0	56	0	90177536	52	5065
2026-01-10 01:13:59.87	324.72	26.28	-40.6	-43.7	14.2	7.00e-07	0	56	0	95420416	52	5242
2026-01-10 01:14:02.87	323.85	26.44	-39.8	-42.4	15.5	0.00e+00	0	56	0	101711872	51	4794
2026-01-10 01:14:05.89	322.97	26.60	-40.0	-42.6	15.4	0.00e+00	0	56	0	106954752	51	4892
2026-01-10 01:14:08.91	322.08	26.75	-40.2	-43.0	14.9	0.00e+00	0	56	0	112197632	51	5128
2026-01-10 01:14:11.93	321.18	26.90	-40.3	-43.2	14.7	0.00e+00	0	56	0	118489088	51	5265
2026-01-10 01:14:14.95	320.27	27.03	-40.3	-43.1	14.9	0.00e+00	0	56	0	123731968	51	5172
2026-01-10 01:14:17.97	319.36	27.16	-40.7	-44.0	13.9	1.50e-06	0	56	0	130023424	52	5430
2026-01-10 01:14:21.00	318.43	27.29	-40.5	-43.6	14.3	3.80e-06	0	56	0	135266304	52	5197
2026-01-10 01:14:24.02	317.50	27.40	-40.5	-43.5	14.4	0.00e+00	0	56	0	140509184	52	5120
2026-01-10 01:14:27.04	316.56	27.51	-40.7	-43.9	14.0	1.50e-06	0	56	0	146800640	52	5372
2026-01-10 01:14:30.06	315.62	27.61	-40.8	-44.0	13.8	7.00e-07	0	56	0	152043520	52	5464
2026-01-10 01:14:33.08	314.67	27.70	-41.1	-44.6	13.2	1.83e-05	0	56	0	158334976	52	5845
2026-01-10 01:14:36.10	313.72	27.78	-41.4	-45.1	12.8	8.31e-05	0	56	0	163577856	53	5794
2026-01-10 01:14:39.12	312.76	27.85	-41.8	-45.9	11.9	3.90e-04	0	56	0	168820736	54	6047
2026-01-10 01:14:42.14	311.80	27.92	-41.4	-45.1	12.7	1.46e-04	0	56	0	175112192	54	5518
2026-01-10 01:14:45.17	310.83	27.97	-41.0	-44.4	13.5	1.14e-05	0	56	0	180355072	53	5366
2026-01-10 01:14:48.20	309.85	28.02	-41.4	-45.3	12.6	9.46e-05	0	56	0	186646528	53	5934
2026-01-10 01:14:51.21	308.89	28.05	-41.2	-45.0	12.8	5.34e-05	0	56	0	191889408	53	5746
2026-01-10 01:14:54.24	307.91	28.08	-40.9	-44.4	13.3	2.82e-05	0	56	0	197132288	53	5391
2026-01-10 01:14:57.25	306.94	28.10	-41.7	-46.1	11.7	2.53e-04	0	56	0	203423744	53	6513
2026-01-10 01:15:00.27	305.96	28.11	-41.7	-45.9	11.9	6.61e-04	0	56	0	208666624	54	6040
2026-01-10 01:15:03.29	304.98	28.11	-41.2	-44.8	13.0	4.11e-05	0	56	0	214958080	54	5327
2026-01-10 01:15:06.31	304.01	28.10	-40.5	-43.5	14.4	2.20e-06	0	56	0	220200960	52	5134
2026-01-10 01:15:09.34	303.03	28.08	-40.8	-44.0	13.8	3.80e-06	0	56	0	225443840	52	5463
2026-01-10 01:15:12.36	302.05	28.06	-41.2	-44.7	13.2	2.13e-05	0	56	0	231735296	53	5573
2026-01-10 01:15:15.38	301.08	28.02	-40.8	-43.9	13.9	4.50e-06	0	56	0	236978176	53	5094
2026-01-10 01:15:18.40	300.11	27.98	-41.0	-44.3	13.6	9.90e-06	0	56	0	243269632	53	5331
2026-01-10 01:15:21.42	299.14	27.92	-41.3	-44.9	12.9	3.05e-05	0	56	0	248512512	53	5715
2026-01-10 01:15:24.45	298.17	27.86	-41.1	-44.7	13.2	2.59e-05	0	56	0	253755392	53	5549
2026-01-10 01:15:27.47	297.22	27.78	-40.6	-43.8	14.2	7.00e-07	0	56	0	260046848	53	4985
2026-01-10 01:15:30.49	296.26	27.70	-40.0	-42.8	15.1	0.00e+00	0	56	0	265289728	52	4713
2026-01-10 01:15:33.51	295.31	27.61	-40.5	-43.5	14.3	0.00e+00	0	56	0	271581184	52	5151
2026-01-10 01:15:36.53	294.37	27.52	-40.0	-42.7	15.2	0.00e+00	0	56	0	276824064	51	4947
2026-01-10 01:15:39.56	293.42	27.41	-40.4	-43.3	14.7	0.00e+00	0	56	0	282066944	51	5295
2026-01-10 01:15:42.59	292.49	27.30	-40.6	-43.7	14.2	1.50e-06	0	56	0	288358400	51	5571
2026-01-10 01:15:45.61	291.56	27.17	-40.5	-43.4	14.6	0.00e+00	0	56	0	293601280	51	5353
2026-01-10 01:15:48.64	290.64	27.04	-41.1	-44.6	13.2	8.30e-06	0	56	0	299892736	52	5829
2026-01-10 01:15:51.66	289.73	26.91	-40.9	-44.2	13.7	9.90e-06	0	56	0	305135616	53	5229
2026-01-10 01:15:54.68	288.83	26.76	-40.6	-43.6	14.2	2.20e-06	0	56	0	310378496	53	4910
2026-01-10 01:15:57.69	287.94	26.61	-40.5	-43.4	14.4	7.00e-07	0	56	0	316669952	52	5095
2026-01-10 01:16:00.71	287.05	26.46	-40.3	-43.2	14.7	0.00e+00	0	56	0	321912832	52	4938
2026-01-10 01:16:03.73	286.18	26.29	-40.7	-43.8	14.0	7.00e-07	0	56	0	328204288	52	5303
2026-01-10 01:16:06.75	285.31	26.12	-40.9	-44.1	13.7	5.30e-06	0	56	0	333447168	52	5515
2026-01-10 01:16:09.78	284.45	25.94	-41.1	-44.5	13.3	2.28e-05	0	56	0	338690048	52	5781
2026-01-10 01:16:12.80	283.60	25.76	-41.1	-44.6	13.1	1.29e-05	0	56	0	344981504	52	5797
2026-01-10 01:16:15.82	282.76	25.57	-41.2	-44.8	12.9	4.95e-05	0	56	0	350224384	53	5623
2026-01-10 01:16:18.84	281.93	25.38	-41.4	-45.3	12.3	2.02e-04	0	56	0	356515840	53	5982
2026-01-10 01:16:21.86	281.11	25.18	-41.0	-44.5	13.2	4.27e-05	0	56	0	361758720	53	5451
2026-01-10 01:16:24.87	280.31	24.98	-40.8	-44.1	13.6	7.60e-06	0	56	0	367001600	53	5209
2026-01-10 01:16:27.90	279.51	24.77	-40.8	-44.2	13.4	7.60e-06	0	56	0	373293056	53	5265
2026-01-10 01:16:30.92	278.72	24.56	-40.5	-43.7	14.0	3.00e-06	0	56	0	378535936	53	4936
2026-01-10 01:16:33.94	277.95	24.34	-40.4	-43.6	14.1	3.80e-06	0	56	0	384827392	52	5184
2026-01-10 01:16:36.96	277.18	24.13	-41.2	-44.9	12.7	1.34e-04	0	56	0	390070272	53	5701
2026-01-10 01:16:39.98	276.43	23.90	-41.6	-45.4	12.3	2.41e-04	0	56	0	396361728	53	6047
2026-01-10 01:16:43.00	275.68	23.68	-41.2	-44.8	13.0	8.01e-05	0	56	0	401604608	53	5593
2026-01-10 01:16:46.03	274.95	23.45	-40.7	-43.8	13.9	2.20e-06	0	56	0	406847488	53	5026
2026-01-10 01:16:49.05	274.23	23.21	-41.0	-44.4	13.4	6.10e-06	0	56	0	413138944	53	5374
2026-01-10 01:16:52.07	273.51	22.98	-41.1	-44.5	13.2	2.51e-05	0	56	0	418381824	53	5445
2026-01-10 01:16:55.09	272.81	22.74	-40.7	-43.7	14.0	3.00e-06	0	56	0	424673280	53	4982
2026-01-10 01:16:58.11	272.12	22.50	-40.1	-42.7	15.2	0.00e+00	0	56	0	429916160	51	4948
2026-01-10 01:17:01.13	271.44	22.26	-40.1	-42.8	15.0	7.00e-07	0	56	0	435159040	51	5005
2026-01-10 01:17:04.15	270.78	22.01	-40.1	-42.8	15.0	0.00e+00	0	56	0	441450496	51	5027
2026-01-10 01:17:07.18	270.12	21.77	-40.0	-42.6	15.3	0.00e+00	0	56	0	446693376	51	4918
2026-01-10 01:17:10.21	269.47	21.52	-40.0	-42.6	15.2	0.00e+00	0	56	0	452984832	51	4895
2026-01-10 01:17:13.24	268.83	21.27	-40.0	-42.7	15.2	0.00e+00	0	56	0	458227712	51	4927
2026-01-10 01:17:16.26	268.20	21.02	-40.2	-42.9	14.9	0.00e+00	0	56	0	463470592	51	5069
2026-01-10 01:17:19.28	267.58	20.77	-40.7	-43.8	14.0	0.00e+00	0	56	0	469762048	51	5630
2026-01-10 01:17:22.30	266.98	20.51	-40.7	-43.8	13.9	5.30e-06	0	56	0	475004928	52	5281
2026-01-10 01:17:25.33	266.38	20.26	-40.3	-43.2	14.5	7.00e-07	0	56	0	481296384	52	4955
2026-01-10 01:17:28.35	265.79	20.01	-40.6	-43.7	14.0	3.80e-06	0	56	0	486539264	52	5226
2026-01-10 01:17:31.37	265.21	19.75	-40.0	-42.7	15.0	7.00e-07	0	56	0	491782144	52	4701
2026-01-10 01:17:34.40	264.64	19.50	-39.4	-41.7	16.0	0.00e+00	0	56	0	498073600	50	4676
2026-01-10 01:17:37.43	264.08	19.24	-39.4	-41.8	15.9	0.00e+00	0	56	0	503316480	50	4715
2026-01-10 01:17:40.45	263.54	18.99	-39.6	-42.1	15.6	0.00e+00	0	56	0	509607936	50	4895
2026-01-10 01:17:43.47	263.00	18.73	-40.0	-42.7	15.0	0.00e+00	0	56	0	514850816	50	5248
2026-01-10 01:17:46.49	262.47	18.48	-39.9	-42.5	15.3	0.00e+00	0	56	0	520093696	50	5115
2026-01-10 01:17:49.52	261.94	18.22	-39.7	-42.3	15.4	0.00e+00	0	56	0	526385152	50	5014
2026-01-10 01:17:52.53	261.43	17.97	-40.1	-42.9	14.8	0.00e+00	0	56	0	531628032	50	5341
2026-01-10 01:17:55.56	260.93	17.71	-40.3	-43.1	14.5	0.00e+00	0	56	0	537919488	51	5204
2026-01-10 01:17:58.58	260.43	17.46	-40.4	-43.3	14.4	7.00e-07	0	56	0	543162368	51	5309
2026-01-10 01:18:01.60	259.94	17.20	-39.8	-42.5	15.2	0.00e+00	0	56	0	548405248	51	4825
2026-01-10 01:18:04.62	259.46	16.95	-39.6	-42.1	15.5	0.00e+00	0	56	0	554696704	51	4648
2026-01-10 01:18:07.64	258.99	16.70	-40.2	-43.0	14.5	0.00e+00	0	56	0	559939584	51	5147
2026-01-10 01:18:10.67	258.53	16.45	-40.7	-43.9	13.7	4.50e-06	0	56	0	566231040	52	5358
2026-01-10 01:18:13.70	258.07	16.19	-40.3	-43.2	14.3	0.00e+00	0	56	0	571473920	52	4945
2026-01-10 01:18:16.73	257.62	15.94	-40.1	-42.9	14.7	7.00e-07	0	56	0	576716800	51	5064
2026-01-10 01:18:19.75	257.18	15.69	-40.1	-42.9	14.7	0.00e+00	0	56	0	583008256	51	5094
2026-01-10 01:18:22.77	256.75	15.45	-40.1	-43.0	14.6	7.00e-07	0	56	0	588251136	51	5121
2026-01-10 01:18:25.79	256.32	15.20	-40.5	-43.5	14.0	2.20e-06	0	56	0	594542592	51	5459
2026-01-10 01:18:28.81	255.91	14.95	-40.7	-43.9	13.6	1.14e-05	0	56	0	599785472	52	5377
2026-01-10 01:18:31.84	255.49	14.70	-40.5	-43.6	13.9	3.00e-06	0	56	0	606076928	52	5174
2026-01-10 01:18:34.86	255.09	14.46	-39.9	-42.6	14.9	7.00e-07	0	56	0	611319808	51	4918
2026-01-10 01:18:37.89	254.69	14.22	-40.1	-43.0	14.6	0.00e+00	0	56	0	616562688	51	5101
2026-01-10 01:18:40.92	254.30	13.97	-40.4	-43.4	14.0	1.50e-06	0	56	0	622854144	51	5380
2026-01-10 01:18:43.94	253.91	13.73	-40.4	-43.5	13.9	2.20e-06	0	56	0	628097024	51	5420
2026-01-10 01:18:46.97	253.53	13.49	-40.3	-43.3	14.1	7.00e-07	0	56	0	634388480	51	5339
2026-01-10 01:18:50.00	253.16	13.25	-40.6	-43.8	13.7	3.00e-06	0	56	0	639631360	51	5613
2026-01-10 01:18:53.02	252.79	13.01	-40.5	-43.7	13.6	9.10e-06	0	56	0	644874240	52	5271
2026-01-10 01:18:56.04	252.43	12.77	-40.6	-43.9	13.4	1.60e-05	0	56	0	651165696	52	5384
2026-01-10 01:18:59.06	252.08	12.54	-40.7	-44.1	13.2	3.43e-05	0	56	0	656408576	52	5486
2026-01-10 01:19:02.09	251.73	12.30	-40.9	-44.6	12.7	6.56e-05	0	56	0	662700032	52	5804
2026-01-10 01:19:05.12	251.38	12.07	-41.1	-44.9	12.3	1.72e-04	0	56	0	667942912	53	5688
2026-01-10 01:19:08.14	251.04	11.84	-41.0	-44.7	12.6	1.08e-04	0	56	0	673185792	53	5531
2026-01-10 01:19:11.16	250.71	11.61	-40.7	-44.2	13.0	2.36e-05	0	56	0	679477248	53	5243
2026-01-10 01:19:14.19	250.38	11.37	-40.6	-44.0	13.2	2.51e-05	0	56	0	684720128	53	5123
2026-01-10 01:19:17.22	250.06	11.15	-40.9	-44.5	12.7	7.40e-05	0	56	0	691011584	53	5434
2026-01-10 01:19:20.24	249.74	10.92	-41.2	-45.1	12.0	2.79e-04	0	56	0	696254464	53	5839
2026-01-10 01:19:23.26	249.43	10.69	-41.2	-45.2	11.9	5.40e-04	0	56	0	701497344	53	5885
2026-01-10 01:19:26.28	249.13	10.47	-41.0	-44.8	12.3	2.57e-04	0	56	0	707788800	53	5605
2026-01-10 01:19:29.30	248.82	10.24	-40.7	-44.3	12.8	5.95e-05	0	56	0	713031680	53	5280
2026-01-10 01:19:32.32	248.53	10.02	-40.7	-44.2	12.9	4.95e-05	0	56	0	719323136	53	5237
2026-01-10 01:19:35.34	248.23	9.80	-40.8	-44.4	12.6	7.01e-05	0	56	0	724566016	53	5369
2026-01-10 01:19:38.35	247.95	9.58	-41.1	-45.2	11.8	3.80e-04	0	56	0	729808896	53	5857
2026-01-10 01:19:41.37	247.66	9.36	-41.3	-45.6	11.4	1.01e-03	0	56	0	736100352	53	6148
2026-01-10 01:19:44.39	247.38	9.15	-41.5	-46.0	11.0	2.03e-03	0	56	0	741343232	53	6443
2026-01-10 01:19:47.41	247.11	8.93	-41.5	-46.1	10.8	2.39e-03	0	56	0	747634688	53	6549
2026-01-10 01:19:50.43	246.83	8.72	-41.7	-46.6	10.2	4.35e-03	0	56	0	752877568	53	6920
2026-01-10 01:19:53.45	246.57	8.50	-41.8	-46.8	9.9	7.33e-03	0	56	0	758120448	54	6704
2026-01-10 01:19:56.48	246.30	8.29	-41.7	-46.8	10.0	6.83e-03	0	56	0	764411904	54	6670
2026-01-10 01:19:59.51	246.04	8.08	-41.7	-46.7	10.1	6.86e-03	0	56	0	769654784	54	6605
2026-01-10 01:20:02.53	245.79	7.87	-44.5	-59.0	3.8	1.49e+00	0	56	104	771751936	59	20484
2026-01-10 01:20:05.56	245.53	7.66	-44.8	-59.5	3.8	1.49e+00	0	56	104	771751936	60	20470
2026-01-10 01:20:08.59	245.29	7.45	-45.0	-59.7	3.8	1.49e+00	0	56	104	771751936	60	20881
2026-01-10 01:20:11.61	245.04	7.24	-44.9	-59.7	3.8	1.49e+00	0	56	104	771751936	60	20867
2026-01-10 01:20:14.64	244.80	7.04	-44.9	-59.6	3.8	1.49e+00	0	56	104	771751936	60	20749
2026-01-10 01:20:17.67	244.56	6.83	-44.9	-59.7	3.8	1.49e+00	0	56	104	771751936	60	20778
2026-01-10 01:20:20.69	244.33	6.63	-44.9	-59.7	3.8	1.49e+00	0	56	104	771751936	60	20826
2026-01-10 01:20:23.72	244.09	6.43	-44.9	-59.6	3.8	1.49e+00	0	56	104	771751936	60	20748
2026-01-10 01:20:26.74	243.87	6.23	-44.9	-59.6	3.8	1.49e+00	0	56	104	771751936	60	20747
2026-01-10 01:20:29.76	243.64	6.03	-44.9	-59.7	3.8	1.49e+00	0	56	104	771751936	60	20798
2026-01-10 01:20:32.79	243.42	5.83	-44.8	-59.6	3.8	1.49e+00	0	56	104	771751936	60	20726
2026-01-10 01:20:35.81	243.20	5.63	-44.9	-59.6	3.8	1.49e+00	0	56	104	771751936	60	20744
2026-01-10 01:20:38.84	242.99	5.44	-44.8	-59.6	3.8	1.49e+00	0	56	104	771751936	60	20684
2026-01-10 01:20:41.86	242.77	5.24	-44.8	-59.6	3.8	1.49e+00	0	56	104	771751936	60	20689
2026-01-10 01:20:44.89	242.56	5.05	-44.8	-59.6	3.8	1.49e+00	0	56	104	771751936	60	20715
2026-01-10 01:20:47.92	242.36	4.85	-44.8	-59.6	3.8	1.49e+00	0	56	104	771751936	60	20725
2026-01-10 01:20:50.94	242.15	4.66	-44.8	-59.6	3.8	1.49e+00	0	56	104	771751936	60	20692
2026-01-10 01:20:53.97	241.95	4.47	-44.8	-59.6	3.8	1.49e+00	0	56	104	771751936	60	20700
2026-01-10 01:20:57.00	241.75	4.28	-44.8	-59.6	3.8	1.49e+00	0	56	104	771751936	60	20704
2026-01-10 01:21:00.02	241.56	4.09	-44.8	-59.6	3.8	1.49e+00	0	56	104	771751936	60	20689
2026-01-10 01:21:03.05	241.36	3.90	-44.8	-59.6	3.8	1.49e+00	0	56	104	771751936	60	20681
2026-01-10 01:21:06.08	241.17	3.71	-44.7	-59.6	3.8	1.49e+00	0	56	104	771751936	60	20677
2026-01-10 01:21:09.11	240.98	3.53	-44.8	-59.6	3.8	1.49e+00	0	56	104	771751936	60	20636
2026-01-10 01:21:12.14	240.80	3.34	-44.8	-59.6	3.8	1.49e+00	0	56	104	771751936	60	20652
2026-01-10 01:21:15.16	240.62	3.16	-44.8	-59.6	3.8	1.49e+00	0	56	104	771751936	60	20584
2026-01-10 01:21:18.19	240.43	2.97	-44.8	-59.6	3.8	1.49e+00	0	56	104	771751936	60	20601
2026-01-10 01:21:21.22	240.26	2.79	-44.8	-59.6	3.8	1.49e+00	0	56	104	771751936	60	20635
2026-01-10 01:21:24.24	240.08	2.61	-44.8	-59.6	3.8	1.49e+00	0	56	104	771751936	60	20628
2026-01-10 01:21:27.27	239.91	2.43	-44.8	-59.6	3.8	1.49e+00	0	56	104	771751936	60	20598
2026-01-10 01:21:30.30	239.73	2.25	-44.8	-59.6	3.8	1.49e+00	0	56	104	771751936	60	20624
2026-01-10 01:21:33.33	239.56	2.07	-44.8	-59.6	3.8	1.49e+00	0	56	104	771751936	60	20601

#Closed at: 2026-01-10 01:21:34
#Recorded file [771 MB]: D:/lorett/data/31039_260110_041222.dat