passes_logs/2026/01/10/R2.0S_Moscow/R2.0S_Moscow__20260110_010301_FENGYUN_3G_rec.log

#Pass ID: 20260110_010301_FENGYUN 3G
#Satellite: FENGYUN 3G
#Configuration: FENGYUN 3G
#almurnet v.1.7.20251203
#Start time: 2026-01-10 01:03:19

#Version: 2.2.20231116
#Station: R2.0S_Moscow
#Location: 37.707566 lon 55.798166 lat
#TLE: 1 56232U 23055A   26009.25964270  .00031369  00000+0  49445-3 0  9995
#TLE: 2 56232  49.9935  85.5429 0004254   0.7108 359.3865 15.53213378155304

#Time	Az	El	Level	Level2	SNR	BER	BlckErr	Temp	State	Recorded	gain1	gain2
2026-01-10 01:03:19.87	243.85	3.24	-45.7	-64.6	3.8	7.44e-01	0	56	0	0	62	32866
2026-01-10 01:03:22.91	243.63	3.45	-44.9	-63.4	3.8	8.47e-01	0	56	104	0	61	30034
2026-01-10 01:03:25.94	243.41	3.66	-44.9	-63.2	3.8	8.45e-01	0	56	104	0	61	29650
2026-01-10 01:03:28.97	243.18	3.88	-44.6	-62.9	3.8	8.45e-01	0	56	104	0	61	28629
2026-01-10 01:03:32.01	242.95	4.10	-43.8	-62.0	3.8	8.46e-01	0	56	104	0	59	28895
2026-01-10 01:03:35.04	242.72	4.32	-43.8	-61.9	3.8	8.46e-01	0	56	104	0	59	28601
2026-01-10 01:03:38.07	242.47	4.54	-43.8	-62.1	3.8	8.47e-01	0	56	104	0	59	29048
2026-01-10 01:03:41.11	242.23	4.76	-43.8	-62.1	3.8	8.47e-01	0	56	104	0	59	29014
2026-01-10 01:03:44.14	241.97	4.99	-43.8	-61.4	3.8	8.46e-01	0	56	104	0	59	26840
2026-01-10 01:03:47.17	241.72	5.22	-43.8	-60.4	3.8	8.45e-01	0	56	104	0	59	23897
2026-01-10 01:03:50.21	241.45	5.45	-43.7	-59.8	3.9	8.45e-01	0	56	104	0	59	22273
2026-01-10 01:03:53.24	241.18	5.69	-43.7	-59.5	3.9	8.44e-01	0	56	104	0	59	21680
2026-01-10 01:03:56.27	240.90	5.93	-43.7	-59.4	4.0	8.43e-01	0	56	0	0	59	21401
2026-01-10 01:03:59.30	240.62	6.17	-43.8	-61.3	3.8	8.46e-01	0	56	104	0	59	26704
2026-01-10 01:04:02.33	240.33	6.41	-43.7	-58.7	4.1	8.45e-01	0	56	0	0	59	19669
2026-01-10 01:04:05.36	240.03	6.66	-43.2	-52.6	8.1	3.22e-01	0	56	0	1572864	58	10348
2026-01-10 01:04:08.40	239.73	6.91	-42.8	-50.6	10.3	9.05e-03	0	56	0	4718592	57	8666
2026-01-10 01:04:11.43	239.41	7.16	-43.2	-52.4	8.4	1.50e-02	0	56	0	8388608	57	10735
2026-01-10 01:04:14.46	239.09	7.42	-43.6	-56.5	4.9	5.52e-01	0	56	0	10485760	57	17246
2026-01-10 01:04:17.49	238.77	7.67	-42.6	-49.6	11.2	1.19e-01	0	56	0	13107200	57	7740
2026-01-10 01:04:20.52	238.43	7.94	-41.2	-45.8	15.1	3.31e-05	0	56	0	16777216	54	5939
2026-01-10 01:04:23.56	238.08	8.20	-40.0	-43.3	17.4	0.00e+00	0	56	0	19922944	52	5016
2026-01-10 01:04:26.58	237.73	8.47	-39.1	-41.9	18.9	3.89e-01	0	56	0	22544384	50	4790
2026-01-10 01:04:29.61	237.37	8.75	-38.8	-41.5	19.7	0.00e+00	0	56	0	25690112	49	4822
2026-01-10 01:04:32.65	236.99	9.02	-39.1	-41.9	19.3	0.00e+00	0	56	0	29360128	49	5047
2026-01-10 01:04:35.68	236.61	9.30	-39.0	-41.7	19.5	0.00e+00	0	56	0	33030144	49	4973
2026-01-10 01:04:38.71	236.22	9.59	-39.0	-41.7	19.5	0.00e+00	0	56	0	36175872	49	4935
2026-01-10 01:04:41.74	235.82	9.87	-38.7	-41.2	20.0	0.00e+00	0	56	0	39845888	49	4695
2026-01-10 01:04:44.77	235.40	10.17	-38.4	-40.8	20.5	0.00e+00	0	56	0	42991616	48	4738
2026-01-10 01:04:47.79	234.98	10.46	-38.6	-41.1	20.2	0.00e+00	0	56	0	46661632	48	4914
2026-01-10 01:04:50.82	234.54	10.76	-38.9	-41.5	19.7	0.00e+00	0	56	0	49807360	48	5152
2026-01-10 01:04:53.85	234.09	11.07	-38.4	-40.8	20.5	0.00e+00	0	56	0	53477376	48	4745
2026-01-10 01:04:56.87	233.63	11.37	-38.3	-40.7	20.7	0.00e+00	0	56	0	56623104	48	4671
2026-01-10 01:04:59.89	233.15	11.69	-38.0	-40.3	21.1	0.00e+00	0	56	0	60293120	48	4446
2026-01-10 01:05:02.91	232.66	12.00	-38.1	-40.3	21.1	0.00e+00	0	56	0	63438848	48	4465
2026-01-10 01:05:05.93	232.16	12.32	-38.1	-40.4	21.0	0.00e+00	0	56	0	66584576	47	4780
2026-01-10 01:05:08.95	231.64	12.65	-38.1	-40.4	20.9	0.00e+00	0	56	0	70254592	47	4808
2026-01-10 01:05:11.98	231.11	12.98	-37.8	-40.0	21.5	0.00e+00	0	56	0	73400320	47	4547
2026-01-10 01:05:15.00	230.56	13.32	-37.8	-40.1	21.3	0.00e+00	0	56	0	77070336	47	4616
2026-01-10 01:05:18.02	229.99	13.65	-37.8	-40.0	21.4	0.00e+00	0	56	0	80216064	47	4556
2026-01-10 01:05:21.05	229.41	14.00	-37.6	-39.8	21.7	0.00e+00	0	56	0	83886080	47	4455
2026-01-10 01:05:24.07	228.81	14.35	-37.6	-39.7	21.8	0.00e+00	0	56	0	87031808	46	4686
2026-01-10 01:05:27.10	228.19	14.70	-37.2	-39.2	22.3	0.00e+00	0	56	0	90701824	46	4424
2026-01-10 01:05:30.11	227.55	15.06	-37.4	-39.5	22.0	0.00e+00	0	56	0	93847552	46	4569
2026-01-10 01:05:33.14	226.89	15.42	-37.5	-39.5	22.1	0.00e+00	0	56	0	97517568	46	4580
2026-01-10 01:05:36.17	226.21	15.79	-37.0	-39.0	22.6	0.00e+00	0	56	0	100663296	46	4308
2026-01-10 01:05:39.20	225.50	16.17	-36.6	-38.4	23.1	0.00e+00	0	56	0	104333312	45	4288
2026-01-10 01:05:42.22	224.78	16.54	-36.8	-38.8	22.8	0.00e+00	0	55	0	107479040	44	4709
2026-01-10 01:05:45.24	224.03	16.92	-36.9	-38.8	22.8	0.00e+00	0	56	0	111149056	44	4720
2026-01-10 01:05:48.26	223.26	17.31	-36.5	-38.3	23.3	0.00e+00	0	56	0	114294784	44	4483
2026-01-10 01:05:51.27	222.47	17.70	-36.4	-38.2	23.4	0.00e+00	0	56	0	117964800	44	4434
2026-01-10 01:05:54.29	221.64	18.09	-36.6	-38.4	23.2	0.00e+00	0	56	0	121110528	44	4518
2026-01-10 01:05:57.32	220.79	18.49	-36.3	-38.1	23.6	0.00e+00	0	55	0	124780544	44	4348
2026-01-10 01:06:00.34	219.92	18.89	-36.2	-38.0	23.7	0.00e+00	0	56	0	127926272	44	4293
2026-01-10 01:06:03.35	219.01	19.29	-35.9	-37.6	23.9	0.00e+00	0	56	0	131596288	43	4369
2026-01-10 01:06:06.37	218.08	19.70	-35.9	-37.7	23.8	0.00e+00	0	56	0	134742016	43	4409
2026-01-10 01:06:09.39	217.11	20.10	-36.0	-37.8	23.8	0.00e+00	0	56	0	138412032	43	4446
2026-01-10 01:06:12.41	216.12	20.51	-35.5	-37.2	24.3	0.00e+00	0	56	0	141557760	43	4163
2026-01-10 01:06:15.43	215.09	20.92	-35.1	-36.7	24.8	0.00e+00	0	56	0	145227776	42	4165
2026-01-10 01:06:18.45	214.02	21.33	-35.7	-37.4	24.2	0.00e+00	0	56	0	148373504	42	4497
2026-01-10 01:06:21.47	212.92	21.75	-35.8	-37.5	24.0	0.00e+00	0	55	0	152043520	42	4575
2026-01-10 01:06:24.50	211.79	22.16	-35.3	-37.0	24.5	0.00e+00	0	56	0	155189248	42	4302
2026-01-10 01:06:27.52	210.62	22.56	-35.0	-36.5	25.0	0.00e+00	0	56	0	158859264	41	4335
2026-01-10 01:06:30.54	209.41	22.97	-35.0	-36.6	24.9	0.00e+00	0	55	0	162004992	41	4341
2026-01-10 01:06:33.56	208.17	23.37	-35.4	-37.1	24.5	0.00e+00	0	56	0	165150720	41	4601
2026-01-10 01:06:36.59	206.89	23.77	-35.2	-36.8	24.7	0.00e+00	0	56	0	168820736	41	4456
2026-01-10 01:06:39.61	205.57	24.16	-34.9	-36.5	24.9	0.00e+00	0	56	0	171966464	41	4329
2026-01-10 01:06:42.63	204.21	24.54	-34.5	-36.0	25.4	0.00e+00	0	55	0	175636480	40	4318
2026-01-10 01:06:45.64	202.82	24.92	-34.8	-36.4	25.1	0.00e+00	0	55	0	178782208	40	4508
2026-01-10 01:06:48.67	201.38	25.28	-34.7	-36.2	25.1	0.00e+00	0	55	0	182452224	40	4431
2026-01-10 01:06:51.68	199.91	25.64	-34.4	-35.9	25.5	0.00e+00	0	56	0	185597952	40	4255
2026-01-10 01:06:54.70	198.41	25.98	-34.5	-36.0	25.4	0.00e+00	0	55	0	189267968	40	4324
2026-01-10 01:06:57.73	196.85	26.31	-34.3	-35.8	25.6	0.00e+00	0	56	0	192413696	40	4212
2026-01-10 01:07:00.76	195.27	26.62	-34.1	-35.6	25.8	0.00e+00	0	56	0	196083712	40	4131
2026-01-10 01:07:03.78	193.65	26.91	-34.0	-35.5	25.8	0.00e+00	0	56	0	199229440	39	4315
2026-01-10 01:07:06.81	191.99	27.19	-34.1	-35.6	25.8	0.00e+00	0	55	0	202899456	39	4372
2026-01-10 01:07:09.82	190.32	27.44	-34.0	-35.5	25.9	0.00e+00	0	55	0	206045184	39	4304
2026-01-10 01:07:12.84	188.61	27.67	-33.8	-35.3	26.0	0.00e+00	0	56	0	209715200	39	4215
2026-01-10 01:07:15.87	186.86	27.88	-33.6	-35.1	26.3	0.00e+00	0	56	0	212860928	39	4106
2026-01-10 01:07:18.88	185.11	28.06	-34.2	-35.7	25.7	0.00e+00	0	56	0	216530944	39	4427
2026-01-10 01:07:21.91	183.32	28.22	-34.5	-36.0	25.5	0.00e+00	0	55	0	219676672	39	4562
2026-01-10 01:07:24.93	181.52	28.35	-34.7	-36.3	25.2	0.00e+00	0	55	0	223346688	40	4445
2026-01-10 01:07:27.95	179.70	28.45	-34.5	-36.0	25.4	0.00e+00	0	56	0	226492416	40	4322
2026-01-10 01:07:30.97	177.87	28.53	-34.3	-35.8	25.6	0.00e+00	0	55	0	230162432	40	4233
2026-01-10 01:07:33.99	176.04	28.57	-34.5	-36.1	25.4	0.00e+00	0	56	0	233308160	40	4353
2026-01-10 01:07:37.01	174.20	28.59	-34.4	-36.0	25.5	0.00e+00	0	55	0	236978176	40	4292
2026-01-10 01:07:40.03	172.36	28.58	-34.5	-36.0	25.6	0.00e+00	0	55	0	240123904	40	4298
2026-01-10 01:07:43.05	170.53	28.53	-34.5	-36.0	25.5	0.00e+00	0	56	0	243793920	40	4329
2026-01-10 01:07:46.08	168.69	28.46	-34.4	-35.9	25.6	0.00e+00	0	55	0	246939648	40	4290
2026-01-10 01:07:49.10	166.88	28.36	-34.8	-36.4	25.2	0.00e+00	0	55	0	250609664	40	4496
2026-01-10 01:07:52.12	165.08	28.23	-34.2	-35.7	25.8	0.00e+00	0	55	0	253755392	40	4174
2026-01-10 01:07:55.14	163.29	28.08	-34.6	-36.1	25.5	0.00e+00	0	55	0	257425408	40	4382
2026-01-10 01:07:58.16	161.53	27.89	-34.3	-35.8	25.8	0.00e+00	0	55	0	260571136	40	4224
2026-01-10 01:08:01.18	159.79	27.69	-34.3	-35.8	25.8	0.00e+00	0	55	0	264241152	40	4215
2026-01-10 01:08:04.21	158.08	27.46	-34.2	-35.8	25.8	0.00e+00	0	55	0	267386880	40	4202
2026-01-10 01:08:07.22	156.40	27.21	-34.2	-35.7	25.8	0.00e+00	0	56	0	271056896	39	4431
2026-01-10 01:08:10.25	154.74	26.93	-34.2	-35.7	25.9	0.00e+00	0	55	0	274202624	39	4399
2026-01-10 01:08:13.28	153.12	26.64	-34.2	-35.7	25.8	0.00e+00	0	56	0	277872640	39	4426
2026-01-10 01:08:16.30	151.54	26.33	-35.4	-37.1	24.5	0.00e+00	0	55	0	281018368	41	4605
2026-01-10 01:08:19.32	149.99	26.01	-35.0	-36.5	24.9	0.00e+00	0	55	0	284164096	41	4337
2026-01-10 01:08:22.34	148.48	25.67	-35.0	-36.6	24.9	0.00e+00	0	56	0	287834112	41	4378
2026-01-10 01:08:25.36	147.01	25.32	-35.4	-37.0	24.5	0.00e+00	0	55	0	290979840	41	4570
2026-01-10 01:08:28.38	145.57	24.95	-35.3	-36.9	24.7	0.00e+00	0	56	0	294649856	41	4525
2026-01-10 01:08:31.40	144.18	24.58	-34.8	-36.4	25.1	0.00e+00	0	55	0	297795584	41	4250
2026-01-10 01:08:34.43	142.81	24.20	-34.9	-36.5	24.9	0.00e+00	0	56	0	301465600	41	4337
2026-01-10 01:08:37.45	141.50	23.81	-34.7	-36.3	25.1	0.00e+00	0	55	0	304611328	41	4206
2026-01-10 01:08:40.48	140.21	23.41	-35.1	-36.7	24.7	0.00e+00	0	56	0	308281344	41	4420
2026-01-10 01:08:43.50	138.97	23.01	-35.4	-37.1	24.3	0.00e+00	0	55	0	311427072	41	4633
2026-01-10 01:08:46.53	137.76	22.61	-35.1	-36.7	24.7	0.00e+00	0	56	0	315097088	41	4439
2026-01-10 01:08:49.55	136.59	22.20	-35.3	-36.9	24.4	0.00e+00	0	55	0	318242816	41	4533
2026-01-10 01:08:52.58	135.45	21.79	-35.5	-37.2	24.1	0.00e+00	0	55	0	321912832	41	4693
2026-01-10 01:08:55.61	134.35	21.38	-35.5	-37.2	24.1	0.00e+00	0	55	0	325058560	41	4660
2026-01-10 01:08:58.63	133.29	20.97	-35.6	-37.3	24.0	0.00e+00	0	55	0	328728576	41	4722
2026-01-10 01:09:01.66	132.25	20.56	-36.1	-37.9	23.5	0.00e+00	0	55	0	331874304	42	4779
2026-01-10 01:09:04.68	131.25	20.15	-35.6	-37.3	24.0	0.00e+00	0	56	0	335544320	42	4490
2026-01-10 01:09:07.70	130.29	19.74	-35.9	-37.7	23.6	0.00e+00	0	56	0	338690048	42	4652
2026-01-10 01:09:10.72	129.35	19.34	-35.9	-37.7	23.6	0.00e+00	0	55	0	342360064	42	4655
2026-01-10 01:09:13.74	128.45	18.94	-36.2	-38.0	23.2	0.00e+00	0	55	0	345505792	42	4866
2026-01-10 01:09:16.76	127.57	18.54	-36.0	-37.8	23.5	0.00e+00	0	55	0	349175808	43	4461
2026-01-10 01:09:19.79	126.72	18.14	-36.1	-38.0	23.2	0.00e+00	0	55	0	352321536	43	4591
2026-01-10 01:09:22.81	125.90	17.75	-36.3	-38.1	23.1	0.00e+00	0	55	0	355991552	43	4632
2026-01-10 01:09:25.84	125.10	17.36	-36.7	-38.6	22.6	0.00e+00	0	55	0	359137280	43	4913
2026-01-10 01:09:28.86	124.33	16.97	-36.5	-38.5	22.7	0.00e+00	0	55	0	362807296	43	4816
2026-01-10 01:09:31.88	123.58	16.59	-36.7	-38.7	22.5	0.00e+00	0	55	0	365953024	43	4932
2026-01-10 01:09:34.90	122.86	16.22	-36.9	-39.3	21.9	0.00e+00	0	55	0	369623040	45	4736
2026-01-10 01:09:37.92	122.16	15.85	-35.5	-39.0	22.2	1.10e-06	0	55	0	372768768	44	4842
2026-01-10 01:09:40.95	121.47	15.48	-36.9	-39.2	21.9	0.00e+00	0	55	0	376438784	44	4936
2026-01-10 01:09:43.96	120.82	15.12	-33.8	-39.5	19.9	0.00e+00	0	56	0	379584512	40	6425
2026-01-10 01:09:46.98	120.18	14.76	-37.6	-40.0	21.2	1.10e-06	0	55	0	383254528	45	5113
2026-01-10 01:09:50.00	119.56	14.41	-37.5	-39.8	21.3	0.00e+00	0	55	0	386400256	45	5001
2026-01-10 01:09:53.02	118.96	14.06	-36.8	-40.0	20.7	0.00e+00	0	55	0	390070272	45	5123
2026-01-10 01:09:56.04	118.38	13.71	-38.3	-41.2	18.7	2.20e-06	0	55	0	393216000	45	5871
2026-01-10 01:09:59.06	117.81	13.38	-34.4	-40.7	19.8	1.10e-06	0	56	0	396886016	45	5572
2026-01-10 01:10:02.08	117.26	13.04	-35.7	-40.5	18.2	1.92e-04	0	55	0	400031744	42	6444
2026-01-10 01:10:05.11	116.73	12.71	-37.6	-40.6	20.1	1.73e-04	0	56	0	403177472	45	5494
2026-01-10 01:10:08.14	116.21	12.38	-37.9	-40.8	19.7	3.40e-06	0	55	0	406847488	46	5306
2026-01-10 01:10:11.16	115.71	12.06	-37.9	-40.8	19.9	0.00e+00	0	55	0	409993216	46	5290
2026-01-10 01:10:14.18	115.22	11.75	-36.2	-40.9	19.2	0.00e+00	0	56	0	413663232	46	5382
2026-01-10 01:10:17.20	114.74	11.44	-37.7	-41.3	18.8	1.71e-05	0	55	0	416808960	46	5604
2026-01-10 01:10:20.22	114.28	11.13	-35.8	-40.7	18.3	1.48e-04	0	56	0	420478976	43	6233
2026-01-10 01:10:23.24	113.83	10.83	-35.9	-42.5	14.5	2.81e-03	0	55	0	423624704	40	9116
2026-01-10 01:10:26.27	113.39	10.53	-29.9	-43.7	11.9	8.88e-03	0	55	0	427294720	38	11805
2026-01-10 01:10:29.30	112.97	10.23	-31.4	-42.1	13.2	3.82e-02	0	56	0	430440448	36	11025
2026-01-10 01:10:32.32	112.55	9.94	-34.0	-40.2	16.6	9.93e-03	0	55	0	434110464	38	7861
2026-01-10 01:10:35.34	112.15	9.65	-33.4	-41.2	15.8	2.46e-03	0	55	0	437256192	40	7812
2026-01-10 01:10:38.36	111.76	9.37	-32.3	-41.8	15.4	3.59e-03	0	55	0	440926208	40	8391
2026-01-10 01:10:41.38	111.38	9.09	-33.5	-42.4	15.7	4.69e-03	0	55	0	444071936	42	8011
2026-01-10 01:10:44.40	111.01	8.82	-34.8	-42.4	14.8	6.84e-03	0	55	0	447741952	43	7559
2026-01-10 01:10:47.43	110.64	8.54	-36.3	-42.7	15.7	1.50e-03	0	55	0	450887680	45	7005
2026-01-10 01:10:50.46	110.29	8.27	-37.5	-42.9	15.6	8.55e-04	0	55	0	454557696	46	6751
2026-01-10 01:10:53.48	109.95	8.01	-38.7	-44.8	15.8	8.03e-04	0	55	0	457703424	49	7097
2026-01-10 01:10:56.51	109.61	7.75	-44.7	-63.3	3.8	8.47e-01	0	55	104	458227712	60	31617
2026-01-10 01:10:59.54	109.28	7.49	-45.2	-63.5	3.8	8.45e-01	0	56	104	458227712	60	32195
2026-01-10 01:11:02.57	108.96	7.23	-45.4	-63.7	3.8	8.46e-01	0	55	104	458227712	61	31089
2026-01-10 01:11:05.60	108.65	6.98	-45.2	-63.5	3.8	8.47e-01	0	55	104	458227712	61	30650
2026-01-10 01:11:08.63	108.35	6.73	-45.1	-63.5	3.8	8.47e-01	0	55	104	458227712	61	30411
2026-01-10 01:11:11.66	108.05	6.48	-45.0	-63.4	3.8	8.46e-01	0	56	104	458227712	61	30273
2026-01-10 01:11:14.69	107.76	6.24	-45.0	-63.4	3.8	8.46e-01	0	55	104	458227712	61	30166
2026-01-10 01:11:17.71	107.48	6.00	-45.0	-63.4	3.8	8.46e-01	0	56	104	458227712	61	30184
2026-01-10 01:11:20.73	107.20	5.77	-45.0	-63.4	3.8	8.46e-01	0	56	104	458227712	61	30205
2026-01-10 01:11:23.77	106.93	5.53	-45.0	-63.4	3.8	8.45e-01	0	56	104	458227712	61	30111
2026-01-10 01:11:26.79	106.67	5.30	-44.9	-63.4	3.8	8.47e-01	0	56	104	458227712	61	30152
2026-01-10 01:11:29.81	106.41	5.07	-44.9	-63.4	3.8	8.46e-01	0	56	104	458227712	61	30120
2026-01-10 01:11:32.83	106.16	4.84	-45.0	-63.4	3.8	8.46e-01	0	56	104	458227712	60	31918
2026-01-10 01:11:35.87	105.91	4.62	-44.9	-63.4	3.8	8.46e-01	0	56	104	458227712	60	31917
2026-01-10 01:11:38.89	105.67	4.40	-44.9	-63.4	3.8	8.46e-01	0	56	104	458227712	60	31834
2026-01-10 01:11:41.92	105.43	4.18	-44.9	-63.4	3.8	8.47e-01	0	56	104	458227712	60	31905
2026-01-10 01:11:44.95	105.20	3.96	-44.9	-63.4	3.8	8.48e-01	0	56	104	458227712	60	31842
2026-01-10 01:11:47.98	104.97	3.74	-44.9	-63.3	3.8	8.47e-01	0	55	104	458227712	60	31806
2026-01-10 01:11:51.01	104.75	3.53	-44.9	-63.4	3.8	8.47e-01	0	55	104	458227712	60	31905
2026-01-10 01:11:54.04	104.54	3.32	-44.9	-63.4	3.8	8.45e-01	0	56	104	458227712	60	31860
2026-01-10 01:11:57.06	104.32	3.11	-44.9	-63.4	3.8	8.45e-01	0	55	104	458227712	60	31879
2026-01-10 01:12:00.08	104.12	2.91	-44.9	-63.3	3.8	8.46e-01	0	55	104	458227712	60	31805
2026-01-10 01:12:03.07	103.92	2.70	-44.9	-63.4	3.8	8.47e-01	0	56	104	458227712	60	31936
2026-01-10 01:12:06.10	103.72	2.50	-44.9	-63.3	3.8	8.46e-01	0	55	104	458227712	60	31805
2026-01-10 01:12:09.12	103.52	2.30	-44.9	-63.3	3.8	8.46e-01	0	56	104	458227712	60	31730
2026-01-10 01:12:12.14	103.33	2.10	-44.9	-63.3	3.8	8.47e-01	0	56	104	458227712	60	31761
2026-01-10 01:12:15.17	103.14	1.91	-44.9	-63.3	3.8	8.47e-01	0	55	104	458227712	60	31795

#Closed at: 2026-01-10 01:12:15
#Recorded file [458 MB]: D:/lorett/data/31039_260110_040319.dat