passes_logs/2026/01/04/PlanumMoscow/PlanumMoscow__20260104_070440_METOP-C_rec.log

#Pass ID: 20260104_070440_METOP-C
#Satellite: METOP-C
#Configuration: METOP-C
#Start time: 2026-01-04 07:04:45.203801

#LorettStation: 1.0.0 05.05.2024
#Station: PlanumMoscow
#Location: 37.6253844 lon 55.6713361 lat
#TLE: 1 43689U 18087A   25293.88981035  .00000265  00000+0  14109-3 0  9997
#TLE: 2 43689  98.7006 352.4487 0002041 122.1097 238.0279 14.21482740360838

#Time	Az	El	Level	SNR
2026-01-04 07:08:51.081902	44.3	30.6	-64.6	0.0
2026-01-04 07:08:53.313405	44.7	31.0	-64.3	0.0
2026-01-04 07:08:55.549940	45.2	31.3	-65.0	0.0
2026-01-04 07:08:57.783442	45.7	31.7	-65.0	0.0
2026-01-04 07:09:00.016954	46.2	32.0	-64.5	0.0
2026-01-04 07:09:02.248457	46.7	32.4	-65.2	0.0
2026-01-04 07:09:04.481463	47.2	32.8	-65.3	0.0
2026-01-04 07:09:06.715489	47.8	33.1	-64.9	0.0
2026-01-04 07:09:08.947991	48.3	33.5	-65.0	0.0
2026-01-04 07:09:11.179502	48.9	33.9	-65.1	0.0
2026-01-04 07:09:13.412013	49.5	34.2	-65.1	0.0
2026-01-04 07:09:15.651023	50.0	34.6	-63.9	0.0
2026-01-04 07:09:17.898536	50.7	35.0	-65.1	0.0
2026-01-04 07:09:20.140050	51.3	35.4	-65.0	0.0
2026-01-04 07:09:22.381580	51.9	35.7	-64.8	0.0
2026-01-04 07:09:24.628094	52.5	36.1	-65.4	0.0
2026-01-04 07:09:26.871110	53.2	36.5	-64.7	0.0
2026-01-04 07:09:29.113632	53.9	36.9	-64.1	0.0
2026-01-04 07:09:31.356650	54.6	37.2	-64.5	0.0
2026-01-04 07:09:33.590656	55.3	37.6	-64.6	0.0
2026-01-04 07:09:35.826160	56.0	38.0	-64.2	0.0
2026-01-04 07:09:38.061168	56.7	38.4	-64.5	0.0
2026-01-04 07:09:40.295175	57.5	38.7	-63.7	0.0
2026-01-04 07:09:42.530183	58.2	39.1	-63.5	0.0
2026-01-04 07:09:44.764199	59.0	39.5	-64.9	0.0
2026-01-04 07:09:46.997710	59.8	39.8	-64.0	0.0
2026-01-04 07:09:49.237214	60.7	40.2	-64.3	0.0
2026-01-04 07:09:51.471231	61.5	40.6	-63.7	0.0
2026-01-04 07:09:53.704734	62.4	40.9	-65.0	0.0
2026-01-04 07:09:55.935245	63.2	41.3	-64.1	0.0
2026-01-04 07:09:58.169261	64.1	41.6	-63.8	0.0
2026-01-04 07:10:00.403772	65.0	42.0	-62.6	0.0
2026-01-04 07:10:02.638292	66.0	42.3	-64.3	0.0
2026-01-04 07:10:04.872308	66.9	42.7	-65.1	0.0
2026-01-04 07:10:07.106315	67.9	43.0	-64.3	0.0
2026-01-04 07:10:09.341827	68.9	43.3	-63.5	0.0
2026-01-04 07:10:11.576835	69.9	43.6	-65.1	0.0
2026-01-04 07:10:13.812346	71.0	43.9	-65.6	0.0
2026-01-04 07:10:16.047858	72.0	44.2	-65.1	0.0
2026-01-04 07:10:18.281370	73.1	44.5	-65.4	0.0
2026-01-04 07:10:20.514881	74.2	44.8	-65.9	0.0
2026-01-04 07:10:22.751889	75.3	45.1	-65.0	0.0
2026-01-04 07:10:24.984392	76.4	45.4	-65.5	0.0
2026-01-04 07:10:27.217399	77.6	45.6	-65.8	0.0
2026-01-04 07:10:29.452903	78.8	45.8	-66.4	0.0
2026-01-04 07:10:31.689421	80.0	46.1	-66.4	0.0
2026-01-04 07:10:33.934432	81.2	46.3	-66.0	0.0
2026-01-04 07:10:36.177946	82.4	46.5	-66.4	0.0
2026-01-04 07:10:38.421459	83.6	46.7	-67.5	0.0
2026-01-04 07:10:40.664973	84.9	46.9	-68.1	0.0
2026-01-04 07:10:42.908983	86.2	47.0	-67.7	0.0
2026-01-04 07:10:45.144486	87.4	47.2	-66.9	0.0
2026-01-04 07:10:47.377996	88.7	47.3	-67.8	0.0
2026-01-04 07:10:49.617509	90.0	47.5	-66.5	0.0
2026-01-04 07:10:51.861518	91.4	47.6	-68.2	0.0
2026-01-04 07:10:54.094524	92.7	47.6	-67.9	0.0
2026-01-04 07:10:56.327028	94.0	47.7	-67.7	0.0
2026-01-04 07:10:58.563036	95.3	47.8	-67.7	0.0
2026-01-04 07:11:00.797549	96.7	47.8	-68.2	0.0
2026-01-04 07:11:03.032060	98.0	47.8	-67.0	0.0
2026-01-04 07:11:05.267578	99.3	47.8	-67.2	0.0
2026-01-04 07:11:07.501089	100.7	47.8	-68.0	0.0
2026-01-04 07:11:09.735104	102.0	47.8	-68.2	0.0
2026-01-04 07:11:11.969614	103.4	47.8	-68.2	0.0
2026-01-04 07:11:14.205126	104.7	47.7	-68.7	0.0
2026-01-04 07:11:16.437637	106.0	47.6	-68.4	0.0
2026-01-04 07:11:18.674654	107.3	47.5	-68.4	0.0
2026-01-04 07:11:20.907156	108.6	47.4	-68.6	0.0
2026-01-04 07:11:23.142172	109.9	47.3	-69.1	0.0
2026-01-04 07:11:25.374683	111.2	47.2	-68.5	0.0
2026-01-04 07:11:27.608698	112.5	47.0	-69.0	0.0
2026-01-04 07:11:29.845209	113.8	46.8	-69.5	0.0
2026-01-04 07:11:32.079217	115.0	46.7	-69.2	0.0
2026-01-04 07:11:34.311720	116.3	46.5	-67.8	0.0
2026-01-04 07:11:36.541742	117.5	46.3	-68.9	0.0
2026-01-04 07:11:38.774749	118.7	46.0	-68.5	0.0
2026-01-04 07:11:41.013770	119.9	45.8	-69.1	0.0
2026-01-04 07:11:43.245777	121.1	45.6	-68.6	0.0
2026-01-04 07:11:45.476294	122.2	45.3	-68.3	0.0
2026-01-04 07:11:47.709797	123.3	45.0	-69.1	0.0
2026-01-04 07:11:49.946310	124.5	44.8	-67.8	0.0
2026-01-04 07:11:52.184318	125.5	44.5	-68.1	0.0
2026-01-04 07:11:54.428328	126.6	44.2	-67.2	0.0
2026-01-04 07:11:56.674833	127.7	43.9	-69.6	0.0
2026-01-04 07:11:58.921860	128.7	43.6	-69.5	0.0
2026-01-04 07:12:01.165384	129.7	43.2	-69.4	0.0
2026-01-04 07:12:03.409394	130.7	42.9	-69.8	0.0
2026-01-04 07:12:05.653402	131.7	42.6	-70.2	0.0
2026-01-04 07:12:07.894411	132.7	42.2	-69.3	0.0
2026-01-04 07:12:10.127419	133.6	41.9	-69.3	0.0
2026-01-04 07:12:12.356921	134.5	41.5	-68.5	0.0
2026-01-04 07:12:14.588431	135.4	41.2	-69.7	0.0
2026-01-04 07:12:16.820942	136.3	40.8	-70.1	0.0
2026-01-04 07:12:19.056950	137.2	40.5	-70.6	0.0
2026-01-04 07:12:21.287460	138.0	40.1	-69.3	0.0
2026-01-04 07:12:23.518962	138.8	39.7	-69.7	0.0
2026-01-04 07:12:25.751465	139.6	39.4	-70.6	0.0
2026-01-04 07:12:27.983967	140.4	39.0	-69.8	0.0
2026-01-04 07:12:30.219984	141.2	38.6	-70.0	0.0
2026-01-04 07:12:32.451503	141.9	38.2	-70.0	0.0
2026-01-04 07:12:34.684519	142.7	37.9	-70.0	0.0
2026-01-04 07:12:36.915031	143.4	37.5	-70.6	0.0
2026-01-04 07:12:39.146533	144.1	37.1	-70.3	0.0
2026-01-04 07:12:41.381558	144.8	36.7	-70.4	0.0
2026-01-04 07:12:43.613061	145.4	36.4	-70.1	0.0
2026-01-04 07:12:45.845572	146.1	36.0	-70.1	0.0
2026-01-04 07:12:48.076074	146.7	35.6	-70.1	0.0
2026-01-04 07:12:50.308577	147.3	35.2	-70.3	0.0
2026-01-04 07:12:52.547081	148.0	34.9	-69.9	0.0
2026-01-04 07:12:54.780097	148.6	34.5	-70.1	0.0
2026-01-04 07:12:57.011600	149.1	34.1	-69.9	0.0
2026-01-04 07:12:59.245607	149.7	33.7	-70.5	0.0
2026-01-04 07:13:01.483119	150.3	33.4	-70.7	0.0
2026-01-04 07:13:03.712629	150.8	33.0	-70.4	0.0
2026-01-04 07:13:05.945132	151.3	32.6	-70.6	0.0
2026-01-04 07:13:08.180636	151.9	32.3	-70.2	0.0
2026-01-04 07:13:10.421644	152.4	31.9	-70.6	0.0
2026-01-04 07:13:12.665158	152.9	31.5	-69.9	0.0
2026-01-04 07:13:14.908671	153.4	31.2	-69.7	0.0
2026-01-04 07:13:17.152681	153.9	30.8	-69.3	0.0
2026-01-04 07:13:19.395700	154.3	30.5	-69.6	1.3
2026-01-04 07:13:21.638718	154.8	30.1	-69.9	0.0
2026-01-04 07:13:23.882231	155.2	29.8	-70.1	0.8
2026-01-04 07:13:26.117742	155.7	29.4	-69.8	2.2
2026-01-04 07:13:28.349253	156.1	29.1	-69.6	2.3
2026-01-04 07:13:30.582259	156.5	28.7	-69.3	3.5
2026-01-04 07:13:32.819770	156.9	28.4	-69.5	4.2
2026-01-04 07:13:35.052282	157.3	28.0	-69.3	4.1
2026-01-04 07:13:37.287785	157.7	27.7	-68.8	4.5
2026-01-04 07:13:39.524288	158.1	27.4	-68.8	4.9
2026-01-04 07:13:41.762304	158.5	27.0	-68.8	6.0
2026-01-04 07:13:44.001833	158.9	26.7	-67.9	5.4
2026-01-04 07:13:46.234353	159.3	26.4	-68.5	6.8
2026-01-04 07:13:48.469865	159.6	26.1	-68.2	5.9
2026-01-04 07:13:50.705376	160.0	25.7	-68.5	6.3
2026-01-04 07:13:52.940392	160.3	25.4	-68.3	4.8
2026-01-04 07:13:55.174895	160.6	25.1	-68.5	6.0
2026-01-04 07:13:57.409911	161.0	24.8	-68.3	6.5
2026-01-04 07:13:59.646422	161.3	24.5	-68.3	6.6
2026-01-04 07:14:01.882430	161.6	24.2	-68.3	6.9
2026-01-04 07:14:04.118448	161.9	23.9	-68.4	7.0
2026-01-04 07:14:06.353970	162.2	23.6	-68.0	7.1
2026-01-04 07:14:08.591977	162.5	23.3	-67.9	7.4
2026-01-04 07:14:10.826480	162.8	23.0	-67.9	7.5
2026-01-04 07:14:13.059992	163.1	22.7	-67.9	7.8
2026-01-04 07:14:15.294503	163.4	22.4	-67.5	6.8
2026-01-04 07:14:17.530015	163.7	22.1	-67.8	8.1
2026-01-04 07:14:19.772024	164.0	21.8	-67.8	8.2
2026-01-04 07:14:22.008032	164.2	21.6	-67.8	7.5
2026-01-04 07:14:24.243048	164.5	21.3	-68.0	7.2
2026-01-04 07:14:26.481065	164.8	21.0	-67.7	7.3
2026-01-04 07:14:28.725579	165.0	20.7	-67.3	6.1
2026-01-04 07:14:30.968588	165.3	20.5	-67.8	7.4
2026-01-04 07:14:33.211606	165.5	20.2	-67.3	7.3
2026-01-04 07:14:35.460113	165.8	19.9	-67.5	7.4
2026-01-04 07:14:37.703627	166.0	19.7	-67.4	8.6
2026-01-04 07:14:39.945652	166.3	19.4	-67.3	8.7
2026-01-04 07:14:42.187677	166.5	19.1	-67.4	8.8
2026-01-04 07:14:44.425181	166.7	18.9	-67.3	7.8
2026-01-04 07:14:46.659197	166.9	18.6	-67.4	8.1
2026-01-04 07:14:48.896205	167.2	18.4	-67.3	7.9
2026-01-04 07:14:51.135221	167.4	18.1	-67.2	7.9
2026-01-04 07:14:53.369741	167.6	17.9	-66.9	7.1
2026-01-04 07:14:55.604749	167.8	17.6	-66.4	6.2
2026-01-04 07:14:57.844261	168.0	17.4	-66.1	5.1
2026-01-04 07:15:00.081269	168.2	17.1	-66.3	5.9
2026-01-04 07:15:02.321773	168.4	16.9	-66.2	4.8
2026-01-04 07:15:04.558782	168.6	16.6	-66.1	5.8
2026-01-04 07:15:06.796790	168.8	16.4	-66.4	5.3
2026-01-04 07:15:09.029302	169.0	16.2	-66.0	5.1
2026-01-04 07:15:11.263317	169.2	15.9	-65.3	5.0
2026-01-04 07:15:13.500836	169.4	15.7	-65.9	5.3
2026-01-04 07:15:15.736348	169.6	15.5	-65.3	4.6
2026-01-04 07:15:17.973355	169.7	15.3	-65.9	4.6
2026-01-04 07:15:20.207371	169.9	15.0	-65.7	5.2
2026-01-04 07:15:22.448397	170.1	14.8	-66.2	5.1
2026-01-04 07:15:24.685405	170.3	14.6	-65.7	5.4
2026-01-04 07:15:26.919925	170.4	14.4	-65.6	4.7
2026-01-04 07:15:29.156933	170.6	14.1	-65.0	3.5
2026-01-04 07:15:31.391948	170.8	13.9	-65.6	5.7
2026-01-04 07:15:33.628460	170.9	13.7	-65.7	4.9
2026-01-04 07:15:35.867469	171.1	13.5	-65.6	5.7
2026-01-04 07:15:38.103485	171.3	13.3	-65.3	3.7
2026-01-04 07:15:40.339997	171.4	13.1	-65.1	4.9
2026-01-04 07:15:42.576004	171.6	12.9	-65.3	3.9
2026-01-04 07:15:44.820015	171.7	12.7	-65.1	4.0
2026-01-04 07:15:47.064024	171.9	12.5	-64.7	3.1
2026-01-04 07:15:49.307538	172.0	12.3	-65.3	4.7
2026-01-04 07:15:51.551548	172.2	12.1	-65.0	4.2
2026-01-04 07:15:53.795557	172.3	11.9	-64.8	3.6
2026-01-04 07:15:56.038575	172.5	11.7	-64.5	3.4
2026-01-04 07:15:58.285081	172.6	11.5	-65.0	3.0
2026-01-04 07:16:00.522089	172.8	11.3	-64.6	3.0
2026-01-04 07:16:02.759602	172.9	11.1	-65.0	3.0
2026-01-04 07:16:04.998114	173.0	10.9	-64.7	3.9
2026-01-04 07:16:07.233130	173.2	10.7	-64.7	2.9
2026-01-04 07:16:09.468634	173.3	10.5	-64.5	2.1
2026-01-04 07:16:11.702640	173.4	10.3	-64.1	2.1
2026-01-04 07:16:13.937144	173.6	10.1	-64.8	2.6
2026-01-04 07:16:16.171151	173.7	9.9	-64.6	1.8
2026-01-04 07:16:18.403174	173.8	9.7	-64.5	1.2
2026-01-04 07:16:20.637181	173.9	9.6	-64.3	0.6
2026-01-04 07:16:22.873190	174.1	9.4	-64.7	1.1
2026-01-04 07:16:25.104701	174.2	9.2	-64.6	1.3
2026-01-04 07:16:27.342213	174.3	9.0	-64.3	0.0
2026-01-04 07:16:29.575725	174.4	8.8	-64.1	1.6
2026-01-04 07:16:31.812741	174.5	8.7	-64.2	0.0
2026-01-04 07:16:34.045757	174.7	8.5	-64.1	0.0
2026-01-04 07:16:36.278269	174.8	8.3	-64.3	0.0
2026-01-04 07:16:38.509298	174.9	8.1	-63.9	0.4
2026-01-04 07:16:40.742304	175.0	8.0	-63.9	0.0
2026-01-04 07:16:42.977312	175.1	7.8	-63.8	0.0
2026-01-04 07:16:45.212320	175.2	7.6	-63.8	0.0
2026-01-04 07:16:47.446335	175.3	7.5	-63.9	0.0
2026-01-04 07:16:49.681342	175.4	7.3	-63.5	0.0
2026-01-04 07:16:51.912853	175.5	7.1	-63.7	0.0
2026-01-04 07:16:54.147860	175.7	6.9	-63.5	0.0
2026-01-04 07:16:56.379371	175.8	6.8	-63.4	0.0
2026-01-04 07:16:58.619883	175.9	6.6	-63.4	0.0
2026-01-04 07:17:00.852387	176.0	6.5	-63.4	0.0
2026-01-04 07:17:03.085898	176.1	6.3	-63.2	0.0
2026-01-04 07:17:05.320904	176.2	6.1	-63.1	0.0
2026-01-04 07:17:07.564418	176.3	6.0	-65.4	4.7
2026-01-04 07:17:09.807443	176.4	5.8	-70.0	0.0
2026-01-04 07:17:12.049966	176.5	5.6	-71.4	0.0
2026-01-04 07:17:14.292992	176.6	5.5	-70.8	0.0
2026-01-04 07:17:16.536505	176.7	5.3	-72.1	0.0
2026-01-04 07:17:18.779523	176.7	5.2	-72.4	0.0
2026-01-04 07:17:21.019532	176.8	5.0	-72.4	0.0
#Closed at: 2026-01-04 07:04:40.204879