passes_logs/2026/01/04/PlanumMoscow/PlanumMoscow__20260104_080304_METEOR-M2_3_rec.log

#Pass ID: 20260104_080304_METEOR-M2 3
#Satellite: METEOR-M2 3
#Configuration: METEOR-M2 3
#Start time: 2026-01-04 08:03:09.919085

#LorettStation: 1.0.0 05.05.2024
#Station: PlanumMoscow
#Location: 37.6253844 lon 55.6713361 lat
#TLE: 1 57166U 23091A   25293.99389264  .00000062  00000+0  46113-4 0  9997
#TLE: 2 57166  98.6457 348.4330 0004759 135.3141 224.8422 14.24016546120475

#Time	Az	El	Level	SNR
2026-01-04 08:06:48.890049	358.6	28.0	-61.8	9.2
2026-01-04 08:06:51.134563	358.3	28.3	-62.2	8.5
2026-01-04 08:06:53.379573	357.9	28.7	-62.0	9.0
2026-01-04 08:06:55.621104	357.6	29.1	-62.6	10.1
2026-01-04 08:06:57.863626	357.3	29.4	-61.4	9.1
2026-01-04 08:07:00.104650	356.9	29.8	-62.4	9.2
2026-01-04 08:07:02.347155	356.6	30.2	-62.2	10.8
2026-01-04 08:07:04.590669	356.2	30.6	-62.4	10.3
2026-01-04 08:07:06.834184	355.8	31.0	-62.5	10.3
2026-01-04 08:07:09.073192	355.4	31.4	-62.8	11.1
2026-01-04 08:07:11.309696	355.1	31.8	-63.5	11.3
2026-01-04 08:07:13.548705	354.6	32.2	-63.2	10.7
2026-01-04 08:07:15.791210	354.2	32.6	-62.7	10.4
2026-01-04 08:07:18.031227	353.8	33.0	-62.9	10.0
2026-01-04 08:07:20.266739	353.4	33.4	-62.9	11.6
2026-01-04 08:07:22.510757	352.9	33.8	-63.7	11.7
2026-01-04 08:07:24.745764	352.5	34.3	-63.0	10.8
2026-01-04 08:07:26.982276	352.0	34.7	-63.1	9.6
2026-01-04 08:07:29.217797	351.5	35.1	-63.2	10.5
2026-01-04 08:07:31.461807	351.0	35.5	-64.0	11.0
2026-01-04 08:07:33.704816	350.5	36.0	-64.1	12.1
2026-01-04 08:07:35.944834	350.0	36.4	-64.0	10.9
2026-01-04 08:07:38.185843	349.5	36.9	-62.8	9.2
2026-01-04 08:07:40.427356	348.9	37.3	-63.9	10.7
2026-01-04 08:07:42.666373	348.3	37.8	-64.4	10.5
2026-01-04 08:07:44.908878	347.7	38.2	-64.6	10.7
2026-01-04 08:07:47.149383	347.1	38.7	-64.8	11.0
2026-01-04 08:07:49.386896	346.5	39.1	-64.6	10.7
2026-01-04 08:07:51.625913	345.9	39.6	-64.6	10.2
2026-01-04 08:07:53.867923	345.2	40.0	-64.7	10.9
2026-01-04 08:07:56.105947	344.6	40.5	-64.6	10.6
2026-01-04 08:07:58.343451	343.9	41.0	-64.9	11.2
2026-01-04 08:08:00.583468	343.1	41.4	-64.4	11.0
2026-01-04 08:08:02.824987	342.4	41.9	-64.9	12.5
2026-01-04 08:08:05.064514	341.6	42.4	-65.0	12.9
2026-01-04 08:08:07.303037	340.9	42.8	-64.9	12.2
2026-01-04 08:08:09.544542	340.1	43.3	-65.2	12.1
2026-01-04 08:08:11.784064	339.2	43.8	-65.2	12.9
2026-01-04 08:08:14.028083	338.4	44.2	-65.3	12.9
2026-01-04 08:08:16.273093	337.5	44.7	-65.4	12.7
2026-01-04 08:08:18.520112	336.6	45.2	-65.3	12.0
2026-01-04 08:08:20.763627	335.7	45.6	-65.3	13.1
2026-01-04 08:08:23.007141	334.7	46.1	-65.6	13.0
2026-01-04 08:08:25.250160	333.7	46.5	-65.5	12.8
2026-01-04 08:08:27.491674	332.7	47.0	-65.8	12.9
2026-01-04 08:08:29.730691	331.6	47.4	-66.0	13.3
2026-01-04 08:08:31.972205	330.6	47.8	-66.0	11.6
2026-01-04 08:08:34.209717	329.5	48.3	-65.4	11.2
2026-01-04 08:08:36.448221	328.3	48.7	-65.7	10.1
2026-01-04 08:08:38.685734	327.2	49.1	-65.3	11.9
2026-01-04 08:08:40.926239	326.0	49.5	-66.2	13.0
2026-01-04 08:08:43.164752	324.7	49.9	-66.3	11.8
2026-01-04 08:08:45.401264	323.5	50.3	-66.4	12.4
2026-01-04 08:08:47.639777	322.2	50.6	-66.6	12.4
2026-01-04 08:08:49.880282	320.8	51.0	-66.2	12.3
2026-01-04 08:08:52.123292	319.5	51.3	-66.0	12.1
2026-01-04 08:08:54.364796	318.1	51.6	-65.9	12.3
2026-01-04 08:08:56.605309	316.7	51.9	-66.3	11.7
2026-01-04 08:08:58.844833	315.2	52.2	-66.4	12.1
2026-01-04 08:09:01.085851	313.8	52.5	-66.0	11.1
2026-01-04 08:09:03.322868	312.3	52.8	-66.3	12.0
2026-01-04 08:09:05.561381	310.7	53.0	-66.2	11.6
2026-01-04 08:09:07.802390	309.2	53.2	-65.9	12.0
2026-01-04 08:09:10.042400	307.6	53.4	-66.3	12.1
2026-01-04 08:09:12.278912	306.0	53.6	-65.7	12.2
2026-01-04 08:09:14.515456	304.4	53.7	-66.0	11.8
2026-01-04 08:09:16.751968	302.8	53.9	-66.1	11.2
2026-01-04 08:09:18.991994	301.1	54.0	-65.9	11.3
2026-01-04 08:09:21.233004	299.5	54.1	-66.2	11.9
2026-01-04 08:09:23.472508	297.8	54.1	-66.2	12.1
2026-01-04 08:09:25.711516	296.2	54.1	-66.5	12.0
2026-01-04 08:09:27.950542	294.5	54.2	-66.1	11.0
2026-01-04 08:09:30.189561	292.8	54.1	-65.8	11.0
2026-01-04 08:09:32.428570	291.1	54.1	-66.5	12.2
2026-01-04 08:09:34.667102	289.5	54.0	-66.4	11.9
2026-01-04 08:09:36.909111	287.8	53.9	-66.5	10.2
2026-01-04 08:09:39.153120	286.2	53.8	-66.2	11.4
2026-01-04 08:09:41.396644	284.6	53.7	-66.1	11.1
2026-01-04 08:09:43.640157	283.0	53.5	-66.4	10.6
2026-01-04 08:09:45.884168	281.4	53.4	-66.3	9.4
2026-01-04 08:09:48.125682	279.8	53.2	-66.9	11.2
2026-01-04 08:09:50.368708	278.2	52.9	-66.4	10.6
2026-01-04 08:09:52.610230	276.7	52.7	-65.8	10.3
2026-01-04 08:09:54.852240	275.2	52.4	-66.3	11.8
2026-01-04 08:09:57.088247	273.8	52.1	-66.2	11.1
2026-01-04 08:09:59.324760	272.3	51.8	-65.8	10.6
2026-01-04 08:10:01.561272	270.9	51.5	-65.0	9.6
2026-01-04 08:10:03.800785	269.5	51.2	-66.1	10.9
2026-01-04 08:10:06.037297	268.2	50.9	-64.6	9.1
2026-01-04 08:10:08.274306	266.9	50.5	-65.8	9.8
2026-01-04 08:10:10.514819	265.6	50.1	-66.3	9.7
2026-01-04 08:10:12.754342	264.3	49.7	-65.8	9.0
2026-01-04 08:10:14.990349	263.1	49.3	-65.5	9.8
2026-01-04 08:10:17.230854	261.9	48.9	-64.7	8.6
2026-01-04 08:10:19.473882	260.7	48.5	-64.5	9.0
2026-01-04 08:10:21.712394	259.6	48.1	-64.6	9.0
2026-01-04 08:10:23.952908	258.5	47.7	-65.0	10.2
2026-01-04 08:10:26.195926	257.4	47.2	-65.2	11.1
2026-01-04 08:10:28.435439	256.4	46.8	-64.5	10.2
2026-01-04 08:10:30.676944	255.4	46.4	-64.6	10.5
2026-01-04 08:10:32.918466	254.4	45.9	-63.9	8.6
2026-01-04 08:10:35.158988	253.5	45.4	-61.9	5.5
2026-01-04 08:10:37.396500	252.5	45.0	-64.5	10.0
2026-01-04 08:10:39.635014	251.6	44.5	-64.5	9.2
2026-01-04 08:10:41.875031	250.8	44.1	-64.2	8.3
2026-01-04 08:10:44.111038	249.9	43.6	-63.8	9.3
2026-01-04 08:10:46.348542	249.1	43.1	-61.7	6.3
2026-01-04 08:10:48.588047	248.3	42.7	-63.2	9.1
2026-01-04 08:10:50.831056	247.5	42.2	-62.1	7.5
2026-01-04 08:10:53.072578	246.8	41.7	-62.3	7.8
2026-01-04 08:10:55.316092	246.0	41.2	-62.2	6.4
2026-01-04 08:10:57.560102	245.3	40.8	-63.7	9.1
2026-01-04 08:10:59.806121	244.6	40.3	-62.8	7.0
2026-01-04 08:11:02.050626	243.9	39.8	-64.1	9.1
2026-01-04 08:11:04.294644	243.3	39.4	-62.6	4.9
2026-01-04 08:11:06.538654	242.7	38.9	-63.6	7.7
2026-01-04 08:11:08.781174	242.0	38.5	-61.2	6.8
2026-01-04 08:11:11.017697	241.4	38.0	-60.8	5.8
2026-01-04 08:11:13.259202	240.9	37.6	-62.6	7.7
2026-01-04 08:11:15.498723	240.3	37.1	-63.0	8.4
2026-01-04 08:11:17.736227	239.7	36.7	-62.5	7.9
2026-01-04 08:11:19.974243	239.2	36.2	-62.0	7.7
2026-01-04 08:11:22.212252	238.7	35.8	-62.7	8.6
2026-01-04 08:11:24.450764	238.2	35.3	-62.9	8.3
2026-01-04 08:11:26.690278	237.7	34.9	-63.1	8.1
2026-01-04 08:11:28.929806	237.2	34.5	-62.9	7.6
2026-01-04 08:11:31.166342	236.7	34.0	-62.7	8.3
2026-01-04 08:11:33.406874	236.3	33.6	-63.1	8.7
2026-01-04 08:11:35.646892	235.8	33.2	-60.2	5.0
2026-01-04 08:11:37.886405	235.4	32.8	-63.0	6.6
2026-01-04 08:11:40.125928	235.0	32.4	-62.0	6.8
2026-01-04 08:11:42.364441	234.6	32.0	-62.3	8.6
2026-01-04 08:11:44.604962	234.2	31.6	-63.5	9.4
2026-01-04 08:11:46.846467	233.8	31.2	-63.5	8.2
2026-01-04 08:11:49.085475	233.4	30.8	-63.1	9.1
2026-01-04 08:11:51.326989	233.0	30.4	-62.2	6.7
2026-01-04 08:11:53.565007	232.7	30.0	-62.0	7.5
2026-01-04 08:11:55.803024	232.3	29.6	-63.5	7.9
2026-01-04 08:11:58.042033	232.0	29.2	-63.8	8.7
2026-01-04 08:12:00.278546	231.6	28.8	-63.5	10.0
2026-01-04 08:12:02.515067	231.3	28.5	-63.8	9.1
2026-01-04 08:12:04.755084	231.0	28.1	-63.5	7.0
2026-01-04 08:12:06.993093	230.7	27.7	-62.7	9.0
2026-01-04 08:12:09.233616	230.3	27.4	-62.9	8.4
2026-01-04 08:12:11.469128	230.0	27.0	-63.2	9.2
2026-01-04 08:12:13.710650	229.8	26.7	-63.4	9.0
2026-01-04 08:12:15.949171	229.5	26.3	-63.5	10.9
2026-01-04 08:12:18.185179	229.2	26.0	-63.8	9.9
2026-01-04 08:12:20.427684	228.9	25.6	-64.0	10.5
2026-01-04 08:12:22.671694	228.6	25.3	-64.0	9.6
2026-01-04 08:12:24.918218	228.4	25.0	-63.6	10.4
2026-01-04 08:12:27.161236	228.1	24.6	-63.4	7.8
2026-01-04 08:12:29.405741	227.9	24.3	-63.5	10.3
2026-01-04 08:12:31.649256	227.6	24.0	-63.4	10.2
2026-01-04 08:12:33.893284	227.4	23.7	-63.1	9.7
2026-01-04 08:12:36.136807	227.1	23.3	-62.9	8.0
2026-01-04 08:12:38.377311	226.9	23.0	-63.2	9.4
2026-01-04 08:12:40.617825	226.7	22.7	-64.0	9.2
2026-01-04 08:12:42.857834	226.5	22.4	-63.8	10.3
2026-01-04 08:12:45.093842	226.2	22.1	-64.4	10.3
2026-01-04 08:12:47.329353	226.0	21.8	-63.5	8.3
2026-01-04 08:12:49.564865	225.8	21.5	-63.9	9.4
2026-01-04 08:12:51.802882	225.6	21.2	-63.5	9.0
2026-01-04 08:12:54.041386	225.4	20.9	-64.2	9.0
2026-01-04 08:12:56.276907	225.2	20.6	-62.5	9.3
2026-01-04 08:12:58.512925	225.0	20.3	-64.6	10.5
2026-01-04 08:13:00.751438	224.8	20.1	-63.9	9.1
2026-01-04 08:13:02.986455	224.6	19.8	-64.2	10.7
2026-01-04 08:13:05.225463	224.5	19.5	-64.3	9.6
2026-01-04 08:13:07.463489	224.3	19.2	-64.6	10.0
2026-01-04 08:13:09.697505	224.1	19.0	-64.9	9.9
2026-01-04 08:13:11.934009	223.9	18.7	-64.8	11.3
2026-01-04 08:13:14.170521	223.8	18.4	-64.9	10.5
2026-01-04 08:13:16.407539	223.6	18.2	-64.8	10.6
2026-01-04 08:13:18.644043	223.4	17.9	-65.0	11.2
2026-01-04 08:13:20.882060	223.3	17.6	-65.1	11.0
2026-01-04 08:13:23.118573	223.1	17.4	-64.7	10.2
2026-01-04 08:13:25.356084	223.0	17.1	-65.2	11.6
2026-01-04 08:13:27.594093	222.8	16.9	-65.0	11.4
2026-01-04 08:13:29.831110	222.7	16.6	-64.2	9.1
2026-01-04 08:13:32.073120	222.5	16.4	-65.5	10.5
2026-01-04 08:13:34.315139	222.4	16.1	-65.1	10.6
2026-01-04 08:13:36.550652	222.2	15.9	-65.8	11.3
2026-01-04 08:13:38.789678	222.1	15.7	-65.0	10.7
2026-01-04 08:13:41.028183	221.9	15.4	-65.7	9.8
2026-01-04 08:13:43.267696	221.8	15.2	-65.9	9.5
2026-01-04 08:13:45.505200	221.7	15.0	-64.8	9.8
2026-01-04 08:13:47.747209	221.5	14.7	-65.4	11.1
2026-01-04 08:13:49.990739	221.4	14.5	-65.1	10.1
2026-01-04 08:13:52.233757	221.3	14.3	-65.3	9.9
2026-01-04 08:13:54.477271	221.2	14.0	-66.3	10.9
2026-01-04 08:13:56.720785	221.0	13.8	-66.5	10.7
2026-01-04 08:13:58.963299	220.9	13.6	-66.4	10.3
2026-01-04 08:14:01.203812	220.8	13.4	-66.6	11.3
2026-01-04 08:14:03.447823	220.7	13.2	-66.5	10.7
2026-01-04 08:14:05.688841	220.6	12.9	-66.5	10.2
2026-01-04 08:14:07.926353	220.4	12.7	-66.7	10.7
2026-01-04 08:14:10.162865	220.3	12.5	-66.5	11.0
2026-01-04 08:14:12.397369	220.2	12.3	-66.7	10.3
2026-01-04 08:14:14.636378	220.1	12.1	-66.7	10.1
2026-01-04 08:14:16.877387	220.0	11.9	-66.9	11.0
2026-01-04 08:14:19.115891	219.9	11.7	-67.0	10.8
2026-01-04 08:14:21.356908	219.8	11.5	-66.7	10.7
2026-01-04 08:14:23.594916	219.7	11.3	-67.0	10.0
2026-01-04 08:14:25.837935	219.6	11.1	-66.9	11.3
2026-01-04 08:14:28.074448	219.5	10.9	-67.2	10.9
2026-01-04 08:14:30.311978	219.4	10.7	-66.8	11.2
2026-01-04 08:14:32.550491	219.3	10.5	-66.8	10.0
2026-01-04 08:14:34.790996	219.2	10.3	-66.7	9.9
2026-01-04 08:14:37.028004	219.1	10.1	-66.6	10.1
2026-01-04 08:14:39.267013	219.0	9.9	-66.6	9.8
2026-01-04 08:14:41.506029	218.9	9.7	-67.1	9.8
2026-01-04 08:14:43.749552	218.8	9.5	-66.6	8.9
2026-01-04 08:14:45.986570	218.7	9.3	-66.9	9.8
2026-01-04 08:14:48.223578	218.6	9.2	-66.7	10.0
2026-01-04 08:14:50.464091	218.6	9.0	-66.9	9.4
2026-01-04 08:14:52.699604	218.5	8.8	-66.7	10.0
2026-01-04 08:14:54.934612	218.4	8.6	-66.0	9.2
2026-01-04 08:14:57.171124	218.3	8.4	-66.7	9.8
2026-01-04 08:14:59.407637	218.2	8.2	-67.2	10.0
2026-01-04 08:15:01.647664	218.1	8.1	-67.3	9.8
2026-01-04 08:15:03.886168	218.1	7.9	-67.3	10.2
2026-01-04 08:15:06.124680	218.0	7.7	-67.6	10.2
2026-01-04 08:15:08.360689	217.9	7.5	-67.4	10.3
2026-01-04 08:15:10.601698	217.8	7.4	-67.5	10.2
2026-01-04 08:15:12.845708	217.8	7.2	-67.0	9.3
2026-01-04 08:15:15.089718	217.7	7.0	-66.0	7.4
2026-01-04 08:15:17.333728	217.6	6.8	-65.9	6.7
2026-01-04 08:15:19.577251	217.5	6.7	-65.4	6.9
2026-01-04 08:15:21.820765	217.5	6.5	-65.5	6.5
2026-01-04 08:15:24.063774	217.4	6.3	-65.6	7.6
2026-01-04 08:15:26.306296	217.3	6.2	-65.3	6.7
2026-01-04 08:15:28.542818	217.2	6.0	-66.8	6.9
2026-01-04 08:15:30.777321	217.2	5.8	-69.2	0.0
2026-01-04 08:15:33.012338	217.1	5.7	-68.9	0.0
2026-01-04 08:15:35.247841	217.0	5.5	-69.7	0.0
2026-01-04 08:15:37.480871	217.0	5.4	-72.1	0.0
2026-01-04 08:15:39.715879	216.9	5.2	-72.6	0.0
2026-01-04 08:15:41.955392	216.8	5.0	-71.6	0.0
#Closed at: 2026-01-04 08:03:04.919997