passes_logs/2026/01/04/PlanumMoscow/PlanumMoscow__20260104_003408_METEOR-M2_4_rec.log

#Pass ID: 20260104_003408_METEOR-M2 4
#Satellite: METEOR-M2 4
#Configuration: METEOR-M2 4
#Start time: 2026-01-04 00:34:13.586516

#LorettStation: 1.0.0 05.05.2024
#Station: PlanumMoscow
#Location: 37.6253844 lon 55.6713361 lat
#TLE: 1 59051U 24039A   25293.94737965  .00000087  00000+0  58459-4 0  9998
#TLE: 2 59051  98.6671 251.7071 0007726 135.4772 224.7028 14.22388966 85257

#Time	Az	El	Level	SNR
2026-01-04 00:37:52.036927	32.1	27.9	-63.0	10.4
2026-01-04 00:37:54.273942	32.4	28.3	-63.5	10.6
2026-01-04 00:37:56.510990	32.7	28.7	-63.4	10.6
2026-01-04 00:37:58.752549	32.9	29.1	-63.0	10.9
2026-01-04 00:38:00.991558	33.2	29.4	-63.2	10.6
2026-01-04 00:38:03.229575	33.5	29.8	-63.4	10.0
2026-01-04 00:38:05.470080	33.8	30.2	-63.3	10.0
2026-01-04 00:38:07.710097	34.1	30.6	-63.1	10.7
2026-01-04 00:38:09.950602	34.4	31.0	-62.9	10.4
2026-01-04 00:38:12.192107	34.8	31.4	-63.4	10.3
2026-01-04 00:38:14.434628	35.1	31.9	-63.0	9.6
2026-01-04 00:38:16.678638	35.4	32.3	-63.4	9.9
2026-01-04 00:38:18.922152	35.8	32.7	-62.6	9.5
2026-01-04 00:38:21.166161	36.2	33.1	-63.2	9.8
2026-01-04 00:38:23.408682	36.5	33.6	-63.3	9.9
2026-01-04 00:38:25.650701	36.9	34.0	-63.4	9.9
2026-01-04 00:38:27.894230	37.3	34.4	-63.0	10.1
2026-01-04 00:38:30.132743	37.7	34.9	-62.4	8.2
2026-01-04 00:38:32.372752	38.1	35.3	-63.1	10.2
2026-01-04 00:38:34.613256	38.5	35.8	-62.3	9.2
2026-01-04 00:38:36.853265	39.0	36.3	-63.1	9.6
2026-01-04 00:38:39.099284	39.4	36.7	-61.6	7.9
2026-01-04 00:38:41.338293	39.9	37.2	-62.9	9.5
2026-01-04 00:38:43.577310	40.3	37.7	-60.4	4.9
2026-01-04 00:38:45.818319	40.8	38.2	-62.2	9.6
2026-01-04 00:38:48.057838	41.3	38.6	-62.5	8.3
2026-01-04 00:38:50.296350	41.8	39.1	-63.3	9.2
2026-01-04 00:38:52.538359	42.4	39.6	-63.4	9.7
2026-01-04 00:38:54.779368	42.9	40.1	-62.8	9.0
2026-01-04 00:38:57.021899	43.5	40.6	-63.0	8.6
2026-01-04 00:38:59.262917	44.1	41.1	-63.0	8.4
2026-01-04 00:39:01.501934	44.7	41.7	-62.7	8.5
2026-01-04 00:39:03.741447	45.3	42.2	-62.4	8.4
2026-01-04 00:39:05.980472	45.9	42.7	-62.9	8.4
2026-01-04 00:39:08.222481	46.6	43.2	-61.9	6.6
2026-01-04 00:39:10.465995	47.3	43.7	-62.4	9.4
2026-01-04 00:39:12.705004	48.0	44.3	-63.5	9.6
2026-01-04 00:39:14.946013	48.7	44.8	-63.0	8.4
2026-01-04 00:39:17.187031	49.4	45.3	-62.1	8.7
2026-01-04 00:39:19.426040	50.2	45.9	-62.6	7.1
2026-01-04 00:39:21.664552	51.0	46.4	-63.1	6.7
2026-01-04 00:39:23.903073	51.9	46.9	-63.1	7.6
2026-01-04 00:39:26.140586	52.7	47.5	-63.6	7.4
2026-01-04 00:39:28.381099	53.6	48.0	-63.2	6.1
2026-01-04 00:39:30.623612	54.5	48.5	-63.9	7.2
2026-01-04 00:39:32.863125	55.5	49.1	-64.5	7.4
2026-01-04 00:39:35.101638	56.5	49.6	-64.4	7.8
2026-01-04 00:39:37.342150	57.5	50.1	-64.3	8.1
2026-01-04 00:39:39.588161	58.5	50.7	-62.3	5.0
2026-01-04 00:39:41.832170	59.6	51.2	-65.1	8.8
2026-01-04 00:39:44.075683	60.8	51.7	-62.2	5.2
2026-01-04 00:39:46.319693	62.0	52.2	-65.5	9.8
2026-01-04 00:39:48.563703	63.2	52.7	-65.8	9.0
2026-01-04 00:39:50.807720	64.4	53.2	-66.1	9.4
2026-01-04 00:39:53.051235	65.7	53.7	-66.2	9.1
2026-01-04 00:39:55.294758	67.1	54.2	-66.3	9.0
2026-01-04 00:39:57.535263	68.5	54.6	-66.5	9.1
2026-01-04 00:39:59.776327	69.9	55.1	-64.9	7.6
2026-01-04 00:40:02.013351	71.4	55.5	-67.1	9.4
2026-01-04 00:40:04.251360	72.9	56.0	-65.0	5.1
2026-01-04 00:40:06.487920	74.5	56.4	-66.4	7.5
2026-01-04 00:40:08.724945	76.1	56.7	-65.8	7.7
2026-01-04 00:40:10.961969	77.7	57.1	-67.0	9.4
2026-01-04 00:40:13.197977	79.4	57.4	-66.2	9.7
2026-01-04 00:40:15.437986	81.2	57.8	-66.5	9.2
2026-01-04 00:40:17.677499	82.9	58.1	-66.5	10.1
2026-01-04 00:40:19.918508	84.8	58.3	-66.7	8.3
2026-01-04 00:40:22.156012	86.6	58.6	-67.0	10.2
2026-01-04 00:40:24.392542	88.5	58.8	-66.9	9.2
2026-01-04 00:40:26.629046	90.4	59.0	-67.2	9.7
2026-01-04 00:40:28.867062	92.4	59.2	-67.2	9.1
2026-01-04 00:40:31.106575	94.3	59.3	-66.8	9.2
2026-01-04 00:40:33.348119	96.3	59.4	-67.2	9.5
2026-01-04 00:40:35.585117	98.3	59.5	-67.1	9.6
2026-01-04 00:40:37.823622	100.3	59.5	-67.3	9.3
2026-01-04 00:40:40.059630	102.3	59.5	-67.3	10.0
2026-01-04 00:40:42.298143	104.4	59.5	-67.8	10.2
2026-01-04 00:40:44.532654	106.4	59.5	-67.2	9.2
2026-01-04 00:40:46.769670	108.3	59.4	-67.7	10.0
2026-01-04 00:40:49.006678	110.3	59.3	-67.5	9.6
2026-01-04 00:40:51.243199	112.3	59.1	-68.0	9.9
2026-01-04 00:40:53.481703	114.2	58.9	-67.4	10.6
2026-01-04 00:40:55.720215	116.1	58.7	-67.3	10.4
2026-01-04 00:40:57.959728	118.0	58.5	-67.2	11.1
2026-01-04 00:41:00.193744	119.9	58.2	-67.6	9.9
2026-01-04 00:41:02.435249	121.7	58.0	-67.5	10.2
2026-01-04 00:41:04.676266	123.4	57.6	-67.6	9.7
2026-01-04 00:41:06.916778	125.2	57.3	-68.1	10.0
2026-01-04 00:41:09.155291	126.8	57.0	-68.2	9.2
2026-01-04 00:41:11.397813	128.5	56.6	-67.9	9.8
2026-01-04 00:41:13.640342	130.1	56.2	-67.8	8.3
2026-01-04 00:41:15.883361	131.6	55.8	-67.1	7.9
2026-01-04 00:41:18.126378	133.2	55.3	-68.1	10.7
2026-01-04 00:41:20.369900	134.6	54.9	-67.8	10.1
2026-01-04 00:41:22.614919	136.0	54.4	-68.0	10.4
2026-01-04 00:41:24.857432	137.4	54.0	-68.0	10.6
2026-01-04 00:41:27.096441	138.7	53.5	-67.9	10.6
2026-01-04 00:41:29.333449	140.0	53.0	-68.3	10.9
2026-01-04 00:41:31.573458	141.3	52.5	-68.4	10.7
2026-01-04 00:41:33.813979	142.5	52.0	-68.1	10.5
2026-01-04 00:41:36.050492	143.6	51.5	-68.4	10.2
2026-01-04 00:41:38.289997	144.7	51.0	-68.3	10.9
2026-01-04 00:41:40.530021	145.8	50.4	-68.0	11.4
2026-01-04 00:41:42.769037	146.9	49.9	-68.2	11.7
2026-01-04 00:41:45.009062	147.9	49.4	-68.1	11.7
2026-01-04 00:41:47.248071	148.8	48.8	-68.1	11.8
2026-01-04 00:41:49.483584	149.8	48.3	-67.6	12.1
2026-01-04 00:41:51.725098	150.7	47.8	-67.6	13.0
2026-01-04 00:41:53.963602	151.6	47.2	-67.6	12.9
2026-01-04 00:41:56.203114	152.4	46.7	-67.4	13.5
2026-01-04 00:41:58.440122	153.3	46.1	-67.4	12.9
2026-01-04 00:42:00.679147	154.0	45.6	-67.5	12.8
2026-01-04 00:42:02.919660	154.8	45.1	-67.3	12.9
2026-01-04 00:42:05.165174	155.6	44.5	-67.0	13.1
2026-01-04 00:42:07.401695	156.3	44.0	-67.5	13.3
2026-01-04 00:42:09.637703	157.0	43.5	-67.2	13.0
2026-01-04 00:42:11.875215	157.6	42.9	-67.2	12.7
2026-01-04 00:42:14.115232	158.3	42.4	-67.3	13.2
2026-01-04 00:42:16.353752	158.9	41.9	-67.4	12.5
2026-01-04 00:42:18.592778	159.5	41.4	-67.4	12.9
2026-01-04 00:42:20.831797	160.1	40.9	-67.3	12.3
2026-01-04 00:42:23.071301	160.7	40.3	-67.5	13.1
2026-01-04 00:42:25.307823	161.3	39.8	-67.2	12.8
2026-01-04 00:42:27.546840	161.8	39.3	-67.2	13.1
2026-01-04 00:42:29.790354	162.3	38.8	-67.2	13.1
2026-01-04 00:42:32.037381	162.8	38.3	-67.2	13.6
2026-01-04 00:42:34.280902	163.3	37.9	-67.2	13.6
2026-01-04 00:42:36.524912	163.8	37.4	-67.0	13.8
2026-01-04 00:42:38.769427	164.3	36.9	-67.0	13.6
2026-01-04 00:42:41.012941	164.7	36.4	-67.0	13.5
2026-01-04 00:42:43.256455	165.2	36.0	-67.1	13.7
2026-01-04 00:42:45.497463	165.6	35.5	-66.7	14.0
2026-01-04 00:42:47.735480	166.0	35.0	-66.7	13.7
2026-01-04 00:42:49.972488	166.4	34.6	-66.8	14.0
2026-01-04 00:42:52.210496	166.8	34.1	-66.6	13.7
2026-01-04 00:42:54.453010	167.2	33.7	-66.4	14.2
2026-01-04 00:42:56.692027	167.6	33.3	-66.7	14.0
2026-01-04 00:42:58.932035	167.9	32.8	-66.5	13.6
2026-01-04 00:43:01.171573	168.3	32.4	-66.7	13.9
2026-01-04 00:43:03.413592	168.7	32.0	-66.5	13.4
2026-01-04 00:43:05.652600	169.0	31.6	-66.5	14.1
2026-01-04 00:43:07.892113	169.3	31.1	-66.3	14.1
2026-01-04 00:43:10.129635	169.6	30.7	-66.5	14.0
2026-01-04 00:43:12.367155	170.0	30.3	-66.5	14.2
2026-01-04 00:43:14.606163	170.3	29.9	-66.4	14.0
2026-01-04 00:43:16.844172	170.6	29.5	-66.1	14.1
2026-01-04 00:43:19.083180	170.9	29.1	-66.3	13.6
2026-01-04 00:43:21.320693	171.1	28.8	-66.3	13.9
2026-01-04 00:43:23.563710	171.4	28.4	-66.4	13.9
2026-01-04 00:43:25.802223	171.7	28.0	-66.0	13.6
2026-01-04 00:43:28.040727	172.0	27.6	-66.2	14.1
2026-01-04 00:43:30.279744	172.2	27.3	-66.2	13.4
2026-01-04 00:43:32.514256	172.5	26.9	-66.2	13.8
2026-01-04 00:43:34.752264	172.7	26.5	-66.2	13.8
2026-01-04 00:43:36.988776	173.0	26.2	-66.2	13.9
2026-01-04 00:43:39.226288	173.2	25.8	-66.0	13.6
2026-01-04 00:43:41.466811	173.4	25.5	-66.1	13.2
2026-01-04 00:43:43.703331	173.7	25.1	-66.2	12.9
2026-01-04 00:43:45.943348	173.9	24.8	-66.0	13.3
2026-01-04 00:43:48.186853	174.1	24.5	-65.9	13.2
2026-01-04 00:43:50.431864	174.3	24.1	-66.0	13.6
2026-01-04 00:43:52.675392	174.5	23.8	-66.2	13.4
2026-01-04 00:43:54.919402	174.7	23.5	-66.2	14.0
2026-01-04 00:43:57.162420	174.9	23.2	-66.2	13.7
2026-01-04 00:43:59.406925	175.1	22.9	-66.1	13.2
2026-01-04 00:44:01.650935	175.3	22.5	-66.3	13.6
2026-01-04 00:44:03.892945	175.5	22.2	-66.3	13.3
2026-01-04 00:44:06.131458	175.7	21.9	-66.5	12.8
2026-01-04 00:44:08.367473	175.9	21.6	-66.2	13.3
2026-01-04 00:44:10.606986	176.1	21.3	-66.2	12.6
2026-01-04 00:44:12.848500	176.3	21.0	-66.2	12.8
2026-01-04 00:44:15.090014	176.4	20.7	-66.4	12.4
2026-01-04 00:44:17.329031	176.6	20.4	-66.4	12.4
2026-01-04 00:44:19.570048	176.8	20.2	-66.1	12.6
2026-01-04 00:44:21.808057	176.9	19.9	-66.1	11.6
2026-01-04 00:44:24.047082	177.1	19.6	-66.1	12.9
2026-01-04 00:44:26.283585	177.3	19.3	-66.2	12.6
2026-01-04 00:44:28.521602	177.4	19.0	-66.3	12.4
2026-01-04 00:44:30.760628	177.6	18.8	-66.1	12.3
2026-01-04 00:44:32.998636	177.7	18.5	-65.9	12.0
2026-01-04 00:44:35.235644	177.9	18.2	-66.2	12.2
2026-01-04 00:44:37.475661	178.0	18.0	-66.1	11.7
2026-01-04 00:44:39.714678	178.2	17.7	-65.9	11.6
2026-01-04 00:44:41.958184	178.3	17.5	-66.0	11.3
2026-01-04 00:44:44.195688	178.4	17.2	-66.0	11.2
2026-01-04 00:44:46.433200	178.6	16.9	-65.9	11.3
2026-01-04 00:44:48.671721	178.7	16.7	-65.8	10.7
2026-01-04 00:44:50.912243	178.8	16.4	-65.6	11.3
2026-01-04 00:44:53.147754	179.0	16.2	-65.8	10.7
2026-01-04 00:44:55.386267	179.1	16.0	-65.6	9.9
2026-01-04 00:44:57.625276	179.2	15.7	-65.0	9.6
2026-01-04 00:44:59.864780	179.4	15.5	-65.4	9.9
2026-01-04 00:45:02.103798	179.5	15.2	-65.3	9.4
2026-01-04 00:45:04.346312	179.6	15.0	-65.3	9.0
2026-01-04 00:45:06.589878	179.7	14.8	-64.8	8.4
2026-01-04 00:45:08.833391	179.8	14.5	-64.7	9.0
2026-01-04 00:45:11.076905	180.0	14.3	-64.9	9.0
2026-01-04 00:45:13.318961	180.1	14.1	-64.3	7.7
2026-01-04 00:45:15.562475	180.2	13.9	-64.8	8.6
2026-01-04 00:45:17.804995	180.3	13.6	-64.2	7.1
2026-01-04 00:45:20.044508	180.4	13.4	-64.5	8.2
2026-01-04 00:45:22.284020	180.5	13.2	-64.7	7.2
2026-01-04 00:45:24.526051	180.6	13.0	-64.3	7.5
2026-01-04 00:45:26.768565	180.7	12.8	-64.5	8.0
2026-01-04 00:45:29.010070	180.8	12.6	-64.3	7.5
2026-01-04 00:45:31.252584	180.9	12.3	-64.3	7.0
2026-01-04 00:45:33.494601	181.0	12.1	-64.2	7.4
2026-01-04 00:45:35.735611	181.1	11.9	-64.3	6.9
2026-01-04 00:45:37.976123	181.2	11.7	-64.0	7.2
2026-01-04 00:45:40.218638	181.3	11.5	-64.0	6.5
2026-01-04 00:45:42.462152	181.4	11.3	-63.6	6.6
2026-01-04 00:45:44.703665	181.5	11.1	-63.8	6.4
2026-01-04 00:45:46.947674	181.6	10.9	-63.4	5.9
2026-01-04 00:45:49.187700	181.7	10.7	-63.5	6.1
2026-01-04 00:45:51.423212	181.8	10.5	-63.3	5.0
2026-01-04 00:45:53.662716	181.9	10.3	-63.2	5.1
2026-01-04 00:45:55.902228	182.0	10.1	-63.3	5.4
2026-01-04 00:45:58.145742	182.1	9.9	-63.2	5.3
2026-01-04 00:46:00.385768	182.2	9.7	-63.3	5.1
2026-01-04 00:46:02.625273	182.2	9.6	-65.2	8.1
2026-01-04 00:46:04.864777	182.3	9.4	-65.1	7.8
2026-01-04 00:46:07.101297	182.4	9.2	-65.5	7.5
2026-01-04 00:46:09.341315	182.5	9.0	-65.2	7.9
2026-01-04 00:46:11.578332	182.6	8.8	-66.5	9.1
2026-01-04 00:46:13.816854	182.7	8.6	-66.4	8.9
2026-01-04 00:46:16.052870	182.7	8.4	-66.4	9.3
2026-01-04 00:46:18.293383	182.8	8.3	-66.3	10.1
2026-01-04 00:46:20.536401	182.9	8.1	-66.4	9.4
2026-01-04 00:46:22.781923	183.0	7.9	-66.5	8.5
2026-01-04 00:46:25.025436	183.0	7.7	-66.5	9.0
2026-01-04 00:46:27.268951	183.1	7.6	-66.9	8.9
2026-01-04 00:46:29.512465	183.2	7.4	-67.0	8.3
2026-01-04 00:46:31.755980	183.3	7.2	-66.4	8.9
2026-01-04 00:46:33.998989	183.3	7.0	-66.6	9.6
2026-01-04 00:46:36.235013	183.4	6.9	-66.6	9.0
2026-01-04 00:46:38.475535	183.5	6.7	-66.6	8.4
2026-01-04 00:46:40.715040	183.6	6.5	-66.9	7.8
2026-01-04 00:46:42.954561	183.6	6.4	-66.6	6.5
2026-01-04 00:46:45.197570	183.7	6.2	-66.4	8.4
2026-01-04 00:46:47.440588	183.8	6.0	-66.7	8.7
2026-01-04 00:46:49.681110	183.8	5.9	-70.1	0.0
2026-01-04 00:46:51.918117	183.9	5.7	-71.9	0.0
2026-01-04 00:46:54.156126	184.0	5.5	-71.8	0.0
2026-01-04 00:46:56.392133	184.0	5.4	-72.4	0.0
2026-01-04 00:46:58.626637	184.1	5.2	-72.9	0.0
2026-01-04 00:47:00.863140	184.2	5.1	-72.3	0.0
#Closed at: 2026-01-04 00:34:08.587022