passes_logs/2026/01/04/PlanumMoscow/PlanumMoscow__20260104_102400_METEOR-M2_4_rec.log

#Pass ID: 20260104_102400_METEOR-M2 4
#Satellite: METEOR-M2 4
#Configuration: METEOR-M2 4
#Start time: 2026-01-04 10:24:05.188817

#LorettStation: 1.0.0 05.05.2024
#Station: PlanumMoscow
#Location: 37.6253844 lon 55.6713361 lat
#TLE: 1 59051U 24039A   25293.94737965  .00000087  00000+0  58459-4 0  9998
#TLE: 2 59051  98.6671 251.7071 0007726 135.4772 224.7028 14.22388966 85257

#Time	Az	El	Level	SNR
2026-01-04 10:27:43.639639	111.0	25.7	-64.2	11.9
2026-01-04 10:27:45.874151	110.6	26.0	-63.6	11.2
2026-01-04 10:27:48.109158	110.2	26.2	-64.0	14.2
2026-01-04 10:27:50.343671	109.7	26.5	-63.6	13.2
2026-01-04 10:27:52.577686	109.3	26.8	-64.4	13.7
2026-01-04 10:27:54.812694	108.8	27.1	-64.1	13.2
2026-01-04 10:27:57.049206	108.3	27.4	-64.4	14.8
2026-01-04 10:27:59.284213	107.8	27.7	-64.5	14.5
2026-01-04 10:28:01.519725	107.4	28.0	-63.5	12.8
2026-01-04 10:28:03.754228	106.9	28.3	-63.9	13.8
2026-01-04 10:28:05.999239	106.3	28.6	-64.0	11.9
2026-01-04 10:28:08.243256	105.8	28.9	-64.0	14.2
2026-01-04 10:28:10.487274	105.3	29.2	-64.1	14.4
2026-01-04 10:28:12.730788	104.7	29.5	-63.5	11.6
2026-01-04 10:28:14.973807	104.2	29.7	-64.2	14.0
2026-01-04 10:28:17.217321	103.6	30.0	-63.6	12.4
2026-01-04 10:28:19.458339	103.1	30.3	-63.9	13.6
2026-01-04 10:28:21.702349	102.5	30.6	-64.3	13.7
2026-01-04 10:28:23.934860	101.9	30.9	-62.8	11.9
2026-01-04 10:28:26.171869	101.3	31.2	-62.6	10.2
2026-01-04 10:28:28.406876	100.7	31.5	-63.1	11.7
2026-01-04 10:28:30.645885	100.0	31.8	-63.1	11.0
2026-01-04 10:28:32.879900	99.4	32.1	-62.8	10.5
2026-01-04 10:28:35.115403	98.8	32.4	-61.6	9.8
2026-01-04 10:28:37.346419	98.1	32.7	-63.0	10.9
2026-01-04 10:28:39.580922	97.4	33.0	-61.0	8.2
2026-01-04 10:28:41.816939	96.8	33.3	-63.6	11.9
2026-01-04 10:28:44.052451	96.1	33.5	-62.9	9.0
2026-01-04 10:28:46.284963	95.4	33.8	-62.5	10.2
2026-01-04 10:28:48.520484	94.6	34.1	-62.3	8.1
2026-01-04 10:28:50.757492	93.9	34.4	-61.8	9.6
2026-01-04 10:28:52.992004	93.2	34.6	-62.2	9.0
2026-01-04 10:28:55.228517	92.4	34.9	-62.6	9.5
2026-01-04 10:28:57.459027	91.6	35.2	-62.5	9.5
2026-01-04 10:28:59.694539	90.9	35.4	-61.5	7.7
2026-01-04 10:29:01.931043	90.1	35.7	-62.2	8.6
2026-01-04 10:29:04.166556	89.2	35.9	-62.8	10.8
2026-01-04 10:29:06.400075	88.4	36.2	-61.8	7.6
2026-01-04 10:29:08.633578	87.6	36.4	-61.6	7.3
2026-01-04 10:29:10.868593	86.8	36.7	-60.7	6.8
2026-01-04 10:29:13.101096	85.9	36.9	-61.0	8.4
2026-01-04 10:29:15.334599	85.0	37.1	-60.4	7.6
2026-01-04 10:29:17.567622	84.2	37.4	-60.2	5.8
2026-01-04 10:29:19.801133	83.3	37.6	-61.8	6.8
2026-01-04 10:29:22.039637	82.4	37.8	-61.5	7.0
2026-01-04 10:29:24.277645	81.4	38.0	-60.4	3.0
2026-01-04 10:29:26.514157	80.5	38.2	-60.0	3.9
2026-01-04 10:29:28.755662	79.6	38.4	-62.1	7.3
2026-01-04 10:29:30.999672	78.6	38.5	-62.1	6.4
2026-01-04 10:29:33.242195	77.7	38.7	-63.2	7.5
2026-01-04 10:29:35.485213	76.7	38.9	-59.5	4.2
2026-01-04 10:29:37.729718	75.7	39.0	-60.9	3.6
2026-01-04 10:29:39.973736	74.7	39.2	-61.0	4.5
2026-01-04 10:29:42.217250	73.7	39.3	-60.6	6.1
2026-01-04 10:29:44.457260	72.7	39.4	-61.7	6.3
2026-01-04 10:29:46.691771	71.7	39.6	-63.2	8.6
2026-01-04 10:29:48.927274	70.7	39.7	-62.1	6.6
2026-01-04 10:29:51.163282	69.7	39.8	-62.6	6.7
2026-01-04 10:29:53.401786	68.6	39.8	-62.5	7.7
2026-01-04 10:29:55.636803	67.6	39.9	-61.3	2.9
2026-01-04 10:29:57.873821	66.5	40.0	-60.9	4.7
2026-01-04 10:30:00.108837	65.5	40.0	-60.9	4.4
2026-01-04 10:30:02.343845	64.5	40.1	-60.2	4.0
2026-01-04 10:30:04.581358	63.4	40.1	-60.9	2.8
2026-01-04 10:30:06.816879	62.4	40.1	-61.0	5.5
2026-01-04 10:30:09.052382	61.3	40.1	-60.9	2.1
2026-01-04 10:30:11.286893	60.3	40.1	-60.7	3.3
2026-01-04 10:30:13.521911	59.2	40.1	-60.2	4.7
2026-01-04 10:30:15.756919	58.2	40.1	-62.4	7.7
2026-01-04 10:30:17.990935	57.1	40.1	-62.0	10.0
2026-01-04 10:30:20.226448	56.1	40.0	-60.8	6.2
2026-01-04 10:30:22.461960	55.0	40.0	-60.7	1.3
2026-01-04 10:30:24.697480	54.0	39.9	-62.7	6.5
2026-01-04 10:30:26.930991	52.9	39.8	-62.6	6.9
2026-01-04 10:30:29.164008	51.9	39.8	-62.0	4.1
2026-01-04 10:30:31.402534	50.9	39.7	-61.9	5.0
2026-01-04 10:30:33.643551	49.9	39.6	-62.6	7.0
2026-01-04 10:30:35.884561	48.9	39.4	-62.5	5.6
2026-01-04 10:30:38.118576	47.9	39.3	-62.1	9.4
2026-01-04 10:30:40.352601	46.9	39.2	-61.1	5.5
2026-01-04 10:30:42.586617	45.9	39.0	-63.6	9.0
2026-01-04 10:30:44.824626	44.9	38.9	-62.6	8.2
2026-01-04 10:30:47.060137	43.9	38.7	-61.7	6.3
2026-01-04 10:30:49.294145	43.0	38.6	-60.9	4.6
2026-01-04 10:30:51.530665	42.0	38.4	-61.8	5.9
2026-01-04 10:30:53.767673	41.1	38.2	-61.3	2.8
2026-01-04 10:30:56.009690	40.2	38.0	-62.9	4.0
2026-01-04 10:30:58.254196	39.3	37.8	-62.6	4.7
2026-01-04 10:31:00.498207	38.4	37.6	-62.8	6.2
2026-01-04 10:31:02.741224	37.5	37.4	-63.6	6.9
2026-01-04 10:31:04.984739	36.6	37.1	-64.2	6.8
2026-01-04 10:31:07.222756	35.7	36.9	-63.8	6.9
2026-01-04 10:31:09.455771	34.9	36.7	-63.1	6.8
2026-01-04 10:31:11.686777	34.0	36.5	-62.9	8.4
2026-01-04 10:31:13.924786	33.2	36.2	-63.7	4.1
2026-01-04 10:31:16.169805	32.4	36.0	-64.5	9.5
2026-01-04 10:31:18.410830	31.6	35.7	-63.6	8.1
2026-01-04 10:31:20.646333	30.8	35.5	-64.1	8.9
2026-01-04 10:31:22.883846	30.0	35.2	-65.1	10.1
2026-01-04 10:31:25.120854	29.2	34.9	-63.9	9.1
2026-01-04 10:31:27.354861	28.5	34.7	-64.3	9.1
2026-01-04 10:31:29.591869	27.7	34.4	-63.2	7.4
2026-01-04 10:31:31.829886	27.0	34.1	-63.5	6.7
2026-01-04 10:31:34.064911	26.3	33.8	-63.3	5.7
2026-01-04 10:31:36.301414	25.6	33.6	-63.0	4.7
2026-01-04 10:31:38.536917	24.9	33.3	-62.9	7.1
2026-01-04 10:31:40.773430	24.2	33.0	-63.4	7.4
2026-01-04 10:31:43.010447	23.5	32.7	-62.4	9.3
2026-01-04 10:31:45.246455	22.9	32.4	-62.8	7.6
2026-01-04 10:31:47.482481	22.2	32.1	-62.3	5.8
2026-01-04 10:31:49.718489	21.6	31.8	-63.6	7.3
2026-01-04 10:31:51.958994	21.0	31.5	-63.2	8.6
2026-01-04 10:31:54.196506	20.4	31.3	-62.4	5.0
2026-01-04 10:31:56.434019	19.8	31.0	-62.0	3.6
2026-01-04 10:31:58.672531	19.2	30.7	-63.6	8.9
2026-01-04 10:32:00.910568	18.6	30.4	-62.6	8.1
2026-01-04 10:32:03.149090	18.0	30.1	-62.1	6.7
2026-01-04 10:32:05.384593	17.5	29.8	-61.4	5.9
2026-01-04 10:32:07.619104	16.9	29.5	-63.4	8.8
2026-01-04 10:32:09.861123	16.4	29.2	-60.7	8.5
2026-01-04 10:32:12.096130	15.9	28.9	-62.2	6.9
2026-01-04 10:32:14.329138	15.4	28.6	-62.6	6.8
2026-01-04 10:32:16.561668	14.9	28.3	-63.6	9.5
2026-01-04 10:32:18.803678	14.4	28.0	-63.4	8.6
2026-01-04 10:32:21.047695	13.9	27.7	-62.9	9.4
2026-01-04 10:32:23.290714	13.4	27.5	-64.1	10.7
2026-01-04 10:32:25.534227	12.9	27.2	-60.2	4.5
2026-01-04 10:32:27.777245	12.4	26.9	-64.6	8.9
2026-01-04 10:32:30.020759	12.0	26.6	-63.5	6.2
2026-01-04 10:32:32.264768	11.5	26.3	-64.4	9.5
2026-01-04 10:32:34.500784	11.1	26.0	-65.3	9.5
2026-01-04 10:32:36.736297	10.7	25.7	-63.7	7.6
2026-01-04 10:32:38.971809	10.3	25.5	-64.0	8.4
2026-01-04 10:32:41.206817	9.8	25.2	-62.6	6.1
2026-01-04 10:32:43.444329	9.4	24.9	-62.2	4.8
2026-01-04 10:32:45.678851	9.0	24.6	-63.4	9.0
2026-01-04 10:32:47.915355	8.6	24.3	-61.5	4.4
2026-01-04 10:32:50.149858	8.3	24.1	-64.3	6.1
2026-01-04 10:32:52.388372	7.9	23.8	-64.6	7.8
2026-01-04 10:32:54.623388	7.5	23.5	-62.9	3.9
2026-01-04 10:32:56.858395	7.1	23.2	-63.8	8.4
2026-01-04 10:32:59.092907	6.8	23.0	-61.3	3.8
2026-01-04 10:33:01.328419	6.4	22.7	-61.4	5.3
2026-01-04 10:33:03.562930	6.1	22.4	-63.7	8.7
2026-01-04 10:33:05.798441	5.7	22.2	-61.1	5.9
2026-01-04 10:33:08.035450	5.4	21.9	-62.7	7.9
2026-01-04 10:33:10.268970	5.1	21.7	-63.6	7.9
2026-01-04 10:33:12.506482	4.7	21.4	-63.0	6.7
2026-01-04 10:33:14.742986	4.4	21.1	-63.6	8.7
2026-01-04 10:33:16.978993	4.1	20.9	-63.4	7.7
2026-01-04 10:33:19.214506	3.8	20.6	-63.7	8.0
2026-01-04 10:33:21.452018	3.5	20.4	-62.6	6.0
2026-01-04 10:33:23.686530	3.2	20.1	-63.3	6.8
2026-01-04 10:33:25.921051	2.9	19.9	-61.8	2.6
2026-01-04 10:33:28.156564	2.6	19.6	-64.1	8.1
2026-01-04 10:33:30.393067	2.3	19.4	-64.3	6.8
2026-01-04 10:33:32.633580	2.1	19.1	-63.9	7.2
2026-01-04 10:33:34.879086	1.8	18.9	-64.0	6.6
2026-01-04 10:33:37.123592	1.5	18.7	-65.3	8.8
2026-01-04 10:33:39.366611	1.3	18.4	-63.9	7.0
2026-01-04 10:33:41.611125	1.0	18.2	-63.4	5.7
2026-01-04 10:33:43.853659	0.7	17.9	-60.9	2.1
2026-01-04 10:33:46.088675	0.5	17.7	-64.2	8.3
2026-01-04 10:33:48.332190	0.2	17.5	-64.9	7.6
2026-01-04 10:33:50.575704	360.0	17.2	-62.8	4.4
2026-01-04 10:33:52.814208	359.8	17.0	-64.1	6.5
2026-01-04 10:33:55.049225	359.5	16.8	-63.4	6.0
2026-01-04 10:33:57.286738	359.3	16.6	-61.7	1.8
2026-01-04 10:33:59.523251	359.1	16.3	-63.7	5.0
2026-01-04 10:34:01.758267	358.8	16.1	-63.2	3.9
2026-01-04 10:34:03.992275	358.6	15.9	-62.5	5.6
2026-01-04 10:34:06.236797	358.4	15.7	-63.5	2.0
2026-01-04 10:34:08.469300	358.2	15.5	-62.9	5.2
2026-01-04 10:34:10.706813	358.0	15.2	-63.3	5.8
2026-01-04 10:34:12.943317	357.7	15.0	-63.3	6.8
2026-01-04 10:34:15.176837	357.5	14.8	-63.1	5.6
2026-01-04 10:34:17.410844	357.3	14.6	-62.1	4.7
2026-01-04 10:34:19.649349	357.1	14.4	-62.9	4.9
2026-01-04 10:34:21.883364	356.9	14.2	-62.3	3.1
2026-01-04 10:34:24.121373	356.7	14.0	-63.6	6.7
2026-01-04 10:34:26.354380	356.6	13.8	-63.8	5.8
2026-01-04 10:34:28.587388	356.4	13.6	-64.6	7.2
2026-01-04 10:34:30.823396	356.2	13.4	-63.4	8.3
2026-01-04 10:34:33.065413	356.0	13.2	-63.3	6.8
2026-01-04 10:34:35.299925	355.8	13.0	-62.6	4.5
2026-01-04 10:34:37.536437	355.6	12.8	-63.5	5.4
2026-01-04 10:34:39.773445	355.5	12.6	-62.0	3.6
2026-01-04 10:34:42.009453	355.3	12.4	-62.8	4.7
2026-01-04 10:34:44.245461	355.1	12.2	-64.0	7.0
2026-01-04 10:34:46.479477	354.9	12.0	-63.6	6.4
2026-01-04 10:34:48.715494	354.8	11.8	-63.2	6.3
2026-01-04 10:34:50.956512	354.6	11.6	-62.4	2.9
2026-01-04 10:34:53.188014	354.5	11.4	-64.5	6.8
2026-01-04 10:34:55.421525	354.3	11.2	-63.3	4.4
2026-01-04 10:34:57.659541	354.1	11.0	-62.8	3.8
2026-01-04 10:34:59.894550	354.0	10.8	-63.9	4.8
2026-01-04 10:35:02.128071	353.8	10.7	-63.5	2.3
2026-01-04 10:35:04.361582	353.7	10.5	-63.7	4.5
2026-01-04 10:35:06.600104	353.5	10.3	-62.9	2.3
2026-01-04 10:35:08.844113	353.4	10.1	-64.0	3.4
2026-01-04 10:35:11.088637	353.2	9.9	-63.9	0.0
2026-01-04 10:35:13.331151	353.1	9.7	-64.3	2.7
2026-01-04 10:35:15.575666	352.9	9.6	-63.2	0.9
2026-01-04 10:35:17.818683	352.8	9.4	-62.3	0.0
2026-01-04 10:35:20.062197	352.7	9.2	-64.0	0.2
2026-01-04 10:35:22.296204	352.5	9.0	-65.0	1.4
2026-01-04 10:35:24.530725	352.4	8.9	-62.9	0.0
2026-01-04 10:35:26.763237	352.3	8.7	-64.7	1.7
2026-01-04 10:35:28.996245	352.1	8.5	-64.5	0.0
2026-01-04 10:35:31.228765	352.0	8.3	-64.7	0.0
2026-01-04 10:35:33.464268	351.9	8.2	-63.4	0.0
2026-01-04 10:35:35.698276	351.8	8.0	-65.5	0.0
2026-01-04 10:35:37.929292	351.6	7.8	-64.1	0.0
2026-01-04 10:35:40.164308	351.5	7.7	-64.5	0.0
2026-01-04 10:35:42.396324	351.4	7.5	-64.6	0.0
2026-01-04 10:35:44.629827	351.3	7.3	-63.9	0.0
2026-01-04 10:35:46.862338	351.1	7.2	-64.1	0.0
2026-01-04 10:35:49.094850	351.0	7.0	-64.3	0.0
2026-01-04 10:35:51.328857	350.9	6.9	-64.1	0.0
2026-01-04 10:35:53.562360	350.8	6.7	-64.7	0.0
2026-01-04 10:35:55.793863	350.7	6.5	-64.6	0.0
2026-01-04 10:35:58.026871	350.6	6.4	-65.8	0.4
2026-01-04 10:36:00.259383	350.5	6.2	-64.9	0.0
2026-01-04 10:36:02.493886	350.4	6.1	-64.1	0.0
2026-01-04 10:36:04.727893	350.2	5.9	-63.6	0.0
2026-01-04 10:36:06.960396	350.1	5.7	-67.5	0.0
2026-01-04 10:36:09.191907	350.0	5.6	-65.6	0.0
2026-01-04 10:36:11.427420	349.9	5.4	-64.4	0.0
2026-01-04 10:36:13.659437	349.8	5.3	-66.1	0.0
2026-01-04 10:36:15.891444	349.7	5.1	-64.3	0.0
2026-01-04 10:36:18.125451	349.6	5.0	-66.0	0.0
#Closed at: 2026-01-04 10:24:00.190161