passes_logs/2026/01/04/PlanumMoscow/PlanumMoscow__20260104_084457_METOP-C_rec.log

#Pass ID: 20260104_084457_METOP-C
#Satellite: METOP-C
#Configuration: METOP-C
#Start time: 2026-01-04 08:45:02.050955

#LorettStation: 1.0.0 05.05.2024
#Station: PlanumMoscow
#Location: 37.6253844 lon 55.6713361 lat
#TLE: 1 43689U 18087A   25293.88981035  .00000265  00000+0  14109-3 0  9997
#TLE: 2 43689  98.7006 352.4487 0002041 122.1097 238.0279 14.21482740360838

#Time	Az	El	Level	SNR
2026-01-04 08:48:40.492581	348.6	25.0	-63.1	5.9
2026-01-04 08:48:42.727589	348.1	25.3	-65.0	6.0
2026-01-04 08:48:44.962101	347.7	25.6	-65.1	7.0
2026-01-04 08:48:47.200118	347.2	25.8	-64.1	5.8
2026-01-04 08:48:49.435127	346.8	26.1	-65.0	7.1
2026-01-04 08:48:51.668134	346.3	26.4	-64.5	6.4
2026-01-04 08:48:53.903646	345.9	26.7	-64.7	6.9
2026-01-04 08:48:56.147656	345.4	26.9	-64.4	4.8
2026-01-04 08:48:58.394177	344.9	27.2	-64.6	6.7
2026-01-04 08:49:00.638187	344.4	27.5	-64.2	5.4
2026-01-04 08:49:02.882197	343.9	27.8	-64.6	6.2
2026-01-04 08:49:05.125711	343.3	28.0	-64.3	6.8
2026-01-04 08:49:07.369237	342.8	28.3	-64.7	6.9
2026-01-04 08:49:09.612751	342.3	28.6	-65.0	4.6
2026-01-04 08:49:11.850776	341.7	28.9	-65.3	8.1
2026-01-04 08:49:14.089288	341.2	29.1	-64.1	5.6
2026-01-04 08:49:16.321799	340.6	29.4	-65.1	7.8
2026-01-04 08:49:18.559311	340.0	29.7	-64.6	7.5
2026-01-04 08:49:20.791822	339.5	30.0	-65.7	7.6
2026-01-04 08:49:23.027334	338.9	30.2	-64.8	5.4
2026-01-04 08:49:25.261341	338.3	30.5	-65.9	6.5
2026-01-04 08:49:27.496853	337.6	30.8	-65.5	7.5
2026-01-04 08:49:29.730869	337.0	31.1	-65.6	7.0
2026-01-04 08:49:31.967877	336.4	31.3	-65.6	6.6
2026-01-04 08:49:34.201885	335.7	31.6	-65.5	6.8
2026-01-04 08:49:36.437892	335.1	31.9	-65.5	5.4
2026-01-04 08:49:38.671900	334.4	32.1	-65.3	7.4
2026-01-04 08:49:40.906415	333.7	32.4	-65.5	8.3
2026-01-04 08:49:43.144964	333.0	32.6	-65.5	7.7
2026-01-04 08:49:45.382475	332.3	32.9	-65.4	8.1
2026-01-04 08:49:47.615483	331.6	33.2	-65.1	7.4
2026-01-04 08:49:49.850499	330.9	33.4	-65.5	7.6
2026-01-04 08:49:52.084010	330.2	33.7	-65.4	8.2
2026-01-04 08:49:54.315512	329.4	33.9	-64.3	5.9
2026-01-04 08:49:56.552033	328.7	34.1	-64.7	6.9
2026-01-04 08:49:58.789537	327.9	34.4	-65.0	5.9
2026-01-04 08:50:01.024048	327.1	34.6	-64.6	5.6
2026-01-04 08:50:03.261072	326.3	34.8	-65.0	5.7
2026-01-04 08:50:05.494584	325.5	35.1	-65.6	7.3
2026-01-04 08:50:07.732600	324.7	35.3	-65.2	5.8
2026-01-04 08:50:09.970608	323.9	35.5	-66.0	6.2
2026-01-04 08:50:12.209120	323.0	35.7	-65.7	5.3
2026-01-04 08:50:14.445624	322.2	35.9	-64.7	5.4
2026-01-04 08:50:16.689642	321.3	36.1	-65.5	4.4
2026-01-04 08:50:18.934157	320.4	36.3	-66.0	4.3
2026-01-04 08:50:21.182663	319.6	36.5	-65.6	6.2
2026-01-04 08:50:23.426673	318.7	36.6	-66.1	5.2
2026-01-04 08:50:25.670186	317.8	36.8	-65.7	5.3
2026-01-04 08:50:27.913700	316.9	37.0	-65.7	4.9
2026-01-04 08:50:30.155710	315.9	37.1	-65.7	5.2
2026-01-04 08:50:32.392717	315.0	37.3	-66.4	5.2
2026-01-04 08:50:34.628229	314.1	37.4	-65.3	2.1
2026-01-04 08:50:36.865742	313.1	37.6	-66.4	4.7
2026-01-04 08:50:39.100749	312.2	37.7	-66.9	4.8
2026-01-04 08:50:41.334765	311.2	37.8	-66.5	4.8
2026-01-04 08:50:43.569781	310.3	37.9	-65.7	2.8
2026-01-04 08:50:45.803318	309.3	38.0	-66.4	4.9
2026-01-04 08:50:48.039821	308.3	38.1	-66.4	4.2
2026-01-04 08:50:50.276325	307.3	38.2	-65.6	2.5
2026-01-04 08:50:52.511342	306.4	38.2	-66.5	5.5
2026-01-04 08:50:54.746365	305.4	38.3	-66.3	4.8
2026-01-04 08:50:56.984374	304.4	38.3	-65.8	3.3
2026-01-04 08:50:59.217877	303.4	38.4	-66.0	3.8
2026-01-04 08:51:01.452388	302.4	38.4	-64.9	0.1
2026-01-04 08:51:03.687396	301.4	38.4	-66.4	4.4
2026-01-04 08:51:05.921907	300.4	38.4	-66.6	3.1
2026-01-04 08:51:08.155419	299.4	38.4	-67.3	3.5
2026-01-04 08:51:10.386930	298.4	38.4	-65.1	0.0
2026-01-04 08:51:12.619937	297.4	38.4	-66.5	0.8
2026-01-04 08:51:14.854952	296.4	38.4	-66.7	3.0
2026-01-04 08:51:17.090465	295.4	38.3	-67.2	3.6
2026-01-04 08:51:19.323480	294.4	38.3	-66.8	2.7
2026-01-04 08:51:21.557992	293.5	38.2	-67.2	3.0
2026-01-04 08:51:23.792504	292.5	38.1	-67.5	1.5
2026-01-04 08:51:26.026015	291.5	38.1	-66.9	2.2
2026-01-04 08:51:28.259545	290.5	38.0	-66.7	2.7
2026-01-04 08:51:30.494552	289.5	37.9	-65.6	0.0
2026-01-04 08:51:32.733560	288.6	37.8	-67.0	3.2
2026-01-04 08:51:34.978112	287.6	37.7	-66.6	0.0
2026-01-04 08:51:37.222123	286.7	37.5	-66.8	1.8
2026-01-04 08:51:39.466629	285.7	37.4	-66.0	2.5
2026-01-04 08:51:41.710638	284.8	37.3	-65.9	0.6
2026-01-04 08:51:43.953160	283.9	37.1	-64.5	0.0
2026-01-04 08:51:46.195186	282.9	37.0	-65.0	0.0
2026-01-04 08:51:48.438700	282.0	36.8	-66.7	1.5
2026-01-04 08:51:50.671716	281.1	36.6	-66.7	1.8
2026-01-04 08:51:52.906228	280.2	36.5	-65.1	0.0
2026-01-04 08:51:55.139738	279.4	36.3	-65.2	0.0
2026-01-04 08:51:57.371746	278.5	36.1	-64.7	0.0
2026-01-04 08:51:59.605257	277.6	35.9	-65.9	0.0
2026-01-04 08:52:01.838273	276.8	35.7	-64.8	0.0
2026-01-04 08:52:04.070776	275.9	35.5	-64.7	0.1
2026-01-04 08:52:06.304783	275.1	35.3	-61.6	0.0
2026-01-04 08:52:08.535798	274.3	35.0	-62.1	0.0
2026-01-04 08:52:10.770815	273.5	34.8	-64.2	0.0
2026-01-04 08:52:13.002822	272.7	34.6	-64.3	0.0
2026-01-04 08:52:15.234829	271.9	34.4	-64.4	0.0
2026-01-04 08:52:17.468845	271.1	34.1	-64.1	0.0
2026-01-04 08:52:19.703357	270.4	33.9	-64.2	0.0
2026-01-04 08:52:21.934859	269.6	33.6	-63.5	0.0
2026-01-04 08:52:24.167867	268.9	33.4	-63.6	0.0
2026-01-04 08:52:26.399369	268.2	33.1	-62.5	0.0
2026-01-04 08:52:28.631376	267.5	32.9	-63.3	0.0
2026-01-04 08:52:30.862887	266.8	32.6	-62.1	0.0
2026-01-04 08:52:33.093910	266.1	32.4	-59.6	0.0
2026-01-04 08:52:35.326421	265.4	32.1	-58.6	0.0
2026-01-04 08:52:37.557427	264.7	31.8	-60.4	0.0
2026-01-04 08:52:39.795445	264.1	31.6	-62.5	0.0
2026-01-04 08:52:42.028452	263.4	31.3	-61.2	0.0
2026-01-04 08:52:44.259963	262.8	31.0	-61.1	0.0
2026-01-04 08:52:46.490970	262.1	30.8	-60.2	0.0
2026-01-04 08:52:48.730474	261.5	30.5	-63.2	0.0
2026-01-04 08:52:50.974980	260.9	30.2	-63.9	2.9
2026-01-04 08:52:53.218494	260.3	29.9	-60.6	0.0
2026-01-04 08:52:55.461512	259.7	29.7	-61.9	0.0
2026-01-04 08:52:57.702035	259.1	29.4	-63.0	2.4
2026-01-04 08:52:59.946045	258.6	29.1	-62.9	1.4
2026-01-04 08:53:02.188566	258.0	28.8	-62.6	1.8
2026-01-04 08:53:04.432585	257.5	28.5	-62.4	3.5
2026-01-04 08:53:06.667097	256.9	28.3	-62.4	3.1
2026-01-04 08:53:08.898608	256.4	28.0	-62.2	2.1
2026-01-04 08:53:11.133624	255.9	27.7	-62.7	3.5
2026-01-04 08:53:13.364142	255.4	27.4	-62.6	3.4
2026-01-04 08:53:15.600159	254.9	27.2	-63.1	3.0
2026-01-04 08:53:17.834671	254.4	26.9	-62.9	3.3
2026-01-04 08:53:20.068678	253.9	26.6	-62.6	3.2
2026-01-04 08:53:22.302181	253.4	26.3	-61.6	0.0
2026-01-04 08:53:24.538197	253.0	26.1	-62.3	0.0
2026-01-04 08:53:26.777719	252.5	25.8	-62.1	1.3
2026-01-04 08:53:29.015737	252.0	25.5	-60.9	0.0
2026-01-04 08:53:31.247744	251.6	25.2	-62.0	0.0
2026-01-04 08:53:33.483761	251.2	25.0	-62.3	2.2
2026-01-04 08:53:35.726274	250.7	24.7	-63.1	4.7
2026-01-04 08:53:37.960299	250.3	24.4	-62.7	2.6
2026-01-04 08:53:40.194811	249.9	24.2	-62.3	3.4
2026-01-04 08:53:42.432323	249.5	23.9	-62.4	3.1
2026-01-04 08:53:44.666835	249.1	23.6	-60.1	0.0
2026-01-04 08:53:46.901850	248.7	23.4	-61.9	2.4
2026-01-04 08:53:49.135858	248.3	23.1	-62.6	4.9
2026-01-04 08:53:51.370368	247.9	22.8	-61.5	2.3
2026-01-04 08:53:53.603384	247.6	22.6	-62.1	3.6
2026-01-04 08:53:55.839409	247.2	22.3	-63.3	4.3
2026-01-04 08:53:58.073416	246.8	22.1	-63.3	4.4
2026-01-04 08:54:00.304927	246.5	21.8	-62.6	4.3
2026-01-04 08:54:02.540439	246.1	21.5	-62.0	2.8
2026-01-04 08:54:04.776943	245.8	21.3	-63.1	5.9
2026-01-04 08:54:07.020458	245.4	21.0	-62.6	5.0
2026-01-04 08:54:09.264467	245.1	20.8	-62.1	5.3
2026-01-04 08:54:11.507486	244.8	20.5	-62.6	5.6
2026-01-04 08:54:13.753008	244.5	20.3	-62.6	4.5
2026-01-04 08:54:15.997522	244.1	20.0	-63.4	6.0
2026-01-04 08:54:18.241532	243.8	19.8	-62.7	4.0
2026-01-04 08:54:20.485074	243.5	19.5	-62.4	4.7
2026-01-04 08:54:22.719586	243.2	19.3	-62.5	4.2
2026-01-04 08:54:24.955098	242.9	19.1	-62.8	4.3
2026-01-04 08:54:27.187105	242.6	18.8	-62.2	3.8
2026-01-04 08:54:29.421616	242.3	18.6	-62.7	6.2
2026-01-04 08:54:31.658625	242.1	18.4	-63.0	5.1
2026-01-04 08:54:33.898129	241.8	18.1	-63.8	5.1
2026-01-04 08:54:36.132145	241.5	17.9	-63.6	5.1
2026-01-04 08:54:38.365656	241.2	17.7	-64.1	7.5
2026-01-04 08:54:40.599672	241.0	17.4	-63.9	7.3
2026-01-04 08:54:42.838192	240.7	17.2	-62.7	4.6
2026-01-04 08:54:45.074704	240.4	17.0	-63.5	6.9
2026-01-04 08:54:47.309217	240.2	16.7	-63.7	6.9
2026-01-04 08:54:49.545233	239.9	16.5	-64.0	6.7
2026-01-04 08:54:51.780250	239.7	16.3	-64.2	7.3
2026-01-04 08:54:54.016754	239.5	16.1	-63.6	7.7
2026-01-04 08:54:56.252266	239.2	15.9	-63.5	5.8
2026-01-04 08:54:58.489274	239.0	15.6	-63.8	6.1
2026-01-04 08:55:00.725290	238.8	15.4	-63.9	7.2
2026-01-04 08:55:02.960306	238.5	15.2	-64.0	7.2
2026-01-04 08:55:05.192312	238.3	15.0	-64.5	7.2
2026-01-04 08:55:07.426330	238.1	14.8	-64.3	8.3
2026-01-04 08:55:09.661844	237.9	14.6	-63.9	5.8
2026-01-04 08:55:11.883169	237.6	14.4	-64.3	6.8
2026-01-04 08:55:14.119681	237.4	14.2	-64.2	7.0
2026-01-04 08:55:16.351191	237.2	14.0	-64.8	7.7
2026-01-04 08:55:18.583207	237.0	13.7	-63.9	7.1
2026-01-04 08:55:20.819214	236.8	13.5	-64.7	6.0
2026-01-04 08:55:23.054726	236.6	13.3	-64.9	6.5
2026-01-04 08:55:25.286229	236.4	13.1	-65.0	6.4
2026-01-04 08:55:27.519244	236.2	12.9	-64.8	4.8
2026-01-04 08:55:29.752251	236.0	12.7	-64.5	5.4
2026-01-04 08:55:31.986771	235.8	12.5	-64.9	6.7
2026-01-04 08:55:34.222291	235.7	12.4	-65.2	6.1
2026-01-04 08:55:36.466302	235.5	12.2	-65.5	6.2
2026-01-04 08:55:38.709319	235.3	12.0	-65.5	7.8
2026-01-04 08:55:40.952337	235.1	11.8	-65.0	6.9
2026-01-04 08:55:43.195355	234.9	11.6	-65.9	7.3
2026-01-04 08:55:45.438375	234.7	11.4	-65.6	6.9
2026-01-04 08:55:47.681401	234.6	11.2	-65.1	6.1
2026-01-04 08:55:49.922915	234.4	11.0	-65.1	6.0
2026-01-04 08:55:52.156418	234.2	10.8	-65.5	5.8
2026-01-04 08:55:54.390425	234.1	10.6	-65.2	5.4
2026-01-04 08:55:56.623442	233.9	10.5	-66.0	6.9
2026-01-04 08:55:58.860459	233.7	10.3	-65.7	7.4
2026-01-04 08:56:01.094970	233.6	10.1	-65.6	7.2
2026-01-04 08:56:03.329474	233.4	9.9	-65.2	6.0
2026-01-04 08:56:05.563977	233.3	9.7	-65.6	7.6
2026-01-04 08:56:07.798985	233.1	9.6	-65.4	7.2
2026-01-04 08:56:10.034001	233.0	9.4	-65.6	7.4
2026-01-04 08:56:12.272017	232.8	9.2	-65.7	7.0
2026-01-04 08:56:14.507041	232.7	9.0	-65.9	5.8
2026-01-04 08:56:16.741562	232.5	8.9	-65.9	5.8
2026-01-04 08:56:18.976569	232.4	8.7	-66.0	6.3
2026-01-04 08:56:21.212593	232.2	8.5	-65.8	5.5
2026-01-04 08:56:23.448114	232.1	8.3	-65.7	6.3
2026-01-04 08:56:25.680617	232.0	8.2	-66.1	6.8
2026-01-04 08:56:27.916137	231.8	8.0	-66.1	6.0
2026-01-04 08:56:30.151144	231.7	7.8	-65.9	5.8
2026-01-04 08:56:32.381151	231.5	7.7	-66.2	6.2
2026-01-04 08:56:34.615663	231.4	7.5	-66.4	6.2
2026-01-04 08:56:36.850680	231.3	7.3	-66.5	6.8
2026-01-04 08:56:39.082183	231.2	7.2	-65.4	4.4
2026-01-04 08:56:41.316686	231.0	7.0	-66.2	6.7
2026-01-04 08:56:43.549197	230.9	6.8	-65.8	6.7
2026-01-04 08:56:45.780204	230.8	6.7	-66.2	6.3
2026-01-04 08:56:48.019221	230.7	6.5	-66.3	5.5
2026-01-04 08:56:50.253725	230.5	6.4	-66.1	6.2
2026-01-04 08:56:52.485244	230.4	6.2	-66.4	5.9
2026-01-04 08:56:54.719747	230.3	6.0	-66.1	6.0
2026-01-04 08:56:56.954251	230.2	5.9	-62.7	0.0
2026-01-04 08:56:59.185753	230.1	5.7	-63.6	0.0
2026-01-04 08:57:01.418761	229.9	5.6	-67.9	0.0
2026-01-04 08:57:03.655264	229.8	5.4	-69.8	0.0
2026-01-04 08:57:05.887776	229.7	5.3	-72.4	0.0
2026-01-04 08:57:08.120792	229.6	5.1	-73.1	0.0
#Closed at: 2026-01-04 08:44:57.051857