passes_logs/2026/01/04/PlanumMoscow/PlanumMoscow__20260104_161631_METOP-B_rec.log

#Pass ID: 20260104_161631_METOP-B
#Satellite: METOP-B
#Configuration: METOP-B
#Start time: 2026-01-04 16:16:36.139307

#LorettStation: 1.0.0 05.05.2024
#Station: PlanumMoscow
#Location: 37.6253844 lon 55.6713361 lat
#TLE: 1 38771U 12049A   25293.92766658  .00000266  00000+0  14193-3 0  9996
#TLE: 2 38771  98.6882 344.7603 0001609 341.5209  18.5909 14.21379342679275

#Time	Az	El	Level	SNR
2026-01-04 16:20:14.606246	95.2	22.8	-60.8	2.6
2026-01-04 16:20:15.725498	94.9	22.9	-61.6	5.1
2026-01-04 16:20:16.844254	94.7	23.0	-61.1	3.8
2026-01-04 16:20:17.963506	94.4	23.1	-61.2	4.4
2026-01-04 16:20:19.080261	94.2	23.2	-60.4	1.5
2026-01-04 16:20:20.201026	93.9	23.3	-60.5	4.0
2026-01-04 16:20:21.316781	93.7	23.4	-60.5	1.0
2026-01-04 16:20:22.433536	93.4	23.5	-59.1	0.0
2026-01-04 16:20:23.549795	93.2	23.6	-60.9	2.8
2026-01-04 16:20:24.667552	92.9	23.7	-61.2	3.7
2026-01-04 16:20:25.784803	92.7	23.9	-61.4	3.5
2026-01-04 16:20:26.902055	92.4	24.0	-59.4	0.6
2026-01-04 16:20:28.018818	92.2	24.1	-61.0	1.2
2026-01-04 16:20:29.135573	91.9	24.2	-60.6	4.0
2026-01-04 16:20:30.251328	91.6	24.3	-60.9	3.5
2026-01-04 16:20:31.369588	91.4	24.4	-59.3	0.0
2026-01-04 16:20:32.485839	91.1	24.5	-61.5	4.7
2026-01-04 16:20:33.604091	90.8	24.6	-61.9	0.6
2026-01-04 16:20:34.718847	90.6	24.7	-61.5	3.9
2026-01-04 16:20:35.835603	90.3	24.8	-60.3	4.1
2026-01-04 16:20:36.953854	90.0	24.9	-61.0	0.0
2026-01-04 16:20:38.069609	89.7	25.0	-60.9	5.5
2026-01-04 16:20:39.186869	89.5	25.1	-61.3	2.9
2026-01-04 16:20:40.304121	89.2	25.2	-60.9	2.4
2026-01-04 16:20:41.418876	88.9	25.2	-60.2	4.4
2026-01-04 16:20:42.539136	88.6	25.3	-61.4	5.0
2026-01-04 16:20:43.655396	88.3	25.4	-59.7	0.0
2026-01-04 16:20:44.771152	88.1	25.5	-58.1	0.5
2026-01-04 16:20:45.890404	87.8	25.6	-60.3	1.5
2026-01-04 16:20:47.012666	87.5	25.7	-60.5	4.4
2026-01-04 16:20:48.134423	87.2	25.8	-60.7	3.5
2026-01-04 16:20:49.256676	86.9	25.9	-60.8	3.9
2026-01-04 16:20:50.377937	86.6	26.0	-60.0	1.5
2026-01-04 16:20:51.499703	86.3	26.1	-60.1	4.7
2026-01-04 16:20:52.621460	86.0	26.2	-60.3	3.6
2026-01-04 16:20:53.742720	85.7	26.3	-61.3	3.3
2026-01-04 16:20:54.864477	85.4	26.4	-61.4	2.6
2026-01-04 16:20:55.986730	85.1	26.5	-61.3	2.7
2026-01-04 16:20:57.108495	84.8	26.6	-59.3	0.0
2026-01-04 16:20:58.229755	84.5	26.7	-61.3	3.6
2026-01-04 16:20:59.351511	84.2	26.8	-60.4	4.8
2026-01-04 16:21:00.473268	83.9	26.8	-60.5	2.2
2026-01-04 16:21:01.594529	83.6	26.9	-60.7	3.3
2026-01-04 16:21:02.711790	83.2	27.0	-58.8	1.8
2026-01-04 16:21:03.828546	82.9	27.1	-57.8	0.9
2026-01-04 16:21:04.945798	82.6	27.2	-59.9	1.2
2026-01-04 16:21:06.063058	82.3	27.3	-60.7	3.6
2026-01-04 16:21:07.179813	82.0	27.4	-59.8	2.8
2026-01-04 16:21:08.302570	81.7	27.4	-61.2	5.2
2026-01-04 16:21:09.417821	81.3	27.5	-60.4	3.1
2026-01-04 16:21:10.535082	81.0	27.6	-60.9	4.5
2026-01-04 16:21:11.650349	80.7	27.7	-60.0	4.3
2026-01-04 16:21:12.767601	80.3	27.8	-59.8	3.1
2026-01-04 16:21:13.886853	80.0	27.9	-59.9	4.5
2026-01-04 16:21:15.007105	79.7	27.9	-59.3	2.1
2026-01-04 16:21:16.124365	79.3	28.0	-60.0	2.8
2026-01-04 16:21:17.242617	79.0	28.1	-59.6	0.0
2026-01-04 16:21:18.360382	78.7	28.2	-61.3	4.9
2026-01-04 16:21:19.478642	78.3	28.2	-61.3	3.9
2026-01-04 16:21:20.595894	78.0	28.3	-61.4	0.0
2026-01-04 16:21:21.713146	77.7	28.4	-61.7	4.3
2026-01-04 16:21:22.831406	77.3	28.5	-61.1	2.8
2026-01-04 16:21:23.946666	77.0	28.5	-61.4	3.6
2026-01-04 16:21:25.065422	76.6	28.6	-61.8	3.9
2026-01-04 16:21:26.182177	76.3	28.7	-61.8	5.3
2026-01-04 16:21:27.299940	75.9	28.8	-61.7	4.5
2026-01-04 16:21:28.416200	75.6	28.8	-62.0	4.3
2026-01-04 16:21:29.532956	75.2	28.9	-61.4	5.6
2026-01-04 16:21:30.649711	74.9	29.0	-61.7	4.5
2026-01-04 16:21:31.767963	74.5	29.0	-62.2	5.5
2026-01-04 16:21:32.887215	74.2	29.1	-60.9	4.7
2026-01-04 16:21:34.003970	73.8	29.1	-61.2	4.3
2026-01-04 16:21:35.120230	73.4	29.2	-61.4	4.3
2026-01-04 16:21:36.236482	73.1	29.3	-61.3	3.4
2026-01-04 16:21:37.353237	72.7	29.3	-61.9	4.9
2026-01-04 16:21:38.468489	72.4	29.4	-61.1	4.7
2026-01-04 16:21:39.586748	72.0	29.4	-60.8	4.7
2026-01-04 16:21:40.702999	71.6	29.5	-60.3	4.4
2026-01-04 16:21:41.821259	71.3	29.6	-60.7	4.5
2026-01-04 16:21:42.938025	70.9	29.6	-60.5	5.3
2026-01-04 16:21:44.055780	70.5	29.7	-60.7	6.3
2026-01-04 16:21:45.171536	70.1	29.7	-61.2	5.6
2026-01-04 16:21:46.289796	69.8	29.8	-60.0	5.5
2026-01-04 16:21:47.408552	69.4	29.8	-60.2	4.6
2026-01-04 16:21:48.523314	69.0	29.9	-61.5	6.9
2026-01-04 16:21:49.641071	68.6	29.9	-61.3	5.3
2026-01-04 16:21:50.758323	68.3	30.0	-61.2	5.9
2026-01-04 16:21:51.876079	67.9	30.0	-60.4	4.5
2026-01-04 16:21:52.994339	67.5	30.0	-60.3	4.4
2026-01-04 16:21:54.110095	67.1	30.1	-60.7	5.8
2026-01-04 16:21:55.227346	66.8	30.1	-61.2	5.7
2026-01-04 16:21:56.343597	66.4	30.2	-60.8	5.0
2026-01-04 16:21:57.460856	66.0	30.2	-61.2	5.1
2026-01-04 16:21:58.576612	65.6	30.2	-61.0	5.2
2026-01-04 16:21:59.694864	65.2	30.3	-60.3	2.9
2026-01-04 16:22:00.811124	64.8	30.3	-61.0	6.9
2026-01-04 16:22:01.928881	64.5	30.3	-61.0	5.9
2026-01-04 16:22:03.046132	64.1	30.4	-59.9	4.8
2026-01-04 16:22:04.162391	63.7	30.4	-61.1	5.7
2026-01-04 16:22:05.278147	63.3	30.4	-61.0	4.6
2026-01-04 16:22:06.395399	62.9	30.4	-60.3	5.3
2026-01-04 16:22:07.512650	62.5	30.5	-61.4	6.2
2026-01-04 16:22:08.634407	62.1	30.5	-61.5	6.2
2026-01-04 16:22:09.756165	61.7	30.5	-61.1	4.7
2026-01-04 16:22:10.878418	61.3	30.5	-60.6	4.5
2026-01-04 16:22:12.000671	60.9	30.5	-61.2	5.6
2026-01-04 16:22:13.121931	60.6	30.6	-60.9	6.5
2026-01-04 16:22:14.243688	60.2	30.6	-60.8	6.9
2026-01-04 16:22:15.364451	59.8	30.6	-61.4	8.0
2026-01-04 16:22:16.485216	59.4	30.6	-60.8	5.6
2026-01-04 16:22:17.606973	59.0	30.6	-60.6	4.8
2026-01-04 16:22:18.727737	58.6	30.6	-59.6	3.4
2026-01-04 16:22:19.848502	58.2	30.6	-60.2	3.8
2026-01-04 16:22:20.969267	57.8	30.6	-60.5	4.6
2026-01-04 16:22:22.091032	57.4	30.6	-60.4	3.4
2026-01-04 16:22:23.213293	57.0	30.6	-61.2	6.0
2026-01-04 16:22:24.331049	56.6	30.6	-61.7	7.2
2026-01-04 16:22:25.449812	56.2	30.6	-62.0	7.5
2026-01-04 16:22:26.568072	55.8	30.6	-61.8	6.6
2026-01-04 16:22:27.685324	55.4	30.6	-61.9	7.3
2026-01-04 16:22:28.803576	55.0	30.6	-61.4	6.8
2026-01-04 16:22:29.922836	54.6	30.6	-61.8	7.9
2026-01-04 16:22:31.041088	54.3	30.6	-61.3	6.0
2026-01-04 16:22:32.159844	53.9	30.6	-61.1	6.5
2026-01-04 16:22:33.276599	53.5	30.6	-61.6	7.5
2026-01-04 16:22:34.397357	53.1	30.6	-61.0	7.0
2026-01-04 16:22:35.516609	52.7	30.6	-60.9	5.1
2026-01-04 16:22:36.632364	52.3	30.6	-61.7	7.5
2026-01-04 16:22:37.753121	51.9	30.5	-61.9	7.4
2026-01-04 16:22:38.869381	51.5	30.5	-60.7	5.6
2026-01-04 16:22:39.988137	51.1	30.5	-61.9	6.1
2026-01-04 16:22:41.106389	50.7	30.5	-62.1	7.7
2026-01-04 16:22:42.223640	50.3	30.5	-61.3	5.6
2026-01-04 16:22:43.346893	49.9	30.4	-61.5	5.8
2026-01-04 16:22:44.464145	49.6	30.4	-61.9	6.1
2026-01-04 16:22:45.581396	49.2	30.4	-61.9	7.0
2026-01-04 16:22:46.700648	48.8	30.3	-61.7	6.0
2026-01-04 16:22:47.819405	48.4	30.3	-61.8	6.6
2026-01-04 16:22:48.935656	48.0	30.3	-61.6	7.5
2026-01-04 16:22:50.054412	47.6	30.3	-61.1	6.3
2026-01-04 16:22:51.171664	47.2	30.2	-61.1	6.8
2026-01-04 16:22:52.288428	46.9	30.2	-61.4	6.2
2026-01-04 16:22:53.404689	46.5	30.1	-61.5	6.9
2026-01-04 16:22:54.522941	46.1	30.1	-61.4	3.3
2026-01-04 16:22:55.639697	45.7	30.1	-61.9	5.9
2026-01-04 16:22:56.756453	45.3	30.0	-61.4	5.9
2026-01-04 16:22:57.870718	45.0	30.0	-61.4	6.1
2026-01-04 16:22:58.989468	44.6	29.9	-61.3	5.1
2026-01-04 16:23:00.109225	44.2	29.9	-61.5	6.1
2026-01-04 16:23:01.226476	43.8	29.8	-61.7	5.4
2026-01-04 16:23:02.342232	43.5	29.8	-61.4	6.0
2026-01-04 16:23:03.458483	43.1	29.8	-61.5	5.5
2026-01-04 16:23:04.576744	42.7	29.7	-61.6	5.4
2026-01-04 16:23:05.694500	42.3	29.7	-61.6	5.3
2026-01-04 16:23:06.812752	42.0	29.6	-61.7	6.3
2026-01-04 16:23:07.930004	41.6	29.5	-61.8	6.0
2026-01-04 16:23:09.047255	41.2	29.5	-61.3	5.1
2026-01-04 16:23:10.167011	40.9	29.4	-60.8	2.9
2026-01-04 16:23:11.282263	40.5	29.4	-60.8	3.8
2026-01-04 16:23:12.403020	40.2	29.3	-61.7	5.5
2026-01-04 16:23:13.520271	39.8	29.3	-61.5	6.0
2026-01-04 16:23:14.636027	39.4	29.2	-61.4	5.6
2026-01-04 16:23:15.751278	39.1	29.1	-61.7	5.9
2026-01-04 16:23:16.869530	38.7	29.1	-61.3	6.6
2026-01-04 16:23:17.985781	38.4	29.0	-61.2	4.9
2026-01-04 16:23:19.102033	38.0	28.9	-61.6	4.4
2026-01-04 16:23:20.218291	37.7	28.9	-61.7	6.0
2026-01-04 16:23:21.333550	37.3	28.8	-61.9	6.7
2026-01-04 16:23:22.451802	37.0	28.7	-61.3	5.1
2026-01-04 16:23:23.572054	36.6	28.7	-61.8	6.5
2026-01-04 16:23:24.689313	36.3	28.6	-61.9	7.0
2026-01-04 16:23:25.805069	35.9	28.5	-62.3	6.9
2026-01-04 16:23:26.922824	35.6	28.5	-62.1	6.3
2026-01-04 16:23:28.040581	35.2	28.4	-62.1	6.9
2026-01-04 16:23:29.158337	34.9	28.3	-62.0	6.5
2026-01-04 16:23:30.275588	34.5	28.2	-62.2	6.6
2026-01-04 16:23:31.393345	34.2	28.2	-62.0	6.8
2026-01-04 16:23:32.510114	33.9	28.1	-61.9	7.2
2026-01-04 16:23:33.627366	33.5	28.0	-62.1	7.6
2026-01-04 16:23:34.746627	33.2	27.9	-62.2	7.3
2026-01-04 16:23:35.864392	32.9	27.8	-62.4	7.2
2026-01-04 16:23:36.981652	32.5	27.8	-62.4	7.0
2026-01-04 16:23:38.096903	32.2	27.7	-62.2	6.8
2026-01-04 16:23:39.213658	31.9	27.6	-62.3	7.4
2026-01-04 16:23:40.335911	31.6	27.5	-62.5	7.1
2026-01-04 16:23:41.457676	31.2	27.4	-62.3	7.2
2026-01-04 16:23:42.580937	30.9	27.3	-62.4	8.0
2026-01-04 16:23:43.703694	30.6	27.3	-62.2	7.6
2026-01-04 16:23:44.825947	30.3	27.2	-62.4	7.6
2026-01-04 16:23:45.945198	30.0	27.1	-62.4	7.7
2026-01-04 16:23:47.062962	29.7	27.0	-62.5	7.6
2026-01-04 16:23:48.184222	29.3	26.9	-62.5	7.5
2026-01-04 16:23:49.305484	29.0	26.8	-62.4	7.4
2026-01-04 16:23:50.428737	28.7	26.7	-62.4	7.9
2026-01-04 16:23:51.549989	28.4	26.6	-62.7	7.5
2026-01-04 16:23:52.671746	28.1	26.6	-62.6	6.4
2026-01-04 16:23:53.793503	27.8	26.5	-62.7	7.3
2026-01-04 16:23:54.915260	27.5	26.4	-62.7	6.9
2026-01-04 16:23:56.030528	27.2	26.3	-62.7	6.5
2026-01-04 16:23:57.145283	26.9	26.2	-62.6	7.5
2026-01-04 16:23:58.260544	26.6	26.1	-62.7	6.6
2026-01-04 16:23:59.377308	26.3	26.0	-62.4	7.4
2026-01-04 16:24:00.494559	26.0	25.9	-62.5	6.2
2026-01-04 16:24:01.609315	25.7	25.8	-62.6	6.0
2026-01-04 16:24:02.727567	25.4	25.7	-62.5	6.7
2026-01-04 16:24:03.845322	25.2	25.6	-62.6	6.7
2026-01-04 16:24:04.963575	24.9	25.5	-62.6	6.5
2026-01-04 16:24:06.080826	24.6	25.4	-62.7	5.9
2026-01-04 16:24:07.201078	24.3	25.3	-62.5	6.6
2026-01-04 16:24:08.318834	24.0	25.2	-62.6	6.1
2026-01-04 16:24:09.434588	23.7	25.1	-62.3	6.1
2026-01-04 16:24:10.552840	23.5	25.0	-62.4	5.6
2026-01-04 16:24:11.670597	23.2	24.9	-62.2	5.3
2026-01-04 16:24:12.788848	22.9	24.8	-62.2	4.1
2026-01-04 16:24:13.904603	22.7	24.7	-62.4	5.1
2026-01-04 16:24:15.022359	22.4	24.6	-62.2	5.7
2026-01-04 16:24:16.137610	22.1	24.6	-62.3	4.5
2026-01-04 16:24:17.255862	21.8	24.5	-62.1	5.6
2026-01-04 16:24:18.373617	21.6	24.4	-61.7	3.9
2026-01-04 16:24:19.489869	21.3	24.3	-62.0	4.9
2026-01-04 16:24:20.609626	21.1	24.1	-61.9	4.0
2026-01-04 16:24:21.725381	20.8	24.0	-61.9	4.4
2026-01-04 16:24:22.845634	20.5	23.9	-61.8	5.2
2026-01-04 16:24:23.962388	20.3	23.8	-61.3	5.2
2026-01-04 16:24:25.080640	20.0	23.7	-61.8	4.8
2026-01-04 16:24:26.195901	19.8	23.6	-61.3	3.2
2026-01-04 16:24:27.314153	19.5	23.5	-61.5	3.8
2026-01-04 16:24:28.431405	19.3	23.4	-61.5	3.7
2026-01-04 16:24:29.549161	19.0	23.3	-61.1	3.7
2026-01-04 16:24:30.666420	18.8	23.2	-61.5	3.5
2026-01-04 16:24:31.782175	18.5	23.1	-61.5	3.5
2026-01-04 16:24:32.900931	18.3	23.0	-61.5	4.0
2026-01-04 16:24:34.019183	18.1	22.9	-61.3	3.5
2026-01-04 16:24:35.140941	17.8	22.8	-61.2	3.5
2026-01-04 16:24:36.262697	17.6	22.7	-61.1	3.7
2026-01-04 16:24:37.384950	17.3	22.6	-60.6	3.9
2026-01-04 16:24:38.509210	17.1	22.5	-61.0	4.2
2026-01-04 16:24:39.630462	16.9	22.4	-60.9	2.4
2026-01-04 16:24:40.752219	16.6	22.3	-60.7	4.0
2026-01-04 16:24:41.874479	16.4	22.2	-60.6	2.8
2026-01-04 16:24:42.996732	16.2	22.1	-60.9	3.6
2026-01-04 16:24:44.118985	15.9	22.0	-60.9	2.9
2026-01-04 16:24:45.240742	15.7	21.9	-60.9	2.9
2026-01-04 16:24:46.367004	15.5	21.8	-60.2	1.8
2026-01-04 16:24:47.484760	15.3	21.7	-60.9	2.9
2026-01-04 16:24:48.606021	15.1	21.6	-60.7	2.3
2026-01-04 16:24:49.728274	14.8	21.5	-60.5	1.7
2026-01-04 16:24:50.850526	14.6	21.4	-60.7	2.7
2026-01-04 16:24:51.972283	14.4	21.3	-60.6	2.9
2026-01-04 16:24:53.094040	14.2	21.2	-60.5	1.8
2026-01-04 16:24:54.220798	14.0	21.1	-60.6	2.8
2026-01-04 16:24:55.343051	13.8	20.9	-60.7	1.6
2026-01-04 16:24:56.465304	13.5	20.8	-60.9	1.0
2026-01-04 16:24:57.587557	13.3	20.7	-59.6	0.0
2026-01-04 16:24:58.709313	13.1	20.6	-60.5	1.0
2026-01-04 16:24:59.831566	12.9	20.5	-60.9	0.8
2026-01-04 16:25:00.953819	12.7	20.4	-60.7	0.8
2026-01-04 16:25:02.071583	12.5	20.3	-60.9	0.2
2026-01-04 16:25:03.188339	12.3	20.2	-60.3	0.0
2026-01-04 16:25:04.303094	12.1	20.1	-60.8	0.0
2026-01-04 16:25:05.418354	11.9	20.0	-60.5	0.5
2026-01-04 16:25:06.536606	11.7	19.9	-60.2	0.3
2026-01-04 16:25:07.654866	11.5	19.8	-60.3	0.5
2026-01-04 16:25:08.773117	11.3	19.7	-60.4	0.4
2026-01-04 16:25:09.890369	11.1	19.6	-59.9	0.0
2026-01-04 16:25:11.006125	10.9	19.5	-60.3	0.4
2026-01-04 16:25:12.122376	10.7	19.4	-60.4	0.0
2026-01-04 16:25:13.247134	10.5	19.3	-60.4	0.0
2026-01-04 16:25:14.368891	10.4	19.2	-60.6	0.0
2026-01-04 16:25:15.490152	10.2	19.1	-60.3	0.0
2026-01-04 16:25:16.611404	10.0	19.0	-60.3	0.7
2026-01-04 16:25:17.729656	9.8	18.9	-60.5	0.0
2026-01-04 16:25:18.846412	9.6	18.8	-60.2	0.0
2026-01-04 16:25:19.961664	9.4	18.7	-60.6	0.1
2026-01-04 16:25:21.081420	9.3	18.6	-60.8	0.0
2026-01-04 16:25:22.203673	9.1	18.5	-60.6	0.0
2026-01-04 16:25:23.310630	8.9	18.4	-60.5	0.0
2026-01-04 16:25:24.432883	8.7	18.3	-60.6	0.0
2026-01-04 16:25:25.553152	8.5	18.2	-60.7	0.0
2026-01-04 16:25:26.674413	8.4	18.1	-60.7	0.0
2026-01-04 16:25:27.796170	8.2	18.0	-60.7	0.0
2026-01-04 16:25:28.915926	8.0	17.9	-60.5	0.0
2026-01-04 16:25:30.033178	7.8	17.8	-60.4	0.0
2026-01-04 16:25:31.147429	7.7	17.7	-60.8	0.7
2026-01-04 16:25:32.263680	7.5	17.6	-60.5	0.0
2026-01-04 16:25:33.378931	7.3	17.5	-59.8	0.0
2026-01-04 16:25:34.500184	7.2	17.4	-60.5	0.0
2026-01-04 16:25:35.622437	7.0	17.3	-61.0	0.1
2026-01-04 16:25:36.744194	6.8	17.2	-60.4	0.0
2026-01-04 16:25:37.864950	6.7	17.0	-60.4	0.0
2026-01-04 16:25:38.981202	6.5	17.0	-61.1	0.0
2026-01-04 16:25:40.098967	6.4	16.9	-61.0	2.3
2026-01-04 16:25:41.215218	6.2	16.8	-60.8	1.6
2026-01-04 16:25:42.334470	6.0	16.7	-60.8	0.9
2026-01-04 16:25:43.453722	5.9	16.6	-60.7	1.5
2026-01-04 16:25:44.570974	5.7	16.5	-61.0	1.5
2026-01-04 16:25:45.687730	5.6	16.4	-60.3	0.0
2026-01-04 16:25:46.805981	5.4	16.3	-60.4	0.0
2026-01-04 16:25:47.926241	5.3	16.2	-61.0	1.2
2026-01-04 16:25:49.041500	5.1	16.1	-60.9	0.2
2026-01-04 16:25:50.157751	5.0	16.0	-60.8	0.0
2026-01-04 16:25:51.274003	4.8	15.9	-60.6	0.0
2026-01-04 16:25:52.391254	4.7	15.8	-61.3	0.0
2026-01-04 16:25:53.509506	4.5	15.7	-61.2	0.5
2026-01-04 16:25:54.627758	4.4	15.6	-61.6	1.3
2026-01-04 16:25:55.746010	4.2	15.5	-61.7	0.0
2026-01-04 16:25:56.863262	4.1	15.4	-61.3	0.0
2026-01-04 16:25:57.981018	3.9	15.3	-60.8	0.0
2026-01-04 16:25:59.100270	3.8	15.2	-60.9	0.0
2026-01-04 16:26:00.217027	3.6	15.1	-60.3	0.0
2026-01-04 16:26:01.332278	3.5	15.0	-61.5	0.0
2026-01-04 16:26:02.451040	3.4	14.9	-59.6	0.0
2026-01-04 16:26:03.568292	3.2	14.8	-62.6	0.0
2026-01-04 16:26:04.687544	3.1	14.7	-61.8	0.0
2026-01-04 16:26:05.802804	2.9	14.6	-61.9	0.0
2026-01-04 16:26:06.919063	2.8	14.5	-61.5	0.0
2026-01-04 16:26:08.036315	2.7	14.4	-62.3	0.0
2026-01-04 16:26:09.152070	2.5	14.3	-61.6	0.0
2026-01-04 16:26:10.267826	2.4	14.2	-60.6	0.0
2026-01-04 16:26:11.384077	2.3	14.1	-61.7	0.0
2026-01-04 16:26:12.500833	2.1	14.0	-61.6	0.0
2026-01-04 16:26:13.617084	2.0	14.0	-60.9	0.0
2026-01-04 16:26:14.735336	1.9	13.9	-60.8	0.0
2026-01-04 16:26:15.851587	1.7	13.8	-61.2	0.0
2026-01-04 16:26:16.972840	1.6	13.7	-61.9	0.0
2026-01-04 16:26:18.091596	1.5	13.6	-61.1	0.0
2026-01-04 16:26:19.212353	1.4	13.5	-61.0	0.0
2026-01-04 16:26:20.328604	1.2	13.4	-61.5	0.0
2026-01-04 16:26:21.443864	1.1	13.3	-61.4	0.0
2026-01-04 16:26:22.561115	1.0	13.2	-62.2	0.2
2026-01-04 16:26:23.677871	0.9	13.1	-60.8	0.0
2026-01-04 16:26:24.794131	0.7	13.0	-62.3	0.0
2026-01-04 16:26:25.909382	0.6	12.9	-61.0	0.0
2026-01-04 16:26:27.026138	0.5	12.8	-61.5	0.0
2026-01-04 16:26:28.143406	0.4	12.8	-62.0	0.0
2026-01-04 16:26:29.267163	0.2	12.7	-62.2	0.4
2026-01-04 16:26:30.382414	0.1	12.6	-62.0	0.0
2026-01-04 16:26:31.498674	0.0	12.5	-62.3	0.0
2026-01-04 16:26:32.613925	359.9	12.4	-62.8	0.0
2026-01-04 16:26:33.731185	359.8	12.3	-62.2	0.0
2026-01-04 16:26:34.849445	359.7	12.2	-62.5	0.0
2026-01-04 16:26:35.968697	359.5	12.1	-61.7	0.0
2026-01-04 16:26:37.085949	359.4	12.0	-62.0	0.0
2026-01-04 16:26:38.204201	359.3	11.9	-61.9	0.0
2026-01-04 16:26:39.325462	359.2	11.9	-62.0	0.0
2026-01-04 16:26:40.440721	359.1	11.8	-62.6	0.4
2026-01-04 16:26:41.563478	359.0	11.7	-62.3	0.0
2026-01-04 16:26:42.685731	358.9	11.6	-63.3	0.0
2026-01-04 16:26:43.807984	358.7	11.5	-62.7	0.0
2026-01-04 16:26:44.929741	358.6	11.4	-62.9	0.0
2026-01-04 16:26:46.051507	358.5	11.3	-61.6	0.0
2026-01-04 16:26:47.172768	358.4	11.2	-62.5	0.0
2026-01-04 16:26:48.294525	358.3	11.1	-61.9	0.0
2026-01-04 16:26:49.416778	358.2	11.1	-61.5	0.0
2026-01-04 16:26:50.538535	358.1	11.0	-62.0	0.0
2026-01-04 16:26:51.661291	358.0	10.9	-62.3	0.0
2026-01-04 16:26:52.778046	357.9	10.8	-60.5	0.0
2026-01-04 16:26:53.892801	357.8	10.7	-62.4	0.0
2026-01-04 16:26:55.012061	357.7	10.6	-61.8	0.0
2026-01-04 16:26:56.132818	357.6	10.5	-61.2	0.0
2026-01-04 16:26:57.248069	357.5	10.5	-62.0	0.0
2026-01-04 16:26:58.364329	357.4	10.4	-61.4	0.0
2026-01-04 16:26:59.484085	357.3	10.3	-62.0	0.0
2026-01-04 16:27:00.600337	357.2	10.2	-62.1	0.0
2026-01-04 16:27:01.721102	357.1	10.1	-62.0	0.0
2026-01-04 16:27:02.843354	357.0	10.0	-62.3	0.0
2026-01-04 16:27:03.965111	356.9	9.9	-62.6	0.0
2026-01-04 16:27:05.088363	356.8	9.9	-61.6	0.0
2026-01-04 16:27:06.203615	356.7	9.8	-62.1	0.0
2026-01-04 16:27:07.319370	356.6	9.7	-61.6	0.0
2026-01-04 16:27:08.437135	356.5	9.6	-61.4	0.0
2026-01-04 16:27:09.554386	356.4	9.5	-61.8	0.0
2026-01-04 16:27:10.670646	356.3	9.4	-62.2	0.0
2026-01-04 16:27:11.787898	356.2	9.4	-61.9	0.0
2026-01-04 16:27:12.909655	356.1	9.3	-62.1	0.0
2026-01-04 16:27:14.025418	356.0	9.2	-61.2	0.0
2026-01-04 16:27:15.141670	355.9	9.1	-61.2	0.0
2026-01-04 16:27:16.256921	355.8	9.0	-60.9	0.0
2026-01-04 16:27:17.374172	355.7	9.0	-61.0	0.0
2026-01-04 16:27:18.488432	355.6	8.9	-62.1	0.0
2026-01-04 16:27:19.604684	355.5	8.8	-60.2	0.0
2026-01-04 16:27:20.720935	355.4	8.7	-61.7	0.0
2026-01-04 16:27:21.838196	355.3	8.6	-61.5	0.0
2026-01-04 16:27:22.954448	355.3	8.5	-61.6	0.0
2026-01-04 16:27:24.071709	355.2	8.5	-61.3	0.0
2026-01-04 16:27:25.189464	355.1	8.4	-61.4	0.0
2026-01-04 16:27:26.304716	355.0	8.3	-61.0	0.0
2026-01-04 16:27:27.419471	354.9	8.2	-60.8	0.0
2026-01-04 16:27:28.536731	354.8	8.1	-60.5	0.0
2026-01-04 16:27:29.653487	354.7	8.1	-61.2	0.0
2026-01-04 16:27:30.770738	354.6	8.0	-61.4	0.0
2026-01-04 16:27:31.887990	354.6	7.9	-61.2	0.0
2026-01-04 16:27:33.004241	354.5	7.8	-60.2	0.0
2026-01-04 16:27:34.120503	354.4	7.7	-61.1	0.0
2026-01-04 16:27:35.236754	354.3	7.7	-60.6	0.0
2026-01-04 16:27:36.352510	354.2	7.6	-60.8	0.0
2026-01-04 16:27:37.469266	354.1	7.5	-60.5	0.0
2026-01-04 16:27:38.586517	354.1	7.4	-60.5	0.0
2026-01-04 16:27:39.703273	354.0	7.4	-60.0	0.0
2026-01-04 16:27:40.818036	353.9	7.3	-60.5	0.0
2026-01-04 16:27:41.935792	353.8	7.2	-60.8	0.0
2026-01-04 16:27:43.052548	353.7	7.1	-60.4	0.0
2026-01-04 16:27:44.169817	353.6	7.0	-60.5	0.0
2026-01-04 16:27:45.284080	353.6	7.0	-59.8	0.0
2026-01-04 16:27:46.403328	353.5	6.9	-59.1	0.0
2026-01-04 16:27:47.521579	353.4	6.8	-59.5	0.0
2026-01-04 16:27:48.639335	353.3	6.7	-59.9	0.0
2026-01-04 16:27:49.756587	353.3	6.7	-59.7	0.0
2026-01-04 16:27:50.870838	353.2	6.6	-59.8	0.0
2026-01-04 16:27:51.985593	353.1	6.5	-59.8	0.0
2026-01-04 16:27:53.103349	353.0	6.4	-59.9	0.0
2026-01-04 16:27:54.221106	352.9	6.4	-59.8	0.0
2026-01-04 16:27:55.335870	352.9	6.3	-59.6	0.0
2026-01-04 16:27:56.454625	352.8	6.2	-59.0	0.0
2026-01-04 16:27:57.569876	352.7	6.1	-59.5	0.0
2026-01-04 16:27:58.686128	352.6	6.1	-59.5	0.0
2026-01-04 16:27:59.803388	352.6	6.0	-58.9	0.0
2026-01-04 16:28:00.920648	352.5	5.9	-61.1	0.0
2026-01-04 16:28:02.039900	352.4	5.8	-62.2	0.0
2026-01-04 16:28:03.156151	352.3	5.8	-59.5	0.0
2026-01-04 16:28:04.274403	352.3	5.7	-60.9	0.0
2026-01-04 16:28:05.393159	352.2	5.6	-65.3	0.0
2026-01-04 16:28:06.508418	352.1	5.5	-68.0	0.0
2026-01-04 16:28:07.624175	352.1	5.5	-67.1	0.0
2026-01-04 16:28:08.738930	352.0	5.4	-67.0	0.0
2026-01-04 16:28:09.857182	351.9	5.3	-68.1	0.0
2026-01-04 16:28:10.974434	351.8	5.2	-69.3	0.0
2026-01-04 16:28:12.090685	351.8	5.2	-69.7	0.0
2026-01-04 16:28:13.206936	351.7	5.1	-70.9	0.0
2026-01-04 16:28:14.324692	351.6	5.0	-70.9	0.0
#Closed at: 2026-01-04 16:16:31.140575