passes_logs/2026/01/04/PlanumMoscow/PlanumMoscow__20260104_183436_METOP-C_rec.log

#Pass ID: 20260104_183436_METOP-C
#Satellite: METOP-C
#Configuration: METOP-C
#Start time: 2026-01-04 18:34:41.945988

#LorettStation: 1.0.0 05.05.2024
#Station: PlanumMoscow
#Location: 37.6253844 lon 55.6713361 lat
#TLE: 1 43689U 18087A   25293.88981035  .00000265  00000+0  14109-3 0  9997
#TLE: 2 43689  98.7006 352.4487 0002041 122.1097 238.0279 14.21482740360838

#Time	Az	El	Level	SNR
2026-01-04 18:38:20.421722	192.4	28.0	-64.1	2.9
2026-01-04 18:38:22.655233	192.7	28.4	-64.4	3.1
2026-01-04 18:38:24.894738	193.0	28.7	-64.5	3.1
2026-01-04 18:38:27.137756	193.3	29.1	-64.4	1.9
2026-01-04 18:38:29.380269	193.6	29.5	-64.7	1.9
2026-01-04 18:38:31.624775	194.0	29.9	-64.8	2.1
2026-01-04 18:38:33.868792	194.3	30.3	-64.3	1.8
2026-01-04 18:38:36.110818	194.7	30.7	-65.5	3.1
2026-01-04 18:38:38.351347	195.1	31.1	-65.3	1.1
2026-01-04 18:38:40.584859	195.4	31.5	-65.3	1.1
2026-01-04 18:38:42.816866	195.8	31.9	-65.4	1.4
2026-01-04 18:38:45.049369	196.2	32.3	-65.7	2.7
2026-01-04 18:38:47.285377	196.6	32.7	-65.7	1.2
2026-01-04 18:38:49.516384	197.0	33.1	-65.0	0.7
2026-01-04 18:38:51.748391	197.4	33.5	-65.4	2.1
2026-01-04 18:38:53.982407	197.9	33.9	-65.3	3.0
2026-01-04 18:38:56.212413	198.3	34.4	-65.2	1.1
2026-01-04 18:38:58.443924	198.8	34.8	-63.6	0.0
2026-01-04 18:39:00.674435	199.2	35.2	-64.0	0.0
2026-01-04 18:39:02.906451	199.7	35.7	-64.6	0.0
2026-01-04 18:39:05.138953	200.2	36.1	-64.6	0.0
2026-01-04 18:39:07.369976	200.7	36.6	-66.0	0.0
2026-01-04 18:39:09.603488	201.3	37.0	-66.0	0.0
2026-01-04 18:39:11.834998	201.8	37.5	-65.9	0.0
2026-01-04 18:39:14.067510	202.3	37.9	-65.7	0.0
2026-01-04 18:39:16.296516	202.9	38.4	-66.1	0.0
2026-01-04 18:39:18.528523	203.5	38.8	-66.3	0.0
2026-01-04 18:39:20.763026	204.1	39.3	-66.3	0.0
2026-01-04 18:39:22.993040	204.7	39.8	-66.1	0.0
2026-01-04 18:39:25.226048	205.3	40.3	-66.4	0.0
2026-01-04 18:39:27.458063	206.0	40.7	-66.0	0.0
2026-01-04 18:39:29.689582	206.7	41.2	-66.9	0.0
2026-01-04 18:39:31.923094	207.3	41.7	-67.3	0.0
2026-01-04 18:39:34.154100	208.1	42.2	-66.4	0.0
2026-01-04 18:39:36.383612	208.8	42.6	-67.2	0.0
2026-01-04 18:39:38.615619	209.5	43.1	-66.9	0.0
2026-01-04 18:39:40.858132	210.3	43.6	-66.2	0.0
2026-01-04 18:39:43.106638	211.1	44.1	-67.0	0.0
2026-01-04 18:39:45.350153	212.0	44.6	-67.4	0.0
2026-01-04 18:39:47.592665	212.8	45.1	-67.3	0.0
2026-01-04 18:39:49.835188	213.7	45.6	-66.8	0.0
2026-01-04 18:39:52.079197	214.6	46.0	-66.4	0.0
2026-01-04 18:39:54.321223	215.5	46.5	-66.2	0.0
2026-01-04 18:39:56.559737	216.5	47.0	-66.7	0.0
2026-01-04 18:39:58.788744	217.5	47.5	-67.2	0.0
2026-01-04 18:40:01.022752	218.5	47.9	-66.2	0.0
2026-01-04 18:40:03.254767	219.6	48.4	-66.6	0.0
2026-01-04 18:40:05.485268	220.6	48.8	-66.8	0.0
2026-01-04 18:40:07.716284	221.8	49.3	-66.8	0.0
2026-01-04 18:40:09.949292	222.9	49.7	-67.0	0.0
2026-01-04 18:40:12.180803	224.1	50.2	-66.7	0.0
2026-01-04 18:40:14.412809	225.3	50.6	-66.7	0.0
2026-01-04 18:40:16.647322	226.5	51.0	-66.7	0.0
2026-01-04 18:40:18.882329	227.8	51.4	-66.8	0.0
2026-01-04 18:40:21.117832	229.1	51.8	-66.6	0.0
2026-01-04 18:40:23.350344	230.5	52.2	-67.0	0.0
2026-01-04 18:40:25.581846	231.9	52.6	-67.0	0.0
2026-01-04 18:40:27.817358	233.3	52.9	-66.7	0.0
2026-01-04 18:40:30.048372	234.7	53.2	-67.8	0.0
2026-01-04 18:40:32.282400	236.2	53.6	-66.6	0.0
2026-01-04 18:40:34.510407	237.7	53.9	-66.2	0.0
2026-01-04 18:40:36.741909	239.3	54.2	-66.8	0.0
2026-01-04 18:40:38.971420	240.8	54.4	-66.8	0.0
2026-01-04 18:40:41.201931	242.5	54.7	-66.6	0.0
2026-01-04 18:40:43.432441	244.1	54.9	-67.1	0.0
2026-01-04 18:40:45.661448	245.7	55.1	-66.9	0.0
2026-01-04 18:40:47.891950	247.4	55.3	-66.5	0.0
2026-01-04 18:40:50.120957	249.1	55.4	-66.4	0.0
2026-01-04 18:40:52.351468	250.8	55.5	-66.8	0.0
2026-01-04 18:40:54.580970	252.5	55.6	-66.5	0.0
2026-01-04 18:40:56.812472	254.3	55.7	-66.8	0.0
2026-01-04 18:40:59.052995	256.0	55.8	-66.4	0.0
2026-01-04 18:41:01.297004	257.8	55.8	-65.8	0.0
2026-01-04 18:41:03.539519	259.5	55.8	-66.0	0.0
2026-01-04 18:41:05.783032	261.3	55.8	-66.6	0.0
2026-01-04 18:41:08.026548	263.0	55.7	-66.5	0.0
2026-01-04 18:41:10.265559	264.8	55.7	-66.6	0.0
2026-01-04 18:41:12.508578	266.5	55.6	-66.5	0.0
2026-01-04 18:41:14.747090	268.2	55.4	-66.7	0.0
2026-01-04 18:41:16.981593	269.9	55.3	-66.9	0.0
2026-01-04 18:41:19.215113	271.6	55.1	-67.1	0.0
2026-01-04 18:41:21.447120	273.3	54.9	-66.8	0.0
2026-01-04 18:41:23.685136	274.9	54.7	-66.9	0.0
2026-01-04 18:41:25.919648	276.5	54.5	-66.7	0.0
2026-01-04 18:41:28.154151	278.1	54.2	-66.7	0.0
2026-01-04 18:41:30.382653	279.6	53.9	-66.7	0.0
2026-01-04 18:41:32.613660	281.1	53.6	-66.5	0.0
2026-01-04 18:41:34.844170	282.6	53.3	-66.2	0.0
2026-01-04 18:41:37.077673	284.1	53.0	-66.6	0.0
2026-01-04 18:41:39.309689	285.5	52.6	-66.7	0.0
2026-01-04 18:41:41.542192	286.9	52.3	-66.4	0.0
2026-01-04 18:41:43.780217	288.2	51.9	-66.5	0.0
2026-01-04 18:41:46.013232	289.6	51.5	-66.4	0.0
2026-01-04 18:41:48.244239	290.8	51.1	-66.8	0.0
2026-01-04 18:41:50.474246	292.1	50.7	-66.9	0.0
2026-01-04 18:41:52.706749	293.3	50.3	-66.2	0.0
2026-01-04 18:41:54.940756	294.5	49.8	-66.7	0.0
2026-01-04 18:41:57.173267	295.6	49.4	-67.3	0.0
2026-01-04 18:41:59.404778	296.8	48.9	-66.4	0.0
2026-01-04 18:42:01.639290	297.8	48.5	-67.0	0.0
2026-01-04 18:42:03.870297	298.9	48.0	-67.7	0.0
2026-01-04 18:42:06.106314	299.9	47.6	-67.7	0.0
2026-01-04 18:42:08.337817	300.9	47.1	-67.1	0.0
2026-01-04 18:42:10.569319	301.9	46.6	-67.0	0.0
2026-01-04 18:42:12.804335	302.8	46.2	-67.2	0.0
2026-01-04 18:42:15.035855	303.7	45.7	-66.2	0.0
2026-01-04 18:42:17.269358	304.6	45.2	-67.0	0.0
2026-01-04 18:42:19.502868	305.4	44.7	-66.2	0.0
2026-01-04 18:42:21.743395	306.3	44.2	-65.3	0.0
2026-01-04 18:42:23.985900	307.1	43.8	-66.0	0.0
2026-01-04 18:42:26.229910	307.9	43.3	-65.7	0.0
2026-01-04 18:42:28.472415	308.6	42.8	-65.2	0.0
2026-01-04 18:42:30.709935	309.4	42.3	-64.5	0.0
2026-01-04 18:42:32.953448	310.1	41.8	-65.5	0.0
2026-01-04 18:42:35.198458	310.8	41.4	-64.3	0.0
2026-01-04 18:42:37.440971	311.5	40.9	-65.2	0.0
2026-01-04 18:42:39.676483	312.1	40.4	-65.1	0.0
2026-01-04 18:42:41.908498	312.8	39.9	-63.9	0.0
2026-01-04 18:42:44.140001	313.4	39.5	-64.4	0.0
2026-01-04 18:42:46.368503	314.0	39.0	-63.4	0.0
2026-01-04 18:42:48.600005	314.6	38.5	-63.6	0.0
2026-01-04 18:42:50.834517	315.1	38.1	-63.2	0.0
2026-01-04 18:42:53.071525	315.7	37.6	-62.4	0.0
2026-01-04 18:42:55.302550	316.2	37.2	-62.3	0.0
2026-01-04 18:42:57.536052	316.7	36.7	-62.3	0.0
2026-01-04 18:42:59.769068	317.2	36.3	-61.4	0.0
2026-01-04 18:43:02.002571	317.7	35.8	-61.4	0.0
2026-01-04 18:43:04.234578	318.2	35.4	-61.0	0.0
2026-01-04 18:43:06.463088	318.7	35.0	-60.8	0.0
2026-01-04 18:43:08.694600	319.2	34.5	-60.7	0.0
2026-01-04 18:43:10.926103	319.6	34.1	-60.7	0.0
2026-01-04 18:43:13.156614	320.0	33.7	-59.9	0.0
2026-01-04 18:43:15.389637	320.5	33.3	-59.9	0.0
2026-01-04 18:43:17.621140	320.9	32.9	-59.7	0.0
2026-01-04 18:43:19.855147	321.3	32.4	-59.8	0.0
2026-01-04 18:43:22.088658	321.7	32.0	-59.3	0.0
2026-01-04 18:43:24.320169	322.1	31.6	-59.1	0.0
2026-01-04 18:43:26.559178	322.4	31.2	-59.3	0.0
2026-01-04 18:43:28.787680	322.8	30.9	-59.5	0.0
2026-01-04 18:43:31.020191	323.2	30.5	-59.0	0.0
2026-01-04 18:43:33.250198	323.5	30.1	-58.4	0.0
2026-01-04 18:43:35.482709	323.8	29.7	-58.8	0.0
2026-01-04 18:43:37.720230	324.2	29.3	-58.9	0.0
2026-01-04 18:43:39.954743	324.5	28.9	-58.7	0.0
2026-01-04 18:43:42.188246	324.8	28.6	-58.5	0.0
2026-01-04 18:43:44.420263	325.1	28.2	-58.3	0.0
2026-01-04 18:43:46.653270	325.4	27.9	-58.2	0.0
2026-01-04 18:43:48.886790	325.7	27.5	-58.1	0.0
2026-01-04 18:43:51.116292	326.0	27.1	-58.2	0.0
2026-01-04 18:43:53.343802	326.3	26.8	-58.3	0.0
2026-01-04 18:43:55.572818	326.6	26.5	-58.3	0.0
2026-01-04 18:43:57.804329	326.9	26.1	-58.1	0.0
2026-01-04 18:44:00.039841	327.2	25.8	-58.3	0.0
2026-01-04 18:44:02.272856	327.4	25.4	-58.3	0.0
2026-01-04 18:44:04.503368	327.7	25.1	-58.0	0.0
2026-01-04 18:44:06.735871	327.9	24.8	-58.1	0.0
2026-01-04 18:44:08.970382	328.2	24.5	-58.3	0.0
2026-01-04 18:44:11.202389	328.4	24.1	-58.4	0.0
2026-01-04 18:44:13.432396	328.7	23.8	-58.4	0.0
2026-01-04 18:44:15.665412	328.9	23.5	-58.6	0.0
2026-01-04 18:44:17.898428	329.1	23.2	-58.8	0.0
2026-01-04 18:44:20.130435	329.3	22.9	-58.3	0.0
2026-01-04 18:44:22.362451	329.6	22.6	-58.7	0.0
2026-01-04 18:44:24.593457	329.8	22.3	-59.0	0.0
2026-01-04 18:44:26.826473	330.0	22.0	-59.1	0.0
2026-01-04 18:44:29.058976	330.2	21.7	-59.2	0.0
2026-01-04 18:44:31.291489	330.4	21.4	-58.8	0.0
2026-01-04 18:44:33.525504	330.6	21.1	-59.2	0.0
2026-01-04 18:44:35.755023	330.8	20.8	-59.1	0.0
2026-01-04 18:44:37.987526	331.0	20.5	-59.3	0.0
2026-01-04 18:44:40.219038	331.2	20.3	-59.2	0.0
2026-01-04 18:44:42.450548	331.4	20.0	-59.2	0.0
2026-01-04 18:44:44.679059	331.6	19.7	-59.0	0.0
2026-01-04 18:44:46.908561	331.8	19.4	-59.1	0.0
2026-01-04 18:44:49.138072	331.9	19.2	-59.0	0.0
2026-01-04 18:44:51.368574	332.1	18.9	-59.2	0.0
2026-01-04 18:44:53.601085	332.3	18.7	-59.1	0.0
2026-01-04 18:44:55.836102	332.5	18.4	-59.2	0.0
2026-01-04 18:44:58.068614	332.6	18.1	-58.7	0.0
2026-01-04 18:45:00.299116	332.8	17.9	-58.8	0.0
2026-01-04 18:45:02.532627	332.9	17.6	-58.4	0.0
2026-01-04 18:45:04.764147	333.1	17.4	-58.4	0.0
2026-01-04 18:45:06.995658	333.3	17.1	-58.3	0.0
2026-01-04 18:45:09.226169	333.4	16.9	-58.6	0.0
2026-01-04 18:45:11.454679	333.6	16.6	-58.2	0.0
2026-01-04 18:45:13.687686	333.7	16.4	-58.0	0.0
2026-01-04 18:45:15.920693	333.9	16.2	-58.0	0.0
2026-01-04 18:45:18.155204	334.0	15.9	-58.0	0.0
2026-01-04 18:45:20.390219	334.2	15.7	-57.6	0.0
2026-01-04 18:45:22.620721	334.3	15.5	-57.2	0.0
2026-01-04 18:45:24.854737	334.4	15.2	-57.4	0.0
2026-01-04 18:45:27.086743	334.6	15.0	-57.5	0.0
2026-01-04 18:45:29.321256	334.7	14.8	-56.9	0.0
2026-01-04 18:45:31.554768	334.8	14.5	-56.4	0.0
2026-01-04 18:45:33.792280	335.0	14.3	-56.5	0.0
2026-01-04 18:45:36.025782	335.1	14.1	-56.6	0.0
2026-01-04 18:45:38.259790	335.2	13.9	-56.3	0.0
2026-01-04 18:45:40.491805	335.4	13.7	-56.1	0.0
2026-01-04 18:45:42.722315	335.5	13.4	-55.6	0.0
2026-01-04 18:45:44.956324	335.6	13.2	-55.6	0.0
2026-01-04 18:45:47.187338	335.7	13.0	-55.5	0.0
2026-01-04 18:45:49.422354	335.9	12.8	-55.2	0.0
2026-01-04 18:45:51.654865	336.0	12.6	-55.2	0.0
2026-01-04 18:45:53.888375	336.1	12.4	-55.3	0.0
2026-01-04 18:45:56.121878	336.2	12.2	-54.8	0.0
2026-01-04 18:45:58.351390	336.3	12.0	-54.7	0.0
2026-01-04 18:46:00.588398	336.4	11.8	-54.5	0.0
2026-01-04 18:46:02.822909	336.5	11.6	-54.0	0.0
2026-01-04 18:46:05.055917	336.7	11.4	-54.0	0.0
2026-01-04 18:46:07.287428	336.8	11.2	-54.0	0.0
2026-01-04 18:46:09.522939	336.9	11.0	-53.8	0.0
2026-01-04 18:46:11.755964	337.0	10.8	-53.7	0.0
2026-01-04 18:46:13.988467	337.1	10.6	-53.5	0.0
2026-01-04 18:46:16.220474	337.2	10.4	-53.7	0.0
2026-01-04 18:46:18.454481	337.3	10.2	-53.3	0.0
2026-01-04 18:46:20.684497	337.4	10.0	-53.1	0.0
2026-01-04 18:46:22.914999	337.5	9.9	-53.1	0.0
2026-01-04 18:46:25.148511	337.6	9.7	-53.3	0.0
2026-01-04 18:46:27.378517	337.7	9.5	-53.2	0.0
2026-01-04 18:46:29.608533	337.8	9.3	-52.5	0.0
2026-01-04 18:46:31.843074	337.9	9.1	-52.7	0.0
2026-01-04 18:46:34.072593	338.0	8.9	-52.9	0.0
2026-01-04 18:46:36.302104	338.1	8.8	-52.7	0.0
2026-01-04 18:46:38.532119	338.2	8.6	-52.5	0.0
2026-01-04 18:46:40.763134	338.2	8.4	-52.3	0.0
2026-01-04 18:46:42.995150	338.3	8.2	-51.9	0.0
2026-01-04 18:46:45.227661	338.4	8.1	-52.1	0.0
2026-01-04 18:46:47.458667	338.5	7.9	-52.0	0.0
2026-01-04 18:46:49.692188	338.6	7.7	-52.1	0.0
2026-01-04 18:46:51.923194	338.7	7.5	-52.2	0.0
2026-01-04 18:46:54.155697	338.8	7.4	-52.0	0.0
2026-01-04 18:46:56.391218	338.9	7.2	-51.6	0.0
2026-01-04 18:46:58.624242	338.9	7.0	-51.9	0.0
2026-01-04 18:47:00.858752	339.0	6.9	-51.4	0.0
2026-01-04 18:47:03.089263	339.1	6.7	-51.4	0.0
2026-01-04 18:47:05.322270	339.2	6.5	-51.3	0.0
2026-01-04 18:47:07.556782	339.3	6.4	-51.5	0.0
2026-01-04 18:47:09.788293	339.3	6.2	-51.4	0.0
2026-01-04 18:47:12.020299	339.4	6.0	-53.5	0.0
2026-01-04 18:47:14.250305	339.5	5.9	-62.3	0.0
2026-01-04 18:47:16.480825	339.6	5.7	-60.6	0.0
2026-01-04 18:47:18.715345	339.7	5.6	-66.1	0.0
2026-01-04 18:47:20.947351	339.7	5.4	-66.0	0.0
2026-01-04 18:47:23.178854	339.8	5.3	-66.4	0.0
2026-01-04 18:47:25.408356	339.9	5.1	-66.1	0.0
#Closed at: 2026-01-04 18:34:36.948291