passes_logs/2026/01/04/PlanumMoscow/PlanumMoscow__20260104_062551_METOP-B_rec.log

#Pass ID: 20260104_062551_METOP-B
#Satellite: METOP-B
#Configuration: METOP-B
#Start time: 2026-01-04 06:25:56.536508

#LorettStation: 1.0.0 05.05.2024
#Station: PlanumMoscow
#Location: 37.6253844 lon 55.6713361 lat
#TLE: 1 38771U 12049A   25293.92766658  .00000266  00000+0  14193-3 0  9996
#TLE: 2 38771  98.6882 344.7603 0001609 341.5209  18.5909 14.21379342679275

#Time	Az	El	Level	SNR
2026-01-04 06:29:34.953163	43.0	25.5	-62.6	5.3
2026-01-04 06:29:37.188713	43.4	25.8	-63.5	5.7
2026-01-04 06:29:39.432226	43.8	26.1	-63.4	6.1
2026-01-04 06:29:41.668242	44.2	26.4	-63.3	5.4
2026-01-04 06:29:43.900754	44.6	26.7	-63.4	5.7
2026-01-04 06:29:46.134265	45.1	27.0	-61.2	1.6
2026-01-04 06:29:48.367768	45.5	27.3	-63.6	6.0
2026-01-04 06:29:50.600775	46.0	27.6	-63.3	7.3
2026-01-04 06:29:52.836279	46.4	27.9	-63.1	5.2
2026-01-04 06:29:55.069294	46.9	28.2	-63.4	6.5
2026-01-04 06:29:57.302301	47.4	28.5	-63.3	6.2
2026-01-04 06:29:59.536317	47.9	28.8	-63.7	6.9
2026-01-04 06:30:01.776333	48.4	29.1	-63.8	6.7
2026-01-04 06:30:04.006844	48.9	29.5	-63.6	4.9
2026-01-04 06:30:06.240852	49.4	29.8	-60.1	0.0
2026-01-04 06:30:08.473860	49.9	30.1	-63.0	6.3
2026-01-04 06:30:10.708371	50.4	30.4	-63.6	5.8
2026-01-04 06:30:12.948884	51.0	30.7	-63.6	5.9
2026-01-04 06:30:15.183404	51.6	31.0	-63.0	0.8
2026-01-04 06:30:17.418915	52.1	31.3	-63.6	4.5
2026-01-04 06:30:19.650427	52.7	31.6	-63.6	6.7
2026-01-04 06:30:21.887931	53.3	32.0	-64.1	6.4
2026-01-04 06:30:24.122442	53.9	32.3	-63.9	6.0
2026-01-04 06:30:26.353953	54.5	32.6	-63.6	5.0
2026-01-04 06:30:28.588456	55.1	32.9	-63.3	4.9
2026-01-04 06:30:30.823013	55.8	33.2	-62.5	0.0
2026-01-04 06:30:33.065528	56.4	33.5	-63.2	4.4
2026-01-04 06:30:35.296030	57.1	33.8	-63.3	5.1
2026-01-04 06:30:37.531038	57.8	34.1	-63.0	4.4
2026-01-04 06:30:39.765550	58.5	34.5	-63.2	6.3
2026-01-04 06:30:42.009586	59.2	34.8	-63.0	5.4
2026-01-04 06:30:44.253108	59.9	35.1	-61.8	3.7
2026-01-04 06:30:46.496613	60.6	35.4	-62.5	2.5
2026-01-04 06:30:48.739631	61.3	35.7	-62.2	5.9
2026-01-04 06:30:50.984137	62.1	36.0	-61.3	3.2
2026-01-04 06:30:53.227651	62.9	36.3	-61.8	2.9
2026-01-04 06:30:55.470667	63.7	36.6	-62.2	4.3
2026-01-04 06:30:57.707692	64.5	36.9	-62.1	3.7
2026-01-04 06:30:59.939203	65.3	37.2	-62.2	5.8
2026-01-04 06:31:02.174715	66.1	37.4	-60.2	3.0
2026-01-04 06:31:04.408218	66.9	37.7	-62.3	5.2
2026-01-04 06:31:06.643233	67.8	38.0	-62.1	4.8
2026-01-04 06:31:08.878256	68.7	38.3	-62.6	4.3
2026-01-04 06:31:11.112759	69.5	38.5	-61.3	4.1
2026-01-04 06:31:13.344262	70.4	38.8	-63.2	6.0
2026-01-04 06:31:15.577774	71.3	39.0	-61.2	1.0
2026-01-04 06:31:17.811294	72.3	39.3	-63.1	6.4
2026-01-04 06:31:20.045797	73.2	39.5	-61.9	1.6
2026-01-04 06:31:22.278308	74.2	39.7	-61.3	2.5
2026-01-04 06:31:24.507810	75.1	40.0	-63.0	4.8
2026-01-04 06:31:26.740817	76.1	40.2	-62.9	5.3
2026-01-04 06:31:28.973832	77.1	40.4	-61.6	3.5
2026-01-04 06:31:31.207839	78.1	40.6	-61.2	4.1
2026-01-04 06:31:33.444847	79.1	40.8	-61.5	5.0
2026-01-04 06:31:35.677862	80.1	41.0	-61.8	4.3
2026-01-04 06:31:37.909878	81.2	41.2	-61.8	4.7
2026-01-04 06:31:40.145390	82.2	41.3	-62.0	7.0
2026-01-04 06:31:42.376396	83.3	41.5	-62.0	5.7
2026-01-04 06:31:44.609899	84.4	41.6	-61.8	4.1
2026-01-04 06:31:46.844411	85.4	41.8	-63.0	5.3
2026-01-04 06:31:49.078418	86.5	41.9	-63.9	7.4
2026-01-04 06:31:51.315931	87.6	42.0	-63.7	5.8
2026-01-04 06:31:53.549938	88.7	42.1	-64.6	8.3
2026-01-04 06:31:55.785441	89.8	42.2	-63.6	7.4
2026-01-04 06:31:58.019449	91.0	42.3	-64.4	5.4
2026-01-04 06:32:00.255465	92.1	42.3	-64.8	7.3
2026-01-04 06:32:02.486480	93.2	42.4	-65.0	8.5
2026-01-04 06:32:04.717523	94.3	42.4	-64.9	8.2
2026-01-04 06:32:06.948530	95.5	42.5	-64.7	8.9
2026-01-04 06:32:09.182042	96.6	42.5	-64.6	7.2
2026-01-04 06:32:11.417554	97.7	42.5	-64.5	7.8
2026-01-04 06:32:13.649056	98.9	42.5	-64.5	5.5
2026-01-04 06:32:15.884072	100.0	42.4	-62.8	6.0
2026-01-04 06:32:18.120584	101.1	42.4	-64.8	8.4
2026-01-04 06:32:20.354096	102.3	42.4	-65.0	8.2
2026-01-04 06:32:22.592105	103.4	42.3	-64.8	8.3
2026-01-04 06:32:24.827121	104.5	42.2	-64.8	8.4
2026-01-04 06:32:27.061128	105.6	42.2	-65.2	8.5
2026-01-04 06:32:29.291638	106.7	42.1	-64.9	8.6
2026-01-04 06:32:31.524645	107.8	42.0	-64.8	8.4
2026-01-04 06:32:33.768664	108.9	41.9	-64.5	9.0
2026-01-04 06:32:36.012673	110.0	41.7	-63.8	9.4
2026-01-04 06:32:38.256683	111.1	41.6	-64.5	9.4
2026-01-04 06:32:40.500197	112.2	41.5	-64.2	9.5
2026-01-04 06:32:42.735709	113.3	41.3	-64.6	8.9
2026-01-04 06:32:44.979214	114.3	41.1	-64.6	7.7
2026-01-04 06:32:47.222728	115.4	41.0	-64.7	8.5
2026-01-04 06:32:49.465242	116.4	40.8	-64.7	9.0
2026-01-04 06:32:51.709747	117.4	40.6	-63.7	4.6
2026-01-04 06:32:53.944258	118.4	40.4	-63.7	8.8
2026-01-04 06:32:56.176761	119.4	40.2	-62.2	3.9
2026-01-04 06:32:58.409264	120.4	39.9	-64.5	8.7
2026-01-04 06:33:00.647280	121.3	39.7	-64.8	8.7
2026-01-04 06:33:02.878783	122.3	39.5	-64.6	8.6
2026-01-04 06:33:05.112294	123.2	39.2	-64.7	8.6
2026-01-04 06:33:07.343797	124.2	39.0	-64.1	8.2
2026-01-04 06:33:09.577307	125.1	38.7	-64.0	8.5
2026-01-04 06:33:11.812323	126.0	38.5	-64.2	9.3
2026-01-04 06:33:14.044330	126.9	38.2	-64.6	8.4
2026-01-04 06:33:16.276843	127.7	37.9	-63.7	8.3
2026-01-04 06:33:18.506850	128.6	37.7	-64.2	7.9
2026-01-04 06:33:20.738857	129.4	37.4	-64.7	9.2
2026-01-04 06:33:22.972864	130.2	37.1	-64.6	8.8
2026-01-04 06:33:25.204871	131.0	36.8	-64.3	8.9
2026-01-04 06:33:27.439383	131.8	36.5	-64.2	8.5
2026-01-04 06:33:29.671894	132.6	36.2	-64.8	8.5
2026-01-04 06:33:31.906910	133.4	35.9	-65.0	9.6
2026-01-04 06:33:34.137412	134.1	35.6	-64.0	9.0
2026-01-04 06:33:36.368419	134.9	35.3	-63.8	7.7
2026-01-04 06:33:38.599426	135.6	35.0	-64.3	10.1
2026-01-04 06:33:40.833441	136.3	34.7	-64.2	10.4
2026-01-04 06:33:43.064963	137.0	34.4	-63.8	10.4
2026-01-04 06:33:45.294474	137.7	34.1	-64.2	10.6
2026-01-04 06:33:47.526481	138.4	33.8	-64.3	10.6
2026-01-04 06:33:49.759993	139.1	33.4	-64.2	10.2
2026-01-04 06:33:51.996505	139.7	33.1	-64.1	10.2
2026-01-04 06:33:54.225016	140.3	32.8	-64.4	10.7
2026-01-04 06:33:56.460024	141.0	32.5	-64.2	10.4
2026-01-04 06:33:58.693040	141.6	32.2	-64.9	10.5
2026-01-04 06:34:00.937050	142.2	31.9	-64.4	9.3
2026-01-04 06:34:03.181556	142.8	31.5	-65.2	10.0
2026-01-04 06:34:05.424583	143.4	31.2	-65.3	9.2
2026-01-04 06:34:07.658111	143.9	30.9	-65.5	9.2
2026-01-04 06:34:09.889613	144.5	30.6	-65.1	8.3
2026-01-04 06:34:12.122116	145.0	30.3	-65.3	8.5
2026-01-04 06:34:14.355628	145.6	30.0	-65.1	7.4
2026-01-04 06:34:16.588139	146.1	29.7	-65.5	9.2
2026-01-04 06:34:18.820146	146.6	29.3	-65.4	9.2
2026-01-04 06:34:21.051701	147.1	29.0	-64.9	9.5
2026-01-04 06:34:23.281203	147.6	28.7	-65.1	9.7
2026-01-04 06:34:25.510705	148.1	28.4	-65.1	9.3
2026-01-04 06:34:27.747722	148.6	28.1	-64.9	10.2
2026-01-04 06:34:29.990236	149.1	27.8	-64.8	8.8
2026-01-04 06:34:32.234255	149.5	27.5	-65.1	9.5
2026-01-04 06:34:34.479273	150.0	27.2	-64.7	9.8
2026-01-04 06:34:36.714777	150.4	26.9	-64.8	9.4
2026-01-04 06:34:38.947288	150.9	26.6	-64.9	9.2
2026-01-04 06:34:41.177304	151.3	26.3	-64.8	9.4
2026-01-04 06:34:43.407815	151.7	26.0	-65.0	9.7
2026-01-04 06:34:45.638829	152.1	25.7	-65.2	9.1
2026-01-04 06:34:47.868836	152.5	25.4	-65.3	9.0
2026-01-04 06:34:50.101864	152.9	25.1	-65.3	8.6
2026-01-04 06:34:52.333374	153.3	24.8	-65.3	8.7
2026-01-04 06:34:54.567382	153.7	24.5	-65.1	8.7
2026-01-04 06:34:56.797902	154.1	24.2	-64.9	8.7
2026-01-04 06:34:59.028404	154.4	24.0	-65.0	8.1
2026-01-04 06:35:01.259916	154.8	23.7	-65.0	8.9
2026-01-04 06:35:03.494427	155.2	23.4	-65.1	8.8
2026-01-04 06:35:05.727938	155.5	23.1	-65.0	8.5
2026-01-04 06:35:07.960450	155.9	22.8	-64.9	7.9
2026-01-04 06:35:10.193969	156.2	22.6	-64.9	8.5
2026-01-04 06:35:12.424480	156.5	22.3	-64.9	8.3
2026-01-04 06:35:14.658487	156.9	22.0	-65.0	8.5
2026-01-04 06:35:16.891998	157.2	21.8	-64.8	7.8
2026-01-04 06:35:19.126006	157.5	21.5	-65.1	7.7
2026-01-04 06:35:21.357022	157.8	21.2	-64.9	7.8
2026-01-04 06:35:23.589029	158.1	21.0	-65.2	7.7
2026-01-04 06:35:25.820531	158.4	20.7	-65.2	7.7
2026-01-04 06:35:28.052539	158.7	20.4	-65.2	7.7
2026-01-04 06:35:30.284545	159.0	20.2	-65.4	7.3
2026-01-04 06:35:32.518056	159.3	19.9	-65.1	7.0
2026-01-04 06:35:34.750063	159.6	19.7	-65.2	7.5
2026-01-04 06:35:36.983071	159.9	19.4	-64.9	6.9
2026-01-04 06:35:39.227081	160.1	19.2	-65.1	7.3
2026-01-04 06:35:41.470142	160.4	18.9	-64.9	6.4
2026-01-04 06:35:43.713667	160.7	18.7	-64.9	6.6
2026-01-04 06:35:45.955693	160.9	18.4	-64.7	6.2
2026-01-04 06:35:48.199703	161.2	18.2	-64.8	6.2
2026-01-04 06:35:50.443217	161.5	18.0	-64.9	6.5
2026-01-04 06:35:52.687228	161.7	17.7	-65.1	5.8
2026-01-04 06:35:54.921235	162.0	17.5	-64.9	5.3
2026-01-04 06:35:57.152746	162.2	17.2	-64.9	5.3
2026-01-04 06:35:59.386259	162.4	17.0	-64.7	5.3
2026-01-04 06:36:01.619771	162.7	16.8	-65.3	5.1
2026-01-04 06:36:03.854282	162.9	16.5	-65.0	5.6
2026-01-04 06:36:06.084297	163.1	16.3	-64.9	5.5
2026-01-04 06:36:08.316303	163.4	16.1	-64.8	5.9
2026-01-04 06:36:10.549311	163.6	15.9	-65.4	4.7
2026-01-04 06:36:12.780318	163.8	15.6	-65.2	6.0
2026-01-04 06:36:15.013333	164.0	15.4	-65.2	5.4
2026-01-04 06:36:17.244340	164.2	15.2	-64.7	5.1
2026-01-04 06:36:19.476852	164.4	15.0	-64.8	5.4
2026-01-04 06:36:21.710363	164.6	14.8	-64.9	5.2
2026-01-04 06:36:23.945379	164.8	14.6	-64.7	5.2
2026-01-04 06:36:26.175890	165.0	14.3	-64.9	5.6
2026-01-04 06:36:28.405907	165.2	14.1	-65.3	5.1
2026-01-04 06:36:30.635409	165.4	13.9	-65.2	5.6
2026-01-04 06:36:32.869921	165.6	13.7	-65.0	4.8
2026-01-04 06:36:35.101433	165.8	13.5	-65.1	4.3
2026-01-04 06:36:37.334441	166.0	13.3	-65.1	4.8
2026-01-04 06:36:39.567943	166.2	13.1	-65.8	5.7
2026-01-04 06:36:41.798454	166.4	12.9	-66.0	5.5
2026-01-04 06:36:44.031462	166.6	12.7	-66.5	4.9
2026-01-04 06:36:46.260964	166.7	12.5	-65.9	5.9
2026-01-04 06:36:48.493971	166.9	12.3	-65.7	5.6
2026-01-04 06:36:50.725474	167.1	12.1	-66.1	5.8
2026-01-04 06:36:52.960499	167.3	11.9	-66.1	3.9
2026-01-04 06:36:55.204022	167.4	11.7	-66.5	5.4
2026-01-04 06:36:57.451040	167.6	11.5	-65.9	4.5
2026-01-04 06:36:59.694554	167.8	11.3	-66.0	4.7
2026-01-04 06:37:01.938059	167.9	11.1	-65.9	4.1
2026-01-04 06:37:04.182069	168.1	10.9	-65.9	5.2
2026-01-04 06:37:06.425087	168.2	10.8	-65.7	5.7
2026-01-04 06:37:08.666104	168.4	10.6	-66.5	5.3
2026-01-04 06:37:10.898120	168.6	10.4	-65.8	4.8
2026-01-04 06:37:13.130631	168.7	10.2	-66.2	3.3
2026-01-04 06:37:15.361141	168.9	10.0	-65.8	1.1
2026-01-04 06:37:17.592148	169.0	9.8	-66.1	5.2
2026-01-04 06:37:19.824154	169.2	9.7	-66.1	4.2
2026-01-04 06:37:22.055666	169.3	9.5	-65.6	6.4
2026-01-04 06:37:24.287169	169.5	9.3	-65.9	2.9
2026-01-04 06:37:26.519679	169.6	9.1	-66.3	1.5
2026-01-04 06:37:28.748685	169.7	8.9	-65.9	2.5
2026-01-04 06:37:30.980205	169.9	8.8	-66.1	3.3
2026-01-04 06:37:33.210212	170.0	8.6	-65.8	2.8
2026-01-04 06:37:35.441218	170.1	8.4	-66.3	2.9
2026-01-04 06:37:37.672729	170.3	8.3	-65.9	3.4
2026-01-04 06:37:39.901240	170.4	8.1	-66.2	3.0
2026-01-04 06:37:42.131751	170.5	7.9	-65.7	2.6
2026-01-04 06:37:44.360757	170.7	7.7	-66.1	2.6
2026-01-04 06:37:46.589763	170.8	7.6	-65.7	2.7
2026-01-04 06:37:48.823266	170.9	7.4	-66.1	2.8
2026-01-04 06:37:51.052769	171.1	7.2	-66.3	3.8
2026-01-04 06:37:53.285784	171.2	7.1	-65.7	4.4
2026-01-04 06:37:55.518295	171.3	6.9	-65.9	4.0
2026-01-04 06:37:57.749301	171.4	6.8	-65.7	3.9
2026-01-04 06:37:59.983335	171.6	6.6	-66.0	3.7
2026-01-04 06:38:02.215846	171.7	6.4	-66.0	4.6
2026-01-04 06:38:04.445852	171.8	6.3	-66.0	3.2
2026-01-04 06:38:06.676355	171.9	6.1	-65.9	3.3
2026-01-04 06:38:08.910362	172.0	6.0	-67.5	1.6
2026-01-04 06:38:11.141369	172.1	5.8	-71.6	0.0
2026-01-04 06:38:13.369375	172.3	5.6	-72.2	0.0
2026-01-04 06:38:15.597900	172.4	5.5	-72.5	0.0
2026-01-04 06:38:17.830907	172.5	5.3	-72.1	0.0
2026-01-04 06:38:20.060409	172.6	5.2	-73.1	0.0
2026-01-04 06:38:22.290416	172.7	5.0	-73.0	0.0
#Closed at: 2026-01-04 06:25:51.537495