passes_logs/2026/01/02/R4.6S_Anadyr/R4.6S_Anadyr__20260102_024335_FENGYUN_3D_rec.log

#Pass ID: 20260102_024335_FENGYUN 3D
#Satellite: FENGYUN 3D
#Configuration: FENGYUN 3D
#almurnet v.1.7.20251203
#Start time: 2026-01-02 02:43:38

#Version: 2.2.20231116
#Station: R4.6S_Anadyr
#Location: 177.4865 lon 64.73178 lat
#TLE: 1 43010U 17072A   26001.61291428  .00000334  00000+0  17967-3 0  9999
#TLE: 2 43010  98.9910 333.2233 0001869 133.3004 226.8328 14.19691253421350

#Time	Az	El	Level	Level2	SNR	BER	BlckErr	Temp	State	Recorded	gain1	gain2
2026-01-02 02:43:38.18	168.50	0.14	-49.3	-67.1	3.5	3.02e+01	0	36	0	0	60	87176
2026-01-02 02:43:42.22	168.57	0.38	-49.2	-61.3	3.6	8.45e-01	0	37	104	0	60	42032
2026-01-02 02:43:46.26	168.65	0.63	-49.1	-61.2	3.6	8.45e-01	0	37	104	0	60	41575
2026-01-02 02:43:50.29	168.73	0.87	-48.7	-61.1	3.6	8.45e-01	0	37	104	0	60	40822
2026-01-02 02:43:54.33	168.80	1.12	-48.5	-60.6	3.6	8.46e-01	0	37	104	0	60	38875
2026-01-02 02:43:58.37	168.88	1.37	-47.6	-59.7	3.6	8.45e-01	0	38	104	0	60	34873
2026-01-02 02:44:02.41	168.97	1.62	-47.6	-59.4	3.6	8.44e-01	0	38	104	0	60	33843
2026-01-02 02:44:06.45	169.05	1.88	-47.6	-59.1	3.6	8.45e-01	0	38	104	0	60	32512
2026-01-02 02:44:10.49	169.13	2.14	-47.6	-59.7	3.6	8.45e-01	0	38	104	0	60	34797
2026-01-02 02:44:14.53	169.22	2.40	-47.6	-59.5	3.6	8.46e-01	0	38	104	0	60	33993
2026-01-02 02:44:18.57	169.30	2.66	-47.5	-58.1	3.6	8.44e-01	0	38	104	0	60	28931
2026-01-02 02:44:22.61	169.39	2.92	-47.4	-58.1	3.6	8.44e-01	0	38	104	0	60	29054
2026-01-02 02:44:26.65	169.48	3.19	-44.5	-47.4	11.2	1.06e-02	0	38	0	7340032	60	8470
2026-01-02 02:44:30.69	169.57	3.46	-38.9	-40.0	18.9	0.00e+00	0	38	0	30408704	52	5708
2026-01-02 02:44:34.73	169.66	3.73	-37.1	-38.0	20.6	0.00e+00	0	38	0	53477376	48	5708
2026-01-02 02:44:38.77	169.75	4.00	-37.4	-38.4	19.6	0.00e+00	0	38	0	68157440	46	6713
2026-01-02 02:44:42.81	169.85	4.28	-37.1	-38.0	20.7	0.00e+00	0	38	0	89128960	48	5724
2026-01-02 02:44:46.84	169.94	4.56	-35.9	-36.6	22.0	0.00e+00	0	38	0	112197632	46	5495
2026-01-02 02:44:50.88	170.04	4.84	-35.8	-36.6	22.2	0.00e+00	0	38	0	135266304	44	6135
2026-01-02 02:44:54.92	170.14	5.13	-35.4	-36.1	22.6	0.00e+00	0	38	0	157286400	44	5806
2026-01-02 02:44:58.95	170.24	5.41	-35.5	-36.2	22.5	0.00e+00	0	38	0	180355072	44	5885
2026-01-02 02:45:03.00	170.34	5.71	-35.4	-36.1	22.8	0.00e+00	0	38	0	202375168	44	5820
2026-01-02 02:45:07.04	170.45	6.00	-35.7	-36.5	22.5	0.00e+00	0	38	0	225443840	44	6057
2026-01-02 02:45:11.07	170.55	6.30	-35.0	-35.8	23.1	0.00e+00	0	38	0	248512512	44	5580
2026-01-02 02:45:15.11	170.66	6.60	-35.1	-35.8	23.1	0.00e+00	0	38	0	271581184	44	5614
2026-01-02 02:45:19.15	170.77	6.91	-34.9	-35.6	23.3	0.00e+00	0	38	0	293601280	44	5480
2026-01-02 02:45:23.19	170.89	7.22	-34.9	-35.6	23.2	0.00e+00	0	38	0	316669952	44	5496
2026-01-02 02:45:27.23	171.00	7.53	-34.8	-35.5	23.5	0.00e+00	0	38	0	339738624	42	6076
2026-01-02 02:45:31.26	171.12	7.85	-34.7	-35.3	23.7	0.00e+00	0	38	0	361758720	42	5961
2026-01-02 02:45:35.30	171.24	8.17	-34.5	-35.2	23.9	0.00e+00	0	38	0	384827392	42	5887
2026-01-02 02:45:39.34	171.36	8.49	-34.7	-35.4	23.6	0.00e+00	0	38	0	406847488	42	6022
2026-01-02 02:45:43.38	171.48	8.82	-34.3	-35.0	24.1	0.00e+00	0	38	0	429916160	42	5712
2026-01-02 02:45:47.42	171.61	9.15	-34.2	-34.9	24.2	0.00e+00	0	38	0	452984832	42	5643
2026-01-02 02:45:51.46	171.74	9.49	-34.3	-35.0	24.2	0.00e+00	0	38	0	476053504	42	5717
2026-01-02 02:45:55.49	171.87	9.83	-34.2	-34.9	24.3	0.00e+00	0	38	0	498073600	42	5637
2026-01-02 02:45:59.53	172.00	10.18	-34.0	-34.7	24.4	0.00e+00	0	38	0	521142272	42	5509
2026-01-02 02:46:03.57	172.14	10.53	-34.0	-34.7	24.4	0.00e+00	0	38	0	544210944	42	5521
2026-01-02 02:46:07.61	172.28	10.89	-33.8	-34.5	24.5	0.00e+00	0	38	0	566231040	42	5397
2026-01-02 02:46:11.64	172.42	11.25	-33.9	-34.5	24.6	0.00e+00	0	38	0	589299712	42	5433
2026-01-02 02:46:15.68	172.57	11.61	-33.7	-34.4	24.7	0.00e+00	0	38	0	611319808	40	6011
2026-01-02 02:46:19.72	172.72	11.99	-33.8	-34.5	24.6	0.00e+00	0	38	0	634388480	40	6082
2026-01-02 02:46:23.76	172.88	12.36	-33.6	-34.3	24.9	0.00e+00	0	38	0	657457152	40	5940
2026-01-02 02:46:27.80	173.03	12.75	-33.5	-34.1	25.0	0.00e+00	0	38	0	680525824	40	5819
2026-01-02 02:46:31.83	173.19	13.14	-33.4	-34.1	25.0	0.00e+00	0	38	0	702545920	40	5774
2026-01-02 02:46:35.87	173.36	13.53	-33.2	-33.9	25.2	0.00e+00	0	38	0	725614592	40	5648
2026-01-02 02:46:39.92	173.53	13.93	-33.1	-33.8	25.4	0.00e+00	0	38	0	748683264	40	5587
2026-01-02 02:46:43.96	173.70	14.34	-33.0	-33.6	25.5	0.00e+00	0	38	0	770703360	40	5498
2026-01-02 02:46:48.00	173.88	14.76	-33.0	-33.7	25.5	0.00e+00	0	38	0	793772032	40	5547
2026-01-02 02:46:52.03	174.06	15.18	-32.6	-33.2	25.8	0.00e+00	0	38	0	815792128	38	5896
2026-01-02 02:46:56.07	174.25	15.61	-32.4	-33.0	26.1	0.00e+00	0	38	0	838860800	38	5748
2026-01-02 02:47:00.11	174.44	16.05	-32.1	-32.8	26.3	0.00e+00	0	38	0	861929472	38	5584
2026-01-02 02:47:04.14	174.64	16.49	-32.0	-32.6	26.5	0.00e+00	0	38	0	883949568	38	5477
2026-01-02 02:47:08.18	174.85	16.94	-31.8	-32.4	26.7	0.00e+00	0	38	0	907018240	38	5376
2026-01-02 02:47:12.22	175.05	17.40	-31.9	-32.5	26.7	0.00e+00	0	38	0	930086912	36	6067
2026-01-02 02:47:16.26	175.27	17.87	-31.8	-32.4	26.7	0.00e+00	0	38	0	953155584	36	6016
2026-01-02 02:47:20.30	175.49	18.35	-31.6	-32.3	26.8	0.00e+00	0	38	0	975175680	36	5903
2026-01-02 02:47:24.34	175.72	18.84	-31.8	-32.4	26.7	0.00e+00	0	38	0	998244352	36	6020
2026-01-02 02:47:28.37	175.96	19.33	-31.6	-32.3	26.8	0.00e+00	0	38	0	1020264448	36	5921
2026-01-02 02:47:32.41	176.20	19.84	-31.4	-32.0	27.1	0.00e+00	0	38	0	1043333120	36	5755
2026-01-02 02:47:36.45	176.45	20.36	-31.3	-31.9	27.1	0.00e+00	0	38	0	1066401792	36	5693
2026-01-02 02:47:40.50	176.71	20.89	-31.4	-32.0	27.0	0.00e+00	0	38	0	1088421888	36	5756
2026-01-02 02:47:44.53	176.98	21.42	-31.2	-31.8	27.2	0.00e+00	0	38	0	1111490560	36	5608
2026-01-02 02:47:48.56	177.25	21.97	-31.1	-31.7	27.3	0.00e+00	0	38	0	1134559232	36	5523
2026-01-02 02:47:52.60	177.54	22.53	-31.0	-31.6	27.3	0.00e+00	0	38	0	1157627904	36	5501
2026-01-02 02:47:56.64	177.83	23.10	-30.7	-31.3	27.7	0.00e+00	0	38	0	1179648000	34	5908
2026-01-02 02:48:00.67	178.14	23.68	-30.7	-31.4	27.5	0.00e+00	0	38	0	1202716672	34	5980
2026-01-02 02:48:04.71	178.46	24.28	-30.6	-31.3	27.7	0.00e+00	0	38	0	1224736768	34	5904
2026-01-02 02:48:08.75	178.78	24.89	-30.3	-30.9	27.9	0.00e+00	0	38	0	1247805440	34	5682
2026-01-02 02:48:12.79	179.13	25.51	-30.2	-30.8	28.0	0.00e+00	0	38	0	1270874112	34	5615
2026-01-02 02:48:16.82	179.48	26.15	-30.3	-30.8	28.0	0.00e+00	0	38	0	1292894208	34	5617
2026-01-02 02:48:20.86	179.85	26.80	-30.2	-30.8	28.1	0.00e+00	0	38	0	1315962880	34	5606
2026-01-02 02:48:24.90	180.23	27.46	-30.4	-31.0	27.9	0.00e+00	0	38	0	1339031552	34	5709
2026-01-02 02:48:28.94	180.63	28.15	-30.2	-30.8	28.1	0.00e+00	0	38	0	1361051648	34	5586
2026-01-02 02:48:32.98	181.05	28.84	-30.0	-30.6	28.2	0.00e+00	0	38	0	1384120320	34	5444
2026-01-02 02:48:37.02	181.48	29.56	-30.2	-30.9	28.0	0.00e+00	0	38	0	1407188992	34	5631
2026-01-02 02:48:41.06	181.94	30.28	-30.3	-30.9	28.0	0.00e+00	0	38	0	1429209088	34	5674
2026-01-02 02:48:45.10	182.41	31.03	-29.8	-30.3	28.4	0.00e+00	0	38	0	1452277760	32	5964
2026-01-02 02:48:49.13	182.91	31.79	-29.9	-30.6	28.3	0.00e+00	0	38	0	1475346432	32	6104
2026-01-02 02:48:53.17	183.42	32.57	-30.1	-30.6	28.2	0.00e+00	0	38	0	1497366528	32	6171
2026-01-02 02:48:57.21	183.97	33.37	-29.6	-30.2	28.4	0.00e+00	0	38	0	1520435200	32	5876
2026-01-02 02:49:01.24	184.54	34.19	-29.6	-30.2	28.6	0.00e+00	0	38	0	1543503872	32	5830
2026-01-02 02:49:05.28	185.14	35.03	-30.0	-30.6	28.2	0.00e+00	0	38	0	1565523968	32	6165
2026-01-02 02:49:09.32	185.77	35.89	-29.6	-30.2	28.5	0.00e+00	0	38	0	1588592640	32	5863
2026-01-02 02:49:13.35	186.43	36.76	-29.4	-30.0	28.5	0.00e+00	0	38	0	1611661312	32	5740
2026-01-02 02:49:17.39	187.13	37.66	-29.4	-30.0	28.6	0.00e+00	0	38	0	1633681408	32	5740
2026-01-02 02:49:21.43	187.87	38.57	-30.0	-30.6	28.2	0.00e+00	0	38	0	1656750080	32	6130
2026-01-02 02:49:25.47	188.65	39.51	-29.8	-30.4	28.3	0.00e+00	0	38	0	1679818752	32	5966
2026-01-02 02:49:29.50	189.48	40.46	-29.6	-30.2	28.5	0.00e+00	0	38	0	1701838848	32	5852
2026-01-02 02:49:33.54	190.35	41.43	-29.9	-30.5	28.1	0.00e+00	0	38	0	1724907520	32	6079
2026-01-02 02:49:37.58	191.28	42.42	-30.1	-30.7	28.2	0.00e+00	0	38	0	1747976192	32	6209
2026-01-02 02:49:41.62	192.27	43.44	-30.1	-30.7	28.2	0.00e+00	0	39	0	1769996288	32	6191
2026-01-02 02:49:45.66	193.33	44.46	-30.2	-30.8	28.1	0.00e+00	0	38	0	1793064960	32	6265
2026-01-02 02:49:49.69	194.45	45.51	-30.0	-30.6	28.3	0.00e+00	0	38	0	1815085056	32	6157
2026-01-02 02:49:53.73	195.64	46.56	-30.5	-31.1	27.9	0.00e+00	0	38	0	1838153728	32	6496
2026-01-02 02:49:57.77	196.93	47.64	-30.1	-30.7	28.2	0.00e+00	0	38	0	1861222400	32	6225
2026-01-02 02:50:01.81	198.30	48.72	-30.4	-31.1	28.0	0.00e+00	0	38	0	1884291072	32	6487
2026-01-02 02:50:05.85	199.77	49.81	-30.4	-31.0	27.9	0.00e+00	0	38	0	1906311168	32	6461
2026-01-02 02:50:09.88	201.34	50.91	-30.7	-31.3	27.7	0.00e+00	0	38	0	1929379840	34	5926
2026-01-02 02:50:13.92	203.04	52.01	-30.7	-31.3	27.7	0.00e+00	0	38	0	1952448512	34	5935
2026-01-02 02:50:17.96	204.87	53.10	-31.1	-31.8	27.4	0.00e+00	0	38	0	1974468608	34	6262
2026-01-02 02:50:22.00	206.83	54.19	-30.9	-31.5	27.5	0.00e+00	0	38	0	1997537280	34	6098
2026-01-02 02:50:26.03	208.95	55.27	-31.1	-31.7	27.4	0.00e+00	0	38	0	2019557376	34	6239
2026-01-02 02:50:30.08	211.24	56.32	-31.3	-32.0	27.3	0.00e+00	0	38	0	2042626048	34	6431
2026-01-02 02:50:34.11	213.69	57.35	-30.7	-31.3	27.7	0.00e+00	0	38	0	2065694720	34	5954
2026-01-02 02:50:38.15	216.34	58.35	-30.8	-31.4	27.7	0.00e+00	0	38	0	2087714816	34	5995
2026-01-02 02:50:42.19	219.18	59.29	-30.2	-30.9	28.1	0.00e+00	0	38	0	2110783488	34	5635
2026-01-02 02:50:46.22	222.23	60.19	-30.2	-30.7	28.2	0.00e+00	0	38	0	2133852160	34	5555
2026-01-02 02:50:50.26	225.49	61.02	-30.1	-30.7	28.1	0.00e+00	0	39	0	2156920832	34	5541
2026-01-02 02:50:54.30	228.97	61.77	-30.0	-30.5	28.2	0.00e+00	0	38	0	2178940928	32	6095
2026-01-02 02:50:58.34	232.65	62.44	-29.6	-30.2	28.5	0.00e+00	0	38	0	2202009600	32	5871
2026-01-02 02:51:02.38	236.52	63.00	-29.6	-30.2	28.5	0.00e+00	0	39	0	2224029696	32	5878
2026-01-02 02:51:06.41	240.55	63.46	-29.7	-30.3	28.4	0.00e+00	0	38	0	2247098368	32	5943
2026-01-02 02:51:10.45	244.73	63.80	-29.7	-30.4	28.4	0.00e+00	0	38	0	2270167040	32	5977
2026-01-02 02:51:14.50	249.02	64.02	-29.5	-30.0	28.7	0.00e+00	0	38	0	2292187136	32	5760
2026-01-02 02:51:18.54	253.35	64.11	-29.5	-30.1	28.5	0.00e+00	0	38	0	2315255808	32	5807
2026-01-02 02:51:22.58	257.69	64.06	-29.6	-30.1	28.4	0.00e+00	0	39	0	2338324480	32	5822
2026-01-02 02:51:26.61	261.98	63.89	-29.8	-30.4	28.4	0.00e+00	0	38	0	2361393152	32	5994
2026-01-02 02:51:30.65	266.20	63.58	-29.8	-30.5	28.4	0.00e+00	0	38	0	2383413248	32	6044
2026-01-02 02:51:34.69	270.28	63.16	-29.6	-30.3	28.5	0.00e+00	0	38	0	2406481920	32	5898
2026-01-02 02:51:38.73	274.20	62.63	-30.0	-30.6	28.2	0.00e+00	0	38	0	2428502016	32	6145
2026-01-02 02:51:42.77	277.94	61.99	-30.1	-30.7	28.2	0.00e+00	0	38	0	2451570688	32	6196
2026-01-02 02:51:46.81	281.48	61.27	-30.0	-30.6	28.3	0.00e+00	0	38	0	2474639360	32	6148
2026-01-02 02:51:50.85	284.81	60.46	-30.3	-30.9	28.0	0.00e+00	0	38	0	2497708032	32	6387
2026-01-02 02:51:54.90	287.93	59.59	-30.9	-31.5	27.5	0.00e+00	0	38	0	2519728128	34	6048
2026-01-02 02:51:58.94	290.84	58.65	-30.8	-31.4	27.6	0.00e+00	0	38	0	2542796800	34	5980
2026-01-02 02:52:02.98	293.54	57.67	-30.4	-31.1	28.0	0.00e+00	0	38	0	2565865472	34	5772
2026-01-02 02:52:07.02	296.06	56.66	-30.9	-31.4	27.6	0.00e+00	0	38	0	2587885568	34	6001
2026-01-02 02:52:11.06	298.39	55.61	-31.4	-32.1	27.3	0.00e+00	0	38	0	2610954240	34	6481
2026-01-02 02:52:15.10	300.56	54.54	-31.6	-32.3	27.1	0.00e+00	0	38	0	2632974336	36	5897
2026-01-02 02:52:19.13	302.56	53.46	-31.4	-31.9	27.2	0.00e+00	0	38	0	2656043008	36	5695
2026-01-02 02:52:23.17	304.43	52.37	-31.3	-32.0	27.3	0.00e+00	0	38	0	2679111680	36	5756
2026-01-02 02:52:27.21	306.16	51.28	-30.7	-31.2	27.8	0.00e+00	0	38	0	2702180352	34	5862
2026-01-02 02:52:31.26	307.78	50.18	-30.9	-31.6	27.5	0.00e+00	0	38	0	2724200448	34	6160
2026-01-02 02:52:35.29	309.28	49.09	-30.5	-31.1	27.8	0.00e+00	0	38	0	2747269120	34	5767
2026-01-02 02:52:39.33	310.68	48.01	-30.2	-30.8	27.9	0.00e+00	0	38	0	2770337792	34	5616
2026-01-02 02:52:43.37	311.99	46.94	-30.4	-31.1	27.3	0.00e+00	0	38	0	2792357888	34	5816
2026-01-02 02:52:47.40	313.21	45.88	-30.4	-31.1	28.0	0.00e+00	0	38	0	2815426560	34	5772
2026-01-02 02:52:51.44	314.35	44.83	-30.2	-30.7	28.1	0.00e+00	0	38	0	2837446656	34	5531
2026-01-02 02:52:55.47	315.42	43.81	-30.2	-30.9	28.0	0.00e+00	0	39	0	2860515328	34	5655
2026-01-02 02:52:59.51	316.43	42.79	-30.5	-31.2	27.8	0.00e+00	0	38	0	2883584000	34	5873
2026-01-02 02:53:03.55	317.38	41.80	-30.3	-30.9	28.1	0.00e+00	0	39	0	2906652672	34	5679
2026-01-02 02:53:07.59	318.27	40.82	-30.0	-30.6	28.3	0.00e+00	0	39	0	2928672768	34	5452
2026-01-02 02:53:11.62	319.11	39.87	-29.9	-30.4	28.3	0.00e+00	0	38	0	2951741440	34	5360
2026-01-02 02:53:15.66	319.91	38.93	-29.7	-30.4	28.5	0.00e+00	0	38	0	2974810112	32	5995
2026-01-02 02:53:19.70	320.66	38.01	-30.1	-30.6	28.2	0.00e+00	0	38	0	2996830208	32	6164
2026-01-02 02:53:23.74	321.37	37.11	-29.8	-30.4	28.4	0.00e+00	0	38	0	3019898880	32	6028
2026-01-02 02:53:27.78	322.05	36.24	-29.7	-30.2	28.5	0.00e+00	0	38	0	3041918976	32	5877
2026-01-02 02:53:31.82	322.69	35.38	-29.9	-30.5	28.3	0.00e+00	0	38	0	3064987648	32	6045
2026-01-02 02:53:35.85	323.30	34.54	-30.0	-30.5	28.3	0.00e+00	0	38	0	3088056320	32	6066
2026-01-02 02:53:39.89	323.88	33.72	-30.2	-30.7	28.1	0.00e+00	0	38	0	3110076416	32	6229
2026-01-02 02:53:43.93	324.43	32.91	-30.4	-31.1	27.9	0.00e+00	0	38	0	3133145088	32	6506
2026-01-02 02:53:47.96	324.96	32.13	-30.2	-30.9	28.0	0.00e+00	0	38	0	3156213760	32	6375
2026-01-02 02:53:52.00	325.46	31.36	-30.4	-31.1	27.9	0.00e+00	0	38	0	3178233856	32	6484
2026-01-02 02:53:56.04	325.94	30.61	-30.2	-30.8	28.1	0.00e+00	0	38	0	3201302528	32	6256
2026-01-02 02:54:00.08	326.40	29.88	-30.4	-31.0	27.9	0.00e+00	0	38	0	3224371200	32	6399
2026-01-02 02:54:04.12	326.84	29.17	-30.4	-30.9	27.9	0.00e+00	0	38	0	3246391296	32	6372
2026-01-02 02:54:08.16	327.27	28.47	-30.2	-30.9	28.0	0.00e+00	0	39	0	3269459968	32	6355
2026-01-02 02:54:12.19	327.67	27.78	-30.1	-30.6	28.1	0.00e+00	0	38	0	3292528640	32	6133
2026-01-02 02:54:16.23	328.06	27.12	-30.2	-30.7	28.1	0.00e+00	0	38	0	3314548736	32	6231
2026-01-02 02:54:20.27	328.44	26.46	-30.3	-30.8	27.9	0.00e+00	0	38	0	3337617408	32	6280
2026-01-02 02:54:24.31	328.80	25.82	-30.5	-31.1	27.7	0.00e+00	0	38	0	3360686080	32	6489
2026-01-02 02:54:28.34	329.14	25.20	-30.5	-31.2	27.7	0.00e+00	0	38	0	3382706176	32	6598
2026-01-02 02:54:32.37	329.48	24.59	-30.6	-31.1	27.7	0.00e+00	0	38	0	3405774848	34	5825
2026-01-02 02:54:36.41	329.80	23.99	-30.6	-31.3	27.7	0.00e+00	0	38	0	3428843520	34	5944
2026-01-02 02:54:40.45	330.11	23.40	-31.0	-31.7	27.4	0.00e+00	0	38	0	3450863616	34	6180
2026-01-02 02:54:44.49	330.41	22.83	-31.0	-31.5	27.3	0.00e+00	0	38	0	3473932288	34	6092
2026-01-02 02:54:48.52	330.70	22.27	-31.1	-31.6	27.3	0.00e+00	0	38	0	3497000960	34	6169
2026-01-02 02:54:52.56	330.98	21.72	-31.3	-31.8	27.1	0.00e+00	0	39	0	3519021056	34	6292
2026-01-02 02:54:56.60	331.26	21.18	-31.5	-32.1	27.0	0.00e+00	0	38	0	3542089728	34	6467
2026-01-02 02:55:00.65	331.52	20.65	-31.6	-32.3	26.9	0.00e+00	0	38	0	3564109824	34	6627
2026-01-02 02:55:04.69	331.77	20.13	-31.7	-32.4	26.8	0.00e+00	0	38	0	3587178496	36	6016
2026-01-02 02:55:08.72	332.02	19.63	-32.2	-32.7	26.4	0.00e+00	0	38	0	3610247168	36	6223
2026-01-02 02:55:12.76	332.26	19.13	-32.2	-33.0	26.3	0.00e+00	0	38	0	3633315840	36	6403
2026-01-02 02:55:16.80	332.49	18.64	-32.1	-32.7	26.4	0.00e+00	0	38	0	3655335936	36	6229
2026-01-02 02:55:20.83	332.72	18.16	-32.2	-32.8	26.3	0.00e+00	0	38	0	3678404608	36	6260
2026-01-02 02:55:24.87	332.94	17.69	-32.2	-32.9	26.3	0.00e+00	0	38	0	3701473280	36	6335
2026-01-02 02:55:28.91	333.15	17.23	-32.2	-32.9	26.3	0.00e+00	0	38	0	3723493376	36	6389
2026-01-02 02:55:32.94	333.36	16.77	-32.4	-32.9	26.2	0.00e+00	0	38	0	3746562048	36	6386
2026-01-02 02:55:36.97	333.56	16.33	-32.8	-33.5	25.9	0.00e+00	0	38	0	3768582144	36	6805
2026-01-02 02:55:41.01	333.76	15.89	-32.6	-33.4	25.9	0.00e+00	0	38	0	3791650816	38	5977
2026-01-02 02:55:45.05	333.95	15.46	-32.7	-33.3	25.8	0.00e+00	0	38	0	3814719488	38	5921
2026-01-02 02:55:49.08	334.14	15.04	-32.9	-33.7	25.6	0.00e+00	0	39	0	3836739584	38	6180
2026-01-02 02:55:53.12	334.32	14.62	-33.0	-33.6	25.6	0.00e+00	0	38	0	3859808256	38	6152
2026-01-02 02:55:57.16	334.50	14.21	-33.1	-33.7	25.4	0.00e+00	0	38	0	3882876928	38	6220
2026-01-02 02:56:01.20	334.67	13.81	-33.5	-34.1	25.0	0.00e+00	0	38	0	3904897024	38	6528
2026-01-02 02:56:05.24	334.84	13.41	-33.7	-34.5	24.9	0.00e+00	0	38	0	3927965696	38	6775
2026-01-02 02:56:09.27	335.00	13.02	-33.5	-34.3	25.0	0.00e+00	0	38	0	3951034368	40	5925
2026-01-02 02:56:13.31	335.17	12.64	-33.5	-34.2	25.0	0.00e+00	0	38	0	3973054464	40	5831
2026-01-02 02:56:17.35	335.32	12.26	-33.7	-34.3	24.8	0.00e+00	0	38	0	3996123136	40	5953
2026-01-02 02:56:21.39	335.48	11.89	-33.7	-34.3	24.8	0.00e+00	0	38	0	4019191808	40	5933
2026-01-02 02:56:25.43	335.63	11.52	-33.7	-34.5	24.8	0.00e+00	0	39	0	4041211904	40	6036
2026-01-02 02:56:29.47	335.78	11.16	-33.9	-34.5	24.5	0.00e+00	0	38	0	4064280576	40	6100
2026-01-02 02:56:33.50	335.92	10.80	-34.1	-34.7	24.4	0.00e+00	0	38	0	4087349248	40	6207
2026-01-02 02:56:37.54	336.06	10.45	-34.1	-34.8	24.3	0.00e+00	0	38	0	4109369344	40	6257
2026-01-02 02:56:41.57	336.20	10.10	-34.3	-35.0	24.1	0.00e+00	0	38	0	4132438016	40	6415
2026-01-02 02:56:45.61	336.34	9.76	-34.6	-35.3	23.8	0.00e+00	0	39	0	4155506688	42	5915
2026-01-02 02:56:49.65	336.47	9.42	-34.7	-35.3	23.7	0.00e+00	0	38	0	4177526784	42	5955
2026-01-02 02:56:53.69	336.60	9.09	-34.7	-35.5	23.7	0.00e+00	0	38	0	4200595456	42	6082
2026-01-02 02:56:57.73	336.73	8.76	-34.7	-35.5	23.7	0.00e+00	0	38	0	4223664128	42	6038
2026-01-02 02:57:01.77	336.85	8.43	-34.9	-35.5	23.4	0.00e+00	0	38	0	4245684224	42	6096
2026-01-02 02:57:05.81	336.98	8.11	-34.9	-35.7	23.4	0.00e+00	0	38	0	4268752896	42	6196
2026-01-02 02:57:09.85	337.10	7.80	-35.0	-35.6	23.3	0.00e+00	0	38	0	4291821568	42	6163
2026-01-02 02:57:13.89	337.22	7.48	-34.8	-35.7	23.4	0.00e+00	0	38	0	4313841664	42	6178
2026-01-02 02:57:17.92	337.33	7.17	-35.2	-35.9	23.1	0.00e+00	0	39	0	4336910336	42	6324
2026-01-02 02:57:21.96	337.45	6.87	-35.1	-35.8	23.1	0.00e+00	0	39	0	4359979008	42	6258
2026-01-02 02:57:25.99	337.56	6.57	-35.0	-35.8	23.2	0.00e+00	0	39	0	4381999104	42	6310
2026-01-02 02:57:30.03	337.67	6.27	-35.4	-36.0	22.8	0.00e+00	0	38	0	4405067776	42	6460
2026-01-02 02:57:34.07	337.78	5.97	-35.2	-35.9	22.7	0.00e+00	0	38	0	4428136448	42	6344
2026-01-02 02:57:38.10	337.89	5.68	-35.6	-36.5	22.1	0.00e+00	0	39	0	4450156544	44	6065
2026-01-02 02:57:42.14	337.99	5.39	-36.8	-37.6	20.5	0.00e+00	0	39	0	4473225216	44	6895
2026-01-02 02:57:46.18	338.09	5.11	-38.1	-39.1	18.6	0.00e+00	0	38	0	4496293888	48	6517
2026-01-02 02:57:50.22	338.20	4.82	-39.4	-40.8	16.0	0.00e+00	0	38	0	4518313984	50	7073
2026-01-02 02:57:54.26	338.30	4.54	-41.2	-43.5	12.8	1.19e-04	0	38	0	4541382656	54	7633
2026-01-02 02:57:58.30	338.40	4.27	-42.9	-46.8	8.5	2.16e-02	0	39	0	4564451328	58	8822
2026-01-02 02:58:02.34	338.49	3.99	-43.8	-49.9	4.7	7.37e-01	0	39	0	4582277120	60	11295
2026-01-02 02:58:06.38	338.59	3.72	-44.0	-54.4	3.6	8.44e-01	0	39	104	4582277120	60	18931
2026-01-02 02:58:10.42	338.68	3.45	-44.1	-55.3	3.6	8.45e-01	0	39	104	4582277120	60	20986
2026-01-02 02:58:14.46	338.78	3.18	-44.1	-56.0	3.6	8.46e-01	0	39	104	4582277120	60	22852
2026-01-02 02:58:18.50	338.87	2.92	-46.1	-58.1	3.6	8.45e-01	0	39	104	4582277120	60	29113
2026-01-02 02:58:22.54	338.96	2.66	-48.9	-61.0	3.6	8.44e-01	0	39	104	4582277120	60	40770
2026-01-02 02:58:26.58	339.05	2.40	-49.1	-61.2	3.6	8.45e-01	0	39	104	4582277120	60	41696
2026-01-02 02:58:30.63	339.14	2.14	-49.0	-61.1	3.6	8.44e-01	0	39	104	4582277120	60	41022
2026-01-02 02:58:34.67	339.22	1.89	-48.9	-61.0	3.6	8.46e-01	0	39	104	4582277120	60	40748
2026-01-02 02:58:38.71	339.31	1.63	-49.0	-61.1	3.6	8.44e-01	0	39	104	4582277120	60	41075
2026-01-02 02:58:42.74	339.39	1.38	-49.0	-61.1	3.6	8.45e-01	0	39	104	4582277120	60	41208
2026-01-02 02:58:46.79	339.48	1.13	-49.0	-61.1	3.6	8.46e-01	0	39	104	4582277120	60	41011
2026-01-02 02:58:50.82	339.56	0.89	-49.0	-61.1	3.6	8.45e-01	0	39	104	4582277120	60	40902
2026-01-02 02:58:54.86	339.64	0.65	-49.0	-61.1	3.6	8.46e-01	0	39	104	4582277120	60	41090
2026-01-02 02:58:58.91	339.72	0.40	-49.0	-61.1	3.6	8.45e-01	0	39	104	4582277120	60	41197
2026-01-02 02:59:02.94	339.80	0.16	-49.0	-61.1	3.6	8.45e-01	0	39	104	4582277120	60	41091

#Closed at: 2026-01-02 02:59:06
#Recorded file [4582 MB]: D:/lorett/data/35029_260102_144338.dat