passes_logs/2026/01/02/R4.6S_Anadyr/R4.6S_Anadyr__20260102_220418_SUOMI_NPP_rec.log

#Pass ID: 20260102_220418_SUOMI NPP
#Satellite: SUOMI NPP
#Configuration: NPP
#almurnet v.1.7.20251203
#Start time: 2026-01-02 22:04:21

#Version: 2.2.20231116
#Station: R4.6S_Anadyr
#Location: 177.4865 lon 64.73178 lat
#TLE: 1 37849U 11061A   26001.07732418  .00000182  00000+0  10735-3 0  9990
#TLE: 2 37849  98.7795 303.2470 0002580  87.2016 272.9455 14.19520779734739

#Time	Az	El	Level	Level2	SNR	BER	BlckErr	Temp	State	Recorded	gain1	gain2
2026-01-02 22:04:21.49	102.98	0.17	-49.9	-63.8	3.3	1.54e+00	0	38	0	0	60	55672
2026-01-02 22:04:25.53	102.77	0.39	-50.0	-65.2	3.6	1.51e+00	0	38	104	0	60	65775
2026-01-02 22:04:29.56	102.56	0.62	-49.8	-65.0	3.6	1.51e+00	0	38	104	0	60	64500
2026-01-02 22:04:33.60	102.34	0.84	-48.9	-64.4	3.6	1.51e+00	0	38	104	0	60	59702
2026-01-02 22:04:37.64	102.12	1.07	-46.2	-63.2	3.6	1.51e+00	0	38	104	0	60	52107
2026-01-02 22:04:41.68	101.90	1.30	-46.0	-63.1	3.6	1.51e+00	0	38	104	0	60	51412
2026-01-02 22:04:45.72	101.67	1.53	-46.5	-63.1	3.6	1.51e+00	0	38	104	0	60	51880
2026-01-02 22:04:49.76	101.44	1.77	-46.4	-63.2	3.6	1.51e+00	0	38	104	0	60	51991
2026-01-02 22:04:53.80	101.21	2.00	-46.6	-63.0	3.6	1.51e+00	0	38	104	0	60	50816
2026-01-02 22:04:57.84	100.97	2.23	-46.6	-62.9	3.6	1.51e+00	0	38	104	0	60	50240
2026-01-02 22:05:01.88	100.73	2.47	-46.7	-63.2	3.6	1.51e+00	0	38	104	0	60	52159
2026-01-02 22:05:05.92	100.48	2.71	-46.5	-62.9	3.6	1.51e+00	0	38	104	0	60	50651
2026-01-02 22:05:09.96	100.23	2.95	-46.1	-62.9	3.6	1.51e+00	0	38	104	0	60	50204
2026-01-02 22:05:14.00	99.97	3.19	-45.7	-54.3	6.8	3.70e-01	72	38	0	2097152	60	18764
2026-01-02 22:05:18.04	99.71	3.43	-46.9	-54.0	5.0	1.51e+00	0	39	104	6291456	60	18079
2026-01-02 22:05:22.08	99.45	3.68	-44.7	-48.0	14.0	5.30e-06	0	39	0	6291456	60	9050
2026-01-02 22:05:26.11	99.18	3.92	-43.6	-46.4	16.2	0.00e+00	0	38	0	13631488	60	7519
2026-01-02 22:05:30.15	98.91	4.17	-42.7	-45.0	17.3	0.00e+00	92	38	0	20971520	58	7253
2026-01-02 22:05:34.19	98.63	4.42	-43.4	-45.4	17.1	0.00e+00	92	38	0	29360128	58	7547
2026-01-02 22:05:38.22	98.35	4.67	-43.9	-46.4	16.4	0.00e+00	0	39	0	36700160	60	7558
2026-01-02 22:05:42.26	98.06	4.92	-43.0	-44.9	17.7	0.00e+00	90	38	0	44040192	60	6380
2026-01-02 22:05:46.30	97.76	5.18	-42.5	-44.3	18.0	0.00e+00	92	38	0	51380224	58	6678
2026-01-02 22:05:50.34	97.47	5.43	-42.5	-44.3	18.3	0.00e+00	0	38	0	58720256	58	6654
2026-01-02 22:05:54.37	97.16	5.69	-42.3	-44.0	18.4	0.00e+00	0	39	0	67108864	58	6417
2026-01-02 22:05:58.41	96.85	5.95	-42.5	-44.2	18.4	0.00e+00	92	39	0	74448896	58	6615
2026-01-02 22:06:02.45	96.53	6.21	-42.3	-43.9	18.8	0.00e+00	92	39	0	81788928	58	6356
2026-01-02 22:06:06.49	96.21	6.47	-41.9	-43.5	19.2	0.00e+00	0	38	0	89128960	58	6039
2026-01-02 22:06:10.53	95.88	6.74	-41.9	-43.4	19.1	0.00e+00	28	39	0	97517568	58	6023
2026-01-02 22:06:14.57	95.55	7.00	-41.9	-43.4	19.3	0.00e+00	78	39	0	104857600	58	5981
2026-01-02 22:06:18.61	95.21	7.27	-41.7	-43.1	19.5	0.00e+00	92	39	0	112197632	56	6516
2026-01-02 22:06:22.65	94.86	7.54	-41.7	-43.2	19.5	0.00e+00	0	39	0	119537664	56	6611
2026-01-02 22:06:26.68	94.51	7.81	-42.1	-43.7	19.1	0.00e+00	90	39	0	126877696	56	6974
2026-01-02 22:06:30.72	94.15	8.09	-42.1	-43.5	19.3	0.00e+00	92	39	0	135266304	56	6844
2026-01-02 22:06:34.76	93.78	8.36	-42.2	-43.9	18.9	0.00e+00	0	39	0	142606336	56	7124
2026-01-02 22:06:38.80	93.40	8.64	-42.2	-43.9	19.1	0.00e+00	0	39	0	149946368	56	7131
2026-01-02 22:06:42.83	93.02	8.92	-42.0	-43.6	19.3	0.00e+00	90	39	0	157286400	56	6883
2026-01-02 22:06:46.86	92.63	9.20	-41.5	-42.9	20.0	0.00e+00	92	39	0	165675008	56	6343
2026-01-02 22:06:50.90	92.23	9.49	-41.4	-42.7	20.1	0.00e+00	0	39	0	173015040	56	6237
2026-01-02 22:06:54.94	91.83	9.77	-41.9	-43.4	19.7	0.00e+00	0	39	0	180355072	56	6726
2026-01-02 22:06:58.97	91.41	10.06	-41.0	-42.3	20.6	0.00e+00	89	39	0	187695104	56	5953
2026-01-02 22:07:03.02	90.99	10.35	-41.4	-42.8	20.2	0.00e+00	92	39	0	195035136	56	6292
2026-01-02 22:07:07.05	90.56	10.64	-41.3	-42.6	20.4	0.00e+00	0	39	0	203423744	56	6146
2026-01-02 22:07:11.09	90.12	10.93	-41.2	-42.5	20.5	0.00e+00	27	39	0	210763776	56	6051
2026-01-02 22:07:15.13	89.67	11.22	-41.2	-42.6	20.5	0.00e+00	92	39	0	218103808	56	6116
2026-01-02 22:07:19.16	89.21	11.52	-41.4	-42.9	20.2	0.00e+00	33	39	0	225443840	56	6326
2026-01-02 22:07:23.20	88.74	11.82	-41.8	-43.2	20.0	0.00e+00	19	39	0	232783872	56	6595
2026-01-02 22:07:27.24	88.26	12.12	-42.0	-43.4	19.8	0.00e+00	92	39	0	241172480	56	6711
2026-01-02 22:07:31.27	87.77	12.42	-42.0	-43.4	19.8	0.00e+00	92	39	0	248512512	56	6722
2026-01-02 22:07:35.31	87.27	12.72	-41.0	-42.2	20.4	0.00e+00	0	39	0	255852544	56	5890
2026-01-02 22:07:39.35	86.76	13.03	-40.1	-41.2	21.6	0.00e+00	0	39	0	263192576	54	5865
2026-01-02 22:07:43.38	86.24	13.33	-40.2	-41.2	21.7	0.00e+00	92	39	0	271581184	54	5884
2026-01-02 22:07:47.41	85.71	13.64	-40.3	-41.5	21.5	0.00e+00	92	39	0	278921216	54	6048
2026-01-02 22:07:51.45	85.17	13.95	-40.3	-41.5	21.5	0.00e+00	0	39	0	286261248	54	6042
2026-01-02 22:07:55.49	84.62	14.26	-40.3	-41.5	21.6	0.00e+00	0	39	0	293601280	54	6062
2026-01-02 22:07:59.52	84.05	14.57	-40.1	-41.2	21.9	0.00e+00	90	39	0	300941312	54	5859
2026-01-02 22:08:03.56	83.47	14.88	-40.0	-41.1	21.9	0.00e+00	92	39	0	309329920	52	6494
2026-01-02 22:08:07.60	82.88	15.19	-39.6	-40.6	22.3	0.00e+00	0	39	0	316669952	52	6110
2026-01-02 22:08:11.64	82.28	15.51	-40.2	-41.2	21.8	0.00e+00	28	39	0	324009984	52	6605
2026-01-02 22:08:15.68	81.66	15.82	-40.6	-41.8	21.3	0.00e+00	90	39	0	331350016	54	6260
2026-01-02 22:08:19.71	81.03	16.14	-41.1	-42.3	20.6	0.00e+00	0	39	0	339738624	54	6636
2026-01-02 22:08:23.75	80.39	16.45	-41.0	-42.2	21.0	0.00e+00	0	39	0	347078656	54	6553
2026-01-02 22:08:27.79	79.73	16.77	-40.9	-42.1	21.1	0.00e+00	92	39	0	354418688	54	6528
2026-01-02 22:08:31.82	79.06	17.09	-40.9	-42.1	21.0	0.00e+00	92	39	0	361758720	54	6533
2026-01-02 22:08:35.85	78.37	17.40	-40.7	-41.9	21.4	0.00e+00	0	39	0	369098752	54	6345
2026-01-02 22:08:39.88	77.67	17.72	-40.2	-41.3	21.7	0.00e+00	0	39	0	377487360	54	5944
2026-01-02 22:08:43.92	76.96	18.03	-40.7	-41.8	21.3	0.00e+00	36	39	0	384827392	54	6295
2026-01-02 22:08:47.96	76.22	18.35	-40.7	-41.9	21.2	0.00e+00	91	39	0	392167424	54	6343
2026-01-02 22:08:51.99	75.48	18.66	-40.5	-41.6	21.6	0.00e+00	0	39	0	399507456	54	6116
2026-01-02 22:08:56.03	74.72	18.97	-40.5	-41.6	21.6	0.00e+00	91	39	0	406847488	54	6140
2026-01-02 22:09:00.06	73.94	19.28	-40.7	-41.9	21.3	0.00e+00	91	39	0	415236096	54	6336
2026-01-02 22:09:04.10	73.14	19.59	-40.3	-41.4	21.9	0.00e+00	0	39	0	422576128	54	5972
2026-01-02 22:09:08.14	72.33	19.90	-40.1	-41.2	21.9	0.00e+00	0	39	0	429916160	54	5877
2026-01-02 22:09:12.17	71.51	20.21	-39.6	-40.7	22.4	0.00e+00	87	39	0	437256192	52	6198
2026-01-02 22:09:16.21	70.66	20.51	-39.3	-40.3	22.8	0.00e+00	92	39	0	445644800	52	5902
2026-01-02 22:09:20.25	69.80	20.81	-38.8	-39.7	23.3	0.00e+00	0	39	0	452984832	52	5543
2026-01-02 22:09:24.28	68.92	21.10	-38.3	-39.2	23.6	0.00e+00	0	39	0	460324864	50	5868
2026-01-02 22:09:28.32	68.03	21.39	-38.8	-39.7	23.1	0.00e+00	65	39	0	467664896	50	6244
2026-01-02 22:09:32.35	67.12	21.68	-38.7	-39.6	23.2	0.00e+00	92	39	0	475004928	50	6162
2026-01-02 22:09:36.39	66.19	21.96	-38.2	-39.1	23.6	0.00e+00	0	39	0	483393536	50	5788
2026-01-02 22:09:40.43	65.24	22.24	-38.2	-39.1	23.7	0.00e+00	5	39	0	490733568	50	5793
2026-01-02 22:09:44.46	64.28	22.51	-37.9	-38.7	23.9	0.00e+00	90	39	0	498073600	50	5551
2026-01-02 22:09:48.50	63.30	22.78	-38.0	-38.9	23.8	0.00e+00	0	39	0	505413632	48	6351
2026-01-02 22:09:52.54	62.31	23.04	-38.3	-39.2	23.6	0.00e+00	0	39	0	513802240	48	6588
2026-01-02 22:09:56.57	61.29	23.29	-38.3	-39.1	23.6	0.00e+00	92	39	0	521142272	48	6536
2026-01-02 22:10:00.61	60.26	23.54	-37.9	-38.8	23.9	0.00e+00	92	39	0	528482304	48	6248
2026-01-02 22:10:04.65	59.22	23.77	-38.1	-39.0	23.8	0.00e+00	0	39	0	535822336	48	6442
2026-01-02 22:10:08.68	58.16	24.00	-38.0	-38.9	23.5	0.00e+00	0	39	0	543162368	48	6325
2026-01-02 22:10:12.72	57.08	24.22	-37.7	-38.6	24.1	0.00e+00	33	39	0	551550976	48	6112
2026-01-02 22:10:16.76	55.99	24.43	-37.9	-38.8	23.9	0.00e+00	92	39	0	558891008	48	6281
2026-01-02 22:10:20.80	54.88	24.63	-37.8	-38.7	24.0	0.00e+00	0	39	0	566231040	48	6176
2026-01-02 22:10:24.83	53.77	24.82	-37.6	-38.4	24.2	0.00e+00	0	39	0	573571072	48	5991
2026-01-02 22:10:28.87	52.63	25.00	-38.7	-39.7	23.2	0.00e+00	38	39	0	581959680	48	6928
2026-01-02 22:10:32.91	51.49	25.17	-39.6	-40.5	22.5	0.00e+00	7	39	0	589299712	50	6844
2026-01-02 22:10:36.95	50.33	25.33	-39.9	-40.9	22.3	0.00e+00	2	39	0	596639744	52	6376
2026-01-02 22:10:40.98	49.16	25.47	-39.5	-40.4	22.7	0.00e+00	51	39	0	603979776	52	6026
2026-01-02 22:10:45.02	47.98	25.60	-40.0	-41.0	22.3	0.00e+00	85	39	0	611319808	52	6463
2026-01-02 22:10:49.06	46.79	25.72	-39.7	-40.7	22.5	0.00e+00	0	39	0	619708416	52	6227
2026-01-02 22:10:53.10	45.60	25.83	-40.1	-41.2	22.0	0.00e+00	0	39	0	627048448	52	6584
2026-01-02 22:10:57.14	44.39	25.92	-39.7	-40.7	22.4	0.00e+00	77	39	0	634388480	52	6236
2026-01-02 22:11:01.17	43.18	26.00	-39.6	-40.6	22.5	0.00e+00	91	39	0	641728512	52	6141
2026-01-02 22:11:05.21	41.97	26.07	-40.1	-41.1	22.0	0.00e+00	0	39	0	650117120	52	6514
2026-01-02 22:11:09.25	40.74	26.12	-40.6	-41.6	21.7	0.00e+00	0	39	0	657457152	52	6923
2026-01-02 22:11:13.28	39.52	26.15	-39.6	-40.5	22.6	0.00e+00	38	39	0	664797184	52	6087
2026-01-02 22:11:17.32	38.30	26.18	-40.2	-41.2	22.0	0.00e+00	25	39	0	672137216	52	6598
2026-01-02 22:11:21.36	37.07	26.18	-40.5	-41.6	21.7	0.00e+00	0	39	0	679477248	54	6108
2026-01-02 22:11:25.40	35.84	26.18	-39.7	-40.7	22.5	0.00e+00	37	39	0	687865856	54	5525
2026-01-02 22:11:29.43	34.62	26.16	-38.5	-39.4	23.5	0.00e+00	25	39	0	695205888	50	6008
2026-01-02 22:11:33.47	33.39	26.12	-38.8	-39.7	23.1	0.00e+00	0	39	0	702545920	50	6210
2026-01-02 22:11:37.50	32.17	26.07	-37.9	-38.7	24.0	0.00e+00	0	39	0	709885952	50	5555
2026-01-02 22:11:41.54	30.96	26.01	-37.0	-37.7	24.7	0.00e+00	31	39	0	717225984	48	5548
2026-01-02 22:11:45.58	29.74	25.93	-37.3	-38.0	24.4	0.00e+00	0	39	0	725614592	48	5751
2026-01-02 22:11:49.62	28.54	25.84	-38.0	-38.9	23.4	0.00e+00	0	39	0	732954624	48	6377
2026-01-02 22:11:53.65	27.35	25.73	-38.3	-39.2	23.6	0.00e+00	0	39	0	740294656	48	6608
2026-01-02 22:11:57.69	26.16	25.62	-38.5	-39.4	23.4	0.00e+00	75	39	0	747634688	48	6736
2026-01-02 22:12:01.73	24.98	25.48	-38.8	-39.7	23.2	0.00e+00	0	39	0	756023296	50	6194
2026-01-02 22:12:05.77	23.81	25.34	-39.3	-40.2	22.8	0.00e+00	0	39	0	763363328	50	6595
2026-01-02 22:12:09.80	22.66	25.19	-39.0	-39.9	23.0	0.00e+00	17	39	0	770703360	50	6358
2026-01-02 22:12:13.84	21.51	25.02	-39.6	-40.6	22.5	0.00e+00	92	39	0	778043392	50	6851
2026-01-02 22:12:17.88	20.38	24.84	-39.7	-40.7	22.4	0.00e+00	0	39	0	785383424	52	6203
2026-01-02 22:12:21.92	19.26	24.65	-40.2	-41.3	21.9	0.00e+00	0	39	0	793772032	52	6625
2026-01-02 22:12:25.95	18.15	24.45	-40.1	-41.1	22.1	0.00e+00	53	39	0	801112064	52	6532
2026-01-02 22:12:29.99	17.06	24.24	-40.0	-41.1	22.1	0.00e+00	8	39	0	808452096	52	6483
2026-01-02 22:12:34.02	15.99	24.02	-39.7	-40.7	22.4	0.00e+00	0	39	0	815792128	52	6238
2026-01-02 22:12:38.06	14.93	23.80	-39.8	-40.8	22.0	0.00e+00	0	39	0	824180736	52	6307
2026-01-02 22:12:42.10	13.88	23.56	-40.5	-41.6	21.5	0.00e+00	92	39	0	831520768	54	6146
2026-01-02 22:12:46.14	12.85	23.32	-39.3	-40.2	22.6	0.00e+00	0	39	0	838860800	52	5884
2026-01-02 22:12:50.18	11.84	23.06	-40.8	-42.0	21.4	0.00e+00	0	39	0	846200832	54	6444
2026-01-02 22:12:54.22	10.84	22.81	-40.3	-41.4	21.8	0.00e+00	20	39	0	853540864	54	6002
2026-01-02 22:12:58.26	9.86	22.54	-38.8	-39.7	23.1	0.00e+00	91	39	0	861929472	50	6235
2026-01-02 22:13:02.30	8.90	22.27	-40.0	-41.1	22.0	0.00e+00	0	39	0	869269504	52	6508
2026-01-02 22:13:06.34	7.96	21.99	-39.6	-40.7	22.5	0.00e+00	0	39	0	876609536	52	6207
2026-01-02 22:13:10.38	7.03	21.71	-38.1	-38.9	23.7	0.00e+00	5	39	0	883949568	50	5692
2026-01-02 22:13:14.42	6.12	21.42	-38.5	-39.4	23.4	0.00e+00	57	39	0	892338176	50	6031
2026-01-02 22:13:18.45	5.23	21.13	-38.6	-39.5	23.2	0.00e+00	0	39	0	899678208	50	6093
2026-01-02 22:13:22.49	4.35	20.84	-38.7	-39.7	23.2	0.00e+00	0	39	0	907018240	50	6212
2026-01-02 22:13:26.53	3.49	20.54	-38.7	-39.7	23.2	0.00e+00	31	39	0	914358272	50	6174
2026-01-02 22:13:30.56	2.65	20.24	-39.0	-39.9	23.1	0.00e+00	0	39	0	921698304	50	6374
2026-01-02 22:13:34.60	1.82	19.94	-39.6	-40.6	22.4	0.00e+00	0	39	0	930086912	50	6916
2026-01-02 22:13:38.64	1.01	19.63	-38.8	-39.8	23.0	0.00e+00	0	39	0	937426944	50	6269
2026-01-02 22:13:42.68	0.22	19.32	-38.8	-39.8	23.0	0.00e+00	92	39	0	944766976	50	6265
2026-01-02 22:13:46.72	359.44	19.01	-37.6	-38.5	24.2	0.00e+00	0	39	0	952107008	48	6054
2026-01-02 22:13:50.75	358.68	18.70	-37.8	-38.6	24.0	0.00e+00	0	39	0	960495616	48	6158
2026-01-02 22:13:54.79	357.93	18.39	-38.4	-39.3	23.2	0.00e+00	27	39	0	967835648	48	6676
2026-01-02 22:13:58.83	357.20	18.07	-37.8	-38.6	23.8	0.00e+00	59	39	0	975175680	48	6164
2026-01-02 22:14:02.86	356.49	17.76	-37.8	-38.6	23.8	0.00e+00	0	39	0	982515712	48	6171
2026-01-02 22:14:06.90	355.79	17.44	-38.6	-39.5	23.2	0.00e+00	0	39	0	989855744	48	6794
2026-01-02 22:14:10.93	355.11	17.13	-38.6	-39.5	23.2	0.00e+00	34	39	0	998244352	50	6073
2026-01-02 22:14:14.97	354.44	16.81	-37.7	-38.5	23.9	0.00e+00	0	39	0	1005584384	48	6071
2026-01-02 22:14:19.01	353.78	16.50	-38.5	-39.4	23.1	0.00e+00	0	39	0	1012924416	48	6762
2026-01-02 22:14:23.05	353.14	16.18	-39.1	-40.0	22.7	0.00e+00	0	39	0	1020264448	50	6448
2026-01-02 22:14:27.09	352.51	15.87	-38.7	-39.7	22.9	0.00e+00	50	39	0	1027604480	50	6183
2026-01-02 22:14:31.12	351.89	15.55	-38.5	-39.5	23.1	0.00e+00	0	39	0	1035993088	50	6043
2026-01-02 22:14:35.16	351.29	15.24	-39.1	-40.1	22.5	0.00e+00	0	39	0	1043333120	50	6467
2026-01-02 22:14:39.20	350.70	14.93	-40.0	-41.1	21.8	0.00e+00	0	39	0	1050673152	52	6483
2026-01-02 22:14:43.23	350.13	14.62	-39.2	-40.2	22.6	0.00e+00	92	39	0	1058013184	52	5886
2026-01-02 22:14:47.27	349.56	14.31	-38.6	-39.6	23.1	0.00e+00	0	39	0	1066401792	50	6112
2026-01-02 22:14:51.31	349.01	14.00	-38.9	-39.8	22.7	0.00e+00	0	39	0	1073741824	50	6292
2026-01-02 22:14:55.35	348.47	13.69	-38.9	-39.9	22.7	0.00e+00	34	39	0	1081081856	50	6337
2026-01-02 22:14:59.39	347.94	13.38	-39.4	-40.4	22.4	0.00e+00	10	39	0	1088421888	50	6739
2026-01-02 22:15:03.42	347.42	13.08	-39.4	-40.4	22.2	0.00e+00	0	39	0	1095761920	50	6751
2026-01-02 22:15:07.46	346.91	12.77	-39.4	-40.5	22.2	0.00e+00	0	39	0	1104150528	50	6783
2026-01-02 22:15:11.50	346.41	12.47	-40.1	-41.2	21.6	0.00e+00	25	39	0	1111490560	52	6573
2026-01-02 22:15:15.54	345.93	12.17	-40.5	-41.7	21.2	0.00e+00	0	39	0	1118830592	52	6964
2026-01-02 22:15:19.58	345.45	11.87	-39.9	-41.0	21.9	0.00e+00	0	39	0	1126170624	52	6397
2026-01-02 22:15:23.61	344.98	11.57	-40.1	-41.2	21.6	0.00e+00	0	39	0	1134559232	52	6594
2026-01-02 22:15:27.65	344.53	11.28	-41.1	-42.4	20.4	0.00e+00	61	39	0	1141899264	54	6765
2026-01-02 22:15:31.69	344.08	10.99	-40.9	-42.2	20.7	0.00e+00	0	39	0	1149239296	54	6540
2026-01-02 22:15:35.73	343.64	10.69	-40.1	-41.3	21.4	0.00e+00	0	39	0	1156579328	54	5902
2026-01-02 22:15:39.76	343.21	10.40	-40.1	-41.2	21.5	0.00e+00	0	39	0	1163919360	52	6594
2026-01-02 22:15:43.81	342.79	10.11	-40.7	-41.9	20.9	0.00e+00	60	39	0	1172307968	52	7132
2026-01-02 22:15:47.84	342.38	9.83	-41.2	-42.6	20.2	0.00e+00	0	39	0	1179648000	54	6896
2026-01-02 22:15:51.88	341.97	9.54	-41.9	-43.4	19.6	0.00e+00	0	39	0	1186988032	56	6741
2026-01-02 22:15:55.93	341.57	9.26	-42.0	-43.6	19.5	0.00e+00	58	39	0	1194328064	56	6855
2026-01-02 22:15:59.96	341.19	8.98	-41.8	-43.4	19.6	0.00e+00	0	39	0	1202716672	56	6705
2026-01-02 22:16:03.99	340.81	8.70	-41.6	-43.1	19.9	0.00e+00	0	39	0	1210056704	56	6506
2026-01-02 22:16:08.03	340.43	8.42	-42.2	-43.7	19.3	0.00e+00	0	39	0	1217396736	56	6996
2026-01-02 22:16:12.07	340.07	8.15	-42.7	-44.5	18.6	0.00e+00	92	39	0	1224736768	58	6801
2026-01-02 22:16:16.10	339.71	7.88	-42.8	-44.6	18.5	0.00e+00	0	39	0	1232076800	58	6899
2026-01-02 22:16:20.14	339.36	7.60	-42.2	-43.8	19.1	0.00e+00	0	39	0	1240465408	58	6298
2026-01-02 22:16:24.18	339.01	7.33	-41.2	-42.5	20.3	0.00e+00	0	39	0	1247805440	56	6087
2026-01-02 22:16:28.22	338.67	7.07	-40.6	-41.9	20.9	0.00e+00	90	39	0	1255145472	54	6318
2026-01-02 22:16:32.26	338.34	6.80	-41.0	-42.3	20.3	0.00e+00	0	39	0	1262485504	54	6639
2026-01-02 22:16:36.30	338.01	6.54	-41.4	-42.8	19.8	0.00e+00	0	39	0	1269825536	54	7056
2026-01-02 22:16:40.34	337.69	6.27	-41.9	-43.5	19.2	0.00e+00	49	39	0	1278214144	56	6770
2026-01-02 22:16:44.37	337.38	6.01	-42.8	-44.7	18.0	0.00e+00	88	39	0	1285554176	58	6952
2026-01-02 22:16:48.41	337.07	5.75	-43.3	-45.4	16.8	0.00e+00	0	39	0	1292894208	58	7589
2026-01-02 22:16:52.45	336.77	5.50	-44.1	-47.0	14.9	0.00e+00	0	39	0	1300234240	60	8049
2026-01-02 22:16:56.48	336.47	5.24	-44.7	-48.8	12.1	1.56e-04	17	39	0	1308622848	60	9924
2026-01-02 22:17:00.52	336.18	4.99	-45.2	-51.3	8.2	2.39e-02	0	39	0	1315962880	60	13322
2026-01-02 22:17:04.56	335.89	4.74	-45.2	-54.1	4.7	5.58e-01	0	39	0	1323302912	60	18328
2026-01-02 22:17:08.60	335.61	4.48	-45.2	-58.1	3.7	1.49e+00	0	39	104	1326448640	60	29090
2026-01-02 22:17:12.64	335.34	4.24	-45.1	-59.5	3.6	1.51e+00	0	39	104	1326448640	60	34077
2026-01-02 22:17:16.67	335.07	3.99	-45.0	-59.9	3.6	1.51e+00	0	39	104	1326448640	60	35800
2026-01-02 22:17:20.71	334.80	3.74	-44.9	-60.1	3.6	1.51e+00	0	39	104	1326448640	60	36412
2026-01-02 22:17:24.75	334.54	3.50	-45.0	-60.2	3.6	1.51e+00	0	39	104	1326448640	60	36923
2026-01-02 22:17:28.79	334.28	3.26	-45.0	-60.2	3.6	1.51e+00	0	39	104	1326448640	60	36778
2026-01-02 22:17:32.83	334.03	3.02	-45.0	-60.1	3.6	1.51e+00	0	39	104	1326448640	60	36628
2026-01-02 22:17:36.87	333.78	2.78	-49.6	-64.8	3.6	1.51e+00	0	39	104	1326448640	60	62993
2026-01-02 22:17:40.91	333.54	2.54	-50.0	-65.2	3.6	1.51e+00	0	39	104	1326448640	60	65793
2026-01-02 22:17:44.95	333.30	2.30	-49.9	-65.1	3.6	1.51e+00	0	39	104	1326448640	60	64855
2026-01-02 22:17:48.99	333.06	2.07	-49.8	-65.0	3.6	1.51e+00	0	39	104	1326448640	60	64401
2026-01-02 22:17:53.03	332.83	1.83	-49.8	-65.1	3.6	1.51e+00	0	39	104	1326448640	60	64897
2026-01-02 22:17:57.07	332.60	1.60	-49.8	-65.0	3.6	1.51e+00	0	39	104	1326448640	60	64463
2026-01-02 22:18:01.11	332.38	1.37	-49.8	-65.0	3.6	1.51e+00	0	39	104	1326448640	60	64610
2026-01-02 22:18:05.15	332.15	1.14	-49.8	-65.0	3.6	1.51e+00	0	39	104	1326448640	60	64576
2026-01-02 22:18:09.18	331.94	0.92	-49.8	-65.0	3.6	1.51e+00	0	39	104	1326448640	60	64550
2026-01-02 22:18:13.22	331.72	0.69	-49.8	-65.1	3.6	1.51e+00	0	39	104	1326448640	60	64821
2026-01-02 22:18:17.27	331.51	0.46	-49.8	-65.1	3.6	1.51e+00	0	39	104	1326448640	60	64944
2026-01-02 22:18:21.31	331.31	0.24	-49.8	-65.0	3.6	1.51e+00	0	39	104	1326448640	60	64435
2026-01-02 22:18:25.34	331.10	0.02	-49.8	-65.1	3.6	1.51e+00	0	39	104	1326448640	60	64842

#Closed at: 2026-01-02 22:18:26
#Recorded file [1326 MB]: D:/lorett/data/35029_260103_100421.dat