passes_logs/2026/01/02/R4.6S_Anadyr/R4.6S_Anadyr__20260102_154858_NOAA_20_JPSS-1_rec.log

#Pass ID: 20260102_154858_NOAA 20 (JPSS-1)
#Satellite: NOAA 20 (JPSS-1)
#Configuration: NOAA 20
#almurnet v.1.7.20251203
#Start time: 2026-01-02 15:49:00

#Version: 2.2.20231116
#Station: R4.6S_Anadyr
#Location: 177.4865 lon 64.73178 lat
#TLE: 1 43013U 17073A   26001.93781127  .00000184  00000+0  10834-3 0  9997
#TLE: 2 43013  98.7622 303.0160 0001916  58.2205 301.9158 14.19532295420889

#Time	Az	El	Level	Level2	SNR	BER	BlckErr	Temp	State	Recorded	gain1	gain2
2026-01-02 15:49:00.09	23.52	0.12	-49.4	-64.3	3.5	1.51e+00	0	36	0	0	60	59090
2026-01-02 15:49:04.12	23.42	0.35	-49.5	-64.7	3.6	1.51e+00	0	38	104	0	60	62242
2026-01-02 15:49:08.16	23.31	0.59	-49.4	-64.7	3.6	1.51e+00	0	38	104	0	60	61761
2026-01-02 15:49:12.20	23.21	0.84	-48.8	-64.0	3.6	1.51e+00	0	38	104	0	60	57516
2026-01-02 15:49:16.24	23.10	1.08	-47.7	-62.9	3.6	1.51e+00	0	38	104	0	60	50207
2026-01-02 15:49:20.27	22.99	1.32	-47.7	-62.8	3.6	1.51e+00	0	38	104	0	60	50066
2026-01-02 15:49:24.31	22.88	1.57	-47.7	-62.9	3.6	1.51e+00	0	38	104	0	60	50391
2026-01-02 15:49:28.35	22.76	1.82	-47.7	-62.7	3.6	1.51e+00	0	38	104	0	60	49566
2026-01-02 15:49:32.38	22.65	2.07	-47.7	-62.6	3.6	1.51e+00	0	38	104	0	60	49002
2026-01-02 15:49:36.42	22.53	2.33	-47.7	-62.9	3.6	1.51e+00	0	38	104	0	60	50594
2026-01-02 15:49:40.46	22.40	2.58	-47.7	-62.6	3.6	1.51e+00	0	38	104	0	60	48977
2026-01-02 15:49:44.50	22.28	2.84	-47.6	-61.7	3.6	1.51e+00	0	38	104	0	60	43885
2026-01-02 15:49:48.54	22.15	3.10	-47.7	-62.8	3.6	1.51e+00	0	38	104	0	60	50182
2026-01-02 15:49:52.58	22.03	3.36	-47.1	-54.7	6.2	4.93e-01	37	38	0	2097152	60	19743
2026-01-02 15:49:56.61	21.90	3.63	-45.9	-50.4	11.2	2.96e-03	7	38	0	9437184	60	11994
2026-01-02 15:50:00.65	21.76	3.89	-46.8	-53.8	6.6	2.77e-01	0	38	104	14680064	60	17688
2026-01-02 15:50:04.69	21.62	4.16	-40.8	-42.2	19.7	0.00e+00	92	39	0	15728640	54	6558
2026-01-02 15:50:08.72	21.48	4.43	-40.7	-42.1	19.7	0.00e+00	47	38	0	23068672	54	6525
2026-01-02 15:50:12.76	21.34	4.71	-40.9	-42.3	19.7	0.00e+00	31	38	0	30408704	54	6658
2026-01-02 15:50:16.80	21.20	4.99	-40.5	-41.8	20.2	0.00e+00	32	38	0	37748736	54	6311
2026-01-02 15:50:20.84	21.05	5.27	-40.5	-41.8	20.3	0.00e+00	90	38	0	46137344	54	6272
2026-01-02 15:50:24.88	20.90	5.55	-40.5	-41.8	20.5	0.00e+00	0	39	0	53477376	54	6248
2026-01-02 15:50:28.92	20.74	5.84	-40.3	-41.6	20.7	0.00e+00	51	39	0	60817408	54	6110
2026-01-02 15:50:32.95	20.58	6.12	-40.2	-41.4	20.9	0.00e+00	28	38	0	68157440	54	5983
2026-01-02 15:50:36.99	20.42	6.41	-40.3	-41.5	20.8	0.00e+00	91	39	0	75497472	54	6084
2026-01-02 15:50:41.02	20.25	6.71	-40.4	-41.7	20.6	0.00e+00	2	39	0	83886080	54	6221
2026-01-02 15:50:45.06	20.08	7.01	-39.9	-41.1	21.4	0.00e+00	0	39	0	91226112	54	5776
2026-01-02 15:50:49.10	19.91	7.31	-40.0	-41.1	21.3	0.00e+00	92	39	0	98566144	54	5824
2026-01-02 15:50:53.14	19.73	7.61	-40.0	-41.2	21.3	0.00e+00	61	39	0	105906176	54	5831
2026-01-02 15:50:57.17	19.55	7.92	-40.0	-41.1	21.4	0.00e+00	28	39	0	114294784	52	6512
2026-01-02 15:51:01.21	19.36	8.23	-40.1	-41.2	21.6	0.00e+00	27	39	0	121634816	52	6584
2026-01-02 15:51:05.25	19.17	8.55	-39.9	-41.1	21.6	0.00e+00	92	39	0	128974848	52	6484
2026-01-02 15:51:09.29	18.98	8.86	-40.1	-41.2	21.6	0.00e+00	18	39	0	136314880	52	6602
2026-01-02 15:51:13.33	18.78	9.19	-40.1	-41.2	21.6	0.00e+00	0	39	0	143654912	52	6573
2026-01-02 15:51:17.37	18.58	9.51	-39.7	-40.8	21.9	0.00e+00	55	39	0	152043520	52	6293
2026-01-02 15:51:21.41	18.37	9.84	-39.7	-40.7	21.9	0.00e+00	92	39	0	159383552	52	6239
2026-01-02 15:51:25.44	18.15	10.18	-40.0	-41.1	21.6	0.00e+00	28	39	0	166723584	52	6486
2026-01-02 15:51:29.48	17.93	10.51	-39.5	-40.5	22.2	0.00e+00	6	39	0	174063616	52	6102
2026-01-02 15:51:33.52	17.71	10.86	-39.5	-40.6	22.1	0.00e+00	0	39	0	182452224	52	6135
2026-01-02 15:51:37.56	17.48	11.20	-39.5	-40.5	22.2	0.00e+00	92	39	0	189792256	52	6097
2026-01-02 15:51:41.60	17.24	11.55	-39.3	-40.4	22.5	0.00e+00	6	39	0	197132288	52	5971
2026-01-02 15:51:45.64	16.99	11.91	-39.3	-40.3	22.5	0.00e+00	0	39	0	204472320	52	5931
2026-01-02 15:51:49.68	16.74	12.27	-39.2	-40.2	22.6	0.00e+00	0	39	0	211812352	52	5838
2026-01-02 15:51:53.72	16.49	12.64	-39.1	-40.1	22.7	0.00e+00	92	39	0	220200960	52	5807
2026-01-02 15:51:57.75	16.23	13.01	-39.1	-40.1	22.6	0.00e+00	25	39	0	227540992	52	5794
2026-01-02 15:52:01.79	15.96	13.38	-39.2	-40.2	22.7	0.00e+00	50	39	0	234881024	52	5832
2026-01-02 15:52:05.83	15.68	13.76	-39.1	-40.1	22.8	0.00e+00	0	39	0	242221056	52	5780
2026-01-02 15:52:09.86	15.39	14.15	-39.0	-40.0	22.9	0.00e+00	65	39	0	250609664	52	5725
2026-01-02 15:52:13.90	15.10	14.54	-38.9	-39.9	23.0	0.00e+00	57	39	0	257949696	52	5670
2026-01-02 15:52:17.94	14.80	14.93	-38.9	-39.9	23.0	0.00e+00	0	39	0	265289728	52	5641
2026-01-02 15:52:21.97	14.49	15.33	-39.1	-40.1	22.9	0.00e+00	0	39	0	272629760	52	5791
2026-01-02 15:52:26.02	14.17	15.74	-39.0	-40.0	23.0	0.00e+00	46	39	0	279969792	52	5717
2026-01-02 15:52:30.05	13.84	16.16	-39.1	-40.0	23.0	0.00e+00	0	39	0	288358400	52	5761
2026-01-02 15:52:34.09	13.50	16.58	-39.2	-40.1	22.9	0.00e+00	0	39	0	295698432	52	5815
2026-01-02 15:52:38.13	13.15	17.00	-39.0	-39.9	23.1	0.00e+00	92	39	0	303038464	52	5691
2026-01-02 15:52:42.17	12.79	17.44	-39.0	-39.9	23.0	0.00e+00	0	39	0	310378496	52	5687
2026-01-02 15:52:46.21	12.42	17.88	-39.1	-40.1	23.0	0.00e+00	24	39	0	318767104	52	5802
2026-01-02 15:52:50.24	12.04	18.32	-39.2	-40.2	22.9	0.00e+00	0	39	0	326107136	52	5844
2026-01-02 15:52:54.29	11.65	18.78	-39.2	-40.2	23.0	0.00e+00	92	39	0	333447168	52	5867
2026-01-02 15:52:58.32	11.25	19.23	-39.3	-40.2	23.0	0.00e+00	0	39	0	340787200	52	5879
2026-01-02 15:53:02.36	10.83	19.70	-39.4	-40.3	22.9	0.00e+00	25	39	0	348127232	52	5952
2026-01-02 15:53:06.40	10.40	20.18	-39.6	-40.6	22.6	0.00e+00	0	39	0	356515840	52	6134
2026-01-02 15:53:10.43	9.95	20.66	-39.8	-40.9	22.4	0.00e+00	90	39	0	363855872	52	6318
2026-01-02 15:53:14.47	9.49	21.14	-40.0	-41.1	22.0	0.00e+00	0	39	0	371195904	52	6468
2026-01-02 15:53:18.51	9.01	21.64	-39.9	-40.9	22.4	0.00e+00	0	39	0	378535936	52	6372
2026-01-02 15:53:22.55	8.52	22.15	-39.9	-40.9	22.3	0.00e+00	54	39	0	386924544	52	6365
2026-01-02 15:53:26.59	8.01	22.66	-40.1	-41.1	22.1	0.00e+00	92	39	0	394264576	52	6528
2026-01-02 15:53:30.62	7.49	23.17	-40.1	-41.1	22.2	0.00e+00	28	39	0	401604608	52	6539
2026-01-02 15:53:34.66	6.94	23.70	-39.9	-40.9	22.4	0.00e+00	0	39	0	408944640	52	6378
2026-01-02 15:53:38.70	6.38	24.24	-39.9	-40.9	22.1	0.00e+00	0	39	0	416284672	52	6390
2026-01-02 15:53:42.74	5.79	24.78	-39.8	-40.8	22.5	0.00e+00	92	39	0	424673280	52	6257
2026-01-02 15:53:46.78	5.19	25.33	-39.7	-40.7	22.7	0.00e+00	22	39	0	432013312	52	6241
2026-01-02 15:53:50.81	4.56	25.89	-39.9	-41.0	22.4	0.00e+00	23	38	0	439353344	52	6404
2026-01-02 15:53:54.85	3.91	26.46	-40.0	-41.1	22.3	0.00e+00	0	39	0	446693376	52	6469
2026-01-02 15:53:58.89	3.23	27.03	-39.9	-40.9	22.5	0.00e+00	92	39	0	455081984	52	6371
2026-01-02 15:54:02.93	2.53	27.61	-39.9	-41.0	22.5	0.00e+00	0	38	0	462422016	52	6392
2026-01-02 15:54:06.97	1.81	28.20	-39.9	-40.9	22.5	0.00e+00	22	38	0	469762048	52	6368
2026-01-02 15:54:11.00	1.05	28.80	-39.8	-40.8	22.5	0.00e+00	92	39	0	477102080	52	6269
2026-01-02 15:54:15.04	0.27	29.40	-40.0	-41.0	22.3	0.00e+00	60	38	0	484442112	52	6446
2026-01-02 15:54:19.08	359.45	30.01	-40.4	-41.5	22.0	0.00e+00	0	39	0	492830720	52	6792
2026-01-02 15:54:23.12	358.61	30.63	-41.6	-42.8	20.8	0.00e+00	60	38	0	500170752	54	7064
2026-01-02 15:54:27.15	357.73	31.25	-42.0	-43.4	20.3	0.00e+00	92	39	0	507510784	56	6719
2026-01-02 15:54:31.19	356.81	31.88	-42.1	-43.5	20.1	0.00e+00	67	39	0	514850816	56	6844
2026-01-02 15:54:35.23	355.86	32.52	-42.0	-43.3	20.4	0.00e+00	0	39	0	523239424	56	6635
2026-01-02 15:54:39.27	354.86	33.15	-42.4	-43.9	19.8	0.00e+00	0	39	0	530579456	56	7089
2026-01-02 15:54:43.31	353.83	33.79	-42.5	-44.0	19.7	0.00e+00	90	39	0	537919488	56	7207
2026-01-02 15:54:47.35	352.76	34.44	-42.0	-43.4	20.2	0.00e+00	60	38	0	545259520	56	6739
2026-01-02 15:54:51.38	351.64	35.08	-42.0	-43.3	20.0	0.00e+00	0	39	0	552599552	56	6682
2026-01-02 15:54:55.42	350.48	35.72	-41.5	-42.7	20.9	0.00e+00	23	39	0	560988160	56	6232
2026-01-02 15:54:59.46	349.27	36.37	-40.9	-42.1	21.6	0.00e+00	92	39	0	568328192	56	5770
2026-01-02 15:55:03.49	348.01	37.01	-40.5	-41.6	21.9	0.00e+00	0	38	0	575668224	54	6105
2026-01-02 15:55:07.53	346.70	37.64	-40.4	-41.5	22.1	0.00e+00	53	39	0	583008256	54	6075
2026-01-02 15:55:11.57	345.34	38.27	-40.7	-41.8	21.8	0.00e+00	43	38	0	591396864	54	6260
2026-01-02 15:55:15.61	343.92	38.90	-40.4	-41.4	22.1	0.00e+00	92	38	0	598736896	54	6011
2026-01-02 15:55:19.64	342.45	39.51	-41.1	-42.3	21.1	0.00e+00	7	39	0	606076928	54	6630
2026-01-02 15:55:23.68	340.92	40.11	-41.4	-42.7	20.9	0.00e+00	7	38	0	613416960	54	6942
2026-01-02 15:55:27.72	339.34	40.70	-41.2	-42.4	21.2	0.00e+00	0	39	0	620756992	56	6018
2026-01-02 15:55:31.76	337.69	41.27	-40.2	-41.2	22.3	0.00e+00	92	39	0	629145600	54	5886
2026-01-02 15:55:35.80	335.99	41.82	-39.3	-40.2	23.2	0.00e+00	26	39	0	636485632	52	5864
2026-01-02 15:55:39.83	334.23	42.35	-38.7	-39.6	23.8	0.00e+00	0	39	0	643825664	50	6134
2026-01-02 15:55:43.87	332.41	42.86	-38.6	-39.4	23.9	0.00e+00	90	39	0	651165696	50	6033
2026-01-02 15:55:47.91	330.53	43.34	-38.5	-39.4	23.9	0.00e+00	69	39	0	659554304	50	5985
2026-01-02 15:55:51.95	328.60	43.78	-39.3	-40.2	23.1	0.00e+00	0	39	0	666894336	50	6593
2026-01-02 15:55:55.99	326.61	44.20	-40.3	-41.3	22.0	0.00e+00	21	39	0	674234368	52	6671
2026-01-02 15:56:00.03	324.57	44.58	-40.2	-41.2	22.4	0.00e+00	92	38	0	681574400	52	6573
2026-01-02 15:56:04.07	322.49	44.92	-40.2	-41.2	22.4	0.00e+00	21	38	0	688914432	52	6576
2026-01-02 15:56:08.10	320.37	45.22	-40.5	-41.6	22.1	0.00e+00	56	38	0	697303040	52	6862
2026-01-02 15:56:12.14	318.20	45.48	-41.2	-42.4	21.2	0.00e+00	0	39	0	704643072	54	6737
2026-01-02 15:56:16.18	316.00	45.70	-41.7	-43.0	20.8	0.00e+00	91	39	0	711983104	54	7218
2026-01-02 15:56:20.22	313.78	45.87	-40.8	-41.8	21.8	0.00e+00	20	39	0	719323136	54	6314
2026-01-02 15:56:24.25	311.53	45.99	-42.3	-43.6	20.2	0.00e+00	0	38	0	727711744	56	6923
2026-01-02 15:56:28.29	309.27	46.06	-41.7	-43.0	20.8	0.00e+00	0	39	0	735051776	56	6428
2026-01-02 15:56:32.33	307.01	46.08	-41.5	-42.8	21.0	0.00e+00	91	38	0	742391808	56	6250
2026-01-02 15:56:36.37	304.74	46.05	-41.2	-42.3	21.4	0.00e+00	28	39	0	749731840	56	5963
2026-01-02 15:56:40.41	302.48	45.98	-41.6	-42.8	21.0	0.00e+00	5	39	0	757071872	56	6266
2026-01-02 15:56:44.45	300.23	45.85	-41.6	-42.8	21.0	0.00e+00	5	39	0	765460480	56	6300
2026-01-02 15:56:48.49	298.01	45.68	-41.7	-43.0	20.8	0.00e+00	92	39	0	772800512	56	6411
2026-01-02 15:56:52.52	295.81	45.46	-42.2	-43.6	20.2	0.00e+00	58	39	0	780140544	58	6118
2026-01-02 15:56:56.56	293.65	45.20	-42.2	-43.5	20.4	0.00e+00	56	39	0	787480576	58	6045
2026-01-02 15:57:00.60	291.53	44.89	-41.7	-42.9	20.8	0.00e+00	41	39	0	794820608	56	6363
2026-01-02 15:57:04.64	289.44	44.54	-41.2	-42.3	21.5	0.00e+00	92	39	0	803209216	56	5961
2026-01-02 15:57:08.68	287.41	44.16	-40.2	-41.2	22.4	0.00e+00	6	39	0	810549248	54	5896
2026-01-02 15:57:12.71	285.43	43.74	-40.1	-41.2	22.5	0.00e+00	0	39	0	817889280	54	5842
2026-01-02 15:57:16.75	283.50	43.28	-38.9	-39.8	23.7	0.00e+00	7	39	0	825229312	52	5621
2026-01-02 15:57:20.79	281.62	42.80	-38.5	-39.4	24.0	0.00e+00	92	39	0	833617920	50	5981
2026-01-02 15:57:24.83	279.81	42.29	-37.5	-38.3	24.8	0.00e+00	0	39	0	840957952	48	5959
2026-01-02 15:57:28.87	278.05	41.76	-37.3	-38.1	25.0	0.00e+00	0	39	0	848297984	48	5809
2026-01-02 15:57:32.91	276.35	41.20	-37.1	-37.9	25.2	0.00e+00	92	39	0	855638016	48	5650
2026-01-02 15:57:36.94	274.71	40.63	-37.9	-38.7	24.6	0.00e+00	67	39	0	862978048	48	6225
2026-01-02 15:57:40.98	273.12	40.04	-37.3	-38.0	25.1	0.00e+00	53	39	0	871366656	48	5752
2026-01-02 15:57:45.02	271.60	39.43	-37.9	-38.8	24.5	0.00e+00	22	39	0	878706688	48	6256
2026-01-02 15:57:49.05	270.13	38.82	-37.8	-38.6	24.6	0.00e+00	90	39	0	886046720	48	6134
2026-01-02 15:57:53.09	268.72	38.19	-38.1	-39.0	24.2	0.00e+00	0	39	0	893386752	48	6418
2026-01-02 15:57:57.13	267.36	37.56	-38.5	-39.4	23.9	0.00e+00	60	39	0	901775360	48	6733
2026-01-02 15:58:01.17	266.05	36.92	-38.9	-39.8	23.6	0.00e+00	59	39	0	909115392	50	6247
2026-01-02 15:58:05.21	264.79	36.28	-39.1	-40.0	23.4	0.00e+00	90	39	0	916455424	50	6415
2026-01-02 15:58:09.24	263.58	35.64	-40.3	-41.4	22.2	0.00e+00	27	39	0	921698304	54	5980
2026-01-02 15:58:13.28	262.42	34.99	-40.4	-41.5	22.2	0.00e+00	0	39	0	929038336	54	6039
2026-01-02 15:58:17.32	261.31	34.34	-41.7	-43.0	20.7	0.00e+00	48	39	0	937426944	54	7183
2026-01-02 15:58:21.36	260.23	33.70	-41.9	-43.1	20.6	0.00e+00	92	39	0	944766976	56	6504
2026-01-02 15:58:25.40	259.20	33.06	-42.5	-43.9	19.9	0.00e+00	24	39	0	952107008	56	7149
2026-01-02 15:58:29.43	258.21	32.42	-42.7	-44.1	19.8	0.00e+00	25	39	0	959447040	56	7318
2026-01-02 15:58:33.47	257.26	31.78	-42.1	-43.5	20.3	0.00e+00	0	39	0	967835648	58	6040
2026-01-02 15:58:37.50	256.35	31.16	-41.9	-43.2	20.4	0.00e+00	92	39	0	975175680	56	6568
2026-01-02 15:58:41.53	255.47	30.53	-42.0	-43.3	20.4	0.00e+00	7	39	0	982515712	56	6688
2026-01-02 15:58:45.57	254.62	29.91	-41.5	-42.7	21.0	0.00e+00	56	39	0	989855744	56	6192
2026-01-02 15:58:49.61	253.81	29.30	-41.0	-42.2	21.5	0.00e+00	0	39	0	997195776	56	5860
2026-01-02 15:58:53.64	253.03	28.70	-41.1	-42.2	21.4	0.00e+00	90	39	0	1005584384	56	5871
2026-01-02 15:58:57.68	252.27	28.10	-41.0	-42.1	21.5	0.00e+00	0	39	0	1012924416	56	5823
2026-01-02 15:59:01.72	251.55	27.51	-40.9	-42.0	21.5	0.00e+00	0	39	0	1020264448	56	5738
2026-01-02 15:59:05.76	250.84	26.92	-40.7	-41.8	21.7	0.00e+00	92	39	0	1027604480	54	6291
2026-01-02 15:59:09.80	250.17	26.35	-40.5	-41.6	21.8	0.00e+00	90	39	0	1034944512	54	6135
2026-01-02 15:59:13.83	249.52	25.78	-41.0	-42.2	21.3	0.00e+00	26	39	0	1043333120	54	6578
2026-01-02 15:59:17.87	248.89	25.22	-40.2	-41.2	22.2	0.00e+00	0	39	0	1050673152	54	5886
2026-01-02 15:59:21.91	248.29	24.67	-39.8	-40.8	22.6	0.00e+00	92	39	0	1058013184	52	6279
2026-01-02 15:59:25.95	247.70	24.13	-40.1	-41.1	22.3	0.00e+00	92	39	0	1065353216	52	6488
2026-01-02 15:59:29.98	247.14	23.59	-40.5	-41.6	21.9	0.00e+00	26	39	0	1073741824	52	6872
2026-01-02 15:59:34.02	246.59	23.06	-40.6	-41.7	21.8	0.00e+00	0	39	0	1081081856	52	6957
2026-01-02 15:59:38.06	246.07	22.54	-40.6	-41.7	21.7	0.00e+00	92	39	0	1088421888	52	7004
2026-01-02 15:59:42.10	245.56	22.03	-40.3	-41.4	22.0	0.00e+00	7	39	0	1095761920	52	6696
2026-01-02 15:59:46.14	245.06	21.53	-40.1	-41.1	22.2	0.00e+00	0	39	0	1103101952	52	6524
2026-01-02 15:59:50.18	244.59	21.03	-40.3	-41.3	22.1	0.00e+00	57	39	0	1111490560	52	6684
2026-01-02 15:59:54.21	244.13	20.54	-40.1	-41.2	22.1	0.00e+00	92	39	0	1118830592	52	6563
2026-01-02 15:59:58.25	243.68	20.06	-40.1	-41.2	22.2	0.00e+00	0	39	0	1126170624	52	6554
2026-01-02 16:00:02.29	243.25	19.58	-40.1	-41.2	22.2	0.00e+00	0	39	0	1133510656	52	6561
2026-01-02 16:00:06.33	242.83	19.12	-40.4	-41.4	21.9	0.00e+00	0	39	0	1141899264	52	6755
2026-01-02 16:00:10.37	242.42	18.66	-40.4	-41.5	21.8	0.00e+00	92	39	0	1149239296	52	6830
2026-01-02 16:00:14.40	242.03	18.20	-40.5	-41.6	21.6	0.00e+00	28	39	0	1156579328	52	6887
2026-01-02 16:00:18.44	241.64	17.76	-40.4	-41.5	21.8	0.00e+00	0	39	0	1163919360	52	6830
2026-01-02 16:00:22.48	241.27	17.32	-40.4	-41.5	21.8	0.00e+00	0	39	0	1171259392	52	6799
2026-01-02 16:00:26.52	240.91	16.88	-40.6	-41.7	21.6	0.00e+00	92	39	0	1179648000	52	6997
2026-01-02 16:00:30.55	240.56	16.46	-40.5	-41.6	21.7	0.00e+00	53	39	0	1186988032	52	6863
2026-01-02 16:00:34.59	240.22	16.04	-40.9	-42.0	21.2	0.00e+00	45	39	0	1194328064	54	6439
2026-01-02 16:00:38.63	239.89	15.62	-41.0	-42.2	21.0	0.00e+00	35	39	0	1201668096	54	6596
2026-01-02 16:00:42.66	239.57	15.22	-41.0	-42.2	21.1	0.00e+00	29	39	0	1210056704	54	6543
2026-01-02 16:00:46.70	239.26	14.81	-41.0	-42.2	21.1	0.00e+00	0	39	0	1217396736	54	6548
2026-01-02 16:00:50.74	238.96	14.42	-41.2	-42.4	20.7	0.00e+00	0	39	0	1224736768	54	6738
2026-01-02 16:00:54.78	238.66	14.02	-41.7	-43.0	20.2	0.00e+00	55	39	0	1232076800	54	7211
2026-01-02 16:00:58.81	238.38	13.64	-42.0	-43.4	19.8	0.00e+00	56	39	0	1239416832	56	6737
2026-01-02 16:01:02.85	238.10	13.26	-42.1	-43.6	19.6	0.00e+00	0	39	0	1247805440	56	6876
2026-01-02 16:01:06.89	237.83	12.88	-42.3	-43.8	19.4	0.00e+00	0	39	0	1255145472	56	7009
2026-01-02 16:01:10.93	237.56	12.51	-42.4	-43.9	19.1	0.00e+00	90	39	0	1262485504	56	7139
2026-01-02 16:01:14.96	237.30	12.15	-42.8	-44.5	18.6	0.00e+00	4	39	0	1269825536	58	6787
2026-01-02 16:01:19.00	237.05	11.79	-43.5	-45.4	17.7	0.00e+00	0	39	0	1278214144	58	7523
2026-01-02 16:01:23.04	236.81	11.43	-43.9	-45.9	17.1	0.00e+00	0	39	0	1285554176	60	7166
2026-01-02 16:01:27.08	236.57	11.08	-44.4	-46.7	16.3	0.00e+00	91	39	0	1292894208	60	7792
2026-01-02 16:01:31.12	236.33	10.73	-44.6	-47.0	16.1	0.00e+00	0	39	0	1300234240	60	8054
2026-01-02 16:01:35.15	236.11	10.39	-44.8	-47.4	15.6	0.00e+00	0	39	0	1307574272	60	8478
2026-01-02 16:01:39.18	235.88	10.05	-45.0	-47.7	15.2	0.00e+00	0	39	0	1315962880	60	8803
2026-01-02 16:01:43.22	235.67	9.72	-45.3	-48.2	14.7	0.00e+00	92	39	0	1323302912	60	9252
2026-01-02 16:01:47.26	235.46	9.39	-45.6	-48.7	14.1	0.00e+00	0	39	0	1330642944	60	9891
2026-01-02 16:01:51.30	235.25	9.06	-45.9	-49.4	13.3	1.75e-05	0	39	0	1337982976	60	10708
2026-01-02 16:01:55.34	235.05	8.74	-46.3	-50.2	12.4	1.20e-04	0	39	0	1345323008	60	11676
2026-01-02 16:01:59.37	234.85	8.42	-46.6	-51.0	11.4	6.89e-04	92	39	0	1353711616	60	12849
2026-01-02 16:02:03.41	234.66	8.11	-46.8	-51.5	10.9	1.86e-03	6	39	0	1361051648	60	13569
2026-01-02 16:02:07.45	234.47	7.79	-47.0	-52.1	10.1	4.35e-03	6	39	0	1368391680	60	14590
2026-01-02 16:02:11.48	234.29	7.49	-47.1	-52.5	9.6	1.29e-02	0	39	0	1375731712	60	15304
2026-01-02 16:02:15.52	234.10	7.18	-47.3	-53.1	8.8	3.49e-02	91	39	0	1384120320	60	16374
2026-01-02 16:02:19.55	233.93	6.88	-47.4	-54.0	7.8	6.56e-02	46	39	0	1391460352	60	18051
2026-01-02 16:02:23.59	233.76	6.58	-47.5	-54.2	7.3	1.11e-01	46	39	0	1398800384	60	18571
2026-01-02 16:02:27.63	233.59	6.29	-47.6	-55.1	6.3	2.19e-01	92	39	0	1406140416	60	20531
2026-01-02 16:02:31.67	233.42	6.00	-47.6	-55.6	5.7	3.51e-01	92	39	0	1413480448	60	21884
2026-01-02 16:02:35.71	233.26	5.71	-47.7	-56.1	5.0	5.16e-01	42	39	0	1421869056	60	23090
2026-01-02 16:02:39.75	233.10	5.42	-47.7	-56.7	4.5	7.78e-01	41	39	0	1429209088	60	24813
2026-01-02 16:02:43.78	232.95	5.14	-47.6	-57.3	4.2	9.68e-01	75	40	0	1436549120	60	26401
2026-01-02 16:02:47.82	232.80	4.86	-47.6	-57.7	4.0	1.35e+00	58	39	0	1443889152	60	27722
2026-01-02 16:02:51.86	232.65	4.58	-47.5	-59.4	3.7	1.40e+00	0	39	104	1445986304	60	33762
2026-01-02 16:02:55.89	232.50	4.31	-47.5	-59.0	3.8	1.43e+00	0	39	0	1445986304	60	32135
2026-01-02 16:02:59.93	232.36	4.04	-47.3	-59.9	3.8	1.46e+00	0	39	0	1445986304	60	35529
2026-01-02 16:03:03.97	232.22	3.77	-47.2	-60.0	3.8	1.50e+00	0	39	104	1445986304	60	36071
2026-01-02 16:03:08.01	232.08	3.50	-47.1	-60.3	3.7	1.50e+00	0	39	104	1445986304	60	37389
2026-01-02 16:03:12.05	231.95	3.23	-47.0	-60.4	3.6	1.51e+00	0	39	104	1445986304	60	37753
2026-01-02 16:03:16.08	231.82	2.97	-48.1	-63.3	3.6	1.51e+00	0	39	104	1445986304	60	53069
2026-01-02 16:03:20.12	231.69	2.71	-49.5	-64.7	3.6	1.51e+00	0	39	104	1445986304	60	61855
2026-01-02 16:03:24.16	231.56	2.45	-49.6	-64.8	3.6	1.51e+00	0	39	104	1445986304	60	62594
2026-01-02 16:03:28.20	231.44	2.20	-49.5	-64.7	3.6	1.51e+00	0	39	104	1445986304	60	61947
2026-01-02 16:03:32.24	231.31	1.94	-49.4	-64.7	3.6	1.51e+00	0	39	104	1445986304	60	62043
2026-01-02 16:03:36.27	231.19	1.69	-49.5	-64.7	3.6	1.51e+00	0	39	104	1445986304	60	62238
2026-01-02 16:03:40.32	231.08	1.44	-49.5	-64.7	3.6	1.51e+00	0	39	104	1445986304	60	61903
2026-01-02 16:03:44.36	230.96	1.19	-49.5	-64.7	3.6	1.51e+00	0	39	104	1445986304	60	61887
2026-01-02 16:03:48.40	230.85	0.95	-49.4	-64.7	3.6	1.51e+00	0	39	104	1445986304	60	61851
2026-01-02 16:03:52.44	230.74	0.71	-49.4	-64.6	3.6	1.51e+00	0	39	104	1445986304	60	61667
2026-01-02 16:03:56.48	230.63	0.46	-49.4	-64.7	3.5	1.51e+00	0	39	104	1445986304	60	61957
2026-01-02 16:04:00.51	230.52	0.22	-49.4	-64.7	3.6	1.51e+00	0	39	104	1445986304	60	62076
2026-01-02 16:04:04.55	230.41	-0.01	-49.4	-64.6	3.6	1.51e+00	0	39	104	1445986304	60	61675

#Closed at: 2026-01-02 16:04:05
#Recorded file [1445 MB]: D:/lorett/data/35029_260103_034900.dat