passes_logs/2026/01/02/R4.6S_Anadyr/R4.6S_Anadyr__20260102_011300_NOAA_21_JPSS-2_rec.log

#Pass ID: 20260102_011300_NOAA 21 (JPSS-2)
#Satellite: NOAA 21 (JPSS-2)
#Configuration: NOAA-21
#almurnet v.1.7.20251203
#Start time: 2026-01-02 01:13:01

#Version: 2.2.20231116
#Station: R4.6S_Anadyr
#Location: 177.4865 lon 64.73178 lat
#TLE: 1 54234U 22150A   26001.62049579  .00000200  00000+0  11561-3 0  9997
#TLE: 2 54234  98.7484 302.6830 0001258 352.4447   7.6710 14.19530916162916

#Time	Az	El	Level	Level2	SNR	BER	BlckErr	Temp	State	Recorded	gain1	gain2
2026-01-02 01:13:01.39	181.64	0.06	-49.3	-64.1	3.5	1.51e+00	0	36	0	0	60	58097
2026-01-02 01:13:05.43	181.77	0.29	-49.3	-62.2	3.5	1.52e+00	0	38	104	0	60	45058
2026-01-02 01:13:09.46	181.91	0.53	-49.2	-62.1	3.5	1.52e+00	0	38	104	0	60	44802
2026-01-02 01:13:13.50	182.05	0.77	-48.9	-61.8	3.5	1.52e+00	0	38	104	0	60	43178
2026-01-02 01:13:17.55	182.19	1.01	-47.9	-60.7	3.5	1.52e+00	0	38	104	0	60	37868
2026-01-02 01:13:21.59	182.33	1.25	-47.9	-60.8	3.5	1.52e+00	0	38	104	0	60	38366
2026-01-02 01:13:25.63	182.48	1.50	-47.9	-60.8	3.5	1.52e+00	0	39	104	0	60	38276
2026-01-02 01:13:29.66	182.62	1.75	-47.9	-60.6	3.5	1.51e+00	0	39	104	0	60	37750
2026-01-02 01:13:33.70	182.77	1.99	-47.9	-60.7	3.5	1.52e+00	0	39	104	0	60	38044
2026-01-02 01:13:37.74	182.93	2.25	-47.9	-60.7	3.5	1.52e+00	0	39	104	0	60	37870
2026-01-02 01:13:41.78	183.08	2.50	-47.9	-60.2	3.5	1.52e+00	0	39	104	0	60	35934
2026-01-02 01:13:45.81	183.24	2.75	-47.7	-58.5	3.8	1.50e+00	0	39	104	0	60	29451
2026-01-02 01:13:49.85	183.40	3.01	-47.2	-54.9	5.5	5.96e-01	123	39	104	0	60	19614
2026-01-02 01:13:53.89	183.56	3.27	-42.0	-43.9	15.9	0.00e+00	123	39	0	11534336	58	6171
2026-01-02 01:13:57.93	183.72	3.53	-40.1	-41.5	18.3	0.00e+00	123	39	0	24117248	54	5885
2026-01-02 01:14:01.96	183.89	3.80	-47.8	-59.7	3.5	3.06e-01	0	39	104	35651584	60	33975
2026-01-02 01:14:06.00	184.06	4.06	-39.7	-41.0	19.0	0.00e+00	122	39	0	41943040	52	6246
2026-01-02 01:14:10.04	184.24	4.33	-39.1	-40.3	19.5	0.00e+00	123	39	0	54525952	52	5771
2026-01-02 01:14:14.08	184.41	4.60	-38.6	-39.8	20.1	0.00e+00	123	39	0	67108864	50	6104
2026-01-02 01:14:18.11	184.59	4.88	-38.2	-39.3	20.6	0.00e+00	123	39	0	79691776	50	5766
2026-01-02 01:14:22.15	184.77	5.15	-38.2	-39.3	20.7	0.00e+00	120	39	0	92274688	50	5782
2026-01-02 01:14:26.19	184.96	5.43	-37.9	-39.0	20.9	0.00e+00	122	39	0	104857600	50	5576
2026-01-02 01:14:30.23	185.15	5.72	-37.9	-39.0	20.9	0.00e+00	122	39	0	117440512	48	6266
2026-01-02 01:14:34.27	185.34	6.00	-37.6	-38.6	21.3	0.00e+00	123	39	0	130023424	48	5986
2026-01-02 01:14:38.31	185.54	6.29	-37.7	-38.8	21.2	0.00e+00	123	39	0	143654912	48	6085
2026-01-02 01:14:42.35	185.74	6.58	-37.6	-38.6	21.4	0.00e+00	123	39	0	156237824	48	5986
2026-01-02 01:14:46.39	185.94	6.88	-37.4	-38.5	21.5	0.00e+00	122	39	0	168820736	48	5891
2026-01-02 01:14:50.42	186.15	7.17	-37.4	-38.4	21.5	0.00e+00	122	39	0	181403648	48	5851
2026-01-02 01:14:54.46	186.36	7.47	-37.2	-38.3	21.7	0.00e+00	122	39	0	193986560	48	5760
2026-01-02 01:14:58.49	186.57	7.78	-37.3	-38.3	21.7	0.00e+00	123	39	0	206569472	48	5775
2026-01-02 01:15:02.53	186.79	8.08	-37.1	-38.2	21.8	0.00e+00	123	39	0	219152384	48	5671
2026-01-02 01:15:06.56	187.02	8.39	-37.0	-38.0	22.0	0.00e+00	122	39	0	231735296	48	5579
2026-01-02 01:15:10.60	187.25	8.71	-36.9	-37.9	22.1	0.00e+00	123	39	0	244318208	48	5529
2026-01-02 01:15:14.64	187.48	9.02	-36.7	-37.7	22.4	0.00e+00	123	39	0	256901120	46	6059
2026-01-02 01:15:18.68	187.72	9.35	-36.6	-37.6	22.5	0.00e+00	123	39	0	269484032	46	5935
2026-01-02 01:15:22.71	187.96	9.67	-36.4	-37.4	22.6	0.00e+00	123	39	0	282066944	46	5846
2026-01-02 01:15:26.75	188.21	10.00	-36.7	-37.7	22.4	0.00e+00	123	39	0	294649856	46	6014
2026-01-02 01:15:30.79	188.46	10.33	-36.2	-37.2	22.8	0.00e+00	123	39	0	307232768	46	5709
2026-01-02 01:15:34.83	188.72	10.67	-36.0	-37.0	23.0	0.00e+00	122	39	0	319815680	46	5564
2026-01-02 01:15:38.87	188.99	11.01	-36.0	-37.0	23.0	0.00e+00	123	39	0	332398592	46	5569
2026-01-02 01:15:42.91	189.26	11.36	-35.7	-36.7	23.3	0.00e+00	123	39	0	344981504	46	5366
2026-01-02 01:15:46.94	189.53	11.71	-35.8	-36.8	23.2	0.00e+00	123	39	0	357564416	44	6074
2026-01-02 01:15:50.98	189.82	12.06	-35.7	-36.6	23.3	0.00e+00	122	39	0	370147328	44	5978
2026-01-02 01:15:55.02	190.11	12.42	-35.6	-36.5	23.4	0.00e+00	120	40	0	382730240	44	5923
2026-01-02 01:15:59.06	190.40	12.78	-35.7	-36.6	23.3	0.00e+00	120	39	0	395313152	44	5971
2026-01-02 01:16:03.11	190.71	13.15	-35.4	-36.3	23.6	0.00e+00	123	40	0	407896064	44	5761
2026-01-02 01:16:07.15	191.02	13.53	-35.4	-36.3	23.7	0.00e+00	122	40	0	420478976	44	5742
2026-01-02 01:16:11.19	191.34	13.91	-35.6	-36.6	23.4	0.00e+00	122	40	0	433061888	44	5927
2026-01-02 01:16:15.23	191.66	14.29	-35.5	-36.4	23.6	0.00e+00	123	40	0	445644800	44	5857
2026-01-02 01:16:19.27	192.00	14.68	-35.6	-36.6	23.5	0.00e+00	123	40	0	458227712	44	5932
2026-01-02 01:16:23.31	192.34	15.07	-35.7	-36.6	23.5	0.00e+00	123	39	0	470810624	44	5976
2026-01-02 01:16:27.34	192.69	15.47	-35.6	-36.5	23.5	0.00e+00	123	39	0	483393536	44	5916
2026-01-02 01:16:31.38	193.06	15.88	-35.6	-36.5	23.6	0.00e+00	122	40	0	495976448	44	5902
2026-01-02 01:16:35.42	193.43	16.29	-35.5	-36.5	23.7	0.00e+00	123	40	0	509607936	44	5866
2026-01-02 01:16:39.45	193.81	16.71	-35.8	-36.8	23.4	0.00e+00	123	39	0	522190848	44	6067
2026-01-02 01:16:43.49	194.20	17.13	-36.1	-37.0	23.1	0.00e+00	123	40	0	534773760	44	6264
2026-01-02 01:16:47.53	194.60	17.56	-35.5	-36.5	23.7	0.00e+00	123	40	0	547356672	44	5861
2026-01-02 01:16:51.57	195.01	18.00	-35.6	-36.5	23.7	0.00e+00	122	40	0	559939584	44	5894
2026-01-02 01:16:55.60	195.44	18.44	-35.5	-36.5	23.7	0.00e+00	122	40	0	572522496	44	5863
2026-01-02 01:16:59.65	195.87	18.89	-35.5	-36.4	23.6	0.00e+00	122	39	0	585105408	44	5852
2026-01-02 01:17:03.68	196.32	19.34	-35.1	-36.0	24.0	0.00e+00	123	40	0	597688320	44	5573
2026-01-02 01:17:07.72	196.78	19.80	-35.0	-35.9	24.0	0.00e+00	123	40	0	610271232	44	5507
2026-01-02 01:17:11.76	197.26	20.27	-35.0	-36.0	24.0	0.00e+00	123	40	0	622854144	44	5538
2026-01-02 01:17:15.79	197.75	20.75	-34.7	-35.6	24.2	0.00e+00	123	40	0	635437056	42	5941
2026-01-02 01:17:19.83	198.25	21.23	-34.6	-35.5	24.3	0.00e+00	123	40	0	648019968	42	5865
2026-01-02 01:17:23.87	198.78	21.72	-34.6	-35.5	24.3	0.00e+00	122	40	0	660602880	42	5879
2026-01-02 01:17:27.91	199.31	22.22	-34.7	-35.6	24.2	0.00e+00	123	40	0	673185792	42	5992
2026-01-02 01:17:31.95	199.87	22.72	-34.2	-35.1	24.5	0.00e+00	123	40	0	685768704	42	5642
2026-01-02 01:17:35.99	200.44	23.24	-34.3	-35.2	24.6	0.00e+00	123	40	0	698351616	42	5701
2026-01-02 01:17:40.02	201.03	23.76	-34.2	-35.1	24.5	0.00e+00	123	40	0	710934528	42	5656
2026-01-02 01:17:44.06	201.64	24.28	-34.1	-35.0	24.7	0.00e+00	122	40	0	723517440	42	5549
2026-01-02 01:17:48.10	202.27	24.82	-34.0	-34.9	24.9	0.00e+00	123	40	0	736100352	42	5483
2026-01-02 01:17:52.13	202.92	25.36	-34.3	-35.2	24.7	0.00e+00	122	40	0	748683264	42	5666
2026-01-02 01:17:56.17	203.59	25.91	-34.5	-35.4	24.7	0.00e+00	121	40	0	761266176	42	5808
2026-01-02 01:18:00.21	204.29	26.46	-34.6	-35.5	24.5	0.00e+00	120	40	0	773849088	42	5902
2026-01-02 01:18:04.25	205.01	27.03	-35.0	-35.9	24.1	0.00e+00	122	40	0	786432000	42	6157
2026-01-02 01:18:08.29	205.76	27.60	-35.1	-36.0	23.9	0.00e+00	120	40	0	799014912	42	6262
2026-01-02 01:18:12.33	206.53	28.17	-35.2	-36.1	24.0	0.00e+00	123	40	0	811597824	42	6311
2026-01-02 01:18:16.36	207.33	28.75	-35.2	-36.1	24.0	0.00e+00	120	40	0	824180736	42	6325
2026-01-02 01:18:20.40	208.16	29.34	-35.1	-36.0	24.1	0.00e+00	123	40	0	836763648	42	6228
2026-01-02 01:18:24.44	209.02	29.94	-35.1	-36.0	24.0	0.00e+00	123	40	0	849346560	42	6253
2026-01-02 01:18:28.48	209.91	30.54	-35.0	-35.9	24.1	0.00e+00	122	40	0	861929472	42	6188
2026-01-02 01:18:32.52	210.84	31.15	-34.9	-35.8	24.3	0.00e+00	123	40	0	875560960	42	6133
2026-01-02 01:18:36.56	211.80	31.76	-35.2	-36.1	24.1	0.00e+00	122	40	0	888143872	42	6293
2026-01-02 01:18:40.60	212.79	32.37	-35.5	-36.5	23.5	0.00e+00	123	40	0	900726784	42	6594
2026-01-02 01:18:44.64	213.83	32.99	-35.9	-36.9	23.3	0.00e+00	123	40	0	913309696	44	6155
2026-01-02 01:18:48.67	214.90	33.60	-35.8	-36.7	23.5	0.00e+00	123	40	0	925892608	44	6024
2026-01-02 01:18:52.71	216.01	34.22	-35.8	-36.8	23.5	0.00e+00	123	40	0	938475520	44	6072
2026-01-02 01:18:56.75	217.16	34.84	-35.8	-36.7	23.4	0.00e+00	123	40	0	951058432	44	6023
2026-01-02 01:19:00.78	218.36	35.46	-36.4	-37.4	23.1	0.00e+00	122	40	0	963641344	44	6528
2026-01-02 01:19:04.82	219.61	36.08	-36.7	-37.7	22.8	0.00e+00	123	40	0	976224256	46	6026
2026-01-02 01:19:08.86	220.90	36.69	-37.4	-38.4	22.2	0.00e+00	120	40	0	988807168	46	6527
2026-01-02 01:19:12.90	222.24	37.30	-37.3	-38.4	22.3	0.00e+00	123	40	0	1001390080	46	6508
2026-01-02 01:19:16.94	223.63	37.90	-37.4	-38.5	22.2	0.00e+00	123	40	0	1013972992	46	6595
2026-01-02 01:19:20.98	225.07	38.49	-36.4	-37.4	23.1	0.00e+00	122	40	0	1026555904	46	5832
2026-01-02 01:19:25.02	226.56	39.07	-36.6	-37.6	22.9	0.00e+00	123	40	0	1039138816	46	5942
2026-01-02 01:19:29.05	228.10	39.64	-36.7	-37.6	22.9	0.00e+00	123	40	0	1051721728	46	5982
2026-01-02 01:19:33.09	229.70	40.20	-37.4	-38.4	22.3	0.00e+00	123	40	0	1064304640	46	6551
2026-01-02 01:19:37.13	231.35	40.73	-37.2	-38.2	22.5	0.00e+00	123	40	0	1076887552	46	6406
2026-01-02 01:19:41.16	233.06	41.25	-37.3	-38.2	22.5	0.00e+00	122	40	0	1089470464	46	6420
2026-01-02 01:19:45.21	234.82	41.75	-37.5	-38.5	22.3	0.00e+00	122	40	0	1102053376	46	6586
2026-01-02 01:19:49.24	236.63	42.22	-37.9	-38.9	21.8	0.00e+00	122	40	0	1114636288	48	6183
2026-01-02 01:19:53.28	238.50	42.67	-38.6	-39.7	21.1	0.00e+00	123	40	0	1127219200	48	6790
2026-01-02 01:19:57.32	240.41	43.08	-37.6	-38.6	21.9	0.00e+00	120	40	0	1139802112	48	5980
2026-01-02 01:20:01.35	242.37	43.47	-37.6	-38.6	22.2	0.00e+00	122	40	0	1152385024	48	5952
2026-01-02 01:20:05.39	244.38	43.82	-38.3	-39.4	21.2	0.00e+00	123	40	0	1164967936	48	6570
2026-01-02 01:20:09.43	246.43	44.14	-37.9	-39.0	21.4	0.00e+00	123	40	0	1177550848	48	6253
2026-01-02 01:20:13.47	248.51	44.41	-38.4	-39.5	21.4	0.00e+00	123	40	0	1190133760	50	5896
2026-01-02 01:20:17.51	250.63	44.65	-38.4	-39.4	21.4	0.00e+00	122	40	0	1202716672	50	5858
2026-01-02 01:20:21.55	252.78	44.84	-37.4	-38.4	22.2	0.00e+00	122	40	0	1215299584	48	5840
2026-01-02 01:20:25.58	254.95	45.00	-37.6	-38.6	21.9	0.00e+00	123	40	0	1227882496	48	5950
2026-01-02 01:20:29.62	257.14	45.10	-37.7	-38.8	21.4	0.00e+00	123	40	0	1241513984	48	6071
2026-01-02 01:20:33.66	259.34	45.16	-38.0	-39.0	21.8	0.00e+00	120	40	0	1254096896	48	6260
2026-01-02 01:20:37.70	261.55	45.18	-37.6	-38.7	22.0	0.00e+00	121	40	0	1266679808	48	5995
2026-01-02 01:20:41.74	263.75	45.15	-37.8	-38.8	21.9	0.00e+00	123	40	0	1279262720	48	6120
2026-01-02 01:20:45.78	265.95	45.07	-37.8	-38.8	21.8	0.00e+00	123	40	0	1291845632	48	6122
2026-01-02 01:20:49.83	268.14	44.95	-37.0	-38.0	22.6	0.00e+00	123	40	0	1304428544	48	5565
2026-01-02 01:20:53.86	270.29	44.79	-37.3	-38.3	22.3	0.00e+00	123	40	0	1317011456	48	5741
2026-01-02 01:20:57.90	272.43	44.58	-37.7	-38.7	22.1	0.00e+00	122	40	0	1329594368	48	6027
2026-01-02 01:21:01.94	274.54	44.33	-37.6	-38.6	22.0	0.00e+00	123	40	0	1342177280	48	5955
2026-01-02 01:21:05.98	276.61	44.04	-37.7	-38.7	22.0	0.00e+00	123	40	0	1354760192	48	6052
2026-01-02 01:21:10.01	278.64	43.72	-37.7	-38.7	21.9	0.00e+00	123	40	0	1367343104	48	6040
2026-01-02 01:21:14.05	280.63	43.36	-37.4	-38.5	22.2	0.00e+00	123	40	0	1379926016	48	5861
2026-01-02 01:21:18.09	282.58	42.96	-38.0	-39.0	21.8	0.00e+00	123	40	0	1392508928	48	6263
2026-01-02 01:21:22.13	284.47	42.54	-37.4	-38.4	22.3	0.00e+00	123	40	0	1405091840	48	5823
2026-01-02 01:21:26.17	286.32	42.09	-38.2	-39.3	21.4	0.00e+00	122	40	0	1417674752	48	6464
2026-01-02 01:21:30.21	288.11	41.61	-37.9	-39.0	21.5	0.00e+00	123	40	0	1430257664	48	6237
2026-01-02 01:21:34.24	289.85	41.11	-37.8	-38.9	21.8	0.00e+00	122	40	0	1442840576	48	6141
2026-01-02 01:21:38.28	291.53	40.58	-36.6	-37.5	22.9	0.00e+00	123	40	0	1455423488	46	5897
2026-01-02 01:21:42.32	293.17	40.04	-37.0	-38.0	22.6	0.00e+00	122	40	0	1468006400	46	6241
2026-01-02 01:21:46.35	294.74	39.49	-32.4	-38.4	16.5	2.93e-02	122	40	0	1480589312	36	11563
2026-01-02 01:21:50.39	296.27	38.92	-32.3	-38.9	16.9	2.52e-02	123	40	0	1493172224	36	12363
2026-01-02 01:21:54.43	297.74	38.33	-32.3	-38.5	16.7	2.52e-02	123	40	0	1505755136	36	11772
2026-01-02 01:21:58.47	299.16	37.74	-32.2	-37.8	16.8	2.75e-02	123	40	0	1518338048	36	10806
2026-01-02 01:22:02.50	300.53	37.14	-36.7	-37.7	22.9	0.00e+00	123	40	0	1530920960	46	6015
2026-01-02 01:22:06.54	301.85	36.54	-36.1	-37.0	23.1	0.00e+00	122	40	0	1543503872	46	5585
2026-01-02 01:22:10.58	303.12	35.93	-36.3	-37.3	23.2	0.00e+00	123	40	0	1556086784	46	5741
2026-01-02 01:22:14.62	304.35	35.31	-36.7	-37.7	22.7	0.00e+00	123	40	0	1568669696	46	6045
2026-01-02 01:22:18.66	305.53	34.70	-36.5	-37.5	22.8	0.00e+00	122	40	0	1582301184	46	5890
2026-01-02 01:22:22.69	306.67	34.08	-36.5	-37.5	23.0	0.00e+00	123	40	0	1593835520	46	5876
2026-01-02 01:22:26.73	307.77	33.46	-35.8	-36.7	23.6	0.00e+00	123	40	0	1607467008	46	5383
2026-01-02 01:22:30.77	308.82	32.85	-35.2	-36.1	24.1	0.00e+00	121	40	0	1620049920	44	5621
2026-01-02 01:22:34.81	309.84	32.24	-34.8	-35.7	24.5	0.00e+00	120	40	0	1632632832	44	5347
2026-01-02 01:22:38.85	310.83	31.63	-34.8	-35.8	24.3	0.00e+00	120	40	0	1645215744	44	5405
2026-01-02 01:22:42.90	311.78	31.02	-34.7	-35.6	24.3	0.00e+00	123	40	0	1657798656	42	5967
2026-01-02 01:22:46.93	312.69	30.42	-34.7	-35.6	24.3	0.00e+00	122	40	0	1670381568	42	5971
2026-01-02 01:22:50.97	313.57	29.83	-34.6	-35.5	24.2	0.00e+00	122	40	0	1682964480	42	5909
2026-01-02 01:22:55.01	314.42	29.24	-35.0	-36.0	24.0	0.00e+00	123	40	0	1695547392	42	6218
2026-01-02 01:22:59.05	315.24	28.65	-35.3	-36.3	23.9	0.00e+00	122	40	0	1708130304	42	6426
2026-01-02 01:23:03.09	316.03	28.08	-35.3	-36.2	24.0	0.00e+00	122	40	0	1720713216	42	6417
2026-01-02 01:23:07.13	316.79	27.50	-35.5	-36.4	23.9	0.00e+00	123	40	0	1733296128	44	5807
2026-01-02 01:23:11.17	317.53	26.94	-34.9	-35.8	24.3	0.00e+00	123	40	0	1745879040	44	5446
2026-01-02 01:23:15.21	318.24	26.38	-34.6	-35.5	24.5	0.00e+00	123	40	0	1758461952	42	5917
2026-01-02 01:23:19.25	318.93	25.83	-34.9	-35.8	24.2	0.00e+00	122	40	0	1771044864	42	6086
2026-01-02 01:23:23.28	319.60	25.29	-34.8	-35.7	24.3	0.00e+00	120	40	0	1783627776	42	6018
2026-01-02 01:23:27.33	320.24	24.75	-34.5	-35.3	24.6	0.00e+00	122	40	0	1796210688	42	5786
2026-01-02 01:23:31.36	320.86	24.22	-34.7	-35.6	24.2	0.00e+00	123	40	0	1808793600	42	5942
2026-01-02 01:23:35.41	321.47	23.70	-35.1	-36.0	24.1	0.00e+00	123	40	0	1821376512	42	6254
2026-01-02 01:23:39.45	322.05	23.19	-34.9	-35.8	24.3	0.00e+00	123	40	0	1833959424	42	6128
2026-01-02 01:23:43.49	322.62	22.68	-35.2	-36.1	24.0	0.00e+00	123	40	0	1846542336	42	6312
2026-01-02 01:23:47.53	323.17	22.18	-34.9	-35.8	24.2	0.00e+00	123	40	0	1859125248	42	6113
2026-01-02 01:23:51.57	323.70	21.69	-34.6	-35.5	24.4	0.00e+00	122	40	0	1871708160	42	5894
2026-01-02 01:23:55.60	324.22	21.20	-34.7	-35.6	24.4	0.00e+00	123	40	0	1884291072	42	5966
2026-01-02 01:23:59.64	324.72	20.72	-34.9	-35.8	24.2	0.00e+00	123	40	0	1896873984	42	6125
2026-01-02 01:24:03.68	325.21	20.25	-35.1	-36.0	24.1	0.00e+00	123	40	0	1909456896	42	6236
2026-01-02 01:24:07.72	325.68	19.79	-34.6	-35.5	24.3	0.00e+00	123	40	0	1923088384	42	5900
2026-01-02 01:24:11.76	326.14	19.33	-34.6	-35.5	24.1	0.00e+00	121	40	0	1935671296	42	5921
2026-01-02 01:24:15.80	326.58	18.88	-34.6	-35.5	24.2	0.00e+00	122	40	0	1948254208	42	5923
2026-01-02 01:24:19.84	327.02	18.43	-35.0	-35.9	24.0	0.00e+00	123	40	0	1960837120	42	6195
2026-01-02 01:24:23.87	327.44	18.00	-35.1	-36.0	24.0	0.00e+00	123	40	0	1973420032	42	6273
2026-01-02 01:24:27.91	327.85	17.57	-35.2	-36.2	23.8	0.00e+00	120	40	0	1986002944	42	6374
2026-01-02 01:24:31.95	328.25	17.14	-35.4	-36.4	23.5	0.00e+00	122	40	0	1998585856	42	6522
2026-01-02 01:24:35.98	328.64	16.72	-35.9	-36.9	23.0	0.00e+00	122	40	0	2011168768	44	6148
2026-01-02 01:24:40.02	329.02	16.31	-35.5	-36.5	23.2	0.00e+00	123	40	0	2023751680	44	5866
2026-01-02 01:24:44.06	329.39	15.90	-35.5	-36.5	23.2	0.00e+00	122	40	0	2036334592	44	5871
2026-01-02 01:24:48.09	329.75	15.50	-35.6	-36.5	23.3	0.00e+00	123	40	0	2048917504	44	5919
2026-01-02 01:24:52.13	330.10	15.10	-35.7	-36.6	23.3	0.00e+00	120	40	0	2061500416	44	5971
2026-01-02 01:24:56.17	330.44	14.71	-35.9	-36.9	23.2	0.00e+00	122	40	0	2074083328	44	6180
2026-01-02 01:25:00.21	330.77	14.33	-36.4	-37.4	22.8	0.00e+00	123	40	0	2086666240	44	6528
2026-01-02 01:25:04.25	331.10	13.95	-36.5	-37.4	22.8	0.00e+00	120	40	0	2099249152	44	6567
2026-01-02 01:25:08.28	331.42	13.57	-36.4	-37.4	22.6	0.00e+00	120	40	0	2111832064	44	6520
2026-01-02 01:25:12.32	331.73	13.20	-36.5	-37.5	22.5	0.00e+00	122	40	0	2124414976	44	6633
2026-01-02 01:25:16.36	332.03	12.84	-36.7	-37.7	22.2	0.00e+00	123	40	0	2136997888	46	6035
2026-01-02 01:25:20.40	332.33	12.48	-36.8	-37.9	22.2	0.00e+00	123	40	0	2149580800	46	6153
2026-01-02 01:25:24.44	332.62	12.12	-36.7	-37.7	22.3	0.00e+00	123	40	0	2162163712	46	6022
2026-01-02 01:25:28.47	332.90	11.77	-36.6	-37.6	22.5	0.00e+00	122	40	0	2174746624	46	5966
2026-01-02 01:25:32.51	333.18	11.42	-36.7	-37.7	22.4	0.00e+00	123	40	0	2187329536	46	6016
2026-01-02 01:25:36.55	333.45	11.08	-36.4	-37.4	22.7	0.00e+00	123	40	0	2199912448	46	5818
2026-01-02 01:25:40.58	333.72	10.74	-36.5	-37.4	22.6	0.00e+00	123	40	0	2212495360	46	5853
2026-01-02 01:25:44.62	333.98	10.41	-36.4	-37.4	22.4	0.00e+00	122	40	0	2225078272	46	5813
2026-01-02 01:25:48.65	334.23	10.08	-36.6	-37.6	22.5	0.00e+00	122	40	0	2237661184	46	5972
2026-01-02 01:25:52.68	334.48	9.75	-36.7	-37.8	22.2	0.00e+00	122	40	0	2250244096	46	6074
2026-01-02 01:25:56.72	334.72	9.43	-36.9	-37.9	22.1	0.00e+00	122	40	0	2262827008	46	6200
2026-01-02 01:26:00.76	334.96	9.11	-37.2	-38.3	21.7	0.00e+00	120	40	0	2275409920	46	6463
2026-01-02 01:26:04.80	335.20	8.80	-37.1	-38.2	21.8	0.00e+00	123	40	0	2287992832	46	6357
2026-01-02 01:26:08.84	335.43	8.48	-37.2	-38.3	21.5	0.00e+00	122	40	0	2300575744	46	6485
2026-01-02 01:26:12.88	335.65	8.18	-37.5	-38.6	21.3	0.00e+00	123	40	0	2313158656	46	6698
2026-01-02 01:26:16.92	335.87	7.87	-37.5	-38.6	21.4	0.00e+00	122	40	0	2326790144	46	6669
2026-01-02 01:26:20.96	336.09	7.57	-37.4	-38.5	21.4	0.00e+00	122	40	0	2339373056	46	6579
2026-01-02 01:26:25.00	336.30	7.27	-37.8	-39.0	21.0	0.00e+00	123	40	0	2351955968	48	6214
2026-01-02 01:26:29.04	336.51	6.98	-37.7	-38.8	21.0	0.00e+00	123	40	0	2364538880	48	6114
2026-01-02 01:26:33.08	336.72	6.69	-37.3	-38.4	21.4	0.00e+00	122	40	0	2377121792	48	5824
2026-01-02 01:26:37.11	336.92	6.40	-37.5	-38.7	20.9	0.00e+00	120	40	0	2389704704	48	6003
2026-01-02 01:26:41.15	337.12	6.11	-37.6	-38.7	20.8	0.00e+00	123	40	0	2402287616	48	6025
2026-01-02 01:26:45.19	337.31	5.83	-38.1	-39.3	20.0	0.00e+00	123	40	0	2414870528	48	6459
2026-01-02 01:26:49.23	337.51	5.55	-38.9	-40.3	18.9	0.00e+00	123	40	0	2427453440	50	6436
2026-01-02 01:26:53.27	337.69	5.27	-39.8	-41.4	17.4	0.00e+00	122	40	0	2440036352	52	6548
2026-01-02 01:26:57.31	337.88	4.99	-41.0	-43.1	15.3	0.00e+00	122	40	0	2452619264	54	7065
2026-01-02 01:27:01.35	338.06	4.72	-42.4	-45.1	12.8	2.82e-05	123	40	0	2465202176	56	7989
2026-01-02 01:27:05.39	338.24	4.45	-43.3	-47.5	9.2	1.40e-02	122	40	0	2477785088	58	9383
2026-01-02 01:27:09.43	338.42	4.19	-44.0	-51.7	3.9	7.04e-01	0	40	104	2489319424	60	13440
2026-01-02 01:27:13.47	338.59	3.92	-44.3	-55.0	3.7	1.50e+00	0	40	104	2489319424	60	19787
2026-01-02 01:27:17.51	338.76	3.66	-44.2	-56.6	3.5	1.52e+00	0	40	104	2489319424	60	23708
2026-01-02 01:27:21.54	338.93	3.40	-44.3	-56.7	3.5	1.52e+00	0	40	104	2489319424	60	24116
2026-01-02 01:27:25.58	339.09	3.14	-44.3	-57.1	3.5	1.52e+00	0	40	104	2489319424	60	25055
2026-01-02 01:27:29.62	339.26	2.89	-48.5	-61.3	3.5	1.52e+00	0	40	104	2489319424	60	40932
2026-01-02 01:27:33.65	339.41	2.63	-49.1	-61.7	3.5	1.52e+00	0	40	104	2489319424	60	42826
2026-01-02 01:27:37.69	339.57	2.38	-49.0	-62.0	3.5	1.52e+00	0	40	104	2489319424	60	44225
2026-01-02 01:27:41.73	339.73	2.13	-49.1	-61.9	3.5	1.52e+00	0	40	104	2489319424	60	43639
2026-01-02 01:27:45.77	339.88	1.88	-49.1	-62.0	3.5	1.52e+00	0	40	104	2489319424	60	44009
2026-01-02 01:27:49.81	340.03	1.64	-49.0	-61.9	3.5	1.52e+00	0	40	104	2489319424	60	43630
2026-01-02 01:27:53.84	340.18	1.40	-49.1	-62.0	3.5	1.52e+00	0	40	104	2489319424	60	43976
2026-01-02 01:27:57.89	340.33	1.15	-49.0	-61.9	3.5	1.52e+00	0	40	104	2489319424	60	43683
2026-01-02 01:28:01.93	340.47	0.91	-49.1	-61.9	3.5	1.51e+00	0	40	104	2489319424	60	43897
2026-01-02 01:28:05.96	340.62	0.68	-49.1	-62.0	3.5	1.52e+00	0	40	104	2489319424	60	43941
2026-01-02 01:28:10.00	340.76	0.44	-49.1	-62.0	3.5	1.52e+00	0	40	104	2489319424	60	44091
2026-01-02 01:28:14.04	340.90	0.21	-49.1	-62.0	3.5	1.52e+00	0	40	104	2489319424	60	44185
2026-01-02 01:28:18.08	341.03	-0.03	-49.1	-61.9	3.5	1.51e+00	0	40	104	2489319424	60	43828

#Closed at: 2026-01-02 01:28:19
#Recorded file [2489 MB]: D:/lorett/data/35029_260102_131301.dat