passes_logs/2026/01/02/R4.6S_Anadyr/R4.6S_Anadyr__20260102_152810_SUOMI_NPP_rec.log

#Pass ID: 20260102_152810_SUOMI NPP
#Satellite: SUOMI NPP
#Configuration: NPP
#almurnet v.1.7.20251203
#Start time: 2026-01-02 15:28:11

#Version: 2.2.20231116
#Station: R4.6S_Anadyr
#Location: 177.4865 lon 64.73178 lat
#TLE: 1 37849U 11061A   26001.07732418  .00000182  00000+0  10735-3 0  9990
#TLE: 2 37849  98.7795 303.2470 0002580  87.2016 272.9455 14.19520779734739

#Time	Az	El	Level	Level2	SNR	BER	BlckErr	Temp	State	Recorded	gain1	gain2
2026-01-02 15:28:11.85	22.21	0.09	-49.4	-62.0	3.5	1.51e+00	0	36	0	0	60	44244
2026-01-02 15:28:15.88	22.15	0.33	-49.4	-64.6	3.5	1.51e+00	0	38	104	0	60	61596
2026-01-02 15:28:19.92	22.09	0.58	-49.4	-64.6	3.6	1.51e+00	0	38	104	0	60	61124
2026-01-02 15:28:23.96	22.03	0.82	-48.8	-64.1	3.6	1.51e+00	0	38	104	0	60	57923
2026-01-02 15:28:28.00	21.97	1.07	-47.7	-62.9	3.6	1.51e+00	0	38	104	0	60	50378
2026-01-02 15:28:32.04	21.91	1.32	-47.7	-62.9	3.6	1.51e+00	0	38	104	0	60	50287
2026-01-02 15:28:36.08	21.85	1.57	-47.7	-62.7	3.6	1.51e+00	0	38	104	0	60	49212
2026-01-02 15:28:40.12	21.78	1.82	-47.7	-62.4	3.6	1.51e+00	0	38	104	0	60	47904
2026-01-02 15:28:44.15	21.71	2.08	-47.7	-62.8	3.6	1.51e+00	0	38	104	0	60	49760
2026-01-02 15:28:48.19	21.65	2.33	-47.7	-62.8	3.6	1.51e+00	0	38	104	0	60	50049
2026-01-02 15:28:52.23	21.58	2.59	-47.7	-62.3	3.6	1.51e+00	0	38	104	0	60	47281
2026-01-02 15:28:56.27	21.50	2.86	-47.7	-61.9	3.6	1.51e+00	0	39	104	0	60	44755
2026-01-02 15:29:00.31	21.43	3.12	-47.6	-61.3	3.6	1.51e+00	0	39	104	0	60	42072
2026-01-02 15:29:04.35	21.36	3.39	-46.7	-52.9	8.1	5.90e-02	0	39	0	5242880	60	16005
2026-01-02 15:29:08.39	21.28	3.66	-45.8	-50.2	11.3	1.06e-03	32	39	0	12582912	60	11733
2026-01-02 15:29:12.43	21.20	3.93	-41.3	-42.8	18.8	5.40e-01	0	39	0	17825792	56	6306
2026-01-02 15:29:16.47	21.12	4.21	-42.0	-43.8	18.1	0.00e+00	32	39	0	19922944	58	6280
2026-01-02 15:29:20.51	21.04	4.48	-41.3	-42.9	18.9	0.00e+00	46	39	0	28311552	56	6357
2026-01-02 15:29:24.54	20.96	4.76	-40.8	-42.2	19.6	0.00e+00	24	39	0	35651584	54	6599
2026-01-02 15:29:28.58	20.87	5.05	-40.7	-42.1	19.7	0.00e+00	0	39	0	42991616	54	6536
2026-01-02 15:29:32.62	20.78	5.33	-40.4	-41.7	20.1	0.00e+00	0	39	0	50331648	54	6229
2026-01-02 15:29:36.66	20.69	5.62	-40.4	-41.7	20.1	0.00e+00	50	39	0	57671680	54	6244
2026-01-02 15:29:40.69	20.60	5.92	-40.3	-41.6	20.2	0.00e+00	0	39	0	66060288	54	6132
2026-01-02 15:29:44.73	20.51	6.21	-40.2	-41.4	20.5	0.00e+00	0	39	0	73400320	54	6023
2026-01-02 15:29:48.77	20.41	6.51	-39.7	-40.9	20.9	0.00e+00	0	39	0	80740352	54	5687
2026-01-02 15:29:52.81	20.31	6.81	-39.9	-41.1	20.7	0.00e+00	92	39	0	88080384	52	6526
2026-01-02 15:29:56.85	20.21	7.12	-39.9	-41.1	20.9	0.00e+00	0	39	0	96468992	52	6468
2026-01-02 15:30:00.89	20.11	7.43	-39.7	-40.9	21.2	0.00e+00	0	39	0	103809024	52	6328
2026-01-02 15:30:04.92	20.00	7.74	-39.8	-41.0	21.1	0.00e+00	0	39	0	111149056	52	6413
2026-01-02 15:30:08.96	19.89	8.06	-39.5	-40.6	21.4	0.00e+00	75	39	0	118489088	52	6147
2026-01-02 15:30:13.00	19.78	8.38	-39.4	-40.5	21.5	0.00e+00	0	39	0	125829120	52	6083
2026-01-02 15:30:17.03	19.66	8.71	-39.1	-40.2	21.8	0.00e+00	0	39	0	134217728	52	5883
2026-01-02 15:30:21.07	19.55	9.03	-39.1	-40.1	22.0	0.00e+00	46	39	0	141557760	52	5804
2026-01-02 15:30:25.11	19.43	9.37	-38.9	-40.0	22.0	0.00e+00	0	39	0	148897792	52	5698
2026-01-02 15:30:29.15	19.30	9.71	-38.8	-39.9	22.3	0.00e+00	0	39	0	156237824	52	5642
2026-01-02 15:30:33.19	19.17	10.05	-38.7	-39.7	22.4	0.00e+00	0	39	0	164626432	50	6192
2026-01-02 15:30:37.22	19.04	10.40	-38.7	-39.7	22.3	0.00e+00	90	39	0	171966464	50	6218
2026-01-02 15:30:41.26	18.91	10.75	-38.3	-39.3	22.7	0.00e+00	0	39	0	179306496	50	5936
2026-01-02 15:30:45.29	18.77	11.10	-38.3	-39.3	22.6	0.00e+00	0	39	0	186646528	50	5906
2026-01-02 15:30:49.33	18.63	11.47	-38.3	-39.2	22.4	0.00e+00	0	39	0	193986560	50	5868
2026-01-02 15:30:53.36	18.48	11.83	-37.9	-38.9	23.1	0.00e+00	36	39	0	202375168	50	5637
2026-01-02 15:30:57.40	18.33	12.20	-37.9	-38.8	23.2	0.00e+00	0	39	0	209715200	50	5613
2026-01-02 15:31:01.44	18.18	12.58	-37.7	-38.6	23.4	0.00e+00	0	39	0	217055232	48	6156
2026-01-02 15:31:05.47	18.02	12.97	-37.6	-38.5	23.4	0.00e+00	27	38	0	224395264	48	6071
2026-01-02 15:31:09.51	17.86	13.35	-37.5	-38.4	23.6	0.00e+00	90	38	0	231735296	48	5981
2026-01-02 15:31:13.54	17.69	13.75	-37.8	-38.7	23.4	0.00e+00	0	38	0	240123904	48	6187
2026-01-02 15:31:17.58	17.52	14.15	-37.6	-38.4	23.6	0.00e+00	0	38	0	247463936	48	6032
2026-01-02 15:31:21.62	17.34	14.56	-37.8	-38.7	23.2	0.00e+00	50	39	0	254803968	48	6241
2026-01-02 15:31:25.66	17.15	14.98	-37.6	-38.5	23.6	0.00e+00	0	39	0	262144000	48	6050
2026-01-02 15:31:29.70	16.96	15.40	-37.6	-38.5	23.6	0.00e+00	0	39	0	270532608	48	6078
2026-01-02 15:31:33.74	16.77	15.83	-37.6	-38.5	23.5	0.00e+00	0	38	0	277872640	48	6087
2026-01-02 15:31:37.77	16.57	16.26	-37.3	-38.2	23.7	0.00e+00	66	39	0	285212672	48	5835
2026-01-02 15:31:41.81	16.36	16.71	-37.5	-38.4	23.8	0.00e+00	0	39	0	292552704	48	5978
2026-01-02 15:31:45.85	16.14	17.16	-37.6	-38.5	23.7	0.00e+00	0	39	0	299892736	48	6073
2026-01-02 15:31:49.89	15.92	17.62	-37.6	-38.5	23.7	0.00e+00	0	39	0	308281344	48	6066
2026-01-02 15:31:53.92	15.69	18.08	-37.7	-38.6	23.6	0.00e+00	72	39	0	315621376	48	6113
2026-01-02 15:31:57.96	15.46	18.56	-37.9	-38.8	23.5	0.00e+00	0	39	0	322961408	48	6312
2026-01-02 15:32:02.00	15.21	19.05	-37.9	-38.9	23.4	0.00e+00	0	39	0	330301440	48	6331
2026-01-02 15:32:06.04	14.96	19.54	-38.1	-39.1	23.2	0.00e+00	47	38	0	338690048	48	6484
2026-01-02 15:32:10.08	14.69	20.05	-38.3	-39.3	23.1	0.00e+00	0	39	0	346030080	48	6636
2026-01-02 15:32:14.11	14.42	20.56	-37.9	-38.8	23.4	0.00e+00	0	39	0	353370112	48	6260
2026-01-02 15:32:18.15	14.14	21.08	-37.8	-38.7	23.7	0.00e+00	0	39	0	360710144	48	6211
2026-01-02 15:32:22.18	13.85	21.61	-37.9	-38.8	23.6	0.00e+00	92	38	0	368050176	48	6261
2026-01-02 15:32:26.22	13.54	22.16	-38.2	-39.2	23.2	0.00e+00	0	39	0	376438784	48	6567
2026-01-02 15:32:30.26	13.23	22.71	-38.3	-39.2	23.3	0.00e+00	0	38	0	383778816	48	6608
2026-01-02 15:32:34.30	12.90	23.28	-38.2	-39.2	23.1	0.00e+00	0	38	0	391118848	48	6550
2026-01-02 15:32:38.34	12.56	23.86	-38.7	-39.6	22.9	0.00e+00	30	39	0	398458880	48	6924
2026-01-02 15:32:42.38	12.21	24.45	-39.2	-40.2	22.3	0.00e+00	0	38	0	406847488	50	6613
2026-01-02 15:32:46.41	11.84	25.05	-39.3	-40.4	22.2	0.00e+00	0	38	0	414187520	52	5971
2026-01-02 15:32:50.45	11.46	25.67	-39.2	-40.3	22.4	0.00e+00	51	39	0	421527552	52	5921
2026-01-02 15:32:54.48	11.06	26.29	-39.3	-40.4	22.3	0.00e+00	57	39	0	428867584	52	5981
2026-01-02 15:32:58.52	10.65	26.93	-39.3	-40.3	22.5	0.00e+00	0	38	0	436207616	52	5913
2026-01-02 15:33:02.56	10.21	27.59	-39.4	-40.4	22.2	0.00e+00	0	39	0	444596224	52	5981
2026-01-02 15:33:06.60	9.76	28.26	-39.9	-40.9	21.9	0.00e+00	54	39	0	451936256	52	6380
2026-01-02 15:33:10.64	9.29	28.94	-40.3	-41.5	21.6	0.00e+00	0	39	0	459276288	52	6782
2026-01-02 15:33:14.67	8.80	29.64	-41.4	-42.8	20.4	0.00e+00	0	39	0	466616320	54	7030
2026-01-02 15:33:18.71	8.28	30.35	-40.5	-41.7	21.3	0.00e+00	0	38	0	475004928	54	6214
2026-01-02 15:33:22.75	7.74	31.08	-40.7	-41.9	21.0	0.00e+00	74	39	0	482344960	54	6363
2026-01-02 15:33:26.79	7.17	31.83	-40.8	-42.0	21.1	0.00e+00	0	39	0	489684992	54	6449
2026-01-02 15:33:30.82	6.58	32.58	-41.3	-42.7	20.5	0.00e+00	0	39	0	497025024	54	6929
2026-01-02 15:33:34.86	5.96	33.36	-41.4	-42.7	20.5	0.00e+00	0	39	0	504365056	54	6994
2026-01-02 15:33:38.90	5.30	34.15	-42.3	-43.9	19.4	0.00e+00	88	39	0	512753664	56	7096
2026-01-02 15:33:42.94	4.61	34.96	-41.5	-42.8	20.3	0.00e+00	0	39	0	520093696	56	6288
2026-01-02 15:33:46.98	3.89	35.78	-42.6	-44.2	19.1	0.00e+00	0	39	0	527433728	56	7413
2026-01-02 15:33:51.01	3.13	36.62	-41.6	-43.0	20.2	0.00e+00	23	39	0	534773760	56	6418
2026-01-02 15:33:55.05	2.32	37.48	-42.7	-44.4	19.0	0.00e+00	31	39	0	543162368	58	6752
2026-01-02 15:33:59.09	1.47	38.35	-42.1	-43.6	19.8	0.00e+00	0	39	0	550502400	58	6159
2026-01-02 15:34:03.13	0.58	39.24	-40.7	-42.0	21.1	0.00e+00	0	39	0	557842432	54	6403
2026-01-02 15:34:07.17	359.63	40.14	-39.9	-41.0	21.9	0.00e+00	91	39	0	565182464	52	6417
2026-01-02 15:34:11.21	358.62	41.05	-40.3	-41.5	21.6	0.00e+00	0	39	0	572522496	52	6801
2026-01-02 15:34:15.24	357.56	41.98	-41.0	-42.2	20.8	0.00e+00	0	39	0	580911104	54	6605
2026-01-02 15:34:19.28	356.43	42.92	-41.7	-43.1	20.3	0.00e+00	0	39	0	588251136	56	6503
2026-01-02 15:34:23.32	355.24	43.87	-41.2	-42.5	20.8	0.00e+00	92	39	0	595591168	56	6069
2026-01-02 15:34:27.36	353.96	44.83	-40.6	-41.8	21.2	0.00e+00	0	39	0	602931200	54	6316
2026-01-02 15:34:31.39	352.62	45.79	-41.3	-42.6	20.7	0.00e+00	0	39	0	611319808	56	6134
2026-01-02 15:34:35.43	351.18	46.76	-39.7	-40.8	22.2	0.00e+00	58	39	0	618659840	52	6305
2026-01-02 15:34:39.47	349.64	47.73	-39.8	-40.9	22.1	0.00e+00	92	39	0	625999872	52	6378
2026-01-02 15:34:43.51	348.01	48.70	-41.0	-42.4	20.7	0.00e+00	0	39	0	633339904	54	6705
2026-01-02 15:34:47.54	346.28	49.66	-40.3	-41.5	21.6	0.00e+00	0	39	0	640679936	54	6047
2026-01-02 15:34:51.58	344.43	50.62	-39.6	-40.6	22.6	0.00e+00	56	39	0	649068544	52	6148
2026-01-02 15:34:55.62	342.46	51.56	-38.0	-38.9	23.3	0.00e+00	0	39	0	656408576	48	6344
2026-01-02 15:34:59.65	340.36	52.47	-37.8	-38.8	23.7	0.00e+00	0	39	0	663748608	48	6250
2026-01-02 15:35:03.69	338.13	53.37	-40.0	-41.2	21.9	0.00e+00	0	39	0	671088640	52	6576
2026-01-02 15:35:07.73	335.75	54.23	-37.7	-38.6	23.8	0.00e+00	90	39	0	679477248	48	6159
2026-01-02 15:35:11.75	333.25	55.05	-39.1	-40.1	22.5	0.00e+00	0	39	0	686817280	50	6516
2026-01-02 15:35:15.79	330.58	55.83	-38.5	-39.5	23.1	0.00e+00	0	39	0	694157312	50	6052
2026-01-02 15:35:19.83	327.77	56.55	-39.6	-40.8	22.1	0.00e+00	90	39	0	702545920	50	7016
2026-01-02 15:35:23.87	324.81	57.21	-38.7	-39.7	23.1	0.00e+00	0	39	0	709885952	48	6961
2026-01-02 15:35:27.90	321.72	57.80	-40.7	-42.0	21.1	0.00e+00	0	39	0	717225984	54	6434
2026-01-02 15:35:31.94	318.49	58.32	-39.6	-40.7	22.4	0.00e+00	0	39	0	724566016	54	5550
2026-01-02 15:35:35.98	315.14	58.75	-37.6	-38.5	23.7	0.00e+00	92	39	0	732954624	50	5390
2026-01-02 15:35:40.02	311.70	59.08	-39.3	-40.4	22.2	0.00e+00	0	39	0	740294656	50	6763
2026-01-02 15:35:44.05	308.19	59.33	-38.0	-39.0	23.6	0.00e+00	0	39	0	747634688	50	5699
2026-01-02 15:35:48.09	304.61	59.47	-37.6	-38.5	23.8	0.00e+00	23	39	0	754974720	48	6069
2026-01-02 15:35:52.13	301.01	59.51	-35.8	-36.6	25.2	0.00e+00	64	39	0	762314752	44	6147
2026-01-02 15:35:56.16	297.42	59.45	-35.7	-36.5	25.1	0.00e+00	0	39	0	770703360	44	6083
2026-01-02 15:36:00.20	293.85	59.28	-35.8	-36.6	25.2	0.00e+00	0	39	0	778043392	46	5466
2026-01-02 15:36:04.24	290.34	59.02	-36.8	-37.7	24.4	0.00e+00	49	39	0	785383424	46	6203
2026-01-02 15:36:08.27	286.93	58.66	-35.5	-36.3	25.4	0.00e+00	0	39	0	792723456	44	5934
2026-01-02 15:36:12.31	283.60	58.21	-38.6	-39.6	23.1	0.00e+00	0	39	0	801112064	48	6892
2026-01-02 15:36:16.35	280.40	57.67	-38.4	-39.3	23.3	0.00e+00	0	39	0	808452096	50	5918
2026-01-02 15:36:20.39	277.33	57.06	-38.5	-39.5	23.2	0.00e+00	54	39	0	815792128	50	6040
2026-01-02 15:36:24.42	274.41	56.39	-39.4	-40.5	22.5	0.00e+00	0	39	0	823132160	50	6793
2026-01-02 15:36:28.45	271.63	55.65	-36.4	-37.2	24.9	0.00e+00	0	39	0	830472192	46	5833
2026-01-02 15:36:32.49	269.00	54.86	-35.9	-36.6	25.3	0.00e+00	0	39	0	838860800	44	6144
2026-01-02 15:36:36.53	266.51	54.03	-38.3	-39.2	23.3	0.00e+00	71	39	0	846200832	48	6580
2026-01-02 15:36:40.56	264.17	53.16	-38.6	-39.6	23.1	0.00e+00	0	39	0	853540864	48	6890
2026-01-02 15:36:44.60	261.96	52.26	-39.6	-40.6	21.8	0.00e+00	0	39	0	860880896	50	6920
2026-01-02 15:36:48.64	259.89	51.33	-39.2	-40.2	22.7	0.00e+00	14	39	0	868220928	52	5830
2026-01-02 15:36:52.68	257.94	50.38	-39.9	-40.9	22.2	0.00e+00	0	39	0	876609536	52	6352
2026-01-02 15:36:56.72	256.12	49.42	-38.9	-39.8	23.0	0.00e+00	0	39	0	883949568	50	6314
2026-01-02 15:37:00.76	254.40	48.46	-40.6	-41.8	21.3	0.00e+00	0	39	0	891289600	54	6286
2026-01-02 15:37:04.79	252.79	47.49	-41.0	-42.2	20.6	0.00e+00	51	39	0	898629632	54	6596
2026-01-02 15:37:08.83	251.28	46.51	-43.4	-45.1	18.6	0.00e+00	0	39	0	907018240	60	6527
2026-01-02 15:37:12.87	249.86	45.54	-40.8	-41.9	21.2	0.00e+00	0	39	0	914358272	54	6381
2026-01-02 15:37:16.91	248.53	44.57	-39.0	-40.0	22.9	0.00e+00	0	39	0	921698304	52	5707
2026-01-02 15:37:20.95	247.27	43.61	-40.2	-41.3	21.8	0.00e+00	70	39	0	929038336	52	6617
2026-01-02 15:37:24.99	246.09	42.66	-42.2	-43.6	19.6	0.00e+00	0	39	0	936378368	56	6911
2026-01-02 15:37:29.02	244.97	41.72	-41.6	-42.9	20.4	0.00e+00	0	39	0	944766976	56	6384
2026-01-02 15:37:33.06	243.92	40.80	-40.7	-41.8	21.4	0.00e+00	56	39	0	952107008	54	6295
2026-01-02 15:37:37.10	242.93	39.88	-42.1	-43.6	19.8	0.00e+00	92	39	0	959447040	56	6891
2026-01-02 15:37:41.14	241.99	38.98	-43.0	-44.7	18.8	0.00e+00	0	39	0	966787072	58	6970
2026-01-02 15:37:45.17	241.10	38.10	-42.3	-43.7	19.6	0.00e+00	0	39	0	975175680	56	6987
2026-01-02 15:37:49.21	240.26	37.22	-41.6	-43.0	20.0	0.00e+00	46	39	0	982515712	56	6397
2026-01-02 15:37:53.25	239.47	36.37	-40.2	-41.3	22.0	0.00e+00	0	39	0	989855744	54	5911
2026-01-02 15:37:57.29	238.71	35.53	-41.6	-42.9	20.4	0.00e+00	0	39	0	997195776	54	7103
2026-01-02 15:38:01.32	237.99	34.71	-40.8	-42.0	21.1	0.00e+00	0	39	0	1004535808	54	6427
2026-01-02 15:38:05.36	237.31	33.90	-40.1	-41.2	21.9	0.00e+00	84	39	0	1012924416	54	5890
2026-01-02 15:38:09.40	236.66	33.11	-41.3	-42.6	20.5	0.00e+00	0	39	0	1020264448	54	6891
2026-01-02 15:38:13.44	236.04	32.34	-40.1	-41.1	22.0	0.00e+00	0	39	0	1027604480	54	5827
2026-01-02 15:38:17.48	235.46	31.58	-42.3	-43.9	19.4	0.00e+00	0	39	0	1034944512	56	7099
2026-01-02 15:38:21.51	234.89	30.84	-39.5	-40.5	22.3	0.00e+00	91	39	0	1043333120	52	6089
2026-01-02 15:38:25.55	234.36	30.11	-39.5	-40.5	22.5	0.00e+00	0	39	0	1050673152	52	6081
2026-01-02 15:38:29.58	233.85	29.40	-38.8	-39.7	22.8	0.00e+00	0	39	0	1058013184	50	6230
2026-01-02 15:38:33.62	233.36	28.70	-40.7	-41.9	21.1	0.00e+00	50	39	0	1065353216	54	6378
2026-01-02 15:38:37.66	232.89	28.02	-40.1	-41.2	21.8	0.00e+00	0	39	0	1072693248	54	5876
2026-01-02 15:38:41.70	232.44	27.35	-40.3	-41.5	21.5	0.00e+00	0	39	0	1081081856	54	6049
2026-01-02 15:38:45.73	232.01	26.70	-39.2	-40.1	22.5	0.00e+00	0	39	0	1088421888	52	5811
2026-01-02 15:38:49.77	231.59	26.06	-39.9	-41.0	21.9	0.00e+00	92	39	0	1095761920	52	6450
2026-01-02 15:38:53.81	231.20	25.43	-41.1	-42.3	20.7	0.00e+00	0	39	0	1103101952	54	6691
2026-01-02 15:38:57.85	230.82	24.82	-41.0	-42.3	20.9	0.00e+00	0	39	0	1110441984	54	6641
2026-01-02 15:39:01.89	230.45	24.22	-41.1	-42.3	20.7	0.00e+00	0	39	0	1118830592	54	6669
2026-01-02 15:39:05.92	230.10	23.63	-40.1	-41.1	21.8	0.00e+00	78	39	0	1126170624	54	5820
2026-01-02 15:39:09.96	229.76	23.05	-40.0	-41.0	22.0	0.00e+00	0	39	0	1133510656	52	6436
2026-01-02 15:39:14.00	229.43	22.49	-40.0	-41.0	21.9	0.00e+00	0	39	0	1140850688	52	6429
2026-01-02 15:39:18.04	229.12	21.93	-39.3	-40.3	22.4	0.00e+00	0	39	0	1149239296	52	5897
2026-01-02 15:39:22.08	228.82	21.39	-39.1	-40.1	22.6	0.00e+00	91	39	0	1156579328	52	5780
2026-01-02 15:39:26.11	228.53	20.86	-40.0	-41.1	21.7	0.00e+00	33	39	0	1163919360	52	6516
2026-01-02 15:39:30.15	228.24	20.34	-41.3	-42.6	20.6	0.00e+00	0	39	0	1171259392	54	6886
2026-01-02 15:39:34.19	227.97	19.82	-41.5	-42.8	20.3	0.00e+00	74	39	0	1178599424	56	6283
2026-01-02 15:39:38.23	227.71	19.32	-40.8	-42.0	20.9	0.00e+00	0	39	0	1186988032	54	6462
2026-01-02 15:39:42.27	227.45	18.83	-39.8	-40.8	22.0	0.00e+00	0	39	0	1194328064	54	5598
2026-01-02 15:39:46.30	227.21	18.34	-39.0	-39.9	22.7	0.00e+00	0	39	0	1201668096	52	5674
2026-01-02 15:39:50.34	226.97	17.87	-38.8	-39.8	22.7	0.00e+00	92	39	0	1209008128	50	6277
2026-01-02 15:39:54.38	226.74	17.40	-39.3	-40.3	22.2	0.00e+00	0	39	0	1217396736	50	6680
2026-01-02 15:39:58.42	226.52	16.94	-39.7	-40.7	22.0	0.00e+00	0	39	0	1224736768	50	6957
2026-01-02 15:40:02.45	226.30	16.49	-39.8	-40.8	21.9	0.00e+00	0	39	0	1232076800	52	6284
2026-01-02 15:40:06.49	226.09	16.05	-39.8	-40.9	21.8	0.00e+00	57	39	0	1239416832	52	6333
2026-01-02 15:40:10.53	225.89	15.61	-39.8	-40.9	21.8	0.00e+00	0	39	0	1246756864	52	6329
2026-01-02 15:40:14.57	225.69	15.19	-39.9	-40.9	21.7	0.00e+00	0	39	0	1255145472	52	6385
2026-01-02 15:40:18.60	225.50	14.77	-40.7	-41.9	21.0	0.00e+00	38	39	0	1262485504	52	7119
2026-01-02 15:40:22.64	225.32	14.35	-41.3	-42.6	20.2	0.00e+00	0	39	0	1269825536	54	6916
2026-01-02 15:40:26.68	225.14	13.94	-41.3	-42.6	20.4	0.00e+00	0	39	0	1277165568	56	6160
2026-01-02 15:40:30.72	224.96	13.54	-41.2	-42.5	20.3	0.00e+00	0	39	0	1285554176	56	6062
2026-01-02 15:40:34.75	224.80	13.15	-40.3	-41.5	21.3	0.00e+00	92	39	0	1292894208	54	6034
2026-01-02 15:40:38.79	224.63	12.76	-39.8	-40.8	21.7	0.00e+00	0	39	0	1300234240	52	6285
2026-01-02 15:40:42.83	224.47	12.38	-39.6	-40.7	22.0	0.00e+00	0	39	0	1307574272	52	6184
2026-01-02 15:40:46.86	224.31	12.00	-39.6	-40.6	21.9	0.00e+00	0	39	0	1314914304	52	6165
2026-01-02 15:40:50.90	224.16	11.63	-39.9	-41.0	21.6	0.00e+00	92	39	0	1323302912	52	6441
2026-01-02 15:40:54.94	224.02	11.26	-40.2	-41.4	21.3	0.00e+00	0	39	0	1330642944	52	6702
2026-01-02 15:40:58.97	223.87	10.90	-40.5	-41.7	21.0	0.00e+00	0	39	0	1337982976	52	6994
2026-01-02 15:41:03.01	223.73	10.54	-40.7	-42.0	20.7	0.00e+00	29	39	0	1345323008	54	6407
2026-01-02 15:41:07.05	223.60	10.19	-40.8	-42.1	20.5	0.00e+00	71	39	0	1353711616	54	6476
2026-01-02 15:41:11.09	223.46	9.84	-41.0	-42.3	20.4	0.00e+00	0	39	0	1361051648	54	6669
2026-01-02 15:41:15.12	223.33	9.50	-41.0	-42.3	20.2	0.00e+00	0	39	0	1368391680	54	6637
2026-01-02 15:41:19.16	223.21	9.17	-41.4	-42.7	19.9	0.00e+00	43	39	0	1375731712	54	6996
2026-01-02 15:41:23.19	223.08	8.83	-41.7	-43.1	19.4	0.00e+00	0	39	0	1383071744	54	7324
2026-01-02 15:41:27.23	222.96	8.50	-42.0	-43.6	19.1	0.00e+00	0	39	0	1391460352	56	6855
2026-01-02 15:41:31.27	222.85	8.18	-42.6	-44.4	18.4	0.00e+00	0	39	0	1398800384	56	7515
2026-01-02 15:41:35.31	222.73	7.86	-42.5	-44.3	18.3	0.00e+00	92	39	0	1406140416	58	6627
2026-01-02 15:41:39.34	222.62	7.54	-43.0	-44.9	17.7	0.00e+00	0	39	0	1413480448	58	7125
2026-01-02 15:41:43.38	222.51	7.23	-43.1	-45.0	17.6	0.00e+00	0	39	0	1421869056	58	7208
2026-01-02 15:41:47.42	222.41	6.92	-43.2	-45.2	17.3	0.00e+00	0	39	0	1429209088	58	7392
2026-01-02 15:41:51.46	222.30	6.61	-43.2	-45.2	17.3	0.00e+00	75	39	0	1436549120	58	7357
2026-01-02 15:41:55.50	222.20	6.31	-43.5	-45.6	16.7	0.00e+00	0	39	0	1443889152	58	7763
2026-01-02 15:41:59.53	222.10	6.01	-43.4	-45.5	17.0	0.00e+00	0	39	0	1451229184	58	7613
2026-01-02 15:42:03.56	222.01	5.72	-43.5	-45.7	16.6	0.00e+00	58	39	0	1459617792	58	7861
2026-01-02 15:42:07.59	221.91	5.43	-43.5	-45.6	16.6	0.00e+00	91	39	0	1466957824	58	7755
2026-01-02 15:42:11.63	221.82	5.14	-43.8	-46.1	16.0	0.00e+00	0	39	0	1474297856	60	7330
2026-01-02 15:42:15.67	221.73	4.85	-43.6	-45.9	16.3	0.00e+00	0	39	0	1481637888	60	7143
2026-01-02 15:42:19.70	221.64	4.57	-43.6	-46.0	16.1	0.00e+00	40	39	0	1488977920	60	7198
2026-01-02 15:42:23.74	221.55	4.29	-43.6	-46.0	16.0	0.00e+00	0	39	0	1497366528	60	7247
2026-01-02 15:42:27.78	221.47	4.01	-43.9	-46.5	15.5	0.00e+00	0	39	0	1504706560	60	7651
2026-01-02 15:42:31.82	221.38	3.74	-43.8	-46.4	15.5	0.00e+00	0	39	0	1512046592	60	7514
2026-01-02 15:42:35.85	221.30	3.46	-43.6	-46.1	15.7	0.00e+00	92	39	0	1519386624	60	7315
2026-01-02 15:42:39.89	221.22	3.19	-43.7	-46.2	15.6	0.00e+00	0	39	0	1527775232	60	7381
2026-01-02 15:42:43.93	221.15	2.93	-48.8	-63.9	3.6	1.51e+00	0	39	104	1531969536	60	56882
2026-01-02 15:42:47.97	221.07	2.66	-49.4	-64.6	3.6	1.51e+00	0	39	104	1531969536	60	61733
2026-01-02 15:42:52.00	221.00	2.40	-49.5	-64.7	3.6	1.51e+00	0	39	104	1531969536	60	61888
2026-01-02 15:42:56.04	220.92	2.14	-49.4	-64.6	3.6	1.51e+00	0	39	104	1531969536	60	61280
2026-01-02 15:43:00.08	220.85	1.88	-49.4	-64.6	3.6	1.51e+00	0	39	104	1531969536	60	61480
2026-01-02 15:43:04.12	220.78	1.63	-49.4	-64.6	3.6	1.51e+00	0	39	104	1531969536	60	61540
2026-01-02 15:43:08.16	220.71	1.38	-49.4	-64.6	3.6	1.51e+00	0	39	104	1531969536	60	61353
2026-01-02 15:43:12.20	220.64	1.12	-49.4	-64.6	3.6	1.51e+00	0	39	104	1531969536	60	61113
2026-01-02 15:43:16.24	220.58	0.88	-49.4	-64.6	3.6	1.51e+00	0	39	104	1531969536	60	61321
2026-01-02 15:43:20.28	220.51	0.63	-49.4	-64.6	3.6	1.51e+00	0	39	104	1531969536	60	61414
2026-01-02 15:43:24.32	220.45	0.38	-49.4	-64.6	3.6	1.51e+00	0	39	104	1531969536	60	61040
2026-01-02 15:43:28.36	220.39	0.14	-49.4	-64.5	3.6	1.51e+00	0	39	104	1531969536	60	61009

#Closed at: 2026-01-02 15:43:31
#Recorded file [1531 MB]: D:/lorett/data/35029_260103_032811.dat