passes_logs/2026/01/02/R4.6S_Anadyr/R4.6S_Anadyr__20260102_222000_TY-42_rec.log

#Pass ID: 20260102_222000_TY-42
#Satellite: TY-42
#Configuration: TY-42_900M
#almurnet v.1.7.20251203
#Start time: 2026-01-02 22:20:30

#Version: 2.2.20231116
#Station: R4.6S_Anadyr
#Location: 177.4865 lon 64.73178 lat
#TLE: 1 64048U 25103A   26002.21768519  .00008010  00000-0  38191-3 0 09996
#TLE: 2 64048 097.4116 077.8767 0001783 096.3425 062.0388 15.19169548 34870

#Time	Az	El	Level	Level2	SNR	BER	BlckErr	Temp	State	Recorded	gain1	gain2
2026-01-02 22:20:30.43	22.40	1.85	-49.8	-64.8	3.5	1.51e+00	0	37	0	0	60	62623
2026-01-02 22:20:33.45	22.62	2.04	-48.5	-50.9	6.1	0.00e+00	0	38	104	0	60	43189
2026-01-02 22:20:36.49	22.84	2.23	-48.5	-51.0	6.1	0.00e+00	0	38	104	0	60	43559
2026-01-02 22:20:39.52	23.06	2.43	-48.5	-51.0	6.1	0.00e+00	0	38	104	0	60	43453
2026-01-02 22:20:42.55	23.29	2.63	-48.5	-51.0	6.1	0.00e+00	0	38	104	0	60	43388
2026-01-02 22:20:45.58	23.53	2.82	-48.5	-51.0	6.1	0.00e+00	0	39	104	0	60	43446
2026-01-02 22:20:48.61	23.76	3.02	-48.4	-50.9	6.1	0.00e+00	0	39	104	0	60	42806
2026-01-02 22:20:51.64	24.00	3.23	-48.3	-50.7	6.1	0.00e+00	0	39	104	0	60	42016
2026-01-02 22:20:54.67	24.24	3.43	-48.4	-50.9	6.1	0.00e+00	0	39	104	0	60	43070
2026-01-02 22:20:57.70	24.49	3.63	-34.0	-34.3	13.2	3.78e-02	0	39	0	159383552	42	17988
2026-01-02 22:21:00.72	24.74	3.84	-41.8	-42.3	6.6	1.02e-01	117	39	104	494927872	46	35623
2026-01-02 22:21:03.75	25.00	4.05	-36.4	-36.8	10.8	0.00e+00	534	39	104	494927872	52	13367
2026-01-02 22:21:06.79	25.26	4.26	-34.8	-35.1	12.5	7.69e-02	0	39	0	696254464	44	17558
2026-01-02 22:21:09.82	25.53	4.47	-33.2	-33.6	13.9	1.11e-01	0	39	0	1040187392	42	16518
2026-01-02 22:21:12.85	25.80	4.69	-30.5	-30.9	15.1	2.75e-02	0	39	0	1384120320	36	17016
2026-01-02 22:21:15.88	26.07	4.90	-31.0	-31.4	15.2	3.86e-03	0	39	0	1719664640	36	18075
2026-01-02 22:21:18.91	26.35	5.12	-30.5	-30.9	15.1	3.36e-03	0	40	0	2063597568	36	17120
2026-01-02 22:21:21.94	26.63	5.34	-29.3	-29.7	15.7	3.72e-03	0	40	0	2399141888	34	16721
2026-01-02 22:21:24.97	26.92	5.56	-28.9	-29.3	15.9	1.72e-03	0	40	0	2743074816	34	16011
2026-01-02 22:21:28.00	27.22	5.78	-28.9	-29.3	15.9	7.03e-04	0	40	0	3087007744	32	17934
2026-01-02 22:21:31.02	27.52	6.01	-28.9	-29.3	15.9	6.87e-04	0	40	0	3422552064	32	17963
2026-01-02 22:21:34.05	27.83	6.23	-28.8	-29.3	16.0	5.50e-04	0	40	0	3766484992	32	17816
2026-01-02 22:21:37.08	28.14	6.46	-28.7	-29.1	16.1	3.05e-04	0	40	0	4102029312	32	17564
2026-01-02 22:21:40.10	28.45	6.69	-28.7	-29.1	16.1	3.27e-04	0	40	0	4445962240	32	17547
2026-01-02 22:21:43.13	28.78	6.93	-28.6	-29.0	16.1	2.12e-04	0	40	0	4789895168	32	17225
2026-01-02 22:21:46.16	29.11	7.16	-28.7	-29.1	16.1	4.09e-04	0	40	0	5125439488	32	17559
2026-01-02 22:21:49.19	29.45	7.40	-28.3	-28.6	16.2	2.02e-04	0	40	0	5469372416	32	16612
2026-01-02 22:21:52.22	29.79	7.64	-28.2	-28.6	16.3	2.40e-04	0	40	0	5813305344	32	16521
2026-01-02 22:21:55.25	30.14	7.88	-28.1	-28.5	16.3	1.03e-04	0	40	0	6148849664	32	16391
2026-01-02 22:21:58.28	30.50	8.13	-28.1	-28.5	16.3	1.42e-04	0	40	0	6492782592	32	16295
2026-01-02 22:22:01.31	30.86	8.38	-28.1	-28.5	16.2	1.25e-04	0	40	0	6836715520	32	16411
2026-01-02 22:22:04.33	31.23	8.63	-28.0	-28.4	16.4	1.14e-04	0	40	0	7172259840	32	16209
2026-01-02 22:22:07.37	31.61	8.88	-28.0	-28.4	16.3	1.14e-04	0	40	0	7516192768	30	18214
2026-01-02 22:22:10.40	32.00	9.13	-27.7	-28.1	16.5	7.08e-05	0	40	0	7851737088	30	17540
2026-01-02 22:22:13.42	32.40	9.39	-27.4	-27.8	16.5	4.35e-05	0	40	0	8195670016	30	16930
2026-01-02 22:22:16.45	32.80	9.65	-27.3	-27.8	16.3	5.44e-05	0	41	0	8539602944	30	16852
2026-01-02 22:22:19.48	33.21	9.91	-27.0	-27.4	16.4	5.99e-05	0	41	0	8875147264	30	16169
2026-01-02 22:22:22.51	33.63	10.18	-27.0	-27.5	16.5	3.26e-05	0	41	0	9219080192	30	16313
2026-01-02 22:22:25.53	34.06	10.44	-27.1	-27.5	16.6	2.72e-05	0	41	0	9554624512	30	16331
2026-01-02 22:22:28.56	34.50	10.71	-27.0	-27.4	16.7	1.08e-05	0	41	0	9898557440	30	16171
2026-01-02 22:22:31.59	34.95	10.99	-26.9	-27.3	16.6	1.63e-05	0	41	0	10234101760	30	16004
2026-01-02 22:22:34.62	35.41	11.26	-26.9	-27.3	16.7	5.40e-06	0	41	0	10578034688	30	16035
2026-01-02 22:22:37.65	35.88	11.54	-26.9	-27.4	16.7	0.00e+00	0	41	0	10921967616	28	18019
2026-01-02 22:22:40.68	36.37	11.82	-26.6	-27.1	16.7	1.08e-05	0	41	0	11257511936	28	17492
2026-01-02 22:22:43.70	36.86	12.10	-26.7	-27.1	16.6	5.40e-06	0	41	0	11601444864	28	17572
2026-01-02 22:22:46.73	37.36	12.39	-26.3	-26.8	16.3	3.81e-05	0	41	0	11936989184	28	16826
2026-01-02 22:22:49.76	37.87	12.68	-26.2	-26.6	16.5	3.81e-05	0	41	0	12280922112	28	16510
2026-01-02 22:22:52.79	38.40	12.97	-25.9	-26.4	16.8	1.08e-05	0	41	0	12624855040	28	16098
2026-01-02 22:22:55.82	38.94	13.27	-25.8	-26.3	16.9	0.00e+00	0	41	0	12968787968	26	17825
2026-01-02 22:22:58.85	39.49	13.56	-25.8	-26.3	17.0	0.00e+00	0	41	0	13304332288	26	17831
2026-01-02 22:23:01.87	40.06	13.86	-25.4	-25.8	16.9	0.00e+00	0	41	0	13648265216	26	16943
2026-01-02 22:23:04.90	40.63	14.16	-25.4	-25.9	17.0	0.00e+00	0	41	0	13992198144	26	17030
2026-01-02 22:23:07.93	41.23	14.47	-25.2	-25.7	17.1	0.00e+00	0	41	0	14327742464	26	16635
2026-01-02 22:23:10.96	41.83	14.78	-25.2	-25.7	17.1	0.00e+00	0	41	0	14671675392	26	16648
2026-01-02 22:23:13.98	42.45	15.08	-25.0	-25.5	16.8	0.00e+00	0	41	0	15007219712	26	16273
2026-01-02 22:23:17.01	43.09	15.40	-25.0	-25.5	17.0	0.00e+00	0	41	0	15351152640	26	16321
2026-01-02 22:23:20.03	43.74	15.71	-24.7	-25.2	17.2	0.00e+00	0	41	0	15686696960	24	17710
2026-01-02 22:23:23.06	44.41	16.03	-24.6	-25.1	17.2	0.00e+00	0	41	0	16030629888	24	17434
2026-01-02 22:23:26.09	45.09	16.34	-24.5	-24.9	17.2	0.00e+00	0	41	0	16366174208	24	17167
2026-01-02 22:23:29.12	45.79	16.66	-24.3	-24.8	17.2	0.00e+00	0	41	0	16710107136	24	16815
2026-01-02 22:23:32.15	46.51	16.99	-24.0	-24.5	17.3	0.00e+00	0	41	0	17054040064	24	16319
2026-01-02 22:23:35.18	47.25	17.31	-24.0	-24.5	17.3	0.00e+00	0	41	0	17389584384	24	16348
2026-01-02 22:23:38.20	48.00	17.63	-23.9	-24.4	17.3	0.00e+00	0	41	0	17733517312	22	18061
2026-01-02 22:23:41.23	48.77	17.96	-23.8	-24.2	17.4	0.00e+00	0	41	0	18069061632	22	17780
2026-01-02 22:23:44.26	49.56	18.28	-23.6	-24.0	17.4	0.00e+00	0	41	0	18412994560	22	17393
2026-01-02 22:23:47.28	50.37	18.61	-23.5	-24.0	17.3	0.00e+00	0	41	0	18756927488	22	17322
2026-01-02 22:23:50.31	51.20	18.94	-23.3	-23.8	17.3	0.00e+00	0	41	0	19092471808	22	16853
2026-01-02 22:23:53.34	52.06	19.27	-23.3	-23.8	17.4	0.00e+00	0	41	0	19436404736	22	16965
2026-01-02 22:23:56.37	52.93	19.59	-23.3	-23.8	17.4	0.00e+00	0	41	0	19780337664	22	16894
2026-01-02 22:23:59.40	53.82	19.92	-23.1	-23.6	17.4	0.00e+00	0	41	0	20115881984	22	16463
2026-01-02 22:24:02.43	54.74	20.25	-23.0	-23.5	17.4	0.00e+00	0	41	0	20459814912	22	16278
2026-01-02 22:24:05.46	55.68	20.57	-22.8	-23.3	17.1	0.00e+00	0	42	0	20803747840	22	15991
2026-01-02 22:24:08.48	56.64	20.89	-22.8	-23.3	17.5	0.00e+00	0	42	0	21139292160	22	15891
2026-01-02 22:24:11.51	57.62	21.21	-22.8	-23.3	17.4	0.00e+00	0	42	0	21483225088	20	17874
2026-01-02 22:24:14.54	58.63	21.53	-22.6	-23.1	17.2	0.00e+00	0	42	0	21818769408	20	17437
2026-01-02 22:24:17.57	59.66	21.84	-22.4	-22.9	17.2	0.00e+00	0	42	0	22162702336	20	17026
2026-01-02 22:24:20.60	60.71	22.15	-22.5	-23.0	17.3	0.00e+00	0	41	0	22506635264	20	17266
2026-01-02 22:24:23.63	61.78	22.46	-22.2	-22.7	17.5	0.00e+00	0	42	0	22842179584	20	16671
2026-01-02 22:24:26.65	62.88	22.76	-22.0	-22.5	17.4	0.00e+00	0	42	0	23186112512	20	16327
2026-01-02 22:24:29.68	64.00	23.05	-22.2	-22.7	17.4	0.00e+00	0	41	0	23521656832	20	16751
2026-01-02 22:24:32.70	65.15	23.34	-22.0	-22.5	17.3	0.00e+00	0	42	0	23865589760	20	16259
2026-01-02 22:24:35.73	66.32	23.62	-21.9	-22.4	17.5	0.00e+00	0	42	0	24201134080	20	16170
2026-01-02 22:24:38.76	67.51	23.90	-21.7	-22.2	17.5	0.00e+00	0	42	0	24545067008	18	17766
2026-01-02 22:24:41.79	68.73	24.16	-21.6	-22.1	17.5	0.00e+00	0	42	0	24880611328	18	17487
2026-01-02 22:24:44.82	69.97	24.42	-21.4	-21.9	17.5	0.00e+00	0	42	0	25224544256	18	17016
2026-01-02 22:24:47.85	71.23	24.66	-21.6	-22.0	17.5	0.00e+00	0	42	0	25568477184	18	17365
2026-01-02 22:24:50.88	72.51	24.90	-21.1	-21.6	17.6	0.00e+00	0	42	0	25904021504	18	16564
2026-01-02 22:24:53.90	73.81	25.12	-49.6	-52.2	6.1	0.00e+00	0	42	104	26189234176	60	49892
2026-01-02 22:24:56.93	75.13	25.33	-48.3	-51.0	6.2	0.00e+00	0	42	104	26189234176	60	43693
2026-01-02 22:24:59.96	76.47	25.53	-48.8	-51.5	6.1	0.00e+00	0	42	104	26189234176	60	45856
2026-01-02 22:25:02.99	77.83	25.71	-50.2	-52.7	6.1	0.00e+00	0	41	104	26189234176	60	52862
2026-01-02 22:25:06.02	79.21	25.88	-50.1	-52.6	6.1	0.00e+00	0	42	104	26189234176	60	52143
2026-01-02 22:25:09.05	80.60	26.04	-50.0	-52.5	6.1	0.00e+00	0	41	104	26189234176	60	51491
2026-01-02 22:25:12.07	82.00	26.18	-50.0	-52.5	6.1	0.00e+00	0	42	104	26189234176	60	51678
2026-01-02 22:25:15.10	83.42	26.30	-49.5	-52.1	6.1	0.00e+00	0	42	104	26189234176	60	49232
2026-01-02 22:25:18.13	84.85	26.40	-50.0	-52.5	6.1	0.00e+00	0	41	104	26189234176	60	51929
2026-01-02 22:25:21.17	86.29	26.49	-50.1	-52.6	6.1	0.00e+00	0	42	104	26189234176	60	52168
2026-01-02 22:25:24.20	87.74	26.56	-50.1	-52.6	6.1	0.00e+00	0	41	104	26189234176	60	52173
2026-01-02 22:25:27.22	89.19	26.62	-50.2	-52.7	6.1	0.00e+00	0	42	104	26189234176	60	52695
2026-01-02 22:25:30.25	90.65	26.65	-50.2	-52.6	6.1	0.00e+00	0	41	104	26189234176	60	52441
2026-01-02 22:25:33.28	92.11	26.67	-50.1	-52.6	6.1	0.00e+00	0	41	104	26189234176	60	52314
2026-01-02 22:25:36.31	93.57	26.67	-50.0	-52.5	6.1	0.00e+00	0	41	104	26189234176	60	51416
2026-01-02 22:25:39.34	95.04	26.65	-49.7	-52.2	6.1	0.00e+00	0	41	104	26189234176	60	50176
2026-01-02 22:25:42.36	96.49	26.61	-49.3	-51.9	6.1	0.00e+00	0	41	104	26189234176	60	48389
2026-01-02 22:25:45.39	97.95	26.56	-49.0	-51.6	6.1	0.00e+00	0	41	104	26189234176	60	46683
2026-01-02 22:25:48.42	99.39	26.48	-49.8	-52.3	6.1	0.00e+00	0	41	104	26189234176	60	50667
2026-01-02 22:25:51.45	100.84	26.39	-49.9	-52.4	6.1	0.00e+00	0	41	104	26189234176	60	51244
2026-01-02 22:25:54.47	102.26	26.28	-50.2	-52.6	6.1	0.00e+00	0	41	104	26189234176	60	52505
2026-01-02 22:25:57.50	103.68	26.16	-50.1	-52.6	6.1	0.00e+00	0	41	104	26189234176	60	52410
2026-01-02 22:26:00.53	105.09	26.02	-50.0	-52.5	6.1	0.00e+00	0	41	104	26189234176	60	51589
2026-01-02 22:26:03.56	106.48	25.86	-50.0	-52.5	6.1	0.00e+00	0	41	104	26189234176	60	51515
2026-01-02 22:26:06.59	107.86	25.69	-50.2	-52.6	6.1	0.00e+00	0	41	104	26189234176	60	52316
2026-01-02 22:26:09.62	109.22	25.50	-49.9	-52.4	6.1	0.00e+00	0	41	104	26189234176	60	51140
2026-01-02 22:26:12.64	110.56	25.30	-50.1	-52.6	6.1	0.00e+00	0	41	104	26189234176	60	52195
2026-01-02 22:26:15.67	111.88	25.09	-50.1	-52.6	6.1	0.00e+00	0	41	104	26189234176	60	52307
2026-01-02 22:26:18.70	113.19	24.86	-50.1	-52.5	6.1	0.00e+00	0	41	104	26189234176	60	51920
2026-01-02 22:26:21.72	114.47	24.63	-50.0	-52.5	6.1	0.00e+00	0	41	104	26189234176	60	51464
2026-01-02 22:26:24.75	115.73	24.38	-50.1	-52.5	6.1	0.00e+00	0	41	104	26189234176	60	51776
2026-01-02 22:26:27.78	116.97	24.12	-50.0	-52.6	6.1	0.00e+00	0	41	104	26189234176	60	51963
2026-01-02 22:26:30.81	118.19	23.86	-50.1	-52.6	6.1	0.00e+00	0	41	104	26189234176	60	51980
2026-01-02 22:26:33.84	119.38	23.58	-50.1	-52.6	6.1	0.00e+00	0	41	104	26189234176	60	52025
2026-01-02 22:26:36.87	120.55	23.30	-50.0	-52.5	6.1	0.00e+00	0	41	104	26189234176	60	51752
2026-01-02 22:26:39.90	121.70	23.00	-50.1	-52.5	6.1	0.00e+00	0	41	104	26189234176	60	51782
2026-01-02 22:26:42.93	122.83	22.71	-50.1	-52.6	6.1	0.00e+00	0	41	104	26189234176	60	52024
2026-01-02 22:26:45.95	123.93	22.41	-50.0	-52.5	6.1	0.00e+00	0	41	104	26189234176	60	51849
2026-01-02 22:26:48.98	125.00	22.10	-50.0	-52.5	6.1	0.00e+00	0	41	104	26189234176	60	51556
2026-01-02 22:26:52.01	126.06	21.78	-49.9	-52.5	6.1	0.00e+00	0	41	104	26189234176	60	51508
2026-01-02 22:26:55.04	127.09	21.47	-50.1	-52.5	6.1	0.00e+00	0	41	104	26189234176	60	51796
2026-01-02 22:26:58.07	128.10	21.15	-50.0	-52.5	6.1	0.00e+00	0	41	104	26189234176	60	51903
2026-01-02 22:27:01.10	129.08	20.82	-49.9	-52.4	6.1	0.00e+00	0	41	104	26189234176	60	51039
2026-01-02 22:27:04.12	130.04	20.50	-50.1	-52.5	6.1	0.00e+00	0	41	104	26189234176	60	51826
2026-01-02 22:27:07.15	130.98	20.17	-50.0	-52.4	6.1	0.00e+00	0	41	104	26189234176	60	51314
2026-01-02 22:27:10.17	131.89	19.85	-50.0	-52.5	6.1	0.00e+00	0	41	104	26189234176	60	51497
2026-01-02 22:27:13.20	132.79	19.52	-50.0	-52.5	6.1	0.00e+00	0	41	104	26189234176	60	51432
2026-01-02 22:27:16.23	133.66	19.19	-50.0	-52.4	6.1	0.00e+00	0	41	104	26189234176	60	51138
2026-01-02 22:27:19.26	134.52	18.86	-50.0	-52.5	6.1	0.00e+00	0	41	104	26189234176	60	51582
2026-01-02 22:27:22.28	135.35	18.53	-50.0	-52.5	6.1	0.00e+00	0	41	104	26189234176	60	51598
2026-01-02 22:27:25.31	136.16	18.20	-50.0	-52.4	6.1	0.00e+00	0	41	104	26189234176	60	51348
2026-01-02 22:27:28.34	136.95	17.87	-50.0	-52.5	6.1	0.00e+00	0	41	104	26189234176	60	51380
2026-01-02 22:27:31.37	137.73	17.54	-50.0	-52.4	6.1	0.00e+00	0	41	104	26189234176	60	51181
2026-01-02 22:27:34.39	138.48	17.22	-49.7	-52.3	6.1	0.00e+00	0	41	104	26189234176	60	50217
2026-01-02 22:27:37.42	139.22	16.89	-49.9	-52.4	6.1	0.00e+00	0	41	104	26189234176	60	51348
2026-01-02 22:27:40.45	139.94	16.57	-49.9	-52.4	6.1	0.00e+00	0	41	104	26189234176	60	51209
2026-01-02 22:27:43.48	140.64	16.24	-49.9	-52.3	6.1	0.00e+00	0	41	104	26189234176	60	50408
2026-01-02 22:27:46.51	141.32	15.92	-49.9	-52.4	6.1	0.00e+00	0	41	104	26189234176	60	50962
2026-01-02 22:27:49.54	141.99	15.60	-49.9	-52.4	6.1	0.00e+00	0	41	104	26189234176	60	50882
2026-01-02 22:27:52.56	142.64	15.29	-49.8	-52.3	6.0	0.00e+00	0	41	104	26189234176	60	50272
2026-01-02 22:27:55.59	143.28	14.98	-49.8	-52.3	6.1	0.00e+00	0	41	104	26189234176	60	50410
2026-01-02 22:27:58.62	143.90	14.66	-49.8	-52.3	6.1	0.00e+00	0	41	104	26189234176	60	50653
2026-01-02 22:28:01.64	144.51	14.36	-49.9	-52.3	6.0	0.00e+00	0	41	104	26189234176	60	50652
2026-01-02 22:28:04.67	145.10	14.05	-49.7	-52.2	6.1	0.00e+00	0	41	104	26189234176	60	49999
2026-01-02 22:28:07.70	145.68	13.75	-49.8	-52.3	6.1	0.00e+00	0	41	104	26189234176	60	50347
2026-01-02 22:28:10.73	146.24	13.44	-49.7	-52.2	6.1	0.00e+00	0	41	104	26189234176	60	50068
2026-01-02 22:28:13.76	146.79	13.15	-49.7	-52.3	6.1	0.00e+00	0	41	104	26189234176	60	50219
2026-01-02 22:28:16.79	147.33	12.85	-49.8	-52.2	6.1	0.00e+00	0	41	104	26189234176	60	49935
2026-01-02 22:28:19.82	147.86	12.56	-49.8	-52.2	6.1	0.00e+00	0	41	104	26189234176	60	50046
2026-01-02 22:28:22.84	148.37	12.27	-49.8	-52.2	6.1	0.00e+00	0	41	104	26189234176	60	50051
2026-01-02 22:28:25.87	148.88	11.98	-49.8	-52.3	6.1	0.00e+00	0	41	104	26189234176	60	50277
2026-01-02 22:28:28.90	149.37	11.69	-49.7	-52.2	6.1	0.00e+00	0	41	104	26189234176	60	49810
2026-01-02 22:28:31.92	149.85	11.41	-49.7	-52.2	6.1	0.00e+00	0	41	104	26189234176	60	49914
2026-01-02 22:28:34.96	150.32	11.13	-49.7	-52.2	6.1	0.00e+00	0	41	104	26189234176	60	49724
2026-01-02 22:28:37.98	150.78	10.85	-49.7	-52.2	6.1	0.00e+00	0	41	104	26189234176	60	49887
2026-01-02 22:28:41.01	151.22	10.58	-49.6	-52.1	6.1	0.00e+00	0	41	104	26189234176	60	49220
2026-01-02 22:28:44.04	151.66	10.31	-49.7	-52.2	6.1	0.00e+00	0	41	104	26189234176	60	49717
2026-01-02 22:28:47.07	152.10	10.04	-49.6	-52.0	6.1	0.00e+00	0	41	104	26189234176	60	48790
2026-01-02 22:28:50.09	152.51	9.77	-49.6	-52.0	6.1	0.00e+00	0	41	104	26189234176	60	48789
2026-01-02 22:28:53.12	152.93	9.51	-49.4	-51.9	6.1	0.00e+00	0	41	104	26189234176	60	48208
2026-01-02 22:28:56.15	153.33	9.25	-49.4	-51.9	6.1	0.00e+00	0	41	104	26189234176	60	48218
2026-01-02 22:28:59.18	153.73	8.99	-48.6	-51.1	6.1	0.00e+00	0	41	104	26189234176	60	43922
2026-01-02 22:29:02.21	154.11	8.73	-48.4	-50.9	6.1	0.00e+00	0	41	104	26189234176	60	42942
2026-01-02 22:29:05.23	154.49	8.48	-48.5	-51.0	6.1	0.00e+00	0	41	104	26189234176	60	43552
2026-01-02 22:29:08.26	154.86	8.23	-48.4	-50.9	6.1	0.00e+00	0	41	104	26189234176	60	42825
2026-01-02 22:29:11.29	155.22	7.98	-48.5	-51.0	6.1	0.00e+00	0	41	104	26189234176	60	43301
2026-01-02 22:29:14.32	155.58	7.73	-48.6	-51.1	6.1	0.00e+00	0	41	104	26189234176	60	44192
2026-01-02 22:29:17.35	155.93	7.49	-48.7	-51.2	6.1	0.00e+00	0	41	104	26189234176	60	44223
2026-01-02 22:29:20.37	156.27	7.25	-48.7	-51.1	6.1	0.00e+00	0	41	104	26189234176	60	44199
2026-01-02 22:29:23.40	156.61	7.01	-49.0	-51.4	6.1	0.00e+00	0	41	104	26189234176	60	45741
2026-01-02 22:29:26.43	156.94	6.77	-49.1	-51.6	6.1	0.00e+00	0	41	104	26189234176	60	46629
2026-01-02 22:29:29.45	157.26	6.54	-48.9	-51.4	6.1	0.00e+00	0	41	104	26189234176	60	45246
2026-01-02 22:29:32.48	157.57	6.31	-49.0	-51.5	6.1	0.00e+00	0	41	104	26189234176	60	46070
2026-01-02 22:29:35.51	157.88	6.08	-49.1	-51.6	6.1	0.00e+00	0	41	104	26189234176	60	46403
2026-01-02 22:29:38.54	158.19	5.85	-49.2	-51.6	6.1	0.00e+00	0	41	104	26189234176	60	46583
2026-01-02 22:29:41.56	158.49	5.62	-49.1	-51.5	6.1	0.00e+00	0	41	104	26189234176	60	46141
2026-01-02 22:29:44.59	158.78	5.40	-49.0	-51.5	6.1	0.00e+00	0	41	104	26189234176	60	45959
2026-01-02 22:29:47.63	159.07	5.17	-48.9	-51.4	6.1	0.00e+00	0	41	104	26189234176	60	45623
2026-01-02 22:29:50.65	159.35	4.96	-49.0	-51.4	6.1	0.00e+00	0	41	104	26189234176	60	45591
2026-01-02 22:29:53.68	159.63	4.74	-49.0	-51.5	6.1	0.00e+00	0	41	104	26189234176	60	45894
2026-01-02 22:29:56.71	159.90	4.52	-48.9	-51.4	6.1	0.00e+00	0	41	104	26189234176	60	45413
2026-01-02 22:29:59.74	160.17	4.31	-48.9	-51.4	6.1	0.00e+00	0	41	104	26189234176	60	45604
2026-01-02 22:30:02.77	160.44	4.09	-48.9	-51.3	6.1	0.00e+00	0	41	104	26189234176	60	45187
2026-01-02 22:30:05.80	160.69	3.88	-48.9	-51.3	6.1	0.00e+00	0	41	104	26189234176	60	45031
2026-01-02 22:30:08.83	160.95	3.67	-48.6	-51.1	6.1	0.00e+00	0	41	104	26189234176	60	43903
2026-01-02 22:30:11.85	161.20	3.47	-48.8	-51.3	6.1	0.00e+00	0	41	104	26189234176	60	45089
2026-01-02 22:30:14.88	161.44	3.26	-48.5	-51.0	6.1	0.00e+00	0	41	104	26189234176	60	43606
2026-01-02 22:30:17.91	161.69	3.06	-48.7	-51.2	6.1	0.00e+00	0	41	104	26189234176	60	44566
2026-01-02 22:30:20.94	161.92	2.85	-49.7	-52.1	6.1	0.00e+00	0	41	104	26189234176	60	49511
2026-01-02 22:30:23.96	162.16	2.65	-50.2	-52.6	6.1	0.00e+00	0	41	104	26189234176	60	52324
2026-01-02 22:30:26.99	162.39	2.45	-50.4	-52.9	6.1	0.00e+00	0	41	104	26189234176	60	53914
2026-01-02 22:30:30.02	162.61	2.26	-50.4	-52.9	6.1	0.00e+00	0	41	104	26189234176	60	53774
2026-01-02 22:30:33.05	162.84	2.06	-50.4	-52.9	6.1	0.00e+00	0	41	104	26189234176	60	53886
2026-01-02 22:30:36.08	163.06	1.86	-50.4	-52.8	6.1	0.00e+00	0	41	104	26189234176	60	53671
2026-01-02 22:30:39.11	163.27	1.67	-50.4	-52.9	6.1	0.00e+00	0	41	104	26189234176	60	53810
2026-01-02 22:30:42.14	163.48	1.48	-50.4	-52.8	6.1	0.00e+00	0	41	104	26189234176	60	53723
2026-01-02 22:30:45.17	163.69	1.29	-50.4	-52.9	6.1	0.00e+00	0	41	104	26189234176	60	53872
2026-01-02 22:30:48.20	163.90	1.10	-50.4	-52.8	6.1	0.00e+00	0	41	104	26189234176	60	53595
2026-01-02 22:30:51.22	164.10	0.91	-50.4	-52.8	6.1	0.00e+00	0	41	104	26189234176	60	53707
2026-01-02 22:30:54.26	164.30	0.72	-50.4	-52.9	6.1	0.00e+00	0	41	104	26189234176	60	53933
2026-01-02 22:30:57.28	164.50	0.54	-50.4	-52.9	6.1	0.00e+00	0	41	104	26189234176	60	53930
2026-01-02 22:31:00.32	164.69	0.36	-50.4	-52.8	6.1	0.00e+00	0	41	104	26189234176	60	53481
2026-01-02 22:31:03.34	164.88	0.17	-50.4	-52.9	6.1	0.00e+00	0	41	104	26189234176	60	54029
2026-01-02 22:31:06.37	165.07	-0.01	-50.4	-52.8	6.1	0.00e+00	0	41	104	26189234176	60	53689

#Closed at: 2026-01-02 22:31:07
#Recorded file [26189 MB]: D:/lorett/data/35029_260103_102030.dat