passes_logs/2026/01/02/R4.6S_Anadyr/R4.6S_Anadyr__20260102_075436_TY-42_rec.log

#Pass ID: 20260102_075436_TY-42
#Satellite: TY-42
#Configuration: TY-42_900M
#almurnet v.1.7.20251203
#Start time: 2026-01-02 07:55:06

#Version: 2.2.20231116
#Station: R4.6S_Anadyr
#Location: 177.4865 lon 64.73178 lat
#TLE: 1 64048U 25103A   26002.21768519  .00008010  00000-0  38191-3 0 09996
#TLE: 2 64048 097.4116 077.8767 0001783 096.3425 062.0388 15.19169548 34870

#Time	Az	El	Level	Level2	SNR	BER	BlckErr	Temp	State	Recorded	gain1	gain2
2026-01-02 07:55:06.62	115.80	1.80	-49.5	-51.0	5.7	7.64e-01	0	37	0	0	60	43694
2026-01-02 07:55:09.64	115.57	1.99	-46.9	-49.5	6.1	0.00e+00	0	38	104	0	60	36437
2026-01-02 07:55:12.67	115.35	2.18	-46.9	-49.5	6.1	0.00e+00	0	39	104	0	60	36452
2026-01-02 07:55:15.69	115.11	2.38	-46.9	-49.5	6.1	0.00e+00	0	39	104	0	60	36415
2026-01-02 07:55:18.72	114.88	2.58	-46.9	-49.5	6.1	0.00e+00	0	39	104	0	60	36552
2026-01-02 07:55:21.76	114.64	2.77	-46.9	-49.5	6.1	0.00e+00	0	39	104	0	60	36371
2026-01-02 07:55:24.79	114.39	2.97	-46.9	-49.4	6.1	0.00e+00	0	39	104	0	60	36325
2026-01-02 07:55:27.82	114.14	3.18	-46.9	-49.5	6.1	0.00e+00	0	39	104	0	60	36410
2026-01-02 07:55:30.84	113.89	3.38	-46.9	-49.4	6.1	0.00e+00	0	39	104	0	60	36251
2026-01-02 07:55:33.87	113.63	3.58	-46.9	-49.4	6.1	0.00e+00	0	39	104	0	60	36172
2026-01-02 07:55:36.90	113.37	3.79	-46.4	-49.1	6.1	0.00e+00	0	39	104	0	60	34921
2026-01-02 07:55:39.93	113.10	4.00	-47.3	-49.8	6.1	0.00e+00	0	39	104	0	60	37676
2026-01-02 07:55:42.96	112.82	4.21	-46.8	-49.5	6.1	0.00e+00	0	39	104	0	60	36496
2026-01-02 07:55:45.98	112.55	4.42	-47.6	-50.1	6.1	0.00e+00	0	39	104	0	60	39019
2026-01-02 07:55:49.02	112.26	4.63	-47.3	-49.8	6.1	0.00e+00	0	39	104	0	60	37990
2026-01-02 07:55:52.05	111.97	4.84	-47.9	-50.4	6.1	0.00e+00	0	39	104	0	60	40529
2026-01-02 07:55:55.08	111.68	5.06	-47.9	-50.4	6.1	0.00e+00	0	39	104	0	60	40465
2026-01-02 07:55:58.11	111.38	5.28	-47.9	-50.4	6.1	0.00e+00	0	40	104	0	60	40579
2026-01-02 07:56:01.14	111.07	5.50	-48.2	-50.7	6.1	0.00e+00	0	40	104	0	60	42107
2026-01-02 07:56:04.17	110.76	5.72	-30.1	-30.4	12.4	0.00e+00	5502	40	104	0	36	16189
2026-01-02 07:56:07.20	110.44	5.94	-29.5	-29.8	12.6	0.00e+00	5470	40	104	100663296	34	16841
2026-01-02 07:56:10.23	110.12	6.16	-28.2	-28.8	15.7	3.27e-02	0	40	0	411041792	32	16831
2026-01-02 07:56:13.27	109.78	6.39	-27.8	-28.4	15.9	5.12e-04	0	40	0	754974720	32	16170
2026-01-02 07:56:16.30	109.45	6.62	-27.8	-28.3	15.9	5.12e-04	0	40	0	1098907648	30	17956
2026-01-02 07:56:19.33	109.10	6.85	-27.6	-28.2	16.1	3.11e-04	0	40	0	1434451968	30	17688
2026-01-02 07:56:22.36	108.75	7.08	-27.7	-28.3	16.0	2.89e-04	0	41	0	1778384896	30	17871
2026-01-02 07:56:25.39	108.39	7.32	-27.4	-28.0	16.0	2.56e-04	0	40	0	2122317824	30	17284
2026-01-02 07:56:28.42	108.02	7.55	-27.4	-28.0	16.1	2.51e-04	0	40	0	2457862144	30	17239
2026-01-02 07:56:31.45	107.65	7.79	-27.4	-27.9	16.2	1.58e-04	0	41	0	2801795072	30	17118
2026-01-02 07:56:34.48	107.27	8.03	-27.2	-27.8	16.2	1.36e-04	0	41	0	3145728000	30	16844
2026-01-02 07:56:37.52	106.87	8.28	-26.9	-27.5	16.5	1.14e-04	0	41	0	3481272320	30	16268
2026-01-02 07:56:40.55	106.48	8.52	-26.7	-27.2	16.5	7.62e-05	0	41	0	3825205248	28	17785
2026-01-02 07:56:43.58	106.07	8.77	-26.6	-27.1	16.5	3.26e-05	0	41	0	4169138176	28	17501
2026-01-02 07:56:46.61	105.65	9.01	-26.3	-26.8	16.6	1.63e-05	0	41	0	4504682496	28	16944
2026-01-02 07:56:49.64	105.23	9.26	-26.3	-26.8	16.5	2.72e-05	0	41	0	4848615424	28	16952
2026-01-02 07:56:52.67	104.79	9.52	-26.0	-26.6	16.7	4.35e-05	0	41	0	5184159744	28	16448
2026-01-02 07:56:55.70	104.35	9.77	-26.0	-26.5	16.7	3.26e-05	0	41	0	5528092672	28	16336
2026-01-02 07:56:58.73	103.90	10.03	-26.1	-26.6	16.8	1.63e-05	0	41	0	5863636992	28	16446
2026-01-02 07:57:01.76	103.43	10.29	-25.8	-26.3	16.8	3.26e-05	0	41	0	6207569920	28	16011
2026-01-02 07:57:04.79	102.96	10.55	-25.9	-26.4	16.8	1.08e-05	0	41	0	6551502848	26	18062
2026-01-02 07:57:07.82	102.48	10.81	-25.8	-26.3	16.8	1.08e-05	0	41	0	6887047168	26	17909
2026-01-02 07:57:10.85	101.98	11.07	-25.8	-26.3	16.9	2.17e-05	0	41	0	7230980096	26	17809
2026-01-02 07:57:13.88	101.48	11.34	-25.6	-26.1	17.0	1.08e-05	0	41	0	7566524416	26	17549
2026-01-02 07:57:16.91	100.96	11.61	-25.5	-26.0	17.1	0.00e+00	0	42	0	7910457344	26	17323
2026-01-02 07:57:19.94	100.43	11.88	-25.4	-25.9	17.0	0.00e+00	0	41	0	8254390272	26	17104
2026-01-02 07:57:22.97	99.89	12.15	-25.3	-25.8	17.0	5.40e-06	0	41	0	8589934592	26	16935
2026-01-02 07:57:26.00	99.33	12.42	-25.2	-25.6	17.2	0.00e+00	0	41	0	8933867520	26	16605
2026-01-02 07:57:29.03	98.77	12.70	-25.0	-25.5	17.2	0.00e+00	0	41	0	9277800448	26	16328
2026-01-02 07:57:32.07	98.19	12.98	-25.0	-25.5	17.1	5.40e-06	0	41	0	9613344768	26	16297
2026-01-02 07:57:35.09	97.59	13.25	-24.8	-25.3	17.2	5.40e-06	0	41	0	9957277696	26	15946
2026-01-02 07:57:38.13	96.99	13.53	-24.9	-25.4	17.2	0.00e+00	0	41	0	10301210624	24	18097
2026-01-02 07:57:41.16	96.37	13.82	-24.6	-25.1	17.2	0.00e+00	0	42	0	10645143552	24	17478
2026-01-02 07:57:44.19	95.73	14.10	-24.5	-25.0	17.2	0.00e+00	0	42	0	10980687872	24	17360
2026-01-02 07:57:47.22	95.08	14.38	-24.5	-25.0	17.2	0.00e+00	0	42	0	11324620800	24	17246
2026-01-02 07:57:50.25	94.42	14.67	-24.3	-24.8	17.3	0.00e+00	0	42	0	11668553728	24	16923
2026-01-02 07:57:53.28	93.74	14.95	-24.4	-24.9	17.0	0.00e+00	0	42	0	12004098048	24	17121
2026-01-02 07:57:56.31	93.04	15.24	-24.0	-24.5	17.2	0.00e+00	0	42	0	12348030976	24	16351
2026-01-02 07:57:59.34	92.33	15.53	-24.0	-24.5	17.2	0.00e+00	0	42	0	12691963904	24	16354
2026-01-02 07:58:02.37	91.60	15.81	-23.8	-24.3	17.2	0.00e+00	0	42	0	13027508224	24	15989
2026-01-02 07:58:05.40	90.86	16.10	-23.7	-24.1	17.2	0.00e+00	0	42	0	13371441152	22	17576
2026-01-02 07:58:08.42	90.10	16.39	-23.6	-24.0	17.3	0.00e+00	0	42	0	13706985472	22	17387
2026-01-02 07:58:11.45	89.32	16.67	-23.4	-23.8	17.3	0.00e+00	0	42	0	14050918400	22	16955
2026-01-02 07:58:14.48	88.52	16.96	-23.2	-23.6	17.4	0.00e+00	0	42	0	14386462720	22	16612
2026-01-02 07:58:17.51	87.71	17.25	-23.2	-23.7	17.4	0.00e+00	0	42	0	14730395648	22	16634
2026-01-02 07:58:20.54	86.88	17.53	-23.0	-23.5	17.4	0.00e+00	0	42	0	15074328576	22	16279
2026-01-02 07:58:23.57	86.03	17.81	-22.9	-23.4	17.4	0.00e+00	0	42	0	15409872896	22	16127
2026-01-02 07:58:26.59	85.16	18.09	-23.0	-23.4	17.4	0.00e+00	0	42	0	15753805824	22	16130
2026-01-02 07:58:29.62	84.27	18.37	-23.0	-23.4	17.2	0.00e+00	0	42	0	16089350144	22	16234
2026-01-02 07:58:32.65	83.36	18.65	-22.8	-23.2	17.3	0.00e+00	0	42	0	16433283072	20	17785
2026-01-02 07:58:35.68	82.44	18.92	-22.7	-23.1	17.4	0.00e+00	0	42	0	16777216000	20	17529
2026-01-02 07:58:38.71	81.49	19.19	-22.7	-23.1	17.4	0.00e+00	0	42	0	17112760320	20	17484
2026-01-02 07:58:41.74	80.53	19.46	-22.6	-23.0	17.4	0.00e+00	0	42	0	17456693248	20	17267
2026-01-02 07:58:44.77	79.54	19.72	-22.5	-22.9	17.3	0.00e+00	0	42	0	17792237568	20	17096
2026-01-02 07:58:47.80	78.54	19.98	-22.6	-23.0	17.3	0.00e+00	0	42	0	18136170496	20	17375
2026-01-02 07:58:50.83	77.52	20.23	-22.4	-22.8	17.4	0.00e+00	0	42	0	18480103424	20	16902
2026-01-02 07:58:53.85	76.48	20.48	-22.3	-22.8	17.4	0.00e+00	0	42	0	18824036352	20	16862
2026-01-02 07:58:56.88	75.42	20.72	-22.1	-22.5	17.5	0.00e+00	0	42	0	19159580672	20	16400
2026-01-02 07:58:59.90	74.34	20.96	-21.9	-22.4	17.4	0.00e+00	0	42	0	19503513600	20	16101
2026-01-02 07:59:02.93	73.24	21.18	-22.1	-22.5	17.1	0.00e+00	0	42	0	19847446528	20	16328
2026-01-02 07:59:05.96	72.13	21.40	-21.9	-22.4	17.2	0.00e+00	0	42	0	20182990848	20	16063
2026-01-02 07:59:08.99	70.99	21.61	-21.8	-22.2	17.3	0.00e+00	0	42	0	20526923776	18	17757
2026-01-02 07:59:12.02	69.84	21.82	-21.8	-22.2	17.3	0.00e+00	0	42	0	20862468096	18	17702
2026-01-02 07:59:15.04	68.68	22.01	-21.7	-22.1	17.0	0.00e+00	0	42	0	21206401024	18	17585
2026-01-02 07:59:18.07	67.49	22.19	-21.6	-22.0	17.3	0.00e+00	0	42	0	21541945344	18	17381
2026-01-02 07:59:21.10	66.29	22.36	-21.7	-22.1	17.2	0.00e+00	0	42	0	21885878272	18	17513
2026-01-02 07:59:24.13	65.08	22.52	-21.6	-22.1	16.9	0.00e+00	0	42	0	22221422592	18	17452
2026-01-02 07:59:27.16	63.85	22.67	-21.5	-21.9	17.1	0.00e+00	0	42	0	22565355520	18	17124
2026-01-02 07:59:30.19	62.61	22.81	-21.4	-21.9	17.1	0.00e+00	0	42	0	22909288448	18	17008
2026-01-02 07:59:33.21	61.36	22.94	-21.5	-21.9	17.1	0.00e+00	0	42	0	23244832768	18	17116
2026-01-02 07:59:36.24	60.10	23.05	-21.5	-21.9	16.9	0.00e+00	0	42	0	23588765696	18	17074
2026-01-02 07:59:39.26	58.83	23.15	-21.6	-22.0	16.9	0.00e+00	0	42	0	23924310016	18	17383
2026-01-02 07:59:42.29	57.55	23.24	-21.6	-22.0	16.6	0.00e+00	0	42	0	24268242944	18	17356
2026-01-02 07:59:45.33	56.26	23.31	-21.6	-22.0	16.8	0.00e+00	0	42	0	24612175872	18	17338
2026-01-02 07:59:48.35	54.97	23.37	-21.6	-22.0	16.9	0.00e+00	0	42	0	24947720192	18	17364
2026-01-02 07:59:51.38	53.67	23.42	-21.7	-22.1	16.9	0.00e+00	0	42	0	25291653120	18	17519
2026-01-02 07:59:54.41	52.37	23.45	-21.6	-22.0	16.6	0.00e+00	0	42	0	25635586048	18	17209
2026-01-02 07:59:57.44	51.06	23.46	-21.6	-22.1	17.0	0.00e+00	0	42	0	25971130368	18	17442
2026-01-02 08:00:00.47	49.76	23.46	-21.6	-22.0	17.0	0.00e+00	0	42	0	26315063296	18	17267
2026-01-02 08:00:03.50	48.46	23.45	-21.6	-22.1	17.1	0.00e+00	0	42	0	26658996224	18	17404
2026-01-02 08:00:06.53	47.15	23.42	-21.5	-21.9	17.1	0.00e+00	0	42	0	26994540544	18	17159
2026-01-02 08:00:09.55	45.86	23.38	-21.6	-22.0	17.1	0.00e+00	0	42	0	27338473472	18	17398
2026-01-02 08:00:12.58	44.56	23.32	-21.5	-22.0	17.1	0.00e+00	0	43	0	27682406400	18	17237
2026-01-02 08:00:15.61	43.28	23.25	-21.5	-22.0	17.1	0.00e+00	0	42	0	28017950720	18	17317
2026-01-02 08:00:18.64	42.00	23.17	-21.6	-22.1	17.1	0.00e+00	0	42	0	28361883648	18	17465
2026-01-02 08:00:21.67	40.72	23.07	-21.7	-22.2	17.2	0.00e+00	0	42	0	28697427968	18	17769
2026-01-02 08:00:24.69	39.46	22.96	-21.8	-22.3	17.2	0.00e+00	0	42	0	29041360896	18	17912
2026-01-02 08:00:27.73	38.21	22.84	-21.7	-22.2	17.3	0.00e+00	0	42	0	29376905216	18	17788
2026-01-02 08:00:30.75	36.97	22.70	-21.9	-22.5	17.3	0.00e+00	0	42	0	29720838144	18	18262
2026-01-02 08:00:33.77	35.75	22.56	-49.1	-51.6	6.1	0.00e+00	0	42	104	29779558400	60	46446
2026-01-02 08:00:36.80	34.53	22.40	-49.2	-51.6	6.1	0.00e+00	0	42	104	29779558400	60	46668
2026-01-02 08:00:39.83	33.33	22.23	-49.2	-51.7	6.1	0.00e+00	0	42	104	29779558400	60	47134
2026-01-02 08:00:42.85	32.15	22.05	-49.2	-51.6	6.1	0.00e+00	0	42	104	29779558400	60	46806
2026-01-02 08:00:45.88	30.99	21.86	-49.1	-51.7	6.1	0.00e+00	0	42	104	29779558400	60	46843
2026-01-02 08:00:48.91	29.83	21.66	-49.2	-51.7	6.1	0.00e+00	0	42	104	29779558400	60	47087
2026-01-02 08:00:51.94	28.70	21.45	-49.2	-51.6	6.1	0.00e+00	0	42	104	29779558400	60	46645
2026-01-02 08:00:54.97	27.58	21.23	-49.1	-51.6	6.1	0.00e+00	0	42	104	29779558400	60	46469
2026-01-02 08:00:58.00	26.48	21.01	-49.3	-51.7	6.1	0.00e+00	0	42	104	29779558400	60	47240
2026-01-02 08:01:01.02	25.41	20.78	-49.2	-51.6	6.1	0.00e+00	0	42	104	29779558400	60	46662
2026-01-02 08:01:04.05	24.35	20.54	-49.2	-51.7	6.1	0.00e+00	0	42	104	29779558400	60	46884
2026-01-02 08:01:07.08	23.30	20.29	-49.2	-51.7	6.1	0.00e+00	0	42	104	29779558400	60	47005
2026-01-02 08:01:10.10	22.28	20.04	-49.2	-51.6	6.1	0.00e+00	0	42	104	29779558400	60	46703
2026-01-02 08:01:13.13	21.28	19.79	-49.2	-51.7	6.1	0.00e+00	0	42	104	29779558400	60	47028
2026-01-02 08:01:16.16	20.30	19.52	-49.1	-51.5	6.1	0.00e+00	0	42	104	29779558400	60	46043
2026-01-02 08:01:19.18	19.33	19.26	-49.2	-51.7	6.1	0.00e+00	0	42	104	29779558400	60	46911
2026-01-02 08:01:22.21	18.39	18.99	-49.2	-51.6	6.1	0.00e+00	0	42	104	29779558400	60	46626
2026-01-02 08:01:25.24	17.46	18.72	-49.2	-51.7	6.1	0.00e+00	0	42	104	29779558400	60	47092
2026-01-02 08:01:28.27	16.55	18.45	-49.1	-51.6	6.1	0.00e+00	0	42	104	29779558400	60	46487
2026-01-02 08:01:31.30	15.67	18.17	-49.1	-51.6	6.1	0.00e+00	0	42	104	29779558400	60	46396
2026-01-02 08:01:34.32	14.80	17.89	-49.2	-51.6	6.1	0.00e+00	0	42	104	29779558400	60	46833
2026-01-02 08:01:37.35	13.95	17.61	-49.2	-51.7	6.1	0.00e+00	0	42	104	29779558400	60	46880
2026-01-02 08:01:40.38	13.12	17.32	-49.2	-51.6	6.1	0.00e+00	0	42	104	29779558400	60	46762
2026-01-02 08:01:43.40	12.30	17.04	-49.0	-51.5	6.1	0.00e+00	0	42	104	29779558400	60	45849
2026-01-02 08:01:46.43	11.51	16.76	-49.2	-51.6	6.1	0.00e+00	0	42	104	29779558400	60	46556
2026-01-02 08:01:49.46	10.73	16.47	-48.9	-51.4	6.0	0.00e+00	0	42	104	29779558400	60	45441
2026-01-02 08:01:52.49	9.97	16.18	-49.1	-51.6	6.1	0.00e+00	0	42	104	29779558400	60	46467
2026-01-02 08:01:55.52	9.22	15.90	-48.9	-51.4	6.1	0.00e+00	0	42	104	29779558400	60	45570
2026-01-02 08:01:58.54	8.50	15.61	-49.1	-51.5	6.1	0.00e+00	0	42	104	29779558400	60	46156
2026-01-02 08:02:01.57	7.79	15.33	-49.0	-51.5	6.1	0.00e+00	0	42	104	29779558400	60	45838
2026-01-02 08:02:04.60	7.09	15.04	-49.0	-51.5	6.0	0.00e+00	0	42	104	29779558400	60	46104
2026-01-02 08:02:07.63	6.41	14.76	-49.1	-51.5	6.1	0.00e+00	0	42	104	29779558400	60	46053
2026-01-02 08:02:10.66	5.75	14.47	-49.0	-51.5	6.1	0.00e+00	0	42	104	29779558400	60	46159
2026-01-02 08:02:13.69	5.10	14.19	-49.0	-51.5	6.1	0.00e+00	0	42	104	29779558400	60	46281
2026-01-02 08:02:16.72	4.46	13.91	-49.0	-51.5	6.1	0.00e+00	0	42	104	29779558400	60	46119
2026-01-02 08:02:19.75	3.84	13.63	-49.0	-51.5	6.1	0.00e+00	0	42	104	29779558400	60	45811
2026-01-02 08:02:22.78	3.24	13.35	-48.9	-51.5	6.1	0.00e+00	0	42	104	29779558400	60	45959
2026-01-02 08:02:25.80	2.65	13.07	-49.0	-51.5	6.0	0.00e+00	0	42	104	29779558400	60	45843
2026-01-02 08:02:28.83	2.07	12.80	-49.0	-51.5	6.1	0.00e+00	0	42	104	29779558400	60	45919
2026-01-02 08:02:31.85	1.50	12.52	-48.9	-51.4	6.1	0.00e+00	0	42	104	29779558400	60	45381
2026-01-02 08:02:34.89	0.95	12.25	-49.0	-51.4	6.0	0.00e+00	0	42	104	29779558400	60	45422
2026-01-02 08:02:37.91	0.41	11.98	-49.0	-51.5	6.1	0.00e+00	0	42	104	29779558400	60	45818
2026-01-02 08:02:40.94	359.88	11.71	-49.0	-51.4	6.1	0.00e+00	0	42	104	29779558400	60	45525
2026-01-02 08:02:43.97	359.36	11.44	-48.9	-51.3	6.1	0.00e+00	0	42	104	29779558400	60	45185
2026-01-02 08:02:46.99	358.86	11.18	-48.9	-51.3	6.1	0.00e+00	0	42	104	29779558400	60	45119
2026-01-02 08:02:50.02	358.36	10.92	-49.0	-51.4	6.1	0.00e+00	0	42	104	29779558400	60	45300
2026-01-02 08:02:53.05	357.88	10.65	-48.9	-51.4	6.1	0.00e+00	0	42	104	29779558400	60	45431
2026-01-02 08:02:56.07	357.41	10.40	-48.8	-51.3	6.1	0.00e+00	0	42	104	29779558400	60	44785
2026-01-02 08:02:59.10	356.95	10.14	-48.8	-51.2	6.1	0.00e+00	0	42	104	29779558400	60	44628
2026-01-02 08:03:02.13	356.49	9.88	-48.9	-51.4	6.1	0.00e+00	0	42	104	29779558400	60	45246
2026-01-02 08:03:05.16	356.05	9.63	-48.8	-51.3	6.1	0.00e+00	0	42	104	29779558400	60	44931
2026-01-02 08:03:08.19	355.62	9.38	-48.8	-51.3	6.1	0.00e+00	0	42	104	29779558400	60	44730
2026-01-02 08:03:11.22	355.19	9.13	-48.8	-51.2	6.1	0.00e+00	0	42	104	29779558400	60	44472
2026-01-02 08:03:14.24	354.78	8.88	-48.8	-51.3	6.1	0.00e+00	0	42	104	29779558400	60	44785
2026-01-02 08:03:17.27	354.37	8.63	-48.8	-51.3	6.1	0.00e+00	0	42	104	29779558400	60	44856
2026-01-02 08:03:20.30	353.97	8.39	-48.7	-51.2	6.1	0.00e+00	0	42	104	29779558400	60	44358
2026-01-02 08:03:23.32	353.59	8.15	-48.7	-51.2	6.1	0.00e+00	0	42	104	29779558400	60	44359
2026-01-02 08:03:26.35	353.20	7.91	-48.8	-51.3	6.1	0.00e+00	0	42	104	29779558400	60	44791
2026-01-02 08:03:29.38	352.83	7.67	-48.8	-51.2	6.1	0.00e+00	0	42	104	29779558400	60	44673
2026-01-02 08:03:32.40	352.47	7.44	-48.7	-51.2	6.1	0.00e+00	0	42	104	29779558400	60	44318
2026-01-02 08:03:35.43	352.11	7.20	-48.6	-51.0	6.1	0.00e+00	0	42	104	29779558400	60	43538
2026-01-02 08:03:38.45	351.76	6.97	-48.6	-51.1	6.1	0.00e+00	0	42	104	29779558400	60	43754
2026-01-02 08:03:41.48	351.41	6.74	-48.7	-51.1	6.1	0.00e+00	0	42	104	29779558400	60	44070
2026-01-02 08:03:44.51	351.08	6.51	-48.6	-51.0	6.1	0.00e+00	0	42	104	29779558400	60	43522
2026-01-02 08:03:47.54	350.75	6.29	-48.5	-50.9	6.1	0.00e+00	0	42	104	29779558400	60	43010
2026-01-02 08:03:50.57	350.42	6.06	-48.5	-51.0	6.1	0.00e+00	0	42	104	29779558400	60	43341
2026-01-02 08:03:53.60	350.10	5.84	-48.6	-51.1	6.1	0.00e+00	0	42	104	29779558400	60	43797
2026-01-02 08:03:56.62	349.79	5.62	-48.5	-51.0	6.1	0.00e+00	0	42	104	29779558400	60	43255
2026-01-02 08:03:59.65	349.49	5.40	-48.4	-50.8	6.1	0.00e+00	0	42	104	29779558400	60	42696
2026-01-02 08:04:02.68	349.19	5.18	-48.4	-50.8	6.1	0.00e+00	0	42	104	29779558400	60	42650
2026-01-02 08:04:05.71	348.90	4.97	-48.5	-50.9	6.1	0.00e+00	0	42	104	29779558400	60	43147
2026-01-02 08:04:08.74	348.61	4.75	-48.1	-50.6	6.1	0.00e+00	0	42	104	29779558400	60	41381
2026-01-02 08:04:11.76	348.33	4.54	-47.4	-49.9	6.1	0.00e+00	0	42	104	29779558400	60	38080
2026-01-02 08:04:14.79	348.05	4.33	-46.6	-49.1	6.1	0.00e+00	0	42	104	29779558400	60	34845
2026-01-02 08:04:17.82	347.78	4.12	-45.8	-48.3	6.1	0.00e+00	0	42	104	29779558400	60	31667
2026-01-02 08:04:20.85	347.51	3.92	-46.0	-48.5	6.1	0.00e+00	0	42	104	29779558400	60	32406
2026-01-02 08:04:23.88	347.25	3.71	-46.4	-48.9	6.1	0.00e+00	0	42	104	29779558400	60	33946
2026-01-02 08:04:26.90	346.99	3.51	-44.7	-47.2	6.1	0.00e+00	0	42	104	29779558400	60	27940
2026-01-02 08:04:29.93	346.74	3.30	-44.6	-47.1	6.1	0.00e+00	0	42	104	29779558400	60	27773
2026-01-02 08:04:32.96	346.49	3.10	-44.5	-47.0	6.1	0.00e+00	0	42	104	29779558400	60	27566
2026-01-02 08:04:35.99	346.25	2.90	-48.8	-51.3	6.1	0.00e+00	0	42	104	29779558400	60	44733
2026-01-02 08:04:39.02	346.01	2.70	-49.3	-51.8	6.1	0.00e+00	0	42	104	29779558400	60	47588
2026-01-02 08:04:42.05	345.77	2.51	-49.3	-51.8	6.1	0.00e+00	0	42	104	29779558400	60	47757
2026-01-02 08:04:45.08	345.54	2.31	-49.4	-51.9	6.1	0.00e+00	0	42	104	29779558400	60	48270
2026-01-02 08:04:48.11	345.31	2.12	-49.4	-51.9	6.1	0.00e+00	0	42	104	29779558400	60	47963
2026-01-02 08:04:51.14	345.09	1.93	-49.4	-51.9	6.1	0.00e+00	0	42	104	29779558400	60	48067
2026-01-02 08:04:54.17	344.87	1.73	-49.4	-51.8	6.1	0.00e+00	0	42	104	29779558400	60	47895
2026-01-02 08:04:57.20	344.66	1.54	-49.4	-51.8	6.1	0.00e+00	0	42	104	29779558400	60	47889
2026-01-02 08:05:00.23	344.45	1.36	-49.4	-51.8	6.1	0.00e+00	0	42	104	29779558400	60	47792
2026-01-02 08:05:03.26	344.24	1.17	-49.4	-51.8	6.1	0.00e+00	0	42	104	29779558400	60	47656
2026-01-02 08:05:06.28	344.03	0.98	-49.4	-51.8	6.1	0.00e+00	0	42	104	29779558400	60	47673
2026-01-02 08:05:09.31	343.83	0.80	-49.4	-51.8	6.1	0.00e+00	0	42	104	29779558400	60	47843
2026-01-02 08:05:12.34	343.64	0.61	-49.4	-51.8	6.1	0.00e+00	0	42	104	29779558400	60	47873
2026-01-02 08:05:15.37	343.44	0.43	-49.4	-51.8	6.1	0.00e+00	0	42	104	29779558400	60	47851
2026-01-02 08:05:18.40	343.25	0.25	-49.4	-51.8	6.1	0.00e+00	0	42	104	29779558400	60	47807
2026-01-02 08:05:21.42	343.06	0.07	-49.4	-51.9	6.1	0.00e+00	0	42	104	29779558400	60	47977

#Closed at: 2026-01-02 08:05:24
#Recorded file [29779 MB]: D:/lorett/data/35029_260102_195506.dat