passes_logs/2026/01/02/R4.6S_Anadyr/R4.6S_Anadyr__20260102_131808_NOAA_21_JPSS-2_rec.log

#Pass ID: 20260102_131808_NOAA 21 (JPSS-2)
#Satellite: NOAA 21 (JPSS-2)
#Configuration: NOAA-21
#almurnet v.1.7.20251203
#Start time: 2026-01-02 13:18:10

#Version: 2.2.20231116
#Station: R4.6S_Anadyr
#Location: 177.4865 lon 64.73178 lat
#TLE: 1 54234U 22150A   26001.90243762  .00000172  00000+0  10253-3 0  9993
#TLE: 2 54234  98.7485 302.9615 0001242 351.7524   8.3631 14.19530907162956

#Time	Az	El	Level	Level2	SNR	BER	BlckErr	Temp	State	Recorded	gain1	gain2
2026-01-02 13:18:10.94	18.80	0.11	-49.3	-64.3	3.5	1.51e+00	0	36	0	0	60	58989
2026-01-02 13:18:14.97	18.99	0.34	-49.5	-62.3	3.5	1.52e+00	0	38	104	0	60	45932
2026-01-02 13:18:19.01	19.18	0.57	-49.5	-62.4	3.5	1.52e+00	0	38	104	0	60	46053
2026-01-02 13:18:23.04	19.38	0.79	-49.1	-61.9	3.5	1.52e+00	0	38	104	0	60	43639
2026-01-02 13:18:27.08	19.57	1.02	-48.1	-60.9	3.5	1.52e+00	0	38	104	0	60	38762
2026-01-02 13:18:31.12	19.77	1.26	-47.7	-60.5	3.5	1.52e+00	0	38	104	0	60	37055
2026-01-02 13:18:35.16	19.97	1.49	-47.7	-60.4	3.5	1.52e+00	0	38	104	0	60	36942
2026-01-02 13:18:39.20	20.18	1.72	-47.6	-60.4	3.5	1.52e+00	0	38	104	0	60	36612
2026-01-02 13:18:43.24	20.39	1.96	-47.6	-60.4	3.5	1.51e+00	0	38	104	0	60	36610
2026-01-02 13:18:47.28	20.60	2.20	-47.6	-60.5	3.5	1.52e+00	0	38	104	0	60	37083
2026-01-02 13:18:51.32	20.81	2.44	-47.5	-59.2	3.5	1.52e+00	0	38	104	0	60	32047
2026-01-02 13:18:55.36	21.03	2.68	-47.6	-60.3	3.5	1.52e+00	0	38	104	0	60	36227
2026-01-02 13:18:59.39	21.25	2.92	-43.9	-46.5	13.3	1.23e-04	122	38	0	6291456	60	7458
2026-01-02 13:19:03.43	21.48	3.17	-39.2	-40.6	19.1	0.00e+00	122	38	0	18874368	52	5930
2026-01-02 13:19:07.47	21.70	3.42	-41.2	-42.9	16.8	0.00e+00	122	38	0	31457280	54	6896
2026-01-02 13:19:11.50	21.93	3.67	-40.8	-42.4	12.8	0.00e+00	123	38	0	44040192	52	7316
2026-01-02 13:19:15.54	22.17	3.92	-42.6	-44.6	15.4	0.00e+00	123	38	0	50331648	58	6689
2026-01-02 13:19:19.57	22.41	4.17	-43.4	-45.7	14.5	4.50e-06	123	39	0	62914560	60	6729
2026-01-02 13:19:23.61	22.65	4.43	-41.4	-43.1	16.8	0.00e+00	122	39	0	76546048	56	6318
2026-01-02 13:19:27.65	22.90	4.68	-42.3	-44.2	15.9	0.00e+00	123	39	0	88080384	56	7128
2026-01-02 13:19:31.69	23.15	4.94	-41.9	-43.7	16.6	0.00e+00	122	39	0	101711872	56	6764
2026-01-02 13:19:35.73	23.40	5.20	-39.5	-40.8	19.3	0.00e+00	122	39	0	114294784	52	6118
2026-01-02 13:19:39.77	23.66	5.47	-39.2	-40.5	19.9	0.00e+00	122	39	0	126877696	52	5863
2026-01-02 13:19:43.81	23.92	5.73	-38.7	-39.9	20.2	0.00e+00	122	39	0	139460608	50	6185
2026-01-02 13:19:47.85	24.19	6.00	-38.7	-39.8	20.3	0.00e+00	123	39	0	152043520	50	6127
2026-01-02 13:19:51.89	24.46	6.27	-38.7	-39.9	20.2	0.00e+00	123	39	0	164626432	50	6146
2026-01-02 13:19:55.93	24.74	6.55	-38.3	-39.5	20.6	0.00e+00	123	39	0	177209344	50	5859
2026-01-02 13:19:59.97	25.02	6.82	-38.2	-39.4	20.8	0.00e+00	123	39	0	189792256	50	5802
2026-01-02 13:20:04.00	25.31	7.10	-37.9	-39.0	21.2	0.00e+00	122	39	0	202375168	50	5550
2026-01-02 13:20:08.04	25.60	7.38	-37.7	-38.8	21.4	0.00e+00	123	39	0	214958080	48	6088
2026-01-02 13:20:12.08	25.90	7.66	-37.8	-38.9	21.3	0.00e+00	123	39	0	227540992	48	6143
2026-01-02 13:20:16.12	26.20	7.95	-37.6	-38.7	21.5	0.00e+00	118	39	0	240123904	48	6008
2026-01-02 13:20:20.16	26.51	8.23	-37.4	-38.5	21.7	0.00e+00	123	39	0	252706816	48	5873
2026-01-02 13:20:24.20	26.82	8.53	-37.3	-38.4	21.9	0.00e+00	123	39	0	265289728	48	5804
2026-01-02 13:20:28.23	27.14	8.82	-37.2	-38.2	22.0	0.00e+00	120	39	0	277872640	48	5718
2026-01-02 13:20:32.28	27.47	9.11	-37.1	-38.2	22.0	0.00e+00	122	39	0	290455552	48	5672
2026-01-02 13:20:36.32	27.80	9.41	-36.9	-38.0	22.3	0.00e+00	120	39	0	303038464	48	5540
2026-01-02 13:20:40.36	28.14	9.71	-36.8	-37.9	22.3	0.00e+00	120	39	0	315621376	48	5470
2026-01-02 13:20:44.40	28.49	10.02	-37.1	-38.2	22.2	0.00e+00	122	39	0	328204288	48	5684
2026-01-02 13:20:48.44	28.84	10.33	-36.9	-37.9	22.3	0.00e+00	122	39	0	340787200	48	5482
2026-01-02 13:20:52.48	29.20	10.64	-36.8	-37.9	22.4	0.00e+00	122	39	0	353370112	48	5476
2026-01-02 13:20:56.53	29.57	10.95	-36.8	-37.8	22.5	0.00e+00	123	39	0	365953024	46	6119
2026-01-02 13:21:00.57	29.94	11.27	-36.5	-37.5	22.8	0.00e+00	120	39	0	378535936	46	5890
2026-01-02 13:21:04.61	30.33	11.59	-36.5	-37.5	22.8	0.00e+00	120	39	0	392167424	46	5866
2026-01-02 13:21:08.65	30.72	11.91	-36.2	-37.2	23.0	0.00e+00	120	39	0	404750336	46	5716
2026-01-02 13:21:12.69	31.12	12.23	-36.3	-37.2	23.0	0.00e+00	121	39	0	417333248	46	5710
2026-01-02 13:21:16.73	31.52	12.56	-36.2	-37.2	23.1	0.00e+00	122	39	0	429916160	46	5662
2026-01-02 13:21:20.76	31.94	12.89	-35.9	-36.9	23.3	0.00e+00	120	39	0	442499072	46	5475
2026-01-02 13:21:24.80	32.36	13.23	-35.9	-36.9	23.3	0.00e+00	120	39	0	455081984	46	5478
2026-01-02 13:21:28.84	32.80	13.57	-35.9	-36.8	23.5	0.00e+00	123	39	0	467664896	46	5446
2026-01-02 13:21:32.88	33.24	13.91	-35.9	-36.9	23.4	0.00e+00	122	39	0	480247808	46	5473
2026-01-02 13:21:36.92	33.70	14.25	-35.9	-36.8	23.5	0.00e+00	120	39	0	492830720	46	5455
2026-01-02 13:21:40.95	34.16	14.60	-35.9	-36.9	23.4	0.00e+00	120	39	0	505413632	46	5481
2026-01-02 13:21:44.99	34.63	14.95	-35.8	-36.8	23.5	0.00e+00	123	39	0	517996544	46	5405
2026-01-02 13:21:49.03	35.12	15.31	-36.0	-37.0	23.4	0.00e+00	122	39	0	530579456	46	5533
2026-01-02 13:21:53.07	35.62	15.67	-35.6	-36.6	23.7	0.00e+00	122	39	0	543162368	44	5938
2026-01-02 13:21:57.11	36.13	16.03	-35.9	-36.8	23.5	0.00e+00	122	39	0	555745280	44	6123
2026-01-02 13:22:01.15	36.65	16.39	-35.9	-36.8	23.4	0.00e+00	120	39	0	568328192	44	6118
2026-01-02 13:22:05.19	37.18	16.76	-36.0	-37.0	23.4	0.00e+00	120	39	0	580911104	44	6233
2026-01-02 13:22:09.23	37.73	17.13	-36.0	-36.9	23.5	0.00e+00	120	39	0	593494016	44	6200
2026-01-02 13:22:13.27	38.29	17.51	-35.9	-36.9	23.5	0.00e+00	123	39	0	606076928	44	6167
2026-01-02 13:22:17.31	38.86	17.89	-36.0	-37.0	23.4	0.00e+00	122	39	0	618659840	44	6210
2026-01-02 13:22:21.35	39.44	18.27	-35.8	-36.8	23.6	0.00e+00	122	39	0	631242752	44	6072
2026-01-02 13:22:25.39	40.05	18.65	-35.8	-36.7	23.6	0.00e+00	122	39	0	643825664	44	6064
2026-01-02 13:22:29.42	40.66	19.04	-35.7	-36.7	23.6	0.00e+00	123	39	0	656408576	44	6009
2026-01-02 13:22:33.46	41.29	19.43	-35.4	-36.3	24.0	0.00e+00	122	39	0	668991488	44	5769
2026-01-02 13:22:37.50	41.94	19.82	-35.4	-36.3	24.0	0.00e+00	122	39	0	681574400	44	5769
2026-01-02 13:22:41.54	42.60	20.22	-35.1	-36.0	24.2	0.00e+00	120	39	0	694157312	44	5594
2026-01-02 13:22:45.57	43.28	20.61	-35.0	-35.9	24.4	0.00e+00	122	39	0	706740224	44	5496
2026-01-02 13:22:49.61	43.98	21.01	-35.1	-36.1	24.2	0.00e+00	123	39	0	719323136	44	5605
2026-01-02 13:22:53.65	44.70	21.42	-35.2	-36.1	24.1	0.00e+00	120	39	0	731906048	44	5645
2026-01-02 13:22:57.69	45.43	21.82	-34.8	-35.7	24.5	0.00e+00	121	39	0	744488960	44	5352
2026-01-02 13:23:01.73	46.18	22.23	-35.0	-35.9	24.3	0.00e+00	121	39	0	758120448	42	6163
2026-01-02 13:23:05.77	46.96	22.63	-34.9	-35.8	24.3	0.00e+00	122	39	0	770703360	42	6083
2026-01-02 13:23:09.80	47.75	23.04	-34.9	-35.8	24.5	0.00e+00	121	39	0	783286272	42	6098
2026-01-02 13:23:13.84	48.56	23.45	-35.0	-35.9	24.3	0.00e+00	120	39	0	795869184	42	6165
2026-01-02 13:23:17.88	49.39	23.86	-34.8	-35.7	24.6	0.00e+00	120	39	0	808452096	42	6024
2026-01-02 13:23:21.92	50.25	24.27	-34.9	-35.7	24.5	0.00e+00	123	39	0	821035008	42	6057
2026-01-02 13:23:25.96	51.13	24.68	-35.1	-36.0	24.3	0.00e+00	123	39	0	833617920	42	6244
2026-01-02 13:23:29.99	52.03	25.09	-35.4	-36.3	24.1	0.00e+00	122	39	0	846200832	42	6465
2026-01-02 13:23:34.04	52.95	25.50	-35.1	-36.0	24.4	0.00e+00	123	39	0	858783744	42	6245
2026-01-02 13:23:38.07	53.90	25.90	-35.0	-35.9	24.4	0.00e+00	123	39	0	871366656	42	6198
2026-01-02 13:23:42.11	54.87	26.31	-35.1	-36.0	24.4	0.00e+00	122	39	0	883949568	42	6272
2026-01-02 13:23:46.15	55.86	26.71	-35.2	-36.1	24.3	0.00e+00	123	39	0	896532480	42	6324
2026-01-02 13:23:50.18	56.88	27.11	-35.2	-36.0	24.3	0.00e+00	123	39	0	909115392	42	6271
2026-01-02 13:23:54.22	57.93	27.50	-35.1	-36.0	24.3	0.00e+00	122	40	0	921698304	42	6240
2026-01-02 13:23:58.27	59.00	27.89	-35.7	-36.6	23.9	0.00e+00	122	40	0	934281216	42	6686
2026-01-02 13:24:02.31	60.10	28.28	-35.6	-36.6	23.9	0.00e+00	123	39	0	946864128	44	5936
2026-01-02 13:24:06.35	61.22	28.66	-35.4	-36.4	24.0	0.00e+00	122	40	0	959447040	44	5808
2026-01-02 13:24:10.39	62.37	29.03	-35.3	-36.3	24.1	0.00e+00	120	39	0	972029952	44	5729
2026-01-02 13:24:14.43	63.55	29.39	-35.2	-36.0	24.2	0.00e+00	122	40	0	984612864	44	5591
2026-01-02 13:24:18.46	64.75	29.75	-35.0	-35.9	24.4	0.00e+00	120	39	0	997195776	44	5510
2026-01-02 13:24:22.50	65.97	30.10	-35.1	-36.0	24.3	0.00e+00	123	39	0	1009778688	44	5566
2026-01-02 13:24:26.54	67.23	30.43	-35.6	-36.5	24.0	0.00e+00	121	39	0	1022361600	44	5903
2026-01-02 13:24:30.58	68.51	30.76	-35.3	-36.2	24.1	0.00e+00	123	40	0	1034944512	44	5689
2026-01-02 13:24:34.62	69.81	31.07	-35.8	-36.8	23.7	0.00e+00	122	39	0	1047527424	44	6066
2026-01-02 13:24:38.66	71.14	31.37	-35.4	-36.3	24.0	0.00e+00	122	39	0	1060110336	44	5771
2026-01-02 13:24:42.70	72.49	31.65	-36.0	-36.9	23.7	0.00e+00	122	40	0	1072693248	44	6179
2026-01-02 13:24:46.74	73.87	31.92	-36.1	-37.0	23.2	0.00e+00	122	39	0	1085276160	44	6262
2026-01-02 13:24:50.78	75.27	32.18	-35.8	-36.7	23.8	0.00e+00	120	40	0	1098907648	44	6004
2026-01-02 13:24:54.82	76.69	32.42	-35.9	-36.8	23.7	0.00e+00	123	39	0	1111490560	44	6113
2026-01-02 13:24:58.86	78.13	32.64	-35.4	-36.3	24.1	0.00e+00	122	40	0	1124073472	44	5773
2026-01-02 13:25:02.90	79.59	32.84	-35.8	-36.8	23.8	0.00e+00	121	39	0	1136656384	44	6081
2026-01-02 13:25:06.93	81.06	33.02	-36.1	-37.1	23.5	0.00e+00	122	40	0	1149239296	44	6281
2026-01-02 13:25:10.97	82.55	33.19	-36.0	-37.0	23.7	0.00e+00	123	40	0	1161822208	44	6221
2026-01-02 13:25:15.01	84.05	33.33	-35.9	-36.9	23.7	0.00e+00	122	39	0	1174405120	44	6140
2026-01-02 13:25:19.06	85.57	33.45	-35.9	-36.9	23.7	0.00e+00	123	39	0	1186988032	44	6152
2026-01-02 13:25:23.10	87.10	33.55	-36.4	-37.3	23.4	0.00e+00	123	39	0	1199570944	44	6482
2026-01-02 13:25:27.14	88.64	33.63	-36.4	-37.3	23.2	0.00e+00	122	39	0	1212153856	44	6494
2026-01-02 13:25:31.18	90.18	33.68	-36.1	-37.0	23.6	0.00e+00	123	39	0	1224736768	44	6249
2026-01-02 13:25:35.22	91.73	33.71	-36.2	-37.2	23.4	0.00e+00	122	40	0	1237319680	44	6394
2026-01-02 13:25:39.26	93.28	33.72	-36.4	-37.3	23.4	0.00e+00	123	39	0	1249902592	44	6459
2026-01-02 13:25:43.30	94.82	33.71	-36.1	-37.0	23.6	0.00e+00	123	39	0	1262485504	44	6270
2026-01-02 13:25:47.34	96.37	33.67	-36.0	-37.0	23.6	0.00e+00	122	39	0	1275068416	44	6211
2026-01-02 13:25:51.38	97.91	33.62	-36.1	-37.1	23.6	0.00e+00	122	39	0	1287651328	44	6320
2026-01-02 13:25:55.42	99.45	33.53	-36.2	-37.1	23.5	0.00e+00	122	39	0	1300234240	44	6336
2026-01-02 13:25:59.46	100.98	33.43	-36.0	-37.0	23.6	0.00e+00	123	39	0	1312817152	44	6218
2026-01-02 13:26:03.50	102.49	33.31	-36.0	-36.9	23.7	0.00e+00	123	39	0	1325400064	44	6163
2026-01-02 13:26:07.54	104.00	33.16	-36.1	-37.0	23.6	0.00e+00	122	39	0	1337982976	44	6247
2026-01-02 13:26:11.58	105.49	32.99	-35.8	-36.8	23.8	0.00e+00	122	39	0	1350565888	44	6066
2026-01-02 13:26:15.62	106.96	32.81	-35.9	-36.8	23.7	0.00e+00	122	39	0	1363148800	44	6105
2026-01-02 13:26:19.66	108.42	32.60	-36.0	-37.0	23.6	0.00e+00	122	39	0	1375731712	44	6225
2026-01-02 13:26:23.70	109.86	32.38	-36.0	-36.9	23.5	0.00e+00	123	39	0	1389363200	44	6204
2026-01-02 13:26:27.74	111.28	32.14	-36.3	-37.2	23.4	0.00e+00	123	39	0	1400897536	44	6400
2026-01-02 13:26:31.78	112.68	31.88	-36.4	-37.3	23.3	0.00e+00	122	39	0	1414529024	44	6476
2026-01-02 13:26:35.82	114.05	31.60	-36.2	-37.1	23.5	0.00e+00	122	39	0	1427111936	44	6332
2026-01-02 13:26:39.85	115.40	31.32	-35.8	-36.7	23.8	0.00e+00	120	39	0	1439694848	44	6018
2026-01-02 13:26:43.89	116.73	31.01	-35.5	-36.5	24.0	0.00e+00	123	39	0	1452277760	44	5869
2026-01-02 13:26:47.93	118.04	30.70	-35.2	-36.1	24.3	0.00e+00	122	39	0	1464860672	44	5611
2026-01-02 13:26:51.97	119.31	30.37	-34.9	-35.8	24.5	0.00e+00	122	39	0	1477443584	44	5422
2026-01-02 13:26:56.01	120.57	30.03	-35.3	-36.2	24.1	0.00e+00	123	39	0	1490026496	44	5712
2026-01-02 13:27:00.05	121.79	29.68	-35.0	-35.9	24.3	0.00e+00	123	39	0	1502609408	44	5510
2026-01-02 13:27:04.09	122.99	29.32	-34.9	-35.8	24.5	0.00e+00	123	39	0	1515192320	42	6128
2026-01-02 13:27:08.13	124.17	28.95	-35.0	-35.8	24.5	0.00e+00	123	39	0	1527775232	42	6122
2026-01-02 13:27:12.17	125.32	28.58	-35.0	-35.9	24.4	0.00e+00	121	39	0	1540358144	42	6188
2026-01-02 13:27:16.21	126.44	28.20	-35.1	-36.0	24.4	0.00e+00	123	39	0	1552941056	42	6227
2026-01-02 13:27:20.25	127.54	27.81	-34.7	-35.6	24.6	0.00e+00	122	39	0	1565523968	42	5979
2026-01-02 13:27:24.29	128.61	27.42	-34.8	-35.7	24.6	0.00e+00	123	39	0	1578106880	42	6043
2026-01-02 13:27:28.33	129.65	27.02	-34.6	-35.5	24.7	0.00e+00	123	39	0	1590689792	42	5883
2026-01-02 13:27:32.38	130.67	26.61	-35.0	-35.9	24.5	0.00e+00	122	39	0	1603272704	42	6181
2026-01-02 13:27:36.42	131.67	26.21	-34.9	-35.8	24.5	0.00e+00	122	39	0	1615855616	42	6112
2026-01-02 13:27:40.46	132.64	25.80	-35.0	-35.9	24.4	0.00e+00	123	39	0	1628438528	42	6157
2026-01-02 13:27:44.49	133.58	25.39	-35.0	-35.9	24.4	0.00e+00	122	39	0	1641021440	42	6193
2026-01-02 13:27:48.53	134.50	24.98	-35.1	-36.0	24.4	0.00e+00	120	39	0	1653604352	42	6240
2026-01-02 13:27:52.57	135.40	24.57	-35.1	-36.0	24.3	0.00e+00	120	39	0	1666187264	42	6246
2026-01-02 13:27:56.60	136.28	24.16	-35.2	-36.2	24.2	0.00e+00	123	39	0	1678770176	42	6353
2026-01-02 13:28:00.64	137.13	23.75	-35.1	-36.0	24.4	0.00e+00	123	39	0	1691353088	42	6237
2026-01-02 13:28:04.68	137.96	23.33	-35.2	-36.1	24.2	0.00e+00	123	39	0	1703936000	42	6296
2026-01-02 13:28:08.72	138.78	22.92	-35.1	-36.0	24.3	0.00e+00	122	39	0	1716518912	42	6227
2026-01-02 13:28:12.76	139.57	22.51	-35.3	-36.2	24.2	0.00e+00	120	39	0	1730150400	42	6421
2026-01-02 13:28:16.80	140.34	22.10	-35.4	-36.4	24.0	0.00e+00	122	39	0	1741684736	42	6508
2026-01-02 13:28:20.84	141.09	21.69	-35.3	-36.2	24.1	0.00e+00	122	39	0	1755316224	42	6401
2026-01-02 13:28:24.88	141.82	21.28	-35.2	-36.1	24.3	0.00e+00	122	39	0	1767899136	42	6297
2026-01-02 13:28:28.92	142.54	20.88	-35.4	-36.3	24.0	0.00e+00	120	39	0	1780482048	42	6482
2026-01-02 13:28:32.95	143.23	20.48	-35.5	-36.5	23.9	0.00e+00	123	39	0	1793064960	42	6574
2026-01-02 13:28:36.99	143.91	20.08	-35.3	-36.2	24.2	0.00e+00	123	39	0	1805647872	42	6357
2026-01-02 13:28:41.03	144.57	19.68	-35.2	-36.1	24.0	0.00e+00	122	39	0	1818230784	42	6307
2026-01-02 13:28:45.07	145.22	19.29	-34.8	-35.7	24.4	0.00e+00	122	39	0	1830813696	42	6035
2026-01-02 13:28:49.11	145.85	18.89	-34.9	-35.8	24.2	0.00e+00	122	39	0	1843396608	42	6127
2026-01-02 13:28:53.15	146.46	18.50	-35.4	-36.3	23.9	0.00e+00	123	39	0	1855979520	42	6462
2026-01-02 13:28:57.19	147.06	18.12	-35.3	-36.2	24.0	0.00e+00	123	39	0	1868562432	42	6419
2026-01-02 13:29:01.23	147.64	17.74	-35.3	-36.3	23.9	0.00e+00	120	39	0	1881145344	42	6435
2026-01-02 13:29:05.26	148.21	17.36	-35.3	-36.3	24.0	0.00e+00	123	39	0	1893728256	42	6434
2026-01-02 13:29:09.30	148.77	16.98	-35.5	-36.5	23.9	0.00e+00	123	39	0	1906311168	42	6577
2026-01-02 13:29:13.35	149.32	16.61	-35.8	-36.7	23.6	0.00e+00	123	39	0	1918894080	44	6057
2026-01-02 13:29:17.39	149.85	16.24	-36.0	-36.9	23.4	0.00e+00	122	39	0	1931476992	44	6179
2026-01-02 13:29:21.43	150.37	15.87	-36.0	-37.0	23.4	0.00e+00	123	39	0	1944059904	44	6213
2026-01-02 13:29:25.46	150.87	15.51	-36.2	-37.1	23.1	0.00e+00	123	39	0	1956642816	44	6335
2026-01-02 13:29:29.50	151.37	15.15	-36.3	-37.3	23.1	0.00e+00	123	39	0	1969225728	44	6431
2026-01-02 13:29:33.54	151.85	14.79	-36.2	-37.2	23.2	0.00e+00	122	39	0	1981808640	44	6374
2026-01-02 13:29:37.58	152.32	14.44	-36.3	-37.2	23.1	0.00e+00	122	39	0	1994391552	44	6422
2026-01-02 13:29:41.62	152.78	14.09	-37.1	-38.0	22.5	0.00e+00	120	39	0	2006974464	46	6270
2026-01-02 13:29:45.66	153.23	13.74	-37.4	-38.4	22.0	0.00e+00	122	39	0	2019557376	46	6526
2026-01-02 13:29:49.69	153.68	13.40	-38.4	-39.5	20.6	0.00e+00	120	39	0	2032140288	48	6634
2026-01-02 13:29:53.74	154.11	13.06	-39.6	-41.0	18.9	0.00e+00	122	39	0	2044723200	50	7010
2026-01-02 13:29:57.77	154.53	12.72	-40.5	-42.0	17.7	0.00e+00	123	39	0	2057306112	52	7028
2026-01-02 13:30:01.81	154.94	12.39	-40.7	-42.2	17.7	0.00e+00	120	39	0	2070937600	52	7184
2026-01-02 13:30:05.86	155.35	12.06	-40.0	-41.3	18.8	0.00e+00	122	39	0	2083520512	52	6497
2026-01-02 13:30:09.90	155.74	11.73	-38.8	-39.9	20.3	0.00e+00	121	39	0	2096103424	52	5523
2026-01-02 13:30:13.94	156.13	11.40	-38.1	-39.2	21.1	0.00e+00	122	39	0	2108686336	50	5679
2026-01-02 13:30:17.98	156.51	11.08	-37.5	-38.6	21.7	0.00e+00	120	39	0	2121269248	48	5956
2026-01-02 13:30:22.02	156.88	10.77	-36.9	-38.0	22.3	0.00e+00	121	39	0	2133852160	48	5531
2026-01-02 13:30:26.05	157.25	10.45	-36.9	-37.9	22.3	0.00e+00	123	39	0	2146435072	48	5508
2026-01-02 13:30:30.09	157.60	10.14	-36.8	-37.8	22.4	0.00e+00	120	39	0	2159017984	48	5455
2026-01-02 13:30:34.13	157.95	9.83	-36.8	-37.8	22.4	0.00e+00	123	39	0	2171600896	46	6110
2026-01-02 13:30:38.17	158.30	9.53	-36.9	-37.9	22.4	0.00e+00	123	39	0	2184183808	46	6139
2026-01-02 13:30:42.21	158.63	9.22	-36.9	-38.0	22.3	0.00e+00	123	39	0	2196766720	46	6210
2026-01-02 13:30:46.25	158.96	8.92	-37.3	-38.4	21.9	0.00e+00	122	39	0	2209349632	46	6518
2026-01-02 13:30:50.29	159.29	8.63	-37.6	-38.7	21.6	0.00e+00	120	39	0	2221932544	46	6746
2026-01-02 13:30:54.33	159.60	8.33	-38.0	-39.1	21.3	0.00e+00	122	39	0	2234515456	48	6302
2026-01-02 13:30:58.37	159.91	8.04	-38.1	-39.2	21.1	0.00e+00	123	39	0	2247098368	48	6387
2026-01-02 13:31:02.40	160.22	7.75	-38.0	-39.2	21.1	0.00e+00	122	39	0	2259681280	48	6363
2026-01-02 13:31:06.44	160.52	7.47	-38.4	-39.5	20.8	0.00e+00	122	39	0	2272264192	48	6640
2026-01-02 13:31:10.47	160.81	7.18	-38.0	-39.1	21.0	0.00e+00	122	39	0	2284847104	48	6350
2026-01-02 13:31:14.51	161.10	6.90	-38.1	-39.3	21.0	0.00e+00	123	39	0	2297430016	48	6426
2026-01-02 13:31:18.55	161.38	6.62	-37.8	-38.9	21.2	0.00e+00	123	39	0	2310012928	48	6193
2026-01-02 13:31:22.59	161.66	6.35	-38.0	-39.2	20.9	0.00e+00	123	39	0	2322595840	48	6367
2026-01-02 13:31:26.63	161.94	6.07	-38.0	-39.2	20.9	0.00e+00	123	39	0	2335178752	48	6364
2026-01-02 13:31:30.67	162.20	5.80	-38.3	-39.4	20.7	0.00e+00	123	39	0	2347761664	48	6554
2026-01-02 13:31:34.71	162.47	5.53	-38.4	-39.5	20.6	0.00e+00	122	39	0	2360344576	48	6638
2026-01-02 13:31:38.75	162.73	5.26	-38.8	-40.0	20.1	0.00e+00	123	39	0	2372927488	50	6234
2026-01-02 13:31:42.79	162.98	5.00	-38.7	-39.9	20.2	0.00e+00	122	39	0	2385510400	50	6142
2026-01-02 13:31:46.82	163.23	4.74	-38.9	-40.1	20.0	0.00e+00	122	39	0	2398093312	50	6322
2026-01-02 13:31:50.86	163.48	4.48	-39.0	-40.2	19.7	0.00e+00	122	39	0	2411724800	50	6417
2026-01-02 13:31:54.90	163.72	4.22	-39.2	-40.4	19.4	0.00e+00	122	39	0	2424307712	50	6566
2026-01-02 13:31:58.94	163.96	3.96	-39.8	-41.1	19.0	0.00e+00	122	39	0	2436890624	52	6328
2026-01-02 13:32:02.98	164.20	3.71	-39.5	-40.8	19.0	0.00e+00	123	39	0	2449473536	52	6107
2026-01-02 13:32:07.01	164.43	3.45	-39.5	-40.9	18.9	0.00e+00	123	39	0	2462056448	52	6154
2026-01-02 13:32:11.05	164.65	3.20	-39.7	-41.1	18.8	0.00e+00	123	39	0	2474639360	52	6308
2026-01-02 13:32:15.10	164.88	2.95	-48.2	-61.0	3.5	1.52e+00	0	39	104	2485125120	60	39193
2026-01-02 13:32:19.14	165.10	2.71	-49.3	-62.2	3.5	1.52e+00	0	39	104	2485125120	60	44972
2026-01-02 13:32:23.18	165.32	2.46	-49.7	-62.5	3.5	1.52e+00	0	39	104	2485125120	60	47071
2026-01-02 13:32:27.22	165.53	2.22	-49.6	-62.4	3.5	1.52e+00	0	39	104	2485125120	60	46489
2026-01-02 13:32:31.26	165.74	1.98	-49.6	-62.4	3.5	1.52e+00	0	39	104	2485125120	60	46332
2026-01-02 13:32:35.30	165.95	1.74	-49.6	-62.4	3.5	1.52e+00	0	39	104	2485125120	60	46476
2026-01-02 13:32:39.34	166.15	1.50	-49.6	-62.4	3.5	1.52e+00	0	39	104	2485125120	60	46432
2026-01-02 13:32:43.37	166.35	1.27	-49.6	-62.5	3.5	1.51e+00	0	39	104	2485125120	60	46563
2026-01-02 13:32:47.42	166.55	1.03	-49.6	-62.4	3.5	1.52e+00	0	39	104	2485125120	60	46444
2026-01-02 13:32:51.46	166.74	0.80	-49.6	-62.4	3.5	1.52e+00	0	39	104	2485125120	60	46512
2026-01-02 13:32:55.50	166.94	0.57	-49.6	-62.5	3.5	1.52e+00	0	39	104	2485125120	60	46634
2026-01-02 13:32:59.53	167.13	0.34	-49.6	-62.4	3.5	1.52e+00	0	39	104	2485125120	60	46410
2026-01-02 13:33:03.57	167.31	0.11	-49.6	-62.5	3.5	1.52e+00	0	39	104	2485125120	60	46593

#Closed at: 2026-01-02 13:33:06
#Recorded file [2485 MB]: D:/lorett/data/35029_260103_011810.dat