passes_logs/2026/01/02/R4.6S_Anadyr/R4.6S_Anadyr__20260102_202613_SUOMI_NPP_rec.log

#Pass ID: 20260102_202613_SUOMI NPP
#Satellite: SUOMI NPP
#Configuration: NPP
#almurnet v.1.7.20251203
#Start time: 2026-01-02 20:26:14

#Version: 2.2.20231116
#Station: R4.6S_Anadyr
#Location: 177.4865 lon 64.73178 lat
#TLE: 1 37849U 11061A   26001.07732418  .00000182  00000+0  10735-3 0  9990
#TLE: 2 37849  98.7795 303.2470 0002580  87.2016 272.9455 14.19520779734739

#Time	Az	El	Level	Level2	SNR	BER	BlckErr	Temp	State	Recorded	gain1	gain2
2026-01-02 20:26:14.52	68.76	0.07	-50.4	-68.1	3.5	3.03e+01	0	37	0	0	60	97905
2026-01-02 20:26:17.55	68.54	0.22	-50.1	-65.4	3.6	1.51e+00	0	38	104	0	60	67173
2026-01-02 20:26:20.57	68.32	0.37	-50.1	-65.4	3.6	1.51e+00	0	38	104	0	60	67268
2026-01-02 20:26:23.60	68.09	0.52	-50.1	-65.4	3.6	1.51e+00	0	38	104	0	60	67001
2026-01-02 20:26:26.63	67.86	0.67	-49.5	-65.0	3.6	1.51e+00	0	38	104	0	60	64499
2026-01-02 20:26:29.66	67.63	0.82	-49.1	-64.3	3.5	1.51e+00	0	38	104	0	60	59301
2026-01-02 20:26:32.69	67.40	0.97	-48.3	-63.5	3.6	1.51e+00	0	38	104	0	60	54382
2026-01-02 20:26:35.72	67.16	1.13	-48.3	-63.5	3.6	1.51e+00	0	38	104	0	60	54145
2026-01-02 20:26:38.75	66.93	1.28	-48.3	-63.5	3.6	1.51e+00	0	39	104	0	60	54123
2026-01-02 20:26:41.78	66.69	1.43	-48.3	-63.5	3.6	1.51e+00	0	38	104	0	60	54217
2026-01-02 20:26:44.81	66.44	1.58	-48.3	-63.5	3.6	1.51e+00	0	38	104	0	60	53865
2026-01-02 20:26:47.84	66.20	1.74	-48.3	-63.5	3.6	1.51e+00	0	39	104	0	60	53814
2026-01-02 20:26:50.87	65.95	1.89	-48.3	-63.5	3.6	1.51e+00	0	39	104	0	60	53938
2026-01-02 20:26:53.90	65.70	2.04	-48.3	-63.3	3.6	1.51e+00	0	39	104	0	60	52917
2026-01-02 20:26:56.92	65.44	2.20	-48.2	-62.9	3.6	1.51e+00	0	39	104	0	60	50609
2026-01-02 20:26:59.95	65.19	2.35	-48.3	-63.5	3.6	1.51e+00	0	39	104	0	60	54095
2026-01-02 20:27:02.98	64.93	2.51	-48.3	-63.5	3.6	1.51e+00	0	39	104	0	60	53949
2026-01-02 20:27:06.01	64.67	2.66	-48.2	-62.8	3.6	1.51e+00	0	39	104	0	60	49856
2026-01-02 20:27:09.04	64.40	2.82	-48.3	-63.3	3.6	1.51e+00	0	39	104	0	60	52655
2026-01-02 20:27:12.07	64.13	2.97	-47.2	-53.3	8.4	1.82e-01	0	39	0	1048576	60	16625
2026-01-02 20:27:15.10	63.86	3.13	-46.9	-52.5	10.5	8.88e-01	0	39	104	4194304	60	15276
2026-01-02 20:27:18.12	63.59	3.29	-45.5	-49.0	13.2	3.50e-01	0	39	104	4194304	60	10200
2026-01-02 20:27:21.16	63.31	3.44	-44.9	-47.8	14.8	0.00e+00	0	39	0	8388608	60	8879
2026-01-02 20:27:24.18	63.03	3.60	-43.7	-46.0	16.3	0.00e+00	0	39	0	14680064	60	7221
2026-01-02 20:27:27.21	62.75	3.76	-43.6	-45.7	16.6	0.00e+00	0	39	0	19922944	60	7004
2026-01-02 20:27:30.24	62.46	3.92	-43.9	-46.2	16.2	0.00e+00	0	39	0	26214400	60	7395
2026-01-02 20:27:33.27	62.17	4.07	-43.6	-45.7	16.9	0.00e+00	0	39	0	31457280	60	6952
2026-01-02 20:27:36.30	61.88	4.23	-44.0	-46.3	16.3	0.00e+00	0	39	0	36700160	60	7463
2026-01-02 20:27:39.32	61.59	4.39	-43.9	-46.2	16.6	0.00e+00	0	39	0	42991616	60	7389
2026-01-02 20:27:42.35	61.29	4.55	-44.0	-46.3	16.6	0.00e+00	0	39	0	48234496	60	7494
2026-01-02 20:27:45.38	60.98	4.71	-43.4	-45.5	17.2	0.00e+00	0	39	0	54525952	60	6789
2026-01-02 20:27:48.41	60.68	4.86	-43.5	-45.6	17.2	0.00e+00	0	39	0	59768832	60	6910
2026-01-02 20:27:51.44	60.37	5.02	-43.2	-45.1	17.5	0.00e+00	0	39	0	66060288	60	6530
2026-01-02 20:27:54.47	60.06	5.18	-43.3	-45.3	17.6	0.00e+00	0	39	0	71303168	60	6621
2026-01-02 20:27:57.50	59.74	5.34	-43.3	-45.3	17.3	0.00e+00	0	39	0	76546048	60	6689
2026-01-02 20:28:00.52	59.42	5.50	-43.2	-45.2	17.6	0.00e+00	0	39	0	82837504	60	6566
2026-01-02 20:28:03.55	59.10	5.66	-43.2	-45.1	17.7	0.00e+00	0	39	0	88080384	60	6482
2026-01-02 20:28:06.58	58.77	5.82	-43.2	-45.1	17.8	0.00e+00	0	39	0	94371840	60	6527
2026-01-02 20:28:09.61	58.44	5.98	-43.4	-45.4	17.4	0.00e+00	0	39	0	99614720	60	6769
2026-01-02 20:28:12.64	58.10	6.14	-43.3	-45.2	17.6	0.00e+00	0	39	0	104857600	60	6606
2026-01-02 20:28:15.67	57.77	6.30	-43.4	-45.5	17.5	0.00e+00	0	39	0	111149056	60	6781
2026-01-02 20:28:18.70	57.42	6.46	-43.0	-44.8	18.2	0.00e+00	0	39	0	116391936	60	6265
2026-01-02 20:28:21.73	57.08	6.62	-43.0	-44.8	18.2	0.00e+00	0	39	0	122683392	60	6306
2026-01-02 20:28:24.76	56.73	6.78	-42.4	-44.0	18.9	0.00e+00	0	39	0	127926272	58	6406
2026-01-02 20:28:27.79	56.37	6.94	-42.1	-43.6	19.3	0.00e+00	0	39	0	134217728	58	6172
2026-01-02 20:28:30.82	56.01	7.10	-42.1	-43.5	19.5	0.00e+00	0	39	0	139460608	58	6091
2026-01-02 20:28:33.85	55.65	7.26	-42.0	-43.5	19.3	0.00e+00	0	39	0	144703488	56	6795
2026-01-02 20:28:36.88	55.29	7.42	-41.9	-43.4	19.5	0.00e+00	0	39	0	150994944	56	6703
2026-01-02 20:28:39.91	54.92	7.57	-42.0	-43.4	19.6	0.00e+00	0	39	0	156237824	56	6759
2026-01-02 20:28:42.94	54.54	7.73	-42.2	-43.7	19.5	0.00e+00	0	39	0	162529280	56	6944
2026-01-02 20:28:45.96	54.16	7.89	-42.3	-43.8	19.3	0.00e+00	0	39	0	167772160	56	7022
2026-01-02 20:28:48.99	53.78	8.05	-42.3	-43.8	19.4	0.00e+00	0	39	0	173015040	56	7025
2026-01-02 20:28:52.02	53.39	8.21	-42.3	-43.8	19.3	0.00e+00	0	39	0	179306496	56	7061
2026-01-02 20:28:55.05	53.00	8.37	-42.4	-43.9	19.2	0.00e+00	0	39	0	184549376	56	7163
2026-01-02 20:28:58.08	52.61	8.53	-42.3	-43.8	19.4	0.00e+00	0	39	0	190840832	56	7039
2026-01-02 20:29:01.10	52.21	8.68	-42.1	-43.5	19.7	0.00e+00	0	39	0	196083712	56	6813
2026-01-02 20:29:04.13	51.80	8.84	-42.2	-43.6	19.5	0.00e+00	0	39	0	201326592	56	6920
2026-01-02 20:29:07.16	51.39	9.00	-42.2	-43.7	19.5	0.00e+00	0	39	0	207618048	56	6978
2026-01-02 20:29:10.19	50.98	9.15	-41.9	-43.2	19.8	0.00e+00	0	39	0	212860928	56	6602
2026-01-02 20:29:13.21	50.56	9.31	-42.2	-43.7	19.5	0.00e+00	0	39	0	219152384	56	6991
2026-01-02 20:29:16.24	50.14	9.46	-42.5	-44.1	19.1	0.00e+00	0	39	0	224395264	56	7271
2026-01-02 20:29:19.27	49.71	9.62	-42.4	-44.0	19.3	0.00e+00	0	39	0	230686720	58	6396
2026-01-02 20:29:22.30	49.28	9.77	-42.6	-44.2	19.0	0.00e+00	0	39	0	235929600	58	6559
2026-01-02 20:29:25.33	48.84	9.93	-42.0	-43.5	19.6	0.00e+00	0	39	0	241172480	58	6078
2026-01-02 20:29:28.36	48.40	10.08	-42.0	-43.5	19.7	0.00e+00	0	39	0	247463936	58	6045
2026-01-02 20:29:31.38	47.96	10.23	-41.5	-42.9	20.2	0.00e+00	0	39	0	252706816	56	6337
2026-01-02 20:29:34.42	47.50	10.38	-41.3	-42.6	20.6	0.00e+00	0	39	0	258998272	56	6105
2026-01-02 20:29:37.44	47.05	10.53	-41.2	-42.5	20.6	0.00e+00	0	39	0	264241152	56	6078
2026-01-02 20:29:40.47	46.59	10.68	-40.6	-41.8	20.8	0.00e+00	0	39	0	269484032	54	6292
2026-01-02 20:29:43.49	46.12	10.83	-40.4	-41.6	21.4	0.00e+00	0	39	0	275775488	54	6126
2026-01-02 20:29:46.52	45.65	10.98	-40.5	-41.6	21.3	0.00e+00	0	39	0	281018368	54	6147
2026-01-02 20:29:49.55	45.18	11.13	-40.4	-41.6	21.3	0.00e+00	0	39	0	287309824	54	6129
2026-01-02 20:29:52.58	44.70	11.27	-40.6	-41.8	21.2	0.00e+00	0	39	0	292552704	54	6248
2026-01-02 20:29:55.61	44.22	11.42	-40.5	-41.6	21.3	0.00e+00	0	39	0	298844160	54	6165
2026-01-02 20:29:58.64	43.73	11.56	-40.7	-41.9	21.1	0.00e+00	0	39	0	304087040	54	6347
2026-01-02 20:30:01.66	43.23	11.70	-40.2	-41.4	21.5	0.00e+00	0	39	0	309329920	54	5970
2026-01-02 20:30:04.69	42.73	11.84	-39.8	-40.9	22.0	0.00e+00	0	39	0	315621376	52	6323
2026-01-02 20:30:07.72	42.23	11.98	-39.8	-40.9	22.0	0.00e+00	0	39	0	320864256	52	6349
2026-01-02 20:30:10.75	41.72	12.12	-39.9	-41.0	21.9	0.00e+00	0	39	0	327155712	52	6435
2026-01-02 20:30:13.78	41.21	12.26	-40.2	-41.3	21.7	0.00e+00	0	39	0	332398592	52	6644
2026-01-02 20:30:16.80	40.69	12.39	-39.4	-40.4	22.5	0.00e+00	0	39	0	337641472	52	6006
2026-01-02 20:30:19.83	40.17	12.53	-39.2	-40.1	22.7	0.00e+00	0	39	0	343932928	52	5808
2026-01-02 20:30:22.85	39.64	12.66	-39.3	-40.2	22.6	0.00e+00	0	39	0	349175808	52	5890
2026-01-02 20:30:25.88	39.11	12.79	-39.5	-40.5	22.4	0.00e+00	0	39	0	355467264	52	6090
2026-01-02 20:30:28.91	38.57	12.92	-39.8	-40.9	22.0	0.00e+00	0	39	0	360710144	52	6358
2026-01-02 20:30:31.94	38.03	13.05	-40.5	-41.6	21.5	0.00e+00	0	39	0	367001600	52	6907
2026-01-02 20:30:34.97	37.48	13.17	-40.1	-41.1	21.8	0.00e+00	0	39	0	372244480	52	6539
2026-01-02 20:30:38.00	36.93	13.29	-40.2	-41.3	21.6	0.00e+00	0	39	0	377487360	52	6642
2026-01-02 20:30:41.02	36.37	13.41	-40.3	-41.5	21.5	0.00e+00	0	39	0	383778816	52	6823
2026-01-02 20:30:44.05	35.81	13.53	-40.2	-41.4	21.6	0.00e+00	0	39	0	389021696	52	6710
2026-01-02 20:30:47.08	35.25	13.65	-39.9	-40.9	22.1	0.00e+00	0	39	0	395313152	52	6379
2026-01-02 20:30:50.11	34.68	13.76	-39.4	-40.4	22.3	0.00e+00	0	39	0	400556032	52	6022
2026-01-02 20:30:53.14	34.10	13.87	-39.9	-41.0	22.0	0.00e+00	0	39	0	405798912	52	6393
2026-01-02 20:30:56.17	33.52	13.98	-39.6	-40.6	22.4	0.00e+00	0	39	0	412090368	52	6159
2026-01-02 20:30:59.20	32.94	14.09	-39.8	-40.8	22.0	0.00e+00	0	39	0	417333248	52	6278
2026-01-02 20:31:02.23	32.35	14.20	-39.9	-40.9	21.9	0.00e+00	0	39	0	423624704	52	6387
2026-01-02 20:31:05.26	31.76	14.30	-40.2	-41.4	21.6	0.00e+00	0	39	0	428867584	52	6715
2026-01-02 20:31:08.28	31.17	14.40	-39.7	-40.7	22.2	0.00e+00	0	39	0	434110464	52	6225
2026-01-02 20:31:11.31	30.57	14.49	-39.1	-40.1	22.6	0.00e+00	0	39	0	440401920	52	5785
2026-01-02 20:31:14.34	29.96	14.59	-39.0	-39.9	22.9	0.00e+00	0	39	0	445644800	52	5665
2026-01-02 20:31:17.37	29.36	14.68	-39.0	-39.9	23.0	0.00e+00	0	39	0	451936256	50	6357
2026-01-02 20:31:20.39	28.75	14.77	-39.2	-40.2	22.7	0.00e+00	0	39	0	457179136	50	6579
2026-01-02 20:31:23.42	28.13	14.85	-39.1	-40.1	22.8	0.00e+00	0	39	0	463470592	50	6488
2026-01-02 20:31:26.45	27.52	14.93	-39.5	-40.5	22.4	0.00e+00	0	39	0	468713472	50	6837
2026-01-02 20:31:29.48	26.89	15.01	-40.0	-41.1	21.9	0.00e+00	0	39	0	473956352	52	6487
2026-01-02 20:31:32.51	26.27	15.09	-40.4	-41.5	21.7	0.00e+00	0	39	0	480247808	52	6823
2026-01-02 20:31:35.53	25.64	15.16	-40.2	-41.4	21.8	0.00e+00	0	39	0	485490688	52	6696
2026-01-02 20:31:38.56	25.01	15.23	-40.2	-41.2	21.9	0.00e+00	0	39	0	491782144	52	6608
2026-01-02 20:31:41.59	24.38	15.29	-40.0	-41.1	22.0	0.00e+00	0	39	0	497025024	52	6503
2026-01-02 20:31:44.62	23.74	15.36	-39.8	-40.8	22.1	0.00e+00	0	39	0	502267904	52	6312
2026-01-02 20:31:47.65	23.10	15.42	-39.6	-40.6	22.3	0.00e+00	0	39	0	508559360	52	6135
2026-01-02 20:31:50.68	22.46	15.47	-39.2	-40.1	22.7	0.00e+00	0	39	0	513802240	52	5828
2026-01-02 20:31:53.71	21.82	15.52	-39.4	-40.3	22.7	0.00e+00	0	39	0	520093696	52	5945
2026-01-02 20:31:56.74	21.17	15.57	-39.7	-40.8	22.3	0.00e+00	0	39	0	525336576	52	6259
2026-01-02 20:31:59.76	20.53	15.62	-40.2	-41.3	21.8	0.00e+00	0	39	0	531628032	52	6630
2026-01-02 20:32:02.79	19.88	15.66	-40.2	-41.3	21.8	0.00e+00	0	39	0	536870912	52	6638
2026-01-02 20:32:05.82	19.22	15.70	-40.4	-41.6	21.5	0.00e+00	0	39	0	542113792	52	6880
2026-01-02 20:32:08.85	18.57	15.73	-40.6	-41.8	21.5	0.00e+00	0	39	0	548405248	52	7015
2026-01-02 20:32:11.87	17.92	15.76	-40.4	-41.5	21.7	0.00e+00	0	39	0	553648128	52	6805
2026-01-02 20:32:14.90	17.26	15.79	-39.8	-40.9	22.2	0.00e+00	0	39	0	559939584	52	6333
2026-01-02 20:32:17.93	16.61	15.81	-39.9	-40.9	22.1	0.00e+00	0	39	0	565182464	52	6384
2026-01-02 20:32:20.96	15.95	15.83	-39.8	-40.9	22.1	0.00e+00	0	39	0	570425344	52	6318
2026-01-02 20:32:23.99	15.29	15.84	-39.4	-40.4	22.6	0.00e+00	0	39	0	576716800	52	6009
2026-01-02 20:32:27.02	14.63	15.85	-39.9	-40.9	22.2	0.00e+00	0	39	0	581959680	52	6374
2026-01-02 20:32:30.05	13.97	15.86	-40.4	-41.5	21.6	0.00e+00	0	39	0	588251136	52	6802
2026-01-02 20:32:33.07	13.31	15.87	-39.8	-40.9	22.3	0.00e+00	0	39	0	593494016	52	6319
2026-01-02 20:32:36.10	12.65	15.87	-39.5	-40.5	22.6	0.00e+00	0	39	0	599785472	52	6037
2026-01-02 20:32:39.13	11.99	15.86	-39.4	-40.4	22.6	0.00e+00	0	39	0	605028352	52	6026
2026-01-02 20:32:42.16	11.33	15.85	-39.5	-40.5	22.4	0.00e+00	0	39	0	610271232	52	6088
2026-01-02 20:32:45.19	10.67	15.84	-39.9	-40.9	22.2	0.00e+00	0	39	0	616562688	52	6364
2026-01-02 20:32:48.22	10.02	15.83	-40.6	-41.7	21.3	0.00e+00	0	39	0	621805568	52	6970
2026-01-02 20:32:51.25	9.36	15.81	-40.7	-41.8	21.4	0.00e+00	0	39	0	628097024	54	6315
2026-01-02 20:32:54.27	8.70	15.78	-40.1	-41.2	21.9	0.00e+00	0	39	0	633339904	54	5859
2026-01-02 20:32:57.30	8.05	15.76	-39.8	-40.9	22.2	0.00e+00	0	39	0	638582784	52	6350
2026-01-02 20:33:00.33	7.39	15.73	-39.9	-40.9	22.2	0.00e+00	0	39	0	644874240	52	6367
2026-01-02 20:33:03.36	6.74	15.69	-40.0	-41.1	22.1	0.00e+00	0	39	0	650117120	52	6489
2026-01-02 20:33:06.38	6.09	15.65	-39.8	-40.9	22.2	0.00e+00	0	39	0	656408576	52	6348
2026-01-02 20:33:09.42	5.44	15.61	-39.1	-40.1	22.8	0.00e+00	0	39	0	661651456	52	5766
2026-01-02 20:33:12.44	4.79	15.57	-39.2	-40.1	22.8	0.00e+00	0	39	0	667942912	52	5827
2026-01-02 20:33:15.46	4.15	15.52	-39.5	-40.5	22.6	0.00e+00	0	39	0	673185792	52	6075
2026-01-02 20:33:18.49	3.51	15.46	-39.6	-40.6	22.6	0.00e+00	0	39	0	678428672	52	6130
2026-01-02 20:33:21.52	2.87	15.41	-39.6	-40.6	22.5	0.00e+00	0	39	0	684720128	52	6127
2026-01-02 20:33:24.54	2.23	15.35	-39.9	-41.0	22.1	0.00e+00	0	39	0	689963008	52	6435
2026-01-02 20:33:27.57	1.60	15.28	-40.5	-41.7	21.6	0.00e+00	0	39	0	696254464	52	6929
2026-01-02 20:33:30.59	0.96	15.22	-39.8	-40.9	22.3	0.00e+00	0	39	0	701497344	52	6351
2026-01-02 20:33:33.62	0.33	15.15	-39.2	-40.2	22.7	0.00e+00	0	39	0	706740224	52	5870
2026-01-02 20:33:36.65	359.71	15.08	-39.0	-39.9	22.9	0.00e+00	0	39	0	713031680	52	5665
2026-01-02 20:33:39.68	359.08	15.00	-39.0	-39.9	22.9	0.00e+00	0	39	0	718274560	52	5682
2026-01-02 20:33:42.71	358.46	14.92	-39.4	-40.4	22.5	0.00e+00	0	39	0	724566016	52	5996
2026-01-02 20:33:45.73	357.85	14.84	-39.7	-40.7	22.2	0.00e+00	0	39	0	729808896	52	6213
2026-01-02 20:33:48.76	357.24	14.75	-39.7	-40.7	22.2	0.00e+00	0	39	0	735051776	52	6238
2026-01-02 20:33:51.79	356.63	14.66	-40.1	-41.2	21.8	0.00e+00	0	39	0	741343232	52	6571
2026-01-02 20:33:54.81	356.02	14.57	-40.2	-41.3	21.8	0.00e+00	0	39	0	746586112	52	6674
2026-01-02 20:33:57.84	355.42	14.48	-40.1	-41.2	21.9	0.00e+00	0	39	0	752877568	52	6599
2026-01-02 20:34:00.87	354.82	14.38	-39.9	-41.0	22.1	0.00e+00	0	39	0	758120448	52	6439
2026-01-02 20:34:03.90	354.23	14.28	-39.9	-40.9	22.2	0.00e+00	0	39	0	764411904	52	6343
2026-01-02 20:34:06.92	353.64	14.18	-39.9	-41.0	22.1	0.00e+00	0	39	0	769654784	52	6418
2026-01-02 20:34:09.95	353.05	14.08	-39.6	-40.6	22.4	0.00e+00	0	39	0	774897664	52	6130
2026-01-02 20:34:12.98	352.47	13.97	-39.1	-40.0	22.9	0.00e+00	0	39	0	781189120	52	5728
2026-01-02 20:34:16.01	351.89	13.86	-38.9	-39.8	22.9	0.00e+00	0	39	0	786432000	50	6312
2026-01-02 20:34:19.04	351.32	13.75	-39.4	-40.4	22.6	0.00e+00	0	39	0	792723456	50	6730
2026-01-02 20:34:22.07	350.75	13.63	-39.8	-40.9	22.2	0.00e+00	0	39	0	797966336	52	6332
2026-01-02 20:34:25.10	350.18	13.52	-40.7	-41.8	21.3	0.00e+00	0	39	0	803209216	52	7076
2026-01-02 20:34:28.13	349.63	13.40	-40.8	-42.0	21.0	0.00e+00	0	39	0	809500672	54	6446
2026-01-02 20:34:31.16	349.07	13.28	-40.5	-41.6	21.5	0.00e+00	0	39	0	814743552	54	6166
2026-01-02 20:34:34.19	348.52	13.15	-40.7	-41.8	21.3	0.00e+00	0	39	0	821035008	54	6301
2026-01-02 20:34:37.22	347.97	13.03	-40.9	-42.1	20.9	0.00e+00	0	39	0	826277888	54	6483
2026-01-02 20:34:40.25	347.43	12.90	-40.7	-41.9	21.3	0.00e+00	0	39	0	832569344	54	6326
2026-01-02 20:34:43.28	346.90	12.77	-40.7	-41.9	21.3	0.00e+00	0	39	0	837812224	54	6339
2026-01-02 20:34:46.31	346.36	12.64	-40.5	-41.7	21.5	0.00e+00	0	39	0	843055104	54	6178
2026-01-02 20:34:49.34	345.84	12.51	-39.9	-40.9	22.1	0.00e+00	0	39	0	849346560	54	5678
2026-01-02 20:34:52.37	345.32	12.38	-39.7	-40.7	22.3	0.00e+00	0	39	0	854589440	52	6182
2026-01-02 20:34:55.40	344.80	12.24	-40.1	-41.2	21.8	0.00e+00	0	39	0	860880896	52	6571
2026-01-02 20:34:58.43	344.29	12.10	-40.7	-41.9	21.3	0.00e+00	0	39	0	866123776	54	6328
2026-01-02 20:35:01.45	343.78	11.97	-41.1	-42.4	20.8	0.00e+00	0	39	0	871366656	54	6709
2026-01-02 20:35:04.48	343.28	11.83	-40.9	-42.1	21.1	0.00e+00	0	39	0	877658112	54	6520
2026-01-02 20:35:07.51	342.78	11.68	-41.4	-42.7	20.6	0.00e+00	0	39	0	882900992	54	6971
2026-01-02 20:35:10.54	342.29	11.54	-42.8	-44.4	18.9	0.00e+00	0	39	0	889192448	58	6740
2026-01-02 20:35:13.81	341.76	11.39	-44.3	-46.5	17.0	0.00e+00	0	39	0	894435328	60	7678
2026-01-02 20:35:16.55	341.32	11.26	-43.9	-45.9	17.5	0.00e+00	0	39	0	899678208	60	7152
2026-01-02 20:35:19.87	340.80	11.10	-43.4	-45.2	18.3	0.00e+00	0	39	0	905969664	60	6592
2026-01-02 20:35:22.61	340.37	10.96	-43.0	-44.7	18.6	0.00e+00	0	39	0	911212544	60	6232
2026-01-02 20:35:25.92	339.86	10.80	-42.2	-43.7	19.7	0.00e+00	0	39	0	917504000	58	6239
2026-01-02 20:35:28.67	339.44	10.67	-41.9	-43.2	20.0	0.00e+00	0	39	0	922746880	56	6589
2026-01-02 20:35:31.98	338.94	10.50	-41.7	-43.1	20.0	0.00e+00	0	39	0	929038336	56	6495
2026-01-02 20:35:34.72	338.53	10.37	-41.9	-43.3	20.0	0.00e+00	0	39	0	933232640	56	6666
2026-01-02 20:35:38.04	338.03	10.20	-41.7	-43.0	20.3	0.00e+00	0	39	0	939524096	56	6401
2026-01-02 20:35:40.78	337.63	10.06	-41.3	-42.5	20.6	0.00e+00	0	39	0	944766976	56	6087
2026-01-02 20:35:44.10	337.15	9.90	-41.3	-42.5	20.8	0.00e+00	0	39	0	951058432	56	6100
2026-01-02 20:35:46.84	336.76	9.76	-41.3	-42.6	20.6	0.00e+00	0	39	0	956301312	56	6123
2026-01-02 20:35:50.15	336.29	9.59	-41.8	-43.1	20.2	0.00e+00	0	39	0	962592768	56	6502
2026-01-02 20:35:52.90	335.90	9.45	-41.9	-43.2	20.0	0.00e+00	0	39	0	967835648	56	6605
2026-01-02 20:35:56.21	335.44	9.28	-41.7	-43.0	20.1	0.00e+00	0	39	0	974127104	56	6462
2026-01-02 20:35:58.95	335.06	9.14	-41.6	-42.9	20.4	0.00e+00	0	39	0	979369984	56	6370
2026-01-02 20:36:02.27	334.61	8.96	-41.2	-42.5	20.6	0.00e+00	0	39	0	985661440	56	6083
2026-01-02 20:36:05.01	334.24	8.82	-41.0	-42.3	20.7	0.00e+00	0	39	0	990904320	56	5899
2026-01-02 20:36:08.32	333.80	8.65	-40.3	-41.4	21.5	0.00e+00	0	39	0	997195776	54	6019
2026-01-02 20:36:11.06	333.44	8.51	-39.9	-41.0	21.9	0.00e+00	0	39	0	1001390080	54	5709
2026-01-02 20:36:14.38	333.01	8.34	-40.0	-41.1	21.6	0.00e+00	0	39	0	1007681536	54	5825
2026-01-02 20:36:17.12	332.66	8.19	-40.2	-41.4	21.5	0.00e+00	0	39	0	1012924416	54	5981
2026-01-02 20:36:20.44	332.23	8.02	-40.4	-41.5	21.4	0.00e+00	0	39	0	1019215872	54	6069
2026-01-02 20:36:23.17	331.89	7.88	-40.1	-41.2	21.5	0.00e+00	0	39	0	1024458752	54	5875
2026-01-02 20:36:26.49	331.48	7.70	-40.1	-41.3	21.5	0.00e+00	0	39	0	1030750208	54	5900
2026-01-02 20:36:29.23	331.14	7.56	-40.4	-41.6	21.3	0.00e+00	0	39	0	1035993088	54	6119
2026-01-02 20:36:32.55	330.74	7.38	-40.8	-42.1	20.8	0.00e+00	0	39	0	1042284544	54	6479
2026-01-02 20:36:35.29	330.41	7.24	-41.0	-42.3	20.6	0.00e+00	0	39	0	1047527424	54	6617
2026-01-02 20:36:38.61	330.01	7.07	-41.0	-42.3	20.6	0.00e+00	0	39	0	1053818880	54	6633
2026-01-02 20:36:41.35	329.69	6.92	-41.1	-42.4	20.5	0.00e+00	0	39	0	1059061760	54	6729
2026-01-02 20:36:44.66	329.30	6.75	-41.3	-42.6	20.3	0.00e+00	0	39	0	1065353216	54	6865
2026-01-02 20:36:47.40	328.99	6.60	-40.9	-42.2	20.7	0.00e+00	0	39	0	1069547520	54	6560
2026-01-02 20:36:50.72	328.61	6.43	-40.9	-42.1	20.4	0.00e+00	0	39	0	1075838976	54	6517
2026-01-02 20:36:53.46	328.30	6.28	-40.5	-41.7	21.0	0.00e+00	0	39	0	1081081856	54	6220
2026-01-02 20:36:56.77	327.93	6.11	-40.3	-41.4	21.2	0.00e+00	0	39	0	1087373312	54	6001
2026-01-02 20:36:59.51	327.63	5.96	-40.7	-41.9	20.8	0.00e+00	0	39	0	1092616192	54	6365
2026-01-02 20:37:02.83	327.27	5.79	-41.4	-42.8	20.1	0.00e+00	0	39	0	1098907648	54	7047
2026-01-02 20:37:05.57	326.98	5.65	-41.8	-43.2	19.7	0.00e+00	0	39	0	1104150528	56	6609
2026-01-02 20:37:08.88	326.62	5.47	-41.6	-43.0	19.8	0.00e+00	0	39	0	1110441984	56	6437
2026-01-02 20:37:11.62	326.34	5.33	-41.3	-42.7	20.2	0.00e+00	0	39	0	1115684864	56	6181
2026-01-02 20:37:14.94	325.99	5.15	-41.2	-42.5	20.4	0.00e+00	0	39	0	1121976320	56	6036
2026-01-02 20:37:17.68	325.71	5.01	-40.7	-41.9	20.7	0.00e+00	0	39	0	1127219200	54	6356
2026-01-02 20:37:20.99	325.37	4.84	-41.1	-42.4	20.3	0.00e+00	0	39	0	1133510656	54	6704
2026-01-02 20:37:23.73	325.10	4.69	-41.0	-42.3	20.3	0.00e+00	0	39	0	1137704960	54	6682
2026-01-02 20:37:27.05	324.77	4.52	-41.4	-42.7	19.9	0.00e+00	0	39	0	1143996416	54	6982
2026-01-02 20:37:29.79	324.50	4.38	-42.1	-43.6	19.0	0.00e+00	0	39	0	1149239296	56	6900
2026-01-02 20:37:33.11	324.18	4.20	-42.6	-44.3	18.4	0.00e+00	0	39	0	1155530752	56	7445
2026-01-02 20:37:35.85	323.91	4.06	-42.8	-44.6	18.2	0.00e+00	0	39	0	1160773632	58	6881
2026-01-02 20:37:39.17	323.60	3.89	-42.5	-44.2	18.4	0.00e+00	0	39	0	1167065088	58	6607
2026-01-02 20:37:41.91	323.34	3.75	-42.3	-44.0	18.6	0.00e+00	0	39	0	1172307968	58	6394
2026-01-02 20:37:45.23	323.03	3.57	-42.8	-44.5	18.2	0.00e+00	0	39	0	1178599424	58	6801
2026-01-02 20:37:47.96	322.78	3.43	-43.1	-45.0	17.7	0.00e+00	0	39	0	1183842304	58	7181
2026-01-02 20:37:51.28	322.48	3.26	-43.4	-45.4	17.2	0.00e+00	0	39	0	1190133760	58	7556
2026-01-02 20:37:54.02	322.23	3.12	-43.4	-45.5	17.1	0.00e+00	0	39	0	1195376640	58	7626
2026-01-02 20:37:57.34	321.94	2.95	-49.1	-64.2	3.6	9.86e-01	0	39	104	1199570944	60	58706
2026-01-02 20:38:00.08	321.69	2.81	-49.9	-65.1	3.6	1.51e+00	0	39	104	1199570944	60	65157
2026-01-02 20:38:03.40	321.41	2.64	-50.2	-65.4	3.6	1.51e+00	0	39	104	1199570944	60	67164
2026-01-02 20:38:06.14	321.17	2.50	-50.2	-65.4	3.6	1.51e+00	0	39	104	1199570944	60	67398
2026-01-02 20:38:09.46	320.89	2.33	-49.9	-65.3	3.5	1.51e+00	0	39	104	1199570944	60	66424
2026-01-02 20:38:12.20	320.66	2.19	-50.0	-65.3	3.6	1.51e+00	0	39	104	1199570944	60	66347
2026-01-02 20:38:15.52	320.38	2.02	-50.1	-65.3	3.6	1.51e+00	0	39	104	1199570944	60	66681
2026-01-02 20:38:18.26	320.15	1.88	-50.1	-65.3	3.6	1.51e+00	0	39	104	1199570944	60	66705
2026-01-02 20:38:21.58	319.88	1.71	-50.1	-65.3	3.6	1.51e+00	0	39	104	1199570944	60	66686
2026-01-02 20:38:24.32	319.66	1.57	-50.1	-65.3	3.6	1.51e+00	0	39	104	1199570944	60	66473
2026-01-02 20:38:27.64	319.40	1.41	-50.1	-65.3	3.6	1.51e+00	0	39	104	1199570944	60	66502
2026-01-02 20:38:30.38	319.18	1.27	-50.1	-65.3	3.6	1.51e+00	0	39	104	1199570944	60	66686
2026-01-02 20:38:33.70	318.92	1.10	-50.1	-65.4	3.6	1.51e+00	0	39	104	1199570944	60	67036
2026-01-02 20:38:36.44	318.71	0.96	-50.1	-65.3	3.6	1.51e+00	0	39	104	1199570944	60	66667
2026-01-02 20:38:39.76	318.46	0.80	-50.1	-65.3	3.6	1.51e+00	0	39	104	1199570944	60	66792
2026-01-02 20:38:42.50	318.25	0.66	-50.1	-65.3	3.6	1.51e+00	0	39	104	1199570944	60	66868
2026-01-02 20:38:45.82	318.00	0.50	-50.1	-65.3	3.6	1.51e+00	0	39	104	1199570944	60	66715
2026-01-02 20:38:48.56	317.80	0.36	-50.1	-65.3	3.6	1.51e+00	0	39	104	1199570944	60	66585
2026-01-02 20:38:51.87	317.56	0.20	-50.1	-65.3	3.6	1.51e+00	0	39	104	1199570944	60	66779
2026-01-02 20:38:54.61	317.36	0.06	-50.1	-65.3	3.6	1.51e+00	0	39	104	1199570944	60	66641

#Closed at: 2026-01-02 20:38:57
#Recorded file [1199 MB]: D:/lorett/data/35029_260103_082614.dat