passes_logs/2026/01/02/R4.6S_Anadyr/R4.6S_Anadyr__20260102_032637_SUOMI_NPP_rec.log

#Pass ID: 20260102_032637_SUOMI NPP
#Satellite: SUOMI NPP
#Configuration: NPP
#almurnet v.1.7.20251203
#Start time: 2026-01-02 03:26:40

#Version: 2.2.20231116
#Station: R4.6S_Anadyr
#Location: 177.4865 lon 64.73178 lat
#TLE: 1 37849U 11061A   26001.07732418  .00000182  00000+0  10735-3 0  9990
#TLE: 2 37849  98.7795 303.2470 0002580  87.2016 272.9455 14.19520779734739

#Time	Az	El	Level	Level2	SNR	BER	BlckErr	Temp	State	Recorded	gain1	gain2
2026-01-02 03:26:40.59	242.07	0.12	-49.1	-62.9	3.3	1.54e+00	0	36	0	0	60	50611
2026-01-02 03:26:43.61	242.36	0.24	-49.2	-64.4	3.6	1.51e+00	0	37	104	0	60	59783
2026-01-02 03:26:46.64	242.65	0.37	-49.2	-64.4	3.6	1.51e+00	0	37	104	0	60	59999
2026-01-02 03:26:49.67	242.94	0.49	-49.2	-64.4	3.6	1.51e+00	0	37	104	0	60	59704
2026-01-02 03:26:52.69	243.24	0.61	-48.9	-64.1	3.6	1.51e+00	0	37	104	0	60	57724
2026-01-02 03:26:55.72	243.54	0.74	-47.6	-62.8	3.6	1.51e+00	0	37	104	0	60	50139
2026-01-02 03:26:58.75	243.84	0.86	-47.6	-62.8	3.6	1.51e+00	0	37	104	0	60	49689
2026-01-02 03:27:01.77	244.14	0.98	-47.6	-62.7	3.6	1.51e+00	0	37	104	0	60	49591
2026-01-02 03:27:04.80	244.44	1.11	-47.6	-62.7	3.6	1.51e+00	0	37	104	0	60	49144
2026-01-02 03:27:07.83	244.75	1.23	-47.6	-62.7	3.6	1.51e+00	0	37	104	0	60	49392
2026-01-02 03:27:10.86	245.06	1.35	-47.6	-62.7	3.6	1.51e+00	0	37	104	0	60	49489
2026-01-02 03:27:13.89	245.37	1.47	-47.6	-62.7	3.6	1.51e+00	0	37	104	0	60	49472
2026-01-02 03:27:16.92	245.69	1.60	-47.6	-62.7	3.6	1.51e+00	0	37	104	0	60	49267
2026-01-02 03:27:19.95	246.01	1.72	-47.6	-62.7	3.6	1.51e+00	0	37	104	0	60	49405
2026-01-02 03:27:22.98	246.33	1.84	-47.6	-62.7	3.6	1.51e+00	0	37	104	0	60	49381
2026-01-02 03:27:26.00	246.65	1.96	-47.6	-62.7	3.6	1.51e+00	0	37	104	0	60	49408
2026-01-02 03:27:29.03	246.97	2.08	-47.6	-62.6	3.6	1.51e+00	0	37	104	0	60	48793
2026-01-02 03:27:32.07	247.30	2.20	-47.6	-62.6	3.6	1.51e+00	0	37	104	0	60	48890
2026-01-02 03:27:35.10	247.63	2.33	-47.6	-62.7	3.6	1.51e+00	0	37	104	0	60	49321
2026-01-02 03:27:38.12	247.96	2.45	-47.5	-62.5	3.6	1.51e+00	0	37	104	0	60	48162
2026-01-02 03:27:41.15	248.30	2.57	-47.5	-62.6	3.6	1.51e+00	0	37	104	0	60	48806
2026-01-02 03:27:44.18	248.63	2.69	-47.5	-60.7	3.6	1.51e+00	0	37	104	0	60	39131
2026-01-02 03:27:47.21	248.97	2.81	-47.5	-62.5	3.6	1.51e+00	0	37	104	0	60	48170
2026-01-02 03:27:50.24	249.32	2.93	-46.6	-52.8	8.6	2.32e-01	1	37	0	2097152	60	15847
2026-01-02 03:27:53.27	249.66	3.05	-45.8	-50.6	10.5	1.56e-03	75	37	0	7340032	60	12277
2026-01-02 03:27:56.29	250.01	3.17	-41.4	-43.0	17.5	1.28e+00	27	37	104	10485760	56	6425
2026-01-02 03:27:59.32	250.36	3.28	-42.4	-44.4	17.3	7.00e-07	0	37	0	14680064	58	6695
2026-01-02 03:28:02.35	250.72	3.40	-41.6	-43.2	18.7	0.00e+00	92	37	0	19922944	56	6602
2026-01-02 03:28:05.37	251.07	3.52	-41.4	-43.0	18.9	0.00e+00	92	37	0	26214400	56	6431
2026-01-02 03:28:08.40	251.43	3.64	-41.4	-43.0	18.9	0.00e+00	0	37	0	31457280	56	6428
2026-01-02 03:28:11.43	251.79	3.76	-41.1	-42.6	19.3	0.00e+00	92	38	0	36700160	56	6165
2026-01-02 03:28:14.46	252.16	3.87	-40.8	-42.2	19.6	0.00e+00	87	37	0	42991616	56	5868
2026-01-02 03:28:17.49	252.53	3.99	-40.5	-41.9	19.9	0.00e+00	0	37	0	48234496	54	6331
2026-01-02 03:28:20.51	252.90	4.10	-40.5	-41.9	19.9	0.00e+00	0	37	0	54525952	54	6338
2026-01-02 03:28:23.54	253.27	4.22	-40.8	-42.2	19.5	0.00e+00	88	38	0	59768832	54	6552
2026-01-02 03:28:26.57	253.65	4.33	-40.8	-42.2	19.5	0.00e+00	92	38	0	66060288	54	6595
2026-01-02 03:28:29.60	254.02	4.45	-40.7	-42.1	19.6	0.00e+00	0	38	0	71303168	54	6487
2026-01-02 03:28:32.63	254.41	4.56	-40.6	-41.9	19.9	0.00e+00	92	38	0	76546048	54	6360
2026-01-02 03:28:35.66	254.79	4.68	-40.5	-41.9	20.0	0.00e+00	92	38	0	82837504	54	6341
2026-01-02 03:28:38.69	255.18	4.79	-40.8	-42.2	19.8	0.00e+00	0	37	0	88080384	54	6553
2026-01-02 03:28:41.72	255.57	4.90	-40.9	-42.3	19.6	0.00e+00	92	38	0	94371840	54	6660
2026-01-02 03:28:44.74	255.96	5.01	-40.7	-42.0	19.8	0.00e+00	90	38	0	99614720	54	6456
2026-01-02 03:28:47.77	256.36	5.12	-40.4	-41.7	20.2	0.00e+00	0	38	0	104857600	54	6216
2026-01-02 03:28:50.80	256.76	5.23	-40.4	-41.8	20.1	0.00e+00	75	38	0	111149056	54	6262
2026-01-02 03:28:53.83	257.16	5.34	-40.4	-41.7	20.3	0.00e+00	90	38	0	116391936	54	6212
2026-01-02 03:28:56.86	257.56	5.45	-40.4	-41.7	20.3	0.00e+00	91	38	0	122683392	54	6212
2026-01-02 03:28:59.89	257.97	5.56	-40.5	-41.8	20.1	0.00e+00	0	37	0	127926272	54	6279
2026-01-02 03:29:02.91	258.38	5.67	-40.4	-41.7	20.1	0.00e+00	92	38	0	134217728	54	6235
2026-01-02 03:29:05.94	258.79	5.77	-40.6	-41.9	20.0	0.00e+00	92	38	0	139460608	54	6382
2026-01-02 03:29:08.97	259.21	5.88	-40.7	-42.0	19.9	0.00e+00	0	38	0	144703488	54	6453
2026-01-02 03:29:12.00	259.63	5.98	-40.7	-42.0	20.0	0.00e+00	91	38	0	150994944	54	6426
2026-01-02 03:29:15.02	260.05	6.09	-40.6	-41.9	20.2	0.00e+00	78	38	0	156237824	54	6344
2026-01-02 03:29:18.06	260.48	6.19	-40.7	-42.1	20.0	0.00e+00	25	38	0	162529280	54	6491
2026-01-02 03:29:21.08	260.90	6.29	-41.2	-42.7	19.7	0.00e+00	0	38	0	167772160	54	6955
2026-01-02 03:29:24.11	261.34	6.39	-41.3	-42.7	19.4	0.00e+00	82	38	0	173015040	54	6995
2026-01-02 03:29:27.14	261.77	6.49	-41.1	-42.5	19.6	0.00e+00	92	38	0	179306496	54	6803
2026-01-02 03:29:30.17	262.21	6.59	-40.6	-41.9	20.1	0.00e+00	0	38	0	184549376	54	6381
2026-01-02 03:29:33.20	262.65	6.69	-40.7	-42.0	20.1	0.00e+00	92	38	0	190840832	54	6419
2026-01-02 03:29:36.23	263.09	6.79	-40.7	-42.1	20.0	0.00e+00	92	38	0	196083712	54	6484
2026-01-02 03:29:39.26	263.53	6.88	-41.1	-42.5	19.7	0.00e+00	0	38	0	202375168	54	6800
2026-01-02 03:29:42.28	263.98	6.98	-41.0	-42.4	19.7	0.00e+00	0	38	0	207618048	54	6759
2026-01-02 03:29:45.31	264.43	7.07	-41.0	-42.4	19.8	0.00e+00	90	38	0	212860928	54	6727
2026-01-02 03:29:48.34	264.88	7.17	-41.4	-42.8	19.4	0.00e+00	44	38	0	219152384	56	6300
2026-01-02 03:29:51.37	265.34	7.26	-41.3	-42.7	19.3	0.00e+00	0	38	0	224395264	56	6235
2026-01-02 03:29:54.40	265.80	7.35	-41.1	-42.5	19.8	0.00e+00	92	38	0	230686720	56	6064
2026-01-02 03:29:57.42	266.26	7.44	-40.9	-42.3	20.0	0.00e+00	90	38	0	235929600	56	5934
2026-01-02 03:30:00.45	266.72	7.52	-40.9	-42.3	20.0	0.00e+00	0	38	0	241172480	56	5923
2026-01-02 03:30:03.48	267.19	7.61	-40.9	-42.3	19.9	0.00e+00	92	38	0	247463936	54	6617
2026-01-02 03:30:06.51	267.66	7.69	-40.9	-42.3	19.9	0.00e+00	79	38	0	252706816	54	6637
2026-01-02 03:30:09.54	268.13	7.78	-41.2	-42.6	19.6	0.00e+00	0	38	0	258998272	54	6921
2026-01-02 03:30:12.57	268.61	7.86	-41.1	-42.5	19.8	0.00e+00	10	38	0	264241152	54	6796
2026-01-02 03:30:15.59	269.08	7.94	-40.8	-42.2	20.1	0.00e+00	73	38	0	269484032	54	6555
2026-01-02 03:30:18.62	269.56	8.02	-40.5	-41.8	20.3	0.00e+00	78	38	0	275775488	54	6269
2026-01-02 03:30:21.65	270.05	8.10	-41.0	-42.3	19.9	0.00e+00	0	38	0	281018368	54	6669
2026-01-02 03:30:24.67	270.53	8.18	-41.3	-42.7	19.6	0.00e+00	90	38	0	287309824	54	7000
2026-01-02 03:30:27.70	271.02	8.25	-41.3	-42.7	19.7	0.00e+00	92	38	0	292552704	54	6964
2026-01-02 03:30:30.72	271.51	8.32	-41.2	-42.6	19.7	0.00e+00	0	38	0	298844160	54	6899
2026-01-02 03:30:33.75	272.00	8.39	-41.2	-42.6	19.8	0.00e+00	91	38	0	304087040	54	6877
2026-01-02 03:30:36.78	272.49	8.46	-40.9	-42.2	20.0	0.00e+00	92	38	0	309329920	54	6578
2026-01-02 03:30:39.81	272.99	8.53	-40.4	-41.6	20.6	0.00e+00	0	38	0	315621376	54	6155
2026-01-02 03:30:42.84	273.49	8.60	-40.6	-41.9	20.4	0.00e+00	0	38	0	320864256	54	6341
2026-01-02 03:30:45.86	273.99	8.67	-41.5	-42.9	19.4	0.00e+00	92	38	0	327155712	54	7155
2026-01-02 03:30:48.88	274.49	8.73	-42.1	-43.7	18.7	0.00e+00	65	38	0	332398592	56	7000
2026-01-02 03:30:51.91	275.00	8.79	-41.7	-43.2	19.2	0.00e+00	32	38	0	337641472	56	6575
2026-01-02 03:30:54.94	275.50	8.85	-41.0	-42.3	20.0	0.00e+00	91	38	0	343932928	56	5959
2026-01-02 03:30:57.97	276.01	8.91	-40.9	-42.2	20.1	0.00e+00	92	38	0	349175808	56	5855
2026-01-02 03:31:00.99	276.52	8.96	-41.0	-42.3	20.1	0.00e+00	0	38	0	355467264	56	5931
2026-01-02 03:31:04.02	277.03	9.02	-40.4	-41.6	20.6	0.00e+00	92	38	0	360710144	54	6163
2026-01-02 03:31:07.05	277.55	9.07	-40.6	-41.8	20.4	0.00e+00	53	38	0	365953024	54	6309
2026-01-02 03:31:10.07	278.06	9.12	-41.2	-42.5	19.8	0.00e+00	0	38	0	372244480	54	6844
2026-01-02 03:31:13.10	278.58	9.17	-41.2	-42.5	19.9	0.00e+00	0	38	0	377487360	54	6841
2026-01-02 03:31:16.13	279.10	9.22	-40.9	-42.2	20.1	0.00e+00	92	38	0	383778816	54	6589
2026-01-02 03:31:19.16	279.62	9.26	-40.8	-42.1	20.2	0.00e+00	78	38	0	389021696	54	6506
2026-01-02 03:31:22.19	280.15	9.30	-40.9	-42.2	20.2	0.00e+00	0	38	0	395313152	54	6586
2026-01-02 03:31:25.21	280.67	9.35	-40.4	-41.6	20.7	0.00e+00	90	38	0	400556032	54	6171
2026-01-02 03:31:28.24	281.19	9.38	-40.4	-41.7	20.6	0.00e+00	92	38	0	405798912	54	6204
2026-01-02 03:31:31.27	281.72	9.42	-40.7	-42.0	20.3	0.00e+00	0	38	0	412090368	54	6399
2026-01-02 03:31:34.30	282.25	9.46	-40.7	-42.0	20.4	0.00e+00	57	38	0	417333248	54	6392
2026-01-02 03:31:37.33	282.78	9.49	-41.2	-42.6	19.9	0.00e+00	50	38	0	423624704	54	6867
2026-01-02 03:31:40.36	283.31	9.52	-42.3	-43.9	18.6	0.00e+00	0	38	0	428867584	56	7145
2026-01-02 03:31:43.39	283.84	9.55	-42.5	-44.1	18.5	0.00e+00	0	38	0	434110464	56	7330
2026-01-02 03:31:46.41	284.37	9.57	-42.4	-44.0	18.6	0.00e+00	90	38	0	440401920	56	7237
2026-01-02 03:31:49.44	284.91	9.60	-42.0	-43.5	19.0	0.00e+00	85	38	0	445644800	56	6830
2026-01-02 03:31:52.47	285.44	9.62	-42.2	-43.7	18.8	0.00e+00	0	38	0	451936256	56	7000
2026-01-02 03:31:55.50	285.97	9.64	-42.0	-43.6	19.0	0.00e+00	92	38	0	457179136	56	6858
2026-01-02 03:31:58.53	286.51	9.66	-42.1	-43.7	18.9	0.00e+00	90	38	0	463470592	56	6946
2026-01-02 03:32:01.56	287.05	9.67	-41.9	-43.4	19.2	0.00e+00	0	38	0	468713472	56	6720
2026-01-02 03:32:04.59	287.58	9.69	-41.9	-43.4	19.2	0.00e+00	0	38	0	473956352	56	6739
2026-01-02 03:32:07.62	288.12	9.70	-41.1	-42.5	20.0	0.00e+00	79	38	0	480247808	56	6054
2026-01-02 03:32:10.64	288.65	9.71	-41.2	-42.6	19.9	0.00e+00	0	38	0	485490688	56	6120
2026-01-02 03:32:13.67	289.19	9.71	-41.2	-42.5	20.1	0.00e+00	0	38	0	491782144	56	6068
2026-01-02 03:32:16.70	289.73	9.72	-40.8	-42.1	20.3	0.00e+00	92	38	0	497025024	56	5796
2026-01-02 03:32:19.73	290.27	9.72	-40.9	-42.2	20.3	0.00e+00	92	38	0	502267904	56	5849
2026-01-02 03:32:22.76	290.81	9.72	-41.3	-42.7	19.8	0.00e+00	0	38	0	508559360	56	6196
2026-01-02 03:32:25.79	291.34	9.72	-40.9	-42.3	20.1	0.00e+00	39	38	0	513802240	56	5899
2026-01-02 03:32:28.82	291.88	9.71	-40.3	-41.5	20.7	0.00e+00	72	38	0	520093696	54	6077
2026-01-02 03:32:31.84	292.42	9.71	-40.3	-41.6	20.7	0.00e+00	0	38	0	525336576	54	6126
2026-01-02 03:32:34.87	292.95	9.70	-40.2	-41.4	21.0	0.00e+00	0	38	0	531628032	54	5973
2026-01-02 03:32:37.90	293.49	9.69	-39.7	-40.8	21.4	0.00e+00	86	38	0	536870912	52	6300
2026-01-02 03:32:40.92	294.02	9.68	-39.9	-41.0	21.3	0.00e+00	0	38	0	542113792	52	6442
2026-01-02 03:32:43.95	294.56	9.66	-40.3	-41.5	20.7	0.00e+00	0	38	0	548405248	52	6848
2026-01-02 03:32:46.98	295.10	9.64	-40.2	-41.4	20.8	0.00e+00	92	38	0	553648128	52	6743
2026-01-02 03:32:50.01	295.63	9.62	-40.1	-41.3	21.0	0.00e+00	91	38	0	559939584	52	6668
2026-01-02 03:32:53.03	296.16	9.60	-40.3	-41.5	20.8	0.00e+00	0	38	0	565182464	52	6842
2026-01-02 03:32:56.06	296.69	9.58	-40.4	-41.7	20.7	0.00e+00	0	38	0	570425344	52	6938
2026-01-02 03:32:59.09	297.23	9.55	-40.0	-41.2	21.1	0.00e+00	62	38	0	576716800	52	6581
2026-01-02 03:33:02.12	297.76	9.52	-39.7	-40.8	21.4	0.00e+00	0	38	0	581959680	52	6299
2026-01-02 03:33:05.14	298.29	9.49	-39.8	-40.9	21.3	0.00e+00	0	38	0	588251136	52	6361
2026-01-02 03:33:08.17	298.81	9.46	-39.4	-40.5	21.7	0.00e+00	92	38	0	593494016	52	6079
2026-01-02 03:33:11.19	299.34	9.43	-39.0	-40.1	22.1	0.00e+00	33	38	0	598736896	52	5783
2026-01-02 03:33:14.22	299.87	9.39	-38.6	-39.6	22.4	0.00e+00	0	38	0	605028352	50	6128
2026-01-02 03:33:17.25	300.39	9.35	-39.2	-40.3	21.9	0.00e+00	83	38	0	610271232	50	6642
2026-01-02 03:33:20.28	300.92	9.31	-39.5	-40.6	21.5	0.00e+00	29	38	0	616562688	50	6871
2026-01-02 03:33:23.31	301.44	9.27	-39.5	-40.6	21.7	0.00e+00	0	38	0	621805568	52	6164
2026-01-02 03:33:26.34	301.96	9.23	-39.4	-40.5	21.6	0.00e+00	0	38	0	628097024	52	6087
2026-01-02 03:33:29.37	302.48	9.18	-39.7	-40.8	21.4	0.00e+00	45	38	0	633339904	52	6267
2026-01-02 03:33:32.39	302.99	9.13	-39.4	-40.5	21.6	0.00e+00	0	38	0	638582784	52	6072
2026-01-02 03:33:35.42	303.51	9.08	-39.5	-40.6	21.6	0.00e+00	0	38	0	644874240	52	6106
2026-01-02 03:33:38.45	304.02	9.03	-39.7	-40.8	21.3	0.00e+00	91	38	0	650117120	52	6274
2026-01-02 03:33:41.48	304.54	8.98	-40.0	-41.2	21.0	0.00e+00	79	38	0	656408576	52	6568
2026-01-02 03:33:44.51	305.05	8.92	-40.4	-41.7	20.6	0.00e+00	0	38	0	661651456	52	6942
2026-01-02 03:33:47.54	305.55	8.86	-40.0	-41.2	20.9	0.00e+00	26	38	0	666894336	52	6569
2026-01-02 03:33:50.56	306.06	8.81	-39.8	-41.0	21.3	0.00e+00	90	38	0	673185792	52	6407
2026-01-02 03:33:53.59	306.56	8.74	-39.5	-40.6	21.5	0.00e+00	0	38	0	678428672	52	6135
2026-01-02 03:33:56.62	307.07	8.68	-38.8	-39.8	22.3	0.00e+00	0	38	0	684720128	50	6258
2026-01-02 03:33:59.65	307.57	8.62	-38.6	-39.6	22.4	0.00e+00	77	38	0	689963008	50	6121
2026-01-02 03:34:02.68	308.06	8.55	-38.4	-39.4	22.5	0.00e+00	0	38	0	696254464	50	5993
2026-01-02 03:34:05.71	308.56	8.48	-38.8	-39.8	22.2	0.00e+00	0	38	0	701497344	50	6280
2026-01-02 03:34:08.73	309.05	8.41	-38.9	-40.0	21.9	0.00e+00	81	38	0	706740224	50	6418
2026-01-02 03:34:11.76	309.54	8.34	-38.9	-40.0	22.0	0.00e+00	70	38	0	713031680	50	6398
2026-01-02 03:34:14.79	310.03	8.27	-39.1	-40.1	21.9	0.00e+00	0	38	0	718274560	50	6534
2026-01-02 03:34:17.82	310.52	8.20	-39.1	-40.1	21.9	0.00e+00	0	38	0	724566016	50	6538
2026-01-02 03:34:20.85	311.00	8.12	-39.4	-40.5	21.7	0.00e+00	19	38	0	729808896	50	6844
2026-01-02 03:34:23.87	311.48	8.04	-38.8	-39.9	21.9	0.00e+00	0	38	0	735051776	50	6339
2026-01-02 03:34:26.90	311.96	7.97	-38.1	-39.1	22.7	0.00e+00	0	38	0	741343232	50	5771
2026-01-02 03:34:29.93	312.44	7.89	-38.2	-39.2	22.6	0.00e+00	92	38	0	746586112	50	5863
2026-01-02 03:34:32.96	312.91	7.80	-38.9	-40.0	22.0	0.00e+00	41	38	0	752877568	50	6401
2026-01-02 03:34:35.99	313.38	7.72	-39.3	-40.4	21.6	0.00e+00	0	38	0	758120448	50	6709
2026-01-02 03:34:39.01	313.85	7.64	-39.4	-40.5	21.6	0.00e+00	64	38	0	764411904	50	6817
2026-01-02 03:34:42.04	314.32	7.55	-39.5	-40.7	21.3	0.00e+00	92	38	0	769654784	50	6932
2026-01-02 03:34:45.07	314.78	7.47	-39.6	-40.8	21.2	0.00e+00	0	38	0	774897664	50	7009
2026-01-02 03:34:48.10	315.24	7.38	-40.2	-41.4	20.6	0.00e+00	4	38	0	781189120	52	6749
2026-01-02 03:34:51.13	315.70	7.29	-40.7	-42.1	20.1	0.00e+00	76	38	0	786432000	54	6469
2026-01-02 03:34:54.15	316.15	7.20	-41.2	-42.6	19.6	0.00e+00	0	38	0	792723456	54	6910
2026-01-02 03:34:57.18	316.60	7.11	-41.2	-42.6	19.6	0.00e+00	0	38	0	797966336	54	6917
2026-01-02 03:35:00.21	317.05	7.01	-41.1	-42.5	19.6	0.00e+00	0	38	0	803209216	54	6821
2026-01-02 03:35:03.24	317.50	6.92	-41.5	-43.0	19.1	0.00e+00	0	38	0	809500672	54	7231
2026-01-02 03:35:06.26	317.94	6.82	-40.9	-42.3	19.8	0.00e+00	0	38	0	814743552	54	6669
2026-01-02 03:35:08.98	318.34	6.74	-41.0	-42.4	19.7	0.00e+00	0	38	0	821035008	54	6725
2026-01-02 03:35:12.30	318.82	6.63	-41.2	-42.7	19.4	0.00e+00	1	38	0	827326464	54	6930
2026-01-02 03:35:15.04	319.21	6.54	-41.5	-43.0	19.1	0.00e+00	0	38	0	831520768	54	7226
2026-01-02 03:35:18.36	319.69	6.43	-41.6	-43.2	19.0	0.00e+00	0	38	0	837812224	54	7371
2026-01-02 03:35:21.09	320.08	6.34	-42.1	-43.8	18.5	0.00e+00	92	38	0	843055104	56	7034
2026-01-02 03:35:24.41	320.54	6.23	-43.0	-45.1	17.1	0.00e+00	65	38	0	849346560	58	7286
2026-01-02 03:35:27.15	320.93	6.14	-43.1	-45.2	16.9	0.00e+00	27	38	0	854589440	58	7387
2026-01-02 03:35:30.47	321.39	6.03	-42.4	-44.2	18.0	0.00e+00	0	38	0	860880896	58	6558
2026-01-02 03:35:33.20	321.77	5.94	-42.2	-43.9	18.2	0.00e+00	0	38	0	866123776	58	6374
2026-01-02 03:35:36.52	322.22	5.82	-42.3	-44.1	18.2	0.00e+00	0	38	0	872415232	56	7256
2026-01-02 03:35:39.26	322.60	5.73	-42.0	-43.7	18.4	0.00e+00	0	38	0	877658112	56	6993
2026-01-02 03:35:42.58	323.05	5.61	-42.5	-44.4	17.7	0.00e+00	0	38	0	883949568	56	7566
2026-01-02 03:35:45.32	323.41	5.51	-42.5	-44.4	17.8	0.00e+00	0	38	0	889192448	56	7546
2026-01-02 03:35:48.63	323.86	5.40	-42.5	-44.4	17.6	0.00e+00	0	38	0	895483904	58	6763
2026-01-02 03:35:51.37	324.22	5.30	-42.2	-44.0	18.0	0.00e+00	76	38	0	899678208	58	6434
2026-01-02 03:35:54.69	324.65	5.18	-41.6	-43.2	18.7	0.00e+00	70	38	0	905969664	56	6591
2026-01-02 03:35:57.43	325.01	5.08	-42.0	-43.8	18.3	0.00e+00	0	38	0	911212544	56	7012
2026-01-02 03:36:00.74	325.44	4.96	-42.4	-44.2	17.9	0.00e+00	0	38	0	917504000	56	7366
2026-01-02 03:36:03.49	325.80	4.86	-42.4	-44.3	17.6	0.00e+00	67	38	0	922746880	56	7451
2026-01-02 03:36:06.80	326.22	4.74	-42.2	-44.0	18.1	0.00e+00	0	38	0	929038336	56	7245
2026-01-02 03:36:09.54	326.57	4.63	-41.7	-43.4	18.4	0.00e+00	0	38	0	934281216	56	6734
2026-01-02 03:36:12.87	326.99	4.51	-41.2	-42.7	19.0	0.00e+00	0	38	0	940572672	56	6198
2026-01-02 03:36:15.61	327.33	4.41	-41.3	-42.8	18.9	0.00e+00	0	38	0	945815552	56	6313
2026-01-02 03:36:18.92	327.74	4.28	-41.5	-43.2	18.6	0.00e+00	0	38	0	952107008	56	6553
2026-01-02 03:36:21.66	328.08	4.18	-41.7	-43.5	18.3	0.00e+00	90	38	0	957349888	56	6772
2026-01-02 03:36:24.98	328.48	4.06	-41.8	-43.6	18.0	0.00e+00	90	38	0	963641344	56	6869
2026-01-02 03:36:27.72	328.81	3.95	-42.1	-44.0	17.7	0.00e+00	0	38	0	967835648	56	7226
2026-01-02 03:36:31.04	329.21	3.82	-42.2	-44.1	17.7	0.00e+00	0	38	0	974127104	56	7310
2026-01-02 03:36:33.78	329.54	3.72	-42.1	-44.1	17.5	0.00e+00	26	38	0	979369984	56	7267
2026-01-02 03:36:37.09	329.93	3.59	-41.8	-43.6	17.8	0.00e+00	17	38	0	985661440	56	6911
2026-01-02 03:36:39.83	330.26	3.49	-41.2	-42.9	18.4	0.00e+00	0	38	0	990904320	56	6318
2026-01-02 03:36:43.15	330.64	3.36	-41.6	-43.6	17.3	0.00e+00	0	38	0	997195776	56	6856
2026-01-02 03:36:45.89	330.96	3.25	-42.9	-45.8	14.6	0.00e+00	0	38	0	1002438656	58	7945
2026-01-02 03:36:49.21	331.34	3.12	-43.4	-47.7	11.3	5.28e-04	0	38	0	1008730112	58	9887
2026-01-02 03:36:51.95	331.66	3.02	-44.0	-51.2	6.5	1.74e-01	0	38	0	1013972992	60	13192
2026-01-02 03:36:55.26	332.03	2.89	-48.8	-63.9	3.5	1.51e+00	0	38	104	1015021568	60	56854
2026-01-02 03:36:58.00	332.34	2.78	-49.1	-64.3	3.6	1.51e+00	0	38	104	1015021568	60	59070
2026-01-02 03:37:01.32	332.71	2.65	-49.1	-64.3	3.6	1.51e+00	0	38	104	1015021568	60	59386
2026-01-02 03:37:04.06	333.01	2.54	-49.1	-64.2	3.6	1.51e+00	0	38	104	1015021568	60	58947
2026-01-02 03:37:07.38	333.38	2.41	-49.0	-64.3	3.6	1.51e+00	0	38	104	1015021568	60	58968
2026-01-02 03:37:10.13	333.68	2.30	-49.2	-64.4	3.6	1.51e+00	0	38	104	1015021568	60	59908
2026-01-02 03:37:13.45	334.04	2.17	-49.1	-64.3	3.6	1.51e+00	0	38	104	1015021568	60	59293
2026-01-02 03:37:16.19	334.33	2.06	-49.1	-64.3	3.6	1.51e+00	0	38	104	1015021568	60	59236
2026-01-02 03:37:19.50	334.68	1.93	-49.1	-64.3	3.6	1.51e+00	0	38	104	1015021568	60	59162
2026-01-02 03:37:22.24	334.97	1.82	-49.1	-64.3	3.6	1.51e+00	0	38	104	1015021568	60	59311
2026-01-02 03:37:25.56	335.32	1.69	-49.1	-64.3	3.6	1.51e+00	0	38	104	1015021568	60	59239
2026-01-02 03:37:28.30	335.60	1.58	-49.0	-64.3	3.6	1.51e+00	0	38	104	1015021568	60	58977
2026-01-02 03:37:31.62	335.95	1.45	-49.1	-64.2	3.6	1.51e+00	0	38	104	1015021568	60	58956
2026-01-02 03:37:34.36	336.23	1.34	-49.1	-64.3	3.6	1.51e+00	0	38	104	1015021568	60	59306
2026-01-02 03:37:37.68	336.57	1.20	-49.1	-64.3	3.6	1.51e+00	0	38	104	1015021568	60	59513
2026-01-02 03:37:40.42	336.84	1.09	-49.0	-64.3	3.6	1.51e+00	0	38	104	1015021568	60	59229
2026-01-02 03:37:43.73	337.17	0.96	-49.1	-64.3	3.6	1.51e+00	0	38	104	1015021568	60	59519
2026-01-02 03:37:46.47	337.45	0.85	-49.1	-64.4	3.6	1.51e+00	0	38	104	1015021568	60	59815
2026-01-02 03:37:49.79	337.77	0.72	-49.2	-64.3	3.6	1.51e+00	0	38	104	1015021568	60	59611
2026-01-02 03:37:52.54	338.04	0.61	-49.2	-64.3	3.6	1.51e+00	0	38	104	1015021568	60	59619
2026-01-02 03:37:55.86	338.36	0.47	-49.1	-64.3	3.6	1.51e+00	0	38	104	1015021568	60	59166
2026-01-02 03:37:58.60	338.63	0.36	-49.1	-64.2	3.6	1.51e+00	0	38	104	1015021568	60	58890
2026-01-02 03:38:01.92	338.94	0.23	-49.1	-64.3	3.6	1.51e+00	0	38	104	1015021568	60	59497
2026-01-02 03:38:04.66	339.20	0.12	-49.2	-64.4	3.6	1.51e+00	0	38	104	1015021568	60	59804
2026-01-02 03:38:07.98	339.52	-0.02	-49.1	-64.3	3.6	1.51e+00	0	38	104	1015021568	60	59497

#Closed at: 2026-01-02 03:38:08
#Recorded file [1015 MB]: D:/lorett/data/35029_260102_152640.dat