passes_logs/2026/01/02/R4.6S_Anadyr/R4.6S_Anadyr__20260102_000154_SUOMI_NPP_rec.log

#Pass ID: 20260102_000154_SUOMI NPP
#Satellite: SUOMI NPP
#Configuration: NPP
#almurnet v.1.7.20251203
#Start time: 2026-01-02 00:01:54

#Version: 2.2.20231116
#Station: R4.6S_Anadyr
#Location: 177.4865 lon 64.73178 lat
#TLE: 1 37849U 11061A   26001.07732418  .00000182  00000+0  10735-3 0  9990
#TLE: 2 37849  98.7795 303.2470 0002580  87.2016 272.9455 14.19520779734739

#Time	Az	El	Level	Level2	SNR	BER	BlckErr	Temp	State	Recorded	gain1	gain2
2026-01-02 00:01:54.58	149.93	0.03	-49.3	-61.8	3.5	1.52e+00	0	37	0	0	60	43333
2026-01-02 00:01:58.49	149.92	0.27	-49.3	-64.5	3.6	1.51e+00	0	38	104	0	60	61028
2026-01-02 00:02:02.39	149.90	0.51	-49.3	-64.6	3.6	1.51e+00	0	38	104	0	60	61068
2026-01-02 00:02:06.31	149.89	0.75	-48.9	-64.1	3.6	1.51e+00	0	38	104	0	60	58067
2026-01-02 00:02:10.21	149.87	0.99	-47.9	-63.1	3.6	1.51e+00	0	38	104	0	60	51487
2026-01-02 00:02:14.12	149.86	1.23	-47.6	-62.9	3.6	1.51e+00	0	38	104	0	60	50411
2026-01-02 00:02:18.02	149.84	1.48	-47.6	-62.9	3.6	1.51e+00	0	38	104	0	60	50188
2026-01-02 00:02:21.93	149.82	1.73	-47.6	-62.8	3.6	1.51e+00	0	39	104	0	60	50012
2026-01-02 00:02:25.84	149.80	1.97	-47.6	-62.6	3.6	1.51e+00	0	38	104	0	60	49013
2026-01-02 00:02:29.75	149.79	2.23	-47.6	-62.7	3.6	1.51e+00	0	39	104	0	60	49233
2026-01-02 00:02:33.66	149.77	2.48	-47.6	-62.7	3.6	1.51e+00	0	39	104	0	60	49162
2026-01-02 00:02:37.57	149.75	2.74	-47.6	-62.6	3.6	1.51e+00	0	39	104	0	60	48641
2026-01-02 00:02:41.47	149.73	3.00	-47.6	-62.5	3.6	1.51e+00	0	39	104	0	60	48241
2026-01-02 00:02:45.38	149.71	3.26	-47.1	-54.8	5.9	4.30e-01	92	39	0	2097152	60	19945
2026-01-02 00:02:49.28	149.69	3.52	-45.5	-49.7	12.0	4.16e-04	91	39	0	9437184	60	10980
2026-01-02 00:02:53.19	149.67	3.79	-47.7	-60.3	3.8	1.49e+00	0	39	104	14680064	60	37455
2026-01-02 00:02:57.11	149.64	4.06	-46.6	-53.0	8.3	1.82e-02	0	39	0	16777216	60	16055
2026-01-02 00:03:01.02	149.62	4.33	-41.4	-42.9	18.9	0.00e+00	0	39	0	24117248	56	6387
2026-01-02 00:03:04.92	149.60	4.60	-41.3	-42.8	19.1	0.00e+00	90	39	0	31457280	56	6301
2026-01-02 00:03:08.84	149.57	4.88	-41.3	-42.8	19.2	0.00e+00	82	39	0	38797312	56	6287
2026-01-02 00:03:12.75	149.55	5.16	-41.2	-42.6	19.3	0.00e+00	89	39	0	46137344	56	6157
2026-01-02 00:03:16.65	149.52	5.44	-41.4	-42.9	19.2	0.00e+00	0	39	0	53477376	56	6371
2026-01-02 00:03:20.55	149.50	5.73	-41.1	-42.5	19.6	0.00e+00	0	39	0	60817408	56	6063
2026-01-02 00:03:24.46	149.47	6.02	-40.7	-42.0	20.1	0.00e+00	91	39	0	68157440	56	5735
2026-01-02 00:03:28.37	149.44	6.31	-41.0	-42.4	19.7	0.00e+00	92	39	0	75497472	54	6712
2026-01-02 00:03:32.28	149.42	6.61	-40.8	-42.1	20.0	0.00e+00	93	39	0	82837504	54	6515
2026-01-02 00:03:36.18	149.39	6.91	-40.8	-42.1	20.0	0.00e+00	0	39	0	90177536	54	6511
2026-01-02 00:03:40.10	149.36	7.21	-40.3	-41.6	20.5	0.00e+00	0	39	0	97517568	54	6122
2026-01-02 00:03:44.00	149.32	7.52	-40.3	-41.6	20.5	0.00e+00	91	39	0	104857600	54	6134
2026-01-02 00:03:47.91	149.29	7.83	-40.0	-41.3	20.8	0.00e+00	91	39	0	112197632	54	5900
2026-01-02 00:03:51.82	149.26	8.14	-40.3	-41.6	20.6	0.00e+00	92	39	0	119537664	54	6108
2026-01-02 00:03:55.73	149.23	8.46	-39.7	-40.9	21.2	0.00e+00	0	39	0	126877696	52	6354
2026-01-02 00:03:59.64	149.19	8.78	-39.8	-41.0	21.1	0.00e+00	0	39	0	134217728	52	6439
2026-01-02 00:04:03.55	149.15	9.11	-39.7	-40.9	21.2	0.00e+00	91	39	0	141557760	52	6356
2026-01-02 00:04:07.46	149.12	9.44	-39.7	-40.8	21.4	0.00e+00	92	39	0	148897792	52	6297
2026-01-02 00:04:11.36	149.08	9.77	-39.7	-40.8	21.4	0.00e+00	91	39	0	156237824	52	6270
2026-01-02 00:04:15.27	149.04	10.11	-39.5	-40.6	21.7	0.00e+00	0	39	0	163577856	52	6122
2026-01-02 00:04:19.18	149.00	10.46	-39.2	-40.3	21.8	0.00e+00	0	39	0	170917888	52	5908
2026-01-02 00:04:23.09	148.96	10.81	-39.3	-40.4	21.8	0.00e+00	90	39	0	178257920	52	5992
2026-01-02 00:04:26.99	148.91	11.16	-39.2	-40.3	21.8	0.00e+00	56	39	0	185597952	52	5948
2026-01-02 00:04:30.89	148.87	11.52	-39.3	-40.4	21.8	0.00e+00	92	39	0	192937984	52	6015
2026-01-02 00:04:34.80	148.82	11.89	-39.3	-40.4	21.8	0.00e+00	33	39	0	200278016	52	6027
2026-01-02 00:04:38.71	148.78	12.26	-39.3	-40.4	21.9	0.00e+00	0	39	0	207618048	52	5969
2026-01-02 00:04:42.61	148.73	12.63	-39.3	-40.4	21.9	0.00e+00	0	39	0	214958080	52	5994
2026-01-02 00:04:46.52	148.68	13.01	-39.1	-40.1	22.1	0.00e+00	64	39	0	222298112	52	5807
2026-01-02 00:04:50.42	148.62	13.40	-39.2	-40.3	21.8	0.00e+00	92	39	0	229638144	52	5937
2026-01-02 00:04:54.33	148.57	13.80	-39.1	-40.2	22.0	0.00e+00	67	39	0	236978176	52	5886
2026-01-02 00:04:58.24	148.51	14.20	-39.2	-40.3	22.0	0.00e+00	0	39	0	244318208	52	5903
2026-01-02 00:05:02.15	148.46	14.60	-39.1	-40.2	22.0	0.00e+00	8	39	0	251658240	52	5830
2026-01-02 00:05:06.06	148.40	15.02	-38.8	-39.8	22.4	0.00e+00	91	39	0	258998272	52	5605
2026-01-02 00:05:09.98	148.33	15.44	-38.9	-39.9	22.3	0.00e+00	91	39	0	266338304	50	6364
2026-01-02 00:05:13.89	148.27	15.87	-38.5	-39.5	22.2	0.00e+00	0	39	0	273678336	50	6055
2026-01-02 00:05:17.80	148.20	16.31	-38.3	-39.3	22.7	0.00e+00	0	39	0	281018368	50	5933
2026-01-02 00:05:21.71	148.14	16.75	-38.2	-39.2	22.9	0.00e+00	66	39	0	288358400	50	5835
2026-01-02 00:05:25.61	148.07	17.20	-38.2	-39.2	22.9	0.00e+00	92	39	0	295698432	50	5859
2026-01-02 00:05:29.52	147.99	17.67	-38.3	-39.2	23.0	0.00e+00	93	39	0	303038464	50	5891
2026-01-02 00:05:33.44	147.92	18.14	-38.3	-39.2	23.0	0.00e+00	51	39	0	310378496	50	5880
2026-01-02 00:05:37.35	147.84	18.62	-38.0	-38.9	23.2	0.00e+00	0	39	0	317718528	50	5686
2026-01-02 00:05:41.27	147.75	19.11	-37.9	-38.8	23.3	0.00e+00	0	39	0	325058560	48	6267
2026-01-02 00:05:45.18	147.67	19.61	-38.1	-39.0	23.1	0.00e+00	91	40	0	332398592	48	6464
2026-01-02 00:05:49.09	147.58	20.11	-38.1	-39.1	23.0	0.00e+00	91	40	0	339738624	48	6471
2026-01-02 00:05:53.01	147.49	20.63	-38.1	-39.0	23.2	0.00e+00	86	40	0	347078656	48	6433
2026-01-02 00:05:56.92	147.39	21.16	-37.8	-38.7	23.4	0.00e+00	0	40	0	354418688	48	6193
2026-01-02 00:06:00.84	147.29	21.71	-37.7	-38.6	23.5	0.00e+00	0	40	0	361758720	48	6143
2026-01-02 00:06:04.75	147.19	22.26	-37.7	-38.6	23.5	0.00e+00	93	40	0	369098752	48	6141
2026-01-02 00:06:08.67	147.08	22.83	-37.9	-38.8	23.3	0.00e+00	92	40	0	376438784	48	6293
2026-01-02 00:06:12.59	146.97	23.41	-37.3	-38.1	23.9	0.00e+00	90	40	0	383778816	48	5802
2026-01-02 00:06:16.57	146.85	24.01	-37.0	-37.8	24.1	0.00e+00	0	40	0	391118848	48	5625
2026-01-02 00:06:20.55	146.73	24.62	-37.3	-38.1	23.9	0.00e+00	61	40	0	398458880	48	5797
2026-01-02 00:06:24.54	146.60	25.26	-37.9	-38.8	23.4	0.00e+00	92	40	0	405798912	48	6269
2026-01-02 00:06:28.52	146.46	25.90	-37.9	-38.7	23.5	0.00e+00	92	40	0	413138944	48	6230
2026-01-02 00:06:32.56	146.32	26.57	-38.0	-38.8	23.4	0.00e+00	0	39	0	421527552	48	6303
2026-01-02 00:06:36.56	146.17	27.25	-38.3	-39.2	23.2	0.00e+00	66	40	0	428867584	48	6544
2026-01-02 00:06:40.55	146.01	27.95	-38.4	-39.4	23.0	0.00e+00	91	40	0	436207616	48	6701
2026-01-02 00:06:44.53	145.85	28.66	-38.0	-38.9	23.4	0.00e+00	90	40	0	443547648	48	6355
2026-01-02 00:06:48.52	145.68	29.40	-38.4	-39.3	22.9	0.00e+00	0	40	0	450887680	48	6648
2026-01-02 00:06:52.51	145.50	30.15	-39.5	-40.5	22.2	0.00e+00	0	40	0	458227712	50	6830
2026-01-02 00:06:56.49	145.31	30.92	-39.4	-40.4	22.3	0.00e+00	72	40	0	465567744	50	6739
2026-01-02 00:07:00.51	145.11	31.72	-39.6	-40.6	21.9	0.00e+00	91	40	0	473956352	50	6918
2026-01-02 00:07:04.56	144.89	32.54	-40.9	-42.2	20.3	0.00e+00	0	40	0	481296384	54	6544
2026-01-02 00:07:08.59	144.67	33.39	-41.0	-42.3	20.4	0.00e+00	92	40	0	488636416	54	6630
2026-01-02 00:07:12.64	144.43	34.26	-41.9	-43.4	19.6	0.00e+00	92	40	0	495976448	56	6715
2026-01-02 00:07:16.67	144.18	35.15	-41.1	-42.3	20.6	0.00e+00	0	40	0	503316480	56	5961
2026-01-02 00:07:20.71	143.91	36.07	-40.0	-41.2	21.6	0.00e+00	0	40	0	511705088	52	6559
2026-01-02 00:07:24.75	143.63	37.02	-40.5	-41.7	20.9	0.00e+00	92	39	0	519045120	54	6245
2026-01-02 00:07:28.79	143.33	37.99	-39.2	-40.2	22.4	0.00e+00	92	40	0	526385152	52	5848
2026-01-02 00:07:32.83	143.00	39.00	-39.3	-40.3	22.4	0.00e+00	0	40	0	533725184	50	6658
2026-01-02 00:07:36.86	142.66	40.02	-41.0	-42.4	20.7	0.00e+00	0	40	0	542113792	54	6706
2026-01-02 00:07:40.90	142.29	41.08	-40.2	-41.3	21.6	0.00e+00	71	40	0	549453824	54	5910
2026-01-02 00:07:44.94	141.90	42.17	-41.0	-42.3	20.6	0.00e+00	92	40	0	556793856	54	6646
2026-01-02 00:07:48.98	141.48	43.30	-41.6	-43.1	20.1	0.00e+00	0	40	0	564133888	54	7280
2026-01-02 00:07:53.02	141.03	44.45	-41.1	-42.4	20.7	0.00e+00	54	40	0	571473920	56	6000
2026-01-02 00:07:57.06	140.54	45.64	-39.2	-40.1	22.6	0.00e+00	91	40	0	579862528	52	5813
2026-01-02 00:08:01.09	140.01	46.85	-41.1	-42.5	20.1	0.00e+00	33	40	0	587202560	54	6806
2026-01-02 00:08:05.14	139.43	48.11	-40.1	-41.2	21.4	0.00e+00	33	40	0	594542592	54	5848
2026-01-02 00:08:09.18	138.81	49.40	-38.9	-39.9	22.8	0.00e+00	92	40	0	601882624	52	5646
2026-01-02 00:08:13.22	138.13	50.72	-37.0	-37.8	24.3	0.00e+00	92	40	0	610271232	48	5583
2026-01-02 00:08:17.25	137.39	52.07	-37.9	-38.8	23.6	0.00e+00	0	40	0	617611264	48	6276
2026-01-02 00:08:21.29	136.57	53.45	-39.4	-40.6	22.2	0.00e+00	0	40	0	624951296	52	6130
2026-01-02 00:08:25.32	135.67	54.87	-37.9	-38.8	23.5	0.00e+00	92	40	0	632291328	48	6308
2026-01-02 00:08:29.36	134.67	56.32	-37.0	-37.9	24.1	0.00e+00	92	40	0	639631360	48	5640
2026-01-02 00:08:33.40	133.56	57.80	-38.2	-39.1	23.3	0.00e+00	0	40	0	648019968	48	6475
2026-01-02 00:08:37.43	132.32	59.30	-38.9	-39.9	22.8	0.00e+00	58	40	0	655360000	50	6359
2026-01-02 00:08:41.47	130.92	60.83	-38.0	-38.9	23.5	0.00e+00	92	40	0	662700032	50	5662
2026-01-02 00:08:45.50	129.34	62.37	-37.3	-38.1	24.1	0.00e+00	68	40	0	670040064	48	5820
2026-01-02 00:08:49.54	127.55	63.94	-37.6	-38.4	23.8	0.00e+00	0	40	0	677380096	48	6022
2026-01-02 00:08:53.58	125.48	65.50	-37.5	-38.4	23.9	0.00e+00	90	40	0	685768704	48	5979
2026-01-02 00:08:57.61	123.11	67.07	-39.6	-40.7	22.0	0.00e+00	71	40	0	693108736	50	6975
2026-01-02 00:09:01.65	120.35	68.62	-39.3	-40.2	22.3	0.00e+00	0	40	0	700448768	52	5896
2026-01-02 00:09:05.69	117.13	70.15	-40.0	-41.1	21.8	0.00e+00	0	40	0	707788800	54	5819
2026-01-02 00:09:09.72	113.34	71.62	-38.9	-39.9	22.6	0.00e+00	92	40	0	716177408	50	6358
2026-01-02 00:09:13.76	108.85	73.03	-41.8	-43.3	20.3	0.00e+00	90	40	0	723517440	56	6672
2026-01-02 00:09:17.80	103.54	74.33	-38.7	-39.7	22.7	0.00e+00	0	40	0	730857472	48	6976
2026-01-02 00:09:21.84	97.28	75.50	-38.8	-39.8	22.7	0.00e+00	0	40	0	738197504	50	6276
2026-01-02 00:09:25.87	90.00	76.47	-37.8	-38.6	23.4	0.00e+00	46	40	0	745537536	48	6164
2026-01-02 00:09:29.91	81.69	77.21	-40.6	-41.7	21.4	0.00e+00	91	40	0	753926144	52	6999
2026-01-02 00:09:33.95	72.54	77.65	-38.3	-39.1	23.2	0.00e+00	0	40	0	761266176	50	5809
2026-01-02 00:09:37.98	62.99	77.78	-41.8	-43.3	19.7	0.00e+00	74	40	0	768606208	54	7470
2026-01-02 00:09:42.02	53.47	77.56	-39.5	-40.6	22.1	0.00e+00	60	40	0	775946240	50	6907
2026-01-02 00:09:46.06	44.53	77.04	-39.7	-40.8	22.0	0.00e+00	0	40	0	784334848	52	6276
2026-01-02 00:09:50.10	36.48	76.23	-41.7	-43.2	19.8	0.00e+00	0	40	0	791674880	54	7351
2026-01-02 00:09:54.13	29.49	75.20	-40.5	-41.7	21.5	0.00e+00	92	40	0	799014912	56	5527
2026-01-02 00:09:58.17	23.50	73.99	-40.8	-42.0	21.0	0.00e+00	92	40	0	806354944	56	5755
2026-01-02 00:10:02.20	18.45	72.66	-41.3	-42.7	19.7	0.00e+00	0	40	0	813694976	54	6961
2026-01-02 00:10:06.23	14.17	71.24	-41.5	-42.9	20.1	0.00e+00	0	40	0	822083584	54	7128
2026-01-02 00:10:10.27	10.54	69.75	-39.3	-40.3	22.6	0.00e+00	14	40	0	829423616	52	5940
2026-01-02 00:10:14.31	7.45	68.22	-37.9	-38.8	23.4	0.00e+00	74	40	0	836763648	50	5613
2026-01-02 00:10:18.35	4.80	66.66	-38.2	-39.1	23.5	0.00e+00	0	40	0	844103680	50	5788
2026-01-02 00:10:22.38	2.52	65.10	-36.7	-37.6	24.4	0.00e+00	0	40	0	851443712	46	6110
2026-01-02 00:10:26.42	0.54	63.54	-37.6	-38.5	23.7	0.00e+00	68	40	0	859832320	48	6074
2026-01-02 00:10:30.46	358.80	61.98	-40.9	-42.3	20.7	0.00e+00	0	40	0	867172352	54	6669
2026-01-02 00:10:34.50	357.27	60.44	-39.8	-40.9	21.8	0.00e+00	0	40	0	874512384	52	6329
2026-01-02 00:10:38.54	355.92	58.92	-37.2	-38.0	24.1	0.00e+00	70	40	0	881852416	46	6399
2026-01-02 00:10:42.57	354.72	57.43	-38.3	-39.3	23.1	0.00e+00	69	40	0	890241024	48	6635
2026-01-02 00:10:46.60	353.64	55.97	-39.4	-40.4	22.1	0.00e+00	0	40	0	897581056	50	6751
2026-01-02 00:10:50.64	352.67	54.53	-39.4	-40.5	22.1	0.00e+00	0	40	0	904921088	52	6041
2026-01-02 00:10:54.68	351.80	53.12	-38.8	-39.8	22.8	0.00e+00	77	40	0	912261120	50	6269
2026-01-02 00:10:58.72	351.00	51.75	-39.0	-40.0	22.6	0.00e+00	90	40	0	919601152	50	6447
2026-01-02 00:11:02.75	350.28	50.41	-39.2	-40.2	22.4	0.00e+00	0	40	0	927989760	50	6607
2026-01-02 00:11:06.79	349.61	49.10	-40.0	-41.1	21.7	0.00e+00	0	40	0	935329792	52	6513
2026-01-02 00:11:10.82	349.01	47.83	-42.6	-44.3	18.9	0.00e+00	73	40	0	942669824	56	7453
2026-01-02 00:11:14.86	348.45	46.59	-40.8	-42.1	20.8	0.00e+00	23	40	0	950009856	54	6483
2026-01-02 00:11:18.89	347.93	45.38	-39.2	-40.2	22.5	0.00e+00	0	40	0	957349888	52	5871
2026-01-02 00:11:22.92	347.45	44.21	-40.5	-41.6	21.0	0.00e+00	0	40	0	965738496	54	6153
2026-01-02 00:11:26.95	347.01	43.07	-42.6	-44.3	19.2	0.00e+00	92	40	0	973078528	56	7484
2026-01-02 00:11:30.99	346.60	41.96	-40.9	-42.1	21.0	0.00e+00	0	40	0	980418560	56	5816
2026-01-02 00:11:35.03	346.21	40.88	-40.4	-41.5	21.3	0.00e+00	0	40	0	987758592	54	6085
2026-01-02 00:11:39.06	345.86	39.84	-42.9	-44.7	18.1	0.00e+00	55	40	0	996147200	58	6976
2026-01-02 00:11:43.10	345.52	38.82	-38.8	-39.8	22.8	0.00e+00	92	40	0	1003487232	52	5588
2026-01-02 00:11:47.14	345.20	37.83	-40.4	-41.5	21.5	0.00e+00	0	40	0	1010827264	52	6807
2026-01-02 00:11:51.18	344.91	36.86	-40.8	-42.0	21.1	0.00e+00	0	40	0	1018167296	54	6426
2026-01-02 00:11:55.22	344.63	35.92	-42.4	-44.0	19.3	0.00e+00	22	40	0	1025507328	56	7199
2026-01-02 00:11:59.26	344.37	35.01	-40.2	-41.3	21.6	0.00e+00	0	40	0	1033895936	54	5923
2026-01-02 00:12:03.30	344.12	34.13	-40.3	-41.4	21.5	0.00e+00	0	40	0	1041235968	52	6767
2026-01-02 00:12:07.34	343.89	33.27	-41.3	-42.6	20.3	0.00e+00	0	40	0	1048576000	54	6901
2026-01-02 00:12:11.37	343.67	32.43	-43.2	-45.2	18.0	0.00e+00	92	40	0	1055916032	58	7369
2026-01-02 00:12:15.41	343.46	31.61	-42.4	-44.2	19.0	0.00e+00	0	40	0	1064304640	58	6579
2026-01-02 00:12:19.45	343.26	30.82	-41.4	-42.8	20.3	0.00e+00	0	40	0	1071644672	56	6262
2026-01-02 00:12:23.48	343.07	30.05	-40.4	-41.5	21.2	0.00e+00	64	40	0	1078984704	54	6091
2026-01-02 00:12:27.52	342.90	29.29	-39.4	-40.4	22.3	0.00e+00	0	40	0	1086324736	52	5998
2026-01-02 00:12:31.56	342.73	28.56	-39.6	-40.6	22.4	0.00e+00	0	40	0	1093664768	52	6143
2026-01-02 00:12:35.60	342.56	27.84	-40.8	-42.1	20.8	0.00e+00	0	40	0	1102053376	54	6484
2026-01-02 00:12:39.64	342.41	27.14	-40.4	-41.6	21.2	0.00e+00	92	40	0	1109393408	54	6152
2026-01-02 00:12:43.67	342.26	26.46	-38.3	-39.3	23.1	0.00e+00	0	40	0	1116733440	50	5908
2026-01-02 00:12:47.71	342.12	25.80	-38.1	-39.1	23.2	0.00e+00	0	40	0	1124073472	48	6475
2026-01-02 00:12:51.75	341.99	25.15	-40.1	-41.2	21.6	0.00e+00	0	40	0	1132462080	52	6613
2026-01-02 00:12:55.79	341.86	24.52	-41.6	-43.0	19.9	0.00e+00	92	40	0	1139802112	56	6463
2026-01-02 00:12:59.82	341.74	23.90	-40.9	-42.2	20.9	0.00e+00	0	40	0	1147142144	54	6592
2026-01-02 00:13:03.86	341.62	23.30	-39.5	-40.5	22.2	0.00e+00	0	40	0	1154482176	52	6103
2026-01-02 00:13:07.90	341.51	22.71	-38.3	-39.3	23.1	0.00e+00	13	40	0	1161822208	50	5902
2026-01-02 00:13:11.94	341.40	22.13	-37.9	-38.8	23.4	0.00e+00	5	40	0	1170210816	50	5578
2026-01-02 00:13:15.98	341.30	21.57	-38.2	-39.1	23.3	0.00e+00	0	40	0	1177550848	50	5781
2026-01-02 00:13:20.02	341.20	21.01	-39.0	-40.0	22.5	0.00e+00	0	40	0	1184890880	50	6395
2026-01-02 00:13:24.06	341.11	20.47	-38.9	-39.9	22.5	0.00e+00	30	40	0	1192230912	50	6322
2026-01-02 00:13:28.10	341.02	19.95	-39.0	-40.1	22.4	0.00e+00	0	40	0	1200619520	50	6489
2026-01-02 00:13:32.14	340.93	19.43	-39.4	-40.5	22.0	0.00e+00	0	40	0	1207959552	50	6824
2026-01-02 00:13:36.18	340.85	18.92	-39.8	-41.0	21.6	0.00e+00	0	40	0	1215299584	52	6419
2026-01-02 00:13:40.22	340.77	18.42	-41.4	-42.8	20.0	0.00e+00	92	40	0	1222639616	54	7055
2026-01-02 00:13:44.25	340.69	17.94	-42.3	-43.9	18.9	0.00e+00	0	40	0	1229979648	56	7157
2026-01-02 00:13:48.29	340.62	17.46	-42.7	-44.5	18.4	0.00e+00	0	40	0	1238368256	58	6814
2026-01-02 00:13:52.33	340.54	16.99	-42.4	-44.1	18.8	0.00e+00	0	40	0	1245708288	58	6539
2026-01-02 00:13:56.36	340.47	16.53	-41.6	-43.0	19.8	0.00e+00	84	40	0	1253048320	56	6461
2026-01-02 00:14:00.40	340.41	16.08	-41.2	-42.6	20.1	0.00e+00	0	40	0	1260388352	56	6150
2026-01-02 00:14:04.44	340.34	15.63	-40.6	-42.0	20.6	0.00e+00	0	40	0	1267728384	54	6397
2026-01-02 00:14:08.48	340.28	15.20	-40.5	-41.8	20.8	0.00e+00	45	40	0	1276116992	54	6251
2026-01-02 00:14:12.51	340.22	14.77	-40.4	-41.7	20.9	0.00e+00	0	40	0	1283457024	54	6203
2026-01-02 00:14:16.55	340.17	14.35	-40.3	-41.5	21.0	0.00e+00	0	40	0	1290797056	54	6087
2026-01-02 00:14:20.59	340.11	13.94	-40.6	-41.8	20.9	0.00e+00	0	40	0	1298137088	54	6292
2026-01-02 00:14:24.62	340.06	13.53	-40.3	-41.5	21.0	0.00e+00	86	40	0	1306525696	54	6049
2026-01-02 00:14:28.66	340.01	13.13	-40.2	-41.4	21.1	0.00e+00	0	40	0	1313865728	54	6030
2026-01-02 00:14:32.70	339.96	12.74	-40.1	-41.3	21.2	0.00e+00	0	40	0	1321205760	54	5939
2026-01-02 00:14:36.74	339.91	12.35	-40.1	-41.3	21.2	0.00e+00	0	40	0	1328545792	54	5920
2026-01-02 00:14:40.78	339.86	11.97	-40.2	-41.5	21.0	0.00e+00	78	40	0	1335885824	54	6039
2026-01-02 00:14:44.81	339.82	11.59	-40.4	-41.6	20.9	0.00e+00	0	40	0	1344274432	54	6130
2026-01-02 00:14:48.85	339.78	11.22	-40.0	-41.2	21.1	0.00e+00	0	40	0	1351614464	54	5851
2026-01-02 00:14:52.89	339.73	10.86	-40.1	-41.3	21.0	0.00e+00	45	40	0	1358954496	54	5940
2026-01-02 00:14:56.92	339.69	10.50	-40.0	-41.1	21.2	0.00e+00	11	40	0	1366294528	54	5816
2026-01-02 00:15:00.95	339.66	10.15	-40.0	-41.2	21.1	0.00e+00	0	40	0	1374683136	54	5848
2026-01-02 00:15:05.00	339.62	9.80	-40.0	-41.2	20.9	0.00e+00	0	40	0	1382023168	54	5892
2026-01-02 00:15:09.03	339.58	9.46	-40.2	-41.4	20.8	0.00e+00	51	40	0	1389363200	54	6022
2026-01-02 00:15:13.07	339.55	9.12	-40.5	-41.7	20.4	0.00e+00	0	40	0	1396703232	54	6238
2026-01-02 00:15:17.11	339.51	8.78	-40.4	-41.7	20.4	0.00e+00	33	40	0	1404043264	54	6227
2026-01-02 00:15:21.15	339.48	8.45	-40.4	-41.7	20.4	0.00e+00	0	40	0	1412431872	54	6232
2026-01-02 00:15:25.19	339.45	8.13	-40.6	-42.0	20.3	0.00e+00	92	40	0	1419771904	54	6398
2026-01-02 00:15:29.23	339.42	7.80	-40.9	-42.3	19.9	0.00e+00	0	40	0	1427111936	54	6633
2026-01-02 00:15:33.27	339.39	7.49	-40.9	-42.2	20.0	0.00e+00	0	40	0	1434451968	54	6613
2026-01-02 00:15:37.31	339.36	7.17	-41.1	-42.5	19.6	0.00e+00	0	40	0	1442840576	54	6846
2026-01-02 00:15:41.34	339.34	6.86	-41.2	-42.6	19.5	0.00e+00	0	40	0	1450180608	54	6924
2026-01-02 00:15:45.38	339.31	6.56	-41.2	-42.7	19.3	0.00e+00	0	40	0	1457520640	54	6958
2026-01-02 00:15:49.42	339.28	6.25	-41.1	-42.6	19.5	0.00e+00	0	40	0	1464860672	54	6871
2026-01-02 00:15:53.45	339.26	5.95	-41.1	-42.6	19.3	0.00e+00	55	40	0	1472200704	54	6862
2026-01-02 00:15:57.50	339.24	5.66	-41.4	-43.0	18.7	0.00e+00	0	40	0	1480589312	54	7195
2026-01-02 00:16:01.53	339.21	5.36	-42.5	-44.5	17.1	0.00e+00	0	40	0	1487929344	56	7679
2026-01-02 00:16:05.57	339.19	5.07	-42.9	-45.5	15.4	0.00e+00	0	40	0	1495269376	58	7654
2026-01-02 00:16:09.60	339.17	4.79	-43.8	-47.8	12.4	8.01e-05	92	40	0	1502609408	60	8910
2026-01-02 00:16:13.64	339.15	4.51	-44.4	-50.5	8.7	2.54e-02	0	40	0	1510998016	60	12063
2026-01-02 00:16:17.68	339.13	4.23	-44.6	-53.1	4.9	4.40e-01	0	40	0	1518338048	60	16282
2026-01-02 00:16:21.72	339.11	3.95	-44.5	-56.8	3.9	1.45e+00	0	40	104	1522532352	60	25146
2026-01-02 00:16:25.75	339.09	3.67	-44.5	-58.6	3.6	1.51e+00	0	40	104	1522532352	60	30848
2026-01-02 00:16:29.79	339.07	3.40	-44.4	-59.5	3.6	1.51e+00	0	39	104	1522532352	60	34159
2026-01-02 00:16:33.83	339.06	3.13	-44.5	-59.7	3.6	1.51e+00	0	40	104	1522532352	60	34789
2026-01-02 00:16:37.87	339.04	2.86	-48.8	-64.0	3.6	1.51e+00	0	39	104	1522532352	60	56984
2026-01-02 00:16:41.91	339.02	2.60	-49.3	-64.5	3.6	1.51e+00	0	40	104	1522532352	60	60559
2026-01-02 00:16:45.95	339.01	2.34	-48.6	-64.4	3.6	1.51e+00	0	39	104	1522532352	60	60173
2026-01-02 00:16:49.99	338.99	2.08	-49.1	-64.4	3.6	1.51e+00	0	39	104	1522532352	60	60165
2026-01-02 00:16:54.03	338.98	1.82	-49.3	-64.5	3.6	1.51e+00	0	39	104	1522532352	60	60640
2026-01-02 00:16:58.06	338.97	1.57	-49.2	-64.4	3.6	1.51e+00	0	40	104	1522532352	60	60123
2026-01-02 00:17:02.11	338.95	1.31	-49.2	-64.4	3.6	1.51e+00	0	40	104	1522532352	60	60029
2026-01-02 00:17:06.15	338.94	1.06	-49.2	-64.4	3.6	1.51e+00	0	40	104	1522532352	60	59873
2026-01-02 00:17:10.19	338.93	0.82	-49.2	-64.4	3.6	1.51e+00	0	39	104	1522532352	60	60319
2026-01-02 00:17:14.23	338.92	0.57	-49.2	-64.4	3.6	1.51e+00	0	40	104	1522532352	60	59745
2026-01-02 00:17:18.27	338.91	0.32	-49.2	-64.4	3.6	1.51e+00	0	39	104	1522532352	60	60229
2026-01-02 00:17:22.31	338.90	0.08	-49.2	-64.4	3.6	1.51e+00	0	40	104	1522532352	60	60218

#Closed at: 2026-01-02 00:17:25
#Recorded file [1522 MB]: D:/lorett/data/35029_260102_120154.dat