passes_logs/2026/01/02/R4.6S_Anadyr/R4.6S_Anadyr__20260102_162921_FENGYUN_3D_rec.log

#Pass ID: 20260102_162921_FENGYUN 3D
#Satellite: FENGYUN 3D
#Configuration: FENGYUN 3D
#almurnet v.1.7.20251203
#Start time: 2026-01-02 16:29:24

#Version: 2.2.20231116
#Station: R4.6S_Anadyr
#Location: 177.4865 lon 64.73178 lat
#TLE: 1 43010U 17072A   26001.96529979  .00000409  00000+0  21503-3 0  9996
#TLE: 2 43010  98.9910 333.5811 0001886 133.0441 227.0893 14.19692048421405

#Time	Az	El	Level	Level2	SNR	BER	BlckErr	Temp	State	Recorded	gain1	gain2
2026-01-02 16:29:24.43	20.52	0.17	-49.4	-60.1	3.3	8.41e-01	0	37	0	0	60	36497
2026-01-02 16:29:28.47	20.57	0.41	-49.4	-61.5	3.6	8.46e-01	0	37	104	0	60	43168
2026-01-02 16:29:32.51	20.63	0.66	-48.9	-61.0	3.6	8.45e-01	0	37	104	0	60	40414
2026-01-02 16:29:36.55	20.68	0.90	-47.7	-59.7	3.6	8.46e-01	0	38	104	0	60	34807
2026-01-02 16:29:40.59	20.74	1.15	-47.5	-59.5	3.6	8.46e-01	0	38	104	0	60	33993
2026-01-02 16:29:44.62	20.80	1.40	-47.5	-59.3	3.6	8.45e-01	0	38	104	0	60	33479
2026-01-02 16:29:48.66	20.86	1.65	-47.5	-59.6	3.6	8.46e-01	0	38	104	0	60	34468
2026-01-02 16:29:52.70	20.91	1.91	-47.6	-59.6	3.6	8.45e-01	0	38	104	0	60	34673
2026-01-02 16:29:56.74	20.97	2.16	-47.5	-58.7	3.6	8.46e-01	0	38	104	0	60	31224
2026-01-02 16:30:00.78	21.03	2.42	-47.2	-56.3	3.7	8.33e-01	0	38	104	0	60	23730
2026-01-02 16:30:04.82	21.09	2.68	-46.9	-53.3	4.5	7.94e-01	0	38	0	0	60	16627
2026-01-02 16:30:08.86	21.15	2.95	-43.4	-45.7	13.0	2.46e-04	0	38	0	18874368	60	6939
2026-01-02 16:30:12.90	21.21	3.21	-40.3	-41.6	17.3	0.00e+00	0	38	0	41943040	54	6127
2026-01-02 16:30:16.94	21.28	3.48	-41.2	-42.6	16.0	0.00e+00	0	38	0	63963136	54	6905
2026-01-02 16:30:20.98	21.34	3.75	-42.1	-43.8	14.6	0.00e+00	0	38	0	87031808	54	7909
2026-01-02 16:30:25.02	21.40	4.03	-39.9	-41.1	16.9	5.19e-01	0	38	104	95420416	54	5804
2026-01-02 16:30:29.05	21.47	4.30	-39.1	-40.2	18.6	0.00e+00	0	38	0	114294784	52	5853
2026-01-02 16:30:33.09	21.54	4.58	-38.0	-38.9	20.2	0.00e+00	0	38	0	137363456	50	5660
2026-01-02 16:30:37.13	21.60	4.87	-37.5	-38.4	20.4	0.00e+00	0	38	0	159383552	48	5981
2026-01-02 16:30:41.16	21.67	5.15	-37.1	-38.0	21.1	0.00e+00	0	38	0	182452224	48	5715
2026-01-02 16:30:45.20	21.74	5.44	-37.5	-38.4	21.0	0.00e+00	0	38	0	205520896	48	6009
2026-01-02 16:30:49.24	21.81	5.73	-37.1	-37.9	21.0	0.00e+00	0	38	0	228589568	48	5675
2026-01-02 16:30:53.28	21.88	6.03	-36.9	-37.7	21.6	0.00e+00	0	38	0	250609664	46	6238
2026-01-02 16:30:57.32	21.95	6.32	-36.5	-37.3	21.8	0.00e+00	0	38	0	273678336	46	5957
2026-01-02 16:31:01.36	22.02	6.63	-36.1	-36.9	22.3	0.00e+00	0	38	0	295698432	46	5652
2026-01-02 16:31:05.39	22.10	6.93	-35.6	-36.4	22.9	0.00e+00	0	38	0	318767104	44	6006
2026-01-02 16:31:09.44	22.17	7.24	-35.7	-36.4	22.8	0.00e+00	0	38	0	341835776	44	6005
2026-01-02 16:31:13.47	22.25	7.55	-35.5	-36.2	23.0	0.00e+00	0	38	0	363855872	44	5889
2026-01-02 16:31:17.51	22.33	7.87	-35.1	-35.8	23.4	0.00e+00	0	38	0	386924544	44	5628
2026-01-02 16:31:21.55	22.41	8.19	-35.2	-36.0	23.3	0.00e+00	0	38	0	409993216	44	5720
2026-01-02 16:31:25.59	22.49	8.52	-35.1	-35.8	23.4	0.00e+00	0	38	0	432013312	44	5619
2026-01-02 16:31:29.63	22.57	8.85	-35.0	-35.7	23.6	0.00e+00	0	38	0	455081984	44	5515
2026-01-02 16:31:33.67	22.65	9.18	-34.9	-35.6	23.8	0.00e+00	0	38	0	478150656	42	6121
2026-01-02 16:31:37.71	22.74	9.52	-34.7	-35.4	24.0	0.00e+00	0	38	0	500170752	42	6029
2026-01-02 16:31:41.74	22.83	9.86	-34.7	-35.4	23.8	0.00e+00	0	38	0	523239424	42	6029
2026-01-02 16:31:45.77	22.91	10.21	-34.6	-35.3	24.1	0.00e+00	0	38	0	546308096	42	5915
2026-01-02 16:31:49.81	23.00	10.56	-34.7	-35.5	24.1	0.00e+00	0	38	0	568328192	42	6035
2026-01-02 16:31:53.85	23.10	10.92	-34.7	-35.4	24.1	0.00e+00	0	39	0	591396864	42	6019
2026-01-02 16:31:57.89	23.19	11.28	-34.7	-35.5	24.1	0.00e+00	0	39	0	614465536	42	6050
2026-01-02 16:32:01.93	23.28	11.65	-35.0	-35.8	23.9	0.00e+00	0	38	0	636485632	42	6264
2026-01-02 16:32:05.97	23.38	12.02	-34.8	-35.6	24.0	0.00e+00	0	39	0	659554304	42	6115
2026-01-02 16:32:10.01	23.48	12.40	-34.7	-35.5	24.2	0.00e+00	0	38	0	682622976	42	6047
2026-01-02 16:32:14.05	23.58	12.79	-34.5	-35.2	24.4	0.00e+00	0	38	0	704643072	42	5838
2026-01-02 16:32:18.09	23.69	13.18	-34.4	-35.1	24.5	0.00e+00	0	38	0	727711744	42	5823
2026-01-02 16:32:22.13	23.79	13.58	-34.1	-34.8	24.8	0.00e+00	0	38	0	750780416	42	5567
2026-01-02 16:32:26.16	23.90	13.98	-33.9	-34.5	25.0	0.00e+00	0	38	0	772800512	42	5430
2026-01-02 16:32:30.20	24.01	14.39	-33.7	-34.4	25.0	0.00e+00	0	38	0	795869184	40	6021
2026-01-02 16:32:34.24	24.13	14.81	-33.4	-34.1	25.4	0.00e+00	0	38	0	818937856	40	5780
2026-01-02 16:32:38.28	24.24	15.24	-33.2	-33.9	25.6	0.00e+00	0	39	0	840957952	40	5642
2026-01-02 16:32:42.32	24.36	15.67	-33.0	-33.7	25.9	0.00e+00	0	38	0	864026624	40	5511
2026-01-02 16:32:46.35	24.49	16.11	-32.9	-33.5	26.1	0.00e+00	0	38	0	887095296	40	5431
2026-01-02 16:32:50.39	24.61	16.56	-32.7	-33.4	26.1	0.00e+00	0	39	0	909115392	38	5967
2026-01-02 16:32:54.43	24.74	17.01	-32.8	-33.5	26.0	0.00e+00	0	39	0	932184064	38	6044
2026-01-02 16:32:58.47	24.87	17.48	-32.7	-33.3	26.2	0.00e+00	0	39	0	955252736	38	5932
2026-01-02 16:33:02.51	25.01	17.96	-32.5	-33.1	26.4	0.00e+00	0	39	0	977272832	38	5784
2026-01-02 16:33:06.55	25.15	18.44	-32.6	-33.2	26.3	0.00e+00	0	38	0	1000341504	38	5888
2026-01-02 16:33:10.59	25.29	18.93	-32.7	-33.3	26.3	0.00e+00	0	38	0	1023410176	38	5941
2026-01-02 16:33:14.63	25.44	19.44	-32.6	-33.2	26.4	0.00e+00	0	39	0	1045430272	38	5861
2026-01-02 16:33:18.67	25.59	19.95	-32.2	-32.8	26.7	0.00e+00	0	38	0	1068498944	38	5618
2026-01-02 16:33:22.70	25.75	20.48	-31.9	-32.5	27.0	0.00e+00	0	39	0	1091567616	38	5380
2026-01-02 16:33:26.74	25.91	21.01	-32.0	-32.6	26.8	0.00e+00	0	39	0	1113587712	38	5475
2026-01-02 16:33:30.78	26.08	21.56	-31.9	-32.5	26.9	0.00e+00	0	38	0	1136656384	38	5419
2026-01-02 16:33:34.82	26.25	22.12	-31.9	-32.5	26.9	0.00e+00	0	39	0	1159725056	38	5439
2026-01-02 16:33:38.85	26.43	22.69	-31.8	-32.4	25.9	0.00e+00	0	39	0	1181745152	38	5340
2026-01-02 16:33:42.89	26.61	23.27	-31.6	-32.2	27.3	0.00e+00	0	39	0	1204813824	36	5872
2026-01-02 16:33:46.93	26.81	23.87	-31.4	-32.1	27.3	0.00e+00	0	39	0	1227882496	36	5764
2026-01-02 16:33:50.97	27.00	24.48	-31.3	-31.9	27.5	0.00e+00	0	39	0	1249902592	36	5681
2026-01-02 16:33:55.00	27.21	25.11	-31.3	-31.9	27.5	0.00e+00	0	39	0	1272971264	36	5679
2026-01-02 16:33:59.04	27.42	25.75	-31.2	-31.8	27.5	0.00e+00	0	39	0	1294991360	36	5615
2026-01-02 16:34:03.08	27.64	26.40	-31.2	-31.8	27.7	0.00e+00	0	39	0	1318060032	36	5569
2026-01-02 16:34:07.12	27.87	27.08	-31.4	-32.0	27.5	0.00e+00	0	39	0	1341128704	36	5724
2026-01-02 16:34:11.16	28.11	27.76	-31.2	-31.8	27.6	0.00e+00	0	39	0	1364197376	36	5622
2026-01-02 16:34:15.20	28.36	28.47	-30.9	-31.6	27.8	0.00e+00	0	39	0	1386217472	36	5443
2026-01-02 16:34:19.23	28.62	29.19	-30.9	-31.5	27.8	0.00e+00	0	39	0	1409286144	36	5387
2026-01-02 16:34:23.27	28.89	29.94	-31.3	-31.9	27.5	0.00e+00	0	39	0	1432354816	36	5633
2026-01-02 16:34:27.31	29.17	30.70	-30.7	-31.3	28.1	0.00e+00	0	39	0	1454374912	36	5294
2026-01-02 16:34:31.35	29.47	31.48	-30.9	-31.6	27.9	0.00e+00	0	39	0	1477443584	34	6117
2026-01-02 16:34:35.39	29.78	32.28	-30.9	-31.5	27.8	0.00e+00	0	39	0	1499463680	34	6060
2026-01-02 16:34:39.42	30.10	33.10	-30.7	-31.3	28.0	0.00e+00	0	39	0	1522532352	34	5950
2026-01-02 16:34:43.47	30.44	33.95	-30.7	-31.3	28.1	0.00e+00	0	39	0	1545601024	34	5958
2026-01-02 16:34:47.50	30.80	34.82	-30.6	-31.2	28.1	0.00e+00	0	39	0	1568669696	34	5829
2026-01-02 16:34:51.54	31.18	35.71	-30.6	-31.2	28.1	0.00e+00	0	39	0	1590689792	34	5845
2026-01-02 16:34:55.58	31.57	36.63	-30.1	-30.7	28.3	0.00e+00	0	39	0	1613758464	34	5551
2026-01-02 16:34:59.62	31.99	37.57	-30.4	-31.0	28.3	0.00e+00	0	39	0	1636827136	34	5713
2026-01-02 16:35:03.65	32.44	38.53	-30.1	-30.7	28.5	0.00e+00	0	39	0	1658847232	34	5553
2026-01-02 16:35:07.69	32.91	39.53	-30.4	-31.0	28.2	0.00e+00	0	39	0	1681915904	34	5712
2026-01-02 16:35:11.63	33.40	40.52	-30.4	-31.0	28.3	0.00e+00	0	39	0	1703936000	34	5699
2026-01-02 16:35:15.67	33.93	41.57	-30.7	-31.3	28.0	0.00e+00	0	39	0	1725956096	34	5945
2026-01-02 16:35:19.71	34.49	42.65	-31.3	-31.9	27.7	0.00e+00	0	39	0	1749024768	34	6367
2026-01-02 16:35:23.75	35.10	43.75	-31.0	-31.6	27.9	0.00e+00	0	39	0	1772093440	34	6152
2026-01-02 16:35:27.79	35.74	44.89	-30.8	-31.4	28.0	0.00e+00	0	39	0	1795162112	34	5980
2026-01-02 16:35:31.84	36.44	46.05	-31.4	-32.0	27.6	0.00e+00	0	39	0	1817182208	34	6401
2026-01-02 16:35:35.87	37.19	47.24	-30.9	-31.5	27.9	0.00e+00	0	39	0	1840250880	34	6076
2026-01-02 16:35:39.92	37.99	48.47	-31.1	-31.7	27.8	0.00e+00	0	39	0	1862270976	34	6239
2026-01-02 16:35:43.95	38.86	49.72	-31.1	-31.7	27.8	0.00e+00	0	39	0	1885339648	34	6235
2026-01-02 16:35:47.99	39.81	51.00	-31.4	-32.0	27.6	0.00e+00	0	39	0	1908408320	34	6448
2026-01-02 16:35:52.03	40.84	52.30	-31.6	-32.2	27.4	0.00e+00	0	39	0	1931476992	34	6565
2026-01-02 16:35:56.08	41.97	53.64	-31.6	-32.1	27.5	0.00e+00	0	39	0	1953497088	36	5809
2026-01-02 16:36:00.12	43.20	54.99	-32.2	-32.8	27.0	0.00e+00	0	39	0	1976565760	36	6298
2026-01-02 16:36:04.16	44.55	56.37	-31.6	-32.2	27.4	0.00e+00	0	39	0	1999634432	36	5861
2026-01-02 16:36:08.19	46.05	57.76	-31.9	-32.6	27.1	0.00e+00	0	39	0	2021654528	36	6108
2026-01-02 16:36:12.23	47.71	59.17	-31.6	-32.2	27.4	0.00e+00	0	39	0	2044723200	36	5883
2026-01-02 16:36:16.27	49.55	60.59	-31.0	-31.6	27.9	0.00e+00	0	39	0	2066743296	36	5463
2026-01-02 16:36:20.31	51.62	62.01	-30.3	-30.9	28.4	0.00e+00	0	39	0	2089811968	34	5648
2026-01-02 16:36:24.36	53.94	63.43	-30.2	-30.8	28.4	0.00e+00	0	39	0	2112880640	34	5592
2026-01-02 16:36:28.40	56.55	64.84	-30.3	-30.9	28.3	0.00e+00	0	39	0	2135949312	34	5683
2026-01-02 16:36:32.43	59.49	66.21	-30.1	-30.7	28.5	0.00e+00	0	39	0	2157969408	34	5537
2026-01-02 16:36:36.48	62.83	67.55	-29.9	-30.5	28.6	0.00e+00	0	39	0	2181038080	34	5398
2026-01-02 16:36:40.51	66.61	68.82	-29.9	-30.5	28.7	0.00e+00	0	39	0	2204106752	32	6069
2026-01-02 16:36:44.55	70.91	70.01	-30.1	-30.7	28.5	0.00e+00	0	39	0	2226126848	32	6184
2026-01-02 16:36:48.58	75.75	71.10	-29.6	-30.2	28.8	0.00e+00	0	39	0	2249195520	32	5866
2026-01-02 16:36:52.62	81.20	72.06	-29.4	-30.0	28.9	0.00e+00	0	39	0	2271215616	32	5713
2026-01-02 16:36:56.67	87.25	72.86	-29.6	-30.2	28.9	0.00e+00	0	39	0	2294284288	32	5846
2026-01-02 16:37:00.71	93.83	73.46	-29.5	-30.1	28.8	0.00e+00	0	39	0	2317352960	32	5791
2026-01-02 16:37:04.75	100.84	73.85	-29.0	-29.6	29.2	0.00e+00	0	39	0	2340421632	32	5502
2026-01-02 16:37:08.79	108.08	74.00	-29.5	-30.1	28.9	0.00e+00	0	39	0	2362441728	32	5810
2026-01-02 16:37:12.82	115.34	73.90	-28.9	-29.5	29.0	0.00e+00	0	39	0	2385510400	32	5415
2026-01-02 16:37:16.86	122.41	73.55	-29.4	-30.0	28.7	0.00e+00	0	39	0	2408579072	32	5750
2026-01-02 16:37:20.90	129.08	72.99	-29.2	-29.8	29.1	0.00e+00	0	39	0	2430599168	32	5596
2026-01-02 16:37:24.93	135.22	72.23	-29.3	-29.9	28.9	0.00e+00	0	39	0	2453667840	32	5690
2026-01-02 16:37:28.97	140.78	71.30	-29.4	-30.0	28.9	0.00e+00	0	39	0	2475687936	32	5743
2026-01-02 16:37:33.00	145.74	70.23	-29.5	-30.1	28.9	0.00e+00	0	39	0	2498756608	32	5774
2026-01-02 16:37:37.04	150.14	69.05	-29.7	-30.3	28.7	0.00e+00	0	39	0	2521825280	32	5934
2026-01-02 16:37:41.07	154.02	67.79	-29.8	-30.5	28.6	0.00e+00	0	39	0	2543845376	32	6034
2026-01-02 16:37:45.11	157.45	66.46	-30.1	-30.7	28.4	0.00e+00	0	39	0	2566914048	32	6188
2026-01-02 16:37:49.15	160.47	65.09	-29.9	-30.5	28.7	0.00e+00	0	39	0	2589982720	32	6069
2026-01-02 16:37:53.19	163.14	63.69	-30.2	-30.9	28.4	0.00e+00	0	39	0	2613051392	32	6324
2026-01-02 16:37:57.23	165.51	62.27	-30.2	-30.9	28.4	0.00e+00	0	39	0	2635071488	32	6327
2026-01-02 16:38:01.27	167.62	60.84	-30.5	-31.0	28.2	0.00e+00	0	39	0	2658140160	32	6425
2026-01-02 16:38:05.30	169.51	59.42	-30.7	-31.2	27.9	0.00e+00	0	39	0	2680160256	34	5879
2026-01-02 16:38:09.34	171.20	58.01	-31.0	-31.7	27.8	0.00e+00	0	39	0	2703228928	34	6208
2026-01-02 16:38:13.39	172.73	56.60	-31.6	-32.2	27.3	0.00e+00	0	39	0	2726297600	34	6552
2026-01-02 16:38:17.43	174.11	55.22	-31.7	-32.4	27.2	0.00e+00	0	39	0	2748317696	34	6752
2026-01-02 16:38:21.46	175.37	53.85	-31.4	-31.9	27.3	0.00e+00	0	39	0	2771386368	36	5660
2026-01-02 16:38:25.50	176.51	52.51	-31.3	-31.9	27.3	0.00e+00	0	39	0	2794455040	36	5651
2026-01-02 16:38:29.54	177.56	51.20	-31.4	-32.1	27.5	0.00e+00	0	39	0	2817523712	36	5800
2026-01-02 16:38:33.58	178.52	49.91	-30.8	-31.4	28.0	0.00e+00	0	39	0	2839543808	36	5350
2026-01-02 16:38:37.62	179.41	48.65	-30.9	-31.5	27.8	0.00e+00	0	39	0	2862612480	34	6054
2026-01-02 16:38:41.66	180.22	47.41	-30.9	-31.5	27.8	0.00e+00	0	39	0	2884632576	34	6101
2026-01-02 16:38:45.70	180.98	46.21	-30.7	-31.3	28.0	0.00e+00	0	39	0	2907701248	34	5910
2026-01-02 16:38:49.74	181.69	45.04	-30.6	-31.1	28.1	0.00e+00	0	39	0	2930769920	34	5812
2026-01-02 16:38:53.78	182.34	43.89	-30.5	-31.2	28.1	0.00e+00	0	39	0	2952790016	34	5835
2026-01-02 16:38:57.82	182.95	42.78	-30.4	-30.9	28.3	0.00e+00	0	39	0	2975858688	34	5649
2026-01-02 16:39:01.85	183.52	41.70	-30.4	-31.1	28.2	0.00e+00	0	39	0	2998927360	34	5803
2026-01-02 16:39:05.89	184.06	40.64	-30.1	-30.6	28.5	0.00e+00	0	39	0	3021996032	34	5459
2026-01-02 16:39:09.93	184.57	39.61	-29.7	-30.2	28.8	0.00e+00	0	39	0	3044016128	32	5877
2026-01-02 16:39:13.97	185.04	38.61	-30.0	-30.5	28.5	0.00e+00	0	39	0	3067084800	32	6080
2026-01-02 16:39:18.01	185.49	37.63	-30.1	-30.7	28.4	0.00e+00	0	39	0	3089104896	32	6234
2026-01-02 16:39:22.05	185.91	36.68	-30.1	-30.6	28.4	0.00e+00	0	39	0	3112173568	32	6153
2026-01-02 16:39:26.09	186.31	35.76	-30.4	-31.0	28.2	0.00e+00	0	39	0	3135242240	32	6396
2026-01-02 16:39:30.13	186.69	34.86	-30.3	-30.9	28.2	0.00e+00	0	39	0	3157262336	32	6319
2026-01-02 16:39:34.16	187.05	33.98	-30.2	-30.9	28.2	0.00e+00	0	39	0	3180331008	32	6365
2026-01-02 16:39:38.20	187.39	33.13	-30.4	-31.1	28.2	0.00e+00	0	39	0	3203399680	32	6492
2026-01-02 16:39:42.23	187.72	32.30	-30.5	-31.1	28.0	0.00e+00	0	39	0	3226468352	32	6538
2026-01-02 16:39:46.27	188.03	31.49	-30.4	-31.0	28.2	0.00e+00	0	39	0	3248488448	32	6459
2026-01-02 16:39:50.31	188.33	30.71	-30.4	-30.9	28.3	0.00e+00	0	39	0	3271557120	32	6368
2026-01-02 16:39:54.36	188.61	29.94	-30.5	-31.0	28.2	0.00e+00	0	39	0	3293577216	32	6453
2026-01-02 16:39:58.40	188.88	29.19	-30.6	-31.3	28.0	0.00e+00	0	39	0	3316645888	32	6653
2026-01-02 16:40:02.44	189.14	28.46	-30.5	-31.2	28.1	0.00e+00	0	39	0	3339714560	32	6596
2026-01-02 16:40:06.48	189.39	27.75	-30.5	-31.2	28.1	0.00e+00	0	39	0	3361734656	32	6594
2026-01-02 16:40:10.51	189.63	27.06	-30.6	-31.3	27.9	0.00e+00	0	39	0	3384803328	34	5947
2026-01-02 16:40:14.56	189.86	26.38	-30.8	-31.3	27.8	0.00e+00	0	39	0	3407872000	34	5938
2026-01-02 16:40:18.59	190.08	25.72	-30.6	-31.3	28.0	0.00e+00	0	39	0	3430940672	34	5907
2026-01-02 16:40:22.63	190.29	25.07	-30.6	-31.2	27.9	0.00e+00	0	39	0	3452960768	34	5834
2026-01-02 16:40:26.67	190.49	24.44	-30.8	-31.3	27.9	0.00e+00	0	39	0	3476029440	34	5941
2026-01-02 16:40:30.70	190.69	23.83	-31.0	-31.5	27.7	0.00e+00	0	39	0	3498049536	34	6082
2026-01-02 16:40:34.74	190.88	23.22	-31.6	-32.2	27.2	0.00e+00	0	39	0	3521118208	34	6561
2026-01-02 16:40:38.78	191.07	22.64	-31.3	-31.9	27.4	0.00e+00	0	39	0	3544186880	34	6352
2026-01-02 16:40:42.82	191.24	22.06	-31.5	-32.2	27.3	0.00e+00	0	39	0	3566206976	34	6571
2026-01-02 16:40:46.86	191.41	21.50	-31.6	-32.1	27.2	0.00e+00	0	39	0	3589275648	34	6522
2026-01-02 16:40:50.90	191.58	20.95	-31.8	-32.4	27.0	0.00e+00	0	39	0	3612344320	36	5989
2026-01-02 16:40:54.94	191.74	20.41	-32.0	-32.5	26.9	0.00e+00	0	39	0	3635412992	36	6098
2026-01-02 16:40:58.97	191.90	19.88	-31.8	-32.3	27.1	0.00e+00	0	39	0	3657433088	36	5958
2026-01-02 16:41:03.01	192.05	19.36	-31.9	-32.5	26.9	0.00e+00	0	39	0	3680501760	36	6058
2026-01-02 16:41:07.05	192.19	18.86	-32.1	-32.6	26.8	0.00e+00	0	39	0	3702521856	36	6143
2026-01-02 16:41:11.09	192.34	18.36	-32.1	-32.7	26.8	0.00e+00	0	39	0	3725590528	36	6188
2026-01-02 16:41:15.13	192.48	17.87	-32.4	-32.9	26.5	0.00e+00	0	39	0	3748659200	36	6371
2026-01-02 16:41:19.16	192.61	17.40	-32.6	-33.2	26.4	0.00e+00	0	39	0	3770679296	36	6559
2026-01-02 16:41:23.20	192.74	16.93	-32.8	-33.3	26.2	0.00e+00	0	39	0	3793747968	38	5938
2026-01-02 16:41:27.24	192.87	16.47	-33.1	-33.6	26.0	0.00e+00	0	39	0	3816816640	38	6168
2026-01-02 16:41:31.28	192.99	16.02	-33.3	-33.9	25.7	0.00e+00	0	39	0	3838836736	38	6341
2026-01-02 16:41:35.32	193.11	15.57	-33.4	-33.9	25.8	0.00e+00	0	39	0	3861905408	38	6386
2026-01-02 16:41:39.36	193.23	15.14	-33.6	-34.2	25.5	0.00e+00	0	39	0	3884974080	38	6558
2026-01-02 16:41:43.40	193.34	14.71	-33.7	-34.3	25.4	0.00e+00	0	39	0	3906994176	38	6618
2026-01-02 16:41:47.43	193.46	14.29	-33.8	-34.4	25.3	0.00e+00	0	39	0	3930062848	40	6018
2026-01-02 16:41:51.47	193.56	13.87	-33.8	-34.5	25.2	0.00e+00	0	39	0	3953131520	40	6080
2026-01-02 16:41:55.52	193.67	13.47	-34.0	-34.8	25.0	0.00e+00	0	39	0	3975151616	40	6262
2026-01-02 16:41:59.55	193.77	13.07	-34.2	-34.8	24.8	0.00e+00	0	39	0	3998220288	40	6258
2026-01-02 16:42:03.59	193.88	12.67	-33.9	-34.5	25.0	0.00e+00	0	39	0	4021288960	40	6052
2026-01-02 16:42:07.63	193.98	12.29	-34.1	-34.7	24.8	0.00e+00	0	39	0	4043309056	40	6204
2026-01-02 16:42:11.67	194.07	11.91	-34.1	-34.9	24.8	0.00e+00	0	39	0	4066377728	40	6321
2026-01-02 16:42:15.71	194.17	11.53	-34.2	-34.8	24.8	0.00e+00	0	39	0	4089446400	40	6295
2026-01-02 16:42:19.75	194.26	11.16	-34.5	-35.1	24.5	0.00e+00	0	39	0	4111466496	40	6524
2026-01-02 16:42:23.79	194.35	10.79	-34.4	-35.2	24.5	0.00e+00	0	39	0	4134535168	40	6602
2026-01-02 16:42:27.83	194.44	10.44	-34.6	-35.2	24.4	0.00e+00	0	39	0	4157603840	40	6570
2026-01-02 16:42:31.87	194.53	10.08	-34.7	-35.3	24.2	0.00e+00	0	39	0	4179623936	40	6660
2026-01-02 16:42:35.90	194.61	9.73	-34.8	-35.6	24.1	0.00e+00	0	39	0	4202692608	42	6112
2026-01-02 16:42:39.94	194.70	9.39	-35.2	-35.8	23.8	0.00e+00	0	39	0	4225761280	42	6292
2026-01-02 16:42:43.98	194.78	9.05	-34.9	-35.5	23.9	0.00e+00	0	39	0	4247781376	42	6102
2026-01-02 16:42:48.02	194.86	8.71	-35.1	-35.8	23.7	0.00e+00	0	39	0	4270850048	42	6284
2026-01-02 16:42:52.06	194.94	8.38	-35.2	-35.9	23.6	0.00e+00	0	39	0	4293918720	42	6335
2026-01-02 16:42:56.10	195.02	8.06	-35.2	-36.0	23.5	0.00e+00	0	39	0	4315938816	42	6460
2026-01-02 16:43:00.14	195.09	7.73	-35.2	-36.0	23.5	0.00e+00	0	39	0	4339007488	42	6460
2026-01-02 16:43:04.18	195.17	7.42	-35.7	-36.4	23.1	0.00e+00	0	39	0	4362076160	42	6768
2026-01-02 16:43:08.22	195.24	7.10	-35.7	-36.4	23.0	0.00e+00	0	39	0	4384096256	42	6708
2026-01-02 16:43:12.26	195.31	6.79	-35.7	-36.5	23.0	0.00e+00	0	39	0	4407164928	42	6804
2026-01-02 16:43:16.30	195.38	6.48	-35.9	-36.8	22.6	0.00e+00	0	39	0	4430233600	44	6263
2026-01-02 16:43:20.34	195.45	6.18	-35.8	-36.6	22.8	0.00e+00	0	39	0	4452253696	44	6154
2026-01-02 16:43:24.38	195.52	5.88	-35.8	-36.7	22.6	0.00e+00	0	39	0	4475322368	44	6179
2026-01-02 16:43:28.42	195.59	5.58	-36.3	-37.1	21.9	0.00e+00	0	39	0	4498391040	44	6471
2026-01-02 16:43:32.46	195.66	5.29	-36.1	-36.9	22.3	0.00e+00	0	39	0	4520411136	44	6372
2026-01-02 16:43:36.50	195.72	5.00	-36.2	-36.9	22.1	0.00e+00	0	39	0	4543479808	44	6373
2026-01-02 16:43:40.53	195.78	4.71	-36.5	-37.2	21.7	0.00e+00	0	39	0	4566548480	44	6606
2026-01-02 16:43:44.57	195.85	4.43	-36.8	-37.7	21.4	0.00e+00	0	39	0	4588568576	46	6223
2026-01-02 16:43:48.61	195.91	4.15	-36.8	-37.7	21.4	0.00e+00	0	39	0	4611637248	46	6239
2026-01-02 16:43:52.64	195.97	3.87	-37.1	-37.8	21.1	0.00e+00	0	39	0	4634705920	46	6315
2026-01-02 16:43:56.68	196.03	3.60	-37.1	-37.9	21.0	0.00e+00	0	39	0	4656726016	46	6347
2026-01-02 16:44:00.72	196.09	3.33	-36.8	-37.7	21.2	0.00e+00	0	39	0	4679794688	46	6241
2026-01-02 16:44:04.76	196.15	3.06	-36.9	-37.7	20.9	0.00e+00	0	39	0	4702863360	46	6237
2026-01-02 16:44:08.80	196.21	2.79	-49.2	-61.3	3.6	8.46e-01	0	39	104	4707057664	60	41971
2026-01-02 16:44:12.83	196.27	2.52	-49.4	-61.6	3.6	8.45e-01	0	39	104	4707057664	60	43310
2026-01-02 16:44:16.87	196.32	2.26	-49.5	-61.6	3.6	8.46e-01	0	39	104	4707057664	60	43412
2026-01-02 16:44:20.91	196.38	2.00	-49.4	-61.5	3.6	8.43e-01	0	39	104	4707057664	60	43086
2026-01-02 16:44:24.95	196.43	1.74	-49.4	-61.6	3.6	8.45e-01	0	39	104	4707057664	60	43270
2026-01-02 16:44:28.99	196.49	1.49	-49.4	-61.5	3.6	8.44e-01	0	39	104	4707057664	60	43107
2026-01-02 16:44:33.02	196.54	1.24	-49.4	-61.5	3.6	8.45e-01	0	39	104	4707057664	60	43113
2026-01-02 16:44:37.06	196.59	0.99	-49.4	-61.5	3.6	8.46e-01	0	39	104	4707057664	60	43188
2026-01-02 16:44:41.10	196.64	0.74	-49.4	-61.5	3.6	8.45e-01	0	39	104	4707057664	60	43143
2026-01-02 16:44:45.14	196.69	0.49	-49.4	-61.5	3.6	8.46e-01	0	39	104	4707057664	60	43092
2026-01-02 16:44:49.18	196.75	0.25	-49.4	-61.5	3.6	8.46e-01	0	39	104	4707057664	60	43128
2026-01-02 16:44:53.22	196.80	0.00	-49.4	-61.6	3.6	8.45e-01	0	39	104	4707057664	60	43308

#Closed at: 2026-01-02 16:44:54
#Recorded file [4707 MB]: D:/lorett/data/35029_260103_042924.dat