passes_logs/2026/01/02/R4.6S_Anadyr/R4.6S_Anadyr__20260102_204626_NOAA_20_JPSS-1_rec.log

#Pass ID: 20260102_204626_NOAA 20 (JPSS-1)
#Satellite: NOAA 20 (JPSS-1)
#Configuration: NOAA 20
#almurnet v.1.7.20251203
#Start time: 2026-01-02 20:46:30

#Version: 2.2.20231116
#Station: R4.6S_Anadyr
#Location: 177.4865 lon 64.73178 lat
#TLE: 1 43013U 17073A   26001.93781127  .00000184  00000+0  10834-3 0  9997
#TLE: 2 43013  98.7622 303.0160 0001916  58.2205 301.9158 14.19532295420889

#Time	Az	El	Level	Level2	SNR	BER	BlckErr	Temp	State	Recorded	gain1	gain2
2026-01-02 20:46:30.37	76.48	0.17	-50.2	-64.0	3.4	1.54e+00	0	38	0	0	60	57119
2026-01-02 20:46:34.40	76.20	0.38	-50.1	-65.3	3.6	1.51e+00	0	38	104	0	60	66740
2026-01-02 20:46:38.44	75.91	0.58	-50.0	-65.3	3.6	1.51e+00	0	38	104	0	60	66472
2026-01-02 20:46:42.48	75.62	0.79	-49.5	-64.8	3.6	1.51e+00	0	38	104	0	60	62455
2026-01-02 20:46:46.53	75.32	1.00	-48.2	-63.5	3.6	1.51e+00	0	38	104	0	60	53817
2026-01-02 20:46:50.56	75.02	1.20	-48.2	-63.4	3.6	1.51e+00	0	38	104	0	60	53701
2026-01-02 20:46:54.60	74.72	1.41	-48.2	-63.5	3.6	1.51e+00	0	38	104	0	60	54015
2026-01-02 20:46:58.64	74.41	1.62	-48.2	-63.4	3.5	1.51e+00	0	38	104	0	60	53670
2026-01-02 20:47:02.69	74.10	1.83	-48.2	-63.4	3.6	1.51e+00	0	38	104	0	60	53310
2026-01-02 20:47:06.73	73.78	2.04	-48.1	-63.1	3.6	1.51e+00	0	38	104	0	60	51499
2026-01-02 20:47:10.77	73.45	2.26	-48.2	-63.3	3.6	1.51e+00	0	38	104	0	60	52979
2026-01-02 20:47:14.81	73.13	2.47	-48.2	-63.4	3.6	1.51e+00	0	39	104	0	60	53317
2026-01-02 20:47:18.85	72.79	2.68	-48.1	-62.4	3.6	1.51e+00	0	38	104	0	60	47774
2026-01-02 20:47:22.89	72.46	2.89	-47.9	-58.7	4.5	1.50e+00	25	39	104	0	60	31082
2026-01-02 20:47:26.93	72.11	3.11	-46.8	-52.1	9.9	1.28e-02	0	39	0	6291456	60	14520
2026-01-02 20:47:30.97	71.77	3.32	-45.3	-48.7	13.7	9.90e-06	0	39	0	9437184	60	9826
2026-01-02 20:47:35.00	71.41	3.54	-44.4	-47.0	15.6	0.00e+00	0	38	0	17825792	60	8104
2026-01-02 20:47:39.04	71.05	3.76	-43.8	-46.1	16.5	0.00e+00	0	39	0	25165824	60	7328
2026-01-02 20:47:43.07	70.69	3.97	-43.5	-45.6	17.0	0.00e+00	0	39	0	32505856	60	6922
2026-01-02 20:47:47.11	70.32	4.19	-44.1	-46.5	16.1	0.00e+00	0	39	0	39845888	60	7607
2026-01-02 20:47:51.15	69.94	4.41	-43.9	-46.1	16.6	0.00e+00	0	39	0	48234496	60	7328
2026-01-02 20:47:55.18	69.56	4.63	-43.8	-46.0	16.7	0.00e+00	0	38	0	55574528	60	7206
2026-01-02 20:47:59.22	69.18	4.85	-43.7	-45.9	16.8	0.00e+00	0	39	0	62914560	60	7106
2026-01-02 20:48:03.26	68.78	5.07	-43.5	-45.6	17.2	0.00e+00	0	39	0	70254592	60	6863
2026-01-02 20:48:07.30	68.38	5.29	-43.7	-45.9	16.9	0.00e+00	0	39	0	77594624	60	7120
2026-01-02 20:48:11.33	67.98	5.51	-43.6	-45.7	17.1	0.00e+00	0	38	0	85983232	60	6964
2026-01-02 20:48:15.37	67.57	5.73	-43.6	-45.7	17.2	0.00e+00	0	39	0	93323264	60	6954
2026-01-02 20:48:19.41	67.15	5.95	-43.4	-45.4	17.5	0.00e+00	0	39	0	100663296	60	6705
2026-01-02 20:48:23.44	66.72	6.18	-43.3	-45.2	17.7	0.00e+00	0	38	0	108003328	60	6595
2026-01-02 20:48:27.48	66.29	6.40	-43.1	-45.0	17.9	0.00e+00	0	38	0	115343360	60	6406
2026-01-02 20:48:31.51	65.85	6.62	-42.9	-44.7	18.3	0.00e+00	0	38	0	123731968	60	6210
2026-01-02 20:48:35.55	65.41	6.84	-43.0	-44.7	18.3	0.00e+00	0	38	0	131072000	60	6222
2026-01-02 20:48:39.59	64.95	7.07	-42.9	-44.6	18.4	0.00e+00	0	38	0	138412032	58	6882
2026-01-02 20:48:43.62	64.49	7.29	-42.6	-44.2	18.8	0.00e+00	0	39	0	145752064	58	6565
2026-01-02 20:48:47.66	64.03	7.52	-42.7	-44.4	18.7	0.00e+00	0	38	0	154140672	58	6696
2026-01-02 20:48:51.70	63.55	7.74	-42.4	-43.9	19.2	0.00e+00	0	38	0	161480704	58	6367
2026-01-02 20:48:55.73	63.07	7.96	-42.3	-43.7	19.5	0.00e+00	0	39	0	168820736	58	6242
2026-01-02 20:48:59.77	62.58	8.19	-42.1	-43.6	19.5	0.00e+00	0	38	0	176160768	58	6153
2026-01-02 20:49:03.81	62.08	8.41	-42.4	-43.9	19.3	0.00e+00	0	38	0	183500800	58	6321
2026-01-02 20:49:07.85	61.58	8.64	-42.4	-43.9	19.3	0.00e+00	0	39	0	191889408	58	6382
2026-01-02 20:49:11.88	61.06	8.86	-42.3	-43.8	19.5	0.00e+00	0	38	0	199229440	58	6254
2026-01-02 20:49:15.92	60.54	9.09	-42.1	-43.5	19.7	0.00e+00	0	39	0	206569472	58	6091
2026-01-02 20:49:19.96	60.01	9.31	-41.8	-43.2	20.2	0.00e+00	0	39	0	213909504	56	6566
2026-01-02 20:49:24.00	59.47	9.53	-41.8	-43.1	20.2	0.00e+00	0	38	0	222298112	56	6498
2026-01-02 20:49:28.04	58.93	9.76	-41.8	-43.2	20.2	0.00e+00	0	39	0	229638144	56	6551
2026-01-02 20:49:32.08	58.37	9.98	-41.7	-43.0	20.4	0.00e+00	0	39	0	236978176	56	6431
2026-01-02 20:49:36.12	57.81	10.20	-42.2	-43.6	19.9	0.00e+00	0	39	0	244318208	56	6869
2026-01-02 20:49:40.16	57.23	10.42	-41.9	-43.2	20.2	0.00e+00	0	39	0	251658240	56	6602
2026-01-02 20:49:44.19	56.65	10.64	-41.9	-43.3	20.2	0.00e+00	0	39	0	260046848	56	6647
2026-01-02 20:49:48.23	56.06	10.86	-42.0	-43.4	20.2	0.00e+00	0	39	0	267386880	56	6699
2026-01-02 20:49:52.27	55.46	11.08	-42.0	-43.4	20.1	0.00e+00	0	39	0	274726912	56	6698
2026-01-02 20:49:56.31	54.85	11.29	-42.1	-43.5	20.1	0.00e+00	0	39	0	282066944	56	6771
2026-01-02 20:50:00.35	54.24	11.51	-41.7	-43.0	20.6	0.00e+00	0	39	0	290455552	56	6446
2026-01-02 20:50:04.39	53.61	11.72	-41.6	-42.8	20.7	0.00e+00	0	39	0	297795584	56	6303
2026-01-02 20:50:08.42	52.97	11.93	-41.4	-42.6	20.9	0.00e+00	0	39	0	305135616	56	6170
2026-01-02 20:50:12.46	52.33	12.15	-40.9	-42.0	21.6	0.00e+00	0	39	0	312475648	56	5728
2026-01-02 20:50:16.49	51.67	12.35	-40.5	-41.6	21.9	0.00e+00	0	39	0	319815680	54	6133
2026-01-02 20:50:20.53	51.01	12.56	-40.2	-41.2	22.3	0.00e+00	0	39	0	328204288	54	5885
2026-01-02 20:50:24.57	50.33	12.77	-40.3	-41.4	22.1	0.00e+00	0	39	0	335544320	54	5987
2026-01-02 20:50:28.61	49.65	12.97	-40.1	-41.2	22.3	0.00e+00	0	39	0	342884352	54	5845
2026-01-02 20:50:32.64	48.96	13.17	-40.0	-41.1	22.4	0.00e+00	0	39	0	350224384	54	5768
2026-01-02 20:50:36.68	48.26	13.36	-39.8	-40.8	22.7	0.00e+00	0	39	0	357564416	52	6308
2026-01-02 20:50:40.72	47.54	13.56	-39.6	-40.6	22.9	0.00e+00	0	39	0	365953024	52	6137
2026-01-02 20:50:44.76	46.82	13.75	-39.4	-40.4	23.1	0.00e+00	0	39	0	373293056	52	5982
2026-01-02 20:50:48.79	46.09	13.94	-39.5	-40.4	23.1	0.00e+00	0	39	0	380633088	52	6030
2026-01-02 20:50:52.83	45.35	14.12	-39.5	-40.5	23.1	0.00e+00	0	39	0	387973120	52	6034
2026-01-02 20:50:56.87	44.60	14.31	-39.8	-40.8	22.7	0.00e+00	0	39	0	396361728	52	6281
2026-01-02 20:51:00.91	43.84	14.48	-39.9	-40.9	22.7	0.00e+00	0	39	0	403701760	52	6324
2026-01-02 20:51:04.95	43.08	14.66	-39.7	-40.7	22.8	0.00e+00	0	39	0	411041792	52	6181
2026-01-02 20:51:08.98	42.30	14.83	-39.9	-40.8	22.7	0.00e+00	0	39	0	418381824	52	6316
2026-01-02 20:51:13.01	41.52	15.00	-39.8	-40.8	22.8	0.00e+00	0	39	0	425721856	52	6255
2026-01-02 20:51:17.05	40.72	15.16	-39.4	-40.3	23.3	0.00e+00	0	39	0	434110464	52	5918
2026-01-02 20:51:21.08	39.92	15.31	-39.2	-40.2	23.3	0.00e+00	0	39	0	441450496	52	5837
2026-01-02 20:51:25.12	39.11	15.47	-39.4	-40.3	23.2	0.00e+00	0	39	0	448790528	52	5940
2026-01-02 20:51:29.16	38.29	15.61	-39.2	-40.1	23.3	0.00e+00	0	39	0	456130560	52	5827
2026-01-02 20:51:33.20	37.46	15.76	-39.0	-39.9	23.6	0.00e+00	0	39	0	464519168	52	5663
2026-01-02 20:51:37.23	36.62	15.89	-39.0	-39.9	23.6	0.00e+00	0	39	0	471859200	52	5648
2026-01-02 20:51:41.27	35.78	16.02	-39.3	-40.2	23.4	0.00e+00	0	39	0	479199232	52	5849
2026-01-02 20:51:45.31	34.93	16.15	-39.4	-40.3	23.2	0.00e+00	0	39	0	486539264	52	5963
2026-01-02 20:51:49.35	34.07	16.27	-39.4	-40.3	23.2	0.00e+00	0	39	0	493879296	52	5939
2026-01-02 20:51:53.38	33.21	16.38	-39.4	-40.3	23.2	0.00e+00	0	39	0	502267904	52	5953
2026-01-02 20:51:57.42	32.34	16.49	-39.3	-40.2	23.3	0.00e+00	0	39	0	509607936	52	5866
2026-01-02 20:52:01.46	31.46	16.59	-39.7	-40.7	23.0	0.00e+00	0	39	0	516947968	52	6195
2026-01-02 20:52:05.50	30.58	16.69	-40.3	-41.3	22.5	0.00e+00	0	39	0	524288000	52	6672
2026-01-02 20:52:09.54	29.69	16.78	-40.0	-41.0	22.6	0.00e+00	0	39	0	532676608	52	6438
2026-01-02 20:52:13.58	28.79	16.86	-39.8	-40.8	22.8	0.00e+00	0	39	0	540016640	52	6277
2026-01-02 20:52:17.62	27.89	16.93	-39.7	-40.6	22.9	0.00e+00	0	39	0	547356672	52	6168
2026-01-02 20:52:21.65	26.99	17.00	-39.9	-40.9	22.8	0.00e+00	0	39	0	554696704	52	6352
2026-01-02 20:52:25.69	26.09	17.06	-40.2	-41.2	22.5	0.00e+00	0	39	0	562036736	52	6577
2026-01-02 20:52:29.73	25.18	17.11	-40.1	-41.1	22.6	0.00e+00	0	39	0	570425344	52	6490
2026-01-02 20:52:33.77	24.26	17.16	-40.4	-41.5	22.2	0.00e+00	0	39	0	577765376	52	6801
2026-01-02 20:52:37.80	23.35	17.20	-40.1	-41.1	22.5	0.00e+00	0	39	0	585105408	52	6523
2026-01-02 20:52:41.84	22.43	17.23	-40.2	-41.2	22.4	0.00e+00	0	39	0	592445440	52	6572
2026-01-02 20:52:45.87	21.52	17.25	-39.9	-40.9	22.7	0.00e+00	0	39	0	600834048	52	6371
2026-01-02 20:52:49.91	20.59	17.27	-40.1	-41.2	22.5	0.00e+00	0	39	0	608174080	52	6548
2026-01-02 20:52:53.95	19.67	17.28	-40.3	-41.3	22.3	0.00e+00	0	39	0	615514112	52	6680
2026-01-02 20:52:57.99	18.75	17.28	-40.3	-41.3	22.3	0.00e+00	0	39	0	622854144	52	6672
2026-01-02 20:53:02.03	17.83	17.27	-39.9	-40.9	22.6	0.00e+00	0	39	0	630194176	52	6367
2026-01-02 20:53:06.07	16.91	17.26	-40.1	-41.1	22.6	0.00e+00	0	39	0	638582784	52	6525
2026-01-02 20:53:10.11	15.99	17.23	-40.0	-41.0	22.6	0.00e+00	0	39	0	645922816	52	6397
2026-01-02 20:53:14.14	15.08	17.21	-39.8	-40.8	22.8	0.00e+00	0	39	0	653262848	52	6252
2026-01-02 20:53:18.19	14.16	17.17	-39.5	-40.5	23.1	0.00e+00	0	39	0	660602880	52	6057
2026-01-02 20:53:22.22	13.25	17.12	-39.6	-40.5	23.1	0.00e+00	0	39	0	668991488	52	6068
2026-01-02 20:53:26.26	12.34	17.07	-39.5	-40.5	23.1	0.00e+00	0	39	0	676331520	52	6041
2026-01-02 20:53:30.30	11.43	17.01	-39.0	-39.9	23.4	0.00e+00	0	39	0	683671552	52	5693
2026-01-02 20:53:34.33	10.53	16.95	-39.0	-39.9	23.6	0.00e+00	0	39	0	691011584	52	5672
2026-01-02 20:53:38.37	9.63	16.87	-39.0	-39.9	23.6	0.00e+00	0	39	0	698351616	52	5652
2026-01-02 20:53:42.41	8.74	16.79	-39.1	-40.0	23.5	0.00e+00	0	39	0	706740224	52	5751
2026-01-02 20:53:46.45	7.85	16.71	-39.2	-40.1	23.4	0.00e+00	0	39	0	714080256	52	5788
2026-01-02 20:53:50.49	6.96	16.61	-39.6	-40.5	23.1	0.00e+00	0	39	0	721420288	52	6088
2026-01-02 20:53:54.53	6.08	16.51	-39.4	-40.4	23.1	0.00e+00	0	39	0	728760320	52	5988
2026-01-02 20:53:58.56	5.22	16.41	-39.6	-40.5	23.0	0.00e+00	0	39	0	737148928	52	6103
2026-01-02 20:54:02.60	4.35	16.29	-40.0	-41.1	22.5	0.00e+00	0	39	0	744488960	52	6468
2026-01-02 20:54:06.64	3.49	16.18	-40.0	-41.0	22.6	0.00e+00	0	39	0	751828992	52	6406
2026-01-02 20:54:10.67	2.64	16.05	-40.0	-41.0	22.6	0.00e+00	0	39	0	759169024	52	6439
2026-01-02 20:54:14.71	1.80	15.92	-39.6	-40.6	22.9	0.00e+00	0	39	0	766509056	52	6133
2026-01-02 20:54:18.75	0.96	15.79	-39.4	-40.4	23.1	0.00e+00	0	39	0	774897664	52	5978
2026-01-02 20:54:22.78	0.13	15.64	-39.6	-40.5	22.9	0.00e+00	0	39	0	782237696	52	6102
2026-01-02 20:54:26.82	359.31	15.50	-39.7	-40.7	22.7	0.00e+00	0	39	0	789577728	52	6188
2026-01-02 20:54:30.86	358.50	15.35	-39.8	-40.8	22.7	0.00e+00	0	39	0	796917760	52	6311
2026-01-02 20:54:34.89	357.70	15.19	-39.5	-40.4	23.0	0.00e+00	0	39	0	805306368	52	6004
2026-01-02 20:54:38.93	356.90	15.03	-39.8	-40.8	22.8	0.00e+00	0	39	0	812646400	52	6260
2026-01-02 20:54:42.96	356.12	14.87	-40.2	-41.2	22.3	0.00e+00	0	39	0	819986432	52	6604
2026-01-02 20:54:46.99	355.34	14.70	-39.9	-40.9	22.6	0.00e+00	0	39	0	827326464	52	6370
2026-01-02 20:54:51.03	354.57	14.52	-40.0	-41.0	22.5	0.00e+00	0	39	0	834666496	52	6459
2026-01-02 20:54:55.06	353.82	14.35	-40.6	-41.7	21.9	0.00e+00	0	39	0	843055104	52	6940
2026-01-02 20:54:59.10	353.07	14.17	-40.3	-41.3	22.3	0.00e+00	0	39	0	850395136	52	6656
2026-01-02 20:55:03.14	352.32	13.98	-40.5	-41.6	21.9	0.00e+00	0	39	0	857735168	52	6909
2026-01-02 20:55:07.18	351.59	13.79	-40.7	-41.8	21.8	0.00e+00	0	39	0	865075200	54	6276
2026-01-02 20:55:11.22	350.87	13.60	-41.2	-42.4	21.2	0.00e+00	0	39	0	872415232	54	6731
2026-01-02 20:55:15.25	350.16	13.41	-41.5	-42.8	20.8	0.00e+00	0	39	0	880803840	54	7038
2026-01-02 20:55:19.29	349.46	13.21	-41.3	-42.5	21.1	0.00e+00	0	39	0	888143872	54	6788
2026-01-02 20:55:23.33	348.76	13.01	-41.5	-42.7	20.9	0.00e+00	0	39	0	895483904	54	6983
2026-01-02 20:55:27.37	348.08	12.81	-42.0	-43.4	20.3	0.00e+00	0	39	0	902823936	56	6697
2026-01-02 20:55:31.40	347.41	12.61	-42.0	-43.4	20.2	0.00e+00	0	39	0	911212544	56	6708
2026-01-02 20:55:35.44	346.74	12.40	-42.3	-43.7	20.0	0.00e+00	0	39	0	918552576	56	6951
2026-01-02 20:55:39.48	346.08	12.19	-42.1	-43.5	20.2	0.00e+00	0	39	0	925892608	56	6803
2026-01-02 20:55:43.51	345.44	11.98	-42.1	-43.5	20.2	0.00e+00	0	39	0	933232640	56	6814
2026-01-02 20:55:47.55	344.80	11.77	-42.3	-43.7	20.0	0.00e+00	0	39	0	940572672	56	6951
2026-01-02 20:55:51.58	344.18	11.56	-42.1	-43.5	20.1	0.00e+00	0	39	0	948961280	56	6810
2026-01-02 20:55:55.62	343.56	11.35	-41.7	-42.9	20.6	0.00e+00	0	39	0	956301312	56	6367
2026-01-02 20:55:59.65	342.95	11.13	-41.6	-42.9	20.7	0.00e+00	0	39	0	963641344	56	6326
2026-01-02 20:56:03.69	342.35	10.91	-41.3	-42.6	20.9	0.00e+00	0	39	0	970981376	56	6104
2026-01-02 20:56:07.73	341.76	10.69	-41.2	-42.4	21.0	0.00e+00	0	39	0	979369984	56	6023
2026-01-02 20:56:11.77	341.18	10.47	-41.1	-42.3	21.1	0.00e+00	0	39	0	986710016	56	5923
2026-01-02 20:56:15.81	340.60	10.25	-40.8	-42.0	21.3	0.00e+00	0	39	0	994050048	54	6409
2026-01-02 20:56:19.84	340.04	10.03	-40.4	-41.6	21.7	0.00e+00	0	39	0	1001390080	54	6128
2026-01-02 20:56:23.88	339.49	9.81	-40.2	-41.3	21.9	0.00e+00	0	39	0	1008730112	54	5959
2026-01-02 20:56:27.92	338.94	9.59	-40.2	-41.3	22.0	0.00e+00	0	39	0	1017118720	54	5912
2026-01-02 20:56:31.95	338.40	9.37	-39.9	-41.0	22.2	0.00e+00	0	39	0	1024458752	54	5708
2026-01-02 20:56:35.99	337.87	9.14	-39.8	-40.9	22.3	0.00e+00	0	39	0	1031798784	54	5636
2026-01-02 20:56:40.03	337.35	8.92	-39.9	-41.0	22.1	0.00e+00	0	39	0	1039138816	54	5716
2026-01-02 20:56:44.07	336.83	8.70	-40.1	-41.3	21.8	0.00e+00	0	39	0	1046478848	54	5901
2026-01-02 20:56:48.10	336.33	8.47	-40.3	-41.4	21.7	0.00e+00	0	39	0	1054867456	54	6010
2026-01-02 20:56:52.13	335.83	8.25	-40.3	-41.5	21.6	0.00e+00	0	39	0	1062207488	54	6046
2026-01-02 20:56:56.17	335.34	8.03	-40.7	-41.9	21.1	0.00e+00	0	39	0	1069547520	54	6386
2026-01-02 20:57:00.20	334.86	7.80	-40.5	-41.7	21.4	0.00e+00	0	39	0	1076887552	54	6197
2026-01-02 20:57:04.23	334.39	7.58	-40.6	-41.7	21.3	0.00e+00	0	39	0	1085276160	54	6231
2026-01-02 20:57:08.27	333.92	7.35	-40.4	-41.6	21.5	0.00e+00	0	39	0	1092616192	54	6109
2026-01-02 20:57:12.31	333.46	7.13	-40.7	-41.9	21.1	0.00e+00	0	39	0	1099956224	54	6329
2026-01-02 20:57:16.34	333.01	6.91	-41.0	-42.3	20.7	0.00e+00	0	39	0	1107296256	54	6652
2026-01-02 20:57:20.38	332.56	6.68	-41.3	-42.6	20.4	0.00e+00	0	39	0	1114636288	54	6918
2026-01-02 20:57:24.42	332.12	6.46	-41.4	-42.8	20.2	0.00e+00	0	39	0	1123024896	54	7018
2026-01-02 20:57:28.45	331.69	6.24	-41.6	-43.0	20.0	0.00e+00	0	39	0	1130364928	54	7171
2026-01-02 20:57:32.49	331.27	6.02	-41.8	-43.2	19.9	0.00e+00	0	39	0	1137704960	56	6603
2026-01-02 20:57:36.52	330.85	5.80	-42.2	-43.7	19.3	0.00e+00	0	39	0	1145044992	56	6943
2026-01-02 20:57:40.56	330.44	5.57	-42.2	-43.7	19.2	0.00e+00	0	39	0	1152385024	56	7007
2026-01-02 20:57:44.60	330.03	5.35	-42.4	-44.0	18.9	0.00e+00	0	39	0	1160773632	56	7225
2026-01-02 20:57:48.63	329.63	5.13	-42.4	-44.0	18.9	0.00e+00	0	39	0	1168113664	56	7242
2026-01-02 20:57:52.67	329.24	4.91	-42.6	-44.3	18.6	0.00e+00	0	39	0	1175453696	58	6620
2026-01-02 20:57:56.71	328.85	4.69	-42.7	-44.3	18.5	0.00e+00	0	39	0	1182793728	58	6685
2026-01-02 20:58:00.74	328.47	4.47	-43.0	-44.8	18.1	0.00e+00	0	39	0	1191182336	58	7072
2026-01-02 20:58:04.78	328.10	4.26	-43.1	-44.9	18.0	0.00e+00	0	39	0	1198522368	58	7122
2026-01-02 20:58:08.82	327.73	4.04	-43.2	-45.2	17.7	0.00e+00	0	39	0	1205862400	58	7342
2026-01-02 20:58:12.85	327.37	3.82	-43.5	-45.5	17.4	0.00e+00	0	39	0	1213202432	58	7632
2026-01-02 20:58:16.89	327.01	3.61	-43.4	-45.5	17.1	0.00e+00	0	39	0	1220542464	58	7620
2026-01-02 20:58:20.92	326.66	3.39	-43.5	-45.6	16.9	0.00e+00	0	39	0	1228931072	58	7727
2026-01-02 20:58:24.95	326.31	3.18	-43.6	-45.7	16.9	0.00e+00	0	39	0	1236271104	58	7800
2026-01-02 20:58:28.99	325.97	2.96	-48.8	-64.0	3.6	1.62e-01	0	39	104	1243611136	60	57193
2026-01-02 20:58:33.03	325.63	2.75	-50.0	-65.2	3.6	1.51e+00	0	39	104	1243611136	60	66002
2026-01-02 20:58:37.07	325.30	2.54	-50.2	-65.4	3.6	1.51e+00	0	39	104	1243611136	60	67517
2026-01-02 20:58:41.11	324.97	2.32	-49.9	-65.3	3.6	1.51e+00	0	39	104	1243611136	60	66238
2026-01-02 20:58:45.15	324.65	2.11	-50.1	-65.3	3.6	1.51e+00	0	39	104	1243611136	60	66533
2026-01-02 20:58:49.20	324.33	1.90	-50.1	-65.3	3.6	1.51e+00	0	39	104	1243611136	60	66649
2026-01-02 20:58:53.24	324.02	1.69	-50.0	-65.3	3.6	1.51e+00	0	39	104	1243611136	60	66385
2026-01-02 20:58:57.28	323.71	1.48	-50.0	-65.3	3.6	1.51e+00	0	39	104	1243611136	60	66334
2026-01-02 20:59:01.32	323.40	1.27	-50.0	-65.3	3.6	1.51e+00	0	39	104	1243611136	60	66300
2026-01-02 20:59:05.36	323.11	1.06	-50.0	-65.3	3.6	1.51e+00	0	39	104	1243611136	60	66471
2026-01-02 20:59:09.40	322.81	0.86	-50.0	-65.3	3.6	1.51e+00	0	39	104	1243611136	60	66207
2026-01-02 20:59:13.43	322.52	0.65	-50.0	-65.3	3.6	1.51e+00	0	39	104	1243611136	60	66397
2026-01-02 20:59:17.47	322.23	0.45	-50.0	-65.2	3.6	1.51e+00	0	39	104	1243611136	60	66043
2026-01-02 20:59:21.50	321.95	0.24	-50.0	-65.3	3.6	1.51e+00	0	39	104	1243611136	60	66516
2026-01-02 20:59:25.54	321.67	0.04	-50.0	-65.3	3.6	1.51e+00	0	39	104	1243611136	60	66195

#Closed at: 2026-01-02 20:59:28
#Recorded file [1243 MB]: D:/lorett/data/35029_260103_084630.dat