passes_logs/2026/01/02/R4.6S_Anadyr/R4.6S_Anadyr__20260102_134744_SUOMI_NPP_rec.log

#Pass ID: 20260102_134744_SUOMI NPP
#Satellite: SUOMI NPP
#Configuration: NPP
#almurnet v.1.7.20251203
#Start time: 2026-01-02 13:47:46

#Version: 2.2.20231116
#Station: R4.6S_Anadyr
#Location: 177.4865 lon 64.73178 lat
#TLE: 1 37849U 11061A   26001.07732418  .00000182  00000+0  10735-3 0  9990
#TLE: 2 37849  98.7795 303.2470 0002580  87.2016 272.9455 14.19520779734739

#Time	Az	El	Level	Level2	SNR	BER	BlckErr	Temp	State	Recorded	gain1	gain2
2026-01-02 13:47:46.99	19.17	0.17	-49.5	-63.3	3.3	1.54e+00	0	38	0	0	60	52798
2026-01-02 13:47:51.02	19.31	0.40	-49.5	-64.8	3.6	1.51e+00	0	38	104	0	60	62728
2026-01-02 13:47:55.06	19.45	0.64	-49.3	-64.5	3.6	1.51e+00	0	38	104	0	60	60533
2026-01-02 13:47:59.10	19.59	0.87	-48.5	-63.7	3.6	1.51e+00	0	38	104	0	60	55253
2026-01-02 13:48:03.14	19.74	1.11	-47.7	-62.8	3.6	1.51e+00	0	38	104	0	60	50047
2026-01-02 13:48:07.18	19.88	1.36	-47.7	-62.8	3.6	1.51e+00	0	38	104	0	60	49836
2026-01-02 13:48:11.22	20.03	1.60	-47.7	-62.8	3.6	1.51e+00	0	38	104	0	60	50013
2026-01-02 13:48:15.26	20.18	1.84	-47.7	-62.8	3.6	1.51e+00	0	38	104	0	60	50171
2026-01-02 13:48:19.30	20.34	2.09	-47.6	-62.7	3.6	1.51e+00	0	38	104	0	60	49109
2026-01-02 13:48:23.34	20.49	2.34	-47.6	-61.4	3.6	1.51e+00	0	38	104	0	60	42482
2026-01-02 13:48:27.38	20.65	2.59	-47.6	-61.0	3.6	1.51e+00	0	38	104	0	60	40578
2026-01-02 13:48:31.42	20.81	2.84	-45.6	-50.0	11.6	5.16e-03	0	38	0	5242880	60	11391
2026-01-02 13:48:35.46	20.98	3.10	-43.7	-46.3	15.4	0.00e+00	0	38	0	12582912	60	7463
2026-01-02 13:48:39.50	21.14	3.36	-44.6	-47.9	13.8	0.00e+00	0	38	0	19922944	60	8992
2026-01-02 13:48:43.53	21.31	3.62	-46.4	-52.5	8.5	8.01e-05	0	38	0	28311552	60	15255
2026-01-02 13:48:47.57	21.48	3.88	-47.6	-58.5	4.3	1.51e+00	0	39	104	28311552	60	30388
2026-01-02 13:48:51.60	21.65	4.14	-46.6	-52.1	9.0	1.48e-02	0	39	0	33554432	60	14573
2026-01-02 13:48:55.64	21.83	4.41	-46.5	-51.7	10.2	5.53e-03	0	39	0	41943040	60	13836
2026-01-02 13:48:59.68	22.01	4.68	-45.4	-48.9	13.4	1.04e-04	0	39	0	49283072	60	10053
2026-01-02 13:49:03.72	22.19	4.95	-45.2	-48.5	14.0	7.00e-07	0	39	0	56623104	60	9588
2026-01-02 13:49:07.76	22.38	5.23	-44.4	-47.2	15.0	0.00e+00	0	39	0	63963136	60	8257
2026-01-02 13:49:11.80	22.56	5.50	-43.3	-45.4	16.9	0.00e+00	0	39	0	71303168	60	6766
2026-01-02 13:49:15.84	22.76	5.78	-41.8	-43.5	18.9	0.00e+00	0	39	0	79691776	58	6049
2026-01-02 13:49:19.87	22.95	6.07	-41.8	-43.3	19.0	0.00e+00	0	39	0	87031808	56	6683
2026-01-02 13:49:23.91	23.15	6.35	-41.9	-43.5	18.8	0.00e+00	0	39	0	94371840	56	6844
2026-01-02 13:49:27.95	23.35	6.64	-41.9	-43.5	18.9	0.00e+00	0	39	0	101711872	56	6823
2026-01-02 13:49:31.98	23.56	6.93	-41.8	-43.4	19.1	0.00e+00	0	39	0	110100480	56	6712
2026-01-02 13:49:36.02	23.77	7.23	-41.6	-43.0	19.5	0.00e+00	0	39	0	117440512	56	6459
2026-01-02 13:49:40.06	23.98	7.53	-41.4	-42.9	19.6	0.00e+00	0	39	0	124780544	56	6323
2026-01-02 13:49:44.09	24.20	7.83	-41.6	-43.1	19.5	0.00e+00	0	39	0	132120576	56	6479
2026-01-02 13:49:48.13	24.42	8.13	-41.4	-42.8	19.8	0.00e+00	0	39	0	139460608	56	6265
2026-01-02 13:49:52.17	24.64	8.44	-41.4	-42.8	19.8	0.00e+00	0	39	0	147849216	56	6314
2026-01-02 13:49:56.20	24.87	8.75	-41.2	-42.6	20.0	0.00e+00	0	39	0	155189248	56	6118
2026-01-02 13:50:00.24	25.11	9.06	-41.1	-42.4	20.1	0.00e+00	0	39	0	162529280	56	6022
2026-01-02 13:50:04.28	25.35	9.38	-40.8	-42.1	20.5	0.00e+00	0	39	0	169869312	54	6472
2026-01-02 13:50:08.31	25.59	9.70	-40.7	-42.0	20.6	0.00e+00	0	39	0	178257920	54	6394
2026-01-02 13:50:12.35	25.84	10.03	-40.1	-41.2	21.2	0.00e+00	0	39	0	185597952	54	5890
2026-01-02 13:50:16.39	26.10	10.36	-39.9	-41.1	21.3	0.00e+00	0	39	0	192937984	54	5784
2026-01-02 13:50:20.43	26.36	10.69	-39.7	-40.8	21.7	0.00e+00	0	39	0	200278016	52	6287
2026-01-02 13:50:24.47	26.62	11.03	-39.6	-40.7	21.7	0.00e+00	0	39	0	207618048	52	6216
2026-01-02 13:50:28.51	26.89	11.37	-39.6	-40.6	21.8	0.00e+00	0	39	0	216006656	52	6160
2026-01-02 13:50:32.54	27.17	11.72	-39.5	-40.6	21.9	0.00e+00	0	39	0	223346688	52	6139
2026-01-02 13:50:36.58	27.46	12.07	-39.1	-40.1	22.3	0.00e+00	0	39	0	230686720	52	5809
2026-01-02 13:50:40.62	27.75	12.43	-38.9	-39.9	22.6	0.00e+00	0	39	0	238026752	52	5638
2026-01-02 13:50:44.65	28.04	12.79	-38.7	-39.7	22.7	0.00e+00	0	39	0	246415360	50	6187
2026-01-02 13:50:48.69	28.35	13.15	-38.7	-39.7	22.6	0.00e+00	0	39	0	253755392	50	6225
2026-01-02 13:50:52.73	28.66	13.52	-38.8	-39.8	22.6	0.00e+00	0	39	0	261095424	50	6271
2026-01-02 13:50:56.77	28.98	13.90	-38.8	-39.8	22.5	0.00e+00	0	39	0	268435456	50	6304
2026-01-02 13:51:00.80	29.30	14.28	-38.7	-39.7	22.7	0.00e+00	0	39	0	275775488	50	6197
2026-01-02 13:51:04.84	29.64	14.66	-38.7	-39.7	22.8	0.00e+00	0	39	0	284164096	50	6210
2026-01-02 13:51:08.88	29.98	15.05	-38.8	-39.8	22.6	0.00e+00	0	39	0	291504128	50	6294
2026-01-02 13:51:12.91	30.33	15.45	-39.1	-40.1	22.5	0.00e+00	0	39	0	298844160	50	6489
2026-01-02 13:51:16.95	30.69	15.85	-39.4	-40.4	22.1	0.00e+00	0	39	0	306184192	50	6758
2026-01-02 13:51:20.99	31.06	16.26	-39.3	-40.3	22.2	0.00e+00	0	39	0	313524224	50	6691
2026-01-02 13:51:25.03	31.44	16.67	-39.2	-40.2	22.3	0.00e+00	0	39	0	321912832	50	6545
2026-01-02 13:51:29.06	31.83	17.09	-39.6	-40.7	22.0	0.00e+00	0	39	0	329252864	52	6218
2026-01-02 13:51:33.11	32.23	17.51	-39.7	-40.7	21.9	0.00e+00	0	39	0	336592896	52	6244
2026-01-02 13:51:37.14	32.64	17.94	-40.0	-41.1	21.6	0.00e+00	0	39	0	343932928	52	6517
2026-01-02 13:51:41.18	33.06	18.38	-39.6	-40.7	22.1	0.00e+00	0	39	0	352321536	52	6195
2026-01-02 13:51:45.21	33.49	18.83	-39.4	-40.4	22.2	0.00e+00	0	39	0	359661568	52	6013
2026-01-02 13:51:49.25	33.94	19.28	-39.6	-40.7	21.9	0.00e+00	0	39	0	367001600	52	6201
2026-01-02 13:51:53.29	34.40	19.73	-39.5	-40.5	22.2	0.00e+00	0	39	0	374341632	52	6080
2026-01-02 13:51:57.33	34.87	20.20	-39.5	-40.5	22.1	0.00e+00	0	39	0	381681664	52	6094
2026-01-02 13:52:01.36	35.36	20.67	-39.9	-41.0	21.8	0.00e+00	0	39	0	390070272	52	6429
2026-01-02 13:52:05.40	35.86	21.15	-39.7	-40.7	22.1	0.00e+00	0	39	0	397410304	52	6225
2026-01-02 13:52:09.44	36.38	21.63	-39.5	-40.5	22.2	0.00e+00	0	39	0	404750336	52	6102
2026-01-02 13:52:13.47	36.91	22.12	-39.5	-40.6	22.3	0.00e+00	0	39	0	412090368	52	6110
2026-01-02 13:52:17.51	37.46	22.62	-39.4	-40.4	22.2	0.00e+00	0	39	0	420478976	52	5997
2026-01-02 13:52:21.55	38.03	23.13	-39.6	-40.6	22.3	0.00e+00	0	39	0	427819008	52	6160
2026-01-02 13:52:25.58	38.61	23.64	-39.2	-40.2	22.5	0.00e+00	0	39	0	435159040	52	5847
2026-01-02 13:52:29.62	39.21	24.16	-39.4	-40.5	22.3	0.00e+00	0	39	0	442499072	52	6064
2026-01-02 13:52:33.66	39.84	24.69	-39.2	-40.3	22.5	0.00e+00	0	39	0	449839104	52	5898
2026-01-02 13:52:37.70	40.48	25.23	-39.1	-40.1	22.6	0.00e+00	0	39	0	458227712	52	5804
2026-01-02 13:52:41.73	41.15	25.77	-38.9	-39.8	22.9	0.00e+00	0	39	0	465567744	50	6294
2026-01-02 13:52:45.77	41.84	26.32	-39.6	-40.7	22.1	0.00e+00	0	39	0	472907776	50	6970
2026-01-02 13:52:49.81	42.55	26.88	-39.8	-40.8	22.1	0.00e+00	0	39	0	480247808	52	6295
2026-01-02 13:52:53.84	43.29	27.44	-39.0	-39.9	22.8	0.00e+00	0	39	0	487587840	52	5691
2026-01-02 13:52:57.88	44.05	28.01	-39.6	-40.6	22.1	0.00e+00	0	39	0	495976448	52	6144
2026-01-02 13:53:01.92	44.84	28.59	-39.9	-41.0	21.9	0.00e+00	0	39	0	503316480	52	6460
2026-01-02 13:53:05.95	45.66	29.17	-39.9	-41.0	22.0	0.00e+00	0	39	0	510656512	52	6421
2026-01-02 13:53:09.99	46.51	29.76	-39.7	-40.7	21.9	0.00e+00	0	39	0	517996544	52	6201
2026-01-02 13:53:14.03	47.39	30.35	-40.8	-42.0	21.0	0.00e+00	0	39	0	526385152	54	6406
2026-01-02 13:53:18.07	48.31	30.95	-41.4	-42.8	20.6	0.00e+00	0	39	0	533725184	54	7038
2026-01-02 13:53:22.10	49.25	31.56	-40.3	-41.4	21.7	0.00e+00	0	39	0	541065216	54	5991
2026-01-02 13:53:26.14	50.23	32.17	-39.9	-40.9	21.9	0.00e+00	0	39	0	548405248	54	5684
2026-01-02 13:53:30.18	51.25	32.78	-40.2	-41.3	21.8	0.00e+00	0	39	0	555745280	52	6682
2026-01-02 13:53:34.22	52.31	33.39	-39.9	-40.9	22.1	0.00e+00	0	39	0	564133888	52	6372
2026-01-02 13:53:38.25	53.40	34.00	-40.4	-41.6	21.3	0.00e+00	0	39	0	571473920	52	6861
2026-01-02 13:53:42.29	54.54	34.62	-41.6	-43.0	20.1	0.00e+00	0	39	0	578813952	54	7251
2026-01-02 13:53:46.33	55.73	35.24	-39.9	-41.0	22.0	0.00e+00	0	39	0	586153984	52	6399
2026-01-02 13:53:50.36	56.95	35.85	-40.5	-41.7	21.5	0.00e+00	0	39	0	594542592	52	6965
2026-01-02 13:53:54.40	58.22	36.46	-40.2	-41.4	21.3	0.00e+00	0	39	0	601882624	52	6700
2026-01-02 13:53:58.44	59.55	37.06	-38.8	-39.8	22.9	0.00e+00	0	39	0	609222656	50	6258
2026-01-02 13:54:02.47	60.91	37.66	-41.0	-42.2	20.9	0.00e+00	0	39	0	616562688	54	6602
2026-01-02 13:54:06.51	62.33	38.25	-40.4	-41.5	21.4	0.00e+00	0	39	0	623902720	54	6087
2026-01-02 13:54:10.55	63.81	38.84	-40.7	-41.9	21.4	0.00e+00	0	39	0	632291328	54	6387
2026-01-02 13:54:14.59	65.33	39.41	-39.7	-40.8	21.9	0.00e+00	0	39	0	639631360	54	5616
2026-01-02 13:54:18.63	66.91	39.96	-39.7	-40.7	22.2	0.00e+00	0	39	0	646971392	52	6242
2026-01-02 13:54:22.66	68.54	40.50	-39.8	-40.9	22.1	0.00e+00	0	39	0	654311424	52	6337
2026-01-02 13:54:26.70	70.22	41.03	-40.1	-41.2	21.7	0.00e+00	0	39	0	662700032	52	6575
2026-01-02 13:54:30.74	71.96	41.53	-38.8	-39.8	23.0	0.00e+00	0	39	0	670040064	52	5605
2026-01-02 13:54:34.77	73.75	42.00	-39.6	-40.6	22.2	0.00e+00	0	39	0	677380096	50	6884
2026-01-02 13:54:38.81	75.59	42.46	-40.4	-41.5	21.5	0.00e+00	0	39	0	684720128	52	6795
2026-01-02 13:54:42.85	77.49	42.88	-39.5	-40.5	22.4	0.00e+00	0	39	0	692060160	52	6060
2026-01-02 13:54:46.88	79.42	43.27	-39.9	-40.9	22.0	0.00e+00	0	39	0	700448768	52	6371
2026-01-02 13:54:50.92	81.41	43.64	-40.2	-41.3	21.8	0.00e+00	0	39	0	707788800	54	5956
2026-01-02 13:54:54.96	83.44	43.96	-38.8	-39.7	23.0	0.00e+00	0	39	0	715128832	50	6233
2026-01-02 13:54:58.99	85.51	44.25	-39.1	-40.2	22.7	0.00e+00	0	39	0	722468864	50	6564
2026-01-02 13:55:03.03	87.62	44.50	-39.5	-40.5	22.3	0.00e+00	0	39	0	729808896	50	6812
2026-01-02 13:55:07.07	89.75	44.71	-38.8	-39.8	22.9	0.00e+00	0	39	0	738197504	50	6253
2026-01-02 13:55:11.11	91.92	44.87	-36.9	-37.7	24.5	0.00e+00	0	39	0	745537536	46	6202
2026-01-02 13:55:15.14	94.09	44.99	-38.6	-39.5	23.3	0.00e+00	0	39	0	752877568	50	6055
2026-01-02 13:55:19.18	96.29	45.07	-37.7	-38.6	23.8	0.00e+00	0	39	0	760217600	48	6105
2026-01-02 13:55:23.22	98.49	45.10	-38.7	-39.7	23.0	0.00e+00	0	39	0	768606208	50	6219
2026-01-02 13:55:27.25	100.69	45.09	-37.2	-38.1	24.1	0.00e+00	0	39	0	775946240	48	5789
2026-01-02 13:55:31.29	102.89	45.02	-37.0	-37.8	24.5	0.00e+00	0	39	0	783286272	48	5608
2026-01-02 13:55:35.33	105.07	44.92	-38.1	-39.0	23.5	0.00e+00	0	39	0	790626304	48	6431
2026-01-02 13:55:39.37	107.25	44.77	-40.6	-41.9	21.2	0.00e+00	0	39	0	797966336	52	7113
2026-01-02 13:55:43.41	109.39	44.57	-40.3	-41.5	21.4	0.00e+00	0	39	0	806354944	52	6802
2026-01-02 13:55:47.45	111.51	44.34	-40.3	-41.5	21.7	0.00e+00	0	39	0	813694976	52	6780
2026-01-02 13:55:51.48	113.59	44.06	-39.0	-40.0	22.9	0.00e+00	0	39	0	821035008	52	5736
2026-01-02 13:55:55.51	115.64	43.75	-40.4	-41.6	21.5	0.00e+00	0	39	0	828375040	54	6128
2026-01-02 13:55:59.55	117.64	43.40	-39.3	-40.2	22.8	0.00e+00	0	39	0	836763648	52	5893
2026-01-02 13:56:03.59	119.61	43.01	-39.3	-40.2	22.7	0.00e+00	0	39	0	844103680	50	6612
2026-01-02 13:56:07.62	121.51	42.60	-38.9	-39.9	22.8	0.00e+00	0	39	0	851443712	50	6371
2026-01-02 13:56:11.65	123.37	42.16	-37.6	-38.4	23.9	0.00e+00	0	39	0	858783744	48	6027
2026-01-02 13:56:15.69	125.19	41.68	-37.7	-38.5	23.9	0.00e+00	0	39	0	866123776	48	6103
2026-01-02 13:56:19.73	126.95	41.19	-38.5	-39.4	23.1	0.00e+00	0	39	0	874512384	48	6717
2026-01-02 13:56:23.77	128.66	40.67	-39.5	-40.6	22.3	0.00e+00	0	39	0	881852416	52	6132
2026-01-02 13:56:27.80	130.30	40.14	-39.5	-40.6	22.2	0.00e+00	0	39	0	889192448	52	6132
2026-01-02 13:56:31.84	131.90	39.58	-39.5	-40.5	22.4	0.00e+00	0	39	0	896532480	50	6834
2026-01-02 13:56:35.88	133.45	39.01	-39.1	-40.1	22.6	0.00e+00	0	39	0	904921088	52	5811
2026-01-02 13:56:39.91	134.94	38.43	-42.5	-44.1	19.0	0.00e+00	0	39	0	912261120	56	7282
2026-01-02 13:56:43.95	136.38	37.84	-38.2	-39.1	23.5	0.00e+00	0	39	0	919601152	50	5793
2026-01-02 13:56:47.99	137.77	37.24	-39.1	-40.2	22.7	0.00e+00	0	39	0	926941184	52	5847
2026-01-02 13:56:52.03	139.11	36.64	-40.5	-41.8	21.3	0.00e+00	0	39	0	934281216	52	7052
2026-01-02 13:56:56.06	140.40	36.03	-37.3	-38.1	24.2	0.00e+00	0	39	0	942669824	48	5818
2026-01-02 13:57:00.10	141.65	35.41	-40.2	-41.4	21.9	0.00e+00	0	39	0	950009856	52	6709
2026-01-02 13:57:04.14	142.85	34.79	-36.8	-37.6	24.4	0.00e+00	0	39	0	957349888	46	6134
2026-01-02 13:57:08.17	144.00	34.18	-39.3	-40.4	22.5	0.00e+00	0	39	0	964689920	52	5997
2026-01-02 13:57:12.21	145.11	33.56	-38.6	-39.6	22.7	0.00e+00	0	39	0	973078528	48	6879
2026-01-02 13:57:16.25	146.19	32.94	-39.1	-40.2	22.5	0.00e+00	0	39	0	980418560	52	5859
2026-01-02 13:57:20.28	147.22	32.32	-39.5	-40.5	22.3	0.00e+00	0	39	0	987758592	50	6819
2026-01-02 13:57:24.32	148.21	31.71	-40.2	-41.4	21.5	0.00e+00	0	39	0	995098624	54	5986
2026-01-02 13:57:28.36	149.17	31.10	-37.7	-38.6	23.7	0.00e+00	0	39	0	1002438656	46	6867
2026-01-02 13:57:32.40	150.10	30.50	-42.2	-43.9	19.2	0.00e+00	0	39	0	1010827264	58	6350
2026-01-02 13:57:36.43	150.99	29.90	-37.0	-37.8	24.4	0.00e+00	0	39	0	1018167296	48	5618
2026-01-02 13:57:40.46	151.85	29.31	-38.0	-38.9	23.6	0.00e+00	0	39	0	1025507328	48	6387
2026-01-02 13:57:44.50	152.68	28.72	-39.2	-40.2	22.6	0.00e+00	0	39	0	1032847360	50	6543
2026-01-02 13:57:48.53	153.48	28.14	-39.0	-39.9	22.7	0.00e+00	0	39	0	1040187392	50	6390
2026-01-02 13:57:52.57	154.25	27.56	-39.3	-40.3	22.3	0.00e+00	0	39	0	1048576000	50	6692
2026-01-02 13:57:56.61	155.00	26.99	-39.4	-40.4	22.3	0.00e+00	0	39	0	1055916032	50	6746
2026-01-02 13:58:00.64	155.72	26.43	-37.7	-38.5	23.9	0.00e+00	0	39	0	1063256064	48	6101
2026-01-02 13:58:04.68	156.42	25.87	-37.7	-38.5	23.8	0.00e+00	0	39	0	1070596096	48	6096
2026-01-02 13:58:08.71	157.09	25.33	-39.1	-40.1	22.6	0.00e+00	0	39	0	1078984704	50	6487
2026-01-02 13:58:12.74	157.74	24.79	-39.8	-40.9	21.9	0.00e+00	0	39	0	1086324736	52	6334
2026-01-02 13:58:16.78	158.38	24.25	-40.0	-41.1	21.6	0.00e+00	0	39	0	1093664768	52	6513
2026-01-02 13:58:20.81	158.98	23.73	-41.3	-42.7	20.2	0.00e+00	0	39	0	1101004800	54	6975
2026-01-02 13:58:24.85	159.58	23.21	-40.1	-41.4	21.4	0.00e+00	0	39	0	1108344832	54	5978
2026-01-02 13:58:28.88	160.15	22.70	-40.4	-41.7	21.0	0.00e+00	0	39	0	1116733440	54	6185
2026-01-02 13:58:32.91	160.70	22.20	-41.3	-42.7	20.4	0.00e+00	0	39	0	1124073472	54	6930
2026-01-02 13:58:36.95	161.24	21.70	-39.9	-41.1	21.8	0.00e+00	0	39	0	1131413504	52	6470
2026-01-02 13:58:40.98	161.76	21.21	-37.6	-38.5	23.8	0.00e+00	0	39	0	1138753536	48	6066
2026-01-02 13:58:45.02	162.27	20.73	-37.7	-38.6	23.6	0.00e+00	0	39	0	1146093568	48	6137
2026-01-02 13:58:49.05	162.76	20.25	-39.7	-40.8	21.8	0.00e+00	0	39	0	1154482176	50	7048
2026-01-02 13:58:53.09	163.23	19.78	-40.7	-41.9	20.8	0.00e+00	0	39	0	1161822208	54	6384
2026-01-02 13:58:57.13	163.70	19.32	-40.5	-41.8	20.9	0.00e+00	0	39	0	1169162240	54	6249
2026-01-02 13:59:01.17	164.15	18.87	-39.9	-41.0	21.6	0.00e+00	0	39	0	1176502272	54	5733
2026-01-02 13:59:05.20	164.58	18.42	-39.0	-40.1	22.4	0.00e+00	0	39	0	1184890880	52	5776
2026-01-02 13:59:09.24	165.01	17.98	-39.1	-40.2	22.3	0.00e+00	0	39	0	1192230912	52	5871
2026-01-02 13:59:13.28	165.42	17.54	-39.4	-40.4	22.1	0.00e+00	0	39	0	1199570944	52	6033
2026-01-02 13:59:17.32	165.82	17.11	-39.9	-41.1	21.5	0.00e+00	0	39	0	1206910976	52	6470
2026-01-02 13:59:21.36	166.22	16.69	-39.5	-40.6	21.9	0.00e+00	0	39	0	1214251008	52	6105
2026-01-02 13:59:25.39	166.60	16.27	-39.6	-40.6	21.9	0.00e+00	0	39	0	1222639616	52	6157
2026-01-02 13:59:29.43	166.97	15.86	-39.2	-40.2	22.2	0.00e+00	0	39	0	1229979648	52	5890
2026-01-02 13:59:33.47	167.33	15.46	-39.9	-41.0	21.6	0.00e+00	0	39	0	1237319680	52	6432
2026-01-02 13:59:37.51	167.68	15.06	-39.9	-41.0	21.6	0.00e+00	0	39	0	1244659712	52	6448
2026-01-02 13:59:41.54	168.03	14.66	-39.9	-41.1	21.5	0.00e+00	0	39	0	1251999744	52	6497
2026-01-02 13:59:45.58	168.36	14.27	-39.3	-40.3	22.1	0.00e+00	0	39	0	1260388352	52	5960
2026-01-02 13:59:49.62	168.69	13.89	-38.6	-39.5	22.7	0.00e+00	0	39	0	1267728384	50	6088
2026-01-02 13:59:53.66	169.01	13.51	-38.6	-39.6	22.6	0.00e+00	0	39	0	1275068416	50	6130
2026-01-02 13:59:57.70	169.32	13.14	-38.7	-39.6	22.6	0.00e+00	0	39	0	1282408448	50	6169
2026-01-02 14:00:01.73	169.62	12.77	-39.7	-40.8	21.7	0.00e+00	0	39	0	1290797056	50	7009
2026-01-02 14:00:05.77	169.92	12.41	-40.6	-41.9	20.0	0.00e+00	0	39	0	1298137088	52	7109
2026-01-02 14:00:09.81	170.21	12.05	-41.5	-42.9	19.8	0.00e+00	0	39	0	1305477120	54	7153
2026-01-02 14:00:13.85	170.49	11.69	-41.2	-42.6	20.1	0.00e+00	0	39	0	1312817152	56	6121
2026-01-02 14:00:17.89	170.77	11.34	-41.0	-42.4	20.3	0.00e+00	0	39	0	1320157184	56	5983
2026-01-02 14:00:21.93	171.04	11.00	-40.4	-41.6	20.9	0.00e+00	0	39	0	1328545792	54	6130
2026-01-02 14:00:25.97	171.31	10.66	-40.2	-41.4	21.1	0.00e+00	0	39	0	1335885824	54	5975
2026-01-02 14:00:30.01	171.57	10.32	-39.6	-40.7	21.7	0.00e+00	0	39	0	1343225856	52	6198
2026-01-02 14:00:34.04	171.82	9.99	-39.1	-40.1	22.1	0.00e+00	0	39	0	1350565888	52	5819
2026-01-02 14:00:38.08	172.07	9.66	-39.0	-40.0	22.1	0.00e+00	0	39	0	1358954496	52	5708
2026-01-02 14:00:42.12	172.31	9.34	-39.1	-40.2	22.0	0.00e+00	0	39	0	1366294528	52	5844
2026-01-02 14:00:46.16	172.55	9.01	-39.1	-40.1	22.0	0.00e+00	0	39	0	1373634560	52	5807
2026-01-02 14:00:50.20	172.79	8.70	-39.5	-40.5	21.6	0.00e+00	0	39	0	1380974592	52	6103
2026-01-02 14:00:54.23	173.01	8.38	-40.0	-41.2	21.0	0.00e+00	0	39	0	1388314624	52	6579
2026-01-02 14:00:58.28	173.24	8.07	-40.5	-41.8	20.5	0.00e+00	0	39	0	1396703232	52	7034
2026-01-02 14:01:02.31	173.46	7.77	-40.7	-42.0	20.2	0.00e+00	0	39	0	1404043264	52	7236
2026-01-02 14:01:06.36	173.67	7.46	-40.9	-42.3	19.9	0.00e+00	0	39	0	1411383296	54	6644
2026-01-02 14:01:10.39	173.89	7.16	-41.4	-42.9	19.3	0.00e+00	0	39	0	1418723328	54	7096
2026-01-02 14:01:14.43	174.09	6.87	-41.8	-43.4	19.0	0.00e+00	0	39	0	1427111936	56	6699
2026-01-02 14:01:18.46	174.30	6.57	-41.5	-43.0	19.3	0.00e+00	0	39	0	1434451968	56	6432
2026-01-02 14:01:22.50	174.50	6.28	-41.5	-43.0	19.1	0.00e+00	0	39	0	1441792000	56	6435
2026-01-02 14:01:26.54	174.69	5.99	-41.9	-43.6	18.7	0.00e+00	0	39	0	1449132032	56	6850
2026-01-02 14:01:30.58	174.89	5.71	-41.9	-43.5	18.8	0.00e+00	0	39	0	1456472064	56	6811
2026-01-02 14:01:34.61	175.07	5.43	-42.0	-43.6	18.6	0.00e+00	0	39	0	1464860672	56	6860
2026-01-02 14:01:38.65	175.26	5.15	-42.3	-44.0	18.2	0.00e+00	0	39	0	1472200704	56	7190
2026-01-02 14:01:42.69	175.44	4.87	-42.1	-43.8	18.1	0.00e+00	0	39	0	1479540736	56	7071
2026-01-02 14:01:46.73	175.62	4.60	-42.4	-44.2	18.0	0.00e+00	0	39	0	1486880768	56	7382
2026-01-02 14:01:50.77	175.80	4.33	-42.4	-44.2	17.8	0.00e+00	0	39	0	1495269376	56	7386
2026-01-02 14:01:54.80	175.97	4.06	-42.8	-44.8	17.3	0.00e+00	0	39	0	1502609408	58	7061
2026-01-02 14:01:58.84	176.14	3.79	-42.8	-44.8	17.1	0.00e+00	0	39	0	1509949440	58	7062
2026-01-02 14:02:02.88	176.31	3.53	-43.2	-45.4	16.4	0.00e+00	0	39	0	1517289472	58	7589
2026-01-02 14:02:06.92	176.48	3.26	-43.4	-45.7	16.2	0.00e+00	0	39	0	1524629504	58	7781
2026-01-02 14:02:10.95	176.64	3.01	-43.5	-45.9	16.0	0.00e+00	0	39	0	1533018112	58	8027
2026-01-02 14:02:14.99	176.80	2.75	-49.2	-64.4	3.6	1.51e+00	0	39	104	1533018112	60	60221
2026-01-02 14:02:19.03	176.96	2.49	-49.5	-64.7	3.6	1.51e+00	0	39	104	1533018112	60	62068
2026-01-02 14:02:23.06	177.11	2.24	-49.4	-64.6	3.6	1.51e+00	0	39	104	1533018112	60	61622
2026-01-02 14:02:27.10	177.26	1.99	-49.4	-64.6	3.6	1.51e+00	0	39	104	1533018112	60	61315
2026-01-02 14:02:31.14	177.41	1.74	-49.4	-64.6	3.6	1.51e+00	0	39	104	1533018112	60	61389
2026-01-02 14:02:35.18	177.56	1.49	-49.4	-64.6	3.6	1.51e+00	0	39	104	1533018112	60	61447
2026-01-02 14:02:39.22	177.71	1.25	-49.4	-64.6	3.6	1.51e+00	0	39	104	1533018112	60	61705
2026-01-02 14:02:43.26	177.85	1.01	-49.4	-64.6	3.6	1.51e+00	0	39	104	1533018112	60	61519
2026-01-02 14:02:47.30	177.99	0.77	-49.4	-64.6	3.6	1.51e+00	0	39	104	1533018112	60	61739
2026-01-02 14:02:51.34	178.13	0.53	-49.4	-64.6	3.6	1.51e+00	0	39	104	1533018112	60	61658
2026-01-02 14:02:55.38	178.27	0.29	-49.4	-64.6	3.6	1.51e+00	0	39	104	1533018112	60	61286
2026-01-02 14:02:59.42	178.40	0.05	-49.4	-64.7	3.6	1.51e+00	0	39	104	1533018112	60	61758

#Closed at: 2026-01-02 14:03:01
#Recorded file [1533 MB]: D:/lorett/data/35029_260103_014746.dat