passes_logs/2026/01/02/R4.6S_Anadyr/R4.6S_Anadyr__20260102_020008_AQUA_rec.log

#Pass ID: 20260102_020008_AQUA
#Satellite: AQUA
#Configuration: AQUA
#almurnet v.1.7.20251203
#Start time: 2026-01-02 02:00:10

#Version: 2.2.20231116
#Station: R4.6S_Anadyr
#Location: 177.4865 lon 64.73178 lat
#TLE: 1 27424U 02022A   25365.92641127  .00002078  00000+0  42628-3 0  9999
#TLE: 2 27424  98.4058 327.1196 0001962  94.7781 340.6230 14.61783896258835

#Time	Az	El	Level	Level2	SNR	BER	BlckErr	Temp	State	Recorded	gain1	gain2
2026-01-02 02:00:10.03	158.49	0.07	-49.1	-64.0	3.5	1.51e+00	0	37	0	0	60	57425
2026-01-02 02:00:14.06	158.51	0.33	-49.3	-67.2	3.5	3.02e+01	0	38	104	0	60	88125
2026-01-02 02:00:18.10	158.53	0.58	-49.4	-67.2	3.5	3.02e+01	0	38	104	0	60	88006
2026-01-02 02:00:22.14	158.55	0.84	-48.8	-66.6	3.5	3.02e+01	0	39	104	0	60	82610
2026-01-02 02:00:26.18	158.57	1.09	-48.1	-65.9	3.5	3.02e+01	0	39	104	0	60	75915
2026-01-02 02:00:30.22	158.59	1.36	-48.1	-65.8	3.5	3.02e+01	0	39	104	0	60	74815
2026-01-02 02:00:34.26	158.62	1.62	-48.0	-65.3	3.5	3.02e+01	0	39	104	0	60	71175
2026-01-02 02:00:38.30	158.64	1.89	-48.1	-64.8	3.5	3.02e+01	0	39	104	0	60	66664
2026-01-02 02:00:42.34	158.66	2.15	-48.1	-65.4	3.5	3.02e+01	0	39	104	0	60	71942
2026-01-02 02:00:46.38	158.68	2.43	-48.1	-65.8	3.5	3.02e+01	0	39	104	0	60	75440
2026-01-02 02:00:50.42	158.71	2.70	-48.0	-64.4	3.5	3.02e+01	0	39	104	0	60	63677
2026-01-02 02:00:54.46	158.73	2.98	-47.8	-61.1	4.8	3.02e+01	0	39	104	0	60	43617
2026-01-02 02:00:58.50	158.75	3.26	-47.4	-56.0	8.6	3.02e+01	22	39	0	1572864	60	24382
2026-01-02 02:01:02.53	158.78	3.54	-42.2	-44.4	21.1	3.02e+01	0	39	0	9437184	60	6407
2026-01-02 02:01:06.57	158.80	3.83	-40.6	-42.4	23.0	3.02e+01	0	39	0	16777216	56	6416
2026-01-02 02:01:10.61	158.82	4.12	-43.2	-46.2	17.6	3.02e+01	0	39	0	20971520	54	11075
2026-01-02 02:01:14.65	158.85	4.42	-38.4	-39.9	25.4	3.02e+01	0	39	0	26214400	52	6011
2026-01-02 02:01:18.69	158.87	4.72	-37.8	-39.3	26.2	3.02e+01	0	39	0	33554432	50	6284
2026-01-02 02:01:22.73	158.90	5.02	-37.4	-38.8	26.6	3.02e+01	0	39	0	41418752	50	5965
2026-01-02 02:01:26.76	158.92	5.32	-38.0	-39.4	26.1	3.02e+01	0	39	0	48758784	50	6414
2026-01-02 02:01:30.80	158.95	5.63	-37.8	-39.2	26.3	3.02e+01	0	39	0	56623104	50	6231
2026-01-02 02:01:34.84	158.97	5.95	-37.0	-38.4	26.9	3.02e+01	0	39	0	63963136	48	6384
2026-01-02 02:01:38.87	159.00	6.27	-37.0	-38.3	27.2	3.02e+01	0	39	0	71827456	48	6320
2026-01-02 02:01:42.91	159.02	6.59	-36.9	-38.3	27.1	3.02e+01	0	39	0	79167488	48	6302
2026-01-02 02:01:46.94	159.05	6.91	-36.6	-37.9	27.5	3.02e+01	0	39	0	87031808	48	6061
2026-01-02 02:01:50.98	159.08	7.25	-36.7	-38.1	27.5	3.02e+01	0	39	0	94371840	48	6137
2026-01-02 02:01:55.01	159.11	7.58	-36.7	-38.0	27.5	3.02e+01	0	39	0	101711872	48	6096
2026-01-02 02:01:59.05	159.13	7.92	-36.5	-37.8	27.7	3.02e+01	0	39	0	109576192	48	5950
2026-01-02 02:02:03.09	159.16	8.27	-36.5	-37.7	27.8	3.02e+01	0	39	0	116916224	48	5920
2026-01-02 02:02:07.12	159.19	8.62	-36.4	-37.7	27.8	3.02e+01	0	39	0	124780544	48	5901
2026-01-02 02:02:11.15	159.22	8.98	-36.3	-37.6	28.0	3.02e+01	0	39	0	132120576	48	5815
2026-01-02 02:02:15.19	159.25	9.35	-36.2	-37.4	28.1	3.02e+01	0	39	0	139460608	48	5710
2026-01-02 02:02:19.23	159.28	9.72	-36.1	-37.4	28.2	3.02e+01	0	39	0	147324928	48	5715
2026-01-02 02:02:23.26	159.31	10.09	-36.0	-37.2	28.4	3.02e+01	0	39	0	154664960	46	6243
2026-01-02 02:02:27.30	159.34	10.47	-35.7	-36.9	28.7	3.02e+01	0	39	0	162529280	46	6030
2026-01-02 02:02:31.34	159.37	10.86	-35.7	-36.9	28.7	3.02e+01	0	39	0	169869312	46	6026
2026-01-02 02:02:35.37	159.40	11.26	-35.7	-36.9	28.7	3.02e+01	0	39	0	177733632	46	6028
2026-01-02 02:02:39.41	159.43	11.66	-35.5	-36.7	28.9	3.02e+01	0	39	0	185073664	46	5913
2026-01-02 02:02:43.45	159.46	12.07	-35.5	-36.7	28.9	3.02e+01	0	39	0	192937984	46	5888
2026-01-02 02:02:47.49	159.50	12.49	-35.6	-36.8	28.9	3.02e+01	0	39	0	200278016	46	5949
2026-01-02 02:02:51.53	159.53	12.92	-35.5	-36.7	28.9	3.02e+01	0	39	0	207618048	46	5901
2026-01-02 02:02:55.56	159.57	13.36	-35.6	-36.8	28.8	3.02e+01	0	39	0	215482368	46	5990
2026-01-02 02:02:59.60	159.60	13.80	-35.3	-36.5	29.1	3.02e+01	0	39	0	222822400	46	5781
2026-01-02 02:03:03.64	159.64	14.26	-35.3	-36.5	29.2	3.02e+01	0	39	0	230686720	46	5768
2026-01-02 02:03:07.68	159.67	14.72	-35.1	-36.3	29.3	3.02e+01	0	39	0	238026752	46	5631
2026-01-02 02:03:11.71	159.71	15.19	-34.9	-36.1	29.5	3.02e+01	0	39	0	245891072	44	6194
2026-01-02 02:03:15.75	159.75	15.68	-35.1	-36.3	29.4	3.02e+01	0	39	0	253231104	44	6316
2026-01-02 02:03:19.79	159.79	16.17	-35.2	-36.4	29.3	3.02e+01	0	39	0	260571136	44	6372
2026-01-02 02:03:23.82	159.83	16.68	-35.0	-36.2	29.4	3.02e+01	0	39	0	268435456	44	6271
2026-01-02 02:03:27.86	159.87	17.19	-35.1	-36.3	29.4	3.02e+01	0	39	0	275775488	44	6289
2026-01-02 02:03:31.90	159.91	17.72	-34.8	-36.0	29.7	3.02e+01	0	39	0	283639808	44	6092
2026-01-02 02:03:35.95	159.95	18.27	-34.8	-36.0	29.6	3.02e+01	0	39	0	290979840	44	6084
2026-01-02 02:03:39.98	160.00	18.82	-35.2	-36.4	29.3	3.02e+01	0	39	0	298844160	44	6412
2026-01-02 02:03:44.02	160.04	19.40	-35.3	-36.5	29.3	3.02e+01	0	39	0	306184192	44	6449
2026-01-02 02:03:48.06	160.09	19.98	-35.3	-36.5	29.3	3.02e+01	0	39	0	314048512	44	6479
2026-01-02 02:03:52.09	160.14	20.58	-35.3	-36.5	29.3	3.02e+01	0	39	0	321388544	44	6450
2026-01-02 02:03:56.13	160.19	21.20	-35.3	-36.5	29.3	3.02e+01	0	39	0	328728576	44	6485
2026-01-02 02:04:00.16	160.24	21.83	-35.6	-36.8	29.0	3.02e+01	0	39	0	336592896	44	6672
2026-01-02 02:04:04.19	160.29	22.48	-35.4	-36.6	29.3	3.02e+01	0	39	0	343932928	44	6564
2026-01-02 02:04:08.24	160.35	23.15	-35.5	-36.8	29.1	3.02e+01	0	39	0	351797248	44	6655
2026-01-02 02:04:12.27	160.40	23.84	-35.7	-37.0	29.0	3.02e+01	0	39	0	359137280	44	6827
2026-01-02 02:04:16.31	160.46	24.55	-35.2	-36.4	29.5	3.02e+01	0	39	0	367001600	44	6405
2026-01-02 02:04:20.35	160.52	25.28	-35.4	-36.6	29.3	3.02e+01	0	39	0	374341632	44	6553
2026-01-02 02:04:24.39	160.58	26.04	-35.3	-36.5	29.4	3.02e+01	0	39	0	382205952	44	6469
2026-01-02 02:04:28.42	160.65	26.81	-35.1	-36.2	29.7	3.02e+01	0	39	0	389545984	44	6264
2026-01-02 02:04:32.46	160.72	27.62	-34.9	-36.1	29.8	3.02e+01	0	39	0	396886016	44	6189
2026-01-02 02:04:36.50	160.79	28.45	-34.9	-36.1	29.8	3.02e+01	0	39	0	404750336	44	6160
2026-01-02 02:04:40.54	160.86	29.30	-34.6	-35.7	30.1	3.02e+01	0	39	0	412090368	44	5925
2026-01-02 02:04:44.58	160.94	30.19	-35.0	-36.2	29.7	3.02e+01	0	39	0	419954688	44	6268
2026-01-02 02:04:48.61	161.02	31.10	-34.8	-36.0	29.9	3.02e+01	0	39	0	427294720	44	6087
2026-01-02 02:04:52.65	161.11	32.05	-34.9	-36.1	29.8	3.02e+01	0	39	0	435159040	44	6159
2026-01-02 02:04:56.69	161.20	33.03	-35.1	-36.3	29.7	3.02e+01	0	39	0	442499072	44	6284
2026-01-02 02:05:00.73	161.29	34.04	-35.5	-36.8	29.3	3.02e+01	0	39	0	450363392	44	6653
2026-01-02 02:05:04.76	161.39	35.09	-36.0	-37.2	28.9	3.02e+01	0	39	0	457703424	44	7010
2026-01-02 02:05:08.80	161.50	36.18	-36.5	-37.8	28.5	3.02e+01	0	39	0	465043456	46	6657
2026-01-02 02:05:12.84	161.61	37.31	-36.9	-38.2	28.0	3.02e+01	0	39	0	472907776	48	6254
2026-01-02 02:05:16.87	161.73	38.48	-37.5	-38.8	27.5	3.02e+01	0	39	0	480247808	48	6725
2026-01-02 02:05:20.91	161.86	39.69	-37.0	-38.3	28.0	3.02e+01	0	39	0	488112128	48	6316
2026-01-02 02:05:24.94	161.99	40.95	-36.7	-38.0	28.3	3.02e+01	0	39	0	495452160	48	6105
2026-01-02 02:05:28.98	162.14	42.26	-36.0	-37.3	28.8	3.02e+01	0	39	0	503316480	48	5613
2026-01-02 02:05:33.02	162.30	43.63	-35.8	-37.0	29.0	3.02e+01	0	39	0	510656512	46	6113
2026-01-02 02:05:37.05	162.47	45.04	-35.2	-36.4	29.6	3.02e+01	0	39	0	518520832	46	5672
2026-01-02 02:05:41.09	162.66	46.50	-35.5	-36.7	29.3	3.02e+01	0	39	0	525860864	46	5865
2026-01-02 02:05:45.12	162.86	48.02	-35.3	-36.4	29.5	3.02e+01	0	39	0	533200896	46	5719
2026-01-02 02:05:49.16	163.09	49.60	-35.4	-36.5	29.4	3.02e+01	0	39	0	541065216	46	5791
2026-01-02 02:05:53.20	163.34	51.24	-34.7	-35.9	29.9	3.02e+01	0	39	0	548405248	44	6037
2026-01-02 02:05:57.24	163.62	52.94	-34.2	-35.4	30.4	3.02e+01	0	39	0	556269568	44	5698
2026-01-02 02:06:01.26	163.92	54.70	-34.6	-35.8	30.0	3.02e+01	0	39	0	563609600	44	5949
2026-01-02 02:06:05.29	164.27	56.52	-35.2	-36.4	29.6	3.02e+01	0	39	0	571473920	44	6383
2026-01-02 02:06:09.33	164.67	58.41	-36.5	-37.8	28.4	3.02e+01	0	39	0	578813952	46	6681
2026-01-02 02:06:13.37	165.13	60.36	-37.4	-38.7	27.6	3.02e+01	0	39	0	586153984	48	6644
2026-01-02 02:06:17.41	165.66	62.37	-37.9	-39.2	27.1	3.02e+01	0	39	0	594018304	50	6274
2026-01-02 02:06:21.44	166.29	64.44	-38.9	-40.4	26.1	3.02e+01	0	39	0	601358336	52	6362
2026-01-02 02:06:25.48	167.04	66.57	-40.2	-41.8	24.7	3.02e+01	0	39	0	609222656	54	6663
2026-01-02 02:06:29.52	167.96	68.76	-40.2	-41.8	24.7	3.02e+01	0	39	0	616562688	54	6669
2026-01-02 02:06:33.55	169.10	70.99	-40.5	-42.1	24.5	3.02e+01	0	39	0	624427008	56	6142
2026-01-02 02:06:37.59	170.58	73.27	-40.1	-41.7	25.1	3.02e+01	0	39	0	631767040	54	6617
2026-01-02 02:06:41.63	172.54	75.58	-38.9	-40.3	26.2	3.02e+01	0	39	0	639107072	52	6315
2026-01-02 02:06:45.67	175.29	77.91	-37.6	-38.9	27.4	3.02e+01	0	39	0	646971392	50	6039
2026-01-02 02:06:49.70	179.36	80.22	-36.5	-37.8	28.4	3.02e+01	0	39	0	654311424	48	5951
2026-01-02 02:06:53.73	185.98	82.49	-35.8	-37.0	29.0	3.02e+01	0	39	0	662175744	46	6126
2026-01-02 02:06:57.77	198.09	84.60	-36.0	-37.2	28.9	3.02e+01	0	39	0	669515776	46	6217
2026-01-02 02:07:01.80	222.61	86.20	-36.6	-37.9	28.6	3.02e+01	0	39	0	677380096	46	6778
2026-01-02 02:07:05.84	262.73	86.51	-35.2	-36.4	29.4	3.02e+01	0	39	0	684720128	46	5712
2026-01-02 02:07:09.88	293.71	85.25	-35.6	-36.8	29.3	3.02e+01	0	39	0	692060160	46	5966
2026-01-02 02:07:13.91	309.11	83.26	-36.5	-37.7	28.4	3.02e+01	0	39	0	699924480	46	6622
2026-01-02 02:07:17.94	317.17	81.04	-36.2	-37.5	28.6	3.02e+01	0	39	0	707264512	46	6453
2026-01-02 02:07:21.98	321.96	78.73	-36.9	-38.3	27.9	3.02e+01	0	39	0	715128832	46	7068
2026-01-02 02:07:26.01	325.08	76.41	-38.5	-40.0	26.4	3.02e+01	0	39	0	722468864	50	6840
2026-01-02 02:07:30.05	327.28	74.09	-39.0	-40.5	26.0	3.02e+01	0	39	0	730333184	52	6461
2026-01-02 02:07:34.09	328.91	71.81	-39.0	-40.5	26.1	3.02e+01	0	39	0	737673216	52	6440
2026-01-02 02:07:38.13	330.16	69.56	-39.2	-40.7	25.7	3.02e+01	0	39	0	745013248	52	6592
2026-01-02 02:07:42.17	331.15	67.36	-39.6	-41.1	25.3	3.02e+01	0	39	0	752877568	52	6941
2026-01-02 02:07:46.20	331.95	65.22	-38.7	-40.2	26.2	3.02e+01	0	39	0	760217600	52	6214
2026-01-02 02:07:50.24	332.62	63.13	-36.9	-38.2	28.0	3.02e+01	0	39	0	768081920	48	6254
2026-01-02 02:07:54.28	333.18	61.10	-36.1	-37.3	28.8	3.02e+01	0	39	0	775421952	48	5632
2026-01-02 02:07:58.32	333.67	59.13	-36.0	-37.3	28.8	3.02e+01	0	39	0	783286272	48	5599
2026-01-02 02:08:02.35	334.08	57.23	-36.4	-37.7	28.4	3.02e+01	0	39	0	790626304	46	6635
2026-01-02 02:08:06.38	334.45	55.39	-35.2	-36.4	29.6	3.02e+01	0	39	0	797966336	44	6415
2026-01-02 02:08:10.42	334.77	53.61	-34.4	-35.5	30.3	3.02e+01	0	39	0	805830656	44	5789
2026-01-02 02:08:14.45	335.06	51.89	-35.1	-36.3	29.7	3.02e+01	0	39	0	813170688	44	6345
2026-01-02 02:08:18.48	335.32	50.24	-35.4	-36.6	29.4	3.02e+01	0	39	0	821035008	44	6499
2026-01-02 02:08:22.52	335.55	48.64	-36.0	-37.2	29.0	3.02e+01	0	39	0	828375040	44	6997
2026-01-02 02:08:26.56	335.76	47.10	-36.5	-37.7	28.6	3.02e+01	0	39	0	836239360	46	6638
2026-01-02 02:08:30.59	335.96	45.62	-35.7	-36.9	29.2	3.02e+01	0	39	0	843579392	46	6008
2026-01-02 02:08:34.63	336.14	44.20	-35.8	-37.0	29.0	3.02e+01	0	39	0	850919424	46	6128
2026-01-02 02:08:38.67	336.30	42.82	-36.0	-37.2	28.9	3.02e+01	0	39	0	858783744	46	6277
2026-01-02 02:08:42.71	336.45	41.50	-36.4	-37.6	28.6	3.02e+01	0	39	0	866123776	46	6567
2026-01-02 02:08:46.74	336.59	40.23	-36.4	-37.7	28.4	3.02e+01	0	39	0	873988096	46	6583
2026-01-02 02:08:50.77	336.72	39.00	-37.0	-38.3	28.0	3.02e+01	0	39	0	881328128	48	6332
2026-01-02 02:08:54.81	336.85	37.82	-36.6	-37.9	28.3	3.02e+01	0	39	0	889192448	48	6043
2026-01-02 02:08:58.84	336.96	36.68	-36.1	-37.3	28.9	3.02e+01	0	39	0	896532480	48	5604
2026-01-02 02:09:02.87	337.07	35.58	-35.7	-36.9	29.2	3.02e+01	0	39	0	904396800	46	6023
2026-01-02 02:09:06.91	337.18	34.52	-35.4	-36.6	29.4	3.02e+01	0	39	0	911736832	46	5829
2026-01-02 02:09:10.94	337.27	33.49	-34.7	-35.9	30.0	3.02e+01	0	39	0	919076864	44	6026
2026-01-02 02:09:14.97	337.37	32.51	-34.7	-35.9	30.0	3.02e+01	0	39	0	926941184	44	6035
2026-01-02 02:09:19.01	337.45	31.55	-34.3	-35.5	30.3	3.02e+01	0	39	0	934281216	44	5730
2026-01-02 02:09:23.04	337.54	30.63	-34.5	-35.7	30.1	3.02e+01	0	39	0	942145536	44	5911
2026-01-02 02:09:27.08	337.62	29.74	-34.6	-35.8	30.1	3.02e+01	0	39	0	949485568	44	5983
2026-01-02 02:09:31.12	337.70	28.87	-34.9	-36.1	29.7	3.02e+01	0	39	0	957349888	44	6187
2026-01-02 02:09:35.15	337.77	28.04	-34.7	-35.9	29.9	3.02e+01	0	39	0	964689920	44	6045
2026-01-02 02:09:39.19	337.84	27.23	-34.8	-36.0	29.8	3.02e+01	0	39	0	972029952	44	6119
2026-01-02 02:09:43.22	337.91	26.45	-35.1	-36.3	29.6	3.02e+01	0	39	0	979894272	44	6316
2026-01-02 02:09:47.26	337.97	25.69	-35.5	-36.7	29.3	3.02e+01	0	39	0	987234304	44	6581
2026-01-02 02:09:51.30	338.04	24.95	-35.6	-36.8	29.2	3.02e+01	0	39	0	995098624	44	6697
2026-01-02 02:09:55.34	338.10	24.23	-35.8	-37.1	28.9	3.02e+01	0	39	0	1002438656	44	6890
2026-01-02 02:09:59.37	338.15	23.54	-35.7	-36.9	29.0	3.02e+01	0	39	0	1010302976	44	6796
2026-01-02 02:10:03.41	338.21	22.86	-35.5	-36.8	29.1	3.02e+01	0	39	0	1017643008	44	6662
2026-01-02 02:10:07.44	338.27	22.21	-35.5	-36.7	29.2	3.02e+01	0	39	0	1024983040	44	6595
2026-01-02 02:10:11.48	338.32	21.57	-35.5	-36.7	29.2	3.02e+01	0	39	0	1032847360	44	6609
2026-01-02 02:10:15.51	338.37	20.95	-35.4	-36.6	29.3	3.02e+01	0	39	0	1040187392	44	6547
2026-01-02 02:10:19.55	338.42	20.34	-35.5	-36.7	29.2	3.02e+01	0	39	0	1048051712	44	6616
2026-01-02 02:10:23.59	338.47	19.75	-35.4	-36.6	29.3	3.02e+01	0	39	0	1055391744	44	6529
2026-01-02 02:10:27.63	338.52	19.18	-35.4	-36.6	29.3	3.02e+01	0	39	0	1063256064	44	6562
2026-01-02 02:10:31.67	338.57	18.61	-35.4	-36.6	29.3	3.02e+01	0	39	0	1070596096	44	6526
2026-01-02 02:10:35.70	338.61	18.07	-35.7	-36.9	29.0	3.02e+01	0	39	0	1078460416	44	6769
2026-01-02 02:10:39.74	338.66	17.54	-35.6	-36.9	29.0	3.02e+01	0	39	0	1085800448	44	6728
2026-01-02 02:10:43.77	338.70	17.01	-35.4	-36.6	29.1	3.02e+01	0	39	0	1093140480	44	6554
2026-01-02 02:10:47.81	338.74	16.51	-35.4	-36.6	29.1	3.02e+01	0	39	0	1101004800	44	6545
2026-01-02 02:10:51.85	338.78	16.01	-35.3	-36.5	29.2	3.02e+01	0	39	0	1108344832	44	6484
2026-01-02 02:10:55.88	338.82	15.52	-35.3	-36.5	29.2	3.02e+01	0	39	0	1116209152	44	6439
2026-01-02 02:10:59.92	338.86	15.04	-35.4	-36.6	29.1	3.02e+01	0	39	0	1123549184	44	6539
2026-01-02 02:11:03.96	338.90	14.58	-35.2	-36.4	29.3	3.02e+01	0	39	0	1131413504	44	6413
2026-01-02 02:11:07.99	338.94	14.12	-35.6	-36.8	28.8	3.02e+01	0	39	0	1138753536	44	6695
2026-01-02 02:11:12.03	338.98	13.68	-35.3	-36.5	29.1	3.02e+01	0	39	0	1146093568	44	6498
2026-01-02 02:11:16.07	339.02	13.24	-35.5	-36.7	28.8	3.02e+01	0	39	0	1153957888	44	6647
2026-01-02 02:11:20.10	339.05	12.81	-35.4	-36.6	29.1	3.02e+01	0	39	0	1161297920	44	6529
2026-01-02 02:11:24.13	339.09	12.39	-38.0	-48.2	3.6	3.02e+01	0	39	104	1161822208	52	15589
2026-01-02 02:11:28.17	339.12	11.97	-44.2	-55.4	3.4	3.02e+01	0	39	104	1161822208	60	22702
2026-01-02 02:11:32.21	339.16	11.57	-36.3	-46.4	3.6	3.02e+01	0	39	104	1161822208	48	16029
2026-01-02 02:11:36.25	339.19	11.17	-40.7	-51.1	4.1	3.02e+01	0	39	104	1161822208	60	13847
2026-01-02 02:11:40.28	339.23	10.78	-38.7	-48.9	4.1	3.02e+01	0	39	104	1161822208	52	17003
2026-01-02 02:11:44.32	339.26	10.39	-47.9	-64.3	3.5	3.02e+01	0	39	104	1161822208	60	63463
2026-01-02 02:11:48.36	339.29	10.02	-38.0	-48.3	3.6	3.02e+01	0	39	104	1161822208	52	15933
2026-01-02 02:11:52.41	339.33	9.64	-36.8	-47.1	3.5	3.02e+01	0	39	104	1161822208	48	17410
2026-01-02 02:11:56.44	339.36	9.28	-36.7	-47.0	3.5	3.02e+01	0	39	104	1161822208	48	17136
2026-01-02 02:12:00.48	339.39	8.92	-41.0	-51.7	3.5	3.02e+01	0	39	104	1161822208	58	16577
2026-01-02 02:12:04.51	339.42	8.57	-40.8	-51.4	3.5	3.02e+01	0	39	104	1161822208	58	16003
2026-01-02 02:12:08.55	339.45	8.22	-37.0	-47.3	3.5	3.02e+01	0	39	104	1161822208	50	15902
2026-01-02 02:12:12.59	339.48	7.87	-39.9	-50.4	3.5	3.02e+01	0	39	104	1161822208	52	20254
2026-01-02 02:12:16.63	339.51	7.54	-37.8	-48.1	3.5	3.02e+01	0	39	104	1161822208	50	17290
2026-01-02 02:12:20.66	339.54	7.20	-42.3	-53.2	3.5	3.02e+01	0	39	104	1161822208	60	17675
2026-01-02 02:12:24.70	339.57	6.87	-37.6	-47.9	3.5	3.02e+01	0	39	104	1161822208	50	16948
2026-01-02 02:12:28.74	339.60	6.55	-47.3	-62.6	3.5	3.02e+01	0	39	104	1161822208	60	51996
2026-01-02 02:12:32.77	339.63	6.23	-38.6	-49.0	3.5	3.02e+01	0	39	104	1161822208	52	17105
2026-01-02 02:12:36.82	339.66	5.92	-45.3	-57.8	3.5	3.02e+01	0	39	104	1161822208	60	29980
2026-01-02 02:12:40.86	339.69	5.61	-39.8	-50.3	3.5	3.02e+01	0	39	104	1161822208	54	17887
2026-01-02 02:12:44.90	339.72	5.30	-39.7	-50.5	3.5	3.02e+01	0	39	104	1161822208	54	18140
2026-01-02 02:12:48.94	339.75	5.00	-45.2	-60.4	3.5	3.02e+01	0	39	104	1161822208	60	40372
2026-01-02 02:12:52.98	339.77	4.70	-43.3	-56.3	3.5	3.02e+01	0	39	104	1161822208	60	25073
2026-01-02 02:12:57.02	339.80	4.40	-44.8	-62.2	3.5	3.02e+01	0	39	104	1161822208	60	49372
2026-01-02 02:13:01.06	339.83	4.11	-44.8	-60.5	3.5	3.02e+01	0	39	104	1161822208	60	40979
2026-01-02 02:13:05.10	339.86	3.82	-44.8	-62.7	3.5	3.02e+01	0	39	104	1161822208	60	52624
2026-01-02 02:13:09.14	339.88	3.54	-44.9	-62.6	3.5	3.02e+01	0	39	104	1161822208	60	51630
2026-01-02 02:13:13.18	339.91	3.25	-44.8	-62.7	3.5	3.02e+01	0	39	104	1161822208	60	52370
2026-01-02 02:13:17.22	339.94	2.98	-46.2	-64.2	3.5	3.02e+01	0	39	104	1161822208	60	62153
2026-01-02 02:13:21.26	339.96	2.70	-49.3	-67.1	3.5	3.02e+01	0	39	104	1161822208	60	87522
2026-01-02 02:13:25.30	339.99	2.43	-49.1	-67.3	3.5	3.02e+01	0	39	104	1161822208	60	88904
2026-01-02 02:13:29.33	340.02	2.16	-49.2	-67.2	3.5	3.02e+01	0	39	104	1161822208	60	87880
2026-01-02 02:13:33.37	340.04	1.89	-49.3	-67.2	3.5	3.02e+01	0	39	104	1161822208	60	87985
2026-01-02 02:13:37.41	340.07	1.63	-49.3	-67.2	3.5	3.02e+01	0	39	104	1161822208	60	88068
2026-01-02 02:13:41.44	340.09	1.37	-49.4	-67.3	3.5	3.02e+01	0	39	104	1161822208	60	88918
2026-01-02 02:13:45.48	340.12	1.11	-49.3	-67.2	3.5	3.02e+01	0	39	104	1161822208	60	88145
2026-01-02 02:13:49.52	340.15	0.85	-49.3	-67.3	3.5	3.02e+01	0	39	104	1161822208	60	88692
2026-01-02 02:13:53.56	340.17	0.60	-49.3	-67.2	3.5	3.02e+01	0	39	104	1161822208	60	87854
2026-01-02 02:13:57.61	340.20	0.34	-49.3	-67.2	3.5	3.02e+01	0	39	104	1161822208	60	88580
2026-01-02 02:14:01.64	340.22	0.10	-49.4	-67.2	3.5	3.02e+01	0	39	104	1161822208	60	88544

#Closed at: 2026-01-02 02:14:05
#Recorded file [1161 MB]: D:/lorett/data/35029_260102_140010.dat