passes_logs/2026/01/02/R4.6S_Anadyr/R4.6S_Anadyr__20260102_172858_NOAA_20_JPSS-1_rec.log

#Pass ID: 20260102_172858_NOAA 20 (JPSS-1)
#Satellite: NOAA 20 (JPSS-1)
#Configuration: NOAA 20
#almurnet v.1.7.20251203
#Start time: 2026-01-02 17:29:00

#Version: 2.2.20231116
#Station: R4.6S_Anadyr
#Location: 177.4865 lon 64.73178 lat
#TLE: 1 43013U 17073A   26001.93781127  .00000184  00000+0  10834-3 0  9997
#TLE: 2 43013  98.7622 303.0160 0001916  58.2205 301.9158 14.19532295420889

#Time	Az	El	Level	Level2	SNR	BER	BlckErr	Temp	State	Recorded	gain1	gain2
2026-01-02 17:29:00.18	32.21	0.09	-49.9	-67.5	3.5	3.04e+01	0	36	0	0	60	91736
2026-01-02 17:29:04.22	31.97	0.30	-49.4	-64.6	3.6	1.51e+00	0	38	104	0	60	61623
2026-01-02 17:29:08.25	31.73	0.52	-49.4	-64.6	3.6	1.51e+00	0	38	104	0	60	61496
2026-01-02 17:29:12.29	31.48	0.73	-49.0	-64.2	3.6	1.51e+00	0	38	104	0	60	58700
2026-01-02 17:29:16.33	31.23	0.95	-48.2	-63.4	3.6	1.51e+00	0	38	104	0	60	53307
2026-01-02 17:29:20.37	30.97	1.17	-47.4	-62.6	3.6	1.51e+00	0	38	104	0	60	48776
2026-01-02 17:29:24.41	30.71	1.39	-47.4	-62.6	3.6	1.51e+00	0	38	104	0	60	48863
2026-01-02 17:29:28.45	30.44	1.61	-47.4	-62.6	3.6	1.51e+00	0	38	104	0	60	48674
2026-01-02 17:29:32.49	30.17	1.83	-47.4	-62.6	3.6	1.51e+00	0	38	104	0	60	48928
2026-01-02 17:29:36.54	29.90	2.06	-47.4	-62.5	3.5	1.51e+00	0	38	104	0	60	48292
2026-01-02 17:29:40.58	29.62	2.28	-47.4	-62.2	3.6	1.51e+00	0	38	104	0	60	46553
2026-01-02 17:29:44.61	29.34	2.51	-47.4	-62.6	3.6	1.51e+00	0	38	104	0	60	48658
2026-01-02 17:29:48.65	29.05	2.73	-47.4	-62.5	3.6	1.51e+00	0	38	104	0	60	48042
2026-01-02 17:29:52.69	28.76	2.96	-47.4	-62.3	3.6	1.51e+00	0	38	104	0	60	47320
2026-01-02 17:29:56.74	28.46	3.19	-46.8	-54.4	6.1	3.96e-01	92	39	0	1048576	60	18988
2026-01-02 17:30:00.78	28.16	3.42	-46.0	-51.6	9.7	1.51e+00	24	38	104	6291456	60	13744
2026-01-02 17:30:04.81	27.86	3.65	-42.5	-44.5	17.2	0.00e+00	65	39	0	8388608	58	6802
2026-01-02 17:30:08.84	27.55	3.88	-43.1	-45.3	16.6	0.00e+00	0	38	0	15728640	58	7480
2026-01-02 17:30:12.88	27.23	4.12	-42.8	-44.8	17.0	0.00e+00	92	39	0	23068672	58	7086
2026-01-02 17:30:16.92	26.91	4.35	-43.0	-45.1	16.9	0.00e+00	0	39	0	31457280	58	7296
2026-01-02 17:30:20.95	26.58	4.59	-42.7	-44.7	17.4	0.00e+00	0	39	0	38797312	58	6942
2026-01-02 17:30:24.99	26.25	4.83	-42.7	-44.6	17.6	0.00e+00	21	39	0	46137344	58	6906
2026-01-02 17:30:29.02	25.91	5.06	-42.4	-44.2	17.9	0.00e+00	92	39	0	53477376	58	6608
2026-01-02 17:30:33.06	25.57	5.30	-42.3	-44.1	18.1	0.00e+00	0	39	0	60817408	58	6499
2026-01-02 17:30:37.10	25.21	5.54	-42.6	-44.4	18.0	0.00e+00	0	39	0	69206016	58	6757
2026-01-02 17:30:41.13	24.86	5.79	-42.5	-44.3	18.0	0.00e+00	0	39	0	76546048	58	6646
2026-01-02 17:30:45.17	24.50	6.03	-42.4	-44.1	18.2	0.00e+00	91	39	0	83886080	58	6532
2026-01-02 17:30:49.21	24.13	6.27	-42.2	-43.9	18.5	0.00e+00	24	39	0	91226112	58	6344
2026-01-02 17:30:53.25	23.75	6.52	-42.3	-44.0	18.4	0.00e+00	63	39	0	99614720	58	6445
2026-01-02 17:30:57.29	23.37	6.76	-42.0	-43.6	18.9	0.00e+00	59	39	0	106954752	58	6150
2026-01-02 17:31:01.32	22.98	7.01	-42.2	-43.8	18.7	0.00e+00	92	39	0	114294784	58	6276
2026-01-02 17:31:05.36	22.58	7.26	-41.7	-43.2	19.4	0.00e+00	0	39	0	121634816	56	6579
2026-01-02 17:31:09.40	22.18	7.51	-41.8	-43.3	19.3	0.00e+00	63	39	0	128974848	56	6690
2026-01-02 17:31:13.44	21.77	7.76	-41.6	-43.1	19.5	0.00e+00	19	39	0	137363456	56	6489
2026-01-02 17:31:17.48	21.35	8.01	-41.7	-43.2	19.4	0.00e+00	90	39	0	144703488	56	6607
2026-01-02 17:31:21.51	20.93	8.26	-41.8	-43.3	19.4	0.00e+00	5	39	0	152043520	56	6680
2026-01-02 17:31:25.55	20.49	8.52	-41.8	-43.3	19.3	0.00e+00	23	39	0	159383552	56	6681
2026-01-02 17:31:29.59	20.05	8.77	-41.9	-43.4	19.3	0.00e+00	23	39	0	167772160	56	6757
2026-01-02 17:31:33.63	19.60	9.03	-41.8	-43.3	19.4	0.00e+00	87	39	0	175112192	56	6683
2026-01-02 17:31:37.67	19.15	9.28	-41.8	-43.2	19.4	0.00e+00	0	39	0	182452224	56	6607
2026-01-02 17:31:41.71	18.68	9.54	-41.5	-43.0	19.7	0.00e+00	0	39	0	189792256	56	6425
2026-01-02 17:31:45.75	18.21	9.80	-41.5	-42.9	19.8	0.00e+00	92	39	0	197132288	56	6350
2026-01-02 17:31:49.79	17.72	10.06	-41.3	-42.7	20.0	0.00e+00	26	39	0	205520896	56	6204
2026-01-02 17:31:53.83	17.23	10.32	-41.3	-42.7	20.1	0.00e+00	24	39	0	212860928	56	6209
2026-01-02 17:31:57.87	16.73	10.58	-41.4	-42.8	20.1	0.00e+00	0	39	0	220200960	56	6276
2026-01-02 17:32:01.91	16.22	10.84	-41.3	-42.6	20.2	0.00e+00	92	39	0	227540992	56	6173
2026-01-02 17:32:05.95	15.70	11.10	-41.0	-42.3	20.6	0.00e+00	0	39	0	235929600	56	5897
2026-01-02 17:32:09.98	15.17	11.36	-40.8	-42.1	20.7	0.00e+00	19	39	0	243269632	56	5777
2026-01-02 17:32:14.02	14.64	11.62	-40.6	-41.8	21.0	0.00e+00	56	39	0	250609664	54	6267
2026-01-02 17:32:18.06	14.09	11.89	-40.7	-41.9	20.8	0.00e+00	92	39	0	257949696	54	6369
2026-01-02 17:32:22.09	13.53	12.15	-40.5	-41.7	21.1	0.00e+00	0	39	0	265289728	54	6229
2026-01-02 17:32:26.13	12.96	12.41	-40.5	-41.7	21.1	0.00e+00	0	39	0	273678336	54	6232
2026-01-02 17:32:30.17	12.38	12.67	-40.4	-41.6	21.2	0.00e+00	0	39	0	281018368	54	6161
2026-01-02 17:32:34.21	11.79	12.93	-40.6	-41.8	21.0	0.00e+00	92	39	0	288358400	54	6275
2026-01-02 17:32:38.24	11.19	13.20	-40.6	-41.9	21.0	0.00e+00	55	39	0	295698432	54	6319
2026-01-02 17:32:42.28	10.58	13.46	-40.7	-41.9	21.0	0.00e+00	2	39	0	303038464	54	6334
2026-01-02 17:32:46.32	9.96	13.72	-40.9	-42.1	20.8	0.00e+00	0	39	0	311427072	54	6533
2026-01-02 17:32:50.36	9.32	13.98	-40.7	-41.9	21.0	0.00e+00	90	39	0	318767104	54	6367
2026-01-02 17:32:54.40	8.68	14.24	-40.8	-42.1	20.9	0.00e+00	24	39	0	326107136	54	6490
2026-01-02 17:32:58.43	8.02	14.50	-41.1	-42.4	20.6	0.00e+00	0	39	0	333447168	54	6704
2026-01-02 17:33:02.47	7.35	14.75	-41.3	-42.6	20.3	0.00e+00	83	39	0	341835776	54	6879
2026-01-02 17:33:06.51	6.67	15.01	-41.1	-42.4	20.6	0.00e+00	1	39	0	349175808	54	6740
2026-01-02 17:33:10.55	5.98	15.26	-41.0	-42.3	20.8	0.00e+00	25	39	0	356515840	54	6643
2026-01-02 17:33:14.59	5.27	15.52	-41.0	-42.3	20.8	0.00e+00	20	39	0	363855872	54	6616
2026-01-02 17:33:18.63	4.56	15.77	-41.2	-42.5	20.6	0.00e+00	92	39	0	371195904	54	6806
2026-01-02 17:33:22.67	3.83	16.02	-40.6	-41.8	21.3	0.00e+00	5	39	0	379584512	54	6257
2026-01-02 17:33:26.70	3.09	16.26	-40.0	-41.1	21.9	0.00e+00	7	39	0	386924544	54	5815
2026-01-02 17:33:30.74	2.33	16.51	-40.0	-41.1	21.9	0.00e+00	6	39	0	394264576	54	5824
2026-01-02 17:33:34.78	1.56	16.75	-39.6	-40.6	22.4	0.00e+00	91	39	0	401604608	52	6150
2026-01-02 17:33:38.81	0.79	16.99	-39.2	-40.1	22.8	0.00e+00	60	39	0	409993216	52	5822
2026-01-02 17:33:42.85	360.00	17.22	-38.8	-39.8	23.2	0.00e+00	56	39	0	417333248	52	5583
2026-01-02 17:33:46.89	359.19	17.45	-38.7	-39.7	23.3	0.00e+00	0	39	0	424673280	50	6194
2026-01-02 17:33:50.93	358.37	17.68	-38.5	-39.5	23.5	0.00e+00	92	39	0	432013312	50	6046
2026-01-02 17:33:54.97	357.54	17.91	-38.7	-39.6	23.6	0.00e+00	3	39	0	439353344	50	6139
2026-01-02 17:33:59.00	356.70	18.12	-38.4	-39.3	23.6	0.00e+00	27	39	0	447741952	50	5932
2026-01-02 17:34:03.04	355.85	18.34	-38.2	-39.1	23.6	0.00e+00	0	39	0	455081984	50	5812
2026-01-02 17:34:07.08	354.98	18.55	-38.4	-39.3	23.5	0.00e+00	92	39	0	462422016	50	5944
2026-01-02 17:34:11.12	354.11	18.75	-38.6	-39.6	23.5	0.00e+00	2	39	0	469762048	50	6110
2026-01-02 17:34:15.16	353.22	18.95	-38.8	-39.8	23.3	0.00e+00	0	39	0	478150656	50	6259
2026-01-02 17:34:19.19	352.32	19.15	-38.8	-39.8	23.2	0.00e+00	0	39	0	485490688	50	6271
2026-01-02 17:34:23.23	351.40	19.33	-38.2	-39.1	23.8	0.00e+00	90	39	0	492830720	50	5800
2026-01-02 17:34:27.27	350.48	19.52	-37.9	-38.7	23.5	0.00e+00	0	39	0	500170752	50	5548
2026-01-02 17:34:31.30	349.54	19.69	-37.9	-38.7	24.2	0.00e+00	0	39	0	507510784	50	5537
2026-01-02 17:34:35.34	348.60	19.86	-38.1	-39.0	23.9	0.00e+00	0	39	0	515899392	50	5697
2026-01-02 17:34:39.38	347.64	20.02	-37.8	-38.7	24.1	0.00e+00	90	39	0	523239424	48	6181
2026-01-02 17:34:43.42	346.67	20.17	-37.6	-38.4	24.4	0.00e+00	0	39	0	530579456	48	6026
2026-01-02 17:34:47.46	345.70	20.32	-37.8	-38.6	24.2	0.00e+00	56	39	0	537919488	48	6166
2026-01-02 17:34:51.50	344.71	20.45	-37.8	-38.7	24.2	0.00e+00	26	39	0	546308096	48	6195
2026-01-02 17:34:55.53	343.72	20.58	-38.2	-39.1	23.7	0.00e+00	88	39	0	553648128	48	6511
2026-01-02 17:34:59.57	342.72	20.70	-38.2	-39.1	23.8	0.00e+00	25	39	0	560988160	48	6472
2026-01-02 17:35:03.61	341.71	20.81	-38.8	-39.8	23.3	0.00e+00	25	39	0	568328192	50	6265
2026-01-02 17:35:07.65	340.69	20.92	-39.0	-39.9	23.1	0.00e+00	92	39	0	575668224	50	6371
2026-01-02 17:35:11.60	339.69	21.01	-39.3	-40.3	22.8	0.00e+00	61	39	0	584056832	50	6652
2026-01-02 17:35:15.64	338.66	21.09	-39.4	-40.4	22.7	0.00e+00	7	39	0	591396864	50	6721
2026-01-02 17:35:19.68	337.63	21.17	-39.6	-40.7	22.4	0.00e+00	27	39	0	598736896	50	6955
2026-01-02 17:35:23.72	336.59	21.23	-40.0	-41.1	22.1	0.00e+00	92	39	0	606076928	52	6511
2026-01-02 17:35:27.76	335.54	21.29	-39.9	-41.0	22.3	0.00e+00	55	39	0	613416960	52	6399
2026-01-02 17:35:31.79	334.50	21.33	-39.6	-40.6	22.5	0.00e+00	0	39	0	621805568	52	6122
2026-01-02 17:35:35.83	333.45	21.36	-39.8	-40.8	22.4	0.00e+00	0	39	0	629145600	52	6299
2026-01-02 17:35:39.87	332.40	21.39	-40.0	-41.0	22.1	0.00e+00	90	39	0	636485632	52	6459
2026-01-02 17:35:43.91	331.34	21.40	-40.1	-41.1	22.2	0.00e+00	54	39	0	643825664	52	6518
2026-01-02 17:35:47.95	330.29	21.41	-39.6	-40.6	22.6	0.00e+00	26	39	0	652214272	52	6159
2026-01-02 17:35:51.98	329.24	21.40	-39.6	-40.6	22.6	0.00e+00	0	39	0	659554304	52	6119
2026-01-02 17:35:56.02	328.19	21.38	-39.1	-40.1	23.0	0.00e+00	92	39	0	666894336	52	5776
2026-01-02 17:36:00.06	327.13	21.36	-38.9	-39.9	23.3	0.00e+00	26	39	0	674234368	52	5634
2026-01-02 17:36:04.10	326.09	21.32	-38.8	-39.7	23.4	0.00e+00	21	39	0	681574400	52	5522
2026-01-02 17:36:08.13	325.04	21.27	-38.3	-39.2	23.8	0.00e+00	0	39	0	689963008	50	5840
2026-01-02 17:36:12.17	324.00	21.21	-38.2	-39.1	23.9	0.00e+00	92	39	0	697303040	50	5793
2026-01-02 17:36:16.20	322.96	21.15	-37.9	-38.8	24.2	0.00e+00	0	39	0	704643072	50	5584
2026-01-02 17:36:20.24	321.93	21.07	-37.6	-38.4	24.3	0.00e+00	0	39	0	711983104	48	6011
2026-01-02 17:36:24.28	320.90	20.98	-37.4	-38.2	24.6	0.00e+00	2	38	0	720371712	48	5865
2026-01-02 17:36:28.32	319.88	20.89	-37.3	-38.1	24.8	0.00e+00	91	39	0	727711744	48	5792
2026-01-02 17:36:32.35	318.86	20.78	-37.7	-38.5	24.4	0.00e+00	60	39	0	735051776	48	6081
2026-01-02 17:36:36.39	317.85	20.67	-37.6	-38.4	24.6	0.00e+00	3	39	0	742391808	48	5990
2026-01-02 17:36:40.42	316.86	20.55	-37.7	-38.5	24.4	0.00e+00	89	39	0	749731840	48	6068
2026-01-02 17:36:44.46	315.86	20.42	-38.3	-39.2	23.9	0.00e+00	25	39	0	758120448	48	6544
2026-01-02 17:36:48.50	314.88	20.28	-38.7	-39.6	23.4	0.00e+00	25	39	0	765460480	48	6910
2026-01-02 17:36:52.54	313.91	20.13	-39.0	-40.0	23.2	0.00e+00	60	39	0	772800512	50	6419
2026-01-02 17:36:56.57	312.94	19.97	-39.2	-40.2	22.9	0.00e+00	92	39	0	780140544	50	6560
2026-01-02 17:37:00.61	311.99	19.81	-39.4	-40.4	22.9	0.00e+00	0	39	0	788529152	50	6698
2026-01-02 17:37:04.65	311.04	19.64	-39.4	-40.4	22.8	0.00e+00	0	39	0	795869184	50	6714
2026-01-02 17:37:08.69	310.11	19.46	-39.6	-40.6	22.6	0.00e+00	19	39	0	803209216	50	6908
2026-01-02 17:37:12.72	309.19	19.28	-39.5	-40.5	22.6	0.00e+00	90	39	0	810549248	52	6100
2026-01-02 17:37:16.76	308.28	19.09	-39.6	-40.6	22.6	0.00e+00	56	39	0	817889280	52	6133
2026-01-02 17:37:20.80	307.38	18.90	-39.4	-40.4	22.8	0.00e+00	0	39	0	826277888	52	6004
2026-01-02 17:37:24.84	306.49	18.69	-39.7	-40.7	22.6	0.00e+00	0	39	0	833617920	52	6186
2026-01-02 17:37:28.87	305.61	18.49	-39.6	-40.6	22.7	0.00e+00	92	39	0	840957952	52	6120
2026-01-02 17:37:32.91	304.75	18.28	-39.8	-40.8	22.5	0.00e+00	21	39	0	848297984	52	6273
2026-01-02 17:37:36.95	303.90	18.06	-39.9	-40.9	22.3	0.00e+00	19	39	0	856686592	52	6373
2026-01-02 17:37:40.99	303.06	17.84	-39.7	-40.8	22.5	0.00e+00	0	39	0	864026624	52	6254
2026-01-02 17:37:45.03	302.23	17.61	-39.6	-40.6	22.6	0.00e+00	92	39	0	871366656	52	6128
2026-01-02 17:37:49.06	301.42	17.38	-39.7	-40.7	22.4	0.00e+00	25	39	0	878706688	52	6218
2026-01-02 17:37:53.10	300.61	17.15	-39.7	-40.7	22.4	0.00e+00	0	39	0	886046720	52	6226
2026-01-02 17:37:57.14	299.82	16.91	-39.6	-40.6	22.5	0.00e+00	0	39	0	894435328	52	6133
2026-01-02 17:38:01.17	299.05	16.68	-39.4	-40.4	22.7	0.00e+00	92	39	0	901775360	52	6013
2026-01-02 17:38:05.21	298.28	16.43	-39.9	-40.9	22.3	0.00e+00	0	39	0	909115392	52	6385
2026-01-02 17:38:09.24	297.53	16.19	-40.0	-41.0	22.1	0.00e+00	2	39	0	916455424	52	6423
2026-01-02 17:38:13.28	296.79	15.94	-40.2	-41.2	21.9	0.00e+00	0	39	0	924844032	52	6607
2026-01-02 17:38:17.31	296.07	15.69	-40.2	-41.3	21.9	0.00e+00	92	39	0	932184064	52	6623
2026-01-02 17:38:21.35	295.35	15.44	-40.0	-41.1	22.1	0.00e+00	58	39	0	939524096	52	6489
2026-01-02 17:38:25.39	294.65	15.18	-40.2	-41.3	21.9	0.00e+00	61	39	0	946864128	52	6664
2026-01-02 17:38:29.43	293.96	14.93	-40.3	-41.4	21.7	0.00e+00	92	39	0	954204160	52	6723
2026-01-02 17:38:33.46	293.28	14.67	-40.1	-41.2	22.0	0.00e+00	0	39	0	962592768	52	6551
2026-01-02 17:38:37.50	292.61	14.41	-39.8	-40.9	22.3	0.00e+00	4	39	0	969932800	52	6320
2026-01-02 17:38:41.54	291.95	14.16	-39.9	-41.0	22.0	0.00e+00	6	39	0	977272832	52	6406
2026-01-02 17:38:45.58	291.31	13.90	-39.8	-40.9	22.2	0.00e+00	92	39	0	984612864	52	6346
2026-01-02 17:38:49.62	290.68	13.63	-39.6	-40.7	22.4	0.00e+00	0	39	0	993001472	52	6191
2026-01-02 17:38:53.66	290.06	13.37	-39.2	-40.2	22.8	0.00e+00	23	39	0	1000341504	52	5870
2026-01-02 17:38:57.70	289.44	13.11	-39.0	-40.0	22.9	0.00e+00	3	39	0	1007681536	52	5724
2026-01-02 17:39:01.74	288.84	12.85	-39.0	-40.0	22.9	0.00e+00	92	39	0	1015021568	52	5728
2026-01-02 17:39:05.78	288.26	12.59	-38.9	-39.8	22.6	0.00e+00	0	39	0	1022361600	52	5626
2026-01-02 17:39:09.81	287.68	12.32	-38.8	-39.8	23.1	0.00e+00	0	39	0	1030750208	50	6262
2026-01-02 17:39:13.85	287.11	12.06	-38.8	-39.7	23.2	0.00e+00	2	39	0	1038090240	50	6216
2026-01-02 17:39:17.88	286.55	11.80	-38.9	-39.8	23.0	0.00e+00	92	39	0	1045430272	50	6294
2026-01-02 17:39:21.91	286.01	11.54	-39.0	-40.0	22.9	0.00e+00	21	39	0	1052770304	50	6411
2026-01-02 17:39:25.95	285.47	11.27	-39.0	-40.0	22.9	0.00e+00	59	39	0	1060110336	50	6417
2026-01-02 17:39:29.99	284.94	11.01	-39.4	-40.5	22.4	0.00e+00	62	39	0	1068498944	50	6771
2026-01-02 17:39:34.02	284.42	10.75	-39.6	-40.7	22.2	0.00e+00	92	39	0	1075838976	50	6933
2026-01-02 17:39:38.06	283.91	10.49	-39.2	-40.2	22.6	0.00e+00	0	39	0	1083179008	50	6592
2026-01-02 17:39:42.09	283.42	10.23	-39.2	-40.2	22.6	0.00e+00	0	39	0	1090519040	50	6580
2026-01-02 17:39:46.13	282.92	9.97	-39.5	-40.5	22.3	0.00e+00	0	39	0	1098907648	50	6799
2026-01-02 17:39:50.17	282.44	9.71	-39.9	-41.0	21.9	0.00e+00	92	39	0	1106247680	52	6401
2026-01-02 17:39:54.21	281.97	9.45	-40.0	-41.1	21.8	0.00e+00	0	39	0	1113587712	52	6478
2026-01-02 17:39:58.25	281.50	9.20	-40.1	-41.2	21.7	0.00e+00	0	39	0	1120927744	52	6588
2026-01-02 17:40:02.28	281.05	8.94	-40.3	-41.5	21.3	0.00e+00	87	39	0	1128267776	52	6805
2026-01-02 17:40:06.32	280.60	8.68	-40.6	-41.8	21.0	0.00e+00	39	39	0	1136656384	54	6296
2026-01-02 17:40:10.36	280.16	8.43	-40.9	-42.1	20.6	0.00e+00	2	39	0	1143996416	54	6522
2026-01-02 17:40:14.39	279.73	8.18	-40.7	-42.0	20.8	0.00e+00	64	39	0	1151336448	54	6401
2026-01-02 17:40:18.43	279.30	7.92	-41.0	-42.2	20.4	0.00e+00	92	39	0	1158676480	54	6609
2026-01-02 17:40:22.46	278.88	7.67	-41.0	-42.3	20.4	0.00e+00	4	39	0	1167065088	54	6687
2026-01-02 17:40:26.51	278.47	7.42	-41.2	-42.6	20.1	0.00e+00	19	39	0	1174405120	54	6853
2026-01-02 17:40:30.55	278.07	7.17	-41.2	-42.5	20.2	0.00e+00	69	39	0	1181745152	54	6799
2026-01-02 17:40:34.59	277.67	6.92	-41.3	-42.7	20.0	0.00e+00	92	39	0	1189085184	54	6961
2026-01-02 17:40:38.63	277.28	6.67	-41.5	-42.9	19.7	0.00e+00	2	39	0	1196425216	54	7160
2026-01-02 17:40:42.66	276.90	6.43	-41.9	-43.4	19.3	0.00e+00	4	39	0	1204813824	56	6696
2026-01-02 17:40:46.69	276.53	6.18	-42.2	-43.8	18.9	0.00e+00	3	39	0	1212153856	56	7052
2026-01-02 17:40:50.73	276.16	5.94	-41.9	-43.4	19.3	0.00e+00	93	39	0	1219493888	56	6731
2026-01-02 17:40:54.77	275.79	5.70	-42.0	-43.6	18.9	0.00e+00	63	39	0	1226833920	56	6867
2026-01-02 17:40:58.80	275.44	5.45	-42.2	-43.9	18.6	0.00e+00	63	39	0	1234173952	56	7101
2026-01-02 17:41:02.84	275.09	5.21	-42.6	-44.4	18.2	0.00e+00	0	39	0	1242562560	56	7573
2026-01-02 17:41:06.88	274.74	4.97	-42.7	-44.5	18.0	0.00e+00	92	39	0	1249902592	58	6841
2026-01-02 17:41:10.91	274.40	4.74	-42.7	-44.5	18.1	0.00e+00	64	39	0	1257242624	58	6829
2026-01-02 17:41:14.95	274.07	4.50	-42.5	-44.3	18.0	0.00e+00	0	39	0	1264582656	58	6628
2026-01-02 17:41:18.99	273.74	4.26	-42.7	-44.5	17.8	0.00e+00	0	39	0	1272971264	58	6817
2026-01-02 17:41:23.02	273.42	4.03	-42.8	-44.7	17.6	0.00e+00	92	39	0	1280311296	58	6948
2026-01-02 17:41:27.06	273.10	3.80	-42.9	-44.9	17.3	0.00e+00	18	39	0	1287651328	58	7099
2026-01-02 17:41:31.10	272.79	3.56	-42.8	-44.8	17.3	0.00e+00	2	39	0	1294991360	58	7016
2026-01-02 17:41:35.13	272.48	3.33	-43.3	-45.6	16.3	0.00e+00	0	39	0	1302331392	58	7717
2026-01-02 17:41:39.17	272.18	3.10	-43.4	-45.8	16.1	0.00e+00	53	39	0	1310720000	58	7887
2026-01-02 17:41:43.21	271.88	2.87	-49.2	-64.4	3.6	1.51e+00	0	39	104	1312817152	60	59841
2026-01-02 17:41:47.24	271.59	2.65	-49.5	-64.7	3.6	1.51e+00	0	39	104	1312817152	60	62286
2026-01-02 17:41:51.28	271.30	2.42	-49.6	-64.8	3.6	1.51e+00	0	39	104	1312817152	60	62731
2026-01-02 17:41:55.32	271.02	2.19	-49.4	-64.7	3.6	1.51e+00	0	39	104	1312817152	60	61859
2026-01-02 17:41:59.36	270.74	1.97	-49.5	-64.7	3.6	1.51e+00	0	39	104	1312817152	60	62064
2026-01-02 17:42:03.40	270.47	1.75	-49.5	-64.6	3.6	1.51e+00	0	39	104	1312817152	60	61710
2026-01-02 17:42:07.44	270.19	1.53	-49.5	-64.7	3.6	1.51e+00	0	39	104	1312817152	60	61787
2026-01-02 17:42:11.48	269.93	1.30	-49.5	-64.7	3.6	1.51e+00	0	39	104	1312817152	60	61753
2026-01-02 17:42:15.52	269.67	1.08	-49.5	-64.6	3.6	1.51e+00	0	39	104	1312817152	60	61395
2026-01-02 17:42:19.56	269.41	0.87	-49.5	-64.6	3.6	1.51e+00	0	39	104	1312817152	60	61545
2026-01-02 17:42:23.59	269.16	0.65	-49.4	-64.6	3.6	1.51e+00	0	39	104	1312817152	60	61390
2026-01-02 17:42:27.63	268.90	0.43	-49.4	-64.7	3.6	1.51e+00	0	39	104	1312817152	60	61860
2026-01-02 17:42:31.67	268.66	0.22	-49.4	-64.7	3.6	1.51e+00	0	39	104	1312817152	60	61759
2026-01-02 17:42:35.71	268.42	0.00	-49.5	-64.6	3.6	1.51e+00	0	39	104	1312817152	60	61539

#Closed at: 2026-01-02 17:42:36
#Recorded file [1312 MB]: D:/lorett/data/35029_260103_052900.dat