passes_logs/2026/01/02/R4.6S_Anadyr/R4.6S_Anadyr__20260102_231352_NOAA_21_JPSS-2_rec.log

#Pass ID: 20260102_231352_NOAA 21 (JPSS-2)
#Satellite: NOAA 21 (JPSS-2)
#Configuration: NOAA-21
#almurnet v.1.7.20251203
#Start time: 2026-01-02 23:13:58

#Version: 2.2.20231116
#Station: R4.6S_Anadyr
#Location: 177.4865 lon 64.73178 lat
#TLE: 1 54234U 22150A   26002.74826289  .00000196  00000+0  11365-3 0  9998
#TLE: 2 54234  98.7486 303.7970 0001197 349.3858  10.7292 14.19531423163070

#Time	Az	El	Level	Level2	SNR	BER	BlckErr	Temp	State	Recorded	gain1	gain2
2026-01-02 23:13:58.54	132.02	0.34	-50.4	-52.0	5.7	0.00e+00	0	36	0	0	60	48518
2026-01-02 23:14:02.44	131.93	0.57	-50.1	-62.9	3.5	1.52e+00	0	38	104	0	60	49263
2026-01-02 23:14:06.35	131.83	0.80	-49.7	-62.6	3.5	1.52e+00	0	38	104	0	60	47394
2026-01-02 23:14:10.26	131.73	1.04	-48.7	-61.8	3.5	1.52e+00	0	38	104	0	60	42963
2026-01-02 23:14:14.18	131.63	1.28	-48.3	-61.3	3.5	1.52e+00	0	38	104	0	60	40822
2026-01-02 23:14:18.09	131.53	1.52	-48.3	-61.2	3.5	1.52e+00	0	38	104	0	60	40526
2026-01-02 23:14:22.00	131.43	1.77	-48.3	-61.2	3.5	1.52e+00	0	38	104	0	60	40506
2026-01-02 23:14:25.91	131.32	2.01	-48.3	-61.2	3.5	1.51e+00	0	38	104	0	60	40280
2026-01-02 23:14:29.82	131.22	2.26	-48.3	-61.1	3.5	1.52e+00	0	38	104	0	60	39854
2026-01-02 23:14:33.74	131.11	2.51	-48.3	-61.3	3.5	1.52e+00	0	38	104	0	60	40912
2026-01-02 23:14:37.65	131.00	2.76	-48.3	-61.0	3.5	1.52e+00	0	38	104	0	60	39182
2026-01-02 23:14:41.57	130.88	3.02	-48.2	-60.3	3.5	1.51e+00	0	38	104	0	60	36214
2026-01-02 23:14:45.48	130.77	3.27	-48.3	-61.2	3.5	1.52e+00	0	38	104	0	60	40404
2026-01-02 23:14:49.39	130.65	3.53	-46.4	-50.8	9.4	3.02e-02	0	38	0	3145728	60	12199
2026-01-02 23:14:53.31	130.53	3.79	-43.8	-46.2	11.6	0.00e+00	0	38	0	15728640	60	7146
2026-01-02 23:14:57.21	130.41	4.05	-48.6	-60.6	3.6	1.51e+00	0	38	104	15728640	60	37814
2026-01-02 23:15:01.12	130.28	4.32	-41.0	-42.6	17.9	0.00e+00	0	39	0	23068672	56	5946
2026-01-02 23:15:05.04	130.16	4.59	-40.2	-41.6	19.0	0.00e+00	0	38	0	34603008	54	5945
2026-01-02 23:15:08.95	130.03	4.86	-39.6	-40.9	19.7	0.00e+00	0	39	0	47185920	52	6176
2026-01-02 23:15:12.85	129.89	5.13	-39.1	-40.3	20.2	0.00e+00	0	39	0	59768832	52	5759
2026-01-02 23:15:16.77	129.76	5.41	-39.1	-40.3	20.3	0.00e+00	0	39	0	71303168	52	5771
2026-01-02 23:15:20.67	129.62	5.69	-38.9	-40.1	20.5	0.00e+00	0	39	0	83886080	52	5604
2026-01-02 23:15:24.59	129.48	5.97	-38.9	-40.0	20.7	0.00e+00	0	39	0	95420416	50	6266
2026-01-02 23:15:28.50	129.34	6.25	-38.4	-39.6	21.1	0.00e+00	0	39	0	108003328	50	5942
2026-01-02 23:15:32.41	129.19	6.54	-38.4	-39.5	21.1	0.00e+00	0	39	0	120586240	50	5896
2026-01-02 23:15:36.34	129.04	6.83	-38.4	-39.5	21.1	0.00e+00	0	39	0	132120576	50	5910
2026-01-02 23:15:40.25	128.89	7.12	-38.2	-39.4	21.2	0.00e+00	0	39	0	144703488	50	5793
2026-01-02 23:15:44.17	128.73	7.42	-38.1	-39.1	21.4	0.00e+00	0	39	0	157286400	50	5648
2026-01-02 23:15:48.08	128.57	7.72	-38.0	-39.1	21.5	0.00e+00	0	39	0	169869312	50	5625
2026-01-02 23:15:51.99	128.40	8.02	-38.0	-39.1	21.6	0.00e+00	0	39	0	181403648	50	5608
2026-01-02 23:15:55.89	128.24	8.33	-37.7	-38.7	21.8	0.00e+00	0	39	0	193986560	48	6061
2026-01-02 23:15:59.80	128.07	8.64	-37.6	-38.7	21.8	0.00e+00	0	39	0	206569472	48	6012
2026-01-02 23:16:03.71	127.89	8.95	-37.5	-38.5	22.1	0.00e+00	0	39	0	218103808	48	5892
2026-01-02 23:16:07.62	127.71	9.27	-37.2	-38.2	22.2	0.00e+00	0	39	0	230686720	48	5712
2026-01-02 23:16:11.54	127.53	9.59	-37.2	-38.2	22.3	0.00e+00	0	39	0	242221056	48	5721
2026-01-02 23:16:15.45	127.34	9.92	-37.1	-38.1	22.5	0.00e+00	0	39	0	254803968	48	5629
2026-01-02 23:16:19.36	127.15	10.25	-37.1	-38.1	22.5	0.00e+00	0	39	0	267386880	48	5632
2026-01-02 23:16:23.28	126.95	10.58	-36.9	-37.9	22.7	0.00e+00	0	39	0	278921216	48	5526
2026-01-02 23:16:27.19	126.75	10.92	-36.8	-37.8	22.8	0.00e+00	0	39	0	291504128	48	5449
2026-01-02 23:16:31.11	126.54	11.26	-36.7	-37.7	23.0	0.00e+00	0	39	0	304087040	46	6014
2026-01-02 23:16:35.02	126.33	11.61	-36.7	-37.7	23.0	0.00e+00	0	39	0	315621376	46	6015
2026-01-02 23:16:38.94	126.11	11.96	-36.6	-37.6	23.1	0.00e+00	0	39	0	328204288	46	5946
2026-01-02 23:16:42.87	125.89	12.32	-36.4	-37.4	23.3	0.00e+00	0	39	0	340787200	46	5816
2026-01-02 23:16:46.77	125.66	12.68	-36.4	-37.3	23.4	0.00e+00	0	39	0	352321536	46	5784
2026-01-02 23:16:50.68	125.43	13.04	-36.5	-37.4	23.4	0.00e+00	0	39	0	364904448	46	5826
2026-01-02 23:16:54.59	125.18	13.41	-36.5	-37.5	23.2	0.00e+00	0	39	0	377487360	46	5892
2026-01-02 23:16:58.50	124.94	13.79	-36.5	-37.5	23.3	0.00e+00	0	39	0	389021696	46	5878
2026-01-02 23:17:02.42	124.68	14.17	-36.4	-37.4	23.4	0.00e+00	0	39	0	401604608	46	5800
2026-01-02 23:17:06.33	124.42	14.55	-36.5	-37.4	23.4	0.00e+00	0	39	0	414187520	46	5844
2026-01-02 23:17:10.24	124.15	14.95	-36.4	-37.4	23.4	0.00e+00	0	39	0	425721856	46	5793
2026-01-02 23:17:14.16	123.88	15.34	-36.3	-37.2	23.6	0.00e+00	0	39	0	438304768	46	5715
2026-01-02 23:17:18.08	123.59	15.75	-36.4	-37.4	23.5	0.00e+00	0	39	0	450887680	46	5821
2026-01-02 23:17:21.99	123.30	16.16	-36.7	-37.6	23.4	0.00e+00	0	39	0	462422016	46	5963
2026-01-02 23:17:25.91	123.00	16.57	-36.8	-37.8	23.2	0.00e+00	0	39	0	475004928	46	6101
2026-01-02 23:17:29.83	122.69	17.00	-36.7	-37.7	23.3	0.00e+00	0	39	0	487587840	46	5998
2026-01-02 23:17:33.73	122.37	17.42	-36.8	-37.7	23.2	0.00e+00	0	39	0	499122176	46	6045
2026-01-02 23:17:37.64	122.05	17.86	-36.8	-37.7	23.3	0.00e+00	0	39	0	511705088	46	6057
2026-01-02 23:17:41.56	121.71	18.30	-36.7	-37.7	23.4	0.00e+00	0	39	0	524288000	46	6018
2026-01-02 23:17:45.47	121.36	18.75	-36.6	-37.5	23.5	0.00e+00	0	39	0	535822336	46	5906
2026-01-02 23:17:49.39	121.00	19.21	-36.6	-37.5	23.5	0.00e+00	0	39	0	548405248	46	5897
2026-01-02 23:17:53.31	120.63	19.67	-36.6	-37.5	23.5	0.00e+00	0	39	0	560988160	46	5922
2026-01-02 23:17:57.22	120.25	20.14	-36.4	-37.3	23.6	0.00e+00	0	39	0	572522496	46	5780
2026-01-02 23:18:01.13	119.86	20.62	-36.3	-37.2	23.7	0.00e+00	0	39	0	585105408	46	5683
2026-01-02 23:18:05.04	119.45	21.10	-35.9	-36.8	24.1	0.00e+00	0	39	0	597688320	46	5467
2026-01-02 23:18:08.95	119.03	21.60	-35.5	-36.5	24.3	0.00e+00	0	39	0	609222656	44	5865
2026-01-02 23:18:12.87	118.59	22.10	-35.6	-36.5	24.2	0.00e+00	0	39	0	621805568	44	5899
2026-01-02 23:18:16.77	118.15	22.61	-35.3	-36.2	24.6	0.00e+00	0	39	0	634388480	44	5700
2026-01-02 23:18:20.68	117.68	23.13	-35.2	-36.1	24.6	0.00e+00	0	39	0	645922816	44	5639
2026-01-02 23:18:24.59	117.20	23.65	-34.9	-35.8	24.9	0.00e+00	0	39	0	658505728	44	5451
2026-01-02 23:18:28.50	116.70	24.19	-35.1	-35.9	24.7	0.00e+00	0	39	0	671088640	44	5525
2026-01-02 23:18:32.41	116.19	24.73	-35.3	-36.2	24.6	0.00e+00	0	39	0	682622976	44	5673
2026-01-02 23:18:36.32	115.66	25.28	-35.5	-36.3	24.5	0.00e+00	0	39	0	695205888	44	5776
2026-01-02 23:18:40.22	115.11	25.84	-35.5	-36.4	24.4	0.00e+00	0	39	0	707788800	44	5835
2026-01-02 23:18:44.13	114.53	26.41	-35.8	-36.7	24.2	0.00e+00	0	39	0	719323136	44	6064
2026-01-02 23:18:48.05	113.94	26.99	-36.1	-37.0	24.0	0.00e+00	0	39	0	731906048	44	6273
2026-01-02 23:18:51.96	113.32	27.58	-36.3	-37.2	23.9	0.00e+00	0	39	0	744488960	44	6421
2026-01-02 23:18:55.88	112.68	28.18	-36.2	-37.2	23.8	0.00e+00	0	39	0	756023296	44	6368
2026-01-02 23:18:59.79	112.01	28.78	-36.6	-37.5	23.5	0.00e+00	0	39	0	768606208	44	6626
2026-01-02 23:19:03.70	111.32	29.40	-36.4	-37.4	23.9	0.00e+00	0	39	0	781189120	44	6504
2026-01-02 23:19:07.62	110.60	30.02	-36.2	-37.1	24.1	0.00e+00	0	39	0	792723456	44	6339
2026-01-02 23:19:11.55	109.85	30.65	-36.3	-37.2	23.7	0.00e+00	0	39	0	805306368	44	6393
2026-01-02 23:19:15.46	109.07	31.29	-36.6	-37.6	23.7	0.00e+00	0	39	0	817889280	44	6658
2026-01-02 23:19:19.38	108.25	31.94	-36.9	-37.8	23.5	0.00e+00	0	39	0	829423616	46	6112
2026-01-02 23:19:23.30	107.41	32.60	-36.6	-37.5	23.7	0.00e+00	0	39	0	842006528	46	5892
2026-01-02 23:19:27.22	106.53	33.26	-36.9	-37.8	23.5	0.00e+00	0	39	0	854589440	46	6114
2026-01-02 23:19:31.13	105.61	33.93	-37.1	-38.1	23.3	0.00e+00	0	39	0	866123776	46	6280
2026-01-02 23:19:35.05	104.65	34.60	-37.2	-38.2	23.2	0.00e+00	0	39	0	878706688	46	6371
2026-01-02 23:19:38.98	103.65	35.28	-37.7	-38.7	22.9	0.00e+00	0	39	0	891289600	46	6780
2026-01-02 23:19:42.89	102.61	35.96	-37.6	-38.6	22.9	0.00e+00	0	39	0	902823936	48	5949
2026-01-02 23:19:46.81	101.52	36.65	-38.0	-39.0	22.4	0.00e+00	0	39	0	915406848	48	6274
2026-01-02 23:19:50.72	100.39	37.34	-38.0	-39.0	22.5	0.00e+00	0	39	0	927989760	48	6264
2026-01-02 23:19:54.63	99.21	38.03	-37.8	-38.8	22.7	0.00e+00	0	39	0	939524096	48	6068
2026-01-02 23:19:58.55	97.98	38.72	-37.7	-38.7	22.9	0.00e+00	0	39	0	952107008	48	6046
2026-01-02 23:20:02.47	96.69	39.40	-37.5	-38.5	23.1	0.00e+00	0	39	0	964689920	48	5859
2026-01-02 23:20:06.38	95.35	40.09	-37.9	-38.8	22.7	0.00e+00	0	39	0	976224256	48	6134
2026-01-02 23:20:10.29	93.95	40.76	-38.5	-39.5	22.2	0.00e+00	0	39	0	988807168	48	6621
2026-01-02 23:20:14.21	92.49	41.43	-39.3	-40.4	21.4	0.00e+00	0	39	0	1001390080	50	6555
2026-01-02 23:20:18.13	90.96	42.09	-39.6	-40.7	21.2	0.00e+00	0	39	0	1012924416	50	6774
2026-01-02 23:20:22.05	89.38	42.74	-40.0	-41.1	20.8	0.00e+00	0	39	0	1025507328	52	6313
2026-01-02 23:20:25.98	87.72	43.38	-39.2	-40.2	21.7	0.00e+00	0	39	0	1038090240	52	5717
2026-01-02 23:20:29.92	86.00	44.00	-38.5	-39.5	22.2	0.00e+00	0	39	0	1050673152	50	5885
2026-01-02 23:20:33.85	84.21	44.59	-39.2	-40.3	21.4	0.00e+00	0	39	0	1062207488	50	6495
2026-01-02 23:20:37.78	82.35	45.16	-39.1	-40.2	21.8	0.00e+00	0	39	0	1074790400	50	6356
2026-01-02 23:20:41.71	80.43	45.71	-38.8	-39.8	21.9	0.00e+00	0	39	0	1087373312	50	6132
2026-01-02 23:20:45.67	78.42	46.23	-38.3	-39.3	22.2	0.00e+00	0	39	0	1098907648	50	5776
2026-01-02 23:20:49.62	76.36	46.71	-39.0	-40.1	21.7	0.00e+00	0	40	0	1111490560	50	6343
2026-01-02 23:20:53.56	74.24	47.16	-39.3	-40.3	21.5	0.00e+00	0	39	0	1124073472	50	6495
2026-01-02 23:20:57.53	72.04	47.57	-39.6	-40.7	21.2	0.00e+00	0	39	0	1136656384	52	6058
2026-01-02 23:21:01.54	69.76	47.94	-38.8	-39.9	21.9	0.00e+00	0	39	0	1149239296	50	6142
2026-01-02 23:21:05.55	67.44	48.26	-38.0	-39.0	22.6	0.00e+00	0	39	0	1161822208	50	5549
2026-01-02 23:21:09.55	65.07	48.53	-38.0	-38.9	22.7	0.00e+00	0	40	0	1174405120	50	5509
2026-01-02 23:21:13.53	62.68	48.74	-39.1	-40.1	21.8	0.00e+00	0	40	0	1185939456	50	6328
2026-01-02 23:21:17.53	60.25	48.91	-39.0	-40.1	21.6	0.00e+00	0	39	0	1198522368	50	6327
2026-01-02 23:21:21.56	57.77	49.02	-38.5	-39.5	22.1	0.00e+00	0	40	0	1211105280	50	5902
2026-01-02 23:21:25.60	55.28	49.07	-38.6	-39.7	21.9	0.00e+00	0	40	0	1224736768	50	5998
2026-01-02 23:21:29.64	52.79	49.06	-37.6	-38.6	23.0	0.00e+00	0	40	0	1236271104	48	5971
2026-01-02 23:21:33.67	50.31	48.99	-37.7	-38.7	22.9	0.00e+00	0	40	0	1248854016	48	6007
2026-01-02 23:21:37.71	47.83	48.87	-38.8	-39.9	21.9	0.00e+00	0	40	0	1262485504	50	6169
2026-01-02 23:21:41.76	45.38	48.69	-39.4	-40.5	21.3	0.00e+00	0	40	0	1275068416	50	6597
2026-01-02 23:21:45.80	42.96	48.45	-38.5	-39.6	22.3	0.00e+00	0	40	0	1287651328	50	5935
2026-01-02 23:21:49.84	40.59	48.17	-38.5	-39.5	22.2	0.00e+00	0	40	0	1300234240	50	5868
2026-01-02 23:21:53.88	38.26	47.83	-38.1	-39.0	22.6	0.00e+00	0	40	0	1312817152	50	5585
2026-01-02 23:21:57.92	35.99	47.44	-38.4	-39.4	22.4	0.00e+00	0	40	0	1325400064	50	5820
2026-01-02 23:22:01.96	33.78	47.02	-38.4	-39.4	22.3	0.00e+00	0	40	0	1337982976	50	5813
2026-01-02 23:22:06.00	31.63	46.55	-39.3	-40.4	21.3	0.00e+00	0	40	0	1350565888	50	6557
2026-01-02 23:22:10.03	29.55	46.04	-37.7	-38.7	22.9	0.00e+00	0	40	0	1363148800	48	6032
2026-01-02 23:22:14.07	27.53	45.50	-39.7	-40.9	20.9	0.00e+00	0	40	0	1375731712	52	6159
2026-01-02 23:22:18.11	25.59	44.93	-38.7	-39.8	22.1	0.00e+00	0	40	0	1388314624	48	6829
2026-01-02 23:22:22.15	23.72	44.33	-38.3	-39.3	21.8	0.00e+00	0	40	0	1400897536	50	5766
2026-01-02 23:22:26.20	21.91	43.71	-38.6	-39.6	22.2	0.00e+00	0	40	0	1413480448	48	6691
2026-01-02 23:22:30.24	20.18	43.07	-39.8	-41.1	19.8	0.00e+00	0	40	0	1426063360	52	6333
2026-01-02 23:22:34.28	18.51	42.41	-39.6	-40.7	21.1	0.00e+00	0	40	0	1438646272	52	6032
2026-01-02 23:22:38.32	16.92	41.73	-38.2	-39.3	22.3	0.00e+00	0	40	0	1451229184	50	5726
2026-01-02 23:22:42.36	15.39	41.05	-39.2	-40.3	21.7	0.00e+00	0	40	0	1463812096	50	6461
2026-01-02 23:22:46.40	13.92	40.35	-38.9	-40.0	21.7	0.00e+00	0	40	0	1476395008	52	5554
2026-01-02 23:22:50.44	12.52	39.65	-38.5	-39.5	22.2	0.00e+00	0	40	0	1488977920	50	5924
2026-01-02 23:22:54.48	11.18	38.95	-39.5	-40.6	21.2	0.00e+00	0	40	0	1501560832	50	6698
2026-01-02 23:22:58.52	9.90	38.24	-37.3	-38.2	23.3	0.00e+00	0	40	0	1514143744	48	5690
2026-01-02 23:23:02.56	8.67	37.53	-38.9	-40.0	21.9	0.00e+00	0	40	0	1526726656	50	6248
2026-01-02 23:23:06.60	7.49	36.82	-38.2	-39.2	22.5	0.00e+00	0	40	0	1540358144	50	5716
2026-01-02 23:23:10.65	6.36	36.12	-36.5	-37.4	23.9	0.00e+00	0	39	0	1551892480	46	5836
2026-01-02 23:23:14.69	5.28	35.41	-36.9	-37.8	23.6	0.00e+00	0	39	0	1565523968	46	6123
2026-01-02 23:23:18.72	4.26	34.72	-36.2	-37.1	24.1	0.00e+00	0	39	0	1578106880	46	5642
2026-01-02 23:23:22.77	3.27	34.02	-36.9	-37.9	23.3	0.00e+00	0	40	0	1590689792	46	6154
2026-01-02 23:23:26.81	2.32	33.34	-37.1	-38.1	23.3	0.00e+00	0	39	0	1603272704	46	6310
2026-01-02 23:23:30.85	1.41	32.65	-36.7	-37.6	23.6	0.00e+00	0	39	0	1615855616	46	5945
2026-01-02 23:23:34.88	0.54	31.98	-37.4	-38.4	23.1	0.00e+00	0	39	0	1628438528	46	6517
2026-01-02 23:23:38.92	359.71	31.32	-36.5	-37.4	23.8	0.00e+00	0	39	0	1641021440	46	5839
2026-01-02 23:23:42.96	358.91	30.66	-36.0	-36.9	24.3	0.00e+00	0	40	0	1653604352	46	5511
2026-01-02 23:23:47.00	358.14	30.01	-36.6	-37.5	23.8	0.00e+00	0	39	0	1666187264	46	5918
2026-01-02 23:23:51.05	357.40	29.37	-36.6	-37.6	23.8	0.00e+00	0	39	0	1678770176	46	5929
2026-01-02 23:23:55.09	356.70	28.74	-36.4	-37.4	23.9	0.00e+00	0	39	0	1691353088	46	5795
2026-01-02 23:23:59.13	356.02	28.12	-35.9	-36.8	24.3	0.00e+00	0	39	0	1703936000	46	5440
2026-01-02 23:24:03.17	355.36	27.51	-36.1	-37.1	24.1	0.00e+00	0	39	0	1716518912	46	5596
2026-01-02 23:24:07.21	354.73	26.91	-36.1	-37.0	24.0	0.00e+00	0	39	0	1729101824	46	5571
2026-01-02 23:24:11.25	354.13	26.31	-35.4	-36.3	24.6	0.00e+00	0	39	0	1741684736	44	5790
2026-01-02 23:24:15.29	353.54	25.73	-35.5	-36.4	24.5	0.00e+00	0	39	0	1754267648	44	5831
2026-01-02 23:24:19.33	352.98	25.16	-35.8	-36.7	24.3	0.00e+00	0	39	0	1766850560	44	6058
2026-01-02 23:24:23.37	352.44	24.59	-36.0	-36.9	24.1	0.00e+00	0	39	0	1779433472	44	6177
2026-01-02 23:24:27.41	351.92	24.04	-36.2	-37.2	23.9	0.00e+00	0	39	0	1792016384	44	6362
2026-01-02 23:24:31.45	351.42	23.49	-36.4	-37.4	23.9	0.00e+00	0	39	0	1804599296	44	6524
2026-01-02 23:24:35.49	350.93	22.95	-36.6	-37.6	23.7	0.00e+00	0	39	0	1817182208	46	5940
2026-01-02 23:24:39.53	350.46	22.42	-36.3	-37.2	23.9	0.00e+00	0	39	0	1829765120	46	5698
2026-01-02 23:24:43.57	350.01	21.90	-35.7	-36.6	24.4	0.00e+00	0	39	0	1842348032	44	5938
2026-01-02 23:24:47.61	349.57	21.39	-35.5	-36.4	24.5	0.00e+00	0	39	0	1855979520	44	5818
2026-01-02 23:24:51.65	349.15	20.89	-35.8	-36.7	24.3	0.00e+00	0	39	0	1867513856	44	6017
2026-01-02 23:24:55.69	348.74	20.39	-36.0	-36.9	24.1	0.00e+00	0	39	0	1881145344	44	6184
2026-01-02 23:24:59.73	348.34	19.91	-36.3	-37.3	23.7	0.00e+00	0	39	0	1893728256	44	6452
2026-01-02 23:25:03.77	347.96	19.43	-36.2	-37.2	23.7	0.00e+00	0	39	0	1906311168	44	6363
2026-01-02 23:25:07.81	347.59	18.96	-36.2	-37.1	23.8	0.00e+00	0	39	0	1918894080	44	6298
2026-01-02 23:25:11.85	347.23	18.49	-36.1	-37.0	23.9	0.00e+00	0	39	0	1931476992	44	6229
2026-01-02 23:25:15.89	346.88	18.04	-35.9	-36.8	24.2	0.00e+00	0	39	0	1944059904	44	6128
2026-01-02 23:25:19.93	346.55	17.59	-36.1	-37.1	23.9	0.00e+00	0	39	0	1956642816	44	6285
2026-01-02 23:25:23.97	346.22	17.15	-36.4	-37.3	23.8	0.00e+00	0	39	0	1969225728	44	6435
2026-01-02 23:25:28.01	345.90	16.71	-36.7	-37.6	23.6	0.00e+00	0	39	0	1981808640	46	5944
2026-01-02 23:25:32.05	345.59	16.28	-37.0	-37.9	23.4	0.00e+00	0	39	0	1994391552	46	6191
2026-01-02 23:25:36.10	345.29	15.86	-37.0	-37.9	23.3	0.00e+00	0	39	0	2006974464	46	6171
2026-01-02 23:25:40.14	345.00	15.45	-37.1	-38.0	23.1	0.00e+00	0	39	0	2019557376	46	6277
2026-01-02 23:25:44.18	344.72	15.04	-37.1	-38.0	23.2	0.00e+00	0	39	0	2032140288	46	6271
2026-01-02 23:25:48.22	344.45	14.63	-37.1	-38.1	23.1	0.00e+00	0	39	0	2044723200	46	6296
2026-01-02 23:25:52.26	344.18	14.24	-37.1	-38.1	23.0	0.00e+00	0	39	0	2057306112	46	6289
2026-01-02 23:25:56.30	343.92	13.85	-37.3	-38.3	22.9	0.00e+00	0	39	0	2069889024	46	6440
2026-01-02 23:26:00.34	343.67	13.46	-37.0	-38.0	23.0	0.00e+00	0	39	0	2082471936	46	6231
2026-01-02 23:26:04.38	343.43	13.08	-37.0	-37.9	23.1	0.00e+00	0	39	0	2095054848	46	6187
2026-01-02 23:26:08.42	343.19	12.70	-36.9	-37.9	23.1	0.00e+00	0	39	0	2107637760	46	6144
2026-01-02 23:26:12.46	342.96	12.33	-37.0	-38.0	23.0	0.00e+00	0	39	0	2120220672	46	6216
2026-01-02 23:26:16.50	342.73	11.97	-37.0	-38.0	23.0	0.00e+00	0	39	0	2132803584	46	6228
2026-01-02 23:26:20.55	342.51	11.61	-37.2	-38.2	22.8	0.00e+00	0	39	0	2145386496	46	6369
2026-01-02 23:26:24.59	342.29	11.25	-37.4	-38.4	22.7	0.00e+00	0	39	0	2157969408	46	6512
2026-01-02 23:26:28.63	342.09	10.90	-37.4	-38.4	22.6	0.00e+00	0	39	0	2171600896	46	6539
2026-01-02 23:26:32.67	341.88	10.56	-37.6	-38.6	22.4	0.00e+00	0	39	0	2184183808	46	6726
2026-01-02 23:26:36.71	341.68	10.22	-37.5	-38.5	22.5	0.00e+00	0	39	0	2196766720	46	6624
2026-01-02 23:26:40.75	341.49	9.88	-37.9	-39.0	22.0	0.00e+00	0	39	0	2209349632	48	6229
2026-01-02 23:26:44.80	341.30	9.54	-37.7	-38.7	22.2	0.00e+00	0	39	0	2221932544	48	6045
2026-01-02 23:26:48.84	341.12	9.22	-37.8	-38.9	22.1	0.00e+00	0	39	0	2234515456	48	6146
2026-01-02 23:26:52.88	340.94	8.89	-38.0	-39.0	21.9	0.00e+00	0	39	0	2247098368	48	6262
2026-01-02 23:26:56.92	340.76	8.57	-38.1	-39.2	21.7	0.00e+00	0	39	0	2259681280	48	6356
2026-01-02 23:27:00.96	340.59	8.25	-38.5	-39.6	21.4	0.00e+00	0	39	0	2272264192	48	6685
2026-01-02 23:27:05.00	340.42	7.94	-38.6	-39.7	21.2	0.00e+00	0	39	0	2284847104	48	6792
2026-01-02 23:27:09.04	340.26	7.63	-38.8	-40.0	21.0	0.00e+00	0	39	0	2297430016	48	6999
2026-01-02 23:27:13.09	340.10	7.32	-38.8	-40.0	20.9	0.00e+00	0	39	0	2310012928	50	6237
2026-01-02 23:27:17.12	339.94	7.02	-39.3	-40.5	20.5	0.00e+00	0	39	0	2322595840	50	6609
2026-01-02 23:27:21.17	339.79	6.72	-39.1	-40.3	20.5	0.00e+00	0	39	0	2335178752	50	6444
2026-01-02 23:27:25.21	339.64	6.42	-39.2	-40.4	20.5	0.00e+00	0	39	0	2347761664	50	6562
2026-01-02 23:27:29.25	339.50	6.13	-39.6	-40.8	20.0	0.00e+00	0	39	0	2360344576	50	6864
2026-01-02 23:27:33.29	339.35	5.84	-39.8	-41.1	19.6	0.00e+00	0	39	0	2372927488	52	6303
2026-01-02 23:27:37.33	339.21	5.55	-40.4	-41.8	18.7	0.00e+00	0	39	0	2385510400	52	6879
2026-01-02 23:27:41.37	339.08	5.27	-41.0	-42.6	17.5	0.00e+00	0	39	0	2398093312	54	6694
2026-01-02 23:27:45.42	338.94	4.98	-42.5	-44.6	15.2	0.00e+00	0	39	0	2410676224	56	7536
2026-01-02 23:27:49.45	338.81	4.71	-43.7	-46.7	12.3	8.08e-05	0	39	0	2423259136	58	8563
2026-01-02 23:27:53.50	338.69	4.43	-44.7	-49.2	8.9	2.93e-02	0	40	0	2435842048	60	10160
2026-01-02 23:27:57.54	338.56	4.16	-45.3	-53.3	5.2	4.72e-01	0	39	104	2446327808	60	16167
2026-01-02 23:28:01.58	338.44	3.88	-45.4	-56.2	3.5	1.49e+00	0	39	104	2446327808	60	22683
2026-01-02 23:28:05.62	338.32	3.62	-45.3	-57.9	3.5	1.52e+00	0	39	104	2446327808	60	27605
2026-01-02 23:28:09.66	338.20	3.35	-45.3	-58.0	3.5	1.52e+00	0	39	104	2446327808	60	27884
2026-01-02 23:28:13.70	338.09	3.09	-45.3	-58.1	3.5	1.52e+00	0	39	104	2446327808	60	28306
2026-01-02 23:28:17.74	337.97	2.83	-49.6	-62.5	3.6	1.51e+00	0	39	104	2446327808	60	46707
2026-01-02 23:28:21.78	337.86	2.57	-50.3	-63.1	3.5	1.52e+00	0	39	104	2446327808	60	50434
2026-01-02 23:28:25.82	337.75	2.31	-50.0	-63.1	3.5	1.52e+00	0	40	104	2446327808	60	50057
2026-01-02 23:28:29.86	337.65	2.06	-50.1	-63.0	3.5	1.52e+00	0	39	104	2446327808	60	49374
2026-01-02 23:28:33.90	337.54	1.80	-50.2	-63.1	3.5	1.52e+00	0	39	104	2446327808	60	49997
2026-01-02 23:28:37.94	337.44	1.55	-50.2	-63.0	3.5	1.52e+00	0	39	104	2446327808	60	49685
2026-01-02 23:28:41.98	337.34	1.31	-50.2	-63.1	3.5	1.51e+00	0	39	104	2446327808	60	50054
2026-01-02 23:28:46.02	337.24	1.06	-50.2	-63.1	3.5	1.52e+00	0	40	104	2446327808	60	49975
2026-01-02 23:28:50.06	337.15	0.82	-50.2	-63.1	3.5	1.52e+00	0	40	104	2446327808	60	49957
2026-01-02 23:28:54.10	337.05	0.57	-50.2	-63.1	3.5	1.52e+00	0	40	104	2446327808	60	50042
2026-01-02 23:28:58.14	336.96	0.33	-50.2	-63.1	3.5	1.52e+00	0	39	104	2446327808	60	49954
2026-01-02 23:29:02.18	336.87	0.09	-50.2	-63.1	3.5	1.52e+00	0	40	104	2446327808	60	50088

#Closed at: 2026-01-02 23:29:05
#Recorded file [2446 MB]: D:/lorett/data/35029_260103_111358.dat