passes_logs/2026/01/02/R4.6S_Anadyr/R4.6S_Anadyr__20260102_002241_NOAA_20_JPSS-1_rec.log

#Pass ID: 20260102_002241_NOAA 20 (JPSS-1)
#Satellite: NOAA 20 (JPSS-1)
#Configuration: NOAA 20
#almurnet v.1.7.20251203
#Start time: 2026-01-02 00:22:43

#Version: 2.2.20231116
#Station: R4.6S_Anadyr
#Location: 177.4865 lon 64.73178 lat
#TLE: 1 43013U 17073A   26001.58538444  .00000204  00000+0  11766-3 0  9998
#TLE: 2 43013  98.7621 302.6674 0001928  58.7850 301.3515 14.19532241420834

#Time	Az	El	Level	Level2	SNR	BER	BlckErr	Temp	State	Recorded	gain1	gain2
2026-01-02 00:22:43.81	160.33	0.16	-49.2	-64.1	3.5	1.51e+00	0	37	0	0	60	57964
2026-01-02 00:22:47.85	160.36	0.40	-49.3	-64.5	3.6	1.51e+00	0	38	104	0	60	60796
2026-01-02 00:22:51.88	160.40	0.65	-49.3	-64.5	3.6	1.51e+00	0	38	104	0	60	60458
2026-01-02 00:22:55.92	160.43	0.90	-48.7	-63.9	3.6	1.51e+00	0	38	104	0	60	56595
2026-01-02 00:22:59.96	160.47	1.15	-47.9	-63.1	3.6	1.51e+00	0	38	104	0	60	51451
2026-01-02 00:23:04.00	160.50	1.40	-47.9	-63.0	3.6	1.51e+00	0	38	104	0	60	51066
2026-01-02 00:23:08.04	160.54	1.65	-47.9	-62.7	3.6	1.51e+00	0	38	104	0	60	49438
2026-01-02 00:23:12.07	160.57	1.91	-47.9	-62.8	3.6	1.51e+00	0	38	104	0	60	50015
2026-01-02 00:23:16.11	160.61	2.17	-47.9	-63.0	3.6	1.51e+00	0	39	104	0	60	51258
2026-01-02 00:23:20.15	160.65	2.43	-47.9	-63.0	3.6	1.51e+00	0	38	104	0	60	51013
2026-01-02 00:23:24.19	160.68	2.70	-47.8	-62.4	3.6	1.51e+00	0	38	104	0	60	47880
2026-01-02 00:23:28.23	160.72	2.96	-47.8	-62.1	3.6	1.51e+00	0	39	104	0	60	46125
2026-01-02 00:23:32.27	160.76	3.23	-47.5	-56.6	4.7	1.39e+00	92	38	0	0	60	24530
2026-01-02 00:23:36.31	160.80	3.51	-45.6	-49.7	12.3	6.28e-04	0	39	0	8388608	60	11025
2026-01-02 00:23:40.35	160.84	3.78	-44.5	-47.5	14.6	0.00e+00	92	39	0	15728640	60	8531
2026-01-02 00:23:44.39	160.88	4.06	-43.6	-46.0	15.7	0.00e+00	92	39	0	20971520	60	7210
2026-01-02 00:23:48.43	160.92	4.34	-43.0	-45.1	17.2	0.00e+00	0	39	0	22020096	60	6513
2026-01-02 00:23:52.47	160.96	4.62	-42.7	-44.6	17.5	0.00e+00	0	39	0	30408704	58	6867
2026-01-02 00:23:56.51	161.00	4.91	-42.1	-43.8	18.4	0.00e+00	92	39	0	37748736	58	6285
2026-01-02 00:24:00.55	161.04	5.20	-42.1	-43.8	18.5	0.00e+00	92	39	0	45088768	58	6288
2026-01-02 00:24:04.58	161.09	5.49	-42.0	-43.7	18.7	0.00e+00	6	39	0	52428800	58	6184
2026-01-02 00:24:08.62	161.13	5.79	-42.0	-43.7	18.7	0.00e+00	69	39	0	59768832	58	6196
2026-01-02 00:24:12.66	161.17	6.09	-42.0	-43.7	18.8	0.00e+00	92	39	0	68157440	58	6180
2026-01-02 00:24:16.70	161.22	6.39	-41.9	-43.5	18.9	0.00e+00	92	39	0	75497472	58	6050
2026-01-02 00:24:20.74	161.26	6.70	-41.8	-43.3	19.2	0.00e+00	50	39	0	82837504	56	6649
2026-01-02 00:24:24.77	161.31	7.01	-41.7	-43.2	19.3	0.00e+00	36	39	0	90177536	56	6592
2026-01-02 00:24:28.81	161.36	7.32	-41.6	-43.1	19.4	0.00e+00	92	39	0	98566144	56	6500
2026-01-02 00:24:32.84	161.40	7.64	-41.7	-43.2	19.4	0.00e+00	92	39	0	105906176	56	6548
2026-01-02 00:24:36.87	161.45	7.96	-41.4	-42.8	19.7	0.00e+00	0	39	0	113246208	56	6296
2026-01-02 00:24:40.91	161.50	8.29	-41.4	-42.8	19.8	0.00e+00	92	39	0	120586240	56	6267
2026-01-02 00:24:44.95	161.55	8.62	-41.3	-42.7	19.9	0.00e+00	90	39	0	127926272	56	6213
2026-01-02 00:24:48.98	161.60	8.95	-41.1	-42.4	20.2	0.00e+00	92	39	0	136314880	56	6007
2026-01-02 00:24:53.02	161.65	9.29	-41.0	-42.4	20.4	0.00e+00	49	39	0	143654912	56	5965
2026-01-02 00:24:57.06	161.70	9.63	-41.0	-42.3	20.4	0.00e+00	92	39	0	150994944	56	5925
2026-01-02 00:25:01.10	161.76	9.98	-40.8	-42.1	20.6	0.00e+00	90	39	0	158334976	56	5792
2026-01-02 00:25:05.14	161.81	10.34	-40.8	-42.1	20.6	0.00e+00	92	39	0	166723584	56	5794
2026-01-02 00:25:09.17	161.87	10.70	-40.7	-42.0	20.7	0.00e+00	36	39	0	174063616	54	6427
2026-01-02 00:25:13.21	161.92	11.06	-40.4	-41.6	21.0	0.00e+00	90	39	0	181403648	54	6170
2026-01-02 00:25:17.25	161.98	11.43	-40.2	-41.4	21.3	0.00e+00	90	39	0	188743680	54	5985
2026-01-02 00:25:21.29	162.04	11.81	-40.0	-41.2	21.5	0.00e+00	91	39	0	196083712	54	5833
2026-01-02 00:25:25.33	162.10	12.19	-39.9	-41.0	21.7	0.00e+00	34	39	0	204472320	54	5725
2026-01-02 00:25:29.36	162.16	12.57	-39.8	-40.9	21.8	0.00e+00	92	39	0	211812352	52	6377
2026-01-02 00:25:33.40	162.22	12.97	-39.5	-40.5	22.2	0.00e+00	92	39	0	219152384	52	6087
2026-01-02 00:25:37.44	162.29	13.37	-39.5	-40.5	22.3	0.00e+00	0	39	0	226492416	52	6101
2026-01-02 00:25:41.48	162.35	13.78	-39.3	-40.4	22.3	0.00e+00	0	39	0	234881024	52	5966
2026-01-02 00:25:45.51	162.42	14.19	-39.2	-40.2	22.5	0.00e+00	92	39	0	242221056	52	5838
2026-01-02 00:25:49.55	162.49	14.61	-39.0	-40.0	22.7	0.00e+00	92	39	0	249561088	52	5736
2026-01-02 00:25:53.59	162.56	15.04	-38.9	-39.8	22.9	0.00e+00	7	39	0	256901120	52	5622
2026-01-02 00:25:57.63	162.63	15.47	-39.0	-40.0	22.7	0.00e+00	0	39	0	264241152	52	5711
2026-01-02 00:26:01.67	162.70	15.92	-38.7	-39.7	23.1	0.00e+00	90	39	0	272629760	50	6186
2026-01-02 00:26:05.70	162.77	16.37	-38.7	-39.7	23.0	0.00e+00	92	39	0	279969792	50	6210
2026-01-02 00:26:09.74	162.85	16.83	-38.6	-39.6	23.2	0.00e+00	41	39	0	287309824	50	6114
2026-01-02 00:26:13.78	162.93	17.30	-38.5	-39.4	23.2	0.00e+00	90	39	0	294649856	50	6004
2026-01-02 00:26:17.81	163.01	17.78	-38.7	-39.6	23.2	0.00e+00	90	39	0	301989888	50	6156
2026-01-02 00:26:21.84	163.09	18.26	-38.3	-39.2	23.5	0.00e+00	89	39	0	310378496	50	5846
2026-01-02 00:26:25.87	163.18	18.76	-38.2	-39.1	23.6	0.00e+00	0	39	0	317718528	50	5819
2026-01-02 00:26:29.91	163.26	19.27	-38.2	-39.1	23.6	0.00e+00	92	39	0	325058560	50	5809
2026-01-02 00:26:33.95	163.35	19.79	-38.3	-39.2	23.6	0.00e+00	90	39	0	332398592	50	5849
2026-01-02 00:26:37.98	163.45	20.32	-38.3	-39.2	23.5	0.00e+00	90	39	0	340787200	50	5868
2026-01-02 00:26:42.02	163.54	20.86	-38.6	-39.5	23.4	0.00e+00	35	39	0	348127232	50	6048
2026-01-02 00:26:46.06	163.64	21.41	-38.4	-39.3	23.5	0.00e+00	90	39	0	355467264	50	5911
2026-01-02 00:26:50.09	163.74	21.97	-38.5	-39.5	23.4	0.00e+00	92	39	0	362807296	50	6039
2026-01-02 00:26:54.13	163.85	22.55	-38.5	-39.4	23.4	0.00e+00	90	39	0	370147328	50	6013
2026-01-02 00:26:58.17	163.95	23.14	-38.7	-39.6	23.1	0.00e+00	0	39	0	378535936	50	6132
2026-01-02 00:27:02.21	164.07	23.75	-38.6	-39.5	23.4	0.00e+00	92	39	0	385875968	50	6051
2026-01-02 00:27:06.25	164.18	24.37	-38.8	-39.8	23.1	0.00e+00	92	39	0	393216000	50	6266
2026-01-02 00:27:10.29	164.30	25.00	-38.8	-39.7	23.1	0.00e+00	92	39	0	400556032	50	6245
2026-01-02 00:27:14.32	164.42	25.65	-39.0	-39.9	23.0	0.00e+00	0	39	0	407896064	50	6363
2026-01-02 00:27:18.35	164.55	26.32	-39.0	-39.9	23.1	0.00e+00	91	39	0	416284672	50	6347
2026-01-02 00:27:22.39	164.69	27.00	-39.2	-40.2	22.8	0.00e+00	91	39	0	423624704	50	6583
2026-01-02 00:27:26.42	164.82	27.70	-39.5	-40.5	22.5	0.00e+00	91	39	0	430964736	50	6812
2026-01-02 00:27:30.46	164.97	28.42	-39.9	-41.0	22.1	0.00e+00	1	39	0	438304768	52	6416
2026-01-02 00:27:34.50	165.12	29.15	-40.3	-41.4	21.8	0.00e+00	92	39	0	446693376	52	6735
2026-01-02 00:27:38.54	165.28	29.91	-40.6	-41.8	21.4	0.00e+00	92	39	0	454033408	54	6274
2026-01-02 00:27:42.58	165.44	30.69	-40.8	-41.9	21.2	0.00e+00	92	39	0	461373440	54	6379
2026-01-02 00:27:46.61	165.61	31.48	-40.9	-42.1	21.1	0.00e+00	79	39	0	468713472	54	6478
2026-01-02 00:27:50.65	165.79	32.30	-41.1	-42.3	20.9	0.00e+00	92	39	0	476053504	54	6681
2026-01-02 00:27:54.68	165.98	33.15	-41.2	-42.4	20.9	0.00e+00	92	39	0	484442112	54	6740
2026-01-02 00:27:58.71	166.17	34.01	-40.0	-41.1	22.0	0.00e+00	92	39	0	491782144	54	5785
2026-01-02 00:28:02.74	166.38	34.90	-39.1	-40.0	23.0	0.00e+00	92	39	0	499122176	52	5756
2026-01-02 00:28:06.78	166.60	35.82	-38.5	-39.4	23.6	0.00e+00	92	39	0	506462208	50	5977
2026-01-02 00:28:10.82	166.83	36.76	-38.1	-38.9	24.0	0.00e+00	92	39	0	513802240	50	5685
2026-01-02 00:28:14.85	167.07	37.73	-37.9	-38.7	24.2	0.00e+00	0	39	0	522190848	50	5524
2026-01-02 00:28:18.89	167.33	38.73	-38.4	-39.2	23.8	0.00e+00	92	39	0	529530880	50	5887
2026-01-02 00:28:22.93	167.60	39.76	-38.4	-39.3	23.6	0.00e+00	92	39	0	536870912	50	5960
2026-01-02 00:28:26.97	167.89	40.82	-38.4	-39.3	23.7	0.00e+00	92	39	0	544210944	50	5906
2026-01-02 00:28:31.01	168.20	41.91	-39.1	-40.0	23.1	0.00e+00	34	39	0	552599552	50	6442
2026-01-02 00:28:35.04	168.53	43.03	-39.5	-40.5	22.7	0.00e+00	92	39	0	559939584	50	6805
2026-01-02 00:28:39.08	168.88	44.19	-39.3	-40.3	22.8	0.00e+00	90	39	0	567279616	50	6620
2026-01-02 00:28:43.12	169.26	45.38	-40.0	-41.0	22.1	0.00e+00	90	39	0	574619648	52	6451
2026-01-02 00:28:47.16	169.67	46.60	-40.8	-42.0	21.3	0.00e+00	44	39	0	581959680	54	6427
2026-01-02 00:28:51.20	170.11	47.86	-41.4	-42.7	20.6	0.00e+00	90	39	0	590348288	54	6984
2026-01-02 00:28:55.23	170.58	49.16	-40.0	-41.1	22.1	0.00e+00	91	39	0	597688320	54	5795
2026-01-02 00:28:59.27	171.10	50.49	-39.2	-40.2	23.0	0.00e+00	0	39	0	605028352	52	5862
2026-01-02 00:29:03.31	171.66	51.86	-37.3	-38.1	24.7	0.00e+00	28	39	0	612368384	48	5785
2026-01-02 00:29:07.34	172.28	53.27	-36.5	-37.2	25.5	0.00e+00	92	39	0	620756992	46	5874
2026-01-02 00:29:11.38	172.96	54.71	-36.3	-37.0	25.6	0.00e+00	92	39	0	628097024	46	5761
2026-01-02 00:29:15.42	173.71	56.19	-36.3	-37.0	25.6	0.00e+00	0	39	0	635437056	46	5724
2026-01-02 00:29:19.46	174.54	57.71	-37.4	-38.2	24.7	0.00e+00	7	39	0	642777088	46	6568
2026-01-02 00:29:23.50	175.48	59.26	-37.3	-38.1	24.7	0.00e+00	92	39	0	650117120	46	6496
2026-01-02 00:29:27.53	176.52	60.84	-36.5	-37.2	25.4	0.00e+00	92	39	0	658505728	46	5875
2026-01-02 00:29:31.57	177.71	62.45	-36.2	-37.0	25.6	0.00e+00	35	39	0	665845760	46	5706
2026-01-02 00:29:35.61	179.07	64.09	-37.7	-38.6	24.2	0.00e+00	26	39	0	673185792	46	6851
2026-01-02 00:29:39.64	180.63	65.75	-38.9	-39.9	23.2	0.00e+00	90	39	0	680525824	50	6351
2026-01-02 00:29:43.68	182.45	67.43	-39.7	-40.7	22.4	0.00e+00	92	39	0	688914432	50	6954
2026-01-02 00:29:47.72	184.59	69.12	-38.4	-39.2	23.8	0.00e+00	46	39	0	696254464	50	5896
2026-01-02 00:29:51.75	187.13	70.80	-39.0	-39.9	23.1	0.00e+00	78	39	0	703594496	50	6351
2026-01-02 00:29:55.79	190.19	72.47	-40.0	-41.1	22.2	0.00e+00	90	39	0	710934528	52	6475
2026-01-02 00:29:59.83	193.92	74.11	-41.0	-42.2	21.1	0.00e+00	92	39	0	718274560	54	6593
2026-01-02 00:30:03.87	198.53	75.69	-41.1	-42.4	20.8	0.00e+00	0	39	0	726663168	54	6696
2026-01-02 00:30:07.91	204.29	77.18	-42.9	-44.5	18.8	0.00e+00	92	39	0	734003200	58	6772
2026-01-02 00:30:11.94	211.49	78.52	-39.8	-40.8	22.3	0.00e+00	92	39	0	741343232	54	5607
2026-01-02 00:30:15.98	220.49	79.65	-39.2	-40.2	23.0	0.00e+00	92	39	0	748683264	50	6543
2026-01-02 00:30:20.02	231.39	80.48	-38.7	-39.7	23.3	0.00e+00	10	39	0	757071872	50	6177
2026-01-02 00:30:24.05	243.81	80.91	-38.8	-39.7	23.4	0.00e+00	92	39	0	764411904	50	6208
2026-01-02 00:30:28.09	256.86	80.90	-39.6	-40.6	22.6	0.00e+00	92	39	0	771751936	50	6890
2026-01-02 00:30:32.12	269.21	80.44	-38.7	-39.7	23.4	0.00e+00	47	39	0	779091968	50	6175
2026-01-02 00:30:36.16	279.99	79.59	-38.2	-39.1	23.8	0.00e+00	51	39	0	786432000	50	5808
2026-01-02 00:30:40.20	288.87	78.44	-38.6	-39.5	23.4	0.00e+00	92	39	0	794820608	50	6094
2026-01-02 00:30:44.23	295.97	77.09	-40.3	-41.4	21.8	0.00e+00	92	39	0	802160640	54	6016
2026-01-02 00:30:48.27	301.64	75.60	-40.5	-41.7	21.6	0.00e+00	0	39	0	809500672	54	6184
2026-01-02 00:30:52.31	306.19	74.02	-39.9	-41.0	22.3	0.00e+00	0	39	0	816840704	54	5705
2026-01-02 00:30:56.35	309.87	72.38	-40.3	-41.4	21.8	0.00e+00	92	39	0	825229312	52	6743
2026-01-02 00:31:00.39	312.90	70.71	-40.9	-42.1	21.2	0.00e+00	92	39	0	832569344	52	7272
2026-01-02 00:31:04.42	315.40	69.03	-40.3	-41.4	21.8	0.00e+00	6	39	0	839909376	52	6708
2026-01-02 00:31:08.46	317.52	67.34	-40.5	-41.6	21.7	0.00e+00	2	39	0	847249408	54	6139
2026-01-02 00:31:12.49	319.32	65.67	-38.4	-39.4	23.7	0.00e+00	91	39	0	854589440	50	5965
2026-01-02 00:31:16.53	320.87	64.02	-37.1	-37.9	24.8	0.00e+00	92	39	0	862978048	48	5652
2026-01-02 00:31:20.57	322.21	62.38	-35.9	-36.7	25.8	0.00e+00	34	39	0	870318080	46	5516
2026-01-02 00:31:24.61	323.39	60.78	-38.2	-39.1	23.7	0.00e+00	90	39	0	877658112	48	6470
2026-01-02 00:31:28.64	324.43	59.20	-39.3	-40.3	22.7	0.00e+00	92	39	0	884998144	50	6692
2026-01-02 00:31:32.68	325.36	57.66	-40.0	-41.1	22.1	0.00e+00	50	39	0	893386752	52	6497
2026-01-02 00:31:36.72	326.19	56.15	-38.7	-39.7	23.3	0.00e+00	0	39	0	900726784	50	6181
2026-01-02 00:31:40.75	326.94	54.68	-36.4	-37.2	25.5	0.00e+00	85	39	0	908066816	46	5831
2026-01-02 00:31:44.79	327.61	53.24	-37.0	-37.8	24.9	0.00e+00	91	39	0	915406848	46	6313
2026-01-02 00:31:48.83	328.23	51.84	-39.3	-40.2	22.9	0.00e+00	0	39	0	922746880	50	6614
2026-01-02 00:31:52.86	328.79	50.48	-44.1	-46.2	17.3	0.00e+00	0	39	0	931135488	60	7374
2026-01-02 00:31:56.90	329.30	49.15	-43.6	-45.4	18.1	0.00e+00	92	39	0	938475520	60	6750
2026-01-02 00:32:00.94	329.78	47.86	-41.8	-43.2	20.3	0.00e+00	91	39	0	945815552	56	6540
2026-01-02 00:32:04.98	330.21	46.60	-41.4	-42.7	20.8	0.00e+00	2	39	0	953155584	56	6231
2026-01-02 00:32:09.02	330.62	45.38	-38.2	-39.0	24.0	0.00e+00	33	39	0	960495616	50	5731
2026-01-02 00:32:13.06	331.00	44.20	-38.6	-39.6	23.5	0.00e+00	92	39	0	968884224	50	6117
2026-01-02 00:32:17.10	331.35	43.05	-39.7	-40.7	22.5	0.00e+00	92	39	0	976224256	52	6235
2026-01-02 00:32:21.14	331.68	41.93	-37.4	-38.2	24.6	0.00e+00	33	39	0	983564288	48	5848
2026-01-02 00:32:25.17	331.99	40.85	-38.8	-39.7	23.4	0.00e+00	50	39	0	990904320	48	6958
2026-01-02 00:32:29.21	332.28	39.79	-39.1	-40.1	23.1	0.00e+00	92	39	0	999292928	50	6495
2026-01-02 00:32:33.25	332.55	38.77	-38.8	-39.7	23.4	0.00e+00	92	39	0	1006632960	50	6184
2026-01-02 00:32:37.28	332.81	37.78	-39.4	-40.4	22.8	0.00e+00	0	39	0	1013972992	50	6739
2026-01-02 00:32:41.32	333.05	36.81	-40.8	-42.0	21.4	0.00e+00	0	39	0	1021313024	54	6427
2026-01-02 00:32:45.35	333.28	35.87	-39.8	-40.8	22.5	0.00e+00	92	39	0	1028653056	54	5601
2026-01-02 00:32:49.39	333.50	34.96	-39.4	-40.4	22.7	0.00e+00	91	39	0	1037041664	52	5975
2026-01-02 00:32:53.43	333.71	34.07	-40.1	-41.2	22.0	0.00e+00	0	39	0	1044381696	52	6546
2026-01-02 00:32:57.47	333.90	33.21	-42.4	-43.9	19.6	0.00e+00	0	39	0	1051721728	56	7091
2026-01-02 00:33:01.50	334.09	32.37	-41.6	-42.9	20.4	0.00e+00	48	39	0	1059061760	56	6381
2026-01-02 00:33:05.54	334.27	31.56	-41.2	-42.5	20.9	0.00e+00	0	39	0	1067450368	56	6049
2026-01-02 00:33:09.58	334.45	30.76	-41.0	-42.2	21.2	0.00e+00	6	39	0	1074790400	56	5859
2026-01-02 00:33:13.62	334.61	29.99	-39.9	-40.9	22.3	0.00e+00	92	39	0	1082130432	54	5691
2026-01-02 00:33:17.66	334.77	29.24	-39.5	-40.5	22.6	0.00e+00	0	39	0	1089470464	52	6073
2026-01-02 00:33:21.69	334.92	28.50	-39.3	-40.3	22.7	0.00e+00	0	39	0	1096810496	52	5951
2026-01-02 00:33:25.73	335.07	27.79	-39.2	-40.1	22.9	0.00e+00	46	39	0	1105199104	52	5828
2026-01-02 00:33:29.77	335.21	27.09	-38.8	-39.7	23.2	0.00e+00	92	39	0	1112539136	50	6215
2026-01-02 00:33:33.81	335.34	26.41	-38.5	-39.4	23.6	0.00e+00	34	39	0	1119879168	50	6017
2026-01-02 00:33:37.84	335.47	25.75	-38.6	-39.5	23.5	0.00e+00	2	39	0	1127219200	50	6062
2026-01-02 00:33:41.88	335.60	25.10	-38.5	-39.4	23.5	0.00e+00	0	39	0	1135607808	50	6008
2026-01-02 00:33:45.91	335.72	24.47	-37.9	-38.8	24.1	0.00e+00	91	39	0	1142947840	50	5610
2026-01-02 00:33:49.95	335.83	23.86	-37.3	-38.1	24.6	0.00e+00	46	39	0	1150287872	48	5824
2026-01-02 00:33:53.99	335.95	23.25	-37.1	-37.9	24.5	0.00e+00	37	39	0	1157627904	48	5669
2026-01-02 00:33:58.02	336.06	22.67	-36.9	-37.6	25.0	0.00e+00	0	39	0	1164967936	48	5499
2026-01-02 00:34:02.06	336.16	22.09	-37.1	-37.9	24.7	0.00e+00	92	39	0	1173356544	48	5665
2026-01-02 00:34:06.10	336.27	21.53	-37.6	-38.4	24.2	0.00e+00	0	39	0	1180696576	48	6030
2026-01-02 00:34:10.14	336.37	20.98	-38.0	-38.9	23.9	0.00e+00	0	39	0	1188036608	48	6332
2026-01-02 00:34:14.18	336.46	20.44	-38.0	-38.9	23.8	0.00e+00	38	39	0	1195376640	48	6383
2026-01-02 00:34:18.21	336.56	19.91	-38.1	-39.0	23.8	0.00e+00	92	39	0	1202716672	48	6431
2026-01-02 00:34:22.25	336.65	19.39	-38.1	-39.1	23.7	0.00e+00	0	39	0	1211105280	48	6469
2026-01-02 00:34:26.29	336.74	18.89	-38.2	-39.1	23.6	0.00e+00	0	39	0	1218445312	48	6521
2026-01-02 00:34:30.32	336.83	18.39	-38.2	-39.1	23.5	0.00e+00	0	39	0	1225785344	48	6502
2026-01-02 00:34:34.36	336.91	17.91	-38.3	-39.2	23.6	0.00e+00	92	39	0	1233125376	48	6594
2026-01-02 00:34:38.40	336.99	17.43	-38.5	-39.5	23.4	0.00e+00	5	39	0	1241513984	48	6779
2026-01-02 00:34:42.44	337.08	16.96	-38.7	-39.7	23.1	0.00e+00	6	39	0	1248854016	48	6957
2026-01-02 00:34:46.48	337.15	16.50	-38.9	-39.9	22.9	0.00e+00	10	39	0	1256194048	50	6364
2026-01-02 00:34:50.51	337.23	16.05	-38.8	-39.8	23.0	0.00e+00	43	39	0	1263534080	50	6256
2026-01-02 00:34:54.55	337.31	15.61	-38.9	-39.9	22.9	0.00e+00	41	39	0	1270874112	50	6337
2026-01-02 00:34:58.58	337.38	15.18	-39.0	-40.0	22.8	0.00e+00	45	39	0	1279262720	50	6391
2026-01-02 00:35:02.62	337.45	14.75	-38.8	-39.8	22.9	0.00e+00	90	39	0	1286602752	50	6283
2026-01-02 00:35:06.65	337.52	14.33	-38.9	-39.9	22.8	0.00e+00	6	39	0	1293942784	50	6383
2026-01-02 00:35:10.68	337.59	13.92	-38.7	-39.7	23.0	0.00e+00	38	39	0	1301282816	50	6214
2026-01-02 00:35:14.72	337.66	13.51	-38.8	-39.8	22.9	0.00e+00	41	39	0	1309671424	50	6261
2026-01-02 00:35:18.75	337.72	13.12	-38.6	-39.5	23.1	0.00e+00	92	39	0	1317011456	50	6103
2026-01-02 00:35:22.79	337.79	12.72	-38.6	-39.6	23.1	0.00e+00	0	39	0	1324351488	50	6141
2026-01-02 00:35:26.82	337.85	12.34	-38.7	-39.6	23.0	0.00e+00	0	39	0	1331691520	50	6160
2026-01-02 00:35:30.86	337.92	11.96	-38.8	-39.7	22.9	0.00e+00	2	39	0	1339031552	50	6242
2026-01-02 00:35:34.90	337.98	11.58	-38.9	-39.9	22.8	0.00e+00	92	39	0	1347420160	50	6322
2026-01-02 00:35:38.94	338.04	11.21	-39.0	-40.0	22.5	0.00e+00	0	39	0	1354760192	50	6435
2026-01-02 00:35:42.98	338.10	10.85	-39.1	-40.1	22.5	0.00e+00	0	39	0	1362100224	50	6492
2026-01-02 00:35:47.02	338.16	10.49	-39.2	-40.3	22.2	0.00e+00	3	39	0	1369440256	50	6621
2026-01-02 00:35:51.06	338.21	10.14	-39.5	-40.6	22.0	0.00e+00	92	39	0	1376780288	50	6896
2026-01-02 00:35:55.10	338.27	9.79	-39.5	-40.5	22.0	0.00e+00	0	39	0	1385168896	50	6848
2026-01-02 00:35:59.14	338.32	9.45	-39.5	-40.5	22.0	0.00e+00	42	39	0	1392508928	50	6840
2026-01-02 00:36:03.17	338.38	9.11	-39.7	-40.8	21.7	0.00e+00	0	39	0	1399848960	52	6294
2026-01-02 00:36:07.21	338.43	8.78	-39.6	-40.7	21.8	0.00e+00	90	39	0	1407188992	52	6174
2026-01-02 00:36:11.25	338.49	8.45	-39.8	-40.9	21.5	0.00e+00	0	39	0	1415577600	52	6370
2026-01-02 00:36:15.28	338.54	8.12	-39.8	-40.9	21.5	0.00e+00	0	39	0	1422917632	52	6368
2026-01-02 00:36:19.32	338.59	7.80	-39.8	-41.0	21.5	0.00e+00	25	39	0	1430257664	52	6401
2026-01-02 00:36:23.36	338.64	7.48	-39.9	-41.1	21.4	0.00e+00	90	39	0	1437597696	52	6516
2026-01-02 00:36:27.40	338.69	7.17	-39.9	-41.0	21.2	0.00e+00	5	39	0	1444937728	52	6458
2026-01-02 00:36:31.44	338.74	6.86	-40.0	-41.2	21.0	0.00e+00	6	39	0	1453326336	52	6582
2026-01-02 00:36:35.47	338.79	6.56	-39.9	-41.1	21.1	0.00e+00	33	39	0	1460666368	52	6477
2026-01-02 00:36:39.51	338.84	6.25	-39.9	-41.2	21.0	0.00e+00	30	39	0	1468006400	52	6540
2026-01-02 00:36:43.55	338.88	5.96	-39.8	-41.0	21.0	0.00e+00	53	39	0	1475346432	52	6429
2026-01-02 00:36:47.59	338.93	5.66	-40.1	-41.4	20.5	0.00e+00	51	39	0	1483735040	52	6696
2026-01-02 00:36:51.62	338.98	5.37	-41.0	-42.5	18.9	0.00e+00	92	39	0	1491075072	54	6826
2026-01-02 00:36:55.66	339.02	5.08	-42.0	-44.1	16.8	0.00e+00	0	39	0	1498415104	56	7307
2026-01-02 00:36:59.70	339.07	4.79	-43.1	-46.5	13.2	1.06e-05	37	39	0	1505755136	58	8598
2026-01-02 00:37:03.73	339.11	4.51	-44.1	-49.9	9.0	1.83e-02	52	40	0	1513095168	60	11318
2026-01-02 00:37:07.77	339.16	4.23	-44.4	-53.2	4.8	5.20e-01	92	40	0	1521483776	60	16459
2026-01-02 00:37:11.80	339.20	3.96	-44.5	-57.6	3.7	1.49e+00	0	39	104	1524629504	60	27530
2026-01-02 00:37:15.84	339.24	3.68	-44.6	-58.5	3.6	1.51e+00	0	40	104	1524629504	60	30340
2026-01-02 00:37:19.88	339.29	3.41	-44.6	-59.4	3.6	1.51e+00	0	40	104	1524629504	60	33906
2026-01-02 00:37:23.92	339.33	3.14	-44.6	-59.8	3.6	1.51e+00	0	40	104	1524629504	60	35166
2026-01-02 00:37:27.96	339.37	2.88	-48.3	-63.5	3.6	1.51e+00	0	40	104	1524629504	60	53989
2026-01-02 00:37:31.99	339.41	2.61	-49.2	-64.4	3.6	1.51e+00	0	40	104	1524629504	60	60171
2026-01-02 00:37:36.03	339.45	2.35	-49.3	-64.5	3.6	1.51e+00	0	40	104	1524629504	60	60790
2026-01-02 00:37:40.07	339.49	2.09	-49.2	-64.4	3.6	1.51e+00	0	40	104	1524629504	60	60042
2026-01-02 00:37:44.11	339.53	1.84	-49.2	-64.4	3.6	1.51e+00	0	40	104	1524629504	60	60254
2026-01-02 00:37:48.14	339.57	1.58	-49.3	-64.5	3.6	1.51e+00	0	40	104	1524629504	60	60440
2026-01-02 00:37:52.18	339.61	1.33	-49.3	-64.4	3.6	1.51e+00	0	40	104	1524629504	60	60045
2026-01-02 00:37:56.22	339.65	1.08	-49.3	-64.4	3.6	1.51e+00	0	40	104	1524629504	60	59909
2026-01-02 00:38:00.26	339.69	0.83	-49.3	-64.5	3.6	1.51e+00	0	40	104	1524629504	60	60363
2026-01-02 00:38:04.30	339.73	0.59	-49.3	-64.4	3.6	1.51e+00	0	40	104	1524629504	60	60277
2026-01-02 00:38:08.34	339.77	0.34	-49.3	-64.5	3.6	1.51e+00	0	40	104	1524629504	60	60528
2026-01-02 00:38:12.38	339.81	0.10	-49.3	-64.5	3.6	1.51e+00	0	40	104	1524629504	60	60387

#Closed at: 2026-01-02 00:38:15
#Recorded file [1524 MB]: D:/lorett/data/35029_260102_122243.dat