passes_logs/2026/01/02/R4.6S_Anadyr/R4.6S_Anadyr__20260102_201413_AQUA_rec.log

#Pass ID: 20260102_201413_AQUA
#Satellite: AQUA
#Configuration: AQUA
#almurnet v.1.7.20251203
#Start time: 2026-01-02 20:14:14

#Version: 2.2.20231116
#Station: R4.6S_Anadyr
#Location: 177.4865 lon 64.73178 lat
#TLE: 1 27424U 02022A   25365.92641127  .00002078  00000+0  42628-3 0  9999
#TLE: 2 27424  98.4058 327.1196 0001962  94.7781 340.6230 14.61783896258835

#Time	Az	El	Level	Level2	SNR	BER	BlckErr	Temp	State	Recorded	gain1	gain2
2026-01-02 20:14:14.19	37.28	0.04	-50.0	-61.6	3.5	8.45e-01	0	36	0	0	60	43558
2026-01-02 20:14:17.22	37.01	0.19	-50.4	-68.3	3.5	3.03e+01	0	37	104	0	60	100459
2026-01-02 20:14:20.25	36.74	0.33	-50.4	-68.3	3.5	3.03e+01	0	37	104	0	60	100613
2026-01-02 20:14:23.28	36.46	0.48	-50.0	-68.2	3.5	3.03e+01	0	37	104	0	60	99445
2026-01-02 20:14:26.31	36.18	0.63	-49.9	-68.0	3.5	3.03e+01	0	38	104	0	60	96685
2026-01-02 20:14:29.34	35.90	0.77	-49.5	-67.4	3.5	3.03e+01	0	38	104	0	60	90585
2026-01-02 20:14:32.38	35.61	0.92	-48.2	-66.3	3.5	3.03e+01	0	38	104	0	60	79818
2026-01-02 20:14:35.40	35.33	1.07	-48.2	-66.4	3.5	3.03e+01	0	38	104	0	60	80076
2026-01-02 20:14:38.43	35.03	1.21	-48.2	-66.3	3.5	3.03e+01	0	38	104	0	60	79300
2026-01-02 20:14:41.46	34.74	1.36	-48.1	-66.3	3.5	3.03e+01	0	38	104	0	60	79877
2026-01-02 20:14:44.49	34.44	1.51	-48.2	-66.4	3.5	3.03e+01	0	38	104	0	60	79954
2026-01-02 20:14:47.52	34.14	1.65	-48.2	-66.3	3.5	3.03e+01	0	38	104	0	60	79209
2026-01-02 20:14:50.55	33.83	1.80	-48.2	-66.3	3.5	3.03e+01	0	38	104	0	60	79787
2026-01-02 20:14:53.58	33.52	1.95	-48.1	-65.8	3.5	3.03e+01	0	38	104	0	60	75026
2026-01-02 20:14:56.61	33.21	2.10	-48.2	-66.1	3.5	3.03e+01	0	38	104	0	60	77603
2026-01-02 20:14:59.63	32.89	2.25	-48.1	-65.7	3.5	3.03e+01	0	38	104	0	60	74184
2026-01-02 20:15:02.65	32.58	2.39	-48.1	-64.1	3.5	3.03e+01	0	38	104	0	60	61675
2026-01-02 20:15:05.68	32.25	2.54	-48.1	-66.2	3.5	3.03e+01	0	38	104	0	60	79001
2026-01-02 20:15:08.71	31.93	2.69	-48.1	-65.5	3.5	3.03e+01	0	38	104	0	60	72736
2026-01-02 20:15:11.74	31.59	2.84	-47.9	-61.3	3.8	3.03e+01	0	38	104	0	60	44671
2026-01-02 20:15:14.77	31.26	2.99	-47.3	-55.1	10.6	3.03e+01	3	38	0	524288	60	21931
2026-01-02 20:15:17.80	30.92	3.13	-48.4	-62.9	3.7	3.03e+01	0	38	104	5767168	60	53903
2026-01-02 20:15:20.83	30.58	3.28	-47.8	-62.3	3.7	3.03e+01	0	38	104	9437184	60	50418
2026-01-02 20:15:23.86	30.23	3.43	-40.7	-42.5	23.7	3.03e+01	0	38	0	13107200	56	6438
2026-01-02 20:15:26.88	29.88	3.58	-39.6	-41.2	24.8	3.03e+01	0	38	0	18874368	54	6229
2026-01-02 20:15:29.91	29.53	3.73	-39.8	-41.5	24.5	3.03e+01	0	38	0	24641536	54	6425
2026-01-02 20:15:32.93	29.17	3.87	-39.3	-40.9	25.2	3.03e+01	0	38	0	29884416	54	6025
2026-01-02 20:15:35.96	28.81	4.02	-39.8	-41.4	24.7	3.03e+01	0	38	0	35651584	54	6362
2026-01-02 20:15:38.99	28.44	4.17	-39.3	-40.9	25.2	3.03e+01	0	38	0	41418752	54	6045
2026-01-02 20:15:42.02	28.07	4.32	-39.5	-41.1	24.9	3.03e+01	0	38	0	47185920	52	6895
2026-01-02 20:15:45.05	27.70	4.47	-38.9	-40.4	25.7	3.03e+01	0	38	0	52953088	52	6392
2026-01-02 20:15:48.07	27.32	4.61	-39.0	-40.5	25.6	3.03e+01	0	38	0	58720256	52	6435
2026-01-02 20:15:51.10	26.94	4.76	-38.9	-40.3	25.8	3.03e+01	0	38	0	63963136	52	6339
2026-01-02 20:15:54.13	26.55	4.91	-38.9	-40.3	25.9	3.03e+01	0	38	0	69730304	52	6320
2026-01-02 20:15:57.16	26.16	5.05	-38.9	-40.4	25.9	3.03e+01	0	38	0	75497472	52	6352
2026-01-02 20:16:00.18	25.76	5.20	-38.7	-40.2	26.1	3.03e+01	0	38	0	81264640	52	6213
2026-01-02 20:16:03.21	25.36	5.35	-38.8	-40.3	25.9	3.03e+01	0	38	0	87031808	52	6320
2026-01-02 20:16:06.24	24.95	5.49	-39.1	-40.5	25.7	3.03e+01	0	38	0	92798976	52	6483
2026-01-02 20:16:09.26	24.54	5.64	-39.0	-40.5	25.9	3.03e+01	0	38	0	98041856	52	6455
2026-01-02 20:16:12.29	24.13	5.78	-38.9	-40.4	25.9	3.03e+01	0	38	0	103809024	52	6377
2026-01-02 20:16:15.32	23.71	5.93	-38.6	-40.0	26.4	3.03e+01	0	38	0	109576192	52	6108
2026-01-02 20:16:18.35	23.29	6.07	-38.9	-40.3	26.1	3.03e+01	0	38	0	115343360	52	6338
2026-01-02 20:16:21.38	22.86	6.21	-38.6	-40.0	26.4	3.03e+01	0	38	0	121110528	52	6087
2026-01-02 20:16:24.41	22.42	6.36	-38.6	-40.0	26.4	3.03e+01	0	38	0	126353408	52	6067
2026-01-02 20:16:27.44	21.99	6.50	-38.7	-40.1	26.4	3.03e+01	0	38	0	132120576	52	6142
2026-01-02 20:16:30.46	21.54	6.64	-38.7	-40.1	26.4	3.03e+01	0	38	0	137887744	52	6145
2026-01-02 20:16:33.49	21.10	6.78	-38.3	-39.7	26.7	3.03e+01	0	38	0	143654912	52	5898
2026-01-02 20:16:36.52	20.64	6.92	-38.4	-39.8	26.7	3.03e+01	0	38	0	149422080	52	5956
2026-01-02 20:16:39.55	20.19	7.06	-38.3	-39.7	26.8	3.03e+01	0	38	0	155189248	52	5870
2026-01-02 20:16:42.58	19.72	7.20	-38.3	-39.7	26.7	3.03e+01	0	38	0	160956416	52	5888
2026-01-02 20:16:45.60	19.26	7.34	-38.3	-39.6	26.9	3.03e+01	0	38	0	166199296	52	5842
2026-01-02 20:16:48.63	18.79	7.48	-38.2	-39.5	27.0	3.03e+01	0	38	0	171966464	52	5789
2026-01-02 20:16:51.66	18.31	7.61	-38.1	-39.5	27.0	3.03e+01	0	38	0	177733632	52	5742
2026-01-02 20:16:54.68	17.83	7.75	-38.2	-39.6	27.0	3.03e+01	0	38	0	183500800	52	5798
2026-01-02 20:16:57.71	17.34	7.88	-38.4	-39.7	26.8	3.03e+01	0	38	0	189267968	52	5902
2026-01-02 20:17:00.74	16.85	8.02	-38.3	-39.6	27.0	3.03e+01	0	38	0	194510848	52	5833
2026-01-02 20:17:03.77	16.35	8.15	-37.9	-39.3	27.2	3.03e+01	0	38	0	200278016	50	6286
2026-01-02 20:17:06.80	15.85	8.28	-38.0	-39.3	27.2	3.03e+01	0	38	0	206045184	50	6341
2026-01-02 20:17:09.82	15.34	8.41	-38.1	-39.4	27.1	3.03e+01	0	39	0	211812352	50	6411
2026-01-02 20:17:12.86	14.83	8.54	-37.8	-39.2	27.3	3.03e+01	0	38	0	217579520	50	6221
2026-01-02 20:17:15.88	14.32	8.66	-38.0	-39.3	27.2	3.03e+01	0	38	0	223346688	50	6341
2026-01-02 20:17:18.91	13.79	8.79	-38.3	-39.6	27.0	3.03e+01	0	39	0	229113856	50	6570
2026-01-02 20:17:21.94	13.27	8.91	-38.6	-40.0	26.8	3.03e+01	0	38	0	234356736	50	6827
2026-01-02 20:17:24.97	12.73	9.04	-38.0	-39.3	27.2	3.03e+01	0	38	0	240123904	50	6346
2026-01-02 20:17:28.00	12.20	9.16	-38.4	-39.8	26.8	3.03e+01	0	39	0	245891072	50	6679
2026-01-02 20:17:31.02	11.66	9.28	-38.0	-39.3	27.4	3.03e+01	0	38	0	251658240	50	6305
2026-01-02 20:17:34.05	11.11	9.39	-37.8	-39.2	27.4	3.03e+01	0	39	0	257425408	50	6211
2026-01-02 20:17:37.08	10.56	9.51	-38.0	-39.3	27.3	3.03e+01	0	39	0	262668288	50	6336
2026-01-02 20:17:40.11	10.00	9.62	-37.7	-39.0	27.6	3.03e+01	0	39	0	268435456	50	6097
2026-01-02 20:17:43.14	9.44	9.74	-37.7	-39.0	27.5	3.03e+01	0	39	0	274202624	50	6083
2026-01-02 20:17:46.17	8.88	9.85	-37.7	-39.0	27.5	3.03e+01	0	39	0	279969792	50	6095
2026-01-02 20:17:49.20	8.31	9.95	-37.6	-38.9	27.6	3.03e+01	0	39	0	285736960	50	6027
2026-01-02 20:17:52.22	7.73	10.06	-37.7	-39.1	27.6	3.03e+01	0	39	0	291504128	50	6138
2026-01-02 20:17:55.25	7.15	10.16	-37.6	-38.9	27.8	3.03e+01	0	39	0	296747008	50	6006
2026-01-02 20:17:58.28	6.57	10.27	-37.6	-38.9	27.7	3.03e+01	0	39	0	302514176	50	6004
2026-01-02 20:18:01.31	5.98	10.37	-37.8	-39.1	27.5	3.03e+01	0	39	0	308281344	50	6205
2026-01-02 20:18:04.34	5.39	10.46	-38.0	-39.3	27.5	3.03e+01	0	39	0	314048512	50	6341
2026-01-02 20:18:07.36	4.79	10.56	-37.7	-39.0	27.7	3.03e+01	0	39	0	319815680	50	6108
2026-01-02 20:18:10.39	4.19	10.65	-37.5	-38.8	27.9	3.03e+01	0	39	0	325582848	50	5946
2026-01-02 20:18:13.42	3.59	10.74	-37.7	-39.0	27.6	3.03e+01	0	39	0	330825728	50	6100
2026-01-02 20:18:16.45	2.98	10.83	-37.6	-38.9	27.8	3.03e+01	0	39	0	336592896	50	6051
2026-01-02 20:18:19.48	2.36	10.91	-37.6	-38.9	27.8	3.03e+01	0	39	0	342360064	50	6008
2026-01-02 20:18:22.51	1.75	10.99	-37.5	-38.7	28.0	3.03e+01	0	39	0	348127232	50	5925
2026-01-02 20:18:25.54	1.13	11.07	-37.5	-38.8	27.9	3.03e+01	0	39	0	353894400	50	5935
2026-01-02 20:18:28.57	0.50	11.15	-37.6	-38.9	27.9	3.03e+01	0	39	0	359661568	50	6025
2026-01-02 20:18:31.60	359.87	11.22	-37.5	-38.7	28.0	3.03e+01	0	39	0	364904448	50	5921
2026-01-02 20:18:34.63	359.24	11.29	-37.6	-38.9	27.8	3.03e+01	0	39	0	370671616	50	6023
2026-01-02 20:18:37.65	358.61	11.36	-37.6	-38.9	27.8	3.03e+01	0	39	0	376438784	50	6001
2026-01-02 20:18:40.68	357.97	11.43	-37.3	-38.5	28.2	3.03e+01	0	39	0	382205952	50	5791
2026-01-02 20:18:43.71	357.33	11.49	-37.6	-38.9	27.8	3.03e+01	0	39	0	387973120	50	6040
2026-01-02 20:18:46.74	356.69	11.55	-37.6	-38.9	27.8	3.03e+01	0	39	0	393740288	50	6053
2026-01-02 20:18:49.77	356.04	11.60	-37.6	-38.9	27.9	3.03e+01	0	39	0	398983168	50	6012
2026-01-02 20:18:52.80	355.39	11.65	-37.7	-39.0	27.8	3.03e+01	0	39	0	404750336	50	6073
2026-01-02 20:18:55.82	354.74	11.70	-37.6	-38.9	27.9	3.03e+01	0	39	0	410517504	50	6005
2026-01-02 20:18:58.85	354.09	11.75	-37.7	-39.0	27.8	3.03e+01	0	39	0	416284672	50	6066
2026-01-02 20:19:01.88	353.43	11.79	-37.7	-39.0	27.7	3.03e+01	0	39	0	422051840	50	6083
2026-01-02 20:19:04.91	352.78	11.83	-37.8	-39.1	27.7	3.03e+01	0	39	0	427294720	50	6163
2026-01-02 20:19:07.94	352.12	11.86	-37.7	-39.0	27.7	3.03e+01	0	39	0	433061888	50	6132
2026-01-02 20:19:10.97	351.46	11.89	-37.5	-38.7	28.0	3.03e+01	0	39	0	438829056	50	5923
2026-01-02 20:19:13.99	350.79	11.92	-37.8	-39.1	27.7	3.03e+01	0	39	0	444596224	50	6142
2026-01-02 20:19:17.02	350.13	11.95	-37.7	-38.9	27.8	3.03e+01	0	39	0	450363392	50	6044
2026-01-02 20:19:20.04	349.47	11.97	-37.8	-39.1	27.7	3.03e+01	0	39	0	456130560	50	6165
2026-01-02 20:19:23.07	348.80	11.99	-37.7	-39.0	27.7	3.03e+01	0	39	0	461897728	50	6122
2026-01-02 20:19:26.10	348.13	12.00	-37.8	-39.1	27.8	3.03e+01	0	39	0	467140608	50	6156
2026-01-02 20:19:29.12	347.47	12.01	-37.7	-39.0	27.9	3.03e+01	0	39	0	472907776	50	6118
2026-01-02 20:19:32.16	346.80	12.02	-37.8	-39.1	27.7	3.03e+01	0	39	0	478674944	50	6155
2026-01-02 20:19:35.18	346.13	12.02	-37.8	-39.0	27.8	3.03e+01	0	39	0	484442112	50	6130
2026-01-02 20:19:38.20	345.47	12.02	-38.0	-39.3	27.6	3.03e+01	0	39	0	490209280	50	6322
2026-01-02 20:19:41.23	344.80	12.02	-37.8	-39.1	27.7	3.03e+01	0	39	0	495452160	50	6146
2026-01-02 20:19:44.26	344.13	12.01	-37.9	-39.2	27.7	3.03e+01	0	39	0	501219328	50	6227
2026-01-02 20:19:47.29	343.46	12.00	-37.7	-39.0	27.8	3.03e+01	0	39	0	506986496	50	6121
2026-01-02 20:19:50.32	342.80	11.98	-37.9	-39.2	27.7	3.03e+01	0	39	0	512753664	50	6230
2026-01-02 20:19:53.34	342.13	11.97	-37.9	-39.2	27.6	3.03e+01	0	39	0	518520832	50	6247
2026-01-02 20:19:56.37	341.47	11.95	-37.9	-39.2	27.7	3.03e+01	0	39	0	524288000	50	6229
2026-01-02 20:19:59.40	340.80	11.92	-37.9	-39.1	27.8	3.03e+01	0	39	0	529530880	50	6201
2026-01-02 20:20:02.43	340.14	11.89	-37.9	-39.2	27.7	3.03e+01	0	39	0	535298048	50	6211
2026-01-02 20:20:05.46	339.48	11.86	-38.2	-39.5	27.3	3.03e+01	0	39	0	541065216	50	6492
2026-01-02 20:20:08.49	338.82	11.82	-38.0	-39.3	27.6	3.03e+01	0	39	0	546832384	50	6289
2026-01-02 20:20:11.51	338.16	11.78	-38.4	-39.8	27.1	3.03e+01	0	39	0	552599552	50	6662
2026-01-02 20:20:14.54	337.51	11.74	-37.8	-39.1	27.7	3.03e+01	0	39	0	558366720	50	6163
2026-01-02 20:20:17.57	336.85	11.70	-38.5	-39.9	26.9	3.03e+01	0	39	0	563609600	50	6796
2026-01-02 20:20:20.59	336.20	11.65	-38.9	-40.3	26.8	3.03e+01	0	39	0	569376768	50	7110
2026-01-02 20:20:23.63	335.55	11.60	-37.6	-38.9	27.7	3.03e+01	0	39	0	575143936	50	6012
2026-01-02 20:20:26.65	334.91	11.54	-37.9	-39.2	27.7	3.03e+01	0	39	0	580911104	50	6228
2026-01-02 20:20:29.68	334.27	11.48	-38.6	-40.0	26.8	3.03e+01	0	39	0	586678272	50	6869
2026-01-02 20:20:32.71	333.62	11.42	-37.9	-39.2	27.6	3.03e+01	0	39	0	592445440	50	6211
2026-01-02 20:20:35.74	332.99	11.35	-38.1	-39.4	27.4	3.03e+01	0	39	0	597688320	50	6398
2026-01-02 20:20:38.76	332.35	11.29	-38.5	-39.9	27.1	3.03e+01	0	39	0	603455488	50	6755
2026-01-02 20:20:41.79	331.72	11.22	-38.2	-39.5	27.4	3.03e+01	0	39	0	609222656	50	6444
2026-01-02 20:20:44.82	331.09	11.14	-38.2	-39.6	27.2	3.03e+01	0	39	0	614989824	50	6523
2026-01-02 20:20:47.85	330.47	11.06	-37.9	-39.1	27.6	3.03e+01	0	39	0	620756992	50	6198
2026-01-02 20:20:50.87	329.85	10.99	-38.4	-39.7	27.1	3.03e+01	0	39	0	626524160	50	6608
2026-01-02 20:20:53.90	329.23	10.90	-38.3	-39.6	27.2	3.03e+01	0	39	0	631767040	52	5833
2026-01-02 20:20:56.93	328.62	10.82	-38.4	-39.8	27.2	3.03e+01	0	39	0	637534208	52	5939
2026-01-02 20:20:59.96	328.01	10.73	-38.1	-39.4	27.4	3.03e+01	0	39	0	643301376	52	5686
2026-01-02 20:21:02.99	327.41	10.64	-38.2	-39.6	27.3	3.03e+01	0	39	0	649068544	52	5804
2026-01-02 20:21:06.02	326.80	10.55	-38.8	-40.2	26.6	3.03e+01	0	39	0	654835712	52	6261
2026-01-02 20:21:09.04	326.21	10.45	-39.5	-41.0	26.0	3.03e+01	0	39	0	660078592	52	6836
2026-01-02 20:21:12.07	325.62	10.35	-38.6	-39.9	26.8	3.03e+01	0	39	0	665845760	52	6026
2026-01-02 20:21:15.10	325.03	10.25	-37.5	-38.8	27.7	3.03e+01	0	39	0	671612928	50	5939
2026-01-02 20:21:18.13	324.44	10.15	-38.9	-40.3	26.8	3.03e+01	0	39	0	677380096	52	6290
2026-01-02 20:21:21.15	323.87	10.05	-39.3	-40.7	26.1	3.03e+01	0	39	0	683147264	52	6648
2026-01-02 20:21:24.18	323.29	9.94	-38.4	-39.8	26.8	3.03e+01	0	39	0	688914432	52	5937
2026-01-02 20:21:27.21	322.72	9.83	-38.3	-39.7	27.1	3.03e+01	0	39	0	694681600	50	6585
2026-01-02 20:21:30.24	322.15	9.72	-37.9	-39.2	27.5	3.03e+01	0	39	0	699924480	50	6232
2026-01-02 20:21:33.27	321.59	9.61	-38.7	-40.1	26.6	3.03e+01	0	39	0	705691648	52	6179
2026-01-02 20:21:36.30	321.04	9.50	-38.6	-40.0	26.8	3.03e+01	0	38	0	711458816	52	6087
2026-01-02 20:21:39.33	320.49	9.38	-38.6	-40.0	26.9	3.03e+01	0	39	0	717225984	52	6075
2026-01-02 20:21:42.36	319.94	9.26	-39.1	-40.5	26.4	3.03e+01	0	38	0	722993152	52	6445
2026-01-02 20:21:45.39	319.40	9.14	-39.1	-40.5	26.5	3.03e+01	0	39	0	728236032	52	6435
2026-01-02 20:21:48.42	318.86	9.02	-38.7	-40.1	26.7	3.03e+01	0	39	0	734003200	52	6172
2026-01-02 20:21:51.45	318.33	8.90	-38.7	-40.1	26.7	3.03e+01	0	39	0	739770368	52	6147
2026-01-02 20:21:54.47	317.80	8.77	-38.8	-40.2	26.6	3.03e+01	0	39	0	745537536	52	6271
2026-01-02 20:21:57.50	317.28	8.65	-39.3	-40.8	26.0	3.03e+01	0	39	0	751304704	52	6690
2026-01-02 20:22:00.53	316.76	8.52	-39.2	-40.6	26.2	3.03e+01	0	38	0	757071872	52	6548
2026-01-02 20:22:03.56	316.25	8.39	-39.0	-40.4	26.3	3.03e+01	0	39	0	762839040	52	6399
2026-01-02 20:22:06.59	315.74	8.26	-38.9	-40.3	26.5	3.03e+01	0	39	0	768081920	52	6311
2026-01-02 20:22:09.62	315.24	8.13	-39.1	-40.6	26.2	3.03e+01	0	38	0	773849088	52	6502
2026-01-02 20:22:12.64	314.75	8.00	-39.3	-40.8	25.8	3.03e+01	0	38	0	779616256	54	5945
2026-01-02 20:22:15.67	314.25	7.86	-39.1	-40.5	26.1	3.03e+01	0	39	0	785383424	52	6457
2026-01-02 20:22:18.70	313.77	7.73	-39.0	-40.4	26.2	3.03e+01	0	38	0	791150592	52	6383
2026-01-02 20:22:21.73	313.28	7.59	-39.0	-40.4	26.2	3.03e+01	0	39	0	796393472	52	6420
2026-01-02 20:22:24.76	312.81	7.46	-39.3	-40.8	26.0	3.03e+01	0	38	0	802160640	52	6656
2026-01-02 20:22:27.79	312.33	7.32	-39.6	-41.1	25.6	3.03e+01	0	38	0	807927808	52	6954
2026-01-02 20:22:30.82	311.87	7.18	-40.0	-41.6	25.1	3.03e+01	0	39	0	813694976	54	6567
2026-01-02 20:22:33.86	311.40	7.04	-39.7	-41.3	25.5	3.03e+01	0	38	0	819462144	52	7061
2026-01-02 20:22:36.89	310.94	6.90	-39.1	-40.6	26.2	3.03e+01	0	39	0	825229312	52	6536
2026-01-02 20:22:39.92	310.49	6.76	-39.3	-40.8	25.9	3.03e+01	0	39	0	830996480	52	6678
2026-01-02 20:22:42.95	310.04	6.62	-39.2	-40.7	26.0	3.03e+01	0	39	0	836239360	52	6594
2026-01-02 20:22:45.98	309.60	6.48	-39.7	-41.3	25.5	3.03e+01	0	39	0	842006528	52	7102
2026-01-02 20:22:49.01	309.16	6.34	-39.3	-40.8	25.9	3.03e+01	0	39	0	847773696	52	6693
2026-01-02 20:22:52.04	308.73	6.19	-39.3	-40.8	25.8	3.03e+01	0	39	0	853540864	52	6678
2026-01-02 20:22:55.06	308.30	6.05	-39.6	-41.1	25.5	3.03e+01	0	39	0	859308032	52	6938
2026-01-02 20:22:58.09	307.87	5.91	-39.6	-41.2	25.5	3.03e+01	0	39	0	864550912	52	6987
2026-01-02 20:23:01.12	307.45	5.76	-39.5	-41.1	25.6	3.03e+01	0	38	0	870318080	52	6931
2026-01-02 20:23:04.15	307.04	5.62	-39.3	-40.8	25.7	3.03e+01	0	39	0	876085248	54	5959
2026-01-02 20:23:07.18	306.63	5.47	-39.2	-40.7	25.8	3.03e+01	0	39	0	881852416	54	5920
2026-01-02 20:23:10.20	306.22	5.32	-39.9	-41.5	25.1	3.03e+01	0	39	0	887619584	54	6445
2026-01-02 20:23:13.23	305.82	5.18	-39.7	-41.2	25.2	3.03e+01	0	39	0	893386752	54	6267
2026-01-02 20:23:16.26	305.43	5.03	-39.7	-41.3	25.2	3.03e+01	0	39	0	899153920	54	6308
2026-01-02 20:23:19.29	305.03	4.88	-39.8	-41.5	25.0	3.03e+01	0	39	0	904396800	54	6434
2026-01-02 20:23:22.32	304.65	4.74	-40.2	-41.9	24.6	3.03e+01	0	39	0	910163968	54	6766
2026-01-02 20:23:25.35	304.26	4.59	-40.1	-41.7	24.8	3.03e+01	0	39	0	915931136	54	6614
2026-01-02 20:23:28.38	303.88	4.44	-40.7	-42.4	24.1	3.03e+01	0	39	0	921698304	54	7187
2026-01-02 20:23:31.41	303.51	4.29	-39.8	-41.4	24.9	3.03e+01	0	39	0	927465472	54	6380
2026-01-02 20:23:34.44	303.14	4.15	-40.1	-41.8	24.6	3.03e+01	0	38	0	932708352	54	6655
2026-01-02 20:23:37.47	302.77	4.00	-40.5	-42.2	24.1	3.03e+01	0	39	0	938475520	54	7010
2026-01-02 20:23:40.50	302.41	3.85	-40.1	-41.7	24.6	3.03e+01	0	39	0	944242688	54	6601
2026-01-02 20:23:43.53	302.05	3.70	-40.4	-42.1	24.2	3.03e+01	0	38	0	950009856	54	6898
2026-01-02 20:23:46.56	301.69	3.55	-40.5	-42.2	24.0	3.03e+01	0	39	0	955777024	54	7036
2026-01-02 20:23:49.59	301.34	3.40	-40.3	-41.9	24.4	3.03e+01	0	39	0	961544192	54	6764
2026-01-02 20:23:52.61	301.00	3.26	-41.2	-43.0	23.2	3.03e+01	0	39	0	967311360	56	6841
2026-01-02 20:23:55.64	300.65	3.11	-41.7	-43.6	22.5	3.03e+01	0	39	0	972554240	58	6525
2026-01-02 20:23:58.67	300.31	2.96	-49.8	-67.6	3.5	3.03e+01	0	39	104	976224256	60	91972
2026-01-02 20:24:01.70	299.98	2.81	-50.3	-68.1	3.5	3.03e+01	0	39	104	976224256	60	97940
2026-01-02 20:24:04.73	299.65	2.66	-50.5	-68.4	3.5	3.03e+01	0	39	104	976224256	60	100917
2026-01-02 20:24:07.76	299.32	2.51	-50.3	-68.4	3.5	3.03e+01	0	39	104	976224256	60	100844
2026-01-02 20:24:10.78	299.00	2.37	-50.4	-68.3	3.5	3.03e+01	0	39	104	976224256	60	99627
2026-01-02 20:24:13.81	298.68	2.22	-50.4	-68.2	3.5	3.03e+01	0	39	104	976224256	60	99160
2026-01-02 20:24:16.84	298.36	2.07	-50.4	-68.2	3.5	3.03e+01	0	39	104	976224256	60	99286
2026-01-02 20:24:19.87	298.05	1.92	-50.4	-68.2	3.5	3.03e+01	0	39	104	976224256	60	98857
2026-01-02 20:24:22.90	297.74	1.77	-50.4	-68.2	3.5	3.03e+01	0	39	104	976224256	60	99102
2026-01-02 20:24:25.93	297.43	1.63	-50.4	-68.2	3.5	3.03e+01	0	39	104	976224256	60	98739
2026-01-02 20:24:28.96	297.13	1.48	-50.4	-68.2	3.5	3.03e+01	0	39	104	976224256	60	99396
2026-01-02 20:24:31.99	296.83	1.33	-50.4	-68.2	3.5	3.03e+01	0	39	104	976224256	60	98670
2026-01-02 20:24:35.02	296.53	1.18	-50.4	-68.2	3.5	3.03e+01	0	39	104	976224256	60	98841
2026-01-02 20:24:38.05	296.24	1.04	-50.4	-68.2	3.5	3.03e+01	0	39	104	976224256	60	98650
2026-01-02 20:24:41.07	295.95	0.89	-50.4	-68.2	3.5	3.03e+01	0	39	104	976224256	60	99337
2026-01-02 20:24:44.10	295.67	0.74	-50.4	-68.2	3.5	3.03e+01	0	39	104	976224256	60	98716
2026-01-02 20:24:47.13	295.38	0.60	-50.4	-68.2	3.5	3.03e+01	0	39	104	976224256	60	99319
2026-01-02 20:24:50.16	295.10	0.45	-50.4	-68.2	3.5	3.03e+01	0	39	104	976224256	60	99298
2026-01-02 20:24:53.19	294.83	0.31	-50.4	-68.2	3.5	3.03e+01	0	39	104	976224256	60	98799
2026-01-02 20:24:56.22	294.55	0.16	-50.4	-68.2	3.5	3.03e+01	0	39	104	976224256	60	98896
2026-01-02 20:24:59.25	294.28	0.01	-50.4	-68.2	3.5	3.03e+01	0	39	104	976224256	60	99117

#Closed at: 2026-01-02 20:25:00
#Recorded file [976 MB]: D:/lorett/data/35029_260103_081414.dat