passes_logs/2026/01/02/R4.6S_Anadyr/R4.6S_Anadyr__20260102_170000_AQUA_rec.log

#Pass ID: 20260102_170000_AQUA
#Satellite: AQUA
#Configuration: AQUA
#almurnet v.1.7.20251203
#Start time: 2026-01-02 17:00:03

#Version: 2.2.20231116
#Station: R4.6S_Anadyr
#Location: 177.4865 lon 64.73178 lat
#TLE: 1 27424U 02022A   25365.92641127  .00002078  00000+0  42628-3 0  9999
#TLE: 2 27424  98.4058 327.1196 0001962  94.7781 340.6230 14.61783896258835

#Time	Az	El	Level	Level2	SNR	BER	BlckErr	Temp	State	Recorded	gain1	gain2
2026-01-02 17:00:03.32	20.58	0.19	-49.9	-66.2	3.3	3.04e+01	0	37	0	0	60	78799
2026-01-02 17:00:07.36	20.51	0.44	-49.6	-67.8	3.5	3.04e+01	0	37	104	0	60	94337
2026-01-02 17:00:11.39	20.44	0.69	-49.5	-67.4	3.5	3.04e+01	0	38	104	0	60	90193
2026-01-02 17:00:15.43	20.37	0.95	-48.5	-66.5	3.5	3.04e+01	0	38	104	0	60	81431
2026-01-02 17:00:19.47	20.29	1.20	-48.1	-65.9	3.5	3.04e+01	0	38	104	0	60	76331
2026-01-02 17:00:23.51	20.22	1.46	-48.1	-65.9	3.5	3.04e+01	0	38	104	0	60	75766
2026-01-02 17:00:27.55	20.14	1.72	-48.1	-65.3	3.5	3.04e+01	0	38	104	0	60	70728
2026-01-02 17:00:31.59	20.06	1.98	-48.1	-64.8	3.5	3.04e+01	0	38	104	0	60	66691
2026-01-02 17:00:35.63	19.98	2.25	-48.1	-65.9	3.5	3.04e+01	0	38	104	0	60	76296
2026-01-02 17:00:39.67	19.89	2.52	-48.1	-65.3	3.5	3.04e+01	0	38	104	0	60	70700
2026-01-02 17:00:43.71	19.81	2.79	-48.0	-63.1	3.6	3.04e+01	0	38	104	0	60	55183
2026-01-02 17:00:47.75	19.72	3.06	-48.1	-64.6	3.5	3.04e+01	0	38	104	0	60	65692
2026-01-02 17:00:51.79	19.63	3.34	-47.2	-54.7	10.3	3.04e+01	55	38	0	2097152	60	21020
2026-01-02 17:00:55.83	19.53	3.62	-45.0	-48.8	16.7	3.04e+01	57	38	0	9961472	60	10585
2026-01-02 17:00:59.87	19.44	3.90	-39.0	-40.6	24.9	3.04e+01	53	38	0	15204352	54	5819
2026-01-02 17:01:03.91	19.34	4.19	-41.1	-43.0	22.5	3.04e+01	54	38	0	20447232	58	6126
2026-01-02 17:01:07.94	19.24	4.48	-40.2	-41.9	23.8	3.04e+01	46	38	0	28311552	54	6791
2026-01-02 17:01:11.98	19.14	4.77	-40.4	-42.2	23.3	3.04e+01	58	38	0	35651584	54	6978
2026-01-02 17:01:16.02	19.03	5.07	-39.0	-40.6	25.0	3.04e+01	51	38	0	42991616	52	6510
2026-01-02 17:01:20.06	18.92	5.37	-39.4	-41.0	24.8	3.04e+01	56	38	0	50855936	52	6851
2026-01-02 17:01:24.10	18.81	5.67	-38.8	-40.3	25.5	3.04e+01	44	38	0	58195968	52	6334
2026-01-02 17:01:28.13	18.70	5.98	-38.1	-39.5	26.2	3.04e+01	59	38	0	66060288	52	5777
2026-01-02 17:01:32.17	18.58	6.29	-38.0	-39.5	26.4	3.04e+01	44	38	0	73400320	50	6439
2026-01-02 17:01:36.21	18.46	6.61	-38.0	-39.4	26.5	3.04e+01	61	38	0	81264640	50	6358
2026-01-02 17:01:40.24	18.34	6.93	-37.6	-39.0	26.8	3.04e+01	60	38	0	88604672	50	6079
2026-01-02 17:01:44.28	18.21	7.25	-37.6	-39.0	26.8	3.04e+01	58	38	0	96468992	50	6068
2026-01-02 17:01:48.32	18.08	7.58	-37.9	-39.3	26.4	3.04e+01	59	38	0	103809024	50	6293
2026-01-02 17:01:52.36	17.94	7.92	-37.3	-38.7	27.3	3.04e+01	57	38	0	111149056	50	5869
2026-01-02 17:01:56.39	17.81	8.25	-37.1	-38.4	27.5	3.04e+01	59	38	0	119013376	50	5701
2026-01-02 17:02:00.43	17.66	8.60	-37.1	-38.4	27.6	3.04e+01	61	38	0	126353408	50	5700
2026-01-02 17:02:04.46	17.52	8.95	-37.2	-38.5	27.4	3.04e+01	59	38	0	134217728	50	5788
2026-01-02 17:02:08.50	17.37	9.30	-37.0	-38.3	27.7	3.04e+01	56	38	0	141557760	50	5609
2026-01-02 17:02:12.54	17.21	9.66	-36.9	-38.2	27.8	3.04e+01	60	38	0	149422080	48	6230
2026-01-02 17:02:16.58	17.05	10.03	-36.7	-37.9	28.1	3.04e+01	60	38	0	156762112	48	6059
2026-01-02 17:02:20.61	16.89	10.40	-36.6	-37.9	28.1	3.04e+01	60	38	0	164102144	48	6018
2026-01-02 17:02:24.65	16.72	10.77	-36.6	-37.9	28.2	3.04e+01	61	38	0	171966464	48	6004
2026-01-02 17:02:28.69	16.54	11.16	-36.1	-37.4	28.6	3.04e+01	57	38	0	179306496	48	5685
2026-01-02 17:02:32.72	16.36	11.54	-36.2	-37.4	28.5	3.04e+01	59	38	0	187170816	48	5701
2026-01-02 17:02:36.75	16.18	11.94	-36.3	-37.6	28.5	3.04e+01	58	38	0	194510848	48	5797
2026-01-02 17:02:40.79	15.98	12.34	-36.2	-37.4	28.6	3.04e+01	60	38	0	202375168	48	5690
2026-01-02 17:02:44.83	15.79	12.75	-36.1	-37.3	28.7	3.04e+01	56	38	0	209715200	46	6338
2026-01-02 17:02:48.86	15.58	13.17	-36.1	-37.3	28.8	3.04e+01	47	38	0	217055232	46	6330
2026-01-02 17:02:52.90	15.37	13.60	-36.0	-37.2	28.8	3.04e+01	60	38	0	224919552	46	6270
2026-01-02 17:02:56.94	15.15	14.03	-36.1	-37.4	28.7	3.04e+01	55	38	0	232259584	46	6370
2026-01-02 17:03:00.98	14.92	14.47	-36.3	-37.6	28.5	3.04e+01	59	39	0	240123904	46	6533
2026-01-02 17:03:05.02	14.69	14.93	-36.2	-37.4	28.7	3.04e+01	56	38	0	247463936	46	6380
2026-01-02 17:03:09.06	14.44	15.38	-35.8	-37.0	29.1	3.04e+01	59	38	0	255328256	46	6114
2026-01-02 17:03:13.09	14.19	15.85	-35.7	-36.9	29.1	3.04e+01	51	38	0	262668288	46	6060
2026-01-02 17:03:17.13	13.93	16.33	-35.5	-36.7	29.4	3.04e+01	58	39	0	270532608	46	5903
2026-01-02 17:03:21.17	13.66	16.82	-35.4	-36.6	29.5	3.04e+01	51	38	0	277872640	46	5809
2026-01-02 17:03:25.21	13.38	17.32	-35.5	-36.7	29.4	3.04e+01	59	39	0	285212672	46	5919
2026-01-02 17:03:29.25	13.09	17.83	-35.9	-37.1	29.1	3.04e+01	44	39	0	293076992	46	6159
2026-01-02 17:03:33.29	12.79	18.35	-35.9	-37.1	29.1	3.04e+01	60	38	0	300417024	46	6182
2026-01-02 17:03:37.33	12.47	18.88	-35.9	-37.1	29.1	3.04e+01	44	39	0	308281344	46	6171
2026-01-02 17:03:41.36	12.15	19.42	-35.9	-37.1	29.1	3.04e+01	60	39	0	315621376	46	6152
2026-01-02 17:03:45.40	11.81	19.98	-35.9	-37.1	29.2	3.04e+01	51	39	0	323485696	46	6145
2026-01-02 17:03:49.44	11.45	20.55	-36.0	-37.2	29.2	3.04e+01	61	39	0	330825728	46	6240
2026-01-02 17:03:53.48	11.08	21.13	-36.4	-37.6	28.7	3.04e+01	56	39	0	338690048	46	6573
2026-01-02 17:03:57.52	10.70	21.73	-36.8	-38.0	28.4	3.04e+01	59	39	0	346030080	46	6855
2026-01-02 17:04:01.56	10.30	22.34	-36.5	-37.7	28.8	3.04e+01	58	39	0	353370112	46	6626
2026-01-02 17:04:05.60	9.88	22.96	-36.2	-37.5	28.9	3.04e+01	54	39	0	361234432	46	6430
2026-01-02 17:04:09.64	9.44	23.60	-36.6	-37.8	28.7	3.04e+01	60	39	0	368574464	46	6679
2026-01-02 17:04:13.68	8.98	24.26	-36.6	-37.9	28.6	3.04e+01	57	38	0	376438784	46	6732
2026-01-02 17:04:17.71	8.50	24.93	-36.4	-37.6	28.8	3.04e+01	57	39	0	383778816	46	6546
2026-01-02 17:04:21.75	8.00	25.62	-36.2	-37.4	29.0	3.04e+01	61	39	0	391643136	46	6393
2026-01-02 17:04:25.79	7.47	26.33	-36.3	-37.5	29.0	3.04e+01	60	39	0	398983168	46	6459
2026-01-02 17:04:29.83	6.92	27.05	-36.3	-37.5	29.0	3.04e+01	59	39	0	406323200	46	6487
2026-01-02 17:04:33.87	6.34	27.79	-36.0	-37.2	29.3	3.04e+01	59	39	0	414187520	46	6232
2026-01-02 17:04:37.90	5.73	28.55	-35.6	-36.8	29.6	3.04e+01	58	39	0	421527552	46	5957
2026-01-02 17:04:41.94	5.09	29.33	-35.6	-36.8	29.6	3.04e+01	59	39	0	429391872	46	5936
2026-01-02 17:04:45.98	4.42	30.13	-35.6	-36.8	29.7	3.04e+01	58	39	0	436731904	46	5961
2026-01-02 17:04:50.01	3.71	30.95	-35.9	-37.1	29.4	3.04e+01	59	39	0	444596224	46	6135
2026-01-02 17:04:54.05	2.95	31.79	-35.9	-37.1	29.4	3.04e+01	61	39	0	451936256	46	6139
2026-01-02 17:04:58.09	2.16	32.65	-35.6	-36.8	29.7	3.04e+01	63	39	0	459800576	46	5931
2026-01-02 17:05:02.13	1.32	33.53	-35.9	-37.1	29.4	3.04e+01	61	39	0	467140608	46	6184
2026-01-02 17:05:06.17	0.43	34.43	-36.1	-37.3	29.2	3.04e+01	53	39	0	474480640	46	6329
2026-01-02 17:05:10.20	359.49	35.35	-36.8	-38.1	28.5	3.04e+01	55	39	0	482344960	46	6904
2026-01-02 17:05:14.24	358.49	36.29	-37.1	-38.3	28.2	3.04e+01	60	39	0	489684992	48	6322
2026-01-02 17:05:18.28	357.43	37.25	-37.5	-38.8	27.8	3.04e+01	44	39	0	497549312	48	6708
2026-01-02 17:05:22.31	356.30	38.23	-37.3	-38.5	28.2	3.04e+01	59	39	0	504889344	48	6491
2026-01-02 17:05:26.35	355.10	39.22	-37.8	-39.1	27.6	3.04e+01	62	39	0	512753664	50	6166
2026-01-02 17:05:30.39	353.81	40.23	-37.9	-39.2	27.5	3.04e+01	60	39	0	520093696	50	6257
2026-01-02 17:05:34.43	352.45	41.26	-37.4	-38.6	28.1	3.04e+01	47	39	0	527958016	50	5832
2026-01-02 17:05:38.47	350.99	42.29	-37.6	-38.9	27.9	3.04e+01	60	39	0	535298048	50	6007
2026-01-02 17:05:42.51	349.43	43.34	-36.9	-38.1	28.5	3.04e+01	50	39	0	542638080	48	6204
2026-01-02 17:05:46.55	347.76	44.39	-36.8	-38.1	28.6	3.04e+01	58	39	0	550502400	48	6153
2026-01-02 17:05:50.59	345.97	45.44	-37.0	-38.3	28.4	3.04e+01	44	39	0	557842432	48	6286
2026-01-02 17:05:54.62	344.07	46.48	-37.0	-38.3	28.4	3.04e+01	57	39	0	565706752	48	6293
2026-01-02 17:05:58.67	342.02	47.52	-37.5	-38.8	28.0	3.04e+01	45	39	0	573046784	48	6681
2026-01-02 17:06:02.70	339.84	48.54	-37.0	-38.3	28.4	3.04e+01	59	39	0	580911104	48	6308
2026-01-02 17:06:06.74	337.50	49.53	-36.8	-38.1	28.6	3.04e+01	44	39	0	588251136	48	6136
2026-01-02 17:06:10.77	335.01	50.50	-37.1	-38.4	28.3	3.04e+01	62	39	0	596115456	48	6385
2026-01-02 17:06:14.81	332.35	51.42	-36.3	-37.5	29.0	3.04e+01	52	39	0	603455488	48	5760
2026-01-02 17:06:18.85	329.53	52.30	-36.2	-37.4	29.1	3.04e+01	60	39	0	610795520	48	5694
2026-01-02 17:06:22.89	326.53	53.11	-36.2	-37.4	29.1	3.04e+01	51	39	0	618659840	46	6397
2026-01-02 17:06:26.93	323.37	53.85	-36.4	-37.6	29.0	3.04e+01	58	39	0	625999872	46	6539
2026-01-02 17:06:30.97	320.05	54.51	-36.3	-37.5	29.1	3.04e+01	57	39	0	633864192	46	6448
2026-01-02 17:06:35.01	316.58	55.08	-36.8	-38.0	28.6	3.04e+01	59	39	0	641204224	46	6877
2026-01-02 17:06:39.05	312.98	55.54	-36.9	-38.1	28.5	3.04e+01	61	39	0	649068544	48	6168
2026-01-02 17:06:43.09	309.28	55.90	-37.4	-38.7	28.1	3.04e+01	58	39	0	656408576	48	6614
2026-01-02 17:06:47.13	305.49	56.14	-37.6	-38.9	27.8	3.04e+01	62	39	0	664272896	48	6731
2026-01-02 17:06:51.16	301.66	56.25	-37.0	-38.2	28.4	3.04e+01	58	39	0	671612928	50	5581
2026-01-02 17:06:55.20	297.81	56.24	-36.1	-37.2	28.8	3.04e+01	58	39	0	678952960	46	6269
2026-01-02 17:06:59.24	293.98	56.10	-37.6	-38.9	27.3	3.04e+01	59	39	0	686817280	48	6737
2026-01-02 17:07:03.28	290.20	55.85	-36.9	-38.1	28.5	3.04e+01	60	39	0	694157312	48	6194
2026-01-02 17:07:07.32	286.51	55.47	-39.4	-40.9	26.0	3.04e+01	56	39	0	702021632	52	6792
2026-01-02 17:07:11.36	282.93	54.99	-38.1	-39.5	27.3	3.04e+01	60	39	0	709361664	50	6451
2026-01-02 17:07:15.39	279.49	54.40	-37.9	-39.3	27.3	3.04e+01	58	39	0	717225984	50	6287
2026-01-02 17:07:19.43	276.19	53.73	-37.0	-38.3	28.3	3.04e+01	57	39	0	724566016	50	5636
2026-01-02 17:07:23.47	273.05	52.97	-36.0	-37.2	29.3	3.04e+01	55	39	0	732430336	46	6277
2026-01-02 17:07:27.50	270.09	52.15	-35.6	-36.7	29.7	3.04e+01	57	39	0	739770368	46	5921
2026-01-02 17:07:31.54	267.29	51.26	-36.0	-37.2	29.4	3.04e+01	51	39	0	747110400	46	6256
2026-01-02 17:07:35.57	264.66	50.33	-36.2	-37.5	29.2	3.04e+01	61	39	0	754974720	46	6428
2026-01-02 17:07:39.61	262.19	49.36	-36.3	-37.6	29.1	3.04e+01	47	39	0	762314752	46	6510
2026-01-02 17:07:43.65	259.87	48.35	-36.4	-37.6	29.1	3.04e+01	59	39	0	770179072	46	6531
2026-01-02 17:07:47.69	257.71	47.33	-36.3	-37.5	29.1	3.04e+01	51	39	0	777519104	46	6425
2026-01-02 17:07:51.73	255.68	46.28	-35.6	-36.7	29.7	3.04e+01	58	39	0	785383424	46	5920
2026-01-02 17:07:55.77	253.79	45.23	-35.5	-36.6	29.8	3.04e+01	51	39	0	792723456	46	5830
2026-01-02 17:07:59.81	252.02	44.18	-36.3	-37.5	29.0	3.04e+01	59	39	0	800587776	46	6468
2026-01-02 17:08:03.84	250.37	43.13	-36.6	-37.8	28.9	3.04e+01	52	39	0	807927808	46	6700
2026-01-02 17:08:07.88	248.83	42.08	-36.8	-38.0	28.7	3.04e+01	59	39	0	815267840	48	6084
2026-01-02 17:08:11.92	247.38	41.05	-37.9	-39.3	27.8	3.04e+01	53	39	0	823132160	48	7045
2026-01-02 17:08:15.95	246.03	40.02	-38.0	-39.3	27.5	3.04e+01	62	39	0	830472192	48	7075
2026-01-02 17:08:19.99	244.76	39.01	-38.9	-40.4	26.5	3.04e+01	45	39	0	838336512	50	7145
2026-01-02 17:08:24.03	243.56	38.02	-38.6	-40.0	26.9	3.04e+01	60	39	0	845676544	50	6851
2026-01-02 17:08:28.07	242.44	37.04	-39.0	-40.4	26.7	3.04e+01	51	39	0	853540864	50	7173
2026-01-02 17:08:32.10	241.39	36.08	-38.2	-39.5	27.4	3.04e+01	60	39	0	860880896	50	6453
2026-01-02 17:08:36.13	240.40	35.14	-37.6	-38.9	27.9	3.04e+01	44	39	0	868745216	50	6016
2026-01-02 17:08:40.17	239.46	34.22	-36.8	-38.1	28.5	3.04e+01	56	39	0	876085248	48	6154
2026-01-02 17:08:44.20	238.58	33.32	-36.8	-38.0	28.7	3.04e+01	53	39	0	883425280	48	6105
2026-01-02 17:08:48.24	237.75	32.44	-36.3	-37.5	28.9	3.04e+01	59	39	0	891289600	48	5791
2026-01-02 17:08:52.28	236.96	31.58	-36.4	-37.7	28.9	3.04e+01	59	39	0	898629632	48	5864
2026-01-02 17:08:56.32	236.21	30.74	-35.8	-37.0	29.4	3.04e+01	57	39	0	906493952	46	6112
2026-01-02 17:09:00.35	235.51	29.93	-36.1	-37.3	29.1	3.04e+01	61	39	0	913833984	46	6316
2026-01-02 17:09:04.39	234.83	29.13	-36.2	-37.4	29.1	3.04e+01	59	39	0	921698304	46	6389
2026-01-02 17:09:08.43	234.20	28.35	-36.1	-37.3	29.2	3.04e+01	56	39	0	929038336	46	6342
2026-01-02 17:09:12.46	233.59	27.59	-36.3	-37.5	29.0	3.04e+01	57	39	0	936378368	46	6488
2026-01-02 17:09:16.50	233.01	26.85	-36.2	-37.4	29.1	3.04e+01	60	39	0	944242688	46	6380
2026-01-02 17:09:20.54	232.46	26.12	-36.5	-37.7	28.9	3.04e+01	60	39	0	951582720	46	6626
2026-01-02 17:09:24.57	231.94	25.42	-36.8	-38.0	28.4	3.04e+01	59	39	0	959447040	46	6872
2026-01-02 17:09:28.61	231.44	24.73	-36.7	-37.9	28.6	3.04e+01	59	39	0	966787072	46	6757
2026-01-02 17:09:32.65	230.96	24.06	-36.6	-37.8	28.7	3.04e+01	58	39	0	974651392	46	6712
2026-01-02 17:09:36.69	230.51	23.40	-36.5	-37.7	28.8	3.04e+01	58	39	0	981991424	46	6647
2026-01-02 17:09:40.73	230.07	22.76	-36.9	-38.2	28.4	3.04e+01	55	39	0	989331456	46	6999
2026-01-02 17:09:44.76	229.65	22.14	-36.8	-38.0	28.5	3.04e+01	60	39	0	997195776	48	6101
2026-01-02 17:09:48.80	229.25	21.53	-36.8	-38.0	28.5	3.04e+01	59	39	0	1004535808	48	6119
2026-01-02 17:09:52.83	228.87	20.94	-36.7	-37.9	28.6	3.04e+01	61	39	0	1012400128	48	6044
2026-01-02 17:09:56.87	228.50	20.35	-36.5	-37.8	28.8	3.04e+01	59	39	0	1019740160	48	5936
2026-01-02 17:10:00.91	228.14	19.78	-36.6	-37.8	28.7	3.04e+01	44	39	0	1027604480	48	5952
2026-01-02 17:10:04.95	227.80	19.23	-36.9	-38.1	28.5	3.04e+01	57	39	0	1034944512	48	6200
2026-01-02 17:10:08.99	227.48	18.69	-36.8	-38.0	28.5	3.04e+01	58	39	0	1042808832	48	6109
2026-01-02 17:10:13.03	227.16	18.15	-36.7	-38.0	28.5	3.04e+01	59	39	0	1050148864	48	6074
2026-01-02 17:10:17.07	226.86	17.63	-36.7	-37.9	28.5	3.04e+01	48	39	0	1057488896	48	6045
2026-01-02 17:10:21.11	226.57	17.12	-36.5	-37.7	28.7	3.04e+01	58	39	0	1065353216	48	5913
2026-01-02 17:10:25.14	226.29	16.63	-36.6	-37.8	28.6	3.04e+01	49	39	0	1072693248	48	5963
2026-01-02 17:10:29.18	226.02	16.14	-36.6	-37.8	28.6	3.04e+01	60	39	0	1080557568	48	5969
2026-01-02 17:10:33.22	225.75	15.66	-36.7	-37.9	28.5	3.04e+01	52	39	0	1087897600	48	6033
2026-01-02 17:10:37.25	225.50	15.19	-36.6	-37.9	28.5	3.04e+01	59	39	0	1095761920	48	6003
2026-01-02 17:10:41.29	225.26	14.73	-36.6	-37.9	28.5	3.04e+01	47	39	0	1103101952	48	6016
2026-01-02 17:10:45.33	225.02	14.28	-36.7	-37.9	28.3	3.04e+01	58	39	0	1110441984	48	6054
2026-01-02 17:10:49.37	224.80	13.84	-36.9	-38.1	28.2	3.04e+01	45	39	0	1118306304	48	6192
2026-01-02 17:10:53.41	224.58	13.41	-36.7	-37.9	28.4	3.04e+01	60	39	0	1125646336	48	6056
2026-01-02 17:10:57.44	224.36	12.98	-36.7	-37.9	28.4	3.04e+01	44	39	0	1133510656	48	6052
2026-01-02 17:11:01.48	224.16	12.57	-37.0	-38.3	28.0	3.04e+01	60	39	0	1140850688	48	6322
2026-01-02 17:11:05.52	223.96	12.15	-36.8	-38.1	28.2	3.04e+01	47	39	0	1148715008	48	6135
2026-01-02 17:11:09.56	223.76	11.75	-36.9	-38.2	28.1	3.04e+01	57	39	0	1156055040	48	6243
2026-01-02 17:11:13.59	223.57	11.36	-36.9	-38.2	28.1	3.04e+01	56	39	0	1163919360	48	6252
2026-01-02 17:11:17.63	223.39	10.97	-37.2	-38.5	27.8	3.04e+01	60	39	0	1171259392	48	6475
2026-01-02 17:11:21.67	223.22	10.58	-37.2	-38.5	27.7	3.04e+01	59	39	0	1178599424	48	6482
2026-01-02 17:11:25.70	223.04	10.21	-37.4	-38.8	27.5	3.04e+01	57	39	0	1186463744	48	6666
2026-01-02 17:11:29.74	222.88	9.84	-37.6	-38.9	27.3	3.04e+01	57	39	0	1193803776	48	6796
2026-01-02 17:11:33.78	222.72	9.47	-37.8	-39.2	27.0	3.04e+01	63	38	0	1201668096	48	6996
2026-01-02 17:11:37.81	222.56	9.11	-37.7	-39.0	27.1	3.04e+01	59	39	0	1209008128	48	6881
2026-01-02 17:11:41.85	222.41	8.76	-37.8	-39.2	26.9	3.04e+01	60	39	0	1216872448	48	6999
2026-01-02 17:11:45.89	222.26	8.41	-38.0	-39.3	26.8	3.04e+01	60	39	0	1224212480	50	6345
2026-01-02 17:11:49.93	222.11	8.07	-38.3	-39.7	26.4	3.04e+01	58	39	0	1231552512	50	6608
2026-01-02 17:11:53.97	221.97	7.73	-38.8	-40.3	25.8	3.04e+01	57	39	0	1239416832	50	7115
2026-01-02 17:11:58.01	221.84	7.39	-38.2	-39.7	26.3	3.04e+01	58	39	0	1246756864	50	6594
2026-01-02 17:12:02.04	221.70	7.07	-38.5	-40.0	26.1	3.04e+01	58	39	0	1254621184	50	6812
2026-01-02 17:12:06.08	221.57	6.74	-38.5	-39.9	26.1	3.04e+01	58	39	0	1261961216	50	6782
2026-01-02 17:12:10.12	221.45	6.42	-38.6	-40.1	25.9	3.04e+01	53	39	0	1269825536	50	6914
2026-01-02 17:12:14.16	221.33	6.11	-38.5	-40.0	25.9	3.04e+01	58	39	0	1277165568	50	6861
2026-01-02 17:12:18.19	221.21	5.79	-38.7	-40.2	25.6	3.04e+01	58	39	0	1285029888	50	7006
2026-01-02 17:12:22.23	221.09	5.49	-39.0	-40.5	25.4	3.04e+01	44	39	0	1292369920	52	6464
2026-01-02 17:12:26.27	220.98	5.18	-39.1	-40.6	25.2	3.04e+01	58	39	0	1299709952	52	6565
2026-01-02 17:12:30.30	220.86	4.88	-39.2	-40.7	25.0	3.04e+01	58	39	0	1307574272	52	6613
2026-01-02 17:12:34.34	220.76	4.59	-39.1	-40.7	25.0	3.04e+01	57	39	0	1314914304	52	6596
2026-01-02 17:12:38.38	220.65	4.29	-39.2	-40.8	25.0	3.04e+01	57	39	0	1322778624	52	6684
2026-01-02 17:12:42.41	220.55	4.00	-39.4	-41.1	24.5	3.04e+01	62	39	0	1330118656	52	6907
2026-01-02 17:12:46.45	220.45	3.72	-39.4	-41.0	24.5	3.04e+01	57	39	0	1337982976	52	6866
2026-01-02 17:12:50.49	220.35	3.43	-39.8	-41.5	22.3	3.04e+01	58	39	0	1345323008	52	7238
2026-01-02 17:12:54.53	220.25	3.15	-40.2	-42.1	23.2	3.04e+01	46	39	0	1353187328	54	6900
2026-01-02 17:12:58.57	220.16	2.88	-49.4	-67.3	3.5	3.04e+01	0	39	104	1356857344	60	89114
2026-01-02 17:13:02.59	220.07	2.60	-50.0	-67.8	3.5	3.04e+01	0	39	104	1356857344	60	94271
2026-01-02 17:13:06.63	219.98	2.33	-49.8	-67.9	3.5	3.04e+01	0	39	104	1356857344	60	95077
2026-01-02 17:13:10.67	219.89	2.06	-49.9	-67.7	3.5	3.04e+01	0	39	104	1356857344	60	93770
2026-01-02 17:13:14.71	219.80	1.80	-49.9	-67.7	3.5	3.04e+01	0	39	104	1356857344	60	93851
2026-01-02 17:13:18.75	219.72	1.54	-49.9	-67.7	3.5	3.04e+01	0	39	104	1356857344	60	93828
2026-01-02 17:13:22.79	219.64	1.28	-49.9	-67.7	3.5	3.04e+01	0	39	104	1356857344	60	93892
2026-01-02 17:13:26.83	219.56	1.02	-49.9	-67.7	3.5	3.04e+01	0	39	104	1356857344	60	93635
2026-01-02 17:13:30.87	219.48	0.76	-49.9	-67.7	3.5	3.04e+01	0	39	104	1356857344	60	93639
2026-01-02 17:13:34.90	219.40	0.51	-49.9	-67.8	3.5	3.04e+01	0	39	104	1356857344	60	94045
2026-01-02 17:13:38.94	219.33	0.26	-49.9	-67.7	3.5	3.04e+01	0	39	104	1356857344	60	93590
2026-01-02 17:13:42.98	219.26	0.01	-49.9	-67.7	3.5	3.04e+01	0	39	104	1356857344	60	93561

#Closed at: 2026-01-02 17:13:43
#Recorded file [1356 MB]: D:/lorett/data/35029_260103_050003.dat