passes_logs/2026/01/02/R4.6S_Anadyr/R4.6S_Anadyr__20260102_113751_NOAA_21_JPSS-2_rec.log

#Pass ID: 20260102_113751_NOAA 21 (JPSS-2)
#Satellite: NOAA 21 (JPSS-2)
#Configuration: NOAA-21
#almurnet v.1.7.20251203
#Start time: 2026-01-02 11:37:55

#Version: 2.2.20231116
#Station: R4.6S_Anadyr
#Location: 177.4865 lon 64.73178 lat
#TLE: 1 54234U 22150A   26001.90243762  .00000172  00000+0  10253-3 0  9993
#TLE: 2 54234  98.7485 302.9615 0001242 351.7524   8.3631 14.19530907162956

#Time	Az	El	Level	Level2	SNR	BER	BlckErr	Temp	State	Recorded	gain1	gain2
2026-01-02 11:37:55.88	20.72	0.16	-49.4	-51.0	5.7	0.00e+00	0	36	0	0	60	43375
2026-01-02 11:37:58.90	21.00	0.28	-49.4	-62.3	3.5	1.52e+00	0	38	104	0	60	45818
2026-01-02 11:38:01.93	21.29	0.41	-49.5	-62.4	3.5	1.52e+00	0	38	104	0	60	46055
2026-01-02 11:38:04.96	21.58	0.53	-49.3	-62.3	3.5	1.51e+00	0	38	104	0	60	45780
2026-01-02 11:38:07.99	21.87	0.65	-49.1	-62.0	3.5	1.51e+00	0	38	104	0	60	44417
2026-01-02 11:38:11.02	22.17	0.77	-48.7	-61.6	3.5	1.52e+00	0	38	104	0	60	42003
2026-01-02 11:38:14.05	22.47	0.89	-47.8	-60.6	3.5	1.52e+00	0	38	104	0	60	37680
2026-01-02 11:38:17.08	22.77	1.02	-47.8	-60.6	3.5	1.52e+00	0	38	104	0	60	37479
2026-01-02 11:38:20.11	23.07	1.14	-47.8	-60.6	3.5	1.52e+00	0	38	104	0	60	37482
2026-01-02 11:38:23.14	23.38	1.26	-47.8	-60.6	3.5	1.52e+00	0	38	104	0	60	37636
2026-01-02 11:38:26.17	23.68	1.38	-47.8	-60.6	3.5	1.52e+00	0	38	104	0	60	37545
2026-01-02 11:38:29.20	23.99	1.50	-47.8	-60.6	3.5	1.52e+00	0	38	104	0	60	37539
2026-01-02 11:38:32.23	24.31	1.63	-47.8	-60.6	3.5	1.52e+00	0	38	104	0	60	37757
2026-01-02 11:38:35.26	24.62	1.75	-47.8	-60.6	3.5	1.52e+00	0	39	104	0	60	37485
2026-01-02 11:38:38.28	24.94	1.87	-47.8	-60.6	3.5	1.52e+00	0	39	104	0	60	37533
2026-01-02 11:38:41.31	25.26	1.99	-47.8	-60.6	3.5	1.52e+00	0	39	104	0	60	37617
2026-01-02 11:38:44.34	25.58	2.11	-47.8	-60.6	3.5	1.51e+00	0	39	104	0	60	37470
2026-01-02 11:38:47.37	25.90	2.23	-47.8	-60.6	3.5	1.52e+00	0	39	104	0	60	37807
2026-01-02 11:38:50.40	26.23	2.35	-47.8	-60.6	3.5	1.52e+00	0	39	104	0	60	37490
2026-01-02 11:38:53.43	26.56	2.47	-47.8	-60.6	3.5	1.52e+00	0	39	104	0	60	37484
2026-01-02 11:38:56.45	26.89	2.59	-47.7	-59.5	3.5	1.51e+00	0	39	104	0	60	33117
2026-01-02 11:38:59.49	27.23	2.71	-46.6	-51.9	7.3	2.40e-01	0	39	0	1048576	60	13840
2026-01-02 11:39:02.52	27.57	2.83	-41.5	-43.3	16.7	0.00e+00	0	39	0	10485760	56	6441
2026-01-02 11:39:05.54	27.90	2.95	-41.2	-42.9	16.8	0.00e+00	0	39	0	19922944	54	6901
2026-01-02 11:39:08.57	28.25	3.07	-40.6	-42.5	13.0	1.26e-02	0	39	104	26214400	54	6644
2026-01-02 11:39:11.60	28.59	3.19	-45.2	-48.8	8.7	0.00e+00	0	39	0	29360128	58	10890
2026-01-02 11:39:14.63	28.94	3.31	-40.8	-42.3	17.4	0.00e+00	0	39	0	31457280	52	7256
2026-01-02 11:39:17.66	29.29	3.42	-39.4	-40.7	19.0	0.00e+00	0	39	0	41943040	52	6056
2026-01-02 11:39:20.69	29.65	3.54	-39.7	-41.0	18.8	0.00e+00	0	39	0	50331648	52	6247
2026-01-02 11:39:23.71	30.00	3.66	-39.6	-41.0	19.0	0.00e+00	0	39	0	60817408	52	6245
2026-01-02 11:39:26.74	30.36	3.78	-39.3	-40.5	19.3	0.00e+00	0	39	0	70254592	52	5919
2026-01-02 11:39:29.77	30.72	3.89	-39.2	-40.5	19.4	0.00e+00	0	39	0	79691776	52	5896
2026-01-02 11:39:32.80	31.08	4.01	-39.4	-40.7	19.1	0.00e+00	0	39	0	89128960	52	6048
2026-01-02 11:39:35.83	31.45	4.12	-39.4	-40.7	19.5	0.00e+00	0	39	0	98566144	52	6029
2026-01-02 11:39:38.86	31.82	4.24	-39.3	-40.6	19.1	0.00e+00	0	39	0	108003328	52	5984
2026-01-02 11:39:41.89	32.19	4.35	-38.9	-40.1	19.9	0.00e+00	0	39	0	117440512	52	5618
2026-01-02 11:39:44.92	32.57	4.47	-39.2	-40.4	19.6	0.00e+00	0	39	0	126877696	52	5845
2026-01-02 11:39:47.95	32.95	4.58	-39.4	-40.7	19.5	0.00e+00	0	39	0	136314880	52	6008
2026-01-02 11:39:50.98	33.33	4.70	-39.1	-40.4	19.6	0.00e+00	0	39	0	145752064	50	6510
2026-01-02 11:39:54.01	33.71	4.81	-39.3	-40.6	19.5	0.00e+00	0	39	0	155189248	50	6670
2026-01-02 11:39:57.04	34.10	4.92	-38.9	-40.2	19.9	0.00e+00	0	39	0	164626432	50	6368
2026-01-02 11:40:00.07	34.49	5.03	-38.8	-40.0	20.0	0.00e+00	0	39	0	174063616	50	6271
2026-01-02 11:40:03.10	34.88	5.14	-38.5	-39.6	20.5	0.00e+00	0	39	0	183500800	50	5979
2026-01-02 11:40:06.13	35.28	5.25	-38.9	-40.2	20.1	0.00e+00	0	39	0	192937984	50	6356
2026-01-02 11:40:09.16	35.68	5.36	-38.8	-40.0	20.1	0.00e+00	0	39	0	202375168	50	6257
2026-01-02 11:40:12.19	36.08	5.47	-38.5	-39.6	20.6	0.00e+00	0	39	0	211812352	50	5976
2026-01-02 11:40:15.22	36.48	5.58	-38.5	-39.7	20.5	0.00e+00	0	39	0	221249536	50	6013
2026-01-02 11:40:18.25	36.89	5.69	-38.1	-39.2	20.9	0.00e+00	0	39	0	230686720	50	5688
2026-01-02 11:40:21.28	37.30	5.79	-38.5	-39.7	20.5	0.00e+00	0	39	0	240123904	50	6031
2026-01-02 11:40:24.31	37.71	5.90	-38.6	-39.8	20.3	0.00e+00	0	39	0	249561088	50	6065
2026-01-02 11:40:27.34	38.13	6.00	-38.2	-39.3	20.9	0.00e+00	0	39	0	258998272	50	5743
2026-01-02 11:40:30.37	38.55	6.11	-38.2	-39.3	20.8	0.00e+00	0	39	0	268435456	50	5783
2026-01-02 11:40:33.40	38.97	6.21	-38.0	-39.1	21.1	0.00e+00	0	39	0	277872640	50	5632
2026-01-02 11:40:36.43	39.39	6.32	-38.0	-39.1	21.1	0.00e+00	0	39	0	287309824	50	5638
2026-01-02 11:40:39.46	39.82	6.42	-38.0	-39.2	21.1	0.00e+00	0	39	0	296747008	50	5665
2026-01-02 11:40:42.49	40.25	6.52	-38.1	-39.2	21.1	0.00e+00	0	39	0	306184192	50	5704
2026-01-02 11:40:45.51	40.68	6.62	-38.2	-39.4	20.9	0.00e+00	0	39	0	315621376	50	5827
2026-01-02 11:40:48.54	41.12	6.72	-38.1	-39.2	21.1	0.00e+00	0	39	0	325058560	50	5708
2026-01-02 11:40:51.57	41.55	6.81	-38.1	-39.2	21.1	0.00e+00	0	39	0	334495744	50	5696
2026-01-02 11:40:54.60	42.00	6.91	-38.0	-39.1	21.2	0.00e+00	0	39	0	343932928	50	5650
2026-01-02 11:40:57.63	42.44	7.01	-37.9	-39.0	21.3	0.00e+00	0	39	0	353370112	50	5548
2026-01-02 11:41:00.65	42.88	7.10	-38.0	-39.1	21.2	0.00e+00	0	39	0	362807296	50	5630
2026-01-02 11:41:03.68	43.33	7.19	-38.0	-39.2	21.2	0.00e+00	0	39	0	372244480	50	5663
2026-01-02 11:41:06.71	43.79	7.29	-38.1	-39.2	21.0	0.00e+00	0	39	0	382730240	50	5717
2026-01-02 11:41:09.74	44.24	7.38	-38.0	-39.1	21.2	0.00e+00	0	39	0	391118848	50	5612
2026-01-02 11:41:12.77	44.70	7.47	-38.1	-39.2	21.2	0.00e+00	0	39	0	401604608	50	5668
2026-01-02 11:41:15.80	45.16	7.56	-37.9	-39.0	21.3	0.00e+00	0	39	0	411041792	50	5549
2026-01-02 11:41:18.83	45.63	7.64	-38.1	-39.2	21.2	0.00e+00	0	39	0	420478976	50	5666
2026-01-02 11:41:21.86	46.09	7.73	-37.9	-39.0	21.3	0.00e+00	0	39	0	429916160	50	5548
2026-01-02 11:41:24.89	46.56	7.81	-37.7	-38.8	21.5	0.00e+00	0	39	0	439353344	48	6083
2026-01-02 11:41:27.92	47.03	7.90	-37.6	-38.7	21.7	0.00e+00	0	39	0	448790528	48	6014
2026-01-02 11:41:30.94	47.50	7.98	-37.5	-38.6	21.7	0.00e+00	0	39	0	458227712	48	5934
2026-01-02 11:41:33.97	47.98	8.06	-37.6	-38.6	21.7	0.00e+00	0	39	0	467664896	48	5980
2026-01-02 11:41:37.00	48.46	8.14	-37.6	-38.7	21.6	0.00e+00	0	39	0	477102080	48	6013
2026-01-02 11:41:40.03	48.94	8.22	-37.6	-38.6	21.7	0.00e+00	0	39	0	486539264	48	5976
2026-01-02 11:41:43.06	49.43	8.29	-37.7	-38.8	21.5	0.00e+00	0	39	0	495976448	48	6093
2026-01-02 11:41:46.09	49.91	8.37	-37.6	-38.7	21.6	0.00e+00	0	39	0	505413632	48	6005
2026-01-02 11:41:49.12	50.40	8.44	-37.5	-38.5	21.8	0.00e+00	0	39	0	514850816	48	5893
2026-01-02 11:41:52.15	50.89	8.51	-37.5	-38.6	21.8	0.00e+00	0	39	0	524288000	48	5930
2026-01-02 11:41:55.18	51.39	8.58	-37.6	-38.6	21.7	0.00e+00	0	39	0	533725184	48	5977
2026-01-02 11:41:58.21	51.88	8.65	-37.7	-38.8	21.5	0.00e+00	0	39	0	543162368	48	6123
2026-01-02 11:42:01.24	52.38	8.72	-37.7	-38.7	21.6	0.00e+00	0	39	0	552599552	48	6053
2026-01-02 11:42:04.27	52.88	8.78	-37.6	-38.7	21.7	0.00e+00	0	39	0	562036736	48	6031
2026-01-02 11:42:07.31	53.39	8.85	-37.4	-38.5	21.8	0.00e+00	0	39	0	571473920	48	5872
2026-01-02 11:42:10.33	53.89	8.91	-37.4	-38.4	22.0	0.00e+00	0	39	0	580911104	48	5809
2026-01-02 11:42:13.36	54.40	8.97	-37.5	-38.6	21.9	0.00e+00	0	39	0	590348288	48	5935
2026-01-02 11:42:16.39	54.91	9.03	-37.7	-38.8	21.6	0.00e+00	0	39	0	599785472	48	6096
2026-01-02 11:42:19.42	55.42	9.08	-37.8	-38.8	21.6	0.00e+00	0	39	0	609222656	48	6122
2026-01-02 11:42:22.45	55.93	9.14	-37.6	-38.6	21.7	0.00e+00	0	39	0	618659840	48	5981
2026-01-02 11:42:25.48	56.44	9.19	-37.4	-38.5	21.8	0.00e+00	0	40	0	628097024	48	5862
2026-01-02 11:42:28.51	56.96	9.24	-37.4	-38.5	21.8	0.00e+00	0	39	0	637534208	48	5896
2026-01-02 11:42:31.54	57.48	9.29	-37.4	-38.4	21.9	0.00e+00	0	39	0	646971392	48	5842
2026-01-02 11:42:34.57	58.00	9.33	-37.4	-38.4	21.9	0.00e+00	0	39	0	656408576	48	5835
2026-01-02 11:42:37.60	58.52	9.38	-37.4	-38.4	21.9	0.00e+00	0	39	0	665845760	48	5844
2026-01-02 11:42:40.63	59.04	9.42	-37.8	-38.8	21.6	0.00e+00	0	39	0	675282944	48	6123
2026-01-02 11:42:43.66	59.57	9.46	-37.3	-38.4	22.0	0.00e+00	0	39	0	684720128	48	5805
2026-01-02 11:42:46.69	60.09	9.50	-37.2	-38.2	22.1	0.00e+00	0	39	0	695205888	48	5709
2026-01-02 11:42:49.72	60.62	9.54	-37.5	-38.5	21.9	0.00e+00	0	39	0	703594496	48	5900
2026-01-02 11:42:52.76	61.15	9.57	-37.5	-38.5	21.8	0.00e+00	0	39	0	714080256	48	5917
2026-01-02 11:42:55.79	61.68	9.60	-37.5	-38.5	21.9	0.00e+00	0	39	0	723517440	48	5918
2026-01-02 11:42:58.82	62.21	9.63	-37.3	-38.3	21.9	0.00e+00	0	40	0	732954624	48	5784
2026-01-02 11:43:01.85	62.74	9.66	-37.1	-38.2	22.1	0.00e+00	0	40	0	742391808	48	5678
2026-01-02 11:43:04.88	63.28	9.69	-37.2	-38.3	22.0	0.00e+00	0	39	0	751828992	48	5739
2026-01-02 11:43:07.91	63.81	9.71	-37.2	-38.3	22.0	0.00e+00	0	39	0	761266176	48	5738
2026-01-02 11:43:10.94	64.34	9.74	-37.3	-38.4	21.9	0.00e+00	0	39	0	770703360	48	5809
2026-01-02 11:43:13.97	64.88	9.76	-37.4	-38.4	21.8	0.00e+00	0	39	0	780140544	48	5857
2026-01-02 11:43:17.00	65.41	9.77	-37.2	-38.3	21.9	0.00e+00	0	39	0	789577728	48	5728
2026-01-02 11:43:20.03	65.95	9.79	-37.1	-38.1	22.1	0.00e+00	0	39	0	799014912	48	5653
2026-01-02 11:43:23.06	66.49	9.80	-37.2	-38.2	22.0	0.00e+00	0	40	0	808452096	48	5698
2026-01-02 11:43:26.09	67.03	9.81	-37.1	-38.2	22.0	0.00e+00	0	39	0	817889280	48	5671
2026-01-02 11:43:29.12	67.56	9.82	-37.1	-38.1	22.2	0.00e+00	0	39	0	827326464	48	5613
2026-01-02 11:43:32.15	68.10	9.83	-37.1	-38.1	22.1	0.00e+00	0	39	0	836763648	48	5624
2026-01-02 11:43:35.18	68.64	9.83	-37.3	-38.3	22.0	0.00e+00	0	39	0	846200832	48	5764
2026-01-02 11:43:38.21	69.18	9.83	-37.2	-38.2	22.0	0.00e+00	0	40	0	855638016	48	5717
2026-01-02 11:43:41.24	69.72	9.83	-37.3	-38.4	21.8	0.00e+00	0	39	0	865075200	48	5795
2026-01-02 11:43:44.27	70.26	9.83	-37.4	-38.4	21.9	0.00e+00	0	40	0	874512384	48	5831
2026-01-02 11:43:47.30	70.80	9.83	-37.0	-38.1	22.2	0.00e+00	0	40	0	883949568	48	5610
2026-01-02 11:43:50.33	71.33	9.82	-37.1	-38.1	22.1	0.00e+00	0	39	0	893386752	48	5609
2026-01-02 11:43:53.36	71.87	9.81	-37.1	-38.1	22.0	0.00e+00	0	40	0	902823936	48	5643
2026-01-02 11:43:56.38	72.41	9.80	-37.1	-38.2	22.1	0.00e+00	0	40	0	912261120	48	5673
2026-01-02 11:43:59.41	72.95	9.79	-36.9	-38.0	22.4	0.00e+00	0	40	0	921698304	48	5534
2026-01-02 11:44:02.44	73.48	9.77	-36.8	-37.8	22.4	0.00e+00	0	39	0	931135488	48	5467
2026-01-02 11:44:05.47	74.02	9.76	-36.9	-38.0	22.3	0.00e+00	0	39	0	940572672	48	5540
2026-01-02 11:44:08.50	74.55	9.74	-36.9	-37.9	22.4	0.00e+00	0	40	0	950009856	48	5524
2026-01-02 11:44:11.53	75.09	9.71	-37.0	-38.0	22.3	0.00e+00	0	40	0	959447040	48	5582
2026-01-02 11:44:14.56	75.62	9.69	-37.2	-38.3	22.0	0.00e+00	0	40	0	968884224	48	5751
2026-01-02 11:44:17.59	76.16	9.66	-37.0	-38.0	22.2	0.00e+00	0	40	0	978321408	48	5576
2026-01-02 11:44:20.62	76.69	9.63	-37.0	-38.1	22.2	0.00e+00	0	40	0	987758592	48	5608
2026-01-02 11:44:23.65	77.22	9.60	-37.3	-38.3	22.0	0.00e+00	0	40	0	997195776	48	5767
2026-01-02 11:44:26.68	77.75	9.57	-37.5	-38.6	21.8	0.00e+00	0	39	0	1006632960	48	5935
2026-01-02 11:44:29.71	78.28	9.54	-37.5	-38.5	21.9	0.00e+00	0	39	0	1016070144	48	5918
2026-01-02 11:44:32.74	78.81	9.50	-37.5	-38.5	21.8	0.00e+00	0	39	0	1025507328	48	5921
2026-01-02 11:44:35.77	79.34	9.46	-37.4	-38.5	21.8	0.00e+00	0	39	0	1035993088	48	5896
2026-01-02 11:44:38.79	79.86	9.42	-37.6	-38.7	21.7	0.00e+00	0	39	0	1045430272	48	6026
2026-01-02 11:44:41.83	80.38	9.38	-37.4	-38.5	21.7	0.00e+00	0	39	0	1054867456	48	5911
2026-01-02 11:44:44.86	80.91	9.33	-37.4	-38.5	21.9	0.00e+00	0	39	0	1064304640	48	5882
2026-01-02 11:44:47.89	81.43	9.29	-37.4	-38.5	21.8	0.00e+00	0	39	0	1073741824	48	5869
2026-01-02 11:44:50.91	81.95	9.24	-37.4	-38.4	21.7	0.00e+00	0	39	0	1083179008	48	5838
2026-01-02 11:44:53.94	82.46	9.19	-37.4	-38.4	21.7	0.00e+00	0	39	0	1092616192	48	5852
2026-01-02 11:44:56.97	82.98	9.13	-37.4	-38.4	21.8	0.00e+00	0	39	0	1102053376	48	5850
2026-01-02 11:45:00.00	83.49	9.08	-37.2	-38.3	21.8	0.00e+00	0	39	0	1111490560	48	5742
2026-01-02 11:45:03.03	84.00	9.02	-37.2	-38.2	21.8	0.00e+00	0	39	0	1120927744	48	5706
2026-01-02 11:45:06.06	84.51	8.97	-37.2	-38.2	22.0	0.00e+00	0	39	0	1130364928	48	5686
2026-01-02 11:45:09.09	85.02	8.91	-37.1	-38.1	22.0	0.00e+00	0	39	0	1139802112	48	5644
2026-01-02 11:45:12.12	85.53	8.84	-37.1	-38.2	21.9	0.00e+00	0	39	0	1149239296	48	5673
2026-01-02 11:45:15.14	86.03	8.78	-37.1	-38.1	22.0	0.00e+00	0	39	0	1158676480	48	5634
2026-01-02 11:45:18.17	86.53	8.71	-37.2	-38.2	22.0	0.00e+00	0	39	0	1168113664	48	5725
2026-01-02 11:45:21.20	87.03	8.65	-37.0	-38.0	22.3	0.00e+00	0	39	0	1177550848	48	5568
2026-01-02 11:45:24.23	87.53	8.58	-37.1	-38.2	22.0	0.00e+00	0	39	0	1186988032	48	5665
2026-01-02 11:45:27.26	88.03	8.51	-37.4	-38.4	21.8	0.00e+00	0	39	0	1196425216	48	5818
2026-01-02 11:45:30.29	88.52	8.44	-37.3	-38.3	21.9	0.00e+00	0	39	0	1205862400	48	5754
2026-01-02 11:45:33.32	89.01	8.36	-37.3	-38.4	21.8	0.00e+00	0	39	0	1215299584	48	5826
2026-01-02 11:45:36.35	89.50	8.29	-37.2	-38.4	21.8	0.00e+00	0	39	0	1224736768	48	5806
2026-01-02 11:45:39.39	89.99	8.21	-37.3	-38.5	21.8	0.00e+00	0	39	0	1234173952	48	5875
2026-01-02 11:45:42.41	90.47	8.13	-37.3	-38.4	21.7	0.00e+00	0	39	0	1243611136	48	5827
2026-01-02 11:45:45.44	90.95	8.05	-37.3	-38.4	21.8	0.00e+00	0	39	0	1253048320	48	5823
2026-01-02 11:45:48.47	91.43	7.97	-37.4	-38.5	21.6	0.00e+00	0	39	0	1262485504	48	5924
2026-01-02 11:45:51.50	91.90	7.89	-37.4	-38.6	21.5	0.00e+00	0	39	0	1271922688	48	5929
2026-01-02 11:45:54.53	92.38	7.81	-37.2	-38.3	21.8	0.00e+00	0	39	0	1281359872	48	5783
2026-01-02 11:45:57.56	92.85	7.72	-37.1	-38.2	21.9	0.00e+00	0	39	0	1290797056	48	5683
2026-01-02 11:46:00.59	93.31	7.63	-37.3	-38.4	21.8	0.00e+00	0	39	0	1300234240	48	5803
2026-01-02 11:46:03.62	93.78	7.54	-37.4	-38.5	21.7	0.00e+00	0	39	0	1309671424	48	5888
2026-01-02 11:46:06.65	94.24	7.46	-37.6	-38.8	21.3	0.00e+00	0	39	0	1319108608	48	6083
2026-01-02 11:46:09.68	94.70	7.37	-37.7	-38.9	21.2	0.00e+00	0	39	0	1328545792	48	6136
2026-01-02 11:46:12.70	95.16	7.27	-37.8	-38.9	21.2	0.00e+00	0	39	0	1337982976	48	6178
2026-01-02 11:46:15.73	95.61	7.18	-37.6	-38.7	21.4	0.00e+00	0	39	0	1347420160	48	6020
2026-01-02 11:46:18.76	96.06	7.09	-37.6	-38.6	21.5	0.00e+00	0	39	0	1356857344	48	5989
2026-01-02 11:46:21.79	96.51	6.99	-37.7	-38.8	21.4	0.00e+00	0	39	0	1366294528	48	6096
2026-01-02 11:46:24.82	96.96	6.89	-38.0	-39.1	21.0	0.00e+00	0	39	0	1376780288	48	6349
2026-01-02 11:46:27.85	97.40	6.80	-38.1	-39.2	20.6	0.00e+00	0	39	0	1386217472	48	6422
2026-01-02 11:46:30.88	97.84	6.70	-38.1	-39.3	20.5	0.00e+00	0	39	0	1395654656	48	6437
2026-01-02 11:46:33.91	98.28	6.60	-38.0	-39.1	20.9	0.00e+00	0	39	0	1405091840	48	6336
2026-01-02 11:46:36.94	98.71	6.50	-37.9	-39.0	21.1	0.00e+00	0	39	0	1414529024	48	6253
2026-01-02 11:46:39.97	99.14	6.40	-37.8	-38.9	21.1	0.00e+00	0	39	0	1423966208	48	6180
2026-01-02 11:46:43.00	99.57	6.29	-38.2	-39.4	20.7	0.00e+00	0	39	0	1433403392	48	6520
2026-01-02 11:46:46.03	100.00	6.19	-38.3	-39.4	20.7	0.00e+00	0	39	0	1442840576	48	6558
2026-01-02 11:46:49.06	100.42	6.09	-38.2	-39.3	20.7	0.00e+00	0	39	0	1452277760	48	6460
2026-01-02 11:46:52.09	100.84	5.98	-38.3	-39.5	20.5	0.00e+00	0	39	0	1461714944	48	6628
2026-01-02 11:46:55.12	101.26	5.88	-38.2	-39.4	20.5	0.00e+00	0	39	0	1471152128	48	6555
2026-01-02 11:46:58.15	101.67	5.77	-38.2	-39.4	20.5	0.00e+00	0	39	0	1480589312	48	6553
2026-01-02 11:47:01.18	102.08	5.66	-38.0	-39.3	20.5	0.00e+00	0	39	0	1490026496	48	6497
2026-01-02 11:47:04.21	102.49	5.55	-38.1	-39.3	20.5	0.00e+00	0	39	0	1499463680	48	6434
2026-01-02 11:47:07.24	102.90	5.44	-38.1	-39.3	20.5	0.00e+00	0	39	0	1508900864	48	6479
2026-01-02 11:47:10.27	103.30	5.33	-38.2	-39.3	20.4	0.00e+00	0	39	0	1518338048	48	6485
2026-01-02 11:47:13.30	103.70	5.22	-38.1	-39.3	20.7	0.00e+00	0	39	0	1527775232	48	6488
2026-01-02 11:47:16.33	104.10	5.11	-38.3	-39.5	20.5	0.00e+00	0	39	0	1537212416	48	6646
2026-01-02 11:47:19.36	104.49	5.00	-38.2	-39.6	20.4	0.00e+00	0	39	0	1546649600	48	6690
2026-01-02 11:47:22.39	104.88	4.89	-38.4	-39.6	20.2	0.00e+00	0	39	0	1556086784	48	6692
2026-01-02 11:47:25.42	105.27	4.77	-38.3	-39.6	20.3	0.00e+00	0	39	0	1565523968	48	6667
2026-01-02 11:47:28.45	105.65	4.66	-38.7	-39.9	20.0	0.00e+00	0	39	0	1574961152	48	6908
2026-01-02 11:47:31.48	106.04	4.55	-38.6	-39.8	20.0	0.00e+00	0	39	0	1584398336	50	6087
2026-01-02 11:47:34.52	106.42	4.43	-38.7	-40.0	19.8	0.00e+00	0	39	0	1593835520	50	6207
2026-01-02 11:47:37.54	106.79	4.31	-38.9	-40.2	19.4	0.00e+00	0	39	0	1603272704	50	6410
2026-01-02 11:47:40.58	107.17	4.20	-38.9	-40.3	19.4	0.00e+00	0	39	0	1612709888	50	6425
2026-01-02 11:47:43.61	107.54	4.08	-39.4	-40.8	18.9	0.00e+00	0	39	0	1622147072	50	6806
2026-01-02 11:47:46.64	107.91	3.97	-39.5	-40.9	18.7	0.00e+00	0	39	0	1631584256	52	6185
2026-01-02 11:47:49.67	108.27	3.85	-39.4	-40.9	18.7	0.00e+00	0	39	0	1641021440	52	6144
2026-01-02 11:47:52.70	108.63	3.73	-39.7	-41.2	18.2	0.00e+00	0	39	0	1650458624	52	6401
2026-01-02 11:47:55.73	108.99	3.61	-39.6	-41.1	18.2	0.00e+00	0	39	0	1659895808	52	6319
2026-01-02 11:47:58.76	109.35	3.49	-40.0	-41.6	17.8	0.00e+00	0	39	0	1670381568	52	6660
2026-01-02 11:48:01.79	109.70	3.37	-40.0	-41.6	17.6	0.00e+00	0	39	0	1678770176	52	6721
2026-01-02 11:48:04.82	110.06	3.26	-39.8	-41.2	17.9	0.00e+00	0	39	0	1689255936	52	6417
2026-01-02 11:48:07.85	110.40	3.14	-39.8	-41.4	17.6	0.00e+00	0	39	0	1698693120	52	6555
2026-01-02 11:48:10.89	110.75	3.02	-40.2	-41.9	17.2	0.00e+00	0	39	0	1708130304	52	6958
2026-01-02 11:48:13.92	111.10	2.90	-49.0	-61.9	3.5	1.52e+00	0	39	104	1709178880	60	43750
2026-01-02 11:48:16.95	111.44	2.77	-49.3	-62.2	3.5	1.52e+00	0	39	104	1709178880	60	45437
2026-01-02 11:48:19.98	111.77	2.65	-49.5	-62.3	3.5	1.52e+00	0	39	104	1709178880	60	45875
2026-01-02 11:48:23.01	112.11	2.53	-49.5	-62.3	3.5	1.51e+00	0	39	104	1709178880	60	45806
2026-01-02 11:48:26.04	112.44	2.41	-49.5	-62.4	3.5	1.51e+00	0	39	104	1709178880	60	46005
2026-01-02 11:48:29.08	112.77	2.29	-49.4	-62.4	3.5	1.52e+00	0	39	104	1709178880	60	46015
2026-01-02 11:48:32.10	113.10	2.17	-49.4	-62.3	3.5	1.52e+00	0	39	104	1709178880	60	45911
2026-01-02 11:48:35.13	113.42	2.05	-49.4	-62.3	3.5	1.52e+00	0	39	104	1709178880	60	45561
2026-01-02 11:48:38.16	113.75	1.92	-49.4	-62.3	3.5	1.52e+00	0	39	104	1709178880	60	45727
2026-01-02 11:48:41.19	114.07	1.80	-49.4	-62.3	3.5	1.52e+00	0	39	104	1709178880	60	45577
2026-01-02 11:48:44.22	114.38	1.68	-49.4	-62.3	3.5	1.52e+00	0	39	104	1709178880	60	45663
2026-01-02 11:48:47.25	114.70	1.56	-49.4	-62.3	3.5	1.52e+00	0	39	104	1709178880	60	45660
2026-01-02 11:48:50.28	115.01	1.43	-49.4	-62.3	3.5	1.52e+00	0	39	104	1709178880	60	45836
2026-01-02 11:48:53.31	115.32	1.31	-49.4	-62.3	3.5	1.51e+00	0	39	104	1709178880	60	45871
2026-01-02 11:48:56.34	115.63	1.19	-49.4	-62.3	3.5	1.52e+00	0	39	104	1709178880	60	45942
2026-01-02 11:48:59.37	115.93	1.06	-49.4	-62.3	3.5	1.52e+00	0	39	104	1709178880	60	45981
2026-01-02 11:49:02.40	116.24	0.94	-49.4	-62.3	3.5	1.52e+00	0	39	104	1709178880	60	45538
2026-01-02 11:49:05.43	116.54	0.82	-49.4	-62.3	3.5	1.52e+00	0	39	104	1709178880	60	45546
2026-01-02 11:49:08.46	116.84	0.69	-49.4	-62.3	3.5	1.52e+00	0	39	104	1709178880	60	45716
2026-01-02 11:49:11.49	117.13	0.57	-49.4	-62.3	3.5	1.52e+00	0	39	104	1709178880	60	45678
2026-01-02 11:49:14.52	117.42	0.45	-49.4	-62.3	3.5	1.51e+00	0	39	104	1709178880	60	45733
2026-01-02 11:49:17.55	117.72	0.32	-49.4	-62.3	3.5	1.52e+00	0	39	104	1709178880	60	45496
2026-01-02 11:49:20.58	118.00	0.20	-49.4	-62.3	3.5	1.52e+00	0	39	104	1709178880	60	45571
2026-01-02 11:49:23.61	118.29	0.07	-49.4	-62.3	3.5	1.52e+00	0	39	104	1709178880	60	45698
2026-01-02 11:49:26.63	118.57	-0.05	-49.4	-62.3	3.5	1.52e+00	0	39	104	1709178880	60	45619

#Closed at: 2026-01-02 11:49:26
#Recorded file [1709 MB]: D:/lorett/data/35029_260102_233755.dat