passes_logs/2026/01/02/R4.6S_Anadyr/R4.6S_Anadyr__20260102_180940_FENGYUN_3D_rec.log

#Pass ID: 20260102_180940_FENGYUN 3D
#Satellite: FENGYUN 3D
#Configuration: FENGYUN 3D
#almurnet v.1.7.20251203
#Start time: 2026-01-02 18:09:42

#Version: 2.2.20231116
#Station: R4.6S_Anadyr
#Location: 177.4865 lon 64.73178 lat
#TLE: 1 43010U 17072A   26001.96529979  .00000409  00000+0  21503-3 0  9996
#TLE: 2 43010  98.9910 333.5811 0001886 133.0441 227.0893 14.19692048421405

#Time	Az	El	Level	Level2	SNR	BER	BlckErr	Temp	State	Recorded	gain1	gain2
2026-01-02 18:09:42.38	25.19	0.11	-49.4	-64.4	3.5	1.51e+00	0	36	0	0	60	59738
2026-01-02 18:09:46.41	25.07	0.34	-49.4	-61.5	3.6	8.45e-01	0	37	104	0	60	43120
2026-01-02 18:09:50.45	24.93	0.58	-49.4	-61.5	3.6	8.45e-01	0	37	104	0	60	42832
2026-01-02 18:09:54.49	24.80	0.82	-48.9	-61.0	3.6	8.47e-01	0	38	104	0	60	40542
2026-01-02 18:09:58.53	24.67	1.06	-47.9	-59.8	3.6	8.45e-01	0	38	104	0	60	35300
2026-01-02 18:10:02.58	24.53	1.30	-47.7	-59.8	3.5	8.45e-01	0	38	104	0	60	35349
2026-01-02 18:10:06.62	24.39	1.54	-47.7	-59.7	3.6	8.46e-01	0	38	104	0	60	34938
2026-01-02 18:10:10.66	24.24	1.79	-47.7	-59.8	3.6	8.44e-01	0	38	104	0	60	35297
2026-01-02 18:10:14.70	24.10	2.04	-47.7	-59.4	3.6	8.44e-01	0	38	104	0	60	33912
2026-01-02 18:10:18.74	23.95	2.29	-47.7	-59.7	3.6	8.45e-01	0	38	104	0	60	35091
2026-01-02 18:10:22.78	23.80	2.54	-47.7	-59.5	3.5	8.44e-01	0	38	104	0	60	34284
2026-01-02 18:10:26.82	23.64	2.79	-47.6	-58.8	3.6	8.45e-01	0	38	104	0	60	31614
2026-01-02 18:10:30.85	23.49	3.05	-47.7	-59.4	3.6	8.45e-01	0	38	104	0	60	33662
2026-01-02 18:10:34.89	23.33	3.31	-46.8	-52.2	5.6	7.81e-01	0	38	0	0	60	14739
2026-01-02 18:10:38.93	23.16	3.57	-43.9	-46.3	12.3	4.73e-04	0	38	0	22020096	60	7446
2026-01-02 18:10:42.96	23.00	3.83	-46.9	-54.1	4.6	6.42e-01	0	38	104	31457280	60	18297
2026-01-02 18:10:47.00	22.83	4.09	-37.0	-37.9	21.0	0.00e+00	0	38	0	38797312	48	5664
2026-01-02 18:10:51.04	22.65	4.36	-36.9	-37.7	21.2	0.00e+00	0	38	0	61865984	46	6245
2026-01-02 18:10:55.08	22.48	4.63	-36.7	-37.5	21.5	0.00e+00	0	38	0	83886080	46	6061
2026-01-02 18:10:59.12	22.30	4.90	-36.7	-37.5	21.6	0.00e+00	0	38	0	106954752	46	6047
2026-01-02 18:11:03.16	22.11	5.18	-36.7	-37.5	21.7	0.00e+00	0	38	0	130023424	46	6068
2026-01-02 18:11:07.19	21.92	5.45	-36.2	-37.1	22.1	0.00e+00	0	38	0	152043520	46	5764
2026-01-02 18:11:11.23	21.73	5.73	-36.7	-37.5	21.6	0.00e+00	0	38	0	175112192	46	6075
2026-01-02 18:11:15.27	21.54	6.01	-36.8	-37.7	21.4	0.00e+00	0	38	0	198180864	46	6206
2026-01-02 18:11:19.31	21.34	6.30	-36.2	-37.0	22.3	0.00e+00	0	38	0	220200960	46	5729
2026-01-02 18:11:23.35	21.13	6.59	-36.1	-36.9	22.3	0.00e+00	0	39	0	243269632	46	5679
2026-01-02 18:11:27.39	20.92	6.88	-36.0	-36.8	22.5	0.00e+00	0	39	0	266338304	46	5570
2026-01-02 18:11:31.43	20.71	7.17	-36.1	-36.9	22.4	0.00e+00	0	39	0	288358400	46	5643
2026-01-02 18:11:35.47	20.49	7.47	-35.9	-36.6	22.6	0.00e+00	0	39	0	311427072	46	5489
2026-01-02 18:11:39.51	20.27	7.77	-35.9	-36.7	22.6	0.00e+00	0	39	0	334495744	44	6188
2026-01-02 18:11:43.55	20.04	8.07	-35.8	-36.6	22.7	0.00e+00	0	39	0	356515840	44	6150
2026-01-02 18:11:47.59	19.81	8.38	-35.8	-36.6	22.8	0.00e+00	0	39	0	379584512	44	6138
2026-01-02 18:11:51.63	19.57	8.68	-35.5	-36.3	23.2	0.00e+00	0	39	0	402653184	44	5920
2026-01-02 18:11:55.67	19.32	9.00	-35.4	-36.1	23.2	0.00e+00	0	39	0	424673280	44	5818
2026-01-02 18:11:59.70	19.07	9.31	-35.4	-36.1	23.3	0.00e+00	0	39	0	447741952	44	5801
2026-01-02 18:12:03.74	18.82	9.63	-35.3	-36.0	23.5	0.00e+00	0	39	0	470810624	44	5742
2026-01-02 18:12:07.78	18.56	9.95	-35.4	-36.2	23.2	0.00e+00	0	39	0	492830720	44	5853
2026-01-02 18:12:11.82	18.29	10.28	-35.2	-36.0	23.5	0.00e+00	0	39	0	515899392	44	5730
2026-01-02 18:12:15.86	18.01	10.61	-35.0	-35.7	23.9	0.00e+00	0	39	0	538968064	44	5542
2026-01-02 18:12:19.90	17.73	10.95	-35.0	-35.7	23.8	0.00e+00	0	39	0	560988160	44	5554
2026-01-02 18:12:23.94	17.45	11.28	-34.8	-35.5	24.1	0.00e+00	0	39	0	584056832	42	6087
2026-01-02 18:12:27.98	17.15	11.63	-34.6	-35.3	24.3	0.00e+00	0	39	0	607125504	42	5923
2026-01-02 18:12:32.02	16.85	11.97	-34.4	-35.1	24.4	0.00e+00	0	39	0	629145600	42	5813
2026-01-02 18:12:36.06	16.54	12.32	-34.3	-35.0	24.6	0.00e+00	0	39	0	652214272	42	5740
2026-01-02 18:12:40.10	16.22	12.68	-34.7	-35.4	24.3	0.00e+00	0	39	0	675282944	42	5970
2026-01-02 18:12:44.14	15.89	13.03	-34.3	-34.9	24.6	0.00e+00	0	39	0	698351616	42	5692
2026-01-02 18:12:48.18	15.56	13.40	-34.1	-34.8	24.9	0.00e+00	0	39	0	720371712	42	5580
2026-01-02 18:12:52.22	15.22	13.76	-34.2	-34.9	24.7	0.00e+00	0	39	0	743440384	42	5652
2026-01-02 18:12:56.26	14.86	14.14	-34.1	-34.8	24.9	0.00e+00	0	39	0	765460480	42	5573
2026-01-02 18:13:00.29	14.50	14.51	-33.8	-34.4	25.2	0.00e+00	0	39	0	788529152	42	5370
2026-01-02 18:13:04.33	14.13	14.89	-33.6	-34.2	25.4	0.00e+00	0	39	0	811597824	40	5888
2026-01-02 18:13:08.37	13.75	15.28	-33.4	-34.1	25.6	0.00e+00	0	39	0	833617920	40	5770
2026-01-02 18:13:12.41	13.36	15.67	-33.5	-34.2	25.5	0.00e+00	0	39	0	856686592	40	5880
2026-01-02 18:13:16.45	12.96	16.07	-33.6	-34.3	25.4	0.00e+00	0	39	0	879755264	40	5939
2026-01-02 18:13:20.49	12.54	16.47	-33.5	-34.2	25.5	0.00e+00	0	39	0	901775360	40	5883
2026-01-02 18:13:24.53	12.12	16.87	-33.3	-34.0	25.7	0.00e+00	0	39	0	924844032	40	5746
2026-01-02 18:13:28.57	11.68	17.28	-33.1	-33.8	25.9	0.00e+00	0	39	0	947912704	40	5573
2026-01-02 18:13:32.60	11.23	17.70	-33.1	-33.7	25.9	0.00e+00	0	39	0	969932800	40	5559
2026-01-02 18:13:36.64	10.77	18.12	-32.8	-33.4	26.2	0.00e+00	0	39	0	993001472	38	6013
2026-01-02 18:13:40.68	10.29	18.55	-32.8	-33.4	26.3	0.00e+00	0	39	0	1016070144	38	6010
2026-01-02 18:13:44.72	9.80	18.98	-32.7	-33.4	26.3	0.00e+00	0	39	0	1038090240	38	6004
2026-01-02 18:13:48.76	9.29	19.41	-32.8	-33.4	26.3	0.00e+00	0	39	0	1061158912	38	6003
2026-01-02 18:13:52.80	8.77	19.86	-32.7	-33.4	26.3	0.00e+00	0	39	0	1084227584	38	5987
2026-01-02 18:13:56.84	8.24	20.30	-32.3	-32.9	26.7	0.00e+00	0	39	0	1107296256	38	5654
2026-01-02 18:14:00.88	7.68	20.76	-32.2	-32.8	26.7	0.00e+00	0	39	0	1129316352	38	5600
2026-01-02 18:14:04.92	7.11	21.22	-32.4	-33.1	26.6	0.00e+00	0	39	0	1152385024	38	5788
2026-01-02 18:14:08.96	6.53	21.68	-32.1	-32.8	26.9	0.00e+00	0	39	0	1174405120	38	5587
2026-01-02 18:14:13.00	5.92	22.15	-31.9	-32.6	27.0	0.00e+00	0	39	0	1197473792	38	5469
2026-01-02 18:14:17.04	5.30	22.62	-31.8	-32.4	27.1	0.00e+00	0	39	0	1220542464	38	5372
2026-01-02 18:14:21.08	4.65	23.10	-31.6	-32.2	27.3	0.00e+00	0	39	0	1242562560	36	5891
2026-01-02 18:14:25.12	3.99	23.59	-31.7	-32.3	27.3	0.00e+00	0	39	0	1265631232	36	5927
2026-01-02 18:14:29.15	3.30	24.07	-31.9	-32.5	27.1	0.00e+00	0	39	0	1288699904	36	6090
2026-01-02 18:14:33.19	2.59	24.57	-31.7	-32.4	27.1	0.00e+00	0	39	0	1311768576	36	5980
2026-01-02 18:14:37.23	1.86	25.06	-31.4	-32.1	27.4	0.00e+00	0	39	0	1333788672	36	5775
2026-01-02 18:14:41.27	1.10	25.57	-31.1	-31.8	27.7	0.00e+00	0	39	0	1356857344	36	5580
2026-01-02 18:14:45.31	0.32	26.07	-31.4	-32.0	27.5	0.00e+00	0	39	0	1378877440	36	5719
2026-01-02 18:14:49.35	359.52	26.58	-31.3	-31.9	27.5	0.00e+00	0	39	0	1401946112	36	5680
2026-01-02 18:14:53.39	358.68	27.09	-31.3	-31.9	27.6	0.00e+00	0	39	0	1425014784	36	5693
2026-01-02 18:14:57.43	357.82	27.61	-31.3	-32.0	27.5	0.00e+00	0	39	0	1447034880	36	5703
2026-01-02 18:15:01.46	356.93	28.12	-31.5	-32.1	27.4	0.00e+00	0	39	0	1470103552	36	5793
2026-01-02 18:15:05.50	356.01	28.64	-31.2	-31.8	27.7	0.00e+00	0	39	0	1493172224	36	5589
2026-01-02 18:15:09.54	355.06	29.16	-31.3	-31.9	27.6	0.00e+00	0	39	0	1515192320	36	5671
2026-01-02 18:15:13.58	354.08	29.68	-31.0	-31.6	27.8	0.00e+00	0	39	0	1538260992	36	5497
2026-01-02 18:15:17.62	353.07	30.20	-31.0	-31.6	27.9	0.00e+00	0	39	0	1561329664	36	5476
2026-01-02 18:15:21.66	352.02	30.72	-31.1	-31.7	27.8	0.00e+00	0	39	0	1583349760	36	5530
2026-01-02 18:15:25.69	350.94	31.24	-30.9	-31.5	27.9	0.00e+00	0	39	0	1606418432	36	5439
2026-01-02 18:15:29.73	349.82	31.75	-30.8	-31.5	27.9	0.00e+00	0	39	0	1629487104	36	5379
2026-01-02 18:15:33.77	348.66	32.26	-31.0	-31.7	27.9	0.00e+00	0	39	0	1651507200	36	5503
2026-01-02 18:15:37.81	347.47	32.77	-31.1	-31.7	27.8	0.00e+00	0	39	0	1674575872	36	5537
2026-01-02 18:15:41.85	346.24	33.27	-30.8	-31.4	28.1	0.00e+00	0	39	0	1697644544	36	5364
2026-01-02 18:15:45.89	344.97	33.76	-30.7	-31.4	27.9	0.00e+00	0	39	0	1720713216	34	5983
2026-01-02 18:15:49.93	343.67	34.24	-30.6	-31.3	28.2	0.00e+00	0	39	0	1742733312	34	5901
2026-01-02 18:15:53.97	342.32	34.71	-30.8	-31.4	28.1	0.00e+00	0	39	0	1765801984	34	6027
2026-01-02 18:15:58.01	340.94	35.17	-30.6	-31.3	28.2	0.00e+00	0	39	0	1787822080	34	5897
2026-01-02 18:16:02.04	339.51	35.62	-31.0	-31.6	27.9	0.00e+00	0	39	0	1810890752	34	6133
2026-01-02 18:16:06.08	338.05	36.05	-30.8	-31.4	28.0	0.00e+00	0	39	0	1833959424	34	6012
2026-01-02 18:16:10.12	336.54	36.47	-30.4	-31.0	28.4	0.00e+00	0	39	0	1855979520	34	5718
2026-01-02 18:16:14.16	335.00	36.87	-30.8	-31.4	28.0	0.00e+00	0	39	0	1879048192	34	5997
2026-01-02 18:16:18.20	333.42	37.25	-30.7	-31.3	28.1	0.00e+00	0	39	0	1902116864	34	5951
2026-01-02 18:16:22.23	331.81	37.61	-31.2	-31.8	27.8	0.00e+00	0	39	0	1924136960	34	6317
2026-01-02 18:16:26.27	330.16	37.94	-30.8	-31.4	28.2	0.00e+00	0	38	0	1947205632	34	5972
2026-01-02 18:16:30.30	328.48	38.25	-30.8	-31.4	28.1	0.00e+00	0	39	0	1970274304	34	6029
2026-01-02 18:16:34.34	326.76	38.54	-31.0	-31.6	27.9	0.00e+00	0	39	0	1992294400	34	6155
2026-01-02 18:16:38.38	325.01	38.79	-31.0	-31.6	27.9	0.00e+00	0	39	0	2015363072	34	6157
2026-01-02 18:16:42.42	323.24	39.02	-31.0	-31.6	27.9	0.00e+00	0	39	0	2038431744	34	6169
2026-01-02 18:16:46.46	321.45	39.22	-31.1	-31.8	27.8	0.00e+00	0	39	0	2060451840	34	6247
2026-01-02 18:16:50.50	319.63	39.38	-30.5	-31.1	28.3	0.00e+00	0	39	0	2083520512	34	5800
2026-01-02 18:16:54.54	317.80	39.52	-30.9	-31.5	27.9	0.00e+00	0	39	0	2106589184	34	6054
2026-01-02 18:16:58.57	315.96	39.62	-30.8	-31.4	28.1	0.00e+00	0	39	0	2128609280	34	6020
2026-01-02 18:17:02.61	314.10	39.68	-30.9	-31.5	28.0	0.00e+00	0	39	0	2151677952	34	6080
2026-01-02 18:17:06.65	312.24	39.72	-30.6	-31.2	28.2	0.00e+00	0	39	0	2174746624	34	5888
2026-01-02 18:17:10.69	310.37	39.71	-30.8	-31.4	28.0	0.00e+00	0	39	0	2196766720	34	5996
2026-01-02 18:17:14.73	308.51	39.68	-31.1	-31.7	27.9	0.00e+00	0	39	0	2219835392	34	6204
2026-01-02 18:17:18.76	306.66	39.61	-31.1	-31.8	27.8	0.00e+00	0	39	0	2242904064	34	6281
2026-01-02 18:17:22.80	304.82	39.50	-30.7	-31.4	28.1	0.00e+00	0	39	0	2264924160	34	5968
2026-01-02 18:17:26.84	302.98	39.36	-30.6	-31.2	28.2	0.00e+00	0	39	0	2287992832	34	5881
2026-01-02 18:17:30.88	301.17	39.19	-30.6	-31.1	28.3	0.00e+00	0	39	0	2311061504	34	5809
2026-01-02 18:17:34.92	299.37	38.99	-30.8	-31.5	28.0	0.00e+00	0	39	0	2333081600	34	6034
2026-01-02 18:17:38.96	297.60	38.76	-30.6	-31.2	28.2	0.00e+00	0	39	0	2356150272	34	5893
2026-01-02 18:17:43.01	295.86	38.50	-30.3	-31.0	28.4	0.00e+00	0	39	0	2379218944	34	5738
2026-01-02 18:17:47.04	294.14	38.21	-30.7	-31.3	28.1	0.00e+00	0	39	0	2401239040	34	5900
2026-01-02 18:17:51.08	292.46	37.90	-30.7	-31.2	28.1	0.00e+00	0	39	0	2424307712	34	5888
2026-01-02 18:17:55.11	290.82	37.56	-30.7	-31.3	28.1	0.00e+00	0	39	0	2447376384	34	5930
2026-01-02 18:17:59.15	289.20	37.20	-30.5	-31.1	28.3	0.00e+00	0	39	0	2469396480	34	5765
2026-01-02 18:18:03.19	287.62	36.81	-30.6	-31.3	28.2	0.00e+00	0	39	0	2492465152	34	5907
2026-01-02 18:18:07.23	286.08	36.41	-30.7	-31.2	28.0	0.00e+00	0	39	0	2515533824	34	5872
2026-01-02 18:18:11.27	284.58	35.99	-30.9	-31.5	27.9	0.00e+00	0	39	0	2537553920	34	6042
2026-01-02 18:18:15.31	283.12	35.55	-30.4	-31.1	28.4	0.00e+00	0	39	0	2560622592	34	5763
2026-01-02 18:18:19.34	281.70	35.10	-30.4	-30.9	28.4	0.00e+00	0	39	0	2583691264	34	5675
2026-01-02 18:18:23.38	280.31	34.64	-30.7	-31.3	28.2	0.00e+00	0	39	0	2605711360	34	5908
2026-01-02 18:18:27.42	278.97	34.16	-30.8	-31.4	28.1	0.00e+00	0	39	0	2628780032	34	5978
2026-01-02 18:18:31.46	277.66	33.68	-30.5	-31.2	28.2	0.00e+00	0	39	0	2651848704	34	5873
2026-01-02 18:18:35.50	276.40	33.18	-30.5	-31.1	28.3	0.00e+00	0	39	0	2673868800	34	5780
2026-01-02 18:18:39.53	275.17	32.68	-30.8	-31.4	28.1	0.00e+00	0	39	0	2696937472	34	6032
2026-01-02 18:18:43.57	273.98	32.17	-30.6	-31.2	28.1	0.00e+00	0	39	0	2720006144	34	5888
2026-01-02 18:18:47.61	272.83	31.66	-30.8	-31.3	28.0	0.00e+00	0	39	0	2742026240	34	5960
2026-01-02 18:18:51.65	271.71	31.15	-30.7	-31.3	27.6	0.00e+00	0	39	0	2765094912	34	5922
2026-01-02 18:18:55.69	270.63	30.63	-30.8	-31.5	27.7	0.00e+00	0	39	0	2788163584	34	6069
2026-01-02 18:18:59.73	269.58	30.10	-30.9	-31.7	27.7	0.00e+00	0	39	0	2810183680	34	6177
2026-01-02 18:19:03.77	268.57	29.58	-31.0	-31.6	27.7	0.00e+00	0	39	0	2833252352	34	6173
2026-01-02 18:19:07.81	267.59	29.06	-31.2	-31.8	27.4	0.00e+00	0	39	0	2856321024	34	6270
2026-01-02 18:19:11.85	266.64	28.54	-31.1	-31.8	27.7	0.00e+00	0	39	0	2878341120	34	6278
2026-01-02 18:19:15.89	265.72	28.02	-31.0	-31.6	27.7	0.00e+00	0	39	0	2901409792	34	6120
2026-01-02 18:19:19.93	264.83	27.50	-31.3	-31.9	27.4	0.00e+00	0	39	0	2924478464	34	6345
2026-01-02 18:19:23.97	263.97	26.98	-31.4	-32.1	27.4	0.00e+00	0	39	0	2946498560	36	5800
2026-01-02 18:19:28.01	263.14	26.47	-31.4	-32.1	27.3	0.00e+00	0	39	0	2969567232	36	5817
2026-01-02 18:19:32.05	262.33	25.96	-31.7	-32.3	27.0	0.00e+00	0	39	0	2992635904	36	5899
2026-01-02 18:19:36.09	261.55	25.45	-31.6	-32.2	27.2	0.00e+00	0	39	0	3014656000	36	5839
2026-01-02 18:19:40.13	260.80	24.95	-31.9	-32.5	27.0	0.00e+00	0	39	0	3037724672	36	6040
2026-01-02 18:19:44.17	260.06	24.45	-31.8	-32.5	27.0	0.00e+00	0	39	0	3060793344	36	6083
2026-01-02 18:19:48.21	259.36	23.95	-31.6	-32.3	27.2	0.00e+00	0	39	0	3082813440	36	5935
2026-01-02 18:19:52.24	258.67	23.47	-31.6	-32.1	27.1	0.00e+00	0	39	0	3105882112	36	5828
2026-01-02 18:19:56.29	258.00	22.98	-31.6	-32.2	27.1	0.00e+00	0	39	0	3127902208	36	5842
2026-01-02 18:20:00.32	257.36	22.50	-31.9	-32.7	26.9	0.00e+00	0	39	0	3150970880	36	6189
2026-01-02 18:20:04.36	256.74	22.03	-32.2	-32.8	26.6	0.00e+00	0	39	0	3174039552	36	6302
2026-01-02 18:20:08.40	256.13	21.56	-31.9	-32.4	26.9	0.00e+00	0	39	0	3197108224	36	6026
2026-01-02 18:20:12.44	255.54	21.09	-31.9	-32.5	27.0	0.00e+00	0	39	0	3219128320	36	6079
2026-01-02 18:20:16.48	254.97	20.63	-32.0	-32.5	26.9	0.00e+00	0	39	0	3242196992	36	6103
2026-01-02 18:20:20.52	254.42	20.18	-32.1	-32.6	26.8	0.00e+00	0	39	0	3265265664	36	6159
2026-01-02 18:20:24.56	253.88	19.73	-32.4	-32.9	26.6	0.00e+00	0	39	0	3287285760	36	6388
2026-01-02 18:20:28.59	253.36	19.29	-32.4	-33.1	26.5	0.00e+00	0	39	0	3310354432	36	6494
2026-01-02 18:20:32.63	252.86	18.85	-32.5	-33.1	26.4	0.00e+00	0	39	0	3332374528	36	6471
2026-01-02 18:20:36.67	252.37	18.42	-32.6	-33.3	26.4	0.00e+00	0	39	0	3355443200	36	6660
2026-01-02 18:20:40.71	251.89	17.99	-32.9	-33.6	26.2	0.00e+00	0	39	0	3378511872	38	6133
2026-01-02 18:20:44.74	251.42	17.57	-32.9	-33.6	26.1	0.00e+00	0	39	0	3401580544	38	6169
2026-01-02 18:20:48.78	250.97	17.15	-32.8	-33.4	26.1	0.00e+00	0	39	0	3423600640	38	5969
2026-01-02 18:20:52.82	250.54	16.74	-32.9	-33.6	26.1	0.00e+00	0	39	0	3446669312	38	6171
2026-01-02 18:20:56.86	250.11	16.33	-33.1	-33.7	25.9	0.00e+00	0	39	0	3469737984	38	6205
2026-01-02 18:21:00.89	249.70	15.93	-33.5	-34.1	25.5	0.00e+00	0	39	0	3491758080	38	6517
2026-01-02 18:21:04.94	249.29	15.54	-33.6	-34.2	25.4	0.00e+00	0	39	0	3514826752	38	6578
2026-01-02 18:21:08.97	248.90	15.15	-33.6	-34.3	25.5	0.00e+00	0	39	0	3536846848	40	5935
2026-01-02 18:21:13.01	248.52	14.76	-33.7	-34.2	25.4	0.00e+00	0	39	0	3559915520	40	5896
2026-01-02 18:21:17.05	248.14	14.38	-33.7	-34.3	25.3	0.00e+00	0	39	0	3582984192	40	5933
2026-01-02 18:21:21.08	247.78	14.00	-34.0	-34.6	25.1	0.00e+00	0	39	0	3605004288	40	6108
2026-01-02 18:21:25.12	247.43	13.63	-34.1	-34.7	24.9	0.00e+00	0	39	0	3628072960	40	6201
2026-01-02 18:21:29.16	247.08	13.26	-34.2	-34.8	24.8	0.00e+00	0	39	0	3651141632	40	6311
2026-01-02 18:21:33.20	246.75	12.90	-34.2	-34.9	24.7	0.00e+00	0	39	0	3674210304	40	6334
2026-01-02 18:21:37.23	246.42	12.54	-34.4	-35.2	24.6	0.00e+00	0	39	0	3696230400	40	6579
2026-01-02 18:21:41.27	246.10	12.19	-34.6	-35.4	24.4	0.00e+00	0	39	0	3719299072	40	6725
2026-01-02 18:21:45.31	245.79	11.84	-34.6	-35.3	24.4	0.00e+00	0	39	0	3741319168	40	6622
2026-01-02 18:21:49.35	245.49	11.49	-34.9	-35.6	24.1	0.00e+00	0	39	0	3764387840	42	6160
2026-01-02 18:21:53.39	245.19	11.15	-35.0	-35.6	23.9	0.00e+00	0	39	0	3787456512	42	6170
2026-01-02 18:21:57.43	244.90	10.81	-35.3	-36.0	23.7	0.00e+00	0	39	0	3809476608	42	6464
2026-01-02 18:22:01.47	244.62	10.47	-35.7	-36.3	23.1	0.00e+00	0	39	0	3832545280	44	5956
2026-01-02 18:22:05.51	244.34	10.14	-36.0	-36.9	22.8	0.00e+00	0	39	0	3855613952	44	6325
2026-01-02 18:22:09.55	244.07	9.82	-36.4	-37.1	22.5	0.00e+00	0	39	0	3878682624	44	6475
2026-01-02 18:22:13.59	243.81	9.49	-36.8	-37.6	22.1	0.00e+00	0	39	0	3900702720	46	6154
2026-01-02 18:22:17.62	243.55	9.17	-37.1	-38.0	21.6	0.00e+00	0	39	0	3923771392	46	6408
2026-01-02 18:22:21.66	243.30	8.86	-37.6	-38.5	21.0	0.00e+00	0	39	0	3945791488	46	6787
2026-01-02 18:22:25.70	243.05	8.55	-38.2	-39.1	20.4	0.00e+00	0	39	0	3968860160	48	6502
2026-01-02 18:22:29.73	242.81	8.24	-38.8	-39.7	19.7	0.00e+00	0	39	0	3991928832	50	6198
2026-01-02 18:22:33.77	242.58	7.93	-39.1	-40.2	19.3	0.00e+00	0	39	0	4013948928	50	6553
2026-01-02 18:22:37.81	242.35	7.63	-39.7	-40.7	18.6	0.00e+00	0	39	0	4037017600	50	6981
2026-01-02 18:22:41.85	242.12	7.33	-40.3	-41.5	17.9	0.00e+00	0	39	0	4060086272	52	6779
2026-01-02 18:22:45.88	241.90	7.03	-41.0	-42.3	17.1	0.00e+00	0	39	0	4082106368	54	6673
2026-01-02 18:22:49.92	241.68	6.74	-41.5	-42.9	16.4	0.00e+00	0	39	0	4105175040	54	7094
2026-01-02 18:22:53.96	241.47	6.45	-42.1	-43.6	15.7	0.00e+00	0	39	0	4128243712	56	6899
2026-01-02 18:22:58.00	241.27	6.16	-42.6	-44.3	14.7	0.00e+00	0	39	0	4150263808	56	7465
2026-01-02 18:23:02.04	241.06	5.87	-43.4	-45.4	13.5	1.37e-05	0	39	0	4173332480	58	7527
2026-01-02 18:23:06.07	240.87	5.59	-44.1	-46.5	12.5	1.42e-04	0	39	0	4196401152	60	7602
2026-01-02 18:23:10.11	240.67	5.31	-44.7	-47.5	10.9	1.99e-03	0	39	0	4218421248	60	8574
2026-01-02 18:23:14.15	240.48	5.03	-45.3	-48.6	9.9	8.61e-03	0	39	0	4241489920	60	9720
2026-01-02 18:23:18.19	240.29	4.76	-45.9	-49.7	8.5	4.00e-02	0	39	0	4264558592	60	11077
2026-01-02 18:23:22.22	240.11	4.49	-46.2	-50.4	7.6	9.09e-02	0	39	0	4286578688	60	12025
2026-01-02 18:23:26.26	239.93	4.22	-46.4	-51.2	6.5	2.33e-01	0	39	0	4309647360	60	13196
2026-01-02 18:23:30.30	239.75	3.95	-46.6	-52.2	5.2	4.54e-01	0	39	0	4331667456	60	14776
2026-01-02 18:23:34.34	239.58	3.69	-46.7	-52.7	4.8	7.67e-01	0	39	0	4337958912	60	15586
2026-01-02 18:23:38.38	239.41	3.42	-46.9	-53.9	4.1	8.19e-01	0	39	0	4339007488	60	17879
2026-01-02 18:23:42.42	239.25	3.16	-47.0	-56.3	3.7	8.41e-01	0	39	104	4339007488	60	23581
2026-01-02 18:23:46.46	239.08	2.90	-49.2	-61.2	3.6	8.44e-01	0	39	104	4339007488	60	41726
2026-01-02 18:23:50.50	238.92	2.65	-49.6	-61.7	3.6	8.45e-01	0	39	104	4339007488	60	44139
2026-01-02 18:23:54.54	238.77	2.39	-49.6	-61.8	3.6	8.45e-01	0	39	104	4339007488	60	44378
2026-01-02 18:23:58.57	238.61	2.14	-49.4	-61.7	3.6	8.45e-01	0	39	104	4339007488	60	43820
2026-01-02 18:24:02.61	238.46	1.89	-49.6	-61.7	3.6	8.45e-01	0	39	104	4339007488	60	43983
2026-01-02 18:24:06.65	238.31	1.65	-49.5	-61.6	3.6	8.46e-01	0	39	104	4339007488	60	43688
2026-01-02 18:24:10.69	238.16	1.40	-49.5	-61.7	3.6	8.46e-01	0	39	104	4339007488	60	43823
2026-01-02 18:24:14.73	238.02	1.16	-49.5	-61.7	3.6	8.45e-01	0	39	104	4339007488	60	43755
2026-01-02 18:24:18.77	237.88	0.91	-49.5	-61.7	3.6	8.45e-01	0	39	104	4339007488	60	43852
2026-01-02 18:24:22.81	237.74	0.67	-49.5	-61.7	3.6	8.45e-01	0	39	104	4339007488	60	43836
2026-01-02 18:24:26.85	237.61	0.43	-49.5	-61.6	3.6	8.46e-01	0	39	104	4339007488	60	43531
2026-01-02 18:24:30.88	237.47	0.20	-49.5	-61.6	3.6	8.44e-01	0	39	104	4339007488	60	43358
2026-01-02 18:24:34.92	237.34	-0.04	-49.5	-61.7	3.6	8.46e-01	0	39	104	4339007488	60	43718

#Closed at: 2026-01-02 18:24:35
#Recorded file [4339 MB]: D:/lorett/data/35029_260103_060942.dat