passes_logs/2026/01/02/R4.6S_Anadyr/R4.6S_Anadyr__20260102_183724_AQUA_rec.log

#Pass ID: 20260102_183724_AQUA
#Satellite: AQUA
#Configuration: AQUA
#almurnet v.1.7.20251203
#Start time: 2026-01-02 18:37:26

#Version: 2.2.20231116
#Station: R4.6S_Anadyr
#Location: 177.4865 lon 64.73178 lat
#TLE: 1 27424U 02022A   25365.92641127  .00002078  00000+0  42628-3 0  9999
#TLE: 2 27424  98.4058 327.1196 0001962  94.7781 340.6230 14.61783896258835

#Time	Az	El	Level	Level2	SNR	BER	BlckErr	Temp	State	Recorded	gain1	gain2
2026-01-02 18:37:26.61	25.52	0.12	-49.5	-61.2	3.5	8.46e-01	0	36	0	0	60	41287
2026-01-02 18:37:29.64	25.33	0.29	-50.0	-67.8	3.5	3.02e+01	0	37	104	0	60	94696
2026-01-02 18:37:32.66	25.13	0.46	-50.1	-67.9	3.5	3.02e+01	0	37	104	0	60	95339
2026-01-02 18:37:35.69	24.94	0.63	-49.9	-67.8	3.5	3.02e+01	0	37	104	0	60	94109
2026-01-02 18:37:38.72	24.74	0.80	-49.4	-67.1	3.5	3.02e+01	0	38	104	0	60	87552
2026-01-02 18:37:41.75	24.54	0.97	-48.5	-66.4	3.5	3.02e+01	0	38	104	0	60	80550
2026-01-02 18:37:44.78	24.33	1.14	-48.2	-66.0	3.5	3.02e+01	0	38	104	0	60	76908
2026-01-02 18:37:47.82	24.12	1.31	-48.2	-66.1	3.5	3.02e+01	0	38	104	0	60	77672
2026-01-02 18:37:50.84	23.91	1.48	-48.2	-65.8	3.5	3.02e+01	0	38	104	0	60	75342
2026-01-02 18:37:53.87	23.70	1.66	-48.2	-65.9	3.5	3.02e+01	0	38	104	0	60	75555
2026-01-02 18:37:56.90	23.49	1.83	-48.2	-65.8	3.5	3.02e+01	0	38	104	0	60	75404
2026-01-02 18:37:59.93	23.27	2.01	-48.2	-66.0	3.5	3.02e+01	0	38	104	0	60	76538
2026-01-02 18:38:02.96	23.05	2.19	-48.2	-65.9	3.5	3.02e+01	0	38	104	0	60	75878
2026-01-02 18:38:05.99	22.82	2.36	-48.2	-64.2	3.5	3.02e+01	0	38	104	0	60	62205
2026-01-02 18:38:09.02	22.59	2.54	-48.1	-64.0	3.7	3.02e+01	0	38	104	0	60	61063
2026-01-02 18:38:12.05	22.36	2.72	-48.2	-65.9	3.5	3.02e+01	0	38	104	0	60	76303
2026-01-02 18:38:15.09	22.13	2.90	-48.2	-65.6	3.5	3.02e+01	0	38	104	0	60	73595
2026-01-02 18:38:18.12	21.89	3.08	-48.0	-61.6	4.7	3.02e+01	0	38	104	0	60	46025
2026-01-02 18:38:21.15	21.65	3.26	-48.0	-60.3	5.5	3.02e+01	2	38	104	0	60	39955
2026-01-02 18:38:24.18	21.40	3.45	-45.6	-49.9	15.2	3.02e+01	59	38	0	4718592	60	12057
2026-01-02 18:38:27.20	21.16	3.63	-44.9	-48.4	17.7	3.02e+01	58	38	0	6291456	60	10152
2026-01-02 18:38:30.23	20.90	3.81	-39.5	-41.5	22.3	3.02e+01	63	38	104	8912896	54	6433
2026-01-02 18:38:33.26	20.65	4.00	-39.1	-40.7	24.9	3.02e+01	53	38	0	13631488	52	6574
2026-01-02 18:38:36.29	20.39	4.18	-39.1	-40.6	25.0	3.02e+01	62	38	0	19398656	52	6545
2026-01-02 18:38:39.31	20.13	4.37	-38.7	-40.2	25.3	3.02e+01	60	38	0	25165824	52	6275
2026-01-02 18:38:42.34	19.86	4.56	-39.2	-40.8	24.9	3.02e+01	61	38	0	30932992	52	6699
2026-01-02 18:38:45.37	19.59	4.75	-38.7	-40.3	25.5	3.02e+01	60	38	0	36700160	52	6278
2026-01-02 18:38:48.40	19.32	4.94	-38.6	-40.1	25.6	3.02e+01	59	38	0	41943040	52	6163
2026-01-02 18:38:51.43	19.04	5.13	-38.4	-39.9	25.8	3.02e+01	47	38	0	47710208	52	6005
2026-01-02 18:38:54.45	18.76	5.32	-38.5	-39.9	25.7	3.02e+01	52	38	0	53477376	52	6046
2026-01-02 18:38:57.48	18.47	5.51	-38.5	-39.9	25.8	3.02e+01	60	38	0	59244544	52	6058
2026-01-02 18:39:00.51	18.18	5.70	-38.6	-40.0	25.8	3.02e+01	60	38	0	65011712	52	6124
2026-01-02 18:39:03.54	17.88	5.90	-38.3	-39.8	25.9	3.02e+01	60	38	0	70778880	50	6678
2026-01-02 18:39:06.56	17.58	6.09	-38.0	-39.4	26.4	3.02e+01	59	38	0	76021760	50	6392
2026-01-02 18:39:09.59	17.28	6.29	-38.0	-39.4	26.5	3.02e+01	61	38	0	81788928	50	6414
2026-01-02 18:39:12.61	16.97	6.49	-38.2	-39.6	26.2	3.02e+01	59	38	0	87556096	50	6563
2026-01-02 18:39:15.64	16.65	6.68	-38.2	-39.6	26.2	3.02e+01	61	38	0	93323264	50	6571
2026-01-02 18:39:18.67	16.33	6.88	-37.9	-39.3	26.5	3.02e+01	44	38	0	99090432	50	6323
2026-01-02 18:39:21.70	16.01	7.08	-38.0	-39.4	26.6	3.02e+01	59	38	0	104857600	50	6420
2026-01-02 18:39:24.73	15.68	7.28	-37.8	-39.2	26.7	3.02e+01	58	38	0	110100480	50	6225
2026-01-02 18:39:27.76	15.35	7.48	-37.5	-38.8	27.1	3.02e+01	60	38	0	115867648	50	5991
2026-01-02 18:39:30.79	15.01	7.69	-37.6	-38.9	27.0	3.02e+01	57	38	0	121634816	50	6058
2026-01-02 18:39:33.82	14.66	7.89	-37.6	-38.9	27.1	3.02e+01	58	38	0	127401984	50	6041
2026-01-02 18:39:36.85	14.31	8.09	-37.4	-38.8	27.3	3.02e+01	47	38	0	133169152	50	5944
2026-01-02 18:39:39.87	13.96	8.30	-37.7	-39.1	26.9	3.02e+01	45	38	0	138936320	50	6142
2026-01-02 18:39:42.90	13.59	8.50	-38.1	-39.5	26.5	3.02e+01	57	38	0	144179200	50	6457
2026-01-02 18:39:45.93	13.23	8.71	-37.9	-39.2	26.9	3.02e+01	60	38	0	149946368	50	6270
2026-01-02 18:39:48.96	12.85	8.92	-37.4	-38.8	27.3	3.02e+01	59	38	0	155713536	50	5943
2026-01-02 18:39:51.98	12.48	9.13	-37.2	-38.5	27.6	3.02e+01	58	38	0	161480704	50	5730
2026-01-02 18:39:55.01	12.09	9.34	-37.4	-38.7	27.5	3.02e+01	59	38	0	167247872	50	5876
2026-01-02 18:39:58.04	11.70	9.55	-37.1	-38.4	27.7	3.02e+01	61	38	0	173015040	50	5706
2026-01-02 18:40:01.07	11.30	9.76	-37.0	-38.3	27.9	3.02e+01	56	38	0	178257920	50	5615
2026-01-02 18:40:04.10	10.90	9.97	-36.9	-38.2	27.9	3.02e+01	44	38	0	184025088	48	6249
2026-01-02 18:40:07.13	10.49	10.18	-36.8	-38.1	28.0	3.02e+01	59	38	0	189792256	48	6175
2026-01-02 18:40:10.15	10.07	10.39	-36.6	-37.9	28.3	3.02e+01	55	38	0	195559424	48	6013
2026-01-02 18:40:13.18	9.65	10.60	-36.7	-37.9	28.2	3.02e+01	61	38	0	201326592	48	6063
2026-01-02 18:40:16.21	9.21	10.82	-36.8	-38.1	28.0	3.02e+01	60	38	0	206569472	48	6174
2026-01-02 18:40:19.24	8.78	11.03	-36.8	-38.1	28.1	3.02e+01	57	38	0	212336640	48	6175
2026-01-02 18:40:22.27	8.33	11.25	-36.6	-37.9	28.3	3.02e+01	61	38	0	218103808	48	6007
2026-01-02 18:40:25.30	7.88	11.46	-36.6	-37.9	28.3	3.02e+01	45	38	0	223870976	48	6005
2026-01-02 18:40:28.33	7.42	11.68	-36.6	-37.8	28.3	3.02e+01	57	38	0	229638144	48	5983
2026-01-02 18:40:31.36	6.95	11.89	-36.4	-37.7	28.5	3.02e+01	63	38	0	235405312	48	5861
2026-01-02 18:40:34.39	6.48	12.11	-36.6	-37.8	28.4	3.02e+01	59	38	0	241172480	48	5969
2026-01-02 18:40:37.41	5.99	12.33	-36.4	-37.6	28.6	3.02e+01	56	38	0	246415360	48	5826
2026-01-02 18:40:40.44	5.50	12.54	-36.9	-38.1	28.2	3.02e+01	57	38	0	252182528	48	6203
2026-01-02 18:40:43.47	5.00	12.76	-36.6	-37.9	28.2	3.02e+01	48	38	0	257949696	48	6027
2026-01-02 18:40:46.50	4.50	12.98	-36.3	-37.6	28.7	3.02e+01	45	38	0	263716864	48	5806
2026-01-02 18:40:49.53	3.98	13.20	-36.5	-37.7	28.5	3.02e+01	58	38	0	269484032	48	5924
2026-01-02 18:40:52.56	3.46	13.41	-36.5	-37.7	28.5	3.02e+01	63	39	0	274726912	48	5918
2026-01-02 18:40:55.58	2.93	13.63	-36.5	-37.7	28.5	3.02e+01	57	38	0	280494080	48	5895
2026-01-02 18:40:58.61	2.39	13.84	-36.5	-37.8	28.4	3.02e+01	56	38	0	286261248	48	5931
2026-01-02 18:41:01.64	1.84	14.06	-36.6	-37.9	28.4	3.02e+01	60	38	0	292028416	48	6015
2026-01-02 18:41:04.67	1.28	14.28	-36.3	-37.5	28.7	3.02e+01	59	38	0	297795584	48	5770
2026-01-02 18:41:07.70	0.72	14.49	-36.3	-37.6	28.6	3.02e+01	46	38	0	303562752	48	5820
2026-01-02 18:41:10.72	0.14	14.71	-36.2	-37.5	28.8	3.02e+01	47	38	0	309329920	48	5731
2026-01-02 18:41:13.75	359.56	14.92	-36.2	-37.4	28.8	3.02e+01	59	38	0	314572800	48	5700
2026-01-02 18:41:16.78	358.96	15.13	-36.4	-37.6	28.7	3.02e+01	59	38	0	320339968	48	5853
2026-01-02 18:41:19.81	358.36	15.35	-36.5	-37.8	28.6	3.02e+01	61	38	0	326107136	48	5927
2026-01-02 18:41:22.84	357.75	15.56	-36.4	-37.6	28.7	3.02e+01	59	38	0	331874304	48	5849
2026-01-02 18:41:25.87	357.13	15.77	-36.3	-37.6	28.8	3.02e+01	58	39	0	337641472	48	5809
2026-01-02 18:41:28.90	356.50	15.98	-36.2	-37.5	28.9	3.02e+01	58	39	0	342884352	48	5740
2026-01-02 18:41:31.93	355.85	16.18	-36.5	-37.7	28.7	3.02e+01	38	38	0	348651520	48	5909
2026-01-02 18:41:34.96	355.20	16.39	-36.4	-37.6	28.8	3.02e+01	61	38	0	354418688	48	5837
2026-01-02 18:41:37.99	354.54	16.59	-36.4	-37.7	28.7	3.02e+01	58	38	0	360185856	48	5862
2026-01-02 18:41:41.02	353.87	16.80	-36.5	-37.7	28.7	3.02e+01	60	39	0	365953024	48	5896
2026-01-02 18:41:44.05	353.19	17.00	-36.4	-37.7	28.7	3.02e+01	60	38	0	371720192	48	5863
2026-01-02 18:41:47.08	352.51	17.19	-36.5	-37.7	28.6	3.02e+01	58	38	0	377487360	48	5924
2026-01-02 18:41:50.10	351.81	17.39	-36.5	-37.7	28.6	3.02e+01	52	39	0	382730240	48	5923
2026-01-02 18:41:53.13	351.10	17.58	-36.6	-37.8	28.6	3.02e+01	49	38	0	388497408	48	5977
2026-01-02 18:41:56.16	350.38	17.77	-36.5	-37.7	28.7	3.02e+01	59	39	0	394264576	48	5884
2026-01-02 18:41:59.19	349.65	17.96	-36.6	-37.8	28.6	3.02e+01	57	39	0	400031744	48	5991
2026-01-02 18:42:02.22	348.92	18.14	-36.8	-38.0	28.4	3.02e+01	60	39	0	405798912	48	6101
2026-01-02 18:42:05.25	348.17	18.32	-36.6	-37.9	28.5	3.02e+01	56	39	0	411041792	48	6018
2026-01-02 18:42:08.28	347.41	18.50	-36.7	-37.9	28.5	3.02e+01	60	39	0	416808960	48	6033
2026-01-02 18:42:11.31	346.65	18.67	-36.7	-37.9	28.6	3.02e+01	56	39	0	422576128	48	6051
2026-01-02 18:42:14.34	345.87	18.84	-36.7	-37.9	28.5	3.02e+01	51	39	0	428343296	48	6021
2026-01-02 18:42:17.37	345.08	19.01	-36.7	-38.0	28.6	3.02e+01	45	39	0	434110464	48	6075
2026-01-02 18:42:20.40	344.29	19.17	-36.8	-38.0	28.5	3.02e+01	60	39	0	439877632	48	6104
2026-01-02 18:42:23.43	343.49	19.33	-36.7	-37.9	28.5	3.02e+01	58	39	0	445644800	48	6034
2026-01-02 18:42:26.46	342.68	19.48	-36.9	-38.2	28.4	3.02e+01	57	39	0	450887680	48	6211
2026-01-02 18:42:29.49	341.86	19.63	-36.7	-38.0	28.5	3.02e+01	59	39	0	456654848	48	6083
2026-01-02 18:42:32.52	341.03	19.77	-37.1	-38.3	28.2	3.02e+01	62	39	0	462422016	48	6332
2026-01-02 18:42:35.55	340.19	19.91	-36.8	-38.1	28.5	3.02e+01	55	39	0	468189184	48	6146
2026-01-02 18:42:38.58	339.35	20.04	-36.9	-38.1	28.4	3.02e+01	51	39	0	473956352	48	6182
2026-01-02 18:42:41.61	338.49	20.17	-37.0	-38.3	28.3	3.02e+01	59	39	0	479199232	48	6284
2026-01-02 18:42:44.64	337.63	20.29	-36.9	-38.2	28.3	3.02e+01	58	39	0	484966400	48	6240
2026-01-02 18:42:47.66	336.77	20.40	-36.9	-38.2	28.4	3.02e+01	58	39	0	490733568	48	6239
2026-01-02 18:42:50.69	335.90	20.51	-37.0	-38.3	28.3	3.02e+01	61	39	0	496500736	48	6285
2026-01-02 18:42:53.72	335.02	20.62	-37.0	-38.2	28.3	3.02e+01	59	39	0	502267904	48	6273
2026-01-02 18:42:56.75	334.13	20.71	-37.0	-38.3	28.3	3.02e+01	61	39	0	508035072	48	6298
2026-01-02 18:42:59.78	333.24	20.80	-37.1	-38.3	28.3	3.02e+01	54	39	0	513802240	48	6343
2026-01-02 18:43:02.80	332.35	20.88	-37.1	-38.3	28.3	3.02e+01	61	39	0	519045120	48	6336
2026-01-02 18:43:05.83	331.44	20.96	-37.1	-38.3	28.3	3.02e+01	57	39	0	524812288	48	6339
2026-01-02 18:43:08.86	330.54	21.03	-37.1	-38.3	28.3	3.02e+01	59	39	0	530579456	48	6346
2026-01-02 18:43:11.89	329.63	21.09	-37.1	-38.4	28.3	3.02e+01	62	39	0	536346624	48	6363
2026-01-02 18:43:14.91	328.72	21.14	-37.2	-38.4	28.2	3.02e+01	58	39	0	542113792	48	6396
2026-01-02 18:43:17.94	327.80	21.19	-37.1	-38.4	28.2	3.02e+01	60	39	0	547356672	48	6371
2026-01-02 18:43:20.97	326.88	21.23	-37.2	-38.4	28.2	3.02e+01	59	39	0	553123840	48	6402
2026-01-02 18:43:24.00	325.96	21.26	-37.3	-38.5	28.1	3.02e+01	53	39	0	558891008	48	6489
2026-01-02 18:43:27.03	325.03	21.29	-37.3	-38.5	28.1	3.02e+01	58	39	0	564658176	48	6485
2026-01-02 18:43:30.05	324.11	21.30	-37.2	-38.4	28.3	3.02e+01	60	39	0	570425344	48	6408
2026-01-02 18:43:33.09	323.18	21.31	-37.3	-38.6	28.1	3.02e+01	58	39	0	576192512	48	6555
2026-01-02 18:43:36.11	322.25	21.32	-37.3	-38.5	28.2	3.02e+01	58	39	0	581435392	48	6485
2026-01-02 18:43:39.14	321.33	21.31	-37.3	-38.6	28.1	3.02e+01	59	39	0	587202560	48	6508
2026-01-02 18:43:42.17	320.40	21.30	-37.8	-39.2	27.7	3.02e+01	50	39	0	592969728	48	6967
2026-01-02 18:43:45.21	319.47	21.28	-37.4	-38.7	28.1	3.02e+01	45	39	0	598736896	48	6614
2026-01-02 18:43:48.24	318.55	21.25	-37.7	-39.0	27.8	3.02e+01	58	39	0	604504064	50	6108
2026-01-02 18:43:51.27	317.63	21.21	-37.8	-39.1	27.6	3.02e+01	58	39	0	610271232	50	6202
2026-01-02 18:43:54.30	316.71	21.17	-37.8	-39.2	27.7	3.02e+01	58	39	0	615514112	50	6224
2026-01-02 18:43:57.32	315.79	21.12	-37.4	-38.7	28.0	3.02e+01	61	39	0	621281280	50	5904
2026-01-02 18:44:00.35	314.88	21.06	-37.2	-38.5	28.3	3.02e+01	60	39	0	627048448	50	5745
2026-01-02 18:44:03.38	313.97	20.99	-37.6	-38.9	27.8	3.02e+01	60	39	0	632815616	50	6027
2026-01-02 18:44:06.41	313.07	20.92	-37.2	-38.5	28.3	3.02e+01	50	39	0	638582784	48	6458
2026-01-02 18:44:09.44	312.17	20.84	-37.6	-38.8	28.0	3.02e+01	62	39	0	644349952	48	6725
2026-01-02 18:44:12.47	311.27	20.76	-38.4	-39.8	27.0	3.02e+01	59	39	0	649592832	50	6668
2026-01-02 18:44:15.50	310.38	20.66	-37.8	-39.1	27.5	3.02e+01	60	39	0	655360000	48	6922
2026-01-02 18:44:18.52	309.50	20.56	-36.8	-38.0	28.4	3.02e+01	63	39	0	661127168	50	5459
2026-01-02 18:44:21.55	308.62	20.46	-38.2	-39.6	26.8	3.02e+01	59	39	0	666894336	50	6536
2026-01-02 18:44:24.58	307.75	20.35	-37.4	-38.6	28.0	3.02e+01	59	39	0	672661504	50	5849
2026-01-02 18:44:27.61	306.89	20.23	-37.5	-38.8	27.5	3.02e+01	58	39	0	678428672	50	5959
2026-01-02 18:44:30.63	306.03	20.10	-37.5	-38.7	28.0	3.02e+01	41	39	0	683671552	50	5923
2026-01-02 18:44:33.67	305.18	19.97	-37.2	-38.5	28.2	3.02e+01	55	39	0	689438720	50	5740
2026-01-02 18:44:36.69	304.34	19.84	-38.0	-39.4	27.4	3.02e+01	60	39	0	695205888	50	6377
2026-01-02 18:44:39.72	303.51	19.70	-38.0	-39.4	27.3	3.02e+01	63	39	0	700973056	50	6402
2026-01-02 18:44:42.75	302.68	19.55	-38.2	-39.6	27.3	3.02e+01	60	39	0	706740224	50	6506
2026-01-02 18:44:45.78	301.86	19.40	-37.7	-39.0	27.7	3.02e+01	60	39	0	712507392	50	6124
2026-01-02 18:44:48.80	301.06	19.25	-37.3	-38.6	28.0	3.02e+01	59	39	0	717750272	50	5808
2026-01-02 18:44:51.83	300.26	19.09	-37.0	-38.2	28.5	3.02e+01	49	39	0	723517440	50	5581
2026-01-02 18:44:54.86	299.46	18.92	-37.7	-39.1	27.6	3.02e+01	57	39	0	729284608	48	6909
2026-01-02 18:44:57.89	298.68	18.75	-37.0	-38.2	28.5	3.02e+01	60	39	0	735051776	48	6220
2026-01-02 18:45:00.91	297.91	18.58	-37.5	-38.8	27.9	3.02e+01	61	39	0	740818944	48	6716
2026-01-02 18:45:03.94	297.15	18.41	-37.9	-39.2	27.5	3.02e+01	58	39	0	746586112	50	6266
2026-01-02 18:45:06.97	296.39	18.23	-36.6	-37.8	28.7	3.02e+01	62	39	0	751828992	48	5928
2026-01-02 18:45:10.00	295.65	18.04	-37.1	-38.3	28.0	3.02e+01	59	39	0	757596160	48	6309
2026-01-02 18:45:13.03	294.91	17.86	-37.7	-39.0	27.6	3.02e+01	47	39	0	763363328	48	6843
2026-01-02 18:45:16.05	294.19	17.67	-37.1	-38.3	28.3	3.02e+01	45	39	0	769130496	48	6319
2026-01-02 18:45:19.08	293.48	17.48	-36.7	-37.8	28.7	3.02e+01	59	39	0	774897664	48	5992
2026-01-02 18:45:22.11	292.77	17.28	-37.1	-38.3	28.4	3.02e+01	58	39	0	780140544	48	6311
2026-01-02 18:45:25.14	292.07	17.09	-36.9	-38.1	28.6	3.02e+01	60	39	0	785907712	48	6158
2026-01-02 18:45:28.17	291.39	16.89	-37.1	-38.3	28.3	3.02e+01	60	39	0	791674880	48	6328
2026-01-02 18:45:31.20	290.71	16.68	-36.8	-38.0	28.6	3.02e+01	59	39	0	797442048	48	6115
2026-01-02 18:45:34.23	290.04	16.48	-37.0	-38.3	28.4	3.02e+01	49	39	0	803209216	48	6288
2026-01-02 18:45:37.25	289.39	16.28	-37.2	-38.5	28.1	3.02e+01	46	39	0	808976384	48	6468
2026-01-02 18:45:40.28	288.74	16.07	-37.0	-38.2	28.4	3.02e+01	56	39	0	814743552	48	6257
2026-01-02 18:45:43.31	288.10	15.86	-36.9	-38.1	28.5	3.02e+01	59	39	0	819986432	48	6192
2026-01-02 18:45:46.34	287.47	15.65	-37.2	-38.5	28.2	3.02e+01	58	39	0	825753600	48	6427
2026-01-02 18:45:49.37	286.85	15.44	-37.2	-38.5	28.1	3.02e+01	59	39	0	831520768	48	6431
2026-01-02 18:45:52.39	286.25	15.23	-37.3	-38.5	28.0	3.02e+01	61	39	0	837287936	48	6486
2026-01-02 18:45:55.42	285.65	15.01	-37.0	-38.3	28.2	3.02e+01	60	39	0	843055104	48	6319
2026-01-02 18:45:58.45	285.05	14.80	-37.2	-38.4	28.1	3.02e+01	57	39	0	848297984	48	6412
2026-01-02 18:46:01.48	284.47	14.58	-37.1	-38.4	28.1	3.02e+01	62	39	0	854065152	48	6383
2026-01-02 18:46:04.51	283.90	14.37	-37.5	-38.8	27.9	3.02e+01	59	39	0	859832320	48	6659
2026-01-02 18:46:07.53	283.34	14.15	-37.0	-38.2	28.2	3.02e+01	58	39	0	865599488	48	6243
2026-01-02 18:46:10.56	282.78	13.94	-37.2	-38.5	28.0	3.02e+01	63	39	0	871366656	48	6442
2026-01-02 18:46:13.59	282.23	13.72	-37.0	-38.2	28.2	3.02e+01	60	39	0	877133824	48	6248
2026-01-02 18:46:16.62	281.70	13.50	-37.4	-38.7	27.8	3.02e+01	58	39	0	882900992	48	6597
2026-01-02 18:46:19.65	281.17	13.28	-37.2	-38.4	28.0	3.02e+01	44	39	0	888143872	48	6419
2026-01-02 18:46:22.68	280.64	13.07	-37.3	-38.6	27.8	3.02e+01	46	39	0	893911040	48	6551
2026-01-02 18:46:25.71	280.13	12.85	-37.3	-38.6	27.8	3.02e+01	57	39	0	899678208	48	6504
2026-01-02 18:46:28.73	279.63	12.63	-37.3	-38.6	27.8	3.02e+01	58	39	0	905445376	48	6528
2026-01-02 18:46:31.76	279.13	12.41	-37.4	-38.7	27.7	3.02e+01	58	39	0	911212544	48	6589
2026-01-02 18:46:34.79	278.64	12.20	-37.4	-38.7	27.7	3.02e+01	57	39	0	916455424	48	6645
2026-01-02 18:46:37.82	278.16	11.98	-37.4	-38.7	27.7	3.02e+01	59	39	0	922222592	48	6609
2026-01-02 18:46:40.85	277.69	11.76	-37.8	-39.1	27.4	3.02e+01	44	39	0	927989760	48	6933
2026-01-02 18:46:43.87	277.22	11.55	-37.5	-38.8	27.6	3.02e+01	46	39	0	933756928	48	6651
2026-01-02 18:46:46.90	276.77	11.33	-37.6	-39.0	27.4	3.02e+01	58	39	0	939524096	48	6814
2026-01-02 18:46:49.93	276.31	11.11	-37.6	-38.9	27.5	3.02e+01	59	39	0	945291264	48	6772
2026-01-02 18:46:52.96	275.87	10.90	-37.6	-38.9	27.4	3.02e+01	60	39	0	950534144	48	6803
2026-01-02 18:46:55.98	275.44	10.68	-37.9	-39.2	27.1	3.02e+01	62	38	0	956301312	48	7030
2026-01-02 18:46:59.01	275.01	10.47	-37.6	-38.9	27.4	3.02e+01	61	39	0	962068480	48	6777
2026-01-02 18:47:02.04	274.58	10.26	-37.7	-39.0	27.4	3.02e+01	58	38	0	967835648	48	6810
2026-01-02 18:47:05.07	274.17	10.04	-37.8	-39.2	27.2	3.02e+01	57	38	0	973602816	48	6984
2026-01-02 18:47:08.10	273.76	9.83	-38.0	-39.3	27.0	3.02e+01	58	38	0	979369984	50	6348
2026-01-02 18:47:11.13	273.35	9.62	-37.9	-39.2	27.1	3.02e+01	57	39	0	984612864	50	6277
2026-01-02 18:47:14.16	272.96	9.41	-38.1	-39.4	26.8	3.02e+01	61	39	0	990380032	50	6399
2026-01-02 18:47:17.18	272.57	9.20	-38.1	-39.5	26.8	3.02e+01	60	38	0	996147200	50	6438
2026-01-02 18:47:20.21	272.18	8.99	-38.0	-39.4	26.8	3.02e+01	58	38	0	1001914368	50	6370
2026-01-02 18:47:23.24	271.80	8.78	-38.2	-39.5	26.8	3.02e+01	61	38	0	1007681536	50	6475
2026-01-02 18:47:26.27	271.43	8.57	-38.3	-39.7	26.6	3.02e+01	58	39	0	1012924416	50	6579
2026-01-02 18:47:29.29	271.07	8.37	-38.2	-39.6	26.6	3.02e+01	47	38	0	1018691584	50	6527
2026-01-02 18:47:32.32	270.71	8.16	-38.1	-39.4	26.7	3.02e+01	58	38	0	1024458752	50	6410
2026-01-02 18:47:35.35	270.35	7.96	-38.3	-39.7	26.5	3.02e+01	62	39	0	1030225920	50	6636
2026-01-02 18:47:38.38	270.00	7.75	-38.5	-39.9	26.3	3.02e+01	59	38	0	1035993088	50	6752
2026-01-02 18:47:41.41	269.66	7.55	-38.5	-39.9	26.3	3.02e+01	59	39	0	1041760256	50	6739
2026-01-02 18:47:44.44	269.32	7.35	-38.4	-39.8	26.3	3.02e+01	60	38	0	1047527424	50	6653
2026-01-02 18:47:47.47	268.98	7.15	-38.4	-39.8	26.3	3.02e+01	62	39	0	1052770304	50	6702
2026-01-02 18:47:50.50	268.65	6.94	-38.5	-39.9	26.1	3.02e+01	51	38	0	1058537472	50	6788
2026-01-02 18:47:53.52	268.33	6.75	-39.0	-40.4	25.7	3.02e+01	60	38	0	1064304640	52	6418
2026-01-02 18:47:56.55	268.01	6.55	-38.9	-40.4	25.7	3.02e+01	55	38	0	1070071808	52	6351
2026-01-02 18:47:59.58	267.70	6.35	-38.9	-40.3	25.7	3.02e+01	58	39	0	1075838976	52	6325
2026-01-02 18:48:02.60	267.39	6.15	-38.9	-40.3	25.7	3.02e+01	57	38	0	1081081856	52	6318
2026-01-02 18:48:05.63	267.09	5.96	-39.0	-40.5	25.5	3.02e+01	61	38	0	1086849024	52	6475
2026-01-02 18:48:08.65	266.79	5.76	-39.2	-40.7	25.3	3.02e+01	59	39	0	1092616192	52	6605
2026-01-02 18:48:11.69	266.49	5.57	-39.4	-41.0	25.0	3.02e+01	48	39	0	1098383360	52	6806
2026-01-02 18:48:14.71	266.20	5.37	-39.2	-40.7	25.2	3.02e+01	45	38	0	1104150528	52	6608
2026-01-02 18:48:17.74	265.91	5.18	-39.1	-40.6	25.2	3.02e+01	58	39	0	1109917696	52	6559
2026-01-02 18:48:20.76	265.63	4.99	-39.5	-41.1	24.8	3.02e+01	61	39	0	1115160576	52	6934
2026-01-02 18:48:23.79	265.35	4.80	-39.8	-41.4	24.7	3.02e+01	59	39	0	1120927744	54	6377
2026-01-02 18:48:26.83	265.08	4.61	-39.3	-40.9	24.8	3.02e+01	61	38	0	1126694912	54	6002
2026-01-02 18:48:29.85	264.81	4.42	-39.6	-41.1	24.7	3.02e+01	59	39	0	1132462080	54	6191
2026-01-02 18:48:32.88	264.54	4.23	-39.8	-41.5	24.5	3.02e+01	53	39	0	1138229248	54	6464
2026-01-02 18:48:35.91	264.28	4.05	-39.7	-41.3	24.3	3.02e+01	38	39	0	1143996416	54	6336
2026-01-02 18:48:38.94	264.02	3.86	-39.7	-41.4	24.2	3.02e+01	59	39	0	1149239296	54	6374
2026-01-02 18:48:41.97	263.76	3.68	-39.5	-41.1	24.4	3.02e+01	60	39	0	1155006464	54	6202
2026-01-02 18:48:45.00	263.51	3.49	-39.7	-41.3	24.2	3.02e+01	61	39	0	1160773632	54	6316
2026-01-02 18:48:48.02	263.26	3.31	-39.7	-41.3	24.0	3.02e+01	60	39	0	1166540800	54	6344
2026-01-02 18:48:51.05	263.02	3.13	-40.1	-41.8	23.7	3.02e+01	58	39	0	1172307968	54	6704
2026-01-02 18:48:54.08	262.78	2.94	-48.1	-64.9	3.6	3.02e+01	0	39	104	1176502272	60	67887
2026-01-02 18:48:57.11	262.54	2.76	-49.8	-67.5	3.5	3.02e+01	0	39	104	1176502272	60	91717
2026-01-02 18:49:00.14	262.30	2.58	-49.9	-67.7	3.5	3.02e+01	0	39	104	1176502272	60	93683
2026-01-02 18:49:03.17	262.07	2.41	-49.9	-67.8	3.5	3.02e+01	0	39	104	1176502272	60	94484
2026-01-02 18:49:06.20	261.84	2.23	-49.8	-67.7	3.5	3.02e+01	0	39	104	1176502272	60	93633
2026-01-02 18:49:09.23	261.62	2.05	-49.6	-67.6	3.5	3.02e+01	0	39	104	1176502272	60	92813
2026-01-02 18:49:12.25	261.40	1.87	-49.9	-67.7	3.5	3.02e+01	0	39	104	1176502272	60	93898
2026-01-02 18:49:15.29	261.18	1.70	-49.9	-67.7	3.5	3.02e+01	0	39	104	1176502272	60	93703
2026-01-02 18:49:18.31	260.96	1.52	-49.9	-67.7	3.5	3.02e+01	0	39	104	1176502272	60	93240
2026-01-02 18:49:21.34	260.75	1.35	-49.9	-67.7	3.5	3.02e+01	0	39	104	1176502272	60	93223
2026-01-02 18:49:24.37	260.54	1.18	-49.9	-67.7	3.5	3.02e+01	0	39	104	1176502272	60	93054
2026-01-02 18:49:27.40	260.33	1.00	-49.9	-67.7	3.5	3.02e+01	0	39	104	1176502272	60	93072
2026-01-02 18:49:30.43	260.12	0.83	-49.9	-67.7	3.5	3.02e+01	0	39	104	1176502272	60	93569
2026-01-02 18:49:33.46	259.92	0.66	-49.9	-67.7	3.5	3.02e+01	0	39	104	1176502272	60	93181
2026-01-02 18:49:36.49	259.72	0.49	-49.9	-67.7	3.5	3.02e+01	0	39	104	1176502272	60	92869
2026-01-02 18:49:39.52	259.52	0.32	-49.9	-67.7	3.5	3.02e+01	0	39	104	1176502272	60	93355
2026-01-02 18:49:42.54	259.33	0.15	-49.8	-67.7	3.5	3.02e+01	0	39	104	1176502272	60	92994
2026-01-02 18:49:45.57	259.14	-0.01	-49.9	-67.7	3.5	3.02e+01	0	39	104	1176502272	60	93136

#Closed at: 2026-01-02 18:49:45
#Recorded file [1176 MB]: D:/lorett/data/35029_260103_063726.dat