passes_logs/2026/01/02/R4.6S_Anadyr/R4.6S_Anadyr__20260102_234312_SUOMI_NPP_rec.log

#Pass ID: 20260102_234312_SUOMI NPP
#Satellite: SUOMI NPP
#Configuration: NPP
#almurnet v.1.7.20251203
#Start time: 2026-01-02 23:43:15

#Version: 2.2.20231116
#Station: R4.6S_Anadyr
#Location: 177.4865 lon 64.73178 lat
#TLE: 1 37849U 11061A   26001.07732418  .00000182  00000+0  10735-3 0  9990
#TLE: 2 37849  98.7795 303.2470 0002580  87.2016 272.9455 14.19520779734739

#Time	Az	El	Level	Level2	SNR	BER	BlckErr	Temp	State	Recorded	gain1	gain2
2026-01-02 23:43:15.52	142.24	0.17	-50.3	-64.0	3.3	1.54e+00	0	37	0	0	60	57442
2026-01-02 23:43:19.55	142.19	0.42	-50.2	-65.4	3.6	1.51e+00	0	38	104	0	60	67358
2026-01-02 23:43:23.59	142.14	0.66	-49.8	-65.1	3.6	1.51e+00	0	38	104	0	60	65057
2026-01-02 23:43:27.63	142.09	0.91	-48.3	-63.5	3.6	1.51e+00	0	38	104	0	60	54244
2026-01-02 23:43:31.67	142.03	1.16	-46.8	-62.2	3.6	1.51e+00	0	38	104	0	60	46500
2026-01-02 23:43:35.71	141.98	1.41	-46.7	-62.2	3.6	1.51e+00	0	38	104	0	60	46513
2026-01-02 23:43:39.75	141.92	1.67	-46.7	-62.2	3.6	1.51e+00	0	38	104	0	60	46540
2026-01-02 23:43:43.79	141.86	1.92	-46.9	-62.1	3.6	1.51e+00	0	38	104	0	60	45804
2026-01-02 23:43:47.83	141.80	2.18	-46.7	-62.1	3.6	1.51e+00	0	38	104	0	60	46103
2026-01-02 23:43:51.87	141.74	2.44	-46.0	-62.1	3.6	1.51e+00	0	38	104	0	60	46064
2026-01-02 23:43:55.91	141.68	2.71	-46.6	-62.0	3.6	1.51e+00	0	38	104	0	60	45745
2026-01-02 23:43:59.96	141.62	2.97	-46.6	-61.2	3.6	1.51e+00	0	38	104	0	60	41605
2026-01-02 23:44:03.99	141.56	3.24	-46.7	-61.6	3.6	1.51e+00	0	38	104	0	60	43341
2026-01-02 23:44:08.03	141.49	3.51	-46.7	-61.3	3.6	1.51e+00	0	39	104	0	60	41861
2026-01-02 23:44:12.07	141.42	3.78	-46.7	-61.1	3.6	1.51e+00	0	38	104	0	60	40833
2026-01-02 23:44:16.11	141.36	4.06	-46.7	-60.0	3.6	1.51e+00	0	39	104	0	60	36338
2026-01-02 23:44:20.16	141.29	4.34	-46.8	-60.6	3.6	1.51e+00	0	38	104	0	60	38768
2026-01-02 23:44:24.20	141.22	4.62	-46.5	-60.0	3.8	1.52e+00	0	39	104	0	60	36249
2026-01-02 23:44:28.24	141.14	4.91	-47.0	-61.0	3.6	1.51e+00	0	39	104	0	60	40422
2026-01-02 23:44:32.28	141.07	5.20	-47.3	-61.7	3.7	1.51e+00	0	39	104	0	60	44086
2026-01-02 23:44:36.32	140.99	5.49	-45.5	-52.2	6.7	3.36e-01	0	39	104	0	60	14755
2026-01-02 23:44:40.36	140.91	5.78	-45.8	-51.2	9.1	1.81e-01	0	39	0	2097152	60	13187
2026-01-02 23:44:44.40	140.83	6.08	-45.8	-50.9	9.3	2.79e-02	0	39	0	9437184	60	12613
2026-01-02 23:44:48.44	140.75	6.38	-45.4	-49.4	9.1	7.17e-02	0	39	0	17825792	60	10614
2026-01-02 23:44:52.48	140.67	6.68	-45.0	-48.6	13.0	1.52e-03	0	39	0	25165824	60	9755
2026-01-02 23:44:56.52	140.58	6.99	-44.2	-47.1	13.0	9.59e-03	0	39	0	32505856	60	8147
2026-01-02 23:45:00.56	140.49	7.30	-44.1	-46.6	13.7	3.67e-03	0	39	0	39845888	60	7690
2026-01-02 23:45:04.60	140.40	7.62	-43.4	-45.7	13.7	3.88e-04	0	39	0	48234496	60	6939
2026-01-02 23:45:08.64	140.31	7.94	-42.5	-44.2	17.3	9.10e-06	0	39	0	55574528	58	6614
2026-01-02 23:45:12.67	140.22	8.26	-41.8	-43.3	18.1	0.00e+00	0	39	0	62914560	56	6670
2026-01-02 23:45:16.71	140.12	8.59	-41.5	-42.9	19.6	0.00e+00	0	39	0	70254592	56	6358
2026-01-02 23:45:20.75	140.02	8.92	-41.2	-42.5	20.3	0.00e+00	0	39	0	77594624	56	6093
2026-01-02 23:45:24.79	139.92	9.26	-40.4	-41.6	20.9	0.00e+00	0	39	0	85983232	54	6148
2026-01-02 23:45:28.83	139.81	9.60	-40.1	-41.2	21.4	0.00e+00	0	39	0	93323264	54	5874
2026-01-02 23:45:32.87	139.71	9.94	-40.1	-41.2	21.4	0.00e+00	0	39	0	100663296	54	5876
2026-01-02 23:45:36.91	139.59	10.29	-39.8	-40.9	21.8	0.00e+00	0	39	0	108003328	54	5691
2026-01-02 23:45:40.95	139.48	10.65	-39.6	-40.7	22.1	0.00e+00	0	39	0	116391936	52	6185
2026-01-02 23:45:45.00	139.36	11.01	-39.3	-40.3	22.3	0.00e+00	0	39	0	123731968	52	5955
2026-01-02 23:45:49.04	139.24	11.38	-39.2	-40.2	22.5	0.00e+00	0	39	0	131072000	52	5871
2026-01-02 23:45:53.08	139.12	11.75	-38.8	-39.8	22.8	0.00e+00	0	39	0	138412032	52	5598
2026-01-02 23:45:57.12	138.99	12.12	-38.5	-39.4	22.9	0.00e+00	0	39	0	145752064	50	5982
2026-01-02 23:46:01.16	138.86	12.50	-38.4	-39.3	23.1	0.00e+00	0	39	0	154140672	50	5915
2026-01-02 23:46:05.20	138.73	12.89	-38.4	-39.3	23.3	0.00e+00	0	39	0	161480704	50	5939
2026-01-02 23:46:09.23	138.59	13.29	-38.4	-39.4	23.3	0.00e+00	0	39	0	168820736	50	5969
2026-01-02 23:46:13.27	138.45	13.69	-38.3	-39.2	23.5	0.00e+00	0	39	0	176160768	50	5853
2026-01-02 23:46:17.31	138.30	14.09	-38.3	-39.1	23.5	0.00e+00	0	39	0	184549376	50	5821
2026-01-02 23:46:21.36	138.15	14.51	-38.5	-39.4	23.4	0.00e+00	0	39	0	191889408	50	5980
2026-01-02 23:46:25.40	138.00	14.93	-38.7	-39.6	23.3	0.00e+00	0	39	0	199229440	50	6142
2026-01-02 23:46:29.43	137.84	15.35	-38.3	-39.2	23.6	0.00e+00	0	39	0	206569472	50	5842
2026-01-02 23:46:33.47	137.67	15.79	-38.2	-39.1	23.6	0.00e+00	0	39	0	213909504	50	5781
2026-01-02 23:46:37.51	137.50	16.23	-38.2	-39.1	23.6	0.00e+00	0	39	0	222298112	50	5781
2026-01-02 23:46:41.55	137.32	16.68	-38.0	-38.8	24.0	0.00e+00	0	39	0	229638144	50	5615
2026-01-02 23:46:45.59	137.14	17.14	-38.0	-38.8	24.0	0.00e+00	0	39	0	236978176	50	5600
2026-01-02 23:46:49.63	136.95	17.61	-38.3	-39.1	23.6	0.00e+00	0	39	0	244318208	50	5816
2026-01-02 23:46:53.67	136.76	18.08	-38.3	-39.2	23.6	0.00e+00	0	39	0	252706816	50	5872
2026-01-02 23:46:57.71	136.56	18.57	-38.3	-39.2	23.7	0.00e+00	0	39	0	260046848	50	5864
2026-01-02 23:47:01.75	136.35	19.06	-38.4	-39.3	23.6	0.00e+00	0	39	0	267386880	50	5947
2026-01-02 23:47:05.79	136.13	19.57	-38.5	-39.4	23.5	0.00e+00	0	39	0	274726912	50	6032
2026-01-02 23:47:09.83	135.91	20.08	-38.9	-39.8	23.2	0.00e+00	0	39	0	282066944	50	6269
2026-01-02 23:47:13.87	135.68	20.61	-38.2	-39.1	23.9	0.00e+00	0	39	0	290455552	50	5772
2026-01-02 23:47:17.91	135.44	21.14	-38.4	-39.3	23.7	0.00e+00	0	39	0	297795584	50	5906
2026-01-02 23:47:21.96	135.19	21.69	-38.7	-39.6	23.4	0.00e+00	0	39	0	305135616	50	6131
2026-01-02 23:47:26.00	134.93	22.24	-39.1	-40.0	23.1	0.00e+00	0	39	0	312475648	50	6447
2026-01-02 23:47:30.04	134.66	22.81	-38.9	-39.8	23.4	0.00e+00	0	39	0	320864256	50	6301
2026-01-02 23:47:34.08	134.38	23.39	-38.8	-39.8	23.3	0.00e+00	0	39	0	328204288	50	6252
2026-01-02 23:47:38.12	134.09	23.99	-39.4	-40.4	22.7	0.00e+00	0	39	0	335544320	50	6743
2026-01-02 23:47:42.16	133.79	24.59	-40.2	-41.3	22.0	0.00e+00	0	39	0	342884352	52	6665
2026-01-02 23:47:46.20	133.48	25.21	-40.1	-41.1	22.4	0.00e+00	0	39	0	350224384	52	6527
2026-01-02 23:47:50.24	133.15	25.85	-40.0	-41.1	22.4	0.00e+00	0	39	0	358612992	52	6489
2026-01-02 23:47:54.28	132.81	26.49	-39.7	-40.7	22.7	0.00e+00	0	39	0	365953024	52	6209
2026-01-02 23:47:58.32	132.45	27.16	-40.1	-41.2	22.2	0.00e+00	0	39	0	373293056	52	6557
2026-01-02 23:48:02.36	132.08	27.83	-40.2	-41.2	22.2	0.00e+00	0	39	0	380633088	52	6575
2026-01-02 23:48:06.40	131.69	28.53	-40.1	-41.1	22.4	0.00e+00	0	39	0	389021696	52	6537
2026-01-02 23:48:10.44	131.29	29.24	-41.2	-42.4	21.4	0.00e+00	0	39	0	396361728	54	6705
2026-01-02 23:48:14.48	130.86	29.96	-41.4	-42.6	21.3	0.00e+00	0	39	0	403701760	56	6138
2026-01-02 23:48:18.52	130.42	30.70	-41.7	-43.0	20.8	0.00e+00	0	39	0	411041792	56	6404
2026-01-02 23:48:22.56	129.95	31.46	-41.6	-42.7	21.1	0.00e+00	0	39	0	418381824	56	6239
2026-01-02 23:48:26.60	129.46	32.24	-42.7	-44.0	20.0	0.00e+00	0	39	0	426770432	56	7247
2026-01-02 23:48:30.63	128.94	33.04	-41.8	-43.0	20.9	0.00e+00	0	39	0	434110464	56	6425
2026-01-02 23:48:34.67	128.40	33.85	-43.3	-45.0	19.0	0.00e+00	0	39	0	441450496	58	7182
2026-01-02 23:48:38.71	127.83	34.68	-43.3	-44.9	19.3	0.00e+00	0	39	0	448790528	60	6337
2026-01-02 23:48:42.75	127.23	35.54	-43.9	-45.7	18.2	0.00e+00	0	39	0	457179136	60	6977
2026-01-02 23:48:46.79	126.59	36.41	-43.2	-44.8	19.4	0.00e+00	0	39	0	464519168	60	6310
2026-01-02 23:48:50.83	125.92	37.30	-41.6	-42.8	21.1	0.00e+00	0	39	0	471859200	56	6267
2026-01-02 23:48:54.87	125.21	38.21	-42.0	-43.3	20.4	0.00e+00	0	39	0	479199232	56	6674
2026-01-02 23:48:58.91	124.46	39.14	-41.6	-42.8	21.1	0.00e+00	0	39	0	486539264	56	6307
2026-01-02 23:49:02.95	123.66	40.09	-41.5	-42.8	21.2	0.00e+00	0	39	0	494927872	56	6255
2026-01-02 23:49:06.99	122.81	41.06	-41.8	-43.0	21.0	0.00e+00	0	39	0	502267904	56	6426
2026-01-02 23:49:11.03	121.91	42.05	-40.9	-42.0	21.8	0.00e+00	0	39	0	509607936	56	5707
2026-01-02 23:49:15.07	120.95	43.05	-41.8	-43.1	20.9	0.00e+00	0	39	0	516947968	56	6475
2026-01-02 23:49:19.11	119.93	44.08	-42.1	-43.4	20.6	0.00e+00	0	39	0	525336576	56	6740
2026-01-02 23:49:23.14	118.84	45.11	-40.8	-42.0	21.5	0.00e+00	0	39	0	532676608	54	6408
2026-01-02 23:49:27.18	117.68	46.17	-40.5	-41.5	22.1	0.00e+00	0	39	0	540016640	54	6097
2026-01-02 23:49:31.22	116.43	47.24	-40.2	-41.2	22.3	0.00e+00	0	39	0	547356672	54	5881
2026-01-02 23:49:35.26	115.09	48.32	-40.4	-41.6	22.0	0.00e+00	0	39	0	554696704	52	6849
2026-01-02 23:49:39.30	113.66	49.40	-39.5	-40.4	22.9	0.00e+00	0	39	0	563085312	52	6025
2026-01-02 23:49:43.34	112.11	50.50	-39.2	-40.1	23.3	0.00e+00	0	39	0	570425344	52	5816
2026-01-02 23:49:47.37	110.46	51.59	-39.3	-40.3	23.1	0.00e+00	0	39	0	577765376	50	6643
2026-01-02 23:49:51.41	108.67	52.68	-38.5	-39.3	23.8	0.00e+00	0	39	0	585105408	50	5952
2026-01-02 23:49:55.45	106.75	53.77	-39.7	-40.8	22.9	0.00e+00	0	39	0	593494016	50	7028
2026-01-02 23:49:59.49	104.67	54.84	-39.8	-40.8	22.7	0.00e+00	0	39	0	600834048	52	6286
2026-01-02 23:50:03.53	102.44	55.90	-38.9	-39.9	23.5	0.00e+00	0	39	0	608174080	52	5640
2026-01-02 23:50:07.57	100.02	56.93	-39.9	-40.9	22.6	0.00e+00	0	39	0	615514112	52	6336
2026-01-02 23:50:11.61	97.43	57.92	-39.4	-40.3	23.1	0.00e+00	0	39	0	622854144	52	5912
2026-01-02 23:50:15.65	94.64	58.87	-39.9	-40.9	22.6	0.00e+00	0	39	0	631242752	54	5669
2026-01-02 23:50:19.68	91.65	59.76	-38.4	-39.2	23.9	0.00e+00	0	39	0	638582784	50	5883
2026-01-02 23:50:23.72	88.45	60.60	-38.2	-39.0	24.0	0.00e+00	0	39	0	645922816	50	5760
2026-01-02 23:50:27.76	85.04	61.35	-38.5	-39.4	23.5	0.00e+00	0	39	0	653262848	50	5971
2026-01-02 23:50:31.80	81.43	62.02	-38.0	-38.8	24.0	0.00e+00	0	39	0	661651456	48	6279
2026-01-02 23:50:35.84	77.63	62.60	-36.8	-37.6	25.0	0.00e+00	0	39	0	668991488	48	5442
2026-01-02 23:50:39.87	73.68	63.06	-38.9	-39.8	23.4	0.00e+00	0	39	0	676331520	50	6304
2026-01-02 23:50:43.91	69.58	63.41	-37.4	-38.2	24.7	0.00e+00	0	39	0	683671552	48	5856
2026-01-02 23:50:47.95	65.37	63.64	-36.0	-36.8	25.5	0.00e+00	0	39	0	691011584	46	5574
2026-01-02 23:50:51.99	61.11	63.74	-36.7	-37.5	25.1	0.00e+00	0	39	0	699400192	46	6070
2026-01-02 23:50:56.04	56.82	63.70	-37.3	-38.2	24.8	0.00e+00	0	39	0	706740224	46	6562
2026-01-02 23:51:00.08	52.58	63.54	-36.3	-37.1	25.3	0.00e+00	0	39	0	714080256	46	5771
2026-01-02 23:51:04.12	48.43	63.25	-38.0	-38.8	24.2	0.00e+00	0	39	0	721420288	48	6299
2026-01-02 23:51:08.16	44.39	62.84	-37.3	-38.1	24.7	0.00e+00	0	39	0	729808896	48	5825
2026-01-02 23:51:12.20	40.51	62.32	-36.6	-37.4	25.1	0.00e+00	0	39	0	737148928	46	5966
2026-01-02 23:51:16.24	36.81	61.70	-36.9	-37.7	24.8	0.00e+00	0	39	0	744488960	46	6205
2026-01-02 23:51:20.28	33.30	60.98	-38.5	-39.4	23.9	0.00e+00	0	39	0	751828992	48	6702
2026-01-02 23:51:24.32	30.00	60.19	-41.9	-43.3	20.8	0.00e+00	0	39	0	759169024	56	6630
2026-01-02 23:51:28.36	26.91	59.32	-41.5	-42.7	21.2	0.00e+00	0	39	0	767557632	56	6227
2026-01-02 23:51:32.40	24.03	58.40	-42.2	-43.6	19.9	0.00e+00	0	39	0	774897664	58	6108
2026-01-02 23:51:36.44	21.34	57.43	-39.0	-39.9	23.5	0.00e+00	0	39	0	782237696	50	6349
2026-01-02 23:51:40.48	18.84	56.42	-39.8	-40.8	22.6	0.00e+00	0	39	0	789577728	52	6276
2026-01-02 23:51:44.52	16.52	55.38	-42.1	-43.4	20.5	0.00e+00	0	39	0	797966336	58	6013
2026-01-02 23:51:48.56	14.38	54.32	-43.7	-45.6	18.5	0.00e+00	0	39	0	805306368	58	7689
2026-01-02 23:51:52.60	12.38	53.24	-40.7	-41.8	21.8	0.00e+00	0	39	0	812646400	54	6256
2026-01-02 23:51:56.64	10.53	52.15	-40.7	-41.8	22.0	0.00e+00	0	39	0	819986432	54	6290
2026-01-02 23:52:00.68	8.81	51.06	-39.5	-40.4	23.1	0.00e+00	0	39	0	828375040	52	6013
2026-01-02 23:52:04.72	7.22	49.97	-39.0	-39.8	23.3	0.00e+00	0	39	0	835715072	50	6296
2026-01-02 23:52:08.76	5.73	48.88	-41.9	-43.2	21.0	0.00e+00	0	39	0	843055104	56	6579
2026-01-02 23:52:12.79	4.36	47.80	-40.3	-41.3	22.2	0.00e+00	0	39	0	850395136	54	5927
2026-01-02 23:52:16.83	3.07	46.73	-39.1	-40.0	23.6	0.00e+00	0	39	0	857735168	52	5727
2026-01-02 23:52:20.87	1.86	45.67	-42.0	-43.4	20.4	0.00e+00	0	39	0	866123776	56	6717
2026-01-02 23:52:24.91	0.74	44.63	-41.6	-42.8	21.0	0.00e+00	0	39	0	873463808	56	6310
2026-01-02 23:52:28.95	359.69	43.60	-41.0	-42.1	21.6	0.00e+00	0	39	0	880803840	54	6525
2026-01-02 23:52:32.99	358.70	42.59	-39.9	-40.9	22.7	0.00e+00	0	39	0	888143872	52	6324
2026-01-02 23:52:37.02	357.77	41.59	-44.0	-45.9	18.1	0.00e+00	0	39	0	895483904	60	7165
2026-01-02 23:52:41.07	356.90	40.62	-44.1	-45.9	18.6	0.00e+00	0	39	0	903872512	60	7133
2026-01-02 23:52:45.11	356.08	39.66	-41.4	-42.5	21.0	0.00e+00	0	39	0	911212544	56	6079
2026-01-02 23:52:49.15	355.31	38.72	-40.3	-41.3	22.3	0.00e+00	0	39	0	918552576	54	5928
2026-01-02 23:52:53.19	354.58	37.81	-42.6	-44.0	20.1	0.00e+00	0	39	0	925892608	58	6458
2026-01-02 23:52:57.22	353.90	36.91	-42.8	-44.2	19.9	0.00e+00	0	39	0	934281216	58	6564
2026-01-02 23:53:01.26	353.24	36.03	-42.3	-43.6	20.2	0.00e+00	0	39	0	941621248	58	6144
2026-01-02 23:53:05.30	352.63	35.17	-40.9	-42.0	21.8	0.00e+00	0	39	0	948961280	56	5761
2026-01-02 23:53:09.34	352.04	34.33	-40.5	-41.6	22.1	0.00e+00	0	39	0	956301312	54	6130
2026-01-02 23:53:13.38	351.49	33.51	-43.2	-44.7	19.5	0.00e+00	0	39	0	964689920	60	6241
2026-01-02 23:53:17.42	350.96	32.71	-42.3	-43.7	20.3	0.00e+00	0	39	0	972029952	58	6177
2026-01-02 23:53:21.46	350.46	31.92	-41.4	-42.6	21.4	0.00e+00	0	39	0	979369984	56	6139
2026-01-02 23:53:25.50	349.98	31.16	-41.8	-43.0	20.9	0.00e+00	0	39	0	986710016	56	6448
2026-01-02 23:53:29.54	349.53	30.41	-40.9	-42.0	21.9	0.00e+00	0	39	0	994050048	54	6397
2026-01-02 23:53:33.58	349.09	29.68	-44.0	-45.8	18.5	0.00e+00	0	39	0	1002438656	60	7036
2026-01-02 23:53:37.62	348.68	28.96	-43.9	-45.6	18.7	0.00e+00	0	39	0	1009778688	60	6864
2026-01-02 23:53:41.67	348.28	28.26	-42.8	-44.2	19.9	0.00e+00	0	39	0	1017118720	60	5860
2026-01-02 23:53:45.70	347.91	27.58	-42.6	-44.0	20.0	0.00e+00	0	39	0	1024458752	58	6391
2026-01-02 23:53:49.74	347.55	26.91	-41.5	-42.7	21.3	0.00e+00	0	39	0	1032847360	56	6198
2026-01-02 23:53:53.78	347.20	26.26	-41.7	-43.0	20.9	0.00e+00	0	39	0	1040187392	56	6439
2026-01-02 23:53:57.82	346.87	25.62	-42.2	-43.6	20.4	0.00e+00	0	39	0	1047527424	56	6887
2026-01-02 23:54:01.86	346.55	25.00	-42.6	-44.0	20.0	0.00e+00	0	39	0	1054867456	56	7223
2026-01-02 23:54:05.90	346.24	24.39	-41.1	-42.2	21.7	0.00e+00	0	39	0	1062207488	56	5853
2026-01-02 23:54:09.94	345.95	23.79	-40.6	-41.6	22.0	0.00e+00	0	39	0	1070596096	54	6163
2026-01-02 23:54:13.98	345.67	23.20	-40.8	-41.9	21.7	0.00e+00	0	39	0	1077936128	54	6359
2026-01-02 23:54:18.01	345.40	22.63	-41.2	-42.4	21.3	0.00e+00	0	39	0	1085276160	54	6749
2026-01-02 23:54:22.05	345.13	22.07	-40.6	-41.7	21.9	0.00e+00	0	39	0	1092616192	54	6232
2026-01-02 23:54:26.09	344.88	21.52	-41.1	-42.3	21.4	0.00e+00	0	39	0	1101004800	54	6651
2026-01-02 23:54:30.13	344.64	20.98	-41.3	-42.5	21.1	0.00e+00	0	39	0	1108344832	54	6842
2026-01-02 23:54:34.17	344.41	20.45	-41.6	-42.8	21.0	0.00e+00	0	39	0	1115684864	56	6296
2026-01-02 23:54:38.21	344.18	19.93	-40.9	-42.0	21.7	0.00e+00	0	39	0	1123024896	56	5759
2026-01-02 23:54:42.25	343.97	19.43	-40.5	-41.6	22.0	0.00e+00	0	39	0	1130364928	54	6135
2026-01-02 23:54:46.29	343.76	18.93	-40.5	-41.6	22.0	0.00e+00	0	39	0	1138753536	54	6126
2026-01-02 23:54:50.33	343.55	18.44	-40.4	-41.5	22.0	0.00e+00	0	39	0	1146093568	54	6068
2026-01-02 23:54:54.36	343.36	17.96	-40.2	-41.3	22.2	0.00e+00	0	39	0	1153433600	54	5899
2026-01-02 23:54:58.40	343.17	17.49	-40.5	-41.5	22.0	0.00e+00	0	39	0	1160773632	54	6089
2026-01-02 23:55:02.44	342.99	17.03	-41.1	-42.2	21.4	0.00e+00	0	39	0	1169162240	54	6606
2026-01-02 23:55:06.48	342.81	16.58	-41.3	-42.6	21.1	0.00e+00	0	39	0	1176502272	54	6868
2026-01-02 23:55:10.52	342.64	16.13	-41.2	-42.4	21.1	0.00e+00	0	39	0	1183842304	54	6756
2026-01-02 23:55:14.56	342.47	15.69	-41.2	-42.4	21.1	0.00e+00	0	39	0	1191182336	54	6769
2026-01-02 23:55:18.60	342.31	15.26	-41.1	-42.4	20.8	0.00e+00	0	39	0	1198522368	54	6699
2026-01-02 23:55:22.63	342.16	14.84	-41.7	-43.0	20.4	0.00e+00	0	39	0	1206910976	54	7236
2026-01-02 23:55:26.68	342.01	14.42	-42.4	-44.0	19.8	0.00e+00	0	39	0	1214251008	56	7179
2026-01-02 23:55:30.71	341.86	14.02	-42.6	-44.2	19.4	0.00e+00	0	39	0	1221591040	58	6607
2026-01-02 23:55:34.75	341.72	13.61	-43.0	-44.6	19.1	0.00e+00	0	39	0	1228931072	58	6885
2026-01-02 23:55:38.79	341.58	13.22	-42.5	-44.0	19.7	0.00e+00	0	39	0	1237319680	58	6422
2026-01-02 23:55:42.83	341.45	12.83	-41.9	-43.2	20.4	0.00e+00	0	39	0	1244659712	56	6564
2026-01-02 23:55:46.87	341.32	12.44	-41.5	-42.7	20.7	0.00e+00	0	39	0	1251999744	56	6223
2026-01-02 23:55:50.91	341.19	12.06	-40.9	-42.1	21.3	0.00e+00	0	39	0	1259339776	56	5788
2026-01-02 23:55:54.96	341.07	11.69	-40.8	-42.0	21.4	0.00e+00	0	39	0	1266679808	56	5731
2026-01-02 23:55:59.00	340.95	11.32	-40.7	-41.9	21.4	0.00e+00	0	39	0	1275068416	54	6323
2026-01-02 23:56:03.04	340.83	10.96	-41.1	-42.3	20.9	0.00e+00	0	39	0	1282408448	54	6689
2026-01-02 23:56:07.08	340.72	10.60	-41.7	-43.0	20.5	0.00e+00	0	39	0	1289748480	56	6413
2026-01-02 23:56:11.12	340.61	10.25	-41.7	-43.1	20.4	0.00e+00	0	39	0	1297088512	56	6470
2026-01-02 23:56:15.16	340.51	9.91	-42.0	-43.4	20.0	0.00e+00	0	39	0	1305477120	56	6756
2026-01-02 23:56:19.20	340.40	9.56	-42.3	-43.8	19.6	0.00e+00	0	39	0	1312817152	56	7040
2026-01-02 23:56:23.24	340.30	9.23	-42.6	-44.1	19.0	0.00e+00	0	39	0	1320157184	58	6514
2026-01-02 23:56:27.27	340.20	8.89	-42.9	-44.5	18.8	0.00e+00	0	39	0	1327497216	58	6799
2026-01-02 23:56:31.31	340.11	8.56	-43.2	-44.9	18.7	0.00e+00	0	39	0	1334837248	58	7120
2026-01-02 23:56:35.35	340.02	8.24	-43.1	-44.9	18.5	0.00e+00	0	39	0	1343225856	58	7092
2026-01-02 23:56:39.39	339.92	7.92	-43.0	-44.7	18.7	0.00e+00	0	39	0	1350565888	58	7007
2026-01-02 23:56:43.43	339.84	7.60	-43.3	-45.2	18.3	0.00e+00	0	39	0	1357905920	58	7373
2026-01-02 23:56:47.48	339.75	7.29	-43.0	-44.7	18.6	0.00e+00	0	39	0	1365245952	58	6984
2026-01-02 23:56:51.51	339.67	6.98	-43.3	-45.2	18.1	0.00e+00	0	39	0	1373634560	58	7349
2026-01-02 23:56:55.55	339.59	6.67	-43.6	-45.6	17.8	0.00e+00	0	39	0	1380974592	58	7685
2026-01-02 23:56:59.59	339.51	6.37	-43.3	-45.2	18.3	0.00e+00	0	39	0	1388314624	60	6552
2026-01-02 23:57:03.63	339.43	6.07	-43.2	-45.1	18.1	0.00e+00	0	39	0	1395654656	60	6507
2026-01-02 23:57:07.68	339.35	5.77	-43.5	-45.6	17.6	0.00e+00	0	39	0	1402994688	60	6859
2026-01-02 23:57:11.72	339.28	5.48	-43.9	-46.3	16.5	0.00e+00	0	39	0	1411383296	60	7449
2026-01-02 23:57:15.76	339.21	5.19	-44.4	-47.2	15.1	0.00e+00	0	39	0	1418723328	60	8307
2026-01-02 23:57:19.79	339.14	4.91	-45.0	-49.0	12.6	3.66e-05	0	39	0	1426063360	60	10214
2026-01-02 23:57:23.83	339.07	4.63	-45.2	-51.0	9.2	1.67e-02	0	39	0	1433403392	60	12802
2026-01-02 23:57:27.87	339.00	4.34	-45.6	-53.5	6.0	2.15e-01	0	39	0	1441792000	60	17025
2026-01-02 23:57:31.91	338.94	4.07	-45.5	-55.8	3.9	1.08e+00	67	39	0	1449132032	60	22249
2026-01-02 23:57:35.95	338.87	3.79	-45.4	-59.4	3.6	1.51e+00	0	39	104	1449132032	60	33600
2026-01-02 23:57:39.99	338.81	3.52	-45.4	-60.7	3.6	1.51e+00	0	39	104	1449132032	60	38966
2026-01-02 23:57:44.03	338.75	3.25	-45.5	-60.7	3.6	1.51e+00	0	39	104	1449132032	60	39145
2026-01-02 23:57:48.07	338.69	2.99	-45.6	-60.8	3.6	1.51e+00	0	39	104	1449132032	60	39636
2026-01-02 23:57:52.11	338.63	2.72	-50.1	-65.3	3.6	1.51e+00	0	39	104	1449132032	60	66764
2026-01-02 23:57:56.15	338.57	2.46	-50.3	-65.5	3.6	1.51e+00	0	39	104	1449132032	60	67990
2026-01-02 23:58:00.18	338.52	2.20	-50.1	-65.4	3.6	1.51e+00	0	39	104	1449132032	60	67109
2026-01-02 23:58:04.23	338.46	1.94	-50.2	-65.4	3.6	1.51e+00	0	40	104	1449132032	60	67424
2026-01-02 23:58:08.26	338.41	1.69	-50.1	-65.3	3.6	1.51e+00	0	39	104	1449132032	60	66874
2026-01-02 23:58:12.31	338.36	1.43	-50.2	-65.4	3.6	1.51e+00	0	39	104	1449132032	60	67463
2026-01-02 23:58:16.34	338.31	1.19	-50.1	-65.4	3.6	1.51e+00	0	39	104	1449132032	60	66965
2026-01-02 23:58:20.38	338.26	0.94	-50.2	-65.4	3.6	1.51e+00	0	39	104	1449132032	60	67302
2026-01-02 23:58:24.42	338.21	0.69	-50.1	-65.3	3.6	1.51e+00	0	39	104	1449132032	60	66900
2026-01-02 23:58:28.46	338.16	0.45	-50.1	-65.4	3.6	1.51e+00	0	39	104	1449132032	60	67101
2026-01-02 23:58:32.50	338.12	0.20	-50.2	-65.4	3.6	1.51e+00	0	39	104	1449132032	60	67230

#Closed at: 2026-01-02 23:58:36
#Recorded file [1449 MB]: D:/lorett/data/35029_260103_114315.dat