passes_logs/2026/01/02/R4.6S_Anadyr/R4.6S_Anadyr__20260102_145836_NOAA_21_JPSS-2_rec.log

#Pass ID: 20260102_145836_NOAA 21 (JPSS-2)
#Satellite: NOAA 21 (JPSS-2)
#Configuration: NOAA-21
#almurnet v.1.7.20251203
#Start time: 2026-01-02 14:58:38

#Version: 2.2.20231116
#Station: R4.6S_Anadyr
#Location: 177.4865 lon 64.73178 lat
#TLE: 1 54234U 22150A   26001.90243762  .00000172  00000+0  10253-3 0  9993
#TLE: 2 54234  98.7485 302.9615 0001242 351.7524   8.3631 14.19530907162956

#Time	Az	El	Level	Level2	SNR	BER	BlckErr	Temp	State	Recorded	gain1	gain2
2026-01-02 14:58:38.12	21.05	0.09	-49.5	-64.4	3.5	1.51e+00	0	36	0	0	60	60191
2026-01-02 14:58:42.15	21.03	0.33	-49.5	-62.4	3.5	1.52e+00	0	38	104	0	60	46151
2026-01-02 14:58:46.19	21.02	0.58	-49.5	-62.4	3.5	1.52e+00	0	38	104	0	60	46334
2026-01-02 14:58:50.23	21.01	0.83	-49.1	-62.0	3.5	1.52e+00	0	38	104	0	60	43991
2026-01-02 14:58:54.27	21.00	1.07	-48.2	-61.0	3.5	1.52e+00	0	38	104	0	60	39479
2026-01-02 14:58:58.30	20.98	1.32	-47.6	-60.4	3.5	1.52e+00	0	38	104	0	60	36781
2026-01-02 14:59:02.34	20.97	1.58	-47.6	-60.0	3.5	1.52e+00	0	38	104	0	60	35264
2026-01-02 14:59:06.38	20.96	1.83	-47.6	-60.3	3.5	1.52e+00	0	38	104	0	60	36248
2026-01-02 14:59:10.42	20.94	2.09	-47.6	-60.5	3.5	1.52e+00	0	38	104	0	60	37129
2026-01-02 14:59:14.46	20.93	2.35	-47.6	-60.4	3.5	1.51e+00	0	39	104	0	60	36637
2026-01-02 14:59:18.50	20.91	2.61	-47.5	-59.1	3.5	1.51e+00	0	39	104	0	60	31606
2026-01-02 14:59:22.54	20.89	2.87	-47.5	-59.1	3.5	1.51e+00	0	39	104	0	60	31805
2026-01-02 14:59:26.57	20.87	3.14	-46.5	-52.1	6.8	2.02e-01	122	39	0	1048576	60	14185
2026-01-02 14:59:30.61	20.86	3.41	-44.2	-47.1	12.6	3.75e-04	120	39	0	13631488	60	7932
2026-01-02 14:59:34.65	20.84	3.68	-44.3	-47.3	12.3	1.96e-04	122	39	0	26214400	60	8108
2026-01-02 14:59:38.69	20.82	3.96	-43.7	-46.2	13.1	2.36e-02	122	39	0	38797312	60	7207
2026-01-02 14:59:42.72	20.80	4.23	-39.8	-41.2	18.6	0.00e+00	121	39	0	41943040	54	5670
2026-01-02 14:59:46.76	20.78	4.51	-39.6	-41.0	19.1	0.00e+00	123	39	0	54525952	52	6248
2026-01-02 14:59:50.79	20.76	4.80	-38.5	-39.8	20.1	0.00e+00	120	39	0	67108864	50	6066
2026-01-02 14:59:54.83	20.73	5.08	-38.8	-40.0	20.0	0.00e+00	120	39	0	79691776	50	6252
2026-01-02 14:59:58.87	20.71	5.37	-38.6	-39.8	20.3	0.00e+00	121	39	0	92274688	50	6074
2026-01-02 15:00:02.91	20.69	5.66	-38.7	-39.9	20.4	0.00e+00	122	39	0	104857600	50	6135
2026-01-02 15:00:06.95	20.66	5.96	-38.5	-39.7	20.5	0.00e+00	120	39	0	117440512	50	6027
2026-01-02 15:00:10.99	20.63	6.26	-38.2	-39.4	20.8	0.00e+00	120	39	0	130023424	50	5795
2026-01-02 15:00:15.03	20.61	6.56	-38.1	-39.2	21.0	0.00e+00	122	39	0	142606336	50	5687
2026-01-02 15:00:19.07	20.58	6.87	-38.0	-39.1	21.0	0.00e+00	123	39	0	155189248	50	5658
2026-01-02 15:00:23.11	20.55	7.18	-37.9	-39.0	21.2	0.00e+00	123	39	0	167772160	50	5561
2026-01-02 15:00:27.15	20.52	7.49	-37.8	-38.9	21.3	0.00e+00	122	39	0	180355072	48	6163
2026-01-02 15:00:31.19	20.49	7.81	-37.7	-38.8	21.5	0.00e+00	123	39	0	192937984	48	6069
2026-01-02 15:00:35.23	20.46	8.13	-37.7	-38.7	21.6	0.00e+00	118	39	0	205520896	48	6058
2026-01-02 15:00:39.27	20.43	8.46	-37.5	-38.5	21.8	0.00e+00	123	39	0	218103808	48	5902
2026-01-02 15:00:43.30	20.39	8.79	-37.3	-38.4	21.9	0.00e+00	120	39	0	230686720	48	5811
2026-01-02 15:00:47.34	20.36	9.12	-37.3	-38.4	22.0	0.00e+00	120	39	0	243269632	48	5797
2026-01-02 15:00:51.39	20.32	9.46	-36.9	-37.9	22.3	0.00e+00	122	39	0	255852544	48	5520
2026-01-02 15:00:55.42	20.28	9.81	-37.0	-38.0	22.4	0.00e+00	122	39	0	268435456	48	5560
2026-01-02 15:00:59.46	20.24	10.15	-36.9	-38.0	22.3	0.00e+00	122	39	0	281018368	48	5531
2026-01-02 15:01:03.51	20.20	10.51	-36.6	-37.6	22.7	0.00e+00	120	39	0	293601280	46	5982
2026-01-02 15:01:07.54	20.16	10.87	-36.5	-37.5	22.7	0.00e+00	123	39	0	307232768	46	5917
2026-01-02 15:01:11.58	20.12	11.23	-36.5	-37.5	22.8	0.00e+00	122	39	0	319815680	46	5885
2026-01-02 15:01:15.62	20.07	11.60	-36.4	-37.4	23.0	0.00e+00	122	39	0	332398592	46	5793
2026-01-02 15:01:19.66	20.03	11.98	-36.4	-37.4	23.0	0.00e+00	123	39	0	344981504	46	5799
2026-01-02 15:01:23.70	19.98	12.36	-36.1	-37.1	23.2	0.00e+00	122	39	0	357564416	46	5632
2026-01-02 15:01:27.74	19.93	12.74	-36.1	-37.1	23.2	0.00e+00	122	39	0	370147328	46	5625
2026-01-02 15:01:31.78	19.88	13.14	-36.0	-37.0	23.4	0.00e+00	123	39	0	382730240	46	5531
2026-01-02 15:01:35.82	19.83	13.54	-36.0	-36.9	23.4	0.00e+00	122	39	0	395313152	46	5524
2026-01-02 15:01:39.86	19.77	13.94	-36.0	-37.0	23.4	0.00e+00	123	39	0	407896064	46	5535
2026-01-02 15:01:43.90	19.71	14.36	-36.0	-36.9	23.4	0.00e+00	123	39	0	420478976	46	5525
2026-01-02 15:01:47.94	19.65	14.78	-35.9	-36.9	23.5	0.00e+00	123	39	0	433061888	46	5473
2026-01-02 15:01:51.98	19.59	15.20	-36.0	-37.0	23.4	0.00e+00	123	39	0	445644800	46	5549
2026-01-02 15:01:56.02	19.53	15.64	-35.9	-36.9	23.5	0.00e+00	120	39	0	458227712	46	5486
2026-01-02 15:02:00.06	19.46	16.08	-36.1	-37.1	23.5	0.00e+00	122	39	0	470810624	46	5599
2026-01-02 15:02:04.10	19.39	16.53	-36.0	-36.9	23.5	0.00e+00	123	39	0	483393536	46	5516
2026-01-02 15:02:08.13	19.32	16.99	-36.0	-36.9	23.5	0.00e+00	122	39	0	495976448	46	5522
2026-01-02 15:02:12.17	19.25	17.46	-36.1	-37.1	23.3	0.00e+00	122	39	0	508559360	46	5606
2026-01-02 15:02:16.21	19.17	17.94	-36.0	-37.0	23.4	0.00e+00	123	39	0	521142272	46	5544
2026-01-02 15:02:20.25	19.09	18.42	-36.2	-37.1	23.3	0.00e+00	122	39	0	533725184	46	5654
2026-01-02 15:02:24.29	19.01	18.92	-36.0	-37.0	23.5	0.00e+00	122	39	0	546308096	46	5545
2026-01-02 15:02:28.33	18.92	19.43	-36.3	-37.2	23.2	0.00e+00	122	39	0	558891008	46	5707
2026-01-02 15:02:32.37	18.83	19.94	-35.9	-36.9	23.5	0.00e+00	123	39	0	571473920	46	5489
2026-01-02 15:02:36.41	18.74	20.47	-35.8	-36.7	23.8	0.00e+00	120	39	0	584056832	44	6028
2026-01-02 15:02:40.45	18.64	21.01	-35.6	-36.5	24.0	0.00e+00	120	39	0	596639744	44	5907
2026-01-02 15:02:44.49	18.54	21.56	-35.3	-36.2	24.2	0.00e+00	122	39	0	609222656	44	5680
2026-01-02 15:02:48.53	18.43	22.13	-35.1	-36.0	24.3	0.00e+00	123	40	0	621805568	44	5585
2026-01-02 15:02:52.57	18.32	22.70	-34.8	-35.6	24.6	0.00e+00	123	39	0	634388480	42	5991
2026-01-02 15:02:56.61	18.20	23.29	-34.8	-35.7	24.5	0.00e+00	123	40	0	648019968	42	6010
2026-01-02 15:03:00.65	18.08	23.89	-34.3	-35.2	24.8	0.00e+00	123	40	0	660602880	42	5705
2026-01-02 15:03:04.69	17.96	24.51	-34.4	-35.3	24.7	0.00e+00	122	40	0	673185792	42	5773
2026-01-02 15:03:08.73	17.83	25.14	-34.7	-35.6	24.5	0.00e+00	122	40	0	685768704	42	5981
2026-01-02 15:03:12.77	17.69	25.79	-35.0	-35.9	24.3	0.00e+00	123	40	0	698351616	42	6192
2026-01-02 15:03:16.81	17.54	26.45	-35.4	-36.3	24.0	0.00e+00	123	40	0	710934528	42	6494
2026-01-02 15:03:20.85	17.39	27.13	-35.7	-36.7	23.7	0.00e+00	122	40	0	723517440	44	6015
2026-01-02 15:03:24.89	17.23	27.82	-36.1	-37.0	23.6	0.00e+00	123	40	0	736100352	44	6253
2026-01-02 15:03:28.93	17.07	28.54	-36.2	-37.2	23.5	0.00e+00	123	40	0	748683264	44	6380
2026-01-02 15:03:32.97	16.89	29.27	-35.9	-36.8	23.7	0.00e+00	120	40	0	761266176	44	6108
2026-01-02 15:03:37.01	16.71	30.02	-35.4	-36.3	24.1	0.00e+00	123	40	0	773849088	44	5747
2026-01-02 15:03:41.05	16.52	30.79	-35.2	-36.1	24.0	0.00e+00	122	40	0	786432000	44	5608
2026-01-02 15:03:45.08	16.31	31.58	-35.2	-36.1	23.9	0.00e+00	122	40	0	799014912	44	5609
2026-01-02 15:03:49.12	16.10	32.39	-35.3	-36.2	23.9	0.00e+00	120	40	0	811597824	44	5705
2026-01-02 15:03:53.16	15.87	33.23	-35.4	-36.3	24.1	0.00e+00	123	40	0	824180736	44	5771
2026-01-02 15:03:57.20	15.63	34.09	-35.8	-36.7	23.9	0.00e+00	123	39	0	836763648	44	6043
2026-01-02 15:04:01.24	15.38	34.97	-36.4	-37.3	23.5	0.00e+00	123	39	0	849346560	44	6487
2026-01-02 15:04:05.28	15.11	35.88	-36.9	-37.9	23.0	0.00e+00	121	40	0	861929472	46	6160
2026-01-02 15:04:09.32	14.82	36.81	-37.1	-38.1	22.9	0.00e+00	122	39	0	874512384	46	6294
2026-01-02 15:04:13.36	14.52	37.77	-37.4	-38.4	22.7	0.00e+00	122	39	0	887095296	46	6509
2026-01-02 15:04:17.40	14.20	38.75	-37.1	-38.0	22.9	0.00e+00	122	39	0	899678208	46	6271
2026-01-02 15:04:21.44	13.85	39.77	-37.0	-38.0	22.9	0.00e+00	120	40	0	912261120	46	6215
2026-01-02 15:04:25.48	13.48	40.81	-37.1	-38.1	22.8	0.00e+00	123	39	0	924844032	46	6279
2026-01-02 15:04:29.52	13.09	41.89	-36.9	-37.8	23.2	0.00e+00	120	39	0	937426944	46	6103
2026-01-02 15:04:33.56	12.67	42.99	-37.6	-38.6	22.2	0.00e+00	120	39	0	950009856	46	6692
2026-01-02 15:04:37.60	12.21	44.12	-38.2	-39.3	21.6	0.00e+00	120	39	0	963641344	48	6435
2026-01-02 15:04:41.64	11.72	45.29	-38.8	-39.9	21.3	0.00e+00	123	39	0	976224256	50	6205
2026-01-02 15:04:45.68	11.20	46.49	-38.3	-39.3	21.6	0.00e+00	123	39	0	988807168	50	5789
2026-01-02 15:04:49.72	10.62	47.72	-37.6	-38.6	22.3	0.00e+00	123	39	0	1001390080	48	5988
2026-01-02 15:04:53.76	10.00	48.99	-37.1	-38.1	22.8	0.00e+00	122	39	0	1013972992	48	5622
2026-01-02 15:04:57.79	9.33	50.28	-37.7	-38.7	22.2	0.00e+00	122	39	0	1026555904	48	6049
2026-01-02 15:05:01.83	8.59	51.61	-37.3	-38.3	22.6	0.00e+00	123	39	0	1039138816	48	5756
2026-01-02 15:05:05.87	7.78	52.98	-36.8	-37.8	23.1	0.00e+00	122	39	0	1051721728	46	6070
2026-01-02 15:05:09.91	6.88	54.37	-36.5	-37.4	23.3	0.00e+00	123	39	0	1064304640	46	5824
2026-01-02 15:05:13.95	5.90	55.80	-36.0	-36.9	23.8	0.00e+00	123	39	0	1076887552	46	5488
2026-01-02 15:05:17.99	4.80	57.25	-35.3	-36.2	24.0	0.00e+00	123	39	0	1089470464	44	5715
2026-01-02 15:05:22.03	3.58	58.73	-35.3	-36.2	24.4	0.00e+00	120	39	0	1102053376	44	5673
2026-01-02 15:05:26.07	2.21	60.24	-34.6	-35.5	24.6	0.00e+00	123	39	0	1114636288	42	5866
2026-01-02 15:05:30.11	0.67	61.76	-34.3	-35.2	25.0	0.00e+00	122	39	0	1127219200	42	5700
2026-01-02 15:05:34.15	358.92	63.30	-34.3	-35.2	24.9	0.00e+00	120	39	0	1139802112	42	5696
2026-01-02 15:05:38.19	356.92	64.85	-34.4	-35.3	25.0	0.00e+00	123	39	0	1152385024	42	5766
2026-01-02 15:05:42.23	354.63	66.39	-34.2	-35.0	25.2	0.00e+00	122	39	0	1164967936	42	5579
2026-01-02 15:05:46.27	351.98	67.93	-34.7	-35.6	24.6	0.00e+00	122	39	0	1177550848	42	5955
2026-01-02 15:05:50.31	348.89	69.44	-33.9	-34.8	25.3	0.00e+00	120	39	0	1190133760	42	5406
2026-01-02 15:05:54.35	345.29	70.91	-33.7	-34.5	25.4	0.00e+00	122	39	0	1202716672	40	5922
2026-01-02 15:05:58.39	341.05	72.32	-34.0	-34.8	24.9	0.00e+00	123	39	0	1215299584	40	6118
2026-01-02 15:06:02.43	336.07	73.63	-33.6	-34.4	25.5	0.00e+00	123	39	0	1227882496	40	5839
2026-01-02 15:06:06.46	330.23	74.82	-33.7	-34.5	25.5	0.00e+00	123	39	0	1240465408	40	5895
2026-01-02 15:06:10.50	323.41	75.84	-34.3	-35.1	25.1	0.00e+00	122	39	0	1253048320	40	6344
2026-01-02 15:06:14.54	315.63	76.64	-34.1	-35.0	25.1	0.00e+00	122	39	0	1265631232	40	6250
2026-01-02 15:06:18.58	307.00	77.17	-33.8	-34.7	25.3	0.00e+00	123	39	0	1278214144	40	6013
2026-01-02 15:06:22.62	297.83	77.41	-34.5	-35.4	24.3	0.00e+00	122	39	0	1290797056	40	6531
2026-01-02 15:06:26.65	288.56	77.32	-34.3	-35.2	24.8	0.00e+00	122	39	0	1304428544	42	5670
2026-01-02 15:06:30.69	279.64	76.91	-34.4	-35.3	24.9	0.00e+00	122	39	0	1317011456	42	5751
2026-01-02 15:06:34.73	271.45	76.22	-34.4	-35.3	24.9	0.00e+00	123	39	0	1329594368	42	5752
2026-01-02 15:06:38.77	264.20	75.29	-33.8	-34.6	25.3	0.00e+00	123	39	0	1342177280	42	5312
2026-01-02 15:06:42.81	257.92	74.18	-33.4	-34.3	25.5	0.00e+00	123	39	0	1354760192	40	5741
2026-01-02 15:06:46.85	252.56	72.91	-33.8	-34.6	25.4	0.00e+00	123	39	0	1367343104	40	5990
2026-01-02 15:06:50.89	248.00	71.54	-34.8	-35.7	24.5	0.00e+00	122	39	0	1379926016	42	6058
2026-01-02 15:06:54.93	244.12	70.09	-34.1	-34.9	25.2	0.00e+00	120	39	0	1392508928	42	5527
2026-01-02 15:06:58.97	240.82	68.60	-33.6	-34.4	25.1	0.00e+00	120	39	0	1405091840	40	5824
2026-01-02 15:07:03.01	237.99	67.07	-35.4	-36.3	24.2	0.00e+00	120	39	0	1417674752	42	6467
2026-01-02 15:07:07.05	235.54	65.52	-34.1	-35.0	25.1	0.00e+00	123	39	0	1430257664	42	5569
2026-01-02 15:07:11.08	233.42	63.97	-35.2	-36.2	24.1	0.00e+00	122	39	0	1442840576	42	6351
2026-01-02 15:07:15.12	231.57	62.43	-33.6	-34.5	25.4	0.00e+00	123	39	0	1455423488	40	5870
2026-01-02 15:07:19.16	229.93	60.89	-35.5	-36.4	23.9	0.00e+00	122	39	0	1468006400	42	6560
2026-01-02 15:07:23.20	228.49	59.37	-34.5	-35.3	24.8	0.00e+00	122	39	0	1480589312	42	5762
2026-01-02 15:07:27.24	227.20	57.88	-37.3	-38.3	22.2	0.00e+00	122	39	0	1493172224	46	6474
2026-01-02 15:07:31.29	226.05	56.41	-35.2	-36.1	24.3	0.00e+00	123	39	0	1505755136	44	5605
2026-01-02 15:07:35.32	225.02	54.97	-36.2	-37.1	23.0	0.00e+00	122	39	0	1518338048	44	6333
2026-01-02 15:07:39.36	224.08	53.55	-36.7	-37.7	22.8	0.00e+00	123	39	0	1530920960	44	6787
2026-01-02 15:07:43.40	223.24	52.17	-36.5	-37.5	23.1	0.00e+00	122	39	0	1543503872	44	6581
2026-01-02 15:07:47.44	222.46	50.82	-38.1	-39.1	22.0	0.00e+00	122	39	0	1556086784	48	6340
2026-01-02 15:07:51.48	221.76	49.51	-36.5	-37.5	23.3	0.00e+00	123	39	0	1568669696	46	5865
2026-01-02 15:07:55.52	221.11	48.22	-37.7	-38.8	22.1	0.00e+00	123	39	0	1581252608	48	6070
2026-01-02 15:07:59.55	220.52	46.98	-37.8	-38.8	22.2	0.00e+00	123	39	0	1593835520	48	6094
2026-01-02 15:08:03.59	219.97	45.76	-37.2	-38.3	21.4	0.00e+00	120	39	0	1606418432	48	5728
2026-01-02 15:08:07.63	219.46	44.57	-37.4	-38.4	22.6	0.00e+00	120	39	0	1619001344	48	5806
2026-01-02 15:08:11.67	218.99	43.42	-38.1	-39.1	22.0	0.00e+00	123	39	0	1631584256	48	6309
2026-01-02 15:08:15.71	218.56	42.30	-37.6	-38.6	22.4	0.00e+00	122	39	0	1645215744	48	5968
2026-01-02 15:08:19.75	218.15	41.21	-38.8	-40.0	21.1	0.00e+00	123	39	0	1657798656	50	6231
2026-01-02 15:08:23.79	217.77	40.15	-37.0	-37.9	22.7	0.00e+00	123	39	0	1670381568	48	5519
2026-01-02 15:08:27.84	217.41	39.12	-37.6	-38.6	22.2	0.00e+00	123	39	0	1682964480	48	5957
2026-01-02 15:08:31.87	217.08	38.12	-38.0	-39.0	22.1	0.00e+00	122	39	0	1695547392	48	6242
2026-01-02 15:08:35.91	216.77	37.15	-38.1	-39.2	21.9	0.00e+00	120	39	0	1708130304	48	6359
2026-01-02 15:08:39.95	216.47	36.20	-36.8	-37.8	23.0	0.00e+00	121	39	0	1720713216	48	5427
2026-01-02 15:08:43.99	216.19	35.28	-36.5	-37.5	23.1	0.00e+00	123	39	0	1733296128	46	5892
2026-01-02 15:08:48.03	215.93	34.38	-37.0	-38.0	22.9	0.00e+00	123	39	0	1745879040	46	6229
2026-01-02 15:08:52.07	215.68	33.51	-36.7	-37.6	23.2	0.00e+00	123	39	0	1758461952	46	5975
2026-01-02 15:08:56.11	215.45	32.66	-36.9	-37.9	22.9	0.00e+00	123	39	0	1771044864	46	6154
2026-01-02 15:09:00.15	215.23	31.84	-36.3	-37.3	23.4	0.00e+00	122	39	0	1783627776	46	5749
2026-01-02 15:09:04.18	215.02	31.04	-35.6	-36.5	24.0	0.00e+00	122	39	0	1796210688	44	5883
2026-01-02 15:09:08.23	214.82	30.25	-35.0	-35.9	24.5	0.00e+00	122	39	0	1808793600	44	5480
2026-01-02 15:09:12.27	214.63	29.49	-34.8	-35.7	24.7	0.00e+00	123	39	0	1821376512	42	6009
2026-01-02 15:09:16.31	214.45	28.75	-34.9	-35.8	24.6	0.00e+00	123	39	0	1833959424	42	6105
2026-01-02 15:09:20.35	214.28	28.03	-35.4	-36.3	24.1	0.00e+00	122	39	0	1846542336	42	6470
2026-01-02 15:09:24.39	214.11	27.32	-35.5	-36.4	24.2	0.00e+00	123	39	0	1859125248	42	6515
2026-01-02 15:09:28.43	213.96	26.63	-35.3	-36.2	24.3	0.00e+00	122	39	0	1871708160	42	6369
2026-01-02 15:09:32.46	213.81	25.96	-35.2	-36.1	24.3	0.00e+00	122	39	0	1884291072	42	6304
2026-01-02 15:09:36.50	213.67	25.31	-35.3	-36.2	24.3	0.00e+00	122	39	0	1896873984	42	6351
2026-01-02 15:09:40.54	213.53	24.67	-35.6	-36.5	24.0	0.00e+00	123	39	0	1909456896	42	6612
2026-01-02 15:09:44.58	213.40	24.04	-35.8	-36.8	23.7	0.00e+00	120	39	0	1922039808	44	6071
2026-01-02 15:09:48.61	213.28	23.44	-35.7	-36.6	23.9	0.00e+00	127	39	0	1934622720	44	5981
2026-01-02 15:09:52.65	213.16	22.84	-35.4	-36.3	24.0	0.00e+00	120	39	0	1947205632	44	5788
2026-01-02 15:09:56.69	213.04	22.26	-35.1	-36.0	24.2	0.00e+00	123	39	0	1960837120	44	5582
2026-01-02 15:10:00.73	212.93	21.69	-34.8	-35.7	24.3	0.00e+00	123	39	0	1972371456	44	5399
2026-01-02 15:10:04.77	212.83	21.13	-34.7	-35.6	24.5	0.00e+00	123	39	0	1986002944	42	5993
2026-01-02 15:10:08.81	212.72	20.58	-34.8	-35.7	24.4	0.00e+00	123	39	0	1998585856	42	6037
2026-01-02 15:10:12.84	212.63	20.05	-34.7	-35.6	24.5	0.00e+00	122	39	0	2011168768	42	5945
2026-01-02 15:10:16.88	212.53	19.53	-34.8	-35.6	24.5	0.00e+00	123	39	0	2023751680	42	5980
2026-01-02 15:10:20.92	212.44	19.02	-34.9	-35.8	24.4	0.00e+00	122	39	0	2036334592	42	6093
2026-01-02 15:10:24.96	212.36	18.51	-35.1	-36.0	24.3	0.00e+00	123	39	0	2048917504	42	6263
2026-01-02 15:10:29.00	212.27	18.02	-35.2	-36.1	24.3	0.00e+00	122	39	0	2061500416	42	6304
2026-01-02 15:10:33.05	212.19	17.54	-35.3	-36.2	24.1	0.00e+00	123	39	0	2074083328	42	6395
2026-01-02 15:10:37.09	212.11	17.06	-35.6	-36.6	23.9	0.00e+00	120	39	0	2086666240	42	6654
2026-01-02 15:10:41.12	212.04	16.60	-35.8	-36.7	23.7	0.00e+00	123	39	0	2099249152	44	6031
2026-01-02 15:10:45.16	211.97	16.15	-36.1	-37.1	23.4	0.00e+00	122	39	0	2111832064	44	6283
2026-01-02 15:10:49.20	211.90	15.70	-36.2	-37.1	23.4	0.00e+00	121	39	0	2124414976	44	6317
2026-01-02 15:10:53.24	211.83	15.26	-36.2	-37.2	23.4	0.00e+00	120	39	0	2136997888	44	6368
2026-01-02 15:10:57.28	211.76	14.83	-36.4	-37.3	23.2	0.00e+00	123	39	0	2149580800	44	6497
2026-01-02 15:11:01.32	211.70	14.40	-36.3	-37.3	23.3	0.00e+00	122	39	0	2162163712	44	6448
2026-01-02 15:11:05.36	211.64	13.99	-36.7	-37.7	22.9	0.00e+00	123	39	0	2174746624	44	6730
2026-01-02 15:11:09.40	211.58	13.58	-36.6	-37.6	22.9	0.00e+00	123	39	0	2187329536	46	5935
2026-01-02 15:11:13.44	211.52	13.17	-36.7	-37.7	23.0	0.00e+00	122	39	0	2199912448	46	5997
2026-01-02 15:11:17.48	211.47	12.78	-36.7	-37.7	22.9	0.00e+00	122	39	0	2212495360	46	6027
2026-01-02 15:11:21.52	211.42	12.39	-36.7	-37.6	22.9	0.00e+00	122	40	0	2225078272	46	5989
2026-01-02 15:11:25.56	211.37	12.00	-36.6	-37.5	22.9	0.00e+00	123	39	0	2237661184	46	5925
2026-01-02 15:11:29.60	211.32	11.62	-36.6	-37.6	22.8	0.00e+00	123	39	0	2250244096	46	5957
2026-01-02 15:11:33.64	211.27	11.25	-36.7	-37.7	22.7	0.00e+00	123	39	0	2262827008	46	6020
2026-01-02 15:11:37.69	211.22	10.88	-36.7	-37.7	22.8	0.00e+00	123	39	0	2276458496	46	6001
2026-01-02 15:11:41.73	211.17	10.52	-36.8	-37.8	22.7	0.00e+00	123	39	0	2287992832	46	6066
2026-01-02 15:11:45.77	211.13	10.16	-36.9	-37.9	22.5	0.00e+00	122	39	0	2301624320	46	6173
2026-01-02 15:11:49.81	211.09	9.81	-36.9	-37.9	22.6	0.00e+00	123	39	0	2314207232	46	6170
2026-01-02 15:11:53.85	211.05	9.47	-37.1	-38.1	22.4	0.00e+00	123	39	0	2326790144	46	6294
2026-01-02 15:11:57.88	211.01	9.12	-37.1	-38.1	22.4	0.00e+00	122	39	0	2339373056	46	6312
2026-01-02 15:12:01.91	210.97	8.79	-37.2	-38.3	22.2	0.00e+00	120	40	0	2351955968	46	6431
2026-01-02 15:12:05.94	210.93	8.46	-37.6	-38.7	21.9	0.00e+00	122	39	0	2364538880	46	6727
2026-01-02 15:12:09.98	210.89	8.13	-37.4	-38.5	21.9	0.00e+00	122	39	0	2377121792	48	5881
2026-01-02 15:12:14.02	210.86	7.80	-37.7	-38.7	21.8	0.00e+00	123	39	0	2389704704	48	6027
2026-01-02 15:12:18.06	210.82	7.48	-37.7	-38.8	21.7	0.00e+00	123	39	0	2402287616	48	6109
2026-01-02 15:12:22.09	210.79	7.17	-38.0	-39.1	21.4	0.00e+00	122	40	0	2414870528	48	6278
2026-01-02 15:12:26.13	210.76	6.86	-38.1	-39.2	21.2	0.00e+00	123	39	0	2427453440	48	6381
2026-01-02 15:12:30.17	210.73	6.55	-38.3	-39.4	21.1	0.00e+00	120	40	0	2440036352	48	6524
2026-01-02 15:12:34.21	210.70	6.24	-38.4	-39.6	20.8	0.00e+00	120	40	0	2452619264	48	6667
2026-01-02 15:12:38.25	210.67	5.94	-38.4	-39.5	20.8	0.00e+00	123	40	0	2465202176	48	6637
2026-01-02 15:12:42.29	210.64	5.64	-38.6	-39.8	20.6	0.00e+00	123	40	0	2477785088	48	6810
2026-01-02 15:12:46.33	210.61	5.35	-38.8	-40.0	20.3	0.00e+00	122	40	0	2490368000	50	6218
2026-01-02 15:12:50.38	210.58	5.06	-39.0	-40.3	20.1	0.00e+00	120	40	0	2502950912	50	6437
2026-01-02 15:12:54.41	210.56	4.77	-39.0	-40.2	20.0	0.00e+00	122	39	0	2515533824	50	6416
2026-01-02 15:12:58.45	210.53	4.48	-39.2	-40.5	19.7	0.00e+00	123	39	0	2528116736	50	6579
2026-01-02 15:13:02.49	210.51	4.20	-39.7	-41.1	19.1	0.00e+00	120	40	0	2540699648	52	6282
2026-01-02 15:13:06.53	210.48	3.92	-39.5	-40.9	19.3	0.00e+00	121	40	0	2553282560	52	6143
2026-01-02 15:13:10.56	210.46	3.65	-40.1	-41.6	18.5	0.00e+00	120	40	0	2565865472	52	6663
2026-01-02 15:13:14.60	210.44	3.37	-40.0	-41.3	18.5	0.00e+00	123	40	0	2578448384	52	6498
2026-01-02 15:13:18.64	210.41	3.10	-40.5	-42.1	17.6	0.00e+00	122	40	0	2591031296	54	6285
2026-01-02 15:13:22.68	210.39	2.83	-49.0	-61.9	3.5	1.52e+00	0	40	104	2598371328	60	43754
2026-01-02 15:13:26.72	210.37	2.57	-49.5	-62.4	3.5	1.52e+00	0	40	104	2598371328	60	46436
2026-01-02 15:13:30.76	210.35	2.30	-49.5	-62.4	3.6	1.52e+00	0	40	104	2598371328	60	46248
2026-01-02 15:13:34.79	210.33	2.04	-49.5	-62.3	3.5	1.52e+00	0	40	104	2598371328	60	45778
2026-01-02 15:13:38.83	210.31	1.78	-49.5	-62.3	3.5	1.52e+00	0	40	104	2598371328	60	45917
2026-01-02 15:13:42.87	210.29	1.53	-49.5	-62.3	3.5	1.52e+00	0	40	104	2598371328	60	45981
2026-01-02 15:13:46.91	210.27	1.27	-49.4	-62.3	3.5	1.52e+00	0	40	104	2598371328	60	45852
2026-01-02 15:13:50.94	210.26	1.02	-49.5	-62.3	3.5	1.52e+00	0	40	104	2598371328	60	45806
2026-01-02 15:13:54.98	210.24	0.77	-49.4	-62.4	3.5	1.52e+00	0	40	104	2598371328	60	46195
2026-01-02 15:13:59.02	210.22	0.53	-49.4	-62.3	3.5	1.52e+00	0	40	104	2598371328	60	45741
2026-01-02 15:14:03.06	210.21	0.28	-49.4	-62.3	3.5	1.52e+00	0	40	104	2598371328	60	45863
2026-01-02 15:14:07.10	210.19	0.04	-49.4	-62.3	3.5	1.52e+00	0	40	104	2598371328	60	45867

#Closed at: 2026-01-02 15:14:10
#Recorded file [2598 MB]: D:/lorett/data/35029_260103_025838.dat