passes_logs/2026/01/02/R4.6S_Anadyr/R4.6S_Anadyr__20260102_033845_AQUA_rec.log

#Pass ID: 20260102_033845_AQUA
#Satellite: AQUA
#Configuration: AQUA
#almurnet v.1.7.20251203
#Start time: 2026-01-02 03:38:46

#Version: 2.2.20231116
#Station: R4.6S_Anadyr
#Location: 177.4865 lon 64.73178 lat
#TLE: 1 27424U 02022A   25365.92641127  .00002078  00000+0  42628-3 0  9999
#TLE: 2 27424  98.4058 327.1196 0001962  94.7781 340.6230 14.61783896258835

#Time	Az	El	Level	Level2	SNR	BER	BlckErr	Temp	State	Recorded	gain1	gain2
2026-01-02 03:38:46.27	203.08	0.06	-49.2	-64.2	3.5	1.51e+00	0	36	0	0	60	58429
2026-01-02 03:38:50.31	203.34	0.29	-49.4	-67.3	3.5	3.02e+01	0	37	104	0	60	89220
2026-01-02 03:38:54.34	203.60	0.51	-49.4	-67.3	3.5	3.02e+01	0	38	104	0	60	88966
2026-01-02 03:38:58.38	203.87	0.74	-49.2	-67.0	3.5	3.02e+01	0	38	104	0	60	86192
2026-01-02 03:39:02.42	204.15	0.97	-48.4	-66.2	3.5	3.02e+01	0	38	104	0	60	78839
2026-01-02 03:39:06.46	204.42	1.20	-48.1	-65.8	3.5	3.02e+01	0	38	104	0	60	75447
2026-01-02 03:39:10.50	204.71	1.43	-48.1	-65.4	3.5	3.02e+01	0	38	104	0	60	71964
2026-01-02 03:39:14.54	204.99	1.66	-48.1	-65.6	3.5	3.02e+01	0	38	104	0	60	73738
2026-01-02 03:39:18.58	205.29	1.90	-48.0	-65.7	3.5	3.02e+01	0	38	104	0	60	74103
2026-01-02 03:39:22.61	205.58	2.14	-48.1	-65.8	3.5	3.02e+01	0	38	104	0	60	75413
2026-01-02 03:39:26.65	205.88	2.37	-48.0	-65.7	3.5	3.02e+01	0	38	104	0	60	74273
2026-01-02 03:39:30.69	206.19	2.61	-48.0	-65.4	3.5	3.02e+01	0	38	104	0	60	71917
2026-01-02 03:39:34.73	206.50	2.86	-47.7	-58.2	6.4	3.02e+01	90	38	0	0	60	31415
2026-01-02 03:39:38.77	206.82	3.10	-47.5	-57.3	8.5	3.02e+01	90	38	104	2621440	60	28271
2026-01-02 03:39:42.81	207.14	3.34	-42.8	-45.3	20.1	3.02e+01	92	38	0	9437184	60	7097
2026-01-02 03:39:46.84	207.47	3.59	-39.7	-41.4	23.8	3.02e+01	91	38	0	14680064	54	6412
2026-01-02 03:39:50.88	207.81	3.84	-40.9	-42.8	22.9	3.02e+01	90	38	0	22544384	56	6698
2026-01-02 03:39:54.92	208.15	4.09	-39.9	-41.6	24.0	3.02e+01	91	38	0	29884416	54	6522
2026-01-02 03:39:58.95	208.49	4.34	-39.1	-40.7	24.9	3.02e+01	91	38	0	37748736	52	6582
2026-01-02 03:40:02.99	208.85	4.60	-38.7	-40.2	25.3	3.02e+01	92	38	0	45088768	52	6264
2026-01-02 03:40:07.03	209.21	4.85	-38.7	-40.2	25.4	3.02e+01	90	38	0	52428800	52	6206
2026-01-02 03:40:11.06	209.57	5.11	-38.5	-40.0	25.6	3.02e+01	92	38	0	60293120	52	6095
2026-01-02 03:40:15.10	209.94	5.37	-38.4	-39.9	25.8	3.02e+01	92	38	0	67633152	52	6016
2026-01-02 03:40:19.14	210.32	5.63	-38.1	-39.6	26.1	3.02e+01	92	38	0	75497472	52	5803
2026-01-02 03:40:23.17	210.71	5.89	-38.3	-39.7	26.0	3.02e+01	92	38	0	82837504	52	5895
2026-01-02 03:40:27.21	211.11	6.16	-37.9	-39.3	26.3	3.02e+01	92	38	0	90701824	50	6336
2026-01-02 03:40:31.25	211.51	6.43	-38.0	-39.4	26.3	3.02e+01	90	38	0	98041856	50	6373
2026-01-02 03:40:35.28	211.92	6.70	-37.9	-39.3	26.4	3.02e+01	92	38	0	105906176	50	6307
2026-01-02 03:40:39.32	212.34	6.97	-37.7	-39.0	26.7	3.02e+01	92	38	0	113246208	50	6112
2026-01-02 03:40:43.36	212.76	7.24	-38.2	-39.6	26.2	3.02e+01	92	38	0	120586240	50	6510
2026-01-02 03:40:47.40	213.20	7.52	-37.6	-38.9	26.8	3.02e+01	90	38	0	128450560	50	6062
2026-01-02 03:40:51.43	213.64	7.79	-37.6	-39.0	26.8	3.02e+01	92	38	0	135790592	50	6065
2026-01-02 03:40:55.47	214.09	8.07	-37.5	-38.9	26.9	3.02e+01	92	38	0	143654912	50	6006
2026-01-02 03:40:59.51	214.56	8.35	-37.2	-38.5	27.3	3.02e+01	92	38	0	150994944	50	5757
2026-01-02 03:41:03.54	215.03	8.64	-37.2	-38.6	27.2	3.02e+01	92	38	0	158859264	50	5807
2026-01-02 03:41:07.58	215.51	8.92	-37.1	-38.5	27.3	3.02e+01	90	38	0	166199296	50	5726
2026-01-02 03:41:11.62	216.00	9.21	-36.9	-38.3	27.5	3.02e+01	92	38	0	173539328	48	6291
2026-01-02 03:41:15.66	216.50	9.50	-37.0	-38.3	27.5	3.02e+01	92	38	0	181403648	48	6288
2026-01-02 03:41:19.70	217.01	9.79	-36.9	-38.2	27.5	3.02e+01	92	38	0	188743680	48	6254
2026-01-02 03:41:23.73	217.53	10.08	-36.8	-38.1	27.6	3.02e+01	90	38	0	196608000	48	6199
2026-01-02 03:41:27.77	218.07	10.38	-36.8	-38.1	27.7	3.02e+01	92	38	0	203948032	48	6138
2026-01-02 03:41:31.80	218.61	10.68	-36.8	-38.1	27.8	3.02e+01	92	38	0	211812352	48	6139
2026-01-02 03:41:35.83	219.17	10.98	-36.8	-38.1	27.8	3.02e+01	89	38	0	219152384	48	6160
2026-01-02 03:41:39.87	219.73	11.28	-36.6	-37.9	27.9	3.02e+01	91	38	0	226492416	48	6029
2026-01-02 03:41:43.91	220.32	11.58	-36.6	-37.9	27.9	3.02e+01	92	38	0	234356736	48	6016
2026-01-02 03:41:47.95	220.91	11.88	-36.6	-37.9	28.0	3.02e+01	92	38	0	241696768	48	5997
2026-01-02 03:41:51.99	221.52	12.19	-36.3	-37.6	28.3	3.02e+01	91	38	0	249561088	48	5823
2026-01-02 03:41:56.02	222.13	12.50	-36.4	-37.7	28.2	3.02e+01	90	37	0	256901120	48	5859
2026-01-02 03:42:00.06	222.77	12.80	-36.4	-37.6	28.3	3.02e+01	90	38	0	264765440	48	5844
2026-01-02 03:42:04.10	223.42	13.11	-36.3	-37.6	28.3	3.02e+01	90	38	0	272105472	48	5811
2026-01-02 03:42:08.14	224.08	13.43	-36.2	-37.4	28.4	3.02e+01	92	38	0	279969792	48	5702
2026-01-02 03:42:12.17	224.75	13.74	-36.1	-37.3	28.5	3.02e+01	90	38	0	287309824	46	6321
2026-01-02 03:42:16.21	225.44	14.05	-35.9	-37.2	28.7	3.02e+01	90	38	0	294649856	46	6219
2026-01-02 03:42:20.24	226.15	14.36	-36.0	-37.2	28.7	3.02e+01	92	38	0	302514176	46	6242
2026-01-02 03:42:24.29	226.87	14.68	-35.9	-37.1	28.8	3.02e+01	91	38	0	309854208	46	6200
2026-01-02 03:42:28.32	227.61	14.99	-36.0	-37.2	28.7	3.02e+01	91	38	0	317718528	46	6231
2026-01-02 03:42:32.36	228.36	15.31	-35.8	-37.1	28.7	3.02e+01	92	38	0	325058560	46	6148
2026-01-02 03:42:36.40	229.14	15.62	-35.9	-37.1	28.8	3.02e+01	92	38	0	332922880	46	6184
2026-01-02 03:42:40.44	229.92	15.94	-35.9	-37.1	28.8	3.02e+01	92	38	0	340262912	46	6147
2026-01-02 03:42:44.48	230.73	16.25	-36.0	-37.2	28.7	3.02e+01	92	38	0	347602944	46	6252
2026-01-02 03:42:48.51	231.55	16.57	-35.6	-36.9	29.1	3.02e+01	92	38	0	355467264	46	6005
2026-01-02 03:42:52.55	232.39	16.88	-35.7	-36.9	29.0	3.02e+01	91	38	0	362807296	46	6044
2026-01-02 03:42:56.59	233.25	17.19	-35.7	-36.9	29.0	3.02e+01	92	38	0	370671616	46	6028
2026-01-02 03:43:00.63	234.13	17.50	-35.9	-37.2	28.8	3.02e+01	92	38	0	378011648	46	6212
2026-01-02 03:43:04.66	235.03	17.81	-36.0	-37.2	28.7	3.02e+01	92	38	0	385875968	46	6233
2026-01-02 03:43:08.70	235.94	18.11	-35.6	-36.8	29.1	3.02e+01	92	38	0	393216000	46	5966
2026-01-02 03:43:12.74	236.88	18.41	-35.7	-37.0	28.9	3.02e+01	92	38	0	401080320	46	6069
2026-01-02 03:43:16.78	237.83	18.71	-35.7	-36.9	29.1	3.02e+01	92	38	0	408420352	46	6054
2026-01-02 03:43:20.82	238.80	19.01	-35.7	-36.9	29.0	3.02e+01	90	38	0	415760384	46	6056
2026-01-02 03:43:24.85	239.79	19.30	-35.6	-36.8	29.1	3.02e+01	90	38	0	423624704	46	5992
2026-01-02 03:43:28.89	240.81	19.58	-36.1	-37.3	28.8	3.02e+01	92	38	0	430964736	46	6343
2026-01-02 03:43:32.92	241.84	19.86	-35.9	-37.1	28.8	3.02e+01	92	37	0	438829056	46	6181
2026-01-02 03:43:36.96	242.89	20.14	-35.8	-37.0	29.0	3.02e+01	92	38	0	446169088	46	6096
2026-01-02 03:43:41.00	243.96	20.41	-35.9	-37.1	28.9	3.02e+01	91	37	0	454033408	46	6203
2026-01-02 03:43:45.04	245.05	20.67	-35.9	-37.2	28.8	3.02e+01	91	38	0	461373440	46	6235
2026-01-02 03:43:49.07	246.15	20.93	-36.3	-37.5	28.6	3.02e+01	92	37	0	469237760	46	6461
2026-01-02 03:43:53.12	247.29	21.18	-35.8	-37.0	29.0	3.02e+01	90	38	0	476577792	46	6134
2026-01-02 03:43:57.16	248.43	21.42	-36.0	-37.2	28.8	3.02e+01	92	37	0	483917824	46	6232
2026-01-02 03:44:01.20	249.60	21.65	-35.9	-37.1	28.9	3.02e+01	90	37	0	491782144	46	6184
2026-01-02 03:44:05.23	250.77	21.87	-36.0	-37.3	28.8	3.02e+01	92	38	0	499122176	46	6315
2026-01-02 03:44:09.27	251.97	22.08	-36.0	-37.2	28.8	3.02e+01	92	38	0	506986496	46	6275
2026-01-02 03:44:13.31	253.19	22.28	-36.0	-37.2	28.9	3.02e+01	92	38	0	514326528	46	6244
2026-01-02 03:44:17.35	254.42	22.47	-36.2	-37.4	28.7	3.02e+01	90	37	0	522190848	46	6395
2026-01-02 03:44:21.39	255.67	22.65	-36.1	-37.4	28.7	3.02e+01	90	38	0	529530880	46	6368
2026-01-02 03:44:25.43	256.93	22.82	-36.1	-37.3	28.8	3.02e+01	90	37	0	537395200	46	6317
2026-01-02 03:44:29.46	258.20	22.97	-35.9	-37.2	28.9	3.02e+01	92	37	0	544735232	46	6221
2026-01-02 03:44:33.50	259.48	23.11	-36.2	-37.4	28.6	3.02e+01	92	37	0	552075264	46	6377
2026-01-02 03:44:37.54	260.78	23.24	-36.0	-37.3	28.8	3.02e+01	90	37	0	559939584	46	6285
2026-01-02 03:44:41.58	262.09	23.35	-36.1	-37.3	28.7	3.02e+01	90	38	0	567279616	46	6315
2026-01-02 03:44:45.62	263.40	23.45	-36.1	-37.3	28.7	3.02e+01	90	37	0	575143936	46	6344
2026-01-02 03:44:49.65	264.72	23.53	-36.0	-37.2	28.8	3.02e+01	92	37	0	582483968	46	6231
2026-01-02 03:44:53.69	266.05	23.60	-36.1	-37.3	28.7	3.02e+01	92	37	0	590348288	46	6331
2026-01-02 03:44:57.72	267.38	23.65	-36.0	-37.3	28.8	3.02e+01	91	37	0	597688320	46	6290
2026-01-02 03:45:01.76	268.72	23.69	-35.8	-37.0	29.0	3.02e+01	92	38	0	605552640	46	6133
2026-01-02 03:45:05.79	270.06	23.71	-35.9	-37.1	28.9	3.02e+01	87	37	0	612892672	46	6151
2026-01-02 03:45:09.83	271.40	23.72	-36.2	-37.5	28.6	3.02e+01	92	37	0	620232704	46	6450
2026-01-02 03:45:13.87	272.75	23.71	-35.9	-37.1	28.9	3.02e+01	92	37	0	628097024	46	6193
2026-01-02 03:45:17.91	274.09	23.69	-35.8	-37.1	28.9	3.02e+01	92	37	0	635437056	46	6136
2026-01-02 03:45:21.94	275.42	23.65	-36.0	-37.2	28.7	3.02e+01	92	37	0	643301376	46	6229
2026-01-02 03:45:25.98	276.75	23.59	-36.2	-37.4	28.7	3.02e+01	89	37	0	650641408	46	6394
2026-01-02 03:45:30.02	278.08	23.52	-35.9	-37.1	28.9	3.02e+01	88	37	0	658505728	46	6176
2026-01-02 03:45:34.06	279.40	23.44	-35.7	-36.9	29.0	3.02e+01	90	37	0	665845760	46	6044
2026-01-02 03:45:38.09	280.71	23.34	-35.5	-36.7	29.2	3.02e+01	91	37	0	673185792	46	5911
2026-01-02 03:45:42.13	282.02	23.22	-35.6	-36.8	29.1	3.02e+01	91	37	0	681050112	46	5943
2026-01-02 03:45:46.17	283.31	23.10	-35.6	-36.8	29.2	3.02e+01	62	37	0	688390144	46	5943
2026-01-02 03:45:50.21	284.59	22.95	-35.7	-36.9	29.0	3.02e+01	55	37	0	696254464	46	6040
2026-01-02 03:45:54.25	285.86	22.80	-35.6	-36.8	29.1	3.02e+01	59	38	0	703594496	46	5985
2026-01-02 03:45:58.28	287.11	22.63	-36.0	-37.2	28.9	3.02e+01	63	37	0	711458816	46	6274
2026-01-02 03:46:02.32	288.35	22.45	-35.4	-36.6	29.4	3.02e+01	61	37	0	718798848	46	5800
2026-01-02 03:46:06.36	289.58	22.26	-35.4	-36.6	29.3	3.02e+01	43	37	0	726663168	46	5823
2026-01-02 03:46:10.40	290.79	22.06	-35.3	-36.5	29.4	3.02e+01	57	37	0	734003200	46	5786
2026-01-02 03:46:14.43	291.98	21.85	-35.6	-36.8	29.2	3.02e+01	50	37	0	741343232	46	5960
2026-01-02 03:46:18.47	293.15	21.63	-35.2	-36.4	29.4	3.02e+01	61	37	0	749207552	46	5687
2026-01-02 03:46:22.51	294.31	21.40	-35.2	-36.4	29.6	3.02e+01	46	37	0	756547584	46	5664
2026-01-02 03:46:26.55	295.45	21.16	-35.5	-36.7	29.1	3.02e+01	61	37	0	764411904	46	5920
2026-01-02 03:46:30.59	296.58	20.91	-35.2	-36.4	29.5	3.02e+01	50	37	0	771751936	46	5670
2026-01-02 03:46:34.62	297.68	20.66	-35.3	-36.5	29.4	3.02e+01	57	37	0	779616256	46	5761
2026-01-02 03:46:38.66	298.76	20.39	-35.2	-36.4	29.5	3.02e+01	49	37	0	786956288	46	5713
2026-01-02 03:46:42.70	299.82	20.12	-35.3	-36.5	29.4	3.02e+01	60	38	0	794820608	46	5750
2026-01-02 03:46:46.73	300.87	19.85	-35.2	-36.4	29.4	3.02e+01	46	37	0	802160640	46	5706
2026-01-02 03:46:50.77	301.89	19.57	-35.0	-36.2	29.6	3.02e+01	58	37	0	809500672	44	6262
2026-01-02 03:46:54.81	302.90	19.28	-35.0	-36.2	29.6	3.02e+01	59	37	0	817364992	44	6266
2026-01-02 03:46:58.84	303.88	19.00	-35.0	-36.2	29.6	3.02e+01	58	38	0	824705024	44	6244
2026-01-02 03:47:02.88	304.85	18.70	-34.9	-36.2	29.6	3.02e+01	60	37	0	832569344	44	6208
2026-01-02 03:47:06.91	305.80	18.41	-35.0	-36.2	29.6	3.02e+01	63	37	0	839909376	44	6229
2026-01-02 03:47:10.95	306.73	18.10	-35.0	-36.3	29.6	3.02e+01	61	37	0	847773696	44	6278
2026-01-02 03:47:14.99	307.64	17.80	-35.1	-36.4	29.5	3.02e+01	58	38	0	855113728	44	6357
2026-01-02 03:47:19.03	308.53	17.50	-34.9	-36.1	29.6	3.02e+01	59	38	0	862453760	44	6189
2026-01-02 03:47:23.06	309.40	17.19	-34.9	-36.1	29.6	3.02e+01	57	37	0	870318080	44	6155
2026-01-02 03:47:27.10	310.25	16.88	-34.9	-36.1	29.6	3.02e+01	59	37	0	877658112	44	6199
2026-01-02 03:47:31.14	311.09	16.57	-34.9	-36.1	29.6	3.02e+01	58	38	0	885522432	44	6176
2026-01-02 03:47:35.18	311.91	16.26	-35.0	-36.2	29.6	3.02e+01	60	38	0	892862464	44	6220
2026-01-02 03:47:39.22	312.71	15.95	-35.1	-36.3	29.5	3.02e+01	61	38	0	900726784	44	6280
2026-01-02 03:47:43.26	313.49	15.63	-35.0	-36.1	29.6	3.02e+01	57	38	0	908066816	44	6203
2026-01-02 03:47:47.30	314.26	15.32	-35.2	-36.4	29.3	3.02e+01	61	37	0	915931136	44	6422
2026-01-02 03:47:51.33	315.01	15.01	-35.1	-36.3	29.4	3.02e+01	57	37	0	923271168	44	6319
2026-01-02 03:47:55.37	315.74	14.70	-35.3	-36.5	29.4	3.02e+01	55	37	0	930611200	44	6450
2026-01-02 03:47:59.41	316.46	14.39	-35.2	-36.4	29.3	3.02e+01	61	37	0	938475520	44	6397
2026-01-02 03:48:03.44	317.16	14.07	-35.4	-36.6	29.2	3.02e+01	56	37	0	945815552	44	6526
2026-01-02 03:48:07.48	317.85	13.76	-35.2	-36.4	29.3	3.02e+01	60	38	0	953679872	44	6393
2026-01-02 03:48:11.51	318.52	13.46	-35.4	-36.6	29.2	3.02e+01	47	38	0	961019904	44	6548
2026-01-02 03:48:15.55	319.18	13.15	-35.3	-36.5	29.2	3.02e+01	58	37	0	968884224	44	6445
2026-01-02 03:48:19.58	319.82	12.84	-35.3	-36.5	29.1	3.02e+01	59	38	0	976224256	44	6496
2026-01-02 03:48:23.62	320.45	12.53	-35.3	-36.6	29.1	3.02e+01	59	37	0	983564288	44	6509
2026-01-02 03:48:27.66	321.07	12.23	-35.5	-36.7	29.1	3.02e+01	58	38	0	991428608	44	6611
2026-01-02 03:48:31.70	321.67	11.93	-35.4	-36.6	29.0	3.02e+01	58	38	0	998768640	44	6550
2026-01-02 03:48:35.73	322.26	11.62	-35.8	-37.0	28.7	3.02e+01	59	37	0	1006632960	44	6833
2026-01-02 03:48:39.77	322.84	11.32	-35.7	-36.9	28.8	3.02e+01	59	38	0	1013972992	44	6770
2026-01-02 03:48:43.80	323.41	11.03	-35.9	-37.1	28.6	3.02e+01	44	37	0	1021837312	46	6171
2026-01-02 03:48:47.84	323.96	10.73	-35.9	-37.1	28.5	3.02e+01	61	37	0	1029177344	46	6195
2026-01-02 03:48:51.88	324.51	10.43	-36.2	-37.5	28.3	3.02e+01	48	37	0	1037041664	46	6441
2026-01-02 03:48:55.92	325.04	10.14	-36.2	-37.5	28.3	3.02e+01	59	37	0	1044381696	46	6450
2026-01-02 03:48:59.95	325.56	9.85	-36.1	-37.3	28.4	3.02e+01	50	38	0	1051721728	46	6342
2026-01-02 03:49:03.99	326.07	9.56	-36.1	-37.4	28.4	3.02e+01	60	38	0	1059586048	46	6364
2026-01-02 03:49:08.02	326.57	9.28	-36.2	-37.4	28.2	3.02e+01	47	38	0	1066926080	46	6407
2026-01-02 03:49:12.05	327.05	8.99	-36.4	-37.6	28.1	3.02e+01	60	37	0	1074790400	46	6560
2026-01-02 03:49:16.09	327.54	8.71	-36.7	-38.0	27.7	3.02e+01	45	37	0	1082130432	46	6828
2026-01-02 03:49:20.12	328.00	8.43	-36.5	-37.8	27.8	3.02e+01	59	37	0	1089470464	46	6705
2026-01-02 03:49:24.16	328.47	8.15	-36.6	-38.0	27.6	3.02e+01	63	37	0	1097334784	46	6806
2026-01-02 03:49:28.20	328.92	7.87	-36.5	-37.8	3.1	3.02e+01	58	38	0	1104674816	46	6715
2026-01-02 03:49:32.24	329.36	7.59	-37.8	-47.9	3.6	3.02e+01	0	38	104	1104674816	50	17034
2026-01-02 03:49:36.28	329.80	7.32	-40.5	-51.0	3.6	3.02e+01	0	38	104	1104674816	54	19332
2026-01-02 03:49:40.31	330.22	7.05	-38.9	-49.1	3.6	3.02e+01	0	38	104	1104674816	52	17449
2026-01-02 03:49:44.34	330.64	6.78	-46.5	-59.7	4.0	3.02e+01	0	38	104	1104674816	60	37277
2026-01-02 03:49:48.38	331.05	6.51	-38.1	-48.3	4.0	3.02e+01	0	37	104	1104674816	50	17875
2026-01-02 03:49:52.42	331.45	6.25	-47.5	-62.5	3.5	3.02e+01	0	37	104	1104674816	60	51612
2026-01-02 03:49:56.46	331.85	5.99	-38.6	-49.1	3.5	3.02e+01	0	38	104	1104674816	52	17314
2026-01-02 03:50:00.50	332.23	5.72	-38.7	-49.3	3.5	3.02e+01	0	38	104	1104674816	54	15818
2026-01-02 03:50:04.53	332.61	5.47	-41.9	-53.0	3.5	3.02e+01	0	38	104	1104674816	58	19309
2026-01-02 03:50:08.57	332.99	5.21	-45.3	-58.5	3.5	3.02e+01	0	38	104	1104674816	60	32434
2026-01-02 03:50:12.60	333.35	4.95	-42.8	-55.0	3.5	3.02e+01	0	38	104	1104674816	60	21666
2026-01-02 03:50:16.64	333.72	4.70	-43.8	-58.0	3.5	3.02e+01	0	38	104	1104674816	60	30650
2026-01-02 03:50:20.68	334.07	4.45	-44.3	-60.4	3.5	3.02e+01	0	38	104	1104674816	60	40362
2026-01-02 03:50:24.71	334.42	4.20	-44.5	-61.5	3.5	3.02e+01	0	38	104	1104674816	60	45759
2026-01-02 03:50:28.74	334.76	3.95	-44.5	-62.3	3.5	3.02e+01	0	38	104	1104674816	60	50396
2026-01-02 03:50:32.77	335.09	3.70	-44.5	-62.4	3.5	3.02e+01	0	38	104	1104674816	60	50542
2026-01-02 03:50:36.81	335.42	3.46	-44.4	-62.3	3.5	3.02e+01	0	38	104	1104674816	60	50116
2026-01-02 03:50:40.84	335.75	3.22	-44.4	-62.3	3.5	3.02e+01	0	38	104	1104674816	60	50151
2026-01-02 03:50:44.87	336.07	2.97	-44.7	-62.5	3.5	3.02e+01	0	38	104	1104674816	60	51524
2026-01-02 03:50:48.91	336.38	2.73	-49.1	-67.1	3.5	3.02e+01	0	38	104	1104674816	60	87121
2026-01-02 03:50:52.96	336.69	2.50	-49.1	-67.3	3.5	3.02e+01	0	37	104	1104674816	60	88693
2026-01-02 03:50:56.99	336.99	2.26	-49.1	-67.2	3.5	3.02e+01	0	38	104	1104674816	60	87948
2026-01-02 03:51:01.03	337.29	2.02	-49.3	-67.2	3.5	3.02e+01	0	38	104	1104674816	60	87787
2026-01-02 03:51:05.07	337.58	1.79	-49.4	-67.3	3.5	3.02e+01	0	38	104	1104674816	60	89111
2026-01-02 03:51:09.11	337.87	1.56	-49.3	-67.2	3.5	3.02e+01	0	38	104	1104674816	60	88173
2026-01-02 03:51:13.15	338.16	1.33	-49.3	-67.1	3.5	3.02e+01	0	38	104	1104674816	60	87286
2026-01-02 03:51:17.19	338.44	1.10	-49.3	-67.2	3.5	3.02e+01	0	38	104	1104674816	60	87757
2026-01-02 03:51:21.23	338.71	0.87	-49.3	-67.2	3.5	3.02e+01	0	38	104	1104674816	60	87739
2026-01-02 03:51:25.27	338.99	0.65	-49.3	-67.1	3.5	3.02e+01	0	38	104	1104674816	60	87292
2026-01-02 03:51:29.31	339.25	0.42	-49.4	-67.3	3.5	3.02e+01	0	38	104	1104674816	60	88680
2026-01-02 03:51:33.35	339.52	0.20	-49.3	-67.2	3.5	3.02e+01	0	38	104	1104674816	60	88095
2026-01-02 03:51:37.39	339.78	-0.02	-49.4	-67.3	3.5	3.02e+01	0	38	104	1104674816	60	89070

#Closed at: 2026-01-02 03:51:38
#Recorded file [1104 MB]: D:/lorett/data/35029_260102_153846.dat