passes_logs/2026/01/02/R4.6S_Anadyr/R4.6S_Anadyr__20260102_194932_FENGYUN_3D_rec.log

#Pass ID: 20260102_194932_FENGYUN 3D
#Satellite: FENGYUN 3D
#Configuration: FENGYUN 3D
#almurnet v.1.7.20251203
#Start time: 2026-01-02 19:49:35

#Version: 2.2.20231116
#Station: R4.6S_Anadyr
#Location: 177.4865 lon 64.73178 lat
#TLE: 1 43010U 17072A   26001.96529979  .00000409  00000+0  21503-3 0  9996
#TLE: 2 43010  98.9910 333.5811 0001886 133.0441 227.0893 14.19692048421405

#Time	Az	El	Level	Level2	SNR	BER	BlckErr	Temp	State	Recorded	gain1	gain2
2026-01-02 19:49:35.09	35.04	0.16	-50.0	-60.7	3.3	8.40e-01	0	37	0	0	60	39040
2026-01-02 19:49:39.13	34.78	0.37	-50.1	-62.2	3.6	8.46e-01	0	37	104	0	60	46778
2026-01-02 19:49:43.16	34.52	0.58	-49.9	-62.1	3.6	8.45e-01	0	38	104	0	60	46005
2026-01-02 19:49:47.20	34.26	0.79	-49.5	-61.7	3.6	8.46e-01	0	38	104	0	60	43742
2026-01-02 19:49:51.23	33.99	1.01	-48.4	-60.5	3.6	8.45e-01	0	38	104	0	60	38105
2026-01-02 19:49:55.27	33.72	1.22	-48.3	-60.4	3.6	8.44e-01	0	38	104	0	60	37669
2026-01-02 19:49:59.31	33.44	1.44	-48.3	-60.3	3.6	8.45e-01	0	38	104	0	60	37461
2026-01-02 19:50:03.35	33.16	1.65	-48.3	-60.4	3.6	8.45e-01	0	38	104	0	60	37921
2026-01-02 19:50:07.39	32.87	1.87	-48.3	-60.3	3.6	8.45e-01	0	38	104	0	60	37473
2026-01-02 19:50:11.43	32.58	2.09	-48.2	-59.2	3.6	8.44e-01	0	38	104	0	60	33070
2026-01-02 19:50:15.46	32.29	2.31	-48.3	-60.4	3.6	8.45e-01	0	38	104	0	60	37884
2026-01-02 19:50:19.50	31.99	2.53	-48.3	-60.4	3.6	8.45e-01	0	38	104	0	60	37936
2026-01-02 19:50:23.54	31.69	2.76	-48.1	-58.3	3.7	8.43e-01	0	38	104	0	60	29706
2026-01-02 19:50:27.58	31.38	2.98	-47.2	-52.5	6.1	7.65e-01	0	38	0	1048576	60	15164
2026-01-02 19:50:31.62	31.06	3.20	-43.1	-44.9	14.6	1.24e-02	0	38	0	23068672	60	6349
2026-01-02 19:50:35.65	30.75	3.43	-40.1	-41.3	18.2	0.00e+00	0	38	0	30408704	52	6627
2026-01-02 19:50:39.69	30.42	3.65	-37.7	-38.6	20.7	0.00e+00	0	38	0	52428800	50	5478
2026-01-02 19:50:43.73	30.09	3.88	-38.1	-38.9	20.6	0.00e+00	0	38	0	75497472	50	5690
2026-01-02 19:50:47.76	29.76	4.11	-38.1	-39.1	20.4	0.00e+00	0	38	0	98566144	48	6477
2026-01-02 19:50:51.80	29.42	4.34	-38.1	-39.0	20.5	0.00e+00	0	38	0	121634816	48	6441
2026-01-02 19:50:55.83	29.08	4.57	-37.9	-38.7	20.8	0.00e+00	0	38	0	143654912	48	6216
2026-01-02 19:50:59.87	28.72	4.80	-37.8	-38.6	21.0	0.00e+00	0	38	0	166723584	48	6161
2026-01-02 19:51:03.90	28.37	5.03	-37.8	-38.7	20.9	0.00e+00	0	38	0	189792256	48	6243
2026-01-02 19:51:07.95	28.00	5.26	-37.6	-38.4	21.1	0.00e+00	0	38	0	211812352	48	6030
2026-01-02 19:51:11.98	27.64	5.50	-37.4	-38.2	21.4	0.00e+00	0	38	0	234881024	48	5879
2026-01-02 19:51:16.01	27.26	5.73	-37.4	-38.2	21.5	0.00e+00	0	39	0	256901120	48	5868
2026-01-02 19:51:20.05	26.88	5.97	-37.1	-37.9	21.9	0.00e+00	0	39	0	279969792	48	5659
2026-01-02 19:51:24.09	26.49	6.20	-36.8	-37.6	22.2	0.00e+00	0	38	0	303038464	48	5446
2026-01-02 19:51:28.12	26.10	6.44	-37.3	-38.2	21.7	0.00e+00	0	39	0	325058560	48	5833
2026-01-02 19:51:32.16	25.70	6.68	-36.9	-37.7	22.1	0.00e+00	0	39	0	348127232	48	5512
2026-01-02 19:51:36.20	25.29	6.92	-36.7	-37.5	22.4	0.00e+00	0	39	0	371195904	46	6059
2026-01-02 19:51:40.24	24.87	7.16	-36.8	-37.5	22.3	0.00e+00	0	39	0	393216000	46	6090
2026-01-02 19:51:44.28	24.45	7.40	-36.6	-37.3	22.5	0.00e+00	0	39	0	416284672	46	5956
2026-01-02 19:51:48.31	24.02	7.64	-36.7	-37.5	22.5	0.00e+00	0	39	0	439353344	46	6049
2026-01-02 19:51:52.36	23.58	7.88	-37.1	-37.9	22.1	0.00e+00	0	39	0	461373440	46	6371
2026-01-02 19:51:56.40	23.14	8.12	-36.7	-37.5	22.4	0.00e+00	0	39	0	484442112	46	6083
2026-01-02 19:52:00.44	22.69	8.37	-36.4	-37.2	22.9	0.00e+00	0	39	0	507510784	46	5854
2026-01-02 19:52:04.48	22.23	8.61	-35.9	-36.6	23.4	0.00e+00	0	39	0	529530880	46	5479
2026-01-02 19:52:08.52	21.76	8.86	-35.7	-36.4	23.5	0.00e+00	0	39	0	552599552	44	6014
2026-01-02 19:52:12.56	21.28	9.10	-35.7	-36.4	23.6	0.00e+00	0	39	0	575668224	44	5981
2026-01-02 19:52:16.60	20.80	9.35	-35.6	-36.4	23.7	0.00e+00	0	39	0	597688320	44	5968
2026-01-02 19:52:20.64	20.30	9.59	-35.8	-36.6	23.5	0.00e+00	0	39	0	620756992	44	6141
2026-01-02 19:52:24.68	19.80	9.84	-35.8	-36.6	23.5	0.00e+00	0	39	0	643825664	44	6116
2026-01-02 19:52:28.72	19.29	10.09	-35.7	-36.5	23.7	0.00e+00	0	39	0	665845760	44	6035
2026-01-02 19:52:32.76	18.77	10.33	-35.6	-36.3	23.8	0.00e+00	0	39	0	688914432	44	5938
2026-01-02 19:52:36.80	18.24	10.58	-35.4	-36.1	24.0	0.00e+00	0	39	0	711983104	44	5766
2026-01-02 19:52:40.83	17.70	10.83	-35.5	-36.2	23.9	0.00e+00	0	39	0	734003200	44	5851
2026-01-02 19:52:44.87	17.16	11.08	-35.3	-36.1	24.1	0.00e+00	0	39	0	757071872	44	5781
2026-01-02 19:52:48.91	16.60	11.32	-35.1	-35.8	24.2	0.00e+00	0	38	0	780140544	44	5627
2026-01-02 19:52:52.95	16.03	11.57	-35.1	-35.8	24.2	0.00e+00	0	38	0	802160640	44	5616
2026-01-02 19:52:56.99	15.46	11.82	-35.2	-35.9	24.3	0.00e+00	0	38	0	825229312	44	5632
2026-01-02 19:53:01.03	14.87	12.06	-35.1	-35.8	24.3	0.00e+00	0	39	0	848297984	44	5595
2026-01-02 19:53:05.06	14.28	12.31	-34.8	-35.5	24.6	0.00e+00	0	39	0	870318080	44	5399
2026-01-02 19:53:09.10	13.67	12.55	-35.0	-35.7	24.4	0.00e+00	0	39	0	893386752	44	5516
2026-01-02 19:53:13.14	13.05	12.79	-34.9	-35.6	24.5	0.00e+00	0	39	0	916455424	44	5455
2026-01-02 19:53:17.19	12.42	13.04	-34.6	-35.3	24.9	0.00e+00	0	39	0	938475520	42	5929
2026-01-02 19:53:21.23	11.78	13.28	-34.8	-35.5	24.7	0.00e+00	0	39	0	961544192	42	6082
2026-01-02 19:53:25.27	11.14	13.52	-35.3	-36.0	24.3	0.00e+00	0	39	0	984612864	42	6439
2026-01-02 19:53:29.31	10.48	13.76	-34.4	-35.1	25.1	0.00e+00	0	39	0	1007681536	42	5825
2026-01-02 19:53:33.34	9.81	14.00	-34.4	-35.1	25.1	0.00e+00	0	38	0	1029701632	42	5801
2026-01-02 19:53:37.38	9.12	14.23	-34.6	-35.2	24.9	0.00e+00	0	39	0	1052770304	42	5888
2026-01-02 19:53:41.42	8.43	14.47	-34.7	-35.4	24.9	0.00e+00	0	39	0	1074790400	42	5981
2026-01-02 19:53:45.46	7.73	14.70	-34.4	-35.1	25.1	0.00e+00	0	39	0	1097859072	42	5782
2026-01-02 19:53:49.50	7.01	14.93	-34.1	-34.8	25.4	0.00e+00	0	38	0	1120927744	42	5572
2026-01-02 19:53:53.54	6.29	15.16	-33.9	-34.6	25.6	0.00e+00	0	38	0	1142947840	42	5464
2026-01-02 19:53:57.58	5.55	15.38	-34.0	-34.7	25.6	0.00e+00	0	39	0	1166016512	42	5513
2026-01-02 19:54:01.62	4.80	15.60	-33.9	-34.6	25.6	0.00e+00	0	38	0	1189085184	42	5479
2026-01-02 19:54:05.66	4.04	15.82	-33.8	-34.4	25.7	0.00e+00	0	39	0	1212153856	40	6018
2026-01-02 19:54:09.70	3.27	16.04	-33.9	-34.5	25.6	0.00e+00	0	39	0	1234173952	40	6082
2026-01-02 19:54:13.74	2.48	16.25	-33.9	-34.6	25.7	0.00e+00	0	39	0	1257242624	40	6142
2026-01-02 19:54:17.78	1.69	16.46	-33.6	-34.3	25.8	0.00e+00	0	38	0	1279262720	40	5921
2026-01-02 19:54:21.82	0.88	16.66	-33.7	-34.4	25.9	0.00e+00	0	38	0	1302331392	40	5975
2026-01-02 19:54:25.85	0.07	16.86	-33.5	-34.1	26.1	0.00e+00	0	38	0	1325400064	40	5798
2026-01-02 19:54:29.89	359.24	17.06	-33.5	-34.1	26.0	0.00e+00	0	39	0	1347420160	40	5818
2026-01-02 19:54:33.93	358.40	17.25	-33.3	-33.9	26.2	0.00e+00	0	38	0	1370488832	40	5663
2026-01-02 19:54:37.97	357.55	17.44	-33.4	-34.0	26.2	0.00e+00	0	39	0	1393557504	40	5738
2026-01-02 19:54:42.01	356.70	17.62	-33.3	-34.0	26.1	0.00e+00	0	38	0	1416626176	40	5740
2026-01-02 19:54:46.05	355.83	17.80	-33.3	-33.9	26.2	0.00e+00	0	38	0	1438646272	40	5690
2026-01-02 19:54:50.08	354.95	17.96	-33.1	-33.7	26.5	0.00e+00	0	39	0	1461714944	40	5538
2026-01-02 19:54:54.12	354.06	18.13	-33.2	-33.9	26.3	0.00e+00	0	38	0	1483735040	40	5663
2026-01-02 19:54:58.16	353.16	18.29	-33.3	-34.0	26.2	0.00e+00	0	39	0	1506803712	40	5699
2026-01-02 19:55:02.20	352.25	18.44	-33.1	-33.8	26.4	0.00e+00	0	39	0	1529872384	40	5590
2026-01-02 19:55:06.23	351.33	18.58	-33.4	-34.0	26.1	0.00e+00	0	39	0	1551892480	40	5719
2026-01-02 19:55:10.27	350.41	18.72	-33.2	-33.9	26.3	0.00e+00	0	38	0	1574961152	40	5665
2026-01-02 19:55:14.30	349.47	18.85	-33.2	-33.8	26.3	0.00e+00	0	38	0	1598029824	40	5583
2026-01-02 19:55:18.34	348.53	18.97	-32.6	-33.2	26.8	0.00e+00	0	38	0	1620049920	38	5879
2026-01-02 19:55:22.38	347.58	19.09	-32.8	-33.5	26.6	0.00e+00	0	39	0	1643118592	38	6053
2026-01-02 19:55:26.41	346.62	19.20	-32.7	-33.3	26.8	0.00e+00	0	38	0	1666187264	38	5909
2026-01-02 19:55:30.45	345.66	19.30	-32.7	-33.4	26.7	0.00e+00	0	38	0	1688207360	38	5986
2026-01-02 19:55:34.49	344.69	19.39	-32.6	-33.3	26.9	0.00e+00	0	38	0	1711276032	38	5897
2026-01-02 19:55:38.52	343.71	19.47	-32.6	-33.2	26.9	0.00e+00	0	38	0	1734344704	38	5864
2026-01-02 19:55:42.56	342.73	19.55	-32.7	-33.3	26.9	0.00e+00	0	39	0	1756364800	38	5941
2026-01-02 19:55:46.60	341.75	19.62	-32.7	-33.3	26.9	0.00e+00	0	38	0	1779433472	38	5928
2026-01-02 19:55:50.64	340.76	19.67	-32.7	-33.4	26.8	0.00e+00	0	38	0	1802502144	38	5990
2026-01-02 19:55:54.67	339.77	19.72	-32.5	-33.1	26.9	0.00e+00	0	38	0	1824522240	38	5822
2026-01-02 19:55:58.70	338.77	19.76	-32.6	-33.2	26.8	0.00e+00	0	38	0	1847590912	38	5893
2026-01-02 19:56:02.74	337.77	19.79	-32.7	-33.3	26.8	0.00e+00	0	39	0	1869611008	38	5931
2026-01-02 19:56:06.78	336.77	19.81	-32.8	-33.4	26.8	0.00e+00	0	39	0	1892679680	38	6015
2026-01-02 19:56:10.82	335.77	19.83	-32.8	-33.4	26.7	0.00e+00	0	38	0	1915748352	38	6027
2026-01-02 19:56:14.86	334.77	19.83	-32.6	-33.3	26.9	0.00e+00	0	38	0	1938817024	38	5897
2026-01-02 19:56:18.89	333.77	19.82	-32.5	-33.2	26.9	0.00e+00	0	39	0	1960837120	38	5864
2026-01-02 19:56:22.93	332.77	19.81	-32.7	-33.3	26.9	0.00e+00	0	39	0	1983905792	38	5917
2026-01-02 19:56:26.97	331.76	19.79	-32.6	-33.2	26.8	0.00e+00	0	39	0	2006974464	38	5874
2026-01-02 19:56:31.01	330.77	19.75	-32.6	-33.2	26.9	0.00e+00	0	39	0	2028994560	38	5853
2026-01-02 19:56:35.04	329.77	19.71	-32.8	-33.4	26.6	0.00e+00	0	39	0	2052063232	38	6024
2026-01-02 19:56:39.08	328.78	19.66	-32.6	-33.2	26.9	0.00e+00	0	39	0	2074083328	38	5855
2026-01-02 19:56:43.12	327.79	19.60	-32.7	-33.3	26.9	0.00e+00	0	39	0	2097152000	38	5947
2026-01-02 19:56:47.15	326.81	19.53	-32.8	-33.4	26.9	0.00e+00	0	39	0	2120220672	38	5977
2026-01-02 19:56:51.19	325.82	19.45	-32.6	-33.2	26.8	0.00e+00	0	39	0	2142240768	38	5884
2026-01-02 19:56:55.23	324.85	19.37	-32.9	-33.5	26.7	0.00e+00	0	39	0	2165309440	38	6081
2026-01-02 19:56:59.27	323.88	19.27	-32.8	-33.4	26.8	0.00e+00	0	39	0	2188378112	38	6028
2026-01-02 19:57:03.30	322.92	19.17	-32.8	-33.5	26.7	0.00e+00	0	39	0	2211446784	38	6068
2026-01-02 19:57:07.34	321.96	19.06	-33.0	-33.6	26.5	0.00e+00	0	39	0	2233466880	38	6159
2026-01-02 19:57:11.37	321.01	18.94	-32.8	-33.5	26.8	0.00e+00	0	39	0	2256535552	38	6076
2026-01-02 19:57:15.41	320.07	18.82	-32.7	-33.3	26.8	0.00e+00	0	39	0	2278555648	38	5897
2026-01-02 19:57:19.44	319.14	18.68	-32.8	-33.5	26.8	0.00e+00	0	39	0	2301624320	38	6060
2026-01-02 19:57:23.48	318.21	18.54	-33.1	-33.8	26.5	0.00e+00	0	39	0	2324692992	38	6314
2026-01-02 19:57:27.53	317.29	18.40	-33.1	-33.6	26.6	0.00e+00	0	39	0	2346713088	38	6157
2026-01-02 19:57:31.56	316.39	18.24	-32.9	-33.5	26.7	0.00e+00	0	39	0	2369781760	38	6090
2026-01-02 19:57:35.59	315.49	18.08	-33.0	-33.7	26.7	0.00e+00	0	39	0	2392850432	38	6177
2026-01-02 19:57:39.63	314.60	17.92	-33.1	-33.7	26.5	0.00e+00	0	39	0	2414870528	38	6234
2026-01-02 19:57:43.67	313.72	17.75	-33.2	-33.9	26.4	0.00e+00	0	39	0	2437939200	38	6332
2026-01-02 19:57:47.71	312.86	17.57	-33.4	-34.0	26.3	0.00e+00	0	39	0	2461007872	38	6464
2026-01-02 19:57:51.75	312.00	17.39	-33.4	-34.1	26.3	0.00e+00	0	39	0	2483027968	38	6473
2026-01-02 19:57:55.79	311.15	17.20	-33.7	-34.4	25.9	0.00e+00	0	39	0	2506096640	38	6706
2026-01-02 19:57:59.83	310.31	17.01	-33.5	-34.0	26.2	0.00e+00	0	39	0	2529165312	38	6439
2026-01-02 19:58:03.87	309.49	16.81	-33.7	-34.3	25.9	0.00e+00	0	39	0	2551185408	40	5934
2026-01-02 19:58:07.90	308.67	16.61	-33.9	-34.5	25.8	0.00e+00	0	39	0	2574254080	40	6054
2026-01-02 19:58:11.93	307.87	16.40	-33.8	-34.5	25.9	0.00e+00	0	39	0	2597322752	40	6035
2026-01-02 19:58:15.97	307.08	16.19	-34.0	-34.7	25.7	0.00e+00	0	39	0	2619342848	40	6203
2026-01-02 19:58:20.01	306.29	15.98	-34.0	-34.6	25.7	0.00e+00	0	39	0	2642411520	40	6168
2026-01-02 19:58:24.05	305.52	15.76	-34.1	-34.8	25.6	0.00e+00	0	39	0	2664431616	40	6269
2026-01-02 19:58:28.09	304.76	15.54	-34.0	-34.7	25.6	0.00e+00	0	39	0	2687500288	40	6206
2026-01-02 19:58:32.12	304.02	15.32	-34.1	-34.9	25.5	0.00e+00	0	39	0	2710568960	40	6341
2026-01-02 19:58:36.16	303.28	15.09	-34.0	-34.8	25.6	0.00e+00	0	39	0	2733637632	40	6264
2026-01-02 19:58:40.20	302.56	14.86	-34.3	-34.9	25.4	0.00e+00	0	39	0	2755657728	40	6332
2026-01-02 19:58:44.23	301.84	14.63	-34.1	-34.6	25.6	0.00e+00	0	39	0	2778726400	40	6164
2026-01-02 19:58:48.27	301.14	14.40	-34.3	-35.0	25.3	0.00e+00	0	39	0	2801795072	40	6411
2026-01-02 19:58:52.31	300.45	14.16	-34.3	-34.9	25.1	0.00e+00	0	39	0	2823815168	40	6336
2026-01-02 19:58:56.34	299.77	13.93	-34.4	-35.1	25.2	0.00e+00	0	39	0	2846883840	40	6521
2026-01-02 19:59:00.38	299.10	13.69	-34.3	-35.0	25.0	0.00e+00	0	39	0	2868903936	40	6443
2026-01-02 19:59:04.42	298.44	13.45	-34.9	-35.6	24.7	0.00e+00	0	39	0	2891972608	42	6108
2026-01-02 19:59:08.46	297.79	13.21	-34.8	-35.4	24.8	0.00e+00	0	39	0	2915041280	42	6012
2026-01-02 19:59:12.50	297.15	12.96	-34.9	-35.6	24.6	0.00e+00	0	39	0	2937061376	42	6113
2026-01-02 19:59:16.54	296.53	12.72	-34.9	-35.5	24.7	0.00e+00	0	39	0	2960130048	42	6095
2026-01-02 19:59:20.58	295.91	12.47	-35.2	-35.8	24.4	0.00e+00	0	39	0	2983198720	42	6299
2026-01-02 19:59:24.61	295.31	12.23	-35.0	-35.8	24.5	0.00e+00	0	39	0	3006267392	42	6262
2026-01-02 19:59:28.65	294.71	11.98	-35.2	-36.0	24.4	0.00e+00	0	39	0	3028287488	42	6411
2026-01-02 19:59:32.69	294.12	11.74	-35.3	-36.1	24.2	0.00e+00	0	39	0	3051356160	42	6514
2026-01-02 19:59:36.72	293.55	11.49	-35.1	-35.9	24.4	0.00e+00	0	39	0	3073376256	42	6348
2026-01-02 19:59:40.75	292.98	11.24	-35.5	-36.3	24.0	0.00e+00	0	39	0	3096444928	42	6650
2026-01-02 19:59:44.78	292.43	11.00	-35.1	-35.8	24.4	0.00e+00	0	39	0	3119513600	42	6255
2026-01-02 19:59:48.81	291.88	10.75	-35.3	-36.0	24.2	0.00e+00	0	39	0	3141533696	42	6405
2026-01-02 19:59:52.85	291.35	10.50	-35.6	-36.2	24.0	0.00e+00	0	39	0	3164602368	42	6592
2026-01-02 19:59:56.88	290.82	10.26	-35.6	-36.3	23.9	0.00e+00	0	39	0	3187671040	44	5916
2026-01-02 20:00:00.92	290.30	10.01	-35.7	-36.3	23.7	0.00e+00	0	39	0	3209691136	44	5956
2026-01-02 20:00:04.96	289.79	9.76	-35.8	-36.6	23.7	0.00e+00	0	39	0	3232759808	44	6111
2026-01-02 20:00:09.00	289.29	9.51	-35.9	-36.7	23.6	0.00e+00	0	39	0	3254779904	44	6199
2026-01-02 20:00:13.04	288.79	9.27	-36.2	-36.8	23.3	0.00e+00	0	39	0	3277848576	44	6317
2026-01-02 20:00:17.08	288.31	9.02	-36.0	-36.7	23.5	0.00e+00	0	39	0	3300917248	44	6200
2026-01-02 20:00:21.11	287.83	8.78	-36.0	-36.7	23.4	0.00e+00	0	39	0	3323985920	44	6183
2026-01-02 20:00:25.15	287.36	8.53	-36.1	-36.8	23.3	0.00e+00	0	39	0	3346006016	44	6287
2026-01-02 20:00:29.19	286.90	8.29	-36.4	-37.1	23.1	0.00e+00	0	39	0	3369074688	44	6505
2026-01-02 20:00:33.23	286.45	8.04	-36.7	-37.5	22.7	0.00e+00	0	39	0	3392143360	44	6830
2026-01-02 20:00:37.27	286.01	7.80	-36.5	-37.2	22.9	0.00e+00	0	39	0	3414163456	46	5854
2026-01-02 20:00:41.31	285.57	7.56	-36.5	-37.2	22.9	0.00e+00	0	39	0	3437232128	46	5856
2026-01-02 20:00:45.35	285.14	7.31	-36.7	-37.5	22.6	0.00e+00	0	39	0	3459252224	46	6067
2026-01-02 20:00:49.39	284.72	7.07	-37.0	-37.9	22.3	0.00e+00	0	39	0	3482320896	46	6344
2026-01-02 20:00:53.43	284.30	6.83	-36.8	-37.5	22.4	0.00e+00	0	39	0	3505389568	46	6034
2026-01-02 20:00:57.47	283.89	6.59	-36.8	-37.7	22.4	0.00e+00	0	39	0	3528458240	46	6182
2026-01-02 20:01:01.51	283.49	6.35	-37.0	-37.7	22.3	0.00e+00	0	39	0	3550478336	46	6242
2026-01-02 20:01:05.54	283.10	6.12	-36.9	-37.7	22.3	0.00e+00	0	39	0	3573547008	46	6176
2026-01-02 20:01:09.58	282.71	5.88	-37.1	-37.9	22.0	0.00e+00	0	39	0	3596615680	46	6335
2026-01-02 20:01:13.62	282.32	5.64	-37.1	-38.0	21.9	0.00e+00	0	39	0	3618635776	46	6417
2026-01-02 20:01:17.66	281.95	5.41	-37.2	-38.1	21.9	0.00e+00	0	39	0	3641704448	46	6489
2026-01-02 20:01:21.70	281.58	5.18	-37.3	-38.1	21.7	0.00e+00	0	39	0	3663724544	46	6510
2026-01-02 20:01:25.74	281.22	4.94	-37.3	-38.2	21.7	0.00e+00	0	39	0	3686793216	46	6577
2026-01-02 20:01:29.77	280.86	4.71	-37.5	-38.4	21.5	0.00e+00	0	39	0	3709861888	48	5987
2026-01-02 20:01:33.80	280.51	4.48	-37.3	-38.2	21.6	0.00e+00	0	39	0	3731881984	48	5861
2026-01-02 20:01:37.84	280.16	4.25	-37.8	-38.7	21.0	0.00e+00	0	39	0	3754950656	48	6215
2026-01-02 20:01:41.88	279.82	4.02	-37.5	-38.3	21.2	0.00e+00	0	39	0	3778019328	48	5932
2026-01-02 20:01:45.92	279.49	3.79	-37.2	-38.1	21.4	0.00e+00	0	39	0	3801088000	48	5828
2026-01-02 20:01:49.96	279.16	3.57	-37.9	-38.7	20.8	1.10e-06	0	39	0	3823108096	48	6233
2026-01-02 20:01:54.00	278.83	3.34	-37.7	-38.7	20.8	0.00e+00	0	39	0	3846176768	48	6194
2026-01-02 20:01:58.04	278.51	3.11	-37.7	-38.7	20.7	0.00e+00	0	39	0	3868196864	48	6199
2026-01-02 20:02:02.08	278.20	2.89	-49.6	-61.7	3.6	8.46e-01	0	39	104	3881828352	60	44136
2026-01-02 20:02:06.12	277.89	2.67	-50.1	-62.2	3.6	8.45e-01	0	39	104	3881828352	60	46557
2026-01-02 20:02:10.16	277.58	2.44	-50.1	-62.3	3.6	8.46e-01	0	39	104	3881828352	60	46947
2026-01-02 20:02:14.20	277.28	2.22	-50.1	-62.2	3.6	8.45e-01	0	39	104	3881828352	60	46485
2026-01-02 20:02:18.24	276.99	2.00	-50.0	-62.2	3.6	8.44e-01	0	39	104	3881828352	60	46382
2026-01-02 20:02:22.27	276.70	1.78	-50.0	-62.1	3.6	8.45e-01	0	39	104	3881828352	60	46061
2026-01-02 20:02:26.31	276.41	1.57	-50.0	-62.2	3.6	8.46e-01	0	39	104	3881828352	60	46739
2026-01-02 20:02:30.35	276.13	1.35	-50.0	-62.2	3.6	8.46e-01	0	39	104	3881828352	60	46502
2026-01-02 20:02:34.39	275.85	1.13	-50.0	-62.2	3.6	8.46e-01	0	39	104	3881828352	60	46364
2026-01-02 20:02:38.43	275.58	0.92	-50.0	-62.2	3.6	8.46e-01	0	39	104	3881828352	60	46304
2026-01-02 20:02:42.46	275.31	0.70	-50.0	-62.2	3.6	8.44e-01	0	39	104	3881828352	60	46376
2026-01-02 20:02:46.50	275.05	0.49	-50.0	-62.2	3.6	8.45e-01	0	39	104	3881828352	60	46413
2026-01-02 20:02:50.54	274.78	0.28	-50.0	-62.2	3.6	8.45e-01	0	39	104	3881828352	60	46356
2026-01-02 20:02:54.58	274.53	0.06	-50.0	-62.2	3.6	8.44e-01	0	39	104	3881828352	60	46301

#Closed at: 2026-01-02 20:02:57
#Recorded file [3881 MB]: D:/lorett/data/35029_260103_074935.dat