passes_logs/2026/01/02/R4.6S_Anadyr/R4.6S_Anadyr__20260102_213517_NOAA_21_JPSS-2_rec.log

#Pass ID: 20260102_213517_NOAA 21 (JPSS-2)
#Satellite: NOAA 21 (JPSS-2)
#Configuration: NOAA-21
#almurnet v.1.7.20251203
#Start time: 2026-01-02 21:35:19

#Version: 2.2.20231116
#Station: R4.6S_Anadyr
#Location: 177.4865 lon 64.73178 lat
#TLE: 1 54234U 22150A   26001.90243762  .00000172  00000+0  10253-3 0  9993
#TLE: 2 54234  98.7485 302.9615 0001242 351.7524   8.3631 14.19530907162956

#Time	Az	El	Level	Level2	SNR	BER	BlckErr	Temp	State	Recorded	gain1	gain2
2026-01-02 21:35:19.45	93.77	0.12	-50.0	-65.0	3.5	1.51e+00	0	36	0	0	60	64081
2026-01-02 21:35:23.48	93.53	0.33	-50.0	-62.9	3.5	1.52e+00	0	38	104	0	60	49064
2026-01-02 21:35:27.52	93.29	0.55	-50.0	-62.9	3.5	1.52e+00	0	38	104	0	60	49148
2026-01-02 21:35:31.55	93.04	0.77	-50.0	-62.9	3.5	1.52e+00	0	38	104	0	60	49120
2026-01-02 21:35:35.59	92.80	0.99	-49.7	-62.6	3.5	1.52e+00	0	38	104	0	60	47490
2026-01-02 21:35:39.63	92.54	1.21	-48.2	-61.3	3.5	1.52e+00	0	38	104	0	60	40973
2026-01-02 21:35:43.68	92.28	1.44	-48.1	-61.1	3.5	1.52e+00	0	38	104	0	60	39715
2026-01-02 21:35:47.71	92.02	1.66	-48.1	-61.0	3.5	1.51e+00	0	38	104	0	60	39266
2026-01-02 21:35:51.75	91.76	1.88	-48.1	-61.0	3.5	1.52e+00	0	38	104	0	60	39596
2026-01-02 21:35:55.78	91.49	2.11	-48.1	-61.0	3.5	1.52e+00	0	38	104	0	60	39214
2026-01-02 21:35:59.82	91.21	2.34	-48.0	-60.4	3.5	1.52e+00	0	38	104	0	60	36814
2026-01-02 21:36:03.87	90.94	2.57	-48.1	-61.1	3.5	1.51e+00	0	38	104	0	60	39752
2026-01-02 21:36:07.90	90.65	2.79	-48.1	-60.8	3.5	1.52e+00	0	38	104	0	60	38552
2026-01-02 21:36:11.94	90.37	3.03	-48.0	-60.7	3.5	1.52e+00	0	38	104	0	60	37987
2026-01-02 21:36:15.98	90.07	3.26	-45.4	-49.0	11.0	1.36e-02	122	38	0	2097152	60	9889
2026-01-02 21:36:20.02	89.78	3.49	-47.2	-60.9	3.5	1.12e+00	0	38	104	14680064	60	38710
2026-01-02 21:36:24.05	89.47	3.73	-42.5	-44.4	16.2	0.00e+00	123	39	0	18874368	56	7327
2026-01-02 21:36:28.09	89.17	3.96	-40.5	-42.0	18.4	0.00e+00	122	39	0	31457280	54	6242
2026-01-02 21:36:32.13	88.85	4.20	-40.0	-41.4	18.9	0.00e+00	122	38	0	44040192	52	6543
2026-01-02 21:36:36.17	88.54	4.44	-39.6	-40.9	19.5	0.00e+00	123	38	0	56623104	52	6159
2026-01-02 21:36:40.20	88.21	4.68	-39.5	-40.8	19.7	0.00e+00	122	39	0	69206016	52	6080
2026-01-02 21:36:44.24	87.88	4.92	-39.4	-40.8	19.8	0.00e+00	123	38	0	81788928	52	6075
2026-01-02 21:36:48.28	87.55	5.16	-39.2	-40.4	20.1	0.00e+00	123	39	0	94371840	52	5850
2026-01-02 21:36:52.32	87.21	5.40	-39.0	-40.3	20.1	0.00e+00	122	39	0	106954752	52	5791
2026-01-02 21:36:56.36	86.86	5.65	-38.7	-40.0	20.6	0.00e+00	123	39	0	119537664	50	6206
2026-01-02 21:37:00.40	86.51	5.89	-38.6	-39.8	20.7	0.00e+00	123	39	0	132120576	50	6111
2026-01-02 21:37:04.43	86.15	6.14	-38.6	-39.8	20.7	0.00e+00	123	38	0	144703488	50	6072
2026-01-02 21:37:08.47	85.79	6.39	-38.4	-39.6	20.7	0.00e+00	122	39	0	158334976	50	5965
2026-01-02 21:37:12.51	85.42	6.64	-38.3	-39.4	21.1	0.00e+00	122	39	0	169869312	50	5827
2026-01-02 21:37:16.55	85.04	6.89	-38.1	-39.3	21.2	0.00e+00	123	39	0	183500800	50	5734
2026-01-02 21:37:20.59	84.65	7.14	-38.2	-39.3	21.2	0.00e+00	122	39	0	196083712	50	5750
2026-01-02 21:37:24.63	84.26	7.40	-37.9	-39.0	21.4	0.00e+00	122	39	0	208666624	50	5586
2026-01-02 21:37:28.67	83.86	7.65	-38.1	-39.2	21.2	0.00e+00	123	39	0	221249536	50	5718
2026-01-02 21:37:32.71	83.46	7.91	-37.9	-39.0	21.5	0.00e+00	122	39	0	233832448	50	5578
2026-01-02 21:37:36.74	83.05	8.16	-37.7	-38.8	21.7	0.00e+00	122	39	0	246415360	50	5445
2026-01-02 21:37:40.78	82.62	8.42	-37.7	-38.8	21.8	0.00e+00	120	39	0	258998272	48	6077
2026-01-02 21:37:44.82	82.20	8.68	-37.6	-38.7	21.9	0.00e+00	120	39	0	271581184	48	5997
2026-01-02 21:37:48.85	81.76	8.94	-37.5	-38.6	22.0	0.00e+00	122	39	0	284164096	48	5949
2026-01-02 21:37:52.89	81.32	9.20	-37.5	-38.5	22.1	0.00e+00	123	39	0	296747008	48	5909
2026-01-02 21:37:56.93	80.86	9.47	-37.5	-38.5	22.1	0.00e+00	122	39	0	309329920	48	5919
2026-01-02 21:38:00.97	80.40	9.73	-37.5	-38.5	22.2	0.00e+00	122	39	0	321912832	48	5910
2026-01-02 21:38:05.00	79.93	10.00	-37.1	-38.2	22.5	0.00e+00	123	39	0	334495744	48	5675
2026-01-02 21:38:09.04	79.45	10.26	-37.0	-38.0	22.5	0.00e+00	123	39	0	347078656	48	5570
2026-01-02 21:38:13.07	78.97	10.53	-37.2	-38.2	22.4	0.00e+00	122	39	0	359661568	48	5711
2026-01-02 21:38:17.11	78.47	10.79	-37.0	-38.0	22.7	0.00e+00	122	39	0	372244480	48	5572
2026-01-02 21:38:21.15	77.96	11.06	-36.7	-37.7	22.9	0.00e+00	120	39	0	384827392	48	5377
2026-01-02 21:38:25.19	77.45	11.33	-36.8	-37.8	22.8	0.00e+00	122	39	0	397410304	46	6093
2026-01-02 21:38:29.23	76.92	11.60	-36.9	-37.9	22.8	0.00e+00	122	39	0	409993216	46	6168
2026-01-02 21:38:33.26	76.39	11.87	-36.7	-37.7	23.1	0.00e+00	123	39	0	422576128	46	6012
2026-01-02 21:38:37.30	75.84	12.14	-36.6	-37.5	23.2	0.00e+00	120	39	0	435159040	46	5925
2026-01-02 21:38:41.34	75.29	12.41	-36.5	-37.5	23.1	0.00e+00	123	39	0	447741952	46	5891
2026-01-02 21:38:45.37	74.72	12.68	-36.5	-37.5	23.2	0.00e+00	120	39	0	460324864	46	5913
2026-01-02 21:38:49.41	74.14	12.95	-36.5	-37.5	23.3	0.00e+00	123	39	0	472907776	46	5887
2026-01-02 21:38:53.45	73.56	13.23	-36.7	-37.6	23.1	0.00e+00	120	39	0	485490688	46	5977
2026-01-02 21:38:57.49	72.96	13.50	-36.8	-37.8	23.0	0.00e+00	122	39	0	498073600	46	6108
2026-01-02 21:39:01.53	72.35	13.77	-36.7	-37.6	23.2	0.00e+00	123	39	0	510656512	46	5978
2026-01-02 21:39:05.57	71.73	14.04	-36.8	-37.8	23.1	0.00e+00	122	39	0	524288000	46	6068
2026-01-02 21:39:09.61	71.09	14.31	-37.0	-38.0	22.9	0.00e+00	123	39	0	535822336	46	6226
2026-01-02 21:39:13.65	70.45	14.58	-36.6	-37.5	23.3	0.00e+00	123	39	0	549453824	46	5904
2026-01-02 21:39:17.69	69.79	14.85	-36.7	-37.7	23.1	0.00e+00	123	39	0	562036736	46	6003
2026-01-02 21:39:21.73	69.12	15.12	-36.6	-37.6	23.3	0.00e+00	122	39	0	574619648	46	5933
2026-01-02 21:39:25.77	68.44	15.38	-36.6	-37.6	23.3	0.00e+00	122	39	0	587202560	46	5940
2026-01-02 21:39:29.81	67.75	15.65	-36.5	-37.5	23.3	0.00e+00	122	39	0	599785472	46	5889
2026-01-02 21:39:33.85	67.04	15.91	-36.6	-37.5	23.3	0.00e+00	123	39	0	612368384	46	5911
2026-01-02 21:39:37.88	66.32	16.18	-36.7	-37.6	23.2	0.00e+00	123	39	0	624951296	46	5983
2026-01-02 21:39:41.92	65.59	16.44	-36.6	-37.6	23.4	0.00e+00	123	39	0	637534208	46	5935
2026-01-02 21:39:45.96	64.84	16.70	-36.6	-37.6	23.3	0.00e+00	123	39	0	650117120	46	5928
2026-01-02 21:39:50.00	64.09	16.95	-36.7	-37.6	23.2	0.00e+00	123	39	0	662700032	46	5987
2026-01-02 21:39:54.04	63.32	17.21	-36.7	-37.7	23.1	0.00e+00	122	39	0	675282944	46	6022
2026-01-02 21:39:58.08	62.53	17.46	-36.8	-37.8	23.1	0.00e+00	122	39	0	687865856	46	6108
2026-01-02 21:40:02.12	61.74	17.70	-36.7	-37.7	23.1	0.00e+00	123	39	0	700448768	46	6015
2026-01-02 21:40:06.16	60.93	17.95	-36.7	-37.7	23.2	0.00e+00	122	39	0	713031680	46	6012
2026-01-02 21:40:10.20	60.10	18.19	-36.6	-37.6	23.2	0.00e+00	120	39	0	725614592	46	5965
2026-01-02 21:40:14.24	59.26	18.43	-36.6	-37.5	23.3	0.00e+00	122	39	0	738197504	46	5923
2026-01-02 21:40:18.27	58.42	18.66	-36.2	-37.1	23.6	0.00e+00	123	39	0	750780416	46	5651
2026-01-02 21:40:22.31	57.55	18.89	-36.1	-37.0	23.7	0.00e+00	123	39	0	763363328	46	5573
2026-01-02 21:40:26.35	56.68	19.11	-35.8	-36.7	24.0	0.00e+00	122	39	0	775946240	46	5382
2026-01-02 21:40:30.39	55.79	19.33	-35.8	-36.7	23.9	0.00e+00	123	39	0	788529152	44	6021
2026-01-02 21:40:34.43	54.89	19.54	-35.7	-36.6	24.0	0.00e+00	123	39	0	801112064	44	5960
2026-01-02 21:40:38.46	53.98	19.75	-35.7	-36.6	24.1	0.00e+00	120	39	0	813694976	44	5936
2026-01-02 21:40:42.50	53.05	19.95	-35.8	-36.7	24.0	0.00e+00	122	39	0	826277888	44	6018
2026-01-02 21:40:46.54	52.11	20.14	-35.6	-36.5	24.1	0.00e+00	123	39	0	838860800	44	5899
2026-01-02 21:40:50.58	51.16	20.33	-35.3	-36.2	24.3	0.00e+00	120	39	0	851443712	44	5669
2026-01-02 21:40:54.62	50.20	20.51	-35.5	-36.4	24.3	0.00e+00	123	39	0	865075200	44	5815
2026-01-02 21:40:58.65	49.23	20.69	-35.7	-36.6	24.2	0.00e+00	123	39	0	876609536	44	5928
2026-01-02 21:41:02.69	48.25	20.85	-35.4	-36.3	24.4	0.00e+00	123	39	0	890241024	44	5735
2026-01-02 21:41:06.73	47.25	21.01	-35.4	-36.3	24.4	0.00e+00	122	39	0	902823936	44	5759
2026-01-02 21:41:10.77	46.25	21.16	-35.5	-36.3	24.3	0.00e+00	120	39	0	915406848	44	5788
2026-01-02 21:41:14.81	45.24	21.30	-35.5	-36.4	24.3	0.00e+00	123	39	0	927989760	44	5822
2026-01-02 21:41:18.84	44.22	21.43	-35.5	-36.4	24.3	0.00e+00	123	39	0	940572672	44	5842
2026-01-02 21:41:22.88	43.18	21.55	-35.8	-36.7	24.3	0.00e+00	122	39	0	953155584	44	6014
2026-01-02 21:41:26.93	42.14	21.67	-35.6	-36.5	24.3	0.00e+00	120	39	0	965738496	44	5898
2026-01-02 21:41:30.97	41.10	21.77	-35.8	-36.7	24.2	0.00e+00	122	39	0	978321408	44	5998
2026-01-02 21:41:35.00	40.05	21.86	-35.5	-36.4	24.3	0.00e+00	122	39	0	990904320	44	5805
2026-01-02 21:41:39.04	38.99	21.95	-35.7	-36.6	24.3	0.00e+00	123	39	0	1003487232	44	5947
2026-01-02 21:41:43.08	37.92	22.02	-35.5	-36.4	24.3	0.00e+00	123	39	0	1016070144	44	5818
2026-01-02 21:41:47.12	36.86	22.08	-35.6	-36.5	24.3	0.00e+00	122	39	0	1028653056	44	5877
2026-01-02 21:41:51.16	35.78	22.14	-35.4	-36.3	24.4	0.00e+00	123	39	0	1041235968	44	5734
2026-01-02 21:41:55.20	34.71	22.18	-35.4	-36.2	24.4	0.00e+00	123	39	0	1053818880	44	5719
2026-01-02 21:41:59.24	33.63	22.21	-35.7	-36.6	24.2	0.00e+00	123	39	0	1066401792	44	5958
2026-01-02 21:42:03.28	32.55	22.23	-35.4	-36.3	24.5	0.00e+00	122	39	0	1078984704	44	5733
2026-01-02 21:42:07.32	31.47	22.24	-35.3	-36.2	24.5	0.00e+00	120	39	0	1091567616	44	5672
2026-01-02 21:42:11.36	30.39	22.24	-35.4	-36.3	24.4	0.00e+00	123	39	0	1104150528	44	5739
2026-01-02 21:42:15.40	29.30	22.22	-35.4	-36.3	24.1	0.00e+00	123	39	0	1116733440	44	5762
2026-01-02 21:42:19.44	28.23	22.20	-35.9	-36.8	23.9	0.00e+00	120	39	0	1129316352	44	6104
2026-01-02 21:42:23.48	27.15	22.17	-35.9	-36.8	24.1	0.00e+00	120	39	0	1141899264	44	6071
2026-01-02 21:42:27.52	26.07	22.12	-35.7	-36.6	24.1	0.00e+00	123	39	0	1154482176	44	5962
2026-01-02 21:42:31.56	25.00	22.06	-35.1	-36.0	24.3	0.00e+00	123	39	0	1167065088	44	5583
2026-01-02 21:42:35.60	23.94	22.00	-35.5	-36.4	24.3	0.00e+00	120	39	0	1179648000	44	5802
2026-01-02 21:42:39.64	22.87	21.92	-35.6	-36.6	24.1	0.00e+00	123	39	0	1192230912	44	5940
2026-01-02 21:42:43.68	21.82	21.84	-35.4	-36.4	24.2	0.00e+00	120	39	0	1205862400	44	5795
2026-01-02 21:42:47.72	20.77	21.74	-35.4	-36.4	24.3	0.00e+00	120	39	0	1218445312	44	5798
2026-01-02 21:42:51.76	19.73	21.63	-35.5	-36.5	24.1	0.00e+00	123	39	0	1231028224	44	5866
2026-01-02 21:42:55.79	18.69	21.52	-35.8	-36.7	23.9	0.00e+00	120	39	0	1243611136	44	6003
2026-01-02 21:42:59.83	17.67	21.39	-35.7	-36.6	24.0	0.00e+00	123	39	0	1256194048	44	5994
2026-01-02 21:43:03.87	16.65	21.26	-35.8	-36.7	24.0	0.00e+00	123	39	0	1268776960	44	6047
2026-01-02 21:43:07.91	15.64	21.11	-35.5	-36.4	24.2	0.00e+00	122	39	0	1281359872	44	5842
2026-01-02 21:43:11.94	14.64	20.96	-35.4	-36.3	24.3	0.00e+00	120	39	0	1293942784	44	5779
2026-01-02 21:43:15.98	13.65	20.80	-35.7	-36.6	24.1	0.00e+00	122	39	0	1306525696	44	5994
2026-01-02 21:43:20.02	12.67	20.63	-35.9	-36.9	24.0	0.00e+00	123	40	0	1319108608	44	6145
2026-01-02 21:43:24.06	11.71	20.46	-35.8	-36.7	24.2	0.00e+00	122	39	0	1331691520	44	6051
2026-01-02 21:43:28.10	10.75	20.28	-35.6	-36.5	24.3	0.00e+00	123	39	0	1344274432	44	5918
2026-01-02 21:43:32.14	9.81	20.09	-35.5	-36.4	24.2	0.00e+00	120	39	0	1356857344	44	5808
2026-01-02 21:43:36.18	8.87	19.89	-36.0	-36.9	24.0	0.00e+00	122	39	0	1369440256	44	6158
2026-01-02 21:43:40.22	7.95	19.69	-36.1	-37.1	23.8	0.00e+00	123	39	0	1382023168	44	6285
2026-01-02 21:43:44.26	7.05	19.48	-35.5	-36.4	24.2	0.00e+00	123	39	0	1394606080	44	5829
2026-01-02 21:43:48.30	6.15	19.27	-35.9	-36.8	24.0	0.00e+00	123	39	0	1407188992	44	6115
2026-01-02 21:43:52.34	5.27	19.05	-36.0	-36.9	23.9	0.00e+00	123	39	0	1419771904	44	6187
2026-01-02 21:43:56.38	4.40	18.82	-36.0	-36.9	23.9	0.00e+00	123	39	0	1432354816	44	6177
2026-01-02 21:44:00.42	3.54	18.59	-36.0	-36.9	23.9	0.00e+00	122	39	0	1444937728	44	6152
2026-01-02 21:44:04.46	2.70	18.36	-35.7	-36.6	24.2	0.00e+00	123	39	0	1457520640	44	5978
2026-01-02 21:44:08.50	1.87	18.12	-35.9	-36.8	24.0	0.00e+00	123	39	0	1470103552	44	6133
2026-01-02 21:44:12.54	1.05	17.88	-35.9	-36.9	24.0	0.00e+00	122	39	0	1482686464	44	6138
2026-01-02 21:44:16.58	0.25	17.63	-35.8	-36.7	24.1	0.00e+00	123	39	0	1495269376	44	6034
2026-01-02 21:44:20.62	359.46	17.39	-36.1	-37.0	23.9	0.00e+00	122	39	0	1507852288	44	6232
2026-01-02 21:44:24.66	358.68	17.14	-36.1	-37.0	23.7	0.00e+00	123	39	0	1520435200	44	6249
2026-01-02 21:44:28.70	357.92	16.88	-36.3	-37.2	23.7	0.00e+00	122	39	0	1533018112	44	6390
2026-01-02 21:44:32.74	357.17	16.63	-36.6	-37.5	23.4	0.00e+00	122	39	0	1546649600	44	6624
2026-01-02 21:44:36.78	356.43	16.37	-36.3	-37.2	23.6	0.00e+00	120	39	0	1559232512	44	6381
2026-01-02 21:44:40.83	355.70	16.10	-36.3	-37.2	23.5	0.00e+00	123	39	0	1571815424	44	6389
2026-01-02 21:44:44.86	354.99	15.84	-36.4	-37.4	23.3	0.00e+00	123	39	0	1584398336	44	6551
2026-01-02 21:44:48.90	354.29	15.58	-36.2	-37.2	23.6	0.00e+00	123	39	0	1596981248	44	6360
2026-01-02 21:44:52.94	353.60	15.31	-36.4	-37.3	23.4	0.00e+00	123	39	0	1609564160	44	6498
2026-01-02 21:44:56.99	352.93	15.05	-36.9	-37.9	23.1	0.00e+00	120	39	0	1622147072	46	6137
2026-01-02 21:45:01.03	352.26	14.78	-36.9	-37.9	23.0	0.00e+00	123	39	0	1634729984	46	6193
2026-01-02 21:45:05.07	351.61	14.51	-36.7	-37.6	23.2	0.00e+00	122	39	0	1647312896	46	5977
2026-01-02 21:45:09.11	350.98	14.24	-36.8	-37.7	23.3	0.00e+00	120	39	0	1659895808	46	6035
2026-01-02 21:45:13.14	350.35	13.97	-36.5	-37.5	23.3	0.00e+00	122	39	0	1672478720	46	5871
2026-01-02 21:45:17.18	349.73	13.70	-36.4	-37.3	23.4	0.00e+00	123	39	0	1685061632	46	5767
2026-01-02 21:45:21.22	349.13	13.43	-36.5	-37.5	23.3	0.00e+00	122	39	0	1697644544	46	5878
2026-01-02 21:45:25.26	348.54	13.16	-36.7	-37.7	23.1	0.00e+00	122	39	0	1710227456	46	6013
2026-01-02 21:45:29.29	347.96	12.89	-36.7	-37.7	23.1	0.00e+00	123	39	0	1722810368	46	6026
2026-01-02 21:45:33.33	347.39	12.62	-37.4	-38.4	22.7	0.00e+00	123	39	0	1735393280	46	6503
2026-01-02 21:45:37.37	346.82	12.35	-37.7	-38.7	22.4	0.00e+00	122	39	0	1747976192	48	6018
2026-01-02 21:45:41.41	346.27	12.08	-37.4	-38.4	22.4	0.00e+00	123	39	0	1760559104	48	5841
2026-01-02 21:45:45.45	345.74	11.81	-37.3	-38.3	22.5	0.00e+00	122	39	0	1773142016	48	5790
2026-01-02 21:45:49.48	345.21	11.54	-37.6	-38.7	22.3	0.00e+00	123	39	0	1785724928	48	6002
2026-01-02 21:45:53.52	344.69	11.27	-37.8	-38.9	22.0	0.00e+00	123	39	0	1798307840	48	6185
2026-01-02 21:45:57.56	344.18	11.00	-37.5	-38.5	22.2	0.00e+00	121	39	0	1810890752	48	5900
2026-01-02 21:46:01.60	343.68	10.74	-37.3	-38.3	22.5	0.00e+00	123	39	0	1823473664	48	5739
2026-01-02 21:46:05.63	343.19	10.47	-37.7	-38.8	22.1	0.00e+00	120	39	0	1836056576	48	6079
2026-01-02 21:46:09.67	342.70	10.21	-38.0	-39.1	21.8	0.00e+00	122	39	0	1848639488	48	6324
2026-01-02 21:46:13.72	342.23	9.94	-37.9	-39.0	21.8	0.00e+00	123	39	0	1862270976	48	6238
2026-01-02 21:46:17.75	341.76	9.68	-37.9	-39.0	21.9	0.00e+00	121	39	0	1873805312	48	6220
2026-01-02 21:46:21.80	341.31	9.41	-37.9	-39.0	22.0	0.00e+00	120	39	0	1886388224	48	6215
2026-01-02 21:46:25.83	340.86	9.15	-38.4	-39.6	21.3	0.00e+00	122	39	0	1900019712	48	6678
2026-01-02 21:46:29.87	340.42	8.89	-38.6	-39.8	21.2	0.00e+00	122	39	0	1912602624	50	6078
2026-01-02 21:46:33.91	339.99	8.63	-38.4	-39.5	21.3	0.00e+00	123	39	0	1925185536	50	5893
2026-01-02 21:46:37.95	339.57	8.37	-38.1	-39.2	21.7	0.00e+00	123	39	0	1937768448	50	5662
2026-01-02 21:46:41.98	339.15	8.12	-38.1	-39.2	21.7	0.00e+00	123	39	0	1950351360	50	5685
2026-01-02 21:46:46.02	338.74	7.86	-38.5	-39.7	21.2	0.00e+00	122	39	0	1962934272	50	6014
2026-01-02 21:46:50.06	338.34	7.60	-39.0	-40.2	20.7	0.00e+00	122	39	0	1975517184	50	6408
2026-01-02 21:46:54.10	337.95	7.35	-39.0	-40.3	20.6	0.00e+00	123	39	0	1988100096	50	6431
2026-01-02 21:46:58.14	337.56	7.10	-38.6	-39.8	21.0	0.00e+00	122	39	0	2000683008	50	6090
2026-01-02 21:47:02.18	337.18	6.85	-38.2	-39.3	21.5	0.00e+00	122	39	0	2013265920	50	5747
2026-01-02 21:47:06.22	336.81	6.60	-38.3	-39.4	21.2	0.00e+00	120	39	0	2025848832	50	5857
2026-01-02 21:47:10.26	336.44	6.35	-38.6	-39.8	20.8	0.00e+00	122	39	0	2038431744	50	6065
2026-01-02 21:47:14.29	336.08	6.10	-39.4	-40.7	19.8	0.00e+00	123	39	0	2051014656	50	6744
2026-01-02 21:47:18.33	335.73	5.85	-40.4	-41.8	18.4	0.00e+00	122	39	0	2063597568	52	6874
2026-01-02 21:47:22.37	335.38	5.61	-41.6	-43.6	15.8	0.00e+00	122	39	0	2076180480	54	7470
2026-01-02 21:47:26.41	335.04	5.36	-42.9	-45.7	12.7	5.49e-05	122	39	0	2088763392	58	7614
2026-01-02 21:47:30.44	334.70	5.12	-43.9	-48.1	9.3	1.31e-02	123	39	0	2101346304	60	8925
2026-01-02 21:47:34.48	334.37	4.88	-44.5	-50.2	6.5	2.02e-01	123	39	0	2113929216	60	11294
2026-01-02 21:47:38.52	334.05	4.64	-44.8	-53.2	4.7	1.36e+00	120	39	104	2118123520	60	15974
2026-01-02 21:47:42.56	333.73	4.40	-45.0	-54.0	3.7	1.03e+00	57	39	104	2118123520	60	17657
2026-01-02 21:47:46.60	333.41	4.16	-45.4	-56.8	3.5	1.51e+00	0	39	104	2118123520	60	24196
2026-01-02 21:47:50.63	333.11	3.93	-45.0	-54.7	4.2	1.49e+00	0	39	104	2118123520	60	19099
2026-01-02 21:47:54.67	332.80	3.69	-45.2	-55.2	3.6	1.45e+00	0	39	104	2118123520	60	20108
2026-01-02 21:47:58.71	332.50	3.46	-45.2	-53.1	5.5	1.48e+00	0	39	104	2118123520	60	15826
2026-01-02 21:48:02.74	332.21	3.23	-45.1	-50.9	6.4	2.28e-01	123	39	0	2124414976	60	12338
2026-01-02 21:48:06.78	331.92	3.00	-48.7	-61.5	3.5	1.52e+00	0	39	104	2135949312	60	41920
2026-01-02 21:48:10.82	331.64	2.77	-49.9	-62.8	3.5	1.52e+00	0	39	104	2135949312	60	48319
2026-01-02 21:48:14.86	331.36	2.54	-50.1	-63.0	3.5	1.52e+00	0	39	104	2135949312	60	49696
2026-01-02 21:48:18.89	331.09	2.31	-50.0	-62.9	3.5	1.52e+00	0	39	104	2135949312	60	48961
2026-01-02 21:48:22.93	330.82	2.08	-50.0	-62.9	3.5	1.52e+00	0	39	104	2135949312	60	49054
2026-01-02 21:48:26.97	330.55	1.86	-50.0	-62.9	3.5	1.52e+00	0	39	104	2135949312	60	49103
2026-01-02 21:48:31.01	330.29	1.64	-50.0	-62.9	3.5	1.52e+00	0	39	104	2135949312	60	48974
2026-01-02 21:48:35.05	330.03	1.41	-50.0	-62.9	3.5	1.52e+00	0	39	104	2135949312	60	48886
2026-01-02 21:48:39.08	329.78	1.19	-50.0	-62.9	3.5	1.52e+00	0	39	104	2135949312	60	48778
2026-01-02 21:48:43.12	329.53	0.97	-50.0	-62.9	3.5	1.52e+00	0	39	104	2135949312	60	49013
2026-01-02 21:48:47.16	329.28	0.75	-50.0	-62.9	3.5	1.52e+00	0	39	104	2135949312	60	48853
2026-01-02 21:48:51.21	329.04	0.53	-50.0	-62.9	3.5	1.52e+00	0	39	104	2135949312	60	49021
2026-01-02 21:48:55.25	328.80	0.31	-50.0	-62.9	3.5	1.52e+00	0	39	104	2135949312	60	48922
2026-01-02 21:48:59.28	328.57	0.10	-50.0	-62.9	3.5	1.52e+00	0	39	104	2135949312	60	48827

#Closed at: 2026-01-02 21:49:01
#Recorded file [2135 MB]: D:/lorett/data/35029_260103_093519.dat