passes_logs/2026/01/02/R4.6S_Anadyr/R4.6S_Anadyr__20260102_014256_SUOMI_NPP_rec.log

#Pass ID: 20260102_014256_SUOMI NPP
#Satellite: SUOMI NPP
#Configuration: NPP
#almurnet v.1.7.20251203
#Start time: 2026-01-02 01:42:57

#Version: 2.2.20231116
#Station: R4.6S_Anadyr
#Location: 177.4865 lon 64.73178 lat
#TLE: 1 37849U 11061A   26001.07732418  .00000182  00000+0  10735-3 0  9990
#TLE: 2 37849  98.7795 303.2470 0002580  87.2016 272.9455 14.19520779734739

#Time	Az	El	Level	Level2	SNR	BER	BlckErr	Temp	State	Recorded	gain1	gain2
2026-01-02 01:42:57.24	192.78	0.03	-49.1	-61.6	3.4	1.52e+00	0	37	0	0	60	42254
2026-01-02 01:43:01.28	192.97	0.26	-49.2	-64.4	3.6	1.51e+00	0	38	104	0	60	60077
2026-01-02 01:43:05.31	193.16	0.49	-49.1	-64.4	3.6	1.51e+00	0	38	104	0	60	59833
2026-01-02 01:43:09.35	193.35	0.72	-48.7	-63.9	3.6	1.51e+00	0	38	104	0	60	56639
2026-01-02 01:43:13.39	193.55	0.95	-47.9	-62.9	3.6	1.51e+00	0	38	104	0	60	50648
2026-01-02 01:43:17.44	193.75	1.18	-47.9	-63.0	3.6	1.51e+00	0	38	104	0	60	50942
2026-01-02 01:43:21.48	193.95	1.42	-47.8	-63.0	3.6	1.51e+00	0	38	104	0	60	51273
2026-01-02 01:43:25.51	194.15	1.66	-47.8	-63.0	3.6	1.51e+00	0	39	104	0	60	51185
2026-01-02 01:43:29.55	194.36	1.90	-47.8	-62.9	3.6	1.51e+00	0	39	104	0	60	50740
2026-01-02 01:43:33.60	194.57	2.14	-47.8	-62.9	3.6	1.51e+00	0	39	104	0	60	50728
2026-01-02 01:43:37.63	194.79	2.38	-47.8	-62.9	3.6	1.51e+00	0	39	104	0	60	50732
2026-01-02 01:43:41.67	195.00	2.62	-47.7	-61.6	3.6	1.51e+00	0	39	104	0	60	43423
2026-01-02 01:43:45.71	195.22	2.87	-47.7	-61.9	3.6	1.51e+00	0	39	104	0	60	44938
2026-01-02 01:43:49.75	195.45	3.12	-46.2	-51.2	10.5	2.80e-02	0	39	0	3145728	60	13135
2026-01-02 01:43:53.79	195.68	3.37	-45.2	-48.8	13.0	3.50e-05	0	39	0	10485760	60	9993
2026-01-02 01:43:57.83	195.91	3.62	-43.2	-45.5	6.0	1.47e+00	0	39	104	15728640	60	6841
2026-01-02 01:44:01.87	196.14	3.87	-44.0	-46.6	15.5	0.00e+00	0	39	0	20971520	60	7693
2026-01-02 01:44:05.90	196.38	4.13	-43.2	-45.3	16.8	0.00e+00	0	39	0	29360128	60	6648
2026-01-02 01:44:09.94	196.62	4.38	-42.4	-44.2	17.9	0.00e+00	0	39	0	36700160	58	6573
2026-01-02 01:44:13.98	196.87	4.64	-42.4	-44.2	17.9	0.00e+00	0	39	0	44040192	58	6569
2026-01-02 01:44:18.02	197.12	4.91	-42.1	-43.9	18.3	0.00e+00	0	39	0	51380224	58	6332
2026-01-02 01:44:22.06	197.38	5.17	-42.2	-43.9	18.3	0.00e+00	0	39	0	58720256	58	6341
2026-01-02 01:44:26.10	197.64	5.44	-41.9	-43.5	18.5	0.00e+00	0	39	0	67108864	56	6799
2026-01-02 01:44:30.13	197.90	5.70	-41.8	-43.3	18.9	0.00e+00	0	39	0	74448896	56	6684
2026-01-02 01:44:34.17	198.17	5.97	-41.6	-43.1	19.2	0.00e+00	0	39	0	81788928	56	6526
2026-01-02 01:44:38.21	198.45	6.25	-41.3	-42.8	19.5	0.00e+00	0	39	0	89128960	56	6280
2026-01-02 01:44:42.24	198.72	6.52	-41.0	-42.4	19.8	0.00e+00	0	39	0	97517568	56	5984
2026-01-02 01:44:46.27	199.01	6.80	-40.9	-42.2	20.1	0.00e+00	0	39	0	104857600	56	5845
2026-01-02 01:44:50.31	199.30	7.08	-40.7	-42.0	20.3	0.00e+00	0	39	0	112197632	54	6414
2026-01-02 01:44:54.35	199.59	7.36	-40.9	-42.3	20.0	0.00e+00	0	39	0	119537664	54	6650
2026-01-02 01:44:58.38	199.89	7.65	-40.9	-42.2	20.1	0.00e+00	0	39	0	126877696	54	6580
2026-01-02 01:45:02.42	200.20	7.93	-40.8	-42.1	20.2	0.00e+00	0	39	0	135266304	54	6489
2026-01-02 01:45:06.46	200.51	8.22	-40.7	-42.0	20.2	0.00e+00	0	39	0	142606336	54	6450
2026-01-02 01:45:10.49	200.82	8.52	-40.7	-42.0	20.3	0.00e+00	0	39	0	149946368	54	6391
2026-01-02 01:45:14.53	201.15	8.81	-40.5	-41.7	20.6	0.00e+00	0	39	0	157286400	54	6236
2026-01-02 01:45:18.57	201.48	9.11	-40.1	-41.3	21.0	0.00e+00	0	39	0	165675008	54	5907
2026-01-02 01:45:22.61	201.82	9.41	-39.9	-41.0	21.3	0.00e+00	0	39	0	173015040	52	6453
2026-01-02 01:45:26.64	202.16	9.72	-39.9	-41.0	21.3	0.00e+00	0	39	0	180355072	52	6457
2026-01-02 01:45:30.67	202.51	10.02	-39.5	-40.6	21.7	0.00e+00	0	39	0	187695104	52	6117
2026-01-02 01:45:34.70	202.86	10.33	-39.7	-40.8	21.5	0.00e+00	0	39	0	195035136	52	6268
2026-01-02 01:45:38.74	203.23	10.65	-39.8	-41.0	21.4	0.00e+00	0	39	0	203423744	52	6393
2026-01-02 01:45:42.78	203.60	10.96	-39.4	-40.4	21.8	0.00e+00	0	39	0	210763776	52	6021
2026-01-02 01:45:46.82	203.98	11.28	-39.4	-40.5	21.8	0.00e+00	0	39	0	218103808	52	6089
2026-01-02 01:45:50.86	204.37	11.60	-39.4	-40.4	21.8	0.00e+00	0	39	0	225443840	52	6027
2026-01-02 01:45:54.89	204.76	11.93	-39.2	-40.3	21.9	0.00e+00	0	39	0	232783872	52	5908
2026-01-02 01:45:58.93	205.17	12.26	-38.6	-39.6	22.6	0.00e+00	0	39	0	241172480	50	6153
2026-01-02 01:46:02.97	205.58	12.59	-38.5	-39.4	22.7	0.00e+00	0	39	0	248512512	50	5999
2026-01-02 01:46:07.01	206.00	12.92	-38.4	-39.3	22.8	0.00e+00	0	39	0	255852544	50	5952
2026-01-02 01:46:11.05	206.44	13.26	-38.3	-39.2	22.9	0.00e+00	0	39	0	263192576	50	5885
2026-01-02 01:46:15.08	206.88	13.60	-38.6	-39.6	22.5	0.00e+00	0	39	0	271581184	50	6121
2026-01-02 01:46:19.12	207.33	13.95	-39.1	-40.1	22.2	0.00e+00	0	39	0	278921216	50	6507
2026-01-02 01:46:23.15	207.79	14.29	-38.7	-39.7	22.6	0.00e+00	0	39	0	286261248	50	6179
2026-01-02 01:46:27.19	208.26	14.65	-38.6	-39.5	22.7	0.00e+00	0	39	0	293601280	50	6102
2026-01-02 01:46:31.23	208.75	15.00	-38.6	-39.5	22.8	0.00e+00	0	39	0	300941312	50	6102
2026-01-02 01:46:35.27	209.24	15.36	-38.5	-39.5	22.7	0.00e+00	0	39	0	309329920	50	6061
2026-01-02 01:46:39.30	209.75	15.72	-38.7	-39.7	22.5	0.00e+00	0	39	0	316669952	50	6226
2026-01-02 01:46:43.34	210.26	16.08	-39.1	-40.2	22.1	0.00e+00	0	39	0	324009984	50	6560
2026-01-02 01:46:47.38	210.79	16.45	-39.0	-40.0	22.3	0.00e+00	0	39	0	331350016	50	6406
2026-01-02 01:46:51.42	211.34	16.82	-38.7	-39.6	22.7	0.00e+00	0	39	0	339738624	50	6168
2026-01-02 01:46:55.45	211.89	17.20	-39.1	-40.1	22.3	0.00e+00	0	39	0	347078656	50	6500
2026-01-02 01:46:59.49	212.46	17.57	-39.5	-40.6	22.0	0.00e+00	0	39	0	354418688	50	6857
2026-01-02 01:47:03.53	213.05	17.95	-39.3	-40.3	22.1	0.00e+00	0	39	0	361758720	50	6690
2026-01-02 01:47:07.57	213.65	18.34	-39.3	-40.3	22.1	0.00e+00	0	39	0	369098752	50	6679
2026-01-02 01:47:11.61	214.26	18.72	-39.5	-40.5	21.9	0.00e+00	0	39	0	377487360	50	6838
2026-01-02 01:47:15.65	214.89	19.11	-39.3	-40.3	22.1	0.00e+00	0	39	0	384827392	50	6654
2026-01-02 01:47:19.68	215.53	19.51	-39.4	-40.5	21.9	0.00e+00	0	39	0	392167424	50	6798
2026-01-02 01:47:23.72	216.19	19.90	-39.6	-40.7	21.8	0.00e+00	0	39	0	399507456	52	6235
2026-01-02 01:47:27.76	216.87	20.30	-39.1	-40.1	22.2	0.00e+00	0	39	0	407896064	52	5821
2026-01-02 01:47:31.80	217.56	20.70	-38.2	-39.1	23.0	0.00e+00	0	39	0	415236096	50	5794
2026-01-02 01:47:35.84	218.28	21.10	-38.4	-39.3	23.0	0.00e+00	0	39	0	422576128	50	5942
2026-01-02 01:47:39.88	219.01	21.50	-38.0	-38.9	23.2	0.00e+00	0	39	0	429916160	50	5655
2026-01-02 01:47:43.91	219.76	21.91	-37.1	-37.9	24.0	0.00e+00	0	39	0	437256192	48	5682
2026-01-02 01:47:47.95	220.52	22.32	-36.8	-37.7	24.2	0.00e+00	0	39	0	445644800	48	5514
2026-01-02 01:47:51.99	221.31	22.72	-37.2	-38.0	23.9	0.00e+00	0	39	0	452984832	48	5757
2026-01-02 01:47:56.03	222.12	23.13	-37.2	-38.0	23.9	0.00e+00	0	39	0	460324864	48	5753
2026-01-02 01:48:00.07	222.95	23.54	-37.1	-37.9	24.0	0.00e+00	0	39	0	467664896	48	5681
2026-01-02 01:48:04.10	223.80	23.95	-36.8	-37.6	24.2	0.00e+00	0	39	0	476053504	46	6157
2026-01-02 01:48:08.14	224.68	24.36	-36.4	-37.2	24.6	0.00e+00	0	39	0	483393536	46	5858
2026-01-02 01:48:12.18	225.57	24.77	-37.0	-37.8	24.0	0.00e+00	0	39	0	490733568	46	6291
2026-01-02 01:48:16.22	226.49	25.18	-37.1	-37.9	24.2	0.00e+00	0	39	0	498073600	46	6354
2026-01-02 01:48:20.25	227.43	25.59	-37.0	-37.9	24.1	0.00e+00	0	39	0	505413632	46	6319
2026-01-02 01:48:24.29	228.40	25.99	-37.2	-38.1	23.9	0.00e+00	0	39	0	513802240	46	6493
2026-01-02 01:48:28.33	229.39	26.39	-37.4	-38.3	23.8	0.00e+00	0	39	0	521142272	46	6645
2026-01-02 01:48:32.37	230.41	26.79	-38.0	-38.9	23.4	0.00e+00	0	39	0	528482304	48	6319
2026-01-02 01:48:36.40	231.44	27.18	-38.7	-39.6	22.8	0.00e+00	0	39	0	535822336	50	6140
2026-01-02 01:48:40.44	232.51	27.58	-39.0	-40.0	22.6	0.00e+00	0	39	0	543162368	50	6406
2026-01-02 01:48:44.48	233.60	27.96	-39.6	-40.7	21.9	0.00e+00	0	39	0	551550976	50	6957
2026-01-02 01:48:48.51	234.72	28.34	-40.2	-41.4	21.4	0.00e+00	0	39	0	558891008	52	6696
2026-01-02 01:48:52.55	235.86	28.71	-40.7	-41.8	21.0	0.00e+00	0	39	0	566231040	54	6317
2026-01-02 01:48:56.59	237.03	29.08	-41.0	-42.2	20.7	0.00e+00	0	39	0	573571072	54	6584
2026-01-02 01:49:00.62	238.22	29.43	-41.2	-42.5	20.3	0.00e+00	0	39	0	581959680	54	6775
2026-01-02 01:49:04.66	239.44	29.78	-41.9	-43.3	19.9	0.00e+00	0	39	0	589299712	56	6670
2026-01-02 01:49:08.70	240.69	30.12	-41.6	-43.0	19.8	0.00e+00	0	39	0	596639744	56	6398
2026-01-02 01:49:12.73	241.96	30.44	-42.4	-44.0	19.1	0.00e+00	0	39	0	603979776	56	7189
2026-01-02 01:49:16.76	243.25	30.76	-41.2	-42.4	20.6	0.00e+00	0	39	0	611319808	56	6032
2026-01-02 01:49:20.80	244.57	31.06	-41.0	-42.3	20.6	0.00e+00	0	39	0	619708416	54	6645
2026-01-02 01:49:24.84	245.92	31.35	-41.1	-42.4	20.6	0.00e+00	0	39	0	627048448	56	5991
2026-01-02 01:49:28.87	247.28	31.62	-39.3	-40.3	22.3	0.00e+00	0	39	0	634388480	52	5957
2026-01-02 01:49:32.91	248.67	31.88	-41.6	-43.0	19.9	0.00e+00	0	39	0	641728512	54	7226
2026-01-02 01:49:36.95	250.08	32.12	-40.4	-41.6	21.3	0.00e+00	0	39	0	649068544	54	6130
2026-01-02 01:49:40.99	251.51	32.34	-40.2	-41.3	21.4	0.00e+00	0	39	0	657457152	52	6635
2026-01-02 01:49:45.02	252.96	32.55	-41.1	-42.3	20.6	0.00e+00	0	39	0	664797184	56	5909
2026-01-02 01:49:49.06	254.43	32.73	-41.0	-42.3	20.7	0.00e+00	0	39	0	672137216	56	5900
2026-01-02 01:49:53.10	255.91	32.90	-43.0	-44.6	18.4	0.00e+00	0	39	0	679477248	58	6922
2026-01-02 01:49:57.14	257.40	33.05	-42.9	-44.5	18.6	0.00e+00	0	39	0	687865856	60	6056
2026-01-02 01:50:01.17	258.91	33.17	-40.8	-42.0	20.9	0.00e+00	0	39	0	695205888	56	5740
2026-01-02 01:50:05.21	260.43	33.28	-41.5	-42.8	20.1	0.00e+00	0	39	0	702545920	54	7044
2026-01-02 01:50:09.24	261.95	33.36	-40.8	-42.1	20.8	0.00e+00	0	39	0	709885952	54	6469
2026-01-02 01:50:13.28	263.49	33.42	-40.4	-41.5	21.2	0.00e+00	0	39	0	717225984	54	6091
2026-01-02 01:50:17.31	265.02	33.46	-42.0	-43.4	19.6	0.00e+00	0	39	0	725614592	56	6768
2026-01-02 01:50:21.35	266.56	33.48	-41.7	-43.1	19.8	0.00e+00	0	39	0	732954624	56	6488
2026-01-02 01:50:25.39	268.10	33.47	-41.1	-42.4	20.6	0.00e+00	0	39	0	740294656	56	5968
2026-01-02 01:50:29.42	269.64	33.44	-41.1	-42.4	20.6	0.00e+00	0	39	0	747634688	54	6713
2026-01-02 01:50:33.46	271.18	33.39	-41.5	-42.9	20.0	0.00e+00	0	39	0	756023296	56	6337
2026-01-02 01:50:37.50	272.71	33.31	-40.0	-41.0	21.7	0.00e+00	0	39	0	763363328	54	5751
2026-01-02 01:50:41.53	274.22	33.22	-40.3	-41.4	21.4	0.00e+00	0	39	0	770703360	52	6705
2026-01-02 01:50:45.57	275.74	33.10	-41.0	-42.3	20.6	0.00e+00	0	39	0	778043392	54	6640
2026-01-02 01:50:49.60	277.23	32.96	-40.2	-41.3	21.4	0.00e+00	0	39	0	785383424	54	5963
2026-01-02 01:50:53.64	278.72	32.81	-40.0	-41.0	21.8	0.00e+00	0	39	0	793772032	52	6459
2026-01-02 01:50:57.68	280.19	32.63	-39.5	-40.5	22.1	0.00e+00	0	39	0	801112064	52	6102
2026-01-02 01:51:01.71	281.64	32.43	-38.6	-39.6	22.9	0.00e+00	0	39	0	808452096	50	6115
2026-01-02 01:51:05.74	283.07	32.21	-41.0	-42.3	20.6	0.00e+00	0	39	0	815792128	54	6666
2026-01-02 01:51:09.78	284.49	31.98	-39.6	-40.6	22.0	0.00e+00	0	39	0	824180736	52	6151
2026-01-02 01:51:13.82	285.89	31.73	-38.9	-39.8	22.6	0.00e+00	0	39	0	831520768	50	6302
2026-01-02 01:51:17.85	287.26	31.47	-39.5	-40.5	22.2	0.00e+00	0	39	0	838860800	50	6804
2026-01-02 01:51:21.89	288.61	31.19	-38.5	-39.5	23.0	0.00e+00	0	39	0	846200832	50	6039
2026-01-02 01:51:25.93	289.94	30.89	-37.7	-38.5	23.7	0.00e+00	0	39	0	853540864	48	6086
2026-01-02 01:51:29.96	291.24	30.58	-38.8	-39.8	22.6	0.00e+00	0	39	0	861929472	50	6312
2026-01-02 01:51:34.00	292.52	30.26	-37.7	-38.6	23.4	0.00e+00	0	39	0	869269504	50	5464
2026-01-02 01:51:38.04	293.77	29.93	-39.0	-40.0	22.6	0.00e+00	0	39	0	876609536	50	6413
2026-01-02 01:51:42.08	295.00	29.59	-38.4	-39.3	23.0	0.00e+00	0	39	0	883949568	50	5936
2026-01-02 01:51:46.11	296.20	29.24	-39.6	-40.6	21.8	0.00e+00	0	39	0	892338176	52	6145
2026-01-02 01:51:50.14	297.37	28.88	-39.2	-40.1	22.3	0.00e+00	0	39	0	899678208	50	6539
2026-01-02 01:51:54.17	298.52	28.51	-40.3	-41.4	21.6	0.00e+00	0	39	0	907018240	52	6760
2026-01-02 01:51:58.21	299.64	28.14	-39.7	-40.7	21.9	0.00e+00	0	39	0	914358272	52	6215
2026-01-02 01:52:02.24	300.74	27.76	-39.7	-40.8	21.9	0.00e+00	0	39	0	921698304	52	6274
2026-01-02 01:52:06.28	301.81	27.37	-41.5	-42.9	20.1	0.00e+00	0	39	0	930086912	54	7100
2026-01-02 01:52:10.32	302.86	26.98	-40.9	-42.1	20.8	0.00e+00	0	39	0	937426944	56	5808
2026-01-02 01:52:14.35	303.88	26.59	-42.4	-44.0	19.0	0.00e+00	0	39	0	944766976	56	7199
2026-01-02 01:52:18.39	304.88	26.19	-40.2	-41.4	21.4	0.00e+00	0	39	0	952107008	54	5971
2026-01-02 01:52:22.43	305.85	25.79	-41.5	-42.8	20.1	0.00e+00	0	39	0	959447040	54	7044
2026-01-02 01:52:26.46	306.80	25.39	-42.0	-43.4	19.8	0.00e+00	0	39	0	967835648	56	6739
2026-01-02 01:52:30.50	307.73	24.98	-42.1	-43.6	19.4	0.00e+00	0	39	0	975175680	56	6874
2026-01-02 01:52:34.53	308.63	24.58	-40.3	-41.5	21.3	0.00e+00	0	39	0	982515712	54	6047
2026-01-02 01:52:38.57	309.51	24.17	-40.7	-41.9	20.9	0.00e+00	0	39	0	989855744	54	6366
2026-01-02 01:52:42.60	310.37	23.76	-39.3	-40.3	22.1	0.00e+00	0	39	0	998244352	52	5946
2026-01-02 01:52:46.64	311.20	23.36	-41.0	-42.2	20.4	0.00e+00	0	39	0	1005584384	54	6594
2026-01-02 01:52:50.68	312.02	22.95	-40.8	-42.0	20.8	0.00e+00	0	39	0	1012924416	54	6445
2026-01-02 01:52:54.71	312.81	22.54	-40.5	-41.6	21.0	0.00e+00	0	39	0	1020264448	54	6172
2026-01-02 01:52:58.75	313.59	22.14	-40.5	-41.7	21.1	0.00e+00	0	39	0	1027604480	54	6201
2026-01-02 01:53:02.79	314.35	21.74	-38.8	-39.8	22.6	0.00e+00	0	39	0	1035993088	52	5579
2026-01-02 01:53:06.83	315.08	21.33	-39.2	-40.3	22.2	0.00e+00	0	39	0	1043333120	52	5906
2026-01-02 01:53:10.87	315.80	20.93	-38.0	-38.9	23.2	0.00e+00	0	39	0	1050673152	50	5673
2026-01-02 01:53:14.91	316.50	20.54	-38.3	-39.3	22.6	0.00e+00	0	39	0	1058013184	50	5919
2026-01-02 01:53:18.95	317.19	20.14	-39.0	-40.1	22.2	0.00e+00	0	39	0	1065353216	50	6496
2026-01-02 01:53:22.98	317.85	19.75	-38.5	-39.4	22.8	0.00e+00	0	39	0	1073741824	50	6013
2026-01-02 01:53:27.02	318.50	19.36	-38.1	-39.1	23.1	0.00e+00	0	39	0	1081081856	50	5772
2026-01-02 01:53:31.06	319.14	18.97	-38.1	-39.1	23.1	0.00e+00	0	39	0	1088421888	50	5764
2026-01-02 01:53:35.10	319.76	18.58	-37.6	-38.5	23.5	0.00e+00	0	39	0	1095761920	48	6098
2026-01-02 01:53:39.14	320.36	18.20	-37.7	-38.6	23.3	0.00e+00	0	39	0	1104150528	48	6158
2026-01-02 01:53:43.17	320.95	17.82	-38.6	-39.6	22.6	0.00e+00	0	39	0	1111490560	50	6166
2026-01-02 01:53:47.21	321.53	17.45	-37.3	-38.2	23.7	0.00e+00	0	39	0	1118830592	48	5856
2026-01-02 01:53:51.25	322.09	17.07	-37.1	-38.0	23.9	0.00e+00	0	39	0	1126170624	46	6416
2026-01-02 01:53:55.28	322.64	16.70	-38.4	-39.4	22.6	0.00e+00	0	39	0	1133510656	48	6740
2026-01-02 01:53:59.32	323.17	16.34	-38.9	-39.9	22.2	0.00e+00	0	39	0	1141899264	50	6350
2026-01-02 01:54:03.36	323.70	15.97	-38.6	-39.6	22.5	0.00e+00	0	39	0	1149239296	50	6156
2026-01-02 01:54:07.39	324.21	15.61	-38.5	-39.4	22.6	0.00e+00	0	39	0	1156579328	50	6011
2026-01-02 01:54:11.43	324.71	15.26	-38.9	-39.9	22.3	0.00e+00	0	39	0	1163919360	50	6337
2026-01-02 01:54:15.47	325.19	14.90	-39.4	-40.5	21.9	0.00e+00	0	39	0	1172307968	50	6829
2026-01-02 01:54:19.51	325.67	14.55	-39.7	-40.8	21.5	0.00e+00	0	39	0	1179648000	52	6293
2026-01-02 01:54:23.54	326.14	14.20	-39.9	-41.1	21.4	0.00e+00	0	39	0	1186988032	52	6477
2026-01-02 01:54:27.58	326.60	13.86	-40.1	-41.3	21.0	0.00e+00	0	39	0	1194328064	52	6654
2026-01-02 01:54:31.62	327.04	13.52	-39.3	-40.3	21.8	0.00e+00	0	39	0	1201668096	52	5954
2026-01-02 01:54:35.66	327.48	13.18	-38.2	-39.2	22.8	0.00e+00	0	39	0	1210056704	50	5864
2026-01-02 01:54:39.69	327.91	12.85	-37.9	-38.8	22.9	0.00e+00	0	39	0	1217396736	48	6260
2026-01-02 01:54:43.73	328.32	12.52	-38.0	-39.0	22.9	0.00e+00	0	39	0	1224736768	48	6404
2026-01-02 01:54:47.77	328.73	12.19	-38.8	-39.8	22.2	0.00e+00	0	39	0	1232076800	50	6307
2026-01-02 01:54:51.81	329.14	11.87	-39.5	-40.6	21.5	0.00e+00	0	39	0	1240465408	50	6900
2026-01-02 01:54:55.84	329.53	11.54	-39.7	-40.8	21.2	0.00e+00	0	39	0	1247805440	52	6309
2026-01-02 01:54:59.88	329.91	11.23	-39.4	-40.6	21.5	0.00e+00	0	39	0	1255145472	52	6109
2026-01-02 01:55:03.92	330.29	10.91	-39.3	-40.3	21.6	0.00e+00	0	39	0	1262485504	52	5959
2026-01-02 01:55:07.96	330.66	10.60	-39.6	-40.7	21.4	0.00e+00	0	39	0	1269825536	52	6230
2026-01-02 01:55:11.99	331.02	10.29	-39.7	-40.9	21.2	0.00e+00	0	39	0	1278214144	52	6369
2026-01-02 01:55:16.03	331.37	9.98	-39.9	-41.1	21.1	0.00e+00	0	39	0	1285554176	52	6469
2026-01-02 01:55:20.07	331.72	9.68	-39.5	-40.6	21.4	0.00e+00	0	39	0	1292894208	52	6155
2026-01-02 01:55:24.10	332.06	9.38	-38.9	-39.9	22.0	0.00e+00	0	39	0	1300234240	52	5692
2026-01-02 01:55:28.14	332.40	9.08	-38.9	-39.9	21.9	0.00e+00	0	39	0	1307574272	50	6356
2026-01-02 01:55:32.17	332.73	8.79	-39.3	-40.4	21.5	0.00e+00	0	39	0	1315962880	50	6743
2026-01-02 01:55:36.20	333.05	8.49	-39.4	-40.6	21.3	0.00e+00	0	39	0	1323302912	50	6866
2026-01-02 01:55:40.24	333.36	8.20	-39.6	-40.8	21.1	0.00e+00	0	39	0	1330642944	52	6286
2026-01-02 01:55:44.27	333.67	7.92	-39.8	-41.0	20.9	0.00e+00	0	39	0	1337982976	52	6424
2026-01-02 01:55:48.30	333.98	7.63	-39.4	-40.5	21.4	0.00e+00	0	39	0	1345323008	52	6076
2026-01-02 01:55:52.33	334.28	7.35	-39.7	-40.9	20.9	0.00e+00	0	39	0	1353711616	52	6379
2026-01-02 01:55:56.37	334.57	7.07	-40.0	-41.3	20.6	0.00e+00	0	39	0	1361051648	52	6661
2026-01-02 01:56:00.40	334.86	6.80	-40.6	-42.0	19.9	0.00e+00	0	39	0	1368391680	52	7172
2026-01-02 01:56:04.44	335.14	6.52	-40.4	-41.8	20.0	0.00e+00	0	39	0	1375731712	54	6280
2026-01-02 01:56:08.48	335.42	6.25	-41.2	-42.8	18.9	0.00e+00	0	39	0	1384120320	54	7044
2026-01-02 01:56:12.51	335.69	5.98	-40.9	-42.5	18.8	0.00e+00	0	39	0	1391460352	54	6802
2026-01-02 01:56:16.55	335.96	5.71	-41.2	-43.0	17.7	0.00e+00	0	39	0	1398800384	54	7251
2026-01-02 01:56:20.59	336.23	5.45	-41.9	-44.3	16.1	0.00e+00	0	39	0	1406140416	56	7432
2026-01-02 01:56:24.62	336.49	5.18	-42.6	-46.0	13.6	6.80e-06	0	39	0	1413480448	56	9061
2026-01-02 01:56:28.65	336.74	4.92	-43.2	-47.7	11.1	5.92e-04	0	39	0	1421869056	58	9841
2026-01-02 01:56:32.69	337.00	4.66	-43.8	-50.1	8.2	4.52e-02	0	39	0	1429209088	58	12926
2026-01-02 01:56:36.73	337.24	4.41	-44.1	-52.4	5.3	4.91e-01	0	39	0	1436549120	60	15138
2026-01-02 01:56:40.77	337.49	4.15	-44.3	-56.0	4.0	1.47e+00	0	39	104	1441792000	60	22775
2026-01-02 01:56:44.80	337.73	3.90	-44.2	-58.1	3.6	1.51e+00	0	39	104	1441792000	60	28915
2026-01-02 01:56:48.84	337.96	3.65	-44.1	-59.2	3.6	1.51e+00	0	40	104	1441792000	60	32938
2026-01-02 01:56:52.88	338.20	3.40	-44.1	-59.2	3.6	1.51e+00	0	39	104	1441792000	60	32984
2026-01-02 01:56:56.93	338.43	3.15	-44.1	-59.3	3.6	1.51e+00	0	39	104	1441792000	60	33282
2026-01-02 01:57:00.97	338.65	2.91	-48.3	-63.5	3.6	1.51e+00	0	39	104	1441792000	60	53957
2026-01-02 01:57:05.00	338.87	2.66	-49.1	-64.2	3.6	1.51e+00	0	40	104	1441792000	60	58892
2026-01-02 01:57:09.04	339.09	2.42	-49.1	-64.4	3.6	1.51e+00	0	40	104	1441792000	60	59677
2026-01-02 01:57:13.08	339.31	2.18	-49.0	-64.2	3.6	1.51e+00	0	39	104	1441792000	60	58734
2026-01-02 01:57:17.12	339.52	1.94	-49.0	-64.2	3.6	1.51e+00	0	39	104	1441792000	60	58940
2026-01-02 01:57:21.16	339.73	1.71	-49.0	-64.2	3.6	1.51e+00	0	39	104	1441792000	60	58787
2026-01-02 01:57:25.20	339.94	1.47	-49.0	-64.2	3.6	1.51e+00	0	39	104	1441792000	60	58514
2026-01-02 01:57:29.24	340.14	1.24	-49.1	-64.3	3.6	1.51e+00	0	39	104	1441792000	60	59117
2026-01-02 01:57:33.28	340.34	1.01	-49.1	-64.3	3.6	1.51e+00	0	40	104	1441792000	60	59298
2026-01-02 01:57:37.32	340.54	0.78	-49.1	-64.3	3.6	1.51e+00	0	39	104	1441792000	60	58973
2026-01-02 01:57:41.36	340.73	0.55	-49.0	-64.2	3.6	1.51e+00	0	39	104	1441792000	60	58768
2026-01-02 01:57:45.40	340.93	0.32	-49.1	-64.3	3.6	1.51e+00	0	39	104	1441792000	60	59417
2026-01-02 01:57:49.44	341.12	0.10	-49.1	-64.4	3.6	1.51e+00	0	39	104	1441792000	60	59712

#Closed at: 2026-01-02 01:57:52
#Recorded file [1441 MB]: D:/lorett/data/35029_260102_134257.dat