passes_logs/2026/01/02/R4.6S_Anadyr/R4.6S_Anadyr__20260102_071529_2024-110A_rec.log

#Pass ID: 20260102_071529_2024-110A
#Satellite: 2024-110A
#Configuration: 01B_900M
#almurnet v.1.7.20251203
#Start time: 2026-01-02 07:15:31

#Version: 2.2.20231116
#Station: R4.6S_Anadyr
#Location: 177.4865 lon 64.73178 lat
#TLE: 1 60012U 24110A   26001.62840977  .00013703  00000+0  83088-3 0  9992
#TLE: 2 60012  97.5767  94.7701 0010628 107.1852 253.0542 15.10624131 86741

#Time	Az	El	Level	Level2	SNR	BER	BlckErr	Temp	State	Recorded	gain1	gain2
2026-01-02 07:15:31.08	71.21	0.06	-49.1	-60.7	3.5	8.46e-01	0	37	0	0	60	39294
2026-01-02 07:15:33.09	70.98	0.15	-49.4	-51.8	6.1	7.53e-01	0	38	104	0	60	47878
2026-01-02 07:15:35.11	70.76	0.25	-49.5	-51.9	6.1	7.55e-01	0	38	104	0	60	48468
2026-01-02 07:15:37.13	70.52	0.34	-49.4	-51.9	6.1	7.54e-01	0	38	104	0	60	48286
2026-01-02 07:15:39.15	70.29	0.43	-49.5	-51.9	6.1	7.54e-01	0	38	104	0	60	48314
2026-01-02 07:15:41.17	70.06	0.53	-47.5	-50.2	6.1	7.55e-01	0	38	104	0	60	39633
2026-01-02 07:15:43.19	69.82	0.62	-49.2	-51.7	6.1	7.55e-01	0	38	104	0	60	47088
2026-01-02 07:15:45.21	69.58	0.72	-44.1	-46.9	6.2	8.72e-01	0	39	104	0	60	27069
2026-01-02 07:15:47.23	69.34	0.81	-47.1	-49.8	6.1	7.55e-01	0	39	104	0	60	37850
2026-01-02 07:15:49.25	69.10	0.90	-42.6	-45.4	6.9	7.47e-01	0	39	104	0	60	22728
2026-01-02 07:15:51.27	68.85	1.00	-42.5	-45.4	6.9	7.45e-01	0	39	104	0	60	22722
2026-01-02 07:15:53.29	68.61	1.09	-42.4	-45.2	7.0	7.47e-01	0	39	104	0	60	22206
2026-01-02 07:15:55.31	68.36	1.19	-42.5	-45.3	6.9	7.47e-01	0	39	104	0	60	22555
2026-01-02 07:15:57.33	68.11	1.28	-42.5	-45.5	6.8	7.47e-01	0	39	104	0	60	23028
2026-01-02 07:15:59.36	67.85	1.38	-42.5	-45.4	6.8	7.47e-01	0	39	104	0	60	22887
2026-01-02 07:16:01.38	67.60	1.47	-42.5	-45.5	6.9	7.46e-01	0	39	104	0	60	23027
2026-01-02 07:16:03.39	67.34	1.56	-42.5	-45.2	6.9	7.47e-01	0	39	104	0	60	22247
2026-01-02 07:16:05.42	67.08	1.66	-42.6	-45.4	6.9	7.46e-01	0	39	104	0	60	22852
2026-01-02 07:16:07.44	66.82	1.75	-42.4	-45.2	6.9	7.46e-01	0	39	104	0	60	22266
2026-01-02 07:16:09.46	66.56	1.85	-42.5	-45.1	7.0	7.47e-01	0	39	104	0	60	22125
2026-01-02 07:16:11.48	66.30	1.94	-42.4	-45.2	7.0	7.46e-01	0	39	104	0	60	22235
2026-01-02 07:16:13.50	66.03	2.03	-42.3	-45.0	7.0	7.47e-01	0	39	104	0	60	21832
2026-01-02 07:16:15.52	65.76	2.13	-42.2	-45.1	7.0	7.45e-01	0	39	104	0	60	21978
2026-01-02 07:16:17.53	65.49	2.22	-42.1	-45.0	7.0	7.45e-01	0	39	104	0	60	21877
2026-01-02 07:16:19.55	65.21	2.31	-42.3	-45.1	7.0	7.46e-01	0	39	104	0	60	21947
2026-01-02 07:16:21.57	64.94	2.41	-42.3	-45.1	7.0	7.45e-01	0	39	104	0	60	22078
2026-01-02 07:16:23.59	64.66	2.50	-42.2	-45.0	7.0	7.44e-01	0	39	104	0	60	21818
2026-01-02 07:16:25.61	64.38	2.59	-42.2	-45.0	7.0	7.45e-01	0	39	104	0	60	21750
2026-01-02 07:16:27.63	64.10	2.68	-42.3	-45.0	7.0	7.45e-01	0	39	104	0	60	21885
2026-01-02 07:16:29.65	63.81	2.78	-42.2	-45.0	7.0	7.45e-01	0	39	104	0	60	21670
2026-01-02 07:16:31.67	63.52	2.87	-42.3	-45.0	7.0	7.45e-01	0	39	104	0	60	21728
2026-01-02 07:16:33.69	63.23	2.96	-42.3	-45.0	7.0	7.47e-01	0	39	104	0	60	21709
2026-01-02 07:16:35.71	62.94	3.05	-46.4	-49.1	6.1	7.55e-01	0	39	104	0	60	34977
2026-01-02 07:16:37.73	62.65	3.15	-41.4	-44.3	7.0	7.43e-01	0	39	104	0	58	22568
2026-01-02 07:16:39.75	62.35	3.24	-40.0	-42.8	7.9	7.39e-01	0	39	104	0	54	23797
2026-01-02 07:16:41.77	62.05	3.33	-41.7	-44.5	7.3	7.42e-01	0	39	104	0	56	25741
2026-01-02 07:16:43.79	61.75	3.42	-46.8	-49.5	6.1	7.54e-01	0	39	104	0	60	36620
2026-01-02 07:16:45.80	61.45	3.51	-45.7	-48.4	6.3	7.53e-01	0	39	104	0	60	32334
2026-01-02 07:16:47.82	61.14	3.60	-45.8	-48.6	6.2	7.55e-01	0	39	104	0	60	32890
2026-01-02 07:16:49.84	60.83	3.69	-46.2	-48.9	6.1	7.54e-01	0	39	104	0	60	34268
2026-01-02 07:16:51.86	60.52	3.78	-46.8	-49.4	6.1	7.53e-01	0	39	104	0	60	36207
2026-01-02 07:16:53.88	60.21	3.87	-45.0	-47.8	6.2	7.52e-01	0	39	104	0	60	29908
2026-01-02 07:16:55.90	59.89	3.96	-47.9	-50.4	6.1	7.54e-01	0	39	104	0	60	40472
2026-01-02 07:16:57.92	59.58	4.05	-47.6	-50.2	6.1	7.54e-01	0	39	104	0	60	39484
2026-01-02 07:16:59.94	59.26	4.14	-47.7	-50.3	6.1	7.55e-01	0	39	104	0	60	39991
2026-01-02 07:17:01.96	58.93	4.23	-48.2	-50.7	6.1	7.54e-01	0	39	104	0	60	41803
2026-01-02 07:17:03.98	58.61	4.32	-48.2	-50.7	6.1	7.55e-01	0	39	104	0	60	41850
2026-01-02 07:17:05.99	58.28	4.41	-47.7	-50.2	6.1	7.54e-01	0	39	104	0	60	39674
2026-01-02 07:17:08.01	57.95	4.49	-47.7	-50.3	6.1	7.53e-01	0	39	104	0	60	40061
2026-01-02 07:17:10.03	57.62	4.58	-47.6	-50.1	6.1	7.54e-01	0	39	104	0	60	39322
2026-01-02 07:17:12.05	57.28	4.67	-47.8	-50.4	6.1	7.55e-01	0	39	104	0	60	40458
2026-01-02 07:17:14.07	56.94	4.75	-48.1	-50.7	6.1	7.54e-01	0	39	104	0	60	41786
2026-01-02 07:17:16.09	56.60	4.84	-46.5	-49.2	6.1	7.54e-01	0	39	104	0	60	35509
2026-01-02 07:17:18.11	56.26	4.93	-46.6	-49.4	6.1	7.54e-01	0	39	104	0	60	36131
2026-01-02 07:17:20.12	55.91	5.01	-47.2	-49.8	6.1	7.55e-01	0	39	104	0	60	38023
2026-01-02 07:17:22.14	55.57	5.10	-47.4	-50.1	6.1	7.54e-01	0	39	104	0	60	39033
2026-01-02 07:17:24.16	55.21	5.18	-48.3	-50.8	6.1	7.53e-01	0	39	104	0	60	42320
2026-01-02 07:17:26.18	54.86	5.26	-47.1	-49.8	6.1	7.53e-01	0	39	104	0	60	37821
2026-01-02 07:17:28.21	54.50	5.35	-47.4	-50.0	6.1	7.54e-01	0	39	104	0	60	38794
2026-01-02 07:17:30.22	54.15	5.43	-47.6	-50.2	6.1	7.54e-01	0	39	104	0	60	39648
2026-01-02 07:17:32.24	53.79	5.51	-48.1	-50.7	6.1	7.54e-01	0	40	104	0	60	41986
2026-01-02 07:17:34.26	53.42	5.59	-48.1	-50.7	6.1	7.54e-01	0	39	104	0	60	41908
2026-01-02 07:17:36.28	53.06	5.67	-48.2	-50.7	6.1	7.55e-01	0	40	104	0	60	42067
2026-01-02 07:17:38.30	52.69	5.75	-48.4	-50.9	6.1	7.54e-01	0	40	104	0	60	42728
2026-01-02 07:17:40.31	52.32	5.83	-48.3	-50.7	6.1	7.53e-01	0	40	104	0	60	42146
2026-01-02 07:17:42.33	51.94	5.91	-48.2	-50.7	6.1	7.54e-01	0	40	104	0	60	42099
2026-01-02 07:17:44.35	51.57	5.99	-48.2	-50.7	6.1	7.55e-01	0	40	104	0	60	41999
2026-01-02 07:17:46.37	51.19	6.07	-48.3	-50.8	6.1	7.54e-01	0	40	104	0	60	42573
2026-01-02 07:17:48.39	50.81	6.15	-48.3	-50.8	6.1	7.54e-01	0	40	104	0	60	42587
2026-01-02 07:17:50.41	50.43	6.22	-48.5	-50.9	6.1	7.56e-01	0	40	104	0	60	43162
2026-01-02 07:17:52.42	50.04	6.30	-48.4	-50.8	6.1	7.54e-01	0	40	104	0	60	42549
2026-01-02 07:17:54.44	49.65	6.37	-48.5	-51.0	6.1	7.54e-01	0	40	104	0	60	43223
2026-01-02 07:17:56.46	49.26	6.45	-48.2	-50.8	6.0	7.54e-01	0	40	104	0	60	42346
2026-01-02 07:17:58.48	48.87	6.52	-48.5	-51.0	6.1	7.54e-01	0	40	104	0	60	43619
2026-01-02 07:18:00.50	48.47	6.59	-47.5	-50.2	6.1	7.53e-01	0	40	104	0	60	39794
2026-01-02 07:18:02.52	48.07	6.66	-47.4	-50.1	6.1	7.53e-01	0	40	104	0	60	39039
2026-01-02 07:18:04.54	47.67	6.73	-48.0	-50.5	6.1	7.54e-01	0	40	104	0	60	41237
2026-01-02 07:18:06.56	47.27	6.80	-48.0	-50.6	6.1	7.54e-01	0	40	104	0	60	41268
2026-01-02 07:18:08.58	46.86	6.87	-48.6	-51.0	6.1	7.54e-01	0	39	104	0	60	43486
2026-01-02 07:18:10.60	46.45	6.94	-46.6	-49.3	6.1	7.54e-01	0	40	104	0	60	35905
2026-01-02 07:18:12.61	46.05	7.01	-47.1	-49.8	6.1	7.55e-01	0	40	104	0	60	37687
2026-01-02 07:18:14.63	45.63	7.07	-47.1	-49.8	6.1	7.54e-01	0	40	104	0	60	37672
2026-01-02 07:18:16.65	45.22	7.14	-47.3	-50.0	6.1	7.53e-01	0	40	104	0	60	38519
2026-01-02 07:18:18.67	44.80	7.20	-47.7	-50.4	6.1	7.54e-01	0	40	104	0	60	40430
2026-01-02 07:18:20.69	44.38	7.27	-47.7	-50.3	6.1	7.55e-01	0	40	104	0	60	40322
2026-01-02 07:18:22.71	43.96	7.33	-47.5	-50.2	6.1	7.54e-01	0	40	104	0	60	39497
2026-01-02 07:18:24.73	43.54	7.39	-46.7	-49.5	6.1	7.53e-01	0	40	104	0	60	36422
2026-01-02 07:18:26.75	43.11	7.45	-48.4	-51.0	6.1	7.55e-01	0	40	104	0	60	43364
2026-01-02 07:18:28.76	42.68	7.51	-47.4	-50.0	6.1	7.55e-01	0	40	104	0	60	38568
2026-01-02 07:18:30.79	42.25	7.57	-47.7	-50.3	6.1	7.54e-01	0	40	104	0	60	40216
2026-01-02 07:18:32.80	41.82	7.62	-48.3	-50.8	6.1	7.54e-01	0	40	104	0	60	42549
2026-01-02 07:18:34.82	41.38	7.68	-48.1	-50.7	6.1	7.53e-01	0	40	104	0	60	41776
2026-01-02 07:18:36.84	40.95	7.73	-46.9	-49.6	6.1	7.54e-01	0	40	104	0	60	36840
2026-01-02 07:18:38.86	40.51	7.79	-46.8	-49.4	6.1	7.54e-01	0	40	104	0	60	36307
2026-01-02 07:18:40.88	40.07	7.84	-47.3	-50.0	6.1	7.54e-01	0	40	104	0	60	38556
2026-01-02 07:18:42.90	39.63	7.89	-47.9	-50.5	6.1	7.54e-01	0	40	104	0	60	41251
2026-01-02 07:18:44.92	39.18	7.94	-47.9	-50.5	6.1	7.55e-01	0	40	104	0	60	41119
2026-01-02 07:18:46.94	38.74	7.99	-48.5	-50.9	6.1	7.54e-01	0	40	104	0	60	43106
2026-01-02 07:18:48.96	38.29	8.03	-48.4	-51.0	6.1	7.54e-01	0	40	104	0	60	43231
2026-01-02 07:18:50.98	37.84	8.08	-47.9	-50.5	6.1	7.54e-01	0	40	104	0	60	40995
2026-01-02 07:18:53.00	37.39	8.12	-47.0	-49.7	6.1	7.53e-01	0	40	104	0	60	37443
2026-01-02 07:18:55.02	36.93	8.17	-48.2	-50.7	6.1	7.54e-01	0	40	104	0	60	42207
2026-01-02 07:18:57.04	36.48	8.21	-48.2	-50.8	6.1	7.55e-01	0	40	104	0	60	42346
2026-01-02 07:18:59.05	36.02	8.25	-48.5	-51.0	6.1	7.54e-01	0	40	104	0	60	43428
2026-01-02 07:19:01.07	35.57	8.29	-48.2	-50.8	6.1	7.54e-01	0	40	104	0	60	42429
2026-01-02 07:19:03.09	35.11	8.32	-48.6	-51.1	6.1	7.54e-01	0	40	104	0	60	43782
2026-01-02 07:19:05.11	34.65	8.36	-48.7	-51.2	6.1	7.54e-01	0	40	104	0	60	44309
2026-01-02 07:19:07.13	34.18	8.39	-48.5	-51.0	6.1	7.55e-01	0	40	104	0	60	43239
2026-01-02 07:19:09.15	33.72	8.43	-48.7	-51.2	6.0	7.55e-01	0	40	104	0	60	44461
2026-01-02 07:19:11.17	33.26	8.46	-48.7	-51.2	6.1	7.54e-01	0	40	104	0	60	44576
2026-01-02 07:19:13.19	32.79	8.49	-48.8	-51.3	6.1	7.55e-01	0	40	104	0	60	44737
2026-01-02 07:19:15.20	32.33	8.52	-48.7	-51.2	6.1	7.54e-01	0	40	104	0	60	44510
2026-01-02 07:19:17.23	31.85	8.54	-48.4	-50.9	6.1	7.54e-01	0	40	104	0	60	42938
2026-01-02 07:19:19.24	31.39	8.57	-48.5	-51.1	6.1	7.55e-01	0	40	104	0	60	43765
2026-01-02 07:19:21.26	30.92	8.59	-48.6	-51.1	6.1	7.54e-01	0	40	104	0	60	44054
2026-01-02 07:19:23.28	30.45	8.62	-48.7	-51.2	6.1	7.54e-01	0	40	104	0	60	44348
2026-01-02 07:19:25.30	29.97	8.64	-48.6	-51.2	6.1	7.54e-01	0	40	104	0	60	44274
2026-01-02 07:19:27.31	29.50	8.66	-48.7	-51.2	6.1	7.54e-01	0	40	104	0	60	44441
2026-01-02 07:19:29.33	29.03	8.67	-48.7	-51.3	6.1	7.53e-01	0	40	104	0	60	44780
2026-01-02 07:19:31.35	28.56	8.69	-48.7	-51.1	6.1	7.55e-01	0	40	104	0	60	44181
2026-01-02 07:19:33.37	28.08	8.70	-48.7	-51.2	6.1	7.54e-01	0	40	104	0	60	44576
2026-01-02 07:19:35.39	27.61	8.72	-48.6	-51.1	6.1	7.53e-01	0	40	104	0	60	44037
2026-01-02 07:19:37.41	27.13	8.73	-48.7	-51.2	6.1	7.54e-01	0	40	104	0	60	44388
2026-01-02 07:19:39.43	26.66	8.74	-48.8	-51.3	6.1	7.54e-01	0	40	104	0	60	44772
2026-01-02 07:19:41.45	26.18	8.75	-48.6	-51.1	6.1	7.54e-01	0	40	104	0	60	43965
2026-01-02 07:19:43.47	25.70	8.75	-48.6	-51.1	6.1	7.53e-01	0	40	104	0	60	43952
2026-01-02 07:19:45.49	25.22	8.76	-48.8	-51.2	6.1	7.55e-01	0	40	104	0	60	44668
2026-01-02 07:19:47.51	24.75	8.76	-48.8	-51.2	6.1	7.55e-01	0	40	104	0	60	44454
2026-01-02 07:19:49.53	24.27	8.76	-48.8	-51.3	6.1	7.56e-01	0	40	104	0	60	44937
2026-01-02 07:19:51.55	23.79	8.76	-48.8	-51.2	6.1	7.55e-01	0	40	104	0	60	44630
2026-01-02 07:19:53.57	23.32	8.76	-48.7	-51.2	6.1	7.54e-01	0	40	104	0	60	44656
2026-01-02 07:19:55.59	22.84	8.76	-48.8	-51.2	6.1	7.54e-01	0	40	104	0	60	44592
2026-01-02 07:19:57.60	22.36	8.75	-48.8	-51.3	6.1	7.55e-01	0	40	104	0	60	44789
2026-01-02 07:19:59.63	21.88	8.75	-48.8	-51.3	6.1	7.54e-01	0	40	104	0	60	45023
2026-01-02 07:20:01.64	21.41	8.74	-48.8	-51.2	6.1	7.55e-01	0	40	104	0	60	44716
2026-01-02 07:20:03.66	20.93	8.73	-48.8	-51.2	6.1	7.54e-01	0	40	104	0	60	44692
2026-01-02 07:20:05.68	20.46	8.72	-48.8	-51.3	6.1	7.54e-01	0	40	104	0	60	45004
2026-01-02 07:20:07.70	19.98	8.71	-48.7	-51.2	6.1	7.54e-01	0	40	104	0	60	44545
2026-01-02 07:20:09.71	19.51	8.69	-48.8	-51.2	6.1	7.55e-01	0	40	104	0	60	44609
2026-01-02 07:20:11.73	19.04	8.68	-48.8	-51.3	6.1	7.54e-01	0	40	104	0	60	44737
2026-01-02 07:20:13.75	18.56	8.66	-48.8	-51.2	6.1	7.53e-01	0	40	104	0	60	44576
2026-01-02 07:20:15.77	18.09	8.64	-48.8	-51.2	6.1	7.54e-01	0	40	104	0	60	44520
2026-01-02 07:20:17.79	17.62	8.62	-48.8	-51.2	6.1	7.54e-01	0	40	104	0	60	44618
2026-01-02 07:20:19.81	17.15	8.60	-48.8	-51.3	6.1	7.54e-01	0	40	104	0	60	44981
2026-01-02 07:20:21.83	16.68	8.57	-48.8	-51.2	6.1	7.55e-01	0	40	104	0	60	44665
2026-01-02 07:20:23.85	16.21	8.55	-48.7	-51.2	6.1	7.54e-01	0	40	104	0	60	44310
2026-01-02 07:20:25.87	15.74	8.52	-48.8	-51.3	6.1	7.56e-01	0	40	104	0	60	44814
2026-01-02 07:20:27.89	15.27	8.49	-48.8	-51.2	6.1	7.55e-01	0	40	104	0	60	44587
2026-01-02 07:20:29.91	14.81	8.46	-48.8	-51.2	6.1	7.53e-01	0	40	104	0	60	44690
2026-01-02 07:20:31.93	14.34	8.43	-48.7	-51.2	6.1	7.54e-01	0	40	104	0	60	44451
2026-01-02 07:20:33.95	13.88	8.40	-48.8	-51.2	6.1	7.54e-01	0	40	104	0	60	44681
2026-01-02 07:20:35.97	13.42	8.37	-48.6	-51.1	6.1	7.55e-01	0	40	104	0	60	44004
2026-01-02 07:20:37.98	12.96	8.33	-48.8	-51.2	6.1	7.55e-01	0	40	104	0	60	44647
2026-01-02 07:20:40.00	12.50	8.29	-48.7	-51.1	6.1	7.55e-01	0	40	104	0	60	44153
2026-01-02 07:20:42.02	12.04	8.26	-48.8	-51.3	6.1	7.54e-01	0	40	104	0	60	44973
2026-01-02 07:20:44.04	11.58	8.22	-48.6	-51.1	6.1	7.55e-01	0	40	104	0	60	44009
2026-01-02 07:20:46.06	11.13	8.17	-48.8	-51.3	6.1	7.54e-01	0	40	104	0	60	45094
2026-01-02 07:20:48.08	10.67	8.13	-48.7	-51.1	6.1	7.55e-01	0	40	104	0	60	44173
2026-01-02 07:20:50.10	10.22	8.09	-48.8	-51.2	6.1	7.54e-01	0	40	104	0	60	44654
2026-01-02 07:20:52.12	9.77	8.04	-48.6	-51.1	6.1	7.54e-01	0	40	104	0	60	43953
2026-01-02 07:20:54.14	9.32	8.00	-48.8	-51.3	6.1	7.53e-01	0	40	104	0	60	45070
2026-01-02 07:20:56.16	8.88	7.95	-48.6	-51.1	6.1	7.54e-01	0	40	104	0	60	43909
2026-01-02 07:20:58.18	8.43	7.90	-48.6	-51.1	6.1	7.54e-01	0	40	104	0	60	43909
2026-01-02 07:21:00.20	7.99	7.85	-48.6	-51.1	6.1	7.53e-01	0	40	104	0	60	44179
2026-01-02 07:21:02.22	7.55	7.80	-48.7	-51.2	6.1	7.55e-01	0	40	104	0	60	44232
2026-01-02 07:21:04.24	7.11	7.74	-48.7	-51.2	6.1	7.54e-01	0	40	104	0	60	44551
2026-01-02 07:21:06.25	6.68	7.69	-48.7	-51.2	6.1	7.54e-01	0	40	104	0	60	44362
2026-01-02 07:21:08.27	6.24	7.64	-48.6	-51.1	6.1	7.54e-01	0	40	104	0	60	44157
2026-01-02 07:21:10.29	5.81	7.58	-48.7	-51.2	6.1	7.54e-01	0	40	104	0	60	44382
2026-01-02 07:21:12.31	5.38	7.52	-48.6	-51.1	6.1	7.54e-01	0	40	104	0	60	44093
2026-01-02 07:21:14.33	4.95	7.46	-48.7	-51.2	6.1	7.55e-01	0	40	104	0	60	44270
2026-01-02 07:21:16.35	4.52	7.40	-48.6	-51.1	6.1	7.54e-01	0	40	104	0	60	43802
2026-01-02 07:21:18.37	4.10	7.34	-48.7	-51.2	6.1	7.55e-01	0	40	104	0	60	44267
2026-01-02 07:21:20.39	3.68	7.28	-48.6	-51.1	6.1	7.55e-01	0	40	104	0	60	43928
2026-01-02 07:21:22.41	3.26	7.22	-48.7	-51.2	6.1	7.53e-01	0	40	104	0	60	44421
2026-01-02 07:21:24.43	2.84	7.15	-48.7	-51.2	6.1	7.55e-01	0	40	104	0	60	44582
2026-01-02 07:21:26.44	2.43	7.09	-48.7	-51.2	6.1	7.56e-01	0	40	104	0	60	44474
2026-01-02 07:21:28.47	2.01	7.02	-48.7	-51.2	6.1	7.54e-01	0	40	104	0	60	44263
2026-01-02 07:21:30.48	1.60	6.96	-48.7	-51.1	6.1	7.54e-01	0	40	104	0	60	44177
2026-01-02 07:21:32.50	1.19	6.89	-48.6	-51.1	6.1	7.55e-01	0	40	104	0	60	44037
2026-01-02 07:21:34.52	0.79	6.82	-48.6	-51.1	6.1	7.54e-01	0	40	104	0	60	43907
2026-01-02 07:21:36.54	0.38	6.75	-48.4	-51.0	6.1	7.56e-01	0	40	104	0	60	43292
2026-01-02 07:21:38.56	359.98	6.68	-48.6	-51.1	6.1	7.53e-01	0	40	104	0	60	44043
2026-01-02 07:21:40.58	359.58	6.61	-48.6	-51.1	6.1	7.53e-01	0	40	104	0	60	43801
2026-01-02 07:21:42.60	359.19	6.54	-48.6	-51.1	6.1	7.54e-01	0	40	104	0	60	43730
2026-01-02 07:21:44.61	358.80	6.46	-48.6	-51.1	6.1	7.54e-01	0	40	104	0	60	43753
2026-01-02 07:21:46.63	358.41	6.39	-48.5	-51.0	6.1	7.54e-01	0	40	104	0	60	43323
2026-01-02 07:21:48.65	358.02	6.31	-48.6	-51.1	6.1	7.54e-01	0	40	104	0	60	44015
2026-01-02 07:21:50.67	357.63	6.24	-48.4	-50.9	6.1	7.54e-01	0	40	104	0	60	43117
2026-01-02 07:21:52.69	357.25	6.16	-48.6	-51.1	6.1	7.54e-01	0	40	104	0	60	43971
2026-01-02 07:21:54.71	356.86	6.09	-48.5	-51.0	6.1	7.55e-01	0	40	104	0	60	43511
2026-01-02 07:21:56.72	356.49	6.01	-48.6	-51.1	6.1	7.55e-01	0	40	104	0	60	43728
2026-01-02 07:21:58.74	356.11	5.93	-48.4	-50.9	6.1	7.55e-01	0	40	104	0	60	43062
2026-01-02 07:22:00.76	355.74	5.85	-48.6	-51.0	6.1	7.54e-01	0	40	104	0	60	43652
2026-01-02 07:22:02.78	355.37	5.77	-48.5	-51.0	6.1	7.55e-01	0	40	104	0	60	43279
2026-01-02 07:22:04.80	355.00	5.69	-48.5	-51.0	6.0	7.54e-01	0	40	104	0	60	43535
2026-01-02 07:22:06.82	354.63	5.61	-48.3	-50.8	6.1	7.53e-01	0	40	104	0	60	42458
2026-01-02 07:22:08.84	354.27	5.53	-48.6	-51.0	6.1	7.54e-01	0	40	104	0	60	43347
2026-01-02 07:22:10.86	353.91	5.45	-48.4	-50.8	6.1	7.54e-01	0	40	104	0	60	42431
2026-01-02 07:22:12.88	353.55	5.36	-48.6	-51.0	6.1	7.54e-01	0	40	104	0	60	43413
2026-01-02 07:22:14.90	353.19	5.28	-48.4	-50.8	6.1	7.54e-01	0	40	104	0	60	42691
2026-01-02 07:22:16.92	352.84	5.20	-48.5	-51.0	6.1	7.53e-01	0	40	104	0	60	43317
2026-01-02 07:22:18.94	352.49	5.11	-48.3	-50.8	6.0	7.54e-01	0	40	104	0	60	42419
2026-01-02 07:22:20.96	352.14	5.03	-48.4	-50.9	6.1	7.54e-01	0	40	104	0	60	42809
2026-01-02 07:22:22.99	351.79	4.94	-48.3	-50.8	6.1	7.54e-01	0	40	104	0	60	42328
2026-01-02 07:22:25.01	351.45	4.86	-48.4	-50.9	6.1	7.53e-01	0	40	104	0	60	43061
2026-01-02 07:22:27.03	351.11	4.77	-48.3	-50.8	6.1	7.55e-01	0	40	104	0	60	42438
2026-01-02 07:22:29.05	350.77	4.69	-48.4	-50.9	6.1	7.54e-01	0	40	104	0	60	42725
2026-01-02 07:22:31.07	350.43	4.60	-48.3	-50.7	6.1	7.54e-01	0	40	104	0	60	42206
2026-01-02 07:22:33.09	350.10	4.51	-48.4	-50.9	6.1	7.55e-01	0	40	104	0	60	42740
2026-01-02 07:22:35.10	349.77	4.42	-48.3	-50.8	6.1	7.55e-01	0	40	104	0	60	42389
2026-01-02 07:22:37.13	349.44	4.34	-48.4	-50.9	6.1	7.56e-01	0	40	104	0	60	42717
2026-01-02 07:22:39.15	349.12	4.25	-48.2	-50.7	6.1	7.53e-01	0	40	104	0	60	42157
2026-01-02 07:22:41.17	348.79	4.16	-48.3	-50.8	6.1	7.54e-01	0	40	104	0	60	42264
2026-01-02 07:22:43.19	348.47	4.07	-47.8	-50.2	6.1	7.55e-01	0	40	104	0	60	39690
2026-01-02 07:22:45.21	348.15	3.98	-48.0	-50.4	6.1	7.55e-01	0	40	104	0	60	40738
2026-01-02 07:22:47.22	347.84	3.89	-45.9	-48.4	6.1	7.55e-01	0	40	104	0	60	32256
2026-01-02 07:22:49.24	347.53	3.80	-45.1	-47.6	6.1	7.54e-01	0	40	104	0	60	29388
2026-01-02 07:22:51.26	347.22	3.71	-45.3	-47.8	6.1	7.54e-01	0	40	104	0	60	30176
2026-01-02 07:22:53.28	346.91	3.62	-45.5	-48.0	6.1	7.54e-01	0	40	104	0	60	30909
2026-01-02 07:22:55.30	346.60	3.53	-44.6	-47.1	6.1	7.54e-01	0	40	104	0	60	27721
2026-01-02 07:22:57.32	346.30	3.44	-44.6	-47.1	6.1	7.54e-01	0	40	104	0	60	27594
2026-01-02 07:22:59.34	346.00	3.35	-44.6	-47.0	6.1	7.52e-01	0	40	104	0	60	27467
2026-01-02 07:23:01.36	345.70	3.26	-44.9	-47.3	6.1	7.54e-01	0	40	104	0	60	28540
2026-01-02 07:23:03.38	345.40	3.16	-44.6	-47.1	6.1	7.54e-01	0	40	104	0	60	27617
2026-01-02 07:23:05.40	345.11	3.07	-44.6	-47.0	6.1	7.53e-01	0	40	104	0	60	27537
2026-01-02 07:23:07.42	344.81	2.98	-47.2	-49.7	6.1	7.54e-01	0	40	104	0	60	37278
2026-01-02 07:23:09.44	344.52	2.89	-49.1	-51.5	6.1	7.54e-01	0	40	104	0	60	46260
2026-01-02 07:23:11.46	344.24	2.80	-49.5	-51.9	6.1	7.54e-01	0	40	104	0	60	48471
2026-01-02 07:23:13.48	343.95	2.70	-49.6	-52.1	6.1	7.54e-01	0	40	104	0	60	49088
2026-01-02 07:23:15.50	343.67	2.61	-49.5	-52.0	6.1	7.53e-01	0	40	104	0	60	48675
2026-01-02 07:23:17.52	343.39	2.52	-49.5	-52.0	6.1	7.54e-01	0	40	104	0	60	48496
2026-01-02 07:23:19.54	343.11	2.42	-49.3	-51.7	6.1	7.54e-01	0	40	104	0	60	47370
2026-01-02 07:23:21.57	342.83	2.33	-49.5	-52.0	6.1	7.54e-01	0	40	104	0	60	48743
2026-01-02 07:23:23.59	342.56	2.24	-49.4	-51.9	6.1	7.53e-01	0	40	104	0	60	48359
2026-01-02 07:23:25.61	342.29	2.14	-49.5	-52.0	6.1	7.54e-01	0	40	104	0	60	48489
2026-01-02 07:23:27.63	342.02	2.05	-49.5	-52.0	6.1	7.55e-01	0	40	104	0	60	48539
2026-01-02 07:23:29.65	341.75	1.96	-49.4	-51.9	6.1	7.53e-01	0	40	104	0	60	48350
2026-01-02 07:23:31.67	341.49	1.86	-49.4	-51.9	6.1	7.53e-01	0	40	104	0	60	48096
2026-01-02 07:23:33.69	341.22	1.77	-49.4	-51.9	6.1	7.53e-01	0	40	104	0	60	48292
2026-01-02 07:23:35.71	340.96	1.68	-49.4	-51.9	6.1	7.55e-01	0	40	104	0	60	48215
2026-01-02 07:23:37.72	340.71	1.58	-49.4	-51.9	6.1	7.54e-01	0	40	104	0	60	48224
2026-01-02 07:23:39.74	340.45	1.49	-49.5	-51.9	6.1	7.55e-01	0	40	104	0	60	48153
2026-01-02 07:23:41.76	340.19	1.39	-49.5	-51.9	6.1	7.55e-01	0	40	104	0	60	48229
2026-01-02 07:23:43.78	339.94	1.30	-49.4	-51.9	6.1	7.54e-01	0	40	104	0	60	48378
2026-01-02 07:23:45.80	339.69	1.21	-49.4	-51.9	6.1	7.54e-01	0	40	104	0	60	48122
2026-01-02 07:23:47.82	339.44	1.11	-49.4	-51.9	6.1	7.53e-01	0	40	104	0	60	48009
2026-01-02 07:23:49.84	339.20	1.02	-49.4	-51.9	6.1	7.54e-01	0	40	104	0	60	48218
2026-01-02 07:23:51.86	338.95	0.92	-49.4	-51.9	6.1	7.54e-01	0	40	104	0	60	48345
2026-01-02 07:23:53.88	338.71	0.83	-49.4	-51.9	6.1	7.54e-01	0	40	104	0	60	48074
2026-01-02 07:23:55.90	338.47	0.74	-49.4	-51.9	6.0	7.55e-01	0	40	104	0	60	48154
2026-01-02 07:23:57.92	338.23	0.64	-49.5	-52.0	6.1	7.55e-01	0	40	104	0	60	48675
2026-01-02 07:23:59.94	338.00	0.55	-49.5	-51.9	6.1	7.55e-01	0	40	104	0	60	48425
2026-01-02 07:24:01.96	337.76	0.45	-49.5	-51.9	6.1	7.55e-01	0	40	104	0	60	48312
2026-01-02 07:24:03.98	337.53	0.36	-49.5	-51.9	6.1	7.54e-01	0	40	104	0	60	48278
2026-01-02 07:24:06.00	337.30	0.26	-49.5	-51.9	6.1	7.55e-01	0	40	104	0	60	48469
2026-01-02 07:24:08.02	337.07	0.17	-49.5	-51.9	6.1	7.54e-01	0	40	104	0	60	48299
2026-01-02 07:24:10.04	336.84	0.08	-49.5	-52.0	6.1	7.55e-01	0	40	104	0	60	48546

#Closed at: 2026-01-02 07:24:11
#Recorded file [0 MB]: D:/lorett/data/35029_260102_191531.dat