passes_logs/2026/01/02/R4.6S_Anadyr/R4.6S_Anadyr__20260102_120721_SUOMI_NPP_rec.log

#Pass ID: 20260102_120721_SUOMI NPP
#Satellite: SUOMI NPP
#Configuration: NPP
#almurnet v.1.7.20251203
#Start time: 2026-01-02 12:07:23

#Version: 2.2.20231116
#Station: R4.6S_Anadyr
#Location: 177.4865 lon 64.73178 lat
#TLE: 1 37849U 11061A   26001.07732418  .00000182  00000+0  10735-3 0  9990
#TLE: 2 37849  98.7795 303.2470 0002580  87.2016 272.9455 14.19520779734739

#Time	Az	El	Level	Level2	SNR	BER	BlckErr	Temp	State	Recorded	gain1	gain2
2026-01-02 12:07:23.94	19.72	0.11	-49.4	-61.9	3.4	1.52e+00	0	37	0	0	60	43883
2026-01-02 12:07:26.97	19.98	0.25	-49.4	-64.6	3.6	1.51e+00	0	38	104	0	60	61672
2026-01-02 12:07:30.00	20.23	0.38	-49.5	-64.7	3.6	1.51e+00	0	38	104	0	60	62072
2026-01-02 12:07:33.03	20.49	0.52	-49.6	-64.8	3.6	1.51e+00	0	38	104	0	60	62790
2026-01-02 12:07:36.05	20.75	0.66	-49.3	-64.7	3.6	1.51e+00	0	38	104	0	60	61815
2026-01-02 12:07:39.08	21.01	0.80	-49.2	-64.4	3.6	1.51e+00	0	38	104	0	60	59952
2026-01-02 12:07:42.11	21.27	0.94	-48.6	-63.9	3.6	1.51e+00	0	38	104	0	60	56397
2026-01-02 12:07:45.15	21.54	1.08	-47.8	-63.0	3.6	1.51e+00	0	38	104	0	60	50811
2026-01-02 12:07:48.17	21.81	1.22	-47.8	-62.9	3.6	1.51e+00	0	38	104	0	60	50706
2026-01-02 12:07:51.20	22.08	1.36	-47.8	-62.9	3.6	1.51e+00	0	38	104	0	60	50721
2026-01-02 12:07:54.23	22.35	1.50	-47.8	-62.9	3.6	1.51e+00	0	38	104	0	60	50726
2026-01-02 12:07:57.26	22.63	1.64	-47.8	-62.9	3.6	1.51e+00	0	38	104	0	60	50616
2026-01-02 12:08:00.29	22.91	1.78	-47.8	-63.0	3.6	1.51e+00	0	38	104	0	60	50791
2026-01-02 12:08:03.32	23.19	1.92	-47.8	-62.8	3.6	1.51e+00	0	38	104	0	60	50141
2026-01-02 12:08:06.36	23.47	2.06	-47.8	-62.9	3.6	1.51e+00	0	38	104	0	60	50310
2026-01-02 12:08:09.38	23.76	2.20	-47.8	-62.9	3.6	1.51e+00	0	38	104	0	60	50506
2026-01-02 12:08:12.41	24.05	2.34	-47.8	-62.9	3.6	1.51e+00	0	38	104	0	60	50576
2026-01-02 12:08:15.44	24.34	2.48	-47.7	-61.8	3.6	1.51e+00	0	38	104	0	60	44434
2026-01-02 12:08:18.47	24.63	2.62	-47.3	-56.1	5.9	1.03e+00	0	38	104	0	60	23136
2026-01-02 12:08:21.50	24.93	2.76	-43.6	-46.0	15.9	0.00e+00	0	38	0	4194304	60	7252
2026-01-02 12:08:24.53	25.23	2.90	-43.0	-45.2	16.5	0.00e+00	0	39	0	10485760	58	7416
2026-01-02 12:08:27.56	25.53	3.04	-42.4	-44.3	17.6	7.00e-07	0	38	0	15728640	60	5954
2026-01-02 12:08:30.59	25.83	3.18	-47.5	-58.9	3.9	1.51e+00	0	39	104	19922944	60	31844
2026-01-02 12:08:33.62	26.14	3.32	-42.6	-44.6	17.2	0.00e+00	0	38	0	23068672	58	6916
2026-01-02 12:08:36.65	26.45	3.47	-41.8	-43.5	18.4	0.00e+00	0	38	0	28311552	56	6794
2026-01-02 12:08:39.67	26.76	3.61	-41.4	-43.0	18.9	0.00e+00	0	39	0	34603008	56	6403
2026-01-02 12:08:42.70	27.08	3.75	-41.3	-42.9	19.0	0.00e+00	0	38	0	39845888	56	6339
2026-01-02 12:08:45.73	27.40	3.89	-41.4	-42.9	19.0	0.00e+00	0	38	0	46137344	56	6361
2026-01-02 12:08:48.76	27.72	4.03	-40.9	-42.4	19.5	0.00e+00	0	38	0	51380224	56	5982
2026-01-02 12:08:51.78	28.04	4.17	-41.1	-42.6	19.3	0.00e+00	0	39	0	56623104	56	6165
2026-01-02 12:08:54.81	28.37	4.32	-40.8	-42.2	19.6	0.00e+00	0	39	0	62914560	56	5885
2026-01-02 12:08:57.84	28.70	4.46	-41.0	-42.5	19.5	0.00e+00	0	38	0	68157440	56	6044
2026-01-02 12:09:00.87	29.04	4.60	-41.2	-42.7	19.0	0.00e+00	0	38	0	74448896	56	6189
2026-01-02 12:09:03.90	29.37	4.74	-41.3	-42.8	19.1	0.00e+00	0	38	0	79691776	56	6316
2026-01-02 12:09:06.92	29.71	4.88	-42.0	-43.7	18.9	0.00e+00	0	38	0	85983232	56	6968
2026-01-02 12:09:09.95	30.06	5.02	-41.4	-42.9	19.2	0.00e+00	0	38	0	91226112	56	6354
2026-01-02 12:09:12.98	30.40	5.16	-41.3	-42.8	19.3	0.00e+00	0	38	0	96468992	56	6295
2026-01-02 12:09:16.02	30.75	5.31	-41.1	-42.6	19.5	0.00e+00	0	38	0	102760448	56	6123
2026-01-02 12:09:19.04	31.11	5.45	-41.2	-42.6	19.6	0.00e+00	0	39	0	108003328	56	6168
2026-01-02 12:09:22.07	31.46	5.59	-40.9	-42.3	19.8	0.00e+00	0	38	0	114294784	56	5944
2026-01-02 12:09:25.10	31.82	5.73	-41.0	-42.4	19.9	0.00e+00	0	38	0	119537664	56	5973
2026-01-02 12:09:28.13	32.19	5.87	-40.9	-42.3	19.9	0.00e+00	0	38	0	124780544	54	6616
2026-01-02 12:09:31.16	32.55	6.01	-40.7	-42.1	19.8	0.00e+00	0	38	0	131072000	54	6507
2026-01-02 12:09:34.19	32.92	6.15	-40.4	-41.6	20.5	0.00e+00	0	38	0	136314880	54	6161
2026-01-02 12:09:37.22	33.30	6.29	-40.3	-41.6	20.4	0.00e+00	0	39	0	142606336	54	6126
2026-01-02 12:09:40.25	33.67	6.43	-40.2	-41.4	20.6	0.00e+00	0	38	0	147849216	54	6012
2026-01-02 12:09:43.27	34.05	6.57	-40.3	-41.5	20.7	0.00e+00	0	38	0	154140672	54	6076
2026-01-02 12:09:46.30	34.43	6.71	-39.8	-40.9	21.2	0.00e+00	0	38	0	159383552	54	5682
2026-01-02 12:09:49.32	34.82	6.85	-39.7	-40.8	21.3	0.00e+00	0	38	0	164626432	52	6288
2026-01-02 12:09:52.35	35.21	6.99	-39.8	-40.9	21.2	0.00e+00	0	39	0	170917888	52	6381
2026-01-02 12:09:55.38	35.61	7.13	-40.0	-41.2	21.1	0.00e+00	0	39	0	176160768	52	6546
2026-01-02 12:09:58.41	36.00	7.26	-40.1	-41.3	21.0	0.00e+00	0	38	0	182452224	52	6651
2026-01-02 12:10:01.43	36.40	7.40	-40.1	-41.3	21.0	0.00e+00	0	38	0	187695104	52	6679
2026-01-02 12:10:04.47	36.81	7.54	-40.0	-41.2	21.2	0.00e+00	0	38	0	192937984	52	6543
2026-01-02 12:10:07.50	37.22	7.67	-40.0	-41.2	21.2	0.00e+00	0	39	0	199229440	52	6557
2026-01-02 12:10:10.53	37.63	7.81	-40.2	-41.5	21.0	0.00e+00	0	38	0	204472320	52	6780
2026-01-02 12:10:13.56	38.05	7.95	-40.3	-41.5	20.9	0.00e+00	0	38	0	210763776	52	6789
2026-01-02 12:10:16.58	38.47	8.08	-40.3	-41.5	20.8	0.00e+00	0	38	0	216006656	52	6796
2026-01-02 12:10:19.61	38.89	8.22	-40.3	-41.5	20.9	0.00e+00	0	38	0	222298112	52	6795
2026-01-02 12:10:22.64	39.32	8.35	-40.3	-41.5	20.7	0.00e+00	0	38	0	227540992	52	6809
2026-01-02 12:10:25.67	39.75	8.48	-40.3	-41.5	20.9	0.00e+00	0	38	0	232783872	52	6793
2026-01-02 12:10:28.69	40.18	8.62	-40.4	-41.6	20.8	0.00e+00	0	38	0	239075328	52	6871
2026-01-02 12:10:31.72	40.62	8.75	-40.1	-41.3	21.1	0.00e+00	0	38	0	244318208	52	6670
2026-01-02 12:10:34.75	41.07	8.88	-40.1	-41.3	21.2	0.00e+00	0	38	0	250609664	52	6652
2026-01-02 12:10:37.78	41.51	9.01	-40.4	-41.6	20.9	0.00e+00	0	38	0	255852544	52	6921
2026-01-02 12:10:40.81	41.96	9.14	-40.2	-41.5	21.0	0.00e+00	0	38	0	261095424	52	6785
2026-01-02 12:10:43.83	42.42	9.27	-40.3	-41.5	20.9	0.00e+00	0	38	0	267386880	52	6778
2026-01-02 12:10:46.86	42.88	9.39	-40.3	-41.6	21.0	0.00e+00	0	38	0	272629760	52	6857
2026-01-02 12:10:49.89	43.34	9.52	-40.8	-42.1	20.6	0.00e+00	0	38	0	278921216	54	6468
2026-01-02 12:10:52.92	43.80	9.65	-40.7	-42.0	20.6	0.00e+00	0	38	0	284164096	54	6395
2026-01-02 12:10:55.95	44.28	9.77	-40.6	-41.9	20.8	0.00e+00	0	38	0	289406976	54	6329
2026-01-02 12:10:58.98	44.75	9.90	-40.4	-41.6	21.0	0.00e+00	0	38	0	295698432	54	6139
2026-01-02 12:11:02.00	45.23	10.02	-40.7	-42.0	20.6	0.00e+00	0	38	0	300941312	54	6428
2026-01-02 12:11:05.03	45.71	10.14	-40.7	-42.0	20.6	0.00e+00	0	38	0	307232768	54	6394
2026-01-02 12:11:08.05	46.19	10.26	-40.9	-42.3	20.3	0.00e+00	0	38	0	312475648	54	6633
2026-01-02 12:11:11.08	46.68	10.38	-41.1	-42.4	20.2	0.00e+00	0	38	0	318767104	54	6767
2026-01-02 12:11:14.11	47.17	10.50	-41.2	-42.5	20.2	0.00e+00	0	38	0	324009984	54	6838
2026-01-02 12:11:17.14	47.67	10.61	-41.1	-42.5	20.2	0.00e+00	0	38	0	329252864	54	6785
2026-01-02 12:11:20.17	48.17	10.73	-41.1	-42.4	20.1	0.00e+00	0	38	0	335544320	54	6769
2026-01-02 12:11:23.20	48.68	10.84	-41.0	-42.3	20.3	0.00e+00	0	39	0	340787200	54	6660
2026-01-02 12:11:26.23	49.19	10.95	-40.8	-42.1	20.5	0.00e+00	0	38	0	347078656	54	6523
2026-01-02 12:11:29.25	49.70	11.06	-40.8	-42.1	20.5	0.00e+00	0	38	0	352321536	54	6495
2026-01-02 12:11:32.28	50.21	11.17	-41.0	-42.3	20.4	0.00e+00	0	38	0	357564416	54	6678
2026-01-02 12:11:35.31	50.73	11.28	-41.1	-42.4	20.4	0.00e+00	0	38	0	363855872	54	6756
2026-01-02 12:11:38.34	51.26	11.39	-40.6	-41.8	20.8	0.00e+00	0	38	0	369098752	54	6309
2026-01-02 12:11:41.37	51.79	11.49	-40.8	-42.1	20.6	0.00e+00	0	38	0	375390208	54	6482
2026-01-02 12:11:44.39	52.32	11.59	-40.6	-41.9	20.8	0.00e+00	0	38	0	380633088	54	6333
2026-01-02 12:11:47.42	52.85	11.70	-40.8	-42.0	20.6	0.00e+00	0	39	0	386924544	54	6464
2026-01-02 12:11:50.46	53.39	11.80	-36.6	-42.0	16.5	4.62e-02	69	39	0	392167424	46	10244
2026-01-02 12:11:53.48	53.93	11.89	-37.9	-41.9	17.8	2.51e-02	0	38	0	397410304	48	9008
2026-01-02 12:11:56.51	54.48	11.99	-40.7	-42.0	20.7	0.00e+00	0	39	0	403701760	54	6391
2026-01-02 12:11:59.54	55.02	12.08	-40.0	-41.2	21.4	0.00e+00	0	39	0	408944640	54	5842
2026-01-02 12:12:02.56	55.57	12.17	-39.8	-40.9	21.7	0.00e+00	0	39	0	415236096	54	5652
2026-01-02 12:12:05.59	56.13	12.26	-39.9	-41.0	21.6	0.00e+00	0	39	0	420478976	52	6427
2026-01-02 12:12:08.62	56.69	12.35	-40.3	-41.5	21.1	0.00e+00	0	38	0	425721856	52	6810
2026-01-02 12:12:11.64	57.25	12.43	-40.2	-41.3	21.3	0.00e+00	0	39	0	432013312	52	6661
2026-01-02 12:12:14.67	57.81	12.52	-39.4	-40.5	22.0	0.00e+00	0	38	0	437256192	52	6065
2026-01-02 12:12:17.70	58.38	12.60	-39.5	-40.6	21.9	0.00e+00	0	39	0	443547648	52	6148
2026-01-02 12:12:20.73	58.95	12.68	-39.9	-41.0	21.7	0.00e+00	0	38	0	448790528	52	6412
2026-01-02 12:12:23.76	59.53	12.75	-39.4	-40.5	22.0	0.00e+00	0	38	0	455081984	52	6046
2026-01-02 12:12:26.79	60.10	12.83	-39.4	-40.4	22.0	0.00e+00	0	38	0	460324864	52	6027
2026-01-02 12:12:29.81	60.68	12.90	-40.4	-41.6	21.1	0.00e+00	0	39	0	465567744	52	6863
2026-01-02 12:12:32.84	61.26	12.97	-40.1	-41.2	21.5	0.00e+00	0	39	0	471859200	52	6595
2026-01-02 12:12:35.87	61.85	13.03	-40.5	-41.8	21.0	0.00e+00	0	38	0	477102080	52	7008
2026-01-02 12:12:38.90	62.44	13.10	-42.1	-43.6	19.4	0.00e+00	0	39	0	483393536	56	6915
2026-01-02 12:12:41.93	63.03	13.16	-41.3	-42.6	20.1	0.00e+00	0	38	0	488636416	56	6172
2026-01-02 12:12:44.96	63.62	13.21	-40.5	-41.8	20.8	0.00e+00	0	39	0	493879296	54	6249
2026-01-02 12:12:47.98	64.21	13.27	-41.2	-42.6	20.2	0.00e+00	0	39	0	500170752	54	6863
2026-01-02 12:12:51.01	64.81	13.32	-40.8	-42.0	20.6	0.00e+00	0	39	0	505413632	54	6452
2026-01-02 12:12:54.04	65.41	13.37	-40.3	-41.5	21.0	0.00e+00	0	39	0	511705088	54	6084
2026-01-02 12:12:57.07	66.01	13.42	-40.5	-41.7	21.0	0.00e+00	0	39	0	516947968	54	6203
2026-01-02 12:13:00.10	66.61	13.47	-40.3	-41.5	21.1	0.00e+00	0	39	0	522190848	54	6077
2026-01-02 12:13:03.12	67.21	13.51	-39.9	-41.0	21.5	0.00e+00	0	39	0	528482304	54	5743
2026-01-02 12:13:06.15	67.82	13.55	-39.9	-41.0	21.7	0.00e+00	0	39	0	533725184	52	6454
2026-01-02 12:13:09.17	68.43	13.58	-39.9	-41.0	21.6	0.00e+00	0	39	0	540016640	52	6457
2026-01-02 12:13:12.20	69.04	13.62	-39.3	-40.4	22.1	0.00e+00	0	39	0	545259520	52	5975
2026-01-02 12:13:15.23	69.65	13.65	-38.8	-39.8	22.5	0.00e+00	0	39	0	551550976	50	6256
2026-01-02 12:13:18.26	70.26	13.68	-39.3	-40.4	22.1	0.00e+00	0	39	0	556793856	50	6706
2026-01-02 12:13:21.29	70.87	13.70	-39.4	-40.5	22.0	0.00e+00	0	38	0	562036736	50	6811
2026-01-02 12:13:24.31	71.48	13.72	-39.8	-40.9	21.8	0.00e+00	0	39	0	568328192	52	6325
2026-01-02 12:13:27.34	72.10	13.74	-39.6	-40.7	21.9	0.00e+00	0	39	0	573571072	52	6192
2026-01-02 12:13:30.37	72.71	13.76	-39.4	-40.5	22.0	0.00e+00	0	39	0	579862528	52	6048
2026-01-02 12:13:33.40	73.33	13.77	-40.0	-41.2	21.5	0.00e+00	0	39	0	585105408	52	6549
2026-01-02 12:13:36.43	73.94	13.78	-39.6	-40.7	21.9	0.00e+00	0	39	0	590348288	52	6187
2026-01-02 12:13:39.46	74.56	13.79	-39.3	-40.4	22.0	0.00e+00	0	39	0	596639744	52	6008
2026-01-02 12:13:42.49	75.18	13.79	-39.6	-40.7	21.9	0.00e+00	0	39	0	601882624	52	6178
2026-01-02 12:13:45.52	75.79	13.79	-39.2	-40.3	22.1	0.00e+00	0	39	0	608174080	52	5907
2026-01-02 12:13:48.55	76.41	13.79	-39.0	-40.0	22.3	0.00e+00	0	39	0	613416960	52	5750
2026-01-02 12:13:51.57	77.03	13.78	-39.2	-40.2	22.2	0.00e+00	0	39	0	619708416	52	5882
2026-01-02 12:13:54.60	77.64	13.77	-38.7	-39.6	22.7	0.00e+00	0	39	0	624951296	50	6171
2026-01-02 12:13:57.63	78.26	13.76	-38.1	-39.0	23.2	0.00e+00	0	39	0	630194176	50	5715
2026-01-02 12:14:00.66	78.88	13.75	-38.3	-39.2	22.9	0.00e+00	0	39	0	636485632	50	5893
2026-01-02 12:14:03.69	79.49	13.73	-38.4	-39.4	22.8	0.00e+00	0	39	0	641728512	50	6006
2026-01-02 12:14:06.72	80.11	13.71	-38.6	-39.6	22.7	0.00e+00	0	39	0	648019968	50	6145
2026-01-02 12:14:09.74	80.72	13.69	-39.0	-40.0	22.3	0.00e+00	0	39	0	653262848	50	6452
2026-01-02 12:14:12.77	81.33	13.66	-39.0	-40.0	22.3	0.00e+00	0	39	0	658505728	50	6447
2026-01-02 12:14:15.80	81.94	13.63	-38.9	-40.0	22.4	0.00e+00	0	39	0	664797184	50	6400
2026-01-02 12:14:18.83	82.55	13.60	-39.1	-40.1	22.3	0.00e+00	0	39	0	670040064	50	6520
2026-01-02 12:14:21.86	83.16	13.56	-39.0	-40.1	22.3	0.00e+00	0	39	0	676331520	50	6478
2026-01-02 12:14:24.89	83.77	13.52	-38.6	-39.7	22.6	0.00e+00	0	39	0	681574400	50	6178
2026-01-02 12:14:27.91	84.37	13.48	-38.6	-39.7	22.8	0.00e+00	0	39	0	687865856	52	5547
2026-01-02 12:14:30.94	84.98	13.44	-38.3	-39.2	23.1	0.00e+00	0	39	0	693108736	50	5866
2026-01-02 12:14:33.97	85.58	13.39	-38.4	-39.3	23.1	0.00e+00	0	39	0	698351616	50	5932
2026-01-02 12:14:37.00	86.18	13.34	-38.3	-39.2	23.0	0.00e+00	0	39	0	704643072	50	5881
2026-01-02 12:14:40.03	86.78	13.29	-37.9	-38.8	23.4	0.00e+00	0	39	0	709885952	50	5571
2026-01-02 12:14:43.06	87.38	13.23	-37.9	-38.8	23.3	0.00e+00	0	39	0	716177408	50	5608
2026-01-02 12:14:46.09	87.97	13.18	-38.2	-39.2	22.9	0.00e+00	0	39	0	721420288	50	5857
2026-01-02 12:14:49.12	88.56	13.12	-38.5	-39.5	22.8	0.00e+00	0	39	0	726663168	50	6051
2026-01-02 12:14:52.14	89.15	13.05	-38.7	-39.7	22.7	0.00e+00	0	39	0	732954624	50	6229
2026-01-02 12:14:55.17	89.74	12.99	-38.4	-39.4	22.9	0.00e+00	0	39	0	738197504	50	5968
2026-01-02 12:14:58.20	90.32	12.92	-38.1	-39.0	23.1	0.00e+00	0	39	0	744488960	50	5732
2026-01-02 12:15:01.23	90.90	12.85	-37.9	-38.8	23.3	0.00e+00	0	39	0	749731840	50	5619
2026-01-02 12:15:04.26	91.48	12.78	-37.4	-38.3	23.7	0.00e+00	0	39	0	756023296	48	5905
2026-01-02 12:15:07.29	92.06	12.70	-37.5	-38.4	23.6	0.00e+00	0	39	0	761266176	48	5992
2026-01-02 12:15:10.31	92.63	12.62	-37.9	-38.8	23.4	0.00e+00	0	39	0	766509056	48	6310
2026-01-02 12:15:13.34	93.20	12.54	-37.6	-38.6	23.3	0.00e+00	0	39	0	772800512	48	6104
2026-01-02 12:15:16.37	93.77	12.46	-38.1	-39.1	23.1	0.00e+00	0	39	0	778043392	48	6472
2026-01-02 12:15:19.39	94.33	12.38	-38.2	-39.1	23.0	0.00e+00	0	39	0	784334848	48	6534
2026-01-02 12:15:22.42	94.90	12.29	-37.7	-38.6	23.3	0.00e+00	0	39	0	789577728	48	6133
2026-01-02 12:15:25.45	95.45	12.20	-38.0	-38.9	23.1	0.00e+00	0	39	0	794820608	48	6359
2026-01-02 12:15:28.48	96.01	12.11	-38.3	-39.2	22.9	0.00e+00	0	39	0	801112064	48	6600
2026-01-02 12:15:31.50	96.56	12.01	-38.1	-39.1	23.0	0.00e+00	0	39	0	806354944	48	6488
2026-01-02 12:15:34.53	97.11	11.92	-38.5	-39.5	22.6	0.00e+00	0	39	0	812646400	48	6800
2026-01-02 12:15:37.56	97.65	11.82	-38.9	-39.9	22.3	0.00e+00	0	39	0	817889280	50	6383
2026-01-02 12:15:40.59	98.19	11.72	-39.1	-40.2	22.0	0.00e+00	0	39	0	823132160	50	6572
2026-01-02 12:15:43.61	98.73	11.62	-39.1	-40.2	21.9	0.00e+00	0	39	0	829423616	50	6604
2026-01-02 12:15:46.64	99.26	11.52	-39.6	-40.7	21.5	0.00e+00	0	39	0	834666496	50	6982
2026-01-02 12:15:49.66	99.79	11.42	-40.3	-41.5	21.0	0.00e+00	0	39	0	840957952	52	6795
2026-01-02 12:15:52.69	100.32	11.31	-40.7	-42.0	20.4	0.00e+00	0	39	0	846200832	52	7173
2026-01-02 12:15:55.72	100.84	11.20	-40.0	-41.2	21.2	0.00e+00	0	39	0	852492288	54	5836
2026-01-02 12:15:58.75	101.36	11.09	-40.3	-41.5	20.7	0.00e+00	0	39	0	857735168	54	6084
2026-01-02 12:16:01.78	101.88	10.98	-40.1	-41.3	21.0	0.00e+00	0	39	0	862978048	54	5960
2026-01-02 12:16:04.81	102.39	10.87	-39.5	-40.7	21.6	0.00e+00	0	39	0	869269504	52	6211
2026-01-02 12:16:07.83	102.90	10.75	-40.0	-41.2	21.3	0.00e+00	0	39	0	874512384	52	6583
2026-01-02 12:16:10.86	103.40	10.64	-40.3	-41.8	20.7	0.00e+00	0	39	0	880803840	52	7058
2026-01-02 12:16:13.89	103.90	10.52	-40.6	-42.2	20.2	0.00e+00	0	39	0	886046720	52	7412
2026-01-02 12:16:16.92	104.40	10.40	-40.6	-42.1	20.3	0.00e+00	0	39	0	891289600	54	6515
2026-01-02 12:16:19.95	104.89	10.28	-40.5	-41.9	20.5	0.00e+00	0	39	0	897581056	54	6366
2026-01-02 12:16:22.97	105.38	10.16	-40.4	-41.7	20.7	0.00e+00	0	39	0	902823936	54	6227
2026-01-02 12:16:26.00	105.86	10.04	-40.6	-41.9	20.4	0.00e+00	0	39	0	909115392	54	6388
2026-01-02 12:16:29.03	106.34	9.92	-40.5	-41.8	20.5	0.00e+00	0	39	0	914358272	54	6301
2026-01-02 12:16:32.06	106.82	9.79	-40.5	-41.8	20.6	0.00e+00	0	39	0	920649728	54	6254
2026-01-02 12:16:35.09	107.30	9.67	-40.0	-41.2	21.0	0.00e+00	0	39	0	925892608	54	5851
2026-01-02 12:16:38.11	107.76	9.54	-40.0	-41.2	21.0	0.00e+00	0	39	0	931135488	52	6570
2026-01-02 12:16:41.15	108.23	9.41	-40.9	-42.2	20.2	0.00e+00	0	39	0	937426944	54	6605
2026-01-02 12:16:44.17	108.69	9.29	-41.3	-42.7	19.7	0.00e+00	0	39	0	942669824	54	6970
2026-01-02 12:16:47.20	109.15	9.16	-40.6	-41.9	20.5	0.00e+00	0	39	0	948961280	54	6345
2026-01-02 12:16:50.23	109.60	9.03	-40.1	-41.4	20.8	0.00e+00	0	39	0	954204160	54	6011
2026-01-02 12:16:53.26	110.05	8.90	-40.4	-41.7	20.7	0.00e+00	0	39	0	959447040	54	6180
2026-01-02 12:16:56.29	110.50	8.76	-40.0	-41.3	21.0	0.00e+00	0	39	0	965738496	54	5924
2026-01-02 12:16:59.32	110.94	8.63	-39.8	-40.9	21.3	0.00e+00	0	39	0	970981376	52	6376
2026-01-02 12:17:02.34	111.38	8.50	-39.8	-41.0	21.1	0.00e+00	0	39	0	977272832	52	6443
2026-01-02 12:17:05.37	111.81	8.36	-40.0	-41.2	21.0	0.00e+00	0	39	0	982515712	52	6570
2026-01-02 12:17:08.40	112.24	8.23	-40.0	-41.2	21.0	0.00e+00	0	39	0	987758592	52	6543
2026-01-02 12:17:11.43	112.67	8.09	-39.5	-40.6	21.5	0.00e+00	0	39	0	994050048	52	6168
2026-01-02 12:17:14.46	113.09	7.96	-39.4	-40.5	21.5	0.00e+00	0	39	0	999292928	52	6066
2026-01-02 12:17:17.49	113.51	7.82	-39.8	-40.9	21.2	0.00e+00	0	39	0	1005584384	52	6375
2026-01-02 12:17:20.52	113.92	7.68	-39.9	-41.1	21.1	0.00e+00	0	39	0	1010827264	52	6502
2026-01-02 12:17:23.55	114.34	7.55	-39.7	-40.9	21.2	0.00e+00	0	39	0	1017118720	52	6343
2026-01-02 12:17:26.58	114.74	7.41	-39.8	-41.0	21.2	0.00e+00	0	39	0	1022361600	52	6396
2026-01-02 12:17:29.61	115.15	7.27	-39.9	-41.1	21.1	0.00e+00	0	39	0	1027604480	52	6532
2026-01-02 12:17:32.63	115.55	7.13	-40.2	-41.5	20.6	0.00e+00	0	39	0	1033895936	52	6848
2026-01-02 12:17:35.66	115.94	6.99	-40.2	-41.5	20.6	0.00e+00	0	39	0	1039138816	52	6785
2026-01-02 12:17:38.69	116.34	6.85	-39.9	-41.2	20.9	0.00e+00	0	39	0	1045430272	52	6581
2026-01-02 12:17:41.71	116.72	6.71	-40.2	-41.4	20.6	0.00e+00	0	39	0	1050673152	52	6740
2026-01-02 12:17:44.74	117.11	6.57	-40.2	-41.4	20.6	0.00e+00	0	39	0	1055916032	52	6756
2026-01-02 12:17:47.77	117.49	6.43	-40.4	-41.7	20.4	0.00e+00	0	39	0	1062207488	52	6988
2026-01-02 12:17:50.80	117.87	6.29	-40.3	-41.7	20.5	0.00e+00	0	39	0	1067450368	52	6935
2026-01-02 12:17:53.83	118.25	6.15	-40.4	-41.7	20.5	0.00e+00	0	39	0	1073741824	52	6930
2026-01-02 12:17:56.85	118.62	6.01	-40.3	-41.6	20.4	0.00e+00	0	39	0	1078984704	52	6881
2026-01-02 12:17:59.88	118.99	5.86	-40.7	-42.0	20.0	0.00e+00	0	39	0	1085276160	52	7244
2026-01-02 12:18:02.91	119.35	5.72	-40.5	-41.9	20.2	0.00e+00	0	39	0	1090519040	52	7107
2026-01-02 12:18:05.94	119.71	5.58	-40.3	-41.7	20.3	0.00e+00	0	39	0	1095761920	52	6931
2026-01-02 12:18:08.97	120.07	5.44	-40.6	-42.1	19.9	0.00e+00	0	39	0	1102053376	54	6478
2026-01-02 12:18:12.00	120.42	5.29	-41.0	-42.4	19.6	0.00e+00	0	39	0	1107296256	54	6743
2026-01-02 12:18:15.03	120.78	5.15	-41.4	-42.9	19.1	0.00e+00	0	39	0	1113587712	54	7123
2026-01-02 12:18:18.06	121.12	5.01	-41.1	-42.6	19.5	0.00e+00	0	39	0	1118830592	56	6118
2026-01-02 12:18:21.09	121.47	4.87	-41.4	-43.0	19.0	0.00e+00	0	39	0	1124073472	56	6426
2026-01-02 12:18:24.12	121.81	4.72	-41.4	-42.9	19.2	0.00e+00	0	39	0	1130364928	56	6379
2026-01-02 12:18:27.14	122.15	4.58	-41.4	-43.0	18.9	0.00e+00	0	39	0	1135607808	56	6417
2026-01-02 12:18:30.17	122.48	4.44	-41.9	-43.6	18.4	0.00e+00	0	39	0	1141899264	56	6873
2026-01-02 12:18:33.20	122.82	4.29	-41.4	-43.0	19.0	0.00e+00	0	39	0	1147142144	56	6450
2026-01-02 12:18:36.23	123.15	4.15	-41.3	-42.9	19.0	0.00e+00	0	39	0	1153433600	56	6331
2026-01-02 12:18:39.26	123.47	4.01	-41.6	-43.3	18.5	0.00e+00	0	39	0	1158676480	56	6628
2026-01-02 12:18:42.28	123.79	3.87	-41.7	-43.4	18.5	0.00e+00	0	39	0	1163919360	56	6753
2026-01-02 12:18:45.31	124.11	3.72	-42.2	-44.3	17.6	0.00e+00	0	39	0	1170210816	56	7425
2026-01-02 12:18:48.34	124.43	3.58	-43.1	-45.5	16.3	0.00e+00	0	39	0	1175453696	58	7651
2026-01-02 12:18:51.37	124.74	3.44	-43.4	-45.8	15.8	0.00e+00	0	39	0	1181745152	58	7953
2026-01-02 12:18:54.40	125.06	3.29	-42.9	-45.1	16.5	0.00e+00	0	39	0	1186988032	58	7271
2026-01-02 12:18:57.43	125.36	3.15	-43.2	-45.6	16.2	0.00e+00	0	39	0	1192230912	58	7715
2026-01-02 12:19:00.46	125.67	3.01	-47.7	-62.2	3.6	0.00e+00	0	39	104	1198522368	60	46751
2026-01-02 12:19:03.48	125.97	2.87	-49.0	-64.1	3.6	1.51e+00	0	39	104	1198522368	60	58245
2026-01-02 12:19:06.51	126.27	2.72	-49.3	-64.6	3.6	1.51e+00	0	39	104	1198522368	60	61148
2026-01-02 12:19:09.54	126.57	2.58	-49.4	-64.6	3.6	1.51e+00	0	39	104	1198522368	60	61356
2026-01-02 12:19:12.57	126.86	2.44	-49.4	-64.7	3.6	1.51e+00	0	39	104	1198522368	60	61978
2026-01-02 12:19:15.60	127.15	2.30	-49.4	-64.6	3.6	1.51e+00	0	39	104	1198522368	60	61673
2026-01-02 12:19:18.63	127.44	2.15	-49.4	-64.7	3.6	1.51e+00	0	39	104	1198522368	60	61797
2026-01-02 12:19:21.66	127.73	2.01	-49.4	-64.6	3.6	1.51e+00	0	39	104	1198522368	60	61585
2026-01-02 12:19:24.69	128.01	1.87	-49.4	-64.6	3.6	1.51e+00	0	39	104	1198522368	60	61274
2026-01-02 12:19:27.72	128.29	1.73	-49.4	-64.6	3.6	1.51e+00	0	40	104	1198522368	60	61284
2026-01-02 12:19:30.75	128.57	1.59	-49.4	-64.6	3.6	1.51e+00	0	39	104	1198522368	60	61284
2026-01-02 12:19:33.78	128.85	1.45	-49.4	-64.6	3.6	1.51e+00	0	39	104	1198522368	60	61619
2026-01-02 12:19:36.80	129.12	1.31	-49.4	-64.6	3.6	1.51e+00	0	39	104	1198522368	60	61162
2026-01-02 12:19:39.83	129.39	1.16	-49.4	-64.6	3.6	1.51e+00	0	39	104	1198522368	60	61210
2026-01-02 12:19:42.86	129.66	1.02	-49.3	-64.6	3.6	1.51e+00	0	39	104	1198522368	60	61158
2026-01-02 12:19:45.89	129.93	0.88	-49.4	-64.5	3.6	1.51e+00	0	40	104	1198522368	60	61008
2026-01-02 12:19:48.92	130.19	0.74	-49.3	-64.6	3.6	1.51e+00	0	40	104	1198522368	60	61345
2026-01-02 12:19:51.95	130.45	0.60	-49.4	-64.5	3.6	1.51e+00	0	40	104	1198522368	60	60947
2026-01-02 12:19:54.98	130.71	0.46	-49.4	-64.6	3.6	1.51e+00	0	40	104	1198522368	60	61114
2026-01-02 12:19:58.01	130.97	0.32	-49.4	-64.6	3.6	1.51e+00	0	39	104	1198522368	60	61379
2026-01-02 12:20:01.04	131.22	0.18	-49.3	-64.6	3.6	1.51e+00	0	40	104	1198522368	60	61242
2026-01-02 12:20:04.07	131.48	0.04	-49.3	-64.6	3.6	1.51e+00	0	39	104	1198522368	60	61341
2026-01-02 12:20:07.10	131.73	-0.10	-49.4	-64.6	3.6	1.51e+00	0	39	104	1198522368	60	61416

#Closed at: 2026-01-02 12:20:07
#Recorded file [1198 MB]: D:/lorett/data/35029_260103_000723.dat