passes_logs/2026/01/02/R4.6S_Anadyr/R4.6S_Anadyr__20260102_042541_FENGYUN_3D_rec.log

#Pass ID: 20260102_042541_FENGYUN 3D
#Satellite: FENGYUN 3D
#Configuration: FENGYUN 3D
#almurnet v.1.7.20251203
#Start time: 2026-01-02 04:25:42

#Version: 2.2.20231116
#Station: R4.6S_Anadyr
#Location: 177.4865 lon 64.73178 lat
#TLE: 1 43010U 17072A   26001.61291428  .00000334  00000+0  17967-3 0  9999
#TLE: 2 43010  98.9910 333.2233 0001869 133.3004 226.8328 14.19691253421350

#Time	Az	El	Level	Level2	SNR	BER	BlckErr	Temp	State	Recorded	gain1	gain2
2026-01-02 04:25:42.92	213.48	0.09	-49.4	-67.1	3.5	3.02e+01	0	34	0	0	60	87119
2026-01-02 04:25:46.96	213.76	0.30	-49.2	-61.3	3.6	8.46e-01	0	35	104	0	60	41925
2026-01-02 04:25:50.99	214.05	0.50	-49.0	-61.2	3.6	8.45e-01	0	35	104	0	60	41684
2026-01-02 04:25:55.03	214.34	0.71	-48.8	-60.9	3.6	8.45e-01	0	35	104	0	60	40222
2026-01-02 04:25:59.07	214.63	0.92	-47.8	-59.9	3.6	8.46e-01	0	35	104	0	60	35551
2026-01-02 04:26:03.12	214.93	1.13	-47.5	-59.6	3.6	8.45e-01	0	35	104	0	60	34673
2026-01-02 04:26:07.16	215.23	1.34	-47.5	-59.5	3.6	8.46e-01	0	35	104	0	60	34148
2026-01-02 04:26:11.20	215.53	1.55	-47.5	-59.6	3.6	8.45e-01	0	35	104	0	60	34459
2026-01-02 04:26:15.24	215.84	1.76	-47.5	-59.6	3.6	8.45e-01	0	35	104	0	60	34477
2026-01-02 04:26:19.27	216.15	1.98	-47.5	-59.4	3.6	8.46e-01	0	35	104	0	60	33912
2026-01-02 04:26:23.31	216.47	2.19	-47.5	-59.4	3.6	8.45e-01	0	36	104	0	60	33595
2026-01-02 04:26:27.35	216.79	2.41	-47.4	-59.0	3.6	8.46e-01	0	36	104	0	60	32188
2026-01-02 04:26:31.39	217.11	2.62	-47.1	-54.6	3.8	8.34e-01	0	36	0	0	60	19344
2026-01-02 04:26:35.44	217.44	2.84	-46.1	-50.6	7.2	5.10e-01	0	36	0	2097152	60	12188
2026-01-02 04:26:39.48	217.78	3.06	-41.5	-43.0	15.5	0.00e+00	0	36	0	24117248	56	6456
2026-01-02 04:26:43.52	218.12	3.28	-42.6	-44.6	17.1	7.53e-01	0	36	104	35651584	60	6114
2026-01-02 04:26:47.56	218.46	3.50	-37.8	-38.7	20.2	0.00e+00	0	36	0	57671680	50	5566
2026-01-02 04:26:51.59	218.81	3.72	-37.0	-37.8	20.9	0.00e+00	0	36	0	80740352	46	6306
2026-01-02 04:26:55.63	219.17	3.94	-36.5	-37.4	21.4	0.00e+00	0	36	0	102760448	46	5994
2026-01-02 04:26:59.67	219.53	4.16	-36.2	-37.0	21.8	0.00e+00	0	36	0	125829120	46	5714
2026-01-02 04:27:03.71	219.89	4.38	-36.1	-37.0	21.8	0.00e+00	0	36	0	148897792	46	5722
2026-01-02 04:27:07.75	220.26	4.61	-36.3	-37.1	21.7	0.00e+00	0	36	0	170917888	46	5822
2026-01-02 04:27:11.79	220.64	4.83	-36.3	-37.1	21.6	0.00e+00	0	36	0	193986560	46	5816
2026-01-02 04:27:15.83	221.02	5.06	-36.3	-37.1	21.7	0.00e+00	0	36	0	217055232	46	5794
2026-01-02 04:27:19.87	221.41	5.29	-36.3	-37.2	21.7	0.00e+00	0	36	0	239075328	46	5847
2026-01-02 04:27:23.91	221.80	5.52	-36.4	-37.3	21.5	0.00e+00	0	36	0	262144000	46	5919
2026-01-02 04:27:27.95	222.20	5.74	-36.7	-37.5	21.4	0.00e+00	0	36	0	285212672	46	6075
2026-01-02 04:27:31.98	222.60	5.97	-36.5	-37.4	21.5	0.00e+00	0	36	0	308281344	46	5974
2026-01-02 04:27:36.02	223.01	6.20	-36.6	-37.5	21.4	0.00e+00	0	36	0	330301440	46	6054
2026-01-02 04:27:40.06	223.43	6.44	-36.6	-37.4	21.2	0.00e+00	0	36	0	353370112	46	6008
2026-01-02 04:27:44.10	223.85	6.67	-36.7	-37.5	20.9	0.00e+00	0	36	0	375390208	46	6088
2026-01-02 04:27:48.14	224.28	6.90	-36.6	-37.4	21.1	0.00e+00	0	36	0	398458880	46	6028
2026-01-02 04:27:52.18	224.72	7.13	-36.5	-37.4	21.6	0.00e+00	0	36	0	421527552	46	5984
2026-01-02 04:27:56.21	225.16	7.37	-36.9	-37.7	21.3	0.00e+00	0	36	0	443547648	46	6217
2026-01-02 04:28:00.24	225.61	7.60	-37.0	-37.9	20.8	0.00e+00	0	36	0	466616320	46	6340
2026-01-02 04:28:04.29	226.07	7.84	-36.9	-37.7	21.2	0.00e+00	0	36	0	489684992	46	6227
2026-01-02 04:28:08.32	226.54	8.08	-36.8	-37.6	21.5	0.00e+00	0	36	0	511705088	46	6157
2026-01-02 04:28:12.36	227.01	8.31	-36.9	-37.8	21.2	0.00e+00	0	36	0	534773760	46	6269
2026-01-02 04:28:16.40	227.49	8.55	-37.0	-37.9	21.3	0.00e+00	0	36	0	557842432	46	6339
2026-01-02 04:28:20.44	227.97	8.79	-37.0	-37.9	21.3	0.00e+00	0	36	0	579862528	46	6322
2026-01-02 04:28:24.48	228.47	9.03	-37.3	-38.2	21.0	0.00e+00	0	36	0	602931200	46	6568
2026-01-02 04:28:28.52	228.97	9.27	-37.3	-38.2	21.1	0.00e+00	0	36	0	625999872	46	6564
2026-01-02 04:28:32.56	229.48	9.51	-36.9	-37.7	21.6	0.00e+00	0	36	0	648019968	46	6202
2026-01-02 04:28:36.60	230.00	9.75	-36.7	-37.5	21.7	0.00e+00	0	36	0	671088640	46	6070
2026-01-02 04:28:40.64	230.53	9.99	-37.2	-38.1	21.3	0.00e+00	0	36	0	694157312	46	6476
2026-01-02 04:28:44.68	231.06	10.23	-37.3	-38.1	21.2	0.00e+00	0	36	0	716177408	46	6530
2026-01-02 04:28:48.71	231.61	10.47	-37.1	-37.9	21.4	0.00e+00	0	36	0	739246080	46	6360
2026-01-02 04:28:52.75	232.16	10.71	-37.0	-37.9	21.4	0.00e+00	0	36	0	762314752	46	6329
2026-01-02 04:28:56.79	232.72	10.95	-36.7	-37.5	21.8	0.00e+00	0	36	0	784334848	46	6053
2026-01-02 04:29:00.82	233.29	11.19	-36.6	-37.4	21.9	0.00e+00	0	36	0	807403520	46	5998
2026-01-02 04:29:04.86	233.87	11.43	-36.2	-37.0	22.3	0.00e+00	0	36	0	830472192	46	5735
2026-01-02 04:29:08.90	234.46	11.67	-36.1	-36.8	22.4	0.00e+00	0	36	0	852492288	46	5624
2026-01-02 04:29:12.94	235.06	11.91	-35.5	-36.2	22.9	0.00e+00	0	36	0	875560960	44	5880
2026-01-02 04:29:16.98	235.67	12.14	-35.5	-36.3	22.9	0.00e+00	0	36	0	898629632	44	5921
2026-01-02 04:29:21.02	236.28	12.38	-35.5	-36.3	23.0	0.00e+00	0	36	0	920649728	44	5914
2026-01-02 04:29:25.05	236.91	12.62	-35.1	-35.8	23.4	0.00e+00	0	36	0	943718400	44	5602
2026-01-02 04:29:29.09	237.55	12.86	-35.1	-35.8	23.4	0.00e+00	0	36	0	966787072	44	5616
2026-01-02 04:29:33.13	238.19	13.09	-34.8	-35.5	23.7	0.00e+00	0	36	0	988807168	42	6101
2026-01-02 04:29:37.17	238.85	13.33	-34.6	-35.4	24.0	0.00e+00	0	36	0	1011875840	42	5967
2026-01-02 04:29:41.20	239.52	13.56	-33.8	-34.6	24.6	0.00e+00	0	36	0	1034944512	42	5448
2026-01-02 04:29:45.24	240.19	13.79	-33.7	-34.4	24.8	0.00e+00	0	36	0	1056964608	40	6011
2026-01-02 04:29:49.28	240.88	14.02	-33.5	-34.1	25.0	0.00e+00	0	36	0	1080033280	40	5821
2026-01-02 04:29:53.32	241.58	14.25	-33.3	-33.9	25.3	0.00e+00	0	36	0	1103101952	40	5678
2026-01-02 04:29:57.36	242.29	14.48	-33.1	-33.8	25.4	0.00e+00	0	36	0	1125122048	40	5592
2026-01-02 04:30:01.39	243.00	14.70	-32.9	-33.6	25.6	0.00e+00	0	36	0	1148190720	40	5458
2026-01-02 04:30:05.43	243.73	14.93	-32.7	-33.4	25.8	0.00e+00	0	36	0	1170210816	38	5978
2026-01-02 04:30:09.47	244.47	15.15	-32.8	-33.4	25.8	0.00e+00	0	36	0	1193279488	38	5995
2026-01-02 04:30:13.51	245.22	15.37	-32.6	-33.2	25.9	0.00e+00	0	36	0	1216348160	38	5891
2026-01-02 04:30:17.55	245.99	15.58	-32.5	-33.1	26.0	0.00e+00	0	36	0	1239416832	38	5799
2026-01-02 04:30:21.59	246.76	15.79	-32.4	-33.1	25.9	0.00e+00	0	36	0	1261436928	38	5780
2026-01-02 04:30:25.62	247.54	16.00	-32.5	-33.1	26.0	0.00e+00	0	36	0	1284505600	38	5819
2026-01-02 04:30:29.67	248.33	16.21	-32.7	-33.3	25.8	0.00e+00	0	36	0	1307574272	38	5949
2026-01-02 04:30:33.71	249.14	16.41	-32.4	-33.0	26.1	0.00e+00	0	36	0	1329594368	38	5761
2026-01-02 04:30:37.75	249.95	16.61	-32.4	-33.1	26.0	0.00e+00	0	36	0	1352663040	38	5796
2026-01-02 04:30:41.79	250.78	16.80	-32.4	-33.1	26.1	0.00e+00	0	36	0	1375731712	38	5788
2026-01-02 04:30:45.83	251.61	17.00	-32.2	-32.9	26.2	0.00e+00	0	36	0	1397751808	38	5643
2026-01-02 04:30:49.86	252.45	17.18	-32.2	-32.9	26.3	0.00e+00	0	36	0	1420820480	38	5645
2026-01-02 04:30:53.90	253.31	17.36	-32.6	-33.2	26.0	0.00e+00	0	36	0	1443889152	38	5889
2026-01-02 04:30:57.95	254.18	17.54	-32.2	-32.8	26.3	0.00e+00	0	36	0	1465909248	38	5612
2026-01-02 04:31:01.98	255.05	17.71	-32.1	-32.7	26.4	0.00e+00	0	36	0	1488977920	38	5541
2026-01-02 04:31:06.02	255.93	17.88	-32.4	-33.1	26.0	0.00e+00	0	36	0	1512046592	38	5795
2026-01-02 04:31:10.06	256.83	18.04	-32.0	-32.7	26.4	0.00e+00	0	36	0	1534066688	38	5507
2026-01-02 04:31:14.09	257.73	18.19	-32.4	-33.0	26.2	0.00e+00	0	36	0	1557135360	38	5731
2026-01-02 04:31:18.13	258.64	18.34	-32.1	-32.7	26.3	0.00e+00	0	36	0	1579155456	38	5537
2026-01-02 04:31:22.16	259.55	18.48	-32.3	-33.0	26.1	0.00e+00	0	36	0	1602224128	38	5707
2026-01-02 04:31:26.20	260.48	18.62	-32.1	-32.7	26.4	0.00e+00	0	36	0	1625292800	38	5550
2026-01-02 04:31:30.24	261.42	18.75	-31.8	-32.5	26.6	0.00e+00	0	36	0	1648361472	38	5409
2026-01-02 04:31:34.28	262.36	18.87	-31.6	-32.2	26.7	0.00e+00	0	36	0	1670381568	36	5870
2026-01-02 04:31:38.31	263.31	18.99	-31.6	-32.3	26.7	0.00e+00	0	36	0	1693450240	36	5898
2026-01-02 04:31:42.36	264.27	19.10	-31.7	-32.3	26.7	0.00e+00	0	37	0	1716518912	36	5956
2026-01-02 04:31:46.40	265.23	19.20	-31.8	-32.4	26.6	0.00e+00	0	36	0	1738539008	36	6020
2026-01-02 04:31:50.44	266.20	19.29	-31.7	-32.3	26.6	0.00e+00	0	36	0	1761607680	36	5928
2026-01-02 04:31:54.47	267.18	19.38	-31.6	-32.2	26.8	0.00e+00	0	36	0	1783627776	36	5883
2026-01-02 04:31:58.50	268.16	19.46	-31.6	-32.3	26.7	0.00e+00	0	36	0	1806696448	36	5912
2026-01-02 04:32:02.54	269.14	19.53	-31.7	-32.3	26.7	0.00e+00	0	36	0	1829765120	36	5957
2026-01-02 04:32:06.58	270.13	19.59	-31.6	-32.2	26.8	0.00e+00	0	36	0	1851785216	36	5883
2026-01-02 04:32:10.61	271.12	19.64	-31.6	-32.2	26.8	0.00e+00	0	36	0	1874853888	36	5870
2026-01-02 04:32:14.65	272.11	19.69	-31.5	-32.2	26.8	0.00e+00	0	36	0	1897922560	36	5868
2026-01-02 04:32:18.69	273.11	19.72	-31.3	-31.9	27.0	0.00e+00	0	36	0	1920991232	36	5685
2026-01-02 04:32:22.72	274.11	19.75	-31.6	-32.2	26.7	0.00e+00	0	36	0	1943011328	36	5888
2026-01-02 04:32:26.76	275.11	19.77	-31.4	-32.0	26.9	0.00e+00	0	36	0	1966080000	36	5755
2026-01-02 04:32:30.80	276.11	19.78	-31.5	-32.1	26.9	0.00e+00	0	36	0	1988100096	36	5797
2026-01-02 04:32:34.84	277.12	19.78	-31.6	-32.2	26.8	0.00e+00	0	36	0	2011168768	36	5888
2026-01-02 04:32:38.88	278.12	19.78	-31.6	-32.2	26.8	0.00e+00	0	36	0	2034237440	36	5887
2026-01-02 04:32:42.92	279.12	19.76	-31.7	-32.3	26.4	0.00e+00	0	36	0	2056257536	36	5949
2026-01-02 04:32:46.96	280.12	19.74	-31.8	-32.4	26.3	0.00e+00	0	36	0	2079326208	36	5997
2026-01-02 04:32:51.00	281.12	19.71	-31.6	-32.3	26.7	0.00e+00	0	36	0	2102394880	36	5912
2026-01-02 04:32:55.04	282.12	19.67	-31.7	-32.4	26.5	0.00e+00	0	36	0	2125463552	36	6017
2026-01-02 04:32:59.08	283.11	19.62	-31.4	-32.1	26.8	0.00e+00	0	36	0	2147483648	36	5814
2026-01-02 04:33:03.12	284.10	19.56	-31.2	-31.9	27.1	0.00e+00	0	36	0	2170552320	36	5649
2026-01-02 04:33:07.16	285.09	19.49	-31.7	-32.3	26.6	0.00e+00	0	36	0	2192572416	36	5964
2026-01-02 04:33:11.19	286.07	19.42	-31.8	-32.4	26.6	0.00e+00	0	36	0	2215641088	36	6019
2026-01-02 04:33:15.23	287.04	19.34	-32.0	-32.7	26.4	0.00e+00	0	36	0	2238709760	36	6189
2026-01-02 04:33:19.28	288.02	19.25	-32.3	-33.0	26.3	0.00e+00	0	36	0	2260729856	36	6429
2026-01-02 04:33:23.32	288.98	19.15	-32.3	-32.9	26.3	0.00e+00	0	36	0	2283798528	36	6364
2026-01-02 04:33:27.36	289.94	19.05	-32.3	-32.9	26.2	0.00e+00	0	36	0	2306867200	36	6386
2026-01-02 04:33:31.39	290.89	18.94	-31.9	-32.5	26.5	0.00e+00	0	36	0	2329935872	36	6102
2026-01-02 04:33:35.43	291.84	18.82	-31.9	-32.6	26.5	0.00e+00	0	36	0	2351955968	36	6139
2026-01-02 04:33:39.47	292.77	18.69	-32.0	-32.7	26.4	0.00e+00	0	36	0	2375024640	36	6196
2026-01-02 04:33:43.51	293.70	18.56	-31.8	-32.4	26.5	0.00e+00	0	36	0	2397044736	36	5976
2026-01-02 04:33:47.55	294.63	18.42	-32.1	-32.8	26.4	0.00e+00	0	36	0	2420113408	36	6267
2026-01-02 04:33:51.59	295.54	18.28	-32.3	-32.9	26.1	0.00e+00	0	36	0	2443182080	36	6368
2026-01-02 04:33:55.63	296.44	18.13	-32.2	-32.8	26.3	0.00e+00	0	36	0	2465202176	36	6251
2026-01-02 04:33:59.67	297.34	17.97	-32.2	-32.9	26.3	0.00e+00	0	36	0	2488270848	36	6365
2026-01-02 04:34:03.71	298.23	17.81	-32.6	-33.2	26.1	0.00e+00	0	36	0	2511339520	36	6574
2026-01-02 04:34:07.75	299.10	17.64	-32.6	-33.3	26.1	0.00e+00	0	36	0	2534408192	36	6621
2026-01-02 04:34:11.79	299.97	17.47	-32.7	-33.3	26.0	0.00e+00	0	36	0	2556428288	36	6674
2026-01-02 04:34:15.83	300.83	17.29	-32.5	-33.1	26.2	0.00e+00	0	36	0	2579496960	38	5793
2026-01-02 04:34:19.86	301.67	17.11	-32.6	-33.2	26.1	0.00e+00	0	36	0	2601517056	38	5893
2026-01-02 04:34:23.90	302.51	16.92	-32.6	-33.3	26.1	0.00e+00	0	37	0	2624585728	38	5922
2026-01-02 04:34:27.94	303.34	16.73	-32.6	-33.2	26.0	0.00e+00	0	36	0	2647654400	38	5864
2026-01-02 04:34:31.98	304.16	16.53	-32.6	-33.2	26.1	0.00e+00	0	36	0	2669674496	38	5875
2026-01-02 04:34:36.02	304.96	16.33	-32.7	-33.3	25.9	0.00e+00	0	37	0	2692743168	38	5929
2026-01-02 04:34:40.07	305.76	16.13	-32.6	-33.2	26.0	0.00e+00	0	37	0	2715811840	38	5894
2026-01-02 04:34:44.11	306.55	15.92	-32.9	-33.5	25.8	0.00e+00	0	36	0	2738880512	38	6060
2026-01-02 04:34:48.15	307.32	15.71	-33.1	-33.8	25.6	0.00e+00	0	36	0	2760900608	38	6289
2026-01-02 04:34:52.19	308.09	15.50	-33.2	-34.0	25.4	0.00e+00	0	36	0	2783969280	38	6399
2026-01-02 04:34:56.23	308.84	15.29	-33.4	-34.0	25.2	0.00e+00	0	36	0	2805989376	38	6452
2026-01-02 04:35:00.27	309.58	15.07	-33.7	-34.4	25.1	0.00e+00	0	36	0	2829058048	38	6765
2026-01-02 04:35:04.30	310.31	14.85	-33.7	-34.4	25.2	0.00e+00	0	36	0	2852126720	40	6005
2026-01-02 04:35:08.35	311.04	14.63	-33.7	-34.4	25.0	0.00e+00	0	36	0	2875195392	40	5982
2026-01-02 04:35:12.29	311.73	14.41	-33.5	-34.2	25.2	0.00e+00	0	36	0	2897215488	40	5843
2026-01-02 04:35:16.33	312.43	14.18	-33.8	-34.4	24.9	0.00e+00	0	36	0	2919235584	40	5996
2026-01-02 04:35:20.37	313.13	13.95	-33.7	-34.4	24.9	0.00e+00	0	36	0	2942304256	40	5969
2026-01-02 04:35:24.41	313.81	13.72	-33.4	-34.0	25.3	0.00e+00	0	36	0	2964324352	40	5719
2026-01-02 04:35:28.44	314.47	13.49	-33.4	-34.0	25.1	0.00e+00	0	36	0	2987393024	40	5719
2026-01-02 04:35:32.48	315.14	13.26	-33.5	-34.2	25.1	0.00e+00	0	36	0	3010461696	40	5881
2026-01-02 04:35:36.52	315.79	13.03	-33.5	-34.2	25.0	0.00e+00	0	37	0	3032481792	40	5889
2026-01-02 04:35:40.56	316.43	12.79	-33.4	-34.2	25.1	0.00e+00	0	36	0	3055550464	40	5851
2026-01-02 04:35:44.60	317.06	12.56	-33.8	-34.5	24.8	0.00e+00	0	37	0	3078619136	40	6045
2026-01-02 04:35:48.64	317.68	12.32	-34.0	-34.7	24.6	0.00e+00	0	36	0	3101687808	40	6208
2026-01-02 04:35:52.68	318.29	12.09	-34.1	-34.8	24.5	0.00e+00	0	36	0	3123707904	40	6288
2026-01-02 04:35:56.72	318.89	11.85	-34.1	-34.8	24.5	0.00e+00	0	36	0	3146776576	40	6258
2026-01-02 04:36:00.77	319.49	11.61	-34.0	-34.6	24.6	0.00e+00	0	36	0	3168796672	40	6158
2026-01-02 04:36:04.80	320.07	11.37	-34.0	-34.8	24.7	0.00e+00	0	36	0	3191865344	40	6247
2026-01-02 04:36:08.84	320.64	11.13	-34.0	-34.8	24.6	0.00e+00	0	36	0	3214934016	40	6271
2026-01-02 04:36:12.88	321.21	10.90	-34.2	-34.9	24.3	0.00e+00	0	36	0	3236954112	40	6319
2026-01-02 04:36:16.91	321.76	10.66	-34.2	-35.0	24.3	0.00e+00	0	36	0	3260022784	40	6398
2026-01-02 04:36:20.95	322.31	10.42	-34.3	-35.0	24.3	0.00e+00	0	36	0	3283091456	40	6464
2026-01-02 04:36:25.00	322.85	10.18	-34.5	-35.1	24.1	0.00e+00	0	36	0	3306160128	42	5814
2026-01-02 04:36:29.03	323.38	9.94	-34.8	-35.5	23.8	0.00e+00	0	36	0	3328180224	42	6035
2026-01-02 04:36:33.07	323.90	9.71	-34.8	-35.6	23.8	0.00e+00	0	36	0	3351248896	42	6130
2026-01-02 04:36:37.11	324.42	9.47	-34.8	-35.4	23.7	0.00e+00	0	36	0	3373268992	42	6010
2026-01-02 04:36:41.15	324.93	9.23	-34.7	-35.4	23.7	0.00e+00	0	36	0	3396337664	42	5975
2026-01-02 04:36:45.19	325.43	8.99	-34.9	-35.6	23.6	0.00e+00	0	36	0	3419406336	42	6119
2026-01-02 04:36:49.22	325.92	8.76	-35.2	-35.9	23.3	0.00e+00	0	36	0	3441426432	42	6332
2026-01-02 04:36:53.26	326.40	8.52	-35.4	-36.1	23.1	0.00e+00	0	36	0	3464495104	42	6525
2026-01-02 04:36:57.29	326.87	8.29	-35.4	-36.2	23.1	0.00e+00	0	36	0	3487563776	42	6589
2026-01-02 04:37:01.32	327.34	8.05	-35.3	-35.9	23.1	0.00e+00	0	36	0	3509583872	42	6389
2026-01-02 04:37:05.35	327.80	7.82	-35.3	-36.0	23.1	0.00e+00	0	36	0	3532652544	42	6440
2026-01-02 04:37:09.39	328.26	7.59	-35.4	-36.2	23.0	0.00e+00	0	36	0	3555721216	42	6581
2026-01-02 04:37:13.43	328.70	7.35	-35.7	-36.4	22.6	0.00e+00	0	36	0	3577741312	42	6757
2026-01-02 04:37:17.47	329.15	7.12	-35.6	-36.3	22.6	0.00e+00	0	36	0	3600809984	42	6655
2026-01-02 04:37:21.51	329.58	6.89	-35.6	-36.4	22.7	0.00e+00	0	36	0	3623878656	44	6020
2026-01-02 04:37:25.54	330.01	6.66	-35.6	-36.4	22.7	0.00e+00	0	36	0	3645898752	44	6006
2026-01-02 04:37:29.58	330.43	6.43	-35.6	-36.3	22.6	0.00e+00	0	36	0	3668967424	44	5905
2026-01-02 04:37:33.62	330.84	6.20	-35.8	-36.6	22.1	0.00e+00	0	36	0	3692036096	44	6130
2026-01-02 04:37:37.66	331.25	5.97	-36.1	-36.9	22.0	0.00e+00	0	36	0	3714056192	44	6333
2026-01-02 04:37:41.70	331.66	5.74	-35.9	-36.6	22.2	0.00e+00	0	36	0	3737124864	44	6138
2026-01-02 04:37:45.73	332.05	5.52	-35.8	-36.5	22.1	0.00e+00	0	36	0	3759144960	44	6072
2026-01-02 04:37:49.77	332.44	5.29	-36.7	-37.5	20.9	0.00e+00	0	36	0	3782213632	44	6832
2026-01-02 04:37:53.81	332.83	5.07	-38.4	-39.5	17.7	0.00e+00	0	37	0	3805282304	48	6841
2026-01-02 04:37:57.85	333.21	4.84	-41.1	-43.4	12.4	6.40e-05	0	36	0	3828350976	54	7554
2026-01-02 04:38:01.88	333.58	4.62	-43.1	-48.2	6.3	2.22e-01	0	36	0	3850371072	58	10387
2026-01-02 04:38:05.92	333.95	4.40	-43.7	-53.1	3.9	8.43e-01	0	37	104	3856662528	58	18236
2026-01-02 04:38:09.96	334.32	4.18	-43.8	-55.0	3.6	8.46e-01	0	37	104	3856662528	60	20353
2026-01-02 04:38:14.00	334.68	3.96	-44.0	-55.5	3.6	8.46e-01	0	37	104	3856662528	60	21645
2026-01-02 04:38:18.04	335.03	3.74	-44.0	-56.1	3.6	8.44e-01	0	37	104	3856662528	60	22974
2026-01-02 04:38:22.07	335.38	3.52	-43.9	-56.0	3.6	8.44e-01	0	37	104	3856662528	60	22794
2026-01-02 04:38:26.11	335.72	3.30	-43.9	-56.0	3.6	8.45e-01	0	37	104	3856662528	60	22751
2026-01-02 04:38:30.15	336.06	3.09	-43.9	-56.0	3.6	8.46e-01	0	37	104	3856662528	60	22800
2026-01-02 04:38:34.19	336.40	2.87	-48.6	-60.7	3.6	8.44e-01	0	37	104	3856662528	60	39364
2026-01-02 04:38:38.23	336.73	2.66	-49.1	-61.1	3.6	8.44e-01	0	37	104	3856662528	60	41196
2026-01-02 04:38:42.27	337.05	2.44	-48.7	-61.1	3.6	8.45e-01	0	37	104	3856662528	60	40966
2026-01-02 04:38:46.30	337.37	2.23	-48.8	-61.0	3.6	8.46e-01	0	37	104	3856662528	60	40409
2026-01-02 04:38:50.34	337.69	2.02	-49.0	-61.1	3.6	8.46e-01	0	37	104	3856662528	60	41011
2026-01-02 04:38:54.38	338.00	1.81	-48.9	-61.1	3.6	8.46e-01	0	37	104	3856662528	60	40925
2026-01-02 04:38:58.42	338.31	1.60	-49.0	-61.1	3.6	8.47e-01	0	37	104	3856662528	60	41170
2026-01-02 04:39:02.46	338.62	1.39	-49.1	-61.2	3.6	8.46e-01	0	37	104	3856662528	60	41379
2026-01-02 04:39:06.50	338.92	1.18	-49.0	-61.2	3.6	8.45e-01	0	37	104	3856662528	60	41482
2026-01-02 04:39:10.54	339.21	0.97	-49.1	-61.3	3.6	8.45e-01	0	37	104	3856662528	60	41772
2026-01-02 04:39:14.58	339.51	0.76	-49.1	-61.2	3.6	8.46e-01	0	37	104	3856662528	60	41603
2026-01-02 04:39:18.61	339.79	0.56	-49.1	-61.2	3.6	8.45e-01	0	37	104	3856662528	60	41302
2026-01-02 04:39:22.65	340.08	0.36	-49.0	-61.1	3.6	8.44e-01	0	37	104	3856662528	60	41004
2026-01-02 04:39:26.69	340.36	0.15	-49.0	-61.2	3.6	8.46e-01	0	37	104	3856662528	60	41346
2026-01-02 04:39:30.73	340.64	-0.05	-49.0	-61.2	3.6	8.45e-01	0	37	104	3856662528	60	41356

#Closed at: 2026-01-02 04:39:32
#Recorded file [3856 MB]: D:/lorett/data/35029_260102_162542.dat