passes_logs/2026/01/02/R4.6S_Anadyr/R4.6S_Anadyr__20260102_140834_NOAA_20_JPSS-1_rec.log

#Pass ID: 20260102_140834_NOAA 20 (JPSS-1)
#Satellite: NOAA 20 (JPSS-1)
#Configuration: NOAA 20
#almurnet v.1.7.20251203
#Start time: 2026-01-02 14:08:37

#Version: 2.2.20231116
#Station: R4.6S_Anadyr
#Location: 177.4865 lon 64.73178 lat
#TLE: 1 43013U 17073A   26001.93781127  .00000184  00000+0  10834-3 0  9997
#TLE: 2 43013  98.7622 303.0160 0001916  58.2205 301.9158 14.19532295420889

#Time	Az	El	Level	Level2	SNR	BER	BlckErr	Temp	State	Recorded	gain1	gain2
2026-01-02 14:08:37.28	19.57	0.17	-49.5	-63.3	3.3	1.54e+00	0	38	0	0	60	52763
2026-01-02 14:08:41.31	19.66	0.41	-49.5	-64.7	3.6	1.51e+00	0	38	104	0	60	62419
2026-01-02 14:08:45.35	19.75	0.65	-49.2	-64.4	3.6	1.51e+00	0	38	104	0	60	59652
2026-01-02 14:08:49.39	19.84	0.90	-48.4	-63.6	3.6	1.51e+00	0	38	104	0	60	54528
2026-01-02 14:08:53.43	19.93	1.14	-47.6	-62.8	3.6	1.51e+00	0	39	104	0	60	49982
2026-01-02 14:08:57.47	20.02	1.39	-47.6	-62.7	3.6	1.51e+00	0	39	104	0	60	49571
2026-01-02 14:09:01.51	20.11	1.64	-47.6	-62.8	3.6	1.51e+00	0	39	104	0	60	49639
2026-01-02 14:09:05.54	20.21	1.89	-47.6	-62.8	3.6	1.51e+00	0	39	104	0	60	49617
2026-01-02 14:09:09.58	20.30	2.14	-47.6	-62.0	3.6	1.51e+00	0	39	104	0	60	45444
2026-01-02 14:09:13.62	20.40	2.40	-47.5	-60.0	3.6	1.46e+00	0	39	104	0	60	36027
2026-01-02 14:09:17.67	20.50	2.66	-47.3	-57.3	4.5	1.25e+00	0	39	0	0	60	26510
2026-01-02 14:09:21.71	20.60	2.92	-45.3	-49.2	12.4	3.34e-04	0	39	0	7340032	60	10428
2026-01-02 14:09:25.75	20.70	3.18	-43.6	-46.0	16.1	0.00e+00	0	39	0	14680064	60	7246
2026-01-02 14:09:29.78	20.80	3.45	-44.6	-47.8	13.8	1.50e-06	0	39	0	22020096	60	8905
2026-01-02 14:09:33.82	20.91	3.72	-43.8	-46.3	15.7	0.00e+00	0	39	0	30408704	58	8340
2026-01-02 14:09:37.86	21.01	3.99	-43.4	-45.8	16.0	6.03e-01	0	39	104	31457280	60	7028
2026-01-02 14:09:41.90	21.12	4.26	-43.1	-45.2	17.2	0.00e+00	0	39	0	38797312	60	6550
2026-01-02 14:09:45.94	21.23	4.54	-41.9	-43.5	18.7	0.00e+00	0	39	0	46137344	56	6838
2026-01-02 14:09:49.97	21.34	4.82	-41.1	-42.5	19.8	0.00e+00	0	39	0	53477376	56	6066
2026-01-02 14:09:54.01	21.46	5.10	-41.2	-42.7	19.7	0.00e+00	0	39	0	60817408	56	6184
2026-01-02 14:09:58.04	21.57	5.38	-41.2	-42.7	19.8	0.00e+00	0	39	0	68157440	56	6177
2026-01-02 14:10:02.08	21.69	5.67	-41.0	-42.4	20.1	0.00e+00	0	39	0	76546048	56	5970
2026-01-02 14:10:06.12	21.81	5.96	-40.8	-42.2	20.2	0.00e+00	0	39	0	83886080	54	6561
2026-01-02 14:10:10.15	21.93	6.25	-40.8	-42.1	20.4	0.00e+00	0	39	0	91226112	54	6472
2026-01-02 14:10:14.19	22.05	6.55	-40.7	-42.0	20.5	0.00e+00	0	39	0	98566144	54	6429
2026-01-02 14:10:18.23	22.17	6.85	-40.5	-41.8	20.8	0.00e+00	0	39	0	106954752	54	6265
2026-01-02 14:10:22.27	22.30	7.16	-40.5	-41.8	20.9	0.00e+00	0	39	0	114294784	54	6247
2026-01-02 14:10:26.31	22.43	7.46	-40.4	-41.6	21.0	0.00e+00	0	39	0	121634816	54	6166
2026-01-02 14:10:30.34	22.56	7.77	-40.3	-41.5	21.1	0.00e+00	0	39	0	128974848	54	6098
2026-01-02 14:10:34.38	22.70	8.09	-40.6	-41.8	20.9	0.00e+00	0	39	0	136314880	54	6299
2026-01-02 14:10:38.42	22.83	8.41	-40.4	-41.6	21.1	0.00e+00	0	39	0	144703488	54	6156
2026-01-02 14:10:42.46	22.97	8.73	-40.1	-41.2	21.5	0.00e+00	0	39	0	152043520	54	5860
2026-01-02 14:10:46.50	23.12	9.06	-40.1	-41.2	21.5	0.00e+00	0	39	0	159383552	54	5857
2026-01-02 14:10:50.54	23.26	9.39	-40.0	-41.1	21.6	0.00e+00	0	39	0	166723584	54	5810
2026-01-02 14:10:54.57	23.41	9.73	-40.1	-41.2	21.6	0.00e+00	0	39	0	175112192	54	5887
2026-01-02 14:10:58.61	23.56	10.07	-39.9	-41.0	21.7	0.00e+00	0	39	0	182452224	54	5701
2026-01-02 14:11:02.64	23.71	10.41	-39.9	-41.1	21.7	0.00e+00	0	39	0	189792256	54	5766
2026-01-02 14:11:06.67	23.87	10.76	-39.8	-40.9	21.9	0.00e+00	0	39	0	197132288	54	5682
2026-01-02 14:11:10.71	24.03	11.11	-39.9	-41.0	21.8	0.00e+00	0	39	0	204472320	52	6407
2026-01-02 14:11:14.75	24.20	11.47	-39.8	-40.9	21.9	0.00e+00	0	39	0	212860928	52	6373
2026-01-02 14:11:18.79	24.37	11.84	-39.9	-40.9	21.9	0.00e+00	0	39	0	220200960	52	6389
2026-01-02 14:11:22.82	24.54	12.21	-39.7	-40.7	22.2	0.00e+00	0	39	0	227540992	52	6230
2026-01-02 14:11:26.86	24.71	12.58	-39.5	-40.6	22.3	0.00e+00	0	39	0	234881024	52	6106
2026-01-02 14:11:30.90	24.89	12.97	-39.5	-40.6	22.3	0.00e+00	0	39	0	243269632	52	6119
2026-01-02 14:11:34.94	25.08	13.35	-39.5	-40.5	22.4	0.00e+00	0	39	0	250609664	52	6075
2026-01-02 14:11:38.98	25.27	13.75	-39.5	-40.5	22.5	0.00e+00	0	39	0	257949696	52	6071
2026-01-02 14:11:43.01	25.46	14.14	-39.4	-40.4	22.5	0.00e+00	0	39	0	265289728	52	6032
2026-01-02 14:11:47.05	25.66	14.55	-39.3	-40.3	22.6	0.00e+00	0	39	0	272629760	52	5928
2026-01-02 14:11:51.09	25.86	14.96	-39.4	-40.4	22.6	0.00e+00	0	39	0	281018368	52	5970
2026-01-02 14:11:55.13	26.07	15.38	-39.3	-40.3	22.7	0.00e+00	0	39	0	288358400	52	5902
2026-01-02 14:11:59.17	26.28	15.81	-39.4	-40.4	22.6	0.00e+00	0	39	0	295698432	52	6017
2026-01-02 14:12:03.20	26.50	16.24	-39.3	-40.3	22.7	0.00e+00	0	39	0	303038464	52	5928
2026-01-02 14:12:07.24	26.73	16.68	-39.1	-40.1	22.9	0.00e+00	0	39	0	311427072	52	5798
2026-01-02 14:12:11.28	26.96	17.13	-39.0	-40.0	23.0	0.00e+00	0	39	0	318767104	52	5711
2026-01-02 14:12:15.32	27.19	17.59	-39.0	-39.9	23.0	0.00e+00	0	39	0	326107136	52	5684
2026-01-02 14:12:19.36	27.44	18.05	-39.0	-39.9	23.0	0.00e+00	0	39	0	333447168	52	5663
2026-01-02 14:12:23.39	27.69	18.53	-39.0	-40.0	23.1	0.00e+00	0	39	0	340787200	52	5696
2026-01-02 14:12:27.43	27.95	19.01	-38.8	-39.7	23.3	0.00e+00	0	39	0	349175808	50	6236
2026-01-02 14:12:31.46	28.22	19.50	-38.6	-39.5	23.5	0.00e+00	0	39	0	356515840	50	6063
2026-01-02 14:12:35.50	28.49	20.00	-38.4	-39.3	23.7	0.00e+00	0	39	0	363855872	50	5960
2026-01-02 14:12:39.53	28.78	20.51	-38.1	-38.9	24.0	0.00e+00	0	39	0	371195904	50	5679
2026-01-02 14:12:43.57	29.07	21.03	-37.8	-38.6	24.3	0.00e+00	0	39	0	378535936	50	5493
2026-01-02 14:12:47.61	29.37	21.56	-37.6	-38.5	24.4	0.00e+00	0	39	0	386924544	48	6053
2026-01-02 14:12:51.64	29.68	22.10	-37.4	-38.2	24.6	0.00e+00	0	39	0	394264576	48	5858
2026-01-02 14:12:55.68	30.01	22.65	-37.4	-38.2	24.6	0.00e+00	0	39	0	401604608	48	5857
2026-01-02 14:12:59.72	30.34	23.22	-37.4	-38.2	24.4	0.00e+00	0	39	0	408944640	48	5852
2026-01-02 14:13:03.76	30.69	23.79	-37.5	-38.3	24.5	0.00e+00	0	39	0	417333248	48	5957
2026-01-02 14:13:07.79	31.05	24.38	-37.3	-38.2	24.7	0.00e+00	0	39	0	424673280	48	5836
2026-01-02 14:13:11.83	31.42	24.98	-37.4	-38.2	24.7	0.00e+00	0	39	0	432013312	48	5863
2026-01-02 14:13:15.86	31.80	25.59	-37.5	-38.3	24.6	0.00e+00	0	39	0	439353344	48	5945
2026-01-02 14:13:19.90	32.20	26.21	-37.7	-38.5	24.4	0.00e+00	0	39	0	446693376	48	6086
2026-01-02 14:13:23.94	32.62	26.85	-37.7	-38.6	24.5	0.00e+00	0	39	0	455081984	48	6104
2026-01-02 14:13:27.98	33.05	27.50	-38.0	-38.8	23.8	0.00e+00	0	39	0	462422016	48	6282
2026-01-02 14:13:32.02	33.50	28.17	-38.2	-39.1	23.9	0.00e+00	0	39	0	469762048	48	6512
2026-01-02 14:13:36.05	33.97	28.85	-38.9	-39.9	23.2	0.00e+00	0	39	0	477102080	50	6334
2026-01-02 14:13:40.09	34.45	29.55	-39.7	-40.7	22.6	0.00e+00	0	39	0	485490688	50	6963
2026-01-02 14:13:44.13	34.96	30.26	-40.7	-41.8	21.6	0.00e+00	0	39	0	492830720	52	7037
2026-01-02 14:13:48.17	35.49	30.99	-41.5	-42.8	20.5	0.00e+00	0	39	0	500170752	54	7040
2026-01-02 14:13:52.21	36.05	31.73	-42.0	-43.3	20.2	0.00e+00	0	39	0	507510784	56	6664
2026-01-02 14:13:56.24	36.63	32.49	-41.7	-43.0	20.5	0.00e+00	0	39	0	514850816	56	6401
2026-01-02 14:14:00.28	37.23	33.27	-41.0	-42.1	21.4	0.00e+00	0	39	0	523239424	56	5822
2026-01-02 14:14:04.32	37.87	34.06	-40.7	-41.8	21.6	0.00e+00	0	39	0	530579456	54	6304
2026-01-02 14:14:08.36	38.54	34.87	-41.2	-42.4	21.1	0.00e+00	0	39	0	537919488	54	6701
2026-01-02 14:14:12.40	39.24	35.70	-40.8	-42.0	21.4	0.00e+00	0	39	0	545259520	54	6396
2026-01-02 14:14:16.44	39.98	36.54	-40.1	-41.2	22.2	0.00e+00	0	39	0	553648128	54	5850
2026-01-02 14:14:20.48	40.75	37.40	-39.7	-40.7	22.4	0.00e+00	0	39	0	560988160	52	6206
2026-01-02 14:14:24.51	41.57	38.28	-39.8	-40.7	22.6	0.00e+00	0	39	0	568328192	52	6238
2026-01-02 14:14:28.55	42.43	39.17	-40.0	-41.0	22.4	0.00e+00	0	39	0	575668224	52	6442
2026-01-02 14:14:32.59	43.34	40.08	-39.0	-39.9	23.3	0.00e+00	0	39	0	583008256	52	5687
2026-01-02 14:14:36.63	44.30	41.01	-38.7	-39.6	23.6	0.00e+00	0	39	0	591396864	50	6163
2026-01-02 14:14:40.67	45.32	41.95	-39.0	-39.9	23.3	0.00e+00	0	39	0	598736896	50	6378
2026-01-02 14:14:44.71	46.40	42.91	-39.3	-40.3	23.0	0.00e+00	0	39	0	606076928	50	6635
2026-01-02 14:14:48.75	47.55	43.88	-39.6	-40.5	22.8	0.00e+00	0	39	0	613416960	50	6844
2026-01-02 14:14:52.78	48.76	44.86	-40.6	-41.7	21.6	0.00e+00	0	39	0	620756992	52	6981
2026-01-02 14:14:56.82	50.05	45.85	-40.9	-42.0	21.4	0.00e+00	0	39	0	629145600	54	6427
2026-01-02 14:15:00.85	51.43	46.84	-41.3	-42.5	21.0	0.00e+00	0	39	0	636485632	54	6844
2026-01-02 14:15:04.89	52.89	47.85	-41.9	-43.2	20.3	0.00e+00	0	39	0	643825664	56	6546
2026-01-02 14:15:08.93	54.45	48.85	-42.3	-43.7	19.9	0.00e+00	0	39	0	651165696	56	6983
2026-01-02 14:15:12.97	56.12	49.86	-41.9	-43.2	20.5	0.00e+00	0	39	0	659554304	56	6545
2026-01-02 14:15:17.01	57.90	50.86	-40.4	-41.5	21.8	0.00e+00	0	39	0	666894336	54	6079
2026-01-02 14:15:21.05	59.80	51.85	-39.6	-40.6	22.7	0.00e+00	0	39	0	674234368	52	6135
2026-01-02 14:15:25.08	61.82	52.83	-38.9	-39.8	23.4	0.00e+00	0	39	0	681574400	52	5591
2026-01-02 14:15:29.12	63.99	53.79	-38.7	-39.6	23.6	0.00e+00	0	39	0	688914432	50	6147
2026-01-02 14:15:33.15	66.30	54.72	-37.9	-38.8	24.3	0.00e+00	0	39	0	697303040	50	5577
2026-01-02 14:15:37.19	68.76	55.62	-38.7	-39.6	23.5	0.00e+00	0	39	0	704643072	50	6124
2026-01-02 14:15:41.22	71.38	56.48	-39.5	-40.5	22.9	0.00e+00	0	39	0	711983104	50	6784
2026-01-02 14:15:45.26	74.17	57.30	-39.3	-40.3	22.9	0.00e+00	0	39	0	719323136	50	6662
2026-01-02 14:15:49.30	77.12	58.05	-39.5	-40.5	22.7	0.00e+00	0	39	0	727711744	52	6097
2026-01-02 14:15:53.34	80.23	58.75	-39.5	-40.5	22.8	0.00e+00	0	39	0	735051776	52	6077
2026-01-02 14:15:57.37	83.49	59.36	-39.1	-40.0	23.3	0.00e+00	0	39	0	742391808	52	5745
2026-01-02 14:16:01.41	86.91	59.90	-39.1	-40.1	23.1	0.00e+00	0	39	0	749731840	50	6491
2026-01-02 14:16:05.45	90.46	60.34	-38.6	-39.5	23.5	0.00e+00	0	39	0	757071872	50	6097
2026-01-02 14:16:09.49	94.13	60.69	-39.7	-40.7	22.7	0.00e+00	0	39	0	765460480	52	6200
2026-01-02 14:16:13.53	97.88	60.94	-39.4	-40.4	22.9	0.00e+00	0	39	0	772800512	50	6718
2026-01-02 14:16:17.56	101.67	61.07	-38.6	-39.5	23.7	0.00e+00	0	39	0	780140544	50	6036
2026-01-02 14:16:21.60	105.51	61.10	-38.1	-38.9	24.2	0.00e+00	0	39	0	787480576	50	5676
2026-01-02 14:16:25.64	109.33	61.02	-36.9	-37.7	25.2	0.00e+00	0	39	0	795869184	48	5544
2026-01-02 14:16:29.68	113.11	60.82	-38.4	-39.3	23.9	0.00e+00	0	39	0	803209216	48	6639
2026-01-02 14:16:33.71	116.81	60.53	-40.1	-41.2	22.3	0.00e+00	0	39	0	810549248	52	6552
2026-01-02 14:16:37.75	120.43	60.13	-40.7	-41.9	21.6	0.00e+00	0	39	0	817889280	52	7107
2026-01-02 14:16:41.78	123.90	59.63	-39.5	-40.5	22.8	0.00e+00	0	39	0	825229312	52	6069
2026-01-02 14:16:45.82	127.25	59.05	-40.0	-41.0	22.3	0.00e+00	0	39	0	833617920	52	6415
2026-01-02 14:16:49.85	130.44	58.40	-39.9	-40.9	22.4	0.00e+00	0	39	0	840957952	52	6363
2026-01-02 14:16:53.89	133.47	57.67	-40.1	-41.2	22.2	0.00e+00	0	39	0	848297984	54	5854
2026-01-02 14:16:57.93	136.34	56.88	-39.5	-40.5	22.9	0.00e+00	0	39	0	855638016	52	6071
2026-01-02 14:17:01.97	139.05	56.04	-37.9	-38.7	24.3	0.00e+00	0	39	0	864026624	50	5555
2026-01-02 14:17:06.01	141.59	55.15	-36.9	-37.7	25.2	0.00e+00	0	39	0	871366656	46	6184
2026-01-02 14:17:10.04	143.98	54.23	-35.8	-36.6	26.1	0.00e+00	0	39	0	878706688	44	6118
2026-01-02 14:17:14.08	146.22	53.28	-36.3	-37.1	25.7	0.00e+00	0	39	0	886046720	44	6465
2026-01-02 14:17:18.12	148.31	52.31	-36.2	-37.0	25.9	0.00e+00	0	39	0	893386752	44	6393
2026-01-02 14:17:22.15	150.27	51.32	-36.6	-37.4	25.5	0.00e+00	0	39	0	901775360	44	6702
2026-01-02 14:17:26.19	152.11	50.32	-38.4	-39.2	23.9	0.00e+00	0	39	0	909115392	48	6608
2026-01-02 14:17:30.23	153.83	49.31	-41.2	-42.4	21.0	0.00e+00	0	39	0	916455424	54	6708
2026-01-02 14:17:34.27	155.45	48.30	-41.2	-42.4	21.1	0.00e+00	0	39	0	923795456	54	6696
2026-01-02 14:17:38.31	156.96	47.29	-44.4	-46.4	17.2	0.00e+00	0	39	0	932184064	60	7588
2026-01-02 14:17:42.35	158.38	46.29	-44.2	-46.3	17.4	0.00e+00	0	39	0	939524096	60	7425
2026-01-02 14:17:46.39	159.71	45.29	-41.9	-43.3	20.3	0.00e+00	0	39	0	946864128	58	5902
2026-01-02 14:17:50.42	160.96	44.30	-40.8	-41.9	21.6	0.00e+00	0	39	0	954204160	56	5679
2026-01-02 14:17:54.46	162.14	43.32	-39.3	-40.3	23.0	0.00e+00	0	39	0	961544192	52	5906
2026-01-02 14:17:58.50	163.25	42.36	-38.6	-39.5	23.9	0.00e+00	0	39	0	969932800	50	6062
2026-01-02 14:18:02.54	164.30	41.40	-38.8	-39.7	23.4	0.00e+00	0	39	0	977272832	48	6979
2026-01-02 14:18:06.57	165.29	40.47	-38.8	-39.7	23.2	0.00e+00	0	39	0	984612864	50	6203
2026-01-02 14:18:10.61	166.22	39.55	-38.8	-39.7	23.4	0.00e+00	0	39	0	991952896	50	6205
2026-01-02 14:18:14.65	167.11	38.64	-38.9	-39.9	23.5	0.00e+00	0	39	0	1000341504	52	5649
2026-01-02 14:18:18.69	167.95	37.75	-37.2	-38.0	24.9	0.00e+00	0	39	0	1007681536	48	5733
2026-01-02 14:18:22.72	168.74	36.88	-39.1	-40.1	23.2	0.00e+00	0	39	0	1015021568	50	6484
2026-01-02 14:18:26.76	169.49	36.02	-38.5	-39.4	23.8	0.00e+00	0	39	0	1022361600	50	6024
2026-01-02 14:18:30.80	170.21	35.19	-38.4	-39.2	23.9	0.00e+00	0	39	0	1029701632	50	5888
2026-01-02 14:18:34.84	170.90	34.36	-39.3	-40.3	22.9	0.00e+00	0	39	0	1038090240	50	6669
2026-01-02 14:18:38.87	171.55	33.56	-39.0	-39.9	23.3	0.00e+00	0	39	0	1045430272	50	6369
2026-01-02 14:18:42.91	172.17	32.77	-38.9	-39.8	23.4	0.00e+00	0	39	0	1052770304	50	6251
2026-01-02 14:18:46.94	172.76	32.01	-39.9	-41.0	22.3	0.00e+00	0	39	0	1060110336	52	6406
2026-01-02 14:18:50.98	173.32	31.25	-40.8	-41.9	21.5	0.00e+00	0	39	0	1067450368	54	6365
2026-01-02 14:18:55.02	173.87	30.51	-40.7	-41.9	21.4	0.00e+00	0	39	0	1075838976	54	6357
2026-01-02 14:18:59.06	174.38	29.79	-40.5	-41.6	21.7	0.00e+00	0	39	0	1083179008	54	6159
2026-01-02 14:19:03.10	174.88	29.08	-40.1	-41.2	22.1	0.00e+00	0	39	0	1090519040	54	5839
2026-01-02 14:19:07.14	175.36	28.39	-39.8	-40.8	22.4	0.00e+00	0	39	0	1097859072	52	6294
2026-01-02 14:19:11.17	175.81	27.72	-40.1	-41.2	22.1	0.00e+00	0	39	0	1106247680	52	6559
2026-01-02 14:19:15.21	176.25	27.06	-39.7	-40.7	22.5	0.00e+00	0	39	0	1113587712	52	6207
2026-01-02 14:19:19.25	176.67	26.41	-38.6	-39.5	23.6	0.00e+00	0	39	0	1120927744	50	6069
2026-01-02 14:19:23.28	177.08	25.78	-38.6	-39.5	23.6	0.00e+00	0	39	0	1128267776	50	6088
2026-01-02 14:19:27.32	177.47	25.16	-39.2	-40.2	22.9	0.00e+00	0	39	0	1135607808	50	6584
2026-01-02 14:19:31.36	177.85	24.55	-39.1	-40.1	23.0	0.00e+00	0	39	0	1143996416	50	6493
2026-01-02 14:19:35.40	178.21	23.95	-38.3	-39.2	23.8	0.00e+00	0	39	0	1151336448	50	5846
2026-01-02 14:19:39.44	178.56	23.37	-37.7	-38.5	24.4	0.00e+00	0	39	0	1158676480	48	6082
2026-01-02 14:19:43.47	178.90	22.80	-37.3	-38.1	24.8	0.00e+00	0	39	0	1166016512	48	5785
2026-01-02 14:19:47.51	179.22	22.24	-37.5	-38.3	24.5	0.00e+00	0	39	0	1174405120	48	5946
2026-01-02 14:19:51.55	179.54	21.69	-37.9	-38.8	24.1	0.00e+00	0	39	0	1181745152	48	6306
2026-01-02 14:19:55.59	179.85	21.15	-38.2	-39.1	23.8	0.00e+00	0	39	0	1189085184	48	6536
2026-01-02 14:19:59.62	180.14	20.63	-38.0	-38.9	24.0	0.00e+00	0	39	0	1196425216	48	6326
2026-01-02 14:20:03.66	180.43	20.11	-37.6	-38.5	24.4	0.00e+00	0	39	0	1203765248	48	6036
2026-01-02 14:20:07.70	180.71	19.60	-37.5	-38.3	24.5	0.00e+00	0	39	0	1212153856	48	5932
2026-01-02 14:20:11.74	180.98	19.11	-37.5	-38.3	24.4	0.00e+00	0	39	0	1219493888	48	5919
2026-01-02 14:20:15.78	181.24	18.62	-37.8	-38.6	24.1	0.00e+00	0	39	0	1226833920	48	6168
2026-01-02 14:20:19.82	181.49	18.14	-37.9	-38.7	24.1	0.00e+00	0	39	0	1234173952	48	6236
2026-01-02 14:20:23.86	181.74	17.67	-38.1	-38.9	23.9	0.00e+00	0	39	0	1242562560	48	6388
2026-01-02 14:20:27.89	181.97	17.21	-38.1	-39.0	23.9	0.00e+00	0	39	0	1249902592	48	6398
2026-01-02 14:20:31.93	182.21	16.75	-38.2	-39.0	23.8	0.00e+00	0	39	0	1257242624	48	6464
2026-01-02 14:20:35.97	182.43	16.31	-38.5	-39.4	23.5	0.00e+00	0	39	0	1264582656	48	6705
2026-01-02 14:20:40.01	182.65	15.87	-38.6	-39.5	23.4	0.00e+00	0	39	0	1271922688	48	6783
2026-01-02 14:20:44.05	182.87	15.44	-38.7	-39.6	23.3	0.00e+00	0	39	0	1280311296	48	6913
2026-01-02 14:20:48.08	183.07	15.01	-39.0	-39.9	23.0	0.00e+00	0	39	0	1287651328	50	6386
2026-01-02 14:20:52.12	183.28	14.60	-39.4	-40.4	22.6	0.00e+00	0	39	0	1294991360	50	6709
2026-01-02 14:20:56.16	183.48	14.19	-39.3	-40.3	22.5	0.00e+00	0	39	0	1302331392	50	6665
2026-01-02 14:21:00.20	183.67	13.78	-39.5	-40.6	22.4	0.00e+00	0	39	0	1310720000	50	6861
2026-01-02 14:21:04.24	183.86	13.39	-39.5	-40.5	22.4	0.00e+00	0	39	0	1318060032	50	6809
2026-01-02 14:21:08.28	184.04	13.00	-39.5	-40.5	22.5	0.00e+00	0	39	0	1325400064	50	6829
2026-01-02 14:21:12.32	184.22	12.61	-39.6	-40.6	22.3	0.00e+00	0	39	0	1332740096	50	6880
2026-01-02 14:21:16.36	184.39	12.23	-39.5	-40.5	22.3	0.00e+00	0	39	0	1340080128	50	6832
2026-01-02 14:21:20.39	184.56	11.86	-39.5	-40.5	22.3	0.00e+00	0	39	0	1348468736	50	6845
2026-01-02 14:21:24.43	184.73	11.49	-39.5	-40.5	22.4	0.00e+00	0	39	0	1355808768	50	6805
2026-01-02 14:21:28.46	184.89	11.13	-39.4	-40.5	22.5	0.00e+00	0	39	0	1363148800	50	6780
2026-01-02 14:21:32.50	185.05	10.77	-39.3	-40.4	22.5	0.00e+00	0	39	0	1370488832	50	6694
2026-01-02 14:21:36.54	185.21	10.42	-39.3	-40.3	22.5	0.00e+00	0	39	0	1378877440	50	6624
2026-01-02 14:21:40.58	185.36	10.07	-39.2	-40.2	22.5	0.00e+00	0	39	0	1386217472	50	6596
2026-01-02 14:21:44.61	185.51	9.73	-39.2	-40.2	22.6	0.00e+00	0	39	0	1393557504	50	6599
2026-01-02 14:21:48.65	185.66	9.39	-39.3	-40.3	22.5	0.00e+00	0	39	0	1400897536	50	6641
2026-01-02 14:21:52.68	185.80	9.05	-39.4	-40.4	22.3	0.00e+00	0	39	0	1408237568	50	6752
2026-01-02 14:21:56.72	185.94	8.72	-39.5	-40.5	22.3	0.00e+00	0	39	0	1416626176	50	6827
2026-01-02 14:22:00.76	186.08	8.40	-39.5	-40.6	22.2	0.00e+00	0	39	0	1423966208	50	6875
2026-01-02 14:22:04.79	186.21	8.08	-39.6	-40.6	22.1	0.00e+00	0	39	0	1431306240	50	6907
2026-01-02 14:22:08.84	186.35	7.76	-39.7	-40.8	21.8	0.00e+00	0	39	0	1438646272	52	6286
2026-01-02 14:22:12.88	186.48	7.44	-39.8	-40.9	21.7	0.00e+00	0	39	0	1445986304	52	6374
2026-01-02 14:22:16.91	186.60	7.13	-40.0	-41.1	21.5	0.00e+00	0	39	0	1454374912	52	6539
2026-01-02 14:22:20.95	186.73	6.83	-40.2	-41.4	21.2	0.00e+00	0	39	0	1461714944	52	6738
2026-01-02 14:22:24.98	186.85	6.52	-40.3	-41.5	21.1	0.00e+00	0	39	0	1469054976	52	6806
2026-01-02 14:22:29.02	186.97	6.22	-40.3	-41.5	21.1	0.00e+00	0	39	0	1476395008	52	6815
2026-01-02 14:22:33.05	187.09	5.93	-40.4	-41.6	20.9	0.00e+00	0	39	0	1484783616	52	6913
2026-01-02 14:22:37.09	187.21	5.63	-40.6	-41.9	20.6	0.00e+00	0	39	0	1492123648	52	7120
2026-01-02 14:22:41.13	187.32	5.34	-40.6	-41.9	20.4	0.00e+00	0	39	0	1499463680	54	6366
2026-01-02 14:22:45.17	187.43	5.06	-40.9	-42.3	20.2	0.00e+00	0	39	0	1506803712	54	6623
2026-01-02 14:22:49.21	187.54	4.77	-41.0	-42.4	19.9	0.00e+00	0	39	0	1514143744	54	6733
2026-01-02 14:22:53.24	187.65	4.49	-41.2	-42.7	19.6	0.00e+00	0	39	0	1522532352	54	6940
2026-01-02 14:22:57.28	187.76	4.21	-41.4	-42.9	19.4	0.00e+00	0	39	0	1529872384	54	7111
2026-01-02 14:23:01.33	187.86	3.94	-41.2	-42.6	19.5	0.00e+00	0	39	0	1537212416	54	6925
2026-01-02 14:23:05.36	187.96	3.67	-41.7	-43.4	18.8	0.00e+00	0	39	0	1544552448	54	7509
2026-01-02 14:23:09.40	188.07	3.40	-41.8	-43.4	18.8	0.00e+00	0	39	0	1552941056	56	6753
2026-01-02 14:23:13.44	188.17	3.13	-41.8	-43.5	18.4	0.00e+00	0	39	0	1560281088	56	6831
2026-01-02 14:23:17.48	188.26	2.86	-49.0	-64.2	3.6	1.51e+00	0	39	104	1563426816	60	58455
2026-01-02 14:23:21.52	188.36	2.60	-49.4	-64.7	3.6	1.51e+00	0	40	104	1563426816	60	61790
2026-01-02 14:23:25.56	188.46	2.34	-49.5	-64.7	3.6	1.51e+00	0	39	104	1563426816	60	62330
2026-01-02 14:23:29.60	188.55	2.08	-49.5	-64.7	3.6	1.51e+00	0	40	104	1563426816	60	61886
2026-01-02 14:23:33.64	188.64	1.83	-49.5	-64.7	3.6	1.51e+00	0	40	104	1563426816	60	62171
2026-01-02 14:23:37.68	188.73	1.57	-49.5	-64.7	3.6	1.51e+00	0	39	104	1563426816	60	61850
2026-01-02 14:23:41.72	188.82	1.32	-49.5	-64.7	3.6	1.51e+00	0	40	104	1563426816	60	61930
2026-01-02 14:23:45.76	188.91	1.07	-49.5	-64.7	3.6	1.51e+00	0	39	104	1563426816	60	62216
2026-01-02 14:23:49.80	189.00	0.83	-49.5	-64.7	3.6	1.51e+00	0	40	104	1563426816	60	62126
2026-01-02 14:23:53.84	189.08	0.58	-49.5	-64.7	3.6	1.51e+00	0	40	104	1563426816	60	62086
2026-01-02 14:23:57.88	189.17	0.34	-49.5	-64.7	3.6	1.51e+00	0	39	104	1563426816	60	61793
2026-01-02 14:24:01.92	189.25	0.10	-49.5	-64.6	3.6	1.51e+00	0	40	104	1563426816	60	61713

#Closed at: 2026-01-02 14:24:05
#Recorded file [1563 MB]: D:/lorett/data/35029_260103_020837.dat