passes_logs/2026/01/02/R4.6S_Anadyr/R4.6S_Anadyr__20260102_122808_NOAA_20_JPSS-1_rec.log

#Pass ID: 20260102_122808_NOAA 20 (JPSS-1)
#Satellite: NOAA 20 (JPSS-1)
#Configuration: NOAA 20
#almurnet v.1.7.20251203
#Start time: 2026-01-02 12:28:10

#Version: 2.2.20231116
#Station: R4.6S_Anadyr
#Location: 177.4865 lon 64.73178 lat
#TLE: 1 43013U 17073A   26001.93781127  .00000184  00000+0  10834-3 0  9997
#TLE: 2 43013  98.7622 303.0160 0001916  58.2205 301.9158 14.19532295420889

#Time	Az	El	Level	Level2	SNR	BER	BlckErr	Temp	State	Recorded	gain1	gain2
2026-01-02 12:28:10.37	19.07	0.10	-49.4	-64.3	3.6	1.51e+00	0	36	0	0	60	59304
2026-01-02 12:28:14.41	19.36	0.30	-49.3	-64.5	3.6	1.51e+00	0	38	104	0	60	60856
2026-01-02 12:28:18.44	19.65	0.51	-49.3	-64.5	3.6	1.51e+00	0	38	104	0	60	60435
2026-01-02 12:28:22.48	19.95	0.71	-48.9	-64.0	3.6	1.51e+00	0	38	104	0	60	57490
2026-01-02 12:28:26.52	20.25	0.91	-47.7	-62.8	3.6	1.51e+00	0	38	104	0	60	49805
2026-01-02 12:28:30.56	20.55	1.12	-47.5	-62.7	3.6	1.51e+00	0	38	104	0	60	49106
2026-01-02 12:28:34.60	20.86	1.32	-47.5	-62.6	3.6	1.51e+00	0	38	104	0	60	48937
2026-01-02 12:28:38.63	21.17	1.53	-47.5	-62.6	3.6	1.51e+00	0	38	104	0	60	49004
2026-01-02 12:28:42.67	21.49	1.73	-47.5	-62.6	3.6	1.51e+00	0	38	104	0	60	48598
2026-01-02 12:28:46.71	21.81	1.94	-47.5	-62.7	3.5	1.51e+00	0	38	104	0	60	49158
2026-01-02 12:28:50.75	22.13	2.15	-47.5	-62.7	3.6	1.51e+00	0	38	104	0	60	49084
2026-01-02 12:28:54.79	22.46	2.36	-47.4	-61.6	3.6	1.51e+00	0	38	104	0	60	43531
2026-01-02 12:28:58.83	22.79	2.57	-46.6	-53.3	7.7	3.81e-01	0	39	0	0	60	16697
2026-01-02 12:29:02.87	23.13	2.78	-43.0	-45.3	16.5	0.00e+00	0	38	0	8388608	60	6676
2026-01-02 12:29:06.91	23.47	2.99	-44.7	-48.1	13.5	0.00e+00	0	38	0	15728640	60	9170
2026-01-02 12:29:10.94	23.82	3.20	-46.7	-53.9	7.0	1.43e+00	1	38	104	20971520	60	18005
2026-01-02 12:29:14.98	24.17	3.42	-44.9	-48.4	12.9	8.16e-05	0	39	0	22020096	60	9514
2026-01-02 12:29:19.02	24.53	3.63	-44.8	-48.1	14.1	2.05e-05	0	39	0	29360128	60	9172
2026-01-02 12:29:23.06	24.89	3.85	-45.2	-48.9	14.2	5.79e-05	0	39	0	37748736	60	10114
2026-01-02 12:29:27.09	25.26	4.06	-45.6	-49.7	11.7	1.57e-04	0	39	0	45088768	60	11086
2026-01-02 12:29:31.13	25.63	4.28	-45.7	-49.8	12.2	4.75e-04	0	39	0	52428800	60	11142
2026-01-02 12:29:35.17	26.00	4.50	-45.2	-48.8	13.6	1.31e-04	0	39	0	59768832	60	9901
2026-01-02 12:29:39.21	26.39	4.72	-45.4	-49.0	13.1	6.56e-05	0	39	0	67108864	60	10224
2026-01-02 12:29:43.25	26.77	4.94	-45.2	-48.7	13.3	1.75e-05	0	39	0	75497472	60	9885
2026-01-02 12:29:47.29	27.17	5.15	-44.4	-47.2	14.8	7.00e-07	0	39	0	82837504	60	8303
2026-01-02 12:29:51.32	27.57	5.37	-44.7	-47.7	14.7	0.00e+00	0	39	0	90177536	60	8774
2026-01-02 12:29:55.36	27.97	5.60	-44.4	-47.2	14.9	0.00e+00	0	39	0	97517568	60	8247
2026-01-02 12:29:59.40	28.38	5.82	-44.0	-46.5	15.7	0.00e+00	0	39	0	105906176	60	7609
2026-01-02 12:30:03.44	28.80	6.04	-44.2	-46.7	16.2	0.00e+00	0	39	0	113246208	60	7788
2026-01-02 12:30:07.47	29.22	6.26	-43.0	-45.0	17.3	0.00e+00	0	39	0	120586240	60	6455
2026-01-02 12:30:11.51	29.65	6.49	-42.0	-43.7	18.7	0.00e+00	0	39	0	127926272	58	6213
2026-01-02 12:30:15.55	30.08	6.71	-41.2	-42.6	19.8	0.00e+00	0	39	0	135266304	56	6166
2026-01-02 12:30:19.59	30.52	6.94	-40.7	-42.0	20.3	0.00e+00	0	39	0	143654912	54	6452
2026-01-02 12:30:23.63	30.97	7.16	-40.4	-41.7	20.7	0.00e+00	0	39	0	150994944	54	6185
2026-01-02 12:30:27.67	31.43	7.39	-40.2	-41.4	21.0	0.00e+00	0	39	0	158334976	54	5993
2026-01-02 12:30:31.70	31.89	7.62	-40.3	-41.6	20.8	0.00e+00	0	39	0	165675008	54	6114
2026-01-02 12:30:35.74	32.36	7.84	-40.2	-41.4	20.6	0.00e+00	0	39	0	174063616	54	5998
2026-01-02 12:30:39.78	32.83	8.07	-40.1	-41.3	21.1	0.00e+00	0	39	0	181403648	54	5907
2026-01-02 12:30:43.81	33.31	8.30	-40.5	-41.7	20.6	0.00e+00	0	39	0	188743680	54	6215
2026-01-02 12:30:47.85	33.80	8.53	-40.7	-42.0	20.6	0.00e+00	0	39	0	196083712	54	6436
2026-01-02 12:30:51.88	34.30	8.76	-40.3	-41.5	21.1	0.00e+00	0	39	0	203423744	54	6079
2026-01-02 12:30:55.92	34.81	8.99	-40.1	-41.3	21.2	0.00e+00	0	39	0	211812352	54	5920
2026-01-02 12:30:59.96	35.32	9.22	-40.1	-41.2	21.3	0.00e+00	0	39	0	219152384	54	5877
2026-01-02 12:31:04.00	35.84	9.44	-40.1	-41.3	21.3	0.00e+00	0	39	0	226492416	54	5916
2026-01-02 12:31:08.03	36.37	9.67	-40.0	-41.1	21.5	0.00e+00	0	39	0	233832448	54	5807
2026-01-02 12:31:12.07	36.90	9.90	-39.9	-41.1	21.5	0.00e+00	0	39	0	241172480	54	5776
2026-01-02 12:31:16.11	37.45	10.13	-39.9	-41.0	21.6	0.00e+00	0	39	0	249561088	52	6461
2026-01-02 12:31:20.15	38.00	10.36	-40.0	-41.1	21.6	0.00e+00	0	39	0	256901120	52	6483
2026-01-02 12:31:24.19	38.56	10.59	-39.8	-40.9	21.7	0.00e+00	0	39	0	264241152	52	6370
2026-01-02 12:31:28.22	39.13	10.82	-39.6	-40.7	21.9	0.00e+00	0	39	0	271581184	52	6204
2026-01-02 12:31:32.26	39.71	11.05	-39.5	-40.6	22.1	0.00e+00	0	39	0	279969792	52	6133
2026-01-02 12:31:36.30	40.30	11.28	-39.4	-40.4	22.2	0.00e+00	0	39	0	287309824	52	6027
2026-01-02 12:31:40.34	40.90	11.50	-39.1	-40.1	22.5	0.00e+00	0	39	0	294649856	52	5813
2026-01-02 12:31:44.38	41.50	11.73	-38.8	-39.8	22.9	0.00e+00	0	39	0	301989888	52	5595
2026-01-02 12:31:48.41	42.11	11.96	-38.8	-39.8	22.9	0.00e+00	0	39	0	309329920	50	6276
2026-01-02 12:31:52.46	42.74	12.18	-38.8	-39.7	22.7	0.00e+00	0	39	0	317718528	50	6230
2026-01-02 12:31:56.49	43.37	12.41	-38.8	-39.8	22.8	0.00e+00	0	39	0	325058560	50	6287
2026-01-02 12:32:00.52	44.01	12.63	-38.6	-39.6	23.0	0.00e+00	0	39	0	332398592	50	6142
2026-01-02 12:32:04.56	44.66	12.85	-38.7	-39.7	23.0	0.00e+00	0	39	0	339738624	50	6184
2026-01-02 12:32:08.60	45.33	13.07	-38.9	-39.9	22.7	0.00e+00	0	39	0	348127232	50	6324
2026-01-02 12:32:12.63	45.99	13.29	-38.7	-39.7	23.0	0.00e+00	0	39	0	355467264	50	6193
2026-01-02 12:32:16.67	46.68	13.51	-38.7	-39.7	23.0	0.00e+00	0	39	0	362807296	50	6192
2026-01-02 12:32:20.71	47.37	13.72	-38.7	-39.6	23.1	0.00e+00	0	39	0	370147328	50	6135
2026-01-02 12:32:24.75	48.07	13.94	-38.9	-39.9	22.8	0.00e+00	0	39	0	377487360	50	6364
2026-01-02 12:32:28.78	48.77	14.15	-39.1	-40.1	22.7	0.00e+00	0	39	0	385875968	50	6513
2026-01-02 12:32:32.82	49.49	14.36	-39.3	-40.3	22.4	0.00e+00	0	39	0	393216000	50	6677
2026-01-02 12:32:36.86	50.22	14.57	-39.7	-40.7	22.1	0.00e+00	0	39	0	400556032	50	6991
2026-01-02 12:32:40.90	50.96	14.77	-40.0	-41.1	21.8	0.00e+00	0	39	0	407896064	52	6500
2026-01-02 12:32:44.94	51.71	14.97	-40.1	-41.2	21.6	0.00e+00	0	39	0	416284672	52	6602
2026-01-02 12:32:48.97	52.47	15.17	-40.3	-41.4	21.5	0.00e+00	0	39	0	423624704	52	6719
2026-01-02 12:32:53.01	53.24	15.37	-40.4	-41.6	21.3	0.00e+00	0	39	0	430964736	52	6885
2026-01-02 12:32:57.04	54.02	15.56	-40.7	-41.9	21.1	0.00e+00	0	39	0	438304768	52	7113
2026-01-02 12:33:01.08	54.81	15.75	-40.9	-42.1	20.8	0.00e+00	0	39	0	445644800	54	6539
2026-01-02 12:33:05.12	55.61	15.93	-40.9	-42.1	20.9	0.00e+00	0	39	0	454033408	54	6534
2026-01-02 12:33:09.16	56.42	16.11	-40.7	-41.9	21.0	0.00e+00	0	39	0	461373440	54	6345
2026-01-02 12:33:13.19	57.23	16.29	-40.4	-41.6	21.4	0.00e+00	0	39	0	468713472	54	6110
2026-01-02 12:33:17.23	58.06	16.46	-40.4	-41.5	21.4	0.00e+00	0	39	0	476053504	54	6094
2026-01-02 12:33:21.27	58.90	16.63	-39.9	-41.0	21.9	0.00e+00	0	39	0	484442112	54	5747
2026-01-02 12:33:25.31	59.74	16.80	-39.5	-40.6	22.3	0.00e+00	0	39	0	491782144	52	6127
2026-01-02 12:33:29.34	60.59	16.96	-39.4	-40.4	22.4	0.00e+00	0	39	0	499122176	52	6003
2026-01-02 12:33:33.37	61.46	17.11	-39.1	-40.1	22.7	0.00e+00	0	39	0	506462208	52	5821
2026-01-02 12:33:37.40	62.33	17.26	-39.1	-40.1	22.8	0.00e+00	0	39	0	513802240	52	5791
2026-01-02 12:33:41.44	63.21	17.40	-39.3	-40.3	22.4	0.00e+00	0	39	0	522190848	52	5961
2026-01-02 12:33:45.48	64.09	17.54	-39.5	-40.5	22.4	0.00e+00	0	39	0	529530880	52	6056
2026-01-02 12:33:49.52	64.99	17.67	-39.5	-40.6	22.3	0.00e+00	0	39	0	536870912	52	6128
2026-01-02 12:33:53.56	65.89	17.80	-39.2	-40.2	22.6	0.00e+00	0	39	0	544210944	52	5860
2026-01-02 12:33:57.60	66.80	17.91	-39.5	-40.5	22.3	0.00e+00	0	39	0	552599552	52	6070
2026-01-02 12:34:01.64	67.72	18.03	-39.4	-40.5	22.3	0.00e+00	0	39	0	559939584	52	6052
2026-01-02 12:34:05.67	68.64	18.13	-39.5	-40.6	22.4	0.00e+00	0	39	0	567279616	52	6129
2026-01-02 12:34:09.72	69.58	18.23	-39.5	-40.5	22.3	0.00e+00	0	39	0	574619648	52	6082
2026-01-02 12:34:13.76	70.51	18.33	-39.1	-40.1	22.7	0.00e+00	0	39	0	581959680	52	5787
2026-01-02 12:34:17.79	71.45	18.41	-39.6	-40.6	22.3	0.00e+00	0	39	0	590348288	52	6137
2026-01-02 12:34:21.83	72.40	18.49	-39.6	-40.7	22.2	0.00e+00	0	39	0	597688320	52	6181
2026-01-02 12:34:25.87	73.35	18.56	-39.6	-40.8	22.2	0.00e+00	0	39	0	605028352	52	6259
2026-01-02 12:34:29.91	74.31	18.62	-40.0	-41.2	21.7	0.00e+00	0	39	0	612368384	52	6562
2026-01-02 12:34:33.94	75.26	18.68	-39.9	-41.0	21.9	0.00e+00	0	39	0	620756992	52	6422
2026-01-02 12:34:37.98	76.23	18.73	-39.6	-40.6	22.3	0.00e+00	0	39	0	628097024	52	6118
2026-01-02 12:34:42.01	77.19	18.76	-39.9	-41.0	21.9	0.00e+00	0	39	0	635437056	52	6431
2026-01-02 12:34:46.05	78.16	18.80	-40.1	-41.3	21.7	0.00e+00	0	39	0	642777088	52	6626
2026-01-02 12:34:50.09	79.13	18.82	-40.1	-41.2	21.7	0.00e+00	0	39	0	650117120	52	6579
2026-01-02 12:34:54.13	80.10	18.84	-40.1	-41.4	21.5	0.00e+00	0	39	0	658505728	52	6739
2026-01-02 12:34:58.17	81.07	18.85	-40.0	-41.1	21.8	0.00e+00	0	39	0	665845760	52	6477
2026-01-02 12:35:02.20	82.04	18.85	-39.5	-40.6	22.2	0.00e+00	0	39	0	673185792	52	6130
2026-01-02 12:35:06.24	83.01	18.84	-39.8	-40.9	22.0	0.00e+00	0	39	0	680525824	52	6347
2026-01-02 12:35:10.26	83.98	18.82	-39.6	-40.7	22.2	0.00e+00	0	39	0	687865856	52	6174
2026-01-02 12:35:14.30	84.95	18.80	-39.8	-40.8	22.1	0.00e+00	0	39	0	696254464	52	6296
2026-01-02 12:35:18.34	85.92	18.77	-40.0	-41.1	21.8	0.00e+00	0	39	0	703594496	52	6495
2026-01-02 12:35:22.38	86.88	18.73	-39.6	-40.7	22.3	0.00e+00	0	39	0	710934528	52	6178
2026-01-02 12:35:26.42	87.85	18.68	-39.1	-40.0	22.8	0.00e+00	0	39	0	718274560	52	5758
2026-01-02 12:35:30.46	88.81	18.63	-39.4	-40.4	22.4	0.00e+00	0	39	0	726663168	52	6022
2026-01-02 12:35:34.50	89.76	18.56	-39.3	-40.3	22.5	0.00e+00	0	39	0	734003200	52	5963
2026-01-02 12:35:38.54	90.72	18.49	-38.8	-39.8	23.0	0.00e+00	0	39	0	741343232	52	5581
2026-01-02 12:35:42.57	91.66	18.41	-38.5	-39.5	23.3	0.00e+00	0	39	0	748683264	50	6048
2026-01-02 12:35:46.61	92.61	18.33	-38.4	-39.4	23.3	0.00e+00	0	39	0	756023296	50	5976
2026-01-02 12:35:50.65	93.54	18.24	-38.7	-39.7	23.0	0.00e+00	0	39	0	764411904	50	6211
2026-01-02 12:35:54.69	94.48	18.14	-38.7	-39.6	23.1	0.00e+00	0	39	0	771751936	50	6144
2026-01-02 12:35:58.72	95.40	18.03	-38.4	-39.4	23.3	0.00e+00	0	39	0	779091968	50	5968
2026-01-02 12:36:02.76	96.32	17.92	-37.8	-38.7	24.0	0.00e+00	0	39	0	786432000	50	5545
2026-01-02 12:36:06.79	97.23	17.80	-37.7	-38.6	24.0	0.00e+00	0	39	0	794820608	48	6133
2026-01-02 12:36:10.83	98.14	17.67	-38.1	-39.0	23.7	0.00e+00	0	39	0	802160640	48	6401
2026-01-02 12:36:14.86	99.04	17.54	-37.9	-38.8	23.8	0.00e+00	0	39	0	809500672	48	6266
2026-01-02 12:36:18.90	99.93	17.41	-37.7	-38.6	24.0	0.00e+00	0	39	0	816840704	48	6150
2026-01-02 12:36:22.94	100.81	17.26	-37.4	-38.3	24.2	0.00e+00	0	39	0	824180736	48	5907
2026-01-02 12:36:26.98	101.69	17.11	-37.5	-38.4	24.2	0.00e+00	0	39	0	832569344	48	5982
2026-01-02 12:36:31.02	102.55	16.96	-37.8	-38.7	23.8	0.00e+00	0	39	0	839909376	48	6200
2026-01-02 12:36:35.06	103.41	16.80	-37.7	-38.5	23.8	0.00e+00	0	39	0	847249408	48	6088
2026-01-02 12:36:39.10	104.26	16.63	-38.5	-39.5	23.0	0.00e+00	0	39	0	854589440	48	6814
2026-01-02 12:36:43.14	105.10	16.47	-39.0	-40.0	22.7	0.00e+00	0	39	0	862978048	50	6416
2026-01-02 12:36:47.17	105.93	16.29	-39.1	-40.1	22.6	0.00e+00	0	39	0	870318080	50	6494
2026-01-02 12:36:51.21	106.75	16.11	-39.2	-40.2	22.6	0.00e+00	0	39	0	877658112	50	6603
2026-01-02 12:36:55.25	107.56	15.93	-39.0	-40.0	22.7	0.00e+00	0	39	0	884998144	50	6457
2026-01-02 12:36:59.28	108.36	15.75	-39.6	-40.7	22.0	0.00e+00	0	39	0	892338176	50	6974
2026-01-02 12:37:03.32	109.15	15.56	-39.6	-40.7	22.1	0.00e+00	0	39	0	900726784	52	6179
2026-01-02 12:37:07.36	109.93	15.36	-39.7	-40.7	21.9	0.00e+00	0	39	0	908066816	52	6239
2026-01-02 12:37:11.40	110.71	15.16	-39.7	-40.8	21.9	0.00e+00	0	39	0	915406848	52	6289
2026-01-02 12:37:15.43	111.47	14.97	-39.6	-40.7	22.0	0.00e+00	0	39	0	922746880	52	6188
2026-01-02 12:37:19.47	112.22	14.76	-39.1	-40.1	22.6	0.00e+00	0	39	0	931135488	52	5808
2026-01-02 12:37:23.51	112.96	14.56	-38.7	-39.7	22.9	0.00e+00	0	39	0	938475520	50	6184
2026-01-02 12:37:27.55	113.70	14.35	-38.9	-39.9	22.6	0.00e+00	0	39	0	945815552	50	6354
2026-01-02 12:37:31.59	114.42	14.14	-39.6	-40.7	21.8	0.00e+00	0	39	0	953155584	50	6987
2026-01-02 12:37:35.62	115.13	13.92	-40.3	-41.5	21.3	0.00e+00	0	39	0	960495616	52	6783
2026-01-02 12:37:39.66	115.84	13.71	-39.0	-40.0	22.6	0.00e+00	0	39	0	968884224	52	5743
2026-01-02 12:37:43.70	116.53	13.49	-38.8	-39.8	22.8	0.00e+00	0	39	0	976224256	50	6258
2026-01-02 12:37:47.74	117.21	13.27	-38.9	-39.9	22.7	0.00e+00	0	39	0	983564288	50	6322
2026-01-02 12:37:51.78	117.89	13.05	-38.7	-39.7	22.8	0.00e+00	0	39	0	990904320	50	6211
2026-01-02 12:37:55.82	118.55	12.83	-39.1	-40.2	22.4	0.00e+00	0	39	0	999292928	50	6540
2026-01-02 12:37:59.86	119.20	12.60	-38.7	-39.7	22.8	0.00e+00	0	39	0	1006632960	50	6221
2026-01-02 12:38:03.90	119.85	12.38	-38.5	-39.4	23.0	0.00e+00	0	39	0	1013972992	50	6000
2026-01-02 12:38:07.93	120.48	12.15	-39.0	-40.0	22.4	0.00e+00	0	39	0	1021313024	50	6458
2026-01-02 12:38:11.97	121.11	11.93	-38.7	-39.6	22.8	0.00e+00	0	39	0	1028653056	50	6171
2026-01-02 12:38:16.01	121.73	11.70	-38.8	-39.7	22.7	0.00e+00	0	39	0	1037041664	50	6241
2026-01-02 12:38:20.05	122.33	11.47	-39.5	-40.6	21.9	0.00e+00	0	39	0	1044381696	50	6903
2026-01-02 12:38:24.09	122.93	11.24	-39.2	-40.3	22.2	0.00e+00	0	39	0	1051721728	50	6634
2026-01-02 12:38:28.13	123.52	11.01	-39.0	-40.0	22.5	0.00e+00	0	39	0	1059061760	50	6431
2026-01-02 12:38:32.17	124.10	10.78	-39.5	-40.5	21.9	0.00e+00	0	39	0	1067450368	50	6848
2026-01-02 12:38:36.21	124.67	10.55	-39.1	-40.1	22.4	0.00e+00	0	39	0	1074790400	50	6508
2026-01-02 12:38:40.24	125.24	10.32	-39.4	-40.4	22.1	0.00e+00	0	39	0	1082130432	50	6763
2026-01-02 12:38:44.28	125.79	10.09	-40.0	-41.2	21.4	0.00e+00	0	39	0	1089470464	52	6553
2026-01-02 12:38:48.31	126.34	9.86	-39.9	-41.0	21.5	0.00e+00	0	39	0	1096810496	52	6440
2026-01-02 12:38:52.35	126.87	9.62	-39.7	-40.8	21.5	0.00e+00	0	39	0	1105199104	52	6281
2026-01-02 12:38:56.39	127.40	9.39	-40.0	-41.2	21.3	0.00e+00	0	39	0	1112539136	52	6578
2026-01-02 12:39:00.43	127.93	9.16	-40.3	-41.5	21.0	0.00e+00	0	39	0	1119879168	52	6805
2026-01-02 12:39:04.46	128.44	8.93	-40.1	-41.3	21.2	0.00e+00	0	39	0	1127219200	52	6659
2026-01-02 12:39:08.50	128.94	8.70	-40.5	-41.8	20.7	0.00e+00	0	39	0	1134559232	52	7019
2026-01-02 12:39:12.54	129.44	8.47	-40.8	-42.1	20.2	0.00e+00	0	39	0	1142947840	54	6524
2026-01-02 12:39:16.57	129.93	8.24	-40.5	-41.8	20.6	0.00e+00	0	39	0	1150287872	54	6304
2026-01-02 12:39:20.61	130.42	8.01	-40.3	-41.6	20.7	0.00e+00	0	39	0	1157627904	54	6116
2026-01-02 12:39:24.65	130.89	7.78	-40.2	-41.5	20.9	0.00e+00	0	39	0	1164967936	54	6039
2026-01-02 12:39:28.69	131.36	7.55	-40.5	-41.8	20.5	0.00e+00	0	39	0	1173356544	54	6286
2026-01-02 12:39:32.73	131.82	7.32	-40.5	-41.8	20.5	0.00e+00	0	39	0	1180696576	54	6299
2026-01-02 12:39:36.77	132.28	7.09	-40.8	-42.2	20.1	0.00e+00	0	39	0	1188036608	54	6546
2026-01-02 12:39:40.80	132.73	6.86	-41.4	-42.9	19.5	0.00e+00	0	39	0	1195376640	54	7093
2026-01-02 12:39:44.84	133.17	6.64	-41.4	-42.9	19.4	0.00e+00	0	39	0	1202716672	54	7132
2026-01-02 12:39:48.88	133.60	6.41	-41.3	-42.7	19.5	0.00e+00	0	39	0	1211105280	54	6988
2026-01-02 12:39:52.92	134.03	6.18	-41.3	-42.8	19.6	0.00e+00	0	39	0	1218445312	54	7014
2026-01-02 12:39:56.96	134.45	5.96	-41.6	-43.2	19.0	0.00e+00	0	39	0	1225785344	54	7391
2026-01-02 12:40:00.99	134.87	5.73	-42.0	-43.7	18.6	0.00e+00	0	39	0	1233125376	56	6957
2026-01-02 12:40:05.03	135.28	5.51	-42.1	-43.8	18.4	0.00e+00	0	39	0	1241513984	56	7084
2026-01-02 12:40:09.07	135.68	5.29	-42.2	-44.0	18.3	0.00e+00	0	39	0	1248854016	56	7187
2026-01-02 12:40:13.10	136.08	5.07	-42.2	-43.9	18.3	0.00e+00	0	39	0	1256194048	56	7152
2026-01-02 12:40:17.14	136.47	4.84	-42.3	-44.1	18.1	0.00e+00	0	39	0	1263534080	56	7256
2026-01-02 12:40:21.18	136.86	4.62	-42.5	-44.4	17.8	0.00e+00	0	39	0	1270874112	56	7522
2026-01-02 12:40:25.22	137.24	4.40	-42.7	-44.7	17.3	0.00e+00	0	39	0	1279262720	58	6974
2026-01-02 12:40:29.26	137.62	4.18	-42.5	-44.5	17.4	0.00e+00	0	39	0	1286602752	58	6785
2026-01-02 12:40:33.30	137.99	3.96	-42.3	-44.2	17.7	0.00e+00	0	39	0	1293942784	58	6559
2026-01-02 12:40:37.33	138.35	3.75	-42.7	-44.7	17.1	0.00e+00	0	39	0	1301282816	58	6993
2026-01-02 12:40:41.37	138.71	3.53	-42.6	-44.8	16.7	0.00e+00	0	39	0	1309671424	58	7065
2026-01-02 12:40:45.41	139.07	3.31	-43.4	-46.3	14.8	0.00e+00	0	39	0	1317011456	58	8375
2026-01-02 12:40:49.45	139.42	3.10	-44.3	-48.3	12.5	5.03e-05	0	39	0	1324351488	60	9367
2026-01-02 12:40:53.49	139.77	2.88	-48.6	-63.7	3.6	1.51e+00	0	39	104	1328545792	60	55573
2026-01-02 12:40:57.52	140.11	2.67	-49.2	-64.5	3.6	1.51e+00	0	39	104	1328545792	60	60397
2026-01-02 12:41:01.56	140.44	2.46	-49.3	-64.5	3.6	1.51e+00	0	39	104	1328545792	60	60912
2026-01-02 12:41:05.60	140.77	2.25	-49.3	-64.5	3.6	1.51e+00	0	39	104	1328545792	60	60822
2026-01-02 12:41:09.64	141.10	2.03	-49.3	-64.5	3.6	1.51e+00	0	39	104	1328545792	60	60610
2026-01-02 12:41:13.68	141.42	1.82	-49.3	-64.5	3.6	1.51e+00	0	39	104	1328545792	60	61006
2026-01-02 12:41:17.72	141.74	1.61	-49.3	-64.5	3.6	1.51e+00	0	39	104	1328545792	60	60947
2026-01-02 12:41:21.76	142.05	1.41	-49.3	-64.5	3.6	1.51e+00	0	39	104	1328545792	60	60816
2026-01-02 12:41:25.80	142.36	1.20	-49.3	-64.5	3.6	1.51e+00	0	39	104	1328545792	60	60569
2026-01-02 12:41:29.84	142.67	0.99	-49.3	-64.5	3.6	1.51e+00	0	39	104	1328545792	60	60603
2026-01-02 12:41:33.88	142.97	0.78	-49.3	-64.5	3.6	1.51e+00	0	39	104	1328545792	60	60607
2026-01-02 12:41:37.92	143.27	0.58	-49.3	-64.5	3.6	1.51e+00	0	39	104	1328545792	60	60794
2026-01-02 12:41:41.96	143.56	0.37	-49.3	-64.5	3.6	1.51e+00	0	39	104	1328545792	60	60730
2026-01-02 12:41:46.00	143.85	0.17	-49.3	-64.5	3.6	1.51e+00	0	39	104	1328545792	60	60588

#Closed at: 2026-01-02 12:41:49
#Recorded file [1328 MB]: D:/lorett/data/35029_260103_002810.dat