passes_logs/2026/01/02/R4.6S_Anadyr/R4.6S_Anadyr__20260102_215002_AQUA_rec.log

#Pass ID: 20260102_215002_AQUA
#Satellite: AQUA
#Configuration: AQUA
#almurnet v.1.7.20251203
#Start time: 2026-01-02 21:50:03

#Version: 2.2.20231116
#Station: R4.6S_Anadyr
#Location: 177.4865 lon 64.73178 lat
#TLE: 1 27424U 02022A   25365.92641127  .00002078  00000+0  42628-3 0  9999
#TLE: 2 27424  98.4058 327.1196 0001962  94.7781 340.6230 14.61783896258835

#Time	Az	El	Level	Level2	SNR	BER	BlckErr	Temp	State	Recorded	gain1	gain2
2026-01-02 21:50:03.54	60.03	0.06	-50.0	-62.5	3.4	1.52e+00	0	37	0	0	60	46760
2026-01-02 21:50:06.56	59.75	0.20	-50.4	-68.3	3.5	3.05e+01	0	39	104	0	60	99670
2026-01-02 21:50:09.59	59.47	0.34	-50.4	-68.2	3.5	3.05e+01	0	38	104	0	60	99258
2026-01-02 21:50:12.62	59.19	0.49	-50.2	-68.2	3.5	3.05e+01	0	38	104	0	60	99387
2026-01-02 21:50:15.65	58.90	0.63	-50.0	-68.1	3.5	3.05e+01	0	39	104	0	60	97890
2026-01-02 21:50:18.68	58.61	0.77	-48.6	-67.6	3.5	3.05e+01	0	39	104	0	60	92586
2026-01-02 21:50:21.71	58.32	0.92	-47.8	-66.4	3.5	3.05e+01	0	39	104	0	60	80429
2026-01-02 21:50:24.74	58.02	1.06	-47.8	-66.4	3.5	3.05e+01	0	39	104	0	60	80051
2026-01-02 21:50:27.77	57.72	1.21	-47.8	-66.4	3.5	3.05e+01	0	39	104	0	60	80113
2026-01-02 21:50:30.80	57.41	1.35	-47.8	-66.4	3.5	3.05e+01	0	39	104	0	60	80684
2026-01-02 21:50:33.83	57.11	1.49	-47.8	-66.4	3.5	3.05e+01	0	39	104	0	60	80209
2026-01-02 21:50:36.86	56.80	1.64	-47.8	-66.3	3.5	3.05e+01	0	39	104	0	60	79926
2026-01-02 21:50:39.89	56.48	1.78	-47.8	-66.4	3.5	3.05e+01	0	39	104	0	60	80458
2026-01-02 21:50:42.93	56.16	1.93	-47.8	-66.4	3.5	3.05e+01	0	39	104	0	60	80227
2026-01-02 21:50:45.96	55.84	2.07	-47.8	-66.3	3.5	3.05e+01	0	39	104	0	60	79566
2026-01-02 21:50:48.98	55.52	2.22	-47.8	-66.4	3.5	3.05e+01	0	39	104	0	60	80387
2026-01-02 21:50:52.01	55.19	2.36	-47.8	-66.1	3.5	3.05e+01	0	39	104	0	60	77980
2026-01-02 21:50:55.04	54.86	2.51	-47.8	-66.4	3.5	3.05e+01	0	39	104	0	60	79945
2026-01-02 21:50:58.07	54.52	2.65	-47.8	-66.3	3.5	3.05e+01	0	39	104	0	60	79083
2026-01-02 21:51:01.10	54.18	2.80	-47.7	-65.5	3.5	3.05e+01	0	39	104	0	60	72528
2026-01-02 21:51:04.12	53.84	2.94	-47.6	-65.0	3.5	3.05e+01	0	39	104	0	60	68099
2026-01-02 21:51:07.15	53.50	3.08	-46.7	-66.2	3.5	3.05e+01	0	39	104	0	60	78179
2026-01-02 21:51:10.18	53.14	3.23	-47.7	-65.9	3.5	3.05e+01	0	39	104	0	60	76157
2026-01-02 21:51:13.21	52.79	3.37	-41.1	-52.1	3.5	3.05e+01	0	39	104	0	56	19573
2026-01-02 21:51:16.24	52.43	3.52	-40.9	-51.6	3.6	3.05e+01	0	39	104	0	56	18346
2026-01-02 21:51:19.27	52.07	3.66	-40.8	-52.0	3.5	3.05e+01	0	39	104	0	60	15298
2026-01-02 21:51:22.29	51.70	3.80	-41.4	-52.2	3.5	3.05e+01	0	39	104	0	56	19849
2026-01-02 21:51:25.32	51.33	3.95	-41.5	-52.5	3.5	3.05e+01	0	39	104	0	58	18178
2026-01-02 21:51:28.35	50.96	4.09	-40.1	-50.7	3.6	3.05e+01	0	39	104	0	56	16591
2026-01-02 21:51:31.38	50.58	4.24	-39.4	-49.9	3.5	3.05e+01	0	39	104	0	54	17028
2026-01-02 21:51:34.41	50.20	4.38	-44.3	-56.0	3.5	3.05e+01	0	39	104	0	60	24409
2026-01-02 21:51:37.43	49.81	4.52	-40.0	-50.6	3.5	3.05e+01	0	39	104	0	56	16508
2026-01-02 21:51:40.46	49.42	4.66	-41.3	-52.1	3.5	3.05e+01	0	39	104	0	56	19530
2026-01-02 21:51:43.49	49.02	4.81	-40.3	-51.2	3.5	3.05e+01	0	39	104	0	58	15686
2026-01-02 21:51:46.52	48.62	4.95	-39.3	-50.0	3.5	3.05e+01	0	39	104	0	54	17261
2026-01-02 21:51:49.55	48.22	5.09	-39.6	-50.3	3.5	3.05e+01	0	39	104	0	54	17804
2026-01-02 21:51:52.58	47.81	5.23	-43.9	-55.5	3.6	3.05e+01	0	39	104	0	60	22891
2026-01-02 21:51:55.61	47.40	5.37	-41.7	-52.7	3.5	3.05e+01	0	39	104	0	54	23383
2026-01-02 21:51:58.64	46.98	5.51	-40.5	-51.2	3.5	3.05e+01	0	39	104	0	56	17627
2026-01-02 21:52:01.67	46.56	5.65	-44.4	-56.3	3.5	3.05e+01	0	39	104	0	60	25071
2026-01-02 21:52:04.70	46.13	5.79	-43.2	-54.5	3.5	3.05e+01	0	39	104	0	56	25753
2026-01-02 21:52:07.72	45.70	5.93	-41.1	-51.8	3.5	3.05e+01	0	39	104	0	56	18750
2026-01-02 21:52:10.75	45.27	6.06	-39.4	-50.0	3.5	3.05e+01	0	39	104	0	54	17117
2026-01-02 21:52:13.78	44.83	6.20	-47.6	-61.9	3.5	3.05e+01	0	39	104	0	60	47728
2026-01-02 21:52:16.81	44.38	6.34	-40.2	-50.8	3.5	3.05e+01	0	39	104	0	56	16749
2026-01-02 21:52:19.84	43.93	6.47	-39.2	-49.7	3.5	3.05e+01	0	39	104	0	54	16516
2026-01-02 21:52:22.87	43.48	6.61	-48.5	-66.2	3.5	3.05e+01	0	39	104	0	60	78389
2026-01-02 21:52:25.89	43.02	6.74	-38.9	-49.4	3.5	3.05e+01	0	39	104	0	52	18025
2026-01-02 21:52:28.92	42.56	6.87	-39.6	-50.2	3.5	3.05e+01	0	39	104	0	52	19629
2026-01-02 21:52:31.95	42.09	7.01	-49.1	-66.6	3.5	3.05e+01	0	39	104	0	60	81965
2026-01-02 21:52:34.98	41.62	7.14	-39.0	-49.5	3.5	3.05e+01	0	39	104	0	52	18194
2026-01-02 21:52:38.01	41.14	7.27	-40.0	-50.5	3.6	3.05e+01	0	39	104	0	52	20443
2026-01-02 21:52:41.04	40.66	7.40	-49.2	-66.6	3.5	3.05e+01	0	39	104	0	60	82178
2026-01-02 21:52:44.07	40.17	7.53	-38.8	-49.2	3.5	3.05e+01	0	39	104	0	52	17602
2026-01-02 21:52:47.10	39.68	7.65	-40.1	-50.6	3.5	3.05e+01	0	39	104	0	56	16369
2026-01-02 21:52:50.12	39.18	7.78	-49.0	-66.7	3.5	3.05e+01	0	39	104	0	60	83528
2026-01-02 21:52:53.16	38.68	7.90	-39.0	-49.4	3.5	3.05e+01	0	39	104	0	54	16083
2026-01-02 21:52:56.18	38.17	8.03	-39.7	-50.2	3.5	3.05e+01	0	39	104	0	54	17527
2026-01-02 21:52:59.21	37.66	8.15	-49.2	-67.1	3.5	3.05e+01	0	39	104	0	60	87382
2026-01-02 21:53:02.24	37.15	8.27	-44.1	-55.3	3.5	3.05e+01	0	39	104	0	60	22475
2026-01-02 21:53:05.27	36.63	8.39	-39.5	-49.9	3.5	3.05e+01	0	39	104	0	52	19139
2026-01-02 21:53:08.30	36.10	8.51	-49.2	-66.5	3.5	3.05e+01	0	39	104	0	60	81375
2026-01-02 21:53:11.33	35.57	8.62	-39.4	-49.8	3.5	3.05e+01	0	39	104	0	52	18872
2026-01-02 21:53:14.36	35.04	8.74	-39.7	-50.1	3.5	3.05e+01	0	39	104	0	54	17338
2026-01-02 21:53:17.39	34.50	8.85	-48.8	-64.8	3.5	3.05e+01	0	39	104	0	60	67126
2026-01-02 21:53:20.42	33.96	8.96	-38.1	-48.4	3.5	3.05e+01	0	39	104	0	52	16097
2026-01-02 21:53:23.44	33.41	9.07	-40.1	-50.5	3.5	3.05e+01	0	39	104	0	54	18137
2026-01-02 21:53:26.47	32.86	9.18	-48.9	-66.3	3.5	3.05e+01	0	39	104	0	60	79937
2026-01-02 21:53:29.50	32.30	9.28	-41.3	-51.8	3.5	3.05e+01	0	39	104	0	58	16884
2026-01-02 21:53:32.52	31.74	9.39	-42.3	-53.6	3.8	3.05e+01	0	39	104	0	54	25938
2026-01-02 21:53:35.55	31.18	9.49	-46.0	-58.4	3.5	3.05e+01	0	39	104	0	60	32130
2026-01-02 21:53:38.58	30.61	9.59	-38.3	-48.6	3.5	3.05e+01	0	39	104	0	52	16452
2026-01-02 21:53:41.61	30.04	9.68	-43.9	-55.1	3.4	3.05e+01	0	39	104	0	56	27683
2026-01-02 21:53:44.64	29.46	9.78	-45.4	-57.2	3.5	3.05e+01	0	39	104	0	60	27768
2026-01-02 21:53:47.67	28.88	9.87	-38.9	-49.2	3.5	3.05e+01	0	39	104	0	52	17682
2026-01-02 21:53:50.70	28.29	9.96	-48.8	-64.2	3.5	3.05e+01	0	39	104	0	60	62115
2026-01-02 21:53:53.73	27.70	10.05	-45.3	-56.8	3.5	3.05e+01	0	39	104	0	60	26767
2026-01-02 21:53:56.76	27.11	10.14	-40.8	-51.3	3.5	3.05e+01	0	39	104	0	56	17892
2026-01-02 21:53:59.78	26.51	10.22	-49.2	-65.9	3.5	3.05e+01	0	39	104	0	60	75838
2026-01-02 21:54:02.82	25.91	10.30	-41.6	-52.2	3.6	3.05e+01	0	39	104	0	60	15700
2026-01-02 21:54:05.84	25.30	10.38	-38.3	-48.6	3.5	3.05e+01	0	39	104	0	52	16381
2026-01-02 21:54:08.87	24.69	10.45	-49.4	-66.6	3.5	3.05e+01	0	39	104	0	60	81987
2026-01-02 21:54:11.91	24.08	10.53	-40.1	-50.5	3.5	3.05e+01	0	39	104	0	56	16296
2026-01-02 21:54:14.94	23.47	10.60	-38.0	-48.3	3.5	3.05e+01	0	39	104	0	52	15833
2026-01-02 21:54:17.97	22.85	10.66	-49.3	-66.2	3.5	3.05e+01	0	39	104	0	60	78723
2026-01-02 21:54:21.00	22.23	10.73	-43.2	-54.1	3.5	3.05e+01	0	39	104	0	60	19609
2026-01-02 21:54:24.03	21.60	10.79	-42.6	-53.3	3.5	3.05e+01	0	39	104	0	60	17817
2026-01-02 21:54:27.06	20.98	10.85	-49.1	-66.0	3.5	3.05e+01	0	39	104	0	60	76743
2026-01-02 21:54:30.09	20.35	10.90	-39.3	-49.6	3.5	3.05e+01	0	39	104	0	54	16461
2026-01-02 21:54:33.12	19.71	10.96	-38.1	-48.5	3.5	3.05e+01	0	39	104	0	52	16137
2026-01-02 21:54:36.14	19.08	11.01	-49.3	-66.0	3.5	3.05e+01	0	39	104	0	60	76997
2026-01-02 21:54:39.17	18.45	11.05	-39.3	-49.6	3.5	3.05e+01	0	39	104	0	54	16408
2026-01-02 21:54:42.20	17.81	11.09	-38.2	-48.4	3.5	3.05e+01	0	39	104	0	52	16116
2026-01-02 21:54:45.23	17.17	11.13	-49.6	-66.7	3.5	3.05e+01	0	39	104	0	60	83421
2026-01-02 21:54:48.26	16.52	11.17	-40.6	-51.1	3.5	3.05e+01	0	39	104	0	56	17462
2026-01-02 21:54:51.29	15.88	11.20	-39.1	-49.4	3.6	3.05e+01	0	39	104	0	54	15952
2026-01-02 21:54:54.31	15.24	11.23	-49.1	-65.5	3.5	3.05e+01	0	39	104	0	60	72462
2026-01-02 21:54:57.34	14.59	11.26	-39.3	-49.6	3.5	3.05e+01	0	39	104	0	54	16400
2026-01-02 21:55:00.37	13.94	11.29	-38.2	-48.5	3.5	3.05e+01	0	39	104	0	52	16211
2026-01-02 21:55:03.40	13.29	11.31	-49.4	-66.5	3.6	3.05e+01	0	39	104	0	60	80940
2026-01-02 21:55:06.43	12.64	11.32	-39.5	-49.9	3.6	3.05e+01	0	39	104	0	54	16909
2026-01-02 21:55:09.46	11.99	11.34	-39.3	-49.6	3.5	3.05e+01	0	39	104	0	52	18446
2026-01-02 21:55:12.48	11.34	11.35	-49.1	-64.7	3.5	3.05e+01	0	39	104	0	60	66114
2026-01-02 21:55:15.51	10.69	11.35	-40.4	-50.7	3.6	3.05e+01	0	39	104	0	56	16643
2026-01-02 21:55:18.54	10.04	11.36	-37.7	-39.0	27.7	3.05e+01	50	39	0	3145728	50	6097
2026-01-02 21:55:21.57	9.38	11.36	-37.7	-39.0	27.7	3.05e+01	60	39	0	8912896	50	6087
2026-01-02 21:55:24.60	8.73	11.35	-37.5	-38.8	27.8	3.05e+01	60	39	0	14680064	50	5949
2026-01-02 21:55:27.63	8.08	11.35	-37.4	-38.7	28.0	3.05e+01	60	39	0	20447232	50	5909
2026-01-02 21:55:30.65	7.43	11.34	-37.4	-38.6	28.0	3.05e+01	57	39	0	26214400	50	5847
2026-01-02 21:55:33.68	6.78	11.32	-37.4	-38.7	27.9	3.05e+01	57	39	0	31457280	50	5908
2026-01-02 21:55:36.71	6.13	11.31	-37.4	-38.7	27.9	3.05e+01	58	39	0	37224448	50	5887
2026-01-02 21:55:39.74	5.48	11.28	-37.4	-38.7	27.8	3.05e+01	45	39	0	42991616	50	5913
2026-01-02 21:55:42.77	4.83	11.26	-37.8	-39.1	27.8	3.05e+01	44	39	0	48758784	50	6161
2026-01-02 21:55:45.79	4.19	11.23	-37.8	-39.1	27.7	3.05e+01	59	39	0	54525952	50	6160
2026-01-02 21:55:48.82	3.54	11.20	-37.7	-39.0	27.7	3.05e+01	59	39	0	60293120	50	6095
2026-01-02 21:55:51.85	2.90	11.17	-37.5	-38.8	27.8	3.05e+01	57	39	0	65536000	50	5957
2026-01-02 21:55:54.88	2.25	11.13	-37.5	-38.8	27.8	3.05e+01	60	39	0	71303168	50	5976
2026-01-02 21:55:57.91	1.61	11.09	-37.5	-38.8	27.9	3.05e+01	56	39	0	77070336	50	5954
2026-01-02 21:56:00.93	0.98	11.05	-37.5	-38.8	27.7	3.05e+01	45	39	0	82837504	50	5972
2026-01-02 21:56:03.96	0.34	11.00	-37.5	-38.8	27.9	3.05e+01	44	39	0	88604672	50	5943
2026-01-02 21:56:06.99	359.71	10.95	-37.5	-38.8	27.9	3.05e+01	57	39	0	93847552	50	5943
2026-01-02 21:56:10.01	359.08	10.90	-37.6	-38.9	27.7	3.05e+01	57	39	0	99614720	50	6039
2026-01-02 21:56:13.04	358.45	10.85	-37.7	-39.0	27.7	3.05e+01	61	39	0	105381888	50	6076
2026-01-02 21:56:16.07	357.82	10.79	-37.6	-38.9	27.6	3.05e+01	60	39	0	111149056	50	6026
2026-01-02 21:56:19.10	357.20	10.73	-37.6	-39.0	27.7	3.05e+01	59	39	0	116916224	50	6069
2026-01-02 21:56:22.13	356.58	10.66	-37.5	-38.7	27.9	3.05e+01	61	39	0	122683392	50	5912
2026-01-02 21:56:25.16	355.96	10.60	-37.6	-38.8	27.8	3.05e+01	57	39	0	128450560	50	5994
2026-01-02 21:56:28.19	355.34	10.53	-37.8	-39.1	27.5	3.05e+01	45	39	0	133693440	50	6141
2026-01-02 21:56:31.21	354.73	10.45	-37.6	-39.0	27.7	3.05e+01	56	39	0	139460608	50	6066
2026-01-02 21:56:34.24	354.13	10.38	-37.7	-39.0	27.6	3.05e+01	58	39	0	145227776	50	6091
2026-01-02 21:56:37.27	353.52	10.30	-37.9	-39.2	27.3	3.05e+01	57	39	0	150994944	50	6275
2026-01-02 21:56:40.30	352.92	10.22	-37.8	-39.1	27.5	3.05e+01	58	39	0	156762112	50	6189
2026-01-02 21:56:43.33	352.32	10.14	-38.1	-39.4	27.3	3.05e+01	54	39	0	162004992	50	6419
2026-01-02 21:56:46.36	351.73	10.05	-38.1	-39.4	27.2	3.05e+01	56	39	0	167772160	50	6389
2026-01-02 21:56:49.39	351.14	9.96	-38.0	-39.3	27.2	3.05e+01	48	39	0	173539328	50	6329
2026-01-02 21:56:52.42	350.55	9.87	-38.4	-39.8	27.0	3.05e+01	58	39	0	179306496	50	6670
2026-01-02 21:56:55.45	349.97	9.78	-37.8	-39.1	27.4	3.05e+01	57	39	0	185073664	50	6196
2026-01-02 21:56:58.48	349.40	9.68	-38.3	-39.6	27.0	3.05e+01	60	39	0	190840832	50	6571
2026-01-02 21:57:01.51	348.82	9.59	-38.1	-39.4	27.2	3.05e+01	59	39	0	196608000	50	6415
2026-01-02 21:57:04.53	348.26	9.49	-38.9	-40.3	26.3	3.05e+01	59	39	0	201850880	52	6327
2026-01-02 21:57:07.56	347.69	9.38	-38.0	-39.3	27.2	3.05e+01	44	39	0	207618048	52	5636
2026-01-02 21:57:10.59	347.13	9.28	-39.5	-41.1	25.7	3.05e+01	51	39	0	213385216	52	6895
2026-01-02 21:57:13.62	346.57	9.18	-38.2	-39.5	27.0	3.05e+01	60	39	0	219152384	52	5774
2026-01-02 21:57:16.65	346.02	9.07	-38.7	-40.1	26.6	3.05e+01	58	39	0	224919552	52	6159
2026-01-02 21:57:19.67	345.48	8.96	-38.6	-39.9	26.4	3.05e+01	60	39	0	230162432	52	6051
2026-01-02 21:57:22.70	344.93	8.85	-38.8	-40.2	26.2	3.05e+01	57	39	0	235929600	52	6274
2026-01-02 21:57:25.73	344.40	8.74	-38.9	-40.4	26.3	3.05e+01	57	39	0	241696768	52	6351
2026-01-02 21:57:28.76	343.86	8.62	-38.8	-40.2	26.3	3.05e+01	59	39	0	247463936	52	6234
2026-01-02 21:57:31.78	343.34	8.51	-39.2	-40.6	26.1	3.05e+01	52	39	0	253231104	52	6571
2026-01-02 21:57:34.81	342.81	8.39	-38.7	-40.1	26.5	3.05e+01	48	39	0	258998272	52	6193
2026-01-02 21:57:37.84	342.29	8.27	-38.2	-39.6	26.9	3.05e+01	60	39	0	264241152	52	5831
2026-01-02 21:57:40.87	341.78	8.15	-38.5	-39.9	26.7	3.05e+01	59	39	0	270008320	52	6052
2026-01-02 21:57:43.90	341.27	8.03	-39.4	-40.9	25.7	3.05e+01	59	39	0	275775488	52	6774
2026-01-02 21:57:46.93	340.76	7.90	-39.4	-40.9	25.5	3.05e+01	57	39	0	281542656	52	6740
2026-01-02 21:57:49.96	340.26	7.78	-39.2	-40.7	25.9	3.05e+01	59	39	0	287309824	52	6576
2026-01-02 21:57:52.99	339.76	7.65	-39.4	-40.8	25.8	3.05e+01	47	39	0	293076992	52	6707
2026-01-02 21:57:56.02	339.27	7.53	-39.2	-40.7	25.9	3.05e+01	51	39	0	298319872	52	6596
2026-01-02 21:57:59.04	338.79	7.40	-39.4	-40.8	25.8	3.05e+01	62	39	0	304087040	52	6719
2026-01-02 21:58:02.08	338.30	7.27	-39.6	-41.1	25.6	3.05e+01	61	39	0	309854208	52	6936
2026-01-02 21:58:05.10	337.83	7.14	-39.2	-40.7	25.7	3.05e+01	60	39	0	315621376	52	6635
2026-01-02 21:58:08.13	337.36	7.01	-39.4	-40.9	25.3	3.05e+01	59	39	0	321388544	52	6761
2026-01-02 21:58:11.16	336.89	6.88	-39.7	-41.1	25.3	3.05e+01	58	39	0	327155712	54	6203
2026-01-02 21:58:14.19	336.43	6.74	-39.5	-41.0	25.5	3.05e+01	52	39	0	332398592	54	6107
2026-01-02 21:58:17.22	335.97	6.61	-39.9	-41.5	24.9	3.05e+01	48	39	0	338165760	54	6426
2026-01-02 21:58:20.25	335.52	6.47	-39.3	-40.8	25.4	3.05e+01	58	39	0	343932928	54	5937
2026-01-02 21:58:23.28	335.07	6.34	-39.2	-40.6	25.4	3.05e+01	58	39	0	349700096	52	6547
2026-01-02 21:58:26.30	334.62	6.20	-39.2	-40.6	25.4	3.05e+01	58	39	0	355467264	54	5852
2026-01-02 21:58:29.33	334.18	6.07	-40.1	-41.8	24.0	3.05e+01	59	39	0	361234432	54	6686
2026-01-02 21:58:32.36	333.75	5.93	-40.1	-41.8	24.1	3.05e+01	59	39	0	366477312	56	5937
2026-01-02 21:58:35.39	333.32	5.79	-39.8	-41.4	24.6	3.05e+01	54	39	0	372244480	54	6365
2026-01-02 21:58:38.42	332.89	5.65	-40.2	-41.8	24.3	3.05e+01	48	39	0	378011648	54	6722
2026-01-02 21:58:41.45	332.47	5.51	-39.9	-41.5	24.7	3.05e+01	44	39	0	383778816	54	6467
2026-01-02 21:58:44.47	332.06	5.37	-39.8	-41.4	24.8	3.05e+01	59	39	0	389545984	54	6385
2026-01-02 21:58:47.49	331.64	5.23	-39.7	-41.3	25.0	3.05e+01	57	39	0	394788864	54	6279
2026-01-02 21:58:50.52	331.24	5.09	-39.5	-41.0	25.2	3.05e+01	60	39	0	400556032	54	6132
2026-01-02 21:58:53.55	330.83	4.95	-40.2	-41.8	24.5	3.05e+01	58	39	0	406323200	54	6719
2026-01-02 21:58:56.57	330.43	4.81	-40.4	-42.0	24.4	3.05e+01	57	39	0	412090368	54	6859
2026-01-02 21:58:59.59	330.04	4.67	-40.0	-41.5	24.8	3.05e+01	47	39	0	417857536	54	6487
2026-01-02 21:59:02.63	329.65	4.52	-40.0	-41.6	24.6	3.05e+01	47	39	0	423624704	54	6550
2026-01-02 21:59:05.65	329.26	4.38	-40.2	-41.8	24.4	3.05e+01	57	39	0	429391872	54	6672
2026-01-02 21:59:08.68	328.88	4.24	-40.4	-42.0	24.1	3.05e+01	53	39	0	434634752	54	6874
2026-01-02 21:59:11.71	328.50	4.10	-40.3	-41.9	24.1	3.05e+01	57	39	0	440401920	54	6779
2026-01-02 21:59:14.74	328.13	3.95	-39.9	-41.5	24.6	3.05e+01	53	39	0	446169088	54	6434
2026-01-02 21:59:17.77	327.76	3.81	-40.9	-42.7	23.5	3.05e+01	61	39	0	451936256	54	7394
2026-01-02 21:59:20.80	327.39	3.66	-40.5	-42.1	24.1	3.05e+01	62	39	0	457703424	56	6173
2026-01-02 21:59:23.83	327.03	3.52	-40.6	-42.3	23.8	3.05e+01	55	39	0	462946304	56	6309
2026-01-02 21:59:26.86	326.67	3.38	-41.0	-42.8	23.4	3.05e+01	54	39	0	468713472	56	6667
2026-01-02 21:59:29.88	326.32	3.23	-40.7	-42.4	23.7	3.05e+01	62	39	0	474480640	56	6378
2026-01-02 21:59:32.91	325.97	3.09	-41.7	-43.7	22.3	3.05e+01	60	39	0	480247808	56	7412
2026-01-02 21:59:35.94	325.62	2.94	-49.3	-67.5	3.5	3.05e+01	0	39	104	483393536	60	90908
2026-01-02 21:59:38.97	325.28	2.80	-50.2	-68.1	3.5	3.05e+01	0	39	104	483393536	60	97469
2026-01-02 21:59:42.00	324.94	2.65	-50.1	-68.2	3.5	3.05e+01	0	39	104	483393536	60	99103
2026-01-02 21:59:45.03	324.61	2.51	-50.3	-68.2	3.5	3.05e+01	0	39	104	483393536	60	98954
2026-01-02 21:59:48.06	324.28	2.37	-50.2	-68.1	3.5	3.05e+01	0	39	104	483393536	60	98115
2026-01-02 21:59:51.09	323.95	2.22	-50.3	-68.1	3.5	3.05e+01	0	39	104	483393536	60	98147
2026-01-02 21:59:54.12	323.63	2.08	-50.3	-68.2	3.5	3.05e+01	0	39	104	483393536	60	98540
2026-01-02 21:59:57.15	323.31	1.93	-50.3	-68.1	3.5	3.05e+01	0	39	104	483393536	60	98151
2026-01-02 22:00:00.18	322.99	1.79	-50.3	-68.1	3.5	3.05e+01	0	39	104	483393536	60	97927
2026-01-02 22:00:03.21	322.67	1.64	-50.3	-68.1	3.5	3.05e+01	0	39	104	483393536	60	98130
2026-01-02 22:00:06.24	322.37	1.50	-50.3	-68.1	3.5	3.05e+01	0	39	104	483393536	60	97541
2026-01-02 22:00:09.27	322.06	1.35	-50.3	-68.1	3.6	3.05e+01	0	39	104	483393536	60	97783
2026-01-02 22:00:12.30	321.76	1.21	-50.3	-68.1	3.5	3.05e+01	0	39	104	483393536	60	97355
2026-01-02 22:00:15.32	321.46	1.07	-50.3	-68.1	3.5	3.05e+01	0	39	104	483393536	60	97455
2026-01-02 22:00:18.35	321.16	0.92	-50.3	-68.1	3.5	3.05e+01	0	39	104	483393536	60	97773
2026-01-02 22:00:21.38	320.87	0.78	-50.3	-68.1	3.5	3.05e+01	0	39	104	483393536	60	97987
2026-01-02 22:00:24.41	320.58	0.63	-50.3	-68.1	3.5	3.05e+01	0	39	104	483393536	60	97779
2026-01-02 22:00:27.44	320.29	0.49	-50.3	-68.1	3.5	3.05e+01	0	39	104	483393536	60	97963
2026-01-02 22:00:30.48	320.00	0.35	-50.3	-68.1	3.5	3.05e+01	0	39	104	483393536	60	97580
2026-01-02 22:00:33.51	319.72	0.20	-50.3	-68.1	3.5	3.05e+01	0	39	104	483393536	60	97659
2026-01-02 22:00:36.53	319.45	0.06	-50.3	-68.2	3.5	3.05e+01	0	39	104	483393536	60	98537
2026-01-02 22:00:39.56	319.17	-0.08	-50.3	-68.1	3.5	3.05e+01	0	39	104	483393536	60	97463

#Closed at: 2026-01-02 22:00:40
#Recorded file [483 MB]: D:/lorett/data/35029_260103_095003.dat