passes_logs/2026/01/02/R4.6S_Anadyr/R4.6S_Anadyr__20260102_190810_NOAA_20_JPSS-1_rec.log

#Pass ID: 20260102_190810_NOAA 20 (JPSS-1)
#Satellite: NOAA 20 (JPSS-1)
#Configuration: NOAA 20
#almurnet v.1.7.20251203
#Start time: 2026-01-02 19:08:11

#Version: 2.2.20231116
#Station: R4.6S_Anadyr
#Location: 177.4865 lon 64.73178 lat
#TLE: 1 43013U 17073A   26001.93781127  .00000184  00000+0  10834-3 0  9997
#TLE: 2 43013  98.7622 303.0160 0001916  58.2205 301.9158 14.19532295420889

#Time	Az	El	Level	Level2	SNR	BER	BlckErr	Temp	State	Recorded	gain1	gain2
2026-01-02 19:08:11.36	49.04	0.04	-49.9	-67.6	3.5	3.02e+01	0	36	0	0	60	91891
2026-01-02 19:08:14.39	48.81	0.19	-49.7	-64.9	3.6	1.51e+00	0	37	104	0	60	63672
2026-01-02 19:08:17.42	48.58	0.34	-49.8	-65.0	3.6	1.51e+00	0	37	104	0	60	64183
2026-01-02 19:08:20.45	48.35	0.48	-49.7	-64.9	3.6	1.51e+00	0	37	104	0	60	63543
2026-01-02 19:08:23.48	48.12	0.63	-49.5	-64.8	3.6	1.51e+00	0	38	104	0	60	62590
2026-01-02 19:08:26.51	47.88	0.78	-49.1	-64.2	3.6	1.51e+00	0	38	104	0	60	58799
2026-01-02 19:08:29.54	47.64	0.93	-47.9	-63.1	3.6	1.51e+00	0	38	104	0	60	51697
2026-01-02 19:08:32.57	47.40	1.08	-47.9	-63.1	3.6	1.51e+00	0	38	104	0	60	51766
2026-01-02 19:08:35.60	47.15	1.23	-47.9	-63.1	3.6	1.51e+00	0	38	104	0	60	51722
2026-01-02 19:08:38.63	46.91	1.38	-47.9	-63.1	3.6	1.51e+00	0	38	104	0	60	51422
2026-01-02 19:08:41.66	46.66	1.53	-47.9	-63.1	3.5	1.51e+00	0	38	104	0	60	51941
2026-01-02 19:08:44.69	46.40	1.68	-47.9	-63.1	3.6	1.51e+00	0	38	104	0	60	51645
2026-01-02 19:08:47.72	46.15	1.83	-47.9	-63.1	3.6	1.51e+00	0	38	104	0	60	51716
2026-01-02 19:08:50.75	45.89	1.98	-47.9	-63.1	3.6	1.51e+00	0	38	104	0	60	51636
2026-01-02 19:08:53.78	45.63	2.13	-47.9	-63.0	3.6	1.51e+00	0	38	104	0	60	50783
2026-01-02 19:08:56.81	45.36	2.28	-47.9	-62.8	3.6	1.51e+00	0	38	104	0	60	49941
2026-01-02 19:08:59.84	45.10	2.43	-47.9	-63.1	3.6	1.51e+00	0	38	104	0	60	51626
2026-01-02 19:09:02.87	44.83	2.58	-47.9	-63.1	3.6	1.51e+00	0	38	104	0	60	51660
2026-01-02 19:09:05.90	44.56	2.73	-47.9	-62.2	3.6	1.51e+00	0	38	104	0	60	46729
2026-01-02 19:09:08.93	44.28	2.88	-47.9	-62.3	3.5	1.51e+00	0	38	104	0	60	46863
2026-01-02 19:09:11.96	44.00	3.04	-46.7	-52.4	9.2	5.64e-02	92	38	0	2097152	60	15020
2026-01-02 19:09:14.99	43.72	3.19	-46.0	-50.7	11.0	5.00e-01	92	38	104	3145728	60	12441
2026-01-02 19:09:18.02	43.44	3.34	-44.2	-47.0	15.2	1.28e+00	0	38	104	5242880	60	8046
2026-01-02 19:09:21.05	43.15	3.49	-43.9	-46.3	16.0	0.00e+00	3	38	0	9437184	60	7462
2026-01-02 19:09:24.07	42.86	3.65	-43.9	-46.3	16.1	0.00e+00	92	38	0	14680064	60	7445
2026-01-02 19:09:27.10	42.57	3.80	-43.9	-46.3	16.0	0.00e+00	0	38	0	20971520	60	7446
2026-01-02 19:09:30.12	42.27	3.95	-43.5	-45.7	16.6	0.00e+00	0	38	0	26214400	60	6964
2026-01-02 19:09:33.15	41.97	4.11	-43.7	-46.0	16.3	0.00e+00	92	38	0	32505856	60	7195
2026-01-02 19:09:36.18	41.67	4.26	-43.8	-46.2	16.1	0.00e+00	46	38	0	37748736	60	7369
2026-01-02 19:09:39.20	41.37	4.41	-43.3	-45.5	17.0	0.00e+00	0	38	0	42991616	60	6780
2026-01-02 19:09:42.23	41.06	4.57	-43.4	-45.6	16.8	0.00e+00	0	38	0	49283072	60	6863
2026-01-02 19:09:45.26	40.74	4.72	-43.1	-45.2	17.3	0.00e+00	73	38	0	54525952	60	6543
2026-01-02 19:09:48.29	40.43	4.87	-43.3	-45.3	17.2	0.00e+00	34	38	0	60817408	60	6674
2026-01-02 19:09:51.32	40.11	5.03	-42.9	-44.7	17.9	0.00e+00	33	38	0	66060288	60	6243
2026-01-02 19:09:54.35	39.78	5.18	-42.8	-44.7	17.9	0.00e+00	92	38	0	71303168	60	6214
2026-01-02 19:09:57.38	39.46	5.33	-43.0	-44.9	17.7	0.00e+00	47	38	0	77594624	58	7123
2026-01-02 19:10:00.41	39.13	5.49	-42.7	-44.5	18.1	0.00e+00	46	38	0	82837504	58	6779
2026-01-02 19:10:03.43	38.79	5.64	-42.7	-44.4	18.3	0.00e+00	92	38	0	89128960	58	6743
2026-01-02 19:10:06.46	38.45	5.80	-42.4	-44.1	18.6	0.00e+00	8	38	0	94371840	58	6474
2026-01-02 19:10:09.50	38.11	5.95	-42.3	-43.9	18.8	0.00e+00	6	38	0	100663296	58	6370
2026-01-02 19:10:12.53	37.77	6.10	-42.5	-44.2	18.5	0.00e+00	33	38	0	105906176	58	6548
2026-01-02 19:10:15.55	37.42	6.26	-42.4	-44.0	18.8	0.00e+00	11	38	0	111149056	58	6430
2026-01-02 19:10:18.58	37.07	6.41	-42.5	-44.2	18.6	0.00e+00	50	39	0	117440512	58	6568
2026-01-02 19:10:21.60	36.71	6.56	-42.5	-44.1	18.7	0.00e+00	51	38	0	122683392	58	6520
2026-01-02 19:10:24.63	36.35	6.72	-42.4	-44.0	18.9	0.00e+00	91	38	0	128974848	58	6411
2026-01-02 19:10:27.66	35.99	6.87	-42.4	-44.0	18.9	0.00e+00	0	38	0	134217728	58	6394
2026-01-02 19:10:30.69	35.62	7.02	-42.3	-43.9	19.0	0.00e+00	34	38	0	139460608	58	6339
2026-01-02 19:10:33.73	35.25	7.17	-42.1	-43.7	19.2	0.00e+00	91	38	0	145752064	58	6184
2026-01-02 19:10:36.75	34.87	7.33	-42.1	-43.6	19.3	0.00e+00	45	38	0	150994944	58	6140
2026-01-02 19:10:39.77	34.49	7.48	-42.1	-43.6	19.3	0.00e+00	0	38	0	157286400	58	6126
2026-01-02 19:10:42.80	34.11	7.63	-41.9	-43.4	19.5	0.00e+00	90	38	0	162529280	58	5979
2026-01-02 19:10:45.82	33.72	7.78	-42.1	-43.7	19.3	0.00e+00	45	38	0	167772160	58	6174
2026-01-02 19:10:48.84	33.33	7.93	-42.3	-43.8	19.2	0.00e+00	0	38	0	174063616	58	6301
2026-01-02 19:10:51.87	32.93	8.08	-42.1	-43.6	19.3	0.00e+00	84	39	0	179306496	58	6120
2026-01-02 19:10:54.89	32.53	8.23	-42.0	-43.5	19.5	0.00e+00	37	38	0	185597952	56	6813
2026-01-02 19:10:57.92	32.13	8.38	-41.7	-43.1	19.9	0.00e+00	36	38	0	190840832	56	6480
2026-01-02 19:11:00.94	31.72	8.53	-41.7	-43.1	19.9	0.00e+00	45	38	0	197132288	56	6534
2026-01-02 19:11:03.97	31.30	8.68	-41.7	-43.0	20.0	0.00e+00	92	39	0	202375168	56	6463
2026-01-02 19:11:07.00	30.89	8.83	-41.9	-43.4	19.7	0.00e+00	0	39	0	207618048	56	6717
2026-01-02 19:11:10.03	30.46	8.98	-41.7	-43.1	20.0	0.00e+00	2	38	0	213909504	56	6516
2026-01-02 19:11:13.05	30.04	9.12	-41.6	-43.0	20.1	0.00e+00	92	38	0	219152384	56	6405
2026-01-02 19:11:16.07	29.61	9.27	-41.8	-43.2	19.8	0.00e+00	36	39	0	225443840	56	6595
2026-01-02 19:11:19.10	29.17	9.41	-41.6	-42.9	20.2	0.00e+00	0	39	0	230686720	56	6388
2026-01-02 19:11:22.13	28.73	9.56	-41.7	-43.0	20.1	0.00e+00	92	39	0	235929600	56	6462
2026-01-02 19:11:25.16	28.29	9.70	-41.5	-42.9	20.3	0.00e+00	36	38	0	242221056	56	6325
2026-01-02 19:11:28.18	27.84	9.84	-41.3	-42.6	20.6	0.00e+00	0	38	0	247463936	56	6113
2026-01-02 19:11:31.20	27.39	9.99	-41.2	-42.4	20.8	0.00e+00	0	38	0	253755392	56	6030
2026-01-02 19:11:34.23	26.93	10.13	-41.0	-42.2	21.0	0.00e+00	84	39	0	258998272	56	5858
2026-01-02 19:11:37.25	26.47	10.27	-40.5	-41.6	21.5	0.00e+00	0	39	0	264241152	54	6164
2026-01-02 19:11:40.28	26.00	10.41	-40.3	-41.4	21.7	0.00e+00	29	39	0	270532608	54	6020
2026-01-02 19:11:43.30	25.53	10.54	-40.4	-41.5	21.6	0.00e+00	92	39	0	275775488	54	6053
2026-01-02 19:11:46.33	25.06	10.68	-40.3	-41.4	21.6	0.00e+00	0	38	0	282066944	54	6016
2026-01-02 19:11:49.35	24.58	10.82	-40.2	-41.4	21.7	0.00e+00	36	39	0	287309824	54	5970
2026-01-02 19:11:52.37	24.09	10.95	-40.1	-41.2	21.9	0.00e+00	90	39	0	293601280	54	5863
2026-01-02 19:11:55.40	23.60	11.08	-40.1	-41.2	21.9	0.00e+00	5	39	0	298844160	54	5841
2026-01-02 19:11:58.42	23.11	11.22	-40.0	-41.1	21.9	0.00e+00	45	39	0	304087040	54	5820
2026-01-02 19:12:01.45	22.61	11.35	-39.7	-40.7	22.3	0.00e+00	92	39	0	310378496	52	6211
2026-01-02 19:12:04.48	22.11	11.48	-39.7	-40.8	22.3	0.00e+00	0	38	0	315621376	52	6255
2026-01-02 19:12:07.50	21.60	11.60	-39.4	-40.4	22.7	0.00e+00	29	39	0	321912832	52	6006
2026-01-02 19:12:10.53	21.09	11.73	-39.4	-40.4	22.6	0.00e+00	56	39	0	327155712	52	6008
2026-01-02 19:12:13.55	20.58	11.85	-39.5	-40.5	22.7	0.00e+00	90	39	0	332398592	52	6041
2026-01-02 19:12:16.57	20.06	11.98	-39.4	-40.4	22.7	0.00e+00	51	39	0	338690048	52	5979
2026-01-02 19:12:19.60	19.53	12.10	-39.6	-40.6	22.4	0.00e+00	51	39	0	343932928	52	6148
2026-01-02 19:12:22.63	19.00	12.22	-39.8	-40.8	22.3	0.00e+00	90	39	0	350224384	52	6310
2026-01-02 19:12:25.66	18.47	12.33	-39.9	-40.9	22.3	0.00e+00	9	38	0	355467264	52	6383
2026-01-02 19:12:28.68	17.93	12.45	-40.2	-41.3	21.9	0.00e+00	36	39	0	360710144	52	6616
2026-01-02 19:12:31.71	17.39	12.56	-40.2	-41.3	22.0	0.00e+00	92	39	0	367001600	52	6635
2026-01-02 19:12:34.74	16.84	12.67	-40.2	-41.3	21.9	0.00e+00	49	39	0	372244480	52	6627
2026-01-02 19:12:37.76	16.29	12.78	-40.1	-41.1	22.1	0.00e+00	32	39	0	378535936	52	6511
2026-01-02 19:12:40.78	15.74	12.89	-40.3	-41.4	22.0	0.00e+00	62	39	0	383778816	52	6742
2026-01-02 19:12:43.81	15.18	12.99	-40.3	-41.4	21.8	0.00e+00	45	39	0	389021696	52	6705
2026-01-02 19:12:46.84	14.62	13.10	-40.1	-41.2	22.2	0.00e+00	0	39	0	395313152	52	6554
2026-01-02 19:12:49.87	14.05	13.20	-40.0	-41.0	22.3	0.00e+00	0	39	0	400556032	52	6458
2026-01-02 19:12:52.89	13.48	13.29	-39.7	-40.7	22.5	0.00e+00	92	39	0	406847488	52	6228
2026-01-02 19:12:55.92	12.91	13.39	-39.9	-40.9	22.3	0.00e+00	37	39	0	412090368	52	6351
2026-01-02 19:12:58.95	12.33	13.48	-40.0	-41.1	22.2	0.00e+00	0	39	0	418381824	52	6490
2026-01-02 19:13:01.96	11.75	13.57	-39.5	-40.5	22.7	0.00e+00	92	39	0	423624704	52	6061
2026-01-02 19:13:04.99	11.16	13.66	-39.4	-40.4	22.7	0.00e+00	51	39	0	428867584	52	6002
2026-01-02 19:13:08.02	10.57	13.75	-39.5	-40.5	22.6	0.00e+00	0	39	0	435159040	52	6043
2026-01-02 19:13:11.05	9.98	13.83	-39.3	-40.3	22.8	0.00e+00	92	39	0	440401920	52	5908
2026-01-02 19:13:14.07	9.39	13.91	-39.4	-40.3	22.7	0.00e+00	0	39	0	446693376	52	5956
2026-01-02 19:13:17.10	8.79	13.98	-39.4	-40.4	22.8	0.00e+00	0	39	0	451936256	52	6021
2026-01-02 19:13:20.12	8.19	14.06	-39.9	-40.9	22.4	0.00e+00	39	39	0	457179136	52	6364
2026-01-02 19:13:23.14	7.59	14.13	-39.5	-40.5	22.7	0.00e+00	0	39	0	463470592	52	6039
2026-01-02 19:13:26.17	6.98	14.20	-39.9	-41.0	22.3	0.00e+00	37	39	0	468713472	52	6396
2026-01-02 19:13:29.19	6.37	14.26	-39.9	-40.9	22.3	0.00e+00	44	39	0	475004928	52	6354
2026-01-02 19:13:32.22	5.76	14.32	-40.0	-41.0	22.2	0.00e+00	24	39	0	480247808	52	6425
2026-01-02 19:13:35.24	5.14	14.38	-40.3	-41.4	21.9	0.00e+00	0	39	0	485490688	52	6760
2026-01-02 19:13:38.27	4.52	14.44	-40.1	-41.1	22.1	0.00e+00	0	39	0	491782144	52	6533
2026-01-02 19:13:41.30	3.90	14.49	-39.9	-41.0	22.4	0.00e+00	92	39	0	497025024	52	6421
2026-01-02 19:13:44.32	3.28	14.54	-39.8	-40.9	22.4	0.00e+00	36	39	0	503316480	52	6320
2026-01-02 19:13:47.35	2.66	14.58	-39.6	-40.6	22.7	0.00e+00	0	39	0	508559360	52	6141
2026-01-02 19:13:50.39	2.03	14.63	-39.6	-40.6	22.7	0.00e+00	91	39	0	514850816	52	6129
2026-01-02 19:13:53.41	1.40	14.67	-39.8	-40.8	22.5	0.00e+00	5	39	0	520093696	52	6264
2026-01-02 19:13:56.44	0.77	14.70	-39.7	-40.7	22.6	0.00e+00	0	39	0	525336576	52	6224
2026-01-02 19:13:59.47	0.14	14.73	-39.7	-40.8	22.5	0.00e+00	0	39	0	531628032	52	6256
2026-01-02 19:14:02.50	359.51	14.76	-39.8	-40.8	22.4	0.00e+00	43	39	0	536870912	52	6296
2026-01-02 19:14:05.53	358.87	14.79	-39.6	-40.6	22.6	0.00e+00	54	39	0	543162368	52	6127
2026-01-02 19:14:08.56	358.24	14.81	-39.7	-40.7	22.5	0.00e+00	49	39	0	548405248	52	6228
2026-01-02 19:14:11.59	357.60	14.83	-40.0	-41.0	22.3	0.00e+00	92	39	0	553648128	52	6449
2026-01-02 19:14:14.62	356.97	14.84	-39.8	-40.8	22.5	0.00e+00	6	39	0	559939584	52	6296
2026-01-02 19:14:17.65	356.33	14.85	-39.6	-40.6	22.7	0.00e+00	0	39	0	565182464	52	6131
2026-01-02 19:14:20.68	355.69	14.86	-39.7	-40.7	22.5	0.00e+00	92	39	0	571473920	52	6212
2026-01-02 19:14:23.71	355.06	14.86	-39.7	-40.8	22.5	0.00e+00	31	39	0	576716800	52	6257
2026-01-02 19:14:26.74	354.42	14.86	-39.6	-40.6	22.6	0.00e+00	43	39	0	583008256	52	6108
2026-01-02 19:14:29.76	353.78	14.86	-39.8	-40.8	22.4	0.00e+00	92	39	0	588251136	52	6284
2026-01-02 19:14:32.79	353.14	14.85	-40.0	-41.0	22.4	0.00e+00	51	39	0	593494016	52	6442
2026-01-02 19:14:35.82	352.51	14.84	-40.1	-41.1	22.2	0.00e+00	50	39	0	599785472	52	6537
2026-01-02 19:14:38.85	351.87	14.83	-39.9	-41.0	22.4	0.00e+00	0	39	0	605028352	52	6409
2026-01-02 19:14:41.87	351.24	14.81	-40.0	-41.1	22.2	0.00e+00	92	39	0	611319808	52	6485
2026-01-02 19:14:44.90	350.60	14.79	-40.2	-41.3	22.0	0.00e+00	0	39	0	616562688	52	6653
2026-01-02 19:14:47.93	349.97	14.77	-40.1	-41.1	22.2	0.00e+00	37	39	0	621805568	52	6504
2026-01-02 19:14:50.96	349.33	14.74	-39.8	-40.8	22.4	0.00e+00	92	39	0	628097024	52	6304
2026-01-02 19:14:53.99	348.70	14.71	-40.0	-41.1	22.2	0.00e+00	0	39	0	633339904	52	6508
2026-01-02 19:14:57.02	348.07	14.67	-40.2	-41.2	22.1	0.00e+00	2	39	0	639631360	52	6595
2026-01-02 19:15:00.04	347.45	14.64	-40.2	-41.3	22.0	0.00e+00	92	39	0	644874240	52	6623
2026-01-02 19:15:03.06	346.82	14.59	-39.8	-40.9	22.4	0.00e+00	0	39	0	650117120	52	6324
2026-01-02 19:15:06.09	346.20	14.55	-39.9	-40.9	22.4	0.00e+00	0	39	0	656408576	52	6362
2026-01-02 19:15:09.12	345.57	14.50	-39.9	-41.0	22.3	0.00e+00	32	39	0	661651456	52	6402
2026-01-02 19:15:12.14	344.95	14.45	-39.8	-40.8	22.5	0.00e+00	0	39	0	667942912	52	6288
2026-01-02 19:15:15.17	344.33	14.39	-39.6	-40.6	22.6	0.00e+00	0	39	0	673185792	52	6164
2026-01-02 19:15:18.20	343.72	14.34	-39.6	-40.6	22.6	0.00e+00	43	39	0	679477248	52	6120
2026-01-02 19:15:21.23	343.10	14.28	-39.6	-40.7	22.6	0.00e+00	92	39	0	684720128	52	6184
2026-01-02 19:15:24.26	342.49	14.21	-39.7	-40.8	22.5	0.00e+00	0	39	0	689963008	52	6251
2026-01-02 19:15:27.28	341.89	14.14	-39.6	-40.6	22.6	0.00e+00	0	39	0	696254464	52	6153
2026-01-02 19:15:30.31	341.28	14.07	-40.0	-41.0	22.3	0.00e+00	92	39	0	701497344	52	6452
2026-01-02 19:15:33.34	340.68	14.00	-40.1	-41.2	22.1	0.00e+00	49	39	0	707788800	52	6566
2026-01-02 19:15:36.37	340.08	13.93	-40.1	-41.1	22.2	0.00e+00	52	39	0	713031680	52	6534
2026-01-02 19:15:39.40	339.48	13.85	-40.0	-41.1	22.3	0.00e+00	72	39	0	718274560	52	6483
2026-01-02 19:15:42.42	338.89	13.76	-40.1	-41.2	22.1	0.00e+00	6	39	0	724566016	52	6596
2026-01-02 19:15:45.45	338.30	13.68	-40.1	-41.2	22.2	0.00e+00	0	39	0	729808896	52	6561
2026-01-02 19:15:48.48	337.71	13.59	-40.2	-41.3	22.1	0.00e+00	0	39	0	736100352	52	6635
2026-01-02 19:15:51.50	337.13	13.50	-40.1	-41.2	22.2	0.00e+00	51	39	0	741343232	52	6558
2026-01-02 19:15:54.53	336.55	13.41	-39.9	-40.9	22.4	0.00e+00	51	39	0	747634688	52	6349
2026-01-02 19:15:57.56	335.98	13.32	-39.8	-40.8	22.4	0.00e+00	31	39	0	752877568	52	6306
2026-01-02 19:16:00.59	335.40	13.22	-39.9	-40.9	22.4	0.00e+00	91	39	0	758120448	52	6345
2026-01-02 19:16:03.62	334.84	13.12	-39.9	-41.0	22.3	0.00e+00	59	39	0	764411904	52	6415
2026-01-02 19:16:06.64	334.27	13.02	-39.8	-40.8	22.5	0.00e+00	5	39	0	769654784	52	6307
2026-01-02 19:16:09.67	333.71	12.91	-39.6	-40.7	22.6	0.00e+00	91	39	0	775946240	52	6178
2026-01-02 19:16:12.70	333.16	12.81	-40.0	-41.1	22.2	0.00e+00	0	39	0	781189120	52	6495
2026-01-02 19:16:15.73	332.61	12.70	-39.9	-40.9	22.4	0.00e+00	36	39	0	786432000	52	6387
2026-01-02 19:16:18.76	332.06	12.59	-39.8	-40.8	22.5	0.00e+00	68	39	0	792723456	52	6251
2026-01-02 19:16:21.79	331.51	12.47	-39.7	-40.7	22.6	0.00e+00	61	39	0	797966336	52	6214
2026-01-02 19:16:24.81	330.98	12.36	-39.6	-40.6	22.7	0.00e+00	45	39	0	804257792	52	6118
2026-01-02 19:16:27.85	330.44	12.24	-39.6	-40.6	22.7	0.00e+00	2	39	0	809500672	52	6130
2026-01-02 19:16:30.88	329.91	12.12	-39.8	-40.8	22.5	0.00e+00	92	39	0	815792128	52	6269
2026-01-02 19:16:33.90	329.38	12.00	-40.2	-41.2	22.1	0.00e+00	35	39	0	821035008	52	6582
2026-01-02 19:16:36.93	328.86	11.88	-40.5	-41.6	21.8	0.00e+00	51	39	0	826277888	52	6854
2026-01-02 19:16:39.96	328.35	11.75	-40.5	-41.6	21.7	0.00e+00	91	39	0	832569344	52	6922
2026-01-02 19:16:42.99	327.83	11.63	-40.8	-41.9	21.5	0.00e+00	0	39	0	837812224	54	6352
2026-01-02 19:16:46.01	327.33	11.50	-41.0	-42.1	21.3	0.00e+00	45	39	0	844103680	54	6530
2026-01-02 19:16:49.04	326.82	11.37	-41.1	-42.3	21.0	0.00e+00	92	39	0	849346560	54	6643
2026-01-02 19:16:52.07	326.32	11.24	-41.5	-42.8	20.5	0.00e+00	0	39	0	854589440	54	7052
2026-01-02 19:16:55.10	325.83	11.11	-41.7	-43.1	20.3	0.00e+00	0	39	0	860880896	56	6485
2026-01-02 19:16:58.13	325.34	10.98	-41.7	-43.0	20.5	0.00e+00	0	39	0	866123776	56	6454
2026-01-02 19:17:01.16	324.85	10.84	-41.8	-43.1	20.2	0.00e+00	8	39	0	872415232	56	6525
2026-01-02 19:17:04.19	324.37	10.71	-41.9	-43.3	20.1	0.00e+00	0	39	0	877658112	56	6636
2026-01-02 19:17:07.22	323.89	10.57	-42.2	-43.6	19.8	0.00e+00	0	39	0	882900992	56	6893
2026-01-02 19:17:10.25	323.42	10.43	-42.7	-44.2	19.4	0.00e+00	91	39	0	889192448	56	7370
2026-01-02 19:17:13.28	322.95	10.29	-42.6	-44.1	19.4	0.00e+00	33	39	0	894435328	58	6481
2026-01-02 19:17:16.31	322.49	10.15	-42.4	-43.8	19.6	0.00e+00	0	39	0	900726784	58	6306
2026-01-02 19:17:19.33	322.03	10.01	-42.4	-43.8	19.3	0.00e+00	92	39	0	905969664	58	6308
2026-01-02 19:17:22.36	321.58	9.87	-42.7	-44.2	19.2	0.00e+00	0	39	0	912261120	58	6592
2026-01-02 19:17:25.39	321.13	9.73	-42.7	-44.3	19.1	0.00e+00	6	39	0	917504000	58	6635
2026-01-02 19:17:28.41	320.68	9.59	-42.7	-44.3	19.1	0.00e+00	91	39	0	922746880	58	6661
2026-01-02 19:17:31.44	320.24	9.44	-42.7	-44.2	19.2	0.00e+00	0	39	0	929038336	58	6568
2026-01-02 19:17:34.47	319.80	9.30	-42.6	-44.1	19.0	0.00e+00	6	39	0	934281216	58	6489
2026-01-02 19:17:37.50	319.37	9.15	-42.6	-44.2	19.0	0.00e+00	0	39	0	940572672	58	6571
2026-01-02 19:17:40.52	318.94	9.00	-42.6	-44.1	19.3	0.00e+00	92	39	0	945815552	58	6539
2026-01-02 19:17:43.55	318.52	8.86	-42.2	-43.7	19.6	0.00e+00	32	39	0	951058432	58	6212
2026-01-02 19:17:46.58	318.10	8.71	-42.1	-43.4	19.8	0.00e+00	6	39	0	957349888	58	6030
2026-01-02 19:17:49.61	317.69	8.56	-42.1	-43.6	19.8	0.00e+00	92	39	0	962592768	58	6109
2026-01-02 19:17:52.64	317.28	8.41	-41.9	-43.2	20.0	0.00e+00	6	39	0	968884224	58	5896
2026-01-02 19:17:55.66	316.87	8.26	-41.9	-43.3	20.0	0.00e+00	0	39	0	974127104	58	5934
2026-01-02 19:17:58.69	316.47	8.11	-42.1	-43.5	19.8	0.00e+00	92	39	0	980418560	56	6771
2026-01-02 19:18:01.72	316.07	7.96	-41.8	-43.2	19.9	0.00e+00	32	39	0	985661440	56	6550
2026-01-02 19:18:04.75	315.68	7.81	-41.4	-42.7	20.5	0.00e+00	28	39	0	990904320	56	6204
2026-01-02 19:18:07.77	315.29	7.66	-41.3	-42.6	20.7	0.00e+00	92	39	0	997195776	56	6123
2026-01-02 19:18:10.79	314.91	7.51	-41.1	-42.3	20.7	0.00e+00	34	39	0	1002438656	56	5953
2026-01-02 19:18:13.82	314.53	7.35	-41.1	-42.3	20.8	0.00e+00	0	39	0	1008730112	56	5944
2026-01-02 19:18:16.84	314.15	7.20	-41.0	-42.2	20.9	0.00e+00	0	39	0	1013972992	56	5844
2026-01-02 19:18:19.87	313.78	7.05	-40.8	-42.0	21.1	0.00e+00	92	39	0	1019215872	54	6398
2026-01-02 19:18:22.90	313.41	6.90	-40.7	-41.9	21.1	0.00e+00	0	39	0	1025507328	54	6354
2026-01-02 19:18:25.93	313.04	6.74	-40.7	-41.8	21.0	0.00e+00	51	39	0	1030750208	54	6314
2026-01-02 19:18:28.95	312.68	6.59	-40.6	-41.8	21.3	0.00e+00	91	39	0	1037041664	54	6271
2026-01-02 19:18:31.98	312.33	6.44	-40.5	-41.6	21.4	0.00e+00	50	39	0	1042284544	54	6165
2026-01-02 19:18:35.00	311.97	6.28	-40.7	-41.9	21.1	0.00e+00	2	39	0	1047527424	54	6357
2026-01-02 19:18:38.03	311.62	6.13	-40.8	-42.0	21.0	0.00e+00	84	39	0	1053818880	54	6413
2026-01-02 19:18:41.05	311.28	5.98	-40.7	-41.9	21.0	0.00e+00	0	39	0	1059061760	54	6374
2026-01-02 19:18:44.07	310.94	5.82	-41.0	-42.2	20.8	0.00e+00	31	39	0	1065353216	54	6587
2026-01-02 19:18:47.10	310.60	5.67	-41.0	-42.2	20.7	0.00e+00	92	39	0	1070596096	54	6597
2026-01-02 19:18:50.13	310.26	5.52	-41.0	-42.3	20.6	0.00e+00	17	39	0	1076887552	54	6655
2026-01-02 19:18:53.16	309.93	5.36	-41.2	-42.5	20.5	0.00e+00	33	39	0	1082130432	54	6841
2026-01-02 19:18:56.18	309.61	5.21	-41.2	-42.5	20.2	0.00e+00	49	39	0	1087373312	54	6806
2026-01-02 19:18:59.21	309.28	5.06	-41.5	-42.9	19.8	0.00e+00	91	39	0	1093664768	54	7131
2026-01-02 19:19:02.23	308.96	4.90	-41.2	-42.5	20.4	0.00e+00	0	39	0	1098907648	54	6803
2026-01-02 19:19:05.26	308.64	4.75	-41.3	-42.6	20.3	0.00e+00	2	39	0	1105199104	54	6869
2026-01-02 19:19:08.28	308.33	4.60	-41.2	-42.5	20.2	0.00e+00	92	39	0	1110441984	54	6824
2026-01-02 19:19:11.31	308.02	4.44	-41.8	-43.2	19.8	0.00e+00	0	39	0	1115684864	56	6563
2026-01-02 19:19:14.33	307.72	4.29	-42.1	-43.6	19.3	0.00e+00	2	39	0	1121976320	56	6857
2026-01-02 19:19:17.36	307.41	4.14	-42.0	-43.5	19.3	0.00e+00	92	39	0	1127219200	56	6841
2026-01-02 19:19:20.38	307.11	3.98	-42.2	-43.7	19.1	0.00e+00	0	39	0	1133510656	56	7004
2026-01-02 19:19:23.41	306.81	3.83	-41.9	-43.4	19.4	0.00e+00	6	39	0	1138753536	56	6764
2026-01-02 19:19:26.44	306.52	3.68	-42.0	-43.5	19.2	0.00e+00	0	39	0	1143996416	56	6838
2026-01-02 19:19:29.47	306.23	3.52	-42.4	-44.1	18.6	0.00e+00	18	39	0	1150287872	56	7267
2026-01-02 19:19:32.49	305.94	3.37	-42.6	-44.4	18.2	0.00e+00	0	39	0	1155530752	56	7522
2026-01-02 19:19:35.52	305.66	3.22	-42.6	-44.4	18.0	0.00e+00	0	39	0	1161822208	58	6709
2026-01-02 19:19:38.55	305.38	3.07	-42.8	-44.7	18.0	0.00e+00	91	39	0	1167065088	58	6936
2026-01-02 19:19:41.58	305.10	2.92	-49.4	-64.6	3.6	1.51e+00	0	39	104	1169162240	60	61333
2026-01-02 19:19:44.61	304.82	2.76	-49.9	-65.1	3.6	1.51e+00	0	39	104	1169162240	60	65333
2026-01-02 19:19:47.64	304.55	2.61	-50.0	-65.2	3.6	1.51e+00	0	39	104	1169162240	60	65961
2026-01-02 19:19:50.66	304.28	2.46	-49.8	-65.1	3.6	1.51e+00	0	39	104	1169162240	60	65310
2026-01-02 19:19:53.69	304.01	2.31	-49.9	-65.1	3.5	1.51e+00	0	39	104	1169162240	60	64937
2026-01-02 19:19:56.73	303.75	2.16	-50.0	-65.2	3.6	1.51e+00	0	39	104	1169162240	60	65451
2026-01-02 19:19:59.75	303.49	2.01	-49.9	-65.1	3.6	1.51e+00	0	39	104	1169162240	60	64781
2026-01-02 19:20:02.78	303.23	1.86	-49.9	-65.1	3.6	1.51e+00	0	39	104	1169162240	60	65058
2026-01-02 19:20:05.81	302.97	1.71	-49.9	-65.1	3.6	1.51e+00	0	39	104	1169162240	60	64722
2026-01-02 19:20:08.84	302.72	1.56	-49.9	-65.1	3.6	1.51e+00	0	39	104	1169162240	60	64917
2026-01-02 19:20:11.87	302.47	1.41	-49.9	-65.1	3.6	1.51e+00	0	39	104	1169162240	60	65031
2026-01-02 19:20:14.90	302.22	1.26	-49.9	-65.0	3.6	1.51e+00	0	39	104	1169162240	60	64554
2026-01-02 19:20:17.93	301.97	1.11	-49.9	-65.1	3.6	1.51e+00	0	39	104	1169162240	60	64804
2026-01-02 19:20:20.96	301.73	0.96	-49.9	-65.1	3.6	1.51e+00	0	39	104	1169162240	60	64723
2026-01-02 19:20:23.99	301.49	0.81	-49.9	-65.1	3.6	1.51e+00	0	39	104	1169162240	60	64780
2026-01-02 19:20:27.01	301.25	0.66	-49.9	-65.0	3.6	1.51e+00	0	39	104	1169162240	60	64592
2026-01-02 19:20:30.04	301.02	0.52	-49.9	-65.1	3.6	1.51e+00	0	39	104	1169162240	60	64976
2026-01-02 19:20:33.07	300.78	0.37	-49.9	-65.1	3.5	1.51e+00	0	39	104	1169162240	60	64792
2026-01-02 19:20:36.10	300.55	0.22	-49.9	-65.1	3.6	1.51e+00	0	39	104	1169162240	60	64863
2026-01-02 19:20:39.13	300.32	0.07	-49.9	-65.1	3.6	1.51e+00	0	39	104	1169162240	60	64820
2026-01-02 19:20:42.16	300.10	-0.07	-49.9	-65.1	3.6	1.51e+00	0	39	104	1169162240	60	64829

#Closed at: 2026-01-02 19:20:42
#Recorded file [1169 MB]: D:/lorett/data/35029_260103_070811.dat