passes_logs/2026/01/12/T1/T1__20260112_130742_FENGYUN_3E_rec.log

#Pass ID: 20260112_130742_FENGYUN 3E
#Satellite: FENGYUN 3E
#Configuration: FENGYUN 3E
#almurnet v.1.7.20251203
#Start time: 2026-01-12 13:07:42

#Version: 2.0.20230620
#Station: T1
#Location: 37.570604 lon 55.790049 lat
#TLE: 1 49008U 21062A   26011.97558190  .00000066  00000+0  51928-4 0  9996
#TLE: 2 49008  98.7491  17.1395 0001916 144.4283 215.7021 14.19885193234411

#Time	Az	El	Level	Level2	SNR	BER	BlckErr	Temp	State	Recorded	gain1	gain2
2026-01-12 13:07:42.31	126.34	5.00	-52.1	-62.6	3.8	8.46e-01	0	37	0	0	74	12136
2026-01-12 13:07:45.29	126.18	5.20	-52.0	-62.4	3.8	8.46e-01	0	37	104	0	74	11912
2026-01-12 13:07:48.27	126.01	5.40	-52.1	-62.6	3.8	8.47e-01	0	37	104	0	74	12131
2026-01-12 13:07:51.25	125.84	5.60	-52.1	-62.7	3.8	8.47e-01	0	37	104	0	74	12359
2026-01-12 13:07:54.23	125.66	5.80	-52.1	-62.8	3.8	8.47e-01	0	37	104	0	74	12403
2026-01-12 13:07:57.21	125.49	6.01	-52.1	-62.7	3.8	8.47e-01	0	37	104	0	74	12303
2026-01-12 13:08:00.19	125.31	6.22	-52.0	-62.1	3.8	8.46e-01	0	38	104	0	74	11465
2026-01-12 13:08:03.17	125.13	6.42	-51.9	-61.5	3.8	8.47e-01	0	38	104	0	74	10732
2026-01-12 13:08:06.14	124.95	6.63	-51.9	-61.6	3.8	8.46e-01	0	38	104	0	74	10793
2026-01-12 13:08:09.12	124.76	6.84	-52.0	-62.2	3.8	8.46e-01	0	38	104	0	74	11633
2026-01-12 13:08:12.10	124.57	7.05	-52.0	-62.2	3.8	8.46e-01	0	38	104	0	74	11574
2026-01-12 13:08:15.08	124.38	7.27	-52.0	-62.1	3.8	8.47e-01	0	38	104	0	74	11452
2026-01-12 13:08:18.06	124.18	7.48	-52.0	-62.2	3.8	8.48e-01	0	38	104	0	74	11660
2026-01-12 13:08:21.04	123.98	7.70	-50.3	-55.1	6.5	3.30e-01	0	38	0	2097152	71	6102
2026-01-12 13:08:24.02	123.78	7.92	-46.7	-49.2	12.3	3.42e-04	0	38	0	24117248	64	4600
2026-01-12 13:08:27.00	123.58	8.14	-44.5	-46.4	15.0	0.00e+00	0	38	0	45088768	59	4445
2026-01-12 13:08:29.98	123.37	8.36	-44.2	-46.1	15.3	0.00e+00	0	39	0	66060288	58	4547
2026-01-12 13:08:32.96	123.16	8.58	-46.5	-48.9	12.7	2.05e-05	0	39	0	88080384	62	5001
2026-01-12 13:08:35.94	122.95	8.80	-50.3	-55.1	6.5	1.27e-01	0	39	0	109051904	70	6492
2026-01-12 13:08:38.92	122.73	9.03	-52.0	-62.6	3.8	8.47e-01	0	38	104	113246208	73	12954
2026-01-12 13:08:41.90	122.51	9.26	-51.7	-60.2	4.0	8.45e-01	0	39	104	123731968	73	9766
2026-01-12 13:08:44.88	122.28	9.49	-47.4	-50.0	11.5	4.29e-03	0	39	0	132120576	65	4800
2026-01-12 13:08:47.87	122.05	9.72	-45.5	-47.5	14.2	1.10e-06	0	39	0	154140672	61	4536
2026-01-12 13:08:50.85	121.82	9.95	-44.5	-46.3	15.3	0.00e+00	0	39	0	175112192	59	4426
2026-01-12 13:08:53.83	121.58	10.19	-44.1	-45.8	15.8	0.00e+00	0	39	0	197132288	58	4423
2026-01-12 13:08:56.86	121.34	10.43	-43.8	-45.5	16.1	0.00e+00	0	39	0	219152384	58	4278
2026-01-12 13:08:59.95	121.09	10.67	-43.5	-45.2	16.4	0.00e+00	0	39	0	241172480	57	4360
2026-01-12 13:09:02.79	120.85	10.90	-43.4	-45.1	16.5	0.00e+00	0	39	0	262144000	57	4313
2026-01-12 13:09:05.91	120.59	11.16	-43.1	-44.7	16.9	0.00e+00	0	39	0	284164096	56	4364
2026-01-12 13:09:08.76	120.34	11.39	-43.0	-44.6	17.0	0.00e+00	0	39	0	305135616	56	4320
2026-01-12 13:09:11.98	120.06	11.65	-43.1	-44.7	16.9	0.00e+00	0	39	0	328204288	56	4354
2026-01-12 13:09:14.93	119.80	11.90	-43.0	-44.6	17.0	0.00e+00	0	39	0	349175808	56	4327
2026-01-12 13:09:18.05	119.51	12.16	-42.9	-44.5	17.2	0.00e+00	0	39	0	372244480	56	4254
2026-01-12 13:09:20.97	119.24	12.41	-42.8	-44.3	17.3	0.00e+00	0	39	0	393216000	56	4185
2026-01-12 13:09:23.96	118.96	12.66	-42.8	-44.4	17.1	0.00e+00	0	39	0	414187520	55	4462
2026-01-12 13:09:26.94	118.67	12.91	-42.7	-44.3	17.2	0.00e+00	0	39	0	436207616	55	4401
2026-01-12 13:09:29.93	118.38	13.17	-42.7	-44.3	17.2	0.00e+00	0	39	0	458227712	55	4394
2026-01-12 13:09:32.98	118.08	13.44	-42.5	-44.1	17.4	0.00e+00	0	39	0	480247808	55	4306
2026-01-12 13:09:35.83	117.79	13.69	-42.5	-44.1	17.3	0.00e+00	0	39	0	500170752	55	4320
2026-01-12 13:09:38.95	117.47	13.96	-42.4	-44.0	17.5	0.00e+00	0	39	0	523239424	55	4259
2026-01-12 13:09:41.79	117.17	14.22	-42.5	-44.2	17.3	0.00e+00	0	39	0	543162368	55	4345
2026-01-12 13:09:45.00	116.83	14.50	-42.2	-43.7	17.7	0.00e+00	0	39	0	566231040	55	4122
2026-01-12 13:09:47.92	116.51	14.77	-42.1	-43.6	17.8	0.00e+00	0	39	0	588251136	54	4313
2026-01-12 13:09:51.05	116.17	15.05	-41.9	-43.4	18.0	0.00e+00	0	39	0	610271232	54	4218
2026-01-12 13:09:53.89	115.85	15.31	-41.7	-43.2	18.2	0.00e+00	0	39	0	630194176	54	4138
2026-01-12 13:09:57.01	115.49	15.60	-41.8	-43.3	18.1	0.00e+00	0	39	0	653262848	54	4177
2026-01-12 13:09:59.86	115.15	15.87	-41.6	-43.1	18.3	0.00e+00	0	39	0	673185792	53	4331
2026-01-12 13:10:02.98	114.78	16.16	-41.7	-43.2	18.2	0.00e+00	0	39	0	696254464	53	4372
2026-01-12 13:10:05.93	114.42	16.44	-41.6	-43.1	18.3	0.00e+00	0	39	0	717225984	53	4329
2026-01-12 13:10:09.11	114.02	16.74	-41.4	-42.8	18.6	0.00e+00	0	39	0	740294656	53	4190
2026-01-12 13:10:11.95	113.66	17.01	-41.3	-42.7	18.7	0.00e+00	0	39	0	761266176	53	4135
2026-01-12 13:10:15.08	113.26	17.32	-41.2	-42.6	18.8	0.00e+00	0	39	0	783286272	53	4074
2026-01-12 13:10:18.31	112.83	17.63	-41.1	-42.5	18.9	0.00e+00	0	39	0	806354944	53	4029
2026-01-12 13:10:21.21	112.44	17.92	-41.3	-42.7	18.8	0.00e+00	0	39	0	828375040	52	4353
2026-01-12 13:10:24.72	111.96	18.26	-41.2	-42.6	18.9	0.00e+00	0	39	0	853540864	52	4301
2026-01-12 13:10:27.43	111.58	18.53	-41.7	-42.7	19.1	0.00e+00	0	39	0	872415232	52	4378
2026-01-12 13:10:30.73	111.11	18.86	-41.6	-42.6	19.1	0.00e+00	0	39	0	896532480	53	4098
2026-01-12 13:10:33.58	110.69	19.15	-41.3	-42.3	19.4	0.00e+00	0	39	0	917504000	53	3951
2026-01-12 13:10:37.17	110.15	19.52	-41.3	-42.3	19.4	0.00e+00	0	39	0	943718400	53	3947
2026-01-12 13:10:39.87	109.74	19.79	-41.2	-42.2	19.6	0.00e+00	0	39	0	962592768	52	4130
2026-01-12 13:10:43.26	109.21	20.14	-41.4	-42.4	19.4	0.00e+00	0	39	0	986710016	52	4195
2026-01-12 13:10:45.96	108.79	20.42	-41.4	-42.4	19.4	0.00e+00	0	40	0	1006632960	52	4223
2026-01-12 13:10:49.23	108.25	20.76	-41.5	-42.5	19.3	0.00e+00	0	40	0	1030750208	52	4264
2026-01-12 13:10:52.10	107.78	21.06	-41.3	-42.3	19.5	0.00e+00	0	39	0	1050673152	52	4158
2026-01-12 13:10:55.23	107.25	21.39	-41.1	-42.1	19.7	0.00e+00	0	40	0	1073741824	52	4081
2026-01-12 13:10:58.07	106.76	21.69	-41.2	-42.2	19.6	0.00e+00	0	39	0	1093664768	52	4110
2026-01-12 13:11:01.20	106.21	22.02	-41.2	-42.2	19.6	0.00e+00	0	39	0	1116733440	52	4102
2026-01-12 13:11:04.04	105.70	22.32	-41.0	-41.9	19.9	0.00e+00	0	40	0	1136656384	52	3997
2026-01-12 13:11:07.16	105.12	22.66	-40.8	-41.8	20.0	0.00e+00	0	39	0	1159725056	52	3932
2026-01-12 13:11:10.15	104.56	22.98	-40.9	-41.9	19.9	0.00e+00	0	40	0	1180696576	52	3980
2026-01-12 13:11:13.48	103.92	23.34	-40.9	-41.9	19.9	0.00e+00	0	40	0	1204813824	52	3978
2026-01-12 13:11:16.42	103.35	23.65	-40.7	-41.7	20.1	0.00e+00	0	39	0	1226833920	52	3897
2026-01-12 13:11:19.83	102.66	24.02	-40.6	-41.6	20.2	0.00e+00	0	40	0	1250951168	52	3835
2026-01-12 13:11:22.55	102.11	24.32	-40.6	-41.5	20.3	0.00e+00	0	39	0	1270874112	51	4051
2026-01-12 13:11:26.18	101.35	24.71	-40.5	-41.5	20.4	0.00e+00	0	39	0	1297088512	51	4011
2026-01-12 13:11:29.02	100.74	25.02	-40.6	-41.6	20.3	0.00e+00	0	39	0	1318060032	51	4065
2026-01-12 13:11:32.52	99.97	25.40	-40.7	-41.6	20.2	0.00e+00	0	40	0	1343225856	51	4088
2026-01-12 13:11:35.25	99.36	25.70	-40.6	-41.5	20.3	0.00e+00	0	40	0	1362100224	51	4051
2026-01-12 13:11:38.55	98.61	26.05	-40.3	-41.2	20.6	0.00e+00	0	40	0	1386217472	51	3887
2026-01-12 13:11:41.33	97.96	26.35	-40.4	-41.3	20.5	0.00e+00	0	40	0	1406140416	51	3938
2026-01-12 13:11:44.64	97.17	26.71	-40.5	-41.5	20.4	0.00e+00	0	39	0	1430257664	51	4007
2026-01-12 13:11:47.70	96.43	27.04	-40.7	-41.7	20.2	0.00e+00	0	40	0	1452277760	51	4102
2026-01-12 13:11:50.55	95.72	27.34	-40.6	-41.5	20.3	0.00e+00	0	40	0	1473249280	51	4046
2026-01-12 13:11:53.67	94.93	27.67	-40.3	-41.2	20.6	0.00e+00	0	40	0	1495269376	51	3899
2026-01-12 13:11:56.61	94.17	27.98	-40.4	-41.3	20.5	0.00e+00	0	40	0	1516240896	51	3927
2026-01-12 13:11:59.97	93.29	28.34	-40.5	-41.5	20.4	0.00e+00	0	39	0	1541406720	51	4020
2026-01-12 13:12:02.69	92.56	28.62	-40.6	-41.5	20.4	0.00e+00	0	39	0	1560281088	51	4043
2026-01-12 13:12:05.96	91.66	28.96	-40.7	-41.6	20.3	0.00e+00	0	40	0	1584398336	51	4080
2026-01-12 13:12:08.69	90.90	29.23	-40.8	-41.7	20.2	0.00e+00	0	40	0	1603272704	51	4134
2026-01-12 13:12:11.97	89.96	29.56	-40.4	-41.3	20.5	0.00e+00	0	40	0	1627389952	51	3957
2026-01-12 13:12:14.67	89.18	29.83	-40.1	-41.0	20.8	0.00e+00	0	39	0	1647312896	51	3807
2026-01-12 13:12:18.13	88.15	30.17	-40.1	-41.0	20.9	0.00e+00	0	39	0	1672478720	50	4011
2026-01-12 13:12:20.88	87.32	30.43	-40.1	-41.0	20.8	0.00e+00	0	40	0	1691353088	50	4050
2026-01-12 13:12:24.22	86.30	30.75	-40.0	-40.9	20.8	0.00e+00	0	39	0	1716518912	50	3999
2026-01-12 13:12:26.97	85.44	31.00	-40.3	-41.2	20.6	0.00e+00	0	39	0	1735393280	50	4132
2026-01-12 13:12:30.28	84.39	31.30	-40.0	-41.0	20.9	0.00e+00	0	40	0	1759510528	50	4017
2026-01-12 13:12:32.98	83.52	31.53	-39.8	-40.7	21.1	0.00e+00	0	40	0	1779433472	50	3886
2026-01-12 13:12:36.27	82.44	31.82	-39.7	-40.6	21.2	0.00e+00	0	39	0	1802502144	50	3839
2026-01-12 13:12:39.06	81.51	32.05	-40.0	-41.0	20.9	0.00e+00	0	40	0	1823473664	50	4008
2026-01-12 13:12:42.52	80.34	32.32	-39.9	-40.8	21.0	0.00e+00	0	40	0	1848639488	50	3939
2026-01-12 13:12:45.22	79.41	32.53	-39.9	-40.8	21.0	0.00e+00	0	40	0	1867513856	50	3955
2026-01-12 13:12:48.51	78.26	32.78	-39.7	-40.6	21.2	0.00e+00	0	40	0	1890582528	50	3854
2026-01-12 13:12:51.22	77.30	32.97	-39.7	-40.6	21.2	0.00e+00	0	40	0	1910505472	49	4093
2026-01-12 13:12:54.58	76.10	33.20	-39.8	-40.7	21.1	0.00e+00	0	40	0	1934622720	49	4112
2026-01-12 13:12:57.28	75.12	33.37	-39.8	-40.6	21.2	0.00e+00	0	40	0	1954545664	49	4088
2026-01-12 13:13:00.64	73.89	33.57	-39.7	-40.6	21.2	0.00e+00	0	40	0	1978662912	49	4069
2026-01-12 13:13:03.47	72.84	33.73	-39.7	-40.6	21.2	0.00e+00	0	40	0	1999634432	49	4063
2026-01-12 13:13:06.76	71.61	33.91	-39.8	-40.7	21.2	0.00e+00	0	40	0	2022703104	49	4100
2026-01-12 13:13:09.49	70.58	34.04	-39.9	-40.8	21.0	0.00e+00	0	40	0	2042626048	49	4165
2026-01-12 13:13:12.76	69.33	34.19	-39.7	-40.6	21.2	0.00e+00	0	40	0	2065694720	49	4085
2026-01-12 13:13:15.47	68.29	34.30	-40.0	-40.9	21.0	0.00e+00	0	40	0	2085617664	49	4195
2026-01-12 13:13:18.74	67.02	34.42	-40.1	-41.0	20.9	0.00e+00	0	40	0	2109734912	49	4253
2026-01-12 13:13:21.46	65.96	34.51	-40.0	-40.9	20.9	0.00e+00	0	40	0	2128609280	49	4231
2026-01-12 13:13:24.73	64.68	34.60	-39.9	-40.7	21.1	0.00e+00	0	40	0	2152726528	49	4144
2026-01-12 13:13:27.43	63.62	34.66	-39.8	-40.7	21.2	0.00e+00	0	40	0	2172649472	49	4116
2026-01-12 13:13:30.70	62.33	34.72	-39.7	-40.6	21.2	0.00e+00	0	40	0	2195718144	49	4060
2026-01-12 13:13:33.41	61.26	34.76	-39.9	-40.8	21.0	0.00e+00	0	40	0	2215641088	49	4184
2026-01-12 13:13:36.71	59.95	34.79	-39.8	-40.7	21.1	0.00e+00	0	40	0	2239758336	49	4138
2026-01-12 13:13:39.42	58.87	34.80	-39.9	-40.8	21.1	0.00e+00	0	40	0	2258632704	49	4150
2026-01-12 13:13:42.70	57.56	34.80	-39.9	-40.7	21.1	0.00e+00	0	40	0	2282749952	49	4137
2026-01-12 13:13:45.40	56.49	34.79	-39.9	-40.7	21.1	0.00e+00	0	40	0	2301624320	49	4142
2026-01-12 13:13:48.62	55.21	34.76	-39.7	-40.6	21.2	0.00e+00	0	40	0	2325741568	49	4080
2026-01-12 13:13:51.72	53.99	34.71	-39.9	-40.8	21.1	0.00e+00	0	40	0	2347761664	49	4164
2026-01-12 13:13:54.94	52.72	34.65	-39.7	-40.5	21.3	0.00e+00	0	40	0	2370830336	49	4040
2026-01-12 13:13:57.82	51.58	34.58	-39.7	-40.6	21.2	0.00e+00	0	40	0	2391801856	49	4085
2026-01-12 13:14:00.94	50.36	34.49	-39.8	-40.7	21.1	0.00e+00	0	40	0	2413821952	49	4118
2026-01-12 13:14:03.78	49.26	34.40	-39.6	-40.5	21.3	0.00e+00	0	40	0	2434793472	49	4009
2026-01-12 13:14:06.97	48.03	34.28	-39.9	-40.8	21.1	0.00e+00	0	40	0	2457862144	49	4163
2026-01-12 13:14:09.86	46.92	34.16	-39.9	-40.8	21.0	0.00e+00	0	40	0	2478833664	49	4172
2026-01-12 13:14:13.10	45.69	34.01	-39.9	-40.8	21.1	0.00e+00	0	40	0	2501902336	49	4151
2026-01-12 13:14:16.34	44.47	33.85	-40.1	-41.0	20.9	0.00e+00	0	40	0	2524971008	49	4248
2026-01-12 13:14:19.18	43.41	33.70	-39.8	-40.7	21.1	0.00e+00	0	40	0	2545942528	49	4128
2026-01-12 13:14:22.30	42.26	33.52	-39.9	-40.8	21.0	0.00e+00	0	40	0	2567962624	49	4172
2026-01-12 13:14:25.19	41.20	33.34	-39.9	-40.8	21.1	0.00e+00	0	40	0	2588934144	49	4162
2026-01-12 13:14:28.66	39.95	33.11	-39.7	-40.6	21.2	0.00e+00	0	40	0	2614099968	49	4068
2026-01-12 13:14:31.38	38.99	32.93	-40.0	-40.9	21.0	0.00e+00	0	40	0	2634022912	49	4208
2026-01-12 13:14:34.67	37.83	32.69	-39.8	-40.6	21.1	0.00e+00	0	40	0	2658140160	49	4096
2026-01-12 13:14:37.41	36.88	32.49	-39.6	-40.4	21.3	0.00e+00	0	40	0	2677014528	49	3998
2026-01-12 13:14:40.70	35.76	32.23	-39.4	-40.3	21.4	0.00e+00	0	40	0	2701131776	49	3933
2026-01-12 13:14:43.55	34.80	32.00	-39.7	-40.5	21.2	0.00e+00	0	40	0	2721054720	49	4044
2026-01-12 13:14:46.71	33.75	31.74	-40.0	-40.9	20.9	0.00e+00	0	40	0	2745171968	49	4236
2026-01-12 13:14:49.82	32.74	31.47	-40.1	-41.0	20.9	0.00e+00	0	40	0	2767192064	49	4273
2026-01-12 13:14:52.95	31.74	31.19	-40.1	-41.0	20.9	0.00e+00	0	40	0	2789212160	49	4263
2026-01-12 13:14:55.79	30.84	30.94	-40.0	-40.9	20.9	0.00e+00	0	40	0	2810183680	49	4205
2026-01-12 13:14:58.92	29.87	30.65	-40.4	-41.3	20.6	0.00e+00	0	40	0	2833252352	50	4174
2026-01-12 13:15:01.76	29.01	30.38	-40.4	-41.3	20.6	0.00e+00	0	40	0	2853175296	50	4172
2026-01-12 13:15:05.07	28.02	30.06	-40.2	-41.1	20.8	0.00e+00	0	40	0	2877292544	50	4066
2026-01-12 13:15:07.97	27.17	29.78	-40.1	-41.0	20.8	0.00e+00	0	40	0	2898264064	50	4049
2026-01-12 13:15:11.09	26.27	29.47	-40.2	-41.1	20.8	0.00e+00	0	40	0	2920284160	50	4077
2026-01-12 13:15:14.00	25.45	29.18	-40.3	-41.2	20.7	0.00e+00	0	40	0	2941255680	50	4116
2026-01-12 13:15:16.98	24.63	28.87	-40.1	-41.0	20.8	0.00e+00	0	40	0	2963275776	50	4024
2026-01-12 13:15:19.96	23.82	28.57	-39.9	-40.8	21.0	0.00e+00	0	40	0	2984247296	50	3943
2026-01-12 13:15:22.97	23.01	28.26	-40.3	-41.2	20.7	0.00e+00	0	40	0	3006267392	50	4120
2026-01-12 13:15:25.95	22.23	27.94	-40.3	-41.2	20.6	0.00e+00	0	40	0	3027238912	50	4128
2026-01-12 13:15:28.93	21.47	27.63	-40.2	-41.2	20.7	0.00e+00	0	40	0	3049259008	50	4102
2026-01-12 13:15:31.91	20.72	27.31	-40.4	-41.4	20.5	0.00e+00	0	40	0	3071279104	50	4203
2026-01-12 13:15:34.90	19.99	26.99	-40.4	-41.3	20.6	0.00e+00	0	40	0	3092250624	50	4176
2026-01-12 13:15:37.95	19.25	26.67	-40.3	-41.2	20.6	0.00e+00	0	40	0	3114270720	50	4144
2026-01-12 13:15:40.83	18.57	26.36	-40.4	-41.3	20.6	0.00e+00	0	40	0	3135242240	50	4173
2026-01-12 13:15:43.96	17.84	26.02	-40.5	-41.4	20.5	0.00e+00	0	40	0	3157262336	50	4221
2026-01-12 13:15:46.80	17.20	25.72	-40.6	-41.5	20.3	0.00e+00	0	40	0	3178233856	50	4288
2026-01-12 13:15:49.93	16.50	25.38	-40.6	-41.5	20.3	0.00e+00	0	40	0	3201302528	50	4277
2026-01-12 13:15:52.77	15.89	25.07	-40.4	-41.3	20.5	0.00e+00	0	40	0	3221225472	50	4158
2026-01-12 13:15:56.12	15.17	24.71	-40.5	-41.4	20.5	0.00e+00	0	40	0	3245342720	50	4224
2026-01-12 13:15:59.30	14.51	24.36	-40.7	-41.6	20.3	0.00e+00	0	40	0	3268411392	50	4324
2026-01-12 13:16:02.15	13.93	24.06	-40.7	-41.6	20.2	0.00e+00	0	40	0	3289382912	50	4324
2026-01-12 13:16:05.27	13.31	23.72	-40.8	-41.8	20.1	0.00e+00	0	40	0	3311403008	51	4153
2026-01-12 13:16:08.19	12.74	23.41	-40.8	-41.8	20.1	0.00e+00	0	40	0	3332374528	51	4146
2026-01-12 13:16:11.38	12.13	23.07	-40.7	-41.6	20.2	0.00e+00	0	40	0	3355443200	51	4090
2026-01-12 13:16:14.35	11.57	22.75	-40.7	-41.6	20.3	0.00e+00	0	40	0	3377463296	51	4079
2026-01-12 13:16:17.71	10.95	22.39	-40.9	-41.8	20.1	0.00e+00	0	40	0	3401580544	51	4170
2026-01-12 13:16:20.43	10.47	22.10	-41.0	-41.9	20.0	0.00e+00	0	40	0	3421503488	51	4232
2026-01-12 13:16:23.70	9.89	21.76	-41.0	-41.9	19.9	0.00e+00	0	40	0	3444572160	51	4228
2026-01-12 13:16:26.53	9.40	21.46	-40.9	-41.9	20.0	0.00e+00	0	40	0	3465543680	51	4222
2026-01-12 13:16:29.65	8.88	21.13	-41.3	-42.2	19.5	0.00e+00	0	40	0	3487563776	52	4143
2026-01-12 13:16:32.50	8.41	20.83	-41.3	-42.3	19.5	0.00e+00	0	40	0	3508535296	52	4188
2026-01-12 13:16:35.69	7.89	20.50	-41.2	-42.2	19.6	0.00e+00	0	40	0	3531603968	52	4120
2026-01-12 13:16:38.53	7.44	20.21	-41.0	-42.1	19.7	0.00e+00	0	40	0	3551526912	52	4079
2026-01-12 13:16:41.66	6.96	19.89	-41.2	-42.3	19.5	0.00e+00	0	40	0	3574595584	52	4171
2026-01-12 13:16:44.50	6.52	19.60	-41.4	-42.5	19.4	0.00e+00	0	40	0	3594518528	52	4260
2026-01-12 13:16:47.63	6.06	19.28	-41.7	-42.8	19.1	0.00e+00	0	40	0	3617587200	52	4417
2026-01-12 13:16:50.99	5.57	18.95	-41.7	-42.8	19.0	0.00e+00	0	40	0	3641704448	53	4159
2026-01-12 13:16:53.83	5.16	18.66	-41.6	-42.6	19.2	0.00e+00	0	40	0	3661627392	53	4085
2026-01-12 13:16:56.96	4.73	18.35	-41.5	-42.6	19.3	0.00e+00	0	40	0	3684696064	53	4062
2026-01-12 13:16:59.80	4.34	18.07	-41.8	-42.8	19.0	0.00e+00	0	40	0	3704619008	53	4192
2026-01-12 13:17:03.10	3.89	17.75	-42.1	-43.2	18.7	0.00e+00	0	40	0	3728736256	53	4346
2026-01-12 13:17:05.94	3.52	17.47	-42.1	-43.2	18.7	0.00e+00	0	40	0	3749707776	53	4341
2026-01-12 13:17:09.07	3.11	17.17	-42.0	-43.1	18.7	0.00e+00	0	40	0	3771727872	53	4307
2026-01-12 13:17:11.91	2.75	16.90	-41.9	-43.1	18.8	0.00e+00	0	40	0	3792699392	53	4299
2026-01-12 13:17:15.04	2.37	16.60	-42.1	-43.2	18.6	0.00e+00	0	41	0	3814719488	53	4364
2026-01-12 13:17:17.96	2.01	16.32	-41.8	-42.9	18.9	0.00e+00	0	40	0	3835691008	53	4211
2026-01-12 13:17:21.09	1.64	16.03	-41.8	-42.9	18.8	0.00e+00	0	40	0	3858759680	53	4240
2026-01-12 13:17:24.01	1.29	15.76	-42.0	-43.2	18.6	0.00e+00	0	40	0	3879731200	53	4364
2026-01-12 13:17:26.99	0.95	15.48	-42.3	-43.4	18.4	0.00e+00	0	40	0	3901751296	54	4235
2026-01-12 13:17:29.96	0.62	15.21	-42.5	-43.7	18.1	0.00e+00	0	40	0	3922722816	54	4356
2026-01-12 13:17:32.96	0.29	14.94	-42.6	-43.8	18.0	0.00e+00	0	40	0	3944742912	54	4421
2026-01-12 13:17:35.95	359.96	14.67	-42.7	-43.9	17.9	0.00e+00	0	40	0	3966763008	54	4482
2026-01-12 13:17:38.93	359.64	14.40	-42.7	-43.9	17.9	0.00e+00	0	40	0	3987734528	54	4487
2026-01-12 13:17:41.92	359.33	14.13	-42.9	-44.1	17.8	0.00e+00	0	40	0	4009754624	55	4296
2026-01-12 13:17:44.90	359.02	13.87	-43.0	-44.2	17.7	0.00e+00	0	40	0	4030726144	55	4346
2026-01-12 13:17:47.96	358.71	13.60	-42.8	-44.0	17.8	0.00e+00	0	41	0	4052746240	55	4260
2026-01-12 13:17:50.80	358.43	13.36	-42.7	-43.8	18.0	0.00e+00	0	40	0	4073717760	55	4183
2026-01-12 13:17:53.93	358.13	13.09	-42.7	-43.9	17.9	0.00e+00	0	40	0	4095737856	55	4213
2026-01-12 13:17:56.77	357.86	12.84	-42.7	-43.9	17.9	0.00e+00	0	40	0	4116709376	55	4224
2026-01-12 13:17:59.90	357.56	12.58	-42.8	-44.2	17.6	0.00e+00	0	40	0	4139778048	55	4374
2026-01-12 13:18:02.84	357.29	12.33	-43.0	-44.6	17.2	0.00e+00	0	41	0	4159700992	55	4562
2026-01-12 13:18:05.97	357.01	12.07	-43.2	-45.0	16.8	0.00e+00	0	40	0	4182769664	55	4762
2026-01-12 13:18:08.81	356.76	11.83	-43.4	-45.5	16.5	0.00e+00	0	41	0	4203741184	56	4769
2026-01-12 13:18:11.93	356.48	11.58	-43.5	-45.5	16.4	0.00e+00	0	40	0	4225761280	56	4802
2026-01-12 13:18:14.78	356.24	11.34	-43.5	-45.3	16.7	0.00e+00	0	41	0	4246732800	56	4667
2026-01-12 13:18:17.91	355.98	11.09	-43.7	-45.2	16.7	0.00e+00	0	41	0	4268752896	57	4370
2026-01-12 13:18:20.75	355.74	10.86	-43.6	-45.1	16.8	0.00e+00	0	40	0	4289724416	57	4327
2026-01-12 13:18:23.88	355.49	10.61	-43.4	-45.1	16.8	0.00e+00	0	41	0	4311744512	57	4304
2026-01-12 13:18:26.71	355.26	10.39	-43.4	-45.1	16.8	0.00e+00	0	40	0	4332716032	57	4330
2026-01-12 13:18:29.92	355.01	10.13	-43.5	-45.2	16.6	0.00e+00	0	40	0	4355784704	57	4385
2026-01-12 13:18:32.82	354.78	9.91	-43.3	-45.1	16.8	0.00e+00	0	40	0	4376756224	57	4320
2026-01-12 13:18:36.09	354.53	9.65	-43.3	-45.3	16.6	0.00e+00	0	40	0	4399824896	57	4409
2026-01-12 13:18:39.00	354.31	9.43	-43.4	-45.4	16.5	0.00e+00	0	41	0	4421844992	57	4454
2026-01-12 13:18:42.12	354.08	9.19	-43.8	-45.7	16.1	0.00e+00	0	40	0	4443865088	57	4649
2026-01-12 13:18:45.02	353.87	8.97	-50.2	-62.3	3.8	4.13e-01	0	41	104	4463788032	69	15695
2026-01-12 13:18:48.00	353.66	8.75	-52.2	-63.4	3.8	8.46e-01	0	41	104	4463788032	74	13336
2026-01-12 13:18:50.98	353.45	8.52	-52.7	-63.6	3.8	8.47e-01	0	41	104	4463788032	74	13714
2026-01-12 13:18:53.96	353.25	8.30	-52.7	-63.8	3.8	8.47e-01	0	41	104	4463788032	75	13114
2026-01-12 13:18:56.94	353.04	8.08	-52.7	-63.8	3.8	8.46e-01	0	41	104	4463788032	75	13201
2026-01-12 13:18:59.92	352.85	7.87	-52.9	-63.8	3.8	8.47e-01	0	41	104	4463788032	75	13139
2026-01-12 13:19:02.90	352.65	7.65	-52.9	-63.9	3.8	8.47e-01	0	41	104	4463788032	75	13289
2026-01-12 13:19:05.88	352.46	7.43	-52.9	-63.8	3.8	8.47e-01	0	41	104	4463788032	75	13214
2026-01-12 13:19:08.86	352.27	7.22	-53.1	-63.8	3.8	8.46e-01	0	41	104	4463788032	75	13171
2026-01-12 13:19:11.84	352.08	7.01	-53.1	-63.8	3.8	8.46e-01	0	41	104	4463788032	75	13155
2026-01-12 13:19:14.82	351.90	6.80	-52.9	-63.8	3.8	8.46e-01	0	41	104	4463788032	75	13114
2026-01-12 13:19:17.80	351.71	6.59	-52.9	-63.8	3.8	8.46e-01	0	41	104	4463788032	75	13136
2026-01-12 13:19:20.78	351.53	6.38	-52.9	-63.7	3.8	8.45e-01	0	41	104	4463788032	75	13088
2026-01-12 13:19:23.76	351.36	6.17	-52.9	-63.8	3.8	8.47e-01	0	40	104	4463788032	75	13163
2026-01-12 13:19:26.74	351.19	5.97	-52.9	-63.8	3.8	8.47e-01	0	41	104	4463788032	75	13129
2026-01-12 13:19:29.72	351.01	5.77	-52.9	-63.7	3.8	8.46e-01	0	41	104	4463788032	75	13063
2026-01-12 13:19:32.70	350.85	5.56	-52.9	-63.8	3.8	8.46e-01	0	41	104	4463788032	75	13120
2026-01-12 13:19:35.68	350.68	5.36	-52.9	-63.8	3.8	8.47e-01	0	41	104	4463788032	75	13148
2026-01-12 13:19:38.66	350.52	5.16	-52.9	-63.7	3.8	8.47e-01	0	41	104	4463788032	75	13037
2026-01-12 13:19:41.64	350.36	4.96	-52.9	-63.8	3.8	8.47e-01	0	41	104	4463788032	75	13172

#Closed at: 2026-01-12 13:19:42
#Recorded file [4463 MB]: D:/Data/31040_260112_160742.dat