passes_logs/2026/01/12/T1/T1__20260112_102204_SUOMI_NPP_rec.log

#Pass ID: 20260112_102204_SUOMI NPP
#Satellite: SUOMI NPP
#Configuration: NPP
#almurnet v.1.7.20251203
#Start time: 2026-01-12 10:22:04

#Version: 2.0.20230620
#Station: T1
#Location: 37.570604 lon 55.790049 lat
#TLE: 1 37849U 11061A   26011.93213985  .00000107  00000+0  71660-4 0  9991
#TLE: 2 37849  98.7807 314.0072 0002512  68.9429 291.2016 14.19524668736279

#Time	Az	El	Level	Level2	SNR	BER	BlckErr	Temp	State	Recorded	gain1	gain2
2026-01-12 10:22:04.28	171.81	4.97	-51.1	-66.7	3.8	1.49e+00	0	41	0	0	74	20828
2026-01-12 10:22:08.26	171.89	5.25	-49.4	-65.9	3.8	1.49e+00	0	41	104	0	69	25349
2026-01-12 10:22:12.25	171.98	5.54	-49.4	-65.2	3.8	1.49e+00	0	41	104	0	69	23435
2026-01-12 10:22:16.23	172.08	5.83	-49.4	-64.6	3.8	1.49e+00	0	42	104	0	69	21826
2026-01-12 10:22:20.22	172.17	6.13	-49.4	-64.8	3.8	1.49e+00	0	41	104	0	69	22347
2026-01-12 10:22:24.21	172.26	6.42	-49.5	-65.8	3.8	1.49e+00	0	42	104	0	69	25029
2026-01-12 10:22:28.19	172.36	6.72	-49.6	-65.9	3.8	1.49e+00	0	42	104	0	69	25395
2026-01-12 10:22:32.18	172.46	7.03	-49.3	-62.9	4.2	1.47e+00	0	42	0	0	69	18011
2026-01-12 10:22:36.16	172.56	7.34	-48.9	-58.1	7.0	2.69e-01	0	42	0	6291456	69	10313
2026-01-12 10:22:40.15	172.66	7.65	-48.1	-54.4	10.7	3.22e-03	0	42	0	13631488	68	7202
2026-01-12 10:22:44.13	172.76	7.96	-47.2	-52.5	12.6	1.36e-04	0	42	0	20971520	66	6457
2026-01-12 10:22:48.12	172.87	8.28	-47.7	-53.3	11.8	3.68e-04	0	42	0	28311552	66	7111
2026-01-12 10:22:52.10	172.98	8.61	-48.7	-57.0	8.1	3.87e-02	0	42	0	35651584	67	10229
2026-01-12 10:22:56.08	173.09	8.93	-49.7	-64.6	3.9	1.46e+00	0	43	104	41943040	70	20684
2026-01-12 10:23:00.08	173.20	9.27	-48.9	-65.6	3.8	1.49e+00	0	43	104	41943040	69	24566
2026-01-12 10:23:04.09	173.31	9.60	-47.6	-53.8	11.6	1.02e-03	0	43	0	44040192	66	7495
2026-01-12 10:23:08.09	173.43	9.95	-48.1	-53.7	11.7	2.91e-04	0	43	0	51380224	66	7388
2026-01-12 10:23:12.09	173.55	10.29	-48.1	-53.1	12.4	6.63e-05	0	43	0	58720256	67	6534
2026-01-12 10:23:16.10	173.67	10.65	-47.0	-51.2	14.3	7.00e-07	0	43	0	67108864	66	5559
2026-01-12 10:23:20.10	173.80	11.00	-46.6	-50.7	14.8	0.00e+00	0	43	0	74448896	65	5570
2026-01-12 10:23:24.10	173.93	11.36	-46.4	-50.5	15.0	0.00e+00	0	43	0	81788928	64	5785
2026-01-12 10:23:28.11	174.06	11.73	-46.4	-50.4	15.1	0.00e+00	0	43	0	89128960	64	5681
2026-01-12 10:23:32.11	174.19	12.11	-46.6	-50.3	15.3	0.00e+00	0	43	0	96468992	64	5595
2026-01-12 10:23:36.12	174.33	12.48	-46.7	-50.0	15.5	0.00e+00	0	43	0	103809024	64	5461
2026-01-12 10:23:40.12	174.47	12.87	-46.6	-49.9	15.7	0.00e+00	0	43	0	112197632	64	5371
2026-01-12 10:23:44.12	174.62	13.26	-46.5	-49.8	15.7	0.00e+00	0	43	0	119537664	64	5314
2026-01-12 10:23:48.12	174.76	13.66	-46.4	-49.7	15.9	0.00e+00	0	43	0	126877696	64	5228
2026-01-12 10:23:52.12	174.92	14.06	-46.3	-49.5	16.0	7.00e-07	0	43	0	134217728	64	5146
2026-01-12 10:23:56.12	175.07	14.47	-46.5	-49.6	16.0	0.00e+00	0	43	0	141557760	64	5201
2026-01-12 10:24:00.13	175.23	14.89	-46.4	-49.5	16.1	0.00e+00	0	43	0	148897792	64	5135
2026-01-12 10:24:04.13	175.39	15.31	-46.7	-49.9	15.7	0.00e+00	0	43	0	156237824	64	5352
2026-01-12 10:24:08.13	175.56	15.74	-47.0	-50.2	15.4	0.00e+00	0	43	0	164626432	64	5578
2026-01-12 10:24:12.14	175.73	16.18	-46.9	-50.2	15.4	0.00e+00	0	43	0	171966464	64	5589
2026-01-12 10:24:16.14	175.91	16.63	-47.1	-50.5	15.1	0.00e+00	0	43	0	179306496	65	5456
2026-01-12 10:24:20.14	176.09	17.08	-47.4	-50.9	14.8	0.00e+00	0	43	0	186646528	65	5702
2026-01-12 10:24:24.16	176.28	17.54	-47.7	-51.3	14.5	0.00e+00	0	43	0	193986560	66	5593
2026-01-12 10:24:28.17	176.48	18.02	-47.7	-51.3	14.4	1.50e-06	0	43	0	201326592	66	5653
2026-01-12 10:24:32.18	176.68	18.50	-47.8	-51.3	14.4	7.00e-07	0	43	0	209715200	66	5647
2026-01-12 10:24:36.18	176.88	18.99	-47.8	-51.4	14.3	7.00e-07	0	43	0	217055232	66	5700
2026-01-12 10:24:40.18	177.09	19.49	-47.7	-51.2	14.6	0.00e+00	0	43	0	224395264	66	5573
2026-01-12 10:24:44.18	177.31	20.00	-47.6	-51.1	14.7	7.00e-07	0	43	0	231735296	66	5468
2026-01-12 10:24:48.19	177.53	20.52	-47.5	-50.9	14.9	0.00e+00	0	43	0	239075328	66	5391
2026-01-12 10:24:52.19	177.77	21.05	-47.7	-51.4	14.4	7.00e-07	0	43	0	246415360	66	5676
2026-01-12 10:24:56.20	178.01	21.59	-47.9	-51.6	14.2	1.50e-06	0	44	0	254803968	66	5842
2026-01-12 10:25:00.21	178.26	22.14	-47.7	-51.4	14.4	0.00e+00	0	44	0	262144000	66	5719
2026-01-12 10:25:04.22	178.51	22.71	-47.4	-50.9	14.9	0.00e+00	0	43	0	269484032	66	5363
2026-01-12 10:25:08.22	178.78	23.28	-47.2	-50.4	15.4	0.00e+00	0	43	0	276824064	66	5098
2026-01-12 10:25:12.23	179.05	23.87	-46.6	-49.6	16.2	0.00e+00	0	44	0	284164096	65	4889
2026-01-12 10:25:16.23	179.34	24.48	-46.4	-49.2	16.6	0.00e+00	0	44	0	291504128	64	4974
2026-01-12 10:25:20.23	179.64	25.09	-46.5	-49.4	16.4	0.00e+00	0	43	0	299892736	64	5070
2026-01-12 10:25:24.23	179.94	25.72	-46.4	-49.3	16.4	0.00e+00	0	44	0	307232768	64	5017
2026-01-12 10:25:28.24	180.26	26.36	-46.4	-49.2	16.5	0.00e+00	0	44	0	314572800	64	4981
2026-01-12 10:25:32.24	180.60	27.02	-47.0	-50.1	15.7	0.00e+00	0	43	0	321912832	64	5477
2026-01-12 10:25:36.25	180.94	27.70	-46.8	-49.8	16.0	0.00e+00	0	44	0	329252864	64	5301
2026-01-12 10:25:40.26	181.30	28.39	-46.5	-49.4	16.4	0.00e+00	0	44	0	336592896	64	5090
2026-01-12 10:25:44.27	181.68	29.10	-46.4	-49.2	16.6	0.00e+00	0	43	0	344981504	64	4953
2026-01-12 10:25:48.28	182.07	29.82	-46.6	-49.5	16.4	0.00e+00	0	44	0	352321536	64	5117
2026-01-12 10:25:52.29	182.49	30.56	-47.2	-50.2	15.6	0.00e+00	0	43	0	359661568	65	5267
2026-01-12 10:25:56.29	182.91	31.32	-48.3	-51.9	14.0	7.00e-07	0	44	0	367001600	67	5721
2026-01-12 10:26:00.30	183.36	32.10	-48.7	-52.6	13.5	4.50e-06	0	44	0	374341632	68	5839
2026-01-12 10:26:04.32	183.84	32.90	-48.7	-52.5	13.6	9.90e-06	0	43	0	381681664	68	5765
2026-01-12 10:26:08.32	184.33	33.71	-48.8	-52.8	13.4	3.00e-06	0	43	0	390070272	68	5945
2026-01-12 10:26:12.32	184.85	34.54	-48.9	-52.8	13.3	1.29e-05	0	44	0	397410304	68	5964
2026-01-12 10:26:16.33	185.39	35.40	-48.5	-52.2	14.0	1.50e-06	0	44	0	404750336	68	5532
2026-01-12 10:26:20.33	185.97	36.27	-48.6	-52.4	13.8	3.00e-06	0	44	0	412090368	68	5693
2026-01-12 10:26:24.34	186.57	37.17	-49.1	-53.3	12.9	2.74e-05	0	44	0	419430400	68	6279
2026-01-12 10:26:28.35	187.21	38.09	-49.7	-54.5	11.8	7.54e-04	0	44	0	426770432	70	6448
2026-01-12 10:26:32.35	187.89	39.03	-49.0	-52.9	13.2	4.80e-05	0	44	0	435159040	70	5373
2026-01-12 10:26:36.35	188.61	39.99	-49.7	-54.3	11.9	3.63e-04	0	44	0	442499072	70	6294
2026-01-12 10:26:40.36	189.37	40.98	-49.7	-54.3	11.9	5.80e-04	0	44	0	449839104	70	6282
2026-01-12 10:26:44.36	190.17	41.98	-50.0	-54.9	11.2	1.28e-03	0	44	0	457179136	70	6773
2026-01-12 10:26:48.37	191.03	43.01	-49.4	-54.0	12.2	2.30e-04	0	44	0	464519168	70	6066
2026-01-12 10:26:52.38	191.94	44.05	-47.8	-51.1	15.0	0.00e+00	0	44	0	471859200	67	5176
2026-01-12 10:26:56.38	192.92	45.12	-48.3	-51.9	14.1	1.50e-06	0	44	0	480247808	67	5687
2026-01-12 10:27:00.39	193.96	46.21	-49.0	-53.0	13.1	2.13e-05	0	43	0	487587840	69	5764
2026-01-12 10:27:04.39	195.08	47.31	-49.2	-53.3	12.9	1.07e-04	0	44	0	494927872	69	5955
2026-01-12 10:27:08.40	196.28	48.44	-48.2	-51.6	14.5	3.80e-06	0	44	0	502267904	68	5193
2026-01-12 10:27:12.40	197.56	49.57	-47.8	-51.2	14.8	0.00e+00	0	44	0	509607936	66	5546
2026-01-12 10:27:16.41	198.95	50.73	-46.6	-49.5	16.5	0.00e+00	0	44	0	516947968	65	4853
2026-01-12 10:27:20.42	200.45	51.89	-46.6	-49.3	16.7	0.00e+00	0	43	0	524288000	63	5321
2026-01-12 10:27:24.42	202.07	53.05	-44.8	-47.0	18.8	0.00e+00	0	44	0	532676608	61	4590
2026-01-12 10:27:28.42	203.81	54.22	-44.2	-46.4	19.2	0.00e+00	0	44	0	540016640	59	4793
2026-01-12 10:27:32.42	205.71	55.39	-44.7	-47.0	18.8	0.00e+00	0	44	0	547356672	60	4862
2026-01-12 10:27:36.43	207.77	56.55	-46.0	-48.6	17.4	0.00e+00	0	44	0	554696704	62	5179
2026-01-12 10:27:40.44	210.01	57.70	-45.3	-47.7	18.2	0.00e+00	0	44	0	562036736	61	4950
2026-01-12 10:27:44.44	212.43	58.82	-45.8	-48.3	17.7	0.00e+00	0	44	0	569376768	62	5021
2026-01-12 10:27:48.44	215.07	59.91	-46.9	-49.8	16.2	0.00e+00	0	44	0	577765376	64	5302
2026-01-12 10:27:52.45	217.95	60.96	-46.7	-49.5	16.4	0.00e+00	0	44	0	585105408	64	5130
2026-01-12 10:27:56.44	221.05	61.96	-46.0	-48.6	17.3	0.00e+00	0	44	0	592445440	64	4650
2026-01-12 10:28:00.44	224.41	62.90	-47.2	-50.2	15.9	0.00e+00	0	43	0	599785472	65	5230
2026-01-12 10:28:04.44	228.03	63.76	-45.9	-48.4	17.7	0.00e+00	0	44	0	607125504	63	4806
2026-01-12 10:28:08.44	231.91	64.53	-44.6	-46.8	19.0	0.00e+00	0	44	0	614465536	61	4491
2026-01-12 10:28:12.45	236.05	65.19	-47.8	-51.1	15.0	0.00e+00	0	44	0	622854144	66	5505
2026-01-12 10:28:16.45	240.42	65.74	-46.5	-49.3	16.7	0.00e+00	0	44	0	630194176	65	4717
2026-01-12 10:28:20.45	244.97	66.16	-46.9	-49.8	16.3	0.00e+00	0	44	0	637534208	64	5313
2026-01-12 10:28:24.46	249.69	66.44	-47.2	-50.1	15.8	0.00e+00	0	43	0	644874240	65	5210
2026-01-12 10:28:28.47	254.50	66.58	-46.4	-49.0	16.9	0.00e+00	0	44	0	652214272	64	4869
2026-01-12 10:28:32.46	259.32	66.56	-47.3	-50.5	15.5	0.00e+00	0	44	0	659554304	65	5433
2026-01-12 10:28:36.46	264.10	66.40	-45.7	-48.2	17.8	0.00e+00	0	44	0	666894336	63	4685
2026-01-12 10:28:40.46	268.78	66.09	-46.3	-49.0	16.9	0.00e+00	0	44	0	675282944	64	4832
2026-01-12 10:28:44.45	273.28	65.64	-46.5	-49.2	16.9	0.00e+00	0	44	0	682622976	63	5222
2026-01-12 10:28:48.46	277.61	65.07	-47.3	-50.4	15.7	0.00e+00	0	44	0	689963008	65	5378
2026-01-12 10:28:52.47	281.70	64.38	-46.0	-48.6	17.4	0.00e+00	0	44	0	697303040	64	4636
2026-01-12 10:28:56.47	285.52	63.59	-46.6	-49.4	16.8	0.00e+00	0	44	0	704643072	63	5349
2026-01-12 10:29:00.47	289.08	62.71	-45.2	-47.6	18.3	0.00e+00	0	44	0	711983104	62	4639
2026-01-12 10:29:04.48	292.39	61.76	-43.7	-45.8	19.8	0.00e+00	0	44	0	720371712	59	4488
2026-01-12 10:29:08.48	295.44	60.75	-45.2	-47.5	18.4	0.00e+00	0	44	0	727711744	61	4859
2026-01-12 10:29:12.49	298.26	59.69	-44.1	-46.3	19.4	0.00e+00	0	44	0	735051776	59	4706
2026-01-12 10:29:16.49	300.85	58.60	-44.2	-46.4	19.4	0.00e+00	0	44	0	742391808	60	4496
2026-01-12 10:29:20.50	303.24	57.47	-44.3	-46.6	19.3	0.00e+00	0	44	0	749731840	60	4607
2026-01-12 10:29:24.50	305.43	56.33	-44.3	-47.0	18.5	0.00e+00	0	44	0	757071872	60	4826
2026-01-12 10:29:28.50	307.45	55.17	-40.7	-45.9	15.9	0.00e+00	0	44	0	765460480	52	6761
2026-01-12 10:29:32.50	309.31	54.01	-45.9	-48.4	17.6	0.00e+00	0	44	0	772800512	62	5099
2026-01-12 10:29:36.51	311.03	52.84	-46.9	-50.1	15.9	0.00e+00	0	44	0	780140544	64	5474
2026-01-12 10:29:40.51	312.61	51.68	-46.1	-48.8	17.1	0.00e+00	0	44	0	787480576	64	4749
2026-01-12 10:29:44.52	314.09	50.53	-46.4	-49.2	16.9	0.00e+00	0	44	0	794820608	63	5273
2026-01-12 10:29:48.52	315.45	49.39	-46.2	-48.9	17.0	0.00e+00	0	44	0	802160640	64	4809
2026-01-12 10:29:52.52	316.72	48.26	-46.3	-49.2	16.8	0.00e+00	0	44	0	809500672	64	4949
2026-01-12 10:29:56.52	317.89	47.14	-48.3	-51.9	14.2	0.00e+00	0	44	0	817889280	67	5695
2026-01-12 10:30:00.52	318.99	46.05	-48.1	-51.5	14.7	0.00e+00	0	44	0	825229312	68	5155
2026-01-12 10:30:04.53	320.02	44.97	-47.3	-50.6	15.5	0.00e+00	0	44	0	832569344	66	5170
2026-01-12 10:30:08.54	320.99	43.91	-47.1	-50.2	15.9	0.00e+00	0	44	0	839909376	66	4966
2026-01-12 10:30:12.55	321.89	42.87	-49.0	-53.1	13.1	1.52e-05	0	44	0	847249408	68	6181
2026-01-12 10:30:16.55	322.73	41.85	-45.6	-48.1	17.8	0.00e+00	0	44	0	854589440	63	4625
2026-01-12 10:30:20.54	323.53	40.86	-47.4	-50.6	15.5	0.00e+00	0	44	0	862978048	65	5493
2026-01-12 10:30:24.54	324.28	39.89	-48.2	-51.9	14.1	0.00e+00	0	44	0	870318080	67	5687
2026-01-12 10:30:28.54	324.98	38.94	-45.8	-48.3	17.7	0.00e+00	0	44	0	877658112	63	4730
2026-01-12 10:30:32.55	325.65	38.01	-48.2	-52.3	13.7	3.00e-06	0	44	0	884998144	67	5980
2026-01-12 10:30:36.56	326.29	37.09	-45.9	-48.8	17.2	0.00e+00	0	44	0	892338176	63	4992
2026-01-12 10:30:40.56	326.89	36.21	-47.2	-50.4	15.6	0.00e+00	0	44	0	899678208	64	5678
2026-01-12 10:30:44.56	327.46	35.34	-48.2	-52.0	14.2	3.80e-06	0	44	0	908066816	67	5735
2026-01-12 10:30:48.57	328.00	34.49	-46.2	-48.9	17.0	0.00e+00	0	44	0	915406848	64	4781
2026-01-12 10:30:52.58	328.51	33.66	-47.1	-50.1	15.8	0.00e+00	0	44	0	922746880	64	5516
2026-01-12 10:30:56.59	329.01	32.85	-47.7	-51.0	15.0	0.00e+00	0	44	0	930086912	66	5448
2026-01-12 10:31:00.59	329.47	32.07	-47.0	-50.1	15.9	0.00e+00	0	44	0	937426944	65	5160
2026-01-12 10:31:04.59	329.92	31.30	-48.0	-51.7	14.3	7.00e-07	0	44	0	944766976	67	5579
2026-01-12 10:31:08.60	330.35	30.55	-48.0	-51.9	14.1	2.20e-06	0	44	0	953155584	67	5698
2026-01-12 10:31:12.60	330.75	29.81	-47.6	-51.1	14.9	7.00e-07	0	44	0	960495616	66	5492
2026-01-12 10:31:16.61	331.15	29.09	-47.9	-51.5	14.4	1.50e-06	0	44	0	967835648	66	5780
2026-01-12 10:31:20.62	331.52	28.39	-47.9	-51.8	14.2	0.00e+00	0	44	0	975175680	67	5603
2026-01-12 10:31:24.61	331.88	27.71	-46.9	-50.3	15.6	0.00e+00	0	44	0	982515712	65	5329
2026-01-12 10:31:28.62	332.23	27.04	-46.4	-49.3	16.5	0.00e+00	0	44	0	989855744	64	5034
2026-01-12 10:31:32.61	332.56	26.39	-46.3	-49.3	16.6	0.00e+00	0	44	0	997195776	64	5016
2026-01-12 10:31:36.61	332.88	25.75	-47.0	-50.2	15.8	0.00e+00	0	44	0	1005584384	64	5541
2026-01-12 10:31:40.61	333.18	25.13	-47.1	-50.2	15.7	0.00e+00	0	44	0	1012924416	65	5267
2026-01-12 10:31:44.63	333.48	24.52	-46.9	-50.2	15.7	0.00e+00	0	44	0	1020264448	65	5248
2026-01-12 10:31:48.62	333.77	23.92	-46.8	-49.9	15.9	0.00e+00	0	44	0	1027604480	65	5083
2026-01-12 10:31:52.63	334.04	23.34	-46.0	-48.8	17.1	0.00e+00	0	44	0	1034944512	64	4708
2026-01-12 10:31:56.64	334.31	22.76	-44.8	-47.2	18.6	0.00e+00	0	44	0	1042284544	61	4674
2026-01-12 10:32:00.63	334.57	22.21	-44.6	-47.0	18.7	0.00e+00	0	44	0	1050673152	60	4841
2026-01-12 10:32:04.64	334.82	21.66	-45.2	-47.8	18.0	0.00e+00	0	44	0	1058013184	61	4994
2026-01-12 10:32:08.64	335.06	21.12	-45.6	-48.2	17.6	0.00e+00	0	44	0	1065353216	61	5237
2026-01-12 10:32:12.64	335.29	20.59	-45.4	-48.0	17.7	0.00e+00	0	44	0	1072693248	61	5156
2026-01-12 10:32:16.64	335.52	20.08	-45.1	-47.8	17.9	0.00e+00	0	44	0	1080033280	61	5002
2026-01-12 10:32:20.64	335.74	19.57	-45.2	-47.8	17.9	0.00e+00	0	44	0	1087373312	61	5010
2026-01-12 10:32:24.64	335.95	19.08	-45.5	-48.1	17.7	0.00e+00	0	44	0	1095761920	61	5189
2026-01-12 10:32:28.64	336.16	18.59	-45.9	-48.6	17.2	0.00e+00	0	44	0	1103101952	62	5201
2026-01-12 10:32:32.65	336.36	18.11	-46.1	-49.2	16.7	0.00e+00	0	44	0	1110441984	62	5533
2026-01-12 10:32:36.65	336.55	17.64	-46.3	-49.5	16.3	0.00e+00	0	44	0	1117782016	63	5427
2026-01-12 10:32:40.66	336.74	17.18	-46.6	-49.7	16.1	0.00e+00	0	44	0	1125122048	63	5589
2026-01-12 10:32:44.66	336.93	16.73	-46.4	-49.4	16.4	0.00e+00	0	44	0	1132462080	64	5050
2026-01-12 10:32:48.65	337.10	16.29	-46.1	-48.9	16.9	0.00e+00	0	44	0	1139802112	63	5078
2026-01-12 10:32:52.66	337.28	15.85	-45.7	-48.5	17.2	0.00e+00	0	44	0	1148190720	63	4840
2026-01-12 10:32:56.68	337.45	15.42	-45.7	-48.4	17.3	0.00e+00	0	44	0	1155530752	63	4775
2026-01-12 10:33:00.68	337.62	15.00	-45.9	-48.6	17.1	0.00e+00	0	44	0	1162870784	63	4912
2026-01-12 10:33:04.69	337.78	14.59	-45.9	-48.9	16.8	0.00e+00	0	44	0	1170210816	63	5050
2026-01-12 10:33:08.69	337.94	14.18	-46.2	-49.4	16.3	0.00e+00	0	44	0	1177550848	63	5381
2026-01-12 10:33:12.70	338.09	13.78	-46.2	-49.4	16.3	0.00e+00	0	44	0	1184890880	63	5354
2026-01-12 10:33:16.71	338.24	13.38	-46.7	-50.0	15.6	0.00e+00	0	44	0	1193279488	64	5452
2026-01-12 10:33:20.70	338.39	13.00	-46.7	-50.1	15.5	0.00e+00	0	44	0	1200619520	64	5512
2026-01-12 10:33:24.71	338.53	12.62	-46.9	-50.5	15.2	0.00e+00	0	44	0	1207959552	64	5742
2026-01-12 10:33:28.71	338.67	12.24	-47.4	-51.3	14.3	7.00e-07	0	44	0	1215299584	65	5982
2026-01-12 10:33:32.72	338.81	11.87	-47.6	-51.5	14.1	7.00e-07	0	44	0	1222639616	65	6109
2026-01-12 10:33:36.72	338.95	11.50	-47.7	-52.0	13.7	6.80e-06	0	44	0	1229979648	66	6062
2026-01-12 10:33:40.73	339.08	11.14	-47.5	-52.0	13.7	3.00e-06	0	44	0	1237319680	66	6068
2026-01-12 10:33:44.73	339.21	10.79	-47.5	-52.0	13.6	9.90e-06	0	44	0	1245708288	66	6063
2026-01-12 10:33:48.73	339.33	10.44	-47.4	-51.9	13.6	6.80e-06	0	44	0	1253048320	66	6051
2026-01-12 10:33:52.74	339.46	10.09	-47.3	-51.7	13.8	9.10e-06	0	44	0	1260388352	66	5884
2026-01-12 10:33:56.73	339.58	9.75	-47.0	-51.4	14.1	2.20e-06	0	44	0	1267728384	66	5658
2026-01-12 10:34:00.74	339.70	9.42	-46.8	-51.0	14.4	0.00e+00	0	44	0	1275068416	65	5774
2026-01-12 10:34:04.73	339.81	9.09	-46.7	-50.6	14.7	0.00e+00	0	44	0	1282408448	65	5527
2026-01-12 10:34:08.73	339.93	8.76	-52.0	-67.3	3.8	1.49e+00	0	44	104	1285554176	74	22377
2026-01-12 10:34:12.71	340.04	8.44	-51.7	-67.6	3.8	1.49e+00	0	44	104	1285554176	74	23067
2026-01-12 10:34:16.69	340.15	8.12	-52.4	-67.6	3.8	1.49e+00	0	44	104	1285554176	75	21996
2026-01-12 10:34:20.68	340.26	7.81	-52.2	-67.6	3.8	1.49e+00	0	44	104	1285554176	75	21961
2026-01-12 10:34:24.66	340.36	7.50	-52.4	-67.6	3.8	1.49e+00	0	44	104	1285554176	75	21969
2026-01-12 10:34:28.64	340.47	7.19	-52.4	-67.6	3.8	1.49e+00	0	44	104	1285554176	75	21811
2026-01-12 10:34:32.63	340.57	6.89	-52.4	-67.6	3.8	1.49e+00	0	44	104	1285554176	75	21820
2026-01-12 10:34:36.61	340.67	6.59	-52.4	-67.6	3.8	1.49e+00	0	44	104	1285554176	75	21898
2026-01-12 10:34:40.60	340.77	6.29	-52.3	-67.6	3.8	1.49e+00	0	44	104	1285554176	75	21871
2026-01-12 10:34:44.59	340.87	6.00	-52.3	-67.6	3.8	1.49e+00	0	44	104	1285554176	75	21899
2026-01-12 10:34:48.57	340.96	5.71	-52.3	-67.5	3.8	1.49e+00	0	44	104	1285554176	75	21712
2026-01-12 10:34:52.56	341.06	5.43	-52.3	-67.6	3.8	1.49e+00	0	44	104	1285554176	75	21775
2026-01-12 10:34:56.54	341.15	5.14	-52.4	-67.6	3.8	1.49e+00	0	44	104	1285554176	75	21761

#Closed at: 2026-01-12 10:34:59
#Recorded file [1285 MB]: D:/Data/31040_260112_132204.dat