passes_logs/2026/01/12/T1/T1__20260112_132019_AQUA_rec.log

#Pass ID: 20260112_132019_AQUA
#Satellite: AQUA
#Configuration: AQUA
#almurnet v.1.7.20251203
#Start time: 2026-01-12 13:20:19

#Version: 2.0.20230620
#Station: T1
#Location: 37.570604 lon 55.790049 lat
#TLE: 1 27424U 02022A   26011.93923927  .00001110  00000+0  23211-3 0  9993
#TLE: 2 27424  98.4078 338.3153 0002029  81.9924 314.0623 14.61816932260445

#Time	Az	El	Level	Level2	SNR	BER	BlckErr	Temp	State	Recorded	gain1	gain2
2026-01-12 13:20:19.35	221.00	4.99	-53.2	-73.5	3.8	7.43e-01	0	40	0	0	78	36454
2026-01-12 13:20:21.34	221.23	5.10	-53.1	-73.5	3.8	7.43e-01	0	40	104	0	76	40833
2026-01-12 13:20:23.32	221.46	5.21	-53.1	-73.5	3.8	7.45e-01	0	40	104	0	76	40826
2026-01-12 13:20:25.31	221.69	5.32	-53.1	-73.5	3.8	7.48e-01	0	40	104	0	76	40944
2026-01-12 13:20:27.30	221.93	5.44	-53.1	-73.5	3.8	7.46e-01	0	40	104	0	76	40841
2026-01-12 13:20:29.28	222.16	5.55	-53.1	-73.5	3.8	7.49e-01	0	40	104	0	76	40790
2026-01-12 13:20:31.27	222.40	5.66	-53.1	-73.5	3.8	7.43e-01	0	40	104	0	76	40706
2026-01-12 13:20:33.25	222.64	5.77	-53.1	-73.5	3.8	7.47e-01	0	40	104	0	76	40639
2026-01-12 13:20:35.24	222.88	5.89	-53.1	-73.4	3.8	7.46e-01	0	40	104	0	76	40343
2026-01-12 13:20:37.23	223.13	6.00	-53.1	-73.5	3.8	7.45e-01	0	40	104	0	76	40554
2026-01-12 13:20:39.21	223.37	6.11	-53.1	-73.5	3.8	7.46e-01	0	40	104	0	76	40513
2026-01-12 13:20:41.20	223.62	6.23	-53.1	-73.4	3.8	7.45e-01	0	40	104	0	76	40391
2026-01-12 13:20:43.19	223.87	6.34	-53.1	-73.5	3.8	7.45e-01	0	40	104	0	76	40538
2026-01-12 13:20:45.17	224.12	6.45	-53.1	-73.5	3.8	7.46e-01	0	40	104	0	76	40630
2026-01-12 13:20:47.16	224.37	6.57	-53.1	-73.4	3.8	7.45e-01	0	40	104	0	76	40479
2026-01-12 13:20:49.15	224.63	6.68	-53.1	-73.2	3.8	7.45e-01	0	40	104	0	76	39392
2026-01-12 13:20:51.13	224.89	6.80	-53.1	-73.0	3.8	7.46e-01	0	40	104	0	76	38247
2026-01-12 13:20:53.12	225.15	6.91	-53.1	-72.7	3.8	7.46e-01	0	40	104	0	76	37155
2026-01-12 13:20:55.10	225.41	7.02	-53.1	-72.5	3.8	7.47e-01	0	40	104	0	76	36430
2026-01-12 13:20:57.09	225.67	7.14	-53.1	-72.6	3.8	7.45e-01	0	40	104	0	76	36862
2026-01-12 13:20:59.08	225.94	7.25	-53.1	-73.2	3.8	7.49e-01	0	40	104	0	76	39410
2026-01-12 13:21:01.07	226.21	7.37	-53.1	-72.4	3.8	7.45e-01	0	40	104	0	76	35954
2026-01-12 13:21:03.05	226.48	7.48	-53.0	-71.1	3.8	7.45e-01	0	40	104	0	76	30902
2026-01-12 13:21:05.04	226.75	7.60	-53.1	-72.0	3.8	7.43e-01	0	40	104	0	76	34268
2026-01-12 13:21:07.02	227.03	7.71	-53.1	-72.9	3.8	7.47e-01	0	40	104	0	76	38192
2026-01-12 13:21:09.01	227.31	7.83	-53.0	-71.6	3.8	7.49e-01	0	40	104	0	76	32892
2026-01-12 13:21:11.00	227.59	7.94	-53.0	-70.2	4.1	7.35e-01	0	40	104	0	76	27790
2026-01-12 13:21:12.98	227.87	8.05	-53.0	-70.0	3.9	7.38e-01	0	40	104	0	76	27380
2026-01-12 13:21:14.97	228.16	8.17	-52.9	-68.6	4.0	7.37e-01	0	40	104	0	76	23248
2026-01-12 13:21:16.96	228.44	8.28	-53.0	-68.6	4.7	7.19e-01	0	40	104	0	76	23264
2026-01-12 13:21:18.94	228.73	8.40	-53.1	-72.1	3.9	7.44e-01	0	40	104	0	76	34691
2026-01-12 13:21:20.93	229.02	8.51	-51.9	-59.7	12.4	6.11e-01	0	40	0	2097152	75	8781
2026-01-12 13:21:22.92	229.32	8.63	-50.0	-54.7	17.5	6.08e-01	0	40	0	5767168	72	5874
2026-01-12 13:21:24.90	229.62	8.74	-49.2	-53.1	19.2	6.07e-01	0	40	0	9437184	70	5488
2026-01-12 13:21:26.89	229.92	8.86	-49.5	-53.7	18.6	6.07e-01	0	41	0	13107200	70	5901
2026-01-12 13:21:28.88	230.22	8.97	-50.6	-55.9	16.5	6.05e-01	0	40	0	16777216	71	7174
2026-01-12 13:21:30.87	230.52	9.09	-52.6	-62.8	9.7	6.30e-01	0	40	0	20971520	75	12638
2026-01-12 13:21:32.84	230.83	9.20	-52.0	-59.8	12.6	6.11e-01	0	41	0	24641536	74	9469
2026-01-12 13:21:34.83	231.14	9.31	-50.8	-56.0	16.6	6.06e-01	0	40	0	28311552	72	6866
2026-01-12 13:21:36.82	231.45	9.43	-50.0	-54.5	17.8	6.05e-01	0	40	0	31981568	72	5724
2026-01-12 13:21:38.81	231.76	9.54	-49.8	-53.9	18.5	6.07e-01	0	40	0	35651584	71	5691
2026-01-12 13:21:40.80	232.08	9.66	-49.7	-53.7	18.6	6.08e-01	0	41	0	39321600	71	5559
2026-01-12 13:21:42.79	232.40	9.77	-49.5	-53.4	18.9	6.05e-01	0	41	0	42991616	71	5399
2026-01-12 13:21:44.78	232.73	9.88	-49.3	-53.2	19.1	6.05e-01	0	40	0	46661632	70	5590
2026-01-12 13:21:46.77	233.05	10.00	-49.0	-52.7	19.6	6.07e-01	0	40	0	50331648	70	5249
2026-01-12 13:21:48.75	233.38	10.11	-48.9	-52.5	19.8	6.08e-01	0	41	0	54001664	69	5418
2026-01-12 13:21:50.74	233.71	10.22	-48.8	-52.3	20.0	6.06e-01	0	40	0	58195968	69	5326
2026-01-12 13:21:52.73	234.04	10.34	-48.9	-52.4	19.9	6.07e-01	0	40	0	61865984	69	5382
2026-01-12 13:21:54.72	234.38	10.45	-48.7	-52.0	20.3	6.08e-01	0	41	0	65536000	69	5144
2026-01-12 13:21:56.76	234.73	10.56	-48.5	-51.9	20.5	6.07e-01	0	40	0	69206016	69	5062
2026-01-12 13:21:58.83	235.08	10.68	-48.8	-52.3	20.1	6.08e-01	0	40	0	73400320	69	5317
2026-01-12 13:22:00.85	235.43	10.79	-48.7	-52.2	20.2	6.07e-01	0	40	0	77070336	69	5260
2026-01-12 13:22:02.84	235.78	10.90	-48.6	-52.0	20.3	6.08e-01	0	40	0	80740352	69	5148
2026-01-12 13:22:04.94	236.15	11.02	-48.6	-52.0	20.4	6.06e-01	0	41	0	84410368	69	5144
2026-01-12 13:22:06.93	236.50	11.13	-48.5	-52.0	20.4	6.09e-01	0	41	0	88080384	69	5103
2026-01-12 13:22:08.92	236.86	11.24	-48.5	-52.0	20.4	6.05e-01	0	41	0	92274688	69	5109
2026-01-12 13:22:11.00	237.23	11.36	-48.5	-51.9	20.5	6.07e-01	0	40	0	95944704	69	5043
2026-01-12 13:22:12.99	237.60	11.47	-48.6	-51.9	20.5	6.06e-01	0	40	0	99614720	68	5344
2026-01-12 13:22:14.98	237.96	11.58	-48.4	-51.7	20.7	6.08e-01	0	40	0	103284736	68	5268
2026-01-12 13:22:16.98	238.33	11.69	-48.6	-51.9	20.5	6.06e-01	0	40	0	106954752	68	5391
2026-01-12 13:22:18.96	238.70	11.79	-48.4	-51.7	20.7	6.06e-01	0	40	0	111149056	68	5245
2026-01-12 13:22:20.95	239.07	11.90	-48.5	-51.8	20.6	6.06e-01	0	40	0	114819072	68	5312
2026-01-12 13:22:22.94	239.45	12.01	-48.4	-51.6	20.8	6.10e-01	0	40	0	118489088	68	5217
2026-01-12 13:22:24.93	239.83	12.11	-48.4	-51.7	20.7	6.08e-01	0	40	0	122159104	68	5241
2026-01-12 13:22:26.92	240.21	12.22	-48.4	-51.7	20.7	6.07e-01	0	40	0	125829120	68	5232
2026-01-12 13:22:28.91	240.59	12.33	-48.4	-51.7	20.7	6.05e-01	0	40	0	129499136	68	5239
2026-01-12 13:22:30.90	240.98	12.43	-48.4	-51.6	20.8	6.09e-01	0	40	0	133169152	68	5170
2026-01-12 13:22:32.89	241.37	12.53	-48.4	-51.5	20.9	6.05e-01	0	40	0	136839168	68	5149
2026-01-12 13:22:34.88	241.76	12.64	-48.5	-51.7	20.7	6.06e-01	0	40	0	140509184	68	5222
2026-01-12 13:22:36.87	242.16	12.74	-48.3	-51.5	20.9	6.07e-01	0	40	0	144703488	68	5125
2026-01-12 13:22:38.86	242.56	12.84	-48.4	-51.5	20.9	6.05e-01	0	41	0	148373504	68	5152
2026-01-12 13:22:40.95	242.98	12.95	-48.3	-51.5	21.0	6.06e-01	0	41	0	152043520	68	5108
2026-01-12 13:22:42.96	243.39	13.05	-48.3	-51.4	20.9	6.07e-01	0	40	0	155713536	68	5100
2026-01-12 13:22:44.96	243.80	13.15	-48.3	-51.4	21.0	6.06e-01	0	40	0	159907840	68	5049
2026-01-12 13:22:46.94	244.21	13.25	-48.2	-51.3	21.1	6.07e-01	0	40	0	163577856	68	5022
2026-01-12 13:22:48.93	244.62	13.35	-48.3	-51.4	21.0	6.04e-01	0	41	0	167247872	68	5069
2026-01-12 13:22:50.92	245.04	13.44	-48.3	-51.3	21.1	6.07e-01	0	40	0	170917888	68	5033
2026-01-12 13:22:52.91	245.46	13.54	-48.2	-51.3	21.1	6.07e-01	0	41	0	174587904	68	5010
2026-01-12 13:22:54.96	245.89	13.64	-48.3	-51.4	21.0	6.07e-01	0	41	0	178257920	68	5085
2026-01-12 13:22:56.97	246.32	13.73	-48.3	-51.4	21.0	6.07e-01	0	40	0	181927936	68	5080
2026-01-12 13:22:58.95	246.75	13.83	-48.2	-51.3	21.1	6.09e-01	0	40	0	185597952	68	5026
2026-01-12 13:23:00.94	247.18	13.92	-48.2	-51.3	21.1	6.06e-01	0	40	0	189792256	68	5012
2026-01-12 13:23:02.93	247.61	14.01	-48.2	-51.3	21.1	6.09e-01	0	40	0	193462272	68	5021
2026-01-12 13:23:04.97	248.06	14.10	-48.2	-51.3	21.1	6.08e-01	0	40	0	197132288	68	5008
2026-01-12 13:23:06.96	248.50	14.19	-48.2	-51.4	21.1	6.08e-01	0	40	0	200802304	68	5045
2026-01-12 13:23:09.10	248.97	14.29	-48.1	-51.3	21.1	6.06e-01	0	40	0	204996608	68	5009
2026-01-12 13:23:11.11	249.42	14.37	-48.0	-51.2	21.2	6.07e-01	0	40	0	208666624	68	4940
2026-01-12 13:23:13.10	249.87	14.46	-48.0	-51.1	21.3	6.06e-01	0	40	0	212336640	68	4920
2026-01-12 13:23:15.10	250.32	14.54	-48.2	-51.3	21.1	6.06e-01	0	41	0	216006656	68	5014
2026-01-12 13:23:17.06	250.77	14.63	-48.3	-51.4	21.1	6.07e-01	0	40	0	219676672	68	5049
2026-01-12 13:23:19.05	251.22	14.71	-48.0	-51.0	21.4	6.06e-01	0	40	0	223346688	68	4861
2026-01-12 13:23:21.04	251.68	14.79	-48.1	-51.2	21.3	6.07e-01	0	41	0	227016704	68	4938
2026-01-12 13:23:23.03	252.14	14.87	-48.0	-51.1	21.3	6.09e-01	0	40	0	231211008	68	4911
2026-01-12 13:23:25.12	252.63	14.95	-48.1	-51.2	21.3	6.05e-01	0	40	0	234881024	68	4939
2026-01-12 13:23:27.11	253.09	15.02	-48.0	-51.1	21.3	6.07e-01	0	40	0	238551040	68	4922
2026-01-12 13:23:29.10	253.56	15.10	-47.9	-51.0	21.3	6.07e-01	0	41	0	242221056	67	5133
2026-01-12 13:23:31.12	254.04	15.17	-47.9	-51.0	21.3	6.05e-01	0	41	0	246415360	67	5146
2026-01-12 13:23:33.11	254.51	15.24	-47.9	-51.1	21.3	6.06e-01	0	41	0	250085376	67	5175
2026-01-12 13:23:35.10	254.99	15.31	-47.9	-51.0	21.4	6.09e-01	0	41	0	253755392	67	5143
2026-01-12 13:23:37.21	255.49	15.39	-48.0	-51.1	21.3	6.06e-01	0	40	0	257425408	67	5172
2026-01-12 13:23:39.23	255.98	15.46	-47.9	-50.9	21.5	6.06e-01	0	40	0	261619712	67	5077
2026-01-12 13:23:41.22	256.46	15.52	-48.0	-51.1	21.3	6.09e-01	0	40	0	265289728	67	5180
2026-01-12 13:23:43.21	256.94	15.58	-47.7	-50.8	21.6	6.09e-01	0	40	0	268959744	67	5012
2026-01-12 13:23:45.20	257.43	15.65	-47.9	-51.0	21.3	6.04e-01	0	40	0	272629760	67	5147
2026-01-12 13:23:47.19	257.92	15.71	-47.8	-50.9	21.4	6.05e-01	0	40	0	276299776	67	5097
2026-01-12 13:23:49.18	258.41	15.76	-47.9	-51.0	21.3	6.05e-01	0	40	0	279969792	67	5135
2026-01-12 13:23:51.17	258.90	15.82	-47.7	-50.9	21.5	6.09e-01	0	41	0	283639808	67	5063
2026-01-12 13:23:53.17	259.40	15.88	-47.7	-50.8	21.5	6.03e-01	0	41	0	287309824	67	5040
2026-01-12 13:23:55.15	259.89	15.93	-47.8	-51.0	21.4	6.08e-01	0	41	0	290979840	67	5118
2026-01-12 13:23:57.14	260.39	15.98	-47.7	-50.9	21.5	6.07e-01	0	40	0	295174144	67	5047
2026-01-12 13:23:59.23	260.91	16.03	-47.7	-50.9	21.5	6.07e-01	0	41	0	298844160	67	5066
2026-01-12 13:24:01.22	261.41	16.08	-47.7	-50.9	21.5	6.05e-01	0	41	0	302514176	67	5087
2026-01-12 13:24:03.22	261.92	16.13	-47.8	-51.0	21.4	6.08e-01	0	41	0	306184192	67	5105
2026-01-12 13:24:05.23	262.43	16.17	-47.7	-50.8	21.6	6.07e-01	0	40	0	310378496	67	5011
2026-01-12 13:24:07.23	262.94	16.21	-47.7	-50.9	21.5	6.08e-01	0	40	0	314048512	67	5065
2026-01-12 13:24:09.27	263.46	16.25	-47.7	-51.0	21.4	6.06e-01	0	41	0	317718528	67	5133
2026-01-12 13:24:11.29	263.97	16.29	-47.8	-51.0	21.4	6.09e-01	0	41	0	321388544	67	5108
2026-01-12 13:24:13.27	264.48	16.33	-47.8	-50.8	21.6	6.06e-01	0	41	0	325058560	67	5006
2026-01-12 13:24:15.28	265.00	16.36	-48.0	-51.0	21.4	6.07e-01	0	41	0	328728576	67	5134
2026-01-12 13:24:17.27	265.51	16.39	-48.1	-51.3	21.3	6.05e-01	0	40	0	332922880	68	4985
2026-01-12 13:24:19.29	266.03	16.42	-47.8	-50.8	21.5	6.09e-01	0	41	0	336592896	67	5032
2026-01-12 13:24:21.53	266.61	16.45	-47.8	-50.9	21.5	6.08e-01	0	41	0	340787200	67	5080
2026-01-12 13:24:23.55	267.13	16.48	-47.9	-50.9	21.5	6.07e-01	0	40	0	344457216	67	5075
2026-01-12 13:24:25.54	267.65	16.50	-47.9	-50.9	21.4	6.08e-01	0	40	0	348127232	67	5081
2026-01-12 13:24:27.53	268.17	16.52	-48.0	-51.1	21.3	6.07e-01	0	41	0	351797248	67	5205
2026-01-12 13:24:29.55	268.69	16.54	-47.8	-50.8	21.5	6.06e-01	0	41	0	355467264	67	5037
2026-01-12 13:24:31.57	269.22	16.56	-47.8	-50.9	21.4	6.07e-01	0	40	0	359661568	67	5088
2026-01-12 13:24:33.65	269.76	16.57	-48.0	-51.1	21.3	6.07e-01	0	41	0	363331584	67	5162
2026-01-12 13:24:35.79	270.32	16.59	-48.0	-51.2	21.2	6.07e-01	0	40	0	367525888	67	5227
2026-01-12 13:24:37.78	270.84	16.60	-47.8	-50.9	21.5	6.07e-01	0	40	0	371195904	67	5048
2026-01-12 13:24:39.86	271.38	16.60	-47.9	-51.0	21.4	6.07e-01	0	41	0	374865920	67	5101
2026-01-12 13:24:41.85	271.90	16.61	-47.8	-50.8	21.5	6.07e-01	0	40	0	378535936	67	5031
2026-01-12 13:24:43.84	272.42	16.61	-47.8	-50.9	21.5	6.08e-01	0	41	0	382730240	67	5054
2026-01-12 13:24:45.83	272.94	16.62	-47.8	-50.8	21.5	6.07e-01	0	41	0	386400256	67	5035
2026-01-12 13:24:47.84	273.47	16.61	-47.7	-50.9	21.5	6.09e-01	0	41	0	390070272	67	5072
2026-01-12 13:24:49.83	273.99	16.61	-47.8	-50.9	21.5	6.08e-01	0	41	0	393740288	67	5078
2026-01-12 13:24:51.86	274.52	16.61	-47.8	-50.8	21.5	6.06e-01	0	41	0	397410304	67	5039
2026-01-12 13:24:53.89	275.05	16.60	-48.0	-51.0	21.3	6.05e-01	0	41	0	401604608	67	5147
2026-01-12 13:24:55.88	275.57	16.59	-47.9	-50.9	21.5	6.08e-01	0	41	0	405274624	67	5087
2026-01-12 13:24:57.87	276.09	16.58	-48.0	-51.0	21.4	6.06e-01	0	40	0	408944640	67	5156
2026-01-12 13:24:59.91	276.62	16.56	-48.1	-51.1	21.3	6.05e-01	0	41	0	412614656	67	5217
2026-01-12 13:25:01.90	277.14	16.55	-47.8	-50.8	21.6	6.09e-01	0	41	0	416284672	67	5004
2026-01-12 13:25:03.89	277.65	16.53	-47.7	-50.7	21.6	6.08e-01	0	41	0	419954688	67	4979
2026-01-12 13:25:05.90	278.17	16.51	-47.7	-50.8	21.5	6.05e-01	0	41	0	423624704	67	5038
2026-01-12 13:25:07.89	278.69	16.49	-47.8	-50.8	21.5	6.05e-01	0	40	0	427819008	67	5029
2026-01-12 13:25:09.96	279.23	16.46	-47.9	-51.0	21.4	6.07e-01	0	41	0	431489024	67	5127
2026-01-12 13:25:11.96	279.74	16.43	-47.7	-50.7	21.7	6.08e-01	0	41	0	435159040	67	4927
2026-01-12 13:25:13.96	280.26	16.40	-47.9	-50.9	21.5	6.05e-01	0	41	0	438829056	67	5074
2026-01-12 13:25:15.97	280.77	16.37	-47.8	-50.8	21.6	6.06e-01	0	41	0	443023360	67	5010
2026-01-12 13:25:18.10	281.32	16.34	-47.7	-50.7	21.6	6.04e-01	0	41	0	446693376	67	4980
2026-01-12 13:25:20.21	281.86	16.30	-47.8	-50.9	21.5	6.07e-01	0	40	0	450887680	67	5055
2026-01-12 13:25:22.22	282.37	16.26	-47.8	-50.8	21.5	6.07e-01	0	41	0	454557696	67	5026
2026-01-12 13:25:24.46	282.94	16.22	-47.8	-50.7	21.6	6.07e-01	0	41	0	458752000	67	4979
2026-01-12 13:25:26.46	283.45	16.18	-47.9	-50.9	21.4	6.05e-01	0	41	0	462422016	67	5096
2026-01-12 13:25:28.47	283.96	16.13	-47.8	-50.8	21.6	6.07e-01	0	41	0	466092032	67	5022
2026-01-12 13:25:30.47	284.46	16.09	-48.0	-51.2	21.2	6.06e-01	0	41	0	469762048	67	5229
2026-01-12 13:25:32.50	284.97	16.04	-48.0	-51.1	21.3	6.07e-01	0	40	0	473956352	67	5169
2026-01-12 13:25:34.50	285.47	15.99	-47.9	-51.0	21.4	6.06e-01	0	41	0	477626368	67	5130
2026-01-12 13:25:36.50	285.97	15.94	-47.8	-50.8	21.5	6.09e-01	0	41	0	481296384	67	5000
2026-01-12 13:25:38.60	286.50	15.88	-47.9	-50.9	21.5	6.05e-01	0	41	0	484966400	67	5071
2026-01-12 13:25:40.59	286.99	15.83	-47.9	-50.9	21.4	6.06e-01	0	41	0	489160704	67	5063
2026-01-12 13:25:42.79	287.53	15.77	-47.9	-50.9	21.5	6.07e-01	0	40	0	492830720	67	5061
2026-01-12 13:25:44.77	288.02	15.71	-47.8	-50.8	21.6	6.06e-01	0	41	0	497025024	67	4991
2026-01-12 13:25:46.76	288.50	15.65	-47.8	-50.9	21.5	6.08e-01	0	40	0	500695040	67	5072
2026-01-12 13:25:48.78	289.00	15.59	-47.7	-50.9	21.5	6.07e-01	0	41	0	504365056	67	5062
2026-01-12 13:25:51.00	289.53	15.52	-47.8	-50.9	21.4	6.10e-01	0	41	0	508559360	67	5074
2026-01-12 13:25:52.99	290.01	15.45	-48.1	-51.1	21.2	6.09e-01	0	40	0	512229376	67	5205
2026-01-12 13:25:54.98	290.49	15.39	-48.0	-51.1	21.3	6.06e-01	0	41	0	515899392	67	5172
2026-01-12 13:25:56.97	290.97	15.32	-48.0	-51.0	21.4	6.06e-01	0	41	0	519569408	67	5115
2026-01-12 13:25:58.99	291.45	15.25	-48.0	-51.1	21.3	6.06e-01	0	41	0	523239424	67	5176
2026-01-12 13:26:00.99	291.92	15.17	-48.0	-51.0	21.3	6.09e-01	0	41	0	526909440	67	5146
2026-01-12 13:26:02.97	292.39	15.10	-48.0	-51.1	21.2	6.07e-01	0	41	0	531103744	67	5191
2026-01-12 13:26:04.96	292.85	15.03	-48.1	-51.2	21.2	6.06e-01	0	41	0	534773760	67	5229
2026-01-12 13:26:06.96	293.32	14.95	-48.0	-51.0	21.3	6.08e-01	0	41	0	538443776	67	5151
2026-01-12 13:26:08.94	293.78	14.88	-48.0	-51.1	21.2	6.05e-01	0	41	0	542113792	67	5201
2026-01-12 13:26:10.94	294.24	14.80	-48.0	-51.2	21.2	6.08e-01	0	41	0	545783808	67	5222
2026-01-12 13:26:12.93	294.69	14.72	-48.1	-51.1	21.2	6.06e-01	0	41	0	549453824	67	5218
2026-01-12 13:26:14.97	295.16	14.63	-48.1	-51.2	21.1	6.07e-01	0	41	0	553648128	67	5272
2026-01-12 13:26:16.96	295.61	14.55	-47.9	-51.1	21.2	6.08e-01	0	41	0	557318144	67	5211
2026-01-12 13:26:18.95	296.06	14.47	-48.0	-51.2	21.1	6.08e-01	0	41	0	560988160	67	5252
2026-01-12 13:26:20.94	296.50	14.38	-48.0	-51.1	21.2	6.05e-01	0	41	0	564658176	67	5197
2026-01-12 13:26:22.93	296.94	14.30	-48.2	-51.3	21.0	6.05e-01	0	41	0	568328192	67	5325
2026-01-12 13:26:24.91	297.38	14.21	-48.1	-51.3	21.0	6.08e-01	0	41	0	571998208	67	5307
2026-01-12 13:26:26.91	297.82	14.12	-48.1	-51.3	21.0	6.06e-01	0	41	0	575668224	67	5296
2026-01-12 13:26:28.90	298.26	14.03	-48.2	-51.4	20.9	6.06e-01	0	41	0	579338240	67	5380
2026-01-12 13:26:30.89	298.69	13.94	-48.2	-51.3	21.0	6.07e-01	0	41	0	583008256	67	5335
2026-01-12 13:26:32.84	299.11	13.85	-48.2	-51.4	20.9	6.07e-01	0	41	0	586678272	67	5400
2026-01-12 13:26:34.84	299.54	13.76	-48.1	-51.3	21.0	6.08e-01	0	41	0	590872576	67	5335
2026-01-12 13:26:36.82	299.96	13.67	-48.1	-51.3	21.0	6.07e-01	0	41	0	594542592	67	5321
2026-01-12 13:26:38.81	300.38	13.57	-48.0	-51.1	21.2	6.08e-01	0	41	0	598212608	67	5184
2026-01-12 13:26:40.80	300.80	13.48	-48.1	-51.2	21.1	6.05e-01	0	41	0	601882624	67	5225
2026-01-12 13:26:42.79	301.21	13.38	-48.2	-51.4	21.0	6.07e-01	0	41	0	605552640	67	5345
2026-01-12 13:26:44.89	301.65	13.28	-48.1	-51.3	21.0	6.09e-01	0	41	0	609222656	67	5293
2026-01-12 13:26:46.96	302.07	13.18	-48.1	-51.3	21.0	6.08e-01	0	41	0	613416960	67	5325
2026-01-12 13:26:48.95	302.48	13.08	-48.1	-51.3	21.0	6.08e-01	0	41	0	617086976	67	5338
2026-01-12 13:26:50.94	302.88	12.98	-48.1	-51.3	20.9	6.09e-01	0	41	0	620756992	67	5313
2026-01-12 13:26:53.02	303.30	12.87	-47.9	-51.1	21.1	6.06e-01	0	41	0	624951296	67	5181
2026-01-12 13:26:55.01	303.70	12.77	-48.0	-51.3	20.9	6.05e-01	0	41	0	628621312	67	5300
2026-01-12 13:26:57.00	304.09	12.67	-48.0	-51.3	21.0	6.06e-01	0	41	0	632291328	67	5310
2026-01-12 13:26:58.99	304.48	12.57	-48.0	-51.2	21.1	6.09e-01	0	41	0	635961344	67	5254
2026-01-12 13:27:00.98	304.87	12.46	-48.0	-51.2	21.1	6.06e-01	0	41	0	639631360	67	5243
2026-01-12 13:27:02.97	305.26	12.36	-48.1	-51.3	21.0	6.08e-01	0	41	0	643301376	67	5289
2026-01-12 13:27:04.96	305.64	12.26	-48.1	-51.3	21.0	6.07e-01	0	41	0	646971392	67	5299
2026-01-12 13:27:06.95	306.02	12.15	-48.1	-51.3	20.9	6.06e-01	0	41	0	650641408	67	5325
2026-01-12 13:27:08.94	306.40	12.05	-47.8	-51.3	21.0	6.07e-01	0	41	0	654835712	67	5290
2026-01-12 13:27:10.93	306.77	11.94	-47.9	-51.4	20.8	6.07e-01	0	41	0	658505728	67	5399
2026-01-12 13:27:12.91	307.14	11.83	-48.2	-51.5	20.8	6.09e-01	0	41	0	662175744	67	5428
2026-01-12 13:27:14.89	307.51	11.73	-48.1	-51.5	20.8	6.07e-01	0	41	0	665845760	67	5413
2026-01-12 13:27:16.88	307.87	11.62	-48.1	-51.5	20.8	6.07e-01	0	41	0	669515776	67	5418
2026-01-12 13:27:18.87	308.24	11.51	-47.9	-51.4	20.8	6.07e-01	0	41	0	673185792	67	5392
2026-01-12 13:27:20.86	308.60	11.40	-48.1	-51.5	20.7	6.05e-01	0	41	0	676855808	67	5457
2026-01-12 13:27:22.85	308.95	11.30	-48.2	-51.7	20.6	6.07e-01	0	41	0	680525824	67	5534
2026-01-12 13:27:24.84	309.31	11.19	-48.2	-51.6	20.6	6.08e-01	0	41	0	684195840	67	5495
2026-01-12 13:27:26.83	309.66	11.08	-48.3	-51.6	20.6	6.07e-01	0	41	0	688390144	67	5493
2026-01-12 13:27:28.86	310.02	10.96	-48.2	-51.7	20.5	6.06e-01	0	41	0	692060160	67	5592
2026-01-12 13:27:30.84	310.36	10.85	-48.1	-51.6	20.6	6.07e-01	0	41	0	695730176	67	5468
2026-01-12 13:27:32.83	310.70	10.74	-48.1	-51.6	20.6	6.07e-01	0	41	0	699400192	67	5506
2026-01-12 13:27:34.82	311.05	10.63	-48.2	-51.8	20.4	6.09e-01	0	41	0	703070208	67	5640
2026-01-12 13:27:36.81	311.38	10.52	-48.2	-51.9	20.3	6.08e-01	0	41	0	706740224	67	5681
2026-01-12 13:27:38.80	311.72	10.41	-48.1	-51.9	20.3	6.06e-01	0	41	0	710410240	67	5683
2026-01-12 13:27:40.78	312.05	10.30	-48.0	-51.6	20.5	6.06e-01	0	41	0	714080256	67	5514
2026-01-12 13:27:42.77	312.38	10.19	-48.1	-51.7	20.4	6.07e-01	0	41	0	718274560	67	5572
2026-01-12 13:27:44.76	312.71	10.08	-48.1	-51.8	20.3	6.07e-01	0	41	0	721944576	67	5653
2026-01-12 13:27:46.75	313.03	9.96	-48.1	-51.8	20.4	6.08e-01	0	41	0	725614592	67	5595
2026-01-12 13:27:48.74	313.35	9.85	-48.2	-51.8	20.4	6.05e-01	0	41	0	729284608	67	5636
2026-01-12 13:27:50.83	313.69	9.73	-48.1	-51.8	20.4	6.07e-01	0	41	0	732954624	67	5615
2026-01-12 13:27:53.32	314.09	9.59	-48.3	-51.9	20.3	6.09e-01	0	41	0	737673216	67	5664
2026-01-12 13:27:55.31	314.40	9.48	-48.1	-51.9	20.3	6.07e-01	0	41	0	741343232	67	5689
2026-01-12 13:27:57.30	314.71	9.37	-48.2	-52.0	20.1	6.06e-01	0	41	0	745013248	67	5776
2026-01-12 13:27:59.35	315.03	9.25	-48.3	-51.9	20.2	6.05e-01	0	41	0	749207552	67	5718
2026-01-12 13:28:01.39	315.34	9.13	-48.3	-52.0	20.1	6.06e-01	0	41	0	752877568	67	5773
2026-01-12 13:28:03.46	315.66	9.02	-48.7	-52.6	19.7	6.06e-01	0	41	0	757071872	67	6172
2026-01-12 13:28:05.44	315.96	8.90	-52.7	-73.8	3.8	7.47e-01	0	41	104	757596160	76	41959
2026-01-12 13:28:07.54	316.27	8.78	-53.5	-74.0	3.8	7.47e-01	0	41	104	757596160	78	38665
2026-01-12 13:28:09.59	316.58	8.67	-53.9	-74.2	3.8	7.47e-01	0	41	104	757596160	78	39231
2026-01-12 13:28:11.64	316.88	8.55	-54.0	-74.2	3.8	7.47e-01	0	41	104	757596160	78	39433
2026-01-12 13:28:13.69	317.18	8.43	-54.0	-74.2	3.8	7.49e-01	0	41	104	757596160	78	39582
2026-01-12 13:28:15.68	317.47	8.32	-53.9	-74.3	3.8	7.44e-01	0	41	104	757596160	79	37500
2026-01-12 13:28:17.67	317.75	8.20	-54.1	-74.3	3.8	7.44e-01	0	41	104	757596160	79	37567
2026-01-12 13:28:19.65	318.04	8.09	-53.9	-74.3	3.8	7.43e-01	0	41	104	757596160	79	37578
2026-01-12 13:28:21.64	318.32	7.98	-54.0	-74.3	3.8	7.44e-01	0	41	104	757596160	79	37526
2026-01-12 13:28:23.63	318.60	7.86	-54.1	-74.3	3.8	7.47e-01	0	41	104	757596160	79	37433
2026-01-12 13:28:25.61	318.87	7.75	-53.8	-74.2	3.8	7.49e-01	0	41	104	757596160	79	37279
2026-01-12 13:28:27.60	319.15	7.64	-53.8	-74.2	3.8	7.45e-01	0	41	104	757596160	79	37230
2026-01-12 13:28:29.59	319.42	7.53	-53.8	-74.2	3.8	7.42e-01	0	41	104	757596160	79	37265
2026-01-12 13:28:31.58	319.69	7.41	-53.8	-74.2	3.8	7.46e-01	0	41	104	757596160	79	37179
2026-01-12 13:28:33.56	319.96	7.30	-53.8	-74.2	3.8	7.46e-01	0	41	104	757596160	79	37183
2026-01-12 13:28:35.55	320.22	7.19	-53.8	-74.2	3.8	7.47e-01	0	41	104	757596160	79	37174
2026-01-12 13:28:37.53	320.48	7.07	-53.8	-74.2	3.8	7.48e-01	0	41	104	757596160	79	37161
2026-01-12 13:28:39.52	320.75	6.96	-53.8	-74.2	3.8	7.47e-01	0	41	104	757596160	79	37167
2026-01-12 13:28:41.51	321.00	6.85	-53.8	-7
