passes_logs/2026/01/12/T1/T1__20260112_020725_AQUA_rec.log

#Pass ID: 20260112_020725_AQUA
#Satellite: AQUA
#Configuration: AQUA
#almurnet v.1.7.20251203
#Start time: 2026-01-12 02:07:26

#Version: 2.0.20230620
#Station: T1
#Location: 37.570604 lon 55.790049 lat
#TLE: 1 27424U 02022A   26011.34052177  .00001139  00000+0  23789-3 0  9999
#TLE: 2 27424  98.4078 337.7066 0002035  82.6124  44.5301 14.61815662260355

#Time	Az	El	Level	Level2	SNR	BER	BlckErr	Temp	State	Recorded	gain1	gain2
2026-01-12 02:07:26.90	9.34	5.11	-48.9	-71.2	3.8	7.47e-01	0	38	0	0	69	46672
2026-01-12 02:07:29.88	9.20	5.33	-47.8	-71.5	3.8	7.47e-01	0	39	104	0	66	57566
2026-01-12 02:07:32.86	9.06	5.54	-47.8	-71.5	3.8	7.46e-01	0	39	104	0	66	57862
2026-01-12 02:07:35.84	8.91	5.76	-47.8	-70.9	3.8	7.46e-01	0	39	104	0	66	53685
2026-01-12 02:07:38.82	8.77	5.98	-47.8	-69.9	3.8	7.45e-01	0	39	104	0	66	47848
2026-01-12 02:07:41.80	8.61	6.21	-47.8	-69.5	4.0	7.40e-01	0	40	104	0	66	45516
2026-01-12 02:07:44.78	8.46	6.43	-47.8	-69.5	3.9	7.42e-01	0	39	104	0	66	45630
2026-01-12 02:07:47.76	8.31	6.66	-47.8	-68.2	4.2	7.34e-01	0	40	104	0	66	39540
2026-01-12 02:07:50.74	8.15	6.89	-47.8	-68.4	4.1	7.37e-01	0	40	104	0	66	40144
2026-01-12 02:07:53.72	7.99	7.12	-47.8	-71.3	3.8	7.49e-01	0	40	104	0	66	56105
2026-01-12 02:07:56.70	7.82	7.35	-47.7	-65.5	5.3	7.01e-01	0	40	0	0	66	28919
2026-01-12 02:07:59.68	7.65	7.59	-47.4	-59.1	11.3	6.09e-01	0	40	0	5242880	66	13763
2026-01-12 02:08:02.66	7.48	7.83	-46.9	-55.7	14.8	6.02e-01	0	40	0	11010048	65	9871
2026-01-12 02:08:05.64	7.31	8.07	-46.5	-53.8	16.7	6.03e-01	0	40	0	16252928	65	7932
2026-01-12 02:08:08.62	7.13	8.31	-46.0	-52.5	18.0	6.03e-01	0	40	0	22020096	64	7230
2026-01-12 02:08:11.60	6.95	8.56	-46.2	-52.5	18.0	6.00e-01	0	40	0	27262976	63	7714
2026-01-12 02:08:14.58	6.76	8.80	-46.7	-54.6	16.0	6.01e-01	0	40	0	33030144	64	9194
2026-01-12 02:08:17.56	6.58	9.05	-48.1	-61.2	9.4	6.30e-01	0	40	0	38797312	66	17622
2026-01-12 02:08:20.55	6.38	9.31	-45.4	-51.8	18.4	6.03e-01	0	40	0	41418752	62	7463
2026-01-12 02:08:23.53	6.19	9.56	-45.0	-49.8	20.6	6.04e-01	0	40	0	47185920	61	6298
2026-01-12 02:08:26.52	5.99	9.82	-44.8	-49.5	20.9	6.02e-01	0	41	0	52428800	61	6101
2026-01-12 02:08:29.50	5.78	10.08	-45.1	-49.4	21.1	6.02e-01	0	41	0	58195968	61	6007
2026-01-12 02:08:32.49	5.57	10.34	-45.3	-49.4	21.1	6.04e-01	0	41	0	63963136	61	6013
2026-01-12 02:08:35.47	5.36	10.61	-45.8	-49.5	21.0	6.03e-01	0	41	0	69206016	62	5729
2026-01-12 02:08:38.46	5.14	10.88	-45.8	-49.2	21.3	6.02e-01	0	41	0	74973184	62	5587
2026-01-12 02:08:41.46	4.92	11.15	-45.9	-49.3	21.3	6.03e-01	0	41	0	80740352	62	5594
2026-01-12 02:08:44.54	4.69	11.43	-45.8	-48.9	21.5	6.03e-01	0	41	0	86507520	62	5382
2026-01-12 02:08:47.39	4.47	11.70	-45.9	-49.0	21.5	6.01e-01	0	41	0	91750400	62	5423
2026-01-12 02:08:50.51	4.22	11.99	-45.8	-48.9	21.7	6.03e-01	0	40	0	97517568	62	5353
2026-01-12 02:08:53.36	3.99	12.26	-45.8	-48.9	21.6	6.04e-01	0	41	0	102760448	62	5349
2026-01-12 02:08:56.59	3.72	12.57	-45.8	-48.9	21.7	6.04e-01	0	41	0	109051904	62	5365
2026-01-12 02:08:59.44	3.48	12.85	-45.6	-48.7	21.8	6.01e-01	0	41	0	114294784	62	5253
2026-01-12 02:09:02.56	3.21	13.16	-45.6	-48.7	21.7	6.01e-01	0	41	0	120061952	62	5219
2026-01-12 02:09:05.40	2.96	13.44	-45.7	-48.7	21.8	6.03e-01	0	41	0	125304832	62	5224
2026-01-12 02:09:08.53	2.67	13.76	-45.5	-48.6	21.9	6.04e-01	0	41	0	131596288	62	5198
2026-01-12 02:09:11.37	2.41	14.05	-45.4	-48.5	22.1	6.03e-01	0	41	0	136839168	62	5110
2026-01-12 02:09:14.52	2.11	14.37	-45.4	-48.4	22.2	6.01e-01	0	41	0	142606336	62	5063
2026-01-12 02:09:17.45	1.83	14.68	-45.5	-48.4	22.1	6.02e-01	0	41	0	147849216	62	5092
2026-01-12 02:09:20.57	1.51	15.01	-45.2	-48.4	22.2	6.00e-01	0	41	0	154140672	62	5080
2026-01-12 02:09:23.42	1.22	15.31	-44.9	-48.3	22.3	6.05e-01	0	41	0	159383552	61	5286
2026-01-12 02:09:26.54	0.90	15.65	-45.1	-48.3	22.2	6.02e-01	0	41	0	165150720	61	5318
2026-01-12 02:09:29.39	0.59	15.96	-45.1	-48.2	22.4	6.04e-01	0	41	0	170393600	61	5251
2026-01-12 02:09:32.57	0.25	16.32	-45.1	-48.1	22.5	6.04e-01	0	41	0	176685056	61	5190
2026-01-12 02:09:35.41	359.93	16.64	-45.1	-48.1	22.5	6.02e-01	0	41	0	181927936	61	5164
2026-01-12 02:09:38.54	359.57	16.99	-45.4	-48.3	22.3	6.01e-01	0	41	0	187695104	61	5302
2026-01-12 02:09:41.38	359.23	17.32	-45.3	-48.1	22.4	6.02e-01	0	41	0	192937984	61	5212
2026-01-12 02:09:44.51	358.86	17.69	-45.3	-48.2	22.4	6.03e-01	0	41	0	198705152	61	5239
2026-01-12 02:09:47.36	358.50	18.02	-45.1	-48.1	22.5	6.02e-01	0	41	0	203948032	61	5190
2026-01-12 02:09:50.62	358.09	18.41	-45.2	-48.2	22.4	6.03e-01	0	41	0	210239488	61	5271
2026-01-12 02:09:53.54	357.71	18.77	-45.3	-48.6	22.1	6.02e-01	0	41	0	215482368	61	5478
2026-01-12 02:09:56.83	357.26	19.17	-45.1	-48.2	22.4	6.01e-01	0	41	0	221773824	61	5249
2026-01-12 02:09:59.56	356.89	19.51	-45.2	-48.3	22.4	6.05e-01	0	41	0	227016704	61	5285
2026-01-12 02:10:02.84	356.42	19.92	-45.2	-48.1	22.5	6.03e-01	0	41	0	233308160	61	5186
2026-01-12 02:10:05.54	356.03	20.27	-45.3	-48.2	22.5	6.02e-01	0	41	0	238026752	61	5228
2026-01-12 02:10:09.13	355.49	20.73	-45.4	-48.2	22.5	6.04e-01	0	41	0	244842496	61	5263
2026-01-12 02:10:11.84	355.08	21.08	-45.3	-48.1	22.5	6.02e-01	0	41	0	250085376	61	5204
2026-01-12 02:10:15.11	354.56	21.52	-45.3	-48.1	22.6	6.03e-01	0	41	0	256376832	61	5195
2026-01-12 02:10:17.89	354.11	21.89	-45.4	-48.2	22.5	6.02e-01	0	41	0	261619712	61	5265
2026-01-12 02:10:21.17	353.56	22.33	-45.5	-48.6	22.2	6.06e-01	0	41	0	267386880	61	5483
2026-01-12 02:10:23.89	353.09	22.71	-45.4	-48.5	22.2	6.05e-01	0	41	0	272629760	61	5440
2026-01-12 02:10:27.16	352.51	23.16	-45.6	-48.6	22.1	6.01e-01	0	41	0	278921216	61	5493
2026-01-12 02:10:30.21	351.96	23.59	-45.5	-48.4	22.3	6.02e-01	0	41	0	284688384	61	5364
2026-01-12 02:10:33.07	351.42	23.99	-45.1	-48.3	22.4	6.03e-01	0	41	0	289931264	61	5295
2026-01-12 02:10:36.20	350.81	24.44	-45.0	-48.4	22.4	6.04e-01	0	41	0	295698432	61	5379
2026-01-12 02:10:39.14	350.23	24.87	-45.1	-48.4	22.3	6.05e-01	0	41	0	301465600	61	5393
2026-01-12 02:10:42.22	349.60	25.32	-45.2	-48.3	22.4	6.01e-01	0	41	0	307232768	61	5334
2026-01-12 02:10:45.72	348.86	25.84	-45.5	-48.5	22.3	6.02e-01	0	41	0	313524224	61	5408
2026-01-12 02:10:48.48	348.25	26.25	-45.3	-48.4	22.4	6.02e-01	0	41	0	318767104	61	5377
2026-01-12 02:10:51.84	347.50	26.76	-45.0	-48.0	22.7	6.01e-01	0	41	0	325058560	61	5108
2026-01-12 02:10:54.57	346.86	27.17	-45.2	-48.0	22.7	6.03e-01	0	41	0	330301440	61	5129
2026-01-12 02:10:57.85	346.08	27.68	-45.5	-48.2	22.6	6.03e-01	0	41	0	336068608	61	5257
2026-01-12 02:11:00.59	345.40	28.10	-45.3	-48.0	22.7	6.03e-01	0	41	0	341311488	61	5130
2026-01-12 02:11:04.67	344.36	28.74	-44.9	-47.6	23.1	6.02e-01	0	41	0	349175808	61	4891
2026-01-12 02:11:07.57	343.59	29.19	-45.0	-47.8	22.9	6.03e-01	0	41	0	354418688	61	5002
2026-01-12 02:11:10.55	342.78	29.66	-45.1	-47.7	23.0	6.01e-01	0	41	0	360185856	61	4982
2026-01-12 02:11:13.53	341.94	30.13	-44.9	-47.7	23.1	6.05e-01	0	41	0	365953024	61	4931
2026-01-12 02:11:16.52	341.08	30.61	-44.6	-47.6	23.1	6.06e-01	0	41	0	371195904	61	4876
2026-01-12 02:11:19.50	340.19	31.08	-44.6	-47.4	23.2	6.01e-01	0	41	0	376963072	61	4814
2026-01-12 02:11:22.49	339.26	31.56	-44.7	-47.6	23.1	6.04e-01	0	41	0	382730240	61	4905
2026-01-12 02:11:25.54	338.29	32.04	-44.8	-47.7	22.9	6.04e-01	0	41	0	387973120	61	4981
2026-01-12 02:11:28.38	337.36	32.49	-44.9	-47.7	23.0	6.03e-01	0	41	0	393740288	61	4970
2026-01-12 02:11:31.51	336.31	32.99	-44.8	-47.7	22.9	6.01e-01	0	41	0	399507456	61	4960
2026-01-12 02:11:34.35	335.32	33.43	-45.0	-48.0	22.7	6.02e-01	0	41	0	404750336	61	5124
2026-01-12 02:11:37.48	334.20	33.92	-45.1	-48.0	22.7	6.03e-01	0	41	0	410517504	61	5127
2026-01-12 02:11:40.33	333.14	34.37	-45.4	-48.3	22.5	6.03e-01	0	41	0	415760384	61	5310
2026-01-12 02:11:43.45	331.96	34.85	-45.8	-48.6	22.2	6.03e-01	0	41	0	421527552	62	5203
2026-01-12 02:11:46.30	330.84	35.28	-45.7	-48.7	22.1	6.02e-01	0	41	0	427294720	62	5219
2026-01-12 02:11:49.42	329.58	35.74	-45.8	-48.8	22.0	6.04e-01	0	41	0	433061888	62	5307
2026-01-12 02:11:52.28	328.40	36.16	-45.9	-49.1	21.7	6.05e-01	0	41	0	438304768	62	5497
2026-01-12 02:11:55.53	327.01	36.63	-46.1	-49.4	21.5	6.01e-01	0	41	0	444596224	62	5674
2026-01-12 02:11:58.44	325.74	37.04	-45.7	-49.4	21.4	6.02e-01	0	41	0	449839104	62	5703
2026-01-12 02:12:01.64	324.30	37.47	-46.0	-49.5	21.3	6.03e-01	0	41	0	456130560	62	5781
2026-01-12 02:12:04.49	322.99	37.84	-46.3	-49.7	21.2	6.03e-01	0	41	0	461373440	63	5558
2026-01-12 02:12:07.61	321.51	38.24	-46.3	-49.5	21.3	6.03e-01	0	41	0	467140608	63	5440
2026-01-12 02:12:10.46	320.13	38.59	-46.6	-49.8	21.0	6.04e-01	0	41	0	472383488	64	5332
2026-01-12 02:12:13.61	318.57	38.95	-46.5	-49.7	21.1	6.02e-01	0	41	0	478150656	64	5264
2026-01-12 02:12:16.46	317.13	39.26	-46.5	-49.8	21.1	6.05e-01	0	41	0	483917824	64	5289
2026-01-12 02:12:19.59	315.52	39.58	-46.3	-49.6	21.2	6.04e-01	0	41	0	489684992	64	5174
2026-01-12 02:12:22.43	314.02	39.86	-46.0	-49.4	21.4	6.03e-01	0	41	0	494927872	64	5060
2026-01-12 02:12:25.56	312.35	40.13	-46.5	-49.6	21.3	6.03e-01	0	41	0	500695040	63	5523
2026-01-12 02:12:28.40	310.80	40.36	-46.4	-49.6	21.3	6.03e-01	0	41	0	505937920	63	5519
2026-01-12 02:12:31.63	309.02	40.60	-46.4	-49.7	21.1	6.03e-01	0	41	0	512229376	63	5566
2026-01-12 02:12:34.55	307.39	40.78	-46.2	-49.6	21.2	6.02e-01	0	41	0	517472256	63	5502
2026-01-12 02:12:37.68	305.62	40.96	-45.8	-48.9	21.9	6.04e-01	0	41	0	523763712	63	5060
2026-01-12 02:12:40.52	304.00	41.08	-46.3	-49.5	21.3	5.98e-01	0	41	0	529006592	63	5420
2026-01-12 02:12:43.60	302.22	41.20	-46.8	-50.4	20.4	6.01e-01	0	41	0	534773760	64	5678
2026-01-12 02:12:46.73	300.41	41.28	-46.5	-49.6	21.3	6.02e-01	0	41	0	540540928	63	5492
2026-01-12 02:12:49.86	298.59	41.33	-47.0	-50.8	19.8	6.04e-01	0	41	0	546308096	64	5952
2026-01-12 02:12:52.70	296.94	41.35	-46.1	-49.2	21.6	6.05e-01	0	41	0	551550976	63	5222
2026-01-12 02:12:55.90	295.07	41.33	-46.4	-49.5	21.3	6.05e-01	0	41	0	557842432	64	5151
2026-01-12 02:12:58.74	293.42	41.30	-46.9	-50.3	20.7	6.04e-01	0	41	0	563085312	64	5624
2026-01-12 02:13:02.09	291.47	41.22	-46.4	-49.4	21.5	6.04e-01	0	41	0	569376768	63	5383
2026-01-12 02:13:04.80	289.91	41.13	-45.9	-48.8	22.1	6.05e-01	0	41	0	574095360	63	5004
2026-01-12 02:13:08.07	288.04	40.98	-46.0	-48.9	21.9	6.01e-01	0	41	0	580386816	63	5100
2026-01-12 02:13:10.86	286.45	40.84	-45.8	-48.6	22.2	6.03e-01	0	41	0	585629696	63	4878
2026-01-12 02:13:13.99	284.70	40.65	-46.2	-49.2	21.6	6.02e-01	0	41	0	591396864	64	4953
2026-01-12 02:13:16.83	283.12	40.45	-45.9	-48.7	21.9	6.03e-01	0	41	0	597164032	63	4975
2026-01-12 02:13:20.08	281.34	40.19	-46.1	-49.2	21.4	6.02e-01	0	41	0	602931200	64	4935
2026-01-12 02:13:22.93	279.81	39.95	-46.8	-50.2	20.6	6.05e-01	0	41	0	608174080	64	5544
2026-01-12 02:13:26.05	278.16	39.65	-45.4	-48.1	22.5	6.00e-01	0	41	0	613941248	62	4908
2026-01-12 02:13:28.90	276.67	39.36	-47.1	-50.7	20.1	6.03e-01	0	41	0	619708416	64	5900
2026-01-12 02:13:32.03	275.08	39.03	-45.9	-48.8	21.6	6.00e-01	0	41	0	625475584	63	5002
2026-01-12 02:13:34.87	273.66	38.70	-46.0	-49.0	21.8	6.04e-01	0	41	0	630718464	63	5111
2026-01-12 02:13:38.00	272.13	38.32	-47.1	-50.5	20.3	6.05e-01	0	41	0	636485632	64	5784
2026-01-12 02:13:40.83	270.78	37.97	-47.7	-51.4	19.4	6.02e-01	0	41	0	641728512	65	6056
2026-01-12 02:13:43.96	269.32	37.56	-47.4	-51.1	19.7	6.04e-01	0	41	0	648019968	65	5804
2026-01-12 02:13:46.85	268.01	37.17	-47.1	-50.6	20.2	6.03e-01	0	41	0	653262848	65	5520
2026-01-12 02:13:50.10	266.57	36.72	-46.8	-50.0	20.7	6.02e-01	0	41	0	659030016	64	5456
2026-01-12 02:13:53.30	265.19	36.26	-46.1	-49.1	21.6	6.03e-01	0	41	0	665321472	64	4905
2026-01-12 02:13:56.14	264.01	35.84	-46.3	-49.4	21.3	6.04e-01	0	41	0	670564352	64	5069
2026-01-12 02:13:59.30	262.72	35.37	-46.4	-49.6	21.2	6.02e-01	0	41	0	676331520	64	5173
2026-01-12 02:14:02.19	261.58	34.93	-46.2	-49.3	21.4	6.02e-01	0	41	0	682098688	64	5012
2026-01-12 02:14:05.42	260.34	34.44	-46.4	-49.7	21.2	6.04e-01	0	41	0	687865856	63	5534
2026-01-12 02:14:08.34	259.25	33.98	-46.2	-49.2	21.6	6.05e-01	0	41	0	693633024	63	5279
2026-01-12 02:14:11.62	258.06	33.47	-46.3	-49.4	21.4	6.02e-01	0	41	0	699400192	63	5367
2026-01-12 02:14:14.34	257.11	33.04	-46.2	-49.2	21.6	6.04e-01	0	41	0	704643072	63	5231
2026-01-12 02:14:17.62	255.99	32.52	-46.1	-49.1	21.7	6.01e-01	0	41	0	710934528	63	5209
2026-01-12 02:14:20.34	255.09	32.08	-46.4	-49.4	21.4	6.02e-01	0	41	0	716177408	63	5394
2026-01-12 02:14:23.59	254.05	31.57	-45.9	-48.7	22.0	6.02e-01	0	41	0	721944576	63	4965
2026-01-12 02:14:26.58	253.12	31.09	-46.4	-49.5	21.4	6.04e-01	0	41	0	727711744	63	5416
2026-01-12 02:14:29.56	252.23	30.61	-45.6	-48.4	22.3	6.06e-01	0	41	0	733478912	63	4774
2026-01-12 02:14:32.54	251.36	30.14	-45.9	-48.9	21.9	6.01e-01	0	41	0	738721792	63	5055
2026-01-12 02:14:35.53	250.51	29.66	-45.9	-48.9	21.8	6.02e-01	0	41	0	744488960	63	5094
2026-01-12 02:14:38.52	249.69	29.19	-45.8	-48.8	21.9	6.03e-01	0	41	0	750256128	63	5021
2026-01-12 02:14:41.50	248.90	28.72	-45.6	-48.5	22.2	6.03e-01	0	41	0	755499008	63	4833
2026-01-12 02:14:44.49	248.12	28.25	-46.1	-49.1	21.6	6.02e-01	0	41	0	761266176	63	5194
2026-01-12 02:14:47.48	247.38	27.78	-46.1	-49.1	21.6	6.01e-01	0	41	0	767033344	63	5177
2026-01-12 02:14:50.46	246.65	27.32	-46.2	-49.3	21.4	6.05e-01	0	41	0	772276224	63	5297
2026-01-12 02:14:53.44	245.95	26.87	-46.1	-49.1	21.7	6.03e-01	0	41	0	778043392	63	5172
2026-01-12 02:14:56.43	245.26	26.41	-46.0	-48.9	21.8	6.00e-01	0	41	0	783810560	63	5085
2026-01-12 02:14:59.46	244.59	25.95	-46.3	-49.4	21.4	6.05e-01	0	41	0	789577728	63	5344
2026-01-12 02:15:02.35	243.97	25.52	-46.2	-49.1	21.6	6.03e-01	0	41	0	794820608	63	5216
2026-01-12 02:15:05.70	243.26	25.03	-46.4	-49.4	21.3	6.06e-01	0	41	0	801112064	63	5374
2026-01-12 02:15:08.41	242.71	24.63	-46.1	-49.1	21.7	6.03e-01	0	41	0	806354944	63	5163
2026-01-12 02:15:11.65	242.07	24.16	-46.4	-49.4	21.3	6.02e-01	0	41	0	812122112	63	5390
2026-01-12 02:15:14.49	241.53	23.75	-46.1	-49.1	21.6	6.02e-01	0	41	0	817364992	63	5170
2026-01-12 02:15:17.82	240.91	23.28	-46.2	-49.2	21.3	6.03e-01	0	41	0	823656448	63	5261
2026-01-12 02:15:20.98	240.34	22.84	-46.2	-49.2	21.5	6.04e-01	0	41	0	829947904	63	5270
2026-01-12 02:15:23.82	239.84	22.44	-46.2	-49.2	21.5	6.05e-01	0	41	0	835190784	63	5269
2026-01-12 02:15:26.95	239.31	22.01	-46.3	-49.4	21.3	6.02e-01	0	41	0	840957952	63	5363
2026-01-12 02:15:29.79	238.84	21.63	-46.2	-49.3	21.4	6.03e-01	0	41	0	846200832	63	5336
2026-01-12 02:15:33.00	238.32	21.20	-46.1	-49.1	21.5	6.03e-01	0	41	0	851968000	63	5214
2026-01-12 02:15:35.84	237.88	20.83	-46.2	-49.4	21.4	6.00e-01	0	41	0	857735168	63	5356
2026-01-12 02:15:39.16	237.37	20.39	-46.1	-49.1	21.5	6.01e-01	0	41	0	864026624	63	5198
2026-01-12 02:15:41.86	236.97	20.04	-46.2	-49.4	21.3	6.03e-01	0	41	0	868745216	63	5346
2026-01-12 02:15:45.14	236.50	19.63	-45.9	-48.9	21.7	6.03e-01	0	41	0	875036672	63	5059
2026-01-12 02:15:47.85	236.11	19.29	-46.0	-49.1	21.6	6.02e-01	0	41	0	880279552	63	5160
2026-01-12 02:15:51.38	235.63	18.85	-46.1	-49.4	21.3	6.03e-01	0	41	0	886571008	63	5348
2026-01-12 02:15:54.18	235.26	18.51	-46.0	-49.0	21.6	6.05e-01	0	41	0	891813888	63	5156
2026-01-12 02:15:57.62	234.81	18.09	-46.2	-49.3	21.3	6.06e-01	0	41	0	898629632	63	5337
2026-01-12 02:16:00.34	234.47	17.77	-46.0	-49.0	21.6	6.03e-01	0	41	0	903348224	63	5148
2026-01-12 02:16:03.58	234.07	17.38	-45.9	-49.0	21.6	6.00e-01	0	41	0	909639680	63	5112
2026-01-12 02:16:06.42	233.73	17.05	-46.2	-49.3	21.3	6.05e-01	0	41	0	914882560	63	5302
2026-01-12 02:16:09.55	233.36	16.69	-46.1	-49.2	21.4	6.04e-01	0	41	0	920649728	63	5231
2026-01-12 02:16:12.41	233.03	16.37	-46.0	-49.0	21.6	6.02e-01	0	41	0	925892608	63	5107
2026-01-12 02:16:15.68	232.67	16.00	-46.2	-49.3	21.3	6.02e-01	0	41	0	932184064	63	5293
2026-01-12 02:16:18.52	232.36	15.69	-46.3	-49.3	21.2	6.03e-01	0	41	0	937426944	63	5333
2026-01-12 02:16:21.64	232.03	15.35	-46.0	-49.0	21.6	6.02e-01	0	41	0	943194112	63	5126
2026-01-12 02:16:24.48	231.73	15.04	-46.1	-49.1	21.5	6.05e-01	0	41	0	948961280	63	5184
2026-01-12 02:16:27.61	231.42	14.71	-46.4	-49.4	21.1	6.05e-01	0	41	0	954728448	63	5401
2026-01-12 02:16:30.94	231.09	14.36	-46.3	-49.5	21.1	6.03e-01	0	41	0	961019904	63	5431
2026-01-12 02:16:33.81	230.81	14.06	-46.3	-49.4	21.1	6.05e-01	0	41	0	966262784	63	5380
2026-01-12 02:16:37.10	230.50	13.72	-46.3	-49.5	21.1	6.02e-01	0	41	0	972554240	63	5422
2026-01-12 02:16:39.95	230.24	13.43	-46.2	-49.2	21.3	6.02e-01	0	41	0	977797120	63	5264
2026-01-12 02:16:43.08	229.96	13.12	-46.3	-49.4	21.2	6.01e-01	0	41	0	983564288	63	5346
2026-01-12 02:16:45.92	229.71	12.83	-46.4	-49.5	21.0	6.04e-01	0	41	0	988807168	63	5451
2026-01-12 02:16:49.05	229.44	12.53	-46.4	-49.6	20.9	6.03e-01	0	41	0	994574336	63	5494
2026-01-12 02:16:51.89	229.20	12.25	-46.2	-49.4	21.1	6.02e-01	0	41	0	1000341504	63	5374
2026-01-12 02:16:55.01	228.94	11.95	-46.3	-49.5	21.0	6.01e-01	0	41	0	1006108672	63	5434
2026-01-12 02:16:57.85	228.71	11.68	-46.5	-49.8	20.7	6.05e-01	0	41	0	1011351552	63	5639
2026-01-12 02:17:00.98	228.46	11.39	-46.6	-50.0	20.4	6.04e-01	0	40	0	1017118720	64	5451
2026-01-12 02:17:03.83	228.24	11.13	-46.6	-50.0	20.4	6.04e-01	0	41	0	1022361600	64	5438
2026-01-12 02:17:07.09	228.00	10.83	-46.5	-49.8	20.6	6.03e-01	0	41	0	1028653056	64	5330
2026-01-12 02:17:09.81	227.79	10.58	-46.4	-49.7	20.6	6.03e-01	0	41	0	1033895936	64	5252
2026-01-12 02:17:13.09	227.55	10.29	-46.3	-49.7	20.6	6.04e-01	0	41	0	1039663104	64	5240
2026-01-12 02:17:15.79	227.36	10.05	-46.4	-49.9	20.5	6.02e-01	0	40	0	1044905984	64	5341
2026-01-12 02:17:19.06	227.13	9.76	-46.5	-49.9	20.4	6.02e-01	0	41	0	1051197440	64	5353
2026-01-12 02:17:21.79	226.95	9.52	-46.6	-50.0	20.3	6.03e-01	0	41	0	1056440320	64	5445
2026-01-12 02:17:25.06	226.73	9.24	-46.6	-50.1	20.2	6.03e-01	0	41	0	1062207488	64	5478
2026-01-12 02:17:27.78	226.55	9.01	-49.7	-55.5	16.0	6.04e-01	0	41	0	1067450368	69	7710
2026-01-12 02:17:31.04	226.34	8.74	-51.7	-72.0	3.8	7.47e-01	0	41	104	1067974656	74	38417
2026-01-12 02:17:33.74	226.17	8.51	-52.3	-72.2	3.8	7.47e-01	0	40	104	1067974656	75	37276
2026-01-12 02:17:37.00	225.97	8.24	-52.1	-72.3	3.8	7.47e-01	0	41	104	1067974656	75	37510
2026-01-12 02:17:39.71	225.80	8.02	-52.0	-72.3	3.8	7.49e-01	0	41	104	1067974656	75	37417
2026-01-12 02:17:42.99	225.60	7.75	-51.9	-72.3	3.8	7.43e-01	0	41	104	1067974656	75	37424
2026-01-12 02:17:45.69	225.45	7.54	-51.9	-72.3	3.8	7.46e-01	0	41	104	1067974656	75	37424
2026-01-12 02:17:48.97	225.26	7.28	-51.8	-72.2	3.8	7.46e-01	0	40	104	1067974656	75	37233
2026-01-12 02:17:51.66	225.10	7.06	-51.8	-72.2	3.8	7.47e-01	0	41	104	1067974656	75	37128
2026-01-12 02:17:54.94	224.92	6.81	-51.8	-72.2	3.8	7.46e-01	0	41	104	1067974656	75	37171
2026-01-12 02:17:57.64	224.78	6.60	-51.8	-72.2	3.8	7.47e-01	0	41	104	1067974656	75	37140
2026-01-12 02:18:00.92	224.60	6.35	-51.8	-72.2	3.8	7.46e-01	0	41	104	1067974656	75	37035
2026-01-12 02:18:03.62	224.46	6.14	-51.8	-72.2	3.8	7.43e-01	0	41	104	1067974656	75	37067
2026-01-12 02:18:06.88	224.29	5.90	-51.8	-72.2	3.8	7.45e-01	0	41	104	1067974656	75	36993
2026-01-12 02:18:09.63	224.15	5.69	-51.7	-72.1	3.8	7.45e-01	0	41	104	1067974656	75	36914
2026-01-12 02:18:12.90	223.99	5.45	-51.7	-72.2	3.8	7.47e-01	0	41	104	1067974656	75	37014
2026-01-12 02:18:15.60	223.85	5.25	-51.7	-72.2	3.8	7.48e-01	0	41	104	1067974656	75	37011
2026-01-12 02:18:18.88	223.70	5.01	-51.7	-72.1	3.8	7.44e-01	0	41	104	1067974656	75	36943

#Closed at: 2026-01-12 02:18:20
#Recorded file [1067 MB]: D:/Data/31040_260112_050726.dat