passes_logs/2026/01/12/T1/T1__20260112_120514_SUOMI_NPP_rec.log

#Pass ID: 20260112_120514_SUOMI NPP
#Satellite: SUOMI NPP
#Configuration: NPP
#almurnet v.1.7.20251203
#Start time: 2026-01-12 12:05:14

#Version: 2.0.20230620
#Station: T1
#Location: 37.570604 lon 55.790049 lat
#TLE: 1 37849U 11061A   26011.93213985  .00000107  00000+0  71660-4 0  9991
#TLE: 2 37849  98.7807 314.0072 0002512  68.9429 291.2016 14.19524668736279

#Time	Az	El	Level	Level2	SNR	BER	BlckErr	Temp	State	Recorded	gain1	gain2
2026-01-12 12:05:14.29	231.91	4.98	-51.9	-67.0	3.8	1.49e+00	0	37	0	0	75	20350
2026-01-12 12:05:16.28	232.14	5.08	-51.9	-67.0	3.8	1.49e+00	0	38	104	0	75	20405
2026-01-12 12:05:18.26	232.37	5.17	-51.8	-66.9	3.8	1.49e+00	0	38	104	0	75	20296
2026-01-12 12:05:20.25	232.60	5.26	-51.8	-67.0	3.8	1.49e+00	0	38	104	0	75	20308
2026-01-12 12:05:22.24	232.83	5.36	-51.9	-67.0	3.8	1.49e+00	0	38	104	0	75	20427
2026-01-12 12:05:24.22	233.07	5.45	-51.8	-67.0	3.8	1.49e+00	0	38	104	0	75	20311
2026-01-12 12:05:26.21	233.30	5.55	-51.8	-67.0	3.8	1.49e+00	0	38	104	0	75	20312
2026-01-12 12:05:28.19	233.54	5.64	-51.8	-67.0	3.8	1.49e+00	0	38	104	0	75	20343
2026-01-12 12:05:30.18	233.78	5.73	-51.8	-66.9	3.8	1.49e+00	0	38	104	0	75	20300
2026-01-12 12:05:32.17	234.01	5.83	-51.8	-66.9	3.8	1.49e+00	0	38	104	0	75	20248
2026-01-12 12:05:34.15	234.25	5.92	-51.8	-66.9	3.8	1.49e+00	0	38	104	0	75	20208
2026-01-12 12:05:36.14	234.50	6.01	-51.8	-66.9	3.8	1.49e+00	0	38	104	0	75	20216
2026-01-12 12:05:38.13	234.74	6.11	-51.8	-67.0	3.8	1.49e+00	0	39	104	0	75	20375
2026-01-12 12:05:40.11	234.99	6.20	-51.8	-67.0	3.8	1.49e+00	0	38	104	0	75	20306
2026-01-12 12:05:42.10	235.23	6.29	-51.8	-66.9	3.8	1.49e+00	0	38	104	0	75	20165
2026-01-12 12:05:44.08	235.48	6.39	-51.8	-66.8	3.8	1.49e+00	0	39	104	0	75	20067
2026-01-12 12:05:46.07	235.73	6.48	-51.8	-66.8	3.8	1.49e+00	0	39	104	0	75	20039
2026-01-12 12:05:48.05	235.98	6.57	-51.8	-66.8	3.8	1.49e+00	0	38	104	0	75	20070
2026-01-12 12:05:50.04	236.24	6.66	-51.8	-66.9	3.8	1.49e+00	0	39	104	0	75	20176
2026-01-12 12:05:52.03	236.49	6.76	-51.8	-66.9	3.8	1.49e+00	0	39	104	0	75	20265
2026-01-12 12:05:54.01	236.75	6.85	-51.8	-66.9	3.8	1.49e+00	0	39	104	0	75	20282
2026-01-12 12:05:56.00	237.00	6.94	-51.8	-66.9	3.8	1.49e+00	0	39	104	0	75	20239
2026-01-12 12:05:57.99	237.26	7.03	-51.8	-66.9	3.8	1.49e+00	0	39	104	0	75	20074
2026-01-12 12:05:59.97	237.52	7.12	-51.8	-66.8	3.8	1.49e+00	0	39	104	0	75	19873
2026-01-12 12:06:01.96	237.79	7.22	-51.8	-66.7	3.8	1.49e+00	0	39	104	0	75	19802
2026-01-12 12:06:03.95	238.05	7.31	-51.8	-66.7	3.8	1.49e+00	0	39	104	0	75	19727
2026-01-12 12:06:05.93	238.32	7.40	-51.8	-66.5	3.8	1.49e+00	0	39	104	0	75	19341
2026-01-12 12:06:07.92	238.58	7.49	-51.8	-66.6	3.8	1.49e+00	0	39	104	0	75	19503
2026-01-12 12:06:09.91	238.85	7.58	-51.8	-66.8	3.8	1.49e+00	0	39	104	0	75	19868
2026-01-12 12:06:11.89	239.12	7.67	-51.8	-66.5	3.8	1.49e+00	0	39	104	0	75	19322
2026-01-12 12:06:13.88	239.40	7.76	-51.8	-66.6	3.8	1.49e+00	0	39	104	0	75	19410
2026-01-12 12:06:15.87	239.67	7.85	-51.8	-66.8	3.8	1.49e+00	0	39	104	0	75	19961
2026-01-12 12:06:17.85	239.94	7.94	-51.8	-66.6	3.8	1.49e+00	0	39	104	0	75	19591
2026-01-12 12:06:19.84	240.22	8.03	-51.8	-66.3	3.8	1.49e+00	0	39	104	0	75	18889
2026-01-12 12:06:21.83	240.50	8.12	-51.8	-66.0	3.8	1.49e+00	0	39	104	0	75	18103
2026-01-12 12:06:23.81	240.78	8.21	-51.8	-65.8	3.8	1.49e+00	0	40	104	0	75	17841
2026-01-12 12:06:25.80	241.06	8.30	-51.7	-65.0	3.8	1.49e+00	0	40	104	0	75	16179
2026-01-12 12:06:27.79	241.35	8.39	-51.7	-64.8	3.8	1.48e+00	0	39	104	0	75	15829
2026-01-12 12:06:29.78	241.63	8.48	-51.8	-66.6	3.8	1.49e+00	0	39	104	0	75	19549
2026-01-12 12:06:31.76	241.92	8.56	-51.1	-59.8	6.0	6.08e-01	0	40	0	1048576	74	9409
2026-01-12 12:06:33.75	242.21	8.65	-49.4	-54.2	11.4	5.87e-03	0	40	0	4194304	70	6256
2026-01-12 12:06:35.74	242.50	8.74	-48.0	-51.6	14.1	5.30e-06	0	40	0	8388608	68	5177
2026-01-12 12:06:37.72	242.79	8.83	-47.6	-51.1	14.4	1.50e-06	0	40	0	11534336	67	5188
2026-01-12 12:06:39.71	243.08	8.91	-48.5	-52.6	12.9	1.90e-05	0	40	0	15728640	67	6166
2026-01-12 12:06:41.70	243.38	9.00	-49.9	-55.3	10.3	3.96e-03	0	40	0	18874368	70	7098
2026-01-12 12:06:43.69	243.68	9.09	-49.6	-54.7	7.8	1.49e+00	0	40	104	20971520	71	6260
2026-01-12 12:06:45.72	243.98	9.17	-49.5	-54.4	11.3	5.15e-02	0	40	0	24117248	71	5997
2026-01-12 12:06:47.70	244.28	9.26	-49.6	-54.6	10.8	3.58e-01	0	40	0	27262976	71	6191
2026-01-12 12:06:49.83	244.61	9.35	-48.7	-52.8	12.9	7.62e-05	0	40	0	31457280	69	5643
2026-01-12 12:06:51.84	244.92	9.43	-48.6	-52.6	13.1	3.43e-05	0	40	0	35651584	69	5505
2026-01-12 12:06:53.94	245.24	9.52	-48.5	-52.4	13.3	3.12e-05	0	40	0	38797312	68	5695
2026-01-12 12:06:56.12	245.58	9.62	-48.4	-52.3	13.5	1.22e-05	0	40	0	42991616	68	5611
2026-01-12 12:06:58.14	245.89	9.70	-48.2	-51.9	13.9	3.00e-06	0	40	0	47185920	68	5359
2026-01-12 12:07:00.13	246.20	9.78	-47.7	-51.2	14.4	0.00e+00	0	40	0	51380224	67	5241
2026-01-12 12:07:02.15	246.52	9.87	-47.5	-50.9	14.7	0.00e+00	0	40	0	54525952	66	5346
2026-01-12 12:07:04.14	246.84	9.95	-47.5	-50.9	14.7	0.00e+00	0	40	0	58720256	66	5372
2026-01-12 12:07:06.13	247.15	10.03	-47.8	-51.3	14.3	0.00e+00	0	40	0	61865984	66	5650
2026-01-12 12:07:08.20	247.48	10.11	-48.0	-51.7	14.0	3.80e-06	0	40	0	66060288	66	5882
2026-01-12 12:07:10.19	247.81	10.19	-47.7	-51.2	14.5	0.00e+00	0	40	0	70254592	66	5538
2026-01-12 12:07:12.46	248.17	10.28	-47.7	-51.1	14.5	1.50e-06	0	40	0	74448896	66	5512
2026-01-12 12:07:14.48	248.50	10.36	-47.5	-50.8	14.8	0.00e+00	0	40	0	77594624	66	5333
2026-01-12 12:07:16.55	248.84	10.45	-47.6	-51.0	14.6	1.50e-06	0	40	0	81788928	66	5446
2026-01-12 12:07:18.56	249.17	10.52	-47.7	-51.3	14.3	1.50e-06	0	40	0	85983232	66	5646
2026-01-12 12:07:20.56	249.50	10.60	-47.9	-51.6	14.1	0.00e+00	0	40	0	89128960	66	5797
2026-01-12 12:07:22.55	249.83	10.68	-47.8	-51.4	14.3	1.50e-06	0	40	0	93323264	66	5669
2026-01-12 12:07:24.59	250.17	10.76	-47.8	-51.4	14.2	2.20e-06	0	40	0	96468992	66	5702
2026-01-12 12:07:26.80	250.55	10.84	-47.8	-51.5	14.2	2.20e-06	0	40	0	100663296	66	5726
2026-01-12 12:07:29.01	250.92	10.92	-47.8	-51.4	14.3	7.00e-07	0	40	0	104857600	66	5670
2026-01-12 12:07:31.29	251.31	11.01	-48.1	-51.8	13.9	1.50e-06	0	40	0	109051904	66	5938
2026-01-12 12:07:33.55	251.69	11.09	-48.0	-51.7	14.0	3.80e-06	0	40	0	113246208	66	5865
2026-01-12 12:07:35.82	252.08	11.17	-48.1	-51.8	13.8	4.50e-06	0	40	0	117440512	66	5983
2026-01-12 12:07:38.10	252.48	11.26	-48.2	-52.0	13.7	1.14e-05	0	40	0	121634816	67	5761
2026-01-12 12:07:40.42	252.88	11.34	-48.2	-52.0	13.7	6.80e-06	0	40	0	126877696	67	5754
2026-01-12 12:07:42.69	253.27	11.42	-48.1	-51.9	13.7	7.60e-06	0	40	0	131072000	67	5702
2026-01-12 12:07:44.92	253.67	11.49	-48.2	-52.0	13.7	9.10e-06	0	40	0	135266304	67	5729
2026-01-12 12:07:46.97	254.03	11.56	-48.3	-52.2	13.5	9.10e-06	0	40	0	138412032	67	5906
2026-01-12 12:07:48.98	254.38	11.63	-48.3	-52.3	13.3	1.29e-05	0	40	0	142606336	67	5974
2026-01-12 12:07:51.00	254.74	11.70	-48.3	-52.4	13.3	1.29e-05	0	40	0	146800640	67	5995
2026-01-12 12:07:52.99	255.10	11.77	-48.2	-52.2	13.5	9.90e-06	0	40	0	149946368	67	5879
2026-01-12 12:07:54.99	255.46	11.83	-48.3	-52.2	13.5	9.90e-06	0	40	0	154140672	67	5888
2026-01-12 12:07:56.98	255.82	11.90	-48.3	-52.2	13.5	1.37e-05	0	40	0	157286400	67	5860
2026-01-12 12:07:59.09	256.20	11.96	-48.4	-52.4	13.3	1.44e-05	0	40	0	161480704	67	5998
2026-01-12 12:08:01.21	256.58	12.03	-48.2	-52.0	13.7	7.60e-06	0	40	0	165675008	67	5737
2026-01-12 12:08:03.21	256.95	12.09	-48.1	-51.9	13.8	4.50e-06	0	40	0	168820736	67	5676
2026-01-12 12:08:05.46	257.36	12.16	-48.0	-51.7	14.0	5.30e-06	0	40	0	173015040	67	5558
2026-01-12 12:08:07.46	257.73	12.22	-48.1	-52.0	13.8	4.50e-06	0	40	0	177209344	67	5726
2026-01-12 12:08:09.46	258.10	12.28	-48.2	-52.1	13.6	8.30e-06	0	40	0	181403648	67	5831
2026-01-12 12:08:11.49	258.48	12.34	-48.3	-52.2	13.5	9.90e-06	0	40	0	184549376	67	5876
2026-01-12 12:08:13.48	258.85	12.39	-48.1	-51.9	13.8	5.30e-06	0	40	0	188743680	67	5692
2026-01-12 12:08:15.50	259.22	12.45	-48.2	-52.2	13.5	1.37e-05	0	40	0	191889408	67	5916
2026-01-12 12:08:17.52	259.60	12.51	-48.1	-51.9	13.8	3.00e-06	0	40	0	196083712	67	5700
2026-01-12 12:08:19.51	259.98	12.56	-48.0	-51.7	14.1	2.20e-06	0	40	0	200278016	67	5550
2026-01-12 12:08:21.75	260.40	12.62	-47.9	-51.5	14.1	1.50e-06	0	40	0	204472320	67	5460
2026-01-12 12:08:23.74	260.78	12.67	-47.6	-51.1	14.6	0.00e+00	0	40	0	207618048	67	5182
2026-01-12 12:08:25.73	261.16	12.72	-47.4	-50.8	14.9	7.00e-07	0	40	0	211812352	66	5305
2026-01-12 12:08:27.72	261.54	12.77	-47.3	-50.6	15.1	0.00e+00	0	40	0	214958080	66	5186
2026-01-12 12:08:29.70	261.92	12.82	-47.4	-50.7	15.0	0.00e+00	0	40	0	219152384	66	5251
2026-01-12 12:08:31.63	262.29	12.86	-47.6	-51.0	14.7	0.00e+00	0	40	0	222298112	66	5443
2026-01-12 12:08:33.68	262.68	12.91	-47.8	-51.4	14.3	2.20e-06	0	40	0	226492416	66	5700
2026-01-12 12:08:35.88	263.11	12.96	-47.6	-51.1	14.6	7.00e-07	0	40	0	230686720	66	5511
2026-01-12 12:08:37.86	263.49	13.01	-47.2	-50.5	15.2	0.00e+00	0	40	0	233832448	66	5127
2026-01-12 12:08:39.96	263.90	13.05	-47.1	-50.4	15.3	0.00e+00	0	40	0	238026752	65	5346
2026-01-12 12:08:41.95	264.29	13.09	-47.5	-50.9	14.8	0.00e+00	0	40	0	242221056	65	5667
2026-01-12 12:08:43.95	264.68	13.13	-47.6	-51.0	14.7	7.00e-07	0	40	0	245366784	65	5748
2026-01-12 12:08:45.94	265.07	13.17	-47.4	-50.6	15.1	0.00e+00	0	40	0	249561088	65	5518
2026-01-12 12:08:47.93	265.46	13.21	-47.3	-50.4	15.4	9.90e-06	0	40	0	252706816	66	5080
2026-01-12 12:08:50.02	265.87	13.25	-47.2	-50.5	15.2	0.00e+00	0	40	0	256901120	66	5118
2026-01-12 12:08:52.01	266.27	13.29	-47.8	-51.3	14.4	7.00e-07	0	40	0	261095424	66	5624
2026-01-12 12:08:54.00	266.66	13.32	-47.9	-51.5	14.2	1.50e-06	0	40	0	264241152	66	5776
2026-01-12 12:08:56.32	267.12	13.36	-47.6	-50.9	14.8	0.00e+00	0	40	0	268435456	66	5398
2026-01-12 12:08:58.31	267.52	13.39	-47.8	-51.3	14.4	7.00e-07	0	40	0	272629760	66	5625
2026-01-12 12:09:00.30	267.91	13.42	-48.5	-52.6	13.2	1.22e-05	0	40	0	275775488	67	6133
2026-01-12 12:09:02.30	268.31	13.45	-49.2	-53.7	12.2	1.13e-04	0	40	0	279969792	69	6216
2026-01-12 12:09:04.37	268.73	13.48	-48.6	-52.6	13.3	1.98e-05	0	40	0	284164096	69	5483
2026-01-12 12:09:06.42	269.14	13.51	-48.0	-51.7	14.3	2.20e-06	0	40	0	287309824	68	5224
2026-01-12 12:09:08.46	269.55	13.54	-48.2	-51.9	14.1	1.50e-06	0	40	0	291504128	68	5350
2026-01-12 12:09:10.45	269.95	13.56	-48.5	-52.3	13.5	6.10e-06	0	40	0	295698432	68	5650
2026-01-12 12:09:12.58	270.38	13.59	-48.4	-52.3	13.6	9.10e-06	0	40	0	298844160	68	5628
2026-01-12 12:09:14.58	270.78	13.61	-48.0	-51.6	14.3	7.00e-07	0	40	0	303038464	68	5199
2026-01-12 12:09:16.57	271.18	13.63	-47.9	-51.4	14.3	4.50e-06	0	40	0	307232768	67	5402
2026-01-12 12:09:18.59	271.59	13.65	-48.1	-51.7	14.0	2.20e-06	0	40	0	310378496	67	5574
2026-01-12 12:09:20.56	271.99	13.67	-48.2	-52.0	13.8	1.50e-06	0	40	0	314572800	67	5725
2026-01-12 12:09:22.56	272.40	13.69	-47.8	-51.3	14.5	1.50e-06	0	40	0	317718528	67	5286
2026-01-12 12:09:24.54	272.80	13.70	-47.4	-50.6	15.1	0.00e+00	0	40	0	321912832	66	5197
2026-01-12 12:09:26.54	273.21	13.71	-47.4	-50.7	15.0	0.00e+00	0	40	0	325058560	66	5235
2026-01-12 12:09:28.53	273.61	13.73	-47.8	-51.2	14.5	0.00e+00	0	40	0	329252864	66	5585
2026-01-12 12:09:30.52	274.02	13.74	-47.8	-51.3	14.4	0.00e+00	0	40	0	332398592	66	5625
2026-01-12 12:09:32.65	274.45	13.75	-47.3	-50.5	15.2	0.00e+00	0	40	0	336592896	66	5157
2026-01-12 12:09:34.83	274.89	13.76	-46.8	-49.9	15.8	0.00e+00	0	40	0	340787200	65	5062
2026-01-12 12:09:36.82	275.30	13.77	-46.8	-49.9	15.8	0.00e+00	0	40	0	344981504	65	5050
2026-01-12 12:09:38.83	275.71	13.77	-47.1	-50.2	15.5	0.00e+00	0	40	0	348127232	65	5267
2026-01-12 12:09:40.85	276.12	13.78	-47.1	-50.4	15.3	0.00e+00	0	40	0	352321536	65	5342
2026-01-12 12:09:42.84	276.53	13.78	-47.2	-50.4	15.3	0.00e+00	0	40	0	355467264	65	5379
2026-01-12 12:09:44.83	276.93	13.78	-47.4	-50.7	15.1	0.00e+00	0	40	0	359661568	65	5535
2026-01-12 12:09:46.83	277.34	13.79	-47.4	-50.7	15.0	7.00e-07	0	40	0	363855872	65	5568
2026-01-12 12:09:49.10	277.81	13.78	-47.2	-50.5	15.2	0.00e+00	0	40	0	368050176	65	5432
2026-01-12 12:09:51.10	278.21	13.78	-47.2	-50.4	15.2	0.00e+00	0	40	0	371195904	65	5376
2026-01-12 12:09:53.09	278.62	13.78	-47.4	-50.6	15.1	0.00e+00	0	40	0	375390208	65	5509
2026-01-12 12:09:55.09	279.03	13.77	-47.5	-50.8	14.9	0.00e+00	0	40	0	378535936	65	5625
2026-01-12 12:09:57.08	279.43	13.77	-47.5	-50.8	14.9	0.00e+00	0	40	0	382730240	65	5639
2026-01-12 12:09:59.07	279.84	13.76	-47.3	-50.5	15.2	0.00e+00	0	40	0	386924544	65	5454
2026-01-12 12:10:01.01	280.24	13.75	-47.3	-50.6	15.1	0.00e+00	0	40	0	390070272	65	5482
2026-01-12 12:10:03.24	280.69	13.74	-47.5	-50.9	14.8	7.00e-07	0	40	0	394264576	65	5683
2026-01-12 12:10:05.23	281.09	13.73	-47.4	-50.7	15.1	0.00e+00	0	40	0	398458880	65	5555
2026-01-12 12:10:07.22	281.50	13.72	-47.1	-50.3	15.4	0.00e+00	0	40	0	401604608	65	5313
2026-01-12 12:10:09.21	281.90	13.70	-47.1	-50.3	15.4	0.00e+00	0	40	0	405798912	65	5283
2026-01-12 12:10:11.23	282.31	13.69	-47.2	-50.4	15.3	0.00e+00	0	40	0	408944640	65	5358
2026-01-12 12:10:13.21	282.71	13.67	-47.2	-50.4	15.3	0.00e+00	0	40	0	413138944	65	5367
2026-01-12 12:10:15.30	283.14	13.65	-47.1	-50.2	15.5	0.00e+00	0	40	0	417333248	65	5276
2026-01-12 12:10:17.29	283.54	13.63	-46.6	-49.5	16.1	0.00e+00	0	40	0	420478976	65	4870
2026-01-12 12:10:19.28	283.94	13.61	-46.5	-49.3	16.4	0.00e+00	0	40	0	424673280	64	5035
2026-01-12 12:10:21.49	284.39	13.59	-46.6	-49.5	16.2	0.00e+00	0	40	0	428867584	64	5143
2026-01-12 12:10:23.48	284.79	13.57	-46.7	-49.7	16.0	0.00e+00	0	40	0	432013312	64	5260
2026-01-12 12:10:25.76	285.24	13.54	-46.7	-49.7	16.0	0.00e+00	0	40	0	436207616	64	5231
2026-01-12 12:10:27.85	285.66	13.51	-46.9	-50.0	15.7	0.00e+00	0	40	0	440401920	64	5422
2026-01-12 12:10:29.84	286.06	13.48	-47.1	-50.2	15.5	0.00e+00	0	40	0	444596224	64	5579
2026-01-12 12:10:31.83	286.46	13.46	-47.2	-50.3	15.3	0.00e+00	0	40	0	447741952	65	5324
2026-01-12 12:10:33.83	286.86	13.43	-47.3	-50.5	15.3	0.00e+00	0	40	0	451936256	65	5416
2026-01-12 12:10:35.82	287.25	13.39	-47.1	-50.2	15.5	0.00e+00	0	40	0	455081984	65	5247
2026-01-12 12:10:37.83	287.65	13.36	-47.0	-50.1	15.5	0.00e+00	0	40	0	459276288	65	5200
2026-01-12 12:10:39.82	288.05	13.33	-47.2	-50.3	15.4	0.00e+00	0	40	0	462422016	65	5327
2026-01-12 12:10:41.82	288.44	13.29	-47.2	-50.5	15.1	0.00e+00	0	40	0	466616320	65	5443
2026-01-12 12:10:43.81	288.83	13.26	-47.2	-50.5	15.2	0.00e+00	0	40	0	470810624	65	5416
2026-01-12 12:10:45.80	289.23	13.22	-47.0	-50.1	15.5	0.00e+00	0	40	0	473956352	65	5213
2026-01-12 12:10:47.78	289.61	13.18	-46.9	-50.0	15.6	0.00e+00	0	40	0	478150656	65	5146
2026-01-12 12:10:49.77	290.00	13.15	-46.9	-50.0	15.7	0.00e+00	0	40	0	481296384	65	5106
2026-01-12 12:10:51.76	290.39	13.11	-46.9	-49.9	15.7	0.00e+00	0	40	0	485490688	65	5093
2026-01-12 12:10:53.75	290.78	13.06	-46.8	-49.8	15.9	0.00e+00	0	40	0	488636416	65	4996
2026-01-12 12:10:55.87	291.19	13.02	-46.8	-49.8	15.9	0.00e+00	0	40	0	492830720	65	4984
2026-01-12 12:10:58.03	291.61	12.97	-46.7	-49.7	15.9	0.00e+00	0	40	0	497025024	65	4961
2026-01-12 12:11:00.24	292.03	12.92	-46.7	-49.6	16.0	0.00e+00	0	40	0	501219328	65	4890
2026-01-12 12:11:02.23	292.42	12.88	-46.6	-49.6	16.1	0.00e+00	0	40	0	504365056	65	4873
2026-01-12 12:11:04.23	292.80	12.83	-46.8	-49.8	15.8	0.00e+00	0	40	0	508559360	65	5033
2026-01-12 12:11:06.22	293.18	12.78	-46.7	-49.7	15.9	0.00e+00	0	40	0	512753664	65	4966
2026-01-12 12:11:08.25	293.57	12.73	-46.7	-49.7	15.9	0.00e+00	0	40	0	515899392	65	4959
2026-01-12 12:11:10.27	293.95	12.68	-46.9	-49.9	15.7	0.00e+00	0	40	0	520093696	65	5088
2026-01-12 12:11:12.26	294.33	12.63	-47.2	-50.3	15.3	0.00e+00	0	40	0	523239424	65	5326
2026-01-12 12:11:14.26	294.70	12.58	-47.1	-50.3	15.4	0.00e+00	0	40	0	527433728	65	5283
2026-01-12 12:11:16.25	295.08	12.52	-46.9	-50.0	15.7	0.00e+00	0	40	0	531628032	65	5111
2026-01-12 12:11:18.24	295.45	12.47	-46.8	-49.8	15.8	0.00e+00	0	40	0	534773760	65	5017
2026-01-12 12:11:20.23	295.82	12.41	-46.7	-49.6	16.0	0.00e+00	0	40	0	538968064	65	4923
2026-01-12 12:11:22.30	296.20	12.35	-46.8	-49.8	15.9	0.00e+00	0	40	0	542113792	65	4987
2026-01-12 12:11:24.29	296.57	12.30	-46.8	-49.8	15.8	0.00e+00	0	40	0	546308096	65	5014
2026-01-12 12:11:26.41	296.96	12.24	-46.6	-49.6	16.0	0.00e+00	0	40	0	550502400	65	4875
2026-01-12 12:11:28.40	297.33	12.18	-46.5	-49.4	16.2	0.00e+00	0	40	0	553648128	65	4791
2026-01-12 12:11:30.38	297.69	12.12	-46.5	-49.4	16.2	0.00e+00	0	40	0	557842432	65	4809
2026-01-12 12:11:32.37	298.05	12.06	-46.5	-49.4	16.2	0.00e+00	0	40	0	560988160	65	4794
2026-01-12 12:11:34.36	298.41	11.99	-46.6	-49.6	16.0	0.00e+00	0	40	0	565182464	64	5168
2026-01-12 12:11:36.35	298.77	11.93	-46.7	-49.7	15.9	0.00e+00	0	40	0	569376768	64	5271
2026-01-12 12:11:38.34	299.13	11.87	-46.9	-49.9	15.7	0.00e+00	0	40	0	572522496	64	5376
2026-01-12 12:11:40.33	299.49	11.81	-47.0	-50.1	15.5	0.00e+00	0	40	0	576716800	64	5503
2026-01-12 12:11:42.32	299.84	11.74	-46.8	-49.9	15.7	0.00e+00	0	40	0	579862528	64	5353
2026-01-12 12:11:44.31	300.20	11.67	-46.8	-49.8	15.8	0.00e+00	0	40	0	584056832	64	5314
2026-01-12 12:11:46.30	300.55	11.61	-46.7	-49.7	15.9	0.00e+00	0	40	0	587202560	64	5250
2026-01-12 12:11:48.48	300.93	11.53	-46.7	-49.7	15.8	0.00e+00	0	40	0	591396864	64	5266
2026-01-12 12:11:50.47	301.28	11.47	-46.9	-49.9	15.6	0.00e+00	0	40	0	595591168	64	5398
2026-01-12 12:11:52.74	301.67	11.39	-47.0	-50.1	15.4	0.00e+00	0	40	0	599785472	64	5491
2026-01-12 12:11:54.74	302.02	11.32	-47.1	-50.3	15.3	0.00e+00	0	40	0	602931200	64	5601
2026-01-12 12:11:56.74	302.37	11.25	-47.3	-50.6	15.0	7.00e-07	0	40	0	607125504	65	5486
2026-01-12 12:11:58.74	302.71	11.18	-47.4	-50.8	14.7	0.00e+00	0	40	0	610271232	65	5652
2026-01-12 12:12:00.72	303.05	11.10	-47.5	-51.0	14.6	7.00e-07	0	40	0	614465536	65	5742
2026-01-12 12:12:02.72	303.39	11.03	-47.6	-51.2	14.3	7.00e-07	0	40	0	618659840	65	5920
2026-01-12 12:12:04.77	303.74	10.96	-47.8	-51.4	14.2	1.50e-06	0	40	0	621805568	66	5682
2026-01-12 12:12:06.76	304.07	10.88	-47.6	-51.1	14.5	7.00e-07	0	40	0	625999872	66	5493
2026-01-12 12:12:08.72	304.40	10.81	-47.5	-50.9	14.6	7.00e-07	0	40	0	629145600	66	5398
2026-01-12 12:12:10.90	304.76	10.73	-47.6	-51.0	14.5	7.00e-07	0	40	0	633339904	66	5456
2026-01-12 12:12:13.10	305.13	10.64	-47.9	-51.6	14.0	1.50e-06	0	40	0	637534208	66	5826
2026-01-12 12:12:15.09	305.45	10.57	-48.4	-52.4	13.2	1.52e-05	0	40	0	641728512	67	6016
2026-01-12 12:12:17.17	305.80	10.49	-48.6	-52.9	12.7	6.94e-05	0	40	0	644874240	67	6369
2026-01-12 12:12:19.16	306.12	10.41	-48.5	-52.7	12.8	6.40e-05	0	40	0	649068544	67	6265
2026-01-12 12:12:21.15	306.44	10.33	-48.1	-52.1	13.4	1.22e-05	0	40	0	653262848	67	5837
2026-01-12 12:12:23.19	306.77	10.25	-48.1	-52.4	13.2	1.98e-05	0	40	0	656408576	67	6000
2026-01-12 12:12:25.26	307.11	10.17	-48.5	-52.9	12.6	3.96e-05	0	40	0	660602880	67	6372
2026-01-12 12:12:27.24	307.42	10.09	-48.5	-52.9	12.6	5.34e-05	0	40	0	664797184	67	6381
2026-01-12 12:12:29.23	307.74	10.01	-48.3	-52.7	12.8	4.80e-05	0	40	0	667942912	67	6255
2026-01-12 12:12:31.29	308.06	9.92	-48.2	-52.2	13.3	1.37e-05	0	40	0	672137216	67	5866
2026-01-12 12:12:33.48	308.41	9.84	-48.2	-52.3	13.3	1.37e-05	0	40	0	676331520	67	5931
2026-01-12 12:12:35.56	308.73	9.75	-48.5	-52.8	12.7	3.96e-05	0	40	0	679477248	67	6328
2026-01-12 12:12:37.57	309.05	9.67	-48.6	-52.8	12.7	9.61e-05	0	40	0	683671552	67	6327
2026-01-12 12:12:39.57	309.35	9.58	-48.6	-53.0	12.5	8.08e-05	0	40	0	687865856	67	6446
2026-01-12 12:12:41.59	309.66	9.50	-48.5	-53.0	12.6	7.78e-05	0	40	0	691011584	67	6426
2026-01-12 12:12:43.60	309.97	9.42	-48.8	-53.2	12.5	1.51e-04	0	40	0	695205888	68	6224
2026-01-12 12:12:45.78	310.30	9.32	-48.6	-53.0	12.6	8.69e-05	0	40	0	699400192	68	6105
2026-01-12 12:12:47.97	310.63	9.23	-48.8	-53.2	12.5	1.19e-04	0	40	0	703594496	68	6215
2026-01-12 12:12:50.23	310.97	9.13	-48.8	-53.3	12.4	1.98e-04	0	40	0	707788800	68	6284
2026-01-12 12:12:52.42	311.30	9.04	-48.7	-53.2	12.4	1.64e-04	0	40	0	710934528	68	6241
2026-01-12 12:12:54.69	311.63	8.94	-51.9	-66.9	3.8	1.49e+00	0	40	104	714080256	74	21352
2026-01-12 12:12:56.96	311.97	8.84	-52.3	-67.4	3.8	1.49e+00	0	40	104	714080256	75	21359
2026-01-12 12:12:59.23	312.30	8.75	-52.2	-67.5	3.8	1.49e+00	0	40	104	714080256	75	21671
2026-01-12 12:13:01.55	312.64	8.65	-52.4	-67.6	3.8	1.49e+00	0	40	104	714080256	75	21887
2026-01-12 12:13:03.95	312.98	8.54	-52.5	-67.6	3.8	1.49e+00	0	40	104	714080256	75	21989
2026-01-12 12:13:06.14	313.30	8.44	-52.4	-67.6	3.8	1.49e+00	0	40	104	714080256	75	21903
2026-01-12 12:13:08.31	313.61	8.35	-52.5	-67.7	3.8	1.49e+00	0	40	104	714080256	75	22016
2026-01-12 12:13:10.63	313.93	8.25	-52.4	-67.6	3.8	1.49e+00	0	40	104	714080256	75	21960
2026-01-12 12:13:12.90	314.25	8.14	-52.4	-67.6	3.8	1.49e+00	0	40	104	714080256	75	21852
2026-01-12 12:13:15.17	314.57	8.04	-52.3	-67.6	3.8	1.49e+00	0	40	104	714080256	75	21833
2026-01-12 12:13:17.47	314.89	7.94	-52.3	-67.6	3.8	1.49e+00	0	40	104	714080256	75	21808
2026-01-12 12:13:19.74	315.20	7.84	-52.3	-67.6	3.8	1.49e+00	0	40	104	714080256	75	21832
2026-01-12 12:13:22.02	315.51	7.74	-52.3	-67.6	3.8	1.49e+00	0	40	104	714080256	75	21845
2026-01-12 12:13:24.29	315.82	7.63	-52.3	-67.6	3.8	1.49e+00	0	40	104	714080256	75	21769
2026-01-12 12:13:26.56	316.13	7.53	-52.3	-67.6	3.8	1.49e+00	0	40	104	714080256	75	21795
2026-01-12 12:13:28.83	316.43	7.43	-52.3	-67.6	3.8	1.49e+00	0	40	104	714080256	75	21829
2026-01-12 12:13:31.10	316.73	7.33	-52.3	-67.6	3.8	1.49e+00	0	40	104	714080256	75	21825
2026-01-12 12:13:33.37	317.03	7.22	-52.3	-67.5	3.8	1.49e+00	0	40	104	714080256	75	21750
2026-01-12 12:13:35.64	317.33	7.12	-52.3	-67.5	3.8	1.49e+00	0	40	104	714080256	75	21661
2026-01-12 12:13:37.91	317.63	7.01	-52.3	-67.6	3.8	1.49e+00	0	40	104	714080256	75	21861
2026-01-12 12:13:40.18	317.92	6.91	-52.3	-67.6	3.8	1.49e+00	0	40	104	714080256	75	21762
2026-01-12 12:13:42.45	318.21	6.81	-52.3	-67.6	3.8	1.49e+00	0	40	104	714080256	75	21756
2026-01-12 12:13:44.72	318.50	6.70	-52.2	-67.5	3.8	1.49e+00	0	40	104	714080256	75	21719
2026-01-12 12:13:46.99	318.79	6.60	-52.3	-67.5	3.8	1.49e+00	0	40	104	714080256	75	21705
2026-01-12 12:13:49.26	319.07	6.49	-52.3	-67.5	3.8	1.49e+00	0	40	104	714080256	75	21749