passes_logs/2026/01/12/T1/T1__20260112_144721_FENGYUN_3E_rec.log

#Pass ID: 20260112_144721_FENGYUN 3E
#Satellite: FENGYUN 3E
#Configuration: FENGYUN 3E
#almurnet v.1.7.20251203
#Start time: 2026-01-12 14:47:21

#Version: 2.0.20230620
#Station: T1
#Location: 37.570604 lon 55.790049 lat
#TLE: 1 49008U 21062A   26011.97558190  .00000066  00000+0  51928-4 0  9996
#TLE: 2 49008  98.7491  17.1395 0001916 144.4283 215.7021 14.19885193234411

#Time	Az	El	Level	Level2	SNR	BER	BlckErr	Temp	State	Recorded	gain1	gain2
2026-01-12 14:47:21.13	178.62	4.97	-52.2	-63.6	3.8	8.46e-01	0	41	0	0	75	12880
2026-01-12 14:47:25.11	178.76	5.25	-50.3	-62.7	3.8	8.46e-01	0	41	104	0	71	14691
2026-01-12 14:47:29.07	178.89	5.53	-50.3	-62.7	3.8	8.46e-01	0	41	104	0	71	14675
2026-01-12 14:47:33.05	179.03	5.82	-50.2	-62.5	3.8	8.46e-01	0	41	104	0	71	14305
2026-01-12 14:47:37.03	179.17	6.11	-50.2	-62.7	3.8	8.47e-01	0	42	104	0	71	14620
2026-01-12 14:47:41.02	179.32	6.40	-50.2	-62.4	3.8	8.46e-01	0	42	104	0	71	14064
2026-01-12 14:47:45.00	179.47	6.70	-50.0	-60.5	3.9	8.43e-01	0	42	104	0	70	12054
2026-01-12 14:47:48.97	179.62	6.99	-50.2	-62.3	3.8	8.46e-01	0	42	104	0	70	14771
2026-01-12 14:47:52.96	179.77	7.30	-49.3	-56.6	5.7	7.48e-01	0	42	0	0	69	8132
2026-01-12 14:47:56.94	179.93	7.60	-45.8	-48.7	13.1	7.55e-05	0	42	0	28311552	62	4923
2026-01-12 14:48:00.92	180.09	7.91	-43.6	-45.6	16.1	0.00e+00	0	43	0	56623104	57	4580
2026-01-12 14:48:04.91	180.25	8.22	-43.8	-45.8	15.9	0.00e+00	0	43	0	85983232	57	4683
2026-01-12 14:48:08.90	180.42	8.54	-45.9	-48.9	13.0	2.05e-05	0	43	0	114294784	61	5319
2026-01-12 14:48:12.89	180.59	8.86	-48.3	-53.6	8.1	5.07e-02	0	43	0	143654912	66	6861
2026-01-12 14:48:16.87	180.76	9.18	-48.4	-53.8	8.0	6.56e-02	0	43	0	171966464	67	6581
2026-01-12 14:48:20.88	180.94	9.51	-47.0	-49.8	12.1	3.62e-02	0	43	0	189792256	64	4951
2026-01-12 14:48:24.88	181.12	9.85	-46.3	-48.7	13.3	1.60e-05	0	43	0	219152384	63	4623
2026-01-12 14:48:28.89	181.31	10.19	-45.3	-47.4	14.6	0.00e+00	0	43	0	247463936	61	4479
2026-01-12 14:48:32.89	181.50	10.53	-45.7	-47.8	14.2	1.80e-04	0	43	0	276824064	61	4689
2026-01-12 14:48:36.89	181.69	10.88	-45.6	-47.7	14.3	0.00e+00	0	43	0	305135616	61	4629
2026-01-12 14:48:40.90	181.89	11.23	-45.2	-47.3	14.7	0.00e+00	0	43	0	334495744	60	4679
2026-01-12 14:48:44.90	182.09	11.59	-44.8	-46.7	15.1	0.00e+00	0	43	0	362807296	59	4632
2026-01-12 14:48:48.90	182.30	11.95	-44.4	-46.3	15.6	0.00e+00	0	43	0	392167424	59	4403
2026-01-12 14:48:52.90	182.51	12.32	-43.9	-45.7	16.1	0.00e+00	0	43	0	421527552	58	4359
2026-01-12 14:48:56.90	182.73	12.69	-43.1	-44.7	17.1	0.00e+00	0	43	0	449839104	56	4373
2026-01-12 14:49:00.91	182.95	13.07	-42.9	-44.6	17.2	0.00e+00	0	43	0	479199232	56	4302
2026-01-12 14:49:04.92	183.18	13.45	-42.4	-44.0	17.6	0.00e+00	0	43	0	507510784	55	4277
2026-01-12 14:49:08.92	183.41	13.84	-42.3	-43.9	17.7	0.00e+00	0	43	0	536870912	55	4210
2026-01-12 14:49:12.93	183.65	14.24	-42.1	-43.6	18.0	0.00e+00	0	43	0	566231040	54	4321
2026-01-12 14:49:16.93	183.90	14.64	-42.0	-43.5	18.1	0.00e+00	0	43	0	594542592	54	4282
2026-01-12 14:49:20.94	184.15	15.05	-41.8	-43.3	18.3	0.00e+00	0	43	0	623902720	54	4169
2026-01-12 14:49:24.94	184.41	15.46	-41.6	-43.1	18.5	0.00e+00	0	43	0	652214272	53	4305
2026-01-12 14:49:28.94	184.68	15.88	-41.7	-43.2	18.4	0.00e+00	0	44	0	679477248	53	4379
2026-01-12 14:49:32.96	184.95	16.31	-41.6	-43.1	18.5	0.00e+00	0	44	0	709885952	53	4312
2026-01-12 14:49:36.94	185.23	16.74	-41.4	-42.9	18.7	0.00e+00	0	44	0	739246080	53	4215
2026-01-12 14:49:40.91	185.52	17.18	-41.4	-42.9	18.7	0.00e+00	0	43	0	767557632	53	4210
2026-01-12 14:49:44.99	185.82	17.64	-41.3	-42.8	18.8	0.00e+00	0	44	0	796917760	53	4184
2026-01-12 14:49:49.00	186.13	18.10	-41.2	-42.7	18.9	0.00e+00	0	44	0	826277888	53	4118
2026-01-12 14:49:52.98	186.44	18.56	-41.1	-42.6	19.1	0.00e+00	0	44	0	854589440	52	4293
2026-01-12 14:49:56.95	186.76	19.03	-41.0	-42.3	19.3	0.00e+00	0	44	0	882900992	52	4186
2026-01-12 14:50:00.94	187.09	19.51	-40.9	-42.2	19.3	0.00e+00	0	44	0	912261120	52	4145
2026-01-12 14:50:04.92	187.44	19.99	-40.7	-42.0	19.5	0.00e+00	0	44	0	941621248	52	4044
2026-01-12 14:50:08.90	187.79	20.49	-40.8	-42.1	19.5	0.00e+00	0	44	0	969932800	51	4331
2026-01-12 14:50:12.88	188.15	20.99	-40.8	-42.2	19.4	0.00e+00	0	44	0	998244352	52	4137
2026-01-12 14:50:16.91	188.54	21.51	-40.8	-42.1	19.4	0.00e+00	0	44	0	1027604480	52	4092
2026-01-12 14:50:20.89	188.92	22.04	-40.9	-42.3	19.4	0.00e+00	0	44	0	1055916032	51	4419
2026-01-12 14:50:24.87	189.33	22.57	-40.7	-42.0	19.6	0.00e+00	0	44	0	1085276160	51	4291
2026-01-12 14:50:28.85	189.74	23.11	-40.5	-41.9	19.7	0.00e+00	0	44	0	1113587712	51	4199
2026-01-12 14:50:32.84	190.17	23.67	-40.2	-41.6	20.0	0.00e+00	0	44	0	1142947840	51	4067
2026-01-12 14:50:36.82	190.62	24.23	-40.6	-42.0	19.6	0.00e+00	0	44	0	1171259392	51	4271
2026-01-12 14:50:40.79	191.07	24.80	-40.7	-42.1	19.5	0.00e+00	0	44	0	1199570944	51	4318
2026-01-12 14:50:44.77	191.55	25.39	-40.6	-42.0	19.6	0.00e+00	0	44	0	1228931072	51	4287
2026-01-12 14:50:48.76	192.05	25.99	-40.0	-41.4	20.2	0.00e+00	0	44	0	1257242624	50	4202
2026-01-12 14:50:52.80	192.57	26.60	-40.1	-41.4	20.2	0.00e+00	0	44	0	1286602752	50	4220
2026-01-12 14:50:56.88	193.11	27.24	-39.9	-41.2	20.4	0.00e+00	0	44	0	1315962880	50	4136
2026-01-12 14:51:00.86	193.67	27.87	-39.9	-41.2	20.5	0.00e+00	0	44	0	1344274432	50	4106
2026-01-12 14:51:04.84	194.24	28.51	-40.0	-41.3	20.3	0.00e+00	0	44	0	1373634560	50	4167
2026-01-12 14:51:08.92	194.86	29.18	-39.6	-40.9	20.6	0.00e+00	0	44	0	1402994688	49	4224
2026-01-12 14:51:12.90	195.48	29.85	-39.5	-40.9	20.6	0.00e+00	0	44	0	1431306240	49	4199
2026-01-12 14:51:16.88	196.13	30.53	-39.8	-41.1	20.3	0.00e+00	0	44	0	1460666368	49	4333
2026-01-12 14:51:20.86	196.81	31.22	-39.7	-41.0	20.4	0.00e+00	0	44	0	1488977920	50	4043
2026-01-12 14:51:24.84	197.52	31.92	-39.9	-41.3	20.2	0.00e+00	0	44	0	1518338048	50	4152
2026-01-12 14:51:28.92	198.27	32.65	-39.8	-41.1	20.4	0.00e+00	0	44	0	1546649600	50	4092
2026-01-12 14:51:33.01	199.06	33.40	-39.9	-41.1	20.4	0.00e+00	0	44	0	1577058304	49	4336
2026-01-12 14:51:36.99	199.87	34.14	-39.8	-41.2	20.4	0.00e+00	0	44	0	1605369856	49	4346
2026-01-12 14:51:40.97	200.71	34.89	-40.0	-41.4	20.2	0.00e+00	0	44	0	1633681408	49	4467
2026-01-12 14:51:44.95	201.60	35.65	-40.0	-41.3	20.3	0.00e+00	0	44	0	1663041536	49	4433
2026-01-12 14:51:48.93	202.52	36.43	-39.9	-41.2	20.5	0.00e+00	0	44	0	1692401664	49	4348
2026-01-12 14:51:52.91	203.49	37.21	-40.0	-41.3	20.3	0.00e+00	0	44	0	1720713216	50	4163
2026-01-12 14:51:56.89	204.51	38.00	-40.1	-41.5	20.2	0.00e+00	0	44	0	1749024768	50	4248
2026-01-12 14:52:00.93	205.59	38.82	-40.3	-41.7	19.9	0.00e+00	0	44	0	1778384896	50	4373
2026-01-12 14:52:04.91	206.71	39.63	-40.4	-41.7	19.9	0.00e+00	0	44	0	1806696448	51	4136
2026-01-12 14:52:08.88	207.88	40.44	-40.2	-41.4	20.2	0.00e+00	0	44	0	1836056576	50	4233
2026-01-12 14:52:12.93	209.14	41.27	-40.5	-41.8	19.8	0.00e+00	0	44	0	1865416704	51	4159
2026-01-12 14:52:16.95	210.45	42.10	-40.2	-41.6	20.2	0.00e+00	0	44	0	1893728256	51	4057
2026-01-12 14:52:20.92	211.82	42.93	-40.3	-41.6	20.2	0.00e+00	0	44	0	1922039808	50	4323
2026-01-12 14:52:24.90	213.26	43.75	-40.2	-41.5	20.1	0.00e+00	0	44	0	1951399936	50	4291
2026-01-12 14:52:28.88	214.77	44.57	-40.3	-41.6	20.2	0.00e+00	0	44	0	1980760064	50	4310
2026-01-12 14:52:33.08	216.46	45.43	-40.6	-41.9	20.0	0.00e+00	0	44	0	2010120192	50	4466
2026-01-12 14:52:37.06	218.14	46.24	-41.2	-42.2	20.0	0.00e+00	0	44	0	2039480320	52	4108
2026-01-12 14:52:41.04	219.90	47.03	-41.1	-42.1	20.0	0.00e+00	0	44	0	2067791872	52	4082
2026-01-12 14:52:45.01	221.76	47.81	-40.9	-41.8	20.3	0.00e+00	0	44	0	2096103424	52	3940
2026-01-12 14:52:49.05	223.74	48.57	-41.6	-42.5	19.6	0.00e+00	0	44	0	2125463552	52	4285
2026-01-12 14:52:53.03	225.78	49.31	-41.9	-42.9	19.3	0.00e+00	0	44	0	2154823680	53	4220
2026-01-12 14:52:57.01	227.93	50.01	-41.4	-42.4	19.8	0.00e+00	0	44	0	2183135232	53	3976
2026-01-12 14:53:01.03	230.19	50.69	-41.7	-42.7	19.4	0.00e+00	0	44	0	2212495360	53	4139
2026-01-12 14:53:05.01	232.54	51.32	-41.5	-42.5	19.6	0.00e+00	0	44	0	2240806912	53	4033
2026-01-12 14:53:08.99	234.97	51.91	-41.8	-42.8	19.5	0.00e+00	0	44	0	2270167040	53	4146
2026-01-12 14:53:12.97	237.51	52.45	-41.4	-42.3	19.8	0.00e+00	0	44	0	2298478592	53	3950
2026-01-12 14:53:17.09	240.22	52.95	-42.1	-43.2	19.0	0.00e+00	0	44	0	2327838720	53	4367
2026-01-12 14:53:21.08	242.94	53.38	-42.1	-43.1	19.2	0.00e+00	0	44	0	2357198848	54	4076
2026-01-12 14:53:25.09	245.74	53.75	-41.8	-42.9	19.4	0.00e+00	0	44	0	2385510400	54	3966
2026-01-12 14:53:29.08	248.59	54.05	-41.3	-42.3	19.9	0.00e+00	0	44	0	2414870528	53	3920
2026-01-12 14:53:33.07	251.49	54.28	-41.3	-42.2	19.9	0.00e+00	0	44	0	2443182080	53	3905
2026-01-12 14:53:37.08	254.45	54.43	-42.2	-43.2	19.1	0.00e+00	0	44	0	2472542208	53	4363
2026-01-12 14:53:41.00	257.36	54.51	-41.8	-42.8	19.4	0.00e+00	0	44	0	2500853760	53	4164
2026-01-12 14:53:44.98	260.33	54.51	-42.1	-43.2	19.1	0.00e+00	0	44	0	2529165312	54	4104
2026-01-12 14:53:48.96	263.29	54.44	-42.2	-43.2	19.1	0.00e+00	0	44	0	2558525440	54	4128
2026-01-12 14:53:52.97	266.25	54.30	-41.9	-42.9	19.3	0.00e+00	0	44	0	2587885568	54	3996
2026-01-12 14:53:56.95	269.15	54.08	-41.7	-42.7	19.6	0.00e+00	0	44	0	2616197120	54	3871
2026-01-12 14:54:00.93	272.00	53.79	-41.9	-42.9	19.4	0.00e+00	0	44	0	2644508672	53	4208
2026-01-12 14:54:04.91	274.79	53.43	-42.0	-43.0	19.2	0.00e+00	0	44	0	2672820224	53	4282
2026-01-12 14:54:08.93	277.53	53.01	-41.7	-42.7	19.6	0.00e+00	0	44	0	2702180352	53	4102
2026-01-12 14:54:12.91	280.16	52.53	-41.7	-42.7	19.6	0.00e+00	0	44	0	2731540480	53	4102
2026-01-12 14:54:16.89	282.70	52.00	-42.0	-43.0	19.2	0.00e+00	0	44	0	2759852032	53	4260
2026-01-12 14:54:20.95	285.20	51.41	-42.0	-43.0	19.2	0.00e+00	0	44	0	2789212160	53	4268
2026-01-12 14:54:25.13	287.67	50.75	-41.5	-42.5	19.7	0.00e+00	0	44	0	2819620864	53	4026
2026-01-12 14:54:29.14	289.93	50.08	-41.6	-42.6	19.6	0.00e+00	0	44	0	2847932416	53	4064
2026-01-12 14:54:33.15	292.10	49.38	-41.3	-42.3	19.9	0.00e+00	0	44	0	2877292544	53	3925
2026-01-12 14:54:37.21	294.19	48.63	-41.6	-42.6	19.6	0.00e+00	0	44	0	2906652672	53	4072
2026-01-12 14:54:41.26	296.17	47.87	-41.7	-42.7	19.5	0.00e+00	0	44	0	2936012800	53	4107
2026-01-12 14:54:45.26	298.04	47.09	-41.5	-42.5	19.7	0.00e+00	0	44	0	2964324352	53	4021
2026-01-12 14:54:49.23	299.81	46.30	-40.9	-41.8	20.3	0.00e+00	0	44	0	2993684480	52	3943
2026-01-12 14:54:53.24	301.50	45.50	-41.1	-42.1	20.1	0.00e+00	0	44	0	3021996032	52	4065
2026-01-12 14:54:57.26	303.11	44.68	-40.8	-41.7	20.4	0.00e+00	0	44	0	3051356160	52	3884
2026-01-12 14:55:01.23	304.63	43.86	-40.4	-41.3	20.8	0.00e+00	0	44	0	3079667712	51	3944
2026-01-12 14:55:05.21	306.07	43.04	-40.7	-41.6	20.6	0.00e+00	0	44	0	3109027840	51	4072
2026-01-12 14:55:09.19	307.45	42.22	-41.0	-42.0	20.2	0.00e+00	0	44	0	3137339392	51	4270
2026-01-12 14:55:13.38	308.82	41.36	-40.3	-41.3	20.9	0.00e+00	0	44	0	3167748096	51	3916
2026-01-12 14:55:17.45	310.08	40.53	-40.8	-41.8	20.4	0.00e+00	0	44	0	3197108224	51	4161
2026-01-12 14:55:21.43	311.26	39.71	-40.9	-41.9	20.3	0.00e+00	0	44	0	3225419776	51	4209
2026-01-12 14:55:25.41	312.38	38.91	-40.4	-41.3	20.8	0.00e+00	0	44	0	3254779904	51	3939
2026-01-12 14:55:29.46	313.47	38.10	-40.6	-41.5	20.6	0.00e+00	0	44	0	3283091456	51	4029
2026-01-12 14:55:33.79	314.57	37.24	-40.5	-41.4	20.7	0.00e+00	0	44	0	3314548736	51	3997
2026-01-12 14:55:37.78	315.54	36.46	-40.8	-41.7	20.4	0.00e+00	0	44	0	3343908864	51	4124
2026-01-12 14:55:41.79	316.47	35.68	-40.4	-41.3	20.8	0.00e+00	0	44	0	3373268992	51	3930
2026-01-12 14:55:45.83	317.36	34.92	-40.0	-40.9	21.1	0.00e+00	0	44	0	3401580544	50	3986
2026-01-12 14:55:50.13	318.27	34.11	-40.2	-41.1	20.9	0.00e+00	0	44	0	3433037824	50	4092
2026-01-12 14:55:54.48	319.14	33.31	-40.8	-41.8	20.4	0.00e+00	0	44	0	3464495104	51	4155
2026-01-12 14:55:58.42	319.90	32.59	-40.6	-41.6	20.5	0.00e+00	0	44	0	3492806656	51	4090
2026-01-12 14:56:02.40	320.63	31.88	-40.3	-41.2	20.8	0.00e+00	0	44	0	3521118208	51	3887
2026-01-12 14:56:06.49	321.35	31.17	-40.1	-41.0	21.0	0.00e+00	0	44	0	3551526912	50	4039
2026-01-12 14:56:10.47	322.02	30.48	-40.4	-41.3	20.7	0.00e+00	0	44	0	3579838464	50	4163
2026-01-12 14:56:14.45	322.67	29.81	-40.6	-41.6	20.5	0.00e+00	0	44	0	3608150016	50	4292
2026-01-12 14:56:18.42	323.28	29.15	-40.9	-41.9	20.2	0.00e+00	0	44	0	3637510144	51	4206
2026-01-12 14:56:22.40	323.88	28.50	-41.0	-42.0	20.1	0.00e+00	0	44	0	3665821696	51	4260
2026-01-12 14:56:26.38	324.45	27.86	-40.9	-41.9	20.2	0.00e+00	0	44	0	3695181824	51	4212
2026-01-12 14:56:30.36	325.00	27.24	-40.7	-41.7	20.4	0.00e+00	0	44	0	3723493376	51	4120
2026-01-12 14:56:34.38	325.54	26.62	-40.6	-41.5	20.5	0.00e+00	0	44	0	3752853504	51	4044
2026-01-12 14:56:38.37	326.05	26.02	-40.7	-41.7	20.4	0.00e+00	0	44	0	3781165056	51	4107
2026-01-12 14:56:42.35	326.54	25.42	-40.7	-41.7	20.4	0.00e+00	0	44	0	3809476608	51	4108
2026-01-12 14:56:46.36	327.02	24.84	-40.8	-41.7	20.3	0.00e+00	0	44	0	3838836736	51	4131
2026-01-12 14:56:50.34	327.48	24.27	-40.8	-41.8	20.3	0.00e+00	0	44	0	3867148288	51	4163
2026-01-12 14:56:54.32	327.93	23.71	-40.8	-41.8	20.2	0.00e+00	0	44	0	3896508416	51	4171
2026-01-12 14:56:58.30	328.36	23.16	-40.8	-41.8	20.2	0.00e+00	0	44	0	3924819968	51	4165
2026-01-12 14:57:02.27	328.77	22.63	-40.9	-41.9	20.2	0.00e+00	0	44	0	3954180096	51	4214
2026-01-12 14:57:06.25	329.17	22.10	-41.2	-42.2	19.9	0.00e+00	0	44	0	3982491648	51	4348
2026-01-12 14:57:10.50	329.58	21.54	-41.2	-42.3	19.7	0.00e+00	0	44	0	4012900352	52	4151
2026-01-12 14:57:14.43	329.96	21.04	-41.2	-42.3	19.7	0.00e+00	0	44	0	4041211904	52	4153
2026-01-12 14:57:18.41	330.32	20.54	-41.4	-42.4	19.6	0.00e+00	0	44	0	4070572032	52	4228
2026-01-12 14:57:22.50	330.68	20.03	-41.5	-42.6	19.5	0.00e+00	0	44	0	4099932160	52	4304
2026-01-12 14:57:26.48	331.02	19.55	-41.5	-42.5	19.5	0.00e+00	0	44	0	4128243712	52	4257
2026-01-12 14:57:30.67	331.37	19.05	-41.4	-42.4	19.5	0.00e+00	0	44	0	4158652416	52	4233
2026-01-12 14:57:34.66	331.70	18.58	-41.5	-42.5	19.5	0.00e+00	0	44	0	4186963968	52	4289
2026-01-12 14:57:38.64	332.01	18.13	-41.6	-42.6	19.3	0.00e+00	0	44	0	4216324096	52	4329
2026-01-12 14:57:42.64	332.32	17.67	-41.6	-42.7	19.2	0.00e+00	0	44	0	4244635648	52	4360
2026-01-12 14:57:46.81	332.63	17.21	-41.8	-42.8	19.1	0.00e+00	0	44	0	4275044352	53	4192
2026-01-12 14:57:50.83	332.92	16.77	-41.9	-43.0	19.0	0.00e+00	0	44	0	4304404480	53	4266
2026-01-12 14:57:54.85	333.20	16.34	-42.0	-43.2	18.8	0.00e+00	0	44	0	4332716032	53	4346
2026-01-12 14:57:59.11	333.49	15.89	-42.1	-43.2	18.8	0.00e+00	0	44	0	4364173312	53	4367
2026-01-12 14:58:03.29	333.77	15.45	-42.2	-43.3	18.6	0.00e+00	0	44	0	4394582016	54	4179
2026-01-12 14:58:07.33	334.03	15.04	-42.2	-43.4	18.6	0.00e+00	0	44	0	4422893568	54	4198
2026-01-12 14:58:11.32	334.28	14.64	-42.3	-43.4	18.5	0.00e+00	0	44	0	4452253696	54	4225
2026-01-12 14:58:15.30	334.53	14.24	-42.3	-43.4	18.5	0.00e+00	0	44	0	4480565248	54	4227
2026-01-12 14:58:19.37	334.77	13.84	-42.5	-43.6	18.3	0.00e+00	0	44	0	4509925376	54	4329
2026-01-12 14:58:23.40	335.01	13.46	-42.7	-43.9	18.1	0.00e+00	0	44	0	4539285504	54	4445
2026-01-12 14:58:27.35	335.23	13.08	-42.9	-44.1	17.9	0.00e+00	0	44	0	4567597056	55	4306
2026-01-12 14:58:31.33	335.46	12.71	-43.0	-44.3	17.7	0.00e+00	0	44	0	4596957184	55	4396
2026-01-12 14:58:35.36	335.68	12.34	-43.1	-44.3	17.6	0.00e+00	0	44	0	4625268736	55	4432
2026-01-12 14:58:39.34	335.89	11.98	-43.2	-44.5	17.4	0.00e+00	0	44	0	4654628864	55	4535
2026-01-12 14:58:43.38	336.10	11.61	-43.4	-44.8	17.3	0.00e+00	0	44	0	4683988992	56	4420
2026-01-12 14:58:47.51	336.31	11.25	-43.4	-44.8	17.2	0.00e+00	0	44	0	4713349120	56	4438
2026-01-12 14:58:51.74	336.52	10.88	-43.6	-45.0	17.0	0.00e+00	0	44	0	4743757824	56	4529
2026-01-12 14:58:56.22	336.74	10.50	-43.8	-45.2	16.9	0.00e+00	0	44	0	4776263680	57	4355
2026-01-12 14:59:00.21	336.93	10.16	-43.9	-45.3	16.7	0.00e+00	0	44	0	4804575232	57	4424
2026-01-12 14:59:04.38	337.13	9.81	-43.9	-45.4	16.7	0.00e+00	0	44	0	4834983936	57	4448
2026-01-12 14:59:08.36	337.31	9.48	-44.1	-45.6	16.4	0.00e+00	0	44	0	4863295488	57	4558
2026-01-12 14:59:12.34	337.49	9.16	-43.9	-45.4	16.6	0.00e+00	0	44	0	4892655616	57	4460
2026-01-12 14:59:16.34	337.66	8.84	-52.3	-63.5	3.8	8.47e-01	0	44	104	4910481408	74	13505
2026-01-12 14:59:20.36	337.84	8.52	-52.0	-63.8	3.8	8.46e-01	0	44	104	4910481408	74	13888
2026-01-12 14:59:24.49	338.01	8.19	-53.1	-63.9	3.8	8.49e-01	0	44	104	4910481408	75	13325
2026-01-12 14:59:28.59	338.18	7.88	-53.0	-64.0	3.8	8.47e-01	0	44	104	4910481408	75	13561
2026-01-12 14:59:32.69	338.35	7.56	-53.3	-64.0	3.8	8.47e-01	0	44	104	4910481408	76	12739
2026-01-12 14:59:36.67	338.50	7.26	-53.2	-63.9	3.8	8.47e-01	0	44	104	4910481408	76	12659
2026-01-12 14:59:40.64	338.66	6.96	-53.0	-63.9	3.8	8.46e-01	0	44	104	4910481408	76	12599
2026-01-12 14:59:44.61	338.81	6.67	-53.0	-63.9	3.8	8.48e-01	0	44	104	4910481408	76	12596
2026-01-12 14:59:48.59	338.96	6.38	-53.0	-63.9	3.8	8.47e-01	0	44	104	4910481408	76	12590
2026-01-12 14:59:52.56	339.11	6.09	-53.0	-63.9	3.8	8.47e-01	0	44	104	4910481408	76	12626
2026-01-12 14:59:56.53	339.25	5.81	-53.0	-63.9	3.8	8.47e-01	0	44	104	4910481408	76	12555
2026-01-12 15:00:00.51	339.40	5.52	-53.0	-63.9	3.8	8.47e-01	0	44	104	4910481408	76	12626
2026-01-12 15:00:04.48	339.54	5.24	-53.0	-63.8	3.8	8.46e-01	0	44	104	4910481408	76	12484
2026-01-12 15:00:08.45	339.67	4.97	-53.0	-63.8	3.8	8.48e-01	0	44	104	4910481408	76	12517

#Closed at: 2026-01-12 15:00:09
#Recorded file [4910 MB]: D:/Data/31040_260112_174721.dat