passes_logs/2026/01/12/T1/T1__20260112_163113_FENGYUN_3E_rec.log

#Pass ID: 20260112_163113_FENGYUN 3E
#Satellite: FENGYUN 3E
#Configuration: FENGYUN 3E
#almurnet v.1.7.20251203
#Start time: 2026-01-12 16:31:13

#Version: 2.0.20230620
#Station: T1
#Location: 37.570604 lon 55.790049 lat
#TLE: 1 49008U 21062A   26011.97558190  .00000066  00000+0  51928-4 0  9996
#TLE: 2 49008  98.7491  17.1395 0001916 144.4283 215.7021 14.19885193234411

#Time	Az	El	Level	Level2	SNR	BER	BlckErr	Temp	State	Recorded	gain1	gain2
2026-01-12 16:31:13.32	241.80	4.99	-52.4	-63.2	3.8	8.47e-01	0	41	0	0	75	12296
2026-01-12 16:31:15.31	242.04	5.08	-52.3	-63.2	3.8	8.47e-01	0	41	104	0	75	12343
2026-01-12 16:31:17.29	242.29	5.16	-52.3	-63.2	3.8	8.46e-01	0	41	104	0	75	12359
2026-01-12 16:31:19.28	242.55	5.24	-52.3	-63.2	3.8	8.47e-01	0	41	104	0	75	12272
2026-01-12 16:31:21.27	242.80	5.32	-52.3	-63.2	3.8	8.46e-01	0	41	104	0	75	12326
2026-01-12 16:31:23.26	243.06	5.40	-52.3	-63.2	3.8	8.48e-01	0	41	104	0	75	12342
2026-01-12 16:31:25.20	243.31	5.47	-52.3	-63.2	3.8	8.47e-01	0	41	104	0	75	12339
2026-01-12 16:31:27.18	243.56	5.55	-52.3	-63.1	3.8	8.48e-01	0	41	104	0	75	12228
2026-01-12 16:31:29.17	243.82	5.63	-52.3	-63.2	3.8	8.46e-01	0	42	104	0	75	12294
2026-01-12 16:31:31.16	244.08	5.71	-52.3	-63.2	3.8	8.47e-01	0	42	104	0	75	12288
2026-01-12 16:31:33.14	244.34	5.79	-52.3	-63.2	3.8	8.48e-01	0	42	104	0	75	12320
2026-01-12 16:31:35.13	244.61	5.87	-52.3	-63.1	3.8	8.47e-01	0	42	104	0	75	12214
2026-01-12 16:31:37.12	244.87	5.95	-52.3	-63.2	3.8	8.46e-01	0	42	104	0	75	12280
2026-01-12 16:31:39.19	245.15	6.03	-52.3	-63.2	3.8	8.46e-01	0	42	104	0	75	12297
2026-01-12 16:31:41.24	245.42	6.11	-52.3	-63.2	3.8	8.47e-01	0	42	104	0	75	12293
2026-01-12 16:31:43.23	245.69	6.18	-52.3	-63.2	3.8	8.46e-01	0	42	104	0	75	12237
2026-01-12 16:31:45.21	245.96	6.26	-52.3	-63.2	3.8	8.47e-01	0	42	104	0	75	12273
2026-01-12 16:31:47.20	246.23	6.34	-52.3	-63.2	3.8	8.48e-01	0	42	104	0	75	12312
2026-01-12 16:31:49.19	246.51	6.41	-52.3	-63.2	3.8	8.47e-01	0	42	104	0	75	12272
2026-01-12 16:31:51.17	246.78	6.49	-52.3	-63.2	3.8	8.46e-01	0	42	104	0	75	12297
2026-01-12 16:31:53.16	247.05	6.57	-52.3	-63.2	3.8	8.46e-01	0	42	104	0	75	12272
2026-01-12 16:31:55.15	247.33	6.64	-52.3	-63.1	3.8	8.47e-01	0	42	104	0	75	12218
2026-01-12 16:31:57.20	247.62	6.72	-52.3	-63.1	3.8	8.47e-01	0	42	104	0	75	12195
2026-01-12 16:31:59.25	247.91	6.80	-52.3	-63.2	3.8	8.48e-01	0	42	104	0	75	12249
2026-01-12 16:32:01.23	248.19	6.87	-52.3	-63.1	3.8	8.46e-01	0	42	104	0	75	12220
2026-01-12 16:32:03.22	248.47	6.94	-52.3	-63.1	3.8	8.46e-01	0	42	104	0	75	12185
2026-01-12 16:32:05.21	248.75	7.02	-52.3	-63.2	3.8	8.47e-01	0	42	104	0	75	12321
2026-01-12 16:32:07.34	249.06	7.10	-52.3	-63.2	3.8	8.48e-01	0	42	104	0	75	12320
2026-01-12 16:32:09.34	249.35	7.17	-52.3	-63.1	3.8	8.47e-01	0	43	104	0	75	12152
2026-01-12 16:32:11.34	249.64	7.24	-52.3	-63.0	3.8	8.47e-01	0	43	104	0	75	12078
2026-01-12 16:32:13.33	249.93	7.31	-52.3	-62.9	3.8	8.47e-01	0	43	104	0	75	11936
2026-01-12 16:32:15.32	250.22	7.38	-52.3	-63.1	3.8	8.47e-01	0	43	104	0	75	12174
2026-01-12 16:32:17.32	250.51	7.46	-52.3	-63.2	3.8	8.46e-01	0	43	104	0	75	12283
2026-01-12 16:32:19.32	250.81	7.53	-52.3	-63.2	3.8	8.47e-01	0	43	104	0	75	12279
2026-01-12 16:32:21.31	251.10	7.60	-52.3	-63.1	3.8	8.48e-01	0	43	104	0	75	12131
2026-01-12 16:32:23.33	251.40	7.67	-52.3	-62.9	3.8	8.48e-01	0	43	104	0	75	11932
2026-01-12 16:32:25.31	251.70	7.74	-52.3	-62.8	3.8	8.45e-01	0	43	104	0	75	11753
2026-01-12 16:32:27.30	252.00	7.81	-52.3	-62.7	3.8	8.46e-01	0	43	104	0	75	11663
2026-01-12 16:32:29.29	252.30	7.87	-52.3	-63.0	3.8	8.46e-01	0	43	104	0	75	11985
2026-01-12 16:32:31.28	252.60	7.94	-52.3	-63.0	3.8	8.45e-01	0	43	104	0	75	11967
2026-01-12 16:32:33.28	252.91	8.01	-52.3	-62.9	3.8	8.48e-01	0	43	104	0	75	11847
2026-01-12 16:32:35.28	253.21	8.08	-52.3	-63.0	3.8	8.47e-01	0	43	104	0	75	12055
2026-01-12 16:32:37.27	253.52	8.14	-52.3	-62.7	3.8	8.47e-01	0	43	104	0	75	11567
2026-01-12 16:32:39.37	253.84	8.21	-52.3	-62.5	3.8	8.46e-01	0	43	104	0	75	11395
2026-01-12 16:32:41.42	254.16	8.28	-52.3	-62.9	3.8	8.47e-01	0	43	104	0	75	11902
2026-01-12 16:32:43.40	254.47	8.34	-52.3	-62.6	3.8	8.46e-01	0	43	104	0	75	11495
2026-01-12 16:32:45.39	254.78	8.41	-52.2	-62.0	3.8	8.46e-01	0	43	104	0	75	10737
2026-01-12 16:32:47.39	255.10	8.47	-52.2	-62.0	3.8	8.46e-01	0	43	104	0	75	10762
2026-01-12 16:32:49.38	255.41	8.53	-52.2	-61.9	3.8	8.46e-01	0	43	104	0	75	10619
2026-01-12 16:32:51.37	255.73	8.60	-52.0	-60.6	3.9	8.43e-01	0	43	104	0	74	9632
2026-01-12 16:32:53.37	256.04	8.66	-52.2	-62.4	3.8	8.46e-01	0	43	104	0	74	11870
2026-01-12 16:32:55.36	256.36	8.72	-51.3	-57.5	5.0	8.34e-01	0	43	0	0	73	7203
2026-01-12 16:32:57.35	256.68	8.78	-47.4	-49.6	12.3	9.06e-04	0	43	0	12582912	65	4588
2026-01-12 16:32:59.33	257.00	8.84	-44.9	-46.3	15.8	0.00e+00	0	43	0	27262976	60	4178
2026-01-12 16:33:01.34	257.33	8.90	-44.4	-45.8	16.2	0.00e+00	0	43	0	40894464	59	4149
2026-01-12 16:33:03.33	257.65	8.96	-45.8	-47.5	14.6	0.00e+00	0	43	0	55574528	61	4519
2026-01-12 16:33:05.34	257.98	9.01	-47.2	-49.3	12.6	2.30e-04	0	43	0	70254592	64	4695
2026-01-12 16:33:07.33	258.30	9.07	-47.5	-49.7	12.2	5.56e-04	0	43	0	84934656	65	4640
2026-01-12 16:33:09.34	258.63	9.13	-47.3	-48.9	13.4	1.10e-06	0	43	0	99614720	63	4724
2026-01-12 16:33:11.50	258.99	9.19	-45.6	-47.2	14.9	0.00e+00	0	43	0	114294784	61	4342
2026-01-12 16:33:13.69	259.35	9.25	-45.5	-47.0	15.1	0.00e+00	0	43	0	130023424	61	4284
2026-01-12 16:33:15.69	259.68	9.30	-45.1	-46.6	15.5	0.00e+00	0	43	0	144703488	60	4326
2026-01-12 16:33:17.79	260.03	9.36	-44.9	-46.4	15.7	0.00e+00	0	43	0	160432128	60	4214
2026-01-12 16:33:19.81	260.37	9.41	-45.1	-46.7	15.5	0.00e+00	0	43	0	174063616	60	4360
2026-01-12 16:33:21.80	260.71	9.47	-44.8	-46.2	15.9	0.00e+00	0	43	0	188743680	60	4127
2026-01-12 16:33:23.79	261.04	9.52	-44.6	-46.0	16.0	0.00e+00	0	43	0	203423744	59	4256
2026-01-12 16:33:25.78	261.38	9.57	-44.4	-45.7	16.2	0.00e+00	0	43	0	218103808	59	4141
2026-01-12 16:33:27.77	261.72	9.62	-44.1	-45.4	16.5	0.00e+00	0	43	0	231735296	59	3993
2026-01-12 16:33:29.75	262.05	9.67	-44.0	-45.3	16.7	0.00e+00	0	43	0	246415360	58	4161
2026-01-12 16:33:31.81	262.41	9.72	-43.9	-45.1	16.9	0.00e+00	0	43	0	261095424	58	4091
2026-01-12 16:33:33.83	262.75	9.76	-44.0	-45.3	16.7	0.00e+00	0	43	0	275775488	58	4152
2026-01-12 16:33:35.82	263.09	9.81	-44.1	-45.5	16.6	0.00e+00	0	43	0	290455552	58	4243
2026-01-12 16:33:37.81	263.44	9.86	-44.0	-45.4	16.6	0.00e+00	0	43	0	304087040	58	4210
2026-01-12 16:33:39.80	263.78	9.90	-44.0	-45.4	16.6	0.00e+00	0	43	0	318767104	58	4233
2026-01-12 16:33:41.79	264.13	9.95	-43.9	-45.3	16.7	0.00e+00	0	43	0	333447168	58	4149
2026-01-12 16:33:43.78	264.47	9.99	-43.9	-45.1	16.9	0.00e+00	0	43	0	348127232	58	4096
2026-01-12 16:33:45.77	264.82	10.03	-43.9	-45.2	16.8	0.00e+00	0	43	0	361758720	58	4123
2026-01-12 16:33:47.83	265.18	10.07	-44.1	-45.4	16.6	0.00e+00	0	43	0	377487360	58	4195
2026-01-12 16:33:49.88	265.54	10.12	-44.0	-45.3	16.7	0.00e+00	0	43	0	392167424	58	4165
2026-01-12 16:33:52.41	265.98	10.17	-43.8	-45.1	16.9	0.00e+00	0	43	0	409993216	58	4072
2026-01-12 16:33:54.40	266.34	10.21	-43.7	-44.9	17.1	0.00e+00	0	43	0	424673280	58	3975
2026-01-12 16:33:56.40	266.69	10.24	-43.6	-44.9	17.1	0.00e+00	0	43	0	438304768	58	3974
2026-01-12 16:33:58.41	267.05	10.28	-43.6	-44.8	17.2	0.00e+00	0	43	0	452984832	57	4157
2026-01-12 16:34:00.56	267.43	10.32	-43.7	-44.9	17.0	0.00e+00	0	43	0	468713472	57	4242
2026-01-12 16:34:02.55	267.78	10.35	-43.7	-44.9	17.0	0.00e+00	0	43	0	483393536	57	4237
2026-01-12 16:34:04.65	268.16	10.39	-43.6	-44.8	17.1	0.00e+00	0	43	0	498073600	57	4184
2026-01-12 16:34:06.70	268.52	10.42	-43.7	-44.9	17.1	0.00e+00	0	43	0	512753664	57	4213
2026-01-12 16:34:08.70	268.88	10.46	-43.7	-44.9	17.1	0.00e+00	0	43	0	527433728	57	4216
2026-01-12 16:34:10.69	269.24	10.49	-43.5	-44.7	17.3	0.00e+00	0	43	0	542113792	57	4130
2026-01-12 16:34:12.69	269.60	10.52	-43.6	-44.8	17.2	0.00e+00	0	43	0	556793856	57	4164
2026-01-12 16:34:14.68	269.96	10.55	-43.6	-44.9	17.2	0.00e+00	0	43	0	570425344	57	4197
2026-01-12 16:34:16.66	270.32	10.57	-43.5	-44.8	17.2	0.00e+00	0	43	0	585105408	57	4148
2026-01-12 16:34:18.65	270.68	10.60	-43.4	-44.7	17.3	0.00e+00	0	43	0	599785472	57	4107
2026-01-12 16:34:20.64	271.04	10.63	-43.5	-44.8	17.2	0.00e+00	0	43	0	613416960	57	4147
2026-01-12 16:34:22.85	271.44	10.66	-43.4	-44.6	17.4	0.00e+00	0	43	0	630194176	57	4071
2026-01-12 16:34:24.86	271.81	10.68	-43.4	-44.6	17.3	0.00e+00	0	43	0	643825664	57	4085
2026-01-12 16:34:26.85	272.17	10.70	-43.6	-44.8	17.2	0.00e+00	0	43	0	658505728	57	4182
2026-01-12 16:34:28.84	272.53	10.73	-43.5	-44.8	17.2	0.00e+00	0	43	0	673185792	57	4147
2026-01-12 16:34:30.83	272.90	10.75	-43.5	-44.8	17.2	0.00e+00	0	43	0	687865856	57	4153
2026-01-12 16:34:32.98	273.29	10.77	-43.5	-44.8	17.2	0.00e+00	0	43	0	702545920	57	4164
2026-01-12 16:34:34.97	273.66	10.79	-43.7	-44.9	17.1	0.00e+00	0	43	0	717225984	57	4224
2026-01-12 16:34:36.97	274.02	10.81	-43.7	-45.0	17.0	0.00e+00	0	43	0	731906048	57	4244
2026-01-12 16:34:38.96	274.39	10.82	-43.6	-44.8	17.2	0.00e+00	0	43	0	745537536	57	4176
2026-01-12 16:34:40.95	274.76	10.84	-43.7	-44.9	17.1	0.00e+00	0	43	0	760217600	57	4232
2026-01-12 16:34:42.96	275.13	10.85	-43.8	-45.0	17.0	0.00e+00	0	43	0	774897664	57	4266
2026-01-12 16:34:44.94	275.49	10.87	-43.7	-44.9	17.1	0.00e+00	0	43	0	789577728	57	4236
2026-01-12 16:34:46.94	275.86	10.88	-43.7	-44.9	17.1	0.00e+00	0	43	0	803209216	57	4225
2026-01-12 16:34:49.13	276.27	10.89	-43.7	-45.0	17.0	0.00e+00	0	43	0	819986432	57	4255
2026-01-12 16:34:51.12	276.63	10.90	-43.9	-45.2	16.9	0.00e+00	0	43	0	833617920	57	4356
2026-01-12 16:34:53.11	277.00	10.91	-43.9	-45.2	16.9	0.00e+00	0	43	0	848297984	57	4358
2026-01-12 16:34:55.28	277.40	10.92	-43.8	-45.1	17.0	0.00e+00	0	43	0	864026624	57	4297
2026-01-12 16:34:57.31	277.78	10.93	-43.8	-45.1	17.0	0.00e+00	0	43	0	878706688	57	4297
2026-01-12 16:34:59.30	278.15	10.94	-43.7	-45.0	17.0	0.00e+00	0	43	0	892338176	57	4267
2026-01-12 16:35:01.30	278.52	10.94	-43.6	-44.9	17.1	0.00e+00	0	43	0	907018240	57	4214
2026-01-12 16:35:03.29	278.89	10.95	-43.7	-44.9	17.2	0.00e+00	0	43	0	921698304	57	4210
2026-01-12 16:35:05.28	279.26	10.95	-43.6	-44.9	17.2	0.00e+00	0	43	0	936378368	57	4200
2026-01-12 16:35:07.30	279.63	10.95	-43.5	-44.8	17.3	0.00e+00	0	43	0	951058432	57	4149
2026-01-12 16:35:09.29	280.00	10.95	-43.5	-44.7	17.4	0.00e+00	0	43	0	964689920	57	4124
2026-01-12 16:35:11.55	280.42	10.95	-43.5	-44.7	17.3	0.00e+00	0	43	0	981467136	57	4125
2026-01-12 16:35:13.54	280.79	10.95	-43.5	-44.7	17.3	0.00e+00	0	43	0	996147200	57	4138
2026-01-12 16:35:15.53	281.16	10.95	-43.7	-44.9	17.1	0.00e+00	0	43	0	1009778688	57	4213
2026-01-12 16:35:17.52	281.52	10.95	-43.6	-44.8	17.1	0.00e+00	0	43	0	1024458752	57	4180
2026-01-12 16:35:19.84	281.95	10.94	-43.6	-44.9	17.2	0.00e+00	0	43	0	1041235968	57	4198
2026-01-12 16:35:21.99	282.35	10.94	-43.7	-44.9	17.2	0.00e+00	0	43	0	1056964608	57	4203
2026-01-12 16:35:24.05	282.73	10.93	-43.7	-45.0	17.1	0.00e+00	0	43	0	1071644672	57	4250
2026-01-12 16:35:26.04	283.10	10.92	-43.6	-44.8	17.2	0.00e+00	0	43	0	1086324736	57	4190
2026-01-12 16:35:28.03	283.47	10.91	-43.7	-44.9	17.0	0.00e+00	0	43	0	1099956224	57	4221
2026-01-12 16:35:30.14	283.86	10.90	-43.6	-44.8	17.2	0.00e+00	0	43	0	1115684864	57	4185
2026-01-12 16:35:32.13	284.23	10.89	-43.6	-44.8	17.2	0.00e+00	0	43	0	1130364928	57	4185
2026-01-12 16:35:34.05	284.58	10.88	-43.7	-44.9	17.1	0.00e+00	0	43	0	1143996416	57	4210
2026-01-12 16:35:36.42	285.02	10.86	-43.8	-45.1	16.9	0.00e+00	0	43	0	1160773632	57	4306
2026-01-12 16:35:38.41	285.38	10.85	-43.9	-45.1	16.9	0.00e+00	0	43	0	1175453696	57	4325
2026-01-12 16:35:40.40	285.75	10.84	-44.0	-45.2	16.8	0.00e+00	0	43	0	1189085184	57	4391
2026-01-12 16:35:42.39	286.12	10.82	-43.9	-45.1	16.9	0.00e+00	0	43	0	1203765248	57	4337
2026-01-12 16:35:44.38	286.48	10.80	-43.9	-45.1	16.9	0.00e+00	0	43	0	1218445312	57	4313
2026-01-12 16:35:46.37	286.85	10.78	-43.9	-45.2	16.8	0.00e+00	0	43	0	1232076800	57	4354
2026-01-12 16:35:48.36	287.21	10.76	-43.9	-45.2	16.8	0.00e+00	0	43	0	1246756864	57	4350
2026-01-12 16:35:50.35	287.57	10.74	-44.0	-45.3	16.7	0.00e+00	0	43	0	1261436928	57	4411
2026-01-12 16:35:52.34	287.94	10.72	-44.0	-45.3	16.7	0.00e+00	0	43	0	1276116992	57	4404
2026-01-12 16:35:54.25	288.29	10.70	-44.0	-45.2	16.8	0.00e+00	0	43	0	1289748480	57	4370
2026-01-12 16:35:56.24	288.65	10.68	-43.8	-45.1	16.9	0.00e+00	0	43	0	1303379968	57	4314
2026-01-12 16:35:58.23	289.01	10.65	-44.0	-45.3	16.7	0.00e+00	0	43	0	1318060032	57	4411
2026-01-12 16:36:00.22	289.37	10.63	-44.0	-45.2	16.7	0.00e+00	0	43	0	1332740096	57	4389
2026-01-12 16:36:02.21	289.73	10.60	-44.0	-45.2	16.7	0.00e+00	0	43	0	1346371584	57	4383
2026-01-12 16:36:04.25	290.10	10.57	-44.0	-45.3	16.7	0.00e+00	0	43	0	1362100224	57	4395
2026-01-12 16:36:06.24	290.46	10.55	-44.1	-45.3	16.6	0.00e+00	0	43	0	1375731712	57	4427
2026-01-12 16:36:08.23	290.82	10.52	-44.1	-45.4	16.6	0.00e+00	0	43	0	1390411776	57	4466
2026-01-12 16:36:10.22	291.17	10.49	-44.1	-45.4	16.6	0.00e+00	0	43	0	1405091840	57	4467
2026-01-12 16:36:12.21	291.53	10.46	-44.1	-45.4	16.6	0.00e+00	0	43	0	1418723328	57	4455
2026-01-12 16:36:14.42	291.93	10.42	-44.2	-45.4	16.5	0.00e+00	0	43	0	1435500544	57	4485
2026-01-12 16:36:16.41	292.28	10.39	-44.2	-45.5	16.4	0.00e+00	0	43	0	1449132032	57	4532
2026-01-12 16:36:18.40	292.64	10.35	-44.4	-45.7	16.3	0.00e+00	0	43	0	1463812096	58	4352
2026-01-12 16:36:20.39	292.99	10.32	-44.4	-45.7	16.2	0.00e+00	0	43	0	1478492160	58	4355
2026-01-12 16:36:22.39	293.34	10.28	-44.5	-45.8	16.1	0.00e+00	0	43	0	1493172224	58	4435
2026-01-12 16:36:24.37	293.69	10.25	-44.5	-45.8	16.1	0.00e+00	0	43	0	1506803712	58	4441
2026-01-12 16:36:26.37	294.05	10.21	-44.4	-45.7	16.2	0.00e+00	0	43	0	1521483776	58	4389
2026-01-12 16:36:28.46	294.42	10.17	-44.5	-45.9	16.1	0.00e+00	0	43	0	1536163840	58	4460
2026-01-12 16:36:30.49	294.77	10.13	-44.5	-45.9	16.1	0.00e+00	0	43	0	1550843904	58	4444
2026-01-12 16:36:32.42	295.11	10.09	-44.4	-45.7	16.3	0.00e+00	0	43	0	1564475392	58	4357
2026-01-12 16:36:34.40	295.45	10.05	-44.5	-45.8	16.1	0.00e+00	0	43	0	1579155456	58	4433
2026-01-12 16:36:36.39	295.80	10.01	-44.5	-45.9	16.1	0.00e+00	0	43	0	1593835520	58	4459
2026-01-12 16:36:38.38	296.15	9.96	-44.6	-46.0	16.0	0.00e+00	0	43	0	1608515584	58	4497
2026-01-12 16:36:40.37	296.49	9.92	-44.7	-46.1	15.9	0.00e+00	0	43	0	1622147072	58	4556
2026-01-12 16:36:42.36	296.83	9.88	-44.7	-46.1	15.9	0.00e+00	0	43	0	1636827136	59	4300
2026-01-12 16:36:44.35	297.18	9.83	-44.6	-46.0	15.9	0.00e+00	0	43	0	1651507200	59	4278
2026-01-12 16:36:46.35	297.52	9.79	-44.7	-46.1	15.9	0.00e+00	0	43	0	1665138688	59	4298
2026-01-12 16:36:48.34	297.86	9.74	-44.6	-46.0	15.9	0.00e+00	0	43	0	1679818752	59	4252
2026-01-12 16:36:50.32	298.20	9.69	-44.7	-46.1	15.8	0.00e+00	0	43	0	1694498816	59	4297
2026-01-12 16:36:52.32	298.54	9.64	-44.7	-46.1	15.8	0.00e+00	0	43	0	1708130304	59	4328
2026-01-12 16:36:54.31	298.87	9.59	-44.9	-46.3	15.6	0.00e+00	0	43	0	1722810368	59	4411
2026-01-12 16:36:56.30	299.21	9.54	-45.0	-46.5	15.5	0.00e+00	0	43	0	1737490432	59	4502
2026-01-12 16:36:58.29	299.54	9.49	-45.1	-46.6	15.3	0.00e+00	0	43	0	1752170496	59	4564
2026-01-12 16:37:00.28	299.88	9.44	-45.2	-46.7	15.2	0.00e+00	0	43	0	1765801984	59	4638
2026-01-12 16:37:02.25	300.21	9.39	-45.2	-46.7	15.3	0.00e+00	0	43	0	1780482048	60	4369
2026-01-12 16:37:04.25	300.54	9.34	-45.0	-46.5	15.6	0.00e+00	0	43	0	1795162112	60	4248
2026-01-12 16:37:06.30	300.88	9.28	-45.1	-46.6	15.5	0.00e+00	0	43	0	1809842176	60	4293
2026-01-12 16:37:08.30	301.21	9.23	-45.1	-46.5	15.5	0.00e+00	0	43	0	1823473664	60	4284
2026-01-12 16:37:10.31	301.54	9.17	-44.9	-46.4	15.7	0.00e+00	0	43	0	1838153728	60	4212
2026-01-12 16:37:12.33	301.87	9.12	-44.9	-46.4	15.7	0.00e+00	0	43	0	1852833792	60	4202
2026-01-12 16:37:14.32	302.20	9.06	-44.9	-46.4	15.6	0.00e+00	0	43	0	1867513856	60	4210
2026-01-12 16:37:16.57	302.56	9.00	-45.9	-47.5	14.6	0.00e+00	0	43	0	1883242496	61	4528
2026-01-12 16:37:18.55	302.88	8.94	-52.8	-63.5	3.8	8.48e-01	0	43	104	1885339648	75	12790
2026-01-12 16:37:20.54	303.21	8.88	-53.0	-63.8	3.8	8.46e-01	0	43	104	1885339648	75	13198
2026-01-12 16:37:22.53	303.53	8.82	-53.1	-63.9	3.8	8.47e-01	0	43	104	1885339648	75	13369
2026-01-12 16:37:24.52	303.84	8.76	-53.2	-63.9	3.8	8.47e-01	0	43	104	1885339648	75	13349
2026-01-12 16:37:26.57	304.17	8.70	-53.2	-64.0	3.8	8.47e-01	0	43	104	1885339648	75	13474
2026-01-12 16:37:28.59	304.49	8.64	-53.2	-64.1	3.8	8.48e-01	0	43	104	1885339648	75	13583
2026-01-12 16:37:30.57	304.81	8.58	-53.1	-63.9	3.8	8.46e-01	0	43	104	1885339648	75	13378
2026-01-12 16:37:32.56	305.12	8.51	-53.1	-64.0	3.8	8.48e-01	0	43	104	1885339648	75	13466
2026-01-12 16:37:34.55	305.43	8.45	-53.1	-64.0	3.8	8.47e-01	0	43	104	1885339648	75	13454
2026-01-12 16:37:36.54	305.74	8.39	-53.1	-63.9	3.8	8.47e-01	0	43	104	1885339648	75	13373
2026-01-12 16:37:38.52	306.05	8.33	-53.0	-63.9	3.8	8.46e-01	0	43	104	1885339648	75	13324
2026-01-12 16:37:40.51	306.36	8.26	-53.0	-63.9	3.8	8.47e-01	0	43	104	1885339648	75	13305
2026-01-12 16:37:42.50	306.67	8.20	-53.0	-63.9	3.8	8.47e-01	0	43	104	1885339648	75	13348
2026-01-12 16:37:44.49	306.97	8.13	-53.0	-63.9	3.8	8.46e-01	0	43	104	1885339648	75	13308
2026-01-12 16:37:46.48	307.28	8.06	-53.0	-63.9	3.8	8.47e-01	0	43	104	1885339648	75	13303
2026-01-12 16:37:48.47	307.58	8.00	-53.0	-63.9	3.8	8.47e-01	0	43	104	1885339648	75	13338
2026-01-12 16:37:50.45	307.88	7.93	-53.0	-63.9	3.8	8.48e-01	0	43	104	1885339648	75	13317
2026-01-12 16:37:52.44	308.18	7.86	-53.0	-63.9	3.8	8.47e-01	0	43	104	1885339648	75	13377
2026-01-12 16:37:54.43	308.48	7.80	-53.0	-63.9	3.8	8.47e-01	0	43	104	1885339648	75	13345
2026-01-12 16:37:56.41	308.77	7.73	-53.0	-63.9	3.8	8.47e-01	0	43	104	1885339648	75	13297
2026-01-12 16:37:58.40	309.07	7.66	-53.0	-63.8	3.8	8.47e-01	0	43	104	1885339648	75	13233
2026-01-12 16:38:00.39	309.37	7.59	-53.0	-63.9	3.8	8.47e-01	0	43	104	1885339648	75	13299
2026-01-12 16:38:02.37	309.66	7.52	-53.0	-63.8	3.8	8.47e-01	0	43	104	1885339648	75	13247
2026-01-12 16:38:04.36	309.95	7.45	-53.0	-63.8	3.8	8.46e-01	0	43	104	1885339648	75	13219
2026-01-12 16:38:06.35	310.24	7.38	-53.0	-63.8	3.8	8.48e-01	0	43	104	1885339648	75	13231
2026-01-12 16:38:08.39	310.54	7.31	-53.0	-63.8	3.8	8.47e-01	0	43	104	1885339648	75	13231
2026-01-12 16:38:10.37	310.82	7.24	-53.0	-63.9	3.8	8.46e-01	0	43	104	1885339648	75	13268
2026-01-12 16:38:12.36	311.11	7.17	-53.0	-63.9	3.8	8.47e-01	0	43	104	1885339648	75	13302
2026-01-12 16:38:14.35	311.40	7.09	-53.0	-63.9	3.8	8.47e-01	0	43	104	1885339648	75	13292
2026-01-12 16:38:16.33	311.68	7.02	-53.0	-63.9	3.8	8.46e-01	0	43	104	1885339648	75	13274
2026-01-12 16:38:18.32	311.96	6.95	-53.0	-63.8	3.8	8.46e-01	0	43	104	1885339648	75	13227
2026-01-12 16:38:20.31	312.24	6.88	-53.0	-63.9	3.8	8.46e-01	0	43	104	1885339648	75	13338
2026-01-12 16:38:22.29	312.52	6.80	-53.0	-63.9	3.8	8.47e-01	0	43	104	1885339648	75	13301
2026-01-12 16:38:24.33	312.81	6.73	-52.9	-63.8	3.8	8.48e-01	0	43	104	1885339648	75	13246
2026-01-12 16:38:26.38	313.09	6.65	-53.0	-63.8	3.8	8.47e-01	0	43	104	1885339648	75	13177
2026-01-12 16:38:28.37	313.37	6.58	-53.0	-63.9	3.8	8.47e-01	0	43	104	1885339648	75	13270
2026-01-12 16:38:30.36	313.64	6.50	-53.0	-63.8	3.8	8.46e-01	0	43	104	1885339648	75	13252
2026-01-12 16:38:32.34	313.91	6.43	-53.0	-63.8	3.8	8.46e-01	0	43	104	1885339648	75	13193
2026-01-12 16:38:34.61	314.22	6.34	-53.0	-63.8	3.8	8.46e-01	0	43	104	1885339648	75	13212
2026-01-12 16:38:36.60	314.49	6.26	-53.0	-63.8	3.8	8.46e-01	0	43	104	1885339648	75	13238
2026-01-12 16:38:38.59	314.76	6.19	-53.0	-63.9	3.8	8.46e-01	0	43	104	1885339648	75	13296
2026-01-12 16:38:40.58	315.03	6.11	-53.0	-63.8	3.8	8.46e-01	0	43	104	1885339648	75	13202
2026-01-12 16:38:42.57	315.29	6.03	-53.0	-63.9	3.8	8.47e-01	0	43	104	1885339648	75	13270
2026-01-12 16:38:44.55	315.56	5.96	-53.0	-63.9	3.8	8.47e-01	0	43	104	1885339648	75	13278
2026-01-12 16:38:46.54	315.82	5.88	-53.0	-63.8	3.8	8.47e-01	0	43	104	1885339648	75	13178
2026-01-12 16:38:48.53	316.08	5.80	-53.0	-63.8	3.8	8.47e-01	0	43	104	1885339648	75	13185
2026-01-12 16:38:50.52	316.34	5.72	-53.0	-63.8	3.8	8.47e-01	0	43	104	1885339648	75	13184
2026-01-12 16:38:52.77	316.63	5.64	-53.0	-63.8	3.8	8.47e-01	0	43	104	1885339648	75	13235
2026-01-12 16:38:54.76	316.89	5.56	-53.0	-63.8	3.8	8.47e-01	0	43	104	1885339648	75	13248
2026-01-12 16:38:56.75	317.15	5.48	-53.0	-63.9	3.8	8.46e-01	0	43	104	1885339648	75	13291
2026-01-12 16:38:58.75	317.41	5.40	-53.0	-63.8	3.8	8.46e-01	0	43	104	1885339648	75	13210
2026-01-12 16:39:00.74	317.66	5.32	-52.9	-63.8	3.8	8.47e-01	0	43	104	1885339648	75	13222
2026-01-12 16:39:02.72	317.91	5.24	-52.9	-63.8	3.8	8.47e-01	0	43	104	1885339648	75	13178
2026-01-12 16:39:04.73	318.16	5.16	-53.0	-63.9	3.8	8.47e-01	0	43	104	1885339648	75	13309
2026-01-12 16:39:06.73	318.41	5.08	-53.0	-63.8	3.8	8.45e-01	0	43	104	1885339648	75	13253
2026-01-12 16:39:08.72	318.66	5.00	-53.0	-63.8	3.8	8.47e-01	0	43	104	1885339648	75	13259

#Closed at: 2026-01-12 16:39:09
#Recorded file [1885 MB]: D:/Data/31040_260112_193113.dat