passes_logs/2026/01/12/T1/T1__20260112_005221_NOAA_20_JPSS-1_rec.log

#Pass ID: 20260112_005221_NOAA 20 (JPSS-1)
#Satellite: NOAA 20 (JPSS-1)
#Configuration: NOAA 20
#almurnet v.1.7.20251203
#Start time: 2026-01-12 00:52:21

#Version: 2.0.20230620
#Station: T1
#Location: 37.570604 lon 55.790049 lat
#TLE: 1 43013U 17073A   26011.31235446  .00000090  00000+0  63634-4 0  9991
#TLE: 2 43013  98.7632 312.2907 0001646  44.6084 315.5224 14.19535308422217

#Time	Az	El	Level	Level2	SNR	BER	BlckErr	Temp	State	Recorded	gain1	gain2
2026-01-12 00:52:21.97	9.25	5.04	-50.0	-65.8	3.8	1.49e+00	0	41	0	0	71	22326
2026-01-12 00:52:24.95	9.08	5.24	-48.1	-65.4	3.8	1.49e+00	0	41	104	0	67	26924
2026-01-12 00:52:27.93	8.91	5.43	-48.1	-65.4	3.8	1.49e+00	0	41	104	0	67	26807
2026-01-12 00:52:30.91	8.73	5.63	-48.2	-65.3	3.8	1.49e+00	0	41	104	0	67	26714
2026-01-12 00:52:33.89	8.55	5.83	-48.2	-65.3	3.8	1.49e+00	0	41	104	0	67	26635
2026-01-12 00:52:36.87	8.37	6.04	-48.1	-65.2	3.8	1.49e+00	0	41	104	0	67	26254
2026-01-12 00:52:39.85	8.19	6.24	-48.2	-64.9	3.8	1.49e+00	0	41	104	0	67	25484
2026-01-12 00:52:42.83	8.00	6.44	-48.2	-64.8	3.8	1.49e+00	0	42	104	0	67	25237
2026-01-12 00:52:45.81	7.81	6.65	-48.2	-64.9	3.8	1.49e+00	0	42	104	0	67	25342
2026-01-12 00:52:48.79	7.62	6.86	-48.2	-64.6	3.8	1.49e+00	0	42	104	0	67	24411
2026-01-12 00:52:51.77	7.42	7.07	-48.2	-64.5	3.8	1.49e+00	0	42	104	0	67	24311
2026-01-12 00:52:54.75	7.22	7.28	-48.2	-65.2	3.8	1.49e+00	0	42	104	0	67	26395
2026-01-12 00:52:57.73	7.02	7.49	-48.2	-64.3	3.8	1.49e+00	0	42	104	0	67	23722
2026-01-12 00:53:00.71	6.82	7.70	-48.0	-60.5	4.6	1.32e+00	0	42	0	0	67	15378
2026-01-12 00:53:03.69	6.61	7.92	-47.6	-56.9	7.0	2.06e-01	0	42	0	6291456	67	10173
2026-01-12 00:53:06.67	6.40	8.13	-47.1	-54.7	9.3	2.26e-02	0	42	0	11534336	66	8304
2026-01-12 00:53:09.64	6.19	8.35	-46.6	-52.8	11.3	1.47e-03	0	42	0	16777216	65	7049
2026-01-12 00:53:12.63	5.97	8.57	-46.3	-52.1	11.9	3.51e-04	0	42	0	23068672	64	6935
2026-01-12 00:53:15.61	5.74	8.79	-46.7	-53.4	10.7	1.31e-03	0	42	0	28311552	64	7993
2026-01-12 00:53:18.59	5.52	9.01	-47.6	-57.0	7.1	8.77e-02	0	42	0	33554432	65	11435
2026-01-12 00:53:21.57	5.29	9.23	-47.7	-56.7	7.1	1.31e+00	0	42	0	37748736	67	9848
2026-01-12 00:53:24.56	5.06	9.46	-48.2	-60.7	4.5	1.06e+00	0	43	0	42991616	67	15683
2026-01-12 00:53:27.55	4.82	9.68	-48.3	-60.1	4.9	8.10e-01	0	43	0	49283072	67	14608
2026-01-12 00:53:30.53	4.58	9.91	-48.4	-57.3	7.2	2.38e-02	0	43	0	54525952	67	10579
2026-01-12 00:53:33.52	4.34	10.14	-48.4	-55.8	8.0	7.69e-01	0	43	0	57671680	68	8453
2026-01-12 00:53:36.51	4.09	10.37	-46.4	-50.6	13.6	1.52e-05	0	43	0	62914560	64	5810
2026-01-12 00:53:39.49	3.83	10.61	-46.4	-50.5	13.6	9.90e-06	0	43	0	69206016	64	5769
2026-01-12 00:53:42.48	3.58	10.84	-46.3	-50.5	13.7	9.90e-06	0	43	0	74448896	64	5734
2026-01-12 00:53:45.46	3.32	11.08	-46.3	-50.3	14.0	3.00e-06	0	43	0	79691776	64	5611
2026-01-12 00:53:48.45	3.05	11.32	-46.1	-49.9	14.2	3.00e-06	0	43	0	85983232	64	5401
2026-01-12 00:53:51.43	2.78	11.56	-46.0	-49.8	14.4	1.50e-06	0	43	0	91226112	64	5317
2026-01-12 00:53:54.41	2.51	11.80	-46.1	-49.8	14.6	7.00e-07	0	43	0	96468992	63	5609
2026-01-12 00:53:57.39	2.23	12.04	-46.0	-49.6	14.8	0.00e+00	0	43	0	102760448	63	5504
2026-01-12 00:54:00.44	1.94	12.29	-45.9	-49.5	14.9	0.00e+00	0	43	0	108003328	63	5423
2026-01-12 00:54:03.35	1.65	12.53	-45.8	-49.3	15.1	0.00e+00	0	43	0	113246208	63	5308
2026-01-12 00:54:06.48	1.34	12.79	-45.9	-49.3	15.1	0.00e+00	0	43	0	119537664	63	5330
2026-01-12 00:54:09.32	1.06	13.03	-45.9	-49.3	15.1	0.00e+00	0	43	0	124780544	63	5325
2026-01-12 00:54:12.45	0.74	13.30	-45.8	-49.3	15.1	0.00e+00	0	43	0	131072000	63	5295
2026-01-12 00:54:15.29	0.44	13.54	-45.9	-49.4	15.1	0.00e+00	0	43	0	136314880	63	5368
2026-01-12 00:54:18.56	0.10	13.82	-45.8	-49.4	15.1	0.00e+00	0	43	0	142606336	63	5352
2026-01-12 00:54:21.30	359.80	14.05	-45.7	-49.3	15.2	0.00e+00	0	43	0	147849216	63	5282
2026-01-12 00:54:24.58	359.44	14.34	-45.8	-49.3	15.1	0.00e+00	0	43	0	153092096	63	5327
2026-01-12 00:54:27.42	359.12	14.59	-45.5	-49.1	15.3	0.00e+00	0	43	0	158334976	63	5196
2026-01-12 00:54:30.54	358.77	14.86	-45.4	-49.0	15.5	0.00e+00	0	43	0	164626432	62	5433
2026-01-12 00:54:33.38	358.44	15.11	-45.5	-49.1	15.3	0.00e+00	0	43	0	169869312	62	5502
2026-01-12 00:54:36.62	358.05	15.40	-45.5	-49.1	15.4	0.00e+00	0	43	0	176160768	62	5502
2026-01-12 00:54:39.46	357.71	15.66	-45.6	-49.3	15.2	0.00e+00	0	43	0	181403648	62	5613
2026-01-12 00:54:42.59	357.33	15.94	-45.6	-49.3	15.2	0.00e+00	0	43	0	187695104	62	5627
2026-01-12 00:54:45.61	356.95	16.22	-45.8	-49.4	15.1	0.00e+00	0	43	0	192937984	62	5689
2026-01-12 00:54:48.96	356.52	16.53	-46.0	-49.6	14.9	7.00e-07	0	43	0	199229440	62	5842
2026-01-12 00:54:51.72	356.16	16.78	-46.0	-49.5	15.0	0.00e+00	0	43	0	204472320	62	5753
2026-01-12 00:54:54.99	355.73	17.09	-46.0	-49.4	15.1	7.00e-07	0	43	0	210763776	62	5706
2026-01-12 00:54:57.72	355.36	17.34	-46.0	-49.5	15.0	0.00e+00	0	44	0	216006656	62	5738
2026-01-12 00:55:01.01	354.91	17.65	-46.0	-49.6	14.9	0.00e+00	0	43	0	222298112	62	5838
2026-01-12 00:55:03.74	354.52	17.91	-46.1	-49.8	14.8	0.00e+00	0	43	0	226492416	62	5929
2026-01-12 00:55:07.16	354.03	18.24	-46.3	-50.0	14.5	0.00e+00	0	43	0	233832448	63	5767
2026-01-12 00:55:10.19	353.59	18.53	-46.3	-50.0	14.5	1.50e-06	0	43	0	239075328	63	5754
2026-01-12 00:55:13.39	353.11	18.83	-46.1	-49.7	14.9	0.00e+00	0	43	0	245366784	63	5543
2026-01-12 00:55:16.23	352.68	19.11	-45.9	-49.5	15.1	0.00e+00	0	43	0	250609664	63	5414
2026-01-12 00:55:19.37	352.19	19.42	-45.7	-49.3	15.3	0.00e+00	0	43	0	255852544	63	5319
2026-01-12 00:55:22.24	351.74	19.70	-45.7	-49.2	15.3	0.00e+00	0	43	0	262144000	63	5278
2026-01-12 00:55:25.37	351.23	20.00	-45.7	-49.1	15.5	0.00e+00	0	43	0	267386880	63	5180
2026-01-12 00:55:28.21	350.76	20.29	-46.0	-49.3	15.3	0.00e+00	0	43	0	272629760	63	5328
2026-01-12 00:55:31.33	350.24	20.59	-45.9	-49.2	15.4	0.00e+00	0	43	0	278921216	63	5224
2026-01-12 00:55:34.17	349.75	20.88	-45.8	-49.1	15.5	0.00e+00	0	43	0	284164096	63	5185
2026-01-12 00:55:37.30	349.21	21.19	-45.7	-48.9	15.7	0.00e+00	0	43	0	289406976	63	5083
2026-01-12 00:55:40.16	348.70	21.48	-45.7	-48.8	15.8	0.00e+00	0	43	0	295698432	63	5005
2026-01-12 00:55:43.28	348.13	21.79	-45.5	-48.8	15.8	0.00e+00	0	43	0	300941312	63	5007
2026-01-12 00:55:46.13	347.60	22.08	-45.5	-49.0	15.6	0.00e+00	0	43	0	306184192	63	5112
2026-01-12 00:55:49.25	347.01	22.39	-45.8	-49.2	15.4	0.00e+00	0	43	0	312475648	63	5247
2026-01-12 00:55:52.10	346.46	22.68	-45.8	-49.3	15.3	0.00e+00	0	43	0	317718528	63	5333
2026-01-12 00:55:55.23	345.85	23.00	-45.8	-49.6	15.0	7.00e-07	0	43	0	324009984	63	5516
2026-01-12 00:55:58.18	345.25	23.30	-45.6	-49.7	14.9	0.00e+00	0	43	0	329252864	63	5563
2026-01-12 00:56:01.30	344.62	23.61	-45.9	-49.9	14.7	0.00e+00	0	43	0	334495744	63	5684
2026-01-12 00:56:04.21	344.01	23.91	-46.3	-50.0	14.6	0.00e+00	0	43	0	340787200	63	5785
2026-01-12 00:56:07.74	343.26	24.27	-46.1	-49.7	14.9	0.00e+00	0	43	0	347078656	63	5576
2026-01-12 00:56:10.44	342.67	24.54	-46.0	-49.6	15.0	0.00e+00	0	43	0	352321536	63	5508
2026-01-12 00:56:13.72	341.94	24.87	-46.1	-49.7	14.9	0.00e+00	0	43	0	358612992	63	5558
2026-01-12 00:56:16.45	341.32	25.15	-46.2	-49.6	15.0	0.00e+00	0	43	0	362807296	63	5518
2026-01-12 00:56:19.72	340.57	25.47	-45.9	-49.2	15.4	0.00e+00	0	43	0	369098752	63	5228
2026-01-12 00:56:22.45	339.93	25.75	-45.7	-48.9	15.7	0.00e+00	0	43	0	374341632	63	5093
2026-01-12 00:56:25.97	339.08	26.10	-45.8	-49.1	15.5	0.00e+00	0	43	0	381681664	63	5160
2026-01-12 00:56:28.70	338.41	26.36	-45.7	-48.9	15.7	0.00e+00	0	43	0	385875968	63	5045
2026-01-12 00:56:31.99	337.59	26.69	-45.6	-48.7	15.9	0.00e+00	0	44	0	392167424	63	4959
2026-01-12 00:56:34.69	336.91	26.95	-45.5	-48.6	16.0	0.00e+00	0	44	0	397410304	62	5196
2026-01-12 00:56:38.04	336.04	27.27	-45.9	-49.2	15.4	0.00e+00	0	44	0	403701760	62	5537
2026-01-12 00:56:40.75	335.33	27.53	-45.5	-48.9	15.7	0.00e+00	0	44	0	408944640	62	5379
2026-01-12 00:56:44.02	334.45	27.84	-45.7	-49.2	15.4	0.00e+00	0	44	0	415236096	62	5574
2026-01-12 00:56:46.75	333.70	28.09	-46.1	-49.6	15.0	0.00e+00	0	44	0	420478976	62	5855
2026-01-12 00:56:50.02	332.79	28.39	-46.4	-50.5	14.1	5.30e-06	0	44	0	425721856	63	6121
2026-01-12 00:56:52.72	332.03	28.64	-46.5	-50.8	13.9	3.80e-06	0	43	0	430964736	63	6286
2026-01-12 00:56:56.05	331.07	28.93	-47.1	-51.4	13.1	1.90e-05	0	43	0	437256192	64	6411
2026-01-12 00:56:58.77	330.28	29.17	-47.2	-51.7	12.8	6.17e-05	0	43	0	442499072	65	6228
2026-01-12 00:57:02.29	329.23	29.47	-47.1	-51.6	13.0	3.81e-05	0	44	0	448790528	65	6178
2026-01-12 00:57:05.02	328.40	29.70	-47.3	-51.9	12.7	6.02e-05	0	43	0	454033408	65	6381
2026-01-12 00:57:08.30	327.39	29.97	-47.8	-52.8	11.7	5.61e-04	0	43	0	460324864	66	6691
2026-01-12 00:57:11.07	326.53	30.19	-47.8	-52.5	12.1	2.01e-04	0	44	0	465567744	66	6431
2026-01-12 00:57:14.71	325.38	30.47	-47.4	-51.8	12.8	6.79e-05	0	44	0	472907776	66	5940
2026-01-12 00:57:17.46	324.49	30.67	-47.2	-51.5	13.1	4.27e-05	0	44	0	478150656	66	5748
2026-01-12 00:57:20.73	323.42	30.91	-47.0	-51.2	13.4	1.67e-05	0	43	0	483393536	66	5551
2026-01-12 00:57:23.46	322.52	31.10	-46.9	-51.1	13.5	1.44e-05	0	44	0	488636416	65	5796
2026-01-12 00:57:26.76	321.42	31.31	-46.8	-50.8	13.8	5.30e-06	0	44	0	494927872	65	5630
2026-01-12 00:57:29.47	320.50	31.49	-46.6	-50.5	14.1	1.50e-06	0	44	0	500170752	65	5433
2026-01-12 00:57:32.75	319.37	31.68	-46.4	-50.4	14.1	7.00e-07	0	44	0	506462208	64	5707
2026-01-12 00:57:35.47	318.43	31.84	-46.5	-50.4	14.2	7.00e-07	0	44	0	511705088	64	5712
2026-01-12 00:57:38.75	317.28	32.02	-47.0	-51.0	13.7	2.20e-06	0	44	0	517996544	64	6112
2026-01-12 00:57:41.48	316.31	32.15	-46.8	-50.8	13.8	3.00e-06	0	44	0	523239424	64	5933
2026-01-12 00:57:44.75	315.15	32.31	-46.9	-50.7	13.9	2.20e-06	0	43	0	528482304	64	5889
2026-01-12 00:57:47.58	314.13	32.43	-46.6	-50.3	14.3	0.00e+00	0	44	0	533725184	64	5614
2026-01-12 00:57:50.71	312.99	32.55	-46.7	-50.5	14.1	7.00e-07	0	44	0	540016640	64	5726
2026-01-12 00:57:53.55	311.95	32.66	-46.4	-49.9	14.8	0.00e+00	0	44	0	545259520	64	5351
2026-01-12 00:57:56.68	310.80	32.76	-45.9	-49.1	15.6	0.00e+00	0	43	0	551550976	63	5160
2026-01-12 00:57:59.63	309.71	32.84	-45.9	-49.0	15.7	0.00e+00	0	44	0	556793856	63	5120
2026-01-12 00:58:02.98	308.47	32.92	-46.2	-49.6	15.0	0.00e+00	0	44	0	563085312	63	5491
2026-01-12 00:58:05.87	307.39	32.98	-46.3	-49.8	14.9	0.00e+00	0	44	0	568328192	63	5606
2026-01-12 00:58:09.21	306.14	33.03	-46.6	-50.1	14.6	0.00e+00	0	44	0	574619648	63	5807
2026-01-12 00:58:12.25	304.99	33.06	-46.6	-50.2	14.3	0.00e+00	0	44	0	580911104	64	5569
2026-01-12 00:58:15.10	303.92	33.08	-46.8	-50.6	14.0	3.80e-06	0	44	0	586153984	64	5793
2026-01-12 00:58:18.30	302.72	33.09	-46.7	-50.6	14.0	3.00e-06	0	44	0	591396864	64	5830
2026-01-12 00:58:21.14	301.65	33.08	-46.7	-50.5	14.1	1.50e-06	0	43	0	596639744	64	5755
2026-01-12 00:58:24.49	300.38	33.06	-46.5	-50.2	14.4	7.00e-07	0	44	0	602931200	64	5530
2026-01-12 00:58:27.44	299.28	33.03	-46.4	-49.9	14.7	7.00e-07	0	44	0	609222656	64	5361
2026-01-12 00:58:30.71	298.05	32.98	-46.6	-50.1	14.5	1.50e-06	0	44	0	614465536	64	5517
2026-01-12 00:58:33.41	297.04	32.93	-46.9	-50.7	13.8	7.00e-07	0	44	0	619708416	64	5886
2026-01-12 00:58:36.69	295.82	32.86	-46.8	-50.5	14.0	4.50e-06	0	44	0	625999872	64	5788
2026-01-12 00:58:39.54	294.76	32.78	-46.6	-50.2	14.3	1.50e-06	0	44	0	631242752	64	5579
2026-01-12 00:58:42.89	293.53	32.68	-46.8	-50.7	13.9	3.80e-06	0	44	0	637534208	64	5858
2026-01-12 00:58:45.79	292.46	32.57	-47.2	-51.2	13.3	1.14e-05	0	43	0	642777088	65	5876
2026-01-12 00:58:49.08	291.27	32.45	-46.8	-50.5	14.0	5.30e-06	0	44	0	649068544	65	5446
2026-01-12 00:58:51.87	290.26	32.33	-46.6	-50.3	14.3	7.00e-07	0	44	0	654311424	65	5311
2026-01-12 00:58:55.00	289.14	32.18	-46.9	-50.7	13.9	5.30e-06	0	44	0	660602880	65	5531
2026-01-12 00:58:57.84	288.13	32.04	-47.0	-50.9	13.6	9.10e-06	0	44	0	665845760	65	5701
2026-01-12 00:59:01.11	286.98	31.86	-47.0	-50.9	13.7	9.90e-06	0	44	0	672137216	65	5665
2026-01-12 00:59:04.27	285.88	31.68	-47.2	-51.3	13.3	1.29e-05	0	43	0	677380096	65	5924
2026-01-12 00:59:07.41	284.80	31.49	-47.2	-51.2	13.3	1.67e-05	0	44	0	683671552	65	5911
2026-01-12 00:59:10.40	283.79	31.30	-46.9	-50.8	13.7	6.80e-06	0	44	0	688914432	65	5612
2026-01-12 00:59:13.39	282.78	31.11	-47.2	-51.1	13.4	8.30e-06	0	44	0	695205888	65	5821
2026-01-12 00:59:16.37	281.80	30.90	-47.3	-51.4	13.1	3.35e-05	0	44	0	700448768	65	6035
2026-01-12 00:59:19.38	280.81	30.68	-47.0	-50.8	13.7	6.10e-06	0	44	0	706740224	65	5646
2026-01-12 00:59:22.36	279.85	30.46	-47.0	-51.0	13.5	7.60e-06	0	44	0	711983104	65	5764
2026-01-12 00:59:25.50	278.85	30.22	-47.1	-51.2	13.4	1.90e-05	0	43	0	717225984	65	5873
2026-01-12 00:59:28.35	277.96	29.99	-47.0	-50.9	13.6	6.80e-06	0	44	0	723517440	65	5681
2026-01-12 00:59:31.47	276.99	29.74	-46.9	-50.7	13.8	7.00e-07	0	44	0	728760320	65	5532
2026-01-12 00:59:34.32	276.12	29.50	-46.9	-50.6	13.9	4.50e-06	0	43	0	734003200	65	5505
2026-01-12 00:59:37.52	275.17	29.23	-46.9	-50.7	13.8	6.10e-06	0	44	0	740294656	65	5559
2026-01-12 00:59:40.45	274.30	28.97	-46.5	-50.0	14.5	0.00e+00	0	44	0	745537536	64	5442
2026-01-12 00:59:43.58	273.40	28.69	-46.4	-50.0	14.5	7.00e-07	0	44	0	751828992	64	5417
2026-01-12 00:59:46.42	272.59	28.44	-46.8	-50.5	14.0	2.20e-06	0	44	0	757071872	64	5769
2026-01-12 00:59:49.55	271.71	28.15	-46.6	-50.2	14.3	3.00e-06	0	44	0	762314752	64	5540
2026-01-12 00:59:52.39	270.93	27.89	-46.2	-49.7	14.8	0.00e+00	0	44	0	768606208	64	5256
2026-01-12 00:59:55.58	270.07	27.58	-46.0	-49.4	15.1	0.00e+00	0	44	0	773849088	64	5073
2026-01-12 00:59:58.42	269.31	27.31	-46.2	-49.7	14.8	0.00e+00	0	44	0	779091968	64	5249
2026-01-12 01:00:01.54	268.50	27.01	-46.0	-49.3	15.2	0.00e+00	0	44	0	785383424	64	5022
2026-01-12 01:00:04.38	267.77	26.74	-46.0	-49.3	15.3	7.00e-07	0	44	0	790626304	63	5302
2026-01-12 01:00:07.51	266.98	26.43	-45.9	-49.1	15.5	0.00e+00	0	44	0	796917760	63	5205
2026-01-12 01:00:10.35	266.28	26.15	-45.5	-48.6	16.0	0.00e+00	0	44	0	802160640	63	4876
2026-01-12 01:00:13.57	265.50	25.83	-45.2	-48.1	16.5	0.00e+00	0	44	0	807403520	62	4883
2026-01-12 01:00:16.48	264.81	25.54	-45.1	-48.0	16.6	0.00e+00	0	44	0	813694976	62	4830
2026-01-12 01:00:19.70	264.06	25.21	-44.5	-47.2	17.3	0.00e+00	0	44	0	818937856	60	4930
2026-01-12 01:00:22.55	263.41	24.92	-44.2	-46.8	17.7	0.00e+00	0	44	0	825229312	60	4731
2026-01-12 01:00:25.68	262.71	24.61	-44.2	-46.8	17.7	0.00e+00	0	44	0	830472192	60	4717
2026-01-12 01:00:28.52	262.08	24.32	-44.1	-46.7	17.8	0.00e+00	0	44	0	835715072	60	4656
2026-01-12 01:00:31.64	261.41	24.00	-43.9	-46.5	17.9	0.00e+00	0	44	0	842006528	59	4828
2026-01-12 01:00:34.48	260.81	23.71	-44.0	-46.5	17.8	0.00e+00	0	44	0	847249408	59	4870
2026-01-12 01:00:37.61	260.16	23.39	-43.7	-46.1	18.2	0.00e+00	0	44	0	852492288	59	4647
2026-01-12 01:00:40.46	259.58	23.10	-43.6	-46.0	18.3	0.00e+00	0	44	0	858783744	59	4573
2026-01-12 01:00:43.58	258.96	22.79	-43.6	-46.0	18.4	0.00e+00	0	44	0	864026624	59	4565
2026-01-12 01:00:46.43	258.40	22.50	-43.6	-46.0	18.3	0.00e+00	0	44	0	869269504	59	4592
2026-01-12 01:00:49.55	257.80	22.18	-43.8	-46.3	18.0	0.00e+00	0	44	0	875560960	59	4755
2026-01-12 01:00:52.40	257.27	21.89	-44.1	-46.7	17.7	0.00e+00	0	43	0	880803840	59	4952
2026-01-12 01:00:55.68	256.66	21.56	-44.0	-46.6	17.7	0.00e+00	0	44	0	887095296	59	4889
2026-01-12 01:00:58.38	256.18	21.29	-44.1	-46.6	17.7	0.00e+00	0	44	0	892338176	59	4907
2026-01-12 01:01:01.66	255.59	20.96	-44.2	-46.8	17.6	0.00e+00	0	44	0	897581056	59	4997
2026-01-12 01:01:04.47	255.11	20.68	-44.5	-47.2	17.2	0.00e+00	0	44	0	903872512	59	5227
2026-01-12 01:01:07.74	254.55	20.35	-44.5	-47.1	17.2	0.00e+00	0	44	0	909115392	59	5218
2026-01-12 01:01:10.72	254.05	20.05	-44.6	-47.3	17.1	0.00e+00	0	43	0	915406848	59	5293
2026-01-12 01:01:13.71	253.56	19.76	-44.8	-47.6	16.8	0.00e+00	0	44	0	920649728	60	5215
2026-01-12 01:01:16.69	253.09	19.47	-45.0	-47.9	16.6	0.00e+00	0	44	0	925892608	60	5355
2026-01-12 01:01:19.67	252.62	19.17	-44.8	-47.5	16.9	0.00e+00	0	43	0	932184064	60	5158
2026-01-12 01:01:22.94	252.11	18.85	-44.8	-47.6	16.8	0.00e+00	0	44	0	938475520	60	5211
2026-01-12 01:01:25.85	251.67	18.57	-45.0	-47.9	16.5	0.00e+00	0	44	0	943718400	60	5380
2026-01-12 01:01:29.34	251.16	18.24	-45.1	-48.1	16.3	0.00e+00	0	44	0	950009856	61	5174
2026-01-12 01:01:32.36	250.72	17.95	-45.1	-47.9	16.5	0.00e+00	0	43	0	955252736	61	5099
2026-01-12 01:01:35.34	250.30	17.66	-45.1	-47.9	16.5	0.00e+00	0	43	0	961544192	61	5100
2026-01-12 01:01:38.32	249.88	17.38	-45.4	-48.5	15.9	0.00e+00	0	44	0	966787072	61	5447
2026-01-12 01:01:41.34	249.47	17.10	-45.5	-48.7	15.7	0.00e+00	0	44	0	972029952	61	5558
2026-01-12 01:01:44.33	249.06	16.82	-45.3	-48.4	16.0	0.00e+00	0	44	0	978321408	61	5361
2026-01-12 01:01:47.63	248.63	16.51	-45.3	-48.4	16.0	0.00e+00	0	44	0	984612864	61	5362
2026-01-12 01:01:50.33	248.28	16.26	-45.6	-48.8	15.6	0.00e+00	0	44	0	988807168	61	5593
2026-01-12 01:01:53.62	247.86	15.96	-46.0	-49.2	15.2	0.00e+00	0	44	0	995098624	62	5584
2026-01-12 01:01:56.50	247.50	15.70	-45.9	-49.1	15.3	0.00e+00	0	44	0	1000341504	62	5512
2026-01-12 01:01:59.62	247.12	15.41	-45.7	-48.9	15.5	0.00e+00	0	44	0	1006632960	62	5370
2026-01-12 01:02:02.46	246.78	15.16	-45.7	-48.9	15.5	0.00e+00	0	44	0	1011875840	62	5383
2026-01-12 01:02:05.70	246.40	14.87	-46.0	-49.3	15.1	0.00e+00	0	44	0	1018167296	62	5646
2026-01-12 01:02:08.82	246.04	14.59	-46.2	-49.6	14.8	0.00e+00	0	44	0	1024458752	63	5476
2026-01-12 01:02:11.66	245.72	14.34	-46.1	-49.4	14.9	0.00e+00	0	44	0	1029701632	63	5395
2026-01-12 01:02:14.79	245.37	14.07	-45.9	-49.1	15.2	0.00e+00	0	44	0	1034944512	63	5200
2026-01-12 01:02:17.63	245.06	13.82	-45.7	-48.8	15.5	0.00e+00	0	44	0	1040187392	63	5025
2026-01-12 01:02:20.76	244.72	13.55	-45.9	-49.2	15.1	0.00e+00	0	44	0	1046478848	63	5265
2026-01-12 01:02:23.60	244.42	13.31	-46.2	-49.7	14.6	7.00e-07	0	44	0	1051721728	63	5565
2026-01-12 01:02:26.72	244.10	13.04	-46.4	-49.9	14.4	0.00e+00	0	44	0	1058013184	63	5709
2026-01-12 01:02:29.57	243.81	12.80	-46.3	-49.8	14.5	0.00e+00	0	44	0	1063256064	63	5600
2026-01-12 01:02:32.69	243.49	12.54	-46.1	-49.6	14.8	7.00e-07	0	44	0	1068498944	63	5467
2026-01-12 01:02:35.65	243.20	12.30	-46.1	-49.6	14.7	7.00e-07	0	44	0	1074790400	63	5497
2026-01-12 01:02:38.63	242.91	12.05	-46.2	-49.8	14.5	3.00e-06	0	44	0	1080033280	63	5625
2026-01-12 01:02:41.96	242.60	11.78	-46.4	-50.1	14.2	1.50e-06	0	44	0	1086324736	63	5829
2026-01-12 01:02:44.68	242.34	11.56	-46.6	-50.3	14.0	1.50e-06	0	44	0	1091567616	63	5965
2026-01-12 01:02:47.94	242.04	11.29	-46.5	-50.2	14.1	7.00e-07	0	44	0	1096810496	63	5883
2026-01-12 01:02:50.65	241.80	11.08	-46.4	-50.0	14.3	7.00e-07	0	44	0	1102053376	63	5757
2026-01-12 01:02:54.15	241.49	10.80	-46.4	-50.1	14.1	0.00e+00	0	44	0	1109393408	63	5850
2026-01-12 01:02:56.85	241.25	10.58	-46.4	-50.1	14.1	7.00e-07	0	44	0	1113587712	63	5822
2026-01-12 01:03:00.24	240.96	10.32	-46.5	-50.1	14.1	1.50e-06	0	44	0	1119879168	63	5846
2026-01-12 01:03:02.94	240.73	10.11	-46.5	-50.3	14.0	3.00e-06	0	44	0	1125122048	63	5926
2026-01-12 01:03:06.22	240.46	9.85	-46.5	-50.1	14.1	3.00e-06	0	44	0	1131413504	63	5835
2026-01-12 01:03:09.06	240.23	9.64	-46.6	-50.4	13.8	7.00e-07	0	44	0	1136656384	63	6026
2026-01-12 01:03:12.19	239.98	9.40	-46.6	-50.4	13.8	2.20e-06	0	44	0	1142947840	63	6040
2026-01-12 01:03:15.40	239.72	9.15	-46.7	-50.6	13.5	9.10e-06	0	44	0	1149239296	64	5813
2026-01-12 01:03:18.41	239.49	8.93	-50.3	-65.3	3.8	8.49e-01	0	44	104	1153433600	71	21144
2026-01-12 01:03:21.39	239.26	8.71	-50.6	-65.9	3.8	1.49e+00	0	44	104	1153433600	72	21351
2026-01-12 01:03:24.37	239.04	8.49	-50.8	-66.0	3.8	1.49e+00	0	44	104	1153433600	72	21582
2026-01-12 01:03:27.35	238.82	8.27	-50.8	-66.0	3.8	1.49e+00	0	44	104	1153433600	72	21654
2026-01-12 01:03:30.44	238.59	8.04	-50.8	-66.0	3.8	1.49e+00	0	44	104	1153433600	72	21715
2026-01-12 01:03:33.53	238.37	7.82	-50.7	-66.0	3.8	1.49e+00	0	44	104	1153433600	72	21726
2026-01-12 01:03:36.54	238.15	7.60	-50.7	-66.0	3.8	1.49e+00	0	44	104	1153433600	72	21631
2026-01-12 01:03:39.52	237.95	7.39	-50.6	-66.0	3.8	1.49e+00	0	44	104	1153433600	72	21535
2026-01-12 01:03:42.50	237.74	7.17	-50.6	-66.0	3.8	1.49e+00	0	44	104	1153433600	72	21602
2026-01-12 01:03:45.48	237.54	6.96	-50.6	-65.9	3.8	1.49e+00	0	44	104	1153433600	72	21463
2026-01-12 01:03:48.46	237.34	6.75	-50.6	-65.9	3.8	1.49e+00	0	44	104	1153433600	72	21423
2026-01-12 01:03:51.44	237.15	6.55	-50.6	-65.9	3.8	1.49e+00	0	44	104	1153433600	72	21464
2026-01-12 01:03:54.42	236.95	6.34	-50.6	-65.9	3.8	1.49e+00	0	44	104	1153433600	72	21402
2026-01-12 01:03:57.40	236.76	6.13	-50.6	-65.9	3.8	1.49e+00	0	44	104	1153433600	72	21449
2026-01-12 01:04:00.38	236.58	5.93	-50.6	-65.9	3.8	1.49e+00	0	44	104	1153433600	72	21437
2026-01-12 01:04:03.36	236.39	5.73	-50.6	-65.9	3.8	1.49e+00	0	44	104	1153433600	72	21263
2026-01-12 01:04:06.34	236.21	5.53	-50.6	-65.9	3.8	1.49e+00	0	44	104	1153433600	72	21387
2026-01-12 01:04:09.32	236.03	5.33	-50.6	-65.9	3.8	1.49e+00	0	44	104	1153433600	72	21401
2026-01-12 01:04:12.30	235.85	5.13	-50.6	-65.9	3.8	1.49e+00	0	44	104	1153433600	72	21371

#Closed at: 2026-01-12 01:04:15
#Recorded file [1153 MB]: D:/Data/31040_260112_035221.dat