passes_logs/2026/01/12/T1/T1__20260112_080727_KHAYYAM_rec.log

#Pass ID: 20260112_080727_KHAYYAM
#Satellite: KHAYYAM
#Configuration: KHAYYAM_480M
#almurnet v.1.7.20251203
#Start time: 2026-01-12 08:07:29

#Version: 2.0.20230620
#Station: T1
#Location: 37.570604 lon 55.790049 lat
#TLE: 1 53370U 22096A   26011.28149639  .00006978  00000+0  28408-3 0  9993
#TLE: 2 53370  97.3557 278.3586 0001329  97.8437 262.2952 15.24804089190670

#Time	Az	El	Level	Level2	SNR	BER	BlckErr	Temp	State	Recorded	gain1	gain2
2026-01-12 08:07:29.77	174.08	5.20	-50.0	-55.0	3.4	0.00e+00	0	41	0	0	70	27230
2026-01-12 08:07:32.75	174.17	5.44	-46.4	-51.8	3.7	0.00e+00	0	42	104	0	64	26686
2026-01-12 08:07:35.73	174.26	5.69	-46.5	-51.8	3.7	0.00e+00	0	42	104	0	64	26786
2026-01-12 08:07:38.71	174.36	5.94	-46.4	-51.8	3.7	0.00e+00	0	42	104	0	64	26742
2026-01-12 08:07:41.69	174.45	6.19	-46.6	-51.9	3.7	0.00e+00	0	43	104	0	64	26988
2026-01-12 08:07:44.67	174.55	6.45	-46.7	-51.8	3.7	0.00e+00	0	43	104	0	64	26881
2026-01-12 08:07:47.65	174.65	6.71	-46.5	-51.8	3.7	0.00e+00	0	43	104	0	64	26603
2026-01-12 08:07:50.63	174.75	6.98	-46.6	-51.9	3.7	0.00e+00	0	43	104	0	64	27021
2026-01-12 08:07:53.62	174.86	7.25	-46.5	-51.8	3.7	0.00e+00	0	43	104	0	64	26804
2026-01-12 08:07:56.60	174.96	7.52	-46.7	-52.0	3.7	0.00e+00	0	44	104	0	64	27242
2026-01-12 08:07:59.58	175.07	7.80	-46.5	-51.8	3.7	0.00e+00	0	44	104	0	64	26593
2026-01-12 08:08:02.56	175.19	8.08	-46.5	-51.8	3.7	0.00e+00	0	44	104	0	64	26613
2026-01-12 08:08:05.55	175.30	8.37	-46.5	-51.7	3.7	0.00e+00	0	44	104	0	64	26572
2026-01-12 08:08:08.53	175.42	8.66	-46.3	-51.5	3.7	0.00e+00	0	44	104	0	64	25898
2026-01-12 08:08:11.51	175.54	8.95	-46.4	-51.7	3.7	0.00e+00	0	44	104	0	64	26475
2026-01-12 08:08:14.50	175.66	9.25	-47.7	-52.9	3.7	0.00e+00	0	45	104	0	66	26911
2026-01-12 08:08:17.48	175.78	9.55	-46.7	-52.0	3.7	0.00e+00	0	45	104	0	64	27494
2026-01-12 08:08:20.46	175.91	9.86	-48.3	-53.5	3.7	0.00e+00	0	45	104	0	67	27501
2026-01-12 08:08:23.47	176.05	10.18	-50.3	-55.4	3.7	0.00e+00	0	45	104	0	71	27000
2026-01-12 08:08:26.45	176.18	10.50	-50.4	-55.4	3.7	0.00e+00	0	45	104	0	72	25644
2026-01-12 08:08:29.43	176.32	10.82	-49.9	-54.9	3.7	0.00e+00	0	45	104	0	71	25629
2026-01-12 08:08:32.42	176.46	11.15	-48.8	-53.9	3.7	0.00e+00	0	45	104	0	69	25580
2026-01-12 08:08:35.40	176.61	11.49	-49.2	-54.2	3.7	0.00e+00	0	45	104	0	69	26394
2026-01-12 08:08:38.39	176.76	11.83	-48.8	-54.0	3.7	0.00e+00	0	45	104	0	69	25765
2026-01-12 08:08:41.37	176.91	12.18	-49.1	-54.1	3.7	0.00e+00	0	45	104	0	69	26082
2026-01-12 08:08:44.36	177.07	12.54	-50.0	-54.9	3.7	0.00e+00	0	46	104	0	70	27133
2026-01-12 08:08:47.35	177.23	12.90	-50.9	-55.7	3.7	0.00e+00	0	45	104	0	72	26388
2026-01-12 08:08:50.33	177.40	13.27	-51.4	-56.2	3.7	0.00e+00	0	46	104	0	73	26388
2026-01-12 08:08:53.31	177.57	13.65	-51.7	-56.5	3.7	0.00e+00	0	46	104	0	73	27331
2026-01-12 08:08:56.33	177.75	14.04	-51.4	-56.3	3.7	0.00e+00	0	46	104	0	74	25262
2026-01-12 08:08:59.33	177.94	14.44	-51.9	-56.6	3.7	0.00e+00	0	46	104	0	74	26216
2026-01-12 08:09:02.68	178.15	14.89	-51.9	-56.6	3.7	0.00e+00	0	46	104	0	74	26156
2026-01-12 08:09:05.39	178.32	15.26	-51.8	-56.6	3.7	0.00e+00	0	46	104	0	74	26150
2026-01-12 08:09:08.66	178.55	15.72	-52.0	-56.8	3.7	0.00e+00	0	46	104	0	75	25361
2026-01-12 08:09:11.63	178.75	16.15	-51.8	-56.7	3.7	0.00e+00	0	46	104	0	75	24918
2026-01-12 08:09:14.62	178.97	16.59	-51.8	-56.6	3.7	0.00e+00	0	46	104	0	75	24775
2026-01-12 08:09:17.60	179.19	17.04	-52.0	-56.8	3.7	0.00e+00	0	46	104	0	75	25323
2026-01-12 08:09:20.59	179.42	17.50	-52.5	-57.1	3.6	0.00e+00	0	46	104	0	76	24610
2026-01-12 08:09:23.57	179.66	17.98	-52.6	-57.2	3.7	0.00e+00	0	46	104	0	76	24815
2026-01-12 08:09:26.56	179.90	18.46	-52.8	-57.3	3.7	0.00e+00	0	46	104	0	76	25355
2026-01-12 08:09:29.54	180.16	18.96	-53.1	-57.6	3.7	0.00e+00	0	46	104	0	76	26150
2026-01-12 08:09:32.53	180.42	19.47	-52.7	-57.4	3.7	0.00e+00	0	46	104	0	76	25489
2026-01-12 08:09:35.51	180.70	19.99	-52.4	-57.1	3.7	0.00e+00	0	46	104	0	76	24675
2026-01-12 08:09:38.50	180.99	20.52	-52.3	-57.0	3.7	0.00e+00	0	46	104	0	76	24330
2026-01-12 08:09:41.49	181.28	21.07	-52.1	-57.0	3.7	0.00e+00	0	46	104	0	76	24371
2026-01-12 08:09:44.47	181.59	21.64	-52.2	-56.9	3.7	0.00e+00	0	46	104	0	76	23970
2026-01-12 08:09:47.45	181.91	22.21	-51.9	-56.7	3.7	0.00e+00	0	46	104	0	75	24999
2026-01-12 08:09:50.44	182.25	22.81	-52.0	-56.8	3.7	0.00e+00	0	46	104	0	75	25254
2026-01-12 08:09:53.43	182.60	23.42	-52.8	-57.3	3.7	0.00e+00	0	46	104	0	76	25136
2026-01-12 08:09:56.41	182.96	24.05	-53.0	-57.3	3.7	0.00e+00	0	46	104	0	76	25283
2026-01-12 08:09:59.40	183.35	24.70	-53.0	-57.4	3.7	0.00e+00	0	46	104	0	76	25414
2026-01-12 08:10:02.39	183.75	25.37	-52.9	-57.3	3.7	0.00e+00	0	46	104	0	76	25305
2026-01-12 08:10:05.37	184.17	26.06	-52.9	-57.3	3.7	0.00e+00	0	46	104	0	76	25150
2026-01-12 08:10:08.45	184.62	26.79	-52.8	-57.3	3.7	0.00e+00	0	46	104	0	76	25378
2026-01-12 08:10:11.33	185.06	27.49	-53.0	-57.3	3.7	0.00e+00	0	46	104	0	76	25289
2026-01-12 08:10:14.45	185.57	28.28	-53.3	-57.6	3.7	0.00e+00	0	46	104	0	77	24528
2026-01-12 08:10:17.29	186.06	29.02	-53.0	-57.6	3.7	0.00e+00	0	46	104	0	77	24673
2026-01-12 08:10:20.44	186.62	29.86	-53.3	-57.6	3.7	0.00e+00	0	46	104	0	77	24711
2026-01-12 08:10:23.34	187.17	30.66	-53.3	-57.7	3.7	0.00e+00	0	46	104	0	77	25021
2026-01-12 08:10:26.59	187.83	31.59	-53.4	-57.7	3.7	0.00e+00	0	46	104	0	77	25077
2026-01-12 08:10:29.44	188.44	32.42	-53.8	-58.2	3.7	0.00e+00	0	47	104	0	78	25014
2026-01-12 08:10:32.57	189.14	33.37	-53.6	-57.8	3.7	0.00e+00	0	46	104	0	78	23896
2026-01-12 08:10:35.41	189.82	34.26	-53.4	-57.8	3.7	0.00e+00	0	47	104	0	78	23812
2026-01-12 08:10:38.53	190.62	35.27	-53.2	-57.6	3.7	0.00e+00	0	47	104	0	78	23351
2026-01-12 08:10:41.37	191.39	36.21	-53.2	-57.6	3.7	0.00e+00	0	47	104	0	78	23313
2026-01-12 08:10:44.63	192.33	37.33	-53.4	-57.7	3.7	0.00e+00	0	47	104	0	78	23633
2026-01-12 08:10:47.47	193.21	38.33	-53.6	-57.8	3.7	0.00e+00	0	47	104	0	78	23704
2026-01-12 08:10:50.60	194.25	39.47	-53.4	-57.5	3.7	0.00e+00	0	47	104	0	78	23050
2026-01-12 08:10:53.62	195.33	40.60	-53.6	-57.8	3.7	0.00e+00	0	47	104	0	78	23751
2026-01-12 08:10:56.72	196.52	41.79	-53.5	-57.7	3.7	0.00e+00	0	46	104	0	78	23687
2026-01-12 08:11:00.06	197.91	43.11	-53.8	-58.1	3.7	0.00e+00	0	47	104	0	78	24643
2026-01-12 08:11:02.76	199.13	44.19	-53.6	-58.1	3.7	0.00e+00	0	47	104	0	78	24672
2026-01-12 08:11:06.04	200.72	45.54	-53.5	-57.8	3.7	0.00e+00	0	47	104	0	78	23718
2026-01-12 08:11:08.76	202.16	46.68	-53.7	-58.0	3.7	0.00e+00	0	47	104	0	78	24366
2026-01-12 08:11:12.10	204.07	48.10	-52.8	-57.3	3.7	0.00e+00	0	47	104	0	77	23883
2026-01-12 08:11:14.80	205.76	49.26	-53.5	-58.0	3.7	0.00e+00	0	47	104	0	77	25852
2026-01-12 08:11:18.24	208.10	50.75	-53.6	-58.0	3.7	0.00e+00	0	46	104	0	78	24380
2026-01-12 08:11:20.96	210.13	51.92	-53.8	-58.1	3.7	0.00e+00	0	47	104	0	78	24604
2026-01-12 08:11:24.23	212.80	53.32	-53.9	-58.2	3.7	0.00e+00	0	47	104	0	78	25075
2026-01-12 08:11:26.93	215.20	54.46	-53.9	-58.2	3.7	0.00e+00	0	47	104	0	78	25019
2026-01-12 08:11:30.53	218.72	55.93	-53.6	-57.8	3.6	0.00e+00	0	47	104	0	78	23901
2026-01-12 08:11:33.23	221.61	56.99	-53.5	-58.1	3.7	0.00e+00	0	47	104	0	78	24764
2026-01-12 08:11:36.56	225.49	58.22	-53.7	-58.2	3.7	0.00e+00	0	46	104	0	78	25060
2026-01-12 08:11:39.28	228.93	59.15	-53.9	-58.3	3.7	0.00e+00	0	47	104	0	78	25181
2026-01-12 08:11:42.56	233.39	60.16	-53.8	-58.4	3.7	0.00e+00	0	47	104	0	78	25411
2026-01-12 08:11:45.29	237.37	60.89	-53.8	-58.1	3.7	0.00e+00	0	47	104	0	78	24749
2026-01-12 08:11:48.97	243.08	61.67	-54.0	-58.5	3.7	0.00e+00	0	47	104	0	78	25749
2026-01-12 08:11:51.67	247.47	62.09	-53.7	-58.1	3.7	0.00e+00	0	47	104	0	78	24800
2026-01-12 08:11:54.96	252.99	62.41	-53.9	-58.3	3.7	0.00e+00	0	47	104	0	78	25176
2026-01-12 08:11:57.71	257.68	62.50	-53.6	-58.2	3.7	0.00e+00	0	46	104	0	78	24989
2026-01-12 08:12:01.02	263.32	62.40	-53.9	-58.4	3.7	0.00e+00	0	46	104	0	78	25673
2026-01-12 08:12:03.87	268.11	62.13	-53.8	-58.3	3.7	0.00e+00	0	47	104	0	78	25198
2026-01-12 08:12:07.14	273.42	61.63	-53.8	-58.2	3.7	0.00e+00	0	47	104	0	78	25086
2026-01-12 08:12:10.20	278.17	60.98	-53.9	-58.3	3.7	0.00e+00	0	47	104	0	78	25286
2026-01-12 08:12:13.11	282.43	60.22	-53.5	-58.0	3.7	0.00e+00	0	47	104	0	78	24519
2026-01-12 08:12:16.31	286.81	59.25	-53.4	-57.8	3.7	0.00e+00	0	47	104	0	78	23833
2026-01-12 08:12:19.16	290.43	58.29	-53.8	-58.1	3.7	0.00e+00	0	47	104	0	78	24706
2026-01-12 08:12:22.47	294.29	57.07	-53.7	-57.9	3.7	0.00e+00	0	47	104	0	78	23978
2026-01-12 08:12:25.32	297.35	55.96	-53.5	-57.9	3.7	0.00e+00	0	47	104	0	78	24007
2026-01-12 08:12:28.44	300.41	54.69	-53.4	-57.8	3.7	0.00e+00	0	47	104	0	78	23893
2026-01-12 08:12:31.28	302.97	53.50	-53.7	-58.1	3.7	0.00e+00	0	46	104	0	78	24730
2026-01-12 08:12:34.42	305.56	52.16	-53.4	-58.0	3.7	0.00e+00	0	47	104	0	78	24464
2026-01-12 08:12:37.35	307.76	50.90	-53.1	-57.7	3.7	0.00e+00	0	47	104	0	78	23522
2026-01-12 08:12:40.48	309.92	49.56	-53.7	-58.2	3.7	0.00e+00	0	47	104	0	78	24914
2026-01-12 08:12:43.31	311.71	48.35	-52.8	-57.6	3.7	0.00e+00	0	47	104	0	77	24733
2026-01-12 08:12:46.44	313.53	47.02	-53.2	-57.9	3.7	0.00e+00	0	47	104	0	77	25567
2026-01-12 08:12:49.29	315.06	45.83	-52.9	-57.5	3.7	0.00e+00	0	47	104	0	77	24381
2026-01-12 08:12:52.48	316.63	44.52	-53.3	-57.8	3.7	0.00e+00	0	47	104	0	77	25243
2026-01-12 08:12:55.32	317.93	43.37	-53.1	-57.6	3.7	0.00e+00	0	47	104	0	77	24777
2026-01-12 08:12:58.48	319.26	42.13	-53.3	-57.9	3.7	0.00e+00	0	47	104	0	77	25495
2026-01-12 08:13:01.32	320.37	41.03	-53.2	-57.9	3.7	0.00e+00	0	47	104	0	77	25514
2026-01-12 08:13:04.45	321.51	39.86	-53.3	-58.0	3.7	0.00e+00	0	47	104	0	77	25908
2026-01-12 08:13:07.29	322.48	38.82	-53.4	-58.0	3.7	0.00e+00	0	47	104	0	77	25814
2026-01-12 08:13:10.42	323.47	37.71	-53.1	-57.9	3.7	0.00e+00	0	47	104	0	77	25476
2026-01-12 08:13:13.67	324.43	36.60	-52.0	-57.1	3.7	0.00e+00	0	47	104	0	76	24736
2026-01-12 08:13:16.85	325.30	35.54	-51.7	-57.0	3.7	0.00e+00	0	47	104	0	75	25803
2026-01-12 08:13:19.70	326.04	34.62	-53.1	-57.9	3.7	0.00e+00	0	47	104	0	76	26903
2026-01-12 08:13:22.82	326.79	33.64	-53.1	-57.9	3.7	0.00e+00	0	47	104	0	76	26948
2026-01-12 08:13:25.76	327.47	32.74	-53.0	-57.8	3.7	0.00e+00	0	47	104	0	76	26600
2026-01-12 08:13:28.88	328.14	31.82	-53.3	-57.9	3.7	0.00e+00	0	47	104	0	77	25395
2026-01-12 08:13:31.73	328.72	31.01	-53.0	-57.8	3.7	0.00e+00	0	47	104	0	77	25217
2026-01-12 08:13:34.85	329.32	30.15	-52.7	-57.6	3.7	0.00e+00	0	47	104	0	77	24604
2026-01-12 08:13:37.70	329.84	29.38	-52.3	-57.3	3.7	0.00e+00	0	47	104	0	76	25322
2026-01-12 08:13:40.92	330.40	28.54	-52.3	-57.2	3.7	0.00e+00	0	47	104	0	76	24821
2026-01-12 08:13:43.76	330.86	27.82	-52.1	-57.2	3.7	0.00e+00	0	47	104	0	76	25040
2026-01-12 08:13:46.89	331.35	27.06	-51.4	-56.8	3.7	0.00e+00	0	47	104	0	74	26888
2026-01-12 08:13:49.73	331.78	26.38	-51.5	-56.9	3.7	0.00e+00	0	47	104	0	74	27031
2026-01-12 08:13:52.86	332.22	25.66	-52.5	-57.5	3.7	0.00e+00	0	47	104	0	75	27254
2026-01-12 08:13:55.70	332.61	25.02	-52.9	-57.7	3.7	0.00e+00	0	47	104	0	76	26502
2026-01-12 08:13:58.90	333.02	24.33	-53.1	-57.8	3.7	0.00e+00	0	47	104	0	76	26821
2026-01-12 08:14:01.74	333.37	23.73	-52.8	-57.7	3.7	0.00e+00	0	47	104	0	76	26317
2026-01-12 08:14:05.07	333.77	23.04	-53.1	-57.8	3.7	0.00e+00	0	47	104	0	77	25309
2026-01-12 08:14:07.79	334.08	22.50	-52.9	-57.7	3.7	0.00e+00	0	47	104	0	77	24972
2026-01-12 08:14:11.01	334.43	21.87	-52.7	-57.6	3.7	0.00e+00	0	47	104	0	77	24639
2026-01-12 08:14:13.85	334.72	21.33	-52.2	-57.3	3.7	0.00e+00	0	47	104	0	76	25104
2026-01-12 08:14:16.99	335.04	20.76	-52.1	-57.2	3.7	0.00e+00	0	47	104	0	76	25002
2026-01-12 08:14:19.89	335.32	20.24	-52.0	-57.0	3.7	0.00e+00	0	47	104	0	76	24392
2026-01-12 08:14:23.13	335.62	19.67	-51.9	-57.1	3.7	0.00e+00	0	47	104	0	75	25987
2026-01-12 08:14:25.97	335.87	19.19	-52.0	-57.0	3.7	0.00e+00	0	47	104	0	75	25816
2026-01-12 08:14:29.02	336.14	18.68	-52.2	-57.3	3.7	0.00e+00	0	47	104	0	76	25230
2026-01-12 08:14:32.01	336.39	18.20	-51.9	-56.9	3.7	0.00e+00	0	47	104	0	75	25675
2026-01-12 08:14:34.99	336.63	17.73	-51.0	-56.5	3.7	0.00e+00	0	47	104	0	73	27208
2026-01-12 08:14:37.97	336.86	17.27	-51.9	-56.9	3.7	0.00e+00	0	47	104	0	74	27148
2026-01-12 08:14:40.97	337.08	16.81	-53.0	-57.6	3.7	0.00e+00	0	47	104	0	76	25993
2026-01-12 08:14:43.95	337.30	16.37	-52.3	-57.3	3.7	0.00e+00	0	47	104	0	75	26598
2026-01-12 08:14:46.94	337.51	15.94	-53.1	-57.8	3.7	0.00e+00	0	47	104	0	76	26644
2026-01-12 08:14:49.92	337.71	15.52	-51.8	-56.9	3.7	0.00e+00	0	47	104	0	75	25438
2026-01-12 08:14:52.98	337.92	15.10	-51.7	-56.8	3.7	0.00e+00	0	47	104	0	75	25367
2026-01-12 08:14:55.96	338.11	14.70	-51.1	-56.4	3.7	0.00e+00	0	47	104	0	74	25614
2026-01-12 08:14:58.96	338.30	14.30	-50.4	-56.0	3.7	0.00e+00	0	47	104	0	72	27417
2026-01-12 08:15:01.95	338.48	13.92	-51.7	-57.0	3.7	0.00e+00	0	47	104	0	74	27473
2026-01-12 08:15:04.93	338.65	13.54	-50.6	-56.1	3.7	0.00e+00	0	47	104	0	72	27828
2026-01-12 08:15:07.91	338.82	13.17	-51.0	-56.5	3.7	0.00e+00	0	47	104	0	72	29056
2026-01-12 08:15:10.96	338.99	12.80	-51.7	-57.0	3.7	0.00e+00	0	47	104	0	74	27478
2026-01-12 08:15:13.94	339.15	12.44	-51.3	-56.7	3.7	0.00e+00	0	47	104	0	74	26550
2026-01-12 08:15:16.92	339.31	12.09	-51.3	-56.7	3.7	0.00e+00	0	47	104	0	74	26441
2026-01-12 08:15:19.91	339.46	11.75	-51.3	-56.8	3.7	0.00e+00	0	47	104	0	74	26682
2026-01-12 08:15:22.96	339.61	11.40	-51.2	-56.8	3.7	0.00e+00	0	47	104	0	74	26685
2026-01-12 08:15:25.94	339.76	11.07	-50.8	-56.6	3.7	0.00e+00	0	47	104	0	73	27521
2026-01-12 08:15:28.92	339.90	10.75	-49.9	-55.9	3.7	0.00e+00	0	47	104	0	71	28585
2026-01-12 08:15:31.91	340.04	10.43	-49.9	-55.8	3.7	0.00e+00	0	47	104	0	71	28285
2026-01-12 08:15:34.90	340.17	10.11	-50.2	-56.0	3.7	0.00e+00	0	47	104	0	72	27486
2026-01-12 08:15:37.95	340.30	9.80	-50.2	-56.1	3.7	0.00e+00	0	47	104	0	71	29148
2026-01-12 08:15:40.82	340.43	9.50	-50.5	-56.4	3.7	0.00e+00	0	47	104	0	71	30299
2026-01-12 08:15:43.95	340.56	9.19	-51.0	-56.8	3.7	0.00e+00	0	47	104	0	73	28285
2026-01-12 08:15:46.80	340.68	8.91	-51.5	-57.0	3.7	0.00e+00	0	47	104	0	74	27389
2026-01-12 08:15:49.92	340.80	8.61	-52.6	-57.4	3.7	0.00e+00	0	47	104	0	75	27030
2026-01-12 08:15:52.76	340.91	8.34	-52.0	-56.5	3.7	0.00e+00	0	47	104	0	75	24395
2026-01-12 08:15:55.88	341.03	8.04	-53.6	-58.2	3.7	0.00e+00	0	47	104	0	77	26469
2026-01-12 08:15:58.72	341.14	7.78	-53.8	-58.3	3.7	0.00e+00	0	47	104	0	78	25323
2026-01-12 08:16:01.85	341.25	7.49	-54.1	-58.5	3.7	0.00e+00	0	47	104	0	78	25795
2026-01-12 08:16:04.69	341.36	7.23	-53.7	-58.4	3.7	0.00e+00	0	47	104	0	78	25437
2026-01-12 08:16:07.81	341.47	6.96	-53.8	-58.3	3.7	0.00e+00	0	47	104	0	78	25339
2026-01-12 08:16:10.65	341.57	6.71	-53.3	-57.7	3.7	0.00e+00	0	47	104	0	78	23584
2026-01-12 08:16:13.78	341.67	6.44	-53.4	-57.8	3.7	0.00e+00	0	47	104	0	78	23897
2026-01-12 08:16:16.62	341.77	6.19	-53.4	-57.8	3.7	0.00e+00	0	47	104	0	78	23785
2026-01-12 08:16:19.74	341.87	5.93	-53.4	-57.8	3.7	0.00e+00	0	47	104	0	78	23777
2026-01-12 08:16:22.58	341.96	5.69	-53.4	-57.8	3.7	0.00e+00	0	47	104	0	78	23783
2026-01-12 08:16:25.70	342.06	5.44	-53.4	-57.8	3.7	0.00e+00	0	47	104	0	78	23885
2026-01-12 08:16:28.54	342.14	5.21	-53.4	-57.8	3.7	0.00e+00	0	47	104	0	78	23818
2026-01-12 08:16:31.66	342.24	4.96	-53.4	-57.8	3.7	0.00e+00	0	47	104	0	78	23796

#Closed at: 2026-01-12 08:16:32
#Recorded file [0 MB]: D:/Data/31040_260112_110729.dat