passes_logs/2026/01/12/T1/T1__20260112_114059_AQUA_rec.log

#Pass ID: 20260112_114059_AQUA
#Satellite: AQUA
#Configuration: AQUA
#almurnet v.1.7.20251203
#Start time: 2026-01-12 11:41:00

#Version: 2.0.20230620
#Station: T1
#Location: 37.570604 lon 55.790049 lat
#TLE: 1 27424U 02022A   26011.93923927  .00001110  00000+0  23211-3 0  9993
#TLE: 2 27424  98.4078 338.3153 0002029  81.9924 314.0623 14.61816932260445

#Time	Az	El	Level	Level2	SNR	BER	BlckErr	Temp	State	Recorded	gain1	gain2
2026-01-12 11:41:00.82	161.42	5.13	-52.9	-72.8	3.8	7.46e-01	0	39	0	0	77	35417
2026-01-12 11:41:03.80	161.43	5.35	-52.8	-72.6	3.8	7.45e-01	0	40	104	0	77	34794
2026-01-12 11:41:06.78	161.44	5.58	-52.9	-72.9	3.8	7.43e-01	0	40	104	0	77	35950
2026-01-12 11:41:09.76	161.44	5.81	-52.9	-71.9	3.8	7.46e-01	0	40	104	0	77	32083
2026-01-12 11:41:12.74	161.45	6.05	-52.8	-69.3	4.4	7.28e-01	0	40	104	0	77	23704
2026-01-12 11:41:15.72	161.46	6.28	-52.7	-67.2	5.4	7.00e-01	0	40	104	0	77	18668
2026-01-12 11:41:18.70	161.46	6.52	-52.6	-65.3	6.8	6.68e-01	0	40	0	3670016	77	15013
2026-01-12 11:41:21.68	161.47	6.76	-52.3	-62.6	9.6	6.30e-01	0	40	0	9437184	76	11584
2026-01-12 11:41:24.66	161.47	7.01	-51.8	-59.9	12.3	6.11e-01	0	40	0	14680064	75	9028
2026-01-12 11:41:27.64	161.48	7.25	-51.1	-57.3	14.9	6.08e-01	0	41	0	20447232	74	7101
2026-01-12 11:41:30.62	161.49	7.50	-50.3	-55.5	16.7	6.07e-01	0	41	0	26214400	72	6475
2026-01-12 11:41:33.60	161.49	7.75	-49.7	-54.2	18.1	6.07e-01	0	41	0	31457280	71	5877
2026-01-12 11:41:36.58	161.50	8.01	-49.5	-53.9	18.4	6.06e-01	0	41	0	37224448	70	6017
2026-01-12 11:41:39.56	161.50	8.26	-50.0	-54.8	17.5	6.06e-01	0	41	0	42991616	71	6328
2026-01-12 11:41:42.55	161.51	8.52	-51.2	-58.0	14.3	6.08e-01	0	41	0	48234496	73	8159
2026-01-12 11:41:45.53	161.52	8.79	-52.5	-65.0	7.2	6.61e-01	0	41	0	54001664	75	16176
2026-01-12 11:41:48.50	161.52	9.05	-52.8	-69.0	4.0	7.39e-01	0	41	104	55574528	76	24159
2026-01-12 11:41:51.50	161.53	9.32	-52.1	-61.2	10.0	6.22e-01	0	41	104	56098816	76	9917
2026-01-12 11:41:54.49	161.53	9.60	-49.9	-54.5	17.8	6.07e-01	0	41	0	58720256	71	6099
2026-01-12 11:41:57.47	161.54	9.88	-48.8	-52.5	19.7	6.09e-01	0	41	0	63963136	69	5440
2026-01-12 11:42:00.45	161.55	10.15	-48.2	-51.6	20.7	6.08e-01	0	41	0	69730304	68	5199
2026-01-12 11:42:03.44	161.55	10.44	-47.9	-51.3	20.9	6.07e-01	0	41	0	75497472	67	5319
2026-01-12 11:42:06.47	161.56	10.73	-48.0	-51.5	20.8	6.07e-01	0	41	0	80740352	67	5415
2026-01-12 11:42:09.45	161.56	11.02	-48.0	-51.5	20.8	6.06e-01	0	41	0	86507520	67	5419
2026-01-12 11:42:12.43	161.57	11.32	-47.9	-51.1	21.1	6.08e-01	0	41	0	92274688	67	5213
2026-01-12 11:42:15.41	161.57	11.62	-47.9	-51.1	21.1	6.08e-01	0	41	0	97517568	67	5198
2026-01-12 11:42:18.40	161.58	11.92	-47.7	-51.0	21.3	6.05e-01	0	41	0	103284736	67	5107
2026-01-12 11:42:21.39	161.58	12.23	-47.6	-50.8	21.5	6.07e-01	0	41	0	109051904	67	5014
2026-01-12 11:42:24.37	161.59	12.54	-47.5	-50.7	21.5	6.06e-01	0	41	0	114294784	67	4939
2026-01-12 11:42:27.36	161.59	12.86	-47.6	-50.7	21.6	6.07e-01	0	41	0	120061952	67	4963
2026-01-12 11:42:30.34	161.60	13.18	-47.6	-50.7	21.6	6.05e-01	0	41	0	125829120	67	4941
2026-01-12 11:42:33.32	161.60	13.50	-47.5	-50.5	21.8	6.05e-01	0	41	0	131072000	66	5141
2026-01-12 11:42:36.30	161.61	13.83	-47.4	-50.4	21.9	6.07e-01	0	41	0	136839168	66	5099
2026-01-12 11:42:39.38	161.61	14.18	-47.4	-50.5	21.8	6.06e-01	0	41	0	142606336	66	5134
2026-01-12 11:42:42.33	161.62	14.52	-47.4	-50.5	21.8	6.06e-01	0	41	0	148373504	66	5151
2026-01-12 11:42:45.84	161.62	14.93	-47.4	-50.6	21.8	6.08e-01	0	41	0	154664960	66	5187
2026-01-12 11:42:48.54	161.63	15.25	-47.3	-50.4	21.9	6.07e-01	0	42	0	159907840	66	5093
2026-01-12 11:42:51.82	161.63	15.64	-47.2	-50.3	22.1	6.07e-01	0	41	0	166199296	66	5015
2026-01-12 11:42:54.55	161.64	15.97	-47.3	-50.3	22.1	6.06e-01	0	42	0	170917888	66	5021
2026-01-12 11:42:57.82	161.64	16.38	-47.4	-50.4	22.0	6.06e-01	0	41	0	177209344	66	5064
2026-01-12 11:43:00.66	161.65	16.74	-47.3	-50.3	22.1	6.08e-01	0	42	0	182452224	66	4993
2026-01-12 11:43:03.79	161.65	17.14	-47.4	-50.3	22.1	6.08e-01	0	42	0	188219392	66	5028
2026-01-12 11:43:06.63	161.65	17.52	-47.5	-50.5	21.9	6.07e-01	0	41	0	193986560	66	5127
2026-01-12 11:43:09.76	161.66	17.93	-47.6	-50.5	21.9	6.08e-01	0	42	0	199753728	66	5157
2026-01-12 11:43:12.74	161.66	18.34	-47.6	-50.8	21.7	6.04e-01	0	41	0	204996608	66	5309
2026-01-12 11:43:15.87	161.66	18.77	-47.6	-50.7	21.8	6.08e-01	0	41	0	211288064	66	5239
2026-01-12 11:43:18.71	161.67	19.17	-47.6	-50.6	21.2	6.03e-01	0	42	0	216530944	66	5189
2026-01-12 11:43:21.83	161.67	19.62	-47.6	-50.6	21.9	6.07e-01	0	42	0	222298112	66	5161
2026-01-12 11:43:24.74	161.67	20.05	-47.6	-50.6	21.9	6.07e-01	0	41	0	227540992	66	5195
2026-01-12 11:43:28.01	161.68	20.53	-47.7	-50.7	21.8	6.07e-01	0	42	0	233832448	66	5278
2026-01-12 11:43:30.92	161.68	20.98	-47.8	-50.9	21.6	6.08e-01	0	41	0	239075328	66	5383
2026-01-12 11:43:34.19	161.68	21.49	-47.9	-51.1	21.4	6.06e-01	0	42	0	245366784	66	5507
2026-01-12 11:43:36.91	161.68	21.92	-47.9	-51.1	21.4	6.05e-01	0	41	0	250609664	66	5498
2026-01-12 11:43:40.18	161.69	22.45	-48.0	-51.2	21.4	6.10e-01	0	42	0	256901120	66	5539
2026-01-12 11:43:43.01	161.69	22.92	-47.7	-50.7	21.8	6.06e-01	0	42	0	262144000	66	5258
2026-01-12 11:43:46.14	161.69	23.45	-47.6	-50.7	21.8	6.06e-01	0	42	0	267911168	66	5256
2026-01-12 11:43:49.36	161.69	24.01	-47.7	-50.8	21.8	6.06e-01	0	42	0	273678336	66	5295
2026-01-12 11:43:52.20	161.69	24.51	-47.9	-51.0	21.6	6.06e-01	0	42	0	279445504	66	5408
2026-01-12 11:43:55.33	161.69	25.07	-47.9	-50.8	21.7	6.05e-01	0	42	0	285212672	66	5299
2026-01-12 11:43:58.17	161.69	25.60	-47.7	-50.6	22.0	6.07e-01	0	42	0	290455552	66	5181
2026-01-12 11:44:01.38	161.69	26.21	-47.7	-50.6	21.9	6.05e-01	0	41	0	296222720	66	5216
2026-01-12 11:44:04.22	161.69	26.76	-47.7	-50.7	21.9	6.06e-01	0	42	0	301465600	66	5220
2026-01-12 11:44:07.48	161.69	27.40	-47.7	-50.6	22.0	6.07e-01	0	42	0	307757056	66	5163
2026-01-12 11:44:10.31	161.69	27.98	-47.4	-50.2	22.4	6.07e-01	0	42	0	312999936	66	4951
2026-01-12 11:44:13.44	161.69	28.63	-47.4	-50.2	22.4	6.07e-01	0	42	0	319291392	66	4947
2026-01-12 11:44:16.28	161.68	29.24	-47.5	-50.4	22.2	6.07e-01	0	42	0	324534272	66	5055
2026-01-12 11:44:19.41	161.68	29.92	-47.3	-50.1	22.4	6.06e-01	0	42	0	330301440	66	4915
2026-01-12 11:44:22.31	161.68	30.57	-47.2	-50.0	22.6	6.05e-01	0	42	0	335544320	66	4844
2026-01-12 11:44:25.47	161.67	31.30	-47.5	-50.3	22.3	6.07e-01	0	42	0	341311488	66	5028
2026-01-12 11:44:28.31	161.67	31.97	-47.3	-50.2	22.4	6.07e-01	0	42	0	347078656	66	4938
2026-01-12 11:44:31.44	161.66	32.73	-47.3	-50.2	22.4	6.07e-01	0	42	0	352845824	66	4955
2026-01-12 11:44:34.29	161.66	33.43	-47.6	-50.7	22.0	6.06e-01	0	41	0	358088704	66	5243
2026-01-12 11:44:37.41	161.65	34.23	-47.9	-50.9	21.8	6.05e-01	0	42	0	363855872	66	5351
2026-01-12 11:44:40.25	161.65	34.97	-48.3	-51.4	21.4	6.06e-01	0	42	0	369098752	67	5348
2026-01-12 11:44:43.49	161.64	35.84	-48.6	-51.9	20.9	6.05e-01	0	42	0	375390208	67	5659
2026-01-12 11:44:46.33	161.63	36.63	-48.9	-52.3	20.5	6.05e-01	0	42	0	380633088	68	5651
2026-01-12 11:44:49.45	161.62	37.52	-49.3	-52.8	20.1	6.07e-01	0	41	0	386400256	69	5633
2026-01-12 11:44:52.29	161.61	38.34	-49.2	-52.7	20.2	6.08e-01	0	42	0	391643136	69	5564
2026-01-12 11:44:55.42	161.59	39.28	-49.4	-53.0	19.9	6.06e-01	0	42	0	397934592	69	5726
2026-01-12 11:44:58.35	161.58	40.19	-48.9	-52.2	20.7	6.07e-01	0	42	0	403177472	69	5219
2026-01-12 11:45:01.61	161.57	41.22	-49.0	-52.3	20.6	6.08e-01	0	41	0	409468928	69	5314
2026-01-12 11:45:04.41	161.55	42.14	-48.7	-51.9	21.0	6.08e-01	0	41	0	414711808	69	5073
2026-01-12 11:45:07.54	161.53	43.19	-48.3	-51.4	21.5	6.06e-01	0	41	0	420478976	68	5049
2026-01-12 11:45:10.38	161.51	44.17	-48.0	-50.9	21.9	6.05e-01	0	41	0	425721856	68	4786
2026-01-12 11:45:13.51	161.49	45.28	-48.0	-51.0	21.8	6.06e-01	0	41	0	431489024	68	4828
2026-01-12 11:45:16.35	161.47	46.32	-47.6	-50.5	22.2	6.05e-01	0	42	0	436731904	67	4835
2026-01-12 11:45:19.48	161.44	47.50	-47.7	-50.5	22.1	6.07e-01	0	42	0	443023360	67	4852
2026-01-12 11:45:22.38	161.41	48.62	-47.9	-50.8	21.9	6.06e-01	0	41	0	448266240	67	5017
2026-01-12 11:45:25.67	161.37	49.93	-47.6	-50.5	22.3	6.05e-01	0	41	0	454557696	67	4820
2026-01-12 11:45:28.49	161.34	51.09	-47.0	-49.7	22.9	6.07e-01	0	42	0	459800576	66	4668
2026-01-12 11:45:31.61	161.30	52.40	-47.0	-49.7	22.9	6.05e-01	0	42	0	465567744	65	4956
2026-01-12 11:45:34.88	161.25	53.82	-46.9	-49.6	23.0	6.06e-01	0	42	0	471859200	65	4887
2026-01-12 11:45:37.75	161.20	55.09	-46.9	-49.6	22.9	6.08e-01	0	42	0	477102080	65	4905
2026-01-12 11:45:41.24	161.13	56.69	-47.9	-50.8	21.9	6.06e-01	0	42	0	483917824	66	5280
2026-01-12 11:45:43.94	161.07	57.96	-48.0	-50.9	21.8	6.06e-01	0	42	0	488636416	66	5361
2026-01-12 11:45:47.21	160.99	59.54	-48.5	-51.6	21.2	6.07e-01	0	41	0	494927872	67	5501
2026-01-12 11:45:49.94	160.92	60.89	-48.8	-51.9	21.0	6.08e-01	0	42	0	500170752	68	5377
2026-01-12 11:45:53.24	160.81	62.56	-49.2	-52.5	20.4	6.03e-01	0	41	0	505937920	69	5436
2026-01-12 11:45:56.26	160.70	64.12	-49.8	-53.8	19.2	6.07e-01	0	42	0	511705088	70	5964
2026-01-12 11:45:59.24	160.57	65.70	-50.6	-54.8	18.2	6.06e-01	0	42	0	517472256	71	6289
2026-01-12 11:46:02.22	160.42	67.31	-50.9	-55.4	17.6	6.06e-01	0	42	0	522715136	72	6372
2026-01-12 11:46:05.24	160.24	68.98	-51.2	-56.1	16.8	6.06e-01	0	41	0	528482304	73	6552
2026-01-12 11:46:08.28	160.03	70.69	-51.0	-55.8	17.2	6.07e-01	0	41	0	534249472	73	6276
2026-01-12 11:46:11.26	159.77	72.39	-50.8	-55.2	17.8	6.08e-01	0	41	0	540016640	73	5893
2026-01-12 11:46:14.25	159.45	74.13	-50.5	-54.6	18.3	6.08e-01	0	41	0	545783808	72	5816
2026-01-12 11:46:17.23	159.05	75.89	-50.0	-54.0	18.9	6.06e-01	0	42	0	551026688	72	5462
2026-01-12 11:46:20.22	158.51	77.67	-49.8	-53.6	19.4	6.09e-01	0	42	0	556793856	71	5477
2026-01-12 11:46:23.23	157.79	79.49	-49.0	-52.4	20.5	6.08e-01	0	42	0	562561024	69	5352
2026-01-12 11:46:26.28	156.73	81.34	-48.1	-51.0	21.8	6.06e-01	0	42	0	568328192	68	4837
2026-01-12 11:46:29.54	154.92	83.34	-48.2	-51.2	21.6	6.07e-01	0	42	0	574095360	68	4977
2026-01-12 11:46:32.47	152.02	85.14	-48.5	-51.8	21.1	6.06e-01	0	42	0	579862528	68	5285
2026-01-12 11:46:35.77	144.35	87.13	-48.4	-51.6	21.2	6.05e-01	0	41	0	585629696	68	5196
2026-01-12 11:46:38.48	121.37	88.63	-47.0	-49.8	22.7	6.06e-01	0	41	0	590872576	66	4737
2026-01-12 11:46:41.75	24.31	88.64	-47.6	-50.5	21.7	6.10e-01	0	42	0	597164032	67	4855
2026-01-12 11:46:44.46	1.16	87.14	-47.8	-50.9	21.6	6.06e-01	0	41	0	602406912	66	5390
2026-01-12 11:46:48.02	353.13	84.99	-48.8	-52.2	20.6	6.05e-01	0	42	0	608698368	68	5575
2026-01-12 11:46:50.98	350.35	83.17	-49.0	-52.4	20.5	6.07e-01	0	41	0	614465536	68	5707
2026-01-12 11:46:54.25	348.62	81.17	-48.4	-51.5	21.4	6.06e-01	0	42	0	620756992	68	5127
2026-01-12 11:46:56.97	347.69	79.52	-49.2	-52.7	20.1	6.06e-01	0	42	0	625475584	69	5551
2026-01-12 11:47:00.26	346.91	77.54	-50.1	-53.8	19.2	6.08e-01	0	41	0	631767040	70	5958
2026-01-12 11:47:02.97	346.43	75.92	-50.7	-54.9	18.2	6.07e-01	0	42	0	637009920	72	6036
2026-01-12 11:47:06.24	345.99	74.00	-50.7	-54.9	18.0	6.06e-01	0	42	0	643301376	72	6052
2026-01-12 11:47:09.21	345.68	72.28	-50.1	-54.0	18.9	6.06e-01	0	42	0	648544256	72	5461
2026-01-12 11:47:12.19	345.42	70.58	-50.8	-55.0	18.0	6.06e-01	0	42	0	654311424	73	5739
2026-01-12 11:47:15.18	345.21	68.90	-50.8	-55.4	17.6	6.09e-01	0	41	0	660078592	73	6006
2026-01-12 11:47:18.15	345.04	67.27	-50.7	-54.9	18.1	6.08e-01	0	41	0	665321472	73	5693
2026-01-12 11:47:21.15	344.89	65.65	-49.6	-53.7	19.3	6.06e-01	0	41	0	671088640	70	5870
2026-01-12 11:47:24.45	344.75	63.91	-49.5	-52.9	20.2	6.07e-01	0	42	0	677380096	70	5344
2026-01-12 11:47:27.35	344.65	62.42	-49.0	-52.6	20.4	6.07e-01	0	42	0	682622976	69	5466
2026-01-12 11:47:31.32	344.53	60.43	-48.1	-51.4	21.4	6.06e-01	0	41	0	689963008	68	5064
2026-01-12 11:47:34.17	344.45	59.03	-48.2	-51.3	21.5	6.08e-01	0	42	0	695205888	68	5028
2026-01-12 11:47:38.14	344.36	57.15	-48.0	-51.0	21.9	6.07e-01	0	42	0	703070208	68	4815
2026-01-12 11:47:41.13	344.30	55.77	-47.1	-49.8	22.9	6.05e-01	0	41	0	708313088	66	4745
2026-01-12 11:47:44.82	344.24	54.12	-47.1	-49.8	22.8	6.04e-01	0	41	0	715653120	65	5010
2026-01-12 11:47:47.52	344.20	52.95	-46.7	-49.3	23.2	6.04e-01	0	41	0	720371712	65	4757
2026-01-12 11:47:50.82	344.15	51.55	-47.2	-49.9	22.7	6.06e-01	0	41	0	726663168	65	5088
2026-01-12 11:47:53.55	344.12	50.42	-47.8	-50.7	22.0	6.07e-01	0	41	0	731906048	66	5235
2026-01-12 11:47:56.82	344.08	49.11	-47.6	-50.7	22.0	6.06e-01	0	41	0	737673216	66	5257
2026-01-12 11:47:59.54	344.05	48.05	-47.7	-50.6	22.1	6.05e-01	0	41	0	742916096	66	5204
2026-01-12 11:48:02.80	344.02	46.82	-47.8	-50.7	22.0	6.08e-01	0	41	0	749207552	66	5241
2026-01-12 11:48:05.73	344.00	45.74	-47.9	-50.8	21.9	6.06e-01	0	42	0	754450432	66	5304
2026-01-12 11:48:08.71	343.98	44.68	-47.7	-50.8	21.9	6.08e-01	0	42	0	760217600	66	5299
2026-01-12 11:48:11.76	343.96	43.61	-47.8	-51.0	21.7	6.08e-01	0	42	0	765984768	66	5408
2026-01-12 11:48:14.62	343.94	42.65	-48.1	-51.1	21.6	6.04e-01	0	41	0	771227648	66	5505
2026-01-12 11:48:17.74	343.92	41.62	-48.6	-51.8	21.0	6.09e-01	0	41	0	776994816	67	5608
2026-01-12 11:48:20.58	343.91	40.71	-49.0	-52.4	20.5	6.07e-01	0	42	0	782237696	68	5660
2026-01-12 11:48:23.75	343.90	39.73	-48.7	-51.9	20.9	6.07e-01	0	41	0	788529152	68	5387
2026-01-12 11:48:26.69	343.88	38.84	-48.9	-52.2	20.7	6.05e-01	0	42	0	793772032	68	5559
2026-01-12 11:48:30.04	343.87	37.85	-48.9	-52.5	20.4	6.08e-01	0	41	0	800063488	68	5745
2026-01-12 11:48:32.97	343.86	37.02	-48.5	-51.8	21.0	6.05e-01	0	41	0	805830656	68	5327
2026-01-12 11:48:36.24	343.85	36.11	-48.4	-51.6	21.2	6.09e-01	0	41	0	811597824	68	5191
2026-01-12 11:48:38.98	343.85	35.37	-47.8	-51.0	21.7	6.07e-01	0	41	0	816840704	67	5151
2026-01-12 11:48:42.24	343.84	34.51	-47.4	-50.5	22.2	6.07e-01	0	41	0	823132160	66	5130
2026-01-12 11:48:44.95	343.84	33.82	-47.1	-50.0	22.6	6.08e-01	0	41	0	827850752	66	4830
2026-01-12 11:48:48.23	343.83	33.00	-46.9	-49.8	22.8	6.08e-01	0	42	0	834142208	65	4992
2026-01-12 11:48:50.93	343.83	32.35	-46.9	-49.7	22.8	6.06e-01	0	42	0	839385088	65	4983
2026-01-12 11:48:54.20	343.82	31.57	-46.8	-49.9	22.7	6.06e-01	0	41	0	845676544	65	5052
2026-01-12 11:48:57.01	343.82	30.93	-46.8	-49.8	22.8	6.05e-01	0	41	0	850919424	65	4987
2026-01-12 11:49:00.30	343.82	30.19	-47.1	-49.9	22.7	6.08e-01	0	41	0	856686592	65	5051
2026-01-12 11:49:03.02	343.82	29.59	-47.1	-49.9	22.6	6.06e-01	0	41	0	861929472	65	5080
2026-01-12 11:49:06.31	343.82	28.89	-47.2	-50.0	22.4	6.04e-01	0	41	0	868220928	65	5159
2026-01-12 11:49:09.02	343.82	28.32	-47.2	-50.1	22.4	6.05e-01	0	41	0	873463808	65	5193
2026-01-12 11:49:12.29	343.82	27.65	-47.3	-50.1	22.5	6.08e-01	0	41	0	879230976	65	5163
2026-01-12 11:49:15.04	343.82	27.11	-47.3	-50.1	22.5	6.06e-01	0	41	0	884473856	65	5162
2026-01-12 11:49:18.31	343.82	26.47	-47.3	-50.1	22.4	6.07e-01	0	41	0	890765312	65	5201
2026-01-12 11:49:21.02	343.82	25.96	-47.5	-50.6	22.0	6.05e-01	0	41	0	896008192	65	5502
2026-01-12 11:49:24.29	343.82	25.35	-47.5	-50.9	21.6	6.06e-01	0	41	0	901775360	65	5715
2026-01-12 11:49:27.01	343.82	24.85	-47.6	-50.9	21.7	6.06e-01	0	41	0	907018240	65	5707
2026-01-12 11:49:30.28	343.83	24.27	-47.8	-51.0	21.6	6.06e-01	0	41	0	913309696	66	5454
2026-01-12 11:49:33.08	343.83	23.79	-47.7	-51.1	21.5	6.06e-01	0	42	0	918552576	66	5485
2026-01-12 11:49:36.72	343.83	23.17	-47.3	-51.1	21.5	6.06e-01	0	41	0	925368320	66	5489
2026-01-12 11:49:39.77	343.83	22.66	-47.0	-50.9	21.6	6.07e-01	0	41	0	931135488	66	5386
2026-01-12 11:49:43.75	343.84	22.02	-47.4	-50.8	21.7	6.05e-01	0	41	0	938475520	66	5340
2026-01-12 11:49:46.59	343.84	21.57	-47.4	-50.5	21.9	6.06e-01	0	41	0	943718400	66	5157
2026-01-12 11:49:51.12	343.85	20.87	-47.1	-50.5	22.0	6.02e-01	0	41	0	952107008	66	5115
2026-01-12 11:49:53.96	343.85	20.45	-47.3	-50.5	22.0	6.03e-01	0	42	0	957349888	66	5105
2026-01-12 11:49:57.94	343.86	19.86	-47.5	-50.5	22.0	6.02e-01	0	41	0	965214208	66	5133
2026-01-12 11:50:00.78	343.86	19.45	-47.4	-50.5	22.0	6.02e-01	0	41	0	970457088	66	5133
2026-01-12 11:50:04.81	343.87	18.89	-47.4	-50.6	21.8	6.00e-01	0	41	0	977797120	66	5216
2026-01-12 11:50:07.62	343.88	18.50	-47.5	-50.6	21.9	6.02e-01	0	41	0	983040000	66	5164
2026-01-12 11:50:10.90	343.88	18.06	-47.3	-50.5	21.9	6.03e-01	0	41	0	989331456	66	5134
2026-01-12 11:50:13.64	343.89	17.69	-47.0	-50.6	21.8	6.02e-01	0	41	0	994574336	66	5208
2026-01-12 11:50:17.08	343.89	17.24	-46.9	-50.6	21.8	6.03e-01	0	41	0	1000865792	65	5527
2026-01-12 11:50:20.11	343.90	16.86	-46.9	-50.8	21.6	6.01e-01	0	41	0	1006632960	65	5630
2026-01-12 11:50:23.40	343.91	16.44	-46.7	-50.8	21.6	6.03e-01	0	41	0	1012924416	65	5641
2026-01-12 11:50:26.24	343.91	16.09	-46.6	-50.7	21.6	6.00e-01	0	41	0	1018167296	65	5590
2026-01-12 11:50:29.37	343.92	15.71	-46.8	-50.7	21.6	6.02e-01	0	41	0	1023934464	65	5568
2026-01-12 11:50:32.21	343.93	15.37	-46.9	-50.7	21.6	6.02e-01	0	41	0	1029177344	65	5581
2026-01-12 11:50:35.46	343.93	14.99	-46.8	-50.5	21.8	6.01e-01	0	41	0	1035468800	65	5448
2026-01-12 11:50:38.37	343.94	14.65	-46.7	-50.4	21.9	6.03e-01	0	41	0	1040711680	65	5387
2026-01-12 11:50:41.62	343.95	14.28	-46.7	-50.5	21.9	6.01e-01	0	41	0	1047003136	65	5406
2026-01-12 11:50:44.53	343.96	13.96	-46.9	-50.5	21.8	6.02e-01	0	41	0	1052246016	65	5425
2026-01-12 11:50:47.65	343.96	13.61	-47.2	-50.5	21.8	6.03e-01	0	41	0	1058013184	65	5405
2026-01-12 11:50:50.49	343.97	13.30	-47.4	-50.5	21.8	6.00e-01	0	41	0	1063256064	65	5455
2026-01-12 11:50:53.62	343.98	12.97	-47.5	-50.6	21.7	6.05e-01	0	41	0	1069547520	65	5499
2026-01-12 11:50:56.70	343.99	12.64	-47.5	-50.7	21.6	6.00e-01	0	41	0	1075314688	65	5569
2026-01-12 11:50:59.80	343.99	12.32	-47.2	-50.6	21.6	6.01e-01	0	41	0	1081081856	65	5523
2026-01-12 11:51:02.64	344.00	12.03	-47.0	-50.8	21.5	6.02e-01	0	41	0	1086324736	65	5595
2026-01-12 11:51:05.77	344.01	11.72	-47.0	-50.7	21.5	6.01e-01	0	41	0	1092091904	65	5581
2026-01-12 11:51:08.60	344.02	11.43	-47.3	-50.9	21.3	6.03e-01	0	41	0	1097334784	65	5699
2026-01-12 11:51:11.73	344.03	11.13	-47.4	-51.0	21.3	6.03e-01	0	41	0	1103101952	65	5724
2026-01-12 11:51:14.85	344.03	10.82	-47.4	-51.1	21.2	6.00e-01	0	41	0	1109393408	65	5796
2026-01-12 11:51:17.83	344.04	10.54	-47.2	-51.2	21.1	6.04e-01	0	41	0	1114636288	65	5857
2026-01-12 11:51:20.82	344.05	10.25	-46.7	-51.3	20.9	6.00e-01	0	41	0	1120403456	65	5956
2026-01-12 11:51:23.80	344.06	9.98	-46.5	-51.3	20.8	6.02e-01	0	41	0	1126170624	64	6324
2026-01-12 11:51:26.86	344.07	9.69	-46.2	-51.4	20.7	6.01e-01	0	41	0	1131937792	64	6411
2026-01-12 11:51:29.71	344.08	9.44	-46.1	-51.6	20.5	6.02e-01	0	41	0	1137180672	64	6520
2026-01-12 11:51:32.83	344.09	9.15	-46.1	-51.8	20.3	6.02e-01	0	41	0	1142947840	64	6696
2026-01-12 11:51:35.67	344.09	8.90	-52.4	-73.4	3.8	7.47e-01	0	41	104	1147142144	75	42735
2026-01-12 11:51:38.79	344.10	8.63	-51.8	-73.9	3.8	7.50e-01	0	41	104	1147142144	74	47632
2026-01-12 11:51:41.63	344.11	8.38	-52.5	-74.1	3.8	7.43e-01	0	41	104	1147142144	76	43884
2026-01-12 11:51:44.75	344.12	8.11	-54.3	-74.2	3.8	7.44e-01	0	41	104	1147142144	79	37346
2026-01-12 11:51:47.59	344.13	7.87	-54.3	-74.3	3.8	7.46e-01	0	41	104	1147142144	79	37495
2026-01-12 11:51:50.71	344.14	7.61	-53.8	-74.3	3.8	7.49e-01	0	41	104	1147142144	79	37406
2026-01-12 11:51:53.55	344.15	7.38	-54.4	-74.3	3.8	7.50e-01	0	41	104	1147142144	79	37387
2026-01-12 11:51:56.67	344.16	7.12	-54.4	-74.2	3.8	7.46e-01	0	42	104	1147142144	79	37362
2026-01-12 11:51:59.51	344.17	6.89	-54.0	-74.2	3.8	7.45e-01	0	41	104	1147142144	79	37231
2026-01-12 11:52:02.64	344.18	6.64	-53.8	-74.2	3.8	7.48e-01	0	41	104	1147142144	79	37192
2026-01-12 11:52:05.47	344.19	6.41	-53.8	-74.2	3.8	7.42e-01	0	41	104	1147142144	79	37192
2026-01-12 11:52:08.60	344.20	6.17	-53.8	-74.2	3.8	7.47e-01	0	41	104	1147142144	79	37058
2026-01-12 11:52:11.43	344.20	5.94	-53.8	-74.2	3.8	7.47e-01	0	41	104	1147142144	79	37136
2026-01-12 11:52:14.56	344.21	5.70	-53.7	-74.2	3.8	7.48e-01	0	41	104	1147142144	79	37117
2026-01-12 11:52:17.39	344.22	5.49	-53.8	-74.2	3.8	7.45e-01	0	41	104	1147142144	78	39144
2026-01-12 11:52:20.52	344.23	5.25	-53.7	-74.2	3.8	7.46e-01	0	41	104	1147142144	78	39337
2026-01-12 11:52:23.36	344.24	5.04	-53.8	-74.2	3.8	7.45e-01	0	41	104	1147142144	78	39220

#Closed at: 2026-01-12 11:52:25
#Recorded file [1147 MB]: D:/Data/31040_260112_144100.dat