passes_logs/2026/01/12/T1/T1__20260112_112149_FENGYUN_3D_rec.log

#Pass ID: 20260112_112149_FENGYUN 3D
#Satellite: FENGYUN 3D
#Configuration: FENGYUN 3D
#almurnet v.1.7.20251203
#Start time: 2026-01-12 11:21:51

#Version: 2.0.20230620
#Station: T1
#Location: 37.570604 lon 55.790049 lat
#TLE: 1 43010U 17072A   26011.97305084  .00000235  00000+0  13268-3 0  9993
#TLE: 2 43010  98.9935 343.7425 0002238 114.1623 245.9787 14.19695178422825

#Time	Az	El	Level	Level2	SNR	BER	BlckErr	Temp	State	Recorded	gain1	gain2
2026-01-12 11:21:51.81	141.21	5.15	-51.7	-63.7	3.8	8.46e-01	0	41	0	0	75	13995
2026-01-12 11:21:54.78	141.12	5.36	-51.6	-63.2	3.8	8.47e-01	0	41	104	0	75	13120
2026-01-12 11:21:57.76	141.03	5.57	-51.5	-62.4	3.8	8.46e-01	0	42	104	0	75	12010
2026-01-12 11:22:00.74	140.93	5.79	-51.4	-61.5	3.8	8.46e-01	0	42	104	0	74	11473
2026-01-12 11:22:03.72	140.84	6.00	-51.3	-60.8	4.1	8.44e-01	0	42	104	0	74	10541
2026-01-12 11:22:06.70	140.74	6.22	-51.3	-60.8	4.1	8.44e-01	0	42	104	0	74	10613
2026-01-12 11:22:09.68	140.64	6.44	-51.4	-62.1	3.8	8.45e-01	0	42	104	0	74	12246
2026-01-12 11:22:12.66	140.54	6.66	-51.5	-62.6	3.8	8.46e-01	0	42	104	0	74	13044
2026-01-12 11:22:15.64	140.43	6.89	-51.3	-61.3	3.8	8.45e-01	0	42	104	0	74	11236
2026-01-12 11:22:18.62	140.33	7.11	-50.7	-58.0	5.1	7.84e-01	0	43	0	0	73	8166
2026-01-12 11:22:21.60	140.22	7.34	-49.5	-54.6	7.9	1.20e-01	0	42	0	11534336	71	6145
2026-01-12 11:22:24.59	140.12	7.57	-47.4	-50.9	11.5	2.18e-03	0	43	0	28311552	66	5358
2026-01-12 11:22:27.57	140.01	7.80	-45.8	-48.5	14.0	1.02e-05	0	43	0	45088768	63	4848
2026-01-12 11:22:30.55	139.89	8.03	-44.7	-47.2	15.3	0.00e+00	0	43	0	61865984	61	4677
2026-01-12 11:22:33.53	139.78	8.27	-45.0	-47.6	14.9	1.10e-06	0	43	0	78643200	61	4888
2026-01-12 11:22:36.51	139.66	8.51	-46.7	-49.8	12.6	8.35e-05	0	43	0	95420416	64	5299
2026-01-12 11:22:39.49	139.55	8.75	-49.5	-54.4	8.0	4.02e-02	0	43	0	112197632	69	6794
2026-01-12 11:22:42.47	139.43	8.99	-51.4	-62.1	3.9	8.45e-01	0	43	104	119537664	73	13020
2026-01-12 11:22:45.45	139.30	9.23	-51.5	-62.5	3.8	8.45e-01	0	43	104	124780544	73	13633
2026-01-12 11:22:48.45	139.18	9.48	-51.6	-63.3	3.8	8.48e-01	0	43	104	126877696	73	14890
2026-01-12 11:22:51.43	139.05	9.73	-51.2	-60.4	4.2	8.44e-01	0	43	104	126877696	73	10687
2026-01-12 11:22:54.42	138.92	9.98	-51.3	-60.5	3.9	8.47e-01	0	43	104	126877696	74	10184
2026-01-12 11:22:57.40	138.79	10.24	-49.0	-53.3	9.3	2.79e-02	0	43	0	131072000	70	5652
2026-01-12 11:23:00.39	138.66	10.49	-46.5	-49.5	13.2	9.61e-05	0	43	0	147849216	65	4825
2026-01-12 11:23:03.37	138.52	10.75	-45.7	-48.3	14.5	1.10e-06	0	43	0	164626432	63	4737
2026-01-12 11:23:06.47	138.38	11.02	-44.7	-47.1	15.6	0.00e+00	0	43	0	182452224	61	4649
2026-01-12 11:23:09.39	138.24	11.28	-44.1	-46.4	16.3	0.00e+00	0	43	0	198180864	60	4515
2026-01-12 11:23:12.38	138.09	11.55	-43.8	-46.0	16.6	0.00e+00	0	43	0	214958080	59	4576
2026-01-12 11:23:15.36	137.95	11.82	-43.6	-45.8	16.8	0.00e+00	0	43	0	231735296	59	4489
2026-01-12 11:23:18.34	137.80	12.09	-43.5	-45.6	17.0	0.00e+00	0	43	0	248512512	58	4650
2026-01-12 11:23:21.33	137.64	12.37	-43.4	-45.6	17.1	0.00e+00	0	44	0	265289728	58	4610
2026-01-12 11:23:24.31	137.49	12.65	-43.3	-45.5	17.2	0.00e+00	0	43	0	282066944	58	4567
2026-01-12 11:23:27.50	137.32	12.95	-43.2	-45.3	17.3	0.00e+00	0	44	0	299892736	58	4489
2026-01-12 11:23:30.40	137.16	13.23	-43.1	-45.2	17.4	0.00e+00	0	43	0	316669952	58	4438
2026-01-12 11:23:33.67	136.98	13.54	-43.0	-45.1	17.5	0.00e+00	0	44	0	335544320	58	4372
2026-01-12 11:23:36.47	136.82	13.81	-43.0	-45.1	17.6	0.00e+00	0	43	0	351272960	57	4614
2026-01-12 11:23:39.59	136.64	14.12	-42.9	-45.0	17.6	0.00e+00	0	44	0	368050176	57	4589
2026-01-12 11:23:42.43	136.47	14.41	-42.8	-44.9	17.8	0.00e+00	0	44	0	383778816	57	4517
2026-01-12 11:23:45.59	136.28	14.72	-42.7	-44.8	17.9	0.00e+00	0	44	0	401604608	57	4448
2026-01-12 11:23:48.44	136.10	15.02	-42.6	-44.7	18.0	0.00e+00	0	43	0	418381824	57	4406
2026-01-12 11:23:51.56	135.91	15.34	-42.6	-44.6	18.0	0.00e+00	0	44	0	436207616	57	4384
2026-01-12 11:23:54.41	135.72	15.64	-42.5	-44.6	18.1	0.00e+00	0	44	0	451936256	57	4349
2026-01-12 11:23:57.54	135.52	15.97	-42.2	-44.2	18.4	0.00e+00	0	44	0	468713472	56	4414
2026-01-12 11:24:00.38	135.33	16.27	-42.0	-44.0	18.6	0.00e+00	0	44	0	485490688	56	4329
2026-01-12 11:24:03.59	135.11	16.62	-41.8	-43.7	18.7	0.00e+00	0	44	0	503316480	55	4422
2026-01-12 11:24:06.44	134.91	16.93	-41.7	-43.7	18.8	0.00e+00	0	44	0	519045120	55	4408
2026-01-12 11:24:09.56	134.68	17.28	-41.8	-43.8	18.7	0.00e+00	0	44	0	536870912	55	4442
2026-01-12 11:24:12.40	134.47	17.60	-41.8	-43.7	18.7	0.00e+00	0	44	0	552599552	55	4436
2026-01-12 11:24:15.53	134.24	17.95	-41.6	-43.5	18.9	0.00e+00	0	44	0	570425344	55	4337
2026-01-12 11:24:18.37	134.02	18.28	-41.6	-43.6	18.9	0.00e+00	0	44	0	586153984	55	4367
2026-01-12 11:24:21.60	133.76	18.66	-41.6	-43.5	19.0	0.00e+00	0	44	0	603979776	55	4324
2026-01-12 11:24:24.44	133.53	18.99	-41.5	-43.5	19.0	0.00e+00	0	44	0	620756992	54	4566
2026-01-12 11:24:27.57	133.27	19.37	-41.4	-43.3	19.1	0.00e+00	0	44	0	638582784	54	4478
2026-01-12 11:24:30.41	133.03	19.71	-41.2	-43.2	19.3	0.00e+00	0	44	0	654311424	54	4398
2026-01-12 11:24:33.54	132.76	20.10	-41.3	-43.3	19.2	0.00e+00	0	44	0	672137216	54	4449
2026-01-12 11:24:36.38	132.50	20.45	-41.3	-43.2	19.2	0.00e+00	0	44	0	687865856	54	4429
2026-01-12 11:24:39.59	132.21	20.86	-41.1	-43.0	19.4	0.00e+00	0	44	0	705691648	54	4331
2026-01-12 11:24:42.53	131.93	21.23	-40.9	-42.8	19.6	0.00e+00	0	44	0	722468864	53	4477
2026-01-12 11:24:45.51	131.65	21.62	-40.7	-42.6	19.8	0.00e+00	0	44	0	739246080	53	4359
2026-01-12 11:24:48.50	131.35	22.01	-40.5	-42.4	20.0	0.00e+00	0	44	0	756023296	53	4252
2026-01-12 11:24:51.48	131.05	22.41	-40.5	-42.3	20.1	0.00e+00	0	44	0	772800512	52	4471
2026-01-12 11:24:54.47	130.74	22.81	-40.6	-42.4	20.0	0.00e+00	0	44	0	789577728	52	4544
2026-01-12 11:24:57.41	130.42	23.21	-40.7	-42.6	19.8	0.00e+00	0	44	0	806354944	52	4620
2026-01-12 11:25:00.54	130.08	23.65	-40.7	-42.6	19.9	0.00e+00	0	44	0	823132160	52	4607
2026-01-12 11:25:03.38	129.76	24.05	-40.4	-42.2	20.1	0.00e+00	0	44	0	839909376	52	4440
2026-01-12 11:25:06.51	129.39	24.49	-40.1	-41.9	20.4	0.00e+00	0	44	0	856686592	52	4278
2026-01-12 11:25:09.35	129.05	24.90	-40.2	-42.0	20.4	0.00e+00	0	44	0	873463808	52	4318
2026-01-12 11:25:12.48	128.67	25.36	-40.2	-42.0	20.3	0.00e+00	0	44	0	891289600	52	4321
2026-01-12 11:25:15.34	128.31	25.78	-40.3	-42.2	20.2	0.00e+00	0	44	0	907018240	52	4433
2026-01-12 11:25:18.63	127.88	26.28	-40.2	-42.0	20.3	0.00e+00	0	44	0	925892608	52	4322
2026-01-12 11:25:21.35	127.52	26.69	-40.0	-41.8	20.6	0.00e+00	0	44	0	940572672	51	4463
2026-01-12 11:25:24.63	127.06	27.20	-40.0	-41.8	20.6	0.00e+00	0	44	0	959447040	51	4491
2026-01-12 11:25:27.37	126.67	27.63	-40.4	-42.3	20.2	0.00e+00	0	44	0	974127104	51	4722
2026-01-12 11:25:30.64	126.20	28.15	-40.3	-42.2	20.3	0.00e+00	0	44	0	993001472	51	4666
2026-01-12 11:25:33.68	125.74	28.64	-40.1	-42.0	20.5	0.00e+00	0	44	0	1009778688	51	4558
2026-01-12 11:25:36.94	125.23	29.17	-40.0	-41.8	20.7	0.00e+00	0	44	0	1028653056	51	4448
2026-01-12 11:25:39.67	124.79	29.62	-40.0	-41.8	20.7	0.00e+00	0	44	0	1043333120	51	4457
2026-01-12 11:25:42.96	124.24	30.17	-40.2	-42.1	20.4	0.00e+00	0	44	0	1062207488	51	4611
2026-01-12 11:25:45.76	123.76	30.65	-40.1	-41.9	20.6	0.00e+00	0	44	0	1077936128	51	4508
2026-01-12 11:25:49.11	123.17	31.22	-40.0	-41.8	20.6	0.00e+00	0	44	0	1096810496	51	4477
2026-01-12 11:25:51.95	122.65	31.71	-39.7	-41.5	20.9	0.00e+00	0	44	0	1112539136	51	4326
2026-01-12 11:25:55.23	122.02	32.29	-39.8	-41.6	20.8	0.00e+00	0	44	0	1131413504	51	4389
2026-01-12 11:25:57.97	121.49	32.78	-39.9	-41.8	20.7	0.00e+00	0	44	0	1147142144	51	4457
2026-01-12 11:26:01.27	120.82	33.37	-39.8	-41.6	20.9	0.00e+00	0	44	0	1164967936	51	4346
2026-01-12 11:26:04.11	120.22	33.89	-39.8	-41.6	20.8	0.00e+00	0	44	0	1181745152	51	4368
2026-01-12 11:26:07.24	119.54	34.47	-39.6	-41.4	21.0	0.00e+00	0	44	0	1198522368	51	4282
2026-01-12 11:26:10.09	118.90	35.00	-39.5	-41.3	21.0	0.00e+00	0	44	0	1215299584	51	4234
2026-01-12 11:26:13.33	118.15	35.60	-39.7	-41.4	20.9	0.00e+00	0	44	0	1233125376	51	4282
2026-01-12 11:26:16.17	117.46	36.14	-39.7	-41.5	20.9	0.00e+00	0	44	0	1248854016	51	4338
2026-01-12 11:26:19.30	116.68	36.74	-39.9	-41.7	20.8	0.00e+00	0	44	0	1266679808	51	4401
2026-01-12 11:26:22.37	115.89	37.33	-39.6	-41.4	21.0	0.00e+00	0	44	0	1283457024	51	4267
2026-01-12 11:26:25.40	115.07	37.91	-39.8	-41.6	20.8	0.00e+00	0	44	0	1301282816	51	4380
2026-01-12 11:26:28.69	114.16	38.55	-39.7	-41.5	21.0	0.00e+00	0	44	0	1319108608	51	4310
2026-01-12 11:26:31.48	113.35	39.10	-39.8	-41.6	20.9	0.00e+00	0	44	0	1334837248	51	4359
2026-01-12 11:26:34.86	112.33	39.76	-39.7	-41.4	21.0	0.00e+00	0	44	0	1354760192	51	4286
2026-01-12 11:26:37.79	111.42	40.34	-40.0	-41.8	20.6	0.00e+00	0	44	0	1370488832	51	4492
2026-01-12 11:26:41.11	110.34	40.99	-40.0	-41.8	20.7	0.00e+00	0	44	0	1389363200	51	4459
2026-01-12 11:26:43.85	109.42	41.53	-39.8	-41.5	21.0	0.00e+00	0	44	0	1405091840	51	4331
2026-01-12 11:26:47.16	108.27	42.18	-39.8	-41.6	20.9	0.00e+00	0	44	0	1423966208	51	4376
2026-01-12 11:26:49.97	107.25	42.73	-39.9	-41.7	20.8	0.00e+00	0	44	0	1439694848	51	4417
2026-01-12 11:26:53.10	106.07	43.35	-39.7	-41.5	21.0	0.00e+00	0	44	0	1456472064	51	4327
2026-01-12 11:26:56.32	104.81	43.97	-39.8	-41.6	20.9	0.00e+00	0	44	0	1475346432	51	4373
2026-01-12 11:26:59.16	103.66	44.51	-39.7	-41.4	21.1	0.00e+00	0	44	0	1491075072	51	4290
2026-01-12 11:27:02.30	102.34	45.11	-40.1	-42.0	20.6	0.00e+00	0	44	0	1508900864	51	4556
2026-01-12 11:27:05.22	101.07	45.66	-39.5	-41.3	21.2	0.00e+00	0	44	0	1524629504	51	4207
2026-01-12 11:27:08.35	99.66	46.23	-39.8	-41.6	20.9	0.00e+00	0	44	0	1542455296	51	4348
2026-01-12 11:27:11.20	98.32	46.74	-40.0	-41.9	20.7	0.00e+00	0	44	0	1558183936	51	4500
2026-01-12 11:27:14.33	96.81	47.29	-40.5	-42.3	20.3	0.00e+00	0	44	0	1576009728	51	4750
2026-01-12 11:27:17.19	95.38	47.78	-40.4	-42.3	20.4	0.00e+00	0	44	0	1591738368	51	4707
2026-01-12 11:27:20.32	93.76	48.30	-40.6	-42.4	20.2	0.00e+00	0	44	0	1609564160	51	4792
2026-01-12 11:27:23.29	92.18	48.78	-41.0	-42.9	19.8	0.00e+00	0	44	0	1626341376	52	4776
2026-01-12 11:27:26.45	90.44	49.26	-40.3	-42.2	20.4	0.00e+00	0	44	0	1644167168	52	4412
2026-01-12 11:27:29.29	88.83	49.67	-40.6	-42.5	20.1	0.00e+00	0	44	0	1659895808	52	4567
2026-01-12 11:27:32.42	87.01	50.10	-40.5	-42.4	20.2	0.00e+00	0	44	0	1677721600	52	4516
2026-01-12 11:27:35.26	85.31	50.47	-40.8	-42.8	19.9	0.00e+00	0	44	0	1694498816	52	4708
2026-01-12 11:27:38.39	83.39	50.84	-40.5	-42.3	20.3	0.00e+00	0	44	0	1711276032	52	4469
2026-01-12 11:27:41.36	81.52	51.17	-40.4	-42.3	20.4	0.00e+00	0	44	0	1728053248	52	4450
2026-01-12 11:27:44.42	79.56	51.48	-40.4	-42.3	20.4	0.00e+00	0	44	0	1745879040	52	4448
2026-01-12 11:27:47.41	77.61	51.74	-40.2	-42.0	20.6	0.00e+00	0	44	0	1761607680	52	4324
2026-01-12 11:27:50.40	75.62	51.97	-40.4	-42.2	20.4	0.00e+00	0	44	0	1779433472	52	4400
2026-01-12 11:27:53.38	73.62	52.17	-40.5	-42.4	20.3	0.00e+00	0	44	0	1796210688	52	4494
2026-01-12 11:27:56.43	71.54	52.33	-40.6	-42.5	20.2	0.00e+00	0	44	0	1812987904	52	4563
2026-01-12 11:27:59.34	69.53	52.45	-40.5	-42.3	20.4	0.00e+00	0	44	0	1829765120	52	4455
2026-01-12 11:28:02.42	67.40	52.53	-40.2	-42.0	20.6	0.00e+00	0	44	0	1846542336	52	4308
2026-01-12 11:28:05.40	65.32	52.57	-40.5	-42.4	20.2	0.00e+00	0	44	0	1863319552	52	4521
2026-01-12 11:28:08.39	63.24	52.58	-40.4	-42.3	20.4	0.00e+00	0	44	0	1880096768	52	4446
2026-01-12 11:28:11.37	61.16	52.54	-40.4	-42.2	20.4	0.00e+00	0	44	0	1896873984	52	4419
2026-01-12 11:28:14.35	59.10	52.47	-40.3	-42.1	20.5	0.00e+00	0	44	0	1913651200	52	4368
2026-01-12 11:28:17.34	57.04	52.36	-40.3	-42.1	20.5	0.00e+00	0	44	0	1930428416	52	4356
2026-01-12 11:28:20.32	55.00	52.21	-40.5	-42.3	20.3	0.00e+00	0	44	0	1947205632	52	4469
2026-01-12 11:28:23.31	52.98	52.03	-40.9	-42.8	19.9	0.00e+00	0	44	0	1963982848	52	4711
2026-01-12 11:28:26.29	50.99	51.80	-40.2	-42.0	20.7	0.00e+00	0	44	0	1980760064	52	4294
2026-01-12 11:28:29.33	49.00	51.54	-40.2	-42.0	20.6	0.00e+00	0	44	0	1998585856	52	4307
2026-01-12 11:28:32.30	47.09	51.26	-40.3	-42.1	20.5	0.00e+00	0	44	0	2014314496	52	4381
2026-01-12 11:28:35.29	45.20	50.94	-40.4	-42.3	20.3	0.00e+00	0	44	0	2031091712	52	4453
2026-01-12 11:28:38.52	43.22	50.56	-40.5	-42.3	20.3	0.00e+00	0	44	0	2049966080	52	4486
2026-01-12 11:28:41.37	41.50	50.20	-40.4	-42.2	20.4	0.00e+00	0	44	0	2065694720	52	4415
2026-01-12 11:28:44.49	39.68	49.77	-40.4	-42.2	20.4	0.00e+00	0	44	0	2083520512	52	4420
2026-01-12 11:28:47.33	38.06	49.37	-40.2	-42.0	20.5	0.00e+00	0	44	0	2099249152	52	4338
2026-01-12 11:28:50.58	36.26	48.88	-40.2	-42.0	20.5	0.00e+00	0	44	0	2118123520	52	4340
2026-01-12 11:28:53.37	34.77	48.44	-40.3	-42.1	20.5	0.00e+00	0	44	0	2133852160	52	4363
2026-01-12 11:28:56.81	32.98	47.87	-40.0	-41.8	20.8	0.00e+00	0	44	0	2152726528	51	4452
2026-01-12 11:28:59.56	31.60	47.41	-39.8	-41.5	21.0	0.00e+00	0	44	0	2168455168	51	4338
2026-01-12 11:29:02.84	30.01	46.83	-39.5	-41.3	21.2	0.00e+00	0	44	0	2186280960	51	4219
2026-01-12 11:29:05.59	28.72	46.34	-39.8	-41.6	21.0	0.00e+00	0	44	0	2202009600	51	4357
2026-01-12 11:29:09.22	27.08	45.68	-39.8	-41.5	21.0	0.00e+00	0	44	0	2222981120	51	4339
2026-01-12 11:29:12.07	25.84	45.15	-39.8	-41.6	21.0	0.00e+00	0	44	0	2238709760	51	4346
2026-01-12 11:29:16.05	24.18	44.39	-39.5	-41.2	21.3	0.00e+00	0	44	0	2260729856	51	4176
2026-01-12 11:29:19.01	22.99	43.83	-39.6	-41.4	21.2	0.00e+00	0	44	0	2277507072	50	4497
2026-01-12 11:29:23.15	21.40	43.02	-39.8	-41.5	21.3	0.00e+00	0	44	0	2300575744	50	4557
2026-01-12 11:29:26.05	20.34	42.46	-39.6	-41.3	21.5	0.00e+00	0	44	0	2317352960	50	4483
2026-01-12 11:29:29.03	19.28	41.88	-39.6	-41.3	21.5	0.00e+00	0	44	0	2334130176	50	4455
2026-01-12 11:29:32.01	18.26	41.29	-39.7	-41.5	21.4	0.00e+00	0	44	0	2350907392	50	4546
2026-01-12 11:29:35.00	17.28	40.70	-39.6	-41.3	21.5	0.00e+00	0	44	0	2367684608	50	4457
2026-01-12 11:29:37.98	16.33	40.12	-39.8	-41.5	21.3	0.00e+00	0	44	0	2384461824	50	4581
2026-01-12 11:29:40.97	15.42	39.53	-39.7	-41.4	21.4	0.00e+00	0	44	0	2401239040	50	4522
2026-01-12 11:29:43.95	14.54	38.95	-39.6	-41.3	21.5	0.00e+00	0	44	0	2418016256	50	4450
2026-01-12 11:29:46.93	13.69	38.37	-39.6	-41.3	21.5	0.00e+00	0	44	0	2434793472	50	4468
2026-01-12 11:29:49.92	12.87	37.79	-40.0	-41.7	21.1	0.00e+00	0	44	0	2451570688	50	4671
2026-01-12 11:29:52.90	12.08	37.22	-40.1	-41.9	21.0	0.00e+00	0	44	0	2468347904	50	4779
2026-01-12 11:29:55.89	11.31	36.65	-39.8	-41.6	21.2	0.00e+00	0	44	0	2485125120	51	4342
2026-01-12 11:29:58.87	10.58	36.08	-39.6	-41.3	21.5	0.00e+00	0	44	0	2501902336	51	4194
2026-01-12 11:30:01.85	9.86	35.52	-39.6	-41.4	21.4	0.00e+00	0	44	0	2518679552	51	4246
2026-01-12 11:30:04.84	9.18	34.97	-39.6	-41.3	21.4	0.00e+00	0	44	0	2535456768	51	4234
2026-01-12 11:30:07.82	8.51	34.42	-39.4	-41.1	21.6	0.00e+00	0	44	0	2552233984	50	4365
2026-01-12 11:30:10.87	7.86	33.86	-39.3	-41.0	21.8	0.00e+00	0	44	0	2569011200	50	4297
2026-01-12 11:30:13.93	7.22	33.30	-39.4	-41.1	21.6	0.00e+00	0	44	0	2586836992	50	4373
2026-01-12 11:30:16.86	6.63	32.78	-39.4	-41.1	21.6	0.00e+00	0	44	0	2602565632	50	4346
2026-01-12 11:30:19.84	6.05	32.25	-39.7	-41.4	21.3	0.00e+00	0	44	0	2619342848	50	4542
2026-01-12 11:30:22.82	5.49	31.73	-39.9	-41.7	21.1	0.00e+00	0	44	0	2636120064	50	4661
2026-01-12 11:30:25.81	4.95	31.21	-40.0	-41.7	21.1	0.00e+00	0	44	0	2652897280	50	4693
2026-01-12 11:30:28.87	4.41	30.69	-39.8	-41.6	21.2	0.00e+00	0	44	0	2670723072	50	4612
2026-01-12 11:30:31.71	3.93	30.21	-39.7	-41.4	21.4	0.00e+00	0	44	0	2686451712	50	4514
2026-01-12 11:30:34.84	3.41	29.69	-39.9	-41.7	21.1	0.00e+00	0	44	0	2704277504	50	4662
2026-01-12 11:30:37.68	2.95	29.22	-40.3	-42.1	20.8	0.00e+00	0	44	0	2720006144	51	4605
2026-01-12 11:30:40.89	2.46	28.70	-40.3	-42.0	20.8	0.00e+00	0	44	0	2737831936	51	4580
2026-01-12 11:30:43.78	2.02	28.24	-40.2	-41.9	20.9	0.00e+00	0	44	0	2754609152	51	4536
2026-01-12 11:30:47.04	1.55	27.72	-40.2	-41.9	20.9	0.00e+00	0	44	0	2772434944	51	4527
2026-01-12 11:30:49.88	1.14	27.28	-40.1	-41.8	21.0	0.00e+00	0	44	0	2788163584	51	4480
2026-01-12 11:30:53.01	0.71	26.80	-40.2	-42.0	20.8	0.00e+00	0	44	0	2805989376	51	4557
2026-01-12 11:30:55.85	0.34	26.37	-40.1	-41.9	20.9	0.00e+00	0	44	0	2821718016	51	4524
2026-01-12 11:30:59.02	359.93	25.89	-40.0	-41.8	21.0	0.00e+00	0	44	0	2840592384	51	4446
2026-01-12 11:31:01.87	359.57	25.47	-40.0	-41.8	21.0	0.00e+00	0	44	0	2856321024	51	4443
2026-01-12 11:31:05.10	359.17	25.00	-40.2	-41.9	20.9	0.00e+00	0	44	0	2874146816	51	4523
2026-01-12 11:31:07.94	358.84	24.59	-40.2	-42.0	20.8	0.00e+00	0	44	0	2889875456	51	4560
2026-01-12 11:31:11.04	358.48	24.15	-40.3	-42.1	20.7	0.00e+00	0	44	0	2907701248	51	4644
2026-01-12 11:31:14.02	358.14	23.73	-40.4	-42.2	20.6	0.00e+00	0	44	0	2924478464	51	4695
2026-01-12 11:31:17.01	357.82	23.32	-40.5	-42.3	20.5	0.00e+00	0	44	0	2941255680	51	4752
2026-01-12 11:31:19.99	357.50	22.91	-40.6	-42.4	20.4	0.00e+00	0	44	0	2958032896	51	4810
2026-01-12 11:31:22.98	357.19	22.51	-40.6	-42.4	20.3	0.00e+00	0	44	0	2974810112	52	4531
2026-01-12 11:31:25.96	356.89	22.12	-40.5	-42.3	20.4	0.00e+00	0	44	0	2991587328	52	4460
2026-01-12 11:31:28.95	356.60	21.72	-40.5	-42.3	20.4	0.00e+00	0	44	0	3008364544	52	4469
2026-01-12 11:31:31.94	356.31	21.34	-40.6	-42.4	20.3	0.00e+00	0	44	0	3025141760	52	4539
2026-01-12 11:31:34.95	356.03	20.95	-40.7	-42.4	20.3	0.00e+00	0	44	0	3041918976	52	4540
2026-01-12 11:31:37.94	355.76	20.58	-40.8	-42.5	20.2	0.00e+00	0	44	0	3058696192	52	4598
2026-01-12 11:31:40.92	355.49	20.21	-40.9	-42.7	20.1	0.00e+00	0	44	0	3075473408	52	4677
2026-01-12 11:31:43.90	355.24	19.84	-41.0	-42.9	19.8	0.00e+00	0	44	0	3092250624	52	4794
2026-01-12 11:31:46.89	354.98	19.48	-41.2	-43.1	19.7	0.00e+00	0	44	0	3109027840	53	4606
2026-01-12 11:31:49.85	354.74	19.13	-41.3	-43.3	19.5	0.00e+00	0	44	0	3125805056	53	4716
2026-01-12 11:31:52.87	354.50	18.77	-41.5	-43.4	19.4	0.00e+00	0	44	0	3142582272	53	4803
2026-01-12 11:31:55.85	354.27	18.42	-41.6	-43.5	19.3	0.00e+00	0	44	0	3159359488	53	4833
2026-01-12 11:31:58.83	354.04	18.08	-41.6	-43.5	19.3	0.00e+00	0	44	0	3176136704	53	4821
2026-01-12 11:32:01.82	353.81	17.74	-41.5	-43.4	19.4	0.00e+00	0	44	0	3192913920	53	4764
2026-01-12 11:32:04.93	353.59	17.39	-41.6	-43.5	19.3	0.00e+00	0	44	0	3210739712	53	4838
2026-01-12 11:32:07.85	353.38	17.07	-41.9	-43.8	19.1	0.00e+00	0	44	0	3227516928	54	4709
2026-01-12 11:32:10.83	353.17	16.74	-41.9	-43.9	18.9	0.00e+00	0	43	0	3244294144	54	4782
2026-01-12 11:32:13.81	352.97	16.42	-42.1	-44.1	18.8	0.00e+00	0	44	0	3261071360	54	4888
2026-01-12 11:32:16.82	352.77	16.10	-42.1	-44.2	18.6	0.00e+00	0	44	0	3277848576	54	4944
2026-01-12 11:32:20.08	352.56	15.76	-42.3	-44.3	18.6	0.00e+00	0	44	0	3295674368	55	4728
2026-01-12 11:32:22.98	352.37	15.45	-42.3	-44.3	18.5	0.00e+00	0	44	0	3312451584	55	4718
2026-01-12 11:32:26.28	352.17	15.11	-42.3	-44.3	18.6	0.00e+00	0	44	0	3331325952	55	4709
2026-01-12 11:32:29.01	352.00	14.84	-42.2	-44.2	18.5	0.00e+00	0	44	0	3346006016	55	4705
2026-01-12 11:32:32.28	351.81	14.51	-42.3	-44.3	18.5	0.00e+00	0	44	0	3364880384	55	4747
2026-01-12 11:32:34.99	351.65	14.24	-42.4	-44.4	18.4	0.00e+00	0	44	0	3379560448	55	4804
2026-01-12 11:32:38.26	351.46	13.92	-42.4	-44.5	18.3	0.00e+00	0	44	0	3398434816	55	4868
2026-01-12 11:32:40.96	351.31	13.65	-42.9	-44.9	18.0	0.00e+00	0	43	0	3413114880	56	4801
2026-01-12 11:32:44.24	351.13	13.34	-42.9	-45.0	18.0	0.00e+00	0	44	0	3431989248	56	4836
2026-01-12 11:32:46.96	350.99	13.08	-42.8	-45.0	18.0	0.00e+00	0	44	0	3446669312	56	4818
2026-01-12 11:32:50.22	350.81	12.77	-42.7	-45.1	17.9	0.00e+00	0	44	0	3465543680	56	4902
2026-01-12 11:32:53.06	350.67	12.51	-42.6	-45.2	17.8	0.00e+00	0	44	0	3481272320	56	4939
2026-01-12 11:32:56.33	350.50	12.21	-42.6	-45.3	17.6	0.00e+00	0	44	0	3500146688	56	5010
2026-01-12 11:32:59.69	350.34	11.90	-42.8	-45.3	17.6	0.00e+00	0	44	0	3519021056	56	5036
2026-01-12 11:33:02.40	350.21	11.66	-42.9	-45.5	17.5	0.00e+00	0	43	0	3533701120	56	5107
2026-01-12 11:33:05.67	350.05	11.37	-43.1	-45.5	17.4	0.00e+00	0	44	0	3552575488	56	5159
2026-01-12 11:33:08.54	349.92	11.11	-43.2	-45.6	17.3	0.00e+00	0	44	0	3568304128	57	4924
2026-01-12 11:33:11.84	349.77	10.82	-43.1	-45.6	17.3	0.00e+00	0	43	0	3587178496	57	4910
2026-01-12 11:33:14.78	349.64	10.57	-43.0	-45.7	17.2	0.00e+00	0	43	0	3603955712	57	4943
2026-01-12 11:33:17.75	349.51	10.32	-43.3	-45.9	17.0	0.00e+00	0	44	0	3620732928	57	5056
2026-01-12 11:33:20.74	349.38	10.06	-43.4	-45.8	17.0	0.00e+00	0	43	0	3637510144	57	5013
2026-01-12 11:33:23.66	349.26	9.82	-43.4	-45.8	17.1	0.00e+00	0	43	0	3653238784	57	4984
2026-01-12 11:33:26.78	349.13	9.56	-43.7	-45.9	16.9	0.00e+00	0	44	0	3671064576	58	4790
2026-01-12 11:33:29.62	349.01	9.32	-43.8	-46.0	16.8	0.00e+00	0	44	0	3686793216	58	4860
2026-01-12 11:33:32.75	348.89	9.07	-43.6	-46.0	16.8	0.00e+00	0	43	0	3704619008	58	4836
2026-01-12 11:33:35.59	348.78	8.84	-51.5	-64.3	3.8	8.47e-01	0	43	104	3711959040	73	16704
2026-01-12 11:33:38.71	348.66	8.59	-51.5	-64.6	3.8	8.47e-01	0	44	104	3711959040	74	16352
2026-01-12 11:33:41.55	348.55	8.36	-52.4	-64.6	3.8	8.47e-01	0	43	104	3711959040	75	15556
2026-01-12 11:33:44.67	348.44	8.12	-52.6	-64.7	3.8	8.47e-01	0	43	104	3711959040	75	15702
2026-01-12 11:33:47.51	348.33	7.90	-52.6	-64.7	3.8	8.47e-01	0	44	104	3711959040	75	15649
2026-01-12 11:33:50.63	348.22	7.65	-52.4	-64.7	3.8	8.46e-01	0	44	104	3711959040	75	15716
2026-01-12 11:33:53.47	348.12	7.44	-52.7	-64.8	3.8	8.46e-01	0	44	104	3711959040	76	14919
2026-01-12 11:33:56.67	348.01	7.19	-52.7	-64.8	3.8	8.47e-01	0	44	104	3711959040	76	14906
2026-01-12 11:33:59.51	347.92	6.98	-52.6	-64.7	3.8	8.47e-01	0	44	104	3711959040	76	14837
2026-01-12 11:34:02.63	347.81	6.75	-52.4	-64.7	3.8	8.47e-01	0	44	104	3711959040	76	14843
2026-01-12 11:34:05.47	347.72	6.53	-52.5	-64.7	3.8	8.47e-01	0	44	104	3711959040	76	14806
2026-01-12 11:34:08.59	347.62	6.30	-52.4	-64.7	3.8	8.47e-01	0	43	104	3711959040	76	14805
2026-01-12 11:34:11.43	347.53	6.10	-52.5	-64.7	3.8	8.46e-01	0	43	104	3711959040	76	14785
2026-01-12 11:34:14.55	347.43	5.87	-52.5	-64.7	3.8	8.47e-01	0	43	104	3711959040	76	14759
2026-01-12 11:34:17.39	347.35	5.67	-52.4	-64.7	3.8	8.47e-01	0	44	104	3711959040	76	14765
2026-01-12 11:34:20.51	347.25	5.45	-52.4	-64.7	3.8	8.47e-01	0	44	104	3711959040	76	14749
2026-01-12 11:34:23.35	347.17	5.24	-52.4	-64.7	3.8	8.47e-01	0	44	104	3711959040	76	14763
2026-01-12 11:34:26.47	347.08	5.03	-52.5	-64.7	3.8	8.49e-01	0	44	104	3711959040	76	14753

#Closed at: 2026-01-12 11:34:28
#Recorded file [3711 MB]: D:/Data/31040_260112_142151.dat