passes_logs/2026/01/12/T1/T1__20260112_003133_SUOMI_NPP_rec.log

#Pass ID: 20260112_003133_SUOMI NPP
#Satellite: SUOMI NPP
#Configuration: NPP
#almurnet v.1.7.20251203
#Start time: 2026-01-12 00:31:33

#Version: 2.0.20230620
#Station: T1
#Location: 37.570604 lon 55.790049 lat
#TLE: 1 37849U 11061A   26011.29776829  .00000112  00000+0  74065-4 0  9999
#TLE: 2 37849  98.7807 313.3784 0002522  70.0451 290.0996 14.19524507736187

#Time	Az	El	Level	Level2	SNR	BER	BlckErr	Temp	State	Recorded	gain1	gain2
2026-01-12 00:31:33.86	11.67	5.06	-47.5	-65.4	3.8	1.49e+00	0	40	0	0	66	28403
2026-01-12 00:31:36.84	11.56	5.27	-47.4	-65.1	3.8	1.49e+00	0	41	104	0	65	29111
2026-01-12 00:31:39.82	11.45	5.48	-47.4	-64.8	3.8	1.49e+00	0	41	104	0	65	28189
2026-01-12 00:31:42.80	11.34	5.69	-47.5	-64.5	3.8	1.49e+00	0	41	104	0	65	27229
2026-01-12 00:31:45.78	11.23	5.90	-47.4	-64.6	3.8	1.49e+00	0	41	104	0	65	27640
2026-01-12 00:31:48.76	11.11	6.11	-47.5	-64.8	3.8	1.49e+00	0	41	104	0	65	28096
2026-01-12 00:31:51.74	10.99	6.33	-47.4	-64.6	3.8	1.49e+00	0	41	104	0	65	27523
2026-01-12 00:31:54.72	10.87	6.54	-47.5	-64.4	3.8	1.49e+00	0	41	104	0	65	26967
2026-01-12 00:31:57.71	10.75	6.76	-47.5	-64.9	3.8	1.49e+00	0	42	104	0	65	28535
2026-01-12 00:32:00.69	10.63	6.98	-47.4	-65.2	3.8	1.49e+00	0	42	104	0	65	29628
2026-01-12 00:32:03.67	10.50	7.20	-47.3	-62.5	3.9	1.48e+00	0	42	104	0	65	21671
2026-01-12 00:32:06.65	10.37	7.43	-47.1	-58.6	5.7	5.68e-01	0	42	0	3145728	65	13742
2026-01-12 00:32:09.62	10.24	7.65	-46.6	-55.7	8.2	7.95e-02	0	42	0	9437184	65	9931
2026-01-12 00:32:12.60	10.11	7.88	-46.3	-53.7	10.3	7.95e-03	0	42	0	14680064	64	8325
2026-01-12 00:32:15.58	9.97	8.11	-45.9	-52.3	11.7	6.38e-04	0	42	0	19922944	63	7507
2026-01-12 00:32:18.56	9.84	8.34	-45.7	-51.6	12.5	1.22e-04	0	42	0	26214400	63	6922
2026-01-12 00:32:21.54	9.70	8.57	-45.9	-52.1	12.0	2.72e-04	0	42	0	31457280	63	7298
2026-01-12 00:32:24.52	9.56	8.81	-46.6	-54.5	9.4	5.05e-03	0	42	0	36700160	63	9717
2026-01-12 00:32:27.50	9.41	9.04	-47.2	-59.3	5.3	3.42e-01	0	42	0	42991616	65	15042
2026-01-12 00:32:30.49	9.26	9.28	-47.6	-63.6	3.8	1.49e+00	0	42	104	46137344	65	24541
2026-01-12 00:32:33.47	9.11	9.53	-45.8	-50.6	13.5	6.10e-06	0	42	0	50331648	63	6202
2026-01-12 00:32:36.45	8.96	9.77	-45.2	-49.2	15.0	0.00e+00	0	42	0	55574528	62	5545
2026-01-12 00:32:39.45	8.81	10.02	-44.8	-48.6	15.5	0.00e+00	0	43	0	60817408	61	5503
2026-01-12 00:32:42.55	8.64	10.27	-44.6	-48.1	16.0	0.00e+00	0	43	0	67108864	61	5204
2026-01-12 00:32:45.39	8.49	10.51	-44.5	-47.9	16.2	0.00e+00	0	43	0	72351744	61	5096
2026-01-12 00:32:48.52	8.32	10.78	-44.5	-48.0	16.2	0.00e+00	0	42	0	78643200	61	5103
2026-01-12 00:32:51.36	8.16	11.02	-44.5	-48.1	16.1	0.00e+00	0	43	0	83886080	61	5184
2026-01-12 00:32:54.62	7.97	11.30	-44.5	-48.1	16.1	0.00e+00	0	43	0	90177536	61	5165
2026-01-12 00:32:57.41	7.81	11.55	-44.6	-48.2	16.0	0.00e+00	0	43	0	95420416	61	5266
2026-01-12 00:33:00.70	7.61	11.84	-44.5	-48.2	16.0	0.00e+00	0	43	0	100663296	61	5262
2026-01-12 00:33:03.43	7.45	12.08	-44.6	-48.3	15.9	0.00e+00	0	43	0	105906176	60	5614
2026-01-12 00:33:06.76	7.24	12.38	-44.6	-48.2	16.0	0.00e+00	0	43	0	112197632	60	5553
2026-01-12 00:33:09.51	7.07	12.63	-44.5	-48.0	16.2	0.00e+00	0	43	0	117440512	60	5453
2026-01-12 00:33:12.79	6.86	12.93	-44.4	-47.9	16.4	0.00e+00	0	43	0	123731968	60	5353
2026-01-12 00:33:15.52	6.68	13.18	-44.5	-47.8	16.4	0.00e+00	0	43	0	128974848	60	5338
2026-01-12 00:33:18.80	6.46	13.49	-44.4	-47.7	16.6	0.00e+00	0	43	0	135266304	60	5238
2026-01-12 00:33:21.51	6.27	13.74	-44.5	-47.8	16.5	0.00e+00	0	43	0	140509184	60	5291
2026-01-12 00:33:24.80	6.05	14.06	-44.7	-48.1	16.2	0.00e+00	0	43	0	146800640	60	5477
2026-01-12 00:33:27.60	5.85	14.33	-44.8	-48.3	16.0	0.00e+00	0	43	0	152043520	60	5614
2026-01-12 00:33:30.73	5.62	14.63	-44.8	-48.3	16.0	0.00e+00	0	43	0	157286400	60	5631
2026-01-12 00:33:33.57	5.41	14.91	-44.8	-48.3	16.0	0.00e+00	0	43	0	162529280	60	5609
2026-01-12 00:33:36.69	5.17	15.22	-44.9	-48.2	16.1	0.00e+00	0	43	0	168820736	60	5583
2026-01-12 00:33:39.65	4.95	15.52	-44.9	-48.2	16.1	0.00e+00	0	43	0	174063616	61	5250
2026-01-12 00:33:43.12	4.67	15.88	-45.0	-48.2	16.2	0.00e+00	0	43	0	180355072	61	5221
2026-01-12 00:33:45.85	4.45	16.16	-45.1	-48.2	16.1	0.00e+00	0	43	0	185597952	61	5256
2026-01-12 00:33:49.12	4.18	16.50	-44.9	-48.0	16.4	0.00e+00	0	43	0	191889408	61	5112
2026-01-12 00:33:51.84	3.95	16.78	-45.1	-48.2	16.1	0.00e+00	0	43	0	197132288	61	5263
2026-01-12 00:33:55.11	3.67	17.13	-45.3	-48.3	16.0	0.00e+00	0	43	0	203423744	61	5338
2026-01-12 00:33:57.93	3.42	17.44	-45.3	-48.4	16.0	0.00e+00	0	43	0	208666624	61	5374
2026-01-12 00:34:01.06	3.14	17.78	-45.4	-48.6	15.9	0.00e+00	0	43	0	213909504	61	5468
2026-01-12 00:34:03.90	2.88	18.09	-45.3	-48.4	16.0	0.00e+00	0	43	0	220200960	61	5359
2026-01-12 00:34:07.03	2.58	18.44	-45.2	-48.3	16.1	0.00e+00	0	43	0	225443840	61	5288
2026-01-12 00:34:09.87	2.31	18.76	-45.4	-48.5	15.9	0.00e+00	0	43	0	230686720	61	5433
2026-01-12 00:34:13.00	2.00	19.12	-45.3	-48.4	16.0	0.00e+00	0	43	0	236978176	61	5358
2026-01-12 00:34:15.84	1.71	19.44	-45.3	-48.3	16.1	0.00e+00	0	43	0	242221056	61	5337
2026-01-12 00:34:18.96	1.39	19.81	-45.5	-48.6	15.8	0.00e+00	0	43	0	248512512	61	5503
2026-01-12 00:34:21.80	1.09	20.14	-45.5	-48.6	15.8	0.00e+00	0	43	0	253755392	61	5516
2026-01-12 00:34:24.95	0.74	20.52	-45.7	-48.9	15.6	0.00e+00	0	43	0	258998272	62	5361
2026-01-12 00:34:27.79	0.43	20.86	-45.9	-49.3	15.2	0.00e+00	0	43	0	264241152	62	5597
2026-01-12 00:34:30.92	0.07	21.24	-45.8	-49.2	15.3	0.00e+00	0	43	0	270532608	62	5569
2026-01-12 00:34:33.77	359.74	21.60	-45.7	-49.2	15.3	0.00e+00	0	43	0	275775488	62	5564
2026-01-12 00:34:37.00	359.35	22.00	-45.5	-48.7	15.7	0.00e+00	0	43	0	282066944	62	5254
2026-01-12 00:34:39.85	359.00	22.36	-45.6	-48.8	15.6	0.00e+00	0	43	0	287309824	62	5331
2026-01-12 00:34:42.97	358.61	22.76	-45.9	-49.2	15.3	0.00e+00	0	43	0	292552704	62	5581
2026-01-12 00:34:45.81	358.24	23.13	-46.1	-49.6	14.9	0.00e+00	0	43	0	297795584	63	5526
2026-01-12 00:34:48.94	357.83	23.53	-46.3	-50.1	14.5	1.50e-06	0	43	0	304087040	63	5830
2026-01-12 00:34:51.78	357.44	23.91	-46.1	-49.9	14.7	7.00e-07	0	44	0	309329920	63	5685
2026-01-12 00:34:55.08	356.98	24.35	-46.1	-50.0	14.6	7.00e-07	0	43	0	315621376	63	5770
2026-01-12 00:34:57.80	356.59	24.72	-46.0	-50.0	14.5	1.50e-06	0	43	0	320864256	63	5766
2026-01-12 00:35:01.08	356.11	25.17	-46.1	-50.0	14.5	7.00e-07	0	43	0	327155712	63	5765
2026-01-12 00:35:03.80	355.70	25.55	-46.0	-49.7	14.8	1.50e-06	0	43	0	332398592	63	5568
2026-01-12 00:35:07.15	355.18	26.01	-45.8	-49.1	15.4	0.00e+00	0	43	0	338690048	63	5191
2026-01-12 00:35:09.95	354.73	26.41	-45.4	-48.5	16.0	0.00e+00	0	43	0	343932928	62	5158
2026-01-12 00:35:13.22	354.19	26.88	-45.6	-48.9	15.6	0.00e+00	0	43	0	350224384	62	5379
2026-01-12 00:35:15.94	353.74	27.27	-45.8	-49.2	15.4	0.00e+00	0	43	0	354418688	62	5531
2026-01-12 00:35:19.25	353.16	27.75	-46.0	-49.3	15.2	0.00e+00	0	43	0	360710144	62	5652
2026-01-12 00:35:22.25	352.62	28.19	-45.9	-49.2	15.4	0.00e+00	0	43	0	367001600	62	5533
2026-01-12 00:35:25.09	352.10	28.62	-45.9	-49.1	15.5	0.00e+00	0	43	0	372244480	63	5205
2026-01-12 00:35:28.22	351.51	29.09	-46.3	-49.7	14.9	0.00e+00	0	43	0	377487360	63	5578
2026-01-12 00:35:31.06	350.96	29.52	-46.1	-49.5	15.2	0.00e+00	0	43	0	382730240	63	5412
2026-01-12 00:35:34.26	350.32	30.01	-46.1	-49.5	15.1	0.00e+00	0	43	0	389021696	63	5451
2026-01-12 00:35:37.17	349.72	30.45	-46.2	-49.6	15.0	0.00e+00	0	43	0	394264576	63	5481
2026-01-12 00:35:40.15	349.09	30.92	-46.5	-49.9	14.7	0.00e+00	0	43	0	400556032	63	5684
2026-01-12 00:35:43.76	348.29	31.48	-46.6	-50.2	14.3	1.50e-06	0	43	0	406847488	64	5560
2026-01-12 00:35:46.62	347.65	31.93	-46.7	-50.6	14.0	0.00e+00	0	43	0	412090368	64	5854
2026-01-12 00:35:49.92	346.88	32.45	-46.5	-50.2	14.3	7.00e-07	0	43	0	418381824	64	5559
2026-01-12 00:35:52.62	346.23	32.88	-46.4	-50.0	14.5	7.00e-07	0	43	0	423624704	64	5457
2026-01-12 00:35:56.13	345.36	33.45	-46.9	-50.9	13.8	3.00e-06	0	43	0	429916160	64	6001
2026-01-12 00:35:58.89	344.65	33.89	-46.8	-50.7	13.9	5.30e-06	0	43	0	435159040	64	5859
2026-01-12 00:36:02.23	343.77	34.43	-46.4	-50.0	14.4	7.00e-07	0	43	0	441450496	64	5453
2026-01-12 00:36:04.94	343.04	34.87	-46.2	-49.7	14.8	7.00e-07	0	43	0	446693376	64	5248
2026-01-12 00:36:08.22	342.12	35.40	-47.3	-51.9	12.6	2.13e-05	0	43	0	452984832	65	6402
2026-01-12 00:36:11.10	341.29	35.87	-47.9	-52.9	11.7	7.04e-04	0	44	0	458227712	66	6781
2026-01-12 00:36:14.22	340.36	36.37	-47.4	-51.8	12.8	6.33e-05	0	44	0	464519168	66	5952
2026-01-12 00:36:17.06	339.49	36.83	-46.3	-49.7	14.8	7.00e-07	0	43	0	469762048	64	5256
2026-01-12 00:36:20.19	338.50	37.33	-46.1	-49.3	15.4	0.00e+00	0	43	0	475004928	63	5281
2026-01-12 00:36:23.03	337.57	37.79	-46.6	-50.2	14.4	7.00e-07	0	43	0	480247808	64	5575
2026-01-12 00:36:26.16	336.52	38.29	-47.1	-51.2	13.4	6.10e-06	0	44	0	486539264	64	6216
2026-01-12 00:36:29.34	335.42	38.79	-47.4	-51.6	13.0	3.43e-05	0	43	0	492830720	65	6147
2026-01-12 00:36:32.19	334.41	39.24	-47.5	-51.9	12.6	4.88e-05	0	43	0	498073600	65	6388
2026-01-12 00:36:35.31	333.26	39.72	-45.9	-49.1	15.4	0.00e+00	0	43	0	503316480	63	5197
2026-01-12 00:36:38.15	332.19	40.15	-47.1	-51.6	12.9	1.83e-05	0	43	0	508559360	64	6528
2026-01-12 00:36:41.39	330.94	40.64	-46.5	-50.6	14.0	1.52e-05	0	43	0	514850816	65	5494
2026-01-12 00:36:44.31	329.77	41.07	-45.9	-49.1	15.5	0.00e+00	0	43	0	520093696	63	5188
2026-01-12 00:36:47.60	328.42	41.55	-46.4	-49.8	14.7	0.00e+00	0	44	0	526385152	63	5636
2026-01-12 00:36:50.31	327.27	41.93	-46.7	-50.4	14.2	0.00e+00	0	43	0	531628032	64	5685
2026-01-12 00:36:53.58	325.86	42.38	-45.7	-48.8	15.8	0.00e+00	0	44	0	537919488	63	5039
2026-01-12 00:36:56.38	324.61	42.75	-45.1	-48.0	16.5	0.00e+00	0	44	0	543162368	61	5110
2026-01-12 00:36:59.64	323.13	43.17	-46.7	-50.5	14.0	2.20e-06	0	43	0	549453824	64	5780
2026-01-12 00:37:02.63	321.73	43.53	-46.1	-49.5	15.1	0.00e+00	0	43	0	554696704	63	5425
2026-01-12 00:37:05.61	320.31	43.88	-44.6	-47.4	17.1	0.00e+00	0	43	0	559939584	61	4801
2026-01-12 00:37:08.59	318.85	44.22	-44.6	-47.3	17.2	0.00e+00	0	43	0	566231040	60	5026
2026-01-12 00:37:11.57	317.37	44.53	-45.5	-48.5	16.2	0.00e+00	0	43	0	571473920	61	5438
2026-01-12 00:37:14.56	315.85	44.83	-46.6	-50.3	14.4	1.50e-06	0	44	0	576716800	63	5948
2026-01-12 00:37:17.55	314.30	45.10	-47.5	-51.9	12.6	5.18e-05	0	43	0	583008256	66	6058
2026-01-12 00:37:20.55	312.73	45.36	-46.9	-51.0	13.5	3.89e-05	0	43	0	588251136	65	5746
2026-01-12 00:37:23.53	311.13	45.59	-45.1	-48.0	16.6	0.00e+00	0	43	0	594542592	62	4836
2026-01-12 00:37:26.51	309.52	45.79	-46.2	-49.7	14.9	0.00e+00	0	43	0	599785472	63	5568
2026-01-12 00:37:29.50	307.88	45.97	-46.7	-50.4	14.2	7.00e-07	0	44	0	605028352	64	5721
2026-01-12 00:37:32.48	306.23	46.13	-47.5	-51.9	12.7	1.20e-04	0	44	0	611319808	66	6014
2026-01-12 00:37:35.55	304.51	46.26	-46.5	-50.0	14.7	0.00e+00	0	44	0	616562688	64	5408
2026-01-12 00:37:38.39	302.91	46.36	-46.7	-50.6	14.0	5.30e-06	0	43	0	621805568	64	5815
2026-01-12 00:37:41.52	301.13	46.44	-47.4	-51.7	12.9	3.89e-05	0	43	0	628097024	65	6209
2026-01-12 00:37:44.36	299.52	46.49	-47.1	-51.2	13.4	2.82e-05	0	44	0	633339904	65	5858
2026-01-12 00:37:47.49	297.73	46.51	-46.7	-50.4	14.1	0.00e+00	0	43	0	638582784	64	5690
2026-01-12 00:37:50.80	295.84	46.50	-46.5	-49.9	14.3	1.50e-06	0	43	0	644874240	65	5098
2026-01-12 00:37:53.88	294.09	46.46	-46.0	-49.3	15.2	0.00e+00	0	43	0	651165696	64	5012
2026-01-12 00:37:56.72	292.47	46.40	-45.8	-48.9	15.8	0.00e+00	0	44	0	656408576	62	5343
2026-01-12 00:37:59.86	290.70	46.30	-46.6	-50.2	14.3	7.00e-07	0	43	0	662700032	64	5586
2026-01-12 00:38:02.75	289.07	46.18	-45.9	-48.9	15.7	0.00e+00	0	44	0	667942912	63	5098
2026-01-12 00:38:06.26	287.12	46.01	-46.3	-49.6	14.9	0.00e+00	0	44	0	674234368	63	5525
2026-01-12 00:38:08.98	285.62	45.85	-46.5	-51.0	13.4	6.10e-06	0	43	0	679477248	64	6131
2026-01-12 00:38:12.26	283.84	45.63	-45.8	-48.8	15.8	0.00e+00	0	43	0	685768704	63	5026
2026-01-12 00:38:14.96	282.39	45.42	-46.6	-50.1	14.4	0.00e+00	0	43	0	689963008	64	5490
2026-01-12 00:38:18.23	280.66	45.15	-46.0	-49.1	15.6	0.00e+00	0	43	0	696254464	63	5164
2026-01-12 00:38:21.29	279.07	44.87	-45.7	-48.8	15.8	0.00e+00	0	44	0	702545920	63	5017
2026-01-12 00:38:24.39	277.49	44.57	-46.5	-50.0	14.7	7.00e-07	0	43	0	707788800	63	5756
2026-01-12 00:38:27.23	276.07	44.27	-46.1	-49.5	15.0	7.00e-07	0	43	0	713031680	64	5101
2026-01-12 00:38:30.36	274.53	43.92	-46.6	-50.1	14.4	3.00e-06	0	44	0	719323136	64	5512
2026-01-12 00:38:33.20	273.17	43.59	-45.0	-47.8	16.7	0.00e+00	0	43	0	724566016	62	4741
2026-01-12 00:38:36.33	271.70	43.21	-46.1	-49.5	15.1	0.00e+00	0	43	0	730857472	62	5745
2026-01-12 00:38:39.17	270.40	42.85	-45.0	-47.7	16.8	0.00e+00	0	43	0	736100352	61	4969
2026-01-12 00:38:42.29	269.00	42.44	-45.1	-48.0	16.6	0.00e+00	0	44	0	741343232	61	5114
2026-01-12 00:38:45.40	267.64	42.01	-44.2	-46.7	17.7	0.00e+00	0	43	0	747634688	60	4682
2026-01-12 00:38:48.68	266.25	41.55	-43.0	-45.3	18.9	0.00e+00	0	43	0	753926144	58	4453
2026-01-12 00:38:51.49	265.09	41.14	-42.8	-45.0	19.1	0.00e+00	0	44	0	759169024	57	4582
2026-01-12 00:38:54.62	263.83	40.68	-43.7	-46.2	18.1	0.00e+00	0	44	0	764411904	59	4661
2026-01-12 00:38:57.71	262.62	40.22	-44.1	-46.6	17.8	0.00e+00	0	43	0	770703360	58	5174
2026-01-12 00:39:00.84	261.44	39.74	-44.7	-47.4	16.9	0.00e+00	0	43	0	775946240	60	5097
2026-01-12 00:39:03.82	260.34	39.27	-44.8	-47.6	16.8	0.00e+00	0	43	0	782237696	61	4912
2026-01-12 00:39:06.81	259.27	38.80	-45.2	-48.0	16.4	0.00e+00	0	44	0	787480576	61	5159
2026-01-12 00:39:09.84	258.21	38.32	-45.0	-47.9	16.6	0.00e+00	0	44	0	793772032	61	5080
2026-01-12 00:39:12.81	257.21	37.85	-45.2	-48.1	16.4	0.00e+00	0	44	0	799014912	62	4909
2026-01-12 00:39:15.97	256.17	37.34	-45.2	-48.1	16.4	0.00e+00	0	44	0	805306368	61	5206
2026-01-12 00:39:18.81	255.27	36.88	-44.5	-47.1	17.3	0.00e+00	0	44	0	810549248	60	4881
2026-01-12 00:39:21.94	254.30	36.37	-45.2	-48.0	16.5	0.00e+00	0	44	0	815792128	61	5123
2026-01-12 00:39:24.78	253.45	35.91	-46.6	-50.0	14.6	7.00e-07	0	44	0	821035008	63	5751
2026-01-12 00:39:27.92	252.54	35.40	-45.7	-48.7	15.8	0.00e+00	0	44	0	827326464	63	4968
2026-01-12 00:39:30.77	251.74	34.94	-46.6	-50.1	14.3	1.50e-06	0	44	0	832569344	64	5514
2026-01-12 00:39:34.10	250.82	34.40	-47.2	-51.3	13.3	4.50e-06	0	44	0	838860800	65	5934
2026-01-12 00:39:36.83	250.10	33.96	-47.9	-52.7	11.8	1.25e-03	0	44	0	844103680	67	6220
2026-01-12 00:39:40.12	249.25	33.42	-47.7	-52.1	12.5	4.57e-05	0	43	0	850395136	66	6137
2026-01-12 00:39:42.96	248.54	32.97	-48.8	-54.3	10.5	7.06e-03	0	43	0	855638016	68	7061
2026-01-12 00:39:46.33	247.73	32.43	-48.0	-52.8	11.6	2.72e-04	0	43	0	861929472	67	6300
2026-01-12 00:39:49.31	247.03	31.95	-47.1	-51.0	13.5	2.51e-05	0	44	0	867172352	66	5404
2026-01-12 00:39:52.30	246.35	31.48	-47.2	-51.1	13.4	4.50e-06	0	43	0	872415232	65	5789
2026-01-12 00:39:55.28	245.69	31.01	-46.4	-49.9	14.6	1.50e-06	0	43	0	878706688	64	5363
2026-01-12 00:39:58.29	245.04	30.54	-46.6	-50.3	14.2	0.00e+00	0	44	0	883949568	64	5599
2026-01-12 00:40:01.24	244.42	30.08	-46.9	-50.8	13.7	1.22e-05	0	44	0	889192448	65	5608
2026-01-12 00:40:04.52	243.76	29.58	-46.2	-49.6	14.9	7.00e-07	0	43	0	895483904	64	5187
2026-01-12 00:40:07.44	243.19	29.13	-46.7	-50.4	14.1	7.00e-07	0	43	0	901775360	64	5676
2026-01-12 00:40:10.98	242.51	28.60	-46.4	-49.9	14.5	0.00e+00	0	44	0	908066816	64	5389
2026-01-12 00:40:13.73	242.00	28.19	-46.5	-50.1	14.4	7.00e-07	0	44	0	913309696	64	5472
2026-01-12 00:40:17.01	241.41	27.70	-46.3	-49.7	14.7	7.00e-07	0	44	0	919601152	64	5240
2026-01-12 00:40:19.73	240.93	27.31	-46.1	-49.4	15.0	0.00e+00	0	44	0	924844032	64	5088
2026-01-12 00:40:23.01	240.38	26.83	-45.9	-49.1	15.4	0.00e+00	0	44	0	930086912	63	5182
2026-01-12 00:40:25.71	239.93	26.44	-46.5	-50.0	14.5	7.00e-07	0	44	0	935329792	63	5780
2026-01-12 00:40:29.00	239.40	25.97	-46.8	-50.5	13.9	1.50e-06	0	43	0	941621248	64	5772
2026-01-12 00:40:31.73	238.97	25.59	-46.2	-49.5	14.9	0.00e+00	0	44	0	946864128	64	5138
2026-01-12 00:40:35.14	238.45	25.12	-45.4	-48.4	16.0	0.00e+00	0	44	0	953155584	62	5083
2026-01-12 00:40:38.16	238.00	24.70	-45.7	-48.8	15.7	0.00e+00	0	44	0	958398464	62	5313
2026-01-12 00:40:41.46	237.53	24.25	-46.4	-49.8	14.7	0.00e+00	0	43	0	964689920	63	5624
2026-01-12 00:40:44.19	237.14	23.88	-46.3	-49.7	14.8	0.00e+00	0	44	0	969932800	63	5540
2026-01-12 00:40:47.47	236.69	23.45	-46.9	-50.8	13.6	4.50e-06	0	43	0	976224256	64	5977
2026-01-12 00:40:50.19	236.33	23.09	-47.3	-51.5	13.1	1.98e-05	0	44	0	981467136	65	6112
2026-01-12 00:40:53.63	235.88	22.65	-46.5	-50.2	14.3	7.00e-07	0	43	0	987758592	64	5529
2026-01-12 00:40:56.66	235.50	22.26	-46.0	-49.4	15.1	7.00e-07	0	44	0	994050048	63	5362
2026-01-12 00:40:59.94	235.10	21.84	-45.5	-48.6	15.8	0.00e+00	0	43	0	999292928	63	4912
2026-01-12 00:41:02.78	234.76	21.49	-45.4	-48.4	16.0	0.00e+00	0	44	0	1005584384	62	5054
2026-01-12 00:41:05.91	234.39	21.10	-45.6	-48.8	15.7	0.00e+00	0	43	0	1010827264	62	5284
2026-01-12 00:41:08.75	234.06	20.75	-46.0	-49.3	15.2	0.00e+00	0	43	0	1016070144	62	5626
2026-01-12 00:41:11.88	233.71	20.37	-45.9	-49.2	15.3	0.00e+00	0	43	0	1022361600	63	5222
2026-01-12 00:41:14.72	233.41	20.03	-45.5	-48.5	15.9	0.00e+00	0	44	0	1027604480	62	5145
2026-01-12 00:41:18.01	233.06	19.64	-45.5	-48.5	15.9	0.00e+00	0	44	0	1033895936	62	5110
2026-01-12 00:41:20.71	232.77	19.33	-46.0	-49.2	15.2	0.00e+00	0	43	0	1039138816	62	5584
2026-01-12 00:41:23.99	232.44	18.95	-46.5	-50.0	14.4	0.00e+00	0	44	0	1044381696	63	5751
2026-01-12 00:41:26.71	232.17	18.64	-46.6	-50.3	14.0	3.80e-06	0	44	0	1049624576	64	5620
2026-01-12 00:41:30.23	231.83	18.24	-46.6	-50.3	13.8	3.00e-06	0	44	0	1056964608	64	5637
2026-01-12 00:41:33.31	231.54	17.90	-46.5	-50.2	14.1	4.50e-06	0	44	0	1062207488	64	5565
2026-01-12 00:41:36.42	231.25	17.56	-46.4	-50.0	14.3	0.00e+00	0	44	0	1068498944	64	5423
2026-01-12 00:41:39.26	231.00	17.25	-46.1	-49.5	14.9	0.00e+00	0	44	0	1073741824	63	5440
2026-01-12 00:41:42.39	230.72	16.91	-45.8	-49.0	15.3	0.00e+00	0	43	0	1078984704	63	5155
2026-01-12 00:41:45.23	230.47	16.61	-46.0	-49.3	15.0	0.00e+00	0	43	0	1084227584	63	5314
2026-01-12 00:41:48.53	230.19	16.26	-46.3	-49.8	14.5	0.00e+00	0	43	0	1090519040	63	5649
2026-01-12 00:41:51.28	229.97	15.97	-46.3	-49.9	14.5	7.00e-07	0	44	0	1095761920	63	5666
2026-01-12 00:41:54.56	229.70	15.64	-45.9	-49.2	15.2	0.00e+00	0	43	0	1102053376	63	5226
2026-01-12 00:41:57.29	229.48	15.36	-45.8	-49.1	15.2	0.00e+00	0	43	0	1107296256	63	5187
2026-01-12 00:42:00.66	229.22	15.02	-46.0	-49.4	14.9	7.00e-07	0	43	0	1113587712	63	5348
2026-01-12 00:42:03.72	228.99	14.71	-46.4	-50.0	14.3	7.00e-07	0	44	0	1119879168	63	5773
2026-01-12 00:42:06.84	228.76	14.41	-46.8	-50.8	13.4	1.29e-05	0	43	0	1125122048	64	5957
2026-01-12 00:42:09.68	228.55	14.13	-47.1	-51.4	12.9	4.11e-05	0	43	0	1130364928	64	6368
2026-01-12 00:42:12.81	228.33	13.83	-47.2	-51.5	12.6	7.93e-05	0	44	0	1136656384	65	6087
2026-01-12 00:42:15.65	228.13	13.56	-47.1	-51.4	12.8	5.87e-05	0	43	0	1141899264	65	6012
2026-01-12 00:42:19.00	227.90	13.24	-46.8	-50.8	13.4	2.51e-05	0	43	0	1148190720	65	5646
2026-01-12 00:42:21.73	227.72	12.99	-46.6	-50.3	13.8	3.80e-06	0	43	0	1153433600	65	5327
2026-01-12 00:42:25.01	227.50	12.68	-46.5	-50.2	13.9	3.80e-06	0	43	0	1159725056	64	5573
2026-01-12 00:42:27.74	227.32	12.43	-46.6	-50.4	13.8	7.00e-07	0	43	0	1163919360	64	5703
2026-01-12 00:42:31.01	227.12	12.14	-46.5	-50.3	13.9	3.80e-06	0	43	0	1170210816	64	5615
2026-01-12 00:42:33.84	226.94	11.88	-46.5	-50.2	13.9	0.00e+00	0	44	0	1175453696	64	5566
2026-01-12 00:42:37.06	226.74	11.60	-46.5	-50.2	13.9	1.50e-06	0	43	0	1181745152	64	5573
2026-01-12 00:42:40.18	226.56	11.32	-46.7	-50.6	13.5	7.60e-06	0	43	0	1188036608	64	5844
2026-01-12 00:42:43.02	226.39	11.07	-46.6	-50.4	13.7	5.30e-06	0	43	0	1193279488	64	5689
2026-01-12 00:42:46.15	226.21	10.80	-46.7	-50.6	13.5	1.14e-05	0	43	0	1198522368	64	5842
2026-01-12 00:42:48.99	226.05	10.56	-46.7	-50.6	13.5	9.90e-06	0	43	0	1203765248	64	5814
2026-01-12 00:42:52.12	225.87	10.30	-46.7	-50.7	13.4	1.67e-05	0	44	0	1210056704	64	5858
2026-01-12 00:42:55.50	225.69	10.01	-46.7	-50.8	13.2	2.28e-05	0	44	0	1216348160	64	5950
2026-01-12 00:42:58.42	225.53	9.77	-46.6	-50.7	13.3	2.21e-05	0	43	0	1221591040	64	5893
2026-01-12 00:43:01.72	225.36	9.50	-46.7	-50.9	13.1	2.67e-05	0	44	0	1227882496	64	6017
2026-01-12 00:43:04.51	225.22	9.27	-46.7	-50.9	13.0	2.97e-05	0	43	0	1233125376	64	6038
2026-01-12 00:43:07.72	225.05	9.01	-49.2	-56.5	8.4	1.06e-04	0	44	0	1239416832	68	9087
2026-01-12 00:43:10.56	224.91	8.79	-50.7	-65.8	3.8	1.49e+00	0	43	104	1239416832	72	21127
2026-01-12 00:43:13.68	224.76	8.54	-50.9	-66.0	3.8	1.49e+00	0	44	104	1239416832	72	21585
2026-01-12 00:43:16.52	224.62	8.31	-50.9	-66.1	3.8	1.49e+00	0	44	104	1239416832	72	21841
2026-01-12 00:43:19.65	224.47	8.07	-50.8	-66.0	3.8	1.49e+00	0	44	104	1239416832	72	21668
2026-01-12 00:43:22.49	224.34	7.85	-50.7	-66.0	3.8	1.49e+00	0	44	104	1239416832	72	21724
2026-01-12 00:43:25.61	224.20	7.61	-50.7	-66.0	3.8	1.49e+00	0	44	104	1239416832	72	21565
2026-01-12 00:43:28.45	224.07	7.40	-50.7	-66.0	3.8	1.49e+00	0	44	104	1239416832	72	21546
2026-01-12 00:43:31.60	223.93	7.16	-50.6	-66.0	3.8	1.49e+00	0	44	104	1239416832	72	21553
2026-01-12 00:43:34.44	223.81	6.95	-50.6	-66.0	3.8	1.49e+00	0	44	104	1239416832	72	21552
2026-01-12 00:43:37.57	223.67	6.71	-50.6	-66.0	3.8	1.49e+00	0	44	104	1239416832	72	21525
2026-01-12 00:43:40.40	223.55	6.51	-50.6	-65.9	3.8	1.49e+00	0	44	104	1239416832	72	21503
2026-01-12 00:43:43.53	223.42	6.28	-50.6	-65.9	3.8	1.49e+00	0	43	104	1239416832	72	21362
2026-01-12 00:43:46.36	223.31	6.07	-50.6	-66.0	3.8	1.49e+00	0	44	104	1239416832	72	21507
2026-01-12 00:43:49.48	223.18	5.85	-50.6	-65.9	3.8	1.49e+00	0	44	104	1239416832	72	21420
2026-01-12 00:43:52.32	223.07	5.64	-50.6	-65.9	3.8	1.49e+00	0	44	104	1239416832	72	21397
2026-01-12 00:43:55.44	222.95	5.42	-50.6	-65.9	3.8	1.49e+00	0	43	104	1239416832	72	21449
2026-01-12 00:43:58.28	222.84	5.22	-50.6	-65.9	3.8	1.49e+00	0	44	104	1239416832	72	21441
2026-01-12 00:44:01.40	222.72	5.01	-50.6	-65.9	3.8	1.49e+00	0	44	104	1239416832	72	21481

#Closed at: 2026-01-12 00:44:03
#Recorded file [1239 MB]: D:/Data/31040_260112_033133.dat