passes_logs/2026/01/12/T1/T1__20260112_234302_NOAA_21_JPSS-2_rec.log

#Pass ID: 20260112_234302_NOAA 21 (JPSS-2)
#Satellite: NOAA 21 (JPSS-2)
#Configuration: NOAA 21
#almurnet v.1.7.20251203
#Start time: 2026-01-12 23:43:03

#Version: 2.0.20230620
#Station: T1
#Location: 37.570604 lon 55.790049 lat
#TLE: 1 54234U 22150A   26012.26378519  .00000063  00000+0  50547-4 0  9993
#TLE: 2 54234  98.7495 313.1967 0000726 309.1075  51.0036 14.19534275164425

#Time	Az	El	Level	Level2	SNR	BER	BlckErr	Temp	State	Recorded	gain1	gain2
2026-01-12 23:43:03.91	16.12	5.13	-48.5	-63.0	3.8	1.49e+00	0	41	0	0	68	19292
2026-01-12 23:43:06.89	16.13	5.34	-48.3	-62.7	3.8	1.49e+00	0	42	104	0	67	19821
2026-01-12 23:43:09.87	16.14	5.56	-48.3	-62.3	3.8	1.49e+00	0	41	104	0	67	18905
2026-01-12 23:43:12.85	16.14	5.78	-48.3	-62.1	3.8	1.49e+00	0	42	104	0	67	18319
2026-01-12 23:43:15.82	16.15	5.99	-48.3	-62.3	3.8	1.49e+00	0	42	104	0	67	18854
2026-01-12 23:43:18.80	16.16	6.22	-48.3	-62.7	3.8	1.49e+00	0	42	104	0	67	19658
2026-01-12 23:43:21.78	16.16	6.44	-48.3	-62.9	3.8	1.49e+00	0	42	104	0	67	20147
2026-01-12 23:43:24.76	16.17	6.66	-48.3	-63.1	3.8	1.49e+00	0	42	104	0	67	20659
2026-01-12 23:43:27.74	16.17	6.89	-48.3	-63.1	3.8	1.49e+00	0	42	104	0	67	20678
2026-01-12 23:43:30.72	16.18	7.12	-48.2	-61.7	3.8	1.49e+00	0	42	104	0	67	17676
2026-01-12 23:43:33.70	16.18	7.35	-48.0	-59.0	4.0	1.29e+00	0	42	104	0	67	12896
2026-01-12 23:43:36.68	16.19	7.58	-47.5	-55.8	6.3	2.93e-01	0	43	0	0	67	8878
2026-01-12 23:43:39.66	16.20	7.82	-47.2	-54.4	7.5	1.23e-01	0	42	0	0	66	8055
2026-01-12 23:43:42.64	16.20	8.05	-47.1	-54.0	7.9	6.61e-02	0	43	0	0	66	7641
2026-01-12 23:43:45.62	16.21	8.29	-47.3	-54.5	7.4	1.09e-01	0	43	0	0	66	8134
2026-01-12 23:43:48.60	16.21	8.53	-47.3	-54.7	7.2	1.28e-01	0	43	0	0	66	8310
2026-01-12 23:43:51.58	16.22	8.78	-47.6	-56.1	6.0	3.10e-01	0	43	0	0	66	9720
2026-01-12 23:43:54.56	16.22	9.03	-48.0	-58.7	4.3	1.07e+00	0	43	104	0	66	13257
2026-01-12 23:43:57.55	16.23	9.28	-48.1	-59.6	3.9	1.49e+00	0	43	104	0	67	13828
2026-01-12 23:44:00.53	16.23	9.53	-46.3	-51.5	10.3	1.06e-01	0	43	0	0	64	6426
2026-01-12 23:44:03.51	16.23	9.78	-45.0	-48.8	13.4	2.97e-05	0	43	0	0	62	5280
2026-01-12 23:44:06.50	16.24	10.04	-44.4	-47.7	14.5	7.00e-07	0	43	0	0	60	5223
2026-01-12 23:44:09.49	16.24	10.30	-44.3	-47.5	14.7	0.00e+00	0	43	0	0	60	5113
2026-01-12 23:44:12.47	16.25	10.56	-44.2	-47.4	14.8	0.00e+00	0	43	0	0	60	5065
2026-01-12 23:44:15.46	16.25	10.83	-43.6	-46.4	15.7	0.00e+00	0	43	0	0	59	4813
2026-01-12 23:44:18.44	16.25	11.09	-43.5	-46.3	15.8	0.00e+00	0	43	0	0	58	4995
2026-01-12 23:44:21.42	16.26	11.37	-43.4	-46.2	15.9	0.00e+00	0	43	0	0	58	4970
2026-01-12 23:44:24.41	16.26	11.64	-43.4	-46.2	16.0	7.00e-07	0	43	0	0	58	4927
2026-01-12 23:44:27.44	16.26	11.92	-43.3	-46.0	16.2	0.00e+00	0	43	0	0	58	4817
2026-01-12 23:44:30.42	16.27	12.20	-43.3	-46.0	16.2	0.00e+00	0	43	0	0	58	4844
2026-01-12 23:44:33.55	16.27	12.50	-43.4	-46.0	16.2	0.00e+00	0	43	0	0	58	4854
2026-01-12 23:44:36.39	16.27	12.77	-43.5	-46.2	16.0	0.00e+00	0	43	0	0	58	4941
2026-01-12 23:44:39.51	16.27	13.08	-43.6	-46.3	15.9	0.00e+00	0	43	0	0	58	5021
2026-01-12 23:44:42.36	16.28	13.36	-43.4	-45.9	16.3	0.00e+00	0	43	0	0	58	4777
2026-01-12 23:44:45.49	16.28	13.67	-43.4	-45.9	16.3	0.00e+00	0	43	0	0	58	4765
2026-01-12 23:44:48.33	16.28	13.96	-43.5	-45.9	16.3	0.00e+00	0	43	0	0	58	4807
2026-01-12 23:44:51.62	16.28	14.30	-43.4	-45.8	16.4	0.00e+00	0	43	0	0	58	4748
2026-01-12 23:44:54.32	16.28	14.58	-43.4	-45.8	16.4	0.00e+00	0	43	0	0	58	4711
2026-01-12 23:44:57.59	16.28	14.92	-43.4	-45.7	16.5	0.00e+00	0	43	0	0	58	4696
2026-01-12 23:45:00.30	16.28	15.21	-43.4	-45.8	16.4	0.00e+00	0	43	0	0	58	4724
2026-01-12 23:45:03.62	16.28	15.57	-43.4	-45.6	16.6	0.00e+00	0	43	0	0	58	4646
2026-01-12 23:45:06.43	16.28	15.87	-43.4	-45.6	16.6	0.00e+00	0	43	0	0	58	4628
2026-01-12 23:45:09.77	16.28	16.24	-43.4	-45.7	16.6	0.00e+00	0	43	0	0	58	4659
2026-01-12 23:45:12.48	16.28	16.55	-43.5	-45.8	16.5	0.00e+00	0	43	0	0	58	4712
2026-01-12 23:45:15.75	16.28	16.92	-43.6	-45.8	16.5	0.00e+00	0	43	0	0	58	4722
2026-01-12 23:45:18.46	16.28	17.23	-43.6	-45.8	16.4	0.00e+00	0	43	0	0	58	4748
2026-01-12 23:45:21.96	16.28	17.64	-43.7	-45.9	16.4	0.00e+00	0	44	0	0	58	4792
2026-01-12 23:45:24.67	16.28	17.97	-43.6	-45.8	16.5	0.00e+00	0	43	0	0	58	4727
2026-01-12 23:45:27.95	16.28	18.36	-43.4	-45.6	16.7	0.00e+00	0	43	0	0	58	4612
2026-01-12 23:45:30.75	16.28	18.71	-43.5	-45.6	16.7	0.00e+00	0	43	0	0	58	4613
2026-01-12 23:45:34.14	16.27	19.13	-43.4	-45.5	16.7	0.00e+00	0	43	0	0	58	4596
2026-01-12 23:45:36.86	16.27	19.47	-43.4	-45.5	16.8	0.00e+00	0	44	0	0	58	4578
2026-01-12 23:45:40.23	16.27	19.91	-43.3	-45.5	16.9	0.00e+00	0	43	0	0	58	4547
2026-01-12 23:45:42.93	16.26	20.26	-43.1	-45.2	17.1	0.00e+00	0	44	0	0	58	4400
2026-01-12 23:45:46.21	16.26	20.70	-43.0	-45.1	17.1	0.00e+00	0	44	0	0	58	4375
2026-01-12 23:45:49.01	16.26	21.07	-42.9	-45.0	17.3	0.00e+00	0	43	0	0	57	4572
2026-01-12 23:45:52.36	16.25	21.53	-42.6	-44.6	17.7	0.00e+00	0	44	0	0	57	4370
2026-01-12 23:45:55.20	16.24	21.93	-42.5	-44.5	17.7	0.00e+00	0	44	0	0	57	4336
2026-01-12 23:45:58.33	16.24	22.37	-42.3	-44.3	18.0	0.00e+00	0	44	0	0	56	4446
2026-01-12 23:46:01.16	16.23	22.78	-42.1	-44.1	18.2	0.00e+00	0	44	0	0	56	4350
2026-01-12 23:46:04.40	16.22	23.26	-42.0	-44.0	18.3	0.00e+00	0	43	0	0	56	4300
2026-01-12 23:46:07.24	16.22	23.68	-41.8	-43.7	18.3	0.00e+00	0	44	0	0	55	4433
2026-01-12 23:46:10.49	16.21	24.17	-41.8	-43.7	18.4	0.00e+00	0	43	0	0	55	4416
2026-01-12 23:46:13.39	16.20	24.62	-42.0	-43.9	18.2	0.00e+00	0	43	0	0	55	4509
2026-01-12 23:46:16.58	16.19	25.13	-42.1	-44.0	18.1	0.00e+00	0	44	0	0	55	4550
2026-01-12 23:46:19.42	16.18	25.58	-42.2	-44.1	18.0	0.00e+00	0	43	0	0	55	4634
2026-01-12 23:46:22.55	16.17	26.09	-42.4	-44.4	17.8	0.00e+00	0	43	0	0	55	4764
2026-01-12 23:46:25.39	16.16	26.57	-42.5	-44.5	17.6	0.00e+00	0	44	0	0	55	4855
2026-01-12 23:46:28.60	16.15	27.11	-42.9	-45.0	17.3	0.00e+00	0	44	0	0	56	4828
2026-01-12 23:46:31.80	16.13	27.67	-43.2	-45.3	17.0	0.00e+00	0	43	0	0	57	4725
2026-01-12 23:46:34.64	16.12	28.17	-43.5	-45.6	16.8	0.00e+00	0	44	0	0	57	4910
2026-01-12 23:46:37.77	16.10	28.73	-43.7	-45.9	16.5	0.00e+00	0	43	0	0	58	4792
2026-01-12 23:46:40.74	16.09	29.28	-43.6	-45.8	16.6	0.00e+00	0	44	0	0	58	4732
2026-01-12 23:46:43.93	16.07	29.87	-43.6	-45.8	16.7	0.00e+00	0	43	0	0	58	4733
2026-01-12 23:46:46.80	16.06	30.42	-43.3	-45.4	17.1	0.00e+00	0	44	0	0	58	4515
2026-01-12 23:46:50.29	16.03	31.10	-42.8	-44.9	17.6	0.00e+00	0	44	0	0	57	4497
2026-01-12 23:46:53.00	16.02	31.64	-42.7	-44.7	17.8	0.00e+00	0	43	0	0	57	4392
2026-01-12 23:46:56.27	15.99	32.31	-42.7	-44.6	17.8	0.00e+00	0	43	0	0	57	4389
2026-01-12 23:46:58.99	15.97	32.88	-43.1	-45.1	17.4	0.00e+00	0	44	0	0	57	4629
2026-01-12 23:47:02.27	15.95	33.57	-43.4	-45.5	17.0	0.00e+00	0	44	0	0	57	4838
2026-01-12 23:47:04.99	15.93	34.16	-43.7	-45.9	16.6	0.00e+00	0	43	0	0	58	4774
2026-01-12 23:47:08.25	15.90	34.88	-44.2	-46.5	16.0	0.00e+00	0	44	0	0	59	4835
2026-01-12 23:47:10.97	15.87	35.50	-44.5	-46.9	15.6	0.00e+00	0	44	0	0	59	5054
2026-01-12 23:47:14.27	15.84	36.26	-45.0	-47.5	15.2	0.00e+00	0	44	0	0	60	5137
2026-01-12 23:47:16.98	15.81	36.90	-45.1	-47.6	15.0	0.00e+00	0	44	0	0	61	4922
2026-01-12 23:47:20.27	15.77	37.70	-44.8	-47.2	15.4	0.00e+00	0	44	0	0	61	4700
2026-01-12 23:47:22.97	15.74	38.36	-44.6	-46.9	15.7	0.00e+00	0	44	0	0	61	4539
2026-01-12 23:47:26.24	15.70	39.19	-44.0	-46.4	16.2	0.00e+00	0	43	0	0	60	4510
2026-01-12 23:47:28.93	15.67	39.88	-44.1	-46.4	16.1	0.00e+00	0	44	0	0	60	4506
2026-01-12 23:47:32.31	15.62	40.77	-44.4	-46.8	15.8	0.00e+00	0	44	0	0	60	4720
2026-01-12 23:47:35.18	15.57	41.55	-44.9	-47.4	15.2	0.00e+00	0	44	0	0	60	5059
2026-01-12 23:47:38.31	15.52	42.41	-45.2	-47.8	14.9	0.00e+00	0	44	0	0	61	5004
2026-01-12 23:47:41.16	15.48	43.22	-45.3	-47.8	14.8	0.00e+00	0	44	0	0	61	5041
2026-01-12 23:47:44.41	15.42	44.16	-45.4	-48.1	14.5	0.00e+00	0	43	0	0	61	5199
2026-01-12 23:47:47.22	15.36	44.99	-45.5	-48.2	14.4	7.00e-07	0	44	0	0	61	5246
2026-01-12 23:47:50.34	15.30	45.93	-45.8	-48.5	14.1	1.50e-06	0	43	0	0	62	5157
2026-01-12 23:47:53.18	15.23	46.81	-45.4	-48.0	14.6	0.00e+00	0	44	0	0	62	4869
2026-01-12 23:47:56.31	15.16	47.80	-44.7	-47.1	15.6	0.00e+00	0	44	0	0	61	4599
2026-01-12 23:47:59.15	15.09	48.72	-44.6	-47.0	15.7	0.00e+00	0	44	0	0	60	4828
2026-01-12 23:48:02.31	15.00	49.77	-44.4	-46.7	16.0	0.00e+00	0	44	0	0	60	4668
2026-01-12 23:48:05.15	14.91	50.73	-44.3	-46.6	16.1	0.00e+00	0	44	0	0	60	4615
2026-01-12 23:48:08.49	14.81	51.88	-44.8	-47.2	15.5	0.00e+00	0	43	0	0	60	4978
2026-01-12 23:48:11.20	14.71	52.84	-44.2	-46.5	16.2	0.00e+00	0	44	0	0	60	4556
2026-01-12 23:48:14.48	14.59	54.02	-43.7	-45.8	16.7	0.00e+00	0	44	0	0	59	4474
2026-01-12 23:48:17.19	14.48	55.03	-43.7	-45.8	16.7	0.00e+00	0	44	0	0	59	4454
2026-01-12 23:48:20.48	14.33	56.27	-43.2	-45.2	17.3	0.00e+00	0	44	0	0	58	4412
2026-01-12 23:48:23.19	14.20	57.31	-43.4	-45.5	17.0	0.00e+00	0	44	0	0	58	4589
2026-01-12 23:48:26.48	14.02	58.60	-42.7	-44.6	17.8	0.00e+00	0	44	0	0	57	4385
2026-01-12 23:48:29.18	13.87	59.68	-42.5	-44.5	18.0	0.00e+00	0	44	0	0	57	4292
2026-01-12 23:48:32.41	13.66	61.00	-42.1	-43.9	18.4	0.00e+00	0	44	0	0	56	4283
2026-01-12 23:48:35.25	13.45	62.18	-42.0	-43.8	18.5	0.00e+00	0	44	0	0	56	4230
2026-01-12 23:48:38.38	13.20	63.51	-41.3	-43.1	18.9	0.00e+00	0	44	0	0	54	4365
2026-01-12 23:48:41.22	12.95	64.73	-41.5	-43.3	18.7	0.00e+00	0	44	0	0	54	4479
2026-01-12 23:48:44.35	12.63	66.11	-41.3	-43.0	19.2	0.00e+00	0	44	0	0	54	4331
2026-01-12 23:48:47.19	12.30	67.37	-41.9	-43.7	18.5	0.00e+00	0	44	0	0	54	4701
2026-01-12 23:48:50.31	11.89	68.78	-41.2	-42.9	19.2	0.00e+00	0	43	0	0	54	4288
2026-01-12 23:48:53.16	11.46	70.09	-41.3	-43.1	19.0	0.00e+00	0	44	0	0	54	4375
2026-01-12 23:48:56.41	10.89	71.60	-41.4	-43.2	18.9	0.00e+00	0	44	0	0	54	4422
2026-01-12 23:48:59.22	10.31	72.93	-41.2	-43.0	19.2	0.00e+00	0	44	0	0	54	4315
2026-01-12 23:49:02.50	9.49	74.49	-41.2	-43.0	19.1	0.00e+00	0	44	0	0	54	4312
2026-01-12 23:49:05.45	8.58	75.91	-41.1	-42.8	19.2	0.00e+00	0	44	0	0	53	4491
2026-01-12 23:49:08.74	7.32	77.50	-41.3	-43.0	19.1	0.00e+00	0	44	0	0	53	4574
2026-01-12 23:49:11.44	6.01	78.82	-41.5	-43.3	18.9	0.00e+00	0	44	0	0	53	4711
2026-01-12 23:49:14.71	3.92	80.41	-41.8	-43.7	18.6	0.00e+00	0	44	0	0	54	4655
2026-01-12 23:49:17.71	1.26	81.87	-41.9	-43.8	18.5	0.00e+00	0	44	0	0	54	4736
2026-01-12 23:49:20.77	357.33	83.34	-41.5	-43.3	18.8	0.00e+00	0	44	0	0	54	4485
2026-01-12 23:49:23.85	351.14	84.78	-42.0	-43.9	18.1	0.00e+00	0	44	0	0	54	4793
2026-01-12 23:49:26.84	340.85	86.09	-42.0	-43.9	18.3	0.00e+00	0	44	0	0	55	4523
2026-01-12 23:49:29.82	321.81	87.15	-41.8	-43.6	18.6	0.00e+00	0	44	0	0	55	4374
2026-01-12 23:49:32.80	289.29	87.62	-41.2	-42.9	19.1	0.00e+00	0	44	0	0	54	4283
2026-01-12 23:49:35.88	255.26	87.17	-41.9	-43.8	18.4	0.00e+00	0	44	0	0	54	4727
2026-01-12 23:49:38.85	235.98	86.12	-41.5	-43.3	18.9	0.00e+00	0	44	0	0	54	4442
2026-01-12 23:49:41.98	225.16	84.76	-41.8	-43.6	18.6	0.00e+00	0	44	0	0	54	4633
2026-01-12 23:49:44.82	219.41	83.43	-41.4	-43.2	18.9	0.00e+00	0	44	0	0	54	4394
2026-01-12 23:49:47.94	215.32	81.93	-41.8	-43.7	18.6	0.00e+00	0	44	0	0	55	4393
2026-01-12 23:49:50.79	212.74	80.54	-41.4	-43.2	19.0	0.00e+00	0	44	0	0	54	4418
2026-01-12 23:49:53.92	210.67	79.01	-41.3	-43.0	19.1	0.00e+00	0	44	0	0	54	4328
2026-01-12 23:49:56.78	209.24	77.62	-41.5	-43.3	18.8	0.00e+00	0	44	0	0	54	4485
2026-01-12 23:50:00.04	207.96	76.03	-41.9	-43.7	18.4	0.00e+00	0	44	0	0	54	4701
2026-01-12 23:50:02.91	207.06	74.65	-41.5	-43.3	18.5	0.00e+00	0	44	0	0	54	4476
2026-01-12 23:50:06.04	206.26	73.15	-42.3	-44.2	18.1	0.00e+00	0	44	0	0	55	4672
2026-01-12 23:50:08.88	205.65	71.81	-41.6	-43.4	18.7	0.00e+00	0	43	0	0	55	4274
2026-01-12 23:50:12.08	205.07	70.32	-41.4	-43.2	19.0	0.00e+00	0	44	0	0	54	4396
2026-01-12 23:50:14.99	204.62	68.97	-41.8	-43.6	18.5	0.00e+00	0	43	0	0	54	4641
2026-01-12 23:50:18.12	204.20	67.55	-40.8	-42.5	19.5	0.00e+00	0	44	0	0	53	4329
2026-01-12 23:50:21.01	203.86	66.26	-42.0	-43.9	18.4	0.00e+00	0	43	0	0	54	4791
2026-01-12 23:50:24.11	203.54	64.89	-41.2	-42.9	19.0	0.00e+00	0	44	0	0	54	4270
2026-01-12 23:50:27.10	203.27	63.59	-41.8	-43.6	18.7	0.00e+00	0	44	0	0	54	4621
2026-01-12 23:50:30.08	203.03	62.33	-43.7	-45.8	16.8	0.00e+00	0	44	0	0	58	4739
2026-01-12 23:50:33.07	202.81	61.08	-42.7	-44.6	17.7	0.00e+00	0	44	0	0	57	4357
2026-01-12 23:50:36.05	202.61	59.85	-42.1	-44.0	18.3	0.00e+00	0	44	0	0	55	4550
2026-01-12 23:50:39.04	202.43	58.65	-44.2	-46.4	16.1	0.00e+00	0	43	0	0	59	4814
2026-01-12 23:50:42.02	202.27	57.47	-42.1	-44.0	18.0	0.00e+00	0	44	0	0	56	4294
2026-01-12 23:50:45.01	202.12	56.31	-43.4	-45.5	17.1	0.00e+00	0	44	0	0	57	4818
2026-01-12 23:50:48.00	201.99	55.18	-44.6	-46.9	15.5	0.00e+00	0	44	0	0	59	5099
2026-01-12 23:50:50.98	201.86	54.07	-45.1	-47.7	14.8	0.00e+00	0	44	0	0	61	4968
2026-01-12 23:50:53.96	201.75	52.99	-42.6	-44.5	17.9	0.00e+00	0	44	0	0	57	4330
2026-01-12 23:50:56.95	201.64	51.92	-44.3	-46.5	16.1	0.00e+00	0	43	0	0	59	4847
2026-01-12 23:50:59.94	201.55	50.88	-45.1	-47.7	14.7	7.00e-07	0	44	0	0	61	4951
2026-01-12 23:51:02.92	201.46	49.86	-45.6	-48.4	14.1	5.30e-06	0	44	0	0	62	5093
2026-01-12 23:51:05.91	201.37	48.87	-44.8	-47.4	15.2	0.00e+00	0	44	0	0	61	4767
2026-01-12 23:51:08.96	201.29	47.87	-44.8	-47.2	15.4	0.00e+00	0	44	0	0	60	4969
2026-01-12 23:51:11.81	201.22	46.96	-46.3	-49.4	13.3	1.44e-05	0	44	0	0	63	5354
2026-01-12 23:51:14.93	201.15	45.99	-46.3	-49.4	13.3	1.90e-05	0	44	0	0	63	5344
2026-01-12 23:51:17.85	201.09	45.10	-45.8	-48.6	14.1	2.20e-06	0	44	0	0	63	4871
2026-01-12 23:51:21.09	201.02	44.14	-46.0	-48.8	13.7	5.30e-06	0	44	0	0	63	5017
2026-01-12 23:51:23.97	200.97	43.30	-45.1	-47.6	14.9	0.00e+00	0	44	0	0	62	4638
2026-01-12 23:51:27.10	200.91	42.41	-44.2	-46.5	16.1	0.00e+00	0	44	0	0	60	4565
2026-01-12 23:51:30.02	200.86	41.59	-44.9	-47.4	15.2	0.00e+00	0	44	0	0	60	5097
2026-01-12 23:51:33.00	200.82	40.78	-46.1	-49.1	13.6	8.30e-06	0	44	0	0	62	5485
2026-01-12 23:51:35.99	200.77	39.99	-45.8	-48.7	14.0	5.30e-06	0	44	0	0	63	4930
2026-01-12 23:51:38.97	200.73	39.21	-45.3	-47.9	14.8	0.00e+00	0	44	0	0	62	4781
2026-01-12 23:51:41.96	200.69	38.45	-45.0	-47.6	15.1	0.00e+00	0	44	0	0	62	4629
2026-01-12 23:51:44.94	200.66	37.71	-44.8	-47.3	15.3	0.00e+00	0	44	0	0	61	4757
2026-01-12 23:51:47.93	200.62	36.98	-44.3	-46.6	15.9	0.00e+00	0	44	0	0	60	4650
2026-01-12 23:51:50.91	200.59	36.27	-44.1	-46.4	16.2	0.00e+00	0	44	0	0	60	4519
2026-01-12 23:51:53.93	200.56	35.57	-43.8	-46.0	16.5	0.00e+00	0	44	0	0	59	4547
2026-01-12 23:51:56.97	200.53	34.87	-43.9	-46.1	16.3	0.00e+00	0	44	0	0	59	4599
2026-01-12 23:51:59.97	200.50	34.20	-43.5	-45.6	16.8	0.00e+00	0	44	0	0	59	4379
2026-01-12 23:52:02.96	200.47	33.55	-43.4	-45.5	17.0	0.00e+00	0	43	0	0	58	4548
2026-01-12 23:52:05.94	200.45	32.91	-43.2	-45.2	17.2	0.00e+00	0	44	0	0	58	4433
2026-01-12 23:52:08.92	200.42	32.29	-43.5	-45.6	16.9	0.00e+00	0	44	0	0	58	4604
2026-01-12 23:52:11.91	200.40	31.67	-43.4	-45.4	17.0	0.00e+00	0	44	0	0	58	4530
2026-01-12 23:52:14.89	200.38	31.07	-43.6	-45.8	16.7	0.00e+00	0	44	0	0	58	4717
2026-01-12 23:52:18.04	200.36	30.45	-43.7	-45.9	16.6	0.00e+00	0	44	0	0	58	4764
2026-01-12 23:52:20.88	200.34	29.91	-43.8	-46.0	16.5	0.00e+00	0	44	0	0	58	4836
2026-01-12 23:52:24.00	200.32	29.32	-43.5	-45.7	16.7	0.00e+00	0	44	0	0	58	4659
2026-01-12 23:52:26.85	200.30	28.79	-43.3	-45.4	16.8	0.00e+00	0	44	0	0	58	4538
2026-01-12 23:52:29.97	200.29	28.22	-43.2	-45.3	16.9	0.00e+00	0	44	0	0	58	4489
2026-01-12 23:52:32.81	200.27	27.71	-43.1	-45.2	17.0	0.00e+00	0	44	0	0	58	4414
2026-01-12 23:52:35.94	200.26	27.16	-43.1	-45.1	17.2	0.00e+00	0	44	0	0	58	4381
2026-01-12 23:52:38.78	200.24	26.68	-42.9	-45.0	17.3	0.00e+00	0	44	0	0	57	4568
2026-01-12 23:52:41.91	200.23	26.15	-42.8	-44.8	17.6	0.00e+00	0	44	0	0	57	4450
2026-01-12 23:52:44.75	200.22	25.68	-42.9	-44.9	17.4	0.00e+00	0	44	0	0	57	4544
2026-01-12 23:52:48.29	200.20	25.11	-42.6	-44.6	17.8	0.00e+00	0	44	0	0	57	4352
2026-01-12 23:52:51.00	200.19	24.67	-42.5	-44.5	17.8	0.00e+00	0	44	0	0	57	4308
2026-01-12 23:52:54.29	200.18	24.16	-42.4	-44.3	18.0	0.00e+00	0	44	0	0	56	4467
2026-01-12 23:52:56.99	200.17	23.74	-42.4	-44.3	18.0	0.00e+00	0	44	0	0	56	4466
2026-01-12 23:53:00.52	200.16	23.21	-42.5	-44.4	17.9	0.00e+00	0	44	0	0	56	4534
2026-01-12 23:53:03.43	200.15	22.78	-42.4	-44.4	17.9	0.00e+00	0	44	0	0	56	4500
2026-01-12 23:53:06.84	200.14	22.29	-42.4	-44.3	17.9	0.00e+00	0	44	0	0	56	4489
2026-01-12 23:53:09.57	200.14	21.90	-42.4	-44.4	17.9	0.00e+00	0	44	0	0	56	4499
2026-01-12 23:53:12.84	200.13	21.44	-42.5	-44.4	17.9	0.00e+00	0	44	0	0	56	4541
2026-01-12 23:53:15.56	200.12	21.06	-42.5	-44.4	17.8	0.00e+00	0	44	0	0	56	4540
2026-01-12 23:53:19.11	200.11	20.58	-42.5	-44.4	17.8	0.00e+00	0	44	0	0	56	4532
2026-01-12 23:53:21.98	200.11	20.19	-42.6	-44.6	17.7	0.00e+00	0	44	0	0	56	4610
2026-01-12 23:53:25.25	200.10	19.76	-42.7	-44.8	17.5	0.00e+00	0	44	0	0	56	4721
2026-01-12 23:53:28.02	200.10	19.41	-42.8	-44.9	17.4	0.00e+00	0	44	0	0	56	4800
2026-01-12 23:53:31.29	200.09	18.99	-42.9	-45.0	17.3	0.00e+00	0	44	0	0	56	4847
2026-01-12 23:53:34.13	200.09	18.63	-43.0	-45.1	17.1	0.00e+00	0	44	0	0	56	4923
2026-01-12 23:53:37.57	200.08	18.21	-43.1	-45.4	16.9	0.00e+00	0	44	0	0	56	5043
2026-01-12 23:53:40.27	200.08	17.88	-43.3	-45.6	16.7	0.00e+00	0	44	0	0	57	4889
2026-01-12 23:53:43.54	200.07	17.49	-43.5	-45.9	16.4	0.00e+00	0	44	0	0	57	5042
2026-01-12 23:53:46.26	200.07	17.17	-43.4	-45.8	16.5	0.00e+00	0	44	0	0	57	4986
2026-01-12 23:53:49.52	200.06	16.79	-43.4	-45.7	16.5	0.00e+00	0	44	0	0	57	4973
2026-01-12 23:53:52.26	200.06	16.48	-43.5	-45.8	16.4	0.00e+00	0	44	0	0	57	5037
2026-01-12 23:53:55.83	200.06	16.07	-43.5	-45.8	16.4	0.00e+00	0	44	0	0	57	5015
2026-01-12 23:53:58.54	200.06	15.77	-43.5	-45.7	16.5	0.00e+00	0	44	0	0	57	4983
2026-01-12 23:54:01.82	200.05	15.41	-43.5	-45.7	16.4	0.00e+00	0	44	0	0	57	4983
2026-01-12 23:54:04.52	200.05	15.12	-43.6	-45.8	16.3	0.00e+00	0	44	0	0	57	5031
2026-01-12 23:54:08.03	200.05	14.74	-43.6	-45.9	16.3	0.00e+00	0	44	0	0	57	5072
2026-01-12 23:54:10.93	200.05	14.44	-43.7	-46.0	16.1	0.00e+00	0	44	0	0	58	4851
2026-01-12 23:54:14.21	200.05	14.09	-43.8	-46.1	16.0	0.00e+00	0	44	0	0	58	4883
2026-01-12 23:54:16.93	200.05	13.81	-43.8	-46.1	16.0	0.00e+00	0	44	0	0	58	4891
2026-01-12 23:54:20.21	200.04	13.48	-43.7	-46.0	16.1	0.00e+00	0	44	0	0	58	4852
2026-01-12 23:54:23.19	200.04	13.18	-43.8	-46.1	16.0	0.00e+00	0	44	0	0	58	4885
2026-01-12 23:54:26.48	200.04	12.86	-43.8	-46.1	15.9	0.00e+00	0	44	0	0	58	4921
2026-01-12 23:54:29.19	200.04	12.59	-43.9	-46.2	15.9	0.00e+00	0	44	0	0	58	4950
2026-01-12 23:54:32.47	200.04	12.28	-43.8	-46.1	16.0	0.00e+00	0	44	0	0	58	4883
2026-01-12 23:54:35.18	200.04	12.02	-43.8	-46.1	15.9	0.00e+00	0	44	0	0	58	4918
2026-01-12 23:54:38.45	200.04	11.71	-43.9	-46.3	15.7	0.00e+00	0	44	0	0	58	5007
2026-01-12 23:54:41.18	200.04	11.46	-44.0	-46.4	15.5	0.00e+00	0	44	0	0	58	5096
2026-01-12 23:54:44.45	200.04	11.15	-43.9	-46.3	15.6	0.00e+00	0	44	0	0	58	5038
2026-01-12 23:54:47.27	200.04	10.90	-44.0	-46.5	15.5	0.00e+00	0	44	0	0	58	5110
2026-01-12 23:54:50.39	200.04	10.62	-44.0	-46.5	15.5	0.00e+00	0	44	0	0	58	5118
2026-01-12 23:54:53.24	200.05	10.36	-44.2	-46.7	15.3	0.00e+00	0	44	0	0	59	4939
2026-01-12 23:54:56.37	200.05	10.09	-44.2	-46.7	15.2	0.00e+00	0	44	0	0	59	4973
2026-01-12 23:54:59.21	200.05	9.84	-44.2	-46.8	15.2	0.00e+00	0	44	0	0	59	4995
2026-01-12 23:55:02.51	200.05	9.55	-44.3	-46.9	15.0	0.00e+00	0	44	0	0	59	5086
2026-01-12 23:55:05.40	200.05	9.31	-44.4	-47.0	14.9	7.00e-07	0	44	0	0	59	5152
2026-01-12 23:55:09.17	200.05	8.99	-44.4	-47.0	14.8	0.00e+00	0	44	0	0	59	5148
2026-01-12 23:55:11.99	200.05	8.75	-50.6	-63.7	3.8	1.49e+00	0	44	104	0	71	17563
2026-01-12 23:55:15.11	200.05	8.50	-50.8	-63.9	3.8	1.49e+00	0	44	104	0	72	17031
2026-01-12 23:55:17.95	200.06	8.26	-51.0	-64.0	3.8	1.49e+00	0	44	104	0	72	17164
2026-01-12 23:55:21.07	200.06	8.01	-51.0	-64.0	3.8	1.49e+00	0	44	104	0	72	17141
2026-01-12 23:55:23.91	200.06	7.78	-51.1	-64.0	3.8	1.49e+00	0	44	104	0	72	17231
2026-01-12 23:55:27.03	200.06	7.53	-51.1	-64.0	3.8	1.49e+00	0	44	104	0	72	17278
2026-01-12 23:55:29.87	200.06	7.31	-51.0	-64.0	3.8	1.49e+00	0	44	104	0	72	17164
2026-01-12 23:55:32.99	200.07	7.07	-50.8	-63.9	3.8	1.49e+00	0	44	104	0	72	17054
2026-01-12 23:55:35.83	200.07	6.85	-50.8	-64.0	3.8	1.49e+00	0	44	104	0	72	17094
2026-01-12 23:55:38.95	200.07	6.61	-50.8	-64.0	3.8	1.49e+00	0	44	104	0	72	17113
2026-01-12 23:55:41.79	200.07	6.39	-50.8	-64.0	3.8	1.49e+00	0	44	104	0	72	17084
2026-01-12 23:55:44.91	200.08	6.16	-50.8	-64.0	3.8	1.49e+00	0	44	104	0	72	17143
2026-01-12 23:55:47.75	200.08	5.94	-50.8	-63.9	3.8	1.49e+00	0	44	104	0	72	17074
2026-01-12 23:55:50.88	200.08	5.71	-50.8	-64.0	3.8	1.49e+00	0	44	104	0	72	17094
2026-01-12 23:55:53.71	200.08	5.50	-50.8	-64.0	3.8	1.49e+00	0	44	104	0	72	17101
2026-01-12 23:55:56.84	200.09	5.28	-50.8	-64.0	3.8	1.49e+00	0	44	104	0	72	17105
2026-01-12 23:55:59.67	200.09	5.07	-50.8	-63.9	3.8	1.49e+00	0	44	104	0	72	17072

#Closed at: 2026-01-12 23:56:01
#Recorded file [0 MB]: D:/Data/31040_260113_024303.dat