passes_logs/2026/01/12/T1/T1__20260112_233121_AQUA_rec.log

#Pass ID: 20260112_233121_AQUA
#Satellite: AQUA
#Configuration: AQUA
#almurnet v.1.7.20251203
#Start time: 2026-01-12 23:31:22

#Version: 2.0.20230620
#Station: T1
#Location: 37.570604 lon 55.790049 lat
#TLE: 1 27424U 02022A   26012.29577270  .00001027  00000+0  21555-3 0  9995
#TLE: 2 27424  98.4078 338.6778 0002034  81.5885  29.6294 14.61817302260499

#Time	Az	El	Level	Level2	SNR	BER	BlckErr	Temp	State	Recorded	gain1	gain2
2026-01-12 23:31:22.73	39.83	5.04	-51.2	-71.8	3.8	7.48e-01	0	40	0	0	74	37704
2026-01-12 23:31:24.71	40.09	5.14	-51.2	-71.8	3.8	7.46e-01	0	41	104	0	73	39887
2026-01-12 23:31:26.70	40.35	5.23	-51.2	-71.8	3.8	7.46e-01	0	41	104	0	73	39822
2026-01-12 23:31:28.68	40.61	5.33	-51.2	-71.8	3.8	7.47e-01	0	41	104	0	73	39824
2026-01-12 23:31:30.67	40.87	5.43	-51.2	-71.8	3.8	7.45e-01	0	41	104	0	73	39764
2026-01-12 23:31:32.66	41.14	5.52	-51.2	-71.8	3.8	7.44e-01	0	41	104	0	73	39778
2026-01-12 23:31:34.64	41.41	5.62	-51.2	-71.8	3.8	7.47e-01	0	41	104	0	73	39676
2026-01-12 23:31:36.63	41.68	5.71	-51.2	-71.8	3.8	7.45e-01	0	41	104	0	73	39610
2026-01-12 23:31:38.62	41.95	5.81	-51.2	-71.7	3.8	7.46e-01	0	41	104	0	73	39545
2026-01-12 23:31:40.61	42.22	5.91	-51.2	-71.7	3.8	7.45e-01	0	42	104	0	73	39508
2026-01-12 23:31:42.59	42.50	6.00	-51.2	-71.7	3.8	7.45e-01	0	41	104	0	73	39543
2026-01-12 23:31:44.58	42.78	6.10	-51.2	-71.8	3.8	7.47e-01	0	42	104	0	73	39626
2026-01-12 23:31:46.57	43.05	6.19	-51.2	-71.8	3.8	7.44e-01	0	42	104	0	73	39661
2026-01-12 23:31:48.56	43.34	6.29	-51.2	-71.8	3.8	7.47e-01	0	42	104	0	73	39651
2026-01-12 23:31:50.54	43.62	6.38	-51.2	-71.8	3.8	7.45e-01	0	42	104	0	73	39738
2026-01-12 23:31:52.53	43.90	6.48	-51.2	-71.8	3.8	7.44e-01	0	42	104	0	73	39726
2026-01-12 23:31:54.52	44.19	6.57	-51.2	-71.8	3.8	7.48e-01	0	42	104	0	73	39713
2026-01-12 23:31:56.50	44.48	6.67	-51.2	-71.8	3.8	7.48e-01	0	42	104	0	73	39762
2026-01-12 23:31:58.49	44.77	6.76	-51.2	-71.7	3.8	7.47e-01	0	42	104	0	73	39583
2026-01-12 23:32:00.48	45.06	6.86	-51.2	-71.7	3.8	7.47e-01	0	42	104	0	73	39553
2026-01-12 23:32:02.46	45.36	6.95	-51.2	-71.8	3.8	7.45e-01	0	42	104	0	73	39675
2026-01-12 23:32:04.45	45.66	7.04	-51.2	-71.8	3.8	7.46e-01	0	42	104	0	73	39636
2026-01-12 23:32:06.44	45.96	7.14	-51.2	-71.7	3.8	7.44e-01	0	42	104	0	73	39211
2026-01-12 23:32:08.42	46.26	7.23	-51.2	-71.5	3.8	7.43e-01	0	42	104	0	73	38483
2026-01-12 23:32:10.41	46.56	7.32	-51.2	-71.4	3.8	7.41e-01	0	42	104	0	73	38048
2026-01-12 23:32:12.40	46.86	7.42	-51.2	-71.4	3.8	7.45e-01	0	42	104	0	73	37970
2026-01-12 23:32:14.38	47.17	7.51	-51.2	-71.5	3.8	7.49e-01	0	43	104	0	73	38328
2026-01-12 23:32:16.37	47.48	7.60	-51.2	-71.7	3.8	7.47e-01	0	42	104	0	73	39268
2026-01-12 23:32:18.36	47.79	7.69	-51.2	-71.8	3.8	7.42e-01	0	43	104	0	73	39640
2026-01-12 23:32:20.34	48.11	7.78	-51.2	-71.8	3.8	7.45e-01	0	43	104	0	73	39618
2026-01-12 23:32:22.33	48.42	7.87	-51.2	-71.8	3.8	7.43e-01	0	43	104	0	73	39621
2026-01-12 23:32:24.32	48.74	7.96	-51.1	-71.6	3.8	7.45e-01	0	43	104	0	73	38849
2026-01-12 23:32:26.31	49.06	8.06	-51.2	-71.4	3.8	7.45e-01	0	43	104	0	73	38056
2026-01-12 23:32:28.29	49.38	8.15	-51.2	-71.5	3.8	7.43e-01	0	43	104	0	73	38515
2026-01-12 23:32:30.28	49.70	8.24	-51.2	-71.5	3.8	7.44e-01	0	43	104	0	73	38650
2026-01-12 23:32:32.26	50.03	8.32	-51.2	-71.3	3.8	7.48e-01	0	43	104	0	73	37802
2026-01-12 23:32:34.25	50.36	8.41	-51.2	-71.5	3.8	7.47e-01	0	43	104	0	73	38569
2026-01-12 23:32:36.24	50.69	8.50	-51.2	-71.7	3.8	7.49e-01	0	43	104	0	73	39374
2026-01-12 23:32:38.22	51.02	8.59	-51.2	-71.3	3.8	7.46e-01	0	43	104	0	73	37384
2026-01-12 23:32:40.21	51.36	8.68	-51.2	-71.5	3.8	7.48e-01	0	43	104	0	73	38362
2026-01-12 23:32:42.20	51.69	8.77	-51.2	-71.6	3.8	7.45e-01	0	43	104	0	73	38993
2026-01-12 23:32:44.18	52.03	8.85	-51.2	-70.3	3.8	7.44e-01	0	43	104	0	73	33646
2026-01-12 23:32:46.17	52.37	8.94	-51.1	-68.6	3.8	7.42e-01	0	43	104	0	73	27431
2026-01-12 23:32:48.15	52.71	9.02	-51.2	-71.1	3.8	7.47e-01	0	43	104	0	73	36853
2026-01-12 23:32:50.36	53.10	9.12	-51.2	-66.6	4.8	7.17e-01	0	43	0	0	73	21947
2026-01-12 23:32:52.39	53.45	9.21	-51.5	-67.4	4.3	7.42e-01	0	43	104	524288	73	23889
2026-01-12 23:32:54.49	53.82	9.29	-51.1	-67.7	4.3	7.26e-01	0	43	104	1048576	73	24762
2026-01-12 23:32:56.68	54.21	9.39	-51.1	-67.5	4.5	7.28e-01	0	43	104	1048576	73	24164
2026-01-12 23:32:58.67	54.57	9.47	-51.4	-67.8	3.9	7.39e-01	0	43	104	1048576	73	25154
2026-01-12 23:33:00.67	54.93	9.55	-51.2	-66.7	4.8	7.17e-01	0	43	104	1048576	73	22191
2026-01-12 23:33:02.68	55.29	9.63	-51.7	-69.4	3.9	7.41e-01	0	43	104	1048576	74	28435
2026-01-12 23:33:04.68	55.65	9.72	-51.6	-67.5	4.5	7.24e-01	0	43	104	1048576	74	22803
2026-01-12 23:33:06.67	56.02	9.80	-51.5	-68.3	3.8	7.40e-01	0	43	104	1048576	74	25182
2026-01-12 23:33:08.66	56.38	9.88	-51.6	-71.2	3.7	7.46e-01	0	43	104	1048576	74	35115
2026-01-12 23:33:10.65	56.75	9.96	-51.7	-69.7	4.0	7.50e-01	0	43	104	1048576	74	29454
2026-01-12 23:33:12.64	57.12	10.03	-51.7	-67.1	4.6	7.19e-01	0	43	104	1048576	74	21801
2026-01-12 23:33:14.63	57.49	10.11	-51.6	-67.2	4.5	7.24e-01	0	43	104	1048576	74	22162
2026-01-12 23:33:16.62	57.86	10.19	-51.7	-68.1	4.2	7.38e-01	0	43	104	1048576	74	24666
2026-01-12 23:33:18.61	58.24	10.26	-51.7	-66.6	4.6	7.14e-01	0	43	104	1048576	74	20546
2026-01-12 23:33:20.74	58.65	10.35	-51.8	-68.3	4.0	7.40e-01	0	43	104	1048576	74	25147
2026-01-12 23:33:22.98	59.07	10.43	-51.6	-67.1	4.7	7.21e-01	0	43	104	1048576	74	21958
2026-01-12 23:33:24.97	59.46	10.50	-51.5	-67.3	4.5	7.27e-01	0	43	104	1048576	74	22347
2026-01-12 23:33:26.98	59.85	10.58	-51.5	-68.0	4.0	7.40e-01	0	43	104	1048576	74	24171
2026-01-12 23:33:29.25	60.29	10.66	-50.3	-57.8	13.4	6.05e-01	0	43	0	2621440	71	8904
2026-01-12 23:33:31.26	60.68	10.73	-50.9	-64.5	6.1	6.83e-01	0	43	0	4718592	73	17151
2026-01-12 23:33:33.28	61.08	10.80	-50.8	-64.0	6.4	6.76e-01	0	43	0	8388608	73	16247
2026-01-12 23:33:35.27	61.47	10.87	-51.6	-67.9	4.4	7.45e-01	0	43	104	11010048	73	25487
2026-01-12 23:33:37.26	61.87	10.94	-51.4	-63.5	6.9	6.64e-01	0	43	0	11534336	74	14528
2026-01-12 23:33:39.27	62.27	11.01	-49.6	-55.4	15.4	6.03e-01	0	43	0	15204352	70	7149
2026-01-12 23:33:41.29	62.67	11.07	-47.9	-51.8	18.9	6.04e-01	0	43	0	18874368	67	5615
2026-01-12 23:33:43.22	63.06	11.14	-47.5	-51.2	19.5	6.02e-01	0	43	0	22544384	67	5278
2026-01-12 23:33:45.28	63.48	11.20	-47.2	-50.7	20.0	6.03e-01	0	43	0	26214400	66	5263
2026-01-12 23:33:47.48	63.93	11.27	-47.0	-50.4	20.2	6.03e-01	0	43	0	30408704	65	5358
2026-01-12 23:33:49.47	64.33	11.34	-46.9	-50.3	20.3	6.01e-01	0	43	0	34078720	65	5307
2026-01-12 23:33:51.48	64.75	11.40	-46.8	-50.1	20.4	6.03e-01	0	43	0	37748736	65	5218
2026-01-12 23:33:53.50	65.16	11.46	-46.9	-50.4	20.3	6.05e-01	0	43	0	41943040	65	5342
2026-01-12 23:33:55.49	65.57	11.52	-46.9	-50.3	20.2	6.01e-01	0	43	0	45613056	65	5318
2026-01-12 23:33:57.51	65.99	11.58	-46.8	-50.1	20.5	6.04e-01	0	43	0	49283072	65	5188
2026-01-12 23:33:59.50	66.41	11.63	-46.8	-50.2	20.3	6.03e-01	0	43	0	52953088	65	5234
2026-01-12 23:34:01.68	66.87	11.69	-46.8	-50.2	20.4	6.02e-01	0	43	0	57147392	65	5241
2026-01-12 23:34:03.80	67.31	11.75	-46.7	-50.1	20.5	6.03e-01	0	43	0	60817408	65	5175
2026-01-12 23:34:05.80	67.74	11.81	-46.8	-50.2	20.3	6.02e-01	0	43	0	65011712	65	5250
2026-01-12 23:34:07.79	68.16	11.86	-46.7	-50.0	20.6	6.00e-01	0	43	0	68681728	65	5147
2026-01-12 23:34:09.80	68.59	11.91	-46.7	-50.1	20.5	6.02e-01	0	43	0	72351744	65	5182
2026-01-12 23:34:11.80	69.02	11.96	-46.6	-49.9	20.8	6.01e-01	0	43	0	76021760	65	5056
2026-01-12 23:34:13.79	69.44	12.01	-46.7	-50.1	19.7	6.03e-01	0	43	0	79691776	65	5180
2026-01-12 23:34:15.80	69.88	12.05	-46.6	-49.9	20.7	6.00e-01	0	43	0	83361792	65	5085
2026-01-12 23:34:17.85	70.32	12.10	-46.6	-50.0	20.6	6.04e-01	0	43	0	87556096	65	5158
2026-01-12 23:34:19.92	70.77	12.15	-46.4	-50.0	20.7	6.01e-01	0	43	0	91226112	64	5443
2026-01-12 23:34:21.97	71.21	12.19	-46.4	-50.0	20.7	6.02e-01	0	44	0	94896128	64	5444
2026-01-12 23:34:23.96	71.65	12.23	-46.4	-50.0	20.6	6.03e-01	0	44	0	98566144	64	5459
2026-01-12 23:34:25.97	72.09	12.27	-46.3	-49.8	20.8	6.00e-01	0	44	0	102760448	64	5335
2026-01-12 23:34:27.96	72.53	12.31	-46.6	-50.0	20.7	6.04e-01	0	43	0	106430464	64	5418
2026-01-12 23:34:29.95	72.96	12.35	-46.7	-50.0	20.7	6.01e-01	0	43	0	110100480	64	5403
2026-01-12 23:34:32.07	73.43	12.39	-46.7	-50.0	20.7	6.02e-01	0	44	0	113770496	64	5415
2026-01-12 23:34:34.22	73.91	12.42	-46.7	-49.9	20.7	6.01e-01	0	43	0	117964800	64	5365
2026-01-12 23:34:36.21	74.35	12.46	-46.6	-49.9	20.7	6.03e-01	0	43	0	121634816	64	5383
2026-01-12 23:34:38.21	74.80	12.49	-46.5	-49.8	20.8	6.01e-01	0	43	0	125304832	64	5316
2026-01-12 23:34:40.26	75.25	12.52	-46.4	-49.7	20.9	6.02e-01	0	43	0	129499136	64	5275
2026-01-12 23:34:42.47	75.75	12.55	-46.6	-49.9	20.8	6.02e-01	0	44	0	133693440	64	5389
2026-01-12 23:34:44.72	76.25	12.58	-46.6	-50.0	20.7	6.02e-01	0	43	0	137887744	64	5410
2026-01-12 23:34:46.72	76.70	12.61	-46.5	-49.8	20.9	6.01e-01	0	43	0	141557760	64	5310
2026-01-12 23:34:48.74	77.15	12.63	-46.5	-49.8	20.8	6.04e-01	0	43	0	145227776	64	5333
2026-01-12 23:34:50.84	77.63	12.66	-46.4	-49.7	20.9	6.03e-01	0	43	0	149422080	64	5270
2026-01-12 23:34:52.87	78.08	12.68	-46.7	-50.1	20.5	6.01e-01	0	43	0	153092096	64	5507
2026-01-12 23:34:54.87	78.54	12.70	-46.5	-49.8	20.8	6.03e-01	0	44	0	156762112	64	5289
2026-01-12 23:34:56.97	79.01	12.71	-46.3	-49.7	20.8	6.01e-01	0	43	0	160432128	64	5274
2026-01-12 23:34:58.99	79.47	12.73	-46.4	-49.8	20.8	6.04e-01	0	44	0	164626432	64	5296
2026-01-12 23:35:00.98	79.92	12.75	-46.5	-49.7	20.9	6.02e-01	0	43	0	168296448	64	5271
2026-01-12 23:35:02.98	80.38	12.76	-46.6	-49.9	20.7	6.00e-01	0	43	0	171966464	64	5401
2026-01-12 23:35:04.97	80.83	12.77	-46.5	-49.8	20.9	6.03e-01	0	44	0	175636480	64	5293
2026-01-12 23:35:06.96	81.28	12.78	-46.3	-49.8	20.9	6.01e-01	0	43	0	179306496	64	5308
2026-01-12 23:35:08.97	81.74	12.79	-46.3	-49.9	20.8	5.99e-01	0	44	0	182976512	64	5357
2026-01-12 23:35:10.95	82.19	12.80	-46.3	-49.9	20.8	6.03e-01	0	43	0	187170816	64	5365
2026-01-12 23:35:12.96	82.65	12.80	-46.3	-49.8	20.8	6.01e-01	0	43	0	190840832	64	5316
2026-01-12 23:35:15.24	83.17	12.80	-46.3	-49.8	20.8	6.04e-01	0	43	0	195035136	64	5288
2026-01-12 23:35:17.23	83.62	12.81	-46.2	-49.8	20.9	6.01e-01	0	43	0	198705152	64	5280
2026-01-12 23:35:19.22	84.08	12.81	-46.1	-49.8	20.8	6.02e-01	0	43	0	202375168	64	5322
2026-01-12 23:35:21.22	84.53	12.81	-46.2	-49.8	20.8	6.04e-01	0	43	0	206045184	64	5293
2026-01-12 23:35:23.21	84.99	12.80	-46.2	-49.7	20.9	6.02e-01	0	43	0	209715200	64	5257
2026-01-12 23:35:25.15	85.43	12.80	-46.2	-49.7	20.9	6.01e-01	0	43	0	213385216	64	5252
2026-01-12 23:35:27.20	85.90	12.79	-46.4	-49.9	20.7	6.02e-01	0	44	0	217579520	64	5381
2026-01-12 23:35:29.19	86.35	12.79	-46.3	-49.8	20.9	6.03e-01	0	43	0	221249536	64	5306
2026-01-12 23:35:31.18	86.80	12.78	-46.2	-49.8	20.9	6.02e-01	0	43	0	224919552	64	5296
2026-01-12 23:35:33.20	87.26	12.77	-46.2	-49.7	20.9	6.03e-01	0	43	0	228589568	64	5260
2026-01-12 23:35:35.21	87.72	12.75	-46.3	-49.8	20.8	6.04e-01	0	43	0	232259584	64	5282
2026-01-12 23:35:37.19	88.17	12.74	-46.5	-49.9	20.7	6.01e-01	0	43	0	235929600	64	5386
2026-01-12 23:35:39.20	88.62	12.72	-46.4	-49.8	20.7	6.03e-01	0	43	0	240123904	64	5303
2026-01-12 23:35:41.18	89.07	12.71	-46.4	-49.9	20.7	6.03e-01	0	43	0	243793920	64	5345
2026-01-12 23:35:43.27	89.55	12.69	-46.4	-49.8	20.8	6.02e-01	0	43	0	247463936	64	5290
2026-01-12 23:35:45.26	90.00	12.67	-46.4	-49.9	20.7	6.03e-01	0	43	0	251133952	64	5396
2026-01-12 23:35:47.25	90.45	12.65	-46.4	-49.8	20.8	6.03e-01	0	43	0	254803968	64	5319
2026-01-12 23:35:49.24	90.90	12.62	-46.5	-49.9	20.7	6.02e-01	0	43	0	258998272	64	5384
2026-01-12 23:35:51.24	91.35	12.60	-46.5	-49.9	20.7	6.01e-01	0	43	0	262668288	64	5380
2026-01-12 23:35:53.23	91.79	12.57	-46.6	-50.0	20.7	6.01e-01	0	44	0	266338304	64	5420
2026-01-12 23:35:55.22	92.24	12.55	-46.6	-49.9	20.6	6.01e-01	0	43	0	270008320	64	5397
2026-01-12 23:35:57.23	92.69	12.52	-46.7	-49.9	20.6	6.04e-01	0	44	0	273678336	64	5372
2026-01-12 23:35:59.23	93.14	12.49	-46.6	-49.9	20.7	6.04e-01	0	44	0	277348352	64	5341
2026-01-12 23:36:01.24	93.58	12.45	-46.6	-49.9	20.7	6.01e-01	0	43	0	281018368	64	5348
2026-01-12 23:36:03.37	94.06	12.42	-46.6	-49.9	20.7	6.03e-01	0	43	0	285212672	64	5376
2026-01-12 23:36:05.38	94.50	12.38	-46.7	-50.0	20.5	6.02e-01	0	44	0	288882688	64	5424
2026-01-12 23:36:07.46	94.96	12.35	-46.7	-49.9	20.6	6.02e-01	0	43	0	293076992	64	5381
2026-01-12 23:36:09.55	95.43	12.31	-46.7	-49.9	20.7	6.03e-01	0	44	0	296747008	64	5399
2026-01-12 23:36:11.55	95.87	12.27	-46.7	-50.0	20.6	6.00e-01	0	44	0	300417024	64	5455
2026-01-12 23:36:13.55	96.31	12.23	-46.6	-49.9	20.7	6.03e-01	0	43	0	304087040	64	5348
2026-01-12 23:36:15.56	96.75	12.18	-46.7	-49.9	20.7	6.01e-01	0	44	0	308281344	64	5380
2026-01-12 23:36:17.55	97.18	12.14	-46.7	-50.0	20.6	6.02e-01	0	43	0	311951360	64	5437
2026-01-12 23:36:19.68	97.64	12.09	-46.6	-49.8	20.8	6.02e-01	0	43	0	315621376	64	5290
2026-01-12 23:36:21.83	98.11	12.04	-46.7	-50.1	20.5	6.04e-01	0	43	0	319815680	64	5465
2026-01-12 23:36:23.82	98.54	12.00	-46.6	-49.8	20.7	6.02e-01	0	43	0	323485696	64	5308
2026-01-12 23:36:25.81	98.97	11.95	-46.7	-49.9	20.7	6.00e-01	0	44	0	327155712	64	5352
2026-01-12 23:36:27.91	99.42	11.90	-46.8	-50.1	20.5	6.02e-01	0	43	0	331350016	64	5479
2026-01-12 23:36:29.90	99.84	11.85	-46.7	-49.9	20.7	5.99e-01	0	44	0	335020032	64	5391
2026-01-12 23:36:31.89	100.27	11.79	-46.8	-50.1	20.5	6.03e-01	0	43	0	338690048	64	5480
2026-01-12 23:36:33.88	100.69	11.74	-46.7	-50.0	20.6	6.04e-01	0	44	0	342360064	64	5434
2026-01-12 23:36:35.87	101.11	11.68	-46.7	-50.0	20.6	6.00e-01	0	43	0	346030080	64	5412
2026-01-12 23:36:37.97	101.55	11.63	-46.7	-50.0	20.6	6.02e-01	0	43	0	350224384	64	5436
2026-01-12 23:36:39.97	101.97	11.57	-46.9	-50.2	20.4	6.03e-01	0	43	0	353894400	64	5551
2026-01-12 23:36:41.96	102.39	11.51	-46.9	-50.2	20.4	6.02e-01	0	43	0	357564416	64	5538
2026-01-12 23:36:43.95	102.80	11.45	-46.8	-50.1	20.5	6.03e-01	0	44	0	361234432	64	5475
2026-01-12 23:36:45.94	103.21	11.39	-46.8	-50.1	20.5	6.01e-01	0	43	0	364904448	64	5491
2026-01-12 23:36:47.93	103.62	11.33	-46.8	-50.2	20.4	6.05e-01	0	44	0	368574464	64	5554
2026-01-12 23:36:49.92	104.03	11.27	-46.8	-50.2	20.5	6.04e-01	0	44	0	372244480	64	5541
2026-01-12 23:36:51.91	104.44	11.20	-46.8	-50.0	20.5	6.02e-01	0	44	0	376438784	64	5455
2026-01-12 23:36:53.99	104.86	11.13	-46.8	-50.1	20.4	6.03e-01	0	44	0	380108800	64	5507
2026-01-12 23:36:55.98	105.26	11.07	-46.8	-50.1	20.5	6.02e-01	0	44	0	383778816	64	5497
2026-01-12 23:36:57.98	105.67	11.00	-46.8	-50.1	20.4	6.02e-01	0	43	0	387448832	64	5519
2026-01-12 23:36:59.97	106.07	10.93	-46.8	-50.2	20.4	6.02e-01	0	44	0	391118848	64	5561
2026-01-12 23:37:02.13	106.50	10.86	-46.9	-50.3	20.3	6.01e-01	0	43	0	395313152	64	5598
2026-01-12 23:37:04.12	106.89	10.79	-46.9	-50.3	20.3	6.01e-01	0	44	0	398983168	64	5615
2026-01-12 23:37:06.11	107.28	10.72	-46.8	-50.2	20.4	6.01e-01	0	43	0	402653184	64	5576
2026-01-12 23:37:08.10	107.68	10.65	-46.9	-50.3	20.2	6.01e-01	0	43	0	406323200	64	5643
2026-01-12 23:37:10.10	108.07	10.57	-47.0	-50.3	20.2	6.01e-01	0	43	0	410517504	64	5643
2026-01-12 23:37:12.08	108.45	10.50	-46.8	-50.2	20.4	6.00e-01	0	43	0	414187520	64	5544
2026-01-12 23:37:14.07	108.84	10.43	-46.9	-50.3	20.3	6.04e-01	0	43	0	417857536	64	5594
2026-01-12 23:37:16.14	109.23	10.35	-47.0	-50.6	20.0	6.02e-01	0	44	0	421527552	64	5793
2026-01-12 23:37:18.05	109.60	10.28	-47.1	-50.7	19.9	6.05e-01	0	44	0	425197568	64	5879
2026-01-12 23:37:20.12	109.99	10.20	-47.1	-50.6	20.0	6.03e-01	0	43	0	428867584	64	5816
2026-01-12 23:37:22.14	110.38	10.12	-46.7	-50.1	20.4	6.04e-01	0	44	0	433061888	64	5479
2026-01-12 23:37:24.34	110.79	10.03	-46.9	-50.5	20.0	6.03e-01	0	44	0	437256192	64	5740
2026-01-12 23:37:26.66	111.22	9.94	-47.0	-50.5	20.1	6.00e-01	0	43	0	441450496	64	5755
2026-01-12 23:37:28.67	111.60	9.86	-46.9	-50.5	20.0	6.03e-01	0	43	0	445120512	64	5748
2026-01-12 23:37:30.69	111.97	9.78	-47.0	-50.5	20.0	6.02e-01	0	43	0	448790528	64	5770
2026-01-12 23:37:32.68	112.33	9.70	-47.1	-50.6	19.9	6.03e-01	0	44	0	452460544	64	5800
2026-01-12 23:37:34.67	112.70	9.61	-47.1	-50.6	19.9	6.00e-01	0	44	0	456130560	64	5805
2026-01-12 23:37:36.73	113.07	9.53	-47.0	-50.4	20.1	6.03e-01	0	44	0	460324864	64	5694
2026-01-12 23:37:38.71	113.43	9.44	-47.1	-50.7	19.9	6.01e-01	0	44	0	463994880	64	5859
2026-01-12 23:37:40.83	113.81	9.36	-47.2	-50.7	19.7	6.02e-01	0	43	0	468189184	65	5575
2026-01-12 23:37:42.82	114.16	9.27	-47.2	-50.8	19.7	6.00e-01	0	44	0	471859200	65	5595
2026-01-12 23:37:44.95	114.54	9.18	-47.2	-50.7	19.8	6.01e-01	0	43	0	475529216	65	5533
2026-01-12 23:37:46.94	114.89	9.09	-47.1	-50.7	19.8	6.05e-01	0	43	0	479199232	65	5540
2026-01-12 23:37:48.94	115.24	9.01	-47.1	-50.7	19.7	6.04e-01	0	44	0	483393536	65	5547
2026-01-12 23:37:50.94	115.59	8.92	-51.9	-71.9	3.8	7.46e-01	0	44	104	484966400	75	36063
2026-01-12 23:37:52.99	115.94	8.83	-52.1	-72.3	3.8	7.49e-01	0	43	104	484966400	75	37495
2026-01-12 23:37:55.05	116.29	8.74	-52.6	-72.5	3.8	7.48e-01	0	44	104	484966400	75	38280
2026-01-12 23:37:57.23	116.66	8.64	-52.3	-72.5	3.8	7.50e-01	0	43	104	484966400	75	38647
2026-01-12 23:37:59.28	117.01	8.55	-52.2	-72.6	3.8	7.46e-01	0	44	104	484966400	75	38738
2026-01-12 23:38:01.30	117.35	8.46	-51.9	-72.6	3.8	7.44e-01	0	44	104	484966400	75	38775
2026-01-12 23:38:03.51	117.72	8.36	-52.0	-72.6	3.8	7.47e-01	0	44	104	484966400	75	38926
2026-01-12 23:38:05.56	118.06	8.27	-51.8	-72.6	3.8	7.46e-01	0	44	104	484966400	75	39075
2026-01-12 23:38:07.54	118.39	8.18	-51.8	-72.6	3.8	7.47e-01	0	44	104	484966400	75	39027
2026-01-12 23:38:09.53	118.71	8.09	-51.8	-72.6	3.8	7.46e-01	0	44	104	484966400	75	39065
2026-01-12 23:38:11.52	119.03	8.00	-52.2	-72.6	3.8	7.45e-01	0	44	104	484966400	75	38900
2026-01-12 23:38:13.50	119.35	7.90	-52.2	-72.6	3.8	7.48e-01	0	44	104	484966400	75	38795
2026-01-12 23:38:15.50	119.67	7.81	-52.2	-72.6	3.8	7.47e-01	0	44	104	484966400	75	38790
2026-01-12 23:38:17.49	119.99	7.72	-52.2	-72.6	3.8	7.46e-01	0	44	104	484966400	75	38806
2026-01-12 23:38:19.48	120.31	7.63	-52.2	-72.6	3.8	7.42e-01	0	44	104	484966400	75	38697
2026-01-12 23:38:21.48	120.62	7.53	-52.1	-72.6	3.8	7.45e-01	0	44	104	484966400	75	38729
2026-01-12 23:38:23.47	120.93	7.44	-52.2	-72.5	3.8	7.47e-01	0	44	104	484966400	75	38657
2026-01-12 23:38:25.46	121.24	7.35	-52.1	-72.5	3.8	7.47e-01	0	44	104	484966400	75	38644
2026-01-12 23:38:27.44	121.54	7.25	-52.2	-72.6	3.8	7.47e-01	0	44	104	484966400	75	38714
2026-01-12 23:38:29.44	121.85	7.16	-52.1	-72.6	3.8	7.44e-01	0	44	104	484966400	75	38693
2026-01-12 23:38:31.43	122.15	7.06	-52.1	-72.6	3.8	7.45e-01	0	44	104	484966400	75	38765
2026-01-12 23:38:33.44	122.46	6.97	-52.1	-72.5	3.8	7.48e-01	0	44	104	484966400	75	38656
2026-01-12 23:38:35.42	122.75	6.87	-52.1	-72.5	3.8	7.48e-01	0	44	104	484966400	75	38671
2026-01-12 23:38:37.42	123.05	6.78	-52.1	-72.5	3.8	7.46e-01	0	44	104	484966400	75	38672
2026-01-12 23:38:39.42	123.35	6.68	-52.1	-72.5	3.8	7.44e-01	0	44	104	484966400	75	38656
2026-01-12 23:38:41.41	123.64	6.59	-52.1	-72.5	3.8	7.47e-01	0	44	104	484966400	75	38623
2026-01-12 23:38:43.41	123.93	6.49	-52.1	-72.5	3.8	7.44e-01	0	44	104	484966400	75	38676
2026-01-12 23:38:45.40	124.22	6.39	-52.1	-72.5	3.8	7.47e-01	0	44	104	484966400	75	38641
2026-01-12 23:38:47.39	124.50	6.30	-52.1	-72.6	3.8	7.45e-01	0	44	104	484966400	75	38740
2026-01-12 23:38:49.37	124.79	6.20	-52.1	-72.5	3.8	7.46e-01	0	44	104	484966400	75	38661
2026-01-12 23:38:51.38	125.07	6.11	-52.1	-72.5	3.8	7.48e-01	0	44	104	484966400	75	38674
2026-01-12 23:38:53.36	125.35	6.01	-52.1	-72.5	3.8	7.46e-01	0	44	104	484966400	75	38524
2026-01-12 23:38:55.36	125.63	5.91	-52.1	-72.5	3.8	7.44e-01	0	44	104	484966400	75	38609
2026-01-12 23:38:57.35	125.91	5.81	-52.1	-72.6	3.8	7.46e-01	0	44	104	484966400	75	38710
2026-01-12 23:38:59.36	126.18	5.72	-52.1	-72.5	3.8	7.42e-01	0	44	104	484966400	75	38587
2026-01-12 23:39:01.34	126.45	5.62	-52.1	-72.5	3.8	7.48e-01	0	44	104	484966400	75	38619
2026-01-12 23:39:03.33	126.72	5.52	-52.1	-72.5	3.8	7.45e-01	0	44	104	484966400	75	38667
2026-01-12 23:39:05.33	126.99	5.43	-52.1	-72.5	3.8	7.49e-01	0	44	104	484966400	75	38628
2026-01-12 23:39:07.32	127.26	5.33	-52.1	-72.5	3.8	7.49e-01	0	44	104	484966400	75	38654
2026-01-12 23:39:09.30	127.52	5.23	-52.1	-72.5	3.8	7.46e-01	0	44	104	484966400	75	38682
2026-01-12 23:39:11.29	127.79	5.13	-52.1	-72.5	3.8	7.46e-01	0	44	104	484966400	75	38684
2026-01-12 23:39:13.29	128.05	5.04	-52.1	-72.5	3.8	7.46e-01	0	44	104	484966400	75	38588

#Closed at: 2026-01-12 23:39:15
#Recorded file [484 MB]: D:/Data/31040_260113_023122.dat