passes_logs/2026/01/12/T1/T1__20260112_013104_FENGYUN_3D_rec.log

#Pass ID: 20260112_013104_FENGYUN 3D
#Satellite: FENGYUN 3D
#Configuration: FENGYUN 3D
#almurnet v.1.7.20251203
#Start time: 2026-01-12 01:31:05

#Version: 2.0.20230620
#Station: T1
#Location: 37.570604 lon 55.790049 lat
#TLE: 1 43010U 17072A   26011.26828046  .00000354  00000+0  18908-3 0  9991
#TLE: 2 43010  98.9936 343.0270 0002205 114.1788 245.9618 14.19695184422722

#Time	Az	El	Level	Level2	SNR	BER	BlckErr	Temp	State	Recorded	gain1	gain2
2026-01-12 01:31:05.18	18.50	5.09	-48.5	-62.2	3.8	8.47e-01	0	41	0	0	67	18603
2026-01-12 01:31:09.14	18.57	5.38	-48.4	-61.4	3.8	8.47e-01	0	42	104	0	67	17005
2026-01-12 01:31:13.12	18.64	5.66	-48.3	-60.6	3.8	8.46e-01	0	42	104	0	67	15462
2026-01-12 01:31:17.09	18.71	5.95	-48.3	-60.2	3.9	8.45e-01	0	42	104	0	67	14820
2026-01-12 01:31:21.06	18.78	6.25	-48.4	-61.1	3.8	8.48e-01	0	42	104	0	67	16368
2026-01-12 01:31:25.03	18.86	6.54	-48.5	-61.5	3.8	8.46e-01	0	42	104	0	67	17165
2026-01-12 01:31:29.00	18.93	6.84	-48.4	-60.9	3.8	8.47e-01	0	42	104	0	67	16118
2026-01-12 01:31:32.98	19.01	7.14	-48.3	-60.0	3.8	8.46e-01	0	42	104	0	67	14383
2026-01-12 01:31:36.95	19.09	7.45	-47.9	-57.0	4.8	8.06e-01	0	42	0	0	67	10178
2026-01-12 01:31:40.92	19.17	7.76	-47.4	-54.3	6.6	2.66e-01	0	42	0	11534336	66	7961
2026-01-12 01:31:44.90	19.25	8.08	-47.1	-53.4	7.4	1.31e-01	0	43	0	34603008	66	7194
2026-01-12 01:31:48.87	19.33	8.39	-47.1	-53.6	7.3	1.40e-01	0	43	0	56623104	66	7306
2026-01-12 01:31:52.84	19.41	8.71	-47.0	-53.3	7.5	1.34e-01	0	43	0	78643200	65	7521
2026-01-12 01:31:56.81	19.50	9.04	-47.6	-55.3	5.8	4.27e-01	0	43	0	101711872	65	9390
2026-01-12 01:32:01.03	19.59	9.39	-44.1	-47.0	14.1	0.00e+00	0	43	0	116391936	59	5145
2026-01-12 01:32:05.01	19.68	9.73	-43.0	-45.6	15.5	0.00e+00	0	43	0	138412032	58	4623
2026-01-12 01:32:08.99	19.77	10.07	-41.7	-44.0	16.9	0.00e+00	0	43	0	161480704	55	4587
2026-01-12 01:32:13.08	19.87	10.42	-41.2	-43.4	17.5	0.00e+00	0	43	0	183500800	54	4529
2026-01-12 01:32:17.06	19.96	10.77	-41.3	-43.5	17.4	0.00e+00	0	43	0	206569472	54	4547
2026-01-12 01:32:21.04	20.05	11.13	-41.2	-43.4	17.6	0.00e+00	0	43	0	228589568	54	4511
2026-01-12 01:32:25.06	20.15	11.49	-41.3	-43.5	17.5	0.00e+00	0	43	0	251658240	54	4571
2026-01-12 01:32:29.07	20.25	11.86	-41.2	-43.4	17.6	0.00e+00	0	43	0	273678336	54	4538
2026-01-12 01:32:33.05	20.36	12.23	-41.2	-43.4	17.6	0.00e+00	0	43	0	296747008	54	4542
2026-01-12 01:32:37.03	20.46	12.61	-41.2	-43.5	17.6	0.00e+00	0	43	0	318767104	54	4550
2026-01-12 01:32:41.01	20.57	12.99	-41.0	-43.3	17.7	0.00e+00	0	43	0	340787200	54	4460
2026-01-12 01:32:45.01	20.68	13.38	-40.9	-43.1	17.9	0.00e+00	0	43	0	363855872	53	4623
2026-01-12 01:32:48.98	20.79	13.78	-40.8	-43.0	18.1	0.00e+00	0	44	0	385875968	53	4546
2026-01-12 01:32:52.96	20.90	14.18	-40.8	-42.9	18.2	0.00e+00	0	43	0	407896064	53	4495
2026-01-12 01:32:56.94	21.02	14.59	-40.7	-42.7	18.3	0.00e+00	0	43	0	430964736	53	4413
2026-01-12 01:33:01.01	21.14	15.01	-40.4	-42.4	18.6	0.00e+00	0	44	0	454033408	52	4530
2026-01-12 01:33:05.10	21.26	15.45	-40.3	-42.3	18.7	0.00e+00	0	44	0	477102080	52	4480
2026-01-12 01:33:09.11	21.39	15.88	-40.1	-42.0	19.0	0.00e+00	0	43	0	499122176	52	4317
2026-01-12 01:33:13.09	21.52	16.32	-40.0	-41.9	19.2	0.00e+00	0	44	0	522190848	51	4524
2026-01-12 01:33:17.08	21.65	16.77	-39.8	-41.7	19.3	0.00e+00	0	44	0	544210944	51	4434
2026-01-12 01:33:21.41	21.80	17.26	-39.6	-41.5	19.6	0.00e+00	0	44	0	568328192	51	4314
2026-01-12 01:33:25.40	21.94	17.73	-39.7	-41.6	19.5	0.00e+00	0	44	0	591396864	51	4346
2026-01-12 01:33:29.38	22.08	18.20	-39.7	-41.5	19.6	0.00e+00	0	44	0	613416960	51	4321
2026-01-12 01:33:33.50	22.23	18.70	-39.6	-41.5	19.6	0.00e+00	0	44	0	636485632	51	4316
2026-01-12 01:33:37.50	22.39	19.19	-39.5	-41.3	19.7	0.00e+00	0	44	0	658505728	51	4231
2026-01-12 01:33:41.49	22.54	19.69	-39.4	-41.2	19.8	0.00e+00	0	44	0	681574400	50	4415
2026-01-12 01:33:45.57	22.71	20.22	-39.3	-41.1	19.9	0.00e+00	0	44	0	704643072	50	4390
2026-01-12 01:33:49.54	22.87	20.74	-39.3	-41.1	19.9	0.00e+00	0	44	0	726663168	50	4370
2026-01-12 01:33:53.54	23.05	21.28	-39.2	-41.0	20.0	0.00e+00	0	44	0	749731840	50	4327
2026-01-12 01:33:57.54	23.22	21.82	-39.0	-40.8	20.2	0.00e+00	0	44	0	771751936	50	4222
2026-01-12 01:34:01.52	23.41	22.38	-38.7	-40.4	20.5	0.00e+00	0	44	0	793772032	49	4282
2026-01-12 01:34:05.59	23.60	22.96	-38.7	-40.5	20.5	0.00e+00	0	44	0	816840704	49	4302
2026-01-12 01:34:09.62	23.80	23.55	-38.4	-40.2	20.8	0.00e+00	0	44	0	839909376	48	4413
2026-01-12 01:34:13.84	24.01	24.18	-38.3	-40.0	20.9	0.00e+00	0	44	0	862978048	48	4327
2026-01-12 01:34:17.81	24.22	24.79	-38.3	-40.1	20.9	0.00e+00	0	44	0	886046720	48	4354
2026-01-12 01:34:21.79	24.44	25.41	-38.3	-40.0	20.9	0.00e+00	0	44	0	908066816	48	4335
2026-01-12 01:34:25.78	24.66	26.05	-38.3	-40.0	21.0	0.00e+00	0	44	0	931135488	48	4326
2026-01-12 01:34:29.81	24.90	26.72	-38.1	-39.9	21.1	0.00e+00	0	44	0	953155584	48	4243
2026-01-12 01:34:33.84	25.15	27.39	-37.8	-39.6	21.1	0.00e+00	0	44	0	976224256	47	4353
2026-01-12 01:34:37.82	25.40	28.08	-37.9	-39.6	21.1	0.00e+00	0	44	0	998244352	47	4354
2026-01-12 01:34:41.80	25.67	28.78	-38.0	-39.7	21.0	0.00e+00	0	44	0	1020264448	47	4432
2026-01-12 01:34:45.79	25.95	29.50	-38.0	-39.7	21.1	0.00e+00	0	44	0	1043333120	47	4424
2026-01-12 01:34:49.80	26.24	30.25	-37.7	-39.4	21.3	0.00e+00	0	44	0	1065353216	47	4276
2026-01-12 01:34:53.90	26.55	31.03	-37.9	-39.7	21.0	0.00e+00	0	44	0	1088421888	47	4408
2026-01-12 01:34:57.88	26.86	31.81	-37.7	-39.4	21.3	0.00e+00	0	43	0	1111490560	47	4291
2026-01-12 01:35:01.86	27.19	32.61	-38.0	-39.8	21.0	0.00e+00	0	44	0	1133510656	47	4465
2026-01-12 01:35:05.97	27.55	33.45	-37.5	-39.2	21.4	0.00e+00	0	44	0	1156579328	47	4192
2026-01-12 01:35:09.95	27.91	34.29	-37.5	-39.2	21.5	0.00e+00	0	44	0	1178599424	46	4429
2026-01-12 01:35:14.09	28.31	35.19	-37.7	-39.5	21.3	0.00e+00	0	44	0	1202716672	46	4558
2026-01-12 01:35:18.12	28.72	36.09	-37.6	-39.3	21.4	0.00e+00	0	44	0	1224736768	46	4492
2026-01-12 01:35:22.28	29.17	37.04	-37.8	-39.5	21.2	0.00e+00	0	44	0	1248854016	46	4587
2026-01-12 01:35:26.49	29.65	38.03	-37.7	-39.4	21.3	0.00e+00	0	44	0	1271922688	46	4536
2026-01-12 01:35:30.51	30.13	39.01	-37.2	-38.9	21.8	0.00e+00	0	44	0	1294991360	46	4262
2026-01-12 01:35:34.51	30.64	40.00	-37.6	-39.3	21.4	0.00e+00	0	44	0	1317011456	46	4471
2026-01-12 01:35:38.59	31.19	41.04	-37.5	-39.3	21.1	0.00e+00	0	44	0	1340080128	46	4443
2026-01-12 01:35:42.79	31.80	42.14	-37.9	-39.7	20.7	0.00e+00	0	44	0	1364197376	46	4688
2026-01-12 01:35:46.78	32.42	43.22	-37.8	-39.6	20.8	0.00e+00	0	44	0	1386217472	46	4629
2026-01-12 01:35:50.75	33.07	44.31	-38.0	-39.9	20.6	0.00e+00	0	44	0	1408237568	46	4761
2026-01-12 01:35:54.78	33.79	45.46	-38.3	-40.2	20.3	0.00e+00	0	44	0	1431306240	47	4669
2026-01-12 01:35:58.87	34.56	46.64	-37.7	-39.5	21.0	0.00e+00	0	44	0	1454374912	47	4336
2026-01-12 01:36:02.99	35.41	47.87	-37.8	-39.6	20.9	0.00e+00	0	44	0	1477443584	47	4387
2026-01-12 01:36:06.97	36.29	49.08	-37.9	-39.7	20.8	0.00e+00	0	44	0	1499463680	47	4428
2026-01-12 01:36:11.01	37.26	50.33	-38.9	-40.8	20.2	0.00e+00	0	44	0	1522532352	48	4710
2026-01-12 01:36:14.99	38.29	51.60	-38.6	-40.4	20.5	0.00e+00	0	44	0	1544552448	48	4544
2026-01-12 01:36:18.96	39.42	52.88	-38.9	-40.7	20.3	0.00e+00	0	44	0	1567621120	48	4676
2026-01-12 01:36:22.92	40.64	54.18	-39.0	-40.8	20.1	0.00e+00	0	44	0	1589641216	48	4749
2026-01-12 01:36:26.92	41.99	55.52	-39.0	-40.8	20.1	0.00e+00	0	44	0	1611661312	49	4473
2026-01-12 01:36:30.89	43.46	56.86	-39.0	-40.8	20.1	0.00e+00	0	44	0	1634729984	49	4481
2026-01-12 01:36:34.87	45.09	58.22	-38.4	-40.2	20.7	0.00e+00	0	44	0	1656750080	48	4394
2026-01-12 01:36:38.82	46.88	59.57	-38.0	-39.7	20.9	0.00e+00	0	44	0	1678770176	47	4423
2026-01-12 01:36:42.83	48.90	60.95	-37.8	-39.5	21.1	0.00e+00	0	44	0	1701838848	47	4328
2026-01-12 01:36:46.93	51.20	62.36	-37.5	-39.2	21.2	0.00e+00	0	44	0	1724907520	47	4184
2026-01-12 01:36:50.91	53.70	63.71	-37.5	-39.2	21.2	0.00e+00	0	44	0	1746927616	46	4438
2026-01-12 01:36:54.89	56.51	65.03	-37.2	-39.0	21.4	0.00e+00	0	44	0	1768947712	46	4326
2026-01-12 01:36:59.38	60.09	66.48	-36.9	-38.6	21.7	0.00e+00	0	44	0	1794113536	45	4383
2026-01-12 01:37:03.35	63.67	67.71	-37.2	-38.9	21.5	0.00e+00	0	44	0	1817182208	45	4530
2026-01-12 01:37:07.39	67.77	68.88	-37.0	-38.8	21.5	0.00e+00	0	44	0	1839202304	45	4447
2026-01-12 01:37:11.58	72.55	69.99	-36.9	-38.7	21.6	0.00e+00	0	44	0	1863319552	45	4411
2026-01-12 01:37:15.62	77.68	70.94	-36.5	-38.2	22.0	0.00e+00	0	44	0	1885339648	45	4184
2026-01-12 01:37:19.60	83.26	71.72	-36.9	-38.7	21.6	0.00e+00	0	44	0	1908408320	45	4405
2026-01-12 01:37:23.77	89.60	72.36	-36.4	-38.1	22.0	0.00e+00	0	44	0	1931476992	44	4369
2026-01-12 01:37:27.67	95.91	72.76	-36.2	-38.0	22.1	0.00e+00	0	44	0	1953497088	44	4309
2026-01-12 01:37:31.66	102.61	72.96	-36.7	-38.4	21.8	0.00e+00	0	44	0	1976565760	44	4526
2026-01-12 01:37:35.73	109.51	72.93	-36.4	-38.1	22.1	0.00e+00	0	44	0	1999634432	44	4362
2026-01-12 01:37:39.79	116.28	72.67	-36.6	-38.3	21.9	0.00e+00	0	44	0	2021654528	44	4475
2026-01-12 01:37:43.77	122.62	72.20	-36.5	-38.3	22.0	0.00e+00	0	44	0	2043674624	44	4465
2026-01-12 01:37:47.75	128.56	71.54	-36.4	-38.2	22.0	0.00e+00	0	44	0	2066743296	44	4410
2026-01-12 01:37:51.73	134.02	70.72	-36.7	-38.5	21.8	0.00e+00	0	44	0	2088763392	44	4554
2026-01-12 01:37:55.71	138.97	69.76	-36.9	-38.7	21.7	0.00e+00	0	44	0	2111832064	44	4666
2026-01-12 01:38:00.23	143.97	68.52	-37.0	-38.8	21.6	0.00e+00	0	44	0	2136997888	44	4707
2026-01-12 01:38:04.21	147.88	67.34	-37.1	-38.9	21.5	0.00e+00	0	44	0	2159017984	44	4776
2026-01-12 01:38:08.27	151.41	66.07	-37.1	-38.9	21.5	0.00e+00	0	44	0	2182086656	45	4503
2026-01-12 01:38:12.25	154.50	64.77	-37.2	-39.0	21.4	0.00e+00	0	44	0	2204106752	45	4560
2026-01-12 01:38:16.63	157.50	63.30	-37.5	-39.3	21.2	0.00e+00	0	44	0	2229272576	45	4722
2026-01-12 01:38:20.82	160.05	61.86	-37.1	-38.9	21.6	0.00e+00	0	44	0	2252341248	45	4500
2026-01-12 01:38:24.80	162.20	60.49	-37.5	-39.3	21.2	0.00e+00	0	44	0	2275409920	45	4716
2026-01-12 01:38:28.78	164.14	59.12	-38.2	-40.1	20.6	0.00e+00	0	44	0	2297430016	47	4607
2026-01-12 01:38:32.77	165.89	57.75	-38.3	-40.1	20.6	0.00e+00	0	44	0	2319450112	47	4599
2026-01-12 01:38:36.75	167.47	56.39	-38.4	-40.3	20.3	0.00e+00	0	44	0	2342518784	47	4716
2026-01-12 01:38:40.75	168.92	55.04	-38.9	-40.7	20.2	0.00e+00	0	44	0	2364538880	48	4685
2026-01-12 01:38:44.73	170.22	53.71	-39.0	-40.8	20.1	0.00e+00	0	44	0	2387607552	49	4493
2026-01-12 01:38:48.70	171.41	52.41	-38.6	-40.4	20.5	0.00e+00	0	44	0	2409627648	49	4285
2026-01-12 01:38:52.68	172.51	51.12	-38.3	-40.1	20.8	0.00e+00	0	44	0	2431647744	48	4358
2026-01-12 01:38:56.66	173.52	49.86	-38.2	-39.9	20.9	0.00e+00	0	44	0	2454716416	48	4290
2026-01-12 01:39:00.61	174.44	48.64	-37.9	-39.7	20.8	0.00e+00	0	44	0	2476736512	47	4408
2026-01-12 01:39:04.74	175.33	47.39	-37.8	-39.6	20.9	0.00e+00	0	44	0	2499805184	47	4391
2026-01-12 01:39:08.78	176.14	46.19	-37.8	-39.6	20.9	0.00e+00	0	44	0	2522873856	47	4371
2026-01-12 01:39:12.77	176.88	45.04	-37.7	-39.5	21.0	0.00e+00	0	44	0	2544893952	47	4296
2026-01-12 01:39:16.81	177.58	43.90	-37.7	-39.5	20.9	0.00e+00	0	44	0	2567962624	47	4338
2026-01-12 01:39:20.82	178.23	42.79	-37.5	-39.2	21.2	0.00e+00	0	44	0	2589982720	47	4190
2026-01-12 01:39:25.30	178.90	41.59	-37.6	-39.5	21.0	0.00e+00	0	44	0	2615148544	46	4547
2026-01-12 01:39:29.32	179.47	40.55	-37.3	-39.1	21.3	0.00e+00	0	44	0	2638217216	46	4367
2026-01-12 01:39:33.42	180.01	39.51	-37.0	-38.7	21.6	0.00e+00	0	44	0	2661285888	45	4419
2026-01-12 01:39:37.55	180.52	38.49	-37.3	-39.1	21.2	0.00e+00	0	44	0	2684354560	45	4630
2026-01-12 01:39:41.54	180.99	37.53	-37.2	-39.0	21.3	0.00e+00	0	44	0	2706374656	45	4565
2026-01-12 01:39:45.55	181.44	36.59	-37.3	-39.0	21.2	0.00e+00	0	44	0	2729443328	45	4595
2026-01-12 01:39:49.55	181.86	35.68	-37.5	-39.3	21.0	0.00e+00	0	44	0	2751463424	45	4747
2026-01-12 01:39:53.64	182.26	34.77	-37.5	-39.3	21.0	0.00e+00	0	44	0	2774532096	45	4710
2026-01-12 01:39:57.66	182.64	33.90	-37.5	-39.3	21.0	0.00e+00	0	44	0	2797600768	45	4706
2026-01-12 01:40:01.98	183.03	32.99	-37.7	-39.6	20.8	0.00e+00	0	44	0	2821718016	46	4603
2026-01-12 01:40:05.98	183.37	32.17	-37.7	-39.5	20.8	0.00e+00	0	44	0	2843738112	46	4573
2026-01-12 01:40:10.08	183.70	31.36	-37.7	-39.6	20.8	0.00e+00	0	44	0	2867855360	46	4613
2026-01-12 01:40:14.37	184.03	30.52	-37.8	-39.6	20.8	0.00e+00	0	44	0	2890924032	46	4632
2026-01-12 01:40:18.37	184.33	29.77	-37.8	-39.6	20.8	0.00e+00	0	44	0	2913992704	46	4620
2026-01-12 01:40:22.39	184.61	29.03	-37.7	-39.5	20.8	0.00e+00	0	44	0	2937061376	46	4560
2026-01-12 01:40:26.38	184.88	28.31	-37.7	-39.5	20.8	0.00e+00	0	44	0	2959081472	46	4590
2026-01-12 01:40:30.45	185.14	27.60	-37.9	-39.8	20.6	0.00e+00	0	44	0	2982150144	46	4730
2026-01-12 01:40:34.47	185.39	26.91	-37.8	-39.7	20.6	0.00e+00	0	44	0	3004170240	46	4658
2026-01-12 01:40:38.45	185.63	26.25	-37.8	-39.6	20.7	0.00e+00	0	44	0	3027238912	46	4638
2026-01-12 01:40:42.43	185.86	25.60	-37.8	-39.6	20.7	0.00e+00	0	44	0	3049259008	46	4622
2026-01-12 01:40:46.49	186.08	24.95	-37.9	-39.7	20.7	0.00e+00	0	44	0	3072327680	46	4657
2026-01-12 01:40:50.47	186.29	24.33	-38.0	-39.9	20.5	0.00e+00	0	44	0	3094347776	46	4763
2026-01-12 01:40:54.68	186.51	23.69	-38.2	-40.0	20.3	0.00e+00	0	44	0	3118465024	46	4860
2026-01-12 01:40:58.67	186.71	23.10	-38.3	-40.1	20.2	0.00e+00	0	44	0	3140485120	47	4650
2026-01-12 01:41:02.69	186.90	22.52	-38.4	-40.3	20.1	0.00e+00	0	44	0	3163553792	47	4736
2026-01-12 01:41:06.70	187.08	21.95	-38.5	-40.4	20.0	0.00e+00	0	44	0	3185573888	47	4806
2026-01-12 01:41:10.85	187.27	21.37	-38.6	-40.5	19.9	0.00e+00	0	44	0	3208642560	47	4826
2026-01-12 01:41:14.83	187.44	20.83	-38.7	-40.5	20.1	0.00e+00	0	44	0	3231711232	48	4593
2026-01-12 01:41:18.81	187.60	20.30	-38.8	-40.7	20.0	0.00e+00	0	44	0	3253731328	48	4653
2026-01-12 01:41:22.88	187.77	19.77	-38.8	-40.7	20.0	0.00e+00	0	44	0	3276800000	48	4659
2026-01-12 01:41:26.93	187.93	19.25	-38.9	-40.8	19.9	0.00e+00	0	44	0	3299868672	48	4734
2026-01-12 01:41:30.91	188.08	18.76	-39.0	-40.9	19.8	0.00e+00	0	44	0	3321888768	48	4762
2026-01-12 01:41:34.89	188.22	18.27	-39.1	-41.0	19.7	0.00e+00	0	44	0	3343908864	49	4550
2026-01-12 01:41:38.87	188.37	17.79	-39.4	-41.3	19.4	0.00e+00	0	44	0	3366977536	49	4754
2026-01-12 01:41:42.96	188.51	17.31	-39.7	-41.7	19.1	0.00e+00	0	44	0	3390046208	50	4659
2026-01-12 01:41:47.05	188.65	16.83	-39.7	-41.6	19.1	0.00e+00	0	44	0	3413114880	50	4643
2026-01-12 01:41:51.03	188.78	16.38	-39.9	-41.9	18.9	0.00e+00	0	44	0	3435134976	50	4786
2026-01-12 01:41:55.01	188.90	15.94	-40.2	-42.2	18.6	0.00e+00	0	44	0	3457155072	51	4679
2026-01-12 01:41:59.02	189.03	15.50	-40.2	-42.3	18.5	0.00e+00	0	44	0	3480223744	51	4731
2026-01-12 01:42:02.99	189.15	15.07	-40.3	-42.4	18.4	0.00e+00	0	44	0	3502243840	51	4774
2026-01-12 01:42:06.97	189.27	14.65	-40.4	-42.5	18.3	0.00e+00	0	44	0	3524263936	51	4848
2026-01-12 01:42:10.95	189.38	14.24	-40.6	-42.7	18.1	0.00e+00	0	44	0	3547332608	51	4961
2026-01-12 01:42:14.98	189.50	13.82	-40.5	-42.6	18.1	0.00e+00	0	44	0	3570401280	51	4904
2026-01-12 01:42:18.96	189.60	13.42	-40.5	-42.6	18.0	0.00e+00	0	44	0	3592421376	52	4649
2026-01-12 01:42:22.94	189.71	13.03	-40.6	-42.7	17.9	0.00e+00	0	44	0	3614441472	52	4702
2026-01-12 01:42:26.96	189.82	12.64	-40.7	-42.9	17.8	0.00e+00	0	44	0	3637510144	52	4762
2026-01-12 01:42:30.99	189.92	12.25	-40.8	-43.0	17.7	0.00e+00	0	44	0	3659530240	52	4820
2026-01-12 01:42:34.90	190.02	11.88	-40.8	-43.0	17.7	0.00e+00	0	44	0	3681550336	52	4840
2026-01-12 01:42:38.88	190.11	11.51	-40.9	-43.1	17.6	0.00e+00	0	44	0	3704619008	52	4899
2026-01-12 01:42:42.86	190.21	11.15	-40.9	-43.2	17.5	0.00e+00	0	44	0	3726639104	52	4932
2026-01-12 01:42:46.93	190.30	10.78	-41.1	-43.4	17.2	0.00e+00	0	44	0	3749707776	53	4800
2026-01-12 01:42:50.91	190.39	10.42	-41.1	-43.4	17.3	0.00e+00	0	44	0	3771727872	53	4763
2026-01-12 01:42:54.89	190.48	10.08	-41.1	-43.5	17.2	0.00e+00	0	44	0	3794796544	53	4819
2026-01-12 01:42:58.89	190.57	9.73	-41.2	-43.5	17.1	0.00e+00	0	44	0	3816816640	53	4866
2026-01-12 01:43:02.95	190.66	9.38	-41.4	-43.7	16.9	0.00e+00	0	44	0	3839885312	53	4978
2026-01-12 01:43:07.03	190.74	9.04	-41.4	-43.8	16.9	0.00e+00	0	44	0	3862953984	53	4984
2026-01-12 01:43:11.00	190.83	8.71	-50.2	-62.7	3.8	8.46e-01	0	44	104	3867148288	70	16554
2026-01-12 01:43:14.97	190.91	8.38	-50.6	-62.8	3.8	8.47e-01	0	44	104	3867148288	72	14971
2026-01-12 01:43:18.95	190.99	8.06	-50.7	-62.8	3.8	8.46e-01	0	44	104	3867148288	72	15006
2026-01-12 01:43:22.92	191.06	7.75	-50.7	-62.8	3.8	8.46e-01	0	44	104	3867148288	72	15027
2026-01-12 01:43:26.89	191.14	7.43	-50.8	-62.8	3.8	8.47e-01	0	44	104	3867148288	72	15002
2026-01-12 01:43:30.87	191.21	7.12	-50.7	-62.8	3.8	8.47e-01	0	44	104	3867148288	72	15037
2026-01-12 01:43:34.84	191.29	6.82	-50.5	-62.8	3.8	8.47e-01	0	44	104	3867148288	72	14937
2026-01-12 01:43:38.81	191.36	6.51	-50.5	-62.8	3.8	8.46e-01	0	44	104	3867148288	72	14930
2026-01-12 01:43:42.79	191.43	6.21	-50.5	-62.8	3.8	8.47e-01	0	44	104	3867148288	72	14910
2026-01-12 01:43:46.76	191.50	5.92	-50.5	-62.8	3.8	8.47e-01	0	44	104	3867148288	72	14881
2026-01-12 01:43:50.73	191.57	5.63	-50.5	-62.8	3.8	8.48e-01	0	44	104	3867148288	72	14924
2026-01-12 01:43:54.71	191.63	5.34	-50.5	-62.7	3.8	8.47e-01	0	44	104	3867148288	72	14849
2026-01-12 01:43:58.68	191.70	5.05	-50.5	-62.7	3.8	8.47e-01	0	44	104	3867148288	72	14861

#Closed at: 2026-01-12 01:44:00
#Recorded file [3867 MB]: D:/Data/31040_260112_043105.dat