passes_logs/2026/01/12/T1/T1__20260112_000151_NOAA_21_JPSS-2_rec.log

#Pass ID: 20260112_000151_NOAA 21 (JPSS-2)
#Satellite: NOAA 21 (JPSS-2)
#Configuration: NOAA 21
#almurnet v.1.7.20251203
#Start time: 2026-01-12 00:01:52

#Version: 2.0.20230620
#Station: T1
#Location: 37.570604 lon 55.790049 lat
#TLE: 1 54234U 22150A   26011.27699114  .00000090  00000+0  63771-4 0  9993
#TLE: 2 54234  98.7494 312.2218 0000765 314.9553  45.1561 14.19534106164285

#Time	Az	El	Level	Level2	SNR	BER	BlckErr	Temp	State	Recorded	gain1	gain2
2026-01-12 00:01:52.81	14.11	5.10	-49.9	-63.3	3.8	1.49e+00	0	42	0	0	70	17756
2026-01-12 00:01:55.79	14.06	5.32	-49.9	-63.1	3.8	1.49e+00	0	43	104	0	71	16496
2026-01-12 00:01:58.77	14.02	5.53	-49.9	-63.0	3.8	1.49e+00	0	43	104	0	71	16189
2026-01-12 00:02:01.75	13.97	5.75	-49.9	-63.0	3.8	1.49e+00	0	43	104	0	71	16236
2026-01-12 00:02:04.73	13.93	5.96	-49.9	-63.0	3.8	1.49e+00	0	43	104	0	71	16259
2026-01-12 00:02:07.71	13.88	6.18	-49.9	-62.9	3.8	1.49e+00	0	42	104	0	71	16072
2026-01-12 00:02:10.69	13.83	6.41	-49.9	-62.8	3.8	1.49e+00	0	43	104	0	71	15931
2026-01-12 00:02:13.67	13.78	6.63	-49.9	-62.9	3.8	1.49e+00	0	43	104	0	71	16093
2026-01-12 00:02:16.65	13.73	6.85	-49.8	-62.3	3.8	1.49e+00	0	42	104	0	71	15046
2026-01-12 00:02:19.63	13.68	7.08	-49.5	-59.7	4.0	1.46e+00	0	43	104	0	71	11118
2026-01-12 00:02:22.61	13.63	7.31	-48.8	-55.8	6.3	3.29e-01	0	43	0	0	69	7985
2026-01-12 00:02:25.59	13.57	7.54	-48.0	-53.4	8.5	4.49e-02	0	43	0	0	68	6393
2026-01-12 00:02:28.57	13.52	7.77	-47.2	-51.6	10.3	6.93e-03	0	43	0	0	66	5808
2026-01-12 00:02:31.55	13.46	8.01	-46.7	-50.7	11.2	1.60e-03	0	43	0	0	65	5558
2026-01-12 00:02:34.53	13.41	8.25	-46.4	-50.3	11.7	5.95e-04	0	43	0	0	64	5597
2026-01-12 00:02:37.51	13.35	8.49	-46.6	-50.5	11.4	8.88e-04	0	43	0	0	64	5745
2026-01-12 00:02:40.49	13.29	8.73	-47.4	-52.1	9.7	9.05e-03	0	43	0	0	65	6535
2026-01-12 00:02:43.47	13.23	8.97	-48.6	-55.5	6.5	1.70e-01	0	43	0	0	67	8569
2026-01-12 00:02:46.46	13.17	9.22	-48.1	-54.0	8.1	2.25e-03	0	43	0	0	66	7670
2026-01-12 00:02:49.44	13.11	9.47	-44.8	-47.8	14.2	2.20e-06	0	43	0	0	61	5036
2026-01-12 00:02:52.42	13.04	9.72	-44.0	-46.8	15.3	0.00e+00	0	43	0	0	60	4731
2026-01-12 00:02:55.40	12.98	9.98	-43.9	-46.6	15.4	0.00e+00	0	43	0	0	59	4876
2026-01-12 00:02:58.39	12.91	10.23	-43.7	-46.4	15.7	0.00e+00	0	43	0	0	59	4760
2026-01-12 00:03:01.55	12.84	10.51	-43.8	-46.4	15.7	0.00e+00	0	43	0	0	59	4770
2026-01-12 00:03:04.39	12.77	10.76	-43.7	-46.2	15.8	0.00e+00	0	43	0	0	59	4704
2026-01-12 00:03:07.51	12.70	11.04	-43.4	-45.9	16.1	0.00e+00	0	43	0	0	58	4810
2026-01-12 00:03:10.35	12.63	11.29	-43.3	-45.8	16.2	0.00e+00	0	43	0	0	58	4728
2026-01-12 00:03:13.60	12.55	11.59	-43.3	-45.7	16.4	0.00e+00	0	43	0	0	58	4664
2026-01-12 00:03:16.44	12.48	11.85	-43.2	-45.6	16.4	0.00e+00	0	43	0	0	58	4647
2026-01-12 00:03:19.57	12.40	12.14	-43.2	-45.7	16.4	0.00e+00	0	43	0	0	58	4653
2026-01-12 00:03:22.41	12.32	12.40	-43.0	-45.4	16.7	0.00e+00	0	43	0	0	58	4498
2026-01-12 00:03:25.54	12.24	12.70	-43.1	-45.4	16.7	0.00e+00	0	43	0	0	58	4524
2026-01-12 00:03:28.38	12.16	12.98	-43.0	-45.3	16.8	0.00e+00	0	43	0	0	58	4483
2026-01-12 00:03:31.51	12.07	13.28	-43.0	-45.3	16.8	0.00e+00	0	43	0	0	57	4750
2026-01-12 00:03:34.36	11.99	13.56	-43.0	-45.3	16.8	0.00e+00	0	43	0	0	57	4735
2026-01-12 00:03:37.48	11.89	13.87	-42.9	-45.2	16.9	0.00e+00	0	43	0	0	57	4684
2026-01-12 00:03:40.32	11.81	14.16	-43.1	-45.4	16.7	0.00e+00	0	43	0	0	57	4792
2026-01-12 00:03:43.45	11.71	14.48	-43.0	-45.4	16.7	0.00e+00	0	43	0	0	57	4775
2026-01-12 00:03:46.29	11.62	14.77	-43.0	-45.3	16.8	0.00e+00	0	43	0	0	57	4752
2026-01-12 00:03:49.49	11.52	15.10	-43.0	-45.3	16.7	0.00e+00	0	43	0	0	57	4758
2026-01-12 00:03:52.34	11.42	15.41	-42.9	-45.3	16.8	0.00e+00	0	43	0	0	57	4731
2026-01-12 00:03:55.46	11.32	15.74	-42.9	-45.4	16.7	0.00e+00	0	43	0	0	57	4764
2026-01-12 00:03:58.31	11.22	16.05	-43.0	-45.4	16.8	0.00e+00	0	43	0	0	57	4763
2026-01-12 00:04:01.43	11.10	16.39	-43.0	-45.3	16.8	0.00e+00	0	43	0	0	57	4746
2026-01-12 00:04:04.28	11.00	16.71	-43.0	-45.3	16.8	0.00e+00	0	43	0	0	57	4731
2026-01-12 00:04:07.51	10.88	17.08	-43.0	-45.3	16.9	0.00e+00	0	43	0	0	57	4744
2026-01-12 00:04:10.36	10.77	17.41	-43.1	-45.3	16.9	0.00e+00	0	43	0	0	57	4756
2026-01-12 00:04:13.48	10.65	17.77	-43.1	-45.3	16.9	0.00e+00	0	43	0	0	57	4726
2026-01-12 00:04:16.32	10.53	18.10	-43.2	-45.4	16.9	0.00e+00	0	43	0	0	57	4762
2026-01-12 00:04:19.45	10.40	18.48	-43.1	-45.3	16.9	0.00e+00	0	43	0	0	57	4724
2026-01-12 00:04:22.29	10.28	18.82	-43.3	-45.5	16.7	0.00e+00	0	43	0	0	57	4817
2026-01-12 00:04:25.50	10.14	19.22	-43.0	-45.1	17.1	0.00e+00	0	43	0	0	57	4643
2026-01-12 00:04:28.43	10.01	19.58	-43.0	-45.1	17.1	0.00e+00	0	43	0	0	57	4626
2026-01-12 00:04:31.55	9.86	19.98	-42.9	-45.0	17.2	0.00e+00	0	43	0	0	57	4576
2026-01-12 00:04:34.39	9.73	20.34	-42.8	-44.9	17.3	0.00e+00	0	43	0	0	57	4495
2026-01-12 00:04:37.52	9.57	20.75	-42.6	-44.7	17.4	0.00e+00	0	43	0	0	57	4403
2026-01-12 00:04:40.37	9.43	21.13	-42.5	-44.5	17.6	0.00e+00	0	43	0	0	56	4567
2026-01-12 00:04:43.57	9.27	21.56	-42.5	-44.5	17.6	0.00e+00	0	43	0	0	56	4573
2026-01-12 00:04:46.42	9.11	21.95	-42.2	-44.2	17.9	0.00e+00	0	43	0	0	56	4420
2026-01-12 00:04:49.54	8.94	22.39	-42.1	-44.0	18.1	0.00e+00	0	43	0	0	56	4319
2026-01-12 00:04:52.38	8.78	22.79	-41.7	-43.6	18.3	0.00e+00	0	43	0	0	55	4357
2026-01-12 00:04:55.51	8.60	23.23	-41.6	-43.4	18.5	0.00e+00	0	43	0	0	55	4279
2026-01-12 00:04:58.35	8.43	23.65	-41.6	-43.4	18.5	0.00e+00	0	43	0	0	54	4540
2026-01-12 00:05:01.54	8.24	24.12	-41.5	-43.4	18.6	0.00e+00	0	43	0	0	54	4495
2026-01-12 00:05:04.44	8.05	24.56	-41.5	-43.4	18.6	0.00e+00	0	43	0	0	54	4510
2026-01-12 00:05:07.57	7.85	25.04	-41.7	-43.5	18.4	0.00e+00	0	43	0	0	54	4594
2026-01-12 00:05:10.41	7.66	25.48	-41.9	-43.8	18.2	0.00e+00	0	43	0	0	54	4731
2026-01-12 00:05:13.54	7.44	25.98	-42.0	-44.0	18.1	0.00e+00	0	43	0	0	54	4815
2026-01-12 00:05:16.38	7.24	26.43	-42.3	-44.3	17.8	0.00e+00	0	43	0	0	55	4716
2026-01-12 00:05:19.51	7.01	26.95	-42.5	-44.5	17.6	0.00e+00	0	43	0	0	55	4829
2026-01-12 00:05:22.46	6.78	27.44	-42.5	-44.4	17.6	0.00e+00	0	43	0	0	55	4804
2026-01-12 00:05:25.58	6.53	27.97	-42.5	-44.4	17.7	0.00e+00	0	43	0	0	55	4800
2026-01-12 00:05:28.42	6.30	28.46	-42.4	-44.4	17.7	0.00e+00	0	43	0	0	55	4775
2026-01-12 00:05:31.55	6.04	29.01	-42.6	-44.6	17.5	0.00e+00	0	43	0	0	55	4874
2026-01-12 00:05:34.40	5.79	29.52	-42.8	-44.8	17.4	0.00e+00	0	43	0	0	56	4726
2026-01-12 00:05:37.60	5.50	30.10	-42.8	-44.8	17.4	0.00e+00	0	43	0	0	56	4754
2026-01-12 00:05:40.49	5.22	30.63	-42.6	-44.6	17.6	0.00e+00	0	43	0	0	56	4629
2026-01-12 00:05:43.52	4.93	31.21	-42.5	-44.4	17.7	0.00e+00	0	43	0	0	56	4534
2026-01-12 00:05:46.51	4.63	31.78	-42.6	-44.6	17.6	0.00e+00	0	43	0	0	56	4636
2026-01-12 00:05:49.49	4.31	32.36	-42.7	-44.7	17.4	0.00e+00	0	43	0	0	56	4704
2026-01-12 00:05:52.48	3.99	32.96	-42.9	-44.9	17.3	0.00e+00	0	43	0	0	56	4802
2026-01-12 00:05:55.47	3.65	33.57	-43.2	-45.2	17.0	0.00e+00	0	43	0	0	57	4703
2026-01-12 00:05:58.45	3.30	34.18	-43.2	-45.3	16.9	0.00e+00	0	43	0	0	57	4729
2026-01-12 00:06:01.43	2.94	34.81	-43.3	-45.5	16.8	0.00e+00	0	43	0	0	57	4827
2026-01-12 00:06:04.42	2.56	35.45	-43.7	-46.0	16.3	0.00e+00	0	43	0	0	58	4841
2026-01-12 00:06:07.40	2.16	36.10	-44.2	-46.5	15.8	0.00e+00	0	43	0	0	58	5142
2026-01-12 00:06:10.39	1.75	36.76	-44.5	-47.0	15.4	0.00e+00	0	43	0	0	59	5109
2026-01-12 00:06:13.35	1.32	37.43	-44.7	-47.2	15.2	0.00e+00	0	43	0	0	60	4949
2026-01-12 00:06:16.46	0.85	38.14	-44.5	-47.0	15.4	0.00e+00	0	43	0	0	60	4846
2026-01-12 00:06:19.39	0.39	38.83	-44.4	-46.8	15.6	0.00e+00	0	43	0	0	60	4754
2026-01-12 00:06:22.37	359.90	39.54	-44.5	-46.9	15.5	0.00e+00	0	43	0	0	60	4806
2026-01-12 00:06:25.36	359.39	40.26	-44.3	-46.7	15.8	0.00e+00	0	43	0	0	60	4653
2026-01-12 00:06:28.34	358.85	41.00	-43.8	-46.0	16.4	0.00e+00	0	43	0	0	59	4596
2026-01-12 00:06:31.33	358.29	41.75	-43.9	-46.1	16.3	0.00e+00	0	43	0	0	59	4628
2026-01-12 00:06:34.32	357.70	42.51	-44.4	-46.9	15.4	0.00e+00	0	43	0	0	59	5046
2026-01-12 00:06:37.30	357.08	43.28	-44.7	-47.2	15.3	0.00e+00	0	43	0	0	60	4953
2026-01-12 00:06:40.28	356.43	44.06	-44.6	-47.1	15.5	0.00e+00	0	43	0	0	60	4885
2026-01-12 00:06:43.27	355.75	44.86	-45.1	-47.7	14.8	0.00e+00	0	43	0	0	60	5274
2026-01-12 00:06:46.30	355.02	45.67	-45.2	-47.9	14.6	7.00e-07	0	43	0	0	61	5059
2026-01-12 00:06:49.23	354.27	46.48	-44.9	-47.4	15.2	0.00e+00	0	43	0	0	61	4766
2026-01-12 00:06:52.60	353.37	47.41	-44.5	-46.9	15.6	0.00e+00	0	43	0	0	60	4791
2026-01-12 00:06:55.32	352.59	48.18	-44.0	-46.3	16.2	0.00e+00	0	43	0	0	60	4479
2026-01-12 00:06:58.61	351.61	49.11	-43.7	-45.9	16.5	0.00e+00	0	43	0	0	59	4500
2026-01-12 00:07:01.35	350.73	49.90	-44.3	-46.8	15.7	0.00e+00	0	43	0	0	59	4988
2026-01-12 00:07:04.63	349.63	50.85	-44.3	-46.6	15.8	0.00e+00	0	43	0	0	59	4912
2026-01-12 00:07:07.36	348.65	51.65	-44.2	-46.5	15.9	0.00e+00	0	43	0	0	59	4837
2026-01-12 00:07:10.77	347.36	52.65	-43.9	-46.2	16.3	0.00e+00	0	43	0	0	59	4678
2026-01-12 00:07:13.53	346.25	53.46	-43.9	-46.1	16.3	0.00e+00	0	43	0	0	59	4639
2026-01-12 00:07:16.82	344.83	54.43	-43.7	-45.9	16.6	0.00e+00	0	43	0	0	59	4501
2026-01-12 00:07:19.57	343.57	55.24	-42.5	-44.4	17.9	0.00e+00	0	43	0	0	56	4541
2026-01-12 00:07:22.85	341.98	56.20	-42.9	-44.9	17.5	0.00e+00	0	43	0	0	56	4782
2026-01-12 00:07:26.02	340.32	57.13	-42.2	-44.1	18.0	0.00e+00	0	43	0	0	56	4360
2026-01-12 00:07:29.15	338.57	58.03	-42.4	-44.3	17.8	0.00e+00	0	43	0	0	56	4477
2026-01-12 00:07:31.99	336.88	58.84	-42.3	-44.3	17.9	0.00e+00	0	43	0	0	56	4451
2026-01-12 00:07:35.04	334.95	59.70	-42.1	-44.0	18.2	0.00e+00	0	43	0	0	56	4318
2026-01-12 00:07:38.02	332.93	60.51	-41.7	-43.6	18.5	0.00e+00	0	43	0	0	55	4359
2026-01-12 00:07:41.00	330.78	61.30	-41.7	-43.6	18.4	0.00e+00	0	43	0	0	55	4389
2026-01-12 00:07:43.99	328.48	62.07	-41.3	-43.1	18.9	0.00e+00	0	43	0	0	54	4359
2026-01-12 00:07:46.97	326.05	62.80	-41.5	-43.3	18.7	0.00e+00	0	43	0	0	54	4480
2026-01-12 00:07:49.96	323.46	63.49	-41.9	-43.8	18.2	0.00e+00	0	43	0	0	54	4755
2026-01-12 00:07:52.94	320.72	64.13	-42.2	-44.2	18.0	0.00e+00	0	43	0	0	55	4672
2026-01-12 00:07:55.93	317.83	64.73	-41.7	-43.6	18.5	0.00e+00	0	43	0	0	55	4352
2026-01-12 00:07:58.96	314.74	65.28	-42.0	-43.9	18.2	0.00e+00	0	43	0	0	55	4541
2026-01-12 00:08:01.91	311.59	65.75	-41.4	-43.3	18.8	0.00e+00	0	43	0	0	54	4451
2026-01-12 00:08:04.90	308.27	66.15	-41.5	-43.3	18.8	0.00e+00	0	43	0	0	54	4467
2026-01-12 00:08:07.89	304.84	66.49	-41.1	-42.8	19.2	0.00e+00	0	43	0	0	54	4217
2026-01-12 00:08:10.87	301.31	66.74	-40.6	-42.3	19.6	0.00e+00	0	43	0	0	53	4208
2026-01-12 00:08:13.86	297.71	66.92	-41.0	-42.7	19.1	0.00e+00	0	43	0	0	53	4434
2026-01-12 00:08:16.98	293.90	67.01	-40.7	-42.5	19.5	0.00e+00	0	43	0	0	53	4305
2026-01-12 00:08:19.82	290.41	67.01	-41.3	-43.1	18.9	0.00e+00	0	43	0	0	53	4622
2026-01-12 00:08:22.94	286.60	66.92	-41.0	-42.7	19.3	0.00e+00	0	43	0	0	53	4418
2026-01-12 00:08:25.79	283.16	66.76	-41.8	-43.6	18.3	0.00e+00	0	43	0	0	54	4630
2026-01-12 00:08:29.02	279.34	66.48	-41.4	-43.2	18.8	0.00e+00	0	43	0	0	54	4417
2026-01-12 00:08:31.91	276.01	66.16	-41.1	-42.9	19.0	0.00e+00	0	43	0	0	54	4259
2026-01-12 00:08:35.09	272.48	65.73	-40.9	-42.7	19.2	0.00e+00	0	43	0	0	53	4408
2026-01-12 00:08:37.93	269.45	65.27	-41.2	-43.0	18.9	0.00e+00	0	43	0	0	53	4578
2026-01-12 00:08:41.05	266.27	64.71	-41.5	-43.4	18.5	0.00e+00	0	43	0	0	53	4762
2026-01-12 00:08:43.90	263.51	64.14	-41.4	-43.2	18.8	0.00e+00	0	43	0	0	54	4417
2026-01-12 00:08:47.02	260.65	63.46	-41.3	-43.1	18.9	0.00e+00	0	43	0	0	54	4389
2026-01-12 00:08:49.97	258.09	62.77	-41.8	-43.7	18.4	0.00e+00	0	43	0	0	54	4698
2026-01-12 00:08:53.10	255.54	62.00	-41.8	-43.7	18.3	0.00e+00	0	43	0	0	54	4697
2026-01-12 00:08:56.00	253.32	61.26	-41.8	-43.7	18.4	0.00e+00	0	43	0	0	54	4677
2026-01-12 00:08:58.98	251.17	60.46	-41.4	-43.2	18.6	0.00e+00	0	43	0	0	54	4426
2026-01-12 00:09:01.97	249.15	59.64	-41.8	-43.7	18.4	0.00e+00	0	43	0	0	54	4687
2026-01-12 00:09:05.00	247.23	58.79	-42.2	-44.2	17.7	0.00e+00	0	43	0	0	55	4659
2026-01-12 00:09:07.92	245.49	57.96	-41.4	-43.1	18.8	0.00e+00	0	43	0	0	54	4387
2026-01-12 00:09:10.91	243.82	57.09	-43.8	-46.0	16.4	0.00e+00	0	43	0	0	58	4841
2026-01-12 00:09:13.89	242.27	56.22	-42.5	-44.4	17.9	0.00e+00	0	43	0	0	57	4279
2026-01-12 00:09:16.87	240.80	55.34	-43.0	-45.0	17.3	0.00e+00	0	43	0	0	56	4845
2026-01-12 00:09:19.87	239.42	54.45	-44.4	-46.8	15.5	0.00e+00	0	43	0	0	59	4999
2026-01-12 00:09:22.96	238.08	53.54	-42.2	-44.1	17.9	0.00e+00	0	43	0	0	56	4343
2026-01-12 00:09:25.80	236.92	52.70	-43.3	-45.4	16.9	0.00e+00	0	43	0	0	57	4765
2026-01-12 00:09:28.93	235.72	51.78	-44.4	-46.7	15.6	0.00e+00	0	43	0	0	59	4967
2026-01-12 00:09:31.77	234.70	50.94	-43.5	-45.6	16.5	0.00e+00	0	43	0	0	58	4614
2026-01-12 00:09:34.89	233.63	50.04	-43.9	-46.1	16.2	0.00e+00	0	43	0	0	58	4898
2026-01-12 00:09:37.80	232.70	49.20	-44.7	-47.1	15.2	7.00e-07	0	43	0	0	60	4888
2026-01-12 00:09:40.98	231.73	48.29	-45.4	-48.2	13.9	3.80e-06	0	43	0	0	61	5221
2026-01-12 00:09:43.83	230.91	47.48	-44.1	-46.4	15.7	0.00e+00	0	43	0	0	60	4527
2026-01-12 00:09:46.96	230.06	46.61	-44.7	-47.3	15.1	0.00e+00	0	43	0	0	60	4989
2026-01-12 00:09:49.80	229.33	45.82	-44.6	-47.1	15.1	0.00e+00	0	43	0	0	61	4611
2026-01-12 00:09:52.97	228.55	44.96	-44.3	-46.6	15.8	0.00e+00	0	43	0	0	60	4611
2026-01-12 00:09:55.83	227.89	44.19	-44.3	-46.6	15.8	0.00e+00	0	43	0	0	60	4633
2026-01-12 00:09:59.11	227.16	43.33	-43.9	-46.1	16.2	0.00e+00	0	43	0	0	59	4622
2026-01-12 00:10:01.93	226.57	42.59	-45.2	-47.8	14.6	0.00e+00	0	43	0	0	61	5024
2026-01-12 00:10:05.06	225.95	41.79	-44.8	-47.3	14.9	0.00e+00	0	43	0	0	61	4742
2026-01-12 00:10:07.90	225.40	41.07	-44.3	-46.6	15.7	0.00e+00	0	43	0	0	60	4637
2026-01-12 00:10:11.04	224.83	40.29	-44.6	-47.1	15.4	0.00e+00	0	43	0	0	60	4873
2026-01-12 00:10:13.88	224.34	39.60	-44.4	-46.8	15.6	0.00e+00	0	43	0	0	60	4714
2026-01-12 00:10:17.08	223.81	38.83	-44.6	-47.1	15.3	0.00e+00	0	43	0	0	60	4873
2026-01-12 00:10:19.93	223.36	38.16	-44.7	-47.2	15.2	7.00e-07	0	43	0	0	60	4972
2026-01-12 00:10:23.02	222.89	37.45	-43.9	-46.1	16.1	0.00e+00	0	43	0	0	59	4618
2026-01-12 00:10:26.00	222.45	36.77	-43.3	-45.4	16.7	0.00e+00	0	43	0	0	58	4540
2026-01-12 00:10:28.99	222.04	36.10	-44.3	-46.7	15.6	0.00e+00	0	43	0	0	59	4932
2026-01-12 00:10:31.97	221.64	35.45	-44.7	-47.3	15.1	7.00e-07	0	43	0	0	60	4988
2026-01-12 00:10:34.95	221.25	34.81	-43.9	-46.1	16.0	0.00e+00	0	43	0	0	59	4631
2026-01-12 00:10:37.94	220.88	34.17	-43.5	-45.6	16.6	0.00e+00	0	43	0	0	59	4373
2026-01-12 00:10:40.92	220.53	33.55	-43.5	-45.6	16.6	0.00e+00	0	43	0	0	58	4614
2026-01-12 00:10:43.91	220.19	32.94	-43.2	-45.3	16.9	0.00e+00	0	43	0	0	58	4478
2026-01-12 00:10:46.89	219.86	32.35	-43.1	-45.2	17.1	0.00e+00	0	43	0	0	58	4393
2026-01-12 00:10:49.90	219.54	31.75	-43.1	-45.3	17.0	0.00e+00	0	43	0	0	58	4442
2026-01-12 00:10:52.88	219.24	31.18	-43.4	-45.6	16.7	0.00e+00	0	43	0	0	58	4622
2026-01-12 00:10:55.87	218.94	30.61	-43.5	-45.6	16.7	0.00e+00	0	43	0	0	58	4644
2026-01-12 00:10:58.85	218.66	30.05	-43.0	-45.0	17.2	0.00e+00	0	43	0	0	58	4298
2026-01-12 00:11:01.83	218.38	29.51	-42.5	-44.5	17.6	0.00e+00	0	43	0	0	57	4307
2026-01-12 00:11:04.88	218.11	28.96	-42.4	-44.3	17.8	0.00e+00	0	43	0	0	56	4459
2026-01-12 00:11:07.83	217.86	28.44	-42.6	-44.6	17.5	0.00e+00	0	43	0	0	56	4599
2026-01-12 00:11:10.96	217.60	27.89	-42.5	-44.5	17.6	0.00e+00	0	43	0	0	56	4573
2026-01-12 00:11:13.80	217.37	27.41	-42.6	-44.5	17.7	0.00e+00	0	43	0	0	56	4584
2026-01-12 00:11:16.92	217.13	26.88	-42.6	-44.6	17.6	0.00e+00	0	43	0	0	56	4629
2026-01-12 00:11:19.77	216.92	26.41	-42.6	-44.6	17.6	0.00e+00	0	43	0	0	56	4620
2026-01-12 00:11:22.92	216.69	25.90	-42.4	-44.3	17.8	0.00e+00	0	43	0	0	56	4482
2026-01-12 00:11:25.80	216.49	25.45	-42.2	-44.2	17.9	0.00e+00	0	43	0	0	56	4401
2026-01-12 00:11:29.10	216.26	24.93	-42.1	-44.0	18.1	0.00e+00	0	43	0	0	56	4305
2026-01-12 00:11:32.30	216.05	24.44	-41.8	-43.7	18.2	0.00e+00	0	43	0	0	55	4400
2026-01-12 00:11:35.14	215.87	24.01	-41.9	-43.8	18.1	0.00e+00	0	43	0	0	55	4446
2026-01-12 00:11:38.43	215.66	23.52	-42.1	-44.0	17.9	0.00e+00	0	43	0	0	55	4573
2026-01-12 00:11:41.15	215.50	23.12	-42.1	-44.0	17.9	0.00e+00	0	43	0	0	55	4578
2026-01-12 00:11:44.92	215.28	22.58	-42.1	-44.1	17.8	0.00e+00	0	43	0	0	55	4607
2026-01-12 00:11:47.63	215.12	22.19	-42.3	-44.2	17.6	0.00e+00	0	43	0	0	55	4688
2026-01-12 00:11:50.90	214.94	21.74	-42.3	-44.2	17.7	0.00e+00	0	43	0	0	55	4693
2026-01-12 00:11:53.79	214.79	21.34	-42.2	-44.1	17.8	0.00e+00	0	43	0	0	55	4636
2026-01-12 00:11:57.18	214.61	20.89	-42.1	-44.0	17.9	0.00e+00	0	43	0	0	55	4594
2026-01-12 00:11:59.90	214.48	20.53	-42.1	-44.1	17.8	0.00e+00	0	43	0	0	55	4611
2026-01-12 00:12:03.26	214.31	20.09	-42.1	-44.1	17.8	0.00e+00	0	43	0	0	55	4630
2026-01-12 00:12:05.98	214.18	19.74	-42.3	-44.3	17.6	0.00e+00	0	43	0	0	55	4715
2026-01-12 00:12:09.25	214.03	19.32	-42.5	-44.5	17.4	0.00e+00	0	43	0	0	55	4865
2026-01-12 00:12:12.06	213.90	18.97	-42.6	-44.6	17.3	0.00e+00	0	43	0	0	55	4922
2026-01-12 00:12:15.25	213.76	18.58	-42.8	-44.9	17.2	0.00e+00	0	43	0	0	56	4801
2026-01-12 00:12:18.09	213.64	18.24	-42.8	-44.9	17.2	0.00e+00	0	43	0	0	56	4775
2026-01-12 00:12:21.22	213.50	17.86	-42.9	-45.0	17.1	0.00e+00	0	43	0	0	56	4822
2026-01-12 00:12:24.14	213.38	17.52	-42.9	-44.9	17.1	0.00e+00	0	43	0	0	56	4800
2026-01-12 00:12:27.32	213.26	17.15	-43.0	-45.0	17.0	0.00e+00	0	43	0	0	56	4866
2026-01-12 00:12:30.16	213.15	16.82	-43.1	-45.2	16.8	0.00e+00	0	43	0	0	56	4948
2026-01-12 00:12:33.49	213.02	16.45	-43.2	-45.3	16.7	0.00e+00	0	43	0	0	56	5014
2026-01-12 00:12:36.73	212.90	16.09	-43.3	-45.4	16.6	0.00e+00	0	43	0	0	57	4795
2026-01-12 00:12:39.71	212.79	15.76	-43.3	-45.5	16.5	0.00e+00	0	43	0	0	57	4833
2026-01-12 00:12:42.70	212.68	15.43	-43.3	-45.5	16.5	0.00e+00	0	43	0	0	57	4845
2026-01-12 00:12:45.73	212.58	15.11	-43.2	-45.4	16.6	0.00e+00	0	43	0	0	57	4796
2026-01-12 00:12:48.72	212.48	14.79	-43.2	-45.4	16.6	0.00e+00	0	43	0	0	57	4785
2026-01-12 00:12:52.23	212.36	14.43	-43.3	-45.5	16.5	0.00e+00	0	43	0	0	57	4824
2026-01-12 00:12:54.99	212.27	14.14	-43.1	-45.2	16.7	0.00e+00	0	43	0	0	57	4693
2026-01-12 00:12:58.28	212.17	13.81	-43.2	-45.3	16.7	0.00e+00	0	43	0	0	57	4730
2026-01-12 00:13:00.99	212.09	13.54	-43.1	-45.3	16.7	0.00e+00	0	43	0	0	57	4709
2026-01-12 00:13:04.26	211.99	13.21	-43.2	-45.3	16.6	0.00e+00	0	43	0	0	57	4743
2026-01-12 00:13:07.00	211.91	12.95	-43.2	-45.4	16.6	0.00e+00	0	43	0	0	57	4770
2026-01-12 00:13:10.30	211.81	12.63	-43.2	-45.3	16.6	0.00e+00	0	43	0	0	57	4733
2026-01-12 00:13:13.00	211.74	12.37	-43.2	-45.3	16.6	0.00e+00	0	43	0	0	57	4750
2026-01-12 00:13:16.28	211.65	12.06	-43.2	-45.3	16.6	0.00e+00	0	43	0	0	57	4752
2026-01-12 00:13:19.00	211.57	11.80	-43.2	-45.3	16.5	0.00e+00	0	43	0	0	57	4759
2026-01-12 00:13:22.29	211.49	11.50	-43.2	-45.3	16.6	0.00e+00	0	43	0	0	57	4754
2026-01-12 00:13:25.26	211.41	11.23	-43.3	-45.4	16.4	0.00e+00	0	43	0	0	57	4812
2026-01-12 00:13:28.76	211.32	10.91	-43.3	-45.5	16.4	0.00e+00	0	43	0	0	57	4828
2026-01-12 00:13:31.47	211.25	10.67	-43.4	-45.6	16.3	0.00e+00	0	43	0	0	57	4905
2026-01-12 00:13:34.77	211.17	10.38	-43.4	-45.6	16.3	0.00e+00	0	43	0	0	57	4900
2026-01-12 00:13:37.51	211.11	10.14	-43.4	-45.6	16.2	0.00e+00	0	43	0	0	57	4898
2026-01-12 00:13:40.83	211.03	9.85	-43.4	-45.7	16.2	0.00e+00	0	43	0	0	57	4942
2026-01-12 00:13:43.66	210.96	9.61	-43.5	-45.8	16.1	0.00e+00	0	43	0	0	57	5001
2026-01-12 00:13:47.23	210.88	9.30	-43.7	-46.1	15.8	0.00e+00	0	43	0	0	58	4880
2026-01-12 00:13:50.07	210.82	9.07	-43.8	-46.1	15.7	0.00e+00	0	43	0	0	58	4900
2026-01-12 00:13:53.19	210.75	8.81	-50.5	-63.6	3.8	1.49e+00	0	43	104	0	71	17401
2026-01-12 00:13:56.07	210.69	8.57	-50.7	-63.7	3.8	1.49e+00	0	43	104	0	72	16688
2026-01-12 00:13:59.32	210.62	8.31	-50.9	-63.8	3.8	1.49e+00	0	43	104	0	72	16795
2026-01-12 00:14:02.24	210.56	8.07	-50.8	-63.8	3.8	1.49e+00	0	43	104	0	72	16805
2026-01-12 00:14:05.78	210.49	7.79	-50.9	-63.8	3.8	1.49e+00	0	43	104	0	72	16779
2026-01-12 00:14:08.56	210.44	7.57	-50.7	-63.8	3.8	1.49e+00	0	43	104	0	72	16732
2026-01-12 00:14:11.84	210.38	7.31	-50.6	-63.7	3.8	1.49e+00	0	43	104	0	72	16636
2026-01-12 00:14:14.54	210.33	7.10	-50.6	-63.7	3.8	1.49e+00	0	43	104	0	72	16671
2026-01-12 00:14:17.80	210.26	6.85	-50.6	-63.7	3.8	1.49e+00	0	43	104	0	72	16625
2026-01-12 00:14:20.51	210.22	6.64	-50.6	-63.7	3.8	1.49e+00	0	43	104	0	72	16651
2026-01-12 00:14:23.78	210.16	6.40	-50.6	-63.7	3.8	1.49e+00	0	43	104	0	72	16690
2026-01-12 00:14:26.49	210.11	6.19	-50.6	-63.7	3.8	1.49e+00	0	43	104	0	72	16633
2026-01-12 00:14:29.77	210.05	5.95	-50.6	-63.7	3.8	1.49e+00	0	43	104	0	72	16651
2026-01-12 00:14:32.47	210.01	5.75	-50.6	-63.7	3.8	1.49e+00	0	43	104	0	72	16635
2026-01-12 00:14:35.75	209.95	5.51	-50.6	-63.7	3.8	1.49e+00	0	43	104	0	72	16657
2026-01-12 00:14:38.46	209.91	5.31	-50.6	-63.7	3.8	1.49e+00	0	43	104	0	72	16588
2026-01-12 00:14:41.74	209.85	5.08	-50.6	-63.7	3.8	1.49e+00	0	43	104	0	72	16632

#Closed at: 2026-01-12 00:14:44
#Recorded file [0 MB]: D:/Data/31040_260112_030152.dat