passes_logs/2026/01/12/T1/T1__20260112_104302_NOAA_20_JPSS-1_rec.log

#Pass ID: 20260112_104302_NOAA 20 (JPSS-1)
#Satellite: NOAA 20 (JPSS-1)
#Configuration: NOAA 20
#almurnet v.1.7.20251203
#Start time: 2026-01-12 10:43:02

#Version: 2.0.20230620
#Station: T1
#Location: 37.570604 lon 55.790049 lat
#TLE: 1 43013U 17073A   26011.94672141  .00000095  00000+0  65817-4 0  9997
#TLE: 2 43013  98.7632 312.9184 0001627  43.8068 316.3237 14.19535462422307

#Time	Az	El	Level	Level2	SNR	BER	BlckErr	Temp	State	Recorded	gain1	gain2
2026-01-12 10:43:02.82	185.37	5.01	-51.3	-67.0	3.8	1.49e+00	0	41	0	0	73	22898
2026-01-12 10:43:05.80	185.51	5.22	-51.1	-66.6	3.8	1.49e+00	0	41	104	0	73	21858
2026-01-12 10:43:08.79	185.64	5.42	-51.1	-66.5	3.8	1.49e+00	0	41	104	0	73	21532
2026-01-12 10:43:11.78	185.78	5.63	-51.1	-66.5	3.8	1.49e+00	0	41	104	0	73	21744
2026-01-12 10:43:14.76	185.93	5.84	-51.1	-66.6	3.8	1.49e+00	0	41	104	0	73	21958
2026-01-12 10:43:17.75	186.07	6.06	-51.1	-66.3	3.8	1.49e+00	0	41	104	0	73	21153
2026-01-12 10:43:20.74	186.22	6.27	-51.1	-65.9	3.8	1.49e+00	0	42	104	0	73	20171
2026-01-12 10:43:23.73	186.36	6.48	-51.1	-65.5	3.8	1.49e+00	0	42	104	0	73	19194
2026-01-12 10:43:26.72	186.51	6.70	-51.0	-65.1	3.8	1.49e+00	0	42	104	0	73	18416
2026-01-12 10:43:29.71	186.67	6.92	-51.0	-64.9	3.8	1.49e+00	0	42	104	0	73	18081
2026-01-12 10:43:32.70	186.82	7.14	-51.0	-66.0	3.8	1.49e+00	0	42	104	0	73	20315
2026-01-12 10:43:35.68	186.98	7.36	-51.0	-66.2	3.8	1.49e+00	0	42	104	0	73	20874
2026-01-12 10:43:38.67	187.13	7.59	-50.5	-59.7	6.0	4.62e-01	0	42	0	2097152	72	10488
2026-01-12 10:43:41.66	187.30	7.81	-49.4	-55.2	10.3	1.57e-02	0	42	0	7340032	70	7017
2026-01-12 10:43:44.65	187.46	8.04	-48.3	-52.9	12.8	1.59e-04	0	43	0	12582912	68	6011
2026-01-12 10:43:47.64	187.63	8.27	-48.2	-52.6	13.1	2.05e-05	0	42	0	18874368	68	5801
2026-01-12 10:43:50.63	187.79	8.50	-48.7	-53.7	11.9	1.58e-04	0	42	0	24117248	68	6581
2026-01-12 10:43:53.62	187.96	8.73	-49.6	-55.8	9.7	6.25e-03	0	43	0	29360128	69	7941
2026-01-12 10:43:56.61	188.14	8.97	-50.2	-58.2	7.3	1.18e-01	0	43	0	35651584	71	9330
2026-01-12 10:43:59.60	188.31	9.21	-50.5	-59.3	6.5	1.10e-01	0	43	0	40894464	71	10551
2026-01-12 10:44:02.61	188.50	9.45	-50.1	-57.4	7.9	7.14e-01	0	43	0	46137344	72	7993
2026-01-12 10:44:05.61	188.68	9.69	-48.3	-52.9	12.7	6.10e-05	0	43	0	52428800	68	6048
2026-01-12 10:44:08.61	188.86	9.94	-47.7	-51.9	13.6	1.06e-05	0	43	0	57671680	67	5695
2026-01-12 10:44:11.61	189.05	10.18	-47.6	-51.7	13.9	9.10e-06	0	43	0	62914560	67	5538
2026-01-12 10:44:14.61	189.24	10.43	-47.5	-51.6	14.0	7.00e-07	0	43	0	69206016	66	5794
2026-01-12 10:44:17.62	189.44	10.68	-47.4	-51.5	14.1	7.00e-07	0	43	0	74448896	66	5746
2026-01-12 10:44:20.62	189.64	10.94	-47.3	-51.2	14.4	7.00e-07	0	43	0	80740352	66	5561
2026-01-12 10:44:23.62	189.84	11.19	-47.2	-50.9	14.8	0.00e+00	0	43	0	85983232	66	5348
2026-01-12 10:44:26.62	190.04	11.45	-47.1	-50.7	14.9	7.00e-07	0	43	0	91226112	66	5258
2026-01-12 10:44:29.63	190.25	11.71	-47.0	-50.6	15.1	0.00e+00	0	43	0	97517568	66	5180
2026-01-12 10:44:32.64	190.46	11.98	-46.9	-50.4	15.2	0.00e+00	0	43	0	102760448	65	5382
2026-01-12 10:44:35.64	190.68	12.24	-46.9	-50.3	15.3	0.00e+00	0	43	0	108003328	65	5328
2026-01-12 10:44:38.64	190.90	12.51	-46.9	-50.1	15.6	0.00e+00	0	43	0	114294784	65	5196
2026-01-12 10:44:41.64	191.12	12.78	-46.9	-50.1	15.6	0.00e+00	0	43	0	119537664	65	5205
2026-01-12 10:44:44.64	191.35	13.06	-46.8	-50.1	15.6	0.00e+00	0	43	0	125829120	65	5167
2026-01-12 10:44:47.65	191.58	13.33	-46.8	-50.1	15.5	0.00e+00	0	43	0	131072000	65	5182
2026-01-12 10:44:50.66	191.81	13.61	-46.9	-50.2	15.4	0.00e+00	0	43	0	136314880	65	5222
2026-01-12 10:44:53.67	192.05	13.90	-46.8	-50.0	15.6	0.00e+00	0	43	0	142606336	65	5128
2026-01-12 10:44:56.67	192.30	14.18	-46.8	-50.0	15.7	0.00e+00	0	43	0	147849216	65	5135
2026-01-12 10:44:59.68	192.55	14.47	-46.8	-50.1	15.7	0.00e+00	0	43	0	153092096	65	5177
2026-01-12 10:45:02.68	192.80	14.76	-46.7	-49.9	15.8	0.00e+00	0	43	0	159383552	65	5050
2026-01-12 10:45:05.68	193.06	15.05	-46.7	-49.8	15.9	0.00e+00	0	43	0	164626432	65	5011
2026-01-12 10:45:08.68	193.32	15.35	-46.6	-49.7	16.0	0.00e+00	0	44	0	170917888	65	4948
2026-01-12 10:45:11.68	193.59	15.65	-46.5	-49.5	16.3	0.00e+00	0	43	0	176160768	65	4830
2026-01-12 10:45:14.68	193.86	15.95	-46.4	-49.4	16.3	0.00e+00	0	43	0	181403648	64	5089
2026-01-12 10:45:17.68	194.14	16.26	-46.3	-49.3	16.5	0.00e+00	0	43	0	187695104	64	5000
2026-01-12 10:45:20.67	194.43	16.57	-46.4	-49.4	16.4	0.00e+00	0	43	0	192937984	64	5046
2026-01-12 10:45:23.68	194.72	16.88	-46.3	-49.3	16.5	0.00e+00	0	43	0	198180864	64	4990
2026-01-12 10:45:26.68	195.01	17.20	-46.4	-49.4	16.4	0.00e+00	0	43	0	204472320	64	5094
2026-01-12 10:45:29.69	195.31	17.52	-46.5	-49.6	16.2	0.00e+00	0	43	0	209715200	64	5178
2026-01-12 10:45:32.69	195.62	17.84	-46.6	-49.7	16.2	0.00e+00	0	43	0	216006656	64	5225
2026-01-12 10:45:35.69	195.94	18.17	-46.7	-49.8	16.1	0.00e+00	0	44	0	221249536	64	5285
2026-01-12 10:45:38.70	196.26	18.50	-46.8	-49.9	15.9	0.00e+00	0	44	0	226492416	64	5372
2026-01-12 10:45:41.70	196.59	18.83	-46.9	-49.9	15.9	0.00e+00	0	44	0	232783872	64	5394
2026-01-12 10:45:44.70	196.92	19.17	-47.1	-50.2	15.7	0.00e+00	0	43	0	238026752	64	5530
2026-01-12 10:45:47.70	197.27	19.51	-47.0	-50.1	15.8	0.00e+00	0	44	0	243269632	64	5521
2026-01-12 10:45:50.71	197.62	19.86	-47.0	-50.1	15.8	0.00e+00	0	43	0	249561088	64	5491
2026-01-12 10:45:53.70	197.97	20.20	-46.9	-50.0	15.9	0.00e+00	0	43	0	254803968	64	5437
2026-01-12 10:45:56.70	198.34	20.56	-47.0	-50.2	15.8	0.00e+00	0	43	0	260046848	64	5529
2026-01-12 10:45:59.70	198.71	20.91	-47.1	-50.3	15.6	0.00e+00	0	44	0	266338304	64	5633
2026-01-12 10:46:02.71	199.10	21.27	-47.0	-50.1	15.9	0.00e+00	0	44	0	271581184	64	5494
2026-01-12 10:46:05.71	199.49	21.64	-47.0	-50.0	15.9	0.00e+00	0	44	0	277872640	64	5435
2026-01-12 10:46:08.72	199.89	22.01	-46.9	-49.9	16.1	0.00e+00	0	44	0	283115520	64	5346
2026-01-12 10:46:11.72	200.30	22.38	-46.9	-49.8	16.2	0.00e+00	0	43	0	288358400	64	5324
2026-01-12 10:46:14.73	200.72	22.76	-47.0	-50.0	16.0	0.00e+00	0	44	0	294649856	64	5450
2026-01-12 10:46:17.73	201.15	23.14	-47.0	-50.0	16.0	0.00e+00	0	44	0	299892736	64	5406
2026-01-12 10:46:20.73	201.59	23.52	-47.1	-50.1	15.9	0.00e+00	0	44	0	305135616	64	5504
2026-01-12 10:46:23.74	202.04	23.91	-47.1	-50.2	15.8	0.00e+00	0	43	0	311427072	65	5255
2026-01-12 10:46:26.74	202.50	24.30	-47.0	-50.0	16.0	0.00e+00	0	44	0	316669952	65	5154
2026-01-12 10:46:29.75	202.98	24.70	-46.9	-49.9	16.1	0.00e+00	0	44	0	322961408	65	5056
2026-01-12 10:46:32.74	203.46	25.10	-47.0	-50.0	16.1	0.00e+00	0	43	0	328204288	65	5118
2026-01-12 10:46:35.75	203.96	25.50	-47.1	-50.1	15.9	0.00e+00	0	44	0	333447168	65	5212
2026-01-12 10:46:38.75	204.47	25.91	-47.2	-50.3	15.7	0.00e+00	0	44	0	339738624	65	5319
2026-01-12 10:46:41.75	204.99	26.32	-47.1	-50.1	15.9	0.00e+00	0	44	0	344981504	65	5203
2026-01-12 10:46:44.76	205.53	26.74	-47.3	-50.4	15.7	0.00e+00	0	44	0	350224384	65	5347
2026-01-12 10:46:47.76	206.08	27.16	-47.5	-50.7	15.3	0.00e+00	0	44	0	356515840	65	5572
2026-01-12 10:46:50.76	206.64	27.58	-47.8	-51.2	14.9	0.00e+00	0	44	0	361758720	66	5538
2026-01-12 10:46:53.77	207.22	28.01	-48.1	-51.6	14.5	1.50e-06	0	44	0	367001600	66	5804
2026-01-12 10:46:56.77	207.81	28.44	-47.9	-51.3	14.8	0.00e+00	0	44	0	373293056	66	5620
2026-01-12 10:46:59.77	208.43	28.87	-48.2	-51.7	14.4	7.00e-07	0	43	0	378535936	67	5555
2026-01-12 10:47:02.77	209.05	29.31	-48.3	-52.0	14.0	2.20e-06	0	44	0	384827392	67	5763
2026-01-12 10:47:05.78	209.70	29.75	-48.9	-52.8	13.4	1.60e-05	0	44	0	390070272	68	5985
2026-01-12 10:47:08.78	210.36	30.19	-48.9	-52.8	13.5	9.10e-06	0	44	0	395313152	68	5924
2026-01-12 10:47:11.78	211.04	30.64	-48.5	-52.1	14.2	2.20e-06	0	44	0	401604608	68	5485
2026-01-12 10:47:14.79	211.74	31.09	-48.1	-51.6	14.7	0.00e+00	0	44	0	406847488	68	5161
2026-01-12 10:47:17.79	212.45	31.54	-48.3	-51.8	14.5	7.00e-07	0	44	0	412090368	68	5294
2026-01-12 10:47:20.79	213.19	31.99	-48.1	-51.4	14.9	0.00e+00	0	44	0	418381824	68	5078
2026-01-12 10:47:23.79	213.95	32.44	-47.9	-51.2	14.9	0.00e+00	0	44	0	423624704	67	5269
2026-01-12 10:47:26.78	214.72	32.90	-47.9	-51.2	14.9	7.00e-07	0	44	0	429916160	67	5235
2026-01-12 10:47:29.77	215.52	33.35	-47.8	-51.1	15.0	0.00e+00	0	44	0	435159040	67	5216
2026-01-12 10:47:32.76	216.34	33.81	-47.9	-51.2	14.9	0.00e+00	0	44	0	440401920	67	5250
2026-01-12 10:47:35.74	217.18	34.26	-47.9	-51.3	14.8	0.00e+00	0	44	0	446693376	67	5320
2026-01-12 10:47:38.73	218.04	34.72	-48.0	-51.4	14.7	7.00e-07	0	44	0	451936256	67	5395
2026-01-12 10:47:41.78	218.95	35.18	-47.9	-51.3	14.8	7.00e-07	0	44	0	457179136	67	5312
2026-01-12 10:47:44.68	219.84	35.62	-47.7	-50.9	15.3	7.00e-07	0	44	0	463470592	67	5067
2026-01-12 10:47:47.97	220.87	36.11	-47.1	-50.0	16.1	0.00e+00	0	44	0	468713472	66	4845
2026-01-12 10:47:50.70	221.76	36.52	-47.2	-50.3	15.9	0.00e+00	0	44	0	473956352	65	5297
2026-01-12 10:47:53.97	222.84	37.01	-47.5	-50.6	15.5	0.00e+00	0	44	0	480247808	65	5486
2026-01-12 10:47:56.70	223.77	37.41	-47.2	-50.2	16.0	0.00e+00	0	44	0	485490688	65	5223
2026-01-12 10:48:00.17	224.99	37.92	-47.3	-50.3	15.8	0.00e+00	0	44	0	491782144	65	5309
2026-01-12 10:48:02.87	225.96	38.31	-48.1	-51.6	14.6	0.00e+00	0	44	0	497025024	66	5795
2026-01-12 10:48:06.14	227.17	38.78	-48.1	-51.5	14.6	0.00e+00	0	44	0	503316480	67	5436
2026-01-12 10:48:08.91	228.22	39.16	-48.3	-51.8	14.3	2.20e-06	0	44	0	508559360	67	5615
2026-01-12 10:48:12.17	229.49	39.61	-48.8	-52.6	13.7	7.00e-07	0	44	0	514850816	68	5819
2026-01-12 10:48:15.19	230.69	40.02	-48.4	-51.9	14.4	7.00e-07	0	44	0	520093696	68	5395
2026-01-12 10:48:18.36	231.99	40.43	-47.9	-51.3	14.9	0.00e+00	0	44	0	526385152	67	5282
2026-01-12 10:48:21.21	233.19	40.80	-48.3	-52.0	14.2	0.00e+00	0	44	0	531628032	67	5724
2026-01-12 10:48:24.34	234.53	41.18	-47.9	-51.2	15.0	0.00e+00	0	44	0	536870912	67	5259
2026-01-12 10:48:27.18	235.77	41.52	-48.5	-52.2	13.9	1.50e-06	0	44	0	543162368	67	5888
2026-01-12 10:48:30.42	237.23	41.90	-49.0	-52.8	13.5	1.44e-05	0	44	0	548405248	69	5630
2026-01-12 10:48:33.34	238.56	42.22	-48.8	-52.6	13.7	2.20e-06	0	44	0	554696704	69	5475
2026-01-12 10:48:36.53	240.05	42.55	-49.8	-54.4	11.9	3.17e-04	0	44	0	559939584	70	6358
2026-01-12 10:48:39.37	241.40	42.83	-49.0	-52.9	13.4	1.14e-05	0	44	0	565182464	70	5402
2026-01-12 10:48:42.50	242.92	43.12	-49.0	-53.1	13.2	2.44e-05	0	44	0	571473920	69	5802
2026-01-12 10:48:45.35	244.32	43.37	-49.2	-53.3	13.0	5.79e-05	0	44	0	576716800	69	5934
2026-01-12 10:48:48.48	245.89	43.62	-48.7	-52.5	13.9	7.00e-07	0	44	0	583008256	69	5403
2026-01-12 10:48:51.32	247.33	43.83	-48.9	-52.8	13.5	2.74e-05	0	44	0	588251136	69	5615
2026-01-12 10:48:54.59	249.01	44.05	-47.8	-51.1	15.1	0.00e+00	0	44	0	594542592	67	5195
2026-01-12 10:48:57.29	250.41	44.21	-48.3	-51.9	14.3	0.00e+00	0	44	0	598736896	67	5702
2026-01-12 10:49:00.57	252.13	44.38	-48.7	-52.4	14.0	1.50e-06	0	44	0	605028352	68	5696
2026-01-12 10:49:03.47	253.67	44.51	-48.6	-52.2	14.1	3.00e-06	0	44	0	610271232	68	5570
2026-01-12 10:49:06.59	255.34	44.62	-49.3	-53.4	12.8	3.05e-05	0	44	0	616562688	69	6053
2026-01-12 10:49:09.57	256.94	44.70	-48.5	-52.0	14.3	7.00e-07	0	44	0	621805568	68	5438
2026-01-12 10:49:12.55	258.55	44.76	-47.8	-51.1	15.0	0.00e+00	0	44	0	628097024	67	5202
2026-01-12 10:49:15.54	260.16	44.80	-48.2	-51.8	14.5	0.00e+00	0	44	0	633339904	67	5609
2026-01-12 10:49:18.53	261.78	44.81	-47.8	-51.0	15.3	0.00e+00	0	44	0	638582784	67	5123
2026-01-12 10:49:21.52	263.40	44.79	-47.5	-50.7	15.5	0.00e+00	0	44	0	644874240	67	4942
2026-01-12 10:49:24.50	265.01	44.75	-47.3	-50.3	15.9	0.00e+00	0	44	0	650117120	66	5011
2026-01-12 10:49:27.48	266.62	44.69	-47.7	-50.9	15.3	0.00e+00	0	44	0	655360000	66	5394
2026-01-12 10:49:30.49	268.23	44.60	-47.1	-50.0	16.2	0.00e+00	0	44	0	661651456	65	5110
2026-01-12 10:49:33.47	269.82	44.48	-48.1	-51.5	14.7	0.00e+00	0	44	0	666894336	66	5746
2026-01-12 10:49:36.45	271.39	44.35	-47.8	-51.0	15.2	0.00e+00	0	44	0	672137216	66	5457
2026-01-12 10:49:39.44	272.96	44.19	-47.5	-50.5	15.6	0.00e+00	0	44	0	678428672	66	5158
2026-01-12 10:49:42.42	274.50	44.01	-48.1	-51.6	14.6	7.00e-07	0	44	0	683671552	66	5830
2026-01-12 10:49:45.41	276.03	43.80	-48.6	-52.3	14.0	4.50e-06	0	44	0	688914432	67	5946
2026-01-12 10:49:48.46	277.57	43.58	-48.5	-52.1	14.1	0.00e+00	0	44	0	695205888	67	5827
2026-01-12 10:49:51.40	279.04	43.34	-47.8	-51.0	15.2	0.00e+00	0	44	0	700448768	67	5157
2026-01-12 10:49:54.39	280.50	43.07	-48.3	-51.9	14.3	0.00e+00	0	44	0	705691648	67	5675
2026-01-12 10:49:57.37	281.94	42.79	-47.6	-50.9	15.3	7.00e-07	0	44	0	711983104	67	5053
2026-01-12 10:50:00.36	283.35	42.49	-48.3	-51.8	14.4	7.00e-07	0	44	0	717225984	67	5604
2026-01-12 10:50:03.34	284.74	42.18	-47.4	-50.5	15.7	0.00e+00	0	44	0	722468864	66	5140
2026-01-12 10:50:06.37	286.12	41.85	-47.8	-51.0	15.2	0.00e+00	0	44	0	728760320	66	5448
2026-01-12 10:50:09.47	287.50	41.49	-46.2	-48.8	17.3	0.00e+00	0	44	0	734003200	64	4732
2026-01-12 10:50:12.31	288.74	41.15	-47.7	-50.9	15.3	0.00e+00	0	44	0	739246080	66	5379
2026-01-12 10:50:15.44	290.07	40.76	-45.9	-48.4	17.8	0.00e+00	0	44	0	745537536	63	4801
2026-01-12 10:50:18.28	291.25	40.40	-46.7	-49.6	16.6	0.00e+00	0	44	0	750780416	64	5173
2026-01-12 10:50:21.40	292.52	39.99	-45.9	-48.4	17.8	0.00e+00	0	44	0	757071872	63	4797
2026-01-12 10:50:24.24	293.65	39.61	-46.9	-49.8	16.4	0.00e+00	0	44	0	762314752	64	5280
2026-01-12 10:50:27.71	295.00	39.14	-46.6	-49.4	16.7	0.00e+00	0	44	0	768606208	64	5079
2026-01-12 10:50:30.44	296.03	38.76	-47.0	-50.1	16.1	0.00e+00	0	44	0	773849088	65	5162
2026-01-12 10:50:33.74	297.24	38.29	-46.6	-49.4	16.7	0.00e+00	0	44	0	780140544	64	5095
2026-01-12 10:50:36.50	298.23	37.89	-46.7	-49.6	16.5	0.00e+00	0	44	0	785383424	64	5193
2026-01-12 10:50:39.77	299.37	37.42	-46.9	-49.9	16.3	0.00e+00	0	44	0	791674880	64	5354
2026-01-12 10:50:42.63	300.34	37.00	-47.4	-50.5	15.6	0.00e+00	0	44	0	796917760	65	5435
2026-01-12 10:50:45.75	301.37	36.54	-46.8	-49.7	16.5	0.00e+00	0	44	0	802160640	65	4947
2026-01-12 10:50:48.60	302.29	36.11	-46.1	-48.8	17.3	0.00e+00	0	44	0	807403520	64	4713
2026-01-12 10:50:51.73	303.27	35.64	-46.6	-49.5	16.7	0.00e+00	0	44	0	813694976	64	5110
2026-01-12 10:50:54.64	304.15	35.20	-47.3	-50.6	15.6	0.00e+00	0	44	0	818937856	65	5468
2026-01-12 10:50:57.80	305.09	34.73	-47.4	-50.6	15.6	0.00e+00	0	44	0	825229312	65	5471
2026-01-12 10:51:01.22	306.07	34.21	-48.5	-52.2	14.2	5.30e-06	0	44	0	831520768	68	5546
2026-01-12 10:51:04.07	306.87	33.78	-47.3	-50.4	15.8	0.00e+00	0	44	0	836763648	66	5054
2026-01-12 10:51:07.19	307.72	33.31	-48.6	-52.4	13.8	2.20e-06	0	44	0	843055104	67	5995
2026-01-12 10:51:10.10	308.49	32.87	-47.6	-50.8	15.3	0.00e+00	0	44	0	848297984	67	5021
2026-01-12 10:51:13.65	309.40	32.33	-47.6	-50.8	15.4	0.00e+00	0	44	0	854589440	65	5640
2026-01-12 10:51:16.66	310.15	31.88	-49.2	-53.3	13.0	1.05e-04	0	44	0	860880896	69	5948
2026-01-12 10:51:19.97	310.95	31.39	-46.9	-49.8	16.3	0.00e+00	0	44	0	867172352	65	5026
2026-01-12 10:51:22.71	311.59	30.98	-48.0	-51.4	14.8	0.00e+00	0	44	0	871366656	66	5663
2026-01-12 10:51:25.98	312.34	30.50	-48.6	-52.3	14.0	7.60e-06	0	44	0	877658112	68	5644
2026-01-12 10:51:28.69	312.95	30.10	-46.5	-49.3	16.8	0.00e+00	0	44	0	882900992	65	4722
2026-01-12 10:51:31.96	313.66	29.62	-47.7	-51.0	15.1	0.00e+00	0	44	0	889192448	65	5753
2026-01-12 10:51:34.93	314.29	29.19	-48.2	-52.0	14.2	3.80e-06	0	44	0	894435328	67	5724
2026-01-12 10:51:38.20	314.96	28.72	-46.0	-48.6	17.4	0.00e+00	0	44	0	900726784	64	4647
2026-01-12 10:51:40.92	315.51	28.33	-46.5	-49.3	16.8	0.00e+00	0	44	0	905969664	63	5322
2026-01-12 10:51:44.19	316.14	27.87	-47.8	-51.4	14.8	0.00e+00	0	44	0	912261120	66	5699
2026-01-12 10:51:47.20	316.72	27.44	-46.7	-49.7	16.3	0.00e+00	0	44	0	917504000	65	4982
2026-01-12 10:51:50.74	317.37	26.95	-46.5	-49.3	16.8	0.00e+00	0	44	0	924844032	64	5037
2026-01-12 10:51:53.44	317.86	26.58	-47.3	-50.7	15.5	0.00e+00	0	44	0	929038336	65	5533
2026-01-12 10:51:56.74	318.43	26.13	-47.1	-50.2	15.8	0.00e+00	0	44	0	935329792	65	5279
2026-01-12 10:51:59.74	318.95	25.72	-46.5	-49.3	16.7	0.00e+00	0	44	0	941621248	65	4742
2026-01-12 10:52:02.82	319.46	25.31	-46.5	-49.4	16.7	0.00e+00	0	44	0	946864128	64	5061
2026-01-12 10:52:06.11	319.99	24.87	-47.1	-50.2	15.9	0.00e+00	0	44	0	953155584	64	5565
2026-01-12 10:52:08.89	320.43	24.50	-47.2	-50.5	15.6	0.00e+00	0	44	0	958398464	65	5403
2026-01-12 10:52:12.17	320.94	24.08	-46.8	-49.9	16.1	0.00e+00	0	44	0	964689920	65	5086
2026-01-12 10:52:14.87	321.35	23.73	-46.6	-49.6	16.4	0.00e+00	0	44	0	969932800	65	4903
2026-01-12 10:52:18.23	321.84	23.30	-46.4	-49.3	16.7	0.00e+00	0	44	0	976224256	64	5039
2026-01-12 10:52:20.98	322.24	22.96	-46.6	-49.6	16.4	0.00e+00	0	44	0	981467136	64	5194
2026-01-12 10:52:24.26	322.70	22.55	-46.9	-49.9	16.1	0.00e+00	0	44	0	986710016	64	5387
2026-01-12 10:52:26.96	323.07	22.21	-47.1	-50.2	15.8	0.00e+00	0	44	0	991952896	64	5565
2026-01-12 10:52:30.24	323.51	21.81	-47.0	-50.1	16.0	0.00e+00	0	44	0	998244352	64	5494
2026-01-12 10:52:33.09	323.88	21.47	-47.1	-50.2	15.8	0.00e+00	0	44	0	1003487232	64	5563
2026-01-12 10:52:36.72	324.35	21.04	-47.2	-50.6	15.5	0.00e+00	0	44	0	1010827264	65	5496
2026-01-12 10:52:39.49	324.69	20.71	-47.2	-50.9	15.2	0.00e+00	0	44	0	1016070144	65	5677
2026-01-12 10:52:42.83	325.10	20.32	-47.5	-51.0	15.1	0.00e+00	0	44	0	1022361600	65	5748
2026-01-12 10:52:45.55	325.43	20.01	-47.4	-50.7	15.3	0.00e+00	0	44	0	1027604480	65	5587
2026-01-12 10:52:48.84	325.81	19.63	-47.0	-50.1	15.9	0.00e+00	0	44	0	1032847360	65	5182
2026-01-12 10:52:51.63	326.13	19.32	-47.0	-50.1	15.9	0.00e+00	0	44	0	1038090240	65	5168
2026-01-12 10:52:55.24	326.53	18.91	-46.9	-50.1	15.9	0.00e+00	0	44	0	1045430272	65	5164
2026-01-12 10:52:58.09	326.84	18.60	-46.9	-50.4	15.6	0.00e+00	0	44	0	1050673152	65	5351
2026-01-12 10:53:02.07	327.27	18.16	-46.9	-50.6	15.3	0.00e+00	0	44	0	1058013184	65	5526
2026-01-12 10:53:04.91	327.57	17.86	-46.9	-50.4	15.6	0.00e+00	0	44	0	1063256064	65	5367
2026-01-12 10:53:08.17	327.90	17.51	-46.9	-50.3	15.7	0.00e+00	0	44	0	1069547520	65	5282
2026-01-12 10:53:11.12	328.19	17.20	-47.1	-50.5	15.5	0.00e+00	0	44	0	1074790400	65	5428
2026-01-12 10:53:14.11	328.49	16.89	-47.3	-50.8	15.1	0.00e+00	0	44	0	1081081856	65	5631
2026-01-12 10:53:17.55	328.82	16.53	-47.6	-51.3	14.7	0.00e+00	0	44	0	1087373312	65	5953
2026-01-12 10:53:20.26	329.07	16.26	-47.9	-51.6	14.3	1.50e-06	0	44	0	1092616192	66	5845
2026-01-12 10:53:23.54	329.38	15.93	-47.9	-51.7	14.3	2.20e-06	0	44	0	1097859072	66	5862
2026-01-12 10:53:26.26	329.62	15.66	-47.7	-51.3	14.6	0.00e+00	0	44	0	1103101952	66	5621
2026-01-12 10:53:29.53	329.91	15.33	-47.5	-51.0	14.9	0.00e+00	0	44	0	1109393408	66	5421
2026-01-12 10:53:32.27	330.15	15.07	-47.3	-50.7	15.2	0.00e+00	0	44	0	1114636288	66	5268
2026-01-12 10:53:35.54	330.43	14.75	-47.3	-50.7	15.2	0.00e+00	0	44	0	1120927744	66	5226
2026-01-12 10:53:38.25	330.66	14.49	-47.3	-50.7	15.2	0.00e+00	0	44	0	1126170624	66	5261
2026-01-12 10:53:41.54	330.93	14.18	-47.3	-50.8	15.1	0.00e+00	0	44	0	1132462080	66	5300
2026-01-12 10:53:44.24	331.15	13.92	-47.2	-50.9	14.9	0.00e+00	0	44	0	1136656384	66	5384
2026-01-12 10:53:47.52	331.41	13.62	-47.4	-51.1	14.8	0.00e+00	0	44	0	1142947840	66	5490
2026-01-12 10:53:50.27	331.63	13.37	-47.6	-51.3	14.6	7.00e-07	0	44	0	1148190720	66	5632
2026-01-12 10:53:53.55	331.88	13.07	-47.8	-51.5	14.3	7.00e-07	0	44	0	1154482176	66	5746
2026-01-12 10:53:56.30	332.09	12.82	-47.8	-51.5	14.4	7.00e-07	0	44	0	1159725056	66	5727
2026-01-12 10:53:59.59	332.33	12.53	-47.7	-51.5	14.3	3.00e-06	0	44	0	1166016512	66	5769
2026-01-12 10:54:02.34	332.53	12.28	-47.8	-51.7	14.1	7.00e-07	0	44	0	1171259392	66	5903
2026-01-12 10:54:05.73	332.77	11.99	-47.9	-52.0	13.8	2.20e-06	0	44	0	1177550848	66	6080
2026-01-12 10:54:08.45	332.97	11.75	-48.0	-52.1	13.7	1.50e-06	0	44	0	1182793728	66	6140
2026-01-12 10:54:11.74	333.20	11.47	-48.1	-52.2	13.6	8.30e-06	0	44	0	1189085184	67	5886
2026-01-12 10:54:14.46	333.38	11.24	-48.4	-52.5	13.2	2.21e-05	0	44	0	1193279488	67	6102
2026-01-12 10:54:17.74	333.60	10.96	-48.3	-52.5	13.2	2.44e-05	0	44	0	1199570944	67	6092
2026-01-12 10:54:20.50	333.78	10.73	-48.4	-52.8	13.0	3.43e-05	0	44	0	1204813824	67	6282
2026-01-12 10:54:24.05	334.01	10.44	-48.2	-52.5	13.2	2.28e-05	0	44	0	1212153856	67	6109
2026-01-12 10:54:26.99	334.20	10.19	-48.1	-52.3	13.4	1.29e-05	0	44	0	1217396736	67	5954
2026-01-12 10:54:30.26	334.41	9.93	-47.8	-51.9	13.8	9.10e-06	0	44	0	1223688192	67	5667
2026-01-12 10:54:32.99	334.58	9.71	-47.8	-51.9	13.8	4.50e-06	0	44	0	1228931072	67	5663
2026-01-12 10:54:36.27	334.78	9.45	-47.6	-51.8	13.9	4.50e-06	0	44	0	1235222528	67	5628
2026-01-12 10:54:39.25	334.96	9.21	-47.6	-52.0	13.6	3.80e-06	0	44	0	1240465408	66	6073
2026-01-12 10:54:42.33	335.14	8.97	-51.4	-67.0	3.8	1.02e+00	0	44	104	1245708288	73	22823
2026-01-12 10:54:45.84	335.34	8.70	-51.9	-67.4	3.8	1.49e+00	0	44	104	1245708288	74	22730
2026-01-12 10:54:48.55	335.50	8.49	-52.3	-67.6	3.8	1.49e+00	0	44	104	1245708288	75	21811
2026-01-12 10:54:51.83	335.68	8.24	-52.2	-67.7	3.8	1.49e+00	0	44	104	1245708288	75	22034
2026-01-12 10:54:54.54	335.83	8.03	-52.5	-67.7	3.8	1.49e+00	0	44	104	1245708288	75	22122
2026-01-12 10:54:57.81	336.01	7.79	-52.7	-67.7	3.8	1.49e+00	0	44	104	1245708288	75	22140
2026-01-12 10:55:00.51	336.16	7.59	-52.6	-67.7	3.8	1.49e+00	0	44	104	1245708288	76	20828
2026-01-12 10:55:03.79	336.33	7.34	-52.5	-67.7	3.8	1.49e+00	0	44	104	1245708288	76	20829
2026-01-12 10:55:06.56	336.48	7.14	-52.4	-67.6	3.8	1.49e+00	0	44	104	1
