passes_logs/2026/01/12/T1/T1__20260112_084249_SUOMI_NPP_rec.log

#Pass ID: 20260112_084249_SUOMI NPP
#Satellite: SUOMI NPP
#Configuration: NPP
#almurnet v.1.7.20251203
#Start time: 2026-01-12 08:42:49

#Version: 2.0.20230620
#Station: T1
#Location: 37.570604 lon 55.790049 lat
#TLE: 1 37849U 11061A   26011.29776829  .00000112  00000+0  74065-4 0  9999
#TLE: 2 37849  98.7807 313.3784 0002522  70.0451 290.0996 14.19524507736187

#Time	Az	El	Level	Level2	SNR	BER	BlckErr	Temp	State	Recorded	gain1	gain2
2026-01-12 08:42:49.00	119.69	5.00	-49.7	-65.1	3.8	1.49e+00	0	38	0	0	71	20656
2026-01-12 08:42:51.98	119.49	5.19	-49.7	-65.0	3.8	1.49e+00	0	38	104	0	71	20516
2026-01-12 08:42:54.96	119.29	5.39	-49.7	-65.0	3.8	1.49e+00	0	38	104	0	71	20458
2026-01-12 08:42:57.94	119.09	5.58	-49.7	-65.0	3.8	1.49e+00	0	38	104	0	71	20387
2026-01-12 08:43:00.92	118.89	5.78	-49.7	-65.0	3.8	1.49e+00	0	38	104	0	71	20332
2026-01-12 08:43:03.90	118.68	5.98	-49.7	-65.0	3.8	1.49e+00	0	38	104	0	71	20484
2026-01-12 08:43:06.88	118.47	6.18	-49.7	-65.0	3.8	1.49e+00	0	38	104	0	71	20525
2026-01-12 08:43:09.87	118.25	6.38	-49.7	-65.0	3.8	1.49e+00	0	39	104	0	71	20387
2026-01-12 08:43:12.85	118.04	6.58	-49.7	-64.9	3.8	1.49e+00	0	39	104	0	71	20126
2026-01-12 08:43:15.82	117.82	6.78	-49.7	-65.0	3.8	1.49e+00	0	39	104	0	71	20430
2026-01-12 08:43:18.80	117.60	6.99	-49.7	-65.0	3.9	1.49e+00	0	39	104	0	71	20527
2026-01-12 08:43:21.78	117.37	7.19	-49.7	-64.7	3.8	1.49e+00	0	39	104	0	71	19669
2026-01-12 08:43:24.76	117.14	7.40	-49.6	-63.7	3.8	1.49e+00	0	39	104	0	71	17600
2026-01-12 08:43:27.75	116.91	7.61	-49.7	-64.5	3.8	1.49e+00	0	39	104	0	71	19236
2026-01-12 08:43:30.73	116.67	7.82	-49.6	-63.8	3.8	1.49e+00	0	39	104	0	71	17879
2026-01-12 08:43:33.71	116.43	8.03	-48.6	-55.9	7.7	1.58e-01	0	39	0	3145728	69	8056
2026-01-12 08:43:36.69	116.19	8.24	-47.4	-52.6	11.0	1.87e-03	0	40	0	8388608	66	6515
2026-01-12 08:43:39.67	115.94	8.45	-47.2	-52.2	11.4	8.13e-04	0	39	0	14680064	66	6244
2026-01-12 08:43:42.65	115.69	8.67	-48.1	-54.5	9.0	1.14e-02	0	39	0	19922944	66	8149
2026-01-12 08:43:45.63	115.44	8.88	-49.4	-61.2	4.3	8.96e-01	0	40	0	25165824	69	14876
2026-01-12 08:43:48.62	115.18	9.10	-48.1	-53.9	5.5	1.49e+00	0	40	104	25165824	68	6788
2026-01-12 08:43:51.60	114.91	9.32	-49.7	-62.7	3.9	1.49e+00	0	40	104	27262976	70	16584
2026-01-12 08:43:54.73	114.63	9.55	-48.6	-55.3	8.6	2.15e-02	0	40	0	29360128	68	7920
2026-01-12 08:43:57.64	114.37	9.76	-48.1	-53.6	10.2	5.57e-03	0	40	0	34603008	68	6566
2026-01-12 08:44:01.22	114.04	10.03	-46.9	-51.1	12.8	7.70e-05	0	40	0	41943040	65	5810
2026-01-12 08:44:04.11	113.77	10.25	-47.2	-51.9	12.0	1.95e-04	0	40	0	47185920	65	6355
2026-01-12 08:44:08.07	113.39	10.54	-46.8	-51.0	12.8	6.63e-05	0	40	0	54525952	65	5776
2026-01-12 08:44:10.88	113.11	10.76	-46.9	-51.2	12.7	2.36e-05	0	40	0	59768832	65	5868
2026-01-12 08:44:14.17	112.79	11.01	-46.7	-50.7	13.2	5.72e-05	0	40	0	66060288	65	5592
2026-01-12 08:44:17.40	112.46	11.26	-46.5	-50.5	13.4	1.67e-05	0	40	0	72351744	65	5459
2026-01-12 08:44:20.72	112.12	11.52	-46.5	-50.5	13.4	1.98e-05	0	40	0	78643200	64	5771
2026-01-12 08:44:23.56	111.83	11.74	-46.5	-50.5	13.4	1.22e-05	0	40	0	83886080	64	5751
2026-01-12 08:44:26.69	111.49	11.98	-46.6	-50.8	13.2	6.10e-06	0	40	0	89128960	64	5936
2026-01-12 08:44:29.67	111.17	12.22	-46.9	-51.3	12.7	1.01e-04	0	40	0	95420416	64	6329
2026-01-12 08:44:33.00	110.81	12.48	-46.2	-49.9	14.1	3.80e-06	0	40	0	101711872	64	5353
2026-01-12 08:44:35.71	110.50	12.70	-46.1	-49.8	14.2	1.50e-06	0	40	0	105906176	64	5300
2026-01-12 08:44:39.27	110.10	12.99	-46.5	-50.5	13.5	6.10e-06	0	40	0	113246208	64	5725
2026-01-12 08:44:42.28	109.75	13.23	-45.9	-49.4	14.6	0.00e+00	0	40	0	118489088	63	5352
2026-01-12 08:44:45.27	109.40	13.48	-46.5	-50.3	13.8	2.20e-06	0	40	0	124780544	63	5953
2026-01-12 08:44:48.26	109.04	13.72	-46.7	-50.6	13.6	1.50e-06	0	40	0	130023424	63	6151
2026-01-12 08:44:51.24	108.68	13.97	-46.6	-50.5	13.7	6.10e-06	0	40	0	135266304	63	6066
2026-01-12 08:44:54.29	108.30	14.22	-46.6	-50.6	13.4	9.90e-06	0	40	0	141557760	64	5822
2026-01-12 08:44:57.60	107.89	14.49	-46.8	-50.9	13.2	2.21e-05	0	40	0	147849216	64	6007
2026-01-12 08:45:00.32	107.54	14.72	-46.5	-50.4	13.7	1.06e-05	0	40	0	152043520	64	5686
2026-01-12 08:45:03.60	107.11	15.00	-46.0	-49.5	14.5	2.20e-06	0	40	0	158334976	64	5138
2026-01-12 08:45:06.48	106.73	15.24	-46.0	-49.4	14.8	7.00e-07	0	40	0	163577856	63	5358
2026-01-12 08:45:09.75	106.29	15.52	-45.9	-49.3	14.9	0.00e+00	0	40	0	169869312	63	5294
2026-01-12 08:45:13.11	105.83	15.80	-45.9	-49.2	15.0	0.00e+00	0	40	0	176160768	63	5241
2026-01-12 08:45:15.82	105.45	16.04	-45.9	-49.3	14.9	0.00e+00	0	40	0	181403648	63	5282
2026-01-12 08:45:19.09	104.98	16.32	-45.6	-48.8	15.4	0.00e+00	0	40	0	187695104	63	5014
2026-01-12 08:45:21.96	104.56	16.57	-45.7	-48.9	15.3	0.00e+00	0	40	0	192937984	62	5361
2026-01-12 08:45:25.04	104.11	16.84	-45.4	-48.4	15.7	0.00e+00	0	40	0	199229440	62	5100
2026-01-12 08:45:28.16	103.64	17.11	-45.6	-48.8	15.4	0.00e+00	0	40	0	204472320	62	5301
2026-01-12 08:45:31.01	103.20	17.36	-45.6	-48.7	15.5	0.00e+00	0	40	0	209715200	62	5279
2026-01-12 08:45:34.14	102.72	17.63	-45.7	-49.0	15.2	0.00e+00	0	40	0	216006656	62	5417
2026-01-12 08:45:36.98	102.27	17.88	-45.8	-49.0	15.2	0.00e+00	0	40	0	221249536	62	5443
2026-01-12 08:45:40.03	101.77	18.15	-45.6	-48.7	15.5	0.00e+00	0	41	0	226492416	62	5234
2026-01-12 08:45:43.02	101.28	18.42	-45.9	-49.2	15.1	0.00e+00	0	41	0	232783872	62	5529
2026-01-12 08:45:46.00	100.79	18.68	-45.6	-48.7	15.5	0.00e+00	0	41	0	238026752	62	5256
2026-01-12 08:45:48.99	100.28	18.95	-46.0	-49.3	14.9	0.00e+00	0	40	0	243269632	63	5333
2026-01-12 08:45:51.99	99.76	19.22	-46.4	-50.0	14.3	7.00e-07	0	41	0	249561088	63	5733
2026-01-12 08:45:54.98	99.23	19.48	-46.1	-49.6	14.7	0.00e+00	0	41	0	254803968	63	5503
2026-01-12 08:45:57.96	98.70	19.75	-46.5	-50.4	13.8	6.80e-06	0	41	0	261095424	64	5692
2026-01-12 08:46:00.95	98.15	20.02	-46.0	-49.3	15.0	0.00e+00	0	41	0	266338304	63	5313
2026-01-12 08:46:03.93	97.60	20.28	-46.2	-49.7	14.6	7.00e-07	0	41	0	271581184	63	5533
2026-01-12 08:46:06.93	97.03	20.55	-46.3	-49.8	14.5	7.00e-07	0	41	0	277872640	63	5632
2026-01-12 08:46:09.93	96.45	20.82	-46.5	-50.1	14.2	7.00e-07	0	41	0	283115520	63	5850
2026-01-12 08:46:12.92	95.87	21.09	-46.0	-49.4	14.9	0.00e+00	0	41	0	288358400	63	5369
2026-01-12 08:46:15.90	95.28	21.35	-45.7	-48.8	15.4	0.00e+00	0	41	0	294649856	63	5038
2026-01-12 08:46:18.88	94.67	21.62	-45.9	-49.2	15.1	0.00e+00	0	41	0	299892736	63	5265
2026-01-12 08:46:21.88	94.05	21.88	-45.7	-48.9	15.5	0.00e+00	0	41	0	305135616	63	5065
2026-01-12 08:46:24.95	93.41	22.16	-45.9	-49.2	15.2	0.00e+00	0	41	0	311427072	63	5221
2026-01-12 08:46:27.87	92.79	22.41	-45.4	-48.5	15.8	0.00e+00	0	41	0	316669952	62	5142
2026-01-12 08:46:30.86	92.14	22.68	-44.9	-47.8	16.4	0.00e+00	0	41	0	321912832	61	5026
2026-01-12 08:46:33.85	91.48	22.94	-44.4	-47.0	17.2	0.00e+00	0	41	0	328204288	60	4826
2026-01-12 08:46:36.83	90.81	23.20	-44.9	-47.8	16.5	0.00e+00	0	41	0	333447168	60	5316
2026-01-12 08:46:39.81	90.13	23.45	-45.0	-48.0	16.3	0.00e+00	0	41	0	338690048	61	5138
2026-01-12 08:46:42.80	89.43	23.71	-45.0	-48.0	16.3	0.00e+00	0	41	0	344981504	61	5128
2026-01-12 08:46:45.78	88.73	23.96	-44.7	-47.4	16.8	0.00e+00	0	41	0	350224384	61	4812
2026-01-12 08:46:48.76	88.02	24.21	-44.5	-47.2	17.1	0.00e+00	0	41	0	355467264	60	4957
2026-01-12 08:46:51.84	87.27	24.47	-44.9	-47.8	16.5	0.00e+00	0	41	0	361758720	60	5314
2026-01-12 08:46:54.71	86.56	24.71	-44.8	-47.7	16.5	0.00e+00	0	41	0	367001600	60	5279
2026-01-12 08:46:57.84	85.77	24.96	-44.7	-47.5	16.7	0.00e+00	0	41	0	373293056	60	5142
2026-01-12 08:47:00.68	85.04	25.19	-44.8	-47.8	16.5	0.00e+00	0	41	0	378535936	60	5288
2026-01-12 08:47:03.81	84.23	25.44	-44.3	-47.2	17.0	0.00e+00	0	41	0	383778816	60	4943
2026-01-12 08:47:06.73	83.46	25.66	-44.6	-47.6	16.6	0.00e+00	0	41	0	390070272	60	5193
2026-01-12 08:47:09.85	82.63	25.90	-45.0	-48.1	16.2	0.00e+00	0	41	0	395313152	61	5172
2026-01-12 08:47:12.79	81.83	26.12	-45.0	-48.0	16.2	0.00e+00	0	41	0	400556032	61	5130
2026-01-12 08:47:15.97	80.96	26.36	-45.1	-48.2	16.1	0.00e+00	0	41	0	406847488	61	5237
2026-01-12 08:47:18.81	80.17	26.56	-45.6	-49.0	15.3	0.00e+00	0	41	0	412090368	62	5439
2026-01-12 08:47:21.94	79.28	26.78	-45.2	-48.4	15.9	0.00e+00	0	41	0	418381824	62	5084
2026-01-12 08:47:24.76	78.48	26.97	-45.0	-48.1	16.3	0.00e+00	0	41	0	423624704	62	4871
2026-01-12 08:47:28.00	77.54	27.19	-45.1	-48.1	16.1	0.00e+00	0	41	0	429916160	61	5194
2026-01-12 08:47:30.84	76.71	27.37	-45.2	-48.3	16.0	0.00e+00	0	41	0	435159040	61	5284
2026-01-12 08:47:34.07	75.75	27.57	-45.2	-48.3	16.0	0.00e+00	0	41	0	440401920	61	5321
2026-01-12 08:47:36.91	74.89	27.74	-45.3	-48.4	15.9	0.00e+00	0	41	0	446693376	61	5370
2026-01-12 08:47:40.00	73.95	27.92	-45.4	-48.5	15.8	0.00e+00	0	41	0	451936256	61	5464
2026-01-12 08:47:42.99	73.04	28.09	-45.8	-49.2	15.1	0.00e+00	0	41	0	457179136	62	5563
2026-01-12 08:47:45.97	72.11	28.24	-45.5	-48.7	15.6	0.00e+00	0	41	0	463470592	62	5233
2026-01-12 08:47:48.96	71.18	28.39	-45.1	-48.1	16.3	0.00e+00	0	41	0	468713472	62	4890
2026-01-12 08:47:51.94	70.23	28.54	-45.3	-48.4	16.0	0.00e+00	0	41	0	473956352	62	5052
2026-01-12 08:47:55.05	69.24	28.68	-46.1	-49.5	14.9	0.00e+00	0	41	0	480247808	62	5770
2026-01-12 08:47:57.90	68.33	28.80	-46.4	-50.1	14.2	3.00e-06	0	41	0	485490688	64	5516
2026-01-12 08:48:01.02	67.32	28.92	-46.8	-50.9	13.4	1.06e-05	0	41	0	491782144	64	6007
2026-01-12 08:48:04.61	66.14	29.05	-46.8	-51.0	13.3	1.90e-05	0	41	0	498073600	64	6103
2026-01-12 08:48:07.32	65.25	29.14	-46.2	-49.8	14.4	1.50e-06	0	41	0	503316480	64	5321
2026-01-12 08:48:10.60	64.17	29.24	-46.3	-50.0	14.3	0.00e+00	0	41	0	509607936	63	5783
2026-01-12 08:48:13.32	63.27	29.31	-46.5	-50.5	13.8	5.30e-06	0	41	0	514850816	64	5779
2026-01-12 08:48:16.61	62.17	29.39	-46.4	-50.3	14.0	1.50e-06	0	41	0	520093696	64	5615
2026-01-12 08:48:19.53	61.19	29.45	-46.6	-50.7	13.6	6.10e-06	0	41	0	526385152	64	5899
2026-01-12 08:48:22.52	60.18	29.50	-46.8	-51.0	13.3	2.89e-05	0	41	0	531628032	64	6076
2026-01-12 08:48:25.50	59.18	29.54	-45.5	-48.7	15.6	0.00e+00	0	41	0	536870912	63	4945
2026-01-12 08:48:28.49	58.17	29.57	-45.5	-48.8	15.6	0.00e+00	0	41	0	543162368	62	5327
2026-01-12 08:48:31.47	57.16	29.60	-46.3	-50.0	14.2	2.20e-06	0	41	0	548405248	63	5754
2026-01-12 08:48:34.46	56.14	29.61	-46.4	-50.0	14.4	1.50e-06	0	41	0	553648128	63	5768
2026-01-12 08:48:37.44	55.13	29.61	-46.0	-49.4	15.0	0.00e+00	0	41	0	559939584	63	5400
2026-01-12 08:48:40.48	54.10	29.60	-45.9	-49.3	15.1	0.00e+00	0	41	0	565182464	63	5294
2026-01-12 08:48:43.40	53.11	29.58	-46.5	-50.3	14.1	7.00e-07	0	41	0	570425344	63	5979
2026-01-12 08:48:46.52	52.06	29.55	-45.9	-49.3	15.2	2.20e-06	0	41	0	576716800	63	5285
2026-01-12 08:48:49.36	51.10	29.52	-45.9	-49.3	15.1	0.00e+00	0	41	0	581959680	63	5324
2026-01-12 08:48:52.51	50.04	29.46	-46.1	-49.7	14.7	7.00e-07	0	41	0	588251136	63	5537
2026-01-12 08:48:55.78	48.94	29.40	-45.6	-48.9	15.6	0.00e+00	0	41	0	593494016	62	5345
2026-01-12 08:48:58.87	47.91	29.33	-45.3	-48.4	15.9	0.00e+00	0	41	0	599785472	62	5056
2026-01-12 08:49:02.00	46.87	29.25	-45.1	-48.1	16.2	0.00e+00	0	41	0	606076928	61	5208
2026-01-12 08:49:04.83	45.94	29.16	-45.4	-48.7	15.7	0.00e+00	0	41	0	611319808	61	5542
2026-01-12 08:49:07.96	44.91	29.06	-45.6	-48.8	15.6	0.00e+00	0	41	0	616562688	62	5323
2026-01-12 08:49:10.85	43.97	28.96	-46.4	-50.0	14.4	0.00e+00	0	41	0	621805568	63	5767
2026-01-12 08:49:14.11	42.91	28.83	-45.8	-49.1	15.2	0.00e+00	0	41	0	628097024	63	5213
2026-01-12 08:49:16.98	41.99	28.71	-45.6	-48.7	15.7	0.00e+00	0	41	0	633339904	62	5263
2026-01-12 08:49:20.35	40.91	28.56	-46.2	-49.7	14.7	0.00e+00	0	41	0	639631360	63	5582
2026-01-12 08:49:23.34	39.97	28.42	-45.8	-49.2	15.2	0.00e+00	0	41	0	645922816	63	5230
2026-01-12 08:49:26.33	39.03	28.27	-46.1	-49.6	14.8	0.00e+00	0	41	0	651165696	63	5518
2026-01-12 08:49:29.31	38.11	28.12	-46.2	-49.8	14.6	1.50e-06	0	41	0	656408576	63	5603
2026-01-12 08:49:32.34	37.18	27.95	-46.6	-50.4	14.0	0.00e+00	0	41	0	662700032	63	6052
2026-01-12 08:49:35.32	36.27	27.78	-47.3	-51.7	12.7	5.18e-05	0	41	0	667942912	65	6228
2026-01-12 08:49:38.35	35.36	27.60	-47.7	-52.6	11.7	2.30e-04	0	41	0	674234368	65	6949
2026-01-12 08:49:41.33	34.48	27.42	-47.3	-52.1	12.2	1.69e-04	0	41	0	679477248	66	6157
2026-01-12 08:49:44.31	33.61	27.23	-46.8	-51.1	13.2	4.65e-05	0	41	0	684720128	65	5840
2026-01-12 08:49:47.29	32.74	27.03	-46.0	-49.6	14.8	7.00e-07	0	41	0	691011584	63	5479
2026-01-12 08:49:50.37	31.86	26.82	-45.3	-48.6	15.7	0.00e+00	0	41	0	696254464	62	5180
2026-01-12 08:49:53.35	31.02	26.61	-45.6	-48.9	15.5	0.00e+00	0	41	0	701497344	62	5378
2026-01-12 08:49:56.33	30.19	26.40	-45.0	-48.2	16.1	0.00e+00	0	41	0	707788800	62	4948
2026-01-12 08:49:59.54	29.31	26.17	-46.1	-49.9	14.7	0.00e+00	0	41	0	714080256	62	6013
2026-01-12 08:50:02.39	28.54	25.96	-45.8	-49.3	15.1	0.00e+00	0	41	0	719323136	62	5604
2026-01-12 08:50:05.51	27.71	25.72	-46.6	-50.8	13.6	3.80e-06	0	41	0	724566016	64	5925
2026-01-12 08:50:08.36	26.96	25.50	-46.4	-50.4	13.9	8.30e-06	0	41	0	729808896	64	5702
2026-01-12 08:50:11.49	26.14	25.25	-45.6	-48.9	15.5	0.00e+00	0	41	0	736100352	63	5066
2026-01-12 08:50:14.33	25.42	25.03	-44.9	-47.9	16.4	0.00e+00	0	41	0	741343232	61	5084
2026-01-12 08:50:17.45	24.64	24.77	-44.6	-47.5	16.7	0.00e+00	0	41	0	747634688	61	4850
2026-01-12 08:50:20.30	23.93	24.54	-44.5	-47.4	16.9	0.00e+00	0	41	0	752877568	60	5057
2026-01-12 08:50:23.48	23.16	24.28	-44.4	-47.3	16.9	0.00e+00	0	41	0	758120448	60	4984
2026-01-12 08:50:26.33	22.47	24.04	-43.9	-46.5	17.7	0.00e+00	0	41	0	763363328	59	4841
2026-01-12 08:50:29.68	21.69	23.76	-44.1	-46.8	17.3	0.00e+00	0	41	0	769654784	59	5017
2026-01-12 08:50:32.41	21.05	23.53	-44.8	-47.8	16.5	0.00e+00	0	41	0	774897664	60	5324
2026-01-12 08:50:35.74	20.29	23.24	-45.2	-48.3	16.0	0.00e+00	0	41	0	781189120	61	5300
2026-01-12 08:50:38.60	19.65	22.99	-44.9	-47.9	16.4	0.00e+00	0	41	0	786432000	61	5060
2026-01-12 08:50:41.93	18.92	22.70	-44.7	-47.6	16.8	0.00e+00	0	41	0	792723456	61	4876
2026-01-12 08:50:44.80	18.30	22.45	-43.8	-46.3	17.8	0.00e+00	0	41	0	797966336	59	4751
2026-01-12 08:50:47.92	17.64	22.18	-43.5	-46.0	18.1	0.00e+00	0	41	0	804257792	59	4567
2026-01-12 08:50:50.77	17.04	21.93	-44.4	-47.3	16.9	0.00e+00	0	41	0	809500672	59	5299
2026-01-12 08:50:53.89	16.40	21.65	-44.4	-47.2	17.0	0.00e+00	0	41	0	815792128	59	5270
2026-01-12 08:50:56.77	15.82	21.40	-44.3	-47.1	17.1	0.00e+00	0	41	0	821035008	59	5198
2026-01-12 08:50:59.97	15.19	21.11	-44.4	-47.1	17.1	0.00e+00	0	41	0	827326464	59	5200
2026-01-12 08:51:03.29	14.54	20.82	-44.5	-47.3	17.0	0.00e+00	0	41	0	832569344	60	5034
2026-01-12 08:51:06.40	13.95	20.54	-44.8	-47.7	16.6	0.00e+00	0	41	0	838860800	60	5257
2026-01-12 08:51:09.24	13.42	20.29	-44.2	-46.9	17.3	0.00e+00	0	41	0	844103680	60	4796
2026-01-12 08:51:12.37	12.84	20.01	-44.2	-46.9	17.3	0.00e+00	0	41	0	850395136	59	5043
2026-01-12 08:51:15.21	12.33	19.75	-44.8	-47.8	16.4	0.00e+00	0	41	0	855638016	60	5331
2026-01-12 08:51:18.34	11.77	19.48	-45.1	-48.3	16.0	0.00e+00	0	41	0	860880896	61	5308
2026-01-12 08:51:21.38	11.24	19.21	-44.6	-47.7	16.6	0.00e+00	0	41	0	867172352	61	4963
2026-01-12 08:51:24.24	10.75	18.95	-44.1	-46.9	17.3	0.00e+00	0	41	0	872415232	60	4796
2026-01-12 08:51:27.37	10.22	18.67	-44.3	-47.2	17.1	0.00e+00	0	41	0	878706688	60	4937
2026-01-12 08:51:30.23	9.75	18.42	-45.1	-48.4	15.9	0.00e+00	0	41	0	883949568	60	5694
2026-01-12 08:51:33.36	9.24	18.15	-45.6	-49.5	14.8	0.00e+00	0	41	0	889192448	61	6125
2026-01-12 08:51:36.30	8.77	17.89	-45.5	-49.3	15.1	0.00e+00	0	41	0	895483904	62	5629
2026-01-12 08:51:39.60	8.25	17.60	-44.9	-48.4	15.9	0.00e+00	0	41	0	900726784	61	5352
2026-01-12 08:51:42.33	7.83	17.36	-45.0	-48.5	15.7	0.00e+00	0	41	0	905969664	61	5464
2026-01-12 08:51:45.61	7.33	17.07	-45.7	-49.5	14.8	0.00e+00	0	41	0	912261120	62	5725
2026-01-12 08:51:48.36	6.92	16.84	-45.8	-49.4	14.9	1.50e-06	0	42	0	917504000	62	5719
2026-01-12 08:51:51.67	6.44	16.55	-44.9	-48.3	15.9	0.00e+00	0	41	0	923795456	61	5303
2026-01-12 08:51:54.43	6.04	16.31	-44.9	-48.1	16.1	0.00e+00	0	41	0	929038336	61	5194
2026-01-12 08:51:57.72	5.58	16.03	-45.0	-48.2	16.1	0.00e+00	0	41	0	935329792	61	5230
2026-01-12 08:52:00.46	5.20	15.80	-45.0	-48.3	16.0	0.00e+00	0	41	0	940572672	61	5312
2026-01-12 08:52:03.68	4.76	15.52	-45.1	-48.8	15.4	0.00e+00	0	41	0	945815552	61	5649
2026-01-12 08:52:06.65	4.37	15.27	-45.1	-48.6	15.6	0.00e+00	0	41	0	952107008	61	5512
2026-01-12 08:52:09.63	3.97	15.02	-45.1	-48.3	15.8	0.00e+00	0	41	0	957349888	61	5336
2026-01-12 08:52:12.62	3.59	14.77	-45.3	-48.7	15.5	0.00e+00	0	42	0	962592768	61	5587
2026-01-12 08:52:15.61	3.21	14.52	-46.0	-50.3	13.9	1.50e-06	0	42	0	968884224	62	6318
2026-01-12 08:52:18.60	2.84	14.27	-46.6	-51.3	13.0	1.98e-05	0	42	0	974127104	63	6650
2026-01-12 08:52:21.59	2.47	14.03	-46.1	-49.9	14.3	3.00e-06	0	41	0	979369984	63	5712
2026-01-12 08:52:24.58	2.11	13.78	-45.1	-48.6	15.6	0.00e+00	0	42	0	985661440	62	5189
2026-01-12 08:52:27.56	1.76	13.54	-44.6	-48.1	16.1	0.00e+00	0	42	0	990904320	61	5163
2026-01-12 08:52:30.54	1.41	13.30	-45.3	-48.9	15.3	0.00e+00	0	41	0	997195776	61	5671
2026-01-12 08:52:33.53	1.07	13.06	-46.2	-50.1	14.1	3.00e-06	0	41	0	1002438656	63	5837
2026-01-12 08:52:36.52	0.73	12.82	-46.8	-51.2	12.9	3.20e-05	0	41	0	1007681536	64	6231
2026-01-12 08:52:39.50	0.40	12.58	-46.8	-51.5	12.6	8.08e-05	0	41	0	1013972992	64	6463
2026-01-12 08:52:42.53	0.07	12.34	-46.7	-51.4	12.7	7.32e-05	0	42	0	1019215872	64	6373
2026-01-12 08:52:45.52	359.75	12.10	-46.7	-51.1	13.0	3.05e-05	0	41	0	1024458752	64	6191
2026-01-12 08:52:48.50	359.43	11.87	-46.4	-50.8	13.3	1.67e-05	0	42	0	1030750208	64	5925
2026-01-12 08:52:51.49	359.12	11.64	-46.2	-50.7	13.3	1.75e-05	0	41	0	1035993088	64	5915
2026-01-12 08:52:54.47	358.82	11.41	-46.0	-51.0	13.1	2.59e-05	0	41	0	1041235968	63	6464
2026-01-12 08:52:57.46	358.52	11.18	-45.4	-51.1	13.1	4.04e-05	0	41	0	1047527424	62	6909
2026-01-12 08:53:00.44	358.23	10.95	-45.0	-50.9	13.1	2.74e-05	0	42	0	1052770304	61	7186
2026-01-12 08:53:03.42	357.94	10.72	-45.4	-50.3	13.8	5.30e-06	0	41	0	1058013184	61	6673
2026-01-12 08:53:06.41	357.65	10.50	-45.5	-49.6	14.4	7.00e-07	0	41	0	1064304640	62	5832
2026-01-12 08:53:09.39	357.37	10.27	-45.3	-49.4	14.7	0.00e+00	0	41	0	1069547520	62	5690
2026-01-12 08:53:12.38	357.09	10.05	-45.1	-49.6	14.4	1.50e-06	0	41	0	1074790400	62	5836
2026-01-12 08:53:15.36	356.82	9.83	-45.2	-50.4	13.6	4.50e-06	0	41	0	1081081856	61	6792
2026-01-12 08:53:18.34	356.55	9.61	-45.1	-51.1	12.9	2.36e-05	0	41	0	1086324736	61	7344
2026-01-12 08:53:21.33	356.29	9.39	-45.0	-52.0	12.1	1.23e-04	0	41	0	1091567616	61	8107
2026-01-12 08:53:24.32	356.03	9.17	-45.1	-52.1	11.9	4.49e-04	0	42	0	1097859072	61	8259
2026-01-12 08:53:27.30	355.77	8.95	-48.6	-65.4	3.8	8.67e-01	0	42	104	1102053376	67	26840
2026-01-12 08:53:30.29	355.52	8.74	-49.8	-65.8	3.8	1.49e+00	0	42	104	1102053376	71	22362
2026-01-12 08:53:33.33	355.27	8.52	-50.6	-66.0	3.8	1.49e+00	0	42	104	1102053376	71	22848
2026-01-12 08:53:36.41	355.02	8.30	-50.6	-66.0	3.8	1.49e+00	0	42	104	1102053376	72	21654
2026-01-12 08:53:39.48	354.77	8.08	-50.5	-66.1	3.8	1.49e+00	0	42	104	1102053376	72	21766
2026-01-12 08:53:42.53	354.53	7.87	-50.9	-66.1	3.8	1.49e+00	0	41	104	1102053376	72	21861
2026-01-12 08:53:45.51	354.30	7.66	-50.8	-66.1	3.8	1.49e+00	0	42	104	1102053376	72	21760
2026-01-12 08:53:48.49	354.07	7.46	-50.9	-66.1	3.8	1.49e+00	0	42	104	1102053376	72	21788
2026-01-12 08:53:51.47	353.84	7.25	-50.8	-66.1	3.8	1.49e+00	0	42	104	1102053376	72	21816
2026-01-12 08:53:54.45	353.62	7.05	-50.7	-66.1	3.8	1.49e+00	0	42	104	1102053376	72	21840
2026-01-12 08:53:57.48	353.40	6.84	-50.7	-66.0	3.8	1.49e+00	0	41	104	1102053376	72	21746
2026-01-12 08:54:00.45	353.18	6.64	-50.7	-66.0	3.8	1.49e+00	0	42	104	1102053376	72	21701
2026-01-12 08:54:03.43	352.97	6.44	-50.7	-66.0	3.8	1.49e+00	0	42	104	1102053376	72	21708
2026-01-12 08:54:06.42	352.76	6.24	-50.7	-66.0	3.8	1.49e+00	0	41	104	1102053376	72	21752
2026-01-12 08:54:09.40	352.55	6.04	-50.7	-66.0	3.8	1.49e+00	0	42	104	1102053376	72	21738
2026-01-12 08:54:12.38	352.35	5.84	-50.7	-66.0	3.8	1.49e+00	0	42	104	1102053376	72	21634
2026-01-12 08:54:15.36	352.15	5.64	-50.7	-66.0	3.8	1.49e+00	0	42	104	1102053376	72	21738
2026-01-12 08:54:18.34	351.95	5.45	-50.7	-66.0	3.8	1.49e+00	0	42	104	1102053376	72	21707
2026-01-12 08:54:21.32	351.75	5.26	-50.7	-66.0	3.8	1.49e+00	0	42	104	1102053376	72	21675
2026-01-12 08:54:24.30	351.56	5.06	-50.7	-66.0	3.8	1.49e+00	0	42	104	1102053376	72	21679

#Closed at: 2026-01-12 08:54:26
#Recorded file [1102 MB]: D:/Data/31040_260112_114248.dat