passes_logs/2026/01/12/T1/T1__20260112_045656_FENGYUN_3E_rec.log

#Pass ID: 20260112_045656_FENGYUN 3E
#Satellite: FENGYUN 3E
#Configuration: FENGYUN 3E
#almurnet v.1.7.20251203
#Start time: 2026-01-12 04:56:56

#Version: 2.0.20230620
#Station: T1
#Location: 37.570604 lon 55.790049 lat
#TLE: 1 49008U 21062A   26011.27090272  .00000463  00000+0  23869-3 0  9994
#TLE: 2 49008  98.7490  16.4432 0001856 145.0812 215.0487 14.19886022234312

#Time	Az	El	Level	Level2	SNR	BER	BlckErr	Temp	State	Recorded	gain1	gain2
2026-01-12 04:56:56.55	10.35	5.03	-50.0	-61.7	3.8	8.47e-01	0	41	0	0	70	13754
2026-01-12 04:56:59.52	10.21	5.24	-49.4	-61.4	3.8	8.47e-01	0	41	104	0	68	15016
2026-01-12 04:57:02.51	10.06	5.44	-49.4	-61.5	3.8	8.48e-01	0	42	104	0	68	15115
2026-01-12 04:57:05.49	9.92	5.64	-49.4	-61.5	3.8	8.47e-01	0	42	104	0	68	15111
2026-01-12 04:57:08.47	9.77	5.85	-49.4	-61.2	3.8	8.47e-01	0	42	104	0	68	14588
2026-01-12 04:57:11.45	9.62	6.06	-49.4	-60.8	3.8	8.46e-01	0	42	104	0	68	13971
2026-01-12 04:57:14.43	9.46	6.27	-49.4	-60.8	3.8	8.47e-01	0	42	104	0	68	14006
2026-01-12 04:57:17.41	9.31	6.48	-49.4	-60.6	3.8	8.47e-01	0	42	104	0	68	13720
2026-01-12 04:57:20.39	9.15	6.69	-49.4	-60.2	3.8	8.47e-01	0	42	104	0	68	13061
2026-01-12 04:57:23.37	8.99	6.91	-49.4	-60.6	3.8	8.47e-01	0	42	104	0	68	13612
2026-01-12 04:57:26.35	8.83	7.12	-49.5	-61.5	3.8	8.47e-01	0	42	104	0	68	15058
2026-01-12 04:57:29.33	8.66	7.34	-49.2	-58.5	4.1	8.44e-01	0	43	104	0	68	10725
2026-01-12 04:57:32.31	8.49	7.56	-48.0	-53.5	6.6	2.36e-01	0	43	0	5242880	66	6792
2026-01-12 04:57:35.29	8.32	7.78	-46.6	-50.2	9.9	1.23e-02	0	42	0	26214400	64	5206
2026-01-12 04:57:38.27	8.15	8.00	-45.3	-48.0	12.3	3.44e-04	0	43	0	48234496	61	4775
2026-01-12 04:57:41.24	7.97	8.22	-44.4	-46.5	13.7	1.02e-05	0	43	0	69206016	59	4517
2026-01-12 04:57:44.22	7.79	8.45	-43.8	-45.6	14.6	0.00e+00	0	43	0	91226112	58	4336
2026-01-12 04:57:47.20	7.61	8.67	-44.1	-46.2	14.1	1.10e-06	0	43	0	112197632	58	4600
2026-01-12 04:57:50.18	7.42	8.90	-46.0	-49.1	11.2	7.90e-04	0	43	0	134217728	61	5407
2026-01-12 04:57:53.16	7.23	9.13	-46.2	-49.6	10.6	1.98e-03	0	43	0	155189248	62	5458
2026-01-12 04:57:56.18	7.04	9.37	-42.5	-44.2	15.9	0.00e+00	0	43	0	173015040	55	4378
2026-01-12 04:57:59.16	6.84	9.60	-42.0	-43.6	16.5	0.00e+00	0	43	0	195035136	54	4316
2026-01-12 04:58:02.15	6.64	9.84	-41.5	-43.1	16.9	0.00e+00	0	43	0	216006656	53	4323
2026-01-12 04:58:05.13	6.44	10.08	-41.6	-43.2	16.9	0.00e+00	0	43	0	238026752	53	4357
2026-01-12 04:58:08.45	6.21	10.35	-41.4	-42.9	17.1	0.00e+00	0	43	0	261095424	53	4220
2026-01-12 04:58:11.42	6.00	10.59	-41.5	-43.0	17.1	0.00e+00	0	43	0	283115520	53	4281
2026-01-12 04:58:15.31	5.72	10.91	-41.3	-42.7	17.4	0.00e+00	0	43	0	311427072	53	4106
2026-01-12 04:58:18.09	5.52	11.14	-41.2	-42.5	17.6	0.00e+00	0	43	0	331350016	53	4051
2026-01-12 04:58:21.64	5.25	11.43	-41.2	-42.5	17.6	0.00e+00	0	43	0	356515840	53	4006
2026-01-12 04:58:24.50	5.04	11.68	-41.2	-42.4	17.6	0.00e+00	0	43	0	377487360	52	4240
2026-01-12 04:58:28.48	4.73	12.02	-41.1	-42.3	17.9	0.00e+00	0	43	0	406847488	52	4151
2026-01-12 04:58:31.32	4.50	12.26	-41.0	-42.2	17.9	0.00e+00	0	43	0	426770432	52	4114
2026-01-12 04:58:35.46	4.16	12.62	-41.1	-42.3	17.9	0.00e+00	0	43	0	457179136	52	4164
2026-01-12 04:58:38.46	3.92	12.88	-41.1	-42.3	17.9	0.00e+00	0	43	0	478150656	52	4151
2026-01-12 04:58:41.69	3.64	13.17	-41.0	-42.1	18.0	0.00e+00	0	43	0	501219328	52	4090
2026-01-12 04:58:44.67	3.39	13.44	-40.9	-42.1	18.1	0.00e+00	0	43	0	523239424	52	4059
2026-01-12 04:58:47.66	3.12	13.71	-40.7	-41.8	18.4	0.00e+00	0	44	0	545259520	52	3943
2026-01-12 04:58:50.61	2.86	13.97	-40.7	-41.8	18.5	0.00e+00	0	44	0	566231040	51	4170
2026-01-12 04:58:53.96	2.55	14.28	-40.6	-41.8	18.5	0.00e+00	0	43	0	590348288	51	4150
2026-01-12 04:58:56.67	2.30	14.53	-40.6	-41.7	18.5	0.00e+00	0	44	0	610271232	51	4143
2026-01-12 04:58:59.95	1.99	14.84	-40.9	-42.0	18.3	0.00e+00	0	44	0	633339904	51	4283
2026-01-12 04:59:02.65	1.73	15.09	-40.6	-41.8	18.5	0.00e+00	0	44	0	653262848	51	4169
2026-01-12 04:59:05.94	1.40	15.41	-40.7	-41.9	18.4	0.00e+00	0	44	0	676331520	51	4224
2026-01-12 04:59:08.86	1.11	15.69	-40.7	-41.9	18.4	0.00e+00	0	44	0	698351616	51	4232
2026-01-12 04:59:12.24	0.76	16.02	-40.6	-41.8	18.5	0.00e+00	0	43	0	722468864	51	4165
2026-01-12 04:59:14.94	0.47	16.28	-40.5	-41.6	18.7	0.00e+00	0	44	0	741343232	51	4093
2026-01-12 04:59:18.21	0.12	16.60	-40.4	-41.5	18.8	0.00e+00	0	44	0	765460480	51	4030
2026-01-12 04:59:20.96	359.82	16.88	-39.9	-40.9	19.4	0.00e+00	0	44	0	785383424	50	3985
2026-01-12 04:59:24.29	359.45	17.21	-40.3	-41.3	19.0	0.00e+00	0	44	0	809500672	50	4193
2026-01-12 04:59:27.02	359.14	17.49	-40.2	-41.3	19.0	0.00e+00	0	44	0	829423616	50	4186
2026-01-12 04:59:30.29	358.75	17.83	-40.3	-41.4	18.9	0.00e+00	0	44	0	852492288	50	4219
2026-01-12 04:59:32.99	358.43	18.10	-40.1	-41.2	19.1	0.00e+00	0	44	0	872415232	50	4141
2026-01-12 04:59:36.26	358.04	18.44	-40.1	-41.2	19.1	0.00e+00	0	44	0	895483904	50	4115
2026-01-12 04:59:39.01	357.69	18.73	-39.9	-41.0	19.3	0.00e+00	0	44	0	915406848	50	4032
2026-01-12 04:59:42.27	357.28	19.08	-39.3	-40.8	19.5	0.00e+00	0	44	0	939524096	49	4176
2026-01-12 04:59:45.29	356.89	19.40	-39.4	-40.4	19.9	0.00e+00	0	44	0	960495616	48	4228
2026-01-12 04:59:48.27	356.49	19.73	-39.1	-40.2	19.8	0.00e+00	0	44	0	982515712	47	4370
2026-01-12 04:59:51.26	356.09	20.05	-39.2	-40.2	19.8	0.00e+00	0	44	0	1004535808	47	4347
2026-01-12 04:59:54.24	355.67	20.38	-39.2	-40.3	19.8	0.00e+00	0	44	0	1025507328	47	4396
2026-01-12 04:59:57.21	355.25	20.71	-39.4	-40.4	19.8	0.00e+00	0	44	0	1047527424	48	4202
2026-01-12 05:00:00.34	354.80	21.06	-39.3	-40.3	20.0	0.00e+00	0	44	0	1069547520	48	4160
2026-01-12 05:00:03.18	354.38	21.38	-39.2	-40.1	20.2	0.00e+00	0	44	0	1089470464	48	4086
2026-01-12 05:00:06.30	353.90	21.73	-38.9	-39.9	20.4	0.00e+00	0	44	0	1112539136	48	3959
2026-01-12 05:00:09.16	353.46	22.06	-38.8	-39.8	20.2	0.00e+00	0	44	0	1133510656	47	4167
2026-01-12 05:00:12.28	352.97	22.41	-38.8	-39.9	20.1	0.00e+00	0	44	0	1155530752	47	4195
2026-01-12 05:00:15.19	352.49	22.75	-38.9	-39.9	20.1	0.00e+00	0	44	0	1176502272	47	4213
2026-01-12 05:00:18.76	351.90	23.17	-39.1	-40.1	20.2	0.00e+00	0	44	0	1202716672	48	4094
2026-01-12 05:00:21.62	351.41	23.51	-39.2	-40.2	20.1	0.00e+00	0	44	0	1222639616	48	4127
2026-01-12 05:00:24.90	350.84	23.89	-39.3	-40.3	20.1	0.00e+00	0	44	0	1246756864	48	4153
2026-01-12 05:00:27.62	350.36	24.22	-39.0	-40.0	20.3	0.00e+00	0	44	0	1266679808	48	4046
2026-01-12 05:00:31.06	349.73	24.63	-37.0	-39.7	20.4	0.00e+00	0	44	0	1291845632	46	4348
2026-01-12 05:00:34.08	349.16	25.00	-38.6	-39.6	20.4	0.00e+00	0	44	0	1312817152	47	4075
2026-01-12 05:00:37.07	348.59	25.36	-38.7	-39.6	20.4	0.00e+00	0	44	0	1334837248	47	4091
2026-01-12 05:00:40.05	348.00	25.72	-38.8	-39.8	20.2	0.00e+00	0	44	0	1355808768	47	4173
2026-01-12 05:00:43.03	347.40	26.09	-38.9	-39.9	20.1	0.00e+00	0	44	0	1377828864	47	4233
2026-01-12 05:00:46.02	346.78	26.45	-38.8	-39.8	20.2	0.00e+00	0	44	0	1398800384	47	4168
2026-01-12 05:00:49.00	346.16	26.82	-38.9	-39.9	20.2	0.00e+00	0	44	0	1420820480	47	4195
2026-01-12 05:00:51.98	345.51	27.19	-38.9	-39.9	20.2	0.00e+00	0	44	0	1441792000	47	4207
2026-01-12 05:00:54.97	344.85	27.56	-38.9	-39.9	20.2	0.00e+00	0	44	0	1463812096	47	4217
2026-01-12 05:00:57.95	344.18	27.93	-38.8	-39.8	20.3	0.00e+00	0	44	0	1484783616	47	4147
2026-01-12 05:01:00.93	343.49	28.30	-38.7	-39.7	20.3	0.00e+00	0	44	0	1506803712	47	4133
2026-01-12 05:01:04.00	342.76	28.68	-38.7	-39.7	20.4	0.00e+00	0	44	0	1528823808	46	4345
2026-01-12 05:01:06.84	342.07	29.04	-38.5	-39.5	20.6	0.00e+00	0	44	0	1549795328	46	4256
2026-01-12 05:01:09.97	341.29	29.43	-38.5	-39.5	20.6	0.00e+00	0	44	0	1571815424	46	4262
2026-01-12 05:01:12.81	340.57	29.78	-38.3	-39.2	20.8	0.00e+00	0	44	0	1592786944	46	4134
2026-01-12 05:01:16.08	339.72	30.18	-38.2	-39.1	20.8	0.00e+00	0	44	0	1615855616	46	4097
2026-01-12 05:01:18.81	338.99	30.52	-38.1	-39.1	20.9	0.00e+00	0	44	0	1635778560	46	4066
2026-01-12 05:01:22.08	338.10	30.92	-37.7	-39.2	20.8	0.00e+00	0	44	0	1659895808	45	4377
2026-01-12 05:01:24.91	337.31	31.27	-38.3	-39.3	20.7	0.00e+00	0	44	0	1679818752	46	4168
2026-01-12 05:01:28.04	336.41	31.65	-38.4	-39.3	20.7	0.00e+00	0	44	0	1702887424	46	4186
2026-01-12 05:01:30.88	335.58	31.99	-38.2	-39.2	20.8	0.00e+00	0	44	0	1722810368	46	4113
2026-01-12 05:01:34.01	334.64	32.36	-38.4	-39.3	20.7	0.00e+00	0	44	0	1745879040	46	4179
2026-01-12 05:01:36.85	333.78	32.70	-38.2	-39.2	20.8	0.00e+00	0	44	0	1765801984	46	4119
2026-01-12 05:01:39.98	332.80	33.06	-38.0	-38.9	21.0	0.00e+00	0	44	0	1788870656	45	4234
2026-01-12 05:01:42.82	331.89	33.39	-38.2	-39.1	20.9	0.00e+00	0	44	0	1808793600	46	4089
2026-01-12 05:01:46.01	330.85	33.75	-38.3	-39.3	20.7	0.00e+00	0	44	0	1832910848	46	4161
2026-01-12 05:01:48.93	329.88	34.07	-38.1	-39.0	20.9	0.00e+00	0	44	0	1852833792	45	4279
2026-01-12 05:01:52.05	328.82	34.41	-38.2	-39.1	20.8	0.00e+00	0	44	0	1875902464	46	4096
2026-01-12 05:01:54.89	327.84	34.71	-38.1	-39.1	21.0	0.00e+00	0	44	0	1895825408	46	4056
2026-01-12 05:01:58.01	326.73	35.03	-38.0	-39.0	21.0	0.00e+00	0	44	0	1918894080	45	4265
2026-01-12 05:02:00.86	325.71	35.32	-38.4	-39.3	20.7	0.00e+00	0	44	0	1939865600	46	4176
2026-01-12 05:02:03.98	324.56	35.63	-38.4	-39.4	20.6	0.00e+00	0	44	0	1961885696	46	4213
2026-01-12 05:02:06.83	323.50	35.90	-38.2	-39.2	20.8	0.00e+00	0	44	0	1982857216	45	4370
2026-01-12 05:02:10.10	322.25	36.19	-38.1	-39.0	21.0	0.00e+00	0	44	0	2005925888	45	4272
2026-01-12 05:02:12.90	321.17	36.44	-38.6	-39.5	20.5	0.00e+00	0	44	0	2025848832	46	4289
2026-01-12 05:02:16.03	319.94	36.70	-38.3	-39.3	20.7	0.00e+00	0	44	0	2048917504	46	4163
2026-01-12 05:02:18.87	318.81	36.93	-38.3	-39.2	20.8	0.00e+00	0	44	0	2069889024	46	4114
2026-01-12 05:02:22.11	317.50	37.17	-38.3	-39.2	20.8	0.00e+00	0	44	0	2092957696	46	4122
2026-01-12 05:02:24.95	316.33	37.37	-38.4	-39.4	20.7	0.00e+00	0	44	0	2112880640	46	4194
2026-01-12 05:02:28.08	315.03	37.58	-38.7	-39.6	20.5	0.00e+00	0	44	0	2135949312	46	4327
2026-01-12 05:02:31.03	313.79	37.76	-38.5	-39.4	20.6	0.00e+00	0	44	0	2156920832	46	4238
2026-01-12 05:02:34.01	312.53	37.93	-38.1	-39.0	21.0	0.00e+00	0	44	0	2178940928	46	4017
2026-01-12 05:02:37.00	311.24	38.08	-38.1	-39.0	21.0	0.00e+00	0	44	0	2199912448	46	4027
2026-01-12 05:02:39.98	309.95	38.22	-38.2	-39.2	20.9	0.00e+00	0	44	0	2221932544	46	4113
2026-01-12 05:02:42.97	308.65	38.34	-38.3	-39.3	20.7	0.00e+00	0	44	0	2243952640	46	4171
2026-01-12 05:02:45.96	307.33	38.44	-38.6	-39.5	20.5	0.00e+00	0	44	0	2264924160	46	4286
2026-01-12 05:02:48.95	306.01	38.53	-38.5	-39.5	20.6	0.00e+00	0	44	0	2286944256	46	4249
2026-01-12 05:02:51.93	304.68	38.60	-38.3	-39.3	20.7	0.00e+00	0	44	0	2307915776	46	4162
2026-01-12 05:02:54.97	303.33	38.65	-38.3	-39.2	20.8	0.00e+00	0	44	0	2329935872	46	4133
2026-01-12 05:02:57.95	301.99	38.69	-38.3	-39.3	20.8	0.00e+00	0	44	0	2351955968	46	4152
2026-01-12 05:03:00.94	300.65	38.71	-38.2	-39.1	20.9	0.00e+00	0	44	0	2372927488	46	4097
2026-01-12 05:03:03.92	299.31	38.70	-38.5	-39.5	20.6	0.00e+00	0	44	0	2394947584	46	4256
2026-01-12 05:03:06.90	297.98	38.69	-38.3	-39.3	20.8	0.00e+00	0	44	0	2415919104	46	4155
2026-01-12 05:03:09.94	296.62	38.65	-38.3	-39.2	20.8	0.00e+00	0	44	0	2437939200	46	4129
2026-01-12 05:03:12.92	295.29	38.59	-38.4	-39.4	20.7	0.00e+00	0	44	0	2459959296	46	4202
2026-01-12 05:03:15.91	293.96	38.52	-38.1	-39.0	21.0	0.00e+00	0	44	0	2480930816	46	4035
2026-01-12 05:03:18.89	292.64	38.43	-38.2	-39.2	20.9	0.00e+00	0	44	0	2502950912	46	4109
2026-01-12 05:03:21.87	291.33	38.33	-37.9	-38.8	21.1	0.00e+00	0	44	0	2523922432	46	3954
2026-01-12 05:03:25.01	289.96	38.20	-38.1	-39.0	21.0	0.00e+00	0	44	0	2546991104	46	4042
2026-01-12 05:03:27.86	288.72	38.06	-38.2	-39.1	20.9	0.00e+00	0	44	0	2567962624	46	4077
2026-01-12 05:03:30.98	287.38	37.90	-38.3	-39.2	20.8	0.00e+00	0	44	0	2589982720	46	4116
2026-01-12 05:03:33.82	286.17	37.74	-38.3	-39.3	20.7	0.00e+00	0	44	0	2610954240	46	4148
2026-01-12 05:03:36.99	284.84	37.54	-38.1	-39.1	20.9	0.00e+00	0	44	0	2632974336	46	4072
2026-01-12 05:03:39.91	283.63	37.35	-38.0	-39.0	21.0	0.00e+00	0	44	0	2654994432	46	4009
2026-01-12 05:03:43.04	282.34	37.12	-38.4	-39.3	20.7	0.00e+00	0	44	0	2677014528	46	4174
2026-01-12 05:03:45.88	281.19	36.91	-38.1	-39.0	20.9	0.00e+00	0	44	0	2697986048	46	4043
2026-01-12 05:03:49.01	279.95	36.65	-37.9	-38.8	21.2	0.00e+00	0	44	0	2720006144	46	3937
2026-01-12 05:03:51.85	278.83	36.41	-38.2	-39.1	20.9	0.00e+00	0	44	0	2740977664	46	4094
2026-01-12 05:03:54.97	277.62	36.14	-37.9	-38.8	21.1	0.00e+00	0	44	0	2762997760	46	3945
2026-01-12 05:03:57.82	276.54	35.88	-38.1	-39.0	21.0	0.00e+00	0	44	0	2783969280	46	4028
2026-01-12 05:04:00.95	275.37	35.58	-38.2	-39.1	20.8	0.00e+00	0	44	0	2805989376	46	4097
2026-01-12 05:04:03.84	274.31	35.29	-37.8	-38.7	21.2	0.00e+00	0	44	0	2826960896	46	3880
2026-01-12 05:04:07.11	273.13	34.96	-37.7	-38.6	21.3	0.00e+00	0	44	0	2851078144	45	4090
2026-01-12 05:04:09.81	272.17	34.68	-37.8	-38.7	21.2	0.00e+00	0	44	0	2869952512	45	4136
2026-01-12 05:04:13.08	271.04	34.33	-37.6	-38.5	21.4	0.00e+00	0	44	0	2894069760	45	4047
2026-01-12 05:04:15.89	270.08	34.02	-37.7	-38.6	21.3	0.00e+00	0	44	0	2913992704	45	4058
2026-01-12 05:04:19.01	269.04	33.67	-37.7	-38.5	21.4	0.00e+00	0	44	0	2937061376	45	4050
2026-01-12 05:04:21.86	268.11	33.35	-37.6	-38.4	21.4	0.00e+00	0	44	0	2956984320	45	4001
2026-01-12 05:04:25.06	267.09	32.98	-37.6	-38.5	21.4	0.00e+00	0	44	0	2980052992	45	4024
2026-01-12 05:04:27.95	266.19	32.64	-37.8	-38.8	21.1	0.00e+00	0	44	0	3001024512	45	4150
2026-01-12 05:04:31.14	265.21	32.26	-38.4	-39.3	20.7	0.00e+00	0	44	0	3024093184	46	4185
2026-01-12 05:04:33.99	264.36	31.92	-38.1	-39.0	20.9	0.00e+00	0	44	0	3045064704	46	4031
2026-01-12 05:04:37.13	263.44	31.54	-37.9	-38.8	21.1	0.00e+00	0	44	0	3067084800	45	4175
2026-01-12 05:04:40.12	262.59	31.18	-37.9	-38.8	21.1	0.00e+00	0	44	0	3089104896	45	4161
2026-01-12 05:04:43.10	261.76	30.81	-38.0	-38.9	21.0	0.00e+00	0	44	0	3110076416	45	4239
2026-01-12 05:04:46.08	260.94	30.45	-38.4	-39.4	20.6	0.00e+00	0	44	0	3132096512	46	4198
2026-01-12 05:04:49.07	260.15	30.07	-38.3	-39.3	20.7	0.00e+00	0	44	0	3154116608	46	4157
2026-01-12 05:04:52.05	259.37	29.70	-38.2	-39.1	20.9	0.00e+00	0	44	0	3175088128	46	4072
2026-01-12 05:04:55.03	258.61	29.33	-38.2	-39.1	20.8	0.00e+00	0	44	0	3197108224	46	4072
2026-01-12 05:04:58.02	257.87	28.96	-38.3	-39.3	20.7	0.00e+00	0	44	0	3218079744	46	4163
2026-01-12 05:05:01.01	257.14	28.58	-38.5	-39.4	20.5	0.00e+00	0	44	0	3240099840	46	4233
2026-01-12 05:05:03.99	256.43	28.21	-38.7	-39.7	20.3	0.00e+00	0	44	0	3261071360	46	4360
2026-01-12 05:05:06.97	255.74	27.84	-38.5	-39.5	20.5	0.00e+00	0	44	0	3283091456	46	4247
2026-01-12 05:05:09.96	255.06	27.47	-38.5	-39.4	20.5	0.00e+00	0	44	0	3305111552	46	4228
2026-01-12 05:05:12.94	254.40	27.09	-38.5	-39.4	20.5	0.00e+00	0	44	0	3326083072	46	4241
2026-01-12 05:05:15.99	253.74	26.72	-38.3	-39.2	20.7	0.00e+00	0	44	0	3348103168	46	4136
2026-01-12 05:05:18.97	253.11	26.35	-38.0	-39.0	20.9	0.00e+00	0	44	0	3370123264	46	4041
2026-01-12 05:05:21.95	252.50	25.98	-38.4	-39.3	20.7	0.00e+00	0	44	0	3391094784	46	4169
2026-01-12 05:05:24.94	251.90	25.61	-38.5	-39.4	20.5	0.00e+00	0	44	0	3412066304	46	4241
2026-01-12 05:05:27.94	251.31	25.24	-38.6	-39.6	20.4	0.00e+00	0	44	0	3434086400	46	4304
2026-01-12 05:05:30.98	250.72	24.87	-38.6	-39.5	20.4	0.00e+00	0	44	0	3456106496	46	4286
2026-01-12 05:05:33.97	250.16	24.51	-38.5	-39.5	20.5	0.00e+00	0	44	0	3478126592	46	4256
2026-01-12 05:05:36.95	249.61	24.15	-38.3	-39.3	20.6	0.00e+00	0	44	0	3499098112	46	4157
2026-01-12 05:05:39.94	249.08	23.79	-38.4	-39.4	20.6	0.00e+00	0	44	0	3521118208	46	4195
2026-01-12 05:05:42.92	248.56	23.44	-38.7	-39.7	20.3	0.00e+00	0	44	0	3542089728	46	4354
2026-01-12 05:05:45.98	248.03	23.08	-39.0	-40.0	20.0	0.00e+00	0	44	0	3564109824	47	4275
2026-01-12 05:05:48.83	247.55	22.74	-38.8	-39.7	20.2	0.00e+00	0	44	0	3585081344	47	4142
2026-01-12 05:05:51.95	247.04	22.38	-38.8	-39.8	20.2	0.00e+00	0	44	0	3607101440	47	4156
2026-01-12 05:05:54.79	246.59	22.05	-39.0	-40.0	20.0	0.00e+00	0	44	0	3628072960	47	4270
2026-01-12 05:05:58.09	246.07	21.67	-39.2	-40.2	19.8	0.00e+00	0	44	0	3652190208	47	4344
2026-01-12 05:06:00.81	245.66	21.36	-39.0	-40.0	20.0	0.00e+00	0	44	0	3672113152	47	4259
2026-01-12 05:06:04.08	245.17	20.99	-38.8	-39.8	20.2	0.00e+00	0	44	0	3695181824	47	4146
2026-01-12 05:06:06.79	244.77	20.69	-38.9	-39.8	20.1	0.00e+00	0	44	0	3715104768	47	4180
2026-01-12 05:06:10.06	244.30	20.32	-39.0	-40.0	19.9	0.00e+00	0	44	0	3738173440	47	4273
2026-01-12 05:06:12.76	243.93	20.02	-39.5	-40.5	19.8	0.00e+00	0	44	0	3758096384	48	4245
2026-01-12 05:06:16.25	243.45	19.64	-39.8	-40.8	19.6	0.00e+00	0	44	0	3783262208	48	4392
2026-01-12 05:06:18.95	243.09	19.35	-39.7	-40.7	19.6	0.00e+00	0	44	0	3803185152	49	4125
2026-01-12 05:06:22.24	242.66	19.00	-39.6	-40.6	19.7	0.00e+00	0	44	0	3826253824	49	4060
2026-01-12 05:06:24.97	242.31	18.70	-39.5	-40.5	19.8	0.00e+00	0	44	0	3846176768	49	4030
2026-01-12 05:06:28.24	241.90	18.36	-39.8	-40.8	19.4	0.00e+00	0	44	0	3869245440	49	4192
2026-01-12 05:06:31.08	241.55	18.06	-40.1	-41.1	19.2	0.00e+00	0	44	0	3890216960	49	4321
2026-01-12 05:06:34.21	241.17	17.74	-40.1	-41.1	19.2	0.00e+00	0	44	0	3913285632	49	4330
2026-01-12 05:06:37.05	240.84	17.44	-39.9	-40.9	19.4	0.00e+00	0	44	0	3933208576	49	4224
2026-01-12 05:06:40.19	240.47	17.12	-40.0	-41.0	19.2	0.00e+00	0	44	0	3956277248	49	4287
2026-01-12 05:06:43.04	240.15	16.83	-40.0	-41.0	19.2	0.00e+00	0	44	0	3976200192	49	4270
2026-01-12 05:06:46.11	239.81	16.53	-40.0	-41.1	19.2	0.00e+00	0	44	0	3998220288	49	4301
2026-01-12 05:06:49.25	239.47	16.22	-40.0	-41.1	19.2	0.00e+00	0	44	0	4021288960	49	4301
2026-01-12 05:06:52.09	239.17	15.94	-40.1	-41.1	19.1	0.00e+00	0	44	0	4041211904	49	4318
2026-01-12 05:06:55.31	238.83	15.62	-40.3	-41.3	18.9	0.00e+00	0	44	0	4065329152	49	4428
2026-01-12 05:06:58.20	238.54	15.34	-40.4	-41.5	18.8	0.00e+00	0	44	0	4085252096	50	4264
2026-01-12 05:07:01.42	238.22	15.03	-40.5	-41.7	18.6	0.00e+00	0	44	0	4109369344	50	4346
2026-01-12 05:07:04.32	237.93	14.76	-40.7	-41.8	18.5	0.00e+00	0	44	0	4130340864	50	4421
2026-01-12 05:07:07.59	237.62	14.45	-40.7	-41.8	18.4	0.00e+00	0	44	0	4153409536	50	4434
2026-01-12 05:07:10.30	237.36	14.20	-40.9	-42.0	18.2	0.00e+00	0	44	0	4172283904	51	4272
2026-01-12 05:07:14.28	237.00	13.83	-40.9	-42.1	18.2	0.00e+00	0	44	0	4201644032	51	4294
2026-01-12 05:07:17.12	236.74	13.57	-41.0	-42.2	18.1	0.00e+00	0	44	0	4222615552	51	4341
2026-01-12 05:07:21.04	236.39	13.22	-40.9	-42.1	18.1	0.00e+00	0	44	0	4250927104	51	4309
2026-01-12 05:07:23.86	236.15	12.97	-40.9	-42.0	18.2	0.00e+00	0	44	0	4270850048	51	4274
2026-01-12 05:07:27.82	235.81	12.62	-40.8	-42.0	18.2	0.00e+00	0	44	0	4300210176	51	4249
2026-01-12 05:07:30.67	235.58	12.37	-40.9	-42.0	18.1	0.00e+00	0	44	0	4320133120	51	4283
2026-01-12 05:07:34.55	235.26	12.03	-41.1	-42.3	17.9	0.00e+00	0	44	0	4348444672	51	4396
2026-01-12 05:07:37.37	235.03	11.79	-41.3	-42.5	17.6	0.00e+00	0	44	0	4368367616	52	4256
2026-01-12 05:07:41.34	234.72	11.45	-41.6	-42.9	17.2	0.00e+00	0	44	0	4396679168	52	4457
2026-01-12 05:07:44.12	234.51	11.21	-41.8	-43.1	17.0	0.00e+00	0	44	0	4417650688	53	4303
2026-01-12 05:07:48.02	234.22	10.89	-42.0	-43.3	16.8	0.00e+00	0	44	0	4445962240	53	4416
2026-01-12 05:07:50.84	234.01	10.65	-42.1	-43.5	16.6	0.00e+00	0	44	0	4465885184	53	4502
2026-01-12 05:07:54.77	233.73	10.33	-41.9	-43.1	16.9	0.00e+00	0	44	0	4494196736	53	4339
2026-01-12 05:07:57.59	233.53	10.10	-41.8	-43.1	16.9	0.00e+00	0	44	0	4514119680	53	4322
2026-01-12 05:08:01.37	233.27	9.80	-41.8	-43.1	16.9	0.00e+00	0	44	0	4541382656	53	4297
2026-01-12 05:08:04.15	233.08	9.58	-41.8	-43.0	17.0	0.00e+00	0	44	0	4561305600	53	4272
2026-01-12 05:08:07.89	232.83	9.28	-41.7	-43.0	17.0	0.00e+00	0	44	0	4588568576	53	4267
2026-01-12 05:08:10.68	232.64	9.06	-41.8	-43.1	16.9	0.00e+00	0	44	0	4609540096	53	4299
2026-01-12 05:08:14.43	232.40	8.77	-51.0	-61.8	3.8	8.46e-01	0	44	104	4617928704	71	13240
2026-01-12 05:08:17.23	232.22	8.55	-51.2	-62.0	3.8	8.46e-01	0	44	104	4617928704	72	12747
2026-01-12 05:08:20.79	232.00	8.28	-51.3	-62.1	3.8	8.47e-01	0	44	104	4617928704	72	12828
2026-01-12 05:08:23.50	231.83	8.08	-51.2	-62.1	3.8	8.47e-01	0	44	104	4617928704	72	12825
2026-01-12 05:08:26.79	231.64	7.83	-51.1	-62.1	3.8	8.46e-01	0	44	104	4617928704	72	12835
2026-01-12 05:08:29.53	231.47	7.63	-51.1	-62.0	3.8	8.46e-01	0	44	104	4617928704	72	12791
2026-01-12 05:08:32.80	231.28	7.38	-51.1	-62.0	3.8	8.47e-01	0	44	104	4617928704	72	12724
2026-01-12 05:08:35.53	231.13	7.18	-51.0	-62.0	3.8	8.46e-01	0	44	104	4617928704	72	12676
2026-01-12 05:08:38.82	230.94	6.94	-51.0	-62.0	3.8	8.47e-01	0	44	104	4617928704	72	12736
2026-01-12 05:08:41.53	230.79	6.75	-51.1	-62.0	3.8	8.47e-01	0	44	104	4617928704	72	12684
2026-01-12 05:08:44.81	230.61	6.51	-51.1	-62.0	3.8	8.47e-01	0	44	104	4617928704	72	12692
2026-01-12 05:08:47.52	230.46	6.32	-51.0	-62.0	3.8	8.46e-01	0	44	104	4617928704	72	12682
2026-01-12 05:08:50.81	230.29	6.08	-51.0	-61.9	3.8	8.46e-01	0	44	104	4617928704	72	12613
2026-01-12 05:08:53.52	230.15	5.89	-51.0	-62.0	3.8	8.48e-01	0	44	104	4617928704	72	12685
2026-01-12 05:08:56.80	229.98	5.66	-51.0	-61.9	3.8	8.46e-01	0	44	104	4617928704	72	12609
2026-01-12 05:08:59.52	229.84	5.48	-51.0	-62.0	3.8	8.48e-01	0	44	104	4617928704	72	12686
2026-01-12 05:09:02.82	229.67	5.25	-51.0	-61.9	3.8	8.47e-01	0	44	104	4617928704	72	12630
2026-01-12 05:09:05.53	229.54	5.06	-51.0	-61.9	3.8	8.47e-01	0	44	104	4617928704	72	12580

#Closed at: 2026-01-12 05:09:07
#Recorded file [4617 MB]: D:/Data/31040_260112_075656.dat