passes_logs/2026/01/12/T1/T1__20260112_023321_FENGYUN_3G_rec.log

#Pass ID: 20260112_023321_FENGYUN 3G
#Satellite: FENGYUN 3G
#Configuration: FENGYUN 3G
#almurnet v.1.7.20251203
#Start time: 2026-01-12 02:33:21

#Version: 2.0.20230620
#Station: T1
#Location: 37.570604 lon 55.790049 lat
#TLE: 1 56232U 23055A   26011.25391515  .00034535  00000+0  54118-3 0  9995
#TLE: 2 56232  49.9937  75.2574 0004230   9.7874 350.3175 15.53326427155615

#Time	Az	El	Level	Level2	SNR	BER	BlckErr	Temp	State	Recorded	gain1	gain2
2026-01-12 02:33:21.73	258.94	5.06	-50.2	-69.1	3.8	8.46e-01	0	37	0	0	72	31042
2026-01-12 02:33:23.71	258.69	5.19	-50.2	-69.1	3.8	8.47e-01	0	37	104	0	72	30889
2026-01-12 02:33:25.70	258.44	5.33	-50.2	-69.1	3.8	8.48e-01	0	37	104	0	72	30892
2026-01-12 02:33:27.68	258.18	5.47	-50.1	-69.1	3.8	8.46e-01	0	37	104	0	72	30913
2026-01-12 02:33:29.67	257.93	5.60	-50.1	-69.1	3.8	8.46e-01	0	37	104	0	72	30951
2026-01-12 02:33:31.66	257.66	5.74	-50.1	-69.0	3.8	8.47e-01	0	37	104	0	72	30634
2026-01-12 02:33:33.64	257.40	5.88	-50.1	-69.0	3.8	8.47e-01	0	37	104	0	72	30578
2026-01-12 02:33:35.63	257.13	6.02	-50.1	-69.1	3.8	8.47e-01	0	38	104	0	72	30850
2026-01-12 02:33:37.62	256.86	6.16	-50.1	-69.1	3.8	8.47e-01	0	37	104	0	72	30891
2026-01-12 02:33:39.61	256.58	6.31	-50.1	-69.1	3.8	8.46e-01	0	38	104	0	72	30797
2026-01-12 02:33:41.59	256.30	6.45	-50.1	-69.0	3.8	8.48e-01	0	38	104	0	72	30633
2026-01-12 02:33:43.58	256.02	6.59	-50.1	-69.1	3.8	8.46e-01	0	38	104	0	72	30758
2026-01-12 02:33:45.57	255.73	6.74	-50.1	-69.1	3.8	8.46e-01	0	38	104	0	72	30804
2026-01-12 02:33:47.55	255.44	6.88	-50.1	-69.1	3.8	8.47e-01	0	38	104	0	72	30936
2026-01-12 02:33:49.54	255.14	7.02	-50.1	-69.1	3.8	8.47e-01	0	38	104	0	72	30791
2026-01-12 02:33:51.53	254.84	7.17	-50.1	-69.0	3.8	8.46e-01	0	38	104	0	72	30424
2026-01-12 02:33:53.52	254.54	7.32	-50.1	-68.9	3.8	8.46e-01	0	38	104	0	72	30310
2026-01-12 02:33:55.50	254.23	7.46	-50.1	-69.0	3.8	8.46e-01	0	38	104	0	72	30536
2026-01-12 02:33:57.49	253.92	7.61	-50.1	-68.8	3.8	8.47e-01	0	38	104	0	72	29733
2026-01-12 02:33:59.48	253.60	7.76	-50.1	-68.1	3.8	8.46e-01	0	38	104	0	72	27657
2026-01-12 02:34:01.46	253.28	7.91	-50.1	-68.0	3.8	8.47e-01	0	38	104	0	72	27106
2026-01-12 02:34:03.45	252.95	8.06	-50.1	-68.7	3.8	8.47e-01	0	38	104	0	72	29510
2026-01-12 02:34:05.44	252.62	8.21	-50.1	-69.0	3.8	8.46e-01	0	38	104	0	72	30439
2026-01-12 02:34:07.42	252.28	8.36	-50.1	-68.9	3.8	8.47e-01	0	38	104	0	72	30172
2026-01-12 02:34:09.41	251.94	8.51	-50.1	-69.0	3.8	8.47e-01	0	38	104	0	72	30668
2026-01-12 02:34:11.40	251.60	8.67	-50.1	-66.9	3.8	8.47e-01	0	38	104	0	72	23949
2026-01-12 02:34:13.38	251.25	8.82	-49.5	-58.9	8.7	8.00e-01	0	38	0	0	71	10135
2026-01-12 02:34:15.37	250.89	8.97	-47.6	-52.7	15.0	8.12e-02	0	38	0	0	67	6267
2026-01-12 02:34:17.36	250.53	9.13	-50.3	-66.7	4.0	3.05e-01	0	39	0	0	71	24975
2026-01-12 02:34:19.36	250.16	9.28	-47.5	-52.7	15.2	3.89e-01	0	38	0	0	66	6629
2026-01-12 02:34:21.43	249.77	9.44	-45.2	-48.6	19.2	4.92e-05	0	38	0	0	62	5178
2026-01-12 02:34:23.63	249.35	9.62	-45.0	-48.3	19.5	0.00e+00	0	39	0	0	62	4990
2026-01-12 02:34:25.82	248.93	9.79	-44.8	-47.9	19.8	0.00e+00	0	39	0	0	61	5087
2026-01-12 02:34:27.81	248.54	9.95	-44.6	-47.6	20.2	0.00e+00	0	39	0	0	61	4884
2026-01-12 02:34:29.82	248.14	10.11	-43.9	-46.7	21.0	0.00e+00	0	39	0	0	59	4972
2026-01-12 02:34:31.82	247.74	10.27	-43.8	-46.5	21.3	0.00e+00	0	39	0	0	59	4857
2026-01-12 02:34:33.84	247.32	10.43	-43.8	-46.5	21.3	0.00e+00	0	39	0	0	59	4870
2026-01-12 02:34:35.85	246.90	10.59	-43.5	-46.1	21.7	0.00e+00	0	39	0	0	58	4915
2026-01-12 02:34:37.85	246.48	10.75	-43.4	-46.0	21.8	0.00e+00	0	39	0	0	58	4836
2026-01-12 02:34:39.87	246.05	10.91	-42.9	-45.4	22.3	0.00e+00	0	38	0	0	57	4780
2026-01-12 02:34:42.13	245.55	11.09	-43.0	-45.5	22.2	0.00e+00	0	39	0	0	57	4843
2026-01-12 02:34:44.12	245.11	11.25	-43.3	-45.9	21.8	0.00e+00	0	39	0	0	57	5055
2026-01-12 02:34:46.11	244.67	11.41	-43.1	-45.7	22.1	0.00e+00	0	39	0	0	57	4947
2026-01-12 02:34:48.11	244.21	11.58	-42.9	-45.4	22.3	0.00e+00	0	39	0	0	57	4771
2026-01-12 02:34:50.12	243.75	11.74	-42.8	-45.3	22.4	0.00e+00	0	39	0	0	57	4714
2026-01-12 02:34:52.14	243.27	11.90	-42.4	-44.9	22.8	0.00e+00	0	39	0	0	56	4762
2026-01-12 02:34:54.12	242.80	12.06	-42.8	-45.3	22.4	0.00e+00	0	39	0	0	56	5002
2026-01-12 02:34:56.22	242.29	12.23	-43.1	-45.6	22.1	0.00e+00	0	39	0	0	56	5209
2026-01-12 02:34:58.21	241.81	12.40	-42.9	-45.4	22.3	0.00e+00	0	39	0	0	56	5094
2026-01-12 02:35:00.20	241.31	12.56	-42.6	-45.0	22.7	0.00e+00	0	39	0	0	56	4831
2026-01-12 02:35:02.19	240.81	12.72	-42.2	-44.6	23.0	0.00e+00	0	39	0	0	56	4619
2026-01-12 02:35:04.56	240.20	12.91	-41.7	-43.9	23.5	0.00e+00	0	39	0	0	55	4544
2026-01-12 02:35:06.55	239.68	13.07	-42.1	-44.5	23.0	0.00e+00	0	39	0	0	55	4857
2026-01-12 02:35:08.57	239.15	13.23	-42.3	-44.7	22.8	0.00e+00	0	39	0	0	55	4974
2026-01-12 02:35:10.56	238.61	13.39	-42.4	-44.9	22.7	0.00e+00	0	39	0	0	55	5042
2026-01-12 02:35:12.61	238.06	13.56	-42.3	-44.7	22.8	0.00e+00	0	39	0	0	55	4978
2026-01-12 02:35:14.60	237.51	13.72	-42.3	-44.7	22.9	0.00e+00	0	39	0	0	55	4938
2026-01-12 02:35:16.84	236.88	13.90	-42.1	-44.5	23.0	0.00e+00	0	39	0	0	55	4830
2026-01-12 02:35:19.15	236.22	14.08	-41.9	-44.3	23.2	0.00e+00	0	39	0	0	55	4722
2026-01-12 02:35:21.14	235.65	14.24	-41.8	-44.1	23.3	0.00e+00	0	39	0	0	55	4634
2026-01-12 02:35:23.13	235.07	14.39	-41.9	-44.3	23.2	0.00e+00	0	39	0	0	55	4738
2026-01-12 02:35:25.16	234.47	14.55	-42.1	-44.4	23.1	0.00e+00	0	39	0	0	55	4809
2026-01-12 02:35:27.17	233.86	14.70	-42.0	-44.4	23.1	0.00e+00	0	39	0	0	55	4763
2026-01-12 02:35:29.15	233.26	14.86	-41.9	-44.2	23.3	0.00e+00	0	39	0	0	55	4685
2026-01-12 02:35:31.34	232.58	15.02	-41.6	-43.9	23.5	0.00e+00	0	39	0	0	55	4508
2026-01-12 02:35:33.27	231.98	15.17	-41.2	-43.5	23.9	0.00e+00	0	39	0	0	54	4557
2026-01-12 02:35:35.32	231.33	15.32	-41.5	-43.8	23.7	0.00e+00	0	39	0	0	54	4720
2026-01-12 02:35:37.35	230.68	15.47	-41.8	-44.1	23.4	0.00e+00	0	39	0	0	54	4899
2026-01-12 02:35:39.35	230.03	15.62	-41.9	-44.2	23.3	0.00e+00	0	39	0	0	54	4940
2026-01-12 02:35:41.36	229.37	15.76	-41.7	-44.0	23.5	0.00e+00	0	39	0	0	54	4856
2026-01-12 02:35:43.35	228.70	15.90	-41.0	-43.2	24.1	0.00e+00	0	39	0	0	54	4435
2026-01-12 02:35:45.35	228.03	16.04	-40.6	-42.8	24.4	0.00e+00	0	39	0	0	53	4462
2026-01-12 02:35:47.58	227.27	16.19	-40.7	-42.9	24.3	0.00e+00	0	39	0	0	53	4522
2026-01-12 02:35:49.62	226.56	16.33	-40.8	-42.9	24.3	0.00e+00	0	39	0	0	53	4535
2026-01-12 02:35:51.80	225.80	16.48	-40.8	-42.9	24.3	0.00e+00	0	39	0	0	53	4533
2026-01-12 02:35:54.07	225.00	16.62	-40.8	-43.0	24.3	0.00e+00	0	39	0	0	53	4565
2026-01-12 02:35:56.07	224.28	16.75	-40.8	-43.0	24.3	0.00e+00	0	39	0	0	53	4569
2026-01-12 02:35:58.12	223.54	16.88	-41.0	-43.2	24.1	0.00e+00	0	39	0	0	53	4687
2026-01-12 02:36:00.11	222.81	17.00	-41.3	-43.5	23.9	0.00e+00	0	39	0	0	53	4849
2026-01-12 02:36:02.12	222.07	17.11	-41.3	-43.5	23.8	0.00e+00	0	39	0	0	53	4866
2026-01-12 02:36:04.33	221.25	17.24	-40.8	-43.0	24.3	0.00e+00	0	39	0	0	53	4567
2026-01-12 02:36:06.65	220.37	17.37	-40.6	-42.8	24.4	0.00e+00	0	39	0	0	53	4454
2026-01-12 02:36:08.67	219.61	17.48	-40.7	-42.8	24.4	0.00e+00	0	39	0	0	53	4484
2026-01-12 02:36:10.91	218.75	17.59	-40.6	-42.7	24.5	0.00e+00	0	39	0	0	53	4422
2026-01-12 02:36:13.04	217.92	17.69	-40.5	-42.6	24.6	0.00e+00	0	39	0	0	52	4631
2026-01-12 02:36:15.04	217.14	17.79	-40.1	-42.2	24.9	0.00e+00	0	39	0	0	52	4400
2026-01-12 02:36:17.06	216.34	17.88	-40.1	-42.1	25.0	0.00e+00	0	39	0	0	52	4384
2026-01-12 02:36:19.15	215.52	17.97	-40.1	-42.2	24.9	0.00e+00	0	39	0	0	51	4691
2026-01-12 02:36:21.15	214.72	18.05	-40.4	-42.5	24.7	0.00e+00	0	39	0	0	51	4830
2026-01-12 02:36:23.17	213.91	18.13	-40.4	-42.5	24.8	0.00e+00	0	39	0	0	51	4830
2026-01-12 02:36:25.18	213.09	18.20	-40.4	-42.5	24.8	0.00e+00	0	39	0	0	51	4822
2026-01-12 02:36:27.17	212.29	18.27	-39.8	-41.9	25.2	0.00e+00	0	39	0	0	51	4516
2026-01-12 02:36:29.42	211.37	18.34	-39.7	-41.8	25.3	0.00e+00	0	39	0	0	51	4464
2026-01-12 02:36:31.41	210.55	18.39	-39.7	-41.7	25.3	0.00e+00	0	39	0	0	51	4424
2026-01-12 02:36:33.40	209.73	18.44	-40.2	-42.3	24.9	0.00e+00	0	39	0	0	51	4734
2026-01-12 02:36:35.41	208.90	18.49	-40.1	-42.1	25.1	0.00e+00	0	39	0	0	51	4644
2026-01-12 02:36:37.45	208.05	18.53	-40.3	-42.5	24.8	0.00e+00	0	39	0	0	51	4824
2026-01-12 02:36:39.43	207.22	18.57	-40.1	-42.2	25.0	0.00e+00	0	39	0	0	51	4683
2026-01-12 02:36:41.42	206.39	18.60	-40.5	-42.7	24.6	0.00e+00	0	39	0	0	51	4937
2026-01-12 02:36:43.57	205.49	18.63	-40.4	-42.5	24.8	0.00e+00	0	39	0	0	51	4823
2026-01-12 02:36:45.73	204.58	18.65	-40.4	-42.5	24.7	0.00e+00	0	39	0	0	51	4863
2026-01-12 02:36:47.93	203.65	18.67	-40.4	-42.5	24.7	0.00e+00	0	39	0	0	51	4866
2026-01-12 02:36:49.95	202.80	18.68	-40.4	-42.5	24.8	0.00e+00	0	39	0	0	51	4819
2026-01-12 02:36:52.19	201.86	18.68	-40.3	-42.4	24.8	0.00e+00	0	39	0	0	51	4793
2026-01-12 02:36:54.42	200.92	18.68	-40.2	-42.2	25.0	0.00e+00	0	39	0	0	51	4698
2026-01-12 02:36:56.47	200.06	18.67	-40.0	-42.1	25.0	0.00e+00	0	39	0	0	51	4650
2026-01-12 02:36:58.46	199.22	18.66	-40.3	-42.4	24.8	0.00e+00	0	39	0	0	51	4806
2026-01-12 02:37:00.45	198.38	18.64	-40.5	-42.6	24.6	0.00e+00	0	39	0	0	51	4921
2026-01-12 02:37:02.64	197.46	18.61	-41.0	-43.2	24.1	0.00e+00	0	39	0	0	52	4969
2026-01-12 02:37:04.63	196.63	18.58	-40.4	-42.5	24.7	0.00e+00	0	39	0	0	52	4589
2026-01-12 02:37:06.84	195.71	18.54	-40.2	-42.3	24.8	0.00e+00	0	39	0	0	52	4461
2026-01-12 02:37:08.82	194.88	18.50	-39.9	-42.0	25.1	0.00e+00	0	39	0	0	51	4559
2026-01-12 02:37:10.81	194.06	18.45	-40.1	-42.2	24.9	0.00e+00	0	39	0	0	51	4693
2026-01-12 02:37:12.80	193.24	18.40	-40.5	-42.7	24.6	0.00e+00	0	39	0	0	51	4967
2026-01-12 02:37:14.79	192.42	18.35	-40.5	-42.6	24.5	0.00e+00	0	39	0	0	52	4651
2026-01-12 02:37:16.78	191.60	18.29	-40.1	-42.2	24.9	0.00e+00	0	39	0	0	52	4419
2026-01-12 02:37:18.88	190.75	18.22	-39.7	-41.8	25.3	0.00e+00	0	39	0	0	51	4462
2026-01-12 02:37:20.91	189.93	18.14	-39.7	-41.8	25.2	0.00e+00	0	39	0	0	51	4472
2026-01-12 02:37:22.90	189.13	18.07	-40.3	-42.5	24.7	0.00e+00	0	39	0	0	51	4844
2026-01-12 02:37:24.89	188.33	17.99	-40.7	-42.8	24.4	0.00e+00	0	39	0	0	52	4757
2026-01-12 02:37:26.99	187.50	17.90	-40.5	-42.7	24.4	0.00e+00	0	39	0	0	52	4687
2026-01-12 02:37:28.98	186.71	17.81	-40.2	-42.4	24.8	0.00e+00	0	39	0	0	52	4509
2026-01-12 02:37:31.00	185.92	17.72	-40.2	-42.4	24.8	0.00e+00	0	39	0	0	52	4517
2026-01-12 02:37:32.99	185.15	17.62	-40.1	-42.2	24.9	0.00e+00	0	39	0	0	52	4437
2026-01-12 02:37:34.98	184.38	17.52	-40.4	-42.6	24.6	0.00e+00	0	39	0	0	52	4616
2026-01-12 02:37:36.97	183.62	17.42	-40.7	-43.0	24.3	0.00e+00	0	39	0	0	52	4832
2026-01-12 02:37:38.97	182.86	17.31	-40.7	-42.9	24.4	0.00e+00	0	39	0	0	52	4786
2026-01-12 02:37:40.96	182.11	17.20	-40.6	-42.7	24.5	0.00e+00	0	39	0	0	52	4701
2026-01-12 02:37:43.08	181.33	17.08	-41.1	-43.3	24.0	0.00e+00	0	39	0	0	52	5030
2026-01-12 02:37:45.13	180.57	16.96	-41.1	-43.3	23.9	0.00e+00	0	39	0	0	53	4750
2026-01-12 02:37:47.11	179.85	16.84	-40.6	-42.8	24.4	0.00e+00	0	39	0	0	53	4460
2026-01-12 02:37:49.10	179.13	16.71	-40.5	-42.7	24.5	0.00e+00	0	39	0	0	52	4675
2026-01-12 02:37:51.01	178.45	16.59	-40.9	-43.1	24.2	0.00e+00	0	39	0	0	52	4898
2026-01-12 02:37:53.00	177.75	16.46	-41.2	-43.4	23.9	0.00e+00	0	39	0	0	53	4806
2026-01-12 02:37:54.99	177.05	16.33	-41.3	-43.6	23.8	0.00e+00	0	39	0	0	53	4899
2026-01-12 02:37:56.98	176.36	16.19	-41.5	-43.9	23.6	0.00e+00	0	39	0	0	53	5044
2026-01-12 02:37:58.97	175.68	16.06	-41.6	-44.0	23.4	0.00e+00	0	39	0	0	53	5110
2026-01-12 02:38:00.95	175.01	15.92	-41.8	-44.1	23.3	0.00e+00	0	39	0	0	54	4913
2026-01-12 02:38:02.95	174.34	15.78	-41.8	-44.2	23.3	0.00e+00	0	39	0	0	54	4931
2026-01-12 02:38:04.94	173.69	15.63	-41.2	-43.5	23.8	0.00e+00	0	39	0	0	54	4564
2026-01-12 02:38:06.93	173.04	15.49	-41.3	-43.5	23.7	0.00e+00	0	39	0	0	54	4596
2026-01-12 02:38:08.92	172.40	15.34	-41.3	-43.6	23.7	0.00e+00	0	39	0	0	54	4606
2026-01-12 02:38:10.91	171.77	15.19	-41.2	-43.5	23.8	0.00e+00	0	39	0	0	54	4587
2026-01-12 02:38:12.90	171.14	15.05	-41.4	-43.7	23.6	0.00e+00	0	39	0	0	54	4671
2026-01-12 02:38:14.93	170.51	14.89	-41.4	-43.7	23.6	0.00e+00	0	39	0	0	54	4702
2026-01-12 02:38:16.94	169.90	14.74	-41.6	-43.9	23.4	1.62e-03	0	39	0	0	54	4813
2026-01-12 02:38:18.93	169.30	14.58	-41.8	-44.2	23.2	1.69e-03	0	39	0	0	54	4977
2026-01-12 02:38:20.92	168.70	14.43	-41.9	-44.3	23.1	0.00e+00	0	39	0	0	54	5015
2026-01-12 02:38:22.91	168.12	14.27	-41.9	-44.3	23.1	1.44e-03	0	39	0	0	54	4986
2026-01-12 02:38:24.90	167.54	14.12	-41.8	-44.1	23.2	2.54e-03	0	39	0	0	54	4921
2026-01-12 02:38:26.89	166.97	13.96	-41.7	-44.0	23.4	0.00e+00	0	39	0	0	54	4855
2026-01-12 02:38:28.88	166.41	13.80	-41.8	-44.2	23.1	1.50e-03	0	39	0	0	54	4978
2026-01-12 02:38:30.88	165.85	13.64	-42.1	-44.5	22.9	1.03e-03	0	39	0	0	54	5127
2026-01-12 02:38:32.93	165.29	13.48	-42.4	-44.9	22.4	0.00e+00	0	39	0	0	55	5074
2026-01-12 02:38:34.99	164.73	13.31	-42.4	-44.9	22.7	0.00e+00	0	39	0	0	55	5044
2026-01-12 02:38:36.99	164.20	13.15	-42.2	-44.7	22.8	0.00e+00	0	39	0	0	55	4939
2026-01-12 02:38:38.98	163.68	12.99	-42.3	-44.8	22.7	0.00e+00	0	39	0	0	55	4995
2026-01-12 02:38:40.97	163.16	12.83	-42.6	-45.1	22.4	0.00e+00	0	39	0	0	55	5214
2026-01-12 02:38:42.96	162.65	12.67	-42.8	-45.3	22.4	0.00e+00	0	39	0	0	56	5028
2026-01-12 02:38:45.00	162.14	12.50	-42.6	-45.1	22.6	0.00e+00	0	39	0	0	56	4882
2026-01-12 02:38:46.99	161.65	12.34	-42.4	-44.8	22.8	0.00e+00	0	39	0	0	56	4747
2026-01-12 02:38:49.10	161.13	12.17	-42.4	-44.9	22.8	0.00e+00	0	39	0	0	56	4778
2026-01-12 02:38:51.04	160.66	12.01	-42.8	-45.3	22.4	1.83e-05	0	39	0	0	56	5009
2026-01-12 02:38:53.03	160.19	11.85	-43.0	-45.5	22.2	0.00e+00	0	39	0	0	56	5147
2026-01-12 02:38:55.02	159.73	11.69	-42.8	-45.4	22.3	3.67e-03	0	39	0	0	57	4789
2026-01-12 02:38:57.01	159.27	11.53	-42.9	-45.4	22.1	6.15e-03	0	39	0	0	57	4801
2026-01-12 02:38:59.00	158.81	11.36	-43.0	-45.6	22.0	0.00e+00	0	39	0	0	57	4874
2026-01-12 02:39:00.99	158.37	11.20	-43.0	-45.6	22.1	7.05e-03	0	39	0	0	57	4878
2026-01-12 02:39:02.98	157.93	11.04	-42.9	-45.4	22.2	7.10e-03	0	39	0	0	57	4809
2026-01-12 02:39:04.97	157.50	10.88	-43.0	-45.6	22.0	0.00e+00	0	39	0	0	57	4925
2026-01-12 02:39:07.02	157.06	10.72	-43.2	-45.8	21.9	0.00e+00	0	39	0	0	57	4990
2026-01-12 02:39:09.06	156.63	10.55	-43.2	-45.8	21.8	4.70e-03	0	39	0	0	57	5041
2026-01-12 02:39:11.05	156.21	10.39	-43.3	-46.0	21.7	0.00e+00	0	39	0	0	57	5122
2026-01-12 02:39:13.04	155.80	10.24	-43.5	-46.3	21.5	0.00e+00	0	39	0	0	57	5284
2026-01-12 02:39:15.03	155.40	10.08	-43.7	-46.4	21.3	1.22e-04	0	39	0	0	57	5379
2026-01-12 02:39:17.02	155.00	9.92	-43.7	-46.5	21.2	0.00e+00	0	39	0	0	58	5128
2026-01-12 02:39:19.02	154.61	9.76	-43.8	-46.6	21.1	0.00e+00	0	40	0	0	58	5162
2026-01-12 02:39:21.01	154.23	9.60	-43.9	-46.7	21.0	6.59e-04	0	39	0	0	58	5255
2026-01-12 02:39:23.00	153.85	9.45	-43.9	-46.8	20.9	0.00e+00	0	39	0	0	58	5299
2026-01-12 02:39:25.08	153.46	9.28	-43.6	-46.5	21.2	0.00e+00	0	39	0	0	58	5101
2026-01-12 02:39:27.07	153.09	9.13	-43.5	-46.3	21.3	4.57e-05	0	39	0	0	58	5016
2026-01-12 02:39:29.06	152.73	8.97	-50.0	-68.5	3.8	6.50e-04	0	39	104	0	70	32374
2026-01-12 02:39:31.05	152.37	8.82	-50.4	-69.2	3.8	7.62e-01	0	39	104	0	71	33219
2026-01-12 02:39:33.04	152.02	8.67	-50.4	-69.5	3.8	8.46e-01	0	39	104	0	71	34367
2026-01-12 02:39:35.02	151.67	8.51	-50.6	-69.6	3.8	8.47e-01	0	39	104	0	72	32649
2026-01-12 02:39:37.01	151.33	8.36	-50.8	-69.6	3.8	8.46e-01	0	39	104	0	72	32671
2026-01-12 02:39:39.00	150.99	8.21	-50.8	-69.6	3.8	8.47e-01	0	39	104	0	72	32870
2026-01-12 02:39:40.99	150.66	8.06	-50.9	-69.7	3.8	8.47e-01	0	39	104	0	72	33058
2026-01-12 02:39:42.97	150.33	7.91	-50.8	-69.7	3.8	8.46e-01	0	39	104	0	72	33163
2026-01-12 02:39:44.96	150.01	7.76	-50.9	-69.7	3.8	8.47e-01	0	39	104	0	72	33030
2026-01-12 02:39:46.95	149.69	7.61	-50.8	-69.6	3.8	8.46e-01	0	39	104	0	72	32906
2026-01-12 02:39:48.93	149.37	7.46	-50.8	-69.7	3.8	8.48e-01	0	39	104	0	72	32944
2026-01-12 02:39:50.92	149.06	7.32	-50.6	-69.6	3.8	8.46e-01	0	39	104	0	72	32864
2026-01-12 02:39:52.91	148.76	7.17	-50.6	-69.6	3.8	8.46e-01	0	39	104	0	72	32768
2026-01-12 02:39:54.90	148.46	7.02	-50.6	-69.6	3.8	8.47e-01	0	39	104	0	72	32687
2026-01-12 02:39:56.88	148.16	6.88	-50.6	-69.6	3.8	8.47e-01	0	39	104	0	72	32564
2026-01-12 02:39:58.87	147.87	6.73	-50.6	-69.6	3.8	8.47e-01	0	39	104	0	72	32694
2026-01-12 02:40:00.83	147.58	6.59	-50.6	-69.6	3.8	8.47e-01	0	39	104	0	72	32678
2026-01-12 02:40:02.82	147.30	6.45	-50.6	-69.6	3.8	8.47e-01	0	39	104	0	72	32667
2026-01-12 02:40:04.81	147.02	6.31	-50.6	-69.6	3.8	8.47e-01	0	39	104	0	72	32667
2026-01-12 02:40:06.79	146.74	6.16	-50.6	-69.6	3.8	8.48e-01	0	39	104	0	72	32705
2026-01-12 02:40:08.78	146.47	6.02	-50.6	-69.6	3.8	8.46e-01	0	39	104	0	72	32704
2026-01-12 02:40:10.77	146.20	5.88	-50.6	-69.6	3.8	8.47e-01	0	39	104	0	72	32696
2026-01-12 02:40:12.75	145.93	5.74	-50.6	-69.6	3.8	8.45e-01	0	40	104	0	72	32646
2026-01-12 02:40:14.74	145.67	5.60	-50.6	-69.6	3.8	8.47e-01	0	39	104	0	72	32658
2026-01-12 02:40:16.73	145.41	5.47	-50.6	-69.6	3.8	8.46e-01	0	40	104	0	72	32695
2026-01-12 02:40:18.72	145.15	5.33	-50.6	-69.6	3.8	8.47e-01	0	39	104	0	72	32703
2026-01-12 02:40:20.71	144.90	5.19	-50.6	-69.6	3.8	8.48e-01	0	39	104	0	72	32555
2026-01-12 02:40:22.69	144.65	5.05	-50.6	-69.6	3.8	8.48e-01	0	39	104	0	72	32599
2026-01-12 02:40:24.68	144.41	4.92	-50.6	-69.6	3.8	8.47e-01	0	39	104	0	72	32582

#Closed at: 2026-01-12 02:40:25
#Recorded file [0 MB]: D:/Data/31040_260112_053321.dat