passes_logs/2026/01/12/T1/T1__20260112_095223_NOAA_21_JPSS-2_rec.log

#Pass ID: 20260112_095223_NOAA 21 (JPSS-2)
#Satellite: NOAA 21 (JPSS-2)
#Configuration: NOAA 21
#almurnet v.1.7.20251203
#Start time: 2026-01-12 09:52:24

#Version: 2.0.20230620
#Station: T1
#Location: 37.570604 lon 55.790049 lat
#TLE: 1 54234U 22150A   26011.27699114  .00000090  00000+0  63771-4 0  9993
#TLE: 2 54234  98.7494 312.2218 0000765 314.9553  45.1561 14.19534106164285

#Time	Az	El	Level	Level2	SNR	BER	BlckErr	Temp	State	Recorded	gain1	gain2
2026-01-12 09:52:24.21	158.60	5.02	-50.3	-63.3	3.8	1.49e+00	0	40	0	0	71	16774
2026-01-12 09:52:27.18	158.60	5.24	-50.0	-63.0	3.8	1.49e+00	0	41	104	0	72	15354
2026-01-12 09:52:30.26	158.60	5.46	-50.0	-63.1	3.8	1.49e+00	0	41	104	0	72	15543
2026-01-12 09:52:33.52	158.59	5.70	-50.0	-63.1	3.8	1.49e+00	0	41	104	0	72	15422
2026-01-12 09:52:36.22	158.59	5.90	-50.0	-62.7	3.8	1.49e+00	0	41	104	0	72	14878
2026-01-12 09:52:39.48	158.58	6.14	-50.1	-62.4	3.8	1.49e+00	0	41	104	0	71	15131
2026-01-12 09:52:42.18	158.58	6.35	-49.9	-61.0	3.9	1.49e+00	0	41	104	0	71	12903
2026-01-12 09:52:45.45	158.57	6.59	-49.6	-58.9	4.5	1.42e+00	0	41	104	0	71	10112
2026-01-12 09:52:48.16	158.57	6.80	-49.3	-57.0	5.1	5.55e-01	0	42	0	0	70	8575
2026-01-12 09:52:51.43	158.56	7.05	-48.6	-54.5	7.4	1.15e-01	0	41	0	0	69	6826
2026-01-12 09:52:54.14	158.56	7.27	-47.7	-52.4	9.3	3.91e-02	0	42	0	0	67	6047
2026-01-12 09:52:57.41	158.55	7.52	-46.7	-50.6	11.3	1.49e-03	0	42	0	0	65	5469
2026-01-12 09:53:00.12	158.54	7.74	-46.0	-49.3	12.6	1.08e-04	0	42	0	0	64	5023
2026-01-12 09:53:03.67	158.54	8.02	-45.6	-48.7	13.3	1.98e-05	0	42	0	0	63	4967
2026-01-12 09:53:06.43	158.53	8.25	-46.0	-49.3	12.7	6.94e-05	0	42	0	0	63	5281
2026-01-12 09:53:09.72	158.52	8.52	-47.3	-51.7	10.1	3.48e-03	0	42	0	0	65	6245
2026-01-12 09:53:12.42	158.52	8.74	-48.9	-55.6	6.5	1.94e-01	0	42	0	0	68	8213
2026-01-12 09:53:15.68	158.51	9.01	-50.0	-62.2	3.8	1.49e+00	0	42	104	0	70	15759
2026-01-12 09:53:18.58	158.50	9.26	-50.1	-63.1	3.8	2.09e-01	0	42	104	0	70	17324
2026-01-12 09:53:21.68	158.49	9.52	-46.3	-49.8	12.1	3.62e-04	0	42	0	0	64	5317
2026-01-12 09:53:24.97	158.48	9.81	-45.4	-48.4	13.7	1.29e-05	0	42	0	0	62	5059
2026-01-12 09:53:27.81	158.47	10.05	-44.4	-47.0	15.1	0.00e+00	0	43	0	0	60	4826
2026-01-12 09:53:30.94	158.47	10.33	-44.2	-46.6	15.5	0.00e+00	0	42	0	0	60	4647
2026-01-12 09:53:33.78	158.46	10.58	-44.1	-46.5	15.7	0.00e+00	0	42	0	0	60	4550
2026-01-12 09:53:36.93	158.45	10.86	-44.1	-46.4	15.7	0.00e+00	0	42	0	0	59	4801
2026-01-12 09:53:39.87	158.44	11.13	-43.9	-46.2	15.9	0.00e+00	0	42	0	0	59	4683
2026-01-12 09:53:43.06	158.43	11.43	-43.8	-46.1	16.0	0.00e+00	0	42	0	0	59	4631
2026-01-12 09:53:45.90	158.42	11.69	-43.8	-46.1	16.0	0.00e+00	0	43	0	0	59	4606
2026-01-12 09:53:49.02	158.41	11.98	-43.6	-45.8	16.4	4.88e-02	0	43	0	0	59	4453
2026-01-12 09:53:51.86	158.39	12.26	-43.5	-45.7	16.4	4.23e-02	0	42	0	0	59	4419
2026-01-12 09:53:54.99	158.38	12.56	-43.6	-45.8	16.3	0.00e+00	0	43	0	0	59	4464
2026-01-12 09:53:57.84	158.37	12.84	-43.4	-45.6	16.6	0.00e+00	0	42	0	0	58	4601
2026-01-12 09:54:01.14	158.36	13.16	-43.2	-45.4	16.8	0.00e+00	0	43	0	0	58	4504
2026-01-12 09:54:04.45	158.34	13.49	-43.2	-45.3	16.8	0.00e+00	0	43	0	0	58	4482
2026-01-12 09:54:07.28	158.33	13.78	-43.2	-45.4	16.8	0.00e+00	0	43	0	0	58	4500
2026-01-12 09:54:10.41	158.32	14.10	-43.1	-45.2	16.9	0.00e+00	0	42	0	0	58	4434
2026-01-12 09:54:13.25	158.30	14.40	-43.1	-45.2	16.9	0.00e+00	0	43	0	0	58	4441
2026-01-12 09:54:16.58	158.29	14.75	-43.1	-45.2	17.0	0.00e+00	0	43	0	0	58	4425
2026-01-12 09:54:19.30	158.27	15.04	-43.2	-45.3	16.9	0.00e+00	0	43	0	0	58	4475
2026-01-12 09:54:22.57	158.26	15.39	-43.1	-45.2	17.0	0.00e+00	0	43	0	0	58	4438
2026-01-12 09:54:25.28	158.24	15.69	-43.1	-45.2	17.0	0.00e+00	0	43	0	0	58	4412
2026-01-12 09:54:28.63	158.22	16.06	-43.1	-45.2	17.0	0.00e+00	0	43	0	0	58	4420
2026-01-12 09:54:31.33	158.21	16.37	-43.0	-45.2	17.1	0.00e+00	0	43	0	0	58	4397
2026-01-12 09:54:34.74	158.19	16.76	-43.1	-45.2	17.0	1.15e-03	0	43	0	0	58	4419
2026-01-12 09:54:37.47	158.17	17.07	-43.2	-45.3	17.0	0.00e+00	0	43	0	0	58	4461
2026-01-12 09:54:40.74	158.15	17.46	-43.2	-45.3	16.9	3.62e-04	0	43	0	0	58	4479
2026-01-12 09:54:43.45	158.13	17.78	-43.3	-45.4	16.8	0.00e+00	0	43	0	0	58	4541
2026-01-12 09:54:46.72	158.11	18.18	-43.3	-45.5	16.8	0.00e+00	0	43	0	0	58	4564
2026-01-12 09:54:49.44	158.09	18.51	-43.4	-45.6	16.7	0.00e+00	0	43	0	0	58	4610
2026-01-12 09:54:52.71	158.06	18.92	-43.4	-45.5	16.8	0.00e+00	0	43	0	0	58	4575
2026-01-12 09:54:55.43	158.04	19.27	-43.4	-45.5	16.8	0.00e+00	0	43	0	0	58	4582
2026-01-12 09:54:58.73	158.02	19.69	-43.3	-45.4	16.9	0.00e+00	0	43	0	0	58	4519
2026-01-12 09:55:01.51	158.00	20.05	-43.3	-45.4	16.9	0.00e+00	0	43	0	0	58	4545
2026-01-12 09:55:04.83	157.97	20.50	-43.0	-45.1	17.2	0.00e+00	0	43	0	0	57	4610
2026-01-12 09:55:07.81	157.94	20.90	-42.9	-44.9	17.4	0.00e+00	0	43	0	0	57	4532
2026-01-12 09:55:11.24	157.91	21.37	-42.7	-44.7	17.6	0.00e+00	0	43	0	0	57	4410
2026-01-12 09:55:13.94	157.89	21.75	-42.5	-44.5	17.8	0.00e+00	0	43	0	0	57	4318
2026-01-12 09:55:17.22	157.85	22.22	-42.3	-44.2	18.0	0.00e+00	0	43	0	0	56	4436
2026-01-12 09:55:19.99	157.83	22.62	-42.3	-44.2	18.0	0.00e+00	0	43	0	0	56	4415
2026-01-12 09:55:23.57	157.79	23.14	-42.0	-43.9	18.3	0.00e+00	0	43	0	0	56	4270
2026-01-12 09:55:26.27	157.76	23.55	-41.8	-43.6	18.4	0.00e+00	0	43	0	0	55	4387
2026-01-12 09:55:29.54	157.72	24.05	-41.6	-43.4	18.6	0.00e+00	0	43	0	0	55	4277
2026-01-12 09:55:32.26	157.69	24.47	-41.6	-43.4	18.6	0.00e+00	0	43	0	0	55	4257
2026-01-12 09:55:35.54	157.65	24.99	-41.6	-43.4	18.6	0.00e+00	0	43	0	0	55	4270
2026-01-12 09:55:38.25	157.62	25.43	-41.7	-43.6	18.4	0.00e+00	0	43	0	0	55	4355
2026-01-12 09:55:41.52	157.57	25.96	-42.0	-43.8	18.2	0.00e+00	0	43	0	0	55	4491
2026-01-12 09:55:44.22	157.54	26.41	-42.1	-44.0	18.1	0.00e+00	0	43	0	0	55	4549
2026-01-12 09:55:47.50	157.49	26.97	-42.4	-44.3	17.7	0.00e+00	0	43	0	0	55	4758
2026-01-12 09:55:50.43	157.45	27.48	-42.9	-44.8	17.5	0.00e+00	0	43	0	0	56	4755
2026-01-12 09:55:54.30	157.39	28.17	-43.2	-45.2	17.1	0.00e+00	0	43	0	0	57	4705
2026-01-12 09:55:57.10	157.34	28.67	-43.3	-45.4	16.9	0.00e+00	0	43	0	0	57	4771
2026-01-12 09:56:00.65	157.28	29.33	-43.2	-45.3	17.1	0.00e+00	0	43	0	0	57	4726
2026-01-12 09:56:03.43	157.23	29.86	-43.0	-45.1	17.3	0.00e+00	0	43	0	0	57	4615
2026-01-12 09:56:06.70	157.17	30.49	-42.8	-44.8	17.6	0.00e+00	0	43	0	0	57	4492
2026-01-12 09:56:09.42	157.12	31.02	-42.7	-44.7	17.7	0.00e+00	0	43	0	0	57	4439
2026-01-12 09:56:12.69	157.06	31.68	-42.6	-44.6	17.8	0.00e+00	0	43	0	0	57	4375
2026-01-12 09:56:15.42	157.00	32.24	-42.9	-44.9	17.6	0.00e+00	0	43	0	0	57	4499
2026-01-12 09:56:18.61	156.93	32.91	-43.2	-45.2	17.2	0.00e+00	0	43	0	0	57	4695
2026-01-12 09:56:21.60	156.86	33.54	-43.4	-45.5	17.0	0.00e+00	0	43	0	0	57	4841
2026-01-12 09:56:24.58	156.79	34.19	-43.6	-45.7	16.8	0.00e+00	0	43	0	0	57	4947
2026-01-12 09:56:27.65	156.72	34.88	-44.0	-46.3	16.2	0.00e+00	0	43	0	0	58	4997
2026-01-12 09:56:30.49	156.64	35.53	-44.3	-46.7	15.9	0.00e+00	0	43	0	0	59	4929
2026-01-12 09:56:33.62	156.56	36.25	-44.5	-46.8	15.7	0.00e+00	0	43	0	0	59	5026
2026-01-12 09:56:36.95	156.46	37.05	-44.5	-46.9	15.7	0.00e+00	0	43	0	0	59	5065
2026-01-12 09:56:39.79	156.38	37.74	-44.3	-46.6	16.0	0.00e+00	0	43	0	0	59	4879
2026-01-12 09:56:42.92	156.28	38.52	-44.4	-46.7	15.9	0.00e+00	0	43	0	0	59	4937
2026-01-12 09:56:45.76	156.18	39.24	-44.2	-46.5	16.1	0.00e+00	0	43	0	0	59	4816
2026-01-12 09:56:48.89	156.07	40.06	-44.4	-46.7	15.8	0.00e+00	0	43	0	0	59	4950
2026-01-12 09:56:52.22	155.95	40.94	-44.8	-47.2	15.4	7.00e-07	0	43	0	0	60	4944
2026-01-12 09:56:55.06	155.84	41.72	-44.7	-47.1	15.5	0.00e+00	0	43	0	0	60	4916
2026-01-12 09:56:58.18	155.71	42.59	-44.8	-47.2	15.4	0.00e+00	0	43	0	0	60	4975
2026-01-12 09:57:01.05	155.58	43.40	-44.7	-47.1	15.5	0.00e+00	0	43	0	0	60	4871
2026-01-12 09:57:04.18	155.44	44.32	-44.9	-47.3	15.2	0.00e+00	0	43	0	0	60	4991
2026-01-12 09:57:07.29	155.28	45.24	-45.6	-48.4	14.3	2.20e-06	0	43	0	0	61	5368
2026-01-12 09:57:10.14	155.14	46.11	-45.7	-48.4	14.3	2.20e-06	0	43	0	0	62	5060
2026-01-12 09:57:13.26	154.96	47.09	-45.2	-47.7	15.0	0.00e+00	0	43	0	0	62	4658
2026-01-12 09:57:16.10	154.79	47.99	-44.7	-47.1	15.6	0.00e+00	0	43	0	0	61	4621
2026-01-12 09:57:19.23	154.59	49.01	-44.7	-47.1	15.5	0.00e+00	0	43	0	0	61	4633
2026-01-12 09:57:22.07	154.40	49.96	-44.7	-47.2	15.6	0.00e+00	0	43	0	0	61	4653
2026-01-12 09:57:25.39	154.16	51.09	-44.6	-46.9	15.8	0.00e+00	0	43	0	0	61	4526
2026-01-12 09:57:28.31	153.93	52.10	-44.1	-46.4	16.1	0.00e+00	0	43	0	0	60	4499
2026-01-12 09:57:31.60	153.65	53.27	-43.7	-45.8	16.8	0.00e+00	0	43	0	0	59	4472
2026-01-12 09:57:34.44	153.39	54.30	-43.4	-45.4	17.0	0.00e+00	0	43	0	0	58	4545
2026-01-12 09:57:37.57	153.08	55.46	-42.9	-44.8	17.6	0.00e+00	0	43	0	0	57	4480
2026-01-12 09:57:40.41	152.78	56.54	-42.7	-44.6	17.9	0.00e+00	0	43	0	0	57	4377
2026-01-12 09:57:43.53	152.41	57.74	-42.2	-44.0	18.5	0.00e+00	0	43	0	0	56	4322
2026-01-12 09:57:46.38	152.05	58.86	-41.7	-43.5	18.7	0.00e+00	0	43	0	0	55	4329
2026-01-12 09:57:49.50	151.61	60.11	-42.1	-43.9	18.4	0.00e+00	0	43	0	0	55	4525
2026-01-12 09:57:52.35	151.17	61.28	-41.8	-43.6	18.6	0.00e+00	0	43	0	0	55	4387
2026-01-12 09:57:55.47	150.64	62.57	-41.5	-43.3	18.8	0.00e+00	0	43	0	0	54	4467
2026-01-12 09:57:58.32	150.10	63.77	-41.2	-42.9	19.2	0.00e+00	0	43	0	0	54	4288
2026-01-12 09:58:01.51	149.43	65.14	-41.2	-42.9	19.3	0.00e+00	0	44	0	0	54	4275
2026-01-12 09:58:04.35	148.75	66.37	-40.7	-42.3	19.8	0.00e+00	0	43	0	0	53	4232
2026-01-12 09:58:07.67	147.85	67.83	-41.0	-42.7	19.4	0.00e+00	0	44	0	0	53	4434
2026-01-12 09:58:10.41	147.00	69.05	-40.9	-42.6	19.5	0.00e+00	0	43	0	0	53	4385
2026-01-12 09:58:13.75	145.82	70.55	-41.8	-43.6	18.6	0.00e+00	0	43	0	0	54	4647
2026-01-12 09:58:16.45	144.70	71.78	-42.0	-43.9	18.4	0.00e+00	0	43	0	0	54	4774
2026-01-12 09:58:19.75	143.09	73.28	-41.6	-43.4	18.9	0.00e+00	0	43	0	0	54	4507
2026-01-12 09:58:22.45	141.54	74.52	-41.1	-42.9	19.2	0.00e+00	0	43	0	0	54	4267
2026-01-12 09:58:25.74	139.25	76.02	-41.4	-43.2	19.0	0.00e+00	0	43	0	0	54	4422
2026-01-12 09:58:28.44	136.95	77.25	-41.5	-43.3	18.9	0.00e+00	0	43	0	0	54	4465
2026-01-12 09:58:31.68	133.52	78.70	-41.6	-43.4	18.7	0.00e+00	0	43	0	0	54	4538
2026-01-12 09:58:34.52	129.68	79.94	-41.2	-42.9	19.1	0.00e+00	0	44	0	0	54	4282
2026-01-12 09:58:37.82	123.85	81.31	-41.5	-43.3	18.9	0.00e+00	0	43	0	0	54	4446
2026-01-12 09:58:40.98	116.29	82.52	-42.0	-44.0	18.3	0.00e+00	0	44	0	0	54	4824
2026-01-12 09:58:43.82	107.22	83.46	-42.2	-44.2	18.1	0.00e+00	0	43	0	0	55	4677
2026-01-12 09:58:46.95	94.12	84.26	-41.7	-43.6	18.6	0.00e+00	0	43	0	0	55	4351
2026-01-12 09:58:49.79	79.55	84.65	-41.8	-43.7	18.6	0.00e+00	0	43	0	0	55	4403
2026-01-12 09:58:53.02	61.73	84.63	-41.7	-43.6	18.6	0.00e+00	0	43	0	0	54	4606
2026-01-12 09:58:55.97	46.82	84.19	-41.9	-43.8	18.4	0.00e+00	0	43	0	0	54	4717
2026-01-12 09:58:59.10	34.09	83.36	-41.4	-43.2	19.0	0.00e+00	0	43	0	0	54	4419
2026-01-12 09:59:01.94	25.31	82.40	-41.4	-43.2	19.1	0.00e+00	0	43	0	0	54	4409
2026-01-12 09:59:05.00	18.19	81.22	-41.9	-43.8	18.6	0.00e+00	0	44	0	0	54	4726
2026-01-12 09:59:07.99	12.95	79.97	-41.2	-42.9	19.2	0.00e+00	0	43	0	0	54	4271
2026-01-12 09:59:10.97	8.93	78.67	-41.7	-43.5	18.7	0.00e+00	0	44	0	0	54	4576
2026-01-12 09:59:13.96	5.75	77.34	-42.0	-43.9	18.4	0.00e+00	0	43	0	0	55	4503
2026-01-12 09:59:17.03	3.13	75.95	-41.8	-43.6	18.7	0.00e+00	0	43	0	0	54	4615
2026-01-12 09:59:19.88	1.15	74.65	-41.4	-43.2	18.7	0.00e+00	0	43	0	0	54	4410
2026-01-12 09:59:23.00	359.34	73.22	-41.5	-43.3	18.8	0.00e+00	0	43	0	0	54	4487
2026-01-12 09:59:25.85	357.95	71.92	-41.4	-43.2	18.8	0.00e+00	0	43	0	0	54	4422
2026-01-12 09:59:29.02	356.64	70.49	-40.4	-42.0	20.1	0.00e+00	0	43	0	0	52	4337
2026-01-12 09:59:31.87	355.62	69.21	-42.1	-44.0	18.1	0.00e+00	0	43	0	0	54	4824
2026-01-12 09:59:35.07	354.63	67.79	-41.6	-43.4	18.8	0.00e+00	0	43	0	0	55	4268
2026-01-12 09:59:38.01	353.84	66.50	-41.9	-43.7	18.6	0.00e+00	0	43	0	0	54	4695
2026-01-12 09:59:40.99	353.12	65.21	-41.4	-43.2	18.7	0.00e+00	0	43	0	0	54	4400
2026-01-12 09:59:43.97	352.49	63.93	-40.9	-42.6	19.5	0.00e+00	0	43	0	0	53	4374
2026-01-12 09:59:46.96	351.92	62.67	-43.2	-45.3	17.3	0.00e+00	0	43	0	0	57	4734
2026-01-12 09:59:49.95	351.40	61.44	-42.5	-44.4	17.8	0.00e+00	0	43	0	0	57	4250
2026-01-12 09:59:52.93	350.94	60.22	-41.1	-42.8	19.5	0.00e+00	0	43	0	0	54	4221
2026-01-12 09:59:55.92	350.52	59.03	-43.0	-45.0	17.6	0.00e+00	0	43	0	0	56	4862
2026-01-12 09:59:58.90	350.14	57.86	-42.8	-44.8	17.5	0.00e+00	0	43	0	0	57	4448
2026-01-12 10:00:01.95	349.78	56.68	-42.7	-44.7	17.7	0.00e+00	0	43	0	0	56	4673
2026-01-12 10:00:04.93	349.46	55.56	-43.9	-46.1	16.4	0.00e+00	0	43	0	0	58	4907
2026-01-12 10:00:07.92	349.16	54.45	-45.1	-47.6	15.0	0.00e+00	0	44	0	0	60	5217
2026-01-12 10:00:10.90	348.89	53.37	-43.4	-45.5	17.1	0.00e+00	0	43	0	0	58	4576
2026-01-12 10:00:13.88	348.64	52.32	-43.6	-45.7	16.9	0.00e+00	0	43	0	0	57	4972
2026-01-12 10:00:16.90	348.40	51.27	-44.4	-46.7	15.7	0.00e+00	0	43	0	0	59	4973
2026-01-12 10:00:19.87	348.18	50.25	-44.8	-47.2	15.3	0.00e+00	0	43	0	0	60	4969
2026-01-12 10:00:23.17	347.96	49.16	-44.9	-47.5	15.1	0.00e+00	0	43	0	0	60	5107
2026-01-12 10:00:25.90	347.78	48.27	-44.5	-46.9	15.8	0.00e+00	0	43	0	0	60	4772
2026-01-12 10:00:29.14	347.59	47.24	-45.8	-48.6	14.2	7.00e-07	0	43	0	0	62	5188
2026-01-12 10:00:31.98	347.43	46.35	-46.2	-49.2	13.3	1.60e-05	0	43	0	0	63	5261
2026-01-12 10:00:35.19	347.26	45.38	-45.6	-48.4	14.1	0.00e+00	0	44	0	0	63	4807
2026-01-12 10:00:38.31	347.11	44.45	-45.3	-48.1	14.5	0.00e+00	0	43	0	0	62	4873
2026-01-12 10:00:41.16	346.98	43.62	-44.9	-47.4	15.1	1.50e-06	0	43	0	0	61	4792
2026-01-12 10:00:44.33	346.84	42.72	-44.7	-47.1	15.6	0.00e+00	0	43	0	0	61	4627
2026-01-12 10:00:47.17	346.72	41.93	-44.9	-47.4	15.3	0.00e+00	0	43	0	0	61	4784
2026-01-12 10:00:50.30	346.60	41.08	-45.3	-47.9	14.8	0.00e+00	0	43	0	0	61	5097
2026-01-12 10:00:53.13	346.50	40.32	-45.1	-47.7	15.1	0.00e+00	0	43	0	0	61	4936
2026-01-12 10:00:56.26	346.39	39.51	-45.4	-48.0	14.8	0.00e+00	0	44	0	0	61	5123
2026-01-12 10:00:59.11	346.29	38.78	-45.2	-47.7	15.0	0.00e+00	0	43	0	0	61	4964
2026-01-12 10:01:02.24	346.19	38.00	-44.8	-47.3	15.4	7.00e-07	0	43	0	0	61	4721
2026-01-12 10:01:05.08	346.11	37.31	-43.7	-45.8	16.7	0.00e+00	0	44	0	0	59	4477
2026-01-12 10:01:08.48	346.01	36.50	-43.9	-46.1	16.4	0.00e+00	0	43	0	0	59	4643
2026-01-12 10:01:11.19	345.94	35.87	-44.1	-46.5	16.2	0.00e+00	0	43	0	0	59	4818
2026-01-12 10:01:14.48	345.85	35.12	-44.1	-46.4	16.2	0.00e+00	0	43	0	0	59	4777
2026-01-12 10:01:17.22	345.78	34.51	-43.9	-46.1	16.5	0.00e+00	0	43	0	0	59	4599
2026-01-12 10:01:20.52	345.71	33.79	-43.5	-45.7	16.7	0.00e+00	0	44	0	0	59	4400
2026-01-12 10:01:23.24	345.65	33.21	-43.7	-45.9	16.6	0.00e+00	0	43	0	0	59	4498
2026-01-12 10:01:26.56	345.58	32.51	-43.6	-45.8	16.8	0.00e+00	0	43	0	0	59	4450
2026-01-12 10:01:29.26	345.52	31.96	-43.2	-45.4	17.2	0.00e+00	0	43	0	0	58	4499
2026-01-12 10:01:32.53	345.46	31.30	-43.2	-45.3	17.2	0.00e+00	0	43	0	0	58	4479
2026-01-12 10:01:35.25	345.40	30.76	-43.3	-45.4	17.2	0.00e+00	0	43	0	0	58	4524
2026-01-12 10:01:38.51	345.35	30.13	-43.4	-45.5	17.0	0.00e+00	0	43	0	0	58	4563
2026-01-12 10:01:41.25	345.30	29.62	-43.5	-45.7	16.7	0.00e+00	0	43	0	0	58	4671
2026-01-12 10:01:44.64	345.24	28.99	-43.7	-45.9	16.5	0.00e+00	0	43	0	0	58	4777
2026-01-12 10:01:47.72	345.20	28.43	-43.5	-45.6	16.7	0.00e+00	0	43	0	0	58	4650
2026-01-12 10:01:50.56	345.15	27.92	-43.5	-45.6	16.7	0.00e+00	0	44	0	0	58	4628
2026-01-12 10:01:53.69	345.11	27.38	-43.2	-45.3	17.1	0.00e+00	0	44	0	0	58	4459
2026-01-12 10:01:56.66	345.07	26.87	-43.0	-45.1	17.3	0.00e+00	0	43	0	0	58	4363
2026-01-12 10:01:59.64	345.03	26.37	-42.4	-44.3	17.9	0.00e+00	0	43	0	0	56	4489
2026-01-12 10:02:02.70	344.99	25.86	-42.2	-44.2	18.1	0.00e+00	0	43	0	0	56	4421
2026-01-12 10:02:06.37	344.94	25.27	-42.0	-43.9	18.3	0.00e+00	0	43	0	0	56	4288
2026-01-12 10:02:09.42	344.91	24.78	-42.0	-43.9	18.4	0.00e+00	0	43	0	0	56	4290
2026-01-12 10:02:13.20	344.86	24.20	-42.2	-44.1	18.3	0.00e+00	0	43	0	0	56	4371
2026-01-12 10:02:15.90	344.84	23.79	-42.3	-44.3	18.1	0.00e+00	0	43	0	0	56	4480
2026-01-12 10:02:19.26	344.80	23.28	-42.3	-44.5	18.0	0.00e+00	0	43	0	0	56	4558
2026-01-12 10:02:21.96	344.77	22.89	-42.4	-44.5	17.9	0.00e+00	0	43	0	0	56	4589
2026-01-12 10:02:25.23	344.74	22.41	-42.6	-44.7	17.8	0.00e+00	0	43	0	0	56	4654
2026-01-12 10:02:27.94	344.72	22.03	-42.6	-44.6	17.8	0.00e+00	0	43	0	0	56	4613
2026-01-12 10:02:31.17	344.69	21.58	-42.5	-44.5	17.9	0.00e+00	0	43	0	0	56	4588
2026-01-12 10:02:34.24	344.67	21.15	-42.5	-44.5	17.9	0.00e+00	0	43	0	0	56	4567
2026-01-12 10:02:37.57	344.64	20.71	-42.6	-44.6	17.7	0.00e+00	0	43	0	0	56	4646
2026-01-12 10:02:40.27	344.62	20.35	-42.7	-44.7	17.7	0.00e+00	0	44	0	0	56	4657
2026-01-12 10:02:43.56	344.59	19.92	-42.8	-44.8	17.5	0.00e+00	0	43	0	0	56	4731
2026-01-12 10:02:46.26	344.57	19.57	-42.8	-44.9	17.4	0.00e+00	0	44	0	0	56	4809
2026-01-12 10:02:49.55	344.55	19.15	-42.9	-45.0	17.3	0.00e+00	0	43	0	0	56	4825
2026-01-12 10:02:52.25	344.53	18.81	-43.0	-45.1	17.2	0.00e+00	0	43	0	0	56	4883
2026-01-12 10:02:55.75	344.51	18.38	-43.1	-45.2	17.0	0.00e+00	0	43	0	0	56	4982
2026-01-12 10:02:58.46	344.49	18.05	-43.0	-45.2	17.0	0.00e+00	0	43	0	0	56	4982
2026-01-12 10:03:01.73	344.47	17.66	-43.1	-45.4	16.9	0.00e+00	0	43	0	0	56	5085
2026-01-12 10:03:04.48	344.46	17.34	-43.1	-45.5	16.9	0.00e+00	0	43	0	0	57	4818
2026-01-12 10:03:07.75	344.44	16.96	-43.1	-45.6	16.8	0.00e+00	0	44	0	0	57	4878
2026-01-12 10:03:10.80	344.43	16.61	-43.2	-45.7	16.7	0.00e+00	0	44	0	0	57	4938
2026-01-12 10:03:13.83	344.41	16.27	-43.0	-45.5	16.9	0.00e+00	0	44	0	0	57	4824
2026-01-12 10:03:16.81	344.40	15.94	-43.0	-45.4	16.9	0.00e+00	0	44	0	0	57	4780
2026-01-12 10:03:19.81	344.38	15.61	-42.9	-45.3	17.0	0.00e+00	0	43	0	0	57	4726
2026-01-12 10:03:22.81	344.37	15.29	-42.9	-45.3	16.9	0.00e+00	0	44	0	0	57	4757
2026-01-12 10:03:25.81	344.36	14.97	-43.1	-45.5	16.7	0.00e+00	0	44	0	0	57	4858
2026-01-12 10:03:28.81	344.34	14.65	-43.0	-45.5	16.8	0.00e+00	0	44	0	0	57	4843
2026-01-12 10:03:31.80	344.33	14.34	-43.1	-45.5	16.7	0.00e+00	0	44	0	0	57	4857
2026-01-12 10:03:34.80	344.32	14.03	-43.3	-45.7	16.6	0.00e+00	0	43	0	0	57	4942
2026-01-12 10:03:37.80	344.31	13.73	-43.3	-45.7	16.6	0.00e+00	0	44	0	0	57	4934
2026-01-12 10:03:40.80	344.30	13.43	-43.4	-45.7	16.6	0.00e+00	0	43	0	0	57	4933
2026-01-12 10:03:43.80	344.29	13.13	-43.5	-45.7	16.5	0.00e+00	0	43	0	0	57	4976
2026-01-12 10:03:46.81	344.28	12.84	-43.4	-45.7	16.5	0.00e+00	0	43	0	0	57	4943
2026-01-12 10:03:49.80	344.27	12.55	-43.2	-45.6	16.6	0.00e+00	0	44	0	0	57	4890
2026-01-12 10:03:52.80	344.26	12.26	-43.3	-45.7	16.5	0.00e+00	0	43	0	0	57	4961
2026-01-12 10:03:55.80	344.26	11.98	-43.3	-45.8	16.4	0.00e+00	0	43	0	0	57	5010
2026-01-12 10:03:58.80	344.25	11.70	-43.5	-45.9	16.3	0.00e+00	0	43	0	0	57	5082
2026-01-12 10:04:01.80	344.24	11.43	-43.5	-45.9	16.3	0.00e+00	0	43	0	0	57	5045
2026-01-12 10:04:04.80	344.23	11.15	-43.5	-45.9	16.3	0.00e+00	0	43	0	0	57	5081
2026-01-12 10:04:07.81	344.23	10.88	-43.5	-46.0	16.2	0.00e+00	0	44	0	0	57	5115
2026-01-12 10:04:10.81	344.22	10.61	-43.6	-46.2	15.9	0.00e+00	0	43	0	0	57	5276
2026-01-12 10:04:13.81	344.21	10.35	-43.5	-46.3	15.8	0.00e+00	0	44	0	0	57	5294
2026-01-12 10:04:16.82	344.21	10.09	-43.4	-46.4	15.7	0.00e+00	0	43	0	0	57	5365
2026-01-12 10:04:19.81	344.20	9.83	-43.4	-46.5	15.6	0.00e+00	0	43	0	0	57	5431
2026-01-12 10:04:22.81	344.20	9.57	-43.3	-46.5	15.5	0.00e+00	0	44	0	0	57	5443
2026-01-12 10:04:25.82	344.19	9.32	-43.4	-46.7	15.3	0.00e+00	0	44	0	0	57	5569
2026-01-12 10:04:28.81	344.19	9.07	-43.6	-47.0	15.0	0.00e+00	0	44	0	0	57	5765
2026-01-12 10:04:31.80	344.19	8.82	-49.6	-63.7	3.8	1.49e+00	0	43	104	0	69	19651
2026-01-12 10:04:34.80	344.18	8.57	-50.8	-64.0	3.8	1.49e+00	0	44	104	0	72	17101
2026-01-12 10:04:37.79	344.18	8.33	-50.7	-64.0	3.8	1.49e+00	0	44	104	0	72	17269
2026-01-12 10:04:40.79	344.17	8.09	-50.8	-64.1	3.8	1.49e+00	0	44	104	0	72	17364
2026-01-12 10:04:43.78	344.17	7.85	-51.0	-64.1	3.8	1.49e+00	0	44	104	0	72	17389
2026-01-12 10:04:46.77	344.17	7.61	-50.8	-64.1	3.8	1.49e+00	0	43	104	0	72	17451
2026-01-12 10:04:49.76	344.17	7.38	-51.1	-64.1	3.8	1.49e+00	0	43	104	0	73	16363
2026-01-12 10:04:52.75	344.16	7.15	-51.1	-64.1	3.8	1.49e+00	0	44	104	0	73	16366
2026-01-12 10:04:55.75	344.16	6.92	-51.0	-64.1	3.8	1.49e+00	0	44	104	0	73	16394
2026-01-12 10:04:58.73	344.16	6.69	-50.9	-64.1	3.8	1.49e+00	0	44	104	0	73	16342
2026-01-12 10:05:01.73	344.16	6.47	-50.9	-64.1	3.8	1.49e+00	0	44	104	0	73	16386
2026-01-12 10:05:04.72	344.16	6.24	-50.9	-64.1	3.8	1.49e+00	0	44	104	0	73	16367
2026-01-12 10:05:07.71	344.16	6.02	-50.9	-64.1	3.8	1.49e+00	0	44	104	0	73	16368
2026-01-12 10:05:10.71	344.16	5.80	-50.9	-64.1	3.8	1.49e+00	0	43	104	0	73	16372
2026-01-12 10:05:13.70	344.16	5.58	-50.9	-64.1	3.8	1.49e+00	0	44	104	0	73	16332
2026-01-12 10:05:16.69	344.15	5.36	-50.9	-64.0	3.8	1.49e+00	0	43	104	0	73	16305
2026-01-12 10:05:19.69	344.15	5.15	-50.9	-64.1	3.8	1.49e+00	0	44	104	0	73	16347
2026-01-12 10:05:22.68	344.15	4.94	-50.9	-64.1	3.8	1.49e+00	0	44	104	0	73	16328

#Closed at: 2026-01-12 10:05:23
#Recorded file [0 MB]: D:/Data/31040_260112_125224.dat