passes_logs/2026/01/12/T1/T1__20260112_225307_NOAA_20_JPSS-1_rec.log

#Pass ID: 20260112_225307_NOAA 20 (JPSS-1)
#Satellite: NOAA 20 (JPSS-1)
#Configuration: NOAA 20
#almurnet v.1.7.20251203
#Start time: 2026-01-12 22:53:09

#Version: 2.0.20230620
#Station: T1
#Location: 37.570604 lon 55.790049 lat
#TLE: 1 43013U 17073A   26012.29914746  .00000087  00000+0  62270-4 0  9997
#TLE: 2 43013  98.7632 313.2670 0001616  43.2193 316.9110 14.19535514422351

#Time	Az	El	Level	Level2	SNR	BER	BlckErr	Temp	State	Recorded	gain1	gain2
2026-01-12 22:53:09.48	22.49	5.16	-51.6	-67.1	3.8	1.49e+00	0	41	104	0	74	21866
2026-01-12 22:53:12.45	22.63	5.36	-51.6	-67.1	3.8	1.49e+00	0	41	104	0	74	21770
2026-01-12 22:53:15.43	22.78	5.56	-51.6	-67.1	3.8	1.49e+00	0	41	104	0	74	21794
2026-01-12 22:53:18.41	22.93	5.77	-51.6	-67.1	3.8	1.49e+00	0	41	104	0	74	21781
2026-01-12 22:53:21.39	23.08	5.98	-51.6	-67.1	3.8	1.49e+00	0	41	104	0	74	21816
2026-01-12 22:53:24.37	23.23	6.18	-51.6	-67.1	3.8	1.49e+00	0	41	104	0	74	21845
2026-01-12 22:53:27.35	23.39	6.39	-51.6	-67.1	3.8	1.49e+00	0	41	104	0	74	21815
2026-01-12 22:53:30.33	23.55	6.61	-51.6	-67.1	3.8	1.49e+00	0	42	104	0	74	21797
2026-01-12 22:53:33.31	23.70	6.82	-51.6	-67.1	3.8	1.49e+00	0	42	104	0	74	21881
2026-01-12 22:53:36.29	23.87	7.03	-51.6	-67.1	3.8	1.49e+00	0	42	104	0	74	21774
2026-01-12 22:53:39.27	24.03	7.25	-51.5	-66.7	3.8	1.49e+00	0	42	104	0	74	20975
2026-01-12 22:53:42.25	24.20	7.47	-51.5	-66.5	3.8	1.49e+00	0	42	104	0	74	20313
2026-01-12 22:53:45.23	24.36	7.69	-51.5	-66.5	3.8	1.49e+00	0	42	104	0	74	20441
2026-01-12 22:53:48.21	24.53	7.91	-51.5	-66.5	3.8	1.49e+00	0	42	104	0	74	20456
2026-01-12 22:53:51.19	24.71	8.13	-51.5	-66.3	3.8	1.49e+00	0	42	104	0	74	19882
2026-01-12 22:53:54.17	24.88	8.36	-51.5	-66.5	3.8	1.49e+00	0	42	104	0	74	20414
2026-01-12 22:53:57.15	25.06	8.59	-51.5	-66.6	3.8	1.49e+00	0	42	104	0	74	20649
2026-01-12 22:54:00.13	25.24	8.81	-51.5	-66.1	3.8	1.49e+00	0	42	104	0	74	19549
2026-01-12 22:54:03.11	25.42	9.05	-51.5	-66.0	3.8	1.49e+00	0	42	104	0	74	19201
2026-01-12 22:54:06.03	25.61	9.27	-51.4	-65.2	3.8	1.49e+00	0	42	104	0	74	17506
2026-01-12 22:54:09.16	25.80	9.52	-50.2	-56.6	9.1	2.50e-02	0	43	0	1048576	72	7337
2026-01-12 22:54:12.00	25.99	9.75	-49.5	-54.5	11.5	9.65e-04	0	42	0	6291456	70	6468
2026-01-12 22:54:15.12	26.19	9.99	-49.3	-54.3	11.7	7.94e-04	0	43	0	12582912	70	6302
2026-01-12 22:54:17.97	26.38	10.23	-48.6	-52.8	13.2	2.21e-05	0	43	0	17825792	69	5651
2026-01-12 22:54:21.09	26.59	10.48	-48.4	-52.6	13.5	9.90e-06	0	43	0	23068672	68	5801
2026-01-12 22:54:24.01	26.79	10.72	-48.3	-52.4	13.7	8.30e-06	0	43	0	29360128	68	5663
2026-01-12 22:54:27.00	27.00	10.97	-48.2	-52.3	13.8	3.00e-06	0	43	0	34603008	68	5619
2026-01-12 22:54:29.98	27.21	11.22	-48.1	-52.0	14.1	3.00e-06	0	43	0	39845888	68	5415
2026-01-12 22:54:32.97	27.42	11.47	-47.7	-51.4	14.5	1.50e-06	0	43	0	46137344	67	5372
2026-01-12 22:54:35.98	27.64	11.73	-47.7	-51.4	14.5	0.00e+00	0	43	0	51380224	67	5398
2026-01-12 22:54:38.96	27.86	11.98	-47.7	-51.4	14.5	0.00e+00	0	43	0	56623104	67	5379
2026-01-12 22:54:41.94	28.08	12.24	-47.6	-51.3	14.6	0.00e+00	0	43	0	62914560	67	5318
2026-01-12 22:54:44.93	28.31	12.50	-47.6	-51.4	14.6	0.00e+00	0	43	0	68157440	67	5346
2026-01-12 22:54:47.91	28.54	12.77	-47.6	-51.5	14.5	7.00e-07	0	43	0	73400320	67	5411
2026-01-12 22:54:50.93	28.78	13.03	-47.5	-51.4	14.6	1.50e-06	0	43	0	79691776	67	5373
2026-01-12 22:54:53.94	29.03	13.31	-47.6	-51.3	14.7	7.00e-07	0	43	0	84934656	67	5331
2026-01-12 22:54:56.93	29.27	13.58	-47.7	-51.3	14.7	7.00e-07	0	43	0	91226112	67	5294
2026-01-12 22:54:59.91	29.52	13.85	-47.7	-51.1	15.0	0.00e+00	0	43	0	96468992	67	5161
2026-01-12 22:55:02.89	29.77	14.13	-47.7	-51.1	15.0	0.00e+00	0	43	0	101711872	67	5168
2026-01-12 22:55:05.87	30.03	14.41	-47.7	-51.1	14.9	0.00e+00	0	43	0	108003328	67	5198
2026-01-12 22:55:08.81	30.29	14.68	-47.7	-51.1	15.0	0.00e+00	0	43	0	113246208	67	5177
2026-01-12 22:55:12.09	30.58	15.00	-47.6	-50.9	15.2	0.00e+00	0	43	0	119537664	67	5051
2026-01-12 22:55:14.79	30.83	15.26	-47.5	-50.7	15.4	0.00e+00	0	43	0	123731968	67	4947
2026-01-12 22:55:18.06	31.13	15.58	-47.4	-50.6	15.5	0.00e+00	0	43	0	130023424	66	5175
2026-01-12 22:55:20.79	31.39	15.85	-47.3	-50.5	15.6	0.00e+00	0	43	0	135266304	66	5123
2026-01-12 22:55:24.01	31.70	16.17	-47.4	-50.6	15.5	0.00e+00	0	43	0	141557760	66	5183
2026-01-12 22:55:27.00	32.00	16.47	-47.5	-50.7	15.4	0.00e+00	0	43	0	146800640	66	5234
2026-01-12 22:55:29.98	32.30	16.77	-47.5	-50.7	15.4	0.00e+00	0	43	0	153092096	66	5277
2026-01-12 22:55:32.96	32.60	17.07	-47.7	-51.0	15.2	0.00e+00	0	43	0	158334976	66	5415
2026-01-12 22:55:35.94	32.91	17.38	-47.6	-50.9	15.2	7.00e-07	0	43	0	163577856	66	5402
2026-01-12 22:55:38.93	33.23	17.69	-47.6	-51.1	15.0	0.00e+00	0	43	0	169869312	66	5490
2026-01-12 22:55:41.91	33.55	18.01	-47.6	-51.1	15.0	0.00e+00	0	43	0	175112192	66	5526
2026-01-12 22:55:44.99	33.89	18.34	-47.7	-51.2	14.9	0.00e+00	0	43	0	180355072	66	5583
2026-01-12 22:55:47.98	34.23	18.66	-47.8	-51.2	14.9	0.00e+00	0	43	0	186646528	66	5592
2026-01-12 22:55:50.96	34.58	18.99	-47.8	-51.2	15.0	0.00e+00	0	43	0	191889408	66	5559
2026-01-12 22:55:53.94	34.93	19.31	-47.8	-51.1	15.1	0.00e+00	0	43	0	197132288	66	5472
2026-01-12 22:55:56.93	35.29	19.65	-47.7	-51.1	15.1	0.00e+00	0	43	0	203423744	66	5484
2026-01-12 22:55:59.98	35.66	19.99	-47.8	-51.4	14.8	0.00e+00	0	43	0	208666624	66	5670
2026-01-12 22:56:02.99	36.04	20.33	-47.9	-51.4	14.8	0.00e+00	0	43	0	214958080	66	5696
2026-01-12 22:56:05.98	36.42	20.67	-47.9	-51.4	14.8	0.00e+00	0	43	0	220200960	66	5689
2026-01-12 22:56:08.96	36.81	21.02	-47.9	-51.4	14.8	7.00e-07	0	43	0	225443840	66	5678
2026-01-12 22:56:11.94	37.21	21.37	-48.0	-51.4	14.8	0.00e+00	0	43	0	231735296	66	5705
2026-01-12 22:56:14.96	37.63	21.73	-48.2	-51.6	14.6	0.00e+00	0	43	0	236978176	67	5514
2026-01-12 22:56:17.98	38.05	22.09	-48.2	-51.7	14.5	0.00e+00	0	43	0	242221056	67	5574
2026-01-12 22:56:20.96	38.48	22.45	-48.1	-51.5	14.6	0.00e+00	0	43	0	248512512	67	5461
2026-01-12 22:56:23.94	38.91	22.81	-48.1	-51.4	14.7	0.00e+00	0	43	0	253755392	67	5393
2026-01-12 22:56:26.93	39.36	23.18	-48.0	-51.4	14.8	0.00e+00	0	43	0	258998272	67	5382
2026-01-12 22:56:29.91	39.82	23.55	-47.9	-51.2	15.0	0.00e+00	0	43	0	265289728	67	5262
2026-01-12 22:56:32.90	40.29	23.92	-47.8	-51.1	15.2	0.00e+00	0	43	0	270532608	67	5168
2026-01-12 22:56:35.88	40.77	24.30	-47.9	-51.1	15.1	7.00e-07	0	43	0	276824064	67	5205
2026-01-12 22:56:38.86	41.26	24.68	-47.9	-51.2	15.1	0.00e+00	0	43	0	282066944	67	5222
2026-01-12 22:56:41.87	41.76	25.07	-47.9	-51.2	15.0	0.00e+00	0	44	0	287309824	67	5264
2026-01-12 22:56:44.93	42.29	25.46	-47.9	-51.2	15.1	0.00e+00	0	43	0	293601280	67	5231
2026-01-12 22:56:47.81	42.80	25.84	-48.1	-51.5	14.8	0.00e+00	0	43	0	298844160	67	5405
2026-01-12 22:56:50.94	43.37	26.26	-48.1	-51.5	14.7	0.00e+00	0	43	0	304087040	67	5450
2026-01-12 22:56:53.78	43.89	26.63	-48.2	-51.7	14.6	7.00e-07	0	43	0	310378496	67	5537
2026-01-12 22:56:57.01	44.51	27.07	-48.1	-51.5	14.8	0.00e+00	0	44	0	315621376	67	5430
2026-01-12 22:56:59.85	45.06	27.45	-48.1	-51.5	14.7	7.00e-07	0	43	0	320864256	67	5455
2026-01-12 22:57:03.05	45.70	27.89	-48.4	-52.0	14.3	1.50e-06	0	44	0	327155712	67	5769
2026-01-12 22:57:05.90	46.29	28.28	-48.4	-52.0	14.3	0.00e+00	0	43	0	332398592	67	5765
2026-01-12 22:57:09.03	46.94	28.71	-48.6	-52.3	14.0	3.00e-06	0	43	0	338690048	67	5930
2026-01-12 22:57:11.87	47.56	29.11	-48.5	-52.2	14.1	7.00e-07	0	43	0	343932928	67	5862
2026-01-12 22:57:15.00	48.25	29.54	-48.8	-52.5	14.0	2.20e-06	0	43	0	349175808	68	5734
2026-01-12 22:57:17.84	48.89	29.94	-48.7	-52.3	14.2	0.00e+00	0	43	0	355467264	68	5605
2026-01-12 22:57:20.96	49.62	30.38	-49.0	-52.8	13.7	3.00e-06	0	43	0	360710144	68	5967
2026-01-12 22:57:23.80	50.30	30.78	-49.0	-52.8	13.7	8.30e-06	0	43	0	365953024	68	5949
2026-01-12 22:57:27.01	51.09	31.24	-48.9	-52.7	13.8	4.50e-06	0	44	0	372244480	68	5869
2026-01-12 22:57:29.89	51.81	31.65	-49.1	-53.0	13.4	1.22e-05	0	43	0	377487360	69	5765
2026-01-12 22:57:33.14	52.65	32.11	-49.4	-53.6	12.9	5.56e-05	0	44	0	383778816	69	6134
2026-01-12 22:57:36.46	53.54	32.59	-49.3	-53.2	13.3	1.44e-05	0	44	0	390070272	69	5907
2026-01-12 22:57:39.25	54.30	32.99	-49.4	-53.5	13.0	4.34e-05	0	43	0	395313152	69	6084
2026-01-12 22:57:42.38	55.17	33.43	-49.7	-54.1	12.4	9.76e-05	0	43	0	400556032	70	6185
2026-01-12 22:57:45.23	55.99	33.84	-49.5	-53.7	12.8	6.48e-05	0	44	0	406847488	70	5891
2026-01-12 22:57:48.51	56.96	34.30	-49.2	-53.2	13.3	1.90e-05	0	43	0	412090368	70	5579
2026-01-12 22:57:51.24	57.79	34.69	-49.1	-53.0	13.5	6.10e-06	0	43	0	417333248	70	5441
2026-01-12 22:57:54.52	58.81	35.15	-49.9	-54.5	12.0	2.46e-04	0	44	0	423624704	70	6465
2026-01-12 22:57:57.23	59.67	35.53	-49.7	-54.1	12.4	1.94e-04	0	43	0	428867584	70	6175
2026-01-12 22:58:00.53	60.75	35.99	-49.3	-53.3	13.2	2.44e-05	0	43	0	435159040	70	5630
2026-01-12 22:58:03.26	61.67	36.36	-49.9	-54.4	12.2	1.67e-04	0	43	0	440401920	70	6357
2026-01-12 22:58:06.64	62.83	36.82	-49.9	-54.3	12.2	3.60e-04	0	43	0	446693376	71	5972
2026-01-12 22:58:09.72	63.92	37.23	-49.3	-53.2	13.3	1.83e-05	0	43	0	451936256	70	5556
2026-01-12 22:58:12.99	65.10	37.66	-49.4	-53.5	13.0	2.28e-05	0	44	0	458227712	70	5747
2026-01-12 22:58:15.69	66.10	38.01	-49.7	-54.1	12.5	1.19e-04	0	44	0	463470592	70	6153
2026-01-12 22:58:19.01	67.36	38.43	-49.2	-53.1	13.4	3.43e-05	0	44	0	469762048	70	5474
2026-01-12 22:58:21.74	68.42	38.76	-48.9	-52.6	13.9	2.20e-06	0	43	0	475004928	69	5512
2026-01-12 22:58:25.02	69.73	39.16	-50.0	-54.6	12.0	2.55e-04	0	43	0	481296384	70	6497
2026-01-12 22:58:27.76	70.84	39.48	-50.3	-55.3	11.2	1.38e-03	0	44	0	486539264	71	6662
2026-01-12 22:58:31.03	72.19	39.85	-49.9	-54.4	12.1	2.72e-04	0	44	0	491782144	71	6010
2026-01-12 22:58:33.78	73.36	40.15	-49.4	-53.6	12.9	6.48e-05	0	44	0	497025024	70	5843
2026-01-12 22:58:37.14	74.81	40.50	-49.5	-53.8	12.8	6.10e-05	0	43	0	503316480	70	5942
2026-01-12 22:58:39.87	76.01	40.78	-49.1	-53.0	13.6	9.10e-06	0	44	0	508559360	70	5411
2026-01-12 22:58:43.45	77.61	41.12	-48.5	-52.0	14.6	0.00e+00	0	43	0	515899392	68	5447
2026-01-12 22:58:46.28	78.91	41.37	-48.9	-52.5	14.0	0.00e+00	0	43	0	521142272	68	5785
2026-01-12 22:58:49.41	80.36	41.63	-49.5	-53.9	12.7	6.86e-05	0	43	0	526385152	69	6373
2026-01-12 22:58:52.25	81.70	41.86	-49.4	-53.6	12.9	6.40e-05	0	43	0	531628032	69	6178
2026-01-12 22:58:55.49	83.24	42.09	-49.1	-53.4	13.1	1.83e-05	0	44	0	537919488	69	6059
2026-01-12 22:58:58.33	84.62	42.28	-49.2	-53.4	13.1	5.26e-05	0	43	0	543162368	69	6035
2026-01-12 22:59:01.46	86.15	42.47	-48.4	-52.0	14.5	2.20e-06	0	44	0	549453824	68	5458
2026-01-12 22:59:04.30	87.56	42.62	-48.8	-52.7	13.9	2.20e-06	0	44	0	554696704	68	5863
2026-01-12 22:59:07.43	89.12	42.76	-48.3	-51.8	14.7	7.00e-07	0	44	0	559939584	68	5321
2026-01-12 22:59:10.27	90.55	42.87	-49.0	-52.8	13.8	6.10e-06	0	44	0	566231040	68	5977
2026-01-12 22:59:13.49	92.18	42.97	-48.4	-51.8	14.6	7.00e-07	0	43	0	571473920	68	5335
2026-01-12 22:59:16.39	93.66	43.04	-49.1	-52.9	13.7	1.50e-06	0	44	0	577765376	68	6039
2026-01-12 22:59:19.63	95.32	43.10	-48.0	-51.2	15.3	0.00e+00	0	43	0	583008256	68	4951
2026-01-12 22:59:22.47	96.77	43.13	-48.2	-51.7	14.7	0.00e+00	0	43	0	588251136	67	5543
2026-01-12 22:59:25.60	98.38	43.13	-47.7	-50.9	15.5	0.00e+00	0	44	0	594542592	67	5049
2026-01-12 22:59:28.64	99.94	43.11	-47.7	-50.8	15.6	0.00e+00	0	44	0	599785472	67	4995
2026-01-12 22:59:32.15	101.74	43.06	-48.2	-51.6	14.8	0.00e+00	0	43	0	607125504	67	5469
2026-01-12 22:59:34.93	103.16	43.00	-48.4	-51.9	14.7	7.00e-07	0	44	0	612368384	68	5351
2026-01-12 22:59:38.26	104.85	42.90	-48.8	-52.4	14.1	0.00e+00	0	44	0	618659840	68	5721
2026-01-12 22:59:40.98	106.22	42.80	-48.6	-52.1	14.5	6.80e-06	0	44	0	622854144	68	5486
2026-01-12 22:59:44.24	107.86	42.66	-48.8	-52.4	14.2	1.50e-06	0	44	0	629145600	68	5707
2026-01-12 22:59:46.99	109.22	42.52	-48.3	-51.6	15.0	0.00e+00	0	43	0	634388480	68	5201
2026-01-12 22:59:50.24	110.82	42.33	-49.2	-53.1	13.5	1.60e-05	0	44	0	640679936	69	5801
2026-01-12 22:59:53.09	112.21	42.15	-48.9	-52.6	14.0	2.20e-06	0	44	0	645922816	69	5471
2026-01-12 22:59:56.21	113.71	41.93	-48.6	-52.2	14.4	0.00e+00	0	43	0	652214272	69	5219
2026-01-12 22:59:59.06	115.06	41.71	-48.4	-51.7	14.9	0.00e+00	0	44	0	657457152	68	5252
2026-01-12 23:00:02.19	116.52	41.45	-48.2	-51.6	14.9	1.50e-06	0	43	0	662700032	68	5216
2026-01-12 23:00:05.03	117.83	41.20	-48.0	-51.4	15.0	0.00e+00	0	43	0	667942912	67	5382
2026-01-12 23:00:08.34	119.32	40.89	-47.2	-50.2	16.2	0.00e+00	0	43	0	674234368	66	4937
2026-01-12 23:00:11.27	120.63	40.60	-48.0	-51.3	15.0	0.00e+00	0	43	0	680525824	66	5653
2026-01-12 23:00:14.26	121.93	40.29	-46.4	-49.1	17.3	0.00e+00	0	43	0	685768704	64	4876
2026-01-12 23:00:17.24	123.20	39.97	-47.3	-50.3	16.0	0.00e+00	0	43	0	691011584	65	5309
2026-01-12 23:00:20.22	124.45	39.63	-46.7	-49.5	16.8	0.00e+00	0	44	0	697303040	65	4829
2026-01-12 23:00:23.49	125.80	39.25	-47.6	-50.7	15.7	0.00e+00	0	44	0	702545920	65	5538
2026-01-12 23:00:26.21	126.89	38.93	-47.4	-50.5	15.9	0.00e+00	0	44	0	707788800	65	5407
2026-01-12 23:00:29.49	128.18	38.53	-47.5	-50.6	15.8	0.00e+00	0	44	0	714080256	66	5176
2026-01-12 23:00:32.24	129.23	38.18	-47.1	-50.1	16.3	0.00e+00	0	43	0	719323136	66	4881
2026-01-12 23:00:35.51	130.46	37.76	-47.3	-50.2	16.1	0.00e+00	0	44	0	725614592	66	4954
2026-01-12 23:00:38.23	131.46	37.40	-47.5	-50.6	15.7	0.00e+00	0	43	0	730857472	66	5214
2026-01-12 23:00:41.51	132.63	36.97	-47.5	-50.6	15.8	0.00e+00	0	43	0	737148928	66	5182
2026-01-12 23:00:44.21	133.57	36.60	-47.1	-50.0	16.3	0.00e+00	0	43	0	742391808	66	4837
2026-01-12 23:00:47.51	134.70	36.15	-46.2	-48.8	17.5	0.00e+00	0	44	0	747634688	64	4708
2026-01-12 23:00:50.25	135.61	35.77	-47.7	-50.9	15.5	0.00e+00	0	43	0	752877568	66	5346
2026-01-12 23:00:53.54	136.68	35.31	-47.2	-50.1	16.2	0.00e+00	0	44	0	759169024	66	4915
2026-01-12 23:00:56.25	137.53	34.93	-48.3	-51.8	14.6	2.20e-06	0	43	0	764411904	67	5598
2026-01-12 23:00:59.52	138.54	34.47	-47.2	-50.1	16.2	0.00e+00	0	44	0	770703360	66	4889
2026-01-12 23:01:02.23	139.35	34.08	-48.0	-51.3	15.1	0.00e+00	0	43	0	775946240	66	5597
2026-01-12 23:01:05.50	140.31	33.61	-47.8	-50.9	15.4	0.00e+00	0	44	0	782237696	67	5080
2026-01-12 23:01:08.25	141.09	33.22	-47.1	-49.9	16.4	0.00e+00	0	43	0	787480576	65	5095
2026-01-12 23:01:11.80	142.08	32.71	-49.3	-53.4	13.1	9.38e-05	0	43	0	793772032	69	6013
2026-01-12 23:01:14.53	142.82	32.32	-46.9	-49.7	16.6	0.00e+00	0	44	0	799014912	65	4978
2026-01-12 23:01:17.82	143.68	31.84	-49.2	-53.2	13.3	3.00e-06	0	44	0	805306368	69	5895
2026-01-12 23:01:20.61	144.40	31.44	-48.6	-52.2	14.2	1.29e-05	0	44	0	810549248	69	5243
2026-01-12 23:01:24.22	145.30	30.93	-47.4	-50.3	16.0	0.00e+00	0	43	0	816840704	66	5034
2026-01-12 23:01:26.98	145.97	30.53	-49.4	-53.6	12.9	2.74e-05	0	43	0	822083584	69	6159
2026-01-12 23:01:30.30	146.75	30.06	-47.5	-50.5	15.8	0.00e+00	0	43	0	828375040	67	4868
2026-01-12 23:01:33.01	147.37	29.68	-47.6	-50.8	15.6	0.00e+00	0	43	0	833617920	66	5286
2026-01-12 23:01:36.28	148.11	29.22	-49.7	-54.3	12.2	8.69e-05	0	44	0	839909376	70	6300
2026-01-12 23:01:39.01	148.70	28.83	-48.3	-51.8	14.7	1.50e-06	0	43	0	845152256	68	5289
2026-01-12 23:01:42.28	149.40	28.38	-47.8	-51.1	15.2	0.00e+00	0	44	0	850395136	67	5201
2026-01-12 23:01:45.20	150.01	27.97	-49.0	-53.1	13.4	9.90e-06	0	44	0	856686592	68	6189
2026-01-12 23:01:48.19	150.61	27.56	-48.9	-53.2	13.2	2.44e-05	0	43	0	861929472	69	5916
2026-01-12 23:01:51.17	151.20	27.16	-48.2	-51.9	14.5	7.00e-07	0	43	0	867172352	68	5392
2026-01-12 23:01:54.15	151.77	26.75	-48.4	-51.9	14.5	7.00e-07	0	44	0	873463808	68	5388
2026-01-12 23:01:57.13	152.33	26.35	-48.8	-52.7	13.9	7.00e-07	0	44	0	878706688	68	5856
2026-01-12 23:02:00.12	152.88	25.95	-48.3	-51.8	14.6	0.00e+00	0	43	0	883949568	68	5325
2026-01-12 23:02:03.10	153.41	25.56	-47.4	-50.4	15.8	0.00e+00	0	44	0	890241024	66	5083
2026-01-12 23:02:06.09	153.94	25.16	-47.4	-50.5	15.7	0.00e+00	0	43	0	895483904	66	5133
2026-01-12 23:02:09.09	154.45	24.77	-47.5	-50.7	15.6	0.00e+00	0	44	0	900726784	66	5237
2026-01-12 23:02:12.04	154.94	24.39	-47.4	-50.5	15.7	0.00e+00	0	44	0	907018240	66	5143
2026-01-12 23:02:15.16	155.45	23.99	-47.3	-50.4	15.9	0.00e+00	0	44	0	912261120	66	5057
2026-01-12 23:02:18.17	155.92	23.61	-47.3	-50.3	15.9	0.00e+00	0	43	0	918552576	66	5041
2026-01-12 23:02:21.21	156.39	23.23	-47.3	-50.4	15.7	0.00e+00	0	44	0	923795456	66	5081
2026-01-12 23:02:24.53	156.89	22.82	-47.6	-50.8	15.4	0.00e+00	0	44	0	930086912	66	5311
2026-01-12 23:02:27.26	157.30	22.48	-48.0	-51.5	14.8	7.00e-07	0	44	0	935329792	66	5726
2026-01-12 23:02:30.54	157.77	22.08	-47.9	-51.3	14.9	0.00e+00	0	44	0	941621248	66	5640
2026-01-12 23:02:33.29	158.16	21.75	-47.5	-50.8	15.4	0.00e+00	0	44	0	946864128	66	5284
2026-01-12 23:02:36.67	158.62	21.35	-47.5	-50.8	15.4	0.00e+00	0	44	0	953155584	66	5283
2026-01-12 23:02:39.44	159.00	21.02	-47.6	-51.0	15.1	0.00e+00	0	44	0	958398464	66	5422
2026-01-12 23:02:42.78	159.44	20.63	-47.6	-51.0	15.0	0.00e+00	0	44	0	964689920	66	5423
2026-01-12 23:02:45.48	159.78	20.32	-47.4	-50.7	15.2	7.00e-07	0	43	0	968884224	66	5246
2026-01-12 23:02:48.75	160.20	19.94	-47.3	-50.6	15.3	0.00e+00	0	44	0	975175680	66	5162
2026-01-12 23:02:51.49	160.53	19.63	-47.4	-50.7	15.1	0.00e+00	0	44	0	980418560	66	5239
2026-01-12 23:02:54.76	160.93	19.26	-47.3	-50.7	15.0	0.00e+00	0	44	0	986710016	66	5264
2026-01-12 23:02:57.79	161.29	18.93	-47.4	-50.9	14.8	0.00e+00	0	44	0	991952896	66	5343
2026-01-12 23:03:01.07	161.67	18.57	-47.4	-51.0	14.6	7.00e-07	0	44	0	998244352	66	5462
2026-01-12 23:03:03.79	161.97	18.27	-47.5	-51.1	14.4	0.00e+00	0	44	0	1003487232	66	5515
2026-01-12 23:03:07.10	162.34	17.92	-47.5	-51.1	14.4	1.50e-06	0	44	0	1009778688	66	5480
2026-01-12 23:03:09.97	162.65	17.61	-47.4	-51.1	14.4	0.00e+00	0	44	0	1015021568	66	5482
2026-01-12 23:03:13.24	163.00	17.27	-47.3	-50.9	14.5	0.00e+00	0	44	0	1021313024	66	5377
2026-01-12 23:03:16.46	163.33	16.93	-47.3	-50.9	14.5	7.00e-07	0	44	0	1027604480	66	5398
2026-01-12 23:03:19.33	163.63	16.63	-47.3	-50.8	14.6	7.00e-07	0	44	0	1032847360	66	5328
2026-01-12 23:03:22.70	163.96	16.29	-47.3	-50.9	14.5	7.00e-07	0	44	0	1039138816	66	5365
2026-01-12 23:03:25.43	164.23	16.02	-47.2	-50.7	14.7	0.00e+00	0	43	0	1044381696	66	5271
2026-01-12 23:03:28.72	164.54	15.69	-47.0	-50.6	14.8	7.00e-07	0	44	0	1050673152	66	5169
2026-01-12 23:03:31.44	164.80	15.42	-47.1	-50.5	14.9	0.00e+00	0	44	0	1055916032	66	5119
2026-01-12 23:03:34.71	165.10	15.10	-47.3	-50.8	14.6	0.00e+00	0	44	0	1061158912	66	5311
2026-01-12 23:03:37.44	165.35	14.83	-47.4	-51.0	14.4	0.00e+00	0	44	0	1066401792	66	5419
2026-01-12 23:03:40.74	165.64	14.52	-47.5	-51.2	14.1	3.80e-06	0	44	0	1072693248	66	5591
2026-01-12 23:03:43.49	165.88	14.25	-47.7	-51.5	13.8	6.10e-06	0	43	0	1077936128	66	5776
2026-01-12 23:03:46.75	166.16	13.95	-47.6	-51.6	13.7	7.60e-06	0	43	0	1084227584	66	5808
2026-01-12 23:03:49.60	166.40	13.68	-47.6	-51.6	13.7	7.60e-06	0	43	0	1089470464	66	5839
2026-01-12 23:03:52.72	166.66	13.39	-47.1	-50.8	14.4	1.50e-06	0	44	0	1095761920	66	5333
2026-01-12 23:03:55.56	166.89	13.13	-46.9	-50.6	14.6	0.00e+00	0	43	0	1101004800	65	5498
2026-01-12 23:03:58.69	167.14	12.85	-46.6	-50.3	14.9	0.00e+00	0	43	0	1106247680	65	5302
2026-01-12 23:04:01.54	167.36	12.60	-46.5	-50.2	14.9	0.00e+00	0	43	0	1111490560	65	5249
2026-01-12 23:04:04.66	167.60	12.32	-46.6	-50.4	14.7	0.00e+00	0	44	0	1117782016	65	5369
2026-01-12 23:04:07.63	167.83	12.06	-46.8	-50.8	14.2	3.00e-06	0	43	0	1123024896	65	5652
2026-01-12 23:04:10.62	168.05	11.80	-47.0	-51.4	9.6	3.00e-06	0	44	0	1129316352	65	6016
2026-01-12 23:04:14.28	168.32	11.48	-47.0	-51.9	13.0	3.12e-05	0	44	0	1135607808	65	6403
2026-01-12 23:04:17.13	168.52	11.24	-46.9	-52.0	12.9	5.79e-05	0	44	0	1140850688	65	6429
2026-01-12 23:04:20.45	168.76	10.96	-46.7	-52.0	12.8	8.01e-05	0	44	0	1147142144	65	6480
2026-01-12 23:04:23.15	168.95	10.73	-46.6	-51.9	13.0	3.96e-05	0	44	0	1152385024	65	6352
2026-01-12 23:04:26.64	169.18	10.44	-46.4	-51.7	13.1	3.81e-05	0	44	0	1158676480	64	6582
2026-01-12 23:04:29.35	169.37	10.22	-46.4	-51.5	13.3	2.44e-05	0	44	0	1163919360	64	6442
2026-01-12 23:04:32.74	169.59	9.94	-46.5	-51.4	13.3	1.98e-05	0	44	0	1170210816	64	6419
2026-01-12 23:04:35.49	169.77	9.72	-46.4	-51.1	13.6	1.22e-05	0	44	0	1175453696	64	6141
2026-01-12 23:04:38.77	169.98	9.45	-46.6	-51.1	13.6	6.10e-06	0	44	0	1181745152	64	6173
2026-01-12 23:04:41.50	170.15	9.24	-46.5	-51.2	13.5	5.30e-06	0	44	0	1186988032	64	6206
2026-01-12 23:04:45.09	170.37	8.95	-49.0	-64.4	3.9	1.13e-02	0	44	104	1193279488	69	21306
2026-01-12 23:04:47.78	170.54	8.74	-51.0	-66.4	3.8	1.49e+00	0	44	104	1193279488	72	22534
2026-01-12 23:04:51.06	170.73	8.49	-51.2	-66.5	3.8	1.49e+00	0	44	104	1193279488	73	21734
2026-01-12 23:04:53.75	170.89	8.28	-51.4	-66.6	3.8	1.49e+00	0	44	104	1193279488	73	21869
2026-01-12 23:04:57.01	171.08	8.03	-51.5	-66.6	3.8	1.49e+00	0	44	104	1193279488	73	21919
2026-01-12 23:04:59.73	171.24	7.83	-51.5	-66.6	3.8	1.49e+00	0	44	104	1193279488	73	21972
2026-01-12 23:05:02.99	171.42	7.58	-51.5	-66.6	3.8	1.49e+00	0	44	104	1193279488	73	21973
2026-01-12 23:05:05.69	171.57	7.38	-51.5	-66.6	3.8	1.49e+00	0	44	104	1193279488	73	21978
2026-01-12 23:05:08.97	171.75	7.14	-51.3	-66.6	3.8	1.49e+00	0	44	104	1193279488	73	21898
2026-01-12 23:05:11.67	171.90	6.94	-51.3	-66.6	3.8	1.49e+00	0	44	104	1193279488	73	21875
2026-01-12 23:05:14.93	172.07	6.71	-51.2	-66.5	3.8	1.49e+00	0	44	104	1193279488	73	21702
2026-01-12 23:05:17.64	172.22	6.51	-51.2	-66.5	3.8	1.49e+00	0	43	104	1193279488	73	21737
2026-01-12 23:05:20.91	172.39	6.28	-51.2	-66.5	3.8	1.49e+00	0	44	104	1193279488	73	21716
2026-01-12 23:05:23.63	172.53	6.08	-51.2	-66.5	3.8	1.49e+00	0	44	104	1193279488	73	21613
2026-01-12 23:05:26.91	172.69	5.85	-51.2	-66.5	3.8	1.49e+00	0	44	104	1193279488	73	21743
2026-01-12 23:05:29.62	172.83	5.66	-51.2	-66.5	3.8	1.49e+00	0	44	104	1193279488	73	21598
2026-01-12 23:05:32.88	172.99	5.44	-51.2	-66.5	3.8	1.49e+00	0	44	104	1193279488	73	21751
2026-01-12 23:05:35.62	173.12	5.25	-51.2	-66.5	3.8	1.49e+00	0	44	104	1193279488	73	21685
2026-01-12 23:05:38.89	173.28	5.02	-51.2	-66.5	3.8	1.49e+00	0	44	104	1193279488	73	21613

#Closed at: 2026-01-12 23:05:40
#Recorded file [1193 MB]: D:/Data/31040_260113_015309.dat