passes_logs/2026/01/12/T1/T1__20260112_090257_NOAA_20_JPSS-1_rec.log

#Pass ID: 20260112_090257_NOAA 20 (JPSS-1)
#Satellite: NOAA 20 (JPSS-1)
#Configuration: NOAA 20
#almurnet v.1.7.20251203
#Start time: 2026-01-12 09:02:58

#Version: 2.0.20230620
#Station: T1
#Location: 37.570604 lon 55.790049 lat
#TLE: 1 43013U 17073A   26011.31235446  .00000090  00000+0  63634-4 0  9991
#TLE: 2 43013  98.7632 312.2907 0001646  44.6084 315.5224 14.19535308422217

#Time	Az	El	Level	Level2	SNR	BER	BlckErr	Temp	State	Recorded	gain1	gain2
2026-01-12 09:02:58.81	132.63	5.12	-49.9	-65.0	3.8	1.49e+00	0	39	0	0	71	20512
2026-01-12 09:03:01.79	132.50	5.33	-49.9	-65.1	3.8	1.49e+00	0	40	104	0	71	20678
2026-01-12 09:03:04.77	132.36	5.53	-49.9	-65.1	3.8	1.49e+00	0	40	104	0	71	20581
2026-01-12 09:03:07.75	132.22	5.74	-49.9	-64.8	3.8	1.49e+00	0	40	104	0	71	20062
2026-01-12 09:03:10.73	132.07	5.95	-49.9	-64.4	3.8	1.49e+00	0	40	104	0	71	18982
2026-01-12 09:03:13.72	131.93	6.17	-49.9	-63.9	3.8	1.49e+00	0	40	104	0	71	18072
2026-01-12 09:03:16.70	131.78	6.38	-49.9	-63.9	3.8	1.49e+00	0	40	104	0	71	18033
2026-01-12 09:03:19.68	131.63	6.60	-49.9	-64.3	3.8	1.49e+00	0	40	104	0	71	18874
2026-01-12 09:03:22.66	131.48	6.81	-49.9	-64.9	3.8	1.49e+00	0	40	104	0	71	20274
2026-01-12 09:03:25.64	131.33	7.03	-50.0	-65.1	3.8	1.49e+00	0	40	104	0	71	20731
2026-01-12 09:03:28.62	131.17	7.25	-49.9	-64.8	3.8	1.49e+00	0	40	104	0	71	19946
2026-01-12 09:03:31.60	131.01	7.47	-49.7	-61.2	4.3	1.46e+00	0	41	0	0	71	13198
2026-01-12 09:03:34.59	130.85	7.70	-48.9	-56.3	7.5	2.09e-01	0	41	0	5242880	69	8383
2026-01-12 09:03:37.57	130.68	7.92	-47.6	-52.7	11.0	3.75e-03	0	41	0	10485760	67	6218
2026-01-12 09:03:40.55	130.51	8.15	-46.7	-50.9	12.9	5.18e-05	0	41	0	15728640	65	5686
2026-01-12 09:03:43.53	130.34	8.38	-47.0	-51.5	12.3	1.16e-04	0	41	0	22020096	65	6073
2026-01-12 09:03:46.51	130.17	8.61	-48.2	-54.3	9.3	1.13e-02	0	41	0	27262976	67	7512
2026-01-12 09:03:49.49	130.00	8.84	-49.6	-60.5	4.6	5.60e-01	0	41	0	32505856	69	13682
2026-01-12 09:03:52.47	129.82	9.07	-49.8	-62.9	3.9	1.49e+00	0	41	104	33554432	70	16927
2026-01-12 09:03:55.45	129.64	9.31	-50.0	-65.0	3.8	1.49e+00	0	41	104	35651584	70	21714
2026-01-12 09:03:58.44	129.45	9.55	-48.8	-55.6	8.3	3.98e-02	0	41	0	38797312	69	7742
2026-01-12 09:04:01.43	129.26	9.79	-47.7	-52.9	11.1	2.56e-03	0	41	0	45088768	67	6355
2026-01-12 09:04:04.43	129.07	10.03	-47.7	-52.8	11.1	1.93e-03	0	41	0	50331648	67	6336
2026-01-12 09:04:07.41	128.88	10.28	-46.5	-50.5	13.5	1.98e-05	0	41	0	55574528	65	5417
2026-01-12 09:04:10.40	128.68	10.53	-46.2	-49.9	14.2	3.00e-06	0	41	0	61865984	64	5348
2026-01-12 09:04:13.38	128.48	10.78	-46.2	-50.0	14.1	1.50e-06	0	41	0	67108864	64	5409
2026-01-12 09:04:16.37	128.27	11.03	-46.5	-50.6	13.5	8.30e-06	0	41	0	72351744	64	5841
2026-01-12 09:04:19.68	128.04	11.31	-46.4	-50.3	13.8	2.20e-06	0	41	0	78643200	64	5653
2026-01-12 09:04:22.39	127.84	11.54	-46.1	-49.8	14.4	7.00e-07	0	41	0	83886080	64	5283
2026-01-12 09:04:25.65	127.61	11.82	-46.3	-49.9	14.3	1.50e-06	0	42	0	90177536	64	5386
2026-01-12 09:04:28.37	127.41	12.06	-46.5	-50.3	13.9	4.50e-06	0	41	0	95420416	64	5599
2026-01-12 09:04:31.65	127.16	12.35	-46.4	-50.1	14.1	0.00e+00	0	42	0	101711872	64	5473
2026-01-12 09:04:34.67	126.93	12.62	-46.0	-49.3	14.9	0.00e+00	0	41	0	106954752	63	5338
2026-01-12 09:04:37.94	126.67	12.91	-46.2	-49.7	14.6	0.00e+00	0	42	0	113246208	63	5548
2026-01-12 09:04:40.66	126.45	13.16	-46.4	-50.0	14.4	7.00e-07	0	42	0	118489088	63	5724
2026-01-12 09:04:44.04	126.18	13.47	-46.1	-49.4	14.9	0.00e+00	0	42	0	124780544	63	5391
2026-01-12 09:04:46.75	125.95	13.72	-46.1	-49.5	14.8	0.00e+00	0	42	0	130023424	63	5441
2026-01-12 09:04:50.17	125.66	14.04	-46.4	-50.0	14.4	0.00e+00	0	42	0	136314880	63	5774
2026-01-12 09:04:53.18	125.40	14.32	-46.3	-49.7	14.6	0.00e+00	0	42	0	141557760	63	5590
2026-01-12 09:04:56.46	125.11	14.63	-46.0	-49.3	15.1	0.00e+00	0	42	0	147849216	63	5318
2026-01-12 09:04:59.18	124.87	14.90	-46.2	-49.6	14.9	7.00e-07	0	42	0	153092096	63	5492
2026-01-12 09:05:02.46	124.57	15.21	-45.9	-49.2	15.2	0.00e+00	0	42	0	159383552	63	5242
2026-01-12 09:05:05.19	124.31	15.48	-45.8	-49.0	15.4	0.00e+00	0	42	0	164626432	63	5136
2026-01-12 09:05:08.47	124.00	15.81	-46.0	-49.4	15.1	0.00e+00	0	42	0	170917888	63	5341
2026-01-12 09:05:11.72	123.68	16.13	-45.9	-49.1	15.4	0.00e+00	0	42	0	176160768	63	5173
2026-01-12 09:05:14.70	123.38	16.43	-45.9	-49.2	15.3	0.00e+00	0	42	0	182452224	63	5236
2026-01-12 09:05:17.69	123.08	16.74	-45.9	-49.1	15.3	0.00e+00	0	42	0	187695104	63	5201
2026-01-12 09:05:20.61	122.77	17.04	-45.6	-48.7	15.8	0.00e+00	0	42	0	192937984	63	4944
2026-01-12 09:05:23.74	122.44	17.36	-45.9	-49.1	15.4	0.00e+00	0	42	0	199229440	63	5173
2026-01-12 09:05:26.59	122.13	17.66	-45.9	-49.1	15.4	0.00e+00	0	42	0	204472320	63	5168
2026-01-12 09:05:29.71	121.78	17.99	-45.9	-49.1	15.4	0.00e+00	0	42	0	210763776	63	5187
2026-01-12 09:05:32.56	121.46	18.30	-45.9	-49.0	15.5	0.00e+00	0	42	0	216006656	63	5153
2026-01-12 09:05:35.69	121.10	18.64	-45.9	-49.1	15.4	0.00e+00	0	42	0	221249536	63	5182
2026-01-12 09:05:38.60	120.75	18.96	-46.0	-49.2	15.3	0.00e+00	0	42	0	226492416	63	5260
2026-01-12 09:05:41.58	120.39	19.28	-45.8	-49.0	15.6	0.00e+00	0	42	0	232783872	63	5119
2026-01-12 09:05:44.56	120.03	19.62	-45.9	-49.1	15.5	0.00e+00	0	42	0	238026752	63	5185
2026-01-12 09:05:47.55	119.65	19.95	-45.9	-49.1	15.5	0.00e+00	0	42	0	243269632	63	5195
2026-01-12 09:05:50.53	119.26	20.29	-45.9	-49.1	15.5	0.00e+00	0	42	0	249561088	63	5201
2026-01-12 09:05:53.52	118.87	20.63	-46.1	-49.3	15.3	0.00e+00	0	42	0	254803968	63	5289
2026-01-12 09:05:56.50	118.46	20.98	-46.1	-49.4	15.2	0.00e+00	0	42	0	260046848	63	5341
2026-01-12 09:05:59.48	118.05	21.33	-46.2	-49.6	15.1	0.00e+00	0	42	0	266338304	63	5467
2026-01-12 09:06:02.53	117.62	21.68	-46.3	-49.6	15.0	0.00e+00	0	42	0	271581184	63	5526
2026-01-12 09:06:05.42	117.20	22.03	-46.2	-49.5	15.2	0.00e+00	0	42	0	276824064	63	5418
2026-01-12 09:06:08.70	116.71	22.42	-46.3	-49.8	14.9	0.00e+00	0	42	0	283115520	63	5600
2026-01-12 09:06:11.51	116.29	22.76	-46.2	-49.5	15.1	0.00e+00	0	42	0	288358400	63	5445
2026-01-12 09:06:14.64	115.80	23.14	-46.3	-49.6	15.0	0.00e+00	0	42	0	294649856	63	5514
2026-01-12 09:06:17.48	115.35	23.49	-46.1	-49.4	15.3	0.00e+00	0	42	0	299892736	63	5357
2026-01-12 09:06:20.89	114.79	23.92	-46.2	-49.6	15.1	0.00e+00	0	42	0	306184192	63	5466
2026-01-12 09:06:23.88	114.29	24.29	-46.2	-49.4	15.2	0.00e+00	0	42	0	311427072	63	5388
2026-01-12 09:06:26.86	113.78	24.67	-46.1	-49.3	15.2	0.00e+00	0	42	0	317718528	63	5335
2026-01-12 09:06:29.85	113.25	25.05	-46.0	-49.3	15.4	0.00e+00	0	42	0	322961408	63	5294
2026-01-12 09:06:32.88	112.70	25.44	-46.3	-49.7	15.0	0.00e+00	0	42	0	329252864	63	5557
2026-01-12 09:06:35.99	112.13	25.84	-46.4	-49.8	14.8	0.00e+00	0	42	0	334495744	63	5647
2026-01-12 09:06:38.83	111.59	26.21	-46.6	-50.2	14.5	0.00e+00	0	42	0	339738624	63	5878
2026-01-12 09:06:41.96	110.98	26.62	-46.6	-50.3	14.3	7.00e-07	0	42	0	346030080	64	5602
2026-01-12 09:06:44.80	110.42	26.99	-47.0	-50.8	13.8	3.80e-06	0	42	0	351272960	64	5979
2026-01-12 09:06:48.03	109.76	27.42	-47.1	-50.9	13.6	3.00e-06	0	42	0	357564416	64	6053
2026-01-12 09:06:50.94	109.15	27.80	-47.5	-51.8	12.8	5.03e-05	0	42	0	362807296	65	6290
2026-01-12 09:06:54.06	108.48	28.22	-47.5	-51.7	12.8	3.58e-05	0	42	0	368050176	65	6253
2026-01-12 09:06:56.91	107.85	28.60	-47.6	-52.0	12.6	9.23e-05	0	42	0	373293056	65	6492
2026-01-12 09:07:00.03	107.14	29.02	-47.6	-51.9	12.7	7.32e-05	0	42	0	379584512	65	6357
2026-01-12 09:07:02.88	106.48	29.41	-47.5	-51.8	12.8	6.17e-05	0	42	0	384827392	65	6286
2026-01-12 09:07:06.00	105.74	29.83	-47.6	-51.8	12.8	4.11e-05	0	42	0	391118848	65	6304
2026-01-12 09:07:08.84	105.05	30.22	-47.6	-51.8	12.8	6.86e-05	0	42	0	396361728	65	6330
2026-01-12 09:07:11.97	104.26	30.64	-47.9	-52.6	12.0	2.97e-04	0	42	0	401604608	66	6537
2026-01-12 09:07:14.81	103.54	31.03	-48.2	-53.1	11.4	8.38e-04	0	42	0	406847488	67	6530
2026-01-12 09:07:17.94	102.71	31.45	-48.0	-52.5	12.0	4.26e-04	0	42	0	413138944	67	6119
2026-01-12 09:07:20.78	101.95	31.83	-47.7	-52.2	12.4	1.35e-04	0	42	0	418381824	67	5862
2026-01-12 09:07:24.02	101.05	32.27	-47.3	-51.3	13.3	3.43e-05	0	42	0	424673280	66	5647
2026-01-12 09:07:26.86	100.25	32.65	-47.5	-51.6	13.1	2.82e-05	0	42	0	429916160	66	5791
2026-01-12 09:07:29.98	99.34	33.07	-47.4	-51.4	13.3	3.05e-05	0	42	0	436207616	66	5695
2026-01-12 09:07:32.83	98.49	33.45	-47.4	-51.6	13.1	2.51e-05	0	42	0	441450496	66	5804
2026-01-12 09:07:35.95	97.54	33.86	-47.6	-51.7	12.9	5.41e-05	0	42	0	446693376	66	5915
2026-01-12 09:07:38.87	96.62	34.24	-47.7	-51.9	12.9	3.12e-05	0	42	0	452984832	66	6037
2026-01-12 09:07:42.11	95.58	34.66	-47.9	-52.3	12.3	2.09e-04	0	42	0	458227712	66	6347
2026-01-12 09:07:44.95	94.65	35.03	-47.7	-52.0	12.6	1.07e-04	0	42	0	463470592	66	6124
2026-01-12 09:07:48.09	93.59	35.42	-48.3	-53.2	11.4	7.60e-04	0	42	0	469762048	67	6575
2026-01-12 09:07:51.05	92.57	35.79	-48.3	-53.3	11.3	1.18e-03	0	42	0	475004928	67	6655
2026-01-12 09:07:54.04	91.52	36.15	-47.8	-52.4	12.2	2.82e-04	0	42	0	481296384	67	6051
2026-01-12 09:07:57.02	90.45	36.51	-47.7	-51.9	12.7	6.40e-05	0	42	0	486539264	67	5711
2026-01-12 09:08:00.01	89.35	36.86	-47.4	-51.6	13.0	2.97e-05	0	42	0	491782144	66	5854
2026-01-12 09:08:02.99	88.23	37.20	-47.7	-52.4	12.3	7.47e-05	0	43	0	498073600	66	6353
2026-01-12 09:08:05.98	87.08	37.53	-47.5	-51.8	12.9	5.56e-05	0	42	0	503316480	66	5964
2026-01-12 09:08:08.96	85.92	37.85	-46.8	-50.6	14.1	1.50e-06	0	42	0	508559360	65	5472
2026-01-12 09:08:11.95	84.72	38.16	-46.6	-50.1	14.6	0.00e+00	0	42	0	514850816	65	5199
2026-01-12 09:08:14.93	83.51	38.45	-46.3	-49.9	14.8	0.00e+00	0	42	0	520093696	64	5397
2026-01-12 09:08:17.99	82.24	38.75	-46.3	-49.7	15.1	0.00e+00	0	42	0	526385152	64	5252
2026-01-12 09:08:20.83	81.05	39.01	-46.2	-49.6	15.1	7.00e-07	0	42	0	531628032	64	5200
2026-01-12 09:08:23.96	79.71	39.28	-45.8	-48.9	15.9	0.00e+00	0	43	0	536870912	63	5087
2026-01-12 09:08:26.80	78.47	39.51	-45.7	-48.7	16.0	0.00e+00	0	42	0	542113792	63	4933
2026-01-12 09:08:29.94	77.09	39.75	-45.7	-48.7	16.1	0.00e+00	0	42	0	548405248	63	4952
2026-01-12 09:08:32.78	75.82	39.95	-45.6	-48.6	16.2	0.00e+00	0	42	0	553648128	63	4892
2026-01-12 09:08:36.10	74.32	40.17	-45.5	-48.4	16.4	0.00e+00	0	43	0	559939584	63	4792
2026-01-12 09:08:38.83	73.07	40.33	-45.2	-48.0	16.8	0.00e+00	0	42	0	565182464	62	4831
2026-01-12 09:08:42.11	71.55	40.50	-45.4	-48.2	16.6	0.00e+00	0	43	0	571473920	62	4961
2026-01-12 09:08:44.84	70.27	40.63	-45.4	-48.3	16.5	0.00e+00	0	42	0	576716800	62	5032
2026-01-12 09:08:48.22	68.68	40.77	-45.5	-48.4	16.4	0.00e+00	0	43	0	583008256	62	5086
2026-01-12 09:08:50.99	67.37	40.86	-45.7	-48.6	16.2	0.00e+00	0	43	0	588251136	62	5213
2026-01-12 09:08:54.26	65.81	40.95	-45.4	-48.2	16.6	0.00e+00	0	42	0	593494016	62	4963
2026-01-12 09:08:56.97	64.51	41.01	-46.2	-49.4	15.4	0.00e+00	0	42	0	598736896	63	5375
2026-01-12 09:09:00.26	62.93	41.05	-46.6	-50.0	14.9	0.00e+00	0	42	0	605028352	63	5725
2026-01-12 09:09:03.00	61.61	41.07	-46.9	-50.4	14.4	0.00e+00	0	42	0	610271232	64	5694
2026-01-12 09:09:06.27	60.03	41.07	-46.9	-50.6	14.2	3.00e-06	0	42	0	616562688	64	5805
2026-01-12 09:09:09.55	58.45	41.05	-47.6	-51.8	13.0	4.42e-05	0	43	0	622854144	65	6309
2026-01-12 09:09:12.27	57.15	41.01	-47.2	-51.0	13.7	5.30e-06	0	43	0	628097024	65	5772
2026-01-12 09:09:15.55	55.58	40.94	-48.3	-53.0	11.7	1.56e-04	0	42	0	633339904	67	6487
2026-01-12 09:09:18.28	54.28	40.87	-48.4	-53.4	11.3	1.30e-03	0	43	0	638582784	67	6766
2026-01-12 09:09:21.55	52.73	40.75	-48.3	-53.2	11.5	6.72e-04	0	43	0	644874240	67	6600
2026-01-12 09:09:24.27	51.45	40.64	-48.5	-53.6	11.1	2.15e-03	0	42	0	650117120	67	6951
2026-01-12 09:09:27.76	49.82	40.48	-48.0	-52.6	12.2	2.84e-04	0	43	0	656408576	67	6148
2026-01-12 09:09:30.50	48.56	40.33	-47.9	-52.2	12.6	1.20e-04	0	43	0	661651456	67	5896
2026-01-12 09:09:33.78	47.06	40.13	-46.8	-50.3	14.4	0.00e+00	0	43	0	667942912	65	5336
2026-01-12 09:09:36.64	45.77	39.94	-46.3	-49.5	15.3	0.00e+00	0	43	0	673185792	64	5138
2026-01-12 09:09:40.34	44.12	39.68	-45.4	-48.2	16.6	0.00e+00	0	43	0	680525824	62	4949
2026-01-12 09:09:43.17	42.88	39.46	-45.3	-48.1	16.7	0.00e+00	0	42	0	685768704	62	4883
2026-01-12 09:09:46.72	41.35	39.16	-44.9	-47.6	17.2	0.00e+00	0	42	0	692060160	61	4900
2026-01-12 09:09:49.44	40.19	38.92	-44.6	-47.2	17.6	0.00e+00	0	42	0	697303040	61	4686
2026-01-12 09:09:52.71	38.83	38.62	-44.8	-47.5	17.3	0.00e+00	0	42	0	703594496	61	4840
2026-01-12 09:09:55.55	37.67	38.34	-44.6	-47.2	17.5	0.00e+00	0	42	0	708837376	61	4679
2026-01-12 09:09:58.68	36.41	38.03	-44.6	-47.3	17.5	0.00e+00	0	43	0	715128832	61	4712
2026-01-12 09:10:01.52	35.29	37.73	-44.8	-47.5	17.3	0.00e+00	0	43	0	720371712	61	4838
2026-01-12 09:10:04.65	34.07	37.39	-45.3	-48.2	16.6	0.00e+00	0	42	0	725614592	61	5219
2026-01-12 09:10:07.63	32.94	37.06	-45.1	-47.9	16.9	0.00e+00	0	42	0	731906048	61	5045
2026-01-12 09:10:11.00	31.70	36.67	-45.2	-48.0	16.8	0.00e+00	0	42	0	738197504	61	5106
2026-01-12 09:10:14.15	30.55	36.30	-45.3	-48.2	16.5	0.00e+00	0	42	0	743440384	61	5248
2026-01-12 09:10:17.46	29.38	35.90	-45.6	-48.5	16.3	0.00e+00	0	42	0	749731840	61	5440
2026-01-12 09:10:20.20	28.44	35.56	-45.6	-48.6	16.2	0.00e+00	0	43	0	754974720	61	5506
2026-01-12 09:10:23.52	27.32	35.15	-45.8	-48.9	15.9	0.00e+00	0	42	0	761266176	62	5386
2026-01-12 09:10:26.22	26.43	34.80	-46.3	-49.7	15.1	0.00e+00	0	42	0	766509056	63	5565
2026-01-12 09:10:29.51	25.37	34.38	-46.6	-50.2	14.6	0.00e+00	0	42	0	772800512	64	5545
2026-01-12 09:10:32.22	24.52	34.03	-46.4	-50.0	14.7	0.00e+00	0	42	0	778043392	64	5421
2026-01-12 09:10:35.52	23.50	33.60	-46.8	-50.9	13.9	3.00e-06	0	42	0	783286272	64	6032
2026-01-12 09:10:38.37	22.65	33.22	-47.1	-51.2	13.6	1.29e-05	0	42	0	789577728	64	6205
2026-01-12 09:10:41.49	21.74	32.81	-47.5	-51.8	12.9	3.28e-05	0	42	0	794820608	65	6343
2026-01-12 09:10:44.34	20.93	32.43	-47.4	-51.6	13.1	4.80e-05	0	42	0	800063488	65	6169
2026-01-12 09:10:47.47	20.06	32.01	-47.7	-51.9	12.7	5.34e-05	0	43	0	806354944	65	6407
2026-01-12 09:10:50.36	19.28	31.62	-47.7	-52.1	12.6	1.11e-04	0	42	0	811597824	66	6178
2026-01-12 09:10:53.49	18.45	31.20	-47.6	-51.9	12.9	6.25e-05	0	43	0	817889280	66	6026
2026-01-12 09:10:56.43	17.69	30.80	-47.6	-51.7	13.0	5.18e-05	0	42	0	823132160	66	5902
2026-01-12 09:10:59.41	16.94	30.40	-47.4	-51.6	13.2	2.44e-05	0	43	0	828375040	66	5791
2026-01-12 09:11:02.40	16.21	29.99	-47.1	-51.2	13.6	1.37e-05	0	42	0	833617920	66	5556
2026-01-12 09:11:05.38	15.50	29.59	-47.0	-50.9	13.8	4.50e-06	0	42	0	839909376	65	5662
2026-01-12 09:11:08.35	14.81	29.19	-46.8	-50.6	14.1	2.20e-06	0	43	0	845152256	65	5491
2026-01-12 09:11:11.40	14.12	28.78	-46.5	-50.2	14.5	0.00e+00	0	43	0	851443712	65	5222
2026-01-12 09:11:14.53	13.43	28.36	-46.5	-50.1	14.7	0.00e+00	0	43	0	856686592	64	5471
2026-01-12 09:11:17.37	12.81	27.99	-46.7	-50.3	14.4	7.00e-07	0	43	0	861929472	64	5612
2026-01-12 09:11:20.50	12.16	27.57	-46.5	-50.0	14.7	0.00e+00	0	43	0	868220928	64	5441
2026-01-12 09:11:23.34	11.57	27.20	-46.3	-49.7	15.0	0.00e+00	0	43	0	873463808	64	5255
2026-01-12 09:11:26.47	10.95	26.79	-46.4	-50.0	14.7	0.00e+00	0	43	0	879755264	64	5420
2026-01-12 09:11:29.40	10.38	26.40	-46.6	-50.2	14.5	2.20e-06	0	43	0	884998144	64	5562
2026-01-12 09:11:32.53	9.78	26.00	-46.5	-49.9	14.7	7.00e-07	0	42	0	890241024	64	5397
2026-01-12 09:11:35.38	9.26	25.63	-46.4	-49.8	14.9	0.00e+00	0	43	0	895483904	64	5291
2026-01-12 09:11:38.50	8.69	25.23	-46.5	-50.1	14.6	0.00e+00	0	42	0	901775360	64	5477
2026-01-12 09:11:41.34	8.19	24.87	-46.8	-50.4	14.3	7.00e-07	0	43	0	907018240	64	5697
2026-01-12 09:11:44.47	7.65	24.48	-46.9	-50.6	14.1	7.00e-07	0	43	0	913309696	64	5821
2026-01-12 09:11:47.31	7.17	24.12	-46.8	-50.4	14.3	7.00e-07	0	43	0	918552576	64	5696
2026-01-12 09:11:50.44	6.66	23.74	-46.6	-50.2	14.4	7.00e-07	0	42	0	923795456	64	5585
2026-01-12 09:11:53.29	6.20	23.38	-46.5	-50.1	14.6	7.00e-07	0	42	0	929038336	64	5498
2026-01-12 09:11:56.41	5.72	23.00	-46.4	-49.9	14.7	1.50e-06	0	42	0	935329792	64	5376
2026-01-12 09:11:59.26	5.28	22.66	-46.4	-50.0	14.7	7.00e-07	0	43	0	940572672	64	5422
2026-01-12 09:12:02.78	4.76	22.24	-46.6	-50.7	14.0	0.00e+00	0	42	0	946864128	64	5900
2026-01-12 09:12:05.50	4.36	21.91	-46.6	-50.8	13.9	4.50e-06	0	43	0	952107008	64	5940
2026-01-12 09:12:08.77	3.90	21.53	-46.6	-50.5	14.1	2.20e-06	0	43	0	958398464	64	5784
2026-01-12 09:12:11.50	3.52	21.21	-46.6	-50.4	14.2	7.00e-07	0	43	0	963641344	64	5673
2026-01-12 09:12:14.80	3.07	20.83	-46.3	-50.1	14.5	7.00e-07	0	42	0	969932800	64	5486
2026-01-12 09:12:17.67	2.69	20.50	-46.4	-50.1	14.5	7.00e-07	0	43	0	975175680	64	5519
2026-01-12 09:12:21.08	2.25	20.12	-46.6	-50.4	14.2	2.20e-06	0	43	0	981467136	64	5678
2026-01-12 09:12:23.83	1.90	19.81	-46.6	-50.3	14.3	2.20e-06	0	42	0	986710016	64	5643
2026-01-12 09:12:27.12	1.50	19.44	-46.6	-50.4	14.2	1.50e-06	0	43	0	993001472	64	5664
2026-01-12 09:12:30.04	1.14	19.12	-46.4	-50.1	14.5	1.50e-06	0	43	0	998244352	64	5495
2026-01-12 09:12:33.03	0.79	18.79	-46.5	-50.1	14.4	0.00e+00	0	43	0	1004535808	64	5513
2026-01-12 09:12:36.02	0.45	18.47	-46.3	-50.0	14.6	0.00e+00	0	43	0	1009778688	64	5411
2026-01-12 09:12:39.02	0.11	18.15	-46.2	-50.2	14.4	0.00e+00	0	42	0	1015021568	64	5532
2026-01-12 09:12:42.00	359.78	17.84	-46.5	-50.6	14.0	7.00e-07	0	43	0	1021313024	64	5790
2026-01-12 09:12:44.99	359.45	17.52	-46.8	-50.8	13.8	4.50e-06	0	43	0	1026555904	64	5953
2026-01-12 09:12:47.97	359.14	17.21	-46.8	-50.7	13.9	1.50e-06	0	42	0	1031798784	64	5866
2026-01-12 09:12:50.96	358.83	16.91	-46.7	-50.6	14.0	2.20e-06	0	42	0	1038090240	64	5828
2026-01-12 09:12:54.00	358.52	16.60	-46.6	-50.4	14.1	3.80e-06	0	43	0	1043333120	64	5714
2026-01-12 09:12:57.00	358.22	16.29	-46.7	-50.4	14.1	2.20e-06	0	43	0	1048576000	64	5699
2026-01-12 09:12:59.98	357.93	16.00	-46.6	-50.6	14.0	3.00e-06	0	42	0	1054867456	64	5790
2026-01-12 09:13:02.97	357.65	15.70	-46.5	-50.7	13.9	4.50e-06	0	43	0	1060110336	64	5885
2026-01-12 09:13:05.95	357.37	15.41	-46.6	-50.9	13.6	6.80e-06	0	43	0	1065353216	64	6020
2026-01-12 09:13:08.94	357.09	15.12	-46.7	-50.8	13.7	3.80e-06	0	43	0	1071644672	64	5957
2026-01-12 09:13:11.97	356.82	14.83	-46.8	-50.9	13.6	6.10e-06	0	43	0	1076887552	64	6018
2026-01-12 09:13:14.95	356.56	14.54	-46.9	-51.0	13.5	8.30e-06	0	43	0	1082130432	64	6124
2026-01-12 09:13:17.94	356.30	14.26	-46.9	-50.9	13.6	9.90e-06	0	43	0	1088421888	64	6030
2026-01-12 09:13:20.92	356.05	13.98	-46.8	-50.9	13.5	1.06e-05	0	43	0	1093664768	64	6044
2026-01-12 09:13:23.90	355.80	13.71	-46.7	-51.1	13.3	1.60e-05	0	43	0	1098907648	64	6185
2026-01-12 09:13:26.95	355.56	13.43	-46.4	-51.2	13.2	1.29e-05	0	43	0	1105199104	64	6258
2026-01-12 09:13:29.84	355.33	13.17	-46.4	-51.1	13.3	2.21e-05	0	43	0	1110441984	64	6195
2026-01-12 09:13:32.96	355.08	12.89	-46.1	-51.0	13.4	8.30e-06	0	43	0	1116733440	64	6073
2026-01-12 09:13:35.80	354.86	12.63	-45.8	-51.0	13.5	1.29e-05	0	43	0	1121976320	63	6438
2026-01-12 09:13:38.94	354.63	12.35	-45.2	-51.2	13.3	1.37e-05	0	43	0	1127219200	62	7009
2026-01-12 09:13:41.87	354.41	12.10	-44.6	-51.2	13.3	2.36e-05	0	43	0	1133510656	61	7399
2026-01-12 09:13:44.99	354.18	11.83	-44.9	-51.6	12.8	4.04e-05	0	43	0	1138753536	61	7792
2026-01-12 09:13:47.83	353.98	11.58	-45.9	-51.7	12.8	6.48e-05	0	42	0	1143996416	62	7378
2026-01-12 09:13:50.96	353.76	11.32	-46.4	-51.9	12.5	1.10e-04	0	43	0	1150287872	63	7189
2026-01-12 09:13:53.80	353.57	11.08	-46.4	-52.0	12.4	1.43e-04	0	43	0	1155530752	63	7233
2026-01-12 09:13:56.93	353.36	10.82	-46.3	-51.9	12.5	1.39e-04	0	43	0	1161822208	63	7178
2026-01-12 09:14:00.26	353.14	10.54	-46.4	-51.9	12.5	7.32e-05	0	43	0	1167065088	63	7133
2026-01-12 09:14:02.99	352.96	10.31	-46.7	-52.0	12.3	9.23e-05	0	42	0	1172307968	64	6846
2026-01-12 09:14:06.26	352.75	10.05	-46.7	-51.8	12.5	1.20e-04	0	43	0	1178599424	64	6665
2026-01-12 09:14:08.96	352.58	9.83	-46.4	-52.0	12.3	1.72e-04	0	43	0	1183842304	64	6822
2026-01-12 09:14:12.24	352.38	9.57	-46.0	-52.1	12.3	1.59e-04	0	43	0	1190133760	63	7299
2026-01-12 09:14:15.00	352.21	9.35	-46.2	-52.5	11.8	3.35e-04	0	43	0	1195376640	63	7681
2026-01-12 09:14:18.28	352.02	9.09	-46.8	-52.4	11.8	4.23e-04	0	43	0	1201668096	64	7162
2026-01-12 09:14:21.01	351.86	8.88	-48.4	-65.6	3.8	1.49e+00	0	43	104	1204813824	67	27487
2026-01-12 09:14:24.27	351.67	8.62	-50.3	-66.1	3.8	1.49e+00	0	43	104	1204813824	72	21761
2026-01-12 09:14:26.98	351.52	8.42	-50.9	-66.1	3.8	1.49e+00	0	43	104	1204813824	72	21980
2026-01-12 09:14:30.25	351.34	8.17	-51.0	-66.2	3.8	1.49e+00	0	43	104	1204813824	72	22231
2026-01-12 09:14:33.03	351.18	7.96	-51.1	-66.2	3.8	1.49e+00	0	43	104	1204813824	72	22259
2026-01-12 09:14:36.35	351.01	7.71	-51.0	-66.2	3.8	1.49e+00	0	43	104	1204813824	72	22239
2026-01-12 09:14:39.19	350.86	7.50	-50.9	-66.3	3.8	1.49e+00	0	43	104	1204813824	72	22288
2026-01-12 09:14:42.39	350.69	7.26	-51.1	-66.2	3.8	1.49e+00	0	43	104	1204813824	72	22224
2026-01-12 09:14:45.23	350.54	7.05	-51.1	-66.2	3.8	1.49e+00	0	43	104	1204813824	72	22218
2026-01-12 09:14:48.35	350.39	6.82	-51.0	-66.2	3.8	1.49e+00	0	43	104	1204813824	72	22183
2026-01-12 09:14:51.24	350.24	6.61	-50.9	-66.2	3.8	1.49e+00	0	43	104	1204813824	72	22185
2026-01-12 09:14:54.36	350.09	6.39	-50.9	-66.2	3.8	1.49e+00	0	43	104	1204813824	72	22117
2026-01-12 09:14:57.20	349.96	6.19	-50.9	-66.2	3.8	1.49e+00	0	43	104	1204813824	72	22164
2026-01-12 09:15:00.32	349.81	5.97	-50.9	-66.3	3.8	1.49e+00	0	43	104	1204813824	72	22266
2026-01-12 09:15:03.16	349.68	5.77	-50.9	-66.2	3.8	1.49e+00	0	43	104	1204813824	72	22114
2026-01-12 09:15:06.33	349.53	5.55	-50.9	-66.2	3.8	1.49e+00	0	43	104	1204813824	72	22136
2026-01-12 09:15:09.17	349.40	5.35	-50.9	-66.2	3.8	1.49e+00	0	43	104	1204813824	72	22065
2026-01-12 09:15:12.29	349.27	5.14	-50.9	-66.2	3.8	1.49e+00	0	43	104	1204813824	72	22104

#Closed at: 2026-01-12 09:15:15
#Recorded file [1204 MB]: D:/Data/31040_260112_120258.dat