passes_logs/2026/01/12/T1/T1__20260112_031632_FENGYUN_3E_rec.log

#Pass ID: 20260112_031632_FENGYUN 3E
#Satellite: FENGYUN 3E
#Configuration: FENGYUN 3E
#almurnet v.1.7.20251203
#Start time: 2026-01-12 03:16:33

#Version: 2.0.20230620
#Station: T1
#Location: 37.570604 lon 55.790049 lat
#TLE: 1 49008U 21062A   26011.27090272  .00000463  00000+0  23869-3 0  9994
#TLE: 2 49008  98.7490  16.4432 0001856 145.0812 215.0487 14.19886022234312

#Time	Az	El	Level	Level2	SNR	BER	BlckErr	Temp	State	Recorded	gain1	gain2
2026-01-12 03:16:33.71	21.47	5.07	-50.5	-61.3	3.8	8.47e-01	0	36	0	0	70	13165
2026-01-12 03:16:36.69	21.59	5.27	-50.4	-61.2	3.8	8.47e-01	0	37	104	0	71	12270
2026-01-12 03:16:39.67	21.72	5.48	-50.4	-61.2	3.8	8.48e-01	0	37	104	0	71	12256
2026-01-12 03:16:42.65	21.85	5.69	-50.4	-61.1	3.8	8.47e-01	0	37	104	0	71	12192
2026-01-12 03:16:45.63	21.98	5.89	-50.4	-61.1	3.8	8.47e-01	0	37	104	0	71	12212
2026-01-12 03:16:48.61	22.11	6.11	-50.4	-61.1	3.8	8.47e-01	0	38	104	0	71	12102
2026-01-12 03:16:51.59	22.25	6.32	-50.4	-60.9	3.8	8.45e-01	0	38	104	0	71	11952
2026-01-12 03:16:54.57	22.38	6.53	-50.3	-61.0	3.8	8.47e-01	0	38	104	0	71	12059
2026-01-12 03:16:57.55	22.52	6.75	-50.4	-61.2	3.8	8.46e-01	0	38	104	0	71	12365
2026-01-12 03:17:00.53	22.66	6.97	-50.3	-60.8	3.8	8.47e-01	0	38	104	0	71	11687
2026-01-12 03:17:03.51	22.80	7.19	-50.2	-59.5	3.8	8.47e-01	0	38	104	0	71	10119
2026-01-12 03:17:06.49	22.95	7.41	-50.0	-58.7	4.0	8.44e-01	0	38	104	0	70	9765
2026-01-12 03:17:09.47	23.09	7.63	-50.0	-58.5	3.8	8.44e-01	0	38	104	0	70	9549
2026-01-12 03:17:12.45	23.24	7.85	-49.9	-57.9	4.2	8.40e-01	0	39	0	0	70	8963
2026-01-12 03:17:15.43	23.39	8.08	-49.8	-57.3	4.3	8.32e-01	0	39	0	0	70	8363
2026-01-12 03:17:18.41	23.54	8.31	-49.9	-57.6	4.2	8.35e-01	0	39	0	0	70	8581
2026-01-12 03:17:21.39	23.70	8.54	-49.9	-57.7	4.2	8.41e-01	0	39	0	0	70	8712
2026-01-12 03:17:24.35	23.85	8.77	-49.6	-56.6	4.6	8.18e-01	0	39	0	0	70	7653
2026-01-12 03:17:27.33	24.01	9.01	-49.5	-56.1	4.8	7.94e-01	0	39	0	0	69	7637
2026-01-12 03:17:30.31	24.17	9.24	-49.6	-56.9	4.4	8.30e-01	0	39	0	0	69	8458
2026-01-12 03:17:33.31	24.34	9.48	-44.4	-46.2	13.9	3.40e-06	0	39	0	5242880	59	4355
2026-01-12 03:17:36.36	24.51	9.73	-42.2	-43.5	16.4	0.00e+00	0	39	0	27262976	54	4281
2026-01-12 03:17:39.29	24.67	9.97	-41.9	-43.2	16.7	0.00e+00	0	39	0	48234496	54	4106
2026-01-12 03:17:42.58	24.86	10.24	-41.5	-42.8	17.0	0.00e+00	0	39	0	72351744	53	4171
2026-01-12 03:17:45.30	25.02	10.46	-41.5	-42.8	17.1	0.00e+00	0	39	0	92274688	53	4155
2026-01-12 03:17:48.57	25.22	10.74	-41.3	-42.6	17.3	0.00e+00	0	39	0	115343360	53	4086
2026-01-12 03:17:51.44	25.39	10.98	-41.3	-42.6	17.3	0.00e+00	0	39	0	136314880	53	4077
2026-01-12 03:17:54.55	25.58	11.25	-41.2	-42.4	17.5	0.00e+00	0	39	0	158334976	52	4232
2026-01-12 03:17:57.80	25.78	11.53	-41.1	-42.3	17.6	0.00e+00	0	39	0	182452224	52	4157
2026-01-12 03:18:00.79	25.97	11.79	-41.0	-42.2	17.7	0.00e+00	0	39	0	203423744	52	4134
2026-01-12 03:18:03.77	26.17	12.05	-40.8	-42.0	18.0	0.00e+00	0	39	0	225443840	52	4016
2026-01-12 03:18:06.82	26.37	12.32	-40.8	-41.9	18.0	0.00e+00	0	39	0	247463936	52	4003
2026-01-12 03:18:09.72	26.56	12.58	-40.7	-41.8	18.2	0.00e+00	0	40	0	268435456	51	4170
2026-01-12 03:18:13.24	26.80	12.90	-40.5	-41.6	18.4	0.00e+00	0	39	0	293601280	51	4075
2026-01-12 03:18:15.94	26.99	13.15	-40.6	-41.7	18.3	0.00e+00	0	40	0	312475648	51	4124
2026-01-12 03:18:19.21	27.22	13.46	-40.6	-41.8	18.3	0.00e+00	0	40	0	336592896	51	4147
2026-01-12 03:18:22.00	27.42	13.72	-40.3	-41.5	18.7	0.00e+00	0	40	0	356515840	51	4006
2026-01-12 03:18:25.34	27.66	14.03	-40.3	-41.5	18.6	0.00e+00	0	40	0	380633088	51	4025
2026-01-12 03:18:28.28	27.88	14.32	-40.3	-41.5	18.6	0.00e+00	0	40	0	401604608	51	4032
2026-01-12 03:18:31.55	28.13	14.63	-40.4	-41.6	18.5	0.00e+00	0	39	0	425721856	50	4315
2026-01-12 03:18:34.26	28.34	14.90	-40.3	-41.5	18.7	0.00e+00	0	39	0	445644800	50	4260
2026-01-12 03:18:37.55	28.60	15.22	-40.6	-41.7	18.4	0.00e+00	0	40	0	468713472	50	4381
2026-01-12 03:18:40.26	28.82	15.49	-40.4	-41.5	18.6	0.00e+00	0	40	0	488636416	50	4283
2026-01-12 03:18:43.70	29.10	15.84	-40.2	-41.3	18.9	0.00e+00	0	40	0	513802240	50	4155
2026-01-12 03:18:46.41	29.32	16.12	-40.1	-41.1	19.0	0.00e+00	0	40	0	532676608	50	4094
2026-01-12 03:18:49.67	29.60	16.46	-39.9	-40.9	19.2	0.00e+00	0	40	0	556793856	50	3987
2026-01-12 03:18:52.50	29.85	16.75	-39.8	-40.8	19.4	0.00e+00	0	40	0	576716800	50	3933
2026-01-12 03:18:55.83	30.14	17.11	-39.4	-40.4	19.6	0.00e+00	0	40	0	600834048	49	3996
2026-01-12 03:18:58.72	30.40	17.41	-39.5	-40.5	19.6	0.00e+00	0	40	0	621805568	49	4033
2026-01-12 03:19:01.99	30.71	17.77	-39.3	-40.3	19.8	0.00e+00	0	40	0	644874240	49	3930
2026-01-12 03:19:04.72	30.97	18.07	-39.2	-40.1	19.9	0.00e+00	0	40	0	664797184	49	3868
2026-01-12 03:19:07.99	31.28	18.43	-39.1	-40.0	20.0	0.00e+00	0	40	0	688914432	48	4035
2026-01-12 03:19:10.72	31.55	18.74	-39.1	-40.0	20.0	0.00e+00	0	40	0	708837376	48	4048
2026-01-12 03:19:14.12	31.89	19.12	-39.0	-39.9	20.1	0.00e+00	0	40	0	732954624	48	4000
2026-01-12 03:19:17.20	32.21	19.48	-39.2	-40.1	19.8	0.00e+00	0	40	0	754974720	48	4091
2026-01-12 03:19:20.67	32.58	19.88	-39.1	-40.1	19.9	0.00e+00	0	40	0	780140544	48	4070
2026-01-12 03:19:23.37	32.87	20.20	-39.0	-40.0	20.0	0.00e+00	0	40	0	800063488	48	4031
2026-01-12 03:19:26.66	33.23	20.59	-38.8	-39.8	20.3	0.00e+00	0	40	0	823132160	48	3932
2026-01-12 03:19:29.45	33.54	20.93	-38.9	-39.8	20.2	0.00e+00	0	40	0	844103680	48	3955
2026-01-12 03:19:32.55	33.90	21.31	-38.7	-39.7	20.1	0.00e+00	0	40	0	866123776	47	4111
2026-01-12 03:19:35.84	34.29	21.72	-38.6	-39.6	20.2	0.00e+00	0	40	0	889192448	47	4080
2026-01-12 03:19:38.82	34.65	22.09	-38.7	-39.7	20.2	0.00e+00	0	40	0	911212544	47	4105
2026-01-12 03:19:41.81	35.02	22.47	-38.7	-39.7	20.1	0.00e+00	0	40	0	933232640	47	4121
2026-01-12 03:19:44.79	35.40	22.85	-38.7	-39.7	20.2	0.00e+00	0	40	0	954204160	47	4101
2026-01-12 03:19:47.87	35.80	23.25	-38.8	-39.7	20.1	0.00e+00	0	40	0	976224256	47	4135
2026-01-12 03:19:50.82	36.20	23.64	-38.6	-39.6	20.2	0.00e+00	0	40	0	998244352	47	4062
2026-01-12 03:19:53.99	36.63	24.06	-38.7	-39.6	20.1	0.00e+00	0	40	0	1020264448	47	4086
2026-01-12 03:19:56.83	37.03	24.44	-38.5	-39.5	20.3	0.00e+00	0	40	0	1041235968	47	4018
2026-01-12 03:19:59.95	37.48	24.87	-38.6	-39.6	20.2	0.00e+00	0	40	0	1064304640	47	4073
2026-01-12 03:20:02.80	37.90	25.26	-38.6	-39.6	20.2	0.00e+00	0	40	0	1084227584	47	4067
2026-01-12 03:20:05.93	38.37	25.70	-38.4	-39.4	20.4	0.00e+00	0	40	0	1107296256	47	3968
2026-01-12 03:20:08.79	38.82	26.10	-38.3	-39.2	20.6	0.00e+00	0	40	0	1127219200	47	3889
2026-01-12 03:20:12.09	39.34	26.57	-38.3	-39.3	20.5	0.00e+00	0	40	0	1151336448	47	3915
2026-01-12 03:20:14.80	39.78	26.96	-38.4	-39.3	20.6	0.00e+00	0	40	0	1171259392	46	4171
2026-01-12 03:20:18.09	40.34	27.44	-38.4	-39.4	20.5	0.00e+00	0	40	0	1194328064	46	4196
2026-01-12 03:20:20.82	40.81	27.84	-38.0	-38.9	20.9	0.00e+00	0	40	0	1214251008	46	3990
2026-01-12 03:20:24.14	41.40	28.34	-38.0	-38.9	20.9	0.00e+00	0	40	0	1238368256	46	3989
2026-01-12 03:20:26.96	41.91	28.76	-38.0	-38.9	20.9	0.00e+00	0	40	0	1258291200	46	3995
2026-01-12 03:20:30.26	42.53	29.26	-37.8	-38.7	21.1	0.00e+00	0	40	0	1282408448	46	3880
2026-01-12 03:20:32.98	43.06	29.68	-37.9	-38.8	21.0	0.00e+00	0	40	0	1302331392	46	3949
2026-01-12 03:20:36.24	43.70	30.19	-38.1	-39.0	20.8	0.00e+00	0	40	0	1325400064	46	4049
2026-01-12 03:20:39.09	44.29	30.63	-38.3	-39.3	20.6	0.00e+00	0	40	0	1346371584	46	4159
2026-01-12 03:20:42.21	44.94	31.12	-38.4	-39.3	20.6	0.00e+00	0	40	0	1368391680	46	4179
2026-01-12 03:20:45.39	45.63	31.63	-38.2	-39.1	20.8	0.00e+00	0	40	0	1391460352	46	4078
2026-01-12 03:20:48.23	46.27	32.09	-38.3	-39.2	20.7	0.00e+00	0	40	0	1412431872	46	4118
2026-01-12 03:20:51.36	46.98	32.59	-38.0	-38.9	20.9	0.00e+00	0	40	0	1434451968	46	3991
2026-01-12 03:20:54.20	47.66	33.06	-37.7	-38.5	21.2	0.00e+00	0	40	0	1455423488	46	3824
2026-01-12 03:20:57.33	48.42	33.57	-37.5	-38.4	21.4	0.00e+00	0	40	0	1477443584	45	3982
2026-01-12 03:21:00.17	49.13	34.04	-37.7	-38.6	21.2	0.00e+00	0	40	0	1498415104	45	4071
2026-01-12 03:21:03.29	49.94	34.55	-38.0	-38.9	20.9	0.00e+00	0	40	0	1520435200	45	4202
2026-01-12 03:21:06.14	50.70	35.03	-38.1	-39.0	20.8	0.00e+00	0	40	0	1541406720	45	4286
2026-01-12 03:21:09.28	51.56	35.55	-38.0	-38.9	20.9	0.00e+00	0	40	0	1564475392	45	4234
2026-01-12 03:21:12.13	52.37	36.03	-38.2	-39.1	20.7	0.00e+00	0	40	0	1584398336	46	4097
2026-01-12 03:21:15.46	53.34	36.59	-37.9	-38.8	21.1	0.00e+00	0	40	0	1608515584	46	3917
2026-01-12 03:21:18.16	54.15	37.04	-37.9	-38.7	21.1	0.00e+00	0	40	0	1628438528	46	3911
2026-01-12 03:21:21.43	55.17	37.59	-38.0	-39.0	20.9	0.00e+00	0	40	0	1651507200	46	4006
2026-01-12 03:21:24.15	56.04	38.05	-38.1	-39.0	20.8	0.00e+00	0	40	0	1671430144	46	4050
2026-01-12 03:21:27.44	57.12	38.59	-38.1	-39.0	20.9	0.00e+00	0	40	0	1695547392	46	4025
2026-01-12 03:21:30.24	58.08	39.06	-38.2	-39.1	20.8	0.00e+00	0	40	0	1715470336	46	4078
2026-01-12 03:21:33.63	59.27	39.62	-38.3	-39.2	20.7	0.00e+00	0	40	0	1739587584	46	4128
2026-01-12 03:21:36.67	60.37	40.12	-38.3	-39.2	20.7	0.00e+00	0	40	0	1761607680	46	4133
2026-01-12 03:21:39.97	61.60	40.65	-37.9	-38.8	21.1	0.00e+00	0	40	0	1785724928	46	3920
2026-01-12 03:21:42.83	62.71	41.11	-38.0	-38.9	21.0	0.00e+00	0	40	0	1806696448	46	3990
2026-01-12 03:21:45.96	63.95	41.60	-38.2	-39.2	20.8	0.00e+00	0	40	0	1828716544	46	4101
2026-01-12 03:21:48.80	65.11	42.04	-37.9	-38.8	21.0	0.00e+00	0	40	0	1849688064	46	3952
2026-01-12 03:21:51.96	66.44	42.52	-37.9	-38.8	21.1	0.00e+00	0	41	0	1872756736	46	3946
2026-01-12 03:21:54.80	67.66	42.95	-38.5	-39.4	20.5	0.00e+00	0	40	0	1892679680	46	4223
2026-01-12 03:21:58.07	69.12	43.42	-38.4	-39.3	20.6	0.00e+00	0	40	0	1916796928	46	4178
2026-01-12 03:22:00.77	70.35	43.80	-38.4	-39.3	20.6	0.00e+00	0	40	0	1935671296	46	4177
2026-01-12 03:22:04.01	71.87	44.24	-38.3	-39.2	20.7	0.00e+00	0	40	0	1959788544	46	4118
2026-01-12 03:22:06.86	73.23	44.61	-38.5	-39.5	20.5	0.00e+00	0	41	0	1979711488	46	4244
2026-01-12 03:22:09.98	74.77	45.01	-38.5	-39.5	20.5	0.00e+00	0	41	0	2002780160	46	4257
2026-01-12 03:22:12.82	76.20	45.35	-38.4	-39.3	20.6	0.00e+00	0	40	0	2022703104	46	4192
2026-01-12 03:22:15.94	77.80	45.70	-38.9	-39.9	20.1	0.00e+00	0	40	0	2045771776	47	4209
2026-01-12 03:22:18.79	79.30	46.01	-39.5	-40.5	19.9	0.00e+00	0	41	0	2065694720	48	4250
2026-01-12 03:22:21.92	80.97	46.32	-39.2	-40.2	20.1	0.00e+00	0	40	0	2088763392	48	4109
2026-01-12 03:22:24.76	82.52	46.58	-39.1	-40.1	20.2	0.00e+00	0	41	0	2108686336	48	4072
2026-01-12 03:22:27.99	84.31	46.86	-38.8	-39.7	20.3	0.00e+00	0	40	0	2131755008	47	4140
2026-01-12 03:22:30.83	85.91	47.07	-38.9	-39.9	20.1	0.00e+00	0	40	0	2152726528	47	4195
2026-01-12 03:22:33.96	87.70	47.28	-39.0	-39.9	20.0	0.00e+00	0	40	0	2175795200	47	4242
2026-01-12 03:22:36.80	89.34	47.45	-38.8	-39.7	20.2	0.00e+00	0	40	0	2195718144	47	4143
2026-01-12 03:22:39.93	91.17	47.60	-38.7	-39.7	20.3	0.00e+00	0	41	0	2218786816	47	4109
2026-01-12 03:22:42.77	92.85	47.72	-39.5	-40.5	19.8	0.00e+00	0	40	0	2238709760	48	4260
2026-01-12 03:22:45.99	94.76	47.82	-39.2	-40.2	20.1	0.00e+00	0	41	0	2261778432	49	3889
2026-01-12 03:22:48.83	96.45	47.87	-38.8	-39.8	20.5	0.00e+00	0	40	0	2282749952	48	3922
2026-01-12 03:22:51.96	98.32	47.91	-38.8	-39.7	20.5	0.00e+00	0	41	0	2305818624	48	3907
2026-01-12 03:22:54.80	100.02	47.91	-39.0	-39.9	20.4	0.00e+00	0	41	0	2325741568	48	3990
2026-01-12 03:22:57.92	101.89	47.88	-39.3	-40.3	20.1	0.00e+00	0	40	0	2348810240	48	4149
2026-01-12 03:23:01.21	103.85	47.81	-39.4	-40.4	19.9	0.00e+00	0	40	0	2371878912	48	4215
2026-01-12 03:23:04.05	105.54	47.73	-39.1	-40.1	20.2	0.00e+00	0	41	0	2392850432	48	4063
2026-01-12 03:23:07.29	107.45	47.60	-38.9	-39.8	20.4	0.00e+00	0	41	0	2415919104	48	3949
2026-01-12 03:23:10.21	109.16	47.46	-38.9	-39.8	20.5	0.00e+00	0	41	0	2436890624	48	3936
2026-01-12 03:23:13.46	111.04	47.26	-39.2	-40.1	20.2	0.00e+00	0	40	0	2461007872	48	4086
2026-01-12 03:23:16.37	112.70	47.07	-39.4	-40.3	20.0	0.00e+00	0	41	0	2481979392	48	4183
2026-01-12 03:23:19.62	114.53	46.82	-38.7	-39.6	20.7	0.00e+00	0	41	0	2505048064	48	3838
2026-01-12 03:23:22.52	116.14	46.57	-38.7	-39.6	20.6	0.00e+00	0	41	0	2526019584	48	3848
2026-01-12 03:23:25.65	117.85	46.28	-38.4	-39.3	20.6	0.00e+00	0	41	0	2549088256	47	3935
2026-01-12 03:23:28.49	119.37	45.99	-38.6	-39.5	20.4	0.00e+00	0	41	0	2569011200	47	4038
2026-01-12 03:23:31.62	121.01	45.65	-38.7	-39.7	20.2	0.00e+00	0	41	0	2592079872	47	4115
2026-01-12 03:23:34.46	122.47	45.32	-38.9	-39.9	20.1	0.00e+00	0	41	0	2612002816	47	4198
2026-01-12 03:23:37.59	124.05	44.95	-38.9	-39.9	20.1	0.00e+00	0	41	0	2635071488	47	4200
2026-01-12 03:23:40.43	125.44	44.59	-38.5	-39.4	20.5	0.00e+00	0	41	0	2654994432	47	3994
2026-01-12 03:23:43.56	126.95	44.17	-38.7	-39.7	20.3	0.00e+00	0	41	0	2678063104	47	4101
2026-01-12 03:23:46.40	128.28	43.78	-38.7	-39.6	20.3	0.00e+00	0	41	0	2697986048	47	4095
2026-01-12 03:23:49.52	129.70	43.34	-38.3	-39.2	20.7	0.00e+00	0	40	0	2721054720	47	3911
2026-01-12 03:23:52.36	130.96	42.93	-38.3	-39.2	20.6	0.00e+00	0	41	0	2740977664	46	4132
2026-01-12 03:23:55.58	132.36	42.44	-38.7	-39.7	20.3	0.00e+00	0	41	0	2765094912	46	4345
2026-01-12 03:23:58.43	133.56	42.01	-38.7	-39.6	20.3	0.00e+00	0	40	0	2785017856	47	4089
2026-01-12 03:24:01.55	134.83	41.52	-38.5	-39.4	20.5	0.00e+00	0	41	0	2808086528	47	3992
2026-01-12 03:24:04.40	135.96	41.07	-38.5	-39.4	20.5	0.00e+00	0	41	0	2828009472	47	3979
2026-01-12 03:24:07.52	137.17	40.57	-38.2	-39.1	20.8	0.00e+00	0	41	0	2851078144	46	4060
2026-01-12 03:24:10.37	138.23	40.10	-38.5	-39.5	20.5	0.00e+00	0	41	0	2871001088	46	4250
2026-01-12 03:24:13.49	139.37	39.59	-38.6	-39.6	20.3	0.00e+00	0	41	0	2894069760	47	4073
2026-01-12 03:24:16.34	140.37	39.11	-38.4	-39.3	20.6	0.00e+00	0	41	0	2913992704	47	3946
2026-01-12 03:24:19.45	141.44	38.60	-38.3	-39.2	20.7	0.00e+00	0	41	0	2937061376	46	4105
2026-01-12 03:24:22.29	142.38	38.12	-38.5	-39.5	20.5	0.00e+00	0	41	0	2956984320	46	4248
2026-01-12 03:24:25.42	143.39	37.59	-38.2	-39.1	20.8	0.00e+00	0	41	0	2980052992	46	4066
2026-01-12 03:24:28.26	144.28	37.11	-37.9	-38.9	21.0	0.00e+00	0	41	0	3001024512	46	3961
2026-01-12 03:24:31.39	145.23	36.58	-38.0	-38.9	20.9	0.00e+00	0	41	0	3023044608	46	3988
2026-01-12 03:24:34.23	146.07	36.10	-38.1	-39.1	20.8	0.00e+00	0	41	0	3044016128	46	4056
2026-01-12 03:24:37.53	147.01	35.55	-38.5	-39.4	20.5	0.00e+00	0	41	0	3067084800	46	4228
2026-01-12 03:24:40.40	147.80	35.07	-38.5	-39.4	20.5	0.00e+00	0	41	0	3088056320	46	4224
2026-01-12 03:24:43.69	148.68	34.51	-37.9	-38.8	21.0	0.00e+00	0	41	0	3112173568	46	3955
2026-01-12 03:24:46.44	149.40	34.06	-37.5	-38.4	21.3	0.00e+00	0	41	0	3132096512	45	3989
2026-01-12 03:24:49.71	150.22	33.51	-37.8	-38.7	21.1	0.00e+00	0	41	0	3155165184	45	4100
2026-01-12 03:24:52.43	150.89	33.06	-38.2	-39.2	20.7	0.00e+00	0	41	0	3175088128	45	4345
2026-01-12 03:24:55.70	151.67	32.53	-38.3	-39.2	20.7	0.00e+00	0	41	0	3199205376	46	4142
2026-01-12 03:24:58.70	152.36	32.04	-38.5	-39.4	20.5	0.00e+00	0	41	0	3220176896	46	4223
2026-01-12 03:25:01.97	153.09	31.51	-38.3	-39.2	20.7	0.00e+00	0	41	0	3244294144	46	4116
2026-01-12 03:25:04.70	153.68	31.07	-38.1	-39.0	20.9	0.00e+00	0	41	0	3264217088	46	4025
2026-01-12 03:25:07.97	154.37	30.55	-38.2	-39.1	20.8	0.00e+00	0	41	0	3287285760	46	4084
2026-01-12 03:25:10.86	154.96	30.10	-38.6	-39.6	20.3	0.00e+00	0	41	0	3308257280	46	4311
2026-01-12 03:25:14.28	155.64	29.56	-38.8	-39.8	19.7	0.00e+00	0	41	0	3332374528	47	4166
2026-01-12 03:25:16.98	156.16	29.15	-38.7	-39.6	20.2	0.00e+00	0	41	0	3352297472	47	4095
2026-01-12 03:25:20.27	156.78	28.64	-38.4	-39.4	20.5	0.00e+00	0	41	0	3376414720	47	3981
2026-01-12 03:25:22.98	157.27	28.23	-38.2	-39.1	20.7	0.00e+00	0	41	0	3395289088	47	3857
2026-01-12 03:25:26.28	157.86	27.74	-38.2	-39.1	20.7	0.00e+00	0	41	0	3419406336	46	4097
2026-01-12 03:25:28.99	158.33	27.34	-38.4	-39.3	20.5	0.00e+00	0	41	0	3439329280	46	4174
2026-01-12 03:25:32.28	158.88	26.85	-38.6	-39.6	20.3	0.00e+00	0	41	0	3462397952	46	4297
2026-01-12 03:25:35.02	159.33	26.46	-38.7	-39.7	20.2	0.00e+00	0	41	0	3482320896	46	4363
2026-01-12 03:25:38.29	159.85	25.99	-38.7	-39.7	20.2	0.00e+00	0	41	0	3506438144	47	4110
2026-01-12 03:25:41.12	160.29	25.59	-38.6	-39.6	20.3	0.00e+00	0	41	0	3526361088	47	4059
2026-01-12 03:25:44.24	160.76	25.15	-38.4	-39.3	20.4	0.00e+00	0	41	0	3548381184	47	3937
2026-01-12 03:25:47.08	161.18	24.75	-38.4	-39.4	20.5	0.00e+00	0	41	0	3569352704	47	3964
2026-01-12 03:25:50.21	161.63	24.33	-38.5	-39.4	20.4	0.00e+00	0	41	0	3592421376	47	3990
2026-01-12 03:25:53.05	162.03	23.94	-38.5	-39.4	20.4	0.00e+00	0	41	0	3612344320	47	3985
2026-01-12 03:25:56.36	162.48	23.50	-38.5	-39.5	20.4	0.00e+00	0	41	0	3636461568	47	4011
2026-01-12 03:25:59.31	162.87	23.11	-38.6	-39.6	20.2	0.00e+00	0	41	0	3657433088	47	4074
2026-01-12 03:26:02.73	163.32	22.66	-38.8	-39.8	20.0	0.00e+00	0	41	0	3682598912	47	4189
2026-01-12 03:26:05.45	163.66	22.31	-38.9	-39.9	20.0	0.00e+00	0	41	0	3702521856	47	4212
2026-01-12 03:26:08.71	164.06	21.89	-38.8	-39.8	20.0	0.00e+00	0	41	0	3725590528	47	4175
2026-01-12 03:26:11.46	164.39	21.55	-38.9	-39.9	19.9	0.00e+00	0	41	0	3745513472	47	4214
2026-01-12 03:26:14.76	164.78	21.14	-39.0	-40.0	19.9	0.00e+00	0	41	0	3769630720	47	4252
2026-01-12 03:26:17.57	165.11	20.79	-39.1	-40.1	19.7	0.00e+00	0	41	0	3789553664	47	4316
2026-01-12 03:26:21.49	165.55	20.32	-39.3	-40.3	19.8	0.00e+00	0	41	0	3817865216	48	4187
2026-01-12 03:26:24.34	165.86	19.98	-39.3	-40.3	19.8	0.00e+00	0	41	0	3838836736	48	4182
2026-01-12 03:26:28.32	166.28	19.51	-39.4	-40.4	19.7	0.00e+00	0	41	0	3867148288	48	4213
2026-01-12 03:26:31.14	166.57	19.18	-39.4	-40.4	19.7	0.00e+00	0	41	0	3887071232	48	4237
2026-01-12 03:26:35.12	166.98	18.72	-39.4	-40.5	19.6	0.00e+00	0	41	0	3916431360	48	4243
2026-01-12 03:26:38.20	167.28	18.37	-39.5	-40.6	19.5	0.00e+00	0	41	0	3938451456	48	4299
2026-01-12 03:26:42.18	167.67	17.93	-39.4	-40.5	19.6	0.00e+00	0	41	0	3966763008	48	4249
2026-01-12 03:26:44.99	167.93	17.62	-39.6	-40.6	19.4	0.00e+00	0	41	0	3987734528	48	4327
2026-01-12 03:26:48.78	168.28	17.20	-39.6	-40.7	19.4	0.00e+00	0	41	0	4014997504	48	4344
2026-01-12 03:26:51.62	168.53	16.90	-39.7	-40.8	19.3	0.00e+00	0	41	0	4034920448	48	4395
2026-01-12 03:26:54.99	168.83	16.54	-39.8	-40.8	19.3	0.00e+00	0	41	0	4060086272	49	4164
2026-01-12 03:26:57.83	169.07	16.24	-39.9	-41.0	19.1	0.00e+00	0	41	0	4080009216	49	4251
2026-01-12 03:27:00.96	169.34	15.92	-40.0	-41.1	19.0	0.00e+00	0	41	0	4103077888	49	4313
2026-01-12 03:27:03.80	169.57	15.62	-40.1	-41.2	18.9	0.00e+00	0	41	0	4123000832	49	4344
2026-01-12 03:27:06.99	169.83	15.30	-40.1	-41.2	18.8	0.00e+00	0	41	0	4146069504	49	4381
2026-01-12 03:27:09.83	170.06	15.01	-40.1	-41.2	18.9	0.00e+00	0	41	0	4167041024	49	4366
2026-01-12 03:27:12.96	170.30	14.70	-40.3	-41.4	18.7	0.00e+00	0	41	0	4189061120	50	4201
2026-01-12 03:27:15.80	170.52	14.42	-40.2	-41.3	18.8	0.00e+00	0	41	0	4210032640	50	4167
2026-01-12 03:27:18.93	170.76	14.12	-40.3	-41.5	18.6	0.00e+00	0	41	0	4232052736	50	4259
2026-01-12 03:27:21.76	170.96	13.85	-40.5	-41.7	18.4	0.00e+00	0	41	0	4253024256	50	4388
2026-01-12 03:27:24.89	171.19	13.55	-40.6	-41.8	18.3	0.00e+00	0	41	0	4275044352	50	4419
2026-01-12 03:27:28.20	171.43	13.24	-40.8	-42.0	18.1	0.00e+00	0	41	0	4299161600	50	4517
2026-01-12 03:27:31.04	171.62	12.97	-40.9	-42.1	18.0	0.00e+00	0	41	0	4320133120	51	4301
2026-01-12 03:27:34.17	171.84	12.68	-40.9	-42.1	18.0	0.00e+00	0	41	0	4342153216	51	4329
2026-01-12 03:27:37.01	172.03	12.42	-41.0	-42.2	17.9	0.00e+00	0	41	0	4363124736	51	4370
2026-01-12 03:27:40.12	172.24	12.14	-41.0	-42.3	17.8	0.00e+00	0	41	0	4385144832	51	4402
2026-01-12 03:27:43.10	172.43	11.88	-41.0	-42.4	17.7	0.00e+00	0	41	0	4407164928	51	4456
2026-01-12 03:27:46.08	172.62	11.61	-41.0	-42.4	17.6	0.00e+00	0	41	0	4428136448	51	4490
2026-01-12 03:27:49.07	172.81	11.35	-41.0	-42.5	17.6	0.00e+00	0	41	0	4450156544	51	4524
2026-01-12 03:27:52.07	172.99	11.09	-41.1	-42.5	17.4	0.00e+00	0	41	0	4472176640	52	4287
2026-01-12 03:27:55.04	173.17	10.83	-41.1	-42.5	17.5	0.00e+00	0	41	0	4493148160	52	4273
2026-01-12 03:27:58.16	173.36	10.57	-41.1	-42.6	17.4	0.00e+00	0	41	0	4516216832	52	4298
2026-01-12 03:28:01.23	173.54	10.31	-41.2	-42.6	17.3	0.00e+00	0	41	0	4538236928	52	4339
2026-01-12 03:28:04.28	173.72	10.05	-41.3	-42.7	17.3	0.00e+00	0	41	0	4560257024	52	4352
2026-01-12 03:28:07.55	173.90	9.78	-41.4	-42.9	17.1	0.00e+00	0	41	0	4583325696	52	4448
2026-01-12 03:28:10.28	174.05	9.56	-41.5	-43.0	17.0	0.00e+00	0	41	0	4603248640	52	4503
2026-01-12 03:28:13.55	174.23	9.29	-41.5	-43.2	16.8	0.00e+00	0	41	0	4627365888	52	4608
2026-01-12 03:28:16.25	174.38	9.07	-41.5	-43.2	16.7	0.00e+00	0	41	0	4646240256	52	4620
2026-01-12 03:28:19.53	174.55	8.81	-50.1	-61.4	3.8	8.47e-01	0	41	104	4657774592	69	14146
2026-01-12 03:28:22.22	174.70	8.60	-50.7	-61.8	3.8	8.48e-01	0	41	104	4657774592	71	13146
2026-01-12 03:28:25.51	174.87	8.34	-51.1	-61.9	3.8	8.46e-01	0	41	104	4657774592	71	13330
2026-01-12 03:28:28.27	175.01	8.13	-51.2	-61.9	3.8	8.47e-01	0	41	104	4657774592	71	13351
2026-01-12 03:28:31.66	175.18	7.86	-51.2	-62.0	3.8	8.47e-01	0	41	104	4657774592	72	12715
2026-01-12 03:28:34.42	175.31	7.65	-51.2	-61.9	3.8	8.47e-01	0	41	104	4657774592	72	12659
2026-01-12 03:28:37.80	175.48	7.40	-51.2	-62.0	3.8	8.46e-01	0	41	104	4657774592	72	12694
2026-01-12 03:28:40.50	175.61	7.19	-51.3	-62.0	3.8	8.45e-01	0	41	104	4657774592	72	12734
2026-01-12 03:28:43.77	175.76	6.95	-51.1	-61.9	3.8	8.46e-01	0	41	104	4657774592	72	12650
2026-01-12 03:28:46.47	175.89	6.75	-51.0	-61.9	3.8	8.46e-01	0	41	104	4657774592	72	12533
2026-01-12 03:28:49.76	176.04	6.51	-51.0	-61.9	3.8	8.48e-01	0	41	104	4657774592	72	12532
2026-01-12 03:28:52.46	176.16	6.31	-51.0	-61.9	3.8	8.47e-01	0	41	104	4657774592	72	12572
2026-01-12 03:28:55.75	176.31	6.07	-51.0	-61.9	3.8	8.47e-01	0	41	104	4657774592	72	12642
2026-01-12 03:28:58.47	176.42	5.88	-50.9	-61.9	3.8	8.46e-01	0	41	104	4657774592	72	12566
2026-01-12 03:29:01.73	176.57	5.65	-51.0	-61.9	3.8	8.47e-01	0	41	104	4657774592	72	12567
2026-01-12 03:29:04.43	176.68	5.46	-50.9	-61.9	3.8	8.47e-01	0	42	104	4657774592	72	12522
2026-01-12 03:29:07.69	176.82	5.23	-50.9	-61.8	3.8	8.46e-01	0	42	104	4657774592	72	12491
2026-01-12 03:29:10.39	176.93	5.04	-50.9	-61.9	3.8	8.46e-01	0	41	104	4657774592	72	12553

#Closed at: 2026-01-12 03:29:12
#Recorded file [4657 MB]: D:/Data/31040_260112_061633.dat