passes_logs/2026/01/12/T1/T1__20260112_220313_NOAA_21_JPSS-2_rec.log

#Pass ID: 20260112_220313_NOAA 21 (JPSS-2)
#Satellite: NOAA 21 (JPSS-2)
#Configuration: NOAA 21
#almurnet v.1.7.20251203
#Start time: 2026-01-12 22:03:14

#Version: 2.0.20230620
#Station: T1
#Location: 37.570604 lon 55.790049 lat
#TLE: 1 54234U 22150A   26012.26378519  .00000063  00000+0  50547-4 0  9993
#TLE: 2 54234  98.7495 313.1967 0000726 309.1075  51.0036 14.19534275164425

#Time	Az	El	Level	Level2	SNR	BER	BlckErr	Temp	State	Recorded	gain1	gain2
2026-01-12 22:03:14.26	31.20	5.05	-50.3	-64.7	3.8	1.49e+00	0	40	0	0	72	18608
2026-01-12 22:03:17.24	31.48	5.22	-50.3	-64.6	3.8	1.49e+00	0	40	104	0	71	19411
2026-01-12 22:03:20.22	31.76	5.39	-50.3	-64.7	3.8	1.49e+00	0	41	104	0	71	19740
2026-01-12 22:03:23.20	32.05	5.56	-50.3	-64.7	3.8	1.49e+00	0	41	104	0	71	19632
2026-01-12 22:03:26.18	32.34	5.72	-50.3	-64.7	3.8	1.49e+00	0	41	104	0	71	19769
2026-01-12 22:03:29.16	32.63	5.89	-50.3	-64.7	3.8	1.49e+00	0	41	104	0	71	19676
2026-01-12 22:03:32.14	32.93	6.06	-50.3	-64.5	3.8	1.49e+00	0	41	104	0	71	19358
2026-01-12 22:03:35.12	33.23	6.23	-50.3	-64.6	3.8	1.49e+00	0	41	104	0	71	19394
2026-01-12 22:03:38.09	33.53	6.40	-50.3	-64.5	3.8	1.49e+00	0	41	104	0	71	19382
2026-01-12 22:03:41.07	33.83	6.57	-50.3	-64.6	3.8	1.49e+00	0	41	104	0	71	19547
2026-01-12 22:03:44.05	34.14	6.74	-50.3	-64.5	3.8	1.49e+00	0	41	104	0	71	19200
2026-01-12 22:03:47.03	34.46	6.91	-50.3	-64.5	3.8	1.49e+00	0	42	104	0	71	19280
2026-01-12 22:03:50.01	34.77	7.08	-50.3	-64.5	3.8	1.49e+00	0	42	104	0	71	19293
2026-01-12 22:03:52.99	35.09	7.26	-50.3	-64.6	3.8	1.49e+00	0	42	104	0	71	19554
2026-01-12 22:03:55.97	35.42	7.43	-50.3	-64.5	3.8	1.49e+00	0	42	104	0	71	19178
2026-01-12 22:03:58.95	35.75	7.60	-50.3	-64.4	3.8	1.49e+00	0	42	104	0	71	19100
2026-01-12 22:04:01.93	36.08	7.78	-50.3	-64.5	3.8	1.49e+00	0	42	104	0	71	19303
2026-01-12 22:04:04.91	36.41	7.95	-50.3	-64.5	3.8	1.49e+00	0	42	104	0	71	19187
2026-01-12 22:04:07.89	36.75	8.12	-50.2	-64.4	3.8	1.49e+00	0	42	104	0	71	19122
2026-01-12 22:04:10.87	37.10	8.30	-50.3	-64.6	3.8	1.49e+00	0	42	104	0	71	19416
2026-01-12 22:04:13.85	37.44	8.47	-50.3	-64.5	3.8	1.49e+00	0	42	104	0	71	19305
2026-01-12 22:04:16.83	37.79	8.65	-50.3	-64.5	3.8	1.49e+00	0	42	104	0	71	19232
2026-01-12 22:04:19.81	38.15	8.82	-50.2	-64.5	3.8	1.49e+00	0	42	104	0	71	19187
2026-01-12 22:04:22.78	38.51	9.00	-50.2	-64.1	3.8	1.49e+00	0	42	104	0	71	18404
2026-01-12 22:04:25.77	38.87	9.18	-50.4	-63.0	3.8	1.49e+00	0	42	104	0	72	15266
2026-01-12 22:04:28.75	39.24	9.35	-48.4	-52.2	11.6	6.42e-04	0	42	0	0	68	5551
2026-01-12 22:04:31.86	39.63	9.54	-47.3	-50.5	13.1	3.05e-05	0	43	0	0	66	5129
2026-01-12 22:04:34.71	39.99	9.71	-46.9	-49.8	13.7	1.50e-06	0	42	0	0	65	5024
2026-01-12 22:04:37.84	40.39	9.89	-46.2	-49.0	14.6	0.00e+00	0	43	0	0	64	4834
2026-01-12 22:04:40.68	40.76	10.06	-46.1	-48.7	14.9	7.00e-07	0	42	0	0	64	4683
2026-01-12 22:04:43.89	41.18	10.25	-46.4	-49.2	14.4	0.00e+00	0	42	0	0	64	4960
2026-01-12 22:04:46.73	41.55	10.42	-46.2	-48.8	14.9	0.00e+00	0	43	0	0	63	5020
2026-01-12 22:04:49.85	41.97	10.61	-46.0	-48.6	15.2	0.00e+00	0	43	0	0	63	4883
2026-01-12 22:04:52.69	42.36	10.78	-46.0	-48.5	15.2	0.00e+00	0	43	0	0	63	4862
2026-01-12 22:04:55.90	42.80	10.97	-46.2	-48.7	15.1	0.00e+00	0	42	0	0	63	4963
2026-01-12 22:04:58.74	43.19	11.14	-46.3	-48.9	15.0	7.00e-07	0	43	0	0	63	5044
2026-01-12 22:05:01.96	43.65	11.33	-46.2	-48.6	15.2	0.00e+00	0	42	0	0	63	4916
2026-01-12 22:05:04.81	44.05	11.50	-46.0	-48.4	15.4	0.00e+00	0	42	0	0	63	4786
2026-01-12 22:05:07.94	44.50	11.69	-45.9	-48.3	15.5	0.00e+00	0	43	0	0	63	4747
2026-01-12 22:05:10.78	44.91	11.86	-45.9	-48.3	15.6	0.00e+00	0	43	0	0	63	4727
2026-01-12 22:05:13.91	45.38	12.04	-45.9	-48.3	15.6	0.00e+00	0	43	0	0	63	4706
2026-01-12 22:05:16.75	45.80	12.21	-45.8	-48.2	15.7	0.00e+00	0	43	0	0	63	4664
2026-01-12 22:05:20.08	46.30	12.41	-45.7	-48.0	15.9	0.00e+00	0	43	0	0	63	4566
2026-01-12 22:05:22.78	46.71	12.57	-45.9	-48.2	15.6	0.00e+00	0	43	0	0	63	4696
2026-01-12 22:05:26.00	47.21	12.76	-45.8	-48.2	15.6	0.00e+00	0	43	0	0	63	4684
2026-01-12 22:05:28.84	47.66	12.93	-45.8	-48.2	15.7	0.00e+00	0	43	0	0	63	4668
2026-01-12 22:05:31.96	48.15	13.11	-45.8	-48.1	15.8	0.00e+00	0	43	0	0	63	4614
2026-01-12 22:05:34.88	48.62	13.28	-45.7	-48.0	15.9	0.00e+00	0	43	0	0	63	4564
2026-01-12 22:05:38.10	49.14	13.47	-45.7	-48.0	15.9	0.00e+00	0	43	0	0	63	4598
2026-01-12 22:05:40.94	49.60	13.63	-45.6	-47.9	16.0	0.00e+00	0	43	0	0	63	4522
2026-01-12 22:05:44.07	50.12	13.82	-45.5	-47.8	16.1	0.00e+00	0	43	0	0	62	4725
2026-01-12 22:05:47.11	50.63	13.99	-45.5	-47.8	16.1	0.00e+00	0	43	0	0	62	4732
2026-01-12 22:05:50.35	51.18	14.18	-45.7	-48.0	16.0	0.00e+00	0	43	0	0	62	4825
2026-01-12 22:05:53.27	51.68	14.34	-45.7	-47.9	16.0	0.00e+00	0	43	0	0	62	4799
2026-01-12 22:05:56.25	52.20	14.51	-45.7	-48.1	15.9	0.00e+00	0	43	0	0	62	4885
2026-01-12 22:05:59.24	52.72	14.68	-45.7	-48.0	16.0	0.00e+00	0	43	0	0	62	4821
2026-01-12 22:06:02.24	53.26	14.85	-45.6	-47.8	16.1	0.00e+00	0	43	0	0	62	4740
2026-01-12 22:06:05.21	53.79	15.02	-45.5	-47.7	16.2	0.00e+00	0	43	0	0	62	4684
2026-01-12 22:06:08.44	54.37	15.20	-45.6	-47.9	16.0	0.00e+00	0	43	0	0	62	4795
2026-01-12 22:06:11.34	54.91	15.36	-45.8	-48.1	15.8	0.00e+00	0	43	0	0	62	4918
2026-01-12 22:06:14.82	55.55	15.55	-45.6	-47.9	16.1	0.00e+00	0	43	0	0	62	4803
2026-01-12 22:06:17.55	56.06	15.69	-45.4	-47.6	16.4	0.00e+00	0	43	0	0	62	4634
2026-01-12 22:06:20.82	56.68	15.87	-45.3	-47.5	16.4	0.00e+00	0	43	0	0	62	4584
2026-01-12 22:06:23.61	57.22	16.02	-45.3	-47.5	16.4	0.00e+00	0	43	0	0	62	4586
2026-01-12 22:06:27.39	57.95	16.21	-45.5	-47.7	16.3	0.00e+00	0	43	0	0	62	4686
2026-01-12 22:06:30.26	58.51	16.36	-45.3	-47.5	16.5	0.00e+00	0	43	0	0	62	4587
2026-01-12 22:06:33.55	59.16	16.53	-45.2	-47.4	16.6	0.00e+00	0	43	0	0	62	4522
2026-01-12 22:06:36.26	59.71	16.67	-45.2	-47.3	16.6	0.00e+00	0	43	0	0	62	4464
2026-01-12 22:06:39.56	60.37	16.83	-45.0	-47.2	16.8	0.00e+00	0	43	0	0	62	4394
2026-01-12 22:06:42.28	60.93	16.96	-45.2	-47.3	16.7	0.00e+00	0	43	0	0	62	4479
2026-01-12 22:06:45.75	61.64	17.13	-45.1	-47.2	16.7	0.00e+00	0	43	0	0	62	4416
2026-01-12 22:06:48.45	62.20	17.26	-45.0	-47.1	16.9	0.00e+00	0	43	0	0	61	4611
2026-01-12 22:06:51.73	62.89	17.41	-45.0	-47.1	16.9	0.00e+00	0	43	0	0	61	4620
2026-01-12 22:06:54.46	63.47	17.54	-44.9	-47.0	16.9	0.00e+00	0	43	0	0	61	4597
2026-01-12 22:06:57.73	64.17	17.68	-44.8	-46.8	17.1	0.00e+00	0	43	0	0	61	4477
2026-01-12 22:07:00.43	64.75	17.80	-44.6	-46.6	17.3	0.00e+00	0	43	0	0	61	4375
2026-01-12 22:07:03.70	65.46	17.94	-44.8	-46.8	17.0	0.00e+00	0	43	0	0	61	4486
2026-01-12 22:07:06.43	66.06	18.06	-44.7	-46.8	17.2	0.00e+00	0	43	0	0	61	4445
2026-01-12 22:07:09.70	66.78	18.19	-44.6	-46.6	17.3	0.00e+00	0	43	0	0	61	4372
2026-01-12 22:07:12.79	67.47	18.31	-44.5	-46.5	17.4	0.00e+00	0	43	0	0	61	4335
2026-01-12 22:07:15.81	68.15	18.43	-44.6	-46.6	17.3	0.00e+00	0	43	0	0	61	4379
2026-01-12 22:07:18.79	68.82	18.54	-44.5	-46.5	17.5	0.00e+00	0	43	0	0	60	4565
2026-01-12 22:07:21.77	69.50	18.65	-44.6	-46.7	17.3	0.00e+00	0	43	0	0	60	4659
2026-01-12 22:07:24.76	70.18	18.76	-44.4	-46.4	17.6	0.00e+00	0	43	0	0	60	4519
2026-01-12 22:07:27.94	70.92	18.86	-44.4	-46.4	17.6	0.00e+00	0	43	0	0	60	4499
2026-01-12 22:07:30.81	71.59	18.96	-44.6	-46.6	17.4	0.00e+00	0	43	0	0	60	4609
2026-01-12 22:07:33.94	72.32	19.06	-44.5	-46.4	17.5	0.00e+00	0	43	0	0	60	4539
2026-01-12 22:07:36.78	72.99	19.14	-44.4	-46.4	17.6	0.00e+00	0	43	0	0	60	4522
2026-01-12 22:07:39.91	73.73	19.24	-44.4	-46.4	17.6	0.00e+00	0	43	0	0	60	4506
2026-01-12 22:07:42.83	74.42	19.32	-44.4	-46.4	17.6	0.00e+00	0	43	0	0	60	4530
2026-01-12 22:07:45.95	75.17	19.40	-44.5	-46.5	17.5	0.00e+00	0	43	0	0	60	4556
2026-01-12 22:07:48.80	75.85	19.47	-44.6	-46.6	17.4	0.00e+00	0	43	0	0	60	4611
2026-01-12 22:07:51.92	76.61	19.54	-44.7	-46.8	17.2	0.00e+00	0	43	0	0	60	4714
2026-01-12 22:07:54.76	77.30	19.61	-44.6	-46.7	17.3	0.00e+00	0	43	0	0	60	4671
2026-01-12 22:07:57.94	78.07	19.67	-44.8	-46.8	17.1	0.00e+00	0	43	0	0	60	4758
2026-01-12 22:08:00.83	78.78	19.73	-44.6	-46.7	17.3	0.00e+00	0	43	0	0	60	4673
2026-01-12 22:08:04.14	79.59	19.78	-44.7	-46.7	17.3	0.00e+00	0	43	0	0	60	4685
2026-01-12 22:08:07.41	80.40	19.84	-44.7	-46.7	17.3	0.00e+00	0	43	0	0	60	4695
2026-01-12 22:08:10.40	81.14	19.88	-44.7	-46.8	17.2	0.00e+00	0	43	0	0	60	4711
2026-01-12 22:08:13.39	81.88	19.92	-44.8	-46.9	17.1	0.00e+00	0	43	0	0	60	4788
2026-01-12 22:08:16.37	82.62	19.95	-44.7	-46.9	17.2	0.00e+00	0	43	0	0	60	4762
2026-01-12 22:08:19.32	83.35	19.98	-44.7	-46.8	17.2	0.00e+00	0	43	0	0	60	4745
2026-01-12 22:08:22.45	84.13	20.00	-44.7	-46.8	17.2	0.00e+00	0	43	0	0	60	4725
2026-01-12 22:08:25.29	84.84	20.02	-44.6	-46.7	17.3	0.00e+00	0	43	0	0	60	4653
2026-01-12 22:08:28.42	85.63	20.04	-44.5	-46.6	17.4	0.00e+00	0	43	0	0	60	4616
2026-01-12 22:08:31.26	86.34	20.04	-44.5	-46.6	17.3	0.00e+00	0	43	0	0	60	4637
2026-01-12 22:08:34.39	87.12	20.05	-44.6	-46.8	17.2	0.00e+00	0	43	0	0	60	4709
2026-01-12 22:08:37.23	87.83	20.05	-44.6	-46.7	17.3	0.00e+00	0	43	0	0	60	4671
2026-01-12 22:08:40.36	88.61	20.04	-44.7	-46.7	17.2	0.00e+00	0	43	0	0	60	4693
2026-01-12 22:08:43.20	89.33	20.03	-44.7	-46.7	17.3	0.00e+00	0	43	0	0	60	4700
2026-01-12 22:08:46.33	90.11	20.02	-44.6	-46.6	17.4	0.00e+00	0	43	0	0	60	4630
2026-01-12 22:08:49.17	90.82	20.00	-44.6	-46.7	17.3	0.00e+00	0	43	0	0	60	4666
2026-01-12 22:08:52.52	91.65	19.97	-44.6	-46.7	17.3	0.00e+00	0	43	0	0	60	4669
2026-01-12 22:08:55.24	92.33	19.95	-44.6	-46.6	17.4	0.00e+00	0	43	0	0	60	4615
2026-01-12 22:08:58.83	93.22	19.90	-44.6	-46.6	17.4	0.00e+00	0	43	0	0	60	4638
2026-01-12 22:09:01.83	93.97	19.87	-44.4	-46.4	17.5	0.00e+00	0	43	0	0	60	4536
2026-01-12 22:09:05.81	94.95	19.81	-44.4	-46.4	17.6	0.00e+00	0	43	0	0	60	4500
2026-01-12 22:09:08.76	95.68	19.76	-44.3	-46.3	17.6	0.00e+00	0	43	0	0	60	4472
2026-01-12 22:09:12.17	96.52	19.69	-44.4	-46.3	17.6	0.00e+00	0	43	0	0	60	4486
2026-01-12 22:09:15.23	97.27	19.63	-44.3	-46.3	17.7	0.00e+00	0	43	0	0	60	4458
2026-01-12 22:09:18.07	97.96	19.57	-44.4	-46.4	17.6	0.00e+00	0	43	0	0	60	4510
2026-01-12 22:09:21.20	98.72	19.50	-44.2	-46.2	17.7	0.00e+00	0	43	0	0	60	4432
2026-01-12 22:09:24.05	99.40	19.43	-44.4	-46.4	17.5	0.00e+00	0	43	0	0	60	4523
2026-01-12 22:09:27.17	100.16	19.35	-44.6	-46.6	17.4	0.00e+00	0	43	0	0	60	4648
2026-01-12 22:09:30.13	100.86	19.27	-44.6	-46.6	17.3	0.00e+00	0	43	0	0	60	4649
2026-01-12 22:09:33.11	101.57	19.18	-44.5	-46.5	17.5	0.00e+00	0	43	0	0	60	4561
2026-01-12 22:09:36.10	102.28	19.09	-44.4	-46.4	17.6	0.00e+00	0	43	0	0	60	4526
2026-01-12 22:09:39.08	102.98	19.00	-44.5	-46.5	17.5	0.00e+00	0	43	0	0	60	4546
2026-01-12 22:09:42.06	103.68	18.90	-44.6	-46.6	17.4	0.00e+00	0	43	0	0	60	4624
2026-01-12 22:09:45.05	104.37	18.80	-44.3	-46.3	17.7	0.00e+00	0	43	0	0	60	4443
2026-01-12 22:09:48.04	105.06	18.70	-44.4	-46.3	17.6	0.00e+00	0	43	0	0	60	4479
2026-01-12 22:09:51.02	105.75	18.59	-44.5	-46.5	17.5	0.00e+00	0	43	0	0	60	4573
2026-01-12 22:09:54.01	106.43	18.48	-44.4	-46.4	17.5	0.00e+00	0	43	0	0	60	4505
2026-01-12 22:09:56.99	107.10	18.36	-44.4	-46.4	17.6	0.00e+00	0	43	0	0	60	4508
2026-01-12 22:09:59.98	107.77	18.25	-44.5	-46.5	17.4	0.00e+00	0	43	0	0	60	4568
2026-01-12 22:10:02.96	108.44	18.12	-44.6	-46.6	17.3	0.00e+00	0	43	0	0	60	4620
2026-01-12 22:10:05.94	109.09	18.00	-44.8	-46.9	17.0	0.00e+00	0	43	0	0	60	4793
2026-01-12 22:10:08.93	109.75	17.87	-44.8	-46.9	17.0	0.00e+00	0	43	0	0	60	4763
2026-01-12 22:10:11.91	110.40	17.74	-44.7	-46.8	17.1	0.00e+00	0	43	0	0	60	4746
2026-01-12 22:10:14.90	111.04	17.61	-44.9	-47.0	17.0	0.00e+00	0	43	0	0	60	4839
2026-01-12 22:10:17.96	111.70	17.47	-44.9	-47.0	16.8	0.00e+00	0	43	0	0	60	4860
2026-01-12 22:10:20.80	112.30	17.34	-44.8	-46.9	16.9	0.00e+00	0	43	0	0	60	4808
2026-01-12 22:10:23.93	112.95	17.19	-44.8	-46.8	17.1	0.00e+00	0	43	0	0	60	4746
2026-01-12 22:10:26.78	113.55	17.05	-44.8	-46.8	17.1	0.00e+00	0	43	0	0	60	4745
2026-01-12 22:10:30.02	114.21	16.90	-45.0	-47.1	16.9	0.00e+00	0	43	0	0	60	4879
2026-01-12 22:10:32.86	114.79	16.75	-45.2	-47.3	16.6	0.00e+00	0	43	0	0	61	4749
2026-01-12 22:10:36.19	115.47	16.59	-45.1	-47.2	16.7	0.00e+00	0	43	0	0	61	4674
2026-01-12 22:10:38.91	116.01	16.45	-45.0	-47.1	16.8	0.00e+00	0	43	0	0	61	4641
2026-01-12 22:10:42.18	116.66	16.28	-44.8	-46.9	17.1	0.00e+00	0	43	0	0	61	4520
2026-01-12 22:10:45.02	117.22	16.13	-45.2	-47.4	16.6	0.00e+00	0	43	0	0	61	4766
2026-01-12 22:10:48.14	117.82	15.96	-45.4	-47.6	16.4	0.00e+00	0	43	0	0	61	4910
2026-01-12 22:10:50.99	118.37	15.81	-45.3	-47.5	16.5	0.00e+00	0	43	0	0	61	4821
2026-01-12 22:10:54.13	118.97	15.64	-45.3	-47.4	16.5	0.00e+00	0	43	0	0	61	4805
2026-01-12 22:10:57.45	119.59	15.46	-45.1	-47.3	16.7	0.00e+00	0	43	0	0	61	4720
2026-01-12 22:11:00.17	120.10	15.31	-45.3	-47.5	16.5	0.00e+00	0	43	0	0	61	4849
2026-01-12 22:11:03.44	120.70	15.13	-45.5	-47.7	16.3	0.00e+00	0	43	0	0	61	4941
2026-01-12 22:11:06.17	121.19	14.98	-45.4	-47.6	16.3	0.00e+00	0	44	0	0	61	4922
2026-01-12 22:11:09.91	121.87	14.77	-45.4	-47.5	16.4	0.00e+00	0	43	0	0	61	4870
2026-01-12 22:11:12.61	122.35	14.61	-45.4	-47.6	16.3	0.00e+00	0	43	0	0	61	4900
2026-01-12 22:11:15.89	122.92	14.42	-45.2	-47.4	16.5	0.00e+00	0	43	0	0	61	4794
2026-01-12 22:11:18.60	123.39	14.27	-45.3	-47.5	16.5	0.00e+00	0	43	0	0	61	4833
2026-01-12 22:11:22.17	124.01	14.06	-45.4	-47.7	16.3	0.00e+00	0	43	0	0	61	4928
2026-01-12 22:11:25.18	124.52	13.89	-45.3	-47.6	16.3	0.00e+00	0	43	0	0	61	4886
2026-01-12 22:11:28.50	125.07	13.69	-45.2	-47.4	16.5	0.00e+00	0	43	0	0	61	4777
2026-01-12 22:11:31.43	125.56	13.52	-45.2	-47.3	16.5	0.00e+00	0	43	0	0	61	4759
2026-01-12 22:11:35.41	126.21	13.29	-45.1	-47.3	16.6	0.00e+00	0	43	0	0	61	4717
2026-01-12 22:11:38.25	126.67	13.12	-45.1	-47.3	16.6	0.00e+00	0	43	0	0	61	4709
2026-01-12 22:11:42.26	127.30	12.88	-45.4	-47.6	16.2	0.00e+00	0	43	0	0	61	4913
2026-01-12 22:11:45.51	127.81	12.69	-45.4	-47.7	16.2	0.00e+00	0	43	0	0	61	4939
2026-01-12 22:11:48.50	128.28	12.51	-45.6	-47.9	15.9	0.00e+00	0	43	0	0	61	5072
2026-01-12 22:11:51.40	128.72	12.33	-45.7	-48.0	15.8	0.00e+00	0	43	0	0	62	4846
2026-01-12 22:11:54.53	129.20	12.15	-45.8	-48.1	15.7	0.00e+00	0	43	0	0	62	4920
2026-01-12 22:11:57.38	129.62	11.97	-45.8	-48.2	15.6	0.00e+00	0	43	0	0	62	4972
2026-01-12 22:12:00.50	130.08	11.79	-46.0	-48.4	15.4	0.00e+00	0	43	0	0	62	5064
2026-01-12 22:12:03.40	130.51	11.61	-46.0	-48.4	15.4	0.00e+00	0	43	0	0	62	5049
2026-01-12 22:12:06.59	130.97	11.42	-45.9	-48.3	15.5	0.00e+00	0	43	0	0	62	5006
2026-01-12 22:12:09.43	131.37	11.25	-45.8	-48.2	15.7	0.00e+00	0	43	0	0	62	4932
2026-01-12 22:12:12.55	131.81	11.06	-45.9	-48.3	15.5	0.00e+00	0	43	0	0	62	4991
2026-01-12 22:12:15.39	132.21	10.89	-46.1	-48.5	15.3	0.00e+00	0	43	0	0	62	5132
2026-01-12 22:12:18.52	132.64	10.70	-46.1	-48.6	15.2	0.00e+00	0	43	0	0	63	4878
2026-01-12 22:12:21.36	133.02	10.53	-46.2	-48.7	15.0	0.00e+00	0	43	0	0	63	4975
2026-01-12 22:12:24.61	133.46	10.33	-46.3	-48.8	15.0	0.00e+00	0	43	0	0	63	5003
2026-01-12 22:12:27.41	133.83	10.17	-46.2	-48.7	15.0	0.00e+00	0	43	0	0	63	4955
2026-01-12 22:12:30.53	134.24	9.98	-46.2	-48.7	14.9	1.50e-06	0	43	0	0	63	4963
2026-01-12 22:12:33.37	134.61	9.81	-46.4	-49.0	14.6	0.00e+00	0	43	0	0	63	5133
2026-01-12 22:12:36.50	135.01	9.62	-46.4	-49.0	14.6	0.00e+00	0	43	0	0	63	5159
2026-01-12 22:12:39.34	135.37	9.45	-46.4	-49.0	14.7	0.00e+00	0	43	0	0	63	5154
2026-01-12 22:12:42.61	135.78	9.25	-46.5	-49.1	14.6	0.00e+00	0	43	0	0	63	5205
2026-01-12 22:12:45.45	136.13	9.08	-46.6	-49.3	14.2	0.00e+00	0	43	0	0	64	5029
2026-01-12 22:12:48.57	136.51	8.90	-52.3	-65.3	3.8	1.49e+00	0	43	104	0	75	16753
2026-01-12 22:12:51.41	136.85	8.73	-52.6	-65.6	3.8	1.49e+00	0	43	104	0	75	17289
2026-01-12 22:12:54.54	137.23	8.54	-52.7	-65.7	3.8	1.49e+00	0	43	104	0	76	16580
2026-01-12 22:12:57.38	137.56	8.37	-52.7	-65.8	3.8	1.49e+00	0	44	104	0	76	16703
2026-01-12 22:13:00.59	137.94	8.18	-52.8	-65.8	3.8	1.49e+00	0	43	104	0	76	16852
2026-01-12 22:13:03.49	138.27	8.01	-52.7	-65.8	3.8	1.49e+00	0	43	104	0	76	16859
2026-01-12 22:13:06.68	138.63	7.82	-52.7	-65.8	3.8	1.49e+00	0	43	104	0	76	16819
2026-01-12 22:13:09.52	138.95	7.65	-52.7	-65.8	3.8	1.49e+00	0	43	104	0	76	16785
2026-01-12 22:13:12.64	139.30	7.47	-52.7	-65.8	3.8	1.49e+00	0	43	104	0	76	16703
2026-01-12 22:13:15.48	139.61	7.30	-52.7	-65.8	3.8	1.49e+00	0	43	104	0	76	16711
2026-01-12 22:13:18.60	139.95	7.12	-52.6	-65.8	3.8	1.49e+00	0	43	104	0	76	16726
2026-01-12 22:13:21.44	140.25	6.95	-52.6	-65.8	3.8	1.49e+00	0	43	104	0	76	16695
2026-01-12 22:13:24.56	140.58	6.77	-52.6	-65.8	3.8	1.49e+00	0	43	104	0	76	16713
2026-01-12 22:13:27.40	140.88	6.61	-52.6	-65.7	3.8	1.49e+00	0	43	104	0	76	16680
2026-01-12 22:13:30.52	141.21	6.43	-52.6	-65.7	3.8	1.49e+00	0	43	104	0	76	16686
2026-01-12 22:13:33.36	141.50	6.26	-52.6	-65.7	3.8	1.49e+00	0	43	104	0	76	16666
2026-01-12 22:13:36.48	141.81	6.08	-52.6	-65.7	3.8	1.49e+00	0	43	104	0	76	16675
2026-01-12 22:13:39.32	142.10	5.92	-52.6	-65.7	3.8	1.49e+00	0	43	104	0	76	16680
2026-01-12 22:13:42.44	142.41	5.74	-52.6	-65.8	3.8	1.49e+00	0	43	104	0	76	16713
2026-01-12 22:13:45.28	142.68	5.58	-52.6	-65.7	3.8	1.49e+00	0	43	104	0	76	16663
2026-01-12 22:13:48.40	142.99	5.40	-52.6	-65.7	3.8	1.49e+00	0	43	104	0	76	16690
2026-01-12 22:13:51.23	143.26	5.24	-52.6	-65.7	3.8	1.49e+00	0	43	104	0	76	16693
2026-01-12 22:13:54.36	143.55	5.06	-52.6	-65.7	3.8	1.49e+00	0	44	104	0	76	16645

#Closed at: 2026-01-12 22:13:57
#Recorded file [0 MB]: D:/Data/31040_260113_010314.dat