passes_logs/2026/01/12/T1/T1__20260112_063757_FENGYUN_3E_rec.log

#Pass ID: 20260112_063757_FENGYUN 3E
#Satellite: FENGYUN 3E
#Configuration: FENGYUN 3E
#almurnet v.1.7.20251203
#Start time: 2026-01-12 06:37:57

#Version: 2.0.20230620
#Station: T1
#Location: 37.570604 lon 55.790049 lat
#TLE: 1 49008U 21062A   26011.27090272  .00000463  00000+0  23869-3 0  9994
#TLE: 2 49008  98.7490  16.4432 0001856 145.0812 215.0487 14.19886022234312

#Time	Az	El	Level	Level2	SNR	BER	BlckErr	Temp	State	Recorded	gain1	gain2
2026-01-12 06:37:57.77	0.38	5.03	-51.1	-61.9	3.8	8.47e-01	0	38	0	0	71	13292
2026-01-12 06:37:59.76	0.14	5.12	-51.1	-61.8	3.8	8.47e-01	0	38	104	0	73	11802
2026-01-12 06:38:01.74	359.90	5.21	-51.1	-61.8	3.8	8.47e-01	0	38	104	0	73	11730
2026-01-12 06:38:03.73	359.66	5.29	-51.1	-61.9	3.8	8.47e-01	0	38	104	0	73	11830
2026-01-12 06:38:05.71	359.42	5.38	-51.1	-61.8	3.8	8.47e-01	0	38	104	0	73	11788
2026-01-12 06:38:07.70	359.18	5.46	-51.1	-61.8	3.8	8.46e-01	0	39	104	0	73	11769
2026-01-12 06:38:09.69	358.93	5.55	-51.1	-61.8	3.8	8.46e-01	0	39	104	0	73	11813
2026-01-12 06:38:11.68	358.68	5.64	-51.1	-61.9	3.8	8.47e-01	0	39	104	0	73	11880
2026-01-12 06:38:13.67	358.44	5.72	-51.1	-61.9	3.8	8.48e-01	0	39	104	0	73	11840
2026-01-12 06:38:15.65	358.19	5.81	-51.1	-61.9	3.8	8.46e-01	0	39	104	0	73	11860
2026-01-12 06:38:17.64	357.94	5.89	-51.1	-61.8	3.8	8.48e-01	0	39	104	0	73	11817
2026-01-12 06:38:19.63	357.68	5.98	-51.1	-61.9	3.8	8.48e-01	0	39	104	0	73	11904
2026-01-12 06:38:21.61	357.43	6.06	-51.1	-61.9	3.8	8.48e-01	0	39	104	0	73	11862
2026-01-12 06:38:23.60	357.18	6.15	-51.1	-61.9	3.8	8.47e-01	0	39	104	0	72	12604
2026-01-12 06:38:25.59	356.92	6.23	-51.1	-61.8	3.8	8.47e-01	0	39	104	0	72	12505
2026-01-12 06:38:27.57	356.66	6.31	-51.0	-61.9	3.8	8.47e-01	0	39	104	0	72	12566
2026-01-12 06:38:29.56	356.40	6.40	-51.0	-61.8	3.8	8.47e-01	0	39	104	0	72	12499
2026-01-12 06:38:31.55	356.14	6.48	-51.0	-61.9	3.8	8.47e-01	0	39	104	0	72	12535
2026-01-12 06:38:33.54	355.88	6.56	-51.0	-61.9	3.8	8.47e-01	0	39	104	0	72	12610
2026-01-12 06:38:35.52	355.61	6.65	-51.0	-61.9	3.8	8.47e-01	0	39	104	0	72	12587
2026-01-12 06:38:37.51	355.34	6.73	-51.0	-61.9	3.8	8.47e-01	0	39	104	0	72	12586
2026-01-12 06:38:39.50	355.08	6.81	-51.0	-62.0	3.8	8.46e-01	0	39	104	0	72	12705
2026-01-12 06:38:41.48	354.81	6.89	-51.0	-61.9	3.8	8.46e-01	0	39	104	0	72	12576
2026-01-12 06:38:43.47	354.54	6.97	-51.0	-61.9	3.8	8.47e-01	0	40	104	0	72	12527
2026-01-12 06:38:45.46	354.26	7.05	-51.0	-61.9	3.8	8.48e-01	0	40	104	0	72	12535
2026-01-12 06:38:47.44	353.99	7.13	-51.0	-61.9	3.8	8.47e-01	0	40	104	0	72	12584
2026-01-12 06:38:49.43	353.72	7.21	-51.0	-61.9	3.8	8.47e-01	0	40	104	0	72	12577
2026-01-12 06:38:51.42	353.44	7.29	-51.0	-61.9	3.8	8.47e-01	0	40	104	0	72	12531
2026-01-12 06:38:53.40	353.16	7.37	-51.1	-61.9	3.8	8.46e-01	0	40	104	0	72	12607
2026-01-12 06:38:55.39	352.88	7.45	-51.1	-61.9	3.8	8.47e-01	0	40	104	0	72	12564
2026-01-12 06:38:57.38	352.60	7.53	-51.0	-61.9	3.8	8.45e-01	0	40	104	0	72	12661
2026-01-12 06:38:59.36	352.32	7.61	-51.1	-61.9	3.8	8.47e-01	0	40	104	0	72	12610
2026-01-12 06:39:01.35	352.03	7.69	-51.1	-62.0	3.8	8.47e-01	0	40	104	0	72	12684
2026-01-12 06:39:03.34	351.74	7.76	-51.1	-61.9	3.8	8.47e-01	0	40	104	0	72	12543
2026-01-12 06:39:05.32	351.46	7.84	-51.1	-61.9	3.8	8.46e-01	0	40	104	0	72	12597
2026-01-12 06:39:07.31	351.17	7.92	-51.1	-61.9	3.8	8.48e-01	0	40	104	0	72	12588
2026-01-12 06:39:09.30	350.88	7.99	-51.1	-62.0	3.8	8.47e-01	0	40	104	0	72	12697
2026-01-12 06:39:11.28	350.59	8.07	-51.1	-61.9	3.8	8.47e-01	0	40	104	0	72	12631
2026-01-12 06:39:13.27	350.29	8.14	-51.1	-62.0	3.8	8.47e-01	0	40	104	0	72	12668
2026-01-12 06:39:15.26	349.99	8.22	-51.1	-62.0	3.8	8.47e-01	0	40	104	0	72	12692
2026-01-12 06:39:17.24	349.70	8.29	-51.1	-61.9	3.8	8.46e-01	0	40	104	0	72	12662
2026-01-12 06:39:19.23	349.40	8.37	-51.1	-62.0	3.8	8.48e-01	0	40	104	0	72	12684
2026-01-12 06:39:21.21	349.10	8.44	-51.1	-62.0	3.8	8.47e-01	0	40	104	0	72	12703
2026-01-12 06:39:23.20	348.80	8.51	-51.1	-61.9	3.8	8.48e-01	0	40	104	0	72	12647
2026-01-12 06:39:25.19	348.49	8.58	-51.1	-61.9	3.8	8.46e-01	0	40	104	0	72	12649
2026-01-12 06:39:27.17	348.19	8.66	-51.1	-61.9	3.8	8.48e-01	0	40	104	0	72	12578
2026-01-12 06:39:29.16	347.88	8.73	-51.1	-61.9	3.8	8.46e-01	0	40	104	0	72	12598
2026-01-12 06:39:31.15	347.57	8.80	-51.1	-61.9	3.8	8.47e-01	0	40	104	0	72	12626
2026-01-12 06:39:33.13	347.27	8.87	-51.1	-61.9	3.8	8.47e-01	0	40	104	0	72	12575
2026-01-12 06:39:35.12	346.96	8.93	-51.1	-61.9	3.8	8.46e-01	0	40	104	0	72	12629
2026-01-12 06:39:37.10	346.64	9.00	-51.1	-62.0	3.8	8.46e-01	0	40	104	0	72	12726
2026-01-12 06:39:39.09	346.33	9.07	-51.1	-61.9	3.8	8.47e-01	0	40	104	0	72	12597
2026-01-12 06:39:41.07	346.01	9.14	-51.1	-61.9	3.8	8.46e-01	0	40	104	0	72	12590
2026-01-12 06:39:43.06	345.70	9.20	-51.1	-61.9	3.8	8.47e-01	0	40	104	0	72	12624
2026-01-12 06:39:45.05	345.38	9.27	-51.1	-62.0	3.8	8.47e-01	0	40	104	0	72	12685
2026-01-12 06:39:47.03	345.06	9.33	-51.1	-61.9	3.8	8.46e-01	0	40	104	0	72	12609
2026-01-12 06:39:49.02	344.74	9.40	-51.1	-61.9	3.8	8.48e-01	0	41	104	0	72	12602
2026-01-12 06:39:51.01	344.41	9.46	-51.1	-61.9	3.8	8.47e-01	0	40	104	0	72	12664
2026-01-12 06:39:52.99	344.09	9.53	-51.1	-61.9	3.8	8.46e-01	0	41	104	0	72	12663
2026-01-12 06:39:54.98	343.77	9.59	-51.1	-61.9	3.8	8.46e-01	0	41	104	0	72	12664
2026-01-12 06:39:56.96	343.44	9.65	-51.1	-61.9	3.8	8.47e-01	0	41	104	0	72	12615
2026-01-12 06:39:58.95	343.11	9.71	-51.1	-62.0	3.8	8.47e-01	0	41	104	0	72	12688
2026-01-12 06:40:00.92	342.78	9.77	-51.2	-62.0	3.8	8.46e-01	0	41	104	0	72	12681
2026-01-12 06:40:02.90	342.45	9.83	-51.2	-62.0	3.8	8.47e-01	0	40	104	0	72	12670
2026-01-12 06:40:04.89	342.12	9.89	-51.2	-62.0	3.8	8.47e-01	0	41	104	0	72	12678
2026-01-12 06:40:06.88	341.79	9.95	-51.2	-62.0	3.8	8.48e-01	0	41	104	0	72	12715
2026-01-12 06:40:08.86	341.45	10.00	-51.2	-62.0	3.8	8.47e-01	0	41	104	0	72	12686
2026-01-12 06:40:10.85	341.11	10.06	-51.2	-62.0	3.8	8.47e-01	0	41	104	0	72	12735
2026-01-12 06:40:12.84	340.78	10.11	-51.2	-62.0	3.8	8.48e-01	0	41	104	0	72	12685
2026-01-12 06:40:14.82	340.44	10.17	-51.2	-62.0	3.8	8.46e-01	0	41	104	0	72	12666
2026-01-12 06:40:16.81	340.10	10.22	-51.2	-61.9	3.8	8.46e-01	0	41	104	0	72	12644
2026-01-12 06:40:18.80	339.75	10.27	-51.2	-62.0	3.8	8.46e-01	0	41	104	0	72	12695
2026-01-12 06:40:20.78	339.41	10.33	-51.3	-62.0	3.8	8.47e-01	0	41	104	0	72	12733
2026-01-12 06:40:22.77	339.07	10.38	-51.3	-61.9	3.8	8.48e-01	0	41	104	0	72	12661
2026-01-12 06:40:24.76	338.72	10.43	-51.3	-62.0	3.8	8.46e-01	0	41	104	0	72	12693
2026-01-12 06:40:26.74	338.38	10.48	-51.3	-62.0	3.8	8.47e-01	0	41	104	0	72	12742
2026-01-12 06:40:28.73	338.03	10.52	-51.3	-62.0	3.8	8.47e-01	0	41	104	0	72	12697
2026-01-12 06:40:30.72	337.68	10.57	-51.3	-62.0	3.8	8.47e-01	0	41	104	0	72	12690
2026-01-12 06:40:32.70	337.33	10.62	-51.3	-61.9	3.8	8.46e-01	0	41	104	0	72	12663
2026-01-12 06:40:34.69	336.98	10.66	-51.3	-61.9	3.8	8.49e-01	0	41	104	0	72	12647
2026-01-12 06:40:36.68	336.62	10.71	-51.2	-62.0	3.8	8.47e-01	0	40	104	0	72	12683
2026-01-12 06:40:38.66	336.27	10.75	-51.3	-62.1	3.8	8.46e-01	0	41	104	0	72	12813
2026-01-12 06:40:40.65	335.92	10.79	-51.2	-62.0	3.8	8.46e-01	0	41	104	0	72	12706
2026-01-12 06:40:42.64	335.56	10.84	-51.2	-62.0	3.8	8.47e-01	0	41	104	0	72	12733
2026-01-12 06:40:44.62	335.21	10.88	-51.2	-62.0	3.8	8.48e-01	0	41	104	0	72	12710
2026-01-12 06:40:46.61	334.85	10.92	-51.2	-62.0	3.8	8.47e-01	0	41	104	0	72	12776
2026-01-12 06:40:48.60	334.49	10.95	-51.2	-62.0	3.8	8.48e-01	0	41	104	0	72	12772
2026-01-12 06:40:50.59	334.13	10.99	-51.2	-62.0	3.8	8.47e-01	0	41	104	0	72	12741
2026-01-12 06:40:52.57	333.77	11.03	-51.2	-62.0	3.8	8.46e-01	0	41	104	0	72	12720
2026-01-12 06:40:54.56	333.41	11.06	-51.2	-62.0	3.8	8.46e-01	0	41	104	0	72	12748
2026-01-12 06:40:56.55	333.04	11.10	-51.2	-62.0	3.8	8.46e-01	0	41	104	0	72	12695
2026-01-12 06:40:58.53	332.68	11.13	-51.2	-62.0	3.8	8.46e-01	0	41	104	0	72	12800
2026-01-12 06:41:00.52	332.32	11.16	-51.2	-62.0	3.8	8.46e-01	0	41	104	0	72	12715
2026-01-12 06:41:02.51	331.95	11.19	-51.2	-62.0	3.8	8.47e-01	0	41	104	0	72	12706
2026-01-12 06:41:04.49	331.59	11.22	-51.2	-62.0	3.8	8.47e-01	0	41	104	0	72	12751
2026-01-12 06:41:06.48	331.22	11.25	-51.2	-62.0	3.8	8.46e-01	0	41	104	0	72	12696
2026-01-12 06:41:08.47	330.85	11.28	-51.2	-62.0	3.8	8.47e-01	0	41	104	0	72	12743
2026-01-12 06:41:10.45	330.49	11.31	-51.2	-61.9	3.8	8.47e-01	0	41	104	0	72	12653
2026-01-12 06:41:12.44	330.12	11.33	-51.2	-62.0	3.8	8.48e-01	0	41	104	0	72	12710
2026-01-12 06:41:14.43	329.75	11.36	-51.2	-62.0	3.8	8.46e-01	0	41	104	0	72	12777
2026-01-12 06:41:16.41	329.38	11.38	-51.2	-62.0	3.8	8.47e-01	0	41	104	0	72	12713
2026-01-12 06:41:18.40	329.01	11.40	-51.2	-62.0	3.8	8.47e-01	0	41	104	0	72	12771
2026-01-12 06:41:20.39	328.64	11.42	-51.2	-62.0	3.8	8.46e-01	0	41	104	0	72	12724
2026-01-12 06:41:22.39	328.26	11.44	-51.2	-62.0	3.8	8.48e-01	0	41	104	0	72	12711
2026-01-12 06:41:24.38	327.89	11.46	-51.2	-62.0	3.8	8.47e-01	0	41	104	0	72	12791
2026-01-12 06:41:26.37	327.52	11.48	-51.2	-62.0	3.8	8.47e-01	0	41	104	0	72	12748
2026-01-12 06:41:28.37	327.14	11.50	-51.2	-62.1	3.8	8.47e-01	0	41	104	0	72	12815
2026-01-12 06:41:30.36	326.77	11.51	-51.2	-62.0	3.8	8.46e-01	0	41	104	0	72	12683
2026-01-12 06:41:32.36	326.39	11.53	-51.2	-62.0	3.8	8.47e-01	0	41	104	0	72	12739
2026-01-12 06:41:34.35	326.02	11.54	-51.2	-62.0	3.8	8.47e-01	0	41	104	0	72	12737
2026-01-12 06:41:36.35	325.64	11.55	-51.2	-62.0	3.8	8.46e-01	0	41	104	0	72	12701
2026-01-12 06:41:38.34	325.27	11.56	-51.2	-62.0	3.8	8.47e-01	0	41	104	0	72	12712
2026-01-12 06:41:40.33	324.89	11.57	-51.2	-62.0	3.8	8.47e-01	0	41	104	0	72	12707
2026-01-12 06:41:42.32	324.51	11.58	-51.2	-62.0	3.8	8.46e-01	0	41	104	0	72	12763
2026-01-12 06:41:44.31	324.14	11.59	-51.2	-62.0	3.8	8.47e-01	0	41	104	0	72	12721
2026-01-12 06:41:46.31	323.76	11.59	-51.2	-62.0	3.8	8.46e-01	0	41	104	0	72	12700
2026-01-12 06:41:48.30	323.38	11.60	-51.2	-61.9	3.8	8.48e-01	0	41	104	0	72	12663
2026-01-12 06:41:50.29	323.01	11.60	-51.2	-62.0	3.8	8.47e-01	0	41	104	0	72	12711
2026-01-12 06:41:52.28	322.63	11.60	-51.2	-62.0	3.8	8.47e-01	0	41	104	0	72	12729
2026-01-12 06:41:54.27	322.26	11.60	-51.2	-62.0	3.8	8.46e-01	0	41	104	0	72	12709
2026-01-12 06:41:56.27	321.88	11.60	-51.2	-62.0	3.8	8.47e-01	0	41	104	0	72	12785
2026-01-12 06:41:58.26	321.50	11.60	-51.2	-62.0	3.8	8.46e-01	0	41	104	0	72	12729
2026-01-12 06:42:00.25	321.12	11.60	-51.2	-62.0	3.8	8.47e-01	0	41	104	0	72	12783
2026-01-12 06:42:02.24	320.75	11.59	-51.2	-62.0	3.8	8.46e-01	0	41	104	0	72	12681
2026-01-12 06:42:04.23	320.37	11.59	-51.2	-61.9	3.8	8.46e-01	0	41	104	0	72	12626
2026-01-12 06:42:06.23	319.99	11.58	-51.2	-62.0	3.8	8.48e-01	0	41	104	0	72	12732
2026-01-12 06:42:08.22	319.62	11.58	-51.2	-62.0	3.8	8.47e-01	0	41	104	0	72	12733
2026-01-12 06:42:10.21	319.24	11.57	-51.2	-61.9	3.8	8.46e-01	0	41	104	0	72	12638
2026-01-12 06:42:12.20	318.87	11.56	-51.2	-62.0	3.8	8.46e-01	0	41	104	0	72	12737
2026-01-12 06:42:14.19	318.49	11.55	-51.2	-62.0	3.8	8.46e-01	0	41	104	0	72	12711
2026-01-12 06:42:16.18	318.11	11.53	-51.2	-62.0	3.8	8.46e-01	0	41	104	0	72	12774
2026-01-12 06:42:18.17	317.74	11.52	-51.2	-62.0	3.8	8.46e-01	0	41	104	0	72	12670
2026-01-12 06:42:20.16	317.37	11.51	-51.1	-61.9	3.8	8.47e-01	0	41	104	0	72	12570
2026-01-12 06:42:22.16	316.99	11.49	-51.1	-62.0	3.8	8.47e-01	0	41	104	0	72	12676
2026-01-12 06:42:24.15	316.62	11.47	-51.1	-61.9	3.8	8.47e-01	0	41	104	0	72	12647
2026-01-12 06:42:26.14	316.24	11.46	-51.1	-62.0	3.8	8.47e-01	0	41	104	0	72	12737
2026-01-12 06:42:28.14	315.87	11.44	-51.1	-61.9	3.8	8.47e-01	0	41	104	0	72	12607
2026-01-12 06:42:30.13	315.50	11.42	-51.1	-61.9	3.8	8.46e-01	0	41	104	0	72	12641
2026-01-12 06:42:32.13	315.12	11.39	-51.0	-61.9	3.8	8.47e-01	0	41	104	0	72	12641
2026-01-12 06:42:34.12	314.75	11.37	-51.2	-62.0	3.8	8.47e-01	0	41	104	0	72	12668
2026-01-12 06:42:36.11	314.38	11.35	-51.2	-62.0	3.8	8.48e-01	0	41	104	0	72	12780
2026-01-12 06:42:38.10	314.01	11.32	-51.3	-62.0	3.8	8.47e-01	0	41	104	0	72	12785
2026-01-12 06:42:40.10	313.64	11.30	-51.3	-62.0	3.8	8.47e-01	0	41	104	0	72	12732
2026-01-12 06:42:42.09	313.27	11.27	-51.1	-62.0	3.8	8.47e-01	0	41	104	0	72	12758
2026-01-12 06:42:44.08	312.90	11.24	-51.0	-62.0	3.8	8.47e-01	0	41	104	0	72	12789
2026-01-12 06:42:46.08	312.53	11.21	-51.2	-62.0	3.8	8.47e-01	0	41	104	0	72	12672
2026-01-12 06:42:48.06	312.17	11.18	-50.9	-61.9	3.8	8.47e-01	0	41	104	0	72	12607
2026-01-12 06:42:50.05	311.80	11.15	-50.8	-61.7	3.8	8.48e-01	0	41	104	0	72	12365
2026-01-12 06:42:52.04	311.44	11.12	-50.4	-61.4	3.8	8.47e-01	0	41	104	0	71	12539
2026-01-12 06:42:54.04	311.07	11.08	-50.1	-59.4	3.8	8.42e-01	0	41	104	6291456	69	11186
2026-01-12 06:42:56.03	310.71	11.05	-43.0	-44.5	15.8	0.00e+00	0	41	0	17825792	56	4249
2026-01-12 06:42:58.02	310.35	11.01	-42.2	-43.6	16.5	0.00e+00	0	41	0	31457280	54	4313
2026-01-12 06:43:00.01	309.99	10.97	-42.0	-43.3	16.8	0.00e+00	0	41	0	46137344	54	4168
2026-01-12 06:43:02.01	309.62	10.94	-41.8	-43.1	17.0	0.00e+00	0	41	0	60817408	54	4067
2026-01-12 06:43:04.00	309.26	10.90	-42.1	-43.4	16.7	0.00e+00	0	41	0	75497472	54	4238
2026-01-12 06:43:05.99	308.91	10.86	-42.0	-43.3	16.8	0.00e+00	0	41	0	89128960	54	4172
2026-01-12 06:43:07.99	308.55	10.82	-41.8	-43.1	17.0	0.00e+00	0	41	0	103809024	54	4089
2026-01-12 06:43:09.98	308.19	10.77	-41.9	-43.2	16.9	0.00e+00	0	41	0	118489088	54	4116
2026-01-12 06:43:11.98	307.83	10.73	-41.9	-43.2	16.9	0.00e+00	0	41	0	133169152	54	4122
2026-01-12 06:43:13.98	307.48	10.69	-42.0	-43.3	16.8	0.00e+00	0	41	0	146800640	54	4163
2026-01-12 06:43:15.98	307.12	10.64	-41.9	-43.2	16.9	0.00e+00	0	41	0	161480704	54	4110
2026-01-12 06:43:17.97	306.77	10.59	-41.9	-43.2	16.9	0.00e+00	0	41	0	176160768	54	4104
2026-01-12 06:43:19.97	306.42	10.55	-41.9	-43.2	16.9	0.00e+00	0	41	0	189792256	54	4111
2026-01-12 06:43:21.96	306.07	10.50	-41.8	-43.1	16.9	0.00e+00	0	41	0	204472320	54	4086
2026-01-12 06:43:23.96	305.72	10.45	-42.0	-43.2	16.8	0.00e+00	0	41	0	219152384	54	4140
2026-01-12 06:43:25.95	305.37	10.40	-41.9	-43.1	16.9	0.00e+00	0	41	0	233832448	54	4097
2026-01-12 06:43:27.95	305.02	10.35	-42.0	-43.3	16.7	0.00e+00	0	41	0	247463936	54	4164
2026-01-12 06:43:29.94	304.68	10.30	-42.2	-43.5	16.5	0.00e+00	0	41	0	262144000	54	4279
2026-01-12 06:43:31.94	304.33	10.25	-42.2	-43.6	16.5	0.00e+00	0	41	0	276824064	54	4301
2026-01-12 06:43:33.94	303.99	10.19	-42.2	-43.6	16.5	0.00e+00	0	41	0	291504128	54	4295
2026-01-12 06:43:35.94	303.64	10.14	-42.1	-43.4	16.6	0.00e+00	0	41	0	305135616	54	4214
2026-01-12 06:43:37.94	303.30	10.08	-42.2	-43.5	16.5	0.00e+00	0	41	0	319815680	54	4257
2026-01-12 06:43:39.94	302.96	10.03	-42.3	-43.6	16.4	0.00e+00	0	41	0	334495744	54	4311
2026-01-12 06:43:41.94	302.62	9.97	-42.3	-43.7	16.3	0.00e+00	0	41	0	349175808	54	4369
2026-01-12 06:43:43.94	302.28	9.91	-42.4	-43.8	16.2	0.00e+00	0	41	0	363855872	54	4394
2026-01-12 06:43:45.94	301.95	9.85	-42.3	-43.7	16.3	0.00e+00	0	41	0	377487360	54	4363
2026-01-12 06:43:47.94	301.61	9.79	-42.3	-43.7	16.3	0.00e+00	0	41	0	392167424	54	4352
2026-01-12 06:43:49.93	301.28	9.73	-42.4	-43.7	16.3	0.00e+00	0	41	0	406847488	54	4376
2026-01-12 06:43:51.93	300.95	9.67	-42.5	-43.9	16.1	0.00e+00	0	41	0	421527552	54	4451
2026-01-12 06:43:53.93	300.62	9.61	-42.6	-43.9	16.0	0.00e+00	0	41	0	435159040	54	4482
2026-01-12 06:43:55.94	300.28	9.55	-42.9	-44.3	15.7	0.00e+00	0	41	0	449839104	55	4424
2026-01-12 06:43:57.93	299.96	9.48	-42.9	-44.3	15.7	0.00e+00	0	41	0	464519168	55	4430
2026-01-12 06:43:59.94	299.63	9.42	-42.9	-44.3	15.6	0.00e+00	0	41	0	479199232	55	4440
2026-01-12 06:44:01.94	299.30	9.36	-42.9	-44.4	15.6	1.10e-06	0	41	0	492830720	55	4456
2026-01-12 06:44:03.94	298.98	9.29	-42.8	-44.2	15.7	0.00e+00	0	41	0	507510784	55	4386
2026-01-12 06:44:05.94	298.66	9.22	-42.7	-44.1	15.8	0.00e+00	0	41	0	522190848	55	4335
2026-01-12 06:44:07.94	298.34	9.16	-42.7	-44.1	15.8	0.00e+00	0	41	0	536870912	55	4333
2026-01-12 06:44:09.94	298.02	9.09	-42.7	-44.1	15.8	0.00e+00	0	41	0	551550976	55	4339
2026-01-12 06:44:11.95	297.70	9.02	-42.8	-44.2	15.7	0.00e+00	0	41	0	565182464	55	4374
2026-01-12 06:44:13.94	297.38	8.95	-50.9	-61.6	3.8	8.48e-01	0	41	104	572522496	71	12895
2026-01-12 06:44:15.93	297.07	8.88	-51.0	-61.9	3.8	8.46e-01	0	41	104	572522496	71	13271
2026-01-12 06:44:17.93	296.76	8.81	-51.2	-61.9	3.8	8.48e-01	0	41	104	572522496	72	12651
2026-01-12 06:44:19.92	296.45	8.74	-51.3	-62.0	3.8	8.48e-01	0	41	104	572522496	72	12773
2026-01-12 06:44:21.92	296.14	8.67	-51.3	-62.1	3.8	8.46e-01	0	41	104	572522496	72	12816
2026-01-12 06:44:23.91	295.83	8.60	-51.3	-62.1	3.8	8.46e-01	0	41	104	572522496	72	12906
2026-01-12 06:44:25.91	295.52	8.53	-51.2	-62.1	3.8	8.47e-01	0	41	104	572522496	72	12851
2026-01-12 06:44:27.90	295.22	8.46	-51.1	-62.1	3.8	8.48e-01	0	41	104	572522496	72	12818
2026-01-12 06:44:29.90	294.91	8.38	-51.1	-62.1	3.8	8.47e-01	0	41	104	572522496	72	12845
2026-01-12 06:44:31.90	294.61	8.31	-51.2	-62.1	3.8	8.46e-01	0	41	104	572522496	72	12821
2026-01-12 06:44:33.89	294.31	8.23	-51.1	-62.0	3.8	8.48e-01	0	41	104	572522496	72	12710
2026-01-12 06:44:35.88	294.01	8.16	-51.1	-62.0	3.8	8.46e-01	0	41	104	572522496	72	12790
2026-01-12 06:44:37.88	293.72	8.08	-51.1	-61.9	3.8	8.45e-01	0	41	104	572522496	72	12579
2026-01-12 06:44:39.87	293.42	8.01	-51.0	-61.9	3.8	8.46e-01	0	41	104	572522496	72	12631
2026-01-12 06:44:41.87	293.13	7.93	-51.1	-61.9	3.8	8.47e-01	0	41	104	572522496	72	12609
2026-01-12 06:44:43.86	292.83	7.86	-51.0	-61.9	3.8	8.46e-01	0	41	104	572522496	72	12616
2026-01-12 06:44:45.85	292.54	7.78	-51.0	-62.0	3.8	8.47e-01	0	41	104	572522496	72	12673
2026-01-12 06:44:47.85	292.25	7.70	-51.0	-62.0	3.8	8.47e-01	0	41	104	572522496	72	12667
2026-01-12 06:44:49.84	291.97	7.62	-51.0	-61.9	3.8	8.46e-01	0	41	104	572522496	72	12579
2026-01-12 06:44:51.84	291.68	7.54	-51.0	-61.9	3.8	8.46e-01	0	41	104	572522496	72	12534
2026-01-12 06:44:53.84	291.39	7.46	-51.0	-61.9	3.8	8.47e-01	0	41	104	572522496	72	12592
2026-01-12 06:44:55.83	291.11	7.39	-51.0	-61.9	3.8	8.46e-01	0	41	104	572522496	72	12527
2026-01-12 06:44:57.83	290.83	7.30	-51.0	-61.9	3.8	8.47e-01	0	41	104	572522496	72	12582
2026-01-12 06:44:59.83	290.55	7.22	-51.0	-61.9	3.8	8.47e-01	0	41	104	572522496	72	12612
2026-01-12 06:45:01.82	290.27	7.14	-51.0	-61.9	3.8	8.47e-01	0	41	104	572522496	72	12621
2026-01-12 06:45:03.81	290.00	7.06	-51.0	-61.9	3.8	8.47e-01	0	41	104	572522496	72	12601
2026-01-12 06:45:05.81	289.72	6.98	-51.0	-61.9	3.8	8.47e-01	0	41	104	572522496	72	12609
2026-01-12 06:45:07.80	289.45	6.90	-51.0	-61.9	3.8	8.47e-01	0	41	104	572522496	72	12643
2026-01-12 06:45:09.79	289.18	6.82	-51.0	-61.9	3.8	8.47e-01	0	41	104	572522496	72	12601
2026-01-12 06:45:11.78	288.91	6.74	-51.0	-61.9	3.8	8.47e-01	0	41	104	572522496	72	12542
2026-01-12 06:45:13.78	288.64	6.65	-51.0	-61.9	3.8	8.48e-01	0	41	104	572522496	72	12585
2026-01-12 06:45:15.77	288.37	6.57	-51.0	-61.8	3.8	8.46e-01	0	41	104	572522496	72	12510
2026-01-12 06:45:17.77	288.10	6.49	-51.0	-61.9	3.8	8.47e-01	0	41	104	572522496	72	12548
2026-01-12 06:45:19.76	287.84	6.40	-51.0	-61.9	3.8	8.48e-01	0	41	104	572522496	72	12596
2026-01-12 06:45:21.76	287.57	6.32	-51.0	-62.0	3.8	8.48e-01	0	41	104	572522496	72	12680
2026-01-12 06:45:23.75	287.31	6.24	-51.0	-61.9	3.8	8.46e-01	0	41	104	572522496	72	12570
2026-01-12 06:45:25.75	287.05	6.15	-51.0	-61.9	3.8	8.46e-01	0	41	104	572522496	72	12566
2026-01-12 06:45:27.74	286.80	6.07	-51.0	-61.9	3.8	8.47e-01	0	41	104	572522496	72	12610
2026-01-12 06:45:29.74	286.54	5.98	-51.0	-61.9	3.8	8.47e-01	0	41	104	572522496	72	12599
2026-01-12 06:45:31.73	286.28	5.90	-51.0	-61.9	3.8	8.46e-01	0	41	104	572522496	72	12548
2026-01-12 06:45:33.73	286.03	5.81	-51.0	-61.9	3.8	8.46e-01	0	41	104	572522496	72	12575
2026-01-12 06:45:35.73	285.78	5.72	-51.0	-61.8	3.8	8.47e-01	0	41	104	572522496	72	12498
2026-01-12 06:45:37.72	285.53	5.64	-51.0	-61.9	3.8	8.47e-01	0	41	104	572522496	72	12581
2026-01-12 06:45:39.72	285.28	5.55	-51.0	-61.9	3.8	8.47e-01	0	41	104	572522496	72	12545
2026-01-12 06:45:41.72	285.03	5.46	-51.0	-61.8	3.8	8.47e-01	0	41	104	572522496	72	12511
2026-01-12 06:45:43.71	284.78	5.38	-51.0	-61.9	3.8	8.46e-01	0	41	104	572522496	72	12532
2026-01-12 06:45:45.71	284.54	5.29	-51.0	-61.9	3.8	8.47e-01	0	41	104	572522496	72	12569
2026-01-12 06:45:47.70	284.30	5.20	-51.0	-61.9	3.8	8.47e-01	0	41	104	572522496	72	12554
2026-01-12 06:45:49.70	284.05	5.12	-51.0	-61.9	3.8	8.48e-01	0	41	104	572522496	72	12596
2026-01-12 06:45:51.69	283.81	5.03	-51.0	-61.9	3.8	8.47e-01	0	41	104	572522496	72	12551

#Closed at: 2026-01-12 06:45:53
#Recorded file [572 MB]: D:/Data/31040_260112_093757.dat