passes_logs/2026/01/12/T1/T1__20260112_034550_AQUA_rec.log

#Pass ID: 20260112_034550_AQUA
#Satellite: AQUA
#Configuration: AQUA
#almurnet v.1.7.20251203
#Start time: 2026-01-12 03:45:50

#Version: 2.0.20230620
#Station: T1
#Location: 37.570604 lon 55.790049 lat
#TLE: 1 27424U 02022A   26011.34052177  .00001139  00000+0  23789-3 0  9999
#TLE: 2 27424  98.4078 337.7066 0002035  82.6124  44.5301 14.61815662260355

#Time	Az	El	Level	Level2	SNR	BER	BlckErr	Temp	State	Recorded	gain1	gain2
2026-01-12 03:45:50.86	354.25	5.02	-49.8	-71.8	3.8	7.44e-01	0	39	0	0	70	47140
2026-01-12 03:45:52.85	353.98	5.11	-49.7	-71.7	3.8	7.44e-01	0	39	104	0	70	47012
2026-01-12 03:45:54.83	353.70	5.19	-49.6	-71.7	3.8	7.43e-01	0	39	104	0	70	46845
2026-01-12 03:45:56.82	353.42	5.28	-49.7	-71.7	3.8	7.45e-01	0	39	104	0	70	46845
2026-01-12 03:45:58.81	353.14	5.37	-49.7	-71.7	3.8	7.45e-01	0	39	104	0	70	46868
2026-01-12 03:46:00.79	352.86	5.45	-49.6	-71.7	3.8	7.45e-01	0	39	104	0	70	46911
2026-01-12 03:46:02.78	352.58	5.54	-49.6	-71.7	3.8	7.46e-01	0	39	104	0	70	46884
2026-01-12 03:46:04.77	352.29	5.62	-49.7	-71.7	3.8	7.48e-01	0	40	104	0	70	46965
2026-01-12 03:46:06.75	352.01	5.71	-49.6	-71.7	3.8	7.44e-01	0	40	104	0	70	46814
2026-01-12 03:46:08.74	351.72	5.80	-49.6	-71.7	3.8	7.44e-01	0	40	104	0	70	46949
2026-01-12 03:46:10.73	351.43	5.88	-49.7	-71.7	3.8	7.46e-01	0	40	104	0	70	46950
2026-01-12 03:46:12.71	351.13	5.96	-49.6	-71.7	3.8	7.49e-01	0	40	104	0	70	46884
2026-01-12 03:46:14.70	350.84	6.05	-49.6	-71.7	3.8	7.48e-01	0	40	104	0	70	46873
2026-01-12 03:46:16.68	350.54	6.13	-49.6	-71.7	3.8	7.45e-01	0	40	104	0	70	46887
2026-01-12 03:46:18.67	350.24	6.22	-49.6	-71.7	3.8	7.46e-01	0	40	104	0	70	47016
2026-01-12 03:46:20.66	349.94	6.30	-49.6	-71.7	3.8	7.43e-01	0	40	104	0	70	46838
2026-01-12 03:46:22.64	349.64	6.38	-49.6	-71.7	3.8	7.47e-01	0	40	104	0	70	46947
2026-01-12 03:46:24.63	349.34	6.46	-49.5	-71.7	3.8	7.45e-01	0	40	104	0	70	46858
2026-01-12 03:46:26.62	349.03	6.55	-49.6	-71.7	3.8	7.44e-01	0	40	104	0	70	46845
2026-01-12 03:46:28.60	348.72	6.63	-49.6	-71.7	3.8	7.46e-01	0	41	104	0	70	46849
2026-01-12 03:46:30.59	348.41	6.71	-49.5	-71.7	3.8	7.44e-01	0	41	104	0	70	46810
2026-01-12 03:46:32.58	348.10	6.79	-49.5	-71.7	3.8	7.45e-01	0	41	104	0	70	46784
2026-01-12 03:46:34.56	347.79	6.87	-49.6	-71.7	3.8	7.45e-01	0	41	104	0	70	46741
2026-01-12 03:46:36.55	347.47	6.95	-49.5	-71.7	3.8	7.46e-01	0	40	104	0	70	46785
2026-01-12 03:46:38.54	347.15	7.03	-49.5	-71.7	3.8	7.48e-01	0	41	104	0	70	46812
2026-01-12 03:46:40.52	346.83	7.10	-49.5	-71.7	3.8	7.48e-01	0	41	104	0	70	46885
2026-01-12 03:46:42.51	346.51	7.18	-49.5	-71.7	3.8	7.47e-01	0	40	104	0	70	46766
2026-01-12 03:46:44.50	346.19	7.26	-49.5	-71.7	3.8	7.46e-01	0	41	104	0	70	46809
2026-01-12 03:46:46.48	345.86	7.34	-49.6	-71.7	3.8	7.46e-01	0	41	104	0	70	46834
2026-01-12 03:46:48.47	345.54	7.41	-49.5	-71.7	3.8	7.46e-01	0	41	104	0	70	46769
2026-01-12 03:46:50.46	345.21	7.49	-49.5	-71.7	3.8	7.46e-01	0	41	104	0	70	46751
2026-01-12 03:46:52.45	344.88	7.56	-49.5	-71.6	3.8	7.50e-01	0	41	104	0	70	46376
2026-01-12 03:46:54.43	344.54	7.64	-49.5	-71.7	3.8	7.46e-01	0	41	104	0	70	46637
2026-01-12 03:46:56.42	344.21	7.71	-49.5	-71.7	3.8	7.46e-01	0	41	104	0	70	46718
2026-01-12 03:46:58.41	343.87	7.79	-49.5	-71.6	3.8	7.45e-01	0	41	104	0	70	46378
2026-01-12 03:47:00.39	343.53	7.86	-49.5	-71.6	3.8	7.43e-01	0	41	104	0	70	46354
2026-01-12 03:47:02.38	343.19	7.93	-49.6	-71.7	3.8	7.43e-01	0	41	104	0	70	46781
2026-01-12 03:47:04.37	342.85	8.00	-49.6	-71.6	3.8	7.45e-01	0	41	104	0	70	46324
2026-01-12 03:47:06.35	342.51	8.07	-49.5	-71.2	3.8	7.47e-01	0	41	104	0	70	44285
2026-01-12 03:47:08.34	342.16	8.14	-49.6	-71.0	3.8	7.45e-01	0	41	104	0	70	43201
2026-01-12 03:47:10.32	341.81	8.21	-49.5	-70.9	3.8	7.45e-01	0	41	104	0	70	42520
2026-01-12 03:47:12.31	341.46	8.28	-49.5	-70.7	3.8	7.45e-01	0	41	104	0	70	41468
2026-01-12 03:47:14.29	341.11	8.35	-49.5	-70.8	3.8	7.48e-01	0	41	104	0	70	42211
2026-01-12 03:47:16.28	340.76	8.41	-49.6	-71.1	3.8	7.47e-01	0	41	104	0	70	43857
2026-01-12 03:47:18.26	340.40	8.48	-49.6	-71.0	3.8	7.44e-01	0	42	104	0	70	43011
2026-01-12 03:47:20.25	340.05	8.55	-49.6	-71.0	3.8	7.48e-01	0	42	104	0	70	43112
2026-01-12 03:47:22.22	339.69	8.61	-49.6	-71.2	3.8	7.45e-01	0	41	104	0	70	44071
2026-01-12 03:47:24.21	339.33	8.67	-49.6	-71.3	3.8	7.46e-01	0	42	104	0	70	44796
2026-01-12 03:47:26.19	338.97	8.74	-49.5	-68.2	3.9	7.43e-01	0	41	104	0	70	31266
2026-01-12 03:47:28.18	338.60	8.80	-49.5	-65.9	5.1	7.06e-01	0	41	0	0	70	23938
2026-01-12 03:47:30.16	338.24	8.86	-49.4	-63.8	6.7	6.71e-01	0	42	0	2097152	70	18738
2026-01-12 03:47:32.15	337.87	8.92	-49.2	-61.3	9.1	6.29e-01	0	42	0	5767168	70	14075
2026-01-12 03:47:34.13	337.50	8.98	-48.5	-56.6	13.9	6.03e-01	0	41	0	9437184	69	8683
2026-01-12 03:47:36.12	337.13	9.04	-47.2	-52.7	17.8	6.04e-01	0	42	0	13107200	66	6641
2026-01-12 03:47:38.11	336.76	9.10	-46.4	-51.0	19.4	6.05e-01	0	42	0	16777216	64	6091
2026-01-12 03:47:40.13	336.38	9.15	-46.2	-50.6	19.8	6.03e-01	0	42	0	20447232	63	6166
2026-01-12 03:47:42.11	336.01	9.21	-45.5	-49.9	20.5	6.03e-01	0	42	0	24117248	63	5669
2026-01-12 03:47:44.29	335.59	9.27	-45.4	-49.9	20.5	6.01e-01	0	42	0	28311552	62	5997
2026-01-12 03:47:46.47	335.18	9.33	-45.4	-49.9	20.4	6.03e-01	0	42	0	32505856	62	6053
2026-01-12 03:47:48.46	334.79	9.38	-45.8	-49.8	20.6	6.03e-01	0	42	0	36175872	62	5952
2026-01-12 03:47:50.72	334.36	9.44	-46.2	-49.8	20.6	6.01e-01	0	42	0	40370176	63	5636
2026-01-12 03:47:52.70	333.98	9.49	-46.1	-49.8	20.6	6.04e-01	0	42	0	44040192	63	5593
2026-01-12 03:47:54.69	333.59	9.54	-45.9	-49.8	20.6	6.03e-01	0	42	0	47710208	63	5622
2026-01-12 03:47:56.68	333.21	9.59	-46.1	-49.8	20.5	6.02e-01	0	42	0	51380224	63	5643
2026-01-12 03:47:58.67	332.82	9.63	-46.1	-49.7	20.7	6.02e-01	0	41	0	55574528	63	5537
2026-01-12 03:48:00.66	332.43	9.68	-46.0	-49.6	20.8	6.04e-01	0	42	0	59244544	63	5478
2026-01-12 03:48:02.60	332.05	9.72	-45.9	-49.7	20.7	6.06e-01	0	42	0	62914560	63	5570
2026-01-12 03:48:04.62	331.65	9.77	-45.9	-49.8	20.6	6.04e-01	0	42	0	66584576	63	5612
2026-01-12 03:48:06.61	331.25	9.81	-46.0	-49.6	20.8	6.02e-01	0	42	0	70254592	63	5518
2026-01-12 03:48:08.60	330.86	9.85	-46.3	-49.7	20.7	6.02e-01	0	42	0	73924608	63	5535
2026-01-12 03:48:10.59	330.46	9.89	-46.1	-49.6	20.8	6.04e-01	0	42	0	77594624	63	5474
2026-01-12 03:48:12.58	330.06	9.93	-45.9	-49.6	20.8	6.02e-01	0	42	0	81264640	63	5507
2026-01-12 03:48:14.57	329.66	9.97	-46.0	-49.8	20.7	6.03e-01	0	42	0	84934656	63	5602
2026-01-12 03:48:16.56	329.26	10.01	-46.1	-49.7	20.7	6.02e-01	0	42	0	89128960	63	5570
2026-01-12 03:48:18.55	328.86	10.04	-46.4	-49.8	20.6	6.05e-01	0	42	0	92798976	63	5629
2026-01-12 03:48:20.54	328.46	10.08	-46.1	-49.6	20.8	6.02e-01	0	42	0	96468992	63	5507
2026-01-12 03:48:22.53	328.06	10.11	-46.1	-49.8	20.6	6.00e-01	0	42	0	100139008	63	5632
2026-01-12 03:48:24.52	327.65	10.14	-46.0	-49.7	20.8	6.05e-01	0	42	0	103809024	63	5546
2026-01-12 03:48:26.51	327.25	10.17	-46.3	-49.7	20.7	6.03e-01	0	42	0	107479040	63	5588
2026-01-12 03:48:28.50	326.84	10.20	-46.3	-49.8	20.7	6.04e-01	0	42	0	111149056	63	5610
2026-01-12 03:48:30.49	326.44	10.23	-45.7	-49.6	20.8	6.03e-01	0	42	0	114819072	63	5465
2026-01-12 03:48:32.52	326.02	10.26	-45.5	-49.7	20.8	6.04e-01	0	42	0	119013376	62	5867
2026-01-12 03:48:34.51	325.61	10.29	-45.6	-49.6	20.8	6.04e-01	0	42	0	122683392	62	5837
2026-01-12 03:48:36.50	325.20	10.31	-45.7	-49.7	20.7	6.04e-01	0	42	0	126353408	62	5895
2026-01-12 03:48:38.49	324.79	10.33	-45.5	-49.7	20.7	6.02e-01	0	42	0	130023424	62	5878
2026-01-12 03:48:40.48	324.38	10.36	-45.3	-49.6	20.8	6.06e-01	0	42	0	133693440	62	5808
2026-01-12 03:48:42.47	323.97	10.38	-45.3	-49.6	20.7	6.05e-01	0	42	0	137363456	62	5845
2026-01-12 03:48:44.46	323.56	10.40	-45.2	-49.6	20.8	6.03e-01	0	42	0	141033472	62	5805
2026-01-12 03:48:46.45	323.15	10.41	-45.4	-49.6	20.8	6.01e-01	0	42	0	144703488	62	5805
2026-01-12 03:48:48.44	322.73	10.43	-45.9	-49.7	20.7	6.03e-01	0	42	0	148897792	62	5869
2026-01-12 03:48:50.43	322.32	10.44	-46.2	-49.6	20.8	6.04e-01	0	42	0	152567808	63	5499
2026-01-12 03:48:52.42	321.90	10.46	-46.1	-49.6	20.9	6.04e-01	0	42	0	156237824	63	5471
2026-01-12 03:48:54.41	321.49	10.47	-46.2	-49.6	20.8	6.02e-01	0	42	0	159907840	63	5495
2026-01-12 03:48:56.40	321.07	10.48	-46.4	-49.8	20.6	6.04e-01	0	42	0	163577856	63	5622
2026-01-12 03:48:58.39	320.66	10.49	-46.1	-49.8	20.6	6.04e-01	0	42	0	167247872	63	5631
2026-01-12 03:49:00.38	320.24	10.50	-45.5	-49.6	20.8	6.05e-01	0	42	0	170917888	63	5494
2026-01-12 03:49:02.45	319.81	10.51	-45.7	-49.5	20.9	6.05e-01	0	42	0	175112192	63	5424
2026-01-12 03:49:04.43	319.40	10.51	-46.0	-49.5	20.8	6.06e-01	0	42	0	178782208	63	5443
2026-01-12 03:49:06.42	318.98	10.52	-46.0	-49.5	20.9	6.05e-01	0	42	0	182452224	63	5456
2026-01-12 03:49:08.41	318.56	10.52	-46.0	-49.8	20.6	6.04e-01	0	42	0	186122240	63	5602
2026-01-12 03:49:10.40	318.15	10.52	-46.1	-50.0	20.4	6.04e-01	0	42	0	189792256	63	5788
2026-01-12 03:49:12.39	317.73	10.52	-45.9	-49.8	20.7	6.03e-01	0	42	0	193462272	63	5600
2026-01-12 03:49:14.38	317.31	10.52	-45.8	-49.4	21.0	6.02e-01	0	42	0	197132288	63	5365
2026-01-12 03:49:16.37	316.90	10.52	-45.8	-49.3	21.1	6.04e-01	0	42	0	200802304	63	5292
2026-01-12 03:49:18.36	316.48	10.52	-45.8	-49.4	21.0	6.03e-01	0	42	0	204996608	63	5362
2026-01-12 03:49:20.35	316.06	10.51	-46.2	-49.6	20.8	6.03e-01	0	42	0	208666624	63	5514
2026-01-12 03:49:22.35	315.65	10.50	-46.4	-49.7	20.7	6.03e-01	0	42	0	212336640	63	5575
2026-01-12 03:49:24.40	315.22	10.50	-46.3	-49.6	20.8	6.06e-01	0	42	0	216006656	63	5514
2026-01-12 03:49:26.39	314.80	10.49	-46.2	-49.7	20.7	6.06e-01	0	42	0	219676672	63	5540
2026-01-12 03:49:28.38	314.39	10.48	-46.1	-49.3	21.0	6.02e-01	0	42	0	223346688	64	5002
2026-01-12 03:49:30.37	313.97	10.46	-46.0	-49.4	20.9	6.01e-01	0	42	0	227540992	64	5050
2026-01-12 03:49:32.36	313.56	10.45	-46.2	-49.7	20.7	6.04e-01	0	42	0	231211008	63	5546
2026-01-12 03:49:34.35	313.14	10.44	-46.1	-49.8	20.6	6.04e-01	0	42	0	234881024	63	5618
2026-01-12 03:49:36.34	312.73	10.42	-46.1	-49.6	20.8	6.03e-01	0	42	0	238551040	63	5505
2026-01-12 03:49:38.44	312.29	10.40	-46.0	-49.4	20.9	6.06e-01	0	42	0	242221056	63	5385
2026-01-12 03:49:40.43	311.88	10.38	-46.1	-49.8	20.6	6.04e-01	0	42	0	246415360	63	5614
2026-01-12 03:49:42.42	311.47	10.36	-46.4	-50.4	20.1	6.05e-01	0	42	0	250085376	63	5995
2026-01-12 03:49:44.40	311.06	10.34	-46.6	-50.3	20.1	6.02e-01	0	42	0	253755392	63	5972
2026-01-12 03:49:46.39	310.65	10.32	-46.2	-49.9	20.5	6.04e-01	0	42	0	257425408	63	5683
2026-01-12 03:49:48.38	310.24	10.29	-46.5	-50.3	20.1	6.04e-01	0	42	0	261095424	63	5973
2026-01-12 03:49:50.37	309.83	10.27	-46.8	-50.8	19.7	6.03e-01	0	42	0	264765440	64	5933
2026-01-12 03:49:52.36	309.42	10.24	-46.7	-50.3	20.1	6.04e-01	0	42	0	268435456	64	5635
2026-01-12 03:49:54.35	309.01	10.21	-46.4	-49.9	20.4	6.03e-01	0	42	0	272105472	64	5384
2026-01-12 03:49:56.34	308.61	10.18	-46.4	-50.1	20.3	6.05e-01	0	42	0	275775488	64	5471
2026-01-12 03:49:58.40	308.18	10.15	-46.2	-49.9	20.4	6.03e-01	0	42	0	279969792	64	5382
2026-01-12 03:50:00.39	307.78	10.12	-46.0	-49.9	20.4	6.05e-01	0	42	0	283639808	64	5367
2026-01-12 03:50:02.45	307.36	10.09	-46.4	-50.2	20.2	6.05e-01	0	42	0	287309824	64	5547
2026-01-12 03:50:04.45	306.96	10.05	-46.4	-50.3	20.0	6.03e-01	0	42	0	291504128	64	5649
2026-01-12 03:50:06.44	306.55	10.02	-46.3	-50.3	20.0	6.05e-01	0	42	0	294649856	64	5617
2026-01-12 03:50:08.43	306.15	9.98	-46.8	-50.7	19.6	6.04e-01	0	42	0	298844160	64	5902
2026-01-12 03:50:10.68	305.70	9.94	-46.5	-50.4	20.0	6.04e-01	0	42	0	303038464	64	5660
2026-01-12 03:50:12.67	305.30	9.90	-46.7	-50.5	19.9	6.01e-01	0	42	0	306708480	64	5748
2026-01-12 03:50:14.66	304.91	9.86	-47.0	-50.8	19.6	6.02e-01	0	42	0	310378496	64	5924
2026-01-12 03:50:16.64	304.51	9.82	-46.5	-50.1	20.2	6.05e-01	0	42	0	314048512	65	5191
2026-01-12 03:50:18.66	304.11	9.77	-47.1	-50.9	19.4	6.03e-01	0	42	0	317718528	65	5681
2026-01-12 03:50:20.70	303.71	9.73	-46.7	-50.3	20.1	6.02e-01	0	42	0	321912832	64	5602
2026-01-12 03:50:22.75	303.30	9.68	-46.7	-50.3	20.0	6.04e-01	0	42	0	325582848	65	5292
2026-01-12 03:50:24.82	302.90	9.63	-47.3	-51.3	19.0	6.02e-01	0	42	0	329252864	65	5983
2026-01-12 03:50:26.85	302.50	9.58	-46.7	-50.2	20.1	6.04e-01	0	42	0	333447168	65	5251
2026-01-12 03:50:28.87	302.10	9.54	-47.3	-51.2	19.1	6.05e-01	0	42	0	337117184	65	5900
2026-01-12 03:50:31.08	301.68	9.48	-46.6	-50.0	20.3	6.03e-01	0	42	0	341311488	65	5122
2026-01-12 03:50:33.07	301.29	9.43	-47.3	-51.1	19.2	6.02e-01	0	42	0	344981504	65	5829
2026-01-12 03:50:35.08	300.90	9.38	-47.1	-50.8	19.6	6.04e-01	0	42	0	348651520	65	5610
2026-01-12 03:50:37.08	300.52	9.32	-47.3	-51.1	19.2	6.05e-01	0	42	0	352321536	65	5817
2026-01-12 03:50:39.08	300.14	9.27	-47.0	-50.6	19.6	6.06e-01	0	42	0	355991552	65	5528
2026-01-12 03:50:40.99	299.77	9.22	-47.5	-51.5	18.8	6.03e-01	0	42	0	359661568	65	6131
2026-01-12 03:50:42.97	299.40	9.16	-46.9	-50.5	19.8	6.05e-01	0	42	0	363331584	65	5456
2026-01-12 03:50:44.96	299.02	9.11	-47.5	-51.4	18.8	6.03e-01	0	42	0	367001600	66	5710
2026-01-12 03:50:46.96	298.64	9.05	-47.1	-50.8	19.5	6.06e-01	0	42	0	371195904	65	5643
2026-01-12 03:50:48.94	298.27	8.99	-51.5	-68.1	5.6	7.38e-01	0	42	0	374341632	73	26036
2026-01-12 03:50:50.93	297.90	8.93	-52.2	-72.0	3.8	7.47e-01	0	42	104	374341632	74	38284
2026-01-12 03:50:52.92	297.53	8.87	-52.0	-72.2	3.8	7.45e-01	0	42	104	374341632	74	39280
2026-01-12 03:50:54.90	297.17	8.81	-52.4	-72.2	3.8	7.49e-01	0	42	104	374341632	75	37369
2026-01-12 03:50:56.89	296.80	8.75	-52.0	-72.3	3.8	7.44e-01	0	42	104	374341632	75	37579
2026-01-12 03:50:58.88	296.44	8.68	-51.9	-72.3	3.8	7.45e-01	0	42	104	374341632	75	37591
2026-01-12 03:51:00.86	296.08	8.62	-52.2	-72.3	3.8	7.47e-01	0	42	104	374341632	75	37575
2026-01-12 03:51:02.85	295.71	8.56	-51.9	-72.3	3.8	7.46e-01	0	42	104	374341632	75	37629
2026-01-12 03:51:04.83	295.36	8.49	-51.8	-72.3	3.8	7.41e-01	0	42	104	374341632	75	37623
2026-01-12 03:51:06.82	295.00	8.42	-51.8	-72.3	3.8	7.42e-01	0	42	104	374341632	75	37530
2026-01-12 03:51:08.81	294.64	8.36	-52.0	-72.3	3.8	7.45e-01	0	42	104	374341632	75	37446
2026-01-12 03:51:10.79	294.29	8.29	-51.8	-72.2	3.8	7.44e-01	0	42	104	374341632	75	37357
2026-01-12 03:51:12.78	293.94	8.22	-51.8	-72.2	3.8	7.48e-01	0	42	104	374341632	75	37305
2026-01-12 03:51:14.77	293.59	8.15	-51.8	-72.2	3.8	7.48e-01	0	42	104	374341632	75	37354
2026-01-12 03:51:16.75	293.24	8.08	-51.8	-72.2	3.8	7.44e-01	0	42	104	374341632	75	37260
2026-01-12 03:51:18.74	292.90	8.01	-51.8	-72.3	3.8	7.43e-01	0	42	104	374341632	75	37401
2026-01-12 03:51:20.73	292.55	7.94	-51.8	-72.2	3.8	7.50e-01	0	42	104	374341632	75	37347
2026-01-12 03:51:22.72	292.21	7.87	-51.8	-72.2	3.8	7.46e-01	0	42	104	374341632	75	37334
2026-01-12 03:51:24.70	291.87	7.80	-51.8	-72.2	3.8	7.48e-01	0	42	104	374341632	75	37253
2026-01-12 03:51:26.69	291.53	7.72	-51.8	-72.2	3.8	7.48e-01	0	42	104	374341632	75	37312
2026-01-12 03:51:28.67	291.19	7.65	-51.8	-72.2	3.8	7.47e-01	0	42	104	374341632	75	37293
2026-01-12 03:51:30.66	290.86	7.57	-51.8	-72.2	3.8	7.49e-01	0	42	104	374341632	75	37245
2026-01-12 03:51:32.65	290.52	7.50	-51.8	-72.2	3.8	7.50e-01	0	42	104	374341632	75	37159
2026-01-12 03:51:34.63	290.19	7.42	-51.8	-72.2	3.8	7.46e-01	0	42	104	374341632	75	37185
2026-01-12 03:51:36.62	289.86	7.35	-51.8	-72.2	3.8	7.47e-01	0	42	104	374341632	75	37165
2026-01-12 03:51:38.61	289.54	7.27	-51.8	-72.2	3.8	7.48e-01	0	42	104	374341632	75	37161
2026-01-12 03:51:40.60	289.21	7.19	-51.8	-72.2	3.8	7.44e-01	0	42	104	374341632	75	37270
2026-01-12 03:51:42.58	288.89	7.11	-51.8	-72.2	3.8	7.46e-01	0	42	104	374341632	75	37199
2026-01-12 03:51:44.57	288.57	7.04	-51.8	-72.2	3.8	7.46e-01	0	42	104	374341632	75	37180
2026-01-12 03:51:46.56	288.25	6.96	-51.8	-72.2	3.8	7.44e-01	0	42	104	374341632	75	37152
2026-01-12 03:51:48.55	287.93	6.88	-51.8	-72.2	3.8	7.45e-01	0	42	104	374341632	75	37165
2026-01-12 03:51:50.54	287.61	6.80	-51.8	-72.2	3.8	7.46e-01	0	42	104	374341632	75	37182
2026-01-12 03:51:52.52	287.30	6.72	-51.8	-72.2	3.8	7.44e-01	0	42	104	374341632	75	37203
2026-01-12 03:51:54.51	286.99	6.64	-51.8	-72.2	3.8	7.46e-01	0	42	104	374341632	75	37214
2026-01-12 03:51:56.50	286.68	6.55	-51.8	-72.2	3.8	7.45e-01	0	42	104	374341632	75	37100
2026-01-12 03:51:58.48	286.37	6.47	-51.8	-72.2	3.8	7.45e-01	0	42	104	374341632	75	37174
2026-01-12 03:52:00.47	286.06	6.39	-51.8	-72.2	3.8	7.44e-01	0	42	104	374341632	75	37092
2026-01-12 03:52:02.46	285.76	6.31	-51.8	-72.2	3.8	7.51e-01	0	42	104	374341632	75	37200
2026-01-12 03:52:04.44	285.45	6.22	-51.8	-72.2	3.8	7.44e-01	0	42	104	374341632	75	37146
2026-01-12 03:52:06.43	285.15	6.14	-51.8	-72.2	3.8	7.44e-01	0	42	104	374341632	75	37228
2026-01-12 03:52:08.42	284.85	6.06	-51.8	-72.2	3.8	7.43e-01	0	42	104	374341632	75	37253
2026-01-12 03:52:10.41	284.56	5.97	-51.8	-72.2	3.8	7.48e-01	0	42	104	374341632	75	37121
2026-01-12 03:52:12.40	284.26	5.89	-51.8	-72.2	3.8	7.42e-01	0	42	104	374341632	75	37181
2026-01-12 03:52:14.38	283.97	5.80	-51.8	-72.2	3.8	7.48e-01	0	42	104	374341632	75	37125
2026-01-12 03:52:16.37	283.68	5.72	-51.8	-72.2	3.8	7.47e-01	0	42	104	374341632	75	37146
2026-01-12 03:52:18.35	283.39	5.63	-51.8	-72.2	3.8	7.47e-01	0	42	104	374341632	75	37113
2026-01-12 03:52:20.34	283.10	5.54	-51.8	-72.2	3.8	7.43e-01	0	42	104	374341632	75	37159
2026-01-12 03:52:22.33	282.82	5.46	-51.8	-72.2	3.8	7.43e-01	0	42	104	374341632	75	37147
2026-01-12 03:52:24.32	282.53	5.37	-51.8	-72.2	3.8	7.45e-01	0	42	104	374341632	75	37169
2026-01-12 03:52:26.30	282.25	5.29	-51.8	-72.2	3.8	7.47e-01	0	42	104	374341632	75	37163
2026-01-12 03:52:28.29	281.97	5.20	-51.8	-72.2	3.8	7.46e-01	0	42	104	374341632	75	37158
2026-01-12 03:52:30.28	281.69	5.11	-51.8	-72.2	3.8	7.48e-01	0	42	104	374341632	75	37061
2026-01-12 03:52:32.26	281.42	5.02	-51.8	-72.2	3.8	7.47e-01	0	42	104	374341632	75	37115

#Closed at: 2026-01-12 03:52:34
#Recorded file [374 MB]: D:/Data/31040_260112_064550.dat