passes_logs/2026/01/12/T1/T1__20260112_223235_SUOMI_NPP_rec.log

#Pass ID: 20260112_223235_SUOMI NPP
#Satellite: SUOMI NPP
#Configuration: NPP
#almurnet v.1.7.20251203
#Start time: 2026-01-12 22:32:36

#Version: 2.0.20230620
#Station: T1
#Location: 37.570604 lon 55.790049 lat
#TLE: 1 37849U 11061A   26012.28456845  .00000093  00000+0  65163-4 0  9999
#TLE: 2 37849  98.7807 314.3566 0002508  68.3553 291.7890 14.19524725736322

#Time	Az	El	Level	Level2	SNR	BER	BlckErr	Temp	State	Recorded	gain1	gain2
2026-01-12 22:32:36.00	26.44	5.06	-51.6	-67.2	3.8	1.49e+00	0	41	0	0	75	20816
2026-01-12 22:32:38.98	26.65	5.25	-51.6	-67.1	3.8	1.49e+00	0	41	104	0	73	23280
2026-01-12 22:32:41.96	26.87	5.44	-51.6	-67.1	3.8	1.49e+00	0	41	104	0	73	23189
2026-01-12 22:32:44.94	27.09	5.63	-51.6	-67.1	3.8	1.49e+00	0	41	104	0	73	23193
2026-01-12 22:32:47.92	27.31	5.82	-51.6	-67.1	3.8	1.49e+00	0	41	104	0	73	23191
2026-01-12 22:32:50.89	27.54	6.01	-51.6	-67.1	3.8	1.49e+00	0	41	104	0	73	23237
2026-01-12 22:32:53.88	27.76	6.21	-51.6	-67.1	3.8	1.49e+00	0	41	104	0	73	23093
2026-01-12 22:32:56.86	27.99	6.40	-51.6	-67.0	3.8	1.49e+00	0	41	104	0	73	23004
2026-01-12 22:32:59.84	28.23	6.59	-51.6	-67.1	3.8	1.49e+00	0	42	104	0	73	23100
2026-01-12 22:33:02.82	28.46	6.79	-51.6	-67.0	3.8	1.49e+00	0	42	104	0	73	22996
2026-01-12 22:33:05.79	28.70	6.99	-51.6	-67.0	3.8	1.49e+00	0	42	104	0	73	23038
2026-01-12 22:33:08.78	28.95	7.19	-51.6	-67.0	3.8	1.49e+00	0	42	104	0	73	23002
2026-01-12 22:33:11.76	29.19	7.39	-51.6	-67.0	3.8	1.49e+00	0	42	104	0	73	23041
2026-01-12 22:33:14.74	29.44	7.59	-51.6	-67.1	3.8	1.49e+00	0	42	104	0	73	23177
2026-01-12 22:33:17.72	29.69	7.79	-51.6	-67.1	3.8	1.49e+00	0	42	104	0	73	23176
2026-01-12 22:33:20.70	29.95	7.99	-51.6	-67.0	3.8	1.49e+00	0	42	104	0	73	22792
2026-01-12 22:33:23.68	30.21	8.20	-51.6	-66.9	3.8	1.49e+00	0	42	104	0	73	22647
2026-01-12 22:33:26.66	30.47	8.40	-51.6	-66.8	3.8	1.49e+00	0	42	104	0	73	22342
2026-01-12 22:33:29.64	30.74	8.61	-51.6	-67.1	3.8	1.49e+00	0	42	104	0	73	23105
2026-01-12 22:33:32.62	31.00	8.82	-51.6	-66.8	3.8	1.49e+00	0	42	104	0	73	22421
2026-01-12 22:33:35.60	31.28	9.03	-51.5	-66.1	3.8	1.49e+00	0	42	104	0	73	20770
2026-01-12 22:33:38.58	31.55	9.24	-51.7	-65.2	3.9	1.49e+00	0	42	104	0	74	17484
2026-01-12 22:33:41.57	31.84	9.45	-49.6	-54.6	11.3	1.41e-03	0	42	0	4194304	71	6176
2026-01-12 22:33:44.55	32.12	9.66	-49.1	-53.7	12.2	7.45e-04	0	42	0	10485760	70	5884
2026-01-12 22:33:47.53	32.41	9.88	-48.4	-52.6	13.4	6.80e-06	0	42	0	15728640	68	5805
2026-01-12 22:33:50.52	32.70	10.09	-48.4	-52.5	13.5	6.10e-06	0	42	0	20971520	68	5741
2026-01-12 22:33:53.51	33.00	10.31	-48.2	-52.3	13.7	5.30e-06	0	42	0	27262976	68	5617
2026-01-12 22:33:56.49	33.30	10.53	-48.1	-52.1	13.9	3.80e-06	0	42	0	32505856	68	5467
2026-01-12 22:33:59.48	33.61	10.75	-48.3	-52.1	14.0	1.50e-06	0	43	0	37748736	68	5482
2026-01-12 22:34:02.46	33.92	10.97	-48.2	-52.1	13.9	6.10e-06	0	42	0	44040192	68	5486
2026-01-12 22:34:05.44	34.23	11.19	-48.1	-52.0	14.1	7.00e-07	0	43	0	49283072	68	5410
2026-01-12 22:34:08.43	34.55	11.41	-48.1	-51.7	14.3	0.00e+00	0	43	0	54525952	68	5272
2026-01-12 22:34:11.41	34.88	11.64	-48.1	-51.6	14.5	7.00e-07	0	43	0	60817408	68	5179
2026-01-12 22:34:14.39	35.21	11.86	-48.0	-51.5	14.6	7.00e-07	0	43	0	66060288	68	5134
2026-01-12 22:34:17.38	35.54	12.09	-47.6	-51.2	14.7	1.50e-06	0	43	0	71303168	67	5245
2026-01-12 22:34:20.36	35.88	12.32	-47.6	-51.2	14.7	0.00e+00	0	43	0	77594624	67	5242
2026-01-12 22:34:23.34	36.22	12.55	-47.7	-51.3	14.6	0.00e+00	0	43	0	82837504	67	5313
2026-01-12 22:34:26.33	36.57	12.78	-47.7	-51.2	14.7	0.00e+00	0	43	0	88080384	67	5248
2026-01-12 22:34:29.55	36.95	13.03	-47.5	-51.0	14.9	7.00e-07	0	43	0	94371840	67	5137
2026-01-12 22:34:32.39	37.30	13.25	-47.3	-50.7	15.2	0.00e+00	0	43	0	99614720	66	5243
2026-01-12 22:34:35.52	37.68	13.50	-47.6	-51.2	14.7	7.00e-07	0	43	0	105906176	66	5551
2026-01-12 22:34:38.36	38.03	13.72	-47.4	-50.9	15.0	0.00e+00	0	43	0	111149056	66	5387
2026-01-12 22:34:41.48	38.43	13.97	-47.7	-51.2	14.7	0.00e+00	0	43	0	116391936	66	5587
2026-01-12 22:34:44.39	38.80	14.20	-47.8	-51.3	14.7	0.00e+00	0	43	0	122683392	66	5654
2026-01-12 22:34:47.59	39.22	14.46	-47.9	-51.6	14.5	0.00e+00	0	43	0	127926272	66	5799
2026-01-12 22:34:50.43	39.60	14.69	-47.9	-51.3	14.7	7.00e-07	0	43	0	133169152	66	5639
2026-01-12 22:34:53.56	40.02	14.94	-47.9	-51.2	14.8	0.00e+00	0	43	0	139460608	67	5269
2026-01-12 22:34:56.40	40.41	15.18	-47.8	-51.1	14.9	0.00e+00	0	43	0	144703488	67	5195
2026-01-12 22:34:59.53	40.84	15.43	-47.7	-50.9	15.1	0.00e+00	0	43	0	150994944	67	5080
2026-01-12 22:35:02.37	41.24	15.67	-47.4	-50.5	15.5	0.00e+00	0	43	0	156237824	66	5158
2026-01-12 22:35:05.67	41.72	15.94	-47.4	-50.5	15.6	0.00e+00	0	43	0	162529280	66	5113
2026-01-12 22:35:08.52	42.13	16.17	-47.2	-50.2	15.9	0.00e+00	0	43	0	167772160	66	4927
2026-01-12 22:35:11.64	42.59	16.43	-47.1	-50.1	15.9	0.00e+00	0	43	0	173015040	65	5177
2026-01-12 22:35:14.61	43.04	16.68	-47.0	-50.0	16.1	0.00e+00	0	43	0	179306496	65	5108
2026-01-12 22:35:18.17	43.59	16.98	-47.2	-50.2	15.9	0.00e+00	0	43	0	185597952	65	5221
2026-01-12 22:35:21.20	44.06	17.24	-47.3	-50.3	15.8	0.00e+00	0	43	0	190840832	65	5322
2026-01-12 22:35:24.83	44.64	17.54	-47.3	-50.4	15.7	0.00e+00	0	43	0	198180864	65	5373
2026-01-12 22:35:27.73	45.11	17.79	-47.2	-50.2	15.9	0.00e+00	0	43	0	203423744	65	5227
2026-01-12 22:35:31.25	45.69	18.09	-47.0	-49.9	16.1	0.00e+00	0	43	0	209715200	65	5078
2026-01-12 22:35:33.98	46.14	18.32	-46.9	-49.8	16.3	0.00e+00	0	43	0	214958080	65	5002
2026-01-12 22:35:37.47	46.74	18.62	-46.6	-49.4	16.6	0.00e+00	0	43	0	222298112	65	4775
2026-01-12 22:35:40.38	47.24	18.87	-46.6	-49.3	16.6	0.00e+00	0	43	0	227540992	64	5039
2026-01-12 22:35:44.35	47.95	19.21	-46.9	-49.8	16.3	0.00e+00	0	43	0	234881024	64	5282
2026-01-12 22:35:47.34	48.48	19.47	-46.9	-49.8	16.2	0.00e+00	0	43	0	240123904	64	5335
2026-01-12 22:35:50.57	49.08	19.74	-46.7	-49.5	16.5	0.00e+00	0	43	0	246415360	64	5134
2026-01-12 22:35:53.56	49.63	20.00	-46.8	-49.6	16.5	0.00e+00	0	43	0	251658240	64	5205
2026-01-12 22:35:56.54	50.20	20.26	-46.9	-49.8	16.3	0.00e+00	0	43	0	257949696	64	5299
2026-01-12 22:35:59.54	50.78	20.51	-46.7	-49.5	16.6	0.00e+00	0	43	0	263192576	64	5125
2026-01-12 22:36:02.52	51.36	20.77	-46.9	-49.7	16.4	0.00e+00	0	43	0	268435456	64	5266
2026-01-12 22:36:05.51	51.95	21.03	-46.9	-49.8	16.4	0.00e+00	0	43	0	274726912	64	5285
2026-01-12 22:36:08.49	52.56	21.28	-46.7	-49.6	16.6	0.00e+00	0	43	0	279969792	64	5162
2026-01-12 22:36:11.48	53.17	21.54	-46.7	-49.5	16.6	0.00e+00	0	43	0	285212672	64	5117
2026-01-12 22:36:14.46	53.79	21.79	-46.8	-49.6	16.5	0.00e+00	0	43	0	291504128	64	5180
2026-01-12 22:36:17.45	54.43	22.04	-46.7	-49.5	16.6	0.00e+00	0	43	0	296747008	64	5120
2026-01-12 22:36:20.44	55.07	22.30	-46.8	-49.6	16.5	0.00e+00	0	43	0	301989888	64	5197
2026-01-12 22:36:23.42	55.73	22.55	-46.9	-49.7	16.4	0.00e+00	0	43	0	308281344	64	5264
2026-01-12 22:36:26.41	56.39	22.80	-46.7	-49.5	16.6	0.00e+00	0	43	0	313524224	64	5134
2026-01-12 22:36:29.39	57.07	23.04	-46.7	-49.4	16.7	0.00e+00	0	43	0	318767104	64	5090
2026-01-12 22:36:32.46	57.77	23.30	-46.5	-49.2	16.9	0.00e+00	0	43	0	325058560	64	4964
2026-01-12 22:36:35.33	58.44	23.53	-46.8	-49.5	16.6	0.00e+00	0	43	0	330301440	64	5134
2026-01-12 22:36:38.85	59.28	23.82	-47.3	-50.4	15.8	0.00e+00	0	43	0	336592896	65	5346
2026-01-12 22:36:41.55	59.93	24.04	-47.2	-50.1	16.0	0.00e+00	0	43	0	341835776	65	5192
2026-01-12 22:36:44.84	60.73	24.30	-46.8	-49.5	16.6	0.00e+00	0	43	0	348127232	65	4867
2026-01-12 22:36:47.54	61.40	24.51	-46.7	-49.4	16.7	0.00e+00	0	43	0	353370112	65	4781
2026-01-12 22:36:50.84	62.23	24.77	-46.6	-49.4	16.8	0.00e+00	0	43	0	359661568	64	5053
2026-01-12 22:36:53.60	62.94	24.98	-47.3	-50.4	15.8	0.00e+00	0	43	0	364904448	65	5374
2026-01-12 22:36:56.89	63.79	25.23	-46.7	-49.5	16.6	0.00e+00	0	43	0	371195904	65	4839
2026-01-12 22:36:59.62	64.51	25.43	-46.8	-49.6	16.5	0.00e+00	0	43	0	375390208	65	4914
2026-01-12 22:37:02.91	65.38	25.67	-47.9	-51.1	15.1	0.00e+00	0	43	0	381681664	66	5517
2026-01-12 22:37:05.83	66.17	25.88	-47.5	-50.5	15.7	0.00e+00	0	43	0	387973120	66	5151
2026-01-12 22:37:09.18	67.09	26.11	-47.5	-50.6	15.6	0.00e+00	0	43	0	394264576	66	5204
2026-01-12 22:37:12.21	67.93	26.32	-47.9	-51.1	15.1	0.00e+00	0	43	0	399507456	66	5511
2026-01-12 22:37:15.49	68.86	26.54	-48.1	-51.5	14.8	0.00e+00	0	43	0	405798912	66	5744
2026-01-12 22:37:18.21	69.63	26.71	-47.8	-51.1	15.2	0.00e+00	0	43	0	411041792	66	5491
2026-01-12 22:37:21.55	70.60	26.92	-47.8	-51.0	15.3	7.00e-07	0	43	0	417333248	66	5444
2026-01-12 22:37:24.27	71.39	27.09	-48.2	-51.7	14.6	0.00e+00	0	43	0	422576128	67	5566
2026-01-12 22:37:27.55	72.36	27.29	-47.9	-51.2	15.0	1.50e-06	0	43	0	427819008	67	5260
2026-01-12 22:37:30.28	73.17	27.44	-47.3	-50.3	16.0	0.00e+00	0	43	0	433061888	66	4996
2026-01-12 22:37:33.57	74.16	27.62	-48.9	-52.6	13.9	3.00e-06	0	43	0	439353344	68	5825
2026-01-12 22:37:36.31	75.00	27.77	-48.9	-52.7	13.8	1.29e-05	0	43	0	444596224	68	5881
2026-01-12 22:37:39.59	76.01	27.93	-49.5	-54.0	12.5	6.63e-05	0	43	0	450887680	69	6422
2026-01-12 22:37:42.31	76.85	28.06	-49.7	-54.3	12.2	3.65e-04	0	43	0	456130560	70	6281
2026-01-12 22:37:45.65	77.90	28.22	-50.0	-54.7	11.7	4.90e-04	0	43	0	462422016	70	6597
2026-01-12 22:37:48.37	78.76	28.33	-49.7	-54.1	12.2	4.36e-04	0	43	0	467664896	70	6196
2026-01-12 22:37:51.76	79.84	28.47	-49.2	-53.1	13.3	9.10e-06	0	43	0	473956352	70	5495
2026-01-12 22:37:54.74	80.79	28.58	-49.5	-53.8	12.6	1.40e-04	0	43	0	479199232	70	5985
2026-01-12 22:37:57.76	81.77	28.69	-48.8	-52.6	13.8	7.60e-06	0	43	0	484442112	69	5506
2026-01-12 22:38:00.73	82.73	28.78	-49.0	-53.1	13.4	2.28e-05	0	43	0	490733568	69	5816
2026-01-12 22:38:04.27	83.89	28.89	-48.1	-51.6	14.8	0.00e+00	0	43	0	497025024	68	5169
2026-01-12 22:38:06.98	84.78	28.96	-48.4	-52.1	14.4	0.00e+00	0	43	0	502267904	68	5474
2026-01-12 22:38:10.25	85.86	29.03	-47.4	-50.9	15.1	7.00e-07	0	43	0	508559360	67	5050
2026-01-12 22:38:12.98	86.77	29.09	-47.9	-51.4	14.8	0.00e+00	0	43	0	513802240	67	5377
2026-01-12 22:38:16.25	87.85	29.14	-47.8	-51.1	15.1	0.00e+00	0	43	0	519045120	67	5216
2026-01-12 22:38:18.95	88.75	29.18	-47.9	-51.3	14.9	0.00e+00	0	43	0	524288000	67	5323
2026-01-12 22:38:22.50	89.94	29.22	-47.9	-51.2	15.1	0.00e+00	0	43	0	531628032	67	5254
2026-01-12 22:38:25.40	90.91	29.24	-47.7	-50.9	15.3	0.00e+00	0	43	0	536870912	67	5083
2026-01-12 22:38:29.38	92.25	29.25	-49.1	-52.9	13.6	7.60e-06	0	43	0	544210944	69	5694
2026-01-12 22:38:32.23	93.20	29.25	-49.0	-53.0	13.5	9.90e-06	0	43	0	549453824	69	5746
2026-01-12 22:38:36.21	94.54	29.24	-48.0	-51.3	15.1	0.00e+00	0	43	0	556793856	68	5005
2026-01-12 22:38:39.05	95.49	29.22	-48.3	-51.7	14.6	0.00e+00	0	43	0	562036736	67	5568
2026-01-12 22:38:43.03	96.82	29.18	-49.3	-53.3	13.1	2.59e-05	0	43	0	569376768	69	5969
2026-01-12 22:38:45.86	97.77	29.14	-49.3	-53.3	13.2	2.59e-05	0	43	0	574619648	69	5991
2026-01-12 22:38:49.98	99.14	29.06	-49.2	-53.2	13.3	4.50e-06	0	43	0	583008256	69	5868
2026-01-12 22:38:52.82	100.08	29.00	-50.2	-55.2	11.2	1.04e-03	0	43	0	588251136	71	6610
2026-01-12 22:38:56.85	101.41	28.90	-50.1	-54.8	11.7	1.87e-04	0	43	0	595591168	71	6275
2026-01-12 22:38:59.65	102.33	28.82	-50.2	-55.1	11.4	1.88e-03	0	43	0	600834048	71	6505
2026-01-12 22:39:02.92	103.39	28.72	-49.0	-52.8	13.7	7.60e-06	0	43	0	607125504	70	5319
2026-01-12 22:39:05.62	104.27	28.63	-50.1	-55.1	11.4	6.02e-04	0	43	0	612368384	70	6955
2026-01-12 22:39:08.92	105.33	28.51	-49.5	-53.5	13.1	7.70e-05	0	43	0	618659840	70	5788
2026-01-12 22:39:11.86	106.27	28.39	-48.9	-52.7	13.8	3.00e-06	0	43	0	623902720	69	5535
2026-01-12 22:39:15.27	107.35	28.25	-48.5	-52.1	14.4	0.00e+00	0	43	0	630194176	68	5469
2026-01-12 22:39:17.99	108.21	28.13	-48.8	-52.5	14.0	7.00e-07	0	43	0	635437056	68	5724
2026-01-12 22:39:21.27	109.23	27.97	-48.8	-52.5	14.0	0.00e+00	0	43	0	641728512	68	5728
2026-01-12 22:39:23.97	110.07	27.84	-48.6	-52.1	14.4	0.00e+00	0	43	0	646971392	68	5491
2026-01-12 22:39:27.26	111.08	27.66	-48.7	-52.5	14.0	0.00e+00	0	43	0	652214272	68	5764
2026-01-12 22:39:29.97	111.90	27.52	-48.4	-51.9	14.5	0.00e+00	0	43	0	657457152	68	5386
2026-01-12 22:39:33.26	112.89	27.33	-48.9	-52.8	13.7	4.50e-06	0	43	0	663748608	68	5950
2026-01-12 22:39:35.97	113.69	27.17	-48.6	-52.2	14.2	7.00e-07	0	43	0	668991488	68	5584
2026-01-12 22:39:39.24	114.65	26.97	-49.6	-53.9	12.6	3.58e-05	0	43	0	675282944	69	6381
2026-01-12 22:39:41.96	115.45	26.80	-49.7	-54.1	12.4	1.46e-04	0	43	0	680525824	70	6154
2026-01-12 22:39:45.25	116.39	26.59	-48.9	-52.7	13.8	1.50e-06	0	43	0	686817280	69	5539
2026-01-12 22:39:47.96	117.16	26.41	-49.3	-53.3	13.2	2.13e-05	0	43	0	691011584	69	5940
2026-01-12 22:39:51.25	118.08	26.19	-48.6	-52.2	14.4	7.00e-07	0	43	0	697303040	68	5555
2026-01-12 22:39:53.97	118.84	26.00	-49.0	-52.8	13.7	8.30e-06	0	43	0	702545920	68	5983
2026-01-12 22:39:57.25	119.73	25.76	-48.7	-52.2	14.3	1.50e-06	0	43	0	708837376	68	5576
2026-01-12 22:39:59.97	120.46	25.56	-48.8	-52.3	14.1	7.00e-07	0	43	0	714080256	68	5646
2026-01-12 22:40:03.23	121.33	25.32	-48.7	-52.2	14.3	7.00e-07	0	43	0	720371712	68	5557
2026-01-12 22:40:05.93	122.04	25.12	-48.6	-52.1	14.3	7.00e-07	0	43	0	725614592	68	5522
2026-01-12 22:40:09.23	122.89	24.87	-48.7	-52.3	14.1	0.00e+00	0	43	0	730857472	68	5652
2026-01-12 22:40:11.96	123.59	24.66	-47.3	-50.3	15.9	0.00e+00	0	43	0	736100352	66	4992
2026-01-12 22:40:15.44	124.46	24.38	-47.9	-51.1	15.1	0.00e+00	0	43	0	743440384	66	5519
2026-01-12 22:40:18.16	125.14	24.17	-47.6	-50.6	15.5	0.00e+00	0	43	0	747634688	66	5194
2026-01-12 22:40:21.43	125.93	23.90	-47.5	-50.6	15.7	0.00e+00	0	43	0	753926144	66	5189
2026-01-12 22:40:24.34	126.63	23.67	-48.1	-51.5	14.8	7.00e-07	0	43	0	759169024	66	5757
2026-01-12 22:40:28.32	127.57	23.34	-47.0	-49.9	16.3	0.00e+00	0	43	0	767557632	65	5066
2026-01-12 22:40:31.16	128.23	23.11	-48.4	-52.0	14.2	0.00e+00	0	43	0	772800512	67	5755
2026-01-12 22:40:35.14	129.13	22.77	-47.1	-50.0	16.1	0.00e+00	0	43	0	780140544	66	4854
2026-01-12 22:40:37.98	129.77	22.53	-47.0	-49.8	16.3	0.00e+00	0	43	0	785383424	65	5035
2026-01-12 22:40:42.17	130.69	22.18	-46.5	-49.1	17.0	0.00e+00	0	43	0	792723456	64	4916
2026-01-12 22:40:45.13	131.33	21.93	-48.0	-51.4	14.9	0.00e+00	0	43	0	799014912	66	5674
2026-01-12 22:40:48.55	132.05	21.63	-49.3	-53.5	12.8	5.49e-05	0	43	0	805306368	69	6093
2026-01-12 22:40:51.25	132.61	21.40	-48.1	-51.4	15.0	0.00e+00	0	43	0	810549248	68	5044
2026-01-12 22:40:54.60	133.30	21.11	-47.8	-51.2	15.1	0.00e+00	0	43	0	816840704	67	5223
2026-01-12 22:40:57.54	133.89	20.86	-47.2	-50.3	15.8	0.00e+00	0	43	0	822083584	66	5028
2026-01-12 22:41:00.50	134.48	20.60	-46.4	-49.1	17.0	0.00e+00	0	43	0	827326464	64	4891
2026-01-12 22:41:03.49	135.06	20.34	-47.1	-50.1	16.1	0.00e+00	0	43	0	832569344	64	5490
2026-01-12 22:41:06.47	135.63	20.09	-47.4	-50.4	15.7	0.00e+00	0	43	0	838860800	65	5387
2026-01-12 22:41:09.45	136.19	19.83	-47.3	-50.4	15.7	0.00e+00	0	43	0	844103680	65	5377
2026-01-12 22:41:12.44	136.75	19.57	-47.8	-51.1	15.1	0.00e+00	0	43	0	849346560	66	5472
2026-01-12 22:41:15.42	137.29	19.31	-47.3	-50.4	15.7	0.00e+00	0	43	0	855638016	66	5069
2026-01-12 22:41:18.40	137.83	19.05	-46.6	-49.4	16.6	0.00e+00	0	43	0	860880896	65	4790
2026-01-12 22:41:21.42	138.36	18.79	-46.7	-49.5	16.6	0.00e+00	0	43	0	867172352	65	4834
2026-01-12 22:41:24.40	138.88	18.54	-46.9	-49.8	16.3	0.00e+00	0	43	0	872415232	65	5008
2026-01-12 22:41:27.38	139.38	18.28	-46.5	-49.2	16.8	0.00e+00	0	43	0	877658112	64	4971
2026-01-12 22:41:30.37	139.89	18.02	-46.8	-49.6	16.5	0.00e+00	0	43	0	883949568	64	5171
2026-01-12 22:41:33.35	140.38	17.77	-46.8	-49.7	16.4	0.00e+00	0	43	0	889192448	64	5228
2026-01-12 22:41:36.38	140.87	17.51	-46.9	-49.9	16.2	0.00e+00	0	43	0	894435328	64	5341
2026-01-12 22:41:39.49	141.37	17.24	-46.6	-49.5	16.5	0.00e+00	0	43	0	900726784	64	5150
2026-01-12 22:41:42.39	141.83	16.99	-46.5	-49.4	16.6	0.00e+00	0	43	0	905969664	64	5066
2026-01-12 22:41:45.68	142.33	16.72	-46.5	-49.4	16.6	0.00e+00	0	43	0	912261120	64	5054
2026-01-12 22:41:48.49	142.76	16.48	-46.6	-49.6	16.4	0.00e+00	0	43	0	917504000	64	5170
2026-01-12 22:41:51.80	143.26	16.20	-46.7	-49.6	16.4	0.00e+00	0	43	0	923795456	64	5209
2026-01-12 22:41:54.69	143.68	15.96	-46.6	-49.5	16.4	0.00e+00	0	43	0	929038336	64	5147
2026-01-12 22:41:58.23	144.19	15.66	-47.3	-50.4	15.6	0.00e+00	0	43	0	935329792	65	5352
2026-01-12 22:42:00.93	144.58	15.44	-47.8	-51.1	14.9	0.00e+00	0	43	0	940572672	66	5492
2026-01-12 22:42:04.20	145.03	15.17	-48.0	-51.5	14.5	7.00e-07	0	43	0	946864128	66	5747
2026-01-12 22:42:06.93	145.41	14.94	-47.5	-50.7	15.3	0.00e+00	0	43	0	952107008	66	5254
2026-01-12 22:42:10.51	145.89	14.65	-47.4	-50.6	15.4	0.00e+00	0	43	0	958398464	66	5212
2026-01-12 22:42:13.21	146.25	14.43	-47.7	-51.1	14.9	0.00e+00	0	43	0	963641344	66	5480
2026-01-12 22:42:16.48	146.68	14.17	-48.3	-52.1	13.9	0.00e+00	0	43	0	969932800	67	5855
2026-01-12 22:42:19.20	147.03	13.95	-48.6	-52.7	13.3	1.37e-05	0	43	0	975175680	67	6224
2026-01-12 22:42:22.47	147.45	13.68	-48.7	-52.8	13.4	2.44e-05	0	43	0	981467136	68	5928
2026-01-12 22:42:25.21	147.79	13.46	-48.5	-52.3	13.8	9.90e-06	0	43	0	986710016	68	5596
2026-01-12 22:42:28.48	148.19	13.20	-48.4	-52.2	13.9	3.00e-06	0	43	0	991952896	68	5565
2026-01-12 22:42:31.21	148.52	12.99	-48.3	-52.2	13.9	4.50e-06	0	43	0	997195776	68	5533
2026-01-12 22:42:34.84	148.95	12.70	-48.3	-52.1	14.1	0.00e+00	0	43	0	1004535808	68	5470
2026-01-12 22:42:37.69	149.29	12.48	-48.0	-51.6	14.3	0.00e+00	0	43	0	1009778688	67	5468
2026-01-12 22:42:41.67	149.75	12.17	-47.6	-50.9	15.0	0.00e+00	0	43	0	1017118720	67	5064
2026-01-12 22:42:44.62	150.08	11.94	-47.5	-50.8	15.1	0.00e+00	0	44	0	1022361600	66	5325
2026-01-12 22:42:48.34	150.49	11.66	-48.0	-51.8	14.1	1.50e-06	0	43	0	1029701632	66	5936
2026-01-12 22:42:51.07	150.79	11.45	-48.4	-52.3	13.5	9.90e-06	0	43	0	1034944512	67	5974
2026-01-12 22:42:54.34	151.14	11.20	-48.3	-52.2	13.6	1.83e-05	0	43	0	1041235968	67	5878
2026-01-12 22:42:57.04	151.43	11.00	-48.3	-52.2	13.7	1.29e-05	0	44	0	1046478848	67	5869
2026-01-12 22:43:00.31	151.77	10.76	-48.0	-51.9	13.9	9.10e-06	0	43	0	1051721728	67	5662
2026-01-12 22:43:03.06	152.06	10.55	-48.0	-51.8	14.0	2.20e-06	0	43	0	1056964608	67	5626
2026-01-12 22:43:06.35	152.39	10.31	-48.1	-52.0	13.8	1.50e-06	0	43	0	1063256064	67	5752
2026-01-12 22:43:09.06	152.66	10.11	-48.3	-52.3	13.5	6.10e-06	0	43	0	1068498944	67	5928
2026-01-12 22:43:12.33	152.98	9.87	-48.4	-52.7	13.1	2.21e-05	0	43	0	1074790400	67	6210
2026-01-12 22:43:15.06	153.25	9.67	-48.3	-52.4	13.3	1.75e-05	0	44	0	1080033280	67	6046
2026-01-12 22:43:18.34	153.56	9.43	-48.2	-52.1	13.6	1.67e-05	0	43	0	1086324736	67	5835
2026-01-12 22:43:21.19	153.83	9.23	-47.9	-51.6	14.1	6.10e-06	0	43	0	1091567616	67	5519
2026-01-12 22:43:24.60	154.15	8.99	-48.6	-52.7	13.2	7.00e-07	0	43	0	1097859072	67	6259
2026-01-12 22:43:27.33	154.40	8.79	-52.4	-67.5	3.8	1.49e+00	0	43	104	1097859072	75	21750
2026-01-12 22:43:30.59	154.70	8.56	-52.5	-67.8	3.8	1.49e+00	0	43	104	1097859072	75	22386
2026-01-12 22:43:33.32	154.94	8.37	-52.7	-67.9	3.8	1.49e+00	0	43	104	1097859072	76	21329
2026-01-12 22:43:36.66	155.23	8.14	-52.9	-68.0	3.8	1.49e+00	0	43	104	1097859072	76	21623
2026-01-12 22:43:39.42	155.47	7.95	-52.8	-68.0	3.8	1.49e+00	0	43	104	1097859072	76	21623
2026-01-12 22:43:42.81	155.76	7.71	-53.0	-68.0	3.8	1.49e+00	0	43	104	1097859072	76	21600
2026-01-12 22:43:45.57	156.00	7.52	-52.9	-68.0	3.8	1.49e+00	0	43	104	1097859072	76	21704
2026-01-12 22:43:48.84	156.27	7.30	-52.7	-67.9	3.8	1.49e+00	0	43	104	1097859072	76	21469
2026-01-12 22:43:51.55	156.49	7.12	-52.7	-67.9	3.8	1.49e+00	0	43	104	1097859072	76	21495
2026-01-12 22:43:54.81	156.76	6.90	-52.7	-68.0	3.8	1.49e+00	0	43	104	1097859072	76	21544
2026-01-12 22:43:57.51	156.97	6.72	-52.7	-67.9	3.8	1.49e+00	0	43	104	1097859072	76	21430
2026-01-12 22:44:00.79	157.23	6.50	-52.7	-67.9	3.8	1.49e+00	0	43	104	1097859072	76	21494
2026-01-12 22:44:03.50	157.44	6.32	-52.7	-68.0	3.8	1.49e+00	0	43	104	1097859072	76	21563
2026-01-12 22:44:06.76	157.69	6.11	-52.7	-68.0	3.8	1.49e+00	0	43	104	1097859072	76	21525
2026-01-12 22:44:09.47	157.90	5.93	-52.7	-67.9	3.8	1.49e+00	0	43	104	1097859072	76	21499
2026-01-12 22:44:12.75	158.14	5.72	-52.7	-67.9	3.8	1.49e+00	0	43	104	1097859072	76	21496
2026-01-12 22:44:15.46	158.35	5.54	-52.7	-67.9	3.8	1.49e+00	0	43	104	1097859072	76	21465
2026-01-12 22:44:18.73	158.58	5.33	-52.7	-67.9	3.8	1.49e+00	0	43	104	1097859072	76	21424
2026-01-12 22:44:21.44	158.78	5.16	-52.7	-67.9	3.8	1.49e+00	0	43	104	1097859072	76	21445
2026-01-12 22:44:24.70	159.01	4.95	-52.7	-67.9	3.8	1.49e+00	0	43	104	1097859072	76	21399

#Closed at: 2026-01-12 22:44:25
#Recorded file [1097 MB]: D:/Data/31040_260113_013235.dat