passes_logs/2025/01/24/XPeterburg/XPeterburg__20250124_012434_AQUA_rec.log

#Pass ID: 20250124_012434_AQUA
#Satellite: AQUA
#Configuration: AQUA
#Start time: 2025-01-24 01:24:30

#Version: 1.5.20200625
#Station: XPeterburg
#Location: 30.318091 lon 59.932769 lat
#TLE: 1 27424U 02022A   25023.15678538  .00002763  00000+0  57649-3 0  9991
#TLE: 2 27424  98.3595 339.8952 0002021 102.7451 314.1414 14.60725381208818

#Time	Az	El	Level	Level2	SNR	BER	Gain	Gain2
2025-01-24 01:24:30.25	20.74	67.61	-35.5	-44.3	3.3	7696380	89	1643
2025-01-24 01:24:30.65	20.77	67.83	-35.2	-53.2	3.5	7574768	73	4752
2025-01-24 01:24:31.05	20.80	68.04	-35.5	-45.8	3.4	7586975	88	1959
2025-01-24 01:24:31.46	20.83	68.27	-35.5	-46.3	3.5	7581024	88	2073
2025-01-24 01:24:31.86	20.86	68.49	-35.4	-45.5	3.4	7609100	88	1901
2025-01-24 01:24:32.26	20.89	68.71	-35.4	-45.6	3.5	7552642	88	1932
2025-01-24 01:24:32.66	20.92	68.93	-35.3	-43.8	3.5	7637634	88	1605
2025-01-24 01:24:33.06	20.95	69.15	-35.1	-43.0	3.6	7552642	88	1482
2025-01-24 01:24:33.47	20.98	69.38	-34.8	-40.7	4.8	7210693	88	1176
2025-01-24 01:24:33.87	21.01	69.60	-34.5	-39.0	5.9	6951751	87	1008
2025-01-24 01:24:34.27	21.04	69.82	-33.8	-37.2	7.1	6706237	86	885
2025-01-24 01:24:34.67	21.08	70.04	-33.6	-36.7	8.0	6561126	85	858
2025-01-24 01:24:35.07	21.11	70.27	-33.1	-35.8	8.9	6440429	84	818
2025-01-24 01:24:35.47	21.15	70.49	-32.7	-35.2	9.9	6279907	83	792
2025-01-24 01:24:35.88	21.18	70.72	-32.5	-34.5	10.6	6212310	83	752
2025-01-24 01:24:36.28	21.22	70.95	-32.5	-34.6	10.5	6222839	83	764
2025-01-24 01:24:36.68	21.26	71.17	-32.4	-34.4	10.6	6222534	83	748
2025-01-24 01:24:37.08	21.30	71.40	-32.2	-34.2	11.2	6148071	82	746
2025-01-24 01:24:37.48	21.34	71.62	-32.0	-33.6	11.7	6140747	82	718
2025-01-24 01:24:37.88	21.38	71.85	-32.0	-33.7	11.7	6147460	82	724
2025-01-24 01:24:38.29	21.42	72.09	-32.4	-34.6	11.3	6147918	82	770
2025-01-24 01:24:38.69	21.46	72.31	-32.4	-34.7	11.3	6179199	82	778
2025-01-24 01:24:39.09	21.51	72.54	-32.5	-34.9	11.4	6180877	82	789
2025-01-24 01:24:39.49	21.55	72.77	-32.4	-34.6	11.7	6163787	82	771
2025-01-24 01:24:39.89	21.60	73.00	-32.3	-34.4	11.8	6160430	82	763
2025-01-24 01:24:40.30	21.65	73.24	-32.3	-34.4	11.9	6149444	82	759
2025-01-24 01:24:40.70	21.70	73.47	-32.3	-34.4	12.0	6134338	82	761
2025-01-24 01:24:41.10	21.75	73.70	-32.4	-34.6	11.8	6143646	82	772
2025-01-24 01:24:41.50	21.80	73.93	-32.5	-34.9	11.6	6175537	82	787
2025-01-24 01:24:41.90	21.85	74.16	-32.2	-34.2	12.1	6122436	82	746
2025-01-24 01:24:42.31	21.91	74.40	-32.0	-33.5	12.4	6123657	82	713
2025-01-24 01:24:42.71	21.97	74.63	-32.0	-33.4	12.5	6113128	82	706
2025-01-24 01:24:43.11	22.03	74.87	-32.2	-34.1	11.9	6145172	82	743
2025-01-24 01:24:43.51	22.09	75.10	-32.3	-34.3	11.6	6145477	82	754
2025-01-24 01:24:43.91	22.15	75.33	-32.3	-34.2	11.7	6159973	82	742
2025-01-24 01:24:44.32	22.22	75.57	-32.3	-34.1	11.8	6156158	82	739
2025-01-24 01:24:44.72	22.28	75.81	-32.2	-34.0	11.8	6145477	82	735
2025-01-24 01:24:45.12	22.35	76.04	-31.9	-33.2	12.4	6140747	82	691
2025-01-24 01:24:45.52	22.42	76.28	-31.8	-33.0	12.7	6109313	82	684
2025-01-24 01:24:45.93	22.50	76.52	-31.9	-33.2	12.6	6110992	82	691
2025-01-24 01:24:46.33	22.58	76.76	-31.9	-33.3	12.6	6104125	82	698
2025-01-24 01:24:46.73	22.66	77.00	-31.8	-33.5	12.8	6121215	81	723
2025-01-24 01:24:47.13	22.74	77.23	-31.6	-32.9	13.1	6103973	81	693
2025-01-24 01:24:47.53	22.82	77.47	-31.7	-33.1	13.1	6104125	81	702
2025-01-24 01:24:47.94	22.92	77.71	-31.5	-32.7	13.3	6096649	81	683
2025-01-24 01:24:48.34	23.01	77.95	-31.4	-32.4	13.6	6071166	81	673
2025-01-24 01:24:48.74	23.10	78.19	-31.3	-32.3	13.7	6064910	81	667
2025-01-24 01:24:49.14	23.21	78.43	-31.5	-32.8	13.5	6055450	81	691
2025-01-24 01:24:49.54	23.31	78.67	-31.7	-33.2	13.2	6081848	81	710
2025-01-24 01:24:49.95	23.42	78.92	-31.7	-33.1	13.3	6088714	81	702
2025-01-24 01:24:50.35	23.54	79.16	-31.3	-32.1	13.9	6067962	81	657
2025-01-24 01:24:50.75	23.66	79.40	-30.8	-31.5	14.8	6047363	80	648
2025-01-24 01:24:51.15	23.78	79.64	-30.4	-31.0	15.1	6031646	79	643
2025-01-24 01:24:51.55	23.91	79.88	-30.3	-30.8	15.2	6016540	79	636
2025-01-24 01:24:51.96	24.06	80.12	-30.6	-32.0	15.0	6054229	78	704
2025-01-24 01:24:52.36	24.20	80.36	-30.7	-32.2	14.8	6054229	78	714
2025-01-24 01:24:52.76	24.35	80.61	-30.3	-31.3	15.3	6027069	78	673
2025-01-24 01:24:53.16	24.51	80.85	-29.7	-30.5	16.2	6033935	77	653
2025-01-24 01:24:53.56	24.68	81.09	-29.6	-30.2	16.4	6027984	77	644
2025-01-24 01:24:53.97	24.87	81.34	-29.8	-30.7	16.1	6041412	77	665
2025-01-24 01:24:54.37	25.06	81.58	-29.9	-31.0	15.8	6043853	77	676
2025-01-24 01:24:54.77	25.26	81.82	-29.9	-31.0	15.8	6036071	77	677
2025-01-24 01:24:55.17	25.47	82.07	-29.7	-30.6	16.0	6051177	77	659
2025-01-24 01:24:55.58	25.70	82.31	-29.6	-30.2	16.2	6041412	77	644
2025-01-24 01:24:55.98	25.94	82.56	-29.4	-29.9	16.4	6041107	77	630
2025-01-24 01:24:56.38	26.20	82.80	-29.2	-29.9	16.7	6031341	76	645
2025-01-24 01:24:56.78	26.48	83.04	-29.1	-29.7	16.7	6037902	76	637
2025-01-24 01:24:57.18	26.77	83.29	-29.4	-30.3	16.3	6044464	76	662
2025-01-24 01:24:57.59	27.10	83.53	-29.2	-29.8	16.5	6037902	76	640
2025-01-24 01:24:57.99	27.45	83.78	-28.8	-29.0	17.0	6034698	76	610
2025-01-24 01:24:58.39	27.82	84.02	-28.6	-29.0	17.2	6045532	75	626
2025-01-24 01:24:58.79	28.22	84.26	-28.6	-29.1	17.1	6026458	75	629
2025-01-24 01:24:59.19	28.66	84.51	-28.4	-28.7	17.2	6022033	75	615
2025-01-24 01:24:59.60	29.15	84.76	-28.4	-28.7	17.2	6048889	75	613
2025-01-24 01:25:00.00	29.68	85.00	-28.6	-29.0	17.0	6040039	75	627
2025-01-24 01:25:00.40	30.26	85.24	-28.7	-29.3	16.8	6027832	75	639
2025-01-24 01:25:00.80	30.91	85.48	-28.7	-29.3	16.9	6042785	75	639
2025-01-24 01:25:01.20	31.63	85.72	-28.7	-29.2	17.0	6016845	75	634
2025-01-24 01:25:01.61	32.45	85.97	-28.4	-28.5	17.4	6031646	75	607
2025-01-24 01:25:02.01	33.36	86.21	-28.3	-28.3	17.6	6048736	75	598
2025-01-24 01:25:02.41	34.39	86.45	-28.3	-28.8	17.6	6039581	74	634
2025-01-24 01:25:02.81	35.57	86.69	-28.4	-29.2	17.4	6020965	74	649
2025-01-24 01:25:03.22	36.97	86.93	-28.5	-29.4	17.3	6021423	74	659
2025-01-24 01:25:03.62	38.56	87.16	-28.5	-29.3	17.4	6030426	74	654
2025-01-24 01:25:04.02	40.44	87.39	-28.3	-28.8	17.7	6048889	74	636
2025-01-24 01:25:04.42	42.68	87.62	-28.1	-28.5	17.9	6040344	74	622
2025-01-24 01:25:04.82	45.39	87.85	-28.0	-28.3	18.0	6044006	74	615
2025-01-24 01:25:05.22	48.72	88.06	-27.9	-28.1	18.2	6022186	74	606
2025-01-24 01:25:05.63	53.00	88.28	-28.0	-28.1	18.0	6018676	74	609
2025-01-24 01:25:06.03	58.31	88.48	-28.0	-28.2	17.8	6036682	74	613
2025-01-24 01:25:06.43	65.13	88.66	-28.2	-28.8	17.8	6029205	74	634
2025-01-24 01:25:06.83	73.91	88.82	-28.1	-28.4	17.9	6026306	74	621
2025-01-24 01:25:07.23	85.01	88.94	-28.2	-28.7	17.8	6052398	74	632
2025-01-24 01:25:07.64	98.68	89.01	-27.8	-27.7	18.4	6023712	74	594
2025-01-24 01:25:08.04	113.19	89.02	-27.4	-27.4	18.6	6002349	73	598
2025-01-24 01:25:08.44	127.12	88.97	-27.5	-27.6	18.8	6037292	73	605
2025-01-24 01:25:08.84	139.13	88.87	-27.5	-27.6	18.8	6033020	73	605
2025-01-24 01:25:09.24	148.77	88.72	-27.6	-27.9	18.5	6022491	73	615
2025-01-24 01:25:09.65	156.45	88.54	-27.7	-28.1	18.5	6053009	73	624
2025-01-24 01:25:10.05	162.25	88.35	-27.4	-27.5	18.7	6023559	73	602
2025-01-24 01:25:10.45	166.80	88.15	-27.7	-28.1	18.6	6048736	73	624
2025-01-24 01:25:10.85	170.42	87.93	-27.7	-28.2	18.3	6031036	73	627
2025-01-24 01:25:11.26	173.41	87.70	-27.6	-27.9	18.5	6038970	73	617
2025-01-24 01:25:11.66	175.81	87.48	-27.9	-28.4	18.2	6043701	73	634
2025-01-24 01:25:12.06	177.80	87.24	-28.0	-28.7	18.0	6055450	73	646
2025-01-24 01:25:12.46	179.49	87.01	-28.2	-29.1	17.8	6044006	73	665
2025-01-24 01:25:12.86	180.93	86.78	-28.5	-29.7	17.4	6033782	73	686
2025-01-24 01:25:13.27	182.20	86.53	-29.0	-30.4	16.8	6032714	74	699
2025-01-24 01:25:13.67	183.28	86.29	-29.2	-30.3	16.3	6012725	75	676
2025-01-24 01:25:14.07	184.23	86.05	-29.1	-30.1	16.5	6023864	75	667
2025-01-24 01:25:14.47	185.07	85.81	-29.5	-31.0	16.0	6054840	75	708
2025-01-24 01:25:14.87	185.82	85.57	-29.7	-30.8	16.0	6030120	76	682
2025-01-24 01:25:15.28	186.51	85.33	-29.9	-31.3	15.8	6039428	76	702
2025-01-24 01:25:15.68	187.11	85.08	-30.0	-31.1	15.5	6037139	77	678
2025-01-24 01:25:16.08	187.66	84.84	-30.2	-31.5	15.3	6051788	77	694
2025-01-24 01:25:16.48	188.16	84.60	-30.3	-31.7	15.3	6034851	77	704
2025-01-24 01:25:16.89	188.62	84.35	-30.6	-32.0	14.7	6058959	78	703
2025-01-24 01:25:17.29	189.04	84.11	-30.8	-32.3	14.5	6064453	78	715
2025-01-24 01:25:17.69	189.42	83.86	-31.0	-32.8	14.2	6061706	78	739
2025-01-24 01:25:18.09	189.77	83.62	-31.0	-32.5	14.1	6064147	79	709
2025-01-24 01:25:18.49	190.10	83.38	-30.9	-32.3	14.2	6062469	79	696
2025-01-24 01:25:18.90	190.41	83.13	-30.7	-31.7	14.6	6067199	79	669
2025-01-24 01:25:19.30	190.70	82.88	-30.7	-31.6	14.7	6042175	79	669
2025-01-24 01:25:19.70	190.96	82.64	-31.1	-32.7	14.1	6057739	79	723
2025-01-24 01:25:20.10	191.21	82.40	-31.1	-32.6	14.2	6059112	79	717
2025-01-24 01:25:20.51	191.45	82.15	-30.7	-31.7	14.7	6055755	79	671
2025-01-24 01:25:20.91	191.66	81.91	-30.7	-31.8	14.8	6049957	79	677
2025-01-24 01:25:21.31	191.87	81.66	-30.8	-32.0	14.7	6058502	79	690
2025-01-24 01:25:21.71	192.06	81.42	-31.0	-32.4	14.5	6069183	79	709
2025-01-24 01:25:22.11	192.25	81.18	-31.0	-32.5	14.5	6050720	79	710
2025-01-24 01:25:22.52	192.42	80.93	-30.9	-32.2	14.6	6047210	79	700
2025-01-24 01:25:22.92	192.59	80.69	-30.6	-31.7	15.0	6028900	79	673
2025-01-24 01:25:23.32	192.74	80.45	-30.7	-31.9	14.8	6070556	79	682
2025-01-24 01:25:23.72	192.89	80.20	-31.0	-32.6	14.4	6048126	79	716
2025-01-24 01:25:24.13	193.03	79.96	-31.4	-33.5	13.8	6077117	79	764
2025-01-24 01:25:24.53	193.17	79.72	-31.9	-34.3	13.3	6083679	80	782
2025-01-24 01:25:24.93	193.29	79.48	-32.0	-34.0	12.9	6088562	81	753
2025-01-24 01:25:25.33	193.42	79.23	-31.8	-33.4	13.2	6086425	81	718
2025-01-24 01:25:25.73	193.53	78.99	-31.6	-33.0	13.4	6097869	81	702
2025-01-24 01:25:26.13	193.64	78.75	-31.8	-33.3	13.3	6082916	81	714
2025-01-24 01:25:26.54	193.75	78.51	-32.0	-33.9	12.9	6084594	81	743
2025-01-24 01:25:26.94	193.85	78.27	-32.2	-34.5	12.5	6128234	81	774
2025-01-24 01:25:27.34	193.95	78.03	-32.5	-34.9	11.9	6134185	82	781
2025-01-24 01:25:27.74	194.05	77.79	-32.7	-35.2	11.5	6156768	82	799
2025-01-24 01:25:28.15	194.14	77.55	-32.6	-35.1	11.6	6148529	82	792
2025-01-24 01:25:28.55	194.23	77.31	-32.5	-34.8	11.7	6134948	82	774
2025-01-24 01:25:28.95	194.31	77.07	-32.5	-34.7	11.7	6164245	82	768
2025-01-24 01:25:29.35	194.39	76.83	-32.5	-34.5	11.6	6138000	82	758
2025-01-24 01:25:29.75	194.47	76.60	-32.5	-34.7	11.5	6162567	82	769
2025-01-24 01:25:30.16	194.55	76.35	-32.8	-35.4	10.9	6206970	82	807
2025-01-24 01:25:30.56	194.62	76.12	-33.0	-35.4	10.5	6249389	83	792
2025-01-24 01:25:30.96	194.69	75.88	-33.3	-36.4	9.7	6311645	83	858
2025-01-24 01:25:31.36	194.76	75.65	-33.3	-36.3	9.8	6304779	83	848
2025-01-24 01:25:31.76	194.82	75.41	-33.2	-36.1	10.0	6262969	83	833
2025-01-24 01:25:32.17	194.89	75.17	-32.7	-34.8	11.0	6179351	83	758
2025-01-24 01:25:32.57	194.95	74.94	-32.6	-34.4	11.4	6189117	83	738
2025-01-24 01:25:32.97	195.01	74.70	-32.5	-34.3	11.5	6154937	83	733
2025-01-24 01:25:33.37	195.06	74.47	-32.6	-34.7	11.5	6173553	83	754
2025-01-24 01:25:33.77	195.12	74.24	-33.1	-36.1	10.5	6226043	83	841
2025-01-24 01:25:34.18	195.18	74.00	-33.2	-36.5	10.1	6263732	83	871
2025-01-24 01:25:34.58	195.23	73.77	-33.0	-35.9	10.5	6207580	83	828
2025-01-24 01:25:34.98	195.28	73.54	-32.9	-35.4	10.9	6223754	83	804
2025-01-24 01:25:35.38	195.33	73.30	-32.7	-35.0	11.3	6189575	83	781
2025-01-24 01:25:35.79	195.38	73.07	-32.8	-35.4	11.0	6229400	83	805
2025-01-24 01:25:36.19	195.43	72.84	-32.8	-35.2	11.1	6179809	83	788
2025-01-24 01:25:36.59	195.47	72.61	-32.8	-35.2	10.9	6218414	83	792
2025-01-24 01:25:36.99	195.52	72.38	-32.7	-34.9	10.9	6219482	83	772
2025-01-24 01:25:37.39	195.56	72.15	-32.4	-34.1	11.4	6155242	83	726
2025-01-24 01:25:37.79	195.60	71.92	-32.5	-34.3	11.1	6192169	83	738
2025-01-24 01:25:38.20	195.64	71.69	-32.6	-34.7	10.8	6216888	83	757
2025-01-24 01:25:38.60	195.68	71.46	-32.8	-35.3	10.3	6263427	83	797
2025-01-24 01:25:39.00	195.72	71.23	-32.9	-35.7	10.1	6284027	83	820
2025-01-24 01:25:39.40	195.76	71.01	-32.8	-35.4	10.3	6253814	83	802
2025-01-24 01:25:39.80	195.80	70.78	-32.9	-35.5	10.2	6275939	83	809
2025-01-24 01:25:40.21	195.83	70.55	-35.5	-44.2	6.5	7371063	87	1623

#Closed at: 2025-01-24 01:25:40