passes_logs/2025/01/24/XPeterburg/XPeterburg__20250124_185944_FENGYUN_3F_rec.log

#Pass ID: 20250124_185944_FENGYUN 3F
#Satellite: FENGYUN 3F
#Configuration: FENGYUN 3F
#Start time: 2025-01-24 18:59:40

#Version: 1.5.20200625
#Station: XPeterburg
#Location: 30.318091 lon 59.932769 lat
#TLE: 1 57490U 23111A   25024.14571121  .00000257  00000+0  14171-3 0  9998
#TLE: 2 57490  98.7449  96.9773 0001486 130.6494 229.4811 14.19981450 76625

#Time	Az	El	Level	Level2	SNR	BER	Gain	Gain2
2025-01-24 18:59:40.48	130.55	68.36	-39.5	-41.6	3.3	8374614	97	6293
2025-01-24 18:59:40.88	130.30	68.53	-39.1	-53.6	3.5	8207942	73	26272
2025-01-24 18:59:41.28	130.06	68.69	-39.6	-42.2	3.3	8420230	96	6658
2025-01-24 18:59:41.68	129.80	68.85	-39.7	-43.4	1.9	8355354	97	7561
2025-01-24 18:59:42.08	129.55	69.01	-39.6	-41.5	3.3	8411224	97	6160
2025-01-24 18:59:42.48	129.28	69.18	-39.3	-42.1	3.6	8371536	97	6833
2025-01-24 18:59:42.89	129.01	69.34	-39.0	-40.3	3.4	8441654	96	5710
2025-01-24 18:59:43.29	128.74	69.50	-38.7	-41.2	3.6	8388828	95	6608
2025-01-24 18:59:43.69	128.46	69.67	-38.4	-39.1	3.7	8401485	95	5318
2025-01-24 18:59:44.09	128.18	69.83	-38.3	-38.7	3.7	8350238	95	5166
2025-01-24 18:59:44.49	127.90	69.99	-38.3	-38.8	3.7	8350353	95	5199
2025-01-24 18:59:44.90	127.60	70.15	-37.9	-39.8	3.7	8352642	94	6085
2025-01-24 18:59:45.30	127.31	70.31	-37.7	-38.1	4.0	8323734	93	5140
2025-01-24 18:59:45.70	127.01	70.48	-37.5	-37.7	4.1	8207725	93	4986
2025-01-24 18:59:46.10	126.70	70.64	-37.4	-37.3	4.3	8088558	93	4853
2025-01-24 18:59:46.51	126.38	70.80	-37.5	-37.7	4.2	8122421	93	4993
2025-01-24 18:59:46.91	126.07	70.96	-37.6	-37.8	4.1	8177753	93	5013
2025-01-24 18:59:47.31	125.74	71.12	-37.4	-37.3	4.3	8137081	93	4830
2025-01-24 18:59:47.71	125.41	71.28	-37.4	-37.2	4.3	8132194	93	4809
2025-01-24 18:59:48.11	125.08	71.44	-37.4	-37.1	4.3	8095298	93	4771
2025-01-24 18:59:48.52	124.73	71.60	-37.3	-36.9	4.3	8090297	93	4686
2025-01-24 18:59:48.92	124.38	71.76	-37.2	-37.3	4.4	8025272	92	4930
2025-01-24 18:59:49.32	124.03	71.92	-37.1	-37.0	4.4	7983947	92	4823
2025-01-24 18:59:49.72	123.67	72.07	-37.0	-36.6	4.5	7951274	92	4691
2025-01-24 18:59:50.12	123.30	72.23	-37.1	-36.7	4.5	7892475	92	4695
2025-01-24 18:59:50.53	122.92	72.39	-37.4	-37.3	4.3	8010452	92	4915
2025-01-24 18:59:50.93	122.54	72.55	-37.6	-38.0	4.1	8187767	92	5129
2025-01-24 18:59:51.33	122.15	72.70	-37.6	-38.0	4.1	8243328	92	5163
2025-01-24 18:59:51.73	121.76	72.86	-37.3	-37.1	4.4	8176631	92	4825
2025-01-24 18:59:52.13	121.35	73.01	-37.1	-36.7	4.5	8020545	92	4689
2025-01-24 18:59:52.54	120.93	73.17	-37.1	-36.8	4.5	7905109	92	4728
2025-01-24 18:59:52.94	120.51	73.32	-37.2	-37.1	4.4	8029426	92	4852
2025-01-24 18:59:53.34	120.08	73.47	-37.2	-37.0	4.4	8038421	92	4804
2025-01-24 18:59:53.74	119.65	73.62	-37.4	-37.4	4.3	7991054	92	4952
2025-01-24 18:59:54.14	119.21	73.77	-37.4	-37.6	4.3	8096477	92	5003
2025-01-24 18:59:54.55	118.74	73.93	-37.4	-37.6	4.3	8024185	92	5027
2025-01-24 18:59:54.95	118.28	74.08	-37.3	-37.3	4.4	7942279	92	4932
2025-01-24 18:59:55.35	117.81	74.22	-37.3	-37.3	4.5	7959800	92	4937
2025-01-24 18:59:55.75	117.33	74.37	-37.4	-37.6	4.4	7952888	92	5028
2025-01-24 18:59:56.15	116.84	74.52	-37.5	-37.9	4.3	8038272	92	5169
2025-01-24 18:59:56.56	116.33	74.67	-37.6	-38.3	4.2	8067020	92	5309
2025-01-24 18:59:56.96	115.82	74.81	-37.9	-39.1	4.0	8174560	92	5635
2025-01-24 18:59:57.36	115.30	74.95	-38.2	-39.3	3.8	8301258	93	5571
2025-01-24 18:59:57.76	114.77	75.10	-37.9	-38.4	4.1	8307540	93	5206
2025-01-24 18:59:58.17	114.21	75.24	-37.7	-37.8	4.3	8139152	93	5008
2025-01-24 18:59:58.57	113.66	75.38	-37.6	-37.7	4.3	8101581	93	4976
2025-01-24 18:59:58.97	113.10	75.52	-37.9	-38.4	4.1	8120418	93	5214
2025-01-24 18:59:59.37	112.52	75.66	-38.0	-38.8	4.0	8241943	93	5397
2025-01-24 18:59:59.77	111.94	75.80	-38.0	-38.7	4.0	8245204	93	5346
2025-01-24 19:00:00.18	111.32	75.93	-38.3	-39.6	3.8	8286014	93	5706
2025-01-24 19:00:00.58	110.71	76.07	-38.6	-41.4	3.6	8335338	94	6805
2025-01-24 19:00:00.98	110.09	76.20	-38.5	-39.7	3.6	8395557	94	5650
2025-01-24 19:00:01.38	109.46	76.33	-38.3	-40.4	3.7	8342205	94	6301
2025-01-24 19:00:01.79	108.80	76.46	-38.5	-39.9	3.6	8379741	94	5771
2025-01-24 19:00:02.19	108.14	76.59	-38.7	-41.8	3.6	8376892	94	7057
2025-01-24 19:00:02.59	107.46	76.72	-39.3	-41.7	3.4	8428035	95	6520
2025-01-24 19:00:02.99	106.78	76.84	-39.3	-43.0	3.6	8382671	95	7532
2025-01-24 19:00:03.39	106.08	76.96	-39.1	-41.1	3.4	8427246	95	6248
2025-01-24 19:00:03.80	105.35	77.09	-38.9	-40.2	3.4	8395408	95	5714
2025-01-24 19:00:04.20	104.62	77.20	-38.9	-40.8	3.6	8425025	95	6131
2025-01-24 19:00:04.60	103.88	77.32	-38.9	-40.1	3.5	8376045	95	5661
2025-01-24 19:00:05.00	103.12	77.44	-39.2	-42.0	3.5	8438449	95	6761
2025-01-24 19:00:05.40	102.35	77.55	-39.4	-41.7	3.3	8391288	95	6400
2025-01-24 19:00:05.81	101.55	77.66	-39.1	-42.1	3.6	8403476	95	6931
2025-01-24 19:00:06.21	100.75	77.77	-39.2	-41.0	3.3	8411270	95	6059
2025-01-24 19:00:06.61	99.94	77.88	-39.0	-41.7	3.6	8422004	95	6720
2025-01-24 19:00:07.01	99.11	77.98	-38.8	-39.7	3.6	8378574	95	5470
2025-01-24 19:00:07.41	98.27	78.08	-38.6	-40.5	3.7	8372451	95	6103
2025-01-24 19:00:07.82	97.39	78.18	-38.6	-39.0	3.7	8374763	95	5161
2025-01-24 19:00:08.22	96.52	78.28	-38.6	-39.2	3.6	8342765	95	5244
2025-01-24 19:00:08.62	95.63	78.37	-39.1	-41.1	3.6	8423480	95	6219
2025-01-24 19:00:09.02	94.73	78.46	-39.0	-40.3	3.5	8387031	95	5687
2025-01-24 19:00:09.43	93.80	78.55	-38.6	-40.0	3.8	8425231	95	5789
2025-01-24 19:00:09.83	92.87	78.63	-38.7	-39.3	3.6	8355560	95	5266
2025-01-24 19:00:10.23	91.92	78.72	-38.7	-40.3	3.8	8419395	95	5894
2025-01-24 19:00:10.63	90.97	78.80	-38.9	-40.0	3.5	8388107	95	5576
2025-01-24 19:00:11.03	90.00	78.87	-38.7	-40.4	3.8	8393028	95	6011
2025-01-24 19:00:11.44	88.99	78.95	-38.5	-38.7	3.7	8357883	95	5039
2025-01-24 19:00:11.84	87.99	79.01	-38.5	-38.8	3.8	8339859	95	5098
2025-01-24 19:00:12.24	86.98	79.08	-38.3	-38.3	3.8	8333084	95	4922
2025-01-24 19:00:12.64	85.96	79.14	-37.6	-37.5	4.2	8290431	93	4849
2025-01-24 19:00:13.04	84.93	79.20	-37.6	-37.3	4.3	8042724	93	4769
2025-01-24 19:00:13.45	83.85	79.26	-38.2	-39.0	3.8	8180969	93	5391
2025-01-24 19:00:13.85	82.80	79.31	-38.6	-41.1	3.7	8399677	94	6556
2025-01-24 19:00:14.25	81.73	79.36	-38.8	-40.4	3.5	8392307	94	5881
2025-01-24 19:00:14.65	80.66	79.40	-38.5	-40.8	3.7	8364257	94	6379
2025-01-24 19:00:15.05	79.57	79.45	-38.4	-39.2	3.7	8385738	94	5363
2025-01-24 19:00:15.46	78.45	79.48	-38.4	-40.5	3.7	8370334	94	6241
2025-01-24 19:00:15.86	77.35	79.52	-38.6	-39.8	3.6	8391872	94	5618
2025-01-24 19:00:16.26	76.24	79.55	-38.8	-41.5	3.6	8366088	94	6779
2025-01-24 19:00:16.66	75.13	79.57	-39.3	-41.2	3.4	8430244	95	6130
2025-01-24 19:00:17.06	74.01	79.60	-39.2	-42.2	3.6	8395271	95	6937
2025-01-24 19:00:17.47	72.86	79.61	-39.0	-40.5	3.6	8401805	95	5839
2025-01-24 19:00:17.87	71.73	79.63	-38.6	-39.0	3.7	8380382	95	5145
2025-01-24 19:00:18.27	70.60	79.64	-38.4	-38.4	3.9	8332351	95	4916
2025-01-24 19:00:18.67	69.47	79.64	-38.7	-39.3	3.7	8335338	95	5288
2025-01-24 19:00:19.07	68.34	79.65	-39.1	-41.3	3.6	8414142	95	6285
2025-01-24 19:00:19.48	67.18	79.64	-39.5	-41.7	3.3	8373607	95	6376
2025-01-24 19:00:19.88	66.05	79.64	-39.4	-41.7	3.4	8426685	96	6422
2025-01-24 19:00:20.28	64.92	79.63	-39.3	-40.6	3.3	8400260	96	5730
2025-01-24 19:00:20.68	63.79	79.61	-39.0	-40.5	3.7	8442340	96	5848
2025-01-24 19:00:21.09	62.64	79.60	-39.0	-39.6	3.5	8378906	96	5299
2025-01-24 19:00:21.49	61.52	79.57	-39.1	-41.4	3.7	8415779	96	6348
2025-01-24 19:00:21.89	60.41	79.55	-39.3	-40.5	3.4	8415161	96	5654
2025-01-24 19:00:22.29	59.30	79.52	-39.2	-41.5	3.6	8406188	96	6452
2025-01-24 19:00:22.69	58.20	79.49	-39.1	-40.0	3.5	8397354	96	5446
2025-01-24 19:00:23.10	57.08	79.45	-39.0	-41.0	3.6	8426467	96	6220
2025-01-24 19:00:23.50	55.99	79.41	-38.7	-39.2	3.7	8418571	95	5190
2025-01-24 19:00:23.90	54.92	79.36	-38.5	-38.8	3.7	8347263	95	5085
2025-01-24 19:00:24.30	53.85	79.31	-38.4	-38.5	3.8	8294746	95	4948
2025-01-24 19:00:24.70	52.79	79.26	-38.7	-40.5	3.7	8380290	95	6074
2025-01-24 19:00:25.11	51.72	79.20	-38.9	-39.5	3.6	8403545	95	5331
2025-01-24 19:00:25.51	50.69	79.15	-38.9	-41.0	3.7	8352024	95	6275
2025-01-24 19:00:25.91	49.67	79.08	-38.8	-39.5	3.7	8385417	95	5371
2025-01-24 19:00:26.31	48.66	79.02	-39.0	-41.4	3.6	8383129	95	6529
2025-01-24 19:00:26.71	47.66	78.95	-39.1	-40.6	3.5	8438220	95	5832
2025-01-24 19:00:27.12	46.65	78.87	-39.0	-41.7	3.6	8380256	95	6651
2025-01-24 19:00:27.52	45.68	78.80	-39.2	-41.0	3.5	8437889	95	6036
2025-01-24 19:00:27.92	44.72	78.72	-39.2	-40.7	3.4	8391803	95	5836
2025-01-24 19:00:28.32	43.78	78.64	-39.3	-41.5	3.5	8418571	95	6328
2025-01-24 19:00:28.72	42.85	78.55	-39.2	-40.8	3.4	8394493	95	5898
2025-01-24 19:00:29.13	41.91	78.46	-39.3	-41.7	3.5	8435943	95	6498
2025-01-24 19:00:29.53	41.01	78.37	-39.4	-41.4	3.4	8401142	95	6183
2025-01-24 19:00:29.93	40.12	78.28	-39.4	-42.3	3.5	8431892	95	6825
2025-01-24 19:00:30.33	39.25	78.19	-39.3	-41.1	3.3	8419384	95	6055
2025-01-24 19:00:30.74	38.38	78.08	-39.2	-42.1	3.6	8410411	95	6819
2025-01-24 19:00:31.14	37.53	77.98	-39.2	-40.8	3.3	8402400	95	5906
2025-01-24 19:00:31.54	36.71	77.88	-39.0	-41.5	3.6	8419509	95	6573
2025-01-24 19:00:31.94	35.89	77.77	-38.8	-39.6	3.6	8359199	95	5399
2025-01-24 19:00:32.35	35.07	77.66	-38.9	-41.2	3.7	8375724	95	6449
2025-01-24 19:00:32.75	34.29	77.55	-39.1	-40.8	3.5	8400627	95	5984
2025-01-24 19:00:33.15	33.52	77.44	-39.4	-43.0	3.6	8401359	95	7491
2025-01-24 19:00:33.55	32.77	77.33	-39.3	-41.4	3.4	8404495	95	6246
2025-01-24 19:00:33.95	32.02	77.21	-39.1	-42.1	3.6	8390785	95	6951
2025-01-24 19:00:34.36	31.28	77.09	-39.0	-40.6	3.5	8424316	95	5949
2025-01-24 19:00:34.76	30.57	76.97	-39.1	-42.3	3.6	8370815	95	7116
2025-01-24 19:00:35.16	29.87	76.85	-39.0	-41.1	3.6	8407081	95	6224
2025-01-24 19:00:35.56	29.18	76.72	-39.0	-40.5	3.5	8386116	95	5837
2025-01-24 19:00:35.96	28.51	76.60	-38.8	-40.3	3.8	8411167	95	5893
2025-01-24 19:00:36.37	27.83	76.47	-38.8	-40.0	3.6	8342582	95	5612
2025-01-24 19:00:36.77	27.18	76.34	-38.9	-41.0	3.7	8422428	95	6275
2025-01-24 19:00:37.17	26.55	76.21	-38.7	-39.5	3.7	8389949	95	5388
2025-01-24 19:00:37.57	25.93	76.08	-38.5	-38.8	3.8	8331390	95	5128
2025-01-24 19:00:37.98	25.30	75.94	-38.0	-38.1	4.0	8267463	94	4996
2025-01-24 19:00:38.38	24.70	75.80	-38.0	-38.1	4.0	8226470	94	5001
2025-01-24 19:00:38.78	24.12	75.67	-38.0	-38.2	4.0	8260208	94	5056
2025-01-24 19:00:39.18	23.54	75.53	-38.0	-38.3	3.9	8295970	94	5092
2025-01-24 19:00:39.59	22.97	75.39	-38.1	-38.5	3.8	8298706	94	5171
2025-01-24 19:00:39.99	22.42	75.25	-37.9	-38.1	4.0	8249462	94	5015
2025-01-24 19:00:40.39	21.87	75.11	-38.0	-38.1	4.0	8252300	94	5017
2025-01-24 19:00:40.79	21.34	74.97	-38.0	-38.2	3.9	8289894	94	5065
2025-01-24 19:00:41.20	20.81	74.82	-38.1	-38.5	3.8	8298866	94	5144
2025-01-24 19:00:41.60	20.30	74.67	-37.9	-38.1	3.9	8308753	94	4982
2025-01-24 19:00:42.00	19.80	74.53	-38.0	-38.0	3.8	8303146	94	4970
2025-01-24 19:00:42.40	19.31	74.38	-38.0	-38.3	3.8	8312141	94	5073
2025-01-24 19:00:42.81	18.82	74.23	-38.2	-39.7	3.8	8394767	94	5826
2025-01-24 19:00:43.21	18.35	74.08	-37.9	-38.1	3.9	8353981	94	4987
2025-01-24 19:00:43.61	17.89	73.93	-37.6	-37.6	4.3	8221126	93	4920
2025-01-24 19:00:44.01	17.43	73.79	-37.3	-36.7	4.5	8004295	93	4598
2025-01-24 19:00:44.42	16.98	73.63	-37.0	-36.4	4.8	7788860	92	4590
2025-01-24 19:00:44.82	16.54	73.48	-37.1	-36.7	4.7	7645935	92	4699
2025-01-24 19:00:45.22	16.12	73.33	-37.2	-36.9	4.5	7911689	92	4748
2025-01-24 19:00:45.62	15.70	73.18	-37.3	-37.2	4.3	7970638	92	4876
2025-01-24 19:00:46.02	15.29	73.02	-37.4	-37.5	4.3	8045345	92	4985
2025-01-24 19:00:46.42	14.88	72.87	-37.5	-37.8	4.2	8154293	92	5087
2025-01-24 19:00:46.83	14.48	72.71	-37.5	-38.0	4.1	8161880	92	5162
2025-01-24 19:00:47.23	14.09	72.56	-37.6	-38.0	4.1	8178348	92	5173
2025-01-24 19:00:47.63	13.71	72.40	-37.8	-38.6	4.0	8245754	92	5430
2025-01-24 19:00:48.03	13.34	72.24	-37.9	-39.1	3.9	8274250	92	5638
2025-01-24 19:00:48.43	12.97	72.09	-38.0	-40.4	3.8	8293464	93	6434
2025-01-24 19:00:48.84	12.60	71.93	-37.8	-38.5	4.1	8359085	93	5346
2025-01-24 19:00:49.24	12.25	71.77	-37.7	-38.2	4.1	8179103	93	5172
2025-01-24 19:00:49.64	11.90	71.61	-37.6	-37.7	4.2	8197528	93	5021
2025-01-24 19:00:50.04	11.56	71.45	-37.6	-37.7	4.2	8110576	93	4982
2025-01-24 19:00:50.45	11.22	71.29	-37.6	-37.7	4.2	8182102	93	5018
2025-01-24 19:00:50.85	10.89	71.13	-37.8	-38.3	4.1	8169799	93	5227
2025-01-24 19:00:51.25	10.57	70.97	-38.0	-38.8	3.9	8257312	93	5435
2025-01-24 19:00:51.65	10.25	70.81	-38.2	-39.4	3.8	8291267	93	5669
2025-01-24 19:00:52.05	9.94	70.65	-38.4	-40.8	3.8	8409221	93	6519
2025-01-24 19:00:52.46	9.62	70.49	-39.6	-42.2	3.3	8391311	96	6583
2025-01-24 19:00:52.86	9.32	70.33	-39.8	-44.1	3.6	8440212	96	8093

#Closed at: 2025-01-24 19:00:53