passes_logs/2025/01/24/XPeterburg/XPeterburg__20250124_090709_FENGYUN_3F_rec.log

#Pass ID: 20250124_090709_FENGYUN 3F
#Satellite: FENGYUN 3F
#Configuration: FENGYUN 3F
#Start time: 2025-01-24 09:07:02

#Version: 1.5.20200625
#Station: XPeterburg
#Location: 30.318091 lon 59.932769 lat
#TLE: 1 57490U 23111A   25023.15922735  .00000230  00000+0  12906-3 0  9994
#TLE: 2 57490  98.7451  96.0025 0001451 131.5350 228.5950 14.19980740 76481

#Time	Az	El	Level	Level2	SNR	BER	Gain	Gain2
2025-01-24 09:07:02.73	31.70	67.45	-39.5	-41.7	3.3	8391895	97	6328
2025-01-24 09:07:03.13	31.82	67.62	-39.0	-54.2	3.5	8198787	72	28267
2025-01-24 09:07:03.54	31.95	67.80	-39.5	-42.3	3.3	8425495	96	6745
2025-01-24 09:07:03.94	32.07	67.98	-39.4	-43.4	3.6	8359931	96	7804
2025-01-24 09:07:04.34	32.20	68.16	-39.4	-42.0	3.3	8400993	96	6612
2025-01-24 09:07:04.74	32.33	68.33	-39.4	-43.5	3.6	8443199	96	7816
2025-01-24 09:07:05.14	32.46	68.51	-39.5	-42.2	3.3	8434112	96	6701
2025-01-24 09:07:05.55	32.59	68.69	-39.4	-43.5	3.6	8396289	96	7837
2025-01-24 09:07:05.95	32.73	68.87	-39.5	-42.1	3.3	8414108	96	6643
2025-01-24 09:07:06.35	32.87	69.05	-39.4	-43.4	3.6	8405834	96	7765
2025-01-24 09:07:06.75	33.01	69.23	-39.4	-42.0	3.3	8454059	96	6645
2025-01-24 09:07:07.15	33.15	69.41	-39.4	-43.4	3.6	8391700	96	7728
2025-01-24 09:07:07.56	33.30	69.59	-39.4	-42.1	3.4	8439662	96	6709
2025-01-24 09:07:07.96	33.45	69.77	-39.4	-43.5	3.6	8393039	96	7868
2025-01-24 09:07:08.36	33.60	69.95	-39.4	-42.5	3.4	8437431	96	7032
2025-01-24 09:07:08.76	33.75	70.13	-39.0	-40.6	3.3	8388771	96	5885
2025-01-24 09:07:09.16	33.91	70.31	-38.7	-40.5	3.6	8436859	95	6096
2025-01-24 09:07:09.57	34.07	70.49	-38.3	-38.8	3.7	8374076	95	5177
2025-01-24 09:07:09.97	34.24	70.67	-38.5	-40.1	3.7	8426490	95	5939
2025-01-24 09:07:10.37	34.40	70.85	-38.5	-39.4	3.5	8374477	95	5460
2025-01-24 09:07:10.77	34.57	71.03	-38.0	-39.7	3.9	8413146	94	5986
2025-01-24 09:07:11.17	34.75	71.21	-37.7	-38.2	3.9	8341495	93	5196
2025-01-24 09:07:11.58	34.93	71.40	-37.6	-37.8	4.0	8260631	93	5046
2025-01-24 09:07:11.98	35.11	71.58	-37.7	-38.2	3.9	8274627	93	5212
2025-01-24 09:07:12.38	35.29	71.76	-37.8	-38.9	4.0	8384250	93	5625
2025-01-24 09:07:12.78	35.48	71.94	-37.6	-37.8	4.0	8330085	93	5028
2025-01-24 09:07:13.18	35.67	72.12	-37.3	-37.0	4.3	8164913	93	4747
2025-01-24 09:07:13.59	35.87	72.31	-37.3	-36.9	4.3	8140399	93	4706
2025-01-24 09:07:13.99	36.08	72.49	-37.5	-37.8	4.1	8084598	92	5129
2025-01-24 09:07:14.39	36.28	72.67	-37.5	-38.1	4.0	8242229	92	5229
2025-01-24 09:07:14.79	36.49	72.85	-37.3	-37.4	4.2	8242778	92	4966
2025-01-24 09:07:15.20	36.71	73.04	-37.1	-36.7	4.4	8021507	92	4717
2025-01-24 09:07:15.60	36.93	73.22	-37.2	-37.0	4.3	8020980	92	4806
2025-01-24 09:07:16.00	37.15	73.40	-37.5	-37.7	4.0	8139781	92	5073
2025-01-24 09:07:16.40	37.38	73.59	-37.7	-38.2	3.9	8281219	92	5247
2025-01-24 09:07:16.80	37.62	73.77	-37.4	-37.7	4.1	8241622	92	5056
2025-01-24 09:07:17.21	37.87	73.96	-37.2	-37.1	4.3	8115863	92	4857
2025-01-24 09:07:17.61	38.11	74.14	-37.1	-36.9	4.4	8013187	92	4787
2025-01-24 09:07:18.01	38.36	74.32	-37.1	-36.8	4.4	7974620	92	4777
2025-01-24 09:07:18.41	38.62	74.50	-37.0	-36.6	4.5	7931568	92	4710
2025-01-24 09:07:18.82	38.89	74.69	-37.0	-36.6	4.5	7902076	92	4696
2025-01-24 09:07:19.22	39.17	74.87	-36.8	-36.1	4.7	7927791	92	4550
2025-01-24 09:07:19.62	39.44	75.05	-36.6	-36.2	5.0	7553615	91	4667
2025-01-24 09:07:20.02	39.73	75.23	-36.5	-36.1	5.2	7139991	91	4669
2025-01-24 09:07:20.43	40.03	75.42	-37.3	-37.9	4.5	7573665	91	5296
2025-01-24 09:07:20.83	40.33	75.60	-37.7	-38.6	4.0	8191818	92	5467
2025-01-24 09:07:21.23	40.64	75.78	-37.4	-37.8	4.3	8220073	92	5151
2025-01-24 09:07:21.63	40.96	75.96	-37.0	-36.7	4.8	7874828	92	4764
2025-01-24 09:07:22.03	41.28	76.14	-37.1	-37.0	4.7	7613960	92	4854
2025-01-24 09:07:22.44	41.62	76.33	-37.5	-38.0	4.3	7961769	92	5212
2025-01-24 09:07:22.84	41.97	76.51	-37.7	-38.5	4.1	8135776	92	5406
2025-01-24 09:07:23.24	42.32	76.69	-37.4	-37.9	4.4	8089313	92	5166
2025-01-24 09:07:23.64	42.68	76.87	-37.4	-37.8	4.4	7928707	92	5143
2025-01-24 09:07:24.04	43.06	77.05	-37.9	-39.3	3.9	8191761	92	5755
2025-01-24 09:07:24.45	43.45	77.23	-38.3	-41.4	3.7	8322246	93	6970
2025-01-24 09:07:24.85	43.85	77.41	-38.2	-39.6	3.7	8389263	93	5750
2025-01-24 09:07:25.25	44.26	77.59	-38.0	-38.9	3.8	8312576	93	5435
2025-01-24 09:07:25.65	44.68	77.77	-37.9	-38.5	3.9	8313262	93	5289
2025-01-24 09:07:26.06	45.12	77.95	-37.9	-38.5	3.9	8285579	93	5274
2025-01-24 09:07:26.46	45.56	78.13	-37.9	-38.2	4.0	8260242	93	5140
2025-01-24 09:07:26.86	46.02	78.31	-37.9	-38.5	3.9	8285556	93	5238
2025-01-24 09:07:27.26	46.50	78.48	-38.1	-40.3	3.7	8310058	93	6306
2025-01-24 09:07:27.67	47.00	78.66	-38.2	-39.4	3.8	8377841	93	5684
2025-01-24 09:07:28.07	47.50	78.84	-38.1	-38.9	3.8	8327568	93	5396
2025-01-24 09:07:28.47	48.03	79.01	-38.4	-40.7	3.9	8391300	93	6435
2025-01-24 09:07:28.87	48.56	79.18	-38.5	-39.4	3.6	8381790	94	5501
2025-01-24 09:07:29.28	49.14	79.36	-38.6	-40.9	3.7	8418720	94	6401
2025-01-24 09:07:29.68	49.71	79.53	-38.5	-39.6	3.5	8373722	94	5575
2025-01-24 09:07:30.08	50.31	79.70	-38.5	-41.0	3.6	8380542	94	6562
2025-01-24 09:07:30.48	50.92	79.87	-38.8	-40.4	3.4	8386230	94	5923
2025-01-24 09:07:30.88	51.56	80.04	-38.8	-41.9	3.6	8401599	94	7037
2025-01-24 09:07:31.29	52.23	80.22	-38.6	-39.9	3.5	8393932	94	5708
2025-01-24 09:07:31.69	52.92	80.38	-38.4	-40.8	3.7	8381126	94	6463
2025-01-24 09:07:32.09	53.62	80.55	-38.7	-40.3	3.5	8398178	94	5911
2025-01-24 09:07:32.49	54.36	80.71	-39.4	-43.1	3.6	8378871	95	7554
2025-01-24 09:07:32.90	55.13	80.88	-39.5	-41.9	3.4	8418674	96	6517
2025-01-24 09:07:33.30	55.92	81.04	-39.2	-42.1	3.6	8396175	96	6841
2025-01-24 09:07:33.70	56.74	81.20	-38.9	-40.1	3.4	8379169	96	5630
2025-01-24 09:07:34.10	57.58	81.36	-39.1	-40.2	3.3	8381778	96	5587
2025-01-24 09:07:34.50	58.46	81.51	-39.1	-40.9	3.5	8434707	96	6051
2025-01-24 09:07:34.91	59.40	81.67	-38.7	-39.6	3.4	8415813	95	5430
2025-01-24 09:07:35.31	60.34	81.82	-37.9	-38.7	4.0	8412071	94	5386
2025-01-24 09:07:35.71	61.33	81.97	-37.9	-38.0	3.8	8293018	94	4929
2025-01-24 09:07:36.11	62.35	82.12	-38.2	-40.1	3.7	8368194	94	6096
2025-01-24 09:07:36.51	63.40	82.26	-37.8	-37.9	4.0	8334308	94	4934
2025-01-24 09:07:36.92	64.53	82.41	-37.7	-37.8	4.2	8215644	93	4991
2025-01-24 09:07:37.32	65.67	82.55	-37.9	-38.5	4.0	8233051	93	5246
2025-01-24 09:07:37.72	66.86	82.69	-38.2	-39.2	3.8	8267360	93	5521
2025-01-24 09:07:38.12	68.09	82.82	-38.3	-39.4	3.8	8332431	93	5631
2025-01-24 09:07:38.53	69.40	82.95	-38.6	-41.1	3.7	8434226	94	6552
2025-01-24 09:07:38.93	70.73	83.08	-38.6	-40.1	3.5	8409713	94	5847
2025-01-24 09:07:39.33	72.10	83.20	-38.6	-41.2	3.6	8401027	94	6672
2025-01-24 09:07:39.73	73.53	83.32	-38.4	-39.4	3.7	8370426	94	5539
2025-01-24 09:07:40.14	75.04	83.44	-38.7	-41.8	3.6	8408409	94	7005
2025-01-24 09:07:40.54	76.57	83.55	-38.9	-40.9	3.4	8433185	94	6179
2025-01-24 09:07:40.94	78.15	83.65	-38.4	-40.8	3.7	8373641	94	6505
2025-01-24 09:07:41.34	79.78	83.75	-38.2	-38.8	3.9	8352264	94	5312
2025-01-24 09:07:41.74	81.47	83.85	-38.5	-41.1	3.6	8364852	94	6660
2025-01-24 09:07:42.14	83.20	83.94	-38.7	-40.6	3.5	8422061	94	6144
2025-01-24 09:07:42.55	85.04	84.02	-38.0	-38.2	4.0	8368789	94	5052
2025-01-24 09:07:42.95	86.87	84.10	-37.7	-37.9	4.3	8203227	93	5063
2025-01-24 09:07:43.35	88.76	84.17	-37.7	-37.9	4.3	8134780	93	5050
2025-01-24 09:07:43.75	90.69	84.24	-38.2	-39.2	3.9	8105072	93	5545
2025-01-24 09:07:44.16	92.72	84.30	-38.1	-39.2	3.9	8313606	93	5542
2025-01-24 09:07:44.56	94.73	84.35	-37.8	-38.1	4.3	8231117	93	5099
2025-01-24 09:07:44.96	96.78	84.39	-38.0	-38.6	4.1	8163883	93	5293
2025-01-24 09:07:45.36	98.86	84.43	-38.3	-39.5	3.8	8301784	93	5655
2025-01-24 09:07:45.76	100.96	84.46	-38.4	-40.7	3.9	8381114	93	6413
2025-01-24 09:07:46.17	103.14	84.49	-38.2	-39.1	3.9	8339206	93	5491
2025-01-24 09:07:46.57	105.28	84.50	-38.3	-39.6	3.8	8277534	93	5677
2025-01-24 09:07:46.97	107.42	84.51	-38.4	-41.0	3.7	8363948	94	6569
2025-01-24 09:07:47.37	109.58	84.51	-38.7	-40.5	3.6	8401977	94	6067
2025-01-24 09:07:47.78	111.78	84.50	-38.4	-40.8	3.7	8376091	94	6451
2025-01-24 09:07:48.18	113.91	84.48	-37.9	-38.3	4.1	8389068	94	5103
2025-01-24 09:07:48.58	116.04	84.46	-38.1	-38.3	4.0	8251155	94	5064
2025-01-24 09:07:48.98	118.14	84.43	-38.0	-38.3	4.0	8274593	94	5057
2025-01-24 09:07:49.38	120.21	84.39	-38.0	-38.2	4.0	8251773	94	5029
2025-01-24 09:07:49.79	122.31	84.34	-37.8	-37.8	4.1	8221744	94	4899
2025-01-24 09:07:50.19	124.32	84.29	-37.9	-38.0	4.1	8182548	94	4990
2025-01-24 09:07:50.59	126.28	84.23	-37.7	-37.9	4.3	8172901	93	5039
2025-01-24 09:07:50.99	128.21	84.16	-37.5	-37.3	4.5	8081520	93	4831
2025-01-24 09:07:51.39	130.09	84.09	-37.5	-37.3	4.5	7999374	93	4806
2025-01-24 09:07:51.80	131.97	84.01	-37.8	-38.0	4.2	8060943	93	5080
2025-01-24 09:07:52.20	133.75	83.93	-37.6	-37.6	4.4	8055633	93	4904
2025-01-24 09:07:52.60	135.48	83.84	-37.7	-37.7	4.4	8004089	93	4938
2025-01-24 09:07:53.00	137.16	83.74	-38.3	-39.5	3.8	8105804	93	5671
2025-01-24 09:07:53.40	138.79	83.64	-38.4	-40.5	3.9	8403579	94	6303
2025-01-24 09:07:53.80	140.36	83.53	-37.9	-38.0	4.0	8314178	94	4991
2025-01-24 09:07:54.21	141.92	83.42	-37.9	-38.0	4.1	8233783	94	4977
2025-01-24 09:07:54.61	143.39	83.30	-38.3	-40.7	3.7	8237972	94	6458
2025-01-24 09:07:55.01	144.81	83.18	-38.6	-40.6	3.6	8421810	94	6176
2025-01-24 09:07:55.41	146.18	83.06	-38.5	-39.6	3.6	8365756	94	5617
2025-01-24 09:07:55.82	147.53	82.93	-38.1	-39.3	3.9	8387855	94	5608
2025-01-24 09:07:56.22	148.81	82.80	-38.2	-38.9	3.7	8333301	94	5348
2025-01-24 09:07:56.62	150.03	82.67	-38.1	-39.6	4.0	8404392	94	5891
2025-01-24 09:07:57.02	151.21	82.53	-37.7	-37.8	4.2	8226276	93	5004
2025-01-24 09:07:57.42	152.35	82.39	-37.5	-37.3	4.4	7971988	93	4810
2025-01-24 09:07:57.83	153.47	82.24	-37.7	-37.9	4.2	8136978	93	5040
2025-01-24 09:07:58.23	154.53	82.10	-37.5	-37.4	4.4	8114868	93	4849
2025-01-24 09:07:58.63	155.54	81.95	-37.4	-37.1	4.5	8054489	93	4741
2025-01-24 09:07:59.03	156.52	81.80	-37.5	-37.2	4.4	8023818	93	4783
2025-01-24 09:07:59.44	157.48	81.65	-37.4	-37.2	4.4	8129161	93	4798
2025-01-24 09:07:59.84	158.39	81.49	-37.1	-36.8	4.8	7865764	92	4756
2025-01-24 09:08:00.24	159.27	81.33	-36.8	-36.5	5.1	7382057	91	4764
2025-01-24 09:08:00.64	160.11	81.18	-37.2	-37.6	4.6	7524776	91	5147
2025-01-24 09:08:01.05	160.94	81.01	-37.6	-38.2	4.2	8102588	92	5248
2025-01-24 09:08:01.45	161.73	80.85	-37.6	-37.9	4.3	8175338	92	5123
2025-01-24 09:08:01.85	162.48	80.69	-37.2	-37.0	4.7	7975490	92	4786
2025-01-24 09:08:02.25	163.21	80.52	-37.6	-38.0	4.3	7900440	92	5140
2025-01-24 09:08:02.65	163.92	80.36	-37.8	-38.7	4.1	8129276	92	5426
2025-01-24 09:08:03.06	164.61	80.19	-38.1	-39.0	3.9	8284412	93	5443
2025-01-24 09:08:03.46	165.27	80.02	-38.0	-38.7	3.9	8318138	93	5302
2025-01-24 09:08:03.86	165.90	79.85	-38.0	-38.4	4.0	8280303	93	5182
2025-01-24 09:08:04.26	166.51	79.68	-38.2	-39.2	3.8	8291587	93	5492
2025-01-24 09:08:04.67	167.12	79.50	-38.5	-40.9	3.8	8418296	94	6461
2025-01-24 09:08:05.07	167.69	79.33	-38.5	-39.7	3.5	8386367	94	5654
2025-01-24 09:08:05.47	168.25	79.16	-37.9	-37.9	3.9	8355205	94	4921
2025-01-24 09:08:05.87	168.79	78.99	-37.8	-38.0	4.1	8159717	93	5053
2025-01-24 09:08:06.27	169.31	78.81	-38.1	-38.9	3.8	8279216	93	5397
2025-01-24 09:08:06.68	169.82	78.63	-38.5	-40.8	3.7	8401817	93	6452
2025-01-24 09:08:07.08	170.31	78.46	-38.2	-39.3	3.7	8368114	93	5541
2025-01-24 09:08:07.48	170.78	78.28	-37.9	-38.4	3.9	8297241	93	5180
2025-01-24 09:08:07.88	171.24	78.10	-38.0	-38.5	3.9	8245113	93	5232
2025-01-24 09:08:08.28	171.68	77.92	-38.3	-40.7	3.7	8365173	93	6528
2025-01-24 09:08:08.69	172.12	77.74	-38.2	-39.3	3.7	8396186	93	5586
2025-01-24 09:08:09.09	172.54	77.56	-38.0	-38.5	3.9	8336254	93	5237
2025-01-24 09:08:09.49	172.95	77.38	-38.1	-40.2	3.7	8314933	93	6267
2025-01-24 09:08:09.89	173.34	77.21	-38.1	-38.9	3.9	8344882	93	5441
2025-01-24 09:08:10.29	173.73	77.03	-38.0	-38.7	3.9	8304817	93	5334
2025-01-24 09:08:10.70	174.11	76.84	-37.9	-38.4	3.9	8284538	93	5253
2025-01-24 09:08:11.10	174.47	76.66	-37.7	-37.9	4.1	8266582	93	5043
2025-01-24 09:08:11.50	174.82	76.48	-37.3	-37.0	4.4	8120109	93	4757
2025-01-24 09:08:11.90	175.17	76.30	-37.1	-36.9	4.6	7993263	92	4824
2025-01-24 09:08:12.31	175.51	76.11	-37.2	-37.1	4.5	7754505	92	4905
2025-01-24 09:08:12.71	175.83	75.93	-37.3	-37.4	4.5	7821968	92	5010
2025-01-24 09:08:13.11	176.15	75.75	-37.1	-36.9	4.6	7855407	92	4831
2025-01-24 09:08:13.51	176.45	75.57	-36.6	-36.3	5.2	7358711	91	4717
2025-01-24 09:08:13.91	176.75	75.39	-36.7	-36.4	5.2	7017059	91	4793
2025-01-24 09:08:14.32	177.05	75.20	-37.0	-37.3	4.8	7452610	91	5073
2025-01-24 09:08:14.72	177.34	75.02	-36.9	-36.8	4.9	7580738	91	4913
2025-01-24 09:08:15.12	177.62	74.84	-36.6	-36.3	5.2	7198871	91	4736
2025-01-24 09:08:15.52	177.89	74.65	-36.5	-36.0	5.4	6224658	91	4646
2025-01-24 09:08:15.92	178.15	74.47	-36.5	-36.1	5.3	6087409	91	4680
2025-01-24 09:08:16.33	178.42	74.29	-36.6	-36.2	5.2	7015777	91	4702
2025-01-24 09:08:16.73	178.67	74.10	-36.6	-36.2	5.1	7198356	91	4700
2025-01-24 09:08:17.13	178.91	73.92	-36.6	-36.3	5.1	7254661	91	4721
2025-01-24 09:08:17.53	179.15	73.74	-36.7	-36.5	4.9	7297851	91	4798
2025-01-24 09:08:17.93	179.39	73.56	-36.7	-36.4	4.9	7557609	91	4741
2025-01-24 09:08:18.34	179.62	73.37	-36.6	-36.2	5.0	7434482	91	4675
2025-01-24 09:08:18.74	179.85	73.19	-36.6	-36.0	4.9	7441246	91	4621
2025-01-24 09:08:19.14	180.06	73.00	-36.7	-36.3	4.8	7466342	91	4707
2025-01-24 09:08:19.54	180.28	72.82	-36.6	-36.1	4.8	7592044	91	4639
2025-01-24 09:08:19.95	180.49	72.64	-36.6	-36.0	4.9	7429298	91	4617
2025-01-24 09:08:20.35	180.70	72.45	-36.5	-35.7	5.1	7297187	91	4515
2025-01-24 09:08:20.75	180.90	72.27	-36.4	-35.6	5.2	7229198	91	4485
2025-01-24 09:08:21.15	181.09	72.09	-36.5	-35.8	5.1	7187164	91	4537
2025-01-24 09:08:21.55	181.29	71.91	-36.7	-36.3	4.9	7392562	91	4716
2025-01-24 09:08:21.96	181.48	71.72	-36.5	-35.9	5.0	7357131	91	4600
2025-01-24 09:08:22.36	181.66	71.54	-36.4	-35.7	5.2	7222332	91	4539
2025-01-24 09:08:22.76	181.84	71.36	-36.4	-35.8	5.1	7171073	91	4581
2025-01-24 09:08:23.16	182.02	71.18	-36.8	-36.9	4.7	7395446	91	4929
2025-01-24 09:08:23.57	182.20	70.99	-37.2	-37.8	4.4	7913166	91	5244
2025-01-24 09:08:23.97	182.37	70.81	-37.3	-38.1	4.2	8129631	91	5366
2025-01-24 09:08:24.37	182.53	70.63	-38.2	-39.5	3.7	8095287	93	5716
2025-01-24 09:08:24.77	182.70	70.45	-39.7	-42.9	3.4	8451473	96	7110

#Closed at: 2025-01-24 09:08:25