passes_logs/2025/01/17/planumMaritime01/planumMaritime01__20250117_002625_METEOR-M2_4_rec.log

#Pass ID: 20250117_002625_METEOR-M2 4
#Satellite: METEOR-M2 4
#Configuration: METEOR-M2 4
#Start time: 2025-01-17 00:26:30.428943

#LorettStation: 1.0.0 05.05.2024
#Station: planumMaritime01
#Location: 37.49445 lon 55.92918 lat
#TLE: 1 59051U 24039A   25016.08315250  .00000067  00000+0  49762-4 0  9990
#TLE: 2 59051  98.6295 339.0709 0006229 221.2535 138.8173 14.22325361 45752

#Time	Az	El	Level	SNR
2025-01-17 00:26:32.587301	25.0	10.2	-81.4	0.0
2025-01-17 00:26:34.833270	25.1	10.4	-81.6	0.0
2025-01-17 00:26:37.073553	25.3	10.5	-81.6	0.0
2025-01-17 00:26:39.315237	25.4	10.7	-81.5	0.0
2025-01-17 00:26:41.558956	25.6	10.9	-81.1	0.0
2025-01-17 00:26:43.801364	25.7	11.1	-81.1	0.0
2025-01-17 00:26:46.043874	25.9	11.3	-81.2	0.0
2025-01-17 00:26:48.285136	26.0	11.5	-81.2	0.0
2025-01-17 00:26:50.524488	26.1	11.7	-81.3	0.0
2025-01-17 00:26:52.768858	26.3	11.9	-81.7	0.0
2025-01-17 00:26:55.012856	26.4	12.1	-81.6	0.0
2025-01-17 00:26:57.254244	26.6	12.3	-81.5	0.0
2025-01-17 00:26:59.498704	26.8	12.5	-81.6	0.0
2025-01-17 00:27:01.744119	26.9	12.7	-81.4	0.0
2025-01-17 00:27:03.985745	27.1	12.9	-81.7	0.0
2025-01-17 00:27:06.227965	27.2	13.1	-81.4	0.0
2025-01-17 00:27:08.468529	27.4	13.3	-81.7	0.0
2025-01-17 00:27:10.709162	27.6	13.5	-81.9	0.0
2025-01-17 00:27:12.951160	27.7	13.7	-81.5	0.0
2025-01-17 00:27:15.192457	27.9	13.9	-81.5	0.0
2025-01-17 00:27:17.434101	28.1	14.1	-82.0	0.0
2025-01-17 00:27:19.673117	28.3	14.4	-81.7	0.0
2025-01-17 00:27:21.915792	28.4	14.6	-81.5	0.0
2025-01-17 00:27:24.158321	28.6	14.8	-81.8	0.0
2025-01-17 00:27:26.403507	28.8	15.0	-81.8	0.0
2025-01-17 00:27:28.646549	29.0	15.2	-82.0	0.0
2025-01-17 00:27:30.888978	29.2	15.5	-81.9	0.0
2025-01-17 00:27:33.131474	29.4	15.7	-81.8	0.0
2025-01-17 00:27:35.376199	29.6	15.9	-82.0	0.0
2025-01-17 00:27:37.619566	29.7	16.1	-81.7	0.0
2025-01-17 00:27:39.861386	29.9	16.4	-81.8	0.0
2025-01-17 00:27:42.106766	30.1	16.6	-82.1	0.0
2025-01-17 00:27:44.347627	30.4	16.8	-82.1	0.0
2025-01-17 00:27:46.592652	30.6	17.1	-82.1	0.0
2025-01-17 00:27:48.835966	30.8	17.3	-82.0	0.0
2025-01-17 00:27:51.077845	31.0	17.6	-81.8	0.0
2025-01-17 00:27:53.315474	31.2	17.8	-82.2	0.0
2025-01-17 00:27:55.559755	31.4	18.0	-82.0	0.0
2025-01-17 00:27:57.804662	31.7	18.3	-82.1	0.0
2025-01-17 00:28:00.048616	31.9	18.5	-82.3	0.0
2025-01-17 00:28:02.292049	32.1	18.8	-82.1	0.0
2025-01-17 00:28:04.535167	32.3	19.0	-82.1	0.0
2025-01-17 00:28:06.775911	32.6	19.3	-82.2	0.0
2025-01-17 00:28:09.021776	32.8	19.6	-82.0	0.0
2025-01-17 00:28:11.264270	33.1	19.8	-82.2	0.0
2025-01-17 00:28:13.506609	33.3	20.1	-82.0	0.0
2025-01-17 00:28:15.745292	33.6	20.3	-82.0	0.0
2025-01-17 00:28:17.991800	33.8	20.6	-82.1	0.0
2025-01-17 00:28:20.232452	34.1	20.9	-82.2	0.0
2025-01-17 00:28:22.476878	34.4	21.2	-82.0	0.0
2025-01-17 00:28:24.716600	34.7	21.4	-82.0	0.0
2025-01-17 00:28:26.958490	34.9	21.7	-82.4	0.0
2025-01-17 00:28:29.200512	35.2	22.0	-82.2	0.0
2025-01-17 00:28:31.445960	35.5	22.3	-82.4	0.0
2025-01-17 00:28:33.685778	35.8	22.5	-82.2	0.0
2025-01-17 00:28:35.925988	36.1	22.8	-81.9	0.0
2025-01-17 00:28:38.166768	36.4	23.1	-82.1	0.0
2025-01-17 00:28:40.405997	36.7	23.4	-82.3	0.0
2025-01-17 00:28:42.646119	37.0	23.7	-81.9	0.0
2025-01-17 00:28:44.886191	37.3	24.0	-82.2	0.0
2025-01-17 00:28:47.127805	37.7	24.3	-82.1	0.0
2025-01-17 00:28:49.368674	38.0	24.6	-82.3	0.0
2025-01-17 00:28:51.614235	38.3	24.9	-81.9	0.0
2025-01-17 00:28:53.852320	38.7	25.2	-82.5	0.0
2025-01-17 00:28:56.093767	39.0	25.5	-82.4	0.0
2025-01-17 00:28:58.336130	39.4	25.8	-82.4	0.0
2025-01-17 00:29:00.579986	39.8	26.1	-82.3	0.0
2025-01-17 00:29:02.823648	40.1	26.5	-82.4	0.0
2025-01-17 00:29:05.065335	40.5	26.8	-82.4	0.0
2025-01-17 00:29:07.306404	40.9	27.1	-82.5	0.0
2025-01-17 00:29:09.548683	41.3	27.4	-82.5	0.0
2025-01-17 00:29:11.790077	41.7	27.7	-82.6	0.0
2025-01-17 00:29:14.030714	42.1	28.1	-82.5	0.0
2025-01-17 00:29:16.275653	42.5	28.4	-82.6	0.0
2025-01-17 00:29:18.521502	43.0	28.7	-82.5	0.0
2025-01-17 00:29:20.762010	43.4	29.1	-82.2	0.0
2025-01-17 00:29:23.007682	43.9	29.4	-82.3	0.0
2025-01-17 00:29:25.248023	44.3	29.7	-82.3	0.0
2025-01-17 00:29:27.490814	44.8	30.1	-82.5	0.0
2025-01-17 00:29:29.734351	45.3	30.4	-82.2	0.0
2025-01-17 00:29:31.975924	45.7	30.8	-82.3	0.0
2025-01-17 00:29:34.218314	46.2	31.1	-82.1	0.0
2025-01-17 00:29:36.461967	46.7	31.5	-82.2	0.0
2025-01-17 00:29:38.704832	47.3	31.8	-82.3	0.0
2025-01-17 00:29:40.947805	47.8	32.2	-82.3	0.0
2025-01-17 00:29:43.189486	48.3	32.5	-82.3	0.0
2025-01-17 00:29:45.428420	48.9	32.9	-82.1	0.0
2025-01-17 00:29:47.672614	49.4	33.2	-82.2	0.0
2025-01-17 00:29:49.915141	50.0	33.6	-82.5	0.0
2025-01-17 00:29:52.154782	50.6	34.0	-82.1	0.0
2025-01-17 00:29:54.398902	51.2	34.3	-82.1	0.0
2025-01-17 00:29:56.641153	51.8	34.7	-82.1	0.0
2025-01-17 00:29:58.880348	52.5	35.1	-81.9	0.0
2025-01-17 00:30:01.124909	53.1	35.4	-81.8	0.0
2025-01-17 00:30:03.367190	53.8	35.8	-82.1	0.0
2025-01-17 00:30:05.608924	54.4	36.1	-82.1	0.0
2025-01-17 00:30:07.850591	55.1	36.5	-82.0	0.0
2025-01-17 00:30:10.094545	55.8	36.9	-82.2	0.0
2025-01-17 00:30:12.337678	56.5	37.2	-81.8	0.0
2025-01-17 00:30:14.576968	57.3	37.6	-81.9	0.0
2025-01-17 00:30:16.817659	58.0	37.9	-82.0	0.0
2025-01-17 00:30:19.060303	58.8	38.3	-82.1	0.0
2025-01-17 00:30:21.303242	59.6	38.7	-82.0	0.0
2025-01-17 00:30:23.544258	60.4	39.0	-82.1	0.0
2025-01-17 00:30:25.786104	61.2	39.4	-82.1	0.0
2025-01-17 00:30:28.027488	62.0	39.7	-81.8	0.0
2025-01-17 00:30:30.272432	62.9	40.0	-82.1	0.0
2025-01-17 00:30:32.513409	63.8	40.4	-82.3	0.0
2025-01-17 00:30:34.755037	64.6	40.7	-82.0	0.0
2025-01-17 00:30:36.999514	65.6	41.1	-81.4	0.0
2025-01-17 00:30:39.244140	66.5	41.4	-81.9	0.8
2025-01-17 00:30:41.487919	67.4	41.7	-81.7	1.1
2025-01-17 00:30:43.732533	68.4	42.0	-81.8	0.5
2025-01-17 00:30:45.977464	69.4	42.3	-81.5	1.4
2025-01-17 00:30:48.218741	70.4	42.6	-82.0	0.0
2025-01-17 00:30:50.458784	71.4	42.9	-81.6	0.2
2025-01-17 00:30:52.699564	72.4	43.2	-82.1	0.4
2025-01-17 00:30:54.942639	73.5	43.5	-82.1	0.0
2025-01-17 00:30:57.185937	74.6	43.8	-82.0	0.0
2025-01-17 00:30:59.428466	75.7	44.0	-82.1	0.0
2025-01-17 00:31:01.671807	76.8	44.3	-82.2	0.0
2025-01-17 00:31:03.911960	77.9	44.5	-82.1	0.0
2025-01-17 00:31:06.152973	79.0	44.7	-81.6	0.0
2025-01-17 00:31:08.393302	80.2	45.0	-82.3	0.0
2025-01-17 00:31:10.635365	81.4	45.2	-82.2	0.0
2025-01-17 00:31:12.878738	82.6	45.4	-82.2	0.0
2025-01-17 00:31:15.121586	83.8	45.5	-82.1	0.0
2025-01-17 00:31:17.363297	85.0	45.7	-82.5	0.0
2025-01-17 00:31:19.606806	86.2	45.9	-82.6	0.0
2025-01-17 00:31:21.847135	87.5	46.0	-82.6	0.0
2025-01-17 00:31:24.088209	88.7	46.1	-82.7	0.0
2025-01-17 00:31:26.331134	90.0	46.2	-82.5	0.0
2025-01-17 00:31:28.570784	91.3	46.3	-82.6	0.0
2025-01-17 00:31:30.815859	92.5	46.4	-82.6	0.0
2025-01-17 00:31:33.061103	93.8	46.5	-82.2	0.0
2025-01-17 00:31:35.304440	95.1	46.5	-82.0	0.0
2025-01-17 00:31:37.547192	96.4	46.6	-81.9	1.9
2025-01-17 00:31:39.787912	97.7	46.6	-81.9	2.8
2025-01-17 00:31:42.032054	99.0	46.6	-81.8	2.8
2025-01-17 00:31:44.276498	100.3	46.6	-81.8	1.9
2025-01-17 00:31:46.517731	101.6	46.6	-81.6	2.3
2025-01-17 00:31:48.761514	102.9	46.5	-81.4	3.3
2025-01-17 00:31:51.002545	104.2	46.5	-81.8	3.5
2025-01-17 00:31:53.244497	105.5	46.4	-81.5	5.0
2025-01-17 00:31:55.487590	106.7	46.3	-81.2	5.3
2025-01-17 00:31:57.729192	108.0	46.2	-81.4	4.7
2025-01-17 00:31:59.973781	109.3	46.1	-81.6	4.3
2025-01-17 00:32:02.216945	110.5	45.9	-81.3	4.8
2025-01-17 00:32:04.458440	111.8	45.8	-81.5	3.6
2025-01-17 00:32:06.704122	113.0	45.6	-81.7	4.1
2025-01-17 00:32:08.948004	114.2	45.5	-81.7	2.5
2025-01-17 00:32:11.190744	115.4	45.3	-81.9	0.0
2025-01-17 00:32:13.436334	116.6	45.1	-81.9	1.4
2025-01-17 00:32:15.675555	117.8	44.9	-82.1	1.4
2025-01-17 00:32:17.914785	118.9	44.6	-82.2	0.0
2025-01-17 00:32:20.155375	120.1	44.4	-82.1	0.6
2025-01-17 00:32:22.399796	121.2	44.2	-81.9	0.0
2025-01-17 00:32:24.641969	122.3	43.9	-82.1	0.0
2025-01-17 00:32:26.882992	123.4	43.6	-82.1	0.0
2025-01-17 00:32:29.127685	124.5	43.4	-82.1	0.0
2025-01-17 00:32:31.370088	125.5	43.1	-82.2	0.0
2025-01-17 00:32:33.614055	126.6	42.8	-82.1	0.0
2025-01-17 00:32:35.854225	127.6	42.5	-82.3	0.0
2025-01-17 00:32:38.097942	128.6	42.2	-82.4	0.0
2025-01-17 00:32:40.342422	129.6	41.9	-82.2	0.0
2025-01-17 00:32:42.586185	130.5	41.6	-82.3	0.0
2025-01-17 00:32:44.826089	131.5	41.2	-82.2	0.0
2025-01-17 00:32:47.066859	132.4	40.9	-82.3	0.0
2025-01-17 00:32:49.308172	133.3	40.6	-82.4	0.0
2025-01-17 00:32:51.549253	134.2	40.2	-82.5	0.0
2025-01-17 00:32:53.792053	135.0	39.9	-82.2	0.0
2025-01-17 00:32:56.036969	135.9	39.5	-82.2	0.0
2025-01-17 00:32:58.281296	136.7	39.2	-82.6	0.0
2025-01-17 00:33:00.521153	137.5	38.8	-82.4	0.0
2025-01-17 00:33:02.761516	138.3	38.5	-82.3	0.0
2025-01-17 00:33:05.004174	139.1	38.1	-82.6	0.0
2025-01-17 00:33:07.245531	139.9	37.7	-82.8	0.0
2025-01-17 00:33:09.489944	140.6	37.4	-82.3	0.0
2025-01-17 00:33:11.734967	141.4	37.0	-82.5	0.0
2025-01-17 00:33:13.978622	142.1	36.7	-82.5	0.0
2025-01-17 00:33:16.219779	142.8	36.3	-82.1	0.0
2025-01-17 00:33:18.460334	143.4	35.9	-82.5	0.0
2025-01-17 00:33:20.704784	144.1	35.6	-82.3	0.0
2025-01-17 00:33:22.947399	144.8	35.2	-82.7	0.0
2025-01-17 00:33:25.188485	145.4	34.8	-82.6	0.0
2025-01-17 00:33:27.426934	146.0	34.5	-82.6	0.0
2025-01-17 00:33:29.669211	146.6	34.1	-82.6	0.0
2025-01-17 00:33:31.909976	147.2	33.7	-82.3	0.0
2025-01-17 00:33:34.151598	147.8	33.4	-82.1	0.0
2025-01-17 00:33:36.396385	148.4	33.0	-82.6	0.0
2025-01-17 00:33:38.638166	149.0	32.7	-82.6	0.0
2025-01-17 00:33:40.885360	149.5	32.3	-82.2	0.0
2025-01-17 00:33:43.132252	150.1	31.9	-82.5	0.0
2025-01-17 00:33:45.373740	150.6	31.6	-82.6	0.0
2025-01-17 00:33:47.615607	151.1	31.2	-82.6	0.0
2025-01-17 00:33:49.858542	151.6	30.9	-82.6	0.0
2025-01-17 00:33:52.100702	152.1	30.5	-82.5	0.0
2025-01-17 00:33:54.340320	152.6	30.2	-82.6	0.0
2025-01-17 00:33:56.585223	153.0	29.8	-82.6	0.0
2025-01-17 00:33:58.825265	153.5	29.5	-82.6	0.0
2025-01-17 00:34:01.065239	154.0	29.1	-82.6	0.0
2025-01-17 00:34:03.308060	154.4	28.8	-82.4	0.0
2025-01-17 00:34:05.549263	154.8	28.5	-82.2	0.0
2025-01-17 00:34:07.790712	155.3	28.1	-82.4	0.0
2025-01-17 00:34:10.030275	155.7	27.8	-82.4	0.0
2025-01-17 00:34:12.273967	156.1	27.5	-82.3	0.0
2025-01-17 00:34:14.521152	156.5	27.1	-82.5	0.0
2025-01-17 00:34:16.764070	156.9	26.8	-82.6	0.0
2025-01-17 00:34:19.004914	157.3	26.5	-82.7	0.0
2025-01-17 00:34:21.246107	157.7	26.2	-82.2	0.0
2025-01-17 00:34:23.488894	158.0	25.9	-82.6	0.0
2025-01-17 00:34:25.728564	158.4	25.5	-82.6	0.0
2025-01-17 00:34:27.971532	158.7	25.2	-82.4	0.0
2025-01-17 00:34:30.216270	159.1	24.9	-82.6	0.0
2025-01-17 00:34:32.459924	159.4	24.6	-82.4	0.0
2025-01-17 00:34:34.701956	159.8	24.3	-82.9	0.0
2025-01-17 00:34:36.940571	160.1	24.0	-82.5	0.0
2025-01-17 00:34:39.183565	160.4	23.7	-82.6	0.0
2025-01-17 00:34:41.426977	160.8	23.4	-82.7	0.0
2025-01-17 00:34:43.669397	161.1	23.1	-82.6	0.0
2025-01-17 00:34:45.912237	161.4	22.8	-82.8	0.0
2025-01-17 00:34:48.151008	161.7	22.5	-82.8	0.0
2025-01-17 00:34:50.391157	162.0	22.3	-82.8	0.0
2025-01-17 00:34:52.635561	162.3	22.0	-82.6	0.0
2025-01-17 00:34:54.877034	162.5	21.7	-82.6	0.0
2025-01-17 00:34:57.118457	162.8	21.4	-82.8	0.0
2025-01-17 00:34:59.360329	163.1	21.1	-82.7	0.0
2025-01-17 00:35:01.602275	163.4	20.9	-82.7	0.0
2025-01-17 00:35:03.848207	163.6	20.6	-82.6	0.0
2025-01-17 00:35:06.089724	163.9	20.3	-83.0	0.0
2025-01-17 00:35:08.332527	164.2	20.0	-82.5	0.0
2025-01-17 00:35:10.578542	164.4	19.8	-82.6	0.0
2025-01-17 00:35:12.819848	164.7	19.5	-82.6	0.0
2025-01-17 00:35:15.061114	164.9	19.3	-82.7	0.0
2025-01-17 00:35:17.303387	165.1	19.0	-82.7	0.0
2025-01-17 00:35:19.543590	165.4	18.7	-82.8	0.0
2025-01-17 00:35:21.785880	165.6	18.5	-82.8	0.0
2025-01-17 00:35:24.027451	165.8	18.2	-82.7	0.0
2025-01-17 00:35:26.269836	166.1	18.0	-82.8	0.0
2025-01-17 00:35:28.510890	166.3	17.7	-82.9	0.0
2025-01-17 00:35:30.751192	166.5	17.5	-82.8	0.0
2025-01-17 00:35:32.993170	166.7	17.2	-82.8	0.0
2025-01-17 00:35:35.235985	166.9	17.0	-82.7	0.0
2025-01-17 00:35:37.476377	167.1	16.8	-82.8	0.0
2025-01-17 00:35:39.716504	167.4	16.5	-82.8	0.0
2025-01-17 00:35:41.956578	167.6	16.3	-82.8	0.0
2025-01-17 00:35:44.196125	167.8	16.1	-82.8	0.0
2025-01-17 00:35:46.432418	168.0	15.8	-82.9	0.0
2025-01-17 00:35:48.673499	168.1	15.6	-82.9	0.0
2025-01-17 00:35:50.916074	168.3	15.4	-82.3	0.0
2025-01-17 00:35:53.160574	168.5	15.1	-82.5	0.0
2025-01-17 00:35:55.399555	168.7	14.9	-82.6	0.0
2025-01-17 00:35:57.640173	168.9	14.7	-82.2	0.0
2025-01-17 00:35:59.883486	169.1	14.5	-82.5	0.0
2025-01-17 00:36:02.127088	169.3	14.3	-82.1	0.0
2025-01-17 00:36:04.371986	169.4	14.0	-82.5	0.0
2025-01-17 00:36:06.615991	169.6	13.8	-82.5	0.0
2025-01-17 00:36:08.856729	169.8	13.6	-82.5	0.0
2025-01-17 00:36:11.096191	169.9	13.4	-82.8	0.0
2025-01-17 00:36:13.338620	170.1	13.2	-82.6	0.0
2025-01-17 00:36:15.582624	170.3	13.0	-82.7	0.0
2025-01-17 00:36:17.822878	170.4	12.8	-83.0	0.0
2025-01-17 00:36:20.063640	170.6	12.6	-82.6	0.0
2025-01-17 00:36:22.306036	170.7	12.4	-82.8	0.0
2025-01-17 00:36:24.547554	170.9	12.2	-82.8	0.0
2025-01-17 00:36:26.789704	171.1	12.0	-82.6	0.0
2025-01-17 00:36:29.028919	171.2	11.8	-82.6	0.0
2025-01-17 00:36:31.271105	171.4	11.6	-82.3	0.0
2025-01-17 00:36:33.512787	171.5	11.4	-82.6	0.0
2025-01-17 00:36:35.754297	171.6	11.2	-82.3	0.0
2025-01-17 00:36:37.998878	171.8	11.0	-83.0	0.0
2025-01-17 00:36:40.238194	171.9	10.8	-82.8	0.0
2025-01-17 00:36:42.479912	172.1	10.6	-82.7	0.0
2025-01-17 00:36:44.722051	172.2	10.4	-82.9	0.0
2025-01-17 00:36:46.965074	172.3	10.2	-82.9	0.0
2025-01-17 00:36:49.207100	172.5	10.0	-82.6	0.0
#Closed at: 2025-01-17 00:26:25.431062