passes_logs/2025/01/17/planumMaritime01/planumMaritime01__20250117_104453_NOAA_18_rec.log

#Pass ID: 20250117_104453_NOAA 18
#Satellite: NOAA 18
#Configuration: NOAA 18
#Start time: 2025-01-17 10:44:58.417953

#LorettStation: 1.0.0 05.05.2024
#Station: planumMaritime01
#Location: 37.49445 lon 55.92918 lat
#TLE: 1 28654U 05018A   25016.15379782  .00000321  00000+0  19399-3 0  9994
#TLE: 2 28654  98.8565  97.1968 0014416 175.9109 184.2183 14.13487365 13346

#Time	Az	El	Level	SNR
2025-01-17 10:45:00.569961	359.7	10.1	-94.8	0.0
2025-01-17 10:45:02.816279	359.5	10.3	-94.5	0.0
2025-01-17 10:45:05.057259	359.2	10.4	-94.9	0.0
2025-01-17 10:45:07.300610	359.0	10.6	-94.6	0.0
2025-01-17 10:45:09.543960	358.7	10.7	-94.7	0.0
2025-01-17 10:45:11.785230	358.4	10.9	-94.8	0.0
2025-01-17 10:45:14.029444	358.2	11.0	-94.5	0.0
2025-01-17 10:45:16.269783	357.9	11.2	-94.9	0.0
2025-01-17 10:45:18.512608	357.6	11.3	-94.7	0.0
2025-01-17 10:45:20.751945	357.3	11.5	-95.0	0.0
2025-01-17 10:45:22.997253	357.1	11.7	-94.6	0.0
2025-01-17 10:45:25.239189	356.8	11.8	-94.6	0.0
2025-01-17 10:45:27.478601	356.5	12.0	-94.6	0.0
2025-01-17 10:45:29.722060	356.2	12.1	-94.9	0.0
2025-01-17 10:45:31.963714	355.9	12.3	-94.7	0.0
2025-01-17 10:45:34.206955	355.6	12.4	-94.6	0.0
2025-01-17 10:45:36.449354	355.3	12.6	-94.5	0.0
2025-01-17 10:45:38.690294	355.0	12.7	-94.5	0.0
2025-01-17 10:45:40.935153	354.7	12.9	-94.6	0.0
2025-01-17 10:45:43.174194	354.4	13.0	-94.5	0.0
2025-01-17 10:45:45.416904	354.1	13.2	-94.5	0.0
2025-01-17 10:45:47.655671	353.8	13.3	-94.7	0.0
2025-01-17 10:45:49.898652	353.5	13.5	-94.6	0.0
2025-01-17 10:45:52.138389	353.2	13.6	-94.6	0.0
2025-01-17 10:45:54.380092	352.9	13.8	-94.7	0.0
2025-01-17 10:45:56.625352	352.5	14.0	-94.7	0.0
2025-01-17 10:45:58.868082	352.2	14.1	-94.8	0.0
2025-01-17 10:46:01.108721	351.9	14.3	-94.9	0.0
2025-01-17 10:46:03.352683	351.5	14.4	-94.8	0.0
2025-01-17 10:46:05.596539	351.2	14.6	-95.0	0.0
2025-01-17 10:46:07.839341	350.8	14.7	-94.9	0.0
2025-01-17 10:46:10.081374	350.5	14.9	-95.0	0.0
2025-01-17 10:46:12.323794	350.1	15.0	-94.6	0.0
2025-01-17 10:46:14.568260	349.8	15.2	-94.7	0.0
2025-01-17 10:46:16.811551	349.4	15.4	-94.7	0.0
2025-01-17 10:46:19.054574	349.1	15.5	-94.8	0.0
2025-01-17 10:46:21.299339	348.7	15.7	-94.9	0.0
2025-01-17 10:46:23.540439	348.3	15.8	-94.8	0.0
2025-01-17 10:46:25.782992	348.0	16.0	-94.7	0.0
2025-01-17 10:46:28.032368	347.6	16.1	-94.8	0.0
2025-01-17 10:46:30.274393	347.2	16.3	-94.7	0.0
2025-01-17 10:46:32.515749	346.8	16.4	-94.6	0.0
2025-01-17 10:46:34.757530	346.4	16.6	-94.8	0.0
2025-01-17 10:46:37.000508	346.0	16.7	-94.8	0.0
2025-01-17 10:46:39.242660	345.6	16.9	-94.7	0.0
2025-01-17 10:46:41.483322	345.2	17.0	-94.7	0.0
2025-01-17 10:46:43.727953	344.8	17.2	-94.8	0.0
2025-01-17 10:46:45.969926	344.4	17.3	-95.0	0.0
2025-01-17 10:46:48.212428	344.0	17.5	-95.0	0.0
2025-01-17 10:46:50.453965	343.6	17.6	-94.8	0.0
2025-01-17 10:46:52.698669	343.2	17.8	-95.1	0.0
2025-01-17 10:46:54.940453	342.7	17.9	-95.1	0.0
2025-01-17 10:46:57.182218	342.3	18.1	-94.8	0.0
2025-01-17 10:46:59.423631	341.9	18.2	-95.1	0.0
2025-01-17 10:47:01.667196	341.4	18.4	-95.0	0.0
2025-01-17 10:47:03.912280	341.0	18.5	-94.9	0.0
2025-01-17 10:47:06.154541	340.5	18.6	-94.6	0.0
2025-01-17 10:47:08.399464	340.1	18.8	-94.7	0.0
2025-01-17 10:47:10.640567	339.6	18.9	-94.7	0.0
2025-01-17 10:47:12.883209	339.2	19.1	-94.9	0.0
2025-01-17 10:47:15.124700	338.7	19.2	-94.8	0.0
2025-01-17 10:47:17.364564	338.2	19.3	-94.8	0.0
2025-01-17 10:47:19.606795	337.8	19.5	-94.6	0.0
2025-01-17 10:47:21.847258	337.3	19.6	-94.8	0.0
2025-01-17 10:47:24.089207	336.8	19.7	-94.5	0.0
2025-01-17 10:47:26.332976	336.3	19.9	-95.0	0.0
2025-01-17 10:47:28.575218	335.8	20.0	-94.6	0.0
2025-01-17 10:47:30.815625	335.3	20.1	-94.7	0.0
2025-01-17 10:47:33.058306	334.8	20.2	-94.7	0.0
2025-01-17 10:47:35.302303	334.3	20.4	-95.0	0.0
2025-01-17 10:47:37.541571	333.8	20.5	-94.7	0.0
2025-01-17 10:47:39.783901	333.3	20.6	-95.0	0.0
2025-01-17 10:47:42.025711	332.8	20.7	-95.0	0.0
2025-01-17 10:47:44.269388	332.3	20.8	-95.0	0.0
2025-01-17 10:47:46.512028	331.8	21.0	-94.9	0.0
2025-01-17 10:47:48.753325	331.2	21.1	-94.8	0.0
2025-01-17 10:47:50.993028	330.7	21.2	-95.2	0.0
2025-01-17 10:47:53.236322	330.2	21.3	-95.1	0.0
2025-01-17 10:47:55.476834	329.6	21.4	-94.7	0.0
2025-01-17 10:47:57.718950	329.1	21.5	-94.7	0.0
2025-01-17 10:47:59.961315	328.5	21.6	-94.7	0.0
2025-01-17 10:48:02.203943	328.0	21.7	-94.7	0.0
2025-01-17 10:48:04.443498	327.4	21.8	-94.9	0.0
2025-01-17 10:48:06.688479	326.9	21.9	-94.5	0.0
2025-01-17 10:48:08.930450	326.3	22.0	-94.3	0.0
2025-01-17 10:48:11.169695	325.8	22.1	-94.8	0.0
2025-01-17 10:48:13.413514	325.2	22.2	-94.5	0.0
2025-01-17 10:48:15.654343	324.6	22.2	-94.6	0.0
2025-01-17 10:48:17.896444	324.0	22.3	-94.7	0.0
2025-01-17 10:48:20.139552	323.5	22.4	-94.7	0.0
2025-01-17 10:48:22.382435	322.9	22.5	-94.7	0.0
2025-01-17 10:48:24.623242	322.3	22.6	-94.7	0.0
2025-01-17 10:48:26.865158	321.7	22.6	-94.7	0.0
2025-01-17 10:48:29.105826	321.1	22.7	-94.9	0.0
2025-01-17 10:48:31.347840	320.5	22.8	-94.9	0.0
2025-01-17 10:48:33.591302	320.0	22.8	-94.9	0.0
2025-01-17 10:48:35.836568	319.4	22.9	-95.0	0.0
2025-01-17 10:48:38.080532	318.8	22.9	-95.1	0.0
2025-01-17 10:48:40.322317	318.2	23.0	-94.7	0.0
2025-01-17 10:48:42.565485	317.6	23.0	-94.5	0.0
2025-01-17 10:48:44.808155	317.0	23.1	-94.8	0.0
2025-01-17 10:48:47.048681	316.4	23.1	-94.6	0.0
2025-01-17 10:48:49.291410	315.8	23.1	-94.9	0.0
2025-01-17 10:48:51.532189	315.1	23.2	-94.6	0.0
2025-01-17 10:48:53.776248	314.5	23.2	-94.6	0.0
2025-01-17 10:48:56.017745	313.9	23.2	-94.6	0.0
2025-01-17 10:48:58.257276	313.3	23.3	-94.6	0.0
2025-01-17 10:49:00.499168	312.7	23.3	-94.6	0.0
2025-01-17 10:49:02.738133	312.1	23.3	-94.6	0.0
2025-01-17 10:49:04.983141	311.5	23.3	-94.6	0.0
2025-01-17 10:49:07.224201	310.9	23.3	-94.8	0.0
2025-01-17 10:49:09.466541	310.3	23.3	-94.7	0.0
2025-01-17 10:49:11.707363	309.6	23.3	-94.5	0.0
2025-01-17 10:49:13.950508	309.0	23.3	-94.8	0.0
2025-01-17 10:49:16.194771	308.4	23.3	-94.8	0.0
2025-01-17 10:49:18.437717	307.8	23.3	-95.0	0.0
2025-01-17 10:49:20.680663	307.2	23.3	-95.0	0.0
2025-01-17 10:49:22.922388	306.6	23.3	-94.8	0.0
2025-01-17 10:49:25.164345	306.0	23.3	-94.8	0.0
2025-01-17 10:49:27.406235	305.4	23.2	-95.0	0.0
2025-01-17 10:49:29.649225	304.7	23.2	-94.8	0.0
2025-01-17 10:49:31.888017	304.1	23.2	-94.7	0.0
2025-01-17 10:49:34.133252	303.5	23.2	-94.8	0.0
2025-01-17 10:49:36.375996	302.9	23.1	-94.9	0.0
2025-01-17 10:49:38.617024	302.3	23.1	-94.7	0.0
2025-01-17 10:49:40.859393	301.7	23.0	-94.6	0.0
2025-01-17 10:49:43.103187	301.1	23.0	-95.0	0.0
2025-01-17 10:49:45.344952	300.5	22.9	-94.8	0.0
2025-01-17 10:49:47.586405	299.9	22.9	-95.0	0.0
2025-01-17 10:49:49.825940	299.3	22.8	-94.5	0.0
2025-01-17 10:49:52.068078	298.7	22.8	-95.1	0.0
2025-01-17 10:49:54.312008	298.1	22.7	-94.7	0.0
2025-01-17 10:49:56.556105	297.5	22.6	-94.8	0.0
2025-01-17 10:49:58.800091	297.0	22.6	-94.7	0.0
2025-01-17 10:50:01.041319	296.4	22.5	-95.1	0.0
2025-01-17 10:50:03.286021	295.8	22.4	-95.0	0.0
2025-01-17 10:50:05.526634	295.2	22.4	-94.7	0.0
2025-01-17 10:50:07.773409	294.6	22.3	-94.7	0.0
2025-01-17 10:50:10.021591	294.1	22.2	-94.9	0.0
2025-01-17 10:50:12.262388	293.5	22.1	-95.0	0.0
2025-01-17 10:50:14.505394	292.9	22.0	-95.0	0.0
2025-01-17 10:50:16.751359	292.4	21.9	-94.9	0.0
2025-01-17 10:50:18.991285	291.8	21.8	-94.6	0.0
2025-01-17 10:50:21.237093	291.2	21.7	-94.8	0.0
2025-01-17 10:50:23.479966	290.7	21.6	-94.7	0.0
2025-01-17 10:50:25.722473	290.1	21.5	-94.7	0.0
2025-01-17 10:50:27.966288	289.6	21.4	-94.7	0.0
2025-01-17 10:50:30.209356	289.0	21.3	-94.7	0.0
2025-01-17 10:50:32.449143	288.5	21.2	-94.7	0.0
2025-01-17 10:50:34.694289	288.0	21.1	-94.7	0.0
2025-01-17 10:50:36.936326	287.4	21.0	-94.8	0.0
2025-01-17 10:50:39.176975	286.9	20.9	-94.8	0.0
2025-01-17 10:50:41.418922	286.4	20.8	-94.7	0.0
2025-01-17 10:50:43.658387	285.9	20.6	-94.6	0.0
2025-01-17 10:50:45.901749	285.4	20.5	-94.5	0.0
2025-01-17 10:50:48.144792	284.8	20.4	-94.8	0.0
2025-01-17 10:50:50.388887	284.3	20.3	-94.6	0.0
2025-01-17 10:50:52.633652	283.8	20.1	-94.9	0.0
2025-01-17 10:50:54.877137	283.3	20.0	-94.8	0.0
2025-01-17 10:50:57.119102	282.8	19.9	-94.8	0.0
2025-01-17 10:50:59.358581	282.3	19.7	-94.7	0.0
2025-01-17 10:51:01.599902	281.9	19.6	-94.8	0.0
2025-01-17 10:51:03.842050	281.4	19.5	-94.8	0.0
2025-01-17 10:51:06.084642	280.9	19.3	-95.0	0.0
2025-01-17 10:51:08.328321	280.4	19.2	-94.9	0.0
2025-01-17 10:51:10.570351	280.0	19.1	-95.0	0.0
2025-01-17 10:51:12.813856	279.5	18.9	-94.8	0.0
2025-01-17 10:51:15.056423	279.0	18.8	-94.7	0.0
2025-01-17 10:51:17.299605	278.6	18.6	-94.8	0.0
2025-01-17 10:51:19.540325	278.1	18.5	-94.8	0.0
2025-01-17 10:51:21.780218	277.7	18.4	-94.9	0.0
2025-01-17 10:51:24.021442	277.2	18.2	-94.8	0.0
2025-01-17 10:51:26.263239	276.8	18.1	-94.6	0.0
2025-01-17 10:51:28.507263	276.4	17.9	-94.9	0.0
2025-01-17 10:51:30.747638	275.9	17.8	-94.9	0.0
2025-01-17 10:51:32.991367	275.5	17.6	-94.6	0.0
2025-01-17 10:51:35.233404	275.1	17.5	-94.6	0.0
2025-01-17 10:51:37.477184	274.7	17.3	-94.9	0.0
2025-01-17 10:51:39.720337	274.2	17.2	-94.6	0.0
2025-01-17 10:51:41.964392	273.8	17.0	-94.6	0.0
2025-01-17 10:51:44.208213	273.4	16.9	-95.0	0.0
2025-01-17 10:51:46.448888	273.0	16.7	-95.1	0.0
2025-01-17 10:51:48.688263	272.6	16.6	-94.9	0.0
2025-01-17 10:51:50.931017	272.2	16.4	-94.8	0.0
2025-01-17 10:51:53.171396	271.8	16.3	-94.9	0.0
2025-01-17 10:51:55.413779	271.4	16.1	-95.0	0.0
2025-01-17 10:51:57.654389	271.1	16.0	-94.8	0.0
2025-01-17 10:51:59.897652	270.7	15.8	-95.1	0.0
2025-01-17 10:52:02.140424	270.3	15.7	-95.1	0.0
2025-01-17 10:52:04.381560	269.9	15.5	-94.8	0.0
2025-01-17 10:52:06.623039	269.6	15.3	-95.1	0.0
2025-01-17 10:52:08.866163	269.2	15.2	-95.0	0.0
2025-01-17 10:52:11.108380	268.9	15.0	-94.9	0.0
2025-01-17 10:52:13.348063	268.5	14.9	-95.0	0.0
2025-01-17 10:52:15.588401	268.1	14.7	-94.6	0.0
2025-01-17 10:52:17.831967	267.8	14.6	-94.8	0.0
2025-01-17 10:52:20.074971	267.5	14.4	-95.0	0.0
2025-01-17 10:52:22.317199	267.1	14.3	-94.8	0.0
2025-01-17 10:52:24.555613	266.8	14.1	-95.2	0.0
2025-01-17 10:52:26.797070	266.4	13.9	-94.7	0.0
2025-01-17 10:52:29.038217	266.1	13.8	-95.0	0.0
2025-01-17 10:52:31.276372	265.8	13.6	-94.9	0.0
2025-01-17 10:52:33.518192	265.5	13.5	-94.9	0.0
2025-01-17 10:52:35.764219	265.1	13.3	-94.6	0.0
2025-01-17 10:52:38.006971	264.8	13.2	-94.6	0.0
2025-01-17 10:52:40.252255	264.5	13.0	-94.9	0.0
2025-01-17 10:52:42.491981	264.2	12.8	-94.8	0.0
2025-01-17 10:52:44.733756	263.9	12.7	-94.6	0.0
2025-01-17 10:52:46.972240	263.6	12.5	-94.8	0.0
2025-01-17 10:52:49.212401	263.3	12.4	-94.7	0.0
2025-01-17 10:52:51.451871	263.0	12.2	-94.8	0.0
2025-01-17 10:52:53.693352	262.7	12.1	-95.0	0.0
2025-01-17 10:52:55.935218	262.4	11.9	-94.8	0.0
2025-01-17 10:52:58.176867	262.1	11.8	-94.8	0.0
2025-01-17 10:53:00.419405	261.8	11.6	-94.6	0.0
2025-01-17 10:53:02.661857	261.6	11.5	-94.7	0.0
2025-01-17 10:53:04.903602	261.3	11.3	-94.9	0.0
2025-01-17 10:53:07.148256	261.0	11.2	-95.1	0.0
2025-01-17 10:53:09.390692	260.7	11.0	-94.6	0.0
2025-01-17 10:53:11.632810	260.5	10.8	-94.9	0.0
2025-01-17 10:53:13.875116	260.2	10.7	-94.9	0.0
2025-01-17 10:53:16.117036	259.9	10.5	-94.8	0.0
2025-01-17 10:53:18.357898	259.7	10.4	-94.9	0.0
2025-01-17 10:53:20.598378	259.4	10.2	-94.9	0.0
2025-01-17 10:53:22.840037	259.1	10.1	-95.0	0.0
#Closed at: 2025-01-17 10:44:53.420744