passes_logs/2025/01/17/planumMaritime01/planumMaritime01__20250117_065818_NOAA_19_rec.log

#Pass ID: 20250117_065818_NOAA 19
#Satellite: NOAA 19
#Configuration: NOAA 19
#Start time: 2025-01-17 06:58:23.485772

#LorettStation: 1.0.0 05.05.2024
#Station: planumMaritime01
#Location: 37.49445 lon 55.92918 lat
#TLE: 1 33591U 09005A   25016.13687281  .00000278  00000+0  17226-3 0  9992
#TLE: 2 33591  99.0193  79.9081 0014432  54.5182 305.7334 14.13260212821702

#Time	Az	El	Level	SNR
2025-01-17 06:58:25.638903	28.4	10.2	-80.0	0.0
2025-01-17 06:58:27.879410	28.6	10.3	-80.1	0.0
2025-01-17 06:58:30.120994	28.8	10.5	-80.1	0.0
2025-01-17 06:58:32.363681	28.9	10.7	-80.1	0.0
2025-01-17 06:58:34.607261	29.1	10.9	-80.6	0.0
2025-01-17 06:58:36.849539	29.3	11.1	-81.0	0.0
2025-01-17 06:58:39.091384	29.5	11.2	-80.9	0.0
2025-01-17 06:58:41.337267	29.7	11.4	-80.8	0.0
2025-01-17 06:58:43.582049	29.8	11.6	-80.5	0.0
2025-01-17 06:58:45.823828	30.0	11.8	-81.0	0.0
2025-01-17 06:58:48.068127	30.2	12.0	-80.7	0.0
2025-01-17 06:58:50.307943	30.4	12.2	-81.0	0.0
2025-01-17 06:58:52.549262	30.6	12.4	-81.0	0.0
2025-01-17 06:58:54.791579	30.8	12.5	-81.1	0.0
2025-01-17 06:58:57.038683	31.0	12.7	-80.7	0.0
2025-01-17 06:58:59.279161	31.2	12.9	-80.4	0.0
2025-01-17 06:59:01.520761	31.4	13.1	-80.7	0.0
2025-01-17 06:59:03.765946	31.6	13.3	-81.0	0.0
2025-01-17 06:59:06.006026	31.8	13.5	-81.3	0.0
2025-01-17 06:59:08.250624	32.0	13.7	-80.9	0.0
2025-01-17 06:59:10.494340	32.2	13.9	-81.1	0.0
2025-01-17 06:59:12.737316	32.5	14.1	-80.7	0.0
2025-01-17 06:59:14.980574	32.7	14.3	-81.4	0.0
2025-01-17 06:59:17.225936	32.9	14.5	-81.6	0.0
2025-01-17 06:59:19.467709	33.1	14.7	-80.9	0.0
2025-01-17 06:59:21.709914	33.4	14.9	-81.1	0.0
2025-01-17 06:59:23.952085	33.6	15.1	-81.2	0.0
2025-01-17 06:59:26.192466	33.8	15.3	-81.3	0.0
2025-01-17 06:59:28.433671	34.1	15.5	-81.2	0.0
2025-01-17 06:59:30.676467	34.3	15.8	-81.2	0.0
2025-01-17 06:59:32.916997	34.5	16.0	-80.7	0.0
2025-01-17 06:59:35.159889	34.8	16.2	-81.2	0.0
2025-01-17 06:59:37.401560	35.0	16.4	-81.1	0.0
2025-01-17 06:59:39.643155	35.3	16.6	-81.0	0.0
2025-01-17 06:59:41.885920	35.5	16.8	-80.3	0.0
2025-01-17 06:59:44.127065	35.8	17.0	-81.1	0.0
2025-01-17 06:59:46.368004	36.1	17.3	-81.3	0.0
2025-01-17 06:59:48.613075	36.3	17.5	-81.1	0.0
2025-01-17 06:59:50.858346	36.6	17.7	-81.1	0.0
2025-01-17 06:59:53.098845	36.9	17.9	-81.1	0.0
2025-01-17 06:59:55.344271	37.2	18.2	-81.3	0.0
2025-01-17 06:59:57.584566	37.5	18.4	-81.5	0.0
2025-01-17 06:59:59.827358	37.7	18.6	-81.6	0.0
2025-01-17 07:00:02.067595	38.0	18.8	-80.6	0.0
2025-01-17 07:00:04.311345	38.3	19.1	-81.5	0.0
2025-01-17 07:00:06.554345	38.6	19.3	-81.4	0.0
2025-01-17 07:00:08.799739	38.9	19.5	-81.1	0.0
2025-01-17 07:00:11.038055	39.2	19.8	-81.1	0.0
2025-01-17 07:00:13.277727	39.6	20.0	-81.1	0.0
2025-01-17 07:00:15.518591	39.9	20.2	-81.4	0.0
2025-01-17 07:00:17.759833	40.2	20.5	-81.4	0.0
2025-01-17 07:00:20.001380	40.5	20.7	-81.0	0.0
2025-01-17 07:00:22.245104	40.9	21.0	-81.2	0.0
2025-01-17 07:00:24.487300	41.2	21.2	-81.1	0.0
2025-01-17 07:00:26.727054	41.5	21.4	-81.0	0.0
2025-01-17 07:00:28.970261	41.9	21.7	-81.2	0.0
2025-01-17 07:00:31.213043	42.2	21.9	-80.8	0.0
2025-01-17 07:00:33.452493	42.6	22.2	-81.5	0.0
2025-01-17 07:00:35.696636	43.0	22.4	-81.4	0.0
2025-01-17 07:00:37.938528	43.3	22.7	-81.6	0.0
2025-01-17 07:00:40.179511	43.7	22.9	-81.2	0.0
2025-01-17 07:00:42.422855	44.1	23.2	-81.5	0.0
2025-01-17 07:00:44.665835	44.5	23.5	-81.6	0.0
2025-01-17 07:00:46.906664	44.9	23.7	-81.6	0.0
2025-01-17 07:00:49.150551	45.3	24.0	-81.7	0.0
2025-01-17 07:00:51.390625	45.7	24.2	-81.3	0.0
2025-01-17 07:00:53.632474	46.1	24.5	-81.5	0.0
2025-01-17 07:00:55.874747	46.5	24.7	-81.7	0.0
2025-01-17 07:00:58.116264	46.9	25.0	-81.6	0.0
2025-01-17 07:01:00.358349	47.4	25.3	-81.4	0.0
2025-01-17 07:01:02.602897	47.8	25.5	-81.6	0.0
2025-01-17 07:01:04.844996	48.3	25.8	-81.5	0.0
2025-01-17 07:01:07.086596	48.7	26.1	-81.3	0.0
2025-01-17 07:01:09.326341	49.2	26.3	-81.2	0.0
2025-01-17 07:01:11.570543	49.7	26.6	-81.9	0.0
2025-01-17 07:01:13.813164	50.1	26.9	-81.3	0.0
2025-01-17 07:01:16.059219	50.6	27.1	-81.5	0.0
2025-01-17 07:01:18.308571	51.1	27.4	-81.4	0.0
2025-01-17 07:01:20.553451	51.6	27.7	-80.6	0.0
2025-01-17 07:01:22.797069	52.1	27.9	-81.1	0.0
2025-01-17 07:01:25.038261	52.7	28.2	-80.9	0.0
2025-01-17 07:01:27.281724	53.2	28.5	-80.8	0.0
2025-01-17 07:01:29.526680	53.7	28.7	-80.3	0.0
2025-01-17 07:01:31.773052	54.3	29.0	-80.8	0.0
2025-01-17 07:01:34.017893	54.8	29.3	-80.5	0.0
2025-01-17 07:01:36.257499	55.4	29.5	-81.0	0.0
2025-01-17 07:01:38.500265	56.0	29.8	-80.6	0.0
2025-01-17 07:01:40.746887	56.5	30.1	-81.1	0.0
2025-01-17 07:01:42.989754	57.1	30.3	-81.2	0.0
2025-01-17 07:01:45.231621	57.7	30.6	-81.0	0.0
2025-01-17 07:01:47.476828	58.4	30.9	-81.0	0.0
2025-01-17 07:01:49.719547	59.0	31.1	-81.1	0.0
2025-01-17 07:01:51.964681	59.6	31.4	-81.1	0.0
2025-01-17 07:01:54.208605	60.2	31.6	-81.1	0.0
2025-01-17 07:01:56.448677	60.9	31.9	-81.2	0.0
2025-01-17 07:01:58.691735	61.6	32.2	-81.4	0.0
2025-01-17 07:02:00.932410	62.2	32.4	-81.2	0.0
2025-01-17 07:02:03.172914	62.9	32.7	-81.2	0.0
2025-01-17 07:02:05.414479	63.6	32.9	-81.5	0.0
2025-01-17 07:02:07.658577	64.3	33.2	-81.5	0.0
2025-01-17 07:02:09.901039	65.0	33.4	-81.5	0.0
2025-01-17 07:02:12.141564	65.7	33.6	-81.2	0.0
2025-01-17 07:02:14.382271	66.5	33.9	-80.8	0.0
2025-01-17 07:02:16.627759	67.2	34.1	-81.6	0.0
2025-01-17 07:02:18.870399	68.0	34.3	-81.8	0.0
2025-01-17 07:02:21.113653	68.7	34.6	-81.7	0.0
2025-01-17 07:02:23.355206	69.5	34.8	-81.7	0.0
2025-01-17 07:02:25.597162	70.3	35.0	-81.8	0.0
2025-01-17 07:02:27.842592	71.1	35.2	-81.7	0.0
2025-01-17 07:02:30.087943	71.9	35.4	-81.5	0.0
2025-01-17 07:02:32.331548	72.7	35.6	-81.6	0.0
2025-01-17 07:02:34.573718	73.6	35.8	-81.7	0.0
2025-01-17 07:02:36.817132	74.4	36.0	-81.5	0.0
2025-01-17 07:02:39.060674	75.2	36.2	-80.9	0.0
2025-01-17 07:02:41.307853	76.1	36.4	-81.6	0.0
2025-01-17 07:02:43.548647	77.0	36.6	-81.5	0.0
2025-01-17 07:02:45.791598	77.8	36.7	-81.8	0.0
2025-01-17 07:02:48.032661	78.7	36.9	-81.9	0.0
2025-01-17 07:02:50.274902	79.6	37.1	-81.8	0.0
2025-01-17 07:02:52.517511	80.5	37.2	-81.6	0.0
2025-01-17 07:02:54.759445	81.4	37.3	-81.3	0.0
2025-01-17 07:02:57.003599	82.3	37.5	-81.7	0.0
2025-01-17 07:02:59.243751	83.3	37.6	-82.0	0.0
2025-01-17 07:03:01.483876	84.2	37.7	-81.8	0.0
2025-01-17 07:03:03.728027	85.1	37.8	-81.9	0.0
2025-01-17 07:03:05.969890	86.1	37.9	-81.8	0.0
2025-01-17 07:03:08.213763	87.0	38.0	-82.0	0.0
2025-01-17 07:03:10.454194	88.0	38.1	-81.3	0.0
2025-01-17 07:03:12.694736	88.9	38.2	-81.7	0.0
2025-01-17 07:03:14.934681	89.9	38.3	-81.7	0.0
2025-01-17 07:03:17.178423	90.8	38.3	-81.8	0.0
2025-01-17 07:03:19.417490	91.8	38.4	-81.6	0.0
2025-01-17 07:03:21.656413	92.8	38.4	-81.7	0.0
2025-01-17 07:03:23.900032	93.8	38.4	-81.6	0.0
2025-01-17 07:03:26.142234	94.7	38.5	-81.6	0.0
2025-01-17 07:03:28.384521	95.7	38.5	-81.7	0.0
2025-01-17 07:03:30.627623	96.7	38.5	-81.3	0.0
2025-01-17 07:03:32.868539	97.7	38.5	-81.6	0.0
2025-01-17 07:03:35.110772	98.6	38.5	-81.5	0.0
2025-01-17 07:03:37.357163	99.6	38.4	-81.8	0.0
2025-01-17 07:03:39.597833	100.6	38.4	-81.9	0.0
2025-01-17 07:03:41.836718	101.6	38.4	-81.8	0.0
2025-01-17 07:03:44.078660	102.5	38.3	-81.5	0.0
2025-01-17 07:03:46.317607	103.5	38.3	-81.5	0.0
2025-01-17 07:03:48.563600	104.5	38.2	-81.3	0.0
2025-01-17 07:03:50.804821	105.4	38.1	-81.6	0.0
2025-01-17 07:03:53.047689	106.4	38.0	-81.3	0.0
2025-01-17 07:03:55.290008	107.3	37.9	-81.3	0.0
2025-01-17 07:03:57.530524	108.3	37.8	-81.1	0.0
2025-01-17 07:03:59.774601	109.2	37.7	-81.5	0.0
2025-01-17 07:04:02.019348	110.1	37.6	-81.7	0.0
2025-01-17 07:04:04.265353	111.1	37.5	-81.3	0.0
2025-01-17 07:04:06.511467	112.0	37.4	-81.5	0.0
2025-01-17 07:04:08.753336	112.9	37.2	-81.8	0.0
2025-01-17 07:04:10.995103	113.8	37.1	-81.7	0.0
2025-01-17 07:04:13.236679	114.7	36.9	-81.8	0.0
2025-01-17 07:04:15.478689	115.6	36.8	-81.5	0.0
2025-01-17 07:04:17.720690	116.4	36.6	-82.2	0.0
2025-01-17 07:04:19.964535	117.3	36.4	-81.5	0.0
2025-01-17 07:04:22.205895	118.2	36.2	-81.7	0.0
2025-01-17 07:04:24.447328	119.0	36.0	-81.6	0.0
2025-01-17 07:04:26.690904	119.8	35.8	-81.6	0.0
2025-01-17 07:04:28.932695	120.7	35.6	-81.9	0.0
2025-01-17 07:04:31.180225	121.5	35.4	-81.4	0.0
2025-01-17 07:04:33.423442	122.3	35.2	-81.3	0.0
2025-01-17 07:04:35.668057	123.1	35.0	-81.6	0.0
2025-01-17 07:04:37.910722	123.9	34.8	-81.8	0.0
2025-01-17 07:04:40.150335	124.7	34.6	-81.5	0.0
2025-01-17 07:04:42.391660	125.4	34.4	-81.7	0.0
2025-01-17 07:04:44.631990	126.2	34.1	-81.4	0.0
2025-01-17 07:04:46.876495	126.9	33.9	-81.8	0.0
2025-01-17 07:04:49.121935	127.7	33.7	-82.0	0.0
2025-01-17 07:04:51.365830	128.4	33.4	-81.9	0.0
2025-01-17 07:04:53.610437	129.1	33.2	-82.1	0.0
2025-01-17 07:04:55.850721	129.8	32.9	-81.6	0.0
2025-01-17 07:04:58.090482	130.5	32.7	-82.2	0.0
2025-01-17 07:05:00.333316	131.2	32.4	-81.9	0.0
2025-01-17 07:05:02.577915	131.9	32.2	-81.6	0.0
2025-01-17 07:05:04.817615	132.5	31.9	-81.9	0.0
2025-01-17 07:05:07.062977	133.2	31.7	-81.7	0.0
2025-01-17 07:05:09.306635	133.8	31.4	-82.1	0.0
2025-01-17 07:05:11.550146	134.4	31.1	-81.8	0.0
2025-01-17 07:05:13.795275	135.1	30.9	-81.9	0.0
2025-01-17 07:05:16.038470	135.7	30.6	-82.4	0.0
2025-01-17 07:05:18.280406	136.3	30.3	-82.2	0.0
2025-01-17 07:05:20.524093	136.9	30.1	-82.3	0.0
2025-01-17 07:05:22.769257	137.5	29.8	-81.8	0.0
2025-01-17 07:05:25.010754	138.0	29.5	-82.0	0.0
2025-01-17 07:05:27.251744	138.6	29.3	-82.2	0.0
2025-01-17 07:05:29.491179	139.2	29.0	-82.3	0.0
2025-01-17 07:05:31.733632	139.7	28.7	-81.8	0.0
2025-01-17 07:05:33.978899	140.2	28.5	-81.9	0.0
2025-01-17 07:05:36.222634	140.8	28.2	-81.9	0.0
2025-01-17 07:05:38.465688	141.3	27.9	-81.9	0.0
2025-01-17 07:05:40.708085	141.8	27.7	-81.7	0.0
2025-01-17 07:05:42.952335	142.3	27.4	-81.8	0.0
2025-01-17 07:05:45.193189	142.8	27.1	-82.0	0.0
2025-01-17 07:05:47.436748	143.3	26.9	-81.6	0.0
2025-01-17 07:05:49.677433	143.8	26.6	-81.9	0.0
2025-01-17 07:05:51.919274	144.2	26.3	-82.0	0.0
2025-01-17 07:05:54.163832	144.7	26.1	-81.7	0.0
2025-01-17 07:05:56.407985	145.2	25.8	-81.5	0.0
2025-01-17 07:05:58.650529	145.6	25.5	-81.8	0.0
2025-01-17 07:06:00.890515	146.1	25.3	-81.9	0.0
2025-01-17 07:06:03.132937	146.5	25.0	-81.1	0.0
2025-01-17 07:06:05.377725	146.9	24.7	-81.2	0.0
2025-01-17 07:06:07.619188	147.3	24.5	-81.3	0.0
2025-01-17 07:06:09.859679	147.7	24.2	-82.0	0.0
2025-01-17 07:06:12.103257	148.2	24.0	-81.0	0.0
2025-01-17 07:06:14.346731	148.6	23.7	-81.8	0.0
2025-01-17 07:06:16.585768	149.0	23.4	-81.7	0.0
2025-01-17 07:06:18.827826	149.3	23.2	-81.9	0.0
2025-01-17 07:06:21.069372	149.7	22.9	-81.2	0.0
2025-01-17 07:06:23.312090	150.1	22.7	-81.9	0.0
2025-01-17 07:06:25.552489	150.5	22.4	-81.9	0.0
2025-01-17 07:06:27.793678	150.8	22.2	-81.9	0.0
2025-01-17 07:06:30.040005	151.2	21.9	-82.2	0.0
2025-01-17 07:06:32.284701	151.5	21.7	-82.2	0.0
2025-01-17 07:06:34.528532	151.9	21.4	-81.8	0.0
2025-01-17 07:06:36.771531	152.2	21.2	-82.2	0.0
2025-01-17 07:06:39.016014	152.6	20.9	-82.3	0.0
2025-01-17 07:06:41.260131	152.9	20.7	-82.1	0.0
2025-01-17 07:06:43.503526	153.2	20.5	-82.2	0.0
2025-01-17 07:06:45.743613	153.6	20.2	-82.2	0.0
2025-01-17 07:06:47.987402	153.9	20.0	-82.3	0.0
2025-01-17 07:06:50.233213	154.2	19.7	-82.2	0.0
2025-01-17 07:06:52.477943	154.5	19.5	-81.9	0.0
2025-01-17 07:06:54.721973	154.8	19.3	-81.9	0.0
2025-01-17 07:06:56.967183	155.1	19.0	-82.1	0.0
2025-01-17 07:06:59.211370	155.4	18.8	-82.0	0.0
2025-01-17 07:07:01.453726	155.7	18.6	-82.0	0.0
2025-01-17 07:07:03.694263	156.0	18.4	-81.7	0.0
2025-01-17 07:07:05.936590	156.3	18.1	-82.1	0.0
2025-01-17 07:07:08.180290	156.5	17.9	-82.3	0.0
2025-01-17 07:07:10.420575	156.8	17.7	-82.4	0.0
2025-01-17 07:07:12.666527	157.1	17.5	-82.2	0.0
2025-01-17 07:07:14.908106	157.4	17.2	-82.3	0.0
2025-01-17 07:07:17.148719	157.6	17.0	-81.7	0.0
2025-01-17 07:07:19.391110	157.9	16.8	-81.8	0.0
2025-01-17 07:07:21.634322	158.1	16.6	-81.5	0.0
2025-01-17 07:07:23.877362	158.4	16.4	-81.7	0.0
2025-01-17 07:07:26.118853	158.6	16.1	-81.2	0.0
2025-01-17 07:07:28.361978	158.9	15.9	-81.5	0.0
2025-01-17 07:07:30.603812	159.1	15.7	-81.5	0.0
2025-01-17 07:07:32.844362	159.4	15.5	-81.8	0.0
2025-01-17 07:07:35.086683	159.6	15.3	-81.6	0.0
2025-01-17 07:07:37.328686	159.8	15.1	-81.8	0.0
2025-01-17 07:07:39.570410	160.1	14.9	-81.5	0.0
2025-01-17 07:07:41.812205	160.3	14.7	-81.9	0.0
2025-01-17 07:07:44.053237	160.5	14.5	-81.5	0.0
2025-01-17 07:07:46.295575	160.7	14.3	-81.8	0.0
2025-01-17 07:07:48.537366	160.9	14.1	-82.2	0.0
2025-01-17 07:07:50.779714	161.2	13.9	-81.9	0.0
2025-01-17 07:07:53.021198	161.4	13.7	-81.7	0.0
2025-01-17 07:07:55.263037	161.6	13.5	-81.9	0.0
2025-01-17 07:07:57.501465	161.8	13.3	-82.1	0.0
2025-01-17 07:07:59.744219	162.0	13.1	-82.4	0.0
2025-01-17 07:08:01.985296	162.2	12.9	-82.4	0.0
2025-01-17 07:08:04.227583	162.4	12.7	-82.1	0.0
2025-01-17 07:08:06.472704	162.6	12.5	-82.1	0.0
2025-01-17 07:08:08.714167	162.8	12.3	-82.3	0.0
2025-01-17 07:08:10.958703	163.0	12.1	-81.9	0.0
2025-01-17 07:08:13.201855	163.2	11.9	-82.0	0.0
2025-01-17 07:08:15.446332	163.4	11.7	-82.4	0.0
2025-01-17 07:08:17.687589	163.5	11.6	-82.1	0.0
2025-01-17 07:08:19.933518	163.7	11.4	-82.0	0.0
2025-01-17 07:08:22.175844	163.9	11.2	-82.0	0.0
2025-01-17 07:08:24.418723	164.1	11.0	-81.9	0.0
2025-01-17 07:08:26.665689	164.3	10.8	-81.9	0.0
2025-01-17 07:08:28.906289	164.4	10.7	-81.8	0.0
2025-01-17 07:08:31.146884	164.6	10.5	-81.9	0.0
2025-01-17 07:08:33.388423	164.8	10.3	-81.4	0.0
2025-01-17 07:08:35.633798	164.9	10.1	-82.2	0.0
#Closed at: 2025-01-17 06:58:18.489092