passes_logs/2025/01/17/planumMaritime01/planumMaritime01__20250117_203840_NOAA_18_rec.log

#Pass ID: 20250117_203840_NOAA 18
#Satellite: NOAA 18
#Configuration: NOAA 18
#Start time: 2025-01-17 20:38:45.353724

#LorettStation: 1.0.0 05.05.2024
#Station: planumMaritime01
#Location: 37.49445 lon 55.92918 lat
#TLE: 1 28654U 05018A   25017.14480960  .00000361  00000+0  21486-3 0  9999
#TLE: 2 28654  98.8562  98.1779 0014463 173.1209 187.0164 14.13488310 13483

#Time	Az	El	Level	SNR
2025-01-17 20:38:47.518150	211.2	10.2	-94.6	0.0
2025-01-17 20:38:49.762987	211.5	10.3	-94.6	0.0
2025-01-17 20:38:52.006801	211.7	10.5	-94.7	0.0
2025-01-17 20:38:54.250392	212.0	10.6	-94.7	0.0
2025-01-17 20:38:56.492994	212.2	10.8	-94.6	0.0
2025-01-17 20:38:58.733819	212.4	10.9	-94.4	0.0
2025-01-17 20:39:00.975094	212.7	11.1	-94.6	0.0
2025-01-17 20:39:03.217351	212.9	11.3	-94.4	0.0
2025-01-17 20:39:05.460144	213.2	11.4	-94.6	0.0
2025-01-17 20:39:07.701596	213.4	11.6	-94.7	0.0
2025-01-17 20:39:09.944646	213.7	11.7	-94.6	0.0
2025-01-17 20:39:12.185416	214.0	11.9	-94.7	0.0
2025-01-17 20:39:14.433206	214.2	12.1	-94.5	0.0
2025-01-17 20:39:16.676480	214.5	12.2	-94.5	0.0
2025-01-17 20:39:18.922543	214.8	12.4	-94.6	0.0
2025-01-17 20:39:21.165199	215.0	12.6	-94.8	0.0
2025-01-17 20:39:23.406052	215.3	12.7	-94.6	0.0
2025-01-17 20:39:25.647224	215.6	12.9	-94.6	0.0
2025-01-17 20:39:27.888103	215.9	13.1	-94.8	0.0
2025-01-17 20:39:30.130535	216.1	13.2	-94.6	0.0
2025-01-17 20:39:32.374284	216.4	13.4	-94.6	0.0
2025-01-17 20:39:34.617090	216.7	13.6	-94.8	0.0
2025-01-17 20:39:36.859671	217.0	13.7	-94.7	0.0
2025-01-17 20:39:39.101813	217.3	13.9	-94.7	0.0
2025-01-17 20:39:41.344171	217.6	14.1	-94.9	0.0
2025-01-17 20:39:43.587100	217.9	14.2	-94.6	0.0
2025-01-17 20:39:45.829397	218.2	14.4	-94.4	0.0
2025-01-17 20:39:48.072192	218.5	14.6	-94.8	0.0
2025-01-17 20:39:50.311442	218.8	14.8	-94.6	0.0
2025-01-17 20:39:52.553141	219.2	14.9	-94.8	0.0
2025-01-17 20:39:54.793716	219.5	15.1	-94.7	0.0
2025-01-17 20:39:57.035215	219.8	15.3	-94.6	0.0
2025-01-17 20:39:59.276138	220.1	15.4	-94.6	0.0
2025-01-17 20:40:01.520038	220.5	15.6	-94.6	0.0
2025-01-17 20:40:03.763588	220.8	15.8	-94.5	0.0
2025-01-17 20:40:06.002553	221.1	16.0	-94.4	0.0
2025-01-17 20:40:08.244115	221.5	16.1	-94.3	0.0
2025-01-17 20:40:10.488566	221.8	16.3	-94.4	0.0
2025-01-17 20:40:12.731659	222.2	16.5	-94.6	0.0
2025-01-17 20:40:14.972207	222.5	16.7	-94.5	0.0
2025-01-17 20:40:17.216257	222.9	16.8	-94.7	0.0
2025-01-17 20:40:19.458823	223.2	17.0	-94.9	0.0
2025-01-17 20:40:21.699886	223.6	17.2	-94.6	0.0
2025-01-17 20:40:23.942287	224.0	17.4	-95.0	0.0
2025-01-17 20:40:26.185033	224.3	17.5	-95.1	0.0
2025-01-17 20:40:28.424963	224.7	17.7	-94.9	0.0
2025-01-17 20:40:30.666703	225.1	17.9	-95.1	0.0
2025-01-17 20:40:32.905663	225.5	18.1	-94.8	0.0
2025-01-17 20:40:35.149258	225.9	18.2	-94.8	0.0
2025-01-17 20:40:37.390092	226.3	18.4	-95.0	0.0
2025-01-17 20:40:39.629821	226.7	18.6	-94.9	0.0
2025-01-17 20:40:41.871258	227.1	18.8	-94.9	0.0
2025-01-17 20:40:44.112899	227.5	18.9	-94.7	0.0
2025-01-17 20:40:46.354984	227.9	19.1	-94.9	0.0
2025-01-17 20:40:48.598298	228.3	19.3	-95.0	0.0
2025-01-17 20:40:50.840298	228.7	19.5	-94.6	0.0
2025-01-17 20:40:53.083165	229.2	19.6	-94.8	0.0
2025-01-17 20:40:55.323744	229.6	19.8	-94.8	0.0
2025-01-17 20:40:57.563831	230.0	20.0	-94.9	0.0
2025-01-17 20:40:59.804956	230.5	20.1	-94.8	0.0
2025-01-17 20:41:02.052126	230.9	20.3	-94.7	0.0
2025-01-17 20:41:04.293590	231.4	20.5	-94.7	0.0
2025-01-17 20:41:06.533711	231.8	20.7	-94.5	0.0
2025-01-17 20:41:08.776427	232.3	20.8	-94.6	0.0
2025-01-17 20:41:11.019842	232.8	21.0	-94.6	0.0
2025-01-17 20:41:13.263896	233.2	21.2	-94.9	0.0
2025-01-17 20:41:15.504820	233.7	21.3	-94.6	0.0
2025-01-17 20:41:17.747940	234.2	21.5	-94.6	0.0
2025-01-17 20:41:19.992963	234.7	21.7	-94.7	0.0
2025-01-17 20:41:22.234163	235.2	21.8	-94.6	0.0
2025-01-17 20:41:24.478215	235.7	22.0	-94.8	0.0
2025-01-17 20:41:26.721448	236.2	22.1	-94.7	0.0
2025-01-17 20:41:28.964186	236.7	22.3	-95.0	0.0
2025-01-17 20:41:31.209021	237.2	22.5	-94.6	0.0
2025-01-17 20:41:33.452893	237.7	22.6	-94.6	0.0
2025-01-17 20:41:35.696279	238.2	22.8	-94.6	0.0
2025-01-17 20:41:37.940214	238.7	22.9	-94.7	0.0
2025-01-17 20:41:40.182547	239.3	23.1	-94.8	0.0
2025-01-17 20:41:42.425791	239.8	23.2	-94.6	0.0
2025-01-17 20:41:44.666413	240.3	23.4	-94.9	0.0
2025-01-17 20:41:46.909561	240.9	23.5	-94.7	0.0
2025-01-17 20:41:49.154630	241.4	23.7	-94.6	0.0
2025-01-17 20:41:51.397034	242.0	23.8	-94.6	0.0
2025-01-17 20:41:53.640192	242.6	24.0	-94.7	0.0
2025-01-17 20:41:55.883058	243.1	24.1	-94.7	0.0
2025-01-17 20:41:58.127205	243.7	24.3	-94.7	0.0
2025-01-17 20:42:00.369364	244.3	24.4	-94.8	0.0
2025-01-17 20:42:02.608648	244.9	24.5	-94.7	0.0
2025-01-17 20:42:04.854176	245.4	24.7	-94.8	0.0
2025-01-17 20:42:07.097921	246.0	24.8	-95.1	0.0
2025-01-17 20:42:09.343174	246.6	24.9	-94.8	0.0
2025-01-17 20:42:11.585845	247.2	25.0	-95.1	0.0
2025-01-17 20:42:13.827214	247.8	25.1	-94.9	0.0
2025-01-17 20:42:16.071438	248.4	25.3	-94.7	0.0
2025-01-17 20:42:18.311533	249.1	25.4	-94.9	0.0
2025-01-17 20:42:20.552805	249.7	25.5	-94.5	0.0
2025-01-17 20:42:22.793592	250.3	25.6	-94.7	0.0
2025-01-17 20:42:25.037483	250.9	25.7	-94.7	0.0
2025-01-17 20:42:27.282223	251.5	25.8	-94.6	0.0
2025-01-17 20:42:29.525208	252.2	25.9	-94.8	0.0
2025-01-17 20:42:31.766645	252.8	26.0	-94.9	0.0
2025-01-17 20:42:34.008054	253.5	26.1	-95.0	0.0
2025-01-17 20:42:36.251127	254.1	26.2	-94.8	0.0
2025-01-17 20:42:38.493228	254.7	26.3	-94.8	0.0
2025-01-17 20:42:40.737355	255.4	26.4	-94.9	0.0
2025-01-17 20:42:42.978558	256.1	26.4	-95.0	0.0
2025-01-17 20:42:45.221705	256.7	26.5	-94.7	0.0
2025-01-17 20:42:47.464257	257.4	26.6	-94.6	0.0
2025-01-17 20:42:49.706121	258.0	26.6	-94.7	0.0
2025-01-17 20:42:51.947596	258.7	26.7	-94.8	0.0
2025-01-17 20:42:54.189852	259.4	26.8	-94.5	0.0
2025-01-17 20:42:56.434990	260.0	26.8	-94.7	0.0
2025-01-17 20:42:58.676067	260.7	26.9	-94.6	0.0
2025-01-17 20:43:00.918447	261.4	26.9	-94.5	0.0
2025-01-17 20:43:03.164233	262.1	27.0	-94.6	0.0
2025-01-17 20:43:05.408197	262.7	27.0	-94.9	0.0
2025-01-17 20:43:07.651516	263.4	27.0	-94.9	0.0
2025-01-17 20:43:09.894497	264.1	27.1	-94.8	0.0
2025-01-17 20:43:12.136197	264.8	27.1	-94.6	0.0
2025-01-17 20:43:14.377294	265.5	27.1	-94.8	0.0
2025-01-17 20:43:16.618772	266.1	27.1	-94.8	0.0
2025-01-17 20:43:18.860625	266.8	27.1	-94.7	0.0
2025-01-17 20:43:21.100011	267.5	27.1	-94.5	0.0
2025-01-17 20:43:23.344500	268.2	27.1	-94.8	0.0
2025-01-17 20:43:25.587752	268.9	27.1	-94.6	0.0
2025-01-17 20:43:27.828826	269.6	27.1	-94.7	0.0
2025-01-17 20:43:30.071249	270.3	27.1	-94.6	0.0
2025-01-17 20:43:32.314540	270.9	27.1	-94.9	0.0
2025-01-17 20:43:34.556449	271.6	27.1	-95.0	0.0
2025-01-17 20:43:36.799055	272.3	27.1	-94.7	0.0
2025-01-17 20:43:39.044307	273.0	27.1	-94.9	0.0
2025-01-17 20:43:41.286674	273.7	27.0	-95.0	0.0
2025-01-17 20:43:43.527573	274.3	27.0	-95.0	0.0
2025-01-17 20:43:45.774126	275.0	26.9	-94.8	0.0
2025-01-17 20:43:48.021096	275.7	26.9	-94.4	0.0
2025-01-17 20:43:50.259590	276.4	26.9	-94.8	0.0
2025-01-17 20:43:52.502273	277.0	26.8	-94.4	0.0
2025-01-17 20:43:54.744228	277.7	26.8	-94.6	0.0
2025-01-17 20:43:56.984100	278.4	26.7	-94.8	0.0
2025-01-17 20:43:59.225101	279.0	26.6	-94.5	0.0
2025-01-17 20:44:01.468450	279.7	26.6	-95.1	0.0
2025-01-17 20:44:03.711145	280.4	26.5	-94.6	0.0
2025-01-17 20:44:05.954295	281.0	26.4	-94.8	0.0
2025-01-17 20:44:08.197836	281.7	26.3	-94.7	0.0
2025-01-17 20:44:10.440615	282.3	26.3	-94.9	0.0
2025-01-17 20:44:12.687139	283.0	26.2	-95.0	0.0
2025-01-17 20:44:14.926997	283.6	26.1	-94.8	0.0
2025-01-17 20:44:17.165134	284.3	26.0	-94.9	0.0
2025-01-17 20:44:19.405947	284.9	25.9	-94.9	0.0
2025-01-17 20:44:21.651713	285.5	25.8	-95.0	0.0
2025-01-17 20:44:23.894272	286.2	25.7	-94.8	0.0
2025-01-17 20:44:26.136456	286.8	25.6	-94.8	0.0
2025-01-17 20:44:28.376509	287.4	25.5	-94.8	0.0
2025-01-17 20:44:30.616813	288.0	25.4	-94.8	0.0
2025-01-17 20:44:32.858149	288.6	25.2	-94.9	0.0
2025-01-17 20:44:35.100802	289.2	25.1	-94.9	0.0
2025-01-17 20:44:37.347119	289.8	25.0	-94.6	0.0
2025-01-17 20:44:39.593432	290.4	24.9	-95.0	0.0
2025-01-17 20:44:41.832026	291.0	24.8	-94.7	0.0
2025-01-17 20:44:44.073352	291.6	24.6	-94.5	0.0
2025-01-17 20:44:46.314258	292.2	24.5	-95.0	0.0
2025-01-17 20:44:48.556958	292.8	24.4	-95.0	0.0
2025-01-17 20:44:50.796073	293.3	24.2	-94.9	0.0
2025-01-17 20:44:53.038383	293.9	24.1	-94.8	0.0
2025-01-17 20:44:55.282058	294.5	24.0	-95.1	0.0
2025-01-17 20:44:57.526835	295.0	23.8	-94.9	0.0
2025-01-17 20:44:59.768793	295.6	23.7	-95.0	0.0
2025-01-17 20:45:02.010945	296.1	23.5	-94.9	0.0
2025-01-17 20:45:04.254783	296.7	23.4	-94.6	0.0
2025-01-17 20:45:06.496172	297.2	23.2	-94.9	0.0
2025-01-17 20:45:08.738920	297.8	23.1	-94.8	0.0
2025-01-17 20:45:10.982897	298.3	22.9	-95.0	0.0
2025-01-17 20:45:13.226207	298.8	22.8	-94.9	0.0
2025-01-17 20:45:15.468232	299.3	22.6	-95.0	0.0
2025-01-17 20:45:17.710218	299.9	22.5	-94.9	0.0
2025-01-17 20:45:19.953358	300.4	22.3	-94.8	0.0
2025-01-17 20:45:22.194577	300.9	22.1	-95.0	0.0
2025-01-17 20:45:24.438824	301.4	22.0	-95.1	0.0
2025-01-17 20:45:26.681394	301.9	21.8	-94.8	0.0
2025-01-17 20:45:28.924911	302.4	21.6	-94.8	0.0
2025-01-17 20:45:31.165668	302.8	21.5	-94.8	0.0
2025-01-17 20:45:33.407019	303.3	21.3	-94.9	0.0
2025-01-17 20:45:35.651472	303.8	21.1	-94.6	0.0
2025-01-17 20:45:37.894740	304.3	21.0	-94.5	0.0
2025-01-17 20:45:40.135966	304.7	20.8	-94.8	0.0
2025-01-17 20:45:42.376501	305.2	20.6	-94.6	0.0
2025-01-17 20:45:44.618680	305.6	20.5	-94.8	0.0
2025-01-17 20:45:46.862188	306.1	20.3	-94.6	0.0
2025-01-17 20:45:49.104211	306.5	20.1	-94.8	0.0
2025-01-17 20:45:51.346908	307.0	20.0	-95.1	0.0
2025-01-17 20:45:53.589889	307.4	19.8	-94.7	0.0
2025-01-17 20:45:55.832419	307.8	19.6	-94.9	0.0
2025-01-17 20:45:58.073627	308.3	19.4	-94.9	0.0
2025-01-17 20:46:00.318494	308.7	19.3	-94.8	0.0
2025-01-17 20:46:02.558956	309.1	19.1	-95.2	0.0
2025-01-17 20:46:04.801472	309.5	18.9	-94.7	0.0
2025-01-17 20:46:07.044538	309.9	18.8	-94.8	0.0
2025-01-17 20:46:09.287794	310.3	18.6	-94.7	0.0
2025-01-17 20:46:11.529828	310.7	18.4	-94.8	0.0
2025-01-17 20:46:13.773608	311.1	18.2	-94.9	0.0
2025-01-17 20:46:16.016028	311.5	18.1	-94.6	0.0
2025-01-17 20:46:18.258365	311.9	17.9	-94.6	0.0
2025-01-17 20:46:20.499033	312.3	17.7	-94.5	0.0
2025-01-17 20:46:22.742234	312.7	17.5	-94.7	0.0
2025-01-17 20:46:24.983278	313.0	17.4	-94.8	0.0
2025-01-17 20:46:27.226617	313.4	17.2	-94.5	0.0
2025-01-17 20:46:29.467253	313.8	17.0	-94.7	0.0
2025-01-17 20:46:31.708294	314.1	16.8	-94.6	0.0
2025-01-17 20:46:33.950319	314.5	16.7	-94.7	0.0
2025-01-17 20:46:36.194524	314.8	16.5	-94.7	0.0
2025-01-17 20:46:38.435465	315.2	16.3	-94.9	0.0
2025-01-17 20:46:40.676529	315.5	16.1	-94.7	0.0
2025-01-17 20:46:42.919760	315.9	16.0	-94.8	0.0
2025-01-17 20:46:45.161105	316.2	15.8	-94.9	0.0
2025-01-17 20:46:47.403339	316.5	15.6	-94.8	0.0
2025-01-17 20:46:49.645334	316.9	15.5	-94.7	0.0
2025-01-17 20:46:51.890325	317.2	15.3	-95.0	0.0
2025-01-17 20:46:54.131358	317.5	15.1	-94.7	0.0
2025-01-17 20:46:56.371113	317.8	14.9	-95.0	0.0
2025-01-17 20:46:58.614341	318.2	14.8	-94.6	0.0
2025-01-17 20:47:00.859015	318.5	14.6	-94.8	0.0
2025-01-17 20:47:03.102102	318.8	14.4	-94.7	0.0
2025-01-17 20:47:05.344634	319.1	14.3	-94.8	0.0
2025-01-17 20:47:07.589228	319.4	14.1	-94.7	0.0
2025-01-17 20:47:09.831043	319.7	13.9	-94.8	0.0
2025-01-17 20:47:12.071885	320.0	13.8	-94.7	0.0
2025-01-17 20:47:14.313254	320.3	13.6	-94.8	0.0
2025-01-17 20:47:16.558607	320.6	13.4	-94.6	0.0
2025-01-17 20:47:18.801804	320.9	13.3	-94.9	0.0
2025-01-17 20:47:21.043648	321.1	13.1	-94.6	0.0
2025-01-17 20:47:23.287400	321.4	12.9	-94.8	0.0
2025-01-17 20:47:25.531255	321.7	12.8	-94.6	0.0
2025-01-17 20:47:27.772709	322.0	12.6	-94.8	0.0
2025-01-17 20:47:30.016551	322.3	12.4	-94.7	0.0
2025-01-17 20:47:32.258102	322.5	12.3	-94.8	0.0
2025-01-17 20:47:34.504097	322.8	12.1	-95.0	0.0
2025-01-17 20:47:36.747190	323.1	11.9	-95.1	0.0
2025-01-17 20:47:38.990600	323.3	11.8	-94.9	0.0
2025-01-17 20:47:41.232923	323.6	11.6	-95.2	0.0
2025-01-17 20:47:43.474333	323.8	11.5	-94.9	0.0
2025-01-17 20:47:45.719612	324.1	11.3	-94.9	0.0
2025-01-17 20:47:47.962201	324.3	11.1	-94.5	0.0
2025-01-17 20:47:50.203228	324.6	11.0	-94.8	0.0
2025-01-17 20:47:52.445779	324.8	10.8	-94.5	0.0
2025-01-17 20:47:54.688106	325.1	10.7	-94.7	0.0
2025-01-17 20:47:56.929470	325.3	10.5	-94.6	0.0
2025-01-17 20:47:59.168122	325.5	10.3	-94.6	0.0
2025-01-17 20:48:01.411137	325.8	10.2	-94.4	0.0
2025-01-17 20:48:03.656355	326.0	10.0	-94.4	0.0
#Closed at: 2025-01-17 20:38:40.357577