passes_logs/2025/01/17/planumMaritime01/planumMaritime01__20250117_111008_METEOR-M2_2_rec.log

#Pass ID: 20250117_111008_METEOR-M2 2
#Satellite: METEOR-M2 2
#Configuration: METEOR-M2 2
#Start time: 2025-01-17 11:10:13.159919

#LorettStation: 1.0.0 05.05.2024
#Station: planumMaritime01
#Location: 37.49445 lon 55.92918 lat
#TLE: 1 44387U 19038A   25016.12190774  .00000195  00000+0  10443-3 0  9991
#TLE: 2 44387  98.8568 352.5287 0002283  77.3640 282.7793 14.24117457287692

#Time	Az	El	Level	SNR
2025-01-17 11:10:15.321771	119.6	10.2	-94.6	0.0
2025-01-17 11:10:17.568523	119.4	10.3	-94.8	0.0
2025-01-17 11:10:19.813403	119.3	10.5	-94.8	0.0
2025-01-17 11:10:22.056410	119.1	10.7	-94.6	0.0
2025-01-17 11:10:24.296536	118.9	10.9	-94.9	0.0
2025-01-17 11:10:26.540594	118.7	11.1	-94.5	0.0
2025-01-17 11:10:28.783961	118.5	11.2	-94.4	0.0
2025-01-17 11:10:31.026101	118.3	11.4	-94.7	0.0
2025-01-17 11:10:33.268387	118.0	11.6	-94.5	0.0
2025-01-17 11:10:35.509439	117.8	11.8	-94.7	0.0
2025-01-17 11:10:37.754618	117.6	12.0	-94.5	0.0
2025-01-17 11:10:39.994425	117.4	12.2	-94.5	0.0
2025-01-17 11:10:42.237202	117.2	12.4	-94.6	0.0
2025-01-17 11:10:44.481345	117.0	12.5	-94.7	0.0
2025-01-17 11:10:46.724257	116.7	12.7	-94.7	0.0
2025-01-17 11:10:48.968357	116.5	12.9	-94.5	0.0
2025-01-17 11:10:51.210053	116.3	13.1	-94.4	0.0
2025-01-17 11:10:53.450982	116.0	13.3	-94.5	0.0
2025-01-17 11:10:55.694189	115.8	13.5	-94.4	0.0
2025-01-17 11:10:57.939544	115.6	13.7	-94.5	0.0
2025-01-17 11:11:00.184353	115.3	13.9	-94.5	0.0
2025-01-17 11:11:02.423346	115.1	14.1	-94.5	0.0
2025-01-17 11:11:04.665860	114.8	14.3	-94.5	0.0
2025-01-17 11:11:06.908150	114.6	14.5	-94.9	0.0
2025-01-17 11:11:09.152994	114.3	14.7	-94.6	0.0
2025-01-17 11:11:11.397246	114.0	14.9	-94.7	0.0
2025-01-17 11:11:13.636984	113.8	15.1	-94.8	0.0
2025-01-17 11:11:15.878249	113.5	15.3	-94.7	0.0
2025-01-17 11:11:18.120479	113.2	15.5	-94.5	0.0
2025-01-17 11:11:20.362204	113.0	15.7	-94.7	0.0
2025-01-17 11:11:22.604424	112.7	15.9	-94.5	0.0
2025-01-17 11:11:24.847507	112.4	16.1	-94.3	0.0
2025-01-17 11:11:27.090609	112.1	16.4	-94.2	0.0
2025-01-17 11:11:29.330651	111.8	16.6	-94.4	0.0
2025-01-17 11:11:31.574549	111.5	16.8	-94.2	0.0
2025-01-17 11:11:33.815342	111.2	17.0	-94.5	0.0
2025-01-17 11:11:36.057026	110.9	17.2	-94.3	0.0
2025-01-17 11:11:38.297631	110.6	17.4	-94.6	0.0
2025-01-17 11:11:40.539626	110.3	17.6	-94.3	0.0
2025-01-17 11:11:42.782601	110.0	17.9	-94.5	0.0
2025-01-17 11:11:45.024596	109.6	18.1	-94.7	0.0
2025-01-17 11:11:47.269116	109.3	18.3	-94.7	0.0
2025-01-17 11:11:49.511781	109.0	18.5	-94.6	0.0
2025-01-17 11:11:51.754867	108.6	18.7	-94.7	0.0
2025-01-17 11:11:53.994872	108.3	19.0	-94.8	0.0
2025-01-17 11:11:56.236948	107.9	19.2	-94.8	0.0
2025-01-17 11:11:58.481207	107.6	19.4	-94.9	0.0
2025-01-17 11:12:00.719568	107.2	19.6	-94.5	0.0
2025-01-17 11:12:02.958877	106.9	19.8	-94.8	0.0
2025-01-17 11:12:05.200844	106.5	20.1	-94.9	0.0
2025-01-17 11:12:07.441499	106.1	20.3	-94.9	0.0
2025-01-17 11:12:09.686982	105.7	20.5	-94.9	0.0
2025-01-17 11:12:11.930098	105.3	20.8	-94.8	0.0
2025-01-17 11:12:14.174087	104.9	21.0	-94.5	0.0
2025-01-17 11:12:16.417949	104.5	21.2	-94.3	0.0
2025-01-17 11:12:18.659283	104.1	21.5	-94.4	0.0
2025-01-17 11:12:20.900897	103.7	21.7	-94.5	0.0
2025-01-17 11:12:23.143069	103.3	21.9	-94.4	0.0
2025-01-17 11:12:25.388099	102.9	22.1	-94.6	0.0
2025-01-17 11:12:27.630321	102.5	22.4	-94.7	0.0
2025-01-17 11:12:29.872916	102.0	22.6	-94.7	0.0
2025-01-17 11:12:32.115106	101.6	22.8	-94.6	0.0
2025-01-17 11:12:34.356373	101.1	23.1	-94.6	0.0
2025-01-17 11:12:36.596448	100.7	23.3	-94.4	0.0
2025-01-17 11:12:38.839697	100.2	23.6	-94.8	0.0
2025-01-17 11:12:41.079634	99.7	23.8	-94.7	0.0
2025-01-17 11:12:43.324549	99.2	24.0	-95.0	0.0
2025-01-17 11:12:45.566042	98.8	24.3	-94.9	0.0
2025-01-17 11:12:47.807985	98.3	24.5	-94.9	0.0
2025-01-17 11:12:50.052246	97.8	24.7	-94.6	0.0
2025-01-17 11:12:52.293610	97.2	25.0	-94.9	0.0
2025-01-17 11:12:54.534012	96.7	25.2	-94.7	0.0
2025-01-17 11:12:56.775404	96.2	25.4	-94.9	0.0
2025-01-17 11:12:59.018973	95.7	25.7	-95.0	0.0
2025-01-17 11:13:01.261794	95.1	25.9	-94.6	0.0
2025-01-17 11:13:03.502248	94.6	26.1	-94.7	0.0
2025-01-17 11:13:05.741282	94.0	26.3	-94.7	0.0
2025-01-17 11:13:07.983904	93.5	26.6	-94.7	0.0
2025-01-17 11:13:10.228314	92.9	26.8	-94.7	0.0
2025-01-17 11:13:12.471228	92.3	27.0	-94.5	0.0
2025-01-17 11:13:14.712384	91.7	27.2	-94.7	0.0
2025-01-17 11:13:16.955404	91.1	27.5	-94.8	0.0
2025-01-17 11:13:19.197515	90.5	27.7	-94.5	0.0
2025-01-17 11:13:21.441459	89.9	27.9	-94.8	0.0
2025-01-17 11:13:23.683991	89.3	28.1	-94.7	0.0
2025-01-17 11:13:25.929579	88.6	28.3	-94.9	0.0
2025-01-17 11:13:28.173259	88.0	28.6	-94.8	0.0
2025-01-17 11:13:30.415096	87.3	28.8	-94.5	0.0
2025-01-17 11:13:32.657121	86.7	29.0	-94.6	0.0
2025-01-17 11:13:34.901497	86.0	29.2	-94.8	0.0
2025-01-17 11:13:37.143219	85.3	29.4	-94.6	0.0
2025-01-17 11:13:39.386404	84.7	29.6	-94.8	0.0
2025-01-17 11:13:41.627800	84.0	29.8	-95.1	0.0
2025-01-17 11:13:43.869431	83.3	30.0	-94.8	0.0
2025-01-17 11:13:46.110450	82.6	30.2	-94.8	0.0
2025-01-17 11:13:48.350480	81.8	30.3	-94.8	0.0
2025-01-17 11:13:50.595105	81.1	30.5	-94.6	0.0
2025-01-17 11:13:52.840620	80.4	30.7	-94.8	0.0
2025-01-17 11:13:55.084015	79.6	30.9	-94.7	0.0
2025-01-17 11:13:57.326747	78.9	31.0	-94.8	0.0
2025-01-17 11:13:59.565966	78.1	31.2	-94.5	0.0
2025-01-17 11:14:01.806150	77.4	31.4	-94.6	0.0
2025-01-17 11:14:04.046564	76.6	31.5	-94.8	0.0
2025-01-17 11:14:06.288765	75.8	31.7	-94.7	0.0
2025-01-17 11:14:08.530967	75.0	31.8	-94.7	0.0
2025-01-17 11:14:10.773046	74.2	32.0	-94.6	0.0
2025-01-17 11:14:13.015356	73.4	32.1	-94.5	0.0
2025-01-17 11:14:15.261022	72.6	32.2	-94.2	0.0
2025-01-17 11:14:17.499702	71.8	32.3	-94.5	0.0
2025-01-17 11:14:19.740259	71.0	32.4	-94.7	0.0
2025-01-17 11:14:21.977527	70.2	32.6	-94.8	0.0
2025-01-17 11:14:24.220493	69.3	32.7	-94.5	0.0
2025-01-17 11:14:26.464119	68.5	32.8	-94.6	0.0
2025-01-17 11:14:28.708225	67.7	32.8	-94.5	0.0
2025-01-17 11:14:30.947411	66.8	32.9	-94.6	0.0
2025-01-17 11:14:33.190462	66.0	33.0	-94.7	0.0
2025-01-17 11:14:35.434354	65.1	33.1	-95.1	0.0
2025-01-17 11:14:37.674868	64.3	33.1	-94.8	0.0
2025-01-17 11:14:39.917882	63.4	33.2	-94.8	0.0
2025-01-17 11:14:42.160279	62.5	33.2	-94.8	0.0
2025-01-17 11:14:44.401791	61.7	33.3	-94.7	0.0
2025-01-17 11:14:46.642483	60.8	33.3	-94.9	0.0
2025-01-17 11:14:48.883520	60.0	33.3	-95.0	0.0
2025-01-17 11:14:51.123826	59.1	33.4	-94.6	0.0
2025-01-17 11:14:53.366180	58.2	33.4	-94.8	0.0
2025-01-17 11:14:55.609714	57.3	33.4	-94.9	0.0
2025-01-17 11:14:57.851257	56.5	33.4	-94.9	0.0
2025-01-17 11:15:00.095779	55.6	33.3	-94.7	0.0
2025-01-17 11:15:02.336635	54.7	33.3	-94.7	0.0
2025-01-17 11:15:04.577997	53.9	33.3	-94.7	0.0
2025-01-17 11:15:06.820333	53.0	33.3	-94.7	0.0
2025-01-17 11:15:09.065318	52.1	33.2	-94.6	0.0
2025-01-17 11:15:11.305082	51.3	33.2	-94.6	0.0
2025-01-17 11:15:13.546576	50.4	33.1	-94.8	0.0
2025-01-17 11:15:15.787491	49.6	33.1	-94.6	0.0
2025-01-17 11:15:18.029367	48.7	33.0	-95.0	0.0
2025-01-17 11:15:20.272236	47.9	32.9	-94.7	0.0
2025-01-17 11:15:22.514259	47.0	32.8	-94.7	0.0
2025-01-17 11:15:24.756243	46.2	32.7	-94.7	0.0
2025-01-17 11:15:26.998406	45.4	32.6	-94.7	0.0
2025-01-17 11:15:29.242106	44.5	32.5	-94.8	0.0
2025-01-17 11:15:31.488158	43.7	32.4	-95.0	0.0
2025-01-17 11:15:33.729979	42.9	32.3	-95.0	0.0
2025-01-17 11:15:35.972216	42.1	32.2	-94.9	0.0
2025-01-17 11:15:38.214968	41.3	32.1	-95.1	0.0
2025-01-17 11:15:40.457161	40.5	31.9	-94.9	0.0
2025-01-17 11:15:42.701613	39.7	31.8	-94.8	0.0
2025-01-17 11:15:44.941780	38.9	31.6	-94.7	0.0
2025-01-17 11:15:47.185579	38.1	31.5	-94.8	0.0
2025-01-17 11:15:49.426303	37.4	31.3	-94.9	0.0
2025-01-17 11:15:51.668167	36.6	31.2	-94.8	0.0
2025-01-17 11:15:53.906624	35.9	31.0	-94.8	0.0
2025-01-17 11:15:56.148325	35.1	30.8	-94.7	0.0
2025-01-17 11:15:58.390147	34.4	30.7	-94.7	0.0
2025-01-17 11:16:00.634468	33.6	30.5	-94.9	0.0
2025-01-17 11:16:02.875133	32.9	30.3	-94.7	0.0
2025-01-17 11:16:05.115124	32.2	30.1	-95.0	0.0
2025-01-17 11:16:07.360923	31.5	29.9	-94.6	0.0
2025-01-17 11:16:09.604488	30.8	29.7	-94.6	0.0
2025-01-17 11:16:11.845237	30.1	29.5	-94.8	0.0
2025-01-17 11:16:14.084272	29.4	29.3	-94.6	0.0
2025-01-17 11:16:16.328469	28.8	29.1	-95.0	0.0
2025-01-17 11:16:18.570246	28.1	28.9	-94.9	0.0
2025-01-17 11:16:20.812500	27.4	28.7	-94.8	0.0
2025-01-17 11:16:23.051815	26.8	28.5	-95.0	0.0
2025-01-17 11:16:25.293134	26.2	28.3	-94.7	0.0
2025-01-17 11:16:27.533904	25.5	28.1	-95.0	0.0
2025-01-17 11:16:29.776810	24.9	27.9	-94.9	0.0
2025-01-17 11:16:32.016999	24.3	27.7	-95.1	0.0
2025-01-17 11:16:34.260049	23.7	27.4	-95.2	0.0
2025-01-17 11:16:36.501284	23.1	27.2	-94.9	0.0
2025-01-17 11:16:38.742688	22.5	27.0	-95.2	0.0
2025-01-17 11:16:40.982512	21.9	26.8	-95.2	0.0
2025-01-17 11:16:43.223379	21.4	26.5	-94.9	0.0
2025-01-17 11:16:45.463345	20.8	26.3	-94.9	0.0
2025-01-17 11:16:47.707113	20.3	26.1	-94.8	0.0
2025-01-17 11:16:49.950592	19.7	25.9	-95.1	0.0
2025-01-17 11:16:52.191768	19.2	25.6	-95.1	0.0
2025-01-17 11:16:54.432441	18.7	25.4	-94.9	0.0
2025-01-17 11:16:56.676014	18.1	25.2	-94.9	0.0
2025-01-17 11:16:58.917183	17.6	24.9	-94.8	0.0
2025-01-17 11:17:01.157626	17.1	24.7	-95.1	0.0
2025-01-17 11:17:03.402435	16.6	24.5	-95.1	0.0
2025-01-17 11:17:05.646453	16.1	24.2	-94.7	0.0
2025-01-17 11:17:07.886098	15.6	24.0	-94.8	0.0
2025-01-17 11:17:10.129170	15.2	23.8	-94.7	0.0
2025-01-17 11:17:12.372021	14.7	23.5	-94.8	0.0
2025-01-17 11:17:14.614286	14.2	23.3	-94.5	0.0
2025-01-17 11:17:16.857403	13.8	23.1	-94.9	0.0
2025-01-17 11:17:19.101810	13.3	22.8	-95.0	0.0
2025-01-17 11:17:21.347024	12.9	22.6	-94.9	0.0
2025-01-17 11:17:23.590364	12.5	22.4	-95.0	0.0
2025-01-17 11:17:25.830288	12.0	22.1	-94.8	0.0
2025-01-17 11:17:28.072258	11.6	21.9	-95.1	0.0
2025-01-17 11:17:30.312186	11.2	21.7	-94.9	0.0
2025-01-17 11:17:32.554682	10.8	21.4	-94.8	0.0
2025-01-17 11:17:34.797705	10.4	21.2	-94.9	0.0
2025-01-17 11:17:37.038861	10.0	21.0	-95.2	0.0
2025-01-17 11:17:39.283274	9.6	20.8	-94.9	0.0
2025-01-17 11:17:41.526418	9.2	20.5	-94.9	0.0
2025-01-17 11:17:43.769132	8.8	20.3	-94.6	0.0
2025-01-17 11:17:46.011895	8.5	20.1	-94.8	0.0
2025-01-17 11:17:48.254213	8.1	19.9	-94.6	0.0
2025-01-17 11:17:50.492066	7.7	19.6	-94.7	0.0
2025-01-17 11:17:52.738524	7.4	19.4	-94.9	0.0
2025-01-17 11:17:54.982322	7.0	19.2	-94.7	0.0
2025-01-17 11:17:57.223948	6.7	19.0	-94.7	0.0
2025-01-17 11:17:59.462099	6.3	18.7	-94.8	0.0
2025-01-17 11:18:01.703351	6.0	18.5	-94.7	0.0
2025-01-17 11:18:03.944364	5.7	18.3	-94.8	0.0
2025-01-17 11:18:06.186352	5.3	18.1	-94.4	0.0
2025-01-17 11:18:08.431168	5.0	17.9	-94.6	0.0
2025-01-17 11:18:10.671349	4.7	17.6	-94.8	0.0
2025-01-17 11:18:12.914688	4.4	17.4	-94.9	0.0
2025-01-17 11:18:15.157353	4.1	17.2	-94.9	0.0
2025-01-17 11:18:17.396895	3.8	17.0	-94.9	0.0
2025-01-17 11:18:19.640612	3.5	16.8	-94.9	0.0
2025-01-17 11:18:21.881277	3.2	16.6	-94.9	0.0
2025-01-17 11:18:24.124294	2.9	16.4	-94.9	0.0
2025-01-17 11:18:26.366383	2.6	16.2	-94.8	0.0
2025-01-17 11:18:28.608810	2.3	16.0	-94.9	0.0
2025-01-17 11:18:30.851104	2.1	15.7	-95.0	0.0
2025-01-17 11:18:33.092868	1.8	15.5	-94.6	0.0
2025-01-17 11:18:35.334433	1.5	15.3	-94.8	0.0
2025-01-17 11:18:37.575707	1.2	15.1	-94.6	0.0
2025-01-17 11:18:39.817035	1.0	14.9	-94.8	0.0
2025-01-17 11:18:42.058610	0.7	14.7	-94.8	0.0
2025-01-17 11:18:44.301440	0.5	14.5	-94.7	0.0
2025-01-17 11:18:46.543217	0.2	14.3	-94.7	0.0
2025-01-17 11:18:48.786057	360.0	14.1	-94.7	0.0
2025-01-17 11:18:51.025165	359.7	13.9	-94.5	0.0
2025-01-17 11:18:53.266060	359.5	13.7	-94.7	0.0
2025-01-17 11:18:55.509981	359.2	13.5	-94.5	0.0
2025-01-17 11:18:57.752894	359.0	13.4	-94.7	0.0
2025-01-17 11:18:59.995372	358.8	13.2	-94.8	0.0
2025-01-17 11:19:02.236428	358.5	13.0	-94.5	0.0
2025-01-17 11:19:04.480324	358.3	12.8	-94.7	0.0
2025-01-17 11:19:06.723764	358.1	12.6	-94.9	0.0
2025-01-17 11:19:08.964811	357.9	12.4	-94.8	0.0
2025-01-17 11:19:11.209918	357.7	12.2	-94.8	0.0
2025-01-17 11:19:13.452182	357.4	12.0	-94.8	0.0
2025-01-17 11:19:15.693285	357.2	11.8	-94.8	0.0
2025-01-17 11:19:17.935969	357.0	11.7	-94.8	0.0
2025-01-17 11:19:20.178273	356.8	11.5	-94.6	0.0
2025-01-17 11:19:22.420324	356.6	11.3	-94.8	0.0
2025-01-17 11:19:24.661237	356.4	11.1	-94.7	0.0
2025-01-17 11:19:26.905532	356.2	10.9	-94.9	0.0
2025-01-17 11:19:29.144104	356.0	10.8	-94.8	0.0
2025-01-17 11:19:31.386978	355.8	10.6	-94.8	0.0
2025-01-17 11:19:33.629704	355.6	10.4	-94.9	0.0
2025-01-17 11:19:35.870786	355.5	10.2	-94.7	0.0
#Closed at: 2025-01-17 11:10:08.161946