passes_logs/2025/01/17/planumMaritime01/planumMaritime01__20250117_030036_METEOR-M2_2_rec.log

#Pass ID: 20250117_030036_METEOR-M2 2
#Satellite: METEOR-M2 2
#Configuration: METEOR-M2 2
#Start time: 2025-01-17 03:00:41.629722

#LorettStation: 1.0.0 05.05.2024
#Station: planumMaritime01
#Location: 37.49445 lon 55.92918 lat
#TLE: 1 44387U 19038A   25016.12190774  .00000195  00000+0  10443-3 0  9991
#TLE: 2 44387  98.8568 352.5287 0002283  77.3640 282.7793 14.24117457287692

#Time	Az	El	Level	SNR
2025-01-17 03:00:43.776767	7.0	10.2	-81.0	0.0
2025-01-17 03:00:46.021021	6.9	10.4	-80.2	0.0
2025-01-17 03:00:48.264646	6.7	10.5	-80.9	0.0
2025-01-17 03:00:50.507620	6.6	10.7	-81.1	0.0
2025-01-17 03:00:52.751162	6.4	10.9	-81.3	0.0
2025-01-17 03:00:54.992264	6.2	11.1	-81.4	0.0
2025-01-17 03:00:57.236919	6.1	11.3	-81.6	0.0
2025-01-17 03:00:59.476703	5.9	11.5	-81.4	0.0
2025-01-17 03:01:01.718681	5.7	11.7	-81.4	0.0
2025-01-17 03:01:03.958692	5.6	11.9	-81.4	0.0
2025-01-17 03:01:06.201303	5.4	12.1	-80.8	0.0
2025-01-17 03:01:08.443312	5.2	12.3	-81.6	0.0
2025-01-17 03:01:10.685746	5.1	12.5	-81.1	0.0
2025-01-17 03:01:12.929128	4.9	12.7	-81.3	0.0
2025-01-17 03:01:15.171252	4.7	12.9	-81.0	0.0
2025-01-17 03:01:17.413984	4.5	13.1	-81.3	0.0
2025-01-17 03:01:19.653856	4.3	13.3	-81.5	0.0
2025-01-17 03:01:21.894411	4.1	13.5	-81.8	0.0
2025-01-17 03:01:24.140689	4.0	13.7	-81.8	0.0
2025-01-17 03:01:26.384767	3.8	13.9	-81.8	0.0
2025-01-17 03:01:28.627912	3.6	14.1	-81.7	0.0
2025-01-17 03:01:30.865299	3.4	14.3	-81.6	0.0
2025-01-17 03:01:33.106058	3.2	14.5	-81.9	0.0
2025-01-17 03:01:35.349858	3.0	14.7	-81.8	0.0
2025-01-17 03:01:37.593000	2.7	14.9	-81.7	0.0
2025-01-17 03:01:39.835616	2.5	15.2	-82.1	0.0
2025-01-17 03:01:42.079227	2.3	15.4	-81.6	0.0
2025-01-17 03:01:44.321617	2.1	15.6	-82.2	0.0
2025-01-17 03:01:46.561142	1.9	15.8	-82.0	0.0
2025-01-17 03:01:48.802857	1.7	16.0	-82.0	0.0
2025-01-17 03:01:51.046862	1.4	16.3	-82.1	0.0
2025-01-17 03:01:53.289864	1.2	16.5	-81.9	0.0
2025-01-17 03:01:55.533325	1.0	16.7	-82.0	0.0
2025-01-17 03:01:57.780271	0.7	17.0	-82.1	0.0
2025-01-17 03:02:00.021038	0.5	17.2	-82.2	0.0
2025-01-17 03:02:02.264307	0.2	17.4	-82.1	0.0
2025-01-17 03:02:04.507331	360.0	17.7	-81.9	0.0
2025-01-17 03:02:06.749424	359.7	17.9	-81.3	0.0
2025-01-17 03:02:08.991923	359.5	18.1	-82.2	0.0
2025-01-17 03:02:11.233563	359.2	18.4	-82.2	0.0
2025-01-17 03:02:13.476076	358.9	18.6	-82.0	0.0
2025-01-17 03:02:15.716844	358.6	18.9	-82.2	0.0
2025-01-17 03:02:17.959620	358.4	19.1	-82.2	0.0
2025-01-17 03:02:20.202655	358.1	19.3	-82.1	0.0
2025-01-17 03:02:22.445398	357.8	19.6	-82.0	0.0
2025-01-17 03:02:24.688381	357.5	19.8	-81.9	0.0
2025-01-17 03:02:26.929368	357.2	20.1	-82.2	0.0
2025-01-17 03:02:29.168864	356.9	20.3	-82.1	0.0
2025-01-17 03:02:31.409629	356.6	20.6	-82.0	0.0
2025-01-17 03:02:33.648425	356.3	20.9	-82.2	0.0
2025-01-17 03:02:35.889748	356.0	21.1	-82.0	0.0
2025-01-17 03:02:38.134744	355.6	21.4	-82.0	0.0
2025-01-17 03:02:40.375991	355.3	21.6	-81.6	0.0
2025-01-17 03:02:42.617471	355.0	21.9	-81.7	0.0
2025-01-17 03:02:44.861244	354.6	22.2	-81.4	0.0
2025-01-17 03:02:47.100553	354.3	22.4	-81.5	0.0
2025-01-17 03:02:49.342732	353.9	22.7	-81.7	0.0
2025-01-17 03:02:51.581879	353.6	23.0	-81.5	0.0
2025-01-17 03:02:53.822715	353.2	23.3	-81.7	0.0
2025-01-17 03:02:56.065801	352.8	23.5	-81.8	0.0
2025-01-17 03:02:58.309852	352.5	23.8	-82.0	0.0
2025-01-17 03:03:00.552435	352.1	24.1	-81.9	0.0
2025-01-17 03:03:02.794841	351.7	24.4	-82.0	0.0
2025-01-17 03:03:05.039756	351.3	24.6	-82.0	0.0
2025-01-17 03:03:07.278938	350.9	24.9	-82.1	0.0
2025-01-17 03:03:09.522113	350.4	25.2	-81.9	0.0
2025-01-17 03:03:11.764916	350.0	25.5	-81.9	0.0
2025-01-17 03:03:14.005954	349.6	25.8	-82.1	0.0
2025-01-17 03:03:16.248283	349.2	26.1	-82.3	0.0
2025-01-17 03:03:18.492621	348.7	26.4	-82.2	0.0
2025-01-17 03:03:20.734612	348.2	26.6	-82.4	0.0
2025-01-17 03:03:22.980334	347.8	26.9	-82.1	0.0
2025-01-17 03:03:25.226125	347.3	27.2	-82.4	0.0
2025-01-17 03:03:27.468764	346.8	27.5	-82.3	0.0
2025-01-17 03:03:29.713572	346.3	27.8	-82.1	0.0
2025-01-17 03:03:31.958078	345.8	28.1	-82.3	0.0
2025-01-17 03:03:34.196465	345.3	28.4	-82.3	0.0
2025-01-17 03:03:36.435385	344.8	28.7	-82.2	0.0
2025-01-17 03:03:38.676825	344.3	29.0	-82.4	0.0
2025-01-17 03:03:40.919541	343.7	29.3	-82.0	0.0
2025-01-17 03:03:43.162657	343.2	29.6	-82.0	0.0
2025-01-17 03:03:45.409591	342.6	29.9	-82.4	0.0
2025-01-17 03:03:47.650006	342.0	30.2	-82.2	0.0
2025-01-17 03:03:49.893410	341.5	30.5	-82.3	0.0
2025-01-17 03:03:52.138059	340.9	30.8	-82.4	0.0
2025-01-17 03:03:54.379810	340.3	31.1	-82.3	0.0
2025-01-17 03:03:56.623918	339.7	31.4	-82.3	0.0
2025-01-17 03:03:58.868803	339.0	31.7	-82.1	0.0
2025-01-17 03:04:01.111478	338.4	32.0	-82.4	0.0
2025-01-17 03:04:03.352053	337.7	32.2	-82.3	0.0
2025-01-17 03:04:05.595337	337.1	32.5	-82.3	0.0
2025-01-17 03:04:07.837987	336.4	32.8	-82.4	0.0
2025-01-17 03:04:10.079133	335.7	33.1	-82.4	0.0
2025-01-17 03:04:12.318763	335.0	33.4	-82.1	0.0
2025-01-17 03:04:14.561795	334.3	33.7	-82.3	0.0
2025-01-17 03:04:16.803304	333.6	34.0	-82.2	0.0
2025-01-17 03:04:19.044441	332.8	34.2	-82.3	0.0
2025-01-17 03:04:21.285912	332.1	34.5	-82.2	0.0
2025-01-17 03:04:23.525731	331.3	34.8	-82.3	0.0
2025-01-17 03:04:25.769843	330.6	35.1	-82.3	0.0
2025-01-17 03:04:28.011001	329.8	35.3	-82.2	0.0
2025-01-17 03:04:30.253330	329.0	35.6	-82.2	0.0
2025-01-17 03:04:32.496867	328.2	35.8	-82.4	0.0
2025-01-17 03:04:34.739766	327.3	36.1	-82.6	0.0
2025-01-17 03:04:36.984088	326.5	36.3	-82.6	0.0
2025-01-17 03:04:39.230473	325.6	36.6	-82.1	0.0
2025-01-17 03:04:41.472812	324.8	36.8	-82.4	0.0
2025-01-17 03:04:43.716569	323.9	37.0	-82.7	0.0
2025-01-17 03:04:45.961565	323.0	37.3	-82.6	0.0
2025-01-17 03:04:48.204429	322.1	37.5	-82.5	0.0
2025-01-17 03:04:50.447783	321.2	37.7	-82.5	0.0
2025-01-17 03:04:52.689982	320.2	37.9	-82.8	0.0
2025-01-17 03:04:54.932992	319.3	38.1	-82.7	0.0
2025-01-17 03:04:57.175089	318.4	38.3	-82.6	0.0
2025-01-17 03:04:59.419875	317.4	38.5	-82.7	0.0
2025-01-17 03:05:01.661807	316.4	38.6	-82.5	0.0
2025-01-17 03:05:03.902355	315.4	38.8	-82.5	0.0
2025-01-17 03:05:06.144392	314.5	38.9	-82.4	0.0
2025-01-17 03:05:08.388221	313.5	39.1	-82.6	0.0
2025-01-17 03:05:10.631336	312.4	39.2	-82.7	0.0
2025-01-17 03:05:12.874021	311.4	39.3	-82.4	0.0
2025-01-17 03:05:15.117257	310.4	39.5	-82.5	0.0
2025-01-17 03:05:17.356512	309.4	39.6	-82.5	0.0
2025-01-17 03:05:19.598806	308.3	39.7	-82.6	0.0
2025-01-17 03:05:21.845549	307.3	39.7	-82.6	0.0
2025-01-17 03:05:24.088960	306.2	39.8	-82.7	0.0
2025-01-17 03:05:26.328457	305.2	39.9	-82.4	0.0
2025-01-17 03:05:28.570810	304.1	39.9	-82.5	0.0
2025-01-17 03:05:30.815078	303.1	40.0	-82.5	0.0
2025-01-17 03:05:33.058180	302.0	40.0	-82.7	0.0
2025-01-17 03:05:35.301595	300.9	40.0	-81.9	0.0
2025-01-17 03:05:37.541431	299.9	40.0	-82.2	0.0
2025-01-17 03:05:39.785775	298.8	40.0	-81.7	0.0
2025-01-17 03:05:42.030293	297.7	40.0	-81.9	0.0
2025-01-17 03:05:44.271991	296.7	40.0	-81.6	0.0
2025-01-17 03:05:46.517621	295.6	40.0	-82.2	0.0
2025-01-17 03:05:48.758223	294.6	39.9	-81.7	0.0
2025-01-17 03:05:50.996231	293.5	39.8	-81.7	0.0
2025-01-17 03:05:53.241349	292.4	39.8	-82.2	0.0
2025-01-17 03:05:55.484862	291.4	39.7	-82.3	0.0
2025-01-17 03:05:57.728061	290.4	39.6	-82.3	0.0
2025-01-17 03:05:59.971370	289.3	39.5	-82.3	0.0
2025-01-17 03:06:02.212663	288.3	39.4	-82.3	0.0
2025-01-17 03:06:04.452977	287.3	39.3	-82.5	0.0
2025-01-17 03:06:06.698865	286.3	39.1	-82.4	0.0
2025-01-17 03:06:08.941135	285.2	39.0	-82.5	0.0
2025-01-17 03:06:11.186046	284.3	38.8	-82.5	0.0
2025-01-17 03:06:13.427895	283.3	38.7	-82.7	0.0
2025-01-17 03:06:15.673505	282.3	38.5	-82.5	0.0
2025-01-17 03:06:17.917869	281.3	38.3	-82.8	0.0
2025-01-17 03:06:20.162634	280.4	38.2	-82.7	0.0
2025-01-17 03:06:22.405714	279.4	38.0	-82.8	0.0
2025-01-17 03:06:24.650457	278.5	37.8	-82.8	0.0
2025-01-17 03:06:26.894958	277.6	37.6	-82.8	0.0
2025-01-17 03:06:29.134349	276.7	37.3	-82.8	0.0
2025-01-17 03:06:31.372123	275.8	37.1	-82.8	0.0
2025-01-17 03:06:33.611875	274.9	36.9	-82.7	0.0
2025-01-17 03:06:35.853214	274.0	36.7	-82.6	0.0
2025-01-17 03:06:38.098007	273.1	36.4	-82.0	0.0
2025-01-17 03:06:40.338392	272.3	36.2	-82.3	0.0
2025-01-17 03:06:42.580842	271.5	35.9	-82.6	0.0
2025-01-17 03:06:44.819269	270.6	35.7	-82.4	0.0
2025-01-17 03:06:47.062059	269.8	35.4	-82.6	0.0
2025-01-17 03:06:49.303949	269.0	35.1	-82.6	0.0
2025-01-17 03:06:51.546402	268.3	34.9	-82.6	0.0
2025-01-17 03:06:53.790649	267.5	34.6	-82.5	0.0
2025-01-17 03:06:56.035588	266.7	34.3	-82.8	0.0
2025-01-17 03:06:58.277840	266.0	34.0	-82.7	0.0
2025-01-17 03:07:00.522698	265.2	33.8	-82.6	0.0
2025-01-17 03:07:02.766620	264.5	33.5	-82.4	0.0
2025-01-17 03:07:05.006721	263.8	33.2	-82.6	0.0
2025-01-17 03:07:07.247926	263.1	32.9	-82.4	0.0
2025-01-17 03:07:09.491390	262.4	32.6	-82.3	0.0
2025-01-17 03:07:11.734985	261.8	32.3	-82.6	0.0
2025-01-17 03:07:13.976921	261.1	32.0	-81.7	0.0
2025-01-17 03:07:16.218090	260.5	31.7	-82.0	0.0
2025-01-17 03:07:18.460518	259.8	31.4	-82.6	0.0
2025-01-17 03:07:20.703168	259.2	31.2	-82.6	0.0
2025-01-17 03:07:22.946773	258.6	30.9	-82.4	0.0
2025-01-17 03:07:25.191226	258.0	30.6	-82.4	0.0
2025-01-17 03:07:27.432810	257.4	30.3	-82.3	0.0
2025-01-17 03:07:29.672975	256.8	30.0	-82.5	0.0
2025-01-17 03:07:31.917863	256.3	29.7	-82.6	0.0
2025-01-17 03:07:34.159438	255.7	29.4	-82.7	0.0
2025-01-17 03:07:36.403258	255.2	29.1	-82.5	0.0
2025-01-17 03:07:38.647600	254.6	28.8	-82.3	0.0
2025-01-17 03:07:40.890417	254.1	28.5	-82.8	0.0
2025-01-17 03:07:43.134010	253.6	28.2	-82.7	0.0
2025-01-17 03:07:45.375472	253.1	27.9	-82.5	0.0
2025-01-17 03:07:47.613503	252.6	27.6	-82.7	0.0
2025-01-17 03:07:49.858169	252.1	27.3	-82.9	0.0
2025-01-17 03:07:52.098389	251.6	27.0	-82.8	0.0
2025-01-17 03:07:54.340452	251.2	26.7	-82.7	0.0
2025-01-17 03:07:56.582371	250.7	26.4	-82.5	0.0
2025-01-17 03:07:58.830277	250.2	26.1	-82.8	0.0
2025-01-17 03:08:01.073542	249.8	25.8	-82.6	0.0
2025-01-17 03:08:03.318853	249.4	25.5	-82.4	0.0
2025-01-17 03:08:05.561161	248.9	25.3	-82.3	0.0
2025-01-17 03:08:07.801963	248.5	25.0	-82.0	0.0
2025-01-17 03:08:10.042297	248.1	24.7	-82.6	0.0
2025-01-17 03:08:12.285698	247.7	24.4	-82.8	0.0
2025-01-17 03:08:14.527013	247.3	24.1	-82.8	0.0
2025-01-17 03:08:16.767522	246.9	23.9	-82.7	0.0
2025-01-17 03:08:19.009460	246.5	23.6	-82.2	0.0
2025-01-17 03:08:21.250493	246.1	23.3	-82.5	0.0
2025-01-17 03:08:23.493571	245.8	23.0	-82.5	0.0
2025-01-17 03:08:25.730361	245.4	22.8	-82.6	0.0
2025-01-17 03:08:27.974369	245.0	22.5	-82.6	0.0
2025-01-17 03:08:30.213746	244.7	22.2	-82.2	0.0
2025-01-17 03:08:32.458763	244.3	21.9	-82.4	0.0
2025-01-17 03:08:34.701360	244.0	21.7	-82.1	0.0
2025-01-17 03:08:36.943108	243.7	21.4	-82.1	0.0
2025-01-17 03:08:39.182053	243.3	21.2	-82.3	0.0
2025-01-17 03:08:41.422772	243.0	20.9	-82.3	0.0
2025-01-17 03:08:43.665887	242.7	20.6	-82.4	0.0
2025-01-17 03:08:45.909736	242.4	20.4	-82.2	0.0
2025-01-17 03:08:48.150586	242.1	20.1	-82.2	0.0
2025-01-17 03:08:50.392210	241.8	19.9	-82.5	0.0
2025-01-17 03:08:52.639608	241.5	19.6	-82.4	0.0
2025-01-17 03:08:54.880050	241.2	19.4	-82.6	0.0
2025-01-17 03:08:57.121568	240.9	19.1	-82.5	0.0
2025-01-17 03:08:59.368190	240.6	18.9	-82.8	0.0
2025-01-17 03:09:01.612880	240.4	18.6	-82.4	0.0
2025-01-17 03:09:03.856303	240.1	18.4	-82.6	0.0
2025-01-17 03:09:06.101210	239.8	18.1	-82.6	0.0
2025-01-17 03:09:08.342930	239.5	17.9	-82.7	0.0
2025-01-17 03:09:10.581973	239.3	17.7	-82.7	0.0
2025-01-17 03:09:12.822646	239.0	17.4	-82.7	0.0
2025-01-17 03:09:15.066921	238.8	17.2	-82.7	0.0
2025-01-17 03:09:17.307539	238.5	17.0	-82.5	0.0
2025-01-17 03:09:19.548440	238.3	16.7	-82.7	0.0
2025-01-17 03:09:21.791726	238.0	16.5	-82.8	0.0
2025-01-17 03:09:24.034336	237.8	16.3	-82.8	0.0
2025-01-17 03:09:26.275743	237.6	16.0	-82.8	0.0
2025-01-17 03:09:28.519732	237.4	15.8	-82.8	0.0
2025-01-17 03:09:30.764652	237.1	15.6	-82.9	0.0
2025-01-17 03:09:33.005642	236.9	15.4	-82.8	0.0
2025-01-17 03:09:35.248412	236.7	15.2	-82.7	0.0
2025-01-17 03:09:37.493245	236.5	14.9	-82.7	0.0
2025-01-17 03:09:39.734695	236.3	14.7	-82.6	0.0
2025-01-17 03:09:41.976570	236.0	14.5	-82.6	0.0
2025-01-17 03:09:44.220874	235.8	14.3	-82.6	0.0
2025-01-17 03:09:46.464593	235.6	14.1	-82.4	0.0
2025-01-17 03:09:48.705362	235.4	13.9	-82.7	0.0
2025-01-17 03:09:50.949727	235.2	13.7	-82.6	0.0
2025-01-17 03:09:53.188697	235.0	13.5	-82.7	0.0
2025-01-17 03:09:55.431917	234.9	13.3	-82.5	0.0
2025-01-17 03:09:57.674245	234.7	13.0	-82.6	0.0
2025-01-17 03:09:59.916814	234.5	12.8	-82.6	0.0
2025-01-17 03:10:02.159197	234.3	12.6	-82.7	0.0
2025-01-17 03:10:04.401246	234.1	12.4	-82.5	0.0
2025-01-17 03:10:06.643375	233.9	12.2	-82.7	0.0
2025-01-17 03:10:08.881469	233.8	12.0	-81.9	0.0
2025-01-17 03:10:11.124638	233.6	11.8	-82.6	0.0
2025-01-17 03:10:13.368128	233.4	11.7	-82.5	0.0
2025-01-17 03:10:15.611842	233.2	11.5	-82.5	0.0
2025-01-17 03:10:17.852465	233.1	11.3	-82.4	0.0
2025-01-17 03:10:20.094585	232.9	11.1	-82.4	0.0
2025-01-17 03:10:22.338728	232.8	10.9	-82.7	0.0
2025-01-17 03:10:24.581268	232.6	10.7	-82.6	0.0
2025-01-17 03:10:26.823004	232.4	10.5	-82.6	0.0
2025-01-17 03:10:29.064766	232.3	10.3	-82.8	0.0
2025-01-17 03:10:31.304947	232.1	10.1	-82.6	0.0
#Closed at: 2025-01-17 03:00:36.632018