passes_logs/2025/01/17/planumMaritime01/planumMaritime01__20250117_172307_METOP-B_rec.log

#Pass ID: 20250117_172307_METOP-B
#Satellite: METOP-B
#Configuration: METOP-B
#Start time: 2025-01-17 17:23:12.872312

#LorettStation: 1.0.0 05.05.2024
#Station: planumMaritime01
#Location: 37.49445 lon 55.92918 lat
#TLE: 1 38771U 12049A   25017.15368062  .00000245  00000+0  13171-3 0  9994
#TLE: 2 38771  98.6007  75.2563 0001735  79.5844 280.5529 14.21411545639949

#Time	Az	El	Level	SNR
2025-01-17 17:23:15.034778	147.3	10.2	-94.5	0.0
2025-01-17 17:23:17.276241	147.2	10.4	-94.7	0.0
2025-01-17 17:23:19.518773	147.2	10.6	-94.3	0.0
2025-01-17 17:23:21.758016	147.1	10.8	-94.4	0.0
2025-01-17 17:23:23.999468	147.0	11.0	-94.2	0.0
2025-01-17 17:23:26.241253	147.0	11.2	-94.5	0.0
2025-01-17 17:23:28.485444	146.9	11.4	-94.5	0.0
2025-01-17 17:23:30.725991	146.8	11.6	-94.5	0.0
2025-01-17 17:23:32.969248	146.8	11.8	-94.7	0.0
2025-01-17 17:23:35.209596	146.7	12.0	-94.3	0.0
2025-01-17 17:23:37.449795	146.6	12.2	-94.6	0.0
2025-01-17 17:23:39.692519	146.5	12.4	-94.5	0.0
2025-01-17 17:23:41.935370	146.5	12.7	-94.6	0.0
2025-01-17 17:23:44.176518	146.4	12.9	-94.9	0.0
2025-01-17 17:23:46.420548	146.3	13.1	-94.6	0.0
2025-01-17 17:23:48.663749	146.2	13.3	-94.5	0.0
2025-01-17 17:23:50.905264	146.2	13.5	-94.8	0.0
2025-01-17 17:23:53.147949	146.1	13.8	-94.6	0.0
2025-01-17 17:23:55.393284	146.0	14.0	-94.6	0.0
2025-01-17 17:23:57.634242	145.9	14.2	-94.7	0.0
2025-01-17 17:23:59.876889	145.8	14.4	-94.7	0.0
2025-01-17 17:24:02.116586	145.7	14.7	-94.5	0.0
2025-01-17 17:24:04.360843	145.6	14.9	-95.0	0.0
2025-01-17 17:24:06.600946	145.6	15.2	-94.7	0.0
2025-01-17 17:24:08.845745	145.5	15.4	-94.4	0.0
2025-01-17 17:24:11.089365	145.4	15.6	-94.6	0.0
2025-01-17 17:24:13.331851	145.3	15.9	-94.6	0.0
2025-01-17 17:24:15.573792	145.2	16.1	-94.4	0.0
2025-01-17 17:24:17.814426	145.1	16.4	-94.8	0.0
2025-01-17 17:24:20.057379	145.0	16.6	-94.9	0.0
2025-01-17 17:24:22.300240	144.9	16.9	-94.6	0.0
2025-01-17 17:24:24.541240	144.8	17.1	-94.6	0.0
2025-01-17 17:24:26.782283	144.7	17.4	-94.3	0.0
2025-01-17 17:24:29.025265	144.6	17.7	-94.6	0.0
2025-01-17 17:24:31.267692	144.5	17.9	-94.9	0.0
2025-01-17 17:24:33.511522	144.4	18.2	-94.7	0.0
2025-01-17 17:24:35.753383	144.2	18.5	-94.7	0.0
2025-01-17 17:24:37.997506	144.1	18.7	-94.8	0.0
2025-01-17 17:24:40.240082	144.0	19.0	-94.8	0.0
2025-01-17 17:24:42.481516	143.9	19.3	-94.5	0.0
2025-01-17 17:24:44.724047	143.8	19.6	-94.6	0.0
2025-01-17 17:24:46.970241	143.6	19.9	-94.8	0.0
2025-01-17 17:24:49.211323	143.5	20.2	-94.6	0.0
2025-01-17 17:24:51.453221	143.4	20.4	-94.8	0.0
2025-01-17 17:24:53.696990	143.3	20.7	-94.9	0.0
2025-01-17 17:24:55.938236	143.1	21.0	-95.0	0.0
2025-01-17 17:24:58.179871	143.0	21.3	-94.6	0.0
2025-01-17 17:25:00.423510	142.9	21.7	-95.1	0.0
2025-01-17 17:25:02.665219	142.7	22.0	-94.8	0.0
2025-01-17 17:25:04.909887	142.6	22.3	-94.8	0.0
2025-01-17 17:25:07.151530	142.4	22.6	-94.6	0.0
2025-01-17 17:25:09.395121	142.3	22.9	-94.8	0.0
2025-01-17 17:25:11.636309	142.1	23.2	-94.5	0.0
2025-01-17 17:25:13.880412	141.9	23.6	-94.6	0.0
2025-01-17 17:25:16.125789	141.8	23.9	-94.9	0.0
2025-01-17 17:25:18.368281	141.6	24.2	-94.8	0.0
2025-01-17 17:25:20.611552	141.5	24.6	-94.9	0.0
2025-01-17 17:25:22.857411	141.3	24.9	-94.8	0.0
2025-01-17 17:25:25.098925	141.1	25.3	-94.8	0.0
2025-01-17 17:25:27.341372	140.9	25.6	-94.9	0.0
2025-01-17 17:25:29.580038	140.7	26.0	-94.9	0.0
2025-01-17 17:25:31.822257	140.5	26.3	-94.8	0.0
2025-01-17 17:25:34.065239	140.3	26.7	-94.6	0.0
2025-01-17 17:25:36.309423	140.1	27.1	-94.4	0.0
2025-01-17 17:25:38.550948	139.9	27.5	-94.6	0.0
2025-01-17 17:25:40.795730	139.7	27.8	-94.6	0.0
2025-01-17 17:25:43.040043	139.5	28.2	-94.4	0.0
2025-01-17 17:25:45.282342	139.3	28.6	-94.7	0.0
2025-01-17 17:25:47.527046	139.1	29.0	-94.6	0.0
2025-01-17 17:25:49.770360	138.8	29.4	-94.7	0.0
2025-01-17 17:25:52.013059	138.6	29.8	-94.8	0.0
2025-01-17 17:25:54.256539	138.4	30.2	-94.7	0.0
2025-01-17 17:25:56.498664	138.1	30.6	-94.6	0.0
2025-01-17 17:25:58.741801	137.9	31.1	-94.8	0.0
2025-01-17 17:26:00.984406	137.6	31.5	-94.7	0.0
2025-01-17 17:26:03.230120	137.3	31.9	-94.6	0.0
2025-01-17 17:26:05.474311	137.0	32.4	-94.9	0.0
2025-01-17 17:26:07.716673	136.8	32.8	-94.8	0.0
2025-01-17 17:26:09.958263	136.5	33.3	-94.9	0.0
2025-01-17 17:26:12.202030	136.2	33.7	-94.7	0.0
2025-01-17 17:26:14.445665	135.8	34.2	-94.8	0.0
2025-01-17 17:26:16.687861	135.5	34.7	-94.6	0.0
2025-01-17 17:26:18.928112	135.2	35.1	-94.7	0.0
2025-01-17 17:26:21.171235	134.8	35.6	-94.7	0.0
2025-01-17 17:26:23.413785	134.5	36.1	-94.7	0.0
2025-01-17 17:26:25.655411	134.1	36.6	-95.0	0.0
2025-01-17 17:26:27.895953	133.8	37.1	-94.6	0.0
2025-01-17 17:26:30.138243	133.4	37.6	-94.9	0.0
2025-01-17 17:26:32.379815	133.0	38.1	-94.6	0.0
2025-01-17 17:26:34.621243	132.6	38.6	-94.7	0.0
2025-01-17 17:26:36.864187	132.1	39.2	-94.9	0.0
2025-01-17 17:26:39.104415	131.7	39.7	-94.7	0.0
2025-01-17 17:26:41.348214	131.3	40.2	-94.6	0.0
2025-01-17 17:26:43.591061	130.8	40.8	-94.8	0.0
2025-01-17 17:26:45.835244	130.3	41.3	-95.1	0.0
2025-01-17 17:26:48.077506	129.8	41.9	-94.8	0.0
2025-01-17 17:26:50.319495	129.3	42.4	-94.9	0.0
2025-01-17 17:26:52.562671	128.7	43.0	-94.9	0.0
2025-01-17 17:26:54.803574	128.2	43.6	-94.8	0.0
2025-01-17 17:26:57.044604	127.6	44.1	-95.0	0.0
2025-01-17 17:26:59.286560	127.0	44.7	-94.9	0.0
2025-01-17 17:27:01.527447	126.4	45.3	-94.9	0.0
2025-01-17 17:27:03.770588	125.7	45.9	-94.8	0.0
2025-01-17 17:27:06.017369	125.1	46.5	-94.7	0.0
2025-01-17 17:27:08.265063	124.4	47.1	-94.8	0.0
2025-01-17 17:27:10.506159	123.6	47.7	-94.6	0.0
2025-01-17 17:27:12.749225	122.9	48.3	-94.7	0.0
2025-01-17 17:27:14.994363	122.1	48.9	-94.7	0.0
2025-01-17 17:27:17.236185	121.3	49.5	-94.8	0.0
2025-01-17 17:27:19.478287	120.4	50.2	-94.6	0.0
2025-01-17 17:27:21.725169	119.5	50.8	-94.7	0.0
2025-01-17 17:27:23.967680	118.6	51.4	-94.5	0.0
2025-01-17 17:27:26.211222	117.6	52.0	-94.8	0.0
2025-01-17 17:27:28.454386	116.6	52.6	-94.8	0.0
2025-01-17 17:27:30.700956	115.6	53.2	-94.7	0.0
2025-01-17 17:27:32.944426	114.5	53.9	-95.0	0.0
2025-01-17 17:27:35.187285	113.3	54.5	-94.7	0.0
2025-01-17 17:27:37.429052	112.1	55.1	-94.7	0.0
2025-01-17 17:27:39.672975	110.9	55.7	-94.7	0.0
2025-01-17 17:27:41.917367	109.6	56.3	-94.6	0.0
2025-01-17 17:27:44.162265	108.2	56.8	-94.7	0.0
2025-01-17 17:27:46.403286	106.8	57.4	-94.5	0.0
2025-01-17 17:27:48.646759	105.4	58.0	-94.9	0.0
2025-01-17 17:27:50.886862	103.8	58.5	-94.9	0.0
2025-01-17 17:27:53.129161	102.2	59.0	-94.8	0.0
2025-01-17 17:27:55.373789	100.6	59.5	-95.0	0.0
2025-01-17 17:27:57.615956	98.9	60.0	-94.9	0.0
2025-01-17 17:27:59.859799	97.1	60.5	-94.8	0.0
2025-01-17 17:28:02.105221	95.2	61.0	-94.9	0.0
2025-01-17 17:28:04.349972	93.3	61.4	-94.8	0.0
2025-01-17 17:28:06.593241	91.3	61.8	-94.8	0.0
2025-01-17 17:28:08.836445	89.2	62.2	-95.0	0.0
2025-01-17 17:28:11.076448	87.1	62.5	-94.9	0.0
2025-01-17 17:28:13.318411	84.9	62.8	-94.9	0.0
2025-01-17 17:28:15.560652	82.7	63.1	-95.0	0.0
2025-01-17 17:28:17.802269	80.4	63.3	-94.8	0.0
2025-01-17 17:28:20.045155	78.1	63.5	-95.0	0.0
2025-01-17 17:28:22.286251	75.8	63.7	-94.9	0.0
2025-01-17 17:28:24.530410	73.4	63.8	-94.8	0.0
2025-01-17 17:28:26.772419	71.0	63.9	-94.9	0.0
2025-01-17 17:28:29.015947	68.6	63.9	-94.7	0.0
2025-01-17 17:28:31.259411	66.2	63.9	-94.7	0.0
2025-01-17 17:28:33.502525	63.7	63.9	-94.8	0.0
2025-01-17 17:28:35.745130	61.3	63.8	-94.9	0.0
2025-01-17 17:28:37.989527	59.0	63.7	-94.9	0.0
2025-01-17 17:28:40.233065	56.6	63.5	-95.0	0.0
2025-01-17 17:28:42.475505	54.3	63.3	-95.2	0.0
2025-01-17 17:28:44.717391	52.0	63.1	-94.9	0.0
2025-01-17 17:28:46.959782	49.8	62.8	-94.9	0.0
2025-01-17 17:28:49.203513	47.7	62.5	-95.1	0.0
2025-01-17 17:28:51.445118	45.6	62.1	-95.0	0.0
2025-01-17 17:28:53.685696	43.5	61.8	-94.8	0.0
2025-01-17 17:28:55.931235	41.5	61.4	-94.7	0.0
2025-01-17 17:28:58.172171	39.6	60.9	-94.9	0.0
2025-01-17 17:29:00.410073	37.8	60.5	-95.1	0.0
2025-01-17 17:29:02.652286	36.0	60.0	-94.7	0.0
2025-01-17 17:29:04.895006	34.3	59.5	-94.8	0.0
2025-01-17 17:29:07.136247	32.6	59.0	-94.9	0.0
2025-01-17 17:29:09.378023	31.0	58.5	-94.9	0.0
2025-01-17 17:29:11.624194	29.5	57.9	-94.6	0.0
2025-01-17 17:29:13.868321	28.0	57.4	-94.8	0.0
2025-01-17 17:29:16.110360	26.6	56.8	-94.9	0.0
2025-01-17 17:29:18.353265	25.3	56.2	-94.8	0.0
2025-01-17 17:29:20.595869	24.0	55.6	-94.9	0.0
2025-01-17 17:29:22.836838	22.8	55.0	-94.9	0.0
2025-01-17 17:29:25.076917	21.6	54.4	-94.6	0.0
2025-01-17 17:29:27.321135	20.4	53.8	-94.8	0.0
2025-01-17 17:29:29.563123	19.3	53.2	-94.9	0.0
2025-01-17 17:29:31.807982	18.3	52.6	-95.1	0.0
2025-01-17 17:29:34.051422	17.3	52.0	-94.7	0.0
2025-01-17 17:29:36.294040	16.3	51.4	-94.9	0.0
2025-01-17 17:29:38.534552	15.4	50.8	-94.9	0.0
2025-01-17 17:29:40.775729	14.5	50.1	-94.8	0.0
2025-01-17 17:29:43.019401	13.7	49.5	-94.8	0.0
2025-01-17 17:29:45.261892	12.9	48.9	-94.9	0.0
2025-01-17 17:29:47.502696	12.1	48.3	-94.8	0.0
2025-01-17 17:29:49.743138	11.3	47.7	-94.7	0.0
2025-01-17 17:29:51.987840	10.6	47.1	-94.5	0.0
2025-01-17 17:29:54.231449	9.9	46.5	-94.8	0.0
2025-01-17 17:29:56.472268	9.2	45.9	-94.9	0.0
2025-01-17 17:29:58.716375	8.6	45.3	-95.0	0.0
2025-01-17 17:30:00.958419	8.0	44.7	-94.5	0.0
2025-01-17 17:30:03.200911	7.4	44.2	-94.9	0.0
2025-01-17 17:30:05.446799	6.8	43.6	-94.7	0.0
2025-01-17 17:30:07.692369	6.3	43.0	-95.2	0.0
2025-01-17 17:30:09.935534	5.7	42.5	-94.5	0.0
2025-01-17 17:30:12.175831	5.2	41.9	-94.7	0.0
2025-01-17 17:30:14.420964	4.7	41.3	-94.8	0.0
2025-01-17 17:30:16.665985	4.2	40.8	-95.0	0.0
2025-01-17 17:30:18.909335	3.7	40.3	-94.9	0.0
2025-01-17 17:30:21.152136	3.3	39.7	-94.6	0.0
2025-01-17 17:30:23.397023	2.9	39.2	-94.7	0.0
2025-01-17 17:30:25.640631	2.4	38.7	-94.8	0.0
2025-01-17 17:30:27.883265	2.0	38.2	-94.5	0.0
2025-01-17 17:30:30.128284	1.6	37.6	-94.8	0.0
2025-01-17 17:30:32.371226	1.3	37.1	-94.6	0.0
2025-01-17 17:30:34.616018	0.9	36.6	-95.0	0.0
2025-01-17 17:30:36.859425	0.5	36.1	-94.6	0.0
2025-01-17 17:30:39.100772	0.2	35.7	-94.7	0.0
2025-01-17 17:30:41.344025	359.8	35.2	-94.7	0.0
2025-01-17 17:30:43.585186	359.5	34.7	-94.6	0.0
2025-01-17 17:30:45.826848	359.2	34.2	-94.7	0.0
2025-01-17 17:30:48.068040	358.9	33.8	-94.9	0.0
2025-01-17 17:30:50.308727	358.6	33.3	-94.8	0.0
2025-01-17 17:30:52.550726	358.3	32.9	-94.9	0.0
2025-01-17 17:30:54.794001	358.0	32.4	-94.8	0.0
2025-01-17 17:30:57.039852	357.7	32.0	-94.8	0.0
2025-01-17 17:30:59.285555	357.4	31.6	-94.9	0.0
2025-01-17 17:31:01.525183	357.2	31.1	-95.0	0.0
2025-01-17 17:31:03.768091	356.9	30.7	-94.8	0.0
2025-01-17 17:31:06.012739	356.7	30.3	-94.7	0.0
2025-01-17 17:31:08.254175	356.4	29.9	-95.0	0.0
2025-01-17 17:31:10.497552	356.2	29.5	-94.9	0.0
2025-01-17 17:31:12.740528	356.0	29.1	-94.7	0.0
2025-01-17 17:31:14.983121	355.8	28.7	-94.6	0.0
2025-01-17 17:31:17.226427	355.5	28.3	-95.0	0.0
2025-01-17 17:31:19.472206	355.3	27.9	-94.9	0.0
2025-01-17 17:31:21.714388	355.1	27.5	-94.6	0.0
2025-01-17 17:31:23.958241	354.9	27.2	-94.9	0.0
2025-01-17 17:31:26.200742	354.7	26.8	-94.9	0.0
2025-01-17 17:31:28.443687	354.5	26.4	-94.9	0.0
2025-01-17 17:31:30.685524	354.3	26.1	-94.9	0.0
2025-01-17 17:31:32.926738	354.1	25.7	-95.0	0.0
2025-01-17 17:31:35.171114	354.0	25.4	-95.0	0.0
2025-01-17 17:31:37.414350	353.8	25.0	-95.0	0.0
2025-01-17 17:31:39.657064	353.6	24.7	-95.0	0.0
2025-01-17 17:31:41.899374	353.5	24.3	-95.0	0.0
2025-01-17 17:31:44.138283	353.3	24.0	-94.8	0.0
2025-01-17 17:31:46.379443	353.1	23.7	-95.2	0.0
2025-01-17 17:31:48.624245	353.0	23.3	-94.9	0.0
2025-01-17 17:31:50.867816	352.8	23.0	-95.0	0.0
2025-01-17 17:31:53.111451	352.7	22.7	-94.8	0.0
2025-01-17 17:31:55.356159	352.5	22.4	-94.9	0.0
2025-01-17 17:31:57.598300	352.4	22.1	-95.0	0.0
2025-01-17 17:31:59.842484	352.2	21.8	-94.8	0.0
2025-01-17 17:32:02.083141	352.1	21.5	-95.0	0.0
2025-01-17 17:32:04.322134	352.0	21.2	-94.9	0.0
2025-01-17 17:32:06.567479	351.8	20.9	-95.0	0.0
2025-01-17 17:32:08.813227	351.7	20.6	-95.0	0.0
2025-01-17 17:32:11.054787	351.6	20.3	-94.7	0.0
2025-01-17 17:32:13.295445	351.4	20.0	-94.8	0.0
2025-01-17 17:32:15.536867	351.3	19.7	-95.0	0.0
2025-01-17 17:32:17.777617	351.2	19.4	-95.0	0.0
2025-01-17 17:32:20.019264	351.1	19.1	-95.0	0.0
2025-01-17 17:32:22.261320	351.0	18.9	-95.1	0.0
2025-01-17 17:32:24.502742	350.9	18.6	-94.8	0.0
2025-01-17 17:32:26.745042	350.7	18.3	-94.9	0.0
2025-01-17 17:32:28.987143	350.6	18.1	-95.0	0.0
2025-01-17 17:32:31.227351	350.5	17.8	-94.7	0.0
2025-01-17 17:32:33.470361	350.4	17.5	-95.2	0.0
2025-01-17 17:32:35.711477	350.3	17.3	-94.9	0.0
2025-01-17 17:32:37.950397	350.2	17.0	-94.9	0.0
2025-01-17 17:32:40.194130	350.1	16.8	-95.1	0.0
2025-01-17 17:32:42.436347	350.0	16.5	-95.0	0.0
2025-01-17 17:32:44.677940	349.9	16.3	-94.9	0.0
2025-01-17 17:32:46.918190	349.8	16.0	-95.0	0.0
2025-01-17 17:32:49.163339	349.7	15.8	-95.0	0.0
2025-01-17 17:32:51.405439	349.7	15.5	-95.2	0.0
2025-01-17 17:32:53.648655	349.6	15.3	-94.8	0.0
2025-01-17 17:32:55.893285	349.5	15.1	-94.8	0.0
2025-01-17 17:32:58.135077	349.4	14.8	-94.6	0.0
2025-01-17 17:33:00.377571	349.3	14.6	-94.8	0.0
2025-01-17 17:33:02.622444	349.2	14.4	-94.8	0.0
2025-01-17 17:33:04.866577	349.1	14.1	-94.6	0.0
2025-01-17 17:33:07.107174	349.1	13.9	-95.1	0.0
2025-01-17 17:33:09.344595	349.0	13.7	-94.8	0.0
2025-01-17 17:33:11.587123	348.9	13.5	-95.0	0.0
2025-01-17 17:33:13.828413	348.8	13.2	-94.7	0.0
2025-01-17 17:33:16.070013	348.8	13.0	-94.9	0.0
2025-01-17 17:33:18.311493	348.7	12.8	-95.2	0.0
2025-01-17 17:33:20.551461	348.6	12.6	-94.7	0.0
2025-01-17 17:33:22.794068	348.5	12.4	-95.1	0.0
2025-01-17 17:33:25.035560	348.5	12.2	-95.0	0.0
2025-01-17 17:33:27.276368	348.4	12.0	-94.8	0.0
2025-01-17 17:33:29.518030	348.3	11.7	-94.8	0.0
2025-01-17 17:33:31.759559	348.3	11.5	-94.7	0.0
2025-01-17 17:33:34.000497	348.2	11.3	-95.1	0.0
2025-01-17 17:33:36.242000	348.1	11.1	-94.9	0.0
2025-01-17 17:33:38.485932	348.1	10.9	-95.1	0.0
2025-01-17 17:33:40.730517	348.0	10.7	-95.1	0.0
2025-01-17 17:33:42.972089	348.0	10.5	-94.9	0.0
2025-01-17 17:33:45.215704	347.9	10.3	-95.0	0.0
2025-01-17 17:33:47.455433	347.8	10.1	-95.1	0.0
#Closed at: 2025-01-17 17:23:07.873663