passes_logs/2025/01/17/planumMaritime01/planumMaritime01__20250117_181915_METOP-C_rec.log

#Pass ID: 20250117_181915_METOP-C
#Satellite: METOP-C
#Configuration: METOP-C
#Start time: 2025-01-17 18:19:20.584738

#LorettStation: 1.0.0 05.05.2024
#Station: planumMaritime01
#Location: 37.49445 lon 55.92918 lat
#TLE: 1 43689U 18087A   25017.12268116  .00000242  00000+0  13070-3 0  9997
#TLE: 2 43689  98.6961  79.5832 0001518 160.4189 199.7047 14.21482278321517

#Time	Az	El	Level	SNR
2025-01-17 18:19:22.742577	170.5	10.2	-94.7	0.0
2025-01-17 18:19:24.986106	170.5	10.4	-94.5	0.0
2025-01-17 18:19:27.227318	170.6	10.6	-94.7	0.0
2025-01-17 18:19:29.467820	170.6	10.8	-94.4	0.0
2025-01-17 18:19:31.712341	170.7	11.0	-94.6	0.0
2025-01-17 18:19:33.957586	170.8	11.2	-94.5	0.0
2025-01-17 18:19:36.201690	170.8	11.4	-94.4	0.0
2025-01-17 18:19:38.444755	170.9	11.6	-94.4	0.0
2025-01-17 18:19:40.684523	170.9	11.8	-94.4	0.0
2025-01-17 18:19:42.932067	171.0	12.0	-94.4	0.0
2025-01-17 18:19:45.171976	171.0	12.2	-94.6	0.0
2025-01-17 18:19:47.413331	171.1	12.4	-94.5	0.0
2025-01-17 18:19:49.657587	171.2	12.7	-94.5	0.0
2025-01-17 18:19:51.896985	171.2	12.9	-94.7	0.0
2025-01-17 18:19:54.136974	171.3	13.1	-94.6	0.0
2025-01-17 18:19:56.377997	171.3	13.3	-94.4	0.0
2025-01-17 18:19:58.619861	171.4	13.6	-94.8	0.0
2025-01-17 18:20:00.862331	171.5	13.8	-94.8	0.0
2025-01-17 18:20:03.106828	171.5	14.0	-94.9	0.0
2025-01-17 18:20:05.351108	171.6	14.2	-95.1	0.0
2025-01-17 18:20:07.590809	171.7	14.5	-94.5	0.0
2025-01-17 18:20:09.834493	171.7	14.7	-94.9	0.0
2025-01-17 18:20:12.073363	171.8	14.9	-94.7	0.0
2025-01-17 18:20:14.315040	171.9	15.2	-95.0	0.0
2025-01-17 18:20:16.559977	172.0	15.4	-94.8	0.0
2025-01-17 18:20:18.805269	172.0	15.7	-94.7	0.0
2025-01-17 18:20:21.049273	172.1	15.9	-94.8	0.0
2025-01-17 18:20:23.294396	172.2	16.2	-94.6	0.0
2025-01-17 18:20:25.535126	172.2	16.4	-94.8	0.0
2025-01-17 18:20:27.774426	172.3	16.7	-94.6	0.0
2025-01-17 18:20:30.015455	172.4	16.9	-94.7	0.0
2025-01-17 18:20:32.258522	172.5	17.2	-94.4	0.0
2025-01-17 18:20:34.499370	172.6	17.4	-94.4	0.0
2025-01-17 18:20:36.742543	172.6	17.7	-94.5	0.0
2025-01-17 18:20:38.985265	172.7	18.0	-94.2	0.0
2025-01-17 18:20:41.226486	172.8	18.3	-94.7	0.0
2025-01-17 18:20:43.468587	172.9	18.5	-94.7	0.0
2025-01-17 18:20:45.709773	173.0	18.8	-94.5	0.0
2025-01-17 18:20:47.949899	173.1	19.1	-94.8	0.0
2025-01-17 18:20:50.190273	173.2	19.4	-94.7	0.0
2025-01-17 18:20:52.432232	173.3	19.7	-94.8	0.0
2025-01-17 18:20:54.674701	173.4	19.9	-95.0	0.0
2025-01-17 18:20:56.915668	173.4	20.2	-94.5	0.0
2025-01-17 18:20:59.156300	173.5	20.5	-95.1	0.0
2025-01-17 18:21:01.398267	173.6	20.8	-94.5	0.0
2025-01-17 18:21:03.639724	173.7	21.1	-95.1	0.0
2025-01-17 18:21:05.883828	173.8	21.4	-95.0	0.0
2025-01-17 18:21:08.124470	173.9	21.8	-94.7	0.0
2025-01-17 18:21:10.367960	174.1	22.1	-94.8	0.0
2025-01-17 18:21:12.610052	174.2	22.4	-95.0	0.0
2025-01-17 18:21:14.851842	174.3	22.7	-94.7	0.0
2025-01-17 18:21:17.093760	174.4	23.0	-95.1	0.0
2025-01-17 18:21:19.337378	174.5	23.4	-95.1	0.0
2025-01-17 18:21:21.578976	174.6	23.7	-94.7	0.0
2025-01-17 18:21:23.822739	174.7	24.0	-94.5	0.0
2025-01-17 18:21:26.063847	174.9	24.4	-94.8	0.0
2025-01-17 18:21:28.305866	175.0	24.7	-94.4	0.0
2025-01-17 18:21:30.550786	175.1	25.1	-94.6	0.0
2025-01-17 18:21:32.793361	175.2	25.4	-94.8	0.0
2025-01-17 18:21:35.036460	175.4	25.8	-94.6	0.0
2025-01-17 18:21:37.278217	175.5	26.2	-94.5	0.0
2025-01-17 18:21:39.520978	175.7	26.5	-94.6	0.0
2025-01-17 18:21:41.764263	175.8	26.9	-94.8	0.0
2025-01-17 18:21:44.008867	175.9	27.3	-94.7	0.0
2025-01-17 18:21:46.249096	176.1	27.7	-95.0	0.0
2025-01-17 18:21:48.491125	176.2	28.1	-95.0	0.0
2025-01-17 18:21:50.733246	176.4	28.5	-94.9	0.0
2025-01-17 18:21:52.976358	176.6	28.9	-94.9	0.0
2025-01-17 18:21:55.215243	176.7	29.3	-94.9	0.0
2025-01-17 18:21:57.459635	176.9	29.7	-94.5	0.0
2025-01-17 18:21:59.704457	177.1	30.1	-94.7	0.0
2025-01-17 18:22:01.946924	177.2	30.6	-94.8	0.0
2025-01-17 18:22:04.189737	177.4	31.0	-94.7	0.0
2025-01-17 18:22:06.432807	177.6	31.4	-94.9	0.0
2025-01-17 18:22:08.674218	177.8	31.9	-94.8	0.0
2025-01-17 18:22:10.916119	178.0	32.3	-94.6	0.0
2025-01-17 18:22:13.160039	178.2	32.8	-94.8	0.0
2025-01-17 18:22:15.404546	178.4	33.3	-94.9	0.0
2025-01-17 18:22:17.647328	178.6	33.7	-94.6	0.0
2025-01-17 18:22:19.887971	178.8	34.2	-94.6	0.0
2025-01-17 18:22:22.130662	179.0	34.7	-94.9	0.0
2025-01-17 18:22:24.370746	179.3	35.2	-94.8	0.0
2025-01-17 18:22:26.614487	179.5	35.7	-94.6	0.0
2025-01-17 18:22:28.854964	179.8	36.2	-94.5	0.0
2025-01-17 18:22:31.098159	180.0	36.7	-94.8	0.0
2025-01-17 18:22:33.338616	180.3	37.2	-94.5	0.0
2025-01-17 18:22:35.580163	180.5	37.8	-94.6	0.0
2025-01-17 18:22:37.823391	180.8	38.3	-94.8	0.0
2025-01-17 18:22:40.066744	181.1	38.9	-94.6	0.0
2025-01-17 18:22:42.309832	181.4	39.4	-94.9	0.0
2025-01-17 18:22:44.552956	181.7	40.0	-94.9	0.0
2025-01-17 18:22:46.795419	182.0	40.5	-94.9	0.0
2025-01-17 18:22:49.034899	182.4	41.1	-94.9	0.0
2025-01-17 18:22:51.277999	182.7	41.7	-94.7	0.0
2025-01-17 18:22:53.520439	183.1	42.3	-94.9	0.0
2025-01-17 18:22:55.764208	183.4	42.9	-94.9	0.0
2025-01-17 18:22:58.003889	183.8	43.5	-95.0	0.0
2025-01-17 18:23:00.245828	184.2	44.2	-94.8	0.0
2025-01-17 18:23:02.485342	184.6	44.8	-94.7	0.0
2025-01-17 18:23:04.724058	185.0	45.4	-94.9	0.0
2025-01-17 18:23:06.967639	185.5	46.1	-94.9	0.0
2025-01-17 18:23:09.208715	185.9	46.7	-94.8	0.0
2025-01-17 18:23:11.453687	186.4	47.4	-94.9	0.0
2025-01-17 18:23:13.692267	186.9	48.1	-94.6	0.0
2025-01-17 18:23:15.935934	187.4	48.8	-94.9	0.0
2025-01-17 18:23:18.177536	188.0	49.4	-94.8	0.0
2025-01-17 18:23:20.421304	188.6	50.1	-94.8	0.0
2025-01-17 18:23:22.664772	189.2	50.8	-94.7	0.0
2025-01-17 18:23:24.906545	189.8	51.6	-94.7	0.0
2025-01-17 18:23:27.149267	190.4	52.3	-94.7	0.0
2025-01-17 18:23:29.393319	191.1	53.0	-94.7	0.0
2025-01-17 18:23:31.637336	191.9	53.7	-95.0	0.0
2025-01-17 18:23:33.875937	192.6	54.5	-94.9	0.0
2025-01-17 18:23:36.116900	193.4	55.2	-94.8	0.0
2025-01-17 18:23:38.360533	194.3	56.0	-95.0	0.0
2025-01-17 18:23:40.602378	195.2	56.7	-94.9	0.0
2025-01-17 18:23:42.844688	196.1	57.5	-95.1	0.0
2025-01-17 18:23:45.084599	197.1	58.2	-94.9	0.0
2025-01-17 18:23:47.326139	198.2	59.0	-94.9	0.0
2025-01-17 18:23:49.571925	199.3	59.8	-94.9	0.0
2025-01-17 18:23:51.811803	200.5	60.5	-94.9	0.0
2025-01-17 18:23:54.053324	201.7	61.3	-95.2	0.0
2025-01-17 18:23:56.297910	203.1	62.0	-94.8	0.0
2025-01-17 18:23:58.541064	204.5	62.8	-94.7	0.0
2025-01-17 18:24:00.781576	206.0	63.5	-94.6	0.0
2025-01-17 18:24:03.022570	207.6	64.3	-94.8	0.0
2025-01-17 18:24:05.265428	209.3	65.0	-94.9	0.0
2025-01-17 18:24:07.506408	211.1	65.7	-94.5	0.0
2025-01-17 18:24:09.750128	213.1	66.4	-94.5	0.0
2025-01-17 18:24:11.990428	215.1	67.0	-94.8	0.0
2025-01-17 18:24:14.234796	217.3	67.7	-94.6	0.0
2025-01-17 18:24:16.477416	219.6	68.3	-94.9	0.0
2025-01-17 18:24:18.720976	222.1	68.9	-94.8	0.0
2025-01-17 18:24:20.961896	224.8	69.4	-94.5	0.0
2025-01-17 18:24:23.203290	227.5	69.9	-94.8	0.0
2025-01-17 18:24:25.446241	230.4	70.4	-94.8	0.0
2025-01-17 18:24:27.688541	233.5	70.8	-94.7	0.0
2025-01-17 18:24:29.931913	236.7	71.2	-95.1	0.0
2025-01-17 18:24:32.171720	240.0	71.5	-94.8	0.0
2025-01-17 18:24:34.412014	243.5	71.8	-94.9	0.0
2025-01-17 18:24:36.655715	247.0	72.0	-94.7	0.0
2025-01-17 18:24:38.898130	250.6	72.1	-94.8	0.0
2025-01-17 18:24:41.138613	254.2	72.1	-95.1	0.0
2025-01-17 18:24:43.378131	257.9	72.1	-94.9	0.0
2025-01-17 18:24:45.619087	261.5	72.0	-95.0	0.0
2025-01-17 18:24:47.860956	265.0	71.9	-94.9	0.0
2025-01-17 18:24:50.109388	268.5	71.7	-94.8	0.0
2025-01-17 18:24:52.350804	271.9	71.4	-94.6	0.0
2025-01-17 18:24:54.595811	275.2	71.1	-94.7	0.0
2025-01-17 18:24:56.838980	278.4	70.7	-94.7	0.0
2025-01-17 18:24:59.079618	281.4	70.3	-94.5	0.0
2025-01-17 18:25:01.320791	284.3	69.8	-94.6	0.0
2025-01-17 18:25:03.562208	287.0	69.3	-94.6	0.0
2025-01-17 18:25:05.803533	289.6	68.7	-94.5	0.0
2025-01-17 18:25:08.048050	292.0	68.1	-94.8	0.0
2025-01-17 18:25:10.291994	294.3	67.5	-94.9	0.0
2025-01-17 18:25:12.535187	296.4	66.8	-95.0	0.0
2025-01-17 18:25:14.780850	298.5	66.2	-94.8	0.0
2025-01-17 18:25:17.021725	300.4	65.5	-94.8	0.0
2025-01-17 18:25:19.264228	302.1	64.8	-95.0	0.0
2025-01-17 18:25:21.508699	303.8	64.0	-94.9	0.0
2025-01-17 18:25:23.750972	305.4	63.3	-94.8	0.0
2025-01-17 18:25:25.992349	306.8	62.6	-94.9	0.0
2025-01-17 18:25:28.238001	308.2	61.8	-95.0	0.0
2025-01-17 18:25:30.481916	309.5	61.1	-94.9	0.0
2025-01-17 18:25:32.722121	310.8	60.3	-94.9	0.0
2025-01-17 18:25:34.965267	311.9	59.5	-95.0	0.0
2025-01-17 18:25:37.208231	313.0	58.8	-94.8	0.0
2025-01-17 18:25:39.451616	314.1	58.0	-95.0	0.0
2025-01-17 18:25:41.694316	315.0	57.3	-94.8	0.0
2025-01-17 18:25:43.936901	316.0	56.5	-94.6	0.0
2025-01-17 18:25:46.181757	316.8	55.8	-94.7	0.0
2025-01-17 18:25:48.422506	317.7	55.0	-94.7	0.0
2025-01-17 18:25:50.662973	318.5	54.3	-94.6	0.0
2025-01-17 18:25:52.909257	319.2	53.5	-94.6	0.0
2025-01-17 18:25:55.151131	319.9	52.8	-95.0	0.0
2025-01-17 18:25:57.392767	320.6	52.1	-95.0	0.0
2025-01-17 18:25:59.639655	321.3	51.4	-94.9	0.0
2025-01-17 18:26:01.879809	321.9	50.7	-95.0	0.0
2025-01-17 18:26:04.121972	322.5	50.0	-94.9	0.0
2025-01-17 18:26:06.362945	323.0	49.3	-95.2	0.0
2025-01-17 18:26:08.604966	323.6	48.6	-95.0	0.0
2025-01-17 18:26:10.845080	324.1	47.9	-95.0	0.0
2025-01-17 18:26:13.086092	324.6	47.2	-95.1	0.0
2025-01-17 18:26:15.326611	325.1	46.6	-95.0	0.0
2025-01-17 18:26:17.570220	325.5	45.9	-94.8	0.0
2025-01-17 18:26:19.812926	325.9	45.3	-95.1	0.0
2025-01-17 18:26:22.052807	326.4	44.6	-94.9	0.0
2025-01-17 18:26:24.294626	326.8	44.0	-95.0	0.0
2025-01-17 18:26:26.540794	327.2	43.4	-94.6	0.0
2025-01-17 18:26:28.782522	327.5	42.8	-94.7	0.0
2025-01-17 18:26:31.023336	327.9	42.2	-94.6	0.0
2025-01-17 18:26:33.266084	328.2	41.6	-94.7	0.0
2025-01-17 18:26:35.509455	328.6	41.0	-94.7	0.0
2025-01-17 18:26:37.751688	328.9	40.4	-94.7	0.0
2025-01-17 18:26:39.993948	329.2	39.9	-94.6	0.0
2025-01-17 18:26:42.238898	329.5	39.3	-94.9	0.0
2025-01-17 18:26:44.483585	329.8	38.8	-94.8	0.0
2025-01-17 18:26:46.721976	330.1	38.2	-94.9	0.0
2025-01-17 18:26:48.963026	330.4	37.7	-94.9	0.0
2025-01-17 18:26:51.202542	330.6	37.2	-94.7	0.0
2025-01-17 18:26:53.444880	330.9	36.6	-94.8	0.0
2025-01-17 18:26:55.687482	331.2	36.1	-94.8	0.0
2025-01-17 18:26:57.928962	331.4	35.6	-95.0	0.0
2025-01-17 18:27:00.168889	331.6	35.1	-94.8	0.0
2025-01-17 18:27:02.411904	331.9	34.6	-94.9	0.0
2025-01-17 18:27:04.655135	332.1	34.2	-94.9	0.0
2025-01-17 18:27:06.900222	332.3	33.7	-94.9	0.0
2025-01-17 18:27:09.141775	332.5	33.2	-94.8	0.0
2025-01-17 18:27:11.384936	332.7	32.8	-94.6	0.0
2025-01-17 18:27:13.626885	332.9	32.3	-94.9	0.0
2025-01-17 18:27:15.867765	333.1	31.9	-94.6	0.0
2025-01-17 18:27:18.110796	333.3	31.4	-94.9	0.0
2025-01-17 18:27:20.354661	333.5	31.0	-94.7	0.0
2025-01-17 18:27:22.597070	333.7	30.5	-94.6	0.0
2025-01-17 18:27:24.839366	333.8	30.1	-94.6	0.0
2025-01-17 18:27:27.082437	334.0	29.7	-95.0	0.0
2025-01-17 18:27:29.324930	334.2	29.3	-94.7	0.0
2025-01-17 18:27:31.567801	334.3	28.9	-94.7	0.0
2025-01-17 18:27:33.810630	334.5	28.5	-94.6	0.0
2025-01-17 18:27:36.052573	334.7	28.1	-94.8	0.0
2025-01-17 18:27:38.296102	334.8	27.7	-94.9	0.0
2025-01-17 18:27:40.539637	335.0	27.3	-94.7	0.0
2025-01-17 18:27:42.781850	335.1	26.9	-94.9	0.0
2025-01-17 18:27:45.025853	335.3	26.6	-94.8	0.0
2025-01-17 18:27:47.268809	335.4	26.2	-94.9	0.0
2025-01-17 18:27:49.514194	335.5	25.8	-95.1	0.0
2025-01-17 18:27:51.755050	335.7	25.5	-95.0	0.0
2025-01-17 18:27:53.996409	335.8	25.1	-94.9	0.0
2025-01-17 18:27:56.240268	335.9	24.8	-94.8	0.0
2025-01-17 18:27:58.480092	336.0	24.4	-94.7	0.0
2025-01-17 18:28:00.723842	336.2	24.1	-94.6	0.0
2025-01-17 18:28:02.966100	336.3	23.7	-94.9	0.0
2025-01-17 18:28:05.207393	336.4	23.4	-94.7	0.0
2025-01-17 18:28:07.448148	336.5	23.1	-94.7	0.0
2025-01-17 18:28:09.692204	336.6	22.8	-94.9	0.0
2025-01-17 18:28:11.936588	336.7	22.4	-94.8	0.0
2025-01-17 18:28:14.179939	336.9	22.1	-94.4	0.0
2025-01-17 18:28:16.424510	337.0	21.8	-94.7	0.0
2025-01-17 18:28:18.665493	337.1	21.5	-95.0	0.0
2025-01-17 18:28:20.906759	337.2	21.2	-94.8	0.0
2025-01-17 18:28:23.149430	337.3	20.9	-95.0	0.0
2025-01-17 18:28:25.390811	337.4	20.6	-95.1	0.0
2025-01-17 18:28:27.632732	337.5	20.3	-94.8	0.0
2025-01-17 18:28:29.873717	337.6	20.0	-95.1	0.0
2025-01-17 18:28:32.116807	337.7	19.7	-95.1	0.0
2025-01-17 18:28:34.357914	337.8	19.4	-94.9	0.0
2025-01-17 18:28:36.599990	337.8	19.2	-95.1	0.0
2025-01-17 18:28:38.845994	337.9	18.9	-95.1	0.0
2025-01-17 18:28:41.087648	338.0	18.6	-94.8	0.0
2025-01-17 18:28:43.328073	338.1	18.3	-95.0	0.0
2025-01-17 18:28:45.573976	338.2	18.1	-94.8	0.0
2025-01-17 18:28:47.819256	338.3	17.8	-95.1	0.0
2025-01-17 18:28:50.062089	338.4	17.5	-94.9	0.0
2025-01-17 18:28:52.305072	338.4	17.3	-94.8	0.0
2025-01-17 18:28:54.547859	338.5	17.0	-94.9	0.0
2025-01-17 18:28:56.789829	338.6	16.8	-95.0	0.0
2025-01-17 18:28:59.029831	338.7	16.5	-94.8	0.0
2025-01-17 18:29:01.273850	338.8	16.3	-94.9	0.0
2025-01-17 18:29:03.514330	338.8	16.0	-94.7	0.0
2025-01-17 18:29:05.755788	338.9	15.8	-95.0	0.0
2025-01-17 18:29:07.996872	339.0	15.5	-94.9	0.0
2025-01-17 18:29:10.240448	339.1	15.3	-95.0	0.0
2025-01-17 18:29:12.481978	339.1	15.0	-95.0	0.0
2025-01-17 18:29:14.725978	339.2	14.8	-95.0	0.0
2025-01-17 18:29:16.967273	339.3	14.6	-95.0	0.0
2025-01-17 18:29:19.209537	339.3	14.3	-94.9	0.0
2025-01-17 18:29:21.453135	339.4	14.1	-94.8	0.0
2025-01-17 18:29:23.693157	339.5	13.9	-95.0	0.0
2025-01-17 18:29:25.935994	339.5	13.7	-94.9	0.0
2025-01-17 18:29:28.177936	339.6	13.4	-94.7	0.0
2025-01-17 18:29:30.423557	339.7	13.2	-94.9	0.0
2025-01-17 18:29:32.665921	339.7	13.0	-95.2	0.0
2025-01-17 18:29:34.907851	339.8	12.8	-95.1	0.0
2025-01-17 18:29:37.148927	339.9	12.6	-94.8	0.0
2025-01-17 18:29:39.391305	339.9	12.4	-94.9	0.0
2025-01-17 18:29:41.634921	340.0	12.1	-94.8	0.0
2025-01-17 18:29:43.876946	340.0	11.9	-94.7	0.0
2025-01-17 18:29:46.116112	340.1	11.7	-95.0	0.0
2025-01-17 18:29:48.358029	340.2	11.5	-94.8	0.0
2025-01-17 18:29:50.602515	340.2	11.3	-94.9	0.0
2025-01-17 18:29:52.842430	340.3	11.1	-94.8	0.0
2025-01-17 18:29:55.083046	340.3	10.9	-95.0	0.0
2025-01-17 18:29:57.327993	340.4	10.7	-94.8	0.0
2025-01-17 18:29:59.571811	340.4	10.5	-95.0	0.0
2025-01-17 18:30:01.812081	340.5	10.3	-95.1	0.0
2025-01-17 18:30:04.052180	340.6	10.1	-94.9	0.0
#Closed at: 2025-01-17 18:19:15.588927