passes_logs/2025/01/17/planumMaritime01/planumMaritime01__20250117_090334_NOAA_18_rec.log

#Pass ID: 20250117_090334_NOAA 18
#Satellite: NOAA 18
#Configuration: NOAA 18
#Start time: 2025-01-17 09:03:39.146888

#LorettStation: 1.0.0 05.05.2024
#Station: planumMaritime01
#Location: 37.49445 lon 55.92918 lat
#TLE: 1 28654U 05018A   25016.15379782  .00000321  00000+0  19399-3 0  9994
#TLE: 2 28654  98.8565  97.1968 0014416 175.9109 184.2183 14.13487365 13346

#Time	Az	El	Level	SNR
2025-01-17 09:03:41.310917	16.7	10.2	-69.5	0.0
2025-01-17 09:03:43.559966	16.7	10.4	-70.0	0.0
2025-01-17 09:03:45.803205	16.7	10.6	-68.1	0.0
2025-01-17 09:03:48.050518	16.7	10.8	-70.3	0.0
2025-01-17 09:03:50.299069	16.7	11.0	-69.4	0.0
2025-01-17 09:03:52.543194	16.8	11.2	-69.3	0.0
2025-01-17 09:03:54.787926	16.8	11.4	-71.4	0.0
2025-01-17 09:03:57.035199	16.8	11.6	-70.1	0.0
2025-01-17 09:03:59.283374	16.8	11.8	-73.6	0.0
2025-01-17 09:04:01.529033	16.8	12.0	-71.6	0.0
2025-01-17 09:04:03.777100	16.8	12.2	-72.0	0.0
2025-01-17 09:04:06.023621	16.8	12.4	-72.1	0.0
2025-01-17 09:04:08.270986	16.8	12.6	-69.7	0.0
2025-01-17 09:04:10.518096	16.8	12.8	-71.5	0.0
2025-01-17 09:04:12.763216	16.8	13.1	-72.2	0.0
2025-01-17 09:04:15.011931	16.8	13.3	-72.6	0.0
2025-01-17 09:04:17.257737	16.8	13.5	-70.5	0.0
2025-01-17 09:04:19.505859	16.8	13.7	-74.2	0.0
2025-01-17 09:04:21.753446	16.8	13.9	-75.2	0.0
2025-01-17 09:04:23.999258	16.8	14.2	-72.3	0.0
2025-01-17 09:04:26.246738	16.8	14.4	-71.2	0.0
2025-01-17 09:04:28.492946	16.9	14.6	-74.0	0.0
2025-01-17 09:04:30.740667	16.9	14.9	-75.1	0.0
2025-01-17 09:04:32.988981	16.9	15.1	-71.1	0.0
2025-01-17 09:04:35.236983	16.9	15.3	-70.2	0.0
2025-01-17 09:04:37.484007	16.9	15.6	-67.8	0.0
2025-01-17 09:04:39.732670	16.9	15.8	-70.9	0.0
2025-01-17 09:04:41.980452	16.9	16.1	-71.4	0.0
2025-01-17 09:04:44.228115	16.9	16.3	-71.6	0.0
2025-01-17 09:04:46.474137	16.9	16.6	-70.0	0.0
2025-01-17 09:04:48.723547	16.9	16.8	-71.4	0.0
2025-01-17 09:04:50.972085	16.9	17.1	-70.9	0.0
2025-01-17 09:04:53.220077	16.9	17.3	-74.1	0.0
2025-01-17 09:04:55.466759	16.9	17.6	-70.8	0.0
2025-01-17 09:04:57.714530	16.9	17.9	-72.4	0.0
2025-01-17 09:04:59.962227	16.9	18.1	-73.8	0.0
2025-01-17 09:05:02.210335	16.9	18.4	-76.1	0.0
2025-01-17 09:05:04.458583	16.9	18.7	-72.0	0.0
2025-01-17 09:05:06.706222	16.9	18.9	-70.5	0.0
2025-01-17 09:05:08.953014	17.0	19.2	-71.8	0.0
2025-01-17 09:05:11.198356	17.0	19.5	-74.8	0.0
2025-01-17 09:05:13.445181	17.0	19.8	-71.1	0.0
2025-01-17 09:05:15.691781	17.0	20.1	-71.0	0.0
2025-01-17 09:05:17.937415	17.0	20.4	-75.8	0.0
2025-01-17 09:05:20.186370	17.0	20.7	-72.9	0.0
2025-01-17 09:05:22.433685	17.0	21.0	-73.3	0.0
2025-01-17 09:05:24.681845	17.0	21.3	-73.3	0.0
2025-01-17 09:05:26.930092	17.0	21.6	-69.5	0.0
2025-01-17 09:05:29.177975	17.0	21.9	-72.6	0.0
2025-01-17 09:05:31.424615	17.0	22.2	-74.6	0.0
2025-01-17 09:05:33.672413	17.0	22.5	-74.8	0.0
2025-01-17 09:05:35.920679	17.0	22.8	-75.2	0.0
2025-01-17 09:05:38.169204	17.0	23.2	-71.7	0.0
2025-01-17 09:05:40.415741	17.0	23.5	-69.4	0.0
2025-01-17 09:05:42.663366	17.0	23.8	-69.2	0.0
2025-01-17 09:05:44.911071	17.0	24.2	-70.0	0.0
2025-01-17 09:05:47.158934	17.0	24.5	-73.5	0.0
2025-01-17 09:05:49.407185	17.0	24.8	-74.4	0.0
2025-01-17 09:05:51.654397	17.0	25.2	-70.5	0.0
2025-01-17 09:05:53.902555	17.0	25.6	-70.3	0.0
2025-01-17 09:05:56.150122	17.0	25.9	-73.7	0.0
2025-01-17 09:05:58.401400	17.0	26.3	-72.9	0.0
2025-01-17 09:06:00.649964	17.0	26.7	-73.1	0.0
2025-01-17 09:06:02.898220	17.0	27.0	-72.6	0.0
2025-01-17 09:06:05.143625	17.1	27.4	-71.0	0.0
2025-01-17 09:06:07.390854	17.1	27.8	-71.4	0.0
2025-01-17 09:06:09.637228	17.1	28.2	-70.9	0.0
2025-01-17 09:06:11.883514	17.1	28.6	-70.4	0.0
2025-01-17 09:06:14.129039	17.1	29.0	-71.9	0.0
2025-01-17 09:06:16.376443	17.1	29.4	-71.6	0.0
2025-01-17 09:06:18.620646	17.1	29.8	-75.9	0.0
2025-01-17 09:06:20.867725	17.1	30.2	-72.7	0.0
2025-01-17 09:06:23.112554	17.1	30.7	-71.8	0.0
2025-01-17 09:06:25.358419	17.1	31.1	-73.2	0.0
2025-01-17 09:06:27.607597	17.1	31.5	-71.8	0.0
2025-01-17 09:06:29.855258	17.1	32.0	-73.9	0.0
2025-01-17 09:06:32.103348	17.1	32.4	-75.7	0.0
2025-01-17 09:06:34.349208	17.1	32.9	-74.8	0.0
2025-01-17 09:06:36.597478	17.1	33.4	-71.0	0.0
2025-01-17 09:06:38.847906	17.1	33.9	-71.1	0.0
2025-01-17 09:06:41.095388	17.1	34.3	-73.4	0.0
2025-01-17 09:06:43.340866	17.1	34.8	-69.8	0.0
2025-01-17 09:06:45.585085	17.1	35.3	-70.5	0.0
2025-01-17 09:06:47.833655	17.1	35.8	-70.1	0.0
2025-01-17 09:06:50.082559	17.1	36.3	-71.9	0.0
2025-01-17 09:06:52.330937	17.1	36.9	-70.5	0.0
2025-01-17 09:06:54.579529	17.1	37.4	-69.5	0.0
2025-01-17 09:06:56.826434	17.1	37.9	-70.1	0.0
2025-01-17 09:06:59.075741	17.1	38.5	-70.4	0.0
2025-01-17 09:07:01.320911	17.0	39.1	-77.1	0.0
2025-01-17 09:07:03.565463	17.0	39.6	-75.2	0.0
2025-01-17 09:07:05.811582	17.0	40.2	-73.3	0.0
2025-01-17 09:07:08.058762	17.0	40.8	-72.7	0.0
2025-01-17 09:07:10.306148	17.0	41.4	-72.5	0.0
2025-01-17 09:07:12.553831	17.0	42.0	-73.4	0.0
2025-01-17 09:07:14.801577	17.0	42.6	-74.9	0.0
2025-01-17 09:07:17.047254	17.0	43.2	-75.8	0.0
2025-01-17 09:07:19.296643	17.0	43.9	-75.9	0.0
2025-01-17 09:07:21.544428	17.0	44.5	-72.8	0.0
2025-01-17 09:07:23.790917	17.0	45.2	-71.5	0.0
2025-01-17 09:07:26.038790	17.0	45.8	-71.0	0.0
2025-01-17 09:07:28.285841	17.0	46.5	-71.8	0.0
2025-01-17 09:07:30.532407	16.9	47.2	-71.4	0.0
2025-01-17 09:07:32.779381	16.9	47.9	-72.6	0.0
2025-01-17 09:07:35.027908	16.9	48.6	-72.5	0.0
2025-01-17 09:07:37.275442	16.9	49.4	-71.9	0.0
2025-01-17 09:07:39.520987	16.9	50.1	-71.8	0.0
2025-01-17 09:07:41.769442	16.9	50.9	-72.8	0.0
2025-01-17 09:07:44.018083	16.9	51.6	-71.4	0.0
2025-01-17 09:07:46.267169	16.8	52.4	-71.2	0.0
2025-01-17 09:07:48.515460	16.8	53.2	-73.4	0.0
2025-01-17 09:07:50.759405	16.8	54.0	-73.8	0.0
2025-01-17 09:07:53.006860	16.8	54.8	-74.4	0.0
2025-01-17 09:07:55.252389	16.7	55.6	-71.2	0.0
2025-01-17 09:07:57.498755	16.7	56.5	-73.0	0.0
2025-01-17 09:07:59.743614	16.7	57.3	-70.1	0.0
2025-01-17 09:08:01.991337	16.6	58.2	-70.9	0.0
2025-01-17 09:08:04.236233	16.6	59.1	-73.1	0.0
2025-01-17 09:08:06.483171	16.6	60.0	-69.6	0.0
2025-01-17 09:08:08.730659	16.5	60.9	-71.6	0.0
2025-01-17 09:08:10.978843	16.5	61.8	-71.9	0.0
2025-01-17 09:08:13.229173	16.4	62.7	-72.5	0.0
2025-01-17 09:08:15.476647	16.4	63.7	-73.2	0.0
2025-01-17 09:08:17.724063	16.3	64.6	-73.1	0.0
2025-01-17 09:08:19.973980	16.2	65.6	-70.1	0.0
2025-01-17 09:08:22.219922	16.2	66.6	-69.8	0.0
2025-01-17 09:08:24.469485	16.1	67.6	-71.7	0.0
2025-01-17 09:08:26.717067	16.0	68.6	-70.4	0.0
2025-01-17 09:08:28.962595	15.9	69.6	-69.6	0.0
2025-01-17 09:08:31.208068	15.8	70.6	-72.0	0.0
2025-01-17 09:08:33.454291	15.6	71.7	-70.4	0.0
2025-01-17 09:08:35.702229	15.5	72.7	-70.4	0.0
2025-01-17 09:08:37.950002	15.3	73.8	-68.7	0.0
2025-01-17 09:08:40.197658	15.1	74.8	-70.5	0.0
2025-01-17 09:08:42.447413	14.9	75.9	-73.0	0.0
2025-01-17 09:08:44.694088	14.6	77.0	-67.8	0.0
2025-01-17 09:08:46.938537	14.3	78.1	-72.0	0.0
2025-01-17 09:08:49.184788	13.9	79.2	-71.8	0.0
2025-01-17 09:08:51.430268	13.4	80.3	-74.0	0.0
2025-01-17 09:08:53.676904	12.8	81.4	-77.5	0.0
2025-01-17 09:08:55.923046	12.0	82.5	-73.7	0.0
2025-01-17 09:08:58.173745	11.0	83.6	-75.5	0.0
2025-01-17 09:09:00.420903	9.4	84.8	-76.3	0.0
2025-01-17 09:09:02.666766	7.0	85.9	-73.1	0.0
2025-01-17 09:09:04.913982	2.8	87.0	-70.9	0.0
2025-01-17 09:09:07.157633	354.0	88.1	-73.3	0.0
2025-01-17 09:09:09.404167	326.7	89.0	-75.5	0.0
2025-01-17 09:09:11.650182	256.1	89.1	-75.6	0.0
2025-01-17 09:09:13.899411	224.2	88.2	-72.6	0.0
2025-01-17 09:09:16.144727	214.3	87.1	-73.9	0.0
2025-01-17 09:09:18.392196	209.7	86.0	-72.0	0.0
2025-01-17 09:09:20.639393	207.2	84.9	-78.2	0.0
2025-01-17 09:09:22.887324	205.6	83.8	-75.8	0.0
2025-01-17 09:09:25.131825	204.5	82.6	-78.0	0.0
2025-01-17 09:09:27.377974	203.6	81.5	-77.3	0.0
2025-01-17 09:09:29.622826	203.0	80.4	-73.5	0.0
2025-01-17 09:09:31.870322	202.5	79.3	-72.9	0.0
2025-01-17 09:09:34.116549	202.1	78.2	-73.2	0.0
2025-01-17 09:09:36.363083	201.8	77.1	-75.2	0.0
2025-01-17 09:09:38.608823	201.5	76.0	-72.4	0.0
2025-01-17 09:09:40.854456	201.3	74.9	-71.0	0.0
2025-01-17 09:09:43.101166	201.1	73.9	-69.9	0.0
2025-01-17 09:09:45.350767	200.9	72.8	-69.8	0.0
2025-01-17 09:09:47.597451	200.8	71.8	-71.2	0.0
2025-01-17 09:09:49.842336	200.6	70.7	-73.9	0.0
2025-01-17 09:09:52.090248	200.5	69.7	-74.2	0.0
2025-01-17 09:09:54.339110	200.4	68.7	-74.3	0.0
2025-01-17 09:09:56.587750	200.3	67.6	-74.2	0.0
2025-01-17 09:09:58.833750	200.2	66.6	-74.5	0.0
2025-01-17 09:10:01.081435	200.2	65.7	-72.6	0.0
2025-01-17 09:10:03.329006	200.1	64.7	-73.3	0.0
2025-01-17 09:10:05.577948	200.0	63.7	-74.3	0.0
2025-01-17 09:10:07.824137	200.0	62.8	-73.7	0.0
2025-01-17 09:10:10.069270	199.9	61.8	-73.8	0.0
2025-01-17 09:10:12.315754	199.9	60.9	-73.9	0.0
2025-01-17 09:10:14.563454	199.8	60.0	-72.3	0.0
2025-01-17 09:10:16.809622	199.8	59.1	-72.5	0.0
2025-01-17 09:10:19.057603	199.7	58.2	-75.9	0.0
2025-01-17 09:10:21.303199	199.7	57.3	-77.0	0.0
2025-01-17 09:10:23.549419	199.7	56.5	-76.1	0.0
2025-01-17 09:10:25.795036	199.7	55.6	-76.5	0.0
2025-01-17 09:10:28.043346	199.6	54.8	-77.3	0.0
2025-01-17 09:10:30.288885	199.6	54.0	-76.9	0.0
2025-01-17 09:10:32.533599	199.6	53.2	-77.7	0.0
2025-01-17 09:10:34.780048	199.6	52.4	-77.8	0.0
2025-01-17 09:10:37.026915	199.5	51.6	-77.6	0.0
2025-01-17 09:10:39.271553	199.5	50.8	-78.0	0.0
2025-01-17 09:10:41.518159	199.5	50.1	-78.3	0.0
2025-01-17 09:10:43.766872	199.5	49.3	-77.7	0.0
2025-01-17 09:10:46.011466	199.5	48.6	-77.9	0.0
2025-01-17 09:10:48.259905	199.5	47.9	-77.7	0.0
2025-01-17 09:10:50.504977	199.4	47.2	-77.9	0.0
2025-01-17 09:10:52.752263	199.4	46.5	-78.0	0.0
2025-01-17 09:10:54.996124	199.4	45.8	-77.4	0.0
2025-01-17 09:10:57.240271	199.4	45.1	-77.5	0.0
2025-01-17 09:10:59.488685	199.4	44.4	-76.9	0.0
2025-01-17 09:11:01.736971	199.4	43.8	-76.8	0.0
2025-01-17 09:11:03.986305	199.4	43.1	-77.3	0.0
2025-01-17 09:11:06.233698	199.4	42.5	-77.5	0.0
2025-01-17 09:11:08.480275	199.4	41.9	-77.3	0.0
2025-01-17 09:11:10.725336	199.4	41.3	-77.7	0.0
2025-01-17 09:11:12.975991	199.3	40.7	-76.4	0.0
2025-01-17 09:11:15.223628	199.3	40.1	-77.6	0.0
2025-01-17 09:11:17.468735	199.3	39.5	-77.7	0.0
2025-01-17 09:11:19.713032	199.3	38.9	-77.2	0.0
2025-01-17 09:11:21.959792	199.3	38.4	-76.4	0.0
2025-01-17 09:11:24.207018	199.3	37.8	-76.7	0.0
2025-01-17 09:11:26.452046	199.3	37.3	-77.1	0.0
2025-01-17 09:11:28.698649	199.3	36.7	-75.6	0.0
2025-01-17 09:11:30.945443	199.3	36.2	-76.4	0.0
2025-01-17 09:11:33.192044	199.3	35.7	-77.0	0.0
2025-01-17 09:11:35.438691	199.3	35.2	-77.3	0.0
2025-01-17 09:11:37.687592	199.3	34.7	-77.9	0.0
2025-01-17 09:11:39.938115	199.3	34.2	-77.9	0.0
2025-01-17 09:11:42.186838	199.3	33.7	-77.9	0.0
2025-01-17 09:11:44.434428	199.3	33.2	-77.3	0.0
2025-01-17 09:11:46.680052	199.3	32.7	-78.0	0.0
2025-01-17 09:11:48.923871	199.3	32.3	-78.7	0.0
2025-01-17 09:11:51.169300	199.3	31.8	-78.4	0.0
2025-01-17 09:11:53.413891	199.3	31.4	-78.8	0.0
2025-01-17 09:11:55.660705	199.3	30.9	-78.5	0.0
2025-01-17 09:11:57.906131	199.3	30.5	-78.5	0.0
2025-01-17 09:12:00.153014	199.3	30.1	-78.3	0.0
2025-01-17 09:12:02.399533	199.3	29.6	-78.3	0.0
2025-01-17 09:12:04.642134	199.3	29.2	-77.9	0.0
2025-01-17 09:12:06.890094	199.3	28.8	-78.3	0.0
2025-01-17 09:12:09.138773	199.3	28.4	-78.3	0.0
2025-01-17 09:12:11.387250	199.3	28.0	-78.1	0.0
2025-01-17 09:12:13.634941	199.3	27.6	-77.0	0.0
2025-01-17 09:12:15.883544	199.3	27.2	-76.9	0.0
2025-01-17 09:12:18.129881	199.3	26.8	-78.3	0.0
2025-01-17 09:12:20.377072	199.3	26.4	-78.3	0.0
2025-01-17 09:12:22.623291	199.3	26.1	-78.4	0.0
2025-01-17 09:12:24.870118	199.3	25.7	-78.6	0.0
2025-01-17 09:12:27.116097	199.3	25.3	-78.4	0.0
2025-01-17 09:12:29.359311	199.3	25.0	-78.4	0.0
2025-01-17 09:12:31.607803	199.3	24.6	-78.1	0.0
2025-01-17 09:12:33.853806	199.3	24.3	-77.9	0.0
2025-01-17 09:12:36.100712	199.3	23.9	-77.9	0.0
2025-01-17 09:12:38.346338	199.3	23.6	-77.9	0.0
2025-01-17 09:12:40.593958	199.3	23.3	-77.3	0.0
2025-01-17 09:12:42.839591	199.3	22.9	-77.3	0.0
2025-01-17 09:12:45.086124	199.3	22.6	-75.2	0.0
2025-01-17 09:12:47.333247	199.3	22.3	-76.4	0.0
2025-01-17 09:12:49.581855	199.3	22.0	-76.8	0.0
2025-01-17 09:12:51.829129	199.3	21.6	-76.6	0.0
2025-01-17 09:12:54.075482	199.3	21.3	-76.9	0.0
2025-01-17 09:12:56.320740	199.3	21.0	-76.7	0.0
2025-01-17 09:12:58.565018	199.3	20.7	-77.9	0.0
2025-01-17 09:13:00.810170	199.3	20.4	-76.7	0.0
2025-01-17 09:13:03.058124	199.3	20.1	-78.6	0.0
2025-01-17 09:13:05.304788	199.3	19.8	-77.9	0.0
2025-01-17 09:13:07.552134	199.3	19.5	-78.8	0.0
2025-01-17 09:13:09.800869	199.4	19.3	-78.4	0.0
2025-01-17 09:13:12.045056	199.4	19.0	-77.9	0.0
2025-01-17 09:13:14.291150	199.4	18.7	-78.4	0.0
2025-01-17 09:13:16.538466	199.4	18.4	-78.8	0.0
2025-01-17 09:13:18.787528	199.4	18.1	-79.0	0.0
2025-01-17 09:13:21.035008	199.4	17.9	-78.3	0.0
2025-01-17 09:13:23.283510	199.4	17.6	-77.9	0.0
2025-01-17 09:13:25.529279	199.4	17.3	-78.9	0.0
2025-01-17 09:13:27.772005	199.4	17.1	-78.7	0.0
2025-01-17 09:13:30.020428	199.4	16.8	-94.9	0.0
2025-01-17 09:13:32.266666	199.4	16.6	-94.5	0.0
2025-01-17 09:13:34.510824	199.4	16.3	-94.9	0.0
2025-01-17 09:13:36.757842	199.4	16.0	-95.1	0.0
2025-01-17 09:13:39.005554	199.4	15.8	-95.1	0.0
2025-01-17 09:13:41.251559	199.4	15.6	-95.1	0.0
2025-01-17 09:13:43.498020	199.4	15.3	-94.9	0.0
2025-01-17 09:13:45.747188	199.4	15.1	-94.8	0.0
2025-01-17 09:13:47.994748	199.4	14.8	-94.8	0.0
2025-01-17 09:13:50.241223	199.4	14.6	-94.8	0.0
2025-01-17 09:13:52.488949	199.4	14.4	-94.7	0.0
2025-01-17 09:13:54.734139	199.4	14.1	-95.0	0.0
2025-01-17 09:13:56.978192	199.4	13.9	-94.9	0.0
2025-01-17 09:13:59.226910	199.4	13.7	-95.1	0.0
2025-01-17 09:14:01.473053	199.4	13.4	-94.9	0.0
2025-01-17 09:14:03.719604	199.4	13.2	-94.9	0.0
2025-01-17 09:14:05.964436	199.4	13.0	-94.8	0.0
2025-01-17 09:14:08.213068	199.5	12.8	-94.8	0.0
2025-01-17 09:14:10.460519	199.5	12.6	-94.6	0.0
2025-01-17 09:14:12.707876	199.5	12.3	-95.1	0.0
2025-01-17 09:14:14.955305	199.5	12.1	-94.7	0.0
2025-01-17 09:14:17.204216	199.5	11.9	-94.9	0.0
2025-01-17 09:14:19.451575	199.5	11.7	-95.0	0.0
2025-01-17 09:14:21.699644	199.5	11.5	-95.0	0.0
2025-01-17 09:14:23.947302	199.5	11.3	-94.8	0.0
2025-01-17 09:14:26.194077	199.5	11.1	-95.2	0.0
2025-01-17 09:14:28.440598	199.5	10.9	-95.1	0.0
2025-01-17 09:14:30.687622	199.5	10.7	-94.9	0.0
2025-01-17 09:14:32.931922	199.5	10.5	-95.1	0.0
2025-01-17 09:14:35.182275	199.5	10.3	-94.8	0.0
2025-01-17 09:14:37.428126	199.5	10.1	-95.0	0.0
#Closed at: 2025-01-17 09:03:34.149976