passes_logs/2025/01/17/planumMaritime01/planumMaritime01__20250117_082931_METOP-C_rec.log

#Pass ID: 20250117_082931_METOP-C
#Satellite: METOP-C
#Configuration: METOP-C
#Start time: 2025-01-17 08:29:36.423354

#LorettStation: 1.0.0 05.05.2024
#Station: planumMaritime01
#Location: 37.49445 lon 55.92918 lat
#TLE: 1 43689U 18087A   25016.13723724  .00000217  00000+0  11924-3 0  9996
#TLE: 2 43689  98.6963  78.6125 0001472 162.3188 197.8041 14.21481582321377

#Time	Az	El	Level	SNR
2025-01-17 08:29:38.578104	9.3	10.2	-80.7	0.0
2025-01-17 08:29:40.823262	9.2	10.4	-80.8	0.0
2025-01-17 08:29:43.064055	9.1	10.6	-81.1	0.0
2025-01-17 08:29:45.309173	8.9	10.8	-81.2	0.0
2025-01-17 08:29:47.550842	8.8	10.9	-81.0	0.0
2025-01-17 08:29:49.794963	8.7	11.1	-80.9	0.0
2025-01-17 08:29:52.040147	8.6	11.3	-81.1	0.0
2025-01-17 08:29:54.281766	8.5	11.5	-81.4	0.0
2025-01-17 08:29:56.525393	8.3	11.7	-81.2	0.0
2025-01-17 08:29:58.769767	8.2	11.9	-81.0	0.0
2025-01-17 08:30:01.014704	8.1	12.1	-81.4	0.0
2025-01-17 08:30:03.256693	8.0	12.3	-81.5	0.0
2025-01-17 08:30:05.499713	7.8	12.5	-81.5	0.0
2025-01-17 08:30:07.743449	7.7	12.8	-81.4	0.0
2025-01-17 08:30:09.988599	7.6	13.0	-81.1	0.0
2025-01-17 08:30:12.228274	7.4	13.2	-81.3	0.0
2025-01-17 08:30:14.474024	7.3	13.4	-81.7	0.0
2025-01-17 08:30:16.719267	7.2	13.6	-81.5	0.0
2025-01-17 08:30:18.961916	7.0	13.8	-81.3	0.0
2025-01-17 08:30:21.204756	6.9	14.0	-81.3	0.0
2025-01-17 08:30:23.449161	6.7	14.3	-81.5	0.0
2025-01-17 08:30:25.693881	6.6	14.5	-81.7	0.0
2025-01-17 08:30:27.938584	6.4	14.7	-81.3	0.0
2025-01-17 08:30:30.183182	6.3	14.9	-81.0	0.0
2025-01-17 08:30:32.431026	6.1	15.2	-81.6	0.0
2025-01-17 08:30:34.674019	6.0	15.4	-81.8	0.0
2025-01-17 08:30:36.919591	5.8	15.6	-81.6	0.0
2025-01-17 08:30:39.162869	5.6	15.8	-81.5	0.0
2025-01-17 08:30:41.406108	5.5	16.1	-81.6	0.0
2025-01-17 08:30:43.649878	5.3	16.3	-81.5	0.0
2025-01-17 08:30:45.887924	5.1	16.6	-81.8	0.0
2025-01-17 08:30:48.130858	5.0	16.8	-81.4	0.0
2025-01-17 08:30:50.373583	4.8	17.0	-81.7	0.0
2025-01-17 08:30:52.616051	4.6	17.3	-81.3	0.0
2025-01-17 08:30:54.858347	4.4	17.5	-81.3	0.0
2025-01-17 08:30:57.100057	4.2	17.8	-81.6	0.0
2025-01-17 08:30:59.343295	4.1	18.0	-81.5	0.0
2025-01-17 08:31:01.585593	3.9	18.3	-81.6	0.0
2025-01-17 08:31:03.827104	3.7	18.5	-81.3	0.0
2025-01-17 08:31:06.068106	3.5	18.8	-81.5	0.0
2025-01-17 08:31:08.311051	3.3	19.1	-81.6	0.0
2025-01-17 08:31:10.554505	3.1	19.3	-81.7	0.0
2025-01-17 08:31:12.798995	2.8	19.6	-81.5	0.0
2025-01-17 08:31:15.042185	2.6	19.9	-81.3	0.0
2025-01-17 08:31:17.285841	2.4	20.1	-81.6	0.0
2025-01-17 08:31:19.530408	2.2	20.4	-81.5	0.0
2025-01-17 08:31:21.774822	2.0	20.7	-81.8	0.0
2025-01-17 08:31:24.017436	1.7	20.9	-81.3	0.0
2025-01-17 08:31:26.260000	1.5	21.2	-81.9	0.0
2025-01-17 08:31:28.500296	1.3	21.5	-81.2	0.0
2025-01-17 08:31:30.739222	1.0	21.8	-81.2	0.0
2025-01-17 08:31:32.978968	0.8	22.1	-81.1	0.0
2025-01-17 08:31:35.225231	0.5	22.4	-81.9	0.0
2025-01-17 08:31:37.467774	0.2	22.7	-81.3	0.0
2025-01-17 08:31:39.712309	360.0	23.0	-81.6	0.0
2025-01-17 08:31:41.956160	359.7	23.3	-81.3	0.0
2025-01-17 08:31:44.198763	359.4	23.6	-82.0	0.0
2025-01-17 08:31:46.444259	359.2	23.9	-81.7	0.0
2025-01-17 08:31:48.687453	358.9	24.2	-81.7	0.0
2025-01-17 08:31:50.932243	358.6	24.5	-82.0	0.0
2025-01-17 08:31:53.175729	358.3	24.8	-81.9	0.0
2025-01-17 08:31:55.419503	358.0	25.1	-81.9	0.0
2025-01-17 08:31:57.664825	357.7	25.4	-82.0	0.0
2025-01-17 08:31:59.908874	357.3	25.8	-81.4	0.0
2025-01-17 08:32:02.151935	357.0	26.1	-81.8	0.0
2025-01-17 08:32:04.394237	356.7	26.4	-81.5	0.0
2025-01-17 08:32:06.636264	356.3	26.8	-82.1	0.0
2025-01-17 08:32:08.881165	356.0	27.1	-82.0	0.0
2025-01-17 08:32:11.123864	355.6	27.4	-81.1	0.0
2025-01-17 08:32:13.364285	355.3	27.8	-81.9	0.0
2025-01-17 08:32:15.610627	354.9	28.1	-81.8	0.0
2025-01-17 08:32:17.854726	354.5	28.5	-82.0	0.0
2025-01-17 08:32:20.098043	354.2	28.8	-81.6	0.0
2025-01-17 08:32:22.340823	353.8	29.2	-82.1	0.0
2025-01-17 08:32:24.583937	353.4	29.5	-82.2	0.0
2025-01-17 08:32:26.824529	352.9	29.9	-82.1	0.0
2025-01-17 08:32:29.066138	352.5	30.2	-82.2	0.0
2025-01-17 08:32:31.308841	352.1	30.6	-81.3	0.0
2025-01-17 08:32:33.549891	351.6	31.0	-81.7	0.0
2025-01-17 08:32:35.795368	351.2	31.3	-81.7	0.0
2025-01-17 08:32:38.039545	350.7	31.7	-81.2	0.0
2025-01-17 08:32:40.282251	350.3	32.1	-81.5	0.0
2025-01-17 08:32:42.522750	349.8	32.5	-81.8	0.0
2025-01-17 08:32:44.766337	349.3	32.8	-81.5	0.0
2025-01-17 08:32:47.010201	348.8	33.2	-81.3	0.0
2025-01-17 08:32:49.252672	348.2	33.6	-81.3	0.0
2025-01-17 08:32:51.496506	347.7	34.0	-81.6	0.0
2025-01-17 08:32:53.739162	347.2	34.4	-81.4	0.0
2025-01-17 08:32:55.984563	346.6	34.8	-81.4	0.0
2025-01-17 08:32:58.228745	346.0	35.2	-81.7	0.0
2025-01-17 08:33:00.469749	345.4	35.6	-81.4	0.0
2025-01-17 08:33:02.709920	344.8	35.9	-81.7	0.0
2025-01-17 08:33:04.949405	344.2	36.3	-82.0	0.0
2025-01-17 08:33:07.190810	343.6	36.7	-81.5	0.0
2025-01-17 08:33:09.434059	342.9	37.1	-81.3	0.0
2025-01-17 08:33:11.678784	342.3	37.5	-81.7	0.0
2025-01-17 08:33:13.921633	341.6	37.9	-81.4	0.0
2025-01-17 08:33:16.162708	340.9	38.3	-81.7	0.0
2025-01-17 08:33:18.408291	340.2	38.7	-82.0	0.0
2025-01-17 08:33:20.650430	339.4	39.1	-82.0	0.0
2025-01-17 08:33:22.893287	338.7	39.5	-82.1	0.0
2025-01-17 08:33:25.134716	337.9	39.9	-82.2	0.0
2025-01-17 08:33:27.377183	337.1	40.3	-82.0	0.0
2025-01-17 08:33:29.620266	336.3	40.7	-81.5	0.0
2025-01-17 08:33:31.863151	335.5	41.1	-81.8	0.0
2025-01-17 08:33:34.107824	334.6	41.5	-81.5	0.0
2025-01-17 08:33:36.348957	333.8	41.9	-81.8	0.0
2025-01-17 08:33:38.591204	332.9	42.2	-81.8	0.0
2025-01-17 08:33:40.832309	332.0	42.6	-81.5	0.0
2025-01-17 08:33:43.073268	331.0	43.0	-81.7	0.0
2025-01-17 08:33:45.318203	330.1	43.3	-81.6	0.0
2025-01-17 08:33:47.559642	329.1	43.7	-81.8	0.0
2025-01-17 08:33:49.801697	328.1	44.1	-81.7	0.0
2025-01-17 08:33:52.045051	327.1	44.4	-80.2	0.0
2025-01-17 08:33:54.286738	326.0	44.7	-81.5	0.0
2025-01-17 08:33:56.530376	325.0	45.1	-81.9	0.0
2025-01-17 08:33:58.770555	323.9	45.4	-81.1	0.0
2025-01-17 08:34:01.013430	322.7	45.7	-81.8	0.0
2025-01-17 08:34:03.251645	321.6	46.0	-81.5	0.0
2025-01-17 08:34:05.494398	320.5	46.3	-81.7	0.0
2025-01-17 08:34:07.735282	319.3	46.6	-81.9	0.0
2025-01-17 08:34:09.979395	318.1	46.9	-81.5	0.0
2025-01-17 08:34:12.223588	316.9	47.1	-81.5	0.0
2025-01-17 08:34:14.466644	315.6	47.4	-81.6	0.0
2025-01-17 08:34:16.711245	314.4	47.6	-81.5	0.0
2025-01-17 08:34:18.951730	313.1	47.8	-81.5	0.0
2025-01-17 08:34:21.194745	311.8	48.0	-81.6	0.0
2025-01-17 08:34:23.436041	310.5	48.2	-81.8	0.0
2025-01-17 08:34:25.678408	309.1	48.4	-81.7	0.0
2025-01-17 08:34:27.918782	307.8	48.5	-81.7	0.0
2025-01-17 08:34:30.160674	306.5	48.7	-81.9	0.0
2025-01-17 08:34:32.404398	305.1	48.8	-81.4	0.0
2025-01-17 08:34:34.644996	303.7	48.9	-82.0	0.0
2025-01-17 08:34:36.888080	302.3	49.0	-81.9	0.0
2025-01-17 08:34:39.128872	300.9	49.0	-81.9	0.0
2025-01-17 08:34:41.368819	299.5	49.1	-81.9	0.0
2025-01-17 08:34:43.612043	298.1	49.1	-82.3	0.0
2025-01-17 08:34:45.851628	296.7	49.1	-82.1	0.0
2025-01-17 08:34:48.095371	295.3	49.1	-82.0	0.0
2025-01-17 08:34:50.338099	293.9	49.1	-82.1	0.0
2025-01-17 08:34:52.583721	292.5	49.1	-82.0	0.0
2025-01-17 08:34:54.825467	291.1	49.0	-82.3	0.0
2025-01-17 08:34:57.068356	289.7	48.9	-82.3	0.0
2025-01-17 08:34:59.313804	288.4	48.8	-81.8	0.0
2025-01-17 08:35:01.557169	287.0	48.7	-81.8	0.0
2025-01-17 08:35:03.802382	285.6	48.6	-81.6	0.0
2025-01-17 08:35:06.043526	284.3	48.4	-81.7	0.0
2025-01-17 08:35:08.285001	282.9	48.3	-81.6	0.0
2025-01-17 08:35:10.529931	281.6	48.1	-81.9	0.0
2025-01-17 08:35:12.771759	280.3	47.9	-81.6	0.0
2025-01-17 08:35:15.013231	279.0	47.7	-81.9	0.0
2025-01-17 08:35:17.256296	277.8	47.5	-81.9	0.0
2025-01-17 08:35:19.500031	276.5	47.2	-82.0	0.0
2025-01-17 08:35:21.740756	275.3	47.0	-81.9	0.0
2025-01-17 08:35:23.983716	274.1	46.7	-81.9	0.0
2025-01-17 08:35:26.225479	272.9	46.4	-82.1	0.0
2025-01-17 08:35:28.468699	271.7	46.1	-82.0	0.0
2025-01-17 08:35:30.712222	270.5	45.8	-81.8	0.0
2025-01-17 08:35:32.958409	269.4	45.5	-81.8	0.0
2025-01-17 08:35:35.200602	268.3	45.2	-82.1	0.0
2025-01-17 08:35:37.444217	267.2	44.9	-81.8	0.0
2025-01-17 08:35:39.686867	266.2	44.5	-81.9	0.0
2025-01-17 08:35:41.930081	265.1	44.2	-81.7	0.0
2025-01-17 08:35:44.174479	264.1	43.8	-81.9	0.0
2025-01-17 08:35:46.418330	263.1	43.5	-81.8	0.0
2025-01-17 08:35:48.663083	262.2	43.1	-81.8	0.0
2025-01-17 08:35:50.907325	261.2	42.8	-82.3	0.0
2025-01-17 08:35:53.149911	260.3	42.4	-82.4	0.0
2025-01-17 08:35:55.390032	259.4	42.0	-82.6	0.0
2025-01-17 08:35:57.632320	258.5	41.6	-82.6	0.0
2025-01-17 08:35:59.878072	257.6	41.2	-82.4	0.0
2025-01-17 08:36:02.125647	256.8	40.8	-82.3	0.0
2025-01-17 08:36:04.369679	256.0	40.4	-82.2	0.0
2025-01-17 08:36:06.611653	255.2	40.1	-82.0	0.0
2025-01-17 08:36:08.853109	254.4	39.7	-81.1	0.0
2025-01-17 08:36:11.099724	253.6	39.3	-77.2	0.0
2025-01-17 08:36:13.345649	252.9	38.9	-77.7	0.0
2025-01-17 08:36:15.590998	252.2	38.5	-75.6	0.0
2025-01-17 08:36:17.837162	251.5	38.1	-75.4	0.0
2025-01-17 08:36:20.084205	250.8	37.7	-77.5	0.0
2025-01-17 08:36:22.332381	250.1	37.3	-75.1	0.0
2025-01-17 08:36:24.576160	249.4	36.9	-78.2	0.0
2025-01-17 08:36:26.822489	248.8	36.5	-79.5	0.0
2025-01-17 08:36:29.069291	248.2	36.1	-94.8	0.0
2025-01-17 08:36:31.315410	247.5	35.7	-94.5	0.0
2025-01-17 08:36:33.565515	246.9	35.3	-94.8	0.0
2025-01-17 08:36:35.812134	246.4	34.9	-77.2	0.0
2025-01-17 08:36:38.057719	245.8	34.5	-76.7	0.0
2025-01-17 08:36:40.301972	245.2	34.1	-77.4	0.0
2025-01-17 08:36:42.547915	244.7	33.7	-76.0	0.0
2025-01-17 08:36:44.795257	244.2	33.3	-75.5	0.0
2025-01-17 08:36:47.040441	243.7	32.9	-76.6	0.0
2025-01-17 08:36:49.286198	243.1	32.5	-75.9	0.0
2025-01-17 08:36:51.534513	242.7	32.2	-73.3	0.0
2025-01-17 08:36:53.777087	242.2	31.8	-73.9	0.0
2025-01-17 08:36:56.020161	241.7	31.4	-77.0	0.0
2025-01-17 08:36:58.268252	241.2	31.0	-76.0	0.0
2025-01-17 08:37:00.514954	240.8	30.7	-75.8	0.0
2025-01-17 08:37:02.764108	240.4	30.3	-75.3	0.0
2025-01-17 08:37:05.010369	239.9	29.9	-76.5	0.0
2025-01-17 08:37:07.257390	239.5	29.6	-75.6	0.0
2025-01-17 08:37:09.507306	239.1	29.2	-77.2	0.0
2025-01-17 08:37:11.753481	238.7	28.9	-76.2	0.0
2025-01-17 08:37:14.005080	238.3	28.5	-76.2	0.0
2025-01-17 08:37:16.254293	237.9	28.2	-74.1	0.0
2025-01-17 08:37:18.504817	237.5	27.8	-74.0	0.0
2025-01-17 08:37:20.749513	237.2	27.5	-72.0	0.0
2025-01-17 08:37:22.998368	236.8	27.1	-74.5	0.0
2025-01-17 08:37:25.246709	236.5	26.8	-74.2	0.0
2025-01-17 08:37:27.493436	236.1	26.5	-72.9	0.0
2025-01-17 08:37:29.742161	235.8	26.1	-76.1	0.0
2025-01-17 08:37:31.988653	235.5	25.8	-74.2	0.0
2025-01-17 08:37:34.237856	235.1	25.5	-72.3	0.0
2025-01-17 08:37:36.485123	234.8	25.1	-76.8	0.0
2025-01-17 08:37:38.729758	234.5	24.8	-76.5	0.0
2025-01-17 08:37:40.979708	234.2	24.5	-75.0	0.0
2025-01-17 08:37:43.227261	233.9	24.2	-75.9	0.0
2025-01-17 08:37:45.479149	233.6	23.9	-73.4	0.0
2025-01-17 08:37:47.728009	233.3	23.6	-73.1	0.0
2025-01-17 08:37:49.978193	233.1	23.3	-74.7	0.0
2025-01-17 08:37:52.222544	232.8	23.0	-73.8	0.0
2025-01-17 08:37:54.470451	232.5	22.7	-75.0	0.0
2025-01-17 08:37:56.723433	232.3	22.4	-76.9	0.0
2025-01-17 08:37:58.971877	232.0	22.1	-76.2	0.0
2025-01-17 08:38:01.220350	231.7	21.8	-74.4	0.0
2025-01-17 08:38:03.468341	231.5	21.5	-76.1	0.0
2025-01-17 08:38:05.715077	231.2	21.2	-72.6	0.0
2025-01-17 08:38:07.962165	231.0	20.9	-71.8	0.0
2025-01-17 08:38:10.206519	230.8	20.6	-73.8	0.0
2025-01-17 08:38:12.453167	230.5	20.4	-76.6	0.0
2025-01-17 08:38:14.699902	230.3	20.1	-75.6	0.0
2025-01-17 08:38:16.946854	230.1	19.8	-72.2	0.0
2025-01-17 08:38:19.190699	229.9	19.5	-76.9	0.0
2025-01-17 08:38:21.436218	229.7	19.3	-76.7	0.0
2025-01-17 08:38:23.682399	229.5	19.0	-75.3	0.0
2025-01-17 08:38:25.928318	229.2	18.7	-76.2	0.0
2025-01-17 08:38:28.177074	229.0	18.5	-72.6	0.0
2025-01-17 08:38:30.420690	228.8	18.2	-71.2	0.0
2025-01-17 08:38:32.666380	228.6	18.0	-71.7	0.0
2025-01-17 08:38:34.914333	228.5	17.7	-76.0	0.0
2025-01-17 08:38:37.162523	228.3	17.5	-73.3	0.0
2025-01-17 08:38:39.408433	228.1	17.2	-72.5	0.0
2025-01-17 08:38:41.655421	227.9	17.0	-73.8	0.0
2025-01-17 08:38:43.903485	227.7	16.7	-71.2	0.0
2025-01-17 08:38:46.151587	227.5	16.5	-70.5	0.0
2025-01-17 08:38:48.399183	227.4	16.2	-73.3	0.0
2025-01-17 08:38:50.650151	227.2	16.0	-74.3	0.0
2025-01-17 08:38:52.901626	227.0	15.8	-73.3	0.0
2025-01-17 08:38:55.149814	226.9	15.5	-71.9	0.0
2025-01-17 08:38:57.398578	226.7	15.3	-74.2	0.0
2025-01-17 08:38:59.646422	226.5	15.1	-73.9	0.0
2025-01-17 08:39:01.891441	226.4	14.8	-73.3	0.0
2025-01-17 08:39:04.140936	226.2	14.6	-72.5	0.0
2025-01-17 08:39:06.388259	226.1	14.4	-70.9	0.0
2025-01-17 08:39:08.633550	225.9	14.2	-72.2	0.0
2025-01-17 08:39:10.879358	225.8	14.0	-73.9	0.0
2025-01-17 08:39:13.130921	225.6	13.7	-72.3	0.0
2025-01-17 08:39:15.378658	225.5	13.5	-75.2	0.0
2025-01-17 08:39:17.625060	225.3	13.3	-71.8	0.0
2025-01-17 08:39:19.871565	225.2	13.1	-73.2	0.0
2025-01-17 08:39:22.119528	225.1	12.9	-74.8	0.0
2025-01-17 08:39:24.366992	224.9	12.7	-75.1	0.0
2025-01-17 08:39:26.613367	224.8	12.5	-74.6	0.0
2025-01-17 08:39:28.862401	224.7	12.2	-73.5	0.0
2025-01-17 08:39:31.109876	224.5	12.0	-71.7	0.0
2025-01-17 08:39:33.355035	224.4	11.8	-73.9	0.0
2025-01-17 08:39:35.605876	224.3	11.6	-74.2	0.0
2025-01-17 08:39:37.851663	224.1	11.4	-73.5	0.0
2025-01-17 08:39:40.099800	224.0	11.2	-74.9	0.0
2025-01-17 08:39:42.347411	223.9	11.0	-76.4	0.0
2025-01-17 08:39:44.593315	223.8	10.8	-72.0	0.0
2025-01-17 08:39:46.840454	223.7	10.6	-71.7	0.0
2025-01-17 08:39:49.088064	223.5	10.5	-73.6	0.0
2025-01-17 08:39:51.335643	223.4	10.3	-72.5	0.0
#Closed at: 2025-01-17 08:29:31.427803