passes_logs/2025/01/17/planumMaritime01/planumMaritime01__20250117_115602_METEOR-M2_4_rec.log

#Pass ID: 20250117_115602_METEOR-M2 4
#Satellite: METEOR-M2 4
#Configuration: METEOR-M2 4
#Start time: 2025-01-17 11:56:07.689167

#LorettStation: 1.0.0 05.05.2024
#Station: planumMaritime01
#Location: 37.49445 lon 55.92918 lat
#TLE: 1 59051U 24039A   25016.08315250  .00000067  00000+0  49762-4 0  9990
#TLE: 2 59051  98.6295 339.0709 0006229 221.2535 138.8173 14.22325361 45752

#Time	Az	El	Level	SNR
2025-01-17 11:56:09.841612	179.3	10.2	-94.5	0.0
2025-01-17 11:56:12.080873	179.4	10.4	-94.5	0.0
2025-01-17 11:56:14.322201	179.5	10.6	-94.4	0.0
2025-01-17 11:56:16.561991	179.6	10.8	-94.6	0.0
2025-01-17 11:56:18.805576	179.7	11.0	-94.6	0.0
2025-01-17 11:56:21.047646	179.8	11.2	-94.3	0.0
2025-01-17 11:56:23.290514	179.9	11.4	-94.6	0.0
2025-01-17 11:56:25.529896	180.0	11.6	-94.5	0.0
2025-01-17 11:56:27.768547	180.1	11.8	-94.6	0.0
2025-01-17 11:56:30.013460	180.2	12.0	-94.5	0.0
2025-01-17 11:56:32.255868	180.3	12.2	-94.5	0.0
2025-01-17 11:56:34.498366	180.4	12.4	-94.7	0.0
2025-01-17 11:56:36.740281	180.5	12.6	-94.9	0.0
2025-01-17 11:56:38.985392	180.6	12.8	-94.7	0.0
2025-01-17 11:56:41.229061	180.7	13.0	-94.9	0.0
2025-01-17 11:56:43.471825	180.8	13.2	-94.7	0.0
2025-01-17 11:56:45.717264	181.0	13.5	-94.6	0.0
2025-01-17 11:56:47.958815	181.1	13.7	-94.6	0.0
2025-01-17 11:56:50.204730	181.2	13.9	-94.2	0.0
2025-01-17 11:56:52.446717	181.3	14.1	-94.7	0.0
2025-01-17 11:56:54.689664	181.4	14.4	-94.5	0.0
2025-01-17 11:56:56.929874	181.6	14.6	-94.6	0.0
2025-01-17 11:56:59.172782	181.7	14.8	-94.5	0.0
2025-01-17 11:57:01.416158	181.8	15.0	-94.6	0.0
2025-01-17 11:57:03.657359	181.9	15.3	-94.6	0.0
2025-01-17 11:57:05.900301	182.1	15.5	-94.8	0.0
2025-01-17 11:57:08.144897	182.2	15.8	-94.8	0.0
2025-01-17 11:57:10.387474	182.3	16.0	-94.5	0.0
2025-01-17 11:57:12.627567	182.5	16.2	-94.9	0.0
2025-01-17 11:57:14.867011	182.6	16.5	-94.7	0.0
2025-01-17 11:57:17.106732	182.8	16.7	-94.9	0.0
2025-01-17 11:57:19.347996	182.9	17.0	-95.0	0.0
2025-01-17 11:57:21.589528	183.1	17.2	-95.1	0.0
2025-01-17 11:57:23.830249	183.2	17.5	-94.9	0.0
2025-01-17 11:57:26.071921	183.4	17.7	-94.7	0.0
2025-01-17 11:57:28.313555	183.5	18.0	-94.9	0.0
2025-01-17 11:57:30.554479	183.7	18.3	-94.8	0.0
2025-01-17 11:57:32.794769	183.8	18.5	-95.0	0.0
2025-01-17 11:57:35.036132	184.0	18.8	-94.8	0.0
2025-01-17 11:57:37.275875	184.2	19.1	-94.8	0.0
2025-01-17 11:57:39.518186	184.3	19.3	-94.9	0.0
2025-01-17 11:57:41.761392	184.5	19.6	-94.5	0.0
2025-01-17 11:57:44.001979	184.7	19.9	-94.9	0.0
2025-01-17 11:57:46.243709	184.8	20.2	-94.6	0.0
2025-01-17 11:57:48.486275	185.0	20.5	-94.8	0.0
2025-01-17 11:57:50.728556	185.2	20.8	-94.8	0.0
2025-01-17 11:57:52.968953	185.4	21.0	-94.5	0.0
2025-01-17 11:57:55.212601	185.6	21.3	-94.4	0.0
2025-01-17 11:57:57.454321	185.8	21.6	-94.8	0.0
2025-01-17 11:57:59.698616	186.0	21.9	-94.7	0.0
2025-01-17 11:58:01.939150	186.2	22.2	-94.2	0.0
2025-01-17 11:58:04.182215	186.4	22.5	-94.6	0.0
2025-01-17 11:58:06.426449	186.6	22.9	-94.4	0.0
2025-01-17 11:58:08.665266	186.8	23.2	-94.6	0.0
2025-01-17 11:58:10.908542	187.0	23.5	-95.0	0.0
2025-01-17 11:58:13.151060	187.2	23.8	-94.5	0.0
2025-01-17 11:58:15.395729	187.5	24.1	-94.7	0.0
2025-01-17 11:58:17.640097	187.7	24.5	-94.9	0.0
2025-01-17 11:58:19.884000	187.9	24.8	-95.1	0.0
2025-01-17 11:58:22.124710	188.2	25.1	-94.7	0.0
2025-01-17 11:58:24.364973	188.4	25.5	-95.0	0.0
2025-01-17 11:58:26.610160	188.7	25.8	-95.0	0.0
2025-01-17 11:58:28.850584	188.9	26.2	-94.9	0.0
2025-01-17 11:58:31.092890	189.2	26.5	-95.0	0.0
2025-01-17 11:58:33.333814	189.4	26.9	-94.6	0.0
2025-01-17 11:58:35.577960	189.7	27.2	-94.5	0.0
2025-01-17 11:58:37.823698	190.0	27.6	-94.4	0.0
2025-01-17 11:58:40.064157	190.3	27.9	-94.6	0.0
2025-01-17 11:58:42.306647	190.6	28.3	-94.4	0.0
2025-01-17 11:58:44.546396	190.9	28.7	-94.6	0.0
2025-01-17 11:58:46.785606	191.2	29.1	-94.6	0.0
2025-01-17 11:58:49.029971	191.5	29.5	-94.6	0.0
2025-01-17 11:58:51.268747	191.8	29.8	-94.4	0.0
2025-01-17 11:58:53.512980	192.1	30.2	-94.3	0.0
2025-01-17 11:58:55.756057	192.5	30.6	-94.5	0.0
2025-01-17 11:58:57.996289	192.8	31.0	-94.8	0.0
2025-01-17 11:59:00.238510	193.1	31.4	-94.8	0.0
2025-01-17 11:59:02.481642	193.5	31.9	-94.7	0.0
2025-01-17 11:59:04.723572	193.9	32.3	-94.7	0.0
2025-01-17 11:59:06.967710	194.3	32.7	-94.7	0.0
2025-01-17 11:59:09.209241	194.6	33.1	-94.6	0.0
2025-01-17 11:59:11.452672	195.0	33.5	-94.9	0.0
2025-01-17 11:59:13.695838	195.4	34.0	-94.8	0.0
2025-01-17 11:59:15.935752	195.9	34.4	-94.6	0.0
2025-01-17 11:59:18.178172	196.3	34.9	-95.1	0.0
2025-01-17 11:59:20.421562	196.7	35.3	-94.6	0.0
2025-01-17 11:59:22.662555	197.2	35.8	-94.8	0.0
2025-01-17 11:59:24.905530	197.7	36.2	-94.5	0.0
2025-01-17 11:59:27.146915	198.1	36.7	-94.6	0.0
2025-01-17 11:59:29.388946	198.6	37.1	-94.8	0.0
2025-01-17 11:59:31.630376	199.1	37.6	-94.8	0.0
2025-01-17 11:59:33.874972	199.7	38.1	-94.6	0.0
2025-01-17 11:59:36.116745	200.2	38.6	-94.8	0.0
2025-01-17 11:59:38.358944	200.7	39.0	-94.7	0.0
2025-01-17 11:59:40.599863	201.3	39.5	-94.8	0.0
2025-01-17 11:59:42.844641	201.9	40.0	-94.6	0.0
2025-01-17 11:59:45.087033	202.5	40.5	-94.7	0.0
2025-01-17 11:59:47.327045	203.1	41.0	-94.7	0.0
2025-01-17 11:59:49.571977	203.8	41.5	-94.8	0.0
2025-01-17 11:59:51.814487	204.4	42.0	-94.6	0.0
2025-01-17 11:59:54.055747	205.1	42.5	-94.7	0.0
2025-01-17 11:59:56.296105	205.8	43.0	-94.9	0.0
2025-01-17 11:59:58.537706	206.5	43.5	-94.9	0.0
2025-01-17 12:00:00.782850	207.3	44.0	-94.7	0.0
2025-01-17 12:00:03.026419	208.1	44.5	-94.8	0.0
2025-01-17 12:00:05.269589	208.9	45.1	-95.2	0.0
2025-01-17 12:00:07.513534	209.7	45.6	-94.9	0.0
2025-01-17 12:00:09.755731	210.5	46.1	-94.9	0.0
2025-01-17 12:00:11.997854	211.4	46.6	-95.1	0.0
2025-01-17 12:00:14.239767	212.3	47.1	-94.9	0.0
2025-01-17 12:00:16.483643	213.2	47.6	-94.7	0.0
2025-01-17 12:00:18.725003	214.2	48.1	-95.1	0.0
2025-01-17 12:00:20.968452	215.2	48.6	-94.6	0.0
2025-01-17 12:00:23.210829	216.2	49.1	-94.8	0.0
2025-01-17 12:00:25.451856	217.3	49.6	-94.7	0.0
2025-01-17 12:00:27.693702	218.4	50.1	-94.8	0.0
2025-01-17 12:00:29.938070	219.5	50.6	-94.6	0.0
2025-01-17 12:00:32.182609	220.7	51.1	-94.8	0.0
2025-01-17 12:00:34.424097	221.9	51.5	-95.0	0.0
2025-01-17 12:00:36.665139	223.2	52.0	-94.7	0.0
2025-01-17 12:00:38.908129	224.5	52.5	-95.1	0.0
2025-01-17 12:00:41.150741	225.8	52.9	-94.8	0.0
2025-01-17 12:00:43.391250	227.1	53.3	-95.0	0.0
2025-01-17 12:00:45.633012	228.5	53.7	-94.8	0.0
2025-01-17 12:00:47.877471	230.0	54.1	-94.9	0.0
2025-01-17 12:00:50.121601	231.5	54.5	-95.0	0.0
2025-01-17 12:00:52.364674	233.0	54.9	-94.7	0.0
2025-01-17 12:00:54.607840	234.6	55.2	-94.8	0.0
2025-01-17 12:00:56.849650	236.1	55.6	-94.8	0.0
2025-01-17 12:00:59.095276	237.8	55.9	-94.5	0.0
2025-01-17 12:01:01.335262	239.5	56.2	-94.8	0.0
2025-01-17 12:01:03.581954	241.2	56.4	-94.9	0.0
2025-01-17 12:01:05.823477	242.9	56.7	-94.8	0.0
2025-01-17 12:01:08.064066	244.7	56.9	-94.6	0.0
2025-01-17 12:01:10.306954	246.4	57.1	-94.9	0.0
2025-01-17 12:01:12.546739	248.3	57.3	-94.6	0.0
2025-01-17 12:01:14.787192	250.1	57.4	-94.8	0.0
2025-01-17 12:01:17.028748	251.9	57.5	-94.7	0.0
2025-01-17 12:01:19.272040	253.8	57.6	-94.7	0.0
2025-01-17 12:01:21.512854	255.7	57.7	-94.6	0.0
2025-01-17 12:01:23.757960	257.6	57.7	-94.8	0.0
2025-01-17 12:01:26.000749	259.4	57.7	-94.8	0.0
2025-01-17 12:01:28.244444	261.3	57.7	-94.8	0.0
2025-01-17 12:01:30.487047	263.2	57.6	-94.7	0.0
2025-01-17 12:01:32.728912	265.1	57.5	-94.8	0.0
2025-01-17 12:01:34.970805	266.9	57.4	-94.8	0.0
2025-01-17 12:01:37.214161	268.7	57.3	-94.8	0.0
2025-01-17 12:01:39.455848	270.6	57.1	-94.7	0.0
2025-01-17 12:01:41.700036	272.3	56.9	-94.9	0.0
2025-01-17 12:01:43.942477	274.1	56.7	-95.1	0.0
2025-01-17 12:01:46.184330	275.8	56.4	-94.8	0.0
2025-01-17 12:01:48.429277	277.5	56.2	-94.7	0.0
2025-01-17 12:01:50.671781	279.2	55.9	-95.1	0.0
2025-01-17 12:01:52.913685	280.8	55.6	-94.6	0.0
2025-01-17 12:01:55.155977	282.4	55.2	-94.8	0.0
2025-01-17 12:01:57.398120	284.0	54.9	-94.7	0.0
2025-01-17 12:01:59.638538	285.5	54.5	-94.8	0.0
2025-01-17 12:02:01.879700	287.0	54.1	-94.8	0.0
2025-01-17 12:02:04.122327	288.4	53.7	-94.5	0.0
2025-01-17 12:02:06.365558	289.8	53.3	-94.5	0.0
2025-01-17 12:02:08.608023	291.2	52.9	-94.6	0.0
2025-01-17 12:02:10.849107	292.5	52.5	-94.5	0.0
2025-01-17 12:02:13.088677	293.8	52.0	-94.6	0.0
2025-01-17 12:02:15.330948	295.0	51.6	-94.6	0.0
2025-01-17 12:02:17.571020	296.2	51.1	-94.9	0.0
2025-01-17 12:02:19.812946	297.4	50.6	-94.5	0.0
2025-01-17 12:02:22.055881	298.5	50.1	-94.6	0.0
2025-01-17 12:02:24.296277	299.6	49.6	-94.5	0.0
2025-01-17 12:02:26.536900	300.7	49.1	-94.9	0.0
2025-01-17 12:02:28.777905	301.7	48.6	-94.8	0.0
2025-01-17 12:02:31.018576	302.7	48.1	-94.7	0.0
2025-01-17 12:02:33.260095	303.7	47.6	-94.8	0.0
2025-01-17 12:02:35.503721	304.6	47.1	-94.7	0.0
2025-01-17 12:02:37.743236	305.5	46.6	-94.7	0.0
2025-01-17 12:02:39.988847	306.4	46.1	-94.8	0.0
2025-01-17 12:02:42.229113	307.2	45.6	-94.7	0.0
2025-01-17 12:02:44.468734	308.1	45.1	-94.8	0.0
2025-01-17 12:02:46.710700	308.9	44.6	-94.6	0.0
2025-01-17 12:02:48.951055	309.6	44.1	-94.9	0.0
2025-01-17 12:02:51.192545	310.4	43.6	-94.7	0.0
2025-01-17 12:02:53.436634	311.1	43.1	-94.7	0.0
2025-01-17 12:02:55.679730	311.8	42.6	-95.0	0.0
2025-01-17 12:02:57.917411	312.5	42.1	-94.9	0.0
2025-01-17 12:03:00.157357	313.1	41.6	-94.5	0.0
2025-01-17 12:03:02.398223	313.8	41.1	-94.8	0.0
2025-01-17 12:03:04.641279	314.4	40.6	-94.8	0.0
2025-01-17 12:03:06.886388	315.0	40.1	-95.0	0.0
2025-01-17 12:03:09.127510	315.6	39.6	-94.8	0.0
2025-01-17 12:03:11.367406	316.2	39.1	-94.7	0.0
2025-01-17 12:03:13.612109	316.7	38.6	-94.8	0.0
2025-01-17 12:03:15.853712	317.2	38.2	-94.8	0.0
2025-01-17 12:03:18.096100	317.8	37.7	-94.8	0.0
2025-01-17 12:03:20.340557	318.3	37.2	-94.7	0.0
2025-01-17 12:03:22.582871	318.8	36.8	-94.6	0.0
2025-01-17 12:03:24.824625	319.2	36.3	-94.9	0.0
2025-01-17 12:03:27.062618	319.7	35.8	-94.5	0.0
2025-01-17 12:03:29.304379	320.2	35.4	-95.0	0.0
2025-01-17 12:03:31.543961	320.6	34.9	-94.9	0.0
2025-01-17 12:03:33.785621	321.0	34.5	-94.8	0.0
2025-01-17 12:03:36.027510	321.5	34.1	-94.9	0.0
2025-01-17 12:03:38.269583	321.9	33.6	-94.7	0.0
2025-01-17 12:03:40.511701	322.3	33.2	-94.7	0.0
2025-01-17 12:03:42.754737	322.7	32.8	-94.8	0.0
2025-01-17 12:03:44.998833	323.0	32.4	-94.8	0.0
2025-01-17 12:03:47.244751	323.4	32.0	-94.8	0.0
2025-01-17 12:03:49.486752	323.8	31.5	-94.8	0.0
2025-01-17 12:03:51.730812	324.1	31.1	-95.1	0.0
2025-01-17 12:03:53.973673	324.5	30.7	-94.9	0.0
2025-01-17 12:03:56.213864	324.8	30.3	-95.1	0.0
2025-01-17 12:03:58.455488	325.1	30.0	-94.9	0.0
2025-01-17 12:04:00.696771	325.4	29.6	-95.1	0.0
2025-01-17 12:04:02.939969	325.7	29.2	-95.0	0.0
2025-01-17 12:04:05.180232	326.0	28.8	-95.0	0.0
2025-01-17 12:04:07.420668	326.3	28.4	-94.8	0.0
2025-01-17 12:04:09.661647	326.6	28.1	-94.8	0.0
2025-01-17 12:04:11.901538	326.9	27.7	-94.9	0.0
2025-01-17 12:04:14.144501	327.2	27.3	-94.9	0.0
2025-01-17 12:04:16.385387	327.5	27.0	-94.9	0.0
2025-01-17 12:04:18.627058	327.7	26.6	-94.9	0.0
2025-01-17 12:04:20.868093	328.0	26.3	-95.0	0.0
2025-01-17 12:04:23.109522	328.3	25.9	-94.9	0.0
2025-01-17 12:04:25.349847	328.5	25.6	-95.1	0.0
2025-01-17 12:04:27.591571	328.8	25.3	-94.9	0.0
2025-01-17 12:04:29.832871	329.0	24.9	-94.9	0.0
2025-01-17 12:04:32.072234	329.2	24.6	-94.8	0.0
2025-01-17 12:04:34.314539	329.5	24.3	-94.8	0.0
2025-01-17 12:04:36.555276	329.7	23.9	-94.9	0.0
2025-01-17 12:04:38.795881	329.9	23.6	-94.9	0.0
2025-01-17 12:04:41.037347	330.1	23.3	-95.1	0.0
2025-01-17 12:04:43.277990	330.3	23.0	-94.9	0.0
2025-01-17 12:04:45.518267	330.5	22.7	-94.9	0.0
2025-01-17 12:04:47.759353	330.8	22.4	-94.7	0.0
2025-01-17 12:04:50.002836	331.0	22.1	-95.1	0.0
2025-01-17 12:04:52.246094	331.2	21.8	-95.0	0.0
2025-01-17 12:04:54.487018	331.3	21.5	-94.8	0.0
2025-01-17 12:04:56.728115	331.5	21.2	-95.1	0.0
2025-01-17 12:04:58.972154	331.7	20.9	-94.8	0.0
2025-01-17 12:05:01.214827	331.9	20.6	-95.0	0.0
2025-01-17 12:05:03.454986	332.1	20.3	-95.0	0.0
2025-01-17 12:05:05.698016	332.3	20.1	-95.2	0.0
2025-01-17 12:05:07.939067	332.4	19.8	-94.6	0.0
2025-01-17 12:05:10.180431	332.6	19.5	-95.0	0.0
2025-01-17 12:05:12.423366	332.8	19.2	-94.9	0.0
2025-01-17 12:05:14.663795	333.0	19.0	-94.7	0.0
2025-01-17 12:05:16.904744	333.1	18.7	-94.8	0.0
2025-01-17 12:05:19.144170	333.3	18.4	-94.7	0.0
2025-01-17 12:05:21.385673	333.4	18.2	-95.0	0.0
2025-01-17 12:05:23.630559	333.6	17.9	-94.9	0.0
2025-01-17 12:05:25.871880	333.7	17.7	-94.6	0.0
2025-01-17 12:05:28.112616	333.9	17.4	-94.9	0.0
2025-01-17 12:05:30.356540	334.0	17.1	-94.8	0.0
2025-01-17 12:05:32.597209	334.2	16.9	-94.7	0.0
2025-01-17 12:05:34.835118	334.3	16.7	-94.7	0.0
2025-01-17 12:05:37.076767	334.5	16.4	-95.0	0.0
2025-01-17 12:05:39.319754	334.6	16.2	-94.7	0.0
2025-01-17 12:05:41.561216	334.8	15.9	-94.8	0.0
2025-01-17 12:05:43.805364	334.9	15.7	-94.5	0.0
2025-01-17 12:05:46.055600	335.0	15.5	-95.0	0.0
2025-01-17 12:05:48.299218	335.2	15.2	-94.8	0.0
2025-01-17 12:05:50.541903	335.3	15.0	-95.2	0.0
2025-01-17 12:05:52.783038	335.4	14.8	-95.1	0.0
2025-01-17 12:05:55.024673	335.5	14.5	-94.9	0.0
2025-01-17 12:05:57.266805	335.7	14.3	-94.8	0.0
2025-01-17 12:05:59.508027	335.8	14.1	-94.7	0.0
2025-01-17 12:06:01.753095	335.9	13.9	-95.0	0.0
2025-01-17 12:06:03.994560	336.0	13.6	-95.0	0.0
2025-01-17 12:06:06.234289	336.1	13.4	-95.0	0.0
2025-01-17 12:06:08.475411	336.3	13.2	-94.9	0.0
2025-01-17 12:06:10.716796	336.4	13.0	-95.1	0.0
2025-01-17 12:06:12.959850	336.5	12.8	-95.0	0.0
2025-01-17 12:06:15.199837	336.6	12.6	-94.9	0.0
2025-01-17 12:06:17.445590	336.7	12.4	-95.0	0.0
2025-01-17 12:06:19.688637	336.8	12.2	-95.1	0.0
2025-01-17 12:06:21.930058	336.9	12.0	-95.1	0.0
2025-01-17 12:06:24.176241	337.0	11.8	-95.2	0.0
2025-01-17 12:06:26.416291	337.1	11.6	-94.9	0.0
2025-01-17 12:06:28.659332	337.2	11.4	-95.1	0.0
2025-01-17 12:06:30.899534	337.3	11.2	-94.7	0.0
2025-01-17 12:06:33.140892	337.4	11.0	-95.0	0.0
2025-01-17 12:06:35.384612	337.5	10.8	-94.9	0.0
2025-01-17 12:06:37.624899	337.6	10.6	-94.9	0.0
2025-01-17 12:06:39.867666	337.7	10.4	-95.0	0.0
2025-01-17 12:06:42.115365	337.8	10.2	-94.8	0.0
#Closed at: 2025-01-17 11:56:02.693166