passes_logs/2025/01/17/planumMaritime01/planumMaritime01__20250117_154548_METOP-B_rec.log

#Pass ID: 20250117_154548_METOP-B
#Satellite: METOP-B
#Configuration: METOP-B
#Start time: 2025-01-17 15:45:53.615500

#LorettStation: 1.0.0 05.05.2024
#Station: planumMaritime01
#Location: 37.49445 lon 55.92918 lat
#TLE: 1 38771U 12049A   25017.15368062  .00000245  00000+0  13171-3 0  9994
#TLE: 2 38771  98.6007  75.2563 0001735  79.5844 280.5529 14.21411545639949

#Time	Az	El	Level	SNR
2025-01-17 15:45:55.770453	85.2	10.1	-94.4	0.0
2025-01-17 15:45:56.889836	85.0	10.2	-94.4	0.0
2025-01-17 15:45:58.014351	84.9	10.2	-94.6	0.0
2025-01-17 15:45:59.134307	84.7	10.3	-94.5	0.0
2025-01-17 15:46:00.253183	84.5	10.4	-94.5	0.0
2025-01-17 15:46:01.375154	84.4	10.4	-94.8	0.0
2025-01-17 15:46:02.494355	84.2	10.5	-94.2	0.0
2025-01-17 15:46:03.616351	84.0	10.6	-94.4	0.0
2025-01-17 15:46:04.739396	83.9	10.6	-94.5	0.0
2025-01-17 15:46:05.862265	83.7	10.7	-94.7	0.0
2025-01-17 15:46:06.984746	83.6	10.7	-94.8	0.0
2025-01-17 15:46:08.106406	83.4	10.8	-94.8	0.0
2025-01-17 15:46:09.226314	83.2	10.9	-94.4	0.0
2025-01-17 15:46:10.347989	83.1	10.9	-94.4	0.0
2025-01-17 15:46:11.468174	82.9	11.0	-94.6	0.0
2025-01-17 15:46:12.587575	82.7	11.0	-94.6	0.0
2025-01-17 15:46:13.710284	82.6	11.1	-94.5	0.0
2025-01-17 15:46:14.829823	82.4	11.2	-94.7	0.0
2025-01-17 15:46:15.953543	82.2	11.2	-94.5	0.0
2025-01-17 15:46:17.074969	82.0	11.3	-94.6	0.0
2025-01-17 15:46:18.196836	81.9	11.3	-94.4	0.0
2025-01-17 15:46:19.317350	81.7	11.4	-94.5	0.0
2025-01-17 15:46:20.441456	81.5	11.5	-94.2	0.0
2025-01-17 15:46:21.561402	81.3	11.5	-94.5	0.0
2025-01-17 15:46:22.682860	81.2	11.6	-94.9	0.0
2025-01-17 15:46:23.804121	81.0	11.6	-94.8	0.0
2025-01-17 15:46:24.924968	80.8	11.7	-94.7	0.0
2025-01-17 15:46:26.045146	80.6	11.8	-94.6	0.0
2025-01-17 15:46:27.168405	80.5	11.8	-94.6	0.0
2025-01-17 15:46:28.290262	80.3	11.9	-94.7	0.0
2025-01-17 15:46:29.414309	80.1	11.9	-94.4	0.0
2025-01-17 15:46:30.535068	79.9	12.0	-94.6	0.0
2025-01-17 15:46:31.656260	79.8	12.1	-94.6	0.0
2025-01-17 15:46:32.777668	79.6	12.1	-94.8	0.0
2025-01-17 15:46:33.900330	79.4	12.2	-94.4	0.0
2025-01-17 15:46:35.021834	79.2	12.2	-94.4	0.0
2025-01-17 15:46:36.141921	79.0	12.3	-94.4	0.0
2025-01-17 15:46:37.262767	78.8	12.4	-94.1	0.0
2025-01-17 15:46:38.383117	78.7	12.4	-94.4	0.0
2025-01-17 15:46:39.503677	78.5	12.5	-94.4	0.0
2025-01-17 15:46:40.624197	78.3	12.5	-94.3	0.0
2025-01-17 15:46:41.745943	78.1	12.6	-94.3	0.0
2025-01-17 15:46:42.866036	77.9	12.6	-94.3	0.0
2025-01-17 15:46:43.987299	77.7	12.7	-94.7	0.0
2025-01-17 15:46:45.108351	77.5	12.8	-94.6	0.0
2025-01-17 15:46:46.228933	77.3	12.8	-94.5	0.0
2025-01-17 15:46:47.350611	77.1	12.9	-94.5	0.0
2025-01-17 15:46:48.471330	77.0	12.9	-94.2	0.0
2025-01-17 15:46:49.591582	76.8	13.0	-94.6	0.0
2025-01-17 15:46:50.713141	76.6	13.0	-94.4	0.0
2025-01-17 15:46:51.833203	76.4	13.1	-94.2	0.0
2025-01-17 15:46:52.952541	76.2	13.2	-94.5	0.0
2025-01-17 15:46:54.076552	76.0	13.2	-94.6	0.0
2025-01-17 15:46:55.197233	75.8	13.3	-94.9	0.0
2025-01-17 15:46:56.318439	75.6	13.3	-94.8	0.0
2025-01-17 15:46:57.439451	75.4	13.4	-95.0	0.0
2025-01-17 15:46:58.560655	75.2	13.4	-94.8	0.0
2025-01-17 15:46:59.684219	75.0	13.5	-94.9	0.0
2025-01-17 15:47:00.805581	74.8	13.5	-94.8	0.0
2025-01-17 15:47:01.925045	74.6	13.6	-94.9	0.0
2025-01-17 15:47:03.046464	74.4	13.6	-94.9	0.0
2025-01-17 15:47:04.169717	74.2	13.7	-94.9	0.0
2025-01-17 15:47:05.293278	74.0	13.8	-95.0	0.0
2025-01-17 15:47:06.417071	73.8	13.8	-94.5	0.0
2025-01-17 15:47:07.540219	73.6	13.9	-94.8	0.0
2025-01-17 15:47:08.662201	73.4	13.9	-94.7	0.0
2025-01-17 15:47:09.781969	73.2	14.0	-94.5	0.0
2025-01-17 15:47:10.901266	73.0	14.0	-94.4	0.0
2025-01-17 15:47:12.021484	72.8	14.1	-94.6	0.0
2025-01-17 15:47:13.143646	72.5	14.1	-94.6	0.0
2025-01-17 15:47:14.266497	72.3	14.2	-94.5	0.0
2025-01-17 15:47:15.387387	72.1	14.2	-94.5	0.0
2025-01-17 15:47:16.508152	71.9	14.3	-94.4	0.0
2025-01-17 15:47:17.628095	71.7	14.3	-94.4	0.0
2025-01-17 15:47:18.749705	71.5	14.4	-94.5	0.0
2025-01-17 15:47:19.870367	71.3	14.4	-94.5	0.0
2025-01-17 15:47:20.992501	71.1	14.5	-94.6	0.0
2025-01-17 15:47:22.112431	70.9	14.5	-94.2	0.0
2025-01-17 15:47:23.234590	70.6	14.6	-94.6	0.0
2025-01-17 15:47:24.354198	70.4	14.6	-94.6	0.0
2025-01-17 15:47:25.474772	70.2	14.7	-94.6	0.0
2025-01-17 15:47:26.595258	70.0	14.7	-94.4	0.0
2025-01-17 15:47:27.713736	69.8	14.8	-94.5	0.0
2025-01-17 15:47:28.836169	69.6	14.8	-94.4	0.0
2025-01-17 15:47:29.957018	69.3	14.9	-94.7	0.0
2025-01-17 15:47:31.075871	69.1	14.9	-94.5	0.0
2025-01-17 15:47:32.196269	68.9	15.0	-94.5	0.0
2025-01-17 15:47:33.319538	68.7	15.0	-94.4	0.0
2025-01-17 15:47:34.441148	68.5	15.1	-94.7	0.0
2025-01-17 15:47:35.562122	68.2	15.1	-94.9	0.0
2025-01-17 15:47:36.682214	68.0	15.1	-94.8	0.0
2025-01-17 15:47:37.802288	67.8	15.2	-94.8	0.0
2025-01-17 15:47:38.923122	67.6	15.2	-94.8	0.0
2025-01-17 15:47:40.043240	67.3	15.3	-94.9	0.0
2025-01-17 15:47:41.165421	67.1	15.3	-94.8	0.0
2025-01-17 15:47:42.284433	66.9	15.4	-95.0	0.0
2025-01-17 15:47:43.404670	66.7	15.4	-94.8	0.0
2025-01-17 15:47:44.525056	66.4	15.4	-94.5	0.0
2025-01-17 15:47:45.646199	66.2	15.5	-94.7	0.0
2025-01-17 15:47:46.767888	66.0	15.5	-94.8	0.0
2025-01-17 15:47:47.891150	65.7	15.6	-95.1	0.0
2025-01-17 15:47:49.013013	65.5	15.6	-94.9	0.0
2025-01-17 15:47:50.134245	65.3	15.7	-94.9	0.0
2025-01-17 15:47:51.255292	65.1	15.7	-94.8	0.0
2025-01-17 15:47:52.378260	64.8	15.7	-94.8	0.0
2025-01-17 15:47:53.495918	64.6	15.8	-95.0	0.0
2025-01-17 15:47:54.617124	64.4	15.8	-94.9	0.0
2025-01-17 15:47:55.738523	64.1	15.9	-94.9	0.0
2025-01-17 15:47:56.858526	63.9	15.9	-94.6	0.0
2025-01-17 15:47:57.979649	63.6	15.9	-94.8	0.0
2025-01-17 15:47:59.102727	63.4	16.0	-94.8	0.0
2025-01-17 15:48:00.227847	63.2	16.0	-94.7	0.0
2025-01-17 15:48:01.350295	62.9	16.0	-94.6	0.0
2025-01-17 15:48:02.471350	62.7	16.1	-94.6	0.0
2025-01-17 15:48:03.590099	62.5	16.1	-94.7	0.0
2025-01-17 15:48:04.712371	62.2	16.2	-94.5	0.0
2025-01-17 15:48:05.832393	62.0	16.2	-94.4	0.0
2025-01-17 15:48:06.952048	61.7	16.2	-94.4	0.0
2025-01-17 15:48:08.071000	61.5	16.3	-94.7	0.0
2025-01-17 15:48:09.190289	61.3	16.3	-94.7	0.0
2025-01-17 15:48:10.310835	61.0	16.3	-94.6	0.0
2025-01-17 15:48:11.434196	60.8	16.4	-94.6	0.0
2025-01-17 15:48:12.556819	60.5	16.4	-94.5	0.0
2025-01-17 15:48:13.680734	60.3	16.4	-94.5	0.0
2025-01-17 15:48:14.802424	60.1	16.4	-94.7	0.0
2025-01-17 15:48:15.925034	59.8	16.5	-94.6	0.0
2025-01-17 15:48:17.046755	59.6	16.5	-94.7	0.0
2025-01-17 15:48:18.168873	59.3	16.5	-94.8	0.0
2025-01-17 15:48:19.287760	59.1	16.6	-94.7	0.0
2025-01-17 15:48:20.409253	58.8	16.6	-94.6	0.0
2025-01-17 15:48:21.530576	58.6	16.6	-94.6	0.0
2025-01-17 15:48:22.651317	58.3	16.7	-94.7	0.0
2025-01-17 15:48:23.775288	58.1	16.7	-94.6	0.0
2025-01-17 15:48:24.895150	57.8	16.7	-94.7	0.0
2025-01-17 15:48:26.017574	57.6	16.7	-94.7	0.0
2025-01-17 15:48:27.137128	57.3	16.8	-94.5	0.0
2025-01-17 15:48:28.258293	57.1	16.8	-94.7	0.0
2025-01-17 15:48:29.378255	56.8	16.8	-94.8	0.0
2025-01-17 15:48:30.497569	56.6	16.8	-94.6	0.0
2025-01-17 15:48:31.617953	56.3	16.9	-94.6	0.0
2025-01-17 15:48:32.739161	56.1	16.9	-94.8	0.0
2025-01-17 15:48:33.858851	55.8	16.9	-94.8	0.0
2025-01-17 15:48:34.979803	55.6	16.9	-94.8	0.0
2025-01-17 15:48:36.101336	55.3	16.9	-94.7	0.0
2025-01-17 15:48:37.222051	55.1	17.0	-94.5	0.0
2025-01-17 15:48:38.343181	54.8	17.0	-94.6	0.0
2025-01-17 15:48:39.465887	54.6	17.0	-94.7	0.0
2025-01-17 15:48:40.587264	54.3	17.0	-94.7	0.0
2025-01-17 15:48:41.709414	54.1	17.0	-94.6	0.0
2025-01-17 15:48:42.831193	53.8	17.1	-94.8	0.0
2025-01-17 15:48:43.953599	53.6	17.1	-94.8	0.0
2025-01-17 15:48:45.075303	53.3	17.1	-94.8	0.0
2025-01-17 15:48:46.197227	53.1	17.1	-95.3	0.0
2025-01-17 15:48:47.319007	52.8	17.1	-94.9	0.0
2025-01-17 15:48:48.440148	52.5	17.1	-94.9	0.0
2025-01-17 15:48:49.561124	52.3	17.2	-94.8	0.0
2025-01-17 15:48:50.682133	52.0	17.2	-95.0	0.0
2025-01-17 15:48:51.802617	51.8	17.2	-94.8	0.0
2025-01-17 15:48:52.924526	51.5	17.2	-95.1	0.0
2025-01-17 15:48:54.045147	51.3	17.2	-94.9	0.0
2025-01-17 15:48:55.165502	51.0	17.2	-94.6	0.0
2025-01-17 15:48:56.288159	50.8	17.2	-94.9	0.0
2025-01-17 15:48:57.408972	50.5	17.2	-94.9	0.0
2025-01-17 15:48:58.529786	50.2	17.3	-94.9	0.0
2025-01-17 15:48:59.652437	50.0	17.3	-94.7	0.0
2025-01-17 15:49:00.773118	49.7	17.3	-94.6	0.0
2025-01-17 15:49:01.893713	49.5	17.3	-94.7	0.0
2025-01-17 15:49:03.017260	49.2	17.3	-94.5	0.0
2025-01-17 15:49:04.137803	48.9	17.3	-94.6	0.0
2025-01-17 15:49:05.259317	48.7	17.3	-94.6	0.0
2025-01-17 15:49:06.381406	48.4	17.3	-94.5	0.0
2025-01-17 15:49:07.503185	48.2	17.3	-94.8	0.0
2025-01-17 15:49:08.624286	47.9	17.3	-94.5	0.0
2025-01-17 15:49:09.743387	47.7	17.3	-94.6	0.0
2025-01-17 15:49:10.862449	47.4	17.3	-94.5	0.0
2025-01-17 15:49:11.983520	47.1	17.3	-94.5	0.0
2025-01-17 15:49:13.106314	46.9	17.3	-94.6	0.0
2025-01-17 15:49:14.228458	46.6	17.3	-94.7	0.0
2025-01-17 15:49:15.350515	46.4	17.3	-94.6	0.0
2025-01-17 15:49:16.473753	46.1	17.3	-94.9	0.0
2025-01-17 15:49:17.593460	45.8	17.3	-94.7	0.0
2025-01-17 15:49:18.715204	45.6	17.3	-94.9	0.0
2025-01-17 15:49:19.836425	45.3	17.3	-94.8	0.0
2025-01-17 15:49:20.955459	45.1	17.3	-94.7	0.0
2025-01-17 15:49:22.075894	44.8	17.3	-94.5	0.0
2025-01-17 15:49:23.196635	44.6	17.3	-94.8	0.0
2025-01-17 15:49:24.317500	44.3	17.3	-94.8	0.0
2025-01-17 15:49:25.438343	44.0	17.3	-94.7	0.0
2025-01-17 15:49:26.560050	43.8	17.3	-94.8	0.0
2025-01-17 15:49:27.681502	43.5	17.3	-95.0	0.0
2025-01-17 15:49:28.803384	43.3	17.3	-94.7	0.0
2025-01-17 15:49:29.924293	43.0	17.3	-94.6	0.0
2025-01-17 15:49:31.044734	42.8	17.3	-95.0	0.0
2025-01-17 15:49:32.165994	42.5	17.3	-95.0	0.0
2025-01-17 15:49:33.286745	42.2	17.3	-94.8	0.0
2025-01-17 15:49:34.408836	42.0	17.3	-94.6	0.0
2025-01-17 15:49:35.527324	41.7	17.2	-94.7	0.0
2025-01-17 15:49:36.648939	41.5	17.2	-95.0	0.0
2025-01-17 15:49:37.770220	41.2	17.2	-95.1	0.0
2025-01-17 15:49:38.892074	41.0	17.2	-94.7	0.0
2025-01-17 15:49:40.011782	40.7	17.2	-94.7	0.0
2025-01-17 15:49:41.133172	40.4	17.2	-95.0	0.0
2025-01-17 15:49:42.255148	40.2	17.2	-94.5	0.0
2025-01-17 15:49:43.375280	39.9	17.2	-95.1	0.0
2025-01-17 15:49:44.495392	39.7	17.2	-94.7	0.0
2025-01-17 15:49:45.618101	39.4	17.1	-94.9	0.0
2025-01-17 15:49:46.740810	39.2	17.1	-94.5	0.0
2025-01-17 15:49:47.860570	38.9	17.1	-94.4	0.0
2025-01-17 15:49:48.981141	38.7	17.1	-94.7	0.0
2025-01-17 15:49:50.100809	38.4	17.1	-94.8	0.0
2025-01-17 15:49:51.221708	38.1	17.1	-94.6	0.0
2025-01-17 15:49:52.342835	37.9	17.0	-94.7	0.0
2025-01-17 15:49:53.464171	37.6	17.0	-94.5	0.0
2025-01-17 15:49:54.585241	37.4	17.0	-94.5	0.0
2025-01-17 15:49:55.706363	37.1	17.0	-94.5	0.0
2025-01-17 15:49:56.826427	36.9	17.0	-94.8	0.0
2025-01-17 15:49:57.947645	36.6	16.9	-94.8	0.0
2025-01-17 15:49:59.070462	36.4	16.9	-94.5	0.0
2025-01-17 15:50:00.190245	36.1	16.9	-94.5	0.0
2025-01-17 15:50:01.311703	35.9	16.9	-94.6	0.0
2025-01-17 15:50:02.433148	35.6	16.8	-94.8	0.0
2025-01-17 15:50:03.553575	35.4	16.8	-94.7	0.0
2025-01-17 15:50:04.673784	35.1	16.8	-94.5	0.0
2025-01-17 15:50:05.794306	34.9	16.8	-94.5	0.0
2025-01-17 15:50:06.913272	34.6	16.8	-94.6	0.0
2025-01-17 15:50:08.035245	34.4	16.7	-94.7	0.0
2025-01-17 15:50:09.154204	34.1	16.7	-94.8	0.0
2025-01-17 15:50:10.273560	33.9	16.7	-94.8	0.0
2025-01-17 15:50:11.393891	33.6	16.6	-94.8	0.0
2025-01-17 15:50:12.515859	33.4	16.6	-94.5	0.0
2025-01-17 15:50:13.639260	33.2	16.6	-94.7	0.0
2025-01-17 15:50:14.760068	32.9	16.6	-95.0	0.0
2025-01-17 15:50:15.880955	32.7	16.5	-94.7	0.0
2025-01-17 15:50:17.001434	32.4	16.5	-94.4	0.0
2025-01-17 15:50:18.122169	32.2	16.5	-94.8	0.0
2025-01-17 15:50:19.244778	31.9	16.4	-94.9	0.0
2025-01-17 15:50:20.368816	31.7	16.4	-94.9	0.0
2025-01-17 15:50:21.488351	31.4	16.4	-94.8	0.0
2025-01-17 15:50:22.610718	31.2	16.3	-95.1	0.0
2025-01-17 15:50:23.730725	31.0	16.3	-94.8	0.0
2025-01-17 15:50:24.852111	30.7	16.3	-94.9	0.0
2025-01-17 15:50:25.974046	30.5	16.2	-94.9	0.0
2025-01-17 15:50:27.097428	30.2	16.2	-94.9	0.0
2025-01-17 15:50:28.220280	30.0	16.2	-94.9	0.0
2025-01-17 15:50:29.341162	29.8	16.1	-94.6	0.0
2025-01-17 15:50:30.462729	29.5	16.1	-95.1	0.0
2025-01-17 15:50:31.583407	29.3	16.1	-94.9	0.0
2025-01-17 15:50:32.704488	29.0	16.0	-94.7	0.0
2025-01-17 15:50:33.825172	28.8	16.0	-94.7	0.0
2025-01-17 15:50:34.947250	28.6	16.0	-94.8	0.0
2025-01-17 15:50:36.068233	28.3	15.9	-94.8	0.0
2025-01-17 15:50:37.189248	28.1	15.9	-94.8	0.0
2025-01-17 15:50:38.309973	27.9	15.8	-94.5	0.0
2025-01-17 15:50:39.433270	27.6	15.8	-94.7	0.0
2025-01-17 15:50:40.553891	27.4	15.8	-94.6	0.0
2025-01-17 15:50:41.674853	27.2	15.7	-94.8	0.0
2025-01-17 15:50:42.795136	26.9	15.7	-94.7	0.0
2025-01-17 15:50:43.916177	26.7	15.7	-94.4	0.0
2025-01-17 15:50:45.038908	26.5	15.6	-94.9	0.0
2025-01-17 15:50:46.161427	26.3	15.6	-94.8	0.0
2025-01-17 15:50:47.282533	26.0	15.5	-94.7	0.0
2025-01-17 15:50:48.404247	25.8	15.5	-94.6	0.0
2025-01-17 15:50:49.526295	25.6	15.4	-94.7	0.0
2025-01-17 15:50:50.646267	25.3	15.4	-94.9	0.0
2025-01-17 15:50:51.766849	25.1	15.4	-94.8	0.0
2025-01-17 15:50:52.886753	24.9	15.3	-94.9	0.0
2025-01-17 15:50:54.009000	24.7	15.3	-94.6	0.0
2025-01-17 15:50:55.132710	24.4	15.2	-94.8	0.0
2025-01-17 15:50:56.251830	24.2	15.2	-94.4	0.0
2025-01-17 15:50:57.373361	24.0	15.1	-94.7	0.0
2025-01-17 15:50:58.493284	23.8	15.1	-94.9	0.0
2025-01-17 15:50:59.616884	23.6	15.0	-94.6	0.0
2025-01-17 15:51:00.738408	23.3	15.0	-94.6	0.0
2025-01-17 15:51:01.858293	23.1	15.0	-94.6	0.0
2025-01-17 15:51:02.982279	22.9	14.9	-94.8	0.0
2025-01-17 15:51:04.102918	22.7	14.9	-94.8	0.0
2025-01-17 15:51:05.223909	22.5	14.8	-94.6	0.0
2025-01-17 15:51:06.346307	22.2	14.8	-94.5	0.0
2025-01-17 15:51:07.466122	22.0	14.7	-94.6	0.0
2025-01-17 15:51:08.586237	21.8	14.7	-94.6	0.0
2025-01-17 15:51:09.708292	21.6	14.6	-94.6	0.0
2025-01-17 15:51:10.828785	21.4	14.6	-94.7	0.0
2025-01-17 15:51:11.949456	21.2	14.5	-94.7	0.0
2025-01-17 15:51:13.071848	21.0	14.5	-95.0	0.0
2025-01-17 15:51:14.190045	20.7	14.4	-94.8	0.0
2025-01-17 15:51:15.312262	20.5	14.4	-94.7	0.0
2025-01-17 15:51:16.434218	20.3	14.3	-94.7	0.0
2025-01-17 15:51:17.555277	20.1	14.3	-94.8	0.0
2025-01-17 15:51:18.677060	19.9	14.2	-95.0	0.0
2025-01-17 15:51:19.799218	19.7	14.2	-94.9	0.0
2025-01-17 15:51:20.919787	19.5	14.1	-94.9	0.0
2025-01-17 15:51:22.040670	19.3	14.1	-94.9	0.0
2025-01-17 15:51:23.162671	19.1	14.0	-94.7	0.0
2025-01-17 15:51:24.284197	18.9	14.0	-95.0	0.0
2025-01-17 15:51:25.406637	18.7	13.9	-94.8	0.0
2025-01-17 15:51:26.528368	18.5	13.9	-94.9	0.0
2025-01-17 15:51:27.650286	18.3	13.8	-94.9	0.0
2025-01-17 15:51:28.774529	18.0	13.7	-94.8	0.0
2025-01-17 15:51:29.895448	17.8	13.7	-94.8	0.0
2025-01-17 15:51:31.016071	17.6	13.6	-94.4	0.0
2025-01-17 15:51:32.138968	17.4	13.6	-94.4	0.0
2025-01-17 15:51:33.259946	17.2	13.5	-94.8	0.0
2025-01-17 15:51:34.380601	17.0	13.5	-94.7	0.0
2025-01-17 15:51:35.500029	16.8	13.4	-94.5	0.0
2025-01-17 15:51:36.620459	16.7	13.4	-94.5	0.0
2025-01-17 15:51:37.742609	16.5	13.3	-94.5	0.0
2025-01-17 15:51:38.865907	16.3	13.3	-94.6	0.0
2025-01-17 15:51:39.986955	16.1	13.2	-94.9	0.0
2025-01-17 15:51:41.107706	15.9	13.1	-94.7	0.0
2025-01-17 15:51:42.227613	15.7	13.1	-94.8	0.0
2025-01-17 15:51:43.349713	15.5	13.0	-94.9	0.0
2025-01-17 15:51:44.470510	15.3	13.0	-95.1	0.0
2025-01-17 15:51:45.590662	15.1	12.9	-94.7	0.0
2025-01-17 15:51:46.712067	14.9	12.9	-94.8	0.0
2025-01-17 15:51:47.832435	14.7	12.8	-94.9	0.0
2025-01-17 15:51:48.954205	14.5	12.8	-95.0	0.0
2025-01-17 15:51:50.073923	14.3	12.7	-95.0	0.0
2025-01-17 15:51:51.196338	14.2	12.6	-94.9	0.0
2025-01-17 15:51:52.317854	14.0	12.6	-94.9	0.0
2025-01-17 15:51:53.439546	13.8	12.5	-95.0	0.0
2025-01-17 15:51:54.559176	13.6	12.5	-94.9	0.0
2025-01-17 15:51:55.679843	13.4	12.4	-95.0	0.0
2025-01-17 15:51:56.800008	13.2	12.4	-95.1	0.0
2025-01-17 15:51:57.919330	13.0	12.3	-95.0	0.0
2025-01-17 15:51:59.040185	12.9	12.2	-95.2	0.0
2025-01-17 15:52:00.159343	12.7	12.2	-95.0	0.0
2025-01-17 15:52:01.281644	12.5	12.1	-95.1	0.0
2025-01-17 15:52:02.402741	12.3	12.1	-94.9	0.0
2025-01-17 15:52:03.524044	12.1	12.0	-95.0	0.0
2025-01-17 15:52:04.644315	12.0	11.9	-95.0	0.0
2025-01-17 15:52:05.764129	11.8	11.9	-95.1	0.0
2025-01-17 15:52:06.886869	11.6	11.8	-95.1	0.0
2025-01-17 15:52:08.009276	11.4	11.8	-94.9	0.0
2025-01-17 15:52:09.129912	11.3	11.7	-94.9	0.0
2025-01-17 15:52:10.253632	11.1	11.6	-94.7	0.0
2025-01-17 15:52:11.378118	10.9	11.6	-95.0	0.0
2025-01-17 15:52:12.500107	10.7	11.5	-94.8	0.0
2025-01-17 15:52:13.620635	10.6	11.5	-94.8	0.0
2025-01-17 15:52:14.741235	10.4	11.4	-94.8	0.0
2025-01-17 15:52:15.861831	10.2	11.3	-94.9	0.0
2025-01-17 15:52:16.982084	10.0	11.3	-94.7	0.0
2025-01-17 15:52:18.104286	9.9	11.2	-94.5	0.0
2025-01-17 15:52:19.223711	9.7	11.2	-94.9	0.0
2025-01-17 15:52:20.345926	9.5	11.1	-95.1	0.0
2025-01-17 15:52:21.467883	9.4	11.0	-94.8	0.0
2025-01-17 15:52:22.589730	9.2	11.0	-94.8	0.0
2025-01-17 15:52:23.712307	9.0	10.9	-94.9	0.0
2025-01-17 15:52:24.834264	8.9	10.9	-94.8	0.0
2025-01-17 15:52:25.953448	8.7	10.8	-94.8	0.0
2025-01-17 15:52:27.076555	8.5	10.7	-94.9	0.0
2025-01-17 15:52:28.197826	8.4	10.7	-94.9	0.0
2025-01-17 15:52:29.319800	8.2	10.6	-94.9	0.0
2025-01-17 15:52:30.441911	8.0	10.6	-94.9	0.0
2025-01-17 15:52:31.563124	7.9	10.5	-95.1	0.0
2025-01-17 15:52:32.686153	7.7	10.4	-94.8	0.0
2025-01-17 15:52:33.805170	7.6	10.4	-94.9	0.0
2025-01-17 15:52:34.926159	7.4	10.3	-94.9	0.0
2025-01-17 15:52:36.048179	7.2	10.2	-94.9	0.0
2025-01-17 15:52:37.168484	7.1	10.2	-94.8	0.0
2025-01-17 15:52:38.290483	6.9	10.1	-94.8	0.0
2025-01-17 15:52:39.412865	6.8	10.1	-94.7	0.0
#Closed at: 2025-01-17 15:45:48.617098