passes_logs/2025/01/17/planumMaritime01/planumMaritime01__20250117_164026_METOP-C_rec.log

#Pass ID: 20250117_164026_METOP-C
#Satellite: METOP-C
#Configuration: METOP-C
#Start time: 2025-01-17 16:40:31.553491

#LorettStation: 1.0.0 05.05.2024
#Station: planumMaritime01
#Location: 37.49445 lon 55.92918 lat
#TLE: 1 43689U 18087A   25017.12268116  .00000242  00000+0  13070-3 0  9997
#TLE: 2 43689  98.6961  79.5832 0001518 160.4189 199.7047 14.21482278321517

#Time	Az	El	Level	SNR
2025-01-17 16:40:33.703720	110.8	10.2	-94.3	0.0
2025-01-17 16:40:35.944401	110.6	10.3	-94.3	0.0
2025-01-17 16:40:38.185789	110.3	10.5	-94.9	0.0
2025-01-17 16:40:40.426980	110.1	10.7	-94.3	0.0
2025-01-17 16:40:42.666320	109.9	10.8	-94.7	0.0
2025-01-17 16:40:44.910118	109.6	11.0	-94.6	0.0
2025-01-17 16:40:47.152575	109.4	11.2	-94.5	0.0
2025-01-17 16:40:49.394404	109.2	11.3	-94.8	0.0
2025-01-17 16:40:51.637550	108.9	11.5	-94.5	0.0
2025-01-17 16:40:53.880284	108.7	11.7	-94.7	0.0
2025-01-17 16:40:56.124813	108.4	11.8	-94.5	0.0
2025-01-17 16:40:58.366903	108.2	12.0	-94.7	0.0
2025-01-17 16:41:00.608510	107.9	12.2	-94.6	0.0
2025-01-17 16:41:02.852398	107.6	12.4	-94.5	0.0
2025-01-17 16:41:05.095927	107.4	12.5	-94.7	0.0
2025-01-17 16:41:07.337397	107.1	12.7	-94.5	0.0
2025-01-17 16:41:09.579096	106.8	12.9	-94.7	0.0
2025-01-17 16:41:11.819597	106.6	13.1	-94.7	0.0
2025-01-17 16:41:14.060160	106.3	13.2	-94.5	0.0
2025-01-17 16:41:16.303465	106.0	13.4	-94.7	0.0
2025-01-17 16:41:18.545528	105.7	13.6	-94.7	0.0
2025-01-17 16:41:20.790209	105.4	13.8	-94.6	0.0
2025-01-17 16:41:23.032251	105.2	13.9	-94.7	0.0
2025-01-17 16:41:25.276654	104.9	14.1	-94.9	0.0
2025-01-17 16:41:27.518503	104.6	14.3	-94.7	0.0
2025-01-17 16:41:29.761779	104.3	14.5	-94.8	0.0
2025-01-17 16:41:32.007994	104.0	14.7	-94.8	0.0
2025-01-17 16:41:34.248702	103.6	14.8	-94.8	0.0
2025-01-17 16:41:36.492641	103.3	15.0	-94.5	0.0
2025-01-17 16:41:38.739211	103.0	15.2	-94.5	0.0
2025-01-17 16:41:40.977726	102.7	15.4	-94.6	0.0
2025-01-17 16:41:43.222756	102.4	15.6	-94.7	0.0
2025-01-17 16:41:45.464199	102.0	15.8	-94.4	0.0
2025-01-17 16:41:47.706474	101.7	15.9	-94.6	0.0
2025-01-17 16:41:49.949665	101.4	16.1	-95.0	0.0
2025-01-17 16:41:52.192500	101.0	16.3	-94.5	0.0
2025-01-17 16:41:54.434844	100.7	16.5	-94.9	0.0
2025-01-17 16:41:56.676262	100.3	16.7	-94.8	0.0
2025-01-17 16:41:58.921863	100.0	16.9	-94.8	0.0
2025-01-17 16:42:01.165742	99.6	17.1	-94.7	0.0
2025-01-17 16:42:03.408661	99.3	17.2	-94.7	0.0
2025-01-17 16:42:05.648151	98.9	17.4	-94.8	0.0
2025-01-17 16:42:07.892898	98.5	17.6	-94.5	0.0
2025-01-17 16:42:10.135959	98.1	17.8	-94.7	0.0
2025-01-17 16:42:12.375332	97.8	18.0	-94.5	0.0
2025-01-17 16:42:14.615325	97.4	18.2	-94.7	0.0
2025-01-17 16:42:16.857658	97.0	18.4	-94.4	0.0
2025-01-17 16:42:19.101130	96.6	18.6	-94.5	0.0
2025-01-17 16:42:21.342555	96.2	18.7	-94.5	0.0
2025-01-17 16:42:23.584111	95.8	18.9	-94.4	0.0
2025-01-17 16:42:25.829577	95.4	19.1	-95.0	0.0
2025-01-17 16:42:28.073304	94.9	19.3	-94.7	0.0
2025-01-17 16:42:30.315186	94.5	19.5	-94.9	0.0
2025-01-17 16:42:32.557838	94.1	19.7	-94.7	0.0
2025-01-17 16:42:34.797976	93.7	19.9	-94.7	0.0
2025-01-17 16:42:37.039360	93.2	20.1	-94.6	0.0
2025-01-17 16:42:39.284309	92.8	20.2	-94.6	0.0
2025-01-17 16:42:41.525315	92.3	20.4	-94.9	0.0
2025-01-17 16:42:43.768609	91.9	20.6	-94.7	0.0
2025-01-17 16:42:46.010439	91.4	20.8	-94.8	0.0
2025-01-17 16:42:48.254615	91.0	21.0	-94.8	0.0
2025-01-17 16:42:50.496246	90.5	21.2	-95.0	0.0
2025-01-17 16:42:52.739965	90.0	21.3	-94.6	0.0
2025-01-17 16:42:54.982676	89.5	21.5	-94.8	0.0
2025-01-17 16:42:57.224822	89.0	21.7	-94.8	0.0
2025-01-17 16:42:59.469106	88.5	21.9	-95.2	0.0
2025-01-17 16:43:01.709659	88.0	22.1	-94.6	0.0
2025-01-17 16:43:03.953533	87.5	22.2	-95.0	0.0
2025-01-17 16:43:06.196259	87.0	22.4	-94.9	0.0
2025-01-17 16:43:08.437491	86.5	22.6	-94.7	0.0
2025-01-17 16:43:10.682252	86.0	22.8	-94.5	0.0
2025-01-17 16:43:12.923748	85.5	22.9	-94.7	0.0
2025-01-17 16:43:15.165425	84.9	23.1	-94.7	0.0
2025-01-17 16:43:17.404578	84.4	23.3	-94.8	0.0
2025-01-17 16:43:19.644842	83.8	23.4	-94.6	0.0
2025-01-17 16:43:21.891305	83.3	23.6	-94.5	0.0
2025-01-17 16:43:24.132377	82.7	23.8	-94.5	0.0
2025-01-17 16:43:26.374942	82.2	23.9	-94.5	0.0
2025-01-17 16:43:28.616587	81.6	24.1	-94.5	0.0
2025-01-17 16:43:30.859533	81.0	24.3	-94.8	0.0
2025-01-17 16:43:33.100743	80.4	24.4	-94.5	0.0
2025-01-17 16:43:35.342039	79.8	24.6	-94.4	0.0
2025-01-17 16:43:37.583575	79.3	24.7	-94.9	0.0
2025-01-17 16:43:39.825624	78.7	24.9	-94.7	0.0
2025-01-17 16:43:42.068066	78.1	25.0	-94.8	0.0
2025-01-17 16:43:44.308901	77.4	25.1	-95.0	0.0
2025-01-17 16:43:46.551861	76.8	25.3	-94.8	0.0
2025-01-17 16:43:48.794072	76.2	25.4	-94.8	0.0
2025-01-17 16:43:51.037973	75.6	25.6	-95.2	0.0
2025-01-17 16:43:53.281664	74.9	25.7	-94.7	0.0
2025-01-17 16:43:55.523908	74.3	25.8	-94.8	0.0
2025-01-17 16:43:57.764271	73.7	25.9	-95.1	0.0
2025-01-17 16:44:00.008468	73.0	26.1	-94.8	0.0
2025-01-17 16:44:02.252534	72.4	26.2	-94.6	0.0
2025-01-17 16:44:04.495694	71.7	26.3	-94.7	0.0
2025-01-17 16:44:06.737744	71.1	26.4	-94.9	0.0
2025-01-17 16:44:08.979087	70.4	26.5	-94.5	0.0
2025-01-17 16:44:11.221688	69.7	26.6	-94.9	0.0
2025-01-17 16:44:13.464428	69.0	26.7	-95.0	0.0
2025-01-17 16:44:15.705646	68.4	26.8	-95.0	0.0
2025-01-17 16:44:17.947834	67.7	26.9	-94.7	0.0
2025-01-17 16:44:20.192513	67.0	27.0	-94.9	0.0
2025-01-17 16:44:22.434198	66.3	27.1	-94.7	0.0
2025-01-17 16:44:24.677571	65.6	27.1	-94.7	0.0
2025-01-17 16:44:26.919372	64.9	27.2	-94.8	0.0
2025-01-17 16:44:29.163617	64.2	27.3	-94.8	0.0
2025-01-17 16:44:31.403492	63.5	27.4	-94.7	0.0
2025-01-17 16:44:33.645613	62.8	27.4	-94.8	0.0
2025-01-17 16:44:35.885882	62.1	27.5	-94.7	0.0
2025-01-17 16:44:38.127478	61.4	27.5	-95.0	0.0
2025-01-17 16:44:40.371512	60.7	27.6	-94.7	0.0
2025-01-17 16:44:42.615898	60.0	27.6	-94.9	0.0
2025-01-17 16:44:44.859224	59.2	27.6	-94.6	0.0
2025-01-17 16:44:47.099490	58.5	27.7	-94.7	0.0
2025-01-17 16:44:49.340644	57.8	27.7	-95.0	0.0
2025-01-17 16:44:51.583926	57.1	27.7	-94.8	0.0
2025-01-17 16:44:53.826654	56.4	27.7	-94.9	0.0
2025-01-17 16:44:56.069134	55.6	27.7	-94.9	0.0
2025-01-17 16:44:58.311625	54.9	27.7	-94.8	0.0
2025-01-17 16:45:00.555514	54.2	27.7	-94.7	0.0
2025-01-17 16:45:02.799332	53.5	27.7	-94.6	0.0
2025-01-17 16:45:05.041058	52.8	27.7	-94.8	0.0
2025-01-17 16:45:07.283400	52.0	27.7	-94.8	0.0
2025-01-17 16:45:09.524487	51.3	27.7	-94.8	0.0
2025-01-17 16:45:11.767981	50.6	27.7	-94.8	0.0
2025-01-17 16:45:14.008717	49.9	27.6	-94.7	0.0
2025-01-17 16:45:16.250509	49.2	27.6	-94.6	0.0
2025-01-17 16:45:18.493607	48.5	27.6	-94.7	0.0
2025-01-17 16:45:20.737771	47.7	27.5	-95.0	0.0
2025-01-17 16:45:22.983973	47.0	27.5	-94.9	0.0
2025-01-17 16:45:25.226330	46.3	27.4	-95.0	0.0
2025-01-17 16:45:27.471044	45.6	27.4	-94.6	0.0
2025-01-17 16:45:29.714750	44.9	27.3	-94.9	0.0
2025-01-17 16:45:31.963631	44.2	27.2	-94.7	0.0
2025-01-17 16:45:34.203646	43.5	27.2	-94.5	0.0
2025-01-17 16:45:36.446101	42.8	27.1	-94.7	0.0
2025-01-17 16:45:38.689378	42.1	27.0	-94.7	0.0
2025-01-17 16:45:40.930844	41.5	26.9	-95.2	0.0
2025-01-17 16:45:43.169001	40.8	26.8	-94.8	0.0
2025-01-17 16:45:45.411733	40.1	26.7	-94.9	0.0
2025-01-17 16:45:47.653754	39.4	26.6	-95.0	0.0
2025-01-17 16:45:49.898783	38.7	26.5	-94.8	0.0
2025-01-17 16:45:52.139787	38.1	26.4	-95.0	0.0
2025-01-17 16:45:54.381655	37.4	26.3	-94.8	0.0
2025-01-17 16:45:56.623033	36.8	26.2	-94.8	0.0
2025-01-17 16:45:58.863603	36.1	26.1	-94.9	0.0
2025-01-17 16:46:01.103924	35.5	26.0	-94.9	0.0
2025-01-17 16:46:03.347821	34.8	25.9	-95.1	0.0
2025-01-17 16:46:05.590885	34.2	25.7	-94.9	0.0
2025-01-17 16:46:07.832837	33.6	25.6	-94.6	0.0
2025-01-17 16:46:10.075075	32.9	25.5	-94.7	0.0
2025-01-17 16:46:12.318032	32.3	25.3	-95.0	0.0
2025-01-17 16:46:14.561723	31.7	25.2	-94.4	0.0
2025-01-17 16:46:16.803395	31.1	25.0	-94.6	0.0
2025-01-17 16:46:19.043900	30.5	24.9	-94.6	0.0
2025-01-17 16:46:21.285229	29.9	24.8	-94.6	0.0
2025-01-17 16:46:23.525499	29.3	24.6	-94.7	0.0
2025-01-17 16:46:25.768555	28.7	24.5	-94.6	0.0
2025-01-17 16:46:28.010576	28.1	24.3	-94.7	0.0
2025-01-17 16:46:30.251069	27.6	24.1	-94.5	0.0
2025-01-17 16:46:32.493490	27.0	24.0	-94.9	0.0
2025-01-17 16:46:34.732875	26.4	23.8	-94.6	0.0
2025-01-17 16:46:36.977292	25.9	23.7	-94.6	0.0
2025-01-17 16:46:39.219400	25.3	23.5	-94.8	0.0
2025-01-17 16:46:41.461601	24.8	23.3	-95.0	0.0
2025-01-17 16:46:43.703409	24.2	23.2	-94.6	0.0
2025-01-17 16:46:45.943490	23.7	23.0	-94.7	0.0
2025-01-17 16:46:48.184155	23.2	22.8	-94.6	0.0
2025-01-17 16:46:50.425432	22.6	22.6	-94.8	0.0
2025-01-17 16:46:52.664334	22.1	22.5	-94.5	0.0
2025-01-17 16:46:54.908183	21.6	22.3	-94.8	0.0
2025-01-17 16:46:57.148649	21.1	22.1	-94.8	0.0
2025-01-17 16:46:59.390400	20.6	21.9	-94.8	0.0
2025-01-17 16:47:01.632849	20.1	21.8	-94.9	0.0
2025-01-17 16:47:03.875529	19.6	21.6	-94.7	0.0
2025-01-17 16:47:06.117849	19.1	21.4	-94.8	0.0
2025-01-17 16:47:08.361279	18.7	21.2	-95.1	0.0
2025-01-17 16:47:10.602608	18.2	21.0	-94.9	0.0
2025-01-17 16:47:12.843708	17.7	20.9	-94.9	0.0
2025-01-17 16:47:15.088522	17.3	20.7	-94.5	0.0
2025-01-17 16:47:17.330474	16.8	20.5	-94.9	0.0
2025-01-17 16:47:19.574500	16.4	20.3	-94.6	0.0
2025-01-17 16:47:21.816852	15.9	20.1	-95.0	0.0
2025-01-17 16:47:24.058848	15.5	19.9	-94.7	0.0
2025-01-17 16:47:26.299567	15.1	19.8	-94.7	0.0
2025-01-17 16:47:28.540137	14.6	19.6	-94.9	0.0
2025-01-17 16:47:30.780477	14.2	19.4	-94.4	0.0
2025-01-17 16:47:33.024577	13.8	19.2	-95.0	0.0
2025-01-17 16:47:35.266695	13.4	19.0	-94.7	0.0
2025-01-17 16:47:37.509532	13.0	18.8	-94.7	0.0
2025-01-17 16:47:39.751002	12.6	18.6	-94.7	0.0
2025-01-17 16:47:41.995409	12.2	18.4	-94.9	0.0
2025-01-17 16:47:44.237972	11.8	18.3	-94.7	0.0
2025-01-17 16:47:46.478671	11.4	18.1	-95.0	0.0
2025-01-17 16:47:48.719769	11.0	17.9	-94.8	0.0
2025-01-17 16:47:50.962821	10.7	17.7	-95.0	0.0
2025-01-17 16:47:53.204320	10.3	17.5	-94.6	0.0
2025-01-17 16:47:55.443439	9.9	17.3	-94.9	0.0
2025-01-17 16:47:57.687945	9.6	17.1	-94.8	0.0
2025-01-17 16:47:59.926497	9.2	17.0	-95.0	0.0
2025-01-17 16:48:02.167964	8.8	16.8	-94.9	0.0
2025-01-17 16:48:04.408255	8.5	16.6	-95.1	0.0
2025-01-17 16:48:06.648331	8.1	16.4	-94.8	0.0
2025-01-17 16:48:08.891035	7.8	16.2	-95.1	0.0
2025-01-17 16:48:11.131637	7.5	16.0	-95.0	0.0
2025-01-17 16:48:13.374934	7.1	15.8	-95.0	0.0
2025-01-17 16:48:15.617516	6.8	15.7	-95.0	0.0
2025-01-17 16:48:17.860238	6.5	15.5	-94.9	0.0
2025-01-17 16:48:20.102188	6.2	15.3	-94.8	0.0
2025-01-17 16:48:22.346133	5.9	15.1	-95.1	0.0
2025-01-17 16:48:24.591074	5.5	14.9	-95.0	0.0
2025-01-17 16:48:26.832051	5.2	14.8	-94.9	0.0
2025-01-17 16:48:29.072658	4.9	14.6	-94.9	0.0
2025-01-17 16:48:31.316734	4.6	14.4	-94.9	0.0
2025-01-17 16:48:33.559992	4.3	14.2	-94.9	0.0
2025-01-17 16:48:35.802489	4.0	14.0	-94.8	0.0
2025-01-17 16:48:38.045365	3.8	13.9	-95.0	0.0
2025-01-17 16:48:40.290349	3.5	13.7	-94.8	0.0
2025-01-17 16:48:42.530577	3.2	13.5	-94.8	0.0
2025-01-17 16:48:44.771480	2.9	13.3	-95.0	0.0
2025-01-17 16:48:47.012509	2.6	13.2	-95.1	0.0
2025-01-17 16:48:49.255511	2.4	13.0	-94.9	0.0
2025-01-17 16:48:51.498788	2.1	12.8	-95.1	0.0
2025-01-17 16:48:53.742111	1.8	12.6	-95.0	0.0
2025-01-17 16:48:55.986519	1.6	12.5	-95.0	0.0
2025-01-17 16:48:58.228059	1.3	12.3	-94.8	0.0
2025-01-17 16:49:00.473580	1.0	12.1	-95.2	0.0
2025-01-17 16:49:02.714121	0.8	11.9	-94.8	0.0
2025-01-17 16:49:04.956739	0.5	11.8	-94.9	0.0
2025-01-17 16:49:07.195422	0.3	11.6	-95.3	0.0
2025-01-17 16:49:09.434821	0.1	11.4	-95.0	0.0
2025-01-17 16:49:11.675302	359.8	11.3	-94.9	0.0
2025-01-17 16:49:13.921757	359.6	11.1	-94.9	0.0
2025-01-17 16:49:16.162287	359.3	10.9	-95.0	0.0
2025-01-17 16:49:18.402672	359.1	10.8	-94.9	0.0
2025-01-17 16:49:20.642293	358.9	10.6	-94.9	0.0
2025-01-17 16:49:22.887067	358.6	10.4	-95.1	0.0
2025-01-17 16:49:25.132172	358.4	10.3	-95.2	0.0
2025-01-17 16:49:27.371420	358.2	10.1	-94.7	0.0
#Closed at: 2025-01-17 16:40:26.555457