passes_logs/2026/01/04/R2M6_AANII_01/R2M6_AANII_01__20260104_075612_SUOMI_NPP_rec.log

#Pass ID: 20260104_075612_SUOMI NPP
#Satellite: SUOMI NPP
#Configuration: NPP
#almurnet v.1.7.20240730
#Start time: 2026-01-04 07:56:12

#Version: 2.2.20231116
#Station: R2M6_AANII_01
#Location: 30.233357 lon 59.946436 lat
#TLE: 1 37849U 11061A   26001.07732418  .00000182  00000+0  10735-3 0  9990
#TLE: 2 37849  98.7795 303.2470 0002580  87.2016 272.9455 14.19520779734739

#Time	Az	El	Level	Level2	SNR	BER	BlckErr	Temp	State	Recorded	gain1	gain2
2026-01-04 07:56:12.50	83.82	7.01	-32.6	-40.0	4.1	1.45e+00	0	41	0	0	26	8433
2026-01-04 07:56:15.52	83.47	7.18	-32.1	-37.3	6.4	2.58e-01	0	41	102	1048576	25	6549
2026-01-04 07:56:18.55	83.13	7.35	-32.1	-37.2	6.5	2.37e-01	0	41	102	1048576	25	6490
2026-01-04 07:56:21.56	82.78	7.52	-32.0	-36.3	7.2	2.05e-01	0	41	102	1048576	25	5923
2026-01-04 07:56:24.59	82.42	7.69	-31.8	-35.9	7.9	9.15e-02	0	41	102	1048576	24	5806
2026-01-04 07:56:27.61	82.07	7.86	-31.3	-34.0	9.5	1.72e-02	0	41	102	1048576	24	4892
2026-01-04 07:56:30.64	81.70	8.02	-31.2	-34.0	9.9	8.58e-03	0	41	102	1048576	23	4964
2026-01-04 07:56:33.66	81.34	8.19	-31.2	-33.8	10.1	9.08e-03	0	41	102	1048576	23	4895
2026-01-04 07:56:36.68	80.97	8.36	-31.3	-34.2	9.8	8.50e-03	0	41	102	1048576	23	5039
2026-01-04 07:56:39.71	80.59	8.53	-31.2	-33.9	10.0	8.70e-03	0	41	102	1048576	23	4904
2026-01-04 07:56:42.73	80.21	8.70	-31.3	-34.1	10.0	7.94e-03	0	41	102	1048576	23	4983
2026-01-04 07:56:45.75	79.82	8.87	-31.3	-34.4	9.8	9.14e-03	0	41	102	1048576	23	5088
2026-01-04 07:56:48.77	79.44	9.04	-31.2	-34.1	9.8	8.99e-03	0	42	102	1048576	23	5026
2026-01-04 07:56:51.79	79.04	9.21	-31.4	-34.8	9.4	1.46e-02	0	42	102	1048576	23	5299
2026-01-04 07:56:54.81	78.64	9.38	-31.5	-35.2	9.1	2.21e-02	0	42	102	1048576	23	5513
2026-01-04 07:56:57.83	78.24	9.54	-31.2	-33.9	10.1	7.79e-03	0	42	102	1048576	23	4935
2026-01-04 07:57:00.86	77.83	9.71	-31.3	-34.4	9.7	1.13e-02	0	42	102	1048576	23	5144
2026-01-04 07:57:03.87	77.42	9.88	-31.2	-33.9	10.1	7.73e-03	0	42	102	1048576	23	4938
2026-01-04 07:57:06.90	77.00	10.05	-31.2	-33.9	10.1	7.84e-03	0	42	102	1048576	23	4933
2026-01-04 07:57:09.91	76.58	10.21	-31.2	-34.1	10.0	7.13e-03	0	42	102	1048576	23	5018
2026-01-04 07:57:12.93	76.15	10.38	-31.2	-33.9	10.2	7.30e-03	0	42	102	1048576	23	4940
2026-01-04 07:57:15.96	75.72	10.55	-31.5	-34.8	9.5	1.42e-02	0	42	102	1048576	23	5318
2026-01-04 07:57:18.98	75.28	10.71	-31.6	-35.4	9.1	1.83e-02	0	42	102	1048576	23	5588
2026-01-04 07:57:22.00	74.84	10.88	-31.6	-35.3	9.2	2.42e-02	0	42	102	1048576	23	5509
2026-01-04 07:57:25.01	74.40	11.04	-31.6	-35.2	9.3	2.03e-02	0	42	102	1048576	23	5460
2026-01-04 07:57:28.04	73.94	11.21	-31.4	-34.6	9.7	1.16e-02	0	42	102	1048576	23	5215
2026-01-04 07:57:31.06	73.48	11.37	-31.2	-33.8	10.4	4.79e-03	0	42	102	1048576	23	4857
2026-01-04 07:57:34.08	73.02	11.53	-31.1	-33.7	10.5	4.68e-03	0	43	102	1048576	23	4814
2026-01-04 07:57:37.10	72.55	11.69	-31.0	-33.4	10.7	2.65e-03	0	42	102	1048576	23	4697
2026-01-04 07:57:40.12	72.08	11.86	-30.9	-33.0	11.0	1.74e-03	0	43	102	1048576	23	4556
2026-01-04 07:57:43.14	71.60	12.02	-30.8	-32.7	11.2	1.22e-03	0	43	102	1048576	23	4466
2026-01-04 07:57:46.17	71.12	12.18	-30.9	-32.8	11.2	1.56e-03	0	43	102	1048576	23	4491
2026-01-04 07:57:49.19	70.63	12.33	-31.0	-33.1	10.9	1.63e-03	0	42	102	1048576	23	4607
2026-01-04 07:57:52.21	70.13	12.49	-30.7	-32.8	11.5	7.40e-04	0	42	102	1048576	22	4586
2026-01-04 07:57:55.24	69.63	12.65	-30.7	-32.7	11.6	6.76e-04	0	43	102	1048576	22	4532
2026-01-04 07:57:58.26	69.13	12.80	-30.7	-32.7	11.6	6.77e-04	0	43	102	1048576	22	4536
2026-01-04 07:58:01.28	68.62	12.96	-30.5	-32.0	12.1	2.17e-04	0	43	102	1048576	22	4295
2026-01-04 07:58:04.30	68.10	13.11	-30.5	-32.2	11.9	4.05e-04	0	42	102	1048576	22	4373
2026-01-04 07:58:07.32	67.58	13.26	-30.5	-32.2	12.0	3.06e-04	0	43	102	1048576	22	4367
2026-01-04 07:58:10.35	67.05	13.41	-30.8	-33.1	11.3	9.39e-04	0	43	102	1048576	22	4696
2026-01-04 07:58:13.37	66.52	13.56	-30.8	-32.9	11.5	6.84e-04	0	43	102	1048576	22	4620
2026-01-04 07:58:16.39	65.98	13.70	-30.7	-32.6	11.8	6.20e-04	0	43	102	1048576	22	4498
2026-01-04 07:58:19.41	65.44	13.85	-30.4	-31.8	12.4	2.20e-04	0	43	102	1048576	22	4206
2026-01-04 07:58:22.42	64.89	13.99	-30.5	-31.9	12.3	1.63e-04	0	43	102	1048576	22	4223
2026-01-04 07:58:25.43	64.34	14.13	-30.3	-31.9	12.6	7.55e-05	0	43	102	1048576	21	4339
2026-01-04 07:58:28.46	63.78	14.27	-30.4	-32.3	12.4	1.33e-04	0	43	102	1048576	21	4456
2026-01-04 07:58:31.49	63.22	14.41	-30.5	-32.5	12.2	1.69e-04	0	43	102	1048576	21	4520
2026-01-04 07:58:34.51	62.65	14.54	-30.5	-32.5	12.3	1.13e-04	0	43	102	1048576	21	4517
2026-01-04 07:58:37.53	62.07	14.68	-30.4	-32.2	12.5	1.20e-04	0	43	102	1048576	21	4433
2026-01-04 07:58:40.55	61.49	14.81	-30.6	-32.8	12.1	2.35e-04	0	43	102	1048576	21	4634
2026-01-04 07:58:43.57	60.91	14.94	-30.5	-32.4	12.4	1.69e-04	0	43	102	1048576	21	4507
2026-01-04 07:58:46.58	60.32	15.06	-30.4	-32.2	12.5	8.31e-05	0	43	102	1048576	21	4409
2026-01-04 07:58:49.60	59.73	15.19	-30.1	-31.4	13.1	4.57e-05	0	43	102	1048576	21	4155
2026-01-04 07:58:52.63	59.12	15.31	-30.3	-31.8	12.8	4.80e-05	0	43	102	1048576	21	4279
2026-01-04 07:58:55.64	58.52	15.43	-30.4	-32.0	12.6	1.03e-04	0	43	102	1048576	21	4350
2026-01-04 07:58:58.66	57.91	15.54	-30.3	-31.7	12.9	6.71e-05	0	43	102	1048576	21	4261
2026-01-04 07:59:01.69	57.30	15.66	-30.2	-31.6	13.0	4.88e-05	0	43	102	1048576	21	4216
2026-01-04 07:59:04.71	56.68	15.77	-30.4	-32.0	12.7	3.96e-05	0	43	102	1048576	21	4338
2026-01-04 07:59:07.73	56.05	15.88	-30.0	-31.0	13.3	1.52e-05	0	43	102	1048576	21	4030
2026-01-04 07:59:10.75	55.43	15.98	-29.9	-30.6	13.6	4.50e-06	0	43	102	1048576	21	3914
2026-01-04 07:59:13.77	54.79	16.08	-29.9	-30.6	13.7	1.44e-05	0	43	102	1048576	21	3894
2026-01-04 07:59:16.79	54.16	16.18	-29.9	-31.2	13.6	1.22e-05	0	43	102	1048576	20	4171
2026-01-04 07:59:19.81	53.52	16.28	-30.0	-31.5	13.5	3.80e-06	0	43	102	1048576	20	4248
2026-01-04 07:59:22.84	52.87	16.37	-30.1	-31.8	13.2	2.13e-05	0	43	102	1048576	20	4353
2026-01-04 07:59:25.85	52.22	16.46	-30.4	-32.6	12.7	7.17e-05	0	43	102	1048576	20	4630
2026-01-04 07:59:28.87	51.57	16.54	-30.6	-32.6	12.3	1.72e-04	0	43	102	1048576	21	4543
2026-01-04 07:59:31.89	50.92	16.62	-30.6	-32.5	12.4	1.17e-04	0	43	102	1048576	21	4494
2026-01-04 07:59:34.91	50.26	16.70	-30.6	-32.6	12.3	1.43e-04	0	43	102	1048576	21	4543
2026-01-04 07:59:37.93	49.59	16.78	-30.0	-31.0	13.4	2.28e-05	0	43	102	1048576	21	4027
2026-01-04 07:59:40.96	48.93	16.85	-30.0	-31.0	13.5	2.05e-05	0	43	102	1048576	21	4021
2026-01-04 07:59:43.98	48.26	16.91	-30.0	-31.0	13.4	1.67e-05	0	43	102	1048576	21	4035
2026-01-04 07:59:47.01	47.58	16.98	-30.0	-31.0	13.4	9.90e-06	0	43	102	1048576	21	4043
2026-01-04 07:59:50.02	46.91	17.04	-30.0	-31.0	13.4	1.22e-05	0	43	102	1048576	21	4050
2026-01-04 07:59:53.04	46.23	17.09	-30.5	-32.4	12.5	8.54e-05	0	43	102	1048576	21	4474
2026-01-04 07:59:56.06	45.55	17.14	-30.8	-33.3	11.8	4.07e-04	0	43	102	1048576	21	4812
2026-01-04 07:59:59.08	44.87	17.19	-31.0	-33.9	11.4	9.07e-04	0	43	102	1048576	21	5058
2026-01-04 08:00:02.10	44.19	17.23	-30.9	-33.1	11.6	7.31e-04	0	43	102	1048576	22	4642
2026-01-04 08:00:05.12	43.50	17.27	-30.8	-32.9	11.8	8.15e-04	0	43	102	1048576	22	4564
2026-01-04 08:00:08.13	42.82	17.31	-30.4	-31.7	12.5	1.46e-04	0	43	102	1048576	22	4181
2026-01-04 08:00:11.16	42.13	17.34	-30.5	-32.0	12.4	1.36e-04	0	43	102	1048576	22	4270
2026-01-04 08:00:14.18	41.44	17.36	-30.4	-31.6	12.7	8.69e-05	0	43	102	1048576	22	4126
2026-01-04 08:00:17.20	40.74	17.39	-30.1	-31.4	13.1	2.05e-05	0	43	102	1048576	21	4145
2026-01-04 08:00:20.22	40.05	17.40	-30.7	-32.9	12.1	1.94e-04	0	43	102	1048576	21	4653
2026-01-04 08:00:23.24	39.36	17.42	-30.7	-32.9	12.0	3.33e-04	0	43	102	1048576	21	4674
2026-01-04 08:00:26.26	38.67	17.43	-30.7	-32.9	12.0	2.87e-04	0	43	102	1048576	21	4650
2026-01-04 08:00:29.28	37.97	17.43	-30.4	-32.0	12.7	1.04e-04	0	43	102	1048576	21	4347
2026-01-04 08:00:32.30	37.28	17.43	-30.5	-32.5	12.3	1.19e-04	0	43	102	1048576	21	4507
2026-01-04 08:00:35.32	36.59	17.43	-30.7	-33.1	11.9	2.93e-04	0	43	102	1048576	21	4727
2026-01-04 08:00:38.34	35.89	17.42	-31.0	-33.6	11.3	9.51e-04	0	43	102	1048576	22	4811
2026-01-04 08:00:41.36	35.20	17.41	-31.4	-34.2	10.4	5.56e-03	0	43	102	1048576	23	4942
2026-01-04 08:00:44.37	34.51	17.39	-30.6	-32.2	12.2	2.75e-04	0	43	102	1048576	22	4331
2026-01-04 08:00:47.38	33.82	17.37	-30.4	-31.7	12.5	1.08e-04	0	43	102	1048576	22	4168
2026-01-04 08:00:50.41	33.13	17.35	-30.3	-31.3	12.8	8.92e-05	0	43	102	1048576	22	4046
2026-01-04 08:00:53.43	32.44	17.32	-30.3	-31.9	12.7	5.79e-05	0	43	102	1048576	21	4321
2026-01-04 08:00:56.45	31.75	17.29	-30.3	-31.7	12.9	6.17e-05	0	43	102	1048576	21	4258
2026-01-04 08:00:59.47	31.07	17.25	-30.3	-31.8	12.8	5.56e-05	0	43	102	1048576	21	4269
2026-01-04 08:01:02.49	30.38	17.21	-29.9	-30.5	13.7	2.36e-05	0	43	102	1048576	21	3897
2026-01-04 08:01:05.51	29.70	17.16	-29.6	-30.4	14.1	7.00e-07	0	43	102	1048576	20	3931
2026-01-04 08:01:08.53	29.02	17.11	-30.0	-31.4	13.4	1.14e-05	0	43	102	1048576	20	4239
2026-01-04 08:01:11.56	28.34	17.06	-29.9	-31.0	13.7	7.60e-06	0	43	102	1048576	20	4109
2026-01-04 08:01:14.57	27.67	17.00	-30.0	-31.5	13.4	9.90e-06	0	43	102	1048576	20	4277
2026-01-04 08:01:17.59	27.00	16.94	-30.0	-31.4	13.4	1.67e-05	0	43	102	1048576	20	4227
2026-01-04 08:01:20.62	26.33	16.87	-30.2	-31.9	13.1	1.60e-05	0	43	102	1048576	20	4383
2026-01-04 08:01:23.63	25.66	16.80	-30.1	-31.7	13.2	2.05e-05	0	43	102	1048576	20	4331
2026-01-04 08:01:26.65	25.00	16.73	-30.2	-31.8	13.1	2.28e-05	0	43	102	1048576	20	4369
2026-01-04 08:01:29.68	24.34	16.65	-30.3	-32.1	12.9	4.11e-05	0	43	102	1048576	20	4472
2026-01-04 08:01:32.69	23.68	16.57	-30.2	-32.1	12.9	4.34e-05	0	43	102	1048576	20	4453
2026-01-04 08:01:35.71	23.03	16.49	-30.5	-32.7	12.5	9.00e-05	0	43	102	1048576	20	4683
2026-01-04 08:01:38.73	22.38	16.40	-30.5	-32.3	12.4	1.05e-04	0	43	102	1048576	21	4455
2026-01-04 08:01:41.75	21.74	16.31	-30.7	-33.1	11.9	3.63e-04	0	43	102	1048576	21	4715
2026-01-04 08:01:44.79	21.09	16.22	-30.8	-33.4	11.7	4.38e-04	0	43	102	1048576	21	4822
2026-01-04 08:01:47.81	20.46	16.12	-30.8	-33.2	11.8	4.36e-04	0	43	102	1048576	21	4774
2026-01-04 08:01:50.84	19.82	16.02	-30.8	-33.3	11.7	3.74e-04	0	43	102	1048576	21	4801
2026-01-04 08:01:53.85	19.20	15.92	-30.4	-32.0	12.6	1.28e-04	0	43	102	1048576	21	4360
2026-01-04 08:01:56.87	18.57	15.81	-30.3	-31.9	12.7	7.47e-05	0	43	102	1048576	21	4309
2026-01-04 08:01:59.90	17.95	15.70	-30.1	-31.1	13.2	3.28e-05	0	43	102	1048576	21	4066
2026-01-04 08:02:02.91	17.34	15.59	-29.9	-31.2	13.4	8.30e-06	0	43	102	1048576	20	4181
2026-01-04 08:02:05.93	16.73	15.47	-29.9	-31.3	13.3	1.22e-05	0	43	102	1048576	20	4209
2026-01-04 08:02:08.96	16.12	15.36	-30.0	-31.6	13.2	2.05e-05	0	43	102	1048576	20	4315
2026-01-04 08:02:11.98	15.52	15.24	-30.7	-32.9	12.0	2.05e-04	0	43	102	1048576	21	4657
2026-01-04 08:02:15.00	14.93	15.11	-30.9	-33.8	11.3	1.11e-03	0	43	102	1048576	21	5010
2026-01-04 08:02:18.01	14.34	14.99	-30.6	-32.8	12.0	3.62e-04	0	43	102	1048576	21	4626
2026-01-04 08:02:21.04	13.75	14.86	-30.8	-33.3	11.6	4.02e-04	0	43	102	1048576	21	4819
2026-01-04 08:02:24.05	13.18	14.73	-30.9	-33.8	11.3	8.33e-04	0	43	102	1048576	21	5008
2026-01-04 08:02:27.07	12.60	14.60	-30.8	-33.5	11.5	8.64e-04	0	43	102	1048576	21	4894
2026-01-04 08:02:30.09	12.03	14.46	-30.6	-32.8	11.9	3.36e-04	0	43	102	1048576	21	4629
2026-01-04 08:02:33.10	11.47	14.33	-30.7	-33.1	11.7	4.65e-04	0	43	102	1048576	21	4746
2026-01-04 08:02:36.12	10.91	14.19	-30.1	-31.2	13.0	4.80e-05	0	43	102	1048576	21	4118
2026-01-04 08:02:39.14	10.36	14.05	-30.1	-31.4	12.9	3.96e-05	0	43	102	1048576	21	4160
2026-01-04 08:02:42.15	9.81	13.91	-30.4	-32.1	12.3	1.56e-04	0	43	102	1048576	21	4395
2026-01-04 08:02:45.18	9.27	13.76	-30.3	-31.9	12.5	2.10e-04	0	43	102	1048576	21	4319
2026-01-04 08:02:48.19	8.73	13.62	-30.4	-32.2	12.3	1.36e-04	0	43	102	1048576	21	4430
2026-01-04 08:02:51.21	8.20	13.47	-30.4	-32.3	12.2	2.10e-04	0	43	102	1048576	21	4458
2026-01-04 08:02:54.23	7.67	13.32	-31.0	-34.0	11.0	1.08e-03	0	43	102	1048576	21	5121
2026-01-04 08:02:57.25	7.15	13.17	-31.7	-35.5	9.1	2.00e-02	0	43	102	1048576	23	5621
2026-01-04 08:03:00.27	6.64	13.02	-31.8	-36.2	8.5	3.81e-02	0	43	102	1048576	23	5946
2026-01-04 08:03:03.30	6.12	12.87	-31.7	-35.6	9.0	2.89e-02	0	43	102	1048576	23	5640
2026-01-04 08:03:06.32	5.62	12.71	-31.3	-34.1	10.2	5.90e-03	0	43	102	1048576	23	4969
2026-01-04 08:03:09.33	5.12	12.56	-31.0	-33.1	10.9	2.80e-03	0	43	102	1048576	23	4599
2026-01-04 08:03:12.36	4.63	12.40	-30.9	-32.9	11.1	1.24e-03	0	43	102	1048576	23	4502
2026-01-04 08:03:15.38	4.14	12.24	-30.9	-32.8	11.1	1.69e-03	0	43	102	1048576	23	4489
2026-01-04 08:03:18.39	3.66	12.09	-31.2	-33.6	10.5	4.65e-03	0	43	102	1048576	23	4787
2026-01-04 08:03:21.41	3.18	11.93	-31.1	-33.5	10.6	2.75e-03	0	43	102	1048576	23	4718
2026-01-04 08:03:24.42	2.71	11.77	-30.8	-32.6	11.2	1.46e-03	0	43	102	1048576	23	4391
2026-01-04 08:03:27.44	2.24	11.61	-30.9	-33.3	11.1	1.40e-03	0	43	102	1048576	22	4734
2026-01-04 08:03:30.46	1.78	11.44	-30.7	-32.8	11.4	9.02e-04	0	43	102	1048576	22	4548
2026-01-04 08:03:33.48	1.32	11.28	-30.9	-33.4	11.0	1.60e-03	0	43	102	1048576	22	4792
2026-01-04 08:03:36.50	0.87	11.12	-31.0	-33.7	10.8	2.65e-03	0	43	102	1048576	22	4887
2026-01-04 08:03:39.51	0.42	10.96	-31.1	-33.9	10.6	3.06e-03	0	43	102	1048576	22	4979
2026-01-04 08:03:42.54	359.98	10.79	-31.2	-34.3	10.3	4.49e-03	0	43	102	1048576	22	5125
2026-01-04 08:03:45.56	359.54	10.63	-30.9	-33.2	11.1	1.82e-03	0	43	102	1048576	22	4699
2026-01-04 08:03:48.58	359.11	10.46	-30.7	-32.6	11.5	6.64e-04	0	43	102	1048576	22	4499
2026-01-04 08:03:51.60	358.68	10.29	-30.1	-31.3	12.7	6.94e-05	0	43	102	1048576	21	4167
2026-01-04 08:03:54.62	358.26	10.13	-30.1	-31.4	12.6	6.33e-05	0	43	102	1048576	21	4191
2026-01-04 08:03:57.64	357.84	9.96	-30.3	-32.1	12.1	3.01e-04	0	43	102	1048576	21	4434
2026-01-04 08:04:00.66	357.43	9.79	-30.4	-32.3	12.0	2.52e-04	0	43	102	1048576	21	4489
2026-01-04 08:04:03.68	357.02	9.63	-30.5	-32.6	11.7	4.32e-04	0	43	102	1048576	21	4587
2026-01-04 08:04:06.70	356.62	9.46	-30.1	-31.6	12.4	1.52e-04	0	43	102	1048576	21	4264
2026-01-04 08:04:09.71	356.22	9.29	-30.3	-31.9	12.2	2.24e-04	0	43	102	1048576	21	4377
2026-01-04 08:04:12.74	355.83	9.12	-30.5	-32.7	11.6	5.12e-04	0	43	102	1048576	21	4637
2026-01-04 08:04:15.76	355.44	8.95	-30.5	-32.9	11.5	6.01e-04	0	43	102	1048576	21	4699
2026-01-04 08:04:18.78	355.06	8.79	-30.7	-33.4	11.1	1.28e-03	0	43	102	1048576	21	4897
2026-01-04 08:04:21.81	354.68	8.62	-30.9	-33.9	10.7	2.54e-03	0	43	102	1048576	21	5105
2026-01-04 08:04:24.81	354.30	8.45	-30.7	-33.4	11.0	1.68e-03	0	43	102	1048576	21	4908
2026-01-04 08:04:27.84	353.93	8.28	-30.5	-32.9	11.4	1.03e-03	0	43	102	1048576	21	4728
2026-01-04 08:04:30.86	353.57	8.11	-30.3	-32.1	11.9	6.12e-04	0	43	102	1048576	21	4453
2026-01-04 08:04:33.88	353.20	7.94	-30.3	-32.3	11.7	4.00e-04	0	43	102	1048576	21	4511
2026-01-04 08:04:36.90	352.85	7.77	-30.5	-32.9	11.3	1.80e-03	0	43	102	1048576	21	4738
2026-01-04 08:04:39.93	352.49	7.61	-30.7	-33.4	11.0	2.44e-03	0	43	102	1048576	21	4904
2026-01-04 08:04:42.95	352.14	7.44	-30.9	-34.1	10.4	3.11e-03	0	43	102	1048576	21	5192
2026-01-04 08:04:45.98	351.80	7.27	-30.6	-33.1	11.1	2.30e-03	0	43	102	1048576	21	4813
2026-01-04 08:04:49.00	351.46	7.10	-30.4	-32.4	11.5	7.24e-04	0	43	102	1048576	21	4557
2026-01-04 08:04:52.02	351.12	6.93	-33.7	-46.1	3.8	1.49e+00	0	43	104	1048576	27	14951

#Closed at: 2026-01-04 08:04:52
#Recorded file [1 MB]: D:/data/31010_260104_105614.dat