passes_logs/2026/01/04/R2M6_AANII_01/R2M6_AANII_01__20260104_000134_NOAA_20_JPSS-1_rec.log

#Pass ID: 20260104_000134_NOAA 20 (JPSS-1)
#Satellite: NOAA 20 (JPSS-1)
#Configuration: NOAA 20
#almurnet v.1.7.20240730
#Start time: 2026-01-04 00:01:35

#Version: 2.2.20231116
#Station: R2M6_AANII_01
#Location: 30.233357 lon 59.946436 lat
#TLE: 1 43013U 17073A   26003.41800368  .00000169  00000+0  10117-3 0  9998
#TLE: 2 43013  98.7624 304.4804 0001884  56.1176 304.0179 14.19532918421092

#Time	Az	El	Level	Level2	SNR	BER	BlckErr	Temp	State	Recorded	gain1	gain2
2026-01-04 00:01:35.72	19.89	7.12	-31.7	-38.7	4.8	1.33e+00	0	40	0	0	23	8117
2026-01-04 00:01:38.74	19.95	7.35	-31.9	-39.8	6.2	2.59e-01	0	41	0	1048576	23	8985
2026-01-04 00:01:41.75	20.02	7.58	-31.8	-38.8	6.9	1.97e-01	0	41	0	7340032	23	8126
2026-01-04 00:01:44.78	20.08	7.82	-31.6	-37.9	7.7	1.44e-01	0	41	0	12582912	23	7473
2026-01-04 00:01:47.80	20.15	8.06	-30.9	-36.1	9.8	1.67e-02	0	41	0	18874368	21	6561
2026-01-04 00:01:50.81	20.22	8.30	-30.5	-34.8	10.8	2.86e-03	0	41	0	24117248	21	5900
2026-01-04 00:01:53.83	20.29	8.54	-30.5	-34.7	10.9	3.32e-03	0	41	0	29360128	21	5845
2026-01-04 00:01:56.83	20.36	8.78	-30.4	-34.8	11.3	1.61e-03	0	41	0	35651584	20	5970
2026-01-04 00:01:59.85	20.43	9.03	-30.6	-34.9	10.9	5.59e-03	0	41	0	40894464	21	5925
2026-01-04 00:02:02.85	20.50	9.28	-30.3	-34.6	11.5	3.02e-03	0	41	0	46137344	20	5861
2026-01-04 00:02:05.86	20.57	9.53	-30.3	-34.6	11.5	2.98e-03	0	41	0	52428800	20	5855
2026-01-04 00:02:08.88	20.65	9.79	-30.5	-34.9	11.3	3.03e-03	0	41	0	57671680	20	5997
2026-01-04 00:02:11.90	20.72	10.04	-30.3	-34.4	11.6	1.12e-03	0	42	0	63963136	20	5784
2026-01-04 00:02:14.92	20.80	10.31	-30.0	-33.6	12.3	2.29e-04	0	42	0	69206016	20	5414
2026-01-04 00:02:17.94	20.88	10.57	-30.2	-34.1	11.9	2.20e-03	0	42	0	74448896	20	5629
2026-01-04 00:02:20.96	20.96	10.83	-29.8	-33.4	12.9	2.04e-03	0	42	0	80740352	19	5427
2026-01-04 00:02:23.98	21.04	11.10	-30.0	-33.4	12.5	2.01e-03	0	42	0	85983232	20	5333
2026-01-04 00:02:26.98	21.12	11.37	-29.9	-33.2	12.6	2.03e-03	0	42	0	92274688	20	5245
2026-01-04 00:02:29.99	21.20	11.65	-29.9	-33.1	12.7	2.31e-03	0	42	0	97517568	20	5193
2026-01-04 00:02:33.02	21.28	11.93	-29.8	-33.2	13.1	3.43e-05	0	42	0	102760448	19	5325
2026-01-04 00:02:36.03	21.37	12.21	-29.9	-33.6	12.8	6.40e-05	0	42	0	109051904	19	5487
2026-01-04 00:02:39.05	21.46	12.49	-30.0	-33.3	12.7	7.93e-05	0	42	0	114294784	20	5261
2026-01-04 00:02:42.07	21.54	12.78	-30.2	-33.8	12.3	2.35e-03	0	42	0	120586240	20	5493
2026-01-04 00:02:45.08	21.63	13.07	-30.4	-34.4	11.9	2.28e-03	0	42	0	125829120	20	5756
2026-01-04 00:02:48.09	21.72	13.36	-30.0	-33.4	12.6	2.41e-03	0	42	0	131072000	20	5321
2026-01-04 00:02:51.11	21.82	13.66	-30.3	-34.1	12.1	1.35e-04	0	42	0	137363456	20	5607
2026-01-04 00:02:54.13	21.91	13.96	-29.9	-33.3	13.1	4.11e-05	0	42	0	142606336	19	5373
2026-01-04 00:02:57.12	22.00	14.27	-30.1	-33.5	12.6	8.85e-05	0	42	0	148897792	20	5320
2026-01-04 00:03:00.13	22.10	14.57	-30.2	-34.0	12.3	1.30e-04	0	42	0	154140672	20	5532
2026-01-04 00:03:03.15	22.20	14.89	-30.1	-33.6	12.6	8.46e-05	0	42	0	159383552	20	5358
2026-01-04 00:03:06.17	22.30	15.21	-30.1	-33.6	12.6	1.10e-04	0	42	0	165675008	20	5357
2026-01-04 00:03:09.18	22.41	15.53	-30.0	-33.1	13.0	3.05e-05	0	42	0	170917888	20	5180
2026-01-04 00:03:12.19	22.51	15.85	-30.4	-34.4	12.1	2.53e-04	0	42	0	176160768	20	5697
2026-01-04 00:03:15.20	22.62	16.18	-30.4	-34.4	12.1	2.71e-04	0	42	0	182452224	20	5688
2026-01-04 00:03:18.20	22.72	16.51	-30.7	-34.9	11.4	8.07e-04	0	42	0	187695104	21	5822
2026-01-04 00:03:21.22	22.84	16.85	-30.3	-34.2	12.3	2.44e-04	0	42	0	193986560	20	5603
2026-01-04 00:03:24.23	22.95	17.19	-30.5	-34.1	12.0	3.06e-04	0	42	0	199229440	21	5472
2026-01-04 00:03:27.25	23.07	17.54	-30.3	-34.1	12.4	1.66e-04	0	42	0	204472320	20	5577
2026-01-04 00:03:30.27	23.18	17.90	-30.2	-33.8	12.6	8.69e-05	0	42	0	210763776	20	5421
2026-01-04 00:03:33.28	23.30	18.25	-30.0	-33.2	13.0	2.97e-05	0	42	0	216006656	20	5190
2026-01-04 00:03:36.29	23.43	18.62	-30.0	-33.1	13.1	3.50e-05	0	43	0	222298112	20	5159
2026-01-04 00:03:39.32	23.55	18.99	-30.0	-33.0	13.1	2.74e-05	0	43	0	227540992	20	5141
2026-01-04 00:03:42.33	23.68	19.36	-30.1	-33.4	12.9	4.19e-05	0	42	0	232783872	20	5287
2026-01-04 00:03:45.36	23.81	19.74	-30.0	-33.2	13.0	3.35e-05	0	42	0	239075328	20	5199
2026-01-04 00:03:48.37	23.95	20.13	-30.1	-33.3	13.0	3.28e-05	0	43	0	244318208	20	5232
2026-01-04 00:03:51.38	24.09	20.52	-30.1	-33.3	13.0	3.35e-05	0	43	0	250609664	20	5215
2026-01-04 00:03:54.40	24.23	20.92	-30.2	-33.7	12.8	7.01e-05	0	43	0	255852544	20	5382
2026-01-04 00:03:57.40	24.37	21.32	-30.1	-33.5	13.0	4.42e-05	0	43	0	261095424	20	5288
2026-01-04 00:04:00.42	24.52	21.73	-30.2	-33.7	12.7	6.48e-05	0	43	0	267386880	20	5398
2026-01-04 00:04:03.44	24.67	22.15	-30.2	-33.8	12.7	7.24e-05	0	43	0	272629760	20	5459
2026-01-04 00:04:06.45	24.83	22.57	-30.1	-33.5	12.9	4.11e-05	0	43	0	277872640	20	5292
2026-01-04 00:04:09.46	24.99	23.00	-30.2	-33.7	12.9	2.02e-04	0	43	0	284164096	20	5371
2026-01-04 00:04:12.47	25.15	23.43	-29.9	-32.9	13.4	1.52e-05	0	43	0	289406976	20	5062
2026-01-04 00:04:15.49	25.32	23.88	-30.0	-33.0	13.3	2.36e-05	0	43	0	295698432	20	5117
2026-01-04 00:04:18.51	25.49	24.33	-30.0	-33.1	13.3	1.90e-05	0	43	0	300941312	20	5150
2026-01-04 00:04:21.52	25.67	24.79	-30.0	-33.1	13.3	2.44e-05	0	43	0	306184192	20	5127
2026-01-04 00:04:24.55	25.85	25.26	-30.1	-33.2	13.2	2.13e-05	0	43	0	312475648	20	5182
2026-01-04 00:04:27.56	26.04	25.74	-30.1	-33.2	13.3	1.49e-04	0	43	0	317718528	20	5170
2026-01-04 00:04:30.57	26.23	26.22	-30.0	-33.1	12.6	1.36e-04	0	43	0	324009984	20	5144
2026-01-04 00:04:33.59	26.43	26.72	-29.9	-33.3	13.6	3.20e-05	0	43	0	329252864	19	5310
2026-01-04 00:04:36.60	26.63	27.22	-29.9	-32.7	13.6	1.60e-05	0	43	0	334495744	20	4993
2026-01-04 00:04:39.62	26.84	27.73	-29.9	-32.8	13.6	4.23e-04	0	43	0	340787200	20	5006
2026-01-04 00:04:42.64	27.06	28.25	-30.0	-33.0	13.4	2.27e-04	0	43	0	346030080	20	5087
2026-01-04 00:04:45.66	27.28	28.78	-30.2	-33.4	13.2	1.06e-05	0	43	0	352321536	20	5250
2026-01-04 00:04:48.68	27.51	29.32	-30.4	-34.1	12.8	6.10e-05	0	43	0	357564416	20	5514
2026-01-04 00:04:51.69	27.75	29.87	-30.7	-34.4	12.3	1.80e-04	0	43	0	362807296	21	5508
2026-01-04 00:04:54.70	27.99	30.43	-30.8	-34.8	12.0	4.22e-04	0	43	0	369098752	21	5697
2026-01-04 00:04:57.71	28.25	31.00	-31.0	-35.0	11.5	9.55e-04	0	43	0	374341632	22	5651
2026-01-04 00:05:00.72	28.51	31.59	-31.4	-36.1	10.7	2.44e-03	0	43	0	380633088	22	6192
2026-01-04 00:05:03.74	28.78	32.18	-31.4	-35.6	10.7	3.78e-03	0	43	0	385875968	23	5861
2026-01-04 00:05:06.75	29.06	32.78	-31.3	-35.2	11.0	1.99e-03	0	43	0	391118848	23	5659
2026-01-04 00:05:09.76	29.36	33.40	-31.2	-34.9	11.2	1.22e-03	0	43	0	397410304	23	5529
2026-01-04 00:05:12.78	29.66	34.03	-30.7	-33.9	12.3	1.95e-04	0	43	0	402653184	22	5208
2026-01-04 00:05:15.79	29.97	34.67	-30.8	-34.2	12.2	2.84e-04	0	43	0	408944640	22	5294
2026-01-04 00:05:18.81	30.30	35.32	-31.0	-34.7	11.9	3.06e-04	0	43	0	414187520	22	5501
2026-01-04 00:05:21.83	30.64	35.99	-31.2	-35.2	11.5	6.66e-04	0	43	0	419430400	22	5751
2026-01-04 00:05:24.85	31.00	36.67	-31.3	-35.8	11.1	1.98e-03	0	43	0	425721856	22	6008
2026-01-04 00:05:27.87	31.36	37.36	-31.5	-36.0	10.6	3.44e-03	0	43	0	430964736	23	6015
2026-01-04 00:05:30.88	31.75	38.06	-31.6	-36.3	10.3	4.66e-03	0	43	0	437256192	23	6146
2026-01-04 00:05:33.90	32.15	38.79	-31.5	-36.6	9.8	7.83e-03	0	43	0	442499072	23	6491
2026-01-04 00:05:36.92	32.57	39.52	-32.0	-37.2	9.2	1.70e-02	0	43	0	447741952	24	6539
2026-01-04 00:05:39.94	33.01	40.27	-32.0	-37.2	9.3	1.82e-02	0	43	0	454033408	24	6526
2026-01-04 00:05:42.96	33.46	41.03	-32.1	-37.3	9.2	1.72e-02	0	43	0	459276288	24	6592
2026-01-04 00:05:45.97	33.94	41.81	-31.9	-37.2	9.7	1.15e-02	0	43	0	464519168	23	6632
2026-01-04 00:05:48.97	34.44	42.59	-31.7	-36.5	10.1	5.43e-03	0	43	0	470810624	23	6240
2026-01-04 00:05:51.99	34.97	43.40	-31.5	-36.1	11.0	1.94e-03	0	43	0	476053504	22	6157
2026-01-04 00:05:55.00	35.52	44.22	-31.6	-36.0	10.7	3.38e-03	0	43	0	482344960	23	6010
2026-01-04 00:05:58.02	36.11	45.05	-31.6	-35.9	10.8	2.82e-03	0	43	0	487587840	23	5956
2026-01-04 00:06:01.04	36.72	45.90	-31.1	-35.0	11.8	5.47e-04	0	43	0	492830720	22	5647
2026-01-04 00:06:04.06	37.37	46.77	-31.3	-35.7	11.3	2.13e-03	0	43	0	499122176	22	5928
2026-01-04 00:06:07.07	38.06	47.65	-31.4	-35.9	11.1	2.17e-03	0	43	0	504365056	22	6019
2026-01-04 00:06:10.10	38.78	48.54	-31.3	-35.4	11.5	1.17e-03	0	43	0	510656512	22	5811
2026-01-04 00:06:13.10	39.54	49.44	-31.1	-35.0	11.8	8.64e-04	0	43	0	515899392	22	5613
2026-01-04 00:06:16.11	40.36	50.36	-30.8	-33.9	12.6	3.21e-04	0	43	0	521142272	22	5159
2026-01-04 00:06:19.11	41.21	51.28	-29.8	-32.4	14.2	9.23e-05	0	43	0	527433728	20	4824
2026-01-04 00:06:22.13	42.13	52.23	-29.0	-31.3	15.6	8.56e-04	0	43	0	532676608	18	4658
2026-01-04 00:06:25.15	43.11	53.18	-27.9	-29.6	17.1	4.74e-04	0	43	0	538968064	16	4376
2026-01-04 00:06:28.16	44.15	54.14	-28.0	-29.9	17.0	0.00e+00	0	43	0	544210944	16	4465
2026-01-04 00:06:31.18	45.27	55.12	-28.7	-30.9	16.2	1.42e-04	0	43	0	549453824	17	4645
2026-01-04 00:06:34.18	46.46	56.09	-29.5	-31.9	15.0	8.60e-04	0	43	0	555745280	19	4757
2026-01-04 00:06:37.19	47.74	57.07	-29.7	-32.3	14.7	0.00e+00	0	43	0	560988160	19	4893
2026-01-04 00:06:40.21	49.11	58.06	-30.1	-33.0	14.0	1.50e-06	0	43	0	566231040	20	5031
2026-01-04 00:06:43.22	50.59	59.04	-29.8	-32.6	14.6	0.00e+00	0	43	0	572522496	19	4972
2026-01-04 00:06:46.24	52.18	60.02	-29.1	-31.4	15.7	1.73e-03	0	43	0	577765376	18	4696
2026-01-04 00:06:49.26	53.90	61.00	-29.1	-31.5	15.6	1.31e-03	0	43	0	584056832	18	4717
2026-01-04 00:06:52.28	55.76	61.97	-28.9	-31.0	15.9	0.00e+00	0	43	0	589299712	18	4556
2026-01-04 00:06:55.29	57.76	62.93	-29.3	-31.9	15.4	0.00e+00	0	43	0	594542592	18	4869
2026-01-04 00:06:58.31	59.94	63.86	-29.9	-32.9	14.5	0.00e+00	0	43	0	600834048	19	5067
2026-01-04 00:07:01.32	62.28	64.77	-30.2	-32.7	13.9	9.90e-06	0	43	0	606076928	21	4809
2026-01-04 00:07:04.35	64.83	65.66	-30.4	-33.9	13.5	3.80e-06	0	43	0	612368384	20	5347
2026-01-04 00:07:07.36	67.58	66.50	-30.1	-32.9	14.2	1.50e-06	0	43	0	617611264	20	4972
2026-01-04 00:07:10.38	70.55	67.31	-30.3	-33.5	13.8	2.20e-06	0	43	0	622854144	20	5203
2026-01-04 00:07:13.40	73.76	68.05	-30.8	-34.5	12.7	6.02e-05	0	43	0	629145600	21	5474
2026-01-04 00:07:16.42	77.19	68.74	-30.8	-33.8	12.8	1.25e-04	0	43	0	634388480	22	5103
2026-01-04 00:07:19.44	80.87	69.36	-31.0	-34.5	12.5	9.46e-05	0	43	0	640679936	22	5383
2026-01-04 00:07:22.46	84.77	69.90	-30.8	-33.9	12.8	1.03e-04	0	43	0	645922816	22	5127
2026-01-04 00:07:25.46	88.85	70.34	-31.1	-34.7	12.3	6.71e-05	0	43	0	651165696	22	5427
2026-01-04 00:07:28.48	93.14	70.70	-30.0	-32.6	14.3	4.50e-06	0	43	0	657457152	20	4865
2026-01-04 00:07:31.50	97.58	70.95	-28.9	-30.9	16.0	1.06e-04	0	43	0	662700032	18	4535
2026-01-04 00:07:34.51	102.10	71.09	-29.3	-31.7	15.5	0.00e+00	0	43	0	668991488	18	4794
2026-01-04 00:07:37.53	106.68	71.11	-29.4	-32.1	15.4	0.00e+00	0	43	0	674234368	18	4899
2026-01-04 00:07:40.55	111.24	71.03	-29.6	-32.0	15.1	0.00e+00	0	43	0	679477248	19	4770
2026-01-04 00:07:43.57	115.74	70.84	-30.5	-33.6	13.5	8.30e-06	0	43	0	685768704	21	5116
2026-01-04 00:07:46.58	120.09	70.53	-30.8	-34.2	13.0	1.60e-05	0	43	0	691011584	21	5362
2026-01-04 00:07:49.59	124.29	70.13	-30.8	-34.3	13.0	3.66e-05	0	43	0	697303040	21	5397
2026-01-04 00:07:52.62	128.31	69.64	-30.8	-34.3	12.9	2.59e-05	0	43	0	702545920	21	5391
2026-01-04 00:07:55.63	132.09	69.06	-30.6	-33.7	13.3	1.60e-05	0	43	0	707788800	21	5161
2026-01-04 00:07:58.64	135.64	68.41	-31.0	-34.8	12.7	2.89e-05	0	43	0	714080256	21	5598
2026-01-04 00:08:01.66	138.96	67.69	-31.5	-35.9	11.5	3.47e-04	0	43	0	719323136	22	5991
2026-01-04 00:08:04.67	142.04	66.91	-30.9	-34.2	12.8	1.24e-04	0	43	0	725614592	22	5224
2026-01-04 00:08:07.69	144.91	66.08	-32.0	-36.9	10.4	3.04e-03	0	43	0	730857472	23	6388
2026-01-04 00:08:10.71	147.56	65.22	-30.7	-33.6	13.2	2.13e-05	0	43	0	736100352	22	5006
2026-01-04 00:08:13.73	150.01	64.32	-30.0	-32.1	14.3	3.80e-06	0	43	0	742391808	21	4599
2026-01-04 00:08:16.75	152.28	63.39	-28.1	-29.5	17.2	0.00e+00	0	43	0	747634688	17	4216
2026-01-04 00:08:19.77	154.37	62.44	-27.6	-28.8	17.8	0.00e+00	0	43	0	752877568	16	4150
2026-01-04 00:08:22.78	156.30	61.47	-27.9	-30.0	17.3	0.00e+00	0	43	0	759169024	15	4600
2026-01-04 00:08:25.81	158.09	60.49	-28.8	-30.8	16.1	0.00e+00	0	43	0	764411904	18	4497
2026-01-04 00:08:28.84	159.75	59.51	-30.3	-33.6	13.7	7.00e-07	0	43	0	770703360	20	5252
2026-01-04 00:08:31.85	161.28	58.52	-29.1	-31.3	15.8	0.00e+00	0	43	0	775946240	18	4657
2026-01-04 00:08:34.87	162.71	57.53	-31.6	-35.9	11.0	6.91e-04	0	43	0	781189120	23	5887
2026-01-04 00:08:37.88	164.04	56.54	-28.0	-29.1	17.3	0.00e+00	0	43	0	787480576	17	4118
2026-01-04 00:08:40.90	165.27	55.56	-29.9	-32.9	14.5	3.59e-04	0	43	0	792723456	19	5087
2026-01-04 00:08:43.90	166.42	54.59	-26.9	-27.9	18.4	0.00e+00	0	43	0	799014912	15	4023
2026-01-04 00:08:46.93	167.51	53.61	-28.6	-30.7	16.4	0.00e+00	0	43	0	804257792	17	4573
2026-01-04 00:08:49.93	168.51	52.66	-28.3	-29.9	16.9	0.00e+00	0	43	0	809500672	17	4344
2026-01-04 00:08:52.95	169.46	51.70	-29.8	-32.5	14.8	3.00e-06	0	43	0	815792128	19	4952
2026-01-04 00:08:55.97	170.35	50.76	-31.3	-35.5	11.7	9.68e-05	0	43	0	821035008	22	5790
2026-01-04 00:08:58.99	171.19	49.83	-31.1	-34.4	12.1	6.59e-04	0	43	0	827326464	23	5215
2026-01-04 00:09:02.01	171.98	48.92	-32.9	-40.0	7.1	4.59e-02	0	43	0	832569344	25	8164
2026-01-04 00:09:05.03	172.72	48.01	-31.9	-35.8	10.3	9.01e-03	0	43	0	837812224	25	5649
2026-01-04 00:09:08.05	173.43	47.13	-31.7	-35.8	10.7	3.78e-03	0	43	0	844103680	24	5728
2026-01-04 00:09:11.07	174.09	46.25	-32.3	-37.7	9.3	1.38e-02	0	43	0	849346560	24	6711
2026-01-04 00:09:14.10	174.72	45.39	-31.3	-34.4	11.6	1.79e-03	0	43	0	855638016	24	5161
2026-01-04 00:09:17.12	175.32	44.54	-30.2	-32.8	13.8	4.50e-06	0	43	0	860880896	21	4846
2026-01-04 00:09:20.14	175.89	43.71	-31.7	-36.1	10.8	1.64e-03	0	43	0	866123776	23	5994
2026-01-04 00:09:23.15	176.43	42.90	-30.1	-32.5	13.9	3.80e-06	0	43	0	872415232	21	4762
2026-01-04 00:09:26.16	176.94	42.10	-28.5	-30.0	16.4	0.00e+00	0	43	0	877658112	18	4269
2026-01-04 00:09:29.18	177.43	41.31	-29.8	-32.8	14.4	2.67e-05	0	43	0	883949568	19	5085
2026-01-04 00:09:32.20	177.90	40.54	-31.4	-35.4	11.2	1.90e-03	0	43	0	889192448	23	5698
2026-01-04 00:09:35.21	178.34	39.78	-30.1	-32.5	13.8	1.29e-04	0	43	0	894435328	21	4758
2026-01-04 00:09:38.22	178.77	39.04	-30.3	-33.6	13.5	4.50e-06	0	43	0	900726784	20	5272
2026-01-04 00:09:41.25	179.18	38.31	-31.3	-35.6	11.5	6.77e-04	0	43	0	905969664	22	5897
2026-01-04 00:09:44.26	179.57	37.60	-31.7	-36.3	10.5	4.57e-03	0	43	0	912261120	23	6119
2026-01-04 00:09:47.28	179.95	36.89	-30.2	-33.4	13.5	3.43e-05	0	43	0	917504000	20	5193
2026-01-04 00:09:50.30	180.31	36.20	-29.9	-33.1	14.1	7.00e-07	0	43	0	922746880	19	5176
2026-01-04 00:09:53.32	180.65	35.53	-30.2	-33.4	13.5	1.35e-03	0	43	0	929038336	20	5193
2026-01-04 00:09:56.34	180.98	34.87	-30.5	-34.1	13.0	1.59e-03	0	43	0	934281216	20	5490
2026-01-04 00:09:59.35	181.30	34.22	-31.0	-35.0	12.1	1.47e-04	0	43	0	940572672	21	5749
2026-01-04 00:10:02.37	181.61	33.58	-31.2	-35.2	11.6	8.17e-04	0	43	0	945815552	22	5716
2026-01-04 00:10:05.38	181.91	32.96	-30.8	-34.6	12.3	1.56e-04	0	43	0	951058432	21	5570
2026-01-04 00:10:08.40	182.19	32.35	-30.9	-34.8	12.1	6.23e-04	0	43	0	957349888	21	5676
2026-01-04 00:10:11.42	182.47	31.74	-31.2	-35.2	11.6	7.52e-04	0	43	0	962592768	22	5715
2026-01-04 00:10:14.43	182.73	31.16	-31.5	-35.8	10.8	2.53e-03	0	43	0	968884224	23	5894
2026-01-04 00:10:17.44	182.99	30.58	-31.6	-36.1	10.6	4.27e-03	0	43	0	974127104	23	6037
2026-01-04 00:10:20.45	183.24	30.01	-31.6	-36.1	10.5	5.40e-03	0	43	0	979369984	23	6079
2026-01-04 00:10:23.47	183.48	29.45	-30.9	-34.6	12.0	1.90e-03	0	43	0	985661440	22	5465
2026-01-04 00:10:26.49	183.71	28.91	-30.7	-34.2	12.5	5.35e-04	0	43	0	990904320	21	5410
2026-01-04 00:10:29.49	183.94	28.37	-30.6	-33.9	12.8	1.79e-03	0	43	0	996147200	21	5282
2026-01-04 00:10:32.51	184.16	27.85	-29.8	-32.8	14.2	1.96e-03	0	43	0	1002438656	19	5100
2026-01-04 00:10:35.52	184.37	27.33	-30.0	-32.9	13.7	2.36e-03	0	43	0	1007681536	20	5018
2026-01-04 00:10:38.54	184.57	26.82	-29.9	-33.1	13.9	2.36e-03	0	43	0	1013972992	19	5200
2026-01-04 00:10:41.55	184.77	26.32	-30.2	-33.4	13.3	3.71e-04	0	43	0	1019215872	20	5236
2026-01-04 00:10:44.56	184.96	25.83	-30.4	-34.1	12.9	4.16e-04	0	43	0	1024458752	20	5478
2026-01-04 00:10:47.57	185.15	25.35	-29.8	-32.9	14.0	3.75e-04	0	43	0	1030750208	19	5138
2026-01-04 00:10:50.59	185.34	24.88	-29.6	-32.4	14.4	3.49e-04	0	43	0	1035993088	19	4935
2026-01-04 00:10:53.60	185.51	24.41	-29.3	-32.1	14.8	0.00e+00	0	43	0	1042284544	18	4965
2026-01-04 00:10:56.62	185.69	23.95	-29.3	-32.0	14.9	1.94e-03	0	43	0	1047527424	18	4925
2026-01-04 00:10:59.63	185.85	23.50	-29.2	-31.7	15.0	2.62e-04	0	43	0	1052770304	18	4843
2026-01-04 00:11:02.63	186.02	23.06	-29.0	-31.4	15.2	2.82e-04	0	43	0	1059061760	18	4737
2026-01-04 00:11:05.64	186.18	22.63	-29.0	-31.9	15.2	2.65e-04	0	43	0	1064304640	17	5000
2026-01-04 00:11:08.67	186.33	22.20	-29.2	-31.9	14.9	2.80e-04	0	43	0	1069547520	18	4907
2026-01-04 00:11:11.69	186.48	21.78	-29.3	-32.2	14.6	7.00e-07	0	43	0	1075838976	18	5024
2026-01-04 00:11:14.70	186.63	21.36	-29.7	-32.7	14.1	7.00e-07	0	43	0	1081081856	19	5073
2026-01-04 00:11:17.71	186.78	20.96	-29.4	-32.4	14.5	7.00e-07	0	43	0	1087373312	18	5073
2026-01-04 00:11:20.73	186.92	20.55	-29.3	-32.1	14.7	1.99e-04	0	43	0	1092616192	18	4959
2026-01-04 00:11:23.74	187.05	20.16	-29.2	-31.8	14.9	1.90e-04	0	43	0	1097859072	18	4868
2026-01-04 00:11:26.76	187.19	19.77	-29.2	-31.9	14.8	3.22e-04	0	43	0	1104150528	18	4896
2026-01-04 00:11:29.77	187.32	19.39	-29.4	-32.3	14.5	1.50e-06	0	43	0	1109393408	18	5057
2026-01-04 00:11:32.79	187.45	19.01	-29.7	-32.6	14.0	7.00e-07	0	43	0	1115684864	19	5055
2026-01-04 00:11:35.81	187.57	18.63	-29.8	-32.9	13.8	4.27e-05	0	43	0	1120927744	19	5169
2026-01-04 00:11:38.82	187.70	18.27	-30.2	-33.7	12.8	9.68e-05	0	43	0	1126170624	20	5391
2026-01-04 00:11:41.84	187.82	17.91	-30.3	-33.8	12.8	7.09e-05	0	43	0	1132462080	20	5409
2026-01-04 00:11:44.85	187.93	17.55	-30.2	-33.5	13.0	5.41e-05	0	43	0	1137704960	20	5297
2026-01-04 00:11:47.87	188.05	17.20	-29.9	-32.9	13.3	1.22e-05	0	43	0	1143996416	20	5064
2026-01-04 00:11:50.89	188.16	16.85	-30.1	-33.4	13.0	3.73e-05	0	43	0	1149239296	20	5269
2026-01-04 00:11:53.90	188.27	16.51	-30.2	-33.6	12.9	4.95e-05	0	43	0	1154482176	20	5324
2026-01-04 00:11:56.91	188.38	16.17	-30.1	-33.4	12.9	4.04e-05	0	43	0	1160773632	20	5251
2026-01-04 00:11:59.93	188.48	15.84	-30.0	-33.1	13.2	1.60e-05	0	43	0	1166016512	20	5138
2026-01-04 00:12:02.94	188.59	15.51	-30.1	-33.4	12.9	3.73e-05	0	43	0	1172307968	20	5259
2026-01-04 00:12:05.96	188.69	15.19	-30.2	-33.7	12.7	5.34e-05	0	43	0	1177550848	20	5393
2026-01-04 00:12:08.97	188.79	14.87	-30.5	-34.5	12.1	1.23e-04	0	43	0	1182793728	20	5739
2026-01-04 00:12:11.99	188.89	14.55	-30.2	-33.7	12.7	6.86e-05	0	43	0	1189085184	20	5384
2026-01-04 00:12:15.00	188.98	14.24	-30.2	-33.6	12.7	5.64e-05	0	43	0	1194328064	20	5378
2026-01-04 00:12:18.01	189.08	13.93	-30.2	-33.7	12.7	1.05e-04	0	43	0	1199570944	20	5389
2026-01-04 00:12:21.03	189.17	13.63	-30.0	-33.1	13.0	4.11e-05	0	43	0	1205862400	20	5162
2026-01-04 00:12:24.04	189.26	13.33	-30.0	-33.1	13.0	3.28e-05	0	43	0	1211105280	20	5160
2026-01-04 00:12:27.05	189.35	13.03	-29.9	-32.9	13.1	5.03e-05	0	43	0	1217396736	20	5107
2026-01-04 00:12:30.06	189.44	12.74	-29.9	-33.0	13.0	4.88e-05	0	43	0	1222639616	20	5139
2026-01-04 00:12:33.08	189.52	12.45	-29.0	-32.4	12.6	3.12e-05	0	43	0	1227882496	20	5316
2026-01-04 00:12:36.10	189.61	12.16	-30.0	-33.6	12.4	5.79e-05	0	43	0	1234173952	19	5475
2026-01-04 00:12:39.12	189.69	11.88	-30.0	-33.3	12.7	5.41e-05	0	43	0	1239416832	20	5268
2026-01-04 00:12:42.13	189.77	11.60	-30.2	-33.8	12.4	1.05e-04	0	43	0	1245708288	20	5458
2026-01-04 00:12:45.14	189.85	11.32	-30.1	-33.6	12.6	9.76e-05	0	43	0	1250951168	20	5367
2026-01-04 00:12:48.14	189.93	11.05	-30.1	-33.6	12.5	1.42e-03	0	43	0	1256194048	20	5403
2026-01-04 00:12:51.15	190.01	10.78	-30.1	-33.6	12.5	1.56e-03	0	43	0	1262485504	20	5375
2026-01-04 00:12:54.16	190.08	10.52	-30.2	-33.8	12.3	1.35e-04	0	43	0	1267728384	20	5470
2026-01-04 00:12:57.17	190.16	10.25	-30.2	-33.9	12.2	1.38e-04	0	43	0	1272971264	20	5530
2026-01-04 00:13:00.18	190.23	9.99	-30.3	-34.2	12.0	3.22e-04	0	43	0	1279262720	20	5673
2026-01-04 00:13:03.19	190.31	9.73	-30.4	-34.7	11.6	2.16e-03	0	43	0	1284505600	20	5883
2026-01-04 00:13:06.21	190.38	9.47	-30.6	-34.8	11.2	3.54e-03	0	43	0	1290797056	21	5821
2026-01-04 00:13:09.23	190.45	9.22	-30.6	-34.7	11.3	3.55e-03	0	43	0	1296039936	21	5782
2026-01-04 00:13:12.24	190.52	8.97	-30.7	-35.1	10.9	3.95e-03	0	43	0	1301282816	21	5961
2026-01-04 00:13:15.26	190.59	8.72	-30.8	-35.4	10.7	5.64e-03	0	43	0	1307574272	21	6111
2026-01-04 00:13:18.28	190.66	8.47	-30.5	-34.7	11.1	3.35e-03	0	43	0	1312817152	21	5784
2026-01-04 00:13:21.30	190.72	8.23	-30.4	-34.6	11.5	8.60e-04	0	43	0	1319108608	20	5882
2026-01-04 00:13:24.31	190.79	7.98	-30.7	-35.4	10.5	4.14e-03	0	43	0	1324351488	21	6149
2026-01-04 00:13:27.33	190.85	7.74	-31.0	-35.9	9.7	8.28e-03	0	43	0	1329594368	22	6311
2026-01-04 00:13:30.35	190.92	7.51	-31.0	-35.9	9.8	1.31e-02	0	43	0	1335885824	22	6322
2026-01-04 00:13:33.37	190.98	7.27	-31.2	-36.4	9.3	1.92e-02	0	43	0	1341128704	22	6611
2026-01-04 00:13:36.39	191.04	7.04	-33.0	-47.1	3.8	1.49e+00	0	43	104	1345323008	26	18239

#Closed at: 2026-01-04 00:13:37
#Recorded file [1345 MB]: D:/data/31010_260104_030137.dat