passes_logs/2026/01/04/R2M6_AANII_01/R2M6_AANII_01__20260104_012112_SUOMI_NPP_rec.log

#Pass ID: 20260104_012112_SUOMI NPP
#Satellite: SUOMI NPP
#Configuration: NPP
#almurnet v.1.7.20240730
#Start time: 2026-01-04 01:21:12

#Version: 2.2.20231116
#Station: R2M6_AANII_01
#Location: 30.233357 lon 59.946436 lat
#TLE: 1 37849U 11061A   26001.07732418  .00000182  00000+0  10735-3 0  9990
#TLE: 2 37849  98.7795 303.2470 0002580  87.2016 272.9455 14.19520779734739

#Time	Az	El	Level	Level2	SNR	BER	BlckErr	Temp	State	Recorded	gain1	gain2
2026-01-04 01:21:12.51	13.92	6.97	-31.6	-36.0	5.1	1.27e+00	0	41	0	0	23	5921
2026-01-04 01:21:15.51	13.78	7.19	-31.7	-36.1	8.1	5.80e-02	0	41	102	1048576	23	6000
2026-01-04 01:21:18.53	13.64	7.42	-31.7	-36.1	8.2	7.54e-02	0	41	102	1048576	23	5952
2026-01-04 01:21:21.55	13.50	7.64	-31.5	-35.2	9.0	2.74e-02	0	41	102	1048576	23	5500
2026-01-04 01:21:24.57	13.36	7.87	-30.9	-33.7	10.5	8.08e-03	0	41	102	1048576	22	4939
2026-01-04 01:21:27.59	13.21	8.10	-30.7	-33.3	11.1	2.23e-03	0	41	102	1048576	21	4885
2026-01-04 01:21:30.62	13.06	8.34	-30.4	-33.0	11.8	8.32e-04	0	41	102	1048576	20	4844
2026-01-04 01:21:33.64	12.91	8.57	-30.4	-33.0	11.8	1.12e-03	0	41	102	1048576	20	4828
2026-01-04 01:21:36.66	12.75	8.81	-30.4	-32.5	11.8	5.48e-04	0	41	102	1048576	21	4574
2026-01-04 01:21:39.67	12.60	9.04	-30.5	-32.6	11.8	3.68e-04	0	41	102	1048576	21	4604
2026-01-04 01:21:42.69	12.44	9.29	-30.5	-33.0	11.4	5.59e-04	0	41	102	1048576	20	4835
2026-01-04 01:21:45.71	12.27	9.53	-30.6	-33.0	11.5	8.44e-04	0	42	102	1048576	21	4740
2026-01-04 01:21:48.72	12.11	9.77	-30.6	-32.9	11.6	3.24e-03	0	41	102	1048576	21	4705
2026-01-04 01:21:51.74	11.94	10.02	-30.8	-33.7	11.1	1.17e-03	0	42	102	1048576	21	4984
2026-01-04 01:21:54.76	11.77	10.27	-30.4	-32.7	12.1	3.87e-04	0	42	102	1048576	20	4708
2026-01-04 01:21:57.78	11.59	10.52	-30.3	-32.4	12.4	1.30e-04	0	42	102	1048576	20	4615
2026-01-04 01:22:00.80	11.41	10.77	-30.3	-32.4	12.4	1.40e-04	0	42	102	1048576	20	4608
2026-01-04 01:22:03.83	11.23	11.03	-30.2	-32.1	12.6	2.75e-03	0	42	102	1048576	20	4499
2026-01-04 01:22:06.85	11.04	11.29	-30.2	-32.1	12.6	2.53e-03	0	42	102	1048576	20	4500
2026-01-04 01:22:09.87	10.85	11.55	-30.2	-32.2	12.6	2.76e-03	0	42	102	1048576	20	4514
2026-01-04 01:22:12.89	10.66	11.81	-30.2	-32.2	12.6	2.65e-03	0	42	102	1048576	20	4521
2026-01-04 01:22:15.92	10.47	12.08	-30.1	-31.8	12.9	2.37e-03	0	42	102	1048576	20	4389
2026-01-04 01:22:18.92	10.27	12.35	-30.4	-32.6	12.4	2.59e-03	0	42	102	1048576	20	4664
2026-01-04 01:22:21.95	10.06	12.62	-30.1	-31.9	12.9	5.34e-05	0	42	102	1048576	20	4425
2026-01-04 01:22:24.97	9.85	12.90	-30.3	-32.3	12.6	7.09e-05	0	42	102	1048576	20	4569
2026-01-04 01:22:27.98	9.64	13.17	-30.4	-32.7	12.4	2.63e-03	0	42	102	1048576	20	4683
2026-01-04 01:22:31.01	9.42	13.45	-30.7	-33.1	11.8	2.76e-03	0	42	102	1048576	21	4737
2026-01-04 01:22:34.03	9.20	13.73	-30.6	-32.6	12.1	2.65e-03	0	42	102	1048576	21	4565
2026-01-04 01:22:37.05	8.98	14.02	-30.6	-32.6	12.0	4.45e-04	0	42	102	1048576	21	4573
2026-01-04 01:22:40.07	8.75	14.31	-30.3	-31.9	12.6	1.85e-04	0	42	102	1048576	21	4329
2026-01-04 01:22:43.08	8.51	14.60	-30.3	-32.3	12.7	7.01e-05	0	42	102	1048576	20	4535
2026-01-04 01:22:46.11	8.27	14.89	-30.3	-32.3	12.7	9.23e-05	0	43	102	1048576	20	4559
2026-01-04 01:22:49.13	8.03	15.19	-30.3	-32.3	12.7	5.34e-05	0	43	102	1048576	20	4555
2026-01-04 01:22:52.15	7.78	15.49	-30.2	-32.1	12.9	5.49e-05	0	43	102	1048576	20	4465
2026-01-04 01:22:55.17	7.52	15.79	-30.3	-32.4	12.6	7.40e-05	0	42	102	1048576	20	4548
2026-01-04 01:22:58.19	7.26	16.10	-30.4	-32.6	12.7	1.96e-04	0	42	102	1048576	20	4611
2026-01-04 01:23:01.22	7.00	16.41	-30.3	-32.2	12.9	2.17e-04	0	43	102	1048576	20	4484
2026-01-04 01:23:04.24	6.72	16.72	-30.3	-31.8	12.9	7.24e-05	0	43	102	1048576	21	4261
2026-01-04 01:23:07.26	6.45	17.04	-30.3	-32.2	12.9	2.89e-05	0	43	102	1048576	20	4482
2026-01-04 01:23:10.29	6.16	17.36	-30.0	-31.5	13.4	8.30e-06	0	43	102	1048576	20	4255
2026-01-04 01:23:13.31	5.87	17.68	-30.0	-31.3	13.5	9.10e-06	0	43	102	1048576	20	4204
2026-01-04 01:23:16.33	5.57	18.01	-30.0	-31.5	13.4	1.65e-04	0	43	102	1048576	20	4258
2026-01-04 01:23:19.34	5.27	18.34	-30.1	-31.7	13.3	1.80e-04	0	43	102	1048576	20	4336
2026-01-04 01:23:22.36	4.96	18.67	-30.3	-32.1	13.0	1.65e-04	0	42	102	1048576	20	4462
2026-01-04 01:23:25.38	4.64	19.01	-30.5	-32.3	12.6	2.57e-04	0	43	102	1048576	21	4415
2026-01-04 01:23:28.40	4.31	19.35	-30.4	-32.6	12.8	1.74e-04	0	43	102	1048576	20	4609
2026-01-04 01:23:31.42	3.98	19.70	-30.7	-32.7	12.4	1.39e-04	0	43	102	1048576	21	4547
2026-01-04 01:23:34.44	3.64	20.05	-30.6	-32.6	12.5	1.20e-04	0	43	102	1048576	21	4510
2026-01-04 01:23:37.46	3.29	20.40	-30.7	-32.8	12.4	1.21e-04	0	43	102	1048576	21	4573
2026-01-04 01:23:40.48	2.93	20.76	-30.6	-32.5	12.6	2.40e-04	0	43	102	1048576	21	4466
2026-01-04 01:23:43.50	2.57	21.12	-30.6	-32.6	12.6	2.21e-04	0	43	102	1048576	21	4495
2026-01-04 01:23:46.52	2.19	21.48	-30.6	-32.5	12.6	2.02e-04	0	43	102	1048576	21	4481
2026-01-04 01:23:49.53	1.81	21.85	-30.5	-32.1	12.9	5.34e-05	0	43	102	1048576	21	4329
2026-01-04 01:23:52.56	1.41	22.22	-30.7	-32.8	12.3	9.30e-05	0	43	102	1048576	21	4578
2026-01-04 01:23:55.57	1.01	22.60	-30.6	-32.5	12.5	1.24e-04	0	43	102	1048576	21	4487
2026-01-04 01:23:58.58	0.60	22.98	-30.7	-32.9	12.3	1.50e-04	0	43	102	1048576	21	4624
2026-01-04 01:24:01.60	0.17	23.36	-30.8	-33.1	12.2	2.14e-04	0	43	102	1048576	21	4694
2026-01-04 01:24:04.62	359.74	23.75	-30.7	-32.6	12.5	1.52e-04	0	43	102	1048576	21	4518
2026-01-04 01:24:07.65	359.29	24.14	-31.0	-33.7	11.9	2.14e-04	0	43	102	1048576	21	4893
2026-01-04 01:24:10.66	358.83	24.54	-31.3	-34.2	10.4	4.26e-04	0	43	102	1048576	22	4993
2026-01-04 01:24:13.69	358.36	24.94	-30.9	-33.2	12.0	8.91e-04	0	43	102	1048576	21	4733
2026-01-04 01:24:16.70	357.88	25.34	-30.6	-32.6	12.6	1.51e-04	0	43	102	1048576	21	4514
2026-01-04 01:24:19.73	357.38	25.75	-30.3	-32.2	13.1	4.57e-05	0	43	102	1048576	20	4478
2026-01-04 01:24:22.74	356.87	26.16	-31.0	-33.6	11.9	2.26e-04	0	43	102	1048576	21	4883
2026-01-04 01:24:25.75	356.35	26.58	-31.2	-33.9	11.4	1.10e-03	0	43	102	1048576	22	4887
2026-01-04 01:24:28.77	355.82	27.00	-30.7	-32.7	12.6	2.01e-03	0	43	102	1048576	21	4535
2026-01-04 01:24:31.78	355.27	27.42	-30.9	-33.2	12.2	1.99e-03	0	43	102	1048576	21	4730
2026-01-04 01:24:34.81	354.70	27.85	-30.3	-31.6	13.3	1.93e-03	0	43	102	1048576	21	4191
2026-01-04 01:24:37.82	354.12	28.28	-30.8	-32.9	12.5	1.82e-03	0	43	102	1048576	21	4589
2026-01-04 01:24:40.84	353.52	28.71	-30.8	-32.9	12.5	1.51e-03	0	43	102	1048576	21	4609
2026-01-04 01:24:43.86	352.90	29.15	-30.9	-33.3	12.2	1.48e-03	0	43	102	1048576	21	4744
2026-01-04 01:24:46.88	352.27	29.59	-31.1	-33.4	11.8	1.58e-03	0	43	102	1048576	22	4689
2026-01-04 01:24:49.90	351.62	30.03	-31.3	-34.1	11.3	2.32e-03	0	43	102	1048576	22	4955
2026-01-04 01:24:52.92	350.95	30.47	-31.4	-34.3	11.3	3.08e-03	0	43	102	1048576	22	5008
2026-01-04 01:24:55.94	350.26	30.92	-31.6	-34.3	10.8	3.65e-03	0	43	102	1048576	23	4939
2026-01-04 01:24:58.96	349.56	31.37	-31.2	-33.5	11.8	3.19e-03	0	43	102	1048576	22	4708
2026-01-04 01:25:01.97	348.83	31.82	-31.0	-33.1	12.1	3.41e-04	0	43	102	1048576	22	4562
2026-01-04 01:25:05.00	348.08	32.27	-31.9	-35.3	10.1	4.30e-03	0	43	102	1048576	23	5325
2026-01-04 01:25:08.02	347.31	32.73	-32.2	-35.9	9.3	2.24e-02	0	43	102	1048576	24	5536
2026-01-04 01:25:11.04	346.52	33.18	-31.7	-34.9	10.4	5.25e-03	0	43	102	1048576	23	5187
2026-01-04 01:25:14.06	345.70	33.64	-31.9	-35.1	9.9	9.36e-03	0	43	102	1048576	24	5190
2026-01-04 01:25:17.08	344.87	34.09	-32.0	-35.1	9.9	1.39e-02	0	43	102	1048576	24	5158
2026-01-04 01:25:20.11	344.00	34.55	-32.1	-35.6	9.6	1.41e-02	0	43	102	1048576	24	5384
2026-01-04 01:25:23.13	343.11	35.00	-31.8	-34.9	10.6	2.86e-03	0	43	102	1048576	23	5125
2026-01-04 01:25:26.16	342.20	35.46	-31.2	-33.6	11.3	5.81e-04	0	43	102	1048576	22	4743
2026-01-04 01:25:29.17	341.26	35.91	-31.4	-34.0	11.4	4.94e-04	0	43	102	1048576	22	4893
2026-01-04 01:25:32.18	340.30	36.35	-32.0	-35.2	9.9	1.03e-02	0	43	102	1048576	24	5229
2026-01-04 01:25:35.20	339.31	36.80	-31.5	-34.2	10.8	2.80e-03	0	43	102	1048576	23	4906
2026-01-04 01:25:38.22	338.29	37.23	-31.8	-35.3	10.2	5.99e-03	0	43	102	1048576	23	5334
2026-01-04 01:25:41.24	337.25	37.67	-31.4	-33.7	11.3	3.65e-03	0	43	102	1048576	23	4681
2026-01-04 01:25:44.26	336.17	38.10	-31.6	-34.5	10.7	4.86e-03	0	43	102	1048576	23	5005
2026-01-04 01:25:47.28	335.07	38.52	-31.9	-35.1	9.8	1.62e-02	0	43	102	1048576	24	5181
2026-01-04 01:25:50.30	333.93	38.94	-31.7	-34.9	10.3	9.45e-03	0	43	102	1048576	23	5224
2026-01-04 01:25:53.31	332.78	39.34	-31.3	-33.8	11.6	6.25e-04	0	43	102	1048576	22	4854
2026-01-04 01:25:56.33	331.58	39.74	-30.9	-32.9	12.1	1.20e-03	0	43	102	1048576	22	4526
2026-01-04 01:25:59.34	330.37	40.13	-31.0	-33.5	12.2	5.16e-04	0	43	102	1048576	21	4814
2026-01-04 01:26:02.36	329.12	40.51	-31.0	-33.2	11.9	2.44e-03	0	43	102	1048576	22	4617
2026-01-04 01:26:05.38	327.84	40.87	-30.9	-32.8	12.1	3.20e-03	0	43	102	1048576	22	4498
2026-01-04 01:26:08.40	326.53	41.22	-30.7	-32.8	12.6	2.35e-03	0	43	102	1048576	21	4563
2026-01-04 01:26:11.42	325.19	41.56	-30.3	-31.5	13.4	6.10e-05	0	43	102	1048576	21	4159
2026-01-04 01:26:14.44	323.83	41.89	-30.1	-31.8	13.5	3.80e-06	0	43	102	1048576	20	4333
2026-01-04 01:26:17.47	322.43	42.19	-31.1	-33.7	11.5	6.13e-04	0	43	102	1048576	22	4813
2026-01-04 01:26:20.49	321.01	42.48	-30.2	-32.1	13.2	4.19e-05	0	43	102	1048576	20	4451
2026-01-04 01:26:23.51	319.57	42.76	-30.1	-31.8	13.5	9.10e-06	0	43	102	1048576	20	4345
2026-01-04 01:26:26.54	318.09	43.01	-30.4	-32.5	13.0	1.69e-03	0	43	102	1048576	20	4577
2026-01-04 01:26:29.55	316.61	43.24	-30.4	-32.4	13.1	2.05e-05	0	43	102	1048576	20	4543
2026-01-04 01:26:32.58	315.09	43.46	-31.1	-33.3	11.9	5.35e-04	0	43	102	1048576	22	4669
2026-01-04 01:26:35.59	313.56	43.65	-31.0	-33.4	12.2	1.18e-04	0	43	102	1048576	21	4773
2026-01-04 01:26:38.61	312.02	43.81	-30.9	-32.7	12.3	1.55e-04	0	43	102	1048576	22	4438
2026-01-04 01:26:41.63	310.45	43.96	-31.3	-34.1	11.3	3.65e-04	0	43	102	1048576	22	4954
2026-01-04 01:26:44.64	308.88	44.08	-30.7	-32.7	12.5	1.81e-04	0	43	102	1048576	21	4559
2026-01-04 01:26:47.65	307.30	44.18	-29.6	-30.4	14.4	0.00e+00	0	43	102	1048576	20	3919
2026-01-04 01:26:50.67	305.70	44.25	-31.1	-33.5	11.6	7.32e-04	0	43	102	1048576	22	4768
2026-01-04 01:26:53.69	304.10	44.30	-31.5	-34.3	10.7	3.63e-03	0	43	102	1048576	23	4985
2026-01-04 01:26:56.71	302.49	44.32	-31.0	-33.1	11.9	6.05e-04	0	43	102	1048576	22	4623
2026-01-04 01:26:59.72	300.89	44.32	-30.3	-31.8	13.1	2.28e-05	0	43	102	1048576	21	4269
2026-01-04 01:27:02.73	299.28	44.29	-31.1	-33.7	11.4	2.14e-03	0	43	102	1048576	22	4856
2026-01-04 01:27:05.75	297.68	44.24	-30.7	-32.8	12.5	2.44e-05	0	43	102	1048576	21	4609
2026-01-04 01:27:08.77	296.08	44.17	-31.4	-34.7	10.6	1.45e-03	0	43	102	1048576	22	5243
2026-01-04 01:27:11.78	294.50	44.07	-31.4	-34.2	10.6	3.52e-03	0	43	102	1048576	23	4957
2026-01-04 01:27:14.79	292.93	43.94	-31.2	-33.6	11.1	1.22e-03	0	43	102	1048576	23	4714
2026-01-04 01:27:17.79	291.38	43.79	-31.3	-34.2	11.1	1.97e-03	0	43	102	1048576	22	5040
2026-01-04 01:27:20.81	289.83	43.62	-31.9	-36.2	9.2	1.52e-02	0	43	102	1048576	23	5853
2026-01-04 01:27:23.83	288.30	43.43	-31.7	-34.5	10.2	4.01e-03	0	43	102	1048576	24	4968
2026-01-04 01:27:26.85	286.79	43.21	-31.5	-34.7	10.2	5.67e-03	0	43	102	1048576	23	5211
2026-01-04 01:27:29.87	285.30	42.97	-31.3	-34.0	10.8	8.40e-03	0	43	102	1048576	23	4916
2026-01-04 01:27:32.88	283.84	42.72	-30.7	-32.8	12.4	4.65e-05	0	43	102	1048576	21	4625
2026-01-04 01:27:35.91	282.39	42.44	-30.4	-32.2	12.8	3.72e-04	0	43	102	1048576	21	4397
2026-01-04 01:27:38.93	280.97	42.15	-29.8	-30.9	14.0	3.80e-06	0	43	102	1048576	20	4085
2026-01-04 01:27:41.95	279.58	41.84	-30.3	-32.3	13.1	4.80e-05	0	43	102	1048576	20	4515
2026-01-04 01:27:44.97	278.22	41.51	-29.2	-29.9	15.0	0.00e+00	0	43	102	1048576	19	3888
2026-01-04 01:27:47.99	276.88	41.17	-29.9	-31.3	14.4	0.00e+00	0	43	102	1048576	19	4236
2026-01-04 01:27:51.00	275.58	40.82	-29.1	-29.3	15.6	0.00e+00	0	43	102	1048576	19	3684
2026-01-04 01:27:54.01	274.30	40.45	-28.8	-29.2	15.9	0.00e+00	0	43	102	1048576	18	3758
2026-01-04 01:27:57.02	273.06	40.07	-29.7	-30.7	13.9	0.00e+00	0	43	102	1048576	19	4076
2026-01-04 01:28:00.04	271.84	39.68	-29.4	-30.5	15.0	0.00e+00	0	43	102	1048576	18	4104
2026-01-04 01:28:03.06	270.65	39.28	-28.7	-29.5	16.0	0.00e+00	0	43	102	1048576	17	3923
2026-01-04 01:28:06.09	269.48	38.87	-29.6	-30.7	14.7	2.20e-06	0	43	102	1048576	19	4072
2026-01-04 01:28:09.11	268.35	38.45	-29.3	-30.4	15.2	0.00e+00	0	43	102	1048576	18	4073
2026-01-04 01:28:12.13	267.25	38.03	-29.9	-31.5	14.2	7.00e-07	0	43	102	1048576	19	4297
2026-01-04 01:28:15.15	266.17	37.60	-30.1	-31.4	13.9	2.22e-03	0	43	102	1048576	20	4171
2026-01-04 01:28:18.16	265.13	37.16	-30.1	-31.5	13.8	2.45e-03	0	43	102	1048576	20	4206
2026-01-04 01:28:21.17	264.11	36.72	-29.9	-30.8	14.2	2.65e-03	0	43	102	1048576	20	4015
2026-01-04 01:28:24.19	263.12	36.27	-30.3	-31.9	13.5	2.44e-03	0	43	102	1048576	20	4330
2026-01-04 01:28:27.21	262.16	35.83	-30.6	-32.4	12.9	3.06e-03	0	43	102	1048576	21	4415
2026-01-04 01:28:30.23	261.22	35.37	-30.3	-31.9	13.5	4.14e-03	0	43	102	1048576	20	4334
2026-01-04 01:28:33.25	260.31	34.92	-29.8	-30.8	14.2	2.16e-03	0	43	102	1048576	20	3998
2026-01-04 01:28:36.26	259.43	34.47	-30.4	-32.1	13.4	7.34e-04	0	43	102	1048576	20	4415
2026-01-04 01:28:39.29	258.56	34.01	-31.3	-33.7	11.7	2.79e-03	0	43	102	1048576	22	4767
2026-01-04 01:28:42.31	257.73	33.55	-31.0	-32.9	12.2	2.36e-03	0	43	102	1048576	22	4487
2026-01-04 01:28:45.33	256.91	33.09	-32.1	-35.6	9.6	1.07e-02	0	43	102	1048576	24	5352
2026-01-04 01:28:48.35	256.12	32.64	-33.3	-40.4	5.3	4.03e-01	0	43	102	1048576	26	8167
2026-01-04 01:28:51.37	255.35	32.18	-32.3	-35.6	9.0	4.22e-02	0	43	102	1048576	25	5302
2026-01-04 01:28:54.40	254.60	31.73	-32.5	-36.5	8.4	4.16e-02	0	43	102	1048576	25	5710
2026-01-04 01:28:57.42	253.87	31.27	-31.9	-34.7	10.1	8.97e-03	0	43	102	1048576	24	4997
2026-01-04 01:29:00.44	253.17	30.82	-31.6	-34.3	10.8	2.79e-03	0	43	102	1048576	23	4919
2026-01-04 01:29:03.46	252.48	30.37	-31.6	-34.3	10.9	2.49e-03	0	43	102	1048576	23	4923
2026-01-04 01:29:06.48	251.81	29.93	-31.5	-33.9	11.0	2.51e-03	0	43	102	1048576	23	4767
2026-01-04 01:29:09.50	251.16	29.48	-31.2	-33.4	11.7	2.26e-03	0	43	102	1048576	22	4687
2026-01-04 01:29:12.52	250.53	29.04	-31.4	-34.1	11.2	1.33e-03	0	43	102	1048576	22	4945
2026-01-04 01:29:15.54	249.91	28.60	-31.1	-33.3	11.8	5.97e-04	0	43	102	1048576	22	4632
2026-01-04 01:29:18.56	249.31	28.17	-30.9	-33.4	12.1	2.62e-04	0	43	102	1048576	21	4754
2026-01-04 01:29:21.58	248.73	27.74	-30.8	-33.0	12.3	1.98e-04	0	43	102	1048576	21	4646
2026-01-04 01:29:24.61	248.16	27.31	-30.9	-33.2	12.1	1.61e-03	0	43	102	1048576	21	4697
2026-01-04 01:29:27.62	247.61	26.89	-30.9	-32.8	12.0	4.84e-03	0	43	102	1048576	22	4475
2026-01-04 01:29:30.64	247.07	26.47	-30.9	-33.2	12.1	4.05e-03	0	43	102	1048576	21	4721
2026-01-04 01:29:33.66	246.55	26.05	-30.4	-32.0	12.9	3.05e-03	0	43	102	1048576	21	4290
2026-01-04 01:29:36.68	246.04	25.64	-30.2	-31.7	13.4	2.74e-03	0	43	102	1048576	20	4294
2026-01-04 01:29:39.70	245.55	25.23	-30.6	-32.4	12.6	2.12e-03	0	43	102	1048576	21	4450
2026-01-04 01:29:42.72	245.06	24.82	-30.7	-32.6	12.5	1.07e-04	0	43	102	1048576	21	4508
2026-01-04 01:29:45.74	244.59	24.42	-30.5	-32.3	12.7	2.44e-03	0	43	102	1048576	21	4393
2026-01-04 01:29:48.76	244.13	24.02	-30.0	-31.4	13.4	2.35e-03	0	43	102	1048576	20	4228
2026-01-04 01:29:51.78	243.69	23.63	-30.2	-32.0	13.1	2.21e-03	0	43	102	1048576	20	4395
2026-01-04 01:29:54.81	243.25	23.24	-31.1	-33.6	11.4	3.47e-03	0	43	102	1048576	22	4775
2026-01-04 01:29:57.82	242.82	22.86	-31.3	-34.0	11.1	2.35e-03	0	43	102	1048576	22	4941
2026-01-04 01:30:00.83	242.41	22.48	-30.9	-32.8	11.8	4.78e-04	0	43	102	1048576	22	4500
2026-01-04 01:30:03.86	242.00	22.10	-31.0	-33.2	11.7	1.34e-03	0	43	102	1048576	22	4620
2026-01-04 01:30:06.88	241.61	21.72	-30.8	-33.2	11.9	2.33e-03	0	43	102	1048576	21	4744
2026-01-04 01:30:09.90	241.22	21.36	-30.8	-33.1	11.9	2.68e-03	0	43	102	1048576	21	4706
2026-01-04 01:30:12.92	240.85	20.99	-30.5	-32.4	12.3	1.27e-03	0	43	102	1048576	21	4449
2026-01-04 01:30:15.94	240.48	20.63	-30.1	-31.7	13.2	2.17e-03	0	43	102	1048576	20	4313
2026-01-04 01:30:18.95	240.12	20.27	-29.1	-30.6	13.3	1.68e-03	0	43	102	1048576	20	4280
2026-01-04 01:30:21.97	239.77	19.92	-30.0	-31.5	12.9	1.41e-03	0	43	102	1048576	20	4279
2026-01-04 01:30:24.98	239.43	19.57	-30.5	-32.4	12.3	9.38e-04	0	43	102	1048576	21	4470
2026-01-04 01:30:28.00	239.10	19.23	-30.6	-32.7	12.1	1.00e-03	0	43	102	1048576	21	4565
2026-01-04 01:30:31.02	238.77	18.88	-30.6	-32.5	12.2	2.14e-04	0	43	102	1048576	21	4513
2026-01-04 01:30:34.04	238.45	18.55	-30.3	-32.3	12.7	1.04e-04	0	43	102	1048576	20	4510
2026-01-04 01:30:37.05	238.14	18.21	-30.5	-32.5	12.2	1.08e-03	0	43	102	1048576	21	4499
2026-01-04 01:30:40.07	237.83	17.88	-30.8	-33.3	11.5	1.96e-03	0	43	102	1048576	21	4810
2026-01-04 01:30:43.08	237.54	17.55	-30.8	-33.2	11.6	2.46e-03	0	43	102	1048576	21	4773
2026-01-04 01:30:46.09	237.25	17.23	-31.2	-34.1	10.6	4.53e-03	0	43	102	1048576	22	5040
2026-01-04 01:30:49.11	236.96	16.91	-31.5	-35.0	10.0	5.93e-03	0	43	102	1048576	22	5409
2026-01-04 01:30:52.14	236.68	16.59	-31.3	-34.6	10.3	9.52e-03	0	43	102	1048576	22	5229
2026-01-04 01:30:55.15	236.41	16.28	-30.5	-32.5	12.1	5.89e-04	0	43	102	1048576	21	4516
2026-01-04 01:30:58.18	236.14	15.97	-30.1	-31.7	12.9	8.85e-05	0	43	102	1048576	20	4353
2026-01-04 01:31:01.20	235.88	15.66	-30.0	-31.6	13.0	3.81e-05	0	43	102	1048576	20	4326
2026-01-04 01:31:04.22	235.62	15.36	-30.4	-32.7	12.2	1.41e-04	0	43	102	1048576	20	4693
2026-01-04 01:31:07.23	235.37	15.06	-30.6	-32.8	11.7	5.19e-04	0	43	102	1048576	21	4648
2026-01-04 01:31:10.25	235.12	14.76	-30.7	-33.1	11.6	4.58e-04	0	43	102	1048576	21	4743
2026-01-04 01:31:13.27	234.88	14.47	-30.4	-32.2	12.2	3.13e-04	0	43	102	1048576	21	4424
2026-01-04 01:31:16.28	234.64	14.18	-30.5	-32.5	12.0	3.44e-04	0	43	102	1048576	21	4532
2026-01-04 01:31:19.29	234.41	13.89	-30.5	-32.6	11.9	3.29e-04	0	43	102	1048576	21	4562
2026-01-04 01:31:22.30	234.19	13.60	-30.8	-33.6	11.1	1.14e-03	0	43	102	1048576	21	4944
2026-01-04 01:31:25.32	233.96	13.32	-31.1	-33.8	10.5	3.00e-03	0	43	102	1048576	22	4956
2026-01-04 01:31:28.34	233.75	13.04	-31.2	-34.5	10.1	6.22e-03	0	43	102	1048576	22	5228
2026-01-04 01:31:31.37	233.53	12.76	-30.9	-33.6	10.7	3.03e-03	0	43	102	1048576	22	4866
2026-01-04 01:31:34.39	233.32	12.49	-31.0	-33.8	10.5	3.75e-03	0	43	102	1048576	22	4982
2026-01-04 01:31:37.41	233.11	12.22	-30.9	-34.2	10.5	3.21e-03	0	43	102	1048576	21	5212
2026-01-04 01:31:40.44	232.91	11.95	-31.2	-34.5	10.0	8.62e-03	0	43	102	1048576	22	5276
2026-01-04 01:31:43.45	232.71	11.68	-31.1	-34.3	10.0	8.32e-03	0	43	102	1048576	22	5174
2026-01-04 01:31:46.47	232.52	11.42	-31.1	-34.3	10.1	9.95e-03	0	43	102	1048576	22	5162
2026-01-04 01:31:49.49	232.33	11.15	-31.0	-33.7	10.5	7.12e-03	0	43	102	1048576	22	4932
2026-01-04 01:31:52.51	232.14	10.90	-30.9	-34.1	10.5	6.67e-03	0	43	102	1048576	21	5209
2026-01-04 01:31:55.53	231.96	10.64	-30.9	-34.2	10.5	3.62e-03	0	43	102	1048576	21	5216
2026-01-04 01:31:58.55	231.78	10.38	-30.8	-33.7	10.8	2.97e-03	0	43	102	1048576	21	5030
2026-01-04 01:32:01.56	231.60	10.13	-30.8	-33.9	10.5	6.65e-03	0	43	102	1048576	21	5125
2026-01-04 01:32:04.57	231.42	9.88	-31.0	-34.3	10.3	5.96e-03	0	43	102	1048576	21	5299
2026-01-04 01:32:07.58	231.25	9.64	-31.0	-34.1	10.0	8.67e-03	0	43	102	1048576	22	5111
2026-01-04 01:32:10.62	231.08	9.39	-31.1	-34.3	9.8	1.24e-02	0	43	102	1048576	22	5228
2026-01-04 01:32:13.63	230.92	9.15	-30.9	-34.2	10.2	8.64e-03	0	43	102	1048576	21	5276
2026-01-04 01:32:16.66	230.76	8.91	-31.0	-34.1	10.0	1.04e-02	0	43	102	1048576	22	5128
2026-01-04 01:32:19.67	230.60	8.67	-31.0	-34.0	10.0	7.75e-03	0	43	102	1048576	22	5089
2026-01-04 01:32:22.70	230.44	8.43	-31.0	-34.2	9.7	1.02e-02	0	43	102	1048576	22	5219
2026-01-04 01:32:25.71	230.28	8.20	-31.2	-34.8	9.3	1.73e-02	0	43	102	1048576	22	5480
2026-01-04 01:32:28.74	230.13	7.96	-31.2	-34.9	9.1	2.72e-02	0	43	102	1048576	22	5541
2026-01-04 01:32:31.75	229.98	7.73	-31.2	-35.0	9.1	1.85e-02	0	43	102	1048576	22	5574
2026-01-04 01:32:34.77	229.84	7.50	-31.3	-35.5	8.7	3.85e-02	0	43	102	1048576	22	5811
2026-01-04 01:32:37.79	229.69	7.28	-31.4	-35.5	8.2	7.06e-02	0	43	102	1048576	23	5729
2026-01-04 01:32:40.82	229.55	7.05	-32.9	-45.2	3.8	8.72e-01	0	43	104	1048576	25	14790
2026-01-04 01:32:43.83	229.41	6.83	-33.7	-46.1	3.8	1.49e+00	0	43	104	1048576	27	15055

#Closed at: 2026-01-04 01:32:44
#Recorded file [1 MB]: D:/data/31010_260104_042114.dat