passes_logs/2026/01/04/R2M6_AANII_01/R2M6_AANII_01__20260104_135634_FENGYUN_3D_rec.log

#Pass ID: 20260104_135634_FENGYUN 3D
#Satellite: FENGYUN 3D
#Configuration: FENGYUN 3D
#almurnet v.1.7.20240730
#Start time: 2026-01-04 13:56:36

#Version: 2.2.20231116
#Station: R2M6_AANII_01
#Location: 30.233357 lon 59.946436 lat
#TLE: 1 43010U 17072A   26003.93866112 -.00000029  00000+0  82070-5 0  9995
#TLE: 2 43010  98.9913 335.5841 0001959 128.6134 231.5217 14.19691935421687

#Time	Az	El	Level	Level2	SNR	BER	BlckErr	Temp	State	Recorded	gain1	gain2
2026-01-04 13:56:36.48	212.64	7.10	-28.2	-30.0	5.7	7.60e-01	0	40	0	0	17	4448
2026-01-04 13:56:39.49	212.93	7.29	-28.6	-30.4	11.9	3.56e-04	0	41	102	1048576	18	4452
2026-01-04 13:56:42.52	213.23	7.48	-28.3	-30.2	12.4	1.02e-04	0	41	102	1048576	17	4473
2026-01-04 13:56:45.54	213.52	7.67	-28.0	-29.6	12.8	3.20e-05	0	41	102	1048576	17	4309
2026-01-04 13:56:48.55	213.82	7.87	-27.9	-29.2	13.1	2.05e-05	0	41	102	1048576	17	4200
2026-01-04 13:56:51.56	214.13	8.06	-27.7	-29.3	13.3	1.02e-05	0	41	102	1048576	16	4335
2026-01-04 13:56:54.56	214.43	8.25	-27.1	-28.5	14.0	3.40e-06	0	41	102	1048576	15	4200
2026-01-04 13:56:57.58	214.74	8.45	-27.0	-28.3	14.1	1.10e-06	0	41	102	1048576	15	4145
2026-01-04 13:57:00.60	215.06	8.65	-27.1	-28.3	14.1	0.00e+00	0	42	102	1048576	15	4160
2026-01-04 13:57:03.62	215.38	8.85	-27.0	-28.2	14.1	0.00e+00	0	42	102	1048576	15	4140
2026-01-04 13:57:06.63	215.70	9.04	-27.0	-28.1	14.2	0.00e+00	0	42	102	1048576	15	4113
2026-01-04 13:57:09.64	216.03	9.24	-27.1	-28.3	14.1	1.10e-06	0	42	102	1048576	15	4157
2026-01-04 13:57:12.66	216.37	9.44	-27.1	-28.4	14.1	0.00e+00	0	42	102	1048576	15	4189
2026-01-04 13:57:15.67	216.70	9.64	-27.1	-28.4	14.1	1.10e-06	0	42	102	1048576	15	4177
2026-01-04 13:57:18.69	217.04	9.85	-26.9	-27.9	14.4	1.10e-06	0	42	102	1048576	15	4058
2026-01-04 13:57:21.71	217.39	10.05	-26.7	-28.0	14.7	0.00e+00	0	42	102	1048576	14	4180
2026-01-04 13:57:24.72	217.74	10.25	-26.7	-28.0	14.7	0.00e+00	0	42	102	1048576	14	4171
2026-01-04 13:57:27.73	218.10	10.45	-26.8	-28.2	14.6	0.00e+00	0	42	102	1048576	14	4231
2026-01-04 13:57:30.75	218.46	10.66	-26.9	-28.5	14.4	0.00e+00	0	42	102	1048576	14	4321
2026-01-04 13:57:33.77	218.82	10.86	-26.7	-28.1	14.6	0.00e+00	0	42	102	1048576	14	4201
2026-01-04 13:57:36.79	219.19	11.07	-26.7	-28.0	14.8	1.10e-06	0	42	102	1048576	14	4168
2026-01-04 13:57:39.81	219.57	11.28	-26.6	-27.8	14.9	0.00e+00	0	42	102	1048576	14	4120
2026-01-04 13:57:42.83	219.95	11.49	-26.8	-28.3	14.6	1.10e-06	0	42	102	1048576	14	4241
2026-01-04 13:57:45.85	220.34	11.69	-26.6	-27.8	14.9	0.00e+00	0	42	102	1048576	14	4131
2026-01-04 13:57:48.88	220.73	11.90	-26.5	-27.5	15.1	0.00e+00	0	42	102	1048576	14	4052
2026-01-04 13:57:51.89	221.13	12.11	-26.4	-27.2	15.3	0.00e+00	0	42	102	1048576	14	3961
2026-01-04 13:57:54.92	221.53	12.32	-26.5	-27.6	15.1	0.00e+00	0	42	102	1048576	14	4049
2026-01-04 13:57:57.92	221.94	12.53	-26.5	-27.5	15.1	0.00e+00	0	42	102	1048576	14	4039
2026-01-04 13:58:00.94	222.35	12.74	-26.5	-27.4	15.2	0.00e+00	0	42	102	1048576	14	4018
2026-01-04 13:58:03.96	222.77	12.95	-26.2	-27.4	15.5	0.00e+00	0	42	102	1048576	13	4122
2026-01-04 13:58:06.98	223.19	13.17	-26.3	-27.5	15.4	0.00e+00	0	43	102	1048576	13	4149
2026-01-04 13:58:09.99	223.62	13.38	-26.2	-27.3	15.5	0.00e+00	0	42	102	1048576	13	4082
2026-01-04 13:58:13.01	224.06	13.59	-26.2	-27.3	15.5	0.00e+00	0	43	102	1048576	13	4087
2026-01-04 13:58:16.03	224.51	13.80	-26.2	-27.3	15.6	0.00e+00	0	42	102	1048576	13	4081
2026-01-04 13:58:19.04	224.95	14.02	-26.0	-26.9	15.8	0.00e+00	0	42	102	1048576	13	3977
2026-01-04 13:58:22.06	225.41	14.23	-25.7	-26.8	16.2	0.00e+00	0	43	102	1048576	12	4062
2026-01-04 13:58:25.08	225.87	14.44	-25.6	-26.4	16.4	0.00e+00	0	43	102	1048576	12	3977
2026-01-04 13:58:28.10	226.34	14.66	-25.6	-26.5	16.3	0.00e+00	0	43	102	1048576	12	3987
2026-01-04 13:58:31.12	226.82	14.87	-25.6	-26.5	16.3	0.00e+00	0	43	102	1048576	12	4002
2026-01-04 13:58:34.14	227.30	15.09	-25.6	-26.5	16.3	0.00e+00	0	42	102	1048576	12	4000
2026-01-04 13:58:37.15	227.79	15.30	-25.7	-26.6	16.3	0.00e+00	0	43	102	1048576	12	4015
2026-01-04 13:58:40.16	228.28	15.51	-25.7	-26.8	16.2	0.00e+00	0	43	102	1048576	12	4059
2026-01-04 13:58:43.18	228.79	15.73	-25.7	-26.7	16.3	0.00e+00	0	43	102	1048576	12	4052
2026-01-04 13:58:46.20	229.29	15.94	-25.6	-26.5	16.4	0.00e+00	0	43	102	1048576	12	3988
2026-01-04 13:58:49.22	229.81	16.15	-25.6	-26.4	16.5	0.00e+00	0	43	102	1048576	12	3969
2026-01-04 13:58:52.24	230.34	16.36	-25.7	-26.8	16.3	0.00e+00	0	43	102	1048576	12	4062
2026-01-04 13:58:55.27	230.87	16.58	-25.7	-26.7	16.3	0.00e+00	0	43	102	1048576	12	4030
2026-01-04 13:58:58.27	231.40	16.79	-25.6	-26.5	16.4	0.00e+00	0	43	102	1048576	12	3983
2026-01-04 13:59:01.29	231.95	17.00	-25.4	-26.0	16.7	0.00e+00	0	43	102	1048576	12	3877
2026-01-04 13:59:04.31	232.50	17.21	-25.3	-26.4	16.9	0.00e+00	0	43	102	1048576	11	4068
2026-01-04 13:59:07.33	233.07	17.42	-25.6	-26.9	16.6	0.00e+00	0	43	102	1048576	11	4189
2026-01-04 13:59:10.34	233.63	17.63	-25.6	-27.1	16.5	0.00e+00	0	43	102	1048576	11	4236
2026-01-04 13:59:13.37	234.21	17.84	-25.5	-26.7	16.7	0.00e+00	0	43	102	1048576	11	4126
2026-01-04 13:59:16.38	234.79	18.04	-25.4	-26.5	16.9	0.00e+00	0	43	102	1048576	11	4086
2026-01-04 13:59:19.39	235.38	18.25	-25.1	-25.9	17.2	0.00e+00	0	43	102	1048576	11	3934
2026-01-04 13:59:22.42	235.98	18.45	-25.0	-25.7	17.3	0.00e+00	0	43	102	1048576	11	3886
2026-01-04 13:59:25.44	236.59	18.66	-24.9	-25.5	17.4	0.00e+00	0	43	102	1048576	11	3849
2026-01-04 13:59:28.46	237.21	18.86	-24.9	-25.4	17.4	0.00e+00	0	43	102	1048576	11	3826
2026-01-04 13:59:31.48	237.83	19.06	-25.0	-25.6	17.4	0.00e+00	0	43	102	1048576	11	3863
2026-01-04 13:59:34.49	238.46	19.25	-25.0	-25.7	17.3	0.00e+00	0	43	102	1048576	11	3894
2026-01-04 13:59:37.51	239.10	19.45	-25.1	-25.8	17.3	0.00e+00	0	43	102	1048576	11	3902
2026-01-04 13:59:40.53	239.75	19.65	-25.1	-25.8	17.3	0.00e+00	0	43	102	1048576	11	3916
2026-01-04 13:59:43.55	240.40	19.84	-25.0	-25.7	17.3	0.00e+00	0	43	102	1048576	11	3882
2026-01-04 13:59:46.58	241.07	20.03	-25.0	-25.6	17.4	0.00e+00	0	43	102	1048576	11	3871
2026-01-04 13:59:49.60	241.74	20.22	-24.8	-25.3	17.6	0.00e+00	0	43	102	1048576	11	3783
2026-01-04 13:59:52.62	242.42	20.40	-24.9	-25.5	17.4	0.00e+00	0	43	102	1048576	11	3839
2026-01-04 13:59:55.64	243.11	20.58	-25.2	-26.0	17.2	0.00e+00	0	43	102	1048576	11	3960
2026-01-04 13:59:58.66	243.80	20.76	-25.3	-26.4	17.0	0.00e+00	0	43	102	1048576	11	4059
2026-01-04 14:00:01.67	244.50	20.94	-24.4	-24.9	18.0	0.00e+00	0	43	102	1048576	10	3815
2026-01-04 14:00:04.68	245.21	21.11	-24.5	-25.1	17.9	0.00e+00	0	43	102	1048576	10	3860
2026-01-04 14:00:07.70	245.93	21.28	-24.7	-25.5	17.7	0.00e+00	0	43	102	1048576	10	3947
2026-01-04 14:00:10.72	246.65	21.45	-24.6	-25.2	17.9	0.00e+00	0	43	102	1048576	10	3884
2026-01-04 14:00:13.74	247.39	21.61	-24.9	-26.0	17.5	0.00e+00	0	43	102	1048576	10	4083
2026-01-04 14:00:16.76	248.13	21.77	-24.8	-25.8	17.6	0.00e+00	0	43	102	1048576	10	4012
2026-01-04 14:00:19.78	248.88	21.92	-24.7	-25.6	17.7	0.00e+00	0	43	102	1048576	10	3973
2026-01-04 14:00:22.80	249.63	22.08	-24.3	-24.7	18.2	0.00e+00	0	43	102	1048576	10	3758
2026-01-04 14:00:25.83	250.40	22.22	-24.3	-25.2	18.2	0.00e+00	0	43	102	1048576	9	3970
2026-01-04 14:00:28.85	251.17	22.37	-24.3	-25.1	18.2	0.00e+00	0	43	102	1048576	9	3956
2026-01-04 14:00:31.86	251.94	22.50	-24.4	-25.3	18.1	0.00e+00	0	43	102	1048576	9	4019
2026-01-04 14:00:34.88	252.73	22.64	-24.1	-24.8	18.4	0.00e+00	0	43	102	1048576	9	3892
2026-01-04 14:00:37.90	253.52	22.77	-24.3	-25.2	18.2	0.00e+00	0	43	102	1048576	9	3982
2026-01-04 14:00:40.92	254.31	22.89	-24.4	-25.3	18.1	0.00e+00	0	43	102	1048576	9	4011
2026-01-04 14:00:43.93	255.11	23.01	-24.2	-24.9	18.4	0.00e+00	0	43	102	1048576	9	3910
2026-01-04 14:00:46.95	255.92	23.12	-24.3	-25.2	18.2	0.00e+00	0	43	102	1048576	9	3990
2026-01-04 14:00:49.97	256.73	23.23	-24.0	-24.6	18.5	0.00e+00	0	43	102	1048576	9	3847
2026-01-04 14:00:52.99	257.55	23.33	-24.0	-24.6	18.5	0.00e+00	0	43	102	1048576	9	3841
2026-01-04 14:00:56.02	258.38	23.43	-24.0	-24.5	18.6	0.00e+00	0	43	102	1048576	9	3817
2026-01-04 14:00:59.02	259.20	23.52	-24.1	-24.7	18.5	0.00e+00	0	43	102	1048576	9	3866
2026-01-04 14:01:02.04	260.04	23.61	-24.2	-24.9	18.4	0.00e+00	0	43	102	1048576	9	3913
2026-01-04 14:01:05.06	260.87	23.69	-24.0	-24.5	18.6	0.00e+00	0	43	102	1048576	9	3805
2026-01-04 14:01:08.08	261.71	23.76	-24.2	-24.8	18.4	0.00e+00	0	43	102	1048576	9	3889
2026-01-04 14:01:11.10	262.56	23.83	-24.1	-24.8	18.5	0.00e+00	0	43	102	1048576	9	3877
2026-01-04 14:01:14.12	263.41	23.89	-24.2	-24.9	18.4	0.00e+00	0	43	102	1048576	9	3917
2026-01-04 14:01:17.15	264.26	23.94	-24.0	-24.6	18.6	0.00e+00	0	43	102	1048576	9	3832
2026-01-04 14:01:20.18	265.12	23.99	-23.7	-24.4	18.9	0.00e+00	0	43	102	1048576	8	3905
2026-01-04 14:01:23.20	265.98	24.03	-24.2	-25.5	18.3	0.00e+00	0	43	102	1048576	8	4182
2026-01-04 14:01:26.22	266.83	24.07	-24.0	-25.0	18.6	0.00e+00	0	43	102	1048576	8	4041
2026-01-04 14:01:29.24	267.69	24.10	-24.2	-25.3	18.4	0.00e+00	0	43	102	1048576	8	4126
2026-01-04 14:01:32.27	268.56	24.12	-24.2	-25.5	18.3	0.00e+00	0	43	102	1048576	8	4167
2026-01-04 14:01:35.29	269.42	24.13	-24.0	-25.0	18.6	0.00e+00	0	43	102	1048576	8	4032
2026-01-04 14:01:38.32	270.29	24.14	-23.8	-24.6	18.8	0.00e+00	0	43	102	1048576	8	3934
2026-01-04 14:01:41.35	271.15	24.14	-23.9	-24.8	18.7	0.00e+00	0	43	102	1048576	8	4001
2026-01-04 14:01:44.37	272.02	24.14	-23.9	-24.9	18.6	0.00e+00	0	43	102	1048576	8	4016
2026-01-04 14:01:47.39	272.88	24.13	-24.0	-24.9	18.6	0.00e+00	0	43	102	1048576	8	4024
2026-01-04 14:01:50.39	273.73	24.11	-23.9	-24.8	18.7	0.00e+00	0	43	102	1048576	8	3990
2026-01-04 14:01:53.42	274.60	24.08	-24.0	-25.0	18.6	0.00e+00	0	43	102	1048576	8	4051
2026-01-04 14:01:56.43	275.45	24.05	-23.8	-24.6	18.8	0.00e+00	0	43	102	1048576	8	3949
2026-01-04 14:01:59.45	276.31	24.01	-23.9	-24.9	18.7	0.00e+00	0	43	102	1048576	8	4008
2026-01-04 14:02:02.46	277.16	23.97	-24.1	-25.1	18.5	0.00e+00	0	43	102	1048576	8	4081
2026-01-04 14:02:05.47	278.01	23.92	-24.1	-25.2	18.5	0.00e+00	0	43	102	1048576	8	4082
2026-01-04 14:02:08.49	278.86	23.86	-24.3	-25.6	18.3	0.00e+00	0	43	102	1048576	8	4198
2026-01-04 14:02:11.51	279.71	23.80	-24.0	-24.9	18.6	0.00e+00	0	43	102	1048576	8	4021
2026-01-04 14:02:14.53	280.55	23.73	-24.0	-25.0	18.6	0.00e+00	0	43	102	1048576	8	4051
2026-01-04 14:02:17.55	281.39	23.65	-23.9	-24.8	18.7	0.00e+00	0	43	102	1048576	8	3999
2026-01-04 14:02:20.57	282.22	23.57	-24.2	-25.4	18.4	0.00e+00	0	43	102	1048576	8	4135
2026-01-04 14:02:23.59	283.05	23.48	-24.0	-25.0	18.6	0.00e+00	0	43	102	1048576	8	4034
2026-01-04 14:02:26.60	283.87	23.39	-24.0	-25.1	18.6	0.00e+00	0	43	102	1048576	8	4058
2026-01-04 14:02:29.61	284.69	23.29	-24.1	-25.3	18.5	0.00e+00	0	43	102	1048576	8	4121
2026-01-04 14:02:32.63	285.51	23.19	-24.2	-25.5	18.3	0.00e+00	0	43	102	1048576	8	4171
2026-01-04 14:02:35.65	286.32	23.08	-24.4	-25.8	18.2	0.00e+00	0	43	102	1048576	8	4254
2026-01-04 14:02:38.67	287.12	22.96	-24.3	-25.7	18.3	0.00e+00	0	43	102	1048576	8	4211
2026-01-04 14:02:41.68	287.91	22.84	-24.5	-25.6	18.0	0.00e+00	0	43	102	1048576	9	4075
2026-01-04 14:02:44.70	288.71	22.72	-24.7	-25.9	17.9	0.00e+00	0	43	102	1048576	9	4155
2026-01-04 14:02:47.71	289.49	22.59	-24.7	-26.1	17.8	0.00e+00	0	43	102	1048576	9	4199
2026-01-04 14:02:50.73	290.27	22.45	-24.5	-25.5	18.1	0.00e+00	0	43	102	1048576	9	4055
2026-01-04 14:02:53.75	291.04	22.31	-24.6	-25.8	18.0	0.00e+00	0	43	102	1048576	9	4120
2026-01-04 14:02:56.77	291.80	22.17	-24.4	-25.4	18.1	0.00e+00	0	43	102	1048576	9	4036
2026-01-04 14:02:59.78	292.56	22.02	-24.4	-25.4	18.1	0.00e+00	0	43	102	1048576	9	4030
2026-01-04 14:03:02.80	293.31	21.87	-24.6	-25.9	17.9	0.00e+00	0	43	102	1048576	9	4147
2026-01-04 14:03:05.81	294.05	21.71	-24.7	-25.9	17.9	0.00e+00	0	43	102	1048576	9	4160
2026-01-04 14:03:08.82	294.78	21.56	-24.6	-25.9	17.9	0.00e+00	0	43	102	1048576	9	4142
2026-01-04 14:03:11.84	295.51	21.39	-24.7	-26.0	17.8	0.00e+00	0	43	102	1048576	9	4179
2026-01-04 14:03:14.85	296.23	21.23	-24.8	-26.3	17.7	0.00e+00	0	43	102	1048576	9	4254
2026-01-04 14:03:17.88	296.95	21.05	-25.1	-26.3	17.4	0.00e+00	0	43	102	1048576	10	4134
2026-01-04 14:03:20.90	297.65	20.88	-25.1	-26.4	17.4	0.00e+00	0	43	102	1048576	10	4178
2026-01-04 14:03:23.91	298.35	20.71	-24.9	-25.8	17.7	0.00e+00	0	43	102	1048576	10	4025
2026-01-04 14:03:26.93	299.04	20.53	-25.1	-26.4	17.4	0.00e+00	0	43	102	1048576	10	4176
2026-01-04 14:03:29.95	299.72	20.34	-25.2	-26.5	17.3	0.00e+00	0	43	102	1048576	10	4192
2026-01-04 14:03:32.97	300.39	20.16	-24.8	-25.7	17.7	0.00e+00	0	43	102	1048576	10	3990
2026-01-04 14:03:35.99	301.06	19.97	-25.1	-26.3	17.4	0.00e+00	0	43	102	1048576	10	4148
2026-01-04 14:03:39.00	301.71	19.78	-25.3	-26.7	17.1	0.00e+00	0	43	102	1048576	10	4259
2026-01-04 14:03:42.03	302.36	19.59	-25.2	-26.5	17.3	0.00e+00	0	43	102	1048576	10	4183
2026-01-04 14:03:45.06	303.01	19.40	-25.3	-26.8	17.1	0.00e+00	0	43	102	1048576	10	4283
2026-01-04 14:03:48.08	303.64	19.20	-25.5	-26.8	16.8	0.00e+00	0	43	102	1048576	11	4152
2026-01-04 14:03:51.10	304.27	19.00	-25.5	-26.7	16.9	0.00e+00	0	43	102	1048576	11	4131
2026-01-04 14:03:54.12	304.89	18.80	-25.6	-26.9	16.8	0.00e+00	0	43	102	1048576	11	4193
2026-01-04 14:03:57.14	305.50	18.60	-25.7	-27.1	16.7	0.00e+00	0	43	102	1048576	11	4243
2026-01-04 14:04:00.17	306.10	18.40	-25.8	-27.4	16.5	0.00e+00	0	43	102	1048576	11	4312
2026-01-04 14:04:03.18	306.69	18.20	-26.0	-27.8	16.3	0.00e+00	0	43	102	1048576	11	4416
2026-01-04 14:04:06.20	307.28	17.99	-26.0	-27.3	16.2	0.00e+00	0	43	102	1048576	12	4176
2026-01-04 14:04:09.23	307.86	17.79	-26.1	-27.4	16.1	0.00e+00	0	43	102	1048576	12	4218
2026-01-04 14:04:12.24	308.43	17.58	-26.0	-27.4	16.2	0.00e+00	0	43	102	1048576	12	4210
2026-01-04 14:04:15.26	308.99	17.37	-26.0	-27.2	16.3	0.00e+00	0	43	102	1048576	12	4156
2026-01-04 14:04:18.28	309.55	17.17	-25.6	-26.5	16.6	0.00e+00	0	43	102	1048576	12	3975
2026-01-04 14:04:21.31	310.10	16.96	-25.8	-26.8	16.5	0.00e+00	0	43	102	1048576	12	4056
2026-01-04 14:04:24.32	310.64	16.75	-26.0	-27.2	16.2	0.00e+00	0	43	102	1048576	12	4161
2026-01-04 14:04:27.34	311.17	16.54	-25.8	-27.0	16.3	0.00e+00	0	43	102	1048576	12	4099
2026-01-04 14:04:30.35	311.70	16.33	-25.8	-26.9	16.4	0.00e+00	0	43	102	1048576	12	4070
2026-01-04 14:04:33.37	312.22	16.12	-25.9	-27.1	16.3	0.00e+00	0	43	102	1048576	12	4139
2026-01-04 14:04:36.39	312.73	15.90	-26.3	-28.0	15.8	0.00e+00	0	43	102	1048576	12	4386
2026-01-04 14:04:39.41	313.24	15.69	-26.4	-28.2	15.6	0.00e+00	0	43	102	1048576	12	4440
2026-01-04 14:04:42.43	313.74	15.48	-26.2	-27.8	15.8	0.00e+00	0	43	102	1048576	12	4324
2026-01-04 14:04:45.45	314.23	15.27	-26.1	-27.5	16.0	0.00e+00	0	43	102	1048576	12	4246
2026-01-04 14:04:48.47	314.71	15.06	-26.4	-28.1	15.7	0.00e+00	0	43	102	1048576	12	4404
2026-01-04 14:04:51.49	315.19	14.84	-26.4	-28.1	15.6	0.00e+00	0	43	102	1048576	12	4407
2026-01-04 14:04:54.51	315.66	14.63	-26.5	-28.3	15.5	0.00e+00	0	43	102	1048576	12	4471
2026-01-04 14:04:57.53	316.13	14.42	-26.4	-28.2	15.6	0.00e+00	0	43	102	1048576	12	4431
2026-01-04 14:05:00.54	316.59	14.21	-26.7	-28.3	15.2	0.00e+00	0	43	102	1048576	13	4344
2026-01-04 14:05:03.57	317.04	14.00	-26.5	-28.0	15.4	0.00e+00	0	43	102	1048576	13	4267
2026-01-04 14:05:06.60	317.49	13.78	-26.7	-28.4	15.2	0.00e+00	0	43	102	1048576	13	4378
2026-01-04 14:05:09.61	317.93	13.57	-26.7	-28.5	15.1	0.00e+00	0	43	102	1048576	13	4405
2026-01-04 14:05:12.63	318.36	13.36	-26.6	-28.1	15.3	0.00e+00	0	43	102	1048576	13	4304
2026-01-04 14:05:15.64	318.79	13.15	-26.7	-28.4	15.1	0.00e+00	0	43	102	1048576	13	4369
2026-01-04 14:05:18.65	319.21	12.94	-26.5	-28.0	15.3	0.00e+00	0	43	102	1048576	13	4278
2026-01-04 14:05:21.68	319.63	12.73	-26.7	-28.3	15.2	0.00e+00	0	43	102	1048576	13	4339
2026-01-04 14:05:24.70	320.04	12.52	-26.8	-28.7	14.9	0.00e+00	0	43	102	1048576	13	4466
2026-01-04 14:05:27.72	320.44	12.32	-26.8	-28.6	14.9	0.00e+00	0	43	102	1048576	13	4445
2026-01-04 14:05:30.75	320.85	12.11	-27.0	-29.1	14.7	0.00e+00	0	43	102	1048576	13	4569
2026-01-04 14:05:33.77	321.24	11.90	-27.0	-28.5	14.7	0.00e+00	0	43	102	1048576	14	4295
2026-01-04 14:05:36.79	321.63	11.69	-27.0	-28.7	14.7	0.00e+00	0	43	102	1048576	14	4341
2026-01-04 14:05:39.81	322.01	11.49	-27.2	-29.0	14.4	1.10e-06	0	43	102	1048576	14	4436
2026-01-04 14:05:42.82	322.39	11.28	-27.3	-29.2	14.3	0.00e+00	0	43	102	1048576	14	4509
2026-01-04 14:05:45.84	322.77	11.08	-27.3	-29.3	14.2	1.10e-06	0	43	102	1048576	14	4523
2026-01-04 14:05:48.86	323.13	10.87	-27.4	-29.6	14.1	3.40e-06	0	43	102	1048576	14	4597
2026-01-04 14:05:51.88	323.50	10.67	-26.9	-28.3	14.7	0.00e+00	0	43	102	1048576	14	4248
2026-01-04 14:05:54.90	323.86	10.47	-27.1	-28.7	14.5	1.10e-06	0	43	102	1048576	14	4354
2026-01-04 14:05:57.92	324.21	10.27	-27.2	-29.1	14.3	0.00e+00	0	43	102	1048576	14	4463
2026-01-04 14:06:00.94	324.56	10.06	-27.3	-29.3	14.2	2.20e-06	0	43	102	1048576	14	4521
2026-01-04 14:06:03.97	324.91	9.86	-27.2	-29.1	14.2	3.40e-06	0	43	102	1048576	14	4475
2026-01-04 14:06:06.99	325.25	9.66	-27.3	-29.4	14.1	0.00e+00	0	43	102	1048576	14	4564
2026-01-04 14:06:10.01	325.59	9.46	-27.2	-29.1	14.2	0.00e+00	0	43	102	1048576	14	4485
2026-01-04 14:06:13.03	325.92	9.27	-27.3	-29.3	14.1	1.10e-06	0	43	102	1048576	14	4517
2026-01-04 14:06:16.04	326.24	9.07	-27.3	-29.3	14.1	1.10e-06	0	43	102	1048576	14	4532
2026-01-04 14:06:19.06	326.57	8.87	-27.3	-29.4	14.0	1.10e-06	0	43	102	1048576	14	4547
2026-01-04 14:06:22.09	326.89	8.68	-27.6	-29.5	13.6	2.20e-06	0	43	102	1048576	15	4475
2026-01-04 14:06:25.11	327.20	8.48	-27.6	-29.5	13.7	3.40e-06	0	43	102	1048576	15	4475
2026-01-04 14:06:28.13	327.51	8.29	-27.8	-30.1	13.3	1.25e-05	0	43	102	1048576	15	4656
2026-01-04 14:06:31.15	327.82	8.09	-27.9	-30.1	13.2	6.80e-06	0	43	102	1048576	15	4679
2026-01-04 14:06:34.17	328.12	7.90	-28.2	-30.3	13.0	2.05e-05	0	43	102	1048576	16	4606
2026-01-04 14:06:37.19	328.42	7.71	-28.3	-30.6	12.8	3.89e-05	0	43	102	1048576	16	4694
2026-01-04 14:06:40.21	328.72	7.52	-28.2	-30.4	12.9	3.20e-05	0	43	102	1048576	16	4643
2026-01-04 14:06:43.23	329.01	7.33	-28.2	-30.5	12.8	3.66e-05	0	43	102	1048576	16	4665
2026-01-04 14:06:46.24	329.30	7.14	-28.2	-30.4	12.8	3.20e-05	0	43	102	1048576	16	4648
2026-01-04 14:06:49.25	329.58	6.95	-33.7	-44.9	3.8	8.46e-01	0	43	104	1048576	27	13076

#Closed at: 2026-01-04 14:06:49
#Recorded file [1 MB]: D:/data/31010_260104_165638.dat