passes_logs/2026/01/04/R2M6_AANII_01/R2M6_AANII_01__20260104_030155_SUOMI_NPP_rec.log

#Pass ID: 20260104_030155_SUOMI NPP
#Satellite: SUOMI NPP
#Configuration: NPP
#almurnet v.1.7.20240730
#Start time: 2026-01-04 03:01:56

#Version: 2.2.20231116
#Station: R2M6_AANII_01
#Location: 30.233357 lon 59.946436 lat
#TLE: 1 37849U 11061A   26001.07732418  .00000182  00000+0  10735-3 0  9990
#TLE: 2 37849  98.7795 303.2470 0002580  87.2016 272.9455 14.19520779734739

#Time	Az	El	Level	Level2	SNR	BER	BlckErr	Temp	State	Recorded	gain1	gain2
2026-01-04 03:01:56.38	8.22	7.06	-32.6	-39.5	4.2	1.43e+00	0	40	0	0	26	8002
2026-01-04 03:01:58.39	7.99	7.17	-32.3	-37.9	6.1	3.13e-01	0	40	0	0	25	6915
2026-01-04 03:02:00.41	7.75	7.28	-32.3	-38.5	6.0	3.29e-01	0	41	102	1048576	24	7392
2026-01-04 03:02:02.42	7.51	7.39	-32.4	-39.1	5.7	3.34e-01	0	41	102	1048576	24	7764
2026-01-04 03:02:04.44	7.27	7.49	-32.2	-38.1	6.4	3.26e-01	0	41	102	1048576	24	7042
2026-01-04 03:02:06.45	7.02	7.60	-31.8	-36.0	8.0	8.63e-02	0	41	102	1048576	24	5811
2026-01-04 03:02:08.47	6.78	7.71	-31.5	-34.5	9.2	3.35e-02	0	41	102	1048576	24	5106
2026-01-04 03:02:10.48	6.53	7.82	-31.2	-34.2	9.8	1.16e-02	0	41	102	1048576	23	5047
2026-01-04 03:02:12.50	6.28	7.92	-31.2	-34.1	9.9	8.67e-03	0	41	102	1048576	23	5007
2026-01-04 03:02:14.51	6.03	8.03	-31.2	-33.8	10.1	6.09e-03	0	41	102	1048576	23	4904
2026-01-04 03:02:16.52	5.78	8.14	-31.1	-34.2	10.2	6.30e-03	0	41	102	1048576	22	5131
2026-01-04 03:02:18.53	5.53	8.24	-31.0	-33.9	10.4	4.39e-03	0	41	102	1048576	22	5008
2026-01-04 03:02:20.55	5.27	8.35	-31.1	-34.1	10.3	4.27e-03	0	41	102	1048576	22	5080
2026-01-04 03:02:22.57	5.01	8.46	-31.1	-34.2	10.2	5.31e-03	0	41	102	1048576	22	5145
2026-01-04 03:02:24.58	4.75	8.56	-31.3	-34.7	9.9	7.14e-03	0	41	102	1048576	22	5325
2026-01-04 03:02:26.59	4.49	8.67	-31.2	-34.5	10.1	7.64e-03	0	41	102	1048576	22	5242
2026-01-04 03:02:28.61	4.22	8.78	-31.4	-34.9	9.8	8.03e-03	0	41	102	1048576	22	5439
2026-01-04 03:02:30.62	3.96	8.88	-31.3	-34.6	10.0	8.72e-03	0	42	102	1048576	22	5286
2026-01-04 03:02:32.63	3.69	8.99	-31.2	-34.5	10.1	5.83e-03	0	41	102	1048576	22	5241
2026-01-04 03:02:34.64	3.42	9.09	-31.3	-34.7	10.0	7.70e-03	0	42	102	1048576	22	5319
2026-01-04 03:02:36.66	3.15	9.20	-31.3	-34.7	10.0	7.88e-03	0	42	102	1048576	22	5320
2026-01-04 03:02:38.66	2.87	9.31	-31.3	-34.6	10.0	8.50e-03	0	42	102	1048576	22	5268
2026-01-04 03:02:40.67	2.60	9.41	-31.2	-34.4	10.3	5.00e-03	0	42	102	1048576	22	5178
2026-01-04 03:02:42.69	2.32	9.52	-31.3	-34.7	10.0	7.60e-03	0	42	102	1048576	22	5320
2026-01-04 03:02:44.70	2.04	9.62	-31.3	-34.7	10.0	8.00e-03	0	42	102	1048576	22	5332
2026-01-04 03:02:46.72	1.75	9.73	-31.3	-34.8	10.0	7.41e-03	0	42	102	1048576	22	5338
2026-01-04 03:02:48.73	1.47	9.83	-31.4	-34.6	9.7	1.23e-02	0	42	102	1048576	23	5200
2026-01-04 03:02:50.74	1.18	9.93	-31.4	-34.5	9.8	1.01e-02	0	42	102	1048576	23	5153
2026-01-04 03:02:52.75	0.90	10.04	-31.4	-34.9	10.0	9.07e-03	0	42	102	1048576	22	5384
2026-01-04 03:02:54.76	0.61	10.14	-31.3	-34.9	10.0	9.32e-03	0	42	102	1048576	22	5398
2026-01-04 03:02:56.77	0.31	10.25	-31.5	-34.8	9.6	1.19e-02	0	42	102	1048576	23	5298
2026-01-04 03:02:58.78	0.02	10.35	-31.5	-34.8	9.6	1.25e-02	0	42	102	1048576	23	5297
2026-01-04 03:03:00.81	359.72	10.45	-31.5	-34.8	9.6	1.27e-02	0	42	102	1048576	23	5263
2026-01-04 03:03:02.82	359.42	10.55	-31.5	-34.9	9.5	1.26e-02	0	42	102	1048576	23	5292
2026-01-04 03:03:04.83	359.12	10.66	-31.5	-34.9	9.5	1.25e-02	0	42	102	1048576	23	5317
2026-01-04 03:03:06.85	358.81	10.76	-31.6	-35.3	9.3	2.32e-02	0	42	102	1048576	23	5493
2026-01-04 03:03:08.86	358.51	10.86	-31.4	-34.4	10.0	1.10e-02	0	42	102	1048576	23	5074
2026-01-04 03:03:10.87	358.20	10.96	-31.2	-34.3	10.4	4.68e-03	0	42	102	1048576	22	5147
2026-01-04 03:03:12.87	357.89	11.06	-31.2	-34.2	10.5	4.40e-03	0	42	102	1048576	22	5103
2026-01-04 03:03:14.88	357.58	11.16	-31.0	-33.6	10.8	2.59e-03	0	42	102	1048576	22	4873
2026-01-04 03:03:16.89	357.27	11.26	-31.1	-33.8	10.7	2.92e-03	0	42	102	1048576	22	4958
2026-01-04 03:03:18.90	356.95	11.36	-30.9	-34.0	11.0	2.08e-03	0	42	102	1048576	21	5092
2026-01-04 03:03:20.92	356.63	11.46	-30.6	-33.1	11.6	9.80e-04	0	42	102	1048576	21	4748
2026-01-04 03:03:22.93	356.31	11.56	-30.6	-32.8	11.8	5.18e-04	0	42	102	1048576	21	4663
2026-01-04 03:03:24.94	355.99	11.65	-30.5	-32.6	11.9	3.66e-04	0	42	102	1048576	21	4580
2026-01-04 03:03:26.94	355.67	11.75	-30.6	-32.8	11.8	7.79e-04	0	42	102	1048576	21	4663
2026-01-04 03:03:28.96	355.34	11.85	-30.3	-32.0	12.3	2.11e-04	0	42	102	1048576	21	4388
2026-01-04 03:03:30.98	355.01	11.94	-30.4	-32.8	12.2	6.13e-04	0	42	102	1048576	20	4740
2026-01-04 03:03:32.98	354.68	12.04	-30.5	-32.6	12.0	4.57e-04	0	42	102	1048576	21	4566
2026-01-04 03:03:34.99	354.34	12.13	-30.8	-33.5	11.4	6.76e-04	0	42	102	1048576	21	4909
2026-01-04 03:03:37.00	354.01	12.23	-30.8	-33.4	11.4	1.40e-03	0	42	102	1048576	21	4882
2026-01-04 03:03:39.01	353.67	12.32	-30.7	-33.1	11.7	8.19e-04	0	42	102	1048576	21	4758
2026-01-04 03:03:41.02	353.33	12.42	-30.6	-32.8	11.9	4.68e-04	0	42	102	1048576	21	4637
2026-01-04 03:03:43.03	352.98	12.51	-30.6	-32.8	11.9	6.77e-04	0	43	102	1048576	21	4661
2026-01-04 03:03:45.05	352.64	12.60	-30.7	-33.2	11.6	1.19e-03	0	42	102	1048576	21	4793
2026-01-04 03:03:47.06	352.29	12.69	-30.6	-33.0	11.8	6.78e-04	0	42	102	1048576	21	4713
2026-01-04 03:03:49.07	351.94	12.78	-30.3	-32.1	12.4	1.51e-04	0	42	102	1048576	21	4415
2026-01-04 03:03:51.09	351.59	12.87	-30.4	-32.8	12.2	5.66e-04	0	42	102	1048576	20	4759
2026-01-04 03:03:53.10	351.24	12.96	-30.6	-32.8	11.9	4.10e-04	0	43	102	1048576	21	4661
2026-01-04 03:03:55.11	350.88	13.05	-30.6	-33.1	11.7	1.06e-03	0	43	102	1048576	21	4759
2026-01-04 03:03:57.12	350.52	13.14	-30.2	-32.2	12.6	5.32e-04	0	43	102	1048576	20	4543
2026-01-04 03:03:59.13	350.16	13.22	-29.9	-31.3	13.2	2.44e-05	0	43	102	1048576	20	4250
2026-01-04 03:04:01.14	349.80	13.31	-30.2	-32.2	12.6	2.88e-04	0	43	102	1048576	20	4522
2026-01-04 03:04:03.15	349.44	13.40	-30.2	-32.2	12.7	5.11e-05	0	43	102	1048576	20	4523
2026-01-04 03:04:05.16	349.07	13.48	-30.3	-32.4	12.5	1.33e-04	0	42	102	1048576	20	4595
2026-01-04 03:04:07.18	348.70	13.56	-30.3	-32.6	12.4	1.62e-04	0	43	102	1048576	20	4652
2026-01-04 03:04:09.19	348.33	13.65	-30.6	-32.8	12.0	2.68e-04	0	43	102	1048576	21	4628
2026-01-04 03:04:11.20	347.96	13.73	-30.9	-33.7	11.3	1.04e-03	0	43	102	1048576	21	4960
2026-01-04 03:04:13.21	347.58	13.81	-31.1	-33.9	10.8	2.10e-03	0	43	102	1048576	22	4970
2026-01-04 03:04:15.23	347.20	13.89	-30.9	-33.2	11.3	1.10e-03	0	43	102	1048576	22	4686
2026-01-04 03:04:17.24	346.82	13.97	-30.7	-32.5	11.8	5.71e-04	0	43	102	1048576	22	4435
2026-01-04 03:04:19.25	346.44	14.04	-30.5	-32.6	12.1	2.74e-04	0	43	102	1048576	21	4564
2026-01-04 03:04:21.26	346.06	14.12	-30.9	-33.6	11.4	6.95e-04	0	43	102	1048576	21	4935
2026-01-04 03:04:23.27	345.67	14.20	-30.9	-33.3	11.3	1.94e-03	0	43	102	1048576	22	4715
2026-01-04 03:04:25.28	345.29	14.27	-30.4	-32.1	12.4	1.72e-04	0	43	102	1048576	21	4401
2026-01-04 03:04:27.29	344.90	14.34	-30.0	-31.1	13.1	2.21e-05	0	43	102	1048576	21	4080
2026-01-04 03:04:29.31	344.51	14.42	-30.0	-31.5	13.2	2.05e-05	0	43	102	1048576	20	4295
2026-01-04 03:04:31.32	344.11	14.49	-30.2	-32.1	12.8	4.73e-05	0	43	102	1048576	20	4475
2026-01-04 03:04:33.33	343.72	14.56	-30.1	-31.9	12.9	4.57e-05	0	43	102	1048576	20	4415
2026-01-04 03:04:35.35	343.32	14.63	-29.9	-31.3	13.3	1.04e-04	0	43	102	1048576	20	4226
2026-01-04 03:04:37.37	342.92	14.69	-30.0	-31.5	13.2	1.83e-05	0	43	102	1048576	20	4296
2026-01-04 03:04:39.38	342.52	14.76	-30.2	-32.2	12.7	3.81e-05	0	43	102	1048576	20	4504
2026-01-04 03:04:41.38	342.12	14.82	-30.2	-32.3	12.6	6.10e-05	0	43	102	1048576	20	4557
2026-01-04 03:04:43.39	341.71	14.89	-30.1	-31.8	13.0	3.12e-05	0	43	102	1048576	20	4377
2026-01-04 03:04:45.41	341.31	14.95	-30.1	-31.8	13.0	2.33e-04	0	43	102	1048576	20	4398
2026-01-04 03:04:47.42	340.90	15.01	-30.2	-32.1	12.8	5.41e-05	0	43	102	1048576	20	4476
2026-01-04 03:04:49.43	340.49	15.07	-30.1	-31.8	13.0	3.66e-05	0	43	102	1048576	20	4378
2026-01-04 03:04:51.45	340.08	15.13	-29.8	-31.0	13.5	1.52e-05	0	43	102	1048576	20	4134
2026-01-04 03:04:53.46	339.67	15.19	-29.7	-30.6	13.8	1.71e-04	0	43	102	1048576	20	4010
2026-01-04 03:04:55.47	339.25	15.24	-29.9	-31.6	13.5	1.83e-05	0	43	102	1048576	19	4391
2026-01-04 03:04:57.48	338.84	15.30	-29.9	-31.8	13.4	7.60e-06	0	43	102	1048576	19	4471
2026-01-04 03:04:59.50	338.42	15.35	-30.4	-32.6	12.5	3.16e-04	0	43	102	1048576	20	4658
2026-01-04 03:05:01.51	338.00	15.40	-30.2	-32.2	12.7	5.41e-05	0	43	102	1048576	20	4515
2026-01-04 03:05:03.52	337.58	15.45	-30.0	-31.4	13.2	1.83e-05	0	43	102	1048576	20	4264
2026-01-04 03:05:05.53	337.16	15.50	-30.2	-32.0	12.9	7.24e-05	0	43	102	1048576	20	4426
2026-01-04 03:05:07.56	336.73	15.55	-30.6	-32.9	12.0	1.69e-04	0	43	102	1048576	21	4645
2026-01-04 03:05:09.56	336.31	15.60	-30.6	-32.9	11.9	1.00e-03	0	43	102	1048576	21	4650
2026-01-04 03:05:11.57	335.88	15.64	-30.3	-32.5	12.6	7.35e-04	0	43	102	1048576	20	4598
2026-01-04 03:05:13.58	335.46	15.68	-30.3	-32.4	12.6	6.48e-05	0	43	102	1048576	20	4569
2026-01-04 03:05:15.59	335.03	15.72	-30.3	-32.4	12.6	5.16e-04	0	43	102	1048576	20	4585
2026-01-04 03:05:17.61	334.60	15.76	-30.3	-32.4	12.6	3.35e-04	0	43	102	1048576	20	4567
2026-01-04 03:05:19.62	334.17	15.80	-30.1	-31.8	13.0	4.95e-05	0	43	102	1048576	20	4395
2026-01-04 03:05:21.63	333.73	15.84	-30.1	-31.7	13.1	3.50e-05	0	43	102	1048576	20	4350
2026-01-04 03:05:23.65	333.30	15.87	-29.9	-31.2	13.4	2.33e-04	0	43	102	1048576	20	4185
2026-01-04 03:05:25.66	332.87	15.91	-29.8	-31.0	13.5	1.52e-05	0	43	102	1048576	20	4142
2026-01-04 03:05:27.68	332.43	15.94	-29.6	-30.9	14.0	2.33e-04	0	43	102	1048576	19	4187
2026-01-04 03:05:29.69	331.99	15.97	-29.9	-31.6	13.5	4.50e-06	0	43	102	1048576	19	4405
2026-01-04 03:05:31.69	331.56	16.00	-29.8	-31.6	13.5	8.30e-06	0	43	102	1048576	19	4394
2026-01-04 03:05:33.70	331.12	16.02	-29.9	-31.2	13.3	1.67e-05	0	43	102	1048576	20	4199
2026-01-04 03:05:35.70	330.69	16.05	-30.0	-31.7	13.0	2.67e-05	0	43	102	1048576	20	4357
2026-01-04 03:05:37.71	330.25	16.07	-30.2	-32.1	12.7	5.11e-05	0	43	102	1048576	20	4510
2026-01-04 03:05:39.72	329.81	16.09	-30.4	-32.7	12.3	1.15e-04	0	43	102	1048576	20	4701
2026-01-04 03:05:41.74	329.37	16.12	-30.6	-32.8	12.0	3.64e-04	0	43	102	1048576	21	4635
2026-01-04 03:05:43.75	328.93	16.13	-30.6	-32.8	11.9	6.23e-04	0	43	102	1048576	21	4652
2026-01-04 03:05:45.78	328.48	16.15	-30.5	-32.7	12.0	3.87e-04	0	43	102	1048576	21	4602
2026-01-04 03:05:47.79	328.04	16.17	-30.5	-32.6	12.1	3.17e-04	0	43	102	1048576	21	4572
2026-01-04 03:05:49.79	327.60	16.18	-30.3	-32.1	12.4	1.59e-04	0	43	102	1048576	21	4411
2026-01-04 03:05:51.80	327.16	16.19	-30.5	-32.5	12.1	2.55e-04	0	43	102	1048576	21	4560
2026-01-04 03:05:53.81	326.72	16.20	-30.3	-32.1	12.4	1.43e-04	0	43	102	1048576	21	4388
2026-01-04 03:05:55.82	326.27	16.21	-30.4	-32.7	12.3	1.64e-04	0	43	102	1048576	20	4713
2026-01-04 03:05:57.84	325.83	16.21	-30.0	-31.6	13.1	5.64e-05	0	43	102	1048576	20	4319
2026-01-04 03:05:59.85	325.39	16.22	-29.7	-31.3	13.5	7.60e-06	0	43	102	1048576	19	4319
2026-01-04 03:06:01.86	324.94	16.22	-29.7	-31.3	13.6	2.09e-04	0	43	102	1048576	19	4305
2026-01-04 03:06:03.86	324.50	16.22	-30.1	-31.8	13.0	2.36e-05	0	43	102	1048576	20	4383
2026-01-04 03:06:05.88	324.06	16.22	-30.3	-32.3	12.6	9.30e-05	0	43	102	1048576	20	4574
2026-01-04 03:06:07.90	323.61	16.22	-30.4	-32.7	12.4	1.70e-04	0	43	102	1048576	20	4683
2026-01-04 03:06:09.92	323.16	16.22	-30.5	-32.5	12.1	2.26e-04	0	43	102	1048576	21	4548
2026-01-04 03:06:11.94	322.72	16.21	-30.0	-31.6	13.1	5.43e-04	0	43	102	1048576	20	4334
2026-01-04 03:06:13.95	322.28	16.20	-29.8	-31.6	13.4	9.90e-06	0	43	102	1048576	19	4412
2026-01-04 03:06:15.97	321.83	16.19	-29.8	-31.6	13.5	7.60e-06	0	43	102	1048576	19	4409
2026-01-04 03:06:17.98	321.39	16.18	-30.0	-32.0	13.2	1.37e-05	0	43	102	1048576	19	4541
2026-01-04 03:06:19.99	320.95	16.17	-30.4	-32.8	12.3	4.96e-04	0	43	102	1048576	20	4725
2026-01-04 03:06:22.00	320.50	16.15	-30.5	-32.6	12.1	2.30e-04	0	43	102	1048576	21	4567
2026-01-04 03:06:24.03	320.06	16.14	-30.6	-32.8	11.9	4.65e-04	0	43	102	1048576	21	4666
2026-01-04 03:06:26.04	319.62	16.12	-30.7	-33.1	11.7	9.18e-04	0	43	102	1048576	21	4770
2026-01-04 03:06:28.05	319.18	16.10	-30.6	-32.8	11.9	3.63e-04	0	43	102	1048576	21	4653
2026-01-04 03:06:30.07	318.74	16.08	-30.4	-32.9	12.2	4.79e-04	0	43	102	1048576	20	4773
2026-01-04 03:06:32.08	318.30	16.06	-30.2	-32.3	12.6	2.23e-04	0	43	102	1048576	20	4583
2026-01-04 03:06:34.09	317.86	16.03	-30.3	-32.4	12.5	9.30e-05	0	43	102	1048576	20	4608
2026-01-04 03:06:36.10	317.42	16.00	-30.2	-32.3	12.6	7.85e-05	0	43	102	1048576	20	4578
2026-01-04 03:06:38.11	316.98	15.98	-30.2	-32.2	12.6	7.24e-05	0	43	102	1048576	20	4524
2026-01-04 03:06:40.12	316.55	15.95	-30.3	-32.5	12.4	8.69e-05	0	43	102	1048576	20	4627
2026-01-04 03:06:42.13	316.11	15.92	-30.4	-32.7	12.4	2.49e-04	0	43	102	1048576	20	4683
2026-01-04 03:06:44.14	315.68	15.88	-30.4	-32.6	12.4	3.26e-04	0	43	102	1048576	20	4669
2026-01-04 03:06:46.15	315.25	15.85	-30.0	-31.0	13.1	6.86e-05	0	43	102	1048576	21	4052
2026-01-04 03:06:48.16	314.81	15.81	-29.4	-30.0	14.1	6.80e-06	0	43	102	1048576	20	3852
2026-01-04 03:06:50.17	314.38	15.77	-29.5	-30.8	14.0	3.42e-04	0	43	102	1048576	19	4148
2026-01-04 03:06:52.19	313.95	15.73	-29.7	-31.1	13.8	3.00e-06	0	43	102	1048576	19	4253
2026-01-04 03:06:54.20	313.52	15.69	-29.8	-31.6	13.5	8.87e-04	0	43	102	1048576	19	4392
2026-01-04 03:06:56.21	313.09	15.65	-29.9	-31.6	13.4	9.90e-06	0	43	102	1048576	19	4416
2026-01-04 03:06:58.23	312.67	15.61	-30.0	-31.7	13.0	3.12e-05	0	43	102	1048576	20	4362
2026-01-04 03:07:00.23	312.24	15.56	-30.1	-32.0	12.8	4.30e-04	0	43	102	1048576	20	4443
2026-01-04 03:07:02.24	311.82	15.51	-30.2	-32.1	12.7	6.17e-05	0	43	102	1048576	20	4489
2026-01-04 03:07:04.25	311.40	15.47	-30.3	-32.3	12.6	1.26e-04	0	43	102	1048576	20	4565
2026-01-04 03:07:06.27	310.97	15.42	-30.1	-32.0	12.7	1.07e-04	0	43	102	1048576	20	4458
2026-01-04 03:07:08.28	310.55	15.36	-30.2	-32.1	12.7	6.86e-05	0	43	102	1048576	20	4506
2026-01-04 03:07:10.30	310.13	15.31	-30.2	-32.1	12.7	7.85e-05	0	43	102	1048576	20	4495
2026-01-04 03:07:12.31	309.72	15.26	-30.0	-31.6	13.0	3.43e-05	0	43	102	1048576	20	4316
2026-01-04 03:07:14.32	309.30	15.20	-30.0	-31.7	13.0	2.28e-05	0	43	102	1048576	20	4341
2026-01-04 03:07:16.33	308.89	15.14	-29.7	-30.8	13.5	9.10e-06	0	43	102	1048576	20	4084
2026-01-04 03:07:18.33	308.48	15.09	-29.6	-30.9	13.9	9.90e-06	0	43	102	1048576	19	4190
2026-01-04 03:07:20.34	308.07	15.03	-29.6	-30.9	13.9	3.00e-06	0	43	102	1048576	19	4200
2026-01-04 03:07:22.35	307.66	14.97	-29.8	-31.5	13.5	5.30e-06	0	43	102	1048576	19	4387
2026-01-04 03:07:24.37	307.25	14.90	-29.9	-31.9	13.2	1.75e-05	0	43	102	1048576	19	4521
2026-01-04 03:07:26.38	306.85	14.84	-30.6	-32.5	12.7	2.82e-05	0	43	102	1048576	20	4524
2026-01-04 03:07:28.38	306.45	14.77	-30.1	-32.1	12.3	1.07e-04	0	43	102	1048576	20	4492
2026-01-04 03:07:30.38	306.05	14.71	-30.4	-32.8	12.2	1.56e-04	0	43	102	1048576	20	4745
2026-01-04 03:07:32.39	305.65	14.64	-30.5	-32.6	11.9	2.15e-04	0	43	102	1048576	21	4572
2026-01-04 03:07:34.41	305.25	14.57	-30.6	-33.0	11.7	6.55e-04	0	43	102	1048576	21	4709
2026-01-04 03:07:36.42	304.85	14.50	-30.4	-32.2	12.2	2.17e-04	0	43	102	1048576	21	4461
2026-01-04 03:07:38.43	304.46	14.43	-30.3	-32.5	12.3	1.42e-03	0	43	102	1048576	20	4652
2026-01-04 03:07:40.45	304.06	14.36	-30.2	-32.3	12.5	1.27e-04	0	43	102	1048576	20	4560
2026-01-04 03:07:42.46	303.67	14.29	-30.2	-32.4	12.4	1.63e-04	0	43	102	1048576	20	4602
2026-01-04 03:07:44.47	303.28	14.21	-30.4	-32.9	12.1	2.76e-04	0	43	102	1048576	20	4794
2026-01-04 03:07:46.48	302.90	14.14	-30.4	-32.4	12.0	2.98e-04	0	43	102	1048576	21	4534
2026-01-04 03:07:48.49	302.51	14.06	-30.3	-31.9	12.3	2.19e-04	0	43	102	1048576	21	4366
2026-01-04 03:07:50.50	302.13	13.98	-29.9	-31.7	13.2	3.20e-05	0	43	102	1048576	19	4468
2026-01-04 03:07:52.51	301.75	13.90	-30.0	-31.6	12.9	9.85e-04	0	43	102	1048576	20	4343
2026-01-04 03:07:54.51	301.37	13.83	-30.0	-31.6	13.0	4.88e-05	0	43	102	1048576	20	4330
2026-01-04 03:07:56.52	301.00	13.75	-30.0	-31.7	12.8	1.83e-03	0	43	102	1048576	20	4376
2026-01-04 03:07:58.53	300.62	13.66	-30.2	-32.2	12.5	1.87e-03	0	43	102	1048576	20	4535
2026-01-04 03:08:00.55	300.25	13.58	-30.4	-32.9	12.0	2.43e-04	0	43	102	1048576	20	4807
2026-01-04 03:08:02.55	299.88	13.50	-30.6	-33.0	11.5	2.87e-03	0	43	102	1048576	21	4752
2026-01-04 03:08:04.56	299.51	13.41	-30.7	-33.2	11.4	8.98e-04	0	43	102	1048576	21	4838
2026-01-04 03:08:06.57	299.15	13.33	-30.5	-32.7	11.7	8.32e-04	0	43	102	1048576	21	4653
2026-01-04 03:08:08.58	298.78	13.24	-30.2	-32.4	12.3	2.18e-03	0	43	102	1048576	20	4633
2026-01-04 03:08:10.60	298.42	13.16	-30.4	-32.8	12.2	2.05e-03	0	43	102	1048576	20	4716
2026-01-04 03:08:12.62	298.06	13.07	-30.5	-32.4	12.0	3.56e-04	0	43	102	1048576	21	4507
2026-01-04 03:08:14.63	297.70	12.98	-30.5	-32.6	12.0	1.43e-03	0	43	102	1048576	21	4562
2026-01-04 03:08:16.64	297.35	12.89	-30.5	-32.7	11.8	1.13e-03	0	43	102	1048576	21	4614
2026-01-04 03:08:18.65	296.99	12.80	-30.3	-32.1	12.3	2.39e-04	0	43	102	1048576	21	4402
2026-01-04 03:08:20.66	296.64	12.71	-30.5	-32.7	11.8	1.72e-03	0	43	102	1048576	21	4603
2026-01-04 03:08:22.69	296.29	12.62	-30.6	-33.0	11.7	2.37e-03	0	43	102	1048576	21	4703
2026-01-04 03:08:24.70	295.94	12.53	-30.7	-33.0	11.6	6.11e-04	0	43	102	1048576	21	4707
2026-01-04 03:08:26.71	295.60	12.44	-30.5	-32.4	12.0	2.11e-03	0	43	102	1048576	21	4505
2026-01-04 03:08:28.72	295.26	12.34	-30.3	-32.5	12.3	1.57e-04	0	43	102	1048576	20	4622
2026-01-04 03:08:30.72	294.92	12.25	-30.1	-31.8	12.7	6.79e-05	0	43	102	1048576	20	4411
2026-01-04 03:08:32.74	294.58	12.15	-30.3	-32.5	12.3	1.26e-04	0	43	102	1048576	20	4633
2026-01-04 03:08:34.75	294.24	12.06	-30.5	-32.7	11.8	2.68e-03	0	43	102	1048576	21	4618
2026-01-04 03:08:36.76	293.91	11.96	-31.1	-33.9	10.6	2.37e-03	0	43	102	1048576	22	4986
2026-01-04 03:08:38.77	293.58	11.87	-31.2	-34.3	10.2	6.56e-03	0	43	102	1048576	22	5139
2026-01-04 03:08:40.79	293.25	11.77	-30.7	-33.3	11.3	4.78e-03	0	43	102	1048576	21	4846
2026-01-04 03:08:42.80	292.92	11.67	-30.7	-33.2	11.4	1.10e-03	0	43	102	1048576	21	4819
2026-01-04 03:08:44.82	292.60	11.57	-30.7	-33.1	11.6	2.86e-03	0	43	102	1048576	21	4762
2026-01-04 03:08:46.83	292.27	11.48	-30.7	-33.3	11.3	7.74e-04	0	43	102	1048576	21	4836
2026-01-04 03:08:48.85	291.95	11.38	-31.3	-34.8	9.8	7.18e-03	0	43	102	1048576	22	5381
2026-01-04 03:08:50.86	291.63	11.28	-31.8	-36.0	8.5	2.88e-02	0	43	102	1048576	23	5850
2026-01-04 03:08:52.87	291.32	11.18	-32.0	-36.3	7.8	9.51e-02	0	43	102	1048576	24	5958
2026-01-04 03:08:54.88	291.00	11.08	-31.8	-35.9	8.1	6.96e-02	0	43	102	1048576	24	5745
2026-01-04 03:08:56.90	290.69	10.98	-31.6	-35.5	8.8	3.98e-02	0	43	102	1048576	23	5647
2026-01-04 03:08:58.92	290.38	10.88	-31.5	-35.1	9.1	3.08e-02	0	43	102	1048576	23	5468
2026-01-04 03:09:00.92	290.07	10.77	-31.6	-35.6	8.6	2.41e-02	0	43	102	1048576	23	5665
2026-01-04 03:09:02.93	289.77	10.67	-31.3	-34.4	9.6	1.42e-02	0	43	102	1048576	23	5144
2026-01-04 03:09:04.94	289.47	10.57	-31.1	-34.5	10.0	4.78e-03	0	43	102	1048576	21	5356
2026-01-04 03:09:06.95	289.17	10.47	-30.8	-33.7	10.3	2.54e-03	0	43	102	1048576	21	5049
2026-01-04 03:09:08.97	288.87	10.36	-30.8	-33.9	10.7	3.11e-03	0	43	102	1048576	21	5094
2026-01-04 03:09:10.98	288.57	10.26	-30.9	-34.0	10.6	3.33e-03	0	43	102	1048576	21	5164
2026-01-04 03:09:12.99	288.28	10.16	-31.0	-34.3	10.4	4.71e-03	0	43	102	1048576	21	5288
2026-01-04 03:09:15.01	287.98	10.05	-30.9	-33.4	10.7	4.28e-03	0	43	102	1048576	22	4829
2026-01-04 03:09:17.02	287.69	9.95	-30.7	-33.4	11.0	1.81e-03	0	43	102	1048576	21	4910
2026-01-04 03:09:19.04	287.40	9.85	-30.5	-33.0	11.3	3.69e-03	0	43	102	1048576	21	4761
2026-01-04 03:09:21.05	287.12	9.74	-30.5	-32.8	11.3	1.69e-03	0	43	102	1048576	21	4705
2026-01-04 03:09:23.06	286.83	9.64	-30.7	-33.6	10.7	2.09e-03	0	43	102	1048576	21	5016
2026-01-04 03:09:25.07	286.55	9.53	-30.4	-33.0	11.5	3.91e-03	0	43	102	1048576	20	4880
2026-01-04 03:09:27.09	286.27	9.43	-30.7	-33.7	10.6	2.49e-03	0	43	102	1048576	21	5048
2026-01-04 03:09:29.10	285.99	9.32	-30.7	-33.5	10.8	4.99e-03	0	43	102	1048576	21	4971
2026-01-04 03:09:31.10	285.72	9.22	-30.8	-33.8	10.6	3.79e-03	0	43	102	1048576	21	5099
2026-01-04 03:09:33.10	285.45	9.11	-30.9	-34.2	10.3	5.00e-03	0	43	102	1048576	21	5261
2026-01-04 03:09:35.11	285.17	9.00	-31.1	-34.5	9.6	1.34e-02	0	43	102	1048576	22	5356
2026-01-04 03:09:37.11	284.91	8.90	-31.0	-34.3	9.7	1.84e-02	0	43	102	1048576	22	5238
2026-01-04 03:09:39.12	284.64	8.79	-30.7	-33.8	10.5	3.91e-03	0	43	102	1048576	21	5106
2026-01-04 03:09:41.14	284.37	8.69	-30.7	-33.6	10.6	2.42e-03	0	43	102	1048576	21	5022
2026-01-04 03:09:43.15	284.11	8.58	-30.6	-33.2	10.9	5.55e-03	0	43	102	1048576	21	4895
2026-01-04 03:09:45.16	283.85	8.47	-30.6	-33.5	10.7	3.03e-03	0	43	102	1048576	21	4993
2026-01-04 03:09:47.17	283.59	8.37	-30.4	-33.3	11.2	4.36e-03	0	43	102	1048576	20	4997
2026-01-04 03:09:49.18	283.33	8.26	-30.5	-33.0	11.0	5.28e-03	0	43	102	1048576	21	4788
2026-01-04 03:09:51.21	283.07	8.15	-30.3	-33.0	11.3	1.17e-03	0	43	102	1048576	20	4917
2026-01-04 03:09:53.22	282.82	8.04	-30.4	-33.4	11.1	4.05e-03	0	43	102	1048576	20	5050
2026-01-04 03:09:55.23	282.56	7.94	-30.7	-33.6	10.4	4.58e-03	0	43	102	1048576	21	5080
2026-01-04 03:09:57.25	282.31	7.83	-30.5	-33.0	10.9	2.48e-03	0	43	102	1048576	21	4828
2026-01-04 03:09:59.26	282.06	7.72	-30.4	-33.4	11.0	3.86e-03	0	43	102	1048576	20	5065
2026-01-04 03:10:01.26	281.82	7.62	-30.7	-33.7	10.4	6.42e-03	0	43	102	1048576	21	5079
2026-01-04 03:10:03.28	281.57	7.51	-30.3	-32.4	11.4	1.22e-03	0	43	102	1048576	21	4599
2026-01-04 03:10:05.29	281.33	7.40	-30.3	-32.9	11.3	9.44e-04	0	43	102	1048576	20	4851
2026-01-04 03:10:07.31	281.09	7.29	-30.4	-33.2	11.1	2.35e-03	0	43	102	1048576	20	4976
2026-01-04 03:10:09.32	280.85	7.19	-30.5	-33.6	10.8	1.97e-03	0	43	102	1048576	20	5143
2026-01-04 03:10:11.32	280.61	7.08	-30.8	-34.3	10.4	4.62e-03	0	43	102	1048576	21	5361
2026-01-04 03:10:13.34	280.38	6.97	-33.5	-45.7	3.8	1.49e+00	0	43	104	1048576	27	14737
2026-01-04 03:10:15.35	280.14	6.86	-33.9	-46.6	3.8	1.49e+00	0	43	104	1048576	27	15469

#Closed at: 2026-01-04 03:10:15
#Recorded file [1 MB]: D:/data/31010_260104_060158.dat