passes_logs/2026/01/04/R2M6_AANII_01/R2M6_AANII_01__20260104_093354_SUOMI_NPP_rec.log

#Pass ID: 20260104_093354_SUOMI NPP
#Satellite: SUOMI NPP
#Configuration: NPP
#almurnet v.1.7.20240730
#Start time: 2026-01-04 09:33:55

#Version: 2.2.20231116
#Station: R2M6_AANII_01
#Location: 30.233357 lon 59.946436 lat
#TLE: 1 37849U 11061A   26001.07732418  .00000182  00000+0  10735-3 0  9990
#TLE: 2 37849  98.7795 303.2470 0002580  87.2016 272.9455 14.19520779734739

#Time	Az	El	Level	Level2	SNR	BER	BlckErr	Temp	State	Recorded	gain1	gain2
2026-01-04 09:33:55.69	134.68	7.06	-31.6	-35.7	5.0	1.29e+00	0	41	0	0	24	5777
2026-01-04 09:33:58.71	134.56	7.29	-32.0	-37.5	6.5	2.32e-01	0	41	102	1048576	24	6769
2026-01-04 09:34:01.73	134.44	7.52	-31.9	-36.8	7.0	2.39e-01	0	41	102	1048576	24	6360
2026-01-04 09:34:04.76	134.31	7.75	-31.1	-33.8	9.7	1.91e-02	0	41	102	1048576	23	4953
2026-01-04 09:34:07.78	134.19	7.98	-30.4	-31.9	11.6	7.98e-04	0	41	102	1048576	22	4307
2026-01-04 09:34:10.80	134.06	8.22	-30.4	-32.6	11.4	6.87e-04	0	41	102	1048576	21	4647
2026-01-04 09:34:13.82	133.92	8.46	-30.8	-33.9	10.5	4.07e-03	0	41	102	1048576	21	5139
2026-01-04 09:34:16.84	133.79	8.70	-31.1	-34.3	10.0	9.32e-03	0	41	102	1048576	22	5189
2026-01-04 09:34:19.85	133.65	8.94	-30.9	-33.3	10.7	3.44e-03	0	42	102	1048576	22	4785
2026-01-04 09:34:22.88	133.52	9.19	-30.6	-32.4	11.5	8.48e-04	0	42	102	1048576	22	4441
2026-01-04 09:34:25.90	133.37	9.43	-30.5	-32.2	11.6	6.06e-04	0	42	102	1048576	22	4360
2026-01-04 09:34:28.93	133.23	9.68	-30.8	-33.1	11.1	1.83e-03	0	42	102	1048576	22	4697
2026-01-04 09:34:31.93	133.08	9.94	-31.0	-33.6	10.7	3.73e-03	0	42	102	1048576	22	4886
2026-01-04 09:34:34.94	132.94	10.19	-30.4	-31.6	12.1	5.05e-04	0	42	102	1048576	22	4172
2026-01-04 09:34:37.96	132.78	10.45	-30.3	-31.9	12.3	1.88e-04	0	42	102	1048576	21	4348
2026-01-04 09:34:40.98	132.63	10.70	-30.6	-32.7	11.8	4.78e-04	0	42	102	1048576	21	4629
2026-01-04 09:34:44.00	132.47	10.97	-30.9	-33.9	11.0	1.84e-03	0	42	102	1048576	21	5058
2026-01-04 09:34:47.03	132.31	11.23	-30.8	-32.8	11.4	1.28e-03	0	42	102	1048576	22	4550
2026-01-04 09:34:50.05	132.15	11.50	-30.7	-32.6	11.6	5.34e-04	0	42	102	1048576	22	4483
2026-01-04 09:34:53.06	131.98	11.77	-30.5	-32.0	12.0	3.95e-04	0	42	102	1048576	22	4279
2026-01-04 09:34:56.07	131.81	12.04	-30.5	-32.0	12.0	3.37e-04	0	42	102	1048576	22	4280
2026-01-04 09:34:59.09	131.64	12.31	-30.6	-32.2	11.9	4.32e-04	0	42	102	1048576	22	4330
2026-01-04 09:35:02.11	131.46	12.59	-30.2	-31.6	12.7	7.62e-05	0	42	102	1048576	21	4234
2026-01-04 09:35:05.13	131.28	12.87	-30.1	-31.4	12.8	5.41e-05	0	42	102	1048576	21	4151
2026-01-04 09:35:08.16	131.09	13.16	-30.5	-32.4	12.1	2.29e-04	0	42	102	1048576	21	4491
2026-01-04 09:35:11.18	130.91	13.45	-31.0	-33.3	11.2	1.11e-03	0	43	102	1048576	22	4690
2026-01-04 09:35:14.20	130.71	13.74	-30.7	-32.5	11.8	5.19e-04	0	43	102	1048576	22	4429
2026-01-04 09:35:17.23	130.52	14.03	-30.5	-31.8	12.3	2.91e-04	0	42	102	1048576	22	4203
2026-01-04 09:35:20.25	130.32	14.33	-30.8	-32.8	11.7	6.37e-04	0	43	102	1048576	22	4522
2026-01-04 09:35:23.27	130.11	14.63	-30.8	-32.9	11.7	5.87e-04	0	42	102	1048576	22	4543
2026-01-04 09:35:26.28	129.91	14.93	-30.6	-32.1	12.2	1.95e-04	0	42	102	1048576	22	4275
2026-01-04 09:35:29.30	129.69	15.24	-30.5	-31.7	12.5	9.76e-05	0	43	102	1048576	22	4152
2026-01-04 09:35:32.32	129.48	15.55	-30.4	-31.4	12.7	8.01e-05	0	43	102	1048576	22	4064
2026-01-04 09:35:35.34	129.25	15.86	-30.6	-32.0	12.3	1.79e-04	0	43	102	1048576	22	4249
2026-01-04 09:35:38.36	129.03	16.18	-30.5	-31.8	12.5	9.99e-05	0	43	102	1048576	22	4161
2026-01-04 09:35:41.38	128.80	16.50	-30.4	-31.5	12.7	6.02e-05	0	43	102	1048576	22	4079
2026-01-04 09:35:44.39	128.56	16.82	-30.8	-32.6	12.0	2.80e-04	0	43	102	1048576	22	4415
2026-01-04 09:35:47.42	128.31	17.15	-30.8	-32.6	12.0	4.00e-04	0	43	102	1048576	22	4437
2026-01-04 09:35:50.43	128.07	17.48	-30.1	-31.1	13.3	1.67e-05	0	43	102	1048576	21	4038
2026-01-04 09:35:53.46	127.81	17.82	-30.2	-31.5	13.1	2.05e-05	0	43	102	1048576	21	4154
2026-01-04 09:35:56.47	127.55	18.16	-30.3	-31.6	13.0	3.73e-05	0	43	102	1048576	21	4201
2026-01-04 09:35:59.50	127.29	18.51	-30.4	-31.8	13.0	5.03e-05	0	43	102	1048576	21	4244
2026-01-04 09:36:02.51	127.02	18.85	-30.3	-31.7	13.1	3.50e-05	0	43	102	1048576	21	4198
2026-01-04 09:36:05.52	126.74	19.21	-30.6	-32.5	12.5	8.69e-05	0	43	102	1048576	21	4478
2026-01-04 09:36:08.54	126.45	19.56	-30.8	-32.9	12.3	1.98e-04	0	43	102	1048576	21	4603
2026-01-04 09:36:11.55	126.16	19.92	-30.7	-32.5	12.6	6.25e-05	0	43	102	1048576	21	4466
2026-01-04 09:36:14.56	125.86	20.29	-30.9	-33.3	12.1	2.94e-04	0	43	102	1048576	21	4724
2026-01-04 09:36:17.58	125.55	20.66	-31.0	-33.1	11.9	8.15e-04	0	43	102	1048576	22	4561
2026-01-04 09:36:20.60	125.24	21.04	-30.9	-32.7	12.2	1.96e-04	0	43	102	1048576	22	4430
2026-01-04 09:36:23.62	124.92	21.42	-31.3	-33.7	11.5	4.02e-04	0	43	102	1048576	22	4779
2026-01-04 09:36:26.64	124.58	21.80	-31.2	-33.5	11.7	9.38e-04	0	43	102	1048576	22	4711
2026-01-04 09:36:29.65	124.25	22.19	-31.1	-33.3	11.8	4.05e-04	0	43	102	1048576	22	4629
2026-01-04 09:36:32.67	123.90	22.59	-31.1	-33.1	12.0	2.04e-04	0	43	102	1048576	22	4568
2026-01-04 09:36:35.70	123.54	22.99	-31.0	-32.8	12.2	2.34e-04	0	43	102	1048576	22	4441
2026-01-04 09:36:38.71	123.17	23.39	-31.0	-33.0	12.1	4.26e-04	0	43	102	1048576	22	4525
2026-01-04 09:36:41.72	122.80	23.80	-31.3	-33.8	11.6	5.76e-04	0	43	102	1048576	22	4794
2026-01-04 09:36:44.74	122.41	24.21	-31.0	-32.9	12.2	3.52e-04	0	43	102	1048576	22	4488
2026-01-04 09:36:47.76	122.01	24.63	-31.3	-33.9	11.5	4.81e-04	0	43	102	1048576	22	4871
2026-01-04 09:36:50.78	121.60	25.06	-31.2	-33.5	11.9	4.00e-04	0	43	102	1048576	22	4680
2026-01-04 09:36:53.80	121.18	25.49	-31.0	-32.9	12.3	3.89e-04	0	43	102	1048576	22	4465
2026-01-04 09:36:56.81	120.75	25.92	-31.1	-33.1	12.1	3.14e-04	0	43	102	1048576	22	4530
2026-01-04 09:36:59.84	120.30	26.37	-30.8	-32.2	12.8	3.73e-05	0	43	102	1048576	22	4224
2026-01-04 09:37:02.85	119.85	26.81	-30.6	-31.7	13.1	2.21e-05	0	43	102	1048576	22	4068
2026-01-04 09:37:05.87	119.38	27.26	-31.0	-32.9	12.4	1.85e-04	0	43	102	1048576	22	4473
2026-01-04 09:37:08.90	118.89	27.72	-30.7	-32.4	12.6	7.85e-05	0	43	102	1048576	22	4343
2026-01-04 09:37:11.92	118.39	28.19	-30.7	-32.7	12.6	8.62e-05	0	43	102	1048576	21	4533
2026-01-04 09:37:14.93	117.88	28.65	-31.0	-32.9	12.2	3.36e-04	0	43	102	1048576	22	4511
2026-01-04 09:37:17.95	117.35	29.13	-30.7	-32.2	12.8	7.47e-05	0	43	102	1048576	22	4252
2026-01-04 09:37:20.98	116.80	29.61	-31.0	-33.0	12.1	2.82e-04	0	43	102	1048576	22	4539
2026-01-04 09:37:24.00	116.24	30.09	-31.1	-33.2	12.1	3.14e-04	0	43	102	1048576	22	4586
2026-01-04 09:37:27.02	115.66	30.58	-31.1	-33.2	12.0	2.52e-04	0	43	102	1048576	22	4592
2026-01-04 09:37:30.04	115.06	31.07	-31.4	-33.7	11.4	1.64e-03	0	43	102	1048576	23	4690
2026-01-04 09:37:33.06	114.45	31.57	-31.3	-33.4	11.5	1.01e-03	0	43	102	1048576	23	4586
2026-01-04 09:37:36.07	113.81	32.07	-31.5	-34.0	11.2	1.37e-03	0	43	102	1048576	23	4800
2026-01-04 09:37:39.10	113.15	32.58	-31.3	-33.1	11.9	3.87e-04	0	43	102	1048576	23	4472
2026-01-04 09:37:42.12	112.48	33.09	-31.4	-33.5	11.7	6.28e-04	0	43	102	1048576	23	4587
2026-01-04 09:37:45.14	111.78	33.61	-31.9	-35.0	10.6	2.41e-03	0	43	102	1048576	23	5150
2026-01-04 09:37:48.16	111.06	34.12	-31.8	-34.4	10.7	3.91e-03	0	43	102	1048576	24	4817
2026-01-04 09:37:51.19	110.31	34.65	-31.7	-34.0	11.0	2.24e-03	0	43	102	1048576	24	4671
2026-01-04 09:37:54.21	109.54	35.17	-31.5	-33.5	11.2	1.25e-03	0	43	102	1048576	24	4514
2026-01-04 09:37:57.21	108.75	35.70	-32.2	-36.0	9.4	8.87e-03	0	43	102	1048576	24	5572
2026-01-04 09:38:00.23	107.92	36.23	-32.0	-35.1	10.1	1.63e-02	0	43	102	1048576	24	5146
2026-01-04 09:38:03.24	107.08	36.76	-31.9	-34.5	10.7	2.55e-03	0	43	102	1048576	24	4905
2026-01-04 09:38:06.26	106.20	37.29	-31.5	-33.4	11.4	6.36e-04	0	43	102	1048576	24	4485
2026-01-04 09:38:09.29	105.29	37.83	-31.3	-33.2	11.9	3.46e-04	0	43	102	1048576	23	4502
2026-01-04 09:38:12.30	104.36	38.36	-31.7	-34.5	10.9	2.51e-03	0	43	102	1048576	23	4983
2026-01-04 09:38:15.32	103.39	38.89	-31.3	-33.4	11.8	4.26e-04	0	43	102	1048576	23	4565
2026-01-04 09:38:18.33	102.39	39.42	-31.6	-34.2	11.1	1.25e-03	0	43	102	1048576	23	4887
2026-01-04 09:38:21.36	101.35	39.95	-31.9	-34.9	10.2	5.87e-03	0	43	102	1048576	24	5086
2026-01-04 09:38:24.37	100.28	40.48	-31.3	-33.3	11.8	5.22e-04	0	43	102	1048576	23	4561
2026-01-04 09:38:27.38	99.18	41.00	-31.6	-34.5	11.0	1.30e-03	0	43	102	1048576	23	5011
2026-01-04 09:38:30.40	98.04	41.51	-31.1	-32.7	12.2	7.04e-04	0	43	102	1048576	23	4340
2026-01-04 09:38:33.43	96.86	42.03	-31.6	-34.3	11.1	5.92e-04	0	43	102	1048576	23	4903
2026-01-04 09:38:36.45	95.65	42.53	-31.4	-33.7	11.6	7.54e-04	0	43	102	1048576	23	4694
2026-01-04 09:38:39.47	94.39	43.03	-31.8	-34.9	10.8	2.92e-03	0	43	102	1048576	23	5166
2026-01-04 09:38:42.49	93.10	43.51	-30.8	-32.3	12.9	1.87e-04	0	43	102	1048576	22	4268
2026-01-04 09:38:45.52	91.76	43.99	-29.4	-29.5	15.2	0.00e+00	0	43	102	1048576	20	3663
2026-01-04 09:38:48.54	90.39	44.45	-31.4	-34.1	11.7	1.36e-04	0	43	102	1048576	22	4926
2026-01-04 09:38:51.56	88.98	44.90	-31.1	-32.9	12.0	1.87e-04	0	43	102	1048576	23	4439
2026-01-04 09:38:54.58	87.53	45.33	-30.7	-32.0	13.0	7.47e-05	0	43	102	1048576	22	4220
2026-01-04 09:38:57.60	86.03	45.75	-30.8	-32.4	12.9	2.89e-05	0	43	102	1048576	22	4329
2026-01-04 09:39:00.62	84.50	46.15	-30.1	-31.0	14.1	3.00e-06	0	44	102	1048576	21	3985
2026-01-04 09:39:03.65	82.93	46.53	-30.8	-32.9	12.8	3.89e-05	0	43	102	1048576	21	4588
2026-01-04 09:39:06.66	81.33	46.89	-31.8	-35.0	10.5	3.94e-03	0	43	102	1048576	23	5239
2026-01-04 09:39:09.68	79.68	47.23	-32.6	-37.4	7.8	7.62e-02	0	43	102	1048576	25	6283
2026-01-04 09:39:12.70	78.01	47.54	-32.2	-35.8	9.2	1.81e-02	0	43	102	1048576	25	5441
2026-01-04 09:39:15.72	76.29	47.83	-31.7	-34.3	10.7	7.79e-03	0	43	102	1048576	24	4851
2026-01-04 09:39:18.73	74.56	48.09	-31.3	-33.4	11.8	4.38e-04	0	43	102	1048576	23	4585
2026-01-04 09:39:21.74	72.80	48.32	-31.0	-33.1	12.4	8.31e-05	0	43	102	1048576	22	4601
2026-01-04 09:39:24.75	71.01	48.52	-30.3	-31.2	13.6	1.67e-05	0	43	102	1048576	22	3988
2026-01-04 09:39:27.76	69.20	48.70	-31.1	-33.5	12.0	1.78e-04	0	43	102	1048576	22	4722
2026-01-04 09:39:30.77	67.37	48.84	-30.2	-31.5	13.7	8.30e-06	0	43	102	1048576	21	4148
2026-01-04 09:39:33.79	65.52	48.95	-29.3	-30.0	15.2	7.00e-07	0	43	102	1048576	19	3901
2026-01-04 09:39:36.81	63.66	49.03	-30.7	-32.8	12.7	4.80e-05	0	43	102	1048576	21	4572
2026-01-04 09:39:39.83	61.79	49.08	-31.1	-33.6	11.8	1.13e-03	0	43	102	1048576	22	4804
2026-01-04 09:39:42.85	59.92	49.09	-30.4	-32.1	13.0	2.13e-05	0	43	102	1048576	21	4392
2026-01-04 09:39:45.86	58.05	49.08	-30.1	-31.1	13.8	2.44e-05	0	43	102	1048576	21	4079
2026-01-04 09:39:48.89	56.18	49.02	-29.7	-30.5	14.7	0.00e+00	0	43	102	1048576	20	3956
2026-01-04 09:39:51.90	54.32	48.94	-29.4	-29.9	14.9	0.00e+00	0	43	102	1048576	20	3793
2026-01-04 09:39:54.93	52.47	48.82	-30.7	-32.9	12.6	1.11e-04	0	43	102	1048576	21	4648
2026-01-04 09:39:57.95	50.64	48.68	-31.3	-34.4	11.2	7.20e-04	0	43	102	1048576	22	5151
2026-01-04 09:40:00.97	48.83	48.50	-31.3	-34.1	11.5	6.54e-04	0	43	102	1048576	22	4973
2026-01-04 09:40:03.98	47.04	48.29	-31.6	-34.7	10.8	2.09e-03	0	43	102	1048576	23	5105
2026-01-04 09:40:06.99	45.29	48.06	-31.6	-34.4	10.9	2.25e-03	0	43	102	1048576	23	4996
2026-01-04 09:40:10.01	43.55	47.79	-31.6	-34.3	11.1	1.17e-03	0	43	102	1048576	23	4938
2026-01-04 09:40:13.03	41.85	47.50	-31.7	-34.1	10.9	8.69e-03	0	43	102	1048576	24	4759
2026-01-04 09:40:16.05	40.17	47.19	-31.7	-34.6	10.9	1.59e-03	0	43	102	1048576	23	5062
2026-01-04 09:40:19.07	38.54	46.85	-31.4	-34.0	11.3	9.07e-04	0	43	102	1048576	23	4821
2026-01-04 09:40:22.09	36.94	46.49	-31.5	-34.1	11.1	2.22e-03	0	43	102	1048576	23	4872
2026-01-04 09:40:25.12	35.37	46.11	-31.4	-33.8	11.3	1.93e-03	0	43	102	1048576	23	4774
2026-01-04 09:40:28.14	33.85	45.71	-30.7	-32.3	12.7	1.01e-04	0	43	102	1048576	22	4335
2026-01-04 09:40:31.15	32.37	45.29	-30.9	-32.7	12.4	1.98e-04	0	43	102	1048576	22	4441
2026-01-04 09:40:34.17	30.92	44.85	-31.2	-33.6	12.1	2.52e-04	0	43	102	1048576	22	4714
2026-01-04 09:40:37.20	29.52	44.40	-31.0	-32.4	12.4	4.37e-04	0	43	102	1048576	23	4215
2026-01-04 09:40:40.23	28.15	43.94	-31.3	-34.0	11.6	3.72e-04	0	43	102	1048576	22	4894
2026-01-04 09:40:43.26	26.82	43.46	-30.9	-32.5	12.6	7.70e-05	0	43	102	1048576	22	4356
2026-01-04 09:40:46.27	25.54	42.98	-30.5	-31.4	13.3	6.02e-05	0	43	102	1048576	22	4021
2026-01-04 09:40:49.29	24.29	42.48	-29.7	-30.5	14.5	0.00e+00	0	44	102	1048576	20	3922
2026-01-04 09:40:52.31	23.08	41.98	-30.3	-32.0	13.5	9.90e-06	0	43	102	1048576	20	4377
2026-01-04 09:40:55.33	21.91	41.47	-30.6	-32.4	12.8	2.05e-05	0	43	102	1048576	21	4429
2026-01-04 09:40:58.35	20.78	40.95	-31.6	-34.5	10.7	3.18e-03	0	44	102	1048576	23	5005
2026-01-04 09:41:01.36	19.69	40.44	-32.1	-35.5	9.6	7.54e-03	0	43	102	1048576	24	5366
2026-01-04 09:41:04.39	18.62	39.91	-31.1	-32.7	12.2	2.56e-04	0	43	102	1048576	23	4326
2026-01-04 09:41:07.40	17.60	39.38	-31.5	-34.0	11.2	7.45e-04	0	43	102	1048576	23	4809
2026-01-04 09:41:10.43	16.60	38.85	-31.7	-34.3	10.5	5.00e-03	0	43	102	1048576	24	4833
2026-01-04 09:41:13.45	15.64	38.32	-31.4	-33.5	11.5	7.83e-04	0	43	102	1048576	23	4629
2026-01-04 09:41:16.46	14.71	37.79	-32.6	-37.1	8.0	4.32e-02	0	44	102	1048576	25	6040
2026-01-04 09:41:19.48	13.81	37.26	-32.5	-36.7	8.5	6.05e-02	0	43	102	1048576	25	5810
2026-01-04 09:41:22.50	12.94	36.73	-33.2	-39.3	6.0	1.14e-01	0	44	102	1048576	26	7292
2026-01-04 09:41:25.53	12.09	36.20	-32.1	-34.9	9.7	1.49e-02	0	43	102	1048576	25	4990
2026-01-04 09:41:28.55	11.28	35.67	-31.6	-33.5	11.1	1.08e-03	0	43	102	1048576	24	4522
2026-01-04 09:41:31.57	10.49	35.14	-31.9	-34.8	10.3	2.95e-03	0	43	102	1048576	24	4990
2026-01-04 09:41:34.59	9.72	34.62	-32.2	-35.7	9.5	1.52e-02	0	43	102	1048576	24	5402
2026-01-04 09:41:37.61	8.98	34.10	-32.4	-36.0	8.9	3.07e-02	0	43	102	1048576	25	5450
2026-01-04 09:41:40.62	8.27	33.59	-32.6	-36.7	8.4	4.04e-02	0	44	102	1048576	25	5822
2026-01-04 09:41:43.63	7.58	33.08	-31.8	-34.2	10.7	9.78e-03	0	43	102	1048576	24	4770
2026-01-04 09:41:46.65	6.90	32.57	-31.3	-33.1	11.8	3.90e-04	0	43	102	1048576	23	4454
2026-01-04 09:41:49.67	6.25	32.06	-32.1	-35.6	9.6	1.40e-02	0	43	102	1048576	24	5333
2026-01-04 09:41:52.69	5.62	31.56	-33.0	-38.0	7.1	1.49e-01	0	43	102	1048576	26	6425
2026-01-04 09:41:55.71	5.01	31.07	-32.7	-36.4	8.2	5.92e-02	0	43	102	1048576	26	5538
2026-01-04 09:41:58.72	4.42	30.58	-32.8	-37.2	7.6	4.53e-02	0	43	102	1048576	26	5969
2026-01-04 09:42:01.75	3.84	30.09	-33.3	-39.9	5.7	3.97e-01	0	43	102	1048576	26	7663
2026-01-04 09:42:04.78	3.28	29.61	-33.2	-39.0	5.9	4.73e-01	0	43	102	1048576	27	6952
2026-01-04 09:42:07.80	2.74	29.13	-32.1	-34.9	9.7	1.24e-02	0	43	102	1048576	25	4974
2026-01-04 09:42:10.82	2.21	28.66	-31.5	-33.4	11.1	1.77e-03	0	43	102	1048576	24	4484
2026-01-04 09:42:13.85	1.70	28.19	-31.2	-33.0	11.7	5.95e-04	0	43	102	1048576	23	4451
2026-01-04 09:42:16.87	1.21	27.73	-30.7	-32.2	12.6	8.16e-05	0	43	102	1048576	22	4254
2026-01-04 09:42:19.89	0.73	27.28	-30.6	-31.8	12.9	5.34e-05	0	43	102	1048576	22	4134
2026-01-04 09:42:22.90	0.26	26.83	-31.1	-33.4	11.8	3.77e-04	0	43	102	1048576	22	4686
2026-01-04 09:42:25.92	359.81	26.39	-32.3	-36.4	8.8	2.54e-02	0	43	102	1048576	24	5768
2026-01-04 09:42:28.93	359.37	25.95	-31.8	-34.6	10.1	9.89e-03	0	43	102	1048576	24	4976
2026-01-04 09:42:31.95	358.94	25.52	-31.7	-34.3	10.4	3.52e-03	0	43	102	1048576	24	4834
2026-01-04 09:42:34.98	358.52	25.09	-30.9	-32.1	12.3	4.40e-04	0	43	102	1048576	23	4131
2026-01-04 09:42:38.00	358.12	24.66	-30.6	-31.8	12.9	2.51e-05	0	44	102	1048576	22	4136
2026-01-04 09:42:41.02	357.72	24.24	-31.0	-33.0	12.0	2.39e-04	0	43	102	1048576	22	4528
2026-01-04 09:42:44.03	357.34	23.83	-31.6	-34.4	10.6	2.42e-03	0	43	102	1048576	23	4961
2026-01-04 09:42:47.04	356.97	23.43	-31.2	-33.0	11.6	7.81e-04	0	43	102	1048576	23	4462
2026-01-04 09:42:50.06	356.60	23.02	-31.3	-33.3	11.4	7.48e-04	0	43	102	1048576	23	4562
2026-01-04 09:42:53.08	356.25	22.63	-30.8	-32.5	12.3	2.46e-04	0	43	102	1048576	22	4363
2026-01-04 09:42:56.10	355.90	22.23	-30.8	-32.6	12.2	1.85e-04	0	44	102	1048576	22	4395
2026-01-04 09:42:59.12	355.56	21.84	-31.3	-33.9	11.3	4.47e-04	0	43	102	1048576	22	4857
2026-01-04 09:43:02.14	355.24	21.46	-31.1	-33.5	11.6	6.59e-04	0	43	102	1048576	22	4716
2026-01-04 09:43:05.16	354.92	21.08	-31.3	-33.9	11.3	1.26e-03	0	43	102	1048576	22	4891
2026-01-04 09:43:08.17	354.61	20.71	-30.9	-32.9	12.0	3.41e-04	0	43	102	1048576	22	4513
2026-01-04 09:43:11.18	354.30	20.34	-30.8	-32.4	12.2	1.14e-03	0	43	102	1048576	22	4362
2026-01-04 09:43:14.20	354.01	19.98	-31.0	-33.3	11.7	1.22e-03	0	43	102	1048576	22	4665
2026-01-04 09:43:17.21	353.72	19.62	-31.0	-33.1	11.6	3.81e-03	0	43	102	1048576	22	4618
2026-01-04 09:43:20.23	353.43	19.26	-31.1	-33.4	11.5	7.78e-04	0	43	102	1048576	22	4692
2026-01-04 09:43:23.25	353.16	18.91	-30.8	-32.6	12.1	2.69e-04	0	43	102	1048576	22	4442
2026-01-04 09:43:26.26	352.89	18.57	-30.5	-31.6	12.7	9.38e-05	0	43	102	1048576	22	4117
2026-01-04 09:43:29.28	352.63	18.22	-30.1	-31.4	12.7	1.44e-02	0	43	102	1048576	21	4160
2026-01-04 09:43:32.30	352.37	17.88	-29.7	-30.8	13.5	1.19e-02	0	43	102	1048576	20	4073
2026-01-04 09:43:35.32	352.12	17.55	-29.8	-31.1	13.2	1.39e-02	0	43	102	1048576	20	4193
2026-01-04 09:43:38.34	351.87	17.22	-30.1	-32.0	12.6	1.39e-02	0	43	102	1048576	20	4481
2026-01-04 09:43:41.35	351.63	16.89	-30.5	-32.6	11.8	1.41e-02	0	43	102	1048576	21	4624
2026-01-04 09:43:44.38	351.40	16.57	-31.1	-33.9	10.7	1.59e-02	0	43	102	1048576	22	4984
2026-01-04 09:43:47.40	351.17	16.25	-31.6	-34.8	10.0	7.19e-03	0	43	102	1048576	23	5173
2026-01-04 09:43:50.42	350.95	15.93	-31.8	-35.4	9.5	1.67e-02	0	43	102	1048576	23	5478
2026-01-04 09:43:53.44	350.73	15.62	-31.6	-34.7	10.1	6.41e-03	0	44	102	1048576	23	5140
2026-01-04 09:43:56.46	350.51	15.31	-31.5	-34.4	10.3	6.38e-03	0	43	102	1048576	23	5023
2026-01-04 09:43:59.48	350.30	15.00	-31.1	-33.4	10.8	7.50e-03	0	44	102	1048576	23	4650
2026-01-04 09:44:02.50	350.10	14.70	-31.2	-33.5	10.7	4.39e-03	0	43	102	1048576	23	4703
2026-01-04 09:44:05.53	349.89	14.40	-31.1	-33.2	11.0	2.01e-03	0	43	102	1048576	23	4597
2026-01-04 09:44:08.55	349.70	14.11	-31.2	-33.4	10.9	2.04e-03	0	43	102	1048576	23	4650
2026-01-04 09:44:11.57	349.50	13.82	-31.2	-33.4	10.8	2.03e-03	0	43	102	1048576	23	4678
2026-01-04 09:44:14.59	349.32	13.53	-31.1	-33.3	10.9	2.01e-03	0	43	102	1048576	23	4639
2026-01-04 09:44:17.60	349.13	13.24	-31.0	-33.0	11.1	1.88e-03	0	43	102	1048576	23	4506
2026-01-04 09:44:20.62	348.95	12.96	-30.9	-32.6	11.4	1.20e-03	0	43	102	1048576	23	4375
2026-01-04 09:44:23.64	348.77	12.68	-31.1	-33.2	11.0	1.05e-03	0	44	102	1048576	23	4577
2026-01-04 09:44:26.66	348.60	12.40	-31.2	-33.5	10.7	2.67e-03	0	43	102	1048576	23	4713
2026-01-04 09:44:29.69	348.43	12.13	-31.3	-34.0	10.3	4.44e-03	0	43	102	1048576	23	4899
2026-01-04 09:44:32.71	348.26	11.86	-31.5	-34.5	9.9	9.22e-03	0	44	102	1048576	23	5106
2026-01-04 09:44:35.74	348.10	11.59	-31.6	-34.9	9.6	1.45e-02	0	43	102	1048576	23	5308
2026-01-04 09:44:38.75	347.93	11.32	-31.6	-35.0	9.5	1.74e-02	0	43	102	1048576	23	5332
2026-01-04 09:44:41.77	347.78	11.06	-31.6	-34.9	9.6	1.38e-02	0	43	102	1048576	23	5289
2026-01-04 09:44:44.79	347.62	10.80	-31.3	-34.0	10.2	7.74e-03	0	43	102	1048576	23	4918
2026-01-04 09:44:47.79	347.47	10.54	-31.2	-33.6	10.5	4.51e-03	0	44	102	1048576	23	4765
2026-01-04 09:44:50.80	347.32	10.29	-30.9	-32.8	11.0	2.87e-03	0	43	102	1048576	23	4482
2026-01-04 09:44:53.82	347.18	10.03	-31.0	-33.0	10.8	1.73e-03	0	43	102	1048576	23	4560
2026-01-04 09:44:56.84	347.03	9.78	-30.9	-32.9	10.9	2.16e-03	0	43	102	1048576	23	4529
2026-01-04 09:44:59.85	346.89	9.53	-31.0	-33.1	10.7	3.61e-03	0	44	102	1048576	23	4608
2026-01-04 09:45:02.87	346.75	9.29	-31.2	-33.7	10.2	4.89e-03	0	44	102	1048576	23	4841
2026-01-04 09:45:05.89	346.62	9.04	-31.2	-34.0	9.9	7.66e-03	0	43	102	1048576	23	4942
2026-01-04 09:45:08.90	346.49	8.80	-31.3	-34.2	9.7	1.05e-02	0	43	102	1048576	23	5080
2026-01-04 09:45:11.92	346.35	8.56	-31.2	-34.1	9.7	1.62e-02	0	43	102	1048576	23	5014
2026-01-04 09:45:14.93	346.23	8.32	-31.1	-33.9	9.9	9.07e-03	0	43	102	1048576	23	4948
2026-01-04 09:45:17.95	346.10	8.09	-31.1	-34.0	9.7	1.02e-02	0	44	102	1048576	23	5021
2026-01-04 09:45:20.97	345.98	7.86	-31.1	-34.2	9.5	1.22e-02	0	44	102	1048576	23	5132
2026-01-04 09:45:23.98	345.85	7.62	-31.2	-34.1	9.7	1.18e-02	0	43	102	1048576	23	5036
2026-01-04 09:45:27.00	345.73	7.39	-31.4	-34.7	9.3	1.58e-02	0	43	102	1048576	23	5271
2026-01-04 09:45:30.01	345.62	7.17	-31.4	-34.9	9.1	2.38e-02	0	44	102	1048576	23	5366
2026-01-04 09:45:33.02	345.50	6.94	-33.5	-45.7	3.8	1.49e+00	0	43	104	1048576	27	14614

#Closed at: 2026-01-04 09:45:33
#Recorded file [1 MB]: D:/data/31010_260104_123357.dat