passes_logs/2026/01/04/R2M6_AANII_01/R2M6_AANII_01__20260104_005135_NOAA_21_JPSS-2_rec.log

#Pass ID: 20260104_005135_NOAA 21 (JPSS-2)
#Satellite: NOAA 21 (JPSS-2)
#Configuration: NOAA 21
#almurnet v.1.7.20240730
#Start time: 2026-01-04 00:52:19

#Version: 2.2.20231116
#Station: R2M6_AANII_01
#Location: 30.233357 lon 59.946436 lat
#TLE: 1 54234U 22150A   26003.45311712  .00000198  00000+0  11468-3 0  9993
#TLE: 2 54234  98.7487 304.4932 0001159 347.5017  12.6130 14.19531745163172

#Time	Az	El	Level	Level2	SNR	BER	BlckErr	Temp	State	Recorded	gain1	gain2
2026-01-04 00:52:19.14	14.40	10.52	-33.9	-44.9	3.8	8.47e-01	0	43	0	0	28	12720
2026-01-04 00:52:22.14	14.31	10.78	-34.3	-46.4	3.8	1.49e+00	0	43	104	0	28	14544
2026-01-04 00:52:25.15	14.21	11.05	-34.3	-46.4	3.8	1.49e+00	0	43	104	0	28	14540
2026-01-04 00:52:28.15	14.11	11.32	-34.3	-46.4	3.8	1.49e+00	0	43	104	0	28	14504
2026-01-04 00:52:31.15	14.01	11.59	-34.3	-46.3	3.8	1.49e+00	0	43	104	0	28	14493
2026-01-04 00:52:34.13	13.90	11.86	-34.2	-46.3	3.8	1.49e+00	0	43	104	0	28	14499
2026-01-04 00:52:37.13	13.80	12.14	-34.4	-46.6	3.8	1.49e+00	0	43	104	0	28	14683
2026-01-04 00:52:40.14	13.69	12.42	-34.3	-46.5	3.8	1.49e+00	0	43	104	0	28	14660
2026-01-04 00:52:43.15	13.58	12.70	-34.3	-46.4	3.8	1.49e+00	0	43	104	0	28	14595
2026-01-04 00:52:46.14	13.46	12.99	-34.2	-46.3	3.8	1.49e+00	0	43	104	0	28	14457
2026-01-04 00:52:49.15	13.35	13.28	-34.1	-46.0	3.8	1.49e+00	0	43	104	0	28	14167
2026-01-04 00:52:52.14	13.23	13.57	-33.8	-45.9	3.8	1.49e+00	0	43	104	0	27	14521
2026-01-04 00:52:55.13	13.11	13.86	-33.2	-42.1	3.9	1.48e+00	0	43	104	0	26	10043
2026-01-04 00:52:58.13	12.99	14.16	-33.4	-43.2	3.9	1.48e+00	0	43	104	0	26	11136
2026-01-04 00:53:01.12	12.86	14.46	-32.9	-39.4	5.3	7.42e-01	0	43	104	0	26	7647
2026-01-04 00:53:04.13	12.73	14.77	-31.3	-34.9	9.1	2.94e-02	0	43	102	1048576	23	5429
2026-01-04 00:53:07.14	12.60	15.08	-29.9	-32.3	11.9	6.03e-04	0	43	102	1048576	20	4774
2026-01-04 00:53:10.15	12.46	15.40	-29.5	-31.9	12.5	1.15e-04	0	43	102	1048576	19	4730
2026-01-04 00:53:13.14	12.33	15.72	-30.1	-33.0	11.4	6.03e-04	0	43	102	1048576	20	5024
2026-01-04 00:53:16.15	12.18	16.04	-29.9	-32.9	11.9	4.12e-04	0	43	102	1048576	19	5086
2026-01-04 00:53:19.16	12.04	16.37	-29.3	-31.7	13.0	2.89e-05	0	43	102	1048576	18	4782
2026-01-04 00:53:22.14	11.89	16.69	-29.4	-31.5	12.8	5.72e-05	0	43	102	1048576	19	4613
2026-01-04 00:53:25.15	11.74	17.03	-28.4	-30.1	14.3	1.50e-06	0	43	102	1048576	17	4394
2026-01-04 00:53:28.13	11.59	17.37	-28.7	-30.7	13.9	1.50e-06	0	43	102	1048576	17	4568
2026-01-04 00:53:31.14	11.43	17.71	-29.0	-31.2	13.4	9.90e-06	0	43	102	1048576	18	4592
2026-01-04 00:53:34.13	11.26	18.06	-27.0	-29.1	14.1	7.00e-07	0	43	102	1048576	16	4551
2026-01-04 00:53:37.12	11.10	18.41	-28.2	-30.2	14.5	0.00e+00	0	43	102	1048576	16	4523
2026-01-04 00:53:40.12	10.92	18.77	-27.9	-30.1	14.8	0.00e+00	0	43	102	1048576	15	4610
2026-01-04 00:53:43.11	10.75	19.13	-28.2	-30.1	14.7	4.02e-03	0	43	102	1048576	16	4479
2026-01-04 00:53:46.13	10.57	19.50	-27.8	-29.8	15.0	0.00e+00	0	43	102	1048576	15	4522
2026-01-04 00:53:49.14	10.38	19.88	-27.7	-29.5	15.2	3.59e-03	0	43	102	1048576	15	4438
2026-01-04 00:53:52.13	10.19	20.25	-27.7	-29.5	15.2	0.00e+00	0	43	102	1048576	15	4435
2026-01-04 00:53:55.12	10.00	20.64	-27.4	-29.3	15.6	0.00e+00	0	43	102	1048576	14	4487
2026-01-04 00:53:58.12	9.80	21.03	-27.2	-28.9	15.8	3.46e-03	0	43	102	1048576	14	4380
2026-01-04 00:54:01.10	9.59	21.42	-27.1	-28.7	15.9	0.00e+00	0	43	102	1048576	14	4328
2026-01-04 00:54:04.10	9.38	21.82	-26.9	-28.7	16.2	3.64e-03	0	43	102	1048576	13	4432
2026-01-04 00:54:07.10	9.16	22.23	-26.8	-28.5	16.3	3.31e-03	0	43	102	1048576	13	4367
2026-01-04 00:54:10.11	8.94	22.64	-26.8	-28.5	16.3	3.74e-03	0	43	102	1048576	13	4362
2026-01-04 00:54:13.11	8.71	23.06	-26.9	-28.6	16.2	3.60e-03	0	43	102	1048576	13	4408
2026-01-04 00:54:16.11	8.47	23.49	-26.8	-28.4	16.4	0.00e+00	0	43	102	1048576	13	4347
2026-01-04 00:54:19.10	8.23	23.92	-26.9	-28.7	16.2	3.79e-03	0	43	102	1048576	13	4430
2026-01-04 00:54:22.09	7.98	24.36	-27.1	-28.6	16.0	3.68e-03	0	43	102	1048576	14	4304
2026-01-04 00:54:25.09	7.72	24.80	-27.1	-28.6	16.0	4.09e-04	0	43	102	1048576	14	4303
2026-01-04 00:54:28.09	7.46	25.26	-27.2	-28.8	15.9	3.91e-03	0	43	102	1048576	14	4350
2026-01-04 00:54:31.09	7.18	25.72	-27.4	-29.4	15.6	0.00e+00	0	43	102	1048576	14	4512
2026-01-04 00:54:34.10	6.90	26.19	-27.7	-29.6	15.3	3.28e-03	0	43	102	1048576	15	4450
2026-01-04 00:54:37.08	6.61	26.66	-27.8	-29.6	15.3	0.00e+00	0	43	102	1048576	15	4460
2026-01-04 00:54:40.09	6.31	27.14	-27.6	-29.4	15.4	0.00e+00	0	43	102	1048576	15	4383
2026-01-04 00:54:43.06	6.00	27.63	-27.8	-29.8	15.2	3.52e-03	0	43	102	1048576	15	4519
2026-01-04 00:54:46.05	5.68	28.13	-28.2	-30.1	14.9	0.00e+00	0	43	102	1048576	16	4488
2026-01-04 00:54:49.06	5.35	28.63	-28.3	-30.3	14.8	7.00e-07	0	43	102	1048576	16	4541
2026-01-04 00:54:52.06	5.01	29.15	-28.2	-30.1	14.9	0.00e+00	0	43	102	1048576	16	4467
2026-01-04 00:54:55.05	4.66	29.67	-27.7	-29.5	15.4	0.00e+00	0	43	102	1048576	15	4422
2026-01-04 00:54:58.05	4.29	30.20	-27.5	-29.0	15.7	0.00e+00	0	43	102	1048576	15	4277
2026-01-04 00:55:01.06	3.92	30.74	-27.3	-29.1	15.9	0.00e+00	0	43	102	1048576	14	4411
2026-01-04 00:55:04.08	3.52	31.30	-27.3	-29.1	15.9	0.00e+00	0	43	102	1048576	14	4423
2026-01-04 00:55:07.10	3.11	31.86	-27.6	-29.3	15.5	0.00e+00	0	43	102	1048576	15	4363
2026-01-04 00:55:10.12	2.69	32.43	-27.7	-29.4	15.5	0.00e+00	0	43	102	1048576	15	4404
2026-01-04 00:55:13.16	2.25	33.01	-27.7	-29.6	15.4	0.00e+00	0	43	102	1048576	15	4439
2026-01-04 00:55:16.17	1.80	33.60	-27.8	-29.7	15.3	0.00e+00	0	43	102	1048576	15	4473
2026-01-04 00:55:19.19	1.32	34.20	-28.3	-30.3	14.9	0.00e+00	0	43	102	1048576	16	4530
2026-01-04 00:55:22.21	0.83	34.81	-28.6	-30.4	14.6	0.00e+00	0	43	102	1048576	17	4441
2026-01-04 00:55:25.23	0.32	35.42	-29.0	-31.4	14.0	1.50e-06	0	43	102	1048576	17	4743
2026-01-04 00:55:28.25	359.79	36.05	-29.3	-31.8	13.5	2.76e-04	0	43	102	1048576	18	4756
2026-01-04 00:55:31.27	359.24	36.69	-29.4	-31.5	13.3	1.37e-05	0	43	102	1048576	19	4550
2026-01-04 00:55:34.30	358.67	37.33	-29.5	-31.7	13.2	2.93e-04	0	43	102	1048576	19	4629
2026-01-04 00:55:37.32	358.07	37.99	-29.7	-32.1	13.0	2.68e-04	0	43	102	1048576	19	4756
2026-01-04 00:55:40.34	357.45	38.65	-29.6	-31.9	13.1	5.31e-04	0	43	102	1048576	19	4675
2026-01-04 00:55:43.36	356.80	39.33	-30.0	-32.7	12.6	2.55e-04	0	43	102	1048576	19	4967
2026-01-04 00:55:46.38	356.12	40.01	-29.8	-32.3	12.9	1.53e-04	0	43	102	1048576	19	4810
2026-01-04 00:55:49.40	355.41	40.70	-29.2	-31.4	13.7	9.10e-06	0	43	102	1048576	18	4631
2026-01-04 00:55:52.42	354.67	41.40	-29.4	-31.9	13.4	1.42e-04	0	43	102	1048576	18	4797
2026-01-04 00:55:55.44	353.90	42.11	-29.6	-31.9	13.1	2.06e-04	0	43	102	1048576	19	4696
2026-01-04 00:55:58.47	353.09	42.82	-29.7	-32.0	13.1	2.48e-04	0	43	102	1048576	19	4726
2026-01-04 00:56:01.46	352.26	43.54	-30.0	-32.3	12.5	1.53e-04	0	43	102	1048576	20	4691
2026-01-04 00:56:04.49	351.37	44.27	-30.0	-32.4	12.4	1.45e-04	0	43	102	1048576	20	4747
2026-01-04 00:56:07.51	350.44	45.00	-30.0	-32.4	12.4	1.74e-04	0	43	102	1048576	20	4751
2026-01-04 00:56:10.51	349.48	45.73	-29.9	-32.2	12.6	7.78e-05	0	43	102	1048576	20	4671
2026-01-04 00:56:13.54	348.46	46.48	-30.2	-32.9	12.1	2.26e-04	0	43	102	1048576	20	4912
2026-01-04 00:56:16.55	347.40	47.22	-29.7	-31.6	13.0	4.27e-05	0	43	102	1048576	20	4473
2026-01-04 00:56:19.58	346.27	47.97	-29.8	-32.5	12.8	5.34e-05	0	43	102	1048576	19	4890
2026-01-04 00:56:22.60	345.10	48.72	-29.5	-31.6	13.4	9.90e-06	0	43	102	1048576	19	4574
2026-01-04 00:56:25.62	343.86	49.46	-30.0	-32.4	12.4	1.60e-04	0	43	102	1048576	20	4742
2026-01-04 00:56:28.64	342.57	50.21	-29.3	-31.1	13.6	6.80e-06	0	43	102	1048576	19	4444
2026-01-04 00:56:31.65	341.21	50.94	-29.7	-32.1	12.9	4.65e-05	0	43	102	1048576	19	4754
2026-01-04 00:56:34.68	339.77	51.68	-29.3	-31.6	13.6	8.30e-06	0	43	102	1048576	18	4679
2026-01-04 00:56:37.70	338.27	52.40	-29.0	-30.8	14.1	1.50e-06	0	43	102	1048576	18	4453
2026-01-04 00:56:40.71	336.69	53.12	-28.8	-30.9	14.3	0.00e+00	0	43	102	1048576	17	4583
2026-01-04 00:56:43.74	335.03	53.82	-28.7	-30.8	14.4	3.00e-06	0	43	102	1048576	17	4575
2026-01-04 00:56:46.75	333.30	54.50	-28.4	-30.5	14.8	0.00e+00	0	43	102	1048576	16	4601
2026-01-04 00:56:49.77	331.47	55.16	-28.8	-30.4	14.3	1.98e-03	0	43	102	1048576	18	4349
2026-01-04 00:56:52.79	329.56	55.81	-28.4	-30.5	14.7	0.00e+00	0	43	102	1048576	16	4600
2026-01-04 00:56:55.80	327.57	56.42	-27.9	-29.3	15.4	3.15e-03	0	43	102	1048576	16	4259
2026-01-04 00:56:58.82	325.48	57.01	-27.7	-29.5	15.4	0.00e+00	0	43	102	1048576	15	4432
2026-01-04 00:57:01.84	323.30	57.56	-27.2	-28.8	16.1	1.96e-03	0	43	102	1048576	14	4345
2026-01-04 00:57:04.86	321.03	58.08	-27.3	-29.1	16.0	7.27e-04	0	43	102	1048576	14	4420
2026-01-04 00:57:07.88	318.68	58.56	-27.2	-28.7	16.2	1.64e-03	0	43	102	1048576	14	4317
2026-01-04 00:57:10.90	316.24	59.00	-26.2	-27.0	17.3	6.74e-04	0	43	102	1048576	13	3972
2026-01-04 00:57:13.91	313.73	59.39	-26.6	-28.0	16.8	0.00e+00	0	43	102	1048576	13	4237
2026-01-04 00:57:16.93	311.15	59.73	-26.4	-27.6	17.0	1.96e-03	0	43	102	1048576	13	4112
2026-01-04 00:57:19.94	308.50	60.02	-27.0	-28.9	16.3	0.00e+00	0	43	102	1048576	13	4469
2026-01-04 00:57:22.95	305.81	60.25	-26.7	-27.7	16.6	1.44e-04	0	43	102	1048576	14	4049
2026-01-04 00:57:25.97	303.06	60.43	-26.5	-27.7	17.0	0.00e+00	0	43	102	1048576	13	4151
2026-01-04 00:57:28.99	300.27	60.54	-26.5	-27.9	16.8	0.00e+00	0	43	102	1048576	13	4202
2026-01-04 00:57:32.00	297.48	60.60	-26.6	-28.0	16.7	0.00e+00	0	43	102	1048576	13	4222
2026-01-04 00:57:35.02	294.68	60.59	-27.0	-28.4	16.3	0.00e+00	0	43	102	1048576	14	4239
2026-01-04 00:57:38.04	291.88	60.53	-26.8	-28.5	16.5	0.00e+00	0	43	102	1048576	13	4358
2026-01-04 00:57:41.06	289.10	60.40	-26.8	-28.3	16.5	0.00e+00	0	43	102	1048576	13	4323
2026-01-04 00:57:44.09	286.35	60.21	-26.5	-28.2	16.9	0.00e+00	0	43	102	1048576	12	4389
2026-01-04 00:57:47.10	283.66	59.97	-27.9	-30.0	15.1	0.00e+00	0	43	102	1048576	15	4590
2026-01-04 00:57:50.13	281.01	59.67	-27.4	-28.9	15.8	0.00e+00	0	43	102	1048576	15	4258
2026-01-04 00:57:53.15	278.43	59.32	-28.1	-29.9	15.0	7.00e-07	0	43	102	1048576	16	4426
2026-01-04 00:57:56.17	275.93	58.92	-27.5	-29.0	15.7	0.00e+00	0	43	102	1048576	15	4295
2026-01-04 00:57:59.20	273.49	58.47	-27.4	-29.5	14.7	7.00e-07	0	43	102	1048576	16	4559
2026-01-04 00:58:02.22	271.15	57.98	-28.9	-31.3	13.6	6.10e-06	0	43	102	1048576	17	4724
2026-01-04 00:58:05.23	268.91	57.46	-27.8	-29.7	15.3	3.60e-03	0	43	102	1048576	15	4472
2026-01-04 00:58:08.25	266.74	56.89	-28.2	-30.1	14.9	0.00e+00	0	43	102	1048576	16	4473
2026-01-04 00:58:11.27	264.67	56.30	-27.3	-29.0	15.9	3.71e-03	0	43	102	1048576	14	4378
2026-01-04 00:58:14.29	262.68	55.67	-29.2	-31.4	13.6	9.84e-04	0	43	102	1048576	18	4658
2026-01-04 00:58:17.30	260.79	55.03	-28.0	-29.1	15.1	9.28e-04	0	43	102	1048576	17	4074
2026-01-04 00:58:20.33	258.97	54.35	-28.5	-30.4	14.4	9.02e-04	0	43	102	1048576	17	4456
2026-01-04 00:58:23.34	257.25	53.67	-29.8	-32.4	12.5	5.90e-04	0	43	102	1048576	19	4891
2026-01-04 00:58:26.37	255.60	52.96	-27.7	-28.9	15.5	6.93e-04	0	43	102	1048576	16	4134
2026-01-04 00:58:29.40	254.03	52.24	-29.7	-32.1	12.8	2.82e-05	0	43	102	1048576	19	4771
2026-01-04 00:58:32.43	252.53	51.51	-28.5	-30.2	14.4	7.00e-07	0	43	102	1048576	17	4404
2026-01-04 00:58:35.46	251.11	50.77	-28.8	-31.0	14.0	2.20e-06	0	43	102	1048576	17	4630
2026-01-04 00:58:38.48	249.76	50.03	-30.1	-32.9	11.9	3.81e-04	0	43	102	1048576	20	4932
2026-01-04 00:58:41.48	248.48	49.29	-29.3	-31.7	13.2	1.98e-05	0	43	102	1048576	18	4749
2026-01-04 00:58:44.50	247.26	48.54	-29.5	-31.8	12.9	1.67e-05	0	43	102	1048576	19	4672
2026-01-04 00:58:47.51	246.09	47.79	-29.9	-32.7	12.4	1.91e-04	0	43	102	1048576	19	4972
2026-01-04 00:58:50.53	244.98	47.04	-28.4	-29.5	14.5	7.00e-07	0	43	102	1048576	18	4105
2026-01-04 00:58:53.55	243.92	46.29	-28.8	-30.9	13.9	3.00e-06	0	43	102	1048576	17	4624
2026-01-04 00:58:56.56	242.92	45.55	-31.1	-34.4	10.1	4.22e-03	0	43	102	1048576	22	5309
2026-01-04 00:58:59.58	241.95	44.81	-29.5	-31.3	12.7	1.03e-04	0	43	102	1048576	20	4432
2026-01-04 00:59:02.60	241.04	44.08	-28.4	-30.2	14.4	0.00e+00	0	43	102	1048576	17	4389
2026-01-04 00:59:05.62	240.16	43.35	-29.5	-31.8	12.8	1.44e-05	0	43	102	1048576	19	4688
2026-01-04 00:59:08.64	239.32	42.62	-31.0	-34.3	10.2	8.10e-03	0	43	102	1048576	22	5261
2026-01-04 00:59:11.66	238.52	41.91	-29.3	-31.8	13.1	3.20e-05	0	43	102	1048576	18	4778
2026-01-04 00:59:14.68	237.75	41.20	-29.5	-32.2	13.0	3.35e-05	0	43	102	1048576	18	4907
2026-01-04 00:59:17.69	237.02	40.50	-29.6	-32.0	12.8	9.91e-05	0	43	102	1048576	19	4749
2026-01-04 00:59:20.71	236.32	39.81	-30.3	-33.4	11.4	6.96e-04	0	43	102	1048576	20	5150
2026-01-04 00:59:23.74	235.64	39.13	-30.0	-32.6	11.9	4.15e-04	0	43	102	1048576	20	4834
2026-01-04 00:59:26.75	235.00	38.45	-29.0	-30.6	13.5	1.60e-05	0	43	102	1048576	19	4296
2026-01-04 00:59:29.77	234.38	37.79	-29.5	-31.9	12.8	6.79e-05	0	43	102	1048576	19	4707
2026-01-04 00:59:32.79	233.78	37.13	-29.2	-31.5	13.3	1.83e-05	0	43	102	1048576	18	4687
2026-01-04 00:59:35.81	233.21	36.49	-29.7	-32.2	12.6	6.33e-05	0	43	102	1048576	19	4821
2026-01-04 00:59:38.83	232.67	35.85	-29.5	-31.8	12.8	6.56e-05	0	43	102	1048576	19	4714
2026-01-04 00:59:41.84	232.14	35.23	-29.1	-31.4	13.3	2.51e-05	0	43	102	1048576	18	4684
2026-01-04 00:59:44.87	231.63	34.61	-28.5	-30.0	14.2	1.50e-06	0	43	102	1048576	18	4238
2026-01-04 00:59:47.88	231.14	34.00	-28.5	-30.5	14.2	7.00e-07	0	43	102	1048576	17	4489
2026-01-04 00:59:50.90	230.67	33.40	-28.6	-30.6	14.1	7.00e-07	0	43	102	1048576	17	4536
2026-01-04 00:59:53.92	230.22	32.81	-27.5	-28.6	15.5	0.00e+00	0	43	102	1048576	16	4078
2026-01-04 00:59:56.94	229.78	32.23	-27.6	-29.4	15.2	0.00e+00	0	43	102	1048576	15	4416
2026-01-04 00:59:59.96	229.36	31.66	-28.3	-30.5	14.4	7.00e-07	0	43	102	1048576	16	4622
2026-01-04 01:00:02.98	228.95	31.10	-28.1	-30.1	14.6	0.00e+00	0	43	102	1048576	16	4489
2026-01-04 01:00:06.00	228.56	30.55	-27.8	-29.7	14.9	0.00e+00	0	43	102	1048576	15	4501
2026-01-04 01:00:09.02	228.18	30.00	-27.2	-28.9	15.6	0.00e+00	0	43	102	1048576	14	4381
2026-01-04 01:00:12.03	227.82	29.47	-27.3	-29.1	15.5	0.00e+00	0	43	102	1048576	14	4448
2026-01-04 01:00:15.06	227.46	28.94	-27.8	-29.9	14.8	0.00e+00	0	43	102	1048576	15	4556
2026-01-04 01:00:18.07	227.12	28.42	-27.7	-29.7	14.9	0.00e+00	0	43	102	1048576	15	4508
2026-01-04 01:00:21.09	226.79	27.91	-27.6	-29.3	15.1	0.00e+00	0	43	102	1048576	15	4409
2026-01-04 01:00:24.11	226.47	27.41	-27.1	-28.9	15.6	0.00e+00	0	43	102	1048576	14	4388
2026-01-04 01:00:27.13	226.15	26.92	-26.9	-28.3	15.9	0.00e+00	0	43	102	1048576	14	4226
2026-01-04 01:00:30.15	225.85	26.43	-27.2	-28.9	15.6	0.00e+00	0	43	102	1048576	14	4405
2026-01-04 01:00:33.17	225.56	25.96	-27.2	-29.0	15.5	0.00e+00	0	43	102	1048576	14	4430
2026-01-04 01:00:36.18	225.28	25.49	-27.1	-28.7	15.6	2.63e-03	0	43	102	1048576	14	4349
2026-01-04 01:00:39.21	225.00	25.02	-26.9	-28.8	15.8	8.43e-04	0	43	102	1048576	13	4474
2026-01-04 01:00:42.22	224.74	24.57	-26.7	-28.4	16.0	0.00e+00	0	43	102	1048576	13	4372
2026-01-04 01:00:45.24	224.48	24.12	-26.6	-28.2	16.1	3.08e-03	0	43	102	1048576	13	4307
2026-01-04 01:00:48.25	224.23	23.68	-26.6	-28.1	16.2	0.00e+00	0	43	102	1048576	13	4278
2026-01-04 01:00:51.27	223.98	23.24	-26.8	-28.5	16.0	3.48e-03	0	43	102	1048576	13	4381
2026-01-04 01:00:54.29	223.74	22.82	-26.9	-28.7	15.8	4.11e-05	0	43	102	1048576	13	4454
2026-01-04 01:00:57.31	223.51	22.39	-27.1	-28.8	15.5	0.00e+00	0	43	102	1048576	14	4367
2026-01-04 01:01:00.33	223.29	21.98	-27.2	-29.1	15.4	4.42e-04	0	43	102	1048576	14	4454
2026-01-04 01:01:03.35	223.07	21.57	-27.3	-29.3	15.2	6.74e-04	0	43	102	1048576	14	4510
2026-01-04 01:01:06.36	222.86	21.17	-27.3	-29.2	15.3	7.22e-04	0	43	102	1048576	14	4481
2026-01-04 01:01:09.38	222.65	20.77	-27.5	-29.6	15.0	7.47e-04	0	43	102	1048576	14	4602
2026-01-04 01:01:12.40	222.45	20.38	-27.7	-29.7	14.7	7.00e-07	0	43	102	1048576	15	4522
2026-01-04 01:01:15.42	222.25	19.99	-27.2	-29.0	15.4	6.25e-04	0	43	102	1048576	14	4418
2026-01-04 01:01:18.44	222.06	19.61	-27.0	-28.6	15.6	0.00e+00	0	43	102	1048576	14	4319
2026-01-04 01:01:21.45	221.87	19.24	-27.0	-28.7	15.5	5.70e-04	0	43	102	1048576	14	4332
2026-01-04 01:01:24.48	221.69	18.87	-27.0	-28.6	15.4	0.00e+00	0	43	102	1048576	14	4324
2026-01-04 01:01:27.49	221.51	18.51	-27.2	-29.0	15.3	0.00e+00	0	43	102	1048576	14	4428
2026-01-04 01:01:30.51	221.34	18.15	-27.1	-28.7	15.4	0.00e+00	0	43	102	1048576	14	4358
2026-01-04 01:01:33.52	221.17	17.79	-27.2	-29.0	15.2	0.00e+00	0	43	102	1048576	14	4434
2026-01-04 01:01:36.55	221.01	17.44	-27.2	-29.0	15.2	0.00e+00	0	43	102	1048576	14	4440
2026-01-04 01:01:39.58	220.85	17.09	-27.4	-29.6	14.8	0.00e+00	0	43	102	1048576	14	4597
2026-01-04 01:01:42.60	220.69	16.75	-27.6	-29.5	14.6	7.00e-07	0	43	102	1048576	15	4465
2026-01-04 01:01:45.62	220.54	16.42	-27.7	-29.6	14.5	0.00e+00	0	43	102	1048576	15	4500
2026-01-04 01:01:48.64	220.39	16.09	-27.8	-29.9	14.4	2.33e-03	0	43	102	1048576	15	4580
2026-01-04 01:01:51.66	220.24	15.76	-27.8	-29.9	14.4	7.00e-07	0	43	102	1048576	15	4593
2026-01-04 01:01:54.67	220.10	15.44	-27.7	-29.8	14.4	2.11e-03	0	43	102	1048576	15	4568
2026-01-04 01:01:57.69	219.96	15.12	-27.8	-29.9	14.3	1.64e-03	0	43	102	1048576	15	4584
2026-01-04 01:02:00.72	219.82	14.80	-27.8	-29.9	14.3	1.52e-03	0	43	102	1048576	15	4589
2026-01-04 01:02:03.73	219.69	14.49	-27.7	-29.7	14.4	1.50e-06	0	43	102	1048576	15	4535
2026-01-04 01:02:06.74	219.56	14.18	-27.7	-29.8	14.4	7.80e-04	0	43	102	1048576	15	4552
2026-01-04 01:02:09.76	219.43	13.88	-27.7	-29.6	14.4	4.01e-04	0	43	102	1048576	15	4502
2026-01-04 01:02:12.77	219.30	13.58	-27.6	-29.6	14.4	7.00e-07	0	43	102	1048576	15	4509
2026-01-04 01:02:15.78	219.18	13.28	-27.6	-29.5	14.4	0.00e+00	0	43	102	1048576	15	4490
2026-01-04 01:02:18.80	219.06	12.99	-27.7	-29.7	14.3	0.00e+00	0	43	102	1048576	15	4541
2026-01-04 01:02:21.83	218.94	12.70	-27.6	-29.5	14.4	7.00e-07	0	43	102	1048576	15	4481
2026-01-04 01:02:24.86	218.83	12.41	-27.7	-29.8	14.2	2.20e-06	0	43	102	1048576	15	4568
2026-01-04 01:02:27.87	218.72	12.13	-27.8	-29.9	14.1	7.00e-07	0	43	102	1048576	15	4611
2026-01-04 01:02:30.89	218.60	11.85	-27.8	-29.9	14.1	0.00e+00	0	43	102	1048576	15	4611
2026-01-04 01:02:33.91	218.50	11.57	-27.7	-29.7	14.2	3.00e-06	0	43	102	1048576	15	4552
2026-01-04 01:02:36.93	218.39	11.30	-27.8	-30.0	14.0	4.50e-06	0	43	102	1048576	15	4645
2026-01-04 01:02:39.95	218.29	11.02	-27.9	-30.1	13.9	1.50e-06	0	43	102	1048576	15	4678
2026-01-04 01:02:42.97	218.18	10.76	-28.2	-30.4	13.6	7.60e-06	0	43	102	1048576	16	4649
2026-01-04 01:02:45.99	218.08	10.49	-28.1	-30.2	13.7	6.10e-06	0	43	102	1048576	16	4574
2026-01-04 01:02:49.00	217.99	10.23	-28.1	-30.1	13.8	3.80e-06	0	43	102	1048576	16	4556
2026-01-04 01:02:52.02	217.89	9.97	-28.2	-30.4	13.6	5.30e-06	0	43	102	1048576	16	4634
2026-01-04 01:02:55.03	217.80	9.71	-28.3	-30.7	13.3	1.44e-05	0	43	102	1048576	16	4743
2026-01-04 01:02:58.05	217.70	9.46	-28.3	-30.7	13.3	1.29e-05	0	43	102	1048576	16	4741
2026-01-04 01:03:01.08	217.61	9.20	-28.3	-30.7	13.3	1.06e-05	0	43	102	1048576	16	4746
2026-01-04 01:03:04.09	217.53	8.95	-28.4	-30.9	13.2	2.62e-04	0	43	102	1048576	16	4818
2026-01-04 01:03:07.10	217.44	8.71	-28.5	-30.8	12.9	5.79e-05	0	43	102	1048576	17	4677
2026-01-04 01:03:10.11	217.35	8.46	-28.6	-30.9	12.8	3.75e-04	0	43	102	1048576	17	4718
2026-01-04 01:03:13.13	217.27	8.22	-28.7	-31.2	12.6	3.50e-04	0	43	102	1048576	17	4807
2026-01-04 01:03:16.15	217.19	7.98	-28.7	-31.2	12.5	3.93e-04	0	43	102	1048576	17	4824
2026-01-04 01:03:19.17	217.10	7.74	-28.9	-31.8	12.1	4.97e-04	0	43	102	1048576	17	5038
2026-01-04 01:03:22.19	217.02	7.50	-29.0	-31.5	11.9	3.46e-04	0	43	102	1048576	18	4826
2026-01-04 01:03:25.21	216.95	7.27	-29.0	-31.5	12.0	4.47e-04	0	43	102	1048576	18	4807
2026-01-04 01:03:28.23	216.87	7.03	-33.1	-45.0	3.8	1.49e+00	0	43	104	1048576	26	14233

#Closed at: 2026-01-04 01:03:30
#Recorded file [1 MB]: D:/data/31010_260104_035301.dat