passes_logs/2026/01/04/R2M6_AANII_01/R2M6_AANII_01__20260104_040237_FENGYUN_3D_rec.log

#Pass ID: 20260104_040237_FENGYUN 3D
#Satellite: FENGYUN 3D
#Configuration: FENGYUN 3D
#almurnet v.1.7.20240730
#Start time: 2026-01-04 04:02:39

#Version: 2.2.20231116
#Station: R2M6_AANII_01
#Location: 30.233357 lon 59.946436 lat
#TLE: 1 43010U 17072A   26003.51579816  .00000092  00000+0  65324-4 0  9992
#TLE: 2 43010  98.9912 335.1548 0001916 128.4619 231.6729 14.19692074421623

#Time	Az	El	Level	Level2	SNR	BER	BlckErr	Temp	State	Recorded	gain1	gain2
2026-01-04 04:02:39.24	11.78	7.11	-30.0	-33.4	5.3	7.86e-01	0	41	0	0	20	5308
2026-01-04 04:02:42.25	11.54	7.31	-30.0	-33.5	9.7	9.51e-03	0	41	102	1048576	19	5426
2026-01-04 04:02:45.27	11.30	7.52	-29.4	-32.1	10.7	3.79e-03	0	41	102	1048576	19	4887
2026-01-04 04:02:48.30	11.05	7.73	-28.4	-30.4	12.4	8.69e-05	0	41	102	1048576	17	4544
2026-01-04 04:02:51.33	10.80	7.93	-28.4	-31.0	12.4	8.58e-05	0	41	102	1048576	16	4853
2026-01-04 04:02:54.34	10.55	8.14	-28.1	-30.2	13.0	3.07e-04	0	41	102	1048576	16	4568
2026-01-04 04:02:57.36	10.29	8.35	-27.7	-29.3	13.5	9.10e-06	0	41	102	1048576	16	4328
2026-01-04 04:03:00.38	10.03	8.57	-27.5	-29.4	13.6	4.50e-06	0	41	102	1048576	15	4470
2026-01-04 04:03:03.40	9.77	8.78	-27.4	-29.5	13.9	1.10e-06	0	41	102	1048576	14	4617
2026-01-04 04:03:06.41	9.50	8.99	-27.4	-29.1	13.9	6.80e-06	0	41	102	1048576	15	4373
2026-01-04 04:03:09.41	9.23	9.21	-27.4	-29.1	13.9	0.00e+00	0	42	102	1048576	15	4367
2026-01-04 04:03:12.42	8.96	9.42	-27.4	-29.1	13.9	1.10e-06	0	42	102	1048576	15	4368
2026-01-04 04:03:15.45	8.67	9.64	-27.1	-28.4	14.3	0.00e+00	0	42	102	1048576	15	4176
2026-01-04 04:03:18.47	8.39	9.86	-27.1	-28.3	14.4	1.10e-06	0	42	102	1048576	15	4129
2026-01-04 04:03:21.49	8.10	10.08	-27.2	-28.7	14.2	1.10e-06	0	42	102	1048576	15	4251
2026-01-04 04:03:24.51	7.80	10.30	-27.1	-28.9	14.3	1.10e-06	0	42	102	1048576	14	4423
2026-01-04 04:03:27.54	7.50	10.52	-27.2	-29.1	14.2	3.40e-06	0	42	102	1048576	14	4463
2026-01-04 04:03:30.55	7.20	10.75	-26.8	-28.1	14.8	0.00e+00	0	42	102	1048576	14	4207
2026-01-04 04:03:33.57	6.89	10.97	-26.8	-28.1	14.9	0.00e+00	0	42	102	1048576	14	4180
2026-01-04 04:03:36.58	6.58	11.20	-26.7	-27.9	15.0	0.00e+00	0	42	102	1048576	14	4137
2026-01-04 04:03:39.61	6.26	11.43	-26.6	-27.8	15.1	0.00e+00	0	42	102	1048576	14	4106
2026-01-04 04:03:42.62	5.94	11.66	-26.6	-27.7	15.1	0.00e+00	0	42	102	1048576	14	4086
2026-01-04 04:03:45.65	5.61	11.89	-26.5	-28.0	15.2	0.00e+00	0	42	102	1048576	13	4280
2026-01-04 04:03:48.66	5.27	12.12	-26.6	-28.1	15.2	0.00e+00	0	42	102	1048576	13	4305
2026-01-04 04:03:51.69	4.93	12.35	-26.6	-28.2	15.1	0.00e+00	0	42	102	1048576	13	4317
2026-01-04 04:03:54.70	4.59	12.58	-26.7	-28.5	14.9	1.10e-06	0	42	102	1048576	13	4424
2026-01-04 04:03:57.72	4.24	12.82	-26.4	-27.8	15.4	0.00e+00	0	42	102	1048576	13	4218
2026-01-04 04:04:00.74	3.88	13.05	-26.4	-27.9	15.4	0.00e+00	0	42	102	1048576	13	4240
2026-01-04 04:04:03.76	3.52	13.29	-26.3	-27.6	15.5	0.00e+00	0	42	102	1048576	13	4166
2026-01-04 04:04:06.76	3.15	13.53	-26.2	-27.4	15.7	0.00e+00	0	42	102	1048576	13	4104
2026-01-04 04:04:09.78	2.77	13.77	-26.2	-27.3	15.8	0.00e+00	0	42	102	1048576	13	4077
2026-01-04 04:04:12.80	2.39	14.01	-26.2	-27.3	15.8	0.00e+00	0	42	102	1048576	13	4073
2026-01-04 04:04:15.82	2.00	14.25	-26.1	-27.0	15.9	0.00e+00	0	42	102	1048576	13	4001
2026-01-04 04:04:18.84	1.61	14.49	-26.0	-27.3	16.1	0.00e+00	0	42	102	1048576	12	4181
2026-01-04 04:04:21.86	1.21	14.74	-26.1	-27.5	15.9	0.00e+00	0	42	102	1048576	12	4257
2026-01-04 04:04:24.89	0.80	14.98	-26.1	-27.5	15.9	0.00e+00	0	43	102	1048576	12	4255
2026-01-04 04:04:27.90	0.38	15.23	-25.8	-26.9	16.3	0.00e+00	0	42	102	1048576	12	4100
2026-01-04 04:04:30.92	359.96	15.47	-25.8	-26.9	16.3	0.00e+00	0	42	102	1048576	12	4084
2026-01-04 04:04:33.95	359.53	15.72	-25.7	-26.7	16.4	0.00e+00	0	43	102	1048576	12	4026
2026-01-04 04:04:36.97	359.09	15.97	-25.8	-27.4	16.4	0.00e+00	0	43	102	1048576	11	4334
2026-01-04 04:04:39.99	358.65	16.22	-25.7	-27.2	16.5	0.00e+00	0	43	102	1048576	11	4279
2026-01-04 04:04:43.01	358.20	16.47	-25.6	-27.0	16.6	0.00e+00	0	43	102	1048576	11	4210
2026-01-04 04:04:46.03	357.74	16.72	-25.5	-26.6	16.8	0.00e+00	0	42	102	1048576	11	4129
2026-01-04 04:04:49.05	357.27	16.97	-25.5	-26.8	16.7	0.00e+00	0	43	102	1048576	11	4168
2026-01-04 04:04:52.07	356.79	17.22	-25.7	-27.1	16.6	0.00e+00	0	43	102	1048576	11	4237
2026-01-04 04:04:55.09	356.31	17.48	-25.6	-26.9	16.7	0.00e+00	0	43	102	1048576	11	4185
2026-01-04 04:04:58.11	355.82	17.73	-25.5	-26.7	16.2	0.00e+00	0	43	102	1048576	11	4141
2026-01-04 04:05:01.13	355.32	17.98	-25.3	-26.8	17.0	0.00e+00	0	43	102	1048576	10	4277
2026-01-04 04:05:04.14	354.81	18.23	-25.1	-26.4	17.3	0.00e+00	0	43	102	1048576	10	4184
2026-01-04 04:05:07.16	354.29	18.49	-25.1	-26.3	17.3	5.06e-04	0	43	102	1048576	10	4158
2026-01-04 04:05:10.18	353.76	18.74	-25.2	-26.7	17.1	4.51e-04	0	43	102	1048576	10	4250
2026-01-04 04:05:13.21	353.23	19.00	-25.1	-26.5	17.3	0.00e+00	0	43	102	1048576	10	4186
2026-01-04 04:05:16.23	352.68	19.25	-24.9	-26.5	17.5	4.02e-04	0	43	102	1048576	9	4306
2026-01-04 04:05:19.24	352.13	19.50	-25.2	-26.5	17.3	3.65e-04	0	43	102	1048576	10	4194
2026-01-04 04:05:22.27	351.56	19.76	-25.0	-26.2	17.4	3.02e-04	0	43	102	1048576	10	4130
2026-01-04 04:05:25.28	350.99	20.01	-25.0	-26.1	17.5	2.31e-04	0	43	102	1048576	10	4105
2026-01-04 04:05:28.30	350.41	20.26	-24.9	-25.9	17.6	2.55e-04	0	43	102	1048576	10	4051
2026-01-04 04:05:31.32	349.81	20.51	-24.9	-25.9	17.6	2.76e-04	0	43	102	1048576	10	4054
2026-01-04 04:05:34.33	349.21	20.76	-24.9	-25.8	17.7	0.00e+00	0	43	102	1048576	10	4029
2026-01-04 04:05:37.35	348.60	21.01	-24.7	-25.6	17.8	1.83e-05	0	43	102	1048576	10	3975
2026-01-04 04:05:40.38	347.97	21.26	-24.8	-25.8	17.7	0.00e+00	0	43	102	1048576	10	4015
2026-01-04 04:05:43.39	347.34	21.51	-24.6	-25.3	18.0	0.00e+00	0	43	102	1048576	10	3896
2026-01-04 04:05:46.41	346.70	21.76	-24.4	-24.8	18.2	0.00e+00	0	43	102	1048576	10	3787
2026-01-04 04:05:49.43	346.04	22.00	-24.2	-24.9	18.4	0.00e+00	0	43	102	1048576	9	3918
2026-01-04 04:05:52.44	345.38	22.24	-24.1	-24.8	18.5	0.00e+00	0	43	102	1048576	9	3890
2026-01-04 04:05:55.45	344.71	22.48	-24.2	-25.0	18.4	0.00e+00	0	43	102	1048576	9	3926
2026-01-04 04:05:58.47	344.02	22.72	-24.4	-25.3	18.2	0.00e+00	0	43	102	1048576	9	4012
2026-01-04 04:06:01.49	343.33	22.96	-24.6	-25.7	18.0	0.00e+00	0	43	102	1048576	9	4108
2026-01-04 04:06:04.51	342.62	23.20	-24.4	-25.3	18.2	0.00e+00	0	43	102	1048576	9	4005
2026-01-04 04:06:07.53	341.90	23.43	-24.2	-24.9	18.5	0.00e+00	0	43	102	1048576	9	3900
2026-01-04 04:06:10.55	341.17	23.66	-24.3	-25.1	18.4	0.00e+00	0	43	102	1048576	9	3950
2026-01-04 04:06:13.56	340.43	23.88	-24.2	-24.9	18.4	0.00e+00	0	43	102	1048576	9	3917
2026-01-04 04:06:16.57	339.69	24.10	-24.2	-24.9	18.5	0.00e+00	0	43	102	1048576	9	3906
2026-01-04 04:06:19.59	338.92	24.32	-24.3	-25.1	18.3	0.00e+00	0	43	102	1048576	9	3959
2026-01-04 04:06:22.61	338.15	24.54	-24.0	-25.0	18.6	0.00e+00	0	43	102	1048576	8	4051
2026-01-04 04:06:25.63	337.37	24.75	-24.0	-25.1	18.6	0.00e+00	0	43	102	1048576	8	4062
2026-01-04 04:06:28.65	336.58	24.95	-24.0	-25.5	18.6	0.00e+00	0	43	102	1048576	7	4275
2026-01-04 04:06:31.67	335.77	25.16	-24.2	-25.4	18.5	8.20e-04	0	43	102	1048576	8	4130
2026-01-04 04:06:34.69	334.96	25.35	-24.0	-25.1	18.7	0.00e+00	0	43	102	1048576	8	4057
2026-01-04 04:06:37.71	334.13	25.55	-23.6	-24.8	19.0	0.00e+00	0	43	102	1048576	7	4099
2026-01-04 04:06:40.73	333.30	25.73	-23.7	-25.0	18.9	8.17e-04	0	43	102	1048576	7	4144
2026-01-04 04:06:43.75	332.45	25.92	-24.0	-25.0	18.7	6.88e-04	0	43	102	1048576	8	4050
2026-01-04 04:06:46.77	331.60	26.09	-24.0	-25.1	18.6	0.00e+00	0	43	102	1048576	8	4062
2026-01-04 04:06:49.79	330.73	26.26	-23.8	-25.1	18.9	3.87e-04	0	43	102	1048576	7	4174
2026-01-04 04:06:52.82	329.86	26.43	-23.7	-25.0	18.9	8.81e-05	0	43	102	1048576	7	4148
2026-01-04 04:06:55.83	328.98	26.58	-23.7	-25.0	18.9	0.00e+00	0	43	102	1048576	7	4150
2026-01-04 04:06:58.85	328.09	26.73	-23.7	-24.8	19.0	0.00e+00	0	43	102	1048576	7	4106
2026-01-04 04:07:01.87	327.19	26.88	-23.7	-24.8	19.0	1.04e-04	0	43	102	1048576	7	4096
2026-01-04 04:07:04.89	326.28	27.02	-23.7	-24.8	19.0	0.00e+00	0	43	102	1048576	7	4109
2026-01-04 04:07:07.91	325.37	27.14	-23.7	-24.8	19.0	0.00e+00	0	43	102	1048576	7	4110
2026-01-04 04:07:10.93	324.44	27.27	-23.6	-24.6	19.1	6.42e-04	0	43	102	1048576	7	4067
2026-01-04 04:07:13.95	323.52	27.38	-23.5	-24.3	19.3	0.00e+00	0	43	102	1048576	7	3988
2026-01-04 04:07:16.97	322.58	27.49	-23.4	-24.8	19.3	0.00e+00	0	43	102	1048576	6	4216
2026-01-04 04:07:19.98	321.64	27.58	-23.9	-25.3	18.8	0.00e+00	0	43	102	1048576	7	4221
2026-01-04 04:07:23.00	320.69	27.67	-23.3	-24.1	19.4	0.00e+00	0	43	102	1048576	7	3932
2026-01-04 04:07:26.03	319.74	27.76	-23.5	-24.5	19.2	0.00e+00	0	43	102	1048576	7	4022
2026-01-04 04:07:29.05	318.78	27.83	-23.4	-24.8	19.3	0.00e+00	0	43	102	1048576	6	4206
2026-01-04 04:07:32.07	317.82	27.89	-23.5	-24.5	19.2	0.00e+00	0	43	102	1048576	7	4029
2026-01-04 04:07:35.09	316.85	27.95	-23.3	-24.5	19.4	0.00e+00	0	43	102	1048576	6	4143
2026-01-04 04:07:38.11	315.88	27.99	-23.1	-24.1	19.6	0.00e+00	0	43	102	1048576	6	4038
2026-01-04 04:07:41.13	314.91	28.03	-23.0	-23.9	19.7	0.00e+00	0	43	102	1048576	6	4003
2026-01-04 04:07:44.16	313.94	28.06	-23.2	-24.3	19.5	0.00e+00	0	43	102	1048576	6	4097
2026-01-04 04:07:47.18	312.96	28.08	-23.3	-24.4	19.4	0.00e+00	0	43	102	1048576	6	4131
2026-01-04 04:07:50.20	311.99	28.09	-23.2	-24.4	19.4	0.00e+00	0	43	102	1048576	6	4126
2026-01-04 04:07:53.23	311.01	28.09	-23.4	-24.8	19.3	0.00e+00	0	43	102	1048576	6	4211
2026-01-04 04:07:56.25	310.03	28.08	-23.7	-24.8	19.0	0.00e+00	0	43	102	1048576	7	4113
2026-01-04 04:07:59.27	309.06	28.06	-23.6	-24.7	19.0	0.00e+00	0	43	102	1048576	7	4086
2026-01-04 04:08:02.27	308.09	28.03	-23.4	-24.3	19.3	0.00e+00	0	43	102	1048576	7	3973
2026-01-04 04:08:05.29	307.12	27.99	-23.2	-24.2	19.5	0.00e+00	0	43	102	1048576	6	4075
2026-01-04 04:08:08.31	306.15	27.95	-23.1	-24.0	19.6	0.00e+00	0	43	102	1048576	6	4028
2026-01-04 04:08:11.33	305.18	27.89	-23.1	-24.2	19.5	0.00e+00	0	43	102	1048576	6	4075
2026-01-04 04:08:14.35	304.22	27.83	-23.2	-24.3	19.5	0.00e+00	0	43	102	1048576	6	4101
2026-01-04 04:08:17.37	303.26	27.76	-23.3	-24.5	19.3	0.00e+00	0	43	102	1048576	6	4152
2026-01-04 04:08:20.40	302.30	27.68	-23.4	-24.8	19.2	0.00e+00	0	43	102	1048576	6	4228
2026-01-04 04:08:23.42	301.35	27.59	-23.3	-24.1	19.3	0.00e+00	0	43	102	1048576	7	3944
2026-01-04 04:08:26.43	300.41	27.49	-23.3	-24.5	19.4	0.00e+00	0	43	102	1048576	6	4137
2026-01-04 04:08:29.45	299.48	27.38	-23.2	-24.4	19.4	0.00e+00	0	43	102	1048576	6	4111
2026-01-04 04:08:32.46	298.55	27.27	-23.4	-24.7	19.3	0.00e+00	0	43	102	1048576	6	4182
2026-01-04 04:08:35.48	297.62	27.15	-23.3	-24.0	19.3	0.00e+00	0	43	102	1048576	7	3919
2026-01-04 04:08:38.49	296.71	27.02	-23.3	-24.1	19.3	0.00e+00	0	43	102	1048576	7	3934
2026-01-04 04:08:41.51	295.80	26.88	-22.9	-23.3	19.7	0.00e+00	0	43	102	1048576	7	3740
2026-01-04 04:08:44.53	294.90	26.74	-23.0	-23.9	19.7	0.00e+00	0	43	102	1048576	6	3991
2026-01-04 04:08:47.55	294.01	26.59	-23.1	-24.1	19.5	0.00e+00	0	43	102	1048576	6	4036
2026-01-04 04:08:50.57	293.12	26.43	-23.3	-24.0	19.3	0.00e+00	0	43	102	1048576	7	3918
2026-01-04 04:08:53.59	292.25	26.27	-23.4	-24.7	19.2	0.00e+00	0	43	102	1048576	6	4203
2026-01-04 04:08:56.61	291.38	26.10	-23.4	-24.7	19.2	0.00e+00	0	43	102	1048576	6	4202
2026-01-04 04:08:59.63	290.52	25.92	-23.2	-24.3	19.4	0.00e+00	0	43	102	1048576	6	4108
2026-01-04 04:09:02.64	289.68	25.74	-23.1	-24.2	19.4	0.00e+00	0	43	102	1048576	6	4066
2026-01-04 04:09:05.65	288.84	25.55	-23.2	-24.4	19.3	0.00e+00	0	43	102	1048576	6	4111
2026-01-04 04:09:08.66	288.02	25.36	-23.3	-24.6	19.2	0.00e+00	0	43	102	1048576	6	4184
2026-01-04 04:09:11.69	287.20	25.16	-23.3	-24.1	19.2	0.00e+00	0	43	102	1048576	7	3942
2026-01-04 04:09:14.71	286.39	24.96	-23.6	-24.8	18.9	0.00e+00	0	43	102	1048576	7	4103
2026-01-04 04:09:17.71	285.60	24.75	-23.5	-24.5	19.0	0.00e+00	0	43	102	1048576	7	4023
2026-01-04 04:09:20.73	284.81	24.54	-23.6	-24.6	18.9	0.00e+00	0	43	102	1048576	7	4058
2026-01-04 04:09:23.75	284.04	24.33	-23.5	-24.4	19.0	0.00e+00	0	43	102	1048576	7	4015
2026-01-04 04:09:26.77	283.27	24.11	-23.5	-24.4	19.0	0.00e+00	0	43	102	1048576	7	4003
2026-01-04 04:09:29.80	282.52	23.88	-23.4	-24.3	19.1	0.00e+00	0	43	102	1048576	7	3995
2026-01-04 04:09:32.81	281.78	23.66	-23.4	-24.2	19.2	0.00e+00	0	43	102	1048576	7	3950
2026-01-04 04:09:35.83	281.04	23.43	-23.4	-24.3	19.1	0.00e+00	0	43	102	1048576	7	3988
2026-01-04 04:09:38.85	280.32	23.20	-23.6	-24.7	18.8	0.00e+00	0	43	102	1048576	7	4084
2026-01-04 04:09:41.88	279.61	22.96	-23.5	-24.5	18.9	8.96e-04	0	43	102	1048576	7	4031
2026-01-04 04:09:44.90	278.91	22.72	-23.7	-24.9	18.7	9.70e-04	0	43	102	1048576	7	4146
2026-01-04 04:09:47.90	278.22	22.48	-23.6	-24.6	18.9	0.00e+00	0	43	102	1048576	7	4047
2026-01-04 04:09:50.92	277.54	22.24	-23.6	-24.7	18.8	7.38e-04	0	43	102	1048576	7	4073
2026-01-04 04:09:53.94	276.88	22.00	-23.7	-24.9	18.7	6.79e-04	0	43	102	1048576	7	4140
2026-01-04 04:09:56.96	276.22	21.75	-23.8	-25.2	18.6	1.94e-04	0	43	102	1048576	7	4200
2026-01-04 04:09:59.98	275.57	21.50	-23.9	-25.4	18.4	0.00e+00	0	43	102	1048576	7	4264
2026-01-04 04:10:03.00	274.93	21.26	-24.0	-25.1	18.3	5.70e-06	0	43	102	1048576	8	4080
2026-01-04 04:10:06.02	274.31	21.01	-24.4	-26.0	17.9	1.10e-06	0	43	102	1048576	8	4298
2026-01-04 04:10:09.04	273.69	20.75	-24.2	-25.5	18.1	3.40e-06	0	43	102	1048576	8	4167
2026-01-04 04:10:12.06	273.08	20.50	-24.3	-25.7	18.0	7.66e-05	0	43	102	1048576	8	4213
2026-01-04 04:10:15.07	272.49	20.25	-24.3	-25.7	18.0	0.00e+00	0	43	102	1048576	8	4220
2026-01-04 04:10:18.09	271.90	20.00	-24.3	-25.6	18.0	0.00e+00	0	43	102	1048576	8	4211
2026-01-04 04:10:21.10	271.33	19.74	-24.2	-25.5	18.1	1.10e-06	0	43	102	1048576	8	4167
2026-01-04 04:10:24.11	270.76	19.49	-24.3	-25.6	18.0	0.00e+00	0	43	102	1048576	8	4189
2026-01-04 04:10:27.14	270.20	19.24	-24.5	-26.1	17.8	0.00e+00	0	43	102	1048576	8	4321
2026-01-04 04:10:30.16	269.65	18.98	-24.7	-26.2	17.5	0.00e+00	0	43	102	1048576	9	4232
2026-01-04 04:10:33.18	269.12	18.73	-24.5	-25.6	17.7	0.00e+00	0	43	102	1048576	9	4100
2026-01-04 04:10:36.20	268.58	18.47	-24.3	-25.7	18.0	0.00e+00	0	43	102	1048576	8	4217
2026-01-04 04:10:39.22	268.06	18.22	-24.9	-26.4	17.3	0.00e+00	0	43	102	1048576	9	4294
2026-01-04 04:10:42.25	267.55	17.96	-25.5	-26.7	16.6	0.00e+00	0	43	102	1048576	11	4141
2026-01-04 04:10:45.27	267.05	17.71	-25.3	-26.8	16.8	0.00e+00	0	43	102	1048576	10	4296
2026-01-04 04:10:48.29	266.55	17.45	-25.3	-26.8	16.8	0.00e+00	0	43	102	1048576	10	4288
2026-01-04 04:10:51.30	266.06	17.20	-25.0	-26.2	17.1	0.00e+00	0	43	102	1048576	10	4137
2026-01-04 04:10:54.32	265.59	16.95	-25.0	-26.3	17.1	0.00e+00	0	43	102	1048576	10	4146
2026-01-04 04:10:57.34	265.11	16.69	-25.2	-26.6	16.9	0.00e+00	0	43	102	1048576	10	4226
2026-01-04 04:11:00.36	264.65	16.44	-25.2	-26.6	16.9	0.00e+00	0	43	102	1048576	10	4244
2026-01-04 04:11:03.38	264.20	16.19	-25.1	-26.5	16.9	0.00e+00	0	43	102	1048576	10	4206
2026-01-04 04:11:06.41	263.75	15.94	-25.2	-26.7	16.8	0.00e+00	0	43	102	1048576	10	4267
2026-01-04 04:11:09.43	263.31	15.69	-25.3	-26.8	16.7	0.00e+00	0	43	102	1048576	10	4289
2026-01-04 04:11:12.45	262.87	15.44	-25.3	-26.9	16.7	8.46e-04	0	43	102	1048576	10	4312
2026-01-04 04:11:15.46	262.45	15.19	-25.5	-27.2	16.5	2.04e-04	0	43	102	1048576	10	4403
2026-01-04 04:11:18.49	262.03	14.95	-25.8	-27.3	16.2	0.00e+00	0	43	102	1048576	11	4315
2026-01-04 04:11:21.51	261.62	14.70	-25.7	-27.3	16.2	8.34e-04	0	43	102	1048576	11	4313
2026-01-04 04:11:24.53	261.22	14.46	-25.8	-27.5	16.0	9.75e-04	0	43	102	1048576	11	4356
2026-01-04 04:11:27.56	260.82	14.21	-25.7	-27.3	16.1	0.00e+00	0	43	102	1048576	11	4322
2026-01-04 04:11:30.58	260.42	13.97	-25.8	-27.5	16.0	9.78e-04	0	43	102	1048576	11	4362
2026-01-04 04:11:33.60	260.04	13.73	-26.4	-28.2	15.2	1.38e-03	0	43	102	1048576	12	4451
2026-01-04 04:11:36.62	259.66	13.49	-25.9	-27.2	15.8	0.00e+00	0	43	102	1048576	12	4189
2026-01-04 04:11:39.63	259.29	13.25	-25.9	-27.3	15.7	0.00e+00	0	43	102	1048576	12	4197
2026-01-04 04:11:42.64	258.93	13.01	-25.9	-27.7	15.8	1.31e-03	0	43	102	1048576	11	4432
2026-01-04 04:11:45.66	258.57	12.77	-25.9	-27.2	15.8	0.00e+00	0	43	102	1048576	12	4167
2026-01-04 04:11:48.69	258.21	12.54	-26.0	-27.8	15.7	0.00e+00	0	43	102	1048576	11	4462
2026-01-04 04:11:51.71	257.86	12.30	-26.0	-27.4	15.6	0.00e+00	0	43	102	1048576	12	4236
2026-01-04 04:11:54.72	257.52	12.07	-26.0	-27.4	15.6	0.00e+00	0	43	102	1048576	12	4244
2026-01-04 04:11:57.74	257.18	11.84	-26.1	-27.7	15.4	0.00e+00	0	43	102	1048576	12	4318
2026-01-04 04:12:00.77	256.85	11.61	-26.3	-28.1	15.2	0.00e+00	0	43	102	1048576	12	4432
2026-01-04 04:12:03.77	256.52	11.38	-26.9	-28.9	14.4	0.00e+00	0	43	102	1048576	13	4532
2026-01-04 04:12:06.79	256.20	11.15	-26.9	-28.9	14.4	0.00e+00	0	43	102	1048576	13	4531
2026-01-04 04:12:09.81	255.89	10.92	-26.7	-28.5	14.6	0.00e+00	0	43	102	1048576	13	4431
2026-01-04 04:12:12.83	255.57	10.70	-26.5	-28.5	14.9	0.00e+00	0	43	102	1048576	12	4543
2026-01-04 04:12:15.84	255.27	10.47	-26.5	-28.1	14.8	0.00e+00	0	43	102	1048576	13	4304
2026-01-04 04:12:18.85	254.97	10.25	-26.6	-28.2	14.7	0.00e+00	0	43	102	1048576	13	4352
2026-01-04 04:12:21.87	254.67	10.03	-26.6	-28.2	14.7	1.10e-06	0	43	102	1048576	13	4342
2026-01-04 04:12:24.88	254.38	9.81	-26.7	-28.6	14.5	2.20e-06	0	43	102	1048576	13	4461
2026-01-04 04:12:27.88	254.09	9.59	-26.8	-28.8	14.3	2.20e-06	0	43	102	1048576	13	4532
2026-01-04 04:12:30.90	253.81	9.37	-27.0	-28.8	14.1	1.10e-06	0	43	102	1048576	14	4396
2026-01-04 04:12:33.92	253.53	9.15	-27.0	-28.8	14.0	0.00e+00	0	43	102	1048576	14	4405
2026-01-04 04:12:36.93	253.25	8.94	-27.0	-28.7	14.1	5.70e-06	0	43	102	1048576	14	4384
2026-01-04 04:12:39.95	252.98	8.72	-26.8	-28.8	14.3	4.50e-06	0	43	102	1048576	13	4522
2026-01-04 04:12:42.97	252.71	8.51	-26.8	-28.7	14.3	3.40e-06	0	43	102	1048576	13	4498
2026-01-04 04:12:46.00	252.45	8.30	-26.9	-29.1	14.1	6.80e-06	0	43	102	1048576	13	4616
2026-01-04 04:12:49.02	252.19	8.08	-27.1	-28.9	13.9	3.40e-06	0	43	102	1048576	14	4455
2026-01-04 04:12:52.04	251.94	7.87	-27.0	-28.9	13.9	2.20e-06	0	43	102	1048576	14	4438
2026-01-04 04:12:55.06	251.68	7.67	-26.9	-28.6	14.0	2.20e-06	0	43	102	1048576	14	4362
2026-01-04 04:12:58.08	251.44	7.46	-27.0	-28.8	13.9	4.50e-06	0	43	102	1048576	14	4420
2026-01-04 04:13:01.09	251.19	7.25	-27.1	-29.0	13.7	1.10e-06	0	43	102	1048576	14	4471
2026-01-04 04:13:04.11	250.95	7.05	-33.0	-44.3	3.8	8.47e-01	0	43	104	1048576	25	13275
2026-01-04 04:13:07.11	250.72	6.84	-33.8	-45.1	3.8	8.46e-01	0	43	104	1048576	27	13214

#Closed at: 2026-01-04 04:13:07
#Recorded file [1 MB]: D:/data/31010_260104_070241.dat