passes_logs/2026/01/04/R2M6_AANII_01/R2M6_AANII_01__20260104_104424_NOAA_21_JPSS-2_rec.log

#Pass ID: 20260104_104424_NOAA 21 (JPSS-2)
#Satellite: NOAA 21 (JPSS-2)
#Configuration: NOAA 21
#almurnet v.1.7.20240730
#Start time: 2026-01-04 10:46:25

#Version: 2.2.20231116
#Station: R2M6_AANII_01
#Location: 30.233357 lon 59.946436 lat
#TLE: 1 54234U 22150A   26003.45311712  .00000198  00000+0  11468-3 0  9993
#TLE: 2 54234  98.7487 304.4932 0001159 347.5017  12.6130 14.19531745163172

#Time	Az	El	Level	Level2	SNR	BER	BlckErr	Temp	State	Recorded	gain1	gain2
2026-01-04 10:46:25.66	178.25	18.55	-33.5	-44.3	3.8	8.46e-01	0	43	0	0	27	12463
2026-01-04 10:46:28.67	178.43	18.92	-34.3	-45.8	3.8	1.49e+00	0	43	104	0	29	13614
2026-01-04 10:46:31.68	178.61	19.29	-34.4	-46.0	3.8	1.49e+00	0	43	104	0	29	13724
2026-01-04 10:46:34.70	178.79	19.66	-34.4	-46.0	3.8	1.49e+00	0	43	104	0	29	13727
2026-01-04 10:46:37.72	178.98	20.04	-34.4	-46.0	3.8	1.49e+00	0	43	104	0	29	13719
2026-01-04 10:46:40.74	179.18	20.43	-34.3	-45.9	3.8	1.49e+00	0	43	104	0	29	13666
2026-01-04 10:46:43.76	179.38	20.83	-34.3	-45.9	3.8	1.49e+00	0	43	104	0	29	13670
2026-01-04 10:46:46.78	179.58	21.23	-34.2	-45.7	3.8	1.49e+00	0	43	104	0	29	13493
2026-01-04 10:46:49.80	179.79	21.63	-34.1	-45.5	3.8	1.49e+00	0	43	104	0	29	13306
2026-01-04 10:46:52.82	180.00	22.04	-33.9	-45.6	3.8	1.49e+00	0	43	104	0	28	13801
2026-01-04 10:46:55.84	180.22	22.46	-33.8	-45.4	3.8	1.49e+00	0	43	104	0	28	13622
2026-01-04 10:46:58.86	180.45	22.89	-33.6	-44.4	3.8	1.49e+00	0	43	104	0	28	12401
2026-01-04 10:47:01.88	180.68	23.32	-33.6	-44.1	3.8	1.49e+00	0	43	104	0	28	12074
2026-01-04 10:47:04.90	180.91	23.76	-33.3	-42.0	3.9	1.48e+00	0	43	104	0	28	9766
2026-01-04 10:47:07.92	181.16	24.20	-32.8	-38.4	5.5	5.14e-01	0	43	0	0	27	6859
2026-01-04 10:47:10.93	181.41	24.65	-31.8	-35.5	8.0	9.79e-02	0	43	102	1048576	25	5504
2026-01-04 10:47:13.96	181.67	25.11	-29.1	-30.9	13.1	5.72e-05	0	43	102	1048576	19	4410
2026-01-04 10:47:16.99	181.93	25.58	-27.0	-27.9	15.8	0.00e+00	0	44	102	1048576	15	4018
2026-01-04 10:47:20.00	182.20	26.06	-28.3	-30.4	14.3	1.50e-06	0	43	102	1048576	16	4586
2026-01-04 10:47:23.02	182.48	26.54	-28.7	-30.8	13.8	2.20e-06	0	43	102	1048576	17	4587
2026-01-04 10:47:26.04	182.77	27.03	-27.8	-28.8	14.9	7.00e-07	0	43	102	1048576	17	4040
2026-01-04 10:47:29.06	183.07	27.53	-27.8	-29.4	14.9	7.00e-07	0	43	102	1048576	16	4286
2026-01-04 10:47:32.08	183.38	28.04	-27.8	-29.2	15.1	0.00e+00	0	43	102	1048576	16	4234
2026-01-04 10:47:35.10	183.69	28.56	-28.0	-29.6	14.8	0.00e+00	0	43	102	1048576	16	4363
2026-01-04 10:47:38.11	184.02	29.08	-27.9	-29.6	14.8	7.00e-07	0	43	102	1048576	16	4348
2026-01-04 10:47:41.12	184.35	29.61	-27.9	-29.6	14.8	0.00e+00	0	43	102	1048576	16	4336
2026-01-04 10:47:44.13	184.70	30.15	-28.0	-29.7	14.8	0.00e+00	0	44	102	1048576	16	4369
2026-01-04 10:47:47.14	185.06	30.70	-27.9	-29.5	14.9	0.00e+00	0	43	102	1048576	16	4334
2026-01-04 10:47:50.16	185.43	31.27	-27.7	-29.0	15.1	0.00e+00	0	43	102	1048576	16	4191
2026-01-04 10:47:53.17	185.81	31.84	-27.7	-29.0	15.2	0.00e+00	0	43	102	1048576	16	4180
2026-01-04 10:47:56.18	186.21	32.42	-27.8	-29.1	15.1	0.00e+00	0	43	102	1048576	16	4212
2026-01-04 10:47:59.20	186.62	33.01	-27.9	-29.5	14.9	0.00e+00	0	43	102	1048576	16	4326
2026-01-04 10:48:02.23	187.05	33.61	-28.1	-29.9	14.7	0.00e+00	0	43	102	1048576	16	4435
2026-01-04 10:48:05.24	187.49	34.22	-28.2	-30.1	14.6	7.00e-07	0	43	102	1048576	16	4496
2026-01-04 10:48:08.26	187.95	34.84	-28.2	-30.2	14.6	0.00e+00	0	43	102	1048576	16	4523
2026-01-04 10:48:11.28	188.42	35.48	-28.8	-31.1	13.7	5.30e-06	0	43	102	1048576	17	4684
2026-01-04 10:48:14.29	188.92	36.12	-29.2	-31.5	13.2	2.82e-05	0	43	102	1048576	18	4682
2026-01-04 10:48:17.31	189.43	36.77	-29.1	-31.2	13.4	2.21e-05	0	43	102	1048576	18	4596
2026-01-04 10:48:20.32	189.96	37.43	-29.3	-31.8	13.1	3.35e-05	0	43	102	1048576	18	4802
2026-01-04 10:48:23.33	190.52	38.11	-29.5	-31.6	12.9	3.89e-05	0	43	102	1048576	19	4612
2026-01-04 10:48:26.35	191.10	38.79	-29.5	-31.6	12.9	5.34e-05	0	43	102	1048576	19	4612
2026-01-04 10:48:29.37	191.71	39.49	-29.3	-31.2	13.2	2.89e-05	0	43	102	1048576	19	4485
2026-01-04 10:48:32.40	192.34	40.20	-29.4	-31.6	12.9	4.11e-05	0	43	102	1048576	19	4618
2026-01-04 10:48:35.42	193.00	40.92	-29.5	-31.8	12.8	5.18e-05	0	43	102	1048576	19	4691
2026-01-04 10:48:38.44	193.69	41.65	-29.7	-32.2	12.6	8.92e-05	0	43	102	1048576	19	4787
2026-01-04 10:48:41.46	194.40	42.38	-29.8	-32.4	12.5	1.50e-04	0	43	102	1048576	19	4858
2026-01-04 10:48:44.48	195.16	43.13	-30.1	-32.8	11.9	3.53e-04	0	43	102	1048576	20	4894
2026-01-04 10:48:47.50	195.95	43.89	-30.2	-33.1	11.7	8.29e-04	0	43	102	1048576	20	5021
2026-01-04 10:48:50.52	196.77	44.65	-29.6	-31.5	12.6	1.14e-04	0	43	102	1048576	20	4488
2026-01-04 10:48:53.54	197.64	45.43	-29.5	-31.3	12.8	5.79e-05	0	43	102	1048576	20	4425
2026-01-04 10:48:56.55	198.54	46.21	-30.1	-32.7	11.9	3.00e-04	0	43	102	1048576	20	4864
2026-01-04 10:48:59.58	199.50	47.00	-29.7	-31.7	12.6	9.30e-05	0	43	102	1048576	20	4524
2026-01-04 10:49:02.60	200.51	47.79	-29.5	-31.3	12.8	7.70e-05	0	43	102	1048576	20	4429
2026-01-04 10:49:05.62	201.56	48.59	-29.4	-31.0	13.0	4.42e-05	0	43	102	1048576	20	4315
2026-01-04 10:49:08.64	202.67	49.39	-29.7	-31.8	12.6	1.40e-04	0	43	102	1048576	20	4568
2026-01-04 10:49:11.65	203.84	50.20	-29.6	-31.3	12.7	6.10e-05	0	43	102	1048576	20	4420
2026-01-04 10:49:14.67	205.08	51.00	-29.3	-30.7	13.2	5.03e-05	0	43	102	1048576	20	4247
2026-01-04 10:49:17.69	206.38	51.81	-29.1	-30.8	13.6	8.30e-06	0	43	102	1048576	19	4349
2026-01-04 10:49:20.71	207.75	52.61	-28.9	-30.2	13.9	3.80e-06	0	43	102	1048576	19	4194
2026-01-04 10:49:23.72	209.19	53.41	-28.1	-29.4	14.9	0.00e+00	0	43	102	1048576	17	4176
2026-01-04 10:49:26.75	210.73	54.21	-27.9	-28.9	15.2	0.00e+00	0	43	102	1048576	17	4037
2026-01-04 10:49:29.77	212.34	54.99	-27.8	-28.6	15.4	0.00e+00	0	43	102	1048576	17	3965
2026-01-04 10:49:32.78	214.04	55.76	-27.3	-28.5	15.8	0.00e+00	0	43	102	1048576	15	4154
2026-01-04 10:49:35.81	215.85	56.52	-27.3	-28.5	15.9	0.00e+00	0	43	102	1048576	15	4148
2026-01-04 10:49:38.83	217.75	57.26	-27.6	-29.3	15.4	0.00e+00	0	43	102	1048576	15	4362
2026-01-04 10:49:41.85	219.75	57.97	-27.3	-28.6	15.9	0.00e+00	0	43	102	1048576	15	4173
2026-01-04 10:49:44.87	221.86	58.66	-27.4	-28.9	15.7	0.00e+00	0	43	102	1048576	15	4253
2026-01-04 10:49:47.88	224.07	59.32	-27.5	-28.9	15.7	0.00e+00	0	43	102	1048576	15	4255
2026-01-04 10:49:50.91	226.41	59.95	-27.6	-29.2	15.5	0.00e+00	0	43	102	1048576	15	4331
2026-01-04 10:49:53.93	228.85	60.54	-27.2	-28.2	16.0	0.00e+00	0	43	102	1048576	15	4077
2026-01-04 10:49:56.94	231.40	61.08	-27.0	-27.8	16.3	0.00e+00	0	43	102	1048576	15	3971
2026-01-04 10:49:59.96	234.06	61.58	-27.0	-28.0	16.1	0.00e+00	0	43	102	1048576	15	4020
2026-01-04 10:50:02.98	236.82	62.03	-27.0	-27.9	16.2	0.00e+00	0	44	102	1048576	15	3999
2026-01-04 10:50:05.99	239.67	62.42	-27.4	-28.8	15.8	0.00e+00	0	43	102	1048576	15	4230
2026-01-04 10:50:09.01	242.61	62.75	-26.7	-27.8	16.6	0.00e+00	0	43	102	1048576	14	4056
2026-01-04 10:50:12.04	245.64	63.02	-26.6	-27.6	16.6	0.00e+00	0	43	102	1048576	14	4015
2026-01-04 10:50:15.06	248.72	63.22	-26.8	-27.9	16.5	0.00e+00	0	43	102	1048576	14	4096
2026-01-04 10:50:18.08	251.84	63.36	-27.0	-28.4	16.2	0.00e+00	0	43	102	1048576	14	4234
2026-01-04 10:50:21.10	254.99	63.42	-27.0	-28.5	16.2	0.00e+00	0	43	102	1048576	14	4258
2026-01-04 10:50:24.12	258.14	63.42	-26.8	-28.0	16.5	0.00e+00	0	43	102	1048576	14	4134
2026-01-04 10:50:27.13	261.27	63.34	-26.9	-28.2	16.3	0.00e+00	0	43	102	1048576	14	4183
2026-01-04 10:50:30.15	264.39	63.19	-27.0	-28.5	16.2	0.00e+00	0	43	102	1048576	14	4250
2026-01-04 10:50:33.17	267.46	62.98	-27.1	-28.7	16.2	4.50e-06	0	43	102	1048576	14	4310
2026-01-04 10:50:36.19	270.46	62.70	-26.7	-27.6	16.7	3.80e-06	0	43	102	1048576	14	4024
2026-01-04 10:50:39.21	273.39	62.36	-26.9	-28.1	16.4	6.80e-06	0	43	102	1048576	14	4134
2026-01-04 10:50:42.23	276.23	61.96	-27.2	-28.8	16.1	2.20e-06	0	43	102	1048576	14	4325
2026-01-04 10:50:45.26	278.98	61.50	-27.4	-28.8	15.8	0.00e+00	0	43	102	1048576	15	4225
2026-01-04 10:50:48.28	281.61	60.99	-26.2	-27.0	17.2	0.00e+00	0	43	102	1048576	13	3984
2026-01-04 10:50:51.30	284.14	60.44	-26.9	-28.8	16.3	0.00e+00	0	43	102	1048576	13	4439
2026-01-04 10:50:54.32	286.56	59.84	-27.1	-28.6	16.2	0.00e+00	0	43	102	1048576	14	4283
2026-01-04 10:50:57.34	288.87	59.21	-28.0	-30.1	15.0	0.00e+00	0	43	102	1048576	15	4617
2026-01-04 10:51:00.35	291.05	58.55	-28.2	-29.6	14.9	0.00e+00	0	43	102	1048576	17	4219
2026-01-04 10:51:03.37	293.14	57.86	-28.1	-29.4	15.1	0.00e+00	0	43	102	1048576	17	4160
2026-01-04 10:51:06.39	295.12	57.14	-28.6	-30.5	14.4	2.20e-06	0	43	102	1048576	17	4490
2026-01-04 10:51:09.42	297.01	56.40	-27.9	-28.9	15.4	0.00e+00	0	43	102	1048576	17	4023
2026-01-04 10:51:12.44	298.79	55.64	-28.6	-30.5	14.4	2.20e-06	0	43	102	1048576	17	4467
2026-01-04 10:51:15.46	300.47	54.87	-28.3	-29.8	14.8	0.00e+00	0	43	102	1048576	17	4269
2026-01-04 10:51:18.49	302.07	54.09	-28.1	-29.4	15.0	0.00e+00	0	43	102	1048576	17	4169
2026-01-04 10:51:21.50	303.58	53.30	-29.1	-31.2	13.8	5.30e-06	0	43	102	1048576	18	4565
2026-01-04 10:51:24.52	305.01	52.50	-28.7	-30.2	14.4	1.50e-06	0	43	102	1048576	18	4263
2026-01-04 10:51:27.54	306.37	51.70	-29.0	-31.0	14.0	7.00e-07	0	43	102	1048576	18	4493
2026-01-04 10:51:30.56	307.66	50.90	-30.2	-32.9	12.1	2.65e-04	0	43	102	1048576	20	4898
2026-01-04 10:51:33.58	308.88	50.09	-29.0	-30.4	13.9	3.80e-06	0	43	102	1048576	19	4232
2026-01-04 10:51:36.60	310.04	49.29	-29.4	-31.4	13.4	1.67e-05	0	43	102	1048576	19	4514
2026-01-04 10:51:39.63	311.14	48.49	-29.9	-32.0	12.6	9.30e-05	0	43	102	1048576	20	4626
2026-01-04 10:51:42.65	312.18	47.69	-30.3	-33.2	11.9	4.17e-04	0	43	102	1048576	20	5024
2026-01-04 10:51:45.67	313.18	46.90	-29.4	-30.9	13.3	1.98e-05	0	43	102	1048576	20	4288
2026-01-04 10:51:48.68	314.12	46.12	-30.8	-33.9	11.1	1.50e-03	0	43	102	1048576	21	5182
2026-01-04 10:51:51.70	315.02	45.35	-30.5	-33.2	11.5	6.84e-04	0	43	102	1048576	21	4913
2026-01-04 10:51:54.73	315.88	44.58	-29.9	-31.6	12.5	1.43e-04	0	43	102	1048576	21	4376
2026-01-04 10:51:57.75	316.70	43.81	-29.9	-32.1	12.5	7.17e-05	0	43	102	1048576	20	4638
2026-01-04 10:52:00.77	317.48	43.06	-30.1	-32.7	12.2	1.88e-04	0	43	102	1048576	20	4845
2026-01-04 10:52:03.79	318.23	42.32	-29.3	-30.7	13.4	2.13e-05	0	43	102	1048576	20	4212
2026-01-04 10:52:06.81	318.94	41.59	-28.8	-30.5	14.1	7.00e-07	0	43	102	1048576	18	4347
2026-01-04 10:52:09.83	319.62	40.87	-29.8	-32.4	12.8	7.09e-05	0	43	102	1048576	19	4835
2026-01-04 10:52:12.85	320.28	40.15	-29.7	-32.0	12.9	4.80e-05	0	43	102	1048576	19	4710
2026-01-04 10:52:15.87	320.90	39.45	-30.0	-32.4	12.3	1.48e-04	0	43	102	1048576	20	4753
2026-01-04 10:52:18.90	321.50	38.76	-30.3	-33.1	11.9	4.25e-04	0	43	102	1048576	20	4980
2026-01-04 10:52:21.92	322.08	38.08	-30.0	-32.3	12.4	1.59e-04	0	43	102	1048576	20	4716
2026-01-04 10:52:24.94	322.63	37.41	-29.9	-32.1	12.5	1.59e-04	0	43	102	1048576	20	4653
2026-01-04 10:52:27.96	323.16	36.75	-29.5	-31.2	13.0	4.50e-05	0	43	102	1048576	20	4380
2026-01-04 10:52:30.99	323.68	36.10	-28.8	-30.0	14.1	3.80e-06	0	43	102	1048576	19	4123
2026-01-04 10:52:34.01	324.17	35.46	-28.5	-29.7	14.5	0.00e+00	0	43	102	1048576	18	4134
2026-01-04 10:52:37.02	324.64	34.83	-28.9	-30.6	14.0	2.20e-06	0	43	102	1048576	18	4402
2026-01-04 10:52:40.04	325.10	34.22	-29.1	-31.3	13.6	5.30e-06	0	43	102	1048576	18	4593
2026-01-04 10:52:43.06	325.54	33.61	-28.9	-30.7	13.9	3.00e-06	0	43	102	1048576	18	4416
2026-01-04 10:52:46.08	325.96	33.01	-28.6	-30.0	14.4	0.00e+00	0	43	102	1048576	18	4225
2026-01-04 10:52:49.10	326.37	32.43	-28.1	-29.5	14.9	0.00e+00	0	43	102	1048576	17	4187
2026-01-04 10:52:52.12	326.77	31.85	-27.8	-29.1	15.3	0.00e+00	0	43	102	1048576	16	4190
2026-01-04 10:52:55.14	327.15	31.28	-27.8	-29.2	15.2	7.00e-07	0	43	102	1048576	16	4217
2026-01-04 10:52:58.16	327.52	30.72	-27.9	-29.5	15.1	0.00e+00	0	43	102	1048576	16	4299
2026-01-04 10:53:01.17	327.87	30.18	-28.0	-29.7	14.9	0.00e+00	0	43	102	1048576	16	4348
2026-01-04 10:53:04.20	328.22	29.64	-28.3	-30.3	14.5	7.00e-07	0	43	102	1048576	16	4541
2026-01-04 10:53:07.21	328.56	29.11	-28.3	-30.3	14.6	0.00e+00	0	43	102	1048576	16	4549
2026-01-04 10:53:10.23	328.88	28.59	-28.4	-30.6	14.5	2.20e-06	0	43	102	1048576	16	4628
2026-01-04 10:53:13.25	329.20	28.07	-28.1	-29.9	14.9	0.00e+00	0	43	102	1048576	16	4411
2026-01-04 10:53:16.27	329.50	27.57	-28.0	-29.5	15.0	0.00e+00	0	43	102	1048576	16	4322
2026-01-04 10:53:19.29	329.80	27.07	-27.7	-29.0	15.4	0.00e+00	0	43	102	1048576	16	4174
2026-01-04 10:53:22.30	330.09	26.59	-27.6	-28.7	15.5	0.00e+00	0	43	102	1048576	16	4099
2026-01-04 10:53:25.33	330.37	26.11	-27.3	-28.2	15.7	7.00e-07	0	43	102	1048576	16	3955
2026-01-04 10:53:28.35	330.64	25.64	-27.1	-28.2	15.7	0.00e+00	0	43	102	1048576	15	4068
2026-01-04 10:53:31.37	330.90	25.17	-27.3	-28.7	15.6	0.00e+00	0	43	102	1048576	15	4210
2026-01-04 10:53:34.38	331.16	24.72	-27.6	-29.2	15.1	0.00e+00	0	43	102	1048576	15	4360
2026-01-04 10:53:37.40	331.41	24.27	-27.7	-29.4	14.9	7.00e-07	0	43	102	1048576	15	4418
2026-01-04 10:53:40.42	331.65	23.83	-27.8	-29.7	14.8	0.00e+00	0	43	102	1048576	15	4480
2026-01-04 10:53:43.44	331.89	23.39	-27.9	-30.1	13.7	3.00e-06	0	43	102	1048576	15	4643
2026-01-04 10:53:46.46	332.12	22.96	-28.2	-30.2	14.4	1.50e-06	0	43	102	1048576	16	4535
2026-01-04 10:53:49.49	332.35	22.54	-28.2	-30.3	13.7	9.10e-06	0	43	102	1048576	16	4577
2026-01-04 10:53:52.50	332.57	22.13	-28.3	-30.5	14.3	7.00e-07	0	43	102	1048576	16	4619
2026-01-04 10:53:55.53	332.78	21.72	-28.4	-30.6	14.1	3.00e-06	0	43	102	1048576	16	4645
2026-01-04 10:53:58.55	332.99	21.31	-28.0	-29.7	14.8	0.00e+00	0	43	102	1048576	16	4367
2026-01-04 10:54:01.58	333.20	20.91	-27.7	-29.0	15.2	0.00e+00	0	43	102	1048576	16	4173
2026-01-04 10:54:04.60	333.40	20.52	-27.6	-28.8	15.3	0.00e+00	0	43	102	1048576	16	4130
2026-01-04 10:54:07.62	333.59	20.14	-27.6	-28.8	15.3	0.00e+00	0	43	102	1048576	16	4115
2026-01-04 10:54:10.64	333.78	19.76	-27.8	-29.3	15.0	0.00e+00	0	43	102	1048576	16	4261
2026-01-04 10:54:13.66	333.97	19.39	-27.9	-29.5	14.8	7.00e-07	0	43	102	1048576	16	4333
2026-01-04 10:54:16.69	334.15	19.02	-28.0	-29.7	14.7	0.00e+00	0	43	102	1048576	16	4377
2026-01-04 10:54:19.71	334.33	18.65	-28.1	-30.0	14.4	7.00e-07	0	43	102	1048576	16	4480
2026-01-04 10:54:22.72	334.50	18.29	-28.2	-30.3	14.4	7.00e-07	0	43	102	1048576	16	4554
2026-01-04 10:54:25.73	334.67	17.94	-28.2	-30.1	14.4	1.50e-06	0	43	102	1048576	16	4516
2026-01-04 10:54:28.76	334.84	17.59	-28.2	-30.2	14.3	0.00e+00	0	43	102	1048576	16	4526
2026-01-04 10:54:31.78	335.00	17.25	-28.2	-30.3	14.2	1.50e-06	0	43	102	1048576	16	4569
2026-01-04 10:54:34.80	335.16	16.91	-28.3	-30.5	14.2	2.20e-06	0	43	102	1048576	16	4617
2026-01-04 10:54:37.81	335.32	16.57	-28.3	-30.6	14.1	7.00e-07	0	43	102	1048576	16	4640
2026-01-04 10:54:40.82	335.47	16.25	-28.5	-30.4	13.9	1.50e-06	0	43	102	1048576	17	4487
2026-01-04 10:54:43.84	335.62	15.92	-28.5	-30.4	13.9	2.20e-06	0	43	102	1048576	17	4490
2026-01-04 10:54:46.86	335.77	15.60	-28.5	-30.4	13.9	6.10e-06	0	43	102	1048576	17	4483
2026-01-04 10:54:49.88	335.91	15.28	-28.7	-30.8	13.6	3.80e-06	0	43	102	1048576	17	4617
2026-01-04 10:54:52.90	336.05	14.96	-28.7	-31.0	13.5	1.37e-05	0	43	102	1048576	17	4679
2026-01-04 10:54:55.92	336.19	14.65	-28.8	-31.2	13.4	1.22e-05	0	43	102	1048576	17	4733
2026-01-04 10:54:58.94	336.33	14.35	-28.9	-31.5	13.2	1.75e-05	0	43	102	1048576	17	4830
2026-01-04 10:55:01.96	336.46	14.05	-29.2	-31.6	12.8	3.58e-05	0	43	102	1048576	18	4756
2026-01-04 10:55:04.98	336.59	13.75	-29.0	-31.3	13.0	5.87e-05	0	43	102	1048576	18	4653
2026-01-04 10:55:08.00	336.72	13.45	-28.8	-30.8	13.3	2.28e-05	0	43	102	1048576	18	4505
2026-01-04 10:55:11.02	336.85	13.16	-28.9	-30.8	13.2	1.98e-05	0	43	102	1048576	18	4520
2026-01-04 10:55:14.04	336.97	12.87	-28.9	-30.9	13.2	2.51e-05	0	43	102	1048576	18	4526
2026-01-04 10:55:17.06	337.10	12.58	-28.8	-30.7	13.3	1.98e-05	0	43	102	1048576	18	4462
2026-01-04 10:55:20.08	337.22	12.30	-28.8	-30.7	13.3	1.98e-05	0	43	102	1048576	18	4467
2026-01-04 10:55:23.09	337.34	12.02	-28.8	-30.8	13.2	2.05e-05	0	43	102	1048576	18	4508
2026-01-04 10:55:26.12	337.45	11.75	-29.0	-31.3	12.9	4.34e-05	0	43	102	1048576	18	4659
2026-01-04 10:55:29.15	337.57	11.47	-29.1	-31.5	12.7	7.70e-05	0	43	102	1048576	18	4746
2026-01-04 10:55:32.17	337.68	11.20	-29.1	-31.5	12.7	7.01e-05	0	43	102	1048576	18	4729
2026-01-04 10:55:35.18	337.79	10.94	-29.0	-31.2	12.9	7.17e-05	0	44	102	1048576	18	4651
2026-01-04 10:55:38.20	337.90	10.67	-28.9	-31.1	12.9	4.95e-05	0	43	102	1048576	18	4616
2026-01-04 10:55:41.21	338.01	10.41	-28.9	-31.1	12.9	5.26e-05	0	43	102	1048576	18	4604
2026-01-04 10:55:44.23	338.11	10.15	-29.1	-31.5	12.7	6.86e-05	0	43	102	1048576	18	4734
2026-01-04 10:55:47.25	338.22	9.90	-29.2	-31.7	12.4	1.64e-04	0	43	102	1048576	18	4831
2026-01-04 10:55:50.26	338.32	9.64	-29.3	-32.1	12.2	1.98e-04	0	43	102	1048576	18	4956
2026-01-04 10:55:53.27	338.42	9.39	-29.4	-31.7	12.1	3.16e-04	0	43	102	1048576	19	4705
2026-01-04 10:55:56.30	338.52	9.14	-29.1	-31.1	12.5	1.24e-04	0	43	102	1048576	19	4506
2026-01-04 10:55:59.32	338.62	8.90	-29.2	-31.3	12.3	2.14e-04	0	43	102	1048576	19	4581
2026-01-04 10:56:02.34	338.72	8.65	-29.1	-30.9	12.5	9.68e-05	0	43	102	1048576	19	4465
2026-01-04 10:56:05.34	338.81	8.41	-29.1	-31.1	12.4	1.42e-04	0	43	102	1048576	19	4521
2026-01-04 10:56:08.36	338.90	8.17	-29.1	-31.1	12.4	1.56e-04	0	43	102	1048576	19	4529
2026-01-04 10:56:11.37	339.00	7.94	-29.2	-31.2	12.2	2.12e-04	0	44	102	1048576	19	4567
2026-01-04 10:56:14.40	339.09	7.70	-29.2	-31.4	12.1	2.58e-04	0	43	102	1048576	19	4645
2026-01-04 10:56:17.40	339.18	7.47	-29.3	-31.5	12.0	3.49e-04	0	43	102	1048576	19	4674
2026-01-04 10:56:20.41	339.27	7.24	-29.3	-31.8	11.8	4.51e-04	0	43	102	1048576	19	4757
2026-01-04 10:56:23.42	339.35	7.01	-33.4	-45.6	3.8	1.49e+00	0	43	104	1048576	26	14605

#Closed at: 2026-01-04 10:56:24
#Recorded file [1 MB]: D:/data/31010_260104_134707.dat