passes_logs/2026/01/04/R2M6_AANII_01/R2M6_AANII_01__20260104_103600_FENGYUN_3D_rec.log

#Pass ID: 20260104_103600_FENGYUN 3D
#Satellite: FENGYUN 3D
#Configuration: FENGYUN 3D
#almurnet v.1.7.20240730
#Start time: 2026-01-04 10:36:02

#Version: 2.2.20231116
#Station: R2M6_AANII_01
#Location: 30.233357 lon 59.946436 lat
#TLE: 1 43010U 17072A   26003.51579816  .00000092  00000+0  65324-4 0  9992
#TLE: 2 43010  98.9912 335.1548 0001916 128.4619 231.6729 14.19692074421623

#Time	Az	El	Level	Level2	SNR	BER	BlckErr	Temp	State	Recorded	gain1	gain2
2026-01-04 10:36:02.63	106.22	7.11	-30.7	-34.3	5.0	7.96e-01	0	41	0	0	22	5469
2026-01-04 10:36:05.64	105.97	7.31	-30.0	-32.8	9.4	2.04e-02	0	41	102	1048576	21	4958
2026-01-04 10:36:08.67	105.71	7.52	-29.3	-31.8	10.8	5.56e-03	0	41	102	1048576	19	4797
2026-01-04 10:36:11.69	105.45	7.72	-28.2	-30.1	12.5	2.09e-04	0	41	102	1048576	17	4473
2026-01-04 10:36:14.71	105.19	7.93	-28.2	-30.1	12.6	1.45e-04	0	41	102	1048576	17	4472
2026-01-04 10:36:17.73	104.92	8.13	-28.1	-29.9	12.7	1.20e-04	0	41	102	1048576	17	4402
2026-01-04 10:36:20.75	104.65	8.34	-28.1	-29.7	12.8	8.46e-05	0	42	102	1048576	17	4342
2026-01-04 10:36:23.76	104.37	8.55	-27.9	-29.3	13.1	7.78e-05	0	41	102	1048576	17	4225
2026-01-04 10:36:26.78	104.09	8.76	-27.7	-29.4	13.4	3.54e-05	0	42	102	1048576	16	4353
2026-01-04 10:36:29.80	103.80	8.97	-27.6	-29.1	13.5	1.71e-05	0	42	102	1048576	16	4267
2026-01-04 10:36:32.82	103.51	9.18	-27.6	-29.0	13.6	1.60e-05	0	42	102	1048576	16	4253
2026-01-04 10:36:35.85	103.22	9.40	-27.4	-28.5	13.9	2.20e-06	0	42	102	1048576	16	4113
2026-01-04 10:36:38.86	102.92	9.61	-27.5	-28.7	13.8	6.80e-06	0	42	102	1048576	16	4171
2026-01-04 10:36:41.89	102.62	9.83	-27.3	-28.4	14.0	1.10e-06	0	42	102	1048576	16	4086
2026-01-04 10:36:44.91	102.31	10.04	-27.5	-28.8	13.8	5.70e-06	0	42	102	1048576	16	4179
2026-01-04 10:36:47.94	102.00	10.26	-27.4	-28.6	13.9	5.70e-06	0	42	102	1048576	16	4137
2026-01-04 10:36:50.96	101.68	10.48	-27.4	-28.7	13.9	4.50e-06	0	42	102	1048576	16	4154
2026-01-04 10:36:53.98	101.36	10.70	-27.5	-28.9	13.8	9.10e-06	0	42	102	1048576	16	4212
2026-01-04 10:36:56.99	101.04	10.92	-27.5	-28.7	13.9	9.10e-06	0	42	102	1048576	16	4169
2026-01-04 10:37:00.01	100.70	11.14	-27.7	-29.2	13.6	1.25e-05	0	42	102	1048576	16	4306
2026-01-04 10:37:03.03	100.37	11.36	-27.1	-28.4	14.2	1.10e-06	0	42	102	1048576	15	4181
2026-01-04 10:37:06.05	100.03	11.59	-27.0	-28.3	14.3	3.40e-06	0	42	102	1048576	15	4159
2026-01-04 10:37:09.07	99.68	11.81	-27.0	-28.2	14.4	1.10e-06	0	42	102	1048576	15	4133
2026-01-04 10:37:12.09	99.32	12.04	-26.8	-28.2	14.7	0.00e+00	0	42	102	1048576	14	4232
2026-01-04 10:37:15.11	98.97	12.26	-26.7	-28.0	14.8	1.10e-06	0	42	102	1048576	14	4192
2026-01-04 10:37:18.13	98.60	12.49	-26.7	-28.1	14.8	0.00e+00	0	42	102	1048576	14	4212
2026-01-04 10:37:21.14	98.23	12.72	-26.6	-27.8	15.0	0.00e+00	0	43	102	1048576	14	4119
2026-01-04 10:37:24.17	97.86	12.95	-26.6	-27.7	15.0	1.10e-06	0	43	102	1048576	14	4105
2026-01-04 10:37:27.19	97.47	13.18	-26.6	-27.8	15.0	0.00e+00	0	43	102	1048576	14	4116
2026-01-04 10:37:30.20	97.09	13.41	-26.6	-27.7	15.1	0.00e+00	0	43	102	1048576	14	4104
2026-01-04 10:37:33.22	96.69	13.64	-26.6	-27.7	15.1	0.00e+00	0	43	102	1048576	14	4099
2026-01-04 10:37:36.25	96.29	13.88	-26.4	-27.2	15.4	1.10e-06	0	43	102	1048576	14	3970
2026-01-04 10:37:39.28	95.88	14.11	-26.4	-27.4	15.3	0.00e+00	0	43	102	1048576	14	4007
2026-01-04 10:37:42.28	95.47	14.35	-26.3	-27.5	15.5	0.00e+00	0	43	102	1048576	13	4153
2026-01-04 10:37:45.30	95.05	14.58	-26.3	-27.5	15.5	0.00e+00	0	43	102	1048576	13	4160
2026-01-04 10:37:48.32	94.62	14.82	-26.2	-27.5	15.6	0.00e+00	0	43	102	1048576	13	4139
2026-01-04 10:37:51.33	94.19	15.05	-26.1	-27.2	15.7	0.00e+00	0	43	102	1048576	13	4086
2026-01-04 10:37:54.36	93.75	15.29	-26.0	-27.0	15.9	0.00e+00	0	42	102	1048576	13	4015
2026-01-04 10:37:57.38	93.30	15.53	-25.9	-26.7	16.1	0.00e+00	0	43	102	1048576	13	3932
2026-01-04 10:38:00.39	92.85	15.77	-26.0	-26.9	16.0	0.00e+00	0	43	102	1048576	13	3987
2026-01-04 10:38:03.41	92.38	16.01	-25.9	-26.8	16.0	0.00e+00	0	43	102	1048576	13	3965
2026-01-04 10:38:06.44	91.91	16.25	-26.0	-27.0	16.0	0.00e+00	0	43	102	1048576	13	4006
2026-01-04 10:38:09.46	91.43	16.49	-25.7	-26.8	16.3	0.00e+00	0	43	102	1048576	12	4076
2026-01-04 10:38:12.49	90.95	16.73	-25.7	-26.8	16.3	0.00e+00	0	43	102	1048576	12	4083
2026-01-04 10:38:15.50	90.45	16.97	-25.8	-26.9	16.3	0.00e+00	0	43	102	1048576	12	4093
2026-01-04 10:38:18.53	89.95	17.21	-25.7	-26.8	16.4	0.00e+00	0	43	102	1048576	12	4077
2026-01-04 10:38:21.54	89.44	17.45	-25.7	-26.7	16.4	0.00e+00	0	43	102	1048576	12	4043
2026-01-04 10:38:24.56	88.92	17.69	-25.5	-26.3	16.7	0.00e+00	0	43	102	1048576	12	3944
2026-01-04 10:38:27.58	88.39	17.93	-25.6	-26.4	16.6	0.00e+00	0	43	102	1048576	12	3981
2026-01-04 10:38:30.60	87.86	18.17	-25.4	-26.1	16.8	0.00e+00	0	43	102	1048576	12	3887
2026-01-04 10:38:33.62	87.31	18.41	-25.3	-26.4	16.9	0.00e+00	0	43	102	1048576	11	4081
2026-01-04 10:38:36.64	86.76	18.65	-25.3	-26.5	17.0	0.00e+00	0	43	102	1048576	11	4088
2026-01-04 10:38:39.65	86.20	18.89	-25.5	-26.8	16.8	0.00e+00	0	43	102	1048576	11	4173
2026-01-04 10:38:42.67	85.63	19.13	-25.4	-26.5	17.0	0.00e+00	0	43	102	1048576	11	4098
2026-01-04 10:38:45.70	85.05	19.37	-25.3	-26.4	17.0	0.00e+00	0	43	102	1048576	11	4077
2026-01-04 10:38:48.72	84.46	19.60	-25.2	-26.1	17.2	0.00e+00	0	43	102	1048576	11	3995
2026-01-04 10:38:51.74	83.86	19.84	-25.1	-25.8	17.3	0.00e+00	0	43	102	1048576	11	3933
2026-01-04 10:38:54.76	83.26	20.07	-24.9	-25.5	17.4	0.00e+00	0	43	102	1048576	11	3864
2026-01-04 10:38:57.77	82.64	20.31	-24.8	-25.2	17.6	0.00e+00	0	43	102	1048576	11	3789
2026-01-04 10:39:00.79	82.01	20.54	-24.6	-25.4	17.9	0.00e+00	0	43	102	1048576	10	3928
2026-01-04 10:39:03.81	81.38	20.77	-24.8	-25.7	17.7	0.00e+00	0	43	102	1048576	10	4002
2026-01-04 10:39:06.84	80.73	21.00	-24.7	-25.5	17.7	0.00e+00	0	43	102	1048576	10	3971
2026-01-04 10:39:09.85	80.08	21.23	-24.8	-25.7	17.7	0.00e+00	0	43	102	1048576	10	4020
2026-01-04 10:39:12.87	79.41	21.45	-24.9	-26.0	17.5	0.00e+00	0	43	102	1048576	10	4080
2026-01-04 10:39:15.88	78.74	21.67	-25.0	-26.2	17.5	0.00e+00	0	43	102	1048576	10	4128
2026-01-04 10:39:18.90	78.05	21.89	-24.7	-25.5	17.8	0.00e+00	0	43	102	1048576	10	3965
2026-01-04 10:39:21.92	77.36	22.11	-24.7	-25.6	17.7	0.00e+00	0	43	102	1048576	10	3976
2026-01-04 10:39:24.94	76.66	22.33	-24.8	-25.7	17.7	0.00e+00	0	43	102	1048576	10	4020
2026-01-04 10:39:27.96	75.94	22.54	-24.6	-25.4	17.9	2.20e-06	0	43	102	1048576	10	3935
2026-01-04 10:39:30.98	75.22	22.75	-24.6	-25.3	17.9	0.00e+00	0	43	102	1048576	10	3915
2026-01-04 10:39:34.00	74.48	22.95	-24.8	-25.7	17.7	0.00e+00	0	43	102	1048576	10	4010
2026-01-04 10:39:37.03	73.74	23.16	-24.8	-25.9	17.6	0.00e+00	0	43	102	1048576	10	4046
2026-01-04 10:39:40.05	72.99	23.36	-24.8	-25.8	17.7	1.10e-06	0	43	102	1048576	10	4026
2026-01-04 10:39:43.07	72.22	23.55	-24.4	-24.9	18.1	1.10e-06	0	43	102	1048576	10	3823
2026-01-04 10:39:46.09	71.45	23.74	-24.4	-25.4	18.1	0.00e+00	0	43	102	1048576	9	4050
2026-01-04 10:39:49.10	70.67	23.93	-24.3	-25.3	18.2	1.10e-06	0	43	102	1048576	9	4011
2026-01-04 10:39:52.12	69.88	24.11	-24.4	-25.4	18.2	0.00e+00	0	43	102	1048576	9	4042
2026-01-04 10:39:55.14	69.08	24.29	-24.3	-25.1	18.5	0.00e+00	0	43	102	1048576	9	3955
2026-01-04 10:39:58.15	68.28	24.46	-24.4	-25.3	18.4	0.00e+00	0	43	102	1048576	9	4007
2026-01-04 10:40:01.18	67.46	24.62	-24.2	-24.9	18.6	0.00e+00	0	43	102	1048576	9	3916
2026-01-04 10:40:04.19	66.63	24.78	-24.3	-25.0	18.5	0.00e+00	0	43	102	1048576	9	3938
2026-01-04 10:40:07.21	65.80	24.94	-24.1	-24.7	18.8	0.00e+00	0	43	102	1048576	9	3845
2026-01-04 10:40:10.24	64.95	25.09	-24.0	-24.5	18.8	0.00e+00	0	43	102	1048576	9	3805
2026-01-04 10:40:13.27	64.10	25.24	-24.1	-24.7	18.7	0.00e+00	0	43	102	1048576	9	3848
2026-01-04 10:40:16.29	63.24	25.37	-24.3	-25.2	18.4	0.00e+00	0	43	102	1048576	9	3983
2026-01-04 10:40:19.31	62.38	25.50	-24.3	-25.1	18.5	0.00e+00	0	43	102	1048576	9	3961
2026-01-04 10:40:22.33	61.50	25.63	-24.4	-25.4	18.3	0.00e+00	0	43	102	1048576	9	4028
2026-01-04 10:40:25.34	60.63	25.75	-24.4	-25.3	18.4	0.00e+00	0	43	102	1048576	9	3998
2026-01-04 10:40:28.37	59.74	25.86	-24.4	-25.2	18.5	0.00e+00	0	43	102	1048576	9	3983
2026-01-04 10:40:31.39	58.85	25.96	-24.2	-25.0	18.6	0.00e+00	0	43	102	1048576	9	3920
2026-01-04 10:40:34.41	57.95	26.06	-24.2	-24.9	18.7	0.00e+00	0	43	102	1048576	9	3897
2026-01-04 10:40:37.43	57.05	26.15	-24.2	-25.0	18.6	0.00e+00	0	43	102	1048576	9	3930
2026-01-04 10:40:40.46	56.14	26.23	-24.3	-25.1	18.5	0.00e+00	0	43	102	1048576	9	3944
2026-01-04 10:40:43.47	55.23	26.30	-24.3	-25.0	18.6	0.00e+00	0	44	102	1048576	9	3932
2026-01-04 10:40:46.49	54.31	26.37	-24.4	-25.3	18.4	0.00e+00	0	43	102	1048576	9	3988
2026-01-04 10:40:49.51	53.39	26.43	-24.3	-25.0	18.5	0.00e+00	0	43	102	1048576	9	3938
2026-01-04 10:40:52.53	52.47	26.48	-23.9	-24.3	18.9	0.00e+00	0	43	102	1048576	9	3772
2026-01-04 10:40:55.55	51.55	26.52	-23.7	-24.4	19.1	0.00e+00	0	43	102	1048576	8	3886
2026-01-04 10:40:58.56	50.62	26.55	-23.6	-24.2	19.2	0.00e+00	0	43	102	1048576	8	3839
2026-01-04 10:41:01.57	49.70	26.58	-24.2	-25.4	18.7	0.00e+00	0	43	102	1048576	8	4131
2026-01-04 10:41:04.59	48.77	26.60	-24.2	-25.3	18.7	0.00e+00	0	43	102	1048576	8	4119
2026-01-04 10:41:07.60	47.84	26.61	-24.0	-25.1	18.8	0.00e+00	0	43	102	1048576	8	4055
2026-01-04 10:41:10.61	46.91	26.61	-23.8	-24.6	19.1	0.00e+00	0	44	102	1048576	8	3932
2026-01-04 10:41:13.64	45.98	26.60	-23.8	-24.5	19.1	0.00e+00	0	43	102	1048576	8	3925
2026-01-04 10:41:16.65	45.05	26.58	-24.2	-25.4	18.6	0.00e+00	0	43	102	1048576	8	4136
2026-01-04 10:41:19.67	44.12	26.56	-24.1	-25.2	18.7	0.00e+00	0	43	102	1048576	8	4092
2026-01-04 10:41:22.69	43.19	26.53	-24.1	-25.2	18.8	0.00e+00	0	43	102	1048576	8	4081
2026-01-04 10:41:25.70	42.27	26.48	-24.1	-25.2	18.7	0.00e+00	0	43	102	1048576	8	4084
2026-01-04 10:41:28.72	41.35	26.44	-24.0	-25.1	18.8	0.00e+00	0	43	102	1048576	8	4056
2026-01-04 10:41:31.74	40.43	26.38	-23.9	-24.8	18.9	0.00e+00	0	44	102	1048576	8	3981
2026-01-04 10:41:34.76	39.51	26.31	-24.4	-25.4	18.3	0.00e+00	0	43	102	1048576	9	4021
2026-01-04 10:41:37.78	38.60	26.24	-24.3	-25.2	18.5	0.00e+00	0	43	102	1048576	9	3972
2026-01-04 10:41:40.80	37.70	26.16	-24.0	-24.4	18.8	0.00e+00	0	43	102	1048576	9	3794
2026-01-04 10:41:43.82	36.79	26.07	-23.7	-24.4	19.1	0.00e+00	0	43	102	1048576	8	3886
2026-01-04 10:41:46.84	35.90	25.98	-23.8	-24.6	19.0	0.00e+00	0	43	102	1048576	8	3946
2026-01-04 10:41:49.86	35.01	25.87	-23.9	-24.8	18.9	0.00e+00	0	43	102	1048576	8	3986
2026-01-04 10:41:52.88	34.12	25.76	-24.0	-24.9	18.8	0.00e+00	0	44	102	1048576	8	4020
2026-01-04 10:41:55.91	33.24	25.65	-23.8	-24.5	19.0	0.00e+00	0	44	102	1048576	8	3916
2026-01-04 10:41:58.92	32.37	25.52	-24.0	-25.0	18.8	0.00e+00	0	44	102	1048576	8	4028
2026-01-04 10:42:01.94	31.50	25.39	-23.9	-24.9	18.8	0.00e+00	0	44	102	1048576	8	4014
2026-01-04 10:42:04.96	30.65	25.26	-23.8	-24.6	19.0	0.00e+00	0	43	102	1048576	8	3934
2026-01-04 10:42:07.98	29.80	25.11	-23.8	-24.6	19.0	0.00e+00	0	43	102	1048576	8	3937
2026-01-04 10:42:10.99	28.96	24.97	-23.8	-24.5	19.0	0.00e+00	0	44	102	1048576	8	3908
2026-01-04 10:42:14.02	28.12	24.81	-23.7	-24.4	19.1	0.00e+00	0	43	102	1048576	8	3886
2026-01-04 10:42:17.03	27.30	24.65	-23.8	-24.7	18.9	0.00e+00	0	43	102	1048576	8	3960
2026-01-04 10:42:20.05	26.48	24.49	-23.9	-24.7	18.9	0.00e+00	0	43	102	1048576	8	3975
2026-01-04 10:42:23.07	25.67	24.31	-24.0	-25.0	18.8	0.00e+00	0	43	102	1048576	8	4033
2026-01-04 10:42:26.08	24.88	24.14	-24.1	-25.3	18.6	0.00e+00	0	43	102	1048576	8	4109
2026-01-04 10:42:29.09	24.09	23.96	-24.0	-25.1	18.7	0.00e+00	0	43	102	1048576	8	4058
2026-01-04 10:42:32.12	23.31	23.77	-24.0	-25.1	18.7	0.00e+00	0	44	102	1048576	8	4069
2026-01-04 10:42:35.13	22.54	23.58	-24.1	-25.2	18.6	0.00e+00	0	44	102	1048576	8	4082
2026-01-04 10:42:38.14	21.78	23.39	-24.0	-25.1	18.7	0.00e+00	0	43	102	1048576	8	4060
2026-01-04 10:42:41.16	21.03	23.19	-23.9	-24.8	18.8	0.00e+00	0	43	102	1048576	8	3987
2026-01-04 10:42:44.18	20.28	22.99	-23.8	-24.7	18.9	0.00e+00	0	43	102	1048576	8	3964
2026-01-04 10:42:47.20	19.55	22.79	-24.0	-25.0	18.7	0.00e+00	0	44	102	1048576	8	4040
2026-01-04 10:42:50.22	18.83	22.58	-24.1	-25.3	18.6	0.00e+00	0	43	102	1048576	8	4106
2026-01-04 10:42:53.25	18.11	22.37	-24.2	-25.4	18.5	0.00e+00	0	43	102	1048576	8	4137
2026-01-04 10:42:56.27	17.41	22.15	-24.1	-25.1	18.6	0.00e+00	0	44	102	1048576	8	4067
2026-01-04 10:42:59.28	16.72	21.94	-24.2	-25.5	18.4	0.00e+00	0	44	102	1048576	8	4153
2026-01-04 10:43:02.31	16.03	21.72	-24.3	-25.7	18.3	0.00e+00	0	43	102	1048576	8	4203
2026-01-04 10:43:05.33	15.36	21.50	-24.5	-26.0	18.1	0.00e+00	0	43	102	1048576	8	4304
2026-01-04 10:43:08.36	14.69	21.27	-24.6	-25.7	18.0	0.00e+00	0	43	102	1048576	9	4097
2026-01-04 10:43:11.38	14.04	21.05	-24.7	-25.9	17.9	0.00e+00	0	44	102	1048576	9	4156
2026-01-04 10:43:14.40	13.39	20.82	-24.9	-26.4	17.6	0.00e+00	0	43	102	1048576	9	4293
2026-01-04 10:43:17.42	12.76	20.59	-24.7	-26.0	17.8	0.00e+00	0	43	102	1048576	9	4179
2026-01-04 10:43:20.44	12.13	20.36	-24.8	-26.2	17.7	0.00e+00	0	44	102	1048576	9	4230
2026-01-04 10:43:23.46	11.51	20.12	-24.8	-26.2	17.8	0.00e+00	0	43	102	1048576	9	4226
2026-01-04 10:43:26.47	10.91	19.89	-24.8	-26.2	17.7	0.00e+00	0	43	102	1048576	9	4230
2026-01-04 10:43:29.49	10.31	19.66	-24.6	-25.7	17.9	0.00e+00	0	44	102	1048576	9	4110
2026-01-04 10:43:32.52	9.72	19.42	-24.9	-26.3	17.6	0.00e+00	0	44	102	1048576	9	4269
2026-01-04 10:43:35.54	9.14	19.18	-25.0	-26.1	17.5	0.00e+00	0	43	102	1048576	10	4100
2026-01-04 10:43:38.55	8.58	18.95	-25.1	-26.3	17.4	0.00e+00	0	44	102	1048576	10	4154
2026-01-04 10:43:41.58	8.01	18.71	-25.0	-26.0	17.5	0.00e+00	0	44	102	1048576	10	4080
2026-01-04 10:43:44.60	7.46	18.47	-24.9	-25.9	17.6	0.00e+00	0	44	102	1048576	10	4033
2026-01-04 10:43:47.62	6.92	18.23	-25.0	-26.2	17.4	0.00e+00	0	43	102	1048576	10	4119
2026-01-04 10:43:50.63	6.39	17.99	-25.3	-26.8	17.1	0.00e+00	0	43	102	1048576	10	4273
2026-01-04 10:43:53.66	5.86	17.75	-25.4	-27.0	17.0	0.00e+00	0	43	102	1048576	10	4318
2026-01-04 10:43:56.68	5.34	17.51	-25.4	-26.9	17.0	0.00e+00	0	43	102	1048576	10	4305
2026-01-04 10:43:59.70	4.83	17.27	-25.8	-27.3	16.5	0.00e+00	0	43	102	1048576	11	4282
2026-01-04 10:44:02.72	4.33	17.03	-25.7	-27.2	16.5	0.00e+00	0	43	102	1048576	11	4273
2026-01-04 10:44:05.75	3.84	16.79	-25.6	-26.9	16.7	0.00e+00	0	44	102	1048576	11	4184
2026-01-04 10:44:08.77	3.35	16.55	-25.6	-26.9	16.7	2.20e-06	0	43	102	1048576	11	4182
2026-01-04 10:44:11.80	2.87	16.31	-25.6	-26.9	16.7	0.00e+00	0	43	102	1048576	11	4200
2026-01-04 10:44:14.81	2.41	16.07	-25.7	-27.1	16.6	0.00e+00	0	43	102	1048576	11	4243
2026-01-04 10:44:17.83	1.94	15.83	-25.9	-27.5	16.3	0.00e+00	0	43	102	1048576	11	4352
2026-01-04 10:44:20.84	1.49	15.60	-25.9	-27.7	16.2	0.00e+00	0	43	102	1048576	11	4393
2026-01-04 10:44:23.86	1.04	15.36	-25.9	-27.7	16.2	0.00e+00	0	43	102	1048576	11	4404
2026-01-04 10:44:26.88	0.60	15.12	-26.1	-27.6	15.9	0.00e+00	0	43	102	1048576	12	4273
2026-01-04 10:44:29.89	0.17	14.89	-25.9	-27.1	16.2	0.00e+00	0	43	102	1048576	12	4140
2026-01-04 10:44:32.91	359.75	14.65	-25.9	-27.2	16.1	0.00e+00	0	44	102	1048576	12	4171
2026-01-04 10:44:35.92	359.33	14.42	-26.3	-27.9	15.7	0.00e+00	0	43	102	1048576	12	4360
2026-01-04 10:44:38.95	358.92	14.18	-26.3	-27.9	15.7	0.00e+00	0	43	102	1048576	12	4366
2026-01-04 10:44:41.98	358.51	13.95	-26.3	-28.0	15.6	0.00e+00	0	43	102	1048576	12	4391
2026-01-04 10:44:44.99	358.11	13.71	-26.3	-28.1	15.5	0.00e+00	0	43	102	1048576	12	4402
2026-01-04 10:44:48.01	357.72	13.48	-26.3	-27.9	15.6	0.00e+00	0	43	102	1048576	12	4369
2026-01-04 10:44:51.03	357.33	13.25	-26.3	-28.0	15.6	0.00e+00	0	43	102	1048576	12	4372
2026-01-04 10:44:54.06	356.95	13.02	-26.2	-27.7	15.7	0.00e+00	0	43	102	1048576	12	4306
2026-01-04 10:44:57.09	356.58	12.79	-26.4	-28.1	15.5	0.00e+00	0	43	102	1048576	12	4420
2026-01-04 10:45:00.10	356.21	12.56	-26.5	-28.0	15.2	0.00e+00	0	43	102	1048576	13	4278
2026-01-04 10:45:03.13	355.84	12.34	-26.7	-28.5	15.0	0.00e+00	0	43	102	1048576	13	4415
2026-01-04 10:45:06.15	355.49	12.11	-26.6	-28.2	15.1	0.00e+00	0	43	102	1048576	13	4334
2026-01-04 10:45:09.18	355.13	11.88	-26.8	-28.6	14.9	1.10e-06	0	43	102	1048576	13	4429
2026-01-04 10:45:12.19	354.79	11.66	-26.8	-28.6	14.8	0.00e+00	0	43	102	1048576	13	4443
2026-01-04 10:45:15.21	354.45	11.44	-26.7	-28.5	14.9	0.00e+00	0	43	102	1048576	13	4418
2026-01-04 10:45:18.22	354.12	11.21	-26.7	-28.4	15.0	0.00e+00	0	43	102	1048576	13	4377
2026-01-04 10:45:21.23	353.79	10.99	-27.0	-29.0	14.6	1.10e-06	0	43	102	1048576	13	4557
2026-01-04 10:45:24.25	353.46	10.77	-27.0	-29.0	14.6	2.20e-06	0	43	102	1048576	13	4562
2026-01-04 10:45:27.27	353.14	10.56	-27.2	-29.0	14.3	0.00e+00	0	43	102	1048576	14	4447
2026-01-04 10:45:30.29	352.83	10.34	-27.4	-29.6	13.9	8.00e-06	0	44	102	1048576	14	4619
2026-01-04 10:45:33.31	352.52	10.12	-27.0	-28.7	14.4	1.10e-06	0	43	102	1048576	14	4368
2026-01-04 10:45:36.33	352.21	9.90	-27.1	-28.8	14.4	1.10e-06	0	43	102	1048576	14	4385
2026-01-04 10:45:39.35	351.91	9.69	-27.2	-29.1	14.2	0.00e+00	0	43	102	1048576	14	4463
2026-01-04 10:45:42.37	351.62	9.48	-27.1	-28.9	14.2	3.40e-06	0	43	102	1048576	14	4434
2026-01-04 10:45:45.39	351.32	9.26	-27.2	-29.2	14.1	4.50e-06	0	44	102	1048576	14	4495
2026-01-04 10:45:48.41	351.04	9.05	-27.3	-29.4	14.0	5.70e-06	0	43	102	1048576	14	4570
2026-01-04 10:45:51.44	350.75	8.84	-27.3	-29.3	13.9	4.50e-06	0	43	102	1048576	14	4550
2026-01-04 10:45:54.45	350.47	8.63	-27.3	-29.4	13.9	4.50e-06	0	43	102	1048576	14	4583
2026-01-04 10:45:57.47	350.20	8.42	-27.7	-29.7	13.4	1.48e-05	0	43	102	1048576	15	4549
2026-01-04 10:46:00.49	349.93	8.22	-27.4	-29.2	13.7	9.10e-06	0	43	102	1048576	15	4399
2026-01-04 10:46:03.51	349.66	8.01	-27.5	-29.2	13.7	1.25e-05	0	43	102	1048576	15	4419
2026-01-04 10:46:06.53	349.40	7.81	-27.5	-29.4	13.5	2.05e-05	0	43	102	1048576	15	4457
2026-01-04 10:46:09.55	349.14	7.60	-27.5	-29.3	13.6	1.94e-05	0	44	102	1048576	15	4414
2026-01-04 10:46:12.57	348.88	7.40	-27.5	-29.4	13.5	2.17e-05	0	43	102	1048576	15	4449
2026-01-04 10:46:15.60	348.63	7.20	-27.6	-29.6	13.3	3.43e-05	0	43	102	1048576	15	4518
2026-01-04 10:46:18.62	348.38	7.00	-33.4	-44.5	3.8	8.45e-01	0	43	104	1048576	26	12909

#Closed at: 2026-01-04 10:46:18
#Recorded file [1 MB]: D:/data/31010_260104_133604.dat