passes_logs/2026/01/04/R2M6_AANII_01/R2M6_AANII_01__20260104_014204_NOAA_20_JPSS-1_rec.log

#Pass ID: 20260104_014204_NOAA 20 (JPSS-1)
#Satellite: NOAA 20 (JPSS-1)
#Configuration: NOAA 20
#almurnet v.1.7.20240730
#Start time: 2026-01-04 01:42:04

#Version: 2.2.20231116
#Station: R2M6_AANII_01
#Location: 30.233357 lon 59.946436 lat
#TLE: 1 43013U 17073A   26003.41800368  .00000169  00000+0  10117-3 0  9998
#TLE: 2 43013  98.7624 304.4804 0001884  56.1176 304.0179 14.19532918421092

#Time	Az	El	Level	Level2	SNR	BER	BlckErr	Temp	State	Recorded	gain1	gain2
2026-01-04 01:42:04.34	12.31	6.96	-32.2	-39.7	4.7	1.34e+00	0	40	0	0	24	8567
2026-01-04 01:42:07.35	12.11	7.17	-32.1	-39.1	6.9	1.61e-01	0	40	102	1048576	24	8037
2026-01-04 01:42:10.37	11.91	7.38	-32.1	-38.9	7.1	1.44e-01	0	41	102	1048576	24	7858
2026-01-04 01:42:13.38	11.71	7.60	-32.2	-39.6	6.6	2.18e-01	0	41	102	1048576	24	8371
2026-01-04 01:42:16.40	11.50	7.81	-31.8	-37.7	8.5	4.51e-02	0	41	102	1048576	23	7119
2026-01-04 01:42:19.41	11.29	8.03	-31.7	-37.4	8.7	3.59e-02	0	41	102	1048576	23	6960
2026-01-04 01:42:22.42	11.07	8.25	-31.7	-37.3	8.9	2.68e-02	0	41	102	1048576	23	6832
2026-01-04 01:42:25.44	10.86	8.47	-31.8	-37.8	8.5	3.55e-02	0	41	102	1048576	23	7138
2026-01-04 01:42:28.45	10.63	8.69	-31.5	-36.3	9.6	1.46e-02	0	41	102	1048576	23	6269
2026-01-04 01:42:31.47	10.41	8.92	-31.0	-35.1	10.9	2.39e-03	0	41	102	1048576	22	5796
2026-01-04 01:42:34.48	10.18	9.14	-31.0	-35.0	11.1	1.83e-03	0	41	102	1048576	22	5717
2026-01-04 01:42:37.51	9.95	9.37	-31.0	-35.6	11.1	1.74e-03	0	42	102	1048576	21	6113
2026-01-04 01:42:40.53	9.71	9.60	-31.1	-35.5	10.8	2.63e-03	0	42	102	1048576	22	5973
2026-01-04 01:42:43.55	9.47	9.83	-31.0	-35.0	11.2	1.66e-03	0	41	102	1048576	22	5730
2026-01-04 01:42:46.57	9.23	10.06	-31.1	-35.3	10.9	1.95e-03	0	41	102	1048576	22	5857
2026-01-04 01:42:49.59	8.98	10.30	-31.1	-35.4	10.9	1.68e-03	0	42	102	1048576	22	5922
2026-01-04 01:42:52.61	8.72	10.53	-31.0	-35.4	11.1	1.21e-03	0	42	102	1048576	21	6025
2026-01-04 01:42:55.62	8.47	10.77	-30.9	-35.2	11.4	9.58e-04	0	42	102	1048576	21	5917
2026-01-04 01:42:58.65	8.21	11.01	-31.0	-35.0	11.3	1.70e-03	0	42	102	1048576	22	5683
2026-01-04 01:43:01.67	7.94	11.25	-30.9	-35.1	11.6	9.68e-04	0	42	102	1048576	21	5826
2026-01-04 01:43:04.69	7.67	11.49	-30.8	-34.9	11.7	8.52e-04	0	42	102	1048576	21	5762
2026-01-04 01:43:07.71	7.39	11.74	-30.9	-35.1	11.6	8.10e-04	0	42	102	1048576	21	5842
2026-01-04 01:43:10.73	7.11	11.98	-30.7	-34.5	12.1	6.12e-04	0	42	102	1048576	21	5554
2026-01-04 01:43:13.74	6.83	12.23	-30.7	-34.3	12.2	2.87e-04	0	42	102	1048576	21	5502
2026-01-04 01:43:16.76	6.54	12.48	-30.6	-34.0	12.4	3.52e-04	0	42	102	1048576	21	5375
2026-01-04 01:43:19.77	6.24	12.73	-30.7	-34.4	12.2	3.20e-04	0	42	102	1048576	21	5530
2026-01-04 01:43:22.79	5.94	12.99	-30.6	-34.1	12.4	4.87e-04	0	42	102	1048576	21	5394
2026-01-04 01:43:25.79	5.64	13.24	-30.6	-34.2	12.3	7.23e-04	0	42	102	1048576	21	5453
2026-01-04 01:43:28.82	5.33	13.50	-30.5	-33.8	12.6	5.96e-04	0	42	102	1048576	21	5287
2026-01-04 01:43:31.83	5.01	13.75	-30.6	-34.1	12.5	5.01e-04	0	42	102	1048576	21	5385
2026-01-04 01:43:34.86	4.69	14.02	-30.5	-33.9	12.6	3.37e-04	0	42	102	1048576	21	5320
2026-01-04 01:43:37.88	4.36	14.28	-30.5	-33.9	12.7	1.64e-04	0	42	102	1048576	21	5288
2026-01-04 01:43:40.90	4.02	14.54	-30.5	-33.7	12.8	6.48e-05	0	42	102	1048576	21	5226
2026-01-04 01:43:43.92	3.68	14.81	-30.4	-34.1	12.8	5.03e-05	0	42	102	1048576	20	5512
2026-01-04 01:43:46.94	3.33	15.08	-30.5	-33.9	12.7	3.56e-04	0	42	102	1048576	21	5298
2026-01-04 01:43:49.96	2.98	15.35	-30.6	-34.1	12.5	1.47e-04	0	43	102	1048576	21	5396
2026-01-04 01:43:52.98	2.62	15.62	-30.5	-33.8	12.8	9.68e-05	0	42	102	1048576	21	5254
2026-01-04 01:43:55.99	2.25	15.89	-30.7	-34.4	12.4	8.62e-05	0	43	102	1048576	21	5489
2026-01-04 01:43:59.01	1.88	16.17	-30.5	-33.9	11.6	6.79e-05	0	42	102	1048576	21	5299
2026-01-04 01:44:02.03	1.50	16.45	-30.8	-34.5	12.3	1.61e-04	0	42	102	1048576	21	5539
2026-01-04 01:44:05.05	1.11	16.73	-30.7	-34.4	12.5	1.61e-04	0	42	102	1048576	21	5485
2026-01-04 01:44:08.06	0.71	17.01	-30.7	-34.4	12.5	1.31e-04	0	43	102	1048576	21	5473
2026-01-04 01:44:11.09	0.31	17.29	-30.6	-34.1	12.6	2.58e-03	0	42	102	1048576	21	5373
2026-01-04 01:44:14.10	359.89	17.58	-30.7	-34.3	12.5	2.82e-03	0	43	102	1048576	21	5430
2026-01-04 01:44:17.12	359.47	17.86	-30.7	-34.2	12.6	2.64e-03	0	43	102	1048576	21	5419
2026-01-04 01:44:20.14	359.05	18.15	-30.8	-34.6	12.4	1.60e-04	0	43	102	1048576	21	5572
2026-01-04 01:44:23.16	358.61	18.44	-30.8	-34.6	12.0	1.61e-04	0	43	102	1048576	21	5549
2026-01-04 01:44:26.19	358.16	18.73	-30.8	-34.5	12.5	1.03e-03	0	43	102	1048576	21	5514
2026-01-04 01:44:29.21	357.71	19.03	-30.8	-34.6	12.4	2.45e-03	0	43	102	1048576	21	5578
2026-01-04 01:44:32.22	357.24	19.32	-31.0	-35.0	12.1	2.85e-03	0	43	102	1048576	21	5723
2026-01-04 01:44:35.24	356.77	19.62	-31.2	-35.2	11.7	3.02e-03	0	43	102	1048576	22	5706
2026-01-04 01:44:38.25	356.29	19.91	-31.1	-34.9	11.9	2.55e-03	0	43	102	1048576	22	5555
2026-01-04 01:44:41.27	355.80	20.21	-31.3	-35.5	11.5	3.91e-03	0	43	102	1048576	22	5832
2026-01-04 01:44:44.28	355.30	20.51	-30.7	-34.3	12.6	8.19e-04	0	42	102	1048576	21	5442
2026-01-04 01:44:47.30	354.79	20.81	-30.6	-34.0	12.9	5.68e-04	0	43	102	1048576	21	5313
2026-01-04 01:44:50.32	354.27	21.12	-30.7	-34.3	12.7	5.39e-04	0	43	102	1048576	21	5394
2026-01-04 01:44:53.35	353.73	21.42	-30.5	-33.5	13.3	4.90e-04	0	43	102	1048576	21	5098
2026-01-04 01:44:56.36	353.19	21.72	-30.5	-33.7	13.1	1.51e-03	0	43	102	1048576	21	5169
2026-01-04 01:44:59.39	352.63	22.03	-30.7	-34.2	12.8	5.29e-04	0	43	102	1048576	21	5361
2026-01-04 01:45:02.41	352.07	22.34	-30.6	-33.9	13.0	3.17e-04	0	43	102	1048576	21	5245
2026-01-04 01:45:05.43	351.49	22.64	-30.7	-34.3	12.7	2.07e-04	0	43	102	1048576	21	5397
2026-01-04 01:45:08.45	350.90	22.95	-30.9	-34.2	12.5	2.68e-04	0	43	102	1048576	22	5268
2026-01-04 01:45:11.47	350.30	23.26	-30.9	-34.8	12.4	2.55e-04	0	43	102	1048576	21	5629
2026-01-04 01:45:14.48	349.69	23.57	-30.9	-34.7	12.4	1.23e-04	0	43	102	1048576	21	5573
2026-01-04 01:45:17.51	349.06	23.88	-31.0	-34.8	12.4	1.47e-04	0	43	102	1048576	21	5627
2026-01-04 01:45:20.53	348.42	24.18	-31.2	-35.1	11.9	1.76e-03	0	43	102	1048576	22	5646
2026-01-04 01:45:23.55	347.77	24.49	-30.9	-34.8	12.5	4.60e-04	0	43	102	1048576	21	5591
2026-01-04 01:45:26.56	347.11	24.80	-31.2	-35.1	12.0	3.87e-04	0	43	102	1048576	22	5608
2026-01-04 01:45:29.59	346.43	25.10	-31.2	-35.1	11.9	3.48e-04	0	43	102	1048576	22	5646
2026-01-04 01:45:32.61	345.74	25.41	-31.3	-35.3	11.8	4.79e-04	0	43	102	1048576	22	5723
2026-01-04 01:45:35.62	345.04	25.71	-30.6	-33.8	13.1	3.43e-05	0	43	102	1048576	21	5222
2026-01-04 01:45:38.63	344.32	26.01	-30.5	-33.6	13.3	1.74e-03	0	43	102	1048576	21	5141
2026-01-04 01:45:41.65	343.59	26.31	-30.5	-33.6	13.3	2.02e-03	0	43	102	1048576	21	5132
2026-01-04 01:45:44.67	342.84	26.61	-30.5	-33.4	13.4	2.28e-03	0	43	102	1048576	21	5070
2026-01-04 01:45:47.69	342.08	26.91	-30.3	-33.4	13.8	2.06e-03	0	43	102	1048576	20	5158
2026-01-04 01:45:50.71	341.31	27.21	-30.7	-34.0	13.0	2.29e-03	0	43	102	1048576	21	5281
2026-01-04 01:45:53.73	340.52	27.50	-30.8	-34.3	12.9	4.42e-05	0	43	102	1048576	21	5385
2026-01-04 01:45:56.75	339.72	27.79	-30.8	-34.2	12.9	3.89e-05	0	43	102	1048576	21	5378
2026-01-04 01:45:59.77	338.90	28.07	-31.1	-34.8	12.2	2.01e-04	0	43	102	1048576	22	5476
2026-01-04 01:46:02.79	338.06	28.35	-31.3	-35.2	11.9	1.94e-03	0	43	102	1048576	22	5676
2026-01-04 01:46:05.82	337.21	28.63	-31.6	-35.7	11.2	2.43e-03	0	43	102	1048576	23	5798
2026-01-04 01:46:08.83	336.35	28.90	-31.7	-36.1	10.9	2.88e-03	0	43	102	1048576	23	5987
2026-01-04 01:46:11.86	335.47	29.17	-32.0	-37.0	10.3	4.42e-03	0	43	102	1048576	23	6402
2026-01-04 01:46:14.87	334.58	29.43	-32.2	-37.1	9.8	7.39e-03	0	43	102	1048576	24	6400
2026-01-04 01:46:17.90	333.67	29.69	-32.0	-36.6	10.2	5.38e-03	0	43	102	1048576	24	6078
2026-01-04 01:46:20.92	332.75	29.94	-32.4	-38.0	9.1	2.22e-02	0	43	102	1048576	24	6892
2026-01-04 01:46:23.93	331.81	30.19	-32.3	-37.8	9.3	1.85e-02	0	43	102	1048576	24	6747
2026-01-04 01:46:26.95	330.86	30.43	-32.0	-36.9	10.4	7.59e-03	0	43	102	1048576	23	6366
2026-01-04 01:46:29.98	329.90	30.66	-32.0	-36.9	10.3	4.38e-03	0	43	102	1048576	23	6357
2026-01-04 01:46:33.01	328.91	30.88	-31.9	-36.6	10.6	3.90e-03	0	43	102	1048576	23	6203
2026-01-04 01:46:36.03	327.92	31.10	-31.9	-36.6	10.6	2.84e-03	0	43	102	1048576	23	6207
2026-01-04 01:46:39.04	326.92	31.31	-31.8	-36.3	10.8	2.75e-03	0	43	102	1048576	23	6054
2026-01-04 01:46:42.07	325.90	31.51	-31.6	-35.6	11.4	1.10e-03	0	43	102	1048576	23	5708
2026-01-04 01:46:45.08	324.87	31.70	-31.8	-36.4	10.7	1.84e-03	0	43	102	1048576	23	6097
2026-01-04 01:46:48.10	323.83	31.88	-31.9	-36.6	10.6	2.83e-03	0	43	102	1048576	23	6220
2026-01-04 01:46:51.12	322.77	32.05	-31.6	-35.6	11.3	1.22e-03	0	43	102	1048576	23	5742
2026-01-04 01:46:54.13	321.71	32.21	-31.8	-36.2	10.9	2.91e-03	0	43	102	1048576	23	5980
2026-01-04 01:46:57.16	320.63	32.36	-31.6	-35.7	11.3	1.67e-03	0	43	102	1048576	23	5756
2026-01-04 01:47:00.18	319.54	32.50	-31.5	-35.5	11.4	9.27e-04	0	43	102	1048576	23	5679
2026-01-04 01:47:03.20	318.45	32.62	-31.6	-35.7	11.3	1.50e-03	0	43	102	1048576	23	5772
2026-01-04 01:47:06.22	317.35	32.74	-31.1	-34.6	12.4	1.82e-04	0	43	102	1048576	22	5384
2026-01-04 01:47:09.22	316.24	32.85	-30.8	-33.6	13.1	3.81e-05	0	43	102	1048576	22	5021
2026-01-04 01:47:12.24	315.13	32.94	-30.5	-33.6	13.4	9.90e-06	0	43	102	1048576	21	5115
2026-01-04 01:47:15.26	314.00	33.02	-30.9	-34.5	12.8	3.04e-04	0	43	102	1048576	21	5462
2026-01-04 01:47:18.28	312.87	33.09	-30.9	-34.2	12.7	1.94e-04	0	43	102	1048576	22	5241
2026-01-04 01:47:21.31	311.74	33.14	-31.2	-34.9	12.2	1.43e-04	0	43	102	1048576	22	5508
2026-01-04 01:47:24.32	310.60	33.19	-31.0	-34.5	12.5	1.17e-04	0	43	102	1048576	22	5356
2026-01-04 01:47:27.34	309.46	33.22	-31.1	-34.6	12.4	1.26e-04	0	43	102	1048576	22	5392
2026-01-04 01:47:30.36	308.32	33.23	-31.2	-35.0	12.1	1.64e-03	0	43	102	1048576	22	5578
2026-01-04 01:47:33.38	307.18	33.24	-31.3	-35.3	11.9	8.48e-04	0	43	102	1048576	22	5702
2026-01-04 01:47:36.40	306.04	33.23	-31.3	-35.4	11.0	1.04e-03	0	43	102	1048576	22	5740
2026-01-04 01:47:39.42	304.90	33.21	-31.1	-34.7	12.2	1.01e-03	0	43	102	1048576	22	5440
2026-01-04 01:47:42.43	303.76	33.18	-30.9	-34.6	12.8	2.81e-03	0	43	102	1048576	21	5499
2026-01-04 01:47:45.45	302.63	33.13	-31.3	-35.3	11.9	3.95e-04	0	43	102	1048576	22	5712
2026-01-04 01:47:48.47	301.49	33.07	-31.5	-35.5	11.3	7.30e-04	0	43	102	1048576	23	5672
2026-01-04 01:47:51.49	300.36	33.00	-31.5	-35.3	11.5	9.66e-04	0	43	102	1048576	23	5613
2026-01-04 01:47:54.50	299.25	32.91	-31.5	-35.8	11.6	9.02e-04	0	43	102	1048576	22	5918
2026-01-04 01:47:57.52	298.13	32.82	-31.4	-35.6	11.7	9.36e-04	0	43	102	1048576	22	5823
2026-01-04 01:48:00.53	297.02	32.71	-31.6	-35.6	11.2	4.53e-03	0	43	102	1048576	23	5754
2026-01-04 01:48:03.56	295.92	32.59	-31.5	-35.3	11.4	3.94e-03	0	43	102	1048576	23	5613
2026-01-04 01:48:06.58	294.82	32.46	-31.5	-35.3	11.5	3.42e-03	0	43	102	1048576	23	5578
2026-01-04 01:48:09.60	293.74	32.32	-31.5	-35.5	11.3	4.03e-03	0	43	102	1048576	23	5690
2026-01-04 01:48:12.63	292.66	32.16	-31.7	-36.2	10.9	4.13e-03	0	43	102	1048576	23	6016
2026-01-04 01:48:15.64	291.60	32.00	-31.6	-35.7	11.2	3.91e-03	0	43	102	1048576	23	5793
2026-01-04 01:48:18.65	290.55	31.83	-31.8	-36.5	10.5	6.10e-03	0	43	102	1048576	23	6171
2026-01-04 01:48:21.67	289.51	31.64	-31.5	-35.4	11.4	4.44e-03	0	43	102	1048576	23	5641
2026-01-04 01:48:24.69	288.48	31.45	-31.2	-35.2	11.9	3.12e-03	0	43	102	1048576	22	5653
2026-01-04 01:48:27.71	287.46	31.25	-31.7	-36.0	10.9	4.20e-03	0	43	102	1048576	23	5935
2026-01-04 01:48:30.73	286.46	31.04	-31.6	-36.0	10.9	2.45e-03	0	43	102	1048576	23	5917
2026-01-04 01:48:33.74	285.47	30.82	-31.3	-35.4	11.7	6.55e-04	0	43	102	1048576	22	5746
2026-01-04 01:48:36.77	284.49	30.59	-31.6	-35.9	11.0	1.78e-03	0	43	102	1048576	23	5890
2026-01-04 01:48:39.78	283.53	30.36	-31.8	-36.4	10.6	3.33e-03	0	43	102	1048576	23	6147
2026-01-04 01:48:42.80	282.58	30.12	-31.9	-36.7	10.3	4.85e-03	0	43	102	1048576	23	6309
2026-01-04 01:48:45.82	281.64	29.87	-31.4	-35.1	11.5	1.01e-03	0	43	102	1048576	23	5554
2026-01-04 01:48:48.84	280.72	29.62	-31.3	-35.4	11.7	5.74e-04	0	43	102	1048576	22	5769
2026-01-04 01:48:51.85	279.82	29.36	-30.5	-34.9	11.1	1.01e-03	0	43	102	1048576	22	5974
2026-01-04 01:48:54.87	278.93	29.09	-31.2	-35.3	11.5	5.80e-04	0	43	102	1048576	22	5712
2026-01-04 01:48:57.90	278.05	28.82	-31.6	-35.8	10.9	1.67e-03	0	43	102	1048576	23	5864
2026-01-04 01:49:00.92	277.19	28.55	-31.9	-37.2	10.0	6.46e-03	0	43	102	1048576	23	6568
2026-01-04 01:49:03.93	276.34	28.27	-31.6	-35.8	11.0	3.82e-03	0	43	102	1048576	23	5854
2026-01-04 01:49:06.94	275.51	27.99	-31.0	-34.6	12.2	2.59e-04	0	43	102	1048576	22	5455
2026-01-04 01:49:09.96	274.70	27.70	-30.9	-34.9	12.3	6.52e-04	0	43	102	1048576	21	5678
2026-01-04 01:49:12.98	273.89	27.41	-31.0	-34.6	12.1	6.77e-04	0	43	102	1048576	22	5446
2026-01-04 01:49:16.00	273.10	27.12	-31.0	-34.7	12.0	4.03e-04	0	43	102	1048576	22	5499
2026-01-04 01:49:19.02	272.33	26.82	-31.1	-35.0	11.8	2.08e-03	0	43	102	1048576	22	5614
2026-01-04 01:49:22.03	271.57	26.52	-31.1	-34.9	11.9	4.01e-04	0	43	102	1048576	22	5573
2026-01-04 01:49:25.04	270.83	26.22	-30.5	-33.6	13.0	2.27e-04	0	43	102	1048576	21	5167
2026-01-04 01:49:28.06	270.10	25.92	-30.0	-32.9	13.9	4.20e-04	0	43	102	1048576	20	4992
2026-01-04 01:49:31.09	269.38	25.61	-29.8	-32.3	14.2	2.05e-03	0	43	102	1048576	20	4788
2026-01-04 01:49:34.11	268.68	25.31	-29.2	-31.7	15.3	2.25e-03	0	43	102	1048576	18	4811
2026-01-04 01:49:37.12	267.99	25.00	-29.3	-32.0	15.1	2.23e-03	0	43	102	1048576	18	4893
2026-01-04 01:49:40.14	267.31	24.70	-29.3	-31.9	15.1	1.49e-04	0	43	102	1048576	18	4863
2026-01-04 01:49:43.16	266.65	24.39	-29.2	-31.6	15.3	1.50e-06	0	43	102	1048576	18	4788
2026-01-04 01:49:46.17	266.00	24.08	-28.8	-31.4	15.7	0.00e+00	0	43	102	1048576	17	4811
2026-01-04 01:49:49.19	265.37	23.77	-28.8	-31.1	15.8	0.00e+00	0	43	102	1048576	17	4741
2026-01-04 01:49:52.20	264.74	23.46	-28.5	-30.6	16.1	0.00e+00	0	43	102	1048576	17	4579
2026-01-04 01:49:55.21	264.13	23.15	-28.5	-31.0	16.2	4.21e-03	0	43	102	1048576	16	4812
2026-01-04 01:49:58.24	263.53	22.84	-28.6	-30.8	16.0	2.42e-03	0	43	102	1048576	17	4636
2026-01-04 01:50:01.27	262.94	22.54	-28.8	-31.4	15.6	0.00e+00	0	43	102	1048576	17	4820
2026-01-04 01:50:04.29	262.36	22.23	-28.9	-31.5	15.6	0.00e+00	0	43	102	1048576	17	4849
2026-01-04 01:50:07.31	261.80	21.92	-29.1	-31.6	15.1	0.00e+00	0	43	102	1048576	18	4791
2026-01-04 01:50:10.32	261.24	21.61	-29.1	-31.5	15.2	0.00e+00	0	43	102	1048576	18	4747
2026-01-04 01:50:13.34	260.70	21.31	-29.1	-31.6	15.2	0.00e+00	0	43	102	1048576	18	4777
2026-01-04 01:50:16.35	260.17	21.01	-29.2	-31.8	15.0	0.00e+00	0	43	102	1048576	18	4848
2026-01-04 01:50:19.37	259.65	20.70	-29.5	-32.5	14.6	0.00e+00	0	43	102	1048576	18	5091
2026-01-04 01:50:22.39	259.14	20.40	-29.7	-32.6	14.2	0.00e+00	0	43	102	1048576	19	5002
2026-01-04 01:50:25.41	258.63	20.10	-29.6	-32.4	14.3	0.00e+00	0	43	102	1048576	19	4954
2026-01-04 01:50:28.41	258.14	19.80	-29.6	-32.4	14.3	2.20e-06	0	43	102	1048576	19	4970
2026-01-04 01:50:31.43	257.66	19.50	-29.8	-32.9	14.0	2.20e-06	0	43	102	1048576	19	5147
2026-01-04 01:50:34.45	257.19	19.20	-29.8	-33.0	13.9	2.20e-04	0	43	102	1048576	19	5156
2026-01-04 01:50:37.47	256.73	18.91	-29.9	-33.2	13.8	3.55e-04	0	43	102	1048576	19	5257
2026-01-04 01:50:40.48	256.27	18.62	-30.2	-33.6	13.1	1.35e-04	0	43	102	1048576	20	5305
2026-01-04 01:50:43.50	255.83	18.32	-30.4	-34.2	12.6	7.40e-05	0	43	102	1048576	20	5566
2026-01-04 01:50:46.51	255.39	18.03	-30.7	-34.4	12.2	1.79e-04	0	43	102	1048576	21	5533
2026-01-04 01:50:49.53	254.96	17.75	-30.7	-34.6	12.0	6.46e-04	0	43	102	1048576	21	5623
2026-01-04 01:50:52.55	254.54	17.46	-30.5	-34.3	12.6	8.16e-05	0	43	102	1048576	20	5595
2026-01-04 01:50:55.57	254.13	17.17	-30.4	-34.2	12.6	6.17e-05	0	43	102	1048576	20	5549
2026-01-04 01:50:58.59	253.72	16.89	-30.4	-34.1	12.7	1.50e-03	0	43	102	1048576	20	5511
2026-01-04 01:51:01.61	253.32	16.61	-30.4	-34.2	12.6	1.70e-03	0	43	102	1048576	20	5567
2026-01-04 01:51:04.63	252.93	16.33	-30.3	-34.0	12.7	1.60e-03	0	43	102	1048576	20	5497
2026-01-04 01:51:07.64	252.55	16.05	-30.4	-34.1	12.6	7.47e-05	0	43	102	1048576	20	5507
2026-01-04 01:51:10.67	252.18	15.77	-30.5	-34.5	12.3	1.36e-04	0	43	102	1048576	20	5691
2026-01-04 01:51:13.68	251.81	15.50	-30.5	-34.0	12.2	2.31e-04	0	43	102	1048576	21	5398
2026-01-04 01:51:16.70	251.45	15.23	-30.6	-34.3	12.0	2.38e-04	0	43	102	1048576	21	5534
2026-01-04 01:51:19.71	251.09	14.96	-30.7	-34.5	11.9	3.21e-04	0	43	102	1048576	21	5610
2026-01-04 01:51:22.73	250.75	14.69	-30.5	-33.9	12.2	1.94e-04	0	43	102	1048576	21	5370
2026-01-04 01:51:25.75	250.40	14.42	-30.3	-34.1	11.7	1.19e-04	0	43	102	1048576	20	5546
2026-01-04 01:51:28.78	250.07	14.16	-30.4	-34.4	12.2	3.93e-03	0	43	102	1048576	20	5667
2026-01-04 01:51:31.80	249.74	13.89	-30.4	-34.2	12.4	3.34e-03	0	43	102	1048576	20	5591
2026-01-04 01:51:34.82	249.41	13.63	-30.4	-34.4	12.2	2.16e-04	0	43	102	1048576	20	5681
2026-01-04 01:51:37.85	249.09	13.37	-30.7	-34.6	11.6	4.32e-04	0	43	102	1048576	21	5683
2026-01-04 01:51:40.86	248.78	13.11	-30.7	-34.7	11.6	8.92e-04	0	43	102	1048576	21	5693
2026-01-04 01:51:43.88	248.47	12.86	-30.6	-34.4	11.7	4.37e-04	0	43	102	1048576	21	5596
2026-01-04 01:51:46.89	248.17	12.61	-30.6	-34.4	11.8	3.40e-03	0	43	102	1048576	21	5573
2026-01-04 01:51:49.92	247.88	12.35	-30.6	-34.5	11.7	3.29e-03	0	43	102	1048576	21	5636
2026-01-04 01:51:52.93	247.59	12.10	-30.7	-34.7	11.5	3.16e-03	0	43	102	1048576	21	5722
2026-01-04 01:51:55.95	247.30	11.86	-30.7	-34.6	11.5	3.36e-03	0	43	102	1048576	21	5700
2026-01-04 01:51:58.97	247.02	11.61	-30.7	-34.7	11.5	4.82e-03	0	43	102	1048576	21	5738
2026-01-04 01:52:02.00	246.74	11.36	-30.7	-34.8	11.4	2.33e-03	0	43	102	1048576	21	5753
2026-01-04 01:52:05.02	246.47	11.12	-30.8	-35.2	11.1	2.82e-03	0	43	102	1048576	21	5963
2026-01-04 01:52:08.03	246.20	10.88	-30.8	-35.3	11.0	4.37e-03	0	43	102	1048576	21	6017
2026-01-04 01:52:11.06	245.94	10.64	-30.7	-34.9	11.2	4.17e-03	0	43	102	1048576	21	5860
2026-01-04 01:52:14.08	245.68	10.40	-30.6	-34.7	11.4	3.54e-03	0	43	102	1048576	21	5733
2026-01-04 01:52:17.09	245.43	10.17	-30.8	-35.2	11.0	3.44e-03	0	43	102	1048576	21	6004
2026-01-04 01:52:20.12	245.17	9.93	-30.9	-35.6	10.6	2.64e-03	0	43	102	1048576	21	6206
2026-01-04 01:52:23.13	244.93	9.70	-30.9	-35.6	10.7	3.10e-03	0	43	102	1048576	21	6167
2026-01-04 01:52:26.15	244.69	9.47	-31.1	-35.7	10.2	4.90e-03	0	43	102	1048576	22	6138
2026-01-04 01:52:29.16	244.45	9.24	-31.0	-35.3	10.4	4.61e-03	0	43	102	1048576	22	5962
2026-01-04 01:52:32.18	244.22	9.01	-31.1	-35.9	10.0	6.78e-03	0	43	102	1048576	22	6270
2026-01-04 01:52:35.21	243.98	8.79	-31.0	-35.7	10.1	6.02e-03	0	43	102	1048576	22	6154
2026-01-04 01:52:38.22	243.76	8.56	-31.0	-35.6	10.2	6.35e-03	0	43	102	1048576	22	6094
2026-01-04 01:52:41.24	243.53	8.34	-31.1	-35.9	9.5	7.75e-03	0	43	102	1048576	22	6309
2026-01-04 01:52:44.26	243.31	8.12	-31.1	-36.3	9.6	1.19e-02	0	43	102	1048576	22	6482
2026-01-04 01:52:47.26	243.10	7.90	-31.0	-35.9	9.8	1.04e-02	0	43	102	1048576	22	6288
2026-01-04 01:52:50.28	242.89	7.68	-31.0	-35.9	9.8	8.25e-03	0	43	102	1048576	22	6291
2026-01-04 01:52:53.30	242.68	7.46	-31.0	-36.0	9.7	1.28e-02	0	43	102	1048576	22	6351
2026-01-04 01:52:56.31	242.47	7.25	-31.3	-37.0	8.8	3.16e-02	0	43	102	1048576	22	6960
2026-01-04 01:52:59.33	242.27	7.04	-33.1	-47.3	3.8	1.49e+00	0	43	104	1048576	26	18430
2026-01-04 01:53:02.36	242.07	6.82	-33.8	-48.2	3.8	1.49e+00	0	43	104	1048576	27	18901

#Closed at: 2026-01-04 01:53:02
#Recorded file [1 MB]: D:/data/31010_260104_044206.dat