passes_logs/2026/01/04/R2M6_AANII_01/R2M6_AANII_01__20260104_040901_FENGYUN_3E_rec.log

#Pass ID: 20260104_040901_FENGYUN 3E
#Satellite: FENGYUN 3E
#Configuration: FENGYUN 3E
#almurnet v.1.7.20240730
#Start time: 2026-01-04 04:13:14

#Version: 2.2.20231116
#Station: R2M6_AANII_01
#Location: 30.233357 lon 59.946436 lat
#TLE: 1 49008U 21062A   26003.51942929 -.00000034  00000+0  45519-5 0  9990
#TLE: 2 49008  98.7472   8.7829 0001426 160.7926 199.3304 14.19883272233213

#Time	Az	El	Level	Level2	SNR	BER	BlckErr	Temp	State	Recorded	gain1	gain2
2026-01-04 04:13:14.42	41.05	40.63	-33.9	-45.3	3.8	8.46e-01	0	43	0	0	27	13407
2026-01-04 04:13:16.42	41.51	41.10	-34.2	-43.3	3.8	8.46e-01	0	43	104	0	29	10252
2026-01-04 04:13:18.44	41.99	41.58	-34.2	-43.3	3.8	8.46e-01	0	43	104	0	29	10242
2026-01-04 04:13:20.45	42.48	42.06	-34.2	-43.3	3.8	8.46e-01	0	43	104	0	29	10237
2026-01-04 04:13:22.47	42.98	42.55	-34.2	-43.2	3.8	8.46e-01	0	43	104	0	29	10214
2026-01-04 04:13:24.48	43.50	43.04	-34.2	-43.2	3.8	8.47e-01	0	43	104	0	29	10143
2026-01-04 04:13:26.50	44.04	43.54	-34.2	-43.2	3.8	8.46e-01	0	43	104	0	29	10178
2026-01-04 04:13:28.51	44.59	44.04	-34.2	-43.2	3.8	8.46e-01	0	43	104	0	29	10199
2026-01-04 04:13:30.53	45.17	44.54	-34.1	-43.2	3.8	8.45e-01	0	43	104	0	29	10192
2026-01-04 04:13:32.54	45.75	45.04	-34.0	-43.0	3.8	8.46e-01	0	43	104	0	29	10068
2026-01-04 04:13:34.55	46.36	45.55	-33.9	-43.1	3.8	8.47e-01	0	43	104	0	28	10415
2026-01-04 04:13:36.57	46.99	46.06	-33.8	-43.5	3.8	8.46e-01	0	43	104	0	27	10876
2026-01-04 04:13:38.58	47.63	46.58	-33.8	-43.3	3.8	8.45e-01	0	43	104	0	27	10716
2026-01-04 04:13:40.60	48.30	47.10	-33.8	-43.3	3.8	8.46e-01	0	43	104	0	27	10776
2026-01-04 04:13:42.62	49.00	47.62	-33.8	-43.5	3.8	8.45e-01	0	44	104	0	27	10942
2026-01-04 04:13:44.63	49.71	48.14	-33.8	-43.3	3.8	8.46e-01	0	43	104	0	27	10784
2026-01-04 04:13:46.65	50.45	48.66	-33.8	-43.0	3.8	8.44e-01	0	43	104	0	27	10477
2026-01-04 04:13:48.66	51.21	49.18	-33.8	-43.5	3.8	8.46e-01	0	43	104	0	27	10964
2026-01-04 04:13:50.66	52.00	49.70	-33.8	-43.4	3.8	8.47e-01	0	43	104	0	27	10894
2026-01-04 04:13:52.67	52.81	50.22	-33.7	-42.5	3.8	8.47e-01	0	43	104	0	27	9914
2026-01-04 04:13:54.68	53.66	50.75	-33.7	-42.9	3.8	8.46e-01	0	43	104	0	27	10355
2026-01-04 04:13:56.70	54.53	51.27	-33.7	-42.6	3.8	8.45e-01	0	44	104	0	27	10001
2026-01-04 04:13:58.71	55.44	51.79	-33.4	-40.7	3.8	8.45e-01	0	43	104	0	27	8332
2026-01-04 04:14:00.72	56.38	52.31	-33.4	-40.7	3.8	8.44e-01	0	44	104	0	27	8339
2026-01-04 04:14:02.73	57.34	52.83	-32.6	-36.8	4.3	8.27e-01	0	43	104	0	26	5879
2026-01-04 04:14:04.74	58.35	53.34	-31.8	-35.0	6.8	1.87e-01	0	44	102	1048576	24	5205
2026-01-04 04:14:06.76	59.39	53.85	-27.7	-28.2	13.5	1.91e-04	0	43	102	1048576	16	3834
2026-01-04 04:14:08.77	60.47	54.36	-26.4	-27.5	14.9	0.00e+00	0	44	102	1048576	12	4091
2026-01-04 04:14:10.79	61.59	54.86	-27.1	-27.5	14.1	6.80e-06	0	43	102	1048576	15	3773
2026-01-04 04:14:12.80	62.74	55.35	-27.1	-27.4	14.2	4.50e-06	0	44	102	1048576	15	3733
2026-01-04 04:14:14.82	63.94	55.84	-26.0	-26.1	15.4	0.00e+00	0	44	102	1048576	13	3637
2026-01-04 04:14:16.83	65.18	56.32	-25.8	-26.1	15.7	0.00e+00	0	44	102	1048576	12	3723
2026-01-04 04:14:18.85	66.47	56.79	-26.0	-26.0	15.5	0.00e+00	0	44	102	1048576	13	3607
2026-01-04 04:14:20.86	67.79	57.25	-25.0	-24.9	16.7	0.00e+00	0	43	102	1048576	11	3547
2026-01-04 04:14:22.88	69.16	57.70	-25.0	-25.3	16.7	0.00e+00	0	44	102	1048576	10	3749
2026-01-04 04:14:24.89	70.58	58.14	-25.2	-25.8	16.5	0.00e+00	0	43	102	1048576	10	3856
2026-01-04 04:14:26.90	72.04	58.56	-24.9	-25.3	16.8	0.00e+00	0	44	102	1048576	10	3741
2026-01-04 04:14:28.91	73.54	58.97	-24.7	-24.8	17.1	0.00e+00	0	44	102	1048576	10	3639
2026-01-04 04:14:30.93	75.10	59.36	-24.8	-24.9	17.0	0.00e+00	0	44	102	1048576	10	3667
2026-01-04 04:14:32.94	76.70	59.73	-25.1	-25.6	16.6	0.00e+00	0	43	102	1048576	10	3829
2026-01-04 04:14:34.94	78.33	60.09	-25.0	-25.3	16.8	0.00e+00	0	43	102	1048576	10	3752
2026-01-04 04:14:36.95	80.02	60.43	-24.8	-24.8	17.1	0.00e+00	0	44	102	1048576	10	3638
2026-01-04 04:14:38.97	81.76	60.74	-24.8	-25.1	17.0	0.00e+00	0	44	102	1048576	10	3686
2026-01-04 04:14:40.97	83.53	61.04	-24.7	-24.7	17.2	0.00e+00	0	44	102	1048576	10	3602
2026-01-04 04:14:42.99	85.35	61.31	-24.6	-24.5	17.3	0.00e+00	0	44	102	1048576	10	3566
2026-01-04 04:14:45.00	87.20	61.55	-24.6	-24.5	17.3	0.00e+00	0	44	102	1048576	10	3574
2026-01-04 04:14:47.01	89.09	61.78	-24.3	-24.4	17.6	0.00e+00	0	44	102	1048576	9	3637
2026-01-04 04:14:49.03	91.02	61.97	-24.6	-25.0	17.3	0.00e+00	0	44	102	1048576	9	3771
2026-01-04 04:14:51.04	92.97	62.14	-24.2	-24.2	17.7	0.00e+00	0	44	102	1048576	9	3585
2026-01-04 04:14:53.05	94.94	62.28	-24.2	-24.1	17.7	0.00e+00	0	44	102	1048576	9	3570
2026-01-04 04:14:55.06	96.93	62.39	-24.6	-25.0	17.2	0.00e+00	0	44	102	1048576	9	3781
2026-01-04 04:14:57.06	98.93	62.47	-24.2	-24.3	17.7	0.00e+00	0	43	102	1048576	9	3610
2026-01-04 04:14:59.08	100.96	62.53	-24.1	-24.0	17.8	1.10e-06	0	44	102	1048576	9	3546
2026-01-04 04:15:01.08	102.98	62.55	-24.2	-24.1	17.8	0.00e+00	0	44	102	1048576	9	3577
2026-01-04 04:15:03.10	105.02	62.54	-24.2	-24.3	17.6	0.00e+00	0	43	102	1048576	9	3618
2026-01-04 04:15:05.10	107.03	62.50	-24.0	-23.7	17.9	0.00e+00	0	44	102	1048576	9	3495
2026-01-04 04:15:07.11	109.05	62.44	-24.3	-24.3	17.5	0.00e+00	0	43	102	1048576	9	3623
2026-01-04 04:15:09.12	111.05	62.34	-24.8	-25.4	17.1	0.00e+00	0	44	102	1048576	9	3880
2026-01-04 04:15:11.14	113.05	62.21	-24.5	-24.8	17.5	1.60e-05	0	44	102	1048576	9	3721
2026-01-04 04:15:13.15	115.01	62.06	-24.5	-24.9	17.4	0.00e+00	0	44	102	1048576	9	3743
2026-01-04 04:15:15.16	116.95	61.88	-24.7	-25.2	17.2	0.00e+00	0	44	102	1048576	9	3829
2026-01-04 04:15:17.17	118.86	61.67	-24.6	-25.1	17.3	0.00e+00	0	43	102	1048576	9	3789
2026-01-04 04:15:19.19	120.74	61.44	-25.2	-25.9	16.6	0.00e+00	0	44	102	1048576	10	3884
2026-01-04 04:15:21.19	122.56	61.18	-25.2	-25.9	16.6	0.00e+00	0	44	102	1048576	10	3882
2026-01-04 04:15:23.21	124.37	60.89	-25.4	-26.3	16.4	0.00e+00	0	44	102	1048576	10	3968
2026-01-04 04:15:25.22	126.13	60.59	-25.3	-26.0	16.6	0.00e+00	0	43	102	1048576	10	3911
2026-01-04 04:15:27.24	127.85	60.26	-24.7	-24.8	17.2	0.00e+00	0	43	102	1048576	10	3622
2026-01-04 04:15:29.25	129.52	59.91	-24.5	-24.4	17.3	0.00e+00	0	44	102	1048576	10	3536
2026-01-04 04:15:31.26	131.14	59.55	-24.8	-24.9	17.1	0.00e+00	0	43	102	1048576	10	3650
2026-01-04 04:15:33.28	132.72	59.16	-24.8	-25.0	17.1	0.00e+00	0	43	102	1048576	10	3668
2026-01-04 04:15:35.29	134.25	58.76	-25.1	-25.5	16.8	0.00e+00	0	43	102	1048576	10	3794
2026-01-04 04:15:37.30	135.74	58.35	-25.0	-25.3	16.9	0.00e+00	0	44	102	1048576	10	3741
2026-01-04 04:15:39.31	137.18	57.92	-25.5	-26.5	16.3	0.00e+00	0	43	102	1048576	10	4030
2026-01-04 04:15:41.33	138.58	57.47	-25.4	-26.2	16.4	0.00e+00	0	43	102	1048576	10	3951
2026-01-04 04:15:43.34	139.93	57.02	-26.1	-26.8	16.2	0.00e+00	0	44	102	1048576	11	3921
2026-01-04 04:15:45.36	141.24	56.55	-25.9	-26.7	15.9	0.00e+00	0	44	102	1048576	11	3964
2026-01-04 04:15:47.37	142.50	56.07	-26.2	-27.1	15.3	0.00e+00	0	43	102	1048576	12	3955
2026-01-04 04:15:49.39	143.72	55.59	-25.5	-25.4	16.2	0.00e+00	0	44	102	1048576	12	3562
2026-01-04 04:15:51.39	144.89	55.10	-24.9	-25.1	17.0	0.00e+00	0	43	102	1048576	10	3687
2026-01-04 04:15:53.41	146.03	54.60	-24.9	-25.2	16.9	0.00e+00	0	43	102	1048576	10	3728
2026-01-04 04:15:55.43	147.14	54.09	-25.0	-25.4	16.8	0.00e+00	0	43	102	1048576	10	3758
2026-01-04 04:15:57.43	148.19	53.58	-25.1	-25.5	16.8	0.00e+00	0	43	102	1048576	10	3790
2026-01-04 04:15:59.45	149.22	53.07	-25.4	-26.3	16.3	0.00e+00	0	44	102	1048576	10	3993
2026-01-04 04:16:01.45	150.20	52.55	-25.4	-26.3	16.3	0.00e+00	0	44	102	1048576	10	3972
2026-01-04 04:16:03.47	151.16	52.03	-25.2	-25.7	16.4	0.00e+00	0	43	102	1048576	10	3838
2026-01-04 04:16:05.49	152.09	51.50	-25.0	-25.5	16.8	0.00e+00	0	44	102	1048576	10	3775
2026-01-04 04:16:07.51	152.98	50.98	-25.0	-25.4	16.8	0.00e+00	0	43	102	1048576	10	3757
2026-01-04 04:16:09.52	153.84	50.45	-24.9	-25.1	16.9	0.00e+00	0	44	102	1048576	10	3692
2026-01-04 04:16:11.53	154.67	49.93	-25.0	-25.3	16.8	0.00e+00	0	44	102	1048576	10	3750
2026-01-04 04:16:13.54	155.48	49.40	-25.3	-26.1	16.3	0.00e+00	0	44	102	1048576	10	3929
2026-01-04 04:16:15.56	156.26	48.87	-25.4	-26.3	16.2	0.00e+00	0	44	102	1048576	10	3971
2026-01-04 04:16:17.57	157.01	48.35	-25.2	-25.8	16.5	0.00e+00	0	43	102	1048576	10	3865
2026-01-04 04:16:19.58	157.73	47.83	-24.3	-24.3	17.5	0.00e+00	0	44	102	1048576	9	3623
2026-01-04 04:16:21.59	158.44	47.31	-24.1	-24.0	17.6	0.00e+00	0	44	102	1048576	9	3564
2026-01-04 04:16:23.60	159.12	46.79	-24.2	-24.1	17.6	0.00e+00	0	44	102	1048576	9	3577
2026-01-04 04:16:25.62	159.78	46.27	-24.3	-24.4	17.4	0.00e+00	0	44	102	1048576	9	3654
2026-01-04 04:16:27.64	160.42	45.75	-23.9	-23.6	17.9	0.00e+00	0	44	102	1048576	9	3471
2026-01-04 04:16:29.65	161.03	45.24	-23.8	-23.9	17.9	0.00e+00	0	43	102	1048576	8	3638
2026-01-04 04:16:31.66	161.63	44.73	-23.5	-23.3	18.3	0.00e+00	0	44	102	1048576	8	3497
2026-01-04 04:16:33.68	162.21	44.23	-23.7	-23.7	18.1	2.20e-06	0	44	102	1048576	8	3586
2026-01-04 04:16:35.69	162.77	43.72	-24.1	-24.4	17.7	0.00e+00	0	44	102	1048576	8	3742
2026-01-04 04:16:37.70	163.32	43.23	-23.8	-23.8	18.0	0.00e+00	0	43	102	1048576	8	3616
2026-01-04 04:16:39.71	163.84	42.73	-23.2	-23.2	18.5	0.00e+00	0	43	102	1048576	7	3570
2026-01-04 04:16:41.72	164.36	42.24	-23.3	-23.3	18.5	0.00e+00	0	44	102	1048576	7	3601
2026-01-04 04:16:43.74	164.86	41.75	-23.4	-23.6	18.3	0.00e+00	0	43	102	1048576	7	3665
2026-01-04 04:16:45.76	165.34	41.27	-23.5	-23.8	18.0	0.00e+00	0	43	102	1048576	7	3702
2026-01-04 04:16:47.78	165.81	40.79	-23.4	-23.5	18.3	0.00e+00	0	43	102	1048576	7	3644
2026-01-04 04:16:49.79	166.27	40.31	-23.5	-23.6	18.3	0.00e+00	0	44	102	1048576	7	3669
2026-01-04 04:16:51.81	166.71	39.84	-23.3	-23.4	18.4	0.00e+00	0	44	102	1048576	7	3617
2026-01-04 04:16:53.81	167.14	39.38	-23.8	-24.4	17.8	0.00e+00	0	43	102	1048576	7	3851
2026-01-04 04:16:55.83	167.56	38.92	-24.0	-24.8	17.4	0.00e+00	0	43	102	1048576	7	3943
2026-01-04 04:16:57.85	167.97	38.46	-24.0	-24.2	17.7	0.00e+00	0	44	102	1048576	8	3711
2026-01-04 04:16:59.87	168.37	38.00	-24.1	-24.6	17.5	0.00e+00	0	44	102	1048576	8	3787
2026-01-04 04:17:01.87	168.75	37.56	-23.6	-23.5	18.0	0.00e+00	0	43	102	1048576	8	3546
2026-01-04 04:17:03.88	169.12	37.12	-23.6	-23.4	18.1	0.00e+00	0	44	102	1048576	8	3524
2026-01-04 04:17:05.89	169.49	36.68	-23.3	-23.2	18.4	0.00e+00	0	44	102	1048576	7	3584
2026-01-04 04:17:07.90	169.85	36.25	-23.4	-23.6	18.2	0.00e+00	0	43	102	1048576	7	3662
2026-01-04 04:17:09.92	170.19	35.82	-23.1	-23.0	18.5	0.00e+00	0	43	102	1048576	7	3532
2026-01-04 04:17:11.93	170.53	35.39	-23.3	-23.3	18.4	0.00e+00	0	43	102	1048576	7	3594
2026-01-04 04:17:13.94	170.86	34.97	-23.4	-23.5	18.2	0.00e+00	0	43	102	1048576	7	3654
2026-01-04 04:17:15.95	171.18	34.56	-23.4	-23.5	18.2	0.00e+00	0	43	102	1048576	7	3648
2026-01-04 04:17:17.97	171.50	34.15	-23.4	-23.5	18.2	3.40e-06	0	43	102	1048576	7	3655
2026-01-04 04:17:19.99	171.81	33.74	-23.4	-23.4	18.2	0.00e+00	0	44	102	1048576	7	3635
2026-01-04 04:17:21.99	172.11	33.34	-23.3	-23.3	18.3	0.00e+00	0	44	102	1048576	7	3608
2026-01-04 04:17:24.00	172.40	32.94	-23.3	-23.3	18.3	0.00e+00	0	44	102	1048576	7	3601
2026-01-04 04:17:26.02	172.68	32.55	-23.3	-23.4	18.3	0.00e+00	0	43	102	1048576	7	3624
2026-01-04 04:17:28.03	172.96	32.16	-23.2	-23.1	18.2	0.00e+00	0	43	102	1048576	7	3564
2026-01-04 04:17:30.05	173.24	31.77	-23.0	-22.8	18.6	0.00e+00	0	44	102	1048576	7	3494
2026-01-04 04:17:32.06	173.50	31.39	-23.1	-23.3	18.5	0.00e+00	0	44	102	1048576	6	3714
2026-01-04 04:17:34.07	173.76	31.02	-23.1	-23.3	18.5	0.00e+00	0	44	102	1048576	6	3712
2026-01-04 04:17:36.09	174.02	30.65	-23.2	-23.5	18.4	0.00e+00	0	44	102	1048576	6	3757
2026-01-04 04:17:38.10	174.27	30.28	-23.3	-23.8	18.3	0.00e+00	0	43	102	1048576	6	3815
2026-01-04 04:17:40.10	174.51	29.92	-23.5	-24.2	18.1	0.00e+00	0	44	102	1048576	6	3911
2026-01-04 04:17:42.10	174.75	29.56	-23.6	-24.0	17.9	0.00e+00	0	44	102	1048576	7	3757
2026-01-04 04:17:44.12	174.98	29.20	-23.7	-24.1	17.8	0.00e+00	0	44	102	1048576	7	3795
2026-01-04 04:17:46.13	175.21	28.85	-23.8	-24.4	17.7	0.00e+00	0	44	102	1048576	7	3850
2026-01-04 04:17:48.13	175.43	28.51	-23.8	-24.4	17.7	0.00e+00	0	43	102	1048576	7	3846
2026-01-04 04:17:50.15	175.65	28.16	-23.8	-24.4	17.7	0.00e+00	0	43	102	1048576	7	3845
2026-01-04 04:17:52.16	175.86	27.82	-23.9	-24.5	17.6	0.00e+00	0	43	102	1048576	7	3879
2026-01-04 04:17:54.17	176.07	27.49	-24.0	-24.2	17.6	0.00e+00	0	43	102	1048576	8	3706
2026-01-04 04:17:56.18	176.28	27.15	-23.9	-24.5	17.6	0.00e+00	0	44	102	1048576	7	3883
2026-01-04 04:17:58.19	176.48	26.83	-23.9	-24.6	17.0	0.00e+00	0	44	102	1048576	7	3894
2026-01-04 04:18:00.21	176.68	26.50	-23.8	-24.3	17.7	0.00e+00	0	44	102	1048576	7	3839
2026-01-04 04:18:02.23	176.88	26.18	-23.6	-23.9	17.9	0.00e+00	0	44	102	1048576	7	3746
2026-01-04 04:18:04.24	177.07	25.86	-23.4	-24.1	18.0	4.03e-04	0	44	102	1048576	6	3896
2026-01-04 04:18:06.25	177.25	25.54	-23.5	-24.2	18.0	0.00e+00	0	43	102	1048576	6	3904
2026-01-04 04:18:08.27	177.44	25.23	-23.4	-24.1	17.9	0.00e+00	0	43	102	1048576	6	3889
2026-01-04 04:18:10.28	177.62	24.92	-23.5	-24.3	17.9	6.04e-04	0	44	102	1048576	6	3942
2026-01-04 04:18:12.30	177.80	24.62	-23.9	-24.6	17.5	5.01e-04	0	43	102	1048576	7	3896
2026-01-04 04:18:14.31	177.97	24.32	-23.9	-24.6	17.6	0.00e+00	0	44	102	1048576	7	3894
2026-01-04 04:18:16.33	178.14	24.02	-24.0	-24.8	17.4	4.74e-04	0	44	102	1048576	7	3955
2026-01-04 04:18:18.34	178.31	23.72	-24.2	-24.7	17.3	0.00e+00	0	44	102	1048576	8	3814
2026-01-04 04:18:20.36	178.47	23.43	-24.2	-24.8	17.2	0.00e+00	0	43	102	1048576	8	3839
2026-01-04 04:18:22.38	178.63	23.14	-24.2	-24.8	17.2	0.00e+00	0	43	102	1048576	8	3836
2026-01-04 04:18:24.39	178.79	22.85	-24.4	-25.2	16.9	7.13e-04	0	44	102	1048576	8	3924
2026-01-04 04:18:26.40	178.95	22.57	-24.1	-24.6	17.2	0.00e+00	0	43	102	1048576	8	3800
2026-01-04 04:18:28.42	179.10	22.29	-24.2	-24.8	17.2	0.00e+00	0	44	102	1048576	8	3840
2026-01-04 04:18:30.43	179.25	22.01	-24.0	-24.3	17.4	0.00e+00	0	43	102	1048576	8	3731
2026-01-04 04:18:32.45	179.40	21.74	-23.7	-24.2	17.6	0.00e+00	0	43	102	1048576	7	3803
2026-01-04 04:18:34.46	179.55	21.47	-23.7	-24.3	17.6	0.00e+00	0	43	102	1048576	7	3822
2026-01-04 04:18:36.47	179.69	21.20	-23.7	-24.2	17.7	0.00e+00	0	44	102	1048576	7	3806
2026-01-04 04:18:38.49	179.83	20.93	-23.8	-24.4	17.5	0.00e+00	0	43	102	1048576	7	3855
2026-01-04 04:18:40.50	179.97	20.67	-23.9	-24.6	17.4	0.00e+00	0	43	102	1048576	7	3916
2026-01-04 04:18:42.51	180.11	20.41	-24.0	-24.8	17.3	0.00e+00	0	43	102	1048576	7	3963
2026-01-04 04:18:44.52	180.24	20.15	-24.2	-24.6	17.2	0.00e+00	0	44	102	1048576	8	3808
2026-01-04 04:18:46.54	180.37	19.89	-24.3	-25.0	17.0	0.00e+00	0	43	102	1048576	8	3902
2026-01-04 04:18:48.55	180.50	19.64	-24.4	-25.1	16.9	0.00e+00	0	43	102	1048576	8	3916
2026-01-04 04:18:50.56	180.63	19.39	-24.4	-25.2	16.8	0.00e+00	0	44	102	1048576	8	3945
2026-01-04 04:18:52.58	180.76	19.14	-24.5	-25.5	16.7	0.00e+00	0	44	102	1048576	8	4021
2026-01-04 04:18:54.59	180.88	18.89	-24.8	-25.5	16.4	0.00e+00	0	44	102	1048576	9	3897
2026-01-04 04:18:56.60	181.00	18.65	-24.7	-25.3	16.5	0.00e+00	0	43	102	1048576	9	3861
2026-01-04 04:18:58.62	181.12	18.40	-24.8	-25.5	16.4	0.00e+00	0	43	102	1048576	9	3908
2026-01-04 04:19:00.63	181.24	18.17	-24.9	-25.7	16.3	0.00e+00	0	44	102	1048576	9	3958
2026-01-04 04:19:02.65	181.36	17.93	-24.7	-25.3	16.5	0.00e+00	0	44	102	1048576	9	3858
2026-01-04 04:19:04.66	181.48	17.69	-24.7	-25.2	16.5	5.70e-06	0	43	102	1048576	9	3846
2026-01-04 04:19:06.68	181.59	17.46	-24.8	-25.6	16.3	0.00e+00	0	44	102	1048576	9	3937
2026-01-04 04:19:08.68	181.70	17.23	-24.7	-25.4	16.4	0.00e+00	0	43	102	1048576	9	3884
2026-01-04 04:19:10.70	181.81	17.00	-24.8	-25.5	16.4	4.50e-06	0	43	102	1048576	9	3898
2026-01-04 04:19:12.71	181.92	16.77	-24.9	-25.9	16.2	0.00e+00	0	44	102	1048576	9	3995
2026-01-04 04:19:14.72	182.03	16.55	-25.0	-26.0	16.1	0.00e+00	0	44	102	1048576	9	4031
2026-01-04 04:19:16.74	182.13	16.32	-25.3	-26.0	15.8	0.00e+00	0	44	102	1048576	10	3931
2026-01-04 04:19:18.75	182.24	16.10	-25.1	-25.7	15.9	0.00e+00	0	44	102	1048576	10	3851
2026-01-04 04:19:20.76	182.34	15.88	-25.4	-26.2	15.7	4.45e-04	0	44	102	1048576	10	3984
2026-01-04 04:19:22.77	182.44	15.67	-25.5	-26.6	15.5	0.00e+00	0	44	102	1048576	10	4067
2026-01-04 04:19:24.79	182.54	15.45	-25.3	-26.0	15.8	0.00e+00	0	44	102	1048576	10	3921
2026-01-04 04:19:26.80	182.64	15.24	-25.2	-25.9	15.8	0.00e+00	0	43	102	1048576	10	3900
2026-01-04 04:19:28.81	182.74	15.03	-25.3	-26.2	15.7	0.00e+00	0	44	102	1048576	10	3967
2026-01-04 04:19:30.83	182.84	14.82	-25.5	-26.5	15.5	4.12e-04	0	44	102	1048576	10	4058
2026-01-04 04:19:32.83	182.93	14.61	-25.3	-26.1	15.7	3.58e-04	0	44	102	1048576	10	3943
2026-01-04 04:19:34.85	183.02	14.40	-25.3	-26.2	15.6	0.00e+00	0	43	102	1048576	10	3963
2026-01-04 04:19:36.86	183.12	14.20	-25.4	-26.3	15.6	3.47e-04	0	43	102	1048576	10	4000
2026-01-04 04:19:38.86	183.21	14.00	-25.4	-26.4	15.5	3.35e-04	0	44	102	1048576	10	4015
2026-01-04 04:19:40.86	183.30	13.80	-25.5	-26.5	15.4	0.00e+00	0	44	102	1048576	10	4057
2026-01-04 04:19:42.87	183.39	13.60	-25.4	-26.4	15.5	3.80e-04	0	44	102	1048576	10	4032
2026-01-04 04:19:44.88	183.48	13.40	-25.6	-26.2	15.4	4.02e-04	0	43	102	1048576	11	3861
2026-01-04 04:19:46.89	183.56	13.20	-25.5	-26.5	15.4	0.00e+00	0	44	102	1048576	10	4059
2026-01-04 04:19:48.90	183.65	13.01	-25.6	-26.3	15.3	3.40e-06	0	43	102	1048576	11	3900
2026-01-04 04:19:50.91	183.73	12.81	-25.6	-26.7	15.3	4.39e-04	0	44	102	1048576	10	4109
2026-01-04 04:19:52.92	183.82	12.62	-25.8	-26.6	15.1	0.00e+00	0	44	102	1048576	11	3982
2026-01-04 04:19:54.93	183.90	12.43	-25.6	-26.3	15.2	0.00e+00	0	43	102	1048576	11	3905
2026-01-04 04:19:56.94	183.98	12.24	-25.7	-26.5	15.1	0.00e+00	0	44	102	1048576	11	3953
2026-01-04 04:19:58.95	184.06	12.05	-25.8	-26.6	15.0	0.00e+00	0	44	102	1048576	11	3983
2026-01-04 04:20:00.97	184.14	11.87	-25.7	-26.6	15.1	1.10e-06	0	44	102	1048576	11	3972
2026-01-04 04:20:02.99	184.22	11.68	-25.8	-26.8	14.9	0.00e+00	0	44	102	1048576	11	4024
2026-01-04 04:20:05.00	184.30	11.50	-25.9	-27.0	14.8	0.00e+00	0	44	102	1048576	11	4085
2026-01-04 04:20:07.02	184.38	11.31	-25.9	-27.1	14.7	0.00e+00	0	44	102	1048576	11	4094
2026-01-04 04:20:09.03	184.45	11.13	-26.1	-27.3	14.6	2.20e-06	0	44	102	1048576	11	4161
2026-01-04 04:20:11.04	184.53	10.95	-26.3	-27.4	14.2	1.10e-06	0	44	102	1048576	12	4079
2026-01-04 04:20:13.05	184.60	10.77	-26.4	-27.6	14.0	1.10e-06	0	44	102	1048576	12	4138
2026-01-04 04:20:15.07	184.68	10.60	-26.2	-27.2	14.3	1.10e-06	0	43	102	1048576	12	4018
2026-01-04 04:20:17.08	184.75	10.42	-26.2	-27.2	14.3	3.40e-06	0	44	102	1048576	12	4013
2026-01-04 04:20:19.09	184.82	10.25	-26.3	-27.3	14.2	2.20e-06	0	44	102	1048576	12	4053
2026-01-04 04:20:21.11	184.90	10.07	-26.3	-27.4	14.1	4.50e-06	0	44	102	1048576	12	4092
2026-01-04 04:20:23.12	184.97	9.90	-26.4	-27.6	14.0	4.50e-06	0	44	102	1048576	12	4141
2026-01-04 04:20:25.14	185.04	9.73	-26.4	-27.6	13.9	2.20e-06	0	43	102	1048576	12	4139
2026-01-04 04:20:27.15	185.11	9.56	-26.4	-27.5	14.0	5.70e-06	0	44	102	1048576	12	4105
2026-01-04 04:20:29.16	185.17	9.39	-26.4	-27.6	13.9	1.10e-06	0	44	102	1048576	12	4139
2026-01-04 04:20:31.17	185.24	9.22	-26.5	-27.4	13.8	1.37e-05	0	44	102	1048576	13	3971
2026-01-04 04:20:33.18	185.31	9.05	-26.6	-27.5	13.6	3.40e-06	0	44	102	1048576	13	4018
2026-01-04 04:20:35.20	185.38	8.89	-26.5	-27.5	13.7	9.10e-06	0	44	102	1048576	13	3997
2026-01-04 04:20:37.21	185.44	8.72	-26.5	-27.4	13.7	5.70e-06	0	44	102	1048576	13	3971
2026-01-04 04:20:39.22	185.51	8.56	-26.6	-27.6	13.6	2.20e-06	0	44	102	1048576	13	4038
2026-01-04 04:20:41.24	185.57	8.40	-26.6	-27.7	13.0	1.37e-05	0	44	102	1048576	13	4048
2026-01-04 04:20:43.25	185.64	8.23	-26.7	-27.8	13.4	1.71e-05	0	44	102	1048576	13	4082
2026-01-04 04:20:45.27	185.70	8.07	-26.7	-27.9	13.3	2.17e-05	0	44	102	1048576	13	4110
2026-01-04 04:20:47.28	185.76	7.91	-26.8	-28.0	13.2	3.62e-04	0	44	102	1048576	13	4151
2026-01-04 04:20:49.29	185.82	7.76	-26.8	-28.2	13.2	3.77e-05	0	44	102	1048576	13	4185
2026-01-04 04:20:51.31	185.88	7.60	-26.9	-28.4	13.0	4.38e-04	0	44	102	1048576	13	4245
2026-01-04 04:20:53.32	185.95	7.44	-27.3	-28.7	12.5	9.72e-05	0	44	102	1048576	14	4225
2026-01-04 04:20:55.34	186.01	7.28	-27.4	-28.9	12.3	1.73e-04	0	44	102	1048576	14	4298
2026-01-04 04:20:57.35	186.06	7.13	-27.5	-29.1	12.3	6.71e-04	0	44	102	1048576	14	4341
2026-01-04 04:20:59.37	186.12	6.98	-33.0	-42.8	3.8	8.47e-01	0	44	104	1048576	25	11188

#Closed at: 2026-01-04 04:21:00
#Recorded file [1 MB]: D:/data/31010_260104_071403.dat