passes_logs/2026/01/04/R2M6_AANII_01/R2M6_AANII_01__20260104_054928_FENGYUN_3E_rec.log

#Pass ID: 20260104_054928_FENGYUN 3E
#Satellite: FENGYUN 3E
#Configuration: FENGYUN 3E
#almurnet v.1.7.20240730
#Start time: 2026-01-04 05:49:27

#Version: 2.2.20231116
#Station: R2M6_AANII_01
#Location: 30.233357 lon 59.946436 lat
#TLE: 1 49008U 21062A   26003.51942929 -.00000034  00000+0  45519-5 0  9990
#TLE: 2 49008  98.7472   8.7829 0001426 160.7926 199.3304 14.19883272233213

#Time	Az	El	Level	Level2	SNR	BER	BlckErr	Temp	State	Recorded	gain1	gain2
2026-01-04 05:49:27.90	12.82	6.97	-29.6	-31.8	5.3	7.76e-01	0	41	0	0	19	4651
2026-01-04 05:49:30.92	12.64	7.19	-29.5	-31.4	9.7	1.14e-02	0	41	102	1048576	19	4506
2026-01-04 05:49:33.95	12.46	7.41	-29.3	-31.3	10.2	6.43e-03	0	41	102	1048576	18	4558
2026-01-04 05:49:36.97	12.28	7.63	-28.5	-29.4	11.5	8.60e-04	0	41	102	1048576	18	4006
2026-01-04 05:49:39.99	12.09	7.85	-27.7	-28.6	12.6	5.83e-05	0	41	102	1048576	16	3968
2026-01-04 05:49:43.01	11.90	8.07	-27.4	-28.3	12.9	4.23e-05	0	41	102	1048576	15	3987
2026-01-04 05:49:46.01	11.71	8.29	-27.4	-28.9	12.9	3.43e-05	0	41	102	1048576	14	4258
2026-01-04 05:49:49.03	11.52	8.52	-27.1	-28.1	13.4	1.83e-05	0	42	102	1048576	14	4044
2026-01-04 05:49:52.04	11.32	8.75	-27.1	-28.2	13.4	1.71e-05	0	41	102	1048576	14	4062
2026-01-04 05:49:55.06	11.12	8.98	-27.4	-28.9	13.0	2.17e-05	0	42	102	1048576	14	4257
2026-01-04 05:49:58.07	10.92	9.21	-27.0	-27.9	13.6	6.80e-06	0	42	102	1048576	14	3995
2026-01-04 05:50:01.10	10.71	9.44	-26.9	-27.7	13.7	4.50e-06	0	42	102	1048576	14	3942
2026-01-04 05:50:04.12	10.49	9.68	-26.9	-28.2	13.7	4.50e-06	0	42	102	1048576	13	4166
2026-01-04 05:50:07.14	10.28	9.92	-26.9	-28.2	13.7	6.80e-06	0	42	102	1048576	13	4168
2026-01-04 05:50:10.15	10.06	10.15	-26.8	-28.0	13.8	2.20e-06	0	42	102	1048576	13	4122
2026-01-04 05:50:13.17	9.84	10.40	-26.9	-28.2	13.8	5.70e-06	0	42	102	1048576	13	4166
2026-01-04 05:50:16.19	9.61	10.64	-27.3	-28.5	13.3	6.80e-06	0	42	102	1048576	14	4140
2026-01-04 05:50:19.22	9.38	10.88	-27.0	-27.8	13.8	3.40e-06	0	42	102	1048576	14	3951
2026-01-04 05:50:22.24	9.14	11.13	-26.7	-27.8	14.0	1.10e-06	0	42	102	1048576	13	4062
2026-01-04 05:50:25.26	8.90	11.38	-26.8	-28.0	13.9	1.10e-06	0	42	102	1048576	13	4106
2026-01-04 05:50:28.28	8.66	11.63	-26.7	-27.6	14.2	0.00e+00	0	42	102	1048576	13	4001
2026-01-04 05:50:31.31	8.41	11.89	-26.5	-27.2	14.4	0.00e+00	0	42	102	1048576	13	3898
2026-01-04 05:50:34.32	8.16	12.14	-26.4	-27.0	14.5	0.00e+00	0	42	102	1048576	13	3857
2026-01-04 05:50:37.32	7.90	12.40	-26.4	-27.1	14.5	0.00e+00	0	42	102	1048576	13	3881
2026-01-04 05:50:40.34	7.64	12.65	-26.3	-26.8	14.7	0.00e+00	0	42	102	1048576	13	3815
2026-01-04 05:50:43.37	7.37	12.92	-26.4	-27.0	14.6	1.10e-06	0	43	102	1048576	13	3852
2026-01-04 05:50:46.39	7.10	13.18	-26.4	-26.9	14.6	0.00e+00	0	42	102	1048576	13	3843
2026-01-04 05:50:49.41	6.82	13.45	-26.3	-27.3	14.7	0.00e+00	0	43	102	1048576	12	4048
2026-01-04 05:50:52.43	6.54	13.71	-26.8	-28.0	14.1	0.00e+00	0	43	102	1048576	13	4103
2026-01-04 05:50:55.45	6.25	13.99	-26.5	-27.1	14.6	1.10e-06	0	43	102	1048576	13	3887
2026-01-04 05:50:58.48	5.96	14.26	-26.5	-27.1	14.4	0.00e+00	0	43	102	1048576	13	3881
2026-01-04 05:51:01.51	5.66	14.54	-26.3	-27.3	14.8	0.00e+00	0	43	102	1048576	12	4033
2026-01-04 05:51:04.53	5.36	14.81	-25.9	-26.4	15.3	0.00e+00	0	43	102	1048576	12	3817
2026-01-04 05:51:07.55	5.05	15.09	-25.9	-26.3	15.3	1.51e-04	0	43	102	1048576	12	3778
2026-01-04 05:51:10.58	4.73	15.38	-25.9	-26.9	15.4	1.50e-04	0	43	102	1048576	11	4027
2026-01-04 05:51:13.60	4.40	15.66	-26.0	-27.1	15.2	0.00e+00	0	43	102	1048576	11	4076
2026-01-04 05:51:16.62	4.08	15.95	-25.7	-26.5	15.6	0.00e+00	0	43	102	1048576	11	3927
2026-01-04 05:51:19.64	3.74	16.24	-25.6	-26.2	15.8	0.00e+00	0	43	102	1048576	11	3853
2026-01-04 05:51:22.65	3.40	16.53	-25.6	-26.2	15.8	0.00e+00	0	43	102	1048576	11	3863
2026-01-04 05:51:25.67	3.05	16.82	-25.4	-25.8	16.0	0.00e+00	0	43	102	1048576	11	3760
2026-01-04 05:51:28.68	2.69	17.12	-25.2	-25.4	16.2	0.00e+00	0	43	102	1048576	11	3676
2026-01-04 05:51:31.70	2.33	17.41	-25.1	-25.2	16.4	0.00e+00	0	43	102	1048576	11	3619
2026-01-04 05:51:34.72	1.96	17.72	-25.1	-25.5	16.5	7.09e-05	0	43	102	1048576	10	3802
2026-01-04 05:51:37.74	1.58	18.02	-25.1	-25.5	16.5	0.00e+00	0	43	102	1048576	10	3802
2026-01-04 05:51:40.75	1.19	18.33	-25.0	-25.5	16.5	0.00e+00	0	43	102	1048576	10	3793
2026-01-04 05:51:43.78	0.79	18.63	-25.1	-25.6	16.4	0.00e+00	0	43	102	1048576	10	3827
2026-01-04 05:51:46.80	0.39	18.95	-25.1	-25.6	16.4	0.00e+00	0	43	102	1048576	10	3822
2026-01-04 05:51:49.83	359.97	19.26	-24.7	-25.2	16.9	0.00e+00	0	43	102	1048576	9	3827
2026-01-04 05:51:52.85	359.55	19.58	-24.7	-25.3	16.9	0.00e+00	0	43	102	1048576	9	3859
2026-01-04 05:51:55.87	359.12	19.89	-24.7	-25.3	16.9	0.00e+00	0	43	102	1048576	9	3855
2026-01-04 05:51:58.90	358.68	20.22	-24.7	-25.2	17.0	0.00e+00	0	43	102	1048576	9	3819
2026-01-04 05:52:01.92	358.23	20.54	-24.8	-25.5	16.8	0.00e+00	0	43	102	1048576	9	3893
2026-01-04 05:52:04.94	357.77	20.86	-25.0	-25.9	16.6	0.00e+00	0	43	102	1048576	9	3999
2026-01-04 05:52:07.96	357.30	21.19	-25.1	-25.6	16.5	0.00e+00	0	43	102	1048576	10	3823
2026-01-04 05:52:10.98	356.82	21.52	-25.0	-25.4	16.6	0.00e+00	0	43	102	1048576	10	3774
2026-01-04 05:52:14.01	356.33	21.85	-24.8	-25.6	16.8	0.00e+00	0	43	102	1048576	9	3909
2026-01-04 05:52:17.03	355.83	22.19	-24.6	-25.0	17.1	0.00e+00	0	43	102	1048576	9	3781
2026-01-04 05:52:20.06	355.32	22.53	-24.5	-24.8	17.2	0.00e+00	0	43	102	1048576	9	3736
2026-01-04 05:52:23.08	354.79	22.86	-24.5	-24.9	17.2	3.05e-04	0	43	102	1048576	9	3759
2026-01-04 05:52:26.09	354.26	23.20	-24.6	-25.1	17.1	2.84e-04	0	43	102	1048576	9	3800
2026-01-04 05:52:29.11	353.71	23.54	-24.6	-25.4	17.2	0.00e+00	0	43	102	1048576	8	3986
2026-01-04 05:52:32.13	353.15	23.89	-24.6	-25.1	17.1	0.00e+00	0	43	102	1048576	9	3791
2026-01-04 05:52:35.15	352.58	24.23	-24.2	-24.2	17.6	1.17e-04	0	43	102	1048576	9	3594
2026-01-04 05:52:38.17	352.00	24.57	-24.3	-24.3	17.5	0.00e+00	0	43	102	1048576	9	3630
2026-01-04 05:52:41.19	351.40	24.92	-24.0	-23.7	17.8	0.00e+00	0	43	102	1048576	9	3499
2026-01-04 05:52:44.20	350.79	25.27	-23.9	-24.0	18.0	0.00e+00	0	43	102	1048576	8	3648
2026-01-04 05:52:47.22	350.16	25.62	-24.0	-24.2	17.8	0.00e+00	0	43	102	1048576	8	3703
2026-01-04 05:52:50.24	349.52	25.97	-24.1	-24.5	17.7	0.00e+00	0	43	102	1048576	8	3762
2026-01-04 05:52:53.26	348.87	26.32	-24.2	-24.8	17.6	0.00e+00	0	43	102	1048576	8	3832
2026-01-04 05:52:56.28	348.20	26.67	-24.1	-24.6	17.7	0.00e+00	0	43	102	1048576	8	3786
2026-01-04 05:52:59.30	347.51	27.02	-24.3	-24.9	17.5	0.00e+00	0	43	102	1048576	8	3856
2026-01-04 05:53:02.32	346.81	27.37	-24.4	-25.1	17.4	0.00e+00	0	43	102	1048576	8	3915
2026-01-04 05:53:05.34	346.10	27.72	-24.3	-24.8	17.6	0.00e+00	0	43	102	1048576	8	3837
2026-01-04 05:53:08.36	345.37	28.07	-24.2	-24.6	17.7	0.00e+00	0	43	102	1048576	8	3799
2026-01-04 05:53:11.38	344.62	28.42	-24.3	-24.8	17.6	0.00e+00	0	43	102	1048576	8	3839
2026-01-04 05:53:14.40	343.85	28.76	-24.3	-24.8	17.6	0.00e+00	0	43	102	1048576	8	3841
2026-01-04 05:53:17.43	343.07	29.11	-23.8	-24.4	18.0	0.00e+00	0	43	102	1048576	7	3850
2026-01-04 05:53:20.44	342.27	29.45	-23.8	-24.4	18.0	0.00e+00	0	44	102	1048576	7	3836
2026-01-04 05:53:23.47	341.45	29.80	-23.6	-23.9	18.3	0.00e+00	0	43	102	1048576	7	3743
2026-01-04 05:53:26.48	340.62	30.13	-23.6	-23.9	18.3	0.00e+00	0	43	102	1048576	7	3729
2026-01-04 05:53:29.51	339.77	30.47	-23.7	-24.2	18.1	0.00e+00	0	43	102	1048576	7	3805
2026-01-04 05:53:32.53	338.90	30.80	-23.7	-24.2	18.1	0.00e+00	0	43	102	1048576	7	3807
2026-01-04 05:53:35.55	338.01	31.13	-23.6	-24.0	18.2	0.00e+00	0	43	102	1048576	7	3752
2026-01-04 05:53:38.58	337.10	31.46	-23.9	-24.6	17.9	0.00e+00	0	43	102	1048576	7	3896
2026-01-04 05:53:41.59	336.18	31.78	-24.1	-24.9	17.8	0.00e+00	0	43	102	1048576	7	3966
2026-01-04 05:53:44.61	335.24	32.09	-23.5	-23.2	18.4	0.00e+00	0	43	102	1048576	8	3478
2026-01-04 05:53:47.63	334.27	32.40	-23.4	-24.1	18.4	0.00e+00	0	43	102	1048576	6	3877
2026-01-04 05:53:50.65	333.29	32.70	-23.4	-24.0	18.5	0.00e+00	0	43	102	1048576	6	3861
2026-01-04 05:53:53.67	332.30	33.00	-23.2	-23.7	18.7	0.00e+00	0	43	102	1048576	6	3788
2026-01-04 05:53:56.69	331.28	33.29	-23.2	-23.6	18.7	0.00e+00	0	43	102	1048576	6	3758
2026-01-04 05:53:59.71	330.24	33.57	-23.4	-24.1	18.5	0.00e+00	0	43	102	1048576	6	3881
2026-01-04 05:54:02.72	329.19	33.84	-23.2	-23.7	18.7	0.00e+00	0	43	102	1048576	6	3778
2026-01-04 05:54:05.75	328.12	34.10	-23.3	-23.9	18.5	0.00e+00	0	43	102	1048576	6	3832
2026-01-04 05:54:08.76	327.04	34.36	-23.7	-24.2	18.1	0.00e+00	0	44	102	1048576	7	3811
2026-01-04 05:54:11.78	325.93	34.60	-23.4	-23.4	18.5	0.00e+00	0	43	102	1048576	7	3623
2026-01-04 05:54:14.80	324.81	34.84	-23.4	-24.0	18.5	0.00e+00	0	43	102	1048576	6	3865
2026-01-04 05:54:17.81	323.68	35.06	-23.5	-24.2	18.4	0.00e+00	0	43	102	1048576	6	3905
2026-01-04 05:54:20.83	322.52	35.27	-23.7	-24.1	18.2	0.00e+00	0	43	102	1048576	7	3773
2026-01-04 05:54:23.85	321.36	35.47	-23.7	-24.2	18.2	0.00e+00	0	43	102	1048576	7	3801
2026-01-04 05:54:26.87	320.17	35.66	-23.4	-23.4	18.5	0.00e+00	0	43	102	1048576	7	3627
2026-01-04 05:54:29.88	318.98	35.83	-23.6	-24.0	18.3	0.00e+00	0	43	102	1048576	7	3751
2026-01-04 05:54:32.90	317.77	35.99	-23.6	-23.9	18.3	0.00e+00	0	43	102	1048576	7	3735
2026-01-04 05:54:35.93	316.55	36.14	-23.3	-23.4	18.6	0.00e+00	0	43	102	1048576	7	3614
2026-01-04 05:54:38.96	315.32	36.27	-23.4	-23.5	18.5	0.00e+00	0	43	102	1048576	7	3641
2026-01-04 05:54:41.98	314.08	36.39	-23.5	-23.7	18.4	0.00e+00	0	43	102	1048576	7	3678
2026-01-04 05:54:45.00	312.83	36.49	-23.5	-23.6	18.5	0.00e+00	0	43	102	1048576	7	3670
2026-01-04 05:54:48.02	311.58	36.58	-23.3	-23.8	18.7	0.00e+00	0	43	102	1048576	6	3807
2026-01-04 05:54:51.05	310.31	36.65	-23.2	-23.1	18.7	0.00e+00	0	43	102	1048576	7	3551
2026-01-04 05:54:54.07	309.04	36.70	-23.3	-23.8	18.6	0.00e+00	0	43	102	1048576	6	3822
2026-01-04 05:54:57.10	307.77	36.74	-23.4	-23.9	18.6	0.00e+00	0	43	102	1048576	6	3844
2026-01-04 05:55:00.12	306.50	36.77	-23.2	-23.7	18.7	0.00e+00	0	43	102	1048576	6	3777
2026-01-04 05:55:03.14	305.22	36.77	-23.4	-24.1	18.5	0.00e+00	0	43	102	1048576	6	3876
2026-01-04 05:55:06.16	303.95	36.76	-23.5	-23.7	18.4	0.00e+00	0	43	102	1048576	7	3678
2026-01-04 05:55:09.19	302.67	36.74	-23.3	-23.8	18.6	0.00e+00	0	43	102	1048576	6	3815
2026-01-04 05:55:12.21	301.40	36.70	-23.3	-23.8	18.6	0.00e+00	0	43	102	1048576	6	3805
2026-01-04 05:55:15.23	300.13	36.64	-23.4	-24.0	18.5	4.50e-06	0	43	102	1048576	6	3862
2026-01-04 05:55:18.25	298.87	36.57	-23.4	-23.9	18.5	0.00e+00	0	43	102	1048576	6	3845
2026-01-04 05:55:21.27	297.61	36.48	-23.4	-24.0	18.5	4.32e-04	0	43	102	1048576	6	3859
2026-01-04 05:55:24.29	296.37	36.38	-23.2	-23.7	18.6	4.26e-04	0	43	102	1048576	6	3783
2026-01-04 05:55:27.30	295.13	36.26	-23.4	-24.0	18.5	0.00e+00	0	44	102	1048576	6	3849
2026-01-04 05:55:30.32	293.90	36.13	-23.4	-24.1	18.4	0.00e+00	0	44	102	1048576	6	3881
2026-01-04 05:55:33.34	292.68	35.98	-23.3	-23.9	18.5	0.00e+00	0	43	102	1048576	6	3833
2026-01-04 05:55:36.36	291.47	35.82	-23.5	-23.8	18.3	0.00e+00	0	43	102	1048576	7	3707
2026-01-04 05:55:39.38	290.27	35.64	-23.1	-23.5	18.7	1.65e-04	0	43	102	1048576	6	3736
2026-01-04 05:55:42.39	289.09	35.46	-22.9	-23.0	19.0	0.00e+00	0	43	102	1048576	6	3641
2026-01-04 05:55:45.42	287.92	35.25	-22.8	-22.8	19.0	0.00e+00	0	43	102	1048576	6	3602
2026-01-04 05:55:48.44	286.77	35.04	-23.1	-23.4	18.8	0.00e+00	0	43	102	1048576	6	3729
2026-01-04 05:55:51.46	285.63	34.82	-23.2	-23.6	18.7	0.00e+00	0	43	102	1048576	6	3760
2026-01-04 05:55:54.49	284.50	34.58	-23.3	-23.7	18.6	0.00e+00	0	43	102	1048576	6	3802
2026-01-04 05:55:57.51	283.39	34.34	-23.0	-23.2	18.9	0.00e+00	0	43	102	1048576	6	3683
2026-01-04 05:56:00.51	282.31	34.08	-23.2	-23.5	18.7	0.00e+00	0	43	102	1048576	6	3752
2026-01-04 05:56:03.54	281.24	33.82	-23.1	-23.3	18.8	0.00e+00	0	43	102	1048576	6	3703
2026-01-04 05:56:06.56	280.18	33.54	-23.1	-23.3	18.8	0.00e+00	0	43	102	1048576	6	3701
2026-01-04 05:56:09.59	279.14	33.26	-23.2	-23.6	18.6	0.00e+00	0	43	102	1048576	6	3778
2026-01-04 05:56:12.60	278.13	32.97	-23.4	-24.1	18.4	0.00e+00	0	43	102	1048576	6	3873
2026-01-04 05:56:15.62	277.13	32.67	-23.5	-24.2	18.3	0.00e+00	0	44	102	1048576	6	3897
2026-01-04 05:56:18.64	276.14	32.37	-23.9	-24.5	17.9	0.00e+00	0	43	102	1048576	7	3876
2026-01-04 05:56:21.65	275.18	32.06	-23.5	-23.7	18.2	0.00e+00	0	43	102	1048576	7	3695
2026-01-04 05:56:24.68	274.24	31.74	-23.5	-23.7	18.2	0.00e+00	0	43	102	1048576	7	3702
2026-01-04 05:56:27.69	273.31	31.42	-23.4	-24.0	18.4	0.00e+00	0	43	102	1048576	6	3867
2026-01-04 05:56:30.71	272.40	31.09	-23.6	-23.9	18.2	0.00e+00	0	43	102	1048576	7	3738
2026-01-04 05:56:33.73	271.51	30.76	-23.3	-23.3	18.4	0.00e+00	0	43	102	1048576	7	3611
2026-01-04 05:56:36.75	270.64	30.43	-23.3	-23.3	18.4	0.00e+00	0	43	102	1048576	7	3597
2026-01-04 05:56:39.77	269.79	30.09	-23.4	-23.5	18.3	0.00e+00	0	43	102	1048576	7	3658
2026-01-04 05:56:42.80	268.95	29.75	-23.5	-23.8	18.2	0.00e+00	0	43	102	1048576	7	3719
2026-01-04 05:56:45.81	268.13	29.41	-23.4	-23.6	18.3	4.80e-05	0	43	102	1048576	7	3659
2026-01-04 05:56:48.83	267.33	29.06	-23.3	-23.3	18.4	0.00e+00	0	44	102	1048576	7	3601
2026-01-04 05:56:51.85	266.55	28.72	-23.5	-24.3	18.2	0.00e+00	0	43	102	1048576	6	3923
2026-01-04 05:56:54.87	265.78	28.37	-23.8	-24.3	17.9	0.00e+00	0	43	102	1048576	7	3829
2026-01-04 05:56:57.89	265.03	28.02	-23.8	-24.5	17.7	4.23e-04	0	43	102	1048576	7	3871
2026-01-04 05:57:00.91	264.30	27.67	-24.1	-24.9	17.6	1.10e-06	0	43	102	1048576	7	3971
2026-01-04 05:57:03.92	263.58	27.31	-23.8	-24.4	17.8	0.00e+00	0	43	102	1048576	7	3843
2026-01-04 05:57:06.95	262.88	26.96	-23.6	-24.0	18.0	0.00e+00	0	43	102	1048576	7	3749
2026-01-04 05:57:09.97	262.19	26.61	-23.6	-23.9	18.1	0.00e+00	0	43	102	1048576	7	3733
2026-01-04 05:57:12.98	261.52	26.26	-23.7	-24.1	18.0	0.00e+00	0	43	102	1048576	7	3769
2026-01-04 05:57:15.99	260.87	25.91	-23.7	-24.2	17.9	0.00e+00	0	43	102	1048576	7	3797
2026-01-04 05:57:19.01	260.23	25.56	-24.0	-24.8	17.6	0.00e+00	0	44	102	1048576	7	3944
2026-01-04 05:57:22.03	259.60	25.21	-23.7	-24.2	17.9	0.00e+00	0	44	102	1048576	7	3807
2026-01-04 05:57:25.04	258.99	24.86	-23.8	-24.3	17.8	0.00e+00	0	43	102	1048576	7	3837
2026-01-04 05:57:28.05	258.39	24.51	-24.0	-24.8	17.6	0.00e+00	0	43	102	1048576	7	3938
2026-01-04 05:57:31.07	257.80	24.16	-23.8	-24.3	17.8	0.00e+00	0	43	102	1048576	7	3825
2026-01-04 05:57:34.10	257.22	23.82	-23.9	-24.6	17.6	0.00e+00	0	43	102	1048576	7	3899
2026-01-04 05:57:37.11	256.66	23.47	-23.9	-24.6	17.6	0.00e+00	0	43	102	1048576	7	3908
2026-01-04 05:57:40.13	256.11	23.13	-24.0	-24.8	17.4	0.00e+00	0	44	102	1048576	7	3958
2026-01-04 05:57:43.14	255.58	22.79	-23.9	-24.6	17.6	0.00e+00	0	43	102	1048576	7	3904
2026-01-04 05:57:46.17	255.05	22.45	-23.8	-24.3	17.7	0.00e+00	0	43	102	1048576	7	3831
2026-01-04 05:57:49.19	254.54	22.11	-23.9	-24.6	17.6	0.00e+00	0	43	102	1048576	7	3893
2026-01-04 05:57:52.20	254.04	21.78	-24.2	-24.7	17.3	0.00e+00	0	43	102	1048576	8	3829
2026-01-04 05:57:55.23	253.54	21.45	-24.0	-24.3	17.5	0.00e+00	0	43	102	1048576	8	3734
2026-01-04 05:57:58.24	253.06	21.12	-23.9	-24.6	17.5	0.00e+00	0	43	102	1048576	7	3906
2026-01-04 05:58:01.26	252.59	20.79	-24.3	-25.0	17.1	0.00e+00	0	43	102	1048576	8	3879
2026-01-04 05:58:04.29	252.13	20.46	-24.5	-25.3	16.9	0.00e+00	0	43	102	1048576	8	3975
2026-01-04 05:58:07.31	251.68	20.13	-24.9	-25.6	16.5	0.00e+00	0	43	102	1048576	9	3924
2026-01-04 05:58:10.33	251.23	19.81	-24.7	-25.3	16.6	0.00e+00	0	43	102	1048576	9	3853
2026-01-04 05:58:13.35	250.80	19.49	-24.6	-25.2	16.7	0.00e+00	0	43	102	1048576	9	3823
2026-01-04 05:58:16.38	250.38	19.18	-24.7	-25.3	16.7	0.00e+00	0	43	102	1048576	9	3862
2026-01-04 05:58:19.40	249.96	18.86	-24.8	-25.5	16.5	0.00e+00	0	44	102	1048576	9	3906
2026-01-04 05:58:22.43	249.55	18.55	-25.1	-25.7	16.2	0.00e+00	0	44	102	1048576	10	3837
2026-01-04 05:58:25.46	249.15	18.24	-25.2	-25.8	16.1	0.00e+00	0	44	102	1048576	10	3870
2026-01-04 05:58:28.48	248.77	17.93	-25.0	-25.5	16.2	0.00e+00	0	43	102	1048576	10	3807
2026-01-04 05:58:31.50	248.38	17.62	-25.2	-25.9	16.0	0.00e+00	0	43	102	1048576	10	3905
2026-01-04 05:58:34.52	248.01	17.32	-25.1	-25.7	16.2	0.00e+00	0	43	102	1048576	10	3840
2026-01-04 05:58:37.54	247.64	17.02	-25.2	-25.8	16.1	0.00e+00	0	43	102	1048576	10	3869
2026-01-04 05:58:40.55	247.28	16.72	-25.5	-26.5	15.7	0.00e+00	0	44	102	1048576	10	4041
2026-01-04 05:58:43.58	246.93	16.43	-25.6	-26.6	15.6	0.00e+00	0	44	102	1048576	10	4076
2026-01-04 05:58:46.59	246.59	16.14	-25.5	-25.9	15.7	0.00e+00	0	44	102	1048576	11	3798
2026-01-04 05:58:49.60	246.25	15.85	-25.4	-26.4	15.7	0.00e+00	0	44	102	1048576	10	4019
2026-01-04 05:58:52.61	245.92	15.56	-25.5	-26.4	15.6	0.00e+00	0	44	102	1048576	10	4032
2026-01-04 05:58:55.63	245.59	15.27	-25.5	-26.5	15.6	0.00e+00	0	44	102	1048576	10	4044
2026-01-04 05:58:58.65	245.28	14.99	-25.5	-26.4	15.6	0.00e+00	0	44	102	1048576	10	4023
2026-01-04 05:59:01.66	244.96	14.71	-25.4	-26.3	15.7	0.00e+00	0	44	102	1048576	10	3999
2026-01-04 05:59:04.68	244.66	14.43	-25.4	-26.2	15.7	0.00e+00	0	44	102	1048576	10	3979
2026-01-04 05:59:07.69	244.36	14.16	-25.7	-26.4	15.3	0.00e+00	0	43	102	1048576	11	3916
2026-01-04 05:59:10.72	244.06	13.88	-26.0	-27.1	14.6	0.00e+00	0	44	102	1048576	11	4094
2026-01-04 05:59:13.73	243.77	13.61	-26.0	-27.1	14.9	0.00e+00	0	43	102	1048576	11	4087
2026-01-04 05:59:16.75	243.49	13.34	-26.1	-27.0	14.6	0.00e+00	0	44	102	1048576	12	3961
2026-01-04 05:59:19.78	243.21	13.08	-26.1	-26.9	14.7	0.00e+00	0	44	102	1048576	12	3932
2026-01-04 05:59:22.81	242.93	12.81	-26.1	-27.0	14.6	2.29e-04	0	44	102	1048576	12	3964
2026-01-04 05:59:25.83	242.66	12.55	-26.2	-27.1	14.5	1.79e-04	0	44	102	1048576	12	4005
2026-01-04 05:59:28.85	242.40	12.29	-26.5	-27.7	14.1	0.00e+00	0	44	102	1048576	12	4164
2026-01-04 05:59:31.87	242.14	12.03	-26.0	-26.7	14.7	5.70e-06	0	44	102	1048576	12	3899
2026-01-04 05:59:34.89	241.88	11.77	-25.9	-26.5	14.8	1.10e-06	0	44	102	1048576	12	3847
2026-01-04 05:59:37.91	241.63	11.52	-25.9	-26.6	14.8	4.50e-06	0	43	102	1048576	12	3861
2026-01-04 05:59:40.94	241.39	11.27	-25.9	-26.4	14.8	0.00e+00	0	43	102	1048576	12	3812
2026-01-04 05:59:43.96	241.14	11.02	-26.0	-26.6	14.7	0.00e+00	0	44	102	1048576	12	3874
2026-01-04 05:59:46.99	240.90	10.77	-26.2	-27.1	14.4	0.00e+00	0	44	102	1048576	12	3989
2026-01-04 05:59:50.00	240.67	10.52	-26.4	-27.6	14.1	0.00e+00	0	44	102	1048576	12	4127
2026-01-04 05:59:53.02	240.44	10.28	-26.8	-28.0	13.5	2.20e-06	0	44	102	1048576	13	4141
2026-01-04 05:59:56.03	240.22	10.04	-27.0	-28.4	13.3	1.48e-05	0	44	102	1048576	13	4238
2026-01-04 05:59:59.05	240.00	9.80	-27.2	-28.4	13.0	3.77e-05	0	44	102	1048576	14	4151
2026-01-04 06:00:02.07	239.78	9.56	-27.2	-28.4	13.0	2.86e-05	0	44	102	1048576	14	4145
2026-01-04 06:00:05.10	239.56	9.32	-27.1	-28.3	13.1	2.97e-05	0	44	102	1048576	14	4112
2026-01-04 06:00:08.12	239.35	9.09	-27.1	-28.2	13.1	3.77e-05	0	43	102	1048576	14	4084
2026-01-04 06:00:11.14	239.14	8.86	-27.0	-28.0	13.2	2.63e-05	0	44	102	1048576	14	4042
2026-01-04 06:00:14.15	238.94	8.63	-27.0	-28.6	13.1	2.63e-05	0	43	102	1048576	13	4296
2026-01-04 06:00:17.16	238.74	8.40	-27.0	-27.9	13.2	2.51e-05	0	44	102	1048576	14	4014
2026-01-04 06:00:20.18	238.54	8.17	-27.0	-28.4	13.1	1.60e-05	0	44	102	1048576	13	4244
2026-01-04 06:00:23.20	238.35	7.95	-27.0	-28.5	13.1	2.74e-05	0	44	102	1048576	13	4278
2026-01-04 06:00:26.22	238.16	7.72	-27.1	-28.3	12.8	3.08e-05	0	44	102	1048576	14	4132
2026-01-04 06:00:29.23	237.97	7.50	-27.2	-28.4	12.8	7.89e-05	0	44	102	1048576	14	4137
2026-01-04 06:00:32.24	237.79	7.28	-26.5	-27.4	13.1	1.83e-05	0	44	102	1048576	14	3994
2026-01-04 06:00:35.26	237.60	7.06	-29.4	-31.8	9.8	4.57e-05	0	44	102	1048576	18	4767
2026-01-04 06:00:38.27	237.42	6.85	-33.6	-43.1	3.8	8.45e-01	0	44	104	1048576	27	10757

#Closed at: 2026-01-04 06:00:38
#Recorded file [1 MB]: D:/data/31010_260104_084929.dat