passes_logs/2026/01/04/R2M6_AANII_01/R2M6_AANII_01__20260104_232205_SUOMI_NPP_rec.log

#Pass ID: 20260104_232205_SUOMI NPP
#Satellite: SUOMI NPP
#Configuration: NPP
#almurnet v.1.7.20240730
#Start time: 2026-01-04 23:22:07

#Version: 2.2.20231116
#Station: R2M6_AANII_01
#Location: 30.233357 lon 59.946436 lat
#TLE: 1 37849U 11061A   26003.96724563  .00000164  00000+0  98899-4 0  9990
#TLE: 2 37849  98.7800 306.1116 0002573  82.3190 277.8279 14.19522066735141

#Time	Az	El	Level	Level2	SNR	BER	BlckErr	Temp	State	Recorded	gain1	gain2
2026-01-04 23:22:07.17	24.92	7.09	-32.0	-39.6	4.1	1.42e+00	0	41	0	0	24	8594
2026-01-04 23:22:10.19	25.11	7.31	-32.2	-40.5	4.5	1.23e+00	0	41	102	1048576	24	9299
2026-01-04 23:22:13.21	25.30	7.52	-31.9	-37.7	5.9	4.27e-01	0	41	102	1048576	24	7061
2026-01-04 23:22:16.22	25.50	7.74	-31.4	-35.8	7.8	9.93e-02	0	41	102	1048576	23	5923
2026-01-04 23:22:19.23	25.69	7.96	-31.0	-34.5	9.2	2.46e-02	0	41	102	1048576	22	5374
2026-01-04 23:22:22.25	25.90	8.18	-31.1	-34.7	9.1	2.42e-02	0	41	102	1048576	22	5445
2026-01-04 23:22:25.27	26.10	8.41	-31.0	-34.4	9.3	1.66e-02	0	41	102	1048576	22	5318
2026-01-04 23:22:28.29	26.31	8.63	-31.1	-34.6	9.2	1.90e-02	0	41	102	1048576	22	5406
2026-01-04 23:22:31.31	26.52	8.86	-31.0	-34.4	9.4	1.34e-02	0	41	102	1048576	22	5300
2026-01-04 23:22:34.33	26.73	9.09	-31.2	-34.9	9.0	2.52e-02	0	42	102	1048576	22	5518
2026-01-04 23:22:37.35	26.95	9.32	-31.2	-34.9	9.0	2.38e-02	0	42	102	1048576	22	5518
2026-01-04 23:22:40.38	27.17	9.55	-31.1	-34.4	9.3	1.90e-02	0	42	102	1048576	22	5301
2026-01-04 23:22:43.41	27.39	9.79	-31.0	-34.3	9.5	1.37e-02	0	42	102	1048576	22	5250
2026-01-04 23:22:46.42	27.62	10.02	-31.1	-34.6	9.3	1.55e-02	0	42	102	1048576	22	5355
2026-01-04 23:22:49.45	27.85	10.26	-30.8	-33.8	10.3	8.36e-03	0	42	102	1048576	21	5090
2026-01-04 23:22:52.47	28.09	10.50	-30.7	-33.5	10.6	4.70e-03	0	42	102	1048576	21	4975
2026-01-04 23:22:55.49	28.32	10.74	-30.5	-32.9	11.0	1.92e-03	0	42	102	1048576	21	4754
2026-01-04 23:22:58.50	28.56	10.99	-30.6	-33.2	10.9	2.19e-03	0	42	102	1048576	21	4849
2026-01-04 23:23:01.51	28.81	11.23	-30.6	-33.2	10.9	3.11e-03	0	42	102	1048576	21	4835
2026-01-04 23:23:04.51	29.06	11.48	-30.7	-33.5	10.7	3.55e-03	0	42	102	1048576	21	4953
2026-01-04 23:23:07.54	29.31	11.73	-30.7	-33.3	10.9	2.35e-03	0	42	102	1048576	21	4903
2026-01-04 23:23:10.55	29.57	11.98	-30.7	-33.6	10.7	2.80e-03	0	42	102	1048576	21	4985
2026-01-04 23:23:13.57	29.83	12.23	-30.5	-32.8	11.3	1.94e-03	0	42	102	1048576	21	4679
2026-01-04 23:23:16.60	30.09	12.49	-30.5	-33.2	11.4	1.38e-03	0	43	102	1048576	20	4921
2026-01-04 23:23:19.62	30.36	12.75	-30.6	-33.1	11.1	1.44e-03	0	43	102	1048576	21	4799
2026-01-04 23:23:22.65	30.64	13.01	-30.5	-32.9	11.2	1.48e-03	0	43	102	1048576	21	4731
2026-01-04 23:23:25.66	30.92	13.27	-30.7	-33.3	10.9	2.74e-03	0	43	102	1048576	21	4889
2026-01-04 23:23:28.68	31.20	13.54	-30.6	-33.1	11.0	3.16e-03	0	42	102	1048576	21	4813
2026-01-04 23:23:31.70	31.49	13.81	-30.5	-32.8	11.4	1.41e-03	0	43	102	1048576	21	4691
2026-01-04 23:23:34.72	31.79	14.08	-30.4	-32.4	11.6	1.81e-03	0	43	102	1048576	21	4546
2026-01-04 23:23:37.74	32.09	14.35	-30.4	-32.4	11.6	8.53e-04	0	43	102	1048576	21	4525
2026-01-04 23:23:40.75	32.39	14.62	-30.6	-33.0	11.3	1.27e-03	0	43	102	1048576	21	4751
2026-01-04 23:23:43.77	32.70	14.90	-30.7	-33.3	11.1	1.62e-03	0	43	102	1048576	21	4849
2026-01-04 23:23:46.79	33.02	15.18	-30.7	-33.2	11.1	1.41e-03	0	43	102	1048576	21	4817
2026-01-04 23:23:49.81	33.34	15.46	-30.5	-32.6	11.6	7.82e-04	0	43	102	1048576	21	4608
2026-01-04 23:23:52.83	33.66	15.75	-30.4	-32.8	11.8	4.90e-04	0	43	102	1048576	20	4771
2026-01-04 23:23:55.84	34.00	16.03	-30.4	-32.7	11.9	2.02e-04	0	43	102	1048576	20	4728
2026-01-04 23:23:58.85	34.33	16.32	-30.4	-32.8	11.8	4.30e-04	0	43	102	1048576	20	4760
2026-01-04 23:24:01.88	34.68	16.62	-30.6	-32.9	11.5	1.28e-03	0	43	102	1048576	21	4677
2026-01-04 23:24:04.90	35.03	16.91	-30.5	-32.7	11.7	6.64e-04	0	43	102	1048576	21	4608
2026-01-04 23:24:07.92	35.39	17.21	-30.6	-32.9	11.5	6.45e-04	0	43	102	1048576	21	4687
2026-01-04 23:24:10.94	35.76	17.51	-30.7	-33.3	11.2	9.63e-04	0	43	102	1048576	21	4828
2026-01-04 23:24:13.96	36.13	17.81	-31.0	-34.0	10.7	2.24e-03	0	43	102	1048576	21	5121
2026-01-04 23:24:16.98	36.51	18.12	-30.7	-33.3	11.3	1.23e-03	0	43	102	1048576	21	4814
2026-01-04 23:24:19.98	36.90	18.42	-30.6	-32.9	11.6	9.73e-04	0	43	102	1048576	21	4672
2026-01-04 23:24:23.00	37.29	18.73	-30.6	-32.8	11.7	6.94e-04	0	43	102	1048576	21	4622
2026-01-04 23:24:26.03	37.70	19.05	-30.6	-32.7	11.8	5.86e-04	0	43	102	1048576	21	4612
2026-01-04 23:24:29.04	38.11	19.36	-30.6	-32.9	11.7	4.02e-04	0	43	102	1048576	21	4654
2026-01-04 23:24:32.07	38.53	19.68	-30.6	-32.8	11.7	4.87e-04	0	43	102	1048576	21	4636
2026-01-04 23:24:35.09	38.96	20.00	-30.7	-33.0	11.6	8.59e-04	0	43	102	1048576	21	4696
2026-01-04 23:24:38.11	39.40	20.33	-30.7	-32.9	11.6	8.06e-04	0	43	102	1048576	21	4667
2026-01-04 23:24:41.13	39.84	20.65	-30.6	-32.8	11.8	5.94e-04	0	43	102	1048576	21	4618
2026-01-04 23:24:44.15	40.30	20.98	-30.6	-32.6	11.8	5.77e-04	0	43	102	1048576	21	4568
2026-01-04 23:24:47.17	40.76	21.31	-30.6	-32.8	11.8	5.52e-04	0	43	102	1048576	21	4616
2026-01-04 23:24:50.19	41.24	21.65	-30.8	-32.8	11.5	1.35e-03	0	43	102	1048576	22	4520
2026-01-04 23:24:53.21	41.73	21.98	-30.5	-32.1	11.9	6.10e-04	0	43	102	1048576	22	4345
2026-01-04 23:24:56.23	42.22	22.32	-30.7	-32.5	11.8	4.36e-04	0	43	102	1048576	22	4413
2026-01-04 23:24:59.24	42.73	22.66	-30.2	-31.3	12.9	7.70e-05	0	43	102	1048576	21	4131
2026-01-04 23:25:02.26	43.24	23.01	-30.1	-31.2	13.0	4.27e-05	0	43	102	1048576	21	4091
2026-01-04 23:25:05.28	43.77	23.35	-30.2	-31.5	12.8	3.96e-05	0	43	102	1048576	21	4171
2026-01-04 23:25:08.29	44.31	23.70	-30.5	-32.3	12.3	1.97e-04	0	43	102	1048576	21	4440
2026-01-04 23:25:11.31	44.86	24.05	-30.4	-32.1	12.4	1.41e-04	0	43	102	1048576	21	4374
2026-01-04 23:25:14.33	45.43	24.40	-30.3	-32.2	12.6	1.45e-04	0	43	102	1048576	20	4499
2026-01-04 23:25:17.36	46.00	24.76	-29.8	-30.8	13.6	3.22e-04	0	43	102	1048576	20	4042
2026-01-04 23:25:20.39	46.60	25.11	-30.0	-31.5	13.2	5.41e-05	0	43	102	1048576	20	4261
2026-01-04 23:25:23.40	47.20	25.47	-29.8	-30.8	13.6	6.80e-06	0	43	102	1048576	20	4048
2026-01-04 23:25:26.41	47.81	25.83	-29.9	-31.1	13.5	7.60e-06	0	43	102	1048576	20	4125
2026-01-04 23:25:29.43	48.44	26.19	-29.8	-31.0	13.6	9.10e-06	0	43	102	1048576	20	4100
2026-01-04 23:25:32.45	49.08	26.55	-29.7	-31.0	13.9	1.61e-04	0	43	102	1048576	19	4180
2026-01-04 23:25:35.48	49.75	26.91	-29.7	-30.9	14.0	0.00e+00	0	43	102	1048576	19	4165
2026-01-04 23:25:38.50	50.42	27.28	-29.9	-31.4	13.7	3.13e-04	0	43	102	1048576	19	4319
2026-01-04 23:25:41.53	51.11	27.64	-30.0	-31.5	13.3	1.03e-03	0	43	102	1048576	20	4248
2026-01-04 23:25:44.56	51.82	28.01	-30.1	-31.7	13.1	4.88e-05	0	43	102	1048576	20	4303
2026-01-04 23:25:47.58	52.54	28.37	-30.2	-31.9	13.0	3.50e-05	0	43	102	1048576	20	4377
2026-01-04 23:25:50.60	53.27	28.74	-30.4	-31.9	12.6	1.13e-04	0	44	102	1048576	21	4283
2026-01-04 23:25:53.63	54.03	29.10	-30.6	-32.5	12.2	2.62e-04	0	43	102	1048576	21	4481
2026-01-04 23:25:56.64	54.80	29.47	-30.8	-33.2	11.8	6.67e-04	0	43	102	1048576	21	4730
2026-01-04 23:25:59.66	55.59	29.83	-30.8	-33.1	11.9	3.87e-04	0	43	102	1048576	21	4681
2026-01-04 23:26:02.67	56.39	30.19	-31.5	-34.2	10.4	4.71e-03	0	43	102	1048576	23	4921
2026-01-04 23:26:05.70	57.21	30.55	-32.0	-36.0	9.2	1.23e-02	0	43	102	1048576	23	5690
2026-01-04 23:26:08.72	58.06	30.91	-32.2	-36.2	8.5	2.65e-02	0	43	102	1048576	24	5723
2026-01-04 23:26:11.73	58.91	31.26	-32.0	-35.5	9.1	2.13e-02	0	43	102	1048576	24	5385
2026-01-04 23:26:14.75	59.79	31.62	-32.4	-36.9	8.0	4.99e-02	0	43	102	1048576	24	6046
2026-01-04 23:26:17.77	60.69	31.97	-32.2	-36.1	8.6	4.87e-02	0	43	102	1048576	24	5656
2026-01-04 23:26:20.80	61.61	32.31	-32.3	-36.5	8.5	3.82e-02	0	44	102	1048576	24	5840
2026-01-04 23:26:23.81	62.54	32.66	-32.5	-36.9	7.7	8.72e-02	0	43	102	1048576	25	5988
2026-01-04 23:26:26.82	63.49	32.99	-32.7	-37.8	7.0	1.86e-01	0	43	102	1048576	25	6506
2026-01-04 23:26:29.83	64.47	33.32	-32.4	-36.5	8.0	8.29e-02	0	43	102	1048576	25	5782
2026-01-04 23:26:32.84	65.46	33.65	-32.2	-35.6	8.8	2.30e-02	0	43	102	1048576	25	5309
2026-01-04 23:26:35.87	66.48	33.97	-32.5	-37.0	7.6	6.82e-02	0	43	102	1048576	25	6043
2026-01-04 23:26:38.88	67.51	34.28	-31.8	-34.2	9.7	1.51e-02	0	44	102	1048576	25	4752
2026-01-04 23:26:41.89	68.56	34.59	-31.2	-33.3	11.2	2.26e-03	0	43	102	1048576	23	4568
2026-01-04 23:26:44.92	69.63	34.89	-32.1	-35.7	9.1	2.42e-02	0	43	102	1048576	24	5459
2026-01-04 23:26:47.94	70.73	35.18	-31.8	-34.5	9.9	1.32e-02	0	43	102	1048576	24	4943
2026-01-04 23:26:50.96	71.84	35.46	-31.2	-33.1	11.3	2.87e-03	0	43	102	1048576	23	4497
2026-01-04 23:26:53.98	72.97	35.73	-30.9	-32.3	12.0	3.71e-04	0	43	102	1048576	23	4222
2026-01-04 23:26:57.00	74.12	35.99	-31.0	-32.7	11.7	7.93e-04	0	43	102	1048576	23	4344
2026-01-04 23:27:00.02	75.29	36.25	-29.9	-30.4	13.8	5.30e-06	0	43	102	1048576	21	3814
2026-01-04 23:27:03.04	76.47	36.49	-30.7	-32.8	12.3	1.30e-04	0	43	102	1048576	21	4554
2026-01-04 23:27:06.07	77.68	36.71	-30.6	-32.3	12.5	7.17e-05	0	43	102	1048576	21	4397
2026-01-04 23:27:09.08	78.89	36.93	-30.7	-32.6	12.3	2.79e-04	0	43	102	1048576	21	4513
2026-01-04 23:27:12.11	80.13	37.13	-30.2	-31.2	13.3	2.67e-05	0	43	102	1048576	21	4061
2026-01-04 23:27:15.13	81.38	37.32	-30.7	-32.8	12.3	1.37e-04	0	43	102	1048576	21	4575
2026-01-04 23:27:18.14	82.64	37.49	-31.1	-33.3	11.6	9.13e-04	0	44	102	1048576	22	4661
2026-01-04 23:27:21.15	83.91	37.65	-30.8	-32.5	12.1	5.29e-04	0	43	102	1048576	22	4362
2026-01-04 23:27:24.16	85.19	37.80	-30.6	-31.9	12.5	6.40e-05	0	43	102	1048576	22	4182
2026-01-04 23:27:27.16	86.48	37.92	-30.9	-33.2	11.9	2.04e-04	0	44	102	1048576	21	4705
2026-01-04 23:27:30.17	87.78	38.04	-31.6	-34.4	10.3	3.41e-03	0	43	102	1048576	23	4986
2026-01-04 23:27:33.18	89.10	38.13	-31.5	-34.1	10.7	3.10e-03	0	44	102	1048576	23	4842
2026-01-04 23:27:36.21	90.42	38.22	-31.3	-33.6	11.0	2.50e-03	0	43	102	1048576	23	4654
2026-01-04 23:27:39.23	91.75	38.28	-31.6	-34.4	10.5	2.10e-03	0	44	102	1048576	23	4983
2026-01-04 23:27:42.24	93.08	38.33	-32.2	-36.3	8.6	4.25e-02	0	44	102	1048576	24	5723
2026-01-04 23:27:45.26	94.42	38.36	-31.0	-32.6	11.6	7.23e-04	0	44	102	1048576	23	4326
2026-01-04 23:27:48.29	95.76	38.37	-31.0	-32.6	11.7	5.42e-04	0	44	102	1048576	23	4307
2026-01-04 23:27:51.30	97.10	38.36	-31.0	-32.6	11.8	4.32e-04	0	43	102	1048576	23	4328
2026-01-04 23:27:54.31	98.43	38.34	-30.9	-32.4	11.9	4.69e-04	0	43	102	1048576	23	4249
2026-01-04 23:27:57.33	99.77	38.30	-31.2	-33.1	11.3	1.70e-03	0	43	102	1048576	23	4506
2026-01-04 23:28:00.35	101.10	38.25	-31.1	-33.3	11.4	7.05e-04	0	44	102	1048576	22	4652
2026-01-04 23:28:03.38	102.43	38.17	-30.1	-31.1	13.4	2.05e-05	0	43	102	1048576	21	4019
2026-01-04 23:28:06.40	103.75	38.09	-31.2	-33.6	11.3	8.54e-04	0	44	102	1048576	22	4749
2026-01-04 23:28:09.42	105.07	37.98	-30.9	-32.8	11.9	4.74e-04	0	44	102	1048576	22	4480
2026-01-04 23:28:12.44	106.37	37.86	-31.0	-33.2	11.4	1.78e-03	0	43	102	1048576	22	4638
2026-01-04 23:28:15.47	107.67	37.72	-31.6	-34.5	10.4	1.99e-03	0	43	102	1048576	23	5049
2026-01-04 23:28:18.49	108.95	37.57	-30.7	-32.2	12.1	7.35e-04	0	43	102	1048576	22	4292
2026-01-04 23:28:21.51	110.22	37.40	-31.0	-33.6	11.7	2.13e-04	0	43	102	1048576	21	4854
2026-01-04 23:28:24.53	111.48	37.22	-30.1	-31.0	13.3	3.28e-05	0	43	102	1048576	21	4003
2026-01-04 23:28:27.56	112.73	37.02	-31.5	-34.2	10.4	2.34e-03	0	43	102	1048576	23	4912
2026-01-04 23:28:30.58	113.95	36.81	-30.7	-32.1	12.2	4.48e-04	0	43	102	1048576	22	4267
2026-01-04 23:28:33.59	115.16	36.59	-31.0	-33.1	11.5	1.56e-03	0	44	102	1048576	22	4596
2026-01-04 23:28:36.62	116.36	36.35	-29.8	-30.7	13.8	6.10e-06	0	43	102	1048576	20	4010
2026-01-04 23:28:39.65	117.54	36.10	-31.1	-33.5	11.3	1.18e-03	0	44	102	1048576	22	4727
2026-01-04 23:28:42.67	118.70	35.84	-31.5	-34.1	10.4	4.30e-03	0	44	102	1048576	23	4906
2026-01-04 23:28:45.68	119.84	35.58	-31.9	-35.2	9.3	2.31e-02	0	44	102	1048576	24	5246
2026-01-04 23:28:48.70	120.97	35.30	-30.5	-31.8	12.5	2.23e-04	0	43	102	1048576	22	4155
2026-01-04 23:28:51.72	122.07	35.01	-31.5	-34.1	10.4	4.53e-03	0	43	102	1048576	23	4907
2026-01-04 23:28:54.73	123.15	34.72	-31.2	-33.2	11.1	1.96e-03	0	43	102	1048576	23	4531
2026-01-04 23:28:57.73	124.21	34.41	-32.4	-37.4	7.6	2.49e-02	0	43	102	1048576	24	6396
2026-01-04 23:29:00.75	125.26	34.10	-32.1	-35.6	8.5	4.60e-02	0	44	102	1048576	25	5363
2026-01-04 23:29:03.77	126.28	33.78	-32.4	-37.0	7.5	8.91e-02	0	43	102	1048576	25	6055
2026-01-04 23:29:06.79	127.29	33.46	-32.0	-35.2	8.8	5.02e-02	0	43	102	1048576	25	5168
2026-01-04 23:29:09.80	128.27	33.13	-32.4	-37.3	7.6	3.59e-02	0	44	102	1048576	24	6316
2026-01-04 23:29:12.82	129.24	32.79	-32.3	-36.3	7.8	2.19e-01	0	43	102	1048576	25	5748
2026-01-04 23:29:15.84	130.19	32.45	-31.6	-34.7	9.9	3.40e-03	0	43	102	1048576	23	5148
2026-01-04 23:29:18.87	131.12	32.10	-32.7	-38.4	6.3	2.74e-01	0	44	102	1048576	25	6969
2026-01-04 23:29:21.89	132.03	31.75	-31.4	-33.6	10.3	5.19e-03	0	43	102	1048576	24	4643
2026-01-04 23:29:24.92	132.92	31.39	-31.7	-34.6	9.5	1.40e-02	0	44	102	1048576	24	5054
2026-01-04 23:29:27.93	133.79	31.04	-31.2	-33.3	10.9	1.63e-03	0	43	102	1048576	23	4622
2026-01-04 23:29:30.96	134.64	30.68	-32.1	-36.4	8.3	2.93e-02	0	43	102	1048576	24	5864
2026-01-04 23:29:33.98	135.47	30.32	-31.2	-33.6	10.7	4.58e-03	0	44	102	1048576	23	4707
2026-01-04 23:29:37.00	136.29	29.95	-31.4	-34.1	10.3	2.89e-03	0	43	102	1048576	23	4910
2026-01-04 23:29:40.02	137.09	29.59	-30.5	-31.8	12.3	3.55e-04	0	44	102	1048576	22	4197
2026-01-04 23:29:43.04	137.87	29.22	-30.3	-32.4	12.5	4.97e-04	0	44	102	1048576	20	4544
2026-01-04 23:29:46.07	138.63	28.85	-30.9	-33.0	11.4	1.83e-03	0	43	102	1048576	22	4596
2026-01-04 23:29:49.09	139.38	28.49	-30.4	-32.5	12.4	9.42e-04	0	43	102	1048576	20	4610
2026-01-04 23:29:52.08	140.10	28.12	-30.6	-32.8	11.7	1.73e-03	0	44	102	1048576	21	4611
2026-01-04 23:29:55.09	140.81	27.76	-29.8	-30.9	13.4	6.56e-05	0	44	102	1048576	20	4092
2026-01-04 23:29:58.11	141.51	27.39	-29.3	-30.2	14.2	0.00e+00	0	44	102	1048576	19	3965
2026-01-04 23:30:01.12	142.19	27.03	-29.6	-30.9	13.7	3.80e-06	0	44	102	1048576	19	4180
2026-01-04 23:30:04.14	142.86	26.66	-29.0	-29.8	14.7	1.17e-03	0	44	102	1048576	18	3962
2026-01-04 23:30:07.16	143.51	26.30	-28.8	-29.9	15.0	1.75e-03	0	43	102	1048576	17	4083
2026-01-04 23:30:10.18	144.15	25.93	-30.0	-31.5	12.9	2.32e-03	0	43	102	1048576	20	4281
2026-01-04 23:30:13.20	144.77	25.57	-29.1	-30.2	14.5	2.20e-06	0	43	102	1048576	18	4063
2026-01-04 23:30:16.22	145.38	25.21	-29.1	-30.1	14.6	0.00e+00	0	43	102	1048576	18	4032
2026-01-04 23:30:19.23	145.97	24.85	-29.4	-30.8	14.1	2.20e-06	0	44	102	1048576	18	4246
2026-01-04 23:30:22.25	146.56	24.50	-29.2	-30.5	14.2	0.00e+00	0	43	102	1048576	18	4175
2026-01-04 23:30:25.28	147.13	24.14	-29.4	-30.9	14.0	2.20e-06	0	44	102	1048576	18	4291
2026-01-04 23:30:28.30	147.69	23.79	-29.8	-31.3	13.4	1.06e-05	0	43	102	1048576	19	4321
2026-01-04 23:30:31.32	148.23	23.43	-29.9	-31.3	13.0	3.58e-05	0	44	102	1048576	20	4243
2026-01-04 23:30:34.34	148.77	23.08	-29.9	-31.2	13.0	3.89e-05	0	44	102	1048576	20	4224
2026-01-04 23:30:37.36	149.29	22.74	-29.6	-31.0	13.5	2.21e-05	0	44	102	1048576	19	4222
2026-01-04 23:30:40.37	149.80	22.39	-29.2	-30.0	14.1	5.30e-06	0	44	102	1048576	19	3947
2026-01-04 23:30:43.39	150.30	22.05	-29.2	-30.4	14.2	0.00e+00	0	43	102	1048576	18	4142
2026-01-04 23:30:46.41	150.79	21.71	-29.5	-30.9	13.5	6.80e-06	0	44	102	1048576	19	4197
2026-01-04 23:30:49.42	151.27	21.38	-29.8	-31.7	13.0	2.05e-05	0	43	102	1048576	19	4451
2026-01-04 23:30:52.44	151.74	21.04	-29.8	-31.5	13.0	4.80e-05	0	43	102	1048576	19	4389
2026-01-04 23:30:55.47	152.20	20.71	-29.6	-31.0	13.4	2.59e-05	0	44	102	1048576	19	4235
2026-01-04 23:30:58.50	152.66	20.38	-30.3	-32.5	12.1	2.37e-04	0	43	102	1048576	20	4652
2026-01-04 23:31:01.52	153.10	20.05	-30.8	-33.5	10.8	3.00e-03	0	44	102	1048576	21	4955
2026-01-04 23:31:04.54	153.53	19.73	-30.6	-33.2	11.1	1.48e-03	0	43	102	1048576	21	4834
2026-01-04 23:31:07.56	153.95	19.40	-30.2	-31.9	11.9	7.12e-04	0	44	102	1048576	21	4387
2026-01-04 23:31:10.59	154.37	19.08	-30.1	-32.1	12.1	2.84e-04	0	44	102	1048576	20	4544
2026-01-04 23:31:13.60	154.78	18.77	-30.4	-33.1	11.4	8.15e-04	0	44	102	1048576	20	4917
2026-01-04 23:31:16.61	155.17	18.46	-30.4	-32.6	11.3	1.25e-03	0	44	102	1048576	21	4623
2026-01-04 23:31:19.62	155.56	18.15	-30.3	-32.4	11.5	7.13e-04	0	44	102	1048576	21	4561
2026-01-04 23:31:22.64	155.95	17.84	-30.4	-33.2	11.2	1.01e-03	0	43	102	1048576	20	4949
2026-01-04 23:31:25.66	156.32	17.53	-30.1	-32.2	11.9	4.42e-04	0	43	102	1048576	20	4585
2026-01-04 23:31:28.67	156.69	17.23	-30.4	-33.1	11.4	8.61e-04	0	44	102	1048576	20	4890
2026-01-04 23:31:31.69	157.05	16.93	-30.3	-32.7	11.6	1.15e-03	0	44	102	1048576	20	4755
2026-01-04 23:31:34.72	157.41	16.63	-30.1	-32.2	11.9	6.69e-04	0	44	102	1048576	20	4596
2026-01-04 23:31:37.74	157.75	16.34	-30.0	-31.9	12.0	3.32e-04	0	44	102	1048576	20	4467
2026-01-04 23:31:40.75	158.10	16.04	-30.1	-32.3	11.8	4.50e-04	0	44	102	1048576	20	4612
2026-01-04 23:31:43.77	158.43	15.75	-30.4	-33.3	11.1	7.66e-04	0	44	102	1048576	20	4987
2026-01-04 23:31:46.79	158.76	15.47	-30.8	-34.0	10.2	3.61e-03	0	44	102	1048576	21	5183
2026-01-04 23:31:49.81	159.08	15.18	-31.1	-34.4	9.5	1.60e-02	0	43	102	1048576	22	5276
2026-01-04 23:31:52.84	159.40	14.90	-30.6	-33.5	10.5	5.48e-03	0	44	102	1048576	21	4982
2026-01-04 23:31:55.86	159.71	14.62	-30.5	-33.1	10.7	4.36e-03	0	44	102	1048576	21	4857
2026-01-04 23:31:58.87	160.02	14.34	-30.4	-32.8	11.0	2.52e-03	0	44	102	1048576	21	4737
2026-01-04 23:32:01.89	160.32	14.07	-30.6	-33.5	10.4	3.87e-03	0	43	102	1048576	21	5017
2026-01-04 23:32:04.91	160.61	13.79	-30.9	-34.5	9.3	9.54e-03	0	44	102	1048576	21	5486
2026-01-04 23:32:07.93	160.90	13.52	-31.1	-34.7	9.1	1.95e-02	0	44	102	1048576	22	5466
2026-01-04 23:32:10.95	161.19	13.25	-30.9	-34.7	9.5	1.55e-02	0	44	102	1048576	21	5549
2026-01-04 23:32:13.97	161.47	12.99	-30.9	-34.5	9.6	1.62e-02	0	43	102	1048576	21	5447
2026-01-04 23:32:16.99	161.74	12.73	-31.0	-34.3	9.4	3.08e-02	0	44	102	1048576	22	5258
2026-01-04 23:32:20.01	162.01	12.46	-30.5	-33.3	10.5	4.54e-03	0	43	102	1048576	21	4952
2026-01-04 23:32:23.02	162.28	12.21	-30.5	-33.4	10.3	4.01e-03	0	44	102	1048576	21	5034
2026-01-04 23:32:26.05	162.54	11.95	-30.3	-33.0	10.8	2.49e-03	0	44	102	1048576	20	4936
2026-01-04 23:32:29.06	162.80	11.69	-30.4	-33.4	10.6	5.05e-03	0	44	102	1048576	20	5114
2026-01-04 23:32:32.08	163.05	11.44	-30.8	-34.5	9.4	1.42e-02	0	44	102	1048576	21	5514
2026-01-04 23:32:35.10	163.30	11.19	-31.0	-34.9	8.6	3.45e-02	0	43	102	1048576	22	5639
2026-01-04 23:32:38.11	163.55	10.94	-30.9	-35.1	8.9	3.22e-02	0	44	102	1048576	21	5801
2026-01-04 23:32:41.12	163.79	10.70	-30.9	-35.0	8.9	2.73e-02	0	44	102	1048576	21	5789
2026-01-04 23:32:44.13	164.02	10.46	-31.2	-35.6	8.0	5.81e-02	0	44	102	1048576	22	6033
2026-01-04 23:32:47.14	164.26	10.21	-31.3	-36.2	7.6	8.15e-02	0	44	102	1048576	22	6338
2026-01-04 23:32:50.16	164.49	9.97	-31.3	-36.2	7.6	8.66e-02	0	44	102	1048576	22	6347
2026-01-04 23:32:53.19	164.71	9.73	-31.3	-35.9	7.7	8.67e-02	0	44	102	1048576	22	6171
2026-01-04 23:32:56.22	164.94	9.50	-31.5	-36.7	6.7	1.90e-01	0	44	102	1048576	23	6539
2026-01-04 23:32:59.24	165.16	9.26	-30.9	-35.0	8.7	5.12e-02	0	44	102	1048576	21	5777
2026-01-04 23:33:02.27	165.37	9.03	-30.7	-34.3	9.3	2.24e-02	0	44	102	1048576	21	5444
2026-01-04 23:33:05.29	165.59	8.80	-30.8	-34.8	8.8	3.04e-02	0	44	102	1048576	21	5721
2026-01-04 23:33:08.31	165.80	8.57	-30.8	-34.7	8.8	2.94e-02	0	44	102	1048576	21	5672
2026-01-04 23:33:11.32	166.00	8.34	-30.8	-34.8	8.7	3.04e-02	0	44	102	1048576	21	5735
2026-01-04 23:33:14.35	166.21	8.12	-30.9	-35.4	8.3	5.64e-02	0	43	102	1048576	21	6035
2026-01-04 23:33:17.37	166.41	7.89	-31.1	-35.6	7.7	8.08e-02	0	44	102	1048576	22	6034
2026-01-04 23:33:20.39	166.60	7.67	-31.0	-35.3	7.9	7.32e-02	0	44	102	1048576	22	5910
2026-01-04 23:33:23.41	166.80	7.45	-31.0	-35.8	7.8	7.72e-02	0	44	102	1048576	21	6272
2026-01-04 23:33:26.43	166.99	7.23	-32.0	-42.8	3.8	1.14e-01	0	43	104	1048576	24	12480
2026-01-04 23:33:29.45	167.18	7.01	-32.2	-44.8	3.8	1.49e+00	0	44	104	1048576	24	15402
2026-01-04 23:33:32.47	167.37	6.80	-33.6	-45.9	3.8	1.49e+00	0	44	104	1048576	27	14894

#Closed at: 2026-01-04 23:33:32
#Recorded file [1 MB]: D:/data/31010_260105_022209.dat