passes_logs/2026/01/04/R2M6_AANII_01/R2M6_AANII_01__20260104_015449_AQUA_rec.log

#Pass ID: 20260104_015449_AQUA
#Satellite: AQUA
#Configuration: AQUA
#almurnet v.1.7.20240730
#Start time: 2026-01-04 01:54:49

#Version: 2.2.20231116
#Station: R2M6_AANII_01
#Location: 30.233357 lon 59.946436 lat
#TLE: 1 27424U 02022A   25365.92641127  .00002078  00000+0  42628-3 0  9999
#TLE: 2 27424  98.4058 327.1196 0001962  94.7781 340.6230 14.61783896258835

#Time	Az	El	Level	Level2	SNR	BER	BlckErr	Temp	State	Recorded	gain1	gain2
2026-01-04 01:54:49.15	18.08	6.94	-31.7	-46.7	3.8	7.47e-01	0	42	0	0	24	20361
2026-01-04 01:54:52.17	18.11	7.19	-31.7	-46.8	3.8	7.45e-01	0	42	104	0	24	20446
2026-01-04 01:54:55.18	18.14	7.44	-31.9	-47.3	3.8	7.48e-01	0	42	104	0	24	21294
2026-01-04 01:54:58.20	18.16	7.69	-31.6	-46.1	3.8	7.46e-01	0	42	104	0	24	19208
2026-01-04 01:55:01.22	18.19	7.94	-30.9	-44.4	3.8	7.45e-01	0	42	104	0	23	17035
2026-01-04 01:55:04.24	18.22	8.20	-30.7	-44.2	3.8	7.44e-01	0	42	104	0	22	17134
2026-01-04 01:55:07.26	18.25	8.46	-30.5	-44.0	3.8	7.45e-01	0	42	104	0	21	17221
2026-01-04 01:55:10.28	18.28	8.72	-30.7	-44.4	3.8	7.46e-01	0	42	104	0	22	17264
2026-01-04 01:55:13.29	18.31	8.99	-31.2	-45.2	3.8	7.45e-01	0	42	104	0	23	18123
2026-01-04 01:55:16.31	18.34	9.26	-31.7	-46.5	3.8	7.46e-01	0	42	104	0	24	19801
2026-01-04 01:55:19.31	18.37	9.53	-32.2	-48.1	3.8	7.43e-01	0	42	104	0	25	22320
2026-01-04 01:55:22.33	18.40	9.80	-32.6	-49.5	3.8	7.44e-01	0	42	104	0	26	24946
2026-01-04 01:55:25.36	18.43	10.08	-33.0	-51.2	3.8	7.45e-01	0	42	104	0	26	29401
2026-01-04 01:55:28.38	18.46	10.37	-33.1	-51.6	3.8	7.46e-01	0	42	104	0	27	30356
2026-01-04 01:55:31.40	18.49	10.65	-33.1	-51.2	3.8	7.44e-01	0	42	104	0	27	29011
2026-01-04 01:55:34.42	18.52	10.94	-33.1	-51.3	3.8	7.44e-01	0	42	104	0	26	29393
2026-01-04 01:55:37.44	18.55	11.24	-32.6	-48.6	3.8	7.46e-01	0	43	104	0	26	22834
2026-01-04 01:55:40.46	18.59	11.53	-31.8	-46.7	3.8	7.46e-01	0	43	104	0	24	19884
2026-01-04 01:55:43.48	18.62	11.84	-32.0	-47.2	3.8	7.44e-01	0	43	104	0	24	20798
2026-01-04 01:55:46.50	18.65	12.14	-31.9	-46.5	3.8	7.46e-01	0	43	104	0	25	19252
2026-01-04 01:55:49.51	18.69	12.45	-29.9	-43.5	3.8	7.45e-01	0	43	104	0	23	17141
2026-01-04 01:55:52.53	18.72	12.77	-30.4	-43.7	3.8	7.47e-01	0	43	104	0	21	16733
2026-01-04 01:55:55.55	18.76	13.09	-30.0	-43.1	3.8	7.44e-01	0	43	104	0	20	16300
2026-01-04 01:55:58.57	18.79	13.41	-30.4	-43.7	3.8	7.44e-01	0	43	104	0	21	16640
2026-01-04 01:56:01.58	18.83	13.74	-30.8	-44.3	3.8	7.50e-01	0	43	104	0	22	17039
2026-01-04 01:56:04.60	18.87	14.08	-31.5	-46.0	3.8	7.46e-01	0	43	104	0	23	18993
2026-01-04 01:56:07.60	18.90	14.41	-32.2	-47.4	3.8	7.45e-01	0	43	104	0	25	20684
2026-01-04 01:56:10.62	18.94	14.76	-32.3	-47.7	3.8	7.45e-01	0	43	104	0	25	21228
2026-01-04 01:56:13.64	18.98	15.11	-32.8	-49.2	3.8	7.45e-01	0	43	104	0	26	23835
2026-01-04 01:56:16.66	19.02	15.46	-33.3	-51.6	3.8	7.45e-01	0	43	104	0	27	29521
2026-01-04 01:56:19.68	19.06	15.83	-33.3	-51.5	3.8	7.46e-01	0	43	104	0	27	29284
2026-01-04 01:56:22.69	19.10	16.19	-33.3	-51.4	3.8	7.49e-01	0	43	104	0	27	28840
2026-01-04 01:56:25.71	19.14	16.57	-33.1	-50.1	3.8	7.44e-01	0	43	104	0	27	25538
2026-01-04 01:56:28.72	19.18	16.95	-32.3	-47.4	3.8	7.45e-01	0	43	104	0	25	20503
2026-01-04 01:56:31.74	19.23	17.33	-32.0	-47.0	3.8	7.41e-01	0	43	104	0	24	20210
2026-01-04 01:56:34.76	19.27	17.73	-31.9	-46.7	3.8	7.43e-01	0	43	104	0	24	19580
2026-01-04 01:56:37.78	19.31	18.13	-31.2	-44.8	3.8	7.44e-01	0	43	104	0	23	17252
2026-01-04 01:56:40.80	19.36	18.54	-30.2	-43.0	3.8	7.45e-01	0	43	104	0	21	15711
2026-01-04 01:56:43.82	19.41	18.95	-29.8	-42.4	3.8	7.45e-01	0	43	104	0	20	15455
2026-01-04 01:56:46.84	19.45	19.38	-30.3	-43.3	3.8	7.42e-01	0	43	104	0	21	16054
2026-01-04 01:56:49.86	19.50	19.81	-31.1	-45.0	3.8	7.46e-01	0	43	104	0	22	17772
2026-01-04 01:56:52.88	19.55	20.25	-31.7	-45.7	3.8	7.44e-01	0	43	104	0	24	18078
2026-01-04 01:56:55.90	19.60	20.70	-32.4	-47.8	3.8	7.44e-01	0	43	104	0	25	21192
2026-01-04 01:56:58.92	19.66	21.16	-32.4	-47.9	3.8	7.43e-01	0	43	104	0	25	21389
2026-01-04 01:57:01.94	19.71	21.63	-32.4	-47.6	3.8	7.45e-01	0	43	104	0	25	20858
2026-01-04 01:57:04.96	19.76	22.10	-33.1	-43.0	5.0	7.17e-01	0	43	104	0	27	11198
2026-01-04 01:57:07.97	19.82	22.59	-33.5	-45.8	6.3	6.78e-01	0	43	102	524288	27	14823
2026-01-04 01:57:10.99	19.88	23.09	-33.4	-45.0	7.0	6.65e-01	0	43	102	524288	27	13614
2026-01-04 01:57:14.00	19.94	23.59	-33.5	-45.4	6.6	6.71e-01	0	43	102	524288	27	14239
2026-01-04 01:57:17.03	20.00	24.11	-33.1	-41.9	9.7	6.24e-01	0	43	102	524288	27	9892
2026-01-04 01:57:20.04	20.06	24.64	-32.1	-37.2	14.1	6.06e-01	0	43	102	524288	26	6488
2026-01-04 01:57:23.05	20.13	25.18	-31.0	-34.2	17.0	6.02e-01	0	43	102	524288	24	5254
2026-01-04 01:57:26.07	20.19	25.74	-30.1	-32.8	18.6	6.04e-01	0	43	102	524288	22	4906
2026-01-04 01:57:29.09	20.26	26.31	-29.9	-33.1	19.0	6.03e-01	0	43	102	524288	20	5248
2026-01-04 01:57:32.11	20.33	26.89	-29.5	-32.1	19.6	6.01e-01	0	43	102	524288	20	4877
2026-01-04 01:57:35.12	20.40	27.48	-29.4	-32.4	19.8	6.02e-01	0	43	102	524288	19	5094
2026-01-04 01:57:38.12	20.48	28.08	-29.3	-32.1	20.0	6.02e-01	0	43	102	524288	19	4977
2026-01-04 01:57:41.13	20.56	28.70	-29.2	-31.8	20.2	6.03e-01	0	43	102	524288	19	4863
2026-01-04 01:57:44.15	20.64	29.34	-29.2	-31.9	20.2	6.02e-01	0	43	102	524288	19	4914
2026-01-04 01:57:47.17	20.72	30.00	-29.1	-31.7	20.3	6.03e-01	0	43	102	524288	19	4825
2026-01-04 01:57:50.19	20.81	30.67	-29.1	-31.7	20.4	6.02e-01	0	43	102	524288	19	4818
2026-01-04 01:57:53.20	20.90	31.35	-29.3	-32.0	20.2	6.03e-01	0	43	102	524288	19	4928
2026-01-04 01:57:56.23	20.99	32.06	-29.3	-32.1	20.1	6.03e-01	0	43	102	524288	19	4964
2026-01-04 01:57:59.25	21.09	32.79	-29.5	-32.6	19.9	6.01e-01	0	43	102	524288	19	5122
2026-01-04 01:58:02.27	21.19	33.53	-29.5	-32.2	19.7	6.03e-01	0	43	102	524288	20	4896
2026-01-04 01:58:05.28	21.30	34.29	-29.6	-32.3	19.7	6.01e-01	0	43	102	524288	20	4924
2026-01-04 01:58:08.30	21.41	35.07	-30.0	-33.4	19.1	6.02e-01	0	43	102	524288	20	5340
2026-01-04 01:58:11.31	21.52	35.88	-30.3	-33.6	18.6	6.00e-01	0	43	102	524288	21	5301
2026-01-04 01:58:14.34	21.64	36.71	-30.4	-34.0	18.4	6.01e-01	0	43	102	524288	21	5443
2026-01-04 01:58:17.37	21.77	37.56	-31.0	-35.3	17.2	6.03e-01	0	43	102	524288	22	5866
2026-01-04 01:58:20.39	21.90	38.43	-31.3	-35.6	16.8	6.04e-01	0	43	102	524288	23	5883
2026-01-04 01:58:23.41	22.04	39.33	-31.4	-35.8	16.6	6.05e-01	0	43	102	524288	23	5993
2026-01-04 01:58:26.43	22.19	40.25	-31.3	-35.5	16.9	6.03e-01	0	43	102	524288	23	5825
2026-01-04 01:58:29.45	22.35	41.20	-30.9	-34.2	17.7	6.05e-01	0	43	102	524288	23	5282
2026-01-04 01:58:32.47	22.51	42.17	-29.9	-32.1	19.4	6.03e-01	0	43	102	524288	22	4625
2026-01-04 01:58:35.50	22.69	43.18	-29.7	-32.1	19.7	6.01e-01	0	43	102	524288	21	4722
2026-01-04 01:58:38.53	22.87	44.21	-29.6	-31.8	19.8	6.02e-01	0	43	102	524288	21	4616
2026-01-04 01:58:41.54	23.07	45.27	-29.5	-31.6	20.0	6.04e-01	0	43	102	524288	21	4577
2026-01-04 01:58:44.57	23.28	46.37	-29.7	-32.0	19.7	6.03e-01	0	43	102	524288	21	4705
2026-01-04 01:58:47.59	23.51	47.49	-29.7	-31.9	19.8	6.02e-01	0	43	102	524288	21	4678
2026-01-04 01:58:50.60	23.75	48.64	-29.4	-31.2	20.3	6.03e-01	0	43	102	524288	21	4450
2026-01-04 01:58:53.61	24.01	49.82	-29.7	-32.0	19.8	6.04e-01	0	43	102	524288	21	4675
2026-01-04 01:58:56.64	24.29	51.04	-29.6	-32.2	20.0	6.02e-01	0	43	102	524288	20	4854
2026-01-04 01:58:59.66	24.60	52.29	-29.4	-31.6	20.4	6.02e-01	0	43	102	524288	20	4677
2026-01-04 01:59:02.67	24.93	53.57	-29.0	-31.2	20.9	6.04e-01	0	43	102	524288	19	4647
2026-01-04 01:59:05.70	25.29	54.89	-29.0	-31.1	21.0	6.00e-01	0	43	102	524288	19	4603
2026-01-04 01:59:08.71	25.68	56.24	-29.5	-32.1	20.1	6.02e-01	0	43	102	524288	20	4828
2026-01-04 01:59:11.72	26.12	57.63	-30.0	-33.3	19.4	6.03e-01	0	43	102	524288	20	5237
2026-01-04 01:59:14.75	26.60	59.05	-30.2	-33.3	19.1	6.00e-01	0	43	102	524288	21	5140
2026-01-04 01:59:17.77	27.14	60.50	-30.5	-34.1	18.5	6.03e-01	0	43	102	524288	21	5448
2026-01-04 01:59:20.79	27.74	61.99	-30.8	-34.5	18.1	6.04e-01	0	43	102	524288	22	5466
2026-01-04 01:59:23.82	28.43	63.52	-31.3	-35.1	17.4	6.02e-01	0	43	102	524288	23	5635
2026-01-04 01:59:26.85	29.21	65.07	-31.8	-36.3	16.3	6.02e-01	0	43	102	524288	24	6038
2026-01-04 01:59:29.88	30.10	66.65	-32.3	-37.6	15.0	6.06e-01	0	43	102	524288	25	6613
2026-01-04 01:59:32.90	31.13	68.26	-32.5	-38.3	14.5	6.06e-01	0	43	102	524288	25	7012
2026-01-04 01:59:35.92	32.35	69.89	-32.5	-38.4	14.5	6.02e-01	0	43	102	524288	25	7073
2026-01-04 01:59:38.93	33.79	71.53	-32.5	-37.8	14.6	6.03e-01	0	43	102	524288	26	6636
2026-01-04 01:59:41.94	35.52	73.18	-32.4	-37.2	15.0	6.05e-01	0	43	102	524288	26	6268
2026-01-04 01:59:44.97	37.68	74.85	-31.9	-36.3	16.0	6.05e-01	0	43	102	524288	25	5928
2026-01-04 01:59:47.98	40.36	76.51	-31.6	-35.0	16.9	6.03e-01	0	43	102	524288	25	5357
2026-01-04 01:59:50.99	43.83	78.16	-31.1	-34.0	17.8	6.01e-01	0	43	102	524288	24	5074
2026-01-04 01:59:54.00	48.42	79.76	-30.4	-33.1	19.1	6.01e-01	0	43	102	524288	22	4932
2026-01-04 01:59:57.01	54.69	81.29	-29.9	-32.5	19.7	6.03e-01	0	43	102	524288	21	4847
2026-01-04 02:00:00.03	63.56	82.68	-29.5	-32.0	20.3	6.05e-01	0	43	102	524288	20	4774
2026-01-04 02:00:03.05	76.18	83.83	-29.9	-32.8	19.8	6.02e-01	0	43	102	524288	20	5048
2026-01-04 02:00:06.06	93.30	84.57	-30.2	-33.1	19.5	6.05e-01	0	43	102	524288	21	5028
2026-01-04 02:00:09.08	113.48	84.72	-30.5	-33.9	19.0	6.03e-01	0	43	102	524288	21	5344
2026-01-04 02:00:12.10	132.41	84.23	-31.2	-34.7	18.0	6.00e-01	0	43	102	524288	23	5383
2026-01-04 02:00:15.11	147.01	83.24	-32.1	-37.0	16.1	6.02e-01	0	43	102	524288	24	6321
2026-01-04 02:00:18.12	157.38	81.94	-32.2	-36.8	15.9	6.03e-01	0	43	102	524288	25	6120
2026-01-04 02:00:21.14	164.71	80.45	-31.8	-35.5	16.8	6.03e-01	0	43	102	524288	25	5536
2026-01-04 02:00:24.16	169.98	78.87	-31.9	-36.0	16.5	6.02e-01	0	43	102	524288	25	5727
2026-01-04 02:00:27.18	173.91	77.24	-32.2	-36.8	15.9	6.02e-01	0	43	102	524288	25	6165
2026-01-04 02:00:30.20	176.92	75.58	-32.4	-37.7	15.3	6.03e-01	0	43	102	524288	25	6593
2026-01-04 02:00:33.21	179.27	73.91	-32.6	-37.8	14.7	6.02e-01	0	43	102	524288	26	6560
2026-01-04 02:00:36.23	181.18	72.24	-32.5	-37.3	15.1	6.03e-01	0	43	102	524288	26	6292
2026-01-04 02:00:39.26	182.75	70.58	-32.1	-36.6	16.0	6.03e-01	0	43	102	524288	25	6055
2026-01-04 02:00:42.27	184.05	68.95	-31.9	-35.9	16.5	6.05e-01	0	43	102	524288	25	5700
2026-01-04 02:00:45.30	185.16	67.32	-32.2	-37.0	15.7	6.04e-01	0	43	102	524288	25	6244
2026-01-04 02:00:48.31	186.11	65.74	-31.9	-36.0	16.4	6.01e-01	0	43	102	524288	25	5749
2026-01-04 02:00:51.33	186.93	64.17	-31.3	-34.5	17.6	6.02e-01	0	43	102	524288	24	5247
2026-01-04 02:00:54.36	187.66	62.63	-30.9	-34.1	18.3	6.01e-01	0	43	102	524288	23	5198
2026-01-04 02:00:57.37	188.29	61.13	-30.6	-33.2	18.8	6.03e-01	0	43	102	524288	23	4864
2026-01-04 02:01:00.39	188.86	59.65	-30.8	-33.9	18.3	6.02e-01	0	43	102	524288	23	5145
2026-01-04 02:01:03.40	189.36	58.22	-30.7	-33.5	18.6	6.03e-01	0	43	102	524288	23	4970
2026-01-04 02:01:06.43	189.82	56.81	-31.3	-35.2	17.4	6.03e-01	0	43	102	524288	23	5679
2026-01-04 02:01:09.44	190.23	55.44	-30.7	-33.4	18.7	6.04e-01	0	43	102	524288	23	4941
2026-01-04 02:01:12.45	190.61	54.11	-29.8	-32.2	19.9	6.04e-01	0	43	102	524288	21	4735
2026-01-04 02:01:15.46	190.95	52.81	-29.4	-31.6	20.5	6.02e-01	0	43	102	524288	20	4666
2026-01-04 02:01:18.48	191.26	51.54	-29.7	-32.5	20.0	6.01e-01	0	43	102	524288	20	4950
2026-01-04 02:01:21.50	191.55	50.30	-30.0	-33.3	19.5	6.01e-01	0	43	102	524288	20	5240
2026-01-04 02:01:24.52	191.82	49.10	-30.1	-33.4	19.5	6.05e-01	0	43	102	524288	20	5280
2026-01-04 02:01:27.55	192.07	47.92	-30.2	-33.3	19.2	6.01e-01	0	43	102	524288	21	5129
2026-01-04 02:01:30.57	192.31	46.78	-30.6	-34.3	18.6	6.02e-01	0	43	102	524288	21	5506
2026-01-04 02:01:33.59	192.52	45.67	-30.6	-33.9	18.5	6.03e-01	0	43	102	524288	22	5256
2026-01-04 02:01:36.60	192.72	44.60	-30.6	-33.8	18.6	6.04e-01	0	43	102	524288	22	5220
2026-01-04 02:01:39.62	192.92	43.55	-31.0	-34.9	17.8	6.03e-01	0	43	102	524288	22	5657
2026-01-04 02:01:42.64	193.09	42.53	-30.0	-32.1	19.6	6.03e-01	0	43	102	524288	22	4607
2026-01-04 02:01:45.67	193.26	41.54	-30.5	-33.6	18.6	6.05e-01	0	43	102	524288	22	5144
2026-01-04 02:01:48.69	193.42	40.58	-30.6	-33.9	18.4	6.01e-01	0	43	102	524288	22	5270
2026-01-04 02:01:51.72	193.57	39.64	-30.6	-33.8	18.5	6.03e-01	0	43	102	524288	22	5207
2026-01-04 02:01:54.72	193.71	38.73	-30.6	-33.8	18.5	6.02e-01	0	43	102	524288	22	5230
2026-01-04 02:01:57.73	193.85	37.85	-30.7	-34.2	18.2	6.01e-01	0	43	102	524288	22	5387
2026-01-04 02:02:00.75	193.98	36.98	-30.8	-34.5	18.0	6.04e-01	0	43	102	524288	22	5483
2026-01-04 02:02:03.77	194.10	36.14	-30.7	-34.2	18.2	6.01e-01	0	43	102	524288	22	5379
2026-01-04 02:02:06.78	194.22	35.33	-30.5	-33.6	18.6	6.03e-01	0	43	102	524288	22	5149
2026-01-04 02:02:09.80	194.33	34.53	-30.5	-33.5	18.5	5.99e-01	0	43	102	524288	22	5125
2026-01-04 02:02:12.82	194.44	33.76	-29.5	-31.5	20.1	6.03e-01	0	43	102	524288	21	4526
2026-01-04 02:02:15.84	194.54	33.00	-29.2	-31.2	20.6	6.05e-01	0	43	102	524288	20	4557
2026-01-04 02:02:18.86	194.64	32.27	-29.1	-31.6	20.7	6.03e-01	0	43	102	524288	19	4770
2026-01-04 02:02:21.88	194.73	31.55	-29.3	-32.0	20.5	6.01e-01	0	43	102	524288	19	4905
2026-01-04 02:02:24.90	194.82	30.85	-29.3	-32.0	20.4	6.03e-01	0	43	102	524288	19	4928
2026-01-04 02:02:27.91	194.91	30.18	-29.2	-31.8	20.5	6.02e-01	0	43	102	524288	19	4838
2026-01-04 02:02:30.93	194.99	29.51	-29.3	-32.2	20.3	6.05e-01	0	43	102	524288	19	4981
2026-01-04 02:02:33.95	195.07	28.86	-29.5	-32.6	20.0	6.03e-01	0	43	102	524288	19	5137
2026-01-04 02:02:36.97	195.15	28.23	-29.4	-32.3	20.2	6.02e-01	0	43	102	524288	19	5027
2026-01-04 02:02:39.99	195.23	27.61	-29.5	-32.1	19.9	6.00e-01	0	43	102	524288	20	4870
2026-01-04 02:02:43.02	195.30	27.01	-29.5	-32.6	20.0	6.03e-01	0	43	102	524288	19	5127
2026-01-04 02:02:46.03	195.37	26.42	-29.5	-32.2	19.8	6.03e-01	0	43	102	524288	20	4885
2026-01-04 02:02:49.05	195.44	25.85	-29.6	-32.3	19.7	6.03e-01	0	43	102	524288	20	4910
2026-01-04 02:02:52.06	195.50	25.29	-29.8	-33.0	19.3	6.02e-01	0	43	102	524288	20	5175
2026-01-04 02:02:55.08	195.57	24.74	-29.9	-33.1	19.2	6.05e-01	0	43	102	524288	20	5208
2026-01-04 02:02:58.09	195.63	24.20	-28.8	-32.2	19.1	6.03e-01	0	43	102	524288	20	5334
2026-01-04 02:03:01.11	195.69	23.68	-30.2	-33.4	18.7	6.04e-01	0	43	102	524288	21	5198
2026-01-04 02:03:04.13	195.75	23.16	-30.0	-33.5	19.0	6.01e-01	0	43	102	524288	20	5376
2026-01-04 02:03:07.15	195.80	22.66	-30.1	-33.6	18.9	6.03e-01	0	43	102	524288	20	5402
2026-01-04 02:03:10.18	195.86	22.16	-30.1	-33.3	18.8	6.03e-01	0	43	102	524288	21	5182
2026-01-04 02:03:13.20	195.91	21.68	-30.3	-33.9	18.4	6.01e-01	0	43	102	524288	21	5411
2026-01-04 02:03:16.21	195.97	21.21	-30.1	-33.2	18.8	6.03e-01	0	43	102	524288	21	5150
2026-01-04 02:03:19.23	196.02	20.75	-29.8	-32.5	19.2	6.02e-01	0	43	102	524288	21	4892
2026-01-04 02:03:22.26	196.07	20.29	-29.7	-32.8	19.3	6.06e-01	0	43	102	524288	20	5117
2026-01-04 02:03:25.28	196.12	19.84	-29.7	-32.8	19.3	6.02e-01	0	43	102	524288	20	5110
2026-01-04 02:03:28.30	196.16	19.41	-29.8	-32.8	19.2	6.02e-01	0	43	102	524288	20	5135
2026-01-04 02:03:31.31	196.21	18.98	-29.7	-32.8	19.2	6.02e-01	0	43	102	524288	20	5109
2026-01-04 02:03:34.31	196.26	18.56	-29.8	-33.0	19.0	6.05e-01	0	43	102	524288	20	5205
2026-01-04 02:03:37.34	196.30	18.15	-29.7	-32.6	19.3	6.03e-01	0	43	102	524288	20	5059
2026-01-04 02:03:40.35	196.34	17.74	-29.8	-32.9	19.1	6.02e-01	0	43	102	524288	20	5178
2026-01-04 02:03:43.36	196.39	17.35	-29.7	-32.8	19.1	6.03e-01	0	43	102	524288	20	5153
2026-01-04 02:03:46.37	196.43	16.96	-29.8	-33.1	19.0	6.04e-01	0	43	102	524288	20	5243
2026-01-04 02:03:49.38	196.47	16.57	-29.9	-33.3	18.8	6.00e-01	0	43	102	524288	20	5341
2026-01-04 02:03:52.40	196.51	16.20	-30.0	-33.7	18.5	6.03e-01	0	43	102	524288	20	5478
2026-01-04 02:03:55.41	196.55	15.82	-30.3	-33.9	18.1	6.04e-01	0	43	102	524288	21	5467
2026-01-04 02:03:58.43	196.58	15.46	-30.0	-33.1	18.6	6.03e-01	0	43	102	524288	21	5133
2026-01-04 02:04:01.45	196.62	15.10	-30.1	-33.3	18.4	6.04e-01	0	43	102	524288	21	5239
2026-01-04 02:04:04.47	196.66	14.75	-29.8	-32.6	18.8	6.04e-01	0	43	102	524288	21	4970
2026-01-04 02:04:07.49	196.70	14.40	-29.6	-32.0	19.1	6.04e-01	0	43	102	524288	21	4770
2026-01-04 02:04:10.52	196.73	14.05	-29.5	-31.9	19.2	6.02e-01	0	43	102	524288	21	4743
2026-01-04 02:04:13.54	196.77	13.72	-29.7	-32.3	18.9	6.04e-01	0	43	102	524288	21	4874
2026-01-04 02:04:16.57	196.80	13.38	-29.5	-32.0	19.1	6.02e-01	0	43	102	524288	21	4762
2026-01-04 02:04:19.59	196.83	13.06	-29.5	-32.0	19.1	6.05e-01	0	43	102	524288	21	4763
2026-01-04 02:04:22.61	196.87	12.73	-29.6	-32.1	19.0	6.03e-01	0	43	102	524288	21	4808
2026-01-04 02:04:25.63	196.90	12.42	-29.8	-32.6	18.6	6.04e-01	0	43	102	524288	21	5004
2026-01-04 02:04:28.65	196.93	12.10	-29.9	-32.9	18.4	6.05e-01	0	43	102	524288	21	5106
2026-01-04 02:04:31.67	196.96	11.79	-30.0	-33.3	18.1	6.03e-01	0	43	102	524288	21	5278
2026-01-04 02:04:34.69	196.99	11.49	-29.9	-33.1	18.2	6.03e-01	0	43	102	524288	21	5165
2026-01-04 02:04:37.71	197.03	11.19	-30.0	-33.2	18.2	6.02e-01	0	43	102	524288	21	5214
2026-01-04 02:04:40.72	197.06	10.89	-30.0	-33.2	18.1	6.05e-01	0	43	102	524288	21	5234
2026-01-04 02:04:43.74	197.08	10.60	-30.1	-33.7	17.8	6.00e-01	0	43	102	524288	21	5426
2026-01-04 02:04:46.76	197.11	10.31	-30.1	-33.6	17.8	6.02e-01	0	43	102	524288	21	5385
2026-01-04 02:04:49.78	197.14	10.03	-30.0	-33.4	18.0	6.02e-01	0	43	102	524288	21	5322
2026-01-04 02:04:52.80	197.17	9.74	-30.0	-33.4	17.9	6.02e-01	0	43	102	524288	21	5310
2026-01-04 02:04:55.82	197.20	9.47	-30.0	-33.5	17.8	6.02e-01	0	43	102	524288	21	5378
2026-01-04 02:04:58.83	197.23	9.19	-30.2	-33.8	17.6	6.04e-01	0	43	102	524288	21	5510
2026-01-04 02:05:01.85	197.25	8.92	-30.0	-33.4	17.8	6.04e-01	0	43	102	524288	21	5348
2026-01-04 02:05:04.88	197.28	8.65	-30.0	-33.5	17.8	6.02e-01	0	43	102	524288	21	5369
2026-01-04 02:05:07.89	197.31	8.39	-30.1	-33.6	17.7	6.01e-01	0	43	102	524288	21	5427
2026-01-04 02:05:10.91	197.33	8.13	-30.2	-34.1	17.3	6.02e-01	0	43	102	524288	21	5618
2026-01-04 02:05:13.92	197.36	7.87	-30.3	-34.5	17.0	6.02e-01	0	43	102	524288	21	5808
2026-01-04 02:05:16.95	197.39	7.61	-30.5	-35.1	16.6	6.03e-01	0	43	102	524288	21	6084
2026-01-04 02:05:19.96	197.41	7.36	-30.7	-35.1	16.2	6.03e-01	0	43	102	524288	22	6001
2026-01-04 02:05:22.98	197.44	7.11	-30.7	-35.2	16.2	6.02e-01	0	43	102	524288	22	6042
2026-01-04 02:05:26.00	197.46	6.86	-33.5	-52.7	3.8	7.45e-01	0	43	104	524288	28	32737

#Closed at: 2026-01-04 02:05:26
#Recorded file [0 MB]: D:/data/31010_260104_045706.dat