passes_logs/2026/01/04/R2M6_AANII_01/R2M6_AANII_01__20260104_113049_AQUA_rec.log

#Pass ID: 20260104_113049_AQUA
#Satellite: AQUA
#Configuration: AQUA
#almurnet v.1.7.20240730
#Start time: 2026-01-04 11:30:48

#Version: 2.2.20231116
#Station: R2M6_AANII_01
#Location: 30.233357 lon 59.946436 lat
#TLE: 1 27424U 02022A   25365.92641127  .00002078  00000+0  42628-3 0  9999
#TLE: 2 27424  98.4058 327.1196 0001962  94.7781 340.6230 14.61783896258835

#Time	Az	El	Level	Level2	SNR	BER	BlckErr	Temp	State	Recorded	gain1	gain2
2026-01-04 11:30:48.83	143.22	6.98	-31.6	-38.3	5.0	7.10e-01	0	40	0	0	25	7783
2026-01-04 11:30:51.85	143.12	7.22	-31.6	-37.4	13.1	6.09e-01	0	41	102	524288	25	7066
2026-01-04 11:30:54.86	143.02	7.47	-31.6	-37.6	13.0	6.10e-01	0	41	102	524288	25	7165
2026-01-04 11:30:57.87	142.92	7.72	-31.4	-36.7	13.8	6.07e-01	0	41	102	524288	25	6598
2026-01-04 11:31:00.89	142.82	7.97	-31.4	-37.1	13.9	6.09e-01	0	41	102	524288	24	6969
2026-01-04 11:31:03.91	142.71	8.23	-30.9	-35.1	15.5	6.07e-01	0	41	102	524288	24	5842
2026-01-04 11:31:06.92	142.61	8.48	-30.9	-35.2	15.8	6.06e-01	0	41	102	524288	23	5957
2026-01-04 11:31:09.94	142.50	8.74	-30.8	-34.9	16.1	6.06e-01	0	41	102	524288	23	5815
2026-01-04 11:31:12.95	142.38	9.01	-30.7	-34.5	16.5	6.06e-01	0	41	102	524288	23	5571
2026-01-04 11:31:15.98	142.27	9.28	-30.6	-34.2	16.7	6.07e-01	0	41	102	524288	23	5454
2026-01-04 11:31:19.01	142.15	9.55	-30.5	-34.0	16.9	6.08e-01	0	41	102	524288	23	5357
2026-01-04 11:31:22.04	142.03	9.82	-30.7	-34.4	16.7	6.07e-01	0	42	102	524288	23	5513
2026-01-04 11:31:25.06	141.91	10.10	-30.5	-33.8	17.1	6.05e-01	0	42	102	524288	23	5254
2026-01-04 11:31:28.09	141.78	10.38	-30.5	-34.0	17.0	6.06e-01	0	42	102	524288	23	5331
2026-01-04 11:31:31.11	141.66	10.66	-30.3	-33.8	17.4	6.07e-01	0	42	102	524288	22	5401
2026-01-04 11:31:34.13	141.52	10.95	-30.3	-33.6	17.6	6.05e-01	0	42	102	524288	22	5303
2026-01-04 11:31:37.16	141.39	11.24	-30.4	-33.9	17.4	6.07e-01	0	42	102	524288	22	5415
2026-01-04 11:31:40.18	141.25	11.54	-30.1	-33.1	18.0	6.05e-01	0	42	102	524288	22	5083
2026-01-04 11:31:43.20	141.11	11.84	-30.1	-33.0	18.1	6.08e-01	0	42	102	524288	22	5032
2026-01-04 11:31:46.22	140.97	12.14	-29.9	-32.6	18.3	6.07e-01	0	42	102	524288	22	4900
2026-01-04 11:31:49.25	140.82	12.45	-30.0	-32.9	18.2	6.05e-01	0	42	102	524288	22	5023
2026-01-04 11:31:52.27	140.67	12.76	-30.0	-32.7	18.3	6.05e-01	0	42	102	524288	22	4953
2026-01-04 11:31:55.29	140.52	13.07	-30.0	-32.7	18.4	6.06e-01	0	42	102	524288	22	4939
2026-01-04 11:31:58.31	140.36	13.39	-30.0	-32.8	18.4	6.09e-01	0	42	102	524288	22	4965
2026-01-04 11:32:01.34	140.20	13.72	-30.0	-32.7	18.5	6.04e-01	0	42	102	524288	22	4905
2026-01-04 11:32:04.35	140.03	14.05	-30.0	-32.8	18.4	6.06e-01	0	42	102	524288	22	4937
2026-01-04 11:32:07.36	139.86	14.38	-30.1	-33.0	18.4	6.05e-01	0	42	102	524288	22	5000
2026-01-04 11:32:10.37	139.69	14.71	-30.1	-33.0	18.4	6.06e-01	0	42	102	524288	22	4997
2026-01-04 11:32:13.39	139.51	15.06	-30.1	-32.9	18.4	6.07e-01	0	42	102	524288	22	4982
2026-01-04 11:32:16.42	139.33	15.41	-30.0	-32.5	18.7	6.09e-01	0	42	102	524288	22	4825
2026-01-04 11:32:19.43	139.14	15.76	-29.8	-32.6	19.0	6.06e-01	0	42	102	524288	21	4968
2026-01-04 11:32:22.46	138.95	16.12	-29.9	-32.8	18.9	6.06e-01	0	42	102	524288	21	5046
2026-01-04 11:32:25.49	138.75	16.49	-29.9	-32.9	18.9	6.06e-01	0	42	102	524288	21	5076
2026-01-04 11:32:28.51	138.54	16.86	-30.0	-33.2	18.7	6.06e-01	0	43	102	524288	21	5172
2026-01-04 11:32:31.53	138.33	17.23	-30.0	-33.0	18.9	6.07e-01	0	42	102	524288	21	5095
2026-01-04 11:32:34.55	138.12	17.62	-30.2	-33.4	18.7	6.05e-01	0	43	102	524288	21	5232
2026-01-04 11:32:37.56	137.90	18.00	-30.3	-33.7	18.5	6.07e-01	0	42	102	524288	21	5338
2026-01-04 11:32:40.58	137.67	18.40	-30.1	-33.2	18.8	6.06e-01	0	43	102	524288	21	5168
2026-01-04 11:32:43.60	137.43	18.80	-30.2	-33.3	18.8	6.07e-01	0	42	102	524288	21	5179
2026-01-04 11:32:46.62	137.19	19.21	-30.1	-33.2	18.9	6.06e-01	0	42	102	524288	21	5127
2026-01-04 11:32:49.64	136.94	19.62	-30.1	-33.1	19.0	6.05e-01	0	43	102	524288	21	5103
2026-01-04 11:32:52.66	136.69	20.05	-30.0	-32.9	19.1	6.07e-01	0	43	102	524288	21	5032
2026-01-04 11:32:55.67	136.42	20.47	-30.3	-33.5	18.8	6.05e-01	0	43	102	524288	21	5249
2026-01-04 11:32:58.70	136.15	20.91	-30.2	-33.3	18.9	6.07e-01	0	43	102	524288	21	5167
2026-01-04 11:33:01.70	135.87	21.35	-30.3	-33.5	18.9	6.05e-01	0	42	102	524288	21	5240
2026-01-04 11:33:04.72	135.58	21.81	-30.1	-33.1	19.1	6.06e-01	0	43	102	524288	21	5083
2026-01-04 11:33:07.73	135.28	22.27	-30.2	-33.3	19.0	6.05e-01	0	43	102	524288	21	5150
2026-01-04 11:33:10.76	134.97	22.74	-30.3	-33.6	18.9	6.05e-01	0	43	102	524288	21	5247
2026-01-04 11:33:13.78	134.65	23.22	-30.3	-33.7	18.8	6.05e-01	0	43	102	524288	21	5274
2026-01-04 11:33:16.80	134.32	23.70	-30.4	-33.9	18.7	6.05e-01	0	43	102	524288	21	5369
2026-01-04 11:33:19.82	133.98	24.20	-30.3	-33.6	18.9	6.07e-01	0	43	102	524288	21	5247
2026-01-04 11:33:22.84	133.63	24.71	-30.4	-33.7	18.9	6.07e-01	0	43	102	524288	21	5292
2026-01-04 11:33:25.84	133.27	25.22	-30.3	-33.6	19.0	6.06e-01	0	43	102	524288	21	5232
2026-01-04 11:33:28.86	132.89	25.74	-30.4	-33.9	18.8	6.07e-01	0	43	102	524288	21	5333
2026-01-04 11:33:31.88	132.50	26.28	-30.1	-32.9	19.4	6.05e-01	0	43	102	524288	21	4978
2026-01-04 11:33:34.90	132.09	26.82	-30.1	-33.0	19.4	6.06e-01	0	43	102	524288	21	5005
2026-01-04 11:33:37.92	131.67	27.37	-30.2	-33.2	19.3	6.06e-01	0	43	102	524288	21	5096
2026-01-04 11:33:40.93	131.23	27.94	-30.1	-32.9	19.5	6.04e-01	0	43	102	524288	21	4985
2026-01-04 11:33:43.95	130.78	28.51	-30.0	-32.6	19.8	6.07e-01	0	43	102	524288	21	4854
2026-01-04 11:33:46.96	130.31	29.10	-29.9	-32.2	19.9	6.06e-01	0	43	102	524288	21	4739
2026-01-04 11:33:49.98	129.82	29.70	-29.7	-31.9	20.1	6.06e-01	0	43	102	524288	21	4634
2026-01-04 11:33:53.00	129.31	30.31	-29.8	-32.2	20.0	6.06e-01	0	43	102	524288	21	4723
2026-01-04 11:33:56.02	128.78	30.93	-29.8	-32.2	20.0	6.05e-01	0	43	102	524288	21	4715
2026-01-04 11:33:59.03	128.22	31.56	-29.9	-32.4	19.9	6.07e-01	0	43	102	524288	21	4803
2026-01-04 11:34:02.06	127.65	32.21	-30.2	-33.1	19.5	6.06e-01	0	43	102	524288	21	5030
2026-01-04 11:34:05.09	127.04	32.86	-30.4	-33.6	19.2	6.08e-01	0	43	102	524288	21	5189
2026-01-04 11:34:08.11	126.42	33.53	-30.3	-33.4	19.4	6.07e-01	0	43	102	524288	21	5126
2026-01-04 11:34:11.13	125.76	34.21	-30.1	-32.9	19.7	6.06e-01	0	43	102	524288	21	4936
2026-01-04 11:34:14.15	125.08	34.90	-30.6	-33.7	18.9	6.03e-01	0	43	102	524288	22	5122
2026-01-04 11:34:17.17	124.37	35.61	-30.8	-34.1	18.7	6.07e-01	0	43	102	524288	22	5269
2026-01-04 11:34:20.20	123.62	36.32	-30.9	-34.3	18.6	6.06e-01	0	43	102	524288	22	5334
2026-01-04 11:34:23.22	122.84	37.05	-31.1	-34.3	18.3	6.05e-01	0	43	102	524288	23	5246
2026-01-04 11:34:26.23	122.02	37.78	-31.3	-34.9	17.9	6.06e-01	0	43	102	524288	23	5480
2026-01-04 11:34:29.26	121.16	38.53	-31.3	-34.9	18.0	6.07e-01	0	43	102	524288	23	5467
2026-01-04 11:34:32.28	120.26	39.29	-31.4	-35.4	17.6	6.06e-01	0	43	102	524288	23	5675
2026-01-04 11:34:35.30	119.31	40.06	-31.5	-35.6	17.5	6.06e-01	0	43	102	524288	23	5742
2026-01-04 11:34:38.32	118.32	40.83	-31.3	-35.0	17.9	6.05e-01	0	43	102	524288	23	5513
2026-01-04 11:34:41.35	117.28	41.61	-31.4	-35.4	17.7	6.07e-01	0	43	102	524288	23	5642
2026-01-04 11:34:44.37	116.18	42.40	-31.7	-35.7	17.2	6.06e-01	0	43	102	524288	24	5661
2026-01-04 11:34:47.39	115.03	43.20	-31.6	-35.2	17.5	6.09e-01	0	43	102	524288	24	5467
2026-01-04 11:34:50.41	113.82	44.00	-31.8	-36.0	17.1	6.08e-01	0	43	102	524288	24	5795
2026-01-04 11:34:53.44	112.54	44.80	-31.2	-34.2	18.2	6.06e-01	0	43	102	524288	24	5053
2026-01-04 11:34:56.46	111.20	45.60	-31.2	-34.1	18.2	6.08e-01	0	43	102	524288	24	5042
2026-01-04 11:34:59.47	109.79	46.40	-31.1	-33.7	18.5	6.07e-01	0	43	102	524288	24	4894
2026-01-04 11:35:02.50	108.30	47.20	-31.0	-33.5	18.7	6.04e-01	0	43	102	524288	24	4812
2026-01-04 11:35:05.52	106.73	47.98	-31.0	-33.6	18.5	6.07e-01	0	43	102	524288	24	4865
2026-01-04 11:35:08.54	105.09	48.76	-31.1	-33.9	18.4	6.06e-01	0	43	102	524288	24	4965
2026-01-04 11:35:11.56	103.35	49.53	-31.3	-34.3	18.2	6.07e-01	0	43	102	524288	24	5111
2026-01-04 11:35:14.59	101.52	50.28	-31.0	-34.2	18.5	6.07e-01	0	43	102	524288	23	5157
2026-01-04 11:35:17.60	99.61	51.01	-30.8	-33.5	18.9	6.06e-01	0	43	102	524288	23	4918
2026-01-04 11:35:20.61	97.60	51.72	-30.5	-32.6	19.5	6.08e-01	0	43	102	524288	23	4599
2026-01-04 11:35:23.64	95.49	52.40	-30.6	-33.6	19.2	6.06e-01	0	43	102	524288	22	5051
2026-01-04 11:35:26.65	93.28	53.04	-31.2	-34.6	18.3	6.07e-01	0	43	102	524288	23	5318
2026-01-04 11:35:29.66	90.99	53.65	-31.2	-34.6	18.3	6.08e-01	0	43	102	524288	23	5313
2026-01-04 11:35:32.69	88.58	54.22	-31.1	-34.4	18.4	6.08e-01	0	43	102	524288	23	5245
2026-01-04 11:35:35.71	86.08	54.74	-30.8	-33.5	18.9	6.09e-01	0	43	102	524288	23	4924
2026-01-04 11:35:38.74	83.49	55.22	-30.7	-33.3	19.1	6.07e-01	0	43	102	524288	23	4827
2026-01-04 11:35:41.76	80.82	55.63	-31.0	-34.1	18.7	6.08e-01	0	43	102	524288	23	5129
2026-01-04 11:35:44.78	78.07	55.99	-31.0	-34.1	18.6	6.06e-01	0	43	102	524288	23	5116
2026-01-04 11:35:47.80	75.26	56.28	-30.7	-33.3	19.1	6.05e-01	0	43	102	524288	23	4843
2026-01-04 11:35:50.82	72.40	56.50	-31.0	-33.9	18.8	6.07e-01	0	43	102	524288	23	5054
2026-01-04 11:35:53.85	69.49	56.66	-31.3	-34.9	18.1	6.05e-01	0	43	102	524288	23	5441
2026-01-04 11:35:56.87	66.57	56.75	-30.8	-33.6	18.9	6.07e-01	0	43	102	524288	23	4929
2026-01-04 11:35:59.88	63.64	56.76	-31.2	-34.5	18.4	6.08e-01	0	43	102	524288	23	5291
2026-01-04 11:36:02.91	60.70	56.70	-31.1	-34.2	18.5	6.08e-01	0	43	102	524288	23	5182
2026-01-04 11:36:05.93	57.78	56.57	-31.4	-35.1	18.0	6.08e-01	0	43	102	524288	23	5519
2026-01-04 11:36:08.94	54.92	56.37	-31.3	-34.8	18.1	6.07e-01	0	43	102	524288	23	5412
2026-01-04 11:36:11.96	52.09	56.10	-31.2	-34.7	18.2	6.03e-01	0	43	102	524288	23	5378
2026-01-04 11:36:14.97	49.33	55.77	-30.9	-34.2	18.8	6.08e-01	0	43	102	524288	22	5294
2026-01-04 11:36:17.99	46.64	55.38	-30.7	-33.8	19.1	6.05e-01	0	43	102	524288	22	5143
2026-01-04 11:36:21.01	44.02	54.93	-30.4	-33.0	19.6	6.06e-01	0	43	102	524288	22	4846
2026-01-04 11:36:24.03	41.50	54.43	-30.4	-33.1	19.5	6.05e-01	0	43	102	524288	22	4889
2026-01-04 11:36:27.04	39.07	53.88	-30.5	-33.2	19.4	6.05e-01	0	43	102	524288	22	4912
2026-01-04 11:36:30.06	36.73	53.29	-30.6	-33.5	19.2	6.06e-01	0	43	102	524288	22	5035
2026-01-04 11:36:33.08	34.49	52.66	-30.5	-33.4	19.3	6.07e-01	0	43	102	524288	22	4976
2026-01-04 11:36:36.09	32.35	51.99	-30.7	-33.6	19.1	6.04e-01	0	43	102	524288	22	5081
2026-01-04 11:36:39.11	30.31	51.30	-30.7	-33.3	19.0	6.06e-01	0	43	102	524288	23	4854
2026-01-04 11:36:42.12	28.36	50.58	-30.9	-33.8	18.7	6.07e-01	0	43	102	524288	23	5038
2026-01-04 11:36:45.14	26.51	49.84	-30.4	-32.6	19.4	6.07e-01	0	43	102	524288	23	4626
2026-01-04 11:36:48.16	24.74	49.08	-30.1	-32.1	20.0	6.06e-01	0	43	102	524288	22	4570
2026-01-04 11:36:51.19	23.06	48.30	-30.3	-32.8	19.6	6.06e-01	0	43	102	524288	22	4801
2026-01-04 11:36:54.21	21.46	47.52	-30.3	-32.8	19.6	6.07e-01	0	43	102	524288	22	4799
2026-01-04 11:36:57.23	19.95	46.73	-30.3	-32.7	19.6	6.05e-01	0	43	102	524288	22	4756
2026-01-04 11:37:00.25	18.51	45.93	-30.0	-31.9	20.1	6.05e-01	0	43	102	524288	22	4510
2026-01-04 11:37:03.26	17.15	45.14	-30.4	-33.1	19.3	6.07e-01	0	43	102	524288	22	4912
2026-01-04 11:37:06.28	15.85	44.34	-30.0	-32.5	20.1	6.08e-01	0	43	102	524288	21	4799
2026-01-04 11:37:09.31	14.62	43.54	-30.2	-33.0	19.7	6.02e-01	0	43	102	524288	21	4992
2026-01-04 11:37:12.32	13.45	42.75	-30.4	-33.5	19.4	6.01e-01	0	43	102	524288	21	5139
2026-01-04 11:37:15.34	12.33	41.96	-30.2	-32.6	19.6	6.04e-01	0	43	102	524288	22	4737
2026-01-04 11:37:18.35	11.28	41.19	-30.4	-33.1	19.3	6.00e-01	0	43	102	524288	22	4908
2026-01-04 11:37:21.37	10.27	40.41	-31.0	-34.1	18.3	5.98e-01	0	43	102	524288	23	5168
2026-01-04 11:37:24.39	9.31	39.64	-31.3	-35.0	17.9	6.01e-01	0	43	102	524288	23	5498
2026-01-04 11:37:27.41	8.40	38.89	-31.3	-35.0	17.8	6.02e-01	0	43	102	524288	23	5514
2026-01-04 11:37:30.43	7.52	38.14	-30.9	-33.9	18.5	6.01e-01	0	43	102	524288	23	5091
2026-01-04 11:37:33.45	6.69	37.40	-30.9	-34.0	18.5	6.00e-01	0	43	102	524288	23	5107
2026-01-04 11:37:36.47	5.90	36.67	-31.0	-34.2	18.2	6.00e-01	0	43	102	524288	23	5201
2026-01-04 11:37:39.50	5.14	35.96	-31.0	-34.3	18.2	6.01e-01	0	43	102	524288	23	5227
2026-01-04 11:37:42.52	4.41	35.25	-31.0	-34.1	18.3	6.00e-01	0	43	102	524288	23	5183
2026-01-04 11:37:45.53	3.72	34.56	-31.0	-34.3	18.2	6.00e-01	0	43	102	524288	23	5258
2026-01-04 11:37:48.55	3.06	33.88	-30.7	-33.5	18.7	6.00e-01	0	43	102	524288	23	4954
2026-01-04 11:37:51.58	2.42	33.21	-30.3	-33.0	19.2	6.03e-01	0	43	102	524288	22	4868
2026-01-04 11:37:54.60	1.81	32.55	-30.2	-32.6	19.5	6.02e-01	0	43	102	524288	22	4758
2026-01-04 11:37:57.62	1.23	31.90	-30.3	-32.9	19.3	6.01e-01	0	43	102	524288	22	4840
2026-01-04 11:38:00.64	0.67	31.27	-29.6	-31.6	20.3	6.01e-01	0	43	102	524288	21	4540
2026-01-04 11:38:03.67	0.13	30.64	-29.8	-32.0	20.1	6.00e-01	0	43	102	524288	21	4662
2026-01-04 11:38:06.69	359.61	30.03	-29.8	-32.1	20.0	5.99e-01	0	43	102	524288	21	4681
2026-01-04 11:38:09.71	359.12	29.43	-29.9	-32.3	19.9	5.99e-01	0	43	102	524288	21	4766
2026-01-04 11:38:12.73	358.64	28.84	-29.9	-32.3	19.9	6.00e-01	0	43	102	524288	21	4764
2026-01-04 11:38:15.74	358.18	28.26	-30.0	-32.6	19.7	6.02e-01	0	43	102	524288	21	4852
2026-01-04 11:38:18.77	357.74	27.69	-29.8	-32.2	19.9	6.00e-01	0	43	102	524288	21	4723
2026-01-04 11:38:21.80	357.31	27.13	-30.0	-32.7	19.6	6.01e-01	0	43	102	524288	21	4883
2026-01-04 11:38:24.81	356.90	26.59	-30.3	-33.5	19.2	6.02e-01	0	43	102	524288	21	5174
2026-01-04 11:38:27.82	356.51	26.06	-30.4	-33.7	19.0	5.98e-01	0	43	102	524288	21	5260
2026-01-04 11:38:30.84	356.12	25.53	-30.2	-33.2	19.3	6.01e-01	0	43	102	524288	21	5059
2026-01-04 11:38:33.87	355.75	25.01	-30.2	-33.1	19.3	6.01e-01	0	43	102	524288	21	5050
2026-01-04 11:38:36.88	355.40	24.50	-30.3	-33.4	19.1	6.00e-01	0	43	102	524288	21	5149
2026-01-04 11:38:39.91	355.05	24.01	-30.3	-33.5	19.0	6.02e-01	0	43	102	524288	21	5191
2026-01-04 11:38:42.92	354.72	23.52	-30.5	-34.0	18.7	5.99e-01	0	43	102	524288	21	5386
2026-01-04 11:38:45.95	354.40	23.04	-30.3	-33.5	19.0	6.02e-01	0	43	102	524288	21	5201
2026-01-04 11:38:48.97	354.09	22.57	-30.3	-33.4	19.0	6.01e-01	0	43	102	524288	21	5177
2026-01-04 11:38:51.98	353.79	22.10	-30.3	-33.5	19.0	5.99e-01	0	43	102	524288	21	5202
2026-01-04 11:38:54.99	353.50	21.65	-30.5	-34.0	18.7	6.01e-01	0	43	102	524288	21	5408
2026-01-04 11:38:58.02	353.21	21.20	-30.4	-33.6	18.9	6.02e-01	0	43	102	524288	21	5252
2026-01-04 11:39:01.03	352.94	20.76	-30.4	-33.7	18.9	5.96e-01	0	43	102	524288	21	5266
2026-01-04 11:39:04.05	352.68	20.33	-30.3	-33.4	19.0	6.01e-01	0	43	102	524288	21	5168
2026-01-04 11:39:07.07	352.42	19.91	-30.3	-33.5	19.0	6.02e-01	0	43	102	524288	21	5188
2026-01-04 11:39:10.09	352.17	19.49	-30.3	-33.6	18.8	6.01e-01	0	43	102	524288	21	5254
2026-01-04 11:39:13.11	351.93	19.08	-30.4	-33.8	18.7	6.01e-01	0	43	102	524288	21	5335
2026-01-04 11:39:16.12	351.69	18.68	-30.5	-34.2	18.4	6.00e-01	0	43	102	524288	21	5476
2026-01-04 11:39:19.14	351.46	18.29	-30.2	-33.4	18.9	6.02e-01	0	43	102	524288	21	5189
2026-01-04 11:39:22.15	351.24	17.90	-30.2	-33.4	18.9	6.01e-01	0	43	102	524288	21	5204
2026-01-04 11:39:25.18	351.02	17.51	-30.2	-33.4	18.8	6.01e-01	0	43	102	524288	21	5205
2026-01-04 11:39:28.20	350.81	17.13	-30.3	-33.6	18.7	6.00e-01	0	43	102	524288	21	5284
2026-01-04 11:39:31.22	350.61	16.76	-30.0	-32.9	19.1	6.01e-01	0	43	102	524288	21	5030
2026-01-04 11:39:34.24	350.41	16.40	-30.1	-33.2	18.7	6.02e-01	0	43	102	524288	21	5169
2026-01-04 11:39:37.26	350.22	16.04	-30.1	-33.4	18.5	5.99e-01	0	43	102	524288	21	5247
2026-01-04 11:39:40.28	350.03	15.68	-30.1	-33.5	18.1	6.01e-01	0	43	102	524288	21	5374
2026-01-04 11:39:43.30	349.85	15.33	-29.6	-33.5	17.1	6.00e-01	0	43	102	524288	21	5641
2026-01-04 11:39:46.32	349.67	14.99	-30.2	-34.3	17.4	6.03e-01	0	43	102	524288	21	5801
2026-01-04 11:39:49.34	349.49	14.65	-30.0	-33.6	18.1	6.02e-01	0	43	102	524288	21	5412
2026-01-04 11:39:52.36	349.32	14.31	-28.5	-33.3	16.3	6.00e-01	0	43	102	524288	19	6259
2026-01-04 11:39:55.38	349.16	13.98	-26.1	-32.9	14.3	6.04e-01	0	43	102	524288	14	7947
2026-01-04 11:39:58.39	349.00	13.66	-27.0	-33.8	15.3	6.02e-01	0	43	102	524288	14	7849
2026-01-04 11:40:01.42	348.84	13.34	-29.6	-34.4	17.3	6.01e-01	0	43	102	524288	19	6294
2026-01-04 11:40:04.43	348.69	13.02	-29.8	-33.6	18.1	6.00e-01	0	43	102	524288	20	5626
2026-01-04 11:40:07.45	348.54	12.71	-30.1	-34.0	18.2	6.01e-01	0	43	102	524288	20	5669
2026-01-04 11:40:10.48	348.39	12.40	-30.4	-34.0	18.2	6.01e-01	0	43	102	524288	21	5454
2026-01-04 11:40:13.51	348.25	12.10	-30.3	-33.8	18.2	6.02e-01	0	43	102	524288	21	5407
2026-01-04 11:40:16.53	348.11	11.80	-30.4	-34.0	18.1	6.00e-01	0	43	102	524288	21	5475
2026-01-04 11:40:19.55	347.97	11.50	-30.3	-33.7	18.4	6.00e-01	0	43	102	524288	21	5322
2026-01-04 11:40:22.56	347.84	11.21	-30.4	-34.0	18.2	6.01e-01	0	43	102	524288	21	5476
2026-01-04 11:40:25.59	347.71	10.93	-30.3	-33.9	18.3	6.01e-01	0	43	102	524288	21	5426
2026-01-04 11:40:28.61	347.58	10.64	-30.4	-34.0	18.1	6.02e-01	0	43	102	524288	21	5489
2026-01-04 11:40:31.64	347.46	10.36	-30.5	-34.3	17.9	6.00e-01	0	43	102	524288	21	5585
2026-01-04 11:40:34.66	347.34	10.08	-30.5	-34.3	17.9	6.00e-01	0	43	102	524288	21	5612
2026-01-04 11:40:37.68	347.22	9.81	-30.6	-34.6	17.6	6.01e-01	0	43	102	524288	21	5729
2026-01-04 11:40:40.70	347.11	9.54	-30.7	-34.6	17.4	6.04e-01	0	43	102	524288	22	5625
2026-01-04 11:40:43.72	346.99	9.27	-30.7	-34.5	17.4	5.99e-01	0	43	102	524288	22	5574
2026-01-04 11:40:46.73	346.88	9.00	-30.8	-34.9	17.1	6.00e-01	0	43	102	524288	22	5760
2026-01-04 11:40:49.75	346.77	8.74	-30.7	-34.6	17.3	6.00e-01	0	43	102	524288	22	5617
2026-01-04 11:40:52.77	346.67	8.48	-30.7	-34.7	17.2	6.02e-01	0	43	102	524288	22	5673
2026-01-04 11:40:55.78	346.56	8.23	-30.7	-34.6	17.2	6.02e-01	0	43	102	524288	22	5656
2026-01-04 11:40:58.80	346.46	7.97	-30.8	-34.8	17.0	5.99e-01	0	43	102	524288	22	5741
2026-01-04 11:41:01.82	346.36	7.72	-30.8	-34.9	16.9	6.01e-01	0	43	102	524288	22	5780
2026-01-04 11:41:04.84	346.27	7.47	-30.8	-35.1	16.8	5.96e-01	0	43	102	524288	22	5873
2026-01-04 11:41:07.86	346.17	7.23	-30.7	-34.8	17.0	6.00e-01	0	43	102	524288	22	5745
2026-01-04 11:41:10.87	346.08	6.99	-33.9	-52.7	3.8	7.46e-01	0	43	104	524288	28	31317

#Closed at: 2026-01-04 11:41:11
#Recorded file [0 MB]: D:/data/31010_260104_143050.dat