passes_logs/2026/01/04/R2M6_AANII_01/R2M6_AANII_01__20260104_225240_NOAA_21_JPSS-2_rec.log

#Pass ID: 20260104_225240_NOAA 21 (JPSS-2)
#Satellite: NOAA 21 (JPSS-2)
#Configuration: NOAA 21
#almurnet v.1.7.20240730
#Start time: 2026-01-04 22:52:41

#Version: 2.2.20231116
#Station: R2M6_AANII_01
#Location: 30.233357 lon 59.946436 lat
#TLE: 1 54234U 22150A   26004.22845673  .00000174  00000+0  10347-3 0  9996
#TLE: 2 54234  98.7489 305.2591 0001115 345.0884  15.0259 14.19531906163281

#Time	Az	El	Level	Level2	SNR	BER	BlckErr	Temp	State	Recorded	gain1	gain2
2026-01-04 22:52:41.34	28.41	7.03	-31.1	-37.1	4.3	1.43e+00	0	41	0	0	22	7220
2026-01-04 22:52:44.36	28.67	7.23	-31.8	-39.0	5.0	6.38e-01	0	41	102	1048576	23	8226
2026-01-04 22:52:47.37	28.93	7.43	-31.6	-38.0	5.5	5.33e-01	0	41	102	1048576	23	7480
2026-01-04 22:52:50.39	29.20	7.63	-30.9	-35.6	7.4	1.28e-01	0	41	102	1048576	22	6139
2026-01-04 22:52:53.40	29.47	7.83	-30.1	-33.7	9.4	1.88e-02	0	41	102	1048576	20	5460
2026-01-04 22:52:56.43	29.74	8.03	-29.5	-32.4	10.8	2.88e-03	0	41	102	1048576	19	5055
2026-01-04 22:52:59.45	30.02	8.23	-29.3	-32.0	11.0	2.28e-03	0	41	102	1048576	19	4913
2026-01-04 22:53:02.47	30.30	8.44	-29.1	-31.9	11.6	8.86e-04	0	42	102	1048576	18	4951
2026-01-04 22:53:05.47	30.58	8.64	-28.8	-31.7	12.0	3.55e-04	0	42	102	1048576	17	4989
2026-01-04 22:53:08.48	30.87	8.84	-29.0	-31.4	11.8	4.98e-04	0	42	102	1048576	18	4797
2026-01-04 22:53:11.50	31.16	9.05	-28.7	-31.2	12.4	1.36e-04	0	42	102	1048576	17	4808
2026-01-04 22:53:14.52	31.46	9.26	-28.9	-31.6	12.2	2.27e-04	0	42	102	1048576	17	4950
2026-01-04 22:53:17.54	31.76	9.47	-28.8	-31.5	12.3	2.07e-04	0	42	102	1048576	17	4909
2026-01-04 22:53:20.56	32.06	9.68	-28.8	-31.4	12.4	1.67e-04	0	42	102	1048576	17	4869
2026-01-04 22:53:23.58	32.37	9.89	-28.6	-30.9	12.7	9.91e-05	0	42	102	1048576	17	4711
2026-01-04 22:53:26.60	32.69	10.10	-28.6	-30.9	12.7	7.55e-05	0	42	102	1048576	17	4700
2026-01-04 22:53:29.63	33.00	10.32	-28.5	-30.8	12.8	6.33e-05	0	42	102	1048576	17	4672
2026-01-04 22:53:32.64	33.33	10.53	-28.4	-30.5	13.0	4.50e-05	0	42	102	1048576	17	4563
2026-01-04 22:53:35.66	33.65	10.75	-28.3	-30.3	13.1	2.67e-05	0	42	102	1048576	17	4516
2026-01-04 22:53:38.68	33.98	10.96	-28.4	-30.3	13.1	2.59e-05	0	42	102	1048576	17	4516
2026-01-04 22:53:41.71	34.32	11.18	-28.4	-30.6	13.0	6.79e-05	0	42	102	1048576	17	4590
2026-01-04 22:53:44.73	34.66	11.40	-28.4	-30.9	13.1	4.04e-05	0	42	102	1048576	16	4816
2026-01-04 22:53:47.75	35.01	11.62	-28.2	-30.5	13.4	1.67e-05	0	42	102	1048576	16	4674
2026-01-04 22:53:50.77	35.36	11.84	-28.1	-30.1	13.6	1.22e-05	0	42	102	1048576	16	4566
2026-01-04 22:53:53.80	35.71	12.07	-28.3	-30.7	13.2	2.44e-05	0	43	102	1048576	16	4756
2026-01-04 22:53:56.81	36.07	12.29	-28.5	-30.6	13.0	3.28e-05	0	42	102	1048576	17	4619
2026-01-04 22:53:59.82	36.44	12.51	-28.4	-30.5	13.1	3.35e-05	0	43	102	1048576	17	4558
2026-01-04 22:54:02.84	36.81	12.74	-28.3	-30.1	13.4	6.25e-05	0	43	102	1048576	17	4431
2026-01-04 22:54:05.86	37.19	12.96	-28.3	-30.1	13.3	1.90e-05	0	43	102	1048576	17	4454
2026-01-04 22:54:08.87	37.57	13.19	-28.3	-30.1	13.4	1.75e-05	0	42	102	1048576	17	4434
2026-01-04 22:54:11.89	37.96	13.42	-28.4	-30.3	13.2	2.51e-05	0	43	102	1048576	17	4517
2026-01-04 22:54:14.91	38.35	13.65	-28.4	-30.3	13.3	2.13e-05	0	42	102	1048576	17	4513
2026-01-04 22:54:17.93	38.75	13.88	-28.2	-30.0	13.5	1.06e-05	0	42	102	1048576	17	4421
2026-01-04 22:54:20.96	39.16	14.11	-28.2	-29.8	13.6	7.60e-06	0	43	102	1048576	17	4361
2026-01-04 22:54:23.97	39.57	14.34	-28.4	-30.4	13.3	1.67e-05	0	43	102	1048576	17	4537
2026-01-04 22:54:26.98	39.99	14.57	-28.2	-29.8	13.7	6.80e-06	0	43	102	1048576	17	4334
2026-01-04 22:54:29.99	40.41	14.81	-28.2	-30.4	13.6	5.30e-06	0	43	102	1048576	16	4636
2026-01-04 22:54:33.01	40.85	15.04	-28.4	-30.8	13.4	1.22e-05	0	43	102	1048576	16	4759
2026-01-04 22:54:36.03	41.28	15.28	-28.5	-31.0	13.3	2.36e-05	0	43	102	1048576	16	4819
2026-01-04 22:54:39.04	41.73	15.51	-28.4	-30.8	13.4	1.06e-05	0	43	102	1048576	16	4759
2026-01-04 22:54:42.06	42.18	15.75	-28.5	-30.7	13.2	1.83e-05	0	43	102	1048576	17	4607
2026-01-04 22:54:45.08	42.64	15.99	-28.6	-30.8	13.1	2.44e-05	0	43	102	1048576	17	4641
2026-01-04 22:54:48.10	43.11	16.23	-28.5	-30.7	13.2	2.67e-05	0	43	102	1048576	17	4605
2026-01-04 22:54:51.13	43.58	16.46	-28.3	-30.1	13.6	1.44e-05	0	43	102	1048576	17	4435
2026-01-04 22:54:54.14	44.06	16.70	-28.4	-30.3	13.5	5.30e-06	0	43	102	1048576	17	4483
2026-01-04 22:54:57.17	44.55	16.94	-28.7	-31.0	12.9	2.34e-04	0	43	102	1048576	17	4695
2026-01-04 22:55:00.19	45.05	17.18	-28.8	-31.2	12.9	4.73e-05	0	43	102	1048576	17	4769
2026-01-04 22:55:03.21	45.55	17.42	-28.6	-30.7	13.3	2.43e-04	0	43	102	1048576	17	4612
2026-01-04 22:55:06.23	46.06	17.66	-28.6	-30.7	13.3	1.90e-05	0	43	102	1048576	17	4604
2026-01-04 22:55:09.25	46.58	17.91	-28.7	-30.9	13.2	1.79e-04	0	43	102	1048576	17	4679
2026-01-04 22:55:12.27	47.11	18.15	-28.6	-30.7	13.3	4.45e-04	0	43	102	1048576	17	4610
2026-01-04 22:55:15.30	47.65	18.39	-28.5	-30.6	13.4	3.06e-04	0	43	102	1048576	17	4564
2026-01-04 22:55:18.32	48.19	18.63	-28.6	-30.7	13.3	3.02e-04	0	43	102	1048576	17	4593
2026-01-04 22:55:21.34	48.74	18.87	-28.6	-30.9	13.2	1.11e-03	0	43	102	1048576	17	4650
2026-01-04 22:55:24.36	49.30	19.11	-28.4	-30.3	13.6	1.62e-04	0	43	102	1048576	17	4487
2026-01-04 22:55:27.38	49.87	19.35	-28.3	-30.0	13.7	5.30e-06	0	43	102	1048576	17	4398
2026-01-04 22:55:30.39	50.45	19.59	-28.2	-29.7	13.9	7.55e-05	0	43	102	1048576	17	4307
2026-01-04 22:55:33.41	51.04	19.83	-28.1	-29.6	14.0	3.00e-06	0	43	102	1048576	17	4264
2026-01-04 22:55:36.43	51.63	20.07	-28.0	-29.4	14.2	3.80e-06	0	43	102	1048576	17	4216
2026-01-04 22:55:39.45	52.24	20.30	-27.6	-29.4	14.6	1.50e-06	0	43	102	1048576	15	4435
2026-01-04 22:55:42.47	52.86	20.54	-27.7	-29.7	14.4	0.00e+00	0	43	102	1048576	15	4511
2026-01-04 22:55:45.49	53.48	20.78	-27.7	-29.6	14.5	0.00e+00	0	43	102	1048576	15	4478
2026-01-04 22:55:48.49	54.11	21.01	-27.7	-29.6	14.5	0.00e+00	0	43	102	1048576	15	4505
2026-01-04 22:55:51.51	54.75	21.24	-27.8	-29.8	14.4	7.00e-07	0	43	102	1048576	15	4553
2026-01-04 22:55:54.53	55.40	21.47	-27.7	-29.6	14.5	2.20e-06	0	43	102	1048576	15	4495
2026-01-04 22:55:57.54	56.06	21.70	-27.6	-29.5	14.6	0.00e+00	0	43	102	1048576	15	4452
2026-01-04 22:56:00.56	56.74	21.93	-27.7	-29.7	14.4	0.00e+00	0	43	102	1048576	15	4528
2026-01-04 22:56:03.58	57.42	22.16	-27.3	-28.7	15.0	0.00e+00	0	43	102	1048576	15	4248
2026-01-04 22:56:06.61	58.11	22.38	-27.3	-28.7	15.0	0.00e+00	0	43	102	1048576	15	4251
2026-01-04 22:56:09.63	58.81	22.60	-27.3	-28.8	14.9	0.00e+00	0	43	102	1048576	15	4269
2026-01-04 22:56:12.66	59.53	22.82	-27.3	-29.1	15.1	0.00e+00	0	43	102	1048576	14	4458
2026-01-04 22:56:15.67	60.24	23.04	-27.2	-28.9	15.2	0.00e+00	0	43	102	1048576	14	4412
2026-01-04 22:56:18.70	60.98	23.25	-27.3	-29.2	15.0	0.00e+00	0	43	102	1048576	14	4485
2026-01-04 22:56:21.72	61.72	23.46	-27.5	-29.6	14.8	0.00e+00	0	43	102	1048576	14	4606
2026-01-04 22:56:24.74	62.47	23.67	-27.3	-29.3	15.0	0.00e+00	0	43	102	1048576	14	4499
2026-01-04 22:56:27.75	63.23	23.88	-27.5	-29.1	14.8	0.00e+00	0	43	102	1048576	15	4344
2026-01-04 22:56:30.77	64.00	24.08	-27.6	-29.5	14.6	1.50e-06	0	43	102	1048576	15	4471
2026-01-04 22:56:33.79	64.78	24.27	-27.6	-29.4	14.7	0.00e+00	0	43	102	1048576	15	4431
2026-01-04 22:56:36.81	65.56	24.47	-27.7	-29.7	14.5	1.50e-06	0	43	102	1048576	15	4531
2026-01-04 22:56:39.83	66.36	24.65	-27.9	-30.1	14.3	1.50e-06	0	43	102	1048576	15	4627
2026-01-04 22:56:42.86	67.17	24.84	-27.8	-29.8	14.5	0.00e+00	0	44	102	1048576	15	4546
2026-01-04 22:56:45.87	67.99	25.02	-27.7	-29.7	14.5	0.00e+00	0	43	102	1048576	15	4530
2026-01-04 22:56:48.89	68.81	25.19	-27.8	-29.9	14.4	0.00e+00	0	43	102	1048576	15	4579
2026-01-04 22:56:51.92	69.65	25.36	-27.7	-29.5	14.6	0.00e+00	0	43	102	1048576	15	4468
2026-01-04 22:56:54.93	70.49	25.52	-27.8	-29.8	14.4	7.00e-07	0	43	102	1048576	15	4561
2026-01-04 22:56:57.95	71.34	25.68	-27.8	-29.8	14.4	0.00e+00	0	43	102	1048576	15	4553
2026-01-04 22:57:00.98	72.21	25.84	-27.7	-29.6	14.6	7.00e-07	0	43	102	1048576	15	4478
2026-01-04 22:57:03.99	73.07	25.98	-27.5	-29.2	14.8	7.00e-07	0	43	102	1048576	15	4382
2026-01-04 22:57:07.02	73.95	26.12	-27.6	-29.4	14.7	0.00e+00	0	43	102	1048576	15	4441
2026-01-04 22:57:10.03	74.83	26.26	-27.6	-29.4	14.7	7.00e-07	0	43	102	1048576	15	4427
2026-01-04 22:57:13.05	75.72	26.38	-27.7	-29.5	14.6	0.00e+00	0	43	102	1048576	15	4463
2026-01-04 22:57:16.07	76.62	26.51	-27.6	-29.3	14.8	0.00e+00	0	43	102	1048576	15	4392
2026-01-04 22:57:19.09	77.53	26.62	-27.6	-29.5	14.7	0.00e+00	0	43	102	1048576	15	4457
2026-01-04 22:57:22.11	78.44	26.73	-27.8	-29.9	14.4	0.00e+00	0	43	102	1048576	15	4572
2026-01-04 22:57:25.13	79.36	26.83	-27.6	-29.3	14.8	0.00e+00	0	43	102	1048576	15	4401
2026-01-04 22:57:28.15	80.28	26.92	-27.5	-29.2	14.9	0.00e+00	0	43	102	1048576	15	4358
2026-01-04 22:57:31.17	81.21	27.00	-27.4	-28.8	15.0	0.00e+00	0	43	102	1048576	15	4266
2026-01-04 22:57:34.20	82.14	27.08	-27.5	-29.2	14.9	0.00e+00	0	43	102	1048576	15	4357
2026-01-04 22:57:37.23	83.08	27.15	-27.3	-28.8	15.1	0.00e+00	0	43	102	1048576	15	4251
2026-01-04 22:57:40.25	84.02	27.21	-27.5	-29.2	14.9	0.00e+00	0	43	102	1048576	15	4365
2026-01-04 22:57:43.27	84.97	27.26	-27.6	-29.3	14.7	0.00e+00	0	43	102	1048576	15	4410
2026-01-04 22:57:46.29	85.91	27.31	-27.5	-29.3	14.8	1.81e-04	0	43	102	1048576	15	4391
2026-01-04 22:57:49.31	86.86	27.35	-27.6	-29.4	14.7	0.00e+00	0	43	102	1048576	15	4422
2026-01-04 22:57:52.33	87.81	27.37	-27.4	-29.0	14.9	2.20e-06	0	43	102	1048576	15	4321
2026-01-04 22:57:55.34	88.76	27.39	-27.5	-29.2	14.8	7.00e-07	0	43	102	1048576	15	4377
2026-01-04 22:57:58.35	89.71	27.41	-27.5	-29.2	14.8	3.00e-06	0	43	102	1048576	15	4382
2026-01-04 22:58:01.37	90.67	27.41	-27.6	-29.3	14.7	1.20e-04	0	43	102	1048576	15	4406
2026-01-04 22:58:04.41	91.63	27.40	-27.6	-29.5	14.7	3.07e-04	0	43	102	1048576	15	4457
2026-01-04 22:58:07.43	92.58	27.39	-27.6	-29.3	14.8	2.78e-04	0	44	102	1048576	15	4408
2026-01-04 22:58:10.45	93.53	27.37	-27.3	-28.6	15.2	0.00e+00	0	43	102	1048576	15	4198
2026-01-04 22:58:13.47	94.49	27.34	-27.3	-28.7	15.1	0.00e+00	0	43	102	1048576	15	4228
2026-01-04 22:58:16.49	95.43	27.30	-27.4	-28.9	15.0	0.00e+00	0	43	102	1048576	15	4278
2026-01-04 22:58:19.51	96.38	27.25	-27.6	-29.3	14.8	1.50e-06	0	43	102	1048576	15	4397
2026-01-04 22:58:22.53	97.33	27.20	-27.5	-29.2	14.8	0.00e+00	0	43	102	1048576	15	4360
2026-01-04 22:58:25.55	98.27	27.14	-27.5	-29.1	14.8	0.00e+00	0	43	102	1048576	15	4354
2026-01-04 22:58:28.57	99.20	27.07	-27.3	-28.8	15.0	0.00e+00	0	43	102	1048576	15	4268
2026-01-04 22:58:31.60	100.14	26.99	-27.3	-28.8	15.1	0.00e+00	0	43	102	1048576	15	4254
2026-01-04 22:58:34.62	101.07	26.90	-27.7	-29.6	14.6	0.00e+00	0	43	102	1048576	15	4495
2026-01-04 22:58:37.64	101.99	26.81	-27.6	-29.5	14.7	0.00e+00	0	43	102	1048576	15	4463
2026-01-04 22:58:40.66	102.91	26.71	-27.7	-29.7	14.5	1.50e-06	0	43	102	1048576	15	4516
2026-01-04 22:58:43.68	103.82	26.60	-27.6	-29.3	14.7	7.00e-07	0	43	102	1048576	15	4417
2026-01-04 22:58:46.69	104.72	26.48	-27.7	-29.7	14.5	7.00e-07	0	43	102	1048576	15	4520
2026-01-04 22:58:49.70	105.62	26.36	-27.7	-29.6	14.5	7.00e-07	0	43	102	1048576	15	4494
2026-01-04 22:58:52.73	106.51	26.23	-27.7	-29.6	14.6	7.00e-07	0	44	102	1048576	15	4482
2026-01-04 22:58:55.76	107.40	26.09	-27.7	-29.6	14.6	7.00e-07	0	43	102	1048576	15	4480
2026-01-04 22:58:58.77	108.28	25.95	-27.4	-28.9	14.9	7.00e-07	0	43	102	1048576	15	4288
2026-01-04 22:59:01.80	109.15	25.80	-27.1	-28.4	15.2	0.00e+00	0	43	102	1048576	15	4149
2026-01-04 22:59:04.82	110.01	25.65	-27.2	-28.4	15.2	0.00e+00	0	43	102	1048576	15	4166
2026-01-04 22:59:07.84	110.86	25.49	-27.2	-28.5	15.1	7.00e-07	0	44	102	1048576	15	4182
2026-01-04 22:59:10.86	111.71	25.32	-27.3	-28.8	15.0	0.00e+00	0	43	102	1048576	15	4257
2026-01-04 22:59:13.89	112.55	25.15	-27.2	-28.6	15.1	3.00e-06	0	43	102	1048576	15	4209
2026-01-04 22:59:16.91	113.37	24.98	-27.2	-29.1	15.1	0.00e+00	0	43	102	1048576	14	4449
2026-01-04 22:59:19.93	114.19	24.79	-27.1	-28.8	15.2	9.30e-05	0	43	102	1048576	14	4372
2026-01-04 22:59:22.95	115.00	24.61	-27.2	-29.1	15.0	6.17e-05	0	43	102	1048576	14	4453
2026-01-04 22:59:25.96	115.80	24.42	-27.8	-30.0	14.2	1.50e-06	0	43	102	1048576	15	4600
2026-01-04 22:59:28.98	116.59	24.22	-27.7	-29.6	14.4	1.98e-05	0	43	102	1048576	15	4489
2026-01-04 22:59:32.00	117.37	24.03	-27.5	-29.3	14.6	1.50e-06	0	43	102	1048576	15	4398
2026-01-04 22:59:35.02	118.14	23.82	-27.7	-29.6	14.4	1.24e-04	0	43	102	1048576	15	4488
2026-01-04 22:59:38.04	118.90	23.62	-27.7	-29.8	14.3	0.00e+00	0	43	102	1048576	15	4548
2026-01-04 22:59:41.06	119.65	23.41	-27.7	-29.6	14.4	1.50e-06	0	43	102	1048576	15	4508
2026-01-04 22:59:44.08	120.39	23.19	-27.3	-28.8	14.9	0.00e+00	0	43	102	1048576	15	4256
2026-01-04 22:59:47.10	121.12	22.98	-27.5	-29.1	14.7	7.00e-07	0	43	102	1048576	15	4363
2026-01-04 22:59:50.12	121.84	22.76	-27.9	-30.2	14.0	2.20e-06	0	43	102	1048576	15	4691
2026-01-04 22:59:53.14	122.56	22.54	-27.4	-29.1	14.6	0.00e+00	0	44	102	1048576	15	4354
2026-01-04 22:59:56.16	123.26	22.32	-27.4	-28.9	14.7	7.00e-07	0	43	102	1048576	15	4310
2026-01-04 22:59:59.18	123.95	22.09	-27.7	-29.7	14.3	1.50e-06	0	43	102	1048576	15	4541
2026-01-04 23:00:02.20	124.63	21.86	-27.4	-29.1	14.6	7.00e-07	0	43	102	1048576	15	4361
2026-01-04 23:00:05.22	125.30	21.63	-27.5	-29.3	14.5	0.00e+00	0	43	102	1048576	15	4423
2026-01-04 23:00:08.25	125.97	21.40	-27.5	-29.2	14.5	3.00e-06	0	43	102	1048576	15	4387
2026-01-04 23:00:11.27	126.62	21.16	-27.3	-28.8	14.8	0.00e+00	0	43	102	1048576	15	4272
2026-01-04 23:00:14.28	127.26	20.93	-27.3	-28.7	14.8	0.00e+00	0	43	102	1048576	15	4247
2026-01-04 23:00:17.30	127.90	20.69	-27.3	-28.8	14.7	0.00e+00	0	43	102	1048576	15	4280
2026-01-04 23:00:20.32	128.52	20.46	-27.4	-29.0	14.6	0.00e+00	0	43	102	1048576	15	4329
2026-01-04 23:00:23.33	129.14	20.22	-27.5	-29.2	14.5	1.50e-06	0	43	102	1048576	15	4390
2026-01-04 23:00:26.35	129.74	19.98	-27.8	-30.1	14.0	5.30e-06	0	43	102	1048576	15	4650
2026-01-04 23:00:29.38	130.34	19.74	-27.9	-30.1	14.0	1.50e-06	0	43	102	1048576	15	4656
2026-01-04 23:00:32.39	130.93	19.50	-28.2	-30.2	13.7	6.10e-06	0	44	102	1048576	16	4581
2026-01-04 23:00:35.41	131.51	19.25	-27.7	-29.2	14.3	1.50e-06	0	43	102	1048576	16	4287
2026-01-04 23:00:38.43	132.08	19.01	-27.9	-29.8	14.0	5.30e-06	0	43	102	1048576	16	4441
2026-01-04 23:00:41.46	132.64	18.77	-27.9	-29.6	14.1	7.00e-07	0	43	102	1048576	16	4388
2026-01-04 23:00:44.48	133.19	18.53	-28.0	-29.8	13.9	1.50e-06	0	43	102	1048576	16	4465
2026-01-04 23:00:47.50	133.74	18.28	-28.1	-30.2	13.7	6.80e-06	0	43	102	1048576	16	4565
2026-01-04 23:00:50.52	134.27	18.04	-28.1	-30.2	13.7	1.22e-05	0	44	102	1048576	16	4577
2026-01-04 23:00:53.53	134.80	17.80	-28.2	-30.5	13.5	1.37e-05	0	44	102	1048576	16	4682
2026-01-04 23:00:56.55	135.32	17.56	-28.2	-30.4	13.5	4.50e-06	0	43	102	1048576	16	4653
2026-01-04 23:00:59.56	135.83	17.31	-28.3	-30.5	13.4	9.10e-06	0	43	102	1048576	16	4686
2026-01-04 23:01:02.58	136.33	17.07	-28.3	-30.6	13.3	1.75e-05	0	44	102	1048576	16	4715
2026-01-04 23:01:05.60	136.83	16.83	-28.4	-30.9	13.1	2.89e-05	0	43	102	1048576	16	4801
2026-01-04 23:01:08.63	137.32	16.59	-28.2	-30.4	13.4	1.06e-05	0	43	102	1048576	16	4654
2026-01-04 23:01:11.64	137.79	16.35	-28.3	-30.6	13.3	1.90e-05	0	43	102	1048576	16	4717
2026-01-04 23:01:14.66	138.27	16.11	-28.0	-30.0	13.6	1.06e-05	0	43	102	1048576	16	4545
2026-01-04 23:01:17.68	138.73	15.87	-28.2	-30.4	13.4	1.37e-05	0	43	102	1048576	16	4654
2026-01-04 23:01:20.68	139.19	15.63	-28.3	-30.8	13.1	2.97e-05	0	43	102	1048576	16	4774
2026-01-04 23:01:23.71	139.64	15.39	-28.4	-30.4	13.0	6.02e-05	0	44	102	1048576	17	4556
2026-01-04 23:01:26.73	140.09	15.15	-28.2	-30.1	13.2	3.28e-05	0	44	102	1048576	17	4458
2026-01-04 23:01:29.75	140.52	14.91	-28.3	-30.7	13.0	3.28e-05	0	43	102	1048576	16	4774
2026-01-04 23:01:32.77	140.96	14.68	-28.3	-30.9	12.9	5.41e-05	0	43	102	1048576	16	4826
2026-01-04 23:01:35.78	141.38	14.44	-28.3	-30.7	12.9	5.03e-05	0	44	102	1048576	16	4778
2026-01-04 23:01:38.80	141.80	14.21	-28.5	-31.2	12.6	8.54e-05	0	43	102	1048576	16	4947
2026-01-04 23:01:41.82	142.21	13.97	-28.4	-31.2	12.6	1.09e-04	0	44	102	1048576	16	4938
2026-01-04 23:01:44.84	142.61	13.74	-28.7	-31.5	12.0	2.60e-04	0	43	102	1048576	17	4935
2026-01-04 23:01:47.86	143.01	13.51	-27.7	-30.2	12.3	1.56e-04	0	44	102	1048576	17	4766
2026-01-04 23:01:50.88	143.41	13.28	-28.6	-31.3	11.6	2.88e-04	0	44	102	1048576	17	4884
2026-01-04 23:01:53.90	143.79	13.05	-28.6	-31.3	12.0	2.78e-04	0	43	102	1048576	17	4905
2026-01-04 23:01:56.92	144.18	12.82	-28.7	-31.5	11.9	2.69e-03	0	44	102	1048576	17	4974
2026-01-04 23:01:59.92	144.55	12.59	-28.8	-31.9	11.6	6.83e-04	0	44	102	1048576	17	5097
2026-01-04 23:02:02.94	144.92	12.36	-28.8	-31.8	11.7	3.45e-03	0	43	102	1048576	17	5068
2026-01-04 23:02:05.96	145.29	12.14	-28.8	-31.6	11.9	4.29e-04	0	43	102	1048576	17	4997
2026-01-04 23:02:08.99	145.65	11.91	-28.7	-31.3	12.1	4.25e-03	0	44	102	1048576	17	4877
2026-01-04 23:02:12.00	146.00	11.69	-28.6	-31.3	12.1	4.06e-03	0	43	102	1048576	17	4866
2026-01-04 23:02:15.03	146.35	11.46	-28.6	-31.1	12.2	3.64e-03	0	44	102	1048576	17	4799
2026-01-04 23:02:18.05	146.70	11.24	-28.7	-31.5	11.9	4.32e-03	0	44	102	1048576	17	4967
2026-01-04 23:02:21.07	147.04	11.02	-28.7	-31.4	12.0	3.49e-04	0	43	102	1048576	17	4913
2026-01-04 23:02:24.08	147.37	10.80	-28.9	-32.1	11.5	8.73e-04	0	44	102	1048576	17	5174
2026-01-04 23:02:27.11	147.70	10.58	-28.8	-31.6	11.8	4.90e-04	0	43	102	1048576	17	4992
2026-01-04 23:02:30.13	148.02	10.37	-28.9	-32.1	11.5	4.67e-03	0	43	102	1048576	17	5175
2026-01-04 23:02:33.15	148.34	10.15	-28.8	-31.8	11.6	5.83e-04	0	44	102	1048576	17	5078
2026-01-04 23:02:36.16	148.66	9.94	-28.7	-31.6	11.8	4.37e-04	0	43	102	1048576	17	5014
2026-01-04 23:02:39.18	148.97	9.72	-28.7	-31.6	11.7	5.59e-04	0	43	102	1048576	17	4998
2026-01-04 23:02:42.20	149.28	9.51	-28.8	-31.8	11.5	7.32e-04	0	44	102	1048576	17	5103
2026-01-04 23:02:45.22	149.58	9.30	-28.8	-32.0	11.4	8.61e-04	0	44	102	1048576	17	5155
2026-01-04 23:02:48.24	149.88	9.09	-29.1	-32.2	10.9	2.02e-03	0	44	102	1048576	18	5128
2026-01-04 23:02:51.25	150.17	8.88	-29.1	-32.2	10.9	2.00e-03	0	44	102	1048576	18	5128
2026-01-04 23:02:54.28	150.47	8.67	-29.0	-32.5	10.9	2.11e-03	0	44	102	1048576	17	5407
2026-01-04 23:02:57.30	150.75	8.46	-29.0	-32.6	10.7	3.03e-03	0	44	102	1048576	17	5484
2026-01-04 23:03:00.31	151.03	8.26	-29.2	-32.6	10.3	5.17e-03	0	43	102	1048576	18	5386
2026-01-04 23:03:03.33	151.31	8.05	-29.0	-32.3	10.5	4.12e-03	0	43	102	1048576	18	5235
2026-01-04 23:03:06.35	151.59	7.85	-29.0	-32.2	10.5	3.94e-03	0	44	102	1048576	18	5215
2026-01-04 23:03:09.37	151.86	7.64	-29.1	-32.5	10.3	4.48e-03	0	44	102	1048576	18	5311
2026-01-04 23:03:12.39	152.13	7.44	-29.3	-33.0	9.9	7.31e-03	0	44	102	1048576	18	5544
2026-01-04 23:03:15.42	152.39	7.24	-29.3	-33.2	9.7	1.10e-02	0	43	102	1048576	18	5636
2026-01-04 23:03:18.44	152.65	7.04	-31.5	-40.2	4.0	9.66e-01	0	44	104	1048576	23	9791
2026-01-04 23:03:21.46	152.91	6.84	-33.4	-45.6	3.8	1.49e+00	0	44	104	1048576	26	14530

#Closed at: 2026-01-04 23:03:21
#Recorded file [1 MB]: D:/data/31010_260105_015243.dat