passes_logs/2026/01/04/R2M6_AANII_01/R2M6_AANII_01__20260104_095425_NOAA_20_JPSS-1_rec.log

#Pass ID: 20260104_095425_NOAA 20 (JPSS-1)
#Satellite: NOAA 20 (JPSS-1)
#Configuration: NOAA 20
#almurnet v.1.7.20240730
#Start time: 2026-01-04 09:54:26

#Version: 2.2.20231116
#Station: R2M6_AANII_01
#Location: 30.233357 lon 59.946436 lat
#TLE: 1 43013U 17073A   26003.41800368  .00000169  00000+0  10117-3 0  9998
#TLE: 2 43013  98.7624 304.4804 0001884  56.1176 304.0179 14.19532918421092

#Time	Az	El	Level	Level2	SNR	BER	BlckErr	Temp	State	Recorded	gain1	gain2
2026-01-04 09:54:26.33	147.42	7.05	-30.8	-36.5	5.1	1.27e+00	0	41	0	0	23	6878
2026-01-04 09:54:29.35	147.37	7.28	-30.9	-36.3	8.5	5.18e-02	0	41	102	1048576	23	6725
2026-01-04 09:54:32.37	147.31	7.52	-30.7	-35.5	9.7	1.38e-02	0	41	102	1048576	22	6271
2026-01-04 09:54:35.39	147.26	7.76	-30.5	-34.8	10.3	7.10e-03	0	41	102	1048576	22	5880
2026-01-04 09:54:38.40	147.20	8.00	-30.3	-33.8	11.1	1.83e-03	0	41	102	1048576	22	5384
2026-01-04 09:54:41.43	147.14	8.24	-30.3	-34.2	11.2	1.36e-03	0	41	102	1048576	21	5651
2026-01-04 09:54:44.44	147.08	8.48	-30.3	-33.9	11.5	7.97e-04	0	41	102	1048576	21	5507
2026-01-04 09:54:47.47	147.02	8.73	-30.4	-34.4	11.2	1.41e-03	0	41	102	1048576	21	5689
2026-01-04 09:54:50.49	146.96	8.98	-30.2	-33.6	11.8	4.70e-04	0	42	102	1048576	21	5350
2026-01-04 09:54:53.51	146.90	9.24	-30.3	-33.9	11.6	4.36e-04	0	42	102	1048576	21	5465
2026-01-04 09:54:56.52	146.83	9.49	-30.1	-33.3	12.1	2.51e-04	0	42	102	1048576	21	5194
2026-01-04 09:54:59.54	146.77	9.75	-30.0	-33.1	12.3	2.07e-04	0	42	102	1048576	21	5103
2026-01-04 09:55:02.56	146.70	10.01	-30.2	-33.5	12.0	2.97e-04	0	42	102	1048576	21	5282
2026-01-04 09:55:05.58	146.63	10.27	-30.1	-33.3	12.2	2.38e-04	0	42	102	1048576	21	5180
2026-01-04 09:55:08.60	146.56	10.54	-30.3	-33.8	11.9	2.37e-04	0	42	102	1048576	21	5388
2026-01-04 09:55:11.60	146.49	10.81	-30.0	-32.8	12.6	1.30e-04	0	42	102	1048576	21	5003
2026-01-04 09:55:14.62	146.42	11.08	-29.9	-32.6	12.7	6.63e-05	0	42	102	1048576	21	4905
2026-01-04 09:55:17.63	146.34	11.35	-29.9	-32.5	12.8	4.50e-05	0	42	102	1048576	21	4854
2026-01-04 09:55:20.65	146.27	11.63	-29.7	-32.6	13.1	2.44e-05	0	42	102	1048576	20	5002
2026-01-04 09:55:23.68	146.19	11.91	-29.8	-32.7	13.1	3.28e-05	0	42	102	1048576	20	5039
2026-01-04 09:55:26.70	146.11	12.20	-29.8	-32.9	13.0	4.04e-05	0	42	102	1048576	20	5105
2026-01-04 09:55:29.72	146.03	12.48	-29.8	-32.8	13.1	3.96e-05	0	42	102	1048576	20	5066
2026-01-04 09:55:32.75	145.95	12.77	-29.8	-32.7	13.2	2.82e-05	0	42	102	1048576	20	5014
2026-01-04 09:55:35.78	145.86	13.07	-29.8	-32.8	13.1	2.36e-05	0	42	102	1048576	20	5067
2026-01-04 09:55:38.80	145.77	13.37	-29.7	-32.3	13.4	1.14e-05	0	43	102	1048576	20	4899
2026-01-04 09:55:41.83	145.69	13.67	-29.7	-32.4	13.4	1.22e-05	0	42	102	1048576	20	4934
2026-01-04 09:55:44.86	145.59	13.98	-29.7	-32.4	13.4	8.30e-06	0	42	102	1048576	20	4931
2026-01-04 09:55:47.88	145.50	14.29	-29.7	-32.5	13.4	2.21e-05	0	43	102	1048576	20	4941
2026-01-04 09:55:50.91	145.41	14.60	-29.8	-32.5	13.4	1.60e-05	0	43	102	1048576	20	4940
2026-01-04 09:55:53.92	145.31	14.92	-29.7	-32.3	13.6	9.90e-06	0	42	102	1048576	20	4846
2026-01-04 09:55:56.94	145.21	15.24	-29.7	-32.4	13.5	9.90e-06	0	43	102	1048576	20	4890
2026-01-04 09:55:59.94	145.11	15.56	-30.0	-33.1	13.1	2.97e-05	0	43	102	1048576	20	5136
2026-01-04 09:56:02.96	145.01	15.89	-29.9	-33.0	13.2	2.67e-05	0	42	102	1048576	20	5104
2026-01-04 09:56:05.90	144.90	16.21	-29.7	-32.4	13.6	1.22e-05	0	43	102	1048576	20	4865
2026-01-04 09:56:08.93	144.79	16.55	-29.7	-32.3	13.8	8.30e-06	0	43	102	1048576	20	4827
2026-01-04 09:56:11.95	144.68	16.90	-29.6	-32.0	14.0	2.20e-06	0	43	102	1048576	20	4719
2026-01-04 09:56:14.97	144.57	17.25	-29.7	-32.2	13.9	1.50e-06	0	43	102	1048576	20	4823
2026-01-04 09:56:17.98	144.45	17.60	-29.6	-31.9	14.1	3.80e-06	0	43	102	1048576	20	4710
2026-01-04 09:56:21.01	144.33	17.96	-29.8	-32.6	13.6	7.60e-06	0	43	102	1048576	20	4934
2026-01-04 09:56:24.03	144.21	18.32	-29.8	-32.3	13.9	5.30e-06	0	43	102	1048576	20	4833
2026-01-04 09:56:27.05	144.08	18.69	-29.6	-32.0	14.1	3.80e-06	0	43	102	1048576	20	4715
2026-01-04 09:56:30.07	143.95	19.06	-29.8	-32.4	13.9	4.50e-06	0	43	102	1048576	20	4853
2026-01-04 09:56:33.09	143.82	19.44	-29.7	-32.1	14.2	2.20e-06	0	43	102	1048576	20	4736
2026-01-04 09:56:36.12	143.68	19.83	-29.6	-31.9	14.3	0.00e+00	0	43	102	1048576	20	4672
2026-01-04 09:56:39.13	143.54	20.21	-29.7	-32.1	14.2	1.50e-06	0	43	102	1048576	20	4720
2026-01-04 09:56:42.14	143.39	20.61	-29.7	-32.1	14.2	0.00e+00	0	43	102	1048576	20	4741
2026-01-04 09:56:45.16	143.25	21.01	-29.9	-32.5	14.0	1.50e-06	0	43	102	1048576	20	4892
2026-01-04 09:56:48.19	143.09	21.42	-29.6	-31.9	14.4	0.00e+00	0	43	102	1048576	20	4666
2026-01-04 09:56:51.21	142.94	21.84	-29.8	-32.3	14.2	2.20e-06	0	43	102	1048576	20	4787
2026-01-04 09:56:54.22	142.77	22.26	-29.6	-31.6	14.6	0.00e+00	0	43	102	1048576	20	4578
2026-01-04 09:56:57.23	142.61	22.69	-29.5	-31.6	14.7	0.00e+00	0	43	102	1048576	20	4547
2026-01-04 09:57:00.25	142.44	23.12	-29.7	-32.0	14.4	7.00e-07	0	43	102	1048576	20	4697
2026-01-04 09:57:03.28	142.26	23.57	-29.7	-32.1	14.4	7.00e-07	0	43	102	1048576	20	4705
2026-01-04 09:57:06.30	142.08	24.02	-29.8	-32.3	14.3	7.00e-07	0	43	102	1048576	20	4769
2026-01-04 09:57:09.32	141.89	24.48	-29.9	-32.4	14.2	7.00e-07	0	43	102	1048576	20	4815
2026-01-04 09:57:12.34	141.70	24.94	-30.0	-32.8	14.0	4.50e-06	0	43	102	1048576	20	4952
2026-01-04 09:57:15.36	141.50	25.42	-30.1	-32.9	13.9	1.50e-06	0	43	102	1048576	20	5000
2026-01-04 09:57:18.38	141.29	25.90	-30.3	-33.6	13.5	1.06e-05	0	43	102	1048576	20	5263
2026-01-04 09:57:21.41	141.08	26.39	-30.6	-33.8	13.1	3.28e-05	0	43	102	1048576	21	5215
2026-01-04 09:57:24.43	140.86	26.89	-30.9	-34.6	12.6	8.31e-05	0	43	102	1048576	21	5525
2026-01-04 09:57:27.44	140.63	27.40	-31.3	-35.3	11.8	5.20e-04	0	43	102	1048576	22	5709
2026-01-04 09:57:30.47	140.40	27.91	-31.6	-35.7	11.2	1.02e-03	0	43	102	1048576	23	5772
2026-01-04 09:57:33.49	140.16	28.44	-31.7	-36.0	11.0	2.33e-03	0	43	102	1048576	23	5914
2026-01-04 09:57:36.52	139.90	28.98	-31.3	-34.9	11.8	6.74e-04	0	43	102	1048576	23	5411
2026-01-04 09:57:39.53	139.65	29.52	-31.5	-35.2	11.6	5.31e-04	0	43	102	1048576	23	5538
2026-01-04 09:57:42.55	139.38	30.08	-31.6	-35.7	11.2	1.23e-03	0	43	102	1048576	23	5776
2026-01-04 09:57:45.57	139.10	30.64	-31.7	-36.0	11.0	2.07e-03	0	43	102	1048576	23	5925
2026-01-04 09:57:48.59	138.81	31.22	-31.9	-36.5	10.7	3.42e-03	0	43	102	1048576	23	6123
2026-01-04 09:57:51.62	138.51	31.81	-32.1	-36.6	10.3	5.00e-03	0	43	102	1048576	24	6107
2026-01-04 09:57:54.64	138.20	32.41	-32.2	-37.1	9.9	8.57e-03	0	43	102	1048576	24	6325
2026-01-04 09:57:57.66	137.87	33.02	-32.2	-37.2	9.8	9.05e-03	0	43	102	1048576	24	6394
2026-01-04 09:58:00.68	137.54	33.64	-32.2	-37.2	9.9	1.05e-02	0	43	102	1048576	24	6385
2026-01-04 09:58:03.70	137.19	34.27	-32.4	-37.7	9.5	1.59e-02	0	43	102	1048576	24	6647
2026-01-04 09:58:06.73	136.82	34.91	-32.3	-37.4	9.7	1.20e-02	0	43	102	1048576	24	6494
2026-01-04 09:58:09.74	136.44	35.57	-32.6	-37.9	9.0	1.77e-02	0	43	102	1048576	25	6653
2026-01-04 09:58:12.75	136.05	36.23	-32.8	-39.1	8.1	5.75e-02	0	43	102	1048576	25	7388
2026-01-04 09:58:15.77	135.64	36.91	-32.8	-38.4	8.3	6.05e-02	0	43	102	1048576	26	6824
2026-01-04 09:58:18.79	135.21	37.61	-32.7	-37.7	8.7	4.11e-02	0	43	102	1048576	26	6460
2026-01-04 09:58:21.81	134.76	38.31	-32.5	-37.2	9.3	2.36e-02	0	43	102	1048576	26	6153
2026-01-04 09:58:24.83	134.29	39.03	-32.3	-36.8	10.0	9.10e-03	0	43	102	1048576	25	6029
2026-01-04 09:58:27.86	133.79	39.76	-32.1	-36.0	10.5	5.04e-03	0	43	102	1048576	25	5672
2026-01-04 09:58:30.87	133.28	40.50	-31.7	-35.3	11.5	9.96e-04	0	43	102	1048576	24	5428
2026-01-04 09:58:33.89	132.74	41.26	-31.5	-34.7	11.8	4.00e-04	0	43	102	1048576	24	5219
2026-01-04 09:58:36.91	132.17	42.03	-31.4	-34.3	12.2	3.45e-04	0	43	102	1048576	24	5025
2026-01-04 09:58:39.93	131.58	42.81	-31.4	-34.9	12.0	2.49e-04	0	43	102	1048576	23	5390
2026-01-04 09:58:42.94	130.96	43.61	-31.1	-34.0	12.7	1.11e-04	0	43	102	1048576	23	5029
2026-01-04 09:58:45.95	130.30	44.41	-31.3	-34.5	12.4	1.01e-04	0	43	102	1048576	23	5206
2026-01-04 09:58:48.96	129.61	45.23	-31.2	-34.2	12.6	1.30e-04	0	43	102	1048576	23	5088
2026-01-04 09:58:51.98	128.88	46.06	-31.2	-34.3	12.6	1.02e-04	0	43	102	1048576	23	5117
2026-01-04 09:58:55.00	128.11	46.91	-30.7	-33.4	13.5	1.29e-05	0	43	102	1048576	22	4886
2026-01-04 09:58:58.02	127.30	47.76	-30.7	-33.3	13.6	8.30e-06	0	43	102	1048576	22	4864
2026-01-04 09:59:01.04	126.44	48.63	-30.9	-33.9	13.2	2.36e-05	0	43	102	1048576	22	5070
2026-01-04 09:59:04.06	125.53	49.50	-30.7	-33.4	13.5	9.90e-06	0	43	102	1048576	22	4903
2026-01-04 09:59:07.09	124.56	50.39	-30.6	-33.1	13.7	6.10e-06	0	43	102	1048576	22	4787
2026-01-04 09:59:10.11	123.53	51.28	-30.1	-32.2	14.7	0.00e+00	0	43	102	1048576	21	4580
2026-01-04 09:59:13.12	122.45	52.18	-30.2	-32.5	14.4	0.00e+00	0	43	102	1048576	21	4681
2026-01-04 09:59:16.14	121.29	53.08	-30.2	-32.5	14.4	7.00e-07	0	43	102	1048576	21	4685
2026-01-04 09:59:19.16	120.06	53.99	-29.8	-31.5	15.0	0.00e+00	0	43	102	1048576	21	4370
2026-01-04 09:59:22.18	118.75	54.90	-30.5	-33.7	14.0	7.00e-07	0	43	102	1048576	20	5226
2026-01-04 09:59:25.21	117.35	55.81	-31.2	-34.8	12.7	6.10e-05	0	43	102	1048576	22	5415
2026-01-04 09:59:28.23	115.86	56.72	-31.7	-35.7	11.7	5.24e-04	0	43	102	1048576	23	5669
2026-01-04 09:59:31.25	114.26	57.62	-32.2	-36.6	10.7	3.23e-03	0	43	102	1048576	24	6004
2026-01-04 09:59:34.26	112.56	58.51	-31.6	-34.7	12.2	2.55e-04	0	43	102	1048576	24	5160
2026-01-04 09:59:37.28	110.74	59.39	-31.1	-33.7	13.1	4.50e-05	0	43	102	1048576	23	4883
2026-01-04 09:59:40.31	108.79	60.25	-30.3	-32.1	14.4	1.50e-06	0	43	102	1048576	22	4439
2026-01-04 09:59:43.32	106.71	61.10	-29.4	-30.9	15.8	0.00e+00	0	43	102	1048576	20	4276
2026-01-04 09:59:46.33	104.49	61.91	-29.4	-30.8	15.9	0.00e+00	0	43	102	1048576	20	4261
2026-01-04 09:59:49.35	102.11	62.70	-28.9	-30.3	16.5	0.00e+00	0	43	102	1048576	19	4215
2026-01-04 09:59:52.38	99.57	63.45	-28.9	-30.3	16.5	0.00e+00	0	43	102	1048576	19	4199
2026-01-04 09:59:55.40	96.87	64.16	-29.5	-31.7	15.7	0.00e+00	0	43	102	1048576	19	4626
2026-01-04 09:59:58.42	94.01	64.82	-29.9	-32.1	15.1	0.00e+00	0	43	102	1048576	20	4637
2026-01-04 10:00:01.44	90.98	65.43	-31.2	-34.5	13.0	1.52e-05	0	43	102	1048576	22	5284
2026-01-04 10:00:04.45	87.80	65.97	-31.0	-33.6	13.2	2.59e-05	0	43	102	1048576	23	4841
2026-01-04 10:00:07.48	84.45	66.45	-31.5	-35.0	12.4	1.45e-04	0	43	102	1048576	23	5364
2026-01-04 10:00:10.49	80.98	66.85	-31.5	-35.0	12.3	2.29e-04	0	43	102	1048576	23	5380
2026-01-04 10:00:13.51	77.37	67.18	-31.4	-34.6	12.6	1.12e-04	0	43	102	1048576	23	5226
2026-01-04 10:00:16.52	73.68	67.41	-31.4	-34.7	12.5	1.96e-04	0	43	102	1048576	23	5240
2026-01-04 10:00:19.55	69.89	67.57	-31.7	-35.7	11.8	4.74e-04	0	43	102	1048576	23	5649
2026-01-04 10:00:22.58	66.07	67.63	-31.9	-36.3	11.4	7.33e-04	0	43	102	1048576	23	5923
2026-01-04 10:00:25.60	62.25	67.59	-31.7	-35.2	11.8	8.71e-04	0	43	102	1048576	24	5338
2026-01-04 10:00:28.62	58.46	67.47	-31.2	-34.0	13.0	4.27e-05	0	43	102	1048576	23	4972
2026-01-04 10:00:31.65	54.72	67.26	-31.4	-34.8	12.4	1.67e-04	0	43	102	1048576	23	5287
2026-01-04 10:00:34.67	51.09	66.96	-31.3	-34.4	12.7	1.27e-04	0	43	102	1048576	23	5141
2026-01-04 10:00:37.70	47.56	66.58	-30.6	-33.0	13.9	3.80e-06	0	43	102	1048576	22	4737
2026-01-04 10:00:40.72	44.17	66.13	-30.6	-32.9	13.9	1.14e-05	0	43	102	1048576	22	4723
2026-01-04 10:00:43.75	40.93	65.60	-30.0	-32.1	14.7	7.00e-07	0	43	102	1048576	21	4543
2026-01-04 10:00:46.76	37.86	65.01	-29.4	-31.0	15.8	7.00e-07	0	43	102	1048576	20	4318
2026-01-04 10:00:49.79	34.94	64.37	-29.1	-30.8	16.2	0.00e+00	0	43	102	1048576	19	4355
2026-01-04 10:00:52.81	32.20	63.67	-29.4	-31.5	15.7	3.00e-06	0	43	102	1048576	19	4578
2026-01-04 10:00:55.83	29.62	62.93	-30.1	-32.7	14.7	2.20e-06	0	43	102	1048576	20	4843
2026-01-04 10:00:58.85	27.20	62.16	-30.7	-33.6	13.8	1.06e-05	0	43	102	1048576	21	5080
2026-01-04 10:01:01.87	24.93	61.35	-31.1	-34.4	12.9	1.83e-05	0	43	102	1048576	22	5257
2026-01-04 10:01:04.90	22.81	60.51	-31.7	-35.6	11.7	4.13e-04	0	43	102	1048576	23	5667
2026-01-04 10:01:07.92	20.82	59.66	-31.6	-35.3	11.9	2.71e-04	0	43	102	1048576	23	5531
2026-01-04 10:01:10.94	18.97	58.78	-31.8	-35.4	11.4	1.27e-03	0	43	102	1048576	24	5484
2026-01-04 10:01:13.96	17.23	57.90	-31.6	-35.0	11.8	8.59e-04	0	43	102	1048576	24	5281
2026-01-04 10:01:16.98	15.61	57.00	-31.5	-34.6	12.0	3.38e-04	0	43	102	1048576	24	5135
2026-01-04 10:01:20.01	14.09	56.10	-31.4	-34.2	12.4	1.65e-04	0	43	102	1048576	24	4976
2026-01-04 10:01:23.02	12.67	55.20	-30.7	-33.2	13.6	1.37e-05	0	43	102	1048576	22	4830
2026-01-04 10:01:26.04	11.33	54.29	-30.3	-32.8	14.2	1.50e-06	0	43	102	1048576	21	4791
2026-01-04 10:01:29.06	10.08	53.38	-30.3	-32.7	14.3	7.00e-07	0	43	102	1048576	21	4752
2026-01-04 10:01:32.08	8.91	52.48	-29.8	-31.5	14.9	0.00e+00	0	43	102	1048576	21	4369
2026-01-04 10:01:35.10	7.80	51.58	-30.0	-32.5	14.7	0.00e+00	0	43	102	1048576	20	4784
2026-01-04 10:01:38.13	6.76	50.69	-30.5	-33.4	13.8	6.10e-06	0	43	102	1048576	21	4991
2026-01-04 10:01:41.16	5.77	49.80	-30.8	-34.2	13.3	1.52e-05	0	43	102	1048576	21	5309
2026-01-04 10:01:44.18	4.85	48.93	-31.2	-34.7	12.6	8.85e-05	0	43	102	1048576	22	5389
2026-01-04 10:01:47.20	3.98	48.06	-31.0	-34.2	12.9	7.24e-05	0	43	102	1048576	22	5190
2026-01-04 10:01:50.22	3.15	47.21	-31.2	-34.8	12.4	5.95e-05	0	43	102	1048576	22	5448
2026-01-04 10:01:53.24	2.37	46.36	-31.6	-35.6	11.6	6.38e-04	0	43	102	1048576	23	5666
2026-01-04 10:01:56.26	1.63	45.53	-31.4	-34.8	12.1	3.02e-04	0	43	102	1048576	23	5358
2026-01-04 10:01:59.28	0.93	44.71	-31.4	-34.7	12.1	3.35e-04	0	43	102	1048576	23	5308
2026-01-04 10:02:02.29	0.27	43.90	-31.6	-35.4	11.6	3.74e-04	0	43	102	1048576	23	5607
2026-01-04 10:02:05.31	359.64	43.11	-32.0	-36.8	10.7	2.97e-03	0	43	102	1048576	23	6257
2026-01-04 10:02:08.32	359.04	42.32	-32.2	-37.2	10.0	5.46e-03	0	43	102	1048576	24	6374
2026-01-04 10:02:11.35	358.46	41.55	-32.3	-37.5	9.8	1.29e-02	0	43	102	1048576	24	6503
2026-01-04 10:02:14.38	357.92	40.79	-32.6	-37.9	9.1	2.10e-02	0	43	102	1048576	25	6632
2026-01-04 10:02:17.37	357.40	40.05	-32.3	-37.0	9.7	1.68e-02	0	43	102	1048576	25	6182
2026-01-04 10:02:20.40	356.90	39.32	-32.2	-36.7	9.9	7.24e-03	0	43	102	1048576	25	5991
2026-01-04 10:02:23.42	356.43	38.60	-31.9	-35.5	10.8	3.21e-03	0	43	102	1048576	25	5452
2026-01-04 10:02:26.44	355.97	37.89	-31.9	-35.7	10.7	3.33e-03	0	43	102	1048576	25	5535
2026-01-04 10:02:29.47	355.54	37.20	-31.8	-35.1	11.0	2.74e-03	0	43	102	1048576	25	5299
2026-01-04 10:02:32.48	355.12	36.52	-31.3	-34.6	12.1	2.41e-04	0	43	102	1048576	23	5287
2026-01-04 10:02:35.50	354.72	35.85	-31.4	-35.1	11.8	4.19e-04	0	43	102	1048576	23	5473
2026-01-04 10:02:38.52	354.34	35.19	-31.2	-34.3	12.3	1.75e-04	0	43	102	1048576	23	5158
2026-01-04 10:02:41.55	353.97	34.55	-31.7	-35.8	11.3	9.70e-04	0	43	102	1048576	23	5774
2026-01-04 10:02:44.57	353.62	33.91	-31.6	-35.7	11.3	1.39e-03	0	43	102	1048576	23	5759
2026-01-04 10:02:47.59	353.28	33.29	-31.8	-36.2	10.9	1.31e-03	0	43	102	1048576	23	5995
2026-01-04 10:02:50.61	352.96	32.68	-32.1	-36.8	10.1	7.68e-03	0	43	102	1048576	24	6177
2026-01-04 10:02:53.63	352.64	32.08	-32.5	-38.1	9.1	1.60e-02	0	43	102	1048576	24	6915
2026-01-04 10:02:56.65	352.34	31.50	-32.7	-38.8	8.2	5.74e-02	0	43	102	1048576	25	7217
2026-01-04 10:02:59.67	352.05	30.92	-32.7	-38.7	8.2	5.48e-02	0	43	102	1048576	25	7218
2026-01-04 10:03:02.69	351.77	30.35	-32.4	-37.6	9.0	3.03e-02	0	43	102	1048576	25	6546
2026-01-04 10:03:05.72	351.50	29.79	-32.1	-36.4	10.0	8.10e-03	0	44	102	1048576	25	5888
2026-01-04 10:03:08.72	351.24	29.25	-32.0	-36.0	10.2	5.40e-03	0	43	102	1048576	25	5705
2026-01-04 10:03:11.75	350.99	28.71	-32.1	-36.2	10.1	6.47e-03	0	43	102	1048576	25	5783
2026-01-04 10:03:14.76	350.75	28.19	-32.1	-36.2	10.1	6.90e-03	0	43	102	1048576	25	5808
2026-01-04 10:03:17.79	350.51	27.67	-32.0	-36.0	10.3	8.96e-03	0	43	102	1048576	25	5695
2026-01-04 10:03:20.81	350.28	27.16	-31.8	-35.4	10.6	3.23e-03	0	43	102	1048576	25	5461
2026-01-04 10:03:23.84	350.06	26.66	-31.6	-35.3	11.1	1.65e-03	0	43	102	1048576	24	5509
2026-01-04 10:03:26.86	349.85	26.17	-31.3	-34.4	11.8	5.56e-04	0	44	102	1048576	24	5116
2026-01-04 10:03:29.88	349.64	25.68	-31.2	-34.6	12.0	4.55e-04	0	43	102	1048576	23	5307
2026-01-04 10:03:32.90	349.44	25.21	-31.4	-35.1	11.6	6.29e-04	0	43	102	1048576	23	5532
2026-01-04 10:03:35.92	349.25	24.74	-31.4	-35.1	11.5	8.39e-04	0	43	102	1048576	23	5531
2026-01-04 10:03:38.95	349.06	24.28	-31.2	-34.7	11.8	5.84e-04	0	43	102	1048576	23	5340
2026-01-04 10:03:41.96	348.88	23.83	-30.8	-33.4	12.7	6.48e-05	0	43	102	1048576	23	4848
2026-01-04 10:03:44.98	348.71	23.39	-30.7	-33.7	12.8	3.96e-05	0	44	102	1048576	22	5049
2026-01-04 10:03:48.01	348.53	22.95	-30.6	-33.4	13.0	4.80e-05	0	43	102	1048576	22	4939
2026-01-04 10:03:51.03	348.37	22.52	-30.7	-33.6	12.9	5.56e-05	0	43	102	1048576	22	5012
2026-01-04 10:03:54.06	348.21	22.09	-30.7	-33.7	12.8	7.32e-05	0	43	102	1048576	22	5058
2026-01-04 10:03:57.06	348.05	21.68	-30.7	-33.6	12.8	7.78e-05	0	43	102	1048576	22	5045
2026-01-04 10:04:00.08	347.90	21.27	-30.7	-33.6	12.8	6.02e-05	0	43	102	1048576	22	5043
2026-01-04 10:04:03.09	347.75	20.87	-30.7	-33.6	12.8	7.09e-05	0	43	102	1048576	22	5034
2026-01-04 10:04:06.11	347.61	20.47	-30.7	-33.7	12.7	6.63e-05	0	43	102	1048576	22	5065
2026-01-04 10:04:09.14	347.47	20.08	-30.8	-34.0	12.5	9.91e-05	0	43	102	1048576	22	5185
2026-01-04 10:04:12.15	347.33	19.70	-30.9	-34.4	12.2	2.49e-04	0	43	102	1048576	22	5357
2026-01-04 10:04:15.18	347.20	19.32	-30.9	-34.4	12.2	2.33e-04	0	43	102	1048576	22	5351
2026-01-04 10:04:18.19	347.07	18.94	-31.0	-34.5	12.1	2.30e-04	0	43	102	1048576	22	5384
2026-01-04 10:04:21.21	346.94	18.57	-31.1	-34.8	11.9	3.13e-04	0	43	102	1048576	22	5515
2026-01-04 10:04:24.24	346.82	18.21	-31.2	-35.1	11.7	5.68e-04	0	43	102	1048576	22	5666
2026-01-04 10:04:27.25	346.70	17.85	-31.3	-35.7	11.2	1.34e-03	0	43	102	1048576	22	5921
2026-01-04 10:04:30.27	346.59	17.50	-31.2	-35.2	11.5	6.26e-04	0	43	102	1048576	22	5722
2026-01-04 10:04:33.29	346.47	17.15	-31.2	-35.1	11.6	6.42e-04	0	43	102	1048576	22	5680
2026-01-04 10:04:36.33	346.36	16.81	-31.2	-35.3	11.4	9.68e-04	0	43	102	1048576	22	5786
2026-01-04 10:04:39.34	346.25	16.47	-31.2	-35.4	11.3	9.90e-04	0	43	102	1048576	22	5812
2026-01-04 10:04:42.36	346.15	16.13	-31.4	-35.9	11.0	1.45e-03	0	43	102	1048576	22	6025
2026-01-04 10:04:45.38	346.05	15.80	-31.5	-36.2	10.7	2.69e-03	0	43	102	1048576	22	6196
2026-01-04 10:04:48.40	345.95	15.48	-31.6	-36.0	10.4	3.76e-03	0	43	102	1048576	23	6013
2026-01-04 10:04:51.43	345.85	15.16	-31.6	-36.3	10.2	5.51e-03	0	43	102	1048576	23	6169
2026-01-04 10:04:54.45	345.75	14.84	-31.4	-35.5	10.8	2.80e-03	0	43	102	1048576	23	5760
2026-01-04 10:04:57.45	345.66	14.53	-31.5	-35.9	10.5	4.44e-03	0	44	102	1048576	23	5968
2026-01-04 10:05:00.47	345.57	14.22	-31.5	-35.9	10.4	4.05e-03	0	43	102	1048576	23	5980
2026-01-04 10:05:03.48	345.48	13.91	-31.6	-36.2	10.2	5.99e-03	0	43	102	1048576	23	6116
2026-01-04 10:05:06.50	345.40	13.61	-31.5	-35.8	10.5	4.38e-03	0	43	102	1048576	23	5946
2026-01-04 10:05:09.52	345.31	13.31	-31.5	-35.9	10.4	5.89e-03	0	44	102	1048576	23	5964
2026-01-04 10:05:12.53	345.23	13.02	-31.4	-35.7	10.5	4.05e-03	0	43	102	1048576	23	5881
2026-01-04 10:05:15.55	345.15	12.73	-31.4	-35.8	10.4	4.77e-03	0	43	102	1048576	23	5942
2026-01-04 10:05:18.57	345.07	12.44	-31.4	-35.7	10.5	3.72e-03	0	43	102	1048576	23	5876
2026-01-04 10:05:21.59	344.99	12.16	-31.4	-35.6	10.6	3.63e-03	0	44	102	1048576	23	5831
2026-01-04 10:05:24.61	344.92	11.88	-31.4	-35.5	10.5	4.28e-03	0	44	102	1048576	23	5830
2026-01-04 10:05:27.62	344.84	11.60	-31.4	-35.5	10.5	3.87e-03	0	43	102	1048576	23	5826
2026-01-04 10:05:30.64	344.77	11.32	-31.4	-35.7	10.4	4.87e-03	0	43	102	1048576	23	5911
2026-01-04 10:05:33.66	344.70	11.05	-31.3	-35.5	10.5	3.62e-03	0	44	102	1048576	23	5829
2026-01-04 10:05:36.69	344.63	10.78	-31.4	-35.8	10.3	6.05e-03	0	43	102	1048576	23	5966
2026-01-04 10:05:39.71	344.56	10.51	-31.5	-36.3	9.9	9.41e-03	0	44	102	1048576	23	6202
2026-01-04 10:05:42.73	344.50	10.25	-31.4	-36.0	10.1	7.46e-03	0	43	102	1048576	23	6059
2026-01-04 10:05:45.75	344.43	9.99	-31.4	-36.0	10.1	8.20e-03	0	43	102	1048576	23	6067
2026-01-04 10:05:48.77	344.37	9.73	-31.5	-36.4	9.7	9.47e-03	0	44	102	1048576	23	6303
2026-01-04 10:05:51.78	344.31	9.48	-31.5	-36.4	9.7	1.06e-02	0	43	102	1048576	23	6309
2026-01-04 10:05:54.80	344.24	9.23	-31.6	-36.8	9.4	1.58e-02	0	43	102	1048576	23	6501
2026-01-04 10:05:57.80	344.18	8.98	-31.6	-36.7	9.4	1.75e-02	0	43	102	1048576	23	6492
2026-01-04 10:06:00.83	344.13	8.73	-31.6	-36.6	9.4	1.74e-02	0	43	102	1048576	23	6445
2026-01-04 10:06:03.84	344.07	8.48	-31.6	-36.8	9.2	1.77e-02	0	43	102	1048576	23	6578
2026-01-04 10:06:06.86	344.01	8.24	-31.6	-37.0	9.1	1.93e-02	0	44	102	1048576	23	6645
2026-01-04 10:06:09.88	343.96	8.00	-31.7	-37.2	8.8	2.60e-02	0	43	102	1048576	23	6819
2026-01-04 10:06:12.90	343.90	7.76	-31.8	-37.6	8.5	3.67e-02	0	43	102	1048576	23	7065
2026-01-04 10:06:15.92	343.85	7.52	-31.7	-37.3	8.7	3.08e-02	0	43	102	1048576	23	6873
2026-01-04 10:06:18.94	343.80	7.29	-31.6	-37.2	8.8	3.30e-02	0	43	102	1048576	23	6803
2026-01-04 10:06:21.96	343.75	7.06	-33.2	-46.3	3.8	1.49e+00	0	43	104	1048576	26	16257

#Closed at: 2026-01-04 10:06:24
#Recorded file [1 MB]: D:/data/31010_260104_125428.dat