passes_logs/2026/01/04/R2M6_AANII_01/R2M6_AANII_01__20260104_121447_FENGYUN_3D_rec.log

#Pass ID: 20260104_121447_FENGYUN 3D
#Satellite: FENGYUN 3D
#Configuration: FENGYUN 3D
#almurnet v.1.7.20240730
#Start time: 2026-01-04 12:14:47

#Version: 2.2.20231116
#Station: R2M6_AANII_01
#Location: 30.233357 lon 59.946436 lat
#TLE: 1 43010U 17072A   26003.51579816  .00000092  00000+0  65324-4 0  9992
#TLE: 2 43010  98.9912 335.1548 0001916 128.4619 231.6729 14.19692074421623

#Time	Az	El	Level	Level2	SNR	BER	BlckErr	Temp	State	Recorded	gain1	gain2
2026-01-04 12:14:47.36	157.07	7.00	-28.9	-31.4	5.5	7.84e-01	0	41	0	0	19	4755
2026-01-04 12:14:50.37	157.07	7.24	-29.3	-32.2	10.2	7.02e-03	0	41	102	1048576	19	5006
2026-01-04 12:14:53.40	157.07	7.47	-29.0	-31.1	11.0	2.98e-03	0	41	102	1048576	19	4621
2026-01-04 12:14:56.42	157.07	7.71	-29.0	-31.6	11.1	2.06e-03	0	41	102	1048576	18	4881
2026-01-04 12:14:59.44	157.07	7.96	-28.5	-30.5	11.8	9.21e-04	0	41	102	1048576	18	4534
2026-01-04 12:15:02.46	157.07	8.20	-27.9	-29.5	12.8	8.35e-05	0	41	102	1048576	17	4307
2026-01-04 12:15:05.48	157.07	8.45	-27.8	-29.7	13.0	6.63e-05	0	41	102	1048576	16	4467
2026-01-04 12:15:08.50	157.07	8.70	-27.7	-29.4	13.2	4.69e-05	0	41	102	1048576	16	4377
2026-01-04 12:15:11.52	157.07	8.95	-27.8	-29.6	13.1	5.60e-05	0	41	102	1048576	16	4440
2026-01-04 12:15:14.54	157.07	9.20	-27.7	-29.4	13.2	5.83e-05	0	41	102	1048576	16	4386
2026-01-04 12:15:17.56	157.06	9.46	-27.7	-29.2	13.4	3.08e-05	0	41	102	1048576	16	4312
2026-01-04 12:15:20.57	157.06	9.72	-27.6	-29.1	13.5	1.60e-05	0	42	102	1048576	16	4276
2026-01-04 12:15:23.59	157.06	9.98	-27.7	-29.2	13.4	4.11e-05	0	42	102	1048576	16	4312
2026-01-04 12:15:26.61	157.06	10.24	-27.6	-29.1	13.5	1.37e-05	0	42	102	1048576	16	4284
2026-01-04 12:15:29.64	157.06	10.51	-27.7	-29.4	13.4	1.71e-05	0	41	102	1048576	16	4348
2026-01-04 12:15:32.65	157.06	10.78	-27.5	-28.8	13.8	1.02e-05	0	42	102	1048576	16	4179
2026-01-04 12:15:35.67	157.05	11.06	-27.3	-28.4	14.0	1.48e-05	0	42	102	1048576	16	4078
2026-01-04 12:15:38.69	157.05	11.33	-27.3	-28.5	14.0	3.40e-06	0	42	102	1048576	16	4098
2026-01-04 12:15:41.71	157.05	11.61	-27.0	-28.2	14.3	0.00e+00	0	42	102	1048576	15	4136
2026-01-04 12:15:44.73	157.05	11.90	-26.9	-28.0	14.4	0.00e+00	0	42	102	1048576	15	4090
2026-01-04 12:15:47.75	157.04	12.18	-27.1	-28.3	14.2	2.20e-06	0	42	102	1048576	15	4173
2026-01-04 12:15:50.78	157.04	12.47	-27.0	-28.2	14.3	2.20e-06	0	42	102	1048576	15	4127
2026-01-04 12:15:53.80	157.03	12.77	-26.9	-27.9	14.5	5.70e-06	0	42	102	1048576	15	4057
2026-01-04 12:15:56.82	157.03	13.07	-26.9	-28.0	14.5	0.00e+00	0	42	102	1048576	15	4088
2026-01-04 12:15:59.84	157.03	13.37	-26.7	-28.0	14.8	0.00e+00	0	42	102	1048576	14	4190
2026-01-04 12:16:02.86	157.02	13.67	-26.7	-27.9	14.8	0.00e+00	0	42	102	1048576	14	4162
2026-01-04 12:16:05.88	157.02	13.98	-26.5	-27.6	15.0	0.00e+00	0	42	102	1048576	14	4083
2026-01-04 12:16:08.89	157.01	14.29	-26.4	-27.3	15.2	0.00e+00	0	42	102	1048576	14	4006
2026-01-04 12:16:11.90	157.01	14.61	-26.2	-27.4	15.4	1.10e-06	0	42	102	1048576	13	4138
2026-01-04 12:16:14.93	157.00	14.93	-26.3	-27.6	15.4	0.00e+00	0	42	102	1048576	13	4176
2026-01-04 12:16:17.95	156.99	15.25	-26.2	-27.4	15.5	0.00e+00	0	42	102	1048576	13	4138
2026-01-04 12:16:20.98	156.99	15.58	-26.1	-27.1	15.6	0.00e+00	0	42	102	1048576	13	4050
2026-01-04 12:16:24.00	156.98	15.92	-26.2	-27.3	15.5	0.00e+00	0	43	102	1048576	13	4106
2026-01-04 12:16:27.02	156.97	16.26	-25.7	-26.9	16.1	0.00e+00	0	43	102	1048576	12	4097
2026-01-04 12:16:30.04	156.97	16.60	-26.0	-27.5	15.7	0.00e+00	0	42	102	1048576	12	4261
2026-01-04 12:16:33.05	156.96	16.95	-25.9	-27.1	16.0	0.00e+00	0	42	102	1048576	12	4157
2026-01-04 12:16:36.07	156.95	17.30	-25.8	-27.1	16.0	0.00e+00	0	42	102	1048576	12	4145
2026-01-04 12:16:39.09	156.94	17.66	-25.7	-26.7	16.2	0.00e+00	0	43	102	1048576	12	4059
2026-01-04 12:16:42.11	156.93	18.02	-25.3	-25.9	16.7	0.00e+00	0	42	102	1048576	12	3852
2026-01-04 12:16:45.13	156.92	18.39	-25.4	-26.6	16.6	0.00e+00	0	43	102	1048576	11	4144
2026-01-04 12:16:48.15	156.91	18.77	-25.3	-26.3	16.8	0.00e+00	0	43	102	1048576	11	4051
2026-01-04 12:16:51.17	156.90	19.15	-25.2	-26.1	16.9	0.00e+00	0	43	102	1048576	11	4009
2026-01-04 12:16:54.20	156.89	19.54	-25.2	-26.1	16.9	0.00e+00	0	43	102	1048576	11	4001
2026-01-04 12:16:57.21	156.88	19.93	-25.1	-26.0	17.0	0.00e+00	0	43	102	1048576	11	3987
2026-01-04 12:17:00.23	156.87	20.33	-25.2	-26.1	16.9	0.00e+00	0	43	102	1048576	11	4007
2026-01-04 12:17:03.26	156.86	20.73	-25.1	-25.9	17.1	0.00e+00	0	43	102	1048576	11	3961
2026-01-04 12:17:06.27	156.84	21.15	-25.1	-26.0	17.1	0.00e+00	0	43	102	1048576	11	3975
2026-01-04 12:17:09.29	156.83	21.56	-24.8	-25.3	17.4	0.00e+00	0	43	102	1048576	11	3822
2026-01-04 12:17:12.31	156.81	21.99	-24.8	-25.7	17.4	0.00e+00	0	43	102	1048576	10	4022
2026-01-04 12:17:15.33	156.80	22.42	-24.8	-25.9	17.4	0.00e+00	0	43	102	1048576	10	4060
2026-01-04 12:17:18.36	156.78	22.87	-24.6	-25.3	17.7	0.00e+00	0	43	102	1048576	10	3922
2026-01-04 12:17:21.38	156.77	23.32	-24.5	-25.0	17.9	0.00e+00	0	43	102	1048576	10	3855
2026-01-04 12:17:24.39	156.75	23.77	-24.3	-24.7	18.1	0.00e+00	0	43	102	1048576	10	3775
2026-01-04 12:17:27.41	156.73	24.24	-24.2	-25.0	18.2	0.00e+00	0	43	102	1048576	9	3948
2026-01-04 12:17:30.43	156.71	24.71	-24.3	-25.2	18.1	0.00e+00	0	43	102	1048576	9	3995
2026-01-04 12:17:33.45	156.69	25.19	-24.2	-25.0	18.2	0.00e+00	0	43	102	1048576	9	3940
2026-01-04 12:17:36.47	156.67	25.68	-24.2	-25.1	18.2	0.00e+00	0	43	102	1048576	9	3966
2026-01-04 12:17:39.49	156.65	26.18	-24.2	-24.9	18.3	0.00e+00	0	43	102	1048576	9	3920
2026-01-04 12:17:42.52	156.63	26.69	-24.2	-24.9	18.3	0.00e+00	0	43	102	1048576	9	3931
2026-01-04 12:17:45.54	156.60	27.21	-24.2	-24.9	18.3	0.00e+00	0	43	102	1048576	9	3931
2026-01-04 12:17:48.56	156.58	27.74	-24.5	-25.6	17.9	0.00e+00	0	43	102	1048576	9	4101
2026-01-04 12:17:51.57	156.55	28.28	-24.5	-25.6	18.0	0.00e+00	0	43	102	1048576	9	4103
2026-01-04 12:17:54.59	156.53	28.83	-24.7	-26.0	17.8	0.00e+00	0	43	102	1048576	9	4196
2026-01-04 12:17:57.60	156.50	29.39	-24.4	-25.5	18.1	0.00e+00	0	43	102	1048576	9	4068
2026-01-04 12:18:00.62	156.47	29.96	-24.2	-25.1	18.2	0.00e+00	0	43	102	1048576	9	3978
2026-01-04 12:18:03.64	156.44	30.55	-23.8	-24.2	18.7	0.00e+00	0	43	102	1048576	9	3766
2026-01-04 12:18:06.66	156.40	31.14	-23.8	-24.6	18.8	0.00e+00	0	43	102	1048576	8	3959
2026-01-04 12:18:09.68	156.37	31.75	-23.9	-24.8	18.7	0.00e+00	0	43	102	1048576	8	4013
2026-01-04 12:18:12.69	156.33	32.37	-24.1	-25.3	18.5	0.00e+00	0	43	102	1048576	8	4132
2026-01-04 12:18:15.71	156.29	33.00	-23.9	-24.8	18.7	0.00e+00	0	43	102	1048576	8	4021
2026-01-04 12:18:18.73	156.25	33.65	-23.9	-24.9	18.7	0.00e+00	0	43	102	1048576	8	4019
2026-01-04 12:18:21.74	156.21	34.31	-23.7	-24.5	18.8	0.00e+00	0	43	102	1048576	8	3944
2026-01-04 12:18:24.76	156.17	34.99	-23.6	-24.2	19.0	0.00e+00	0	43	102	1048576	8	3871
2026-01-04 12:18:27.78	156.12	35.68	-23.6	-24.3	19.0	0.00e+00	0	43	102	1048576	8	3879
2026-01-04 12:18:30.81	156.07	36.39	-23.5	-24.1	19.1	0.00e+00	0	43	102	1048576	8	3840
2026-01-04 12:18:33.83	156.02	37.11	-23.6	-24.3	19.0	0.00e+00	0	43	102	1048576	8	3881
2026-01-04 12:18:36.85	155.97	37.85	-23.7	-24.4	18.9	0.00e+00	0	43	102	1048576	8	3923
2026-01-04 12:18:39.87	155.91	38.61	-23.4	-23.8	19.3	0.00e+00	0	43	102	1048576	8	3781
2026-01-04 12:18:42.89	155.85	39.38	-23.7	-24.5	18.9	0.00e+00	0	43	102	1048576	8	3938
2026-01-04 12:18:45.91	155.78	40.17	-23.9	-24.9	18.8	0.00e+00	0	43	102	1048576	8	4025
2026-01-04 12:18:48.93	155.72	40.98	-24.4	-25.8	18.3	0.00e+00	0	43	102	1048576	8	4264
2026-01-04 12:18:51.95	155.65	41.80	-24.3	-25.6	18.5	0.00e+00	0	43	102	1048576	8	4192
2026-01-04 12:18:54.98	155.57	42.65	-24.2	-25.5	18.5	0.00e+00	0	43	102	1048576	8	4161
2026-01-04 12:18:57.99	155.49	43.51	-24.4	-25.8	18.3	0.00e+00	0	43	102	1048576	8	4265
2026-01-04 12:19:01.01	155.40	44.40	-24.0	-25.0	18.8	0.00e+00	0	43	102	1048576	8	4053
2026-01-04 12:19:04.04	155.31	45.30	-24.9	-26.5	17.8	0.00e+00	0	43	102	1048576	9	4318
2026-01-04 12:19:07.05	155.21	46.23	-24.1	-24.7	18.7	0.00e+00	0	43	102	1048576	9	3865
2026-01-04 12:19:10.08	155.11	47.18	-23.7	-24.5	19.0	0.00e+00	0	43	102	1048576	8	3927
2026-01-04 12:19:13.08	155.00	48.14	-24.0	-25.0	18.8	0.00e+00	0	43	102	1048576	8	4041
2026-01-04 12:19:16.11	154.88	49.13	-24.0	-25.0	18.8	0.00e+00	0	43	102	1048576	8	4041
2026-01-04 12:19:19.14	154.75	50.15	-24.2	-25.4	18.7	0.00e+00	0	43	102	1048576	8	4136
2026-01-04 12:19:22.16	154.61	51.18	-24.4	-25.9	18.4	0.00e+00	0	43	102	1048576	8	4275
2026-01-04 12:19:25.17	154.46	52.24	-24.8	-26.2	18.0	0.00e+00	0	43	102	1048576	9	4221
2026-01-04 12:19:28.20	154.30	53.32	-25.0	-26.6	17.7	0.00e+00	0	43	102	1048576	9	4361
2026-01-04 12:19:31.22	154.13	54.43	-25.2	-26.6	17.5	0.00e+00	0	43	102	1048576	10	4221
2026-01-04 12:19:34.23	153.94	55.55	-25.0	-26.1	17.8	0.00e+00	0	43	102	1048576	10	4113
2026-01-04 12:19:37.25	153.74	56.70	-24.9	-25.9	17.9	0.00e+00	0	43	102	1048576	10	4051
2026-01-04 12:19:40.27	153.51	57.88	-24.8	-25.7	18.1	0.00e+00	0	43	102	1048576	10	3997
2026-01-04 12:19:43.29	153.27	59.08	-24.4	-24.9	18.5	0.00e+00	0	43	102	1048576	10	3814
2026-01-04 12:19:46.31	153.00	60.30	-24.1	-24.8	18.8	0.00e+00	0	43	102	1048576	9	3884
2026-01-04 12:19:49.34	152.70	61.55	-24.2	-24.9	18.7	0.00e+00	0	43	102	1048576	9	3924
2026-01-04 12:19:52.37	152.36	62.83	-23.8	-24.1	19.1	0.00e+00	0	43	102	1048576	9	3743
2026-01-04 12:19:55.39	151.99	64.12	-23.4	-23.7	19.5	0.00e+00	0	43	102	1048576	8	3752
2026-01-04 12:19:58.41	151.57	65.43	-23.6	-24.1	19.3	0.00e+00	0	43	102	1048576	8	3839
2026-01-04 12:20:01.43	151.10	66.77	-23.5	-23.9	19.5	0.00e+00	0	43	102	1048576	8	3790
2026-01-04 12:20:04.45	150.57	68.12	-23.3	-24.0	19.6	0.00e+00	0	43	102	1048576	7	3907
2026-01-04 12:20:07.47	149.95	69.49	-23.4	-24.3	19.5	0.00e+00	0	43	102	1048576	7	3997
2026-01-04 12:20:10.48	149.24	70.88	-22.8	-23.1	20.1	0.00e+00	0	43	102	1048576	7	3708
2026-01-04 12:20:13.50	148.41	72.29	-23.0	-23.9	19.9	0.00e+00	0	43	102	1048576	6	4012
2026-01-04 12:20:16.52	147.42	73.71	-22.4	-22.6	20.5	0.00e+00	0	43	102	1048576	6	3714
2026-01-04 12:20:19.53	146.23	75.14	-22.4	-23.3	20.4	0.00e+00	0	43	102	1048576	5	3985
2026-01-04 12:20:22.55	144.77	76.58	-22.2	-22.8	20.6	0.00e+00	0	43	102	1048576	5	3854
2026-01-04 12:20:25.57	142.95	78.02	-21.7	-22.2	21.2	0.00e+00	0	43	102	1048576	4	3834
2026-01-04 12:20:28.59	140.61	79.46	-21.3	-21.9	21.6	0.00e+00	0	43	102	1048576	3	3867
2026-01-04 12:20:31.61	137.52	80.89	-21.3	-21.9	21.6	0.00e+00	0	43	102	1048576	3	3860
2026-01-04 12:20:34.63	133.26	82.29	-20.9	-21.0	22.3	0.00e+00	0	43	102	1048576	3	3662
2026-01-04 12:20:37.65	127.13	83.64	-21.2	-22.2	21.9	0.00e+00	0	43	102	1048576	2	4046
2026-01-04 12:20:40.67	117.84	84.88	-22.1	-23.0	21.1	0.00e+00	0	43	102	1048576	4	3991
2026-01-04 12:20:43.69	103.25	85.91	-22.1	-23.1	21.1	0.00e+00	0	43	102	1048576	4	4018
2026-01-04 12:20:46.70	81.48	86.53	-22.4	-23.7	20.8	0.00e+00	0	43	102	1048576	4	4178
2026-01-04 12:20:49.72	55.62	86.51	-22.8	-23.9	20.5	0.00e+00	0	43	102	1048576	5	4097
2026-01-04 12:20:52.74	34.20	85.86	-23.1	-24.1	20.1	0.00e+00	0	43	102	1048576	6	4051
2026-01-04 12:20:55.76	20.02	84.81	-22.6	-23.0	20.6	0.00e+00	0	43	102	1048576	6	3788
2026-01-04 12:20:58.78	10.98	83.56	-22.9	-23.8	20.2	0.00e+00	0	43	102	1048576	6	3967
2026-01-04 12:21:01.80	4.99	82.21	-23.0	-24.0	20.1	0.00e+00	0	43	102	1048576	6	4005
2026-01-04 12:21:04.83	0.81	80.80	-22.6	-23.6	20.5	0.00e+00	0	43	102	1048576	5	4040
2026-01-04 12:21:07.85	357.77	79.37	-21.7	-22.3	21.4	0.00e+00	0	43	102	1048576	4	3829
2026-01-04 12:21:10.86	355.48	77.94	-21.8	-22.4	21.3	0.00e+00	0	43	102	1048576	4	3872
2026-01-04 12:21:13.88	353.68	76.50	-21.8	-22.4	21.3	0.00e+00	0	43	102	1048576	4	3862
2026-01-04 12:21:16.90	352.24	75.06	-22.1	-23.0	21.0	0.00e+00	0	43	102	1048576	4	3998
2026-01-04 12:21:19.93	351.06	73.62	-22.7	-23.8	20.4	0.00e+00	0	43	102	1048576	5	4073
2026-01-04 12:21:22.95	350.09	72.21	-22.4	-23.1	20.7	0.00e+00	0	43	102	1048576	5	3920
2026-01-04 12:21:25.97	349.26	70.80	-22.9	-24.2	20.2	0.00e+00	0	43	102	1048576	5	4179
2026-01-04 12:21:28.99	348.56	69.42	-23.5	-24.9	19.6	0.00e+00	0	43	102	1048576	6	4255
2026-01-04 12:21:32.01	347.95	68.05	-23.4	-24.8	19.6	0.00e+00	0	43	102	1048576	6	4230
2026-01-04 12:21:35.03	347.42	66.70	-23.4	-24.3	19.7	0.00e+00	0	43	102	1048576	7	3964
2026-01-04 12:21:38.06	346.95	65.36	-23.5	-24.5	19.5	0.00e+00	0	43	102	1048576	7	4032
2026-01-04 12:21:41.08	346.54	64.05	-23.3	-24.1	19.8	0.00e+00	0	43	102	1048576	7	3917
2026-01-04 12:21:44.10	346.17	62.76	-23.8	-25.1	19.3	0.00e+00	0	43	102	1048576	7	4168
2026-01-04 12:21:47.12	345.84	61.50	-23.5	-24.4	19.6	0.00e+00	0	43	102	1048576	7	3995
2026-01-04 12:21:50.15	345.54	60.25	-23.6	-24.7	19.5	0.00e+00	0	43	102	1048576	7	4063
2026-01-04 12:21:53.17	345.28	59.04	-24.0	-25.0	19.1	0.00e+00	0	43	102	1048576	8	4033
2026-01-04 12:21:56.17	345.03	57.85	-24.7	-25.9	18.4	0.00e+00	0	43	102	1048576	9	4141
2026-01-04 12:21:59.19	344.81	56.68	-24.9	-26.4	18.1	0.00e+00	0	43	102	1048576	9	4267
2026-01-04 12:22:02.21	344.61	55.53	-25.0	-26.0	18.0	0.00e+00	0	43	102	1048576	10	4066
2026-01-04 12:22:05.23	344.42	54.41	-24.9	-25.9	18.1	0.00e+00	0	43	102	1048576	10	4033
2026-01-04 12:22:08.26	344.25	53.30	-24.8	-25.7	18.2	0.00e+00	0	43	102	1048576	10	3975
2026-01-04 12:22:11.28	344.09	52.23	-24.6	-25.2	18.5	0.00e+00	0	43	102	1048576	10	3858
2026-01-04 12:22:14.30	343.94	51.17	-24.3	-25.1	18.7	0.00e+00	0	43	102	1048576	9	3941
2026-01-04 12:22:17.32	343.81	50.14	-24.2	-24.9	18.8	0.00e+00	0	43	102	1048576	9	3904
2026-01-04 12:22:20.33	343.68	49.14	-23.9	-24.9	19.1	0.00e+00	0	43	102	1048576	8	4007
2026-01-04 12:22:23.36	343.56	48.15	-23.8	-24.5	19.3	0.00e+00	0	43	102	1048576	8	3919
2026-01-04 12:22:26.38	343.45	47.18	-23.8	-24.5	19.3	0.00e+00	0	43	102	1048576	8	3904
2026-01-04 12:22:29.41	343.35	46.24	-23.8	-24.5	19.2	0.00e+00	0	43	102	1048576	8	3930
2026-01-04 12:22:32.43	343.25	45.32	-23.9	-24.7	19.1	0.00e+00	0	43	102	1048576	8	3963
2026-01-04 12:22:35.45	343.16	44.42	-23.9	-24.8	19.1	0.00e+00	0	43	102	1048576	8	3979
2026-01-04 12:22:38.47	343.08	43.54	-24.0	-25.1	18.9	0.00e+00	0	43	102	1048576	8	4057
2026-01-04 12:22:41.49	343.00	42.68	-24.0	-25.1	18.9	0.00e+00	0	43	102	1048576	8	4053
2026-01-04 12:22:44.51	342.92	41.83	-23.8	-24.5	19.2	0.00e+00	0	43	102	1048576	8	3904
2026-01-04 12:22:47.53	342.85	41.01	-23.4	-23.7	19.6	0.00e+00	0	43	102	1048576	8	3728
2026-01-04 12:22:50.55	342.79	40.21	-23.5	-24.0	19.4	0.00e+00	0	43	102	1048576	8	3810
2026-01-04 12:22:53.57	342.72	39.42	-23.6	-24.1	19.4	0.00e+00	0	43	102	1048576	8	3833
2026-01-04 12:22:56.59	342.66	38.65	-23.7	-24.3	19.3	0.00e+00	0	43	102	1048576	8	3875
2026-01-04 12:22:59.60	342.61	37.90	-23.2	-23.8	19.7	0.00e+00	0	43	102	1048576	7	3867
2026-01-04 12:23:02.62	342.55	37.17	-24.1	-25.2	18.8	0.00e+00	0	43	102	1048576	8	4100
2026-01-04 12:23:05.65	342.50	36.45	-23.9	-24.9	18.9	0.00e+00	0	43	102	1048576	8	4020
2026-01-04 12:23:08.68	342.46	35.74	-24.0	-24.9	18.9	0.00e+00	0	43	102	1048576	8	4018
2026-01-04 12:23:11.70	342.41	35.05	-23.4	-23.8	19.5	0.00e+00	0	43	102	1048576	8	3756
2026-01-04 12:23:14.71	342.37	34.38	-23.5	-23.9	19.4	0.00e+00	0	43	102	1048576	8	3768
2026-01-04 12:23:17.73	342.33	33.72	-23.8	-24.6	19.1	0.00e+00	0	43	102	1048576	8	3936
2026-01-04 12:23:20.74	342.29	33.08	-24.2	-25.5	18.6	0.00e+00	0	43	102	1048576	8	4177
2026-01-04 12:23:23.77	342.25	32.44	-24.4	-25.8	18.4	0.00e+00	0	43	102	1048576	8	4244
2026-01-04 12:23:26.79	342.22	31.82	-24.5	-26.0	18.3	0.00e+00	0	43	102	1048576	8	4286
2026-01-04 12:23:29.81	342.19	31.22	-24.0	-24.4	18.9	0.00e+00	0	43	102	1048576	9	3790
2026-01-04 12:23:32.83	342.15	30.62	-23.9	-24.3	19.0	0.00e+00	0	43	102	1048576	9	3754
2026-01-04 12:23:35.85	342.12	30.04	-23.7	-24.4	19.1	0.00e+00	0	43	102	1048576	8	3899
2026-01-04 12:23:38.87	342.10	29.47	-23.8	-24.5	19.1	0.00e+00	0	43	102	1048576	8	3924
2026-01-04 12:23:41.89	342.07	28.91	-23.8	-24.6	19.0	0.00e+00	0	43	102	1048576	8	3947
2026-01-04 12:23:44.91	342.04	28.37	-23.8	-24.7	19.0	0.00e+00	0	43	102	1048576	8	3965
2026-01-04 12:23:47.94	342.02	27.83	-24.3	-25.7	18.5	0.00e+00	0	43	102	1048576	8	4206
2026-01-04 12:23:50.96	341.99	27.30	-24.3	-25.7	18.5	0.00e+00	0	43	102	1048576	8	4212
2026-01-04 12:23:53.98	341.97	26.78	-24.3	-25.7	18.4	0.00e+00	0	43	102	1048576	8	4220
2026-01-04 12:23:57.00	341.95	26.28	-24.7	-25.9	18.0	0.00e+00	0	43	102	1048576	9	4154
2026-01-04 12:24:00.01	341.93	25.78	-24.2	-24.8	18.6	0.00e+00	0	43	102	1048576	9	3897
2026-01-04 12:24:03.03	341.91	25.29	-24.3	-25.3	18.4	0.00e+00	0	43	102	1048576	9	3998
2026-01-04 12:24:06.05	341.89	24.81	-24.5	-25.6	18.2	0.00e+00	0	43	102	1048576	9	4068
2026-01-04 12:24:09.07	341.88	24.34	-24.4	-25.3	18.3	0.00e+00	0	43	102	1048576	9	4010
2026-01-04 12:24:12.10	341.86	23.87	-24.6	-25.7	18.1	0.00e+00	0	43	102	1048576	9	4112
2026-01-04 12:24:15.11	341.84	23.42	-24.6	-25.8	18.0	0.00e+00	0	43	102	1048576	9	4120
2026-01-04 12:24:18.13	341.83	22.97	-24.8	-26.2	17.8	0.00e+00	0	43	102	1048576	9	4239
2026-01-04 12:24:21.15	341.82	22.53	-25.0	-26.6	17.6	0.00e+00	0	43	102	1048576	9	4330
2026-01-04 12:24:24.17	341.80	22.10	-25.2	-26.6	17.3	0.00e+00	0	43	102	1048576	10	4208
2026-01-04 12:24:27.19	341.79	21.68	-25.4	-27.1	17.1	0.00e+00	0	43	102	1048576	10	4348
2026-01-04 12:24:30.21	341.78	21.26	-25.6	-26.9	16.8	0.00e+00	0	43	102	1048576	11	4197
2026-01-04 12:24:33.22	341.77	20.85	-25.5	-26.7	17.0	0.00e+00	0	43	102	1048576	11	4143
2026-01-04 12:24:36.24	341.76	20.45	-25.4	-26.5	17.0	0.00e+00	0	43	102	1048576	11	4091
2026-01-04 12:24:39.26	341.75	20.05	-25.0	-25.6	17.5	0.00e+00	0	43	102	1048576	11	3872
2026-01-04 12:24:42.28	341.74	19.66	-25.1	-25.8	17.4	0.00e+00	0	43	102	1048576	11	3905
2026-01-04 12:24:45.29	341.73	19.27	-25.1	-25.9	17.3	0.00e+00	0	43	102	1048576	11	3937
2026-01-04 12:24:48.32	341.72	18.89	-25.2	-26.0	17.3	0.00e+00	0	43	102	1048576	11	3952
2026-01-04 12:24:51.33	341.71	18.52	-25.3	-26.2	17.2	0.00e+00	0	43	102	1048576	11	4003
2026-01-04 12:24:54.35	341.70	18.15	-25.4	-26.5	17.0	0.00e+00	0	43	102	1048576	11	4095
2026-01-04 12:24:57.37	341.70	17.79	-25.6	-27.0	16.7	0.00e+00	0	43	102	1048576	11	4204
2026-01-04 12:25:00.37	341.69	17.43	-25.8	-27.3	16.5	0.00e+00	0	43	102	1048576	11	4304
2026-01-04 12:25:03.39	341.68	17.08	-25.8	-26.9	16.4	0.00e+00	0	43	102	1048576	12	4075
2026-01-04 12:25:06.42	341.68	16.73	-25.6	-26.5	16.6	0.00e+00	0	43	102	1048576	12	3994
2026-01-04 12:25:09.44	341.67	16.39	-25.7	-26.7	16.5	0.00e+00	0	43	102	1048576	12	4024
2026-01-04 12:25:12.45	341.67	16.05	-25.7	-26.7	16.5	0.00e+00	0	43	102	1048576	12	4037
2026-01-04 12:25:15.48	341.66	15.72	-26.0	-27.3	16.1	0.00e+00	0	43	102	1048576	12	4196
2026-01-04 12:25:18.50	341.66	15.39	-26.1	-27.5	16.0	0.00e+00	0	43	102	1048576	12	4237
2026-01-04 12:25:21.52	341.66	15.07	-26.1	-27.4	16.0	0.00e+00	0	43	102	1048576	12	4225
2026-01-04 12:25:24.54	341.65	14.75	-26.0	-27.3	16.1	0.00e+00	0	43	102	1048576	12	4190
2026-01-04 12:25:27.57	341.65	14.43	-26.1	-27.5	15.9	0.00e+00	0	43	102	1048576	12	4245
2026-01-04 12:25:30.58	341.65	14.12	-26.1	-27.6	15.9	0.00e+00	0	43	102	1048576	12	4273
2026-01-04 12:25:33.59	341.64	13.81	-26.2	-27.7	15.8	0.00e+00	0	43	102	1048576	12	4297
2026-01-04 12:25:36.62	341.64	13.51	-26.2	-27.9	15.7	0.00e+00	0	43	102	1048576	12	4338
2026-01-04 12:25:39.63	341.64	13.21	-26.3	-28.1	15.6	0.00e+00	0	43	102	1048576	12	4394
2026-01-04 12:25:42.65	341.64	12.91	-26.5	-28.0	15.3	0.00e+00	0	43	102	1048576	13	4274
2026-01-04 12:25:45.67	341.64	12.62	-26.9	-28.9	14.8	3.40e-06	0	43	102	1048576	13	4518
2026-01-04 12:25:48.70	341.64	12.33	-27.0	-28.7	14.7	1.10e-06	0	43	102	1048576	14	4338
2026-01-04 12:25:51.71	341.64	12.05	-27.2	-29.0	14.5	1.10e-06	0	43	102	1048576	14	4424
2026-01-04 12:25:54.74	341.64	11.76	-27.4	-29.6	14.1	1.10e-06	0	43	102	1048576	14	4603
2026-01-04 12:25:57.76	341.63	11.48	-27.1	-28.3	14.6	0.00e+00	0	43	102	1048576	15	4123
2026-01-04 12:26:00.77	341.63	11.21	-26.8	-27.6	14.9	1.10e-06	0	43	102	1048576	15	3951
2026-01-04 12:26:03.80	341.64	10.93	-26.9	-28.3	14.8	0.00e+00	0	43	102	1048576	14	4255
2026-01-04 12:26:06.82	341.64	10.66	-26.9	-28.4	14.7	0.00e+00	0	43	102	1048576	14	4260
2026-01-04 12:26:09.85	341.64	10.40	-27.0	-28.5	14.6	2.20e-06	0	43	102	1048576	14	4298
2026-01-04 12:26:12.86	341.64	10.13	-27.0	-28.6	14.6	0.00e+00	0	43	102	1048576	14	4328
2026-01-04 12:26:15.90	341.64	9.87	-27.1	-28.8	14.4	0.00e+00	0	43	102	1048576	14	4376
2026-01-04 12:26:18.92	341.64	9.61	-27.2	-29.1	14.2	1.10e-06	0	43	102	1048576	14	4468
2026-01-04 12:26:21.93	341.64	9.35	-27.3	-29.3	14.1	4.50e-06	0	43	102	1048576	14	4527
2026-01-04 12:26:24.95	341.64	9.10	-27.4	-29.6	13.9	8.00e-06	0	43	102	1048576	14	4614
2026-01-04 12:26:27.97	341.65	8.85	-27.9	-30.3	13.2	2.74e-05	0	43	102	1048576	15	4720
2026-01-04 12:26:30.97	341.65	8.60	-27.9	-30.2	13.2	2.97e-05	0	43	102	1048576	15	4699
2026-01-04 12:26:34.00	341.65	8.36	-28.2	-30.3	13.0	6.52e-05	0	43	102	1048576	16	4602
2026-01-04 12:26:37.02	341.65	8.11	-28.1	-30.1	13.1	6.40e-05	0	43	102	1048576	16	4539
2026-01-04 12:26:40.04	341.65	7.87	-27.7	-29.3	13.5	2.40e-05	0	43	102	1048576	16	4314
2026-01-04 12:26:43.06	341.66	7.63	-27.8	-29.4	13.4	2.05e-05	0	43	102	1048576	16	4339
2026-01-04 12:26:46.08	341.66	7.40	-27.7	-29.3	13.4	3.20e-05	0	43	102	1048576	16	4317
2026-01-04 12:26:49.11	341.66	7.16	-27.9	-29.7	13.2	3.54e-05	0	43	102	1048576	16	4438

#Closed at: 2026-01-04 12:26:51
#Recorded file [1 MB]: D:/data/31010_260104_151449.dat