passes_logs/2026/01/04/R2M6_AANII_01/R2M6_AANII_01__20260104_130851_AQUA_rec.log

#Pass ID: 20260104_130851_AQUA
#Satellite: AQUA
#Configuration: AQUA
#almurnet v.1.7.20240730
#Start time: 2026-01-04 13:08:53

#Version: 2.2.20231116
#Station: R2M6_AANII_01
#Location: 30.233357 lon 59.946436 lat
#TLE: 1 27424U 02022A   26003.93831471  .00001925  00000+0  39553-3 0  9996
#TLE: 2 27424  98.4067 330.1809 0002002  92.1714 343.8415 14.61796291259276

#Time	Az	El	Level	Level2	SNR	BER	BlckErr	Temp	State	Recorded	gain1	gain2
2026-01-04 13:08:53.75	198.97	7.14	-31.2	-37.0	5.2	7.06e-01	0	40	0	0	23	7036
2026-01-04 13:08:56.76	199.23	7.36	-31.4	-36.1	14.6	6.07e-01	0	41	102	524288	25	6128
2026-01-04 13:08:59.78	199.48	7.59	-30.8	-34.9	16.2	6.06e-01	0	41	102	524288	23	5732
2026-01-04 13:09:02.80	199.75	7.81	-30.6	-34.0	16.8	6.06e-01	0	41	102	524288	23	5366
2026-01-04 13:09:05.81	200.01	8.04	-30.6	-34.3	16.7	6.06e-01	0	41	102	524288	23	5459
2026-01-04 13:09:08.84	200.28	8.28	-30.5	-33.6	17.2	6.08e-01	0	41	102	524288	23	5185
2026-01-04 13:09:11.87	200.56	8.51	-30.6	-34.0	17.0	6.08e-01	0	41	102	524288	23	5335
2026-01-04 13:09:14.90	200.84	8.74	-30.5	-33.8	17.2	6.07e-01	0	41	102	524288	23	5242
2026-01-04 13:09:17.92	201.12	8.98	-30.5	-33.6	17.3	6.05e-01	0	41	102	524288	23	5168
2026-01-04 13:09:20.94	201.41	9.22	-30.5	-33.6	17.3	6.05e-01	0	41	102	524288	23	5179
2026-01-04 13:09:23.96	201.70	9.46	-30.4	-33.8	17.6	6.05e-01	0	41	102	524288	22	5326
2026-01-04 13:09:26.99	202.00	9.70	-30.5	-34.2	17.3	6.08e-01	0	41	102	524288	22	5502
2026-01-04 13:09:29.99	202.31	9.95	-30.4	-33.8	17.6	6.08e-01	0	42	102	524288	22	5338
2026-01-04 13:09:33.01	202.62	10.20	-30.3	-33.6	17.8	6.08e-01	0	42	102	524288	22	5249
2026-01-04 13:09:36.02	202.93	10.44	-30.2	-33.3	17.9	6.06e-01	0	41	102	524288	22	5129
2026-01-04 13:09:39.04	203.25	10.69	-30.2	-33.3	18.0	6.06e-01	0	42	102	524288	22	5129
2026-01-04 13:09:42.06	203.58	10.95	-30.3	-33.5	17.9	6.06e-01	0	42	102	524288	22	5204
2026-01-04 13:09:45.08	203.91	11.20	-30.2	-33.3	18.0	6.04e-01	0	42	102	524288	22	5109
2026-01-04 13:09:48.11	204.25	11.46	-30.1	-33.0	18.2	6.05e-01	0	42	102	524288	22	5005
2026-01-04 13:09:51.13	204.60	11.72	-30.1	-32.9	18.3	6.07e-01	0	42	102	524288	22	4955
2026-01-04 13:09:54.15	204.95	11.98	-30.2	-33.0	18.3	6.06e-01	0	42	102	524288	22	5017
2026-01-04 13:09:57.18	205.31	12.25	-30.1	-32.8	18.4	6.06e-01	0	42	102	524288	22	4939
2026-01-04 13:10:00.20	205.67	12.51	-30.3	-33.5	18.0	6.07e-01	0	42	102	524288	22	5183
2026-01-04 13:10:03.22	206.04	12.78	-30.2	-33.1	18.2	6.07e-01	0	42	102	524288	22	5044
2026-01-04 13:10:06.24	206.42	13.05	-30.2	-33.2	18.2	6.05e-01	0	42	102	524288	22	5054
2026-01-04 13:10:09.26	206.81	13.33	-30.0	-32.6	18.6	6.05e-01	0	42	102	524288	22	4842
2026-01-04 13:10:12.28	207.20	13.60	-29.9	-32.3	18.8	6.08e-01	0	42	102	524288	22	4741
2026-01-04 13:10:15.30	207.60	13.88	-29.9	-32.3	18.8	6.07e-01	0	42	102	524288	22	4733
2026-01-04 13:10:18.33	208.01	14.16	-30.0	-33.0	18.7	6.04e-01	0	42	102	524288	21	5081
2026-01-04 13:10:21.34	208.43	14.44	-30.0	-33.0	18.8	6.07e-01	0	42	102	524288	21	5074
2026-01-04 13:10:24.37	208.86	14.73	-29.9	-32.8	18.8	6.07e-01	0	42	102	524288	21	5029
2026-01-04 13:10:27.39	209.29	15.02	-30.0	-32.9	18.8	6.05e-01	0	42	102	524288	21	5059
2026-01-04 13:10:30.41	209.74	15.31	-29.9	-32.7	19.0	6.04e-01	0	42	102	524288	21	4956
2026-01-04 13:10:33.43	210.19	15.60	-29.9	-32.7	19.0	6.05e-01	0	42	102	524288	21	4973
2026-01-04 13:10:36.45	210.65	15.89	-29.9	-32.8	18.9	6.07e-01	0	42	102	524288	21	5016
2026-01-04 13:10:39.47	211.12	16.19	-29.9	-32.7	19.0	6.05e-01	0	42	102	524288	21	4968
2026-01-04 13:10:42.51	211.60	16.49	-30.1	-33.2	18.8	6.05e-01	0	42	102	524288	21	5127
2026-01-04 13:10:45.52	212.09	16.79	-29.8	-32.4	19.2	6.05e-01	0	43	102	524288	21	4861
2026-01-04 13:10:48.55	212.60	17.09	-30.0	-32.8	19.0	6.07e-01	0	42	102	524288	21	5001
2026-01-04 13:10:51.56	213.11	17.40	-29.8	-32.4	19.3	6.05e-01	0	42	102	524288	21	4861
2026-01-04 13:10:54.59	213.63	17.70	-30.0	-32.8	19.1	6.07e-01	0	42	102	524288	21	4983
2026-01-04 13:10:57.61	214.16	18.01	-29.8	-32.4	19.3	6.07e-01	0	42	102	524288	21	4861
2026-01-04 13:11:00.64	214.71	18.33	-29.9	-32.6	19.2	6.07e-01	0	42	102	524288	21	4905
2026-01-04 13:11:03.66	215.27	18.64	-29.8	-32.4	19.3	6.06e-01	0	42	102	524288	21	4862
2026-01-04 13:11:06.68	215.83	18.95	-29.8	-32.4	19.4	6.06e-01	0	43	102	524288	21	4845
2026-01-04 13:11:09.70	216.42	19.27	-29.8	-32.4	19.4	6.07e-01	0	42	102	524288	21	4829
2026-01-04 13:11:12.72	217.01	19.59	-29.8	-32.3	19.5	6.06e-01	0	42	102	524288	21	4809
2026-01-04 13:11:15.74	217.61	19.91	-29.9	-32.5	19.3	6.05e-01	0	43	102	524288	21	4877
2026-01-04 13:11:18.76	218.23	20.23	-29.9	-32.5	19.4	6.06e-01	0	43	102	524288	21	4864
2026-01-04 13:11:21.78	218.87	20.55	-29.9	-32.5	19.4	6.06e-01	0	43	102	524288	21	4863
2026-01-04 13:11:24.80	219.51	20.88	-30.0	-32.7	19.2	6.06e-01	0	43	102	524288	21	4959
2026-01-04 13:11:27.82	220.17	21.20	-29.9	-32.7	19.3	6.07e-01	0	42	102	524288	21	4926
2026-01-04 13:11:30.83	220.85	21.52	-29.9	-32.6	19.4	6.06e-01	0	43	102	524288	21	4911
2026-01-04 13:11:33.85	221.54	21.85	-30.0	-32.9	19.2	6.06e-01	0	43	102	524288	21	5009
2026-01-04 13:11:36.88	222.24	22.18	-30.0	-32.8	19.3	6.05e-01	0	42	102	524288	21	4974
2026-01-04 13:11:39.89	222.96	22.50	-29.9	-32.5	19.5	6.06e-01	0	43	102	524288	21	4848
2026-01-04 13:11:42.91	223.70	22.83	-30.1	-33.2	19.0	6.07e-01	0	43	102	524288	21	5108
2026-01-04 13:11:45.94	224.45	23.16	-30.2	-33.3	19.0	6.07e-01	0	43	102	524288	21	5150
2026-01-04 13:11:48.96	225.22	23.48	-30.0	-32.9	19.2	6.06e-01	0	43	102	524288	21	5011
2026-01-04 13:11:51.99	226.01	23.81	-30.0	-32.9	19.3	6.08e-01	0	43	102	524288	21	5002
2026-01-04 13:11:55.01	226.81	24.13	-30.2	-33.3	19.0	6.06e-01	0	43	102	524288	21	5158
2026-01-04 13:11:58.03	227.63	24.46	-30.2	-33.3	19.0	6.04e-01	0	43	102	524288	21	5147
2026-01-04 13:12:01.05	228.46	24.78	-30.1	-33.1	19.2	6.05e-01	0	43	102	524288	21	5076
2026-01-04 13:12:04.07	229.32	25.10	-30.1	-33.0	19.2	6.04e-01	0	43	102	524288	21	5050
2026-01-04 13:12:07.09	230.19	25.41	-30.3	-33.6	18.9	6.08e-01	0	43	102	524288	21	5257
2026-01-04 13:12:10.12	231.08	25.73	-30.1	-33.1	19.2	6.07e-01	0	43	102	524288	21	5064
2026-01-04 13:12:13.15	231.99	26.04	-30.1	-32.9	19.3	6.09e-01	0	43	102	524288	21	4992
2026-01-04 13:12:16.16	232.91	26.35	-30.1	-33.0	19.2	6.07e-01	0	43	102	524288	21	5028
2026-01-04 13:12:19.18	233.86	26.65	-30.2	-33.2	19.2	6.06e-01	0	43	102	524288	21	5089
2026-01-04 13:12:22.20	234.82	26.95	-30.3	-33.6	18.9	6.06e-01	0	43	102	524288	21	5238
2026-01-04 13:12:25.22	235.80	27.24	-30.4	-33.7	18.9	6.07e-01	0	43	102	524288	21	5263
2026-01-04 13:12:28.24	236.80	27.53	-30.4	-33.7	18.9	6.05e-01	0	43	102	524288	21	5273
2026-01-04 13:12:31.26	237.82	27.81	-30.3	-33.6	19.0	6.05e-01	0	43	102	524288	21	5231
2026-01-04 13:12:34.29	238.85	28.09	-30.4	-33.2	18.9	6.09e-01	0	43	102	524288	22	4959
2026-01-04 13:12:37.31	239.91	28.36	-30.6	-33.8	18.5	6.08e-01	0	43	102	524288	22	5186
2026-01-04 13:12:40.33	240.98	28.62	-30.4	-33.2	18.9	6.05e-01	0	43	102	524288	22	4965
2026-01-04 13:12:43.35	242.07	28.87	-30.2	-32.8	19.2	6.07e-01	0	43	102	524288	22	4820
2026-01-04 13:12:46.35	243.17	29.12	-30.2	-32.6	19.3	6.06e-01	0	43	102	524288	22	4768
2026-01-04 13:12:49.38	244.29	29.35	-30.2	-32.6	19.3	6.06e-01	0	43	102	524288	22	4753
2026-01-04 13:12:52.39	245.43	29.58	-30.4	-33.2	18.9	6.07e-01	0	43	102	524288	22	4988
2026-01-04 13:12:55.40	246.58	29.79	-30.1	-32.3	19.5	6.08e-01	0	43	102	524288	22	4659
2026-01-04 13:12:58.42	247.75	30.00	-30.1	-32.5	19.4	6.08e-01	0	43	102	524288	22	4712
2026-01-04 13:13:01.45	248.94	30.19	-30.0	-32.1	19.7	6.04e-01	0	43	102	524288	22	4586
2026-01-04 13:13:04.46	250.14	30.38	-30.0	-32.6	19.7	6.06e-01	0	43	102	524288	21	4862
2026-01-04 13:13:07.48	251.35	30.55	-30.2	-33.2	19.3	6.06e-01	0	43	102	524288	21	5076
2026-01-04 13:13:10.51	252.58	30.70	-30.1	-33.0	19.4	6.06e-01	0	43	102	524288	21	4996
2026-01-04 13:13:13.52	253.81	30.85	-30.0	-32.7	19.6	6.06e-01	0	43	102	524288	21	4906
2026-01-04 13:13:16.54	255.06	30.98	-29.8	-32.2	19.9	6.06e-01	0	43	102	524288	21	4726
2026-01-04 13:13:19.56	256.31	31.09	-29.8	-32.1	19.9	6.05e-01	0	43	102	524288	21	4710
2026-01-04 13:13:22.57	257.58	31.20	-29.8	-32.1	20.0	6.05e-01	0	43	102	524288	21	4695
2026-01-04 13:13:25.60	258.85	31.28	-29.9	-32.3	19.9	6.04e-01	0	43	102	524288	21	4754
2026-01-04 13:13:28.62	260.13	31.36	-30.0	-32.7	19.6	6.04e-01	0	43	102	524288	21	4898
2026-01-04 13:13:31.63	261.41	31.41	-29.7	-31.8	20.2	6.08e-01	0	43	102	524288	21	4594
2026-01-04 13:13:34.66	262.71	31.46	-29.8	-32.2	19.9	6.07e-01	0	43	102	524288	21	4730
2026-01-04 13:13:37.67	263.99	31.48	-29.6	-31.7	20.2	6.07e-01	0	43	102	524288	21	4569
2026-01-04 13:13:40.70	265.29	31.50	-29.7	-32.0	20.1	6.08e-01	0	43	102	524288	21	4662
2026-01-04 13:13:43.73	266.59	31.49	-29.7	-31.9	20.1	6.07e-01	0	43	102	524288	21	4636
2026-01-04 13:13:46.75	267.88	31.47	-29.6	-31.6	20.2	6.06e-01	0	43	102	524288	21	4551
2026-01-04 13:13:49.77	269.17	31.44	-30.0	-32.7	19.7	6.05e-01	0	43	102	524288	21	4897
2026-01-04 13:13:52.79	270.45	31.39	-29.8	-32.2	19.9	6.06e-01	0	43	102	524288	21	4723
2026-01-04 13:13:55.81	271.73	31.32	-30.0	-32.6	19.7	6.08e-01	0	43	102	524288	21	4855
2026-01-04 13:13:58.83	273.01	31.24	-29.7	-32.0	20.1	6.07e-01	0	43	102	524288	21	4650
2026-01-04 13:14:01.84	274.27	31.15	-29.7	-32.0	20.0	6.05e-01	0	43	102	524288	21	4662
2026-01-04 13:14:04.86	275.53	31.04	-29.7	-31.8	20.1	6.06e-01	0	43	102	524288	21	4591
2026-01-04 13:14:07.88	276.78	30.92	-29.6	-31.7	20.2	6.05e-01	0	43	102	524288	21	4574
2026-01-04 13:14:10.90	278.02	30.78	-29.5	-31.4	20.4	6.03e-01	0	43	102	524288	21	4464
2026-01-04 13:14:13.92	279.25	30.63	-29.6	-31.6	20.3	6.05e-01	0	43	102	524288	21	4538
2026-01-04 13:14:16.95	280.47	30.47	-29.5	-31.4	20.4	6.07e-01	0	43	102	524288	21	4473
2026-01-04 13:14:19.97	281.68	30.29	-29.6	-31.7	20.2	6.06e-01	0	43	102	524288	21	4579
2026-01-04 13:14:22.98	282.86	30.11	-29.6	-31.7	20.2	6.07e-01	0	43	102	524288	21	4577
2026-01-04 13:14:26.01	284.04	29.91	-29.9	-32.3	19.9	6.06e-01	0	43	102	524288	21	4769
2026-01-04 13:14:29.04	285.21	29.70	-29.7	-31.8	20.2	6.06e-01	0	43	102	524288	21	4602
2026-01-04 13:14:32.05	286.35	29.48	-29.9	-32.3	19.9	6.06e-01	0	43	102	524288	21	4773
2026-01-04 13:14:35.08	287.48	29.25	-29.5	-31.4	20.4	6.06e-01	0	43	102	524288	21	4487
2026-01-04 13:14:38.10	288.59	29.01	-29.6	-31.7	20.3	6.07e-01	0	43	102	524288	21	4563
2026-01-04 13:14:41.12	289.69	28.76	-29.7	-31.9	20.1	6.05e-01	0	43	102	524288	21	4639
2026-01-04 13:14:44.14	290.76	28.51	-29.8	-32.1	20.0	6.06e-01	0	43	102	524288	21	4680
2026-01-04 13:14:47.15	291.82	28.24	-29.8	-32.1	20.0	6.05e-01	0	43	102	524288	21	4697
2026-01-04 13:14:50.17	292.86	27.97	-29.9	-32.3	19.9	6.06e-01	0	43	102	524288	21	4746
2026-01-04 13:14:53.20	293.89	27.69	-30.0	-32.6	19.7	6.06e-01	0	43	102	524288	21	4849
2026-01-04 13:14:56.22	294.89	27.41	-30.0	-32.6	19.7	6.06e-01	0	43	102	524288	21	4874
2026-01-04 13:14:59.25	295.88	27.12	-29.9	-32.2	19.9	6.05e-01	0	43	102	524288	21	4732
2026-01-04 13:15:02.27	296.85	26.82	-30.0	-32.7	19.6	6.05e-01	0	43	102	524288	21	4913
2026-01-04 13:15:05.29	297.80	26.53	-30.3	-33.4	19.2	6.05e-01	0	43	102	524288	21	5137
2026-01-04 13:15:08.31	298.73	26.22	-30.2	-33.0	19.4	6.07e-01	0	43	102	524288	21	5011
2026-01-04 13:15:11.33	299.64	25.92	-30.0	-32.7	19.6	6.07e-01	0	43	102	524288	21	4894
2026-01-04 13:15:14.36	300.54	25.60	-30.1	-32.9	19.5	6.08e-01	0	43	102	524288	21	4953
2026-01-04 13:15:17.38	301.42	25.29	-30.1	-32.9	19.5	6.08e-01	0	43	102	524288	21	4953
2026-01-04 13:15:20.40	302.28	24.98	-30.1	-32.9	19.5	6.06e-01	0	43	102	524288	21	4948
2026-01-04 13:15:23.42	303.12	24.66	-30.2	-33.1	19.3	6.06e-01	0	43	102	524288	21	5047
2026-01-04 13:15:26.44	303.94	24.34	-30.2	-33.1	19.3	6.06e-01	0	43	102	524288	21	5054
2026-01-04 13:15:29.46	304.75	24.02	-30.2	-33.2	19.3	6.08e-01	0	43	102	524288	21	5073
2026-01-04 13:15:32.48	305.54	23.69	-30.4	-33.6	19.0	6.07e-01	0	43	102	524288	21	5220
2026-01-04 13:15:35.50	306.32	23.37	-30.3	-33.4	19.1	6.04e-01	0	43	102	524288	21	5163
2026-01-04 13:15:38.52	307.07	23.05	-30.2	-33.1	19.3	6.06e-01	0	43	102	524288	21	5041
2026-01-04 13:15:41.54	307.81	22.72	-30.1	-33.0	19.4	6.00e-01	0	43	102	524288	21	5008
2026-01-04 13:15:44.57	308.54	22.40	-30.1	-32.9	19.5	6.01e-01	0	43	102	524288	21	4963
2026-01-04 13:15:47.59	309.25	22.07	-30.2	-33.3	19.2	5.99e-01	0	43	102	524288	21	5102
2026-01-04 13:15:50.62	309.95	21.75	-30.2	-33.3	19.2	6.00e-01	0	43	102	524288	21	5108
2026-01-04 13:15:53.63	310.63	21.42	-30.2	-33.1	19.3	6.01e-01	0	43	102	524288	21	5038
2026-01-04 13:15:56.66	311.30	21.10	-30.1	-32.9	19.4	6.01e-01	0	43	102	524288	21	4961
2026-01-04 13:15:59.69	311.95	20.78	-30.1	-32.9	19.4	6.02e-01	0	43	102	524288	21	4965
2026-01-04 13:16:02.70	312.59	20.46	-30.0	-32.6	19.5	6.02e-01	0	43	102	524288	21	4889
2026-01-04 13:16:05.72	313.21	20.14	-30.0	-32.8	19.5	6.01e-01	0	43	102	524288	21	4930
2026-01-04 13:16:08.74	313.82	19.82	-30.0	-32.8	19.4	6.02e-01	0	43	102	524288	21	4937
2026-01-04 13:16:11.76	314.42	19.50	-30.0	-32.8	19.5	6.01e-01	0	43	102	524288	21	4946
2026-01-04 13:16:14.78	315.01	19.19	-30.1	-33.0	19.3	5.99e-01	0	43	102	524288	21	5031
2026-01-04 13:16:17.81	315.58	18.88	-30.4	-33.6	18.9	6.01e-01	0	43	102	524288	21	5261
2026-01-04 13:16:20.83	316.14	18.56	-30.3	-33.5	19.0	6.01e-01	0	43	102	524288	21	5196
2026-01-04 13:16:23.85	316.69	18.25	-30.1	-33.1	19.2	6.02e-01	0	43	102	524288	21	5067
2026-01-04 13:16:26.87	317.23	17.95	-30.0	-32.8	19.4	6.02e-01	0	43	102	524288	21	4934
2026-01-04 13:16:29.89	317.76	17.64	-30.0	-32.7	19.5	6.01e-01	0	43	102	524288	21	4908
2026-01-04 13:16:32.89	318.27	17.34	-29.9	-32.5	19.5	5.98e-01	0	43	102	524288	21	4851
2026-01-04 13:16:35.91	318.78	17.04	-29.9	-32.5	19.5	6.00e-01	0	43	102	524288	21	4864
2026-01-04 13:16:38.94	319.27	16.74	-29.9	-32.6	19.4	5.99e-01	0	43	102	524288	21	4885
2026-01-04 13:16:41.96	319.76	16.44	-29.9	-32.6	19.5	6.02e-01	0	43	102	524288	21	4880
2026-01-04 13:16:44.98	320.23	16.14	-30.1	-33.0	19.2	6.01e-01	0	43	102	524288	21	5033
2026-01-04 13:16:47.99	320.70	15.85	-30.0	-32.8	19.3	6.01e-01	0	43	102	524288	21	4951
2026-01-04 13:16:51.00	321.15	15.56	-30.0	-32.9	19.2	6.02e-01	0	43	102	524288	21	4999
2026-01-04 13:16:54.02	321.60	15.27	-29.9	-32.6	19.4	5.99e-01	0	43	102	524288	21	4905
2026-01-04 13:16:57.04	322.04	14.99	-30.1	-33.0	19.1	6.01e-01	0	43	102	524288	21	5050
2026-01-04 13:17:00.06	322.47	14.70	-30.2	-33.3	18.9	6.01e-01	0	43	102	524288	21	5135
2026-01-04 13:17:03.08	322.89	14.42	-30.2	-33.4	18.9	6.02e-01	0	43	102	524288	21	5175
2026-01-04 13:17:06.10	323.30	14.14	-30.1	-33.1	19.1	6.01e-01	0	43	102	524288	21	5067
2026-01-04 13:17:09.12	323.71	13.86	-30.0	-32.8	19.2	6.00e-01	0	43	102	524288	21	4962
2026-01-04 13:17:12.15	324.11	13.59	-30.1	-33.0	19.1	5.98e-01	0	43	102	524288	21	5031
2026-01-04 13:17:15.18	324.50	13.31	-30.0	-33.0	19.0	6.01e-01	0	43	102	524288	21	5035
2026-01-04 13:17:18.21	324.89	13.04	-30.2	-33.4	18.7	6.00e-01	0	43	102	524288	21	5216
2026-01-04 13:17:21.24	325.26	12.77	-30.4	-33.9	18.4	6.00e-01	0	43	102	524288	21	5405
2026-01-04 13:17:24.25	325.63	12.51	-30.6	-34.5	18.0	6.00e-01	0	43	102	524288	21	5641
2026-01-04 13:17:27.27	325.99	12.25	-30.6	-34.1	17.9	6.00e-01	0	43	102	524288	22	5352
2026-01-04 13:17:30.29	326.35	11.98	-30.7	-34.2	17.8	6.00e-01	0	43	102	524288	22	5401
2026-01-04 13:17:33.31	326.70	11.73	-30.4	-33.4	18.4	6.00e-01	0	43	102	524288	22	5104
2026-01-04 13:17:36.33	327.04	11.47	-30.5	-33.8	18.1	6.02e-01	0	43	102	524288	22	5241
2026-01-04 13:17:39.36	327.38	11.21	-30.4	-33.5	18.3	6.02e-01	0	43	102	524288	22	5131
2026-01-04 13:17:42.37	327.71	10.96	-30.6	-34.2	17.9	6.00e-01	0	43	102	524288	22	5409
2026-01-04 13:17:45.40	328.03	10.71	-30.6	-34.1	17.9	6.01e-01	0	43	102	524288	22	5382
2026-01-04 13:17:48.42	328.35	10.46	-30.6	-34.1	17.9	6.01e-01	0	43	102	524288	22	5377
2026-01-04 13:17:51.44	328.67	10.22	-30.6	-34.1	17.9	6.02e-01	0	43	102	524288	22	5368
2026-01-04 13:17:54.46	328.97	9.97	-30.6	-34.1	17.8	6.01e-01	0	43	102	524288	22	5396
2026-01-04 13:17:57.48	329.28	9.73	-30.7	-34.5	17.6	6.02e-01	0	43	102	524288	22	5532
2026-01-04 13:18:00.50	329.57	9.49	-30.9	-34.9	17.3	6.02e-01	0	43	102	524288	22	5715
2026-01-04 13:18:03.51	329.87	9.25	-30.8	-34.6	17.4	6.00e-01	0	43	102	524288	22	5616
2026-01-04 13:18:06.53	330.15	9.01	-30.9	-34.9	17.2	5.99e-01	0	43	102	524288	22	5731
2026-01-04 13:18:09.55	330.44	8.78	-30.6	-34.3	17.6	6.01e-01	0	43	102	524288	22	5471
2026-01-04 13:18:12.57	330.72	8.55	-30.7	-34.5	17.5	6.00e-01	0	43	102	524288	22	5551
2026-01-04 13:18:15.60	330.99	8.32	-30.8	-34.7	17.2	6.01e-01	0	43	102	524288	22	5674
2026-01-04 13:18:18.62	331.26	8.09	-30.8	-34.8	17.2	6.02e-01	0	43	102	524288	22	5719
2026-01-04 13:18:21.65	331.53	7.86	-30.9	-35.2	16.9	6.03e-01	0	43	102	524288	22	5877
2026-01-04 13:18:24.66	331.79	7.63	-30.8	-35.0	16.0	6.01e-01	0	43	102	524288	22	5854
2026-01-04 13:18:27.68	332.04	7.41	-31.0	-35.4	16.5	6.01e-01	0	43	102	524288	22	6006
2026-01-04 13:18:30.69	332.30	7.19	-30.8	-35.0	16.9	6.01e-01	0	43	102	524288	22	5802
2026-01-04 13:18:33.72	332.55	6.97	-33.9	-53.3	3.8	7.47e-01	0	43	104	524288	28	33628

#Closed at: 2026-01-04 13:18:33
#Recorded file [0 MB]: D:/data/31010_260104_160855.dat