passes_logs/2026/01/04/R2M6_AANII_01/R2M6_AANII_01__20260104_090447_NOAA_21_JPSS-2_rec.log

#Pass ID: 20260104_090447_NOAA 21 (JPSS-2)
#Satellite: NOAA 21 (JPSS-2)
#Configuration: NOAA 21
#almurnet v.1.7.20240730
#Start time: 2026-01-04 09:04:47

#Version: 2.2.20231116
#Station: R2M6_AANII_01
#Location: 30.233357 lon 59.946436 lat
#TLE: 1 54234U 22150A   26003.45311712  .00000198  00000+0  11468-3 0  9993
#TLE: 2 54234  98.7487 304.4932 0001159 347.5017  12.6130 14.19531745163172

#Time	Az	El	Level	Level2	SNR	BER	BlckErr	Temp	State	Recorded	gain1	gain2
2026-01-04 09:04:47.68	121.95	7.04	-31.2	-36.1	4.5	1.42e+00	0	41	0	0	23	6387
2026-01-04 09:04:50.70	121.77	7.26	-30.9	-34.5	8.4	4.70e-02	0	41	102	1048576	23	5430
2026-01-04 09:04:53.73	121.58	7.48	-30.9	-34.4	8.5	4.59e-02	0	41	102	1048576	23	5371
2026-01-04 09:04:56.75	121.39	7.70	-30.8	-34.0	8.8	3.46e-02	0	41	102	1048576	23	5218
2026-01-04 09:04:59.76	121.20	7.92	-29.8	-32.2	10.8	2.85e-03	0	41	102	1048576	21	4712
2026-01-04 09:05:02.78	121.00	8.14	-29.4	-31.9	11.7	4.50e-04	0	41	102	1048576	19	4806
2026-01-04 09:05:05.79	120.80	8.37	-29.3	-31.6	12.0	3.31e-04	0	41	102	1048576	19	4690
2026-01-04 09:05:08.81	120.60	8.60	-29.2	-31.3	12.2	2.37e-04	0	41	102	1048576	19	4613
2026-01-04 09:05:11.83	120.39	8.83	-29.2	-31.3	12.2	3.90e-04	0	41	102	1048576	19	4606
2026-01-04 09:05:14.85	120.19	9.06	-29.0	-30.8	12.6	9.23e-05	0	42	102	1048576	19	4439
2026-01-04 09:05:17.88	119.97	9.29	-29.1	-31.2	12.3	1.94e-04	0	42	102	1048576	19	4553
2026-01-04 09:05:20.90	119.76	9.53	-29.2	-31.4	12.2	1.81e-04	0	42	102	1048576	19	4619
2026-01-04 09:05:23.92	119.54	9.77	-29.0	-30.9	12.6	1.07e-04	0	42	102	1048576	19	4459
2026-01-04 09:05:26.95	119.31	10.01	-28.7	-30.6	13.1	2.89e-05	0	42	102	1048576	18	4476
2026-01-04 09:05:29.98	119.08	10.25	-28.6	-30.4	13.2	2.44e-05	0	42	102	1048576	18	4392
2026-01-04 09:05:32.99	118.85	10.49	-28.6	-30.2	13.4	1.14e-05	0	42	102	1048576	18	4358
2026-01-04 09:05:36.01	118.62	10.73	-28.6	-30.2	13.3	1.67e-05	0	42	102	1048576	18	4359
2026-01-04 09:05:39.02	118.38	10.98	-28.4	-29.9	13.6	6.80e-06	0	42	102	1048576	18	4249
2026-01-04 09:05:42.04	118.14	11.23	-28.4	-29.7	13.7	3.80e-06	0	42	102	1048576	18	4208
2026-01-04 09:05:45.06	117.89	11.48	-28.4	-29.7	13.7	7.60e-06	0	42	102	1048576	18	4213
2026-01-04 09:05:48.09	117.64	11.73	-28.3	-30.0	13.9	3.00e-06	0	42	102	1048576	17	4378
2026-01-04 09:05:51.11	117.38	11.99	-28.2	-29.9	13.9	1.50e-06	0	42	102	1048576	17	4353
2026-01-04 09:05:54.12	117.12	12.24	-28.2	-29.7	14.0	4.50e-06	0	42	102	1048576	17	4312
2026-01-04 09:05:57.14	116.85	12.50	-28.2	-29.8	14.0	7.00e-07	0	42	102	1048576	17	4337
2026-01-04 09:06:00.15	116.58	12.76	-28.2	-29.7	14.1	2.20e-06	0	42	102	1048576	17	4301
2026-01-04 09:06:03.16	116.31	13.02	-28.3	-30.0	13.9	3.00e-06	0	42	102	1048576	17	4379
2026-01-04 09:06:06.19	116.03	13.29	-28.3	-30.0	14.0	2.20e-06	0	42	102	1048576	17	4377
2026-01-04 09:06:09.21	115.74	13.56	-28.3	-29.9	14.0	1.50e-06	0	43	102	1048576	17	4354
2026-01-04 09:06:12.23	115.45	13.83	-28.2	-29.9	14.1	4.50e-06	0	42	102	1048576	17	4348
2026-01-04 09:06:15.25	115.15	14.10	-28.4	-30.2	13.8	7.60e-06	0	42	102	1048576	17	4450
2026-01-04 09:06:18.27	114.85	14.37	-28.5	-30.5	13.7	8.30e-06	0	43	102	1048576	17	4536
2026-01-04 09:06:21.29	114.54	14.65	-28.4	-30.3	13.9	2.20e-06	0	43	102	1048576	17	4455
2026-01-04 09:06:24.31	114.22	14.93	-28.3	-30.1	14.0	1.50e-06	0	43	102	1048576	17	4394
2026-01-04 09:06:27.33	113.90	15.21	-28.1	-29.6	14.3	2.20e-06	0	43	102	1048576	17	4255
2026-01-04 09:06:30.35	113.58	15.49	-28.2	-29.7	14.2	7.00e-07	0	43	102	1048576	17	4273
2026-01-04 09:06:33.37	113.24	15.78	-28.3	-30.0	14.1	2.20e-06	0	43	102	1048576	17	4367
2026-01-04 09:06:36.39	112.90	16.07	-28.1	-29.5	14.4	1.50e-06	0	43	102	1048576	17	4216
2026-01-04 09:06:39.40	112.56	16.36	-28.1	-29.5	14.4	7.00e-07	0	43	102	1048576	17	4226
2026-01-04 09:06:42.42	112.21	16.65	-28.4	-30.3	14.0	7.00e-07	0	43	102	1048576	17	4449
2026-01-04 09:06:45.44	111.84	16.95	-28.2	-29.7	14.3	7.00e-07	0	43	102	1048576	17	4284
2026-01-04 09:06:48.46	111.48	17.24	-28.3	-30.0	14.2	2.20e-06	0	43	102	1048576	17	4368
2026-01-04 09:06:51.48	111.10	17.54	-28.2	-29.8	14.3	7.00e-07	0	43	102	1048576	17	4305
2026-01-04 09:06:54.51	110.72	17.85	-28.2	-29.7	14.4	1.50e-06	0	43	102	1048576	17	4291
2026-01-04 09:06:57.52	110.33	18.15	-28.3	-29.8	14.3	7.00e-07	0	43	102	1048576	17	4305
2026-01-04 09:07:00.54	109.93	18.46	-28.3	-29.9	14.3	7.00e-07	0	43	102	1048576	17	4335
2026-01-04 09:07:03.54	109.52	18.77	-28.3	-29.8	14.4	7.00e-07	0	43	102	1048576	17	4318
2026-01-04 09:07:06.57	109.11	19.08	-28.2	-29.7	14.5	7.00e-07	0	43	102	1048576	17	4279
2026-01-04 09:07:09.59	108.68	19.39	-28.1	-29.5	14.6	0.00e+00	0	43	102	1048576	17	4219
2026-01-04 09:07:12.61	108.25	19.71	-28.0	-29.3	14.7	0.00e+00	0	43	102	1048576	17	4157
2026-01-04 09:07:15.63	107.80	20.03	-27.9	-29.1	14.9	0.00e+00	0	43	102	1048576	17	4098
2026-01-04 09:07:18.65	107.35	20.35	-27.8	-28.8	15.0	0.00e+00	0	43	102	1048576	17	4036
2026-01-04 09:07:21.67	106.89	20.67	-27.7	-28.9	15.2	0.00e+00	0	43	102	1048576	16	4169
2026-01-04 09:07:24.69	106.42	21.00	-27.5	-28.5	15.5	0.00e+00	0	43	102	1048576	16	4043
2026-01-04 09:07:27.72	105.93	21.33	-27.4	-28.3	15.6	0.00e+00	0	43	102	1048576	16	3986
2026-01-04 09:07:30.74	105.44	21.66	-27.2	-28.3	15.8	0.00e+00	0	43	102	1048576	15	4116
2026-01-04 09:07:33.75	104.94	21.99	-27.1	-28.2	15.8	0.00e+00	0	43	102	1048576	15	4087
2026-01-04 09:07:36.78	104.42	22.32	-27.2	-28.3	15.7	0.00e+00	0	43	102	1048576	15	4122
2026-01-04 09:07:39.80	103.90	22.66	-27.2	-28.4	15.7	0.00e+00	0	43	102	1048576	15	4138
2026-01-04 09:07:42.82	103.36	23.00	-27.0	-28.0	16.0	0.00e+00	0	43	102	1048576	15	4013
2026-01-04 09:07:45.84	102.81	23.34	-27.2	-28.4	15.8	0.00e+00	0	43	102	1048576	15	4120
2026-01-04 09:07:48.86	102.25	23.68	-27.4	-28.8	15.6	0.00e+00	0	43	102	1048576	15	4225
2026-01-04 09:07:51.88	101.67	24.02	-27.3	-28.7	15.6	0.00e+00	0	43	102	1048576	15	4205
2026-01-04 09:07:54.91	101.08	24.36	-27.3	-28.5	15.8	0.00e+00	0	43	102	1048576	15	4155
2026-01-04 09:07:57.92	100.49	24.70	-27.5	-29.1	15.5	0.00e+00	0	43	102	1048576	15	4318
2026-01-04 09:08:00.94	99.87	25.05	-27.5	-29.0	15.5	0.00e+00	0	43	102	1048576	15	4283
2026-01-04 09:08:03.97	99.24	25.40	-27.2	-28.4	15.9	0.00e+00	0	43	102	1048576	15	4120
2026-01-04 09:08:06.99	98.60	25.74	-27.4	-28.9	15.6	0.00e+00	0	43	102	1048576	15	4262
2026-01-04 09:08:10.01	97.95	26.09	-27.7	-29.5	15.3	0.00e+00	0	43	102	1048576	15	4433
2026-01-04 09:08:13.03	97.28	26.44	-27.5	-29.0	15.5	0.00e+00	0	43	102	1048576	15	4290
2026-01-04 09:08:16.06	96.59	26.79	-27.5	-29.1	15.5	0.00e+00	0	43	102	1048576	15	4307
2026-01-04 09:08:19.08	95.89	27.13	-27.9	-29.9	15.1	0.00e+00	0	43	102	1048576	15	4550
2026-01-04 09:08:22.10	95.17	27.48	-28.1	-29.8	15.0	0.00e+00	0	43	102	1048576	16	4391
2026-01-04 09:08:25.12	94.44	27.83	-28.1	-30.0	14.9	0.00e+00	0	43	102	1048576	16	4434
2026-01-04 09:08:28.15	93.69	28.17	-28.2	-30.1	14.9	0.00e+00	0	43	102	1048576	16	4485
2026-01-04 09:08:31.17	92.93	28.51	-28.3	-30.3	14.8	0.00e+00	0	43	102	1048576	16	4545
2026-01-04 09:08:34.19	92.15	28.86	-28.2	-30.1	14.9	7.00e-07	0	43	102	1048576	16	4482
2026-01-04 09:08:37.21	91.35	29.20	-28.1	-29.9	15.0	0.00e+00	0	43	102	1048576	16	4408
2026-01-04 09:08:40.23	90.54	29.53	-28.5	-30.2	14.6	0.00e+00	0	43	102	1048576	17	4392
2026-01-04 09:08:43.25	89.70	29.87	-27.9	-28.9	15.3	0.00e+00	0	43	102	1048576	17	4039
2026-01-04 09:08:46.26	88.86	30.20	-27.9	-28.9	15.3	0.00e+00	0	43	102	1048576	17	4047
2026-01-04 09:08:49.28	87.99	30.53	-27.8	-29.2	15.5	0.00e+00	0	43	102	1048576	16	4211
2026-01-04 09:08:52.30	87.11	30.85	-27.8	-29.3	15.4	0.00e+00	0	43	102	1048576	16	4239
2026-01-04 09:08:55.32	86.20	31.17	-27.9	-29.3	15.4	0.00e+00	0	43	102	1048576	16	4250
2026-01-04 09:08:58.34	85.28	31.49	-28.3	-30.3	14.9	0.00e+00	0	43	102	1048576	16	4523
2026-01-04 09:09:01.36	84.35	31.80	-28.3	-30.3	14.9	0.00e+00	0	43	102	1048576	16	4529
2026-01-04 09:09:04.38	83.39	32.10	-28.3	-29.9	14.8	0.00e+00	0	43	102	1048576	17	4299
2026-01-04 09:09:07.40	82.42	32.40	-28.3	-29.9	14.8	7.00e-07	0	43	102	1048576	17	4302
2026-01-04 09:09:10.42	81.42	32.69	-28.7	-30.7	14.4	0.00e+00	0	43	102	1048576	17	4522
2026-01-04 09:09:13.42	80.42	32.98	-28.7	-30.7	14.3	7.00e-07	0	43	102	1048576	17	4534
2026-01-04 09:09:16.44	79.39	33.25	-28.8	-31.0	14.2	3.80e-06	0	43	102	1048576	17	4637
2026-01-04 09:09:19.46	78.35	33.52	-28.7	-30.8	14.3	7.00e-07	0	43	102	1048576	17	4550
2026-01-04 09:09:22.48	77.29	33.78	-28.5	-30.2	14.6	0.00e+00	0	43	102	1048576	17	4389
2026-01-04 09:09:25.49	76.21	34.03	-28.5	-30.1	14.7	0.00e+00	0	43	102	1048576	17	4369
2026-01-04 09:09:28.51	75.12	34.28	-28.7	-30.8	14.3	0.00e+00	0	43	102	1048576	17	4556
2026-01-04 09:09:31.54	74.00	34.51	-28.8	-31.0	14.2	2.20e-06	0	43	102	1048576	17	4642
2026-01-04 09:09:34.56	72.87	34.73	-29.3	-31.7	13.6	7.60e-06	0	43	102	1048576	18	4720
2026-01-04 09:09:37.57	71.74	34.93	-29.1	-31.3	13.8	4.50e-06	0	43	102	1048576	18	4593
2026-01-04 09:09:40.60	70.58	35.13	-29.1	-31.2	13.8	5.30e-06	0	43	102	1048576	18	4563
2026-01-04 09:09:43.61	69.41	35.32	-28.7	-30.1	14.4	7.00e-07	0	43	102	1048576	18	4240
2026-01-04 09:09:46.63	68.23	35.49	-29.0	-30.8	14.0	3.00e-06	0	43	102	1048576	18	4462
2026-01-04 09:09:49.65	67.03	35.65	-29.3	-31.6	13.6	7.60e-06	0	43	102	1048576	18	4686
2026-01-04 09:09:52.67	65.83	35.79	-29.3	-31.6	13.6	1.52e-05	0	43	102	1048576	18	4689
2026-01-04 09:09:55.70	64.61	35.92	-29.1	-31.3	13.8	5.30e-06	0	43	102	1048576	18	4598
2026-01-04 09:09:58.72	63.38	36.04	-28.8	-30.5	14.2	7.00e-07	0	43	102	1048576	18	4363
2026-01-04 09:10:01.73	62.15	36.14	-29.1	-31.1	13.9	1.50e-06	0	43	102	1048576	18	4536
2026-01-04 09:10:04.74	60.92	36.23	-29.4	-32.0	13.4	1.06e-05	0	43	102	1048576	18	4812
2026-01-04 09:10:07.76	59.67	36.30	-29.7	-32.0	13.1	5.18e-05	0	43	102	1048576	19	4719
2026-01-04 09:10:10.79	58.42	36.36	-29.3	-31.1	13.6	1.67e-05	0	43	102	1048576	19	4438
2026-01-04 09:10:13.81	57.16	36.40	-28.9	-30.2	14.1	7.00e-07	0	43	102	1048576	19	4173
2026-01-04 09:10:16.83	55.91	36.42	-29.1	-30.7	13.9	3.80e-06	0	43	102	1048576	19	4311
2026-01-04 09:10:19.85	54.65	36.43	-29.2	-30.9	13.7	2.20e-06	0	43	102	1048576	19	4359
2026-01-04 09:10:22.87	53.39	36.43	-29.3	-31.2	13.5	4.50e-06	0	43	102	1048576	19	4453
2026-01-04 09:10:25.89	52.13	36.40	-29.0	-30.4	14.0	1.50e-06	0	43	102	1048576	19	4225
2026-01-04 09:10:28.90	50.88	36.37	-28.9	-30.3	14.1	0.00e+00	0	43	102	1048576	19	4195
2026-01-04 09:10:31.92	49.63	36.31	-29.1	-30.7	13.8	4.50e-06	0	43	102	1048576	19	4312
2026-01-04 09:10:34.93	48.39	36.25	-29.0	-30.3	14.0	4.50e-06	0	43	102	1048576	19	4192
2026-01-04 09:10:37.95	47.15	36.16	-28.7	-30.2	14.4	2.20e-06	0	43	102	1048576	18	4275
2026-01-04 09:10:40.96	45.92	36.06	-29.0	-30.9	14.0	1.50e-06	0	43	102	1048576	18	4479
2026-01-04 09:10:43.99	44.69	35.95	-28.7	-30.2	14.4	7.00e-07	0	43	102	1048576	18	4276
2026-01-04 09:10:47.00	43.48	35.82	-28.8	-30.5	14.2	2.20e-06	0	43	102	1048576	18	4372
2026-01-04 09:10:50.03	42.27	35.68	-29.1	-31.3	13.7	5.30e-06	0	43	102	1048576	18	4602
2026-01-04 09:10:53.04	41.07	35.53	-29.2	-31.4	13.6	8.30e-06	0	43	102	1048576	18	4626
2026-01-04 09:10:56.06	39.89	35.36	-29.2	-31.3	13.7	5.30e-06	0	43	102	1048576	18	4603
2026-01-04 09:10:59.08	38.72	35.18	-28.6	-30.1	14.4	1.50e-06	0	43	102	1048576	18	4253
2026-01-04 09:11:02.10	37.56	34.98	-28.9	-30.6	14.1	0.00e+00	0	43	102	1048576	18	4399
2026-01-04 09:11:05.12	36.42	34.78	-28.9	-30.7	14.0	2.20e-06	0	43	102	1048576	18	4420
2026-01-04 09:11:08.14	35.29	34.56	-29.2	-31.3	13.6	5.30e-06	0	43	102	1048576	18	4617
2026-01-04 09:11:11.15	34.19	34.33	-28.7	-30.2	14.3	2.20e-06	0	43	102	1048576	18	4283
2026-01-04 09:11:14.17	33.09	34.09	-28.4	-29.4	14.7	7.00e-07	0	43	102	1048576	18	4063
2026-01-04 09:11:17.19	32.01	33.85	-28.6	-30.1	14.3	7.00e-07	0	43	102	1048576	18	4257
2026-01-04 09:11:20.21	30.95	33.59	-28.2	-29.5	14.9	7.00e-07	0	43	102	1048576	17	4204
2026-01-04 09:11:23.23	29.90	33.32	-28.7	-30.8	14.2	1.50e-06	0	43	102	1048576	17	4556
2026-01-04 09:11:26.25	28.87	33.05	-29.2	-31.6	13.2	2.82e-05	0	43	102	1048576	18	4790
2026-01-04 09:11:29.28	27.86	32.76	-28.2	-29.6	14.8	0.00e+00	0	43	102	1048576	17	4221
2026-01-04 09:11:32.30	26.87	32.48	-29.2	-31.3	13.6	4.50e-06	0	43	102	1048576	18	4606
2026-01-04 09:11:35.32	25.89	32.18	-29.4	-31.3	13.3	2.97e-05	0	43	102	1048576	19	4519
2026-01-04 09:11:38.34	24.93	31.88	-28.7	-30.3	14.2	1.50e-06	0	43	102	1048576	18	4307
2026-01-04 09:11:41.36	23.99	31.57	-28.5	-29.9	14.4	7.00e-07	0	43	102	1048576	18	4196
2026-01-04 09:11:44.38	23.07	31.26	-27.9	-28.8	15.2	0.00e+00	0	43	102	1048576	17	4025
2026-01-04 09:11:47.40	22.17	30.94	-28.1	-29.4	14.9	0.00e+00	0	43	102	1048576	17	4176
2026-01-04 09:11:50.42	21.29	30.61	-28.7	-30.7	14.1	7.00e-07	0	43	102	1048576	17	4547
2026-01-04 09:11:53.44	20.42	30.29	-28.7	-30.9	13.9	7.00e-07	0	43	102	1048576	17	4604
2026-01-04 09:11:56.45	19.57	29.96	-28.3	-29.9	14.5	7.00e-07	0	43	102	1048576	17	4323
2026-01-04 09:11:59.47	18.74	29.63	-28.4	-30.1	14.4	0.00e+00	0	43	102	1048576	17	4376
2026-01-04 09:12:02.47	17.93	29.29	-27.9	-28.8	15.1	0.00e+00	0	43	102	1048576	17	4027
2026-01-04 09:12:05.49	17.13	28.96	-27.6	-28.7	15.6	0.00e+00	0	43	102	1048576	16	4083
2026-01-04 09:12:08.51	16.35	28.62	-27.8	-29.3	15.2	0.00e+00	0	43	102	1048576	16	4241
2026-01-04 09:12:11.53	15.59	28.27	-27.6	-28.8	15.5	0.00e+00	0	43	102	1048576	16	4120
2026-01-04 09:12:14.56	14.84	27.93	-27.9	-29.4	15.1	0.00e+00	0	43	102	1048576	16	4294
2026-01-04 09:12:17.58	14.10	27.59	-27.6	-28.7	15.5	0.00e+00	0	43	102	1048576	16	4086
2026-01-04 09:12:20.61	13.39	27.24	-27.4	-28.3	15.7	0.00e+00	0	43	102	1048576	16	3992
2026-01-04 09:12:23.63	12.69	26.89	-27.7	-28.9	15.3	0.00e+00	0	43	102	1048576	16	4157
2026-01-04 09:12:26.65	12.00	26.55	-27.9	-29.4	15.0	1.75e-05	0	43	102	1048576	16	4288
2026-01-04 09:12:29.66	11.33	26.20	-27.8	-29.1	15.1	0.00e+00	0	43	102	1048576	16	4205
2026-01-04 09:12:32.69	10.67	25.86	-27.1	-28.2	15.8	0.00e+00	0	43	102	1048576	15	4072
2026-01-04 09:12:35.69	10.04	25.51	-27.4	-28.8	15.5	0.00e+00	0	43	102	1048576	15	4250
2026-01-04 09:12:38.71	9.41	25.17	-27.8	-29.7	15.0	0.00e+00	0	43	102	1048576	15	4500
2026-01-04 09:12:41.73	8.80	24.83	-27.5	-29.1	15.3	0.00e+00	0	43	102	1048576	15	4323
2026-01-04 09:12:44.75	8.20	24.48	-27.1	-28.2	15.8	0.00e+00	0	43	102	1048576	15	4077
2026-01-04 09:12:47.77	7.61	24.14	-27.1	-28.3	15.7	0.00e+00	0	43	102	1048576	15	4101
2026-01-04 09:12:50.80	7.03	23.80	-27.3	-28.5	15.6	0.00e+00	0	43	102	1048576	15	4172
2026-01-04 09:12:53.81	6.47	23.46	-27.2	-28.5	15.6	3.80e-06	0	43	102	1048576	15	4156
2026-01-04 09:12:56.82	5.93	23.13	-27.2	-28.3	15.6	0.00e+00	0	43	102	1048576	15	4112
2026-01-04 09:12:59.84	5.39	22.79	-27.3	-28.6	15.4	0.00e+00	0	43	102	1048576	15	4186
2026-01-04 09:13:02.86	4.86	22.46	-27.6	-29.2	15.2	0.00e+00	0	43	102	1048576	15	4358
2026-01-04 09:13:05.87	4.35	22.12	-27.6	-29.4	15.1	0.00e+00	0	43	102	1048576	15	4402
2026-01-04 09:13:08.90	3.85	21.79	-27.6	-29.3	15.1	0.00e+00	0	43	102	1048576	15	4380
2026-01-04 09:13:11.92	3.35	21.46	-27.5	-29.1	15.2	7.00e-07	0	43	102	1048576	15	4330
2026-01-04 09:13:14.94	2.87	21.14	-27.8	-29.7	14.8	0.00e+00	0	43	102	1048576	15	4509
2026-01-04 09:13:17.96	2.40	20.81	-27.9	-30.0	14.7	0.00e+00	0	43	102	1048576	15	4580
2026-01-04 09:13:20.98	1.94	20.49	-28.4	-30.6	14.2	7.00e-07	0	43	102	1048576	16	4645
2026-01-04 09:13:24.00	1.48	20.17	-27.9	-29.4	14.9	0.00e+00	0	43	102	1048576	16	4304
2026-01-04 09:13:27.02	1.04	19.85	-27.7	-29.1	15.1	0.00e+00	0	43	102	1048576	16	4212
2026-01-04 09:13:30.05	0.61	19.54	-27.8	-29.3	14.9	0.00e+00	0	43	102	1048576	16	4269
2026-01-04 09:13:33.07	0.18	19.22	-27.9	-29.5	14.8	7.00e-07	0	43	102	1048576	16	4324
2026-01-04 09:13:36.09	359.77	18.91	-27.7	-29.1	15.1	0.00e+00	0	43	102	1048576	16	4206
2026-01-04 09:13:39.10	359.36	18.60	-27.6	-28.9	15.2	0.00e+00	0	43	102	1048576	16	4155
2026-01-04 09:13:42.12	358.96	18.30	-27.7	-28.9	15.2	0.00e+00	0	43	102	1048576	16	4164
2026-01-04 09:13:45.14	358.57	17.99	-27.7	-29.1	15.0	1.50e-06	0	43	102	1048576	16	4203
2026-01-04 09:13:48.16	358.19	17.69	-27.9	-29.4	14.9	0.00e+00	0	43	102	1048576	16	4308
2026-01-04 09:13:51.19	357.82	17.39	-28.1	-30.0	14.5	0.00e+00	0	43	102	1048576	16	4474
2026-01-04 09:13:54.20	357.45	17.09	-28.0	-29.8	14.6	0.00e+00	0	43	102	1048576	16	4406
2026-01-04 09:13:57.22	357.09	16.80	-28.0	-29.7	14.7	0.00e+00	0	43	102	1048576	16	4399
2026-01-04 09:14:00.24	356.74	16.51	-28.0	-29.7	14.7	0.00e+00	0	43	102	1048576	16	4376
2026-01-04 09:14:03.25	356.39	16.22	-28.0	-29.8	14.6	7.00e-07	0	43	102	1048576	16	4421
2026-01-04 09:14:06.26	356.05	15.93	-28.3	-30.5	14.2	7.00e-07	0	43	102	1048576	16	4628
2026-01-04 09:14:09.28	355.72	15.65	-28.7	-30.9	13.6	1.06e-05	0	44	102	1048576	17	4637
2026-01-04 09:14:12.29	355.40	15.36	-28.8	-31.1	13.5	1.75e-05	0	43	102	1048576	17	4702
2026-01-04 09:14:15.30	355.08	15.08	-28.7	-30.9	13.6	7.60e-06	0	43	102	1048576	17	4646
2026-01-04 09:14:18.32	354.77	14.81	-28.5	-30.5	13.8	5.30e-06	0	43	102	1048576	17	4526
2026-01-04 09:14:21.35	354.46	14.53	-28.3	-30.0	14.1	2.20e-06	0	43	102	1048576	17	4372
2026-01-04 09:14:24.36	354.16	14.26	-28.2	-29.7	14.2	7.00e-07	0	43	102	1048576	17	4290
2026-01-04 09:14:27.39	353.86	13.98	-28.3	-29.9	14.1	3.00e-06	0	43	102	1048576	17	4334
2026-01-04 09:14:30.41	353.57	13.71	-28.4	-30.2	13.9	7.00e-07	0	43	102	1048576	17	4423
2026-01-04 09:14:33.42	353.29	13.45	-28.7	-30.8	13.5	7.60e-06	0	43	102	1048576	17	4629
2026-01-04 09:14:36.45	353.00	13.18	-28.9	-31.6	13.1	1.37e-05	0	43	102	1048576	17	4864
2026-01-04 09:14:39.46	352.73	12.92	-29.2	-31.6	12.8	7.93e-05	0	43	102	1048576	18	4766
2026-01-04 09:14:42.48	352.46	12.66	-29.2	-31.7	12.7	6.94e-05	0	43	102	1048576	18	4804
2026-01-04 09:14:45.50	352.20	12.40	-29.2	-31.8	12.6	1.09e-04	0	43	102	1048576	18	4834
2026-01-04 09:14:48.51	351.94	12.15	-28.7	-30.4	13.4	1.29e-05	0	43	102	1048576	18	4389
2026-01-04 09:14:51.54	351.68	11.89	-28.6	-30.3	13.5	1.22e-05	0	43	102	1048576	18	4375
2026-01-04 09:14:54.56	351.43	11.64	-28.5	-30.0	13.7	5.30e-06	0	43	102	1048576	18	4279
2026-01-04 09:14:57.58	351.18	11.39	-28.5	-30.0	13.7	9.10e-06	0	43	102	1048576	18	4268
2026-01-04 09:15:00.59	350.94	11.14	-28.6	-30.1	13.6	1.52e-05	0	43	102	1048576	18	4307
2026-01-04 09:15:03.62	350.71	10.89	-28.7	-30.5	13.3	2.05e-05	0	43	102	1048576	18	4426
2026-01-04 09:15:06.63	350.47	10.65	-28.7	-30.6	13.3	2.51e-05	0	43	102	1048576	18	4452
2026-01-04 09:15:09.66	350.24	10.41	-28.9	-30.9	13.1	3.28e-05	0	43	102	1048576	18	4550
2026-01-04 09:15:12.67	350.02	10.17	-28.9	-31.0	12.9	4.27e-05	0	43	102	1048576	18	4598
2026-01-04 09:15:15.70	349.80	9.93	-29.0	-31.2	12.8	5.56e-05	0	43	102	1048576	18	4648
2026-01-04 09:15:18.72	349.58	9.69	-29.1	-31.5	12.6	9.53e-05	0	43	102	1048576	18	4751
2026-01-04 09:15:21.75	349.36	9.46	-29.2	-31.7	12.4	1.27e-04	0	43	102	1048576	18	4832
2026-01-04 09:15:24.76	349.15	9.22	-29.2	-31.9	12.3	1.45e-04	0	43	102	1048576	18	4875
2026-01-04 09:15:27.79	348.94	8.99	-29.3	-32.0	12.2	1.97e-04	0	43	102	1048576	18	4928
2026-01-04 09:15:30.80	348.74	8.76	-29.4	-32.4	12.0	3.46e-04	0	43	102	1048576	18	5059
2026-01-04 09:15:33.82	348.54	8.54	-29.5	-32.2	11.7	5.72e-04	0	43	102	1048576	19	4892
2026-01-04 09:15:36.84	348.34	8.31	-29.6	-32.4	11.6	7.52e-04	0	43	102	1048576	19	4945
2026-01-04 09:15:39.85	348.15	8.09	-29.5	-32.2	11.6	6.99e-04	0	43	102	1048576	19	4909
2026-01-04 09:15:42.86	347.96	7.86	-29.6	-32.5	11.5	8.01e-04	0	43	102	1048576	19	4991
2026-01-04 09:15:45.88	347.77	7.64	-29.7	-32.8	11.2	1.35e-03	0	43	102	1048576	19	5113
2026-01-04 09:15:48.90	347.59	7.42	-29.7	-32.8	11.2	1.52e-03	0	43	102	1048576	19	5136
2026-01-04 09:15:51.93	347.41	7.20	-29.8	-32.9	11.1	1.56e-03	0	43	102	1048576	19	5159
2026-01-04 09:15:54.93	347.23	6.99	-33.5	-45.2	3.8	1.49e+00	0	43	104	1048576	27	13777

#Closed at: 2026-01-04 09:15:55
#Recorded file [1 MB]: D:/data/31010_260104_120449.dat