passes_logs/2026/01/04/R2M6_AANII_01/R2M6_AANII_01__20260104_004212_FENGYUN_3D_rec.log

#Pass ID: 20260104_004212_FENGYUN 3D
#Satellite: FENGYUN 3D
#Configuration: FENGYUN 3D
#almurnet v.1.7.20240730
#Start time: 2026-01-04 00:42:14

#Version: 2.2.20231116
#Station: R2M6_AANII_01
#Location: 30.233357 lon 59.946436 lat
#TLE: 1 43010U 17072A   26003.51579816  .00000092  00000+0  65324-4 0  9992
#TLE: 2 43010  98.9912 335.1548 0001916 128.4619 231.6729 14.19692074421623

#Time	Az	El	Level	Level2	SNR	BER	BlckErr	Temp	State	Recorded	gain1	gain2
2026-01-04 00:42:14.01	31.67	7.09	-29.1	-31.7	5.6	7.66e-01	0	40	0	0	18	4887
2026-01-04 00:42:17.01	31.97	7.27	-29.6	-32.1	10.4	5.07e-03	0	41	0	5242880	20	4807
2026-01-04 00:42:20.03	32.28	7.45	-28.8	-30.9	11.9	3.29e-04	0	41	0	22020096	18	4590
2026-01-04 00:42:23.05	32.59	7.64	-28.3	-30.2	12.6	5.03e-05	0	41	0	38797312	17	4489
2026-01-04 00:42:26.06	32.90	7.82	-28.0	-29.9	13.2	1.83e-05	0	41	0	56623104	16	4505
2026-01-04 00:42:29.08	33.22	8.01	-27.4	-29.0	13.8	2.20e-06	0	41	0	73400320	15	4352
2026-01-04 00:42:32.10	33.54	8.20	-27.3	-29.3	14.0	2.51e-05	0	41	0	90177536	14	4551
2026-01-04 00:42:35.12	33.87	8.38	-27.1	-28.9	14.2	4.50e-06	0	41	0	106954752	14	4440
2026-01-04 00:42:38.13	34.20	8.57	-27.0	-28.6	14.4	0.00e+00	0	41	0	123731968	14	4345
2026-01-04 00:42:41.16	34.53	8.76	-26.8	-28.7	14.7	2.63e-05	0	41	0	140509184	13	4490
2026-01-04 00:42:44.18	34.87	8.95	-26.9	-28.9	14.6	1.49e-04	0	42	0	158334976	13	4523
2026-01-04 00:42:47.19	35.21	9.14	-26.9	-28.8	14.6	0.00e+00	0	42	0	175112192	13	4517
2026-01-04 00:42:50.22	35.56	9.33	-26.8	-28.8	14.7	5.70e-06	0	42	0	191889408	13	4493
2026-01-04 00:42:53.23	35.91	9.52	-27.1	-29.0	14.1	2.20e-06	0	42	0	208666624	14	4437
2026-01-04 00:42:56.25	36.27	9.71	-26.9	-28.3	14.7	0.00e+00	0	42	0	225443840	14	4263
2026-01-04 00:42:59.28	36.63	9.91	-26.8	-28.1	14.9	0.00e+00	0	42	0	243269632	14	4196
2026-01-04 00:43:02.28	36.99	10.10	-26.5	-27.4	15.3	1.81e-04	0	42	0	260046848	14	4016
2026-01-04 00:43:05.30	37.36	10.29	-26.3	-27.5	15.5	1.49e-04	0	42	0	276824064	13	4151
2026-01-04 00:43:08.31	37.73	10.48	-26.4	-27.8	15.3	0.00e+00	0	42	0	293601280	13	4216
2026-01-04 00:43:11.33	38.11	10.68	-26.6	-28.2	15.1	0.00e+00	0	42	0	310378496	13	4344
2026-01-04 00:43:14.35	38.49	10.87	-26.6	-28.3	15.1	0.00e+00	0	42	0	328204288	13	4364
2026-01-04 00:43:17.37	38.88	11.07	-26.6	-28.2	15.2	0.00e+00	0	42	0	344981504	13	4328
2026-01-04 00:43:20.39	39.28	11.26	-26.7	-28.4	15.0	0.00e+00	0	42	0	361758720	13	4388
2026-01-04 00:43:23.39	39.67	11.46	-26.6	-28.1	15.2	0.00e+00	0	43	0	378535936	13	4312
2026-01-04 00:43:26.40	40.08	11.65	-26.8	-28.6	15.0	0.00e+00	0	42	0	395313152	13	4429
2026-01-04 00:43:29.42	40.49	11.85	-26.6	-28.2	15.2	0.00e+00	0	42	0	413138944	13	4330
2026-01-04 00:43:32.44	40.90	12.05	-26.6	-28.1	15.3	0.00e+00	0	42	0	429916160	13	4301
2026-01-04 00:43:35.46	41.32	12.24	-26.6	-28.2	15.2	0.00e+00	0	42	0	446693376	13	4329
2026-01-04 00:43:38.48	41.75	12.44	-26.1	-27.0	15.9	0.00e+00	0	43	0	463470592	13	3998
2026-01-04 00:43:41.49	42.18	12.64	-25.9	-26.7	16.1	0.00e+00	0	43	0	480247808	13	3927
2026-01-04 00:43:44.52	42.62	12.84	-25.9	-26.7	16.1	0.00e+00	0	42	0	498073600	13	3924
2026-01-04 00:43:47.54	43.06	13.03	-25.9	-26.7	16.1	1.30e-04	0	42	0	514850816	13	3920
2026-01-04 00:43:50.56	43.51	13.23	-25.9	-27.1	16.2	0.00e+00	0	43	0	531628032	12	4148
2026-01-04 00:43:53.58	43.96	13.43	-25.8	-27.0	16.2	5.39e-04	0	43	0	548405248	12	4110
2026-01-04 00:43:56.60	44.42	13.63	-25.8	-27.5	16.3	3.74e-04	0	43	0	565182464	11	4345
2026-01-04 00:43:59.61	44.89	13.82	-25.9	-27.7	16.2	2.55e-04	0	43	0	583008256	11	4397
2026-01-04 00:44:02.63	45.36	14.02	-26.1	-27.7	15.9	0.00e+00	0	43	0	599785472	12	4289
2026-01-04 00:44:05.66	45.84	14.22	-26.0	-27.4	16.0	1.15e-04	0	43	0	616562688	12	4218
2026-01-04 00:44:08.68	46.32	14.42	-26.1	-27.7	15.9	1.91e-04	0	43	0	633339904	12	4291
2026-01-04 00:44:11.70	46.81	14.61	-25.6	-26.5	16.6	0.00e+00	0	43	0	650117120	12	3985
2026-01-04 00:44:14.73	47.31	14.81	-25.5	-26.2	16.8	0.00e+00	0	43	0	667942912	12	3906
2026-01-04 00:44:17.74	47.81	15.01	-25.7	-26.6	16.5	4.04e-04	0	43	0	684720128	12	4015
2026-01-04 00:44:20.75	48.32	15.20	-25.8	-27.0	16.3	0.00e+00	0	43	0	701497344	12	4110
2026-01-04 00:44:23.76	48.84	15.40	-25.8	-26.9	16.4	0.00e+00	0	43	0	718274560	12	4081
2026-01-04 00:44:26.77	49.36	15.59	-25.7	-26.8	16.4	0.00e+00	0	43	0	735051776	12	4053
2026-01-04 00:44:29.79	49.89	15.79	-25.4	-26.0	16.9	0.00e+00	0	43	0	751828992	12	3866
2026-01-04 00:44:32.81	50.43	15.98	-25.2	-26.1	17.2	0.00e+00	0	43	0	769654784	11	3992
2026-01-04 00:44:35.83	50.97	16.17	-25.2	-26.1	17.2	0.00e+00	0	43	0	786432000	11	3986
2026-01-04 00:44:38.83	51.52	16.36	-25.2	-26.6	17.2	0.00e+00	0	43	0	803209216	10	4234
2026-01-04 00:44:41.85	52.07	16.55	-25.3	-26.9	17.1	0.00e+00	0	43	0	819986432	10	4292
2026-01-04 00:44:44.87	52.64	16.74	-25.3	-26.8	17.1	0.00e+00	0	43	0	836763648	10	4274
2026-01-04 00:44:47.89	53.21	16.93	-25.2	-26.6	17.2	0.00e+00	0	43	0	853540864	10	4208
2026-01-04 00:44:50.91	53.79	17.12	-25.3	-26.7	17.2	0.00e+00	0	43	0	871366656	10	4239
2026-01-04 00:44:53.93	54.37	17.30	-24.9	-26.0	17.5	0.00e+00	0	43	0	888143872	10	4069
2026-01-04 00:44:56.95	54.96	17.49	-25.0	-26.2	17.4	0.00e+00	0	43	0	904921088	10	4126
2026-01-04 00:44:59.96	55.56	17.67	-25.1	-26.4	17.3	0.00e+00	0	43	0	921698304	10	4162
2026-01-04 00:45:02.97	56.17	17.85	-25.1	-26.3	17.4	0.00e+00	0	43	0	938475520	10	4132
2026-01-04 00:45:06.00	56.78	18.03	-25.1	-26.3	17.4	0.00e+00	0	43	0	955252736	10	4140
2026-01-04 00:45:09.02	57.40	18.20	-25.0	-26.1	17.5	0.00e+00	0	43	0	973078528	10	4092
2026-01-04 00:45:12.05	58.03	18.38	-25.1	-26.3	17.4	0.00e+00	0	43	0	989855744	10	4152
2026-01-04 00:45:15.07	58.67	18.55	-25.0	-26.1	17.5	0.00e+00	0	43	0	1006632960	10	4105
2026-01-04 00:45:18.09	59.31	18.72	-24.9	-25.9	17.6	0.00e+00	0	43	0	1023410176	10	4055
2026-01-04 00:45:21.10	59.96	18.89	-24.7	-25.6	17.8	0.00e+00	0	43	0	1040187392	10	3967
2026-01-04 00:45:24.13	60.61	19.06	-24.7	-25.4	17.9	0.00e+00	0	43	0	1058013184	10	3916
2026-01-04 00:45:27.14	61.27	19.22	-24.8	-25.7	17.7	0.00e+00	0	43	0	1074790400	10	4000
2026-01-04 00:45:30.16	61.94	19.38	-24.9	-25.8	17.7	0.00e+00	0	43	0	1091567616	10	4022
2026-01-04 00:45:33.17	62.62	19.54	-25.0	-26.1	17.6	0.00e+00	0	43	0	1108344832	10	4088
2026-01-04 00:45:36.19	63.30	19.69	-24.7	-25.9	17.9	0.00e+00	0	43	0	1125122048	9	4154
2026-01-04 00:45:39.21	63.99	19.85	-24.5	-25.5	18.2	0.00e+00	0	43	0	1142947840	9	4042
2026-01-04 00:45:42.22	64.69	20.00	-24.5	-25.7	18.0	0.00e+00	0	43	0	1159725056	9	4105
2026-01-04 00:45:45.24	65.39	20.14	-24.6	-25.8	18.0	0.00e+00	0	43	0	1176502272	9	4119
2026-01-04 00:45:48.26	66.10	20.28	-24.8	-26.2	17.8	0.00e+00	0	43	0	1193279488	9	4226
2026-01-04 00:45:51.27	66.82	20.42	-24.8	-26.3	17.7	0.00e+00	0	43	0	1210056704	9	4251
2026-01-04 00:45:54.28	67.54	20.55	-24.8	-26.2	17.8	0.00e+00	0	43	0	1227882496	9	4229
2026-01-04 00:45:57.31	68.27	20.69	-24.6	-25.8	18.0	0.00e+00	0	43	0	1244659712	9	4121
2026-01-04 00:46:00.33	69.00	20.81	-24.2	-24.9	18.5	0.00e+00	0	43	0	1261436928	9	3903
2026-01-04 00:46:03.35	69.74	20.94	-24.1	-25.1	18.6	0.00e+00	0	43	0	1278214144	8	4071
2026-01-04 00:46:06.38	70.49	21.05	-24.2	-25.5	18.4	0.00e+00	0	43	0	1294991360	8	4160
2026-01-04 00:46:09.40	71.25	21.17	-24.2	-25.4	18.2	0.00e+00	0	43	0	1312817152	8	4138
2026-01-04 00:46:12.42	72.00	21.28	-24.2	-25.6	18.2	0.00e+00	0	43	0	1329594368	8	4200
2026-01-04 00:46:15.43	72.76	21.38	-24.3	-25.7	18.1	9.38e-05	0	43	0	1346371584	8	4235
2026-01-04 00:46:18.45	73.53	21.48	-24.4	-26.0	18.0	0.00e+00	0	43	0	1363148800	8	4303
2026-01-04 00:46:21.47	74.31	21.58	-24.2	-25.4	18.3	0.00e+00	0	43	0	1379926016	8	4164
2026-01-04 00:46:24.49	75.08	21.67	-24.4	-25.9	18.0	1.07e-04	0	43	0	1397751808	8	4293
2026-01-04 00:46:27.50	75.86	21.76	-24.2	-25.6	18.2	5.37e-05	0	43	0	1414529024	8	4199
2026-01-04 00:46:30.52	76.65	21.84	-24.3	-25.6	18.2	7.43e-05	0	43	0	1431306240	8	4214
2026-01-04 00:46:33.53	77.44	21.91	-24.1	-25.2	18.4	2.43e-04	0	43	0	1448083456	8	4112
2026-01-04 00:46:36.54	78.23	21.98	-23.8	-24.7	18.6	2.01e-04	0	43	0	1464860672	8	3993
2026-01-04 00:46:39.56	79.03	22.05	-23.9	-24.8	18.6	3.01e-04	0	43	0	1481637888	8	4003
2026-01-04 00:46:42.58	79.83	22.11	-24.1	-25.2	18.4	0.00e+00	0	43	0	1499463680	8	4116
2026-01-04 00:46:45.60	80.63	22.16	-23.9	-24.8	18.6	0.00e+00	0	43	0	1516240896	8	4019
2026-01-04 00:46:48.63	81.44	22.21	-24.0	-25.0	18.5	0.00e+00	0	43	0	1533018112	8	4063
2026-01-04 00:46:51.64	82.24	22.25	-24.1	-25.3	18.4	0.00e+00	0	43	0	1549795328	8	4143
2026-01-04 00:46:54.66	83.05	22.29	-23.9	-24.9	18.5	0.00e+00	0	43	0	1567621120	8	4045
2026-01-04 00:46:57.68	83.87	22.32	-23.9	-25.0	18.5	0.00e+00	0	43	0	1584398336	8	4051
2026-01-04 00:47:00.70	84.68	22.35	-23.8	-24.8	18.6	0.00e+00	0	43	0	1601175552	8	4004
2026-01-04 00:47:03.72	85.50	22.36	-24.0	-25.1	18.4	0.00e+00	0	43	0	1617952768	8	4086
2026-01-04 00:47:06.73	86.31	22.38	-24.0	-25.1	18.4	0.00e+00	0	43	0	1634729984	8	4081
2026-01-04 00:47:09.74	87.12	22.39	-24.2	-25.4	18.3	0.00e+00	0	43	0	1651507200	8	4173
2026-01-04 00:47:12.76	87.94	22.39	-23.9	-25.0	18.5	0.00e+00	0	43	0	1668284416	8	4051
2026-01-04 00:47:15.78	88.76	22.38	-23.8	-24.7	18.6	0.00e+00	0	43	0	1686110208	8	3988
2026-01-04 00:47:18.80	89.57	22.37	-24.1	-25.4	18.3	0.00e+00	0	43	0	1702887424	8	4166
2026-01-04 00:47:21.82	90.39	22.36	-24.2	-25.6	18.2	0.00e+00	0	43	0	1719664640	8	4206
2026-01-04 00:47:24.84	91.21	22.34	-24.2	-25.4	17.9	0.00e+00	0	43	0	1736441856	8	4168
2026-01-04 00:47:27.85	92.02	22.31	-24.0	-25.1	18.5	0.00e+00	0	43	0	1753219072	8	4090
2026-01-04 00:47:30.87	92.83	22.28	-23.9	-24.8	18.6	8.00e-06	0	43	0	1771044864	8	4013
2026-01-04 00:47:33.88	93.64	22.24	-23.9	-24.9	18.6	0.00e+00	0	43	0	1787822080	8	4031
2026-01-04 00:47:36.91	94.45	22.19	-24.0	-25.0	18.5	0.00e+00	0	43	0	1804599296	8	4070
2026-01-04 00:47:39.92	95.25	22.14	-24.1	-25.2	18.4	0.00e+00	0	43	0	1821376512	8	4112
2026-01-04 00:47:42.93	96.05	22.09	-24.1	-25.2	18.4	0.00e+00	0	43	0	1838153728	8	4119
2026-01-04 00:47:45.95	96.86	22.03	-24.0	-25.2	18.4	0.00e+00	0	43	0	1855979520	8	4121
2026-01-04 00:47:48.97	97.65	21.96	-24.1	-25.4	18.3	9.10e-06	0	43	102	1860173824	8	4149
2026-01-04 00:47:51.99	98.45	21.89	-24.1	-25.3	18.4	0.00e+00	0	43	102	1860173824	8	4119
2026-01-04 00:47:55.00	99.24	21.81	-24.2	-25.6	18.2	1.60e-05	0	43	102	1860173824	8	4208
2026-01-04 00:47:58.01	100.02	21.73	-24.3	-25.3	18.1	0.00e+00	0	43	102	1860173824	9	4018
2026-01-04 00:48:01.02	100.80	21.64	-24.0	-24.5	18.4	0.00e+00	0	43	102	1860173824	9	3834
2026-01-04 00:48:04.03	101.57	21.55	-24.1	-24.7	18.3	3.40e-06	0	43	102	1860173824	9	3891
2026-01-04 00:48:07.05	102.35	21.45	-24.3	-25.2	18.0	0.00e+00	0	43	102	1860173824	9	4011
2026-01-04 00:48:10.06	103.11	21.35	-24.3	-25.2	18.1	0.00e+00	0	43	102	1860173824	9	3991
2026-01-04 00:48:13.08	103.88	21.24	-24.4	-25.6	17.9	0.00e+00	0	43	102	1860173824	9	4098
2026-01-04 00:48:16.11	104.64	21.13	-24.3	-25.3	18.0	0.00e+00	0	43	102	1860173824	9	4017
2026-01-04 00:48:19.13	105.39	21.01	-24.2	-25.1	18.1	0.00e+00	0	43	102	1860173824	9	3968
2026-01-04 00:48:22.15	106.14	20.89	-24.3	-25.3	18.0	0.00e+00	0	43	102	1860173824	9	4039
2026-01-04 00:48:25.17	106.88	20.77	-24.4	-25.5	17.9	0.00e+00	0	43	102	1860173824	9	4082
2026-01-04 00:48:28.20	107.62	20.64	-24.5	-25.7	17.8	0.00e+00	0	43	102	1860173824	9	4120
2026-01-04 00:48:31.22	108.35	20.51	-24.4	-25.5	17.8	0.00e+00	0	43	102	1860173824	9	4084
2026-01-04 00:48:34.24	109.07	20.37	-24.4	-25.6	17.9	0.00e+00	0	43	102	1860173824	9	4088
2026-01-04 00:48:37.26	109.79	20.23	-24.8	-26.2	17.5	0.00e+00	0	43	102	1860173824	9	4264
2026-01-04 00:48:40.28	110.50	20.08	-24.7	-26.2	17.5	0.00e+00	0	43	102	1860173824	9	4263
2026-01-04 00:48:43.29	111.20	19.94	-24.8	-25.9	17.4	0.00e+00	0	43	102	1860173824	10	4056
2026-01-04 00:48:46.31	111.90	19.79	-24.8	-25.8	17.4	0.00e+00	0	43	102	1860173824	10	4048
2026-01-04 00:48:49.32	112.59	19.63	-24.7	-25.6	17.6	0.00e+00	0	43	102	1860173824	10	3990
2026-01-04 00:48:52.34	113.27	19.48	-24.6	-25.4	17.6	0.00e+00	0	43	102	1860173824	10	3953
2026-01-04 00:48:55.36	113.95	19.32	-24.7	-25.7	17.4	0.00e+00	0	43	102	1860173824	10	4013
2026-01-04 00:48:58.37	114.62	19.15	-25.1	-26.5	17.1	0.00e+00	0	43	102	1860173824	10	4223
2026-01-04 00:49:01.39	115.28	18.99	-25.0	-26.4	17.1	0.00e+00	0	43	102	1860173824	10	4183
2026-01-04 00:49:04.41	115.94	18.82	-25.1	-26.5	17.0	0.00e+00	0	43	102	1860173824	10	4231
2026-01-04 00:49:07.44	116.59	18.65	-25.0	-26.2	17.1	0.00e+00	0	43	102	1860173824	10	4159
2026-01-04 00:49:10.46	117.23	18.48	-24.9	-26.1	17.2	0.00e+00	0	43	102	1860173824	10	4117
2026-01-04 00:49:13.48	117.87	18.30	-25.0	-26.3	17.1	0.00e+00	0	43	102	1860173824	10	4163
2026-01-04 00:49:16.50	118.50	18.12	-25.2	-26.7	16.9	0.00e+00	0	43	102	1860173824	10	4284
2026-01-04 00:49:19.53	119.12	17.94	-25.3	-26.9	16.7	0.00e+00	0	43	102	1860173824	10	4333
2026-01-04 00:49:22.56	119.73	17.76	-25.5	-27.3	16.5	0.00e+00	0	43	102	1860173824	10	4427
2026-01-04 00:49:25.57	120.34	17.58	-25.6	-27.1	16.4	0.00e+00	0	43	102	1860173824	11	4274
2026-01-04 00:49:28.58	120.94	17.40	-25.4	-26.6	16.6	0.00e+00	0	43	102	1860173824	11	4140
2026-01-04 00:49:31.60	121.53	17.21	-25.4	-26.6	16.6	0.00e+00	0	43	102	1860173824	11	4146
2026-01-04 00:49:34.61	122.11	17.02	-25.3	-26.4	16.8	0.00e+00	0	43	102	1860173824	11	4076
2026-01-04 00:49:37.63	122.69	16.83	-25.2	-26.2	16.8	0.00e+00	0	43	102	1860173824	11	4047
2026-01-04 00:49:40.65	123.26	16.64	-25.3	-26.5	16.6	0.00e+00	0	43	102	1860173824	11	4127
2026-01-04 00:49:43.67	123.83	16.45	-25.5	-26.8	16.5	0.00e+00	0	43	102	1860173824	11	4187
2026-01-04 00:49:46.69	124.38	16.26	-25.7	-27.3	16.2	0.00e+00	0	43	102	1860173824	11	4315
2026-01-04 00:49:49.71	124.93	16.07	-25.7	-27.2	16.3	0.00e+00	0	43	102	1860173824	11	4294
2026-01-04 00:49:52.73	125.48	15.87	-26.0	-27.4	15.8	0.00e+00	0	43	102	1860173824	12	4245
2026-01-04 00:49:55.75	126.01	15.68	-26.0	-27.5	15.7	0.00e+00	0	43	102	1860173824	12	4286
2026-01-04 00:49:58.77	126.54	15.48	-25.8	-27.0	16.0	0.00e+00	0	43	102	1860173824	12	4138
2026-01-04 00:50:01.79	127.07	15.28	-25.7	-26.9	16.0	1.25e-05	0	43	102	1860173824	12	4110
2026-01-04 00:50:04.81	127.58	15.09	-25.8	-27.0	16.0	0.00e+00	0	43	102	1860173824	12	4129
2026-01-04 00:50:07.82	128.09	14.89	-25.8	-27.1	15.8	0.00e+00	0	43	102	1860173824	12	4180
2026-01-04 00:50:10.84	128.59	14.69	-25.8	-27.2	15.8	1.80e-04	0	43	102	1860173824	12	4195
2026-01-04 00:50:13.87	129.09	14.49	-25.9	-27.2	15.8	1.62e-04	0	43	102	1860173824	12	4191
2026-01-04 00:50:16.89	129.58	14.29	-26.0	-27.4	15.7	1.09e-04	0	43	102	1860173824	12	4239
2026-01-04 00:50:19.90	130.07	14.09	-26.0	-27.4	15.6	0.00e+00	0	44	102	1860173824	12	4251
2026-01-04 00:50:22.92	130.54	13.89	-26.1	-27.7	15.4	9.15e-05	0	43	102	1860173824	12	4326
2026-01-04 00:50:25.93	131.01	13.70	-26.0	-27.5	15.5	0.00e+00	0	43	102	1860173824	12	4273
2026-01-04 00:50:28.96	131.48	13.50	-25.9	-27.3	15.6	0.00e+00	0	43	102	1860173824	12	4233
2026-01-04 00:50:31.98	131.94	13.30	-26.1	-27.7	15.4	3.39e-04	0	43	102	1860173824	12	4345
2026-01-04 00:50:35.00	132.40	13.10	-26.2	-28.0	15.2	0.00e+00	0	43	102	1860173824	12	4434
2026-01-04 00:50:38.03	132.84	12.90	-26.3	-28.1	15.1	0.00e+00	0	43	102	1860173824	12	4465
2026-01-04 00:50:41.04	133.28	12.70	-26.4	-28.3	15.0	0.00e+00	0	43	102	1860173824	12	4515
2026-01-04 00:50:44.06	133.72	12.50	-26.5	-28.2	14.8	0.00e+00	0	43	102	1860173824	13	4360
2026-01-04 00:50:47.08	134.15	12.30	-26.6	-28.5	14.6	1.10e-06	0	43	102	1860173824	13	4458
2026-01-04 00:50:50.11	134.58	12.10	-26.6	-28.4	14.6	0.00e+00	0	43	102	1860173824	13	4427
2026-01-04 00:50:53.13	135.00	11.90	-26.7	-28.7	14.5	0.00e+00	0	43	102	1860173824	13	4507
2026-01-04 00:50:56.15	135.41	11.70	-26.6	-28.4	14.6	0.00e+00	0	43	102	1860173824	13	4442
2026-01-04 00:50:59.17	135.82	11.50	-26.7	-28.6	14.4	1.10e-06	0	43	102	1860173824	13	4486
2026-01-04 00:51:02.18	136.22	11.30	-26.5	-28.1	14.7	0.00e+00	0	43	102	1860173824	13	4347
2026-01-04 00:51:05.21	136.62	11.11	-26.5	-28.3	14.6	0.00e+00	0	43	102	1860173824	13	4405
2026-01-04 00:51:08.23	137.01	10.91	-26.8	-28.9	14.2	4.50e-06	0	43	102	1860173824	13	4582
2026-01-04 00:51:11.25	137.40	10.71	-26.9	-29.1	14.1	1.10e-06	0	43	102	1860173824	13	4631
2026-01-04 00:51:14.27	137.78	10.51	-26.9	-29.0	14.1	2.67e-04	0	43	102	1860173824	13	4626
2026-01-04 00:51:17.30	138.16	10.32	-26.8	-28.9	14.2	1.73e-04	0	43	102	1860173824	13	4579
2026-01-04 00:51:20.31	138.53	10.12	-26.9	-29.2	14.0	1.10e-06	0	43	102	1860173824	13	4674
2026-01-04 00:51:23.33	138.90	9.93	-26.8	-28.4	14.1	1.52e-04	0	43	102	1860173824	14	4318
2026-01-04 00:51:26.35	139.27	9.73	-26.8	-28.3	14.1	2.62e-04	0	43	102	1860173824	14	4314
2026-01-04 00:51:29.37	139.62	9.54	-26.9	-28.7	13.9	4.66e-04	0	43	102	1860173824	14	4423
2026-01-04 00:51:32.39	139.98	9.35	-27.1	-29.0	13.7	6.80e-06	0	43	102	1860173824	14	4513
2026-01-04 00:51:35.40	140.33	9.15	-27.1	-29.1	13.6	6.30e-04	0	43	102	1860173824	14	4536
2026-01-04 00:51:38.41	140.67	8.96	-27.3	-29.7	13.2	3.41e-04	0	43	102	1860173824	14	4715
2026-01-04 00:51:41.41	141.01	8.77	-27.7	-30.0	12.6	4.80e-05	0	43	102	1860173824	15	4728
2026-01-04 00:51:44.43	141.35	8.58	-27.5	-29.6	12.8	4.34e-05	0	43	102	1860173824	15	4583
2026-01-04 00:51:47.45	141.68	8.39	-27.5	-30.1	12.8	7.97e-04	0	43	102	1860173824	14	4875
2026-01-04 00:51:50.47	142.01	8.20	-27.5	-29.6	12.8	5.60e-05	0	43	102	1860173824	15	4599
2026-01-04 00:51:53.49	142.33	8.01	-27.6	-29.8	12.5	6.52e-05	0	43	102	1860173824	15	4682
2026-01-04 00:51:56.52	142.65	7.82	-27.7	-30.2	12.3	1.13e-04	0	43	102	1860173824	15	4804
2026-01-04 00:51:59.54	142.97	7.64	-27.8	-30.6	12.0	2.27e-04	0	43	102	1860173824	15	4923
2026-01-04 00:52:02.55	143.28	7.45	-27.8	-30.4	12.1	2.04e-04	0	43	102	1860173824	15	4878
2026-01-04 00:52:05.56	143.59	7.26	-27.9	-30.6	12.0	1.82e-04	0	43	102	1860173824	15	4912
2026-01-04 00:52:08.58	143.89	7.08	-32.3	-43.1	3.8	4.15e-01	0	43	104	1860173824	24	12478
2026-01-04 00:52:11.59	144.19	6.89	-33.8	-45.3	3.8	8.46e-01	0	43	104	1860173824	27	13382

#Closed at: 2026-01-04 00:52:12
#Recorded file [1860 MB]: D:/data/31010_260104_034215.dat