passes_logs/2026/01/04/R2M6_AANII_01/R2M6_AANII_01__20260104_113534_NOAA_20_JPSS-1_rec.log

#Pass ID: 20260104_113534_NOAA 20 (JPSS-1)
#Satellite: NOAA 20 (JPSS-1)
#Configuration: NOAA 20
#almurnet v.1.7.20240730
#Start time: 2026-01-04 11:41:17

#Version: 2.2.20231116
#Station: R2M6_AANII_01
#Location: 30.233357 lon 59.946436 lat
#TLE: 1 43013U 17073A   26003.41800368  .00000169  00000+0  10117-3 0  9998
#TLE: 2 43013  98.7624 304.4804 0001884  56.1176 304.0179 14.19532918421092

#Time	Az	El	Level	Level2	SNR	BER	BlckErr	Temp	State	Recorded	gain1	gain2
2026-01-04 11:41:17.89	272.59	31.30	-34.1	-53.6	3.8	7.44e-01	0	43	0	0	28	33834
2026-01-04 11:41:19.90	273.30	31.26	-34.3	-48.1	3.8	1.49e+00	0	43	104	0	29	17614
2026-01-04 11:41:21.92	274.02	31.21	-34.4	-48.2	3.8	1.49e+00	0	43	104	0	29	17677
2026-01-04 11:41:23.93	274.73	31.16	-34.4	-48.2	3.8	1.49e+00	0	43	104	0	29	17757
2026-01-04 11:41:25.95	275.44	31.11	-34.4	-48.2	3.8	1.49e+00	0	43	104	0	29	17703
2026-01-04 11:41:27.96	276.15	31.05	-34.4	-48.2	3.8	1.49e+00	0	43	104	0	29	17776
2026-01-04 11:41:29.97	276.85	30.99	-34.4	-48.2	3.8	1.49e+00	0	43	104	0	29	17776
2026-01-04 11:41:31.99	277.55	30.92	-34.4	-48.2	3.8	1.49e+00	0	43	104	0	29	17752
2026-01-04 11:41:34.01	278.25	30.85	-34.4	-48.2	3.8	1.49e+00	0	43	104	0	29	17767
2026-01-04 11:41:36.03	278.95	30.77	-34.3	-48.1	3.8	1.49e+00	0	43	104	0	29	17647
2026-01-04 11:41:38.05	279.64	30.69	-34.3	-48.0	3.8	1.49e+00	0	43	104	0	29	17540
2026-01-04 11:41:40.06	280.33	30.61	-34.2	-47.9	3.8	1.49e+00	0	43	104	0	29	17443
2026-01-04 11:41:42.07	281.01	30.52	-34.2	-47.9	3.8	1.49e+00	0	43	104	0	29	17381
2026-01-04 11:41:44.08	281.69	30.43	-34.1	-47.8	3.8	1.49e+00	0	43	104	0	29	17262
2026-01-04 11:41:46.10	282.37	30.33	-34.1	-47.5	3.8	1.49e+00	0	43	104	0	29	17020
2026-01-04 11:41:48.11	283.04	30.23	-33.9	-47.3	3.8	1.49e+00	0	43	104	0	29	16826
2026-01-04 11:41:50.13	283.71	30.13	-33.9	-47.3	3.8	1.49e+00	0	43	104	0	29	16801
2026-01-04 11:41:52.14	284.38	30.02	-33.7	-47.6	3.8	1.49e+00	0	43	104	0	28	17773
2026-01-04 11:41:54.16	285.04	29.91	-33.8	-47.7	3.8	1.49e+00	0	43	104	0	28	17690
2026-01-04 11:41:56.17	285.69	29.79	-33.9	-47.7	3.8	1.49e+00	0	43	104	0	28	17516
2026-01-04 11:41:58.17	286.34	29.67	-33.9	-47.7	3.8	1.49e+00	0	43	104	0	28	17790
2026-01-04 11:42:00.19	286.98	29.55	-33.9	-47.6	3.8	1.49e+00	0	43	104	0	28	17577
2026-01-04 11:42:02.20	287.62	29.42	-33.9	-47.3	3.8	1.49e+00	0	43	104	0	28	16857
2026-01-04 11:42:04.22	288.26	29.29	-33.8	-46.7	3.8	1.49e+00	0	43	104	0	28	15802
2026-01-04 11:42:06.23	288.89	29.16	-33.8	-45.9	3.8	1.49e+00	0	43	104	0	28	14472
2026-01-04 11:42:08.25	289.52	29.03	-33.6	-43.3	4.4	1.47e+00	0	43	104	0	28	10951
2026-01-04 11:42:10.27	290.14	28.89	-32.5	-37.4	8.8	3.89e-01	0	43	104	0	26	6298
2026-01-04 11:42:12.28	290.75	28.75	-32.1	-36.3	10.0	5.43e-03	0	43	102	1048576	25	5832
2026-01-04 11:42:14.30	291.36	28.60	-32.4	-37.3	9.2	1.62e-02	0	43	102	1048576	25	6371
2026-01-04 11:42:16.30	291.96	28.46	-32.5	-38.1	8.7	3.35e-02	0	43	102	1048576	25	6822
2026-01-04 11:42:18.32	292.56	28.31	-32.7	-38.6	8.3	4.32e-02	0	43	102	1048576	25	7089
2026-01-04 11:42:20.33	293.16	28.16	-32.4	-37.6	9.0	3.38e-02	0	43	102	1048576	25	6557
2026-01-04 11:42:22.34	293.74	28.00	-31.8	-35.4	10.6	5.52e-03	0	43	102	1048576	25	5445
2026-01-04 11:42:24.35	294.32	27.85	-31.4	-34.5	11.7	7.77e-04	0	43	102	1048576	24	5139
2026-01-04 11:42:26.37	294.90	27.69	-31.4	-34.5	11.8	4.52e-04	0	44	102	1048576	24	5134
2026-01-04 11:42:28.37	295.47	27.53	-31.7	-35.6	10.9	2.09e-03	0	43	102	1048576	24	5611
2026-01-04 11:42:30.38	296.03	27.37	-31.8	-35.9	10.7	3.58e-03	0	43	102	1048576	24	5746
2026-01-04 11:42:32.40	296.59	27.20	-31.9	-36.2	10.5	3.16e-03	0	43	102	1048576	24	5879
2026-01-04 11:42:34.42	297.15	27.04	-31.9	-36.2	10.5	4.39e-03	0	43	102	1048576	24	5899
2026-01-04 11:42:36.42	297.69	26.87	-31.9	-36.3	10.4	4.48e-03	0	43	102	1048576	24	5948
2026-01-04 11:42:38.44	298.24	26.70	-31.7	-35.6	10.9	2.77e-03	0	43	102	1048576	24	5615
2026-01-04 11:42:40.46	298.77	26.53	-31.5	-35.0	11.4	1.22e-03	0	43	102	1048576	24	5354
2026-01-04 11:42:42.47	299.30	26.36	-31.4	-34.6	11.6	1.06e-03	0	43	102	1048576	24	5188
2026-01-04 11:42:44.49	299.83	26.18	-31.1	-34.1	12.3	3.44e-04	0	43	102	1048576	23	5106
2026-01-04 11:42:46.50	300.35	26.01	-30.6	-33.1	13.3	2.44e-05	0	43	102	1048576	22	4819
2026-01-04 11:42:48.51	300.86	25.83	-30.7	-33.4	13.1	2.51e-05	0	43	102	1048576	22	4940
2026-01-04 11:42:50.53	301.37	25.65	-31.1	-34.5	12.4	1.73e-04	0	43	102	1048576	22	5374
2026-01-04 11:42:52.54	301.87	25.48	-31.0	-34.3	12.5	1.49e-04	0	43	102	1048576	22	5292
2026-01-04 11:42:54.56	302.37	25.30	-31.1	-34.7	12.2	1.25e-04	0	43	102	1048576	22	5430
2026-01-04 11:42:56.58	302.86	25.11	-31.2	-35.0	12.0	3.05e-04	0	43	102	1048576	22	5578
2026-01-04 11:42:58.59	303.35	24.93	-31.0	-34.4	12.4	1.85e-04	0	43	102	1048576	22	5322
2026-01-04 11:43:00.60	303.83	24.75	-30.8	-33.9	12.8	6.48e-05	0	43	102	1048576	22	5127
2026-01-04 11:43:02.62	304.31	24.57	-31.0	-34.3	12.5	6.86e-05	0	43	102	1048576	22	5272
2026-01-04 11:43:04.63	304.77	24.38	-31.3	-35.5	11.7	4.07e-04	0	43	102	1048576	22	5779
2026-01-04 11:43:06.64	305.24	24.20	-31.1	-34.6	12.3	2.68e-04	0	43	102	1048576	22	5386
2026-01-04 11:43:08.66	305.70	24.01	-30.6	-33.3	13.1	4.04e-05	0	43	102	1048576	22	4913
2026-01-04 11:43:10.68	306.15	23.83	-31.0	-34.3	12.5	8.85e-05	0	43	102	1048576	22	5276
2026-01-04 11:43:12.69	306.60	23.64	-31.6	-35.8	11.0	1.32e-03	0	43	102	1048576	23	5843
2026-01-04 11:43:14.71	307.05	23.46	-31.3	-34.8	11.8	8.54e-04	0	43	102	1048576	23	5386
2026-01-04 11:43:16.72	307.48	23.27	-30.8	-33.4	12.7	8.85e-05	0	43	102	1048576	23	4848
2026-01-04 11:43:18.73	307.92	23.08	-30.9	-33.7	12.5	1.20e-04	0	43	102	1048576	23	4967
2026-01-04 11:43:20.74	308.34	22.89	-31.3	-35.0	11.6	5.10e-04	0	43	102	1048576	23	5462
2026-01-04 11:43:22.75	308.76	22.71	-31.2	-34.5	12.0	4.45e-04	0	43	102	1048576	23	5250
2026-01-04 11:43:24.76	309.18	22.52	-30.9	-33.7	12.5	1.27e-04	0	43	102	1048576	23	4940
2026-01-04 11:43:26.77	309.59	22.33	-30.6	-33.2	13.2	2.97e-05	0	43	102	1048576	22	4884
2026-01-04 11:43:28.77	310.00	22.15	-31.0	-34.4	12.3	9.23e-05	0	43	102	1048576	22	5354
2026-01-04 11:43:30.78	310.40	21.96	-31.3	-35.5	11.5	7.06e-04	0	43	102	1048576	22	5789
2026-01-04 11:43:32.80	310.80	21.77	-31.0	-34.6	12.2	2.72e-04	0	43	102	1048576	22	5394
2026-01-04 11:43:34.81	311.20	21.58	-30.6	-33.3	13.0	3.28e-05	0	43	102	1048576	22	4917
2026-01-04 11:43:36.82	311.58	21.39	-30.9	-34.2	12.4	9.91e-05	0	43	102	1048576	22	5254
2026-01-04 11:43:38.83	311.97	21.21	-31.3	-35.3	11.7	4.74e-04	0	43	102	1048576	22	5707
2026-01-04 11:43:40.85	312.35	21.02	-31.1	-34.8	12.0	4.97e-04	0	43	102	1048576	22	5515
2026-01-04 11:43:42.86	312.72	20.83	-30.9	-34.2	12.4	1.59e-04	0	43	102	1048576	22	5260
2026-01-04 11:43:44.87	313.10	20.64	-30.7	-33.6	12.8	1.25e-04	0	43	102	1048576	22	5016
2026-01-04 11:43:46.89	313.46	20.46	-30.8	-33.8	12.7	8.77e-05	0	43	102	1048576	22	5099
2026-01-04 11:43:48.90	313.82	20.27	-31.0	-34.4	12.2	2.31e-04	0	43	102	1048576	22	5338
2026-01-04 11:43:50.92	314.18	20.08	-31.1	-34.9	11.9	2.86e-04	0	43	102	1048576	22	5547
2026-01-04 11:43:52.93	314.54	19.90	-30.7	-33.6	12.8	7.70e-05	0	43	102	1048576	22	5017
2026-01-04 11:43:54.94	314.89	19.71	-30.4	-32.9	13.3	1.90e-05	0	43	102	1048576	22	4780
2026-01-04 11:43:56.95	315.23	19.53	-30.6	-33.5	12.9	4.65e-05	0	43	102	1048576	22	4984
2026-01-04 11:43:58.96	315.57	19.34	-30.9	-34.2	12.4	1.18e-04	0	43	102	1048576	22	5276
2026-01-04 11:44:00.97	315.91	19.16	-30.5	-33.0	13.1	3.96e-05	0	43	102	1048576	22	4809
2026-01-04 11:44:02.98	316.24	18.97	-30.2	-32.8	13.6	9.90e-06	0	43	102	1048576	21	4860
2026-01-04 11:44:04.99	316.57	18.79	-30.2	-32.7	13.6	6.10e-06	0	43	102	1048576	21	4817
2026-01-04 11:44:07.02	316.90	18.61	-30.1	-32.5	13.8	6.80e-06	0	43	102	1048576	21	4762
2026-01-04 11:44:09.03	317.22	18.42	-30.0	-32.3	13.9	8.30e-06	0	43	102	1048576	21	4697
2026-01-04 11:44:11.05	317.54	18.24	-29.9	-32.1	14.0	1.50e-06	0	43	102	1048576	21	4620
2026-01-04 11:44:13.05	317.86	18.06	-29.8	-31.7	14.3	7.00e-07	0	43	102	1048576	21	4501
2026-01-04 11:44:15.06	318.17	17.88	-30.1	-32.4	13.8	7.00e-07	0	43	102	1048576	21	4724
2026-01-04 11:44:17.07	318.47	17.70	-29.9	-32.1	14.0	3.80e-06	0	43	102	1048576	21	4602
2026-01-04 11:44:19.08	318.78	17.52	-30.1	-32.4	13.8	7.00e-07	0	43	102	1048576	21	4721
2026-01-04 11:44:21.10	319.08	17.34	-30.4	-33.4	13.1	1.60e-05	0	43	102	1048576	21	5094
2026-01-04 11:44:23.11	319.38	17.16	-30.3	-33.1	13.3	1.83e-05	0	43	102	1048576	21	4981
2026-01-04 11:44:25.12	319.67	16.98	-30.4	-33.5	13.0	3.05e-05	0	43	102	1048576	21	5115
2026-01-04 11:44:27.14	319.96	16.80	-30.6	-33.9	12.8	5.11e-05	0	43	102	1048576	21	5267
2026-01-04 11:44:29.15	320.25	16.63	-30.3	-33.1	13.3	1.75e-05	0	43	102	1048576	21	4959
2026-01-04 11:44:31.17	320.53	16.45	-30.3	-33.1	13.3	1.83e-05	0	43	102	1048576	21	4979
2026-01-04 11:44:33.18	320.81	16.28	-30.4	-33.3	13.1	2.44e-05	0	43	102	1048576	21	5036
2026-01-04 11:44:35.20	321.09	16.10	-30.4	-33.3	13.1	2.59e-05	0	43	102	1048576	21	5046
2026-01-04 11:44:37.21	321.36	15.93	-30.4	-33.5	13.0	3.81e-05	0	43	102	1048576	21	5114
2026-01-04 11:44:39.22	321.63	15.75	-30.5	-33.8	12.8	6.40e-05	0	43	102	1048576	21	5223
2026-01-04 11:44:41.23	321.90	15.58	-30.7	-34.4	12.3	1.52e-04	0	43	102	1048576	21	5496
2026-01-04 11:44:43.25	322.17	15.41	-30.6	-33.9	12.7	6.94e-05	0	43	102	1048576	21	5281
2026-01-04 11:44:45.26	322.43	15.23	-30.7	-34.2	12.5	1.18e-04	0	43	102	1048576	21	5401
2026-01-04 11:44:47.28	322.69	15.06	-30.8	-34.5	12.3	2.17e-04	0	43	102	1048576	21	5517
2026-01-04 11:44:49.29	322.95	14.89	-30.8	-34.6	12.1	2.30e-04	0	43	102	1048576	21	5584
2026-01-04 11:44:51.31	323.20	14.72	-30.9	-35.0	11.9	3.26e-04	0	43	102	1048576	21	5736
2026-01-04 11:44:53.33	323.45	14.55	-30.9	-34.4	11.9	3.44e-04	0	43	102	1048576	22	5385
2026-01-04 11:44:55.34	323.70	14.38	-30.9	-34.5	11.9	4.30e-04	0	43	102	1048576	22	5418
2026-01-04 11:44:57.35	323.95	14.22	-31.1	-35.1	11.4	8.89e-04	0	43	102	1048576	22	5696
2026-01-04 11:44:59.36	324.19	14.05	-31.2	-35.3	11.3	1.21e-03	0	43	102	1048576	22	5778
2026-01-04 11:45:01.38	324.43	13.88	-31.1	-35.2	11.4	9.89e-04	0	43	102	1048576	22	5716
2026-01-04 11:45:03.40	324.67	13.72	-31.3	-35.5	11.1	1.60e-03	0	43	102	1048576	22	5894
2026-01-04 11:45:05.40	324.90	13.55	-31.4	-36.0	10.7	2.88e-03	0	43	102	1048576	22	6105
2026-01-04 11:45:07.42	325.14	13.39	-31.1	-35.2	11.3	1.38e-03	0	43	102	1048576	22	5741
2026-01-04 11:45:09.43	325.37	13.22	-31.2	-35.4	11.2	1.40e-03	0	43	102	1048576	22	5819
2026-01-04 11:45:11.44	325.59	13.06	-31.3	-35.9	10.8	1.98e-03	0	43	102	1048576	22	6081
2026-01-04 11:45:13.45	325.82	12.90	-31.2	-35.5	11.0	2.17e-03	0	43	102	1048576	22	5885
2026-01-04 11:45:15.45	326.04	12.74	-31.2	-35.5	11.0	1.70e-03	0	43	102	1048576	22	5878
2026-01-04 11:45:17.47	326.26	12.58	-31.3	-35.6	10.9	1.96e-03	0	43	102	1048576	22	5958
2026-01-04 11:45:19.49	326.48	12.42	-31.2	-35.3	11.2	1.49e-03	0	43	102	1048576	22	5779
2026-01-04 11:45:21.49	326.70	12.26	-31.1	-35.1	11.4	1.04e-03	0	43	102	1048576	22	5684
2026-01-04 11:45:23.51	326.91	12.10	-31.1	-35.2	11.2	1.06e-03	0	43	102	1048576	22	5764
2026-01-04 11:45:25.51	327.12	11.94	-31.1	-35.2	11.2	1.57e-03	0	43	102	1048576	22	5777
2026-01-04 11:45:27.52	327.33	11.79	-31.2	-35.3	11.1	1.25e-03	0	43	102	1048576	22	5820
2026-01-04 11:45:29.53	327.54	11.63	-31.2	-35.4	11.0	1.85e-03	0	43	102	1048576	22	5871
2026-01-04 11:45:31.54	327.74	11.47	-31.2	-35.5	11.0	1.63e-03	0	43	102	1048576	22	5882
2026-01-04 11:45:33.55	327.95	11.32	-31.2	-35.6	10.9	2.87e-03	0	43	102	1048576	22	5944
2026-01-04 11:45:35.57	328.15	11.16	-31.0	-35.0	11.3	1.17e-03	0	43	102	1048576	22	5690
2026-01-04 11:45:37.59	328.35	11.01	-30.9	-34.6	11.6	8.12e-04	0	43	102	1048576	22	5501
2026-01-04 11:45:39.61	328.55	10.86	-30.9	-34.5	11.6	7.12e-04	0	43	102	1048576	22	5471
2026-01-04 11:45:41.62	328.74	10.70	-30.7	-34.0	12.0	4.15e-04	0	43	102	1048576	22	5250
2026-01-04 11:45:43.63	328.93	10.55	-30.8	-34.3	11.8	4.66e-04	0	43	102	1048576	22	5385
2026-01-04 11:45:45.65	329.13	10.40	-30.9	-34.7	11.4	7.03e-04	0	43	102	1048576	22	5567
2026-01-04 11:45:47.66	329.32	10.25	-30.9	-34.7	11.5	7.69e-04	0	43	102	1048576	22	5554
2026-01-04 11:45:49.68	329.50	10.10	-30.9	-34.7	11.5	9.60e-04	0	43	102	1048576	22	5544
2026-01-04 11:45:51.69	329.69	9.95	-31.0	-34.8	11.4	8.94e-04	0	43	102	1048576	22	5595
2026-01-04 11:45:53.71	329.88	9.80	-30.9	-34.8	11.4	9.23e-04	0	43	102	1048576	22	5613
2026-01-04 11:45:55.72	330.06	9.65	-31.0	-34.8	11.4	9.83e-04	0	43	102	1048576	22	5611
2026-01-04 11:45:57.74	330.24	9.51	-30.9	-34.7	11.3	1.03e-03	0	43	102	1048576	22	5582
2026-01-04 11:45:59.75	330.42	9.36	-31.0	-35.1	11.1	1.37e-03	0	43	102	1048576	22	5736
2026-01-04 11:46:01.77	330.60	9.21	-30.9	-34.5	11.5	9.74e-04	0	43	102	1048576	22	5502
2026-01-04 11:46:03.79	330.77	9.07	-30.8	-34.4	11.6	6.45e-04	0	43	102	1048576	22	5440
2026-01-04 11:46:05.80	330.95	8.92	-30.8	-34.4	11.5	8.77e-04	0	43	102	1048576	22	5447
2026-01-04 11:46:07.82	331.12	8.78	-30.9	-34.7	11.3	1.05e-03	0	43	102	1048576	22	5583
2026-01-04 11:46:09.83	331.29	8.63	-30.9	-34.7	11.3	1.03e-03	0	43	102	1048576	22	5604
2026-01-04 11:46:11.85	331.46	8.49	-31.0	-35.1	11.0	2.16e-03	0	43	102	1048576	22	5775
2026-01-04 11:46:13.86	331.63	8.35	-31.1	-35.3	10.8	2.50e-03	0	43	102	1048576	22	5867
2026-01-04 11:46:15.88	331.79	8.21	-31.2	-35.8	10.5	3.39e-03	0	43	102	1048576	22	6090
2026-01-04 11:46:17.89	331.96	8.07	-31.2	-35.7	10.5	3.28e-03	0	43	102	1048576	22	6063
2026-01-04 11:46:19.91	332.12	7.92	-31.0	-35.2	10.8	2.87e-03	0	43	102	1048576	22	5833
2026-01-04 11:46:21.90	332.28	7.79	-31.1	-35.5	10.7	3.30e-03	0	43	102	1048576	22	5947
2026-01-04 11:46:23.92	332.44	7.65	-31.1	-35.4	10.7	3.68e-03	0	43	102	1048576	22	5909
2026-01-04 11:46:25.94	332.60	7.51	-31.0	-35.2	10.7	2.81e-03	0	43	102	1048576	22	5854
2026-01-04 11:46:27.96	332.76	7.37	-31.1	-35.6	10.5	2.73e-03	0	43	102	1048576	22	6024
2026-01-04 11:46:29.97	332.91	7.23	-31.0	-35.2	10.7	2.90e-03	0	43	102	1048576	22	5860
2026-01-04 11:46:31.99	333.07	7.09	-31.1	-35.7	10.4	3.81e-03	0	43	102	1048576	22	6064

#Closed at: 2026-01-04 11:46:33
#Recorded file [1 MB]: D:/data/31010_260104_144210.dat