passes_logs/2026/01/04/R2M6_AANII_01/R2M6_AANII_01__20260104_234247_NOAA_20_JPSS-1_rec.log

#Pass ID: 20260104_234247_NOAA 20 (JPSS-1)
#Satellite: NOAA 20 (JPSS-1)
#Configuration: NOAA 20
#almurnet v.1.7.20240730
#Start time: 2026-01-04 23:42:49

#Version: 2.2.20231116
#Station: R2M6_AANII_01
#Location: 30.233357 lon 59.946436 lat
#TLE: 1 43013U 17073A   26004.47528369  .00000132  00000+0  83671-4 0  9999
#TLE: 2 43013  98.7626 305.5264 0001854  54.5883 305.5466 14.19533142421242

#Time	Az	El	Level	Level2	SNR	BER	BlckErr	Temp	State	Recorded	gain1	gain2
2026-01-04 23:42:49.80	21.86	7.16	-30.7	-36.2	5.3	1.23e+00	0	41	0	0	21	6772
2026-01-04 23:42:52.82	21.98	7.38	-30.9	-36.8	8.7	3.50e-02	0	41	102	1048576	21	7117
2026-01-04 23:42:55.84	22.10	7.61	-30.8	-36.2	9.2	2.39e-02	0	41	102	1048576	21	6740
2026-01-04 23:42:58.86	22.22	7.84	-30.9	-36.8	8.8	2.89e-02	0	41	102	1048576	21	7068
2026-01-04 23:43:01.88	22.35	8.08	-31.2	-37.2	8.1	4.35e-02	0	41	102	1048576	22	7211
2026-01-04 23:43:04.90	22.47	8.31	-31.1	-36.9	8.3	5.55e-02	0	42	102	1048576	22	7049
2026-01-04 23:43:07.92	22.60	8.55	-31.2	-37.5	7.9	5.00e-02	0	42	102	1048576	22	7418
2026-01-04 23:43:10.93	22.73	8.79	-30.9	-36.6	9.0	2.66e-02	0	42	102	1048576	21	6925
2026-01-04 23:43:13.94	22.86	9.03	-30.7	-35.7	9.7	1.09e-02	0	42	102	1048576	21	6429
2026-01-04 23:43:16.96	22.99	9.27	-30.8	-36.1	9.4	1.77e-02	0	42	102	1048576	21	6637
2026-01-04 23:43:19.98	23.13	9.52	-30.4	-35.2	10.5	3.67e-03	0	42	102	1048576	20	6272
2026-01-04 23:43:23.00	23.26	9.77	-30.3	-35.0	10.7	3.10e-03	0	42	102	1048576	20	6146
2026-01-04 23:43:26.02	23.40	10.02	-30.3	-34.8	10.9	2.07e-03	0	42	102	1048576	20	6030
2026-01-04 23:43:29.04	23.55	10.27	-30.2	-34.6	11.0	1.88e-03	0	42	102	1048576	20	5959
2026-01-04 23:43:32.06	23.69	10.53	-30.3	-34.8	10.9	2.36e-03	0	42	102	1048576	20	6020
2026-01-04 23:43:35.07	23.84	10.79	-30.3	-34.8	10.9	1.86e-03	0	42	102	1048576	20	6027
2026-01-04 23:43:38.09	23.98	11.05	-30.3	-34.9	10.9	2.38e-03	0	42	102	1048576	20	6069
2026-01-04 23:43:41.11	24.14	11.31	-30.1	-34.2	11.4	1.45e-03	0	43	102	1048576	20	5768
2026-01-04 23:43:44.13	24.29	11.58	-30.3	-34.7	11.1	1.41e-03	0	42	102	1048576	20	5976
2026-01-04 23:43:47.17	24.45	11.85	-30.4	-35.1	10.7	2.32e-03	0	42	102	1048576	20	6182
2026-01-04 23:43:50.18	24.61	12.12	-30.0	-33.8	11.8	1.04e-03	0	43	102	1048576	20	5562
2026-01-04 23:43:53.20	24.77	12.40	-29.9	-33.6	11.9	1.06e-03	0	42	102	1048576	20	5455
2026-01-04 23:43:56.22	24.93	12.68	-30.0	-33.7	11.8	1.63e-03	0	43	102	1048576	20	5510
2026-01-04 23:43:59.24	25.10	12.96	-29.9	-34.0	12.1	1.23e-03	0	42	102	1048576	19	5714
2026-01-04 23:44:02.25	25.27	13.24	-29.9	-33.8	12.2	9.69e-04	0	42	102	1048576	19	5645
2026-01-04 23:44:05.28	25.44	13.53	-29.9	-33.8	12.2	1.01e-03	0	42	102	1048576	19	5644
2026-01-04 23:44:08.29	25.62	13.82	-29.9	-33.4	12.1	8.22e-04	0	43	102	1048576	20	5391
2026-01-04 23:44:11.31	25.80	14.11	-29.9	-33.8	12.2	1.96e-04	0	43	102	1048576	19	5665
2026-01-04 23:44:14.34	25.98	14.41	-29.8	-33.4	12.6	1.43e-04	0	43	102	1048576	19	5476
2026-01-04 23:44:17.36	26.17	14.71	-29.9	-33.8	12.3	2.94e-04	0	43	102	1048576	19	5618
2026-01-04 23:44:20.37	26.36	15.02	-29.9	-33.3	12.3	6.28e-04	0	43	102	1048576	20	5324
2026-01-04 23:44:23.40	26.55	15.33	-29.5	-32.4	13.3	2.28e-05	0	43	102	1048576	19	5084
2026-01-04 23:44:26.42	26.75	15.64	-29.5	-32.6	12.9	1.67e-05	0	43	102	1048576	19	5127
2026-01-04 23:44:29.44	26.95	15.95	-29.6	-32.8	13.1	3.50e-05	0	43	102	1048576	19	5197
2026-01-04 23:44:32.47	27.16	16.27	-29.5	-32.9	13.3	6.03e-04	0	43	102	1048576	18	5373
2026-01-04 23:44:35.48	27.37	16.60	-29.3	-32.5	13.7	4.45e-04	0	43	102	1048576	18	5199
2026-01-04 23:44:38.50	27.58	16.92	-29.4	-32.6	13.6	4.60e-04	0	43	102	1048576	18	5257
2026-01-04 23:44:41.52	27.80	17.26	-29.7	-33.1	13.0	6.94e-05	0	43	102	1048576	19	5300
2026-01-04 23:44:44.54	28.02	17.59	-29.2	-32.3	13.8	6.10e-06	0	43	102	1048576	18	5126
2026-01-04 23:44:47.56	28.25	17.93	-29.2	-32.3	13.8	3.00e-06	0	43	102	1048576	18	5122
2026-01-04 23:44:50.58	28.48	18.28	-29.3	-32.3	13.8	4.00e-04	0	43	102	1048576	18	5134
2026-01-04 23:44:53.59	28.72	18.62	-29.3	-32.4	13.8	3.93e-04	0	43	102	1048576	18	5162
2026-01-04 23:44:56.61	28.96	18.98	-29.2	-32.0	14.0	5.22e-04	0	43	102	1048576	18	5021
2026-01-04 23:44:59.62	29.21	19.33	-29.2	-32.3	13.9	5.72e-04	0	43	102	1048576	18	5099
2026-01-04 23:45:02.64	29.46	19.69	-29.2	-32.3	14.0	6.58e-04	0	43	102	1048576	18	5097
2026-01-04 23:45:05.66	29.72	20.06	-29.4	-32.7	13.7	6.10e-06	0	43	102	1048576	18	5273
2026-01-04 23:45:08.69	29.99	20.44	-29.6	-32.8	13.3	1.06e-05	0	43	102	1048576	19	5177
2026-01-04 23:45:11.70	30.26	20.81	-29.4	-32.7	13.7	8.30e-06	0	43	102	1048576	18	5238
2026-01-04 23:45:14.72	30.54	21.19	-29.3	-32.0	13.8	4.52e-04	0	43	102	1048576	19	4896
2026-01-04 23:45:17.75	30.82	21.58	-29.3	-32.4	13.9	4.71e-04	0	43	102	1048576	18	5133
2026-01-04 23:45:20.76	31.12	21.98	-29.3	-32.2	14.1	4.00e-04	0	43	102	1048576	18	5076
2026-01-04 23:45:23.77	31.41	22.37	-29.1	-31.8	14.3	7.00e-07	0	43	102	1048576	18	4932
2026-01-04 23:45:26.79	31.72	22.78	-29.3	-32.3	14.1	2.20e-06	0	43	102	1048576	18	5092
2026-01-04 23:45:29.81	32.03	23.19	-29.1	-31.7	14.4	7.00e-07	0	43	102	1048576	18	4887
2026-01-04 23:45:32.83	32.36	23.60	-29.0	-31.5	14.5	0.00e+00	0	43	102	1048576	18	4817
2026-01-04 23:45:35.86	32.69	24.03	-29.1	-31.7	14.4	0.00e+00	0	43	102	1048576	18	4886
2026-01-04 23:45:38.88	33.03	24.45	-29.3	-32.4	14.0	3.00e-06	0	43	102	1048576	18	5122
2026-01-04 23:45:41.90	33.38	24.89	-29.7	-32.9	13.3	1.22e-05	0	43	102	1048576	19	5189
2026-01-04 23:45:44.92	33.74	25.33	-30.0	-33.7	12.7	3.55e-04	0	43	102	1048576	19	5500
2026-01-04 23:45:47.95	34.10	25.77	-29.7	-33.0	13.3	1.67e-05	0	43	102	1048576	19	5236
2026-01-04 23:45:50.97	34.48	26.23	-29.9	-33.5	13.0	2.59e-05	0	43	102	1048576	19	5446
2026-01-04 23:45:53.99	34.87	26.69	-30.1	-33.5	12.6	1.20e-04	0	43	102	1048576	20	5348
2026-01-04 23:45:57.01	35.27	27.15	-30.1	-33.5	12.7	5.56e-05	0	43	102	1048576	20	5321
2026-01-04 23:46:00.03	35.68	27.62	-30.0	-33.1	12.9	3.58e-05	0	43	102	1048576	20	5181
2026-01-04 23:46:03.05	36.11	28.10	-29.9	-33.5	13.1	2.72e-04	0	43	102	1048576	19	5419
2026-01-04 23:46:06.07	36.54	28.59	-30.2	-33.8	12.5	3.12e-04	0	43	102	1048576	20	5460
2026-01-04 23:46:09.09	36.99	29.08	-30.5	-34.2	11.9	4.72e-04	0	43	102	1048576	21	5493
2026-01-04 23:46:12.10	37.45	29.58	-30.7	-34.8	11.5	8.96e-04	0	43	102	1048576	21	5768
2026-01-04 23:46:15.12	37.93	30.08	-30.8	-35.2	11.2	1.50e-03	0	43	102	1048576	21	5937
2026-01-04 23:46:18.13	38.42	30.60	-31.0	-35.6	10.9	2.18e-03	0	43	102	1048576	21	6143
2026-01-04 23:46:21.15	38.92	31.12	-31.0	-35.3	10.8	2.49e-03	0	43	102	1048576	22	5891
2026-01-04 23:46:24.17	39.45	31.64	-31.0	-35.1	10.9	2.83e-03	0	43	102	1048576	22	5791
2026-01-04 23:46:27.19	39.99	32.18	-31.1	-35.5	10.7	3.23e-03	0	43	102	1048576	22	5982
2026-01-04 23:46:30.22	40.55	32.72	-31.1	-35.5	10.7	2.10e-03	0	43	102	1048576	22	5951
2026-01-04 23:46:33.24	41.13	33.27	-30.8	-34.6	11.4	1.24e-03	0	43	102	1048576	22	5562
2026-01-04 23:46:36.26	41.72	33.82	-30.7	-34.2	11.7	4.87e-04	0	43	102	1048576	22	5358
2026-01-04 23:46:39.28	42.34	34.38	-30.6	-33.9	11.9	3.07e-04	0	43	102	1048576	22	5240
2026-01-04 23:46:42.31	42.98	34.96	-30.6	-33.9	11.9	5.41e-04	0	43	102	1048576	22	5250
2026-01-04 23:46:45.33	43.64	35.53	-30.2	-33.2	12.7	2.55e-04	0	43	102	1048576	21	5062
2026-01-04 23:46:48.35	44.32	36.11	-30.0	-33.2	13.1	5.18e-05	0	43	102	1048576	20	5168
2026-01-04 23:46:51.37	45.03	36.70	-29.9	-32.7	13.4	2.13e-05	0	43	102	1048576	20	5008
2026-01-04 23:46:54.39	45.76	37.29	-30.1	-33.3	13.0	2.28e-05	0	43	102	1048576	20	5233
2026-01-04 23:46:57.42	46.53	37.89	-29.7	-32.2	13.7	4.04e-05	0	43	102	1048576	20	4799
2026-01-04 23:47:00.43	47.31	38.49	-29.4	-31.6	14.2	5.87e-05	0	43	102	1048576	20	4595
2026-01-04 23:47:03.45	48.13	39.10	-29.2	-31.3	14.7	3.09e-04	0	43	102	1048576	19	4610
2026-01-04 23:47:06.46	48.98	39.71	-29.2	-32.0	14.6	2.86e-04	0	44	102	1048576	18	4946
2026-01-04 23:47:09.48	49.86	40.33	-29.3	-32.1	14.6	0.00e+00	0	43	102	1048576	18	4987
2026-01-04 23:47:12.51	50.78	40.95	-29.4	-32.3	14.4	0.00e+00	0	43	102	1048576	18	5056
2026-01-04 23:47:15.53	51.73	41.57	-29.6	-32.3	14.1	2.20e-06	0	43	102	1048576	19	4952
2026-01-04 23:47:18.55	52.71	42.20	-29.6	-32.5	14.0	1.50e-06	0	43	102	1048576	19	5012
2026-01-04 23:47:21.56	53.73	42.82	-29.9	-33.1	13.7	6.80e-06	0	43	102	1048576	19	5239
2026-01-04 23:47:24.58	54.80	43.44	-30.0	-33.1	13.3	2.13e-05	0	43	102	1048576	20	5140
2026-01-04 23:47:27.60	55.91	44.07	-29.9	-32.8	13.5	1.22e-05	0	43	102	1048576	20	5018
2026-01-04 23:47:30.62	57.06	44.69	-30.4	-34.1	12.6	5.03e-05	0	43	102	1048576	20	5546
2026-01-04 23:47:33.63	58.25	45.31	-30.8	-34.7	11.9	5.26e-04	0	43	102	1048576	21	5688
2026-01-04 23:47:36.65	59.49	45.92	-30.8	-34.7	11.9	4.03e-04	0	43	102	1048576	21	5660
2026-01-04 23:47:39.68	60.79	46.53	-31.4	-36.2	10.5	2.99e-03	0	44	102	1048576	22	6288
2026-01-04 23:47:42.70	62.13	47.13	-30.9	-34.5	11.8	5.38e-04	0	43	102	1048576	22	5443
2026-01-04 23:47:45.72	63.53	47.72	-30.8	-34.1	12.0	3.03e-04	0	43	102	1048576	22	5303
2026-01-04 23:47:48.73	64.97	48.30	-30.8	-34.4	11.9	4.81e-04	0	43	102	1048576	22	5431
2026-01-04 23:47:51.75	66.47	48.87	-30.7	-34.4	12.1	4.63e-04	0	43	102	1048576	21	5552
2026-01-04 23:47:54.78	68.03	49.43	-30.6	-34.1	12.3	1.88e-04	0	43	102	1048576	21	5424
2026-01-04 23:47:57.80	69.65	49.97	-30.5	-34.0	12.4	1.52e-04	0	44	102	1048576	21	5357
2026-01-04 23:48:00.82	71.32	50.49	-30.5	-34.0	12.5	2.16e-04	0	43	102	1048576	21	5345
2026-01-04 23:48:03.83	73.04	50.99	-30.0	-33.0	13.5	2.82e-05	0	43	102	1048576	20	5071
2026-01-04 23:48:06.85	74.83	51.47	-30.0	-32.9	13.5	9.10e-06	0	43	102	1048576	20	5041
2026-01-04 23:48:09.86	76.66	51.92	-29.9	-32.2	13.7	2.05e-05	0	43	102	1048576	21	4703
2026-01-04 23:48:12.89	78.56	52.35	-29.1	-31.0	15.2	0.00e+00	0	43	102	1048576	19	4480
2026-01-04 23:48:15.91	80.51	52.75	-29.7	-32.5	14.1	1.06e-05	0	43	102	1048576	19	4992
2026-01-04 23:48:18.93	82.51	53.11	-28.8	-30.4	15.6	6.40e-05	0	43	102	1048576	19	4298
2026-01-04 23:48:21.95	84.56	53.44	-29.1	-31.5	15.2	4.50e-05	0	43	102	1048576	18	4749
2026-01-04 23:48:24.97	86.66	53.74	-29.3	-32.2	14.8	3.70e-04	0	43	102	1048576	18	4981
2026-01-04 23:48:28.00	88.80	54.00	-29.7	-32.7	14.1	0.00e+00	0	43	102	1048576	19	5074
2026-01-04 23:48:31.02	90.97	54.22	-29.7	-32.5	14.2	0.00e+00	0	43	102	1048576	19	4987
2026-01-04 23:48:34.03	93.16	54.40	-29.7	-32.5	14.3	2.20e-06	0	43	102	1048576	19	4998
2026-01-04 23:48:37.05	95.39	54.54	-29.6	-31.8	14.3	2.17e-04	0	43	102	1048576	20	4654
2026-01-04 23:48:40.08	97.64	54.64	-30.1	-33.1	13.5	1.83e-05	0	44	102	1048576	20	5096
2026-01-04 23:48:43.10	99.89	54.69	-29.6	-32.3	14.4	1.87e-04	0	43	102	1048576	19	4933
2026-01-04 23:48:46.12	102.15	54.70	-29.7	-32.4	14.3	2.20e-06	0	43	102	1048576	19	4966
2026-01-04 23:48:49.14	104.41	54.66	-29.0	-30.8	15.3	0.00e+00	0	43	102	1048576	19	4438
2026-01-04 23:48:52.16	106.66	54.59	-28.6	-30.3	16.0	0.00e+00	0	43	102	1048576	18	4364
2026-01-04 23:48:55.17	108.89	54.47	-28.4	-30.4	16.1	0.00e+00	0	43	102	1048576	17	4510
2026-01-04 23:48:58.19	111.10	54.30	-29.2	-31.7	15.0	0.00e+00	0	43	102	1048576	18	4817
2026-01-04 23:49:01.22	113.30	54.10	-29.5	-32.1	14.5	0.00e+00	0	43	102	1048576	19	4829
2026-01-04 23:49:04.24	115.45	53.85	-29.3	-31.4	15.0	0.00e+00	0	43	102	1048576	19	4611
2026-01-04 23:49:07.26	117.56	53.57	-29.2	-31.3	15.1	0.00e+00	0	43	102	1048576	19	4565
2026-01-04 23:49:10.27	119.63	53.25	-29.0	-30.8	15.3	0.00e+00	0	43	102	1048576	19	4430
2026-01-04 23:49:13.30	121.66	52.90	-28.6	-30.4	16.0	0.00e+00	0	44	102	1048576	18	4397
2026-01-04 23:49:16.30	123.62	52.52	-29.1	-31.4	15.3	0.00e+00	0	43	102	1048576	18	4735
2026-01-04 23:49:19.33	125.55	52.10	-28.7	-30.6	15.7	0.00e+00	0	43	102	1048576	18	4480
2026-01-04 23:49:22.35	127.41	51.66	-29.4	-32.2	14.7	7.00e-07	0	43	102	1048576	18	5000
2026-01-04 23:49:25.37	129.22	51.19	-29.9	-33.2	13.9	0.00e+00	0	44	102	1048576	19	5223
2026-01-04 23:49:28.40	130.99	50.70	-30.6	-34.2	12.5	2.55e-04	0	43	102	1048576	21	5407
2026-01-04 23:49:31.42	132.68	50.18	-32.8	-41.1	5.9	1.78e-01	0	44	102	1048576	25	9292
2026-01-04 23:49:34.43	134.32	49.65	-31.9	-36.2	9.6	1.45e-02	0	43	102	1048576	25	5944
2026-01-04 23:49:37.45	135.90	49.10	-32.8	-40.9	6.0	3.45e-01	0	44	102	1048576	25	9103
2026-01-04 23:49:40.47	137.43	48.53	-31.9	-37.4	9.4	1.75e-02	0	43	102	1048576	23	6756
2026-01-04 23:49:43.48	138.90	47.96	-32.3	-37.8	8.2	8.63e-02	0	44	102	1048576	25	6845
2026-01-04 23:49:46.50	140.32	47.37	-31.2	-35.5	11.2	1.45e-03	0	43	102	1048576	22	5911
2026-01-04 23:49:49.52	141.69	46.77	-32.1	-38.0	8.5	6.20e-02	0	44	102	1048576	24	7031
2026-01-04 23:49:52.53	143.00	46.16	-30.1	-32.7	13.4	4.11e-05	0	44	102	1048576	21	4848
2026-01-04 23:49:55.55	144.26	45.54	-31.7	-36.7	10.0	5.29e-03	0	44	102	1048576	23	6389
2026-01-04 23:49:58.57	145.48	44.92	-30.2	-33.0	13.1	5.03e-05	0	43	102	1048576	21	4970
2026-01-04 23:50:01.59	146.65	44.30	-31.5	-36.1	10.3	2.04e-03	0	44	102	1048576	23	6111
2026-01-04 23:50:04.61	147.78	43.68	-31.0	-34.3	11.6	1.21e-03	0	44	102	1048576	23	5270
2026-01-04 23:50:07.63	148.87	43.05	-32.1	-37.8	8.6	1.88e-02	0	44	102	1048576	24	6923
2026-01-04 23:50:10.65	149.91	42.42	-32.2	-38.1	8.4	5.07e-02	0	44	102	1048576	24	7129
2026-01-04 23:50:13.67	150.91	41.79	-32.2	-38.0	8.4	5.75e-02	0	44	102	1048576	24	7091
2026-01-04 23:50:16.70	151.88	41.17	-32.2	-38.3	8.2	6.52e-02	0	44	102	1048576	24	7252
2026-01-04 23:50:19.72	152.82	40.54	-32.2	-38.2	8.3	5.96e-02	0	43	102	1048576	24	7177
2026-01-04 23:50:22.74	153.71	39.92	-32.0	-37.6	8.6	3.89e-02	0	44	102	1048576	24	6842
2026-01-04 23:50:25.76	154.58	39.30	-32.5	-39.6	7.2	7.53e-02	0	44	102	1048576	24	8178
2026-01-04 23:50:28.80	155.41	38.69	-31.3	-35.0	10.7	1.65e-02	0	44	102	1048576	24	5470
2026-01-04 23:50:31.81	156.21	38.08	-31.4	-36.2	10.5	8.46e-04	0	43	102	1048576	22	6259
2026-01-04 23:50:34.82	156.98	37.48	-31.2	-35.2	10.9	7.76e-03	0	44	102	1048576	23	5680
2026-01-04 23:50:37.83	157.72	36.88	-31.1	-35.3	11.2	7.80e-04	0	43	102	1048576	22	5849
2026-01-04 23:50:40.85	158.44	36.29	-32.1	-38.2	8.1	4.48e-02	0	44	102	1048576	24	7208
2026-01-04 23:50:43.87	159.14	35.70	-31.1	-35.4	11.0	3.38e-03	0	43	102	1048576	22	5876
2026-01-04 23:50:46.90	159.81	35.12	-30.4	-34.1	12.6	8.54e-04	0	44	102	1048576	20	5516
2026-01-04 23:50:49.92	160.46	34.55	-31.6	-36.5	9.9	9.02e-03	0	43	102	1048576	23	6308
2026-01-04 23:50:52.92	161.08	33.98	-31.6	-36.6	9.8	1.66e-02	0	43	102	1048576	23	6362
2026-01-04 23:50:55.94	161.68	33.42	-30.3	-34.0	12.7	3.66e-04	0	44	102	1048576	20	5464
2026-01-04 23:50:58.95	162.27	32.87	-30.8	-34.8	11.8	2.20e-04	0	44	102	1048576	21	5716
2026-01-04 23:51:01.97	162.83	32.33	-31.3	-35.9	10.6	2.38e-03	0	43	102	1048576	22	6148
2026-01-04 23:51:04.99	163.38	31.79	-31.4	-36.4	10.2	7.48e-03	0	44	102	1048576	22	6395
2026-01-04 23:51:08.02	163.91	31.25	-31.5	-36.3	9.9	1.04e-02	0	43	102	1048576	23	6236
2026-01-04 23:51:11.04	164.43	30.73	-30.3	-35.0	10.5	4.73e-03	0	44	102	1048576	22	6174
2026-01-04 23:51:14.07	164.93	30.20	-31.4	-36.5	10.1	6.82e-03	0	44	102	1048576	22	6472
2026-01-04 23:51:17.09	165.41	29.69	-31.6	-36.7	9.6	1.71e-02	0	43	102	1048576	23	6470
2026-01-04 23:51:20.12	165.88	29.19	-31.4	-36.3	10.1	1.05e-02	0	43	102	1048576	22	6395
2026-01-04 23:51:23.14	166.33	28.69	-30.9	-35.3	11.3	1.41e-03	0	43	102	1048576	21	5963
2026-01-04 23:51:26.16	166.77	28.20	-31.1	-35.3	10.9	2.55e-03	0	44	102	1048576	22	5878
2026-01-04 23:51:29.18	167.20	27.71	-31.0	-35.6	11.0	3.01e-03	0	43	102	1048576	21	6140
2026-01-04 23:51:32.20	167.62	27.24	-31.1	-35.6	10.7	5.91e-03	0	44	102	1048576	22	5993
2026-01-04 23:51:35.22	168.02	26.77	-31.1	-35.5	10.7	5.71e-03	0	44	102	1048576	22	5996
2026-01-04 23:51:38.24	168.41	26.30	-31.1	-35.4	10.8	3.08e-03	0	44	102	1048576	22	5926
2026-01-04 23:51:41.27	168.80	25.84	-30.7	-34.9	11.5	1.19e-03	0	44	102	1048576	21	5792
2026-01-04 23:51:44.29	169.17	25.39	-30.4	-34.3	12.2	4.61e-04	0	44	102	1048576	20	5634
2026-01-04 23:51:47.31	169.53	24.95	-30.2	-33.6	12.7	3.48e-04	0	44	102	1048576	20	5342
2026-01-04 23:51:50.33	169.88	24.51	-30.3	-34.1	12.3	3.75e-04	0	44	102	1048576	20	5562
2026-01-04 23:51:53.35	170.22	24.08	-30.6	-34.4	11.8	5.26e-04	0	43	102	1048576	21	5601
2026-01-04 23:51:56.37	170.56	23.65	-30.5	-34.7	11.7	4.89e-04	0	44	102	1048576	20	5813
2026-01-04 23:51:59.39	170.88	23.23	-30.4	-34.5	11.6	3.70e-04	0	44	102	1048576	20	5758
2026-01-04 23:52:02.41	171.20	22.82	-30.4	-34.3	12.1	1.55e-03	0	44	102	1048576	20	5673
2026-01-04 23:52:05.43	171.51	22.41	-29.9	-33.5	13.1	1.61e-04	0	43	102	1048576	19	5447
2026-01-04 23:52:08.45	171.81	22.01	-29.9	-33.4	13.1	1.73e-04	0	44	102	1048576	19	5405
2026-01-04 23:52:11.47	172.10	21.61	-29.9	-33.1	12.9	3.43e-05	0	44	102	1048576	20	5180
2026-01-04 23:52:14.50	172.39	21.22	-30.0	-33.3	12.8	4.57e-05	0	44	102	1048576	20	5271
2026-01-04 23:52:17.51	172.67	20.83	-29.7	-33.4	13.0	1.48e-03	0	44	102	1048576	19	5477
2026-01-04 23:52:20.53	172.94	20.45	-29.6	-33.4	12.9	1.35e-03	0	44	102	1048576	19	5542
2026-01-04 23:52:23.55	173.21	20.08	-29.8	-33.1	13.3	5.29e-04	0	44	102	1048576	19	5293
2026-01-04 23:52:26.57	173.47	19.70	-29.5	-32.7	13.4	3.57e-04	0	43	102	1048576	19	5191
2026-01-04 23:52:29.59	173.72	19.34	-29.2	-32.4	13.9	3.91e-04	0	43	102	1048576	18	5209
2026-01-04 23:52:32.60	173.97	18.98	-28.8	-32.2	13.7	3.04e-04	0	43	102	1048576	18	5302
2026-01-04 23:52:35.61	174.21	18.62	-28.7	-32.8	13.4	9.10e-06	0	44	102	1048576	17	5785
2026-01-04 23:52:38.63	174.45	18.27	-29.5	-32.6	13.5	5.22e-04	0	43	102	1048576	19	5104
2026-01-04 23:52:41.65	174.68	17.92	-29.5	-32.8	13.3	5.65e-04	0	44	102	1048576	19	5226
2026-01-04 23:52:44.68	174.91	17.58	-29.6	-32.9	13.2	8.27e-04	0	44	102	1048576	19	5246
2026-01-04 23:52:47.70	175.14	17.24	-29.5	-32.4	13.5	8.56e-04	0	44	102	1048576	19	5046
2026-01-04 23:52:50.72	175.35	16.91	-29.5	-32.5	13.5	6.33e-04	0	44	102	1048576	19	5105
2026-01-04 23:52:53.73	175.57	16.58	-29.6	-32.9	13.2	2.13e-05	0	43	102	1048576	19	5256
2026-01-04 23:52:56.75	175.78	16.25	-29.7	-33.0	13.1	2.59e-05	0	44	102	1048576	19	5303
2026-01-04 23:52:59.76	175.98	15.93	-29.9	-33.6	12.7	5.26e-05	0	44	102	1048576	19	5527
2026-01-04 23:53:02.78	176.18	15.61	-29.9	-33.7	12.6	9.38e-05	0	44	102	1048576	19	5570
2026-01-04 23:53:05.78	176.38	15.30	-29.9	-33.8	12.6	9.00e-05	0	43	102	1048576	19	5594
2026-01-04 23:53:08.80	176.57	14.99	-30.0	-33.4	12.4	6.94e-04	0	44	102	1048576	20	5338
2026-01-04 23:53:11.82	176.76	14.68	-30.0	-33.6	12.3	2.10e-04	0	44	102	1048576	20	5416
2026-01-04 23:53:14.84	176.95	14.38	-30.0	-33.7	12.2	2.77e-04	0	44	102	1048576	20	5455
2026-01-04 23:53:17.86	177.13	14.08	-30.1	-33.7	12.1	2.93e-04	0	43	102	1048576	20	5488
2026-01-04 23:53:20.88	177.31	13.78	-30.0	-33.7	12.2	2.36e-04	0	44	102	1048576	20	5456
2026-01-04 23:53:23.90	177.48	13.49	-29.9	-33.2	12.5	1.67e-04	0	43	102	1048576	20	5273
2026-01-04 23:53:26.92	177.66	13.20	-30.0	-33.9	12.4	1.17e-04	0	43	102	1048576	19	5636
2026-01-04 23:53:29.94	177.83	12.91	-29.9	-33.7	12.5	1.17e-04	0	44	102	1048576	19	5592
2026-01-04 23:53:32.96	177.99	12.63	-30.0	-33.5	12.2	2.20e-04	0	44	102	1048576	20	5390
2026-01-04 23:53:35.98	178.16	12.35	-30.0	-33.7	12.0	3.29e-04	0	43	102	1048576	20	5469
2026-01-04 23:53:38.99	178.32	12.07	-30.1	-34.0	11.8	5.27e-04	0	44	102	1048576	20	5605
2026-01-04 23:53:42.02	178.47	11.79	-30.2	-34.1	11.7	6.36e-04	0	44	102	1048576	20	5677
2026-01-04 23:53:45.03	178.63	11.52	-30.2	-34.2	11.6	5.52e-04	0	44	102	1048576	20	5715
2026-01-04 23:53:48.06	178.78	11.25	-30.2	-34.2	11.5	7.54e-04	0	43	102	1048576	20	5735
2026-01-04 23:53:51.08	178.93	10.99	-30.4	-34.8	11.1	1.62e-03	0	44	102	1048576	20	6013
2026-01-04 23:53:54.10	179.08	10.72	-30.4	-34.5	10.9	1.87e-03	0	44	102	1048576	21	5762
2026-01-04 23:53:57.12	179.22	10.46	-30.5	-34.9	10.6	2.95e-03	0	44	102	1048576	21	5950
2026-01-04 23:54:00.13	179.36	10.21	-30.5	-34.9	10.6	2.93e-03	0	44	102	1048576	21	5972
2026-01-04 23:54:03.16	179.51	9.95	-30.4	-34.9	10.9	2.15e-03	0	44	102	1048576	20	6092
2026-01-04 23:54:06.18	179.64	9.70	-30.6	-35.3	10.2	6.12e-03	0	43	102	1048576	21	6163
2026-01-04 23:54:09.19	179.78	9.45	-30.3	-34.8	10.9	2.86e-03	0	43	102	1048576	20	6032
2026-01-04 23:54:12.22	179.91	9.20	-30.3	-34.6	11.0	2.43e-03	0	44	102	1048576	20	5950
2026-01-04 23:54:15.24	180.04	8.95	-30.3	-34.8	10.9	2.77e-03	0	44	102	1048576	20	6045
2026-01-04 23:54:18.26	180.17	8.71	-30.2	-34.5	11.1	2.54e-03	0	44	102	1048576	20	5902
2026-01-04 23:54:21.27	180.30	8.47	-30.4	-35.0	10.7	2.58e-03	0	43	102	1048576	20	6166
2026-01-04 23:54:24.28	180.43	8.23	-30.1	-34.3	11.1	2.71e-03	0	43	102	1048576	20	5802
2026-01-04 23:54:27.31	180.55	7.99	-30.2	-34.5	11.0	2.62e-03	0	44	102	1048576	20	5906
2026-01-04 23:54:30.34	180.67	7.75	-30.2	-34.7	10.8	3.19e-03	0	43	102	1048576	20	6025
2026-01-04 23:54:33.35	180.79	7.52	-30.2	-34.8	10.6	5.38e-03	0	43	102	1048576	20	6083
2026-01-04 23:54:36.37	180.91	7.29	-30.3	-34.9	10.5	5.34e-03	0	44	102	1048576	20	6158
2026-01-04 23:54:39.39	181.03	7.06	-32.2	-44.0	4.2	1.36e-02	0	43	102	1048576	24	14016

#Closed at: 2026-01-04 23:54:42
#Recorded file [1 MB]: D:/data/31010_260105_024251.dat