passes_logs/2026/01/04/R2M6_AANII_01/R2M6_AANII_01__20260104_001753_AQUA_rec.log

#Pass ID: 20260104_001753_AQUA
#Satellite: AQUA
#Configuration: AQUA
#almurnet v.1.7.20240730
#Start time: 2026-01-04 00:17:54

#Version: 2.2.20231116
#Station: R2M6_AANII_01
#Location: 30.233357 lon 59.946436 lat
#TLE: 1 27424U 02022A   25365.92641127  .00002078  00000+0  42628-3 0  9999
#TLE: 2 27424  98.4058 327.1196 0001962  94.7781 340.6230 14.61783896258835

#Time	Az	El	Level	Level2	SNR	BER	BlckErr	Temp	State	Recorded	gain1	gain2
2026-01-04 00:17:54.42	35.46	7.08	-31.3	-37.7	5.2	7.10e-01	0	41	0	0	23	7478
2026-01-04 00:17:56.43	35.71	7.21	-32.0	-39.4	12.3	6.06e-01	0	41	0	0	24	8461
2026-01-04 00:17:58.44	35.96	7.33	-31.9	-38.6	12.6	6.04e-01	0	41	0	3670016	25	7718
2026-01-04 00:18:00.45	36.22	7.45	-31.6	-37.4	14.0	6.02e-01	0	41	0	7340032	24	7000
2026-01-04 00:18:02.47	36.47	7.57	-31.3	-36.5	15.1	6.04e-01	0	41	0	11010048	23	6557
2026-01-04 00:18:04.48	36.73	7.69	-31.0	-35.7	15.7	6.02e-01	0	41	0	14680064	23	6172
2026-01-04 00:18:06.49	36.99	7.82	-31.0	-35.6	15.8	6.01e-01	0	41	0	18874368	23	6094
2026-01-04 00:18:08.51	37.26	7.94	-31.1	-36.1	15.4	6.03e-01	0	41	0	22544384	23	6364
2026-01-04 00:18:10.51	37.52	8.06	-30.7	-34.4	16.7	5.99e-01	0	41	0	26214400	23	5546
2026-01-04 00:18:12.52	37.79	8.18	-30.6	-34.5	17.1	5.99e-01	0	41	0	29884416	22	5640
2026-01-04 00:18:14.54	38.06	8.31	-30.7	-34.8	16.9	6.04e-01	0	41	0	33554432	22	5788
2026-01-04 00:18:16.55	38.34	8.43	-30.7	-34.8	16.9	6.02e-01	0	41	0	37748736	22	5804
2026-01-04 00:18:18.56	38.61	8.56	-30.6	-34.5	17.1	6.04e-01	0	41	0	41418752	22	5654
2026-01-04 00:18:20.57	38.89	8.68	-30.5	-34.4	17.2	6.03e-01	0	41	0	45088768	22	5591
2026-01-04 00:18:22.58	39.17	8.80	-30.6	-34.6	17.1	6.01e-01	0	41	0	48758784	22	5674
2026-01-04 00:18:24.58	39.45	8.93	-30.5	-34.2	17.4	6.01e-01	0	41	0	52428800	22	5507
2026-01-04 00:18:26.60	39.74	9.05	-30.4	-33.8	17.7	6.02e-01	0	41	0	56623104	22	5344
2026-01-04 00:18:28.61	40.02	9.17	-30.3	-33.6	17.8	6.03e-01	0	42	0	60293120	22	5266
2026-01-04 00:18:30.62	40.31	9.30	-30.4	-34.3	17.7	6.03e-01	0	41	0	63963136	21	5635
2026-01-04 00:18:32.62	40.61	9.42	-30.4	-34.4	17.6	6.05e-01	0	42	0	67633152	21	5685
2026-01-04 00:18:34.64	40.90	9.55	-30.3	-34.1	17.8	6.01e-01	0	42	0	71303168	21	5560
2026-01-04 00:18:36.65	41.20	9.67	-30.4	-34.2	17.8	6.01e-01	0	42	0	74973184	21	5599
2026-01-04 00:18:38.67	41.50	9.80	-30.3	-34.1	17.9	6.01e-01	0	42	0	79167488	21	5561
2026-01-04 00:18:40.68	41.81	9.92	-30.3	-33.9	18.0	6.03e-01	0	42	0	82837504	21	5491
2026-01-04 00:18:42.69	42.11	10.05	-30.3	-34.1	17.9	5.99e-01	0	42	0	86507520	21	5550
2026-01-04 00:18:44.71	42.42	10.17	-30.2	-33.8	18.0	6.04e-01	0	42	0	90177536	21	5443
2026-01-04 00:18:46.73	42.74	10.30	-30.3	-34.1	17.9	6.01e-01	0	42	0	94371840	21	5535
2026-01-04 00:18:48.74	43.05	10.42	-30.3	-33.9	18.0	6.00e-01	0	42	0	98041856	21	5473
2026-01-04 00:18:50.75	43.37	10.55	-30.4	-34.4	17.8	6.02e-01	0	42	0	101711872	21	5655
2026-01-04 00:18:52.75	43.69	10.67	-30.4	-34.1	17.9	6.02e-01	0	42	0	105381888	21	5537
2026-01-04 00:18:54.75	44.01	10.79	-30.3	-33.8	18.1	6.00e-01	0	42	0	109051904	21	5410
2026-01-04 00:18:56.76	44.34	10.92	-30.2	-33.7	18.2	6.02e-01	0	42	0	112721920	21	5367
2026-01-04 00:18:58.76	44.66	11.04	-30.2	-33.5	18.4	6.01e-01	0	42	0	116391936	21	5301
2026-01-04 00:19:00.76	44.99	11.17	-30.2	-33.7	18.2	6.03e-01	0	42	0	120586240	21	5391
2026-01-04 00:19:02.77	45.33	11.29	-30.3	-33.9	18.1	6.00e-01	0	42	0	124256256	21	5452
2026-01-04 00:19:04.78	45.67	11.41	-30.1	-33.4	18.4	6.01e-01	0	42	0	127926272	21	5248
2026-01-04 00:19:06.79	46.01	11.54	-30.1	-33.4	18.4	6.01e-01	0	42	0	131596288	21	5262
2026-01-04 00:19:08.80	46.35	11.66	-30.1	-33.3	18.5	6.06e-01	0	42	0	135266304	21	5218
2026-01-04 00:19:10.80	46.70	11.78	-30.1	-33.3	18.5	6.01e-01	0	42	0	139460608	21	5223
2026-01-04 00:19:12.81	47.05	11.91	-30.1	-33.3	18.6	6.03e-01	0	42	0	143130624	21	5193
2026-01-04 00:19:14.82	47.40	12.03	-30.2	-33.6	18.4	6.03e-01	0	42	0	146800640	21	5310
2026-01-04 00:19:16.82	47.75	12.15	-30.2	-33.7	18.3	6.03e-01	0	42	0	150470656	21	5341
2026-01-04 00:19:18.84	48.11	12.28	-30.1	-33.4	18.5	6.01e-01	0	42	0	154140672	21	5238
2026-01-04 00:19:20.84	48.47	12.40	-30.2	-33.6	18.4	6.01e-01	0	42	0	158334976	21	5313
2026-01-04 00:19:22.85	48.84	12.52	-30.0	-33.6	18.7	6.03e-01	0	42	0	162004992	20	5448
2026-01-04 00:19:24.86	49.21	12.64	-30.3	-33.7	18.4	6.00e-01	0	42	0	165675008	21	5365
2026-01-04 00:19:26.87	49.58	12.76	-30.2	-33.5	18.6	6.00e-01	0	42	0	169345024	21	5264
2026-01-04 00:19:28.88	49.96	12.89	-30.2	-33.6	18.4	6.02e-01	0	42	0	173015040	21	5315
2026-01-04 00:19:30.89	50.33	13.01	-30.2	-33.5	18.5	6.04e-01	0	43	0	176685056	21	5272
2026-01-04 00:19:32.90	50.72	13.13	-30.1	-33.1	18.8	6.00e-01	0	42	0	180879360	21	5132
2026-01-04 00:19:34.90	51.10	13.25	-30.1	-33.2	18.8	5.99e-01	0	42	0	184549376	21	5140
2026-01-04 00:19:36.91	51.49	13.36	-30.1	-33.7	18.8	6.00e-01	0	42	0	188219392	20	5477
2026-01-04 00:19:38.92	51.88	13.48	-30.0	-32.9	19.0	6.03e-01	0	42	0	191889408	21	5034
2026-01-04 00:19:40.92	52.27	13.60	-30.1	-33.2	18.8	6.02e-01	0	42	0	195559424	21	5136
2026-01-04 00:19:42.93	52.67	13.72	-30.3	-33.7	18.5	6.00e-01	0	42	0	199753728	21	5339
2026-01-04 00:19:44.93	53.07	13.84	-30.2	-33.5	18.6	6.03e-01	0	42	0	203423744	21	5255
2026-01-04 00:19:46.95	53.48	13.95	-30.4	-33.9	18.4	6.00e-01	0	42	0	207093760	21	5432
2026-01-04 00:19:48.95	53.88	14.07	-30.4	-34.1	18.2	6.04e-01	0	42	0	210763776	21	5500
2026-01-04 00:19:50.97	54.30	14.18	-30.1	-33.3	18.8	6.03e-01	0	42	0	214433792	21	5185
2026-01-04 00:19:52.98	54.71	14.30	-29.9	-33.3	19.1	6.04e-01	0	42	0	218103808	20	5288
2026-01-04 00:19:54.99	55.13	14.41	-30.1	-33.6	18.5	6.02e-01	0	42	0	222298112	20	5428
2026-01-04 00:19:57.00	55.55	14.53	-29.9	-33.2	19.0	6.02e-01	0	43	0	225968128	20	5276
2026-01-04 00:19:59.01	55.98	14.64	-30.2	-33.4	18.7	6.03e-01	0	43	0	229638144	21	5222
2026-01-04 00:20:01.02	56.40	14.75	-30.4	-34.0	18.4	6.02e-01	0	42	0	233308160	21	5437
2026-01-04 00:20:03.03	56.84	14.86	-30.5	-34.3	18.2	6.02e-01	0	43	0	236978176	21	5554
2026-01-04 00:20:05.04	57.27	14.97	-30.4	-33.9	18.4	6.02e-01	0	43	0	241172480	21	5427
2026-01-04 00:20:07.05	57.71	15.08	-30.5	-34.2	18.2	6.00e-01	0	42	0	244842496	21	5536
2026-01-04 00:20:09.07	58.15	15.19	-30.1	-33.2	18.8	6.05e-01	0	43	0	248512512	21	5122
2026-01-04 00:20:11.07	58.60	15.29	-29.9	-33.1	19.2	5.99e-01	0	43	0	252182528	20	5219
2026-01-04 00:20:13.09	59.05	15.40	-29.9	-33.2	19.2	6.03e-01	0	43	0	255852544	20	5261
2026-01-04 00:20:15.10	59.50	15.50	-29.9	-33.2	19.2	5.98e-01	0	43	0	260046848	20	5257
2026-01-04 00:20:17.11	59.95	15.61	-29.9	-33.3	19.2	6.02e-01	0	43	0	263716864	20	5266
2026-01-04 00:20:19.12	60.41	15.71	-29.8	-33.0	19.3	6.05e-01	0	43	0	267386880	20	5159
2026-01-04 00:20:21.13	60.87	15.81	-29.8	-32.8	19.4	6.00e-01	0	42	0	271056896	20	5102
2026-01-04 00:20:23.13	61.34	15.91	-29.8	-33.0	19.3	6.05e-01	0	42	0	274726912	20	5160
2026-01-04 00:20:25.15	61.81	16.01	-30.1	-33.5	19.0	6.02e-01	0	43	0	278396928	20	5362
2026-01-04 00:20:27.16	62.28	16.11	-30.0	-33.4	19.1	6.01e-01	0	42	0	282591232	20	5325
2026-01-04 00:20:29.18	62.76	16.20	-30.3	-33.6	18.7	6.01e-01	0	43	0	286261248	21	5290
2026-01-04 00:20:31.19	63.23	16.30	-30.0	-33.4	19.1	6.01e-01	0	43	0	289931264	20	5320
2026-01-04 00:20:33.21	63.72	16.39	-30.4	-33.9	18.5	6.02e-01	0	43	0	293601280	21	5381
2026-01-04 00:20:35.22	64.20	16.48	-30.4	-33.3	18.6	6.03e-01	0	43	0	297271296	22	5050
2026-01-04 00:20:37.22	64.69	16.57	-30.3	-33.6	18.7	6.02e-01	0	43	0	301465600	21	5284
2026-01-04 00:20:39.24	65.18	16.66	-30.4	-34.0	18.4	6.03e-01	0	43	0	305135616	21	5414
2026-01-04 00:20:41.24	65.67	16.75	-30.0	-32.7	19.2	6.02e-01	0	43	0	308805632	21	4958
2026-01-04 00:20:43.24	66.16	16.84	-30.1	-33.1	18.9	6.00e-01	0	43	0	312475648	21	5095
2026-01-04 00:20:45.26	66.66	16.92	-29.9	-32.7	19.2	6.04e-01	0	43	0	316145664	21	4938
2026-01-04 00:20:47.27	67.17	17.00	-30.1	-33.2	19.0	6.01e-01	0	43	0	320339968	21	5118
2026-01-04 00:20:49.27	67.67	17.08	-30.4	-33.8	18.6	6.05e-01	0	43	0	324009984	21	5360
2026-01-04 00:20:51.29	68.18	17.16	-30.0	-32.8	19.3	6.03e-01	0	43	0	327680000	21	4960
2026-01-04 00:20:53.30	68.69	17.24	-30.0	-32.8	19.2	6.03e-01	0	43	0	331350016	21	4991
2026-01-04 00:20:55.31	69.20	17.31	-30.0	-32.8	19.2	6.00e-01	0	43	0	335020032	21	4973
2026-01-04 00:20:57.32	69.72	17.39	-30.0	-33.4	19.1	6.01e-01	0	43	0	339214336	20	5323
2026-01-04 00:20:59.33	70.24	17.46	-30.0	-33.5	19.1	6.03e-01	0	43	0	342884352	20	5337
2026-01-04 00:21:01.34	70.76	17.53	-30.2	-33.3	18.9	6.04e-01	0	43	0	346554368	21	5157
2026-01-04 00:21:03.35	71.28	17.60	-30.0	-32.9	19.1	6.00e-01	0	43	0	350224384	21	5023
2026-01-04 00:21:05.36	71.81	17.66	-30.0	-33.5	19.1	6.02e-01	0	43	0	353894400	20	5339
2026-01-04 00:21:07.38	72.34	17.73	-30.6	-34.4	18.2	6.02e-01	0	43	0	358088704	21	5602
2026-01-04 00:21:09.38	72.87	17.79	-30.8	-34.4	17.9	6.01e-01	0	43	0	361758720	22	5486
2026-01-04 00:21:11.40	73.40	17.85	-30.5	-33.8	18.3	6.01e-01	0	43	0	365428736	22	5238
2026-01-04 00:21:13.41	73.94	17.90	-30.5	-33.8	18.3	6.00e-01	0	43	0	369098752	22	5228
2026-01-04 00:21:15.43	74.48	17.96	-30.2	-32.9	18.8	6.01e-01	0	43	0	372768768	22	4895
2026-01-04 00:21:17.44	75.02	18.01	-30.0	-32.2	19.3	6.04e-01	0	43	0	376963072	22	4669
2026-01-04 00:21:19.46	75.56	18.06	-30.0	-32.4	19.2	6.02e-01	0	43	0	380633088	22	4733
2026-01-04 00:21:21.47	76.10	18.11	-29.9	-32.6	19.3	6.01e-01	0	43	0	384303104	21	4913
2026-01-04 00:21:23.49	76.65	18.16	-30.0	-33.0	19.1	6.03e-01	0	43	0	387973120	21	5041
2026-01-04 00:21:25.51	77.20	18.20	-30.0	-32.7	19.3	6.04e-01	0	43	0	391643136	21	4955
2026-01-04 00:21:27.51	77.75	18.24	-30.3	-33.6	18.8	6.01e-01	0	43	0	395313152	21	5269
2026-01-04 00:21:29.53	78.30	18.28	-30.2	-33.3	18.9	5.99e-01	0	43	0	399507456	21	5174
2026-01-04 00:21:31.54	78.85	18.32	-30.3	-33.6	18.7	6.02e-01	0	43	0	403177472	21	5292
2026-01-04 00:21:33.55	79.40	18.35	-30.5	-34.3	18.3	6.03e-01	0	43	0	406847488	21	5561
2026-01-04 00:21:35.56	79.95	18.38	-30.3	-33.0	18.8	6.01e-01	0	43	0	410517504	22	4941
2026-01-04 00:21:37.56	80.51	18.41	-30.1	-33.2	19.0	6.04e-01	0	43	0	414187520	21	5130
2026-01-04 00:21:39.56	81.06	18.44	-30.3	-33.5	18.7	6.00e-01	0	43	0	418381824	21	5247
2026-01-04 00:21:41.57	81.62	18.46	-30.2	-33.5	18.8	6.04e-01	0	43	0	422051840	21	5222
2026-01-04 00:21:43.58	82.17	18.48	-30.3	-33.6	18.7	6.03e-01	0	43	0	425721856	21	5265
2026-01-04 00:21:45.60	82.74	18.50	-30.3	-33.5	18.7	6.02e-01	0	43	0	429391872	21	5249
2026-01-04 00:21:47.62	83.30	18.52	-30.1	-33.2	19.0	6.00e-01	0	43	0	433061888	21	5111
2026-01-04 00:21:49.63	83.86	18.53	-30.1	-33.2	18.9	6.03e-01	0	43	0	437256192	21	5124
2026-01-04 00:21:51.64	84.42	18.55	-30.2	-33.3	18.9	6.02e-01	0	43	0	440926208	21	5146
2026-01-04 00:21:53.65	84.98	18.55	-30.2	-33.4	18.8	6.02e-01	0	43	0	444596224	21	5192
2026-01-04 00:21:55.65	85.54	18.56	-30.3	-33.5	18.7	6.00e-01	0	43	0	448266240	21	5250
2026-01-04 00:21:57.65	86.10	18.56	-30.1	-33.2	18.9	6.02e-01	0	43	0	451936256	21	5118
2026-01-04 00:21:59.66	86.66	18.57	-30.1	-33.2	18.9	6.00e-01	0	43	0	455606272	21	5109
2026-01-04 00:22:01.66	87.22	18.56	-30.0	-32.9	19.1	6.04e-01	0	43	0	459800576	21	5000
2026-01-04 00:22:03.67	87.78	18.56	-30.1	-33.1	19.0	6.01e-01	0	43	0	463470592	21	5086
2026-01-04 00:22:05.69	88.34	18.55	-30.0	-32.9	19.1	6.03e-01	0	43	0	467140608	21	5018
2026-01-04 00:22:07.69	88.90	18.54	-30.0	-32.9	19.1	6.01e-01	0	43	0	470810624	21	5004
2026-01-04 00:22:09.70	89.46	18.53	-30.0	-32.8	19.2	6.01e-01	0	43	0	474480640	21	4985
2026-01-04 00:22:11.71	90.02	18.52	-30.1	-33.0	19.1	6.02e-01	0	43	0	478674944	21	5035
2026-01-04 00:22:13.72	90.58	18.50	-30.0	-32.8	19.2	6.00e-01	0	43	0	482344960	21	4990
2026-01-04 00:22:15.74	91.14	18.48	-30.0	-32.8	19.2	6.00e-01	0	43	0	486014976	21	4968
2026-01-04 00:22:17.75	91.70	18.46	-30.0	-32.9	19.1	6.01e-01	0	43	0	489684992	21	5014
2026-01-04 00:22:19.77	92.26	18.44	-30.1	-33.1	19.0	6.03e-01	0	43	0	493879296	21	5086
2026-01-04 00:22:21.78	92.82	18.41	-30.1	-33.2	18.9	6.01e-01	0	43	0	497549312	21	5142
2026-01-04 00:22:23.79	93.38	18.38	-30.2	-33.5	18.7	6.03e-01	0	43	0	501219328	21	5242
2026-01-04 00:22:25.81	93.93	18.35	-30.1	-33.2	19.0	6.03e-01	0	43	0	504889344	21	5106
2026-01-04 00:22:27.81	94.48	18.31	-30.3	-33.8	18.6	6.01e-01	0	43	0	508559360	21	5348
2026-01-04 00:22:29.81	95.03	18.28	-30.4	-34.0	18.5	6.03e-01	0	43	0	512229376	21	5424
2026-01-04 00:22:31.82	95.58	18.24	-30.3	-33.6	18.7	6.01e-01	0	43	0	516423680	21	5261
2026-01-04 00:22:33.83	96.13	18.20	-30.2	-33.4	18.8	6.02e-01	0	43	0	520093696	21	5196
2026-01-04 00:22:35.84	96.68	18.15	-30.3	-33.6	18.7	6.02e-01	0	43	0	523763712	21	5264
2026-01-04 00:22:37.85	97.22	18.11	-30.1	-33.1	19.0	6.02e-01	0	43	0	527433728	21	5071
2026-01-04 00:22:39.86	97.77	18.06	-30.1	-33.0	19.0	6.00e-01	0	43	0	531103744	21	5066
2026-01-04 00:22:41.87	98.31	18.01	-30.1	-33.2	18.9	6.02e-01	0	43	0	535298048	21	5124
2026-01-04 00:22:43.88	98.85	17.96	-30.2	-33.3	18.8	6.01e-01	0	43	0	538968064	21	5167
2026-01-04 00:22:45.89	99.39	17.90	-30.1	-33.2	18.9	6.04e-01	0	43	0	542638080	21	5110
2026-01-04 00:22:47.90	99.93	17.84	-30.0	-33.0	19.0	6.02e-01	0	43	0	546308096	21	5054
2026-01-04 00:22:49.91	100.46	17.78	-30.0	-32.9	19.1	6.02e-01	0	43	0	549978112	21	5021
2026-01-04 00:22:51.92	100.99	17.72	-30.2	-33.4	18.8	6.00e-01	0	43	0	553648128	21	5223
2026-01-04 00:22:53.93	101.52	17.66	-30.2	-33.5	18.7	6.03e-01	0	43	0	557842432	21	5242
2026-01-04 00:22:55.95	102.05	17.59	-30.2	-33.3	18.8	6.01e-01	0	43	0	561512448	21	5159
2026-01-04 00:22:57.96	102.58	17.52	-30.0	-32.9	19.1	6.04e-01	0	43	0	565182464	21	5034
2026-01-04 00:22:59.96	103.10	17.45	-30.0	-33.0	19.0	6.01e-01	0	43	0	568852480	21	5075
2026-01-04 00:23:01.98	103.62	17.38	-30.0	-32.9	19.1	6.01e-01	0	43	0	572522496	21	5029
2026-01-04 00:23:03.98	104.13	17.31	-30.0	-33.0	19.0	6.00e-01	0	43	0	576716800	21	5070
2026-01-04 00:23:05.99	104.65	17.23	-30.1	-33.3	18.8	6.04e-01	0	43	0	580386816	21	5172
2026-01-04 00:23:08.00	105.16	17.15	-30.1	-33.1	19.0	6.03e-01	0	43	0	584056832	21	5095
2026-01-04 00:23:10.01	105.67	17.08	-30.1	-33.1	19.0	6.02e-01	0	43	0	587726848	21	5087
2026-01-04 00:23:12.02	106.18	16.99	-30.2	-33.4	18.8	6.01e-01	0	43	0	591396864	21	5209
2026-01-04 00:23:14.03	106.68	16.91	-29.9	-32.7	19.1	6.04e-01	0	43	0	595591168	21	4956
2026-01-04 00:23:16.04	107.18	16.83	-30.0	-32.9	19.1	6.01e-01	0	43	0	599261184	21	5020
2026-01-04 00:23:18.04	107.68	16.74	-29.9	-32.7	19.2	6.04e-01	0	43	0	602931200	21	4958
2026-01-04 00:23:20.06	108.18	16.65	-29.9	-32.8	19.1	6.03e-01	0	43	0	606601216	21	4992
2026-01-04 00:23:22.07	108.67	16.56	-30.1	-33.1	19.0	6.02e-01	0	43	0	610271232	21	5089
2026-01-04 00:23:24.07	109.15	16.47	-29.9	-32.7	19.1	6.03e-01	0	43	0	613941248	21	4970
2026-01-04 00:23:26.08	109.64	16.38	-30.0	-33.4	19.0	6.04e-01	0	43	0	618135552	20	5316
2026-01-04 00:23:28.09	110.12	16.29	-30.2	-33.4	18.8	6.01e-01	0	43	0	621805568	21	5204
2026-01-04 00:23:30.11	110.61	16.19	-30.1	-33.2	18.9	6.02e-01	0	43	0	625475584	21	5137
2026-01-04 00:23:32.13	111.08	16.09	-29.9	-33.2	19.1	6.00e-01	0	43	0	629145600	20	5257
2026-01-04 00:23:34.14	111.56	15.99	-30.0	-33.5	18.9	5.99e-01	0	43	0	632815616	20	5379
2026-01-04 00:23:36.15	112.03	15.90	-30.0	-33.5	18.9	6.02e-01	0	43	0	637009920	20	5364
2026-01-04 00:23:38.17	112.50	15.79	-30.4	-34.0	18.3	6.01e-01	0	43	0	640679936	21	5471
2026-01-04 00:23:40.18	112.96	15.69	-30.1	-33.2	18.7	6.04e-01	0	43	0	644349952	21	5175
2026-01-04 00:23:42.20	113.42	15.59	-29.9	-32.8	19.0	6.00e-01	0	43	0	648019968	21	5018
2026-01-04 00:23:44.21	113.88	15.48	-30.1	-33.4	18.7	6.03e-01	0	43	0	651689984	21	5234
2026-01-04 00:23:46.22	114.33	15.38	-29.9	-32.7	19.0	5.99e-01	0	43	0	655884288	21	4990
2026-01-04 00:23:48.23	114.78	15.27	-29.9	-33.3	18.9	6.01e-01	0	43	0	659554304	20	5336
2026-01-04 00:23:50.24	115.23	15.16	-30.0	-33.5	18.5	6.00e-01	0	43	0	663224320	20	5393
2026-01-04 00:23:52.25	115.67	15.06	-30.0	-33.6	18.4	6.05e-01	0	43	0	666894336	20	5435
2026-01-04 00:23:54.25	116.11	14.95	-30.1	-33.3	18.6	6.01e-01	0	43	0	670564352	21	5197
2026-01-04 00:23:56.26	116.55	14.84	-30.0	-33.5	18.7	6.01e-01	0	43	0	674234368	20	5381
2026-01-04 00:23:58.27	116.98	14.72	-30.0	-33.4	18.8	6.01e-01	0	43	0	678428672	20	5368
2026-01-04 00:24:00.27	117.41	14.61	-30.0	-33.5	18.8	6.03e-01	0	43	0	682098688	20	5392
2026-01-04 00:24:02.29	117.84	14.50	-30.1	-33.3	18.6	6.03e-01	0	43	0	685768704	21	5205
2026-01-04 00:24:04.28	118.26	14.39	-30.1	-33.4	18.5	6.04e-01	0	43	0	689438720	21	5228
2026-01-04 00:24:06.30	118.68	14.27	-30.1	-33.4	18.5	6.02e-01	0	43	0	693108736	21	5242
2026-01-04 00:24:08.31	119.10	14.15	-30.0	-33.1	18.8	6.02e-01	0	43	0	697303040	21	5114
2026-01-04 00:24:10.33	119.51	14.04	-30.0	-33.1	18.7	6.02e-01	0	43	0	700973056	21	5124
2026-01-04 00:24:12.34	119.92	13.92	-30.1	-33.4	18.5	6.01e-01	0	43	0	704643072	21	5278
2026-01-04 00:24:14.35	120.33	13.80	-30.2	-33.7	18.3	6.01e-01	0	43	0	708313088	21	5381
2026-01-04 00:24:16.36	120.73	13.69	-30.1	-33.4	18.4	6.02e-01	0	43	0	711983104	21	5276
2026-01-04 00:24:18.37	121.13	13.57	-30.0	-33.2	18.6	6.02e-01	0	43	0	715653120	21	5182
2026-01-04 00:24:20.38	121.53	13.45	-30.1	-33.4	18.5	6.01e-01	0	43	0	719847424	21	5260
2026-01-04 00:24:22.40	121.92	13.33	-29.9	-32.9	18.8	6.01e-01	0	43	0	723517440	21	5081
2026-01-04 00:24:24.41	122.31	13.21	-29.9	-33.0	18.8	6.05e-01	0	43	0	727187456	21	5101
2026-01-04 00:24:26.42	122.70	13.09	-29.7	-32.8	18.6	6.02e-01	0	43	0	730857472	21	5189
2026-01-04 00:24:28.43	123.08	12.96	-29.9	-33.0	18.7	6.01e-01	0	43	0	735051776	21	5109
2026-01-04 00:24:30.44	123.46	12.84	-30.0	-33.0	18.6	6.02e-01	0	43	0	738721792	21	5133
2026-01-04 00:24:32.46	123.84	12.72	-29.9	-33.0	18.7	6.02e-01	0	43	0	742391808	21	5102
2026-01-04 00:24:34.47	124.22	12.60	-30.1	-33.8	18.5	5.99e-01	0	43	0	746061824	20	5521
2026-01-04 00:24:36.48	124.59	12.47	-30.1	-33.3	18.5	6.02e-01	0	43	0	749731840	21	5231
2026-01-04 00:24:38.48	124.95	12.35	-30.1	-33.5	18.4	6.02e-01	0	43	0	753926144	21	5290
2026-01-04 00:24:40.49	125.32	12.23	-30.2	-33.5	18.3	6.02e-01	0	43	0	757596160	21	5314
2026-01-04 00:24:42.50	125.68	12.10	-30.0	-33.3	18.4	6.02e-01	0	43	0	761266176	21	5232
2026-01-04 00:24:44.50	126.03	11.98	-30.1	-33.9	18.3	6.00e-01	0	43	0	764936192	20	5584
2026-01-04 00:24:46.52	126.39	11.86	-30.1	-33.5	18.3	6.04e-01	0	43	0	768606208	21	5315
2026-01-04 00:24:48.52	126.74	11.73	-30.3	-33.9	18.0	6.00e-01	0	43	0	772276224	21	5466
2026-01-04 00:24:50.52	127.08	11.61	-30.2	-33.6	18.3	6.03e-01	0	43	0	776470528	21	5328
2026-01-04 00:24:52.54	127.43	11.48	-30.2	-33.7	18.1	6.04e-01	0	43	0	780140544	21	5379
2026-01-04 00:24:54.55	127.77	11.36	-30.2	-33.7	18.1	6.01e-01	0	43	0	783810560	21	5410
2026-01-04 00:24:56.57	128.11	11.23	-30.2	-33.6	18.2	6.03e-01	0	43	0	787480576	21	5374
2026-01-04 00:24:58.58	128.45	11.11	-30.2	-33.7	18.1	6.00e-01	0	43	0	791150592	21	5399
2026-01-04 00:25:00.59	128.78	10.98	-30.3	-34.0	17.8	6.02e-01	0	43	0	795344896	21	5546
2026-01-04 00:25:02.60	129.11	10.85	-30.3	-33.9	17.9	6.01e-01	0	43	0	799014912	21	5495
2026-01-04 00:25:04.61	129.44	10.73	-30.4	-34.4	17.6	6.02e-01	0	43	0	802684928	21	5683
2026-01-04 00:25:06.62	129.76	10.60	-30.3	-33.9	17.9	6.03e-01	0	43	0	806354944	21	5504
2026-01-04 00:25:08.63	130.08	10.48	-30.3	-34.0	17.8	6.03e-01	0	43	0	810024960	21	5544
2026-01-04 00:25:10.64	130.40	10.35	-30.2	-33.8	17.9	6.00e-01	0	43	0	813694976	21	5474
2026-01-04 00:25:12.64	130.72	10.23	-30.2	-33.8	17.9	6.01e-01	0	43	0	817889280	21	5447
2026-01-04 00:25:14.65	131.03	10.10	-30.2	-33.8	17.9	5.98e-01	0	43	0	821559296	21	5445
2026-01-04 00:25:16.66	131.34	9.97	-30.2	-33.8	17.9	5.99e-01	0	43	0	825229312	21	5464
2026-01-04 00:25:18.67	131.65	9.85	-30.4	-34.4	17.4	6.04e-01	0	43	0	828899328	21	5707
2026-01-04 00:25:20.67	131.95	9.72	-30.4	-34.5	17.5	6.01e-01	0	43	0	832569344	21	5742
2026-01-04 00:25:22.68	132.25	9.60	-30.5	-34.8	17.2	6.02e-01	0	43	0	836763648	21	5883
2026-01-04 00:25:24.69	132.55	9.47	-30.7	-34.8	16.9	6.04e-01	0	43	0	840433664	22	5765
2026-01-04 00:25:26.70	132.85	9.35	-30.7	-34.9	16.7	5.98e-01	0	43	0	844103680	22	5837
2026-01-04 00:25:28.71	133.14	9.22	-30.7	-34.8	16.7	6.03e-01	0	43	0	847773696	22	5801
2026-01-04 00:25:30.72	133.43	9.10	-30.6	-34.5	16.9	6.01e-01	0	43	0	851443712	22	5669
2026-01-04 00:25:32.74	133.72	8.97	-30.6	-35.1	16.8	6.04e-01	0	43	0	855638016	21	6056
2026-01-04 00:25:34.75	134.01	8.84	-30.5	-34.9	16.9	6.00e-01	0	43	0	859308032	21	5962
2026-01-04 00:25:36.76	134.29	8.72	-30.4	-34.7	17.0	6.04e-01	0	43	0	862978048	21	5896
2026-01-04 00:25:38.77	134.57	8.59	-30.5	-35.0	16.8	5.99e-01	0	43	0	866648064	21	6057
2026-01-04 00:25:40.78	134.85	8.47	-30.4	-35.0	16.7	6.01e-01	0	43	0	870318080	21	6094
2026-01-04 00:25:42.80	135.13	8.34	-30.3	-34.8	16.8	6.00e-01	0	43	0	873988096	21	6026
2026-01-04 00:25:44.81	135.40	8.22	-30.4	-35.0	16.6	6.04e-01	0	43	0	878182400	21	6095
2026-01-04 00:25:46.81	135.67	8.10	-30.5	-35.1	16.6	6.02e-01	0	43	0	881852416	21	6127
2026-01-04 00:25:48.82	135.94	7.97	-30.6	-34.9	16.5	6.02e-01	0	43	0	885522432	22	5886
2026-01-04 00:25:50.84	136.20	7.85	-30.6	-34.7	16.6	6.01e-01	0	43	0	889192448	22	5793
2026-01-04 00:25:52.84	136.47	7.72	-30.6	-34.9	16.3	6.02e-01	0	43	0	892862464	22	5943
2026-01-04 00:25:54.86	136.73	7.60	-30.7	-35.5	15.9	5.97e-01	0	43	0	897056768	22	6264
2026-01-04 00:25:56.87	136.99	7.48	-30.4	-34.8	16.3	6.02e-01	0	43	0	900726784	22	5995
2026-01-04 00:25:58.87	137.24	7.35	-30.4	-35.3	16.2	6.02e-01	0	43	0	904396800	21	6334
2026-01-04 00:26:00.88	137.50	7.23	-30.3	-34.9	16.5	6.00e-01	0	43	0	908066816	21	6146
2026-01-04 00:26:02.89	137.75	7.11	-30.5	-35.4	16.2	6.03e-01	0	43	0	911736832	21	6380
2026-01-04 00:26:04.90	138.00	6.99	-33.7	-52.9	3.8	7.44e-01	0	43	104	912785408	28	32961
2026-01-04 00:26:06.91	138.25	6.86	-34.3	-53.6	3.8	7.44e-01	0	43	104	912785408	29	33210

#Closed at: 2026-01-04 00:26:07
#Recorded file [912 MB]: D:/data/31010_260104_031756.dat