passes_logs/2026/01/04/R2M6_AANII_01/R2M6_AANII_01__20260104_122729_NOAA_21_JPSS-2_rec.log

#Pass ID: 20260104_122729_NOAA 21 (JPSS-2)
#Satellite: NOAA 21 (JPSS-2)
#Configuration: NOAA 21
#almurnet v.1.7.20240730
#Start time: 2026-01-04 12:33:09

#Version: 2.2.20231116
#Station: R2M6_AANII_01
#Location: 30.233357 lon 59.946436 lat
#TLE: 1 54234U 22150A   26003.45311712  .00000198  00000+0  11468-3 0  9993
#TLE: 2 54234  98.7487 304.4932 0001159 347.5017  12.6130 14.19531745163172

#Time	Az	El	Level	Level2	SNR	BER	BlckErr	Temp	State	Recorded	gain1	gain2
2026-01-04 12:33:09.25	296.64	14.41	-33.9	-43.8	3.8	8.46e-01	0	43	0	0	27	11136
2026-01-04 12:33:10.25	296.84	14.38	-34.4	-45.5	3.8	1.49e+00	0	43	104	0	30	12978
2026-01-04 12:33:11.26	297.04	14.35	-34.4	-45.6	3.8	1.49e+00	0	43	104	0	30	12995
2026-01-04 12:33:12.26	297.24	14.32	-34.4	-45.6	3.8	1.49e+00	0	43	104	0	30	13065
2026-01-04 12:33:13.27	297.44	14.29	-34.5	-45.7	3.8	1.49e+00	0	43	104	0	30	13100
2026-01-04 12:33:14.28	297.64	14.26	-34.5	-45.7	3.8	1.49e+00	0	43	104	0	30	13094
2026-01-04 12:33:15.29	297.83	14.23	-34.5	-45.6	3.8	1.49e+00	0	43	104	0	30	13037
2026-01-04 12:33:16.30	298.03	14.19	-34.5	-45.6	3.8	1.49e+00	0	43	104	0	30	13059
2026-01-04 12:33:17.31	298.23	14.16	-34.5	-45.7	3.8	1.49e+00	0	43	104	0	30	13089
2026-01-04 12:33:18.32	298.43	14.13	-34.4	-45.6	3.8	1.49e+00	0	44	104	0	30	13025
2026-01-04 12:33:19.32	298.62	14.09	-34.5	-45.7	3.8	1.49e+00	0	44	104	0	30	13067
2026-01-04 12:33:20.33	298.82	14.06	-34.4	-45.6	3.8	1.49e+00	0	43	104	0	30	13066
2026-01-04 12:33:21.33	299.01	14.03	-34.4	-45.6	3.8	1.49e+00	0	43	104	0	30	13031
2026-01-04 12:33:22.34	299.21	13.99	-34.4	-45.6	3.8	1.49e+00	0	43	104	0	30	13005
2026-01-04 12:33:23.35	299.40	13.96	-34.5	-45.7	3.8	1.49e+00	0	43	104	0	30	13067
2026-01-04 12:33:24.36	299.59	13.92	-34.4	-45.6	3.8	1.49e+00	0	43	104	0	30	13023
2026-01-04 12:33:25.37	299.79	13.89	-34.4	-45.5	3.8	1.49e+00	0	43	104	0	30	12967
2026-01-04 12:33:26.38	299.98	13.85	-34.3	-45.4	3.8	1.49e+00	0	43	104	0	30	12896
2026-01-04 12:33:27.39	300.17	13.82	-34.3	-45.8	3.8	1.49e+00	0	43	104	0	29	13645
2026-01-04 12:33:28.39	300.37	13.78	-34.0	-45.5	3.8	1.49e+00	0	43	104	0	29	13455
2026-01-04 12:33:29.39	300.56	13.75	-34.2	-45.7	3.8	1.49e+00	0	43	104	0	29	13596
2026-01-04 12:33:30.40	300.75	13.71	-34.3	-45.8	3.8	1.49e+00	0	43	104	0	29	13572
2026-01-04 12:33:31.41	300.94	13.68	-34.2	-45.7	3.8	1.49e+00	0	43	104	0	29	13457
2026-01-04 12:33:32.42	301.13	13.64	-34.2	-45.6	3.8	1.49e+00	0	43	104	0	29	13444
2026-01-04 12:33:33.43	301.32	13.60	-34.2	-45.6	3.8	1.49e+00	0	43	104	0	29	13402
2026-01-04 12:33:34.43	301.51	13.57	-34.2	-45.5	3.8	1.49e+00	0	43	104	0	29	13346
2026-01-04 12:33:35.44	301.70	13.53	-34.1	-45.4	3.8	1.49e+00	0	43	104	0	29	13220
2026-01-04 12:33:36.45	301.88	13.49	-34.0	-45.3	3.8	1.49e+00	0	43	104	0	29	13141
2026-01-04 12:33:37.45	302.07	13.45	-33.9	-45.0	3.8	1.49e+00	0	43	104	0	29	12848
2026-01-04 12:33:38.46	302.26	13.42	-33.8	-45.1	3.8	1.49e+00	0	43	104	0	28	13239
2026-01-04 12:33:39.47	302.45	13.38	-33.5	-43.5	3.8	1.49e+00	0	43	104	0	28	11445
2026-01-04 12:33:40.48	302.63	13.34	-33.4	-44.5	3.8	1.49e+00	0	43	104	0	28	12867
2026-01-04 12:33:41.49	302.82	13.30	-33.4	-44.5	3.8	1.49e+00	0	43	104	0	28	12924
2026-01-04 12:33:42.49	303.00	13.26	-33.4	-44.6	3.8	1.49e+00	0	43	104	0	28	12980
2026-01-04 12:33:43.50	303.19	13.22	-33.4	-44.6	3.8	1.49e+00	0	43	104	0	28	12962
2026-01-04 12:33:44.50	303.37	13.19	-33.4	-44.4	3.8	1.49e+00	0	43	104	0	28	12761
2026-01-04 12:33:45.51	303.56	13.15	-33.4	-44.2	3.8	1.49e+00	0	43	104	0	28	12535
2026-01-04 12:33:46.52	303.74	13.11	-33.4	-44.0	3.8	1.49e+00	0	43	104	0	28	12223
2026-01-04 12:33:47.52	303.92	13.07	-33.3	-43.7	3.8	1.49e+00	0	43	104	0	28	11904
2026-01-04 12:33:48.53	304.11	13.03	-33.3	-43.4	3.8	1.49e+00	0	43	104	0	28	11520
2026-01-04 12:33:49.54	304.29	12.99	-33.4	-43.8	3.8	1.49e+00	0	43	104	0	27	11940
2026-01-04 12:33:50.55	304.47	12.95	-33.3	-43.4	3.8	1.49e+00	0	43	104	0	27	11545
2026-01-04 12:33:51.55	304.65	12.91	-33.3	-43.1	3.9	1.49e+00	0	43	104	0	27	11119
2026-01-04 12:33:52.56	304.83	12.87	-33.2	-42.4	4.0	1.48e+00	0	43	104	0	27	10328
2026-01-04 12:33:53.57	305.01	12.83	-33.2	-42.6	3.9	1.48e+00	0	43	104	0	27	10575
2026-01-04 12:33:54.57	305.19	12.78	-33.2	-42.0	4.0	1.47e+00	0	43	104	0	27	9925
2026-01-04 12:33:55.58	305.37	12.74	-33.1	-42.2	3.9	1.48e+00	0	43	104	0	27	10164
2026-01-04 12:33:56.59	305.55	12.70	-33.0	-40.6	4.3	1.44e+00	0	44	104	0	27	8683
2026-01-04 12:33:57.59	305.73	12.66	-32.7	-39.9	4.1	1.46e+00	0	43	104	0	26	8243
2026-01-04 12:33:58.60	305.90	12.62	-32.1	-37.1	6.5	3.03e-01	0	43	0	0	25	6379
2026-01-04 12:33:59.60	306.08	12.58	-31.4	-35.1	8.2	9.48e-02	0	43	102	1048576	24	5499
2026-01-04 12:34:00.59	306.25	12.54	-30.8	-33.5	9.7	1.90e-02	0	43	102	1048576	23	4941
2026-01-04 12:34:01.60	306.43	12.49	-30.3	-32.7	10.6	4.19e-03	0	43	102	1048576	22	4716
2026-01-04 12:34:02.60	306.61	12.45	-30.0	-32.3	11.1	1.59e-03	0	43	102	1048576	21	4708
2026-01-04 12:34:03.61	306.78	12.41	-30.1	-32.6	11.0	1.57e-03	0	43	102	1048576	21	4794
2026-01-04 12:34:04.62	306.96	12.37	-30.4	-33.4	10.4	4.00e-03	0	43	102	1048576	21	5102
2026-01-04 12:34:05.63	307.13	12.32	-30.4	-33.4	10.5	4.66e-03	0	43	102	1048576	21	5078
2026-01-04 12:34:06.64	307.31	12.28	-30.4	-33.5	10.4	4.13e-03	0	43	102	1048576	21	5126
2026-01-04 12:34:07.64	307.48	12.24	-30.4	-33.6	10.3	5.83e-03	0	43	102	1048576	21	5159
2026-01-04 12:34:08.65	307.65	12.19	-30.5	-33.8	10.1	5.77e-03	0	43	102	1048576	21	5264
2026-01-04 12:34:09.66	307.82	12.15	-30.5	-33.8	10.2	6.89e-03	0	43	102	1048576	21	5235
2026-01-04 12:34:10.67	308.00	12.11	-30.8	-34.6	9.6	1.03e-02	0	43	102	1048576	21	5567
2026-01-04 12:34:11.66	308.16	12.06	-30.7	-34.3	9.8	1.20e-02	0	43	102	1048576	21	5464
2026-01-04 12:34:12.67	308.34	12.02	-30.3	-33.2	10.5	5.99e-03	0	43	102	1048576	21	5018
2026-01-04 12:34:13.67	308.50	11.97	-29.9	-32.1	11.3	1.75e-03	0	43	102	1048576	21	4614
2026-01-04 12:34:14.68	308.67	11.93	-29.6	-31.7	11.9	5.64e-04	0	43	102	1048576	20	4580
2026-01-04 12:34:15.68	308.84	11.89	-29.3	-30.9	12.4	1.69e-04	0	43	102	1048576	20	4353
2026-01-04 12:34:16.69	309.01	11.84	-29.1	-30.9	12.8	8.16e-05	0	43	102	1048576	19	4438
2026-01-04 12:34:17.70	309.18	11.80	-29.0	-30.6	12.9	4.88e-05	0	43	102	1048576	19	4348
2026-01-04 12:34:18.71	309.35	11.75	-28.9	-30.5	13.0	3.73e-05	0	43	102	1048576	19	4330
2026-01-04 12:34:19.71	309.51	11.71	-29.0	-30.7	12.9	4.95e-05	0	43	102	1048576	19	4389
2026-01-04 12:34:20.72	309.68	11.66	-28.9	-30.6	13.0	3.28e-05	0	43	102	1048576	19	4339
2026-01-04 12:34:21.73	309.85	11.62	-28.8	-30.3	13.1	3.12e-05	0	43	102	1048576	19	4253
2026-01-04 12:34:22.74	310.02	11.57	-28.8	-30.6	13.2	2.67e-05	0	44	102	1048576	18	4464
2026-01-04 12:34:23.74	310.18	11.53	-28.8	-30.7	13.2	1.90e-05	0	43	102	1048576	18	4493
2026-01-04 12:34:24.75	310.34	11.48	-28.8	-30.7	13.2	2.51e-05	0	44	102	1048576	18	4470
2026-01-04 12:34:25.76	310.51	11.43	-28.9	-30.9	13.1	2.74e-05	0	43	102	1048576	18	4547
2026-01-04 12:34:26.76	310.67	11.39	-28.9	-30.9	13.1	3.28e-05	0	43	102	1048576	18	4548
2026-01-04 12:34:27.77	310.84	11.34	-28.9	-30.9	13.1	4.19e-05	0	43	102	1048576	18	4530
2026-01-04 12:34:28.77	311.00	11.30	-28.9	-31.0	13.0	3.50e-05	0	43	102	1048576	18	4588
2026-01-04 12:34:29.78	311.16	11.25	-28.8	-30.9	13.0	3.43e-05	0	43	102	1048576	18	4535
2026-01-04 12:34:30.78	311.32	11.20	-28.8	-30.8	13.1	3.05e-05	0	43	102	1048576	18	4510
2026-01-04 12:34:31.79	311.48	11.16	-28.9	-30.9	13.0	3.28e-05	0	43	102	1048576	18	4558
2026-01-04 12:34:32.80	311.64	11.11	-28.9	-31.0	13.0	4.42e-05	0	43	102	1048576	18	4569
2026-01-04 12:34:33.81	311.80	11.06	-28.9	-31.0	12.9	5.49e-05	0	43	102	1048576	18	4583
2026-01-04 12:34:34.82	311.96	11.02	-29.0	-31.2	12.8	5.49e-05	0	43	102	1048576	18	4657
2026-01-04 12:34:35.83	312.12	10.97	-28.9	-31.0	12.9	5.18e-05	0	43	102	1048576	18	4592
2026-01-04 12:34:36.84	312.28	10.92	-28.9	-31.0	12.9	5.11e-05	0	43	102	1048576	18	4593
2026-01-04 12:34:37.84	312.44	10.88	-28.9	-31.0	13.0	4.27e-05	0	43	102	1048576	18	4568
2026-01-04 12:34:38.86	312.60	10.83	-29.0	-31.3	12.8	6.17e-05	0	43	102	1048576	18	4675
2026-01-04 12:34:39.86	312.76	10.78	-29.0	-31.2	12.8	6.10e-05	0	43	102	1048576	18	4642
2026-01-04 12:34:40.87	312.91	10.73	-29.1	-31.4	12.6	9.38e-05	0	43	102	1048576	18	4701
2026-01-04 12:34:41.87	313.07	10.69	-29.1	-31.5	12.6	1.02e-04	0	43	102	1048576	18	4734
2026-01-04 12:34:42.88	313.23	10.64	-29.2	-31.8	12.3	1.64e-04	0	43	102	1048576	18	4840
2026-01-04 12:34:43.89	313.38	10.59	-29.1	-31.6	12.5	1.33e-04	0	43	102	1048576	18	4788
2026-01-04 12:34:44.89	313.54	10.54	-29.1	-31.6	12.5	1.06e-04	0	43	102	1048576	18	4770
2026-01-04 12:34:45.90	313.69	10.50	-29.2	-31.8	12.4	1.66e-04	0	43	102	1048576	18	4828
2026-01-04 12:34:46.91	313.84	10.45	-29.3	-32.0	12.3	1.72e-04	0	43	102	1048576	18	4926
2026-01-04 12:34:47.91	314.00	10.40	-29.3	-31.9	12.4	1.88e-04	0	43	102	1048576	18	4875
2026-01-04 12:34:48.92	314.15	10.35	-29.3	-31.9	12.4	1.40e-04	0	43	102	1048576	18	4858
2026-01-04 12:34:49.92	314.30	10.31	-29.3	-32.0	12.3	1.60e-04	0	43	102	1048576	18	4923
2026-01-04 12:34:50.93	314.45	10.26	-29.3	-32.0	12.3	1.78e-04	0	43	102	1048576	18	4923
2026-01-04 12:34:51.94	314.61	10.21	-29.3	-31.9	12.3	1.98e-04	0	43	102	1048576	18	4887
2026-01-04 12:34:52.95	314.76	10.16	-29.3	-32.1	12.0	2.96e-04	0	43	102	1048576	18	4956
2026-01-04 12:34:53.95	314.91	10.11	-29.2	-31.8	12.2	2.87e-04	0	43	102	1048576	18	4858
2026-01-04 12:34:54.96	315.06	10.06	-29.2	-31.7	12.3	1.77e-04	0	43	102	1048576	18	4797
2026-01-04 12:34:55.97	315.21	10.01	-29.2	-31.7	12.3	1.69e-04	0	43	102	1048576	18	4820
2026-01-04 12:34:56.98	315.36	9.97	-29.1	-31.4	12.6	8.85e-05	0	43	102	1048576	18	4700
2026-01-04 12:34:57.97	315.50	9.92	-29.1	-31.6	12.5	1.03e-04	0	43	102	1048576	18	4779
2026-01-04 12:34:58.98	315.65	9.87	-29.2	-31.7	12.5	1.23e-04	0	43	102	1048576	18	4801
2026-01-04 12:34:59.98	315.80	9.82	-29.1	-31.5	12.5	1.13e-04	0	43	102	1048576	18	4760
2026-01-04 12:35:00.99	315.95	9.77	-29.1	-31.5	12.3	1.79e-04	0	43	102	1048576	18	4769
2026-01-04 12:35:02.00	316.09	9.72	-29.1	-31.5	12.2	2.53e-04	0	43	102	1048576	18	4770
2026-01-04 12:35:03.01	316.24	9.67	-29.2	-31.7	12.1	2.68e-04	0	43	102	1048576	18	4832
2026-01-04 12:35:04.01	316.38	9.62	-29.1	-31.5	12.3	1.88e-04	0	43	102	1048576	18	4749
2026-01-04 12:35:05.02	316.53	9.57	-29.2	-31.9	12.1	2.04e-04	0	43	102	1048576	18	4873
2026-01-04 12:35:06.02	316.67	9.53	-29.1	-31.6	12.1	2.17e-04	0	43	102	1048576	18	4791
2026-01-04 12:35:07.03	316.82	9.48	-29.2	-31.8	11.8	4.66e-04	0	43	102	1048576	18	4854
2026-01-04 12:35:08.04	316.96	9.43	-29.2	-31.9	11.5	7.08e-04	0	43	102	1048576	18	4907
2026-01-04 12:35:09.05	317.11	9.38	-29.2	-32.0	11.3	1.01e-03	0	43	102	1048576	18	4930
2026-01-04 12:35:10.06	317.25	9.33	-29.2	-31.8	11.4	1.07e-03	0	43	102	1048576	18	4886
2026-01-04 12:35:11.07	317.39	9.28	-29.3	-32.2	11.5	8.09e-04	0	43	102	1048576	18	5004
2026-01-04 12:35:12.07	317.53	9.23	-29.3	-32.0	11.7	6.79e-04	0	43	102	1048576	18	4948
2026-01-04 12:35:13.07	317.67	9.18	-29.3	-32.1	11.8	5.26e-04	0	43	102	1048576	18	4956
2026-01-04 12:35:14.08	317.81	9.13	-29.4	-32.3	11.7	6.28e-04	0	43	102	1048576	18	5047
2026-01-04 12:35:15.09	317.96	9.08	-29.4	-32.2	11.9	4.70e-04	0	43	102	1048576	18	5006
2026-01-04 12:35:16.09	318.09	9.03	-29.5	-32.5	11.7	4.91e-04	0	43	102	1048576	18	5105
2026-01-04 12:35:17.09	318.23	8.98	-29.3	-32.2	11.9	4.07e-04	0	43	102	1048576	18	4986
2026-01-04 12:35:18.10	318.37	8.93	-29.4	-32.2	12.0	3.28e-04	0	43	102	1048576	18	4988
2026-01-04 12:35:19.10	318.51	8.88	-29.4	-32.3	12.0	3.65e-04	0	43	102	1048576	18	5012
2026-01-04 12:35:20.10	318.65	8.83	-29.5	-32.4	11.9	3.92e-04	0	43	102	1048576	18	5079
2026-01-04 12:35:21.11	318.79	8.78	-29.4	-32.3	12.0	3.15e-04	0	43	102	1048576	18	5019
2026-01-04 12:35:22.12	318.92	8.73	-29.4	-32.3	12.0	3.69e-04	0	43	102	1048576	18	5021
2026-01-04 12:35:23.12	319.06	8.68	-29.4	-32.2	11.9	4.26e-04	0	43	102	1048576	18	5012
2026-01-04 12:35:24.13	319.20	8.63	-29.4	-32.4	11.8	4.29e-04	0	43	102	1048576	18	5075
2026-01-04 12:35:25.13	319.33	8.58	-29.5	-32.2	11.6	6.58e-04	0	43	102	1048576	19	4873
2026-01-04 12:35:26.14	319.47	8.53	-29.5	-32.0	11.5	7.64e-04	0	43	102	1048576	19	4839
2026-01-04 12:35:27.15	319.60	8.48	-29.5	-32.2	11.2	1.23e-03	0	43	102	1048576	19	4918
2026-01-04 12:35:28.16	319.74	8.43	-29.4	-32.1	11.3	1.16e-03	0	43	102	1048576	19	4866
2026-01-04 12:35:29.16	319.87	8.38	-29.4	-31.9	11.3	1.14e-03	0	43	102	1048576	19	4809
2026-01-04 12:35:30.17	320.01	8.33	-29.5	-32.1	11.3	1.14e-03	0	43	102	1048576	19	4887
2026-01-04 12:35:31.17	320.14	8.28	-29.5	-32.3	11.3	1.28e-03	0	43	102	1048576	19	4928
2026-01-04 12:35:32.18	320.27	8.23	-29.5	-32.1	11.5	7.77e-04	0	43	102	1048576	19	4868
2026-01-04 12:35:33.19	320.40	8.18	-29.5	-32.1	11.6	6.96e-04	0	43	102	1048576	19	4858
2026-01-04 12:35:34.20	320.54	8.13	-29.5	-32.2	11.5	8.09e-04	0	43	102	1048576	19	4886
2026-01-04 12:35:35.20	320.67	8.08	-29.4	-32.0	11.8	4.97e-04	0	43	102	1048576	19	4807
2026-01-04 12:35:36.21	320.80	8.03	-29.5	-32.0	11.8	5.11e-04	0	43	102	1048576	19	4822
2026-01-04 12:35:37.21	320.93	7.98	-29.4	-31.8	11.9	4.39e-04	0	43	102	1048576	19	4760
2026-01-04 12:35:38.22	321.06	7.93	-29.4	-32.0	11.8	4.59e-04	0	43	102	1048576	19	4812
2026-01-04 12:35:39.23	321.19	7.88	-29.5	-32.0	11.8	5.43e-04	0	43	102	1048576	19	4824
2026-01-04 12:35:40.24	321.32	7.82	-29.4	-31.8	11.9	4.13e-04	0	43	102	1048576	19	4755
2026-01-04 12:35:41.24	321.45	7.77	-29.5	-32.1	11.6	6.37e-04	0	43	102	1048576	19	4871
2026-01-04 12:35:42.25	321.58	7.72	-29.5	-32.0	11.7	5.90e-04	0	43	102	1048576	19	4819
2026-01-04 12:35:43.26	321.70	7.67	-29.5	-32.1	11.6	7.39e-04	0	43	102	1048576	19	4860
2026-01-04 12:35:44.26	321.83	7.62	-29.6	-32.4	11.3	1.03e-03	0	43	102	1048576	19	4981
2026-01-04 12:35:45.27	321.96	7.57	-29.6	-32.5	11.4	1.03e-03	0	43	102	1048576	19	4994
2026-01-04 12:35:46.28	322.08	7.52	-29.7	-32.6	11.3	1.12e-03	0	43	102	1048576	19	5051
2026-01-04 12:35:47.29	322.21	7.47	-29.7	-32.7	11.2	1.29e-03	0	43	102	1048576	19	5064
2026-01-04 12:35:48.30	322.34	7.42	-29.7	-32.7	11.2	1.29e-03	0	43	102	1048576	19	5066
2026-01-04 12:35:49.30	322.46	7.37	-29.9	-33.1	10.9	1.73e-03	0	43	102	1048576	19	5219
2026-01-04 12:35:50.31	322.59	7.32	-29.9	-32.7	10.7	3.15e-03	0	43	102	1048576	20	4998
2026-01-04 12:35:51.32	322.71	7.27	-29.8	-32.5	10.9	2.04e-03	0	43	102	1048576	20	4908
2026-01-04 12:35:52.32	322.84	7.22	-29.9	-32.9	10.7	3.09e-03	0	43	102	1048576	20	5041
2026-01-04 12:35:53.33	322.96	7.17	-29.9	-32.8	10.8	2.50e-03	0	43	102	1048576	20	5008
2026-01-04 12:35:54.34	323.08	7.11	-30.1	-33.3	10.4	3.66e-03	0	43	102	1048576	20	5215
2026-01-04 12:35:55.34	323.21	7.06	-29.5	-31.8	11.5	5.54e-03	0	43	102	1048576	20	4675
2026-01-04 12:35:56.35	323.33	7.01	-33.5	-45.2	3.9	1.49e+00	0	43	104	1048576	27	13827
2026-01-04 12:35:57.36	323.45	6.96	-33.8	-45.8	3.8	1.49e+00	0	43	104	1048576	27	14362

#Closed at: 2026-01-04 12:35:57
#Recorded file [1 MB]: D:/data/31010_260104_153358.dat