passes_logs/2026/01/04/R2M6_AANII_01/R2M6_AANII_01__20260104_023215_NOAA_21_JPSS-2_rec.log

#Pass ID: 20260104_023215_NOAA 21 (JPSS-2)
#Satellite: NOAA 21 (JPSS-2)
#Configuration: NOAA 21
#almurnet v.1.7.20240730
#Start time: 2026-01-04 02:38:00

#Version: 2.2.20231116
#Station: R2M6_AANII_01
#Location: 30.233357 lon 59.946436 lat
#TLE: 1 54234U 22150A   26003.45311712  .00000198  00000+0  11468-3 0  9993
#TLE: 2 54234  98.7487 304.4932 0001159 347.5017  12.6130 14.19531745163172

#Time	Az	El	Level	Level2	SNR	BER	BlckErr	Temp	State	Recorded	gain1	gain2
2026-01-04 02:38:00.97	302.54	19.04	-33.8	-43.4	3.8	8.45e-01	0	43	0	0	27	10894
2026-01-04 02:38:01.97	302.31	19.01	-34.1	-45.6	3.8	1.49e+00	0	43	104	0	29	13428
2026-01-04 02:38:02.98	302.08	18.97	-34.2	-45.6	3.8	1.49e+00	0	43	104	0	29	13501
2026-01-04 02:38:03.98	301.85	18.94	-34.2	-45.7	3.8	1.49e+00	0	43	104	0	29	13579
2026-01-04 02:38:04.98	301.62	18.90	-34.2	-45.8	3.8	1.49e+00	0	43	104	0	29	13612
2026-01-04 02:38:05.99	301.38	18.86	-34.2	-45.8	3.8	1.49e+00	0	43	104	0	29	13626
2026-01-04 02:38:07.00	301.15	18.82	-34.2	-45.8	3.8	1.49e+00	0	44	104	0	29	13620
2026-01-04 02:38:08.00	300.92	18.79	-34.2	-45.8	3.8	1.49e+00	0	43	104	0	29	13655
2026-01-04 02:38:09.01	300.69	18.75	-34.2	-45.8	3.8	1.49e+00	0	43	104	0	29	13629
2026-01-04 02:38:10.02	300.46	18.71	-34.2	-45.8	3.8	1.49e+00	0	43	104	0	29	13654
2026-01-04 02:38:11.03	300.23	18.67	-34.2	-45.8	3.8	1.49e+00	0	43	104	0	29	13608
2026-01-04 02:38:12.04	300.00	18.63	-34.2	-45.7	3.8	1.49e+00	0	43	104	0	29	13582
2026-01-04 02:38:13.05	299.78	18.59	-34.2	-45.8	3.8	1.49e+00	0	43	104	0	29	13622
2026-01-04 02:38:14.05	299.55	18.55	-34.2	-45.8	3.8	1.49e+00	0	43	104	0	29	13628
2026-01-04 02:38:15.06	299.32	18.51	-34.2	-45.7	3.8	1.49e+00	0	43	104	0	29	13603
2026-01-04 02:38:16.06	299.10	18.47	-34.2	-45.7	3.8	1.49e+00	0	43	104	0	29	13594
2026-01-04 02:38:17.07	298.87	18.43	-34.2	-45.7	3.8	1.49e+00	0	43	104	0	29	13605
2026-01-04 02:38:18.07	298.65	18.38	-34.1	-45.6	3.8	1.49e+00	0	43	104	0	29	13519
2026-01-04 02:38:19.08	298.43	18.34	-34.1	-45.6	3.8	1.49e+00	0	43	104	0	29	13496
2026-01-04 02:38:20.09	298.20	18.30	-34.1	-46.1	3.8	1.49e+00	0	43	104	0	28	14259
2026-01-04 02:38:21.09	297.98	18.26	-34.1	-46.0	3.8	1.49e+00	0	43	104	0	28	14218
2026-01-04 02:38:22.10	297.76	18.21	-34.1	-46.0	3.8	1.49e+00	0	43	104	0	28	14235
2026-01-04 02:38:23.10	297.54	18.17	-34.1	-46.0	3.8	1.49e+00	0	43	104	0	28	14180
2026-01-04 02:38:24.11	297.32	18.13	-34.0	-45.9	3.8	1.49e+00	0	43	104	0	28	14121
2026-01-04 02:38:25.12	297.10	18.08	-34.0	-45.9	3.8	1.49e+00	0	43	104	0	28	14095
2026-01-04 02:38:26.13	296.88	18.04	-34.0	-45.8	3.8	1.49e+00	0	43	104	0	28	13979
2026-01-04 02:38:27.13	296.66	17.99	-33.9	-45.7	3.8	1.49e+00	0	43	104	0	28	13957
2026-01-04 02:38:28.14	296.44	17.94	-33.9	-45.6	3.8	1.49e+00	0	43	104	0	28	13820
2026-01-04 02:38:29.14	296.23	17.90	-33.9	-46.0	3.8	1.49e+00	0	43	104	0	27	14649
2026-01-04 02:38:30.15	296.01	17.85	-33.7	-45.4	3.8	1.49e+00	0	43	104	0	27	13910
2026-01-04 02:38:31.16	295.79	17.81	-33.6	-45.4	3.8	1.49e+00	0	43	104	0	27	14081
2026-01-04 02:38:32.17	295.58	17.76	-33.5	-45.0	3.8	1.49e+00	0	43	104	0	27	13397
2026-01-04 02:38:33.17	295.36	17.71	-33.5	-44.6	3.8	1.49e+00	0	43	104	0	27	12956
2026-01-04 02:38:34.18	295.15	17.66	-33.5	-44.5	3.8	1.49e+00	0	43	104	0	27	12824
2026-01-04 02:38:35.19	294.94	17.62	-33.5	-44.5	3.8	1.49e+00	0	43	104	0	27	12844
2026-01-04 02:38:36.19	294.73	17.57	-33.5	-44.6	3.8	1.49e+00	0	43	104	0	27	13027
2026-01-04 02:38:37.20	294.51	17.52	-33.5	-44.8	3.8	1.49e+00	0	43	104	0	27	13248
2026-01-04 02:38:38.20	294.30	17.47	-33.5	-45.0	3.8	1.49e+00	0	43	104	0	27	13488
2026-01-04 02:38:39.21	294.09	17.42	-33.5	-45.2	3.8	1.49e+00	0	43	104	0	27	13779
2026-01-04 02:38:40.22	293.88	17.37	-33.5	-45.2	3.8	1.49e+00	0	43	104	0	27	13765
2026-01-04 02:38:41.22	293.67	17.32	-33.5	-45.2	3.8	1.49e+00	0	43	104	0	27	13827
2026-01-04 02:38:42.23	293.46	17.27	-33.5	-45.1	3.8	1.49e+00	0	43	104	0	27	13612
2026-01-04 02:38:43.23	293.26	17.22	-33.5	-45.1	3.8	1.49e+00	0	43	104	0	27	13576
2026-01-04 02:38:44.23	293.05	17.17	-33.5	-45.2	3.8	1.49e+00	0	43	104	0	27	13717
2026-01-04 02:38:45.24	292.85	17.12	-33.5	-45.0	3.8	1.49e+00	0	43	104	0	27	13466
2026-01-04 02:38:46.24	292.64	17.07	-33.4	-44.3	3.8	1.49e+00	0	43	104	0	27	12620
2026-01-04 02:38:47.25	292.44	17.02	-33.3	-43.3	3.9	1.49e+00	0	43	104	0	27	11388
2026-01-04 02:38:48.25	292.23	16.97	-33.2	-41.6	4.1	1.46e+00	0	43	104	0	27	9525
2026-01-04 02:38:49.26	292.03	16.92	-33.1	-41.7	3.9	1.48e+00	0	43	104	0	27	9655
2026-01-04 02:38:50.27	291.83	16.86	-33.0	-40.8	4.0	1.42e+00	0	43	104	0	27	8853
2026-01-04 02:38:51.28	291.62	16.81	-32.6	-38.6	5.5	1.46e+00	0	43	104	0	26	7150
2026-01-04 02:38:52.28	291.42	16.76	-31.8	-36.1	7.7	1.63e-01	0	43	102	1048576	24	5937
2026-01-04 02:38:53.29	291.22	16.70	-30.7	-33.7	10.1	1.46e-02	0	43	102	1048576	22	5091
2026-01-04 02:38:54.29	291.02	16.65	-29.5	-31.5	12.2	5.47e-04	0	43	102	1048576	20	4528
2026-01-04 02:38:55.30	290.82	16.60	-28.9	-30.4	13.2	2.21e-05	0	43	102	1048576	19	4295
2026-01-04 02:38:56.31	290.62	16.54	-29.1	-30.8	13.0	3.35e-05	0	43	102	1048576	19	4413
2026-01-04 02:38:57.31	290.43	16.49	-29.4	-31.7	12.4	1.59e-04	0	43	102	1048576	19	4689
2026-01-04 02:38:58.32	290.23	16.44	-29.1	-31.1	12.8	6.71e-05	0	43	102	1048576	19	4483
2026-01-04 02:38:59.32	290.03	16.38	-29.0	-30.6	13.1	4.11e-05	0	43	102	1048576	19	4358
2026-01-04 02:39:00.33	289.84	16.33	-28.8	-30.2	13.3	2.89e-05	0	43	102	1048576	19	4243
2026-01-04 02:39:01.34	289.64	16.27	-28.8	-30.6	13.4	1.75e-05	0	43	102	1048576	18	4448
2026-01-04 02:39:02.34	289.45	16.22	-28.7	-30.5	13.5	1.22e-05	0	43	102	1048576	18	4415
2026-01-04 02:39:03.35	289.26	16.16	-28.9	-31.0	13.2	1.60e-05	0	43	102	1048576	18	4583
2026-01-04 02:39:04.36	289.06	16.11	-29.1	-31.5	12.8	8.54e-05	0	43	102	1048576	18	4747
2026-01-04 02:39:05.35	288.87	16.05	-28.7	-30.4	13.5	1.14e-05	0	43	102	1048576	18	4387
2026-01-04 02:39:06.35	288.68	16.00	-28.3	-30.1	14.0	1.50e-06	0	43	102	1048576	17	4400
2026-01-04 02:39:07.36	288.49	15.94	-28.0	-29.3	14.4	7.00e-07	0	43	102	1048576	17	4186
2026-01-04 02:39:08.36	288.30	15.89	-27.8	-29.3	14.7	0.00e+00	0	43	102	1048576	16	4280
2026-01-04 02:39:09.37	288.11	15.83	-27.5	-29.2	14.9	0.00e+00	0	43	102	1048576	15	4369
2026-01-04 02:39:10.37	287.93	15.77	-27.5	-29.2	14.9	0.00e+00	0	43	102	1048576	15	4379
2026-01-04 02:39:11.38	287.74	15.72	-27.5	-29.2	14.8	0.00e+00	0	43	102	1048576	15	4385
2026-01-04 02:39:12.39	287.55	15.66	-27.6	-29.3	14.8	7.00e-07	0	43	102	1048576	15	4411
2026-01-04 02:39:13.40	287.36	15.60	-27.4	-29.0	15.0	0.00e+00	0	43	102	1048576	15	4329
2026-01-04 02:39:14.40	287.18	15.54	-27.5	-29.6	14.9	0.00e+00	0	43	102	1048576	14	4616
2026-01-04 02:39:15.41	286.99	15.49	-27.5	-29.3	14.8	0.00e+00	0	43	102	1048576	15	4398
2026-01-04 02:39:16.41	286.81	15.43	-27.6	-29.5	14.7	0.00e+00	0	43	102	1048576	15	4458
2026-01-04 02:39:17.43	286.62	15.37	-27.7	-29.5	14.7	0.00e+00	0	43	102	1048576	15	4474
2026-01-04 02:39:18.43	286.44	15.31	-27.6	-29.5	14.7	0.00e+00	0	43	102	1048576	15	4459
2026-01-04 02:39:19.44	286.26	15.26	-27.7	-29.5	14.6	0.00e+00	0	43	102	1048576	15	4474
2026-01-04 02:39:20.45	286.08	15.20	-27.8	-29.8	14.5	7.00e-07	0	43	102	1048576	15	4559
2026-01-04 02:39:21.45	285.90	15.14	-27.9	-30.1	14.3	7.00e-07	0	43	102	1048576	15	4647
2026-01-04 02:39:22.46	285.72	15.08	-28.2	-30.3	14.1	1.50e-06	0	43	102	1048576	16	4578
2026-01-04 02:39:23.48	285.54	15.02	-28.2	-30.4	14.0	3.00e-06	0	43	102	1048576	16	4607
2026-01-04 02:39:24.49	285.36	14.96	-28.2	-30.4	14.0	5.30e-06	0	43	102	1048576	16	4621
2026-01-04 02:39:25.49	285.18	14.90	-28.3	-30.5	13.9	4.50e-06	0	43	102	1048576	16	4659
2026-01-04 02:39:26.49	285.01	14.84	-28.4	-30.7	13.8	2.20e-06	0	43	102	1048576	16	4704
2026-01-04 02:39:27.50	284.83	14.78	-28.3	-30.5	13.9	5.30e-06	0	43	102	1048576	16	4656
2026-01-04 02:39:28.51	284.65	14.73	-28.4	-30.9	13.7	7.00e-07	0	43	102	1048576	16	4763
2026-01-04 02:39:29.52	284.48	14.67	-28.6	-30.8	13.4	1.60e-05	0	43	102	1048576	17	4636
2026-01-04 02:39:30.53	284.30	14.61	-28.6	-30.8	13.5	1.29e-05	0	43	102	1048576	17	4622
2026-01-04 02:39:31.53	284.13	14.55	-28.7	-31.1	13.3	1.60e-05	0	43	102	1048576	17	4730
2026-01-04 02:39:32.54	283.96	14.49	-28.7	-31.1	13.2	1.52e-05	0	43	102	1048576	17	4727
2026-01-04 02:39:33.55	283.78	14.43	-28.8	-31.3	13.1	2.74e-05	0	43	102	1048576	17	4784
2026-01-04 02:39:34.56	283.61	14.37	-28.8	-31.2	13.1	3.12e-05	0	43	102	1048576	17	4770
2026-01-04 02:39:35.56	283.44	14.31	-28.7	-30.9	13.3	1.52e-05	0	43	102	1048576	17	4682
2026-01-04 02:39:36.56	283.27	14.25	-28.8	-31.3	13.1	2.67e-05	0	43	102	1048576	17	4782
2026-01-04 02:39:37.57	283.10	14.19	-28.7	-30.9	13.3	2.51e-05	0	43	102	1048576	17	4680
2026-01-04 02:39:38.57	282.94	14.13	-28.2	-30.4	13.9	8.30e-06	0	43	102	1048576	16	4620
2026-01-04 02:39:39.58	282.77	14.07	-28.0	-29.9	14.2	1.50e-06	0	43	102	1048576	16	4472
2026-01-04 02:39:40.59	282.60	14.00	-27.7	-29.7	14.4	1.50e-06	0	43	102	1048576	15	4534
2026-01-04 02:39:41.60	282.43	13.94	-27.7	-29.7	14.5	1.50e-06	0	43	102	1048576	15	4525
2026-01-04 02:39:42.60	282.27	13.88	-27.8	-30.0	14.2	7.00e-07	0	43	102	1048576	15	4627
2026-01-04 02:39:43.61	282.10	13.82	-27.8	-30.0	14.2	7.00e-07	0	43	102	1048576	15	4634
2026-01-04 02:39:44.62	281.94	13.76	-27.7	-29.6	14.5	2.45e-03	0	43	102	1048576	15	4494
2026-01-04 02:39:45.62	281.77	13.70	-27.4	-29.1	14.8	0.00e+00	0	43	102	1048576	15	4345
2026-01-04 02:39:46.62	281.61	13.64	-27.5	-29.7	14.7	1.91e-03	0	43	102	1048576	14	4644
2026-01-04 02:39:47.63	281.45	13.58	-27.4	-29.4	14.9	0.00e+00	0	43	102	1048576	14	4552
2026-01-04 02:39:48.63	281.29	13.52	-27.3	-29.2	15.0	0.00e+00	0	43	102	1048576	14	4497
2026-01-04 02:39:49.64	281.13	13.46	-27.4	-29.5	14.8	7.17e-04	0	43	102	1048576	14	4571
2026-01-04 02:39:50.64	280.97	13.39	-27.3	-29.3	14.9	6.41e-04	0	43	102	1048576	14	4508
2026-01-04 02:39:51.66	280.81	13.33	-27.3	-29.4	14.9	0.00e+00	0	43	102	1048576	14	4550
2026-01-04 02:39:52.66	280.65	13.27	-27.5	-29.6	14.8	0.00e+00	0	43	102	1048576	14	4631
2026-01-04 02:39:53.67	280.49	13.21	-27.6	-29.5	14.6	8.54e-04	0	43	102	1048576	15	4463
2026-01-04 02:39:54.67	280.33	13.15	-27.7	-29.6	14.5	2.20e-06	0	43	102	1048576	15	4517
2026-01-04 02:39:55.68	280.17	13.09	-27.8	-29.9	14.3	2.19e-03	0	43	102	1048576	15	4606
2026-01-04 02:39:56.69	280.02	13.02	-27.8	-30.0	14.2	2.78e-03	0	43	102	1048576	15	4635
2026-01-04 02:39:57.69	279.86	12.96	-27.8	-29.9	14.3	7.00e-07	0	43	102	1048576	15	4592
2026-01-04 02:39:58.70	279.71	12.90	-27.8	-29.9	14.3	3.91e-03	0	43	102	1048576	15	4602
2026-01-04 02:39:59.70	279.55	12.84	-27.8	-30.0	14.2	4.02e-03	0	43	102	1048576	15	4615
2026-01-04 02:40:00.71	279.40	12.78	-27.8	-29.9	14.3	1.50e-06	0	43	102	1048576	15	4590
2026-01-04 02:40:01.71	279.25	12.71	-28.0	-30.3	14.0	4.02e-03	0	43	102	1048576	15	4722
2026-01-04 02:40:02.72	279.09	12.65	-28.1	-30.0	14.1	3.74e-03	0	43	102	1048576	16	4510
2026-01-04 02:40:03.72	278.94	12.59	-28.1	-30.1	14.0	1.50e-06	0	43	102	1048576	16	4541
2026-01-04 02:40:04.73	278.79	12.53	-28.1	-30.2	14.0	3.00e-06	0	43	102	1048576	16	4552
2026-01-04 02:40:05.74	278.64	12.47	-28.2	-30.5	13.8	4.15e-03	0	43	102	1048576	16	4650
2026-01-04 02:40:06.74	278.49	12.40	-28.3	-30.6	13.7	5.30e-06	0	43	102	1048576	16	4681
2026-01-04 02:40:07.75	278.34	12.34	-28.4	-30.8	13.6	3.86e-03	0	43	102	1048576	16	4759
2026-01-04 02:40:08.76	278.19	12.28	-28.3	-30.7	13.6	1.44e-05	0	43	102	1048576	16	4729
2026-01-04 02:40:09.77	278.05	12.22	-28.5	-31.0	13.5	1.37e-05	0	43	102	1048576	16	4818
2026-01-04 02:40:10.77	277.90	12.15	-28.4	-30.8	13.6	8.30e-06	0	43	102	1048576	16	4757
2026-01-04 02:40:11.78	277.75	12.09	-28.3	-30.6	13.7	1.43e-03	0	43	102	1048576	16	4676
2026-01-04 02:40:12.79	277.61	12.03	-28.3	-30.5	13.7	7.60e-06	0	43	102	1048576	16	4670
2026-01-04 02:40:13.80	277.46	11.97	-28.2	-30.4	13.8	3.00e-06	0	43	102	1048576	16	4631
2026-01-04 02:40:14.81	277.31	11.90	-28.3	-30.5	13.7	6.80e-06	0	43	102	1048576	16	4667
2026-01-04 02:40:15.81	277.17	11.84	-28.1	-30.2	13.9	6.10e-06	0	43	102	1048576	16	4563
2026-01-04 02:40:16.82	277.03	11.78	-28.2	-30.3	13.9	4.50e-06	0	43	102	1048576	16	4588
2026-01-04 02:40:17.83	276.88	11.72	-28.1	-30.1	14.0	3.00e-06	0	43	102	1048576	16	4545
2026-01-04 02:40:18.83	276.74	11.65	-28.2	-30.3	13.9	2.20e-06	0	43	102	1048576	16	4595
2026-01-04 02:40:19.84	276.60	11.59	-28.1	-30.2	13.9	5.30e-06	0	43	102	1048576	16	4581
2026-01-04 02:40:20.84	276.46	11.53	-28.2	-30.3	13.9	3.00e-06	0	43	102	1048576	16	4611
2026-01-04 02:40:21.85	276.32	11.47	-28.5	-31.0	13.5	1.14e-05	0	43	102	1048576	16	4813
2026-01-04 02:40:22.86	276.18	11.40	-28.6	-30.8	13.2	1.52e-05	0	43	102	1048576	17	4647
2026-01-04 02:40:23.87	276.04	11.34	-28.6	-30.9	13.2	2.44e-05	0	43	102	1048576	17	4689
2026-01-04 02:40:24.87	275.90	11.28	-28.6	-30.8	13.2	1.75e-05	0	43	102	1048576	17	4651
2026-01-04 02:40:25.87	275.76	11.22	-28.4	-30.9	13.4	1.44e-05	0	43	102	1048576	16	4801
2026-01-04 02:40:26.88	275.63	11.15	-28.5	-31.1	13.4	1.60e-05	0	43	102	1048576	16	4847
2026-01-04 02:40:27.89	275.49	11.09	-28.6	-30.9	13.2	3.43e-05	0	43	102	1048576	17	4688
2026-01-04 02:40:28.89	275.35	11.03	-28.9	-31.5	12.8	5.26e-05	0	43	102	1048576	17	4887
2026-01-04 02:40:29.90	275.22	10.97	-28.8	-31.2	12.9	6.25e-05	0	43	102	1048576	17	4785
2026-01-04 02:40:30.90	275.08	10.90	-29.0	-31.8	12.6	5.87e-05	0	43	102	1048576	17	4990
2026-01-04 02:40:31.91	274.95	10.84	-28.9	-31.2	12.7	9.46e-05	0	43	102	1048576	18	4649
2026-01-04 02:40:32.92	274.81	10.78	-28.9	-31.0	12.7	8.23e-05	0	43	102	1048576	18	4618
2026-01-04 02:40:33.93	274.68	10.71	-29.1	-31.6	12.4	1.18e-04	0	43	102	1048576	18	4801
2026-01-04 02:40:34.93	274.55	10.65	-29.0	-31.4	12.6	1.01e-04	0	43	102	1048576	18	4717
2026-01-04 02:40:35.94	274.41	10.59	-29.0	-31.8	12.6	1.04e-04	0	43	102	1048576	17	4978
2026-01-04 02:40:36.94	274.28	10.53	-29.1	-31.5	12.4	9.23e-05	0	43	102	1048576	18	4781
2026-01-04 02:40:37.96	274.15	10.46	-28.9	-31.0	12.7	8.85e-05	0	43	102	1048576	18	4619
2026-01-04 02:40:38.96	274.02	10.40	-28.8	-31.4	12.8	5.26e-05	0	43	102	1048576	17	4853
2026-01-04 02:40:39.96	273.89	10.34	-28.8	-31.4	12.8	5.34e-05	0	43	102	1048576	17	4830
2026-01-04 02:40:40.96	273.76	10.28	-28.6	-30.9	13.1	2.97e-05	0	43	102	1048576	17	4672
2026-01-04 02:40:41.96	273.64	10.22	-28.6	-30.8	13.1	2.36e-05	0	43	102	1048576	17	4653
2026-01-04 02:40:42.97	273.51	10.15	-28.5	-30.6	13.3	1.98e-05	0	43	102	1048576	17	4586
2026-01-04 02:40:43.98	273.38	10.09	-28.5	-30.7	13.2	1.75e-05	0	43	102	1048576	17	4617
2026-01-04 02:40:44.98	273.25	10.03	-28.7	-31.1	12.9	4.04e-05	0	43	102	1048576	17	4760
2026-01-04 02:40:45.99	273.13	9.97	-28.4	-30.5	13.3	2.21e-05	0	43	102	1048576	17	4564
2026-01-04 02:40:46.99	273.00	9.90	-28.2	-30.5	13.6	9.90e-06	0	43	102	1048576	16	4660
2026-01-04 02:40:48.00	272.87	9.84	-28.3	-30.7	13.5	7.60e-06	0	43	102	1048576	16	4726
2026-01-04 02:40:49.01	272.75	9.78	-28.4	-31.0	13.3	1.37e-05	0	43	102	1048576	16	4821
2026-01-04 02:40:50.02	272.62	9.72	-28.6	-30.8	13.1	1.75e-05	0	43	102	1048576	17	4656
2026-01-04 02:40:51.03	272.50	9.65	-28.8	-31.5	12.7	5.18e-05	0	43	102	1048576	17	4882
2026-01-04 02:40:52.04	272.38	9.59	-29.0	-31.5	12.4	1.34e-04	0	43	102	1048576	18	4774
2026-01-04 02:40:53.04	272.25	9.53	-29.0	-31.5	12.4	1.48e-04	0	43	102	1048576	18	4769
2026-01-04 02:40:54.05	272.13	9.47	-29.4	-32.4	11.9	3.32e-04	0	43	102	1048576	18	5068
2026-01-04 02:40:55.06	272.01	9.40	-29.4	-32.3	11.9	4.97e-04	0	43	102	1048576	18	5054
2026-01-04 02:40:56.07	271.89	9.34	-29.6	-32.5	11.4	6.42e-04	0	43	102	1048576	19	5019
2026-01-04 02:40:57.08	271.77	9.28	-29.7	-32.7	11.2	1.25e-03	0	43	102	1048576	19	5108
2026-01-04 02:40:58.09	271.65	9.22	-29.6	-32.5	11.4	9.60e-04	0	43	102	1048576	19	5019
2026-01-04 02:40:59.09	271.53	9.16	-28.8	-31.6	11.3	7.93e-04	0	43	102	1048576	19	4961
2026-01-04 02:41:00.10	271.41	9.09	-29.5	-32.1	11.7	6.02e-04	0	43	102	1048576	19	4866
2026-01-04 02:41:01.10	271.29	9.03	-29.3	-32.2	10.8	4.95e-03	0	43	102	1048576	18	5008
2026-01-04 02:41:02.11	271.17	8.97	-29.3	-32.1	11.3	3.59e-04	0	43	102	1048576	18	4995
2026-01-04 02:41:03.11	271.05	8.91	-29.1	-31.5	12.3	2.48e-04	0	43	102	1048576	18	4789
2026-01-04 02:41:04.12	270.94	8.85	-29.2	-31.9	12.1	2.66e-04	0	43	102	1048576	18	4916
2026-01-04 02:41:05.13	270.82	8.78	-28.9	-31.7	12.5	1.27e-04	0	43	102	1048576	17	4963
2026-01-04 02:41:06.14	270.70	8.72	-28.7	-31.2	12.8	7.32e-05	0	43	102	1048576	17	4804
2026-01-04 02:41:07.15	270.59	8.66	-28.5	-30.8	13.0	7.29e-04	0	43	102	1048576	17	4651
2026-01-04 02:41:08.16	270.47	8.60	-28.5	-30.8	13.0	3.50e-05	0	43	102	1048576	17	4654
2026-01-04 02:41:09.16	270.36	8.54	-28.6	-31.0	12.9	5.11e-05	0	43	102	1048576	17	4737
2026-01-04 02:41:10.17	270.24	8.48	-28.7	-31.1	12.8	5.79e-05	0	43	102	1048576	17	4761
2026-01-04 02:41:11.18	270.13	8.41	-28.8	-31.5	12.6	3.65e-04	0	43	102	1048576	17	4896
2026-01-04 02:41:12.19	270.02	8.35	-28.8	-31.6	12.5	1.13e-04	0	43	102	1048576	17	4918
2026-01-04 02:41:13.19	269.90	8.29	-29.0	-31.9	12.3	1.30e-03	0	43	102	1048576	17	5033
2026-01-04 02:41:14.20	269.79	8.23	-29.0	-31.5	12.2	2.12e-04	0	43	102	1048576	18	4797
2026-01-04 02:41:15.21	269.68	8.17	-29.1	-31.8	12.1	2.49e-04	0	43	102	1048576	18	4885
2026-01-04 02:41:16.21	269.57	8.11	-29.2	-32.0	12.0	3.38e-03	0	43	102	1048576	18	4946
2026-01-04 02:41:17.22	269.46	8.05	-29.2	-32.0	11.9	4.75e-03	0	43	102	1048576	18	4970
2026-01-04 02:41:18.23	269.35	7.98	-29.1	-31.7	12.1	2.91e-04	0	43	102	1048576	18	4860
2026-01-04 02:41:19.24	269.24	7.92	-29.2	-31.9	12.0	4.67e-03	0	43	102	1048576	18	4918
2026-01-04 02:41:20.24	269.13	7.86	-29.0	-31.5	12.2	4.45e-03	0	43	102	1048576	18	4795
2026-01-04 02:41:21.25	269.02	7.80	-29.0	-31.5	12.2	2.46e-04	0	43	102	1048576	18	4785
2026-01-04 02:41:22.26	268.91	7.74	-28.9	-31.8	12.2	4.73e-03	0	43	102	1048576	17	5020
2026-01-04 02:41:23.26	268.80	7.68	-29.0	-31.6	12.1	4.50e-03	0	43	102	1048576	18	4808
2026-01-04 02:41:24.28	268.69	7.62	-28.7	-30.8	12.6	1.10e-04	0	43	102	1048576	18	4565
2026-01-04 02:41:25.29	268.59	7.56	-28.8	-31.4	12.4	4.24e-03	0	43	102	1048576	17	4892
2026-01-04 02:41:26.29	268.48	7.50	-28.7	-31.1	12.7	7.93e-05	0	43	102	1048576	17	4783
2026-01-04 02:41:27.30	268.37	7.43	-28.7	-31.2	12.6	8.62e-05	0	43	102	1048576	17	4817
2026-01-04 02:41:28.30	268.27	7.37	-28.8	-31.4	12.4	4.59e-03	0	43	102	1048576	17	4883
2026-01-04 02:41:29.31	268.16	7.31	-28.7	-31.3	12.5	4.27e-03	0	43	102	1048576	17	4848
2026-01-04 02:41:30.31	268.06	7.25	-28.9	-31.7	12.3	1.74e-04	0	43	102	1048576	17	4971
2026-01-04 02:41:31.32	267.96	7.19	-29.2	-32.0	11.7	3.65e-04	0	43	102	1048576	18	4988
2026-01-04 02:41:32.33	267.85	7.13	-29.4	-32.5	11.4	1.02e-03	0	43	102	1048576	18	5165
2026-01-04 02:41:33.33	267.75	7.07	-32.1	-39.1	5.4	5.80e-02	0	43	102	1048576	24	8065
2026-01-04 02:41:34.33	267.65	7.01	-33.2	-45.2	3.8	1.49e+00	0	43	104	1048576	26	14371

#Closed at: 2026-01-04 02:41:34
#Recorded file [1 MB]: D:/data/31010_260104_053851.dat