passes_logs/2026/01/04/R2M6_AANII_01/R2M6_AANII_01__20260104_081607_NOAA_20_JPSS-1_rec.log

#Pass ID: 20260104_081607_NOAA 20 (JPSS-1)
#Satellite: NOAA 20 (JPSS-1)
#Configuration: NOAA 20
#almurnet v.1.7.20240730
#Start time: 2026-01-04 08:16:07

#Version: 2.2.20231116
#Station: R2M6_AANII_01
#Location: 30.233357 lon 59.946436 lat
#TLE: 1 43013U 17073A   26003.41800368  .00000169  00000+0  10117-3 0  9998
#TLE: 2 43013  98.7624 304.4804 0001884  56.1176 304.0179 14.19532918421092

#Time	Az	El	Level	Level2	SNR	BER	BlckErr	Temp	State	Recorded	gain1	gain2
2026-01-04 08:16:07.11	96.67	6.97	-31.1	-44.7	3.8	1.49e+00	0	41	0	0	23	17241
2026-01-04 08:16:10.13	96.38	7.16	-30.9	-44.4	3.8	1.49e+00	0	41	104	0	23	16976
2026-01-04 08:16:13.15	96.08	7.35	-30.9	-44.2	3.8	1.49e+00	0	41	104	0	23	16809
2026-01-04 08:16:16.17	95.78	7.54	-30.9	-44.4	3.8	1.49e+00	0	41	104	0	23	16942
2026-01-04 08:16:19.19	95.47	7.73	-31.1	-44.7	3.8	1.49e+00	0	41	104	0	23	17233
2026-01-04 08:16:22.21	95.17	7.92	-31.2	-45.0	3.8	1.49e+00	0	41	104	0	23	17518
2026-01-04 08:16:25.24	94.85	8.11	-31.3	-45.1	3.8	1.49e+00	0	41	104	0	23	17667
2026-01-04 08:16:28.25	94.53	8.30	-31.4	-45.3	3.8	1.49e+00	0	41	104	0	23	17745
2026-01-04 08:16:31.28	94.21	8.50	-31.6	-45.3	3.8	1.49e+00	0	41	104	0	23	17544
2026-01-04 08:16:34.29	93.88	8.69	-31.7	-45.2	3.8	1.49e+00	0	42	104	0	23	16921
2026-01-04 08:16:37.31	93.55	8.88	-31.8	-44.1	3.8	1.49e+00	0	41	104	0	23	14752
2026-01-04 08:16:40.32	93.22	9.07	-31.8	-41.3	4.8	8.06e-01	0	42	102	1048576	23	10749
2026-01-04 08:16:43.35	92.88	9.27	-31.6	-38.3	7.1	1.90e-01	0	42	102	1048576	23	7779
2026-01-04 08:16:46.36	92.53	9.46	-31.7	-38.0	7.9	7.08e-02	0	42	102	1048576	23	7400
2026-01-04 08:16:49.38	92.18	9.66	-31.7	-37.5	8.4	5.01e-02	0	41	102	1048576	23	7051
2026-01-04 08:16:52.41	91.83	9.86	-31.7	-37.3	8.6	3.90e-02	0	42	102	1048576	23	6921
2026-01-04 08:16:55.43	91.47	10.05	-31.6	-36.9	9.0	3.80e-02	0	42	102	1048576	23	6663
2026-01-04 08:16:58.45	91.10	10.25	-31.2	-35.2	10.5	5.16e-03	0	42	102	1048576	23	5753
2026-01-04 08:17:01.47	90.73	10.45	-31.2	-35.3	10.6	4.22e-03	0	42	102	1048576	23	5744
2026-01-04 08:17:04.49	90.36	10.64	-31.0	-34.6	11.0	1.93e-03	0	42	102	1048576	23	5464
2026-01-04 08:17:07.51	89.98	10.84	-31.1	-34.8	10.9	2.52e-03	0	42	102	1048576	23	5542
2026-01-04 08:17:10.53	89.59	11.04	-31.0	-34.6	11.1	1.57e-03	0	42	102	1048576	23	5447
2026-01-04 08:17:13.55	89.20	11.24	-31.1	-34.7	11.1	1.83e-03	0	42	102	1048576	23	5464
2026-01-04 08:17:16.56	88.81	11.44	-31.1	-34.8	11.1	1.60e-03	0	42	102	1048576	23	5501
2026-01-04 08:17:19.58	88.41	11.64	-31.1	-34.8	11.0	2.09e-03	0	42	102	1048576	23	5522
2026-01-04 08:17:22.61	88.00	11.84	-31.1	-34.6	11.2	1.12e-03	0	42	102	1048576	23	5424
2026-01-04 08:17:25.63	87.59	12.04	-31.0	-34.6	11.3	1.17e-03	0	42	102	1048576	23	5394
2026-01-04 08:17:28.65	87.17	12.24	-31.1	-34.8	11.2	1.73e-03	0	42	102	1048576	23	5484
2026-01-04 08:17:31.67	86.74	12.44	-31.1	-34.6	11.3	1.27e-03	0	42	102	1048576	23	5423
2026-01-04 08:17:34.69	86.31	12.64	-31.2	-34.9	11.2	1.51e-03	0	42	102	1048576	23	5511
2026-01-04 08:17:37.70	85.88	12.84	-31.2	-35.0	11.1	1.54e-03	0	42	102	1048576	23	5557
2026-01-04 08:17:40.73	85.44	13.04	-31.2	-35.1	11.0	1.87e-03	0	42	102	1048576	23	5616
2026-01-04 08:17:43.74	84.99	13.24	-31.3	-35.2	10.9	2.46e-03	0	42	102	1048576	23	5663
2026-01-04 08:17:46.77	84.53	13.44	-31.3	-35.4	10.8	2.14e-03	0	43	102	1048576	23	5762
2026-01-04 08:17:49.79	84.07	13.64	-31.3	-35.4	10.8	2.83e-03	0	42	102	1048576	23	5768
2026-01-04 08:17:52.81	83.60	13.84	-31.3	-35.2	11.0	1.80e-03	0	42	102	1048576	23	5645
2026-01-04 08:17:55.83	83.13	14.04	-31.4	-35.7	10.7	3.15e-03	0	42	102	1048576	23	5867
2026-01-04 08:17:58.85	82.65	14.24	-31.5	-36.0	10.5	3.05e-03	0	43	102	1048576	23	6021
2026-01-04 08:18:01.87	82.17	14.44	-31.6	-36.3	10.3	4.21e-03	0	43	102	1048576	23	6155
2026-01-04 08:18:04.90	81.67	14.64	-31.6	-36.2	10.3	4.35e-03	0	43	102	1048576	23	6129
2026-01-04 08:18:07.92	81.17	14.83	-31.5	-35.8	10.7	3.01e-03	0	43	102	1048576	23	5918
2026-01-04 08:18:10.94	80.66	15.03	-31.6	-36.1	10.5	3.79e-03	0	43	102	1048576	23	6053
2026-01-04 08:18:13.95	80.15	15.23	-31.4	-35.6	10.9	2.37e-03	0	43	102	1048576	23	5809
2026-01-04 08:18:16.98	79.63	15.42	-31.4	-35.5	11.0	1.84e-03	0	43	102	1048576	23	5740
2026-01-04 08:18:20.00	79.10	15.62	-31.4	-35.4	11.1	2.33e-03	0	43	102	1048576	23	5697
2026-01-04 08:18:23.02	78.57	15.81	-31.1	-34.3	11.8	4.62e-04	0	43	102	1048576	23	5238
2026-01-04 08:18:26.04	78.03	16.00	-31.1	-34.3	11.8	3.94e-04	0	43	102	1048576	23	5245
2026-01-04 08:18:29.05	77.48	16.19	-31.0	-34.1	12.0	3.46e-04	0	43	102	1048576	23	5132
2026-01-04 08:18:32.08	76.93	16.38	-30.9	-33.8	12.2	2.25e-04	0	43	102	1048576	23	5037
2026-01-04 08:18:35.10	76.36	16.57	-30.7	-33.8	12.6	1.40e-04	0	43	102	1048576	22	5116
2026-01-04 08:18:38.13	75.79	16.76	-30.7	-33.7	12.7	1.25e-04	0	43	102	1048576	22	5091
2026-01-04 08:18:41.15	75.22	16.95	-30.6	-33.5	12.8	5.79e-05	0	43	102	1048576	22	5028
2026-01-04 08:18:44.16	74.63	17.13	-30.4	-32.8	13.3	1.98e-05	0	43	102	1048576	22	4759
2026-01-04 08:18:47.19	74.04	17.32	-30.2	-32.9	13.5	8.30e-06	0	43	102	1048576	21	4909
2026-01-04 08:18:50.21	73.44	17.50	-30.3	-33.1	13.4	8.30e-06	0	43	102	1048576	21	4977
2026-01-04 08:18:53.24	72.83	17.68	-30.3	-33.1	13.4	2.13e-05	0	43	102	1048576	21	4982
2026-01-04 08:18:56.26	72.22	17.85	-30.3	-33.0	13.5	7.60e-06	0	43	102	1048576	21	4932
2026-01-04 08:18:59.27	71.60	18.03	-30.0	-32.4	13.9	6.80e-06	0	43	102	1048576	21	4718
2026-01-04 08:19:02.29	70.98	18.20	-30.1	-32.4	13.9	3.80e-06	0	43	102	1048576	21	4731
2026-01-04 08:19:05.30	70.34	18.37	-30.2	-32.8	13.7	5.30e-06	0	43	102	1048576	21	4854
2026-01-04 08:19:08.33	69.70	18.54	-30.3	-33.1	13.5	6.80e-06	0	43	102	1048576	21	4948
2026-01-04 08:19:11.35	69.05	18.70	-30.5	-33.6	13.1	1.29e-05	0	43	102	1048576	21	5156
2026-01-04 08:19:14.37	68.40	18.86	-30.5	-33.7	13.1	3.12e-05	0	43	102	1048576	21	5193
2026-01-04 08:19:17.40	67.73	19.02	-30.3	-33.1	13.5	2.05e-05	0	43	102	1048576	21	4966
2026-01-04 08:19:20.41	67.07	19.18	-30.0	-32.3	14.0	1.50e-06	0	43	102	1048576	21	4670
2026-01-04 08:19:23.43	66.39	19.33	-30.1	-32.5	13.9	1.50e-06	0	43	102	1048576	21	4730
2026-01-04 08:19:26.45	65.71	19.48	-29.6	-31.6	14.8	0.00e+00	0	43	102	1048576	20	4542
2026-01-04 08:19:29.46	65.02	19.63	-29.5	-31.5	14.8	0.00e+00	0	43	102	1048576	20	4514
2026-01-04 08:19:32.49	64.32	19.77	-29.6	-31.6	14.8	0.00e+00	0	43	102	1048576	20	4550
2026-01-04 08:19:35.50	63.62	19.91	-29.5	-31.5	14.9	0.00e+00	0	43	102	1048576	20	4507
2026-01-04 08:19:38.52	62.91	20.05	-29.5	-31.5	14.9	0.00e+00	0	43	102	1048576	20	4515
2026-01-04 08:19:41.53	62.20	20.18	-29.3	-31.1	15.2	0.00e+00	0	43	102	1048576	20	4383
2026-01-04 08:19:44.55	61.48	20.30	-29.4	-31.3	15.0	0.00e+00	0	43	102	1048576	20	4448
2026-01-04 08:19:47.57	60.75	20.43	-29.6	-31.8	14.7	0.00e+00	0	43	102	1048576	20	4608
2026-01-04 08:19:50.60	60.01	20.55	-29.7	-31.9	14.6	7.00e-07	0	43	102	1048576	20	4659
2026-01-04 08:19:53.62	59.27	20.66	-29.8	-32.2	14.4	0.00e+00	0	43	102	1048576	20	4758
2026-01-04 08:19:56.64	58.53	20.77	-30.0	-32.6	14.2	7.00e-07	0	43	102	1048576	20	4867
2026-01-04 08:19:59.65	57.78	20.88	-30.0	-32.6	14.2	2.20e-06	0	43	102	1048576	20	4892
2026-01-04 08:20:02.68	57.03	20.98	-30.2	-33.1	13.9	2.20e-06	0	43	102	1048576	20	5073
2026-01-04 08:20:05.70	56.27	21.07	-30.4	-33.8	13.4	1.44e-05	0	43	102	1048576	20	5318
2026-01-04 08:20:08.72	55.50	21.16	-30.7	-34.2	12.8	6.71e-05	0	43	102	1048576	21	5367
2026-01-04 08:20:11.73	54.74	21.25	-30.5	-33.4	13.3	1.67e-05	0	43	102	1048576	21	5077
2026-01-04 08:20:14.75	53.97	21.33	-30.5	-33.5	13.3	1.06e-05	0	43	102	1048576	21	5102
2026-01-04 08:20:17.77	53.19	21.40	-30.7	-34.1	12.9	3.89e-05	0	43	102	1048576	21	5334
2026-01-04 08:20:20.80	52.41	21.47	-30.9	-34.8	12.5	1.07e-04	0	43	102	1048576	21	5621
2026-01-04 08:20:23.82	51.63	21.54	-30.9	-34.2	12.5	1.59e-04	0	43	102	1048576	22	5266
2026-01-04 08:20:26.84	50.84	21.59	-31.1	-34.7	12.2	1.69e-04	0	43	102	1048576	22	5462
2026-01-04 08:20:29.85	50.05	21.65	-30.7	-33.5	13.0	4.19e-05	0	43	102	1048576	22	4971
2026-01-04 08:20:32.87	49.26	21.69	-30.9	-34.3	12.5	6.48e-05	0	43	102	1048576	22	5274
2026-01-04 08:20:35.89	48.47	21.74	-30.9	-34.2	12.6	7.55e-05	0	43	102	1048576	22	5245
2026-01-04 08:20:38.91	47.67	21.77	-31.3	-35.2	11.9	3.04e-04	0	43	102	1048576	22	5661
2026-01-04 08:20:41.92	46.88	21.80	-31.0	-34.5	12.3	1.59e-04	0	43	102	1048576	22	5388
2026-01-04 08:20:44.94	46.08	21.82	-31.1	-34.7	12.2	2.53e-04	0	43	102	1048576	22	5440
2026-01-04 08:20:47.96	45.28	21.84	-30.8	-33.8	12.8	5.72e-05	0	43	102	1048576	22	5114
2026-01-04 08:20:50.99	44.48	21.85	-31.0	-34.3	12.5	1.11e-04	0	43	102	1048576	22	5315
2026-01-04 08:20:54.01	43.68	21.86	-30.5	-33.2	13.2	2.59e-05	0	43	102	1048576	22	4876
2026-01-04 08:20:57.02	42.88	21.86	-30.2	-33.1	13.4	2.05e-05	0	43	102	1048576	21	5048
2026-01-04 08:21:00.03	42.08	21.85	-29.3	-33.1	13.6	6.10e-06	0	43	102	1048576	19	5546
2026-01-04 08:21:03.05	41.28	21.84	-30.3	-33.7	13.5	7.60e-06	0	43	102	1048576	20	5295
2026-01-04 08:21:06.08	40.48	21.82	-30.2	-33.3	13.8	6.10e-06	0	43	102	1048576	20	5139
2026-01-04 08:21:09.10	39.68	21.80	-29.8	-32.3	14.4	0.00e+00	0	43	102	1048576	20	4797
2026-01-04 08:21:12.12	38.88	21.77	-29.8	-32.3	14.4	7.00e-07	0	43	102	1048576	20	4770
2026-01-04 08:21:15.13	38.09	21.73	-29.5	-31.4	15.0	7.00e-07	0	43	102	1048576	20	4474
2026-01-04 08:21:18.15	37.30	21.69	-29.3	-31.0	15.2	0.00e+00	0	43	102	1048576	20	4364
2026-01-04 08:21:21.18	36.50	21.65	-29.4	-31.7	15.2	0.00e+00	0	43	102	1048576	19	4666
2026-01-04 08:21:24.20	35.72	21.59	-29.1	-31.0	15.5	0.00e+00	0	43	102	1048576	19	4461
2026-01-04 08:21:27.22	34.93	21.54	-29.1	-30.8	15.6	0.00e+00	0	43	102	1048576	19	4401
2026-01-04 08:21:30.24	34.15	21.47	-29.2	-31.1	15.5	0.00e+00	0	43	102	1048576	19	4479
2026-01-04 08:21:33.27	33.37	21.40	-29.2	-31.0	15.5	0.00e+00	0	43	102	1048576	19	4470
2026-01-04 08:21:36.29	32.59	21.33	-29.2	-31.1	15.5	0.00e+00	0	43	102	1048576	19	4483
2026-01-04 08:21:39.31	31.82	21.25	-29.4	-31.8	15.0	0.00e+00	0	43	102	1048576	19	4707
2026-01-04 08:21:42.34	31.05	21.16	-29.6	-32.1	14.8	0.00e+00	0	43	102	1048576	19	4822
2026-01-04 08:21:45.35	30.29	21.07	-29.8	-32.6	14.5	0.00e+00	0	43	102	1048576	19	5003
2026-01-04 08:21:48.38	29.53	20.98	-30.0	-32.8	14.0	1.50e-06	0	43	102	1048576	20	4968
2026-01-04 08:21:51.39	28.78	20.88	-30.0	-32.8	14.0	3.00e-06	0	43	102	1048576	20	4967
2026-01-04 08:21:54.41	28.04	20.77	-30.3	-33.6	13.5	1.22e-05	0	43	102	1048576	20	5253
2026-01-04 08:21:57.43	27.29	20.66	-30.7	-34.2	12.7	1.04e-04	0	43	102	1048576	21	5388
2026-01-04 08:22:00.44	26.56	20.55	-30.4	-33.4	13.3	2.44e-05	0	43	102	1048576	21	5054
2026-01-04 08:22:03.46	25.83	20.43	-30.5	-33.7	13.1	4.42e-05	0	43	102	1048576	21	5172
2026-01-04 08:22:06.47	25.10	20.31	-30.4	-33.3	13.3	2.13e-05	0	43	102	1048576	21	5055
2026-01-04 08:22:09.50	24.38	20.18	-30.6	-33.9	12.9	6.17e-05	0	43	102	1048576	21	5256
2026-01-04 08:22:12.52	23.67	20.05	-30.6	-34.0	12.9	7.01e-05	0	43	102	1048576	21	5307
2026-01-04 08:22:15.54	22.96	19.91	-30.4	-33.3	13.3	3.50e-05	0	43	102	1048576	21	5037
2026-01-04 08:22:18.57	22.26	19.77	-30.3	-33.1	13.5	1.06e-05	0	43	102	1048576	21	4954
2026-01-04 08:22:21.59	21.56	19.63	-30.6	-34.0	12.8	5.95e-05	0	43	102	1048576	21	5292
2026-01-04 08:22:24.61	20.88	19.48	-30.5	-33.8	13.0	4.42e-05	0	43	102	1048576	21	5204
2026-01-04 08:22:27.63	20.20	19.33	-30.3	-33.2	13.4	2.05e-05	0	43	102	1048576	21	4994
2026-01-04 08:22:30.65	19.52	19.18	-30.4	-33.4	13.2	1.67e-05	0	43	102	1048576	21	5077
2026-01-04 08:22:33.68	18.85	19.03	-30.6	-34.0	12.8	4.88e-05	0	43	102	1048576	21	5304
2026-01-04 08:22:36.70	18.19	18.87	-30.7	-34.1	12.8	5.18e-05	0	43	102	1048576	21	5342
2026-01-04 08:22:39.72	17.54	18.71	-30.5	-33.7	12.9	5.26e-05	0	43	102	1048576	21	5201
2026-01-04 08:22:42.74	16.89	18.54	-30.4	-33.5	13.1	3.43e-05	0	43	102	1048576	21	5121
2026-01-04 08:22:45.75	16.26	18.37	-30.3	-33.2	13.3	2.74e-05	0	43	102	1048576	21	5017
2026-01-04 08:22:48.78	15.62	18.20	-30.3	-33.2	13.3	1.29e-05	0	43	102	1048576	21	5016
2026-01-04 08:22:51.80	15.00	18.03	-30.5	-33.6	13.0	3.81e-05	0	43	102	1048576	21	5164
2026-01-04 08:22:54.82	14.38	17.86	-30.4	-33.5	13.0	3.89e-05	0	43	102	1048576	21	5138
2026-01-04 08:22:57.85	13.77	17.68	-30.6	-33.9	12.8	3.89e-05	0	43	102	1048576	21	5265
2026-01-04 08:23:00.87	13.17	17.50	-30.4	-33.4	13.1	2.82e-05	0	43	102	1048576	21	5077
2026-01-04 08:23:03.89	12.57	17.32	-30.6	-33.9	12.8	4.73e-05	0	43	102	1048576	21	5265
2026-01-04 08:23:06.91	11.98	17.14	-30.7	-34.2	12.5	1.07e-04	0	43	102	1048576	21	5403
2026-01-04 08:23:09.92	11.40	16.96	-30.6	-33.9	12.8	6.48e-05	0	43	102	1048576	21	5277
2026-01-04 08:23:12.94	10.83	16.77	-30.5	-33.7	12.8	6.86e-05	0	43	102	1048576	21	5211
2026-01-04 08:23:15.97	10.26	16.58	-30.5	-33.6	12.9	4.11e-05	0	43	102	1048576	21	5160
2026-01-04 08:23:18.99	9.70	16.39	-30.6	-34.1	12.6	9.07e-05	0	43	102	1048576	21	5369
2026-01-04 08:23:22.02	9.15	16.20	-30.6	-33.9	12.7	1.07e-04	0	43	102	1048576	21	5302
2026-01-04 08:23:25.04	8.60	16.01	-30.5	-33.8	12.8	8.54e-05	0	43	102	1048576	21	5237
2026-01-04 08:23:28.06	8.06	15.82	-30.3	-33.3	13.1	4.88e-05	0	43	102	1048576	21	5074
2026-01-04 08:23:31.08	7.53	15.63	-30.2	-32.9	13.3	1.67e-05	0	43	102	1048576	21	4937
2026-01-04 08:23:34.10	7.01	15.43	-30.2	-32.9	13.3	1.52e-05	0	43	102	1048576	21	4913
2026-01-04 08:23:37.11	6.49	15.24	-30.3	-33.2	13.1	2.89e-05	0	43	102	1048576	21	5041
2026-01-04 08:23:40.12	5.98	15.05	-30.3	-33.3	13.0	4.19e-05	0	43	102	1048576	21	5093
2026-01-04 08:23:43.14	5.48	14.85	-30.1	-32.6	13.5	1.44e-05	0	43	102	1048576	21	4823
2026-01-04 08:23:46.16	4.98	14.65	-30.0	-32.3	13.7	9.10e-06	0	43	102	1048576	21	4702
2026-01-04 08:23:49.18	4.49	14.46	-29.9	-32.3	13.7	5.30e-06	0	43	102	1048576	21	4711
2026-01-04 08:23:52.20	4.01	14.26	-30.2	-32.9	13.2	2.28e-05	0	43	102	1048576	21	4941
2026-01-04 08:23:55.22	3.53	14.06	-30.2	-33.0	13.2	2.59e-05	0	43	102	1048576	21	4973
2026-01-04 08:23:58.23	3.06	13.86	-30.0	-32.3	13.6	1.37e-05	0	43	102	1048576	21	4726
2026-01-04 08:24:01.25	2.60	13.66	-30.0	-32.4	13.5	1.06e-05	0	43	102	1048576	21	4760
2026-01-04 08:24:04.27	2.14	13.46	-30.0	-32.5	13.4	1.22e-05	0	43	102	1048576	21	4804
2026-01-04 08:24:07.29	1.69	13.26	-30.1	-32.9	13.2	2.67e-05	0	43	102	1048576	21	4923
2026-01-04 08:24:10.31	1.24	13.06	-30.3	-33.4	12.9	6.33e-05	0	43	102	1048576	21	5110
2026-01-04 08:24:13.33	0.80	12.86	-30.2	-33.1	13.0	3.12e-05	0	43	102	1048576	21	5010
2026-01-04 08:24:16.36	0.37	12.66	-30.4	-33.5	12.7	4.65e-05	0	43	102	1048576	21	5183
2026-01-04 08:24:19.38	359.94	12.46	-30.3	-33.3	12.8	9.07e-05	0	43	102	1048576	21	5112
2026-01-04 08:24:22.40	359.52	12.27	-30.2	-33.1	13.0	5.03e-05	0	43	102	1048576	21	5015
2026-01-04 08:24:25.42	359.10	12.07	-30.2	-33.1	12.9	3.50e-05	0	43	102	1048576	21	5023
2026-01-04 08:24:28.45	358.69	11.87	-30.0	-32.7	13.2	1.44e-05	0	43	102	1048576	21	4863
2026-01-04 08:24:31.47	358.29	11.67	-30.1	-32.9	13.0	4.11e-05	0	43	102	1048576	21	4960
2026-01-04 08:24:34.48	357.89	11.47	-30.2	-33.2	12.8	4.88e-05	0	43	102	1048576	21	5082
2026-01-04 08:24:37.50	357.50	11.27	-30.3	-33.5	12.6	8.31e-05	0	43	102	1048576	21	5167
2026-01-04 08:24:40.51	357.11	11.07	-30.4	-33.9	12.3	1.27e-04	0	43	102	1048576	21	5328
2026-01-04 08:24:43.54	356.73	10.87	-30.6	-34.4	11.9	4.26e-04	0	43	102	1048576	21	5550
2026-01-04 08:24:46.56	356.35	10.68	-30.8	-34.9	11.6	7.51e-04	0	43	102	1048576	21	5777
2026-01-04 08:24:49.57	355.98	10.48	-30.7	-34.5	11.8	5.33e-04	0	43	102	1048576	21	5620
2026-01-04 08:24:52.60	355.61	10.28	-30.7	-34.7	11.7	5.69e-04	0	43	102	1048576	21	5692
2026-01-04 08:24:55.62	355.25	10.09	-30.8	-34.9	11.5	9.07e-04	0	43	102	1048576	21	5802
2026-01-04 08:24:58.65	354.89	9.89	-30.8	-34.9	11.5	9.82e-04	0	43	102	1048576	21	5794
2026-01-04 08:25:01.66	354.54	9.70	-30.9	-35.2	11.2	1.12e-03	0	43	102	1048576	21	5948
2026-01-04 08:25:04.68	354.19	9.50	-30.9	-35.3	11.1	1.59e-03	0	43	102	1048576	21	5990
2026-01-04 08:25:07.71	353.85	9.31	-30.7	-34.8	11.5	9.11e-04	0	43	102	1048576	21	5771
2026-01-04 08:25:10.73	353.51	9.11	-30.7	-34.8	11.5	7.65e-04	0	43	102	1048576	21	5756
2026-01-04 08:25:13.75	353.18	8.92	-30.7	-34.9	11.4	9.12e-04	0	43	102	1048576	21	5799
2026-01-04 08:25:16.77	352.85	8.73	-30.9	-35.5	10.9	2.09e-03	0	43	102	1048576	21	6112
2026-01-04 08:25:19.79	352.53	8.53	-31.2	-35.8	10.3	5.67e-03	0	43	102	1048576	22	6146
2026-01-04 08:25:22.81	352.21	8.34	-31.2	-36.0	10.1	6.24e-03	0	43	102	1048576	22	6246
2026-01-04 08:25:25.83	351.89	8.15	-31.3	-36.5	9.7	1.05e-02	0	43	102	1048576	22	6548
2026-01-04 08:25:28.85	351.58	7.96	-31.1	-35.8	10.2	5.73e-03	0	43	102	1048576	22	6172
2026-01-04 08:25:31.87	351.27	7.77	-31.3	-36.3	9.8	7.57e-03	0	43	102	1048576	22	6423
2026-01-04 08:25:34.90	350.97	7.58	-31.3	-36.4	9.7	1.21e-02	0	43	102	1048576	22	6504
2026-01-04 08:25:37.93	350.67	7.39	-31.3	-36.4	9.7	1.15e-02	0	43	102	1048576	22	6489
2026-01-04 08:25:40.96	350.37	7.20	-31.3	-36.4	9.7	1.54e-02	0	43	102	1048576	22	6516
2026-01-04 08:25:43.98	350.08	7.02	-33.1	-45.3	3.8	1.06e+00	0	43	104	1048576	26	14694

#Closed at: 2026-01-04 08:25:44
#Recorded file [1 MB]: D:/data/31010_260104_111638.dat