passes_logs/2026/01/04/R2M6_AANII_01/R2M6_AANII_01__20260104_033238_AQUA_rec.log

#Pass ID: 20260104_033238_AQUA
#Satellite: AQUA
#Configuration: AQUA
#almurnet v.1.7.20240730
#Start time: 2026-01-04 03:32:40

#Version: 2.2.20231116
#Station: R2M6_AANII_01
#Location: 30.233357 lon 59.946436 lat
#TLE: 1 27424U 02022A   25365.92641127  .00002078  00000+0  42628-3 0  9999
#TLE: 2 27424  98.4058 327.1196 0001962  94.7781 340.6230 14.61783896258835

#Time	Az	El	Level	Level2	SNR	BER	BlckErr	Temp	State	Recorded	gain1	gain2
2026-01-04 03:32:40.28	7.07	7.11	-32.5	-48.0	3.8	7.42e-01	0	40	0	0	26	21446
2026-01-04 03:32:43.30	6.78	7.32	-32.4	-48.2	3.8	7.44e-01	0	40	104	0	25	22034
2026-01-04 03:32:46.31	6.48	7.53	-32.4	-47.8	3.8	7.45e-01	0	41	104	0	25	21292
2026-01-04 03:32:49.34	6.18	7.75	-31.8	-46.3	3.8	7.44e-01	0	41	104	0	24	19111
2026-01-04 03:32:52.35	5.88	7.96	-31.9	-46.4	3.8	7.43e-01	0	41	104	0	24	19155
2026-01-04 03:32:55.37	5.57	8.18	-31.1	-44.5	3.8	7.44e-01	0	41	104	0	23	16766
2026-01-04 03:32:58.39	5.25	8.40	-31.0	-44.6	3.8	7.45e-01	0	41	104	0	22	17297
2026-01-04 03:33:01.40	4.93	8.62	-31.7	-45.7	3.8	7.44e-01	0	41	104	0	24	18095
2026-01-04 03:33:04.42	4.60	8.84	-32.0	-47.0	3.8	7.41e-01	0	41	104	0	24	20246
2026-01-04 03:33:07.45	4.27	9.06	-32.2	-47.0	3.8	7.46e-01	0	41	104	0	25	19901
2026-01-04 03:33:10.46	3.93	9.28	-32.6	-48.6	3.8	7.46e-01	0	41	104	0	25	22729
2026-01-04 03:33:13.48	3.58	9.50	-33.0	-50.2	3.8	7.46e-01	0	41	104	0	26	25877
2026-01-04 03:33:16.50	3.23	9.73	-33.2	-50.7	3.8	7.44e-01	0	41	104	0	27	26839
2026-01-04 03:33:19.52	2.88	9.96	-33.1	-49.9	3.8	7.44e-01	0	41	104	0	27	24930
2026-01-04 03:33:22.53	2.51	10.18	-33.0	-49.9	3.8	7.46e-01	0	42	104	0	26	25189
2026-01-04 03:33:25.56	2.14	10.41	-32.6	-48.1	3.8	7.42e-01	0	42	104	0	26	21326
2026-01-04 03:33:28.58	1.77	10.64	-32.0	-46.2	3.8	7.43e-01	0	42	104	0	25	18334
2026-01-04 03:33:31.60	1.38	10.88	-32.3	-47.2	3.8	7.45e-01	0	41	104	0	25	19941
2026-01-04 03:33:34.62	0.99	11.11	-32.7	-47.9	3.8	7.43e-01	0	42	104	0	26	20876
2026-01-04 03:33:37.65	0.60	11.34	-32.0	-45.9	3.8	7.46e-01	0	42	104	0	25	17977
2026-01-04 03:33:40.67	0.19	11.58	-31.6	-45.3	3.8	7.44e-01	0	42	104	0	24	17319
2026-01-04 03:33:43.69	359.78	11.82	-30.8	-43.3	3.8	7.45e-01	0	42	104	0	23	15225
2026-01-04 03:33:46.71	359.36	12.05	-30.3	-43.2	3.8	7.47e-01	0	42	104	0	21	15780
2026-01-04 03:33:49.73	358.94	12.29	-30.8	-44.0	3.8	7.46e-01	0	42	104	0	22	16352
2026-01-04 03:33:52.76	358.50	12.53	-31.8	-45.7	3.8	7.43e-01	0	42	104	0	24	17974
2026-01-04 03:33:55.77	358.06	12.77	-32.1	-46.7	3.8	7.44e-01	0	42	104	0	24	19459
2026-01-04 03:33:58.79	357.61	13.02	-32.3	-46.9	3.8	7.45e-01	0	42	104	0	25	19440
2026-01-04 03:34:01.81	357.16	13.26	-32.6	-48.2	3.8	7.43e-01	0	42	104	0	25	21619
2026-01-04 03:34:04.83	356.69	13.50	-33.2	-49.5	3.8	7.45e-01	0	42	104	0	27	23628
2026-01-04 03:34:07.85	356.22	13.75	-33.2	-49.6	3.8	7.42e-01	0	42	104	0	27	23868
2026-01-04 03:34:10.87	355.73	13.99	-33.1	-49.3	3.8	7.42e-01	0	42	104	0	27	23074
2026-01-04 03:34:13.89	355.24	14.24	-33.0	-48.7	3.8	7.44e-01	0	42	104	0	27	21855
2026-01-04 03:34:16.91	354.74	14.49	-32.4	-46.9	3.8	7.46e-01	0	42	104	0	26	19015
2026-01-04 03:34:19.93	354.23	14.73	-32.4	-47.1	3.8	7.46e-01	0	43	104	0	25	19519
2026-01-04 03:34:22.95	353.71	14.98	-32.7	-47.8	3.8	7.44e-01	0	42	104	0	26	20377
2026-01-04 03:34:25.97	353.18	15.23	-31.8	-36.1	15.6	6.04e-01	0	42	0	0	25	5909
2026-01-04 03:34:28.97	352.65	15.48	-31.0	-34.7	17.3	6.01e-01	0	42	102	524288	23	5485
2026-01-04 03:34:31.99	352.10	15.73	-31.3	-35.4	16.9	6.03e-01	0	42	102	524288	23	5803
2026-01-04 03:34:35.02	351.54	15.98	-30.5	-33.6	18.4	6.03e-01	0	42	102	524288	22	5158
2026-01-04 03:34:38.04	350.97	16.23	-30.4	-33.9	18.4	6.02e-01	0	42	102	524288	21	5401
2026-01-04 03:34:41.06	350.39	16.48	-30.1	-33.2	18.9	6.01e-01	0	42	102	524288	21	5132
2026-01-04 03:34:44.08	349.80	16.73	-30.1	-33.6	19.0	6.03e-01	0	42	102	524288	20	5379
2026-01-04 03:34:47.09	349.20	16.98	-30.1	-33.2	18.9	6.05e-01	0	43	102	524288	21	5125
2026-01-04 03:34:50.12	348.59	17.23	-30.3	-33.7	18.5	6.03e-01	0	43	102	524288	21	5324
2026-01-04 03:34:53.13	347.97	17.48	-30.2	-33.3	18.8	6.02e-01	0	42	102	524288	21	5139
2026-01-04 03:34:56.15	347.34	17.73	-30.0	-32.9	19.2	6.05e-01	0	42	102	524288	21	5008
2026-01-04 03:34:59.17	346.69	17.97	-30.0	-32.8	19.3	6.03e-01	0	42	102	524288	21	4961
2026-01-04 03:35:02.16	346.04	18.22	-30.0	-32.9	19.2	6.04e-01	0	42	102	524288	21	5009
2026-01-04 03:35:05.17	345.38	18.46	-30.2	-33.4	18.9	6.02e-01	0	42	102	524288	21	5169
2026-01-04 03:35:08.20	344.70	18.71	-30.2	-33.2	18.9	6.02e-01	0	43	102	524288	21	5131
2026-01-04 03:35:11.21	344.01	18.95	-30.3	-33.7	18.7	6.05e-01	0	42	102	524288	21	5293
2026-01-04 03:35:14.23	343.31	19.19	-30.0	-32.7	19.3	6.03e-01	0	43	102	524288	21	4941
2026-01-04 03:35:17.25	342.59	19.43	-30.1	-33.1	19.1	6.04e-01	0	43	102	524288	21	5062
2026-01-04 03:35:20.27	341.87	19.67	-30.2	-33.2	19.0	6.03e-01	0	43	102	524288	21	5107
2026-01-04 03:35:23.29	341.13	19.91	-30.1	-33.1	19.1	6.03e-01	0	43	102	524288	21	5059
2026-01-04 03:35:26.31	340.38	20.14	-30.0	-33.4	19.2	6.02e-01	0	43	102	524288	20	5294
2026-01-04 03:35:29.34	339.61	20.37	-30.1	-33.2	19.0	6.03e-01	0	43	102	524288	21	5094
2026-01-04 03:35:32.35	338.84	20.60	-30.3	-33.5	18.8	6.02e-01	0	43	102	524288	21	5238
2026-01-04 03:35:35.37	338.05	20.82	-30.3	-33.5	18.9	6.02e-01	0	43	102	524288	21	5203
2026-01-04 03:35:38.39	337.25	21.04	-30.2	-33.2	19.0	6.01e-01	0	43	102	524288	21	5109
2026-01-04 03:35:41.41	336.44	21.26	-30.2	-33.3	19.0	6.04e-01	0	43	102	524288	21	5155
2026-01-04 03:35:44.43	335.62	21.47	-30.1	-33.1	19.1	6.03e-01	0	43	102	524288	21	5085
2026-01-04 03:35:47.45	334.78	21.68	-30.3	-33.7	18.8	6.04e-01	0	43	102	524288	21	5285
2026-01-04 03:35:50.47	333.93	21.89	-30.3	-33.5	18.8	6.01e-01	0	43	102	524288	21	5212
2026-01-04 03:35:53.50	333.07	22.09	-30.2	-33.2	19.0	6.02e-01	0	43	102	524288	21	5122
2026-01-04 03:35:56.52	332.20	22.28	-30.2	-33.3	19.0	6.02e-01	0	43	102	524288	21	5143
2026-01-04 03:35:59.54	331.31	22.47	-30.3	-33.5	18.9	6.00e-01	0	43	102	524288	21	5201
2026-01-04 03:36:02.55	330.42	22.65	-30.4	-33.8	18.7	6.04e-01	0	43	102	524288	21	5321
2026-01-04 03:36:05.58	329.51	22.83	-30.1	-33.1	19.1	6.03e-01	0	42	102	524288	21	5067
2026-01-04 03:36:08.60	328.60	23.00	-30.4	-33.7	18.7	6.02e-01	0	43	102	524288	21	5296
2026-01-04 03:36:11.61	327.67	23.17	-30.5	-34.1	18.5	6.06e-01	0	43	102	524288	21	5467
2026-01-04 03:36:14.63	326.74	23.33	-30.5	-34.1	18.0	6.05e-01	0	43	102	524288	21	5463
2026-01-04 03:36:17.65	325.79	23.48	-30.5	-34.1	18.4	6.01e-01	0	43	102	524288	21	5464
2026-01-04 03:36:20.67	324.83	23.62	-30.3	-33.0	18.9	6.03e-01	0	43	102	524288	22	4913
2026-01-04 03:36:23.70	323.86	23.76	-30.3	-33.0	18.9	6.02e-01	0	43	102	524288	22	4926
2026-01-04 03:36:26.72	322.89	23.89	-30.4	-33.7	18.8	6.03e-01	0	43	102	524288	21	5288
2026-01-04 03:36:29.74	321.91	24.01	-30.3	-33.4	18.9	6.04e-01	0	43	102	524288	21	5184
2026-01-04 03:36:32.76	320.92	24.12	-30.3	-33.4	18.9	6.01e-01	0	43	102	524288	21	5191
2026-01-04 03:36:35.79	319.92	24.23	-30.1	-33.0	19.2	6.03e-01	0	43	102	524288	21	5036
2026-01-04 03:36:38.80	318.91	24.32	-30.3	-33.4	19.0	6.04e-01	0	43	102	524288	21	5180
2026-01-04 03:36:41.82	317.90	24.41	-30.2	-33.3	19.0	6.02e-01	0	43	102	524288	21	5149
2026-01-04 03:36:44.82	316.89	24.48	-30.3	-33.6	18.8	6.05e-01	0	43	102	524288	21	5243
2026-01-04 03:36:47.84	315.87	24.55	-30.4	-33.8	18.8	6.01e-01	0	43	102	524288	21	5304
2026-01-04 03:36:50.87	314.84	24.61	-30.4	-33.8	18.7	6.04e-01	0	43	102	524288	21	5320
2026-01-04 03:36:53.89	313.81	24.66	-30.5	-34.0	18.7	6.02e-01	0	43	102	524288	21	5395
2026-01-04 03:36:56.90	312.79	24.70	-30.5	-34.0	18.6	6.04e-01	0	43	102	524288	21	5411
2026-01-04 03:36:59.92	311.75	24.73	-30.5	-33.7	18.5	6.01e-01	0	43	102	524288	22	5165
2026-01-04 03:37:02.93	310.72	24.75	-30.3	-33.6	18.9	6.03e-01	0	43	102	524288	21	5231
2026-01-04 03:37:05.95	309.68	24.76	-30.4	-33.3	18.8	6.02e-01	0	43	102	524288	22	5008
2026-01-04 03:37:08.98	308.64	24.76	-30.3	-33.1	18.8	6.02e-01	0	43	102	524288	22	4958
2026-01-04 03:37:12.00	307.60	24.75	-30.3	-32.9	19.0	6.00e-01	0	43	102	524288	22	4882
2026-01-04 03:37:15.02	306.56	24.73	-30.7	-34.0	18.3	6.03e-01	0	43	102	524288	22	5314
2026-01-04 03:37:18.04	305.53	24.70	-30.3	-33.4	19.0	6.03e-01	0	43	102	524288	21	5186
2026-01-04 03:37:21.06	304.50	24.66	-30.2	-33.1	19.1	6.03e-01	0	43	102	524288	21	5073
2026-01-04 03:37:24.08	303.47	24.61	-30.7	-34.2	17.9	6.03e-01	0	43	102	524288	22	5365
2026-01-04 03:37:27.10	302.44	24.55	-30.8	-34.4	18.1	6.03e-01	0	43	102	524288	22	5465
2026-01-04 03:37:30.12	301.42	24.48	-30.0	-32.3	19.3	6.06e-01	0	43	102	524288	22	4657
2026-01-04 03:37:33.14	300.40	24.41	-30.9	-34.3	17.6	6.03e-01	0	43	102	524288	23	5311
2026-01-04 03:37:36.16	299.39	24.32	-30.4	-33.4	18.6	6.02e-01	0	43	102	524288	22	5076
2026-01-04 03:37:39.18	298.38	24.22	-30.8	-34.3	17.9	6.04e-01	0	43	102	524288	22	5433
2026-01-04 03:37:42.20	297.38	24.12	-30.1	-32.5	19.1	6.02e-01	0	43	102	524288	22	4746
2026-01-04 03:37:45.21	296.39	24.01	-30.5	-33.7	18.4	6.04e-01	0	43	102	524288	22	5199
2026-01-04 03:37:48.23	295.41	23.89	-30.3	-32.9	18.9	6.04e-01	0	43	102	524288	22	4902
2026-01-04 03:37:51.25	294.43	23.76	-30.3	-33.7	18.7	6.04e-01	0	43	102	524288	21	5298
2026-01-04 03:37:54.28	293.46	23.62	-30.4	-33.8	18.6	6.01e-01	0	43	102	524288	21	5356
2026-01-04 03:37:57.29	292.51	23.48	-29.8	-32.2	19.6	6.02e-01	0	43	102	524288	21	4750
2026-01-04 03:38:00.30	291.56	23.33	-30.7	-34.2	18.1	6.04e-01	0	43	102	524288	22	5393
2026-01-04 03:38:03.32	290.62	23.17	-29.8	-32.2	19.6	6.04e-01	0	43	102	524288	21	4767
2026-01-04 03:38:06.34	289.69	23.00	-30.6	-34.4	18.2	6.04e-01	0	43	102	524288	21	5588
2026-01-04 03:38:09.35	288.77	22.83	-30.6	-34.0	18.0	6.04e-01	0	43	102	524288	22	5329
2026-01-04 03:38:12.37	287.87	22.65	-30.1	-32.4	19.1	6.03e-01	0	43	102	524288	22	4714
2026-01-04 03:38:15.39	286.97	22.47	-30.3	-33.2	18.6	6.04e-01	0	43	102	524288	22	4994
2026-01-04 03:38:18.40	286.09	22.28	-30.6	-34.4	18.2	6.01e-01	0	43	102	524288	21	5609
2026-01-04 03:38:21.42	285.21	22.08	-30.6	-33.9	18.1	6.03e-01	0	43	102	524288	22	5269
2026-01-04 03:38:24.44	284.35	21.88	-30.3	-33.0	18.6	6.04e-01	0	43	102	524288	22	4947
2026-01-04 03:38:27.47	283.49	21.68	-30.3	-33.2	18.5	6.01e-01	0	43	102	524288	22	5022
2026-01-04 03:38:30.48	282.66	21.47	-30.7	-34.3	17.9	6.04e-01	0	43	102	524288	22	5462
2026-01-04 03:38:33.50	281.83	21.25	-31.0	-35.2	17.2	6.03e-01	0	43	102	524288	22	5850
2026-01-04 03:38:36.53	281.01	21.04	-31.2	-35.3	16.9	6.04e-01	0	43	102	524288	23	5743
2026-01-04 03:38:39.55	280.21	20.81	-31.0	-34.7	17.3	6.05e-01	0	43	102	524288	23	5492
2026-01-04 03:38:42.56	279.42	20.59	-30.5	-34.2	18.2	6.01e-01	0	43	102	524288	21	5511
2026-01-04 03:38:45.58	278.64	20.36	-30.0	-32.9	19.0	6.05e-01	0	43	102	524288	21	5024
2026-01-04 03:38:48.59	277.88	20.13	-29.8	-32.4	19.3	6.03e-01	0	43	102	524288	21	4845
2026-01-04 03:38:51.60	277.13	19.90	-29.9	-32.7	19.1	6.03e-01	0	43	102	524288	21	4966
2026-01-04 03:38:54.62	276.39	19.66	-30.0	-33.4	18.9	6.03e-01	0	43	102	524288	20	5324
2026-01-04 03:38:57.64	275.66	19.42	-30.2	-33.5	18.6	6.03e-01	0	43	102	524288	21	5240
2026-01-04 03:39:00.66	274.94	19.18	-30.2	-33.5	18.6	6.02e-01	0	43	102	524288	21	5258
2026-01-04 03:39:03.68	274.23	18.94	-30.3	-33.8	18.4	6.04e-01	0	43	102	524288	21	5380
2026-01-04 03:39:06.70	273.54	18.70	-30.0	-33.0	18.7	6.03e-01	0	43	102	524288	21	5056
2026-01-04 03:39:09.71	272.86	18.45	-29.9	-33.2	18.6	6.03e-01	0	43	102	524288	20	5254
2026-01-04 03:39:12.72	272.19	18.21	-29.9	-33.1	19.1	6.03e-01	0	43	102	524288	20	5232
2026-01-04 03:39:15.73	271.53	17.96	-29.9	-33.1	19.1	6.03e-01	0	43	102	524288	20	5224
2026-01-04 03:39:18.76	270.88	17.71	-29.8	-32.8	19.2	6.02e-01	0	43	102	524288	20	5126
2026-01-04 03:39:21.77	270.25	17.46	-30.0	-33.5	18.8	6.03e-01	0	43	102	524288	20	5390
2026-01-04 03:39:24.78	269.63	17.21	-30.1	-33.7	18.7	6.04e-01	0	43	102	524288	20	5467
2026-01-04 03:39:27.81	269.01	16.96	-30.0	-33.5	18.8	6.03e-01	0	43	102	524288	20	5396
2026-01-04 03:39:30.82	268.41	16.71	-30.3	-33.7	18.3	6.03e-01	0	43	102	524288	21	5366
2026-01-04 03:39:33.84	267.82	16.46	-29.8	-32.8	19.1	6.04e-01	0	43	102	524288	20	5139
2026-01-04 03:39:36.84	267.24	16.21	-29.9	-33.3	18.9	6.02e-01	0	43	102	524288	20	5295
2026-01-04 03:39:39.86	266.67	15.96	-29.9	-33.2	18.9	6.02e-01	0	43	102	524288	20	5275
2026-01-04 03:39:42.87	266.11	15.71	-29.7	-32.8	19.1	6.01e-01	0	43	102	524288	20	5127
2026-01-04 03:39:45.89	265.55	15.46	-30.1	-33.7	18.5	6.04e-01	0	43	102	524288	20	5494
2026-01-04 03:39:48.91	265.01	15.21	-29.8	-32.9	19.1	6.02e-01	0	43	102	524288	20	5162
2026-01-04 03:39:51.93	264.48	14.96	-29.8	-33.0	19.0	6.01e-01	0	43	102	524288	20	5197
2026-01-04 03:39:54.95	263.96	14.71	-29.8	-33.1	18.9	6.05e-01	0	43	102	524288	20	5236
2026-01-04 03:39:57.97	263.44	14.46	-29.8	-33.0	19.0	6.03e-01	0	43	102	524288	20	5189
2026-01-04 03:40:00.99	262.94	14.21	-29.9	-33.3	18.8	6.03e-01	0	43	102	524288	20	5307
2026-01-04 03:40:04.01	262.44	13.96	-29.9	-33.2	18.8	6.03e-01	0	43	102	524288	20	5293
2026-01-04 03:40:07.04	261.96	13.71	-29.9	-33.2	18.8	6.02e-01	0	43	102	524288	20	5304
2026-01-04 03:40:10.06	261.48	13.47	-29.9	-33.2	18.7	6.03e-01	0	43	102	524288	20	5315
2026-01-04 03:40:13.06	261.01	13.22	-29.9	-33.4	18.6	6.03e-01	0	43	102	524288	20	5373
2026-01-04 03:40:16.08	260.55	12.98	-29.9	-33.5	18.6	6.01e-01	0	43	102	524288	20	5402
2026-01-04 03:40:19.09	260.10	12.74	-30.0	-33.8	18.3	6.05e-01	0	43	102	524288	20	5524
2026-01-04 03:40:22.11	259.66	12.50	-29.9	-33.5	18.5	6.04e-01	0	43	102	524288	20	5425
2026-01-04 03:40:25.13	259.22	12.25	-30.0	-33.6	18.4	6.01e-01	0	43	102	524288	20	5479
2026-01-04 03:40:28.15	258.79	12.01	-29.9	-33.5	18.5	6.02e-01	0	43	102	524288	20	5424
2026-01-04 03:40:31.17	258.37	11.78	-29.9	-33.5	18.5	6.01e-01	0	43	102	524288	20	5423
2026-01-04 03:40:34.18	257.96	11.54	-28.9	-32.8	18.3	6.04e-01	0	43	102	524288	20	5622
2026-01-04 03:40:37.19	257.55	11.30	-30.1	-33.5	18.1	6.03e-01	0	43	102	524288	21	5335
2026-01-04 03:40:40.22	257.15	11.07	-30.0	-33.2	18.3	6.02e-01	0	43	102	524288	21	5216
2026-01-04 03:40:43.24	256.76	10.83	-30.0	-33.7	18.2	6.03e-01	0	43	102	524288	20	5537
2026-01-04 03:40:46.26	256.37	10.60	-30.2	-33.7	18.0	6.02e-01	0	43	102	524288	21	5385
2026-01-04 03:40:49.28	256.00	10.37	-30.1	-33.6	18.0	6.04e-01	0	43	102	524288	21	5367
2026-01-04 03:40:52.30	255.62	10.14	-30.1	-34.0	18.0	6.02e-01	0	43	102	524288	20	5632
2026-01-04 03:40:55.33	255.26	9.91	-30.1	-33.5	18.1	6.03e-01	0	43	102	524288	21	5317
2026-01-04 03:40:58.34	254.90	9.68	-30.1	-33.7	17.9	6.02e-01	0	43	102	524288	21	5412
2026-01-04 03:41:01.36	254.54	9.46	-30.1	-33.7	17.9	6.02e-01	0	43	102	524288	21	5400
2026-01-04 03:41:04.38	254.19	9.23	-30.2	-33.8	17.8	6.03e-01	0	43	102	524288	21	5455
2026-01-04 03:41:07.40	253.85	9.01	-30.2	-34.0	17.6	6.02e-01	0	43	102	524288	21	5547
2026-01-04 03:41:10.43	253.52	8.79	-30.4	-34.5	17.2	6.02e-01	0	43	102	524288	21	5760
2026-01-04 03:41:13.45	253.18	8.56	-30.5	-34.9	16.9	6.03e-01	0	43	102	524288	21	5954
2026-01-04 03:41:16.47	252.86	8.34	-30.4	-34.7	17.1	6.03e-01	0	43	102	524288	21	5864
2026-01-04 03:41:19.50	252.54	8.13	-30.3	-34.4	17.2	6.03e-01	0	43	102	524288	21	5729
2026-01-04 03:41:22.52	252.22	7.91	-30.3	-34.4	17.2	6.03e-01	0	43	102	524288	21	5728
2026-01-04 03:41:25.51	251.92	7.69	-30.4	-34.6	17.0	6.03e-01	0	43	102	524288	21	5846
2026-01-04 03:41:28.54	251.61	7.48	-30.5	-34.9	16.8	6.05e-01	0	43	102	524288	21	6001
2026-01-04 03:41:31.56	251.31	7.27	-30.5	-34.4	16.8	6.02e-01	0	43	102	524288	22	5662
2026-01-04 03:41:34.58	251.02	7.05	-33.3	-51.5	3.9	7.46e-01	0	43	104	524288	27	29238

#Closed at: 2026-01-04 03:41:35
#Recorded file [0 MB]: D:/data/31010_260104_063425.dat