passes_logs/2026/01/04/R2M6_AANII_01/R2M6_AANII_01__20260104_111415_SUOMI_NPP_rec.log

#Pass ID: 20260104_111415_SUOMI NPP
#Satellite: SUOMI NPP
#Configuration: NPP
#almurnet v.1.7.20240730
#Start time: 2026-01-04 11:14:15

#Version: 2.2.20231116
#Station: R2M6_AANII_01
#Location: 30.233357 lon 59.946436 lat
#TLE: 1 37849U 11061A   26001.07732418  .00000182  00000+0  10735-3 0  9990
#TLE: 2 37849  98.7795 303.2470 0002580  87.2016 272.9455 14.19520779734739

#Time	Az	El	Level	Level2	SNR	BER	BlckErr	Temp	State	Recorded	gain1	gain2
2026-01-04 11:14:15.77	186.99	6.99	-31.0	-33.9	5.3	1.23e+00	0	40	0	0	23	5010
2026-01-04 11:14:18.79	187.15	7.21	-31.4	-35.1	8.5	4.29e-02	0	41	102	1048576	23	5557
2026-01-04 11:14:21.81	187.31	7.43	-31.3	-35.0	8.6	6.14e-02	0	41	102	1048576	23	5459
2026-01-04 11:14:24.83	187.48	7.66	-30.8	-33.0	10.2	8.55e-03	0	41	102	1048576	23	4646
2026-01-04 11:14:27.84	187.64	7.89	-30.8	-33.6	10.1	7.02e-03	0	41	102	1048576	22	4926
2026-01-04 11:14:30.86	187.81	8.12	-30.9	-33.7	10.1	7.11e-03	0	41	102	1048576	22	4973
2026-01-04 11:14:33.88	187.98	8.35	-31.0	-34.0	9.9	8.04e-03	0	41	102	1048576	22	5104
2026-01-04 11:14:36.91	188.16	8.58	-31.2	-34.9	9.2	1.30e-02	0	41	102	1048576	22	5490
2026-01-04 11:14:39.92	188.33	8.82	-30.9	-33.8	10.0	7.58e-03	0	41	102	1048576	22	5014
2026-01-04 11:14:42.94	188.51	9.06	-30.9	-33.6	10.2	6.35e-03	0	41	102	1048576	22	4936
2026-01-04 11:14:45.96	188.70	9.30	-31.0	-33.9	10.1	8.36e-03	0	42	102	1048576	22	5028
2026-01-04 11:14:48.99	188.88	9.54	-31.0	-33.8	10.2	5.60e-03	0	41	102	1048576	22	4997
2026-01-04 11:14:52.01	189.07	9.78	-31.0	-34.0	10.1	6.66e-03	0	42	102	1048576	22	5057
2026-01-04 11:14:55.03	189.26	10.03	-31.2	-34.7	9.5	1.23e-02	0	42	102	1048576	22	5385
2026-01-04 11:14:58.05	189.45	10.28	-31.0	-33.9	10.1	8.22e-03	0	42	102	1048576	22	5024
2026-01-04 11:15:01.07	189.65	10.53	-30.8	-33.3	10.6	4.84e-03	0	42	102	1048576	22	4772
2026-01-04 11:15:04.09	189.85	10.78	-30.9	-33.7	10.3	3.91e-03	0	42	102	1048576	22	4936
2026-01-04 11:15:07.11	190.05	11.04	-30.7	-32.8	11.0	2.72e-03	0	42	102	1048576	22	4598
2026-01-04 11:15:10.14	190.26	11.30	-30.4	-32.0	11.7	5.18e-04	0	42	102	1048576	22	4292
2026-01-04 11:15:13.16	190.47	11.56	-30.4	-31.9	11.8	4.62e-04	0	42	102	1048576	22	4276
2026-01-04 11:15:16.18	190.69	11.82	-30.1	-31.6	12.4	1.72e-04	0	42	102	1048576	21	4246
2026-01-04 11:15:19.20	190.91	12.08	-30.0	-31.2	12.6	7.47e-05	0	42	102	1048576	21	4124
2026-01-04 11:15:22.22	191.13	12.35	-30.3	-31.9	12.1	1.82e-04	0	42	102	1048576	21	4350
2026-01-04 11:15:25.24	191.35	12.62	-30.0	-31.0	12.9	6.48e-05	0	42	102	1048576	21	4047
2026-01-04 11:15:28.26	191.58	12.89	-30.1	-31.5	12.5	1.30e-04	0	42	102	1048576	21	4210
2026-01-04 11:15:31.27	191.81	13.17	-30.1	-31.3	12.7	9.23e-05	0	42	102	1048576	21	4130
2026-01-04 11:15:34.30	192.05	13.45	-30.1	-31.5	12.6	7.24e-05	0	42	102	1048576	21	4198
2026-01-04 11:15:37.32	192.30	13.73	-30.0	-31.1	12.9	5.34e-05	0	42	102	1048576	21	4075
2026-01-04 11:15:40.34	192.54	14.01	-30.0	-30.9	13.0	5.95e-05	0	43	102	1048576	21	4025
2026-01-04 11:15:43.35	192.79	14.30	-29.8	-30.9	13.3	2.59e-05	0	42	102	1048576	20	4104
2026-01-04 11:15:46.37	193.05	14.59	-29.7	-30.8	13.4	1.14e-05	0	42	102	1048576	20	4070
2026-01-04 11:15:49.39	193.31	14.88	-29.7	-30.8	13.4	2.36e-05	0	42	102	1048576	20	4071
2026-01-04 11:15:52.42	193.58	15.18	-29.7	-30.8	13.5	1.22e-05	0	43	102	1048576	20	4057
2026-01-04 11:15:55.44	193.85	15.48	-29.5	-30.2	13.9	8.30e-06	0	42	102	1048576	20	3898
2026-01-04 11:15:58.46	194.12	15.78	-29.5	-30.2	13.9	4.50e-06	0	43	102	1048576	20	3898
2026-01-04 11:16:01.47	194.40	16.08	-29.5	-30.1	14.0	1.50e-06	0	43	102	1048576	20	3873
2026-01-04 11:16:04.49	194.69	16.39	-29.8	-30.8	13.5	1.37e-05	0	42	102	1048576	20	4067
2026-01-04 11:16:07.51	194.98	16.70	-29.5	-30.1	14.1	2.20e-06	0	43	102	1048576	20	3852
2026-01-04 11:16:10.53	195.28	17.02	-29.7	-30.6	13.7	6.10e-06	0	43	102	1048576	20	3989
2026-01-04 11:16:13.56	195.59	17.34	-29.8	-31.0	13.5	6.80e-06	0	43	102	1048576	20	4099
2026-01-04 11:16:16.57	195.90	17.66	-29.9	-31.2	13.4	1.75e-05	0	43	102	1048576	20	4170
2026-01-04 11:16:19.60	196.22	17.98	-30.1	-31.7	13.0	4.04e-05	0	43	102	1048576	20	4332
2026-01-04 11:16:22.61	196.54	18.31	-30.2	-32.0	12.8	4.88e-05	0	43	102	1048576	20	4433
2026-01-04 11:16:25.63	196.87	18.64	-30.3	-32.2	12.8	7.01e-05	0	43	102	1048576	20	4476
2026-01-04 11:16:28.65	197.21	18.98	-30.3	-32.1	12.8	5.56e-05	0	43	102	1048576	20	4456
2026-01-04 11:16:31.67	197.55	19.32	-30.2	-31.8	13.1	3.89e-05	0	43	102	1048576	20	4341
2026-01-04 11:16:34.69	197.91	19.66	-30.0	-31.3	13.4	9.10e-06	0	43	102	1048576	20	4190
2026-01-04 11:16:37.71	198.27	20.01	-30.4	-32.4	12.7	5.41e-05	0	43	102	1048576	20	4558
2026-01-04 11:16:40.73	198.64	20.36	-30.5	-32.2	12.5	1.19e-04	0	43	102	1048576	21	4376
2026-01-04 11:16:43.76	199.02	20.72	-30.4	-31.9	12.7	1.50e-04	0	43	102	1048576	21	4293
2026-01-04 11:16:46.77	199.40	21.07	-30.4	-32.0	12.7	6.40e-05	0	43	102	1048576	21	4327
2026-01-04 11:16:49.79	199.79	21.43	-30.4	-31.9	12.7	2.89e-05	0	43	102	1048576	21	4284
2026-01-04 11:16:52.81	200.20	21.80	-30.3	-31.7	12.9	2.97e-05	0	43	102	1048576	21	4216
2026-01-04 11:16:55.84	200.61	22.17	-30.1	-31.0	13.3	1.90e-05	0	43	102	1048576	21	4023
2026-01-04 11:16:58.85	201.03	22.54	-30.3	-31.6	13.0	2.74e-05	0	43	102	1048576	21	4204
2026-01-04 11:17:01.88	201.47	22.92	-30.4	-31.8	12.9	4.65e-05	0	43	102	1048576	21	4259
2026-01-04 11:17:04.90	201.91	23.31	-30.3	-31.7	12.9	2.44e-05	0	43	102	1048576	21	4232
2026-01-04 11:17:07.93	202.37	23.69	-30.5	-32.1	12.7	3.89e-05	0	43	102	1048576	21	4345
2026-01-04 11:17:10.94	202.83	24.08	-30.3	-31.6	13.0	3.05e-05	0	43	102	1048576	21	4196
2026-01-04 11:17:13.95	203.30	24.47	-30.2	-31.3	13.2	2.05e-05	0	43	102	1048576	21	4094
2026-01-04 11:17:16.98	203.79	24.87	-30.3	-31.6	13.1	3.35e-05	0	43	102	1048576	21	4171
2026-01-04 11:17:19.99	204.29	25.27	-30.4	-32.0	12.8	4.19e-05	0	43	102	1048576	21	4291
2026-01-04 11:17:23.01	204.80	25.68	-30.3	-31.6	13.1	4.11e-05	0	43	102	1048576	21	4187
2026-01-04 11:17:26.03	205.33	26.09	-30.0	-30.7	13.7	3.80e-06	0	43	102	1048576	21	3925
2026-01-04 11:17:29.04	205.87	26.50	-30.2	-31.2	13.3	1.75e-05	0	43	102	1048576	21	4060
2026-01-04 11:17:32.05	206.42	26.91	-30.1	-31.1	13.4	2.21e-05	0	43	102	1048576	21	4027
2026-01-04 11:17:35.06	206.98	27.33	-30.1	-31.0	13.5	1.06e-05	0	43	102	1048576	21	4007
2026-01-04 11:17:38.08	207.56	27.75	-30.3	-31.6	13.2	1.14e-05	0	43	102	1048576	21	4162
2026-01-04 11:17:41.10	208.16	28.18	-30.6	-32.5	12.6	1.27e-04	0	43	102	1048576	21	4447
2026-01-04 11:17:44.11	208.77	28.61	-31.3	-34.0	11.3	8.54e-04	0	43	102	1048576	22	4887
2026-01-04 11:17:47.13	209.40	29.04	-31.7	-34.7	10.3	2.36e-03	0	43	102	1048576	23	5082
2026-01-04 11:17:50.15	210.05	29.48	-31.6	-34.5	10.5	5.74e-03	0	43	102	1048576	23	4990
2026-01-04 11:17:53.17	210.71	29.92	-31.7	-34.6	10.4	2.58e-03	0	43	102	1048576	23	5057
2026-01-04 11:17:56.18	211.39	30.36	-31.7	-34.6	10.5	2.72e-03	0	43	102	1048576	23	5032
2026-01-04 11:17:59.20	212.09	30.80	-31.0	-32.6	11.9	4.42e-04	0	43	102	1048576	23	4310
2026-01-04 11:18:02.21	212.81	31.25	-30.9	-32.2	12.1	1.76e-04	0	43	102	1048576	23	4180
2026-01-04 11:18:05.24	213.55	31.70	-31.3	-33.5	11.3	9.18e-04	0	43	102	1048576	23	4610
2026-01-04 11:18:08.25	214.30	32.14	-31.7	-34.7	10.5	3.41e-03	0	43	102	1048576	23	5062
2026-01-04 11:18:11.28	215.09	32.60	-31.2	-32.8	11.8	5.16e-04	0	43	102	1048576	23	4378
2026-01-04 11:18:14.30	215.89	33.05	-31.0	-32.5	12.1	3.04e-04	0	43	102	1048576	23	4257
2026-01-04 11:18:17.32	216.71	33.50	-31.2	-32.9	11.8	3.22e-04	0	43	102	1048576	23	4399
2026-01-04 11:18:20.34	217.56	33.95	-31.5	-33.9	11.1	1.09e-03	0	43	102	1048576	23	4743
2026-01-04 11:18:23.36	218.43	34.40	-31.9	-35.2	10.2	5.71e-03	0	43	102	1048576	23	5263
2026-01-04 11:18:26.39	219.33	34.86	-31.0	-32.3	12.2	3.48e-04	0	43	102	1048576	23	4212
2026-01-04 11:18:29.41	220.24	35.31	-31.6	-34.1	11.0	1.84e-03	0	43	102	1048576	23	4817
2026-01-04 11:18:32.42	221.18	35.75	-31.6	-34.2	10.9	1.26e-03	0	43	102	1048576	23	4864
2026-01-04 11:18:35.44	222.15	36.20	-30.9	-32.2	12.3	2.40e-04	0	43	102	1048576	23	4172
2026-01-04 11:18:38.46	223.15	36.64	-31.7	-34.5	10.7	1.80e-03	0	43	102	1048576	23	4986
2026-01-04 11:18:41.49	224.17	37.08	-31.2	-33.1	11.8	6.29e-04	0	43	102	1048576	23	4442
2026-01-04 11:18:44.51	225.22	37.51	-31.5	-33.8	11.3	8.20e-04	0	43	102	1048576	23	4693
2026-01-04 11:18:47.52	226.30	37.94	-30.9	-32.1	12.4	1.14e-04	0	43	102	1048576	23	4132
2026-01-04 11:18:50.55	227.41	38.36	-32.1	-35.4	9.8	6.45e-03	0	43	102	1048576	24	5254
2026-01-04 11:18:53.57	228.54	38.78	-31.5	-33.3	11.2	2.35e-03	0	43	102	1048576	24	4442
2026-01-04 11:18:56.60	229.71	39.19	-31.6	-33.7	11.0	2.49e-03	0	43	102	1048576	24	4580
2026-01-04 11:18:59.61	230.89	39.58	-31.6	-33.6	11.0	3.55e-03	0	43	102	1048576	24	4558
2026-01-04 11:19:02.62	232.11	39.97	-30.8	-31.9	12.6	3.54e-04	0	43	102	1048576	23	4059
2026-01-04 11:19:05.64	233.36	40.35	-31.0	-32.8	12.3	1.71e-04	0	43	102	1048576	22	4439
2026-01-04 11:19:08.67	234.64	40.72	-30.7	-31.9	12.8	5.79e-05	0	43	102	1048576	22	4148
2026-01-04 11:19:11.69	235.94	41.07	-31.0	-32.8	12.3	1.33e-04	0	43	102	1048576	22	4449
2026-01-04 11:19:14.71	237.28	41.42	-31.1	-33.1	12.2	2.61e-04	0	43	102	1048576	22	4535
2026-01-04 11:19:17.72	238.63	41.74	-30.2	-31.2	13.7	1.75e-05	0	43	102	1048576	21	4023
2026-01-04 11:19:20.74	240.02	42.06	-30.4	-31.7	13.4	1.52e-05	0	43	102	1048576	21	4165
2026-01-04 11:19:23.77	241.44	42.35	-31.1	-33.0	12.2	1.62e-04	0	43	102	1048576	22	4491
2026-01-04 11:19:26.79	242.88	42.63	-31.4	-33.5	11.6	7.79e-04	0	43	102	1048576	23	4564
2026-01-04 11:19:29.80	244.34	42.89	-30.8	-32.1	12.8	6.48e-05	0	43	102	1048576	22	4212
2026-01-04 11:19:32.82	245.82	43.13	-31.4	-34.0	11.5	2.61e-04	0	43	102	1048576	22	4846
2026-01-04 11:19:35.85	247.34	43.36	-32.1	-35.3	9.8	1.12e-02	0	43	102	1048576	24	5218
2026-01-04 11:19:38.86	248.86	43.56	-30.6	-31.6	13.2	3.89e-05	0	43	102	1048576	22	4064
2026-01-04 11:19:41.88	250.40	43.74	-30.3	-31.4	13.6	6.10e-06	0	43	102	1048576	21	4074
2026-01-04 11:19:44.91	251.97	43.89	-30.8	-32.1	12.8	1.27e-04	0	43	102	1048576	22	4215
2026-01-04 11:19:47.93	253.54	44.03	-31.3	-33.6	11.9	2.43e-04	0	43	102	1048576	22	4693
2026-01-04 11:19:50.95	255.13	44.14	-31.3	-33.1	11.9	2.43e-04	0	43	102	1048576	23	4418
2026-01-04 11:19:53.97	256.73	44.23	-31.1	-32.7	12.1	3.13e-04	0	43	102	1048576	23	4302
2026-01-04 11:19:56.99	258.33	44.29	-31.1	-33.0	12.3	1.39e-04	0	43	102	1048576	22	4487
2026-01-04 11:20:00.01	259.94	44.33	-31.2	-32.9	11.8	7.05e-04	0	43	102	1048576	23	4370
2026-01-04 11:20:03.03	261.55	44.34	-29.3	-29.3	15.2	0.00e+00	0	43	102	1048576	20	3595
2026-01-04 11:20:06.04	263.16	44.33	-29.6	-30.6	14.9	0.00e+00	0	43	102	1048576	19	4014
2026-01-04 11:20:09.07	264.77	44.30	-30.5	-31.8	13.4	1.52e-05	0	43	102	1048576	21	4210
2026-01-04 11:20:12.08	266.37	44.24	-30.5	-31.9	13.3	2.13e-05	0	43	102	1048576	21	4215
2026-01-04 11:20:15.10	267.97	44.15	-31.0	-32.9	12.4	3.09e-04	0	43	102	1048576	22	4444
2026-01-04 11:20:18.13	269.56	44.05	-30.2	-31.2	13.8	1.50e-06	0	43	102	1048576	21	4018
2026-01-04 11:20:21.15	271.13	43.92	-29.8	-30.1	14.5	1.50e-06	0	43	102	1048576	21	3708
2026-01-04 11:20:24.17	272.70	43.76	-31.5	-33.8	11.5	1.08e-03	0	43	102	1048576	23	4685
2026-01-04 11:20:27.20	274.25	43.59	-31.5	-33.6	11.6	4.46e-04	0	43	102	1048576	23	4600
2026-01-04 11:20:30.23	275.78	43.39	-32.3	-35.5	9.4	1.27e-02	0	43	102	1048576	25	5178
2026-01-04 11:20:33.25	277.29	43.17	-31.9	-34.4	10.6	4.41e-03	0	43	102	1048576	24	4807
2026-01-04 11:20:36.28	278.78	42.93	-31.7	-33.9	11.0	1.67e-03	0	43	102	1048576	24	4617
2026-01-04 11:20:39.29	280.24	42.67	-33.2	-38.6	6.8	1.13e-01	0	43	102	1048576	26	6704
2026-01-04 11:20:42.31	281.68	42.40	-32.6	-36.0	8.7	7.14e-02	0	43	102	1048576	26	5332
2026-01-04 11:20:45.33	283.09	42.11	-32.2	-35.0	9.9	5.38e-03	0	43	102	1048576	25	4977
2026-01-04 11:20:48.34	284.48	41.80	-31.8	-33.7	10.8	4.39e-03	0	43	102	1048576	25	4480
2026-01-04 11:20:51.37	285.84	41.47	-31.9	-34.3	10.8	2.61e-03	0	43	102	1048576	24	4763
2026-01-04 11:20:54.38	287.17	41.13	-31.7	-33.8	11.1	1.52e-03	0	43	102	1048576	24	4599
2026-01-04 11:20:57.40	288.48	40.78	-32.7	-37.0	8.3	3.97e-02	0	43	102	1048576	25	5897
2026-01-04 11:21:00.43	289.76	40.42	-32.7	-36.7	8.6	3.48e-02	0	43	102	1048576	25	5746
2026-01-04 11:21:03.45	291.01	40.04	-32.2	-35.0	9.8	1.15e-02	0	43	102	1048576	25	4957
2026-01-04 11:21:06.46	292.23	39.66	-31.3	-33.2	11.9	3.68e-04	0	43	102	1048576	23	4445
2026-01-04 11:21:09.48	293.42	39.26	-31.4	-33.5	11.7	3.58e-04	0	43	102	1048576	23	4547
2026-01-04 11:21:12.50	294.58	38.86	-30.4	-31.1	13.7	1.14e-04	0	43	102	1048576	22	3894
2026-01-04 11:21:15.52	295.72	38.44	-30.2	-31.5	14.0	7.00e-07	0	43	102	1048576	20	4181
2026-01-04 11:21:18.53	296.82	38.03	-29.4	-29.4	15.2	0.00e+00	0	43	102	1048576	20	3632
2026-01-04 11:21:21.56	297.90	37.60	-29.1	-29.3	15.7	0.00e+00	0	43	102	1048576	19	3678
2026-01-04 11:21:24.58	298.95	37.17	-29.1	-29.8	15.6	0.00e+00	0	43	102	1048576	18	3891
2026-01-04 11:21:27.61	299.98	36.73	-28.9	-29.2	16.0	0.00e+00	0	43	102	1048576	18	3746
2026-01-04 11:21:30.62	300.98	36.29	-28.7	-28.9	16.2	0.00e+00	0	43	102	1048576	18	3662
2026-01-04 11:21:33.64	301.95	35.85	-29.3	-30.4	15.3	0.00e+00	0	43	102	1048576	18	4046
2026-01-04 11:21:36.67	302.89	35.41	-29.4	-30.0	15.2	7.00e-07	0	43	102	1048576	19	3868
2026-01-04 11:21:39.70	303.82	34.96	-30.7	-32.5	13.0	2.67e-05	0	43	102	1048576	21	4398
2026-01-04 11:21:42.73	304.72	34.51	-29.6	-30.1	14.8	0.00e+00	0	43	102	1048576	20	3799
2026-01-04 11:21:45.75	305.59	34.06	-31.2	-33.4	12.1	2.39e-04	0	43	102	1048576	22	4619
2026-01-04 11:21:48.77	306.43	33.61	-30.7	-32.0	13.0	1.06e-04	0	43	102	1048576	22	4156
2026-01-04 11:21:51.79	307.26	33.16	-31.1	-33.0	12.4	6.94e-05	0	43	102	1048576	22	4491
2026-01-04 11:21:54.81	308.06	32.71	-32.3	-35.4	9.5	2.65e-02	0	43	102	1048576	25	5128
2026-01-04 11:21:57.83	308.84	32.26	-31.5	-33.1	11.6	4.64e-04	0	43	102	1048576	24	4351
2026-01-04 11:22:00.85	309.60	31.82	-32.4	-36.3	9.3	9.03e-03	0	43	102	1048576	24	5615
2026-01-04 11:22:03.87	310.34	31.37	-32.2	-35.0	9.7	2.34e-02	0	43	102	1048576	25	4988
2026-01-04 11:22:06.87	311.06	30.93	-31.7	-33.9	11.0	1.37e-03	0	43	102	1048576	24	4638
2026-01-04 11:22:09.89	311.76	30.49	-32.3	-35.9	9.5	6.34e-03	0	43	102	1048576	24	5445
2026-01-04 11:22:12.92	312.45	30.05	-32.1	-35.4	9.8	1.11e-02	0	43	102	1048576	24	5207
2026-01-04 11:22:15.93	313.11	29.61	-31.2	-32.7	12.1	1.89e-04	0	43	102	1048576	23	4312
2026-01-04 11:22:18.94	313.75	29.18	-32.6	-36.5	8.6	2.85e-02	0	43	102	1048576	25	5644
2026-01-04 11:22:21.97	314.39	28.75	-31.9	-34.0	10.5	2.65e-02	0	43	102	1048576	25	4597
2026-01-04 11:22:24.98	315.00	28.32	-29.9	-30.2	14.3	7.00e-07	0	43	102	1048576	21	3752
2026-01-04 11:22:28.00	315.60	27.90	-30.9	-33.1	12.5	3.12e-05	0	44	102	1048576	21	4622
2026-01-04 11:22:31.01	316.18	27.48	-31.5	-33.7	11.4	1.41e-03	0	43	102	1048576	23	4646
2026-01-04 11:22:34.03	316.75	27.06	-30.9	-32.1	12.5	1.31e-04	0	43	102	1048576	23	4129
2026-01-04 11:22:37.05	317.30	26.64	-31.2	-32.9	11.9	1.58e-04	0	43	102	1048576	23	4378
2026-01-04 11:22:40.08	317.85	26.23	-31.3	-33.2	11.7	3.38e-04	0	43	102	1048576	23	4492
2026-01-04 11:22:43.10	318.37	25.83	-30.7	-31.9	13.0	6.40e-05	0	43	102	1048576	22	4138
2026-01-04 11:22:46.11	318.89	25.42	-30.7	-32.0	12.9	1.98e-05	0	43	102	1048576	22	4165
2026-01-04 11:22:49.14	319.39	25.02	-30.8	-32.2	12.7	1.68e-04	0	43	102	1048576	22	4254
2026-01-04 11:22:52.15	319.88	24.63	-30.7	-32.1	12.7	8.23e-05	0	43	102	1048576	22	4206
2026-01-04 11:22:55.17	320.35	24.24	-31.2	-33.6	11.7	3.39e-04	0	43	102	1048576	22	4728
2026-01-04 11:22:58.18	320.82	23.85	-31.1	-32.5	12.1	5.65e-04	0	43	102	1048576	23	4274
2026-01-04 11:23:01.20	321.27	23.47	-30.0	-30.5	14.0	7.60e-06	0	43	102	1048576	21	3848
2026-01-04 11:23:04.23	321.72	23.09	-29.8	-30.5	14.3	7.00e-07	0	43	102	1048576	20	3930
2026-01-04 11:23:07.25	322.15	22.71	-30.2	-31.8	13.5	6.80e-06	0	43	102	1048576	20	4292
2026-01-04 11:23:10.27	322.58	22.34	-30.7	-32.7	12.6	8.39e-05	0	43	102	1048576	21	4495
2026-01-04 11:23:13.28	322.99	21.97	-31.1	-33.4	11.8	3.65e-04	0	43	102	1048576	22	4647
2026-01-04 11:23:16.30	323.40	21.61	-30.9	-32.7	12.2	1.70e-04	0	43	102	1048576	22	4413
2026-01-04 11:23:19.32	323.79	21.24	-30.9	-32.7	12.3	1.98e-04	0	43	102	1048576	22	4405
2026-01-04 11:23:22.34	324.18	20.89	-31.0	-33.1	11.9	3.81e-04	0	43	102	1048576	22	4552
2026-01-04 11:23:25.36	324.56	20.53	-31.0	-33.1	11.9	5.07e-04	0	43	102	1048576	22	4558
2026-01-04 11:23:28.38	324.93	20.19	-30.9	-32.7	12.2	2.43e-04	0	43	102	1048576	22	4421
2026-01-04 11:23:31.40	325.29	19.84	-30.2	-31.2	13.4	2.05e-05	0	43	102	1048576	21	4053
2026-01-04 11:23:34.42	325.65	19.50	-30.2	-31.1	13.6	3.80e-06	0	43	102	1048576	21	4016
2026-01-04 11:23:37.44	326.00	19.16	-30.0	-30.8	13.7	3.80e-06	0	43	102	1048576	21	3938
2026-01-04 11:23:40.47	326.34	18.82	-30.5	-32.1	12.9	3.05e-05	0	43	102	1048576	21	4321
2026-01-04 11:23:43.49	326.67	18.49	-31.0	-33.4	11.9	2.39e-04	0	43	102	1048576	21	4771
2026-01-04 11:23:46.51	327.00	18.17	-31.0	-33.0	11.9	4.71e-04	0	43	102	1048576	22	4545
2026-01-04 11:23:49.53	327.32	17.84	-30.7	-32.0	12.5	2.13e-04	0	43	102	1048576	22	4222
2026-01-04 11:23:52.55	327.63	17.52	-30.4	-31.2	13.0	5.11e-05	0	43	102	1048576	22	3971
2026-01-04 11:23:55.57	327.94	17.21	-30.3	-31.6	13.1	2.59e-05	0	43	102	1048576	21	4186
2026-01-04 11:23:58.60	328.24	16.89	-30.7	-32.7	12.4	1.40e-04	0	43	102	1048576	21	4528
2026-01-04 11:24:01.62	328.53	16.58	-31.1	-33.3	11.5	6.44e-04	0	43	102	1048576	22	4684
2026-01-04 11:24:04.64	328.82	16.27	-31.3	-33.9	11.1	1.22e-03	0	43	102	1048576	22	4891
2026-01-04 11:24:07.66	329.11	15.97	-31.3	-34.1	11.0	1.75e-03	0	43	102	1048576	22	4977
2026-01-04 11:24:10.69	329.39	15.67	-31.3	-34.0	11.0	2.47e-03	0	43	102	1048576	22	4914
2026-01-04 11:24:13.71	329.66	15.37	-31.1	-33.3	11.5	9.53e-04	0	43	102	1048576	22	4674
2026-01-04 11:24:16.74	329.93	15.07	-31.2	-33.9	11.0	1.88e-03	0	43	102	1048576	22	4879
2026-01-04 11:24:19.76	330.19	14.78	-31.2	-33.9	11.1	2.03e-03	0	44	102	1048576	22	4890
2026-01-04 11:24:22.77	330.45	14.49	-31.3	-33.7	10.8	3.08e-03	0	43	102	1048576	23	4746
2026-01-04 11:24:25.80	330.70	14.21	-31.4	-33.8	10.7	2.12e-03	0	43	102	1048576	23	4784
2026-01-04 11:24:28.82	330.95	13.93	-31.3	-33.5	10.9	2.33e-03	0	43	102	1048576	23	4678
2026-01-04 11:24:31.84	331.20	13.65	-31.1	-33.1	11.2	1.35e-03	0	43	102	1048576	23	4526
2026-01-04 11:24:34.86	331.44	13.37	-30.9	-32.3	11.7	6.95e-04	0	43	102	1048576	23	4259
2026-01-04 11:24:37.89	331.67	13.09	-30.7	-32.3	12.0	4.09e-04	0	43	102	1048576	22	4345
2026-01-04 11:24:40.91	331.90	12.82	-30.4	-31.5	12.6	1.41e-04	0	43	102	1048576	22	4091
2026-01-04 11:24:43.93	332.13	12.55	-30.4	-31.4	12.6	1.10e-04	0	43	102	1048576	22	4055
2026-01-04 11:24:46.95	332.36	12.29	-30.4	-31.5	12.5	9.46e-05	0	43	102	1048576	22	4093
2026-01-04 11:24:49.97	332.58	12.02	-30.4	-31.6	12.4	1.52e-04	0	43	102	1048576	22	4119
2026-01-04 11:24:52.99	332.79	11.76	-30.7	-32.3	11.9	2.95e-04	0	43	102	1048576	22	4342
2026-01-04 11:24:56.01	333.01	11.50	-31.0	-33.2	11.3	6.94e-04	0	43	102	1048576	22	4662
2026-01-04 11:24:59.03	333.22	11.24	-31.1	-33.7	10.9	1.96e-03	0	43	102	1048576	22	4865
2026-01-04 11:25:02.05	333.42	10.99	-31.2	-34.0	10.7	3.50e-03	0	43	102	1048576	22	4979
2026-01-04 11:25:05.07	333.63	10.74	-31.2	-34.2	10.5	4.90e-03	0	43	102	1048576	22	5061
2026-01-04 11:25:08.10	333.83	10.49	-31.4	-34.6	10.2	6.12e-03	0	43	102	1048576	22	5241
2026-01-04 11:25:11.12	334.02	10.24	-31.6	-34.8	9.7	1.05e-02	0	43	102	1048576	23	5216
2026-01-04 11:25:14.15	334.22	9.99	-31.5	-34.5	9.8	8.29e-03	0	43	102	1048576	23	5104
2026-01-04 11:25:17.18	334.41	9.75	-31.5	-34.8	9.7	1.11e-02	0	43	102	1048576	23	5218
2026-01-04 11:25:20.21	334.60	9.51	-31.4	-34.4	9.8	1.32e-02	0	43	102	1048576	23	5080
2026-01-04 11:25:23.23	334.78	9.27	-31.4	-34.2	10.0	8.30e-03	0	43	102	1048576	23	4994
2026-01-04 11:25:26.24	334.96	9.03	-31.4	-34.3	9.9	7.31e-03	0	43	102	1048576	23	5032
2026-01-04 11:25:29.27	335.14	8.80	-31.3	-34.1	10.0	7.44e-03	0	43	102	1048576	23	4965
2026-01-04 11:25:32.29	335.32	8.56	-31.3	-34.1	10.0	8.55e-03	0	43	102	1048576	23	4957
2026-01-04 11:25:35.31	335.49	8.33	-31.3	-34.2	9.9	8.94e-03	0	43	102	1048576	23	5014
2026-01-04 11:25:38.33	335.67	8.10	-31.4	-34.6	9.6	1.35e-02	0	43	102	1048576	23	5173
2026-01-04 11:25:41.35	335.83	7.88	-31.4	-34.7	9.4	1.24e-02	0	43	102	1048576	23	5222
2026-01-04 11:25:44.38	336.00	7.65	-31.4	-34.6	9.4	1.82e-02	0	43	102	1048576	23	5222
2026-01-04 11:25:47.40	336.17	7.43	-31.3	-34.4	9.6	1.50e-02	0	43	102	1048576	23	5127
2026-01-04 11:25:50.41	336.33	7.21	-31.5	-35.1	8.9	2.44e-02	0	43	102	1048576	23	5457

#Closed at: 2026-01-04 11:25:53
#Recorded file [1 MB]: D:/data/31010_260104_141417.dat