passes_logs/2026/01/04/R2M6_AANII_01/R2M6_AANII_01__20260104_022205_FENGYUN_3D_rec.log

#Pass ID: 20260104_022205_FENGYUN 3D
#Satellite: FENGYUN 3D
#Configuration: FENGYUN 3D
#almurnet v.1.7.20240730
#Start time: 2026-01-04 02:22:05

#Version: 2.2.20231116
#Station: R2M6_AANII_01
#Location: 30.233357 lon 59.946436 lat
#TLE: 1 43010U 17072A   26003.51579816  .00000092  00000+0  65324-4 0  9992
#TLE: 2 43010  98.9912 335.1548 0001916 128.4619 231.6729 14.19692074421623

#Time	Az	El	Level	Level2	SNR	BER	BlckErr	Temp	State	Recorded	gain1	gain2
2026-01-04 02:22:05.84	18.80	6.99	-29.5	-32.6	5.4	7.89e-01	0	40	0	0	19	5152
2026-01-04 02:22:08.85	18.82	7.22	-29.8	-33.2	9.5	1.74e-02	0	41	102	1048576	19	5364
2026-01-04 02:22:11.86	18.84	7.46	-29.9	-33.5	9.3	2.49e-02	0	41	102	1048576	19	5464
2026-01-04 02:22:14.88	18.86	7.69	-29.7	-33.0	9.7	1.53e-02	0	41	102	1048576	19	5264
2026-01-04 02:22:17.90	18.88	7.93	-29.3	-31.9	10.5	7.25e-03	0	41	102	1048576	19	4850
2026-01-04 02:22:20.91	18.90	8.17	-28.0	-29.6	12.5	2.41e-04	0	41	102	1048576	17	4342
2026-01-04 02:22:23.93	18.92	8.42	-27.0	-28.3	13.8	1.02e-05	0	41	102	1048576	15	4187
2026-01-04 02:22:26.95	18.93	8.66	-26.7	-28.6	14.2	3.40e-06	0	41	102	1048576	13	4468
2026-01-04 02:22:29.96	18.95	8.91	-26.7	-28.5	14.3	0.00e+00	0	41	102	1048576	13	4442
2026-01-04 02:22:32.99	18.97	9.16	-26.7	-28.6	14.2	3.40e-06	0	41	102	1048576	13	4463
2026-01-04 02:22:36.01	18.99	9.42	-26.8	-28.9	14.1	2.20e-06	0	41	102	1048576	13	4560
2026-01-04 02:22:39.02	19.01	9.67	-26.4	-28.5	14.6	2.20e-06	0	41	102	1048576	12	4557
2026-01-04 02:22:42.04	19.03	9.93	-26.5	-28.1	14.6	0.00e+00	0	42	102	1048576	13	4327
2026-01-04 02:22:45.05	19.05	10.19	-26.4	-28.3	14.7	0.00e+00	0	42	102	1048576	12	4514
2026-01-04 02:22:48.08	19.07	10.46	-26.3	-28.2	14.8	0.00e+00	0	41	102	1048576	12	4480
2026-01-04 02:22:51.11	19.09	10.73	-26.4	-28.4	14.7	0.00e+00	0	42	102	1048576	12	4514
2026-01-04 02:22:54.13	19.11	11.00	-26.5	-28.2	14.6	0.00e+00	0	42	102	1048576	13	4343
2026-01-04 02:22:57.14	19.13	11.27	-26.3	-28.1	14.9	0.00e+00	0	42	102	1048576	12	4443
2026-01-04 02:23:00.16	19.15	11.55	-26.2	-27.9	15.0	1.10e-06	0	42	102	1048576	12	4392
2026-01-04 02:23:03.17	19.17	11.83	-26.2	-28.0	15.0	0.00e+00	0	42	102	1048576	12	4407
2026-01-04 02:23:06.20	19.19	12.11	-26.1	-27.8	15.2	0.00e+00	0	42	102	1048576	12	4346
2026-01-04 02:23:09.23	19.21	12.40	-26.1	-27.7	15.2	0.00e+00	0	42	102	1048576	12	4317
2026-01-04 02:23:12.24	19.23	12.69	-26.1	-27.8	15.2	0.00e+00	0	42	102	1048576	12	4340
2026-01-04 02:23:15.25	19.25	12.98	-26.1	-27.7	15.2	0.00e+00	0	42	102	1048576	12	4318
2026-01-04 02:23:18.26	19.28	13.27	-26.1	-27.6	15.3	0.00e+00	0	42	102	1048576	12	4302
2026-01-04 02:23:21.28	19.30	13.58	-26.4	-28.3	14.9	1.10e-06	0	42	102	1048576	12	4489
2026-01-04 02:23:24.31	19.32	13.88	-26.4	-28.4	14.9	0.00e+00	0	42	102	1048576	12	4527
2026-01-04 02:23:27.32	19.34	14.19	-26.3	-27.7	15.0	0.00e+00	0	42	102	1048576	13	4200
2026-01-04 02:23:30.34	19.36	14.50	-25.8	-27.1	15.6	0.00e+00	0	42	102	1048576	12	4170
2026-01-04 02:23:33.36	19.38	14.82	-25.9	-27.8	15.6	0.00e+00	0	42	102	1048576	11	4450
2026-01-04 02:23:36.38	19.41	15.14	-26.2	-27.9	15.2	0.00e+00	0	42	102	1048576	12	4376
2026-01-04 02:23:39.40	19.43	15.46	-25.7	-26.8	15.9	0.00e+00	0	42	102	1048576	12	4080
2026-01-04 02:23:42.41	19.45	15.79	-25.7	-27.4	15.9	0.00e+00	0	42	102	1048576	11	4337
2026-01-04 02:23:45.42	19.47	16.12	-25.4	-26.5	16.3	0.00e+00	0	42	102	1048576	11	4120
2026-01-04 02:23:48.44	19.50	16.46	-25.4	-27.1	16.3	0.00e+00	0	42	102	1048576	10	4387
2026-01-04 02:23:51.46	19.52	16.80	-24.9	-26.1	16.9	0.00e+00	0	42	102	1048576	10	4116
2026-01-04 02:23:54.46	19.54	17.15	-24.9	-26.0	17.0	0.00e+00	0	43	102	1048576	10	4085
2026-01-04 02:23:57.47	19.57	17.50	-24.7	-26.2	17.1	0.00e+00	0	43	102	1048576	9	4243
2026-01-04 02:24:00.48	19.59	17.86	-24.8	-26.4	17.0	0.00e+00	0	43	102	1048576	9	4295
2026-01-04 02:24:03.49	19.62	18.22	-24.6	-25.8	17.3	3.29e-04	0	43	102	1048576	9	4154
2026-01-04 02:24:06.51	19.64	18.59	-24.4	-25.5	17.5	0.00e+00	0	43	102	1048576	9	4065
2026-01-04 02:24:09.53	19.67	18.96	-24.3	-25.8	17.6	0.00e+00	0	42	102	1048576	8	4255
2026-01-04 02:24:12.55	19.69	19.34	-24.3	-25.8	17.6	3.46e-04	0	43	102	1048576	8	4249
2026-01-04 02:24:15.57	19.72	19.73	-24.2	-25.6	17.7	3.22e-04	0	43	102	1048576	8	4202
2026-01-04 02:24:18.59	19.74	20.12	-24.2	-25.6	17.7	0.00e+00	0	43	102	1048576	8	4213
2026-01-04 02:24:21.61	19.77	20.52	-24.0	-25.0	18.0	3.34e-04	0	43	102	1048576	8	4068
2026-01-04 02:24:24.63	19.80	20.93	-24.0	-25.1	18.0	3.11e-04	0	43	102	1048576	8	4073
2026-01-04 02:24:27.65	19.82	21.34	-24.2	-25.4	17.9	0.00e+00	0	43	102	1048576	8	4162
2026-01-04 02:24:30.67	19.85	21.76	-24.4	-25.5	17.6	3.08e-04	0	43	102	1048576	9	4072
2026-01-04 02:24:33.69	19.88	22.18	-24.5	-25.6	17.5	3.04e-04	0	43	102	1048576	9	4096
2026-01-04 02:24:36.71	19.91	22.62	-24.3	-25.3	17.7	0.00e+00	0	43	102	1048576	9	4011
2026-01-04 02:24:39.74	19.94	23.06	-24.2	-25.6	17.9	0.00e+00	0	43	102	1048576	8	4205
2026-01-04 02:24:42.75	19.97	23.51	-23.9	-24.8	18.3	2.40e-04	0	43	102	1048576	8	4001
2026-01-04 02:24:45.78	20.00	23.96	-23.7	-24.9	18.4	0.00e+00	0	43	102	1048576	7	4151
2026-01-04 02:24:48.80	20.03	24.43	-23.6	-24.6	18.6	0.00e+00	0	43	102	1048576	7	4080
2026-01-04 02:24:51.81	20.06	24.90	-23.3	-24.2	18.8	0.00e+00	0	43	102	1048576	7	3964
2026-01-04 02:24:54.83	20.09	25.38	-23.5	-24.5	18.7	0.00e+00	0	43	102	1048576	7	4051
2026-01-04 02:24:57.84	20.12	25.87	-23.5	-24.6	18.7	0.00e+00	0	43	102	1048576	7	4064
2026-01-04 02:25:00.86	20.15	26.37	-23.5	-24.5	18.7	0.00e+00	0	43	102	1048576	7	4034
2026-01-04 02:25:03.87	20.19	26.88	-23.5	-24.5	18.7	0.00e+00	0	43	102	1048576	7	4035
2026-01-04 02:25:06.89	20.22	27.40	-23.2	-23.9	19.0	0.00e+00	0	43	102	1048576	7	3902
2026-01-04 02:25:09.91	20.26	27.92	-23.3	-24.1	19.0	0.00e+00	0	43	102	1048576	7	3941
2026-01-04 02:25:12.92	20.29	28.46	-23.3	-24.2	18.9	0.00e+00	0	43	102	1048576	7	3955
2026-01-04 02:25:15.94	20.33	29.01	-23.5	-24.4	18.8	0.00e+00	0	43	102	1048576	7	4023
2026-01-04 02:25:18.94	20.37	29.57	-23.5	-24.4	18.8	0.00e+00	0	43	102	1048576	7	4029
2026-01-04 02:25:21.97	20.40	30.14	-23.3	-24.2	18.9	0.00e+00	0	43	102	1048576	7	3954
2026-01-04 02:25:24.99	20.44	30.73	-23.6	-24.7	18.7	0.00e+00	0	43	102	1048576	7	4089
2026-01-04 02:25:28.00	20.48	31.32	-23.3	-24.1	19.0	0.00e+00	0	43	102	1048576	7	3955
2026-01-04 02:25:31.02	20.53	31.93	-23.4	-24.3	18.9	0.00e+00	0	43	102	1048576	7	3995
2026-01-04 02:25:34.04	20.57	32.55	-23.7	-24.9	18.6	5.60e-05	0	43	102	1048576	7	4134
2026-01-04 02:25:37.06	20.61	33.18	-23.3	-24.0	19.1	0.00e+00	0	43	102	1048576	7	3926
2026-01-04 02:25:40.07	20.66	33.83	-23.6	-24.8	18.7	0.00e+00	0	43	102	1048576	7	4126
2026-01-04 02:25:43.09	20.70	34.49	-23.3	-24.0	19.1	1.04e-04	0	43	102	1048576	7	3923
2026-01-04 02:25:46.11	20.75	35.17	-23.0	-23.5	19.4	9.04e-05	0	43	102	1048576	7	3811
2026-01-04 02:25:49.14	20.80	35.86	-23.0	-23.4	19.4	0.00e+00	0	43	102	1048576	7	3787
2026-01-04 02:25:52.16	20.85	36.57	-22.6	-23.0	19.9	1.04e-04	0	43	102	1048576	6	3797
2026-01-04 02:25:55.18	20.90	37.29	-22.6	-23.1	19.8	5.83e-05	0	43	102	1048576	6	3827
2026-01-04 02:25:58.20	20.96	38.03	-22.8	-23.6	19.6	5.03e-05	0	43	102	1048576	6	3938
2026-01-04 02:26:01.20	21.01	38.78	-22.8	-23.4	19.7	1.02e-05	0	43	102	1048576	6	3892
2026-01-04 02:26:04.22	21.07	39.55	-22.4	-22.7	20.1	1.10e-06	0	43	102	1048576	6	3730
2026-01-04 02:26:07.24	21.13	40.34	-22.9	-23.7	19.6	0.00e+00	0	43	102	1048576	6	3955
2026-01-04 02:26:10.26	21.20	41.15	-23.3	-24.5	19.2	0.00e+00	0	43	102	1048576	6	4143
2026-01-04 02:26:13.27	21.26	41.97	-23.3	-24.5	19.2	0.00e+00	0	43	102	1048576	6	4151
2026-01-04 02:26:16.29	21.33	42.82	-23.3	-24.6	19.2	0.00e+00	0	43	102	1048576	6	4183
2026-01-04 02:26:19.31	21.40	43.68	-23.2	-24.3	19.4	0.00e+00	0	43	102	1048576	6	4090
2026-01-04 02:26:22.33	21.48	44.57	-23.2	-24.4	19.3	0.00e+00	0	43	102	1048576	6	4121
2026-01-04 02:26:25.36	21.56	45.47	-23.7	-24.9	18.8	0.00e+00	0	43	102	1048576	7	4154
2026-01-04 02:26:28.38	21.64	46.40	-23.4	-24.3	19.1	0.00e+00	0	43	102	1048576	7	3989
2026-01-04 02:26:31.40	21.73	47.35	-23.4	-24.2	19.2	0.00e+00	0	43	102	1048576	7	3953
2026-01-04 02:26:34.42	21.82	48.32	-23.6	-24.6	19.0	0.00e+00	0	43	102	1048576	7	4060
2026-01-04 02:26:37.45	21.92	49.31	-23.5	-24.5	19.0	0.00e+00	0	43	102	1048576	7	4038
2026-01-04 02:26:40.46	22.02	50.32	-23.8	-24.5	18.8	0.00e+00	0	43	102	1048576	8	3935
2026-01-04 02:26:43.48	22.13	51.36	-23.8	-24.5	18.8	0.00e+00	0	43	102	1048576	8	3925
2026-01-04 02:26:46.51	22.25	52.42	-24.7	-26.0	17.8	0.00e+00	0	43	102	1048576	9	4176
2026-01-04 02:26:49.53	22.38	53.50	-24.0	-24.6	18.6	0.00e+00	0	43	102	1048576	9	3835
2026-01-04 02:26:52.55	22.51	54.61	-24.5	-25.6	18.0	0.00e+00	0	43	102	1048576	9	4081
2026-01-04 02:26:55.57	22.66	55.74	-24.5	-25.6	18.0	0.00e+00	0	43	102	1048576	9	4095
2026-01-04 02:26:58.58	22.81	56.89	-24.4	-25.3	18.2	0.00e+00	0	43	102	1048576	9	4014
2026-01-04 02:27:01.61	22.98	58.07	-24.6	-25.8	18.0	0.00e+00	0	43	102	1048576	9	4121
2026-01-04 02:27:04.63	23.16	59.28	-23.8	-24.2	18.8	0.00e+00	0	43	102	1048576	9	3741
2026-01-04 02:27:07.66	23.36	60.51	-23.7	-24.4	18.9	0.00e+00	0	43	102	1048576	8	3908
2026-01-04 02:27:10.69	23.58	61.76	-23.1	-23.6	19.6	0.00e+00	0	43	102	1048576	7	3819
2026-01-04 02:27:13.71	23.82	63.04	-23.3	-24.0	19.4	0.00e+00	0	43	102	1048576	7	3904
2026-01-04 02:27:16.72	24.09	64.33	-22.7	-23.3	20.0	0.00e+00	0	43	102	1048576	6	3848
2026-01-04 02:27:19.75	24.39	65.65	-22.1	-22.6	20.6	0.00e+00	0	43	102	1048576	5	3797
2026-01-04 02:27:22.77	24.73	67.00	-22.6	-23.6	20.2	0.00e+00	0	43	102	1048576	5	4031
2026-01-04 02:27:25.79	25.11	68.36	-22.6	-23.6	20.1	0.00e+00	0	43	102	1048576	5	4051
2026-01-04 02:27:28.81	25.54	69.74	-22.4	-23.2	20.3	0.00e+00	0	43	102	1048576	5	3935
2026-01-04 02:27:31.81	26.04	71.14	-22.2	-22.8	20.5	0.00e+00	0	43	102	1048576	5	3858
2026-01-04 02:27:34.84	26.63	72.56	-21.7	-22.1	21.1	0.00e+00	0	43	102	1048576	4	3802
2026-01-04 02:27:37.86	27.33	74.00	-22.1	-23.1	20.7	0.00e+00	0	43	102	1048576	4	4025
2026-01-04 02:27:40.87	28.16	75.45	-22.2	-23.3	20.6	1.10e-06	0	43	102	1048576	4	4089
2026-01-04 02:27:43.89	29.19	76.91	-21.5	-22.2	21.4	3.40e-06	0	43	102	1048576	3	3935
2026-01-04 02:27:46.91	30.49	78.39	-21.0	-21.3	21.8	2.20e-06	0	43	102	1048576	3	3730
2026-01-04 02:27:49.92	32.16	79.86	-21.0	-21.2	21.9	0.00e+00	0	43	102	1048576	3	3706
2026-01-04 02:27:52.95	34.44	81.35	-20.7	-21.2	22.1	0.00e+00	0	43	102	1048576	2	3812
2026-01-04 02:27:55.97	37.64	82.82	-20.7	-21.1	22.1	0.00e+00	0	43	102	1048576	2	3799
2026-01-04 02:27:58.98	42.47	84.26	-20.9	-21.7	21.9	0.00e+00	0	43	102	1048576	2	3917
2026-01-04 02:28:02.00	50.49	85.64	-22.5	-23.4	20.3	0.00e+00	0	43	102	1048576	5	3998
2026-01-04 02:28:05.02	65.34	86.87	-22.7	-23.7	20.2	0.00e+00	0	43	102	1048576	5	4066
2026-01-04 02:28:08.04	94.00	87.67	-22.7	-23.8	20.2	0.00e+00	0	43	102	1048576	5	4080
2026-01-04 02:28:11.05	132.03	87.57	-22.9	-24.2	20.1	0.00e+00	0	43	102	1048576	5	4173
2026-01-04 02:28:14.08	157.56	86.65	-22.8	-24.1	20.2	0.00e+00	0	43	102	1048576	5	4150
2026-01-04 02:28:17.10	170.58	85.37	-22.5	-23.4	20.5	0.00e+00	0	43	102	1048576	5	3999
2026-01-04 02:28:20.12	177.78	83.97	-22.2	-22.7	20.8	0.00e+00	0	43	102	1048576	5	3827
2026-01-04 02:28:23.13	182.20	82.52	-22.5	-23.4	20.5	0.00e+00	0	43	102	1048576	5	3985
2026-01-04 02:28:26.15	185.18	81.05	-21.6	-22.0	21.4	0.00e+00	0	43	102	1048576	4	3775
2026-01-04 02:28:29.18	187.31	79.56	-21.2	-21.6	21.9	0.00e+00	0	43	102	1048576	3	3782
2026-01-04 02:28:32.19	188.90	78.09	-21.4	-22.0	21.7	0.00e+00	0	43	102	1048576	3	3884
2026-01-04 02:28:35.21	190.13	76.61	-21.4	-22.1	21.6	0.00e+00	0	43	102	1048576	3	3911
2026-01-04 02:28:38.24	191.12	75.14	-21.4	-22.1	21.6	0.00e+00	0	43	102	1048576	3	3888
2026-01-04 02:28:41.26	191.93	73.69	-21.8	-22.8	21.2	0.00e+00	0	43	102	1048576	3	4073
2026-01-04 02:28:44.28	192.60	72.25	-22.0	-23.0	20.9	0.00e+00	0	43	102	1048576	4	3996
2026-01-04 02:28:47.31	193.17	70.83	-22.6	-23.5	20.4	0.00e+00	0	43	102	1048576	5	4023
2026-01-04 02:28:50.32	193.66	69.43	-22.6	-23.6	20.3	0.00e+00	0	43	102	1048576	5	4031
2026-01-04 02:28:53.33	194.08	68.05	-22.9	-24.2	20.0	0.00e+00	0	43	102	1048576	5	4183
2026-01-04 02:28:56.34	194.45	66.69	-22.8	-24.0	20.1	0.00e+00	0	43	102	1048576	5	4134
2026-01-04 02:28:59.35	194.77	65.36	-23.4	-24.2	19.6	0.00e+00	0	43	102	1048576	7	3953
2026-01-04 02:29:02.37	195.06	64.04	-23.6	-24.7	19.3	3.89e-05	0	43	102	1048576	7	4076
2026-01-04 02:29:05.38	195.32	62.75	-24.0	-25.1	18.9	3.43e-05	0	43	102	1048576	8	4061
2026-01-04 02:29:08.41	195.56	61.47	-23.6	-24.1	19.4	8.01e-05	0	43	102	1048576	8	3835
2026-01-04 02:29:11.42	195.78	60.22	-23.7	-24.5	19.2	0.00e+00	0	43	102	1048576	8	3915
2026-01-04 02:29:14.43	195.97	59.00	-23.6	-24.1	19.4	5.14e-05	0	43	102	1048576	8	3814
2026-01-04 02:29:17.45	196.15	57.80	-23.6	-24.2	19.3	0.00e+00	0	43	102	1048576	8	3856
2026-01-04 02:29:20.48	196.32	56.62	-24.1	-25.2	18.8	0.00e+00	0	43	102	1048576	8	4080
2026-01-04 02:29:23.49	196.47	55.47	-24.4	-25.9	18.4	0.00e+00	0	43	102	1048576	8	4276
2026-01-04 02:29:26.51	196.61	54.34	-24.6	-25.8	18.2	0.00e+00	0	43	102	1048576	9	4127
2026-01-04 02:29:29.54	196.74	53.23	-24.5	-25.7	18.2	0.00e+00	0	43	102	1048576	9	4093
2026-01-04 02:29:32.56	196.87	52.15	-24.3	-25.2	18.4	0.00e+00	0	43	102	1048576	9	3987
2026-01-04 02:29:35.58	196.98	51.09	-23.8	-24.2	19.0	0.00e+00	0	43	102	1048576	9	3748
2026-01-04 02:29:38.59	197.09	50.05	-23.5	-23.9	19.3	0.00e+00	0	43	102	1048576	8	3785
2026-01-04 02:29:41.61	197.19	49.04	-23.6	-24.2	19.2	0.00e+00	0	43	102	1048576	8	3847
2026-01-04 02:29:44.64	197.29	48.05	-24.0	-24.9	18.8	0.00e+00	0	43	102	1048576	8	4034
2026-01-04 02:29:47.64	197.38	47.09	-23.2	-23.8	19.6	0.00e+00	0	43	102	1048576	7	3861
2026-01-04 02:29:50.67	197.46	46.14	-23.4	-24.2	19.4	0.00e+00	0	43	102	1048576	7	3955
2026-01-04 02:29:53.68	197.54	45.22	-23.0	-23.4	19.8	0.00e+00	0	43	102	1048576	7	3774
2026-01-04 02:29:56.69	197.62	44.31	-22.9	-23.7	19.9	0.00e+00	0	43	102	1048576	6	3936
2026-01-04 02:29:59.69	197.70	43.44	-23.2	-24.3	19.6	0.00e+00	0	43	102	1048576	6	4092
2026-01-04 02:30:02.72	197.77	42.57	-23.4	-24.8	19.3	0.00e+00	0	43	102	1048576	6	4217
2026-01-04 02:30:05.74	197.83	41.72	-23.3	-24.5	19.4	0.00e+00	0	43	102	1048576	6	4133
2026-01-04 02:30:08.76	197.90	40.90	-23.0	-24.0	19.7	1.96e-04	0	43	102	1048576	6	4009
2026-01-04 02:30:11.78	197.96	40.09	-22.8	-23.6	19.9	0.00e+00	0	43	102	1048576	6	3933
2026-01-04 02:30:14.81	198.02	39.30	-22.7	-23.2	20.1	0.00e+00	0	43	102	1048576	6	3847
2026-01-04 02:30:17.83	198.08	38.53	-22.7	-23.2	20.1	1.89e-04	0	43	102	1048576	6	3837
2026-01-04 02:30:20.85	198.13	37.77	-22.9	-23.6	19.9	1.67e-04	0	43	102	1048576	6	3927
2026-01-04 02:30:23.87	198.19	37.04	-23.1	-24.1	19.6	3.40e-06	0	43	102	1048576	6	4047
2026-01-04 02:30:26.89	198.24	36.31	-23.6	-24.7	19.1	1.74e-04	0	43	102	1048576	7	4081
2026-01-04 02:30:29.91	198.29	35.61	-23.8	-25.1	18.8	1.72e-04	0	43	102	1048576	7	4184
2026-01-04 02:30:32.92	198.33	34.92	-23.5	-24.5	19.1	0.00e+00	0	43	102	1048576	7	4027
2026-01-04 02:30:35.94	198.38	34.24	-23.6	-24.6	19.1	1.52e-04	0	43	102	1048576	7	4056
2026-01-04 02:30:38.96	198.43	33.58	-24.0	-25.4	18.6	1.26e-04	0	43	102	1048576	7	4270
2026-01-04 02:30:41.98	198.47	32.93	-23.6	-24.3	19.0	0.00e+00	0	43	102	1048576	8	3872
2026-01-04 02:30:45.00	198.51	32.30	-23.8	-24.6	18.8	0.00e+00	0	43	102	1048576	8	3951
2026-01-04 02:30:48.01	198.55	31.68	-23.9	-24.7	18.7	8.35e-05	0	43	102	1048576	8	3990
2026-01-04 02:30:51.04	198.59	31.07	-23.5	-24.0	19.1	0.00e+00	0	43	102	1048576	8	3818
2026-01-04 02:30:54.05	198.63	30.48	-23.6	-24.2	19.0	0.00e+00	0	43	102	1048576	8	3861
2026-01-04 02:30:57.07	198.67	29.89	-24.0	-25.0	18.6	0.00e+00	0	43	102	1048576	8	4052
2026-01-04 02:31:00.09	198.70	29.32	-24.1	-25.2	18.4	0.00e+00	0	43	102	1048576	8	4095
2026-01-04 02:31:03.09	198.74	28.77	-24.0	-25.1	18.5	0.00e+00	0	43	102	1048576	8	4061
2026-01-04 02:31:06.10	198.77	28.22	-23.9	-24.9	18.6	0.00e+00	0	43	102	1048576	8	4028
2026-01-04 02:31:09.12	198.81	27.68	-23.1	-23.6	19.4	0.00e+00	0	43	102	1048576	7	3817
2026-01-04 02:31:12.14	198.84	27.15	-22.9	-23.8	19.6	0.00e+00	0	43	102	1048576	6	3980
2026-01-04 02:31:15.16	198.87	26.63	-23.0	-24.0	19.4	0.00e+00	0	43	102	1048576	6	4025
2026-01-04 02:31:18.17	198.91	26.12	-23.2	-24.3	19.3	0.00e+00	0	43	102	1048576	6	4089
2026-01-04 02:31:21.19	198.94	25.62	-23.4	-24.8	19.0	0.00e+00	0	43	102	1048576	6	4226
2026-01-04 02:31:24.21	198.97	25.13	-23.6	-24.8	18.8	0.00e+00	0	43	102	1048576	7	4107
2026-01-04 02:31:27.22	199.00	24.65	-23.7	-25.0	18.7	0.00e+00	0	43	102	1048576	7	4169
2026-01-04 02:31:30.24	199.03	24.18	-23.8	-25.2	18.5	0.00e+00	0	43	102	1048576	7	4208
2026-01-04 02:31:33.26	199.06	23.72	-23.9	-25.3	18.5	0.00e+00	0	43	102	1048576	7	4236
2026-01-04 02:31:36.28	199.08	23.26	-23.9	-24.8	18.5	0.00e+00	0	43	102	1048576	8	4005
2026-01-04 02:31:39.30	199.11	22.81	-23.8	-25.2	18.5	0.00e+00	0	43	102	1048576	7	4203
2026-01-04 02:31:42.32	199.14	22.37	-24.3	-25.7	18.0	0.00e+00	0	43	102	1048576	8	4237
2026-01-04 02:31:45.35	199.16	21.94	-24.1	-25.3	18.2	0.00e+00	0	43	102	1048576	8	4134
2026-01-04 02:31:48.36	199.19	21.51	-24.1	-25.3	18.2	0.00e+00	0	43	102	1048576	8	4122
2026-01-04 02:31:51.39	199.22	21.09	-24.2	-25.5	18.1	0.00e+00	0	43	102	1048576	8	4183
2026-01-04 02:31:54.40	199.24	20.68	-24.4	-25.9	17.9	0.00e+00	0	43	102	1048576	8	4275
2026-01-04 02:31:57.41	199.27	20.28	-24.4	-25.9	17.8	0.00e+00	0	43	102	1048576	8	4286
2026-01-04 02:32:00.41	199.29	19.88	-24.7	-26.1	17.5	0.00e+00	0	43	102	1048576	9	4207
2026-01-04 02:32:03.43	199.32	19.49	-24.8	-26.1	17.5	0.00e+00	0	43	102	1048576	9	4225
2026-01-04 02:32:06.44	199.34	19.11	-25.3	-26.8	16.8	0.00e+00	0	43	102	1048576	10	4289
2026-01-04 02:32:09.46	199.36	18.73	-25.1	-26.4	17.1	0.00e+00	0	43	102	1048576	10	4168
2026-01-04 02:32:12.49	199.39	18.35	-25.1	-26.3	17.1	0.00e+00	0	43	102	1048576	10	4166
2026-01-04 02:32:15.51	199.41	17.98	-24.8	-25.8	17.3	0.00e+00	0	43	102	1048576	10	4024
2026-01-04 02:32:18.53	199.43	17.62	-24.9	-26.0	17.2	0.00e+00	0	43	102	1048576	10	4080
2026-01-04 02:32:21.54	199.45	17.26	-25.1	-26.4	17.0	0.00e+00	0	43	102	1048576	10	4177
2026-01-04 02:32:24.56	199.47	16.91	-25.1	-26.4	17.0	0.00e+00	0	43	102	1048576	10	4184
2026-01-04 02:32:27.57	199.50	16.56	-25.1	-26.5	16.9	0.00e+00	0	43	102	1048576	10	4216
2026-01-04 02:32:30.59	199.52	16.22	-25.3	-26.8	16.7	0.00e+00	0	43	102	1048576	10	4292
2026-01-04 02:32:33.62	199.54	15.88	-25.3	-26.9	16.7	0.00e+00	0	43	102	1048576	10	4320
2026-01-04 02:32:36.62	199.56	15.55	-25.4	-27.0	16.6	0.00e+00	0	43	102	1048576	10	4360
2026-01-04 02:32:39.63	199.58	15.22	-25.5	-26.7	16.5	0.00e+00	0	43	102	1048576	11	4153
2026-01-04 02:32:42.65	199.60	14.89	-25.6	-27.0	16.3	0.00e+00	0	43	102	1048576	11	4233
2026-01-04 02:32:45.67	199.62	14.57	-25.5	-26.9	16.4	0.00e+00	0	43	102	1048576	11	4197
2026-01-04 02:32:48.69	199.64	14.26	-25.6	-27.0	16.3	1.10e-06	0	43	102	1048576	11	4242
2026-01-04 02:32:51.71	199.66	13.94	-25.8	-27.4	16.0	0.00e+00	0	43	102	1048576	11	4332
2026-01-04 02:32:54.72	199.68	13.64	-26.3	-28.0	15.4	0.00e+00	0	43	102	1048576	12	4395
2026-01-04 02:32:57.74	199.70	13.33	-26.4	-28.4	15.1	1.10e-06	0	43	102	1048576	12	4512
2026-01-04 02:33:00.76	199.72	13.03	-26.3	-27.6	15.2	1.60e-05	0	43	102	1048576	13	4179
2026-01-04 02:33:03.77	199.73	12.74	-26.5	-28.0	15.0	1.71e-05	0	43	102	1048576	13	4283
2026-01-04 02:33:06.78	199.75	12.44	-26.6	-28.2	14.9	1.71e-05	0	43	102	1048576	13	4353
2026-01-04 02:33:09.80	199.77	12.15	-27.2	-29.2	14.1	2.51e-05	0	43	102	1048576	14	4522
2026-01-04 02:33:12.81	199.79	11.87	-27.2	-29.2	14.0	2.05e-05	0	43	102	1048576	14	4525
2026-01-04 02:33:15.82	199.81	11.59	-27.3	-29.4	13.9	8.00e-06	0	43	102	1048576	14	4572
2026-01-04 02:33:18.84	199.83	11.31	-26.5	-27.5	15.0	0.00e+00	0	43	102	1048576	14	4045
2026-01-04 02:33:21.86	199.84	11.03	-26.2	-27.5	15.2	0.00e+00	0	43	102	1048576	13	4150
2026-01-04 02:33:24.88	199.86	10.76	-26.3	-27.5	15.2	0.00e+00	0	43	102	1048576	13	4167
2026-01-04 02:33:27.90	199.88	10.48	-26.4	-27.8	15.0	0.00e+00	0	43	102	1048576	13	4254
2026-01-04 02:33:30.92	199.89	10.22	-26.6	-28.3	14.7	0.00e+00	0	43	102	1048576	13	4368
2026-01-04 02:33:33.94	199.91	9.95	-26.6	-28.2	14.7	0.00e+00	0	43	102	1048576	13	4356
2026-01-04 02:33:36.95	199.93	9.69	-26.5	-28.1	14.8	0.00e+00	0	43	102	1048576	13	4324
2026-01-04 02:33:39.97	199.95	9.43	-26.5	-28.1	14.8	0.00e+00	0	43	102	1048576	13	4318
2026-01-04 02:33:42.99	199.96	9.18	-26.4	-28.0	14.8	0.00e+00	0	43	102	1048576	13	4284
2026-01-04 02:33:46.01	199.98	8.92	-26.6	-28.3	14.6	0.00e+00	0	43	102	1048576	13	4379
2026-01-04 02:33:49.03	199.99	8.67	-26.6	-28.3	14.5	0.00e+00	0	43	102	1048576	13	4395
2026-01-04 02:33:52.04	200.01	8.42	-26.7	-28.7	14.3	1.10e-06	0	43	102	1048576	13	4487
2026-01-04 02:33:55.05	200.03	8.18	-26.7	-28.5	14.4	2.20e-06	0	43	102	1048576	13	4448
2026-01-04 02:33:58.07	200.04	7.93	-26.8	-28.7	14.2	5.70e-06	0	43	102	1048576	13	4504
2026-01-04 02:34:01.08	200.06	7.69	-26.8	-28.9	14.1	5.70e-06	0	43	102	1048576	13	4552
2026-01-04 02:34:04.11	200.07	7.45	-27.1	-28.9	13.8	8.00e-06	0	43	102	1048576	14	4453
2026-01-04 02:34:07.12	200.09	7.21	-27.1	-29.1	13.7	1.83e-05	0	43	102	1048576	14	4515
2026-01-04 02:34:10.14	200.11	6.98	-33.3	-44.6	3.8	8.45e-01	0	43	104	1048576	26	13307

#Closed at: 2026-01-04 02:34:10
#Recorded file [1 MB]: D:/data/31010_260104_052207.dat