passes_logs/2026/01/04/R2M6_AANII_01/R2M6_AANII_01__20260104_122345_FENGYUN_3E_rec.log

#Pass ID: 20260104_122345_FENGYUN 3E
#Satellite: FENGYUN 3E
#Configuration: FENGYUN 3E
#almurnet v.1.7.20240730
#Start time: 2026-01-04 12:26:58

#Version: 2.2.20231116
#Station: R2M6_AANII_01
#Location: 30.233357 lon 59.946436 lat
#TLE: 1 49008U 21062A   26003.51942929 -.00000034  00000+0  45519-5 0  9990
#TLE: 2 49008  98.7472   8.7829 0001426 160.7926 199.3304 14.19883272233213

#Time	Az	El	Level	Level2	SNR	BER	BlckErr	Temp	State	Recorded	gain1	gain2
2026-01-04 12:26:58.60	61.28	18.11	-33.7	-44.8	3.8	8.46e-01	0	43	0	0	27	12911
2026-01-04 12:27:00.61	60.84	18.19	-34.3	-43.5	3.8	8.47e-01	0	43	104	0	29	10422
2026-01-04 12:27:02.62	60.39	18.28	-34.4	-43.7	3.8	8.46e-01	0	43	104	0	29	10501
2026-01-04 12:27:04.63	59.94	18.36	-34.4	-43.7	3.8	8.46e-01	0	43	104	0	29	10541
2026-01-04 12:27:06.64	59.49	18.44	-34.4	-43.7	3.8	8.46e-01	0	43	104	0	29	10504
2026-01-04 12:27:08.66	59.03	18.51	-34.4	-43.7	3.8	8.46e-01	0	43	104	0	29	10505
2026-01-04 12:27:10.68	58.57	18.59	-34.4	-43.6	3.8	8.46e-01	0	43	104	0	29	10468
2026-01-04 12:27:12.69	58.12	18.66	-34.4	-43.6	3.8	8.45e-01	0	43	104	0	29	10453
2026-01-04 12:27:14.70	57.65	18.73	-34.4	-43.7	3.8	8.46e-01	0	44	104	0	29	10485
2026-01-04 12:27:16.71	57.19	18.80	-34.4	-43.6	3.8	8.47e-01	0	43	104	0	29	10481
2026-01-04 12:27:18.72	56.73	18.87	-34.4	-43.6	3.8	8.47e-01	0	43	104	0	29	10468
2026-01-04 12:27:20.73	56.26	18.94	-34.4	-43.6	3.8	8.46e-01	0	44	104	0	29	10450
2026-01-04 12:27:22.74	55.79	19.00	-34.4	-43.6	3.8	8.46e-01	0	43	104	0	29	10484
2026-01-04 12:27:24.75	55.32	19.07	-34.3	-43.6	3.8	8.46e-01	0	43	104	0	29	10445
2026-01-04 12:27:26.76	54.84	19.13	-34.3	-43.6	3.8	8.47e-01	0	43	104	0	29	10484
2026-01-04 12:27:28.78	54.37	19.19	-34.3	-43.6	3.8	8.46e-01	0	43	104	0	29	10443
2026-01-04 12:27:30.78	53.89	19.25	-34.3	-43.6	3.8	8.46e-01	0	44	104	0	29	10459
2026-01-04 12:27:32.79	53.41	19.30	-34.4	-43.8	3.8	8.47e-01	0	44	104	0	29	10558
2026-01-04 12:27:34.80	52.93	19.35	-34.5	-44.0	3.8	8.46e-01	0	44	104	0	29	10723
2026-01-04 12:27:36.82	52.45	19.41	-34.4	-43.8	3.8	8.46e-01	0	43	104	0	29	10623
2026-01-04 12:27:38.84	51.96	19.46	-34.4	-43.7	3.8	8.47e-01	0	44	104	0	29	10539
2026-01-04 12:27:40.85	51.48	19.50	-34.4	-43.7	3.8	8.46e-01	0	43	104	0	29	10508
2026-01-04 12:27:42.87	50.99	19.55	-34.3	-43.6	3.8	8.47e-01	0	44	104	0	29	10445
2026-01-04 12:27:44.88	50.50	19.59	-34.2	-43.4	3.8	8.46e-01	0	43	104	0	29	10330
2026-01-04 12:27:46.90	50.01	19.63	-33.4	-39.6	4.0	8.44e-01	0	44	104	0	27	7342
2026-01-04 12:27:48.91	49.52	19.67	-33.6	-41.3	3.8	8.45e-01	0	44	104	0	27	8739
2026-01-04 12:27:50.93	49.02	19.71	-31.6	-34.1	7.5	3.47e-01	0	44	104	0	24	4830
2026-01-04 12:27:52.94	48.53	19.74	-28.1	-28.6	13.2	5.26e-05	0	44	102	1048576	17	3830
2026-01-04 12:27:54.95	48.03	19.78	-27.9	-28.7	13.5	8.00e-06	0	43	102	1048576	16	3948
2026-01-04 12:27:56.96	47.54	19.81	-27.1	-27.4	14.3	1.10e-06	0	44	102	1048576	15	3735
2026-01-04 12:27:58.97	47.04	19.84	-26.7	-27.1	14.8	0.00e+00	0	44	102	1048576	14	3754
2026-01-04 12:28:00.98	46.55	19.86	-27.4	-28.6	14.0	2.20e-06	0	44	102	1048576	14	4149
2026-01-04 12:28:02.99	46.05	19.88	-26.2	-26.5	15.4	0.00e+00	0	44	102	1048576	13	3716
2026-01-04 12:28:05.00	45.55	19.91	-25.4	-25.7	16.5	0.00e+00	0	44	102	1048576	11	3723
2026-01-04 12:28:07.01	45.05	19.92	-25.4	-25.6	16.5	0.00e+00	0	44	102	1048576	11	3710
2026-01-04 12:28:09.03	44.55	19.94	-25.1	-25.1	16.8	0.00e+00	0	44	102	1048576	11	3593
2026-01-04 12:28:11.04	44.05	19.96	-25.2	-25.2	16.7	0.00e+00	0	44	102	1048576	11	3628
2026-01-04 12:28:13.05	43.55	19.97	-25.1	-25.1	16.8	0.00e+00	0	44	102	1048576	11	3602
2026-01-04 12:28:15.06	43.05	19.98	-25.5	-25.9	16.3	0.00e+00	0	44	102	1048576	11	3788
2026-01-04 12:28:17.07	42.54	19.99	-24.9	-25.1	17.0	0.00e+00	0	44	102	1048576	10	3693
2026-01-04 12:28:19.08	42.04	19.99	-24.9	-25.1	17.0	0.00e+00	0	44	102	1048576	10	3692
2026-01-04 12:28:21.10	41.54	19.99	-24.7	-24.8	17.2	0.00e+00	0	44	102	1048576	10	3623
2026-01-04 12:28:23.12	41.03	20.00	-24.8	-25.0	17.1	0.00e+00	0	44	102	1048576	10	3680
2026-01-04 12:28:25.13	40.53	19.99	-24.8	-25.0	17.0	0.00e+00	0	44	102	1048576	10	3680
2026-01-04 12:28:27.14	40.03	19.99	-24.7	-24.8	17.2	0.00e+00	0	44	102	1048576	10	3633
2026-01-04 12:28:29.14	39.53	19.98	-24.6	-24.5	17.3	0.00e+00	0	44	102	1048576	10	3564
2026-01-04 12:28:31.15	39.03	19.97	-24.6	-24.6	17.3	0.00e+00	0	44	102	1048576	10	3587
2026-01-04 12:28:33.16	38.53	19.96	-24.8	-24.9	17.1	0.00e+00	0	44	102	1048576	10	3648
2026-01-04 12:28:35.18	38.03	19.95	-24.8	-24.9	17.1	0.00e+00	0	44	102	1048576	10	3654
2026-01-04 12:28:37.19	37.53	19.94	-24.7	-24.8	17.1	0.00e+00	0	44	102	1048576	10	3634
2026-01-04 12:28:39.21	37.03	19.92	-24.7	-24.7	17.2	0.00e+00	0	44	102	1048576	10	3600
2026-01-04 12:28:41.22	36.53	19.90	-24.5	-24.3	17.4	0.00e+00	0	44	102	1048576	10	3527
2026-01-04 12:28:43.24	36.03	19.88	-24.7	-24.8	17.2	0.00e+00	0	44	102	1048576	10	3622
2026-01-04 12:28:45.26	35.53	19.85	-24.8	-24.9	17.1	0.00e+00	0	44	102	1048576	10	3648
2026-01-04 12:28:47.27	35.03	19.82	-24.8	-25.0	17.1	0.00e+00	0	44	102	1048576	10	3663
2026-01-04 12:28:49.29	34.53	19.80	-24.8	-25.0	17.1	0.00e+00	0	44	102	1048576	10	3664
2026-01-04 12:28:51.31	34.04	19.76	-24.7	-24.8	17.1	0.00e+00	0	44	102	1048576	10	3637
2026-01-04 12:28:53.32	33.54	19.73	-24.6	-24.5	17.3	0.00e+00	0	44	102	1048576	10	3563
2026-01-04 12:28:55.34	33.05	19.70	-24.7	-24.8	17.1	0.00e+00	0	44	102	1048576	10	3641
2026-01-04 12:28:57.35	32.56	19.66	-24.8	-24.9	17.1	0.00e+00	0	44	102	1048576	10	3642
2026-01-04 12:28:59.37	32.06	19.62	-24.7	-24.8	17.2	0.00e+00	0	44	102	1048576	10	3625
2026-01-04 12:29:01.38	31.58	19.58	-24.7	-24.8	17.2	0.00e+00	0	44	102	1048576	10	3623
2026-01-04 12:29:03.39	31.09	19.53	-24.8	-24.9	17.1	0.00e+00	0	44	102	1048576	10	3645
2026-01-04 12:29:05.41	30.60	19.49	-24.7	-24.8	17.1	0.00e+00	0	44	102	1048576	10	3627
2026-01-04 12:29:07.42	30.12	19.44	-24.9	-25.1	16.9	0.00e+00	0	44	102	1048576	10	3703
2026-01-04 12:29:09.43	29.63	19.39	-24.8	-24.9	17.1	0.00e+00	0	44	102	1048576	10	3657
2026-01-04 12:29:11.44	29.15	19.33	-24.7	-24.8	17.2	0.00e+00	0	44	102	1048576	10	3630
2026-01-04 12:29:13.46	28.67	19.28	-24.8	-24.9	17.1	0.00e+00	0	44	102	1048576	10	3640
2026-01-04 12:29:15.48	28.19	19.22	-25.1	-25.5	16.7	0.00e+00	0	44	102	1048576	10	3790
2026-01-04 12:29:17.48	27.72	19.17	-25.3	-26.0	16.5	0.00e+00	0	44	102	1048576	10	3903
2026-01-04 12:29:19.50	27.24	19.11	-25.4	-26.3	16.3	0.00e+00	0	44	102	1048576	10	3987
2026-01-04 12:29:21.51	26.77	19.04	-25.9	-26.8	15.7	0.00e+00	0	44	102	1048576	11	3993
2026-01-04 12:29:23.52	26.30	18.98	-25.5	-25.9	16.2	0.00e+00	0	44	102	1048576	11	3786
2026-01-04 12:29:25.54	25.83	18.91	-25.0	-24.9	16.8	0.00e+00	0	44	102	1048576	11	3554
2026-01-04 12:29:27.56	25.36	18.85	-24.9	-24.7	16.9	0.00e+00	0	44	102	1048576	11	3509
2026-01-04 12:29:29.57	24.90	18.78	-24.9	-25.1	16.9	0.00e+00	0	44	102	1048576	10	3707
2026-01-04 12:29:31.58	24.44	18.71	-25.0	-25.3	16.8	0.00e+00	0	44	102	1048576	10	3746
2026-01-04 12:29:33.59	23.98	18.63	-25.0	-25.4	16.8	0.00e+00	0	44	102	1048576	10	3759
2026-01-04 12:29:35.61	23.52	18.56	-25.2	-25.8	16.6	0.00e+00	0	44	102	1048576	10	3852
2026-01-04 12:29:37.63	23.06	18.48	-25.0	-25.4	16.8	0.00e+00	0	44	102	1048576	10	3775
2026-01-04 12:29:39.64	22.61	18.41	-25.1	-25.6	16.7	0.00e+00	0	44	102	1048576	10	3801
2026-01-04 12:29:41.65	22.16	18.33	-25.1	-25.7	16.6	0.00e+00	0	44	102	1048576	10	3829
2026-01-04 12:29:43.66	21.71	18.25	-25.0	-25.4	16.8	0.00e+00	0	44	102	1048576	10	3766
2026-01-04 12:29:45.67	21.27	18.16	-25.1	-25.5	16.7	0.00e+00	0	44	102	1048576	10	3797
2026-01-04 12:29:47.68	20.83	18.08	-25.3	-26.0	16.5	0.00e+00	0	44	102	1048576	10	3896
2026-01-04 12:29:49.69	20.39	17.99	-25.2	-25.9	16.5	0.00e+00	0	44	102	1048576	10	3877
2026-01-04 12:29:51.70	19.95	17.91	-25.1	-25.6	16.7	0.00e+00	0	44	102	1048576	10	3814
2026-01-04 12:29:53.70	19.51	17.82	-25.1	-25.5	16.7	0.00e+00	0	44	102	1048576	10	3796
2026-01-04 12:29:55.72	19.08	17.73	-25.3	-26.0	16.4	0.00e+00	0	44	102	1048576	10	3908
2026-01-04 12:29:57.74	18.65	17.64	-25.1	-25.7	16.6	0.00e+00	0	44	102	1048576	10	3836
2026-01-04 12:29:59.74	18.22	17.55	-25.2	-25.8	16.5	0.00e+00	0	44	102	1048576	10	3871
2026-01-04 12:30:01.76	17.80	17.45	-25.2	-25.8	16.5	0.00e+00	0	44	102	1048576	10	3873
2026-01-04 12:30:03.77	17.37	17.36	-25.3	-25.9	16.4	0.00e+00	0	44	102	1048576	10	3893
2026-01-04 12:30:05.78	16.96	17.26	-25.1	-25.5	16.7	0.00e+00	0	44	102	1048576	10	3797
2026-01-04 12:30:07.80	16.54	17.17	-25.1	-25.6	16.6	0.00e+00	0	44	102	1048576	10	3816
2026-01-04 12:30:09.82	16.12	17.07	-25.3	-26.0	16.4	0.00e+00	0	44	102	1048576	10	3902
2026-01-04 12:30:11.82	15.71	16.97	-25.5	-26.5	16.2	0.00e+00	0	44	102	1048576	10	4022
2026-01-04 12:30:13.84	15.30	16.87	-25.9	-26.7	15.7	0.00e+00	0	44	102	1048576	11	3987
2026-01-04 12:30:15.85	14.90	16.77	-25.8	-26.6	15.8	0.00e+00	0	44	102	1048576	11	3936
2026-01-04 12:30:17.86	14.49	16.66	-25.9	-26.7	15.7	0.00e+00	0	44	102	1048576	11	3985
2026-01-04 12:30:19.86	14.10	16.56	-25.8	-26.6	15.8	0.00e+00	0	44	102	1048576	11	3946
2026-01-04 12:30:21.88	13.70	16.46	-25.6	-26.2	16.0	0.00e+00	0	44	102	1048576	11	3848
2026-01-04 12:30:23.90	13.30	16.35	-25.5	-26.0	16.1	0.00e+00	0	44	102	1048576	11	3804
2026-01-04 12:30:25.91	12.91	16.24	-25.5	-25.9	16.1	0.00e+00	0	44	102	1048576	11	3776
2026-01-04 12:30:27.92	12.52	16.14	-25.5	-25.9	16.1	0.00e+00	0	44	102	1048576	11	3790
2026-01-04 12:30:29.93	12.13	16.03	-25.6	-26.3	15.9	0.00e+00	0	44	102	1048576	11	3869
2026-01-04 12:30:31.95	11.75	15.92	-25.8	-26.5	15.8	0.00e+00	0	44	102	1048576	11	3929
2026-01-04 12:30:33.96	11.37	15.81	-25.8	-26.6	15.7	0.00e+00	0	44	102	1048576	11	3950
2026-01-04 12:30:35.97	10.99	15.70	-25.7	-26.3	15.9	0.00e+00	0	44	102	1048576	11	3888
2026-01-04 12:30:37.99	10.62	15.59	-25.9	-26.7	15.7	0.00e+00	0	44	102	1048576	11	3977
2026-01-04 12:30:40.00	10.24	15.47	-25.7	-26.4	15.8	0.00e+00	0	44	102	1048576	11	3913
2026-01-04 12:30:42.02	9.87	15.36	-25.7	-26.5	15.8	0.00e+00	0	44	102	1048576	11	3931
2026-01-04 12:30:44.03	9.51	15.25	-25.8	-26.5	15.8	0.00e+00	0	44	102	1048576	11	3938
2026-01-04 12:30:46.05	9.14	15.13	-25.9	-26.8	15.6	0.00e+00	0	44	102	1048576	11	4004
2026-01-04 12:30:48.07	8.78	15.02	-25.8	-26.7	15.7	0.00e+00	0	44	102	1048576	11	3969
2026-01-04 12:30:50.09	8.42	14.90	-25.8	-26.7	15.6	0.00e+00	0	44	102	1048576	11	3976
2026-01-04 12:30:52.09	8.07	14.79	-25.9	-26.8	15.6	0.00e+00	0	44	102	1048576	11	3989
2026-01-04 12:30:54.11	7.72	14.67	-25.8	-26.7	15.6	0.00e+00	0	44	102	1048576	11	3982
2026-01-04 12:30:56.12	7.37	14.55	-25.9	-26.7	15.6	0.00e+00	0	44	102	1048576	11	3990
2026-01-04 12:30:58.13	7.02	14.44	-25.8	-26.7	15.6	0.00e+00	0	44	102	1048576	11	3979
2026-01-04 12:31:00.14	6.68	14.32	-26.0	-27.0	15.5	0.00e+00	0	44	102	1048576	11	4045
2026-01-04 12:31:02.15	6.34	14.20	-26.0	-26.5	15.4	0.00e+00	0	44	102	1048576	12	3834
2026-01-04 12:31:04.16	6.00	14.08	-26.0	-26.7	15.3	0.00e+00	0	44	102	1048576	12	3868
2026-01-04 12:31:06.18	5.66	13.96	-26.1	-26.8	15.2	0.00e+00	0	44	102	1048576	12	3891
2026-01-04 12:31:08.19	5.33	13.84	-26.2	-27.1	15.1	0.00e+00	0	44	102	1048576	12	3967
2026-01-04 12:31:10.21	5.00	13.72	-26.2	-27.1	15.0	0.00e+00	0	44	102	1048576	12	3976
2026-01-04 12:31:12.22	4.67	13.60	-26.2	-27.1	15.0	0.00e+00	0	44	102	1048576	12	3988
2026-01-04 12:31:14.23	4.35	13.48	-26.1	-26.9	15.1	0.00e+00	0	44	102	1048576	12	3923
2026-01-04 12:31:16.24	4.03	13.36	-26.3	-27.2	14.9	0.00e+00	0	44	102	1048576	12	3998
2026-01-04 12:31:18.25	3.71	13.24	-26.1	-26.7	15.2	1.10e-06	0	44	102	1048576	12	3889
2026-01-04 12:31:20.26	3.39	13.12	-26.2	-27.1	15.0	0.00e+00	0	44	102	1048576	12	3971
2026-01-04 12:31:22.27	3.08	13.00	-26.3	-27.3	14.9	0.00e+00	0	44	102	1048576	12	4025
2026-01-04 12:31:24.29	2.76	12.87	-26.4	-27.4	14.8	0.00e+00	0	44	102	1048576	12	4067
2026-01-04 12:31:26.30	2.46	12.75	-26.4	-27.4	14.7	0.00e+00	0	44	102	1048576	12	4065
2026-01-04 12:31:28.31	2.15	12.63	-26.4	-27.5	14.8	0.00e+00	0	44	102	1048576	12	4072
2026-01-04 12:31:30.33	1.85	12.51	-26.4	-27.4	14.8	1.10e-06	0	44	102	1048576	12	4055
2026-01-04 12:31:32.34	1.55	12.38	-26.3	-27.2	14.8	0.00e+00	0	44	102	1048576	12	4016
2026-01-04 12:31:34.36	1.25	12.26	-26.3	-27.3	14.8	0.00e+00	0	44	102	1048576	12	4016
2026-01-04 12:31:36.37	0.95	12.14	-26.3	-27.3	14.8	1.10e-06	0	44	102	1048576	12	4037
2026-01-04 12:31:38.39	0.66	12.01	-26.3	-27.2	14.8	0.00e+00	0	43	102	1048576	12	3998
2026-01-04 12:31:40.39	0.37	11.89	-26.3	-27.3	14.8	0.00e+00	0	44	102	1048576	12	4022
2026-01-04 12:31:42.40	0.08	11.77	-26.5	-27.7	14.5	0.00e+00	0	44	102	1048576	12	4125
2026-01-04 12:31:44.42	359.79	11.64	-26.5	-27.7	14.5	0.00e+00	0	44	102	1048576	12	4135
2026-01-04 12:31:46.43	359.51	11.52	-26.8	-27.8	14.2	0.00e+00	0	44	102	1048576	13	4066
2026-01-04 12:31:48.44	359.23	11.40	-27.0	-28.2	13.9	1.10e-06	0	44	102	1048576	13	4170
2026-01-04 12:31:50.46	358.95	11.27	-26.9	-27.6	14.1	0.00e+00	0	44	102	1048576	14	3894
2026-01-04 12:31:52.47	358.67	11.15	-27.0	-27.8	13.9	0.00e+00	0	44	102	1048576	14	3950
2026-01-04 12:31:54.48	358.40	11.02	-27.1	-28.0	13.7	3.40e-06	0	44	102	1048576	14	4006
2026-01-04 12:31:56.50	358.13	10.90	-27.3	-28.5	13.4	1.14e-05	0	44	102	1048576	14	4143
2026-01-04 12:31:58.51	357.86	10.78	-27.0	-27.9	13.7	6.80e-06	0	44	102	1048576	14	3981
2026-01-04 12:32:00.53	357.59	10.65	-27.0	-27.9	13.6	9.10e-06	0	44	102	1048576	14	3993
2026-01-04 12:32:02.54	357.33	10.53	-27.3	-28.5	13.2	1.60e-05	0	44	102	1048576	14	4154
2026-01-04 12:32:04.55	357.07	10.41	-26.9	-27.7	13.7	4.50e-06	0	44	102	1048576	14	3921
2026-01-04 12:32:06.57	356.80	10.28	-26.9	-27.6	13.8	4.50e-06	0	44	102	1048576	14	3897
2026-01-04 12:32:08.58	356.55	10.16	-26.8	-27.3	14.0	1.10e-06	0	44	102	1048576	14	3826
2026-01-04 12:32:10.59	356.29	10.03	-26.7	-27.3	14.0	1.10e-06	0	44	102	1048576	14	3824
2026-01-04 12:32:12.61	356.04	9.91	-26.8	-27.3	13.9	2.20e-06	0	44	102	1048576	14	3832
2026-01-04 12:32:14.63	355.79	9.79	-27.0	-27.7	13.7	6.80e-06	0	44	102	1048576	14	3938
2026-01-04 12:32:16.64	355.54	9.66	-27.0	-27.7	13.8	5.70e-06	0	44	102	1048576	14	3941
2026-01-04 12:32:18.65	355.29	9.54	-27.1	-28.1	13.6	6.80e-06	0	44	102	1048576	14	4032
2026-01-04 12:32:20.67	355.05	9.42	-27.2	-28.4	13.4	1.14e-05	0	44	102	1048576	14	4121
2026-01-04 12:32:22.68	354.80	9.29	-27.0	-28.0	13.7	6.80e-06	0	44	102	1048576	14	4000
2026-01-04 12:32:24.69	354.56	9.17	-27.0	-27.9	13.7	6.80e-06	0	44	102	1048576	14	3974
2026-01-04 12:32:26.71	354.33	9.05	-27.0	-27.9	13.7	2.20e-06	0	44	102	1048576	14	3978
2026-01-04 12:32:28.72	354.09	8.92	-27.4	-28.8	13.1	1.02e-05	0	44	102	1048576	14	4236
2026-01-04 12:32:30.73	353.86	8.80	-27.6	-29.1	12.8	4.69e-05	0	44	102	1048576	14	4323
2026-01-04 12:32:32.75	353.62	8.68	-28.2	-29.5	12.2	1.90e-04	0	44	102	1048576	16	4208
2026-01-04 12:32:34.75	353.39	8.56	-28.0	-29.1	12.5	9.95e-05	0	44	102	1048576	16	4102
2026-01-04 12:32:36.76	353.17	8.44	-27.9	-29.0	12.6	8.35e-05	0	44	102	1048576	16	4056
2026-01-04 12:32:38.78	352.94	8.31	-27.8	-28.6	12.8	3.54e-05	0	44	102	1048576	16	3946
2026-01-04 12:32:40.79	352.72	8.19	-27.7	-28.4	12.9	4.00e-05	0	44	102	1048576	16	3906
2026-01-04 12:32:42.81	352.49	8.07	-27.7	-28.3	13.0	3.20e-05	0	44	102	1048576	16	3893
2026-01-04 12:32:44.82	352.27	7.95	-27.7	-28.5	12.8	6.06e-05	0	44	102	1048576	16	3946
2026-01-04 12:32:46.83	352.05	7.83	-27.7	-28.3	12.9	3.77e-05	0	44	102	1048576	16	3899
2026-01-04 12:32:48.84	351.84	7.71	-27.7	-28.4	12.9	3.20e-05	0	44	102	1048576	16	3915
2026-01-04 12:32:50.85	351.62	7.59	-27.7	-28.5	12.8	5.14e-05	0	44	102	1048576	16	3946
2026-01-04 12:32:52.86	351.41	7.46	-27.7	-28.4	12.9	3.08e-05	0	44	102	1048576	16	3917
2026-01-04 12:32:54.88	351.20	7.34	-27.7	-28.5	12.8	5.14e-05	0	44	102	1048576	16	3927
2026-01-04 12:32:56.89	350.99	7.22	-27.2	-27.8	13.3	1.60e-05	0	44	102	1048576	15	3871
2026-01-04 12:32:58.90	350.78	7.10	-27.4	-28.2	13.1	2.28e-05	0	44	102	1048576	15	3976
2026-01-04 12:33:00.91	350.58	6.98	-33.5	-43.2	3.8	8.45e-01	0	44	104	1048576	26	11026

#Closed at: 2026-01-04 12:33:02
#Recorded file [1 MB]: D:/data/31010_260104_152751.dat