passes_logs/2026/01/04/R2M6_AANII_01/R2M6_AANII_01__20260104_154236_FENGYUN_3E_rec.log

#Pass ID: 20260104_154236_FENGYUN 3E
#Satellite: FENGYUN 3E
#Configuration: FENGYUN 3E
#almurnet v.1.7.20240730
#Start time: 2026-01-04 15:42:36

#Version: 2.2.20231116
#Station: R2M6_AANII_01
#Location: 30.233357 lon 59.946436 lat
#TLE: 1 49008U 21062A   26004.01270550 -.00000256  00000+0 -10014-3 0  9997
#TLE: 2 49008  98.7472   9.2701 0001499 161.2681 198.8551 14.19882497233285

#Time	Az	El	Level	Level2	SNR	BER	BlckErr	Temp	State	Recorded	gain1	gain2
2026-01-04 15:42:36.64	195.68	7.01	-27.6	-29.1	5.6	7.55e-01	0	41	0	0	15	4238
2026-01-04 15:42:39.66	195.88	7.22	-29.3	-31.5	9.8	1.09e-02	0	41	102	1048576	18	4651
2026-01-04 15:42:42.68	196.09	7.44	-28.4	-29.3	11.3	1.86e-03	0	41	102	1048576	18	3979
2026-01-04 15:42:45.69	196.30	7.65	-27.3	-28.2	12.7	7.55e-05	0	41	102	1048576	15	4005
2026-01-04 15:42:48.70	196.51	7.87	-27.5	-28.7	12.4	1.94e-04	0	41	102	1048576	15	4135
2026-01-04 15:42:51.72	196.72	8.09	-27.5	-28.6	12.5	1.35e-04	0	41	102	1048576	15	4090
2026-01-04 15:42:54.74	196.94	8.31	-27.3	-28.1	12.9	7.09e-05	0	41	102	1048576	15	3961
2026-01-04 15:42:57.76	197.16	8.54	-27.2	-28.4	13.0	2.97e-05	0	41	102	1048576	14	4134
2026-01-04 15:43:00.78	197.39	8.76	-27.3	-28.7	12.9	8.81e-05	0	42	102	1048576	14	4213
2026-01-04 15:43:03.80	197.62	8.99	-27.6	-28.8	12.5	1.06e-04	0	42	102	1048576	15	4149
2026-01-04 15:43:06.81	197.85	9.22	-27.4	-28.3	12.8	7.55e-05	0	42	102	1048576	15	4018
2026-01-04 15:43:09.82	198.08	9.45	-27.5	-28.7	12.6	9.61e-05	0	42	102	1048576	15	4110
2026-01-04 15:43:12.84	198.32	9.68	-26.8	-27.5	13.7	6.80e-06	0	42	102	1048576	14	3889
2026-01-04 15:43:15.86	198.57	9.91	-26.5	-26.8	14.1	3.40e-06	0	42	102	1048576	14	3727
2026-01-04 15:43:18.88	198.81	10.15	-26.6	-27.0	14.0	4.50e-06	0	42	102	1048576	14	3763
2026-01-04 15:43:21.90	199.06	10.39	-26.4	-27.0	14.2	2.20e-06	0	42	102	1048576	13	3861
2026-01-04 15:43:24.93	199.32	10.63	-26.4	-27.2	14.2	0.00e+00	0	42	102	1048576	13	3911
2026-01-04 15:43:27.94	199.57	10.87	-26.4	-27.0	14.3	1.10e-06	0	42	102	1048576	13	3874
2026-01-04 15:43:30.96	199.84	11.11	-26.4	-27.2	14.2	2.20e-06	0	42	102	1048576	13	3915
2026-01-04 15:43:33.99	200.10	11.35	-26.7	-27.8	13.9	4.50e-06	0	42	102	1048576	13	4069
2026-01-04 15:43:37.02	200.38	11.60	-26.4	-27.0	14.3	0.00e+00	0	42	102	1048576	13	3868
2026-01-04 15:43:40.03	200.65	11.85	-26.5	-27.2	14.2	0.00e+00	0	42	102	1048576	13	3929
2026-01-04 15:43:43.04	200.93	12.10	-26.4	-27.1	14.3	0.00e+00	0	42	102	1048576	13	3891
2026-01-04 15:43:46.07	201.21	12.35	-26.3	-26.9	14.5	1.10e-06	0	43	102	1048576	13	3840
2026-01-04 15:43:49.09	201.50	12.61	-26.2	-26.7	14.6	2.20e-06	0	43	102	1048576	13	3795
2026-01-04 15:43:52.11	201.80	12.86	-26.1	-26.4	14.8	0.00e+00	0	43	102	1048576	13	3716
2026-01-04 15:43:55.12	202.10	13.12	-26.1	-26.5	14.7	0.00e+00	0	43	102	1048576	13	3735
2026-01-04 15:43:58.15	202.40	13.38	-26.0	-26.1	14.9	0.00e+00	0	43	102	1048576	13	3668
2026-01-04 15:44:01.17	202.71	13.65	-25.9	-26.4	15.1	0.00e+00	0	43	102	1048576	12	3819
2026-01-04 15:44:04.18	203.02	13.91	-25.9	-26.5	15.0	0.00e+00	0	43	102	1048576	12	3849
2026-01-04 15:44:07.20	203.34	14.18	-25.9	-26.5	15.0	0.00e+00	0	43	102	1048576	12	3840
2026-01-04 15:44:10.22	203.67	14.45	-26.0	-26.6	15.0	0.00e+00	0	43	102	1048576	12	3855
2026-01-04 15:44:13.23	204.00	14.72	-26.1	-26.9	14.8	0.00e+00	0	43	102	1048576	12	3939
2026-01-04 15:44:16.25	204.34	14.99	-25.6	-25.9	15.4	0.00e+00	0	43	102	1048576	12	3693
2026-01-04 15:44:19.27	204.68	15.27	-25.6	-25.7	15.6	0.00e+00	0	43	102	1048576	12	3648
2026-01-04 15:44:22.30	205.03	15.55	-25.4	-25.9	15.8	0.00e+00	0	43	102	1048576	11	3794
2026-01-04 15:44:25.31	205.39	15.83	-25.5	-26.0	15.7	0.00e+00	0	43	102	1048576	11	3831
2026-01-04 15:44:28.32	205.75	16.11	-25.5	-26.0	15.8	0.00e+00	0	43	102	1048576	11	3813
2026-01-04 15:44:31.34	206.12	16.39	-25.4	-25.9	15.8	0.00e+00	0	43	102	1048576	11	3795
2026-01-04 15:44:34.36	206.49	16.68	-25.3	-25.5	16.0	0.00e+00	0	43	102	1048576	11	3711
2026-01-04 15:44:37.37	206.87	16.97	-25.2	-25.3	16.2	0.00e+00	0	43	102	1048576	11	3656
2026-01-04 15:44:40.40	207.27	17.26	-25.0	-25.0	16.3	0.00e+00	0	43	102	1048576	11	3588
2026-01-04 15:44:43.42	207.66	17.55	-25.1	-25.2	16.3	0.00e+00	0	43	102	1048576	11	3629
2026-01-04 15:44:46.43	208.07	17.85	-25.2	-25.3	16.2	0.00e+00	0	43	102	1048576	11	3667
2026-01-04 15:44:49.45	208.48	18.15	-24.9	-24.8	16.5	0.00e+00	0	43	102	1048576	11	3545
2026-01-04 15:44:52.47	208.90	18.45	-25.0	-25.5	16.4	2.20e-06	0	43	102	1048576	10	3790
2026-01-04 15:44:55.49	209.33	18.75	-24.7	-24.8	16.8	4.50e-06	0	43	102	1048576	10	3638
2026-01-04 15:44:58.51	209.77	19.06	-24.8	-25.0	16.7	0.00e+00	0	43	102	1048576	10	3680
2026-01-04 15:45:01.53	210.21	19.36	-24.9	-25.2	16.6	0.00e+00	0	43	102	1048576	10	3737
2026-01-04 15:45:04.55	210.67	19.67	-25.0	-25.4	16.5	0.00e+00	0	43	102	1048576	10	3778
2026-01-04 15:45:07.57	211.13	19.98	-24.8	-25.0	16.8	0.00e+00	0	43	102	1048576	10	3676
2026-01-04 15:45:10.60	211.61	20.30	-24.6	-24.6	17.0	0.00e+00	0	43	102	1048576	10	3595
2026-01-04 15:45:13.62	212.09	20.61	-24.6	-25.1	16.9	0.00e+00	0	43	102	1048576	9	3806
2026-01-04 15:45:16.63	212.58	20.93	-24.6	-25.2	16.9	0.00e+00	0	43	102	1048576	9	3820
2026-01-04 15:45:19.64	213.08	21.24	-24.5	-24.8	17.1	0.00e+00	0	43	102	1048576	9	3741
2026-01-04 15:45:22.66	213.59	21.56	-24.5	-24.8	17.1	0.00e+00	0	43	102	1048576	9	3738
2026-01-04 15:45:25.68	214.12	21.89	-24.5	-24.9	17.1	0.00e+00	0	43	102	1048576	9	3749
2026-01-04 15:45:28.70	214.65	22.21	-24.5	-24.9	17.1	0.00e+00	0	43	102	1048576	9	3762
2026-01-04 15:45:31.72	215.19	22.54	-24.6	-25.0	17.1	0.00e+00	0	43	102	1048576	9	3788
2026-01-04 15:45:34.74	215.75	22.86	-24.4	-24.6	17.3	0.00e+00	0	43	102	1048576	9	3686
2026-01-04 15:45:37.76	216.32	23.19	-24.2	-24.3	17.5	0.00e+00	0	43	102	1048576	9	3619
2026-01-04 15:45:40.78	216.90	23.52	-24.1	-24.0	17.6	0.00e+00	0	43	102	1048576	9	3552
2026-01-04 15:45:43.80	217.49	23.85	-23.9	-24.1	17.9	0.00e+00	0	43	102	1048576	8	3673
2026-01-04 15:45:46.82	218.09	24.19	-23.8	-23.8	18.0	0.00e+00	0	43	102	1048576	8	3607
2026-01-04 15:45:49.83	218.70	24.52	-24.1	-24.6	17.6	0.00e+00	0	43	102	1048576	8	3785
2026-01-04 15:45:52.85	219.33	24.85	-24.1	-24.5	17.7	0.00e+00	0	43	102	1048576	8	3778
2026-01-04 15:45:55.86	219.97	25.18	-24.4	-25.1	17.4	0.00e+00	0	43	102	1048576	8	3912
2026-01-04 15:45:58.88	220.63	25.52	-23.9	-24.0	17.9	0.00e+00	0	43	102	1048576	8	3659
2026-01-04 15:46:01.91	221.30	25.85	-24.0	-24.2	17.8	0.00e+00	0	44	102	1048576	8	3699
2026-01-04 15:46:04.93	221.98	26.19	-24.0	-24.3	17.8	0.00e+00	0	44	102	1048576	8	3728
2026-01-04 15:46:07.95	222.68	26.53	-23.8	-23.8	18.1	0.00e+00	0	43	102	1048576	8	3614
2026-01-04 15:46:10.97	223.39	26.86	-23.8	-23.9	18.0	0.00e+00	0	43	102	1048576	8	3625
2026-01-04 15:46:13.99	224.12	27.19	-23.7	-23.7	18.1	0.00e+00	0	43	102	1048576	8	3589
2026-01-04 15:46:17.01	224.86	27.53	-23.7	-23.6	18.2	0.00e+00	0	44	102	1048576	8	3573
2026-01-04 15:46:20.03	225.62	27.86	-23.9	-24.1	18.0	0.00e+00	0	43	102	1048576	8	3671
2026-01-04 15:46:23.05	226.39	28.19	-23.6	-23.5	18.2	0.00e+00	0	43	102	1048576	8	3544
2026-01-04 15:46:26.07	227.18	28.52	-23.6	-23.4	18.3	0.00e+00	0	43	102	1048576	8	3527
2026-01-04 15:46:29.08	227.98	28.84	-23.8	-23.9	18.1	0.00e+00	0	43	102	1048576	8	3622
2026-01-04 15:46:32.09	228.80	29.17	-23.8	-23.9	18.1	0.00e+00	0	43	102	1048576	8	3638
2026-01-04 15:46:35.11	229.63	29.49	-24.0	-24.3	17.9	0.00e+00	0	43	102	1048576	8	3721
2026-01-04 15:46:38.14	230.49	29.81	-23.6	-23.4	18.4	0.00e+00	0	44	102	1048576	8	3517
2026-01-04 15:46:41.15	231.35	30.12	-23.6	-23.5	18.3	0.00e+00	0	43	102	1048576	8	3554
2026-01-04 15:46:44.17	232.24	30.44	-23.7	-23.6	18.2	0.00e+00	0	43	102	1048576	8	3555
2026-01-04 15:46:47.17	233.14	30.74	-23.5	-23.3	18.4	0.00e+00	0	43	102	1048576	8	3495
2026-01-04 15:46:50.19	234.06	31.04	-23.6	-23.5	18.3	0.00e+00	0	43	102	1048576	8	3547
2026-01-04 15:46:53.21	234.99	31.34	-23.5	-23.3	18.4	0.00e+00	0	43	102	1048576	8	3496
2026-01-04 15:46:56.22	235.94	31.63	-23.7	-23.7	18.2	0.00e+00	0	43	102	1048576	8	3587
2026-01-04 15:46:59.24	236.91	31.92	-23.7	-23.6	18.3	0.00e+00	0	43	102	1048576	8	3558
2026-01-04 15:47:02.25	237.90	32.20	-23.4	-23.1	18.5	0.00e+00	0	43	102	1048576	8	3456
2026-01-04 15:47:05.27	238.90	32.47	-23.3	-23.4	18.6	0.00e+00	0	43	102	1048576	7	3616
2026-01-04 15:47:08.29	239.92	32.74	-23.6	-23.9	18.3	0.00e+00	0	43	102	1048576	7	3737
2026-01-04 15:47:11.30	240.95	33.00	-23.6	-23.9	18.3	0.00e+00	0	44	102	1048576	7	3741
2026-01-04 15:47:14.33	242.01	33.25	-23.4	-23.6	18.5	0.00e+00	0	44	102	1048576	7	3666
2026-01-04 15:47:17.35	243.08	33.49	-23.4	-23.5	18.6	0.00e+00	0	43	102	1048576	7	3639
2026-01-04 15:47:20.37	244.16	33.72	-23.6	-23.9	18.3	0.00e+00	0	44	102	1048576	7	3741
2026-01-04 15:47:23.39	245.26	33.94	-23.7	-24.2	18.2	0.00e+00	0	43	102	1048576	7	3790
2026-01-04 15:47:26.40	246.37	34.15	-23.7	-24.2	18.2	0.00e+00	0	43	102	1048576	7	3801
2026-01-04 15:47:29.43	247.50	34.36	-23.6	-24.0	18.3	0.00e+00	0	43	102	1048576	7	3745
2026-01-04 15:47:32.44	248.63	34.55	-23.4	-23.4	18.6	0.00e+00	0	43	102	1048576	7	3629
2026-01-04 15:47:35.47	249.79	34.73	-23.6	-23.9	18.4	0.00e+00	0	43	102	1048576	7	3725
2026-01-04 15:47:38.50	250.96	34.89	-23.6	-23.9	18.4	0.00e+00	0	43	102	1048576	7	3730
2026-01-04 15:47:41.52	252.13	35.05	-23.4	-23.4	18.5	0.00e+00	0	43	102	1048576	7	3629
2026-01-04 15:47:44.53	253.32	35.19	-23.6	-23.9	18.4	0.00e+00	0	43	102	1048576	7	3734
2026-01-04 15:47:47.56	254.52	35.32	-23.0	-22.7	19.0	0.00e+00	0	44	102	1048576	7	3479
2026-01-04 15:47:50.58	255.72	35.44	-23.1	-22.9	18.9	0.00e+00	0	43	102	1048576	7	3509
2026-01-04 15:47:53.61	256.94	35.54	-23.5	-23.7	18.5	0.00e+00	0	44	102	1048576	7	3688
2026-01-04 15:47:56.63	258.16	35.63	-23.4	-23.5	18.6	0.00e+00	0	44	102	1048576	7	3635
2026-01-04 15:47:59.65	259.39	35.70	-23.9	-24.6	18.0	0.00e+00	0	44	102	1048576	7	3900
2026-01-04 15:48:02.67	260.62	35.76	-23.8	-24.4	18.1	0.00e+00	0	43	102	1048576	7	3860
2026-01-04 15:48:05.69	261.85	35.81	-23.9	-24.0	18.1	0.00e+00	0	43	102	1048576	8	3659
2026-01-04 15:48:08.71	263.09	35.84	-23.6	-23.3	18.5	0.00e+00	0	44	102	1048576	8	3509
2026-01-04 15:48:11.72	264.32	35.85	-24.0	-24.2	18.0	0.00e+00	0	44	102	1048576	8	3703
2026-01-04 15:48:14.74	265.56	35.86	-23.7	-23.6	18.4	0.00e+00	0	44	102	1048576	8	3558
2026-01-04 15:48:17.77	266.81	35.84	-23.8	-23.8	18.3	0.00e+00	0	43	102	1048576	8	3609
2026-01-04 15:48:20.79	268.05	35.81	-23.6	-23.4	18.5	0.00e+00	0	43	102	1048576	8	3517
2026-01-04 15:48:23.81	269.28	35.77	-23.4	-23.6	18.5	0.00e+00	0	43	102	1048576	7	3658
2026-01-04 15:48:26.82	270.51	35.71	-23.5	-23.6	18.6	1.10e-06	0	43	102	1048576	7	3668
2026-01-04 15:48:29.84	271.73	35.64	-23.5	-23.7	18.5	0.00e+00	0	43	102	1048576	7	3696
2026-01-04 15:48:32.86	272.95	35.56	-23.8	-24.3	18.2	0.00e+00	0	43	102	1048576	7	3822
2026-01-04 15:48:35.88	274.17	35.46	-23.5	-23.7	18.5	0.00e+00	0	44	102	1048576	7	3678
2026-01-04 15:48:38.90	275.37	35.34	-23.6	-23.8	18.5	0.00e+00	0	43	102	1048576	7	3715
2026-01-04 15:48:41.91	276.56	35.22	-23.5	-23.7	18.5	0.00e+00	0	43	102	1048576	7	3690
2026-01-04 15:48:44.93	277.75	35.08	-23.3	-23.3	18.8	0.00e+00	0	43	102	1048576	7	3587
2026-01-04 15:48:47.94	278.92	34.93	-23.7	-24.0	18.4	0.00e+00	0	44	102	1048576	7	3759
2026-01-04 15:48:50.96	280.09	34.76	-23.4	-23.5	18.6	0.00e+00	0	43	102	1048576	7	3644
2026-01-04 15:48:53.99	281.25	34.59	-23.6	-23.8	18.5	0.00e+00	0	44	102	1048576	7	3707
2026-01-04 15:48:57.01	282.39	34.40	-23.5	-23.7	18.6	0.00e+00	0	44	102	1048576	7	3676
2026-01-04 15:49:00.03	283.51	34.20	-23.6	-23.9	18.4	0.00e+00	0	44	102	1048576	7	3730
2026-01-04 15:49:03.05	284.63	33.99	-23.8	-24.3	18.3	0.00e+00	0	43	102	1048576	7	3828
2026-01-04 15:49:06.06	285.72	33.77	-23.8	-24.4	18.1	0.00e+00	0	44	102	1048576	7	3857
2026-01-04 15:49:09.09	286.81	33.54	-23.5	-23.7	18.5	0.00e+00	0	43	102	1048576	7	3694
2026-01-04 15:49:12.11	287.88	33.30	-23.8	-24.4	18.2	0.00e+00	0	44	102	1048576	7	3840
2026-01-04 15:49:15.13	288.93	33.05	-23.7	-24.1	18.3	0.00e+00	0	44	102	1048576	7	3774
2026-01-04 15:49:18.14	289.96	32.80	-23.7	-24.1	18.4	0.00e+00	0	44	102	1048576	7	3776
2026-01-04 15:49:21.16	290.98	32.54	-23.9	-24.6	18.1	0.00e+00	0	44	102	1048576	7	3895
2026-01-04 15:49:24.19	291.99	32.26	-23.9	-24.5	18.1	0.00e+00	0	44	102	1048576	7	3873
2026-01-04 15:49:27.21	292.98	31.99	-24.0	-24.2	18.1	0.00e+00	0	44	102	1048576	8	3685
2026-01-04 15:49:30.22	293.95	31.70	-24.1	-24.5	17.9	0.00e+00	0	44	102	1048576	8	3755
2026-01-04 15:49:33.25	294.90	31.41	-24.0	-24.3	18.0	0.00e+00	0	44	102	1048576	8	3717
2026-01-04 15:49:36.27	295.84	31.12	-23.9	-24.0	18.2	0.00e+00	0	44	102	1048576	8	3642
2026-01-04 15:49:39.28	296.76	30.82	-23.8	-23.9	18.2	0.00e+00	0	44	102	1048576	8	3625
2026-01-04 15:49:42.30	297.66	30.51	-23.8	-23.9	18.2	0.00e+00	0	43	102	1048576	8	3625
2026-01-04 15:49:45.32	298.55	30.21	-24.0	-24.2	18.1	0.00e+00	0	44	102	1048576	8	3687
2026-01-04 15:49:48.34	299.42	29.89	-23.9	-24.2	18.1	0.00e+00	0	44	102	1048576	8	3689
2026-01-04 15:49:51.35	300.27	29.58	-23.9	-24.1	18.1	0.00e+00	0	43	102	1048576	8	3683
2026-01-04 15:49:54.37	301.10	29.26	-24.0	-24.3	18.0	0.00e+00	0	44	102	1048576	8	3726
2026-01-04 15:49:57.39	301.92	28.94	-24.0	-24.3	18.0	0.00e+00	0	43	102	1048576	8	3723
2026-01-04 15:50:00.41	302.73	28.61	-24.0	-24.2	18.0	0.00e+00	0	43	102	1048576	8	3696
2026-01-04 15:50:03.43	303.52	28.28	-23.8	-23.8	18.2	0.00e+00	0	43	102	1048576	8	3611
2026-01-04 15:50:06.45	304.29	27.96	-24.0	-24.2	18.0	0.00e+00	0	44	102	1048576	8	3688
2026-01-04 15:50:09.47	305.05	27.63	-24.2	-24.6	17.8	0.00e+00	0	44	102	1048576	8	3790
2026-01-04 15:50:12.49	305.79	27.30	-24.2	-24.6	17.8	0.00e+00	0	43	102	1048576	8	3781
2026-01-04 15:50:15.51	306.52	26.96	-24.1	-24.6	17.9	0.00e+00	0	44	102	1048576	8	3775
2026-01-04 15:50:18.53	307.23	26.63	-24.0	-24.3	18.0	0.00e+00	0	44	102	1048576	8	3715
2026-01-04 15:50:21.55	307.93	26.30	-24.0	-24.3	18.0	0.00e+00	0	44	102	1048576	8	3713
2026-01-04 15:50:24.56	308.61	25.97	-24.3	-24.9	17.6	0.00e+00	0	43	102	1048576	8	3865
2026-01-04 15:50:27.59	309.28	25.63	-24.3	-24.8	17.7	0.00e+00	0	44	102	1048576	8	3839
2026-01-04 15:50:30.60	309.94	25.30	-24.3	-24.9	17.6	0.00e+00	0	44	102	1048576	8	3866
2026-01-04 15:50:33.62	310.58	24.97	-24.2	-24.7	17.7	0.00e+00	0	44	102	1048576	8	3810
2026-01-04 15:50:36.64	311.21	24.64	-24.2	-24.6	17.8	0.00e+00	0	44	102	1048576	8	3781
2026-01-04 15:50:39.66	311.83	24.31	-24.3	-24.8	17.7	0.00e+00	0	44	102	1048576	8	3833
2026-01-04 15:50:42.68	312.43	23.98	-24.4	-25.1	17.5	0.00e+00	0	43	102	1048576	8	3900
2026-01-04 15:50:45.69	313.02	23.65	-24.5	-25.3	17.4	0.00e+00	0	43	102	1048576	8	3945
2026-01-04 15:50:48.71	313.60	23.32	-24.5	-25.3	17.4	0.00e+00	0	43	102	1048576	8	3945
2026-01-04 15:50:51.73	314.17	23.00	-24.4	-25.1	17.4	0.00e+00	0	44	102	1048576	8	3910
2026-01-04 15:50:54.75	314.73	22.67	-24.5	-25.4	17.3	0.00e+00	0	43	102	1048576	8	3976
2026-01-04 15:50:57.77	315.27	22.35	-24.9	-25.7	16.9	0.00e+00	0	43	102	1048576	9	3938
2026-01-04 15:51:00.77	315.80	22.03	-24.9	-25.7	16.9	0.00e+00	0	44	102	1048576	9	3956
2026-01-04 15:51:03.80	316.33	21.70	-24.9	-25.6	16.9	0.00e+00	0	43	102	1048576	9	3917
2026-01-04 15:51:06.83	316.84	21.39	-24.9	-25.6	16.9	0.00e+00	0	44	102	1048576	9	3923
2026-01-04 15:51:09.85	317.35	21.07	-24.9	-25.6	16.9	0.00e+00	0	44	102	1048576	9	3925
2026-01-04 15:51:12.85	317.84	20.76	-24.8	-25.6	16.9	0.00e+00	0	44	102	1048576	9	3912
2026-01-04 15:51:15.87	318.32	20.44	-25.1	-26.0	16.7	0.00e+00	0	44	102	1048576	9	4021
2026-01-04 15:51:18.89	318.80	20.13	-25.2	-25.9	16.5	0.00e+00	0	44	102	1048576	10	3885
2026-01-04 15:51:21.91	319.26	19.82	-25.3	-26.0	16.5	0.00e+00	0	43	102	1048576	10	3900
2026-01-04 15:51:24.93	319.72	19.51	-25.3	-26.0	16.4	0.00e+00	0	44	102	1048576	10	3917
2026-01-04 15:51:27.95	320.17	19.21	-25.3	-26.1	16.4	0.00e+00	0	44	102	1048576	10	3918
2026-01-04 15:51:30.97	320.61	18.91	-25.2	-25.9	16.4	0.00e+00	0	44	102	1048576	10	3880
2026-01-04 15:51:33.99	321.04	18.61	-25.4	-26.1	16.3	0.00e+00	0	43	102	1048576	10	3940
2026-01-04 15:51:37.01	321.46	18.31	-25.7	-26.4	15.9	0.00e+00	0	44	102	1048576	11	3887
2026-01-04 15:51:40.03	321.87	18.01	-25.4	-25.3	16.1	0.00e+00	0	44	102	1048576	12	3551
2026-01-04 15:51:43.04	322.28	17.72	-25.7	-26.3	16.0	0.00e+00	0	44	102	1048576	11	3874
2026-01-04 15:51:46.06	322.68	17.43	-25.8	-26.6	15.8	0.00e+00	0	44	102	1048576	11	3957
2026-01-04 15:51:49.08	323.07	17.14	-25.7	-26.4	15.9	0.00e+00	0	44	102	1048576	11	3886
2026-01-04 15:51:52.10	323.46	16.85	-25.6	-26.1	16.0	0.00e+00	0	44	102	1048576	11	3825
2026-01-04 15:51:55.12	323.83	16.56	-25.6	-26.1	16.0	0.00e+00	0	44	102	1048576	11	3839
2026-01-04 15:51:58.15	324.21	16.28	-25.8	-26.6	15.7	0.00e+00	0	44	102	1048576	11	3948
2026-01-04 15:52:01.16	324.57	16.00	-25.6	-26.2	15.9	0.00e+00	0	44	102	1048576	11	3866
2026-01-04 15:52:04.18	324.93	15.72	-25.9	-26.8	15.6	0.00e+00	0	43	102	1048576	11	3991
2026-01-04 15:52:07.20	325.28	15.44	-25.9	-26.9	15.5	0.00e+00	0	44	102	1048576	11	4024
2026-01-04 15:52:10.22	325.62	15.17	-26.1	-27.2	15.3	0.00e+00	0	44	102	1048576	11	4097
2026-01-04 15:52:13.24	325.96	14.90	-26.3	-27.3	14.9	0.00e+00	0	44	102	1048576	12	4031
2026-01-04 15:52:16.26	326.30	14.63	-26.0	-26.6	15.3	0.00e+00	0	44	102	1048576	12	3856
2026-01-04 15:52:19.27	326.62	14.36	-26.0	-26.6	15.3	0.00e+00	0	44	102	1048576	12	3860
2026-01-04 15:52:22.30	326.95	14.09	-26.1	-26.8	15.2	0.00e+00	0	44	102	1048576	12	3896
2026-01-04 15:52:25.32	327.26	13.83	-26.2	-27.1	15.0	0.00e+00	0	44	102	1048576	12	3982
2026-01-04 15:52:28.33	327.57	13.57	-26.3	-27.1	14.9	0.00e+00	0	44	102	1048576	12	3989
2026-01-04 15:52:31.35	327.88	13.31	-26.3	-27.3	14.8	0.00e+00	0	44	102	1048576	12	4039
2026-01-04 15:52:34.37	328.18	13.05	-26.3	-27.3	14.8	0.00e+00	0	44	102	1048576	12	4038
2026-01-04 15:52:37.39	328.48	12.79	-26.4	-27.4	14.8	0.00e+00	0	44	102	1048576	12	4056
2026-01-04 15:52:40.41	328.77	12.54	-26.4	-27.4	14.8	0.00e+00	0	44	102	1048576	12	4060
2026-01-04 15:52:43.43	329.05	12.29	-26.4	-27.6	14.7	0.00e+00	0	44	102	1048576	12	4100
2026-01-04 15:52:46.46	329.34	12.04	-26.5	-27.7	14.6	0.00e+00	0	44	102	1048576	12	4133
2026-01-04 15:52:49.46	329.61	11.79	-26.6	-27.4	14.5	3.40e-06	0	44	102	1048576	13	3942
2026-01-04 15:52:52.48	329.89	11.55	-26.6	-27.5	14.4	1.10e-06	0	44	102	1048576	13	3982
2026-01-04 15:52:55.50	330.16	11.30	-26.7	-27.7	14.2	1.10e-06	0	43	102	1048576	13	4034
2026-01-04 15:52:58.53	330.42	11.06	-26.8	-27.8	14.2	2.20e-06	0	44	102	1048576	13	4058
2026-01-04 15:53:01.54	330.68	10.82	-26.9	-28.2	13.9	3.40e-06	0	44	102	1048576	13	4159
2026-01-04 15:53:04.55	330.94	10.58	-27.0	-28.3	13.9	6.80e-06	0	44	102	1048576	13	4196
2026-01-04 15:53:07.56	331.19	10.35	-27.0	-28.3	13.8	3.40e-06	0	44	102	1048576	13	4203
2026-01-04 15:53:10.58	331.44	10.11	-27.1	-28.1	13.7	6.80e-06	0	44	102	1048576	14	4037
2026-01-04 15:53:13.59	331.68	9.88	-27.1	-28.0	13.7	3.40e-06	0	44	102	1048576	14	4019
2026-01-04 15:53:16.60	331.92	9.65	-27.2	-28.3	13.5	1.02e-05	0	44	102	1048576	14	4084
2026-01-04 15:53:19.62	332.16	9.42	-27.2	-28.3	13.5	1.02e-05	0	44	102	1048576	14	4100
2026-01-04 15:53:22.65	332.40	9.19	-27.3	-28.4	13.4	1.37e-05	0	44	102	1048576	14	4128
2026-01-04 15:53:25.67	332.63	8.97	-27.1	-28.1	13.6	6.80e-06	0	44	102	1048576	14	4034
2026-01-04 15:53:28.68	332.86	8.74	-27.2	-28.4	13.4	1.48e-05	0	44	102	1048576	14	4120
2026-01-04 15:53:31.70	333.08	8.52	-27.3	-28.5	13.4	1.94e-05	0	44	102	1048576	14	4132
2026-01-04 15:53:34.71	333.30	8.30	-27.2	-28.4	13.4	1.37e-05	0	44	102	1048576	14	4121
2026-01-04 15:53:37.73	333.52	8.08	-27.4	-28.7	13.1	3.89e-05	0	44	102	1048576	14	4213
2026-01-04 15:53:40.75	333.73	7.86	-27.4	-28.9	13.0	4.69e-05	0	44	102	1048576	14	4260
2026-01-04 15:53:43.77	333.95	7.65	-27.5	-28.6	12.9	5.72e-05	0	43	102	1048576	15	4084
2026-01-04 15:53:46.79	334.16	7.43	-27.6	-28.7	12.8	5.72e-05	0	44	102	1048576	15	4105
2026-01-04 15:53:49.81	334.36	7.22	-27.8	-29.1	12.6	9.49e-05	0	44	102	1048576	15	4221
2026-01-04 15:53:52.82	334.57	7.01	-33.6	-43.6	3.8	8.45e-01	0	44	104	1048576	26	11389

#Closed at: 2026-01-04 15:53:53
#Recorded file [1 MB]: D:/data/31010_260104_184238.dat