passes_logs/2026/01/16/R4.6S_Anadyr/R4.6S_Anadyr__20260116_180628_NOAA_20_JPSS-1_rec.log

#Pass ID: 20260116_180628_NOAA 20 (JPSS-1)
#Satellite: NOAA 20 (JPSS-1)
#Configuration: NOAA 20
#almurnet v.1.7.20251203
#Start time: 2026-01-16 18:06:30

#Version: 2.2.20231116
#Station: R4.6S_Anadyr
#Location: 177.4865 lon 64.73178 lat
#TLE: 1 43013U 17073A   26015.89389188  .00000026  00000+0  33113-4 0  9999
#TLE: 2 43013  98.7636 316.8238 0001460  37.8997 322.2282 14.19536128422860

#Time	Az	El	Level	Level2	SNR	BER	BlckErr	Temp	State	Recorded	gain1	gain2
2026-01-16 18:06:30.32	37.35	0.08	-48.5	-66.2	3.5	3.02e+01	0	27	0	0	60	78256
2026-01-16 18:06:34.35	37.08	0.28	-48.1	-63.3	3.6	1.51e+00	0	28	104	0	60	52752
2026-01-16 18:06:38.39	36.80	0.49	-48.0	-63.3	3.6	1.51e+00	0	28	104	0	60	52601
2026-01-16 18:06:42.43	36.52	0.69	-47.7	-62.9	3.6	1.51e+00	0	28	104	0	60	50600
2026-01-16 18:06:46.46	36.23	0.90	-46.9	-62.1	3.6	1.51e+00	0	28	104	0	60	45847
2026-01-16 18:06:50.50	35.94	1.11	-46.3	-61.5	3.6	1.51e+00	0	28	104	0	60	42798
2026-01-16 18:06:54.54	35.65	1.32	-46.3	-61.5	3.6	1.51e+00	0	28	104	0	60	43075
2026-01-16 18:06:58.58	35.35	1.53	-46.3	-61.4	3.6	1.51e+00	0	28	104	0	60	42562
2026-01-16 18:07:02.61	35.04	1.74	-46.3	-61.5	3.6	1.51e+00	0	28	104	0	60	43085
2026-01-16 18:07:06.65	34.73	1.95	-46.3	-61.2	3.6	1.51e+00	0	28	104	0	60	41648
2026-01-16 18:07:10.69	34.42	2.17	-46.3	-61.3	3.6	1.51e+00	0	28	104	0	60	41888
2026-01-16 18:07:14.73	34.10	2.38	-46.3	-61.4	3.6	1.51e+00	0	28	104	0	60	42620
2026-01-16 18:07:18.78	33.78	2.59	-46.3	-60.8	3.6	1.51e+00	0	28	104	0	60	39453
2026-01-16 18:07:22.82	33.45	2.81	-46.2	-60.1	3.6	1.51e+00	0	28	104	0	60	36728
2026-01-16 18:07:26.86	33.12	3.02	-44.3	-48.6	11.6	1.04e-03	92	28	0	4194304	60	9751
2026-01-16 18:07:30.90	32.78	3.24	-46.2	-61.1	3.6	2.13e-05	0	28	104	11534336	60	41158
2026-01-16 18:07:34.93	32.43	3.46	-44.0	-47.8	12.7	8.54e-05	0	28	0	15728640	60	8857
2026-01-16 18:07:38.97	32.08	3.68	-41.6	-43.7	17.0	0.00e+00	13	28	0	23068672	56	7005
2026-01-16 18:07:43.01	31.73	3.89	-41.1	-43.0	17.7	0.00e+00	92	28	0	30408704	54	7204
2026-01-16 18:07:47.05	31.37	4.11	-41.1	-43.0	17.8	0.00e+00	0	28	0	37748736	54	7179
2026-01-16 18:07:51.08	31.01	4.33	-40.8	-42.6	17.9	0.00e+00	0	28	0	45088768	54	6906
2026-01-16 18:07:55.12	30.63	4.55	-41.0	-42.8	18.1	0.00e+00	87	28	0	53477376	54	7056
2026-01-16 18:07:59.16	30.26	4.78	-41.1	-42.9	18.0	0.00e+00	0	28	0	60817408	54	7142
2026-01-16 18:08:03.20	29.87	5.00	-41.0	-42.7	18.2	0.00e+00	0	28	0	68157440	54	6981
2026-01-16 18:08:07.24	29.48	5.22	-40.9	-42.6	18.2	0.00e+00	81	28	0	75497472	54	6921
2026-01-16 18:08:11.28	29.09	5.44	-41.2	-43.0	17.9	0.00e+00	92	28	0	82837504	54	7242
2026-01-16 18:08:15.31	28.69	5.67	-40.9	-42.6	18.3	0.00e+00	2	29	0	91226112	54	6881
2026-01-16 18:08:19.35	28.28	5.89	-41.0	-42.7	18.3	0.00e+00	0	28	0	98566144	54	6972
2026-01-16 18:08:23.39	27.86	6.12	-40.7	-42.4	18.6	0.00e+00	0	28	0	105906176	54	6712
2026-01-16 18:08:27.43	27.44	6.34	-40.7	-42.4	18.6	0.00e+00	90	28	0	113246208	54	6698
2026-01-16 18:08:31.47	27.01	6.57	-40.7	-42.2	18.8	0.00e+00	81	28	0	121634816	54	6603
2026-01-16 18:08:35.51	26.58	6.79	-40.6	-42.2	18.8	0.00e+00	0	28	0	128974848	54	6571
2026-01-16 18:08:39.55	26.14	7.02	-40.5	-42.0	19.1	0.00e+00	0	28	0	136314880	54	6453
2026-01-16 18:08:43.59	25.69	7.25	-40.4	-42.0	19.1	0.00e+00	92	28	0	143654912	54	6414
2026-01-16 18:08:47.63	25.23	7.47	-40.2	-41.7	19.4	0.00e+00	84	28	0	152043520	54	6206
2026-01-16 18:08:51.67	24.76	7.70	-39.9	-41.3	19.9	0.00e+00	1	28	0	159383552	54	5911
2026-01-16 18:08:55.71	24.29	7.93	-39.9	-41.4	19.6	0.00e+00	0	28	0	166723584	54	5966
2026-01-16 18:08:59.75	23.81	8.16	-39.7	-41.0	20.2	0.00e+00	91	28	0	174063616	52	6428
2026-01-16 18:09:03.79	23.33	8.39	-39.6	-41.0	20.3	0.00e+00	0	28	0	181403648	52	6393
2026-01-16 18:09:07.82	22.83	8.61	-39.6	-40.9	20.3	0.00e+00	0	28	0	189792256	52	6368
2026-01-16 18:09:11.86	22.33	8.84	-39.6	-40.9	20.3	0.00e+00	72	28	0	197132288	52	6336
2026-01-16 18:09:15.89	21.82	9.07	-39.2	-40.4	20.7	0.00e+00	34	28	0	204472320	52	6023
2026-01-16 18:09:19.93	21.30	9.30	-39.4	-40.7	20.5	0.00e+00	0	28	0	211812352	52	6192
2026-01-16 18:09:23.97	20.77	9.52	-39.3	-40.6	20.7	0.00e+00	0	28	0	219152384	52	6149
2026-01-16 18:09:28.00	20.24	9.75	-39.4	-40.7	20.6	0.00e+00	59	28	0	227540992	52	6185
2026-01-16 18:09:32.04	19.69	9.98	-39.1	-40.3	20.9	0.00e+00	81	28	0	234881024	52	5955
2026-01-16 18:09:36.07	19.14	10.20	-39.1	-40.4	20.9	0.00e+00	81	28	0	242221056	52	5972
2026-01-16 18:09:40.12	18.58	10.43	-39.3	-40.5	20.7	0.00e+00	2	28	0	249561088	52	6096
2026-01-16 18:09:44.16	18.01	10.65	-39.0	-40.2	21.1	0.00e+00	91	28	0	257949696	52	5846
2026-01-16 18:09:48.19	17.43	10.88	-39.2	-40.5	20.8	0.00e+00	0	28	0	265289728	52	6035
2026-01-16 18:09:52.23	16.84	11.10	-39.3	-40.5	20.8	0.00e+00	0	28	0	272629760	52	6067
2026-01-16 18:09:56.27	16.24	11.32	-39.3	-40.5	20.9	0.00e+00	0	28	0	279969792	52	6073
2026-01-16 18:10:00.30	15.63	11.54	-39.1	-40.3	21.0	0.00e+00	92	28	0	287309824	52	5932
2026-01-16 18:10:04.34	15.02	11.76	-39.3	-40.5	20.7	0.00e+00	0	28	0	295698432	52	6092
2026-01-16 18:10:08.38	14.39	11.98	-39.3	-40.6	20.8	0.00e+00	0	28	0	303038464	52	6111
2026-01-16 18:10:12.41	13.75	12.20	-39.1	-40.3	21.1	0.00e+00	0	28	0	310378496	52	5955
2026-01-16 18:10:16.45	13.11	12.41	-38.9	-40.0	21.3	0.00e+00	92	28	0	317718528	52	5728
2026-01-16 18:10:20.48	12.45	12.63	-38.7	-39.8	21.5	0.00e+00	0	28	0	326107136	50	6281
2026-01-16 18:10:24.52	11.79	12.84	-38.5	-39.6	21.7	0.00e+00	6	28	0	333447168	50	6126
2026-01-16 18:10:28.56	11.11	13.05	-37.8	-38.8	22.5	0.00e+00	7	28	0	340787200	50	5628
2026-01-16 18:10:32.60	10.43	13.26	-37.8	-38.8	22.4	0.00e+00	89	28	0	348127232	48	6290
2026-01-16 18:10:36.64	9.73	13.46	-37.7	-38.7	22.6	0.00e+00	0	28	0	355467264	48	6210
2026-01-16 18:10:40.68	9.03	13.66	-37.5	-38.5	22.7	0.00e+00	85	28	0	363855872	48	6092
2026-01-16 18:10:44.71	8.32	13.86	-37.4	-38.3	22.9	0.00e+00	0	28	0	371195904	48	5960
2026-01-16 18:10:48.75	7.59	14.06	-36.9	-37.8	23.3	0.00e+00	91	28	0	378535936	48	5624
2026-01-16 18:10:52.79	6.86	14.26	-36.7	-37.6	23.5	0.00e+00	0	28	0	385875968	46	6164
2026-01-16 18:10:56.83	6.12	14.45	-36.7	-37.7	23.6	0.00e+00	81	28	0	394264576	46	6174
2026-01-16 18:11:00.87	5.36	14.63	-36.7	-37.6	23.6	0.00e+00	0	28	0	401604608	46	6113
2026-01-16 18:11:04.90	4.60	14.82	-37.0	-37.9	23.4	0.00e+00	63	28	0	408944640	46	6384
2026-01-16 18:11:08.94	3.83	15.00	-37.2	-38.2	23.1	0.00e+00	2	28	0	416284672	46	6577
2026-01-16 18:11:12.98	3.05	15.17	-37.1	-38.1	23.2	0.00e+00	0	28	0	423624704	46	6491
2026-01-16 18:11:17.02	2.26	15.34	-37.1	-38.0	23.3	0.00e+00	69	28	0	432013312	46	6461
2026-01-16 18:11:21.05	1.46	15.51	-37.1	-38.1	23.3	0.00e+00	0	28	0	439353344	46	6489
2026-01-16 18:11:25.09	0.65	15.67	-37.1	-38.1	23.1	0.00e+00	0	28	0	446693376	46	6487
2026-01-16 18:11:29.13	359.83	15.83	-36.7	-37.6	23.7	0.00e+00	0	28	0	454033408	46	6155
2026-01-16 18:11:33.17	359.01	15.98	-36.6	-37.5	23.7	0.00e+00	92	28	0	462422016	46	6060
2026-01-16 18:11:37.20	358.17	16.13	-36.5	-37.4	23.8	0.00e+00	0	28	0	469762048	46	6010
2026-01-16 18:11:41.24	357.33	16.27	-36.6	-37.5	23.7	0.00e+00	82	28	0	477102080	46	6095
2026-01-16 18:11:45.28	356.48	16.41	-36.4	-37.3	24.0	0.00e+00	0	28	0	484442112	46	5916
2026-01-16 18:11:49.32	355.62	16.54	-36.5	-37.4	23.9	0.00e+00	92	28	0	491782144	46	5995
2026-01-16 18:11:53.36	354.75	16.67	-36.5	-37.4	23.8	0.00e+00	0	28	0	500170752	46	6007
2026-01-16 18:11:57.40	353.88	16.78	-36.8	-37.7	23.7	0.00e+00	0	28	0	507510784	46	6206
2026-01-16 18:12:01.44	353.00	16.90	-36.5	-37.4	23.9	0.00e+00	0	28	0	514850816	46	5999
2026-01-16 18:12:05.48	352.11	17.00	-36.8	-37.7	23.7	0.00e+00	92	28	0	522190848	46	6193
2026-01-16 18:12:09.52	351.22	17.10	-36.5	-37.4	24.0	0.00e+00	5	28	0	530579456	46	5967
2026-01-16 18:12:13.56	350.32	17.19	-36.9	-37.9	23.6	0.00e+00	0	28	0	537919488	46	6323
2026-01-16 18:12:17.60	349.42	17.28	-37.3	-38.2	23.3	0.00e+00	0	28	0	545259520	46	6606
2026-01-16 18:12:21.64	348.51	17.36	-37.4	-38.4	23.1	0.00e+00	90	28	0	552599552	46	6695
2026-01-16 18:12:25.67	347.60	17.43	-37.3	-38.2	23.2	0.00e+00	0	28	0	559939584	46	6586
2026-01-16 18:12:29.71	346.68	17.49	-37.6	-38.5	23.0	0.00e+00	0	28	0	568328192	46	6837
2026-01-16 18:12:33.75	345.76	17.55	-37.4	-38.3	23.1	0.00e+00	46	28	0	575668224	46	6681
2026-01-16 18:12:37.78	344.84	17.60	-37.7	-38.7	22.8	0.00e+00	81	28	0	583008256	46	6960
2026-01-16 18:12:41.82	343.91	17.64	-37.5	-38.5	23.0	0.00e+00	77	28	0	590348288	48	6070
2026-01-16 18:12:45.85	342.98	17.67	-37.5	-38.5	22.9	0.00e+00	82	28	0	598736896	48	6082
2026-01-16 18:12:49.89	342.05	17.70	-37.7	-38.7	22.7	0.00e+00	92	28	0	606076928	48	6221
2026-01-16 18:12:53.93	341.12	17.72	-37.3	-38.3	23.1	0.00e+00	0	28	0	613416960	48	5944
2026-01-16 18:12:57.97	340.18	17.73	-37.4	-38.5	23.0	0.00e+00	0	28	0	620756992	48	6055
2026-01-16 18:13:02.01	339.25	17.73	-37.5	-38.6	22.8	0.00e+00	81	28	0	628097024	48	6112
2026-01-16 18:13:06.05	338.31	17.72	-37.6	-38.7	22.7	0.00e+00	91	28	0	636485632	48	6195
2026-01-16 18:13:10.09	337.38	17.71	-37.3	-38.3	23.0	0.00e+00	0	28	0	643825664	48	5940
2026-01-16 18:13:14.12	336.45	17.69	-37.2	-38.2	23.2	0.00e+00	0	28	0	651165696	48	5858
2026-01-16 18:13:18.16	335.52	17.66	-37.4	-38.4	23.0	0.00e+00	0	28	0	658505728	48	5998
2026-01-16 18:13:22.20	334.59	17.62	-37.4	-38.3	23.0	0.00e+00	92	28	0	666894336	48	5960
2026-01-16 18:13:26.24	333.66	17.58	-36.9	-37.9	23.5	0.00e+00	0	28	0	674234368	48	5647
2026-01-16 18:13:30.28	332.74	17.53	-37.0	-37.9	23.6	0.00e+00	2	28	0	681574400	48	5648
2026-01-16 18:13:34.32	331.82	17.47	-36.9	-37.8	23.6	0.00e+00	0	28	0	688914432	48	5581
2026-01-16 18:13:38.36	330.90	17.40	-36.7	-37.5	23.8	0.00e+00	92	27	0	696254464	46	6102
2026-01-16 18:13:42.39	329.99	17.33	-36.4	-37.2	24.1	0.00e+00	0	27	0	704643072	46	5896
2026-01-16 18:13:46.43	329.08	17.25	-36.4	-37.3	24.1	0.00e+00	0	28	0	711983104	46	5934
2026-01-16 18:13:50.47	328.18	17.16	-36.7	-37.6	23.9	0.00e+00	0	27	0	719323136	46	6113
2026-01-16 18:13:54.51	327.28	17.06	-36.7	-37.6	23.8	0.00e+00	92	28	0	726663168	46	6123
2026-01-16 18:13:58.55	326.39	16.96	-36.9	-37.8	23.6	0.00e+00	5	27	0	735051776	46	6287
2026-01-16 18:14:02.59	325.51	16.85	-37.0	-37.9	23.5	0.00e+00	0	27	0	742391808	46	6381
2026-01-16 18:14:06.62	324.63	16.74	-37.2	-38.1	23.4	0.00e+00	0	27	0	749731840	46	6473
2026-01-16 18:14:10.66	323.76	16.62	-37.6	-38.6	22.9	0.00e+00	1	27	0	757071872	46	6880
2026-01-16 18:14:14.70	322.90	16.49	-37.7	-38.7	23.0	0.00e+00	8	27	0	764411904	46	6953
2026-01-16 18:14:18.74	322.04	16.36	-37.8	-38.8	22.7	0.00e+00	0	27	0	772800512	48	6289
2026-01-16 18:14:22.77	321.19	16.22	-37.4	-38.4	23.1	0.00e+00	66	27	0	780140544	48	5988
2026-01-16 18:14:26.82	320.35	16.07	-37.1	-38.0	23.5	0.00e+00	81	27	0	787480576	48	5715
2026-01-16 18:14:30.85	319.52	15.92	-37.1	-38.1	23.0	0.00e+00	82	27	0	794820608	48	5771
2026-01-16 18:14:34.88	318.70	15.77	-37.2	-38.2	23.3	0.00e+00	0	27	0	803209216	48	5840
2026-01-16 18:14:38.92	317.88	15.61	-37.2	-38.2	23.2	0.00e+00	92	27	0	810549248	48	5836
2026-01-16 18:14:42.96	317.08	15.44	-37.1	-38.0	23.4	0.00e+00	0	27	0	817889280	48	5757
2026-01-16 18:14:47.00	316.28	15.28	-37.4	-38.3	23.1	0.00e+00	0	27	0	825229312	48	5931
2026-01-16 18:14:51.04	315.49	15.10	-37.6	-38.6	22.9	0.00e+00	4	27	0	832569344	48	6134
2026-01-16 18:14:55.08	314.71	14.92	-37.6	-38.5	22.9	0.00e+00	92	27	0	840957952	48	6081
2026-01-16 18:14:59.11	313.94	14.74	-37.6	-38.5	23.0	0.00e+00	0	27	0	848297984	48	6100
2026-01-16 18:15:03.15	313.18	14.56	-38.1	-39.2	22.4	0.00e+00	2	27	0	855638016	48	6543
2026-01-16 18:15:07.18	312.44	14.37	-38.0	-39.0	22.5	0.00e+00	2	27	0	862978048	48	6420
2026-01-16 18:15:11.22	311.69	14.18	-38.2	-39.2	22.3	0.00e+00	92	27	0	870318080	48	6581
2026-01-16 18:15:15.26	310.96	13.98	-38.4	-39.5	22.1	0.00e+00	0	27	0	878706688	48	6787
2026-01-16 18:15:19.30	310.24	13.78	-38.7	-39.9	21.7	0.00e+00	0	27	0	886046720	50	6318
2026-01-16 18:15:23.34	309.53	13.58	-38.9	-40.1	21.4	0.00e+00	0	28	0	893386752	50	6484
2026-01-16 18:15:27.37	308.83	13.38	-39.0	-40.1	21.5	0.00e+00	90	28	0	900726784	50	6516
2026-01-16 18:15:31.41	308.14	13.17	-38.7	-39.8	21.7	0.00e+00	0	28	0	909115392	50	6303
2026-01-16 18:15:35.45	307.46	12.96	-39.5	-40.7	21.0	0.00e+00	2	28	0	916455424	50	6945
2026-01-16 18:15:39.49	306.78	12.75	-39.6	-40.8	20.9	0.00e+00	0	27	0	923795456	50	7053
2026-01-16 18:15:43.52	306.12	12.54	-39.5	-40.7	20.9	0.00e+00	91	28	0	931135488	50	6968
2026-01-16 18:15:47.56	305.47	12.33	-39.5	-40.7	20.8	0.00e+00	0	28	0	938475520	50	6971
2026-01-16 18:15:51.60	304.83	12.11	-39.5	-40.7	20.9	0.00e+00	84	27	0	946864128	50	6982
2026-01-16 18:15:55.64	304.19	11.89	-39.3	-40.5	21.0	0.00e+00	0	27	0	954204160	50	6842
2026-01-16 18:15:59.67	303.57	11.67	-39.6	-40.8	20.8	0.00e+00	91	28	0	961544192	50	7054
2026-01-16 18:16:03.71	302.96	11.45	-39.5	-40.7	20.9	0.00e+00	4	28	0	968884224	50	6969
2026-01-16 18:16:07.74	302.35	11.23	-39.0	-40.2	21.3	0.00e+00	0	28	0	977272832	50	6544
2026-01-16 18:16:11.79	301.75	11.01	-38.8	-39.9	21.6	0.00e+00	90	28	0	984612864	50	6376
2026-01-16 18:16:15.82	301.17	10.78	-38.6	-39.6	21.9	0.00e+00	81	28	0	991952896	50	6173
2026-01-16 18:16:19.86	300.59	10.56	-38.7	-39.8	21.7	0.00e+00	82	28	0	999292928	50	6283
2026-01-16 18:16:23.90	300.02	10.33	-38.6	-39.7	21.8	0.00e+00	0	28	0	1006632960	50	6227
2026-01-16 18:16:27.93	299.46	10.11	-38.2	-39.3	22.1	0.00e+00	92	28	0	1015021568	50	5926
2026-01-16 18:16:31.97	298.91	9.88	-38.0	-39.0	22.4	0.00e+00	0	28	0	1022361600	50	5719
2026-01-16 18:16:36.01	298.37	9.65	-37.9	-38.9	22.4	0.00e+00	81	28	0	1029701632	50	5684
2026-01-16 18:16:40.05	297.83	9.43	-37.7	-38.7	22.2	0.00e+00	0	28	0	1037041664	48	6210
2026-01-16 18:16:44.08	297.31	9.20	-37.6	-38.6	22.7	0.00e+00	92	28	0	1045430272	48	6138
2026-01-16 18:16:48.12	296.79	8.97	-37.4	-38.3	22.8	0.00e+00	0	28	0	1052770304	48	5961
2026-01-16 18:16:52.16	296.28	8.74	-37.5	-38.5	22.6	0.00e+00	0	28	0	1060110336	48	6099
2026-01-16 18:16:56.20	295.78	8.52	-37.9	-38.9	22.5	0.00e+00	0	28	0	1067450368	48	6358
2026-01-16 18:17:00.24	295.29	8.29	-37.7	-38.7	22.5	0.00e+00	92	28	0	1074790400	48	6197
2026-01-16 18:17:04.27	294.80	8.06	-38.0	-39.0	22.3	0.00e+00	3	28	0	1083179008	48	6436
2026-01-16 18:17:08.31	294.33	7.83	-38.4	-39.6	21.7	0.00e+00	0	28	0	1090519040	48	6849
2026-01-16 18:17:12.35	293.86	7.60	-38.4	-39.6	21.8	0.00e+00	0	28	0	1097859072	48	6865
2026-01-16 18:17:16.39	293.39	7.38	-38.0	-39.1	22.0	0.00e+00	92	28	0	1105199104	48	6516
2026-01-16 18:17:20.43	292.94	7.15	-38.4	-39.5	21.7	0.00e+00	0	28	0	1112539136	48	6837
2026-01-16 18:17:24.47	292.49	6.92	-38.5	-39.6	21.6	0.00e+00	1	28	0	1120927744	50	6124
2026-01-16 18:17:28.50	292.05	6.70	-38.9	-40.1	21.0	0.00e+00	21	28	0	1128267776	50	6527
2026-01-16 18:17:32.54	291.62	6.47	-38.8	-39.9	21.2	0.00e+00	90	28	0	1135607808	50	6372
2026-01-16 18:17:36.58	291.19	6.24	-39.1	-40.4	20.8	0.00e+00	80	28	0	1142947840	50	6719
2026-01-16 18:17:40.61	290.77	6.02	-39.2	-40.4	20.7	0.00e+00	79	28	0	1151336448	50	6732
2026-01-16 18:17:44.65	290.36	5.79	-39.4	-40.7	20.5	0.00e+00	80	28	0	1158676480	50	6971
2026-01-16 18:17:48.68	289.95	5.57	-39.6	-41.0	20.1	0.00e+00	67	28	0	1166016512	52	6409
2026-01-16 18:17:52.72	289.55	5.35	-40.0	-41.5	19.6	0.00e+00	7	29	0	1173356544	52	6807
2026-01-16 18:17:56.77	289.15	5.12	-39.9	-41.3	19.8	0.00e+00	0	29	0	1180696576	52	6666
2026-01-16 18:18:00.80	288.77	4.90	-40.1	-41.6	19.5	0.00e+00	92	29	0	1189085184	52	6881
2026-01-16 18:18:04.84	288.38	4.68	-40.2	-41.6	19.4	0.00e+00	8	29	0	1196425216	52	6924
2026-01-16 18:18:08.87	288.01	4.46	-40.5	-42.0	18.9	0.00e+00	1	29	0	1203765248	52	7241
2026-01-16 18:18:12.91	287.64	4.24	-40.3	-41.9	18.8	0.00e+00	0	29	0	1211105280	54	6346
2026-01-16 18:18:16.95	287.27	4.02	-40.8	-42.5	18.3	0.00e+00	92	29	0	1219493888	54	6790
2026-01-16 18:18:20.99	286.91	3.80	-41.0	-42.8	18.2	0.00e+00	0	29	0	1226833920	54	7032
2026-01-16 18:18:25.02	286.56	3.58	-40.2	-41.8	18.9	0.00e+00	0	29	0	1234173952	54	6253
2026-01-16 18:18:29.06	286.21	3.36	-41.0	-42.8	17.8	0.00e+00	73	29	0	1241513984	54	7025
2026-01-16 18:18:33.10	285.87	3.14	-40.5	-42.1	18.5	0.00e+00	92	29	0	1248854016	54	6511
2026-01-16 18:18:37.14	285.53	2.93	-47.6	-62.8	3.6	1.51e+00	0	29	104	1254096896	60	50159
2026-01-16 18:18:41.18	285.20	2.71	-48.1	-63.3	3.6	1.51e+00	0	29	104	1254096896	60	52853
2026-01-16 18:18:45.21	284.87	2.50	-48.1	-63.3	3.6	1.51e+00	0	29	104	1254096896	60	53090
2026-01-16 18:18:49.25	284.55	2.28	-48.0	-63.2	3.6	1.51e+00	0	29	104	1254096896	60	52013
2026-01-16 18:18:53.29	284.23	2.07	-48.0	-63.2	3.6	1.51e+00	0	29	104	1254096896	60	52173
2026-01-16 18:18:57.33	283.91	1.86	-48.0	-63.1	3.6	1.51e+00	0	29	104	1254096896	60	51878
2026-01-16 18:19:01.38	283.60	1.65	-48.0	-63.2	3.6	1.51e+00	0	29	104	1254096896	60	52339
2026-01-16 18:19:05.42	283.30	1.44	-48.1	-63.2	3.6	1.51e+00	0	29	104	1254096896	60	52208
2026-01-16 18:19:09.46	283.00	1.23	-48.0	-63.2	3.6	1.51e+00	0	29	104	1254096896	60	52186
2026-01-16 18:19:13.50	282.71	1.02	-48.1	-63.3	3.6	1.51e+00	0	29	104	1254096896	60	52670
2026-01-16 18:19:17.54	282.41	0.81	-48.0	-63.2	3.6	1.51e+00	0	29	104	1254096896	60	52053
2026-01-16 18:19:21.58	282.13	0.60	-48.0	-63.2	3.6	1.51e+00	0	29	104	1254096896	60	52078
2026-01-16 18:19:25.61	281.84	0.39	-48.0	-63.2	3.6	1.51e+00	0	29	104	1254096896	60	52156
2026-01-16 18:19:29.65	281.57	0.19	-48.0	-63.2	3.6	1.51e+00	0	29	104	1254096896	60	52234
2026-01-16 18:19:33.69	281.29	-0.02	-48.0	-63.2	3.6	1.51e+00	0	29	104	1254096896	60	52174

#Closed at: 2026-01-16 18:19:34
#Recorded file [1254 MB]: D:/lorett/data/35029_260117_060630.dat