passes_logs/2026/01/16/R4.6S_Anadyr/R4.6S_Anadyr__20260116_022148_SUOMI_NPP_rec.log

#Pass ID: 20260116_022148_SUOMI NPP
#Satellite: SUOMI NPP
#Configuration: NPP
#almurnet v.1.7.20251203
#Start time: 2026-01-16 02:21:48

#Version: 2.2.20231116
#Station: R4.6S_Anadyr
#Location: 177.4865 lon 64.73178 lat
#TLE: 1 37849U 11061A   26014.61059675  .00000037  00000+0  38639-4 0  9994
#TLE: 2 37849  98.7810 316.6625 0002460  64.3781 295.7649 14.19525105736658

#Time	Az	El	Level	Level2	SNR	BER	BlckErr	Temp	State	Recorded	gain1	gain2
2026-01-16 02:21:48.85	210.14	0.03	-48.1	-59.7	3.5	8.44e-01	0	26	0	0	60	35067
2026-01-16 02:21:52.89	210.41	0.24	-47.9	-63.4	3.6	1.51e+00	0	28	104	0	60	53258
2026-01-16 02:21:56.93	210.68	0.45	-48.2	-63.4	3.6	1.51e+00	0	28	104	0	60	53186
2026-01-16 02:22:00.97	210.95	0.66	-47.8	-63.1	3.6	1.51e+00	0	28	104	0	60	51834
2026-01-16 02:22:05.01	211.22	0.88	-46.9	-62.1	3.6	1.51e+00	0	28	104	0	60	45853
2026-01-16 02:22:09.05	211.50	1.09	-46.6	-61.7	3.6	1.51e+00	0	28	104	0	60	43788
2026-01-16 02:22:13.09	211.78	1.31	-46.6	-61.7	3.6	1.51e+00	0	28	104	0	60	43911
2026-01-16 02:22:17.12	212.07	1.52	-46.6	-61.7	3.6	1.51e+00	0	28	104	0	60	44104
2026-01-16 02:22:21.16	212.36	1.74	-46.6	-61.7	3.6	1.51e+00	0	28	104	0	60	44164
2026-01-16 02:22:25.20	212.65	1.96	-46.6	-61.7	3.6	1.51e+00	0	28	104	0	60	43718
2026-01-16 02:22:29.24	212.95	2.18	-46.6	-61.7	3.5	1.51e+00	0	28	104	0	60	43806
2026-01-16 02:22:33.27	213.26	2.40	-46.5	-60.3	3.6	1.51e+00	0	28	104	0	60	37363
2026-01-16 02:22:37.31	213.56	2.62	-46.5	-60.8	3.6	1.51e+00	0	28	104	0	60	39587
2026-01-16 02:22:41.35	213.87	2.84	-44.0	-47.6	13.0	3.94e-04	92	28	0	3145728	60	8677
2026-01-16 02:22:45.39	214.19	3.07	-42.1	-44.5	16.0	0.00e+00	92	28	0	10485760	58	6808
2026-01-16 02:22:49.43	214.51	3.29	-46.2	-56.5	7.0	1.50e+00	0	28	104	16777216	60	24077
2026-01-16 02:22:53.46	214.84	3.52	-41.8	-44.0	16.8	0.00e+00	0	28	0	23068672	58	6420
2026-01-16 02:22:57.49	215.17	3.74	-40.6	-42.2	18.7	0.00e+00	90	28	0	30408704	54	6596
2026-01-16 02:23:01.53	215.50	3.97	-40.2	-41.8	18.9	0.00e+00	91	28	0	37748736	54	6268
2026-01-16 02:23:05.57	215.84	4.20	-39.3	-40.6	20.1	0.00e+00	0	28	0	46137344	52	6171
2026-01-16 02:23:09.60	216.19	4.43	-39.1	-40.3	20.5	0.00e+00	0	28	0	53477376	52	5953
2026-01-16 02:23:13.64	216.54	4.67	-39.0	-40.3	20.5	0.00e+00	79	28	0	60817408	52	5930
2026-01-16 02:23:17.68	216.89	4.90	-39.3	-40.6	20.3	0.00e+00	90	28	0	68157440	52	6153
2026-01-16 02:23:21.71	217.26	5.13	-39.2	-40.5	20.4	0.00e+00	0	28	0	75497472	52	6043
2026-01-16 02:23:25.75	217.62	5.37	-39.2	-40.4	20.5	0.00e+00	32	28	0	83886080	52	6031
2026-01-16 02:23:29.78	218.00	5.60	-39.1	-40.4	20.5	0.00e+00	92	28	0	91226112	52	5966
2026-01-16 02:23:33.82	218.37	5.84	-39.2	-40.4	20.5	0.00e+00	92	28	0	98566144	52	6026
2026-01-16 02:23:37.86	218.76	6.08	-39.3	-40.6	20.4	0.00e+00	0	28	0	105906176	52	6151
2026-01-16 02:23:41.89	219.15	6.32	-39.8	-41.1	20.0	0.00e+00	90	28	0	114294784	52	6528
2026-01-16 02:23:45.92	219.55	6.56	-39.7	-41.1	20.0	0.00e+00	92	28	0	121634816	52	6466
2026-01-16 02:23:49.96	219.95	6.80	-39.4	-40.7	20.4	0.00e+00	0	28	0	128974848	52	6242
2026-01-16 02:23:53.99	220.36	7.05	-39.3	-40.5	20.6	0.00e+00	0	28	0	136314880	52	6092
2026-01-16 02:23:58.03	220.77	7.29	-39.0	-40.2	20.8	0.00e+00	90	28	0	143654912	52	5868
2026-01-16 02:24:02.07	221.20	7.54	-38.8	-40.0	21.0	0.00e+00	91	28	0	152043520	50	6403
2026-01-16 02:24:06.10	221.63	7.78	-39.1	-40.3	20.9	0.00e+00	0	28	0	159383552	50	6624
2026-01-16 02:24:10.14	222.06	8.03	-39.6	-40.9	20.3	0.00e+00	68	28	0	166723584	50	7093
2026-01-16 02:24:14.17	222.51	8.28	-39.5	-40.8	20.3	0.00e+00	91	28	0	174063616	50	7077
2026-01-16 02:24:18.21	222.96	8.53	-40.0	-41.3	19.9	0.00e+00	92	28	0	181403648	52	6669
2026-01-16 02:24:22.24	223.42	8.78	-39.7	-41.0	20.3	0.00e+00	0	28	0	189792256	52	6412
2026-01-16 02:24:26.28	223.89	9.03	-39.6	-40.9	20.3	0.00e+00	91	28	0	197132288	52	6373
2026-01-16 02:24:30.32	224.36	9.28	-39.9	-41.2	20.1	0.00e+00	92	28	0	204472320	52	6604
2026-01-16 02:24:34.35	224.84	9.54	-39.4	-40.7	20.6	0.00e+00	92	28	0	211812352	52	6177
2026-01-16 02:24:38.39	225.33	9.79	-39.1	-40.3	20.9	0.00e+00	0	28	0	220200960	52	5906
2026-01-16 02:24:42.43	225.83	10.05	-38.9	-40.0	21.2	0.00e+00	92	28	0	227540992	52	5724
2026-01-16 02:24:46.46	226.34	10.30	-38.8	-39.9	21.4	0.00e+00	92	28	0	234881024	50	6383
2026-01-16 02:24:50.49	226.85	10.56	-39.0	-40.2	21.0	0.00e+00	0	28	0	242221056	50	6576
2026-01-16 02:24:54.53	227.38	10.81	-39.1	-40.3	21.0	0.00e+00	0	28	0	249561088	50	6632
2026-01-16 02:24:58.56	227.91	11.07	-38.9	-40.1	21.2	0.00e+00	92	28	0	257949696	50	6476
2026-01-16 02:25:02.59	228.45	11.33	-38.9	-40.1	21.3	0.00e+00	92	28	0	265289728	50	6479
2026-01-16 02:25:06.63	229.01	11.59	-38.9	-40.1	21.2	0.00e+00	0	28	0	272629760	50	6465
2026-01-16 02:25:10.67	229.57	11.85	-39.3	-40.5	20.8	0.00e+00	34	28	0	279969792	50	6840
2026-01-16 02:25:14.70	230.14	12.10	-38.9	-40.0	21.2	0.00e+00	75	28	0	287309824	50	6439
2026-01-16 02:25:18.74	230.72	12.36	-38.4	-39.5	21.7	0.00e+00	92	28	0	295698432	50	6047
2026-01-16 02:25:22.78	231.31	12.62	-38.2	-39.2	21.9	0.00e+00	0	28	0	303038464	50	5889
2026-01-16 02:25:26.82	231.91	12.88	-38.3	-39.4	21.8	0.00e+00	92	28	0	310378496	50	5971
2026-01-16 02:25:30.86	232.53	13.14	-38.3	-39.4	21.8	0.00e+00	91	28	0	317718528	50	6014
2026-01-16 02:25:34.89	233.15	13.40	-38.3	-39.4	21.8	0.00e+00	60	28	0	326107136	50	6009
2026-01-16 02:25:38.93	233.78	13.66	-38.5	-39.6	21.7	0.00e+00	0	28	0	333447168	50	6129
2026-01-16 02:25:42.97	234.42	13.92	-38.1	-39.1	22.1	0.00e+00	92	28	0	340787200	50	5825
2026-01-16 02:25:47.00	235.08	14.17	-37.5	-38.5	22.5	0.00e+00	92	28	0	348127232	48	6045
2026-01-16 02:25:51.03	235.74	14.43	-37.4	-38.4	22.7	0.00e+00	0	28	0	355467264	48	5999
2026-01-16 02:25:55.07	236.42	14.68	-37.2	-38.2	22.8	0.00e+00	3	28	0	363855872	48	5832
2026-01-16 02:25:59.11	237.11	14.94	-37.2	-38.2	22.4	0.00e+00	92	28	0	371195904	48	5874
2026-01-16 02:26:03.14	237.80	15.19	-37.1	-38.1	23.0	0.00e+00	92	28	0	378535936	48	5770
2026-01-16 02:26:07.18	238.52	15.44	-37.8	-38.8	22.5	0.00e+00	0	28	0	385875968	48	6268
2026-01-16 02:26:11.21	239.24	15.69	-37.6	-38.6	22.6	0.00e+00	34	28	0	394264576	48	6116
2026-01-16 02:26:15.25	239.97	15.94	-37.1	-38.0	23.1	0.00e+00	92	28	0	401604608	48	5720
2026-01-16 02:26:19.28	240.72	16.19	-37.5	-38.4	22.7	0.00e+00	92	28	0	408944640	48	6028
2026-01-16 02:26:23.32	241.47	16.43	-37.3	-38.2	22.8	0.00e+00	0	28	0	416284672	48	5890
2026-01-16 02:26:27.35	242.24	16.67	-37.0	-37.9	23.1	0.00e+00	92	28	0	423624704	48	5663
2026-01-16 02:26:31.39	243.03	16.91	-37.0	-37.9	23.3	0.00e+00	90	28	0	432013312	48	5644
2026-01-16 02:26:35.43	243.82	17.15	-36.9	-37.8	23.3	0.00e+00	0	28	0	439353344	46	6248
2026-01-16 02:26:39.47	244.63	17.38	-37.1	-38.0	23.1	0.00e+00	0	28	0	446693376	46	6462
2026-01-16 02:26:43.50	245.44	17.61	-36.6	-37.5	23.5	0.00e+00	92	28	0	454033408	46	6059
2026-01-16 02:26:47.54	246.28	17.84	-37.3	-38.2	22.9	0.00e+00	92	28	0	462422016	46	6605
2026-01-16 02:26:51.58	247.12	18.06	-37.3	-38.2	22.9	0.00e+00	0	28	0	469762048	46	6578
2026-01-16 02:26:55.62	247.97	18.28	-37.7	-38.6	22.7	0.00e+00	92	28	0	477102080	48	6163
2026-01-16 02:26:59.65	248.84	18.50	-37.9	-38.9	22.4	0.00e+00	62	28	0	484442112	48	6378
2026-01-16 02:27:03.69	249.72	18.71	-38.2	-39.2	22.2	0.00e+00	90	28	0	491782144	48	6611
2026-01-16 02:27:07.73	250.61	18.91	-38.7	-39.8	21.7	0.00e+00	0	28	0	500170752	50	6287
2026-01-16 02:27:11.76	251.51	19.11	-39.2	-40.3	21.2	0.00e+00	90	28	0	507510784	50	6645
2026-01-16 02:27:15.80	252.42	19.30	-39.3	-40.4	21.4	0.00e+00	55	28	0	514850816	50	6738
2026-01-16 02:27:19.84	253.34	19.49	-39.0	-40.1	21.5	0.00e+00	0	28	0	522190848	50	6479
2026-01-16 02:27:23.87	254.28	19.68	-38.7	-39.8	21.5	0.00e+00	0	28	0	530579456	50	6264
2026-01-16 02:27:27.91	255.22	19.85	-38.6	-39.7	21.7	0.00e+00	92	28	0	537919488	50	6222
2026-01-16 02:27:31.95	256.18	20.02	-37.6	-38.6	22.6	0.00e+00	92	28	0	545259520	48	6115
2026-01-16 02:27:35.99	257.15	20.18	-38.0	-39.0	21.8	0.00e+00	0	28	0	552599552	48	6411
2026-01-16 02:27:40.02	258.12	20.34	-37.4	-38.4	22.9	0.00e+00	0	28	0	559939584	48	5977
2026-01-16 02:27:44.06	259.11	20.49	-38.0	-39.0	22.4	0.00e+00	90	28	0	568328192	48	6416
2026-01-16 02:27:48.10	260.10	20.63	-36.9	-37.8	23.3	0.00e+00	90	28	0	575668224	46	6303
2026-01-16 02:27:52.13	261.10	20.76	-37.1	-38.0	23.3	0.00e+00	0	28	0	583008256	46	6447
2026-01-16 02:27:56.17	262.11	20.89	-37.2	-38.2	23.1	0.00e+00	92	28	0	590348288	46	6556
2026-01-16 02:28:00.21	263.13	21.00	-37.3	-38.2	23.0	0.00e+00	86	28	0	597688320	46	6611
2026-01-16 02:28:04.24	264.16	21.11	-37.4	-38.3	23.1	0.00e+00	0	28	0	606076928	46	6660
2026-01-16 02:28:08.28	265.19	21.21	-36.5	-37.3	23.6	0.00e+00	0	28	0	613416960	46	5955
2026-01-16 02:28:12.32	266.23	21.30	-37.3	-38.2	23.1	0.00e+00	92	28	0	620756992	46	6559
2026-01-16 02:28:16.36	267.28	21.38	-37.0	-38.0	23.3	0.00e+00	92	28	0	628097024	46	6393
2026-01-16 02:28:20.39	268.32	21.45	-37.6	-38.5	22.5	0.00e+00	0	28	0	636485632	48	6088
2026-01-16 02:28:24.43	269.38	21.51	-37.2	-38.2	23.1	0.00e+00	0	28	0	643825664	48	5849
2026-01-16 02:28:28.47	270.43	21.57	-37.7	-38.7	22.7	0.00e+00	92	28	0	651165696	48	6215
2026-01-16 02:28:32.50	271.49	21.61	-37.2	-38.1	23.1	0.00e+00	92	28	0	658505728	48	5822
2026-01-16 02:28:36.54	272.56	21.64	-37.1	-38.0	23.2	0.00e+00	0	28	0	665845760	48	5715
2026-01-16 02:28:40.58	273.62	21.67	-37.7	-38.7	22.7	0.00e+00	32	28	0	674234368	48	6183
2026-01-16 02:28:44.62	274.69	21.68	-37.3	-38.2	23.1	0.00e+00	48	28	0	681574400	48	5888
2026-01-16 02:28:48.65	275.75	21.68	-38.5	-39.6	21.9	0.00e+00	91	28	0	688914432	48	6857
2026-01-16 02:28:52.69	276.82	21.68	-38.3	-39.4	22.1	0.00e+00	0	28	0	696254464	48	6696
2026-01-16 02:28:56.73	277.88	21.66	-37.5	-38.4	22.8	0.00e+00	92	28	0	704643072	48	6014
2026-01-16 02:29:00.76	278.95	21.63	-37.9	-38.9	22.5	0.00e+00	92	28	0	711983104	48	6386
2026-01-16 02:29:04.80	280.01	21.60	-37.7	-38.6	22.6	0.00e+00	0	28	0	719323136	48	6151
2026-01-16 02:29:08.83	281.06	21.55	-37.6	-38.5	22.8	0.00e+00	0	28	0	726663168	48	6078
2026-01-16 02:29:12.87	282.12	21.49	-37.0	-37.9	23.3	0.00e+00	90	28	0	734003200	48	5669
2026-01-16 02:29:16.91	283.17	21.43	-37.3	-38.3	23.1	0.00e+00	92	28	0	742391808	48	5917
2026-01-16 02:29:20.95	284.22	21.35	-37.5	-38.4	22.9	0.00e+00	0	28	0	749731840	48	6002
2026-01-16 02:29:24.99	285.26	21.27	-37.4	-38.3	23.0	0.00e+00	0	28	0	757071872	48	5948
2026-01-16 02:29:29.03	286.29	21.18	-37.4	-38.3	22.9	0.00e+00	92	28	0	764411904	48	5955
2026-01-16 02:29:33.06	287.32	21.07	-37.5	-38.5	22.9	0.00e+00	91	28	0	771751936	48	6034
2026-01-16 02:29:37.10	288.34	20.96	-37.5	-38.5	22.8	0.00e+00	0	28	0	780140544	48	6049
2026-01-16 02:29:41.13	289.35	20.85	-37.6	-38.5	22.6	0.00e+00	10	28	0	787480576	48	6102
2026-01-16 02:29:45.17	290.36	20.72	-37.3	-38.2	22.9	0.00e+00	92	28	0	794820608	48	5883
2026-01-16 02:29:49.21	291.36	20.58	-36.8	-37.7	23.4	0.00e+00	0	28	0	802160640	46	6212
2026-01-16 02:29:53.24	292.35	20.44	-36.9	-37.8	23.3	0.00e+00	0	28	0	810549248	46	6278
2026-01-16 02:29:57.28	293.33	20.29	-36.9	-37.8	23.3	0.00e+00	91	28	0	817889280	46	6264
2026-01-16 02:30:01.32	294.30	20.13	-37.2	-38.1	23.1	0.00e+00	92	28	0	825229312	46	6526
2026-01-16 02:30:05.35	295.25	19.97	-36.6	-37.5	23.6	0.00e+00	0	28	0	832569344	46	6086
2026-01-16 02:30:09.38	296.20	19.80	-36.5	-37.3	23.6	0.00e+00	0	28	0	839909376	46	5952
2026-01-16 02:30:13.42	297.14	19.62	-36.7	-37.6	23.5	0.00e+00	37	28	0	848297984	46	6157
2026-01-16 02:30:17.46	298.07	19.44	-36.4	-37.2	23.8	0.00e+00	75	28	0	855638016	46	5875
2026-01-16 02:30:21.50	298.99	19.25	-36.9	-37.8	23.1	0.00e+00	0	28	0	862978048	46	6303
2026-01-16 02:30:25.53	299.89	19.05	-37.2	-38.1	23.1	0.00e+00	67	28	0	870318080	46	6538
2026-01-16 02:30:29.57	300.78	18.85	-37.0	-37.9	23.4	0.00e+00	92	28	0	878706688	46	6318
2026-01-16 02:30:33.61	301.67	18.65	-37.2	-38.1	23.0	0.00e+00	0	28	0	886046720	46	6488
2026-01-16 02:30:37.64	302.54	18.44	-37.7	-38.7	22.4	0.00e+00	0	28	0	893386752	46	6945
2026-01-16 02:30:41.68	303.40	18.22	-38.5	-39.6	21.9	0.00e+00	92	28	0	900726784	48	6850
2026-01-16 02:30:45.72	304.24	18.00	-37.7	-38.7	22.5	0.00e+00	92	28	0	908066816	48	6201
2026-01-16 02:30:49.75	305.08	17.78	-38.5	-39.6	21.7	0.00e+00	0	28	0	916455424	50	6120
2026-01-16 02:30:53.78	305.90	17.55	-38.1	-39.1	22.2	0.00e+00	0	28	0	923795456	50	5806
2026-01-16 02:30:57.82	306.71	17.32	-38.3	-39.4	22.1	0.00e+00	29	28	0	931135488	50	5982
2026-01-16 02:31:01.86	307.51	17.09	-38.6	-39.7	21.8	0.00e+00	91	28	0	938475520	50	6232
2026-01-16 02:31:05.89	308.30	16.86	-38.7	-39.8	21.7	0.00e+00	0	28	0	945815552	50	6254
2026-01-16 02:31:09.93	309.07	16.62	-38.9	-40.1	21.2	0.00e+00	0	28	0	954204160	50	6531
2026-01-16 02:31:13.97	309.83	16.38	-38.8	-40.0	21.3	0.00e+00	38	28	0	961544192	50	6432
2026-01-16 02:31:18.00	310.58	16.13	-38.7	-39.8	21.4	0.00e+00	0	28	0	968884224	50	6306
2026-01-16 02:31:22.04	311.32	15.89	-37.7	-38.7	22.4	0.00e+00	0	28	0	976224256	50	5520
2026-01-16 02:31:26.08	312.05	15.64	-37.9	-38.9	22.3	0.00e+00	71	28	0	984612864	48	6384
2026-01-16 02:31:30.11	312.77	15.39	-38.1	-39.2	22.0	0.00e+00	36	28	0	991952896	48	6550
2026-01-16 02:31:34.15	313.47	15.14	-38.5	-39.6	21.7	0.00e+00	0	28	0	999292928	48	6875
2026-01-16 02:31:38.19	314.16	14.89	-38.6	-39.8	21.5	0.00e+00	0	28	0	1006632960	50	6261
2026-01-16 02:31:42.22	314.84	14.64	-37.9	-38.9	22.1	0.00e+00	92	28	0	1013972992	50	5687
2026-01-16 02:31:46.26	315.51	14.38	-38.6	-39.8	21.6	0.00e+00	92	28	0	1022361600	50	6255
2026-01-16 02:31:50.30	316.17	14.13	-38.2	-39.2	22.0	0.00e+00	0	28	0	1029701632	50	5892
2026-01-16 02:31:54.34	316.82	13.87	-37.5	-38.5	22.3	0.00e+00	0	28	0	1037041664	48	6063
2026-01-16 02:31:58.38	317.46	13.62	-38.7	-39.8	21.4	0.00e+00	88	27	0	1044381696	50	6296
2026-01-16 02:32:02.39	318.08	13.36	-39.1	-40.3	21.1	0.00e+00	90	27	0	1051721728	50	6634
2026-01-16 02:32:06.43	318.70	13.11	-37.5	-38.5	22.6	0.00e+00	0	28	0	1060110336	48	6056
2026-01-16 02:32:10.46	319.30	12.85	-37.6	-38.5	22.5	0.00e+00	0	28	0	1067450368	48	6102
2026-01-16 02:32:14.50	319.90	12.59	-37.7	-38.8	22.1	0.00e+00	72	27	0	1074790400	48	6252
2026-01-16 02:32:18.53	320.49	12.34	-37.2	-38.1	22.7	0.00e+00	0	28	0	1082130432	48	5821
2026-01-16 02:32:22.57	321.06	12.08	-37.9	-39.0	22.0	0.00e+00	0	28	0	1090519040	48	6418
2026-01-16 02:32:26.60	321.63	11.82	-38.5	-39.6	21.5	0.00e+00	28	28	0	1097859072	48	6902
2026-01-16 02:32:30.64	322.19	11.57	-38.3	-39.4	21.7	0.00e+00	0	28	0	1105199104	50	5996
2026-01-16 02:32:34.68	322.73	11.31	-38.3	-39.5	21.5	0.00e+00	0	28	0	1112539136	50	6037
2026-01-16 02:32:38.72	323.27	11.06	-37.9	-39.0	22.0	0.00e+00	0	28	0	1119879168	50	5706
2026-01-16 02:32:42.76	323.80	10.80	-37.3	-38.3	22.5	0.00e+00	92	27	0	1128267776	48	5935
2026-01-16 02:32:46.80	324.33	10.55	-37.5	-38.5	22.3	0.00e+00	0	27	0	1135607808	48	6081
2026-01-16 02:32:50.84	324.84	10.29	-37.9	-39.0	21.7	0.00e+00	0	27	0	1142947840	48	6400
2026-01-16 02:32:54.87	325.34	10.04	-38.0	-39.1	21.8	0.00e+00	0	27	0	1150287872	48	6502
2026-01-16 02:32:58.91	325.84	9.79	-37.9	-38.9	21.9	0.00e+00	91	27	0	1158676480	48	6389
2026-01-16 02:33:02.95	326.32	9.54	-38.7	-39.9	21.2	0.00e+00	0	27	0	1166016512	48	7117
2026-01-16 02:33:06.98	326.80	9.29	-38.5	-39.7	21.3	0.00e+00	0	27	0	1173356544	50	6211
2026-01-16 02:33:11.02	327.28	9.04	-37.8	-38.8	22.0	0.00e+00	31	27	0	1180696576	50	5598
2026-01-16 02:33:15.06	327.74	8.79	-37.4	-38.4	22.3	0.00e+00	0	27	0	1188036608	48	5968
2026-01-16 02:33:19.10	328.20	8.54	-38.2	-39.3	21.5	0.00e+00	0	27	0	1196425216	48	6664
2026-01-16 02:33:23.14	328.65	8.29	-38.9	-40.1	20.8	0.00e+00	0	27	0	1203765248	50	6522
2026-01-16 02:33:27.17	329.09	8.05	-39.1	-40.4	20.5	0.00e+00	92	28	0	1211105280	50	6713
2026-01-16 02:33:31.21	329.52	7.80	-39.8	-41.2	19.7	0.00e+00	0	27	0	1218445312	52	6595
2026-01-16 02:33:35.24	329.95	7.56	-40.5	-42.0	19.0	0.00e+00	0	27	0	1226833920	52	7232
2026-01-16 02:33:39.28	330.37	7.31	-40.4	-41.9	19.1	0.00e+00	5	27	0	1234173952	52	7138
2026-01-16 02:33:43.31	330.78	7.07	-39.8	-41.3	19.7	0.00e+00	92	27	0	1241513984	52	6635
2026-01-16 02:33:47.35	331.19	6.83	-39.9	-41.3	19.4	0.00e+00	0	28	0	1248854016	52	6658
2026-01-16 02:33:51.39	331.60	6.59	-40.2	-41.7	19.2	0.00e+00	0	27	0	1256194048	52	6977
2026-01-16 02:33:55.43	331.99	6.35	-40.1	-41.6	19.2	0.00e+00	44	28	0	1264582656	52	6890
2026-01-16 02:33:59.46	332.38	6.12	-39.5	-40.9	20.0	0.00e+00	84	27	0	1271922688	52	6329
2026-01-16 02:34:03.50	332.76	5.88	-39.2	-40.6	19.9	0.00e+00	0	27	0	1279262720	52	6133
2026-01-16 02:34:07.54	333.14	5.64	-39.6	-41.1	19.1	0.00e+00	0	28	0	1286602752	52	6487
2026-01-16 02:34:11.57	333.51	5.41	-41.1	-43.4	15.9	0.00e+00	42	27	0	1294991360	54	7585
2026-01-16 02:34:15.61	333.88	5.18	-42.4	-47.0	11.0	3.62e-04	0	28	0	1302331392	56	10205
2026-01-16 02:34:19.65	334.24	4.94	-42.9	-50.0	6.6	1.71e-01	0	28	0	1309671424	58	12882
2026-01-16 02:34:23.68	334.60	4.71	-42.9	-52.7	4.1	9.81e-01	26	28	0	1317011456	58	17427
2026-01-16 02:34:27.72	334.95	4.48	-42.9	-56.2	3.6	1.50e+00	0	28	104	1318060032	58	26303
2026-01-16 02:34:31.76	335.29	4.26	-43.0	-56.4	3.6	1.51e+00	0	27	104	1318060032	58	26850
2026-01-16 02:34:35.79	335.63	4.03	-43.1	-57.4	3.6	1.51e+00	0	28	104	1318060032	58	30056
2026-01-16 02:34:39.83	335.97	3.80	-43.1	-57.8	3.6	1.51e+00	0	27	104	1318060032	58	31662
2026-01-16 02:34:43.86	336.30	3.58	-43.0	-58.1	3.6	1.51e+00	0	28	104	1318060032	58	32690
2026-01-16 02:34:47.90	336.62	3.35	-43.0	-58.1	3.6	1.51e+00	0	28	104	1318060032	58	32693
2026-01-16 02:34:51.94	336.94	3.13	-43.0	-58.2	3.6	1.51e+00	0	27	104	1318060032	58	32849
2026-01-16 02:34:55.98	337.26	2.91	-47.3	-62.5	3.6	1.51e+00	0	27	104	1318060032	60	48388
2026-01-16 02:35:00.01	337.57	2.69	-48.2	-63.4	3.6	1.51e+00	0	28	104	1318060032	60	53510
2026-01-16 02:35:04.05	337.88	2.47	-47.9	-63.6	3.6	1.51e+00	0	27	104	1318060032	60	54763
2026-01-16 02:35:08.08	338.18	2.25	-48.1	-63.4	3.6	1.51e+00	0	28	104	1318060032	60	53423
2026-01-16 02:35:12.12	338.48	2.03	-48.2	-63.4	3.6	1.51e+00	0	27	104	1318060032	60	53237
2026-01-16 02:35:16.16	338.78	1.82	-48.1	-63.4	3.6	1.51e+00	0	28	104	1318060032	60	53254
2026-01-16 02:35:20.20	339.07	1.60	-48.2	-63.3	3.6	1.51e+00	0	28	104	1318060032	60	52996
2026-01-16 02:35:24.24	339.36	1.39	-48.2	-63.4	3.6	1.51e+00	0	27	104	1318060032	60	53423
2026-01-16 02:35:28.28	339.64	1.17	-48.2	-63.4	3.6	1.51e+00	0	27	104	1318060032	60	53403
2026-01-16 02:35:32.32	339.92	0.96	-48.3	-63.5	3.6	1.51e+00	0	28	104	1318060032	60	54158
2026-01-16 02:35:36.36	340.20	0.75	-48.1	-63.3	3.6	1.51e+00	0	28	104	1318060032	60	52682
2026-01-16 02:35:40.40	340.47	0.54	-48.2	-63.3	3.6	1.51e+00	0	28	104	1318060032	60	52999
2026-01-16 02:35:44.44	340.74	0.33	-48.2	-63.3	3.6	1.51e+00	0	28	104	1318060032	60	53081
2026-01-16 02:35:48.47	341.01	0.12	-48.3	-63.4	3.6	1.51e+00	0	27	104	1318060032	60	53543

#Closed at: 2026-01-16 02:35:51
#Recorded file [1318 MB]: D:/lorett/data/35029_260116_142148.dat