passes_logs/2026/01/16/R4.6S_Anadyr/R4.6S_Anadyr__20260116_142544_SUOMI_NPP_rec.log

#Pass ID: 20260116_142544_SUOMI NPP
#Satellite: SUOMI NPP
#Configuration: NPP
#almurnet v.1.7.20251203
#Start time: 2026-01-16 14:25:46

#Version: 2.2.20231116
#Station: R4.6S_Anadyr
#Location: 177.4865 lon 64.73178 lat
#TLE: 1 37849U 11061A   26015.94982489  .00000054  00000+0  46705-4 0  9991
#TLE: 2 37849  98.7812 317.9902 0002438  62.0366 298.1057 14.19525452736847

#Time	Az	El	Level	Level2	SNR	BER	BlckErr	Temp	State	Recorded	gain1	gain2
2026-01-16 14:25:46.21	19.88	0.08	-48.0	-60.6	3.4	1.52e+00	0	27	0	0	60	37552
2026-01-16 14:25:50.25	19.95	0.32	-48.2	-63.5	3.6	1.51e+00	0	28	104	0	60	53785
2026-01-16 14:25:54.29	20.01	0.56	-48.0	-63.2	3.6	1.51e+00	0	28	104	0	60	52219
2026-01-16 14:25:58.33	20.07	0.81	-47.6	-62.8	3.6	1.51e+00	0	28	104	0	60	49843
2026-01-16 14:26:02.36	20.14	1.05	-46.6	-61.8	3.6	1.51e+00	0	28	104	0	60	44432
2026-01-16 14:26:06.40	20.20	1.30	-46.4	-61.5	3.6	1.51e+00	0	29	104	0	60	43181
2026-01-16 14:26:10.44	20.27	1.55	-46.4	-61.6	3.6	1.51e+00	0	29	104	0	60	43602
2026-01-16 14:26:14.48	20.34	1.80	-46.4	-61.7	3.6	1.51e+00	0	29	104	0	60	43765
2026-01-16 14:26:18.52	20.40	2.06	-46.4	-61.6	3.6	1.51e+00	0	29	104	0	60	43695
2026-01-16 14:26:22.55	20.47	2.32	-46.4	-60.6	3.6	1.51e+00	0	29	104	0	60	38916
2026-01-16 14:26:26.60	20.54	2.58	-46.3	-59.5	3.7	1.50e+00	0	29	104	0	60	34244
2026-01-16 14:26:30.64	20.61	2.84	-45.7	-52.8	6.8	2.13e-01	0	29	0	3145728	60	15815
2026-01-16 14:26:34.67	20.68	3.10	-42.7	-45.4	15.2	0.00e+00	0	29	0	10485760	60	6711
2026-01-16 14:26:38.71	20.76	3.37	-41.0	-42.9	17.6	0.00e+00	89	29	0	17825792	54	7164
2026-01-16 14:26:42.75	20.83	3.64	-42.5	-45.1	15.4	0.00e+00	0	29	0	25165824	56	8201
2026-01-16 14:26:46.79	20.90	3.91	-45.7	-52.7	6.2	9.04e-03	0	29	0	32505856	60	15628
2026-01-16 14:26:50.84	20.98	4.19	-41.9	-44.2	16.7	0.00e+00	81	29	0	36700160	58	6540
2026-01-16 14:26:54.88	21.06	4.47	-40.7	-42.5	18.3	0.00e+00	0	29	0	44040192	56	6052
2026-01-16 14:26:58.91	21.13	4.75	-40.4	-42.1	18.6	0.00e+00	0	29	0	51380224	54	6490
2026-01-16 14:27:02.95	21.21	5.03	-39.6	-41.0	19.6	0.00e+00	0	29	0	59768832	52	6419
2026-01-16 14:27:06.99	21.29	5.32	-39.9	-41.4	19.3	0.00e+00	92	29	0	67108864	52	6728
2026-01-16 14:27:11.02	21.37	5.61	-39.5	-40.9	20.0	0.00e+00	0	29	0	74448896	52	6322
2026-01-16 14:27:15.06	21.46	5.90	-38.8	-40.1	20.5	0.00e+00	0	29	0	81788928	52	5799
2026-01-16 14:27:19.10	21.54	6.20	-38.7	-40.0	20.6	0.00e+00	0	29	0	89128960	50	6414
2026-01-16 14:27:23.14	21.63	6.50	-38.7	-39.9	20.8	0.00e+00	92	29	0	97517568	50	6341
2026-01-16 14:27:27.18	21.71	6.80	-38.7	-39.9	20.7	0.00e+00	0	29	0	104857600	50	6375
2026-01-16 14:27:31.22	21.80	7.11	-38.4	-39.6	21.1	0.00e+00	0	29	0	112197632	50	6125
2026-01-16 14:27:35.26	21.89	7.42	-38.4	-39.6	21.2	0.00e+00	0	29	0	119537664	50	6158
2026-01-16 14:27:39.30	21.98	7.73	-38.3	-39.5	21.3	0.00e+00	37	29	0	127926272	50	6056
2026-01-16 14:27:43.34	22.07	8.05	-38.2	-39.4	21.4	0.00e+00	0	29	0	135266304	50	5982
2026-01-16 14:27:47.37	22.17	8.37	-38.4	-39.6	21.3	0.00e+00	0	29	0	142606336	50	6129
2026-01-16 14:27:51.41	22.26	8.70	-37.8	-38.9	21.8	0.00e+00	92	29	0	149946368	50	5674
2026-01-16 14:27:55.45	22.36	9.03	-37.9	-39.0	21.8	0.00e+00	0	29	0	157286400	48	6416
2026-01-16 14:27:59.49	22.46	9.36	-38.0	-39.1	21.7	0.00e+00	0	29	0	165675008	48	6478
2026-01-16 14:28:03.53	22.56	9.70	-37.9	-39.0	21.8	0.00e+00	0	29	0	173015040	48	6433
2026-01-16 14:28:07.57	22.67	10.05	-37.5	-38.5	22.2	0.00e+00	67	29	0	180355072	48	6070
2026-01-16 14:28:11.61	22.77	10.40	-37.2	-38.2	22.5	0.00e+00	0	29	0	187695104	48	5835
2026-01-16 14:28:15.65	22.88	10.75	-37.2	-38.2	22.5	0.00e+00	0	29	0	196083712	48	5894
2026-01-16 14:28:19.69	22.99	11.11	-37.2	-38.3	22.4	0.00e+00	0	30	0	203423744	48	5903
2026-01-16 14:28:23.73	23.10	11.47	-37.1	-38.0	22.6	0.00e+00	78	30	0	210763776	48	5747
2026-01-16 14:28:27.77	23.22	11.84	-37.2	-38.2	22.6	0.00e+00	0	30	0	218103808	48	5891
2026-01-16 14:28:31.81	23.33	12.22	-36.9	-37.9	22.8	0.00e+00	0	29	0	225443840	46	6353
2026-01-16 14:28:35.85	23.45	12.60	-36.9	-37.8	22.8	0.00e+00	5	30	0	233832448	46	6315
2026-01-16 14:28:39.89	23.57	12.99	-37.0	-38.0	22.8	0.00e+00	0	30	0	241172480	46	6438
2026-01-16 14:28:43.93	23.70	13.38	-36.7	-37.7	23.0	0.00e+00	0	30	0	248512512	46	6200
2026-01-16 14:28:47.97	23.83	13.78	-36.5	-37.4	23.2	0.00e+00	0	30	0	255852544	46	6027
2026-01-16 14:28:52.01	23.96	14.19	-36.9	-37.9	22.7	0.00e+00	92	30	0	264241152	46	6339
2026-01-16 14:28:56.05	24.09	14.60	-36.9	-37.9	22.5	0.00e+00	0	30	0	271581184	46	6360
2026-01-16 14:29:00.09	24.23	15.02	-36.9	-37.9	22.6	0.00e+00	0	30	0	278921216	46	6331
2026-01-16 14:29:04.12	24.37	15.45	-37.0	-38.0	22.9	0.00e+00	0	30	0	286261248	46	6412
2026-01-16 14:29:08.16	24.51	15.88	-37.1	-38.1	22.8	0.00e+00	92	30	0	293601280	46	6486
2026-01-16 14:29:12.20	24.66	16.33	-37.2	-38.1	22.8	0.00e+00	27	30	0	301989888	46	6535
2026-01-16 14:29:16.24	24.82	16.78	-37.1	-38.1	22.8	0.00e+00	0	30	0	309329920	46	6466
2026-01-16 14:29:20.28	24.97	17.24	-37.1	-38.1	22.7	0.00e+00	61	30	0	316669952	46	6503
2026-01-16 14:29:24.31	25.13	17.70	-37.5	-38.5	22.5	0.00e+00	83	30	0	324009984	46	6811
2026-01-16 14:29:28.35	25.30	18.18	-37.6	-38.6	22.5	0.00e+00	0	30	0	332398592	46	6875
2026-01-16 14:29:32.39	25.47	18.67	-37.5	-38.5	22.6	0.00e+00	0	30	0	339738624	48	6048
2026-01-16 14:29:36.43	25.64	19.16	-37.6	-38.6	22.4	0.00e+00	86	30	0	347078656	48	6150
2026-01-16 14:29:40.47	25.82	19.67	-37.8	-38.8	22.3	0.00e+00	0	30	0	354418688	48	6309
2026-01-16 14:29:44.51	26.01	20.18	-38.2	-39.4	21.7	0.00e+00	0	30	0	361758720	48	6695
2026-01-16 14:29:48.56	26.20	20.71	-38.2	-39.3	21.9	0.00e+00	0	30	0	370147328	48	6657
2026-01-16 14:29:52.59	26.40	21.25	-37.6	-38.6	22.6	0.00e+00	92	30	0	377487360	48	6114
2026-01-16 14:29:56.63	26.60	21.80	-37.2	-38.1	22.8	0.00e+00	0	30	0	384827392	48	5828
2026-01-16 14:30:00.67	26.81	22.36	-37.4	-38.4	22.6	0.00e+00	0	30	0	392167424	48	5976
2026-01-16 14:30:04.71	27.03	22.93	-37.2	-38.1	22.9	0.00e+00	2	30	0	400556032	48	5823
2026-01-16 14:30:08.75	27.26	23.52	-36.9	-37.8	23.2	0.00e+00	62	30	0	407896064	46	6263
2026-01-16 14:30:12.79	27.49	24.12	-36.9	-37.9	23.1	0.00e+00	0	30	0	415236096	46	6339
2026-01-16 14:30:16.82	27.73	24.73	-37.3	-38.3	22.9	0.00e+00	0	30	0	422576128	46	6669
2026-01-16 14:30:20.86	27.98	25.35	-37.0	-38.0	23.0	0.00e+00	7	30	0	429916160	46	6410
2026-01-16 14:30:24.90	28.24	26.00	-36.9	-37.9	23.0	0.00e+00	0	30	0	438304768	46	6340
2026-01-16 14:30:28.94	28.51	26.65	-37.0	-38.0	23.0	0.00e+00	0	30	0	445644800	46	6399
2026-01-16 14:30:32.98	28.79	27.32	-36.4	-37.3	23.6	0.00e+00	0	30	0	452984832	46	5901
2026-01-16 14:30:37.02	29.09	28.01	-36.1	-37.0	23.8	0.00e+00	92	30	0	460324864	46	5734
2026-01-16 14:30:41.06	29.39	28.72	-36.1	-36.9	23.9	0.00e+00	0	30	0	468713472	44	6363
2026-01-16 14:30:45.10	29.71	29.44	-36.5	-37.5	23.6	0.00e+00	0	30	0	476053504	44	6771
2026-01-16 14:30:49.14	30.04	30.18	-37.6	-38.6	22.6	0.00e+00	10	30	0	483393536	46	6879
2026-01-16 14:30:53.18	30.39	30.94	-38.7	-39.9	21.6	0.00e+00	91	30	0	490733568	48	7092
2026-01-16 14:30:57.22	30.76	31.72	-38.4	-39.5	21.9	0.00e+00	0	30	0	498073600	50	6075
2026-01-16 14:31:01.26	31.14	32.52	-39.5	-40.7	21.0	0.00e+00	0	30	0	506462208	50	6998
2026-01-16 14:31:05.29	31.53	33.34	-39.1	-40.3	21.2	0.00e+00	58	30	0	513802240	50	6648
2026-01-16 14:31:09.33	31.95	34.18	-39.3	-40.6	21.0	0.00e+00	0	30	0	521142272	50	6856
2026-01-16 14:31:13.36	32.39	35.04	-39.3	-40.5	21.2	0.00e+00	0	30	0	528482304	52	6043
2026-01-16 14:31:17.40	32.86	35.93	-40.0	-41.4	20.3	0.00e+00	0	30	0	536870912	52	6706
2026-01-16 14:31:21.44	33.35	36.84	-39.7	-41.0	20.7	0.00e+00	11	30	0	544210944	52	6394
2026-01-16 14:31:25.47	33.86	37.76	-40.7	-42.1	19.5	0.00e+00	0	30	0	551550976	52	7334
2026-01-16 14:31:29.51	34.41	38.72	-40.6	-42.1	19.4	0.00e+00	0	30	0	558891008	54	6468
2026-01-16 14:31:33.55	34.99	39.70	-40.9	-42.5	19.1	0.00e+00	0	30	0	566231040	54	6831
2026-01-16 14:31:37.59	35.60	40.71	-41.3	-43.0	18.7	0.00e+00	91	30	0	574619648	56	6420
2026-01-16 14:31:41.63	36.26	41.74	-40.2	-41.6	20.1	0.00e+00	0	30	0	581959680	54	6150
2026-01-16 14:31:45.67	36.95	42.79	-40.2	-41.6	19.9	0.00e+00	0	30	0	589299712	54	6155
2026-01-16 14:31:49.71	37.70	43.88	-39.2	-40.4	21.3	0.00e+00	6	31	0	596639744	52	5966
2026-01-16 14:31:53.75	38.49	44.98	-37.4	-38.3	22.4	0.00e+00	92	30	0	605028352	48	5954
2026-01-16 14:31:57.79	39.34	46.12	-37.4	-38.3	22.9	0.00e+00	0	30	0	612368384	48	5949
2026-01-16 14:32:01.84	40.26	47.28	-38.8	-39.9	21.6	0.00e+00	0	30	0	619708416	50	6358
2026-01-16 14:32:05.87	41.24	48.46	-39.3	-40.5	20.9	0.00e+00	20	31	0	627048448	50	6822
2026-01-16 14:32:09.91	42.30	49.67	-37.9	-39.0	22.4	0.00e+00	0	31	0	634388480	48	6431
2026-01-16 14:32:13.96	43.45	50.90	-38.2	-39.3	22.1	0.00e+00	0	31	0	642777088	48	6664
2026-01-16 14:32:17.99	44.69	52.14	-36.8	-37.8	23.3	0.00e+00	0	31	0	650117120	48	5625
2026-01-16 14:32:22.03	46.05	53.41	-35.9	-36.8	24.0	0.00e+00	79	31	0	657457152	44	6278
2026-01-16 14:32:26.07	47.53	54.69	-35.1	-36.0	24.7	0.00e+00	8	30	0	664797184	44	5722
2026-01-16 14:32:30.11	49.14	55.98	-34.8	-35.6	24.8	0.00e+00	0	31	0	673185792	42	6143
2026-01-16 14:32:34.14	50.91	57.28	-34.6	-35.3	25.1	0.00e+00	0	31	0	680525824	42	5942
2026-01-16 14:32:38.18	52.86	58.58	-35.1	-35.9	24.8	0.00e+00	84	31	0	687865856	42	6385
2026-01-16 14:32:42.22	55.00	59.88	-36.7	-37.6	23.3	0.00e+00	0	31	0	695205888	44	6870
2026-01-16 14:32:46.26	57.37	61.16	-37.5	-38.5	22.6	0.00e+00	0	30	0	702545920	46	6825
2026-01-16 14:32:50.29	59.99	62.42	-35.2	-36.0	24.5	0.00e+00	89	30	0	710934528	44	5717
2026-01-16 14:32:54.33	62.89	63.65	-35.4	-36.2	24.4	0.00e+00	0	30	0	718274560	44	5887
2026-01-16 14:32:58.37	66.11	64.84	-34.8	-35.5	24.5	0.00e+00	0	30	0	725614592	42	6085
2026-01-16 14:33:02.41	69.68	65.96	-35.2	-36.0	24.5	0.00e+00	0	30	0	732954624	44	5716
2026-01-16 14:33:06.45	73.61	67.01	-38.3	-39.4	22.1	0.00e+00	90	30	0	741343232	48	6699
2026-01-16 14:33:10.49	77.94	67.96	-38.3	-39.4	21.9	0.00e+00	0	30	0	748683264	48	6701
2026-01-16 14:33:14.53	82.67	68.79	-40.0	-41.3	19.5	0.00e+00	0	30	0	756023296	54	5962
2026-01-16 14:33:18.57	87.77	69.49	-38.9	-40.1	21.6	0.00e+00	0	30	0	763363328	52	5767
2026-01-16 14:33:22.61	93.22	70.03	-38.5	-39.5	22.0	0.00e+00	49	30	0	770703360	50	6089
2026-01-16 14:33:26.66	98.95	70.40	-36.2	-37.0	23.9	0.00e+00	0	30	0	779091968	46	5759
2026-01-16 14:33:30.69	104.83	70.57	-37.6	-38.6	22.7	0.00e+00	0	30	0	786432000	48	6146
2026-01-16 14:33:34.73	110.77	70.56	-38.6	-39.7	21.7	0.00e+00	6	30	0	793772032	50	6187
2026-01-16 14:33:38.78	116.66	70.35	-40.7	-42.2	19.6	0.00e+00	25	30	0	801112064	52	7368
2026-01-16 14:33:42.81	122.33	69.95	-41.5	-43.1	19.1	0.00e+00	0	30	0	809500672	56	6529
2026-01-16 14:33:46.86	127.74	69.39	-40.0	-41.2	20.4	0.00e+00	0	30	0	816840704	52	6608
2026-01-16 14:33:50.90	132.79	68.67	-38.5	-39.6	21.8	0.00e+00	90	30	0	824180736	50	6139
2026-01-16 14:33:54.94	137.45	67.81	-39.6	-40.9	20.7	0.00e+00	0	30	0	831520768	50	7141
2026-01-16 14:33:58.97	141.71	66.84	-35.0	-35.8	24.7	0.00e+00	0	30	0	839909376	44	5598
2026-01-16 14:34:02.99	145.57	65.79	-35.0	-35.8	24.6	0.00e+00	0	30	0	847249408	44	5611
2026-01-16 14:34:07.03	149.09	64.65	-34.1	-34.9	25.3	0.00e+00	73	30	0	854589440	42	5679
2026-01-16 14:34:11.07	152.26	63.46	-34.4	-35.2	25.3	0.00e+00	0	30	0	861929472	42	5853
2026-01-16 14:34:15.11	155.12	62.22	-34.9	-35.7	24.9	0.00e+00	0	30	0	869269504	42	6212
2026-01-16 14:34:19.15	157.70	60.95	-34.0	-34.7	25.3	0.00e+00	3	30	0	877658112	40	6224
2026-01-16 14:34:23.19	160.04	59.66	-33.7	-34.4	25.5	0.00e+00	91	30	0	884998144	40	6033
2026-01-16 14:34:27.23	162.15	58.36	-36.3	-37.2	23.7	0.00e+00	0	30	0	892338176	44	6606
2026-01-16 14:34:31.27	164.07	57.05	-36.3	-37.3	23.7	0.00e+00	0	30	0	899678208	44	6622
2026-01-16 14:34:35.30	165.82	55.75	-34.1	-34.8	25.3	0.00e+00	5	30	0	907018240	42	5613
2026-01-16 14:34:39.34	167.41	54.46	-34.1	-35.0	25.3	0.00e+00	0	30	0	915406848	42	5698
2026-01-16 14:34:43.38	168.87	53.17	-34.2	-35.0	25.2	0.00e+00	0	30	0	922746880	40	6438
2026-01-16 14:34:47.42	170.20	51.91	-33.9	-34.6	25.6	0.00e+00	0	30	0	930086912	42	5483
2026-01-16 14:34:51.45	171.43	50.66	-37.2	-38.2	23.0	0.00e+00	70	30	0	937426944	46	6595
2026-01-16 14:34:55.50	172.57	49.43	-35.9	-36.9	23.8	0.00e+00	0	29	0	945815552	42	7089
2026-01-16 14:34:59.54	173.62	48.22	-39.2	-40.5	20.9	0.00e+00	0	30	0	953155584	50	6803
2026-01-16 14:35:03.58	174.59	47.04	-39.8	-41.1	20.6	0.00e+00	32	30	0	960495616	54	5807
2026-01-16 14:35:07.61	175.49	45.88	-38.4	-39.4	21.9	0.00e+00	92	30	0	967835648	48	6750
2026-01-16 14:35:11.65	176.33	44.75	-38.6	-39.8	21.8	0.00e+00	0	29	0	975175680	50	6298
2026-01-16 14:35:15.69	177.12	43.64	-36.9	-37.8	23.1	0.00e+00	0	29	0	983564288	46	6282
2026-01-16 14:35:19.73	177.85	42.56	-38.3	-39.4	22.1	0.00e+00	4	29	0	990904320	50	6003
2026-01-16 14:35:23.78	178.54	41.50	-34.1	-34.8	24.5	0.00e+00	0	29	0	998244352	42	5620
2026-01-16 14:35:27.82	179.19	40.47	-36.6	-37.6	23.5	0.00e+00	0	29	0	1005584384	46	6108
2026-01-16 14:35:31.86	179.80	39.47	-34.9	-35.7	24.8	0.00e+00	0	29	0	1013972992	44	5552
2026-01-16 14:35:35.90	180.37	38.49	-37.5	-38.5	22.7	0.00e+00	85	29	0	1021313024	46	6829
2026-01-16 14:35:39.94	180.91	37.53	-37.1	-38.1	23.1	0.00e+00	0	29	0	1028653056	48	5774
2026-01-16 14:35:43.98	181.42	36.60	-36.6	-37.5	23.6	0.00e+00	0	29	0	1035993088	46	6065
2026-01-16 14:35:48.02	181.91	35.69	-37.2	-38.2	23.2	0.00e+00	0	29	0	1043333120	46	6546
2026-01-16 14:35:52.05	182.37	34.81	-38.6	-39.7	21.7	0.00e+00	51	29	0	1051721728	48	6980
2026-01-16 14:35:56.09	182.80	33.95	-41.0	-42.5	19.5	0.00e+00	0	29	0	1059061760	54	6845
2026-01-16 14:36:00.13	183.22	33.11	-38.9	-40.1	21.4	0.00e+00	0	29	0	1066401792	52	5764
2026-01-16 14:36:04.13	183.61	32.30	-37.6	-38.6	22.7	0.00e+00	0	29	0	1073741824	48	6123
2026-01-16 14:36:08.17	183.98	31.50	-38.4	-39.4	22.1	0.00e+00	92	29	0	1081081856	48	6716
2026-01-16 14:36:12.21	184.34	30.72	-38.7	-39.8	21.7	0.00e+00	0	29	0	1088421888	50	6274
2026-01-16 14:36:16.25	184.69	29.96	-38.0	-39.1	22.2	0.00e+00	0	29	0	1095761920	50	5790
2026-01-16 14:36:20.29	185.02	29.22	-38.1	-39.2	22.2	0.00e+00	0	29	0	1104150528	50	5831
2026-01-16 14:36:24.33	185.33	28.50	-37.2	-38.2	22.9	0.00e+00	92	29	0	1111490560	48	5853
2026-01-16 14:36:28.37	185.63	27.79	-37.8	-38.8	22.5	0.00e+00	0	29	0	1118830592	48	6308
2026-01-16 14:36:32.40	185.92	27.11	-36.5	-37.4	23.7	0.00e+00	0	29	0	1126170624	46	6013
2026-01-16 14:36:36.44	186.20	26.44	-36.6	-37.5	23.5	0.00e+00	70	29	0	1134559232	46	6069
2026-01-16 14:36:40.48	186.47	25.78	-37.1	-38.1	23.1	0.00e+00	39	29	0	1141899264	46	6514
2026-01-16 14:36:44.52	186.73	25.14	-36.3	-37.3	23.6	0.00e+00	0	29	0	1149239296	46	5922
2026-01-16 14:36:48.55	186.97	24.51	-35.3	-36.3	24.3	0.00e+00	0	29	0	1156579328	44	5915
2026-01-16 14:36:52.59	187.21	23.90	-35.1	-36.1	24.5	0.00e+00	2	29	0	1163919360	44	5768
2026-01-16 14:36:56.63	187.44	23.30	-35.0	-35.8	24.6	0.00e+00	0	29	0	1172307968	44	5612
2026-01-16 14:37:00.67	187.67	22.72	-35.2	-36.1	24.6	0.00e+00	0	29	0	1179648000	44	5774
2026-01-16 14:37:04.71	187.88	22.14	-35.8	-36.6	24.1	0.00e+00	0	29	0	1186988032	44	6141
2026-01-16 14:37:08.75	188.09	21.58	-36.3	-37.2	23.7	0.00e+00	92	29	0	1194328064	44	6547
2026-01-16 14:37:12.79	188.29	21.04	-36.5	-37.4	23.4	0.00e+00	0	29	0	1202716672	44	6742
2026-01-16 14:37:16.82	188.48	20.50	-36.2	-37.1	23.7	0.00e+00	0	29	0	1210056704	46	5823
2026-01-16 14:37:20.86	188.67	19.97	-35.9	-36.8	24.0	0.00e+00	48	29	0	1217396736	44	6249
2026-01-16 14:37:24.90	188.86	19.46	-35.4	-36.2	24.3	0.00e+00	90	29	0	1224736768	44	5891
2026-01-16 14:37:28.94	189.03	18.95	-35.5	-36.3	24.3	0.00e+00	0	29	0	1232076800	44	5929
2026-01-16 14:37:32.98	189.20	18.46	-35.4	-36.2	24.3	0.00e+00	0	28	0	1240465408	44	5858
2026-01-16 14:37:37.01	189.37	17.97	-35.5	-36.4	24.1	0.00e+00	0	28	0	1247805440	44	5965
2026-01-16 14:37:41.05	189.53	17.49	-36.0	-36.9	23.8	0.00e+00	41	29	0	1255145472	44	6336
2026-01-16 14:37:45.09	189.69	17.03	-36.6	-37.5	23.3	0.00e+00	0	28	0	1262485504	44	6829
2026-01-16 14:37:49.13	189.84	16.57	-37.0	-38.0	22.9	0.00e+00	0	28	0	1270874112	46	6396
2026-01-16 14:37:53.17	189.99	16.12	-36.9	-37.8	23.0	0.00e+00	90	28	0	1278214144	46	6288
2026-01-16 14:37:57.21	190.14	15.67	-36.5	-37.4	23.3	0.00e+00	0	28	0	1285554176	46	6004
2026-01-16 14:38:01.25	190.28	15.24	-36.6	-37.5	23.3	0.00e+00	0	28	0	1292894208	46	6036
2026-01-16 14:38:05.29	190.42	14.81	-36.5	-37.3	23.4	0.00e+00	0	28	0	1300234240	46	5957
2026-01-16 14:38:09.33	190.55	14.39	-36.8	-37.8	23.1	0.00e+00	58	28	0	1308622848	46	6255
2026-01-16 14:38:13.37	190.68	13.98	-37.0	-37.9	22.7	0.00e+00	0	28	0	1315962880	46	6335
2026-01-16 14:38:17.41	190.81	13.57	-37.4	-38.3	22.4	0.00e+00	30	28	0	1323302912	46	6689
2026-01-16 14:38:21.45	190.94	13.17	-37.4	-38.4	22.5	0.00e+00	56	28	0	1330642944	46	6724
2026-01-16 14:38:25.49	191.06	12.78	-37.5	-38.5	22.5	0.00e+00	19	28	0	1339031552	46	6803
2026-01-16 14:38:29.52	191.18	12.39	-37.6	-38.6	22.4	0.00e+00	0	28	0	1346371584	46	6882
2026-01-16 14:38:33.56	191.29	12.01	-37.9	-39.0	22.0	0.00e+00	0	28	0	1353711616	48	6424
2026-01-16 14:38:37.60	191.41	11.64	-37.8	-38.9	22.1	0.00e+00	86	28	0	1361051648	48	6339
2026-01-16 14:38:41.64	191.52	11.27	-37.8	-38.9	22.0	0.00e+00	0	28	0	1368391680	48	6339
2026-01-16 14:38:45.68	191.63	10.90	-37.7	-38.7	22.2	0.00e+00	0	28	0	1376780288	48	6243
2026-01-16 14:38:49.72	191.73	10.54	-37.9	-38.9	22.0	0.00e+00	0	28	0	1384120320	48	6387
2026-01-16 14:38:53.75	191.84	10.19	-38.1	-39.2	21.7	0.00e+00	92	28	0	1391460352	48	6561
2026-01-16 14:38:57.79	191.94	9.84	-37.6	-38.7	22.2	0.00e+00	0	28	0	1398800384	48	6210
2026-01-16 14:39:01.82	192.04	9.50	-37.3	-38.3	22.5	0.00e+00	0	28	0	1407188992	48	5923
2026-01-16 14:39:05.86	192.14	9.16	-37.4	-38.4	22.4	0.00e+00	56	28	0	1414529024	48	5984
2026-01-16 14:39:09.90	192.23	8.82	-36.9	-37.9	22.7	0.00e+00	92	28	0	1421869056	48	5662
2026-01-16 14:39:13.94	192.33	8.49	-37.0	-37.9	22.7	0.00e+00	0	28	0	1429209088	48	5689
2026-01-16 14:39:17.98	192.42	8.16	-36.9	-37.9	22.7	0.00e+00	0	28	0	1436549120	48	5638
2026-01-16 14:39:22.02	192.51	7.84	-36.8	-37.8	22.7	0.00e+00	83	28	0	1444937728	48	5572
2026-01-16 14:39:26.06	192.60	7.52	-37.0	-38.0	22.6	0.00e+00	0	28	0	1452277760	48	5701
2026-01-16 14:39:30.09	192.69	7.21	-36.9	-37.9	22.6	0.00e+00	0	28	0	1459617792	46	6346
2026-01-16 14:39:34.13	192.77	6.90	-36.9	-37.9	22.6	0.00e+00	0	28	0	1466957824	46	6376
2026-01-16 14:39:38.17	192.86	6.59	-36.9	-37.9	22.5	0.00e+00	92	28	0	1475346432	46	6368
2026-01-16 14:39:42.21	192.94	6.29	-36.9	-37.9	22.6	0.00e+00	0	28	0	1482686464	46	6357
2026-01-16 14:39:46.24	193.02	5.99	-37.4	-38.5	22.1	0.00e+00	0	28	0	1490026496	46	6770
2026-01-16 14:39:50.28	193.10	5.69	-37.1	-38.1	22.4	0.00e+00	0	28	0	1497366528	46	6471
2026-01-16 14:39:54.31	193.18	5.40	-37.2	-38.2	22.1	0.00e+00	53	28	0	1504706560	46	6581
2026-01-16 14:39:58.35	193.26	5.11	-37.4	-38.4	22.0	0.00e+00	0	28	0	1513095168	46	6734
2026-01-16 14:40:02.39	193.33	4.82	-37.2	-38.2	22.1	0.00e+00	0	28	0	1520435200	46	6574
2026-01-16 14:40:06.43	193.41	4.54	-37.5	-38.5	21.8	0.00e+00	64	28	0	1527775232	46	6832
2026-01-16 14:40:10.47	193.48	4.26	-38.3	-39.4	21.0	0.00e+00	92	28	0	1535115264	48	6755
2026-01-16 14:40:14.51	193.55	3.98	-37.7	-38.8	21.4	0.00e+00	0	28	0	1543503872	48	6271
2026-01-16 14:40:18.54	193.62	3.70	-37.6	-38.6	21.5	0.00e+00	0	28	0	1550843904	48	6172
2026-01-16 14:40:22.58	193.70	3.43	-38.2	-39.3	21.0	0.00e+00	82	28	0	1558183936	48	6676
2026-01-16 14:40:26.62	193.76	3.16	-37.9	-39.0	21.1	0.00e+00	0	28	0	1565523968	48	6455
2026-01-16 14:40:30.65	193.83	2.89	-47.2	-62.3	3.6	1.51e+00	0	28	104	1571815424	60	47007
2026-01-16 14:40:34.69	193.90	2.63	-47.2	-63.1	3.6	1.51e+00	0	28	104	1571815424	60	51791
2026-01-16 14:40:38.73	193.97	2.37	-47.9	-63.3	3.6	1.51e+00	0	28	104	1571815424	60	52696
2026-01-16 14:40:42.77	194.03	2.11	-47.8	-63.2	3.6	1.51e+00	0	28	104	1571815424	60	51950
2026-01-16 14:40:46.81	194.10	1.85	-47.9	-63.1	3.6	1.51e+00	0	28	104	1571815424	60	51859
2026-01-16 14:40:50.84	194.16	1.59	-48.0	-63.2	3.6	1.51e+00	0	28	104	1571815424	60	52079
2026-01-16 14:40:54.88	194.22	1.34	-47.9	-63.1	3.6	1.51e+00	0	28	104	1571815424	60	51445
2026-01-16 14:40:58.92	194.28	1.09	-47.9	-63.1	3.6	1.51e+00	0	28	104	1571815424	60	51896
2026-01-16 14:41:02.96	194.34	0.84	-48.0	-63.2	3.6	1.51e+00	0	28	104	1571815424	60	52178
2026-01-16 14:41:07.00	194.40	0.59	-48.0	-63.2	3.6	1.51e+00	0	28	104	1571815424	60	52210
2026-01-16 14:41:11.03	194.46	0.35	-48.0	-63.1	3.6	1.51e+00	0	28	104	1571815424	60	51868
2026-01-16 14:41:15.07	194.52	0.11	-47.9	-63.1	3.6	1.51e+00	0	28	104	1571815424	60	51935

#Closed at: 2026-01-16 14:41:17
#Recorded file [1571 MB]: D:/lorett/data/35029_260117_022546.dat