passes_logs/2026/01/16/R4.6S_Anadyr/R4.6S_Anadyr__20260116_202443_FENGYUN_3D_rec.log

#Pass ID: 20260116_202443_FENGYUN 3D
#Satellite: FENGYUN 3D
#Configuration: FENGYUN 3D
#almurnet v.1.7.20251203
#Start time: 2026-01-16 20:24:45

#Version: 2.2.20231116
#Station: R4.6S_Anadyr
#Location: 177.4865 lon 64.73178 lat
#TLE: 1 43010U 17072A   26015.99024095 -.00000189  00000+0 -67463-4 0  9996
#TLE: 2 43010  98.9932 347.8215 0002366 106.5594 253.5841 14.19694691423396

#Time	Az	El	Level	Level2	SNR	BER	BlckErr	Temp	State	Recorded	gain1	gain2
2026-01-16 20:24:45.09	40.22	0.10	-48.2	-63.1	3.5	1.51e+00	0	27	0	0	60	51892
2026-01-16 20:24:49.13	39.94	0.30	-48.1	-60.3	3.6	8.45e-01	0	29	104	0	60	37321
2026-01-16 20:24:53.17	39.66	0.51	-48.0	-60.2	3.6	8.46e-01	0	29	104	0	60	36927
2026-01-16 20:24:57.21	39.37	0.71	-47.8	-59.9	3.6	8.45e-01	0	29	104	0	60	35758
2026-01-16 20:25:01.25	39.07	0.92	-47.1	-59.2	3.6	8.45e-01	0	29	104	0	60	33036
2026-01-16 20:25:05.29	38.78	1.12	-46.3	-58.4	3.6	8.46e-01	0	29	104	0	60	30048
2026-01-16 20:25:09.33	38.47	1.33	-46.4	-58.4	3.6	8.45e-01	0	29	104	0	60	30166
2026-01-16 20:25:13.37	38.17	1.54	-46.3	-58.3	3.6	8.44e-01	0	29	104	0	60	29754
2026-01-16 20:25:17.40	37.86	1.75	-46.4	-58.5	3.6	8.44e-01	0	29	104	0	60	30356
2026-01-16 20:25:21.44	37.54	1.96	-46.3	-57.8	3.6	8.46e-01	0	29	104	0	60	28209
2026-01-16 20:25:25.47	37.22	2.17	-46.3	-57.9	3.6	8.46e-01	0	30	104	0	60	28488
2026-01-16 20:25:29.51	36.89	2.38	-46.4	-58.5	3.6	8.46e-01	0	29	104	0	60	30244
2026-01-16 20:25:33.55	36.56	2.59	-46.2	-56.8	3.6	8.44e-01	0	30	104	0	60	25092
2026-01-16 20:25:37.59	36.23	2.80	-46.0	-55.5	3.7	8.46e-01	0	29	104	0	60	21591
2026-01-16 20:25:41.63	35.89	3.02	-41.1	-42.8	14.8	0.00e+00	0	30	0	16777216	56	6315
2026-01-16 20:25:45.66	35.54	3.23	-40.3	-41.9	14.8	3.34e-04	0	29	0	38797312	52	7115
2026-01-16 20:25:49.70	35.19	3.45	-36.9	-37.9	19.7	0.00e+00	0	30	0	54525952	48	5640
2026-01-16 20:25:53.74	34.83	3.66	-35.7	-36.6	20.8	0.00e+00	0	30	0	77594624	44	6152
2026-01-16 20:25:57.78	34.47	3.88	-35.6	-36.4	21.2	0.00e+00	0	30	0	100663296	44	6000
2026-01-16 20:26:01.81	34.11	4.09	-35.6	-36.5	21.3	0.00e+00	0	29	0	122683392	44	6053
2026-01-16 20:26:05.86	33.73	4.31	-35.6	-36.5	21.3	0.00e+00	0	30	0	145752064	44	6045
2026-01-16 20:26:09.89	33.35	4.53	-35.5	-36.4	21.4	0.00e+00	0	30	0	168820736	44	6003
2026-01-16 20:26:13.94	32.97	4.75	-34.9	-35.7	22.0	0.00e+00	0	30	0	190840832	44	5528
2026-01-16 20:26:17.97	32.58	4.97	-35.1	-35.8	22.0	0.00e+00	0	30	0	213909504	44	5630
2026-01-16 20:26:22.01	32.18	5.19	-35.3	-36.2	21.8	0.00e+00	0	30	0	236978176	44	5830
2026-01-16 20:26:26.04	31.78	5.40	-34.9	-35.7	22.0	0.00e+00	0	30	0	258998272	44	5507
2026-01-16 20:26:30.08	31.37	5.63	-34.8	-35.6	22.4	0.00e+00	0	30	0	282066944	44	5487
2026-01-16 20:26:34.10	30.95	5.85	-34.8	-35.6	22.3	0.00e+00	0	30	0	304087040	42	6119
2026-01-16 20:26:38.14	30.53	6.07	-34.5	-35.2	22.5	0.00e+00	0	30	0	327155712	42	5893
2026-01-16 20:26:42.18	30.10	6.29	-34.2	-35.0	22.8	0.00e+00	0	30	0	350224384	42	5707
2026-01-16 20:26:46.22	29.66	6.51	-34.2	-34.9	22.9	0.00e+00	0	30	0	373293056	42	5669
2026-01-16 20:26:50.26	29.22	6.73	-34.0	-34.7	23.2	0.00e+00	0	30	0	395313152	42	5532
2026-01-16 20:26:54.30	28.77	6.95	-34.2	-35.0	23.1	0.00e+00	0	30	0	418381824	42	5709
2026-01-16 20:26:58.34	28.31	7.18	-34.1	-34.9	23.1	0.00e+00	0	30	0	440401920	42	5636
2026-01-16 20:27:02.37	27.85	7.40	-34.0	-34.7	23.3	0.00e+00	0	30	0	463470592	42	5540
2026-01-16 20:27:06.40	27.38	7.62	-34.1	-34.8	23.1	0.00e+00	0	30	0	486539264	42	5625
2026-01-16 20:27:10.44	26.90	7.85	-34.0	-34.8	23.3	0.00e+00	0	30	0	508559360	42	5568
2026-01-16 20:27:14.48	26.41	8.07	-33.7	-34.4	23.6	0.00e+00	0	30	0	531628032	40	6030
2026-01-16 20:27:18.52	25.92	8.29	-33.5	-34.2	23.8	0.00e+00	0	30	0	554696704	40	5870
2026-01-16 20:27:22.56	25.41	8.51	-33.4	-34.1	23.9	0.00e+00	0	30	0	577765376	40	5789
2026-01-16 20:27:26.59	24.90	8.74	-33.4	-34.1	23.9	0.00e+00	0	30	0	599785472	40	5824
2026-01-16 20:27:30.63	24.38	8.96	-33.2	-33.9	24.2	0.00e+00	0	30	0	622854144	40	5668
2026-01-16 20:27:34.67	23.86	9.18	-33.3	-34.0	24.1	0.00e+00	0	30	0	644874240	40	5722
2026-01-16 20:27:38.71	23.32	9.40	-33.4	-34.2	23.9	0.00e+00	0	30	0	667942912	40	5836
2026-01-16 20:27:42.74	22.78	9.62	-33.4	-34.1	24.0	0.00e+00	0	30	0	691011584	40	5805
2026-01-16 20:27:46.78	22.23	9.84	-33.4	-34.2	24.0	0.00e+00	0	30	0	713031680	40	5839
2026-01-16 20:27:50.82	21.67	10.07	-33.4	-34.2	23.9	0.00e+00	0	30	0	736100352	40	5852
2026-01-16 20:27:54.86	21.10	10.28	-33.1	-33.8	24.2	0.00e+00	0	30	0	759169024	40	5630
2026-01-16 20:27:58.90	20.52	10.50	-32.9	-33.6	24.4	0.00e+00	0	30	0	781189120	40	5487
2026-01-16 20:28:02.94	19.93	10.72	-33.1	-33.8	24.4	0.00e+00	0	30	0	804257792	38	6277
2026-01-16 20:28:06.98	19.34	10.94	-32.8	-33.5	24.6	0.00e+00	0	30	0	827326464	38	6067
2026-01-16 20:28:11.02	18.73	11.15	-32.7	-33.4	24.6	0.00e+00	0	31	0	849346560	38	5996
2026-01-16 20:28:15.06	18.12	11.37	-32.8	-33.5	24.7	0.00e+00	0	30	0	872415232	38	6082
2026-01-16 20:28:19.10	17.49	11.58	-32.6	-33.4	24.7	0.00e+00	0	30	0	895483904	38	5968
2026-01-16 20:28:23.14	16.86	11.79	-32.5	-33.1	24.9	0.00e+00	0	30	0	917504000	38	5821
2026-01-16 20:28:27.17	16.22	12.00	-32.6	-33.2	24.9	0.00e+00	0	30	0	940572672	38	5887
2026-01-16 20:28:31.21	15.57	12.21	-32.4	-33.1	25.0	0.00e+00	0	30	0	963641344	38	5827
2026-01-16 20:28:35.25	14.91	12.41	-32.3	-33.0	25.0	0.00e+00	0	31	0	985661440	38	5731
2026-01-16 20:28:39.29	14.24	12.61	-32.1	-32.8	25.3	0.00e+00	0	30	0	1008730112	38	5568
2026-01-16 20:28:43.33	13.56	12.82	-32.0	-32.7	25.4	0.00e+00	0	31	0	1031798784	38	5531
2026-01-16 20:28:47.37	12.87	13.01	-32.3	-33.0	25.1	0.00e+00	0	31	0	1053818880	38	5732
2026-01-16 20:28:51.40	12.17	13.21	-32.0	-32.7	25.4	0.00e+00	0	31	0	1076887552	38	5508
2026-01-16 20:28:55.44	11.47	13.40	-31.9	-32.6	25.4	0.00e+00	0	30	0	1099956224	38	5443
2026-01-16 20:28:59.48	10.75	13.59	-32.4	-33.0	25.0	0.00e+00	0	31	0	1121976320	38	5739
2026-01-16 20:29:03.51	10.02	13.78	-32.0	-32.7	25.3	0.00e+00	0	31	0	1145044992	38	5527
2026-01-16 20:29:07.55	9.29	13.97	-32.2	-32.9	25.2	0.00e+00	0	31	0	1168113664	38	5663
2026-01-16 20:29:11.59	8.54	14.15	-32.2	-32.9	25.2	0.00e+00	0	31	0	1190133760	38	5679
2026-01-16 20:29:15.63	7.79	14.32	-32.1	-32.8	25.3	0.00e+00	0	31	0	1213202432	38	5609
2026-01-16 20:29:19.67	7.02	14.50	-31.8	-32.5	25.6	0.00e+00	0	31	0	1236271104	36	6050
2026-01-16 20:29:23.71	6.25	14.67	-31.6	-32.2	25.9	0.00e+00	0	31	0	1258291200	36	5854
2026-01-16 20:29:27.75	5.47	14.83	-31.6	-32.3	25.8	0.00e+00	0	31	0	1281359872	36	5921
2026-01-16 20:29:31.78	4.68	14.99	-31.4	-32.0	26.1	0.00e+00	0	31	0	1304428544	36	5737
2026-01-16 20:29:35.82	3.88	15.15	-31.0	-31.7	26.3	0.00e+00	0	31	0	1326448640	36	5525
2026-01-16 20:29:39.86	3.08	15.30	-31.1	-31.8	26.3	0.00e+00	0	31	0	1349517312	36	5572
2026-01-16 20:29:43.90	2.26	15.45	-31.0	-31.7	26.4	0.00e+00	0	31	0	1372585984	36	5526
2026-01-16 20:29:47.93	1.44	15.59	-31.3	-31.9	26.2	0.00e+00	0	31	0	1394606080	36	5671
2026-01-16 20:29:51.97	0.61	15.73	-30.9	-31.5	26.5	0.00e+00	0	31	0	1417674752	36	5434
2026-01-16 20:29:56.01	359.77	15.86	-30.9	-31.5	26.4	0.00e+00	0	31	0	1440743424	34	6092
2026-01-16 20:30:00.05	358.92	15.98	-31.2	-31.8	26.4	0.00e+00	0	31	0	1462763520	34	6290
2026-01-16 20:30:04.09	358.07	16.10	-31.3	-31.9	26.2	0.00e+00	0	31	0	1485832192	34	6334
2026-01-16 20:30:08.13	357.21	16.22	-31.1	-31.7	26.3	0.00e+00	0	31	0	1508900864	34	6238
2026-01-16 20:30:12.16	356.34	16.33	-31.1	-31.8	26.3	0.00e+00	0	31	0	1530920960	34	6248
2026-01-16 20:30:16.20	355.47	16.43	-31.2	-31.8	26.3	0.00e+00	0	31	0	1553989632	34	6267
2026-01-16 20:30:20.24	354.59	16.52	-31.2	-31.8	26.3	0.00e+00	0	30	0	1577058304	34	6285
2026-01-16 20:30:24.28	353.71	16.61	-30.9	-31.5	26.5	0.00e+00	0	30	0	1599078400	34	6064
2026-01-16 20:30:28.32	352.82	16.69	-31.0	-31.6	26.4	0.00e+00	0	30	0	1622147072	34	6168
2026-01-16 20:30:32.35	351.93	16.77	-31.0	-31.7	26.5	0.00e+00	0	30	0	1644167168	34	6182
2026-01-16 20:30:36.39	351.03	16.84	-30.9	-31.5	26.6	0.00e+00	0	31	0	1667235840	34	6099
2026-01-16 20:30:40.42	350.13	16.90	-30.6	-31.2	26.9	0.00e+00	0	30	0	1690304512	34	5850
2026-01-16 20:30:44.47	349.22	16.95	-30.7	-31.3	26.7	0.00e+00	0	30	0	1713373184	34	5946
2026-01-16 20:30:48.50	348.32	17.00	-31.0	-31.6	26.5	0.00e+00	0	30	0	1735393280	34	6141
2026-01-16 20:30:52.54	347.40	17.04	-31.0	-31.6	26.5	0.00e+00	0	30	0	1758461952	34	6167
2026-01-16 20:30:56.58	346.49	17.07	-30.8	-31.4	26.6	0.00e+00	0	30	0	1781530624	34	6009
2026-01-16 20:31:00.62	345.58	17.09	-30.8	-31.4	26.7	0.00e+00	0	30	0	1803550720	34	6002
2026-01-16 20:31:04.66	344.66	17.11	-30.4	-31.0	26.9	0.00e+00	0	30	0	1826619392	34	5750
2026-01-16 20:31:08.70	343.74	17.12	-30.5	-31.1	26.8	0.00e+00	0	30	0	1848639488	34	5809
2026-01-16 20:31:12.74	342.82	17.12	-30.8	-31.4	26.6	0.00e+00	0	30	0	1871708160	34	5975
2026-01-16 20:31:16.78	341.91	17.12	-30.9	-31.5	26.5	0.00e+00	0	30	0	1894776832	34	6090
2026-01-16 20:31:20.82	340.99	17.11	-31.2	-31.9	26.2	0.00e+00	0	30	0	1917845504	34	6333
2026-01-16 20:31:24.86	340.07	17.08	-31.1	-31.8	26.2	0.00e+00	0	30	0	1939865600	34	6262
2026-01-16 20:31:28.90	339.16	17.06	-31.0	-31.6	26.3	0.00e+00	0	30	0	1962934272	34	6150
2026-01-16 20:31:32.94	338.24	17.02	-30.8	-31.4	26.5	0.00e+00	0	30	0	1986002944	34	6020
2026-01-16 20:31:36.98	337.33	16.98	-30.9	-31.5	26.5	0.00e+00	0	30	0	2008023040	34	6050
2026-01-16 20:31:41.02	336.43	16.93	-31.1	-31.7	26.3	0.00e+00	0	30	0	2031091712	34	6229
2026-01-16 20:31:45.05	335.52	16.87	-31.0	-31.7	26.4	0.00e+00	0	30	0	2053111808	34	6182
2026-01-16 20:31:49.10	334.62	16.81	-31.1	-31.7	26.4	0.00e+00	0	30	0	2076180480	34	6206
2026-01-16 20:31:53.13	333.73	16.74	-31.0	-31.6	26.4	0.00e+00	0	30	0	2099249152	34	6121
2026-01-16 20:31:57.17	332.83	16.66	-31.0	-31.6	26.5	0.00e+00	0	30	0	2122317824	34	6141
2026-01-16 20:32:01.21	331.95	16.57	-31.2	-31.8	26.3	0.00e+00	0	30	0	2144337920	34	6289
2026-01-16 20:32:05.24	331.07	16.48	-31.1	-31.8	26.4	0.00e+00	0	30	0	2167406592	34	6247
2026-01-16 20:32:09.28	330.19	16.38	-31.4	-32.1	26.1	0.00e+00	0	30	0	2190475264	34	6532
2026-01-16 20:32:13.32	329.32	16.28	-31.9	-32.6	25.6	0.00e+00	0	30	0	2212495360	36	6108
2026-01-16 20:32:17.36	328.45	16.17	-31.3	-32.0	26.2	0.00e+00	0	30	0	2235564032	36	5751
2026-01-16 20:32:21.40	327.60	16.05	-31.2	-31.8	26.3	0.00e+00	0	30	0	2257584128	36	5608
2026-01-16 20:32:25.44	326.74	15.93	-31.2	-31.9	26.2	0.00e+00	0	30	0	2280652800	36	5670
2026-01-16 20:32:29.48	325.90	15.80	-31.5	-32.2	26.1	0.00e+00	0	30	0	2303721472	36	5847
2026-01-16 20:32:33.53	325.06	15.67	-31.5	-32.2	26.0	0.00e+00	0	30	0	2326790144	36	5878
2026-01-16 20:32:37.56	324.24	15.53	-31.1	-31.7	26.3	0.00e+00	0	30	0	2348810240	36	5537
2026-01-16 20:32:41.60	323.42	15.38	-31.4	-32.1	26.1	0.00e+00	0	29	0	2371878912	36	5823
2026-01-16 20:32:45.64	322.60	15.23	-31.6	-32.3	26.0	0.00e+00	0	29	0	2394947584	36	5898
2026-01-16 20:32:49.68	321.80	15.08	-31.7	-32.3	25.9	0.00e+00	0	29	0	2416967680	36	5955
2026-01-16 20:32:53.72	321.00	14.92	-31.7	-32.3	25.9	0.00e+00	0	30	0	2440036352	36	5940
2026-01-16 20:32:57.76	320.21	14.76	-31.9	-32.5	25.7	0.00e+00	0	30	0	2463105024	36	6062
2026-01-16 20:33:01.80	319.44	14.59	-31.8	-32.4	25.8	0.00e+00	0	30	0	2485125120	36	6028
2026-01-16 20:33:05.84	318.67	14.42	-32.0	-32.5	25.6	0.00e+00	0	29	0	2508193792	36	6103
2026-01-16 20:33:09.88	317.91	14.24	-31.7	-32.4	25.8	0.00e+00	0	29	0	2531262464	36	6013
2026-01-16 20:33:13.92	317.16	14.06	-31.8	-32.4	25.8	0.00e+00	0	29	0	2553282560	36	6016
2026-01-16 20:33:17.96	316.41	13.88	-31.9	-32.5	25.6	0.00e+00	0	29	0	2576351232	36	6103
2026-01-16 20:33:22.00	315.68	13.69	-31.9	-32.5	25.7	0.00e+00	0	29	0	2599419904	36	6095
2026-01-16 20:33:26.04	314.96	13.50	-32.2	-32.9	25.3	0.00e+00	0	29	0	2621440000	36	6376
2026-01-16 20:33:30.08	314.24	13.31	-32.1	-32.8	25.5	0.00e+00	0	29	0	2644508672	36	6251
2026-01-16 20:33:34.12	313.54	13.12	-32.2	-32.8	25.3	0.00e+00	0	29	0	2667577344	36	6314
2026-01-16 20:33:38.15	312.84	12.92	-32.4	-33.0	25.2	0.00e+00	0	29	0	2689597440	36	6401
2026-01-16 20:33:42.19	312.16	12.72	-32.7	-33.4	24.8	0.00e+00	0	29	0	2712666112	38	6017
2026-01-16 20:33:46.23	311.48	12.52	-32.2	-33.0	25.2	0.00e+00	0	29	0	2735734784	38	5709
2026-01-16 20:33:50.27	310.82	12.31	-32.3	-32.9	25.2	0.00e+00	0	29	0	2757754880	38	5689
2026-01-16 20:33:54.31	310.16	12.11	-32.1	-32.6	25.4	0.00e+00	0	29	0	2780823552	38	5496
2026-01-16 20:33:58.35	309.51	11.90	-32.6	-33.2	24.8	0.00e+00	0	29	0	2803892224	38	5891
2026-01-16 20:34:02.39	308.87	11.69	-32.4	-33.2	25.0	0.00e+00	0	29	0	2825912320	38	5833
2026-01-16 20:34:06.43	308.24	11.47	-32.8	-33.5	24.4	0.00e+00	0	29	0	2848980992	38	6050
2026-01-16 20:34:10.46	307.62	11.26	-32.8	-33.6	24.5	0.00e+00	0	29	0	2872049664	38	6124
2026-01-16 20:34:14.50	307.01	11.05	-33.1	-33.8	24.4	0.00e+00	0	29	0	2894069760	38	6309
2026-01-16 20:34:18.54	306.41	10.83	-33.1	-33.7	24.3	0.00e+00	0	29	0	2917138432	38	6238
2026-01-16 20:34:22.58	305.81	10.61	-33.1	-33.7	24.4	0.00e+00	0	29	0	2940207104	38	6218
2026-01-16 20:34:26.62	305.23	10.40	-33.2	-33.9	24.3	0.00e+00	0	29	0	2962227200	38	6372
2026-01-16 20:34:30.65	304.66	10.18	-33.1	-33.9	24.5	0.00e+00	0	29	0	2985295872	38	6333
2026-01-16 20:34:34.69	304.09	9.96	-33.1	-33.8	24.4	0.00e+00	0	29	0	3008364544	38	6295
2026-01-16 20:34:38.73	303.53	9.74	-33.3	-34.1	24.1	0.00e+00	0	29	0	3030384640	38	6518
2026-01-16 20:34:42.77	302.98	9.51	-33.4	-34.2	24.1	0.00e+00	0	29	0	3053453312	38	6602
2026-01-16 20:34:46.80	302.44	9.29	-33.5	-34.2	24.0	0.00e+00	0	29	0	3075473408	38	6548
2026-01-16 20:34:50.84	301.91	9.07	-33.4	-34.2	24.0	0.00e+00	0	29	0	3098542080	38	6591
2026-01-16 20:34:54.88	301.38	8.85	-33.5	-34.2	23.9	0.00e+00	0	29	0	3121610752	38	6557
2026-01-16 20:34:58.92	300.87	8.63	-33.5	-34.1	23.9	0.00e+00	0	29	0	3144679424	38	6535
2026-01-16 20:35:02.92	300.36	8.40	-33.6	-34.2	23.8	0.00e+00	0	29	0	3166699520	38	6615
2026-01-16 20:35:06.96	299.86	8.18	-33.7	-34.3	23.6	0.00e+00	0	29	0	3189768192	40	5959
2026-01-16 20:35:10.99	299.37	7.96	-33.9	-34.7	23.4	0.00e+00	0	29	0	3211788288	40	6212
2026-01-16 20:35:15.03	298.89	7.74	-34.1	-34.8	23.2	0.00e+00	0	29	0	3234856960	40	6298
2026-01-16 20:35:19.07	298.41	7.51	-34.3	-35.0	23.1	0.00e+00	0	29	0	3257925632	40	6405
2026-01-16 20:35:23.11	297.94	7.29	-34.3	-35.0	23.1	0.00e+00	0	29	0	3279945728	40	6462
2026-01-16 20:35:27.14	297.48	7.07	-34.5	-35.2	22.8	0.00e+00	0	29	0	3303014400	40	6570
2026-01-16 20:35:31.18	297.02	6.84	-34.3	-35.1	23.0	0.00e+00	0	29	0	3326083072	40	6512
2026-01-16 20:35:35.22	296.57	6.62	-34.3	-35.1	23.0	0.00e+00	0	29	0	3348103168	40	6487
2026-01-16 20:35:39.26	296.13	6.40	-34.2	-35.0	23.0	0.00e+00	0	29	0	3371171840	40	6452
2026-01-16 20:35:43.29	295.70	6.18	-34.4	-35.1	22.9	0.00e+00	0	29	0	3394240512	40	6506
2026-01-16 20:35:47.33	295.27	5.95	-34.7	-35.5	22.5	0.00e+00	0	29	0	3416260608	42	6046
2026-01-16 20:35:51.37	294.85	5.73	-34.8	-35.6	22.4	0.00e+00	0	29	0	3439329280	42	6110
2026-01-16 20:35:55.41	294.43	5.51	-35.0	-35.8	22.1	0.00e+00	0	29	0	3462397952	42	6259
2026-01-16 20:35:59.45	294.03	5.29	-34.9	-35.7	22.2	0.00e+00	0	29	0	3484418048	42	6176
2026-01-16 20:36:03.49	293.62	5.07	-35.1	-36.0	21.9	0.00e+00	0	29	0	3507486720	42	6399
2026-01-16 20:36:07.50	293.23	4.85	-35.1	-36.0	21.9	0.00e+00	0	29	0	3530555392	42	6413
2026-01-16 20:36:11.54	292.84	4.63	-35.3	-36.2	21.7	0.00e+00	0	29	0	3552575488	42	6540
2026-01-16 20:36:15.58	292.46	4.42	-35.3	-36.0	21.7	0.00e+00	0	29	0	3575644160	42	6461
2026-01-16 20:36:19.62	292.08	4.20	-34.9	-35.6	21.9	0.00e+00	0	29	0	3598712832	44	5481
2026-01-16 20:36:23.66	291.71	3.98	-35.3	-36.1	21.6	0.00e+00	0	28	0	3620732928	44	5779
2026-01-16 20:36:27.70	291.34	3.77	-35.8	-36.6	21.0	0.00e+00	0	29	0	3643801600	44	6158
2026-01-16 20:36:31.74	290.98	3.55	-36.2	-37.1	20.5	0.00e+00	0	29	0	3666870272	44	6494
2026-01-16 20:36:35.77	290.62	3.33	-36.3	-37.2	20.6	0.00e+00	0	29	0	3688890368	46	5888
2026-01-16 20:36:39.81	290.27	3.12	-35.6	-36.4	20.9	0.00e+00	0	29	0	3711959040	44	6008
2026-01-16 20:36:43.85	289.93	2.91	-47.6	-59.7	3.6	8.46e-01	0	29	104	3726639104	60	34723
2026-01-16 20:36:47.90	289.59	2.69	-48.1	-60.3	3.5	8.45e-01	0	29	104	3726639104	60	37316
2026-01-16 20:36:51.93	289.25	2.48	-48.1	-60.3	3.6	8.46e-01	0	29	104	3726639104	60	37531
2026-01-16 20:36:55.97	288.92	2.27	-47.7	-60.1	3.6	8.44e-01	0	29	104	3726639104	60	36518
2026-01-16 20:37:00.01	288.60	2.06	-48.0	-60.1	3.6	8.45e-01	0	29	104	3726639104	60	36382
2026-01-16 20:37:04.05	288.28	1.85	-48.0	-60.1	3.6	8.47e-01	0	29	104	3726639104	60	36586
2026-01-16 20:37:08.09	287.96	1.64	-47.9	-60.1	3.6	8.45e-01	0	29	104	3726639104	60	36517
2026-01-16 20:37:12.13	287.65	1.43	-47.9	-60.1	3.6	8.46e-01	0	29	104	3726639104	60	36448
2026-01-16 20:37:16.18	287.35	1.22	-47.9	-60.1	3.6	8.46e-01	0	29	104	3726639104	60	36365
2026-01-16 20:37:20.22	287.04	1.01	-48.0	-60.1	3.6	8.44e-01	0	29	104	3726639104	60	36761
2026-01-16 20:37:24.26	286.75	0.80	-47.9	-60.1	3.6	8.46e-01	0	29	104	3726639104	60	36383
2026-01-16 20:37:28.30	286.45	0.60	-48.0	-60.1	3.6	8.46e-01	0	29	104	3726639104	60	36578
2026-01-16 20:37:32.34	286.16	0.39	-47.9	-60.0	3.6	8.44e-01	0	29	104	3726639104	60	36129
2026-01-16 20:37:36.38	285.88	0.19	-47.9	-60.0	3.6	8.44e-01	0	28	104	3726639104	60	36276
2026-01-16 20:37:40.42	285.60	-0.02	-47.9	-60.1	3.6	8.46e-01	0	29	104	3726639104	60	36482

#Closed at: 2026-01-16 20:37:42
#Recorded file [3726 MB]: D:/lorett/data/35029_260117_082445.dat