passes_logs/2026/01/16/R4.6S_Anadyr/R4.6S_Anadyr__20260116_162643_NOAA_20_JPSS-1_rec.log

#Pass ID: 20260116_162643_NOAA 20 (JPSS-1)
#Satellite: NOAA 20 (JPSS-1)
#Configuration: NOAA 20
#almurnet v.1.7.20251203
#Start time: 2026-01-16 16:26:44

#Version: 2.2.20231116
#Station: R4.6S_Anadyr
#Location: 177.4865 lon 64.73178 lat
#TLE: 1 43013U 17073A   26015.89389188  .00000026  00000+0  33113-4 0  9999
#TLE: 2 43013  98.7636 316.8238 0001460  37.8997 322.2282 14.19536128422860

#Time	Az	El	Level	Level2	SNR	BER	BlckErr	Temp	State	Recorded	gain1	gain2
2026-01-16 16:26:44.48	26.13	0.05	-34.3	-35.5	29.2	7.15e-01	0	27	0	0	44	5757
2026-01-16 16:26:48.51	25.97	0.28	-48.0	-63.3	3.6	1.51e+00	0	28	104	0	60	52693
2026-01-16 16:26:52.54	25.81	0.51	-48.0	-63.2	3.6	1.51e+00	0	29	104	0	60	52439
2026-01-16 16:26:56.57	25.64	0.74	-47.6	-62.8	3.6	1.51e+00	0	29	104	0	60	49775
2026-01-16 16:27:00.61	25.47	0.98	-46.6	-61.6	3.6	1.51e+00	0	29	104	0	60	43678
2026-01-16 16:27:04.64	25.30	1.21	-46.4	-61.6	3.6	1.51e+00	0	29	104	0	60	43377
2026-01-16 16:27:08.68	25.12	1.45	-46.4	-61.5	3.6	1.51e+00	0	29	104	0	60	42982
2026-01-16 16:27:12.71	24.94	1.69	-46.4	-61.6	3.6	1.51e+00	0	29	104	0	60	43499
2026-01-16 16:27:16.75	24.76	1.93	-46.4	-61.4	3.6	1.51e+00	0	29	104	0	60	42273
2026-01-16 16:27:20.78	24.58	2.17	-46.4	-61.5	3.6	1.51e+00	0	29	104	0	60	42991
2026-01-16 16:27:24.82	24.39	2.42	-46.4	-61.4	3.6	1.51e+00	0	29	104	0	60	42378
2026-01-16 16:27:28.85	24.20	2.67	-46.4	-61.1	3.6	1.51e+00	0	29	104	0	60	41019
2026-01-16 16:27:32.89	24.00	2.91	-46.4	-61.5	3.6	1.51e+00	0	29	104	0	60	42834
2026-01-16 16:27:36.93	23.80	3.17	-45.4	-51.7	8.1	9.29e-02	0	29	0	3145728	60	13873
2026-01-16 16:27:40.96	23.60	3.42	-43.7	-47.3	13.1	2.44e-05	0	29	0	10485760	60	8368
2026-01-16 16:27:45.00	23.40	3.67	-46.3	-61.3	3.6	9.39e-01	0	29	104	13631488	60	42014
2026-01-16 16:27:49.03	23.19	3.93	-41.8	-44.0	16.8	0.00e+00	0	29	0	17825792	56	7208
2026-01-16 16:27:53.06	22.97	4.19	-40.5	-42.2	18.6	0.00e+00	0	29	0	25165824	54	6559
2026-01-16 16:27:57.09	22.75	4.45	-40.9	-42.7	18.0	0.00e+00	0	29	0	32505856	54	6964
2026-01-16 16:28:01.13	22.53	4.71	-40.8	-42.5	18.4	0.00e+00	0	29	0	39845888	54	6790
2026-01-16 16:28:05.16	22.30	4.97	-40.1	-41.6	19.2	0.00e+00	0	29	0	48234496	54	6162
2026-01-16 16:28:09.19	22.07	5.24	-40.0	-41.5	19.4	0.00e+00	0	29	0	55574528	54	6100
2026-01-16 16:28:13.23	21.84	5.51	-39.7	-41.1	19.9	0.00e+00	0	29	0	62914560	54	5824
2026-01-16 16:28:17.26	21.60	5.78	-39.8	-41.2	19.8	0.00e+00	0	29	0	70254592	52	6571
2026-01-16 16:28:21.29	21.35	6.05	-39.7	-41.1	20.0	0.00e+00	0	29	0	77594624	52	6478
2026-01-16 16:28:25.32	21.10	6.33	-39.6	-40.9	20.1	0.00e+00	0	29	0	85983232	52	6357
2026-01-16 16:28:29.36	20.85	6.61	-39.7	-41.0	20.0	0.00e+00	0	29	0	93323264	52	6459
2026-01-16 16:28:33.39	20.58	6.89	-39.4	-40.7	20.4	0.00e+00	0	29	0	100663296	52	6218
2026-01-16 16:28:37.43	20.32	7.17	-39.3	-40.6	20.6	0.00e+00	0	29	0	108003328	52	6146
2026-01-16 16:28:41.47	20.05	7.46	-39.2	-40.5	20.7	0.00e+00	0	29	0	115343360	52	6063
2026-01-16 16:28:45.51	19.77	7.75	-39.2	-40.4	20.7	0.00e+00	0	29	0	123731968	52	6029
2026-01-16 16:28:49.54	19.49	8.04	-39.1	-40.4	20.7	0.00e+00	0	29	0	131072000	52	5985
2026-01-16 16:28:53.58	19.20	8.33	-39.0	-40.2	21.0	0.00e+00	0	29	0	138412032	52	5837
2026-01-16 16:28:57.62	18.90	8.63	-39.2	-40.4	20.8	0.00e+00	0	29	0	145752064	52	5981
2026-01-16 16:29:01.66	18.60	8.93	-38.9	-40.1	21.2	0.00e+00	0	29	0	154140672	52	5793
2026-01-16 16:29:05.70	18.29	9.23	-39.1	-40.3	21.0	0.00e+00	0	29	0	161480704	52	5936
2026-01-16 16:29:09.73	17.97	9.53	-39.1	-40.3	21.1	0.00e+00	0	29	0	168820736	52	5920
2026-01-16 16:29:13.77	17.65	9.84	-39.0	-40.2	21.1	0.00e+00	0	29	0	176160768	52	5860
2026-01-16 16:29:17.81	17.32	10.15	-39.1	-40.3	21.1	0.00e+00	0	29	0	183500800	52	5909
2026-01-16 16:29:21.85	16.98	10.47	-39.0	-40.2	21.1	0.00e+00	0	29	0	191889408	52	5830
2026-01-16 16:29:25.89	16.64	10.78	-38.7	-39.8	21.3	0.00e+00	0	29	0	199229440	50	6284
2026-01-16 16:29:29.93	16.28	11.10	-38.6	-39.7	21.6	0.00e+00	0	29	0	206569472	50	6188
2026-01-16 16:29:33.96	15.92	11.42	-38.6	-39.7	21.6	0.00e+00	0	29	0	213909504	50	6179
2026-01-16 16:29:38.00	15.55	11.75	-38.4	-39.5	21.9	0.00e+00	0	29	0	222298112	50	6036
2026-01-16 16:29:42.04	15.18	12.08	-38.1	-39.2	22.2	0.00e+00	0	29	0	229638144	50	5838
2026-01-16 16:29:46.08	14.79	12.41	-38.0	-39.0	22.3	0.00e+00	0	29	0	236978176	50	5752
2026-01-16 16:29:50.11	14.39	12.75	-38.0	-39.1	22.2	0.00e+00	0	29	0	244318208	50	5777
2026-01-16 16:29:54.15	13.99	13.09	-38.1	-39.2	22.2	0.00e+00	0	29	0	251658240	50	5852
2026-01-16 16:29:58.19	13.57	13.43	-38.0	-39.1	22.3	0.00e+00	0	29	0	260046848	50	5777
2026-01-16 16:30:02.23	13.15	13.77	-38.1	-39.1	22.1	0.00e+00	0	29	0	267386880	50	5791
2026-01-16 16:30:06.26	12.71	14.12	-37.8	-38.8	22.5	0.00e+00	0	29	0	274726912	50	5624
2026-01-16 16:30:10.31	12.26	14.47	-37.7	-38.7	22.8	0.00e+00	0	28	0	282066944	48	6176
2026-01-16 16:30:14.34	11.80	14.83	-37.7	-38.6	22.6	0.00e+00	0	29	0	290455552	48	6163
2026-01-16 16:30:18.38	11.34	15.19	-37.8	-38.8	22.6	0.00e+00	0	28	0	297795584	48	6283
2026-01-16 16:30:22.42	10.85	15.55	-37.9	-38.9	22.5	0.00e+00	0	29	0	305135616	48	6330
2026-01-16 16:30:26.46	10.36	15.91	-38.1	-39.1	22.4	0.00e+00	0	29	0	312475648	48	6481
2026-01-16 16:30:30.50	9.85	16.28	-38.1	-39.1	22.3	0.00e+00	0	28	0	319815680	48	6491
2026-01-16 16:30:34.54	9.33	16.65	-37.9	-38.9	22.5	0.00e+00	0	28	0	328204288	48	6389
2026-01-16 16:30:38.58	8.80	17.03	-38.1	-39.1	22.4	0.00e+00	0	28	0	335544320	48	6498
2026-01-16 16:30:42.62	8.26	17.41	-38.0	-39.0	22.5	0.00e+00	0	28	0	342884352	48	6461
2026-01-16 16:30:46.66	7.70	17.79	-38.3	-39.4	22.1	0.00e+00	0	28	0	350224384	48	6709
2026-01-16 16:30:50.70	7.12	18.17	-38.2	-39.3	22.3	0.00e+00	0	28	0	358612992	48	6637
2026-01-16 16:30:54.73	6.53	18.56	-38.1	-39.1	22.5	0.00e+00	0	28	0	365953024	48	6483
2026-01-16 16:30:58.77	5.92	18.95	-38.1	-39.1	22.5	0.00e+00	0	28	0	373293056	48	6484
2026-01-16 16:31:02.80	5.30	19.34	-37.9	-38.9	22.7	0.00e+00	0	28	0	380633088	48	6379
2026-01-16 16:31:06.84	4.67	19.73	-37.9	-38.9	22.6	0.00e+00	0	28	0	387973120	48	6352
2026-01-16 16:31:10.88	4.01	20.13	-37.7	-38.7	22.9	0.00e+00	0	28	0	396361728	48	6185
2026-01-16 16:31:14.92	3.34	20.53	-37.7	-38.7	22.0	0.00e+00	0	28	0	403701760	48	6203
2026-01-16 16:31:18.95	2.65	20.93	-37.5	-38.4	23.1	0.00e+00	0	28	0	411041792	48	5995
2026-01-16 16:31:22.99	1.94	21.33	-37.3	-38.2	23.3	0.00e+00	0	28	0	418381824	48	5875
2026-01-16 16:31:27.03	1.21	21.74	-37.4	-38.4	23.2	0.00e+00	0	28	0	425721856	48	5974
2026-01-16 16:31:31.06	0.46	22.14	-37.7	-38.7	23.0	0.00e+00	0	28	0	434110464	48	6188
2026-01-16 16:31:35.11	359.69	22.55	-37.8	-38.8	22.8	0.00e+00	0	28	0	441450496	48	6254
2026-01-16 16:31:39.15	358.90	22.96	-38.2	-39.2	22.4	0.00e+00	0	28	0	448790528	48	6602
2026-01-16 16:31:43.19	358.09	23.37	-38.1	-39.1	22.5	0.00e+00	0	28	0	456130560	48	6526
2026-01-16 16:31:47.23	357.26	23.78	-38.3	-39.3	22.4	0.00e+00	0	28	0	464519168	48	6678
2026-01-16 16:31:51.27	356.40	24.19	-38.1	-39.1	22.6	0.00e+00	0	28	0	471859200	48	6486
2026-01-16 16:31:55.30	355.52	24.59	-38.0	-39.0	22.8	0.00e+00	0	28	0	479199232	48	6424
2026-01-16 16:31:59.34	354.62	25.00	-37.8	-38.9	22.8	0.00e+00	0	28	0	486539264	48	6324
2026-01-16 16:32:03.37	353.70	25.40	-37.6	-38.6	23.1	0.00e+00	0	28	0	493879296	48	6141
2026-01-16 16:32:07.42	352.75	25.81	-37.4	-38.3	23.3	0.00e+00	0	28	0	502267904	48	5925
2026-01-16 16:32:11.45	351.78	26.21	-37.6	-38.5	23.1	0.00e+00	0	28	0	509607936	48	6099
2026-01-16 16:32:15.49	350.78	26.60	-37.2	-38.1	23.5	0.00e+00	0	28	0	516947968	48	5816
2026-01-16 16:32:19.53	349.75	26.99	-37.6	-38.6	23.1	0.00e+00	0	28	0	524288000	48	6128
2026-01-16 16:32:23.57	348.70	27.38	-37.4	-38.3	23.3	0.00e+00	0	28	0	532676608	48	5933
2026-01-16 16:32:27.61	347.63	27.76	-38.1	-39.1	22.6	0.00e+00	0	28	0	540016640	48	6496
2026-01-16 16:32:31.65	346.53	28.14	-38.8	-39.9	22.0	0.00e+00	0	28	0	547356672	48	7107
2026-01-16 16:32:35.69	345.40	28.50	-39.1	-40.2	21.6	0.00e+00	0	28	0	554696704	50	6564
2026-01-16 16:32:39.73	344.24	28.86	-39.8	-41.0	21.0	0.00e+00	0	28	0	562036736	52	6434
2026-01-16 16:32:43.77	343.06	29.21	-39.9	-41.2	20.8	0.00e+00	0	28	0	570425344	52	6543
2026-01-16 16:32:47.80	341.86	29.55	-40.2	-41.5	20.5	0.00e+00	0	28	0	577765376	52	6806
2026-01-16 16:32:51.85	340.62	29.89	-40.4	-41.8	20.2	0.00e+00	0	28	0	585105408	52	7027
2026-01-16 16:32:55.88	339.37	30.20	-39.8	-41.0	21.0	0.00e+00	0	28	0	592445440	52	6400
2026-01-16 16:32:59.93	338.08	30.51	-39.3	-40.5	21.5	0.00e+00	0	28	0	600834048	52	6065
2026-01-16 16:33:03.96	336.78	30.80	-39.4	-40.6	21.3	0.00e+00	0	28	0	608174080	52	6131
2026-01-16 16:33:08.00	335.45	31.08	-39.3	-40.5	21.4	0.00e+00	0	28	0	615514112	52	6066
2026-01-16 16:33:12.04	334.10	31.35	-39.1	-40.2	21.7	0.00e+00	0	28	0	622854144	52	5843
2026-01-16 16:33:16.07	332.73	31.59	-39.2	-40.4	21.5	0.00e+00	0	28	0	630194176	52	5969
2026-01-16 16:33:20.11	331.33	31.83	-39.4	-40.5	21.2	0.00e+00	0	28	0	638582784	52	6090
2026-01-16 16:33:24.15	329.92	32.04	-39.1	-40.2	21.6	0.00e+00	0	28	0	645922816	52	5889
2026-01-16 16:33:28.19	328.48	32.23	-38.9	-40.0	21.8	0.00e+00	0	28	0	653262848	52	5738
2026-01-16 16:33:32.22	327.04	32.41	-38.7	-39.8	22.1	0.00e+00	0	28	0	660602880	50	6287
2026-01-16 16:33:36.26	325.57	32.56	-38.4	-39.4	22.2	0.00e+00	0	28	0	668991488	50	6031
2026-01-16 16:33:40.30	324.10	32.70	-37.6	-38.5	23.2	0.00e+00	0	28	0	676331520	48	6076
2026-01-16 16:33:44.33	322.61	32.81	-37.9	-38.8	22.9	0.00e+00	0	28	0	683671552	48	6309
2026-01-16 16:33:48.37	321.11	32.90	-38.3	-39.3	22.4	0.00e+00	0	28	0	691011584	48	6691
2026-01-16 16:33:52.41	319.61	32.97	-38.6	-39.6	22.2	0.00e+00	0	28	0	698351616	48	6897
2026-01-16 16:33:56.44	318.10	33.02	-39.3	-40.4	21.6	0.00e+00	0	28	0	706740224	50	6753
2026-01-16 16:34:00.48	316.59	33.04	-39.0	-40.1	21.8	0.00e+00	0	28	0	714080256	50	6486
2026-01-16 16:34:04.52	315.07	33.04	-39.4	-40.5	21.4	0.00e+00	0	28	0	721420288	50	6799
2026-01-16 16:34:08.56	313.55	33.02	-38.8	-39.9	22.0	0.00e+00	0	28	0	728760320	50	6350
2026-01-16 16:34:12.60	312.04	32.98	-38.8	-39.9	21.9	0.00e+00	0	28	0	737148928	50	6354
2026-01-16 16:34:16.64	310.53	32.91	-39.2	-40.3	21.6	0.00e+00	0	27	0	744488960	50	6645
2026-01-16 16:34:20.67	309.04	32.82	-39.4	-40.6	21.5	0.00e+00	0	28	0	751828992	50	6854
2026-01-16 16:34:24.71	307.55	32.71	-39.6	-40.7	21.3	0.00e+00	0	28	0	759169024	50	6976
2026-01-16 16:34:28.75	306.07	32.58	-39.0	-40.0	21.9	0.00e+00	0	28	0	766509056	50	6454
2026-01-16 16:34:32.79	304.60	32.42	-38.9	-39.9	22.0	0.00e+00	0	28	0	774897664	50	6371
2026-01-16 16:34:36.83	303.15	32.25	-39.6	-40.8	21.2	0.00e+00	0	28	0	782237696	50	7065
2026-01-16 16:34:40.87	301.71	32.06	-39.5	-40.6	21.4	0.00e+00	0	28	0	789577728	52	6132
2026-01-16 16:34:44.90	300.30	31.85	-39.3	-40.4	21.6	0.00e+00	0	28	0	796917760	52	5998
2026-01-16 16:34:48.94	298.90	31.62	-40.0	-41.2	20.8	0.00e+00	0	28	0	805306368	52	6576
2026-01-16 16:34:52.98	297.52	31.37	-39.2	-40.3	21.7	0.00e+00	0	27	0	812646400	52	5916
2026-01-16 16:34:57.02	296.16	31.11	-39.9	-41.1	20.9	0.00e+00	0	28	0	819986432	52	6493
2026-01-16 16:35:01.03	294.84	30.83	-39.8	-41.0	20.9	0.00e+00	0	28	0	827326464	52	6451
2026-01-16 16:35:05.07	293.53	30.54	-39.7	-40.9	21.0	0.00e+00	0	28	0	834666496	52	6348
2026-01-16 16:35:09.12	292.24	30.23	-39.6	-40.8	21.2	0.00e+00	0	27	0	843055104	52	6279
2026-01-16 16:35:13.15	290.98	29.92	-39.5	-40.6	21.3	0.00e+00	0	27	0	850395136	52	6168
2026-01-16 16:35:17.20	289.74	29.59	-39.1	-40.2	21.7	0.00e+00	0	27	0	857735168	52	5846
2026-01-16 16:35:21.24	288.52	29.25	-39.2	-40.3	21.7	0.00e+00	0	27	0	865075200	52	5904
2026-01-16 16:35:25.28	287.34	28.89	-38.9	-40.0	22.0	0.00e+00	0	27	0	873463808	52	5752
2026-01-16 16:35:29.32	286.18	28.53	-39.3	-40.4	21.4	0.00e+00	0	27	0	880803840	52	6028
2026-01-16 16:35:33.35	285.05	28.17	-38.7	-39.8	22.1	0.00e+00	0	27	0	888143872	52	5592
2026-01-16 16:35:37.39	283.94	27.79	-38.3	-39.3	22.5	0.00e+00	0	27	0	895483904	50	5945
2026-01-16 16:35:41.42	282.86	27.41	-38.6	-39.6	22.1	0.00e+00	0	27	0	902823936	50	6162
2026-01-16 16:35:45.46	281.81	27.03	-38.1	-39.1	22.6	0.00e+00	0	27	0	911212544	50	5779
2026-01-16 16:35:49.50	280.78	26.63	-37.8	-38.7	22.9	0.00e+00	0	27	0	918552576	50	5555
2026-01-16 16:35:53.54	279.77	26.24	-37.2	-38.1	23.4	0.00e+00	0	27	0	925892608	48	5816
2026-01-16 16:35:57.58	278.79	25.84	-36.8	-37.7	23.9	0.00e+00	0	27	0	933232640	46	6218
2026-01-16 16:36:01.62	277.84	25.43	-36.1	-36.9	24.6	0.00e+00	0	27	0	941621248	46	5665
2026-01-16 16:36:05.64	276.91	25.03	-35.8	-36.6	24.8	0.00e+00	0	27	0	948961280	46	5463
2026-01-16 16:36:09.68	276.00	24.62	-35.9	-36.7	24.8	0.00e+00	0	27	0	956301312	44	6189
2026-01-16 16:36:13.72	275.12	24.21	-35.5	-36.3	24.9	0.00e+00	0	27	0	963641344	44	5945
2026-01-16 16:36:17.76	274.26	23.80	-35.2	-35.9	25.3	0.00e+00	0	27	0	970981376	44	5679
2026-01-16 16:36:21.80	273.42	23.39	-35.0	-35.8	25.5	0.00e+00	0	27	0	979369984	44	5580
2026-01-16 16:36:25.83	272.61	22.99	-35.1	-35.8	25.4	0.00e+00	0	27	0	986710016	44	5628
2026-01-16 16:36:29.87	271.81	22.58	-35.3	-36.1	25.2	0.00e+00	0	27	0	994050048	44	5772
2026-01-16 16:36:33.90	271.04	22.17	-35.7	-36.6	24.7	0.00e+00	0	27	0	1001390080	44	6107
2026-01-16 16:36:37.94	270.29	21.76	-35.7	-36.5	24.7	0.00e+00	0	27	0	1009778688	44	6101
2026-01-16 16:36:41.98	269.55	21.35	-35.8	-36.6	24.6	0.00e+00	0	27	0	1017118720	44	6171
2026-01-16 16:36:46.02	268.84	20.95	-36.2	-37.0	24.4	0.00e+00	0	27	0	1024458752	44	6438
2026-01-16 16:36:50.05	268.14	20.55	-36.3	-37.2	24.2	0.00e+00	0	27	0	1031798784	44	6564
2026-01-16 16:36:54.09	267.47	20.15	-36.5	-37.3	24.1	0.00e+00	0	27	0	1039138816	44	6668
2026-01-16 16:36:58.13	266.80	19.75	-36.6	-37.5	24.0	0.00e+00	0	27	0	1047527424	46	6071
2026-01-16 16:37:02.16	266.16	19.35	-36.7	-37.6	23.9	0.00e+00	0	27	0	1054867456	46	6108
2026-01-16 16:37:06.20	265.54	18.96	-36.8	-37.7	23.7	0.00e+00	0	27	0	1062207488	46	6226
2026-01-16 16:37:10.24	264.93	18.57	-37.1	-38.0	23.4	0.00e+00	0	27	0	1069547520	46	6408
2026-01-16 16:37:14.27	264.33	18.18	-37.3	-38.2	23.4	0.00e+00	0	27	0	1077936128	46	6547
2026-01-16 16:37:18.31	263.75	17.79	-37.5	-38.4	23.2	0.00e+00	0	27	0	1085276160	46	6749
2026-01-16 16:37:22.35	263.19	17.41	-37.7	-38.7	22.9	0.00e+00	0	27	0	1092616192	48	6176
2026-01-16 16:37:26.39	262.64	17.03	-38.0	-39.0	22.6	0.00e+00	0	27	0	1099956224	48	6419
2026-01-16 16:37:30.43	262.10	16.66	-37.9	-38.9	22.6	0.00e+00	0	27	0	1107296256	48	6358
2026-01-16 16:37:34.47	261.58	16.28	-38.0	-39.0	22.5	0.00e+00	0	27	0	1115684864	48	6402
2026-01-16 16:37:38.51	261.07	15.91	-37.9	-38.9	22.6	0.00e+00	0	27	0	1123024896	48	6341
2026-01-16 16:37:42.54	260.57	15.55	-38.1	-39.1	22.3	0.00e+00	0	27	0	1130364928	48	6520
2026-01-16 16:37:46.58	260.09	15.19	-38.4	-39.4	22.2	0.00e+00	0	27	0	1137704960	48	6740
2026-01-16 16:37:50.63	259.61	14.82	-38.2	-39.2	22.3	0.00e+00	0	27	0	1146093568	48	6610
2026-01-16 16:37:54.67	259.15	14.47	-38.0	-39.0	22.5	0.00e+00	0	27	0	1153433600	48	6392
2026-01-16 16:37:58.71	258.70	14.11	-38.0	-39.0	22.4	0.00e+00	0	27	0	1160773632	48	6413
2026-01-16 16:38:02.75	258.26	13.76	-38.3	-39.4	22.1	0.00e+00	0	27	0	1168113664	48	6699
2026-01-16 16:38:06.79	257.83	13.42	-38.4	-39.4	22.1	0.00e+00	0	27	0	1175453696	48	6751
2026-01-16 16:38:10.83	257.41	13.08	-38.5	-39.5	21.8	0.00e+00	0	28	0	1183842304	48	6847
2026-01-16 16:38:14.87	257.00	12.74	-38.7	-39.8	21.7	0.00e+00	0	27	0	1191182336	48	7049
2026-01-16 16:38:18.90	256.60	12.40	-38.7	-39.8	21.6	0.00e+00	0	28	0	1198522368	50	6293
2026-01-16 16:38:22.95	256.21	12.06	-38.9	-40.0	21.4	0.00e+00	0	28	0	1205862400	50	6445
2026-01-16 16:38:26.98	255.83	11.74	-38.9	-40.1	21.4	0.00e+00	0	28	0	1214251008	50	6465
2026-01-16 16:38:31.02	255.46	11.41	-38.8	-40.0	21.4	0.00e+00	0	28	0	1221591040	50	6403
2026-01-16 16:38:35.06	255.09	11.08	-38.8	-39.9	21.5	0.00e+00	0	28	0	1228931072	50	6383
2026-01-16 16:38:39.10	254.73	10.76	-38.9	-40.0	21.3	0.00e+00	0	28	0	1236271104	50	6444
2026-01-16 16:38:43.14	254.39	10.45	-39.0	-40.2	21.2	0.00e+00	0	28	0	1243611136	50	6557
2026-01-16 16:38:47.18	254.04	10.13	-39.3	-40.5	20.9	0.00e+00	0	28	0	1251999744	50	6800
2026-01-16 16:38:51.22	253.71	9.82	-39.6	-40.8	20.5	0.00e+00	0	28	0	1259339776	50	7071
2026-01-16 16:38:55.26	253.38	9.51	-39.7	-41.1	19.7	0.00e+00	0	28	0	1266679808	50	7259
2026-01-16 16:38:59.30	253.07	9.20	-40.0	-41.4	20.0	0.00e+00	0	28	0	1274019840	52	6706
2026-01-16 16:39:03.34	252.75	8.90	-40.2	-41.7	19.7	0.00e+00	0	28	0	1282408448	52	6939
2026-01-16 16:39:07.38	252.45	8.60	-40.0	-41.3	20.1	0.00e+00	0	28	0	1289748480	52	6649
2026-01-16 16:39:11.41	252.15	8.30	-39.9	-41.3	20.0	0.00e+00	0	28	0	1297088512	52	6628
2026-01-16 16:39:15.45	251.86	8.01	-40.0	-41.4	19.9	0.00e+00	0	28	0	1304428544	52	6715
2026-01-16 16:39:19.49	251.57	7.72	-40.1	-41.5	19.7	0.00e+00	0	28	0	1311768576	52	6840
2026-01-16 16:39:23.53	251.29	7.43	-40.2	-41.6	19.6	0.00e+00	0	28	0	1320157184	52	6891
2026-01-16 16:39:27.56	251.01	7.14	-40.3	-41.8	19.3	0.00e+00	0	28	0	1327497216	54	6307
2026-01-16 16:39:31.60	250.74	6.86	-40.6	-42.1	19.0	0.00e+00	0	28	0	1334837248	54	6505
2026-01-16 16:39:35.64	250.48	6.57	-40.7	-42.3	18.8	0.00e+00	0	28	0	1342177280	54	6653
2026-01-16 16:39:39.68	250.22	6.29	-41.1	-42.8	18.2	0.00e+00	0	28	0	1350565888	54	7048
2026-01-16 16:39:43.72	249.96	6.02	-41.2	-43.0	18.1	0.00e+00	0	28	0	1357905920	54	7212
2026-01-16 16:39:47.76	249.72	5.74	-41.4	-43.2	17.8	0.00e+00	0	28	0	1365245952	54	7403
2026-01-16 16:39:51.80	249.47	5.47	-41.2	-43.0	17.9	0.00e+00	0	28	0	1372585984	54	7220
2026-01-16 16:39:55.84	249.23	5.20	-41.6	-43.6	17.4	0.00e+00	0	28	0	1379926016	54	7738
2026-01-16 16:39:59.88	249.00	4.93	-42.0	-44.1	16.8	0.00e+00	0	29	0	1388314624	56	7284
2026-01-16 16:40:03.91	248.77	4.67	-41.7	-43.8	17.1	0.00e+00	0	28	0	1395654656	56	7018
2026-01-16 16:40:07.95	248.54	4.40	-41.6	-43.7	17.2	0.00e+00	0	29	0	1402994688	56	6938
2026-01-16 16:40:11.99	248.32	4.14	-42.1	-44.4	16.5	0.00e+00	0	29	0	1410334720	56	7528
2026-01-16 16:40:16.03	248.10	3.88	-42.4	-44.8	15.9	0.00e+00	0	28	0	1418723328	56	7935
2026-01-16 16:40:20.06	247.89	3.63	-42.5	-45.1	15.6	0.00e+00	0	29	0	1426063360	58	7290
2026-01-16 16:40:24.10	247.68	3.37	-42.5	-45.0	15.5	0.00e+00	0	29	0	1433403392	58	7231
2026-01-16 16:40:28.13	247.47	3.12	-42.5	-45.1	15.1	0.00e+00	0	29	0	1440743424	58	7326
2026-01-16 16:40:32.17	247.27	2.87	-47.6	-62.7	3.6	1.51e+00	0	29	104	1444937728	60	49547
2026-01-16 16:40:36.21	247.07	2.62	-48.0	-63.2	3.6	1.51e+00	0	29	104	1444937728	60	52105
2026-01-16 16:40:40.25	246.88	2.37	-47.8	-63.2	3.6	1.51e+00	0	29	104	1444937728	60	52414
2026-01-16 16:40:44.29	246.68	2.13	-47.8	-63.0	3.6	1.51e+00	0	29	104	1444937728	60	51310
2026-01-16 16:40:48.32	246.50	1.88	-47.9	-63.1	3.6	1.51e+00	0	29	104	1444937728	60	51911
2026-01-16 16:40:52.36	246.31	1.64	-47.9	-63.1	3.6	1.51e+00	0	29	104	1444937728	60	51589
2026-01-16 16:40:56.40	246.13	1.40	-47.9	-63.1	3.6	1.51e+00	0	29	104	1444937728	60	51546
2026-01-16 16:41:00.44	245.95	1.16	-47.9	-63.0	3.6	1.51e+00	0	29	104	1444937728	60	51218
2026-01-16 16:41:04.47	245.77	0.93	-48.0	-63.1	3.6	1.51e+00	0	29	104	1444937728	60	51738
2026-01-16 16:41:08.51	245.60	0.69	-47.9	-63.1	3.6	1.51e+00	0	29	104	1444937728	60	51862
2026-01-16 16:41:12.55	245.43	0.46	-47.9	-63.1	3.6	1.51e+00	0	29	104	1444937728	60	51741
2026-01-16 16:41:16.58	245.26	0.23	-47.9	-63.1	3.6	1.51e+00	0	29	104	1444937728	60	51885
2026-01-16 16:41:20.62	245.10	-0.00	-48.0	-63.2	3.6	1.51e+00	0	29	104	1444937728	60	52062

#Closed at: 2026-01-16 16:41:21
#Recorded file [1444 MB]: D:/lorett/data/35029_260117_042644.dat