passes_logs/2026/01/16/R4.6S_Anadyr/R4.6S_Anadyr__20260116_235125_NOAA_21_JPSS-2_rec.log

#Pass ID: 20260116_235125_NOAA 21 (JPSS-2)
#Satellite: NOAA 21 (JPSS-2)
#Configuration: NOAA-21
#almurnet v.1.7.20251203
#Start time: 2026-01-16 23:51:28

#Version: 2.2.20231116
#Station: R4.6S_Anadyr
#Location: 177.4865 lon 64.73178 lat
#TLE: 1 54234U 22150A   26016.56338662  .00000024  00000+0  32257-4 0  9990
#TLE: 2 54234  98.7500 317.4442 0000622 279.9774  80.1332 14.19534942165033

#Time	Az	El	Level	Level2	SNR	BER	BlckErr	Temp	State	Recorded	gain1	gain2
2026-01-16 23:51:28.64	147.33	0.21	-48.4	-59.8	3.3	1.54e+00	0	29	0	0	60	34351
2026-01-16 23:51:32.68	147.30	0.45	-48.4	-61.3	3.5	1.52e+00	0	29	104	0	60	40543
2026-01-16 23:51:36.72	147.28	0.70	-48.1	-60.9	3.5	1.52e+00	0	29	104	0	60	39012
2026-01-16 23:51:40.76	147.25	0.95	-47.0	-59.9	3.5	1.52e+00	0	29	104	0	60	34765
2026-01-16 23:51:44.80	147.22	1.20	-46.3	-59.1	3.5	1.52e+00	0	29	104	0	60	31773
2026-01-16 23:51:48.84	147.19	1.45	-46.3	-59.0	3.5	1.52e+00	0	30	104	0	60	31455
2026-01-16 23:51:52.87	147.16	1.71	-46.3	-59.0	3.5	1.51e+00	0	30	104	0	60	31343
2026-01-16 23:51:56.91	147.12	1.96	-46.3	-59.0	3.5	1.52e+00	0	30	104	0	60	31453
2026-01-16 23:52:00.95	147.09	2.22	-46.3	-59.0	3.5	1.51e+00	0	30	104	0	60	31398
2026-01-16 23:52:04.99	147.06	2.49	-46.3	-59.1	3.5	1.52e+00	0	30	104	0	60	31557
2026-01-16 23:52:09.02	147.02	2.75	-46.3	-59.0	3.5	1.52e+00	0	30	104	0	60	31171
2026-01-16 23:52:13.06	146.99	3.02	-45.6	-53.6	5.3	6.65e-01	123	30	104	0	60	16813
2026-01-16 23:52:17.10	146.95	3.29	-43.1	-46.3	12.1	6.41e-04	123	30	0	11534336	60	7229
2026-01-16 23:52:21.14	146.92	3.56	-41.0	-43.0	15.4	0.00e+00	123	30	0	24117248	56	6236
2026-01-16 23:52:25.18	146.88	3.84	-45.3	-51.3	9.8	8.85e-01	122	30	104	32505856	60	12928
2026-01-16 23:52:29.21	146.84	4.11	-40.9	-42.8	15.7	7.00e-07	123	30	0	35651584	56	6119
2026-01-16 23:52:33.25	146.80	4.39	-40.4	-42.2	16.5	0.00e+00	122	30	0	48234496	54	6368
2026-01-16 23:52:37.29	146.76	4.68	-39.1	-40.5	18.4	0.00e+00	120	30	0	60817408	52	5906
2026-01-16 23:52:41.33	146.72	4.97	-37.8	-39.1	19.6	0.00e+00	123	30	0	73400320	50	5623
2026-01-16 23:52:45.37	146.67	5.26	-37.8	-39.0	19.7	0.00e+00	123	30	0	85983232	48	6262
2026-01-16 23:52:49.41	146.63	5.55	-37.3	-38.5	20.2	0.00e+00	123	30	0	99614720	48	5901
2026-01-16 23:52:53.45	146.59	5.85	-37.5	-38.7	20.1	0.00e+00	120	30	0	111149056	48	6055
2026-01-16 23:52:57.49	146.54	6.15	-37.3	-38.5	20.1	0.00e+00	123	30	0	124780544	48	5911
2026-01-16 23:53:01.53	146.49	6.45	-37.0	-38.1	20.7	0.00e+00	123	30	0	137363456	48	5655
2026-01-16 23:53:05.57	146.44	6.76	-37.1	-38.2	20.7	0.00e+00	122	30	0	149946368	48	5691
2026-01-16 23:53:09.61	146.39	7.07	-36.7	-37.8	21.2	0.00e+00	122	30	0	162529280	46	6081
2026-01-16 23:53:13.64	146.34	7.38	-36.5	-37.6	21.2	0.00e+00	123	30	0	175112192	46	5965
2026-01-16 23:53:17.68	146.29	7.70	-36.5	-37.5	21.4	0.00e+00	122	30	0	187695104	46	5922
2026-01-16 23:53:21.72	146.24	8.02	-36.5	-37.5	21.4	0.00e+00	123	30	0	200278016	46	5918
2026-01-16 23:53:25.76	146.18	8.35	-36.2	-37.3	21.7	0.00e+00	122	30	0	212860928	46	5753
2026-01-16 23:53:29.80	146.12	8.68	-36.6	-37.7	21.3	0.00e+00	123	30	0	225443840	46	6017
2026-01-16 23:53:33.83	146.06	9.01	-35.9	-37.0	22.0	0.00e+00	122	30	0	238026752	46	5540
2026-01-16 23:53:37.87	146.00	9.35	-35.9	-36.9	22.1	0.00e+00	123	30	0	250609664	46	5517
2026-01-16 23:53:41.91	145.94	9.70	-35.7	-36.8	22.2	0.00e+00	122	30	0	263192576	44	6076
2026-01-16 23:53:45.95	145.88	10.05	-35.5	-36.5	22.4	0.00e+00	123	30	0	275775488	44	5921
2026-01-16 23:53:49.98	145.81	10.40	-35.4	-36.4	22.6	0.00e+00	123	30	0	288358400	44	5797
2026-01-16 23:53:54.02	145.74	10.76	-35.2	-36.1	22.7	0.00e+00	122	30	0	300941312	44	5658
2026-01-16 23:53:58.07	145.67	11.12	-35.2	-36.2	22.8	0.00e+00	122	30	0	313524224	44	5701
2026-01-16 23:54:02.10	145.60	11.49	-35.1	-36.1	22.8	0.00e+00	120	30	0	326107136	44	5641
2026-01-16 23:54:06.14	145.53	11.87	-35.0	-35.9	22.9	0.00e+00	122	30	0	338690048	44	5521
2026-01-16 23:54:10.18	145.45	12.25	-34.9	-35.9	23.1	0.00e+00	122	30	0	351272960	44	5473
2026-01-16 23:54:14.22	145.37	12.64	-35.0	-35.9	23.1	0.00e+00	123	30	0	363855872	42	6179
2026-01-16 23:54:18.26	145.29	13.03	-34.8	-35.8	23.2	0.00e+00	122	30	0	376438784	42	6104
2026-01-16 23:54:22.30	145.21	13.43	-34.8	-35.8	23.2	0.00e+00	123	30	0	389021696	42	6079
2026-01-16 23:54:26.33	145.12	13.84	-34.6	-35.5	23.4	0.00e+00	123	30	0	401604608	42	5893
2026-01-16 23:54:30.38	145.03	14.25	-34.6	-35.6	23.4	0.00e+00	122	30	0	414187520	42	5956
2026-01-16 23:54:34.42	144.94	14.67	-34.6	-35.5	23.5	0.00e+00	120	30	0	426770432	42	5898
2026-01-16 23:54:38.46	144.84	15.10	-34.3	-35.2	23.8	0.00e+00	123	30	0	440401920	42	5712
2026-01-16 23:54:42.50	144.75	15.53	-34.3	-35.2	23.8	0.00e+00	122	30	0	451936256	42	5719
2026-01-16 23:54:46.53	144.64	15.98	-34.4	-35.3	23.7	0.00e+00	120	30	0	465567744	42	5776
2026-01-16 23:54:50.57	144.54	16.43	-34.2	-35.2	23.8	0.00e+00	121	30	0	478150656	42	5665
2026-01-16 23:54:54.61	144.43	16.89	-34.3	-35.2	23.8	0.00e+00	122	30	0	490733568	42	5679
2026-01-16 23:54:58.65	144.32	17.35	-34.2	-35.1	23.9	0.00e+00	123	30	0	503316480	42	5654
2026-01-16 23:55:02.69	144.20	17.83	-34.3	-35.2	23.8	0.00e+00	123	30	0	515899392	42	5697
2026-01-16 23:55:06.73	144.08	18.32	-34.3	-35.3	23.7	0.00e+00	122	30	0	528482304	42	5737
2026-01-16 23:55:10.77	143.96	18.81	-34.5	-35.4	23.6	0.00e+00	123	30	0	541065216	42	5807
2026-01-16 23:55:14.81	143.83	19.32	-34.3	-35.2	23.7	0.00e+00	123	30	0	553648128	42	5704
2026-01-16 23:55:18.86	143.69	19.84	-34.2	-35.1	23.9	0.00e+00	123	30	0	566231040	42	5646
2026-01-16 23:55:22.90	143.55	20.36	-34.0	-35.0	23.9	0.00e+00	123	30	0	578813952	42	5543
2026-01-16 23:55:26.94	143.41	20.90	-34.0	-35.0	24.0	0.00e+00	122	30	0	591396864	42	5541
2026-01-16 23:55:30.97	143.26	21.45	-33.6	-34.5	24.2	0.00e+00	122	30	0	603979776	40	5913
2026-01-16 23:55:35.01	143.10	22.01	-33.5	-34.4	24.6	0.00e+00	123	30	0	616562688	40	5809
2026-01-16 23:55:39.06	142.94	22.59	-33.0	-33.9	24.8	0.00e+00	120	30	0	629145600	40	5510
2026-01-16 23:55:43.10	142.77	23.17	-33.0	-33.9	24.9	0.00e+00	123	30	0	641728512	40	5505
2026-01-16 23:55:47.14	142.59	23.78	-32.7	-33.6	25.2	0.00e+00	120	30	0	654311424	38	5931
2026-01-16 23:55:51.18	142.41	24.39	-32.9	-33.8	25.0	0.00e+00	123	30	0	666894336	38	6076
2026-01-16 23:55:55.23	142.22	25.02	-33.2	-34.0	25.0	0.00e+00	123	30	0	679477248	38	6266
2026-01-16 23:55:59.27	142.02	25.66	-33.3	-34.2	24.8	0.00e+00	122	30	0	692060160	38	6388
2026-01-16 23:56:03.31	141.81	26.32	-33.7	-34.6	24.5	0.00e+00	122	30	0	704643072	38	6684
2026-01-16 23:56:07.35	141.59	27.00	-34.0	-34.9	24.3	0.00e+00	123	29	0	717225984	40	6152
2026-01-16 23:56:11.38	141.36	27.69	-34.1	-35.0	24.2	0.00e+00	123	29	0	729808896	40	6243
2026-01-16 23:56:15.42	141.12	28.39	-34.0	-34.9	24.3	0.00e+00	122	29	0	742391808	40	6152
2026-01-16 23:56:19.46	140.87	29.12	-34.0	-34.9	24.1	0.00e+00	123	30	0	756023296	40	6200
2026-01-16 23:56:23.50	140.61	29.87	-33.9	-34.8	24.2	0.00e+00	123	29	0	767557632	40	6130
2026-01-16 23:56:27.54	140.33	30.63	-33.8	-34.7	24.3	0.00e+00	123	29	0	781189120	40	6021
2026-01-16 23:56:31.58	140.04	31.41	-33.5	-34.4	24.5	0.00e+00	123	29	0	793772032	40	5799
2026-01-16 23:56:35.62	139.74	32.22	-33.5	-34.4	24.4	0.00e+00	122	29	0	806354944	40	5833
2026-01-16 23:56:39.66	139.41	33.04	-33.9	-34.8	24.1	0.00e+00	123	29	0	818937856	40	6118
2026-01-16 23:56:43.70	139.07	33.89	-34.3	-35.3	23.8	0.00e+00	123	29	0	831520768	40	6434
2026-01-16 23:56:47.75	138.71	34.76	-34.7	-35.6	23.8	0.00e+00	122	30	0	844103680	40	6691
2026-01-16 23:56:51.79	138.33	35.66	-35.7	-36.7	22.9	0.00e+00	122	29	0	856686592	42	6767
2026-01-16 23:56:55.83	137.93	36.58	-35.8	-36.8	22.8	0.00e+00	122	29	0	869269504	44	6106
2026-01-16 23:56:59.87	137.51	37.52	-36.2	-37.2	22.6	0.00e+00	123	29	0	881852416	44	6386
2026-01-16 23:57:03.91	137.05	38.49	-36.5	-37.5	22.1	0.00e+00	120	29	0	894435328	46	5913
2026-01-16 23:57:07.94	136.57	39.48	-36.5	-37.6	22.2	0.00e+00	120	29	0	907018240	46	5945
2026-01-16 23:57:11.98	136.06	40.50	-36.1	-37.1	22.6	0.00e+00	123	29	0	919601152	46	5644
2026-01-16 23:57:16.02	135.51	41.54	-36.3	-37.3	22.3	0.00e+00	123	29	0	932184064	46	5788
2026-01-16 23:57:20.06	134.93	42.62	-36.4	-37.4	22.0	0.00e+00	123	29	0	944766976	46	5840
2026-01-16 23:57:24.09	134.30	43.72	-36.4	-37.4	22.2	0.00e+00	122	29	0	957349888	46	5840
2026-01-16 23:57:28.13	133.63	44.85	-36.8	-37.8	22.1	0.00e+00	122	29	0	969932800	46	6118
2026-01-16 23:57:32.17	132.90	46.01	-36.3	-37.3	22.4	0.00e+00	123	29	0	982515712	46	5741
2026-01-16 23:57:36.21	132.12	47.19	-36.0	-37.0	22.7	0.00e+00	123	29	0	995098624	46	5552
2026-01-16 23:57:40.25	131.28	48.41	-35.8	-36.8	22.8	0.00e+00	123	29	0	1007681536	44	6102
2026-01-16 23:57:44.29	130.36	49.65	-35.8	-36.7	22.9	0.00e+00	120	29	0	1020264448	44	6057
2026-01-16 23:57:48.33	129.36	50.92	-35.4	-36.3	23.3	0.00e+00	123	29	0	1032847360	44	5767
2026-01-16 23:57:52.37	128.28	52.21	-35.4	-36.3	23.2	0.00e+00	123	29	0	1045430272	44	5790
2026-01-16 23:57:56.42	127.09	53.53	-34.6	-35.5	23.8	0.00e+00	123	29	0	1058013184	42	5911
2026-01-16 23:58:00.46	125.79	54.86	-34.6	-35.5	23.6	0.00e+00	122	29	0	1071644672	42	5882
2026-01-16 23:58:04.50	124.36	56.22	-34.0	-34.9	23.8	0.00e+00	123	29	0	1083179008	42	5520
2026-01-16 23:58:08.53	122.78	57.58	-34.0	-35.0	24.2	0.00e+00	123	29	0	1096810496	42	5531
2026-01-16 23:58:12.57	121.03	58.96	-33.1	-34.0	25.0	0.00e+00	123	29	0	1109393408	40	5549
2026-01-16 23:58:16.62	119.08	60.34	-33.4	-34.2	24.7	0.00e+00	123	29	0	1121976320	40	5718
2026-01-16 23:58:20.65	116.92	61.72	-32.8	-33.7	24.7	0.00e+00	123	29	0	1134559232	38	5999
2026-01-16 23:58:24.69	114.50	63.08	-32.6	-33.5	25.2	0.00e+00	122	29	0	1147142144	38	5869
2026-01-16 23:58:28.73	111.78	64.42	-32.3	-33.2	25.3	0.00e+00	122	29	0	1159725056	38	5667
2026-01-16 23:58:32.78	108.72	65.74	-32.7	-33.6	25.0	0.00e+00	122	29	0	1172307968	38	5954
2026-01-16 23:58:36.82	105.28	66.99	-32.7	-33.6	25.0	0.00e+00	123	29	0	1184890880	38	5957
2026-01-16 23:58:40.86	101.42	68.18	-32.1	-32.9	25.8	0.00e+00	120	29	0	1197473792	38	5496
2026-01-16 23:58:44.90	97.10	69.29	-32.5	-33.4	25.1	0.00e+00	123	29	0	1210056704	38	5831
2026-01-16 23:58:48.94	92.27	70.28	-33.2	-34.1	24.9	0.00e+00	123	29	0	1222639616	38	6299
2026-01-16 23:58:52.98	86.94	71.13	-32.7	-33.6	25.2	0.00e+00	123	29	0	1235222528	38	5970
2026-01-16 23:58:57.02	81.12	71.82	-32.9	-33.8	25.1	0.00e+00	123	29	0	1247805440	38	6085
2026-01-16 23:59:01.06	74.88	72.32	-32.7	-33.5	25.3	0.00e+00	123	29	0	1260388352	38	5903
2026-01-16 23:59:05.10	68.35	72.61	-33.2	-34.0	25.0	0.00e+00	120	29	0	1272971264	38	6265
2026-01-16 23:59:09.14	61.67	72.68	-32.8	-33.7	25.1	0.00e+00	123	29	0	1285554176	38	6024
2026-01-16 23:59:13.18	55.02	72.53	-33.0	-33.9	24.8	0.00e+00	123	29	0	1298137088	38	6177
2026-01-16 23:59:17.22	48.58	72.16	-32.9	-33.7	24.8	0.00e+00	123	29	0	1310720000	38	6059
2026-01-16 23:59:21.25	42.50	71.59	-32.5	-33.4	24.9	0.00e+00	123	29	0	1323302912	38	5847
2026-01-16 23:59:25.30	36.85	70.84	-33.0	-33.9	24.6	0.00e+00	123	29	0	1335885824	38	6190
2026-01-16 23:59:29.33	31.71	69.93	-32.4	-33.3	25.4	0.00e+00	123	29	0	1348468736	38	5731
2026-01-16 23:59:33.37	27.07	68.90	-32.2	-33.0	25.1	0.00e+00	122	29	0	1361051648	38	5567
2026-01-16 23:59:37.41	22.93	67.77	-32.8	-33.7	25.0	0.00e+00	122	29	0	1373634560	38	5998
2026-01-16 23:59:41.45	19.23	66.55	-32.4	-33.2	25.5	0.00e+00	122	29	0	1386217472	38	5722
2026-01-16 23:59:45.49	15.94	65.28	-32.2	-33.1	25.3	0.00e+00	123	29	0	1398800384	38	5616
2026-01-16 23:59:49.52	13.02	63.96	-33.9	-34.9	24.3	0.00e+00	122	29	0	1412431872	40	6152
2026-01-16 23:59:53.56	10.42	62.61	-32.2	-33.0	25.6	0.00e+00	123	29	0	1425014784	38	5594
2026-01-16 23:59:57.59	8.10	61.25	-33.6	-34.5	24.4	0.00e+00	123	29	0	1437597696	40	5878
2026-01-17 00:00:01.63	6.02	59.87	-32.9	-33.7	25.1	0.00e+00	123	29	0	1450180608	38	6038
2026-01-17 00:00:05.65	4.16	58.50	-34.2	-35.2	23.2	0.00e+00	123	29	0	1462763520	40	6359
2026-01-17 00:00:09.69	2.47	57.13	-33.1	-34.0	24.6	0.00e+00	122	29	0	1475346432	38	6227
2026-01-17 00:00:13.73	0.95	55.77	-34.9	-35.8	23.5	0.00e+00	123	29	0	1487929344	42	6133
2026-01-17 00:00:17.77	359.56	54.43	-34.0	-34.9	24.1	0.00e+00	120	29	0	1500512256	42	5509
2026-01-17 00:00:21.80	358.31	53.10	-35.0	-35.9	23.3	0.00e+00	123	29	0	1513095168	42	6184
2026-01-17 00:00:25.84	357.16	51.80	-35.1	-36.1	23.2	0.00e+00	123	29	0	1525678080	44	5626
2026-01-17 00:00:29.87	356.11	50.52	-35.5	-36.5	23.1	0.00e+00	123	29	0	1538260992	42	6613
2026-01-17 00:00:33.91	355.15	49.27	-36.7	-37.8	21.5	0.00e+00	122	29	0	1550843904	46	6120
2026-01-17 00:00:37.94	354.26	48.04	-35.9	-36.9	22.8	0.00e+00	123	29	0	1563426816	46	5494
2026-01-17 00:00:41.98	353.44	46.84	-34.8	-35.7	23.7	0.00e+00	122	29	0	1576009728	44	5395
2026-01-17 00:00:46.02	352.68	45.67	-37.2	-38.3	21.7	0.00e+00	123	29	0	1588592640	46	6431
2026-01-17 00:00:50.05	351.97	44.53	-36.0	-37.0	22.2	0.00e+00	123	29	0	1601175552	46	5568
2026-01-17 00:00:54.09	351.32	43.41	-36.4	-37.4	22.3	0.00e+00	123	29	0	1613758464	44	6540
2026-01-17 00:00:58.12	350.71	42.32	-36.3	-37.3	22.4	0.00e+00	123	29	0	1626341376	44	6481
2026-01-17 00:01:02.15	350.14	41.26	-36.5	-37.5	22.1	0.00e+00	122	29	0	1638924288	44	6619
2026-01-17 00:01:06.19	349.61	40.23	-36.4	-37.5	21.7	0.00e+00	122	29	0	1651507200	44	6636
2026-01-17 00:01:10.22	349.11	39.22	-36.0	-37.0	22.3	0.00e+00	127	29	0	1664090112	44	6230
2026-01-17 00:01:14.26	348.64	38.24	-35.9	-37.5	19.9	9.66e-03	122	29	0	1676673024	44	6596
2026-01-17 00:01:18.30	348.19	37.29	-34.6	-36.5	19.7	1.14e-02	120	29	0	1689255936	42	6610
2026-01-17 00:01:22.33	347.78	36.36	-34.6	-35.5	23.9	0.00e+00	121	29	0	1701838848	42	5884
2026-01-17 00:01:26.37	347.39	35.45	-35.1	-36.1	23.3	0.00e+00	122	29	0	1714421760	42	6282
2026-01-17 00:01:30.40	347.01	34.57	-35.1	-36.0	23.4	0.00e+00	122	29	0	1727004672	42	6257
2026-01-17 00:01:34.44	346.66	33.71	-35.0	-35.9	23.6	0.00e+00	117	29	0	1739587584	42	6156
2026-01-17 00:01:38.47	346.33	32.87	-35.2	-36.2	23.3	0.00e+00	122	29	0	1752170496	42	6375
2026-01-17 00:01:42.51	346.02	32.06	-35.0	-36.0	23.3	0.00e+00	123	29	0	1764753408	42	6232
2026-01-17 00:01:46.55	345.72	31.26	-34.5	-35.4	23.6	0.00e+00	123	29	0	1777336320	42	5850
2026-01-17 00:01:50.58	345.43	30.49	-33.6	-34.4	24.4	0.00e+00	122	29	0	1789919232	40	5852
2026-01-17 00:01:54.61	345.16	29.74	-33.0	-33.9	25.0	0.00e+00	120	29	0	1802502144	40	5482
2026-01-17 00:01:58.65	344.91	29.00	-33.0	-33.8	25.1	0.00e+00	122	29	0	1815085056	40	5447
2026-01-17 00:02:02.68	344.66	28.28	-33.4	-34.3	24.8	0.00e+00	122	29	0	1827667968	40	5736
2026-01-17 00:02:06.72	344.43	27.58	-33.9	-34.8	24.4	0.00e+00	122	29	0	1840250880	40	6066
2026-01-17 00:02:10.76	344.20	26.90	-33.8	-34.7	24.4	0.00e+00	123	29	0	1852833792	40	6004
2026-01-17 00:02:14.79	343.99	26.23	-33.7	-34.6	24.5	0.00e+00	123	29	0	1865416704	40	5951
2026-01-17 00:02:18.83	343.79	25.58	-33.7	-34.6	24.4	0.00e+00	123	29	0	1877999616	40	5982
2026-01-17 00:02:22.87	343.59	24.94	-33.7	-34.6	24.3	0.00e+00	120	29	0	1891631104	40	5992
2026-01-17 00:02:26.91	343.40	24.32	-34.0	-35.0	24.0	0.00e+00	123	29	0	1904214016	40	6231
2026-01-17 00:02:30.94	343.23	23.71	-34.1	-35.1	23.9	0.00e+00	123	29	0	1916796928	40	6296
2026-01-17 00:02:34.98	343.05	23.12	-34.0	-35.0	24.0	0.00e+00	122	29	0	1929379840	40	6227
2026-01-17 00:02:39.01	342.89	22.54	-33.6	-34.5	24.2	0.00e+00	122	29	0	1941962752	40	5921
2026-01-17 00:02:43.05	342.73	21.97	-33.5	-34.3	24.4	0.00e+00	123	29	0	1954545664	40	5787
2026-01-17 00:02:47.09	342.58	21.41	-33.2	-34.0	24.6	0.00e+00	120	29	0	1967128576	40	5586
2026-01-17 00:02:51.13	342.43	20.87	-33.1	-33.9	24.7	0.00e+00	123	29	0	1979711488	40	5523
2026-01-17 00:02:55.16	342.29	20.34	-33.1	-34.0	24.6	0.00e+00	123	29	0	1992294400	40	5531
2026-01-17 00:02:59.20	342.15	19.81	-33.1	-34.0	24.7	0.00e+00	122	29	0	2004877312	40	5549
2026-01-17 00:03:03.24	342.02	19.30	-33.3	-34.1	24.5	0.00e+00	118	28	0	2017460224	40	5648
2026-01-17 00:03:07.28	341.90	18.80	-33.4	-34.3	24.4	0.00e+00	122	29	0	2030043136	40	5756
2026-01-17 00:03:11.33	341.78	18.31	-33.7	-34.6	24.3	0.00e+00	122	29	0	2042626048	40	5936
2026-01-17 00:03:15.36	341.66	17.83	-33.7	-34.6	24.3	0.00e+00	123	29	0	2055208960	40	5945
2026-01-17 00:03:19.39	341.55	17.35	-33.9	-34.8	24.0	0.00e+00	123	29	0	2067791872	40	6133
2026-01-17 00:03:23.44	341.44	16.89	-34.1	-35.1	23.9	0.00e+00	123	29	0	2080374784	40	6289
2026-01-17 00:03:27.48	341.33	16.43	-34.5	-35.4	23.5	0.00e+00	123	29	0	2092957696	40	6537
2026-01-17 00:03:31.51	341.23	15.99	-34.7	-35.6	23.3	0.00e+00	120	29	0	2105540608	40	6714
2026-01-17 00:03:35.55	341.13	15.55	-34.9	-35.8	23.1	0.00e+00	120	29	0	2118123520	42	6127
2026-01-17 00:03:39.59	341.04	15.11	-35.0	-35.9	23.0	0.00e+00	122	29	0	2130706432	42	6203
2026-01-17 00:03:43.63	340.95	14.69	-34.9	-35.9	23.1	0.00e+00	123	28	0	2143289344	42	6139
2026-01-17 00:03:47.66	340.86	14.27	-35.0	-36.0	22.9	0.00e+00	123	28	0	2155872256	42	6253
2026-01-17 00:03:51.69	340.77	13.86	-35.1	-36.1	22.9	0.00e+00	122	28	0	2168455168	42	6295
2026-01-17 00:03:55.73	340.69	13.46	-35.0	-36.0	23.0	0.00e+00	123	29	0	2181038080	42	6210
2026-01-17 00:03:59.77	340.61	13.06	-35.1	-36.0	22.9	0.00e+00	123	29	0	2193620992	42	6267
2026-01-17 00:04:03.80	340.53	12.67	-34.8	-35.8	23.0	0.00e+00	122	28	0	2206203904	42	6075
2026-01-17 00:04:07.84	340.46	12.29	-35.0	-35.9	22.9	0.00e+00	123	28	0	2218786816	42	6196
2026-01-17 00:04:11.88	340.38	11.91	-34.8	-35.8	22.9	0.00e+00	123	28	0	2231369728	42	6111
2026-01-17 00:04:15.91	340.31	11.54	-35.0	-36.0	22.9	0.00e+00	123	28	0	2243952640	42	6256
2026-01-17 00:04:19.94	340.24	11.17	-35.0	-35.9	22.9	0.00e+00	123	29	0	2256535552	42	6200
2026-01-17 00:04:23.98	340.18	10.81	-35.0	-36.0	22.8	0.00e+00	123	28	0	2269118464	42	6255
2026-01-17 00:04:28.02	340.11	10.45	-35.1	-36.1	22.7	0.00e+00	123	28	0	2282749952	42	6337
2026-01-17 00:04:32.06	340.05	10.10	-35.2	-36.2	22.6	0.00e+00	123	29	0	2295332864	42	6412
2026-01-17 00:04:36.10	339.99	9.75	-35.2	-36.2	22.7	0.00e+00	123	28	0	2307915776	42	6406
2026-01-17 00:04:40.14	339.93	9.41	-35.3	-36.3	22.6	0.00e+00	123	28	0	2320498688	42	6453
2026-01-17 00:04:44.17	339.87	9.07	-35.5	-36.5	22.4	0.00e+00	123	28	0	2333081600	42	6624
2026-01-17 00:04:48.21	339.82	8.74	-35.6	-36.6	22.2	0.00e+00	122	28	0	2345664512	42	6725
2026-01-17 00:04:52.25	339.77	8.41	-35.9	-36.9	22.0	0.00e+00	123	28	0	2358247424	44	6175
2026-01-17 00:04:56.29	339.71	8.09	-35.9	-37.0	21.9	0.00e+00	122	29	0	2370830336	44	6231
2026-01-17 00:05:00.32	339.66	7.77	-36.2	-37.3	21.5	0.00e+00	123	29	0	2383413248	44	6467
2026-01-17 00:05:04.36	339.61	7.45	-36.5	-37.6	21.3	0.00e+00	123	28	0	2395996160	44	6674
2026-01-17 00:05:08.40	339.57	7.14	-37.0	-38.2	21.0	0.00e+00	123	29	0	2408579072	46	6364
2026-01-17 00:05:12.43	339.52	6.83	-36.9	-38.1	20.9	0.00e+00	123	28	0	2421161984	46	6282
2026-01-17 00:05:16.47	339.47	6.52	-36.9	-38.0	20.8	0.00e+00	122	28	0	2433744896	46	6259
2026-01-17 00:05:20.51	339.43	6.22	-36.9	-38.0	20.8	0.00e+00	121	28	0	2446327808	46	6265
2026-01-17 00:05:24.54	339.39	5.92	-36.9	-38.1	20.6	0.00e+00	123	28	0	2458910720	46	6293
2026-01-17 00:05:28.58	339.35	5.63	-37.6	-38.9	19.6	0.00e+00	122	29	0	2471493632	46	6933
2026-01-17 00:05:32.62	339.31	5.34	-38.4	-39.9	18.3	0.00e+00	122	29	0	2484076544	48	6885
2026-01-17 00:05:36.65	339.27	5.05	-39.8	-41.7	16.2	0.00e+00	123	28	0	2496659456	52	6766
2026-01-17 00:05:40.69	339.23	4.76	-41.2	-43.9	13.1	2.36e-05	124	28	0	2509242368	54	7757
2026-01-17 00:05:44.73	339.19	4.48	-42.5	-46.7	9.3	8.86e-03	123	28	0	2521825280	56	9534
2026-01-17 00:05:48.76	339.16	4.20	-43.3	-50.8	4.0	1.31e+00	0	28	104	2533359616	58	13703
2026-01-17 00:05:52.80	339.12	3.93	-43.4	-53.7	3.9	1.49e+00	0	29	104	2533359616	58	19111
2026-01-17 00:05:56.83	339.09	3.65	-43.6	-55.7	3.5	1.52e+00	0	28	104	2533359616	58	24029
2026-01-17 00:06:00.87	339.06	3.38	-43.6	-55.9	3.5	1.51e+00	0	28	104	2533359616	60	21839
2026-01-17 00:06:04.91	339.02	3.11	-43.7	-56.4	3.5	1.52e+00	0	28	104	2533359616	60	23308
2026-01-17 00:06:08.94	338.99	2.85	-47.9	-60.7	3.5	1.52e+00	0	28	104	2533359616	60	37993
2026-01-17 00:06:12.98	338.96	2.58	-48.4	-61.2	3.5	1.52e+00	0	28	104	2533359616	60	40332
2026-01-17 00:06:17.02	338.93	2.32	-47.9	-61.0	3.5	1.52e+00	0	28	104	2533359616	60	39608
2026-01-17 00:06:21.06	338.91	2.06	-48.3	-61.2	3.5	1.52e+00	0	28	104	2533359616	60	40224
2026-01-17 00:06:25.09	338.88	1.81	-48.2	-61.0	3.5	1.52e+00	0	28	104	2533359616	60	39472
2026-01-17 00:06:29.13	338.85	1.55	-48.2	-61.1	3.5	1.52e+00	0	28	104	2533359616	60	39644
2026-01-17 00:06:33.17	338.83	1.30	-48.2	-61.0	3.5	1.52e+00	0	28	104	2533359616	60	39482
2026-01-17 00:06:37.20	338.80	1.05	-48.2	-61.0	3.5	1.52e+00	0	28	104	2533359616	60	39490
2026-01-17 00:06:41.23	338.78	0.80	-48.2	-61.0	3.5	1.52e+00	0	28	104	2533359616	60	39481
2026-01-17 00:06:45.26	338.75	0.56	-48.2	-61.0	3.5	1.52e+00	0	28	104	2533359616	60	39557
2026-01-17 00:06:49.30	338.73	0.31	-48.2	-61.0	3.5	1.51e+00	0	28	104	2533359616	60	39567
2026-01-17 00:06:53.34	338.71	0.07	-48.2	-61.1	3.5	1.51e+00	0	28	104	2533359616	60	39642

#Closed at: 2026-01-17 00:06:57
#Recorded file [2533 MB]: D:/lorett/data/35029_260117_115128.dat