passes_logs/2026/01/16/R4.6S_Anadyr/R4.6S_Anadyr__20260116_003952_SUOMI_NPP_rec.log

#Pass ID: 20260116_003952_SUOMI NPP
#Satellite: SUOMI NPP
#Configuration: NPP
#almurnet v.1.7.20251203
#Start time: 2026-01-16 00:39:55

#Version: 2.2.20231116
#Station: R4.6S_Anadyr
#Location: 177.4865 lon 64.73178 lat
#TLE: 1 37849U 11061A   26014.61059675  .00000037  00000+0  38639-4 0  9994
#TLE: 2 37849  98.7810 316.6625 0002460  64.3781 295.7649 14.19525105736658

#Time	Az	El	Level	Level2	SNR	BER	BlckErr	Temp	State	Recorded	gain1	gain2
2026-01-16 00:39:55.23	165.61	0.16	-48.1	-60.6	3.5	1.51e+00	0	26	0	0	60	37733
2026-01-16 00:39:59.26	165.67	0.40	-48.4	-63.6	3.6	1.51e+00	0	28	104	0	60	54459
2026-01-16 00:40:03.30	165.73	0.64	-48.3	-63.6	3.6	1.51e+00	0	28	104	0	60	54706
2026-01-16 00:40:07.33	165.79	0.89	-47.7	-63.3	3.6	1.51e+00	0	28	104	0	60	52694
2026-01-16 00:40:11.37	165.85	1.14	-46.4	-61.5	3.5	1.51e+00	0	28	104	0	60	43019
2026-01-16 00:40:15.42	165.91	1.39	-46.6	-61.7	3.6	1.51e+00	0	28	104	0	60	44055
2026-01-16 00:40:19.46	165.98	1.65	-46.6	-61.7	3.6	1.51e+00	0	28	104	0	60	44017
2026-01-16 00:40:23.49	166.04	1.90	-46.6	-61.8	3.6	1.51e+00	0	28	104	0	60	44246
2026-01-16 00:40:27.53	166.11	2.16	-46.6	-61.6	3.6	1.51e+00	0	28	104	0	60	43356
2026-01-16 00:40:31.57	166.17	2.42	-46.5	-61.2	3.6	1.51e+00	0	28	104	0	60	41449
2026-01-16 00:40:35.61	166.24	2.68	-46.5	-60.3	3.6	1.51e+00	0	28	104	0	60	37488
2026-01-16 00:40:39.64	166.31	2.95	-46.4	-59.2	3.6	1.51e+00	0	28	104	0	60	33135
2026-01-16 00:40:43.68	166.38	3.22	-44.7	-49.2	11.2	1.47e-02	0	28	0	5242880	60	10417
2026-01-16 00:40:47.72	166.45	3.49	-41.6	-43.7	16.9	0.00e+00	0	28	0	12582912	56	6985
2026-01-16 00:40:51.76	166.52	3.76	-41.5	-43.6	17.0	0.00e+00	66	28	0	19922944	56	6894
2026-01-16 00:40:55.80	166.59	4.04	-42.7	-45.5	14.2	3.38e-01	92	28	104	24117248	58	7626
2026-01-16 00:40:59.83	166.67	4.31	-42.8	-45.5	14.9	8.48e-01	0	28	104	27262976	58	7635
2026-01-16 00:41:03.86	166.74	4.60	-42.0	-44.1	16.3	0.00e+00	82	28	0	33554432	58	6491
2026-01-16 00:41:07.89	166.82	4.88	-41.9	-44.0	16.7	0.00e+00	92	28	0	41943040	56	7176
2026-01-16 00:41:11.93	166.89	5.17	-41.4	-43.2	17.8	0.00e+00	90	28	0	49283072	56	6610
2026-01-16 00:41:15.96	166.97	5.46	-40.8	-42.5	18.3	7.00e-07	0	28	0	56623104	54	6820
2026-01-16 00:41:19.99	167.05	5.75	-40.8	-42.5	18.4	0.00e+00	92	28	0	63963136	54	6791
2026-01-16 00:41:24.02	167.13	6.05	-40.5	-42.1	18.8	0.00e+00	92	28	0	71303168	54	6507
2026-01-16 00:41:28.05	167.21	6.35	-39.6	-41.0	19.9	0.00e+00	41	28	0	79691776	52	6408
2026-01-16 00:41:32.09	167.30	6.65	-39.5	-40.8	20.1	0.00e+00	0	28	0	87031808	52	6278
2026-01-16 00:41:36.13	167.38	6.96	-39.2	-40.5	20.2	0.00e+00	90	28	0	94371840	52	6081
2026-01-16 00:41:40.17	167.47	7.27	-39.2	-40.4	20.5	0.00e+00	92	28	0	101711872	52	5997
2026-01-16 00:41:44.21	167.56	7.59	-39.0	-40.3	20.7	0.00e+00	0	28	0	110100480	52	5902
2026-01-16 00:41:48.25	167.65	7.91	-39.0	-40.3	20.7	0.00e+00	0	28	0	117440512	52	5903
2026-01-16 00:41:52.29	167.74	8.23	-38.5	-39.7	21.2	0.00e+00	91	28	0	124780544	50	6186
2026-01-16 00:41:56.32	167.84	8.56	-38.4	-39.5	21.4	0.00e+00	91	28	0	132120576	50	6059
2026-01-16 00:42:00.36	167.93	8.89	-38.0	-39.0	21.8	0.00e+00	0	28	0	139460608	50	5742
2026-01-16 00:42:04.40	168.03	9.23	-38.0	-39.1	21.7	0.00e+00	82	28	0	147849216	50	5776
2026-01-16 00:42:08.43	168.13	9.57	-37.9	-38.9	21.9	0.00e+00	89	28	0	155189248	50	5690
2026-01-16 00:42:12.47	168.23	9.91	-38.1	-39.2	21.7	0.00e+00	77	28	0	162529280	50	5846
2026-01-16 00:42:16.51	168.33	10.26	-37.9	-39.0	22.0	0.00e+00	0	28	0	169869312	50	5734
2026-01-16 00:42:20.54	168.44	10.62	-37.4	-38.4	22.4	0.00e+00	92	28	0	178257920	48	6027
2026-01-16 00:42:24.58	168.55	10.98	-37.4	-38.3	22.5	0.00e+00	90	28	0	185597952	48	5954
2026-01-16 00:42:28.61	168.66	11.34	-37.2	-38.2	22.7	0.00e+00	0	28	0	192937984	48	5866
2026-01-16 00:42:32.65	168.77	11.71	-37.1	-38.0	22.9	0.00e+00	0	28	0	200278016	48	5746
2026-01-16 00:42:36.69	168.89	12.09	-37.3	-38.2	22.8	0.00e+00	24	28	0	207618048	48	5876
2026-01-16 00:42:40.73	169.01	12.47	-36.7	-37.6	23.2	0.00e+00	92	28	0	216006656	46	6111
2026-01-16 00:42:44.76	169.13	12.86	-36.4	-37.3	23.4	0.00e+00	0	28	0	223346688	46	5935
2026-01-16 00:42:48.80	169.25	13.26	-36.3	-37.1	23.6	0.00e+00	84	28	0	230686720	46	5811
2026-01-16 00:42:52.84	169.38	13.66	-36.2	-37.1	23.5	0.00e+00	86	28	0	238026752	46	5784
2026-01-16 00:42:56.87	169.51	14.07	-36.2	-37.1	23.5	0.00e+00	92	28	0	245366784	46	5812
2026-01-16 00:43:00.91	169.64	14.48	-36.2	-37.0	23.3	0.00e+00	0	28	0	253755392	46	5760
2026-01-16 00:43:04.95	169.78	14.90	-36.1	-37.0	23.7	0.00e+00	92	28	0	261095424	46	5697
2026-01-16 00:43:08.98	169.92	15.33	-36.0	-36.9	23.8	0.00e+00	89	28	0	268435456	46	5666
2026-01-16 00:43:13.02	170.06	15.77	-36.0	-36.9	23.7	0.00e+00	0	28	0	275775488	46	5650
2026-01-16 00:43:17.06	170.21	16.21	-36.3	-37.2	23.5	0.00e+00	0	28	0	284164096	46	5887
2026-01-16 00:43:21.09	170.36	16.67	-36.6	-37.5	23.4	0.00e+00	92	28	0	291504128	46	6068
2026-01-16 00:43:25.13	170.52	17.13	-36.9	-37.9	22.9	0.00e+00	92	28	0	298844160	46	6322
2026-01-16 00:43:29.16	170.68	17.60	-37.0	-38.0	23.0	0.00e+00	0	28	0	306184192	46	6410
2026-01-16 00:43:33.20	170.84	18.08	-37.2	-38.2	22.9	0.00e+00	0	28	0	313524224	46	6550
2026-01-16 00:43:37.23	171.01	18.56	-37.6	-38.7	22.4	0.00e+00	91	28	0	321912832	48	6186
2026-01-16 00:43:41.27	171.19	19.06	-37.8	-38.8	22.2	0.00e+00	90	28	0	329252864	48	6316
2026-01-16 00:43:45.31	171.37	19.57	-38.4	-39.5	21.8	0.00e+00	0	28	0	336592896	48	6815
2026-01-16 00:43:49.35	171.56	20.09	-38.5	-39.6	21.7	0.00e+00	92	28	0	343932928	48	6920
2026-01-16 00:43:53.38	171.75	20.61	-37.9	-39.0	22.2	0.00e+00	91	28	0	352321536	48	6405
2026-01-16 00:43:57.42	171.95	21.15	-38.1	-39.1	22.2	0.00e+00	92	28	0	359661568	48	6539
2026-01-16 00:44:01.45	172.15	21.71	-38.2	-39.3	22.1	0.00e+00	0	28	0	367001600	48	6656
2026-01-16 00:44:05.49	172.36	22.27	-38.1	-39.1	22.2	0.00e+00	92	28	0	374341632	48	6529
2026-01-16 00:44:09.53	172.58	22.84	-38.0	-39.0	22.2	0.00e+00	92	28	0	381681664	48	6419
2026-01-16 00:44:13.57	172.81	23.43	-37.7	-38.7	22.6	0.00e+00	90	28	0	390070272	48	6196
2026-01-16 00:44:17.60	173.04	24.03	-38.1	-39.2	22.0	0.00e+00	0	28	0	397410304	48	6581
2026-01-16 00:44:21.64	173.29	24.65	-37.6	-38.6	22.5	0.00e+00	92	28	0	404750336	48	6147
2026-01-16 00:44:25.68	173.54	25.28	-37.8	-38.8	22.4	0.00e+00	90	28	0	412090368	48	6298
2026-01-16 00:44:29.71	173.80	25.92	-37.8	-38.8	22.5	0.00e+00	0	28	0	420478976	48	6267
2026-01-16 00:44:33.75	174.08	26.58	-37.5	-38.4	22.7	0.00e+00	0	28	0	427819008	48	6025
2026-01-16 00:44:37.79	174.36	27.26	-37.6	-38.5	22.8	0.00e+00	92	28	0	435159040	48	6082
2026-01-16 00:44:41.83	174.66	27.95	-37.4	-38.4	22.8	0.00e+00	92	28	0	442499072	48	5982
2026-01-16 00:44:45.86	174.97	28.66	-37.4	-38.3	22.9	0.00e+00	0	28	0	449839104	48	5935
2026-01-16 00:44:49.90	175.29	29.39	-37.2	-38.2	22.9	0.00e+00	92	28	0	458227712	46	6542
2026-01-16 00:44:53.94	175.63	30.13	-38.0	-39.0	22.4	0.00e+00	92	28	0	465567744	48	6415
2026-01-16 00:44:57.97	175.98	30.89	-38.5	-39.6	22.1	0.00e+00	92	28	0	472907776	48	6853
2026-01-16 00:45:02.01	176.35	31.68	-39.8	-41.0	20.7	0.00e+00	0	28	0	480247808	52	6450
2026-01-16 00:45:06.04	176.73	32.48	-40.2	-41.6	20.2	0.00e+00	92	28	0	488636416	52	6851
2026-01-16 00:45:10.08	177.14	33.30	-40.3	-41.6	20.0	0.00e+00	92	28	0	495976448	52	6922
2026-01-16 00:45:14.12	177.56	34.15	-39.2	-40.3	21.1	0.00e+00	0	28	0	503316480	52	5959
2026-01-16 00:45:18.15	178.01	35.01	-38.0	-39.0	22.5	0.00e+00	0	28	0	510656512	50	5696
2026-01-16 00:45:22.19	178.48	35.90	-39.0	-40.2	21.3	0.00e+00	92	28	0	517996544	50	6589
2026-01-16 00:45:26.23	178.98	36.81	-40.3	-41.8	20.0	0.00e+00	92	28	0	526385152	54	6275
2026-01-16 00:45:30.25	179.50	37.75	-41.3	-43.0	19.0	0.00e+00	0	28	0	533725184	54	7221
2026-01-16 00:45:34.29	180.05	38.71	-39.8	-41.1	20.4	0.00e+00	0	28	0	541065216	52	6502
2026-01-16 00:45:38.33	180.64	39.69	-41.0	-42.6	19.3	0.00e+00	92	28	0	548405248	54	6867
2026-01-16 00:45:42.36	181.27	40.70	-40.8	-42.3	19.4	0.00e+00	92	28	0	555745280	54	6677
2026-01-16 00:45:46.40	181.93	41.74	-40.2	-41.6	20.1	0.00e+00	0	28	0	564133888	54	6123
2026-01-16 00:45:50.44	182.64	42.80	-38.7	-39.8	21.6	0.00e+00	92	28	0	571473920	50	6255
2026-01-16 00:45:54.48	183.39	43.88	-39.7	-41.0	20.9	0.00e+00	92	28	0	578813952	52	6462
2026-01-16 00:45:58.52	184.20	45.00	-39.7	-41.0	20.6	0.00e+00	92	28	0	586153984	52	6463
2026-01-16 00:46:02.55	185.07	46.13	-40.0	-41.4	20.2	0.00e+00	0	28	0	594542592	52	6759
2026-01-16 00:46:06.59	186.00	47.29	-39.2	-40.4	21.2	0.00e+00	92	28	0	601882624	52	6031
2026-01-16 00:46:10.62	186.99	48.48	-38.0	-39.0	22.2	0.00e+00	92	28	0	609222656	50	5748
2026-01-16 00:46:14.66	188.08	49.69	-38.1	-39.2	22.3	0.00e+00	0	28	0	616562688	48	6548
2026-01-16 00:46:18.70	189.25	50.92	-37.1	-38.2	23.1	0.00e+00	57	28	0	623902720	48	5839
2026-01-16 00:46:22.73	190.51	52.16	-37.1	-38.1	23.1	0.00e+00	92	28	0	632291328	48	5763
2026-01-16 00:46:26.77	191.89	53.43	-37.7	-38.8	22.6	0.00e+00	91	28	0	639631360	46	7010
2026-01-16 00:46:30.81	193.39	54.71	-34.9	-35.7	24.7	0.00e+00	0	28	0	646971392	44	5549
2026-01-16 00:46:34.85	195.04	56.00	-34.2	-34.9	25.4	0.00e+00	92	28	0	654311424	42	5677
2026-01-16 00:46:38.88	196.84	57.30	-33.8	-34.6	25.6	0.00e+00	92	28	0	661651456	42	5464
2026-01-16 00:46:42.91	198.81	58.59	-34.9	-35.6	24.9	0.00e+00	91	28	0	670040064	42	6163
2026-01-16 00:46:46.95	201.00	59.89	-34.9	-35.7	24.8	0.00e+00	0	28	0	677380096	44	5559
2026-01-16 00:46:50.98	203.40	61.16	-36.7	-37.7	23.5	0.00e+00	91	28	0	684720128	46	6192
2026-01-16 00:46:55.02	206.06	62.42	-36.1	-36.9	24.0	0.00e+00	87	28	0	692060160	46	5695
2026-01-16 00:46:59.06	209.01	63.63	-33.8	-34.5	25.7	0.00e+00	0	28	0	700448768	42	5406
2026-01-16 00:47:03.09	212.26	64.80	-35.5	-36.3	24.3	0.00e+00	0	28	0	707788800	42	6651
2026-01-16 00:47:07.13	215.87	65.91	-36.6	-37.5	23.4	0.00e+00	91	28	0	715128832	44	6805
2026-01-16 00:47:11.16	219.83	66.94	-36.9	-37.8	23.1	0.00e+00	92	28	0	722468864	46	6294
2026-01-16 00:47:15.20	224.19	67.86	-39.4	-40.6	21.2	0.00e+00	0	28	0	729808896	52	6128
2026-01-16 00:47:19.24	228.93	68.67	-39.6	-41.0	20.6	0.00e+00	71	28	0	738197504	52	6398
2026-01-16 00:47:23.28	234.04	69.35	-39.8	-41.1	20.6	0.00e+00	92	28	0	745537536	52	6495
2026-01-16 00:47:27.32	239.48	69.86	-38.2	-39.3	22.1	0.00e+00	92	28	0	752877568	48	6646
2026-01-16 00:47:31.36	245.16	70.20	-37.2	-38.2	23.2	0.00e+00	0	28	0	760217600	48	5849
2026-01-16 00:47:35.39	250.99	70.35	-36.9	-37.8	23.4	0.00e+00	90	28	0	768606208	46	6266
2026-01-16 00:47:39.43	256.86	70.31	-37.6	-38.6	22.8	0.00e+00	92	28	0	775946240	48	6153
2026-01-16 00:47:43.46	262.63	70.08	-38.3	-39.4	21.8	0.00e+00	0	28	0	783286272	48	6732
2026-01-16 00:47:47.50	268.22	69.67	-42.5	-44.6	17.6	0.00e+00	0	28	0	790626304	56	7712
2026-01-16 00:47:51.54	273.53	69.09	-43.2	-45.6	17.1	0.00e+00	92	28	0	797966336	60	6856
2026-01-16 00:47:55.57	278.48	68.37	-38.4	-39.4	22.0	0.00e+00	90	28	0	806354944	50	6026
2026-01-16 00:47:59.61	283.06	67.51	-37.0	-37.9	23.3	0.00e+00	0	28	0	813694976	46	6381
2026-01-16 00:48:03.65	287.26	66.54	-35.1	-35.9	24.6	0.00e+00	0	28	0	821035008	44	5657
2026-01-16 00:48:07.69	291.08	65.48	-34.7	-35.5	25.0	0.00e+00	92	28	0	828375040	42	6055
2026-01-16 00:48:11.72	294.53	64.35	-34.6	-35.4	25.0	0.00e+00	90	28	0	835715072	42	6025
2026-01-16 00:48:15.76	297.66	63.16	-35.2	-36.0	24.7	0.00e+00	0	28	0	844103680	44	5722
2026-01-16 00:48:19.79	300.48	61.93	-34.9	-35.7	24.8	0.00e+00	26	28	0	851443712	42	6239
2026-01-16 00:48:23.82	303.03	60.67	-35.5	-36.4	24.3	0.00e+00	89	27	0	858783744	42	6718
2026-01-16 00:48:27.86	305.34	59.39	-34.9	-35.7	24.8	0.00e+00	0	28	0	866123776	42	6217
2026-01-16 00:48:31.89	307.43	58.10	-33.0	-33.7	26.0	0.00e+00	0	27	0	874512384	40	5564
2026-01-16 00:48:35.92	309.33	56.81	-35.0	-35.9	24.5	0.00e+00	91	28	0	881852416	42	6336
2026-01-16 00:48:39.96	311.07	55.52	-34.4	-35.3	24.9	0.00e+00	90	28	0	889192448	40	6656
2026-01-16 00:48:43.99	312.65	54.24	-32.7	-33.5	26.2	0.00e+00	0	28	0	896532480	38	6094
2026-01-16 00:48:48.03	314.10	52.97	-33.9	-34.8	25.1	0.00e+00	0	28	0	903872512	40	6309
2026-01-16 00:48:52.07	315.43	51.71	-35.0	-35.9	24.6	0.00e+00	81	28	0	912261120	42	6337
2026-01-16 00:48:56.10	316.66	50.47	-36.9	-38.2	23.0	0.00e+00	48	28	0	919601152	46	6554
2026-01-16 00:49:00.14	317.79	49.26	-39.0	-40.5	20.7	0.00e+00	0	28	0	926941184	50	6818
2026-01-16 00:49:04.18	318.84	48.06	-38.2	-39.6	22.1	0.00e+00	1	28	0	934281216	50	6105
2026-01-16 00:49:08.22	319.81	46.89	-35.2	-36.0	24.6	0.00e+00	92	28	0	942669824	42	6461
2026-01-16 00:49:12.25	320.71	45.74	-37.8	-38.9	22.4	0.00e+00	0	28	0	950009856	48	6373
2026-01-16 00:49:16.28	321.55	44.62	-36.4	-37.4	23.7	0.00e+00	0	28	0	957349888	46	5969
2026-01-16 00:49:20.32	322.34	43.52	-39.7	-41.3	20.4	0.00e+00	44	28	0	964689920	50	7462
2026-01-16 00:49:24.35	323.08	42.45	-36.0	-36.8	24.4	0.00e+00	93	28	0	972029952	46	5610
2026-01-16 00:49:28.39	323.77	41.41	-36.7	-37.7	22.8	0.00e+00	0	28	0	980418560	46	6188
2026-01-16 00:49:32.42	324.41	40.39	-36.9	-38.0	23.2	0.00e+00	0	27	0	987758592	48	5716
2026-01-16 00:49:36.46	325.02	39.39	-34.7	-35.4	25.0	0.00e+00	48	27	0	995098624	44	5355
2026-01-16 00:49:40.50	325.60	38.42	-37.9	-38.9	22.3	0.00e+00	91	28	0	1002438656	48	6375
2026-01-16 00:49:44.53	326.14	37.47	-36.4	-37.3	23.9	0.00e+00	0	28	0	1009778688	46	5920
2026-01-16 00:49:48.56	326.66	36.55	-35.2	-36.0	24.5	0.00e+00	0	28	0	1018167296	44	5731
2026-01-16 00:49:52.60	327.14	35.65	-36.0	-36.9	24.1	0.00e+00	7	28	0	1025507328	44	6322
2026-01-16 00:49:56.63	327.61	34.78	-36.9	-37.9	23.4	0.00e+00	0	28	0	1032847360	46	6322
2026-01-16 00:50:00.67	328.04	33.92	-38.9	-40.1	21.4	0.00e+00	0	27	0	1040187392	50	6475
2026-01-16 00:50:04.70	328.46	33.09	-40.2	-41.6	20.3	0.00e+00	86	28	0	1048576000	52	6876
2026-01-16 00:50:08.74	328.86	32.28	-37.1	-38.0	23.1	0.00e+00	86	27	0	1055916032	48	5733
2026-01-16 00:50:12.78	329.24	31.48	-37.7	-38.7	22.6	0.00e+00	0	28	0	1063256064	48	6189
2026-01-16 00:50:16.82	329.60	30.71	-38.2	-39.3	22.1	0.00e+00	0	28	0	1070596096	48	6676
2026-01-16 00:50:20.85	329.95	29.96	-38.1	-39.2	22.3	0.00e+00	85	28	0	1077936128	48	6540
2026-01-16 00:50:24.89	330.28	29.22	-38.5	-39.5	22.0	0.00e+00	83	28	0	1086324736	48	6815
2026-01-16 00:50:28.92	330.60	28.51	-37.8	-38.8	22.6	0.00e+00	0	28	0	1093664768	48	6298
2026-01-16 00:50:32.96	330.91	27.81	-36.3	-37.2	23.8	0.00e+00	0	28	0	1101004800	46	5861
2026-01-16 00:50:37.00	331.20	27.12	-35.8	-36.6	24.0	0.00e+00	86	28	0	1108344832	44	6164
2026-01-16 00:50:41.04	331.48	26.46	-35.8	-36.6	24.0	0.00e+00	71	28	0	1115684864	44	6163
2026-01-16 00:50:45.07	331.75	25.81	-36.3	-37.2	23.7	0.00e+00	0	28	0	1124073472	44	6567
2026-01-16 00:50:49.11	332.01	25.17	-36.9	-37.9	23.2	0.00e+00	0	27	0	1131413504	46	6375
2026-01-16 00:50:53.15	332.26	24.55	-37.1	-38.1	22.9	0.00e+00	9	28	0	1138753536	46	6531
2026-01-16 00:50:57.18	332.50	23.94	-36.5	-37.5	23.5	0.00e+00	0	28	0	1146093568	46	6063
2026-01-16 00:51:01.22	332.74	23.34	-36.2	-37.1	23.8	0.00e+00	0	27	0	1154482176	46	5828
2026-01-16 00:51:05.26	332.96	22.76	-35.5	-36.4	24.2	0.00e+00	3	28	0	1161822208	44	6008
2026-01-16 00:51:09.30	333.18	22.19	-35.1	-35.9	24.6	0.00e+00	0	27	0	1169162240	44	5659
2026-01-16 00:51:13.33	333.39	21.64	-34.8	-35.6	24.8	0.00e+00	0	28	0	1176502272	42	6128
2026-01-16 00:51:17.37	333.60	21.09	-35.7	-36.6	24.0	0.00e+00	0	27	0	1183842304	42	6849
2026-01-16 00:51:21.41	333.80	20.56	-35.4	-36.3	24.2	0.00e+00	92	28	0	1192230912	44	5932
2026-01-16 00:51:25.44	333.99	20.04	-35.6	-36.5	24.1	0.00e+00	0	27	0	1199570944	44	6088
2026-01-16 00:51:29.48	334.17	19.52	-35.5	-36.4	24.2	0.00e+00	0	28	0	1206910976	44	5995
2026-01-16 00:51:33.52	334.35	19.02	-35.8	-36.7	24.0	0.00e+00	0	28	0	1214251008	44	6184
2026-01-16 00:51:37.56	334.53	18.53	-36.4	-37.3	23.4	0.00e+00	88	27	0	1222639616	44	6666
2026-01-16 00:51:41.59	334.70	18.05	-36.6	-37.6	23.3	0.00e+00	0	28	0	1229979648	46	6134
2026-01-16 00:51:45.62	334.87	17.57	-36.6	-37.5	23.3	0.00e+00	0	27	0	1237319680	46	6098
2026-01-16 00:51:49.65	335.03	17.11	-36.1	-37.0	23.7	0.00e+00	0	27	0	1244659712	46	5709
2026-01-16 00:51:53.69	335.18	16.65	-35.9	-36.8	23.8	0.00e+00	0	27	0	1251999744	46	5603
2026-01-16 00:51:57.72	335.34	16.20	-35.8	-36.7	23.9	0.00e+00	0	27	0	1260388352	44	6203
2026-01-16 00:52:01.76	335.48	15.76	-36.0	-36.9	23.5	0.00e+00	0	27	0	1267728384	44	6354
2026-01-16 00:52:05.80	335.63	15.33	-36.4	-37.3	23.4	0.00e+00	76	27	0	1275068416	44	6644
2026-01-16 00:52:09.83	335.77	14.91	-36.7	-37.7	23.1	0.00e+00	0	27	0	1282408448	46	6216
2026-01-16 00:52:13.85	335.91	14.49	-37.1	-38.1	22.8	0.00e+00	0	27	0	1289748480	46	6474
2026-01-16 00:52:17.89	336.04	14.08	-37.7	-38.7	22.1	0.00e+00	0	27	0	1298137088	46	6983
2026-01-16 00:52:21.92	336.17	13.68	-37.8	-38.9	22.1	0.00e+00	87	27	0	1305477120	48	6336
2026-01-16 00:52:25.96	336.30	13.28	-37.9	-39.1	21.8	0.00e+00	0	27	0	1312817152	48	6492
2026-01-16 00:52:30.00	336.43	12.89	-38.2	-39.4	21.5	0.00e+00	0	28	0	1320157184	48	6743
2026-01-16 00:52:34.03	336.55	12.50	-38.4	-39.6	21.4	0.00e+00	0	27	0	1328545792	48	6891
2026-01-16 00:52:38.06	336.67	12.12	-38.3	-39.4	21.5	0.00e+00	81	27	0	1335885824	48	6768
2026-01-16 00:52:42.10	336.79	11.75	-38.2	-39.3	21.7	0.00e+00	0	27	0	1343225856	48	6690
2026-01-16 00:52:46.14	336.90	11.38	-38.1	-39.3	21.6	0.00e+00	0	27	0	1350565888	48	6643
2026-01-16 00:52:50.17	337.02	11.02	-37.8	-38.9	21.9	0.00e+00	81	28	0	1357905920	48	6342
2026-01-16 00:52:54.21	337.13	10.66	-37.7	-38.8	22.0	0.00e+00	2	27	0	1366294528	48	6296
2026-01-16 00:52:58.24	337.23	10.31	-37.8	-38.9	22.0	0.00e+00	0	27	0	1373634560	48	6330
2026-01-16 00:53:02.28	337.34	9.96	-37.5	-38.6	22.2	0.00e+00	0	27	0	1380974592	48	6118
2026-01-16 00:53:06.32	337.44	9.62	-37.5	-38.6	22.1	0.00e+00	46	27	0	1388314624	48	6107
2026-01-16 00:53:10.35	337.55	9.28	-37.4	-38.4	22.2	0.00e+00	0	27	0	1396703232	48	6031
2026-01-16 00:53:14.39	337.65	8.95	-37.6	-38.7	22.0	0.00e+00	0	27	0	1404043264	48	6203
2026-01-16 00:53:18.43	337.74	8.62	-37.6	-38.7	21.9	0.00e+00	0	27	0	1411383296	48	6226
2026-01-16 00:53:22.46	337.84	8.29	-37.7	-38.8	21.9	0.00e+00	69	28	0	1418723328	48	6306
2026-01-16 00:53:26.50	337.94	7.97	-37.9	-39.1	21.5	0.00e+00	0	27	0	1426063360	48	6465
2026-01-16 00:53:30.53	338.03	7.66	-37.9	-39.0	21.6	0.00e+00	0	27	0	1434451968	48	6413
2026-01-16 00:53:34.57	338.12	7.34	-38.0	-39.1	21.5	0.00e+00	9	27	0	1441792000	48	6536
2026-01-16 00:53:38.60	338.21	7.03	-38.0	-39.1	21.5	0.00e+00	92	27	0	1449132032	48	6525
2026-01-16 00:53:42.63	338.30	6.73	-38.1	-39.2	21.3	0.00e+00	0	27	0	1456472064	48	6605
2026-01-16 00:53:46.67	338.39	6.43	-38.5	-39.8	20.8	0.00e+00	0	27	0	1463812096	48	7018
2026-01-16 00:53:50.70	338.47	6.13	-37.8	-38.9	21.4	0.00e+00	1	27	0	1472200704	48	6381
2026-01-16 00:53:54.74	338.56	5.83	-38.3	-39.5	20.9	0.00e+00	0	27	0	1479540736	48	6809
2026-01-16 00:53:58.78	338.64	5.54	-38.6	-40.0	20.2	0.00e+00	0	27	0	1486880768	48	7195
2026-01-16 00:54:02.81	338.72	5.25	-39.3	-40.9	18.8	0.00e+00	0	27	0	1494220800	50	7137
2026-01-16 00:54:06.85	338.80	4.97	-40.6	-42.7	16.7	0.00e+00	87	27	0	1502609408	52	7830
2026-01-16 00:54:10.89	338.88	4.68	-42.0	-45.4	13.4	6.80e-06	0	27	0	1509949440	56	8517
2026-01-16 00:54:14.92	338.96	4.40	-42.9	-48.5	9.1	1.21e-02	0	27	0	1517289472	58	10798
2026-01-16 00:54:18.95	339.03	4.13	-43.3	-51.7	5.0	5.18e-01	0	27	0	1524629504	58	15605
2026-01-16 00:54:22.99	339.11	3.85	-43.3	-56.0	3.6	1.47e+00	0	27	104	1528823808	58	25496
2026-01-16 00:54:27.03	339.18	3.58	-43.3	-57.5	3.6	1.51e+00	0	28	104	1528823808	58	30259
2026-01-16 00:54:31.07	339.26	3.31	-43.3	-58.2	3.6	1.51e+00	0	27	104	1528823808	58	32957
2026-01-16 00:54:35.10	339.33	3.05	-43.4	-58.4	3.6	1.51e+00	0	27	104	1528823808	58	33859
2026-01-16 00:54:39.14	339.40	2.78	-47.9	-63.1	3.6	1.51e+00	0	27	104	1528823808	60	51904
2026-01-16 00:54:43.18	339.47	2.52	-48.3	-63.5	3.6	1.51e+00	0	27	104	1528823808	60	53916
2026-01-16 00:54:47.21	339.54	2.26	-47.8	-63.3	3.6	1.51e+00	0	27	104	1528823808	60	52634
2026-01-16 00:54:51.25	339.61	2.01	-48.1	-63.3	3.6	1.51e+00	0	27	104	1528823808	60	53004
2026-01-16 00:54:55.29	339.68	1.75	-48.1	-63.3	3.6	1.51e+00	0	28	104	1528823808	60	52804
2026-01-16 00:54:59.32	339.75	1.50	-48.1	-63.3	3.6	1.51e+00	0	27	104	1528823808	60	52852
2026-01-16 00:55:03.36	339.82	1.25	-48.1	-63.3	3.6	1.51e+00	0	27	104	1528823808	60	53056
2026-01-16 00:55:07.40	339.88	1.00	-48.1	-63.3	3.6	1.51e+00	0	27	104	1528823808	60	52619
2026-01-16 00:55:11.44	339.95	0.76	-48.2	-63.4	3.6	1.51e+00	0	28	104	1528823808	60	53450
2026-01-16 00:55:15.47	340.01	0.51	-48.1	-63.3	3.6	1.51e+00	0	27	104	1528823808	60	52774
2026-01-16 00:55:19.52	340.07	0.27	-48.2	-63.4	3.6	1.51e+00	0	27	104	1528823808	60	53370
2026-01-16 00:55:23.56	340.14	0.03	-48.2	-63.4	3.6	1.51e+00	0	28	104	1528823808	60	53429

#Closed at: 2026-01-16 00:55:24
#Recorded file [1528 MB]: D:/lorett/data/35029_260116_123955.dat