passes_logs/2026/01/16/R4.6S_Anadyr/R4.6S_Anadyr__20260116_104351_JILIN-1_GAOFEN_03D18_rec.log

#Pass ID: 20260116_104351_JILIN-1 GAOFEN 03D18
#Satellite: JILIN-1 GAOFEN 03D18
#Configuration: 03D_900M
#almurnet v.1.7.20251203
#Start time: 2026-01-16 10:43:56

#Version: 2.2.20231116
#Station: R4.6S_Anadyr
#Location: 177.4865 lon 64.73178 lat
#TLE: 1 51844U 22019W   26015.99084038  .00057806  00000+0  63512-3 0  9996
#TLE: 2 51844  97.3774 105.5255 0006093 305.4524  54.6166 15.62998352216080

#Time	Az	El	Level	Level2	SNR	BER	BlckErr	Temp	State	Recorded	gain1	gain2
2026-01-16 10:43:56.36	171.35	0.43	-48.3	-60.0	3.5	8.45e-01	0	26	0	0	60	35985
2026-01-16 10:43:59.38	171.43	0.64	-45.1	-47.5	6.1	0.00e+00	0	27	104	0	60	28959
2026-01-16 10:44:02.41	171.52	0.84	-44.5	-46.8	6.1	0.00e+00	0	28	104	0	60	26898
2026-01-16 10:44:05.44	171.60	1.05	-44.2	-46.6	6.1	0.00e+00	0	28	104	0	60	26159
2026-01-16 10:44:08.47	171.69	1.26	-43.5	-46.0	6.1	0.00e+00	0	28	104	0	60	24351
2026-01-16 10:44:11.50	171.78	1.47	-43.0	-45.4	6.1	0.00e+00	0	28	104	0	60	22815
2026-01-16 10:44:14.53	171.87	1.69	-43.0	-45.4	6.1	0.00e+00	0	28	104	0	60	22707
2026-01-16 10:44:17.56	171.97	1.90	-43.0	-45.4	6.1	0.00e+00	0	28	104	0	60	22848
2026-01-16 10:44:20.59	172.06	2.12	-43.0	-45.3	6.1	0.00e+00	0	28	104	0	60	22629
2026-01-16 10:44:23.62	172.16	2.35	-42.9	-45.3	6.1	0.00e+00	0	28	104	0	60	22554
2026-01-16 10:44:26.65	172.26	2.57	-43.0	-45.3	6.1	0.00e+00	0	28	104	0	60	22637
2026-01-16 10:44:29.67	172.36	2.80	-42.9	-45.4	6.1	0.00e+00	0	28	104	0	60	22710
2026-01-16 10:44:32.70	172.46	3.03	-43.0	-45.4	6.1	0.00e+00	0	28	104	0	60	22689
2026-01-16 10:44:35.73	172.57	3.26	-43.0	-45.4	6.1	0.00e+00	0	28	104	0	60	22722
2026-01-16 10:44:38.76	172.67	3.50	-42.9	-45.3	6.1	0.00e+00	0	28	104	0	60	22674
2026-01-16 10:44:41.79	172.78	3.74	-42.9	-45.3	6.1	0.00e+00	0	28	104	0	60	22593
2026-01-16 10:44:44.82	172.89	3.98	-42.9	-45.3	6.1	0.00e+00	0	29	104	0	60	22531
2026-01-16 10:44:47.84	173.01	4.23	-42.9	-45.3	6.1	0.00e+00	0	28	104	0	60	22486
2026-01-16 10:44:50.87	173.13	4.48	-42.9	-45.3	6.1	0.00e+00	0	29	104	0	60	22546
2026-01-16 10:44:53.90	173.25	4.73	-43.1	-45.5	6.1	0.00e+00	0	28	104	0	60	23001
2026-01-16 10:44:56.93	173.37	4.99	-43.4	-45.8	6.1	0.00e+00	0	29	104	0	60	23851
2026-01-16 10:44:59.96	173.49	5.25	-43.4	-45.8	6.1	0.00e+00	0	29	104	0	60	23897
2026-01-16 10:45:02.98	173.62	5.52	-43.5	-45.9	6.1	0.00e+00	0	29	104	0	60	24257
2026-01-16 10:45:06.02	173.75	5.79	-43.5	-45.8	6.1	0.00e+00	0	29	104	0	60	23972
2026-01-16 10:45:09.04	173.89	6.06	-43.6	-46.0	6.1	0.00e+00	0	29	104	0	60	24565
2026-01-16 10:45:12.07	174.03	6.34	-43.6	-46.0	6.1	0.00e+00	0	29	104	0	60	24520
2026-01-16 10:45:15.10	174.17	6.62	-43.5	-46.0	6.1	0.00e+00	0	29	104	0	60	24359
2026-01-16 10:45:18.13	174.31	6.91	-43.6	-46.0	6.1	0.00e+00	0	29	104	0	60	24370
2026-01-16 10:45:21.16	174.46	7.20	-43.7	-46.0	6.1	0.00e+00	0	29	104	0	60	24473
2026-01-16 10:45:24.18	174.61	7.50	-43.7	-46.1	6.1	0.00e+00	0	29	104	0	60	24675
2026-01-16 10:45:27.22	174.77	7.80	-43.5	-45.9	6.1	0.00e+00	0	29	104	0	60	24261
2026-01-16 10:45:30.24	174.93	8.11	-43.7	-46.1	6.1	0.00e+00	0	29	104	0	60	24581
2026-01-16 10:45:33.27	175.10	8.43	-43.6	-46.0	6.1	0.00e+00	0	29	104	0	60	24332
2026-01-16 10:45:36.30	175.27	8.75	-43.7	-46.0	6.1	0.00e+00	0	29	104	0	60	24546
2026-01-16 10:45:39.33	175.45	9.08	-43.7	-46.0	6.1	0.00e+00	0	29	104	0	60	24566
2026-01-16 10:45:42.36	175.63	9.41	-43.6	-46.0	6.1	0.00e+00	0	29	104	0	60	24318
2026-01-16 10:45:45.39	175.81	9.75	-43.8	-46.2	6.1	0.00e+00	0	29	104	0	60	25048
2026-01-16 10:45:48.42	176.01	10.10	-43.9	-46.3	6.1	0.00e+00	0	29	104	0	60	25415
2026-01-16 10:45:51.45	176.21	10.45	-43.9	-46.2	6.1	0.00e+00	0	29	104	0	60	25139
2026-01-16 10:45:54.47	176.41	10.82	-43.8	-46.2	6.1	0.00e+00	0	29	104	0	60	25086
2026-01-16 10:45:57.50	176.62	11.19	-43.8	-46.3	6.1	0.00e+00	0	29	104	0	60	25178
2026-01-16 10:46:00.53	176.84	11.57	-44.0	-46.4	6.1	0.00e+00	0	29	104	0	60	25591
2026-01-16 10:46:03.56	177.07	11.96	-43.9	-46.3	6.1	0.00e+00	0	29	104	0	60	25284
2026-01-16 10:46:06.59	177.30	12.36	-43.8	-46.2	6.1	0.00e+00	0	29	104	0	60	25115
2026-01-16 10:46:09.63	177.54	12.77	-43.9	-46.3	6.1	0.00e+00	0	29	104	0	60	25339
2026-01-16 10:46:12.66	177.79	13.18	-43.9	-46.3	6.1	0.00e+00	0	29	104	0	60	25351
2026-01-16 10:46:15.68	178.05	13.61	-43.8	-46.3	6.1	0.00e+00	0	29	104	0	60	25347
2026-01-16 10:46:18.71	178.32	14.05	-43.8	-46.3	6.1	0.00e+00	0	29	104	0	60	25223
2026-01-16 10:46:21.74	178.60	14.50	-43.8	-46.2	6.1	0.00e+00	0	29	104	0	60	24979
2026-01-16 10:46:24.77	178.89	14.97	-44.0	-46.4	6.1	0.00e+00	0	29	104	0	60	25599
2026-01-16 10:46:27.80	179.19	15.45	-44.0	-46.4	6.1	0.00e+00	0	29	104	0	60	25658
2026-01-16 10:46:30.83	179.51	15.94	-44.1	-46.5	6.1	0.00e+00	0	29	104	0	60	25805
2026-01-16 10:46:33.86	179.83	16.44	-44.0	-46.4	6.1	0.00e+00	0	29	104	0	60	25559
2026-01-16 10:46:36.89	180.17	16.96	-44.2	-46.5	6.1	0.00e+00	0	29	104	0	60	25977
2026-01-16 10:46:39.92	180.53	17.50	-44.0	-46.5	6.1	0.00e+00	0	29	104	0	60	25760
2026-01-16 10:46:42.95	180.90	18.05	-44.1	-46.5	6.1	0.00e+00	0	29	104	0	60	25778
2026-01-16 10:46:45.98	181.29	18.62	-44.1	-46.4	6.1	0.00e+00	0	29	104	0	60	25721
2026-01-16 10:46:49.01	181.69	19.20	-44.1	-46.5	6.1	0.00e+00	0	29	104	0	60	25968
2026-01-16 10:46:52.04	182.12	19.81	-44.2	-46.6	6.0	0.00e+00	0	29	104	0	60	26156
2026-01-16 10:46:55.08	182.57	20.44	-44.2	-46.5	6.1	0.00e+00	0	29	104	0	60	25984
2026-01-16 10:46:58.11	183.04	21.09	-44.0	-46.4	6.1	0.00e+00	0	29	104	0	60	25616
2026-01-16 10:47:01.14	183.53	21.76	-44.2	-46.6	6.1	0.00e+00	0	29	104	0	60	26245
2026-01-16 10:47:04.16	184.05	22.45	-44.2	-46.5	6.1	0.00e+00	0	29	104	0	60	25965
2026-01-16 10:47:07.19	184.59	23.16	-44.1	-46.5	6.1	0.00e+00	0	29	104	0	60	25929
2026-01-16 10:47:10.22	185.17	23.91	-44.1	-46.5	6.1	0.00e+00	0	29	104	0	60	25941
2026-01-16 10:47:13.25	185.78	24.67	-44.1	-46.5	6.1	0.00e+00	0	29	104	0	60	26005
2026-01-16 10:47:16.28	186.42	25.47	-44.1	-46.6	6.1	0.00e+00	0	29	104	0	60	26199
2026-01-16 10:47:19.31	187.11	26.30	-44.1	-46.5	6.1	0.00e+00	0	29	104	0	60	25797
2026-01-16 10:47:22.34	187.83	27.15	-44.1	-46.5	6.1	0.00e+00	0	29	104	0	60	25739
2026-01-16 10:47:25.37	188.60	28.04	-44.1	-46.6	6.1	0.00e+00	0	29	104	0	60	26124
2026-01-16 10:47:28.40	189.42	28.97	-44.1	-46.5	6.1	0.00e+00	0	29	104	0	60	25824
2026-01-16 10:47:31.43	190.30	29.92	-44.0	-46.5	6.1	0.00e+00	0	29	104	0	60	25898
2026-01-16 10:47:34.46	191.24	30.91	-44.1	-46.6	6.1	0.00e+00	0	29	104	0	60	26111
2026-01-16 10:47:37.49	192.24	31.94	-44.1	-46.6	6.1	0.00e+00	0	29	104	0	60	26122
2026-01-16 10:47:40.52	193.32	33.00	-44.1	-46.5	6.1	0.00e+00	0	29	104	0	60	25923
2026-01-16 10:47:43.55	194.47	34.11	-44.2	-46.6	6.1	0.00e+00	0	29	104	0	60	26229
2026-01-16 10:47:46.58	195.72	35.24	-44.2	-46.6	6.1	0.00e+00	0	29	104	0	60	26096
2026-01-16 10:47:49.61	197.06	36.42	-44.1	-46.6	6.1	0.00e+00	0	29	104	0	60	26297
2026-01-16 10:47:52.64	198.52	37.63	-44.3	-46.7	6.1	0.00e+00	0	30	104	0	60	26499
2026-01-16 10:47:55.67	200.09	38.88	-44.2	-46.7	6.1	0.00e+00	0	29	104	0	60	26388
2026-01-16 10:47:58.70	201.81	40.15	-44.4	-46.7	6.1	0.00e+00	0	30	104	0	60	26600
2026-01-16 10:48:01.73	203.67	41.46	-44.3	-46.8	6.1	0.00e+00	0	30	104	0	60	26682
2026-01-16 10:48:04.75	205.69	42.78	-44.5	-46.9	6.1	0.00e+00	0	30	104	0	60	27238
2026-01-16 10:48:07.78	207.90	44.12	-44.3	-46.8	6.1	0.00e+00	0	30	104	0	60	26665
2026-01-16 10:48:10.81	210.31	45.47	-44.5	-46.9	6.1	0.00e+00	0	30	104	0	60	27002
2026-01-16 10:48:13.84	212.95	46.81	-44.4	-46.8	6.1	0.00e+00	0	30	104	0	60	26941
2026-01-16 10:48:16.87	215.83	48.13	-44.2	-46.7	6.1	0.00e+00	0	30	104	0	60	26501
2026-01-16 10:48:19.90	218.98	49.41	-44.3	-46.9	6.1	0.00e+00	0	30	104	0	60	26958
2026-01-16 10:48:22.93	222.40	50.64	-44.6	-47.1	6.1	0.00e+00	0	30	104	0	60	27584
2026-01-16 10:48:25.96	226.11	51.80	-44.4	-46.9	6.0	0.00e+00	0	30	104	0	60	27094
2026-01-16 10:48:28.99	230.11	52.85	-44.4	-47.0	6.1	0.00e+00	0	30	104	0	60	27325
2026-01-16 10:48:32.02	234.40	53.77	-44.3	-46.7	6.1	0.00e+00	0	30	104	0	60	26627
2026-01-16 10:48:35.05	238.96	54.55	-44.0	-46.8	6.1	0.00e+00	0	30	104	0	60	26691
2026-01-16 10:48:38.08	243.75	55.15	-44.5	-47.1	6.1	0.00e+00	0	30	104	0	60	27668
2026-01-16 10:48:41.11	248.71	55.56	-44.4	-46.8	6.1	0.00e+00	0	30	104	0	60	26794
2026-01-16 10:48:44.14	253.78	55.76	-44.0	-46.6	6.1	0.00e+00	0	30	104	0	60	26247
2026-01-16 10:48:47.16	258.87	55.74	-44.2	-46.6	6.1	0.00e+00	0	30	104	0	60	26194
2026-01-16 10:48:50.19	263.93	55.52	-44.2	-46.7	6.0	0.00e+00	0	30	104	0	60	26337
2026-01-16 10:48:53.22	268.87	55.08	-43.8	-46.4	6.1	0.00e+00	0	30	104	0	60	25600
2026-01-16 10:48:56.25	273.62	54.46	-43.5	-46.4	6.1	0.00e+00	0	30	104	0	60	25556
2026-01-16 10:48:59.28	278.13	53.66	-44.0	-46.4	6.1	0.00e+00	0	30	104	0	60	25482
2026-01-16 10:49:02.31	282.38	52.72	-44.0	-46.4	6.1	0.00e+00	0	30	104	0	60	25650
2026-01-16 10:49:05.33	286.32	51.66	-43.7	-46.3	6.0	0.00e+00	0	30	104	0	60	25416
2026-01-16 10:49:08.37	290.00	50.50	-43.5	-46.4	6.1	0.00e+00	0	30	104	0	60	25470
2026-01-16 10:49:11.39	293.36	49.27	-44.0	-46.4	6.1	0.00e+00	0	30	104	0	60	25711
2026-01-16 10:49:14.42	296.46	47.99	-43.8	-46.3	6.1	0.00e+00	0	30	104	0	60	25413
2026-01-16 10:49:17.45	299.30	46.67	-43.8	-46.4	6.1	0.00e+00	0	30	104	0	60	25534
2026-01-16 10:49:20.48	301.90	45.34	-43.6	-46.5	6.1	0.00e+00	0	30	104	0	60	25892
2026-01-16 10:49:23.51	304.28	44.00	-44.0	-46.6	6.1	0.00e+00	0	30	104	0	60	26231
2026-01-16 10:49:26.54	306.46	42.67	-44.1	-46.6	6.1	0.00e+00	0	30	104	0	60	26122
2026-01-16 10:49:29.57	308.46	41.35	-43.9	-46.6	6.1	0.00e+00	0	30	104	0	60	26066
2026-01-16 10:49:32.59	310.29	40.06	-44.2	-46.7	6.1	0.00e+00	0	30	104	0	60	26460
2026-01-16 10:49:35.63	311.99	38.79	-43.9	-46.6	6.1	0.00e+00	0	30	104	0	60	26172
2026-01-16 10:49:38.66	313.54	37.56	-44.3	-46.8	6.1	0.00e+00	0	30	104	0	60	26689
2026-01-16 10:49:41.69	314.98	36.36	-44.2	-46.7	6.1	0.00e+00	0	31	104	0	60	26578
2026-01-16 10:49:44.72	316.31	35.19	-44.4	-46.8	6.1	0.00e+00	0	30	104	0	60	26716
2026-01-16 10:49:47.75	317.54	34.07	-44.1	-46.7	6.1	0.00e+00	0	30	104	0	60	26610
2026-01-16 10:49:50.78	318.68	32.98	-44.3	-46.7	6.1	0.00e+00	0	31	104	0	60	26503
2026-01-16 10:49:53.81	319.75	31.92	-44.4	-46.9	6.1	0.00e+00	0	31	104	0	60	27023
2026-01-16 10:49:56.83	320.74	30.91	-44.6	-47.0	6.1	0.00e+00	0	30	104	0	60	27513
2026-01-16 10:49:59.86	321.66	29.93	-44.5	-47.0	6.1	0.00e+00	0	31	104	0	60	27382
2026-01-16 10:50:02.88	322.53	28.99	-44.5	-46.8	6.1	0.00e+00	0	31	104	0	60	26906
2026-01-16 10:50:05.91	323.34	28.07	-44.4	-46.8	6.1	0.00e+00	0	31	104	0	60	26944
2026-01-16 10:50:08.94	324.11	27.20	-44.5	-46.9	6.1	0.00e+00	0	31	104	0	60	27024
2026-01-16 10:50:11.97	324.82	26.35	-44.4	-46.8	6.1	0.00e+00	0	31	104	0	60	26864
2026-01-16 10:50:15.00	325.50	25.53	-44.5	-46.9	6.1	0.00e+00	0	31	104	0	60	27113
2026-01-16 10:50:18.03	326.14	24.74	-44.4	-46.8	6.0	0.00e+00	0	31	104	0	60	26876
2026-01-16 10:50:21.06	326.75	23.98	-44.5	-46.8	6.1	0.00e+00	0	31	104	0	60	26944
2026-01-16 10:50:24.08	327.32	23.24	-44.4	-46.8	6.1	0.00e+00	0	31	104	0	60	26818
2026-01-16 10:50:27.11	327.86	22.53	-44.4	-46.8	6.1	0.00e+00	0	31	104	0	60	26829
2026-01-16 10:50:30.14	328.37	21.85	-44.4	-46.8	6.1	0.00e+00	0	31	104	0	60	26712
2026-01-16 10:50:33.17	328.86	21.19	-44.3	-46.7	6.0	0.00e+00	0	31	104	0	60	26468
2026-01-16 10:50:36.20	329.33	20.54	-44.4	-46.8	6.1	0.00e+00	0	31	104	0	60	26922
2026-01-16 10:50:39.23	329.77	19.92	-44.3	-46.7	6.1	0.00e+00	0	31	104	0	60	26363
2026-01-16 10:50:42.26	330.20	19.32	-44.2	-46.6	6.1	0.00e+00	0	31	104	0	60	26274
2026-01-16 10:50:45.29	330.60	18.74	-44.3	-46.8	6.1	0.00e+00	0	31	104	0	60	26665
2026-01-16 10:50:48.32	330.99	18.17	-44.3	-46.7	6.1	0.00e+00	0	31	104	0	60	26470
2026-01-16 10:50:51.35	331.36	17.63	-44.3	-46.6	6.1	0.00e+00	0	31	104	0	60	26266
2026-01-16 10:50:54.37	331.71	17.10	-44.2	-46.6	6.1	0.00e+00	0	31	104	0	60	26095
2026-01-16 10:50:57.40	332.05	16.58	-44.2	-46.6	6.1	0.00e+00	0	31	104	0	60	26038
2026-01-16 10:51:00.43	332.38	16.08	-44.2	-46.6	6.1	0.00e+00	0	31	104	0	60	26081
2026-01-16 10:51:03.46	332.69	15.59	-44.2	-46.6	6.1	0.00e+00	0	31	104	0	60	26129
2026-01-16 10:51:06.49	332.99	15.12	-44.2	-46.6	6.1	0.00e+00	0	31	104	0	60	26121
2026-01-16 10:51:09.51	333.28	14.66	-44.1	-46.6	6.1	0.00e+00	0	31	104	0	60	26055
2026-01-16 10:51:12.54	333.56	14.21	-44.2	-46.6	6.1	0.00e+00	0	31	104	0	60	26170
2026-01-16 10:51:15.57	333.83	13.77	-44.2	-46.6	6.1	0.00e+00	0	31	104	0	60	26117
2026-01-16 10:51:18.60	334.09	13.35	-44.0	-46.5	6.1	0.00e+00	0	31	104	0	60	25771
2026-01-16 10:51:21.63	334.34	12.93	-44.0	-46.5	6.1	0.00e+00	0	31	104	0	60	25741
2026-01-16 10:51:24.66	334.58	12.53	-44.1	-46.5	6.1	0.00e+00	0	31	104	0	60	25932
2026-01-16 10:51:27.69	334.81	12.13	-44.1	-46.5	6.1	0.00e+00	0	31	104	0	60	25869
2026-01-16 10:51:30.72	335.04	11.74	-44.0	-46.4	6.1	0.00e+00	0	31	104	0	60	25522
2026-01-16 10:51:33.75	335.26	11.37	-44.0	-46.4	6.1	0.00e+00	0	31	104	0	60	25545
2026-01-16 10:51:36.78	335.47	11.00	-43.9	-46.3	6.1	0.00e+00	0	31	104	0	60	25285
2026-01-16 10:51:39.81	335.67	10.63	-44.0	-46.4	6.1	0.00e+00	0	31	104	0	60	25521
2026-01-16 10:51:42.83	335.87	10.28	-43.9	-46.3	6.1	0.00e+00	0	31	104	0	60	25365
2026-01-16 10:51:45.86	336.07	9.94	-44.0	-46.4	6.1	0.00e+00	0	31	104	0	60	25476
2026-01-16 10:51:48.89	336.25	9.60	-43.9	-46.3	6.1	0.00e+00	0	31	104	0	60	25160
2026-01-16 10:51:51.92	336.43	9.26	-44.0	-46.4	6.1	0.00e+00	0	31	104	0	60	25666
2026-01-16 10:51:54.95	336.61	8.94	-43.8	-46.2	6.1	0.00e+00	0	31	104	0	60	24928
2026-01-16 10:51:57.98	336.78	8.62	-43.9	-46.3	6.1	0.00e+00	0	31	104	0	60	25282
2026-01-16 10:52:01.01	336.95	8.31	-43.8	-46.1	6.1	0.00e+00	0	31	104	0	60	24833
2026-01-16 10:52:04.03	337.11	8.00	-43.9	-46.3	6.1	0.00e+00	0	31	104	0	60	25238
2026-01-16 10:52:07.06	337.27	7.70	-43.7	-46.1	6.1	0.00e+00	0	31	104	0	60	24683
2026-01-16 10:52:10.09	337.42	7.40	-43.7	-46.1	6.1	0.00e+00	0	31	104	0	60	24842
2026-01-16 10:52:13.12	337.57	7.11	-43.6	-46.0	6.1	0.00e+00	0	31	104	0	60	24447
2026-01-16 10:52:16.15	337.72	6.82	-43.7	-46.1	6.1	0.00e+00	0	31	104	0	60	24805
2026-01-16 10:52:19.18	337.86	6.54	-43.4	-45.8	6.1	0.00e+00	0	31	104	0	60	24019
2026-01-16 10:52:22.21	338.00	6.26	-43.6	-46.0	6.1	0.00e+00	0	31	104	0	60	24438
2026-01-16 10:52:25.24	338.14	5.99	-43.0	-45.4	6.1	0.00e+00	0	31	104	0	60	22936
2026-01-16 10:52:28.27	338.27	5.72	-42.3	-44.7	6.1	0.00e+00	0	31	104	0	60	21097
2026-01-16 10:52:31.30	338.40	5.46	-40.8	-43.2	6.1	0.00e+00	0	31	104	0	56	22365
2026-01-16 10:52:34.32	338.53	5.20	-41.1	-43.5	6.1	0.00e+00	0	31	104	0	58	20541
2026-01-16 10:52:37.35	338.65	4.94	-40.5	-43.0	6.1	0.00e+00	0	31	104	0	56	21704
2026-01-16 10:52:40.39	338.77	4.69	-40.4	-42.9	6.0	0.00e+00	0	31	104	0	56	21454
2026-01-16 10:52:43.42	338.89	4.44	-40.6	-43.0	6.1	0.00e+00	0	31	104	0	56	21732
2026-01-16 10:52:46.45	339.01	4.20	-40.4	-42.9	6.1	0.00e+00	0	31	104	0	56	21410
2026-01-16 10:52:49.47	339.12	3.95	-40.4	-42.8	6.1	0.00e+00	0	31	104	0	56	21395
2026-01-16 10:52:52.50	339.23	3.71	-40.5	-42.9	6.1	0.00e+00	0	31	104	0	56	21545
2026-01-16 10:52:55.53	339.34	3.48	-40.5	-43.0	6.1	0.00e+00	0	31	104	0	56	21660
2026-01-16 10:52:58.56	339.45	3.25	-40.7	-43.1	6.1	0.00e+00	0	31	104	0	56	22140
2026-01-16 10:53:01.59	339.55	3.02	-40.7	-43.1	6.1	0.00e+00	0	32	104	0	56	22123
2026-01-16 10:53:04.62	339.66	2.79	-44.6	-47.0	6.1	0.00e+00	0	31	104	0	60	27360
2026-01-16 10:53:07.65	339.76	2.57	-44.9	-47.3	6.1	0.00e+00	0	31	104	0	60	28230
2026-01-16 10:53:10.68	339.86	2.34	-44.5	-46.9	6.1	0.00e+00	0	31	104	0	60	27190
2026-01-16 10:53:13.71	339.95	2.12	-44.6	-46.9	6.1	0.00e+00	0	32	104	0	60	27252
2026-01-16 10:53:16.74	340.05	1.91	-44.5	-46.9	6.1	0.00e+00	0	32	104	0	60	27121
2026-01-16 10:53:19.77	340.14	1.69	-44.5	-46.9	6.1	0.00e+00	0	32	104	0	60	27125
2026-01-16 10:53:22.80	340.23	1.48	-44.9	-47.2	6.1	0.00e+00	0	32	104	0	60	28190
2026-01-16 10:53:25.83	340.32	1.27	-44.7	-47.0	6.1	0.00e+00	0	32	104	0	60	27554
2026-01-16 10:53:28.86	340.41	1.07	-44.6	-47.0	6.1	0.00e+00	0	32	104	0	60	27369
2026-01-16 10:53:31.89	340.50	0.86	-44.6	-47.0	6.1	0.00e+00	0	32	104	0	60	27424
2026-01-16 10:53:34.91	340.58	0.66	-45.0	-47.4	6.1	0.00e+00	0	32	104	0	60	28600
2026-01-16 10:53:37.94	340.67	0.46	-45.0	-47.4	6.1	0.00e+00	0	31	104	0	60	28654
2026-01-16 10:53:40.97	340.75	0.26	-45.1	-47.4	6.1	0.00e+00	0	32	104	0	60	28730
2026-01-16 10:53:44.00	340.83	0.06	-45.3	-47.7	6.1	0.00e+00	0	32	104	0	60	29720
2026-01-16 10:53:47.03	340.91	-0.14	-44.9	-47.3	6.1	0.00e+00	0	32	104	0	60	28305

#Closed at: 2026-01-16 10:53:47
#Recorded file [0 MB]: D:/lorett/data/35029_260116_224356.dat