passes_logs/2026/01/16/R4.6S_Anadyr/R4.6S_Anadyr__20260116_174535_AQUA_rec.log

#Pass ID: 20260116_174535_AQUA
#Satellite: AQUA
#Configuration: AQUA
#almurnet v.1.7.20251203
#Start time: 2026-01-16 17:45:38

#Version: 2.2.20231116
#Station: R4.6S_Anadyr
#Location: 177.4865 lon 64.73178 lat
#TLE: 1 27424U 02022A   26015.92015591  .00000664  00000+0  14289-3 0  9993
#TLE: 2 27424  98.4082 342.3630 0002020  77.1389  16.3168 14.61822470261023

#Time	Az	El	Level	Level2	SNR	BER	BlckErr	Temp	State	Recorded	gain1	gain2
2026-01-16 17:45:38.14	22.21	0.15	-47.9	-59.6	3.5	8.45e-01	0	25	0	0	60	34459
2026-01-16 17:45:42.18	22.05	0.39	-48.6	-66.6	3.5	3.02e+01	0	26	104	0	60	82104
2026-01-16 17:45:46.22	21.88	0.63	-48.3	-66.2	3.5	3.02e+01	0	27	104	0	60	78918
2026-01-16 17:45:50.26	21.72	0.88	-47.8	-65.7	3.5	3.02e+01	0	27	104	0	60	73795
2026-01-16 17:45:54.30	21.55	1.12	-46.9	-64.7	3.5	3.02e+01	0	27	104	0	60	65827
2026-01-16 17:45:58.34	21.37	1.37	-46.8	-64.6	3.5	3.02e+01	0	27	104	0	60	65234
2026-01-16 17:46:02.38	21.19	1.62	-46.8	-64.8	3.5	3.02e+01	0	27	104	0	60	66499
2026-01-16 17:46:06.41	21.01	1.87	-46.8	-64.6	3.5	3.02e+01	0	27	104	0	60	65593
2026-01-16 17:46:10.45	20.83	2.13	-46.8	-64.7	3.5	3.02e+01	0	27	104	0	60	66192
2026-01-16 17:46:14.49	20.64	2.38	-46.8	-64.5	3.5	3.02e+01	0	27	104	0	60	64532
2026-01-16 17:46:18.53	20.44	2.64	-46.8	-64.7	3.5	3.02e+01	0	27	104	0	60	65976
2026-01-16 17:46:22.56	20.25	2.90	-46.8	-64.5	3.5	3.02e+01	0	27	104	0	60	64340
2026-01-16 17:46:26.60	20.04	3.17	-46.8	-64.4	3.5	3.02e+01	0	27	104	0	60	63908
2026-01-16 17:46:30.64	19.84	3.43	-45.2	-59.0	3.6	3.02e+01	0	27	104	0	60	34411
2026-01-16 17:46:34.68	19.63	3.70	-41.1	-52.3	3.5	3.02e+01	0	27	104	0	56	19862
2026-01-16 17:46:38.72	19.41	3.97	-43.4	-55.6	3.5	3.02e+01	0	27	104	0	56	29315
2026-01-16 17:46:42.75	19.19	4.25	-38.2	-48.8	3.5	3.02e+01	0	27	104	0	52	16716
2026-01-16 17:46:46.79	18.97	4.52	-39.1	-49.8	3.6	3.02e+01	0	27	104	0	54	16867
2026-01-16 17:46:50.83	18.74	4.80	-38.5	-49.1	3.5	3.02e+01	0	27	104	0	52	17414
2026-01-16 17:46:54.87	18.50	5.09	-40.5	-51.5	3.5	3.02e+01	0	27	104	0	52	22838
2026-01-16 17:46:58.91	18.26	5.37	-41.3	-52.5	3.5	3.02e+01	0	27	104	0	52	25830
2026-01-16 17:47:02.95	18.01	5.66	-37.5	-48.0	3.5	3.02e+01	0	27	104	0	50	17271
2026-01-16 17:47:06.98	17.76	5.95	-46.0	-60.5	3.5	3.02e+01	0	27	104	0	60	40826
2026-01-16 17:47:11.02	17.51	6.25	-41.7	-52.9	3.5	3.02e+01	0	27	104	0	58	19002
2026-01-16 17:47:15.06	17.24	6.54	-46.0	-60.4	3.5	3.02e+01	0	27	104	0	60	40142
2026-01-16 17:47:19.11	16.97	6.85	-38.4	-49.0	3.5	3.02e+01	0	27	104	0	52	17242
2026-01-16 17:47:23.15	16.69	7.15	-38.0	-48.4	3.4	3.02e+01	0	27	104	0	52	16088
2026-01-16 17:47:27.18	16.41	7.46	-36.0	-37.4	27.0	3.02e+01	60	27	0	2621440	48	5682
2026-01-16 17:47:31.22	16.12	7.77	-35.8	-37.1	27.4	3.02e+01	59	27	0	9961472	46	6192
2026-01-16 17:47:35.26	15.82	8.08	-35.3	-36.6	27.9	3.02e+01	57	27	0	17825792	46	5810
2026-01-16 17:47:39.29	15.52	8.40	-35.2	-36.5	28.0	3.02e+01	60	27	0	25165824	46	5746
2026-01-16 17:47:43.33	15.20	8.72	-35.1	-36.4	28.1	3.02e+01	58	27	0	33030144	44	6375
2026-01-16 17:47:47.37	14.88	9.05	-34.8	-36.1	28.4	3.02e+01	59	27	0	40370176	44	6170
2026-01-16 17:47:51.40	14.55	9.38	-34.8	-36.1	28.3	3.02e+01	61	27	0	48234496	44	6146
2026-01-16 17:47:55.45	14.21	9.72	-35.1	-36.4	28.2	3.02e+01	55	27	0	55574528	44	6367
2026-01-16 17:47:59.48	13.87	10.05	-35.0	-36.3	28.0	3.02e+01	61	27	0	62914560	44	6301
2026-01-16 17:48:03.51	13.51	10.40	-35.2	-36.5	28.1	3.02e+01	59	27	0	70778880	44	6480
2026-01-16 17:48:07.55	13.15	10.74	-34.2	-35.4	29.0	3.02e+01	57	27	0	78118912	44	5700
2026-01-16 17:48:11.59	12.77	11.09	-34.3	-35.6	28.9	3.02e+01	48	27	0	85983232	44	5813
2026-01-16 17:48:15.63	12.39	11.45	-34.3	-35.6	28.9	3.02e+01	59	27	0	93323264	44	5813
2026-01-16 17:48:19.67	11.99	11.81	-34.2	-35.5	29.0	3.02e+01	58	27	0	101187584	44	5727
2026-01-16 17:48:23.71	11.58	12.17	-34.1	-35.4	29.1	3.02e+01	59	27	0	108527616	44	5663
2026-01-16 17:48:27.74	11.16	12.54	-34.1	-35.3	29.1	3.02e+01	46	27	0	116391936	44	5644
2026-01-16 17:48:31.78	10.73	12.92	-34.0	-35.2	29.3	3.02e+01	61	27	0	123731968	42	6268
2026-01-16 17:48:35.82	10.29	13.30	-34.0	-35.2	29.3	3.02e+01	52	27	0	131072000	42	6235
2026-01-16 17:48:39.86	9.83	13.68	-33.9	-35.1	29.4	3.02e+01	58	27	0	138936320	42	6175
2026-01-16 17:48:43.90	9.36	14.07	-33.9	-35.1	29.4	3.02e+01	52	27	0	146276352	42	6144
2026-01-16 17:48:47.94	8.88	14.46	-33.7	-34.9	29.6	3.02e+01	59	27	0	154140672	42	6043
2026-01-16 17:48:51.98	8.38	14.86	-33.7	-34.9	29.7	3.02e+01	52	27	0	161480704	42	6001
2026-01-16 17:48:56.02	7.87	15.27	-33.7	-34.9	29.6	3.02e+01	51	27	0	169345024	42	6056
2026-01-16 17:49:00.06	7.34	15.68	-33.8	-35.0	29.6	3.02e+01	49	27	0	176685056	42	6109
2026-01-16 17:49:04.09	6.80	16.09	-33.5	-34.7	29.8	3.02e+01	57	27	0	184549376	42	5911
2026-01-16 17:49:08.13	6.23	16.51	-33.7	-34.9	29.6	3.02e+01	44	27	0	191889408	42	6011
2026-01-16 17:49:12.17	5.65	16.94	-33.7	-34.9	29.7	3.02e+01	60	27	0	199229440	42	6061
2026-01-16 17:49:16.21	5.06	17.37	-33.6	-34.8	29.8	3.02e+01	58	27	0	207093760	42	5932
2026-01-16 17:49:20.24	4.44	17.80	-33.7	-34.9	29.7	3.02e+01	57	27	0	214433792	42	6054
2026-01-16 17:49:24.28	3.81	18.24	-34.0	-35.2	29.5	3.02e+01	60	27	0	222298112	42	6215
2026-01-16 17:49:28.32	3.15	18.69	-34.0	-35.2	29.5	3.02e+01	58	27	0	229638144	42	6226
2026-01-16 17:49:32.36	2.47	19.14	-33.9	-35.1	29.6	3.02e+01	59	27	0	237502464	42	6159
2026-01-16 17:49:36.39	1.78	19.60	-33.5	-34.7	29.9	3.02e+01	59	27	0	244842496	42	5898
2026-01-16 17:49:40.43	1.05	20.06	-33.9	-35.1	29.7	3.02e+01	58	27	0	252706816	42	6146
2026-01-16 17:49:44.48	0.31	20.53	-33.9	-35.1	29.6	3.02e+01	59	27	0	260046848	42	6166
2026-01-16 17:49:48.52	359.54	21.00	-34.2	-35.4	29.4	3.02e+01	59	27	0	267386880	42	6369
2026-01-16 17:49:52.55	358.74	21.47	-34.0	-35.2	29.6	3.02e+01	62	27	0	275251200	42	6221
2026-01-16 17:49:56.59	357.92	21.95	-34.0	-35.2	29.5	3.02e+01	55	27	0	282591232	42	6276
2026-01-16 17:50:00.64	357.06	22.43	-33.9	-35.1	29.6	3.02e+01	57	27	0	290455552	42	6161
2026-01-16 17:50:04.67	356.19	22.91	-34.1	-35.3	29.5	3.02e+01	56	27	0	297795584	42	6292
2026-01-16 17:50:08.71	355.28	23.40	-34.1	-35.3	29.5	3.02e+01	58	27	0	305659904	42	6337
2026-01-16 17:50:12.75	354.34	23.89	-34.2	-35.4	29.5	3.02e+01	61	27	0	312999936	42	6366
2026-01-16 17:50:16.79	353.37	24.38	-34.1	-35.3	29.6	3.02e+01	60	27	0	320864256	42	6341
2026-01-16 17:50:20.82	352.37	24.87	-34.2	-35.4	29.5	3.02e+01	59	27	0	328204288	42	6361
2026-01-16 17:50:24.86	351.33	25.37	-34.1	-35.3	29.5	3.02e+01	46	27	0	335544320	42	6303
2026-01-16 17:50:28.90	350.26	25.86	-33.9	-35.1	29.8	3.02e+01	59	27	0	343408640	42	6159
2026-01-16 17:50:32.94	349.15	26.35	-33.8	-35.0	29.8	3.02e+01	47	27	0	350748672	42	6128
2026-01-16 17:50:36.98	348.00	26.84	-34.0	-35.2	29.6	3.02e+01	59	27	0	358612992	42	6246
2026-01-16 17:50:41.01	346.83	27.33	-33.8	-34.9	29.9	3.02e+01	61	27	0	365953024	42	6061
2026-01-16 17:50:45.05	345.61	27.81	-33.6	-34.8	30.0	3.02e+01	55	27	0	373817344	42	5971
2026-01-16 17:50:49.09	344.35	28.28	-33.6	-34.7	30.0	3.02e+01	53	27	0	381157376	42	5924
2026-01-16 17:50:53.13	343.05	28.75	-33.4	-34.5	30.2	3.02e+01	60	27	0	389021696	42	5783
2026-01-16 17:50:57.17	341.71	29.22	-33.4	-34.6	30.2	3.02e+01	50	27	0	396361728	42	5809
2026-01-16 17:51:01.21	340.33	29.67	-33.2	-34.4	30.3	3.02e+01	57	27	0	403701760	42	5694
2026-01-16 17:51:05.24	338.92	30.11	-33.2	-34.4	30.4	3.02e+01	50	27	0	411566080	42	5683
2026-01-16 17:51:09.28	337.46	30.53	-33.4	-34.5	30.3	3.02e+01	58	27	0	418906112	42	5788
2026-01-16 17:51:13.32	335.96	30.95	-33.3	-34.5	30.3	3.02e+01	46	27	0	426770432	42	5744
2026-01-16 17:51:17.36	334.42	31.35	-33.3	-34.5	30.3	3.02e+01	58	27	0	434110464	42	5740
2026-01-16 17:51:21.40	332.84	31.73	-33.3	-34.4	30.4	3.02e+01	53	28	0	441974784	42	5711
2026-01-16 17:51:25.44	331.23	32.09	-33.3	-34.5	30.4	3.02e+01	58	28	0	449314816	42	5728
2026-01-16 17:51:29.48	329.57	32.42	-33.4	-34.6	30.2	3.02e+01	46	28	0	457179136	42	5820
2026-01-16 17:51:33.52	327.89	32.74	-33.5	-34.7	30.1	3.02e+01	60	28	0	464519168	42	5864
2026-01-16 17:51:37.56	326.16	33.03	-33.6	-34.8	30.1	3.02e+01	58	28	0	471859200	42	5955
2026-01-16 17:51:41.59	324.42	33.29	-33.5	-34.7	30.1	3.02e+01	58	28	0	479723520	42	5908
2026-01-16 17:51:45.63	322.64	33.53	-33.7	-34.9	30.0	3.02e+01	60	28	0	487063552	42	5998
2026-01-16 17:51:49.67	320.83	33.74	-33.9	-35.1	29.9	3.02e+01	55	28	0	494927872	42	6168
2026-01-16 17:51:53.71	319.01	33.92	-34.1	-35.3	29.7	3.02e+01	57	28	0	502267904	42	6330
2026-01-16 17:51:57.75	317.16	34.06	-34.0	-35.2	29.8	3.02e+01	54	28	0	510132224	42	6260
2026-01-16 17:52:01.79	315.30	34.17	-34.0	-35.2	29.8	3.02e+01	56	28	0	517472256	42	6242
2026-01-16 17:52:05.83	313.43	34.25	-34.3	-35.6	29.5	3.02e+01	60	28	0	525336576	42	6504
2026-01-16 17:52:09.87	311.55	34.30	-34.1	-35.3	29.7	3.02e+01	61	28	0	532676608	42	6290
2026-01-16 17:52:13.91	309.66	34.31	-34.7	-36.0	29.0	3.02e+01	54	28	0	540016640	44	6090
2026-01-16 17:52:17.95	307.78	34.28	-33.9	-35.1	29.8	3.02e+01	57	28	0	547880960	42	6150
2026-01-16 17:52:21.99	305.90	34.22	-34.8	-36.1	28.8	3.02e+01	60	28	0	555220992	44	6164
2026-01-16 17:52:26.03	304.03	34.13	-34.1	-35.4	29.3	3.02e+01	57	28	0	563085312	42	6366
2026-01-16 17:52:30.07	302.18	34.01	-34.5	-35.7	29.3	3.02e+01	58	28	0	570425344	42	6621
2026-01-16 17:52:34.11	300.34	33.85	-34.9	-36.2	28.9	3.02e+01	57	28	0	578289664	44	6237
2026-01-16 17:52:38.15	298.52	33.66	-34.7	-36.0	29.1	3.02e+01	58	28	0	585629696	44	6093
2026-01-16 17:52:42.19	296.72	33.44	-34.0	-35.2	29.8	3.02e+01	57	28	0	593494016	42	6257
2026-01-16 17:52:46.22	294.95	33.19	-34.9	-36.2	28.7	3.02e+01	49	28	0	600834048	42	7020
2026-01-16 17:52:50.26	293.21	32.91	-33.5	-34.6	30.0	3.02e+01	60	28	0	608174080	42	5855
2026-01-16 17:52:54.30	291.50	32.61	-34.6	-35.8	29.1	3.02e+01	46	28	0	616038400	44	5988
2026-01-16 17:52:58.34	289.82	32.29	-35.6	-37.0	28.0	3.02e+01	62	28	0	623378432	44	6822
2026-01-16 17:53:02.38	288.18	31.94	-34.5	-35.7	29.3	3.02e+01	58	28	0	631242752	44	5883
2026-01-16 17:53:06.42	286.58	31.57	-34.8	-36.1	28.9	3.02e+01	58	28	0	638582784	44	6141
2026-01-16 17:53:10.45	285.02	31.18	-35.5	-36.9	28.3	3.02e+01	55	28	0	646447104	44	6728
2026-01-16 17:53:14.49	283.49	30.78	-34.9	-36.1	28.8	3.02e+01	55	28	0	653787136	44	6180
2026-01-16 17:53:18.53	282.00	30.36	-34.1	-35.3	29.6	3.02e+01	53	28	0	661127168	44	5624
2026-01-16 17:53:22.57	280.56	29.92	-34.0	-35.2	29.4	3.02e+01	58	29	0	668991488	42	6206
2026-01-16 17:53:26.60	279.15	29.48	-35.4	-36.6	28.2	3.02e+01	44	29	0	676331520	46	5821
2026-01-16 17:53:30.64	277.79	29.02	-33.8	-34.9	29.7	3.02e+01	59	29	0	684195840	42	6040
2026-01-16 17:53:34.68	276.46	28.55	-35.4	-36.7	27.9	3.02e+01	45	29	0	691535872	44	6607
2026-01-16 17:53:38.73	275.17	28.08	-36.4	-37.7	27.3	3.02e+01	60	29	0	699400192	46	6648
2026-01-16 17:53:42.76	273.93	27.60	-34.3	-35.4	29.4	3.02e+01	46	29	0	706740224	44	5701
2026-01-16 17:53:46.80	272.72	27.11	-35.9	-37.2	27.9	3.02e+01	62	29	0	714604544	44	7011
2026-01-16 17:53:50.84	271.55	26.62	-35.4	-36.7	27.8	3.02e+01	56	29	0	721944576	46	5895
2026-01-16 17:53:54.88	270.42	26.13	-35.5	-36.7	28.2	3.02e+01	58	29	0	729284608	44	6619
2026-01-16 17:53:58.92	269.32	25.64	-34.7	-35.8	29.0	3.02e+01	58	29	0	737148928	44	5990
2026-01-16 17:54:02.95	268.26	25.14	-35.0	-36.2	28.9	3.02e+01	58	29	0	744488960	46	5543
2026-01-16 17:54:06.99	267.24	24.65	-34.7	-35.9	28.9	3.02e+01	57	29	0	752353280	44	6033
2026-01-16 17:54:11.03	266.24	24.16	-35.0	-36.2	28.6	3.02e+01	58	29	0	759693312	44	6268
2026-01-16 17:54:15.07	265.28	23.66	-35.0	-36.3	28.7	3.02e+01	60	29	0	767557632	44	6289
2026-01-16 17:54:19.11	264.35	23.17	-34.8	-36.0	29.0	3.02e+01	59	29	0	774897664	44	6121
2026-01-16 17:54:23.14	263.45	22.68	-35.0	-36.2	28.7	3.02e+01	61	29	0	782761984	44	6275
2026-01-16 17:54:27.18	262.58	22.20	-34.7	-35.9	29.0	3.02e+01	58	29	0	790102016	44	6057
2026-01-16 17:54:31.22	261.74	21.72	-34.9	-36.2	28.7	3.02e+01	60	29	0	797442048	44	6216
2026-01-16 17:54:35.25	260.93	21.24	-34.7	-35.9	29.0	3.02e+01	60	29	0	805306368	44	6030
2026-01-16 17:54:39.29	260.14	20.77	-34.9	-36.1	28.7	3.02e+01	59	29	0	812646400	44	6184
2026-01-16 17:54:43.32	259.38	20.30	-34.6	-35.9	29.0	3.02e+01	58	29	0	820510720	44	6013
2026-01-16 17:54:47.36	258.64	19.83	-34.9	-36.1	28.7	3.02e+01	56	29	0	827850752	44	6173
2026-01-16 17:54:51.40	257.92	19.37	-34.7	-36.0	28.9	3.02e+01	60	29	0	835715072	44	6075
2026-01-16 17:54:55.43	257.23	18.91	-34.8	-36.0	28.9	3.02e+01	59	29	0	843055104	44	6123
2026-01-16 17:54:59.47	256.56	18.46	-34.7	-35.9	28.9	3.02e+01	58	29	0	850919424	44	6021
2026-01-16 17:55:03.51	255.91	18.02	-34.4	-35.6	29.1	3.02e+01	62	29	0	858259456	44	5850
2026-01-16 17:55:07.55	255.28	17.58	-34.6	-35.8	29.0	3.02e+01	47	29	0	865599488	44	5949
2026-01-16 17:55:11.59	254.66	17.14	-34.7	-35.9	28.9	3.02e+01	57	29	0	873463808	44	6018
2026-01-16 17:55:15.63	254.07	16.71	-34.7	-35.9	28.9	3.02e+01	50	29	0	880803840	44	6037
2026-01-16 17:55:19.66	253.50	16.29	-34.6	-35.8	29.0	3.02e+01	59	29	0	888668160	44	5970
2026-01-16 17:55:23.70	252.94	15.87	-34.5	-35.8	29.0	3.02e+01	58	29	0	896008192	44	5928
2026-01-16 17:55:27.74	252.40	15.45	-34.6	-35.9	28.9	3.02e+01	61	29	0	903872512	44	5997
2026-01-16 17:55:31.78	251.87	15.05	-34.6	-35.8	28.9	3.02e+01	53	29	0	911212544	44	5946
2026-01-16 17:55:35.82	251.36	14.64	-34.8	-36.0	28.8	3.02e+01	60	29	0	919076864	44	6108
2026-01-16 17:55:39.85	250.87	14.24	-34.8	-36.1	28.6	3.02e+01	55	29	0	926416896	44	6143
2026-01-16 17:55:43.89	250.39	13.85	-34.8	-36.0	28.6	3.02e+01	57	29	0	933756928	44	6109
2026-01-16 17:55:47.93	249.92	13.46	-34.8	-36.0	28.6	3.02e+01	47	29	0	941621248	44	6127
2026-01-16 17:55:51.98	249.47	13.08	-35.2	-36.4	28.3	3.02e+01	56	29	0	948961280	44	6418
2026-01-16 17:55:56.02	249.03	12.70	-34.9	-36.2	28.5	3.02e+01	46	29	0	956825600	44	6229
2026-01-16 17:56:00.05	248.60	12.33	-35.0	-36.3	28.4	3.02e+01	59	30	0	964165632	44	6288
2026-01-16 17:56:04.09	248.18	11.96	-35.1	-36.3	28.4	3.02e+01	45	29	0	972029952	44	6327
2026-01-16 17:56:08.13	247.78	11.59	-35.3	-36.5	28.2	3.02e+01	56	29	0	979369984	44	6481
2026-01-16 17:56:12.17	247.38	11.23	-35.3	-36.6	28.1	3.02e+01	44	29	0	987234304	44	6550
2026-01-16 17:56:16.22	247.00	10.88	-35.5	-36.8	27.7	3.02e+01	53	30	0	994574336	44	6698
2026-01-16 17:56:20.26	246.62	10.53	-35.7	-37.0	27.7	3.02e+01	59	29	0	1001914368	44	6825
2026-01-16 17:56:24.29	246.26	10.18	-35.9	-37.3	27.4	3.02e+01	58	29	0	1009778688	46	6285
2026-01-16 17:56:28.33	245.90	9.84	-36.0	-37.3	27.2	3.02e+01	58	30	0	1017118720	46	6346
2026-01-16 17:56:32.37	245.56	9.50	-36.4	-37.8	26.8	3.02e+01	61	30	0	1024983040	46	6650
2026-01-16 17:56:36.42	245.22	9.17	-36.5	-37.9	26.6	3.02e+01	62	30	0	1032323072	46	6782
2026-01-16 17:56:40.45	244.89	8.84	-37.0	-38.4	26.1	3.02e+01	59	30	0	1040187392	48	6419
2026-01-16 17:56:44.49	244.57	8.52	-37.5	-38.9	25.6	3.02e+01	61	30	0	1047527424	48	6800
2026-01-16 17:56:48.53	244.26	8.19	-37.9	-39.4	25.1	3.02e+01	57	30	0	1054867456	50	6387
2026-01-16 17:56:52.56	243.95	7.88	-38.3	-40.0	24.4	3.02e+01	59	30	0	1062731776	50	6857
2026-01-16 17:56:56.60	243.65	7.56	-38.8	-40.5	24.0	3.02e+01	61	30	0	1070071808	50	7231
2026-01-16 17:57:00.64	243.36	7.25	-39.2	-41.1	23.4	3.02e+01	58	30	0	1077936128	52	6894
2026-01-16 17:57:04.68	243.08	6.94	-39.9	-41.8	22.7	3.02e+01	61	30	0	1085276160	52	7492
2026-01-16 17:57:08.71	242.80	6.64	-40.3	-42.3	22.1	3.02e+01	61	30	0	1093140480	54	7102
2026-01-16 17:57:12.75	242.53	6.34	-41.4	-43.9	20.6	3.02e+01	56	30	0	1100480512	56	7575
2026-01-16 17:57:16.79	242.27	6.04	-41.3	-43.9	20.6	3.02e+01	59	30	0	1108344832	56	7569
2026-01-16 17:57:20.83	242.01	5.75	-42.0	-44.8	19.5	3.02e+01	62	30	0	1115684864	58	7481
2026-01-16 17:57:24.87	241.76	5.46	-42.6	-45.9	18.4	3.02e+01	57	30	0	1123024896	58	8474
2026-01-16 17:57:28.91	241.51	5.17	-42.6	-46.6	17.5	3.02e+01	45	30	0	1130889216	58	9249
2026-01-16 17:57:32.95	241.27	4.89	-43.4	-47.6	16.5	3.02e+01	62	30	0	1138229248	60	9198
2026-01-16 17:57:36.98	241.03	4.60	-43.7	-48.5	15.4	3.02e+01	45	30	0	1146093568	60	10200
2026-01-16 17:57:41.02	240.80	4.33	-42.6	-50.4	13.4	3.02e+01	62	30	0	1153433600	60	12708
2026-01-16 17:57:45.06	240.58	4.05	-43.7	-51.8	11.7	3.02e+01	48	30	0	1161297920	60	14925
2026-01-16 17:57:49.10	240.35	3.78	-45.2	-53.0	10.3	3.02e+01	60	30	0	1168637952	60	17278
2026-01-16 17:57:53.13	240.14	3.50	-44.8	-53.8	9.2	3.02e+01	47	30	0	1176502272	60	18950
2026-01-16 17:57:57.18	239.93	3.24	-45.2	-55.2	7.5	3.02e+01	89	30	0	1183842304	60	22057
2026-01-16 17:58:01.21	239.72	2.97	-47.1	-65.0	3.5	3.02e+01	0	30	104	1190133760	60	68766
2026-01-16 17:58:05.25	239.52	2.71	-48.4	-66.2	3.5	3.02e+01	0	30	104	1190133760	60	78538
2026-01-16 17:58:09.29	239.32	2.45	-48.3	-66.2	3.5	3.02e+01	0	30	104	1190133760	60	78720
2026-01-16 17:58:13.33	239.12	2.19	-48.2	-66.0	3.5	3.02e+01	0	30	104	1190133760	60	77220
2026-01-16 17:58:17.37	238.93	1.93	-48.2	-66.1	3.5	3.02e+01	0	30	104	1190133760	60	77935
2026-01-16 17:58:21.40	238.74	1.68	-48.2	-66.1	3.5	3.02e+01	0	30	104	1190133760	60	77883
2026-01-16 17:58:25.44	238.56	1.43	-48.4	-66.3	3.5	3.02e+01	0	30	104	1190133760	60	79213
2026-01-16 17:58:29.48	238.38	1.18	-48.3	-66.2	3.5	3.02e+01	0	30	104	1190133760	60	78386
2026-01-16 17:58:33.52	238.20	0.93	-48.2	-66.1	3.5	3.02e+01	0	30	104	1190133760	60	77639
2026-01-16 17:58:37.56	238.03	0.68	-48.3	-66.2	3.5	3.02e+01	0	30	104	1190133760	60	78279
2026-01-16 17:58:41.60	237.86	0.44	-48.3	-66.2	3.5	3.02e+01	0	30	104	1190133760	60	78329
2026-01-16 17:58:45.64	237.69	0.20	-48.2	-66.1	3.5	3.02e+01	0	30	104	1190133760	60	77774
2026-01-16 17:58:49.68	237.53	-0.04	-48.5	-66.4	3.5	3.02e+01	0	31	104	1190133760	60	80171

#Closed at: 2026-01-16 17:58:50
#Recorded file [1190 MB]: D:/lorett/data/35029_260117_054538.dat