passes_logs/2026/01/16/R4.6S_Anadyr/R4.6S_Anadyr__20260116_192247_AQUA_rec.log

#Pass ID: 20260116_192247_AQUA
#Satellite: AQUA
#Configuration: AQUA
#almurnet v.1.7.20251203
#Start time: 2026-01-16 19:22:49

#Version: 2.2.20231116
#Station: R4.6S_Anadyr
#Location: 177.4865 lon 64.73178 lat
#TLE: 1 27424U 02022A   26015.92015591  .00000664  00000+0  14289-3 0  9993
#TLE: 2 27424  98.4082 342.3630 0002020  77.1389  16.3168 14.61822470261023

#Time	Az	El	Level	Level2	SNR	BER	BlckErr	Temp	State	Recorded	gain1	gain2
2026-01-16 19:22:49.84	29.64	0.12	-47.8	-59.4	3.5	8.46e-01	0	26	0	0	60	33844
2026-01-16 19:22:52.87	29.40	0.28	-48.7	-66.6	3.5	3.03e+01	0	27	104	0	60	81824
2026-01-16 19:22:55.90	29.17	0.44	-48.3	-66.3	3.5	3.03e+01	0	27	104	0	60	79188
2026-01-16 19:22:58.93	28.92	0.60	-48.1	-66.2	3.5	3.03e+01	0	27	104	0	60	78268
2026-01-16 19:23:01.96	28.68	0.75	-47.8	-65.8	3.5	3.03e+01	0	27	104	0	60	75048
2026-01-16 19:23:04.99	28.43	0.91	-47.2	-65.2	3.5	3.03e+01	0	27	104	0	60	69982
2026-01-16 19:23:08.02	28.18	1.07	-46.7	-64.6	3.5	3.03e+01	0	27	104	0	60	65678
2026-01-16 19:23:11.05	27.93	1.23	-46.6	-64.7	3.5	3.03e+01	0	27	104	0	60	65755
2026-01-16 19:23:14.08	27.67	1.39	-46.6	-64.6	3.5	3.03e+01	0	27	104	0	60	65574
2026-01-16 19:23:17.11	27.41	1.55	-46.7	-64.6	3.5	3.03e+01	0	27	104	0	60	65543
2026-01-16 19:23:20.14	27.15	1.72	-46.6	-64.6	3.5	3.03e+01	0	27	104	0	60	65025
2026-01-16 19:23:23.17	26.88	1.88	-46.6	-64.5	3.5	3.03e+01	0	27	104	0	60	64656
2026-01-16 19:23:26.20	26.61	2.04	-46.6	-64.6	3.5	3.03e+01	0	27	104	0	60	65438
2026-01-16 19:23:29.23	26.34	2.20	-46.6	-64.5	3.5	3.03e+01	0	27	104	0	60	64319
2026-01-16 19:23:32.26	26.06	2.37	-46.5	-64.1	3.5	3.03e+01	0	27	104	0	60	61739
2026-01-16 19:23:35.29	25.78	2.53	-46.6	-64.5	3.5	3.03e+01	0	27	104	0	60	64872
2026-01-16 19:23:38.32	25.49	2.69	-46.6	-64.6	3.5	3.03e+01	0	27	104	0	60	65284
2026-01-16 19:23:41.34	25.21	2.86	-46.5	-63.7	3.5	3.03e+01	0	27	104	0	60	59009
2026-01-16 19:23:44.37	24.92	3.02	-46.2	-62.6	3.5	3.03e+01	0	27	104	0	60	51723
2026-01-16 19:23:47.40	24.62	3.19	-42.5	-54.2	3.5	3.03e+01	0	28	104	0	60	19824
2026-01-16 19:23:50.43	24.32	3.35	-43.2	-55.3	3.5	3.03e+01	0	28	104	0	60	22515
2026-01-16 19:23:53.46	24.02	3.52	-46.4	-63.7	3.5	3.03e+01	0	28	104	0	60	58816
2026-01-16 19:23:56.49	23.71	3.69	-38.0	-48.5	3.5	3.03e+01	0	27	104	0	50	18277
2026-01-16 19:23:59.52	23.40	3.85	-41.2	-52.4	3.5	3.03e+01	0	27	104	0	56	20137
2026-01-16 19:24:02.54	23.09	4.02	-46.8	-64.4	3.5	3.03e+01	0	27	104	0	60	63667
2026-01-16 19:24:05.57	22.77	4.19	-38.9	-49.5	3.5	3.03e+01	0	28	104	0	54	16240
2026-01-16 19:24:08.60	22.45	4.35	-42.6	-54.2	3.5	3.03e+01	0	27	104	0	50	35088
2026-01-16 19:24:11.63	22.12	4.52	-40.9	-51.9	3.6	3.03e+01	0	27	104	0	58	16924
2026-01-16 19:24:14.66	21.79	4.69	-39.7	-50.4	3.6	3.03e+01	0	27	104	0	54	18095
2026-01-16 19:24:17.69	21.45	4.86	-41.9	-53.3	3.5	3.03e+01	0	27	104	0	54	25026
2026-01-16 19:24:20.71	21.11	5.03	-42.5	-54.0	3.6	3.03e+01	0	28	104	0	60	19282
2026-01-16 19:24:23.74	20.77	5.20	-37.3	-47.8	3.5	3.03e+01	0	27	104	0	50	16841
2026-01-16 19:24:26.77	20.42	5.37	-46.9	-64.2	3.5	3.03e+01	0	27	104	0	60	62550
2026-01-16 19:24:29.80	20.07	5.54	-38.1	-48.6	3.5	3.03e+01	0	28	104	0	52	16402
2026-01-16 19:24:32.83	19.71	5.71	-37.7	-48.2	3.5	3.03e+01	0	28	104	0	50	17494
2026-01-16 19:24:35.86	19.34	5.88	-46.2	-61.2	3.5	3.03e+01	0	27	104	0	60	44084
2026-01-16 19:24:38.88	18.98	6.05	-41.7	-53.0	3.4	3.03e+01	0	28	104	0	60	17249
2026-01-16 19:24:41.91	18.60	6.22	-39.2	-49.9	3.5	3.03e+01	0	28	104	0	54	17042
2026-01-16 19:24:44.94	18.23	6.39	-47.0	-64.8	3.5	3.03e+01	0	28	104	0	60	66528
2026-01-16 19:24:47.97	17.84	6.57	-38.9	-49.7	3.5	3.03e+01	0	27	104	0	54	16524
2026-01-16 19:24:51.00	17.45	6.74	-38.3	-48.8	3.5	3.03e+01	0	27	104	0	52	16862
2026-01-16 19:24:54.03	17.06	6.91	-47.1	-63.8	3.5	3.03e+01	0	28	104	0	60	59528
2026-01-16 19:24:57.06	16.66	7.08	-38.6	-49.2	3.5	3.03e+01	0	27	104	0	54	15606
2026-01-16 19:25:00.09	16.26	7.25	-39.6	-50.3	3.5	3.03e+01	0	27	104	0	52	19918
2026-01-16 19:25:03.11	15.85	7.42	-47.1	-63.7	3.5	3.03e+01	0	27	104	0	60	59196
2026-01-16 19:25:06.14	15.44	7.60	-40.6	-51.5	3.5	3.03e+01	0	28	104	0	56	18302
2026-01-16 19:25:09.17	15.02	7.77	-38.7	-49.3	3.5	3.03e+01	0	27	104	0	52	17735
2026-01-16 19:25:12.20	14.59	7.94	-47.2	-64.5	3.6	3.03e+01	0	28	104	0	60	64499
2026-01-16 19:25:15.23	14.16	8.11	-39.3	-50.0	3.5	3.03e+01	0	28	104	0	52	19356
2026-01-16 19:25:18.26	13.73	8.28	-37.6	-48.1	3.5	3.03e+01	0	27	104	0	50	17486
2026-01-16 19:25:21.28	13.28	8.45	-46.2	-60.6	3.5	3.03e+01	0	28	104	0	60	41116
2026-01-16 19:25:24.31	12.84	8.62	-36.7	-47.0	3.5	3.03e+01	0	28	104	0	48	17259
2026-01-16 19:25:27.34	12.38	8.79	-36.0	-46.3	3.5	3.03e+01	0	28	104	0	46	17767
2026-01-16 19:25:30.36	11.92	8.96	-47.3	-64.2	3.6	3.03e+01	0	28	104	0	60	62501
2026-01-16 19:25:33.39	11.46	9.13	-38.8	-49.4	3.5	3.03e+01	0	28	104	0	52	17924
2026-01-16 19:25:36.42	10.99	9.30	-35.5	-45.9	3.5	3.03e+01	0	28	104	0	46	16898
2026-01-16 19:25:39.45	10.51	9.47	-42.8	-54.3	3.5	3.03e+01	0	28	104	0	60	19992
2026-01-16 19:25:42.48	10.02	9.64	-38.2	-48.6	3.5	3.03e+01	0	28	104	0	52	16500
2026-01-16 19:25:45.50	9.54	9.80	-37.4	-47.9	3.5	3.03e+01	0	28	104	0	48	19050
2026-01-16 19:25:48.53	9.04	9.97	-47.2	-63.5	3.5	3.03e+01	0	28	104	0	60	57407
2026-01-16 19:25:51.56	8.54	10.14	-38.2	-48.7	3.5	3.03e+01	0	28	104	0	50	18610
2026-01-16 19:25:54.59	8.03	10.30	-36.6	-47.0	3.5	3.03e+01	0	27	104	0	48	17095
2026-01-16 19:25:57.61	7.51	10.47	-42.5	-53.9	3.5	3.03e+01	0	28	104	0	60	19106
2026-01-16 19:26:00.64	6.99	10.63	-40.7	-51.6	3.5	3.03e+01	0	28	104	0	56	18318
2026-01-16 19:26:03.67	6.46	10.79	-47.3	-63.8	3.5	3.03e+01	0	27	104	0	60	59913
2026-01-16 19:26:06.70	5.93	10.95	-35.5	-45.8	3.5	3.03e+01	0	28	104	0	48	15029
2026-01-16 19:26:09.73	5.39	11.11	-37.4	-47.8	3.5	3.03e+01	0	28	104	0	50	16807
2026-01-16 19:26:12.76	4.84	11.27	-37.8	-48.2	3.5	3.03e+01	0	27	104	0	46	22203
2026-01-16 19:26:15.79	4.29	11.43	-39.1	-49.7	3.5	3.03e+01	0	28	104	0	54	16593
2026-01-16 19:26:18.81	3.73	11.59	-35.6	-45.9	3.5	3.03e+01	0	27	104	0	46	16920
2026-01-16 19:26:21.84	3.16	11.74	-46.4	-60.5	3.5	3.03e+01	0	27	104	0	60	40925
2026-01-16 19:26:24.87	2.59	11.90	-47.0	-62.6	3.5	3.03e+01	0	28	104	0	60	51864
2026-01-16 19:26:27.90	2.01	12.05	-38.7	-49.2	3.5	3.03e+01	0	27	104	0	52	17664
2026-01-16 19:26:30.93	1.42	12.20	-35.4	-45.7	3.5	3.03e+01	0	27	104	0	46	16604
2026-01-16 19:26:33.95	0.83	12.34	-39.3	-49.8	3.5	3.03e+01	0	27	104	0	52	18955
2026-01-16 19:26:36.98	0.23	12.49	-37.6	-48.0	3.5	3.03e+01	0	27	104	0	50	17140
2026-01-16 19:26:40.01	359.62	12.64	-46.3	-60.2	3.5	3.03e+01	0	27	104	0	60	39405
2026-01-16 19:26:43.04	359.01	12.78	-45.5	-58.5	3.5	3.03e+01	0	28	104	0	60	32373
2026-01-16 19:26:46.07	358.39	12.92	-35.5	-45.8	3.5	3.03e+01	0	28	104	0	46	16800
2026-01-16 19:26:49.10	357.76	13.06	-37.0	-47.4	3.5	3.03e+01	0	27	104	0	46	20114
2026-01-16 19:26:52.13	357.13	13.19	-41.0	-51.8	3.5	3.03e+01	0	27	104	0	56	18851
2026-01-16 19:26:55.15	356.50	13.32	-38.3	-48.8	3.5	3.03e+01	0	28	104	0	52	16824
2026-01-16 19:26:58.19	355.85	13.45	-46.9	-61.9	3.6	3.03e+01	0	28	104	0	60	48119
2026-01-16 19:27:01.21	355.20	13.58	-37.3	-47.7	3.5	3.03e+01	0	27	104	0	50	16532
2026-01-16 19:27:04.24	354.55	13.71	-36.6	-47.0	3.5	3.03e+01	0	27	104	0	48	17175
2026-01-16 19:27:07.26	353.88	13.83	-39.2	-49.8	3.5	3.03e+01	0	28	104	0	56	14984
2026-01-16 19:27:10.29	353.22	13.95	-38.2	-48.6	3.5	3.03e+01	0	27	104	0	54	14691
2026-01-16 19:27:13.33	352.54	14.06	-38.5	-49.1	3.5	3.03e+01	0	27	104	0	50	19434
2026-01-16 19:27:16.35	351.86	14.18	-41.6	-52.7	3.5	3.03e+01	0	27	104	0	58	18540
2026-01-16 19:27:19.38	351.18	14.29	-36.3	-46.5	3.6	3.03e+01	0	27	104	0	48	16288
2026-01-16 19:27:22.41	350.49	14.39	-37.1	-47.4	3.5	3.03e+01	0	27	104	0	50	16063
2026-01-16 19:27:25.44	349.79	14.49	-35.6	-45.9	3.5	3.03e+01	0	27	104	0	46	17032
2026-01-16 19:27:28.47	349.09	14.59	-36.5	-46.8	3.5	3.03e+01	0	27	104	0	48	16798
2026-01-16 19:27:31.50	348.38	14.69	-36.9	-47.3	3.5	3.03e+01	0	27	104	0	50	15843
2026-01-16 19:27:34.53	347.67	14.78	-41.2	-52.1	3.5	3.03e+01	0	27	104	0	58	17308
2026-01-16 19:27:37.56	346.96	14.87	-36.5	-46.8	3.5	3.03e+01	0	27	104	0	48	16797
2026-01-16 19:27:40.59	346.24	14.95	-35.4	-45.6	3.4	3.03e+01	0	27	104	0	46	16475
2026-01-16 19:27:43.62	345.51	15.03	-37.1	-38.7	23.1	3.03e+01	4	27	104	0	48	6637
2026-01-16 19:27:46.65	344.78	15.11	-39.6	-41.3	23.4	3.03e+01	56	27	0	2097152	54	6327
2026-01-16 19:27:49.67	344.05	15.18	-39.2	-40.9	24.2	3.03e+01	57	27	0	7864320	54	6024
2026-01-16 19:27:52.70	343.32	15.24	-35.9	-37.3	27.8	3.03e+01	58	27	0	13631488	46	6278
2026-01-16 19:27:55.74	342.57	15.31	-34.7	-36.0	28.8	3.03e+01	46	27	0	18874368	44	6098
2026-01-16 19:27:58.76	341.83	15.37	-35.0	-36.3	28.5	3.03e+01	53	27	0	24641536	44	6315
2026-01-16 19:28:01.79	341.09	15.42	-34.9	-36.1	28.7	3.03e+01	62	27	0	30408704	44	6169
2026-01-16 19:28:04.81	340.34	15.47	-34.9	-36.2	28.7	3.03e+01	57	27	0	36175872	44	6207
2026-01-16 19:28:07.84	339.59	15.51	-34.9	-36.1	28.7	3.03e+01	62	27	0	41943040	44	6173
2026-01-16 19:28:10.87	338.84	15.55	-34.8	-36.1	28.8	3.03e+01	58	27	0	47710208	44	6135
2026-01-16 19:28:13.90	338.08	15.59	-35.0	-36.2	28.6	3.03e+01	56	27	0	52953088	44	6246
2026-01-16 19:28:16.92	337.33	15.62	-34.9	-36.2	28.7	3.03e+01	45	27	0	58720256	44	6217
2026-01-16 19:28:19.95	336.57	15.65	-34.9	-36.2	28.7	3.03e+01	45	27	0	64487424	44	6220
2026-01-16 19:28:22.98	335.81	15.67	-35.0	-36.3	28.6	3.03e+01	55	27	0	70254592	44	6289
2026-01-16 19:28:26.01	335.04	15.68	-34.9	-36.1	28.7	3.03e+01	60	27	0	76021760	44	6197
2026-01-16 19:28:29.03	334.28	15.69	-35.1	-36.3	28.6	3.03e+01	59	27	0	81788928	44	6331
2026-01-16 19:28:32.06	333.52	15.70	-34.7	-36.0	28.8	3.03e+01	60	27	0	87031808	44	6065
2026-01-16 19:28:35.09	332.76	15.70	-35.0	-36.2	28.6	3.03e+01	59	27	0	92798976	44	6273
2026-01-16 19:28:38.11	332.00	15.70	-35.1	-36.4	28.6	3.03e+01	51	27	0	98566144	44	6379
2026-01-16 19:28:41.14	331.24	15.69	-34.8	-36.0	28.8	3.03e+01	60	27	0	104333312	44	6113
2026-01-16 19:28:44.17	330.47	15.68	-35.1	-36.3	28.5	3.03e+01	52	27	0	110100480	44	6331
2026-01-16 19:28:47.20	329.71	15.66	-35.0	-36.2	28.6	3.03e+01	60	27	0	115343360	44	6264
2026-01-16 19:28:50.22	328.95	15.64	-35.0	-36.2	28.6	3.03e+01	59	27	0	121110528	44	6243
2026-01-16 19:28:53.25	328.19	15.61	-35.1	-36.4	28.5	3.03e+01	58	27	0	126877696	44	6389
2026-01-16 19:28:56.28	327.44	15.58	-35.1	-36.3	28.5	3.03e+01	59	27	0	132644864	44	6346
2026-01-16 19:28:59.31	326.68	15.54	-35.1	-36.4	28.5	3.03e+01	58	27	0	138412032	44	6374
2026-01-16 19:29:02.34	325.93	15.50	-34.9	-36.2	28.7	3.03e+01	59	27	0	144179200	44	6241
2026-01-16 19:29:05.37	325.18	15.45	-34.9	-36.1	28.7	3.03e+01	45	27	0	149946368	44	6202
2026-01-16 19:29:08.39	324.43	15.40	-35.1	-36.4	28.5	3.03e+01	56	27	0	155189248	44	6354
2026-01-16 19:29:11.42	323.69	15.35	-35.7	-37.0	28.0	3.03e+01	60	27	0	160956416	44	6867
2026-01-16 19:29:14.44	322.95	15.29	-35.9	-37.2	27.8	3.03e+01	59	27	0	166723584	44	7027
2026-01-16 19:29:17.47	322.21	15.23	-35.5	-36.8	28.2	3.03e+01	58	27	0	172490752	46	5944
2026-01-16 19:29:20.50	321.47	15.16	-35.7	-37.0	27.9	3.03e+01	58	27	0	178257920	46	6107
2026-01-16 19:29:23.53	320.74	15.08	-35.3	-36.5	28.4	3.03e+01	47	27	0	183500800	46	5779
2026-01-16 19:29:26.55	320.01	15.01	-35.3	-36.6	28.3	3.03e+01	49	27	0	189267968	46	5833
2026-01-16 19:29:29.58	319.29	14.93	-35.7	-37.0	27.8	3.03e+01	57	27	0	195035136	46	6085
2026-01-16 19:29:32.60	318.57	14.84	-35.8	-37.1	27.9	3.03e+01	56	27	0	200802304	46	6158
2026-01-16 19:29:35.63	317.86	14.75	-35.7	-37.0	27.9	3.03e+01	58	27	0	206569472	44	6875
2026-01-16 19:29:38.65	317.15	14.66	-35.0	-36.2	28.6	3.03e+01	59	28	0	211812352	44	6232
2026-01-16 19:29:41.68	316.44	14.56	-35.3	-36.6	28.3	3.03e+01	58	27	0	217579520	44	6514
2026-01-16 19:29:44.71	315.74	14.46	-34.7	-35.9	28.8	3.03e+01	58	28	0	223346688	44	6028
2026-01-16 19:29:47.73	315.05	14.36	-35.3	-36.6	28.2	3.03e+01	39	28	0	229113856	44	6546
2026-01-16 19:29:50.76	314.36	14.25	-34.7	-35.9	28.8	3.03e+01	54	28	0	234881024	44	6023
2026-01-16 19:29:53.79	313.67	14.14	-36.2	-37.7	27.1	3.03e+01	60	28	0	240648192	46	6595
2026-01-16 19:29:56.82	312.99	14.03	-35.2	-36.5	28.3	3.03e+01	56	28	0	246415360	44	6455
2026-01-16 19:29:59.85	312.32	13.91	-35.6	-36.9	27.5	3.03e+01	60	28	0	251658240	46	6037
2026-01-16 19:30:02.87	311.65	13.79	-36.9	-38.4	26.4	3.03e+01	61	28	0	257425408	48	6389
2026-01-16 19:30:05.90	310.99	13.67	-37.5	-38.9	26.3	3.03e+01	57	28	0	263192576	50	6056
2026-01-16 19:30:08.93	310.34	13.54	-36.9	-38.4	26.7	3.03e+01	45	28	0	268959744	46	7164
2026-01-16 19:30:11.96	309.69	13.41	-35.3	-36.5	28.5	3.03e+01	46	28	0	274726912	46	5773
2026-01-16 19:30:14.98	309.04	13.28	-35.4	-36.8	28.2	3.03e+01	56	28	0	279969792	46	5931
2026-01-16 19:30:18.01	308.41	13.15	-35.1	-36.4	28.5	3.03e+01	60	28	0	285736960	44	6388
2026-01-16 19:30:21.03	307.78	13.01	-35.4	-36.7	28.1	3.03e+01	61	28	0	291504128	44	6643
2026-01-16 19:30:24.06	307.15	12.88	-35.4	-36.8	28.2	3.03e+01	59	28	0	297271296	44	6676
2026-01-16 19:30:27.09	306.53	12.73	-35.1	-36.5	28.4	3.03e+01	57	28	0	303038464	44	6454
2026-01-16 19:30:30.11	305.92	12.59	-35.8	-37.2	27.6	3.03e+01	58	28	0	308805632	44	6996
2026-01-16 19:30:33.14	305.32	12.45	-35.4	-36.7	28.1	3.03e+01	59	28	0	314048512	44	6636
2026-01-16 19:30:36.17	304.72	12.30	-35.0	-36.3	28.5	3.03e+01	58	28	0	319815680	44	6293
2026-01-16 19:30:39.20	304.12	12.15	-35.3	-36.6	28.2	3.03e+01	62	28	0	325582848	44	6566
2026-01-16 19:30:42.23	303.54	12.00	-35.4	-36.8	28.0	3.03e+01	54	28	0	331350016	44	6673
2026-01-16 19:30:45.26	302.96	11.85	-35.5	-36.9	27.8	3.03e+01	58	28	0	337117184	46	6018
2026-01-16 19:30:48.28	302.39	11.69	-35.1	-36.4	28.2	3.03e+01	57	28	0	342884352	46	5670
2026-01-16 19:30:51.31	301.82	11.54	-34.8	-36.1	28.6	3.03e+01	62	28	0	348127232	44	6151
2026-01-16 19:30:54.34	301.26	11.38	-35.6	-36.9	27.9	3.03e+01	61	28	0	353894400	46	6019
2026-01-16 19:30:57.36	300.71	11.22	-36.0	-37.3	27.6	3.03e+01	47	28	0	359661568	46	6307
2026-01-16 19:31:00.39	300.16	11.06	-35.7	-37.0	27.9	3.03e+01	60	28	0	365428736	46	6116
2026-01-16 19:31:03.42	299.62	10.90	-35.6	-36.8	27.9	3.03e+01	60	28	0	371195904	46	5994
2026-01-16 19:31:06.45	299.09	10.74	-35.5	-36.8	28.0	3.03e+01	57	28	0	376438784	46	5981
2026-01-16 19:31:09.48	298.56	10.58	-35.9	-37.2	27.7	3.03e+01	61	28	0	382205952	46	6260
2026-01-16 19:31:12.50	298.04	10.41	-35.6	-36.9	28.0	3.03e+01	58	28	0	387973120	46	6008
2026-01-16 19:31:15.53	297.52	10.25	-35.7	-37.0	27.9	3.03e+01	46	28	0	393740288	46	6068
2026-01-16 19:31:18.56	297.01	10.08	-36.0	-37.4	27.4	3.03e+01	44	28	0	399507456	46	6360
2026-01-16 19:31:21.58	296.51	9.92	-36.2	-37.5	27.4	3.03e+01	57	28	0	405274624	46	6463
2026-01-16 19:31:24.61	296.02	9.75	-36.1	-37.4	27.4	3.03e+01	56	28	0	411041792	46	6366
2026-01-16 19:31:27.64	295.53	9.58	-36.3	-37.7	27.2	3.03e+01	58	28	0	416284672	46	6604
2026-01-16 19:31:30.66	295.04	9.41	-35.7	-37.0	27.8	3.03e+01	58	28	0	422051840	46	6075
2026-01-16 19:31:33.70	294.57	9.24	-36.2	-37.5	27.3	3.03e+01	56	28	0	427819008	46	6448
2026-01-16 19:31:36.72	294.10	9.07	-35.9	-37.2	27.5	3.03e+01	57	28	0	433586176	46	6272
2026-01-16 19:31:39.75	293.63	8.90	-35.9	-37.2	27.6	3.03e+01	48	28	0	439353344	46	6272
2026-01-16 19:31:42.78	293.17	8.73	-36.3	-37.7	27.1	3.03e+01	53	28	0	444596224	46	6605
2026-01-16 19:31:45.81	292.72	8.56	-36.2	-37.5	27.3	3.03e+01	52	28	0	450363392	46	6460
2026-01-16 19:31:48.84	292.27	8.39	-36.3	-37.7	27.1	3.03e+01	51	28	0	456130560	46	6587
2026-01-16 19:31:51.86	291.83	8.22	-36.1	-37.4	27.3	3.03e+01	57	29	0	461897728	46	6392
2026-01-16 19:31:54.89	291.39	8.05	-36.4	-37.8	27.1	3.03e+01	57	29	0	467664896	46	6664
2026-01-16 19:31:57.92	290.96	7.88	-36.2	-37.6	27.1	3.03e+01	60	29	0	473432064	46	6522
2026-01-16 19:32:00.95	290.53	7.71	-36.5	-37.9	26.9	3.03e+01	44	29	0	478674944	46	6763
2026-01-16 19:32:03.97	290.12	7.53	-36.7	-38.1	26.6	3.03e+01	50	29	0	484442112	46	6929
2026-01-16 19:32:07.00	289.70	7.36	-36.5	-37.9	26.9	3.03e+01	59	29	0	490209280	46	6749
2026-01-16 19:32:10.04	289.29	7.19	-36.7	-38.1	26.7	3.03e+01	57	29	0	495976448	46	6902
2026-01-16 19:32:13.06	288.89	7.02	-36.7	-38.1	26.6	3.03e+01	58	29	0	501743616	46	6926
2026-01-16 19:32:16.09	288.49	6.85	-36.7	-38.1	26.6	3.03e+01	60	29	0	507510784	46	6919
2026-01-16 19:32:19.12	288.10	6.67	-36.8	-38.2	26.4	3.03e+01	56	29	0	512753664	48	6260
2026-01-16 19:32:22.15	287.71	6.50	-36.9	-38.3	26.3	3.03e+01	59	29	0	518520832	48	6298
2026-01-16 19:32:25.17	287.33	6.33	-37.0	-38.4	26.2	3.03e+01	51	29	0	524288000	48	6410
2026-01-16 19:32:28.20	286.95	6.16	-36.9	-38.3	26.3	3.03e+01	59	29	0	530055168	48	6314
2026-01-16 19:32:31.22	286.58	5.99	-36.8	-38.2	26.4	3.03e+01	60	29	0	535822336	48	6258
2026-01-16 19:32:34.25	286.21	5.82	-36.9	-38.3	26.2	3.03e+01	58	29	0	541065216	48	6338
2026-01-16 19:32:37.28	285.85	5.65	-37.3	-38.7	25.8	3.03e+01	59	29	0	546832384	48	6641
2026-01-16 19:32:40.30	285.49	5.48	-37.3	-38.7	25.8	3.03e+01	57	29	0	552599552	48	6648
2026-01-16 19:32:43.33	285.13	5.31	-37.5	-39.0	25.5	3.03e+01	59	29	0	558366720	48	6862
2026-01-16 19:32:46.36	284.78	5.14	-37.1	-38.6	25.9	3.03e+01	46	29	0	564133888	48	6502
2026-01-16 19:32:49.39	284.44	4.97	-37.5	-39.0	25.5	3.03e+01	39	29	0	569901056	48	6824
2026-01-16 19:32:52.41	284.10	4.80	-37.6	-39.1	25.4	3.03e+01	62	29	0	575668224	48	6922
2026-01-16 19:32:55.44	283.76	4.63	-37.4	-38.9	25.5	3.03e+01	61	29	0	580911104	48	6748
2026-01-16 19:32:58.47	283.43	4.46	-37.6	-39.1	25.3	3.03e+01	59	29	0	586678272	48	6936
2026-01-16 19:33:01.50	283.10	4.29	-37.9	-39.4	25.0	3.03e+01	58	29	0	592445440	48	7204
2026-01-16 19:33:04.53	282.78	4.12	-37.7	-39.3	25.1	3.03e+01	61	29	0	598212608	50	6300
2026-01-16 19:33:07.56	282.46	3.95	-37.7	-39.2	25.1	3.03e+01	47	29	0	603979776	50	6222
2026-01-16 19:33:10.59	282.15	3.79	-37.9	-39.5	25.0	3.03e+01	45	29	0	609222656	50	6431
2026-01-16 19:33:13.62	281.84	3.62	-37.7	-39.2	25.2	3.03e+01	57	29	0	614989824	50	6234
2026-01-16 19:33:16.64	281.53	3.45	-38.2	-39.8	24.4	3.03e+01	61	29	0	620756992	50	6720
2026-01-16 19:33:19.67	281.23	3.29	-37.9	-39.5	24.7	3.03e+01	57	29	0	626524160	50	6466
2026-01-16 19:33:22.70	280.93	3.12	-38.3	-40.0	24.2	3.03e+01	59	29	0	632291328	50	6816
2026-01-16 19:33:25.73	280.63	2.96	-47.9	-65.6	3.5	3.03e+01	0	29	104	635437056	60	73443
2026-01-16 19:33:28.76	280.34	2.79	-48.4	-66.3	3.5	3.03e+01	0	29	104	635437056	60	79448
2026-01-16 19:33:31.78	280.05	2.63	-48.5	-66.3	3.5	3.03e+01	0	29	104	635437056	60	79647
2026-01-16 19:33:34.81	279.77	2.46	-48.2	-66.3	3.5	3.03e+01	0	29	104	635437056	60	79424
2026-01-16 19:33:37.84	279.49	2.30	-48.1	-66.2	3.5	3.03e+01	0	29	104	635437056	60	78543
2026-01-16 19:33:40.87	279.21	2.14	-48.3	-66.3	3.5	3.03e+01	0	29	104	635437056	60	79562
2026-01-16 19:33:43.90	278.93	1.97	-48.4	-66.2	3.5	3.03e+01	0	29	104	635437056	60	78690
2026-01-16 19:33:46.92	278.66	1.81	-48.4	-66.2	3.5	3.03e+01	0	29	104	635437056	60	78908
2026-01-16 19:33:49.95	278.40	1.65	-48.4	-66.3	3.5	3.03e+01	0	29	104	635437056	60	79044
2026-01-16 19:33:52.99	278.13	1.49	-48.5	-66.3	3.5	3.03e+01	0	30	104	635437056	60	79943
2026-01-16 19:33:56.01	277.87	1.33	-48.3	-66.2	3.5	3.03e+01	0	29	104	635437056	60	78197
2026-01-16 19:33:59.05	277.61	1.17	-48.5	-66.3	3.5	3.03e+01	0	30	104	635437056	60	79721
2026-01-16 19:34:02.08	277.36	1.01	-48.4	-66.3	3.5	3.03e+01	0	30	104	635437056	60	79680
2026-01-16 19:34:05.11	277.11	0.85	-48.4	-66.2	3.5	3.03e+01	0	30	104	635437056	60	78856
2026-01-16 19:34:08.14	276.86	0.69	-48.4	-66.3	3.5	3.03e+01	0	30	104	635437056	60	79164
2026-01-16 19:34:11.17	276.61	0.53	-48.4	-66.3	3.5	3.03e+01	0	29	104	635437056	60	79277
2026-01-16 19:34:14.20	276.37	0.37	-48.4	-66.2	3.5	3.03e+01	0	30	104	635437056	60	78957
2026-01-16 19:34:17.23	276.13	0.21	-48.3	-66.1	3.5	3.03e+01	0	30	104	635437056	60	77682
2026-01-16 19:34:20.26	275.89	0.06	-48.4	-66.3	3.5	3.03e+01	0	30	104	635437056	60	79775
2026-01-16 19:34:23.29	275.66	-0.10	-48.5	-66.3	3.5	3.03e+01	0	30	104	635437056	60	79565

#Closed at: 2026-01-16 19:34:24
#Recorded file [635 MB]: D:/lorett/data/35029_260117_072249.dat