passes_logs/2026/01/16/R4.6S_Anadyr/R4.6S_Anadyr__20260116_013852_FENGYUN_3D_rec.log

#Pass ID: 20260116_013852_FENGYUN 3D
#Satellite: FENGYUN 3D
#Configuration: FENGYUN 3D
#almurnet v.1.7.20251203
#Start time: 2026-01-16 01:38:55

#Version: 2.2.20231116
#Station: R4.6S_Anadyr
#Location: 177.4865 lon 64.73178 lat
#TLE: 1 43010U 17072A   26014.65117763 -.00000217  00000+0 -80772-4 0  9993
#TLE: 2 43010  98.9933 346.4618 0002330 108.4699 251.6730 14.19694700423204

#Time	Az	El	Level	Level2	SNR	BER	BlckErr	Temp	State	Recorded	gain1	gain2
2026-01-16 01:38:55.08	140.99	0.16	-48.6	-66.4	3.5	3.02e+01	0	26	0	0	60	80168
2026-01-16 01:38:59.12	140.94	0.40	-48.3	-60.5	3.6	8.45e-01	0	27	104	0	60	38340
2026-01-16 01:39:03.15	140.88	0.65	-48.2	-60.3	3.6	8.45e-01	0	28	104	0	60	37262
2026-01-16 01:39:07.19	140.83	0.90	-47.5	-59.9	3.6	8.45e-01	0	28	104	0	60	35569
2026-01-16 01:39:11.23	140.77	1.15	-45.3	-56.3	3.5	8.45e-01	0	28	104	0	60	23692
2026-01-16 01:39:15.26	140.71	1.40	-44.7	-57.1	3.6	8.46e-01	0	28	104	0	60	26027
2026-01-16 01:39:19.30	140.65	1.65	-44.3	-57.2	3.5	8.46e-01	0	28	104	0	60	26073
2026-01-16 01:39:23.34	140.59	1.91	-44.5	-57.1	3.6	8.45e-01	0	28	104	0	60	26022
2026-01-16 01:39:27.38	140.53	2.17	-44.3	-56.8	3.6	8.46e-01	0	28	104	0	60	25017
2026-01-16 01:39:31.41	140.47	2.43	-44.2	-57.1	3.6	8.46e-01	0	28	104	0	60	25858
2026-01-16 01:39:35.45	140.40	2.69	-44.6	-57.1	3.6	8.45e-01	0	28	104	0	60	25862
2026-01-16 01:39:39.49	140.34	2.95	-44.6	-57.1	3.6	8.45e-01	0	28	104	0	60	25915
2026-01-16 01:39:43.53	140.27	3.22	-44.2	-51.6	4.1	8.25e-01	0	28	0	0	60	13756
2026-01-16 01:39:47.57	140.20	3.49	-42.4	-45.9	9.7	1.34e-02	0	28	0	17825792	58	8023
2026-01-16 01:39:51.61	140.13	3.77	-40.8	-43.2	12.9	7.20e-05	0	28	0	40894464	56	6544
2026-01-16 01:39:55.65	140.06	4.04	-41.7	-45.0	9.4	8.13e-01	0	28	104	51380224	54	9106
2026-01-16 01:39:59.68	139.98	4.32	-41.6	-44.4	11.7	8.14e-04	0	29	0	66060288	56	7569
2026-01-16 01:40:03.72	139.91	4.60	-39.8	-41.7	14.4	4.50e-06	0	29	0	89128960	52	6935
2026-01-16 01:40:07.76	139.83	4.89	-39.8	-41.6	14.7	9.10e-06	0	29	0	112197632	52	6858
2026-01-16 01:40:11.80	139.75	5.17	-39.0	-40.5	16.4	0.00e+00	0	29	0	134217728	52	6059
2026-01-16 01:40:15.84	139.67	5.47	-38.5	-39.8	16.9	0.00e+00	0	29	0	157286400	50	6304
2026-01-16 01:40:19.88	139.59	5.76	-38.0	-39.3	17.3	1.10e-06	0	29	0	180355072	50	5900
2026-01-16 01:40:23.91	139.51	6.06	-37.4	-38.5	18.1	9.10e-06	0	29	0	202375168	48	6067
2026-01-16 01:40:27.95	139.42	6.36	-36.9	-37.9	19.4	2.20e-06	0	29	0	225443840	48	5670
2026-01-16 01:40:31.98	139.33	6.66	-36.6	-37.6	20.0	0.00e+00	0	29	0	247463936	46	6161
2026-01-16 01:40:36.02	139.24	6.97	-36.0	-36.8	20.5	0.00e+00	0	29	0	270532608	46	5624
2026-01-16 01:40:40.06	139.15	7.28	-35.5	-36.4	20.7	0.00e+00	0	29	0	293601280	44	6001
2026-01-16 01:40:44.09	139.05	7.59	-34.9	-35.7	22.1	0.00e+00	0	29	0	315621376	44	5546
2026-01-16 01:40:48.12	138.96	7.91	-34.6	-35.4	22.5	0.00e+00	0	29	0	338690048	42	5967
2026-01-16 01:40:52.16	138.86	8.23	-34.1	-35.0	23.0	0.00e+00	0	29	0	361758720	42	5703
2026-01-16 01:40:56.19	138.75	8.56	-34.0	-34.8	23.1	0.00e+00	0	29	0	384827392	42	5621
2026-01-16 01:41:00.23	138.65	8.89	-33.6	-34.4	23.6	0.00e+00	0	29	0	406847488	40	5989
2026-01-16 01:41:04.27	138.54	9.23	-33.5	-34.3	23.8	0.00e+00	0	29	0	429916160	40	5918
2026-01-16 01:41:08.30	138.43	9.56	-33.4	-34.1	23.9	0.00e+00	0	29	0	451936256	40	5792
2026-01-16 01:41:12.34	138.32	9.91	-33.4	-34.1	23.9	0.00e+00	0	29	0	475004928	40	5816
2026-01-16 01:41:16.38	138.20	10.26	-33.4	-34.1	24.0	0.00e+00	0	29	0	498073600	40	5817
2026-01-16 01:41:20.41	138.08	10.61	-33.1	-33.9	24.3	0.00e+00	0	29	0	520093696	40	5644
2026-01-16 01:41:24.45	137.96	10.97	-33.0	-33.7	24.4	0.00e+00	0	29	0	543162368	40	5564
2026-01-16 01:41:28.49	137.83	11.33	-33.0	-33.7	24.4	0.00e+00	0	29	0	566231040	40	5558
2026-01-16 01:41:32.52	137.70	11.70	-32.8	-33.5	24.6	0.00e+00	0	29	0	588251136	38	6083
2026-01-16 01:41:36.56	137.57	12.08	-32.9	-33.6	24.6	0.00e+00	0	29	0	611319808	38	6131
2026-01-16 01:41:40.59	137.43	12.46	-32.5	-33.2	24.9	0.00e+00	0	29	0	634388480	38	5860
2026-01-16 01:41:44.63	137.29	12.84	-32.4	-33.1	25.1	0.00e+00	0	30	0	656408576	38	5786
2026-01-16 01:41:48.67	137.15	13.24	-32.3	-33.0	25.2	0.00e+00	0	29	0	679477248	38	5736
2026-01-16 01:41:52.71	137.00	13.64	-32.1	-32.8	25.3	0.00e+00	0	29	0	702545920	38	5614
2026-01-16 01:41:56.75	136.84	14.04	-32.0	-32.7	25.4	0.00e+00	0	29	0	724566016	38	5535
2026-01-16 01:42:00.78	136.68	14.45	-31.9	-32.6	25.4	0.00e+00	0	30	0	747634688	38	5456
2026-01-16 01:42:04.82	136.52	14.87	-31.8	-32.4	25.7	0.00e+00	0	30	0	770703360	36	6008
2026-01-16 01:42:08.85	136.35	15.30	-31.6	-32.3	26.0	0.00e+00	0	29	0	792723456	36	5923
2026-01-16 01:42:12.89	136.18	15.73	-31.3	-32.0	26.1	0.00e+00	0	30	0	815792128	36	5707
2026-01-16 01:42:16.93	136.00	16.17	-31.2	-31.9	26.2	0.00e+00	0	30	0	837812224	36	5667
2026-01-16 01:42:20.96	135.82	16.62	-31.3	-31.9	26.2	0.00e+00	0	30	0	860880896	36	5694
2026-01-16 01:42:25.00	135.62	17.07	-31.1	-31.8	26.4	0.00e+00	0	30	0	883949568	36	5576
2026-01-16 01:42:29.04	135.43	17.54	-31.0	-31.7	26.5	0.00e+00	0	30	0	905969664	36	5540
2026-01-16 01:42:33.07	135.22	18.01	-30.9	-31.6	26.5	0.00e+00	0	30	0	929038336	36	5469
2026-01-16 01:42:37.11	135.01	18.49	-30.9	-31.6	26.6	0.00e+00	0	30	0	952107008	36	5455
2026-01-16 01:42:41.15	134.79	18.99	-30.7	-31.4	26.7	0.00e+00	0	30	0	975175680	34	5981
2026-01-16 01:42:45.18	134.57	19.48	-30.8	-31.4	26.7	0.00e+00	0	30	0	997195776	34	6009
2026-01-16 01:42:49.22	134.34	20.00	-30.8	-31.5	26.7	0.00e+00	0	30	0	1020264448	34	6071
2026-01-16 01:42:53.25	134.09	20.52	-30.5	-31.1	26.9	0.00e+00	0	30	0	1042284544	34	5814
2026-01-16 01:42:57.29	133.84	21.05	-30.4	-31.0	27.0	0.00e+00	0	30	0	1065353216	34	5734
2026-01-16 01:43:01.32	133.58	21.59	-30.2	-30.8	27.3	0.00e+00	0	30	0	1088421888	34	5622
2026-01-16 01:43:05.36	133.31	22.14	-30.0	-30.6	27.4	0.00e+00	0	30	0	1110441984	34	5495
2026-01-16 01:43:09.40	133.03	22.71	-29.7	-30.3	27.7	0.00e+00	0	30	0	1133510656	32	5956
2026-01-16 01:43:13.43	132.74	23.28	-29.7	-30.3	27.6	0.00e+00	0	30	0	1156579328	32	5922
2026-01-16 01:43:17.47	132.44	23.87	-29.8	-30.5	27.6	0.00e+00	0	30	0	1178599424	32	6055
2026-01-16 01:43:21.50	132.13	24.47	-29.7	-30.4	27.6	0.00e+00	0	30	0	1201668096	32	5981
2026-01-16 01:43:25.54	131.80	25.08	-29.5	-30.2	27.8	0.00e+00	0	30	0	1223688192	32	5836
2026-01-16 01:43:29.57	131.46	25.71	-29.3	-30.0	28.0	0.00e+00	0	30	0	1246756864	32	5717
2026-01-16 01:43:33.61	131.10	26.35	-29.2	-29.8	28.1	0.00e+00	0	30	0	1269825536	32	5590
2026-01-16 01:43:37.65	130.73	27.01	-29.3	-30.0	28.0	0.00e+00	0	30	0	1292894208	32	5718
2026-01-16 01:43:41.68	130.35	27.68	-29.4	-30.0	28.0	0.00e+00	0	30	0	1314914304	32	5715
2026-01-16 01:43:45.71	129.94	28.36	-29.2	-29.8	28.2	0.00e+00	0	30	0	1337982976	32	5608
2026-01-16 01:43:49.75	129.52	29.06	-29.4	-30.0	28.0	0.00e+00	0	30	0	1361051648	32	5728
2026-01-16 01:43:53.79	129.08	29.78	-29.7	-30.3	27.7	0.00e+00	0	30	0	1383071744	32	5941
2026-01-16 01:43:57.83	128.61	30.51	-29.2	-29.9	28.1	0.00e+00	0	30	0	1406140416	32	5641
2026-01-16 01:44:01.87	128.13	31.27	-28.9	-29.6	28.3	0.00e+00	0	30	0	1428160512	32	5460
2026-01-16 01:44:05.91	127.62	32.03	-28.9	-29.6	28.4	0.00e+00	0	30	0	1451229184	32	5447
2026-01-16 01:44:09.94	127.08	32.82	-28.9	-29.5	28.4	0.00e+00	0	30	0	1474297856	32	5385
2026-01-16 01:44:13.98	126.52	33.62	-29.0	-29.6	28.4	0.00e+00	0	30	0	1496317952	30	6122
2026-01-16 01:44:18.02	125.93	34.44	-29.1	-29.7	28.2	0.00e+00	0	30	0	1519386624	30	6212
2026-01-16 01:44:22.05	125.31	35.28	-28.9	-29.5	28.4	0.00e+00	0	30	0	1542455296	30	6039
2026-01-16 01:44:26.08	124.65	36.14	-28.5	-29.2	28.7	0.00e+00	0	30	0	1564475392	30	5838
2026-01-16 01:44:30.12	123.96	37.01	-28.8	-29.4	28.3	0.00e+00	0	30	0	1587544064	30	6004
2026-01-16 01:44:34.16	123.23	37.91	-28.5	-29.1	28.7	0.00e+00	0	30	0	1610612736	30	5795
2026-01-16 01:44:38.20	122.45	38.82	-29.0	-29.6	28.3	0.00e+00	0	30	0	1632632832	30	6149
2026-01-16 01:44:42.24	121.63	39.76	-29.1	-29.8	28.2	0.00e+00	0	30	0	1655701504	30	6255
2026-01-16 01:44:46.28	120.76	40.71	-29.1	-29.7	28.3	0.00e+00	0	30	0	1678770176	30	6207
2026-01-16 01:44:50.31	119.84	41.67	-29.3	-30.0	28.1	0.00e+00	0	30	0	1700790272	30	6391
2026-01-16 01:44:54.35	118.85	42.66	-29.0	-29.6	28.3	0.00e+00	0	30	0	1723858944	30	6159
2026-01-16 01:44:58.38	117.81	43.66	-29.5	-30.2	27.8	0.00e+00	0	30	0	1746927616	30	6569
2026-01-16 01:45:02.42	116.70	44.67	-29.2	-29.8	28.1	0.00e+00	0	30	0	1768947712	30	6316
2026-01-16 01:45:06.46	115.51	45.70	-29.0	-29.6	28.3	0.00e+00	0	30	0	1792016384	30	6159
2026-01-16 01:45:10.50	114.23	46.74	-29.4	-30.1	27.9	0.00e+00	0	30	0	1815085056	30	6501
2026-01-16 01:45:14.53	112.88	47.79	-29.5	-30.1	28.0	0.00e+00	0	30	0	1837105152	30	6495
2026-01-16 01:45:18.57	111.42	48.85	-29.5	-30.1	27.9	0.00e+00	0	30	0	1860173824	30	6506
2026-01-16 01:45:22.61	109.86	49.91	-29.9	-30.6	27.6	0.00e+00	0	30	0	1883242496	32	6110
2026-01-16 01:45:26.65	108.19	50.97	-30.1	-30.7	27.3	0.00e+00	0	30	0	1905262592	32	6223
2026-01-16 01:45:30.69	106.39	52.03	-30.2	-30.8	27.2	0.00e+00	0	30	0	1928331264	32	6312
2026-01-16 01:45:34.73	104.46	53.08	-30.3	-30.9	27.3	0.00e+00	0	29	0	1951399936	32	6352
2026-01-16 01:45:38.76	102.39	54.11	-30.4	-31.0	27.2	0.00e+00	0	30	0	1973420032	32	6431
2026-01-16 01:45:42.80	100.17	55.13	-29.6	-30.2	27.7	0.00e+00	0	30	0	1996488704	32	5851
2026-01-16 01:45:46.84	97.78	56.11	-29.9	-30.6	27.5	0.00e+00	0	30	0	2019557376	32	6120
2026-01-16 01:45:50.88	95.21	57.06	-29.6	-30.2	27.8	0.00e+00	0	30	0	2041577472	32	5865
2026-01-16 01:45:54.91	92.47	57.97	-30.0	-30.6	27.5	0.00e+00	0	30	0	2064646144	32	6159
2026-01-16 01:45:58.94	89.55	58.82	-29.6	-30.2	27.9	0.00e+00	0	29	0	2087714816	32	5875
2026-01-16 01:46:02.98	86.43	59.61	-30.0	-30.6	27.4	0.00e+00	0	29	0	2109734912	32	6167
2026-01-16 01:46:07.02	83.12	60.33	-29.9	-30.6	27.4	0.00e+00	0	29	0	2132803584	32	6132
2026-01-16 01:46:11.06	79.64	60.97	-29.7	-30.3	27.7	0.00e+00	0	29	0	2155872256	32	5963
2026-01-16 01:46:15.10	75.98	61.51	-29.3	-29.9	28.1	0.00e+00	0	29	0	2177892352	32	5675
2026-01-16 01:46:19.14	72.18	61.95	-28.9	-29.5	28.3	0.00e+00	0	29	0	2200961024	32	5422
2026-01-16 01:46:23.17	68.26	62.28	-29.2	-29.8	28.2	0.00e+00	0	29	0	2222981120	32	5585
2026-01-16 01:46:27.21	64.25	62.49	-28.9	-29.5	28.4	0.00e+00	0	29	0	2246049792	30	6054
2026-01-16 01:46:31.25	60.18	62.59	-29.0	-29.6	28.4	0.00e+00	0	29	0	2269118464	30	6168
2026-01-16 01:46:35.29	56.11	62.56	-28.8	-29.4	28.5	0.00e+00	0	29	0	2291138560	30	5977
2026-01-16 01:46:39.32	52.07	62.41	-29.0	-29.6	28.4	0.00e+00	0	29	0	2314207232	30	6164
2026-01-16 01:46:43.36	48.10	62.14	-28.8	-29.4	28.4	0.00e+00	0	29	0	2337275904	30	6013
2026-01-16 01:46:47.39	44.24	61.76	-28.8	-29.5	28.3	0.00e+00	0	29	0	2360344576	30	6040
2026-01-16 01:46:51.43	40.51	61.27	-29.7	-30.4	27.7	0.00e+00	0	29	0	2382364672	32	5980
2026-01-16 01:46:55.47	36.93	60.68	-29.0	-29.7	28.3	0.00e+00	0	29	0	2405433344	32	5521
2026-01-16 01:46:59.51	33.53	60.01	-29.4	-30.0	28.1	0.00e+00	0	29	0	2427453440	32	5751
2026-01-16 01:47:03.54	30.32	59.26	-29.3	-30.0	28.1	0.00e+00	0	29	0	2450522112	32	5717
2026-01-16 01:47:07.57	27.30	58.44	-29.2	-29.8	28.1	0.00e+00	0	29	0	2473590784	32	5572
2026-01-16 01:47:11.60	24.46	57.56	-29.6	-30.3	27.9	0.00e+00	0	29	0	2495610880	32	5944
2026-01-16 01:47:15.64	21.81	56.63	-29.6	-30.2	27.8	0.00e+00	0	29	0	2518679552	32	5876
2026-01-16 01:47:19.68	19.33	55.67	-29.4	-30.0	27.9	0.00e+00	0	29	0	2541748224	32	5726
2026-01-16 01:47:23.71	17.02	54.67	-29.5	-30.1	27.9	0.00e+00	0	29	0	2563768320	32	5799
2026-01-16 01:47:27.75	14.87	53.65	-29.2	-29.9	28.1	0.00e+00	0	29	0	2586836992	32	5646
2026-01-16 01:47:31.79	12.87	52.61	-29.3	-30.0	28.0	0.00e+00	0	29	0	2608857088	32	5718
2026-01-16 01:47:35.83	11.01	51.56	-29.5	-30.2	27.9	0.00e+00	0	29	0	2631925760	32	5858
2026-01-16 01:47:39.86	9.27	50.50	-29.3	-29.9	28.1	0.00e+00	0	29	0	2654994432	32	5668
2026-01-16 01:47:43.90	7.66	49.44	-29.1	-29.6	28.1	0.00e+00	0	29	0	2678063104	32	5479
2026-01-16 01:47:47.93	6.15	48.39	-29.0	-29.7	28.2	0.00e+00	0	29	0	2700083200	32	5540
2026-01-16 01:47:51.97	4.74	47.34	-28.5	-29.1	28.0	0.00e+00	0	29	0	2723151872	30	5786
2026-01-16 01:47:56.01	3.43	46.29	-28.3	-28.9	28.5	0.00e+00	0	29	0	2746220544	30	5648
2026-01-16 01:48:00.04	2.20	45.26	-28.7	-29.3	28.5	0.00e+00	0	29	0	2768240640	30	5912
2026-01-16 01:48:04.08	1.05	44.24	-28.7	-29.3	28.4	0.00e+00	0	29	0	2791309312	30	5925
2026-01-16 01:48:08.12	359.97	43.24	-28.2	-28.7	28.9	0.00e+00	0	29	0	2813329408	30	5546
2026-01-16 01:48:12.16	358.95	42.25	-28.3	-29.0	28.8	0.00e+00	0	29	0	2836398080	30	5703
2026-01-16 01:48:16.19	358.00	41.27	-28.5	-29.2	28.6	0.00e+00	0	29	0	2859466752	30	5871
2026-01-16 01:48:20.23	357.10	40.32	-28.6	-29.2	28.4	0.00e+00	0	29	0	2881486848	30	5838
2026-01-16 01:48:24.27	356.26	39.38	-28.3	-28.9	28.8	0.00e+00	0	29	0	2904555520	30	5691
2026-01-16 01:48:28.30	355.46	38.46	-28.5	-29.1	28.5	0.00e+00	0	29	0	2927624192	30	5787
2026-01-16 01:48:32.34	354.71	37.55	-28.4	-29.1	28.6	0.00e+00	0	29	0	2950692864	30	5765
2026-01-16 01:48:36.38	354.00	36.67	-28.4	-29.1	28.7	0.00e+00	0	29	0	2972712960	30	5771
2026-01-16 01:48:40.42	353.32	35.80	-28.2	-28.9	28.8	0.00e+00	0	29	0	2995781632	30	5632
2026-01-16 01:48:44.45	352.68	34.96	-28.4	-29.1	28.6	0.00e+00	0	29	0	3017801728	30	5802
2026-01-16 01:48:48.49	352.08	34.13	-28.6	-29.3	28.5	0.00e+00	0	29	0	3040870400	30	5930
2026-01-16 01:48:52.52	351.50	33.32	-28.4	-28.9	28.6	0.00e+00	0	29	0	3063939072	30	5677
2026-01-16 01:48:56.56	350.95	32.53	-28.6	-29.3	28.5	0.00e+00	0	29	0	3085959168	30	5917
2026-01-16 01:49:00.60	350.43	31.75	-28.7	-29.4	28.4	0.00e+00	0	29	0	3109027840	30	5994
2026-01-16 01:49:04.64	349.94	30.99	-28.7	-29.2	28.4	0.00e+00	0	29	0	3132096512	30	5870
2026-01-16 01:49:08.67	349.46	30.26	-28.8	-29.5	28.3	0.00e+00	0	29	0	3154116608	30	6072
2026-01-16 01:49:12.71	349.01	29.53	-29.0	-29.7	28.3	0.00e+00	0	29	0	3177185280	30	6209
2026-01-16 01:49:16.75	348.58	28.82	-29.1	-29.8	28.0	0.00e+00	0	29	0	3200253952	30	6316
2026-01-16 01:49:20.79	348.17	28.13	-29.3	-30.0	27.9	0.00e+00	0	29	0	3222274048	30	6411
2026-01-16 01:49:24.82	347.77	27.45	-29.0	-29.5	28.2	0.00e+00	0	29	0	3245342720	30	6072
2026-01-16 01:49:28.86	347.40	26.79	-28.8	-29.3	28.3	0.00e+00	0	29	0	3268411392	30	5959
2026-01-16 01:49:32.89	347.03	26.15	-29.0	-29.5	28.2	0.00e+00	0	28	0	3290431488	30	6061
2026-01-16 01:49:36.93	346.69	25.51	-29.1	-29.7	28.0	0.00e+00	0	28	0	3313500160	30	6207
2026-01-16 01:49:40.96	346.35	24.89	-29.3	-29.9	27.9	0.00e+00	0	29	0	3335520256	30	6359
2026-01-16 01:49:45.00	346.04	24.29	-29.3	-29.9	27.9	0.00e+00	0	28	0	3358588928	30	6355
2026-01-16 01:49:49.03	345.73	23.69	-29.3	-30.0	27.9	0.00e+00	0	28	0	3381657600	30	6412
2026-01-16 01:49:53.07	345.43	23.11	-29.5	-30.0	27.8	0.00e+00	0	29	0	3403677696	30	6430
2026-01-16 01:49:57.10	345.15	22.54	-29.6	-30.2	27.6	0.00e+00	0	29	0	3426746368	30	6588
2026-01-16 01:50:01.13	344.88	21.99	-29.8	-30.4	27.5	0.00e+00	0	29	0	3449815040	32	5979
2026-01-16 01:50:05.16	344.61	21.44	-29.7	-30.3	27.5	0.00e+00	0	29	0	3471835136	32	5923
2026-01-16 01:50:09.20	344.36	20.91	-29.7	-30.2	27.5	0.00e+00	0	28	0	3494903808	32	5888
2026-01-16 01:50:13.24	344.12	20.38	-29.8	-30.3	27.3	0.00e+00	0	29	0	3516923904	32	5961
2026-01-16 01:50:17.27	343.88	19.87	-29.8	-30.5	27.4	0.00e+00	0	28	0	3539992576	32	6058
2026-01-16 01:50:21.31	343.65	19.36	-30.2	-30.9	27.1	0.00e+00	0	28	0	3563061248	32	6348
2026-01-16 01:50:25.35	343.43	18.87	-30.5	-31.1	26.9	0.00e+00	0	29	0	3586129920	32	6514
2026-01-16 01:50:29.39	343.22	18.38	-30.7	-31.4	26.7	0.00e+00	0	28	0	3608150016	32	6729
2026-01-16 01:50:33.43	343.01	17.90	-30.7	-31.5	26.6	0.00e+00	0	28	0	3631218688	34	6038
2026-01-16 01:50:37.46	342.82	17.44	-30.8	-31.4	26.5	0.00e+00	0	28	0	3654287360	34	5975
2026-01-16 01:50:41.50	342.62	16.98	-31.0	-31.8	26.3	0.00e+00	0	28	0	3676307456	34	6270
2026-01-16 01:50:45.53	342.44	16.52	-31.0	-31.8	26.3	0.00e+00	0	28	0	3699376128	34	6262
2026-01-16 01:50:49.57	342.26	16.08	-31.1	-31.7	26.2	0.00e+00	0	28	0	3721396224	34	6226
2026-01-16 01:50:53.61	342.08	15.64	-31.3	-31.9	25.9	0.00e+00	0	28	0	3744464896	34	6364
2026-01-16 01:50:57.65	341.92	15.22	-31.5	-32.1	25.9	0.00e+00	0	28	0	3767533568	34	6499
2026-01-16 01:51:01.68	341.75	14.79	-31.5	-32.1	25.7	0.00e+00	0	28	0	3789553664	34	6536
2026-01-16 01:51:05.72	341.59	14.38	-31.7	-32.5	25.6	0.00e+00	0	28	0	3812622336	36	6056
2026-01-16 01:51:09.76	341.44	13.97	-31.9	-32.6	25.5	0.00e+00	0	28	0	3835691008	36	6158
2026-01-16 01:51:13.80	341.29	13.57	-32.0	-32.7	25.3	0.00e+00	0	28	0	3858759680	36	6184
2026-01-16 01:51:17.84	341.15	13.18	-32.2	-32.8	25.2	0.00e+00	0	28	0	3880779776	36	6295
2026-01-16 01:51:21.88	341.00	12.79	-32.2	-33.1	25.1	0.00e+00	0	28	0	3903848448	36	6476
2026-01-16 01:51:25.91	340.87	12.40	-32.2	-33.0	25.1	0.00e+00	0	28	0	3925868544	36	6429
2026-01-16 01:51:29.95	340.74	12.03	-32.2	-33.0	25.1	0.00e+00	0	28	0	3948937216	36	6443
2026-01-16 01:51:33.99	340.61	11.65	-32.2	-32.8	25.1	0.00e+00	0	28	0	3972005888	36	6315
2026-01-16 01:51:38.03	340.48	11.29	-32.2	-33.0	25.0	0.00e+00	0	28	0	3994025984	36	6413
2026-01-16 01:51:42.07	340.36	10.93	-32.2	-32.9	25.0	0.00e+00	0	28	0	4017094656	36	6375
2026-01-16 01:51:46.11	340.24	10.57	-32.5	-33.3	24.7	0.00e+00	0	28	0	4040163328	36	6658
2026-01-16 01:51:50.15	340.12	10.22	-32.5	-33.2	24.8	0.00e+00	0	28	0	4063232000	36	6542
2026-01-16 01:51:54.18	340.01	9.87	-32.5	-33.4	24.6	0.00e+00	0	28	0	4085252096	36	6745
2026-01-16 01:51:58.22	339.90	9.53	-32.6	-33.3	24.4	0.00e+00	0	28	0	4108320768	38	5956
2026-01-16 01:52:02.26	339.80	9.20	-33.0	-33.7	24.2	0.00e+00	0	28	0	4130340864	38	6187
2026-01-16 01:52:06.30	339.69	8.86	-33.0	-33.7	24.2	0.00e+00	0	28	0	4153409536	38	6211
2026-01-16 01:52:10.33	339.59	8.53	-33.3	-34.1	23.9	0.00e+00	0	28	0	4176478208	38	6536
2026-01-16 01:52:14.37	339.49	8.21	-33.4	-34.3	23.8	0.00e+00	0	28	0	4198498304	38	6625
2026-01-16 01:52:18.41	339.40	7.89	-33.6	-34.3	23.6	0.00e+00	0	28	0	4221566976	38	6642
2026-01-16 01:52:22.44	339.31	7.57	-33.7	-34.4	23.5	0.00e+00	0	28	0	4244635648	38	6731
2026-01-16 01:52:26.48	339.22	7.26	-33.6	-34.3	23.4	0.00e+00	0	28	0	4266655744	40	5916
2026-01-16 01:52:30.52	339.13	6.95	-33.8	-34.5	23.2	0.00e+00	0	28	0	4289724416	40	6059
2026-01-16 01:52:34.56	339.04	6.65	-33.9	-34.6	23.1	0.00e+00	0	28	0	4312793088	40	6121
2026-01-16 01:52:38.59	338.96	6.35	-33.8	-34.6	23.0	0.00e+00	0	28	0	4334813184	40	6161
2026-01-16 01:52:42.63	338.87	6.05	-33.8	-34.7	23.0	0.00e+00	0	28	0	4357881856	40	6221
2026-01-16 01:52:46.67	338.79	5.75	-34.0	-34.8	22.6	0.00e+00	0	28	0	4380950528	40	6283
2026-01-16 01:52:50.70	338.72	5.46	-34.8	-35.6	21.5	0.00e+00	0	28	0	4402970624	42	6160
2026-01-16 01:52:54.74	338.64	5.17	-36.0	-37.1	19.8	0.00e+00	0	28	0	4426039296	44	6473
2026-01-16 01:52:58.78	338.56	4.89	-37.6	-38.9	17.3	0.00e+00	0	28	0	4449107968	46	7141
2026-01-16 01:53:02.82	338.49	4.60	-39.5	-41.6	13.8	0.00e+00	0	28	0	4471128064	50	7737
2026-01-16 01:53:06.85	338.42	4.32	-41.2	-44.8	9.3	1.37e-02	0	28	0	4494196736	54	8873
2026-01-16 01:53:10.89	338.35	4.05	-42.3	-47.9	5.6	3.23e-01	0	28	0	4516216832	56	11303
2026-01-16 01:53:14.93	338.28	3.77	-42.7	-52.5	3.8	8.42e-01	0	28	104	4519362560	56	19251
2026-01-16 01:53:18.96	338.22	3.50	-42.7	-54.2	3.6	8.46e-01	0	28	104	4519362560	58	20871
2026-01-16 01:53:22.99	338.15	3.23	-43.0	-55.1	3.6	8.46e-01	0	28	104	4519362560	58	23106
2026-01-16 01:53:27.03	338.09	2.97	-43.3	-55.5	3.6	8.46e-01	0	28	104	4519362560	58	24165
2026-01-16 01:53:31.06	338.03	2.70	-48.0	-60.1	3.6	8.45e-01	0	28	104	4519362560	60	36680
2026-01-16 01:53:35.10	337.97	2.44	-48.1	-60.3	3.6	8.46e-01	0	28	104	4519362560	60	37369
2026-01-16 01:53:39.14	337.91	2.18	-48.1	-60.2	3.6	8.46e-01	0	28	104	4519362560	60	36827
2026-01-16 01:53:43.18	337.85	1.93	-48.0	-60.2	3.6	8.45e-01	0	28	104	4519362560	60	36847
2026-01-16 01:53:47.22	337.79	1.67	-48.1	-60.2	3.6	8.44e-01	0	28	104	4519362560	60	37191
2026-01-16 01:53:51.25	337.74	1.42	-48.1	-60.2	3.6	8.46e-01	0	28	104	4519362560	60	37184
2026-01-16 01:53:55.29	337.69	1.17	-48.0	-60.1	3.5	8.45e-01	0	28	104	4519362560	60	36724
2026-01-16 01:53:59.33	337.63	0.92	-48.0	-60.2	3.6	8.45e-01	0	28	104	4519362560	60	36984
2026-01-16 01:54:03.37	337.58	0.67	-48.0	-60.2	3.6	8.45e-01	0	28	104	4519362560	60	36776
2026-01-16 01:54:07.40	337.53	0.43	-48.1	-60.3	3.6	8.44e-01	0	28	104	4519362560	60	37279
2026-01-16 01:54:11.44	337.48	0.19	-48.0	-60.1	3.6	8.45e-01	0	28	104	4519362560	60	36514
2026-01-16 01:54:15.48	337.43	-0.05	-48.0	-60.1	3.6	8.45e-01	0	28	104	4519362560	60	36737

#Closed at: 2026-01-16 01:54:16
#Recorded file [4519 MB]: D:/lorett/data/35029_260116_133855.dat