passes_logs/2026/01/16/R4.6S_Anadyr/R4.6S_Anadyr__20260116_170454_FENGYUN_3D_rec.log

#Pass ID: 20260116_170454_FENGYUN 3D
#Satellite: FENGYUN 3D
#Configuration: FENGYUN 3D
#almurnet v.1.7.20251203
#Start time: 2026-01-16 17:04:57

#Version: 2.2.20231116
#Station: R4.6S_Anadyr
#Location: 177.4865 lon 64.73178 lat
#TLE: 1 43010U 17072A   26015.99024095 -.00000189  00000+0 -67463-4 0  9996
#TLE: 2 43010  98.9932 347.8215 0002366 106.5594 253.5841 14.19694691423396

#Time	Az	El	Level	Level2	SNR	BER	BlckErr	Temp	State	Recorded	gain1	gain2
2026-01-16 17:04:57.70	21.65	0.21	-48.4	-59.0	3.3	8.40e-01	0	27	0	0	60	32382
2026-01-16 17:05:01.73	21.64	0.45	-48.0	-60.2	3.6	8.44e-01	0	27	104	0	60	37122
2026-01-16 17:05:05.77	21.63	0.70	-47.6	-59.8	3.6	8.46e-01	0	28	104	0	60	35164
2026-01-16 17:05:09.81	21.62	0.95	-46.7	-58.9	3.6	8.46e-01	0	28	104	0	60	31667
2026-01-16 17:05:13.85	21.60	1.19	-46.4	-58.4	3.6	8.46e-01	0	28	104	0	60	30037
2026-01-16 17:05:17.88	21.59	1.45	-46.3	-58.1	3.6	8.45e-01	0	28	104	0	60	28896
2026-01-16 17:05:21.92	21.57	1.70	-46.3	-58.3	3.6	8.46e-01	0	28	104	0	60	29883
2026-01-16 17:05:25.96	21.56	1.96	-46.3	-58.3	3.6	8.46e-01	0	28	104	0	60	29831
2026-01-16 17:05:30.00	21.54	2.21	-46.3	-57.4	3.6	8.45e-01	0	28	104	0	60	26915
2026-01-16 17:05:34.04	21.53	2.48	-45.9	-53.4	3.8	8.32e-01	0	28	0	0	60	16937
2026-01-16 17:05:38.08	21.51	2.74	-45.5	-51.1	5.2	7.47e-01	0	28	0	0	60	12935
2026-01-16 17:05:42.12	21.49	3.00	-41.3	-43.1	14.3	1.94e-05	0	28	0	22020096	56	6498
2026-01-16 17:05:46.16	21.48	3.27	-38.2	-39.3	18.2	0.00e+00	0	28	0	44040192	50	5948
2026-01-16 17:05:50.19	21.46	3.54	-38.2	-39.4	18.0	0.00e+00	0	28	0	67108864	48	6693
2026-01-16 17:05:54.24	21.44	3.82	-40.1	-41.6	17.9	0.00e+00	0	28	0	89128960	52	6915
2026-01-16 17:05:58.28	21.42	4.09	-37.0	-38.1	19.5	0.00e+00	0	29	0	93323264	48	5762
2026-01-16 17:06:02.32	21.40	4.37	-35.1	-35.9	21.8	0.00e+00	0	28	0	115343360	44	5672
2026-01-16 17:06:06.35	21.38	4.65	-35.0	-35.8	21.8	0.00e+00	0	29	0	138412032	44	5630
2026-01-16 17:06:10.39	21.35	4.94	-35.1	-35.9	21.8	0.00e+00	0	28	0	161480704	44	5675
2026-01-16 17:06:14.44	21.33	5.23	-34.9	-35.7	21.9	0.00e+00	0	28	0	183500800	44	5532
2026-01-16 17:06:18.48	21.31	5.52	-34.8	-35.6	22.2	0.00e+00	0	29	0	206569472	42	6141
2026-01-16 17:06:22.52	21.28	5.81	-34.7	-35.5	22.3	0.00e+00	0	29	0	229638144	42	6059
2026-01-16 17:06:26.55	21.26	6.11	-34.4	-35.2	22.6	0.00e+00	0	29	0	251658240	42	5865
2026-01-16 17:06:30.60	21.23	6.41	-34.4	-35.2	22.7	0.00e+00	0	29	0	274726912	42	5872
2026-01-16 17:06:34.64	21.20	6.72	-34.3	-35.0	22.8	0.00e+00	0	29	0	297795584	42	5750
2026-01-16 17:06:38.68	21.17	7.03	-34.4	-35.1	22.9	0.00e+00	0	29	0	319815680	42	5802
2026-01-16 17:06:42.73	21.14	7.34	-33.9	-34.6	23.3	0.00e+00	0	29	0	342884352	42	5467
2026-01-16 17:06:46.77	21.11	7.66	-33.8	-34.5	23.4	0.00e+00	0	29	0	365953024	40	6098
2026-01-16 17:06:50.81	21.08	7.98	-33.7	-34.4	23.5	0.00e+00	0	29	0	387973120	40	6017
2026-01-16 17:06:54.85	21.05	8.30	-33.8	-34.5	23.4	0.00e+00	0	29	0	411041792	40	6064
2026-01-16 17:06:58.89	21.02	8.63	-33.3	-34.0	23.9	0.00e+00	0	29	0	434110464	40	5722
2026-01-16 17:07:02.92	20.98	8.96	-33.2	-33.9	24.1	0.00e+00	0	29	0	457179136	40	5640
2026-01-16 17:07:06.96	20.95	9.30	-32.9	-33.6	24.3	0.00e+00	0	29	0	479199232	40	5501
2026-01-16 17:07:11.00	20.91	9.64	-33.0	-33.7	24.3	0.00e+00	0	29	0	502267904	40	5548
2026-01-16 17:07:15.04	20.87	9.99	-32.9	-33.6	24.4	0.00e+00	0	29	0	524288000	38	6124
2026-01-16 17:07:19.07	20.83	10.34	-32.8	-33.5	24.6	0.00e+00	0	29	0	547356672	38	6049
2026-01-16 17:07:23.12	20.79	10.70	-32.5	-33.2	24.7	0.00e+00	0	29	0	570425344	38	5873
2026-01-16 17:07:27.16	20.75	11.06	-32.7	-33.4	24.6	0.00e+00	0	29	0	592445440	38	5965
2026-01-16 17:07:31.19	20.70	11.42	-32.5	-33.2	24.9	0.00e+00	0	29	0	615514112	38	5832
2026-01-16 17:07:35.23	20.66	11.80	-32.6	-33.3	24.7	0.00e+00	0	29	0	638582784	38	5928
2026-01-16 17:07:39.27	20.61	12.18	-32.6	-33.3	24.7	0.00e+00	0	29	0	661651456	38	5898
2026-01-16 17:07:43.31	20.56	12.56	-32.5	-33.2	24.9	0.00e+00	0	29	0	683671552	38	5836
2026-01-16 17:07:47.35	20.51	12.95	-32.3	-33.0	25.0	0.00e+00	0	29	0	706740224	38	5748
2026-01-16 17:07:51.39	20.46	13.35	-32.2	-32.8	25.1	0.00e+00	0	29	0	728760320	38	5613
2026-01-16 17:07:55.43	20.40	13.75	-32.1	-32.8	25.3	0.00e+00	0	29	0	751828992	38	5585
2026-01-16 17:07:59.47	20.34	14.16	-31.7	-32.4	25.6	0.00e+00	0	29	0	774897664	36	6006
2026-01-16 17:08:03.51	20.29	14.58	-31.7	-32.4	25.7	0.00e+00	0	29	0	797966336	36	5994
2026-01-16 17:08:07.55	20.22	15.01	-31.4	-32.0	25.8	0.00e+00	0	29	0	819986432	36	5720
2026-01-16 17:08:11.60	20.16	15.44	-31.3	-31.9	26.0	0.00e+00	0	29	0	843055104	36	5669
2026-01-16 17:08:15.63	20.10	15.88	-31.0	-31.7	26.3	0.00e+00	0	29	0	866123776	36	5528
2026-01-16 17:08:19.66	20.03	16.32	-31.1	-31.7	26.3	0.00e+00	0	29	0	888143872	36	5553
2026-01-16 17:08:23.70	19.96	16.78	-30.9	-31.6	26.4	0.00e+00	0	30	0	911212544	36	5444
2026-01-16 17:08:27.74	19.88	17.25	-30.7	-31.4	26.5	0.00e+00	0	30	0	933232640	34	5974
2026-01-16 17:08:31.78	19.81	17.72	-30.6	-31.2	26.7	0.00e+00	0	30	0	956301312	34	5882
2026-01-16 17:08:35.82	19.73	18.20	-30.3	-30.9	26.9	0.00e+00	0	30	0	979369984	34	5667
2026-01-16 17:08:39.86	19.65	18.70	-30.0	-30.7	27.1	0.00e+00	0	30	0	1001390080	34	5509
2026-01-16 17:08:43.90	19.56	19.20	-30.1	-30.7	27.1	0.00e+00	0	30	0	1024458752	34	5544
2026-01-16 17:08:47.94	19.47	19.71	-29.8	-30.5	27.3	0.00e+00	0	30	0	1047527424	34	5384
2026-01-16 17:08:51.98	19.38	20.24	-30.0	-30.6	27.2	0.00e+00	0	30	0	1070596096	34	5492
2026-01-16 17:08:56.02	19.28	20.77	-30.2	-30.8	27.1	0.00e+00	0	30	0	1092616192	34	5589
2026-01-16 17:09:00.06	19.18	21.32	-30.3	-31.0	27.0	0.00e+00	0	30	0	1115684864	34	5721
2026-01-16 17:09:04.10	19.08	21.88	-30.3	-31.0	27.0	0.00e+00	0	30	0	1137704960	34	5713
2026-01-16 17:09:08.14	18.97	22.45	-30.0	-30.7	27.1	0.00e+00	0	30	0	1160773632	34	5546
2026-01-16 17:09:12.19	18.85	23.04	-29.9	-30.5	27.4	0.00e+00	0	30	0	1183842304	34	5414
2026-01-16 17:09:16.23	18.73	23.63	-29.6	-30.3	27.5	0.00e+00	0	30	0	1206910976	32	5930
2026-01-16 17:09:20.26	18.61	24.25	-29.4	-30.1	27.8	0.00e+00	0	30	0	1228931072	32	5767
2026-01-16 17:09:24.30	18.48	24.87	-29.4	-30.0	27.7	0.00e+00	0	30	0	1251999744	32	5746
2026-01-16 17:09:28.34	18.34	25.51	-29.4	-30.0	27.8	0.00e+00	0	30	0	1275068416	32	5727
2026-01-16 17:09:32.38	18.20	26.17	-29.1	-29.7	28.0	0.00e+00	0	30	0	1297088512	32	5524
2026-01-16 17:09:36.42	18.05	26.84	-28.8	-29.4	28.1	0.00e+00	0	30	0	1320157184	32	5369
2026-01-16 17:09:40.46	17.90	27.53	-29.0	-29.6	28.2	0.00e+00	0	30	0	1343225856	30	6108
2026-01-16 17:09:44.50	17.73	28.24	-29.0	-29.6	28.2	0.00e+00	0	30	0	1365245952	30	6122
2026-01-16 17:09:48.55	17.56	28.97	-29.1	-29.8	28.0	0.00e+00	0	30	0	1388314624	30	6248
2026-01-16 17:09:52.59	17.38	29.72	-29.1	-29.7	28.1	0.00e+00	0	30	0	1411383296	30	6211
2026-01-16 17:09:56.63	17.19	30.48	-29.0	-29.6	28.2	0.00e+00	0	30	0	1433403392	30	6114
2026-01-16 17:10:00.66	16.99	31.26	-28.9	-29.5	28.1	0.00e+00	0	30	0	1456472064	30	6064
2026-01-16 17:10:04.70	16.78	32.07	-28.7	-29.4	28.4	0.00e+00	0	30	0	1479540736	30	5972
2026-01-16 17:10:08.74	16.55	32.90	-28.8	-29.4	28.4	0.00e+00	0	30	0	1501560832	30	6007
2026-01-16 17:10:12.78	16.32	33.75	-28.6	-29.2	28.5	0.00e+00	0	30	0	1524629504	30	5848
2026-01-16 17:10:16.81	16.07	34.63	-28.1	-28.7	28.8	0.00e+00	0	30	0	1547698176	30	5555
2026-01-16 17:10:20.85	15.80	35.53	-28.1	-28.8	28.7	0.00e+00	0	30	0	1569718272	30	5575
2026-01-16 17:10:24.89	15.52	36.45	-28.5	-29.1	28.6	0.00e+00	0	30	0	1592786944	30	5824
2026-01-16 17:10:28.92	15.22	37.40	-28.6	-29.3	28.5	0.00e+00	0	30	0	1615855616	30	5899
2026-01-16 17:10:32.96	14.91	38.38	-28.4	-29.0	28.7	0.00e+00	0	30	0	1637875712	30	5698
2026-01-16 17:10:37.00	14.57	39.39	-28.4	-29.0	28.6	0.00e+00	0	30	0	1660944384	30	5745
2026-01-16 17:10:41.04	14.21	40.42	-28.9	-29.5	28.3	0.00e+00	0	30	0	1684013056	30	6051
2026-01-16 17:10:45.08	13.82	41.49	-28.8	-29.4	28.4	0.00e+00	0	30	0	1706033152	30	6011
2026-01-16 17:10:49.12	13.41	42.58	-29.4	-30.0	28.0	0.00e+00	0	30	0	1729101824	30	6446
2026-01-16 17:10:53.15	12.96	43.71	-28.9	-29.5	28.4	0.00e+00	0	30	0	1751121920	30	6042
2026-01-16 17:10:57.19	12.48	44.87	-29.2	-29.9	28.1	0.00e+00	0	30	0	1774190592	30	6322
2026-01-16 17:11:01.23	11.97	46.06	-29.4	-30.1	27.9	0.00e+00	0	30	0	1797259264	30	6476
2026-01-16 17:11:05.27	11.41	47.28	-28.8	-29.4	28.4	0.00e+00	0	30	0	1820327936	30	6031
2026-01-16 17:11:09.31	10.80	48.54	-29.1	-29.7	28.2	0.00e+00	0	30	0	1842348032	30	6196
2026-01-16 17:11:13.35	10.14	49.83	-29.4	-30.0	27.9	0.00e+00	0	30	0	1865416704	30	6442
2026-01-16 17:11:17.38	9.42	51.15	-29.7	-30.3	27.8	0.00e+00	0	30	0	1888485376	30	6648
2026-01-16 17:11:21.43	8.63	52.51	-30.3	-31.0	27.2	0.00e+00	0	30	0	1910505472	32	6424
2026-01-16 17:11:25.47	7.76	53.90	-30.8	-31.4	26.8	0.00e+00	0	30	0	1933574144	34	5988
2026-01-16 17:11:29.51	6.80	55.32	-30.4	-31.1	27.2	0.00e+00	0	30	0	1955594240	34	5763
2026-01-16 17:11:33.55	5.73	56.77	-29.4	-30.0	27.9	0.00e+00	0	30	0	1978662912	32	5745
2026-01-16 17:11:37.59	4.55	58.25	-29.7	-30.3	27.6	0.00e+00	0	30	0	2001731584	32	5926
2026-01-16 17:11:41.63	3.22	59.75	-29.6	-30.2	27.6	0.00e+00	0	30	0	2024800256	32	5847
2026-01-16 17:11:45.67	1.73	61.27	-28.7	-29.3	28.4	0.00e+00	0	30	0	2046820352	30	5940
2026-01-16 17:11:49.71	0.04	62.81	-28.8	-29.4	28.3	0.00e+00	0	30	0	2069889024	30	6010
2026-01-16 17:11:53.75	358.11	64.36	-28.9	-29.5	28.2	0.00e+00	0	30	0	2092957696	30	6036
2026-01-16 17:11:57.79	355.90	65.92	-28.6	-29.2	28.5	0.00e+00	0	30	0	2114977792	30	5867
2026-01-16 17:12:01.83	353.35	67.46	-28.4	-29.0	28.7	0.00e+00	0	30	0	2138046464	30	5698
2026-01-16 17:12:05.88	350.38	68.99	-28.3	-28.9	28.6	0.00e+00	0	30	0	2161115136	30	5658
2026-01-16 17:12:09.92	346.92	70.48	-27.4	-28.1	29.2	0.00e+00	0	30	0	2183135232	28	5764
2026-01-16 17:12:13.96	342.86	71.91	-28.0	-28.6	28.9	0.00e+00	0	30	0	2206203904	28	6146
2026-01-16 17:12:18.00	338.08	73.25	-28.0	-28.6	28.9	0.00e+00	0	30	0	2229272576	28	6123
2026-01-16 17:12:22.04	332.46	74.48	-27.4	-28.1	29.2	0.00e+00	0	31	0	2251292672	28	5777
2026-01-16 17:12:26.08	325.90	75.55	-27.3	-27.8	29.3	0.00e+00	0	31	0	2274361344	28	5616
2026-01-16 17:12:30.12	318.35	76.42	-26.8	-27.4	29.7	0.00e+00	0	31	0	2297430016	26	6006
2026-01-16 17:12:34.17	309.88	77.03	-26.7	-27.3	29.8	0.00e+00	0	31	0	2320498688	26	5916
2026-01-16 17:12:38.20	300.82	77.35	-26.9	-27.6	29.4	0.00e+00	0	31	0	2342518784	26	6105
2026-01-16 17:12:42.25	291.48	77.34	-26.5	-27.1	29.9	0.00e+00	0	30	0	2365587456	26	5814
2026-01-16 17:12:46.29	282.41	77.01	-26.6	-27.3	29.3	0.00e+00	0	30	0	2387607552	26	5903
2026-01-16 17:12:50.33	274.00	76.38	-26.9	-27.5	29.6	0.00e+00	0	30	0	2410676224	26	6067
2026-01-16 17:12:54.36	266.52	75.51	-27.2	-27.9	29.4	0.00e+00	0	30	0	2433744896	26	6328
2026-01-16 17:12:58.40	259.99	74.43	-27.2	-27.8	29.5	0.00e+00	0	30	0	2455764992	26	6288
2026-01-16 17:13:02.43	254.42	73.20	-27.6	-28.2	29.3	0.00e+00	0	31	0	2478833664	26	6599
2026-01-16 17:13:06.47	249.66	71.84	-27.9	-28.4	29.0	0.00e+00	0	31	0	2501902336	28	6033
2026-01-16 17:13:10.51	245.63	70.41	-28.1	-28.6	28.8	0.00e+00	0	31	0	2524971008	28	6163
2026-01-16 17:13:14.55	242.19	68.92	-28.0	-28.7	28.8	0.00e+00	0	31	0	2546991104	28	6186
2026-01-16 17:13:18.59	239.24	67.39	-28.2	-28.8	28.7	0.00e+00	0	30	0	2570059776	28	6315
2026-01-16 17:13:22.63	236.71	65.84	-28.1	-28.8	28.9	0.00e+00	0	30	0	2592079872	28	6275
2026-01-16 17:13:26.67	234.51	64.28	-28.4	-29.1	28.7	0.00e+00	0	30	0	2615148544	28	6477
2026-01-16 17:13:30.71	232.59	62.73	-28.4	-29.0	28.7	0.00e+00	0	30	0	2638217216	28	6416
2026-01-16 17:13:34.75	230.91	61.19	-28.8	-29.4	28.4	0.00e+00	0	30	0	2660237312	30	5971
2026-01-16 17:13:38.79	229.42	59.66	-29.1	-29.7	28.2	0.00e+00	0	30	0	2683305984	30	6237
2026-01-16 17:13:42.83	228.10	58.16	-29.3	-29.9	28.1	0.00e+00	0	30	0	2706374656	30	6325
2026-01-16 17:13:46.88	226.91	56.67	-29.8	-30.4	27.7	0.00e+00	0	30	0	2729443328	32	6019
2026-01-16 17:13:50.92	225.85	55.22	-30.1	-30.6	27.4	0.00e+00	0	30	0	2751463424	32	6161
2026-01-16 17:13:54.96	224.89	53.80	-29.9	-30.6	27.4	0.00e+00	0	30	0	2774532096	32	6166
2026-01-16 17:13:59.00	224.03	52.41	-29.8	-30.4	27.6	0.00e+00	0	30	0	2796552192	32	5974
2026-01-16 17:14:03.04	223.24	51.05	-29.2	-29.8	28.0	0.00e+00	0	30	0	2819620864	32	5571
2026-01-16 17:14:07.08	222.52	49.72	-29.5	-30.2	27.8	0.00e+00	0	30	0	2842689536	32	5887
2026-01-16 17:14:11.12	221.86	48.43	-29.0	-29.7	28.2	0.00e+00	0	30	0	2865758208	32	5539
2026-01-16 17:14:15.15	221.25	47.17	-29.1	-29.8	28.2	0.00e+00	0	30	0	2887778304	32	5579
2026-01-16 17:14:19.19	220.70	45.94	-28.6	-29.3	28.5	0.00e+00	0	30	0	2910846976	30	5901
2026-01-16 17:14:23.23	220.18	44.75	-28.9	-29.5	28.3	0.00e+00	0	30	0	2933915648	30	6046
2026-01-16 17:14:27.27	219.70	43.59	-28.7	-29.2	28.4	0.00e+00	0	30	0	2955935744	30	5887
2026-01-16 17:14:31.31	219.26	42.46	-28.9	-29.4	28.3	0.00e+00	0	30	0	2979004416	30	6023
2026-01-16 17:14:35.35	218.84	41.36	-28.9	-29.4	28.3	0.00e+00	0	30	0	3001024512	30	6017
2026-01-16 17:14:39.39	218.45	40.30	-28.5	-29.2	28.6	0.00e+00	0	30	0	3024093184	30	5854
2026-01-16 17:14:43.42	218.09	39.26	-28.3	-29.0	28.7	0.00e+00	0	30	0	3047161856	30	5707
2026-01-16 17:14:47.46	217.76	38.25	-28.3	-28.9	28.6	0.00e+00	0	30	0	3070230528	30	5631
2026-01-16 17:14:51.50	217.44	37.27	-28.2	-28.9	28.8	0.00e+00	0	30	0	3092250624	30	5672
2026-01-16 17:14:55.54	217.14	36.32	-28.5	-29.2	28.5	0.00e+00	0	30	0	3115319296	30	5868
2026-01-16 17:14:59.58	216.86	35.39	-28.5	-29.2	28.6	0.00e+00	0	30	0	3138387968	30	5876
2026-01-16 17:15:03.62	216.59	34.49	-28.4	-29.0	28.6	0.00e+00	0	30	0	3160408064	30	5699
2026-01-16 17:15:07.65	216.34	33.61	-28.6	-29.1	28.5	0.00e+00	0	30	0	3183476736	30	5825
2026-01-16 17:15:11.69	216.11	32.76	-28.8	-29.3	28.5	0.00e+00	0	30	0	3205496832	30	5958
2026-01-16 17:15:15.73	215.88	31.93	-29.1	-29.8	28.2	0.00e+00	0	30	0	3228565504	30	6284
2026-01-16 17:15:19.76	215.67	31.12	-29.3	-29.9	28.0	0.00e+00	0	30	0	3251634176	30	6359
2026-01-16 17:15:23.81	215.47	30.34	-29.4	-30.2	27.9	0.00e+00	0	30	0	3273654272	30	6550
2026-01-16 17:15:27.85	215.28	29.57	-29.2	-29.9	28.1	0.00e+00	0	30	0	3296722944	30	6330
2026-01-16 17:15:31.88	215.09	28.83	-28.9	-29.5	28.2	0.00e+00	0	30	0	3319791616	30	6051
2026-01-16 17:15:35.93	214.92	28.10	-28.8	-29.3	28.4	0.00e+00	0	30	0	3342860288	30	5934
2026-01-16 17:15:39.97	214.75	27.39	-28.9	-29.5	28.3	0.00e+00	0	30	0	3364880384	30	6058
2026-01-16 17:15:44.01	214.60	26.70	-29.2	-29.9	28.1	0.00e+00	0	30	0	3387949056	30	6362
2026-01-16 17:15:48.04	214.45	26.02	-29.1	-29.9	28.0	0.00e+00	0	30	0	3409969152	30	6320
2026-01-16 17:15:52.08	214.30	25.36	-29.3	-29.9	27.9	0.00e+00	0	30	0	3433037824	30	6347
2026-01-16 17:15:56.13	214.16	24.72	-29.1	-29.8	28.1	0.00e+00	0	29	0	3456106496	30	6305
2026-01-16 17:16:00.17	214.03	24.09	-29.2	-29.9	27.9	0.00e+00	0	29	0	3479175168	30	6386
2026-01-16 17:16:04.21	213.91	23.48	-29.7	-30.4	27.7	0.00e+00	0	29	0	3501195264	30	6745
2026-01-16 17:16:08.25	213.79	22.88	-30.0	-30.7	27.3	0.00e+00	0	30	0	3524263936	32	6222
2026-01-16 17:16:12.29	213.67	22.30	-30.0	-30.8	27.3	0.00e+00	0	30	0	3547332608	32	6256
2026-01-16 17:16:16.32	213.56	21.73	-30.1	-30.6	27.3	0.00e+00	0	29	0	3569352704	32	6171
2026-01-16 17:16:20.36	213.45	21.17	-29.9	-30.6	27.4	0.00e+00	0	29	0	3592421376	32	6168
2026-01-16 17:16:24.41	213.35	20.62	-30.1	-30.6	27.3	0.00e+00	0	29	0	3614441472	32	6153
2026-01-16 17:16:28.45	213.25	20.08	-30.0	-30.6	27.3	0.00e+00	0	29	0	3637510144	32	6134
2026-01-16 17:16:32.49	213.16	19.56	-30.4	-31.1	27.1	0.00e+00	0	29	0	3660578816	32	6497
2026-01-16 17:16:36.53	213.07	19.04	-30.5	-31.2	27.0	0.00e+00	0	29	0	3683647488	32	6592
2026-01-16 17:16:40.57	212.98	18.54	-30.5	-31.1	27.0	0.00e+00	0	29	0	3705667584	32	6506
2026-01-16 17:16:44.61	212.89	18.04	-30.6	-31.2	26.9	0.00e+00	0	29	0	3728736256	32	6550
2026-01-16 17:16:48.65	212.81	17.56	-30.4	-31.2	27.0	0.00e+00	0	29	0	3750756352	34	5839
2026-01-16 17:16:52.69	212.73	17.09	-30.7	-31.4	26.9	0.00e+00	0	29	0	3773825024	34	5994
2026-01-16 17:16:56.72	212.66	16.62	-30.8	-31.5	26.7	0.00e+00	0	29	0	3796893696	34	6076
2026-01-16 17:17:00.76	212.59	16.16	-30.9	-31.6	26.6	0.00e+00	0	29	0	3819962368	34	6142
2026-01-16 17:17:04.80	212.52	15.71	-31.0	-31.7	26.5	0.00e+00	0	29	0	3841982464	34	6229
2026-01-16 17:17:08.85	212.45	15.27	-31.3	-32.0	26.2	0.00e+00	0	29	0	3865051136	34	6460
2026-01-16 17:17:12.89	212.38	14.84	-31.4	-32.0	26.1	0.00e+00	0	29	0	3888119808	34	6393
2026-01-16 17:17:16.93	212.32	14.41	-31.6	-32.3	26.0	0.00e+00	0	29	0	3910139904	34	6663
2026-01-16 17:17:20.97	212.26	14.00	-31.9	-32.5	25.7	0.00e+00	0	29	0	3933208576	36	6090
2026-01-16 17:17:25.01	212.20	13.59	-31.8	-32.5	25.7	0.00e+00	0	29	0	3955228672	36	6103
2026-01-16 17:17:29.05	212.14	13.18	-32.0	-32.7	25.7	0.00e+00	0	29	0	3978297344	36	6237
2026-01-16 17:17:33.08	212.09	12.78	-32.0	-32.8	25.5	0.00e+00	0	29	0	4001366016	36	6268
2026-01-16 17:17:37.12	212.03	12.39	-32.2	-32.9	25.4	0.00e+00	0	29	0	4024434688	36	6368
2026-01-16 17:17:41.16	211.98	12.01	-32.3	-33.0	25.4	0.00e+00	0	29	0	4046454784	36	6459
2026-01-16 17:17:45.20	211.93	11.63	-32.5	-33.1	25.1	0.00e+00	0	29	0	4069523456	36	6523
2026-01-16 17:17:49.24	211.88	11.26	-32.6	-33.2	25.1	0.00e+00	0	29	0	4092592128	38	5845
2026-01-16 17:17:53.28	211.84	10.89	-32.6	-33.2	24.9	0.00e+00	0	29	0	4114612224	38	5875
2026-01-16 17:17:57.31	211.79	10.53	-32.7	-33.3	24.9	0.00e+00	0	29	0	4137680896	38	5938
2026-01-16 17:18:01.35	211.75	10.17	-32.8	-33.4	24.8	0.00e+00	0	29	0	4159700992	38	5986
2026-01-16 17:18:05.39	211.70	9.82	-33.1	-33.7	24.6	0.00e+00	0	29	0	4182769664	38	6197
2026-01-16 17:18:09.44	211.66	9.47	-32.9	-33.6	24.6	0.00e+00	0	29	0	4205838336	38	6104
2026-01-16 17:18:13.48	211.62	9.13	-33.1	-33.7	24.4	0.00e+00	0	29	0	4228907008	38	6184
2026-01-16 17:18:17.52	211.58	8.79	-33.2	-33.8	24.3	0.00e+00	0	29	0	4250927104	38	6296
2026-01-16 17:18:21.56	211.54	8.46	-33.4	-34.0	24.1	0.00e+00	0	29	0	4273995776	38	6453
2026-01-16 17:18:25.60	211.51	8.13	-33.6	-34.2	23.8	0.00e+00	0	29	0	4297064448	40	5886
2026-01-16 17:18:29.63	211.47	7.80	-33.5	-34.1	23.9	0.00e+00	0	29	0	4319084544	40	5813
2026-01-16 17:18:33.67	211.44	7.48	-34.0	-34.8	23.4	0.00e+00	0	29	0	4342153216	40	6274
2026-01-16 17:18:37.71	211.40	7.17	-33.8	-34.5	23.5	0.00e+00	0	29	0	4364173312	40	6058
2026-01-16 17:18:41.75	211.37	6.85	-33.8	-34.6	23.6	0.00e+00	0	29	0	4387241984	40	6168
2026-01-16 17:18:45.79	211.34	6.54	-34.4	-35.1	22.8	0.00e+00	0	29	0	4410310656	40	6494
2026-01-16 17:18:49.83	211.31	6.24	-33.8	-34.5	23.5	0.00e+00	0	29	0	4433379328	40	6078
2026-01-16 17:18:53.87	211.28	5.94	-34.2	-34.9	23.0	0.00e+00	0	29	0	4455399424	40	6343
2026-01-16 17:18:57.91	211.25	5.64	-34.5	-35.4	22.6	0.00e+00	0	29	0	4478468096	40	6713
2026-01-16 17:19:01.95	211.22	5.34	-34.5	-35.2	22.7	0.00e+00	0	29	0	4501536768	42	5875
2026-01-16 17:19:05.99	211.19	5.05	-34.7	-35.4	22.5	0.00e+00	0	28	0	4523556864	42	6004
2026-01-16 17:19:10.03	211.17	4.76	-34.6	-35.4	22.5	0.00e+00	0	29	0	4546625536	42	5975
2026-01-16 17:19:14.07	211.14	4.48	-35.0	-35.7	22.0	0.00e+00	0	29	0	4569694208	42	6228
2026-01-16 17:19:18.11	211.12	4.20	-35.0	-35.7	21.9	0.00e+00	0	29	0	4591714304	42	6222
2026-01-16 17:19:22.14	211.09	3.92	-35.4	-36.3	21.4	0.00e+00	0	29	0	4614782976	42	6640
2026-01-16 17:19:26.18	211.07	3.64	-35.3	-36.0	21.6	0.00e+00	0	28	0	4637851648	44	5761
2026-01-16 17:19:30.21	211.05	3.37	-35.8	-36.6	21.1	0.00e+00	0	28	0	4659871744	44	6169
2026-01-16 17:19:34.26	211.02	3.09	-35.5	-36.4	21.1	0.00e+00	0	29	0	4682940416	44	6025
2026-01-16 17:19:38.30	211.00	2.83	-47.3	-59.8	3.6	8.45e-01	0	28	104	4690280448	60	35515
2026-01-16 17:19:42.34	210.98	2.56	-48.0	-60.1	3.5	8.46e-01	0	28	104	4690280448	60	36724
2026-01-16 17:19:46.38	210.96	2.30	-47.5	-59.9	3.6	8.45e-01	0	29	104	4690280448	60	35938
2026-01-16 17:19:50.42	210.94	2.03	-47.7	-60.0	3.6	8.46e-01	0	28	104	4690280448	60	36111
2026-01-16 17:19:54.46	210.92	1.78	-47.9	-60.1	3.6	8.44e-01	0	29	104	4690280448	60	36386
2026-01-16 17:19:58.50	210.90	1.52	-47.9	-60.1	3.6	8.45e-01	0	29	104	4690280448	60	36450
2026-01-16 17:20:02.54	210.88	1.27	-47.9	-60.0	3.6	8.46e-01	0	29	104	4690280448	60	36258
2026-01-16 17:20:06.58	210.87	1.01	-48.0	-60.2	3.6	8.45e-01	0	29	104	4690280448	60	36828
2026-01-16 17:20:10.62	210.85	0.76	-47.9	-60.0	3.6	8.46e-01	0	28	104	4690280448	60	36170
2026-01-16 17:20:14.65	210.83	0.52	-48.0	-60.2	3.6	8.46e-01	0	28	104	4690280448	60	36832
2026-01-16 17:20:18.69	210.82	0.27	-47.9	-60.1	3.6	8.45e-01	0	28	104	4690280448	60	36512
2026-01-16 17:20:22.73	210.80	0.03	-47.9	-60.0	3.6	8.46e-01	0	29	104	4690280448	60	35997

#Closed at: 2026-01-16 17:20:23
#Recorded file [4690 MB]: D:/lorett/data/35029_260117_050457.dat