passes_logs/2026/01/16/R4.6S_Anadyr/R4.6S_Anadyr__20260116_135602_NOAA_21_JPSS-2_rec.log

#Pass ID: 20260116_135602_NOAA 21 (JPSS-2)
#Satellite: NOAA 21 (JPSS-2)
#Configuration: NOAA-21
#almurnet v.1.7.20251203
#Start time: 2026-01-16 13:56:05

#Version: 2.2.20231116
#Station: R4.6S_Anadyr
#Location: 177.4865 lon 64.73178 lat
#TLE: 1 54234U 22150A   26015.92901934  .00000025  00000+0  32700-4 0  9991
#TLE: 2 54234  98.7499 316.8175 0000634 284.8145  75.2961 14.19534841164946

#Time	Az	El	Level	Level2	SNR	BER	BlckErr	Temp	State	Recorded	gain1	gain2
2026-01-16 13:56:05.65	19.29	0.19	-48.7	-60.1	3.3	1.54e+00	0	26	0	0	60	35437
2026-01-16 13:56:09.68	19.40	0.42	-48.1	-61.0	3.5	1.51e+00	0	26	104	0	60	39164
2026-01-16 13:56:13.72	19.52	0.66	-47.8	-60.6	3.5	1.52e+00	0	26	104	0	60	37623
2026-01-16 13:56:17.76	19.63	0.90	-47.1	-59.9	3.5	1.52e+00	0	27	104	0	60	34821
2026-01-16 13:56:21.80	19.75	1.15	-46.4	-59.2	3.5	1.52e+00	0	27	104	0	60	32047
2026-01-16 13:56:25.84	19.87	1.39	-46.3	-59.1	3.5	1.52e+00	0	27	104	0	60	31538
2026-01-16 13:56:29.88	19.99	1.64	-46.3	-59.2	3.5	1.52e+00	0	27	104	0	60	31957
2026-01-16 13:56:33.92	20.11	1.89	-46.3	-59.2	3.5	1.52e+00	0	27	104	0	60	31842
2026-01-16 13:56:37.96	20.24	2.14	-46.3	-58.7	3.5	1.52e+00	0	27	104	0	60	30136
2026-01-16 13:56:41.99	20.36	2.39	-46.2	-57.3	3.5	1.51e+00	0	27	104	0	60	25593
2026-01-16 13:56:46.03	20.49	2.64	-45.7	-54.2	3.9	1.05e+00	0	27	104	0	60	18057
2026-01-16 13:56:50.08	20.62	2.90	-40.5	-42.3	16.2	0.00e+00	123	27	0	9437184	56	5781
2026-01-16 13:56:54.11	20.75	3.16	-37.7	-39.0	19.2	0.00e+00	122	27	0	22020096	48	6249
2026-01-16 13:56:58.16	20.89	3.42	-39.2	-40.8	17.7	0.00e+00	122	27	0	34603008	50	6836
2026-01-16 13:57:02.20	21.02	3.69	-38.0	-39.3	19.6	0.00e+00	120	27	0	47185920	48	6435
2026-01-16 13:57:06.24	21.16	3.96	-40.6	-42.5	15.9	0.00e+00	122	27	0	54525952	54	6602
2026-01-16 13:57:10.28	21.30	4.23	-40.5	-42.3	16.4	0.00e+00	122	27	0	67108864	54	6429
2026-01-16 13:57:14.32	21.44	4.50	-38.2	-39.5	19.0	0.00e+00	122	27	0	79691776	50	5926
2026-01-16 13:57:18.36	21.59	4.77	-38.8	-40.2	18.4	0.00e+00	122	27	0	92274688	50	6411
2026-01-16 13:57:22.40	21.73	5.05	-38.4	-39.8	18.7	0.00e+00	123	27	0	104857600	50	6117
2026-01-16 13:57:26.44	21.88	5.33	-36.5	-37.7	20.9	0.00e+00	122	27	0	117440512	46	5997
2026-01-16 13:57:30.49	22.03	5.62	-36.3	-37.5	21.0	0.00e+00	120	27	0	130023424	46	5861
2026-01-16 13:57:34.52	22.19	5.90	-36.2	-37.3	21.2	0.00e+00	122	28	0	142606336	46	5736
2026-01-16 13:57:38.56	22.35	6.19	-36.1	-37.2	21.4	0.00e+00	122	28	0	155189248	46	5667
2026-01-16 13:57:42.60	22.51	6.48	-35.8	-36.9	21.7	0.00e+00	123	28	0	167772160	46	5489
2026-01-16 13:57:46.64	22.67	6.78	-36.3	-37.4	21.3	0.00e+00	123	28	0	180355072	46	5793
2026-01-16 13:57:50.68	22.84	7.08	-35.9	-37.0	21.7	0.00e+00	121	28	0	192937984	46	5550
2026-01-16 13:57:54.72	23.00	7.38	-35.8	-36.8	21.7	0.00e+00	123	28	0	205520896	44	6129
2026-01-16 13:57:58.77	23.18	7.69	-35.9	-37.0	21.7	0.00e+00	120	28	0	218103808	44	6216
2026-01-16 13:58:02.81	23.35	7.99	-35.6	-36.6	22.0	0.00e+00	120	28	0	230686720	44	5991
2026-01-16 13:58:06.85	23.53	8.31	-35.4	-36.5	22.2	0.00e+00	123	28	0	243269632	44	5865
2026-01-16 13:58:10.88	23.71	8.62	-35.2	-36.2	22.3	0.00e+00	123	28	0	255852544	44	5695
2026-01-16 13:58:14.93	23.90	8.94	-35.2	-36.2	22.4	0.00e+00	123	28	0	268435456	44	5723
2026-01-16 13:58:18.97	24.09	9.27	-35.3	-36.3	22.4	0.00e+00	121	28	0	281018368	44	5738
2026-01-16 13:58:23.01	24.28	9.60	-35.1	-36.2	22.5	0.00e+00	123	28	0	293601280	44	5667
2026-01-16 13:58:27.05	24.48	9.93	-35.0	-36.0	22.7	0.00e+00	122	28	0	306184192	44	5545
2026-01-16 13:58:31.10	24.68	10.27	-34.7	-35.7	22.9	0.00e+00	122	28	0	318767104	44	5385
2026-01-16 13:58:35.13	24.89	10.61	-34.8	-35.8	22.9	0.00e+00	120	28	0	331350016	42	6106
2026-01-16 13:58:39.17	25.10	10.95	-34.5	-35.4	23.2	0.00e+00	123	28	0	344981504	42	5856
2026-01-16 13:58:43.21	25.31	11.30	-34.8	-35.8	23.0	0.00e+00	122	28	0	357564416	42	6072
2026-01-16 13:58:47.25	25.53	11.66	-34.4	-35.3	23.3	0.00e+00	121	28	0	370147328	42	5786
2026-01-16 13:58:51.29	25.76	12.02	-34.2	-35.2	23.4	0.00e+00	122	28	0	382730240	42	5691
2026-01-16 13:58:55.33	25.99	12.38	-34.2	-35.1	23.6	0.00e+00	123	28	0	395313152	42	5654
2026-01-16 13:58:59.37	26.22	12.75	-34.2	-35.1	23.5	0.00e+00	121	28	0	407896064	42	5648
2026-01-16 13:59:03.41	26.46	13.13	-34.1	-35.0	23.7	0.00e+00	120	28	0	420478976	42	5571
2026-01-16 13:59:07.45	26.71	13.51	-34.1	-35.0	23.7	0.00e+00	123	28	0	433061888	42	5579
2026-01-16 13:59:11.49	26.96	13.90	-34.2	-35.1	23.6	0.00e+00	119	28	0	445644800	42	5632
2026-01-16 13:59:15.53	27.22	14.29	-34.2	-35.2	23.6	0.00e+00	123	28	0	458227712	42	5663
2026-01-16 13:59:19.57	27.48	14.69	-34.2	-35.2	23.5	0.00e+00	123	28	0	470810624	42	5681
2026-01-16 13:59:23.61	27.76	15.09	-34.5	-35.4	23.3	0.00e+00	122	28	0	483393536	42	5853
2026-01-16 13:59:27.65	28.04	15.50	-34.3	-35.3	23.5	0.00e+00	122	29	0	495976448	42	5734
2026-01-16 13:59:31.70	28.32	15.92	-34.5	-35.5	23.4	0.00e+00	123	28	0	508559360	42	5890
2026-01-16 13:59:35.74	28.62	16.34	-34.4	-35.3	23.5	0.00e+00	123	29	0	521142272	42	5779
2026-01-16 13:59:39.78	28.92	16.77	-34.3	-35.2	23.5	0.00e+00	122	29	0	533725184	42	5710
2026-01-16 13:59:43.82	29.23	17.21	-34.3	-35.2	23.7	0.00e+00	120	29	0	546308096	42	5685
2026-01-16 13:59:47.86	29.55	17.65	-34.2	-35.2	23.7	0.00e+00	122	29	0	558891008	42	5660
2026-01-16 13:59:51.90	29.87	18.11	-34.0	-34.9	23.9	0.00e+00	120	29	0	571473920	42	5490
2026-01-16 13:59:55.94	30.21	18.57	-34.0	-34.9	23.9	0.00e+00	122	29	0	584056832	42	5517
2026-01-16 13:59:59.98	30.56	19.03	-33.9	-34.8	24.0	0.00e+00	123	29	0	596639744	42	5457
2026-01-16 14:00:04.02	30.92	19.51	-33.9	-34.8	24.0	0.00e+00	123	29	0	609222656	42	5429
2026-01-16 14:00:08.06	31.28	19.99	-33.6	-34.5	24.2	0.00e+00	123	29	0	621805568	40	5896
2026-01-16 14:00:12.10	31.66	20.48	-33.3	-34.2	24.5	0.00e+00	122	29	0	634388480	40	5704
2026-01-16 14:00:16.14	32.05	20.99	-33.3	-34.2	24.5	0.00e+00	123	29	0	646971392	40	5690
2026-01-16 14:00:20.19	32.46	21.50	-33.0	-33.9	24.6	0.00e+00	122	29	0	660602880	40	5512
2026-01-16 14:00:24.23	32.87	22.01	-33.1	-33.9	24.7	0.00e+00	123	29	0	673185792	40	5529
2026-01-16 14:00:28.27	33.30	22.54	-32.9	-33.7	24.9	0.00e+00	122	29	0	685768704	38	6045
2026-01-16 14:00:32.30	33.75	23.08	-32.9	-33.8	24.9	0.00e+00	122	29	0	698351616	38	6080
2026-01-16 14:00:36.34	34.21	23.63	-32.8	-33.7	24.8	0.00e+00	123	29	0	710934528	38	6011
2026-01-16 14:00:40.39	34.68	24.18	-32.9	-33.8	24.8	0.00e+00	122	29	0	723517440	38	6086
2026-01-16 14:00:44.43	35.18	24.75	-33.0	-33.9	24.8	0.00e+00	123	29	0	736100352	38	6157
2026-01-16 14:00:48.47	35.69	25.33	-33.0	-33.9	24.7	0.00e+00	122	29	0	748683264	38	6147
2026-01-16 14:00:52.51	36.21	25.92	-33.2	-34.1	24.6	0.00e+00	122	29	0	761266176	38	6310
2026-01-16 14:00:56.55	36.76	26.52	-33.5	-34.4	24.5	0.00e+00	122	29	0	773849088	38	6556
2026-01-16 14:01:00.58	37.33	27.12	-33.6	-34.5	24.4	0.00e+00	122	29	0	786432000	40	5889
2026-01-16 14:01:04.62	37.92	27.75	-34.0	-34.9	24.1	0.00e+00	123	29	0	799014912	40	6142
2026-01-16 14:01:08.66	38.53	28.38	-33.8	-34.7	24.2	0.00e+00	122	29	0	811597824	40	6046
2026-01-16 14:01:12.70	39.17	29.02	-34.0	-34.9	24.1	0.00e+00	122	29	0	824180736	40	6152
2026-01-16 14:01:16.75	39.83	29.68	-34.2	-35.1	23.8	0.00e+00	123	29	0	836763648	40	6307
2026-01-16 14:01:20.79	40.52	30.34	-34.1	-35.0	24.1	0.00e+00	120	29	0	849346560	40	6253
2026-01-16 14:01:24.83	41.24	31.02	-34.2	-35.1	24.0	0.00e+00	123	29	0	861929472	40	6349
2026-01-16 14:01:28.87	41.98	31.70	-33.8	-34.7	24.4	0.00e+00	123	29	0	874512384	40	6020
2026-01-16 14:01:32.91	42.76	32.40	-34.0	-34.9	24.1	0.00e+00	122	29	0	887095296	40	6153
2026-01-16 14:01:36.95	43.58	33.11	-33.9	-34.9	24.0	0.00e+00	122	29	0	899678208	40	6140
2026-01-16 14:01:40.99	44.42	33.83	-34.5	-35.4	23.7	0.00e+00	122	30	0	912261120	40	6557
2026-01-16 14:01:45.03	45.31	34.56	-34.5	-35.5	23.7	0.00e+00	122	30	0	924844032	42	5878
2026-01-16 14:01:49.08	46.24	35.30	-35.0	-35.9	23.3	0.00e+00	122	30	0	937426944	42	6194
2026-01-16 14:01:53.12	47.21	36.05	-35.2	-36.2	23.2	0.00e+00	123	30	0	951058432	42	6354
2026-01-16 14:01:57.16	48.22	36.81	-35.1	-36.1	23.2	0.00e+00	121	30	0	962592768	42	6300
2026-01-16 14:02:01.20	49.28	37.57	-35.5	-36.5	23.1	0.00e+00	123	30	0	976224256	42	6587
2026-01-16 14:02:05.24	50.39	38.34	-35.6	-36.6	22.7	0.00e+00	122	30	0	988807168	44	5959
2026-01-16 14:02:09.28	51.56	39.12	-35.2	-36.2	23.0	0.00e+00	120	30	0	1001390080	44	5684
2026-01-16 14:02:13.32	52.78	39.90	-35.8	-36.9	22.6	0.00e+00	122	30	0	1013972992	44	6136
2026-01-16 14:02:17.36	54.06	40.68	-35.7	-36.6	22.7	0.00e+00	122	30	0	1026555904	44	5990
2026-01-16 14:02:21.40	55.40	41.47	-36.3	-37.3	22.2	0.00e+00	123	30	0	1039138816	44	6453
2026-01-16 14:02:25.44	56.81	42.25	-37.1	-38.2	21.4	0.00e+00	120	30	0	1051721728	46	6391
2026-01-16 14:02:29.48	58.29	43.03	-38.1	-39.3	20.7	0.00e+00	120	30	0	1064304640	48	6435
2026-01-16 14:02:33.52	59.84	43.80	-37.5	-38.6	21.1	0.00e+00	122	30	0	1076887552	48	5958
2026-01-16 14:02:37.56	61.47	44.57	-36.8	-37.9	21.7	0.00e+00	120	30	0	1089470464	46	6160
2026-01-16 14:02:41.61	63.18	45.32	-36.8	-37.9	21.5	0.00e+00	123	30	0	1102053376	46	6176
2026-01-16 14:02:45.65	64.96	46.06	-36.7	-37.8	21.9	0.00e+00	122	30	0	1114636288	46	6082
2026-01-16 14:02:49.69	66.83	46.78	-36.7	-37.8	22.1	0.00e+00	123	30	0	1127219200	46	6087
2026-01-16 14:02:53.73	68.79	47.48	-35.9	-36.9	22.7	0.00e+00	123	30	0	1139802112	46	5492
2026-01-16 14:02:57.77	70.83	48.16	-36.3	-37.3	22.4	0.00e+00	121	30	0	1152385024	46	5760
2026-01-16 14:03:01.81	72.97	48.80	-36.1	-37.0	22.6	0.00e+00	123	30	0	1164967936	46	5592
2026-01-16 14:03:05.84	75.18	49.41	-36.6	-37.7	22.1	0.00e+00	123	30	0	1177550848	46	6001
2026-01-16 14:03:09.89	77.50	49.98	-35.5	-36.5	22.8	0.00e+00	123	30	0	1190133760	44	5907
2026-01-16 14:03:13.93	79.89	50.51	-35.1	-36.1	23.3	0.00e+00	123	30	0	1202716672	44	5625
2026-01-16 14:03:17.97	82.36	50.98	-35.1	-36.0	23.3	0.00e+00	123	30	0	1215299584	44	5590
2026-01-16 14:03:22.01	84.91	51.41	-35.4	-36.4	22.9	0.00e+00	123	30	0	1227882496	44	5855
2026-01-16 14:03:26.05	87.52	51.78	-35.3	-36.4	22.7	0.00e+00	123	30	0	1240465408	42	6528
2026-01-16 14:03:30.09	90.20	52.09	-34.8	-35.8	22.9	0.00e+00	122	30	0	1253048320	42	6084
2026-01-16 14:03:34.13	92.93	52.34	-35.4	-36.4	23.0	0.00e+00	123	30	0	1266679808	42	6506
2026-01-16 14:03:38.17	95.69	52.52	-34.9	-35.8	23.6	0.00e+00	123	30	0	1279262720	42	6127
2026-01-16 14:03:42.21	98.49	52.63	-34.3	-35.2	24.0	0.00e+00	123	30	0	1291845632	42	5719
2026-01-16 14:03:46.26	101.31	52.68	-34.6	-35.5	23.5	0.00e+00	122	30	0	1304428544	42	5879
2026-01-16 14:03:50.30	104.12	52.65	-34.2	-35.2	24.0	0.00e+00	123	30	0	1317011456	42	5675
2026-01-16 14:03:54.34	106.92	52.56	-34.6	-35.6	23.6	0.00e+00	121	30	0	1329594368	42	5954
2026-01-16 14:03:58.38	109.70	52.39	-36.4	-37.6	21.8	0.00e+00	123	30	0	1342177280	44	6680
2026-01-16 14:04:02.42	112.44	52.16	-35.2	-36.2	22.7	0.00e+00	123	30	0	1354760192	44	5715
2026-01-16 14:04:06.46	115.13	51.87	-35.4	-36.4	22.7	0.00e+00	123	30	0	1367343104	44	5792
2026-01-16 14:04:10.50	117.77	51.52	-34.6	-35.5	23.6	0.00e+00	122	30	0	1379926016	42	5913
2026-01-16 14:04:14.54	120.34	51.10	-35.1	-36.1	22.9	0.00e+00	123	30	0	1392508928	42	6335
2026-01-16 14:04:18.58	122.84	50.64	-35.6	-36.6	22.7	0.00e+00	122	30	0	1405091840	42	6680
2026-01-16 14:04:22.62	125.25	50.12	-35.9	-36.9	22.4	0.00e+00	122	30	0	1417674752	44	6178
2026-01-16 14:04:26.67	127.59	49.56	-35.2	-36.1	23.1	0.00e+00	120	30	0	1430257664	44	5647
2026-01-16 14:04:30.71	129.84	48.96	-35.4	-36.4	22.9	0.00e+00	122	30	0	1442840576	44	5801
2026-01-16 14:04:34.75	132.00	48.32	-35.5	-36.5	22.8	0.00e+00	123	30	0	1455423488	44	5868
2026-01-16 14:04:38.79	134.07	47.66	-36.5	-37.6	21.7	0.00e+00	122	30	0	1468006400	44	6694
2026-01-16 14:04:42.83	136.06	46.96	-35.6	-36.5	22.8	0.00e+00	120	30	0	1480589312	44	5921
2026-01-16 14:04:46.88	137.96	46.24	-36.0	-37.0	22.3	0.00e+00	123	30	0	1493172224	44	6249
2026-01-16 14:04:50.92	139.77	45.50	-35.6	-36.6	22.8	0.00e+00	122	30	0	1505755136	44	5956
2026-01-16 14:04:54.95	141.50	44.75	-36.1	-37.1	22.3	0.00e+00	123	30	0	1518338048	44	6336
2026-01-16 14:04:59.00	143.15	43.98	-37.3	-38.5	21.2	0.00e+00	122	30	0	1530920960	46	6581
2026-01-16 14:05:03.04	144.73	43.21	-36.1	-37.1	22.5	0.00e+00	122	31	0	1543503872	46	5600
2026-01-16 14:05:07.08	146.23	42.43	-35.5	-36.5	22.7	0.00e+00	120	31	0	1557135360	44	5917
2026-01-16 14:05:11.12	147.66	41.64	-35.5	-36.4	22.8	0.00e+00	123	30	0	1569718272	44	5858
2026-01-16 14:05:15.16	149.02	40.85	-36.3	-37.3	22.1	0.00e+00	122	30	0	1582301184	44	6462
2026-01-16 14:05:19.20	150.32	40.06	-36.2	-37.3	22.0	0.00e+00	123	31	0	1594884096	44	6449
2026-01-16 14:05:23.24	151.56	39.28	-35.5	-36.5	22.9	0.00e+00	123	30	0	1607467008	44	5886
2026-01-16 14:05:27.28	152.74	38.50	-34.6	-35.5	23.7	0.00e+00	123	31	0	1620049920	42	5861
2026-01-16 14:05:31.33	153.87	37.72	-35.7	-36.7	22.7	0.00e+00	122	31	0	1632632832	44	6036
2026-01-16 14:05:35.37	154.94	36.95	-35.1	-36.0	23.3	0.00e+00	123	31	0	1645215744	44	5572
2026-01-16 14:05:39.41	155.97	36.19	-34.8	-35.7	23.4	0.00e+00	122	31	0	1657798656	44	5402
2026-01-16 14:05:43.45	156.95	35.43	-34.3	-35.2	23.9	0.00e+00	123	31	0	1670381568	42	5701
2026-01-16 14:05:47.49	157.89	34.69	-34.4	-35.3	23.8	0.00e+00	120	31	0	1682964480	42	5785
2026-01-16 14:05:51.53	158.79	33.95	-34.2	-35.1	24.0	0.00e+00	122	31	0	1695547392	42	5612
2026-01-16 14:05:55.57	159.65	33.23	-34.5	-35.4	23.7	0.00e+00	123	31	0	1708130304	42	5836
2026-01-16 14:05:59.61	160.47	32.51	-32.9	-33.8	25.0	0.00e+00	123	31	0	1720713216	40	5407
2026-01-16 14:06:03.66	161.26	31.80	-33.5	-34.4	24.4	0.00e+00	123	31	0	1733296128	40	5837
2026-01-16 14:06:07.70	162.02	31.11	-33.9	-34.9	23.9	0.00e+00	123	31	0	1745879040	40	6138
2026-01-16 14:06:11.73	162.74	30.43	-33.4	-34.3	24.4	0.00e+00	122	31	0	1758461952	40	5789
2026-01-16 14:06:15.77	163.44	29.76	-32.9	-33.7	25.0	0.00e+00	123	31	0	1771044864	40	5395
2026-01-16 14:06:19.82	164.11	29.10	-33.5	-34.4	24.5	0.00e+00	122	31	0	1783627776	40	5842
2026-01-16 14:06:23.85	164.75	28.45	-33.5	-34.4	24.4	0.00e+00	123	31	0	1796210688	40	5842
2026-01-16 14:06:27.89	165.37	27.81	-33.8	-34.7	24.1	0.00e+00	123	31	0	1808793600	40	6057
2026-01-16 14:06:31.93	165.96	27.19	-33.4	-34.3	24.4	0.00e+00	123	31	0	1821376512	40	5726
2026-01-16 14:06:35.97	166.54	26.57	-33.3	-34.2	24.4	0.00e+00	120	31	0	1835008000	40	5710
2026-01-16 14:06:40.02	167.09	25.96	-33.1	-34.0	24.4	0.00e+00	122	31	0	1847590912	40	5577
2026-01-16 14:06:44.06	167.62	25.37	-33.1	-33.9	24.6	0.00e+00	123	31	0	1859125248	40	5522
2026-01-16 14:06:48.10	168.13	24.79	-32.8	-33.6	25.0	0.00e+00	120	31	0	1872756736	38	5991
2026-01-16 14:06:52.14	168.63	24.21	-32.8	-33.7	24.9	0.00e+00	123	31	0	1885339648	38	6039
2026-01-16 14:06:56.18	169.11	23.65	-33.0	-33.9	24.8	0.00e+00	122	31	0	1897922560	38	6148
2026-01-16 14:07:00.22	169.57	23.10	-33.1	-34.0	24.7	0.00e+00	123	31	0	1910505472	38	6210
2026-01-16 14:07:04.26	170.02	22.56	-33.2	-34.1	24.5	0.00e+00	123	31	0	1923088384	38	6326
2026-01-16 14:07:08.30	170.45	22.02	-33.2	-34.1	24.7	0.00e+00	120	31	0	1935671296	38	6286
2026-01-16 14:07:12.34	170.87	21.50	-33.0	-33.9	24.6	0.00e+00	121	31	0	1948254208	38	6149
2026-01-16 14:07:16.38	171.28	20.99	-32.8	-33.7	24.8	0.00e+00	122	31	0	1960837120	38	6049
2026-01-16 14:07:20.42	171.67	20.48	-33.0	-33.9	24.7	0.00e+00	123	31	0	1973420032	38	6156
2026-01-16 14:07:24.46	172.05	19.98	-33.1	-34.0	24.7	0.00e+00	122	31	0	1986002944	38	6230
2026-01-16 14:07:28.50	172.42	19.50	-33.2	-34.1	24.6	0.00e+00	123	31	0	1998585856	38	6292
2026-01-16 14:07:32.54	172.78	19.02	-33.4	-34.3	24.3	0.00e+00	122	31	0	2011168768	38	6480
2026-01-16 14:07:36.58	173.13	18.55	-33.7	-34.7	24.0	0.00e+00	122	31	0	2023751680	40	6008
2026-01-16 14:07:40.62	173.46	18.08	-33.7	-34.6	24.0	0.00e+00	123	31	0	2036334592	40	5979
2026-01-16 14:07:44.67	173.79	17.63	-33.9	-34.8	23.9	0.00e+00	123	31	0	2048917504	40	6087
2026-01-16 14:07:48.70	174.11	17.18	-34.0	-34.9	23.9	0.00e+00	122	31	0	2061500416	40	6161
2026-01-16 14:07:52.75	174.42	16.74	-33.9	-34.8	24.0	0.00e+00	123	31	0	2074083328	40	6073
2026-01-16 14:07:56.79	174.72	16.30	-34.0	-34.9	23.8	0.00e+00	122	31	0	2086666240	40	6205
2026-01-16 14:08:00.84	175.02	15.87	-34.0	-35.0	23.8	0.00e+00	123	31	0	2099249152	40	6221
2026-01-16 14:08:04.88	175.30	15.45	-34.1	-35.1	23.7	0.00e+00	123	31	0	2111832064	40	6289
2026-01-16 14:08:08.92	175.58	15.04	-34.3	-35.3	23.6	0.00e+00	123	31	0	2125463552	40	6426
2026-01-16 14:08:12.96	175.85	14.63	-34.3	-35.3	23.5	0.00e+00	120	31	0	2138046464	40	6442
2026-01-16 14:08:17.00	176.12	14.23	-34.2	-35.2	23.6	0.00e+00	123	31	0	2150629376	40	6361
2026-01-16 14:08:21.04	176.38	13.84	-34.4	-35.3	23.5	0.00e+00	122	31	0	2163212288	40	6466
2026-01-16 14:08:25.09	176.63	13.44	-34.5	-35.4	23.3	0.00e+00	122	31	0	2175795200	40	6540
2026-01-16 14:08:29.12	176.87	13.06	-34.3	-35.2	23.6	0.00e+00	123	31	0	2188378112	40	6362
2026-01-16 14:08:33.17	177.11	12.68	-34.3	-35.2	23.5	0.00e+00	122	31	0	2200961024	40	6399
2026-01-16 14:08:37.20	177.35	12.31	-34.5	-35.5	23.3	0.00e+00	123	31	0	2213543936	40	6589
2026-01-16 14:08:41.24	177.58	11.94	-34.6	-35.6	23.2	0.00e+00	123	31	0	2226126848	40	6688
2026-01-16 14:08:45.28	177.80	11.58	-34.7	-35.6	23.2	0.00e+00	123	31	0	2238709760	40	6712
2026-01-16 14:08:49.32	178.02	11.22	-34.8	-35.8	23.0	0.00e+00	120	31	0	2251292672	42	6110
2026-01-16 14:08:53.36	178.23	10.87	-34.9	-35.9	23.0	0.00e+00	123	31	0	2263875584	42	6171
2026-01-16 14:08:57.40	178.44	10.52	-35.0	-36.0	22.8	0.00e+00	122	31	0	2276458496	42	6247
2026-01-16 14:09:01.44	178.64	10.18	-35.0	-36.0	22.7	0.00e+00	122	31	0	2289041408	42	6261
2026-01-16 14:09:05.48	178.84	9.84	-35.1	-36.1	22.6	0.00e+00	122	31	0	2301624320	42	6337
2026-01-16 14:09:09.52	179.04	9.51	-35.2	-36.2	22.6	0.00e+00	123	31	0	2314207232	42	6364
2026-01-16 14:09:13.56	179.23	9.17	-35.2	-36.3	22.5	0.00e+00	123	31	0	2326790144	42	6436
2026-01-16 14:09:17.61	179.42	8.85	-35.5	-36.5	22.4	0.00e+00	122	31	0	2339373056	42	6595
2026-01-16 14:09:21.65	179.60	8.52	-35.6	-36.6	22.2	0.00e+00	120	31	0	2351955968	42	6696
2026-01-16 14:09:25.69	179.78	8.21	-35.3	-36.4	22.3	0.00e+00	123	31	0	2364538880	44	5807
2026-01-16 14:09:29.73	179.96	7.89	-35.9	-36.9	21.9	0.00e+00	123	31	0	2377121792	44	6179
2026-01-16 14:09:33.77	180.13	7.58	-35.7	-36.8	21.9	0.00e+00	123	31	0	2389704704	44	6084
2026-01-16 14:09:37.81	180.30	7.27	-36.0	-37.1	21.6	0.00e+00	123	31	0	2402287616	44	6303
2026-01-16 14:09:41.85	180.47	6.97	-35.9	-36.9	21.8	0.00e+00	122	31	0	2414870528	44	6179
2026-01-16 14:09:45.89	180.63	6.67	-36.0	-37.0	21.6	0.00e+00	123	31	0	2427453440	44	6259
2026-01-16 14:09:49.93	180.79	6.37	-36.0	-37.1	21.6	0.00e+00	120	31	0	2441084928	44	6290
2026-01-16 14:09:53.97	180.95	6.08	-36.3	-37.4	21.2	0.00e+00	123	31	0	2453667840	44	6536
2026-01-16 14:09:58.01	181.10	5.78	-36.5	-37.6	21.0	0.00e+00	123	31	0	2466250752	44	6688
2026-01-16 14:10:02.05	181.26	5.50	-36.5	-37.7	21.0	0.00e+00	123	31	0	2478833664	44	6732
2026-01-16 14:10:06.10	181.40	5.21	-36.8	-38.0	20.7	0.00e+00	123	31	0	2491416576	46	6209
2026-01-16 14:10:10.14	181.55	4.93	-36.9	-38.1	20.5	0.00e+00	121	31	0	2503999488	46	6320
2026-01-16 14:10:14.18	181.70	4.65	-37.4	-38.7	20.0	0.00e+00	122	31	0	2516582400	46	6748
2026-01-16 14:10:18.22	181.84	4.37	-37.4	-38.6	20.0	0.00e+00	123	31	0	2529165312	46	6677
2026-01-16 14:10:22.26	181.98	4.10	-37.8	-39.0	19.5	0.00e+00	123	31	0	2541748224	46	7036
2026-01-16 14:10:26.30	182.11	3.83	-37.7	-39.0	19.5	0.00e+00	122	31	0	2554331136	48	6268
2026-01-16 14:10:30.34	182.25	3.56	-38.0	-39.4	19.1	0.00e+00	123	31	0	2566914048	48	6526
2026-01-16 14:10:34.38	182.38	3.29	-38.1	-39.4	19.1	0.00e+00	123	31	0	2579496960	48	6562
2026-01-16 14:10:38.42	182.51	3.03	-44.2	-48.3	3.4	0.00e+00	105	31	0	2592079872	52	14423
2026-01-16 14:10:42.46	182.64	2.77	-47.8	-60.7	3.5	1.52e+00	0	31	104	2592079872	60	37970
2026-01-16 14:10:46.50	182.76	2.51	-47.9	-60.9	3.5	1.52e+00	0	31	104	2592079872	60	38781
2026-01-16 14:10:50.53	182.89	2.25	-48.0	-60.9	3.5	1.52e+00	0	31	104	2592079872	60	38783
2026-01-16 14:10:54.57	183.01	2.00	-47.9	-60.9	3.5	1.52e+00	0	31	104	2592079872	60	38851
2026-01-16 14:10:58.61	183.13	1.75	-47.9	-60.9	3.5	1.52e+00	0	31	104	2592079872	60	38863
2026-01-16 14:11:02.65	183.25	1.50	-48.1	-61.0	3.5	1.51e+00	0	31	104	2592079872	60	39230
2026-01-16 14:11:06.69	183.37	1.25	-47.9	-60.8	3.5	1.52e+00	0	31	104	2592079872	60	38600
2026-01-16 14:11:10.72	183.48	1.00	-47.9	-60.9	3.5	1.52e+00	0	31	104	2592079872	60	38817
2026-01-16 14:11:14.76	183.59	0.76	-48.0	-60.9	3.5	1.51e+00	0	31	104	2592079872	60	38798
2026-01-16 14:11:18.80	183.71	0.52	-48.0	-60.9	3.5	1.52e+00	0	31	104	2592079872	60	38859
2026-01-16 14:11:22.84	183.82	0.27	-48.1	-61.0	3.5	1.52e+00	0	31	104	2592079872	60	39338
2026-01-16 14:11:26.88	183.92	0.04	-47.9	-60.9	3.5	1.51e+00	0	31	104	2592079872	60	38709

#Closed at: 2026-01-16 14:11:29
#Recorded file [2592 MB]: D:/lorett/data/35029_260117_015605.dat