passes_logs/2026/01/16/R4.6S_Anadyr/R4.6S_Anadyr__20260116_024558_AQUA_rec.log

#Pass ID: 20260116_024558_AQUA
#Satellite: AQUA
#Configuration: AQUA
#almurnet v.1.7.20251203
#Start time: 2026-01-16 02:46:00

#Version: 2.2.20231116
#Station: R4.6S_Anadyr
#Location: 177.4865 lon 64.73178 lat
#TLE: 1 27424U 02022A   26014.61231444  .00000653  00000+0  14070-3 0  9991
#TLE: 2 27424  98.4080 341.0332 0002042  78.9336 335.9961 14.61820174260839

#Time	Az	El	Level	Level2	SNR	BER	BlckErr	Temp	State	Recorded	gain1	gain2
2026-01-16 02:46:00.37	178.00	0.10	-48.2	-63.1	3.5	1.51e+00	0	25	0	0	60	51461
2026-01-16 02:46:04.40	178.13	0.35	-48.6	-66.5	3.5	3.02e+01	0	27	104	0	60	81306
2026-01-16 02:46:08.44	178.26	0.59	-48.5	-66.5	3.5	3.02e+01	0	27	104	0	60	81338
2026-01-16 02:46:12.48	178.39	0.84	-48.2	-66.2	3.5	3.02e+01	0	27	104	0	60	78552
2026-01-16 02:46:16.52	178.52	1.10	-46.4	-65.1	3.5	3.02e+01	0	27	104	0	60	69055
2026-01-16 02:46:20.56	178.66	1.35	-46.7	-65.1	3.5	3.02e+01	0	27	104	0	60	68869
2026-01-16 02:46:24.59	178.80	1.61	-46.7	-65.0	3.5	3.02e+01	0	27	104	0	60	68727
2026-01-16 02:46:28.63	178.94	1.87	-46.7	-65.0	3.5	3.02e+01	0	27	104	0	60	68502
2026-01-16 02:46:32.67	179.09	2.13	-46.7	-65.0	3.5	3.02e+01	0	27	104	0	60	68519
2026-01-16 02:46:36.71	179.23	2.39	-46.7	-64.9	3.5	3.02e+01	0	27	104	0	60	67545
2026-01-16 02:46:40.74	179.38	2.66	-46.7	-62.6	3.5	3.02e+01	0	27	104	0	60	51837
2026-01-16 02:46:44.78	179.54	2.93	-46.7	-62.0	4.0	3.02e+01	0	27	104	0	60	48561
2026-01-16 02:46:48.82	179.69	3.20	-44.0	-48.1	16.5	3.02e+01	92	27	0	3670016	60	9802
2026-01-16 02:46:52.86	179.85	3.48	-38.3	-40.0	24.6	3.02e+01	90	27	0	11534336	52	6078
2026-01-16 02:46:56.89	180.01	3.75	-38.0	-39.7	24.7	3.02e+01	91	27	0	18874368	50	6592
2026-01-16 02:47:00.93	180.18	4.04	-42.0	-44.5	19.0	3.02e+01	92	28	0	26738688	56	8134
2026-01-16 02:47:04.97	180.34	4.32	-39.1	-40.8	23.7	3.02e+01	85	28	0	33554432	54	5982
2026-01-16 02:47:09.01	180.52	4.61	-38.9	-40.6	24.3	3.02e+01	90	28	0	41418752	52	6529
2026-01-16 02:47:13.04	180.69	4.90	-38.7	-40.4	24.6	3.02e+01	91	28	0	48758784	52	6368
2026-01-16 02:47:17.08	180.87	5.19	-38.2	-39.8	25.0	3.02e+01	92	28	0	56623104	52	5930
2026-01-16 02:47:21.11	181.05	5.49	-37.8	-39.3	25.3	3.02e+01	90	28	0	63963136	50	6306
2026-01-16 02:47:25.15	181.23	5.79	-37.1	-38.5	26.3	3.02e+01	92	28	0	71827456	50	5751
2026-01-16 02:47:29.19	181.42	6.10	-36.5	-37.8	26.9	3.02e+01	90	28	0	79167488	48	5984
2026-01-16 02:47:33.22	181.62	6.41	-36.2	-37.6	27.1	3.02e+01	92	28	0	86507520	48	5810
2026-01-16 02:47:37.26	181.81	6.72	-36.2	-37.6	27.0	3.02e+01	92	28	0	94371840	48	5797
2026-01-16 02:47:41.30	182.02	7.04	-36.0	-37.4	27.3	3.02e+01	91	28	0	101711872	48	5684
2026-01-16 02:47:45.34	182.22	7.36	-36.1	-37.5	27.2	3.02e+01	92	28	0	109576192	48	5748
2026-01-16 02:47:49.37	182.43	7.68	-36.2	-37.6	27.3	3.02e+01	90	28	0	116916224	48	5804
2026-01-16 02:47:53.41	182.65	8.01	-36.1	-37.5	27.4	3.02e+01	91	28	0	124780544	48	5734
2026-01-16 02:47:57.44	182.87	8.35	-36.1	-37.4	27.4	3.02e+01	90	28	0	132120576	46	6380
2026-01-16 02:48:01.48	183.10	8.69	-36.2	-37.6	27.3	3.02e+01	92	28	0	139460608	46	6502
2026-01-16 02:48:05.52	183.33	9.03	-35.8	-37.1	27.8	3.02e+01	90	28	0	147324928	46	6175
2026-01-16 02:48:09.55	183.57	9.38	-35.6	-37.0	27.8	3.02e+01	92	28	0	154664960	46	6080
2026-01-16 02:48:13.59	183.81	9.73	-35.4	-36.7	28.1	3.02e+01	90	28	0	162529280	46	5916
2026-01-16 02:48:17.62	184.06	10.09	-35.4	-36.7	28.2	3.02e+01	92	28	0	169869312	46	5875
2026-01-16 02:48:21.66	184.32	10.46	-35.4	-36.8	28.1	3.02e+01	91	28	0	177733632	46	5932
2026-01-16 02:48:25.70	184.58	10.83	-35.5	-36.7	28.1	3.02e+01	92	28	0	185073664	46	5923
2026-01-16 02:48:29.73	184.85	11.20	-35.3	-36.6	28.3	3.02e+01	92	28	0	192937984	46	5827
2026-01-16 02:48:33.77	185.12	11.59	-35.2	-36.5	28.3	3.02e+01	90	28	0	200278016	46	5780
2026-01-16 02:48:37.80	185.41	11.97	-35.2	-36.5	28.4	3.02e+01	91	29	0	207618048	46	5772
2026-01-16 02:48:41.84	185.70	12.37	-35.2	-36.5	28.4	3.02e+01	91	28	0	215482368	46	5735
2026-01-16 02:48:45.88	186.00	12.77	-35.0	-36.3	28.6	3.02e+01	88	29	0	222822400	46	5615
2026-01-16 02:48:49.92	186.31	13.18	-34.9	-36.2	28.7	3.02e+01	90	29	0	230686720	44	6243
2026-01-16 02:48:53.96	186.63	13.60	-34.6	-35.8	29.0	3.02e+01	88	29	0	238026752	44	5988
2026-01-16 02:48:58.00	186.95	14.02	-34.9	-36.1	28.8	3.02e+01	92	29	0	245891072	44	6188
2026-01-16 02:49:02.03	187.29	14.45	-34.7	-36.0	28.9	3.02e+01	90	29	0	253231104	44	6083
2026-01-16 02:49:06.07	187.64	14.89	-34.6	-35.8	29.0	3.02e+01	88	29	0	260571136	44	5992
2026-01-16 02:49:10.11	187.99	15.33	-34.6	-35.9	29.0	3.02e+01	90	29	0	268435456	44	6002
2026-01-16 02:49:14.14	188.36	15.79	-34.4	-35.7	29.2	3.02e+01	92	29	0	275775488	44	5864
2026-01-16 02:49:18.18	188.74	16.25	-34.4	-35.6	29.3	3.02e+01	91	29	0	283639808	44	5847
2026-01-16 02:49:22.22	189.14	16.72	-34.4	-35.6	29.3	3.02e+01	90	29	0	290979840	44	5843
2026-01-16 02:49:26.25	189.54	17.20	-34.6	-35.9	29.1	3.02e+01	92	29	0	298844160	44	6030
2026-01-16 02:49:30.29	189.96	17.69	-34.8	-36.1	29.0	3.02e+01	92	29	0	306184192	44	6137
2026-01-16 02:49:34.31	190.39	18.19	-34.3	-35.5	29.4	3.02e+01	90	29	0	314048512	44	5787
2026-01-16 02:49:38.35	190.84	18.70	-34.3	-35.6	29.4	3.02e+01	92	29	0	321388544	44	5806
2026-01-16 02:49:42.38	191.30	19.22	-34.2	-35.4	29.5	3.02e+01	92	29	0	329252864	44	5710
2026-01-16 02:49:46.42	191.78	19.75	-34.5	-35.7	29.3	3.02e+01	91	29	0	336592896	44	5923
2026-01-16 02:49:50.46	192.28	20.29	-34.5	-35.8	29.3	3.02e+01	90	29	0	343932928	44	5930
2026-01-16 02:49:54.49	192.79	20.84	-34.6	-35.9	29.2	3.02e+01	92	29	0	351797248	44	6001
2026-01-16 02:49:58.53	193.33	21.40	-34.6	-35.8	29.2	3.02e+01	92	29	0	359137280	44	5978
2026-01-16 02:50:02.57	193.88	21.97	-34.8	-36.0	29.1	3.02e+01	92	29	0	367001600	44	6107
2026-01-16 02:50:06.60	194.46	22.56	-34.7	-35.9	29.2	3.02e+01	84	29	0	374341632	44	6020
2026-01-16 02:50:10.64	195.06	23.16	-35.0	-36.2	28.9	3.02e+01	92	29	0	382205952	44	6269
2026-01-16 02:50:14.68	195.68	23.77	-34.9	-36.1	29.1	3.02e+01	91	29	0	389545984	44	6185
2026-01-16 02:50:18.72	196.33	24.39	-35.1	-36.4	28.9	3.02e+01	91	29	0	396886016	44	6358
2026-01-16 02:50:22.75	197.00	25.02	-35.1	-36.4	29.0	3.02e+01	92	29	0	404750336	44	6352
2026-01-16 02:50:26.79	197.71	25.67	-34.9	-36.1	29.1	3.02e+01	92	29	0	412090368	44	6180
2026-01-16 02:50:30.83	198.44	26.33	-34.8	-36.1	29.2	3.02e+01	92	29	0	419954688	44	6141
2026-01-16 02:50:34.87	199.21	27.01	-34.6	-35.8	29.3	3.02e+01	92	29	0	427294720	44	5983
2026-01-16 02:50:38.91	200.01	27.69	-34.6	-35.9	29.3	3.02e+01	92	29	0	435159040	44	6000
2026-01-16 02:50:42.94	200.84	28.39	-34.5	-35.8	29.4	3.02e+01	90	29	0	442499072	44	5934
2026-01-16 02:50:46.98	201.72	29.10	-34.7	-35.9	29.3	3.02e+01	92	29	0	450363392	44	6063
2026-01-16 02:50:51.02	202.63	29.83	-34.5	-35.7	29.5	3.02e+01	92	29	0	457703424	44	5913
2026-01-16 02:50:55.05	203.59	30.56	-34.7	-35.9	29.2	3.02e+01	91	29	0	465043456	44	6044
2026-01-16 02:50:59.09	204.59	31.31	-34.8	-36.1	29.2	3.02e+01	92	29	0	472907776	44	6138
2026-01-16 02:51:03.12	205.64	32.07	-34.9	-36.1	29.2	3.02e+01	92	29	0	480247808	44	6180
2026-01-16 02:51:07.16	206.74	32.84	-35.0	-36.2	29.0	3.02e+01	89	30	0	488112128	44	6261
2026-01-16 02:51:11.20	207.90	33.62	-35.3	-36.5	28.7	3.02e+01	92	30	0	495452160	44	6469
2026-01-16 02:51:15.24	209.11	34.41	-35.2	-36.4	28.8	3.02e+01	90	30	0	503316480	44	6390
2026-01-16 02:51:19.28	210.39	35.20	-35.5	-36.7	28.5	3.02e+01	91	30	0	510656512	44	6642
2026-01-16 02:51:23.31	211.72	36.00	-35.8	-37.1	28.3	3.02e+01	93	30	0	517996544	44	6935
2026-01-16 02:51:27.35	213.13	36.80	-35.9	-37.2	28.3	3.02e+01	92	30	0	525860864	46	6208
2026-01-16 02:51:31.38	214.60	37.61	-35.8	-37.0	28.3	3.02e+01	92	30	0	533200896	46	6132
2026-01-16 02:51:35.42	216.16	38.41	-35.9	-37.2	28.3	3.02e+01	92	30	0	541065216	46	6221
2026-01-16 02:51:39.46	217.79	39.21	-35.7	-36.9	28.5	3.02e+01	87	30	0	548405248	46	6057
2026-01-16 02:51:43.50	219.51	40.00	-35.2	-36.5	28.8	3.02e+01	92	30	0	556269568	46	5745
2026-01-16 02:51:47.54	221.31	40.78	-34.6	-35.9	29.3	3.02e+01	92	30	0	563609600	44	6012
2026-01-16 02:51:51.57	223.19	41.55	-34.3	-35.5	29.6	3.02e+01	92	30	0	570949632	44	5760
2026-01-16 02:51:55.61	225.17	42.30	-34.5	-35.7	29.6	3.02e+01	91	30	0	578813952	44	5900
2026-01-16 02:51:59.64	227.24	43.02	-34.1	-35.3	29.9	3.02e+01	90	30	0	586153984	44	5602
2026-01-16 02:52:03.68	229.41	43.71	-33.8	-35.0	30.1	3.02e+01	92	30	0	594018304	42	6109
2026-01-16 02:52:07.71	231.66	44.38	-33.8	-35.0	30.1	3.02e+01	85	30	0	601358336	42	6094
2026-01-16 02:52:11.75	234.02	45.00	-34.2	-35.4	30.0	3.02e+01	92	30	0	609222656	42	6359
2026-01-16 02:52:15.78	236.46	45.58	-34.1	-35.3	29.9	3.02e+01	92	30	0	616562688	42	6342
2026-01-16 02:52:19.81	238.99	46.11	-34.1	-35.3	29.8	3.02e+01	92	30	0	623902720	42	6332
2026-01-16 02:52:23.84	241.60	46.58	-34.1	-35.3	29.7	3.02e+01	90	30	0	631767040	42	6322
2026-01-16 02:52:27.88	244.29	46.99	-34.0	-35.2	29.9	3.02e+01	92	30	0	639107072	42	6238
2026-01-16 02:52:31.91	247.04	47.34	-34.3	-35.5	29.7	3.02e+01	92	30	0	646971392	42	6469
2026-01-16 02:52:35.95	249.86	47.62	-34.4	-35.6	29.6	3.02e+01	91	30	0	654311424	42	6527
2026-01-16 02:52:39.99	252.71	47.83	-34.4	-35.6	29.6	3.02e+01	92	30	0	662175744	42	6507
2026-01-16 02:52:44.03	255.60	47.96	-34.6	-35.8	29.4	3.02e+01	92	30	0	669515776	44	5983
2026-01-16 02:52:48.06	258.50	48.02	-35.0	-36.2	29.0	3.02e+01	90	30	0	676855808	44	6271
2026-01-16 02:52:52.10	261.41	48.00	-35.2	-36.4	28.9	3.02e+01	90	30	0	684720128	44	6403
2026-01-16 02:52:56.14	264.31	47.90	-34.9	-36.2	29.1	3.02e+01	92	30	0	692060160	44	6214
2026-01-16 02:53:00.18	267.18	47.72	-35.1	-36.4	28.9	3.02e+01	92	30	0	699924480	44	6371
2026-01-16 02:53:04.21	270.01	47.47	-34.9	-36.1	29.1	3.02e+01	92	30	0	707264512	44	6177
2026-01-16 02:53:08.25	272.79	47.15	-35.3	-36.5	29.1	3.02e+01	89	30	0	715128832	44	6454
2026-01-16 02:53:12.29	275.51	46.76	-34.7	-35.9	29.3	3.02e+01	92	30	0	722468864	44	6041
2026-01-16 02:53:16.33	278.15	46.32	-35.0	-36.3	29.0	3.02e+01	91	30	0	729808896	44	6299
2026-01-16 02:53:20.37	280.72	45.81	-34.8	-36.0	29.3	3.02e+01	91	30	0	737673216	44	6085
2026-01-16 02:53:24.40	283.19	45.25	-34.9	-36.2	29.1	3.02e+01	92	30	0	745013248	44	6238
2026-01-16 02:53:28.44	285.58	44.65	-34.9	-36.1	29.1	3.02e+01	92	30	0	752877568	44	6193
2026-01-16 02:53:32.47	287.87	44.01	-34.7	-35.9	29.3	3.02e+01	92	30	0	760217600	44	6032
2026-01-16 02:53:36.51	290.07	43.33	-34.6	-35.8	29.4	3.02e+01	92	30	0	768081920	44	5969
2026-01-16 02:53:40.55	292.18	42.61	-34.8	-36.1	29.1	3.02e+01	91	30	0	775421952	44	6153
2026-01-16 02:53:44.59	294.20	41.88	-35.3	-36.6	28.9	3.02e+01	92	30	0	783286272	44	6506
2026-01-16 02:53:48.62	296.11	41.12	-35.3	-36.6	28.7	3.02e+01	90	30	0	790626304	44	6503
2026-01-16 02:53:52.65	297.94	40.35	-34.9	-36.2	29.1	3.02e+01	92	30	0	797966336	44	6216
2026-01-16 02:53:56.69	299.69	39.57	-35.2	-36.4	28.9	3.02e+01	92	30	0	805830656	44	6411
2026-01-16 02:54:00.73	301.35	38.78	-35.4	-36.7	28.8	3.02e+01	92	30	0	813170688	44	6596
2026-01-16 02:54:04.76	302.93	37.98	-34.9	-36.2	29.2	3.02e+01	59	30	0	821035008	44	6223
2026-01-16 02:54:08.80	304.44	37.18	-34.7	-35.9	29.4	3.02e+01	58	30	0	828375040	44	6023
2026-01-16 02:54:12.84	305.87	36.38	-34.6	-35.8	29.5	3.02e+01	61	30	0	836239360	44	5938
2026-01-16 02:54:16.88	307.24	35.58	-34.1	-35.2	29.9	3.02e+01	61	30	0	843579392	44	5586
2026-01-16 02:54:20.91	308.53	34.79	-33.7	-34.9	30.2	3.02e+01	61	30	0	850919424	42	6020
2026-01-16 02:54:24.95	309.77	34.00	-33.6	-34.8	30.3	3.02e+01	56	30	0	858783744	42	5982
2026-01-16 02:54:28.99	310.95	33.22	-33.2	-34.4	30.7	3.02e+01	60	30	0	866123776	42	5691
2026-01-16 02:54:33.02	312.07	32.46	-33.2	-34.3	30.7	3.02e+01	53	30	0	873988096	42	5656
2026-01-16 02:54:37.06	313.14	31.70	-33.3	-34.4	30.5	3.02e+01	60	30	0	881328128	42	5717
2026-01-16 02:54:41.10	314.16	30.95	-33.1	-34.3	30.6	3.02e+01	48	30	0	889192448	42	5620
2026-01-16 02:54:45.13	315.13	30.21	-33.2	-34.4	30.5	3.02e+01	59	30	0	896532480	42	5682
2026-01-16 02:54:49.17	316.06	29.48	-33.2	-34.4	30.6	3.02e+01	52	30	0	904396800	42	5665
2026-01-16 02:54:53.20	316.95	28.77	-33.3	-34.5	30.5	3.02e+01	53	30	0	911736832	42	5728
2026-01-16 02:54:57.23	317.80	28.07	-33.8	-35.0	30.0	3.02e+01	44	30	0	919076864	42	6116
2026-01-16 02:55:01.27	318.61	27.38	-33.6	-34.8	30.2	3.02e+01	61	30	0	926941184	42	5927
2026-01-16 02:55:05.31	319.39	26.71	-33.7	-34.9	30.0	3.02e+01	46	30	0	934281216	42	6009
2026-01-16 02:55:09.34	320.14	26.05	-33.7	-34.9	30.1	3.02e+01	59	30	0	942145536	42	6029
2026-01-16 02:55:13.38	320.85	25.40	-34.1	-35.3	29.9	3.02e+01	51	30	0	949485568	42	6306
2026-01-16 02:55:17.42	321.54	24.76	-34.1	-35.3	29.8	3.02e+01	61	29	0	957349888	42	6295
2026-01-16 02:55:21.45	322.20	24.13	-34.2	-35.4	29.7	3.02e+01	44	29	0	964689920	42	6358
2026-01-16 02:55:25.49	322.83	23.52	-34.2	-35.5	29.5	3.02e+01	60	30	0	972554240	42	6424
2026-01-16 02:55:29.53	323.44	22.92	-34.0	-35.2	29.7	3.02e+01	58	29	0	979894272	42	6249
2026-01-16 02:55:33.56	324.03	22.33	-33.9	-35.1	29.9	3.02e+01	59	29	0	987234304	42	6162
2026-01-16 02:55:37.60	324.59	21.76	-34.3	-35.5	29.7	3.02e+01	58	29	0	995098624	42	6434
2026-01-16 02:55:41.63	325.14	21.19	-34.1	-35.3	29.7	3.02e+01	59	30	0	1002438656	42	6304
2026-01-16 02:55:45.67	325.66	20.64	-34.0	-35.2	29.8	3.02e+01	58	29	0	1010302976	42	6215
2026-01-16 02:55:49.70	326.17	20.10	-33.9	-35.1	29.8	3.02e+01	58	29	0	1017643008	42	6200
2026-01-16 02:55:53.74	326.65	19.57	-33.7	-34.9	30.0	3.02e+01	50	29	0	1025507328	42	5999
2026-01-16 02:55:57.77	327.13	19.05	-33.7	-34.9	30.0	3.02e+01	61	29	0	1032847360	42	6006
2026-01-16 02:56:01.81	327.58	18.54	-33.7	-34.9	30.0	3.02e+01	64	29	0	1040187392	42	6030
2026-01-16 02:56:05.84	328.02	18.03	-33.7	-34.9	29.9	3.02e+01	61	29	0	1048051712	42	6042
2026-01-16 02:56:09.87	328.45	17.54	-33.6	-34.8	30.1	3.02e+01	59	29	0	1055391744	42	5976
2026-01-16 02:56:13.90	328.86	17.06	-33.7	-34.8	30.1	3.02e+01	58	29	0	1063256064	42	5992
2026-01-16 02:56:17.94	329.26	16.59	-33.6	-34.8	30.0	3.02e+01	56	29	0	1070596096	42	5940
2026-01-16 02:56:21.98	329.64	16.12	-33.6	-34.8	29.9	3.02e+01	62	29	0	1077936128	42	5988
2026-01-16 02:56:26.01	330.02	15.67	-33.7	-34.9	29.9	3.02e+01	58	29	0	1085800448	42	6036
2026-01-16 02:56:30.04	330.38	15.22	-33.8	-35.0	29.8	3.02e+01	58	29	0	1093140480	42	6119
2026-01-16 02:56:34.08	330.73	14.78	-33.9	-35.1	29.6	3.02e+01	60	29	0	1101004800	42	6160
2026-01-16 02:56:38.11	331.08	14.35	-33.8	-35.1	29.7	3.02e+01	59	29	0	1108344832	42	6135
2026-01-16 02:56:42.15	331.41	13.93	-34.1	-35.3	29.5	3.02e+01	57	29	0	1116209152	42	6302
2026-01-16 02:56:46.19	331.73	13.51	-34.0	-35.2	29.5	3.02e+01	58	29	0	1123549184	42	6250
2026-01-16 02:56:50.23	332.05	13.10	-34.3	-35.5	29.2	3.02e+01	59	29	0	1130889216	42	6459
2026-01-16 02:56:54.26	332.35	12.70	-34.1	-35.3	29.4	3.02e+01	46	29	0	1138753536	42	6321
2026-01-16 02:56:58.30	332.65	12.30	-34.2	-35.4	29.4	3.02e+01	60	29	0	1146093568	42	6398
2026-01-16 02:57:02.34	332.94	11.91	-34.2	-35.4	29.3	3.02e+01	59	29	0	1153957888	42	6379
2026-01-16 02:57:06.37	333.22	11.53	-34.3	-35.5	29.2	3.02e+01	59	29	0	1161297920	42	6483
2026-01-16 02:57:10.41	333.50	11.15	-34.8	-45.0	3.4	3.02e+01	0	29	104	1168637952	42	19375
2026-01-16 02:57:14.45	333.76	10.78	-35.0	-45.2	3.6	3.02e+01	0	29	104	1168637952	44	17518
2026-01-16 02:57:18.48	334.02	10.41	-40.2	-50.9	3.6	3.02e+01	0	29	104	1168637952	58	15125
2026-01-16 02:57:22.52	334.28	10.05	-35.6	-45.9	3.4	3.02e+01	0	29	104	1168637952	46	17010
2026-01-16 02:57:26.55	334.53	9.70	-38.2	-48.7	2.9	3.02e+01	0	29	104	1168637952	58	11815
2026-01-16 02:57:30.59	334.77	9.35	-36.3	-46.6	4.1	3.02e+01	0	29	104	1168637952	48	16423
2026-01-16 02:57:34.63	335.01	9.00	-46.7	-61.8	3.5	3.02e+01	0	29	104	1168637952	60	47146
2026-01-16 02:57:38.66	335.24	8.66	-39.2	-49.9	3.5	3.02e+01	0	29	104	1168637952	54	16962
2026-01-16 02:57:42.70	335.46	8.33	-38.0	-48.5	3.3	3.02e+01	0	29	104	1168637952	48	20509
2026-01-16 02:57:46.74	335.69	8.00	-37.9	-48.4	3.5	3.02e+01	0	29	104	1168637952	52	15968
2026-01-16 02:57:50.77	335.90	7.67	-38.9	-49.5	3.5	3.02e+01	0	29	104	1168637952	52	18185
2026-01-16 02:57:54.81	336.11	7.35	-37.9	-48.4	3.5	3.02e+01	0	29	104	1168637952	52	16019
2026-01-16 02:57:58.84	336.32	7.03	-37.0	-47.5	3.5	3.02e+01	0	29	104	1168637952	48	18274
2026-01-16 02:58:02.88	336.52	6.72	-37.9	-48.5	3.5	3.02e+01	0	29	104	1168637952	50	18124
2026-01-16 02:58:06.91	336.72	6.41	-37.6	-48.1	3.5	3.02e+01	0	29	104	1168637952	50	17319
2026-01-16 02:58:10.94	336.91	6.10	-45.7	-61.5	3.5	3.02e+01	0	29	104	1168637952	60	45527
2026-01-16 02:58:14.98	337.10	5.80	-37.8	-48.3	3.5	3.02e+01	0	29	104	1168637952	50	17855
2026-01-16 02:58:19.01	337.29	5.50	-43.8	-58.2	3.5	3.02e+01	0	29	104	1168637952	60	31232
2026-01-16 02:58:23.05	337.47	5.21	-39.8	-50.9	3.5	3.02e+01	0	29	104	1168637952	54	19000
2026-01-16 02:58:27.08	337.65	4.92	-41.6	-53.2	3.5	3.02e+01	0	29	104	1168637952	56	22061
2026-01-16 02:58:31.12	337.83	4.63	-42.5	-55.6	3.5	3.02e+01	0	29	104	1168637952	60	23063
2026-01-16 02:58:35.16	338.00	4.34	-43.0	-57.9	3.5	3.02e+01	0	29	104	1168637952	60	30232
2026-01-16 02:58:39.19	338.17	4.06	-43.8	-59.9	3.5	3.02e+01	0	29	104	1168637952	60	37988
2026-01-16 02:58:43.23	338.34	3.78	-43.7	-61.0	3.5	3.02e+01	0	29	104	1168637952	60	43410
2026-01-16 02:58:47.27	338.50	3.51	-43.8	-61.7	3.5	3.02e+01	0	29	104	1168637952	60	46750
2026-01-16 02:58:51.30	338.66	3.24	-43.9	-61.9	3.5	3.02e+01	0	29	104	1168637952	60	47657
2026-01-16 02:58:55.34	338.82	2.96	-46.0	-63.9	3.5	3.02e+01	0	29	104	1168637952	60	60483
2026-01-16 02:58:59.38	338.97	2.70	-48.4	-66.4	3.5	3.02e+01	0	29	104	1168637952	60	80058
2026-01-16 02:59:03.41	339.12	2.43	-48.5	-66.5	3.5	3.02e+01	0	29	104	1168637952	60	80944
2026-01-16 02:59:07.45	339.27	2.17	-48.5	-66.3	3.5	3.02e+01	0	29	104	1168637952	60	79848
2026-01-16 02:59:11.48	339.42	1.91	-48.5	-66.4	3.5	3.02e+01	0	29	104	1168637952	60	80279
2026-01-16 02:59:15.52	339.56	1.66	-48.5	-66.4	3.5	3.02e+01	0	29	104	1168637952	60	80684
2026-01-16 02:59:19.55	339.70	1.40	-48.5	-66.4	3.5	3.02e+01	0	29	104	1168637952	60	80408
2026-01-16 02:59:23.59	339.84	1.15	-48.5	-66.4	3.5	3.02e+01	0	29	104	1168637952	60	80217
2026-01-16 02:59:27.63	339.98	0.90	-48.5	-66.4	3.5	3.02e+01	0	29	104	1168637952	60	79979
2026-01-16 02:59:31.67	340.12	0.65	-48.5	-66.4	3.5	3.02e+01	0	29	104	1168637952	60	80590
2026-01-16 02:59:35.70	340.25	0.41	-48.4	-66.3	3.5	3.02e+01	0	29	104	1168637952	60	79695
2026-01-16 02:59:39.74	340.38	0.16	-48.4	-66.4	3.5	3.02e+01	0	29	104	1168637952	60	80064
2026-01-16 02:59:43.78	340.51	-0.08	-48.5	-66.4	3.5	3.02e+01	0	29	104	1168637952	60	80644

#Closed at: 2026-01-16 02:59:44
#Recorded file [1168 MB]: D:/lorett/data/35029_260116_144600.dat