passes_logs/2026/01/16/R4.6S_Anadyr/R4.6S_Anadyr__20260116_042541_AQUA_rec.log

#Pass ID: 20260116_042541_AQUA
#Satellite: AQUA
#Configuration: AQUA
#almurnet v.1.7.20251203
#Start time: 2026-01-16 04:25:44

#Version: 2.2.20231116
#Station: R4.6S_Anadyr
#Location: 177.4865 lon 64.73178 lat
#TLE: 1 27424U 02022A   26014.61231444  .00000653  00000+0  14070-3 0  9991
#TLE: 2 27424  98.4080 341.0332 0002042  78.9336 335.9961 14.61820174260839

#Time	Az	El	Level	Level2	SNR	BER	BlckErr	Temp	State	Recorded	gain1	gain2
2026-01-16 04:25:44.34	225.46	0.13	-48.2	-60.7	3.4	1.52e+00	0	26	0	0	60	37894
2026-01-16 04:25:47.36	225.73	0.28	-48.2	-66.4	3.5	3.04e+01	0	27	104	0	60	80785
2026-01-16 04:25:50.39	226.01	0.42	-48.3	-66.4	3.5	3.04e+01	0	27	104	0	60	80729
2026-01-16 04:25:53.41	226.29	0.57	-48.4	-66.4	3.5	3.04e+01	0	28	104	0	60	80610
2026-01-16 04:25:56.45	226.58	0.72	-48.5	-66.3	3.5	3.04e+01	0	28	104	0	60	79886
2026-01-16 04:25:59.48	226.86	0.86	-47.9	-65.9	3.5	3.04e+01	0	28	104	0	60	75959
2026-01-16 04:26:02.51	227.15	1.01	-45.0	-63.7	3.5	3.04e+01	0	28	104	0	60	58757
2026-01-16 04:26:05.54	227.45	1.16	-44.9	-63.9	3.5	3.04e+01	0	28	104	0	60	60185
2026-01-16 04:26:08.56	227.74	1.31	-44.9	-63.9	3.5	3.04e+01	0	28	104	0	60	60189
2026-01-16 04:26:11.59	228.04	1.46	-44.9	-64.0	3.5	3.04e+01	0	28	104	0	60	60644
2026-01-16 04:26:14.63	228.35	1.60	-44.9	-63.8	3.5	3.04e+01	0	28	104	0	60	59630
2026-01-16 04:26:17.65	228.65	1.75	-44.9	-63.8	3.5	3.04e+01	0	28	104	0	60	59583
2026-01-16 04:26:20.68	228.96	1.90	-44.8	-63.8	3.5	3.04e+01	0	28	104	0	60	59500
2026-01-16 04:26:23.71	229.27	2.05	-44.5	-63.7	3.5	3.04e+01	0	28	104	0	60	58838
2026-01-16 04:26:26.74	229.59	2.20	-44.9	-63.8	3.5	3.04e+01	0	28	104	0	60	59571
2026-01-16 04:26:29.77	229.91	2.35	-44.7	-63.4	3.5	3.04e+01	0	28	104	0	60	56834
2026-01-16 04:26:32.80	230.23	2.50	-45.1	-63.5	3.5	3.04e+01	0	28	104	0	60	57332
2026-01-16 04:26:35.83	230.56	2.65	-44.7	-62.2	3.6	3.04e+01	0	28	104	0	60	49788
2026-01-16 04:26:38.86	230.89	2.80	-44.8	-59.2	4.7	3.04e+01	0	28	104	0	60	35277
2026-01-16 04:26:41.89	231.22	2.95	-44.8	-57.7	5.3	3.04e+01	0	28	0	0	60	29697
2026-01-16 04:26:44.92	231.56	3.10	-45.8	-59.6	4.5	3.04e+01	0	28	104	0	60	36824
2026-01-16 04:26:47.95	231.90	3.25	-45.7	-58.0	5.8	3.04e+01	31	28	104	0	60	30653
2026-01-16 04:26:50.98	232.24	3.41	-45.5	-56.8	6.0	3.04e+01	92	28	0	1572864	60	26777
2026-01-16 04:26:54.01	232.59	3.56	-45.9	-58.3	5.6	3.04e+01	33	28	104	2621440	60	31701
2026-01-16 04:26:57.04	232.94	3.71	-46.2	-58.6	5.6	3.04e+01	0	28	104	2621440	60	32606
2026-01-16 04:27:00.06	233.29	3.86	-45.9	-58.3	5.7	3.04e+01	0	28	104	2621440	60	31779
2026-01-16 04:27:03.08	233.65	4.01	-46.0	-58.8	5.4	3.04e+01	42	28	104	3145728	60	33551
2026-01-16 04:27:06.11	234.01	4.16	-45.9	-59.1	5.3	3.04e+01	62	28	104	3145728	60	34564
2026-01-16 04:27:09.14	234.38	4.31	-46.0	-58.6	5.6	3.04e+01	26	28	104	3145728	60	32917
2026-01-16 04:27:12.17	234.75	4.47	-46.6	-57.5	4.0	3.04e+01	36	28	104	4718592	60	29001
2026-01-16 04:27:15.20	235.13	4.62	-46.6	-58.9	5.8	3.04e+01	37	28	104	6291456	60	33819
2026-01-16 04:27:18.23	235.51	4.77	-46.5	-57.5	6.3	3.04e+01	90	28	0	7864320	60	28863
2026-01-16 04:27:21.25	235.89	4.92	-46.5	-56.5	6.8	3.04e+01	92	28	0	13107200	60	25867
2026-01-16 04:27:24.29	236.28	5.07	-45.8	-56.1	7.3	3.04e+01	90	28	0	18874368	60	24628
2026-01-16 04:27:27.31	236.67	5.22	-45.1	-55.1	8.5	3.04e+01	92	28	0	24641536	60	21982
2026-01-16 04:27:30.34	237.07	5.38	-45.3	-54.4	9.2	3.04e+01	92	28	0	30408704	60	20204
2026-01-16 04:27:33.37	237.47	5.53	-44.6	-53.6	10.4	3.04e+01	92	28	0	36175872	60	18354
2026-01-16 04:27:36.39	237.87	5.68	-44.7	-52.4	11.7	3.04e+01	91	28	0	41418752	60	16121
2026-01-16 04:27:39.42	238.28	5.83	-45.5	-51.6	12.5	3.04e+01	91	28	0	47185920	60	14667
2026-01-16 04:27:42.45	238.69	5.98	-45.2	-50.8	13.5	3.04e+01	92	28	0	52953088	60	13309
2026-01-16 04:27:45.47	239.11	6.13	-44.5	-49.6	14.9	3.04e+01	92	28	0	58720256	60	11580
2026-01-16 04:27:48.50	239.53	6.28	-44.0	-48.5	16.0	3.04e+01	92	28	0	64487424	60	10294
2026-01-16 04:27:51.53	239.96	6.43	-43.1	-47.9	16.7	3.04e+01	91	28	0	70254592	60	9509
2026-01-16 04:27:54.56	240.39	6.58	-43.0	-46.6	18.1	3.04e+01	92	28	0	75497472	60	8193
2026-01-16 04:27:57.59	240.83	6.73	-42.8	-45.8	18.9	3.04e+01	91	28	0	81264640	60	7499
2026-01-16 04:28:00.61	241.27	6.88	-42.3	-44.8	19.9	3.04e+01	92	28	0	87031808	60	6706
2026-01-16 04:28:03.64	241.72	7.03	-41.6	-44.0	20.7	3.04e+01	90	28	0	92798976	58	6880
2026-01-16 04:28:06.67	242.17	7.18	-41.0	-43.1	21.6	3.04e+01	92	28	0	98566144	58	6204
2026-01-16 04:28:09.70	242.63	7.32	-40.6	-42.7	22.0	3.04e+01	92	28	0	103809024	56	6630
2026-01-16 04:28:12.72	243.09	7.47	-39.8	-41.8	22.9	3.04e+01	91	28	0	109576192	54	6662
2026-01-16 04:28:15.75	243.55	7.62	-39.7	-41.5	23.3	3.04e+01	92	28	0	115343360	54	6460
2026-01-16 04:28:18.77	244.02	7.76	-39.0	-40.7	24.0	3.04e+01	92	28	0	121110528	52	6587
2026-01-16 04:28:21.80	244.50	7.91	-38.8	-40.4	24.3	3.04e+01	92	28	0	126877696	52	6405
2026-01-16 04:28:24.82	244.98	8.05	-38.0	-39.5	25.3	3.04e+01	92	28	0	132644864	52	5778
2026-01-16 04:28:27.85	245.46	8.20	-37.6	-39.1	25.6	3.04e+01	92	28	0	137887744	50	6175
2026-01-16 04:28:30.88	245.95	8.34	-37.2	-38.7	26.1	3.04e+01	91	28	0	143654912	50	5876
2026-01-16 04:28:33.91	246.45	8.48	-37.0	-38.4	26.3	3.04e+01	91	28	0	149422080	48	6371
2026-01-16 04:28:36.93	246.95	8.63	-36.7	-38.1	26.6	3.04e+01	90	28	0	155189248	48	6162
2026-01-16 04:28:39.96	247.45	8.77	-36.4	-37.8	26.9	3.04e+01	92	28	0	160956416	48	5961
2026-01-16 04:28:42.98	247.96	8.91	-36.3	-37.6	27.2	3.04e+01	92	28	0	166723584	48	5835
2026-01-16 04:28:46.01	248.48	9.04	-36.1	-37.5	27.4	3.04e+01	91	28	0	172490752	48	5726
2026-01-16 04:28:49.04	249.00	9.18	-35.9	-37.2	27.6	3.04e+01	92	28	0	177733632	46	6248
2026-01-16 04:28:52.07	249.53	9.32	-36.2	-37.5	27.3	3.04e+01	90	28	0	183500800	46	6473
2026-01-16 04:28:55.10	250.06	9.45	-35.8	-37.1	27.7	3.04e+01	91	28	0	189267968	46	6135
2026-01-16 04:28:58.13	250.60	9.59	-35.8	-37.1	27.7	3.04e+01	92	28	0	195035136	46	6146
2026-01-16 04:29:01.15	251.14	9.72	-35.5	-36.8	27.9	3.04e+01	92	28	0	200802304	46	5979
2026-01-16 04:29:04.18	251.69	9.85	-35.7	-37.0	27.7	3.04e+01	92	28	0	206045184	46	6070
2026-01-16 04:29:07.21	252.24	9.98	-35.4	-36.7	27.9	3.04e+01	92	28	0	211812352	46	5894
2026-01-16 04:29:10.24	252.80	10.11	-35.7	-37.0	27.6	3.04e+01	91	28	0	217579520	46	6077
2026-01-16 04:29:13.26	253.36	10.24	-35.4	-36.6	28.0	3.04e+01	94	28	0	223346688	46	5844
2026-01-16 04:29:16.29	253.93	10.36	-35.4	-36.7	27.9	3.04e+01	92	28	0	229113856	46	5897
2026-01-16 04:29:19.31	254.50	10.49	-35.5	-36.8	27.9	3.04e+01	92	28	0	234881024	46	5927
2026-01-16 04:29:22.34	255.07	10.61	-35.4	-36.7	28.0	3.04e+01	92	28	0	240123904	46	5915
2026-01-16 04:29:25.36	255.66	10.73	-35.6	-36.8	28.0	3.04e+01	92	28	0	245891072	46	5991
2026-01-16 04:29:28.40	256.25	10.85	-35.4	-36.7	28.0	3.04e+01	91	28	0	251658240	46	5880
2026-01-16 04:29:31.42	256.84	10.96	-35.3	-36.6	28.1	3.04e+01	92	28	0	257425408	46	5825
2026-01-16 04:29:34.45	257.43	11.08	-35.4	-36.7	28.0	3.04e+01	92	28	0	263192576	46	5889
2026-01-16 04:29:37.48	258.04	11.19	-35.1	-36.4	28.2	3.04e+01	92	28	0	268959744	46	5688
2026-01-16 04:29:40.51	258.65	11.30	-35.5	-36.8	28.0	3.04e+01	92	28	0	274202624	46	5962
2026-01-16 04:29:43.53	259.26	11.41	-35.2	-36.4	28.4	3.04e+01	92	28	0	279969792	46	5714
2026-01-16 04:29:46.56	259.87	11.51	-35.0	-36.2	28.5	3.04e+01	92	28	0	285736960	46	5574
2026-01-16 04:29:49.59	260.49	11.62	-35.0	-36.3	28.4	3.04e+01	90	28	0	291504128	44	6295
2026-01-16 04:29:52.62	261.12	11.72	-35.0	-36.2	28.4	3.04e+01	92	28	0	297271296	44	6261
2026-01-16 04:29:55.64	261.75	11.82	-34.9	-36.2	28.4	3.04e+01	92	27	0	302514176	44	6241
2026-01-16 04:29:58.67	262.38	11.91	-34.9	-36.2	28.5	3.04e+01	92	28	0	308281344	44	6221
2026-01-16 04:30:01.69	263.02	12.01	-34.9	-36.2	28.4	3.04e+01	92	28	0	314048512	44	6239
2026-01-16 04:30:04.72	263.66	12.10	-35.0	-36.3	28.3	3.04e+01	92	28	0	319815680	44	6282
2026-01-16 04:30:07.75	264.31	12.18	-35.0	-36.3	28.4	3.04e+01	92	28	0	325582848	44	6332
2026-01-16 04:30:10.77	264.96	12.27	-34.8	-36.1	28.5	3.04e+01	92	28	0	331350016	44	6138
2026-01-16 04:30:13.80	265.61	12.35	-34.9	-36.2	28.6	3.04e+01	92	28	0	336592896	44	6212
2026-01-16 04:30:16.82	266.27	12.43	-35.1	-36.3	28.4	3.04e+01	92	28	0	342360064	44	6337
2026-01-16 04:30:19.85	266.93	12.51	-35.0	-36.2	28.5	3.04e+01	92	28	0	348127232	44	6244
2026-01-16 04:30:22.88	267.60	12.58	-35.0	-36.3	28.6	3.04e+01	89	28	0	353894400	44	6310
2026-01-16 04:30:25.91	268.27	12.65	-34.8	-36.1	28.6	3.04e+01	92	28	0	359661568	44	6164
2026-01-16 04:30:28.94	268.94	12.72	-34.8	-36.0	28.7	3.04e+01	90	28	0	365428736	44	6093
2026-01-16 04:30:31.96	269.61	12.78	-34.9	-36.1	28.7	3.04e+01	92	28	0	370671616	44	6179
2026-01-16 04:30:34.99	270.29	12.84	-34.8	-36.1	28.6	3.04e+01	92	28	0	376438784	44	6159
2026-01-16 04:30:38.02	270.97	12.90	-34.9	-36.2	28.5	3.04e+01	90	28	0	382205952	44	6218
2026-01-16 04:30:41.04	271.65	12.95	-34.8	-36.0	28.7	3.04e+01	92	27	0	387973120	44	6106
2026-01-16 04:30:44.06	272.34	13.00	-34.7	-35.9	28.7	3.04e+01	92	28	0	393740288	44	6061
2026-01-16 04:30:47.09	273.03	13.05	-34.7	-36.0	28.7	3.04e+01	89	27	0	398983168	44	6102
2026-01-16 04:30:50.12	273.72	13.09	-34.8	-36.0	28.7	3.04e+01	92	28	0	404750336	44	6098
2026-01-16 04:30:53.15	274.41	13.13	-34.7	-35.9	28.7	3.04e+01	90	28	0	410517504	44	6045
2026-01-16 04:30:56.18	275.10	13.17	-34.8	-36.0	28.8	3.04e+01	92	27	0	416284672	44	6091
2026-01-16 04:30:59.21	275.80	13.20	-34.8	-36.0	28.7	3.04e+01	92	27	0	422051840	44	6112
2026-01-16 04:31:02.23	276.50	13.23	-34.9	-36.2	28.6	3.04e+01	92	28	0	427819008	44	6225
2026-01-16 04:31:05.26	277.20	13.25	-34.8	-36.0	28.8	3.04e+01	92	27	0	433061888	44	6099
2026-01-16 04:31:08.29	277.90	13.27	-34.5	-35.8	28.9	3.04e+01	92	27	0	438829056	44	5940
2026-01-16 04:31:11.32	278.60	13.29	-34.6	-35.8	28.9	3.04e+01	92	27	0	444596224	44	5973
2026-01-16 04:31:14.34	279.30	13.31	-34.8	-36.0	28.7	3.04e+01	92	27	0	450363392	44	6108
2026-01-16 04:31:17.37	280.00	13.32	-34.6	-35.9	28.8	3.04e+01	92	27	0	456130560	44	6001
2026-01-16 04:31:20.40	280.70	13.32	-34.9	-36.1	28.6	3.04e+01	87	27	0	461897728	44	6165
2026-01-16 04:31:23.42	281.40	13.33	-34.7	-36.0	28.8	3.04e+01	88	27	0	467140608	44	6067
2026-01-16 04:31:26.45	282.10	13.32	-34.6	-35.9	28.9	3.04e+01	90	27	0	472907776	44	5995
2026-01-16 04:31:29.48	282.81	13.32	-34.6	-35.8	28.9	3.04e+01	92	27	0	478674944	44	5977
2026-01-16 04:31:32.50	283.51	13.31	-34.8	-36.1	28.7	3.04e+01	92	27	0	484442112	44	6140
2026-01-16 04:31:35.53	284.21	13.30	-34.4	-35.6	29.0	3.04e+01	91	27	0	490209280	44	5840
2026-01-16 04:31:38.55	284.91	13.28	-34.7	-36.0	28.7	3.04e+01	92	27	0	495976448	44	6077
2026-01-16 04:31:41.57	285.60	13.26	-34.6	-35.9	28.8	3.04e+01	92	27	0	501219328	44	6022
2026-01-16 04:31:44.60	286.30	13.24	-34.5	-35.8	28.9	3.04e+01	91	27	0	506986496	44	5938
2026-01-16 04:31:47.63	287.00	13.21	-34.6	-35.8	28.8	3.04e+01	92	27	0	512753664	44	5994
2026-01-16 04:31:50.66	287.70	13.18	-34.7	-35.9	28.8	3.04e+01	92	27	0	518520832	44	6036
2026-01-16 04:31:53.69	288.39	13.15	-34.5	-35.8	28.9	3.04e+01	92	27	0	524288000	44	5934
2026-01-16 04:31:56.71	289.08	13.11	-34.6	-35.8	28.9	3.04e+01	91	27	0	529530880	44	5973
2026-01-16 04:31:59.74	289.77	13.07	-34.5	-35.7	29.0	3.04e+01	92	27	0	535298048	44	5908
2026-01-16 04:32:02.73	290.45	13.03	-34.6	-35.8	28.7	3.04e+01	92	27	0	541065216	44	5942
2026-01-16 04:32:05.76	291.14	12.98	-34.7	-35.9	28.7	3.04e+01	91	27	0	546832384	44	6018
2026-01-16 04:32:08.79	291.82	12.93	-34.5	-35.8	28.8	3.04e+01	92	27	0	552599552	44	5940
2026-01-16 04:32:11.82	292.50	12.87	-34.6	-35.8	28.8	3.04e+01	92	27	0	557842432	44	5983
2026-01-16 04:32:14.84	293.18	12.81	-34.6	-35.8	28.8	3.04e+01	92	27	0	563609600	44	5961
2026-01-16 04:32:17.87	293.85	12.75	-34.6	-35.9	28.8	3.04e+01	91	27	0	569376768	44	6023
2026-01-16 04:32:20.89	294.52	12.69	-34.6	-35.8	28.9	3.04e+01	92	27	0	575143936	44	5949
2026-01-16 04:32:23.91	295.19	12.62	-34.5	-35.7	28.9	3.04e+01	90	27	0	580911104	44	5926
2026-01-16 04:32:26.94	295.86	12.55	-34.8	-36.1	28.7	3.04e+01	92	27	0	586678272	44	6150
2026-01-16 04:32:29.96	296.52	12.47	-34.6	-35.8	28.8	3.04e+01	90	27	0	591921152	44	5992
2026-01-16 04:32:32.99	297.18	12.40	-34.5	-35.8	28.8	3.04e+01	92	27	0	597688320	44	5945
2026-01-16 04:32:36.02	297.83	12.32	-34.6	-35.8	28.8	3.04e+01	91	27	0	603455488	44	5991
2026-01-16 04:32:39.05	298.48	12.23	-34.7	-36.0	28.7	3.04e+01	64	27	0	609222656	44	6069
2026-01-16 04:32:42.08	299.13	12.15	-34.7	-35.9	28.7	3.04e+01	57	27	0	614989824	44	6052
2026-01-16 04:32:45.10	299.77	12.06	-34.6	-35.9	28.8	3.04e+01	57	27	0	620756992	44	6008
2026-01-16 04:32:48.13	300.41	11.97	-34.6	-35.9	28.8	3.04e+01	61	27	0	625999872	44	6009
2026-01-16 04:32:51.16	301.04	11.87	-34.6	-35.9	28.7	3.04e+01	59	27	0	631767040	44	5997
2026-01-16 04:32:54.18	301.67	11.78	-34.6	-35.9	28.7	3.04e+01	47	27	0	637534208	44	6009
2026-01-16 04:32:57.21	302.30	11.68	-34.7	-36.0	28.6	3.04e+01	44	27	0	643301376	44	6108
2026-01-16 04:33:00.23	302.92	11.58	-34.7	-36.0	28.7	3.04e+01	57	27	0	649068544	44	6066
2026-01-16 04:33:03.26	303.53	11.47	-34.8	-36.1	28.5	3.04e+01	58	27	0	654311424	44	6154
2026-01-16 04:33:06.28	304.14	11.37	-34.7	-35.9	28.7	3.04e+01	59	27	0	660078592	44	6051
2026-01-16 04:33:09.31	304.75	11.26	-34.8	-36.0	28.6	3.04e+01	57	27	0	665845760	44	6130
2026-01-16 04:33:12.33	305.35	11.15	-34.8	-36.1	28.6	3.04e+01	62	27	0	671612928	44	6144
2026-01-16 04:33:15.36	305.95	11.04	-34.7	-36.0	28.6	3.04e+01	60	27	0	677380096	44	6110
2026-01-16 04:33:18.38	306.54	10.92	-34.8	-36.1	28.5	3.04e+01	54	27	0	682622976	44	6186
2026-01-16 04:33:21.41	307.13	10.81	-34.9	-36.1	28.5	3.04e+01	50	27	0	688390144	44	6202
2026-01-16 04:33:24.43	307.71	10.69	-34.9	-36.2	28.4	3.04e+01	59	27	0	694157312	44	6228
2026-01-16 04:33:27.45	308.29	10.57	-34.9	-36.1	28.5	3.04e+01	54	27	0	699924480	44	6194
2026-01-16 04:33:30.48	308.86	10.45	-35.0	-36.2	28.3	3.04e+01	60	27	0	705691648	44	6273
2026-01-16 04:33:33.51	309.43	10.32	-34.9	-36.1	28.5	3.04e+01	57	27	0	711458816	44	6199
2026-01-16 04:33:36.54	309.99	10.20	-34.9	-36.2	28.4	3.04e+01	60	27	0	716701696	44	6207
2026-01-16 04:33:39.57	310.55	10.07	-35.0	-36.3	28.3	3.04e+01	55	27	0	722468864	44	6295
2026-01-16 04:33:42.59	311.10	9.94	-35.6	-36.9	27.7	3.04e+01	48	27	0	728236032	44	6766
2026-01-16 04:33:45.62	311.65	9.81	-35.3	-36.6	28.0	3.04e+01	59	27	0	734003200	44	6563
2026-01-16 04:33:48.65	312.19	9.68	-35.1	-36.3	28.2	3.04e+01	60	27	0	739770368	44	6350
2026-01-16 04:33:51.68	312.73	9.55	-35.0	-36.3	28.3	3.04e+01	62	27	0	745537536	44	6287
2026-01-16 04:33:54.70	313.26	9.42	-35.2	-36.5	28.1	3.04e+01	58	27	0	750780416	44	6427
2026-01-16 04:33:57.72	313.79	9.28	-35.1	-36.4	28.2	3.04e+01	62	27	0	756547584	44	6379
2026-01-16 04:34:00.74	314.31	9.15	-35.2	-36.5	28.1	3.04e+01	60	27	0	762314752	44	6439
2026-01-16 04:34:03.77	314.82	9.01	-35.3	-36.6	27.9	3.04e+01	58	27	0	768081920	44	6564
2026-01-16 04:34:06.79	315.33	8.87	-35.4	-36.8	27.8	3.04e+01	46	27	0	773849088	44	6654
2026-01-16 04:34:09.82	315.84	8.73	-35.4	-36.7	27.8	3.04e+01	56	27	0	779091968	44	6600
2026-01-16 04:34:12.84	316.34	8.59	-35.2	-36.5	28.0	3.04e+01	58	27	0	784859136	44	6472
2026-01-16 04:34:15.87	316.84	8.45	-35.4	-36.7	27.8	3.04e+01	58	27	0	790626304	44	6643
2026-01-16 04:34:18.90	317.33	8.31	-35.5	-36.8	27.7	3.04e+01	59	27	0	796393472	44	6714
2026-01-16 04:34:21.92	317.81	8.17	-35.5	-36.9	27.7	3.04e+01	61	27	0	802160640	44	6734
2026-01-16 04:34:24.95	318.29	8.02	-35.4	-36.8	27.8	3.04e+01	52	27	0	807927808	44	6660
2026-01-16 04:34:27.98	318.77	7.88	-35.5	-36.8	27.7	3.04e+01	49	27	0	813170688	44	6683
2026-01-16 04:34:31.01	319.24	7.74	-35.7	-37.0	27.5	3.04e+01	57	27	0	818937856	44	6863
2026-01-16 04:34:34.03	319.71	7.59	-35.8	-37.2	27.3	3.04e+01	61	27	0	824705024	46	6210
2026-01-16 04:34:37.05	320.17	7.45	-35.8	-37.1	27.5	3.04e+01	57	27	0	830472192	46	6190
2026-01-16 04:34:40.08	320.63	7.30	-35.8	-37.1	27.4	3.04e+01	60	27	0	836239360	46	6198
2026-01-16 04:34:43.10	321.08	7.15	-35.8	-37.1	27.4	3.04e+01	60	27	0	842006528	46	6197
2026-01-16 04:34:46.13	321.52	7.01	-35.9	-37.2	27.4	3.04e+01	59	27	0	847249408	46	6226
2026-01-16 04:34:49.16	321.97	6.86	-35.7	-37.1	27.4	3.04e+01	50	28	0	853016576	46	6137
2026-01-16 04:34:52.19	322.40	6.71	-36.1	-37.4	27.0	3.04e+01	59	27	0	858783744	46	6421
2026-01-16 04:34:55.21	322.84	6.56	-36.2	-37.6	26.9	3.04e+01	58	27	0	864550912	46	6516
2026-01-16 04:34:58.24	323.26	6.41	-36.3	-37.7	26.7	3.04e+01	59	28	0	870318080	46	6648
2026-01-16 04:35:01.27	323.69	6.27	-36.2	-37.6	26.9	3.04e+01	59	28	0	875560960	46	6539
2026-01-16 04:35:04.30	324.11	6.12	-36.3	-37.7	26.7	3.04e+01	57	28	0	881328128	46	6624
2026-01-16 04:35:07.32	324.52	5.97	-36.3	-37.7	26.8	3.04e+01	60	28	0	887095296	46	6622
2026-01-16 04:35:10.35	324.93	5.82	-36.7	-47.1	3.5	3.04e+01	0	28	104	892338176	46	19412
2026-01-16 04:35:13.38	325.34	5.67	-36.8	-47.1	3.6	3.04e+01	0	28	104	892338176	46	19579
2026-01-16 04:35:16.41	325.74	5.52	-46.3	-61.4	3.5	3.04e+01	0	28	104	892338176	60	45426
2026-01-16 04:35:19.43	326.14	5.37	-38.7	-49.2	3.6	3.04e+01	0	28	104	892338176	52	17551
2026-01-16 04:35:22.46	326.53	5.22	-37.0	-47.3	3.5	3.04e+01	0	28	104	892338176	50	15935
2026-01-16 04:35:25.49	326.92	5.07	-46.1	-61.0	3.5	3.04e+01	0	28	104	892338176	60	42994
2026-01-16 04:35:28.51	327.30	4.92	-39.0	-49.5	4.1	3.04e+01	0	28	104	892338176	54	16310
2026-01-16 04:35:31.54	327.68	4.77	-38.8	-49.4	4.1	3.04e+01	0	28	104	892338176	52	17946
2026-01-16 04:35:34.57	328.06	4.62	-46.3	-62.5	3.5	3.04e+01	0	28	104	892338176	60	51262
2026-01-16 04:35:37.60	328.43	4.47	-38.4	-49.0	3.5	3.04e+01	0	28	104	892338176	52	17284
2026-01-16 04:35:40.62	328.80	4.32	-38.3	-48.9	3.5	3.04e+01	0	28	104	892338176	52	16938
2026-01-16 04:35:43.65	329.17	4.17	-45.2	-58.8	3.5	3.04e+01	0	28	104	892338176	60	33622
2026-01-16 04:35:46.67	329.52	4.02	-38.8	-49.4	3.5	3.04e+01	0	28	104	892338176	54	16122
2026-01-16 04:35:49.70	329.88	3.87	-37.6	-48.1	3.5	3.04e+01	0	28	104	892338176	50	17379
2026-01-16 04:35:52.73	330.23	3.72	-43.3	-56.1	3.5	3.04e+01	0	28	104	892338176	60	24608
2026-01-16 04:35:55.75	330.58	3.57	-40.0	-51.1	3.5	3.04e+01	0	28	104	892338176	56	17398
2026-01-16 04:35:58.78	330.93	3.42	-39.2	-50.0	3.5	3.04e+01	0	28	104	892338176	54	17259
2026-01-16 04:36:01.78	331.27	3.27	-43.4	-59.9	3.5	3.04e+01	0	28	104	892338176	60	37918
2026-01-16 04:36:04.81	331.61	3.12	-42.7	-56.8	3.5	3.04e+01	0	28	104	892338176	60	26679
2026-01-16 04:36:07.84	331.94	2.97	-47.0	-64.9	3.5	3.04e+01	0	28	104	892338176	60	67589
2026-01-16 04:36:10.87	332.27	2.82	-48.0	-66.0	3.5	3.04e+01	0	28	104	892338176	60	76467
2026-01-16 04:36:13.90	332.60	2.67	-48.2	-66.3	3.5	3.04e+01	0	28	104	892338176	60	79599
2026-01-16 04:36:16.92	332.92	2.53	-48.4	-66.4	3.5	3.04e+01	0	28	104	892338176	60	80775
2026-01-16 04:36:19.95	333.24	2.38	-48.3	-66.2	3.5	3.04e+01	0	28	104	892338176	60	78499
2026-01-16 04:36:22.98	333.56	2.23	-48.2	-66.2	3.5	3.04e+01	0	28	104	892338176	60	78149
2026-01-16 04:36:26.01	333.88	2.08	-48.3	-66.2	3.5	3.04e+01	0	28	104	892338176	60	78150
2026-01-16 04:36:29.04	334.19	1.93	-48.3	-66.1	3.5	3.04e+01	0	28	104	892338176	60	78050
2026-01-16 04:36:32.07	334.49	1.79	-48.2	-66.1	3.5	3.04e+01	0	28	104	892338176	60	77839
2026-01-16 04:36:35.09	334.80	1.64	-48.4	-66.3	3.5	3.04e+01	0	28	104	892338176	60	79336
2026-01-16 04:36:38.12	335.10	1.49	-48.3	-66.2	3.5	3.04e+01	0	28	104	892338176	60	78249
2026-01-16 04:36:41.14	335.40	1.34	-48.4	-66.2	3.5	3.04e+01	0	28	104	892338176	60	78644
2026-01-16 04:36:44.17	335.69	1.20	-48.4	-66.3	3.5	3.04e+01	0	29	104	892338176	60	79055
2026-01-16 04:36:47.19	335.98	1.05	-48.4	-66.3	3.5	3.04e+01	0	29	104	892338176	60	79368
2026-01-16 04:36:50.22	336.27	0.91	-48.3	-66.2	3.5	3.04e+01	0	29	104	892338176	60	78569
2026-01-16 04:36:53.25	336.56	0.76	-48.3	-66.2	3.5	3.04e+01	0	29	104	892338176	60	78858
2026-01-16 04:36:56.28	336.84	0.62	-48.4	-66.3	3.5	3.04e+01	0	29	104	892338176	60	79321
2026-01-16 04:36:59.31	337.12	0.47	-48.8	-66.7	3.5	3.04e+01	0	29	104	892338176	60	83032
2026-01-16 04:37:02.34	337.40	0.32	-48.4	-66.3	3.5	3.04e+01	0	29	104	892338176	60	79115
2026-01-16 04:37:05.37	337.68	0.18	-48.6	-66.5	3.5	3.04e+01	0	29	104	892338176	60	81085
2026-01-16 04:37:08.40	337.95	0.04	-48.5	-66.4	3.5	3.04e+01	0	29	104	892338176	60	80484
2026-01-16 04:37:11.43	338.22	-0.11	-48.4	-66.2	3.5	3.04e+01	0	29	104	892338176	60	78779

#Closed at: 2026-01-16 04:37:11
#Recorded file [892 MB]: D:/lorett/data/35029_260116_162544.dat