passes_logs/2026/01/16/R4.6S_Anadyr/R4.6S_Anadyr__20260116_130558_NOAA_20_JPSS-1_rec.log

#Pass ID: 20260116_130558_NOAA 20 (JPSS-1)
#Satellite: NOAA 20 (JPSS-1)
#Configuration: NOAA 20
#almurnet v.1.7.20251203
#Start time: 2026-01-16 13:06:00

#Version: 2.2.20231116
#Station: R4.6S_Anadyr
#Location: 177.4865 lon 64.73178 lat
#TLE: 1 43013U 17073A   26015.89389188  .00000026  00000+0  33113-4 0  9999
#TLE: 2 43013  98.7636 316.8238 0001460  37.8997 322.2282 14.19536128422860

#Time	Az	El	Level	Level2	SNR	BER	BlckErr	Temp	State	Recorded	gain1	gain2
2026-01-16 13:06:00.44	18.81	0.12	-48.1	-63.0	3.5	1.51e+00	0	26	0	0	60	51210
2026-01-16 13:06:04.47	19.03	0.34	-48.0	-63.2	3.6	1.51e+00	0	27	104	0	60	52107
2026-01-16 13:06:08.51	19.24	0.56	-47.9	-63.2	3.5	1.51e+00	0	28	104	0	60	52108
2026-01-16 13:06:12.55	19.46	0.78	-47.4	-62.6	3.6	1.51e+00	0	28	104	0	60	48876
2026-01-16 13:06:16.59	19.69	1.01	-46.5	-61.7	3.6	1.51e+00	0	28	104	0	60	43858
2026-01-16 13:06:20.63	19.91	1.23	-46.3	-61.5	3.6	1.51e+00	0	28	104	0	60	42784
2026-01-16 13:06:24.67	20.14	1.46	-46.3	-61.5	3.6	1.51e+00	0	28	104	0	60	42954
2026-01-16 13:06:28.71	20.38	1.69	-46.3	-61.4	3.6	1.51e+00	0	28	104	0	60	42560
2026-01-16 13:06:32.75	20.61	1.92	-46.3	-61.4	3.6	1.51e+00	0	28	104	0	60	42514
2026-01-16 13:06:36.79	20.85	2.15	-46.3	-61.5	3.6	1.51e+00	0	28	104	0	60	42820
2026-01-16 13:06:40.83	21.09	2.39	-46.3	-60.8	3.6	1.51e+00	0	28	104	0	60	39462
2026-01-16 13:06:44.87	21.34	2.62	-46.2	-60.4	3.6	1.51e+00	0	28	104	0	60	37798
2026-01-16 13:06:48.90	21.59	2.86	-44.3	-48.6	11.6	4.41e-03	0	28	0	3145728	60	9769
2026-01-16 13:06:52.94	21.85	3.10	-40.9	-42.8	17.6	0.00e+00	92	28	0	11534336	54	7070
2026-01-16 13:06:56.98	22.10	3.34	-42.5	-45.2	15.3	0.00e+00	0	28	0	18874368	56	8275
2026-01-16 13:07:01.02	22.37	3.58	-45.2	-51.1	9.1	1.29e+00	73	28	104	24117248	60	13044
2026-01-16 13:07:05.06	22.63	3.82	-43.5	-46.7	13.9	8.30e-06	0	28	0	25165824	60	7797
2026-01-16 13:07:09.09	22.90	4.07	-42.0	-44.3	16.6	0.00e+00	0	28	0	32505856	56	7454
2026-01-16 13:07:13.13	23.18	4.31	-41.6	-43.6	17.3	0.00e+00	81	28	0	40894464	56	6863
2026-01-16 13:07:17.17	23.45	4.56	-39.7	-41.1	19.6	0.00e+00	0	28	0	48234496	52	6538
2026-01-16 13:07:21.21	23.74	4.81	-39.3	-40.7	20.0	0.00e+00	89	28	0	55574528	52	6203
2026-01-16 13:07:25.25	24.02	5.06	-39.6	-41.0	19.9	0.00e+00	23	28	0	62914560	52	6421
2026-01-16 13:07:29.29	24.32	5.32	-39.5	-40.8	20.1	0.00e+00	2	28	0	71303168	52	6295
2026-01-16 13:07:33.33	24.61	5.57	-38.9	-40.2	20.6	0.00e+00	81	28	0	78643200	50	6561
2026-01-16 13:07:37.37	24.92	5.83	-39.1	-40.4	20.4	0.00e+00	92	28	0	85983232	50	6737
2026-01-16 13:07:41.41	25.22	6.09	-39.0	-40.2	20.5	0.00e+00	5	28	0	93323264	50	6596
2026-01-16 13:07:45.45	25.54	6.35	-39.0	-40.3	20.6	0.00e+00	6	28	0	100663296	50	6642
2026-01-16 13:07:49.49	25.85	6.62	-38.6	-39.8	21.1	0.00e+00	0	28	0	109051904	50	6287
2026-01-16 13:07:53.53	26.18	6.88	-38.9	-40.1	20.9	0.00e+00	91	28	0	116391936	50	6511
2026-01-16 13:07:57.57	26.50	7.15	-38.4	-39.5	21.4	0.00e+00	85	28	0	123731968	50	6073
2026-01-16 13:08:01.61	26.84	7.42	-38.8	-40.0	21.0	0.00e+00	8	28	0	131072000	50	6413
2026-01-16 13:08:05.64	27.18	7.69	-38.8	-40.0	20.9	0.00e+00	0	28	0	139460608	50	6445
2026-01-16 13:08:09.68	27.53	7.97	-38.7	-39.9	21.1	0.00e+00	92	28	0	146800640	50	6371
2026-01-16 13:08:13.72	27.88	8.24	-38.6	-39.7	21.3	0.00e+00	1	28	0	154140672	50	6218
2026-01-16 13:08:17.76	28.24	8.52	-38.3	-39.4	21.7	0.00e+00	81	28	0	161480704	50	5987
2026-01-16 13:08:21.79	28.60	8.80	-38.5	-39.7	21.5	0.00e+00	81	28	0	168820736	50	6192
2026-01-16 13:08:25.83	28.97	9.09	-37.8	-38.9	22.1	0.00e+00	92	27	0	177209344	50	5641
2026-01-16 13:08:29.87	29.35	9.37	-37.9	-38.9	22.0	0.00e+00	0	28	0	184549376	48	6364
2026-01-16 13:08:33.91	29.74	9.66	-37.8	-38.8	22.2	0.00e+00	0	28	0	191889408	48	6292
2026-01-16 13:08:37.95	30.13	9.95	-37.8	-38.8	22.3	0.00e+00	0	28	0	199229440	48	6311
2026-01-16 13:08:41.99	30.53	10.24	-37.8	-38.9	22.2	0.00e+00	92	28	0	207618048	48	6335
2026-01-16 13:08:46.03	30.94	10.53	-38.0	-39.0	22.1	0.00e+00	0	28	0	214958080	48	6457
2026-01-16 13:08:50.06	31.36	10.83	-38.1	-39.1	21.9	0.00e+00	2	28	0	222298112	48	6524
2026-01-16 13:08:54.10	31.78	11.13	-38.0	-39.1	22.1	0.00e+00	92	28	0	229638144	48	6465
2026-01-16 13:08:58.14	32.22	11.43	-37.8	-38.8	22.3	0.00e+00	0	28	0	236978176	48	6311
2026-01-16 13:09:02.19	32.66	11.73	-37.8	-38.8	22.4	0.00e+00	78	27	0	245366784	48	6301
2026-01-16 13:09:06.23	33.11	12.04	-37.9	-38.9	22.3	0.00e+00	0	28	0	252706816	48	6343
2026-01-16 13:09:10.27	33.57	12.35	-37.8	-38.9	22.4	0.00e+00	89	27	0	260046848	48	6322
2026-01-16 13:09:14.31	34.04	12.66	-37.5	-38.5	22.5	0.00e+00	0	27	0	267386880	48	6037
2026-01-16 13:09:18.35	34.52	12.97	-37.5	-38.5	22.7	0.00e+00	0	28	0	275775488	48	6062
2026-01-16 13:09:22.39	35.01	13.29	-37.8	-38.9	22.5	0.00e+00	0	28	0	283115520	48	6328
2026-01-16 13:09:26.43	35.51	13.60	-37.8	-38.8	22.4	0.00e+00	92	28	0	290455552	48	6283
2026-01-16 13:09:30.47	36.02	13.92	-37.6	-38.6	22.6	0.00e+00	7	28	0	297795584	48	6163
2026-01-16 13:09:34.50	36.53	14.24	-37.5	-38.5	22.8	0.00e+00	2	28	0	306184192	48	6077
2026-01-16 13:09:38.54	37.07	14.57	-37.6	-38.6	22.7	0.00e+00	0	28	0	313524224	48	6120
2026-01-16 13:09:42.58	37.61	14.89	-37.5	-38.5	22.9	0.00e+00	92	28	0	320864256	48	6060
2026-01-16 13:09:46.62	38.16	15.22	-37.4	-38.4	23.0	0.00e+00	6	28	0	328204288	48	5979
2026-01-16 13:09:50.66	38.73	15.55	-37.6	-38.5	22.8	0.00e+00	3	28	0	335544320	48	6087
2026-01-16 13:09:54.70	39.30	15.88	-37.3	-38.3	23.0	0.00e+00	5	28	0	343932928	48	5931
2026-01-16 13:09:58.74	39.90	16.21	-37.3	-38.3	23.1	0.00e+00	90	28	0	351272960	48	5921
2026-01-16 13:10:02.78	40.50	16.55	-36.9	-37.8	23.5	0.00e+00	77	28	0	358612992	48	5591
2026-01-16 13:10:06.82	41.11	16.89	-36.7	-37.6	22.6	0.00e+00	2	28	0	365953024	46	6128
2026-01-16 13:10:10.86	41.74	17.22	-36.8	-37.7	23.5	0.00e+00	0	28	0	374341632	46	6227
2026-01-16 13:10:14.90	42.39	17.56	-36.7	-37.6	23.8	0.00e+00	81	28	0	381681664	46	6148
2026-01-16 13:10:18.95	43.05	17.91	-36.6	-37.5	23.9	0.00e+00	0	28	0	389021696	46	6046
2026-01-16 13:10:22.99	43.72	18.25	-36.9	-37.8	23.6	0.00e+00	78	28	0	396361728	46	6250
2026-01-16 13:10:27.03	44.41	18.59	-36.4	-37.3	24.1	0.00e+00	92	28	0	403701760	46	5912
2026-01-16 13:10:31.07	45.11	18.93	-36.6	-37.5	23.8	0.00e+00	0	28	0	412090368	46	6035
2026-01-16 13:10:35.11	45.83	19.28	-36.0	-36.9	24.4	0.00e+00	0	28	0	419430400	46	5643
2026-01-16 13:10:39.15	46.56	19.62	-36.3	-37.1	24.3	0.00e+00	1	28	0	426770432	46	5803
2026-01-16 13:10:43.19	47.31	19.97	-36.3	-37.1	24.4	0.00e+00	92	28	0	434110464	46	5792
2026-01-16 13:10:47.23	48.08	20.31	-35.9	-36.7	24.7	0.00e+00	2	28	0	442499072	46	5547
2026-01-16 13:10:51.27	48.87	20.66	-35.9	-36.7	24.6	0.00e+00	0	28	0	449839104	46	5544
2026-01-16 13:10:55.31	49.67	21.00	-36.0	-36.8	24.5	0.00e+00	79	28	0	457179136	46	5616
2026-01-16 13:10:59.35	50.49	21.34	-36.1	-36.9	24.4	0.00e+00	92	28	0	464519168	46	5659
2026-01-16 13:11:03.38	51.32	21.68	-36.2	-37.0	24.4	0.00e+00	0	28	0	471859200	46	5718
2026-01-16 13:11:07.42	52.18	22.02	-36.1	-37.0	24.4	0.00e+00	0	28	0	480247808	46	5718
2026-01-16 13:11:11.45	53.05	22.36	-35.9	-36.7	24.6	0.00e+00	0	28	0	487587840	46	5563
2026-01-16 13:11:15.49	53.94	22.70	-35.6	-36.4	24.9	0.00e+00	92	28	0	494927872	44	6019
2026-01-16 13:11:19.53	54.85	23.03	-36.1	-36.9	24.5	0.00e+00	84	28	0	502267904	44	6387
2026-01-16 13:11:23.57	55.78	23.36	-36.2	-37.0	24.5	0.00e+00	0	28	0	510656512	44	6447
2026-01-16 13:11:27.61	56.73	23.68	-36.6	-37.5	24.2	0.00e+00	1	28	0	517996544	44	6800
2026-01-16 13:11:31.65	57.70	24.01	-36.7	-37.6	23.9	0.00e+00	92	28	0	525336576	46	6109
2026-01-16 13:11:35.69	58.69	24.32	-36.8	-37.7	23.9	0.00e+00	0	28	0	532676608	46	6210
2026-01-16 13:11:39.73	59.70	24.64	-36.9	-37.8	23.7	0.00e+00	78	28	0	540016640	46	6301
2026-01-16 13:11:43.76	60.72	24.94	-37.2	-38.1	23.5	0.00e+00	80	28	0	548405248	46	6497
2026-01-16 13:11:47.80	61.77	25.24	-37.6	-38.6	23.1	0.00e+00	2	28	0	555745280	46	6860
2026-01-16 13:11:51.84	62.84	25.54	-37.7	-38.7	22.9	0.00e+00	0	28	0	563085312	48	6179
2026-01-16 13:11:55.88	63.92	25.82	-38.1	-39.0	22.7	0.00e+00	5	28	0	570425344	48	6457
2026-01-16 13:11:59.93	65.03	26.10	-38.8	-39.8	22.1	0.00e+00	78	28	0	578813952	50	6282
2026-01-16 13:12:03.97	66.16	26.37	-38.7	-39.7	22.1	0.00e+00	0	28	0	586153984	50	6226
2026-01-16 13:12:08.01	67.30	26.63	-38.7	-39.8	22.0	0.00e+00	2	29	0	593494016	50	6247
2026-01-16 13:12:12.05	68.46	26.88	-38.8	-39.8	21.9	0.00e+00	2	29	0	600834048	50	6317
2026-01-16 13:12:16.09	69.64	27.12	-38.8	-39.9	21.8	0.00e+00	92	29	0	608174080	50	6359
2026-01-16 13:12:20.13	70.84	27.35	-38.7	-39.7	21.9	0.00e+00	75	29	0	616562688	50	6234
2026-01-16 13:12:24.17	72.05	27.57	-39.0	-40.1	21.6	0.00e+00	0	29	0	623902720	50	6515
2026-01-16 13:12:28.21	73.28	27.78	-40.1	-41.4	20.5	0.00e+00	0	29	0	631242752	52	6748
2026-01-16 13:12:32.25	74.53	27.97	-40.0	-41.3	20.6	0.00e+00	91	29	0	638582784	52	6659
2026-01-16 13:12:36.28	75.78	28.15	-39.3	-40.5	21.3	0.00e+00	3	29	0	646971392	52	6063
2026-01-16 13:12:40.32	77.05	28.32	-39.0	-40.1	21.7	0.00e+00	5	29	0	654311424	52	5819
2026-01-16 13:12:44.36	78.34	28.47	-39.2	-40.4	21.5	0.00e+00	79	29	0	661651456	52	5975
2026-01-16 13:12:48.40	79.64	28.61	-40.0	-41.2	20.5	0.00e+00	91	29	0	668991488	52	6613
2026-01-16 13:12:52.43	80.94	28.73	-39.5	-40.7	21.1	0.00e+00	0	29	0	676331520	52	6229
2026-01-16 13:12:56.47	82.26	28.84	-39.2	-40.4	21.5	0.00e+00	3	29	0	684720128	52	5991
2026-01-16 13:13:00.51	83.58	28.93	-38.9	-40.0	21.8	0.00e+00	0	29	0	692060160	52	5705
2026-01-16 13:13:04.55	84.92	29.01	-38.8	-39.9	21.9	0.00e+00	92	29	0	699400192	52	5690
2026-01-16 13:13:08.59	86.25	29.07	-38.3	-39.3	22.3	0.00e+00	83	29	0	706740224	50	5924
2026-01-16 13:13:12.63	87.60	29.11	-39.6	-40.8	21.0	0.00e+00	7	29	0	715128832	50	7028
2026-01-16 13:13:16.67	88.94	29.14	-38.6	-39.6	22.2	0.00e+00	55	29	0	722468864	50	6159
2026-01-16 13:13:20.71	90.29	29.14	-37.8	-38.7	22.8	0.00e+00	92	29	0	729808896	48	6229
2026-01-16 13:13:24.75	91.64	29.14	-38.4	-39.4	22.2	0.00e+00	0	29	0	737148928	48	6758
2026-01-16 13:13:28.79	92.98	29.11	-37.8	-38.8	22.8	0.00e+00	81	29	0	744488960	48	6270
2026-01-16 13:13:32.84	94.33	29.07	-39.1	-40.3	21.5	0.00e+00	92	29	0	752877568	50	6631
2026-01-16 13:13:36.88	95.67	29.01	-39.2	-40.3	21.4	0.00e+00	3	29	0	760217600	50	6678
2026-01-16 13:13:40.91	97.00	28.94	-38.4	-39.4	22.2	0.00e+00	78	29	0	767557632	50	6018
2026-01-16 13:13:44.95	98.32	28.84	-40.6	-42.0	19.8	0.00e+00	79	29	0	774897664	54	6407
2026-01-16 13:13:48.99	99.64	28.74	-39.0	-40.1	21.6	0.00e+00	92	29	0	783286272	52	5795
2026-01-16 13:13:53.03	100.95	28.61	-39.4	-40.6	21.3	0.00e+00	0	29	0	790626304	52	6125
2026-01-16 13:13:57.07	102.25	28.48	-38.7	-39.8	22.0	0.00e+00	0	29	0	797966336	50	6249
2026-01-16 13:14:01.11	103.54	28.32	-38.9	-40.1	21.5	0.00e+00	82	29	0	805306368	50	6475
2026-01-16 13:14:05.15	104.82	28.16	-37.7	-38.6	23.0	0.00e+00	90	29	0	812646400	48	6152
2026-01-16 13:14:09.19	106.08	27.98	-37.4	-38.4	23.2	0.00e+00	0	29	0	821035008	48	5977
2026-01-16 13:14:13.23	107.33	27.78	-37.5	-38.4	23.0	0.00e+00	0	29	0	828375040	48	6033
2026-01-16 13:14:17.27	108.56	27.58	-37.5	-38.4	23.2	0.00e+00	0	29	0	835715072	48	6019
2026-01-16 13:14:21.31	109.78	27.36	-36.9	-37.8	23.6	0.00e+00	92	29	0	843055104	48	5591
2026-01-16 13:14:25.35	110.98	27.13	-37.5	-38.5	23.1	0.00e+00	2	29	0	851443712	46	6774
2026-01-16 13:14:29.39	112.16	26.88	-37.9	-38.9	22.5	0.00e+00	82	29	0	858783744	48	6345
2026-01-16 13:14:33.43	113.32	26.63	-38.1	-39.1	22.6	0.00e+00	0	29	0	866123776	48	6507
2026-01-16 13:14:37.47	114.47	26.37	-37.2	-38.1	23.3	0.00e+00	92	29	0	873463808	48	5811
2026-01-16 13:14:41.51	115.60	26.10	-37.7	-38.7	22.8	0.00e+00	2	29	0	880803840	48	6221
2026-01-16 13:14:45.55	116.71	25.82	-38.4	-39.4	22.2	0.00e+00	2	29	0	889192448	48	6764
2026-01-16 13:14:49.59	117.80	25.53	-37.8	-38.8	22.8	0.00e+00	35	29	0	896532480	48	6274
2026-01-16 13:14:53.63	118.87	25.24	-37.2	-38.2	23.3	0.00e+00	91	29	0	903872512	48	5840
2026-01-16 13:14:57.67	119.92	24.93	-36.7	-37.5	23.8	0.00e+00	0	29	0	911212544	46	6097
2026-01-16 13:15:01.71	120.95	24.63	-37.5	-38.5	23.0	0.00e+00	0	29	0	919601152	46	6816
2026-01-16 13:15:05.75	121.96	24.31	-36.9	-37.8	23.7	0.00e+00	92	30	0	926941184	46	6248
2026-01-16 13:15:09.79	122.96	23.99	-37.3	-38.2	23.3	0.00e+00	79	29	0	934281216	46	6580
2026-01-16 13:15:13.83	123.93	23.67	-37.1	-38.1	23.3	0.00e+00	2	29	0	941621248	46	6480
2026-01-16 13:15:17.87	124.88	23.34	-37.5	-38.5	22.9	0.00e+00	0	30	0	948961280	48	6065
2026-01-16 13:15:21.91	125.81	23.01	-37.7	-38.7	22.8	0.00e+00	92	30	0	957349888	48	6232
2026-01-16 13:15:25.95	126.73	22.68	-38.5	-39.6	22.0	0.00e+00	79	30	0	964689920	50	6148
2026-01-16 13:15:29.98	127.62	22.34	-37.8	-38.8	22.7	0.00e+00	0	29	0	972029952	50	5595
2026-01-16 13:15:34.02	128.50	22.00	-37.9	-38.9	22.7	0.00e+00	0	30	0	979369984	50	5658
2026-01-16 13:15:38.06	129.36	21.66	-37.0	-38.0	23.3	0.00e+00	92	30	0	987758592	48	5701
2026-01-16 13:15:42.10	130.20	21.31	-38.2	-39.2	22.3	0.00e+00	2	30	0	995098624	48	6604
2026-01-16 13:15:46.14	131.02	20.97	-37.5	-38.4	23.0	0.00e+00	0	30	0	1002438656	48	6003
2026-01-16 13:15:50.18	131.82	20.62	-38.3	-39.4	22.2	0.00e+00	0	30	0	1009778688	48	6712
2026-01-16 13:15:54.22	132.61	20.28	-37.2	-38.1	23.4	0.00e+00	90	30	0	1017118720	48	5813
2026-01-16 13:15:58.26	133.38	19.93	-37.4	-38.4	23.0	0.00e+00	0	30	0	1025507328	48	5967
2026-01-16 13:16:02.30	134.13	19.58	-37.0	-37.9	23.4	0.00e+00	2	30	0	1032847360	48	5664
2026-01-16 13:16:06.34	134.87	19.23	-37.3	-38.3	23.1	0.00e+00	0	30	0	1040187392	48	5927
2026-01-16 13:16:10.38	135.59	18.89	-37.2	-38.1	23.3	0.00e+00	92	30	0	1047527424	48	5815
2026-01-16 13:16:14.42	136.29	18.54	-36.7	-37.6	23.4	0.00e+00	5	30	0	1055916032	46	6167
2026-01-16 13:16:18.46	136.98	18.20	-36.3	-37.2	24.0	0.00e+00	0	30	0	1063256064	46	5857
2026-01-16 13:16:22.50	137.66	17.85	-36.3	-37.1	24.1	0.00e+00	0	30	0	1070596096	46	5828
2026-01-16 13:16:26.54	138.32	17.51	-36.4	-37.2	24.0	0.00e+00	85	30	0	1077936128	46	5885
2026-01-16 13:16:30.58	138.96	17.17	-36.8	-37.7	23.7	0.00e+00	84	30	0	1085276160	46	6184
2026-01-16 13:16:34.61	139.59	16.83	-37.0	-37.9	23.4	0.00e+00	1	30	0	1093664768	46	6390
2026-01-16 13:16:38.65	140.21	16.49	-36.5	-37.4	23.8	0.00e+00	92	30	0	1101004800	46	5979
2026-01-16 13:16:42.69	140.81	16.15	-36.6	-37.5	23.7	0.00e+00	6	30	0	1108344832	46	6074
2026-01-16 13:16:46.73	141.41	15.81	-37.0	-37.9	23.4	0.00e+00	0	30	0	1115684864	46	6348
2026-01-16 13:16:50.77	141.98	15.48	-37.0	-38.0	23.3	0.00e+00	0	30	0	1124073472	46	6403
2026-01-16 13:16:54.81	142.55	15.15	-37.7	-38.7	22.6	0.00e+00	92	30	0	1131413504	46	6956
2026-01-16 13:16:58.85	143.10	14.82	-37.8	-38.9	22.3	0.00e+00	2	30	0	1138753536	48	6322
2026-01-16 13:17:02.89	143.65	14.49	-37.8	-38.9	22.3	0.00e+00	0	30	0	1146093568	48	6327
2026-01-16 13:17:06.93	144.18	14.16	-37.9	-39.0	22.3	0.00e+00	0	30	0	1153433600	48	6407
2026-01-16 13:17:10.97	144.70	13.84	-38.4	-39.5	21.8	0.00e+00	92	30	0	1161822208	48	6771
2026-01-16 13:17:15.01	145.21	13.52	-38.4	-39.5	21.7	0.00e+00	0	30	0	1169162240	48	6819
2026-01-16 13:17:19.05	145.71	13.20	-38.2	-39.3	22.0	0.00e+00	2	30	0	1176502272	48	6647
2026-01-16 13:17:23.09	146.20	12.88	-37.8	-38.8	22.5	0.00e+00	0	30	0	1183842304	48	6262
2026-01-16 13:17:27.13	146.67	12.57	-37.8	-38.8	22.3	0.00e+00	92	30	0	1192230912	48	6314
2026-01-16 13:17:31.17	147.14	12.26	-38.1	-39.2	22.0	0.00e+00	0	30	0	1199570944	48	6597
2026-01-16 13:17:35.22	147.60	11.94	-38.2	-39.2	21.9	0.00e+00	0	30	0	1206910976	48	6600
2026-01-16 13:17:39.26	148.05	11.64	-37.6	-38.6	22.5	0.00e+00	0	30	0	1214251008	48	6160
2026-01-16 13:17:43.30	148.50	11.33	-37.2	-38.2	22.9	0.00e+00	91	30	0	1221591040	48	5845
2026-01-16 13:17:47.34	148.93	11.03	-37.5	-38.5	22.6	0.00e+00	0	30	0	1229979648	48	6095
2026-01-16 13:17:51.38	149.35	10.73	-37.9	-38.9	22.2	0.00e+00	0	30	0	1237319680	48	6378
2026-01-16 13:17:55.42	149.77	10.43	-38.0	-39.1	22.1	0.00e+00	69	30	0	1244659712	48	6478
2026-01-16 13:17:59.46	150.18	10.13	-37.7	-38.7	22.4	0.00e+00	59	30	0	1251999744	48	6240
2026-01-16 13:18:03.50	150.58	9.84	-37.6	-38.6	22.4	0.00e+00	0	30	0	1260388352	48	6119
2026-01-16 13:18:07.54	150.97	9.55	-37.8	-38.9	22.1	0.00e+00	0	30	0	1267728384	48	6349
2026-01-16 13:18:11.57	151.35	9.26	-38.1	-39.2	21.8	0.00e+00	92	30	0	1275068416	48	6612
2026-01-16 13:18:15.61	151.73	8.97	-38.1	-39.2	21.8	0.00e+00	0	30	0	1282408448	48	6575
2026-01-16 13:18:19.65	152.10	8.69	-37.9	-38.9	22.0	0.00e+00	4	30	0	1289748480	48	6384
2026-01-16 13:18:23.69	152.47	8.40	-38.0	-39.1	21.8	0.00e+00	6	30	0	1298137088	48	6479
2026-01-16 13:18:27.73	152.82	8.12	-38.4	-39.5	21.2	0.00e+00	90	30	0	1305477120	48	6837
2026-01-16 13:18:31.77	153.17	7.84	-39.5	-40.9	19.8	0.00e+00	79	30	0	1312817152	50	7147
2026-01-16 13:18:35.82	153.52	7.57	-40.6	-42.4	18.0	0.00e+00	2	30	0	1320157184	52	7560
2026-01-16 13:18:39.86	153.86	7.29	-40.9	-42.9	17.3	0.00e+00	0	30	0	1328545792	54	7144
2026-01-16 13:18:43.90	154.19	7.02	-41.2	-43.4	16.7	0.00e+00	92	30	0	1335885824	54	7553
2026-01-16 13:18:47.93	154.52	6.75	-41.5	-44.0	15.9	0.00e+00	81	30	0	1343225856	54	8059
2026-01-16 13:18:51.97	154.84	6.49	-42.0	-44.8	15.0	0.00e+00	81	30	0	1350565888	56	7947
2026-01-16 13:18:56.01	155.15	6.22	-42.3	-45.1	14.9	1.50e-06	0	30	0	1358954496	56	8228
2026-01-16 13:19:00.05	155.46	5.96	-42.5	-45.3	14.8	0.00e+00	91	30	0	1366294528	56	8399
2026-01-16 13:19:04.09	155.77	5.69	-42.3	-45.0	15.3	0.00e+00	0	30	0	1373634560	56	8087
2026-01-16 13:19:08.13	156.07	5.43	-41.5	-43.7	16.5	0.00e+00	82	30	0	1380974592	56	6991
2026-01-16 13:19:12.17	156.36	5.18	-41.3	-43.4	16.9	0.00e+00	0	30	0	1388314624	56	6731
2026-01-16 13:19:16.21	156.65	4.92	-40.7	-42.6	17.9	0.00e+00	92	30	0	1396703232	54	6864
2026-01-16 13:19:20.25	156.94	4.67	-40.0	-41.6	18.9	0.00e+00	0	30	0	1404043264	54	6161
2026-01-16 13:19:24.29	157.22	4.41	-39.8	-41.3	19.2	0.00e+00	0	30	0	1411383296	54	5944
2026-01-16 13:19:28.33	157.49	4.16	-40.4	-42.0	18.5	0.00e+00	18	30	0	1418723328	52	7218
2026-01-16 13:19:32.37	157.77	3.92	-40.3	-42.0	18.5	0.00e+00	92	31	0	1427111936	52	7172
2026-01-16 13:19:36.41	158.03	3.67	-40.4	-42.1	18.4	0.00e+00	0	30	0	1434451968	54	6503
2026-01-16 13:19:40.44	158.30	3.42	-40.8	-42.6	17.8	0.00e+00	5	30	0	1441792000	54	6903
2026-01-16 13:19:44.49	158.56	3.18	-40.9	-42.8	17.6	0.00e+00	92	31	0	1449132032	54	7085
2026-01-16 13:19:48.52	158.81	2.94	-46.1	-61.3	3.6	1.51e+00	0	30	104	1454374912	60	41874
2026-01-16 13:19:52.57	159.06	2.70	-47.8	-63.0	3.6	1.51e+00	0	31	104	1454374912	60	50920
2026-01-16 13:19:56.61	159.31	2.46	-48.0	-63.2	3.6	1.51e+00	0	31	104	1454374912	60	52223
2026-01-16 13:20:00.65	159.55	2.22	-47.9	-63.2	3.6	1.51e+00	0	31	104	1454374912	60	52127
2026-01-16 13:20:04.69	159.79	1.99	-47.8	-63.1	3.6	1.51e+00	0	31	104	1454374912	60	51511
2026-01-16 13:20:08.73	160.03	1.76	-47.8	-63.1	3.6	1.51e+00	0	31	104	1454374912	60	51772
2026-01-16 13:20:12.77	160.26	1.52	-47.8	-63.1	3.6	1.51e+00	0	31	104	1454374912	60	51597
2026-01-16 13:20:16.81	160.49	1.29	-47.9	-63.1	3.6	1.51e+00	0	31	104	1454374912	60	51763
2026-01-16 13:20:20.85	160.72	1.06	-47.9	-63.2	3.6	1.51e+00	0	31	104	1454374912	60	52168
2026-01-16 13:20:24.89	160.94	0.84	-47.9	-63.2	3.6	1.51e+00	0	31	104	1454374912	60	52356
2026-01-16 13:20:28.92	161.16	0.61	-48.0	-63.2	3.6	1.51e+00	0	31	104	1454374912	60	52412
2026-01-16 13:20:32.96	161.38	0.38	-47.9	-63.2	3.6	1.51e+00	0	31	104	1454374912	60	52440
2026-01-16 13:20:37.00	161.59	0.16	-47.9	-63.1	3.6	1.51e+00	0	31	104	1454374912	60	51779

#Closed at: 2026-01-16 13:20:40
#Recorded file [1454 MB]: D:/lorett/data/35029_260117_010600.dat