passes_logs/2026/01/16/R4.6S_Anadyr/R4.6S_Anadyr__20260116_001009_NOAA_21_JPSS-2_rec.log

#Pass ID: 20260116_001009_NOAA 21 (JPSS-2)
#Satellite: NOAA 21 (JPSS-2)
#Configuration: NOAA-21
#almurnet v.1.7.20251203
#Start time: 2026-01-16 00:10:11

#Version: 2.2.20231116
#Station: R4.6S_Anadyr
#Location: 177.4865 lon 64.73178 lat
#TLE: 1 54234U 22150A   26014.58979933  .00000039  00000+0  39403-4 0  9998
#TLE: 2 54234  98.7497 315.4945 0000653 294.6373  65.4735 14.19534652164756

#Time	Az	El	Level	Level2	SNR	BER	BlckErr	Temp	State	Recorded	gain1	gain2
2026-01-16 00:10:11.25	155.08	0.08	-48.5	-66.2	3.5	3.02e+01	0	25	0	0	60	78846
2026-01-16 00:10:15.29	155.09	0.32	-48.2	-61.1	3.5	1.52e+00	0	27	104	0	60	39747
2026-01-16 00:10:19.33	155.10	0.57	-48.2	-61.1	3.5	1.52e+00	0	27	104	0	60	39628
2026-01-16 00:10:23.37	155.11	0.82	-47.7	-60.5	3.5	1.52e+00	0	27	104	0	60	37275
2026-01-16 00:10:27.40	155.11	1.07	-45.5	-58.4	3.5	1.52e+00	0	27	104	0	60	29105
2026-01-16 00:10:31.44	155.12	1.32	-45.5	-58.4	3.5	1.52e+00	0	27	104	0	60	29062
2026-01-16 00:10:35.48	155.13	1.57	-45.4	-58.2	3.5	1.52e+00	0	27	104	0	60	28617
2026-01-16 00:10:39.51	155.14	1.83	-45.4	-58.3	3.5	1.52e+00	0	27	104	0	60	28968
2026-01-16 00:10:43.55	155.15	2.09	-45.4	-58.3	3.5	1.52e+00	0	27	104	0	60	28747
2026-01-16 00:10:47.59	155.16	2.35	-45.4	-58.2	3.5	1.52e+00	0	28	104	0	60	28673
2026-01-16 00:10:51.63	155.16	2.61	-45.3	-57.5	3.5	1.52e+00	0	28	104	0	60	26223
2026-01-16 00:10:55.67	155.17	2.88	-45.4	-57.9	3.5	1.52e+00	0	27	104	0	60	27668
2026-01-16 00:10:59.71	155.18	3.15	-44.6	-51.9	6.1	1.38e+00	111	28	104	0	60	13867
2026-01-16 00:11:03.75	155.19	3.42	-43.0	-46.7	10.7	4.76e-03	120	28	0	10485760	60	7600
2026-01-16 00:11:07.79	155.20	3.70	-42.8	-46.4	10.8	1.83e-03	120	28	0	23068672	58	8187
2026-01-16 00:11:11.82	155.20	3.97	-45.3	-58.2	3.5	8.64e-01	0	28	104	34603008	60	28395
2026-01-16 00:11:15.86	155.21	4.25	-43.8	-48.3	8.6	4.68e-02	123	28	0	34603008	60	9140
2026-01-16 00:11:19.89	155.22	4.54	-42.9	-46.5	10.9	5.48e-03	122	28	0	47185920	60	7399
2026-01-16 00:11:23.93	155.23	4.82	-42.1	-45.0	12.5	1.27e-04	123	28	0	59768832	58	6991
2026-01-16 00:11:27.97	155.23	5.11	-41.6	-44.2	13.6	1.60e-05	123	28	0	72351744	56	7179
2026-01-16 00:11:32.01	155.24	5.40	-41.6	-44.0	14.0	7.60e-06	123	28	0	84934656	56	7025
2026-01-16 00:11:36.04	155.25	5.70	-41.4	-43.7	14.3	0.00e+00	120	28	0	97517568	56	6780
2026-01-16 00:11:40.08	155.26	6.00	-40.8	-42.9	15.2	0.00e+00	122	28	0	110100480	56	6184
2026-01-16 00:11:44.11	155.26	6.30	-40.4	-42.3	15.9	0.00e+00	123	28	0	122683392	54	6458
2026-01-16 00:11:48.15	155.27	6.61	-40.2	-42.0	16.2	0.00e+00	123	28	0	135266304	54	6267
2026-01-16 00:11:52.18	155.28	6.92	-39.9	-41.6	16.6	0.00e+00	120	28	0	148897792	52	6700
2026-01-16 00:11:56.21	155.28	7.23	-39.8	-41.6	16.7	0.00e+00	123	28	0	160432128	52	6668
2026-01-16 00:12:00.24	155.29	7.54	-39.6	-41.3	17.1	0.00e+00	122	28	0	174063616	52	6425
2026-01-16 00:12:04.28	155.30	7.87	-39.6	-41.3	17.0	0.00e+00	123	28	0	186646528	52	6455
2026-01-16 00:12:08.31	155.30	8.19	-39.7	-41.4	16.8	0.00e+00	123	28	0	198180864	52	6561
2026-01-16 00:12:12.35	155.31	8.52	-39.9	-41.7	16.6	0.00e+00	122	28	0	211812352	52	6727
2026-01-16 00:12:16.39	155.32	8.86	-39.9	-41.6	16.6	0.00e+00	121	28	0	224395264	52	6694
2026-01-16 00:12:20.43	155.32	9.19	-39.8	-41.6	16.6	0.00e+00	122	28	0	236978176	52	6672
2026-01-16 00:12:24.46	155.33	9.54	-39.9	-41.6	16.7	0.00e+00	122	28	0	249561088	52	6693
2026-01-16 00:12:28.49	155.33	9.88	-39.4	-41.0	17.4	0.00e+00	122	28	0	262144000	52	6227
2026-01-16 00:12:32.53	155.34	10.24	-39.1	-40.6	17.8	0.00e+00	122	28	0	274726912	52	5972
2026-01-16 00:12:36.57	155.34	10.60	-38.5	-39.9	18.6	0.00e+00	123	28	0	287309824	50	6191
2026-01-16 00:12:40.60	155.35	10.96	-38.3	-39.8	18.8	0.00e+00	123	28	0	299892736	50	6082
2026-01-16 00:12:44.64	155.35	11.33	-38.1	-39.5	19.1	0.00e+00	122	28	0	312475648	50	5899
2026-01-16 00:12:48.68	155.36	11.70	-37.9	-39.2	19.4	0.00e+00	123	28	0	325058560	50	5701
2026-01-16 00:12:52.72	155.36	12.08	-37.9	-39.2	19.2	0.00e+00	122	28	0	337641472	50	5721
2026-01-16 00:12:56.76	155.37	12.47	-38.1	-39.4	19.0	0.00e+00	123	28	0	350224384	50	5807
2026-01-16 00:13:00.79	155.37	12.86	-38.0	-39.3	19.1	0.00e+00	120	28	0	362807296	50	5783
2026-01-16 00:13:04.83	155.37	13.26	-37.9	-39.3	19.1	0.00e+00	120	28	0	375390208	50	5742
2026-01-16 00:13:08.86	155.38	13.67	-37.9	-39.2	19.3	0.00e+00	123	28	0	387973120	50	5705
2026-01-16 00:13:12.90	155.38	14.08	-37.9	-39.2	19.5	0.00e+00	123	28	0	400556032	50	5679
2026-01-16 00:13:16.94	155.38	14.50	-37.7	-38.9	19.8	0.00e+00	123	28	0	413138944	48	6173
2026-01-16 00:13:20.97	155.38	14.93	-37.6	-38.8	19.8	0.00e+00	123	28	0	425721856	48	6115
2026-01-16 00:13:25.01	155.39	15.36	-37.6	-38.9	19.7	0.00e+00	123	28	0	438304768	48	6140
2026-01-16 00:13:29.04	155.39	15.80	-37.5	-38.8	19.8	0.00e+00	123	28	0	450887680	48	6099
2026-01-16 00:13:33.08	155.39	16.25	-37.7	-38.9	19.7	0.00e+00	122	28	0	463470592	48	6193
2026-01-16 00:13:37.12	155.39	16.71	-37.6	-38.8	19.7	0.00e+00	123	28	0	476053504	48	6116
2026-01-16 00:13:41.16	155.39	17.18	-37.5	-38.7	19.8	0.00e+00	123	28	0	488636416	48	6039
2026-01-16 00:13:45.19	155.39	17.66	-37.4	-38.6	19.8	0.00e+00	122	28	0	501219328	48	5979
2026-01-16 00:13:49.23	155.39	18.15	-36.9	-38.1	20.2	0.00e+00	122	28	0	513802240	48	5641
2026-01-16 00:13:53.26	155.39	18.64	-35.9	-37.0	21.7	0.00e+00	123	28	0	526385152	46	5547
2026-01-16 00:13:57.30	155.39	19.15	-35.1	-36.0	22.8	0.00e+00	123	28	0	538968064	44	5585
2026-01-16 00:14:01.34	155.39	19.67	-34.3	-35.3	23.5	0.00e+00	123	28	0	551550976	42	5755
2026-01-16 00:14:05.38	155.39	20.20	-33.8	-34.7	24.0	0.00e+00	123	28	0	564133888	42	5377
2026-01-16 00:14:09.42	155.38	20.74	-33.3	-34.2	24.4	0.00e+00	122	28	0	577765376	40	5676
2026-01-16 00:14:13.46	155.38	21.29	-33.3	-34.2	24.5	0.00e+00	123	28	0	589299712	40	5661
2026-01-16 00:14:17.49	155.38	21.85	-32.9	-33.7	24.8	0.00e+00	122	28	0	602931200	38	6046
2026-01-16 00:14:21.53	155.37	22.43	-32.6	-33.5	25.0	0.00e+00	123	28	0	615514112	38	5868
2026-01-16 00:14:25.57	155.37	23.02	-32.3	-33.1	25.2	0.00e+00	122	28	0	628097024	38	5640
2026-01-16 00:14:29.61	155.36	23.62	-32.3	-33.1	25.2	0.00e+00	122	28	0	640679936	38	5621
2026-01-16 00:14:33.65	155.36	24.24	-32.2	-33.1	25.3	0.00e+00	122	28	0	653262848	38	5617
2026-01-16 00:14:37.68	155.35	24.87	-32.1	-32.9	25.3	0.00e+00	122	28	0	665845760	38	5506
2026-01-16 00:14:41.72	155.34	25.52	-32.6	-33.5	25.0	0.00e+00	123	28	0	678428672	38	5860
2026-01-16 00:14:45.75	155.33	26.19	-32.9	-33.8	24.8	0.00e+00	123	28	0	691011584	38	6096
2026-01-16 00:14:49.79	155.32	26.87	-33.6	-34.5	24.3	0.00e+00	120	28	0	703594496	38	6596
2026-01-16 00:14:53.83	155.31	27.57	-34.0	-34.9	24.0	0.00e+00	122	28	0	716177408	40	6202
2026-01-16 00:14:57.86	155.30	28.28	-34.2	-35.2	23.8	0.00e+00	122	28	0	728760320	40	6370
2026-01-16 00:15:01.90	155.28	29.02	-34.0	-35.0	24.0	0.00e+00	123	28	0	741343232	40	6213
2026-01-16 00:15:05.93	155.27	29.78	-33.8	-34.7	24.2	0.00e+00	123	28	0	753926144	40	6043
2026-01-16 00:15:09.97	155.25	30.55	-33.3	-34.2	24.6	0.00e+00	123	28	0	766509056	40	5714
2026-01-16 00:15:14.01	155.23	31.35	-33.1	-34.0	24.9	0.00e+00	122	28	0	779091968	40	5557
2026-01-16 00:15:18.04	155.21	32.17	-33.0	-33.9	24.9	0.00e+00	120	28	0	791674880	40	5504
2026-01-16 00:15:22.08	155.19	33.02	-33.6	-34.5	24.5	0.00e+00	122	28	0	804257792	40	5872
2026-01-16 00:15:26.12	155.17	33.89	-34.1	-35.0	24.1	0.00e+00	122	28	0	816840704	40	6235
2026-01-16 00:15:30.15	155.15	34.78	-35.0	-35.9	23.2	0.00e+00	123	28	0	829423616	42	6196
2026-01-16 00:15:34.18	155.12	35.70	-35.7	-36.7	22.5	0.00e+00	120	28	0	842006528	42	6757
2026-01-16 00:15:38.21	155.09	36.64	-35.9	-36.9	22.6	0.00e+00	122	28	0	854589440	44	6152
2026-01-16 00:15:42.25	155.06	37.62	-35.6	-36.5	22.9	0.00e+00	122	28	0	867172352	44	5907
2026-01-16 00:15:46.28	155.02	38.62	-35.4	-36.3	23.1	0.00e+00	120	28	0	879755264	44	5790
2026-01-16 00:15:50.32	154.98	39.65	-35.1	-36.0	23.2	0.00e+00	121	28	0	892338176	44	5563
2026-01-16 00:15:54.35	154.94	40.72	-35.5	-36.4	22.7	0.00e+00	122	28	0	904921088	44	5855
2026-01-16 00:15:58.38	154.89	41.81	-36.6	-37.7	21.9	0.00e+00	122	28	0	917504000	44	6765
2026-01-16 00:16:02.42	154.84	42.95	-36.5	-37.5	22.2	0.00e+00	122	28	0	930086912	46	5886
2026-01-16 00:16:06.46	154.79	44.11	-36.2	-37.2	22.4	0.00e+00	122	28	0	942669824	46	5685
2026-01-16 00:16:10.49	154.73	45.31	-36.8	-37.9	21.8	0.00e+00	122	28	0	955252736	46	6148
2026-01-16 00:16:14.53	154.66	46.56	-36.5	-37.6	21.9	0.00e+00	123	28	0	967835648	46	5978
2026-01-16 00:16:18.57	154.59	47.83	-35.3	-36.2	23.2	0.00e+00	120	28	0	980418560	44	5704
2026-01-16 00:16:22.60	154.51	49.15	-35.3	-36.3	23.1	0.00e+00	122	28	0	993001472	44	5763
2026-01-16 00:16:26.64	154.42	50.51	-35.5	-36.5	22.9	0.00e+00	122	28	0	1005584384	44	5863
2026-01-16 00:16:30.68	154.32	51.91	-35.2	-36.2	23.2	0.00e+00	123	28	0	1019215872	44	5686
2026-01-16 00:16:34.71	154.21	53.34	-35.1	-36.1	23.2	0.00e+00	122	28	0	1030750208	44	5605
2026-01-16 00:16:38.75	154.08	54.83	-34.1	-35.1	24.1	0.00e+00	122	28	0	1044381696	42	5596
2026-01-16 00:16:42.78	153.94	56.35	-33.5	-34.4	24.6	0.00e+00	123	28	0	1056964608	40	5812
2026-01-16 00:16:46.82	153.79	57.92	-33.4	-34.4	24.5	0.00e+00	120	28	0	1069547520	40	5796
2026-01-16 00:16:50.85	153.61	59.52	-32.9	-33.8	24.9	0.00e+00	122	28	0	1082130432	40	5411
2026-01-16 00:16:54.89	153.40	61.18	-33.1	-33.9	24.8	0.00e+00	123	28	0	1094713344	40	5515
2026-01-16 00:16:58.93	153.17	62.87	-32.4	-33.3	25.1	0.00e+00	122	28	0	1107296256	38	5754
2026-01-16 00:17:02.96	152.89	64.60	-32.0	-32.8	25.4	0.00e+00	122	28	0	1119879168	38	5434
2026-01-16 00:17:07.01	152.57	66.38	-31.6	-32.5	25.7	0.00e+00	122	28	0	1132462080	36	5872
2026-01-16 00:17:11.04	152.18	68.20	-31.9	-32.7	25.4	0.00e+00	122	28	0	1145044992	36	6062
2026-01-16 00:17:15.08	151.72	70.05	-31.7	-32.6	25.8	0.00e+00	122	28	0	1157627904	36	5936
2026-01-16 00:17:19.11	151.14	71.93	-31.7	-32.5	25.8	0.00e+00	122	28	0	1170210816	36	5914
2026-01-16 00:17:23.14	150.43	73.84	-32.2	-33.0	25.1	0.00e+00	122	28	0	1182793728	36	6261
2026-01-16 00:17:27.18	149.50	75.79	-31.9	-32.7	25.5	0.00e+00	123	28	0	1195376640	36	6042
2026-01-16 00:17:31.22	148.26	77.76	-31.8	-32.7	25.3	0.00e+00	122	28	0	1207959552	36	6026
2026-01-16 00:17:35.26	146.51	79.74	-32.3	-33.1	25.5	0.00e+00	123	28	0	1220542464	36	6316
2026-01-16 00:17:39.29	143.92	81.73	-32.6	-33.5	25.2	0.00e+00	121	28	0	1233125376	38	5886
2026-01-16 00:17:43.32	139.66	83.70	-32.5	-33.4	25.0	0.00e+00	123	28	0	1245708288	38	5798
2026-01-16 00:17:47.36	131.51	85.62	-32.9	-33.8	24.8	0.00e+00	123	28	0	1258291200	38	6067
2026-01-16 00:17:51.40	111.85	87.34	-32.8	-33.6	25.1	0.00e+00	120	28	0	1270874112	38	5986
2026-01-16 00:17:55.43	61.19	88.10	-32.2	-33.0	25.5	0.00e+00	122	28	0	1283457024	38	5553
2026-01-16 00:17:59.47	16.91	87.04	-32.5	-33.4	25.1	0.00e+00	120	28	0	1296039936	38	5802
2026-01-16 00:18:03.50	0.69	85.27	-32.7	-33.5	25.1	0.00e+00	122	28	0	1308622848	38	5908
2026-01-16 00:18:07.54	353.59	83.33	-32.6	-33.4	25.3	0.00e+00	122	28	0	1321205760	38	5849
2026-01-16 00:18:11.58	349.74	81.35	-32.2	-33.1	25.4	0.00e+00	123	28	0	1333788672	38	5604
2026-01-16 00:18:15.62	347.34	79.36	-32.6	-33.5	25.2	0.00e+00	121	28	0	1346371584	38	5888
2026-01-16 00:18:19.66	345.72	77.38	-32.3	-33.2	25.4	0.00e+00	122	28	0	1358954496	38	5679
2026-01-16 00:18:23.70	344.55	75.42	-31.6	-32.5	25.8	0.00e+00	122	28	0	1371537408	36	5862
2026-01-16 00:18:27.74	343.67	73.48	-32.9	-33.8	24.7	0.00e+00	123	28	0	1384120320	38	6093
2026-01-16 00:18:31.77	342.98	71.58	-31.6	-32.4	25.7	0.00e+00	123	28	0	1396703232	36	5857
2026-01-16 00:18:35.81	342.43	69.70	-32.6	-33.5	24.9	0.00e+00	123	28	0	1409286144	38	5867
2026-01-16 00:18:39.85	341.99	67.86	-31.4	-32.2	26.1	0.00e+00	123	28	0	1421869056	36	5660
2026-01-16 00:18:43.89	341.62	66.05	-33.7	-34.7	23.5	0.00e+00	122	28	0	1434451968	40	6009
2026-01-16 00:18:47.92	341.30	64.29	-32.0	-32.8	25.6	0.00e+00	123	28	0	1448083456	36	6129
2026-01-16 00:18:51.96	341.04	62.57	-33.8	-34.8	22.0	0.00e+00	120	28	0	1459617792	42	5465
2026-01-16 00:18:56.00	340.81	60.89	-32.5	-33.3	25.2	0.00e+00	122	28	0	1473249280	38	5780
2026-01-16 00:19:00.03	340.61	59.25	-34.8	-35.8	23.3	0.00e+00	120	28	0	1485832192	40	6859
2026-01-16 00:19:04.08	340.43	57.65	-32.5	-33.4	24.3	0.00e+00	122	28	0	1498415104	38	5838
2026-01-16 00:19:08.11	340.28	56.10	-34.9	-35.9	23.4	0.00e+00	122	28	0	1510998016	42	6171
2026-01-16 00:19:12.15	340.15	54.58	-35.4	-36.4	22.8	0.00e+00	120	28	0	1523580928	44	5839
2026-01-16 00:19:16.19	340.02	53.11	-34.8	-35.7	23.3	0.00e+00	123	28	0	1536163840	42	6061
2026-01-16 00:19:20.22	339.92	51.69	-36.3	-37.4	22.1	0.00e+00	123	28	0	1548746752	46	5830
2026-01-16 00:19:24.26	339.82	50.30	-35.9	-37.1	22.1	0.00e+00	123	28	0	1561329664	44	6304
2026-01-16 00:19:28.29	339.73	48.96	-35.6	-36.6	22.7	0.00e+00	122	28	0	1573912576	44	5984
2026-01-16 00:19:32.33	339.66	47.65	-36.0	-37.1	22.3	0.00e+00	120	28	0	1586495488	44	6328
2026-01-16 00:19:36.37	339.58	46.39	-36.5	-37.6	22.1	0.00e+00	120	28	0	1599078400	46	5950
2026-01-16 00:19:40.40	339.52	45.16	-36.9	-38.0	21.7	0.00e+00	123	28	0	1611661312	46	6254
2026-01-16 00:19:44.44	339.46	43.97	-35.5	-36.6	21.7	0.00e+00	123	28	0	1624244224	44	5939
2026-01-16 00:19:48.48	339.41	42.81	-35.8	-36.9	22.4	0.00e+00	122	28	0	1636827136	44	6162
2026-01-16 00:19:52.52	339.36	41.69	-36.6	-37.8	21.8	0.00e+00	123	28	0	1649410048	44	6810
2026-01-16 00:19:56.56	339.32	40.60	-36.4	-37.4	22.0	0.00e+00	122	28	0	1661992960	44	6558
2026-01-16 00:20:00.59	339.28	39.54	-36.1	-37.1	22.4	0.00e+00	122	28	0	1674575872	44	6319
2026-01-16 00:20:04.63	339.24	38.52	-35.5	-36.5	22.9	0.00e+00	122	28	0	1687158784	44	5863
2026-01-16 00:20:08.66	339.21	37.52	-34.9	-35.9	23.2	0.00e+00	121	28	0	1699741696	44	5503
2026-01-16 00:20:12.70	339.17	36.56	-34.9	-35.8	23.4	0.00e+00	122	28	0	1712324608	44	5462
2026-01-16 00:20:16.74	339.15	35.62	-35.1	-36.2	22.5	0.00e+00	120	28	0	1724907520	44	5672
2026-01-16 00:20:20.78	339.12	34.71	-35.4	-36.5	22.3	0.00e+00	123	28	0	1737490432	44	5879
2026-01-16 00:20:24.81	339.10	33.82	-35.0	-36.0	23.3	0.00e+00	123	28	0	1750073344	44	5535
2026-01-16 00:20:28.85	339.08	32.96	-34.1	-35.0	24.1	0.00e+00	122	28	0	1762656256	42	5551
2026-01-16 00:20:32.89	339.06	32.12	-33.6	-34.5	24.5	0.00e+00	123	28	0	1775239168	40	5865
2026-01-16 00:20:36.93	339.04	31.31	-34.0	-34.9	24.1	0.00e+00	122	28	0	1787822080	40	6205
2026-01-16 00:20:40.96	339.02	30.52	-34.4	-35.4	23.8	0.00e+00	120	28	0	1800404992	40	6511
2026-01-16 00:20:45.00	339.01	29.75	-34.4	-35.4	23.6	0.00e+00	120	28	0	1812987904	40	6520
2026-01-16 00:20:49.04	339.00	29.00	-34.2	-35.2	23.6	0.00e+00	120	28	0	1825570816	40	6366
2026-01-16 00:20:53.07	338.98	28.27	-33.6	-34.6	24.0	0.00e+00	123	28	0	1839202304	40	5936
2026-01-16 00:20:57.11	338.97	27.56	-33.4	-34.4	24.1	0.00e+00	123	28	0	1850736640	40	5801
2026-01-16 00:21:01.15	338.96	26.86	-33.3	-34.3	24.4	0.00e+00	122	28	0	1864368128	40	5730
2026-01-16 00:21:05.18	338.96	26.19	-32.8	-33.7	24.9	0.00e+00	122	28	0	1876951040	40	5390
2026-01-16 00:21:09.22	338.95	25.53	-32.8	-33.7	24.9	0.00e+00	122	28	0	1889533952	38	6039
2026-01-16 00:21:13.25	338.94	24.88	-32.6	-33.5	25.1	0.00e+00	122	28	0	1902116864	38	5866
2026-01-16 00:21:17.28	338.94	24.26	-32.7	-33.6	25.1	0.00e+00	122	28	0	1914699776	38	5965
2026-01-16 00:21:21.32	338.93	23.64	-32.9	-33.8	24.9	0.00e+00	122	28	0	1927282688	38	6082
2026-01-16 00:21:25.36	338.93	23.04	-33.3	-34.2	24.6	0.00e+00	120	27	0	1939865600	38	6405
2026-01-16 00:21:29.39	338.93	22.46	-33.6	-34.5	24.4	0.00e+00	122	28	0	1952448512	38	6619
2026-01-16 00:21:33.43	338.92	21.88	-33.4	-34.3	24.5	0.00e+00	120	28	0	1965031424	38	6454
2026-01-16 00:21:37.46	338.92	21.33	-33.7	-34.6	24.4	0.00e+00	123	28	0	1977614336	38	6700
2026-01-16 00:21:41.50	338.92	20.78	-33.3	-34.2	24.5	0.00e+00	122	28	0	1990197248	38	6389
2026-01-16 00:21:45.54	338.92	20.24	-33.4	-34.3	24.4	0.00e+00	122	28	0	2002780160	38	6471
2026-01-16 00:21:49.58	338.92	19.72	-33.6	-34.5	24.2	0.00e+00	123	28	0	2015363072	38	6624
2026-01-16 00:21:53.61	338.92	19.20	-33.7	-34.7	24.1	0.00e+00	122	28	0	2027945984	40	5996
2026-01-16 00:21:57.65	338.92	18.70	-33.7	-34.7	24.0	0.00e+00	123	27	0	2040528896	40	6007
2026-01-16 00:22:01.69	338.92	18.20	-33.8	-34.7	24.0	0.00e+00	120	28	0	2053111808	40	6040
2026-01-16 00:22:05.72	338.93	17.72	-34.0	-34.9	23.7	0.00e+00	123	27	0	2065694720	40	6196
2026-01-16 00:22:09.76	338.93	17.25	-34.1	-35.1	23.7	0.00e+00	123	27	0	2078277632	40	6297
2026-01-16 00:22:13.79	338.93	16.78	-34.1	-35.1	23.7	0.00e+00	122	28	0	2090860544	40	6306
2026-01-16 00:22:17.83	338.94	16.33	-34.2	-35.2	23.6	0.00e+00	121	28	0	2103443456	40	6385
2026-01-16 00:22:21.86	338.94	15.88	-34.2	-35.2	23.6	0.00e+00	123	28	0	2116026368	40	6369
2026-01-16 00:22:25.90	338.95	15.44	-34.1	-35.1	23.7	0.00e+00	123	28	0	2128609280	40	6284
2026-01-16 00:22:29.93	338.95	15.01	-34.2	-35.1	23.5	0.00e+00	123	28	0	2141192192	40	6340
2026-01-16 00:22:33.97	338.95	14.58	-34.3	-35.2	23.5	0.00e+00	122	28	0	2153775104	40	6406
2026-01-16 00:22:38.00	338.96	14.16	-34.3	-35.2	23.5	0.00e+00	122	28	0	2166358016	40	6423
2026-01-16 00:22:42.04	338.97	13.75	-34.4	-35.3	23.3	0.00e+00	122	28	0	2178940928	40	6494
2026-01-16 00:22:46.08	338.97	13.35	-34.3	-35.3	23.4	0.00e+00	122	28	0	2191523840	40	6440
2026-01-16 00:22:50.11	338.98	12.95	-34.6	-35.6	23.2	0.00e+00	122	28	0	2204106752	40	6693
2026-01-16 00:22:54.16	338.99	12.56	-34.5	-35.5	23.3	0.00e+00	120	28	0	2216689664	42	5881
2026-01-16 00:22:58.19	338.99	12.18	-34.3	-35.3	23.4	0.00e+00	123	27	0	2229272576	42	5733
2026-01-16 00:23:02.23	339.00	11.80	-34.4	-35.3	23.3	0.00e+00	123	28	0	2241855488	42	5789
2026-01-16 00:23:06.26	339.01	11.43	-34.5	-35.5	23.2	0.00e+00	122	28	0	2254438400	42	5877
2026-01-16 00:23:10.29	339.01	11.06	-34.5	-35.5	23.1	0.00e+00	120	28	0	2267021312	42	5908
2026-01-16 00:23:14.33	339.02	10.70	-34.6	-35.6	23.0	0.00e+00	123	27	0	2279604224	42	5987
2026-01-16 00:23:18.37	339.03	10.34	-34.9	-35.9	22.7	0.00e+00	122	28	0	2293235712	42	6169
2026-01-16 00:23:22.41	339.04	9.99	-34.8	-35.9	22.7	0.00e+00	123	28	0	2304770048	42	6156
2026-01-16 00:23:26.44	339.05	9.64	-35.0	-36.1	22.6	0.00e+00	117	27	0	2318401536	42	6278
2026-01-16 00:23:30.48	339.06	9.30	-35.1	-36.2	22.5	0.00e+00	123	27	0	2330984448	42	6381
2026-01-16 00:23:34.52	339.07	8.97	-35.4	-36.5	22.2	0.00e+00	123	28	0	2343567360	42	6606
2026-01-16 00:23:38.56	339.07	8.63	-35.4	-36.5	22.2	0.00e+00	123	28	0	2356150272	42	6581
2026-01-16 00:23:42.60	339.08	8.30	-35.5	-36.6	22.0	0.00e+00	120	27	0	2368733184	42	6695
2026-01-16 00:23:46.63	339.09	7.98	-35.7	-36.9	21.7	0.00e+00	123	27	0	2381316096	44	6146
2026-01-16 00:23:50.67	339.10	7.66	-35.9	-37.0	21.6	0.00e+00	122	27	0	2393899008	44	6266
2026-01-16 00:23:54.70	339.11	7.35	-36.0	-37.2	21.4	0.00e+00	122	27	0	2406481920	44	6356
2026-01-16 00:23:58.74	339.12	7.03	-36.2	-37.4	21.1	0.00e+00	123	27	0	2419064832	44	6551
2026-01-16 00:24:02.78	339.13	6.72	-36.4	-37.5	21.0	0.00e+00	123	27	0	2431647744	44	6625
2026-01-16 00:24:06.82	339.14	6.42	-36.6	-37.8	20.8	0.00e+00	123	27	0	2444230656	44	6809
2026-01-16 00:24:10.86	339.15	6.12	-36.4	-37.6	20.8	0.00e+00	122	27	0	2456813568	44	6696
2026-01-16 00:24:14.89	339.17	5.82	-36.8	-38.1	20.3	0.00e+00	120	27	0	2469396480	46	6285
2026-01-16 00:24:18.92	339.18	5.53	-37.4	-38.8	19.4	0.00e+00	122	28	0	2481979392	46	6807
2026-01-16 00:24:22.96	339.19	5.24	-38.5	-40.1	17.7	0.00e+00	122	27	0	2494562304	48	7067
2026-01-16 00:24:27.00	339.20	4.95	-40.0	-42.2	15.1	0.00e+00	122	28	0	2507145216	52	7176
2026-01-16 00:24:31.03	339.21	4.66	-41.3	-44.7	11.6	5.16e-04	123	28	0	2519728128	54	8497
2026-01-16 00:24:35.07	339.22	4.38	-42.5	-48.0	7.2	8.55e-02	120	28	0	2532311040	56	11106
2026-01-16 00:24:39.11	339.23	4.10	-43.0	-52.2	4.4	1.29e+00	123	28	104	2537553920	58	16034
2026-01-16 00:24:43.14	339.24	3.83	-43.2	-53.8	3.5	1.51e+00	0	28	104	2537553920	58	19325
2026-01-16 00:24:47.18	339.26	3.55	-43.2	-55.4	3.5	1.51e+00	0	28	104	2537553920	58	23306
2026-01-16 00:24:51.22	339.27	3.28	-43.1	-56.0	3.5	1.52e+00	0	28	104	2537553920	58	24815
2026-01-16 00:24:55.25	339.28	3.02	-43.3	-56.1	3.5	1.52e+00	0	28	104	2537553920	58	25161
2026-01-16 00:24:59.29	339.29	2.75	-47.9	-60.8	3.5	1.52e+00	0	28	104	2537553920	60	38351
2026-01-16 00:25:03.33	339.30	2.49	-48.2	-61.1	3.5	1.52e+00	0	28	104	2537553920	60	39730
2026-01-16 00:25:07.37	339.32	2.23	-47.7	-60.9	3.5	1.51e+00	0	28	104	2537553920	60	38905
2026-01-16 00:25:11.40	339.33	1.97	-48.1	-60.9	3.5	1.52e+00	0	28	104	2537553920	60	39065
2026-01-16 00:25:15.44	339.34	1.71	-48.1	-61.0	3.5	1.52e+00	0	28	104	2537553920	60	39240
2026-01-16 00:25:19.48	339.35	1.46	-48.1	-61.0	3.5	1.52e+00	0	28	104	2537553920	60	39441
2026-01-16 00:25:23.52	339.37	1.21	-48.1	-60.9	3.5	1.52e+00	0	28	104	2537553920	60	39019
2026-01-16 00:25:27.55	339.38	0.96	-48.1	-60.9	3.5	1.52e+00	0	28	104	2537553920	60	38974
2026-01-16 00:25:31.59	339.39	0.71	-48.1	-61.0	3.5	1.52e+00	0	28	104	2537553920	60	39197
2026-01-16 00:25:35.62	339.41	0.47	-48.1	-61.0	3.5	1.52e+00	0	28	104	2537553920	60	39292
2026-01-16 00:25:39.66	339.42	0.22	-48.1	-60.9	3.5	1.52e+00	0	28	104	2537553920	60	38876

#Closed at: 2026-01-16 00:25:43
#Recorded file [2537 MB]: D:/lorett/data/35029_260116_121011.dat