passes_logs/2026/01/16/R4.6S_Anadyr/R4.6S_Anadyr__20260116_221220_NOAA_21_JPSS-2_rec.log

#Pass ID: 20260116_221220_NOAA 21 (JPSS-2)
#Satellite: NOAA 21 (JPSS-2)
#Configuration: NOAA-21
#almurnet v.1.7.20251203
#Start time: 2026-01-16 22:12:25

#Version: 2.2.20231116
#Station: R4.6S_Anadyr
#Location: 177.4865 lon 64.73178 lat
#TLE: 1 54234U 22150A   26016.56338662  .00000024  00000+0  32257-4 0  9990
#TLE: 2 54234  98.7500 317.4442 0000622 279.9774  80.1332 14.19534942165033

#Time	Az	El	Level	Level2	SNR	BER	BlckErr	Temp	State	Recorded	gain1	gain2
2026-01-16 22:12:25.62	107.60	0.28	-48.3	-50.0	5.7	0.00e+00	0	27	0	0	60	38562
2026-01-16 22:12:29.53	107.41	0.50	-48.1	-61.0	3.5	1.52e+00	0	28	104	0	60	39505
2026-01-16 22:12:33.44	107.22	0.72	-48.0	-61.0	3.5	1.52e+00	0	28	104	0	60	39330
2026-01-16 22:12:37.36	107.02	0.95	-47.5	-60.4	3.5	1.52e+00	0	28	104	0	60	36712
2026-01-16 22:12:41.26	106.82	1.17	-45.3	-59.0	3.5	1.52e+00	0	28	104	0	60	31102
2026-01-16 22:12:45.17	106.62	1.40	-45.4	-59.1	3.5	1.51e+00	0	28	104	0	60	31654
2026-01-16 22:12:49.07	106.42	1.62	-45.5	-59.0	3.5	1.52e+00	0	28	104	0	60	31415
2026-01-16 22:12:52.98	106.21	1.85	-45.7	-59.0	3.5	1.52e+00	0	28	104	0	60	31405
2026-01-16 22:12:56.89	106.00	2.08	-45.5	-58.7	3.5	1.52e+00	0	29	104	0	60	30145
2026-01-16 22:13:00.80	105.79	2.32	-45.4	-58.7	3.5	1.52e+00	0	29	104	0	60	30221
2026-01-16 22:13:04.70	105.57	2.55	-45.4	-58.9	3.5	1.52e+00	0	29	104	0	60	31037
2026-01-16 22:13:08.61	105.35	2.78	-45.5	-58.6	3.5	1.52e+00	0	29	104	0	60	29737
2026-01-16 22:13:12.53	105.13	3.02	-45.4	-58.0	3.5	1.52e+00	0	29	104	0	60	27832
2026-01-16 22:13:16.45	104.90	3.26	-42.8	-46.4	11.9	8.12e-04	0	29	0	6291456	60	7300
2026-01-16 22:13:20.35	104.66	3.50	-40.3	-42.2	15.4	0.00e+00	0	29	0	17825792	52	7153
2026-01-16 22:13:24.26	104.43	3.74	-37.9	-39.5	19.1	0.00e+00	0	29	0	24117248	50	5884
2026-01-16 22:13:28.17	104.19	3.98	-38.7	-40.2	18.3	0.00e+00	0	29	0	29360128	50	6393
2026-01-16 22:13:32.08	103.94	4.23	-37.9	-39.2	19.3	0.00e+00	0	29	0	41943040	48	6411
2026-01-16 22:13:35.98	103.69	4.47	-37.2	-38.5	19.9	0.00e+00	0	29	0	53477376	48	5891
2026-01-16 22:13:39.88	103.44	4.72	-37.2	-38.5	20.1	0.00e+00	0	29	0	66060288	48	5866
2026-01-16 22:13:43.79	103.18	4.97	-36.8	-38.0	20.6	0.00e+00	0	29	0	78643200	46	6244
2026-01-16 22:13:47.70	102.92	5.22	-36.8	-38.0	20.6	0.00e+00	0	29	0	90177536	46	6255
2026-01-16 22:13:51.61	102.65	5.48	-36.7	-37.9	20.8	0.00e+00	0	29	0	102760448	46	6159
2026-01-16 22:13:55.53	102.38	5.73	-37.0	-38.2	20.4	0.00e+00	0	29	0	115343360	46	6416
2026-01-16 22:13:59.42	102.10	5.99	-36.3	-37.7	21.0	0.00e+00	0	29	0	126877696	46	6018
2026-01-16 22:14:03.33	101.82	6.25	-36.0	-37.4	21.4	0.00e+00	0	29	0	139460608	46	5827
2026-01-16 22:14:07.25	101.53	6.51	-36.2	-37.4	21.2	0.00e+00	0	29	0	152043520	46	5838
2026-01-16 22:14:11.16	101.23	6.77	-36.3	-37.5	21.2	0.00e+00	0	29	0	163577856	46	5891
2026-01-16 22:14:15.07	100.93	7.04	-36.5	-37.6	21.1	0.00e+00	0	29	0	176160768	46	5955
2026-01-16 22:14:18.97	100.63	7.30	-36.3	-37.4	21.6	0.00e+00	0	29	0	187695104	46	5804
2026-01-16 22:14:22.88	100.32	7.57	-36.2	-37.3	21.5	0.00e+00	0	29	0	200278016	46	5765
2026-01-16 22:14:26.79	100.00	7.84	-36.0	-37.0	21.8	0.00e+00	0	29	0	212860928	46	5576
2026-01-16 22:14:30.70	99.68	8.12	-35.7	-36.8	22.0	0.00e+00	0	29	0	224395264	44	6086
2026-01-16 22:14:34.61	99.35	8.39	-35.8	-36.8	22.0	0.00e+00	0	29	0	236978176	44	6092
2026-01-16 22:14:38.52	99.01	8.67	-35.8	-36.9	21.9	0.00e+00	0	29	0	249561088	44	6151
2026-01-16 22:14:42.43	98.67	8.95	-35.7	-36.8	22.0	0.00e+00	0	29	0	261095424	44	6126
2026-01-16 22:14:46.34	98.32	9.23	-35.4	-36.5	22.4	0.00e+00	0	29	0	273678336	44	5876
2026-01-16 22:14:50.25	97.97	9.51	-35.4	-36.5	22.3	0.00e+00	0	29	0	286261248	44	5904
2026-01-16 22:14:54.16	97.60	9.80	-35.6	-36.6	22.3	0.00e+00	0	29	0	297795584	44	5959
2026-01-16 22:14:58.07	97.23	10.08	-35.3	-36.3	22.5	0.00e+00	0	29	0	310378496	44	5770
2026-01-16 22:15:01.98	96.85	10.37	-34.8	-35.8	23.0	0.00e+00	0	29	0	322961408	42	6079
2026-01-16 22:15:05.89	96.47	10.67	-35.0	-35.9	22.9	0.00e+00	0	29	0	334495744	42	6191
2026-01-16 22:15:09.80	96.07	10.96	-34.7	-35.6	23.1	0.00e+00	0	29	0	347078656	42	5978
2026-01-16 22:15:13.71	95.67	11.26	-34.4	-35.3	23.3	0.00e+00	0	29	0	359661568	42	5787
2026-01-16 22:15:17.62	95.26	11.56	-34.1	-35.1	23.6	0.00e+00	0	29	0	371195904	42	5616
2026-01-16 22:15:21.52	94.84	11.86	-34.1	-35.1	23.5	0.00e+00	0	29	0	383778816	42	5624
2026-01-16 22:15:25.44	94.41	12.16	-34.2	-35.1	23.6	0.00e+00	0	28	0	396361728	42	5643
2026-01-16 22:15:29.34	93.97	12.46	-34.0	-34.9	23.8	0.00e+00	0	29	0	407896064	42	5497
2026-01-16 22:15:33.25	93.52	12.77	-33.9	-34.8	23.9	0.00e+00	0	28	0	420478976	42	5463
2026-01-16 22:15:37.16	93.07	13.08	-33.8	-34.7	24.0	0.00e+00	0	29	0	433061888	42	5369
2026-01-16 22:15:41.06	92.60	13.39	-33.7	-34.6	24.0	0.00e+00	0	29	0	444596224	40	5989
2026-01-16 22:15:44.97	92.12	13.70	-34.0	-35.0	23.8	0.00e+00	0	29	0	457179136	40	6246
2026-01-16 22:15:48.88	91.64	14.02	-34.0	-34.9	23.9	0.00e+00	0	29	0	468713472	40	6190
2026-01-16 22:15:52.79	91.14	14.34	-33.9	-34.9	23.9	0.00e+00	0	28	0	481296384	40	6151
2026-01-16 22:15:56.70	90.63	14.66	-34.0	-34.9	23.8	0.00e+00	0	29	0	493879296	40	6172
2026-01-16 22:16:00.62	90.11	14.98	-34.1	-35.0	23.8	0.00e+00	0	28	0	505413632	40	6271
2026-01-16 22:16:04.53	89.58	15.30	-33.9	-34.8	23.9	0.00e+00	0	29	0	517996544	40	6111
2026-01-16 22:16:08.44	89.03	15.63	-34.1	-35.1	23.7	0.00e+00	0	28	0	530579456	40	6294
2026-01-16 22:16:12.35	88.48	15.95	-34.3	-35.2	23.8	0.00e+00	0	28	0	542113792	40	6410
2026-01-16 22:16:16.26	87.91	16.28	-34.3	-35.3	23.7	0.00e+00	0	29	0	554696704	40	6429
2026-01-16 22:16:20.17	87.33	16.61	-34.2	-35.2	23.7	0.00e+00	0	29	0	567279616	40	6352
2026-01-16 22:16:24.07	86.73	16.94	-34.2	-35.2	23.7	0.00e+00	0	29	0	578813952	40	6353
2026-01-16 22:16:27.97	86.13	17.27	-34.4	-35.3	23.6	0.00e+00	0	29	0	591396864	40	6492
2026-01-16 22:16:31.88	85.51	17.60	-34.3	-35.2	23.8	0.00e+00	0	28	0	603979776	40	6407
2026-01-16 22:16:35.79	84.87	17.94	-34.1	-35.0	23.8	0.00e+00	0	29	0	615514112	40	6271
2026-01-16 22:16:39.70	84.22	18.27	-34.1	-35.0	23.9	0.00e+00	0	29	0	628097024	40	6241
2026-01-16 22:16:43.61	83.56	18.61	-34.0	-34.9	24.1	0.00e+00	0	28	0	640679936	40	6184
2026-01-16 22:16:47.52	82.88	18.94	-33.9	-34.8	24.1	0.00e+00	0	28	0	652214272	40	6116
2026-01-16 22:16:51.43	82.18	19.28	-33.8	-34.7	24.1	0.00e+00	0	28	0	664797184	40	6033
2026-01-16 22:16:55.34	81.47	19.62	-33.8	-34.7	24.2	0.00e+00	0	28	0	677380096	40	6047
2026-01-16 22:16:59.25	80.74	19.95	-33.6	-34.5	24.3	0.00e+00	0	28	0	688914432	40	5867
2026-01-16 22:17:03.16	80.00	20.29	-33.7	-34.6	24.3	0.00e+00	0	28	0	701497344	40	5983
2026-01-16 22:17:07.07	79.24	20.62	-34.1	-35.1	24.1	0.00e+00	0	28	0	713031680	40	6292
2026-01-16 22:17:10.97	78.47	20.95	-33.2	-34.1	24.7	0.00e+00	0	28	0	725614592	40	5613
2026-01-16 22:17:14.89	77.67	21.29	-33.1	-34.0	24.7	0.00e+00	0	28	0	738197504	40	5577
2026-01-16 22:17:18.80	76.86	21.62	-33.4	-34.3	24.7	0.00e+00	0	28	0	749731840	40	5767
2026-01-16 22:17:22.70	76.04	21.94	-33.3	-34.2	24.8	0.00e+00	0	28	0	762314752	40	5700
2026-01-16 22:17:26.61	75.19	22.27	-33.3	-34.2	24.6	0.00e+00	0	28	0	774897664	40	5690
2026-01-16 22:17:30.52	74.33	22.59	-33.2	-34.1	24.8	0.00e+00	0	28	0	786432000	40	5603
2026-01-16 22:17:34.43	73.45	22.91	-33.3	-34.2	24.7	0.00e+00	0	28	0	799014912	40	5705
2026-01-16 22:17:38.34	72.55	23.23	-33.9	-34.8	24.1	0.00e+00	0	28	0	811597824	40	6127
2026-01-16 22:17:42.26	71.62	23.54	-33.6	-34.5	24.5	0.00e+00	0	28	0	823132160	40	5900
2026-01-16 22:17:46.16	70.69	23.85	-33.9	-34.8	24.4	0.00e+00	0	28	0	835715072	40	6115
2026-01-16 22:17:50.08	69.73	24.16	-33.7	-34.6	24.5	0.00e+00	0	28	0	848297984	40	5935
2026-01-16 22:17:53.99	68.76	24.45	-33.6	-34.5	24.5	0.00e+00	0	28	0	859832320	40	5914
2026-01-16 22:17:57.89	67.77	24.75	-33.7	-34.6	24.4	0.00e+00	0	28	0	872415232	40	5980
2026-01-16 22:18:01.80	66.76	25.03	-33.8	-34.8	24.3	0.00e+00	0	28	0	884998144	40	6067
2026-01-16 22:18:05.71	65.73	25.31	-34.1	-35.0	24.3	0.00e+00	0	28	0	896532480	40	6232
2026-01-16 22:18:09.63	64.68	25.58	-34.1	-35.0	24.3	0.00e+00	0	28	0	909115392	40	6241
2026-01-16 22:18:13.53	63.61	25.84	-33.8	-34.7	24.4	0.00e+00	0	28	0	920649728	40	6037
2026-01-16 22:18:17.44	62.53	26.10	-33.8	-34.7	24.4	0.00e+00	0	28	0	933232640	40	5997
2026-01-16 22:18:21.35	61.43	26.34	-33.8	-34.7	24.2	0.00e+00	0	28	0	945815552	40	6019
2026-01-16 22:18:25.26	60.31	26.58	-34.0	-34.9	24.4	0.00e+00	0	28	0	957349888	40	6139
2026-01-16 22:18:29.18	59.17	26.81	-33.7	-34.5	24.5	0.00e+00	0	28	0	969932800	40	5919
2026-01-16 22:18:33.08	58.03	27.02	-33.7	-34.6	24.5	0.00e+00	0	28	0	982515712	40	5931
2026-01-16 22:18:36.99	56.86	27.22	-33.3	-34.2	24.8	0.00e+00	0	28	0	995098624	40	5678
2026-01-16 22:18:40.90	55.68	27.41	-33.9	-34.8	24.3	0.00e+00	0	28	0	1006632960	40	6075
2026-01-16 22:18:44.81	54.49	27.59	-33.8	-34.7	24.4	0.00e+00	0	28	0	1019215872	40	6035
2026-01-16 22:18:48.72	53.28	27.76	-33.6	-34.4	24.6	0.00e+00	0	28	0	1030750208	40	5845
2026-01-16 22:18:52.62	52.07	27.91	-33.6	-34.5	24.6	0.00e+00	0	28	0	1043333120	40	5901
2026-01-16 22:18:56.53	50.84	28.05	-33.2	-34.1	24.7	0.00e+00	0	28	0	1055916032	40	5608
2026-01-16 22:19:00.43	49.60	28.18	-33.6	-34.5	24.5	0.00e+00	0	28	0	1067450368	40	5899
2026-01-16 22:19:04.35	48.35	28.29	-33.7	-34.6	24.4	0.00e+00	0	28	0	1080033280	40	5961
2026-01-16 22:19:08.26	47.09	28.38	-34.0	-34.9	24.2	0.00e+00	0	28	0	1092616192	40	6200
2026-01-16 22:19:12.17	45.83	28.46	-34.0	-34.9	24.4	0.00e+00	0	28	0	1104150528	40	6153
2026-01-16 22:19:16.07	44.57	28.53	-33.2	-34.0	24.9	0.00e+00	0	28	0	1116733440	40	5591
2026-01-16 22:19:19.97	43.29	28.58	-33.6	-34.5	24.5	0.00e+00	0	28	0	1129316352	40	5877
2026-01-16 22:19:23.88	42.02	28.61	-33.8	-34.8	24.4	0.00e+00	0	28	0	1140850688	40	6073
2026-01-16 22:19:27.79	40.74	28.63	-33.6	-34.5	24.4	0.00e+00	0	28	0	1153433600	40	5867
2026-01-16 22:19:31.71	39.46	28.63	-34.4	-35.3	24.1	0.00e+00	0	28	0	1166016512	40	6462
2026-01-16 22:19:35.62	38.18	28.62	-33.5	-34.4	24.6	0.00e+00	0	28	0	1177550848	40	5815
2026-01-16 22:19:39.53	36.90	28.58	-33.6	-34.4	24.5	0.00e+00	0	28	0	1190133760	40	5854
2026-01-16 22:19:43.43	35.63	28.54	-33.4	-34.2	24.6	0.00e+00	0	28	0	1201668096	40	5720
2026-01-16 22:19:47.35	34.36	28.48	-33.4	-34.2	24.6	0.00e+00	0	28	0	1214251008	40	5721
2026-01-16 22:19:51.25	33.10	28.40	-33.3	-34.2	24.6	0.00e+00	0	28	0	1226833920	40	5680
2026-01-16 22:19:55.17	31.84	28.31	-33.7	-34.6	24.3	0.00e+00	0	28	0	1238368256	40	5962
2026-01-16 22:19:59.08	30.59	28.20	-33.7	-34.6	24.5	0.00e+00	0	28	0	1250951168	40	5951
2026-01-16 22:20:02.99	29.35	28.08	-33.6	-34.5	24.7	0.00e+00	0	28	0	1263534080	40	5867
2026-01-16 22:20:06.90	28.12	27.94	-33.8	-34.7	24.4	0.00e+00	0	28	0	1275068416	40	6025
2026-01-16 22:20:10.80	26.90	27.79	-33.8	-34.7	24.4	0.00e+00	0	28	0	1287651328	40	6062
2026-01-16 22:20:14.71	25.69	27.63	-33.7	-34.6	24.4	0.00e+00	0	28	0	1300234240	40	5928
2026-01-16 22:20:18.62	24.50	27.45	-33.7	-34.7	24.3	0.00e+00	0	28	0	1311768576	40	6000
2026-01-16 22:20:22.52	23.32	27.27	-33.6	-34.5	24.4	0.00e+00	0	28	0	1324351488	40	5912
2026-01-16 22:20:26.43	22.16	27.07	-34.1	-35.0	24.1	0.00e+00	0	28	0	1336934400	40	6255
2026-01-16 22:20:30.34	21.00	26.85	-34.0	-34.9	24.2	0.00e+00	0	28	0	1348468736	40	6170
2026-01-16 22:20:34.25	19.87	26.63	-34.0	-34.9	24.2	0.00e+00	0	28	0	1361051648	40	6198
2026-01-16 22:20:38.16	18.75	26.40	-33.3	-34.2	24.6	0.00e+00	0	28	0	1373634560	40	5678
2026-01-16 22:20:42.07	17.65	26.15	-33.2	-34.1	24.8	0.00e+00	0	28	0	1385168896	40	5623
2026-01-16 22:20:45.98	16.56	25.90	-34.0	-34.9	24.2	0.00e+00	0	28	0	1397751808	40	6204
2026-01-16 22:20:49.88	15.50	25.64	-33.1	-34.0	24.8	0.00e+00	0	28	0	1409286144	40	5557
2026-01-16 22:20:53.79	14.45	25.37	-33.5	-34.4	24.6	0.00e+00	0	28	0	1421869056	40	5832
2026-01-16 22:20:57.69	13.42	25.10	-33.4	-34.3	24.6	0.00e+00	0	28	0	1434451968	40	5767
2026-01-16 22:21:01.61	12.41	24.81	-33.2	-34.1	24.8	0.00e+00	0	28	0	1445986304	40	5607
2026-01-16 22:21:05.51	11.42	24.52	-33.5	-34.4	24.3	0.00e+00	0	28	0	1458569216	40	5849
2026-01-16 22:21:09.42	10.44	24.23	-32.9	-33.8	25.0	0.00e+00	0	28	0	1471152128	40	5424
2026-01-16 22:21:13.33	9.48	23.93	-33.1	-34.0	24.8	0.00e+00	0	28	0	1482686464	40	5579
2026-01-16 22:21:17.24	8.55	23.62	-33.0	-33.9	24.6	0.00e+00	0	28	0	1495269376	40	5522
2026-01-16 22:21:21.14	7.63	23.31	-32.9	-33.7	24.8	0.00e+00	0	28	0	1507852288	38	6063
2026-01-16 22:21:25.05	6.73	23.00	-33.2	-34.1	24.6	0.00e+00	0	28	0	1519386624	38	6308
2026-01-16 22:21:28.96	5.84	22.68	-33.1	-33.9	24.7	0.00e+00	0	28	0	1531969536	38	6201
2026-01-16 22:21:32.87	4.98	22.36	-33.4	-34.3	24.6	0.00e+00	0	28	0	1544552448	38	6432
2026-01-16 22:21:36.78	4.13	22.03	-33.3	-34.1	24.7	0.00e+00	0	28	0	1556086784	38	6349
2026-01-16 22:21:40.68	3.30	21.70	-33.2	-34.1	24.7	0.00e+00	0	28	0	1568669696	38	6282
2026-01-16 22:21:44.58	2.49	21.38	-33.7	-34.6	24.4	0.00e+00	0	28	0	1580204032	38	6720
2026-01-16 22:21:48.49	1.70	21.05	-33.9	-34.8	24.2	0.00e+00	0	28	0	1592786944	40	6125
2026-01-16 22:21:52.40	0.92	20.71	-33.6	-34.5	24.4	0.00e+00	0	28	0	1605369856	40	5902
2026-01-16 22:21:56.31	0.16	20.38	-34.0	-34.9	24.1	0.00e+00	0	28	0	1616904192	40	6199
2026-01-16 22:22:00.21	359.42	20.05	-33.5	-34.4	24.4	0.00e+00	0	28	0	1629487104	40	5810
2026-01-16 22:22:04.12	358.69	19.71	-33.5	-34.4	24.4	0.00e+00	0	28	0	1642070016	40	5801
2026-01-16 22:22:08.03	357.98	19.38	-33.2	-34.1	24.6	0.00e+00	0	28	0	1653604352	40	5631
2026-01-16 22:22:11.94	357.29	19.04	-33.5	-34.4	24.4	0.00e+00	0	28	0	1666187264	40	5832
2026-01-16 22:22:15.85	356.61	18.71	-33.7	-34.6	24.2	0.00e+00	0	28	0	1678770176	40	5953
2026-01-16 22:22:19.75	355.94	18.37	-33.6	-34.5	24.2	0.00e+00	0	28	0	1690304512	40	5883
2026-01-16 22:22:23.66	355.29	18.04	-34.1	-35.0	23.9	0.00e+00	0	28	0	1702887424	40	6238
2026-01-16 22:22:27.57	354.66	17.71	-34.1	-35.1	23.9	0.00e+00	0	28	0	1715470336	40	6286
2026-01-16 22:22:31.48	354.04	17.38	-34.3	-35.2	23.7	0.00e+00	0	28	0	1727004672	40	6391
2026-01-16 22:22:35.40	353.43	17.04	-33.7	-34.6	24.2	0.00e+00	0	28	0	1739587584	40	5937
2026-01-16 22:22:39.30	352.83	16.71	-34.1	-35.0	24.0	0.00e+00	0	28	0	1752170496	40	6230
2026-01-16 22:22:43.21	352.25	16.39	-34.4	-35.3	23.7	0.00e+00	0	28	0	1763704832	40	6476
2026-01-16 22:22:47.11	351.68	16.06	-34.1	-35.0	23.9	0.00e+00	0	28	0	1776287744	40	6231
2026-01-16 22:22:51.02	351.13	15.73	-33.8	-34.7	24.2	0.00e+00	0	28	0	1787822080	40	6045
2026-01-16 22:22:54.92	350.59	15.41	-34.2	-35.1	23.9	0.00e+00	0	28	0	1800404992	40	6321
2026-01-16 22:22:58.83	350.05	15.09	-34.7	-35.7	23.4	0.00e+00	0	28	0	1812987904	40	6758
2026-01-16 22:23:02.74	349.53	14.77	-34.3	-35.2	23.7	0.00e+00	0	28	0	1825570816	40	6387
2026-01-16 22:23:06.65	349.02	14.45	-33.8	-34.7	24.1	0.00e+00	0	28	0	1837105152	40	6024
2026-01-16 22:23:10.55	348.53	14.13	-33.9	-34.8	24.0	0.00e+00	0	28	0	1849688064	40	6103
2026-01-16 22:23:14.45	348.04	13.82	-34.2	-35.1	23.7	0.00e+00	0	29	0	1861222400	40	6314
2026-01-16 22:23:18.36	347.56	13.51	-34.7	-35.7	23.3	0.00e+00	0	28	0	1873805312	40	6736
2026-01-16 22:23:22.26	347.10	13.20	-34.5	-35.4	23.4	0.00e+00	0	29	0	1886388224	42	5843
2026-01-16 22:23:26.17	346.64	12.89	-33.9	-34.8	23.9	0.00e+00	0	29	0	1897922560	42	5444
2026-01-16 22:23:30.08	346.20	12.58	-34.2	-35.1	23.8	0.00e+00	0	29	0	1910505472	42	5642
2026-01-16 22:23:34.00	345.76	12.27	-34.8	-35.8	23.2	0.00e+00	0	29	0	1923088384	42	6066
2026-01-16 22:23:37.91	345.33	11.97	-35.5	-36.5	22.5	0.00e+00	0	29	0	1934622720	42	6626
2026-01-16 22:23:41.83	344.91	11.67	-35.6	-36.6	22.4	0.00e+00	0	29	0	1947205632	42	6722
2026-01-16 22:23:45.74	344.50	11.37	-35.1	-36.1	22.8	0.00e+00	0	29	0	1959788544	42	6323
2026-01-16 22:23:49.65	344.10	11.08	-35.0	-35.9	23.0	0.00e+00	0	29	0	1971322880	42	6187
2026-01-16 22:23:53.55	343.70	10.78	-35.4	-36.4	22.6	0.00e+00	0	29	0	1983905792	42	6513
2026-01-16 22:23:57.45	343.32	10.49	-35.8	-36.8	22.2	0.00e+00	0	29	0	1996488704	44	6121
2026-01-16 22:24:01.37	342.94	10.20	-36.1	-37.1	22.0	0.00e+00	0	29	0	2008023040	44	6337
2026-01-16 22:24:05.27	342.57	9.92	-36.3	-37.4	21.7	0.00e+00	0	29	0	2020605952	44	6508
2026-01-16 22:24:09.19	342.21	9.63	-35.9	-37.0	22.0	0.00e+00	0	29	0	2033188864	44	6227
2026-01-16 22:24:13.09	341.85	9.35	-35.7	-36.7	22.2	0.00e+00	0	29	0	2044723200	44	6032
2026-01-16 22:24:17.00	341.50	9.07	-35.8	-36.8	22.2	0.00e+00	0	29	0	2057306112	44	6102
2026-01-16 22:24:20.90	341.16	8.79	-36.1	-37.2	21.8	0.00e+00	0	29	0	2068840448	44	6351
2026-01-16 22:24:24.82	340.83	8.51	-36.4	-37.5	21.4	0.00e+00	0	29	0	2081423360	44	6583
2026-01-16 22:24:28.73	340.50	8.23	-36.6	-37.7	21.3	0.00e+00	0	29	0	2094006272	44	6759
2026-01-16 22:24:32.64	340.18	7.96	-37.0	-38.2	20.9	0.00e+00	0	29	0	2105540608	46	6362
2026-01-16 22:24:36.56	339.86	7.69	-36.6	-37.7	21.2	0.00e+00	0	29	0	2118123520	46	6031
2026-01-16 22:24:40.47	339.55	7.42	-36.9	-38.0	21.0	0.00e+00	0	29	0	2130706432	46	6275
2026-01-16 22:24:44.38	339.25	7.15	-36.5	-37.6	21.2	0.00e+00	0	29	0	2142240768	46	5973
2026-01-16 22:24:48.29	338.95	6.89	-37.0	-38.2	20.8	0.00e+00	0	29	0	2154823680	46	6359
2026-01-16 22:24:52.20	338.66	6.63	-36.6	-37.7	21.1	0.00e+00	0	29	0	2167406592	46	5995
2026-01-16 22:24:56.11	338.37	6.37	-36.5	-37.6	21.1	0.00e+00	0	29	0	2178940928	46	5965
2026-01-16 22:25:00.01	338.09	6.11	-36.5	-37.7	21.0	0.00e+00	0	29	0	2191523840	46	6005
2026-01-16 22:25:03.91	337.81	5.85	-37.0	-38.2	20.4	0.00e+00	0	29	0	2204106752	46	6368
2026-01-16 22:25:07.82	337.54	5.60	-37.7	-39.0	19.2	0.00e+00	0	29	0	2215641088	46	7014
2026-01-16 22:25:11.74	337.27	5.34	-38.7	-40.3	17.4	0.00e+00	0	30	0	2228224000	48	7214
2026-01-16 22:25:15.65	337.01	5.09	-40.1	-42.3	14.5	0.00e+00	0	30	0	2240806912	52	7231
2026-01-16 22:25:19.56	336.76	4.84	-41.5	-45.0	10.8	1.81e-03	0	30	0	2252341248	54	8821
2026-01-16 22:25:23.47	336.50	4.59	-42.6	-48.0	6.9	1.30e-01	0	30	0	2264924160	56	11137
2026-01-16 22:25:27.38	336.26	4.35	-43.0	-52.7	3.6	1.45e+00	0	30	104	2267021312	58	17048
2026-01-16 22:25:31.29	336.01	4.10	-43.2	-55.8	3.5	1.52e+00	0	30	104	2267021312	58	24337
2026-01-16 22:25:35.19	335.77	3.86	-43.3	-55.3	3.5	1.52e+00	0	30	104	2267021312	58	22899
2026-01-16 22:25:39.10	335.54	3.62	-43.2	-55.9	3.5	1.52e+00	0	30	104	2267021312	58	24535
2026-01-16 22:25:43.01	335.31	3.38	-43.1	-55.8	3.5	1.52e+00	0	30	104	2267021312	58	24386
2026-01-16 22:25:46.92	335.08	3.14	-43.1	-55.8	3.5	1.52e+00	0	30	104	2267021312	58	24233
2026-01-16 22:25:50.83	334.86	2.90	-47.5	-60.3	3.5	1.52e+00	0	30	104	2267021312	60	36514
2026-01-16 22:25:54.73	334.64	2.67	-48.2	-61.0	3.5	1.51e+00	0	30	104	2267021312	60	39576
2026-01-16 22:25:58.64	334.42	2.44	-48.2	-61.2	3.5	1.52e+00	0	30	104	2267021312	60	40173
2026-01-16 22:26:02.55	334.21	2.20	-48.2	-61.1	3.5	1.52e+00	0	30	104	2267021312	60	39842
2026-01-16 22:26:06.46	334.00	1.97	-48.2	-61.1	3.5	1.52e+00	0	30	104	2267021312	60	39705
2026-01-16 22:26:10.37	333.80	1.75	-48.1	-61.0	3.5	1.52e+00	0	30	104	2267021312	60	39193
2026-01-16 22:26:14.28	333.60	1.52	-48.2	-61.0	3.5	1.52e+00	0	30	104	2267021312	60	39450
2026-01-16 22:26:18.19	333.40	1.29	-48.2	-61.1	3.5	1.52e+00	0	30	104	2267021312	60	39809
2026-01-16 22:26:22.11	333.20	1.07	-48.1	-61.0	3.5	1.52e+00	0	30	104	2267021312	60	39487
2026-01-16 22:26:26.02	333.01	0.84	-48.2	-61.0	3.5	1.52e+00	0	30	104	2267021312	60	39409
2026-01-16 22:26:29.93	332.82	0.62	-48.5	-61.3	3.5	1.52e+00	0	30	104	2267021312	60	40834
2026-01-16 22:26:33.84	332.64	0.40	-48.3	-61.1	3.5	1.51e+00	0	30	104	2267021312	60	39902
2026-01-16 22:26:37.74	332.45	0.18	-48.2	-61.1	3.5	1.52e+00	0	30	104	2267021312	60	39668
2026-01-16 22:26:41.66	332.27	-0.04	-48.2	-61.1	3.5	1.52e+00	0	30	104	2267021312	60	39621

#Closed at: 2026-01-16 22:26:43
#Recorded file [2267 MB]: D:/lorett/data/35029_260117_101225.dat