passes_logs/2026/01/16/R4.6S_Anadyr/R4.6S_Anadyr__20260116_050226_FENGYUN_3D_rec.log

#Pass ID: 20260116_050226_FENGYUN 3D
#Satellite: FENGYUN 3D
#Configuration: FENGYUN 3D
#almurnet v.1.7.20251203
#Start time: 2026-01-16 05:02:27

#Version: 2.2.20231116
#Station: R4.6S_Anadyr
#Location: 177.4865 lon 64.73178 lat
#TLE: 1 43010U 17072A   26014.65117763 -.00000217  00000+0 -80772-4 0  9993
#TLE: 2 43010  98.9933 346.4618 0002330 108.4699 251.6730 14.19694700423204

#Time	Az	El	Level	Level2	SNR	BER	BlckErr	Temp	State	Recorded	gain1	gain2
2026-01-16 05:02:27.79	230.30	0.05	-48.6	-66.3	3.5	3.04e+01	0	26	0	0	60	79478
2026-01-16 05:02:30.82	230.56	0.18	-48.6	-60.8	3.6	8.46e-01	0	27	104	0	60	39432
2026-01-16 05:02:33.85	230.82	0.32	-48.0	-60.2	3.6	8.45e-01	0	27	104	0	60	36980
2026-01-16 05:02:36.88	231.09	0.46	-48.0	-60.2	3.6	8.45e-01	0	27	104	0	60	36789
2026-01-16 05:02:39.91	231.35	0.59	-47.3	-60.2	3.6	8.44e-01	0	27	104	0	60	36833
2026-01-16 05:02:42.93	231.62	0.73	-48.0	-60.1	3.6	8.46e-01	0	27	104	0	60	36674
2026-01-16 05:02:45.96	231.89	0.87	-47.3	-59.4	3.6	8.44e-01	0	27	104	0	60	33694
2026-01-16 05:02:48.99	232.16	1.01	-45.5	-57.5	3.6	8.44e-01	0	27	104	0	60	27222
2026-01-16 05:02:52.02	232.44	1.14	-45.5	-57.6	3.6	8.45e-01	0	27	104	0	60	27367
2026-01-16 05:02:55.05	232.72	1.28	-45.5	-57.5	3.6	8.45e-01	0	28	104	0	60	26976
2026-01-16 05:02:58.08	233.00	1.42	-45.5	-57.5	3.6	8.44e-01	0	28	104	0	60	27160
2026-01-16 05:03:01.11	233.28	1.56	-45.4	-57.5	3.6	8.46e-01	0	28	104	0	60	27116
2026-01-16 05:03:04.14	233.56	1.70	-45.4	-57.5	3.6	8.46e-01	0	28	104	0	60	27165
2026-01-16 05:03:07.17	233.85	1.84	-45.4	-57.5	3.6	8.45e-01	0	28	104	0	60	27081
2026-01-16 05:03:10.20	234.14	1.97	-45.4	-57.5	3.6	8.46e-01	0	28	104	0	60	27194
2026-01-16 05:03:13.23	234.44	2.11	-45.5	-57.5	3.6	8.46e-01	0	28	104	0	60	27205
2026-01-16 05:03:16.26	234.73	2.25	-45.5	-57.5	3.6	8.46e-01	0	28	104	0	60	27218
2026-01-16 05:03:19.29	235.03	2.39	-45.5	-57.6	3.6	8.46e-01	0	28	104	0	60	27273
2026-01-16 05:03:22.32	235.33	2.53	-45.5	-57.6	3.6	8.46e-01	0	28	104	0	60	27288
2026-01-16 05:03:25.35	235.63	2.67	-45.4	-57.5	3.6	8.46e-01	0	28	104	0	60	27003
2026-01-16 05:03:28.37	235.94	2.81	-45.4	-57.5	3.6	8.45e-01	0	28	104	0	60	27098
2026-01-16 05:03:31.40	236.25	2.95	-45.5	-57.5	3.6	8.45e-01	0	28	104	0	60	27027
2026-01-16 05:03:34.43	236.56	3.08	-45.5	-57.6	3.6	8.47e-01	0	28	104	0	60	27283
2026-01-16 05:03:37.46	236.88	3.22	-45.5	-57.5	3.6	8.44e-01	0	28	104	0	60	26993
2026-01-16 05:03:40.49	237.19	3.36	-45.8	-57.1	3.6	8.45e-01	0	28	104	0	60	26014
2026-01-16 05:03:43.51	237.51	3.50	-45.7	-57.3	3.6	8.45e-01	0	28	104	0	60	26620
2026-01-16 05:03:46.55	237.84	3.64	-45.6	-57.4	3.6	8.45e-01	0	28	104	0	60	26842
2026-01-16 05:03:49.57	238.16	3.78	-45.9	-57.0	3.5	8.45e-01	0	28	104	0	60	25614
2026-01-16 05:03:52.60	238.49	3.92	-45.6	-52.6	4.0	8.28e-01	0	28	0	0	60	15416
2026-01-16 05:03:55.63	238.83	4.06	-45.4	-51.7	4.6	7.93e-01	0	28	0	0	60	13953
2026-01-16 05:03:58.66	239.16	4.20	-45.1	-50.5	5.6	4.17e-01	0	28	0	4194304	60	12107
2026-01-16 05:04:01.69	239.50	4.33	-44.9	-49.7	6.6	2.43e-01	0	28	0	20971520	60	10994
2026-01-16 05:04:04.72	239.84	4.47	-44.6	-48.8	7.8	1.03e-01	0	29	0	37748736	60	9994
2026-01-16 05:04:07.74	240.18	4.61	-44.3	-48.0	8.7	4.52e-02	0	29	0	54525952	60	9096
2026-01-16 05:04:10.78	240.53	4.75	-43.5	-46.6	10.3	7.45e-03	0	29	0	71303168	60	7744
2026-01-16 05:04:13.80	240.88	4.89	-43.0	-45.8	11.4	1.67e-03	0	29	0	89128960	60	7014
2026-01-16 05:04:16.84	241.24	5.03	-42.7	-45.1	12.1	3.86e-04	0	29	0	105906176	58	7316
2026-01-16 05:04:19.86	241.60	5.16	-42.0	-44.1	13.3	3.77e-05	0	29	0	122683392	58	6467
2026-01-16 05:04:22.89	241.96	5.30	-41.5	-43.4	14.1	2.20e-06	0	29	0	139460608	56	6751
2026-01-16 05:04:25.92	242.32	5.44	-40.7	-42.3	15.3	0.00e+00	0	29	0	157286400	54	6624
2026-01-16 05:04:28.94	242.69	5.58	-39.9	-41.3	16.3	0.00e+00	0	29	0	174063616	54	5951
2026-01-16 05:04:31.97	243.06	5.71	-39.5	-40.9	16.9	0.00e+00	0	29	0	190840832	52	6324
2026-01-16 05:04:35.00	243.43	5.85	-38.9	-40.2	17.6	0.00e+00	0	29	0	207618048	52	5851
2026-01-16 05:04:38.03	243.81	5.99	-38.5	-39.6	18.2	0.00e+00	0	29	0	225443840	50	6152
2026-01-16 05:04:41.06	244.19	6.12	-38.2	-39.3	18.6	0.00e+00	0	29	0	242221056	50	5914
2026-01-16 05:04:44.08	244.57	6.26	-37.8	-38.9	18.9	0.00e+00	0	29	0	258998272	50	5667
2026-01-16 05:04:47.11	244.96	6.39	-37.1	-38.0	19.8	0.00e+00	0	29	0	275775488	48	5752
2026-01-16 05:04:50.13	245.35	6.53	-36.1	-37.1	20.9	0.00e+00	0	29	0	293601280	46	5767
2026-01-16 05:04:53.16	245.74	6.66	-35.7	-36.5	21.4	0.00e+00	0	29	0	310378496	46	5425
2026-01-16 05:04:56.20	246.14	6.79	-35.5	-36.3	21.6	0.00e+00	0	29	0	327155712	44	5960
2026-01-16 05:04:59.23	246.55	6.93	-35.3	-36.1	21.9	0.00e+00	0	29	0	343932928	44	5779
2026-01-16 05:05:02.25	246.95	7.06	-34.8	-35.6	22.4	0.00e+00	0	29	0	360710144	44	5444
2026-01-16 05:05:05.27	247.36	7.19	-34.7	-35.5	22.6	0.00e+00	0	29	0	378535936	42	6068
2026-01-16 05:05:08.30	247.77	7.32	-34.5	-35.3	22.7	0.00e+00	0	29	0	395313152	42	5926
2026-01-16 05:05:11.32	248.18	7.46	-34.0	-34.7	23.3	0.00e+00	0	29	0	412090368	42	5565
2026-01-16 05:05:14.35	248.60	7.59	-34.0	-34.8	23.3	0.00e+00	0	29	0	428867584	42	5569
2026-01-16 05:05:17.37	249.03	7.72	-34.0	-34.7	23.4	0.00e+00	0	29	0	446693376	42	5565
2026-01-16 05:05:20.40	249.45	7.85	-33.8	-34.5	23.5	0.00e+00	0	29	0	463470592	40	6052
2026-01-16 05:05:23.43	249.88	7.97	-33.6	-34.4	23.7	0.00e+00	0	29	0	480247808	40	5967
2026-01-16 05:05:26.46	250.32	8.10	-33.5	-34.2	23.9	0.00e+00	0	29	0	498073600	40	5852
2026-01-16 05:05:29.49	250.76	8.23	-33.4	-34.2	24.0	0.00e+00	0	29	0	514850816	40	5830
2026-01-16 05:05:32.52	251.20	8.36	-33.4	-34.1	23.9	0.00e+00	0	29	0	531628032	40	5827
2026-01-16 05:05:35.54	251.64	8.48	-33.2	-33.9	24.1	0.00e+00	0	29	0	548405248	40	5664
2026-01-16 05:05:38.57	252.09	8.61	-33.4	-34.1	23.9	0.00e+00	0	29	0	565182464	40	5805
2026-01-16 05:05:41.59	252.54	8.73	-33.3	-34.0	24.0	0.00e+00	0	29	0	583008256	40	5737
2026-01-16 05:05:44.63	253.00	8.85	-33.3	-34.0	24.0	0.00e+00	0	29	0	599785472	40	5760
2026-01-16 05:05:47.65	253.46	8.97	-33.2	-33.9	24.1	0.00e+00	0	29	0	616562688	40	5671
2026-01-16 05:05:50.69	253.92	9.10	-33.2	-33.9	24.2	0.00e+00	0	29	0	633339904	40	5651
2026-01-16 05:05:53.71	254.39	9.21	-33.1	-33.8	24.3	0.00e+00	0	29	0	651165696	40	5615
2026-01-16 05:05:56.74	254.86	9.33	-32.9	-33.6	24.4	0.00e+00	0	29	0	667942912	40	5478
2026-01-16 05:05:59.77	255.33	9.45	-33.1	-33.8	24.3	0.00e+00	0	29	0	684720128	40	5580
2026-01-16 05:06:02.80	255.81	9.57	-33.0	-33.7	24.4	0.00e+00	0	29	0	701497344	40	5508
2026-01-16 05:06:05.83	256.29	9.68	-33.0	-33.6	24.4	0.00e+00	0	29	0	719323136	40	5491
2026-01-16 05:06:08.86	256.78	9.80	-32.6	-33.4	24.7	0.00e+00	0	29	0	736100352	38	5970
2026-01-16 05:06:11.88	257.27	9.91	-32.8	-33.5	24.7	0.00e+00	0	29	0	752877568	38	6064
2026-01-16 05:06:14.91	257.76	10.02	-32.8	-33.4	24.6	0.00e+00	0	29	0	769654784	38	6004
2026-01-16 05:06:17.94	258.26	10.13	-32.9	-33.6	24.6	0.00e+00	0	29	0	787480576	38	6104
2026-01-16 05:06:20.97	258.76	10.24	-33.0	-33.7	24.3	0.00e+00	0	29	0	804257792	38	6188
2026-01-16 05:06:23.99	259.26	10.35	-33.0	-33.7	24.5	0.00e+00	0	29	0	821035008	38	6192
2026-01-16 05:06:27.03	259.77	10.45	-33.0	-33.7	24.5	0.00e+00	0	29	0	837812224	38	6174
2026-01-16 05:06:30.05	260.28	10.56	-33.0	-33.7	24.5	0.00e+00	0	30	0	854589440	38	6182
2026-01-16 05:06:33.08	260.79	10.66	-32.6	-33.3	24.9	0.00e+00	0	29	0	872415232	38	5934
2026-01-16 05:06:36.11	261.31	10.76	-32.5	-33.2	24.8	0.00e+00	0	30	0	889192448	38	5847
2026-01-16 05:06:39.13	261.83	10.86	-32.6	-33.3	24.8	0.00e+00	0	30	0	905969664	38	5912
2026-01-16 05:06:42.16	262.36	10.95	-32.9	-33.6	24.6	0.00e+00	0	30	0	923795456	38	6160
2026-01-16 05:06:45.19	262.88	11.05	-32.5	-33.2	25.0	0.00e+00	0	30	0	940572672	38	5830
2026-01-16 05:06:48.22	263.41	11.14	-32.6	-33.2	24.9	0.00e+00	0	30	0	957349888	38	5884
2026-01-16 05:06:51.25	263.95	11.24	-32.4	-33.1	25.0	0.00e+00	0	30	0	974127104	38	5800
2026-01-16 05:06:54.27	264.48	11.33	-33.5	-34.1	24.0	0.00e+00	0	30	0	991952896	38	6505
2026-01-16 05:06:57.30	265.03	11.41	-32.9	-33.6	24.6	0.00e+00	0	30	0	1008730112	38	6131
2026-01-16 05:07:00.32	265.57	11.50	-32.4	-33.1	25.0	0.00e+00	0	30	0	1025507328	38	5788
2026-01-16 05:07:03.35	266.12	11.59	-32.3	-32.9	25.2	0.00e+00	0	30	0	1042284544	38	5664
2026-01-16 05:07:06.38	266.67	11.67	-32.4	-33.1	25.0	0.00e+00	0	30	0	1059061760	38	5763
2026-01-16 05:07:09.40	267.22	11.75	-32.5	-33.2	24.9	0.00e+00	0	30	0	1076887552	38	5861
2026-01-16 05:07:12.42	267.77	11.82	-32.5	-33.1	25.0	0.00e+00	0	30	0	1093664768	38	5820
2026-01-16 05:07:15.45	268.33	11.90	-32.5	-33.2	24.9	0.00e+00	0	30	0	1110441984	38	5883
2026-01-16 05:07:18.47	268.89	11.97	-32.7	-33.4	24.8	0.00e+00	0	30	0	1127219200	38	6026
2026-01-16 05:07:21.50	269.45	12.05	-32.6	-33.3	24.9	0.00e+00	0	30	0	1143996416	38	5916
2026-01-16 05:07:24.52	270.02	12.11	-32.4	-33.1	25.1	0.00e+00	0	30	0	1161822208	38	5781
2026-01-16 05:07:27.55	270.59	12.18	-32.4	-33.1	25.1	0.00e+00	0	30	0	1178599424	38	5806
2026-01-16 05:07:30.58	271.16	12.24	-32.1	-32.7	25.4	0.00e+00	0	30	0	1195376640	38	5549
2026-01-16 05:07:33.61	271.73	12.31	-32.0	-32.7	25.4	0.00e+00	0	30	0	1213202432	38	5518
2026-01-16 05:07:36.64	272.31	12.37	-32.0	-32.7	25.5	0.00e+00	0	30	0	1229979648	38	5551
2026-01-16 05:07:39.67	272.89	12.42	-31.9	-32.5	25.5	0.00e+00	0	30	0	1246756864	38	5435
2026-01-16 05:07:42.69	273.47	12.48	-31.9	-32.5	25.5	0.00e+00	0	30	0	1263534080	38	5418
2026-01-16 05:07:45.72	274.05	12.53	-31.9	-32.5	25.7	0.00e+00	0	30	0	1281359872	38	5409
2026-01-16 05:07:48.75	274.63	12.58	-32.1	-32.7	25.4	0.00e+00	0	30	0	1298137088	38	5518
2026-01-16 05:07:51.78	275.22	12.63	-32.0	-32.6	25.4	0.00e+00	0	30	0	1314914304	38	5502
2026-01-16 05:07:54.81	275.81	12.67	-32.2	-32.8	25.3	0.00e+00	0	30	0	1331691520	38	5628
2026-01-16 05:07:57.84	276.40	12.71	-32.1	-32.8	25.3	0.00e+00	0	30	0	1348468736	38	5610
2026-01-16 05:08:00.87	276.99	12.75	-32.1	-32.8	25.3	0.00e+00	0	30	0	1366294528	38	5595
2026-01-16 05:08:03.90	277.58	12.79	-32.2	-32.9	25.3	0.00e+00	0	30	0	1383071744	38	5669
2026-01-16 05:08:06.93	278.17	12.82	-32.4	-33.0	25.1	0.00e+00	0	30	0	1399848960	38	5725
2026-01-16 05:08:09.96	278.77	12.85	-32.1	-32.9	25.4	0.00e+00	0	30	0	1417674752	38	5632
2026-01-16 05:08:12.99	279.36	12.88	-32.1	-32.8	25.3	0.00e+00	0	30	0	1434451968	38	5616
2026-01-16 05:08:16.02	279.96	12.90	-32.3	-33.0	25.1	0.00e+00	0	30	0	1451229184	38	5709
2026-01-16 05:08:19.04	280.56	12.92	-31.8	-32.5	25.5	0.00e+00	0	30	0	1468006400	38	5411
2026-01-16 05:08:22.07	281.16	12.94	-31.9	-32.5	25.6	0.00e+00	0	30	0	1485832192	38	5422
2026-01-16 05:08:25.10	281.76	12.96	-32.0	-32.6	25.5	0.00e+00	0	30	0	1502609408	38	5499
2026-01-16 05:08:28.13	282.36	12.97	-32.2	-32.9	25.3	0.00e+00	0	30	0	1519386624	38	5636
2026-01-16 05:08:31.15	282.96	12.98	-32.1	-32.8	25.3	0.00e+00	0	30	0	1536163840	38	5582
2026-01-16 05:08:34.18	283.56	12.99	-32.0	-32.7	25.5	0.00e+00	0	30	0	1552941056	38	5510
2026-01-16 05:08:37.21	284.16	13.00	-32.2	-32.9	25.2	0.00e+00	0	30	0	1570766848	38	5637
2026-01-16 05:08:40.24	284.76	13.00	-32.1	-32.8	25.4	0.00e+00	0	30	0	1587544064	38	5567
2026-01-16 05:08:43.27	285.36	13.00	-32.2	-32.9	25.1	0.00e+00	0	30	0	1604321280	38	5640
2026-01-16 05:08:46.30	285.96	13.00	-32.0	-32.7	25.4	0.00e+00	0	30	0	1621098496	38	5529
2026-01-16 05:08:49.33	286.56	12.99	-32.0	-32.7	25.4	0.00e+00	0	30	0	1638924288	38	5527
2026-01-16 05:08:52.36	287.16	12.98	-32.2	-32.8	25.2	0.00e+00	0	30	0	1655701504	38	5585
2026-01-16 05:08:55.38	287.76	12.97	-32.1	-32.7	25.3	0.00e+00	0	30	0	1672478720	38	5544
2026-01-16 05:08:58.41	288.36	12.95	-32.0	-32.7	25.1	0.00e+00	0	30	0	1690304512	38	5540
2026-01-16 05:09:01.44	288.96	12.94	-32.1	-32.8	25.3	0.00e+00	0	30	0	1707081728	38	5587
2026-01-16 05:09:04.47	289.56	12.92	-32.2	-32.9	25.1	0.00e+00	0	30	0	1723858944	38	5649
2026-01-16 05:09:07.49	290.15	12.89	-32.1	-32.8	25.3	0.00e+00	0	30	0	1740636160	38	5595
2026-01-16 05:09:10.52	290.75	12.87	-32.1	-32.7	25.3	0.00e+00	0	30	0	1757413376	38	5551
2026-01-16 05:09:13.55	291.34	12.84	-32.4	-33.1	25.1	0.00e+00	0	30	0	1775239168	38	5764
2026-01-16 05:09:16.58	291.94	12.81	-32.4	-33.1	25.1	0.00e+00	0	30	0	1792016384	38	5780
2026-01-16 05:09:19.61	292.53	12.77	-32.2	-32.9	25.2	0.00e+00	0	30	0	1808793600	38	5682
2026-01-16 05:09:22.64	293.12	12.73	-32.2	-32.9	25.2	0.00e+00	0	30	0	1825570816	38	5656
2026-01-16 05:09:25.67	293.71	12.70	-32.2	-32.8	25.2	0.00e+00	0	30	0	1843396608	38	5600
2026-01-16 05:09:28.69	294.30	12.65	-32.3	-32.9	25.2	0.00e+00	0	30	0	1860173824	38	5691
2026-01-16 05:09:31.72	294.88	12.61	-32.1	-32.8	25.3	0.00e+00	0	30	0	1876951040	38	5568
2026-01-16 05:09:34.75	295.47	12.56	-32.2	-32.9	25.1	0.00e+00	0	30	0	1893728256	38	5678
2026-01-16 05:09:37.77	296.05	12.51	-32.4	-33.1	25.0	0.00e+00	0	30	0	1911554048	38	5773
2026-01-16 05:09:40.81	296.63	12.46	-32.1	-32.7	25.3	0.00e+00	0	30	0	1928331264	38	5558
2026-01-16 05:09:43.83	297.21	12.40	-32.3	-33.0	25.1	0.00e+00	0	30	0	1945108480	38	5703
2026-01-16 05:09:46.87	297.79	12.34	-32.2	-32.9	25.2	0.00e+00	0	30	0	1961885696	38	5640
2026-01-16 05:09:49.90	298.36	12.28	-32.4	-33.0	25.0	0.00e+00	0	30	0	1979711488	38	5746
2026-01-16 05:09:52.93	298.93	12.22	-32.4	-33.1	25.0	0.00e+00	0	30	0	1996488704	38	5800
2026-01-16 05:09:55.95	299.50	12.16	-32.5	-33.2	24.9	0.00e+00	0	30	0	2013265920	38	5878
2026-01-16 05:09:58.99	300.07	12.09	-32.6	-33.2	24.9	0.00e+00	0	30	0	2030043136	38	5869
2026-01-16 05:10:02.02	300.63	12.02	-32.5	-33.1	24.9	0.00e+00	0	30	0	2047868928	38	5787
2026-01-16 05:10:05.04	301.19	11.95	-32.5	-33.3	24.9	0.00e+00	0	30	0	2064646144	38	5925
2026-01-16 05:10:08.07	301.75	11.87	-32.7	-33.4	24.8	0.00e+00	0	30	0	2081423360	38	6027
2026-01-16 05:10:11.10	302.31	11.80	-32.8	-33.5	24.7	0.00e+00	0	30	0	2098200576	38	6085
2026-01-16 05:10:14.13	302.86	11.72	-32.7	-33.4	24.8	0.00e+00	0	30	0	2116026368	38	6032
2026-01-16 05:10:17.15	303.41	11.64	-32.7	-33.4	24.9	0.00e+00	0	30	0	2132803584	38	5975
2026-01-16 05:10:20.18	303.96	11.56	-32.6	-33.2	24.9	0.00e+00	0	30	0	2149580800	38	5875
2026-01-16 05:10:23.21	304.50	11.47	-32.6	-33.3	24.9	0.00e+00	0	30	0	2166358016	38	5945
2026-01-16 05:10:26.24	305.04	11.39	-32.8	-33.5	24.7	0.00e+00	0	30	0	2184183808	38	6040
2026-01-16 05:10:29.27	305.58	11.30	-33.1	-33.8	24.3	0.00e+00	0	30	0	2200961024	38	6310
2026-01-16 05:10:32.29	306.11	11.21	-32.8	-33.5	24.6	0.00e+00	0	30	0	2217738240	38	6053
2026-01-16 05:10:35.32	306.64	11.11	-32.8	-33.5	24.6	0.00e+00	0	30	0	2234515456	38	6050
2026-01-16 05:10:38.35	307.17	11.02	-32.8	-33.4	24.6	0.00e+00	0	30	0	2251292672	38	6012
2026-01-16 05:10:41.37	307.69	10.92	-32.6	-33.3	24.9	0.00e+00	0	30	0	2269118464	38	5918
2026-01-16 05:10:44.40	308.22	10.83	-32.8	-33.5	24.7	0.00e+00	0	30	0	2285895680	38	6036
2026-01-16 05:10:47.43	308.73	10.73	-33.0	-33.7	24.5	0.00e+00	0	30	0	2302672896	38	6185
2026-01-16 05:10:50.45	309.25	10.63	-32.9	-33.7	24.6	0.00e+00	0	30	0	2319450112	38	6181
2026-01-16 05:10:53.48	309.76	10.53	-33.0	-33.6	24.5	0.00e+00	0	30	0	2337275904	38	6173
2026-01-16 05:10:56.51	310.27	10.42	-33.2	-33.9	24.4	0.00e+00	0	30	0	2354053120	38	6342
2026-01-16 05:10:59.54	310.77	10.32	-33.2	-33.8	24.3	0.00e+00	0	30	0	2370830336	38	6280
2026-01-16 05:11:02.56	311.27	10.21	-32.9	-33.6	24.5	0.00e+00	0	30	0	2388656128	38	6114
2026-01-16 05:11:05.59	311.77	10.10	-33.2	-33.8	24.3	0.00e+00	0	30	0	2405433344	38	6313
2026-01-16 05:11:08.63	312.26	9.99	-33.4	-34.1	24.1	0.00e+00	0	30	0	2422210560	38	6488
2026-01-16 05:11:11.65	312.75	9.88	-33.6	-34.4	23.9	0.00e+00	0	31	0	2438987776	38	6701
2026-01-16 05:11:14.68	313.24	9.77	-33.2	-34.0	24.3	0.00e+00	0	30	0	2455764992	38	6425
2026-01-16 05:11:17.71	313.72	9.65	-33.2	-33.8	24.3	0.00e+00	0	30	0	2473590784	38	6300
2026-01-16 05:11:20.73	314.20	9.54	-33.3	-34.0	24.2	0.00e+00	0	30	0	2490368000	38	6418
2026-01-16 05:11:23.76	314.67	9.42	-33.2	-34.0	24.2	0.00e+00	0	31	0	2507145216	38	6426
2026-01-16 05:11:26.79	315.14	9.31	-33.3	-33.9	24.2	0.00e+00	0	31	0	2523922432	38	6351
2026-01-16 05:11:29.82	315.61	9.19	-33.3	-34.0	24.1	0.00e+00	0	31	0	2541748224	38	6409
2026-01-16 05:11:32.85	316.08	9.07	-33.3	-33.9	24.2	0.00e+00	0	31	0	2558525440	38	6362
2026-01-16 05:11:35.87	316.53	8.95	-33.5	-34.2	23.9	0.00e+00	0	31	0	2575302656	38	6567
2026-01-16 05:11:38.90	316.99	8.83	-33.7	-34.4	23.8	0.00e+00	0	31	0	2592079872	38	6707
2026-01-16 05:11:41.93	317.44	8.71	-33.9	-34.7	23.5	0.00e+00	0	31	0	2609905664	40	6204
2026-01-16 05:11:44.96	317.89	8.58	-33.9	-34.7	23.5	0.00e+00	0	30	0	2626682880	40	6192
2026-01-16 05:11:47.99	318.34	8.46	-33.6	-34.2	23.7	0.00e+00	0	31	0	2643460096	40	5876
2026-01-16 05:11:51.02	318.78	8.33	-33.5	-34.3	23.9	0.00e+00	0	31	0	2660237312	40	5901
2026-01-16 05:11:54.05	319.22	8.21	-33.7	-34.4	23.6	0.00e+00	0	31	0	2678063104	40	5973
2026-01-16 05:11:57.07	319.65	8.08	-34.1	-34.8	23.2	0.00e+00	0	31	0	2694840320	40	6251
2026-01-16 05:12:00.10	320.09	7.95	-34.1	-34.9	23.2	0.00e+00	0	31	0	2711617536	40	6381
2026-01-16 05:12:03.13	320.51	7.83	-33.9	-34.6	23.5	0.00e+00	0	30	0	2728394752	40	6141
2026-01-16 05:12:06.16	320.94	7.70	-33.7	-34.5	23.7	0.00e+00	0	31	0	2746220544	40	6051
2026-01-16 05:12:09.18	321.36	7.57	-33.8	-34.6	23.5	0.00e+00	0	31	0	2762997760	40	6115
2026-01-16 05:12:12.21	321.77	7.44	-33.9	-34.6	23.3	0.00e+00	0	31	0	2779774976	40	6131
2026-01-16 05:12:15.24	322.19	7.31	-34.1	-34.8	23.1	0.00e+00	0	31	0	2796552192	40	6279
2026-01-16 05:12:18.27	322.60	7.18	-34.4	-35.2	22.8	0.00e+00	0	31	0	2814377984	40	6591
2026-01-16 05:12:21.29	323.00	7.05	-34.3	-35.0	22.9	0.00e+00	0	31	0	2831155200	40	6428
2026-01-16 05:12:24.32	323.40	6.92	-34.3	-35.0	22.8	0.00e+00	0	31	0	2847932416	40	6460
2026-01-16 05:12:27.35	323.80	6.78	-34.2	-34.9	22.9	0.00e+00	0	31	0	2864709632	40	6355
2026-01-16 05:12:30.38	324.20	6.65	-34.2	-35.0	23.0	0.00e+00	0	31	0	2882535424	40	6396
2026-01-16 05:12:33.41	324.59	6.52	-34.5	-35.2	22.7	0.00e+00	0	31	0	2899312640	40	6582
2026-01-16 05:12:36.44	324.98	6.38	-34.7	-35.5	22.6	0.00e+00	0	31	0	2916089856	40	6807
2026-01-16 05:12:39.47	325.37	6.25	-34.5	-35.2	22.6	0.00e+00	0	31	0	2932867072	40	6614
2026-01-16 05:12:42.50	325.75	6.11	-34.5	-35.2	22.6	0.00e+00	0	31	0	2949644288	40	6579
2026-01-16 05:12:45.52	326.12	5.98	-34.4	-35.2	22.7	0.00e+00	0	31	0	2967470080	40	6591
2026-01-16 05:12:48.55	326.50	5.84	-34.6	-35.3	22.5	0.00e+00	0	31	0	2984247296	40	6647
2026-01-16 05:12:51.58	326.87	5.71	-34.8	-35.6	22.3	0.00e+00	0	31	0	3001024512	42	6166
2026-01-16 05:12:54.61	327.24	5.57	-34.6	-35.4	22.5	0.00e+00	0	31	0	3018850304	42	5985
2026-01-16 05:12:57.63	327.60	5.44	-34.8	-35.6	22.3	0.00e+00	0	31	0	3035627520	42	6167
2026-01-16 05:13:00.66	327.97	5.30	-34.9	-35.7	22.2	0.00e+00	0	31	0	3052404736	42	6224
2026-01-16 05:13:03.69	328.33	5.17	-34.9	-35.7	22.1	0.00e+00	0	31	0	3069181952	42	6179
2026-01-16 05:13:06.72	328.68	5.03	-35.0	-35.8	22.0	0.00e+00	0	31	0	3087007744	42	6256
2026-01-16 05:13:09.75	329.03	4.89	-35.0	-35.8	22.0	0.00e+00	0	31	0	3103784960	42	6278
2026-01-16 05:13:12.77	329.38	4.76	-35.3	-36.1	21.6	0.00e+00	0	31	0	3120562176	42	6488
2026-01-16 05:13:15.80	329.73	4.62	-35.2	-36.0	21.6	0.00e+00	0	31	0	3137339392	42	6461
2026-01-16 05:13:18.83	330.07	4.48	-35.3	-36.2	21.5	0.00e+00	0	31	0	3154116608	42	6599
2026-01-16 05:13:21.86	330.41	4.34	-35.2	-36.1	21.6	0.00e+00	0	31	0	3171942400	42	6485
2026-01-16 05:13:24.89	330.75	4.21	-35.0	-35.8	21.7	0.00e+00	0	31	0	3188719616	42	6261
2026-01-16 05:13:27.92	331.08	4.07	-35.8	-36.7	20.6	0.00e+00	0	31	0	3205496832	44	6207
2026-01-16 05:13:30.95	331.41	3.93	-36.9	-37.9	19.2	0.00e+00	0	31	0	3222274048	46	6363
2026-01-16 05:13:33.98	331.74	3.79	-37.8	-39.1	16.8	0.00e+00	0	31	0	3240099840	48	6533
2026-01-16 05:13:37.01	332.07	3.66	-40.7	-43.3	11.4	6.33e-04	0	31	0	3256877056	52	8412
2026-01-16 05:13:40.04	332.39	3.52	-42.2	-47.1	6.5	2.10e-01	0	31	0	3273654272	56	10261
2026-01-16 05:13:43.07	332.71	3.38	-42.8	-52.5	3.7	8.43e-01	0	31	104	3278897152	58	17052
2026-01-16 05:13:46.10	333.03	3.24	-42.9	-54.4	3.6	8.44e-01	0	31	104	3278897152	58	21314
2026-01-16 05:13:49.13	333.34	3.11	-43.0	-55.0	3.6	8.44e-01	0	31	104	3278897152	58	22878
2026-01-16 05:13:52.16	333.65	2.97	-47.0	-59.0	3.6	8.46e-01	0	31	104	3278897152	60	32385
2026-01-16 05:13:55.19	333.96	2.83	-47.9	-60.1	3.6	8.45e-01	0	31	104	3278897152	60	36374
2026-01-16 05:13:58.22	334.26	2.69	-48.1	-60.3	3.6	8.45e-01	0	31	104	3278897152	60	37270
2026-01-16 05:14:01.25	334.57	2.56	-47.8	-60.3	3.6	8.45e-01	0	31	104	3278897152	60	37558
2026-01-16 05:14:04.28	334.87	2.42	-47.7	-60.1	3.6	8.45e-01	0	31	104	3278897152	60	36729
2026-01-16 05:14:07.31	335.16	2.28	-48.1	-60.2	3.6	8.46e-01	0	31	104	3278897152	60	36880
2026-01-16 05:14:10.34	335.46	2.14	-48.1	-60.2	3.6	8.45e-01	0	31	104	3278897152	60	36781
2026-01-16 05:14:13.37	335.75	2.01	-48.1	-60.2	3.6	8.47e-01	0	31	104	3278897152	60	37003
2026-01-16 05:14:16.40	336.04	1.87	-48.1	-60.2	3.6	8.46e-01	0	30	104	3278897152	60	37112
2026-01-16 05:14:19.43	336.33	1.73	-48.0	-60.1	3.6	8.45e-01	0	31	104	3278897152	60	36413
2026-01-16 05:14:22.45	336.61	1.60	-48.1	-60.3	3.6	8.45e-01	0	31	104	3278897152	60	37238
2026-01-16 05:14:25.49	336.90	1.46	-48.2	-60.2	3.6	8.45e-01	0	30	104	3278897152	60	37124
2026-01-16 05:14:28.51	337.18	1.32	-48.1	-60.2	3.6	8.45e-01	0	31	104	3278897152	60	37167
2026-01-16 05:14:31.54	337.45	1.19	-48.2	-60.3	3.5	8.46e-01	0	30	104	3278897152	60	37318
2026-01-16 05:14:34.57	337.73	1.05	-48.2	-60.3	3.6	8.45e-01	0	30	104	3278897152	60	37279
2026-01-16 05:14:37.60	338.00	0.91	-48.1	-60.2	3.6	8.45e-01	0	30	104	3278897152	60	37085
2026-01-16 05:14:40.63	338.27	0.78	-48.1	-60.2	3.6	8.45e-01	0	30	104	3278897152	60	36932
2026-01-16 05:14:43.66	338.54	0.64	-48.1	-60.1	3.6	8.46e-01	0	30	104	3278897152	60	36736
2026-01-16 05:14:46.68	338.80	0.51	-48.1	-60.2	3.6	8.45e-01	0	30	104	3278897152	60	37142
2026-01-16 05:14:49.71	339.07	0.37	-48.1	-60.2	3.6	8.46e-01	0	30	104	3278897152	60	36870
2026-01-16 05:14:52.74	339.33	0.24	-48.0	-60.1	3.6	8.45e-01	0	30	104	3278897152	60	36583
2026-01-16 05:14:55.77	339.59	0.10	-48.1	-60.2	3.6	8.45e-01	0	30	104	3278897152	60	36978
2026-01-16 05:14:58.80	339.84	-0.03	-48.3	-60.4	3.6	8.44e-01	0	30	104	3278897152	60	37936

#Closed at: 2026-01-16 05:14:59
#Recorded file [3278 MB]: D:/lorett/data/35029_260116_170227.dat