passes_logs/2026/01/16/R4.6S_Anadyr/R4.6S_Anadyr__20260116_210319_SUOMI_NPP_rec.log

#Pass ID: 20260116_210319_SUOMI NPP
#Satellite: SUOMI NPP
#Configuration: NPP
#almurnet v.1.7.20251203
#Start time: 2026-01-16 21:03:19

#Version: 2.2.20231116
#Station: R4.6S_Anadyr
#Location: 177.4865 lon 64.73178 lat
#TLE: 1 37849U 11061A   26016.58419598  .00000058  00000+0  48257-4 0  9996
#TLE: 2 37849  98.7812 318.6192 0002422  60.8544 299.2874 14.19525580736934

#Time	Az	El	Level	Level2	SNR	BER	BlckErr	Temp	State	Recorded	gain1	gain2
2026-01-16 21:03:19.80	80.83	0.03	-47.9	-59.5	3.5	8.45e-01	0	25	0	0	60	34319
2026-01-16 21:03:23.83	80.56	0.24	-48.4	-63.6	3.6	1.51e+00	0	26	104	0	60	54994
2026-01-16 21:03:27.87	80.28	0.45	-48.2	-63.4	3.6	1.51e+00	0	26	104	0	60	53413
2026-01-16 21:03:31.91	80.00	0.66	-47.9	-63.2	3.6	1.51e+00	0	27	104	0	60	52091
2026-01-16 21:03:35.95	79.72	0.87	-47.0	-62.2	3.6	1.51e+00	0	27	104	0	60	46432
2026-01-16 21:03:39.99	79.43	1.08	-46.3	-61.5	3.6	1.51e+00	0	27	104	0	60	42747
2026-01-16 21:03:44.03	79.14	1.29	-46.3	-61.5	3.6	1.51e+00	0	27	104	0	60	42847
2026-01-16 21:03:48.07	78.84	1.50	-46.3	-61.5	3.6	1.51e+00	0	27	104	0	60	43001
2026-01-16 21:03:52.11	78.54	1.72	-46.3	-61.5	3.6	1.51e+00	0	27	104	0	60	42924
2026-01-16 21:03:56.15	78.24	1.93	-46.3	-61.2	3.6	1.51e+00	0	27	104	0	60	41297
2026-01-16 21:04:00.19	77.93	2.14	-46.3	-61.0	3.6	1.51e+00	0	27	104	0	60	40784
2026-01-16 21:04:04.23	77.61	2.36	-46.3	-61.5	3.6	1.51e+00	0	27	104	0	60	42736
2026-01-16 21:04:08.27	77.29	2.58	-46.3	-60.8	3.6	1.51e+00	0	27	104	0	60	39413
2026-01-16 21:04:12.31	76.97	2.79	-46.3	-60.7	3.6	1.51e+00	0	27	104	0	60	39359
2026-01-16 21:04:16.34	76.64	3.01	-43.8	-47.5	12.8	1.05e-03	0	27	0	4194304	60	8557
2026-01-16 21:04:20.38	76.31	3.23	-41.0	-42.9	16.5	1.34e+00	92	27	104	8388608	56	6388
2026-01-16 21:04:24.42	75.97	3.45	-42.0	-44.3	16.1	0.00e+00	89	27	0	11534336	58	6681
2026-01-16 21:04:28.45	75.62	3.67	-41.3	-43.3	17.5	0.00e+00	0	27	0	18874368	56	6666
2026-01-16 21:04:32.49	75.27	3.89	-40.2	-41.8	18.6	0.00e+00	0	27	0	26214400	54	6290
2026-01-16 21:04:36.52	74.92	4.11	-40.5	-42.2	18.4	0.00e+00	92	27	0	33554432	54	6589
2026-01-16 21:04:40.56	74.55	4.34	-40.7	-42.4	18.2	0.00e+00	90	27	0	41943040	54	6764
2026-01-16 21:04:44.60	74.19	4.56	-41.0	-42.9	17.7	0.00e+00	0	27	0	49283072	54	7118
2026-01-16 21:04:48.63	73.82	4.78	-41.3	-43.2	17.7	0.00e+00	0	27	0	56623104	54	7376
2026-01-16 21:04:52.67	73.44	5.01	-40.9	-42.7	18.0	0.00e+00	82	27	0	63963136	54	6943
2026-01-16 21:04:56.71	73.05	5.23	-40.1	-41.7	19.0	0.00e+00	92	27	0	71303168	54	6203
2026-01-16 21:05:00.75	72.66	5.46	-40.4	-41.9	18.9	0.00e+00	0	27	0	79691776	54	6369
2026-01-16 21:05:04.78	72.26	5.69	-40.3	-41.9	18.9	0.00e+00	92	27	0	87031808	54	6347
2026-01-16 21:05:08.82	71.86	5.92	-40.5	-42.1	18.6	0.00e+00	80	27	0	94371840	54	6510
2026-01-16 21:05:12.85	71.45	6.14	-40.7	-42.4	18.4	0.00e+00	0	27	0	101711872	54	6728
2026-01-16 21:05:16.88	71.03	6.37	-41.1	-43.0	18.0	0.00e+00	0	27	0	109051904	54	7196
2026-01-16 21:05:20.91	70.61	6.60	-41.0	-42.8	18.1	0.00e+00	92	27	0	117440512	54	7040
2026-01-16 21:05:24.95	70.18	6.83	-40.5	-42.1	18.8	0.00e+00	90	27	0	124780544	54	6525
2026-01-16 21:05:28.99	69.74	7.06	-40.4	-42.0	18.9	0.00e+00	0	27	0	132120576	54	6425
2026-01-16 21:05:33.03	69.30	7.29	-40.1	-41.6	19.4	0.00e+00	0	27	0	139460608	54	6128
2026-01-16 21:05:37.07	68.84	7.53	-40.3	-41.8	19.1	0.00e+00	75	27	0	147849216	54	6314
2026-01-16 21:05:41.10	68.38	7.76	-40.0	-41.5	19.5	0.00e+00	92	27	0	155189248	54	6059
2026-01-16 21:05:45.14	67.92	7.99	-39.8	-41.2	19.6	0.00e+00	33	27	0	162529280	52	6596
2026-01-16 21:05:49.18	67.44	8.22	-39.9	-41.3	19.6	0.00e+00	79	27	0	169869312	52	6678
2026-01-16 21:05:53.21	66.96	8.45	-40.2	-41.7	19.3	0.00e+00	90	27	0	177209344	52	6983
2026-01-16 21:05:57.25	66.47	8.69	-39.8	-41.2	19.8	0.00e+00	48	27	0	185597952	52	6602
2026-01-16 21:06:01.29	65.97	8.92	-39.2	-40.5	20.5	0.00e+00	0	27	0	192937984	52	6038
2026-01-16 21:06:05.33	65.46	9.15	-39.3	-40.7	20.3	0.00e+00	92	27	0	200278016	52	6180
2026-01-16 21:06:09.36	64.95	9.39	-39.6	-40.9	20.1	0.00e+00	92	27	0	207618048	52	6381
2026-01-16 21:06:13.40	64.42	9.62	-39.4	-40.8	20.3	0.00e+00	0	27	0	214958080	52	6263
2026-01-16 21:06:17.44	63.89	9.85	-40.0	-41.5	19.7	0.00e+00	0	27	0	223346688	52	6775
2026-01-16 21:06:21.47	63.35	10.08	-39.5	-40.8	20.2	0.00e+00	91	27	0	230686720	52	6272
2026-01-16 21:06:25.51	62.80	10.32	-39.3	-40.6	20.5	0.00e+00	77	27	0	238026752	52	6118
2026-01-16 21:06:29.55	62.24	10.55	-39.1	-40.3	20.7	0.00e+00	0	27	0	245366784	52	5946
2026-01-16 21:06:33.58	61.67	10.78	-39.1	-40.4	20.7	0.00e+00	33	27	0	253755392	52	5965
2026-01-16 21:06:37.62	61.10	11.01	-39.1	-40.3	20.8	0.00e+00	79	27	0	261095424	52	5931
2026-01-16 21:06:41.66	60.51	11.24	-39.3	-40.6	20.6	0.00e+00	0	27	0	268435456	52	6136
2026-01-16 21:06:45.69	59.92	11.47	-40.0	-41.4	19.9	0.00e+00	0	27	0	275775488	52	6729
2026-01-16 21:06:49.73	59.31	11.70	-39.8	-41.2	20.2	0.00e+00	81	27	0	283115520	52	6547
2026-01-16 21:06:53.76	58.70	11.92	-39.7	-41.1	20.5	0.00e+00	91	27	0	291504128	52	6468
2026-01-16 21:06:57.80	58.07	12.15	-39.2	-40.5	20.7	0.00e+00	0	27	0	298844160	52	6062
2026-01-16 21:07:01.83	57.44	12.37	-39.1	-40.3	20.9	0.00e+00	0	27	0	306184192	52	5962
2026-01-16 21:07:05.87	56.79	12.59	-38.9	-40.1	21.2	0.00e+00	92	27	0	313524224	50	6470
2026-01-16 21:07:09.90	56.14	12.82	-38.2	-39.3	21.7	0.00e+00	92	27	0	321912832	50	5945
2026-01-16 21:07:13.94	55.48	13.03	-38.2	-39.2	21.9	0.00e+00	0	27	0	329252864	50	5886
2026-01-16 21:07:17.98	54.80	13.25	-37.6	-38.5	22.4	0.00e+00	0	27	0	336592896	48	6101
2026-01-16 21:07:22.01	54.12	13.47	-37.5	-38.5	22.5	0.00e+00	53	27	0	343932928	48	6053
2026-01-16 21:07:26.05	53.42	13.68	-37.5	-38.5	22.6	0.00e+00	65	27	0	351272960	48	6046
2026-01-16 21:07:30.09	52.72	13.89	-37.6	-38.6	22.7	0.00e+00	0	27	0	359661568	48	6134
2026-01-16 21:07:34.12	52.00	14.10	-37.7	-38.8	22.3	0.00e+00	0	28	0	367001600	48	6269
2026-01-16 21:07:38.16	51.28	14.31	-38.3	-39.4	22.0	0.00e+00	81	27	0	374341632	48	6723
2026-01-16 21:07:42.20	50.54	14.51	-37.8	-38.9	22.3	0.00e+00	0	27	0	381681664	48	6348
2026-01-16 21:07:46.24	49.80	14.71	-36.7	-37.6	23.2	0.00e+00	0	27	0	390070272	46	6134
2026-01-16 21:07:50.27	49.04	14.90	-36.7	-37.6	23.3	0.00e+00	84	28	0	397410304	46	6159
2026-01-16 21:07:54.31	48.28	15.10	-37.1	-38.1	23.0	0.00e+00	92	28	0	404750336	46	6513
2026-01-16 21:07:58.35	47.50	15.29	-37.5	-38.5	22.7	0.00e+00	0	28	0	412090368	48	6080
2026-01-16 21:08:02.38	46.72	15.47	-37.2	-38.2	22.8	0.00e+00	0	28	0	419430400	48	5871
2026-01-16 21:08:06.41	45.93	15.65	-36.8	-37.8	23.2	0.00e+00	14	28	0	427819008	46	6260
2026-01-16 21:08:10.44	45.12	15.83	-37.1	-38.1	23.0	0.00e+00	78	27	0	435159040	46	6478
2026-01-16 21:08:14.48	44.31	16.00	-37.0	-37.9	23.0	0.00e+00	0	28	0	442499072	46	6381
2026-01-16 21:08:18.51	43.49	16.17	-37.1	-38.0	23.0	0.00e+00	0	28	0	449839104	46	6424
2026-01-16 21:08:22.55	42.66	16.33	-37.5	-38.5	22.6	0.00e+00	80	28	0	457179136	46	6833
2026-01-16 21:08:26.59	41.81	16.48	-36.7	-37.6	23.3	0.00e+00	0	28	0	465567744	46	6130
2026-01-16 21:08:30.63	40.96	16.64	-36.2	-37.1	23.7	0.00e+00	0	28	0	472907776	46	5764
2026-01-16 21:08:34.67	40.10	16.78	-35.9	-36.7	23.9	0.00e+00	77	28	0	480247808	46	5549
2026-01-16 21:08:38.70	39.24	16.92	-36.1	-36.9	23.6	0.00e+00	81	28	0	487587840	44	6365
2026-01-16 21:08:42.73	38.36	17.06	-36.6	-37.5	23.3	0.00e+00	0	28	0	495976448	44	6831
2026-01-16 21:08:46.76	37.48	17.18	-37.0	-37.9	23.1	0.00e+00	0	28	0	503316480	46	6376
2026-01-16 21:08:50.80	36.59	17.31	-37.3	-38.3	22.8	0.00e+00	82	28	0	510656512	46	6617
2026-01-16 21:08:54.84	35.70	17.42	-37.2	-38.2	22.9	0.00e+00	84	28	0	517996544	46	6567
2026-01-16 21:08:58.87	34.79	17.53	-37.5	-38.4	22.8	0.00e+00	0	28	0	525336576	46	6760
2026-01-16 21:09:02.91	33.88	17.63	-37.4	-38.3	22.6	0.00e+00	0	28	0	533725184	46	6656
2026-01-16 21:09:06.94	32.97	17.72	-36.8	-37.7	23.3	0.00e+00	84	28	0	541065216	46	6195
2026-01-16 21:09:10.98	32.05	17.81	-37.4	-38.3	22.7	0.00e+00	0	28	0	548405248	46	6685
2026-01-16 21:09:15.01	31.12	17.89	-37.0	-38.0	23.0	0.00e+00	0	28	0	555745280	46	6406
2026-01-16 21:09:19.05	30.19	17.96	-37.9	-38.9	22.2	0.00e+00	65	28	0	563085312	48	6390
2026-01-16 21:09:23.09	29.25	18.03	-38.7	-39.9	21.4	0.00e+00	52	28	0	571473920	48	7089
2026-01-16 21:09:27.12	28.32	18.08	-37.9	-39.0	22.2	0.00e+00	0	28	0	578813952	48	6394
2026-01-16 21:09:31.16	27.37	18.13	-37.6	-38.6	22.5	0.00e+00	0	28	0	586153984	48	6164
2026-01-16 21:09:35.19	26.43	18.17	-37.4	-38.4	22.7	0.00e+00	68	28	0	593494016	48	5998
2026-01-16 21:09:39.23	25.48	18.21	-37.3	-38.3	22.8	0.00e+00	0	28	0	601882624	48	5897
2026-01-16 21:09:43.27	24.53	18.23	-37.1	-38.0	22.9	0.00e+00	0	28	0	609222656	48	5751
2026-01-16 21:09:47.30	23.58	18.25	-37.8	-38.8	22.3	0.00e+00	0	28	0	616562688	48	6301
2026-01-16 21:09:51.34	22.63	18.26	-37.7	-38.7	22.5	0.00e+00	83	29	0	623902720	48	6176
2026-01-16 21:09:55.38	21.68	18.26	-37.1	-38.1	22.9	0.00e+00	0	28	0	631242752	48	5785
2026-01-16 21:09:59.41	20.73	18.25	-37.8	-38.8	22.4	0.00e+00	0	29	0	639631360	48	6307
2026-01-16 21:10:03.45	19.78	18.23	-38.9	-40.1	21.2	0.00e+00	0	29	0	646971392	50	6499
2026-01-16 21:10:07.49	18.83	18.21	-37.6	-38.6	22.5	0.00e+00	78	29	0	654311424	48	6135
2026-01-16 21:10:11.52	17.88	18.18	-36.8	-37.7	23.0	0.00e+00	0	29	0	661651456	46	6216
2026-01-16 21:10:15.56	16.94	18.14	-36.8	-37.7	23.2	0.00e+00	0	29	0	670040064	46	6240
2026-01-16 21:10:19.60	16.00	18.09	-36.8	-37.8	23.1	0.00e+00	73	29	0	677380096	46	6279
2026-01-16 21:10:23.64	15.06	18.03	-36.6	-37.5	23.4	0.00e+00	9	29	0	684720128	46	6061
2026-01-16 21:10:27.67	14.12	17.97	-36.1	-36.9	23.9	0.00e+00	0	29	0	692060160	46	5679
2026-01-16 21:10:31.71	13.19	17.90	-36.0	-36.8	23.8	0.00e+00	0	29	0	699400192	44	6306
2026-01-16 21:10:35.75	12.27	17.82	-36.1	-37.0	23.7	0.00e+00	80	29	0	707788800	44	6441
2026-01-16 21:10:39.78	11.35	17.73	-36.6	-37.5	23.2	0.00e+00	0	29	0	715128832	44	6816
2026-01-16 21:10:43.81	10.43	17.64	-36.8	-37.8	23.1	0.00e+00	0	29	0	722468864	46	6282
2026-01-16 21:10:47.85	9.52	17.54	-36.9	-37.8	23.1	0.00e+00	0	29	0	729808896	46	6272
2026-01-16 21:10:51.88	8.62	17.43	-37.6	-38.6	22.5	0.00e+00	81	29	0	737148928	46	6923
2026-01-16 21:10:55.92	7.72	17.31	-37.8	-38.8	22.3	0.00e+00	0	29	0	745537536	48	6296
2026-01-16 21:10:59.95	6.84	17.19	-37.8	-38.9	22.3	0.00e+00	0	29	0	752877568	48	6319
2026-01-16 21:11:03.99	5.95	17.07	-38.0	-39.1	22.2	0.00e+00	0	29	0	760217600	48	6508
2026-01-16 21:11:08.02	5.08	16.93	-38.2	-39.3	22.0	0.00e+00	51	29	0	767557632	48	6635
2026-01-16 21:11:12.06	4.22	16.79	-37.8	-38.8	22.3	0.00e+00	0	29	0	775946240	48	6315
2026-01-16 21:11:16.10	3.36	16.65	-37.4	-38.3	22.7	0.00e+00	0	29	0	783286272	48	5964
2026-01-16 21:11:20.14	2.51	16.50	-37.4	-38.4	22.7	0.00e+00	24	29	0	790626304	48	6013
2026-01-16 21:11:24.18	1.67	16.34	-36.7	-37.6	23.3	0.00e+00	0	29	0	797966336	46	6123
2026-01-16 21:11:28.22	0.83	16.18	-36.7	-37.6	23.3	0.00e+00	0	29	0	805306368	46	6168
2026-01-16 21:11:32.26	0.01	16.01	-36.8	-37.7	23.1	0.00e+00	0	29	0	813694976	46	6232
2026-01-16 21:11:36.30	359.20	15.84	-38.3	-39.4	21.8	0.00e+00	78	29	0	821035008	48	6740
2026-01-16 21:11:40.33	358.40	15.66	-38.2	-39.4	21.8	0.00e+00	0	29	0	828375040	48	6704
2026-01-16 21:11:44.37	357.60	15.48	-38.2	-39.3	21.9	0.00e+00	0	29	0	835715072	48	6632
2026-01-16 21:11:48.41	356.82	15.30	-38.6	-39.8	21.5	0.00e+00	0	29	0	844103680	48	7032
2026-01-16 21:11:52.44	356.04	15.11	-37.6	-38.6	22.4	0.00e+00	64	29	0	851443712	48	6120
2026-01-16 21:11:56.48	355.28	14.92	-37.3	-38.3	22.8	0.00e+00	0	29	0	858783744	48	5900
2026-01-16 21:12:00.52	354.53	14.72	-37.1	-38.1	22.9	0.00e+00	0	29	0	866123776	48	5768
2026-01-16 21:12:04.56	353.78	14.52	-37.8	-38.9	22.2	0.00e+00	73	29	0	873463808	48	6334
2026-01-16 21:12:08.59	353.05	14.32	-37.4	-38.4	22.6	0.00e+00	0	29	0	881852416	48	6005
2026-01-16 21:12:12.63	352.32	14.12	-37.6	-38.5	22.5	0.00e+00	0	29	0	889192448	48	6087
2026-01-16 21:12:16.67	351.61	13.91	-39.3	-40.6	20.6	0.00e+00	0	29	0	896532480	50	6861
2026-01-16 21:12:20.71	350.91	13.70	-40.9	-42.6	19.1	0.00e+00	75	29	0	903872512	54	6873
2026-01-16 21:12:24.74	350.22	13.49	-39.7	-41.0	20.3	0.00e+00	0	29	0	912261120	52	6445
2026-01-16 21:12:28.77	349.53	13.27	-39.4	-40.7	20.7	0.00e+00	0	29	0	919601152	52	6216
2026-01-16 21:12:32.81	348.86	13.05	-38.5	-39.6	21.5	0.00e+00	0	29	0	926941184	50	6118
2026-01-16 21:12:36.85	348.20	12.83	-38.9	-40.1	21.1	0.00e+00	82	29	0	934281216	50	6514
2026-01-16 21:12:40.89	347.54	12.61	-38.9	-40.0	21.2	0.00e+00	0	29	0	941621248	50	6453
2026-01-16 21:12:44.93	346.90	12.39	-37.9	-39.0	22.0	0.00e+00	0	30	0	950009856	50	5698
2026-01-16 21:12:48.97	346.27	12.17	-38.2	-39.3	21.7	0.00e+00	17	29	0	957349888	50	5920
2026-01-16 21:12:53.01	345.64	11.94	-38.6	-39.7	21.6	0.00e+00	79	30	0	964689920	50	6227
2026-01-16 21:12:57.04	345.03	11.72	-39.0	-40.2	21.2	0.00e+00	0	30	0	972029952	50	6582
2026-01-16 21:13:01.08	344.43	11.49	-38.4	-39.5	21.5	0.00e+00	0	30	0	980418560	50	6095
2026-01-16 21:13:05.12	343.83	11.26	-38.0	-39.1	22.1	0.00e+00	30	30	0	987758592	50	5771
2026-01-16 21:13:09.16	343.25	11.03	-37.0	-38.0	22.8	0.00e+00	0	30	0	995098624	48	5728
2026-01-16 21:13:13.20	342.67	10.80	-36.9	-37.9	23.0	0.00e+00	0	30	0	1002438656	48	5631
2026-01-16 21:13:17.24	342.10	10.57	-37.4	-38.5	22.5	0.00e+00	0	30	0	1009778688	46	6771
2026-01-16 21:13:21.27	341.55	10.34	-37.8	-38.9	22.1	0.00e+00	92	30	0	1018167296	48	6388
2026-01-16 21:13:25.31	341.00	10.11	-37.4	-38.4	22.3	0.00e+00	0	30	0	1025507328	48	6030
2026-01-16 21:13:29.34	340.46	9.88	-37.8	-38.9	22.0	0.00e+00	0	30	0	1032847360	48	6333
2026-01-16 21:13:33.38	339.93	9.64	-37.9	-39.0	22.0	0.00e+00	0	30	0	1040187392	48	6426
2026-01-16 21:13:37.42	339.41	9.41	-38.1	-39.2	21.7	0.00e+00	92	30	0	1048576000	48	6556
2026-01-16 21:13:41.45	338.89	9.18	-38.4	-39.5	21.5	0.00e+00	0	30	0	1055916032	50	6073
2026-01-16 21:13:45.49	338.39	8.95	-38.6	-39.8	21.3	0.00e+00	0	30	0	1063256064	50	6255
2026-01-16 21:13:49.53	337.89	8.71	-37.9	-39.0	21.8	0.00e+00	71	30	0	1070596096	50	5732
2026-01-16 21:13:53.56	337.40	8.48	-37.2	-38.2	22.4	0.00e+00	0	30	0	1077936128	48	5867
2026-01-16 21:13:57.60	336.92	8.25	-37.6	-38.6	21.6	0.00e+00	0	30	0	1086324736	48	6157
2026-01-16 21:14:01.64	336.45	8.02	-38.7	-39.9	20.9	0.00e+00	0	30	0	1093664768	48	7136
2026-01-16 21:14:05.68	335.98	7.78	-38.8	-40.0	20.9	0.00e+00	66	30	0	1101004800	50	6408
2026-01-16 21:14:09.71	335.52	7.55	-38.3	-39.5	21.3	0.00e+00	0	30	0	1108344832	50	6045
2026-01-16 21:14:13.75	335.07	7.32	-38.0	-39.1	21.7	0.00e+00	0	30	0	1115684864	50	5779
2026-01-16 21:14:17.79	334.63	7.09	-38.4	-39.6	21.2	0.00e+00	0	30	0	1124073472	50	6135
2026-01-16 21:14:21.82	334.19	6.86	-39.0	-40.3	20.5	0.00e+00	92	30	0	1131413504	50	6673
2026-01-16 21:14:25.86	333.76	6.63	-39.3	-40.7	20.1	0.00e+00	0	30	0	1138753536	50	6955
2026-01-16 21:14:29.90	333.34	6.40	-39.6	-41.0	19.9	0.00e+00	0	30	0	1146093568	50	7206
2026-01-16 21:14:33.94	332.92	6.17	-39.7	-41.2	19.7	0.00e+00	0	30	0	1154482176	52	6540
2026-01-16 21:14:37.97	332.52	5.95	-39.5	-40.9	19.9	0.00e+00	90	30	0	1161822208	52	6342
2026-01-16 21:14:42.01	332.11	5.72	-39.8	-41.2	19.6	0.00e+00	0	30	0	1169162240	52	6609
2026-01-16 21:14:46.05	331.72	5.49	-40.3	-41.9	18.9	0.00e+00	0	30	0	1176502272	52	7124
2026-01-16 21:14:50.08	331.33	5.27	-40.5	-42.1	18.6	0.00e+00	44	30	0	1183842304	54	6505
2026-01-16 21:14:54.12	330.94	5.04	-40.1	-41.6	19.1	0.00e+00	0	30	0	1192230912	54	6132
2026-01-16 21:14:58.16	330.57	4.82	-40.1	-41.7	19.1	0.00e+00	0	30	0	1199570944	54	6204
2026-01-16 21:15:02.20	330.20	4.59	-40.1	-41.6	19.0	0.00e+00	0	30	0	1206910976	54	6153
2026-01-16 21:15:06.23	329.83	4.37	-40.5	-42.2	18.6	0.00e+00	84	30	0	1214251008	54	6562
2026-01-16 21:15:10.27	329.47	4.15	-40.4	-42.1	18.7	0.00e+00	0	30	0	1222639616	54	6468
2026-01-16 21:15:14.31	329.12	3.93	-40.6	-42.2	18.5	0.00e+00	0	30	0	1229979648	54	6602
2026-01-16 21:15:18.34	328.77	3.70	-40.4	-42.1	18.5	0.00e+00	0	30	0	1237319680	54	6467
2026-01-16 21:15:22.38	328.43	3.48	-40.4	-42.1	18.4	0.00e+00	92	30	0	1244659712	54	6492
2026-01-16 21:15:26.41	328.09	3.27	-40.3	-41.9	18.4	0.00e+00	0	30	0	1251999744	54	6379
2026-01-16 21:15:30.45	327.76	3.05	-40.4	-42.1	18.3	0.00e+00	0	30	0	1260388352	54	6503
2026-01-16 21:15:34.49	327.43	2.83	-48.0	-63.2	3.6	1.51e+00	0	30	104	1261436928	60	52066
2026-01-16 21:15:38.53	327.11	2.61	-48.3	-63.5	3.6	1.51e+00	0	30	104	1261436928	60	53800
2026-01-16 21:15:42.56	326.79	2.40	-47.7	-63.4	3.6	1.51e+00	0	31	104	1261436928	60	53341
2026-01-16 21:15:46.60	326.48	2.18	-48.2	-63.4	3.6	1.51e+00	0	30	104	1261436928	60	53455
2026-01-16 21:15:50.64	326.17	1.97	-48.2	-63.4	3.6	1.51e+00	0	31	104	1261436928	60	53361
2026-01-16 21:15:54.68	325.86	1.75	-48.3	-63.6	3.6	1.51e+00	0	30	104	1261436928	60	54605
2026-01-16 21:15:58.72	325.56	1.54	-48.2	-63.4	3.6	1.51e+00	0	31	104	1261436928	60	53513
2026-01-16 21:16:02.76	325.27	1.33	-48.1	-63.3	3.6	1.51e+00	0	30	104	1261436928	60	53007
2026-01-16 21:16:06.80	324.98	1.12	-48.2	-63.4	3.6	1.51e+00	0	30	104	1261436928	60	53245
2026-01-16 21:16:10.84	324.69	0.91	-48.4	-63.6	3.6	1.51e+00	0	31	104	1261436928	60	54992
2026-01-16 21:16:14.88	324.41	0.70	-48.3	-63.5	3.6	1.51e+00	0	31	104	1261436928	60	54212
2026-01-16 21:16:18.91	324.14	0.49	-48.2	-63.4	3.6	1.51e+00	0	31	104	1261436928	60	53394
2026-01-16 21:16:22.95	323.86	0.28	-48.2	-63.4	3.6	1.51e+00	0	31	104	1261436928	60	53279
2026-01-16 21:16:26.99	323.59	0.07	-48.1	-63.3	3.6	1.51e+00	0	31	104	1261436928	60	53147

#Closed at: 2026-01-16 21:16:29
#Recorded file [1261 MB]: D:/lorett/data/35029_260117_090319.dat