passes_logs/2026/01/16/R4.6S_Anadyr/R4.6S_Anadyr__20260116_194518_NOAA_20_JPSS-1_rec.log

#Pass ID: 20260116_194518_NOAA 20 (JPSS-1)
#Satellite: NOAA 20 (JPSS-1)
#Configuration: NOAA 20
#almurnet v.1.7.20251203
#Start time: 2026-01-16 19:45:18

#Version: 2.2.20231116
#Station: R4.6S_Anadyr
#Location: 177.4865 lon 64.73178 lat
#TLE: 1 43013U 17073A   26015.89389188  .00000026  00000+0  33113-4 0  9999
#TLE: 2 43013  98.7636 316.8238 0001460  37.8997 322.2282 14.19536128422860

#Time	Az	El	Level	Level2	SNR	BER	BlckErr	Temp	State	Recorded	gain1	gain2
2026-01-16 19:45:18.71	58.16	0.03	-48.3	-66.0	3.5	3.03e+01	0	26	0	0	60	77165
2026-01-16 19:45:21.74	57.94	0.18	-48.3	-63.5	3.6	1.51e+00	0	27	104	0	60	53971
2026-01-16 19:45:24.77	57.70	0.32	-48.1	-63.3	3.6	1.51e+00	0	28	104	0	60	52808
2026-01-16 19:45:27.80	57.47	0.47	-48.1	-63.3	3.6	1.51e+00	0	28	104	0	60	52674
2026-01-16 19:45:30.83	57.24	0.62	-48.0	-63.2	3.6	1.51e+00	0	28	104	0	60	52338
2026-01-16 19:45:33.86	57.00	0.77	-47.6	-62.8	3.6	1.51e+00	0	28	104	0	60	49612
2026-01-16 19:45:36.89	56.76	0.92	-46.4	-61.5	3.6	1.51e+00	0	28	104	0	60	43062
2026-01-16 19:45:39.92	56.51	1.06	-46.4	-61.6	3.6	1.51e+00	0	28	104	0	60	43280
2026-01-16 19:45:42.95	56.27	1.21	-46.3	-61.5	3.6	1.51e+00	0	28	104	0	60	42746
2026-01-16 19:45:45.98	56.02	1.36	-46.3	-61.5	3.6	1.51e+00	0	28	104	0	60	42754
2026-01-16 19:45:49.01	55.77	1.51	-46.4	-61.5	3.6	1.51e+00	0	28	104	0	60	43082
2026-01-16 19:45:52.04	55.52	1.66	-46.4	-61.5	3.6	1.51e+00	0	28	104	0	60	43158
2026-01-16 19:45:55.07	55.26	1.81	-46.4	-61.5	3.6	1.51e+00	0	28	104	0	60	43083
2026-01-16 19:45:58.10	55.00	1.96	-46.3	-61.4	3.6	1.51e+00	0	28	104	0	60	42346
2026-01-16 19:46:01.13	54.74	2.11	-46.3	-61.1	3.6	1.51e+00	0	28	104	0	60	40923
2026-01-16 19:46:04.16	54.48	2.26	-46.4	-61.6	3.6	1.51e+00	0	28	104	0	60	43298
2026-01-16 19:46:07.18	54.21	2.41	-46.4	-61.5	3.6	1.51e+00	0	28	104	0	60	43170
2026-01-16 19:46:10.22	53.94	2.56	-46.3	-60.9	3.6	1.51e+00	0	28	104	0	60	40037
2026-01-16 19:46:13.25	53.67	2.72	-46.4	-61.3	3.6	1.51e+00	0	28	104	0	60	42012
2026-01-16 19:46:16.27	53.39	2.87	-45.7	-52.6	7.4	2.18e-01	92	28	0	2097152	60	15384
2026-01-16 19:46:19.31	53.11	3.02	-43.7	-47.2	13.5	1.55e-04	0	28	0	7340032	60	8247
2026-01-16 19:46:22.33	52.83	3.17	-43.9	-47.6	14.4	2.08e-03	47	28	0	12582912	60	8669
2026-01-16 19:46:25.36	52.55	3.32	-42.8	-45.6	14.9	9.44e-01	92	28	104	14680064	60	6852
2026-01-16 19:46:28.38	52.26	3.47	-41.9	-44.1	16.4	0.00e+00	35	28	0	19922944	58	6523
2026-01-16 19:46:31.41	51.97	3.63	-41.9	-44.1	16.6	0.00e+00	7	28	0	25165824	56	7274
2026-01-16 19:46:34.44	51.67	3.78	-42.1	-44.2	16.7	0.00e+00	92	28	0	30408704	56	7391
2026-01-16 19:46:37.46	51.38	3.93	-41.7	-43.8	17.0	0.00e+00	0	28	0	36700160	56	7025
2026-01-16 19:46:40.49	51.08	4.08	-42.0	-44.1	16.7	0.00e+00	0	28	0	41943040	56	7318
2026-01-16 19:46:43.52	50.77	4.24	-41.5	-43.4	17.4	0.00e+00	92	28	0	48234496	56	6763
2026-01-16 19:46:46.54	50.47	4.39	-41.3	-43.2	17.8	0.00e+00	90	28	0	53477376	56	6556
2026-01-16 19:46:49.58	50.16	4.54	-41.0	-42.8	18.2	0.00e+00	0	28	0	58720256	56	6258
2026-01-16 19:46:52.60	49.84	4.70	-41.0	-42.7	18.2	0.00e+00	92	28	0	65011712	56	6223
2026-01-16 19:46:55.63	49.53	4.85	-41.1	-42.8	18.4	0.00e+00	92	28	0	70254592	56	6312
2026-01-16 19:46:58.66	49.21	5.00	-41.0	-42.7	18.3	0.00e+00	6	28	0	76546048	54	7006
2026-01-16 19:47:01.68	48.88	5.16	-40.9	-42.6	18.4	0.00e+00	7	28	0	81788928	54	6875
2026-01-16 19:47:04.71	48.56	5.31	-40.5	-42.1	19.0	0.00e+00	92	28	0	87031808	54	6494
2026-01-16 19:47:07.74	48.22	5.46	-40.4	-41.9	19.1	0.00e+00	35	28	0	93323264	54	6388
2026-01-16 19:47:10.77	47.89	5.62	-40.4	-41.9	19.3	0.00e+00	48	28	0	98566144	54	6390
2026-01-16 19:47:13.80	47.55	5.77	-40.5	-42.0	19.2	0.00e+00	92	28	0	104857600	54	6442
2026-01-16 19:47:16.83	47.21	5.92	-40.5	-42.1	19.1	0.00e+00	75	28	0	110100480	54	6490
2026-01-16 19:47:19.86	46.86	6.08	-40.6	-42.1	19.0	0.00e+00	0	28	0	116391936	54	6513
2026-01-16 19:47:22.89	46.51	6.23	-40.3	-41.8	19.3	0.00e+00	91	28	0	121634816	54	6290
2026-01-16 19:47:25.92	46.16	6.38	-40.4	-42.0	19.1	0.00e+00	91	28	0	126877696	54	6393
2026-01-16 19:47:28.94	45.81	6.54	-40.6	-42.2	19.0	0.00e+00	48	28	0	133169152	54	6558
2026-01-16 19:47:31.97	45.44	6.69	-40.4	-41.9	19.3	0.00e+00	34	28	0	138412032	54	6377
2026-01-16 19:47:35.00	45.08	6.84	-40.5	-42.0	19.2	0.00e+00	90	28	0	144703488	54	6434
2026-01-16 19:47:38.03	44.71	6.99	-40.2	-41.7	19.5	0.00e+00	0	28	0	149946368	54	6185
2026-01-16 19:47:41.05	44.34	7.14	-40.3	-41.8	19.5	0.00e+00	0	28	0	155189248	54	6250
2026-01-16 19:47:44.08	43.96	7.30	-40.2	-41.6	19.6	0.00e+00	92	28	0	161480704	54	6158
2026-01-16 19:47:47.10	43.58	7.45	-40.1	-41.5	19.7	0.00e+00	0	28	0	166723584	54	6071
2026-01-16 19:47:50.13	43.20	7.60	-40.0	-41.4	19.9	0.00e+00	31	28	0	173015040	54	6012
2026-01-16 19:47:53.15	42.81	7.75	-39.9	-41.3	19.9	0.00e+00	90	28	0	178257920	54	5948
2026-01-16 19:47:56.18	42.42	7.90	-39.8	-41.2	20.1	0.00e+00	90	28	0	184549376	54	5851
2026-01-16 19:47:59.21	42.02	8.05	-39.7	-41.0	20.4	0.00e+00	2	28	0	189792256	52	6413
2026-01-16 19:48:02.23	41.62	8.20	-39.9	-41.2	20.1	0.00e+00	0	28	0	195035136	52	6605
2026-01-16 19:48:05.25	41.22	8.35	-39.8	-41.1	20.1	0.00e+00	91	28	0	201326592	52	6521
2026-01-16 19:48:08.28	40.81	8.50	-39.7	-41.0	20.2	0.00e+00	0	28	0	206569472	52	6463
2026-01-16 19:48:11.30	40.39	8.64	-39.6	-40.9	20.4	0.00e+00	0	28	0	212860928	52	6350
2026-01-16 19:48:14.33	39.98	8.79	-39.6	-40.9	20.5	0.00e+00	91	28	0	218103808	52	6377
2026-01-16 19:48:17.36	39.55	8.94	-39.7	-41.0	20.3	0.00e+00	33	28	0	223346688	52	6430
2026-01-16 19:48:20.38	39.13	9.08	-39.8	-41.1	20.3	0.00e+00	6	28	0	229638144	52	6498
2026-01-16 19:48:23.41	38.70	9.23	-39.6	-40.9	20.5	0.00e+00	91	28	0	234881024	52	6353
2026-01-16 19:48:26.44	38.26	9.38	-39.4	-40.7	20.7	0.00e+00	0	28	0	241172480	52	6202
2026-01-16 19:48:29.47	37.82	9.52	-39.4	-40.6	20.8	0.00e+00	0	28	0	246415360	52	6120
2026-01-16 19:48:32.50	37.38	9.66	-39.1	-40.3	21.1	0.00e+00	50	28	0	251658240	52	5908
2026-01-16 19:48:35.53	36.93	9.81	-39.3	-40.5	21.0	0.00e+00	92	28	0	257949696	52	6043
2026-01-16 19:48:38.55	36.47	9.95	-39.0	-40.1	21.3	0.00e+00	50	28	0	263192576	52	5805
2026-01-16 19:48:41.58	36.02	10.09	-38.3	-39.4	21.9	0.00e+00	0	28	0	269484032	50	5969
2026-01-16 19:48:44.61	35.55	10.23	-38.2	-39.2	22.1	0.00e+00	92	28	0	274726912	50	5880
2026-01-16 19:48:47.64	35.09	10.36	-38.1	-39.1	22.1	0.00e+00	7	28	0	281018368	50	5807
2026-01-16 19:48:50.66	34.62	10.50	-38.1	-39.2	22.1	0.00e+00	6	28	0	286261248	50	5848
2026-01-16 19:48:53.69	34.14	10.64	-38.2	-39.3	22.0	0.00e+00	91	28	0	291504128	50	5910
2026-01-16 19:48:56.72	33.66	10.77	-37.8	-38.8	22.5	0.00e+00	0	28	0	297795584	50	5609
2026-01-16 19:48:59.74	33.18	10.91	-37.6	-38.6	22.6	0.00e+00	32	28	0	303038464	48	6144
2026-01-16 19:49:02.77	32.69	11.04	-37.5	-38.5	22.7	0.00e+00	51	28	0	309329920	48	6072
2026-01-16 19:49:05.79	32.20	11.17	-37.7	-38.7	22.5	0.00e+00	92	28	0	314572800	48	6198
2026-01-16 19:49:08.82	31.70	11.30	-37.3	-38.3	22.9	0.00e+00	0	28	0	319815680	48	5931
2026-01-16 19:49:11.85	31.19	11.43	-37.1	-38.1	23.0	0.00e+00	0	28	0	326107136	48	5767
2026-01-16 19:49:14.88	30.69	11.56	-37.1	-38.1	23.1	0.00e+00	92	28	0	331350016	48	5766
2026-01-16 19:49:17.90	30.18	11.68	-37.0	-38.0	23.2	0.00e+00	0	28	0	337641472	48	5711
2026-01-16 19:49:20.93	29.66	11.80	-37.3	-38.2	23.0	0.00e+00	32	28	0	342884352	48	5884
2026-01-16 19:49:23.96	29.14	11.93	-37.4	-38.3	22.9	0.00e+00	90	28	0	348127232	48	5950
2026-01-16 19:49:26.98	28.62	12.05	-37.3	-38.3	22.9	0.00e+00	33	28	0	354418688	48	5923
2026-01-16 19:49:30.01	28.09	12.16	-37.6	-38.6	22.6	0.00e+00	32	28	0	359661568	48	6120
2026-01-16 19:49:33.03	27.55	12.28	-37.6	-38.6	22.6	0.00e+00	62	28	0	365953024	48	6110
2026-01-16 19:49:36.05	27.02	12.39	-37.8	-38.8	22.5	0.00e+00	0	28	0	371195904	48	6254
2026-01-16 19:49:39.08	26.48	12.51	-37.4	-38.4	22.8	0.00e+00	0	28	0	377487360	48	6014
2026-01-16 19:49:42.11	25.93	12.62	-37.5	-38.5	22.7	0.00e+00	52	28	0	382730240	48	6069
2026-01-16 19:49:45.14	25.38	12.73	-37.7	-38.7	22.6	0.00e+00	58	28	0	387973120	48	6190
2026-01-16 19:49:48.16	24.83	12.83	-37.6	-38.6	22.7	0.00e+00	51	28	0	394264576	48	6111
2026-01-16 19:49:51.18	24.27	12.94	-37.6	-38.6	22.7	0.00e+00	0	28	0	399507456	48	6117
2026-01-16 19:49:54.21	23.71	13.04	-37.4	-38.4	22.8	0.00e+00	92	28	0	405798912	48	5989
2026-01-16 19:49:57.24	23.14	13.14	-37.2	-38.2	22.8	0.00e+00	2	28	0	411041792	48	5856
2026-01-16 19:50:00.26	22.57	13.24	-37.4	-38.4	22.9	0.00e+00	0	28	0	416284672	48	5974
2026-01-16 19:50:03.29	22.00	13.33	-37.2	-38.1	23.1	0.00e+00	91	28	0	422576128	48	5823
2026-01-16 19:50:06.32	21.42	13.42	-36.9	-37.9	23.4	0.00e+00	49	28	0	427819008	48	5632
2026-01-16 19:50:09.34	20.84	13.51	-37.0	-38.0	23.3	0.00e+00	44	28	0	434110464	48	5702
2026-01-16 19:50:12.37	20.26	13.60	-37.3	-38.2	23.0	0.00e+00	87	28	0	439353344	48	5871
2026-01-16 19:50:15.40	19.67	13.68	-37.1	-38.1	23.1	0.00e+00	50	28	0	444596224	48	5794
2026-01-16 19:50:18.42	19.08	13.76	-37.1	-38.0	23.3	0.00e+00	0	28	0	450887680	48	5722
2026-01-16 19:50:21.45	18.49	13.84	-37.0	-37.9	23.3	0.00e+00	6	28	0	456130560	48	5671
2026-01-16 19:50:24.48	17.89	13.92	-37.6	-38.6	22.7	0.00e+00	90	28	0	462422016	48	6107
2026-01-16 19:50:27.51	17.29	13.99	-37.3	-38.2	23.0	0.00e+00	42	28	0	467664896	48	5859
2026-01-16 19:50:30.54	16.68	14.06	-37.5	-38.5	22.8	0.00e+00	41	28	0	473956352	48	6054
2026-01-16 19:50:33.57	16.08	14.13	-37.8	-38.8	22.5	0.00e+00	90	28	0	479199232	48	6295
2026-01-16 19:50:36.59	15.47	14.19	-37.7	-38.7	22.6	0.00e+00	6	28	0	484442112	48	6207
2026-01-16 19:50:39.62	14.86	14.26	-38.2	-39.3	22.1	0.00e+00	38	28	0	490733568	48	6636
2026-01-16 19:50:42.65	14.24	14.31	-38.1	-39.2	22.2	0.00e+00	85	27	0	495976448	48	6571
2026-01-16 19:50:45.67	13.63	14.37	-38.0	-39.1	22.3	0.00e+00	0	28	0	502267904	48	6481
2026-01-16 19:50:48.70	13.01	14.42	-37.8	-38.8	22.5	0.00e+00	52	28	0	507510784	48	6297
2026-01-16 19:50:51.73	12.39	14.47	-37.4	-38.4	22.9	0.00e+00	31	28	0	512753664	48	5966
2026-01-16 19:50:54.76	11.76	14.51	-37.7	-38.7	22.8	0.00e+00	34	28	0	519045120	48	6224
2026-01-16 19:50:57.78	11.14	14.55	-37.3	-38.2	23.1	0.00e+00	37	28	0	524288000	48	5872
2026-01-16 19:51:00.81	10.51	14.59	-37.4	-38.4	22.9	0.00e+00	0	28	0	530579456	48	5986
2026-01-16 19:51:03.84	9.89	14.63	-37.8	-38.8	22.6	0.00e+00	92	27	0	535822336	48	6259
2026-01-16 19:51:06.87	9.26	14.66	-37.6	-38.6	22.8	0.00e+00	2	27	0	541065216	48	6132
2026-01-16 19:51:09.90	8.62	14.69	-37.4	-38.4	22.8	0.00e+00	52	27	0	547356672	48	5979
2026-01-16 19:51:12.92	7.99	14.71	-37.5	-38.5	22.7	0.00e+00	90	27	0	552599552	48	6090
2026-01-16 19:51:15.95	7.36	14.73	-37.3	-38.3	23.0	0.00e+00	50	28	0	558891008	48	5915
2026-01-16 19:51:18.98	6.73	14.75	-37.3	-38.3	23.1	0.00e+00	33	27	0	564133888	48	5928
2026-01-16 19:51:22.01	6.09	14.76	-37.5	-38.4	23.0	0.00e+00	65	27	0	570425344	48	6030
2026-01-16 19:51:25.04	5.46	14.78	-37.3	-38.2	23.0	0.00e+00	0	27	0	575668224	48	5883
2026-01-16 19:51:28.06	4.82	14.78	-37.2	-38.1	23.1	0.00e+00	0	27	0	580911104	48	5818
2026-01-16 19:51:31.09	4.19	14.79	-37.6	-38.6	22.8	0.00e+00	0	27	0	587202560	48	6139
2026-01-16 19:51:34.12	3.55	14.79	-37.4	-38.4	22.8	0.00e+00	86	27	0	592445440	48	5988
2026-01-16 19:51:37.15	2.92	14.78	-37.2	-38.1	23.1	0.00e+00	51	27	0	598736896	48	5806
2026-01-16 19:51:40.18	2.28	14.78	-37.4	-38.4	22.9	0.00e+00	30	27	0	603979776	48	5975
2026-01-16 19:51:43.21	1.65	14.77	-37.3	-38.2	23.1	0.00e+00	92	27	0	609222656	48	5869
2026-01-16 19:51:46.23	1.01	14.75	-37.5	-38.5	22.9	0.00e+00	0	27	0	615514112	48	6066
2026-01-16 19:51:49.25	0.38	14.73	-37.9	-38.9	22.6	0.00e+00	0	27	0	620756992	48	6357
2026-01-16 19:51:52.28	359.75	14.71	-38.0	-39.0	22.4	0.00e+00	92	27	0	627048448	48	6451
2026-01-16 19:51:55.30	359.12	14.69	-37.5	-38.5	22.9	0.00e+00	2	27	0	632291328	48	6081
2026-01-16 19:51:58.33	358.49	14.66	-37.5	-38.5	22.9	0.00e+00	40	27	0	638582784	48	6065
2026-01-16 19:52:01.35	357.86	14.63	-37.7	-38.7	22.7	0.00e+00	45	27	0	643825664	48	6217
2026-01-16 19:52:04.38	357.23	14.59	-38.1	-39.2	22.3	0.00e+00	66	27	0	649068544	48	6580
2026-01-16 19:52:07.41	356.61	14.56	-37.9	-38.9	22.5	0.00e+00	5	27	0	655360000	48	6386
2026-01-16 19:52:10.44	355.98	14.51	-37.3	-38.2	23.1	0.00e+00	7	27	0	660602880	48	5865
2026-01-16 19:52:13.46	355.36	14.47	-37.5	-38.4	22.9	0.00e+00	92	27	0	666894336	48	6029
2026-01-16 19:52:16.49	354.74	14.42	-37.6	-38.7	22.7	0.00e+00	49	27	0	672137216	48	6183
2026-01-16 19:52:19.52	354.12	14.37	-37.5	-38.4	22.9	0.00e+00	0	27	0	677380096	48	6032
2026-01-16 19:52:22.54	353.51	14.32	-37.2	-38.2	23.1	0.00e+00	92	27	0	683671552	48	5837
2026-01-16 19:52:25.57	352.89	14.26	-37.3	-38.2	23.1	0.00e+00	6	27	0	688914432	48	5891
2026-01-16 19:52:28.60	352.28	14.20	-37.3	-38.3	23.1	0.00e+00	43	27	0	695205888	48	5901
2026-01-16 19:52:31.63	351.67	14.13	-37.3	-38.3	23.0	0.00e+00	92	27	0	700448768	48	5928
2026-01-16 19:52:34.65	351.07	14.07	-37.4	-38.4	23.0	0.00e+00	4	27	0	705691648	48	5994
2026-01-16 19:52:37.68	350.46	14.00	-37.6	-38.6	22.8	0.00e+00	0	27	0	711983104	48	6131
2026-01-16 19:52:40.71	349.86	13.92	-37.5	-38.4	22.9	0.00e+00	27	27	0	717225984	48	6015
2026-01-16 19:52:43.74	349.26	13.85	-37.4	-38.4	23.0	0.00e+00	45	27	0	723517440	48	5994
2026-01-16 19:52:46.76	348.67	13.77	-37.6	-38.6	22.8	0.00e+00	49	27	0	728760320	48	6130
2026-01-16 19:52:49.79	348.08	13.69	-37.6	-38.6	22.8	0.00e+00	0	27	0	735051776	48	6135
2026-01-16 19:52:52.81	347.49	13.60	-37.7	-38.7	22.7	0.00e+00	92	27	0	740294656	48	6187
2026-01-16 19:52:55.84	346.91	13.52	-38.0	-39.0	22.4	0.00e+00	0	27	0	745537536	48	6417
2026-01-16 19:52:58.87	346.33	13.43	-37.7	-38.7	22.7	0.00e+00	0	27	0	751828992	48	6191
2026-01-16 19:53:01.90	345.75	13.33	-37.4	-38.3	23.0	0.00e+00	92	27	0	757071872	48	5941
2026-01-16 19:53:04.92	345.18	13.24	-37.3	-38.3	23.0	0.00e+00	48	27	0	763363328	48	5899
2026-01-16 19:53:07.95	344.61	13.14	-37.2	-38.2	23.1	0.00e+00	35	27	0	768606208	48	5843
2026-01-16 19:53:10.98	344.04	13.04	-37.2	-38.2	23.1	0.00e+00	92	28	0	773849088	48	5863
2026-01-16 19:53:14.01	343.48	12.94	-37.2	-38.2	23.0	0.00e+00	0	28	0	780140544	48	5861
2026-01-16 19:53:17.04	342.92	12.84	-37.3	-38.3	23.0	0.00e+00	0	27	0	785383424	48	5935
2026-01-16 19:53:20.07	342.37	12.73	-37.4	-38.4	22.9	0.00e+00	2	28	0	791674880	48	5999
2026-01-16 19:53:23.10	341.82	12.62	-37.3	-38.2	22.9	0.00e+00	72	28	0	796917760	48	5887
2026-01-16 19:53:26.13	341.27	12.51	-37.3	-38.2	23.0	0.00e+00	49	28	0	803209216	48	5892
2026-01-16 19:53:29.15	340.73	12.40	-37.4	-38.4	22.9	0.00e+00	48	28	0	808452096	48	5973
2026-01-16 19:53:32.18	340.19	12.28	-37.5	-38.5	22.7	0.00e+00	92	28	0	813694976	48	6076
2026-01-16 19:53:35.21	339.66	12.17	-37.4	-38.4	22.9	0.00e+00	33	28	0	819986432	48	5981
2026-01-16 19:53:38.23	339.13	12.05	-37.6	-38.6	22.6	0.00e+00	0	28	0	825229312	48	6119
2026-01-16 19:53:41.26	338.61	11.93	-37.7	-38.8	22.5	0.00e+00	90	28	0	831520768	48	6251
2026-01-16 19:53:44.29	338.09	11.81	-38.0	-39.0	22.3	0.00e+00	0	28	0	836763648	48	6443
2026-01-16 19:53:47.31	337.57	11.69	-38.2	-39.3	22.0	0.00e+00	0	28	0	842006528	48	6644
2026-01-16 19:53:50.34	337.06	11.56	-38.3	-39.4	21.9	0.00e+00	38	28	0	848297984	48	6730
2026-01-16 19:53:53.37	336.55	11.43	-38.6	-39.7	21.6	0.00e+00	0	28	0	853540864	48	6945
2026-01-16 19:53:56.40	336.05	11.30	-38.7	-39.8	21.5	0.00e+00	7	28	0	859832320	48	7032
2026-01-16 19:53:59.43	335.55	11.18	-39.0	-40.2	21.1	0.00e+00	0	28	0	865075200	50	6545
2026-01-16 19:54:02.45	335.06	11.04	-39.2	-40.4	21.0	0.00e+00	52	28	0	870318080	50	6750
2026-01-16 19:54:05.48	334.57	10.91	-39.4	-40.7	20.7	0.00e+00	0	28	0	876609536	50	6971
2026-01-16 19:54:08.51	334.09	10.78	-39.7	-41.0	20.3	0.00e+00	46	28	0	881852416	50	7197
2026-01-16 19:54:11.54	333.61	10.64	-39.6	-40.8	20.5	0.00e+00	91	28	0	888143872	52	6310
2026-01-16 19:54:14.57	333.13	10.51	-40.0	-41.3	20.1	0.00e+00	40	28	0	893386752	52	6683
2026-01-16 19:54:17.59	332.66	10.37	-40.3	-41.8	19.6	0.00e+00	0	28	0	899678208	52	7016
2026-01-16 19:54:20.62	332.19	10.23	-40.4	-41.8	19.6	0.00e+00	92	28	0	904921088	52	7076
2026-01-16 19:54:23.65	331.73	10.09	-40.2	-41.6	19.9	0.00e+00	5	28	0	910163968	52	6893
2026-01-16 19:54:26.67	331.28	9.95	-40.5	-41.9	19.5	0.00e+00	0	28	0	916455424	52	7153
2026-01-16 19:54:29.70	330.82	9.81	-40.5	-42.0	19.5	0.00e+00	46	28	0	921698304	52	7198
2026-01-16 19:54:32.73	330.37	9.67	-40.5	-42.0	19.4	0.00e+00	92	28	0	927989760	52	7193
2026-01-16 19:54:35.76	329.93	9.53	-40.3	-41.7	19.6	0.00e+00	42	28	0	933232640	52	6991
2026-01-16 19:54:38.79	329.49	9.38	-40.3	-41.8	19.6	0.00e+00	34	28	0	938475520	52	7030
2026-01-16 19:54:41.82	329.05	9.24	-40.5	-42.0	19.3	0.00e+00	92	28	0	944766976	52	7250
2026-01-16 19:54:44.85	328.62	9.09	-40.5	-41.9	19.4	0.00e+00	0	28	0	950009856	52	7158
2026-01-16 19:54:47.87	328.20	8.95	-40.2	-41.6	19.7	0.00e+00	0	28	0	956301312	52	6904
2026-01-16 19:54:50.90	327.78	8.80	-39.9	-41.3	20.0	0.00e+00	92	28	0	961544192	52	6649
2026-01-16 19:54:53.93	327.36	8.65	-39.9	-41.2	20.2	0.00e+00	45	28	0	967835648	52	6594
2026-01-16 19:54:56.96	326.94	8.50	-40.1	-41.5	19.8	0.00e+00	46	28	0	973078528	52	6799
2026-01-16 19:54:59.99	326.53	8.35	-39.8	-41.1	20.2	0.00e+00	28	28	0	978321408	52	6499
2026-01-16 19:55:03.01	326.13	8.21	-39.7	-41.0	20.3	0.00e+00	36	28	0	984612864	52	6447
2026-01-16 19:55:06.04	325.73	8.06	-39.5	-40.8	20.5	0.00e+00	2	28	0	989855744	52	6304
2026-01-16 19:55:09.07	325.33	7.91	-39.4	-40.6	20.7	0.00e+00	0	28	0	996147200	52	6154
2026-01-16 19:55:12.09	324.94	7.76	-39.1	-40.3	20.9	0.00e+00	90	28	0	1001390080	52	5963
2026-01-16 19:55:15.12	324.55	7.61	-39.0	-40.2	21.0	0.00e+00	0	28	0	1006632960	52	5853
2026-01-16 19:55:18.15	324.17	7.45	-38.9	-40.1	21.2	0.00e+00	45	29	0	1012924416	52	5778
2026-01-16 19:55:21.18	323.79	7.30	-38.5	-39.7	21.5	0.00e+00	91	29	0	1018167296	50	6188
2026-01-16 19:55:24.21	323.41	7.15	-38.6	-39.7	21.4	0.00e+00	0	28	0	1024458752	50	6237
2026-01-16 19:55:27.23	323.04	7.00	-38.5	-39.6	21.5	0.00e+00	0	29	0	1029701632	50	6148
2026-01-16 19:55:30.26	322.67	6.85	-38.2	-39.3	21.7	0.00e+00	92	29	0	1034944512	50	5948
2026-01-16 19:55:33.29	322.31	6.70	-38.2	-39.3	21.7	0.00e+00	38	29	0	1041235968	50	5952
2026-01-16 19:55:36.31	321.95	6.54	-38.2	-39.3	21.7	0.00e+00	0	29	0	1046478848	50	5953
2026-01-16 19:55:39.34	321.59	6.39	-38.4	-39.5	21.2	0.00e+00	0	29	0	1052770304	50	6098
2026-01-16 19:55:42.37	321.24	6.24	-38.5	-39.6	21.4	0.00e+00	0	29	0	1058013184	50	6171
2026-01-16 19:55:45.40	320.89	6.08	-38.5	-39.7	21.3	0.00e+00	42	29	0	1064304640	50	6193
2026-01-16 19:55:48.43	320.54	5.93	-38.6	-39.8	21.3	0.00e+00	6	29	0	1069547520	50	6246
2026-01-16 19:55:51.45	320.20	5.78	-38.6	-39.7	21.2	0.00e+00	91	29	0	1074790400	50	6214
2026-01-16 19:55:54.48	319.87	5.62	-38.6	-39.7	21.2	0.00e+00	42	29	0	1081081856	50	6232
2026-01-16 19:55:57.51	319.53	5.47	-39.1	-40.3	20.6	0.00e+00	43	29	0	1086324736	50	6691
2026-01-16 19:56:00.54	319.20	5.32	-38.8	-40.0	20.8	0.00e+00	92	29	0	1092616192	50	6459
2026-01-16 19:56:03.57	318.87	5.16	-39.0	-40.3	20.7	0.00e+00	40	29	0	1097859072	50	6664
2026-01-16 19:56:06.59	318.55	5.01	-39.2	-40.5	20.6	0.00e+00	45	29	0	1103101952	50	6838
2026-01-16 19:56:09.62	318.23	4.86	-38.8	-40.1	20.9	0.00e+00	49	29	0	1109393408	50	6478
2026-01-16 19:56:12.65	317.91	4.71	-39.0	-40.3	20.6	0.00e+00	6	29	0	1114636288	50	6649
2026-01-16 19:56:15.68	317.60	4.55	-38.9	-40.1	20.7	0.00e+00	0	29	0	1120927744	50	6535
2026-01-16 19:56:18.70	317.29	4.40	-39.5	-40.9	20.0	0.00e+00	42	29	0	1126170624	50	7142
2026-01-16 19:56:21.73	316.98	4.25	-39.7	-41.1	19.8	0.00e+00	92	29	0	1132462080	52	6491
2026-01-16 19:56:24.76	316.68	4.09	-39.8	-41.2	19.5	0.00e+00	38	29	0	1137704960	52	6589
2026-01-16 19:56:27.79	316.38	3.94	-39.6	-41.1	19.8	0.00e+00	45	29	0	1142947840	52	6476
2026-01-16 19:56:30.82	316.08	3.79	-39.9	-41.3	19.3	0.00e+00	92	29	0	1149239296	52	6678
2026-01-16 19:56:33.85	315.79	3.64	-39.9	-41.4	19.3	0.00e+00	0	29	0	1154482176	52	6742
2026-01-16 19:56:36.88	315.50	3.48	-40.4	-42.1	18.7	0.00e+00	41	29	0	1160773632	52	7263
2026-01-16 19:56:39.90	315.21	3.33	-40.8	-42.5	18.2	0.00e+00	92	29	0	1166016512	54	6839
2026-01-16 19:56:42.93	314.93	3.18	-40.7	-42.4	18.3	0.00e+00	0	29	0	1171259392	54	6721
2026-01-16 19:56:45.96	314.65	3.03	-41.0	-42.9	17.8	0.00e+00	41	29	0	1177550848	54	7108
2026-01-16 19:56:48.99	314.37	2.88	-47.9	-63.0	3.6	1.51e+00	0	29	104	1178599424	60	51164
2026-01-16 19:56:52.02	314.09	2.72	-48.1	-63.3	3.6	1.51e+00	0	29	104	1178599424	60	52758
2026-01-16 19:56:55.05	313.82	2.57	-48.2	-63.4	3.6	1.51e+00	0	29	104	1178599424	60	53394
2026-01-16 19:56:58.08	313.55	2.42	-47.7	-63.3	3.6	1.51e+00	0	29	104	1178599424	60	52636
2026-01-16 19:57:01.11	313.28	2.27	-47.9	-63.1	3.6	1.51e+00	0	29	104	1178599424	60	51914
2026-01-16 19:57:04.14	313.02	2.12	-48.1	-63.3	3.6	1.51e+00	0	29	104	1178599424	60	52775
2026-01-16 19:57:07.17	312.76	1.97	-48.1	-63.2	3.6	1.51e+00	0	29	104	1178599424	60	52509
2026-01-16 19:57:10.20	312.50	1.82	-48.2	-63.4	3.6	1.51e+00	0	29	104	1178599424	60	53482
2026-01-16 19:57:13.23	312.25	1.67	-48.1	-63.2	3.6	1.51e+00	0	29	104	1178599424	60	52428
2026-01-16 19:57:16.25	311.99	1.52	-48.0	-63.3	3.6	1.51e+00	0	29	104	1178599424	60	53004
2026-01-16 19:57:19.28	311.74	1.37	-48.0	-63.3	3.6	1.51e+00	0	29	104	1178599424	60	52566
2026-01-16 19:57:22.31	311.50	1.22	-48.1	-63.3	3.6	1.51e+00	0	29	104	1178599424	60	52718
2026-01-16 19:57:25.34	311.25	1.07	-48.1	-63.3	3.6	1.51e+00	0	29	104	1178599424	60	52591
2026-01-16 19:57:28.37	311.01	0.93	-48.1	-63.3	3.6	1.51e+00	0	29	104	1178599424	60	52746
2026-01-16 19:57:31.39	310.77	0.78	-48.2	-63.4	3.6	1.51e+00	0	29	104	1178599424	60	53469
2026-01-16 19:57:34.42	310.53	0.63	-48.1	-63.3	3.6	1.51e+00	0	30	104	1178599424	60	52599
2026-01-16 19:57:37.45	310.29	0.48	-48.2	-63.4	3.6	1.51e+00	0	30	104	1178599424	60	53176
2026-01-16 19:57:40.48	310.06	0.33	-48.1	-63.3	3.6	1.51e+00	0	30	104	1178599424	60	52554
2026-01-16 19:57:43.51	309.83	0.19	-48.1	-63.3	3.6	1.51e+00	0	30	104	1178599424	60	52786
2026-01-16 19:57:46.54	309.60	0.04	-48.2	-63.3	3.6	1.51e+00	0	30	104	1178599424	60	52984

#Closed at: 2026-01-16 19:57:48
#Recorded file [1178 MB]: D:/lorett/data/35029_260117_074518.dat