passes_logs/2026/01/16/R4.6S_Anadyr/R4.6S_Anadyr__20260116_031926_FENGYUN_3D_rec.log

#Pass ID: 20260116_031926_FENGYUN 3D
#Satellite: FENGYUN 3D
#Configuration: FENGYUN 3D
#almurnet v.1.7.20251203
#Start time: 2026-01-16 03:19:28

#Version: 2.2.20231116
#Station: R4.6S_Anadyr
#Location: 177.4865 lon 64.73178 lat
#TLE: 1 43010U 17072A   26014.65117763 -.00000217  00000+0 -80772-4 0  9993
#TLE: 2 43010  98.9933 346.4618 0002330 108.4699 251.6730 14.19694700423204

#Time	Az	El	Level	Level2	SNR	BER	BlckErr	Temp	State	Recorded	gain1	gain2
2026-01-16 03:19:28.77	183.11	0.15	-48.6	-66.4	3.5	3.02e+01	0	26	0	0	60	79952
2026-01-16 03:19:32.80	183.26	0.38	-48.2	-60.3	3.6	8.45e-01	0	27	104	0	60	37452
2026-01-16 03:19:36.84	183.40	0.62	-47.9	-60.3	3.6	8.45e-01	0	27	104	0	60	37447
2026-01-16 03:19:40.88	183.55	0.86	-47.5	-59.9	3.6	8.46e-01	0	27	104	0	60	35704
2026-01-16 03:19:44.91	183.70	1.10	-46.7	-58.6	3.6	8.44e-01	0	28	104	0	60	30903
2026-01-16 03:19:48.95	183.86	1.34	-46.7	-58.7	3.6	8.45e-01	0	28	104	0	60	31101
2026-01-16 03:19:52.99	184.02	1.59	-46.7	-58.6	3.6	8.45e-01	0	28	104	0	60	30677
2026-01-16 03:19:57.03	184.17	1.83	-46.6	-58.4	3.6	8.45e-01	0	28	104	0	60	30174
2026-01-16 03:20:01.07	184.34	2.08	-46.6	-58.5	3.6	8.44e-01	0	28	104	0	60	30559
2026-01-16 03:20:05.10	184.50	2.33	-46.7	-58.8	3.6	8.45e-01	0	28	104	0	60	31340
2026-01-16 03:20:09.14	184.67	2.58	-46.4	-56.1	3.6	8.44e-01	0	28	104	0	60	23161
2026-01-16 03:20:13.18	184.83	2.84	-46.5	-56.8	3.6	8.44e-01	0	28	104	0	60	25002
2026-01-16 03:20:17.21	185.01	3.09	-40.8	-42.4	15.4	1.10e-06	0	28	0	13631488	56	5979
2026-01-16 03:20:21.25	185.18	3.35	-36.1	-37.0	20.7	0.00e+00	0	28	0	36700160	46	5722
2026-01-16 03:20:25.29	185.36	3.61	-37.0	-38.0	19.7	0.00e+00	0	28	0	59768832	46	6394
2026-01-16 03:20:29.33	185.54	3.88	-40.3	-41.7	16.2	0.00e+00	0	28	0	73400320	52	6972
2026-01-16 03:20:33.37	185.72	4.14	-37.8	-38.9	19.0	0.00e+00	0	28	0	95420416	48	6321
2026-01-16 03:20:37.40	185.91	4.41	-36.1	-37.0	20.7	0.00e+00	0	28	0	117440512	46	5738
2026-01-16 03:20:41.43	186.10	4.68	-34.7	-35.6	22.2	0.00e+00	0	28	0	140509184	44	5455
2026-01-16 03:20:45.47	186.29	4.95	-34.8	-35.6	22.1	0.00e+00	0	28	0	162529280	42	6104
2026-01-16 03:20:49.50	186.49	5.23	-34.4	-35.2	22.6	0.00e+00	0	28	0	185597952	42	5831
2026-01-16 03:20:53.54	186.69	5.51	-34.2	-35.0	22.9	0.00e+00	0	28	0	208666624	42	5717
2026-01-16 03:20:57.58	186.89	5.79	-34.1	-34.9	23.0	0.00e+00	0	28	0	231735296	42	5654
2026-01-16 03:21:01.61	187.10	6.07	-34.1	-34.9	23.1	0.00e+00	0	29	0	253755392	42	5636
2026-01-16 03:21:05.65	187.31	6.36	-34.5	-35.3	22.8	0.00e+00	0	29	0	276824064	42	5906
2026-01-16 03:21:09.69	187.52	6.65	-34.0	-34.7	23.2	0.00e+00	0	29	0	299892736	42	5550
2026-01-16 03:21:13.72	187.74	6.94	-33.8	-34.6	23.4	0.00e+00	0	29	0	321912832	42	5471
2026-01-16 03:21:17.76	187.97	7.23	-33.8	-34.5	23.5	0.00e+00	0	29	0	344981504	40	6080
2026-01-16 03:21:21.80	188.19	7.53	-33.7	-34.4	23.6	0.00e+00	0	29	0	367001600	40	5992
2026-01-16 03:21:25.83	188.43	7.83	-33.5	-34.2	23.9	0.00e+00	0	29	0	390070272	40	5867
2026-01-16 03:21:29.87	188.66	8.14	-33.5	-34.2	23.9	0.00e+00	0	29	0	413138944	40	5843
2026-01-16 03:21:33.91	188.90	8.45	-33.6	-34.3	23.8	0.00e+00	0	29	0	435159040	40	5964
2026-01-16 03:21:37.95	189.15	8.76	-33.2	-33.9	24.2	0.00e+00	0	29	0	458227712	40	5681
2026-01-16 03:21:41.99	189.40	9.07	-33.1	-33.8	24.3	0.00e+00	0	29	0	481296384	40	5587
2026-01-16 03:21:46.02	189.66	9.39	-32.9	-33.6	24.7	0.00e+00	0	29	0	503316480	40	5448
2026-01-16 03:21:50.06	189.92	9.72	-32.7	-33.4	24.7	0.00e+00	0	29	0	526385152	40	5361
2026-01-16 03:21:54.09	190.19	10.04	-32.7	-33.4	24.8	0.00e+00	0	29	0	549453824	38	6009
2026-01-16 03:21:58.13	190.46	10.37	-32.8	-33.5	24.7	0.00e+00	0	29	0	571473920	38	6038
2026-01-16 03:22:02.16	190.74	10.70	-32.4	-33.1	25.0	0.00e+00	0	29	0	594542592	38	5822
2026-01-16 03:22:06.20	191.02	11.04	-32.5	-33.2	25.1	0.00e+00	0	29	0	617611264	38	5841
2026-01-16 03:22:10.24	191.32	11.38	-32.4	-33.1	25.1	0.00e+00	0	29	0	639631360	38	5765
2026-01-16 03:22:14.28	191.61	11.73	-32.4	-33.1	25.1	0.00e+00	0	29	0	662700032	38	5819
2026-01-16 03:22:18.31	191.92	12.08	-32.5	-33.1	25.1	0.00e+00	0	29	0	685768704	38	5820
2026-01-16 03:22:22.34	192.23	12.44	-32.4	-33.1	25.1	0.00e+00	0	29	0	707788800	38	5819
2026-01-16 03:22:26.37	192.55	12.79	-32.1	-32.8	25.5	0.00e+00	0	29	0	730857472	38	5568
2026-01-16 03:22:30.42	192.88	13.16	-32.1	-32.8	25.5	0.00e+00	0	29	0	752877568	38	5592
2026-01-16 03:22:34.45	193.21	13.53	-32.0	-32.7	25.6	0.00e+00	0	29	0	775946240	38	5518
2026-01-16 03:22:38.49	193.55	13.90	-31.7	-32.3	25.8	0.00e+00	0	29	0	799014912	36	5964
2026-01-16 03:22:42.52	193.90	14.28	-31.6	-32.3	26.0	0.00e+00	0	29	0	821035008	36	5922
2026-01-16 03:22:46.56	194.26	14.66	-31.6	-32.2	25.9	0.00e+00	0	29	0	844103680	36	5886
2026-01-16 03:22:50.60	194.63	15.05	-31.3	-32.0	26.2	0.00e+00	0	29	0	867172352	36	5727
2026-01-16 03:22:54.64	195.01	15.44	-31.3	-32.0	26.2	0.00e+00	0	30	0	890241024	36	5703
2026-01-16 03:22:58.67	195.40	15.84	-31.1	-31.8	26.3	0.00e+00	0	30	0	912261120	36	5574
2026-01-16 03:23:02.71	195.79	16.25	-31.1	-31.7	26.4	0.00e+00	0	30	0	935329792	36	5565
2026-01-16 03:23:06.75	196.20	16.66	-31.0	-31.6	26.5	0.00e+00	0	30	0	957349888	36	5490
2026-01-16 03:23:10.78	196.62	17.07	-30.7	-31.4	26.7	0.00e+00	0	30	0	980418560	34	5972
2026-01-16 03:23:14.82	197.05	17.49	-30.5	-31.1	27.0	0.00e+00	0	29	0	1003487232	34	5820
2026-01-16 03:23:18.85	197.49	17.92	-30.6	-31.2	26.9	0.00e+00	0	29	0	1025507328	34	5883
2026-01-16 03:23:22.89	197.95	18.35	-30.4	-31.0	27.0	0.00e+00	0	29	0	1048576000	34	5761
2026-01-16 03:23:26.92	198.41	18.79	-30.3	-30.9	27.1	0.00e+00	0	30	0	1071644672	34	5691
2026-01-16 03:23:30.96	198.89	19.24	-30.4	-31.0	27.1	0.00e+00	0	30	0	1093664768	34	5739
2026-01-16 03:23:35.00	199.39	19.69	-30.3	-31.0	27.1	0.00e+00	0	30	0	1116733440	34	5734
2026-01-16 03:23:39.04	199.90	20.15	-30.5	-31.2	26.9	0.00e+00	0	30	0	1139802112	34	5858
2026-01-16 03:23:43.08	200.42	20.61	-30.3	-30.9	27.2	0.00e+00	0	30	0	1161822208	34	5680
2026-01-16 03:23:47.11	200.96	21.08	-30.3	-31.0	27.1	0.00e+00	0	30	0	1184890880	34	5722
2026-01-16 03:23:51.15	201.51	21.55	-30.0	-30.7	27.4	0.00e+00	0	30	0	1207959552	34	5520
2026-01-16 03:23:55.19	202.09	22.04	-30.1	-30.7	27.4	0.00e+00	0	30	0	1229979648	34	5531
2026-01-16 03:23:59.22	202.67	22.52	-30.1	-30.7	27.5	0.00e+00	0	30	0	1253048320	34	5536
2026-01-16 03:24:03.26	203.28	23.02	-29.9	-30.5	27.7	0.00e+00	0	30	0	1276116992	34	5402
2026-01-16 03:24:07.29	203.91	23.52	-29.5	-30.1	27.9	0.00e+00	0	30	0	1298137088	32	5787
2026-01-16 03:24:11.33	204.56	24.03	-29.5	-30.2	27.9	0.00e+00	0	30	0	1321205760	32	5858
2026-01-16 03:24:15.37	205.22	24.54	-29.3	-30.0	28.0	0.00e+00	0	30	0	1343225856	32	5711
2026-01-16 03:24:19.40	205.91	25.06	-29.2	-29.8	28.1	0.00e+00	0	30	0	1366294528	32	5623
2026-01-16 03:24:23.44	206.62	25.59	-29.2	-29.8	28.2	0.00e+00	0	30	0	1389363200	32	5578
2026-01-16 03:24:27.48	207.36	26.12	-29.2	-29.8	28.2	0.00e+00	0	30	0	1412431872	32	5570
2026-01-16 03:24:31.52	208.12	26.66	-29.1	-29.7	28.2	0.00e+00	0	30	0	1434451968	32	5566
2026-01-16 03:24:35.55	208.91	27.20	-29.1	-29.7	28.3	0.00e+00	0	30	0	1457520640	32	5560
2026-01-16 03:24:39.58	209.72	27.75	-29.1	-29.7	28.2	0.00e+00	0	30	0	1480589312	32	5550
2026-01-16 03:24:43.62	210.56	28.30	-28.8	-29.4	28.4	0.00e+00	0	30	0	1502609408	32	5347
2026-01-16 03:24:47.66	211.43	28.86	-29.2	-29.8	28.1	0.00e+00	0	30	0	1525678080	32	5603
2026-01-16 03:24:51.70	212.33	29.42	-29.0	-29.7	28.3	0.00e+00	0	30	0	1547698176	32	5511
2026-01-16 03:24:55.73	213.25	29.98	-29.0	-29.6	28.2	0.00e+00	0	30	0	1570766848	32	5484
2026-01-16 03:24:59.77	214.22	30.55	-29.0	-29.6	28.4	0.00e+00	0	30	0	1593835520	30	6156
2026-01-16 03:25:03.81	215.21	31.12	-28.9	-29.5	28.4	0.00e+00	0	30	0	1615855616	30	6071
2026-01-16 03:25:07.84	216.24	31.69	-29.0	-29.6	28.4	0.00e+00	0	30	0	1638924288	30	6173
2026-01-16 03:25:11.88	217.31	32.26	-28.8	-29.3	28.6	0.00e+00	0	30	0	1661992960	30	5960
2026-01-16 03:25:15.92	218.42	32.84	-29.0	-29.7	28.4	0.00e+00	0	30	0	1684013056	30	6177
2026-01-16 03:25:19.95	219.56	33.41	-28.8	-29.4	28.5	0.00e+00	0	30	0	1707081728	30	6020
2026-01-16 03:25:23.99	220.74	33.97	-29.2	-29.8	28.3	0.00e+00	0	30	0	1730150400	30	6308
2026-01-16 03:25:28.03	221.97	34.54	-29.0	-29.6	28.3	0.00e+00	0	30	0	1752170496	30	6138
2026-01-16 03:25:32.07	223.24	35.10	-28.9	-29.5	28.4	0.00e+00	0	30	0	1775239168	30	6062
2026-01-16 03:25:36.11	224.55	35.65	-29.1	-29.8	28.5	0.00e+00	0	30	0	1798307840	30	6251
2026-01-16 03:25:40.14	225.90	36.20	-28.8	-29.4	28.5	0.00e+00	0	30	0	1820327936	30	6013
2026-01-16 03:25:44.18	227.30	36.74	-28.7	-29.3	28.6	0.00e+00	0	30	0	1843396608	30	5908
2026-01-16 03:25:48.22	228.75	37.27	-28.6	-29.2	28.7	0.00e+00	0	30	0	1866465280	30	5887
2026-01-16 03:25:52.25	230.24	37.78	-28.6	-29.3	28.7	0.00e+00	0	30	0	1888485376	30	5905
2026-01-16 03:25:56.29	231.78	38.28	-29.0	-29.6	28.5	0.00e+00	0	30	0	1911554048	30	6127
2026-01-16 03:26:00.32	233.36	38.76	-28.7	-29.3	28.6	0.00e+00	0	30	0	1933574144	30	5930
2026-01-16 03:26:04.36	234.99	39.23	-28.5	-29.1	28.8	0.00e+00	0	30	0	1956642816	30	5795
2026-01-16 03:26:08.40	236.67	39.68	-28.7	-29.3	28.6	0.00e+00	0	30	0	1979711488	30	5953
2026-01-16 03:26:12.43	238.38	40.10	-28.7	-29.3	28.6	0.00e+00	0	30	0	2002780160	30	5955
2026-01-16 03:26:16.47	240.15	40.50	-28.5	-29.1	28.7	0.00e+00	0	30	0	2024800256	30	5803
2026-01-16 03:26:20.51	241.96	40.87	-28.5	-29.1	28.8	0.00e+00	0	30	0	2047868928	30	5780
2026-01-16 03:26:24.54	243.80	41.21	-28.8	-29.4	28.5	0.00e+00	0	30	0	2070937600	30	6023
2026-01-16 03:26:28.57	245.68	41.53	-28.6	-29.2	28.6	0.00e+00	0	30	0	2092957696	30	5887
2026-01-16 03:26:32.61	247.60	41.81	-28.6	-29.2	28.6	0.00e+00	0	30	0	2116026368	30	5859
2026-01-16 03:26:36.65	249.55	42.06	-28.7	-29.3	28.6	0.00e+00	0	30	0	2138046464	30	5943
2026-01-16 03:26:40.69	251.53	42.27	-28.9	-29.5	28.4	0.00e+00	0	30	0	2161115136	30	6047
2026-01-16 03:26:44.73	253.53	42.45	-28.8	-29.4	28.5	0.00e+00	0	30	0	2184183808	30	6018
2026-01-16 03:26:48.77	255.55	42.58	-28.7	-29.4	28.5	0.00e+00	0	30	0	2206203904	30	5988
2026-01-16 03:26:52.80	257.58	42.68	-28.9	-29.5	28.4	0.00e+00	0	30	0	2229272576	30	6036
2026-01-16 03:26:56.84	259.62	42.74	-28.8	-29.4	28.5	0.00e+00	0	30	0	2252341248	30	6007
2026-01-16 03:27:00.88	261.67	42.76	-29.0	-29.6	28.4	0.00e+00	0	30	0	2275409920	30	6159
2026-01-16 03:27:04.92	263.72	42.74	-28.9	-29.5	28.4	0.00e+00	0	30	0	2297430016	30	6066
2026-01-16 03:27:08.95	265.76	42.68	-28.9	-29.5	28.2	0.00e+00	0	30	0	2320498688	30	6086
2026-01-16 03:27:12.99	267.80	42.58	-29.0	-29.6	28.3	0.00e+00	0	30	0	2342518784	30	6171
2026-01-16 03:27:17.02	269.81	42.44	-28.9	-29.4	28.4	0.00e+00	0	30	0	2365587456	30	6029
2026-01-16 03:27:21.07	271.81	42.27	-29.1	-29.8	28.2	0.00e+00	0	30	0	2388656128	30	6247
2026-01-16 03:27:25.11	273.79	42.05	-29.1	-29.7	28.3	0.00e+00	0	30	0	2410676224	30	6239
2026-01-16 03:27:29.14	275.73	41.80	-28.8	-29.4	28.4	0.00e+00	0	30	0	2433744896	30	5987
2026-01-16 03:27:33.18	277.65	41.52	-28.6	-29.3	28.6	0.00e+00	0	30	0	2456813568	30	5937
2026-01-16 03:27:37.22	279.53	41.21	-28.9	-29.5	28.4	0.00e+00	0	30	0	2478833664	30	6050
2026-01-16 03:27:41.26	281.37	40.86	-28.6	-29.2	28.6	0.00e+00	0	30	0	2501902336	30	5841
2026-01-16 03:27:45.30	283.17	40.49	-28.7	-29.4	28.6	0.00e+00	0	29	0	2524971008	30	5972
2026-01-16 03:27:49.34	284.94	40.09	-28.6	-29.2	28.6	0.00e+00	0	29	0	2546991104	30	5852
2026-01-16 03:27:53.37	286.65	39.67	-28.7	-29.3	28.5	0.00e+00	0	30	0	2570059776	30	5930
2026-01-16 03:27:57.41	288.32	39.23	-28.6	-29.2	28.6	0.00e+00	0	30	0	2593128448	30	5829
2026-01-16 03:28:01.45	289.95	38.76	-28.6	-29.3	28.5	0.00e+00	0	30	0	2615148544	30	5908
2026-01-16 03:28:05.48	291.52	38.28	-28.8	-29.3	28.5	0.00e+00	0	30	0	2638217216	30	5958
2026-01-16 03:28:09.51	293.06	37.78	-28.6	-29.1	28.6	0.00e+00	0	30	0	2661285888	30	5822
2026-01-16 03:28:13.55	294.54	37.27	-28.1	-28.7	28.9	0.00e+00	0	30	0	2683305984	30	5514
2026-01-16 03:28:17.57	295.98	36.75	-28.8	-29.4	28.4	0.00e+00	0	30	0	2706374656	30	6009
2026-01-16 03:28:21.61	297.37	36.21	-28.4	-28.9	28.6	0.00e+00	0	29	0	2728394752	30	5691
2026-01-16 03:28:25.65	298.73	35.66	-28.4	-29.0	28.7	0.00e+00	0	29	0	2751463424	30	5738
2026-01-16 03:28:29.68	300.03	35.11	-28.5	-29.2	28.5	0.00e+00	0	29	0	2774532096	30	5881
2026-01-16 03:28:33.72	301.29	34.56	-29.3	-30.0	28.0	0.00e+00	0	29	0	2796552192	30	6405
2026-01-16 03:28:37.76	302.52	33.99	-28.7	-29.4	28.5	0.00e+00	0	29	0	2819620864	30	5988
2026-01-16 03:28:41.78	303.69	33.43	-28.6	-29.3	28.3	0.00e+00	0	29	0	2842689536	30	5935
2026-01-16 03:28:45.82	304.83	32.86	-28.8	-29.3	28.0	0.00e+00	0	29	0	2864709632	30	5932
2026-01-16 03:28:49.87	305.94	32.29	-29.0	-29.6	28.2	0.00e+00	0	29	0	2887778304	30	6108
2026-01-16 03:28:53.90	307.00	31.72	-29.1	-29.7	28.2	0.00e+00	0	29	0	2910846976	30	6227
2026-01-16 03:28:57.93	308.03	31.16	-28.9	-29.4	28.2	0.00e+00	0	29	0	2932867072	30	6016
2026-01-16 03:29:01.96	309.02	30.59	-29.5	-30.1	27.8	0.00e+00	0	29	0	2955935744	30	6487
2026-01-16 03:29:05.99	309.98	30.03	-29.6	-30.1	27.9	0.00e+00	0	29	0	2979004416	30	6524
2026-01-16 03:29:10.03	310.91	29.47	-29.3	-30.0	28.0	0.00e+00	0	29	0	3001024512	30	6458
2026-01-16 03:29:14.07	311.80	28.91	-29.5	-30.1	27.9	0.00e+00	0	29	0	3024093184	30	6475
2026-01-16 03:29:18.10	312.67	28.35	-29.2	-29.7	28.0	0.00e+00	0	29	0	3047161856	30	6243
2026-01-16 03:29:22.14	313.51	27.80	-29.3	-30.0	28.0	0.00e+00	0	29	0	3069181952	30	6420
2026-01-16 03:29:26.18	314.32	27.26	-29.3	-29.9	27.9	0.00e+00	0	29	0	3092250624	30	6345
2026-01-16 03:29:30.21	315.10	26.72	-29.4	-29.9	27.9	0.00e+00	0	29	0	3114270720	30	6376
2026-01-16 03:29:34.25	315.86	26.18	-29.2	-29.9	28.0	0.00e+00	0	29	0	3137339392	30	6376
2026-01-16 03:29:38.28	316.60	25.66	-29.6	-30.3	27.7	0.00e+00	0	29	0	3160408064	30	6661
2026-01-16 03:29:42.32	317.31	25.13	-29.4	-30.0	27.9	0.00e+00	0	29	0	3182428160	32	5718
2026-01-16 03:29:46.35	318.00	24.62	-29.6	-30.1	27.7	0.00e+00	0	29	0	3205496832	32	5801
2026-01-16 03:29:50.39	318.66	24.10	-29.6	-30.3	27.7	0.00e+00	0	29	0	3228565504	32	5938
2026-01-16 03:29:54.43	319.31	23.60	-29.6	-30.1	27.7	0.00e+00	0	29	0	3250585600	32	5813
2026-01-16 03:29:58.47	319.94	23.10	-29.8	-30.4	27.5	0.00e+00	0	29	0	3273654272	32	5992
2026-01-16 03:30:02.50	320.54	22.61	-30.0	-30.7	27.4	0.00e+00	0	29	0	3296722944	32	6186
2026-01-16 03:30:06.54	321.13	22.12	-30.0	-30.7	27.4	0.00e+00	0	29	0	3318743040	32	6181
2026-01-16 03:30:10.58	321.71	21.64	-30.0	-30.8	27.3	0.00e+00	0	29	0	3341811712	32	6255
2026-01-16 03:30:14.62	322.26	21.17	-30.4	-30.9	27.0	0.00e+00	0	29	0	3364880384	32	6370
2026-01-16 03:30:18.66	322.80	20.70	-30.5	-31.0	26.9	0.00e+00	0	29	0	3386900480	32	6451
2026-01-16 03:30:22.69	323.32	20.24	-30.6	-31.2	26.8	0.00e+00	0	29	0	3409969152	32	6556
2026-01-16 03:30:26.73	323.83	19.79	-30.9	-31.5	26.5	0.00e+00	0	29	0	3433037824	34	6088
2026-01-16 03:30:30.76	324.33	19.34	-31.2	-31.8	26.2	0.00e+00	0	29	0	3455057920	34	6280
2026-01-16 03:30:34.80	324.81	18.89	-30.9	-31.5	26.5	0.00e+00	0	29	0	3478126592	34	6090
2026-01-16 03:30:38.84	325.28	18.46	-30.9	-31.4	26.5	0.00e+00	0	29	0	3501195264	34	6021
2026-01-16 03:30:42.87	325.73	18.03	-30.8	-31.4	26.6	0.00e+00	0	29	0	3523215360	34	5999
2026-01-16 03:30:46.91	326.17	17.60	-30.9	-31.5	26.5	0.00e+00	0	29	0	3546284032	34	6076
2026-01-16 03:30:50.95	326.61	17.18	-31.2	-31.7	26.3	0.00e+00	0	29	0	3569352704	34	6228
2026-01-16 03:30:54.99	327.03	16.77	-31.4	-31.9	26.1	0.00e+00	0	29	0	3591372800	34	6381
2026-01-16 03:30:59.02	327.44	16.36	-31.6	-32.3	25.9	0.00e+00	0	29	0	3614441472	34	6684
2026-01-16 03:31:03.06	327.83	15.96	-31.9	-32.7	25.6	0.00e+00	0	29	0	3636461568	36	6191
2026-01-16 03:31:07.10	328.22	15.56	-32.0	-32.7	25.5	0.00e+00	0	29	0	3659530240	36	6224
2026-01-16 03:31:11.13	328.60	15.17	-32.1	-32.8	25.4	0.00e+00	0	29	0	3682598912	36	6284
2026-01-16 03:31:15.17	328.97	14.79	-31.9	-32.5	25.5	0.00e+00	0	29	0	3704619008	36	6054
2026-01-16 03:31:19.21	329.33	14.40	-31.9	-32.5	25.5	0.00e+00	0	29	0	3727687680	36	6036
2026-01-16 03:31:23.25	329.69	14.03	-32.1	-32.8	25.4	0.00e+00	0	29	0	3750756352	36	6286
2026-01-16 03:31:27.28	330.03	13.66	-32.3	-32.9	25.2	0.00e+00	0	29	0	3773825024	36	6354
2026-01-16 03:31:31.32	330.37	13.29	-32.4	-33.1	25.0	0.00e+00	0	29	0	3795845120	36	6479
2026-01-16 03:31:35.36	330.70	12.93	-32.5	-33.1	25.0	0.00e+00	0	29	0	3818913792	36	6478
2026-01-16 03:31:39.40	331.02	12.57	-32.5	-33.1	24.9	0.00e+00	0	29	0	3840933888	36	6516
2026-01-16 03:31:43.43	331.33	12.22	-32.7	-33.3	24.7	0.00e+00	0	29	0	3864002560	36	6675
2026-01-16 03:31:47.47	331.64	11.87	-32.8	-33.6	24.6	0.00e+00	0	29	0	3887071232	38	6159
2026-01-16 03:31:51.51	331.94	11.52	-33.2	-33.9	24.2	0.00e+00	0	28	0	3909091328	38	6359
2026-01-16 03:31:55.54	332.23	11.18	-33.1	-33.8	24.3	0.00e+00	0	28	0	3932160000	38	6255
2026-01-16 03:31:59.58	332.52	10.85	-33.3	-33.9	24.1	0.00e+00	0	28	0	3955228672	38	6381
2026-01-16 03:32:03.58	332.80	10.52	-33.3	-34.0	24.2	0.00e+00	0	28	0	3977248768	38	6416
2026-01-16 03:32:07.62	333.07	10.19	-33.1	-33.9	24.2	0.00e+00	0	28	0	4000317440	38	6360
2026-01-16 03:32:11.66	333.34	9.86	-33.1	-33.8	24.2	0.00e+00	0	28	0	4022337536	38	6272
2026-01-16 03:32:15.69	333.61	9.54	-33.3	-33.9	24.1	0.00e+00	0	28	0	4045406208	38	6365
2026-01-16 03:32:19.73	333.87	9.23	-33.5	-34.2	23.8	0.00e+00	0	28	0	4068474880	38	6568
2026-01-16 03:32:23.76	334.12	8.91	-33.6	-34.4	23.6	0.00e+00	0	28	0	4090494976	38	6742
2026-01-16 03:32:27.80	334.37	8.60	-33.7	-34.5	23.6	0.00e+00	0	29	0	4113563648	40	6073
2026-01-16 03:32:31.84	334.61	8.29	-33.7	-34.6	23.5	0.00e+00	0	28	0	4136632320	40	6106
2026-01-16 03:32:35.87	334.85	7.99	-33.9	-34.7	23.3	0.00e+00	0	28	0	4158652416	40	6212
2026-01-16 03:32:39.90	335.09	7.69	-33.9	-34.7	23.3	0.00e+00	0	28	0	4181721088	40	6228
2026-01-16 03:32:43.94	335.32	7.39	-33.9	-34.6	23.3	0.00e+00	0	28	0	4204789760	40	6123
2026-01-16 03:32:47.98	335.54	7.10	-33.9	-34.6	23.1	0.00e+00	0	28	0	4226809856	40	6147
2026-01-16 03:32:52.01	335.76	6.81	-33.9	-34.6	23.1	0.00e+00	0	28	0	4249878528	40	6126
2026-01-16 03:32:56.05	335.98	6.52	-34.2	-35.1	22.7	0.00e+00	0	28	0	4272947200	40	6473
2026-01-16 03:33:00.09	336.20	6.24	-34.8	-35.7	22.0	0.00e+00	0	28	0	4294967296	42	6179
2026-01-16 03:33:04.12	336.41	5.95	-34.9	-35.8	21.6	0.00e+00	0	28	0	4318035968	42	6272
2026-01-16 03:33:08.16	336.61	5.67	-35.7	-36.7	20.5	0.00e+00	0	28	0	4341104640	42	6937
2026-01-16 03:33:12.19	336.82	5.40	-36.8	-37.8	18.8	0.00e+00	0	28	0	4363124736	44	7066
2026-01-16 03:33:16.23	337.02	5.12	-38.0	-39.4	16.6	0.00e+00	0	28	0	4386193408	48	6701
2026-01-16 03:33:20.27	337.21	4.85	-39.5	-41.3	14.0	2.20e-06	0	28	0	4408213504	50	7487
2026-01-16 03:33:24.31	337.41	4.58	-40.9	-43.8	10.8	2.26e-03	0	28	0	4431282176	54	7877
2026-01-16 03:33:28.34	337.60	4.32	-42.0	-46.0	8.0	6.91e-02	0	28	0	4454350848	56	9098
2026-01-16 03:33:32.38	337.79	4.05	-42.6	-48.4	5.1	6.89e-01	0	28	0	4475322368	56	11939
2026-01-16 03:33:36.42	337.97	3.79	-42.9	-52.2	3.9	8.37e-01	0	28	104	4476370944	58	16556
2026-01-16 03:33:40.45	338.15	3.53	-42.9	-54.1	3.6	8.46e-01	0	28	104	4476370944	58	20531
2026-01-16 03:33:44.49	338.33	3.27	-43.0	-55.0	3.6	8.44e-01	0	28	104	4476370944	58	22680
2026-01-16 03:33:48.52	338.50	3.02	-43.0	-55.0	3.6	8.45e-01	0	28	104	4476370944	58	22808
2026-01-16 03:33:52.56	338.68	2.76	-47.9	-60.0	3.5	8.45e-01	0	28	104	4476370944	60	36013
2026-01-16 03:33:56.60	338.85	2.51	-48.1	-60.3	3.6	8.44e-01	0	28	104	4476370944	60	37266
2026-01-16 03:34:00.63	339.02	2.26	-48.0	-60.1	3.6	8.46e-01	0	28	104	4476370944	60	36703
2026-01-16 03:34:04.67	339.18	2.02	-48.1	-60.2	3.6	8.45e-01	0	28	104	4476370944	60	36880
2026-01-16 03:34:08.71	339.34	1.77	-48.1	-60.2	3.5	8.45e-01	0	28	104	4476370944	60	36831
2026-01-16 03:34:12.75	339.50	1.53	-48.1	-60.1	3.6	8.44e-01	0	28	104	4476370944	60	36685
2026-01-16 03:34:16.79	339.66	1.29	-48.1	-60.2	3.6	8.45e-01	0	28	104	4476370944	60	36916
2026-01-16 03:34:20.83	339.82	1.05	-48.1	-60.2	3.6	8.46e-01	0	28	104	4476370944	60	36847
2026-01-16 03:34:24.87	339.97	0.81	-48.1	-60.2	3.6	8.45e-01	0	28	104	4476370944	60	37172
2026-01-16 03:34:28.91	340.12	0.57	-48.1	-60.2	3.6	8.45e-01	0	28	104	4476370944	60	37187
2026-01-16 03:34:32.95	340.27	0.34	-48.0	-60.2	3.6	8.46e-01	0	28	104	4476370944	60	36786
2026-01-16 03:34:36.99	340.42	0.11	-48.2	-60.3	3.6	8.45e-01	0	28	104	4476370944	60	37231

#Closed at: 2026-01-16 03:34:40
#Recorded file [4476 MB]: D:/lorett/data/35029_260116_151928.dat