passes_logs/2026/01/16/R4.6S_Anadyr/R4.6S_Anadyr__20260116_010042_NOAA_20_JPSS-1_rec.log

#Pass ID: 20260116_010042_NOAA 20 (JPSS-1)
#Satellite: NOAA 20 (JPSS-1)
#Configuration: NOAA 20
#almurnet v.1.7.20251203
#Start time: 2026-01-16 01:00:44

#Version: 2.2.20231116
#Station: R4.6S_Anadyr
#Location: 177.4865 lon 64.73178 lat
#TLE: 1 43013U 17073A   26014.55467351  .00000038  00000+0  38801-4 0  9992
#TLE: 2 43013  98.7635 315.4987 0001517  39.9279 320.2008 14.19535859422677

#Time	Az	El	Level	Level2	SNR	BER	BlckErr	Temp	State	Recorded	gain1	gain2
2026-01-16 01:00:44.75	176.29	0.13	-48.2	-63.1	3.5	1.51e+00	0	24	0	0	60	51620
2026-01-16 01:00:48.78	176.40	0.37	-48.0	-63.4	3.6	1.51e+00	0	26	104	0	60	53534
2026-01-16 01:00:52.82	176.52	0.61	-48.3	-63.4	3.6	1.51e+00	0	26	104	0	60	53298
2026-01-16 01:00:56.85	176.63	0.85	-48.0	-63.2	3.6	1.51e+00	0	26	104	0	60	52407
2026-01-16 01:01:00.89	176.75	1.10	-47.1	-62.2	3.6	1.51e+00	0	26	104	0	60	46610
2026-01-16 01:01:04.93	176.86	1.34	-46.6	-61.8	3.6	1.51e+00	0	26	104	0	60	44295
2026-01-16 01:01:08.97	176.98	1.59	-46.5	-61.7	3.6	1.51e+00	0	26	104	0	60	43844
2026-01-16 01:01:13.01	177.10	1.84	-46.5	-61.7	3.6	1.51e+00	0	26	104	0	60	43962
2026-01-16 01:01:17.04	177.22	2.10	-46.5	-61.6	3.6	1.51e+00	0	26	104	0	60	43363
2026-01-16 01:01:21.09	177.35	2.35	-46.5	-61.5	3.6	1.51e+00	0	26	104	0	60	42832
2026-01-16 01:01:25.13	177.47	2.61	-46.4	-59.2	3.7	1.50e+00	0	26	104	0	60	32985
2026-01-16 01:01:29.17	177.60	2.87	-46.4	-60.1	3.6	1.51e+00	0	27	104	0	60	36752
2026-01-16 01:01:33.21	177.73	3.13	-43.8	-47.3	13.3	4.45e-04	0	26	0	5242880	60	8422
2026-01-16 01:01:37.24	177.86	3.39	-40.3	-41.9	18.7	0.00e+00	92	27	0	12582912	54	6338
2026-01-16 01:01:41.28	178.00	3.66	-40.7	-42.5	18.0	0.00e+00	90	27	0	19922944	54	6790
2026-01-16 01:01:45.32	178.14	3.93	-46.4	-60.2	3.6	2.74e-02	0	27	104	27262976	60	37120
2026-01-16 01:01:49.35	178.27	4.20	-41.6	-43.6	17.4	0.00e+00	0	27	0	31457280	56	6859
2026-01-16 01:01:53.39	178.42	4.48	-40.3	-41.9	19.1	0.00e+00	92	27	0	38797312	54	6319
2026-01-16 01:01:57.41	178.56	4.75	-39.8	-41.2	19.9	0.00e+00	92	27	0	46137344	54	5860
2026-01-16 01:02:01.45	178.71	5.03	-39.2	-40.5	20.4	0.00e+00	92	27	0	53477376	52	6056
2026-01-16 01:02:05.48	178.85	5.32	-39.3	-40.6	20.4	0.00e+00	84	27	0	60817408	52	6127
2026-01-16 01:02:09.51	179.01	5.60	-39.5	-40.8	20.2	0.00e+00	92	27	0	69206016	52	6306
2026-01-16 01:02:13.55	179.16	5.89	-39.0	-40.3	20.7	0.00e+00	92	27	0	76546048	52	5905
2026-01-16 01:02:17.58	179.32	6.18	-39.3	-40.6	20.6	0.00e+00	92	27	0	83886080	52	6109
2026-01-16 01:02:21.62	179.48	6.48	-39.0	-40.2	21.0	0.00e+00	34	27	0	91226112	52	5835
2026-01-16 01:02:25.66	179.64	6.78	-38.8	-40.0	21.1	0.00e+00	92	27	0	99614720	52	5742
2026-01-16 01:02:29.70	179.81	7.08	-39.1	-40.3	20.9	0.00e+00	91	27	0	106954752	50	6634
2026-01-16 01:02:33.73	179.98	7.38	-38.5	-39.7	21.4	0.00e+00	90	27	0	114294784	50	6198
2026-01-16 01:02:37.77	180.15	7.69	-38.6	-39.8	21.4	0.00e+00	92	27	0	121634816	50	6268
2026-01-16 01:02:41.81	180.32	8.01	-38.9	-40.1	21.1	0.00e+00	92	27	0	128974848	50	6478
2026-01-16 01:02:45.84	180.50	8.32	-38.6	-39.7	21.5	0.00e+00	93	27	0	137363456	50	6216
2026-01-16 01:02:49.88	180.69	8.64	-38.7	-39.9	21.3	0.00e+00	0	27	0	144703488	50	6323
2026-01-16 01:02:53.92	180.87	8.96	-38.4	-39.6	21.7	0.00e+00	92	27	0	152043520	50	6105
2026-01-16 01:02:57.96	181.07	9.29	-38.5	-39.7	21.6	0.00e+00	91	27	0	159383552	50	6176
2026-01-16 01:03:01.99	181.26	9.62	-38.4	-39.5	21.8	0.00e+00	90	27	0	166723584	50	6070
2026-01-16 01:03:06.03	181.46	9.96	-38.5	-39.6	21.8	0.00e+00	36	28	0	175112192	50	6126
2026-01-16 01:03:10.06	181.66	10.30	-38.1	-39.1	22.2	0.00e+00	92	28	0	182452224	50	5822
2026-01-16 01:03:14.10	181.87	10.65	-37.9	-38.9	22.4	0.00e+00	92	28	0	189792256	50	5678
2026-01-16 01:03:18.14	182.08	10.99	-37.8	-38.8	22.5	0.00e+00	92	27	0	197132288	48	6273
2026-01-16 01:03:22.18	182.30	11.35	-37.9	-39.0	22.4	0.00e+00	18	28	0	205520896	48	6410
2026-01-16 01:03:26.21	182.52	11.71	-37.8	-38.8	22.5	0.00e+00	92	28	0	212860928	48	6290
2026-01-16 01:03:30.25	182.75	12.07	-37.7	-38.7	22.6	0.00e+00	90	28	0	220200960	48	6243
2026-01-16 01:03:34.28	182.98	12.44	-37.8	-38.8	22.7	0.00e+00	67	28	0	227540992	48	6286
2026-01-16 01:03:38.32	183.22	12.82	-37.7	-38.7	22.7	0.00e+00	0	28	0	234881024	48	6204
2026-01-16 01:03:42.36	183.47	13.20	-37.3	-38.3	23.0	0.00e+00	90	28	0	243269632	48	5922
2026-01-16 01:03:46.40	183.72	13.58	-37.2	-38.1	23.2	0.00e+00	89	28	0	250609664	48	5815
2026-01-16 01:03:50.43	183.97	13.97	-37.1	-38.0	23.4	0.00e+00	92	28	0	257949696	48	5730
2026-01-16 01:03:54.47	184.24	14.37	-37.1	-38.0	23.3	0.00e+00	33	28	0	265289728	48	5742
2026-01-16 01:03:58.50	184.51	14.77	-37.1	-38.0	23.3	0.00e+00	92	28	0	273678336	48	5755
2026-01-16 01:04:02.54	184.78	15.18	-36.9	-37.8	23.6	0.00e+00	92	28	0	281018368	48	5614
2026-01-16 01:04:06.58	185.07	15.60	-37.0	-37.9	23.6	0.00e+00	92	28	0	288358400	48	5633
2026-01-16 01:04:10.61	185.36	16.02	-36.7	-37.5	23.9	0.00e+00	37	28	0	295698432	46	6091
2026-01-16 01:04:14.65	185.66	16.45	-36.5	-37.4	24.0	0.00e+00	92	28	0	303038464	46	6006
2026-01-16 01:04:18.68	185.97	16.88	-36.5	-37.4	23.9	0.00e+00	90	28	0	311427072	46	6005
2026-01-16 01:04:22.72	186.28	17.33	-36.6	-37.5	23.9	0.00e+00	92	28	0	318767104	46	6071
2026-01-16 01:04:26.75	186.61	17.78	-36.4	-37.2	24.1	0.00e+00	92	28	0	326107136	46	5893
2026-01-16 01:04:30.79	186.94	18.23	-36.0	-36.8	24.4	0.00e+00	92	28	0	333447168	46	5630
2026-01-16 01:04:34.82	187.29	18.70	-35.9	-36.7	24.5	0.00e+00	92	28	0	341835776	46	5553
2026-01-16 01:04:38.85	187.64	19.17	-35.8	-36.6	24.7	0.00e+00	92	28	0	349175808	46	5484
2026-01-16 01:04:42.89	188.01	19.65	-35.7	-36.5	24.7	0.00e+00	92	28	0	356515840	44	6072
2026-01-16 01:04:46.92	188.39	20.14	-35.7	-36.5	24.8	0.00e+00	92	29	0	363855872	44	6081
2026-01-16 01:04:50.96	188.78	20.64	-35.6	-36.4	24.9	0.00e+00	92	28	0	371195904	44	6003
2026-01-16 01:04:54.99	189.18	21.15	-35.5	-36.3	25.0	0.00e+00	92	29	0	379584512	44	5906
2026-01-16 01:04:59.03	189.59	21.67	-35.4	-36.2	25.1	0.00e+00	91	28	0	386924544	44	5880
2026-01-16 01:05:03.07	190.02	22.19	-35.4	-36.3	24.9	0.00e+00	92	29	0	394264576	44	5900
2026-01-16 01:05:07.11	190.46	22.73	-35.5	-36.3	25.0	0.00e+00	91	29	0	401604608	44	5929
2026-01-16 01:05:11.14	190.92	23.27	-35.5	-36.3	25.0	0.00e+00	0	29	0	408944640	44	5923
2026-01-16 01:05:15.18	191.39	23.83	-35.6	-36.5	24.9	0.00e+00	90	29	0	417333248	44	6042
2026-01-16 01:05:19.21	191.88	24.39	-35.8	-36.6	24.7	0.00e+00	90	29	0	424673280	44	6164
2026-01-16 01:05:23.24	192.39	24.96	-35.9	-36.7	24.8	0.00e+00	92	29	0	432013312	44	6185
2026-01-16 01:05:27.27	192.91	25.55	-36.3	-37.1	24.3	0.00e+00	58	29	0	439353344	44	6519
2026-01-16 01:05:31.31	193.46	26.14	-36.6	-37.5	24.0	0.00e+00	92	29	0	447741952	44	6795
2026-01-16 01:05:35.35	194.02	26.75	-36.9	-37.8	23.9	0.00e+00	92	29	0	455081984	46	6246
2026-01-16 01:05:39.39	194.61	27.37	-37.0	-37.9	23.7	0.00e+00	92	29	0	462422016	46	6376
2026-01-16 01:05:43.43	195.22	28.00	-37.4	-38.4	23.3	0.00e+00	29	29	0	469762048	46	6724
2026-01-16 01:05:47.46	195.85	28.64	-37.2	-38.2	23.5	0.00e+00	91	29	0	477102080	46	6552
2026-01-16 01:05:51.50	196.51	29.29	-37.8	-38.8	22.9	0.00e+00	92	29	0	485490688	48	6285
2026-01-16 01:05:55.54	197.19	29.95	-38.9	-39.9	22.0	0.00e+00	83	29	0	492830720	50	6380
2026-01-16 01:05:59.57	197.90	30.62	-39.3	-40.4	21.6	0.00e+00	37	29	0	500170752	50	6769
2026-01-16 01:06:03.61	198.65	31.30	-39.5	-40.7	21.3	0.00e+00	92	29	0	507510784	50	6950
2026-01-16 01:06:07.65	199.42	32.00	-39.2	-40.3	21.6	0.00e+00	92	29	0	514850816	50	6664
2026-01-16 01:06:11.68	200.23	32.70	-38.7	-39.7	22.4	0.00e+00	0	29	0	523239424	50	6200
2026-01-16 01:06:15.72	201.07	33.42	-38.6	-39.6	22.3	0.00e+00	91	29	0	530579456	50	6144
2026-01-16 01:06:19.76	201.95	34.14	-38.4	-39.4	22.5	0.00e+00	91	29	0	537919488	50	6029
2026-01-16 01:06:23.79	202.87	34.88	-37.9	-38.9	23.0	0.00e+00	90	29	0	545259520	50	5672
2026-01-16 01:06:27.83	203.83	35.62	-37.9	-38.9	22.9	0.00e+00	39	29	0	553648128	50	5682
2026-01-16 01:06:31.86	204.83	36.37	-37.4	-38.3	23.6	0.00e+00	92	29	0	560988160	48	5903
2026-01-16 01:06:35.90	205.88	37.14	-37.0	-37.9	23.9	0.00e+00	92	29	0	568328192	48	5661
2026-01-16 01:06:39.94	206.98	37.90	-36.7	-37.6	24.1	0.00e+00	91	29	0	575668224	46	6129
2026-01-16 01:06:43.97	208.14	38.67	-36.3	-37.1	24.6	0.00e+00	0	29	0	583008256	46	5798
2026-01-16 01:06:48.01	209.34	39.45	-36.2	-37.0	24.7	0.00e+00	91	29	0	591396864	46	5751
2026-01-16 01:06:52.04	210.61	40.23	-36.2	-37.0	24.6	0.00e+00	92	29	0	598736896	46	5752
2026-01-16 01:06:56.08	211.94	41.01	-36.5	-37.4	24.3	0.00e+00	92	29	0	606076928	46	5985
2026-01-16 01:07:00.12	213.33	41.79	-36.6	-37.4	24.4	0.00e+00	8	29	0	613416960	46	6017
2026-01-16 01:07:04.15	214.79	42.56	-37.2	-38.1	23.6	0.00e+00	92	29	0	620756992	46	6519
2026-01-16 01:07:08.19	216.32	43.34	-37.4	-38.4	23.6	0.00e+00	92	29	0	629145600	46	6701
2026-01-16 01:07:12.23	217.93	44.10	-37.1	-38.0	23.9	0.00e+00	91	29	0	636485632	46	6399
2026-01-16 01:07:16.27	219.61	44.85	-38.2	-39.2	22.7	0.00e+00	40	29	0	643825664	48	6594
2026-01-16 01:07:20.30	221.37	45.59	-38.8	-39.9	22.0	0.00e+00	92	29	0	651165696	48	7116
2026-01-16 01:07:24.34	223.21	46.31	-39.6	-40.8	21.4	0.00e+00	92	29	0	659554304	52	6280
2026-01-16 01:07:28.38	225.14	47.01	-38.9	-40.0	22.0	0.00e+00	92	29	0	666894336	50	6408
2026-01-16 01:07:32.41	227.15	47.69	-38.1	-39.0	22.9	0.00e+00	27	29	0	674234368	50	5752
2026-01-16 01:07:36.45	229.26	48.34	-37.8	-38.7	23.1	0.00e+00	92	30	0	681574400	48	6241
2026-01-16 01:07:40.48	231.44	48.95	-36.9	-37.8	23.9	0.00e+00	92	30	0	688914432	48	5577
2026-01-16 01:07:44.51	233.71	49.52	-37.2	-38.1	23.7	0.00e+00	91	30	0	697303040	48	5797
2026-01-16 01:07:48.55	236.06	50.06	-36.8	-37.6	24.1	0.00e+00	16	29	0	704643072	46	6160
2026-01-16 01:07:52.58	238.49	50.54	-37.6	-38.6	23.4	0.00e+00	90	30	0	711983104	48	6131
2026-01-16 01:07:56.61	241.00	50.98	-37.1	-38.0	23.8	0.00e+00	90	30	0	719323136	48	5747
2026-01-16 01:08:00.65	243.58	51.36	-37.0	-37.9	23.9	0.00e+00	92	30	0	727711744	48	5676
2026-01-16 01:08:04.69	246.22	51.69	-37.5	-38.4	23.4	0.00e+00	91	30	0	735051776	48	6032
2026-01-16 01:08:08.73	248.91	51.95	-37.2	-38.1	23.7	0.00e+00	92	30	0	742391808	46	6519
2026-01-16 01:08:12.77	251.64	52.15	-36.8	-37.7	24.1	0.00e+00	91	30	0	749731840	46	6182
2026-01-16 01:08:16.81	254.41	52.28	-36.5	-37.4	24.4	0.00e+00	0	30	0	757071872	46	5989
2026-01-16 01:08:20.84	257.18	52.34	-36.2	-37.1	24.6	0.00e+00	92	30	0	765460480	44	6494
2026-01-16 01:08:24.88	259.97	52.34	-36.8	-37.6	24.1	0.00e+00	92	30	0	772800512	46	6169
2026-01-16 01:08:28.92	262.75	52.26	-36.5	-37.3	24.4	0.00e+00	92	30	0	780140544	46	5938
2026-01-16 01:08:32.95	265.50	52.12	-36.6	-37.5	24.2	0.00e+00	0	30	0	787480576	46	6056
2026-01-16 01:08:36.99	268.23	51.92	-36.6	-37.5	24.1	0.00e+00	92	30	0	795869184	46	6053
2026-01-16 01:08:41.03	270.91	51.65	-36.5	-37.4	24.3	0.00e+00	92	30	0	803209216	46	5989
2026-01-16 01:08:45.06	273.53	51.32	-36.0	-36.8	24.8	0.00e+00	91	30	0	810549248	46	5575
2026-01-16 01:08:49.10	276.10	50.93	-37.7	-38.6	23.1	0.00e+00	58	30	0	817889280	48	6139
2026-01-16 01:08:53.14	278.60	50.48	-39.4	-40.6	21.6	0.00e+00	90	30	0	825229312	50	6859
2026-01-16 01:08:57.17	281.02	49.99	-40.0	-41.2	20.8	0.00e+00	92	30	0	833617920	52	6611
2026-01-16 01:09:01.21	283.36	49.45	-39.3	-40.4	21.7	0.00e+00	33	30	0	840957952	52	6023
2026-01-16 01:09:05.24	285.61	48.87	-39.3	-40.4	21.7	0.00e+00	43	30	0	848297984	52	5989
2026-01-16 01:09:09.28	287.78	48.26	-39.6	-40.8	21.3	0.00e+00	92	30	0	855638016	52	6269
2026-01-16 01:09:13.31	289.86	47.61	-39.8	-40.9	21.3	0.00e+00	92	30	0	864026624	52	6369
2026-01-16 01:09:17.35	291.86	46.93	-39.4	-40.5	21.5	0.00e+00	6	30	0	871366656	52	6080
2026-01-16 01:09:21.39	293.78	46.23	-38.7	-39.8	22.2	0.00e+00	0	30	0	878706688	52	5575
2026-01-16 01:09:25.42	295.60	45.51	-39.1	-40.2	21.8	0.00e+00	92	30	0	886046720	50	6615
2026-01-16 01:09:29.46	297.35	44.77	-39.0	-40.1	21.8	0.00e+00	92	30	0	893386752	52	5765
2026-01-16 01:09:33.50	299.02	44.02	-38.7	-39.7	22.3	0.00e+00	47	30	0	901775360	48	6964
2026-01-16 01:09:37.53	300.61	43.26	-37.6	-38.5	23.3	0.00e+00	0	30	0	909115392	48	6098
2026-01-16 01:09:41.57	302.13	42.49	-38.1	-39.1	22.8	0.00e+00	92	30	0	916455424	48	6487
2026-01-16 01:09:45.60	303.57	41.72	-38.5	-39.5	22.3	0.00e+00	92	30	0	923795456	48	6826
2026-01-16 01:09:49.64	304.96	40.95	-38.6	-39.6	22.3	0.00e+00	38	30	0	931135488	50	6114
2026-01-16 01:09:53.68	306.27	40.17	-40.4	-41.7	20.4	0.00e+00	89	30	0	939524096	52	6961
2026-01-16 01:09:57.71	307.53	39.39	-41.3	-42.8	19.5	0.00e+00	91	30	0	946864128	54	7019
2026-01-16 01:10:01.74	308.72	38.62	-40.9	-42.3	19.8	0.00e+00	0	30	0	954204160	54	6672
2026-01-16 01:10:05.78	309.87	37.86	-39.8	-41.0	21.0	0.00e+00	0	30	0	961544192	54	5715
2026-01-16 01:10:09.81	310.96	37.09	-40.1	-41.4	20.6	0.00e+00	91	30	0	969932800	52	6725
2026-01-16 01:10:13.85	312.00	36.34	-40.4	-41.8	20.4	0.00e+00	92	30	0	977272832	54	6254
2026-01-16 01:10:17.89	313.00	35.59	-39.4	-40.6	21.2	0.00e+00	0	30	0	984612864	50	6871
2026-01-16 01:10:21.93	313.96	34.85	-41.8	-43.4	18.6	0.00e+00	6	30	0	991952896	56	6752
2026-01-16 01:10:25.96	314.87	34.12	-38.2	-39.2	22.8	0.00e+00	92	30	0	999292928	50	5852
2026-01-16 01:10:30.00	315.74	33.40	-41.0	-42.5	19.7	0.00e+00	91	30	0	1007681536	54	6771
2026-01-16 01:10:34.04	316.58	32.69	-37.6	-38.5	23.4	0.00e+00	38	30	0	1015021568	48	6068
2026-01-16 01:10:38.07	317.38	31.99	-39.8	-41.0	21.0	0.00e+00	43	30	0	1022361600	50	7224
2026-01-16 01:10:42.11	318.15	31.30	-41.3	-42.8	19.4	0.00e+00	91	30	0	1029701632	56	6310
2026-01-16 01:10:46.15	318.89	30.62	-38.4	-39.5	22.5	0.00e+00	90	30	0	1037041664	50	6036
2026-01-16 01:10:50.18	319.60	29.96	-40.1	-41.3	20.6	0.00e+00	0	30	0	1045430272	52	6680
2026-01-16 01:10:54.21	320.28	29.30	-39.9	-41.1	21.0	0.00e+00	60	30	0	1052770304	52	6504
2026-01-16 01:10:58.25	320.93	28.65	-38.2	-39.2	22.7	0.00e+00	92	30	0	1060110336	50	5836
2026-01-16 01:11:02.29	321.56	28.02	-38.1	-39.0	22.8	0.00e+00	92	30	0	1067450368	50	5752
2026-01-16 01:11:06.32	322.17	27.40	-38.4	-39.5	22.4	0.00e+00	0	30	0	1075838976	50	6038
2026-01-16 01:11:10.36	322.75	26.78	-38.2	-39.2	22.5	0.00e+00	0	30	0	1083179008	50	5878
2026-01-16 01:11:14.40	323.31	26.18	-38.0	-38.9	22.8	0.00e+00	92	30	0	1090519040	50	5693
2026-01-16 01:11:18.44	323.86	25.59	-38.2	-39.2	22.6	0.00e+00	87	30	0	1097859072	48	6564
2026-01-16 01:11:22.48	324.38	25.01	-38.9	-40.0	21.9	0.00e+00	0	30	0	1105199104	50	6423
2026-01-16 01:11:26.51	324.88	24.44	-38.1	-39.0	22.7	0.00e+00	83	30	0	1113587712	50	5754
2026-01-16 01:11:30.54	325.37	23.88	-37.2	-38.1	23.5	0.00e+00	92	30	0	1120927744	48	5807
2026-01-16 01:11:34.58	325.84	23.33	-37.3	-38.2	23.4	0.00e+00	34	30	0	1128267776	48	5866
2026-01-16 01:11:38.62	326.30	22.78	-37.6	-38.5	23.2	0.00e+00	0	30	0	1135607808	48	6070
2026-01-16 01:11:42.65	326.74	22.25	-37.9	-38.9	22.9	0.00e+00	92	30	0	1142947840	48	6361
2026-01-16 01:11:46.69	327.17	21.73	-38.2	-39.2	22.6	0.00e+00	0	30	0	1151336448	48	6584
2026-01-16 01:11:50.73	327.58	21.22	-37.8	-38.7	23.0	0.00e+00	0	30	0	1158676480	48	6222
2026-01-16 01:11:54.76	327.98	20.72	-37.7	-38.6	23.0	0.00e+00	31	30	0	1166016512	48	6165
2026-01-16 01:11:58.80	328.37	20.22	-37.8	-38.8	22.8	0.00e+00	91	30	0	1173356544	48	6296
2026-01-16 01:12:02.83	328.75	19.73	-38.4	-39.4	22.3	0.00e+00	34	30	0	1181745152	48	6762
2026-01-16 01:12:06.87	329.12	19.25	-38.6	-39.6	22.0	0.00e+00	7	30	0	1189085184	48	6915
2026-01-16 01:12:10.90	329.47	18.79	-38.3	-39.3	22.3	0.00e+00	53	30	0	1196425216	48	6690
2026-01-16 01:12:14.94	329.82	18.32	-37.7	-38.7	22.8	0.00e+00	92	30	0	1203765248	48	6207
2026-01-16 01:12:18.97	330.15	17.87	-37.2	-38.1	23.4	0.00e+00	32	30	0	1211105280	48	5795
2026-01-16 01:12:23.00	330.48	17.42	-37.1	-38.0	23.4	0.00e+00	0	30	0	1219493888	48	5730
2026-01-16 01:12:27.04	330.80	16.98	-37.3	-38.2	23.3	0.00e+00	32	29	0	1226833920	48	5880
2026-01-16 01:12:31.08	331.10	16.55	-37.7	-38.7	22.8	0.00e+00	92	30	0	1234173952	48	6202
2026-01-16 01:12:35.12	331.41	16.12	-37.8	-38.7	22.8	0.00e+00	0	29	0	1241513984	48	6245
2026-01-16 01:12:39.15	331.70	15.70	-37.5	-38.5	22.8	0.00e+00	0	29	0	1249902592	48	6064
2026-01-16 01:12:43.19	331.98	15.29	-37.5	-38.4	23.0	0.00e+00	0	30	0	1257242624	48	6008
2026-01-16 01:12:47.22	332.26	14.88	-37.3	-38.2	23.1	0.00e+00	92	29	0	1264582656	48	5891
2026-01-16 01:12:51.26	332.53	14.48	-37.5	-38.5	22.8	0.00e+00	0	29	0	1271922688	48	6057
2026-01-16 01:12:55.30	332.80	14.09	-37.8	-38.8	22.3	0.00e+00	2	29	0	1279262720	48	6291
2026-01-16 01:12:59.34	333.06	13.70	-38.3	-39.4	22.0	0.00e+00	0	29	0	1287651328	48	6718
2026-01-16 01:13:03.38	333.31	13.31	-38.6	-39.7	21.7	0.00e+00	90	29	0	1294991360	48	6943
2026-01-16 01:13:07.42	333.55	12.94	-38.8	-40.0	21.5	0.00e+00	0	29	0	1302331392	50	6401
2026-01-16 01:13:11.45	333.79	12.56	-38.9	-40.1	21.4	0.00e+00	51	29	0	1309671424	50	6482
2026-01-16 01:13:15.49	334.03	12.20	-38.7	-39.8	21.5	0.00e+00	32	29	0	1318060032	50	6290
2026-01-16 01:13:19.53	334.26	11.84	-38.3	-39.3	22.0	0.00e+00	35	29	0	1325400064	50	5961
2026-01-16 01:13:23.56	334.48	11.48	-38.1	-39.1	22.2	0.00e+00	0	29	0	1332740096	50	5797
2026-01-16 01:13:27.59	334.70	11.13	-38.1	-39.1	22.2	0.00e+00	30	29	0	1340080128	50	5798
2026-01-16 01:13:31.63	334.92	10.78	-38.0	-39.1	22.1	0.00e+00	92	29	0	1347420160	50	5781
2026-01-16 01:13:35.66	335.13	10.44	-38.3	-39.3	21.9	0.00e+00	52	29	0	1355808768	50	5955
2026-01-16 01:13:39.70	335.33	10.10	-38.4	-39.5	21.8	0.00e+00	0	29	0	1363148800	50	6061
2026-01-16 01:13:43.74	335.53	9.76	-38.7	-39.9	21.3	0.00e+00	0	29	0	1370488832	50	6353
2026-01-16 01:13:47.77	335.73	9.43	-39.1	-40.3	20.9	0.00e+00	92	29	0	1377828864	50	6660
2026-01-16 01:13:51.81	335.92	9.11	-39.3	-40.6	20.6	0.00e+00	60	29	0	1386217472	50	6907
2026-01-16 01:13:55.85	336.11	8.79	-39.6	-40.9	20.2	0.00e+00	59	29	0	1393557504	52	6379
2026-01-16 01:13:59.88	336.30	8.47	-39.7	-41.0	20.2	0.00e+00	5	29	0	1400897536	52	6455
2026-01-16 01:14:03.92	336.48	8.15	-39.5	-40.9	20.3	0.00e+00	90	29	0	1408237568	52	6341
2026-01-16 01:14:07.96	336.66	7.84	-39.6	-41.0	20.3	0.00e+00	27	29	0	1415577600	52	6419
2026-01-16 01:14:11.99	336.84	7.54	-39.6	-40.9	20.3	0.00e+00	26	29	0	1423966208	52	6380
2026-01-16 01:14:16.02	337.01	7.23	-39.4	-40.7	20.5	0.00e+00	56	29	0	1431306240	52	6197
2026-01-16 01:14:20.06	337.18	6.93	-39.1	-40.4	20.6	0.00e+00	92	29	0	1438646272	52	6019
2026-01-16 01:14:24.09	337.34	6.64	-39.0	-40.3	20.7	0.00e+00	55	29	0	1445986304	52	5944
2026-01-16 01:14:28.13	337.51	6.34	-38.9	-40.1	20.7	0.00e+00	0	29	0	1453326336	52	5816
2026-01-16 01:14:32.17	337.67	6.05	-38.9	-40.2	20.5	0.00e+00	0	29	0	1461714944	50	6556
2026-01-16 01:14:36.21	337.82	5.76	-39.1	-40.4	20.2	0.00e+00	92	29	0	1469054976	50	6745
2026-01-16 01:14:40.24	337.98	5.48	-39.6	-41.2	19.1	0.00e+00	55	29	0	1476395008	50	7352
2026-01-16 01:14:44.28	338.13	5.20	-40.5	-42.4	17.6	0.00e+00	57	29	0	1483735040	52	7542
2026-01-16 01:14:48.31	338.28	4.92	-41.5	-44.2	15.3	0.00e+00	0	29	0	1492123648	54	8240
2026-01-16 01:14:52.35	338.43	4.64	-42.4	-46.4	12.2	1.06e-04	91	29	0	1499463680	56	9461
2026-01-16 01:14:56.38	338.57	4.37	-42.9	-49.2	8.3	3.51e-02	0	29	0	1506803712	58	11755
2026-01-16 01:15:00.43	338.72	4.10	-43.2	-52.3	4.6	6.63e-01	19	29	0	1514143744	58	16625
2026-01-16 01:15:04.46	338.86	3.83	-43.2	-56.2	3.7	1.50e+00	0	29	104	1517289472	58	26099
2026-01-16 01:15:08.50	338.99	3.57	-43.1	-57.8	3.6	1.51e+00	0	29	104	1517289472	58	31374
2026-01-16 01:15:12.54	339.13	3.30	-43.2	-58.3	3.6	1.51e+00	0	29	104	1517289472	58	33230
2026-01-16 01:15:16.57	339.26	3.04	-43.2	-58.4	3.5	1.51e+00	0	29	104	1517289472	58	33683
2026-01-16 01:15:20.61	339.40	2.78	-47.7	-62.9	3.6	1.51e+00	0	29	104	1517289472	60	50501
2026-01-16 01:15:24.65	339.53	2.53	-48.2	-63.4	3.6	1.51e+00	0	29	104	1517289472	60	53314
2026-01-16 01:15:28.69	339.65	2.27	-47.2	-63.3	3.6	1.51e+00	0	29	104	1517289472	60	53025
2026-01-16 01:15:32.73	339.78	2.02	-48.0	-63.4	3.6	1.51e+00	0	29	104	1517289472	60	53493
2026-01-16 01:15:36.76	339.90	1.77	-48.2	-63.4	3.6	1.51e+00	0	29	104	1517289472	60	53209
2026-01-16 01:15:40.80	340.03	1.52	-48.1	-63.3	3.6	1.51e+00	0	29	104	1517289472	60	52928
2026-01-16 01:15:44.84	340.15	1.28	-48.1	-63.3	3.6	1.51e+00	0	29	104	1517289472	60	52708
2026-01-16 01:15:48.89	340.27	1.03	-48.0	-63.2	3.6	1.51e+00	0	29	104	1517289472	60	52241
2026-01-16 01:15:52.92	340.38	0.79	-48.1	-63.3	3.6	1.51e+00	0	29	104	1517289472	60	52875
2026-01-16 01:15:56.96	340.50	0.55	-48.1	-63.4	3.6	1.51e+00	0	29	104	1517289472	60	53200
2026-01-16 01:16:01.00	340.62	0.31	-48.0	-63.2	3.6	1.51e+00	0	29	104	1517289472	60	52523
2026-01-16 01:16:05.04	340.73	0.08	-48.3	-63.6	3.6	1.51e+00	0	29	104	1517289472	60	54525

#Closed at: 2026-01-16 01:16:09
#Recorded file [1517 MB]: D:/lorett/data/35029_260116_130044.dat