passes_logs/2026/01/16/R4.6S_Anadyr/R4.6S_Anadyr__20260116_112545_NOAA_20_JPSS-1_rec.log

#Pass ID: 20260116_112545_NOAA 20 (JPSS-1)
#Satellite: NOAA 20 (JPSS-1)
#Configuration: NOAA 20
#almurnet v.1.7.20251203
#Start time: 2026-01-16 11:25:51

#Version: 2.2.20231116
#Station: R4.6S_Anadyr
#Location: 177.4865 lon 64.73178 lat
#TLE: 1 43013U 17073A   26015.89389188  .00000026  00000+0  33113-4 0  9999
#TLE: 2 43013  98.7636 316.8238 0001460  37.8997 322.2282 14.19536128422860

#Time	Az	El	Level	Level2	SNR	BER	BlckErr	Temp	State	Recorded	gain1	gain2
2026-01-16 11:25:51.70	21.69	0.22	-45.1	-46.6	5.7	0.00e+00	0	28	0	0	60	26178
2026-01-16 11:25:54.73	22.00	0.33	-48.2	-63.4	3.6	1.51e+00	0	30	104	0	60	53251
2026-01-16 11:25:57.76	22.31	0.44	-47.9	-63.2	3.6	1.51e+00	0	30	104	0	60	52233
2026-01-16 11:26:00.79	22.61	0.56	-47.7	-62.9	3.6	1.51e+00	0	30	104	0	60	50267
2026-01-16 11:26:03.82	22.93	0.67	-47.1	-62.2	3.6	1.51e+00	0	30	104	0	60	46689
2026-01-16 11:26:06.84	23.24	0.78	-46.3	-61.5	3.6	1.51e+00	0	30	104	0	60	42746
2026-01-16 11:26:09.88	23.55	0.89	-46.3	-61.4	3.6	1.51e+00	0	30	104	0	60	42680
2026-01-16 11:26:12.91	23.87	1.01	-46.3	-61.5	3.6	1.51e+00	0	30	104	0	60	42941
2026-01-16 11:26:15.94	24.19	1.12	-46.3	-61.5	3.6	1.51e+00	0	30	104	0	60	43029
2026-01-16 11:26:18.97	24.52	1.23	-46.3	-61.5	3.6	1.51e+00	0	30	104	0	60	42847
2026-01-16 11:26:22.00	24.84	1.34	-46.3	-61.4	3.6	1.51e+00	0	30	104	0	60	42317
2026-01-16 11:26:25.03	25.17	1.45	-46.3	-61.4	3.6	1.51e+00	0	30	104	0	60	42668
2026-01-16 11:26:28.06	25.50	1.56	-46.2	-61.4	3.5	1.51e+00	0	30	104	0	60	42561
2026-01-16 11:26:31.09	25.83	1.67	-46.3	-61.5	3.6	1.51e+00	0	30	104	0	60	42741
2026-01-16 11:26:34.11	26.16	1.78	-46.3	-61.5	3.6	1.51e+00	0	30	104	0	60	42739
2026-01-16 11:26:37.14	26.50	1.89	-46.2	-61.4	3.6	1.51e+00	0	30	104	0	60	42634
2026-01-16 11:26:40.17	26.84	2.00	-46.3	-61.4	3.6	1.51e+00	0	30	104	0	60	42388
2026-01-16 11:26:43.20	27.18	2.11	-46.2	-61.4	3.6	1.51e+00	0	30	104	0	60	42553
2026-01-16 11:26:46.23	27.52	2.22	-46.2	-61.4	3.6	1.51e+00	0	30	104	0	60	42684
2026-01-16 11:26:49.26	27.87	2.33	-46.2	-61.4	3.6	1.51e+00	0	30	104	0	60	42364
2026-01-16 11:26:52.29	28.22	2.44	-46.2	-61.3	3.6	1.51e+00	0	30	104	0	60	42181
2026-01-16 11:26:55.32	28.57	2.54	-46.2	-61.3	3.6	1.51e+00	0	30	104	0	60	42084
2026-01-16 11:26:58.34	28.92	2.65	-46.2	-60.4	3.6	1.51e+00	0	30	104	0	60	37882
2026-01-16 11:27:01.37	29.27	2.76	-46.1	-58.9	3.7	1.51e+00	0	30	104	0	60	31994
2026-01-16 11:27:04.40	29.63	2.86	-42.9	-45.9	14.6	9.10e-06	92	30	0	3145728	60	7117
2026-01-16 11:27:07.43	29.99	2.97	-41.4	-43.5	17.0	0.00e+00	0	30	0	8388608	56	6779
2026-01-16 11:27:10.46	30.36	3.07	-41.9	-43.6	17.6	1.09e+00	6	30	0	13631488	60	5457
2026-01-16 11:27:13.49	30.72	3.18	-40.3	-42.0	17.3	0.00e+00	0	30	0	14680064	54	6439
2026-01-16 11:27:16.51	31.09	3.28	-39.9	-41.5	18.9	0.00e+00	91	30	0	17825792	54	6046
2026-01-16 11:27:19.54	31.46	3.39	-40.0	-41.6	18.6	0.00e+00	6	30	0	24117248	54	6160
2026-01-16 11:27:22.57	31.83	3.49	-39.9	-41.5	19.2	0.00e+00	22	30	0	29360128	52	6780
2026-01-16 11:27:25.60	32.21	3.59	-40.2	-41.8	18.8	0.00e+00	92	30	0	34603008	52	7071
2026-01-16 11:27:28.63	32.59	3.69	-40.1	-41.6	19.0	0.00e+00	3	30	0	40894464	52	6902
2026-01-16 11:27:31.66	32.97	3.79	-39.9	-41.5	19.2	0.00e+00	6	30	0	46137344	52	6795
2026-01-16 11:27:34.69	33.35	3.90	-39.6	-41.0	19.6	0.00e+00	92	30	0	52428800	52	6464
2026-01-16 11:27:37.72	33.74	3.99	-39.6	-41.0	19.7	0.00e+00	5	30	0	57671680	52	6418
2026-01-16 11:27:40.75	34.13	4.09	-40.0	-41.5	19.1	0.00e+00	22	30	0	62914560	52	6836
2026-01-16 11:27:43.78	34.52	4.19	-39.8	-41.3	19.3	0.00e+00	65	30	0	69206016	52	6676
2026-01-16 11:27:46.80	34.91	4.29	-39.9	-41.4	19.4	0.00e+00	0	30	0	74448896	52	6724
2026-01-16 11:27:49.83	35.30	4.39	-39.9	-41.4	19.3	0.00e+00	57	30	0	80740352	52	6761
2026-01-16 11:27:52.86	35.70	4.48	-40.1	-41.6	19.2	0.00e+00	0	30	0	85983232	52	6911
2026-01-16 11:27:55.89	36.10	4.58	-40.0	-41.5	19.5	0.00e+00	92	30	0	92274688	52	6793
2026-01-16 11:27:58.92	36.51	4.67	-40.3	-41.9	18.8	0.00e+00	0	30	0	97517568	54	6324
2026-01-16 11:28:01.96	36.91	4.77	-40.5	-42.1	18.7	0.00e+00	0	30	0	102760448	52	7317
2026-01-16 11:28:04.99	37.32	4.86	-40.0	-41.4	19.4	0.00e+00	91	30	0	109051904	52	6751
2026-01-16 11:28:08.01	37.73	4.95	-39.8	-41.2	19.6	0.00e+00	0	30	0	114294784	52	6600
2026-01-16 11:28:11.04	38.15	5.04	-40.0	-41.5	19.4	0.00e+00	0	30	0	120586240	52	6846
2026-01-16 11:28:14.08	38.56	5.13	-39.6	-41.0	19.9	0.00e+00	38	30	0	125829120	52	6445
2026-01-16 11:28:17.11	38.98	5.22	-40.0	-41.5	19.5	0.00e+00	0	30	0	131072000	52	6831
2026-01-16 11:28:20.14	39.40	5.31	-40.0	-41.4	19.7	0.00e+00	3	30	0	137363456	52	6727
2026-01-16 11:28:23.17	39.83	5.40	-40.3	-41.8	19.4	0.00e+00	22	30	0	142606336	52	7010
2026-01-16 11:28:26.19	40.25	5.49	-40.1	-41.6	19.3	0.00e+00	23	30	0	148897792	52	6900
2026-01-16 11:28:29.22	40.68	5.57	-40.6	-42.2	18.9	0.00e+00	59	30	0	154140672	52	7345
2026-01-16 11:28:32.25	41.11	5.66	-40.2	-41.7	19.4	0.00e+00	0	30	0	160432128	52	6939
2026-01-16 11:28:35.28	41.54	5.74	-40.2	-41.6	19.4	0.00e+00	92	30	0	165675008	52	6922
2026-01-16 11:28:38.31	41.98	5.82	-40.2	-41.7	19.3	0.00e+00	0	30	0	170917888	52	6944
2026-01-16 11:28:41.34	42.42	5.90	-40.3	-41.8	19.3	0.00e+00	0	30	0	177209344	52	7036
2026-01-16 11:28:44.36	42.85	5.98	-40.2	-41.7	19.5	0.00e+00	90	30	0	182452224	52	6961
2026-01-16 11:28:47.39	43.30	6.06	-40.0	-41.5	19.7	0.00e+00	62	30	0	188743680	52	6776
2026-01-16 11:28:50.42	43.74	6.14	-39.8	-41.1	19.8	0.00e+00	7	29	0	193986560	52	6530
2026-01-16 11:28:53.45	44.19	6.21	-40.1	-41.6	19.5	0.00e+00	13	29	0	199229440	52	6868
2026-01-16 11:28:56.48	44.64	6.29	-40.3	-41.8	19.4	0.00e+00	0	30	0	205520896	52	7031
2026-01-16 11:28:59.51	45.09	6.36	-40.3	-41.8	19.4	0.00e+00	1	29	0	210763776	52	7033
2026-01-16 11:29:02.53	45.54	6.44	-40.0	-41.4	19.8	0.00e+00	17	29	0	217055232	52	6695
2026-01-16 11:29:05.56	46.00	6.51	-39.9	-41.3	19.8	0.00e+00	92	29	0	222298112	52	6667
2026-01-16 11:29:08.59	46.45	6.58	-39.8	-41.1	20.0	0.00e+00	63	29	0	228589568	52	6525
2026-01-16 11:29:11.62	46.92	6.65	-40.0	-41.4	19.7	0.00e+00	7	29	0	233832448	52	6747
2026-01-16 11:29:14.65	47.38	6.71	-40.1	-41.5	19.5	0.00e+00	92	29	0	239075328	52	6831
2026-01-16 11:29:17.68	47.84	6.78	-40.3	-41.7	19.5	0.00e+00	6	29	0	245366784	52	6972
2026-01-16 11:29:20.70	48.31	6.84	-40.2	-41.7	19.4	0.00e+00	0	29	0	250609664	52	6955
2026-01-16 11:29:23.73	48.77	6.91	-40.0	-41.4	19.7	0.00e+00	85	29	0	256901120	52	6706
2026-01-16 11:29:26.76	49.24	6.97	-40.1	-41.5	19.6	0.00e+00	0	29	0	262144000	52	6848
2026-01-16 11:29:29.79	49.72	7.03	-40.4	-41.9	19.5	0.00e+00	17	29	0	267386880	52	7125
2026-01-16 11:29:32.82	50.19	7.09	-40.2	-41.6	19.6	0.00e+00	63	29	0	273678336	52	6907
2026-01-16 11:29:35.85	50.67	7.14	-40.2	-41.7	19.5	0.00e+00	83	29	0	278921216	52	6953
2026-01-16 11:29:38.88	51.14	7.20	-40.2	-41.6	19.6	0.00e+00	0	29	0	285212672	52	6894
2026-01-16 11:29:41.91	51.62	7.25	-40.2	-41.7	19.5	0.00e+00	0	29	0	290455552	52	6981
2026-01-16 11:29:44.94	52.11	7.31	-40.1	-41.5	19.6	0.00e+00	90	29	0	296747008	52	6837
2026-01-16 11:29:47.97	52.59	7.36	-39.9	-41.3	19.9	0.00e+00	23	29	0	301989888	52	6671
2026-01-16 11:29:51.00	53.07	7.41	-40.3	-41.7	19.7	0.00e+00	57	29	0	307232768	52	6962
2026-01-16 11:29:54.03	53.56	7.45	-40.0	-41.4	19.8	0.00e+00	90	29	0	313524224	52	6732
2026-01-16 11:29:57.05	54.04	7.50	-40.1	-41.5	19.8	0.00e+00	59	29	0	318767104	52	6848
2026-01-16 11:30:00.09	54.54	7.54	-40.1	-41.5	19.9	0.00e+00	0	29	0	325058560	52	6834
2026-01-16 11:30:03.12	55.03	7.59	-40.2	-41.6	19.8	0.00e+00	0	29	0	330301440	52	6853
2026-01-16 11:30:06.14	55.52	7.63	-40.4	-41.8	19.7	0.00e+00	0	29	0	335544320	52	7028
2026-01-16 11:30:09.18	56.01	7.67	-40.3	-41.8	19.5	0.00e+00	22	29	0	341835776	52	7033
2026-01-16 11:30:12.20	56.50	7.70	-40.7	-42.2	19.2	0.00e+00	59	29	0	347078656	54	6592
2026-01-16 11:30:15.23	57.00	7.74	-40.3	-41.8	19.4	0.00e+00	92	29	0	353370112	54	6300
2026-01-16 11:30:18.26	57.50	7.77	-40.3	-41.9	19.3	0.00e+00	0	29	0	358612992	54	6328
2026-01-16 11:30:21.29	57.99	7.80	-40.3	-41.7	19.5	0.00e+00	2	29	0	364904448	54	6241
2026-01-16 11:30:24.32	58.49	7.83	-40.1	-41.6	19.7	0.00e+00	92	29	0	370147328	54	6115
2026-01-16 11:30:27.35	58.99	7.86	-40.5	-42.0	19.4	0.00e+00	0	29	0	375390208	54	6414
2026-01-16 11:30:30.38	59.49	7.89	-40.8	-42.4	18.9	0.00e+00	16	29	0	381681664	54	6751
2026-01-16 11:30:33.41	60.00	7.91	-41.0	-42.6	18.6	0.00e+00	90	29	0	386924544	54	6891
2026-01-16 11:30:36.44	60.50	7.94	-41.0	-42.6	18.6	0.00e+00	0	29	0	393216000	54	6905
2026-01-16 11:30:39.47	61.00	7.96	-40.9	-42.5	18.8	0.00e+00	0	29	0	398458880	54	6807
2026-01-16 11:30:42.50	61.51	7.98	-40.4	-41.9	19.4	0.00e+00	2	29	0	403701760	54	6346
2026-01-16 11:30:45.53	62.01	7.99	-40.3	-41.7	19.5	0.00e+00	15	29	0	409993216	54	6195
2026-01-16 11:30:48.56	62.52	8.01	-40.0	-41.4	19.8	0.00e+00	21	29	0	415236096	54	6026
2026-01-16 11:30:51.59	63.02	8.02	-40.4	-41.9	19.5	0.00e+00	20	29	0	421527552	54	6365
2026-01-16 11:30:54.62	63.53	8.03	-40.1	-41.5	19.7	0.00e+00	92	29	0	426770432	54	6093
2026-01-16 11:30:57.65	64.03	8.04	-40.2	-41.6	19.8	0.00e+00	4	29	0	433061888	54	6126
2026-01-16 11:31:00.68	64.54	8.05	-39.8	-41.2	20.1	0.00e+00	2	29	0	438304768	54	5846
2026-01-16 11:31:03.71	65.05	8.06	-39.7	-41.0	20.4	0.00e+00	92	29	0	443547648	52	6403
2026-01-16 11:31:06.74	65.56	8.06	-39.8	-41.1	20.4	0.00e+00	22	29	0	449839104	52	6531
2026-01-16 11:31:09.76	66.06	8.06	-39.6	-41.0	20.4	0.00e+00	22	29	0	455081984	52	6401
2026-01-16 11:31:12.79	66.57	8.06	-39.7	-41.1	20.4	0.00e+00	73	29	0	461373440	52	6487
2026-01-16 11:31:15.82	67.08	8.06	-39.4	-40.7	20.7	0.00e+00	72	29	0	466616320	52	6199
2026-01-16 11:31:18.85	67.58	8.06	-38.9	-40.1	21.0	0.00e+00	60	29	0	471859200	52	5793
2026-01-16 11:31:21.88	68.09	8.05	-38.9	-40.1	20.8	0.00e+00	0	29	0	478150656	52	5801
2026-01-16 11:31:24.91	68.60	8.05	-39.2	-40.5	20.8	0.00e+00	92	28	0	483393536	52	6067
2026-01-16 11:31:27.94	69.10	8.04	-39.1	-40.3	20.9	0.00e+00	17	28	0	489684992	52	5934
2026-01-16 11:31:30.97	69.61	8.02	-39.0	-40.3	20.9	0.00e+00	4	29	0	494927872	52	5906
2026-01-16 11:31:34.00	70.12	8.01	-38.9	-40.1	21.0	0.00e+00	92	28	0	501219328	52	5791
2026-01-16 11:31:37.03	70.62	8.00	-39.2	-40.4	20.8	0.00e+00	60	28	0	506462208	52	6022
2026-01-16 11:31:40.05	71.13	7.98	-38.9	-40.1	21.0	0.00e+00	62	28	0	511705088	52	5795
2026-01-16 11:31:43.08	71.63	7.96	-39.0	-40.2	20.9	0.00e+00	51	28	0	517996544	52	5869
2026-01-16 11:31:46.11	72.13	7.94	-38.9	-40.1	21.1	0.00e+00	0	28	0	523239424	52	5800
2026-01-16 11:31:49.14	72.64	7.92	-38.6	-39.7	21.3	0.00e+00	0	28	0	529530880	50	6223
2026-01-16 11:31:52.18	73.14	7.89	-38.9	-40.1	21.0	0.00e+00	58	28	0	534773760	50	6531
2026-01-16 11:31:55.21	73.64	7.87	-38.9	-40.1	21.0	0.00e+00	92	28	0	540016640	50	6492
2026-01-16 11:31:58.23	74.14	7.84	-39.1	-40.3	20.6	0.00e+00	63	28	0	546308096	50	6668
2026-01-16 11:32:01.26	74.64	7.81	-38.9	-40.2	20.9	0.00e+00	0	28	0	551550976	50	6544
2026-01-16 11:32:04.29	75.14	7.78	-39.1	-40.3	20.7	0.00e+00	92	28	0	557842432	50	6653
2026-01-16 11:32:07.32	75.64	7.74	-39.1	-40.4	20.7	0.00e+00	21	28	0	563085312	50	6731
2026-01-16 11:32:10.35	76.14	7.71	-38.8	-40.1	20.8	0.00e+00	0	28	0	569376768	50	6493
2026-01-16 11:32:13.38	76.63	7.67	-38.7	-39.9	21.0	0.00e+00	92	28	0	574619648	50	6348
2026-01-16 11:32:16.41	77.13	7.63	-38.4	-39.7	21.2	0.00e+00	60	28	0	579862528	50	6185
2026-01-16 11:32:19.43	77.62	7.59	-38.8	-40.1	20.8	0.00e+00	6	28	0	586153984	50	6512
2026-01-16 11:32:22.46	78.11	7.55	-38.9	-40.2	20.7	0.00e+00	92	28	0	591396864	50	6570
2026-01-16 11:32:25.49	78.60	7.50	-38.6	-40.1	20.9	0.00e+00	6	28	0	597688320	50	6465
2026-01-16 11:32:28.52	79.09	7.46	-38.2	-39.9	21.0	0.00e+00	15	28	0	602931200	50	6333
2026-01-16 11:32:31.55	79.57	7.41	-38.1	-39.8	21.0	0.00e+00	5	28	0	608174080	50	6315
2026-01-16 11:32:34.58	80.06	7.36	-38.2	-39.9	21.1	0.00e+00	92	28	0	614465536	50	6364
2026-01-16 11:32:37.61	80.54	7.31	-37.7	-39.3	21.5	0.00e+00	66	28	0	619708416	48	6685
2026-01-16 11:32:40.64	81.03	7.26	-37.5	-39.0	21.9	0.00e+00	7	28	0	625999872	48	6436
2026-01-16 11:32:43.67	81.51	7.20	-37.7	-39.1	21.7	0.00e+00	92	28	0	631242752	48	6534
2026-01-16 11:32:46.70	81.99	7.15	-38.0	-39.6	21.2	0.00e+00	6	28	0	637534208	48	6860
2026-01-16 11:32:49.73	82.46	7.09	-37.9	-39.5	21.3	0.00e+00	21	28	0	642777088	48	6838
2026-01-16 11:32:52.76	82.94	7.03	-37.9	-39.7	21.2	0.00e+00	92	28	0	648019968	48	6979
2026-01-16 11:32:55.79	83.41	6.97	-37.8	-39.7	21.1	0.00e+00	68	28	0	654311424	48	6968
2026-01-16 11:32:58.82	83.89	6.91	-37.8	-39.7	21.1	0.00e+00	66	28	0	659554304	48	7001
2026-01-16 11:33:01.85	84.36	6.85	-37.7	-39.4	21.4	0.00e+00	65	28	0	665845760	48	6755
2026-01-16 11:33:04.89	84.83	6.78	-37.7	-39.2	21.6	0.00e+00	89	28	0	671088640	48	6586
2026-01-16 11:33:07.92	85.29	6.72	-38.0	-39.4	21.3	0.00e+00	0	28	0	677380096	48	6722
2026-01-16 11:33:10.95	85.75	6.65	-38.7	-40.1	20.5	0.00e+00	20	28	0	682622976	48	7334
2026-01-16 11:33:13.98	86.22	6.58	-39.1	-40.6	20.0	0.00e+00	92	28	0	687865856	50	6880
2026-01-16 11:33:17.01	86.68	6.51	-39.1	-40.6	20.2	0.00e+00	20	28	0	694157312	50	6885
2026-01-16 11:33:20.04	87.13	6.44	-38.7	-40.1	20.5	0.00e+00	2	28	0	699400192	50	6504
2026-01-16 11:33:23.07	87.59	6.36	-38.8	-40.2	20.7	0.00e+00	92	28	0	705691648	50	6571
2026-01-16 11:33:26.09	88.04	6.29	-38.6	-40.0	20.7	0.00e+00	0	28	0	710934528	50	6419
2026-01-16 11:33:29.12	88.49	6.21	-38.8	-40.2	20.4	0.00e+00	14	28	0	716177408	50	6571
2026-01-16 11:33:32.15	88.94	6.14	-39.2	-40.6	20.2	0.00e+00	92	28	0	722468864	50	6869
2026-01-16 11:33:35.18	89.39	6.06	-39.6	-41.0	19.7	0.00e+00	0	28	0	727711744	50	7249
2026-01-16 11:33:38.21	89.83	5.98	-40.6	-42.5	18.2	0.00e+00	2	28	0	734003200	52	7675
2026-01-16 11:33:41.24	90.27	5.90	-40.6	-42.5	18.1	0.00e+00	2	28	0	739246080	52	7651
2026-01-16 11:33:44.27	90.71	5.82	-40.3	-42.2	18.3	0.00e+00	92	28	0	745537536	54	6596
2026-01-16 11:33:47.31	91.15	5.74	-40.2	-42.0	18.7	0.00e+00	0	28	0	750780416	54	6393
2026-01-16 11:33:50.34	91.59	5.65	-40.1	-41.7	18.9	0.00e+00	18	28	0	756023296	54	6223
2026-01-16 11:33:53.37	92.02	5.57	-39.9	-41.4	19.1	0.00e+00	91	28	0	762314752	54	6006
2026-01-16 11:33:56.39	92.45	5.48	-40.1	-41.9	18.8	0.00e+00	19	28	0	767557632	52	7133
2026-01-16 11:33:59.42	92.87	5.39	-40.3	-42.5	18.2	0.00e+00	68	28	0	773849088	52	7645
2026-01-16 11:34:02.43	93.30	5.31	-41.4	-43.7	16.8	0.00e+00	92	28	0	779091968	54	7807
2026-01-16 11:34:05.46	93.72	5.22	-41.3	-44.2	16.4	0.00e+00	6	28	0	784334848	54	8265
2026-01-16 11:34:08.49	94.14	5.13	-41.1	-43.9	16.7	0.00e+00	3	28	0	790626304	54	7988
2026-01-16 11:34:11.52	94.56	5.04	-40.1	-43.8	16.7	0.00e+00	15	28	0	795869184	54	7917
2026-01-16 11:34:14.55	94.97	4.95	-40.3	-43.8	16.7	0.00e+00	0	28	0	802160640	54	7871
2026-01-16 11:34:17.57	95.38	4.85	-41.1	-43.3	17.3	0.00e+00	0	28	0	807403520	54	7440
2026-01-16 11:34:20.61	95.79	4.76	-40.8	-43.0	17.6	0.00e+00	18	28	0	812646400	54	7248
2026-01-16 11:34:23.63	96.20	4.66	-39.9	-42.9	17.5	0.00e+00	90	28	0	818937856	54	7151
2026-01-16 11:34:26.67	96.61	4.57	-39.5	-43.4	17.2	0.00e+00	3	28	0	824180736	52	8461
2026-01-16 11:34:29.70	97.01	4.47	-40.2	-43.0	17.4	0.00e+00	0	28	0	830472192	52	8064
2026-01-16 11:34:32.72	97.41	4.38	-40.7	-43.0	17.3	0.00e+00	90	28	0	835715072	52	8092
2026-01-16 11:34:35.75	97.81	4.28	-40.7	-42.9	17.6	0.00e+00	13	28	0	842006528	52	7955
2026-01-16 11:34:38.78	98.20	4.18	-41.1	-43.8	16.5	0.00e+00	19	28	0	847249408	54	7922
2026-01-16 11:34:41.81	98.59	4.08	-38.9	-44.2	16.1	0.00e+00	72	28	0	852492288	52	9312
2026-01-16 11:34:44.84	98.98	3.98	-38.2	-43.4	16.8	0.00e+00	79	28	0	858783744	50	9507
2026-01-16 11:34:47.87	99.37	3.88	-38.9	-42.2	18.0	0.00e+00	0	28	0	864026624	50	8316
2026-01-16 11:34:50.90	99.75	3.78	-39.5	-42.0	18.0	0.00e+00	0	28	0	870318080	50	8107
2026-01-16 11:34:53.92	100.14	3.68	-40.3	-42.4	17.6	0.00e+00	92	28	0	875560960	52	7551
2026-01-16 11:34:56.95	100.52	3.57	-40.4	-42.2	18.0	0.00e+00	16	28	0	880803840	52	7401
2026-01-16 11:34:59.98	100.89	3.47	-40.0	-42.6	17.3	0.00e+00	71	28	0	887095296	54	6884
2026-01-16 11:35:03.01	101.27	3.37	-39.4	-42.3	17.5	0.00e+00	90	28	0	892338176	52	7498
2026-01-16 11:35:06.04	101.64	3.26	-40.9	-43.0	17.1	0.00e+00	0	27	0	898629632	54	7201
2026-01-16 11:35:09.07	102.01	3.16	-40.2	-43.7	16.3	0.00e+00	0	28	0	903872512	54	7803
2026-01-16 11:35:12.10	102.38	3.05	-39.5	-43.3	16.6	0.00e+00	92	28	0	909115392	52	8362
2026-01-16 11:35:15.13	102.74	2.95	-47.1	-62.4	3.6	1.51e+00	0	28	104	912261120	60	47708
2026-01-16 11:35:18.16	103.10	2.84	-47.7	-62.9	3.6	1.51e+00	0	28	104	912261120	60	50508
2026-01-16 11:35:21.18	103.46	2.73	-47.8	-63.0	3.6	1.51e+00	0	28	104	912261120	60	51160
2026-01-16 11:35:24.21	103.82	2.62	-47.8	-63.0	3.6	1.51e+00	0	28	104	912261120	60	51085
2026-01-16 11:35:27.24	104.17	2.52	-47.8	-63.0	3.6	1.51e+00	0	28	104	912261120	60	51101
2026-01-16 11:35:30.27	104.52	2.41	-47.8	-63.1	3.6	1.51e+00	0	28	104	912261120	60	51405
2026-01-16 11:35:33.30	104.87	2.30	-47.8	-63.0	3.6	1.51e+00	0	28	104	912261120	60	51108
2026-01-16 11:35:36.33	105.22	2.19	-47.8	-63.0	3.6	1.51e+00	0	28	104	912261120	60	51249
2026-01-16 11:35:39.36	105.56	2.08	-47.8	-63.1	3.6	1.51e+00	0	28	104	912261120	60	51498
2026-01-16 11:35:42.40	105.91	1.97	-47.9	-63.1	3.6	1.51e+00	0	28	104	912261120	60	51454
2026-01-16 11:35:45.43	106.25	1.86	-47.9	-63.1	3.6	1.51e+00	0	28	104	912261120	60	51618
2026-01-16 11:35:48.45	106.58	1.75	-47.9	-63.1	3.6	1.51e+00	0	28	104	912261120	60	51884
2026-01-16 11:35:51.48	106.92	1.64	-47.8	-63.0	3.6	1.51e+00	0	28	104	912261120	60	51099
2026-01-16 11:35:54.51	107.25	1.53	-47.8	-63.1	3.6	1.51e+00	0	28	104	912261120	60	51362
2026-01-16 11:35:57.54	107.58	1.41	-47.9	-63.2	3.6	1.51e+00	0	28	104	912261120	60	52005
2026-01-16 11:36:00.57	107.91	1.30	-47.9	-63.1	3.6	1.51e+00	0	28	104	912261120	60	51494
2026-01-16 11:36:03.54	108.23	1.19	-48.0	-63.2	3.6	1.51e+00	0	28	104	912261120	60	52113
2026-01-16 11:36:06.57	108.55	1.08	-48.1	-63.2	3.6	1.51e+00	0	28	104	912261120	60	52518
2026-01-16 11:36:09.60	108.87	0.96	-48.1	-63.3	3.6	1.51e+00	0	28	104	912261120	60	52644
2026-01-16 11:36:12.63	109.19	0.85	-47.9	-63.1	3.6	1.51e+00	0	28	104	912261120	60	51708
2026-01-16 11:36:15.66	109.51	0.74	-48.0	-63.2	3.6	1.51e+00	0	28	104	912261120	60	52490
2026-01-16 11:36:18.69	109.82	0.62	-47.9	-63.1	3.6	1.51e+00	0	28	104	912261120	60	51358
2026-01-16 11:36:21.72	110.13	0.51	-48.1	-63.3	3.6	1.51e+00	0	28	104	912261120	60	52691
2026-01-16 11:36:24.75	110.44	0.40	-47.9	-63.1	3.6	1.51e+00	0	28	104	912261120	60	51847
2026-01-16 11:36:27.78	110.75	0.28	-48.0	-63.1	3.6	1.51e+00	0	28	104	912261120	60	51884
2026-01-16 11:36:30.81	111.05	0.17	-47.9	-63.1	3.6	1.51e+00	0	28	104	912261120	60	51858
2026-01-16 11:36:33.84	111.36	0.05	-48.1	-63.3	3.6	1.51e+00	0	28	104	912261120	60	52609

#Closed at: 2026-01-16 11:36:36
#Recorded file [912 MB]: D:/lorett/data/35029_260116_232551.dat