passes_logs/2026/01/16/R4.6S_Anadyr/R4.6S_Anadyr__20260116_230151_NOAA_20_JPSS-1_rec.log

#Pass ID: 20260116_230151_NOAA 20 (JPSS-1)
#Satellite: NOAA 20 (JPSS-1)
#Configuration: NOAA 20
#almurnet v.1.7.20251203
#Start time: 2026-01-16 23:01:54

#Version: 2.2.20231116
#Station: R4.6S_Anadyr
#Location: 177.4865 lon 64.73178 lat
#TLE: 1 43013U 17073A   26016.52825843  .00000039  00000+0  39346-4 0  9991
#TLE: 2 43013  98.7637 317.4515 0001446  37.2648 322.8628 14.19536276422951

#Time	Az	El	Level	Level2	SNR	BER	BlckErr	Temp	State	Recorded	gain1	gain2
2026-01-16 23:01:54.85	127.15	0.18	-48.7	-62.4	3.3	1.54e+00	0	28	0	0	60	47899
2026-01-16 23:01:58.89	127.03	0.42	-48.3	-63.5	3.6	1.51e+00	0	29	104	0	60	54108
2026-01-16 23:02:02.92	126.91	0.66	-48.0	-63.3	3.6	1.51e+00	0	29	104	0	60	52595
2026-01-16 23:02:06.96	126.79	0.90	-47.6	-62.7	3.6	1.51e+00	0	29	104	0	60	49132
2026-01-16 23:02:11.00	126.67	1.14	-46.7	-61.8	3.6	1.51e+00	0	29	104	0	60	44636
2026-01-16 23:02:15.04	126.54	1.39	-46.7	-61.8	3.6	1.51e+00	0	29	104	0	60	44578
2026-01-16 23:02:19.07	126.41	1.64	-46.7	-61.9	3.6	1.51e+00	0	29	104	0	60	44944
2026-01-16 23:02:23.10	126.28	1.88	-46.6	-61.7	3.6	1.51e+00	0	29	104	0	60	44132
2026-01-16 23:02:27.14	126.15	2.14	-46.6	-61.7	3.6	1.51e+00	0	29	104	0	60	44172
2026-01-16 23:02:31.19	126.01	2.39	-46.6	-61.8	3.6	1.51e+00	0	29	104	0	60	44673
2026-01-16 23:02:35.23	125.87	2.65	-46.6	-61.3	3.6	1.51e+00	0	29	104	0	60	42087
2026-01-16 23:02:39.26	125.73	2.91	-46.6	-61.5	3.6	1.51e+00	0	29	104	0	60	42716
2026-01-16 23:02:43.29	125.59	3.17	-46.1	-54.3	5.8	7.01e-01	92	29	0	0	60	18697
2026-01-16 23:02:47.33	125.45	3.43	-42.6	-45.1	15.8	0.00e+00	89	29	0	7340032	58	7281
2026-01-16 23:02:51.37	125.30	3.69	-46.9	-62.0	3.6	1.51e+00	0	29	104	13631488	60	45603
2026-01-16 23:02:55.41	125.14	3.96	-46.3	-61.0	3.6	8.49e-01	0	29	104	15728640	60	40395
2026-01-16 23:02:59.45	124.99	4.23	-40.3	-41.9	19.0	0.00e+00	90	29	0	19922944	54	6363
2026-01-16 23:03:03.48	124.83	4.50	-40.1	-41.6	19.3	0.00e+00	92	29	0	27262976	54	6164
2026-01-16 23:03:07.52	124.67	4.78	-40.1	-41.7	19.3	0.00e+00	92	29	0	34603008	52	6954
2026-01-16 23:03:11.56	124.51	5.06	-40.6	-42.3	18.8	0.00e+00	92	29	0	42991616	52	7478
2026-01-16 23:03:15.60	124.34	5.34	-40.0	-41.4	19.6	0.00e+00	92	29	0	50331648	54	6033
2026-01-16 23:03:19.63	124.17	5.62	-39.7	-41.1	19.9	0.00e+00	92	29	0	57671680	52	6488
2026-01-16 23:03:23.67	123.99	5.91	-39.8	-41.2	19.9	0.00e+00	92	29	0	65011712	52	6568
2026-01-16 23:03:27.71	123.81	6.20	-40.1	-41.6	19.6	0.00e+00	92	29	0	72351744	52	6872
2026-01-16 23:03:31.75	123.63	6.49	-39.7	-41.1	20.1	0.00e+00	90	29	0	80740352	52	6502
2026-01-16 23:03:35.78	123.44	6.78	-39.4	-40.7	20.5	0.00e+00	49	29	0	88080384	52	6241
2026-01-16 23:03:39.82	123.25	7.08	-39.6	-40.9	20.4	0.00e+00	92	29	0	95420416	52	6373
2026-01-16 23:03:43.86	123.06	7.38	-39.5	-40.8	20.6	0.00e+00	92	29	0	102760448	52	6287
2026-01-16 23:03:47.90	122.86	7.69	-39.0	-40.2	21.1	0.00e+00	92	29	0	111149056	52	5851
2026-01-16 23:03:51.93	122.65	7.99	-39.1	-40.3	21.1	0.00e+00	0	29	0	118489088	52	5924
2026-01-16 23:03:55.97	122.45	8.31	-39.1	-40.3	21.1	0.00e+00	91	29	0	125829120	52	5904
2026-01-16 23:04:00.01	122.23	8.62	-38.6	-39.7	21.6	0.00e+00	92	29	0	133169152	50	6216
2026-01-16 23:04:04.05	122.02	8.94	-38.5	-39.6	21.8	0.00e+00	89	29	0	140509184	50	6113
2026-01-16 23:04:08.08	121.79	9.26	-38.6	-39.7	21.7	0.00e+00	31	29	0	148897792	50	6244
2026-01-16 23:04:12.12	121.56	9.59	-38.4	-39.5	22.0	0.00e+00	91	29	0	156237824	50	6049
2026-01-16 23:04:16.16	121.33	9.92	-38.4	-39.5	21.9	0.00e+00	92	29	0	163577856	50	6060
2026-01-16 23:04:20.20	121.09	10.25	-38.4	-39.5	22.0	0.00e+00	51	29	0	170917888	50	6086
2026-01-16 23:04:24.24	120.85	10.59	-38.3	-39.3	22.1	0.00e+00	74	29	0	179306496	50	5943
2026-01-16 23:04:28.28	120.59	10.93	-38.2	-39.3	22.2	0.00e+00	89	29	0	186646528	50	5911
2026-01-16 23:04:32.31	120.34	11.28	-38.2	-39.3	22.2	0.00e+00	92	29	0	193986560	50	5915
2026-01-16 23:04:36.35	120.07	11.63	-38.1	-39.1	22.4	0.00e+00	8	29	0	201326592	50	5792
2026-01-16 23:04:40.39	119.80	11.98	-37.9	-38.9	22.6	0.00e+00	53	29	0	208666624	50	5665
2026-01-16 23:04:44.42	119.52	12.34	-37.8	-38.8	22.7	0.00e+00	92	29	0	217055232	50	5611
2026-01-16 23:04:48.46	119.24	12.70	-37.9	-38.9	22.7	0.00e+00	92	29	0	224395264	50	5669
2026-01-16 23:04:52.49	118.95	13.07	-37.6	-38.6	22.9	0.00e+00	29	29	0	231735296	48	6131
2026-01-16 23:04:56.53	118.65	13.45	-37.6	-38.6	22.9	0.00e+00	80	29	0	239075328	48	6156
2026-01-16 23:05:00.57	118.34	13.82	-37.7	-38.6	22.9	0.00e+00	92	29	0	247463936	48	6161
2026-01-16 23:05:04.61	118.02	14.21	-37.7	-38.7	22.8	0.00e+00	92	29	0	254803968	48	6180
2026-01-16 23:05:08.64	117.70	14.60	-37.8	-38.8	22.8	0.00e+00	46	29	0	262144000	48	6279
2026-01-16 23:05:12.68	117.36	14.99	-37.8	-38.8	22.7	0.00e+00	92	29	0	269484032	48	6258
2026-01-16 23:05:16.71	117.02	15.39	-37.9	-38.9	22.7	0.00e+00	92	29	0	276824064	48	6336
2026-01-16 23:05:20.75	116.67	15.80	-37.8	-38.8	22.8	0.00e+00	92	28	0	285212672	48	6292
2026-01-16 23:05:24.79	116.31	16.21	-37.8	-38.8	22.8	0.00e+00	0	28	0	292552704	48	6259
2026-01-16 23:05:28.82	115.93	16.62	-37.9	-38.9	22.6	0.00e+00	92	29	0	299892736	48	6385
2026-01-16 23:05:32.86	115.55	17.05	-38.1	-39.1	22.6	0.00e+00	91	28	0	307232768	48	6493
2026-01-16 23:05:36.89	115.15	17.47	-38.0	-39.0	22.6	0.00e+00	90	28	0	314572800	48	6407
2026-01-16 23:05:40.93	114.75	17.91	-38.1	-39.1	22.7	0.00e+00	6	28	0	322961408	48	6525
2026-01-16 23:05:44.96	114.33	18.35	-38.0	-39.0	22.7	0.00e+00	92	28	0	330301440	48	6404
2026-01-16 23:05:49.00	113.90	18.80	-38.2	-39.2	22.6	0.00e+00	92	28	0	337641472	48	6563
2026-01-16 23:05:53.03	113.45	19.25	-38.1	-39.1	22.6	0.00e+00	92	28	0	344981504	48	6526
2026-01-16 23:05:57.07	112.99	19.71	-37.8	-38.8	22.9	0.00e+00	38	28	0	353370112	48	6272
2026-01-16 23:06:01.11	112.52	20.17	-37.7	-38.7	23.0	0.00e+00	91	28	0	360710144	48	6223
2026-01-16 23:06:05.14	112.03	20.65	-37.8	-38.8	22.8	0.00e+00	92	28	0	368050176	48	6287
2026-01-16 23:06:09.18	111.52	21.13	-37.9	-38.9	22.8	0.00e+00	91	28	0	375390208	48	6325
2026-01-16 23:06:13.22	111.00	21.61	-37.9	-38.9	22.8	0.00e+00	0	28	0	382730240	48	6379
2026-01-16 23:06:17.26	110.47	22.11	-38.0	-38.9	22.8	0.00e+00	90	28	0	391118848	48	6383
2026-01-16 23:06:21.29	109.91	22.61	-38.1	-39.1	22.8	0.00e+00	92	28	0	398458880	48	6479
2026-01-16 23:06:25.33	109.34	23.12	-37.9	-38.9	22.9	0.00e+00	92	29	0	405798912	48	6364
2026-01-16 23:06:29.37	108.74	23.63	-38.0	-39.0	22.8	0.00e+00	56	28	0	413138944	48	6428
2026-01-16 23:06:33.40	108.13	24.15	-38.0	-39.0	22.8	0.00e+00	92	28	0	421527552	48	6446
2026-01-16 23:06:37.44	107.49	24.68	-38.1	-39.1	22.7	0.00e+00	92	28	0	428867584	48	6473
2026-01-16 23:06:41.48	106.84	25.21	-38.2	-39.2	22.7	0.00e+00	92	28	0	436207616	48	6555
2026-01-16 23:06:45.52	106.15	25.75	-38.3	-39.4	22.5	0.00e+00	91	28	0	443547648	48	6693
2026-01-16 23:06:49.55	105.45	26.30	-38.1	-39.1	22.7	0.00e+00	91	28	0	450887680	48	6525
2026-01-16 23:06:53.58	104.72	26.85	-38.3	-39.3	22.6	0.00e+00	91	28	0	459276288	48	6638
2026-01-16 23:06:57.62	103.97	27.41	-38.6	-39.7	22.2	0.00e+00	26	28	0	466616320	48	6935
2026-01-16 23:07:01.65	103.19	27.98	-38.8	-39.8	22.0	0.00e+00	90	28	0	473956352	50	6295
2026-01-16 23:07:05.69	102.37	28.55	-39.4	-40.5	21.5	0.00e+00	90	28	0	481296384	50	6806
2026-01-16 23:07:09.73	101.53	29.12	-40.4	-41.7	20.4	0.00e+00	92	28	0	489684992	52	6993
2026-01-16 23:07:13.76	100.66	29.70	-41.3	-42.8	19.3	0.00e+00	0	28	0	497025024	54	7067
2026-01-16 23:07:17.80	99.75	30.29	-41.2	-42.7	19.6	0.00e+00	92	28	0	504365056	54	6933
2026-01-16 23:07:21.83	98.82	30.87	-41.1	-42.5	19.7	0.00e+00	92	28	0	511705088	54	6794
2026-01-16 23:07:25.87	97.84	31.46	-40.9	-42.3	19.9	0.00e+00	92	28	0	519045120	54	6631
2026-01-16 23:07:29.90	96.83	32.06	-41.2	-42.6	19.7	0.00e+00	0	28	0	527433728	54	6916
2026-01-16 23:07:33.93	95.79	32.65	-41.1	-42.5	19.7	0.00e+00	92	28	0	534773760	54	6784
2026-01-16 23:07:37.97	94.70	33.24	-40.4	-41.7	20.5	0.00e+00	92	28	0	542113792	54	6176
2026-01-16 23:07:42.01	93.57	33.84	-40.1	-41.3	20.8	0.00e+00	92	28	0	549453824	54	5955
2026-01-16 23:07:46.05	92.40	34.43	-39.5	-40.7	21.7	0.00e+00	37	28	0	556793856	52	6186
2026-01-16 23:07:50.08	91.19	35.02	-38.9	-40.0	22.1	0.00e+00	92	28	0	565182464	52	5715
2026-01-16 23:07:54.12	89.93	35.60	-39.4	-40.5	21.6	0.00e+00	92	28	0	572522496	52	6096
2026-01-16 23:07:58.15	88.63	36.18	-39.7	-40.9	21.4	0.00e+00	92	28	0	579862528	52	6334
2026-01-16 23:08:02.19	87.27	36.75	-40.0	-41.2	21.2	0.00e+00	0	28	0	587202560	52	6541
2026-01-16 23:08:06.23	85.87	37.32	-39.9	-41.1	21.4	0.00e+00	92	28	0	595591168	52	6497
2026-01-16 23:08:10.27	84.42	37.87	-40.5	-41.8	20.2	0.00e+00	92	28	0	602931200	54	6281
2026-01-16 23:08:14.30	82.93	38.41	-40.5	-41.8	20.5	0.00e+00	92	28	0	610271232	54	6269
2026-01-16 23:08:18.33	81.38	38.93	-39.8	-41.0	21.3	0.00e+00	0	28	0	617611264	52	6410
2026-01-16 23:08:22.37	79.78	39.43	-39.5	-40.7	21.8	0.00e+00	92	28	0	624951296	52	6176
2026-01-16 23:08:26.41	78.14	39.92	-38.1	-39.0	22.9	0.00e+00	92	28	0	633339904	50	5739
2026-01-16 23:08:30.44	76.44	40.39	-37.8	-38.7	23.2	0.00e+00	25	28	0	640679936	50	5512
2026-01-16 23:08:34.48	74.70	40.83	-38.4	-39.3	22.8	0.00e+00	92	28	0	648019968	48	6683
2026-01-16 23:08:38.51	72.91	41.25	-39.0	-40.1	22.0	0.00e+00	92	28	0	655360000	50	6523
2026-01-16 23:08:42.55	71.07	41.64	-37.6	-38.5	23.5	0.00e+00	92	28	0	662700032	48	6092
2026-01-16 23:08:46.57	69.20	41.99	-37.7	-38.7	23.3	0.00e+00	50	28	0	671088640	48	6178
2026-01-16 23:08:50.61	67.27	42.32	-37.9	-38.8	23.4	0.00e+00	92	28	0	678428672	48	6302
2026-01-16 23:08:54.63	65.32	42.61	-36.9	-37.7	24.2	0.00e+00	92	28	0	685768704	48	5564
2026-01-16 23:08:58.67	63.33	42.87	-37.3	-38.2	23.7	0.00e+00	0	28	0	693108736	48	5857
2026-01-16 23:09:02.70	61.31	43.08	-37.2	-38.1	24.0	0.00e+00	7	28	0	700448768	48	5778
2026-01-16 23:09:06.73	59.27	43.26	-37.3	-38.2	23.7	0.00e+00	92	28	0	708837376	48	5860
2026-01-16 23:09:10.77	57.20	43.40	-37.8	-38.7	23.2	0.00e+00	91	28	0	716177408	48	6244
2026-01-16 23:09:14.80	55.13	43.49	-38.4	-39.4	22.6	0.00e+00	0	28	0	723517440	48	6764
2026-01-16 23:09:18.84	53.04	43.54	-38.5	-39.5	22.6	0.00e+00	30	28	0	730857472	50	6077
2026-01-16 23:09:22.87	50.95	43.55	-39.7	-40.9	21.3	0.00e+00	92	28	0	739246080	52	6334
2026-01-16 23:09:26.91	48.85	43.52	-40.3	-41.5	20.8	0.00e+00	90	28	0	746586112	52	6820
2026-01-16 23:09:30.94	46.77	43.44	-40.3	-41.5	20.9	0.00e+00	0	28	0	753926144	52	6838
2026-01-16 23:09:34.97	44.70	43.33	-40.6	-41.9	20.3	0.00e+00	56	28	0	761266176	52	7094
2026-01-16 23:09:39.01	42.65	43.17	-41.1	-42.5	19.8	0.00e+00	90	28	0	768606208	54	6772
2026-01-16 23:09:43.04	40.62	42.97	-41.7	-43.3	19.1	0.00e+00	91	28	0	776994816	54	7427
2026-01-16 23:09:47.07	38.62	42.73	-41.1	-42.5	20.0	0.00e+00	24	28	0	784334848	54	6831
2026-01-16 23:09:51.11	36.65	42.46	-39.6	-40.8	21.4	0.00e+00	25	28	0	791674880	52	6261
2026-01-16 23:09:55.15	34.71	42.15	-38.8	-39.8	22.2	0.00e+00	90	28	0	799014912	50	6281
2026-01-16 23:09:59.19	32.81	41.80	-37.9	-38.9	23.0	0.00e+00	90	28	0	807403520	48	6360
2026-01-16 23:10:03.23	30.96	41.43	-37.0	-37.9	24.0	0.00e+00	0	28	0	814743552	48	5660
2026-01-16 23:10:07.27	29.15	41.02	-36.3	-37.1	24.6	0.00e+00	0	28	0	822083584	46	5827
2026-01-16 23:10:11.31	27.38	40.59	-35.6	-36.3	25.2	0.00e+00	90	28	0	829423616	44	5946
2026-01-16 23:10:15.34	25.67	40.14	-35.7	-36.5	25.0	0.00e+00	91	28	0	836763648	44	6047
2026-01-16 23:10:19.38	24.00	39.66	-35.6	-36.4	25.0	0.00e+00	0	28	0	845152256	44	5989
2026-01-16 23:10:23.41	22.39	39.16	-35.7	-36.4	25.2	0.00e+00	55	28	0	852492288	44	6023
2026-01-16 23:10:27.44	20.83	38.65	-36.2	-37.0	24.7	0.00e+00	91	28	0	859832320	44	6418
2026-01-16 23:10:31.48	19.31	38.12	-36.3	-37.1	24.7	0.00e+00	91	28	0	867172352	44	6480
2026-01-16 23:10:35.52	17.84	37.57	-36.8	-37.6	24.1	0.00e+00	0	28	0	874512384	46	6161
2026-01-16 23:10:39.55	16.43	37.02	-37.1	-38.0	23.8	0.00e+00	87	28	0	882900992	46	6397
2026-01-16 23:10:43.59	15.06	36.45	-37.7	-38.7	23.4	0.00e+00	90	28	0	890241024	48	6186
2026-01-16 23:10:47.63	13.73	35.88	-37.4	-38.3	23.6	0.00e+00	29	28	0	897581056	48	5961
2026-01-16 23:10:51.66	12.46	35.30	-38.2	-39.2	22.9	0.00e+00	0	28	0	904921088	48	6584
2026-01-16 23:10:55.69	11.23	34.72	-39.1	-40.2	21.9	0.00e+00	92	28	0	913309696	50	6604
2026-01-16 23:10:59.73	10.04	34.13	-39.0	-40.0	22.0	0.00e+00	92	28	0	920649728	50	6462
2026-01-16 23:11:03.76	8.90	33.54	-40.4	-41.7	20.5	0.00e+00	6	28	0	927989760	52	6982
2026-01-16 23:11:07.80	7.80	32.95	-40.0	-41.2	21.0	0.00e+00	50	28	0	935329792	52	6587
2026-01-16 23:11:11.84	6.74	32.35	-40.9	-42.3	19.9	0.00e+00	92	28	0	942669824	54	6661
2026-01-16 23:11:15.87	5.72	31.76	-40.9	-42.2	19.9	0.00e+00	91	28	0	951058432	54	6599
2026-01-16 23:11:19.91	4.73	31.17	-40.4	-41.6	20.6	0.00e+00	7	28	0	958398464	54	6152
2026-01-16 23:11:23.95	3.78	30.59	-40.1	-41.3	20.8	0.00e+00	6	28	0	965738496	54	5962
2026-01-16 23:11:27.98	2.86	30.00	-40.1	-41.3	20.8	0.00e+00	92	28	0	973078528	54	5937
2026-01-16 23:11:32.01	1.98	29.42	-39.6	-40.8	21.3	0.00e+00	0	28	0	980418560	52	6286
2026-01-16 23:11:36.04	1.13	28.85	-39.2	-40.3	21.8	0.00e+00	29	27	0	988807168	52	5932
2026-01-16 23:11:40.07	0.31	28.28	-39.3	-40.4	21.8	0.00e+00	0	27	0	996147200	52	5971
2026-01-16 23:11:44.10	359.52	27.72	-38.9	-40.0	22.1	0.00e+00	92	28	0	1003487232	52	5737
2026-01-16 23:11:48.13	358.75	27.16	-38.7	-39.8	22.1	0.00e+00	0	27	0	1010827264	50	6282
2026-01-16 23:11:52.17	358.01	26.60	-38.6	-39.6	22.3	0.00e+00	0	28	0	1019215872	50	6120
2026-01-16 23:11:56.20	357.30	26.06	-38.5	-39.5	22.4	0.00e+00	0	28	0	1026555904	50	6057
2026-01-16 23:12:00.24	356.61	25.51	-38.9	-40.0	22.0	0.00e+00	92	28	0	1033895936	50	6403
2026-01-16 23:12:04.27	355.95	24.98	-38.0	-39.0	23.0	0.00e+00	32	27	0	1041235968	50	5724
2026-01-16 23:12:08.31	355.31	24.45	-37.8	-38.8	23.1	0.00e+00	0	28	0	1048576000	50	5587
2026-01-16 23:12:12.35	354.69	23.93	-38.2	-39.2	22.8	0.00e+00	0	27	0	1056964608	50	5843
2026-01-16 23:12:16.39	354.09	23.41	-38.6	-39.7	22.2	0.00e+00	92	27	0	1064304640	50	6188
2026-01-16 23:12:20.43	353.50	22.90	-38.4	-39.4	22.5	0.00e+00	30	27	0	1071644672	50	6004
2026-01-16 23:12:24.46	352.94	22.40	-38.4	-39.4	22.6	0.00e+00	52	27	0	1078984704	50	6031
2026-01-16 23:12:28.48	352.40	21.91	-38.1	-39.1	22.8	0.00e+00	16	27	0	1086324736	50	5787
2026-01-16 23:12:32.51	351.88	21.42	-38.1	-39.1	22.9	0.00e+00	92	27	0	1094713344	50	5764
2026-01-16 23:12:36.54	351.37	20.94	-38.0	-39.0	22.9	0.00e+00	2	27	0	1102053376	50	5734
2026-01-16 23:12:40.57	350.88	20.47	-38.2	-39.1	22.7	0.00e+00	0	28	0	1109393408	50	5824
2026-01-16 23:12:44.61	350.40	20.00	-38.0	-39.0	22.8	0.00e+00	29	27	0	1116733440	50	5729
2026-01-16 23:12:48.65	349.94	19.54	-38.2	-39.1	22.7	0.00e+00	32	27	0	1125122048	50	5822
2026-01-16 23:12:52.68	349.49	19.08	-38.4	-39.4	22.4	0.00e+00	6	27	0	1132462080	50	6033
2026-01-16 23:12:56.72	349.05	18.64	-38.6	-39.7	22.2	0.00e+00	0	27	0	1139802112	50	6182
2026-01-16 23:13:00.75	348.63	18.19	-38.7	-39.7	22.1	0.00e+00	92	27	0	1147142144	50	6226
2026-01-16 23:13:04.79	348.22	17.76	-38.2	-39.3	22.5	0.00e+00	48	27	0	1154482176	50	5901
2026-01-16 23:13:08.82	347.82	17.33	-38.7	-39.7	22.1	0.00e+00	48	27	0	1162870784	50	6215
2026-01-16 23:13:12.85	347.43	16.91	-38.7	-39.7	22.1	0.00e+00	38	27	0	1170210816	50	6243
2026-01-16 23:13:16.89	347.06	16.49	-39.0	-40.1	21.7	0.00e+00	91	27	0	1177550848	50	6535
2026-01-16 23:13:20.92	346.69	16.08	-39.1	-40.2	21.6	0.00e+00	6	27	0	1184890880	50	6570
2026-01-16 23:13:24.96	346.34	15.67	-39.2	-40.4	21.4	0.00e+00	0	27	0	1192230912	50	6735
2026-01-16 23:13:28.99	345.99	15.27	-39.3	-40.4	21.5	0.00e+00	43	27	0	1200619520	50	6743
2026-01-16 23:13:33.03	345.66	14.87	-39.3	-40.4	21.3	0.00e+00	92	27	0	1207959552	50	6737
2026-01-16 23:13:37.07	345.33	14.48	-39.2	-40.3	21.4	0.00e+00	0	27	0	1215299584	50	6671
2026-01-16 23:13:41.10	345.01	14.10	-39.1	-40.2	21.6	0.00e+00	0	27	0	1222639616	50	6556
2026-01-16 23:13:45.14	344.71	13.72	-39.3	-40.4	21.3	0.00e+00	0	27	0	1231028224	50	6752
2026-01-16 23:13:49.17	344.40	13.34	-39.2	-40.3	21.4	0.00e+00	92	27	0	1238368256	50	6657
2026-01-16 23:13:53.21	344.11	12.97	-39.6	-40.8	20.9	0.00e+00	47	27	0	1245708288	50	7031
2026-01-16 23:13:57.25	343.83	12.61	-39.8	-41.1	20.6	0.00e+00	46	27	0	1253048320	52	6521
2026-01-16 23:14:01.28	343.55	12.25	-39.8	-41.0	20.6	0.00e+00	42	27	0	1260388352	52	6460
2026-01-16 23:14:05.32	343.28	11.89	-39.8	-41.1	20.6	0.00e+00	92	27	0	1268776960	52	6482
2026-01-16 23:14:09.36	343.01	11.54	-39.7	-41.0	20.7	0.00e+00	0	27	0	1276116992	52	6397
2026-01-16 23:14:13.40	342.75	11.19	-39.7	-41.0	20.7	0.00e+00	0	27	0	1283457024	52	6412
2026-01-16 23:14:17.43	342.50	10.85	-39.9	-41.1	20.6	0.00e+00	25	27	0	1290797056	52	6539
2026-01-16 23:14:21.46	342.26	10.51	-40.1	-41.4	20.1	0.00e+00	92	27	0	1298137088	52	6753
2026-01-16 23:14:25.49	342.02	10.18	-39.9	-41.2	20.4	0.00e+00	2	27	0	1306525696	52	6558
2026-01-16 23:14:29.52	341.79	9.85	-40.1	-41.5	20.2	0.00e+00	0	27	0	1313865728	52	6770
2026-01-16 23:14:33.56	341.56	9.52	-40.1	-41.5	20.2	0.00e+00	70	27	0	1321205760	52	6809
2026-01-16 23:14:37.60	341.33	9.20	-40.0	-41.4	20.1	0.00e+00	22	27	0	1328545792	52	6721
2026-01-16 23:14:41.64	341.12	8.88	-40.2	-41.7	19.9	0.00e+00	42	27	0	1336934400	52	6943
2026-01-16 23:14:45.68	340.90	8.56	-40.1	-41.6	19.9	0.00e+00	39	27	0	1344274432	52	6874
2026-01-16 23:14:49.71	340.70	8.25	-40.6	-42.2	19.3	0.00e+00	92	27	0	1351614464	54	6597
2026-01-16 23:14:53.75	340.49	7.94	-40.4	-42.0	19.4	0.00e+00	12	27	0	1358954496	54	6395
2026-01-16 23:14:57.79	340.30	7.64	-40.7	-42.4	19.0	0.00e+00	6	27	0	1366294528	54	6721
2026-01-16 23:15:01.83	340.10	7.34	-40.4	-42.0	19.3	0.00e+00	49	27	0	1374683136	54	6421
2026-01-16 23:15:05.87	339.91	7.04	-40.9	-42.6	18.7	0.00e+00	92	27	0	1382023168	54	6857
2026-01-16 23:15:09.91	339.73	6.74	-40.8	-42.4	18.9	0.00e+00	43	27	0	1389363200	54	6764
2026-01-16 23:15:13.95	339.54	6.45	-40.6	-42.2	19.0	0.00e+00	7	27	0	1396703232	54	6595
2026-01-16 23:15:17.99	339.37	6.16	-40.4	-42.0	19.2	0.00e+00	41	27	0	1405091840	54	6403
2026-01-16 23:15:22.02	339.19	5.87	-40.5	-42.2	18.7	0.00e+00	92	27	0	1412431872	54	6585
2026-01-16 23:15:26.06	339.02	5.59	-40.7	-42.5	18.0	0.00e+00	43	27	0	1419771904	54	6823
2026-01-16 23:15:30.10	338.86	5.31	-41.5	-43.7	16.6	0.00e+00	0	27	0	1427111936	54	7822
2026-01-16 23:15:34.14	338.69	5.03	-42.3	-45.2	14.7	7.00e-07	0	27	0	1434451968	56	8273
2026-01-16 23:15:38.18	338.53	4.75	-43.0	-47.2	12.0	3.23e-04	92	28	0	1442840576	58	9241
2026-01-16 23:15:42.21	338.38	4.48	-43.4	-49.7	8.1	3.56e-02	41	28	0	1450180608	58	12347
2026-01-16 23:15:46.25	338.23	4.21	-43.6	-52.9	4.4	6.28e-01	39	28	0	1457520640	58	18010
2026-01-16 23:15:50.29	338.08	3.94	-43.5	-56.4	3.8	1.48e+00	0	28	104	1460666368	58	26673
2026-01-16 23:15:54.33	337.93	3.67	-43.3	-58.3	3.6	1.51e+00	0	28	104	1460666368	58	33435
2026-01-16 23:15:58.36	337.78	3.41	-43.3	-58.4	3.6	1.51e+00	0	28	104	1460666368	58	33782
2026-01-16 23:16:02.40	337.64	3.15	-43.4	-58.5	3.6	1.51e+00	0	28	104	1460666368	58	34007
2026-01-16 23:16:06.44	337.50	2.89	-47.6	-62.7	3.6	1.51e+00	0	28	104	1460666368	60	49439
2026-01-16 23:16:10.48	337.37	2.63	-48.4	-63.6	3.6	1.51e+00	0	28	104	1460666368	60	54766
2026-01-16 23:16:14.52	337.24	2.38	-48.3	-63.6	3.6	1.51e+00	0	28	104	1460666368	60	54719
2026-01-16 23:16:18.55	337.11	2.13	-48.3	-63.5	3.6	1.51e+00	0	28	104	1460666368	60	53817
2026-01-16 23:16:22.59	336.98	1.88	-48.4	-63.6	3.6	1.51e+00	0	28	104	1460666368	60	54678
2026-01-16 23:16:26.63	336.85	1.63	-48.4	-63.6	3.6	1.51e+00	0	28	104	1460666368	60	54423
2026-01-16 23:16:30.66	336.73	1.38	-48.3	-63.5	3.6	1.51e+00	0	28	104	1460666368	60	53806
2026-01-16 23:16:34.70	336.61	1.14	-48.4	-63.6	3.6	1.51e+00	0	28	104	1460666368	60	54769
2026-01-16 23:16:38.74	336.49	0.89	-48.5	-63.7	3.6	1.51e+00	0	28	104	1460666368	60	55497
2026-01-16 23:16:42.78	336.37	0.65	-48.2	-63.4	3.6	1.51e+00	0	28	104	1460666368	60	53731
2026-01-16 23:16:46.82	336.26	0.41	-48.5	-63.7	3.6	1.51e+00	0	28	104	1460666368	60	55355
2026-01-16 23:16:50.85	336.15	0.18	-48.5	-63.7	3.6	1.51e+00	0	28	104	1460666368	60	55438
2026-01-16 23:16:54.89	336.03	-0.06	-48.3	-63.6	3.6	1.51e+00	0	28	104	1460666368	60	54546

#Closed at: 2026-01-16 23:16:55
#Recorded file [1460 MB]: D:/lorett/data/35029_260117_110154.dat