passes_logs/2026/01/16/R4.6S_Anadyr/R4.6S_Anadyr__20260116_184506_FENGYUN_3D_rec.log

#Pass ID: 20260116_184506_FENGYUN 3D
#Satellite: FENGYUN 3D
#Configuration: FENGYUN 3D
#almurnet v.1.7.20251203
#Start time: 2026-01-16 18:45:08

#Version: 2.2.20231116
#Station: R4.6S_Anadyr
#Location: 177.4865 lon 64.73178 lat
#TLE: 1 43010U 17072A   26015.99024095 -.00000189  00000+0 -67463-4 0  9996
#TLE: 2 43010  98.9932 347.8215 0002366 106.5594 253.5841 14.19694691423396

#Time	Az	El	Level	Level2	SNR	BER	BlckErr	Temp	State	Recorded	gain1	gain2
2026-01-16 18:45:08.75	27.79	0.12	-48.0	-62.9	3.5	1.51e+00	0	27	0	0	60	50517
2026-01-16 18:45:12.78	27.61	0.35	-47.9	-60.1	3.6	8.45e-01	0	28	104	0	60	36486
2026-01-16 18:45:16.83	27.43	0.58	-48.0	-60.2	3.6	8.44e-01	0	28	104	0	60	36932
2026-01-16 18:45:20.86	27.24	0.81	-47.7	-59.8	3.6	8.44e-01	0	28	104	0	60	35178
2026-01-16 18:45:24.90	27.05	1.04	-46.9	-58.9	3.6	8.45e-01	0	28	104	0	60	31936
2026-01-16 18:45:28.94	26.86	1.27	-46.4	-58.4	3.6	8.46e-01	0	28	104	0	60	30116
2026-01-16 18:45:32.98	26.67	1.51	-46.3	-58.3	3.6	8.45e-01	0	28	104	0	60	29835
2026-01-16 18:45:37.02	26.47	1.75	-46.4	-58.4	3.6	8.44e-01	0	29	104	0	60	30183
2026-01-16 18:45:41.06	26.27	1.99	-46.3	-57.9	3.6	8.46e-01	0	29	104	0	60	28448
2026-01-16 18:45:45.10	26.06	2.23	-46.3	-58.2	3.6	8.45e-01	0	29	104	0	60	29496
2026-01-16 18:45:49.14	25.85	2.47	-46.3	-58.3	3.6	8.45e-01	0	29	104	0	60	29661
2026-01-16 18:45:53.18	25.64	2.71	-46.2	-57.5	3.6	8.46e-01	0	29	104	0	60	27088
2026-01-16 18:45:57.21	25.42	2.96	-46.3	-58.2	3.6	8.45e-01	0	29	104	0	60	29271
2026-01-16 18:46:01.25	25.20	3.20	-43.0	-45.6	11.8	1.80e-03	0	29	0	10485760	60	6920
2026-01-16 18:46:05.28	24.98	3.45	-40.1	-41.6	15.8	0.00e+00	0	29	0	33554432	52	6921
2026-01-16 18:46:09.32	24.75	3.70	-46.3	-57.7	3.7	8.45e-01	0	29	104	52428800	60	27831
2026-01-16 18:46:13.36	24.52	3.96	-36.6	-37.6	19.9	0.00e+00	0	29	0	67108864	46	6146
2026-01-16 18:46:17.40	24.28	4.21	-34.7	-35.5	21.9	0.00e+00	0	29	0	90177536	44	5431
2026-01-16 18:46:21.44	24.04	4.47	-35.2	-36.1	21.5	0.00e+00	0	29	0	113246208	42	6497
2026-01-16 18:46:25.48	23.79	4.73	-34.6	-35.4	22.3	0.00e+00	0	29	0	135266304	42	5996
2026-01-16 18:46:29.52	23.54	4.99	-34.8	-35.5	22.2	0.00e+00	0	29	0	158334976	42	6102
2026-01-16 18:46:33.56	23.28	5.25	-34.5	-35.3	22.4	0.00e+00	0	29	0	181403648	42	5954
2026-01-16 18:46:37.60	23.02	5.51	-34.2	-35.0	22.7	0.00e+00	0	29	0	203423744	42	5721
2026-01-16 18:46:41.64	22.76	5.78	-34.3	-35.0	22.8	0.00e+00	0	29	0	226492416	42	5753
2026-01-16 18:46:45.68	22.49	6.05	-34.4	-35.1	22.7	0.00e+00	0	29	0	249561088	42	5826
2026-01-16 18:46:49.71	22.21	6.32	-34.2	-35.0	22.9	0.00e+00	0	29	0	271581184	42	5699
2026-01-16 18:46:53.75	21.93	6.59	-34.3	-35.0	22.8	0.00e+00	0	29	0	294649856	42	5754
2026-01-16 18:46:57.79	21.64	6.87	-34.0	-34.8	23.1	0.00e+00	0	29	0	317718528	42	5604
2026-01-16 18:47:01.83	21.35	7.14	-33.9	-34.6	23.3	0.00e+00	0	29	0	339738624	40	6154
2026-01-16 18:47:05.87	21.05	7.42	-34.0	-34.7	23.2	0.00e+00	0	29	0	362807296	40	6211
2026-01-16 18:47:09.91	20.74	7.71	-33.8	-34.5	23.4	0.00e+00	0	29	0	385875968	40	6070
2026-01-16 18:47:13.95	20.43	7.99	-33.7	-34.4	23.4	0.00e+00	0	30	0	407896064	40	6027
2026-01-16 18:47:17.99	20.11	8.28	-33.4	-34.1	23.8	0.00e+00	0	29	0	430964736	40	5762
2026-01-16 18:47:22.03	19.79	8.57	-33.6	-34.3	23.6	0.00e+00	0	30	0	454033408	40	5956
2026-01-16 18:47:26.07	19.45	8.86	-33.3	-34.0	23.9	0.00e+00	0	30	0	476053504	40	5737
2026-01-16 18:47:30.11	19.12	9.15	-33.3	-34.0	24.0	0.00e+00	0	30	0	499122176	40	5723
2026-01-16 18:47:34.15	18.77	9.45	-33.3	-34.0	24.0	0.00e+00	0	30	0	522190848	40	5735
2026-01-16 18:47:38.18	18.42	9.75	-33.3	-34.0	24.0	0.00e+00	0	30	0	544210944	40	5718
2026-01-16 18:47:42.22	18.06	10.05	-33.3	-34.0	24.0	0.00e+00	0	30	0	567279616	40	5722
2026-01-16 18:47:46.26	17.69	10.35	-33.3	-34.0	24.1	0.00e+00	0	30	0	589299712	40	5735
2026-01-16 18:47:50.30	17.31	10.66	-33.1	-33.8	24.3	0.00e+00	0	29	0	612368384	40	5609
2026-01-16 18:47:54.33	16.92	10.97	-32.9	-33.6	24.5	0.00e+00	0	30	0	635437056	38	6146
2026-01-16 18:47:58.37	16.53	11.28	-32.7	-33.3	24.7	0.00e+00	0	30	0	658505728	38	5954
2026-01-16 18:48:02.41	16.13	11.59	-32.8	-33.4	24.6	0.00e+00	0	30	0	680525824	38	6026
2026-01-16 18:48:06.45	15.71	11.91	-32.4	-33.1	25.0	0.00e+00	0	30	0	703594496	38	5771
2026-01-16 18:48:10.48	15.29	12.23	-32.4	-33.1	24.9	0.00e+00	0	30	0	726663168	38	5816
2026-01-16 18:48:14.52	14.86	12.55	-32.2	-32.9	25.1	0.00e+00	0	30	0	748683264	38	5668
2026-01-16 18:48:18.56	14.42	12.88	-32.2	-32.9	25.2	0.00e+00	0	30	0	771751936	38	5671
2026-01-16 18:48:22.60	13.97	13.20	-32.4	-33.0	25.1	0.00e+00	0	30	0	794820608	38	5743
2026-01-16 18:48:26.64	13.51	13.53	-31.9	-32.6	25.4	0.00e+00	0	30	0	816840704	38	5473
2026-01-16 18:48:30.68	13.04	13.87	-32.0	-32.6	25.4	0.00e+00	0	30	0	839909376	38	5481
2026-01-16 18:48:34.72	12.55	14.20	-32.0	-32.7	25.4	0.00e+00	0	30	0	862978048	38	5515
2026-01-16 18:48:38.76	12.06	14.54	-32.0	-32.7	25.4	0.00e+00	0	30	0	884998144	38	5511
2026-01-16 18:48:42.79	11.55	14.88	-31.9	-32.6	25.5	0.00e+00	0	30	0	908066816	38	5461
2026-01-16 18:48:46.83	11.04	15.22	-31.5	-32.1	25.9	0.00e+00	0	30	0	931135488	36	5822
2026-01-16 18:48:50.87	10.50	15.57	-31.6	-32.2	25.9	0.00e+00	0	30	0	953155584	36	5875
2026-01-16 18:48:54.91	9.96	15.91	-31.4	-32.1	26.0	0.00e+00	0	30	0	976224256	36	5778
2026-01-16 18:48:58.95	9.40	16.26	-31.4	-32.1	26.0	0.00e+00	0	30	0	998244352	36	5819
2026-01-16 18:49:02.99	8.83	16.61	-31.3	-31.9	26.0	0.00e+00	0	30	0	1021313024	36	5692
2026-01-16 18:49:07.03	8.25	16.97	-30.9	-31.6	26.4	0.00e+00	0	30	0	1044381696	36	5450
2026-01-16 18:49:11.07	7.65	17.32	-30.9	-31.6	26.4	0.00e+00	0	30	0	1067450368	36	5453
2026-01-16 18:49:15.11	7.04	17.68	-30.7	-31.3	26.7	0.00e+00	0	30	0	1089470464	34	5935
2026-01-16 18:49:19.14	6.41	18.04	-30.9	-31.6	26.5	0.00e+00	0	30	0	1112539136	34	6106
2026-01-16 18:49:23.18	5.77	18.40	-30.7	-31.4	26.5	0.00e+00	0	30	0	1135607808	34	5992
2026-01-16 18:49:27.22	5.11	18.76	-30.5	-31.1	26.8	0.00e+00	0	30	0	1157627904	34	5792
2026-01-16 18:49:31.26	4.43	19.13	-30.4	-31.0	27.0	0.00e+00	0	30	0	1180696576	34	5740
2026-01-16 18:49:35.30	3.74	19.49	-30.3	-30.9	27.0	0.00e+00	0	30	0	1203765248	34	5695
2026-01-16 18:49:39.34	3.03	19.86	-30.2	-30.9	27.1	0.00e+00	0	30	0	1225785344	34	5645
2026-01-16 18:49:43.38	2.30	20.22	-30.5	-31.2	26.9	0.00e+00	0	30	0	1248854016	34	5833
2026-01-16 18:49:47.41	1.56	20.59	-30.6	-31.2	26.7	0.00e+00	0	30	0	1270874112	34	5889
2026-01-16 18:49:51.46	0.79	20.96	-30.5	-31.1	26.9	0.00e+00	0	30	0	1293942784	34	5828
2026-01-16 18:49:55.50	0.01	21.32	-30.2	-30.8	27.2	0.00e+00	0	30	0	1317011456	34	5619
2026-01-16 18:49:59.54	359.21	21.69	-30.2	-30.8	27.2	0.00e+00	0	30	0	1340080128	34	5593
2026-01-16 18:50:03.58	358.39	22.05	-30.1	-30.7	27.3	0.00e+00	0	30	0	1362100224	34	5531
2026-01-16 18:50:07.62	357.55	22.42	-29.9	-30.5	27.3	0.00e+00	0	31	0	1385168896	34	5410
2026-01-16 18:50:11.66	356.69	22.78	-29.6	-30.2	27.7	0.00e+00	0	30	0	1408237568	32	5894
2026-01-16 18:50:15.70	355.81	23.14	-29.9	-30.5	27.4	0.00e+00	0	31	0	1430257664	32	6080
2026-01-16 18:50:19.73	354.91	23.50	-29.9	-30.5	27.3	0.00e+00	0	30	0	1453326336	32	6103
2026-01-16 18:50:23.77	353.99	23.85	-29.3	-29.9	27.8	0.00e+00	0	30	0	1476395008	32	5685
2026-01-16 18:50:27.81	353.04	24.20	-29.5	-30.1	27.8	0.00e+00	0	30	0	1498415104	32	5795
2026-01-16 18:50:31.85	352.08	24.55	-29.3	-29.9	27.9	0.00e+00	0	30	0	1521483776	32	5690
2026-01-16 18:50:35.89	351.09	24.89	-29.2	-29.8	28.0	0.00e+00	0	30	0	1544552448	32	5624
2026-01-16 18:50:39.92	350.08	25.23	-29.6	-30.2	27.6	0.00e+00	0	30	0	1566572544	32	5890
2026-01-16 18:50:43.96	349.05	25.56	-29.5	-30.1	27.7	0.00e+00	0	30	0	1589641216	32	5820
2026-01-16 18:50:48.00	348.00	25.89	-29.3	-30.0	27.8	0.00e+00	0	30	0	1611661312	32	5713
2026-01-16 18:50:52.04	346.93	26.21	-29.4	-30.0	27.8	0.00e+00	0	31	0	1634729984	32	5741
2026-01-16 18:50:56.08	345.83	26.52	-29.1	-29.7	28.0	0.00e+00	0	30	0	1657798656	32	5547
2026-01-16 18:51:00.12	344.71	26.82	-29.0	-29.6	28.1	0.00e+00	0	31	0	1680867328	32	5500
2026-01-16 18:51:04.16	343.57	27.11	-29.2	-29.8	28.0	0.00e+00	0	31	0	1702887424	32	5582
2026-01-16 18:51:08.20	342.41	27.40	-29.2	-29.8	28.0	0.00e+00	0	31	0	1725956096	32	5601
2026-01-16 18:51:12.24	341.23	27.67	-29.0	-29.6	28.1	0.00e+00	0	31	0	1749024768	32	5472
2026-01-16 18:51:16.28	340.03	27.93	-29.1	-29.7	28.1	0.00e+00	0	31	0	1771044864	32	5556
2026-01-16 18:51:20.32	338.81	28.18	-29.0	-29.7	28.2	0.00e+00	0	31	0	1794113536	32	5505
2026-01-16 18:51:24.36	337.57	28.42	-28.8	-29.4	28.4	0.00e+00	0	31	0	1816133632	32	5375
2026-01-16 18:51:28.39	336.32	28.64	-29.0	-29.6	28.2	0.00e+00	0	31	0	1839202304	30	6133
2026-01-16 18:51:32.43	335.04	28.85	-28.7	-29.4	28.3	0.00e+00	0	31	0	1862270976	30	5992
2026-01-16 18:51:36.47	333.75	29.05	-28.9	-29.6	28.2	0.00e+00	0	31	0	1885339648	30	6116
2026-01-16 18:51:40.51	332.44	29.23	-28.9	-29.5	28.2	0.00e+00	0	31	0	1907359744	30	6064
2026-01-16 18:51:44.54	331.12	29.39	-28.7	-29.4	28.3	0.00e+00	0	31	0	1930428416	30	5965
2026-01-16 18:51:48.57	329.79	29.54	-28.6	-29.2	28.4	0.00e+00	0	31	0	1953497088	30	5850
2026-01-16 18:51:52.61	328.45	29.67	-28.7	-29.3	28.5	0.00e+00	0	31	0	1975517184	30	5899
2026-01-16 18:51:56.65	327.09	29.79	-29.1	-29.7	28.1	0.00e+00	0	31	0	1998585856	30	6235
2026-01-16 18:52:00.69	325.72	29.88	-28.5	-29.1	28.5	0.00e+00	0	31	0	2020605952	30	5804
2026-01-16 18:52:04.72	324.35	29.96	-28.8	-29.5	28.3	0.00e+00	0	31	0	2043674624	30	6039
2026-01-16 18:52:08.76	322.97	30.02	-28.5	-29.1	28.5	0.00e+00	0	30	0	2066743296	30	5791
2026-01-16 18:52:12.79	321.59	30.06	-28.8	-29.4	28.3	0.00e+00	0	30	0	2088763392	30	5999
2026-01-16 18:52:16.83	320.21	30.09	-28.6	-29.2	28.5	0.00e+00	0	31	0	2111832064	30	5874
2026-01-16 18:52:20.87	318.82	30.09	-28.5	-29.1	28.6	0.00e+00	0	31	0	2134900736	30	5795
2026-01-16 18:52:24.91	317.43	30.08	-28.5	-29.2	28.5	0.00e+00	0	30	0	2156920832	30	5835
2026-01-16 18:52:28.94	316.05	30.04	-28.6	-29.2	28.5	0.00e+00	0	30	0	2179989504	30	5894
2026-01-16 18:52:32.98	314.67	29.99	-28.4	-29.1	28.5	0.00e+00	0	30	0	2203058176	30	5774
2026-01-16 18:52:37.02	313.29	29.92	-28.6	-29.2	28.4	0.00e+00	0	30	0	2225078272	30	5846
2026-01-16 18:52:41.06	311.92	29.83	-28.5	-29.2	28.6	0.00e+00	0	30	0	2248146944	30	5857
2026-01-16 18:52:45.10	310.56	29.72	-28.5	-29.1	28.5	0.00e+00	0	30	0	2271215616	30	5822
2026-01-16 18:52:49.14	309.21	29.60	-28.2	-28.8	28.7	0.00e+00	0	30	0	2293235712	30	5597
2026-01-16 18:52:53.17	307.87	29.45	-28.7	-29.3	28.4	0.00e+00	0	30	0	2316304384	30	5951
2026-01-16 18:52:57.21	306.54	29.30	-28.6	-29.2	28.5	0.00e+00	0	30	0	2339373056	30	5869
2026-01-16 18:53:01.25	305.23	29.12	-28.7	-29.3	28.4	0.00e+00	0	30	0	2361393152	30	5923
2026-01-16 18:53:05.29	303.93	28.93	-28.9	-29.5	28.3	0.00e+00	0	30	0	2384461824	30	6090
2026-01-16 18:53:09.33	302.64	28.73	-29.2	-29.7	28.0	0.00e+00	0	30	0	2407530496	30	6202
2026-01-16 18:53:13.37	301.38	28.51	-29.0	-29.6	28.1	0.00e+00	0	30	0	2429550592	30	6133
2026-01-16 18:53:17.41	300.13	28.27	-28.6	-29.3	28.5	0.00e+00	0	30	0	2452619264	30	5918
2026-01-16 18:53:21.44	298.90	28.03	-29.0	-29.5	28.2	0.00e+00	0	30	0	2475687936	30	6060
2026-01-16 18:53:25.48	297.69	27.77	-28.8	-29.4	28.2	0.00e+00	0	30	0	2497708032	30	5990
2026-01-16 18:53:29.52	296.50	27.50	-28.8	-29.5	28.3	0.00e+00	0	30	0	2520776704	30	6074
2026-01-16 18:53:33.56	295.33	27.22	-28.8	-29.4	28.3	0.00e+00	0	30	0	2543845376	30	6003
2026-01-16 18:53:37.60	294.18	26.93	-29.0	-29.6	28.2	0.00e+00	0	30	0	2565865472	30	6170
2026-01-16 18:53:41.63	293.05	26.63	-29.0	-29.6	28.2	0.00e+00	0	30	0	2588934144	30	6172
2026-01-16 18:53:45.68	291.94	26.32	-29.1	-29.7	28.0	0.00e+00	0	30	0	2612002816	30	6191
2026-01-16 18:53:49.71	290.86	26.01	-29.4	-30.0	27.8	0.00e+00	0	30	0	2634022912	30	6418
2026-01-16 18:53:53.75	289.79	25.68	-29.5	-30.1	27.9	0.00e+00	0	30	0	2657091584	30	6498
2026-01-16 18:53:57.78	288.75	25.36	-29.3	-29.9	27.8	0.00e+00	0	30	0	2680160256	30	6323
2026-01-16 18:54:01.82	287.73	25.02	-29.1	-29.7	28.0	0.00e+00	0	30	0	2702180352	30	6232
2026-01-16 18:54:05.86	286.73	24.68	-29.3	-29.8	27.7	0.00e+00	0	30	0	2725249024	30	6290
2026-01-16 18:54:09.90	285.76	24.33	-29.1	-29.8	27.8	0.00e+00	0	30	0	2748317696	30	6278
2026-01-16 18:54:13.94	284.80	23.98	-29.3	-30.0	27.7	0.00e+00	0	30	0	2770337792	30	6442
2026-01-16 18:54:17.98	283.87	23.63	-29.2	-29.9	27.8	0.00e+00	0	30	0	2793406464	30	6341
2026-01-16 18:54:22.01	282.96	23.27	-29.5	-30.0	27.6	0.00e+00	0	30	0	2815426560	30	6421
2026-01-16 18:54:26.05	282.07	22.91	-29.7	-30.4	27.2	0.00e+00	0	30	0	2838495232	32	5966
2026-01-16 18:54:30.09	281.19	22.55	-29.6	-30.2	27.0	0.00e+00	0	30	0	2861563904	32	5840
2026-01-16 18:54:34.13	280.34	22.18	-29.8	-30.5	27.1	0.00e+00	0	30	0	2884632576	32	6063
2026-01-16 18:54:38.16	279.51	21.82	-30.0	-30.7	27.1	0.00e+00	0	29	0	2906652672	32	6191
2026-01-16 18:54:42.20	278.70	21.45	-29.9	-30.5	27.2	0.00e+00	0	30	0	2929721344	32	6059
2026-01-16 18:54:46.23	277.91	21.08	-30.0	-30.6	27.1	0.00e+00	0	30	0	2952790016	32	6133
2026-01-16 18:54:50.27	277.14	20.72	-30.0	-30.5	27.2	0.00e+00	0	30	0	2974810112	32	6095
2026-01-16 18:54:54.31	276.38	20.35	-30.2	-30.8	26.9	0.00e+00	0	29	0	2997878784	32	6257
2026-01-16 18:54:58.34	275.65	19.98	-30.0	-30.7	27.1	0.00e+00	0	30	0	3019898880	32	6175
2026-01-16 18:55:02.38	274.93	19.62	-30.1	-30.8	27.0	0.00e+00	0	29	0	3042967552	32	6269
2026-01-16 18:55:06.42	274.23	19.25	-30.4	-30.9	26.8	0.00e+00	0	30	0	3066036224	32	6354
2026-01-16 18:55:10.46	273.54	18.88	-30.4	-30.9	26.9	0.00e+00	0	29	0	3088056320	32	6369
2026-01-16 18:55:14.49	272.87	18.52	-30.4	-30.9	26.7	0.00e+00	0	29	0	3111124992	32	6389
2026-01-16 18:55:18.52	272.22	18.16	-30.4	-31.0	26.8	0.00e+00	0	29	0	3134193664	32	6395
2026-01-16 18:55:22.56	271.59	17.80	-30.7	-31.4	26.6	0.00e+00	0	29	0	3156213760	32	6712
2026-01-16 18:55:26.60	270.96	17.44	-30.9	-31.6	26.4	0.00e+00	0	29	0	3179282432	34	6116
2026-01-16 18:55:30.63	270.36	17.08	-30.8	-31.4	26.4	0.00e+00	0	29	0	3202351104	34	6004
2026-01-16 18:55:34.66	269.77	16.73	-31.0	-31.6	26.2	0.00e+00	0	29	0	3224371200	34	6109
2026-01-16 18:55:38.70	269.19	16.37	-31.0	-31.6	26.2	0.00e+00	0	29	0	3247439872	34	6144
2026-01-16 18:55:42.74	268.62	16.02	-31.3	-31.9	26.0	0.00e+00	0	29	0	3270508544	34	6320
2026-01-16 18:55:46.77	268.07	15.67	-31.4	-32.1	25.9	0.00e+00	0	29	0	3292528640	34	6512
2026-01-16 18:55:50.81	267.53	15.32	-31.2	-31.9	26.0	0.00e+00	0	29	0	3315597312	34	6381
2026-01-16 18:55:54.85	267.01	14.98	-31.5	-32.1	25.8	0.00e+00	0	29	0	3338665984	34	6475
2026-01-16 18:55:58.89	266.49	14.64	-31.5	-32.2	25.8	0.00e+00	0	29	0	3360686080	36	5864
2026-01-16 18:56:02.92	265.99	14.30	-31.4	-32.1	25.9	0.00e+00	0	29	0	3383754752	36	5796
2026-01-16 18:56:06.96	265.50	13.96	-31.9	-32.6	25.4	0.00e+00	0	29	0	3405774848	36	6123
2026-01-16 18:56:11.00	265.02	13.63	-32.0	-32.7	25.3	0.00e+00	0	29	0	3428843520	36	6229
2026-01-16 18:56:15.04	264.55	13.29	-32.2	-32.9	25.1	0.00e+00	0	29	0	3451912192	36	6351
2026-01-16 18:56:19.08	264.09	12.97	-32.5	-33.3	24.9	0.00e+00	0	29	0	3474980864	36	6652
2026-01-16 18:56:23.11	263.65	12.64	-32.2	-32.8	25.2	0.00e+00	0	29	0	3497000960	36	6298
2026-01-16 18:56:27.15	263.21	12.32	-32.4	-33.0	25.0	0.00e+00	0	29	0	3520069632	36	6400
2026-01-16 18:56:31.18	262.78	11.99	-32.3	-33.0	25.0	0.00e+00	0	29	0	3543138304	36	6433
2026-01-16 18:56:35.22	262.36	11.68	-32.4	-33.1	24.9	0.00e+00	0	29	0	3565158400	36	6471
2026-01-16 18:56:39.26	261.95	11.36	-32.8	-33.4	24.6	0.00e+00	0	29	0	3588227072	38	5999
2026-01-16 18:56:43.29	261.56	11.05	-32.8	-33.6	24.5	0.00e+00	0	29	0	3610247168	38	6136
2026-01-16 18:56:47.33	261.16	10.74	-32.7	-33.4	24.6	0.00e+00	0	29	0	3633315840	38	6026
2026-01-16 18:56:51.36	260.78	10.43	-32.9	-33.5	24.4	0.00e+00	0	29	0	3656384512	38	6101
2026-01-16 18:56:55.40	260.41	10.12	-33.1	-33.8	24.2	0.00e+00	0	29	0	3678404608	38	6253
2026-01-16 18:56:59.44	260.04	9.82	-33.3	-33.9	24.0	0.00e+00	0	29	0	3701473280	38	6368
2026-01-16 18:57:03.48	259.68	9.52	-33.0	-33.6	24.3	0.00e+00	0	29	0	3724541952	38	6140
2026-01-16 18:57:07.51	259.33	9.22	-33.1	-33.8	24.2	0.00e+00	0	29	0	3746562048	38	6290
2026-01-16 18:57:11.55	258.98	8.92	-33.4	-34.2	24.0	0.00e+00	0	29	0	3769630720	38	6558
2026-01-16 18:57:15.59	258.65	8.63	-33.3	-34.0	23.9	0.00e+00	0	29	0	3792699392	38	6412
2026-01-16 18:57:19.63	258.32	8.34	-33.4	-34.0	23.8	0.00e+00	0	29	0	3814719488	38	6419
2026-01-16 18:57:23.66	257.99	8.05	-33.3	-34.1	23.9	0.00e+00	0	29	0	3837788160	38	6508
2026-01-16 18:57:27.71	257.67	7.77	-33.4	-34.0	23.7	0.00e+00	0	29	0	3860856832	38	6451
2026-01-16 18:57:31.74	257.36	7.48	-33.6	-34.3	23.6	0.00e+00	0	29	0	3882876928	38	6647
2026-01-16 18:57:35.78	257.06	7.20	-33.6	-34.3	23.5	0.00e+00	0	29	0	3905945600	38	6628
2026-01-16 18:57:39.81	256.76	6.92	-33.7	-34.4	23.4	0.00e+00	0	29	0	3929014272	40	5978
2026-01-16 18:57:43.85	256.47	6.65	-34.0	-34.6	23.1	0.00e+00	0	29	0	3951034368	40	6166
2026-01-16 18:57:47.89	256.18	6.37	-33.9	-34.8	23.1	0.00e+00	0	29	0	3974103040	40	6257
2026-01-16 18:57:51.92	255.90	6.10	-34.3	-35.0	22.7	0.00e+00	0	29	0	3997171712	40	6398
2026-01-16 18:57:55.96	255.62	5.83	-34.0	-34.7	23.0	0.00e+00	0	29	0	4019191808	40	6222
2026-01-16 18:57:59.99	255.35	5.56	-34.3	-35.0	22.7	0.00e+00	0	29	0	4042260480	40	6464
2026-01-16 18:58:04.03	255.09	5.30	-34.2	-34.9	22.7	0.00e+00	0	28	0	4065329152	40	6322
2026-01-16 18:58:08.06	254.83	5.03	-34.0	-34.7	22.8	0.00e+00	0	29	0	4087349248	40	6240
2026-01-16 18:58:12.10	254.57	4.77	-34.3	-35.0	22.5	0.00e+00	0	28	0	4110417920	42	5728
2026-01-16 18:58:16.14	254.32	4.51	-34.1	-34.8	22.7	0.00e+00	0	28	0	4133486592	42	5575
2026-01-16 18:58:20.18	254.07	4.25	-34.5	-35.3	22.2	0.00e+00	0	28	0	4155506688	42	5961
2026-01-16 18:58:24.22	253.83	4.00	-34.9	-35.6	21.9	0.00e+00	0	28	0	4178575360	42	6137
2026-01-16 18:58:28.26	253.59	3.74	-35.0	-35.7	21.6	0.00e+00	0	28	0	4200595456	42	6236
2026-01-16 18:58:32.29	253.36	3.49	-34.9	-35.6	21.8	0.00e+00	0	28	0	4223664128	42	6143
2026-01-16 18:58:36.33	253.13	3.24	-35.3	-36.1	21.1	0.00e+00	0	28	0	4246732800	44	5819
2026-01-16 18:58:40.37	252.91	2.99	-41.3	-43.6	11.5	0.00e+00	0	28	0	4269801472	42	15416
2026-01-16 18:58:44.41	252.68	2.75	-47.8	-59.9	3.6	8.45e-01	0	28	104	4269801472	60	35896
2026-01-16 18:58:48.45	252.47	2.50	-48.0	-60.1	3.6	8.45e-01	0	29	104	4269801472	60	36640
2026-01-16 18:58:52.49	252.25	2.26	-47.5	-60.0	3.6	8.45e-01	0	29	104	4269801472	60	36027
2026-01-16 18:58:56.53	252.04	2.02	-47.7	-59.8	3.6	8.46e-01	0	28	104	4269801472	60	35493
2026-01-16 18:59:00.57	251.84	1.78	-47.8	-59.9	3.6	8.44e-01	0	28	104	4269801472	60	35906
2026-01-16 18:59:04.60	251.63	1.54	-47.8	-60.0	3.6	8.46e-01	0	28	104	4269801472	60	36020
2026-01-16 18:59:08.65	251.43	1.30	-47.8	-60.0	3.6	8.45e-01	0	28	104	4269801472	60	36105
2026-01-16 18:59:12.68	251.24	1.07	-47.8	-60.0	3.6	8.45e-01	0	28	104	4269801472	60	35977
2026-01-16 18:59:16.72	251.05	0.84	-47.8	-60.0	3.6	8.45e-01	0	28	104	4269801472	60	36296
2026-01-16 18:59:20.76	250.86	0.60	-47.9	-60.0	3.6	8.45e-01	0	28	104	4269801472	60	36264
2026-01-16 18:59:24.80	250.67	0.37	-47.8	-60.0	3.6	8.45e-01	0	28	104	4269801472	60	36062
2026-01-16 18:59:28.84	250.49	0.15	-47.8	-60.0	3.6	8.45e-01	0	28	104	4269801472	60	36038

#Closed at: 2026-01-16 18:59:32
#Recorded file [4269 MB]: D:/lorett/data/35029_260117_064508.dat