passes_logs/2026/01/16/R4.6S_Anadyr/R4.6S_Anadyr__20260116_144626_NOAA_20_JPSS-1_rec.log

#Pass ID: 20260116_144626_NOAA 20 (JPSS-1)
#Satellite: NOAA 20 (JPSS-1)
#Configuration: NOAA 20
#almurnet v.1.7.20251203
#Start time: 2026-01-16 14:46:28

#Version: 2.2.20231116
#Station: R4.6S_Anadyr
#Location: 177.4865 lon 64.73178 lat
#TLE: 1 43013U 17073A   26015.89389188  .00000026  00000+0  33113-4 0  9999
#TLE: 2 43013  98.7636 316.8238 0001460  37.8997 322.2282 14.19536128422860

#Time	Az	El	Level	Level2	SNR	BER	BlckErr	Temp	State	Recorded	gain1	gain2
2026-01-16 14:46:28.41	20.62	0.14	-48.0	-62.9	3.6	1.51e+00	0	26	0	0	60	50637
2026-01-16 14:46:32.45	20.63	0.39	-48.0	-63.2	3.6	1.51e+00	0	27	104	0	60	52535
2026-01-16 14:46:36.49	20.64	0.63	-48.0	-63.2	3.6	1.51e+00	0	27	104	0	60	52149
2026-01-16 14:46:40.52	20.66	0.88	-47.6	-62.8	3.6	1.51e+00	0	27	104	0	60	49802
2026-01-16 14:46:44.57	20.67	1.13	-46.6	-61.8	3.6	1.51e+00	0	28	104	0	60	44301
2026-01-16 14:46:48.61	20.68	1.38	-46.5	-61.5	3.6	1.51e+00	0	28	104	0	60	43096
2026-01-16 14:46:52.64	20.69	1.63	-46.5	-61.5	3.6	1.51e+00	0	28	104	0	60	42988
2026-01-16 14:46:56.68	20.71	1.89	-46.5	-61.6	3.6	1.51e+00	0	28	104	0	60	43629
2026-01-16 14:47:00.72	20.72	2.14	-46.4	-61.6	3.6	1.51e+00	0	28	104	0	60	43309
2026-01-16 14:47:04.76	20.73	2.40	-46.4	-60.7	3.6	1.51e+00	0	28	104	0	60	39221
2026-01-16 14:47:08.80	20.74	2.67	-46.4	-59.6	3.6	1.51e+00	0	28	104	0	60	34563
2026-01-16 14:47:12.84	20.75	2.93	-46.1	-55.1	4.9	8.30e-01	6	28	0	0	60	20512
2026-01-16 14:47:16.88	20.76	3.20	-44.2	-48.2	12.4	5.04e-04	0	28	0	7340032	60	9279
2026-01-16 14:47:20.92	20.78	3.47	-42.5	-45.1	15.6	0.00e+00	92	28	0	15728640	58	7268
2026-01-16 14:47:24.96	20.79	3.74	-43.3	-46.4	14.0	0.00e+00	35	28	0	23068672	58	8517
2026-01-16 14:47:29.00	20.80	4.02	-46.0	-55.4	4.2	2.70e-02	49	28	0	30408704	60	21308
2026-01-16 14:47:33.03	20.81	4.29	-43.7	-47.1	13.7	9.10e-06	0	28	0	31457280	60	8152
2026-01-16 14:47:37.07	20.82	4.58	-42.4	-44.9	16.0	0.00e+00	91	28	0	38797312	58	7103
2026-01-16 14:47:41.12	20.83	4.86	-41.4	-43.3	17.6	0.00e+00	0	28	0	46137344	56	6663
2026-01-16 14:47:45.16	20.84	5.15	-40.8	-42.5	18.4	0.00e+00	0	28	0	53477376	54	6779
2026-01-16 14:47:49.20	20.85	5.44	-40.8	-42.5	18.5	0.00e+00	45	28	0	61865984	54	6772
2026-01-16 14:47:53.23	20.86	5.73	-40.7	-42.4	18.6	0.00e+00	92	29	0	69206016	54	6711
2026-01-16 14:47:57.27	20.87	6.03	-40.6	-42.2	18.6	0.00e+00	44	29	0	76546048	54	6593
2026-01-16 14:48:01.31	20.88	6.33	-40.4	-42.0	18.9	0.00e+00	2	29	0	83886080	54	6444
2026-01-16 14:48:05.35	20.89	6.63	-40.3	-41.8	19.1	0.00e+00	0	29	0	92274688	54	6306
2026-01-16 14:48:09.39	20.90	6.94	-40.2	-41.8	19.4	0.00e+00	92	29	0	99614720	54	6247
2026-01-16 14:48:13.42	20.91	7.25	-40.1	-41.5	19.6	0.00e+00	0	29	0	106954752	54	6076
2026-01-16 14:48:17.46	20.92	7.57	-40.0	-41.4	19.7	0.00e+00	2	29	0	114294784	54	5997
2026-01-16 14:48:21.50	20.93	7.89	-39.8	-41.2	19.9	0.00e+00	0	29	0	121634816	54	5874
2026-01-16 14:48:25.54	20.94	8.21	-39.8	-41.2	19.9	0.00e+00	37	29	0	130023424	54	5854
2026-01-16 14:48:29.58	20.95	8.54	-39.6	-41.0	20.2	0.00e+00	35	29	0	137363456	52	6404
2026-01-16 14:48:33.62	20.96	8.87	-39.7	-41.1	20.2	0.00e+00	45	29	0	144703488	52	6493
2026-01-16 14:48:37.65	20.97	9.20	-39.5	-40.8	20.5	0.00e+00	88	29	0	152043520	52	6258
2026-01-16 14:48:41.69	20.97	9.54	-39.5	-40.8	20.6	0.00e+00	0	29	0	160432128	52	6257
2026-01-16 14:48:45.73	20.98	9.89	-39.4	-40.7	20.6	0.00e+00	31	29	0	167772160	52	6185
2026-01-16 14:48:49.77	20.99	10.24	-39.3	-40.6	20.7	0.00e+00	5	29	0	175112192	52	6113
2026-01-16 14:48:53.81	21.00	10.60	-39.0	-40.2	21.1	0.00e+00	91	29	0	182452224	52	5884
2026-01-16 14:48:57.85	21.00	10.96	-39.1	-40.3	20.9	0.00e+00	0	29	0	189792256	52	5960
2026-01-16 14:49:01.88	21.01	11.32	-39.0	-40.1	21.2	0.00e+00	0	29	0	198180864	52	5818
2026-01-16 14:49:05.93	21.02	11.69	-38.8	-40.0	21.4	0.00e+00	0	29	0	205520896	52	5733
2026-01-16 14:49:09.97	21.02	12.07	-38.9	-40.1	21.3	0.00e+00	92	29	0	212860928	52	5787
2026-01-16 14:49:14.00	21.03	12.45	-38.6	-39.7	21.7	0.00e+00	41	29	0	220200960	50	6201
2026-01-16 14:49:18.04	21.04	12.84	-38.6	-39.8	21.7	0.00e+00	0	29	0	228589568	50	6251
2026-01-16 14:49:22.08	21.04	13.24	-38.6	-39.8	21.6	0.00e+00	0	29	0	235929600	50	6251
2026-01-16 14:49:26.12	21.05	13.64	-38.3	-39.4	22.0	0.00e+00	90	29	0	243269632	50	5997
2026-01-16 14:49:30.16	21.05	14.05	-38.4	-39.4	21.9	0.00e+00	0	29	0	250609664	50	6021
2026-01-16 14:49:34.20	21.06	14.47	-38.2	-39.2	22.1	0.00e+00	44	29	0	257949696	50	5895
2026-01-16 14:49:38.24	21.06	14.89	-38.0	-39.0	22.4	0.00e+00	52	29	0	266338304	50	5754
2026-01-16 14:49:42.28	21.06	15.32	-37.9	-38.9	22.4	0.00e+00	92	29	0	273678336	50	5691
2026-01-16 14:49:46.32	21.07	15.76	-38.0	-39.1	22.4	0.00e+00	0	29	0	281018368	50	5767
2026-01-16 14:49:50.36	21.07	16.21	-37.7	-38.7	22.7	0.00e+00	41	29	0	288358400	48	6203
2026-01-16 14:49:54.40	21.07	16.66	-37.5	-38.5	22.9	0.00e+00	0	29	0	296747008	48	6065
2026-01-16 14:49:58.43	21.07	17.13	-37.4	-38.3	23.1	0.00e+00	87	29	0	304087040	48	5960
2026-01-16 14:50:02.47	21.08	17.60	-37.3	-38.3	23.1	0.00e+00	0	29	0	311427072	48	5902
2026-01-16 14:50:06.51	21.08	18.08	-37.2	-38.1	23.3	0.00e+00	0	29	0	318767104	48	5816
2026-01-16 14:50:10.55	21.08	18.57	-37.2	-38.1	23.2	0.00e+00	92	29	0	326107136	48	5803
2026-01-16 14:50:14.58	21.08	19.07	-37.0	-37.9	23.5	0.00e+00	41	30	0	334495744	48	5690
2026-01-16 14:50:18.62	21.08	19.58	-36.9	-37.8	23.6	0.00e+00	6	29	0	341835776	48	5596
2026-01-16 14:50:22.66	21.08	20.11	-36.9	-37.8	23.6	0.00e+00	39	30	0	349175808	48	5599
2026-01-16 14:50:26.70	21.07	20.64	-36.9	-37.8	23.5	0.00e+00	92	30	0	356515840	46	6313
2026-01-16 14:50:30.74	21.07	21.19	-36.8	-37.7	23.7	0.00e+00	41	29	0	364904448	46	6185
2026-01-16 14:50:34.78	21.07	21.74	-36.9	-37.8	23.6	0.00e+00	43	30	0	372244480	46	6247
2026-01-16 14:50:38.82	21.06	22.32	-36.7	-37.6	23.9	0.00e+00	45	30	0	379584512	46	6146
2026-01-16 14:50:42.86	21.06	22.90	-36.8	-37.6	23.8	0.00e+00	90	30	0	386924544	46	6166
2026-01-16 14:50:46.90	21.05	23.50	-36.8	-37.7	23.9	0.00e+00	6	30	0	394264576	46	6187
2026-01-16 14:50:50.94	21.05	24.11	-37.3	-38.2	23.4	0.00e+00	36	30	0	402653184	46	6553
2026-01-16 14:50:54.98	21.04	24.73	-36.8	-37.6	23.5	0.00e+00	38	30	0	409993216	46	6167
2026-01-16 14:50:59.02	21.03	25.37	-37.1	-38.0	23.5	0.00e+00	92	30	0	417333248	46	6419
2026-01-16 14:51:03.06	21.02	26.03	-37.2	-38.1	23.5	0.00e+00	0	30	0	424673280	46	6483
2026-01-16 14:51:07.10	21.01	26.71	-37.6	-38.5	23.1	0.00e+00	0	30	0	433061888	46	6816
2026-01-16 14:51:11.14	21.00	27.40	-37.9	-38.9	22.8	0.00e+00	0	30	0	440401920	48	6356
2026-01-16 14:51:15.18	20.99	28.11	-38.7	-39.8	21.9	0.00e+00	92	30	0	447741952	48	7056
2026-01-16 14:51:19.21	20.98	28.83	-39.5	-40.7	21.2	0.00e+00	39	30	0	455081984	50	6964
2026-01-16 14:51:23.25	20.96	29.58	-40.1	-41.4	20.5	0.00e+00	0	30	0	462422016	52	6739
2026-01-16 14:51:27.29	20.94	30.35	-40.5	-41.9	20.1	0.00e+00	19	30	0	470810624	52	7109
2026-01-16 14:51:31.33	20.92	31.13	-40.4	-41.8	20.2	0.00e+00	0	30	0	478150656	52	7040
2026-01-16 14:51:35.37	20.90	31.94	-39.9	-41.2	20.7	0.00e+00	0	30	0	485490688	52	6565
2026-01-16 14:51:39.41	20.88	32.78	-39.6	-40.8	21.2	0.00e+00	0	30	0	492830720	52	6260
2026-01-16 14:51:43.44	20.86	33.63	-39.2	-40.3	21.6	0.00e+00	91	30	0	501219328	52	5928
2026-01-16 14:51:47.49	20.83	34.51	-37.6	-38.6	22.9	0.00e+00	0	30	0	508559360	48	6139
2026-01-16 14:51:51.53	20.80	35.42	-36.5	-37.4	24.1	0.00e+00	44	30	0	515899392	46	5995
2026-01-16 14:51:55.57	20.77	36.36	-35.9	-36.7	24.8	0.00e+00	0	30	0	523239424	46	5563
2026-01-16 14:51:59.61	20.74	37.32	-36.0	-36.8	24.7	0.00e+00	91	30	0	530579456	46	5608
2026-01-16 14:52:03.65	20.70	38.31	-35.8	-36.6	24.8	0.00e+00	5	30	0	538968064	44	6152
2026-01-16 14:52:07.69	20.66	39.33	-36.0	-36.8	24.8	0.00e+00	5	30	0	546308096	44	6281
2026-01-16 14:52:11.73	20.61	40.38	-35.6	-36.4	25.0	0.00e+00	0	30	0	553648128	44	5984
2026-01-16 14:52:15.77	20.56	41.46	-35.6	-36.4	24.8	0.00e+00	91	30	0	560988160	44	6012
2026-01-16 14:52:19.81	20.51	42.58	-35.8	-36.7	24.6	0.00e+00	41	30	0	569376768	44	6176
2026-01-16 14:52:23.85	20.45	43.73	-36.0	-36.8	24.7	0.00e+00	42	30	0	576716800	44	6300
2026-01-16 14:52:27.88	20.39	44.92	-37.9	-38.9	22.9	0.00e+00	0	30	0	584056832	48	6335
2026-01-16 14:52:31.92	20.32	46.14	-38.9	-40.0	21.9	0.00e+00	92	30	0	591396864	50	6425
2026-01-16 14:52:35.96	20.24	47.40	-38.8	-39.9	22.1	0.00e+00	0	30	0	598736896	50	6323
2026-01-16 14:52:40.00	20.15	48.70	-38.9	-40.0	22.0	0.00e+00	45	30	0	607125504	50	6412
2026-01-16 14:52:44.04	20.06	50.04	-38.8	-39.8	22.0	0.00e+00	0	30	0	614465536	50	6295
2026-01-16 14:52:48.08	19.95	51.42	-37.0	-37.9	23.8	0.00e+00	92	30	0	621805568	48	5640
2026-01-16 14:52:52.11	19.84	52.84	-35.2	-36.0	25.4	0.00e+00	0	30	0	629145600	44	5712
2026-01-16 14:52:56.15	19.71	54.30	-34.9	-35.6	25.6	0.00e+00	0	30	0	637534208	42	6152
2026-01-16 14:53:00.19	19.56	55.80	-35.8	-36.6	24.8	0.00e+00	0	30	0	644874240	44	6120
2026-01-16 14:53:04.23	19.39	57.35	-39.1	-40.2	21.6	0.00e+00	24	30	0	652214272	50	6573
2026-01-16 14:53:08.26	19.21	58.94	-38.3	-39.3	22.6	0.00e+00	0	30	0	659554304	50	5903
2026-01-16 14:53:12.30	18.99	60.57	-36.8	-37.7	23.9	0.00e+00	2	30	0	666894336	48	5507
2026-01-16 14:53:16.34	18.75	62.25	-35.0	-35.8	25.5	0.00e+00	91	30	0	675282944	44	5576
2026-01-16 14:53:20.38	18.46	63.97	-35.0	-35.8	25.3	0.00e+00	46	30	0	682622976	42	6281
2026-01-16 14:53:24.42	18.13	65.73	-37.4	-38.3	23.4	0.00e+00	33	30	0	689963008	46	6663
2026-01-16 14:53:28.46	17.73	67.52	-38.4	-39.4	22.3	0.00e+00	38	30	0	697303040	48	6726
2026-01-16 14:53:32.49	17.26	69.35	-39.2	-40.4	21.6	0.00e+00	92	30	0	705691648	50	6708
2026-01-16 14:53:36.53	16.68	71.22	-38.6	-39.6	22.2	0.00e+00	47	30	0	713031680	50	6141
2026-01-16 14:53:40.57	15.96	73.13	-39.9	-41.1	20.7	0.00e+00	46	30	0	720371712	52	6518
2026-01-16 14:53:44.61	15.04	75.06	-40.6	-42.0	19.9	0.00e+00	46	30	0	727711744	54	6425
2026-01-16 14:53:48.65	13.83	77.01	-40.2	-41.6	20.3	0.00e+00	92	30	0	735051776	54	6111
2026-01-16 14:53:52.69	12.16	78.99	-40.2	-41.5	20.3	0.00e+00	0	30	0	743440384	54	6083
2026-01-16 14:53:56.73	9.74	80.97	-37.5	-38.4	23.3	0.00e+00	0	30	0	750780416	48	6021
2026-01-16 14:54:00.76	5.94	82.94	-39.4	-40.5	21.4	0.00e+00	41	30	0	758120448	52	6082
2026-01-16 14:54:04.80	359.17	84.87	-34.4	-35.1	26.0	0.00e+00	92	30	0	765460480	42	5776
2026-01-16 14:54:08.84	344.68	86.66	-35.5	-36.3	25.2	0.00e+00	40	30	0	773849088	42	6681
2026-01-16 14:54:12.88	307.72	87.86	-36.0	-36.8	24.7	0.00e+00	0	30	0	781189120	44	6279
2026-01-16 14:54:16.92	256.43	87.43	-36.9	-37.8	23.4	0.00e+00	0	30	0	788529152	46	6254
2026-01-16 14:54:20.96	232.79	85.84	-36.6	-37.4	24.3	0.00e+00	92	31	0	795869184	46	6032
2026-01-16 14:54:25.01	222.96	83.96	-36.2	-37.0	24.6	0.00e+00	47	31	0	803209216	46	5727
2026-01-16 14:54:29.04	217.93	82.00	-37.5	-38.4	23.3	0.00e+00	0	31	0	811597824	46	6717
2026-01-16 14:54:33.09	214.89	80.01	-35.2	-36.0	25.4	0.00e+00	15	31	0	818937856	44	5729
2026-01-16 14:54:37.12	212.88	78.04	-37.4	-38.4	23.2	0.00e+00	91	30	0	826277888	46	6699
2026-01-16 14:54:41.15	211.46	76.07	-39.1	-40.3	21.7	0.00e+00	45	31	0	833617920	50	6616
2026-01-16 14:54:45.20	210.40	74.12	-40.1	-41.4	20.8	0.00e+00	38	31	0	842006528	54	5992
2026-01-16 14:54:49.23	209.59	72.21	-37.1	-37.9	23.7	0.00e+00	28	31	0	849346560	48	5691
2026-01-16 14:54:53.27	208.94	70.31	-38.8	-39.8	21.8	0.00e+00	69	31	0	856686592	48	7075
2026-01-16 14:54:57.31	208.41	68.46	-39.7	-40.9	21.2	0.00e+00	0	30	0	864026624	52	6348
2026-01-16 14:55:01.35	207.98	66.64	-38.8	-39.9	22.1	0.00e+00	0	31	0	871366656	52	5642
2026-01-16 14:55:05.39	207.61	64.85	-37.1	-38.0	23.8	0.00e+00	92	31	0	879755264	48	5737
2026-01-16 14:55:09.43	207.30	63.11	-34.5	-35.2	26.0	0.00e+00	36	30	0	887095296	42	5884
2026-01-16 14:55:13.47	207.04	61.41	-34.7	-35.4	25.7	0.00e+00	2	30	0	894435328	42	6009
2026-01-16 14:55:17.51	206.81	59.75	-38.6	-39.7	22.3	0.00e+00	2	30	0	901775360	50	6191
2026-01-16 14:55:21.55	206.61	58.13	-39.4	-40.5	21.4	0.00e+00	92	30	0	910163968	50	6808
2026-01-16 14:55:25.58	206.43	56.56	-38.9	-40.0	22.0	0.00e+00	44	30	0	917504000	52	5747
2026-01-16 14:55:29.62	206.27	55.03	-36.2	-37.1	24.4	0.00e+00	39	30	0	924844032	46	5767
2026-01-16 14:55:33.66	206.13	53.54	-35.5	-36.3	25.2	0.00e+00	41	30	0	932184064	44	5948
2026-01-16 14:55:37.70	206.01	52.10	-37.5	-38.4	23.2	0.00e+00	90	30	0	939524096	46	6766
2026-01-16 14:55:41.74	205.90	50.69	-38.1	-39.1	22.9	0.00e+00	44	30	0	947912704	50	5762
2026-01-16 14:55:45.78	205.80	49.33	-38.6	-39.6	22.3	0.00e+00	6	30	0	955252736	50	6165
2026-01-16 14:55:49.81	205.71	48.01	-40.8	-42.2	19.7	0.00e+00	47	30	0	962592768	56	5863
2026-01-16 14:55:53.85	205.62	46.72	-37.5	-38.4	23.4	0.00e+00	92	30	0	969932800	48	5967
2026-01-16 14:55:57.88	205.55	45.48	-40.2	-41.5	20.6	0.00e+00	0	30	0	978321408	52	6817
2026-01-16 14:56:01.92	205.48	44.27	-39.2	-40.4	21.9	0.00e+00	0	30	0	985661440	52	5987
2026-01-16 14:56:05.96	205.42	43.10	-37.3	-38.2	23.6	0.00e+00	0	30	0	993001472	48	5877
2026-01-16 14:56:10.00	205.36	41.96	-40.4	-41.8	20.4	0.00e+00	92	30	0	1000341504	52	7015
2026-01-16 14:56:14.03	205.31	40.86	-40.2	-41.5	20.7	0.00e+00	37	30	0	1007681536	52	6795
2026-01-16 14:56:18.07	205.26	39.79	-38.3	-39.3	22.7	0.00e+00	0	30	0	1016070144	50	5924
2026-01-16 14:56:22.11	205.22	38.75	-40.4	-41.7	20.5	0.00e+00	6	30	0	1023410176	52	6964
2026-01-16 14:56:26.15	205.18	37.74	-41.0	-42.5	19.6	0.00e+00	40	30	0	1030750208	54	6783
2026-01-16 14:56:30.20	205.14	36.76	-39.9	-41.1	21.0	0.00e+00	35	30	0	1038090240	54	5780
2026-01-16 14:56:34.23	205.10	35.81	-38.8	-39.8	22.2	0.00e+00	0	30	0	1046478848	50	6282
2026-01-16 14:56:38.27	205.07	34.89	-39.2	-40.3	21.6	0.00e+00	91	30	0	1053818880	50	6679
2026-01-16 14:56:42.31	205.04	33.99	-40.4	-41.7	20.3	0.00e+00	0	30	0	1061158912	52	7007
2026-01-16 14:56:46.35	205.02	33.12	-40.8	-42.2	20.0	0.00e+00	0	30	0	1068498944	54	6574
2026-01-16 14:56:50.38	204.99	32.27	-40.5	-41.8	20.3	0.00e+00	2	30	0	1075838976	54	6313
2026-01-16 14:56:54.43	204.97	31.45	-39.6	-40.8	21.2	0.00e+00	90	30	0	1084227584	52	6268
2026-01-16 14:56:58.47	204.95	30.65	-39.6	-40.8	21.2	0.00e+00	0	30	0	1091567616	52	6275
2026-01-16 14:57:02.51	204.93	29.87	-39.8	-41.0	21.1	0.00e+00	0	30	0	1098907648	52	6413
2026-01-16 14:57:06.54	204.91	29.11	-39.6	-40.7	21.3	0.00e+00	0	30	0	1106247680	52	6237
2026-01-16 14:57:10.58	204.89	28.37	-39.1	-40.3	21.7	0.00e+00	90	30	0	1114636288	52	5900
2026-01-16 14:57:14.63	204.88	27.65	-38.5	-39.6	22.3	0.00e+00	0	30	0	1121976320	50	6111
2026-01-16 14:57:18.67	204.86	26.94	-37.8	-38.8	23.0	0.00e+00	6	30	0	1129316352	50	5570
2026-01-16 14:57:22.70	204.85	26.26	-37.4	-38.3	23.5	0.00e+00	0	30	0	1136656384	48	5933
2026-01-16 14:57:26.74	204.84	25.59	-37.5	-38.4	23.4	0.00e+00	90	30	0	1143996416	48	5989
2026-01-16 14:57:30.78	204.83	24.94	-37.4	-38.3	23.3	0.00e+00	33	29	0	1152385024	48	5951
2026-01-16 14:57:34.82	204.82	24.31	-37.5	-38.5	23.2	0.00e+00	32	30	0	1159725056	48	6040
2026-01-16 14:57:38.86	204.81	23.69	-37.6	-38.5	23.2	0.00e+00	60	29	0	1167065088	48	6095
2026-01-16 14:57:42.90	204.80	23.08	-37.5	-38.4	23.1	0.00e+00	91	29	0	1174405120	48	6017
2026-01-16 14:57:46.95	204.80	22.49	-37.4	-38.3	23.4	0.00e+00	38	29	0	1182793728	48	5916
2026-01-16 14:57:50.99	204.79	21.91	-37.0	-37.9	23.7	0.00e+00	44	29	0	1190133760	48	5680
2026-01-16 14:57:55.03	204.79	21.34	-37.1	-38.0	23.6	0.00e+00	18	29	0	1197473792	48	5742
2026-01-16 14:57:59.07	204.78	20.79	-37.5	-38.4	23.2	0.00e+00	92	29	0	1204813824	48	6027
2026-01-16 14:58:03.11	204.78	20.25	-37.9	-38.9	22.8	0.00e+00	0	29	0	1212153856	48	6342
2026-01-16 14:58:07.15	204.77	19.72	-38.0	-39.0	22.6	0.00e+00	0	29	0	1220542464	48	6449
2026-01-16 14:58:11.18	204.77	19.20	-37.9	-38.9	22.8	0.00e+00	92	29	0	1227882496	48	6338
2026-01-16 14:58:15.22	204.77	18.69	-37.8	-38.8	22.9	0.00e+00	67	29	0	1235222528	48	6253
2026-01-16 14:58:19.25	204.77	18.20	-37.9	-38.9	22.7	0.00e+00	0	29	0	1242562560	48	6348
2026-01-16 14:58:23.29	204.76	17.71	-38.3	-39.3	22.3	0.00e+00	2	29	0	1250951168	48	6669
2026-01-16 14:58:27.33	204.76	17.23	-38.4	-39.4	22.3	0.00e+00	90	29	0	1258291200	48	6751
2026-01-16 14:58:31.37	204.76	16.76	-38.7	-39.8	21.9	0.00e+00	31	29	0	1265631232	50	6293
2026-01-16 14:58:35.41	204.76	16.30	-38.8	-39.9	21.9	0.00e+00	0	29	0	1272971264	50	6344
2026-01-16 14:58:39.45	204.76	15.85	-38.9	-40.1	21.5	0.00e+00	45	29	0	1280311296	50	6510
2026-01-16 14:58:43.49	204.76	15.41	-39.0	-40.2	21.5	0.00e+00	90	29	0	1288699904	50	6574
2026-01-16 14:58:47.53	204.76	14.97	-39.0	-40.2	21.6	0.00e+00	34	29	0	1296039936	50	6550
2026-01-16 14:58:51.56	204.77	14.54	-39.0	-40.2	21.5	0.00e+00	2	29	0	1303379968	50	6580
2026-01-16 14:58:55.60	204.77	14.12	-38.8	-39.9	21.7	0.00e+00	50	29	0	1310720000	50	6385
2026-01-16 14:58:59.64	204.77	13.71	-38.8	-39.9	21.7	0.00e+00	92	29	0	1319108608	50	6380
2026-01-16 14:59:03.68	204.77	13.30	-38.9	-40.1	21.6	0.00e+00	0	29	0	1326448640	50	6489
2026-01-16 14:59:07.72	204.77	12.90	-39.0	-40.2	21.4	0.00e+00	0	29	0	1333788672	50	6588
2026-01-16 14:59:11.75	204.78	12.51	-39.0	-40.1	21.5	0.00e+00	0	29	0	1341128704	50	6533
2026-01-16 14:59:15.79	204.78	12.12	-39.1	-40.3	21.2	0.00e+00	92	29	0	1348468736	50	6639
2026-01-16 14:59:19.83	204.78	11.74	-39.2	-40.5	21.2	0.00e+00	55	29	0	1356857344	50	6796
2026-01-16 14:59:23.87	204.79	11.37	-39.6	-40.9	20.7	0.00e+00	7	29	0	1364197376	50	7107
2026-01-16 14:59:27.91	204.79	11.00	-39.6	-40.9	20.7	0.00e+00	0	29	0	1371537408	50	7140
2026-01-16 14:59:31.94	204.80	10.63	-39.7	-41.1	20.6	0.00e+00	78	29	0	1378877440	52	6478
2026-01-16 14:59:35.99	204.80	10.27	-39.9	-41.2	20.3	0.00e+00	53	29	0	1387266048	52	6603
2026-01-16 14:59:40.02	204.80	9.92	-39.9	-41.2	20.4	0.00e+00	49	29	0	1394606080	52	6613
2026-01-16 14:59:44.06	204.81	9.57	-40.0	-41.4	20.2	0.00e+00	91	29	0	1401946112	52	6693
2026-01-16 14:59:48.09	204.81	9.23	-39.9	-41.3	20.3	0.00e+00	76	29	0	1409286144	52	6616
2026-01-16 14:59:52.13	204.82	8.89	-40.2	-41.6	19.9	0.00e+00	0	29	0	1416626176	52	6866
2026-01-16 14:59:56.18	204.82	8.55	-39.9	-41.2	20.3	0.00e+00	49	28	0	1425014784	52	6583
2026-01-16 15:00:00.22	204.83	8.22	-40.1	-41.4	20.1	0.00e+00	92	29	0	1432354816	52	6756
2026-01-16 15:00:04.26	204.84	7.90	-39.7	-41.0	20.4	0.00e+00	57	28	0	1439694848	52	6400
2026-01-16 15:00:08.30	204.84	7.58	-39.8	-41.1	20.2	0.00e+00	0	28	0	1447034880	52	6504
2026-01-16 15:00:12.33	204.85	7.26	-39.6	-40.9	20.4	0.00e+00	0	28	0	1455423488	52	6382
2026-01-16 15:00:16.38	204.85	6.94	-39.7	-41.0	20.3	0.00e+00	92	28	0	1462763520	52	6429
2026-01-16 15:00:20.42	204.86	6.63	-39.7	-41.0	20.1	0.00e+00	52	29	0	1470103552	52	6450
2026-01-16 15:00:24.45	204.87	6.33	-39.9	-41.2	20.0	0.00e+00	50	28	0	1477443584	52	6586
2026-01-16 15:00:28.49	204.87	6.03	-39.7	-41.1	20.1	0.00e+00	0	28	0	1484783616	52	6475
2026-01-16 15:00:32.53	204.88	5.73	-39.9	-41.2	20.0	0.00e+00	92	28	0	1493172224	52	6601
2026-01-16 15:00:36.57	204.89	5.43	-39.9	-41.3	19.8	0.00e+00	0	28	0	1500512256	52	6688
2026-01-16 15:00:40.60	204.89	5.14	-40.1	-41.6	19.5	0.00e+00	51	28	0	1507852288	52	6877
2026-01-16 15:00:44.64	204.90	4.85	-40.0	-41.5	19.6	0.00e+00	64	28	0	1515192320	52	6778
2026-01-16 15:00:48.68	204.91	4.56	-40.3	-41.8	19.2	0.00e+00	92	28	0	1523580928	52	7084
2026-01-16 15:00:52.72	204.91	4.28	-41.0	-42.7	18.3	0.00e+00	5	28	0	1530920960	54	6970
2026-01-16 15:00:56.75	204.92	4.00	-40.3	-41.9	18.9	0.00e+00	28	28	0	1538260992	54	6371
2026-01-16 15:01:00.79	204.93	3.72	-40.8	-42.5	18.3	0.00e+00	10	28	0	1545601024	52	7616
2026-01-16 15:01:04.82	204.94	3.45	-40.9	-42.7	18.0	0.00e+00	95	28	0	1552941056	54	6931
2026-01-16 15:01:08.86	204.94	3.18	-41.1	-42.9	17.9	0.00e+00	7	28	0	1561329664	54	7157
2026-01-16 15:01:12.90	204.95	2.91	-47.4	-62.6	3.6	1.51e+00	0	28	104	1566572544	60	48587
2026-01-16 15:01:16.94	204.96	2.64	-47.8	-63.2	3.6	1.51e+00	0	28	104	1566572544	60	52422
2026-01-16 15:01:20.97	204.97	2.38	-47.5	-63.2	3.6	1.51e+00	0	28	104	1566572544	60	52513
2026-01-16 15:01:25.01	204.97	2.11	-47.7	-63.1	3.6	1.51e+00	0	28	104	1566572544	60	51576
2026-01-16 15:01:29.05	204.98	1.85	-48.0	-63.2	3.6	1.51e+00	0	28	104	1566572544	60	52024
2026-01-16 15:01:33.08	204.99	1.60	-48.0	-63.2	3.6	1.51e+00	0	28	104	1566572544	60	52475
2026-01-16 15:01:37.12	205.00	1.34	-47.9	-63.1	3.6	1.51e+00	0	28	104	1566572544	60	51902
2026-01-16 15:01:41.16	205.01	1.09	-47.9	-63.1	3.6	1.51e+00	0	28	104	1566572544	60	51744
2026-01-16 15:01:45.20	205.01	0.84	-47.9	-63.1	3.6	1.51e+00	0	28	104	1566572544	60	51930
2026-01-16 15:01:49.24	205.02	0.59	-48.0	-63.2	3.6	1.51e+00	0	28	104	1566572544	60	52033
2026-01-16 15:01:53.28	205.03	0.35	-48.0	-63.2	3.6	1.51e+00	0	28	104	1566572544	60	52208
2026-01-16 15:01:57.31	205.04	0.10	-47.9	-63.2	3.6	1.51e+00	0	28	104	1566572544	60	52054

#Closed at: 2026-01-16 15:02:00
#Recorded file [1566 MB]: D:/lorett/data/35029_260117_024628.dat