passes_logs/2026/01/16/R4.6S_Anadyr/R4.6S_Anadyr__20260116_153627_NOAA_21_JPSS-2_rec.log

#Pass ID: 20260116_153627_NOAA 21 (JPSS-2)
#Satellite: NOAA 21 (JPSS-2)
#Configuration: NOAA-21
#almurnet v.1.7.20251203
#Start time: 2026-01-16 15:36:31

#Version: 2.2.20231116
#Station: R4.6S_Anadyr
#Location: 177.4865 lon 64.73178 lat
#TLE: 1 54234U 22150A   26015.92901934  .00000025  00000+0  32700-4 0  9991
#TLE: 2 54234  98.7499 316.8175 0000634 284.8145  75.2961 14.19534841164946

#Time	Az	El	Level	Level2	SNR	BER	BlckErr	Temp	State	Recorded	gain1	gain2
2026-01-16 15:36:31.04	22.77	0.20	-48.2	-59.5	3.3	1.54e+00	0	29	0	0	60	33196
2026-01-16 15:36:35.08	22.68	0.44	-48.1	-61.0	3.5	1.52e+00	0	29	104	0	60	39167
2026-01-16 15:36:39.12	22.60	0.68	-47.6	-60.4	3.5	1.52e+00	0	29	104	0	60	36932
2026-01-16 15:36:43.15	22.52	0.93	-46.8	-59.6	3.5	1.52e+00	0	29	104	0	60	33602
2026-01-16 15:36:47.19	22.43	1.17	-46.5	-59.3	3.5	1.52e+00	0	29	104	0	60	32319
2026-01-16 15:36:51.24	22.34	1.42	-46.5	-59.2	3.5	1.52e+00	0	29	104	0	60	32169
2026-01-16 15:36:55.27	22.26	1.67	-46.4	-59.1	3.5	1.52e+00	0	29	104	0	60	31513
2026-01-16 15:36:59.31	22.16	1.92	-46.5	-59.2	3.5	1.52e+00	0	30	104	0	60	32163
2026-01-16 15:37:03.34	22.07	2.18	-46.4	-59.1	3.5	1.52e+00	0	30	104	0	60	31748
2026-01-16 15:37:07.38	21.98	2.43	-46.4	-58.5	3.5	1.52e+00	0	30	104	0	60	29374
2026-01-16 15:37:11.42	21.88	2.69	-46.4	-58.1	3.5	1.51e+00	0	30	104	0	60	28336
2026-01-16 15:37:15.46	21.78	2.95	-45.9	-54.5	4.9	8.44e-01	123	30	104	0	60	18679
2026-01-16 15:37:19.50	21.68	3.22	-42.5	-45.1	13.5	7.40e-05	123	30	0	8388608	58	7073
2026-01-16 15:37:23.53	21.58	3.48	-40.4	-42.2	16.3	0.00e+00	123	30	0	20971520	54	6422
2026-01-16 15:37:27.57	21.47	3.75	-39.1	-40.6	19.2	3.82e-04	122	30	0	33554432	54	5310
2026-01-16 15:37:31.61	21.36	4.02	-42.6	-45.6	14.2	3.43e-01	120	30	104	37748736	60	6721
2026-01-16 15:37:35.65	21.25	4.29	-38.8	-40.2	18.3	0.00e+00	123	30	0	48234496	50	6391
2026-01-16 15:37:39.70	21.14	4.57	-38.4	-39.7	18.9	0.00e+00	123	30	0	60817408	50	6064
2026-01-16 15:37:43.74	21.02	4.85	-36.7	-37.9	20.6	0.00e+00	123	30	0	73400320	46	6148
2026-01-16 15:37:47.78	20.91	5.13	-36.7	-37.8	20.7	0.00e+00	122	30	0	85983232	46	6131
2026-01-16 15:37:51.82	20.79	5.42	-36.5	-37.6	20.9	0.00e+00	122	30	0	98566144	46	5957
2026-01-16 15:37:55.86	20.66	5.70	-36.6	-37.7	21.0	0.00e+00	123	30	0	112197632	46	6016
2026-01-16 15:37:59.91	20.54	5.99	-36.3	-37.4	21.2	0.00e+00	120	30	0	124780544	46	5850
2026-01-16 15:38:03.94	20.41	6.29	-36.8	-37.9	20.8	0.00e+00	122	30	0	137363456	46	6187
2026-01-16 15:38:07.98	20.28	6.58	-35.8	-36.9	21.7	0.00e+00	122	30	0	149946368	46	5470
2026-01-16 15:38:12.02	20.14	6.88	-35.8	-36.8	21.6	0.00e+00	123	30	0	162529280	44	6120
2026-01-16 15:38:16.06	20.01	7.19	-36.0	-37.0	21.7	0.00e+00	127	30	0	175112192	44	6258
2026-01-16 15:38:20.10	19.86	7.49	-35.8	-36.9	21.8	0.00e+00	123	30	0	187695104	44	6159
2026-01-16 15:38:24.14	19.72	7.81	-35.5	-36.5	22.1	0.00e+00	120	31	0	200278016	44	5874
2026-01-16 15:38:28.18	19.57	8.12	-35.4	-36.5	22.2	0.00e+00	123	30	0	212860928	44	5873
2026-01-16 15:38:32.22	19.42	8.44	-35.6	-36.6	22.0	0.00e+00	122	30	0	225443840	44	5976
2026-01-16 15:38:36.26	19.27	8.76	-35.6	-36.6	22.1	0.00e+00	123	30	0	238026752	44	5947
2026-01-16 15:38:40.30	19.11	9.08	-35.3	-36.3	22.4	0.00e+00	123	30	0	250609664	44	5773
2026-01-16 15:38:44.33	18.94	9.41	-35.3	-36.3	22.4	0.00e+00	123	30	0	263192576	44	5767
2026-01-16 15:38:48.37	18.78	9.75	-35.0	-36.0	22.6	0.00e+00	123	30	0	275775488	44	5576
2026-01-16 15:38:52.41	18.61	10.09	-34.9	-35.9	22.8	0.00e+00	123	30	0	288358400	44	5480
2026-01-16 15:38:56.45	18.43	10.43	-34.8	-35.8	23.0	0.00e+00	123	30	0	300941312	42	6084
2026-01-16 15:39:00.49	18.25	10.78	-34.6	-35.5	23.2	0.00e+00	123	31	0	313524224	42	5908
2026-01-16 15:39:04.53	18.06	11.13	-34.6	-35.5	23.1	0.00e+00	122	30	0	326107136	42	5904
2026-01-16 15:39:08.57	17.87	11.48	-34.4	-35.3	23.4	0.00e+00	122	31	0	338690048	42	5760
2026-01-16 15:39:12.62	17.68	11.85	-34.3	-35.2	23.5	0.00e+00	122	31	0	351272960	42	5697
2026-01-16 15:39:16.66	17.48	12.21	-34.1	-35.1	23.6	0.00e+00	120	30	0	363855872	42	5595
2026-01-16 15:39:20.70	17.27	12.58	-34.2	-35.1	23.6	0.00e+00	123	31	0	376438784	42	5622
2026-01-16 15:39:24.74	17.06	12.96	-33.9	-34.8	23.8	0.00e+00	122	31	0	389021696	42	5439
2026-01-16 15:39:28.78	16.84	13.34	-34.2	-35.1	23.5	0.00e+00	120	31	0	401604608	42	5658
2026-01-16 15:39:32.82	16.62	13.73	-34.1	-35.1	23.6	0.00e+00	123	31	0	414187520	42	5613
2026-01-16 15:39:36.86	16.39	14.12	-34.0	-34.9	23.7	0.00e+00	123	31	0	427819008	42	5499
2026-01-16 15:39:40.90	16.15	14.52	-34.0	-34.9	23.7	0.00e+00	123	31	0	439353344	42	5528
2026-01-16 15:39:44.94	15.91	14.93	-34.0	-35.0	23.6	0.00e+00	123	31	0	452984832	42	5539
2026-01-16 15:39:48.98	15.66	15.34	-34.1	-35.0	23.7	0.00e+00	123	31	0	465567744	42	5580
2026-01-16 15:39:53.02	15.40	15.76	-34.2	-35.2	23.7	0.00e+00	122	30	0	478150656	42	5663
2026-01-16 15:39:57.06	15.13	16.19	-34.4	-35.3	23.5	0.00e+00	122	30	0	490733568	42	5789
2026-01-16 15:40:01.10	14.86	16.62	-34.2	-35.1	23.7	0.00e+00	120	31	0	503316480	42	5643
2026-01-16 15:40:05.14	14.57	17.06	-34.0	-34.9	23.9	0.00e+00	123	30	0	515899392	42	5509
2026-01-16 15:40:09.18	14.28	17.50	-34.1	-35.0	23.8	0.00e+00	123	31	0	528482304	42	5584
2026-01-16 15:40:13.22	13.98	17.96	-34.1	-35.1	23.7	0.00e+00	123	30	0	541065216	42	5601
2026-01-16 15:40:17.26	13.67	18.42	-34.2	-35.2	23.7	0.00e+00	122	30	0	553648128	42	5691
2026-01-16 15:40:21.30	13.35	18.89	-34.1	-35.0	23.8	0.00e+00	122	30	0	566231040	42	5566
2026-01-16 15:40:25.34	13.02	19.37	-34.0	-34.9	23.9	0.00e+00	122	30	0	578813952	42	5492
2026-01-16 15:40:29.38	12.67	19.85	-33.7	-34.6	24.1	0.00e+00	122	30	0	591396864	42	5326
2026-01-16 15:40:33.42	12.32	20.35	-33.5	-34.4	24.2	0.00e+00	122	30	0	603979776	40	5807
2026-01-16 15:40:37.45	11.95	20.85	-33.1	-34.0	24.5	0.00e+00	123	30	0	616562688	40	5535
2026-01-16 15:40:41.49	11.58	21.36	-32.8	-33.7	24.7	0.00e+00	123	30	0	629145600	40	5361
2026-01-16 15:40:45.53	11.18	21.88	-32.7	-33.6	24.8	0.00e+00	121	30	0	641728512	38	5940
2026-01-16 15:40:49.57	10.78	22.41	-32.6	-33.4	25.0	0.00e+00	120	30	0	654311424	38	5850
2026-01-16 15:40:53.61	10.35	22.95	-32.5	-33.3	25.1	0.00e+00	123	30	0	666894336	38	5783
2026-01-16 15:40:57.65	9.92	23.50	-32.3	-33.2	25.2	0.00e+00	123	30	0	679477248	38	5693
2026-01-16 15:41:01.69	9.46	24.06	-32.5	-33.3	25.1	0.00e+00	120	30	0	692060160	38	5766
2026-01-16 15:41:05.73	8.99	24.63	-32.6	-33.5	25.1	0.00e+00	124	30	0	704643072	38	5880
2026-01-16 15:41:09.78	8.50	25.21	-32.8	-33.7	24.9	0.00e+00	120	30	0	717225984	38	6022
2026-01-16 15:41:13.82	8.00	25.80	-32.9	-33.8	24.7	0.00e+00	122	30	0	729808896	38	6120
2026-01-16 15:41:17.85	7.47	26.40	-33.3	-34.2	24.3	0.00e+00	122	30	0	742391808	38	6412
2026-01-16 15:41:21.89	6.92	27.01	-33.5	-34.4	24.3	0.00e+00	123	30	0	754974720	38	6573
2026-01-16 15:41:25.94	6.35	27.64	-34.1	-35.0	24.0	0.00e+00	122	30	0	768606208	40	6266
2026-01-16 15:41:29.98	5.76	28.27	-34.1	-35.0	23.6	0.00e+00	122	30	0	781189120	40	6251
2026-01-16 15:41:34.02	5.14	28.91	-34.2	-35.2	23.6	0.00e+00	120	30	0	793772032	40	6377
2026-01-16 15:41:38.05	4.50	29.57	-33.9	-34.8	23.9	0.00e+00	125	30	0	806354944	40	6085
2026-01-16 15:41:42.10	3.82	30.24	-33.7	-34.7	24.2	0.00e+00	123	30	0	818937856	40	6008
2026-01-16 15:41:46.14	3.12	30.92	-33.8	-34.7	23.8	0.00e+00	122	30	0	831520768	40	6023
2026-01-16 15:41:50.17	2.39	31.60	-33.8	-34.7	24.2	0.00e+00	123	30	0	844103680	40	6057
2026-01-16 15:41:54.22	1.62	32.30	-33.3	-34.2	24.6	0.00e+00	122	30	0	856686592	40	5689
2026-01-16 15:41:58.26	0.82	33.01	-33.3	-34.2	24.2	0.00e+00	123	30	0	869269504	40	5723
2026-01-16 15:42:02.30	359.99	33.73	-34.0	-35.0	23.9	0.00e+00	123	30	0	881852416	40	6208
2026-01-16 15:42:06.34	359.11	34.47	-34.5	-35.5	23.6	0.00e+00	120	30	0	894435328	40	6580
2026-01-16 15:42:10.38	358.19	35.20	-35.3	-36.3	23.1	0.00e+00	120	30	0	907018240	42	6439
2026-01-16 15:42:14.42	357.23	35.95	-35.2	-36.2	23.1	0.00e+00	123	30	0	919601152	42	6417
2026-01-16 15:42:18.46	356.23	36.71	-35.2	-36.2	23.2	0.00e+00	120	30	0	932184064	42	6374
2026-01-16 15:42:22.50	355.18	37.47	-35.5	-36.5	22.9	0.00e+00	123	30	0	944766976	42	6624
2026-01-16 15:42:26.54	354.07	38.24	-35.8	-36.9	22.5	0.00e+00	123	30	0	957349888	44	6143
2026-01-16 15:42:30.59	352.91	39.02	-35.8	-36.8	22.6	0.00e+00	120	30	0	969932800	44	6090
2026-01-16 15:42:34.63	351.69	39.79	-36.2	-37.3	22.1	0.00e+00	123	30	0	982515712	44	6435
2026-01-16 15:42:38.67	350.41	40.57	-35.7	-36.7	22.7	0.00e+00	123	30	0	995098624	44	6016
2026-01-16 15:42:42.71	349.07	41.35	-36.0	-37.1	22.4	0.00e+00	122	30	0	1007681536	44	6298
2026-01-16 15:42:46.75	347.66	42.13	-36.0	-37.0	22.4	0.00e+00	122	30	0	1020264448	44	6244
2026-01-16 15:42:50.79	346.18	42.90	-36.5	-37.6	21.7	0.00e+00	123	30	0	1032847360	44	6651
2026-01-16 15:42:54.83	344.63	43.67	-36.5	-37.6	21.9	0.00e+00	122	30	0	1045430272	46	5944
2026-01-16 15:42:58.87	343.01	44.42	-36.6	-37.7	21.8	0.00e+00	116	30	0	1059061760	46	6005
2026-01-16 15:43:02.91	341.30	45.17	-36.2	-37.3	21.9	0.00e+00	123	29	0	1071644672	46	5780
2026-01-16 15:43:06.95	339.51	45.89	-36.0	-37.1	22.1	0.00e+00	120	29	0	1084227584	46	5642
2026-01-16 15:43:10.99	337.64	46.60	-35.5	-36.5	22.5	0.00e+00	120	29	0	1096810496	44	5915
2026-01-16 15:43:15.03	335.68	47.29	-35.6	-36.5	22.7	0.00e+00	122	29	0	1109393408	44	5926
2026-01-16 15:43:19.07	333.64	47.94	-35.9	-36.9	22.4	0.00e+00	123	29	0	1121976320	44	6183
2026-01-16 15:43:23.11	331.50	48.56	-35.9	-37.0	22.3	0.00e+00	123	29	0	1134559232	44	6221
2026-01-16 15:43:27.15	329.29	49.15	-35.7	-36.8	22.6	0.00e+00	122	29	0	1147142144	44	6093
2026-01-16 15:43:31.20	326.98	49.70	-35.8	-36.9	22.5	0.00e+00	123	29	0	1159725056	44	6147
2026-01-16 15:43:35.24	324.60	50.20	-35.0	-36.0	23.1	0.00e+00	123	29	0	1172307968	44	5570
2026-01-16 15:43:39.28	322.14	50.65	-35.6	-36.7	22.5	0.00e+00	122	29	0	1184890880	44	6029
2026-01-16 15:43:43.31	319.61	51.05	-35.6	-36.7	22.6	0.00e+00	123	29	0	1197473792	44	6008
2026-01-16 15:43:47.35	317.02	51.39	-36.5	-37.7	21.6	0.00e+00	123	29	0	1210056704	44	6750
2026-01-16 15:43:51.39	314.37	51.67	-35.6	-36.8	22.3	0.00e+00	122	29	0	1222639616	44	6079
2026-01-16 15:43:55.44	311.67	51.89	-35.8	-36.9	21.9	0.00e+00	120	29	0	1235222528	44	6172
2026-01-16 15:43:59.48	308.94	52.04	-35.0	-36.0	23.1	0.00e+00	123	29	0	1247805440	44	5588
2026-01-16 15:44:03.52	306.19	52.12	-35.2	-36.2	23.0	0.00e+00	122	29	0	1260388352	44	5713
2026-01-16 15:44:07.57	303.42	52.14	-34.8	-35.8	23.2	0.00e+00	123	29	0	1272971264	44	5457
2026-01-16 15:44:11.61	300.66	52.08	-34.7	-35.6	23.3	0.00e+00	123	29	0	1285554176	42	5986
2026-01-16 15:44:15.65	297.93	51.96	-35.1	-36.2	22.4	0.00e+00	120	29	0	1298137088	42	6365
2026-01-16 15:44:19.69	295.21	51.77	-35.0	-36.0	22.7	0.00e+00	120	29	0	1310720000	42	6223
2026-01-16 15:44:23.73	292.54	51.51	-35.2	-36.2	23.1	0.00e+00	122	29	0	1323302912	44	5706
2026-01-16 15:44:27.78	289.92	51.19	-35.3	-36.3	22.9	0.00e+00	123	29	0	1335885824	42	6478
2026-01-16 15:44:31.82	287.36	50.81	-35.7	-36.7	22.8	0.00e+00	123	29	0	1349517312	44	6020
2026-01-16 15:44:35.86	284.87	50.38	-35.9	-36.9	22.5	0.00e+00	123	29	0	1362100224	44	6182
2026-01-16 15:44:39.91	282.45	49.89	-34.8	-35.7	23.4	0.00e+00	123	29	0	1374683136	44	5392
2026-01-16 15:44:43.94	280.12	49.36	-37.4	-38.5	21.2	0.00e+00	122	29	0	1387266048	46	6624
2026-01-16 15:44:47.98	277.86	48.79	-34.4	-35.2	23.9	0.00e+00	123	29	0	1399848960	42	5724
2026-01-16 15:44:52.02	275.69	48.18	-36.3	-37.4	21.4	0.00e+00	123	29	0	1412431872	44	6530
2026-01-16 15:44:56.06	273.61	47.53	-35.6	-36.6	22.7	0.00e+00	122	29	0	1425014784	44	5980
2026-01-16 15:45:00.10	271.62	46.86	-37.2	-38.3	21.3	0.00e+00	119	29	0	1437597696	48	5767
2026-01-16 15:45:04.14	269.71	46.16	-35.7	-36.7	22.7	0.00e+00	122	29	0	1450180608	44	6035
2026-01-16 15:45:08.18	267.88	45.44	-35.8	-36.8	22.4	0.00e+00	122	29	0	1462763520	46	5427
2026-01-16 15:45:12.23	266.14	44.69	-37.4	-38.5	20.6	0.00e+00	122	29	0	1475346432	46	6622
2026-01-16 15:45:16.26	264.48	43.94	-36.5	-37.6	21.2	0.00e+00	122	29	0	1487929344	46	5993
2026-01-16 15:45:20.31	262.89	43.18	-35.7	-36.6	22.7	0.00e+00	123	29	0	1500512256	44	5987
2026-01-16 15:45:24.34	261.39	42.41	-38.0	-39.2	20.5	0.00e+00	123	29	0	1513095168	48	6410
2026-01-16 15:45:28.38	259.95	41.63	-35.6	-36.6	22.9	0.00e+00	123	29	0	1525678080	44	5957
2026-01-16 15:45:32.42	258.58	40.85	-37.5	-38.7	20.9	0.00e+00	123	29	0	1538260992	46	6728
2026-01-16 15:45:36.46	257.28	40.06	-36.1	-37.1	22.6	0.00e+00	122	29	0	1550843904	46	5626
2026-01-16 15:45:40.50	256.03	39.28	-36.1	-37.2	22.1	0.00e+00	123	29	0	1563426816	44	6376
2026-01-16 15:45:44.55	254.85	38.50	-35.6	-36.5	22.9	0.00e+00	120	29	0	1576009728	44	5923
2026-01-16 15:45:48.59	253.72	37.73	-34.4	-35.3	23.8	0.00e+00	122	29	0	1588592640	42	5791
2026-01-16 15:45:52.62	252.64	36.96	-35.4	-36.3	23.1	0.00e+00	122	29	0	1601175552	42	6489
2026-01-16 15:45:56.66	251.62	36.20	-34.4	-35.3	23.8	0.00e+00	123	29	0	1613758464	42	5791
2026-01-16 15:46:00.69	250.64	35.45	-35.2	-36.2	23.2	0.00e+00	123	28	0	1626341376	42	6366
2026-01-16 15:46:04.73	249.70	34.70	-34.3	-35.2	23.9	0.00e+00	123	28	0	1638924288	42	5719
2026-01-16 15:46:08.77	248.81	33.97	-34.6	-35.6	23.4	0.00e+00	123	29	0	1651507200	42	5936
2026-01-16 15:46:12.81	247.96	33.24	-34.3	-35.3	23.7	0.00e+00	120	29	0	1665138688	42	5731
2026-01-16 15:46:16.85	247.14	32.52	-34.7	-35.6	23.4	0.00e+00	122	29	0	1676673024	42	5989
2026-01-16 15:46:20.89	246.36	31.82	-34.3	-35.2	23.8	0.00e+00	120	29	0	1690304512	42	5697
2026-01-16 15:46:24.93	245.61	31.12	-34.0	-34.9	24.2	0.00e+00	120	28	0	1702887424	42	5480
2026-01-16 15:46:28.97	244.90	30.44	-34.0	-34.9	24.1	0.00e+00	120	29	0	1715470336	42	5480
2026-01-16 15:46:33.01	244.21	29.76	-34.1	-35.0	23.9	0.00e+00	123	28	0	1728053248	42	5578
2026-01-16 15:46:37.05	243.55	29.10	-34.2	-35.1	23.9	0.00e+00	122	28	0	1740636160	42	5648
2026-01-16 15:46:41.09	242.92	28.45	-33.6	-34.5	24.4	0.00e+00	122	28	0	1753219072	40	5896
2026-01-16 15:46:45.13	242.32	27.81	-33.3	-34.2	24.5	0.00e+00	122	28	0	1765801984	40	5687
2026-01-16 15:46:49.17	241.73	27.18	-33.4	-34.3	24.5	0.00e+00	123	28	0	1778384896	40	5782
2026-01-16 15:46:53.21	241.18	26.56	-33.3	-34.1	24.6	0.00e+00	120	28	0	1790967808	40	5652
2026-01-16 15:46:57.25	240.64	25.95	-33.1	-34.0	24.7	0.00e+00	123	28	0	1803550720	40	5541
2026-01-16 15:47:01.30	240.12	25.36	-33.1	-33.9	24.8	0.00e+00	121	28	0	1816133632	40	5528
2026-01-16 15:47:05.34	239.62	24.77	-33.5	-34.4	24.3	0.00e+00	122	28	0	1828716544	40	5816
2026-01-16 15:47:09.38	239.14	24.20	-33.9	-34.9	24.1	0.00e+00	120	28	0	1841299456	40	6142
2026-01-16 15:47:13.42	238.68	23.63	-33.9	-34.9	24.1	0.00e+00	123	28	0	1853882368	40	6145
2026-01-16 15:47:17.46	238.24	23.08	-34.1	-35.0	24.0	0.00e+00	123	28	0	1866465280	40	6265
2026-01-16 15:47:21.49	237.81	22.53	-34.0	-34.9	24.0	0.00e+00	122	28	0	1879048192	40	6184
2026-01-16 15:47:25.53	237.39	22.00	-33.5	-34.4	24.2	0.00e+00	123	28	0	1891631104	40	5811
2026-01-16 15:47:29.58	236.99	21.47	-33.1	-34.0	24.6	0.00e+00	123	28	0	1904214016	40	5552
2026-01-16 15:47:33.62	236.60	20.95	-33.0	-33.9	24.8	0.00e+00	122	28	0	1916796928	40	5509
2026-01-16 15:47:37.66	236.23	20.44	-33.2	-34.0	24.7	0.00e+00	123	28	0	1929379840	40	5588
2026-01-16 15:47:41.70	235.87	19.95	-33.5	-34.4	24.3	0.00e+00	123	28	0	1941962752	40	5795
2026-01-16 15:47:45.73	235.52	19.46	-33.7	-34.6	24.1	0.00e+00	123	28	0	1954545664	40	5942
2026-01-16 15:47:49.77	235.18	18.97	-33.9	-34.8	23.8	0.00e+00	123	28	0	1967128576	40	6107
2026-01-16 15:47:53.82	234.85	18.50	-34.1	-35.0	23.7	0.00e+00	123	28	0	1980760064	40	6238
2026-01-16 15:47:57.86	234.54	18.03	-33.8	-34.7	24.0	0.00e+00	123	28	0	1993342976	40	6057
2026-01-16 15:48:01.90	234.23	17.58	-33.9	-34.8	24.0	0.00e+00	123	28	0	2005925888	40	6107
2026-01-16 15:48:05.94	233.93	17.12	-33.8	-34.7	24.1	0.00e+00	123	28	0	2018508800	40	6004
2026-01-16 15:48:09.98	233.64	16.68	-33.8	-34.7	24.1	0.00e+00	123	28	0	2031091712	40	6042
2026-01-16 15:48:14.02	233.36	16.25	-33.8	-34.7	24.1	0.00e+00	122	28	0	2043674624	40	6022
2026-01-16 15:48:18.06	233.09	15.82	-34.0	-34.9	24.0	0.00e+00	121	28	0	2056257536	40	6198
2026-01-16 15:48:22.10	232.83	15.39	-34.4	-35.3	23.6	0.00e+00	122	28	0	2068840448	40	6485
2026-01-16 15:48:26.13	232.57	14.98	-34.7	-35.7	23.3	0.00e+00	123	28	0	2081423360	40	6745
2026-01-16 15:48:30.17	232.32	14.57	-35.0	-36.0	23.0	0.00e+00	127	28	0	2094006272	42	6218
2026-01-16 15:48:34.21	232.08	14.17	-35.2	-36.2	22.9	0.00e+00	122	28	0	2106589184	42	6377
2026-01-16 15:48:38.25	231.85	13.77	-35.2	-36.2	22.7	0.00e+00	120	28	0	2119172096	42	6419
2026-01-16 15:48:42.29	231.62	13.38	-35.3	-36.3	22.6	0.00e+00	120	28	0	2131755008	42	6440
2026-01-16 15:48:46.33	231.39	12.99	-35.5	-36.5	22.5	0.00e+00	123	28	0	2144337920	42	6579
2026-01-16 15:48:50.37	231.18	12.61	-35.5	-36.5	22.4	0.00e+00	123	28	0	2156920832	42	6580
2026-01-16 15:48:54.40	230.97	12.24	-35.7	-36.7	22.2	0.00e+00	123	28	0	2169503744	44	6039
2026-01-16 15:48:58.44	230.76	11.87	-35.8	-36.8	22.0	0.00e+00	122	28	0	2182086656	44	6134
2026-01-16 15:49:02.47	230.56	11.51	-36.1	-37.2	21.7	0.00e+00	122	28	0	2194669568	44	6361
2026-01-16 15:49:06.52	230.37	11.15	-36.5	-37.6	21.5	0.00e+00	123	28	0	2207252480	44	6675
2026-01-16 15:49:10.55	230.18	10.79	-36.8	-37.9	21.2	0.00e+00	123	28	0	2219835392	46	6174
2026-01-16 15:49:14.59	229.99	10.44	-37.2	-38.3	20.8	0.00e+00	123	28	0	2232418304	46	6493
2026-01-16 15:49:18.63	229.81	10.10	-37.5	-38.7	20.4	0.00e+00	120	28	0	2245001216	46	6774
2026-01-16 15:49:22.67	229.64	9.76	-37.8	-39.1	20.0	0.00e+00	120	28	0	2257584128	48	6283
2026-01-16 15:49:26.71	229.46	9.42	-38.5	-39.8	19.3	0.00e+00	123	28	0	2270167040	48	6818
2026-01-16 15:49:30.76	229.30	9.09	-38.7	-40.0	19.1	0.00e+00	123	28	0	2282749952	48	7026
2026-01-16 15:49:34.80	229.13	8.76	-39.0	-40.4	18.7	0.00e+00	122	28	0	2295332864	50	6506
2026-01-16 15:49:38.84	228.97	8.44	-39.3	-40.7	18.3	0.00e+00	122	28	0	2307915776	50	6800
2026-01-16 15:49:42.88	228.82	8.12	-39.5	-41.0	18.1	0.00e+00	120	28	0	2321547264	50	7001
2026-01-16 15:49:46.92	228.67	7.80	-39.6	-41.1	17.9	0.00e+00	122	28	0	2334130176	50	7106
2026-01-16 15:49:50.96	228.52	7.49	-39.9	-41.5	17.5	0.00e+00	122	28	0	2346713088	52	6595
2026-01-16 15:49:55.00	228.37	7.18	-40.1	-41.8	17.3	0.00e+00	120	28	0	2359296000	52	6820
2026-01-16 15:49:59.04	228.23	6.87	-40.3	-42.0	17.0	0.00e+00	121	28	0	2371878912	52	6970
2026-01-16 15:50:03.08	228.09	6.57	-40.5	-42.3	16.6	0.00e+00	122	28	0	2384461824	52	7233
2026-01-16 15:50:07.12	227.95	6.27	-40.8	-42.6	16.1	0.00e+00	122	28	0	2397044736	54	6721
2026-01-16 15:50:11.16	227.82	5.98	-41.2	-43.1	15.6	0.00e+00	123	28	0	2409627648	54	7124
2026-01-16 15:50:15.20	227.69	5.69	-41.2	-43.3	15.3	0.00e+00	122	28	0	2422210560	54	7209
2026-01-16 15:50:19.24	227.56	5.40	-41.5	-43.6	14.9	0.00e+00	122	28	0	2434793472	54	7540
2026-01-16 15:50:23.28	227.44	5.11	-41.4	-43.6	14.8	0.00e+00	123	28	0	2447376384	54	7490
2026-01-16 15:50:27.32	227.32	4.83	-41.7	-44.0	14.3	0.00e+00	123	28	0	2459959296	56	6982
2026-01-16 15:50:31.36	227.20	4.55	-41.9	-44.3	14.0	5.30e-06	123	28	0	2472542208	56	7259
2026-01-16 15:50:35.40	227.08	4.27	-41.8	-44.2	13.9	9.90e-06	123	28	0	2485125120	56	7207
2026-01-16 15:50:39.44	226.97	3.99	-42.3	-45.2	12.9	4.73e-05	120	28	0	2497708032	56	7995
2026-01-16 15:50:43.48	226.86	3.72	-42.3	-45.1	12.7	7.85e-05	120	28	0	2510290944	56	7978
2026-01-16 15:50:47.52	226.75	3.45	-42.8	-46.0	11.7	3.04e-04	123	28	0	2522873856	58	7895
2026-01-16 15:50:51.56	226.64	3.18	-42.6	-45.8	11.6	6.93e-04	122	28	0	2535456768	58	7703
2026-01-16 15:50:55.59	226.53	2.92	-47.0	-60.0	3.5	1.52e+00	0	28	104	2544893952	60	35001
2026-01-16 15:50:59.64	226.43	2.66	-48.1	-61.0	3.5	1.52e+00	0	28	104	2544893952	60	39174
2026-01-16 15:51:03.68	226.33	2.40	-48.0	-61.0	3.5	1.52e+00	0	28	104	2544893952	60	39173
2026-01-16 15:51:07.72	226.23	2.14	-47.8	-60.8	3.5	1.52e+00	0	28	104	2544893952	60	38482
2026-01-16 15:51:11.75	226.13	1.88	-48.0	-60.8	3.5	1.52e+00	0	28	104	2544893952	60	38477
2026-01-16 15:51:15.79	226.04	1.63	-47.9	-60.7	3.5	1.52e+00	0	28	104	2544893952	60	38253
2026-01-16 15:51:19.83	225.94	1.38	-47.9	-60.8	3.5	1.52e+00	0	28	104	2544893952	60	38316
2026-01-16 15:51:23.86	225.85	1.13	-47.9	-60.8	3.5	1.52e+00	0	28	104	2544893952	60	38371
2026-01-16 15:51:27.90	225.76	0.88	-48.0	-60.8	3.5	1.51e+00	0	28	104	2544893952	60	38653
2026-01-16 15:51:31.94	225.67	0.64	-47.9	-60.7	3.5	1.52e+00	0	28	104	2544893952	60	38124
2026-01-16 15:51:35.98	225.58	0.40	-47.9	-60.8	3.5	1.52e+00	0	28	104	2544893952	60	38482
2026-01-16 15:51:40.02	225.50	0.15	-47.9	-60.8	3.5	1.52e+00	0	28	104	2544893952	60	38366
2026-01-16 15:51:44.06	225.41	-0.09	-47.9	-60.8	3.5	1.52e+00	0	28	104	2544893952	60	38308

#Closed at: 2026-01-16 15:51:44
#Recorded file [2544 MB]: D:/lorett/data/35029_260117_033631.dat