passes_logs/2026/01/16/R4.6S_Anadyr/R4.6S_Anadyr__20260116_224134_SUOMI_NPP_rec.log

#Pass ID: 20260116_224134_SUOMI NPP
#Satellite: SUOMI NPP
#Configuration: NPP
#almurnet v.1.7.20251203
#Start time: 2026-01-16 22:41:35

#Version: 2.2.20231116
#Station: R4.6S_Anadyr
#Location: 177.4865 lon 64.73178 lat
#TLE: 1 37849U 11061A   26016.58419598  .00000058  00000+0  48257-4 0  9996
#TLE: 2 37849  98.7812 318.6192 0002422  60.8544 299.2874 14.19525580736934

#Time	Az	El	Level	Level2	SNR	BER	BlckErr	Temp	State	Recorded	gain1	gain2
2026-01-16 22:41:35.75	117.40	0.06	-48.3	-60.8	3.5	1.52e+00	0	26	0	0	60	38641
2026-01-16 22:41:39.78	117.25	0.29	-48.2	-63.4	3.6	1.51e+00	0	27	104	0	60	53466
2026-01-16 22:41:43.82	117.09	0.53	-48.4	-63.6	3.6	1.51e+00	0	27	104	0	60	54642
2026-01-16 22:41:47.86	116.93	0.76	-48.0	-63.3	3.6	1.51e+00	0	27	104	0	60	52790
2026-01-16 22:41:51.89	116.76	1.00	-47.2	-62.4	3.6	1.51e+00	0	27	104	0	60	47519
2026-01-16 22:41:55.93	116.60	1.24	-46.1	-61.5	3.6	1.51e+00	0	27	104	0	60	42804
2026-01-16 22:41:59.97	116.43	1.48	-46.0	-61.5	3.6	1.51e+00	0	27	104	0	60	42805
2026-01-16 22:42:04.00	116.25	1.72	-46.0	-61.6	3.6	1.51e+00	0	27	104	0	60	43244
2026-01-16 22:42:08.04	116.08	1.97	-46.0	-61.4	3.6	1.51e+00	0	27	104	0	60	42256
2026-01-16 22:42:12.08	115.90	2.22	-46.1	-61.4	3.6	1.51e+00	0	27	104	0	60	42658
2026-01-16 22:42:16.11	115.72	2.46	-46.1	-61.5	3.6	1.51e+00	0	28	104	0	60	42982
2026-01-16 22:42:20.15	115.53	2.71	-46.1	-61.2	3.6	1.51e+00	0	28	104	0	60	41720
2026-01-16 22:42:24.19	115.34	2.97	-46.0	-61.4	3.6	1.51e+00	0	28	104	0	60	42482
2026-01-16 22:42:28.23	115.15	3.22	-45.4	-52.9	6.9	3.22e-01	92	27	0	2097152	60	15944
2026-01-16 22:42:32.26	114.96	3.48	-42.7	-45.7	15.1	7.00e-07	26	28	0	9437184	60	7001
2026-01-16 22:42:36.30	114.76	3.73	-45.5	-58.5	3.6	1.53e-01	0	27	104	12582912	60	30333
2026-01-16 22:42:40.32	114.56	3.99	-42.6	-45.8	14.5	2.20e-06	0	28	0	17825792	58	7898
2026-01-16 22:42:44.36	114.35	4.26	-41.6	-44.1	16.4	0.00e+00	92	27	0	25165824	56	7316
2026-01-16 22:42:48.40	114.14	4.52	-41.3	-43.4	17.5	0.00e+00	81	28	0	32505856	56	6734
2026-01-16 22:42:52.44	113.92	4.79	-40.9	-42.6	18.2	0.00e+00	0	28	0	40894464	54	6923
2026-01-16 22:42:56.47	113.70	5.06	-40.3	-41.9	18.8	0.00e+00	6	27	0	48234496	54	6344
2026-01-16 22:43:00.51	113.48	5.33	-40.5	-42.1	18.7	0.00e+00	92	28	0	55574528	54	6491
2026-01-16 22:43:04.55	113.25	5.60	-40.6	-42.3	18.6	0.00e+00	91	28	0	62914560	54	6646
2026-01-16 22:43:08.59	113.02	5.88	-39.9	-41.3	19.4	0.00e+00	0	27	0	71303168	54	5947
2026-01-16 22:43:12.62	112.78	6.16	-40.1	-41.5	19.4	0.00e+00	28	28	0	78643200	52	6842
2026-01-16 22:43:16.66	112.54	6.44	-40.3	-41.9	19.0	0.00e+00	91	28	0	85983232	52	7148
2026-01-16 22:43:20.69	112.30	6.72	-40.0	-41.4	19.6	0.00e+00	81	27	0	93323264	52	6706
2026-01-16 22:43:24.73	112.04	7.01	-40.0	-41.4	19.5	0.00e+00	0	27	0	100663296	52	6735
2026-01-16 22:43:28.77	111.79	7.30	-40.1	-41.7	19.3	0.00e+00	90	27	0	109051904	52	7002
2026-01-16 22:43:32.81	111.52	7.59	-39.8	-41.2	20.0	0.00e+00	66	28	0	116391936	52	6576
2026-01-16 22:43:36.84	111.26	7.88	-39.4	-40.7	20.3	0.00e+00	0	28	0	123731968	52	6201
2026-01-16 22:43:40.88	110.98	8.18	-39.7	-41.0	20.1	0.00e+00	0	28	0	131072000	52	6440
2026-01-16 22:43:44.91	110.70	8.48	-39.4	-40.8	20.2	0.00e+00	74	28	0	139460608	52	6298
2026-01-16 22:43:48.95	110.42	8.79	-39.4	-40.8	20.7	0.00e+00	92	27	0	146800640	52	6287
2026-01-16 22:43:52.98	110.12	9.09	-39.2	-40.5	20.7	0.00e+00	0	27	0	154140672	52	6058
2026-01-16 22:43:57.02	109.82	9.40	-39.0	-40.2	21.0	0.00e+00	46	28	0	161480704	52	5873
2026-01-16 22:44:01.06	109.52	9.71	-39.0	-40.4	20.9	0.00e+00	28	28	0	168820736	50	6708
2026-01-16 22:44:05.09	109.21	10.03	-38.7	-39.9	20.9	0.00e+00	92	28	0	177209344	50	6357
2026-01-16 22:44:09.13	108.89	10.35	-38.1	-39.2	21.7	0.00e+00	0	27	0	184549376	50	5830
2026-01-16 22:44:13.16	108.56	10.67	-39.0	-40.2	21.0	0.00e+00	92	27	0	191889408	50	6587
2026-01-16 22:44:17.20	108.23	11.00	-38.9	-40.1	21.1	0.00e+00	92	27	0	199229440	50	6499
2026-01-16 22:44:21.24	107.88	11.33	-38.9	-40.1	21.1	0.00e+00	0	28	0	206569472	50	6507
2026-01-16 22:44:25.28	107.53	11.66	-40.0	-41.4	20.0	0.00e+00	0	27	0	214958080	52	6713
2026-01-16 22:44:29.31	107.18	11.99	-38.9	-40.0	21.3	0.00e+00	90	27	0	222298112	50	6449
2026-01-16 22:44:33.35	106.81	12.33	-38.7	-39.9	21.5	0.00e+00	90	27	0	229638144	50	6344
2026-01-16 22:44:37.38	106.43	12.67	-38.5	-39.7	21.6	0.00e+00	0	27	0	236978176	50	6197
2026-01-16 22:44:41.42	106.05	13.02	-38.2	-39.3	22.1	0.00e+00	0	27	0	245366784	50	5956
2026-01-16 22:44:45.46	105.65	13.37	-38.2	-39.2	22.0	0.00e+00	39	27	0	252706816	50	5869
2026-01-16 22:44:49.50	105.25	13.73	-38.0	-39.0	22.2	0.00e+00	90	27	0	260046848	50	5734
2026-01-16 22:44:53.54	104.83	14.08	-37.8	-38.7	22.4	0.00e+00	0	27	0	267386880	48	6225
2026-01-16 22:44:57.57	104.41	14.44	-38.4	-39.5	21.9	0.00e+00	69	27	0	274726912	48	6821
2026-01-16 22:45:01.60	103.98	14.81	-37.9	-39.0	22.5	0.00e+00	84	27	0	283115520	48	6401
2026-01-16 22:45:05.65	103.53	15.18	-38.0	-39.1	22.0	0.00e+00	0	27	0	290455552	48	6528
2026-01-16 22:45:09.69	103.07	15.55	-37.8	-38.9	22.3	0.00e+00	0	27	0	297795584	48	6344
2026-01-16 22:45:13.73	102.60	15.93	-37.9	-39.0	22.3	0.00e+00	90	27	0	305135616	48	6399
2026-01-16 22:45:17.76	102.12	16.31	-38.1	-39.1	22.1	0.00e+00	91	27	0	313524224	48	6480
2026-01-16 22:45:21.80	101.62	16.69	-37.9	-38.9	22.2	0.00e+00	0	27	0	320864256	48	6365
2026-01-16 22:45:25.84	101.11	17.08	-38.0	-39.0	22.3	0.00e+00	0	27	0	328204288	48	6421
2026-01-16 22:45:29.87	100.59	17.47	-37.6	-38.5	22.6	0.00e+00	92	27	0	335544320	48	6088
2026-01-16 22:45:33.91	100.06	17.87	-37.9	-38.9	22.4	0.00e+00	90	27	0	342884352	48	6333
2026-01-16 22:45:37.95	99.51	18.27	-38.3	-39.4	22.1	0.00e+00	0	27	0	351272960	48	6727
2026-01-16 22:45:41.99	98.94	18.67	-39.1	-40.3	21.2	0.00e+00	30	27	0	358612992	50	6659
2026-01-16 22:45:46.03	98.36	19.07	-38.5	-39.6	21.9	0.00e+00	90	27	0	365953024	50	6135
2026-01-16 22:45:50.07	97.76	19.48	-38.6	-39.6	22.0	0.00e+00	90	27	0	373293056	50	6147
2026-01-16 22:45:54.11	97.15	19.90	-38.3	-39.3	22.4	0.00e+00	0	27	0	381681664	50	5957
2026-01-16 22:45:58.14	96.52	20.31	-38.4	-39.4	22.2	0.00e+00	92	27	0	389021696	50	6002
2026-01-16 22:46:02.17	95.87	20.73	-38.5	-39.6	22.0	0.00e+00	92	27	0	396361728	50	6131
2026-01-16 22:46:06.21	95.21	21.16	-38.4	-39.5	22.3	0.00e+00	0	27	0	403701760	50	6068
2026-01-16 22:46:10.25	94.52	21.58	-38.7	-39.7	22.1	0.00e+00	0	27	0	411041792	50	6218
2026-01-16 22:46:14.28	93.82	22.01	-38.8	-39.9	21.9	0.00e+00	90	27	0	419430400	50	6362
2026-01-16 22:46:18.32	93.09	22.44	-39.1	-40.3	21.4	0.00e+00	92	27	0	426770432	50	6669
2026-01-16 22:46:22.36	92.35	22.87	-39.7	-40.9	21.2	0.00e+00	0	27	0	434110464	50	7115
2026-01-16 22:46:26.39	91.58	23.31	-39.2	-40.4	21.4	0.00e+00	0	27	0	441450496	52	5998
2026-01-16 22:46:30.43	90.79	23.75	-38.5	-39.6	22.2	0.00e+00	90	27	0	448790528	50	6110
2026-01-16 22:46:34.47	89.98	24.18	-38.3	-39.4	22.0	0.00e+00	92	27	0	457179136	50	6003
2026-01-16 22:46:38.50	89.15	24.62	-38.5	-39.6	22.2	0.00e+00	0	27	0	464519168	50	6120
2026-01-16 22:46:42.54	88.29	25.06	-38.9	-40.0	21.6	0.00e+00	92	27	0	471859200	50	6459
2026-01-16 22:46:46.58	87.41	25.50	-38.6	-39.6	22.2	0.00e+00	61	27	0	479199232	50	6167
2026-01-16 22:46:50.61	86.50	25.94	-38.6	-39.7	22.1	0.00e+00	92	27	0	487587840	50	6177
2026-01-16 22:46:54.64	85.57	26.38	-38.3	-39.4	22.2	0.00e+00	0	27	0	494927872	50	5965
2026-01-16 22:46:58.67	84.61	26.81	-38.9	-40.0	21.8	0.00e+00	92	27	0	502267904	50	6452
2026-01-16 22:47:02.71	83.63	27.25	-38.8	-39.9	22.1	0.00e+00	92	27	0	509607936	52	5638
2026-01-16 22:47:06.74	82.62	27.68	-37.1	-38.0	23.0	0.00e+00	22	27	0	516947968	48	5717
2026-01-16 22:47:10.78	81.57	28.10	-37.4	-38.3	23.0	0.00e+00	0	27	0	525336576	46	6644
2026-01-16 22:47:14.81	80.51	28.53	-38.1	-39.0	22.5	0.00e+00	92	27	0	532676608	48	6462
2026-01-16 22:47:18.85	79.41	28.94	-39.1	-40.2	21.5	0.00e+00	87	27	0	540016640	50	6596
2026-01-16 22:47:22.88	78.29	29.36	-40.1	-41.5	20.4	0.00e+00	0	27	0	547356672	52	6804
2026-01-16 22:47:26.92	77.13	29.76	-39.5	-40.7	21.2	0.00e+00	0	27	0	554696704	52	6201
2026-01-16 22:47:30.96	75.94	30.16	-40.0	-41.3	20.9	0.00e+00	92	27	0	563085312	52	6621
2026-01-16 22:47:35.00	74.73	30.55	-40.9	-42.4	19.5	0.00e+00	92	27	0	570425344	54	6708
2026-01-16 22:47:39.04	73.48	30.93	-42.8	-44.8	17.5	0.00e+00	0	27	0	577765376	58	7083
2026-01-16 22:47:43.07	72.21	31.29	-40.8	-42.2	20.0	0.00e+00	54	27	0	585105408	54	6542
2026-01-16 22:47:47.10	70.91	31.65	-40.6	-42.0	20.1	0.00e+00	92	27	0	593494016	54	6391
2026-01-16 22:47:51.14	69.58	31.99	-40.7	-42.0	20.0	0.00e+00	0	27	0	600834048	54	6449
2026-01-16 22:47:55.18	68.22	32.32	-41.4	-43.1	19.1	0.00e+00	0	27	0	608174080	54	7274
2026-01-16 22:47:59.21	66.84	32.64	-40.9	-42.3	19.9	0.00e+00	92	27	0	615514112	56	5933
2026-01-16 22:48:03.26	65.43	32.94	-40.9	-42.4	19.7	0.00e+00	90	27	0	622854144	54	6733
2026-01-16 22:48:07.30	63.99	33.22	-38.7	-39.7	22.1	0.00e+00	0	27	0	631242752	52	5552
2026-01-16 22:48:11.33	62.53	33.48	-37.4	-38.3	23.2	0.00e+00	0	27	0	638582784	50	5299
2026-01-16 22:48:15.37	61.04	33.72	-37.4	-38.3	23.2	0.00e+00	36	27	0	645922816	48	5908
2026-01-16 22:48:19.40	59.54	33.94	-39.5	-40.7	21.0	0.00e+00	90	27	0	653262848	50	6988
2026-01-16 22:48:23.44	58.01	34.14	-37.6	-38.6	22.8	0.00e+00	0	27	0	661651456	48	6120
2026-01-16 22:48:27.48	56.47	34.32	-37.1	-38.0	23.4	0.00e+00	34	27	0	668991488	48	5712
2026-01-16 22:48:31.52	54.91	34.48	-38.3	-39.4	22.3	0.00e+00	89	27	0	676331520	48	6711
2026-01-16 22:48:35.56	53.34	34.61	-37.6	-38.5	23.1	0.00e+00	0	28	0	683671552	48	6047
2026-01-16 22:48:39.59	51.76	34.72	-38.2	-39.3	22.3	0.00e+00	0	27	0	691011584	48	6629
2026-01-16 22:48:43.63	50.16	34.80	-38.1	-39.1	22.8	0.00e+00	90	27	0	699400192	48	6496
2026-01-16 22:48:47.67	48.56	34.86	-38.3	-39.3	22.3	0.00e+00	78	28	0	706740224	50	5940
2026-01-16 22:48:51.71	46.96	34.89	-39.0	-40.1	21.7	0.00e+00	0	28	0	714080256	50	6502
2026-01-16 22:48:55.75	45.35	34.89	-38.9	-40.0	21.8	0.00e+00	0	28	0	721420288	50	6435
2026-01-16 22:48:59.78	43.75	34.88	-39.4	-40.5	21.5	0.00e+00	25	28	0	729808896	50	6833
2026-01-16 22:49:03.82	42.14	34.83	-38.8	-39.9	21.9	0.00e+00	90	28	0	737148928	50	6331
2026-01-16 22:49:07.86	40.54	34.76	-39.6	-40.8	21.1	0.00e+00	0	28	0	744488960	52	6250
2026-01-16 22:49:11.90	38.96	34.66	-39.6	-40.8	21.1	0.00e+00	0	28	0	751828992	52	6313
2026-01-16 22:49:15.94	37.38	34.54	-39.2	-40.3	21.8	0.00e+00	90	28	0	759169024	50	6685
2026-01-16 22:49:19.98	35.81	34.40	-40.6	-42.0	20.3	0.00e+00	0	28	0	767557632	52	7229
2026-01-16 22:49:24.01	34.26	34.23	-38.5	-39.5	22.2	0.00e+00	0	28	0	774897664	50	6072
2026-01-16 22:49:28.05	32.73	34.04	-39.4	-40.6	21.2	0.00e+00	32	28	0	782237696	50	6879
2026-01-16 22:49:32.09	31.22	33.83	-38.8	-39.8	22.3	0.00e+00	92	28	0	789577728	50	6290
2026-01-16 22:49:36.12	29.73	33.60	-38.8	-39.9	21.8	0.00e+00	0	28	0	797966336	50	6351
2026-01-16 22:49:40.16	28.26	33.35	-40.3	-41.6	20.6	0.00e+00	0	28	0	805306368	54	6118
2026-01-16 22:49:44.19	26.81	33.08	-37.8	-38.7	22.7	0.00e+00	85	28	0	812646400	48	6241
2026-01-16 22:49:48.23	25.39	32.79	-39.7	-41.0	20.8	0.00e+00	91	28	0	819986432	50	7206
2026-01-16 22:49:52.26	24.00	32.49	-40.5	-42.0	19.8	0.00e+00	0	28	0	827326464	54	6444
2026-01-16 22:49:56.30	22.63	32.16	-40.8	-42.4	19.8	0.00e+00	0	28	0	835715072	54	6717
2026-01-16 22:50:00.34	21.28	31.83	-39.6	-40.9	21.0	0.00e+00	0	28	0	843055104	54	5640
2026-01-16 22:50:04.37	19.97	31.48	-38.9	-40.0	21.8	0.00e+00	79	28	0	850395136	52	5761
2026-01-16 22:50:08.41	18.69	31.12	-39.4	-40.6	21.2	0.00e+00	27	28	0	857735168	50	6849
2026-01-16 22:50:12.45	17.43	30.75	-40.2	-41.5	20.5	0.00e+00	34	28	0	865075200	52	6832
2026-01-16 22:50:16.49	16.21	30.36	-38.9	-40.1	21.7	0.00e+00	89	28	0	873463808	50	6472
2026-01-16 22:50:20.52	15.01	29.97	-40.9	-42.3	19.9	0.00e+00	0	28	0	880803840	54	6674
2026-01-16 22:50:24.56	13.84	29.57	-39.8	-41.1	20.8	0.00e+00	0	28	0	888143872	52	6525
2026-01-16 22:50:28.59	12.71	29.16	-40.7	-42.3	19.6	0.00e+00	31	28	0	895483904	54	6620
2026-01-16 22:50:32.63	11.60	28.75	-40.1	-41.3	20.9	0.00e+00	0	28	0	903872512	54	5926
2026-01-16 22:50:36.66	10.52	28.33	-39.2	-40.4	21.3	0.00e+00	0	28	0	911212544	52	5985
2026-01-16 22:50:40.70	9.47	27.91	-39.4	-40.6	21.2	0.00e+00	0	28	0	918552576	52	6142
2026-01-16 22:50:44.74	8.45	27.48	-37.2	-38.1	23.2	0.00e+00	82	28	0	925892608	48	5812
2026-01-16 22:50:48.77	7.45	27.05	-38.2	-39.3	22.3	0.00e+00	0	28	0	933232640	48	6633
2026-01-16 22:50:52.81	6.48	26.61	-37.0	-37.9	23.3	0.00e+00	0	28	0	941621248	48	5695
2026-01-16 22:50:56.85	5.54	26.18	-37.2	-38.2	23.2	0.00e+00	0	28	0	948961280	46	6565
2026-01-16 22:51:00.88	4.62	25.74	-37.7	-38.7	22.7	0.00e+00	92	29	0	956301312	48	6238
2026-01-16 22:51:04.92	3.73	25.30	-36.9	-37.8	23.4	0.00e+00	0	29	0	963641344	46	6268
2026-01-16 22:51:08.96	2.86	24.87	-36.6	-37.6	23.5	0.00e+00	0	29	0	970981376	46	6109
2026-01-16 22:51:12.99	2.02	24.43	-36.8	-37.7	23.3	0.00e+00	29	29	0	979369984	46	6207
2026-01-16 22:51:17.02	1.21	23.99	-36.3	-37.1	23.8	0.00e+00	0	29	0	986710016	46	5826
2026-01-16 22:51:21.06	0.41	23.56	-37.0	-38.0	23.1	0.00e+00	0	29	0	994050048	46	6396
2026-01-16 22:51:25.09	359.64	23.12	-36.9	-37.9	23.2	0.00e+00	0	29	0	1001390080	46	6344
2026-01-16 22:51:29.13	358.88	22.69	-37.6	-38.6	22.8	0.00e+00	29	29	0	1009778688	48	6157
2026-01-16 22:51:33.16	358.15	22.26	-37.3	-38.2	22.8	0.00e+00	0	29	0	1017118720	48	5893
2026-01-16 22:51:37.20	357.44	21.83	-38.2	-39.2	22.2	0.00e+00	0	29	0	1024458752	48	6598
2026-01-16 22:51:41.23	356.75	21.41	-38.5	-39.6	21.9	0.00e+00	0	29	0	1031798784	48	6884
2026-01-16 22:51:45.26	356.08	20.99	-38.9	-40.0	21.4	0.00e+00	17	29	0	1039138816	50	6443
2026-01-16 22:51:49.30	355.42	20.57	-38.3	-39.4	22.1	0.00e+00	0	29	0	1047527424	50	5968
2026-01-16 22:51:53.34	354.79	20.15	-37.4	-38.4	23.0	0.00e+00	0	29	0	1054867456	48	5995
2026-01-16 22:51:57.37	354.17	19.74	-37.6	-38.6	22.7	0.00e+00	9	29	0	1062207488	48	6144
2026-01-16 22:52:01.41	353.57	19.33	-37.3	-38.3	23.0	0.00e+00	27	29	0	1069547520	48	5906
2026-01-16 22:52:05.45	352.98	18.92	-36.8	-37.7	23.5	0.00e+00	0	29	0	1076887552	46	6187
2026-01-16 22:52:09.48	352.41	18.52	-37.7	-38.7	22.7	0.00e+00	0	29	0	1085276160	46	6931
2026-01-16 22:52:13.52	351.86	18.12	-40.1	-41.5	20.3	0.00e+00	30	29	0	1092616192	52	6772
2026-01-16 22:52:17.56	351.32	17.72	-40.6	-42.1	19.7	0.00e+00	0	29	0	1099956224	54	6490
2026-01-16 22:52:21.59	350.79	17.33	-38.6	-39.7	21.8	0.00e+00	0	29	0	1107296256	50	6224
2026-01-16 22:52:25.63	350.28	16.94	-38.4	-39.5	21.9	0.00e+00	0	29	0	1115684864	50	6050
2026-01-16 22:52:29.66	349.78	16.56	-39.1	-40.3	21.3	0.00e+00	91	29	0	1123024896	50	6648
2026-01-16 22:52:33.70	349.29	16.18	-38.9	-40.0	21.5	0.00e+00	0	29	0	1130364928	50	6432
2026-01-16 22:52:37.74	348.82	15.80	-38.1	-39.2	22.3	0.00e+00	0	29	0	1137704960	50	5843
2026-01-16 22:52:41.78	348.36	15.43	-38.8	-39.9	21.7	0.00e+00	25	29	0	1145044992	50	6348
2026-01-16 22:52:45.82	347.91	15.06	-38.6	-39.7	21.7	0.00e+00	90	29	0	1153433600	50	6224
2026-01-16 22:52:49.85	347.47	14.69	-38.7	-39.8	21.6	0.00e+00	11	29	0	1160773632	50	6280
2026-01-16 22:52:53.89	347.04	14.33	-39.0	-40.2	21.3	0.00e+00	0	29	0	1168113664	50	6557
2026-01-16 22:52:57.93	346.63	13.97	-38.3	-39.4	22.0	0.00e+00	65	29	0	1175453696	50	5965
2026-01-16 22:53:01.96	346.22	13.62	-37.8	-38.8	22.3	0.00e+00	0	29	0	1183842304	48	6311
2026-01-16 22:53:06.00	345.82	13.27	-38.8	-40.0	21.3	0.00e+00	0	29	0	1191182336	50	6398
2026-01-16 22:53:10.04	345.44	12.92	-40.4	-41.8	19.8	0.00e+00	0	29	0	1198522368	52	7064
2026-01-16 22:53:14.08	345.06	12.57	-40.8	-42.4	19.3	0.00e+00	46	29	0	1205862400	54	6705
2026-01-16 22:53:18.11	344.69	12.23	-40.0	-41.3	20.3	0.00e+00	0	29	0	1213202432	52	6680
2026-01-16 22:53:22.15	344.33	11.90	-39.0	-40.2	21.3	0.00e+00	0	29	0	1221591040	52	5835
2026-01-16 22:53:26.19	343.98	11.56	-38.7	-39.9	21.4	0.00e+00	0	29	0	1228931072	50	6322
2026-01-16 22:53:30.23	343.63	11.23	-38.3	-39.3	21.8	0.00e+00	63	29	0	1236271104	50	5946
2026-01-16 22:53:34.26	343.30	10.91	-38.5	-39.5	21.7	0.00e+00	0	29	0	1243611136	50	6096
2026-01-16 22:53:38.30	342.97	10.59	-38.6	-39.7	21.5	0.00e+00	0	29	0	1251999744	50	6216
2026-01-16 22:53:42.33	342.65	10.27	-39.0	-40.2	21.1	0.00e+00	0	29	0	1259339776	50	6545
2026-01-16 22:53:46.37	342.34	9.95	-39.6	-40.9	20.5	0.00e+00	85	29	0	1266679808	50	7103
2026-01-16 22:53:50.41	342.03	9.64	-39.9	-41.3	20.3	0.00e+00	0	29	0	1274019840	52	6617
2026-01-16 22:53:54.44	341.73	9.33	-39.9	-41.3	20.0	0.00e+00	0	29	0	1281359872	52	6646
2026-01-16 22:53:58.47	341.44	9.02	-40.2	-41.7	19.7	0.00e+00	78	29	0	1289748480	52	6944
2026-01-16 22:54:02.51	341.15	8.72	-41.1	-42.8	18.5	0.00e+00	0	29	0	1297088512	54	7048
2026-01-16 22:54:06.55	340.87	8.41	-41.9	-44.0	17.5	0.00e+00	0	30	0	1304428544	56	7178
2026-01-16 22:54:10.59	340.60	8.12	-41.7	-43.6	17.9	0.00e+00	0	29	0	1311768576	56	6883
2026-01-16 22:54:14.62	340.33	7.82	-40.9	-42.6	18.8	0.00e+00	91	29	0	1320157184	56	6108
2026-01-16 22:54:18.66	340.07	7.53	-40.2	-41.6	19.7	0.00e+00	0	29	0	1327497216	54	6145
2026-01-16 22:54:22.70	339.81	7.24	-39.6	-41.0	20.2	0.00e+00	0	29	0	1334837248	52	6393
2026-01-16 22:54:26.73	339.56	6.95	-39.7	-41.0	20.1	0.00e+00	0	30	0	1342177280	52	6441
2026-01-16 22:54:30.77	339.31	6.67	-39.9	-41.3	19.7	0.00e+00	92	30	0	1349517312	52	6647
2026-01-16 22:54:34.80	339.07	6.38	-40.1	-41.6	19.6	0.00e+00	0	30	0	1357905920	52	6881
2026-01-16 22:54:38.84	338.84	6.11	-40.7	-42.4	18.7	0.00e+00	0	30	0	1365245952	52	7520
2026-01-16 22:54:42.87	338.60	5.83	-40.9	-42.7	18.2	0.00e+00	41	30	0	1372585984	54	6985
2026-01-16 22:54:46.91	338.38	5.55	-41.4	-43.4	17.2	0.00e+00	45	30	0	1379926016	54	7577
2026-01-16 22:54:50.95	338.15	5.28	-42.3	-45.0	15.3	0.00e+00	0	30	0	1387266048	56	8071
2026-01-16 22:54:54.99	337.94	5.01	-43.0	-46.7	13.0	4.42e-05	0	30	0	1395654656	58	8771
2026-01-16 22:54:59.02	337.72	4.74	-43.4	-49.0	9.1	1.02e-02	16	30	0	1402994688	58	11486
2026-01-16 22:55:03.06	337.51	4.48	-43.6	-52.0	5.0	4.00e-01	0	30	0	1410334720	58	16090
2026-01-16 22:55:07.10	337.31	4.22	-43.5	-56.2	3.8	1.47e+00	0	30	104	1414529024	58	26302
2026-01-16 22:55:11.14	337.10	3.95	-43.4	-57.6	3.6	1.51e+00	0	30	104	1414529024	58	30856
2026-01-16 22:55:15.17	336.91	3.70	-43.4	-58.5	3.6	1.51e+00	0	30	104	1414529024	58	34127
2026-01-16 22:55:19.21	336.71	3.44	-43.3	-58.4	3.6	1.51e+00	0	30	104	1414529024	58	33582
2026-01-16 22:55:23.25	336.52	3.18	-43.4	-58.4	3.6	1.51e+00	0	30	104	1414529024	58	33924
2026-01-16 22:55:27.28	336.33	2.93	-44.0	-59.1	3.6	1.51e+00	0	30	104	1414529024	58	36670
2026-01-16 22:55:31.32	336.15	2.68	-48.4	-63.6	3.6	1.51e+00	0	30	104	1414529024	60	54751
2026-01-16 22:55:35.35	335.97	2.43	-48.4	-63.6	3.6	1.51e+00	0	30	104	1414529024	60	54709
2026-01-16 22:55:39.39	335.79	2.19	-48.2	-63.4	3.6	1.51e+00	0	30	104	1414529024	60	53598
2026-01-16 22:55:43.42	335.62	1.94	-48.3	-63.5	3.6	1.51e+00	0	30	104	1414529024	60	54245
2026-01-16 22:55:47.46	335.45	1.70	-48.4	-63.7	3.6	1.51e+00	0	30	104	1414529024	60	55028
2026-01-16 22:55:51.50	335.28	1.46	-48.3	-63.5	3.6	1.51e+00	0	30	104	1414529024	60	54082
2026-01-16 22:55:55.54	335.12	1.22	-48.5	-63.7	3.6	1.51e+00	0	30	104	1414529024	60	55337
2026-01-16 22:55:59.57	334.96	0.98	-48.7	-63.9	3.6	1.51e+00	0	30	104	1414529024	60	56493
2026-01-16 22:56:03.61	334.80	0.74	-49.0	-64.2	3.6	1.51e+00	0	30	104	1414529024	60	58839
2026-01-16 22:56:07.65	334.64	0.51	-48.8	-64.0	3.6	1.51e+00	0	30	104	1414529024	60	56961
2026-01-16 22:56:11.69	334.49	0.28	-48.4	-63.6	3.6	1.51e+00	0	30	104	1414529024	60	54866
2026-01-16 22:56:15.73	334.34	0.04	-48.3	-63.5	3.6	1.51e+00	0	30	104	1414529024	60	54201

#Closed at: 2026-01-16 22:56:18
#Recorded file [1414 MB]: D:/lorett/data/35029_260117_104135.dat