passes_logs/2026/01/16/R4.6S_Anadyr/R4.6S_Anadyr__20260116_121537_NOAA_21_JPSS-2_rec.log

#Pass ID: 20260116_121537_NOAA 21 (JPSS-2)
#Satellite: NOAA 21 (JPSS-2)
#Configuration: NOAA-21
#almurnet v.1.7.20251203
#Start time: 2026-01-16 12:15:40

#Version: 2.2.20231116
#Station: R4.6S_Anadyr
#Location: 177.4865 lon 64.73178 lat
#TLE: 1 54234U 22150A   26015.92901934  .00000025  00000+0  32700-4 0  9991
#TLE: 2 54234  98.7499 316.8175 0000634 284.8145  75.2961 14.19534841164946

#Time	Az	El	Level	Level2	SNR	BER	BlckErr	Temp	State	Recorded	gain1	gain2
2026-01-16 12:15:40.10	19.26	0.12	-47.9	-62.8	3.5	1.51e+00	0	26	0	0	60	49671
2026-01-16 12:15:44.14	19.57	0.31	-48.2	-61.0	3.5	1.52e+00	0	28	104	0	60	39585
2026-01-16 12:15:48.18	19.89	0.50	-47.9	-60.8	3.5	1.52e+00	0	28	104	0	60	38264
2026-01-16 12:15:52.21	20.21	0.70	-47.4	-60.3	3.5	1.52e+00	0	28	104	0	60	36258
2026-01-16 12:15:56.25	20.53	0.89	-46.2	-59.0	3.5	1.51e+00	0	28	104	0	60	31420
2026-01-16 12:16:00.29	20.86	1.09	-46.2	-59.1	3.5	1.52e+00	0	28	104	0	60	31541
2026-01-16 12:16:04.32	21.19	1.28	-46.2	-59.0	3.5	1.52e+00	0	28	104	0	60	31173
2026-01-16 12:16:08.36	21.53	1.48	-46.2	-59.0	3.5	1.51e+00	0	28	104	0	60	31425
2026-01-16 12:16:12.40	21.87	1.68	-46.2	-59.1	3.5	1.51e+00	0	28	104	0	60	31541
2026-01-16 12:16:16.44	22.22	1.87	-46.2	-59.0	3.5	1.52e+00	0	28	104	0	60	31376
2026-01-16 12:16:20.48	22.57	2.07	-46.3	-59.1	3.5	1.52e+00	0	28	104	0	60	31563
2026-01-16 12:16:24.52	22.92	2.27	-46.2	-59.1	3.5	1.52e+00	0	29	104	0	60	31559
2026-01-16 12:16:28.56	23.28	2.47	-46.1	-57.2	3.5	1.51e+00	0	29	104	0	60	25297
2026-01-16 12:16:32.60	23.64	2.67	-43.2	-46.4	12.1	1.41e-03	0	29	0	3145728	60	7356
2026-01-16 12:16:36.64	24.01	2.87	-38.4	-39.8	18.3	0.00e+00	0	29	0	15728640	50	6087
2026-01-16 12:16:40.68	24.38	3.07	-39.1	-40.7	17.4	0.00e+00	0	29	0	28311552	52	6015
2026-01-16 12:16:44.72	24.76	3.27	-45.0	-50.5	4.6	4.42e-05	0	29	0	34603008	58	13119
2026-01-16 12:16:48.75	25.14	3.48	-39.8	-41.5	17.0	0.00e+00	0	29	0	40894464	52	6611
2026-01-16 12:16:52.79	25.53	3.68	-40.8	-42.8	15.5	0.00e+00	0	28	0	53477376	54	6822
2026-01-16 12:16:56.83	25.92	3.88	-42.6	-45.2	13.2	2.20e-06	0	29	0	66060288	56	8079
2026-01-16 12:17:00.87	26.31	4.09	-43.6	-46.8	11.8	1.22e-03	0	29	0	78643200	60	7676
2026-01-16 12:17:04.92	26.72	4.29	-43.7	-47.1	11.1	1.23e-03	0	28	0	91226112	60	7918
2026-01-16 12:17:08.96	27.13	4.49	-43.8	-47.2	11.5	2.16e-03	0	29	0	103809024	60	7995
2026-01-16 12:17:13.01	27.54	4.70	-40.3	-42.0	16.7	0.00e+00	0	29	0	116391936	54	6236
2026-01-16 12:17:17.04	27.96	4.90	-39.2	-40.7	18.1	0.00e+00	0	29	0	128974848	52	6041
2026-01-16 12:17:21.08	28.38	5.11	-38.3	-39.6	19.0	0.00e+00	0	29	0	141557760	50	5966
2026-01-16 12:17:25.12	28.81	5.32	-37.3	-38.6	20.0	0.00e+00	0	28	0	154140672	48	5941
2026-01-16 12:17:29.17	29.25	5.52	-37.3	-38.5	20.2	0.00e+00	0	29	0	166723584	48	5924
2026-01-16 12:17:33.21	29.69	5.73	-36.9	-38.0	20.6	0.00e+00	0	29	0	179306496	46	6251
2026-01-16 12:17:37.25	30.14	5.94	-36.5	-37.6	20.9	0.00e+00	0	28	0	191889408	46	5967
2026-01-16 12:17:41.28	30.59	6.14	-36.6	-37.7	20.9	0.00e+00	0	29	0	204472320	46	6056
2026-01-16 12:17:45.32	31.05	6.35	-36.4	-37.6	21.0	0.00e+00	0	29	0	217055232	46	5936
2026-01-16 12:17:49.36	31.52	6.56	-36.2	-37.3	21.2	0.00e+00	0	28	0	229638144	46	5791
2026-01-16 12:17:53.40	31.99	6.76	-36.1	-37.2	21.4	0.00e+00	0	28	0	242221056	46	5690
2026-01-16 12:17:57.44	32.47	6.97	-35.8	-36.9	21.7	0.00e+00	0	29	0	254803968	46	5490
2026-01-16 12:18:01.48	32.96	7.18	-35.7	-36.8	21.7	0.00e+00	0	29	0	268435456	44	6075
2026-01-16 12:18:05.52	33.45	7.38	-35.6	-36.7	21.9	0.00e+00	0	29	0	281018368	44	6012
2026-01-16 12:18:09.56	33.95	7.59	-35.6	-36.7	22.0	0.00e+00	0	28	0	292552704	44	5997
2026-01-16 12:18:13.60	34.46	7.80	-36.1	-37.1	21.7	0.00e+00	0	28	0	306184192	44	6337
2026-01-16 12:18:17.64	34.97	8.01	-36.1	-37.2	21.6	0.00e+00	0	28	0	318767104	44	6353
2026-01-16 12:18:21.68	35.49	8.21	-35.7	-36.8	21.8	0.00e+00	0	28	0	331350016	44	6067
2026-01-16 12:18:25.72	36.02	8.42	-35.9	-37.0	21.8	0.00e+00	0	28	0	343932928	44	6235
2026-01-16 12:18:29.76	36.55	8.62	-35.6	-36.7	22.0	0.00e+00	0	28	0	356515840	44	6011
2026-01-16 12:18:33.80	37.10	8.83	-35.1	-36.1	22.6	0.00e+00	0	28	0	369098752	44	5601
2026-01-16 12:18:37.84	37.65	9.03	-35.3	-36.3	22.4	0.00e+00	0	28	0	381681664	44	5775
2026-01-16 12:18:41.88	38.20	9.24	-34.9	-35.9	22.6	0.00e+00	0	28	0	394264576	44	5504
2026-01-16 12:18:45.92	38.77	9.44	-35.1	-36.1	22.5	0.00e+00	0	28	0	406847488	44	5610
2026-01-16 12:18:49.95	39.34	9.64	-35.1	-36.1	22.5	0.00e+00	0	28	0	419430400	44	5632
2026-01-16 12:18:53.99	39.92	9.85	-34.9	-35.8	22.8	0.00e+00	0	28	0	432013312	44	5464
2026-01-16 12:18:58.03	40.50	10.05	-34.9	-35.8	22.9	0.00e+00	0	28	0	444596224	44	5460
2026-01-16 12:19:02.07	41.10	10.25	-34.9	-35.8	23.1	0.00e+00	0	28	0	457179136	42	6134
2026-01-16 12:19:06.11	41.70	10.45	-34.9	-35.8	22.9	0.00e+00	0	28	0	469762048	42	6113
2026-01-16 12:19:10.15	42.31	10.64	-34.9	-35.8	22.8	0.00e+00	0	28	0	482344960	42	6134
2026-01-16 12:19:14.19	42.93	10.84	-34.7	-35.6	23.1	0.00e+00	0	28	0	494927872	42	5981
2026-01-16 12:19:18.23	43.56	11.04	-34.9	-35.9	22.9	0.00e+00	0	28	0	507510784	42	6183
2026-01-16 12:19:22.27	44.20	11.23	-34.6	-35.6	23.2	0.00e+00	0	28	0	520093696	42	5950
2026-01-16 12:19:26.31	44.84	11.42	-34.9	-35.9	23.2	0.00e+00	0	28	0	532676608	42	6167
2026-01-16 12:19:30.36	45.49	11.61	-34.8	-35.8	23.0	0.00e+00	0	28	0	545259520	42	6094
2026-01-16 12:19:34.39	46.15	11.80	-35.0	-36.0	22.8	0.00e+00	0	28	0	557842432	42	6222
2026-01-16 12:19:38.44	46.82	11.99	-35.1	-36.1	22.9	0.00e+00	0	28	0	570425344	42	6295
2026-01-16 12:19:42.48	47.50	12.17	-35.0	-36.0	22.9	0.00e+00	0	28	0	584056832	42	6223
2026-01-16 12:19:46.53	48.18	12.35	-34.7	-35.7	23.2	0.00e+00	0	28	0	596639744	42	6030
2026-01-16 12:19:50.57	48.88	12.53	-34.7	-35.7	23.2	0.00e+00	0	28	0	609222656	42	6001
2026-01-16 12:19:54.61	49.58	12.71	-35.3	-36.3	22.8	0.00e+00	0	28	0	621805568	42	6464
2026-01-16 12:19:58.65	50.29	12.89	-34.8	-35.8	23.1	0.00e+00	0	28	0	634388480	42	6073
2026-01-16 12:20:02.69	51.01	13.06	-34.9	-35.8	23.0	0.00e+00	0	28	0	646971392	42	6124
2026-01-16 12:20:06.73	51.73	13.23	-34.7	-35.7	23.1	0.00e+00	0	28	0	659554304	42	6022
2026-01-16 12:20:10.78	52.47	13.39	-34.6	-35.6	23.1	0.00e+00	0	28	0	672137216	42	5946
2026-01-16 12:20:14.81	53.21	13.56	-34.6	-35.5	23.4	0.00e+00	0	28	0	684720128	42	5911
2026-01-16 12:20:18.86	53.96	13.72	-34.4	-35.4	23.3	0.00e+00	0	28	0	697303040	42	5815
2026-01-16 12:20:22.90	54.72	13.87	-34.8	-35.8	23.2	0.00e+00	0	28	0	709885952	42	6091
2026-01-16 12:20:26.94	55.48	14.02	-34.5	-35.4	23.4	0.00e+00	0	28	0	722468864	42	5845
2026-01-16 12:20:30.98	56.25	14.17	-34.6	-35.6	23.1	0.00e+00	0	28	0	735051776	42	5960
2026-01-16 12:20:35.02	57.03	14.32	-35.2	-36.2	23.1	0.00e+00	0	28	0	747634688	42	6391
2026-01-16 12:20:39.06	57.82	14.46	-34.6	-35.5	23.3	0.00e+00	0	28	0	760217600	42	5917
2026-01-16 12:20:43.10	58.62	14.59	-34.6	-35.5	23.3	0.00e+00	0	28	0	772800512	42	5924
2026-01-16 12:20:47.14	59.42	14.73	-34.4	-35.4	23.5	0.00e+00	0	28	0	785383424	42	5803
2026-01-16 12:20:51.18	60.23	14.85	-34.3	-35.2	23.8	0.00e+00	0	28	0	797966336	42	5716
2026-01-16 12:20:55.22	61.04	14.97	-34.3	-35.3	23.6	0.00e+00	0	28	0	810549248	42	5748
2026-01-16 12:20:59.27	61.87	15.09	-34.3	-35.2	23.5	0.00e+00	0	28	0	823132160	42	5719
2026-01-16 12:21:03.31	62.70	15.21	-34.2	-35.1	23.9	0.00e+00	0	28	0	835715072	42	5605
2026-01-16 12:21:07.35	63.53	15.31	-34.3	-35.3	23.8	0.00e+00	0	28	0	848297984	42	5732
2026-01-16 12:21:11.39	64.37	15.42	-34.2	-35.1	23.8	0.00e+00	0	28	0	860880896	42	5629
2026-01-16 12:21:15.44	65.22	15.51	-34.1	-35.0	23.8	0.00e+00	0	28	0	874512384	42	5592
2026-01-16 12:21:19.48	66.07	15.60	-34.1	-35.1	23.7	0.00e+00	0	28	0	887095296	42	5604
2026-01-16 12:21:23.52	66.93	15.69	-33.9	-34.9	23.8	0.00e+00	0	28	0	899678208	42	5469
2026-01-16 12:21:27.56	67.79	15.77	-34.3	-35.3	23.7	0.00e+00	0	28	0	912261120	42	5756
2026-01-16 12:21:31.60	68.65	15.85	-33.7	-34.7	24.0	0.00e+00	0	28	0	924844032	40	6000
2026-01-16 12:21:35.64	69.52	15.91	-34.1	-35.1	23.6	0.00e+00	0	28	0	937426944	40	6278
2026-01-16 12:21:39.68	70.39	15.98	-33.9	-34.9	23.9	0.00e+00	0	28	0	950009856	40	6138
2026-01-16 12:21:43.73	71.27	16.03	-34.0	-34.9	23.6	0.00e+00	0	28	0	962592768	40	6161
2026-01-16 12:21:47.77	72.15	16.08	-34.5	-35.4	23.5	0.00e+00	0	28	0	975175680	40	6542
2026-01-16 12:21:51.81	73.03	16.13	-33.9	-34.9	23.6	0.00e+00	0	28	0	987758592	40	6136
2026-01-16 12:21:55.85	73.92	16.16	-33.9	-34.9	23.7	0.00e+00	0	28	0	1000341504	40	6145
2026-01-16 12:21:59.89	74.81	16.19	-34.0	-34.9	23.7	0.00e+00	0	28	0	1012924416	40	6188
2026-01-16 12:22:03.93	75.69	16.22	-33.9	-34.9	23.7	0.00e+00	0	28	0	1025507328	40	6140
2026-01-16 12:22:07.97	76.58	16.24	-34.1	-35.1	23.7	0.00e+00	0	28	0	1038090240	40	6297
2026-01-16 12:22:12.01	77.48	16.25	-34.0	-35.0	23.6	0.00e+00	0	28	0	1050673152	40	6264
2026-01-16 12:22:16.05	78.37	16.25	-33.9	-34.9	23.7	0.00e+00	0	28	0	1063256064	40	6171
2026-01-16 12:22:20.10	79.26	16.25	-33.8	-34.7	23.9	0.00e+00	0	28	0	1075838976	40	6061
2026-01-16 12:22:24.14	80.15	16.24	-33.8	-34.7	24.0	0.00e+00	0	28	0	1088421888	40	6037
2026-01-16 12:22:28.18	81.04	16.23	-34.3	-35.2	23.7	0.00e+00	0	28	0	1101004800	40	6371
2026-01-16 12:22:32.22	81.93	16.21	-34.0	-35.0	23.6	0.00e+00	0	28	0	1113587712	40	6212
2026-01-16 12:22:36.26	82.82	16.18	-33.9	-34.9	23.7	0.00e+00	0	28	0	1126170624	40	6157
2026-01-16 12:22:40.31	83.71	16.15	-33.7	-34.7	23.8	0.00e+00	0	28	0	1138753536	40	6052
2026-01-16 12:22:44.35	84.59	16.10	-34.1	-35.2	23.4	0.00e+00	0	29	0	1151336448	40	6367
2026-01-16 12:22:48.39	85.48	16.06	-33.9	-34.9	23.7	0.00e+00	0	28	0	1164967936	40	6176
2026-01-16 12:22:52.43	86.35	16.00	-34.0	-34.9	23.6	0.00e+00	0	28	0	1177550848	40	6176
2026-01-16 12:22:56.48	87.23	15.95	-33.9	-34.8	23.7	0.00e+00	0	28	0	1190133760	40	6134
2026-01-16 12:23:00.52	88.11	15.88	-34.4	-35.4	23.1	0.00e+00	0	29	0	1202716672	40	6510
2026-01-16 12:23:04.57	88.98	15.81	-34.8	-35.8	23.1	0.00e+00	0	29	0	1215299584	42	6114
2026-01-16 12:23:08.61	89.84	15.73	-33.9	-34.8	23.7	0.00e+00	0	29	0	1227882496	42	5457
2026-01-16 12:23:12.65	90.70	15.65	-33.8	-34.7	23.8	0.00e+00	0	29	0	1240465408	40	6061
2026-01-16 12:23:16.69	91.56	15.56	-34.0	-34.9	23.7	0.00e+00	0	29	0	1253048320	40	6166
2026-01-16 12:23:20.74	92.41	15.46	-33.6	-34.6	24.0	0.00e+00	0	29	0	1265631232	40	5932
2026-01-16 12:23:24.78	93.25	15.36	-33.7	-34.6	24.0	0.00e+00	0	29	0	1278214144	40	5941
2026-01-16 12:23:28.82	94.09	15.26	-33.6	-34.5	23.8	0.00e+00	0	29	0	1290797056	40	5900
2026-01-16 12:23:32.86	94.93	15.15	-33.6	-34.5	23.9	0.00e+00	0	29	0	1303379968	40	5900
2026-01-16 12:23:36.90	95.76	15.03	-33.8	-34.7	23.8	0.00e+00	0	29	0	1315962880	40	6044
2026-01-16 12:23:40.94	96.58	14.91	-33.8	-34.8	23.9	0.00e+00	0	29	0	1328545792	40	6084
2026-01-16 12:23:44.98	97.39	14.78	-33.7	-34.8	23.8	0.00e+00	0	29	0	1341128704	40	6077
2026-01-16 12:23:49.02	98.20	14.65	-33.6	-34.6	23.9	0.00e+00	0	29	0	1353711616	40	5949
2026-01-16 12:23:53.06	99.00	14.52	-33.9	-34.8	23.6	0.00e+00	0	29	0	1366294528	40	6102
2026-01-16 12:23:57.10	99.80	14.38	-33.6	-34.5	23.9	0.00e+00	0	29	0	1378877440	40	5920
2026-01-16 12:24:01.15	100.58	14.24	-33.6	-34.5	23.8	0.00e+00	0	29	0	1391460352	40	5897
2026-01-16 12:24:05.19	101.36	14.09	-33.9	-34.9	23.5	0.00e+00	0	29	0	1404043264	40	6139
2026-01-16 12:24:09.23	102.14	13.94	-33.9	-34.8	23.6	0.00e+00	0	29	0	1416626176	40	6123
2026-01-16 12:24:13.27	102.90	13.78	-34.0	-35.0	23.6	0.00e+00	0	29	0	1430257664	40	6259
2026-01-16 12:24:17.31	103.66	13.62	-34.2	-35.2	23.5	0.00e+00	0	29	0	1441792000	40	6409
2026-01-16 12:24:21.35	104.40	13.46	-34.4	-35.4	23.3	0.00e+00	0	29	0	1455423488	40	6547
2026-01-16 12:24:25.39	105.15	13.29	-34.5	-35.5	23.0	0.00e+00	0	29	0	1468006400	40	6643
2026-01-16 12:24:29.43	105.88	13.13	-34.1	-35.1	23.4	0.00e+00	0	29	0	1480589312	40	6317
2026-01-16 12:24:33.48	106.60	12.95	-34.2	-35.2	23.3	0.00e+00	0	29	0	1493172224	40	6397
2026-01-16 12:24:37.52	107.32	12.78	-34.7	-35.7	22.9	0.00e+00	0	29	0	1505755136	42	6037
2026-01-16 12:24:41.55	108.03	12.60	-34.4	-35.4	23.1	0.00e+00	0	29	0	1518338048	42	5845
2026-01-16 12:24:45.59	108.73	12.42	-34.4	-35.4	23.1	0.00e+00	0	29	0	1530920960	42	5829
2026-01-16 12:24:49.63	109.42	12.24	-34.5	-35.5	23.0	0.00e+00	0	29	0	1543503872	42	5879
2026-01-16 12:24:53.67	110.10	12.06	-34.9	-36.0	22.8	0.00e+00	0	29	0	1556086784	42	6209
2026-01-16 12:24:57.72	110.78	11.87	-34.5	-35.7	22.9	0.00e+00	0	29	0	1568669696	42	6033
2026-01-16 12:25:01.76	111.45	11.68	-34.6	-35.6	22.8	0.00e+00	0	29	0	1581252608	42	5987
2026-01-16 12:25:05.80	112.10	11.49	-34.6	-35.6	22.9	0.00e+00	0	29	0	1593835520	42	5943
2026-01-16 12:25:09.84	112.75	11.29	-34.8	-35.8	22.8	0.00e+00	0	30	0	1606418432	42	6130
2026-01-16 12:25:13.88	113.40	11.10	-35.0	-35.9	22.6	0.00e+00	0	29	0	1619001344	42	6205
2026-01-16 12:25:17.92	114.03	10.90	-34.7	-35.7	22.8	0.00e+00	0	29	0	1631584256	42	6026
2026-01-16 12:25:21.97	114.66	10.71	-34.9	-36.0	22.6	0.00e+00	0	29	0	1644167168	42	6206
2026-01-16 12:25:26.01	115.27	10.51	-34.9	-35.9	22.6	0.00e+00	0	29	0	1656750080	42	6169
2026-01-16 12:25:30.05	115.88	10.31	-34.8	-35.8	22.8	0.00e+00	0	29	0	1669332992	42	6100
2026-01-16 12:25:34.09	116.49	10.11	-35.1	-36.1	22.5	0.00e+00	0	29	0	1681915904	42	6348
2026-01-16 12:25:38.13	117.08	9.90	-35.0	-36.0	22.6	0.00e+00	0	30	0	1694498816	42	6227
2026-01-16 12:25:42.17	117.66	9.70	-34.9	-36.0	22.6	0.00e+00	0	30	0	1708130304	42	6239
2026-01-16 12:25:46.21	118.24	9.50	-35.0	-36.0	22.6	0.00e+00	0	30	0	1720713216	42	6249
2026-01-16 12:25:50.26	118.81	9.29	-35.3	-36.3	22.3	0.00e+00	0	30	0	1732247552	42	6454
2026-01-16 12:25:54.30	119.38	9.08	-35.3	-36.4	22.3	0.00e+00	0	30	0	1745879040	42	6503
2026-01-16 12:25:58.34	119.93	8.88	-35.4	-36.4	22.2	0.00e+00	0	30	0	1758461952	42	6523
2026-01-16 12:26:02.38	120.48	8.67	-35.4	-36.5	22.1	0.00e+00	0	30	0	1771044864	44	5864
2026-01-16 12:26:06.42	121.02	8.46	-35.8	-36.9	21.7	0.00e+00	0	30	0	1783627776	44	6150
2026-01-16 12:26:10.45	121.55	8.25	-36.1	-37.2	21.4	0.00e+00	0	30	0	1796210688	44	6359
2026-01-16 12:26:14.49	122.07	8.05	-36.0	-37.1	21.4	0.00e+00	0	30	0	1808793600	44	6299
2026-01-16 12:26:18.53	122.59	7.84	-35.9	-37.0	21.6	0.00e+00	0	30	0	1821376512	44	6252
2026-01-16 12:26:22.57	123.10	7.63	-35.8	-36.9	21.6	0.00e+00	0	30	0	1833959424	44	6177
2026-01-16 12:26:26.61	123.61	7.42	-36.0	-37.1	21.4	0.00e+00	0	30	0	1846542336	44	6343
2026-01-16 12:26:30.65	124.10	7.21	-35.8	-36.9	21.6	0.00e+00	0	30	0	1859125248	44	6161
2026-01-16 12:26:34.70	124.60	7.00	-36.1	-37.2	21.3	0.00e+00	0	30	0	1871708160	44	6359
2026-01-16 12:26:38.74	125.08	6.79	-36.1	-37.2	21.3	0.00e+00	0	30	0	1884291072	44	6416
2026-01-16 12:26:42.78	125.56	6.58	-36.2	-37.3	21.1	0.00e+00	0	30	0	1896873984	44	6485
2026-01-16 12:26:46.82	126.03	6.37	-36.0	-37.2	21.2	0.00e+00	0	30	0	1909456896	44	6360
2026-01-16 12:26:50.86	126.49	6.16	-36.1	-37.3	21.0	0.00e+00	0	30	0	1922039808	44	6459
2026-01-16 12:26:54.90	126.95	5.95	-36.4	-37.5	20.7	0.00e+00	0	30	0	1934622720	44	6648
2026-01-16 12:26:58.94	127.40	5.75	-36.0	-37.1	21.2	0.00e+00	0	30	0	1947205632	44	6324
2026-01-16 12:27:02.98	127.85	5.54	-36.3	-37.4	21.0	0.00e+00	0	30	0	1959788544	44	6557
2026-01-16 12:27:07.02	128.28	5.33	-36.4	-37.6	20.8	0.00e+00	0	30	0	1972371456	44	6656
2026-01-16 12:27:11.06	128.72	5.12	-36.6	-37.8	20.5	0.00e+00	0	30	0	1984954368	46	6075
2026-01-16 12:27:15.10	129.15	4.91	-37.0	-38.3	20.1	0.00e+00	0	30	0	1997537280	46	6442
2026-01-16 12:27:19.14	129.57	4.71	-37.3	-38.5	19.9	0.00e+00	0	30	0	2010120192	46	6606
2026-01-16 12:27:23.18	129.98	4.50	-36.8	-37.9	20.4	0.00e+00	0	30	0	2022703104	46	6204
2026-01-16 12:27:27.21	130.39	4.29	-36.9	-38.1	20.1	0.00e+00	0	30	0	2035286016	46	6282
2026-01-16 12:27:31.25	130.80	4.09	-36.9	-38.1	20.2	0.00e+00	0	30	0	2047868928	46	6330
2026-01-16 12:27:35.30	131.20	3.88	-37.3	-38.6	19.7	0.00e+00	0	30	0	2061500416	46	6675
2026-01-16 12:27:39.33	131.59	3.68	-37.4	-38.8	19.5	0.00e+00	0	30	0	2074083328	46	6807
2026-01-16 12:27:43.38	131.98	3.47	-37.0	-38.2	19.9	0.00e+00	0	30	0	2086666240	46	6421
2026-01-16 12:27:47.42	132.36	3.27	-38.0	-39.5	18.8	0.00e+00	0	30	0	2099249152	48	6575
2026-01-16 12:27:51.46	132.74	3.06	-38.1	-39.5	18.6	0.00e+00	0	30	0	2111832064	50	5898
2026-01-16 12:27:55.50	133.12	2.86	-47.1	-60.4	3.5	1.52e+00	0	30	104	2114977792	60	36645
2026-01-16 12:27:59.53	133.48	2.66	-47.9	-60.8	3.5	1.52e+00	0	30	104	2114977792	60	38315
2026-01-16 12:28:03.57	133.85	2.45	-47.8	-60.8	3.5	1.52e+00	0	30	104	2114977792	60	38328
2026-01-16 12:28:07.61	134.21	2.25	-48.0	-60.9	3.5	1.52e+00	0	30	104	2114977792	60	38877
2026-01-16 12:28:11.65	134.56	2.05	-48.0	-60.9	3.5	1.52e+00	0	30	104	2114977792	60	38908
2026-01-16 12:28:15.69	134.91	1.85	-48.1	-61.0	3.5	1.52e+00	0	30	104	2114977792	60	39242
2026-01-16 12:28:19.73	135.26	1.65	-48.2	-61.0	3.5	1.51e+00	0	30	104	2114977792	60	39504
2026-01-16 12:28:23.76	135.60	1.45	-48.3	-61.1	3.5	1.52e+00	0	30	104	2114977792	60	39933
2026-01-16 12:28:27.80	135.94	1.25	-47.9	-60.8	3.5	1.52e+00	0	30	104	2114977792	60	38268
2026-01-16 12:28:31.84	136.27	1.05	-48.1	-61.0	3.5	1.52e+00	0	30	104	2114977792	60	39156
2026-01-16 12:28:35.88	136.60	0.86	-48.2	-61.0	3.5	1.52e+00	0	30	104	2114977792	60	39512
2026-01-16 12:28:39.92	136.92	0.66	-48.3	-61.1	3.5	1.52e+00	0	30	104	2114977792	60	39939
2026-01-16 12:28:43.96	137.24	0.46	-48.4	-61.3	3.5	1.52e+00	0	31	104	2114977792	60	40747
2026-01-16 12:28:48.00	137.56	0.27	-48.0	-60.9	3.5	1.52e+00	0	31	104	2114977792	60	38960
2026-01-16 12:28:52.04	137.87	0.07	-48.0	-60.9	3.5	1.52e+00	0	31	104	2114977792	60	38926

#Closed at: 2026-01-16 12:28:55
#Recorded file [2114 MB]: D:/lorett/data/35029_260117_001540.dat