passes_logs/2026/01/16/R4.6S_Anadyr/R4.6S_Anadyr__20260116_124518_SUOMI_NPP_rec.log

#Pass ID: 20260116_124518_SUOMI NPP
#Satellite: SUOMI NPP
#Configuration: NPP
#almurnet v.1.7.20251203
#Start time: 2026-01-16 12:45:19

#Version: 2.2.20231116
#Station: R4.6S_Anadyr
#Location: 177.4865 lon 64.73178 lat
#TLE: 1 37849U 11061A   26015.94982489  .00000054  00000+0  46705-4 0  9991
#TLE: 2 37849  98.7812 317.9902 0002438  62.0366 298.1057 14.19525452736847

#Time	Az	El	Level	Level2	SNR	BER	BlckErr	Temp	State	Recorded	gain1	gain2
2026-01-16 12:45:19.62	18.94	0.08	-48.3	-60.8	3.4	1.51e+00	0	25	0	0	60	38693
2026-01-16 12:45:23.66	19.20	0.29	-48.1	-63.3	3.6	1.51e+00	0	26	104	0	60	52907
2026-01-16 12:45:27.70	19.47	0.50	-48.0	-63.2	3.6	1.51e+00	0	26	104	0	60	52231
2026-01-16 12:45:31.74	19.74	0.71	-47.5	-62.7	3.6	1.51e+00	0	27	104	0	60	49175
2026-01-16 12:45:35.78	20.02	0.92	-46.4	-61.4	3.6	1.51e+00	0	26	104	0	60	42399
2026-01-16 12:45:39.81	20.30	1.13	-46.3	-61.3	3.6	1.51e+00	0	27	104	0	60	42160
2026-01-16 12:45:43.85	20.58	1.35	-46.3	-61.4	3.6	1.51e+00	0	27	104	0	60	42625
2026-01-16 12:45:47.89	20.87	1.56	-46.3	-61.4	3.6	1.51e+00	0	27	104	0	60	42652
2026-01-16 12:45:51.93	21.16	1.78	-46.3	-61.3	3.6	1.51e+00	0	27	104	0	60	42214
2026-01-16 12:45:55.97	21.45	1.99	-46.3	-61.4	3.6	1.51e+00	0	27	104	0	60	42328
2026-01-16 12:46:00.01	21.75	2.21	-46.3	-61.2	3.6	1.51e+00	0	27	104	0	60	41657
2026-01-16 12:46:04.04	22.05	2.43	-46.2	-59.4	3.7	1.49e+00	0	27	104	0	60	33761
2026-01-16 12:46:08.08	22.36	2.65	-44.4	-48.9	11.4	1.36e-02	0	27	0	3145728	60	10080
2026-01-16 12:46:12.12	22.67	2.87	-40.5	-42.3	17.9	0.00e+00	78	27	0	10485760	54	6637
2026-01-16 12:46:16.16	22.98	3.09	-42.2	-44.7	15.4	0.00e+00	33	27	0	18874368	56	7836
2026-01-16 12:46:20.19	23.30	3.31	-46.2	-61.0	3.6	1.51e+00	0	27	104	25165824	60	40599
2026-01-16 12:46:24.23	23.63	3.54	-40.0	-41.6	18.7	0.00e+00	0	27	0	29360128	54	6160
2026-01-16 12:46:28.27	23.96	3.76	-39.7	-41.1	19.3	0.00e+00	81	28	0	36700160	52	6532
2026-01-16 12:46:32.31	24.29	3.99	-40.0	-41.5	18.9	0.00e+00	0	27	0	45088768	52	6835
2026-01-16 12:46:36.35	24.63	4.22	-39.9	-41.5	18.9	0.00e+00	33	27	0	52428800	52	6788
2026-01-16 12:46:40.38	24.97	4.45	-40.0	-41.6	19.0	0.00e+00	42	27	0	59768832	52	6876
2026-01-16 12:46:44.42	25.32	4.68	-39.3	-40.7	19.7	0.00e+00	65	27	0	67108864	52	6235
2026-01-16 12:46:48.46	25.67	4.91	-39.2	-40.5	20.1	0.00e+00	0	28	0	74448896	52	6074
2026-01-16 12:46:52.50	26.03	5.14	-39.7	-41.2	19.5	0.00e+00	0	28	0	82837504	52	6561
2026-01-16 12:46:56.54	26.40	5.37	-39.8	-41.2	19.4	0.00e+00	43	28	0	90177536	52	6608
2026-01-16 12:47:00.58	26.77	5.61	-39.9	-41.4	19.4	0.00e+00	0	28	0	97517568	52	6717
2026-01-16 12:47:04.62	27.15	5.84	-40.2	-41.7	19.1	0.00e+00	0	28	0	104857600	52	6997
2026-01-16 12:47:08.66	27.53	6.08	-40.5	-42.1	18.7	0.00e+00	0	28	0	113246208	52	7337
2026-01-16 12:47:12.70	27.92	6.32	-40.3	-41.9	18.8	0.00e+00	90	28	0	120586240	52	7152
2026-01-16 12:47:16.74	28.31	6.56	-39.7	-41.1	19.6	0.00e+00	0	28	0	127926272	52	6502
2026-01-16 12:47:20.78	28.71	6.80	-39.4	-40.8	20.0	0.00e+00	0	28	0	135266304	52	6248
2026-01-16 12:47:24.82	29.12	7.04	-39.3	-40.6	20.3	0.00e+00	0	28	0	142606336	52	6116
2026-01-16 12:47:28.86	29.53	7.28	-39.2	-40.4	20.4	0.00e+00	92	28	0	150994944	52	6031
2026-01-16 12:47:32.90	29.95	7.52	-39.0	-40.3	20.5	0.00e+00	0	28	0	158334976	52	5898
2026-01-16 12:47:36.94	30.37	7.77	-38.6	-39.8	21.0	0.00e+00	0	28	0	165675008	50	6267
2026-01-16 12:47:40.98	30.81	8.01	-38.6	-39.8	21.1	0.00e+00	49	28	0	173015040	50	6284
2026-01-16 12:47:45.02	31.25	8.26	-38.6	-39.8	21.1	0.00e+00	0	28	0	181403648	50	6255
2026-01-16 12:47:49.06	31.70	8.51	-38.7	-39.9	20.8	0.00e+00	0	28	0	188743680	50	6370
2026-01-16 12:47:53.10	32.15	8.76	-38.8	-40.0	20.7	0.00e+00	0	28	0	196083712	50	6419
2026-01-16 12:47:57.13	32.61	9.01	-38.6	-39.7	21.1	0.00e+00	45	28	0	203423744	50	6231
2026-01-16 12:48:01.17	33.08	9.26	-38.3	-39.5	21.4	0.00e+00	0	28	0	210763776	50	6040
2026-01-16 12:48:05.21	33.56	9.51	-38.0	-39.1	21.7	0.00e+00	0	28	0	219152384	50	5802
2026-01-16 12:48:09.25	34.04	9.76	-37.6	-38.6	22.1	0.00e+00	0	28	0	226492416	48	6151
2026-01-16 12:48:13.29	34.54	10.01	-37.8	-38.8	21.9	0.00e+00	76	28	0	233832448	48	6295
2026-01-16 12:48:17.33	35.04	10.27	-37.9	-38.9	22.0	0.00e+00	0	28	0	241172480	48	6374
2026-01-16 12:48:21.37	35.55	10.52	-37.9	-38.9	22.0	0.00e+00	0	28	0	249561088	48	6388
2026-01-16 12:48:25.41	36.07	10.78	-37.6	-38.6	22.1	0.00e+00	44	28	0	256901120	48	6167
2026-01-16 12:48:29.45	36.60	11.03	-37.7	-38.7	22.1	0.00e+00	18	29	0	264241152	48	6244
2026-01-16 12:48:33.48	37.13	11.29	-37.9	-39.0	22.0	0.00e+00	0	28	0	271581184	48	6409
2026-01-16 12:48:37.53	37.68	11.55	-37.9	-38.9	22.0	0.00e+00	0	29	0	278921216	48	6373
2026-01-16 12:48:41.57	38.24	11.80	-38.1	-39.2	21.9	0.00e+00	48	28	0	287309824	48	6582
2026-01-16 12:48:45.61	38.80	12.06	-37.8	-38.9	21.9	0.00e+00	0	29	0	294649856	48	6332
2026-01-16 12:48:49.65	39.37	12.32	-38.0	-39.1	21.7	0.00e+00	0	29	0	301989888	48	6486
2026-01-16 12:48:53.69	39.96	12.58	-37.5	-38.5	22.4	0.00e+00	0	29	0	309329920	48	6061
2026-01-16 12:48:57.73	40.55	12.83	-37.1	-38.0	22.7	0.00e+00	92	29	0	317718528	48	5754
2026-01-16 12:49:01.76	41.16	13.09	-37.2	-38.2	22.6	0.00e+00	0	29	0	325058560	48	5866
2026-01-16 12:49:05.80	41.77	13.35	-37.2	-38.1	22.8	0.00e+00	0	29	0	332398592	48	5823
2026-01-16 12:49:09.85	42.40	13.61	-37.2	-38.2	22.7	0.00e+00	0	29	0	339738624	48	5838
2026-01-16 12:49:13.89	43.03	13.86	-37.4	-38.4	22.4	0.00e+00	92	29	0	347078656	48	5985
2026-01-16 12:49:17.93	43.68	14.12	-37.5	-38.6	22.4	0.00e+00	0	29	0	355467264	48	6104
2026-01-16 12:49:21.97	44.34	14.38	-37.8	-38.8	22.2	0.00e+00	0	29	0	362807296	48	6297
2026-01-16 12:49:26.01	45.00	14.63	-37.3	-38.3	22.7	0.00e+00	30	29	0	370147328	48	5905
2026-01-16 12:49:30.05	45.68	14.89	-37.0	-38.0	22.8	0.00e+00	0	29	0	377487360	48	5720
2026-01-16 12:49:34.09	46.37	15.14	-37.4	-38.4	22.6	0.00e+00	0	29	0	385875968	48	6030
2026-01-16 12:49:38.13	47.08	15.39	-36.8	-37.8	23.1	0.00e+00	0	29	0	393216000	48	5587
2026-01-16 12:49:42.16	47.79	15.64	-36.9	-37.8	23.1	0.00e+00	91	29	0	400556032	46	6314
2026-01-16 12:49:46.20	48.51	15.89	-36.8	-37.7	23.2	0.00e+00	0	29	0	407896064	46	6228
2026-01-16 12:49:50.25	49.25	16.14	-36.9	-37.9	23.0	0.00e+00	0	29	0	415236096	46	6332
2026-01-16 12:49:54.28	50.00	16.38	-37.0	-38.0	23.0	0.00e+00	0	29	0	423624704	46	6391
2026-01-16 12:49:58.32	50.76	16.62	-37.0	-37.9	23.2	0.00e+00	92	29	0	430964736	46	6353
2026-01-16 12:50:02.36	51.54	16.86	-37.3	-38.2	22.9	0.00e+00	0	29	0	438304768	46	6598
2026-01-16 12:50:06.40	52.32	17.10	-37.5	-38.5	22.7	0.00e+00	0	29	0	445644800	48	6086
2026-01-16 12:50:10.45	53.12	17.34	-37.6	-38.6	22.8	0.00e+00	46	29	0	454033408	48	6153
2026-01-16 12:50:14.49	53.93	17.57	-38.2	-39.3	22.1	0.00e+00	0	29	0	461373440	48	6623
2026-01-16 12:50:18.53	54.75	17.80	-38.4	-39.4	22.0	0.00e+00	0	29	0	468713472	50	6019
2026-01-16 12:50:22.57	55.59	18.02	-38.6	-39.7	21.6	0.00e+00	0	29	0	476053504	50	6217
2026-01-16 12:50:26.61	56.43	18.24	-38.8	-40.0	21.6	0.00e+00	62	29	0	483393536	50	6419
2026-01-16 12:50:30.65	57.29	18.46	-39.3	-40.5	21.1	0.00e+00	0	29	0	491782144	52	6047
2026-01-16 12:50:34.69	58.16	18.67	-39.5	-40.8	20.7	0.00e+00	0	29	0	499122176	52	6264
2026-01-16 12:50:38.73	59.04	18.88	-39.5	-40.7	20.9	0.00e+00	0	29	0	506462208	52	6195
2026-01-16 12:50:42.77	59.93	19.08	-38.7	-39.8	21.6	0.00e+00	92	29	0	513802240	50	6314
2026-01-16 12:50:46.80	60.84	19.28	-38.9	-40.0	21.5	0.00e+00	0	29	0	522190848	50	6456
2026-01-16 12:50:50.85	61.75	19.47	-37.8	-38.9	22.0	0.00e+00	0	29	0	529530880	50	5643
2026-01-16 12:50:54.88	62.68	19.65	-38.0	-39.2	22.2	0.00e+00	12	29	0	536870912	48	6552
2026-01-16 12:50:58.92	63.62	19.84	-37.7	-38.7	22.5	0.00e+00	0	29	0	544210944	48	6179
2026-01-16 12:51:02.96	64.57	20.01	-37.9	-38.9	22.5	0.00e+00	0	29	0	551550976	48	6348
2026-01-16 12:51:07.00	65.53	20.18	-36.9	-37.9	23.1	0.00e+00	0	29	0	559939584	46	6325
2026-01-16 12:51:11.04	66.50	20.34	-37.0	-38.0	23.2	0.00e+00	29	29	0	567279616	46	6393
2026-01-16 12:51:15.08	67.48	20.49	-37.3	-38.2	23.3	0.00e+00	0	29	0	574619648	46	6580
2026-01-16 12:51:19.12	68.47	20.63	-37.8	-38.8	22.7	0.00e+00	0	30	0	581959680	48	6305
2026-01-16 12:51:23.16	69.46	20.77	-37.4	-38.3	23.1	0.00e+00	0	29	0	590348288	48	5959
2026-01-16 12:51:27.20	70.47	20.90	-36.9	-37.8	23.5	0.00e+00	53	30	0	597688320	48	5606
2026-01-16 12:51:31.23	71.48	21.02	-37.4	-38.4	22.8	0.00e+00	0	30	0	605028352	46	6737
2026-01-16 12:51:35.28	72.51	21.14	-36.9	-37.8	23.3	0.00e+00	0	30	0	612368384	48	5588
2026-01-16 12:51:39.32	73.54	21.24	-38.4	-39.4	22.3	0.00e+00	53	30	0	619708416	48	6725
2026-01-16 12:51:43.36	74.57	21.34	-37.2	-38.1	23.2	0.00e+00	92	30	0	628097024	48	5809
2026-01-16 12:51:47.40	75.61	21.42	-37.8	-38.8	22.5	0.00e+00	0	30	0	635437056	48	6293
2026-01-16 12:51:51.44	76.66	21.50	-36.8	-37.7	23.2	0.00e+00	0	30	0	642777088	48	5562
2026-01-16 12:51:55.48	77.71	21.57	-37.3	-38.3	22.7	0.00e+00	45	30	0	650117120	48	5929
2026-01-16 12:51:59.52	78.77	21.63	-37.5	-38.5	22.6	0.00e+00	0	30	0	658505728	48	6097
2026-01-16 12:52:03.56	79.83	21.67	-37.5	-38.5	22.6	0.00e+00	0	30	0	665845760	48	6088
2026-01-16 12:52:07.60	80.89	21.71	-37.8	-38.8	22.3	0.00e+00	0	30	0	673185792	48	6312
2026-01-16 12:52:11.63	81.96	21.74	-38.2	-39.3	21.9	0.00e+00	81	30	0	680525824	48	6622
2026-01-16 12:52:15.67	83.03	21.76	-37.4	-38.4	22.7	0.00e+00	0	30	0	687865856	48	5972
2026-01-16 12:52:19.70	84.09	21.77	-37.2	-38.2	22.8	0.00e+00	0	30	0	696254464	48	5840
2026-01-16 12:52:23.75	85.16	21.77	-37.6	-38.6	22.5	0.00e+00	0	30	0	703594496	48	6120
2026-01-16 12:52:27.79	86.23	21.76	-37.4	-38.3	22.7	0.00e+00	90	30	0	710934528	48	5956
2026-01-16 12:52:31.83	87.30	21.74	-36.7	-37.6	23.3	0.00e+00	0	30	0	718274560	46	6128
2026-01-16 12:52:35.86	88.36	21.71	-36.8	-37.7	23.1	0.00e+00	0	30	0	726663168	46	6199
2026-01-16 12:52:39.91	89.43	21.67	-36.8	-37.7	23.1	0.00e+00	13	30	0	734003200	46	6235
2026-01-16 12:52:43.95	90.49	21.61	-36.8	-37.8	23.1	0.00e+00	0	30	0	741343232	46	6272
2026-01-16 12:52:47.98	91.54	21.55	-37.0	-38.0	22.9	0.00e+00	0	30	0	748683264	46	6425
2026-01-16 12:52:52.02	92.60	21.49	-37.2	-38.1	22.7	0.00e+00	0	30	0	756023296	46	6534
2026-01-16 12:52:56.06	93.64	21.41	-37.2	-38.2	22.8	0.00e+00	92	30	0	764411904	46	6603
2026-01-16 12:53:00.10	94.69	21.32	-36.7	-37.6	23.2	0.00e+00	0	30	0	771751936	46	6153
2026-01-16 12:53:04.15	95.72	21.22	-36.8	-37.9	23.0	0.00e+00	0	30	0	779091968	46	6329
2026-01-16 12:53:08.19	96.75	21.11	-36.4	-37.3	23.3	0.00e+00	0	30	0	786432000	46	5962
2026-01-16 12:53:12.23	97.78	21.00	-36.6	-37.6	23.3	0.00e+00	92	30	0	794820608	46	6112
2026-01-16 12:53:16.27	98.79	20.87	-36.1	-37.1	23.7	0.00e+00	0	30	0	802160640	46	5769
2026-01-16 12:53:20.31	99.80	20.74	-37.0	-38.0	22.7	0.00e+00	0	30	0	809500672	46	6405
2026-01-16 12:53:24.35	100.80	20.60	-36.2	-37.2	23.6	0.00e+00	38	30	0	816840704	46	5839
2026-01-16 12:53:28.38	101.78	20.46	-36.1	-37.0	23.6	0.00e+00	16	30	0	824180736	46	5713
2026-01-16 12:53:32.42	102.76	20.30	-36.1	-37.0	23.6	0.00e+00	0	30	0	832569344	46	5737
2026-01-16 12:53:36.46	103.73	20.14	-36.0	-36.9	23.8	0.00e+00	0	30	0	839909376	46	5638
2026-01-16 12:53:40.50	104.69	19.97	-36.3	-37.3	23.4	0.00e+00	92	30	0	847249408	46	5913
2026-01-16 12:53:44.54	105.64	19.79	-36.7	-37.7	23.2	0.00e+00	0	30	0	854589440	46	6194
2026-01-16 12:53:48.57	106.58	19.61	-36.0	-36.9	23.8	0.00e+00	0	30	0	862978048	46	5641
2026-01-16 12:53:52.61	107.51	19.42	-36.2	-37.1	23.4	0.00e+00	0	30	0	870318080	46	5828
2026-01-16 12:53:56.65	108.42	19.23	-37.5	-38.6	22.3	0.00e+00	91	30	0	877658112	46	6879
2026-01-16 12:54:00.69	109.33	19.03	-37.9	-39.0	22.0	0.00e+00	0	30	0	884998144	48	6419
2026-01-16 12:54:04.73	110.22	18.82	-37.4	-38.5	22.4	0.00e+00	0	30	0	892338176	48	6086
2026-01-16 12:54:08.77	111.11	18.61	-37.2	-38.3	22.4	0.00e+00	17	30	0	900726784	48	5943
2026-01-16 12:54:12.80	111.97	18.40	-37.2	-38.3	22.6	0.00e+00	90	30	0	908066816	48	5905
2026-01-16 12:54:16.84	112.83	18.18	-37.2	-38.2	22.7	0.00e+00	0	30	0	915406848	48	5895
2026-01-16 12:54:20.88	113.68	17.96	-38.7	-39.9	21.3	0.00e+00	0	30	0	922746880	48	7140
2026-01-16 12:54:24.92	114.51	17.73	-38.4	-39.5	21.7	0.00e+00	32	30	0	931135488	50	6103
2026-01-16 12:54:28.96	115.33	17.50	-37.5	-38.5	22.3	0.00e+00	0	30	0	938475520	48	6064
2026-01-16 12:54:33.01	116.15	17.27	-38.1	-39.2	21.8	0.00e+00	0	30	0	945815552	48	6596
2026-01-16 12:54:37.05	116.94	17.03	-37.3	-38.3	22.5	0.00e+00	0	30	0	953155584	48	5954
2026-01-16 12:54:41.08	117.73	16.79	-37.4	-38.4	22.5	0.00e+00	21	30	0	960495616	48	6025
2026-01-16 12:54:45.12	118.50	16.55	-37.2	-38.3	22.6	0.00e+00	0	30	0	968884224	48	5898
2026-01-16 12:54:49.16	119.26	16.30	-37.9	-39.0	22.0	0.00e+00	0	30	0	976224256	48	6456
2026-01-16 12:54:53.20	120.01	16.06	-37.5	-38.6	22.2	0.00e+00	25	30	0	983564288	48	6116
2026-01-16 12:54:57.24	120.75	15.81	-36.8	-37.8	22.8	0.00e+00	90	30	0	990904320	46	6277
2026-01-16 12:55:01.28	121.47	15.56	-37.6	-38.8	22.2	0.00e+00	0	30	0	999292928	46	7023
2026-01-16 12:55:05.32	122.19	15.30	-37.5	-38.5	22.4	0.00e+00	0	30	0	1006632960	46	6847
2026-01-16 12:55:09.36	122.89	15.05	-38.0	-39.1	21.9	0.00e+00	48	30	0	1013972992	48	6531
2026-01-16 12:55:13.40	123.58	14.80	-37.4	-38.5	22.4	0.00e+00	0	30	0	1021313024	48	6038
2026-01-16 12:55:17.44	124.26	14.54	-36.5	-37.5	23.1	0.00e+00	0	30	0	1029701632	46	6041
2026-01-16 12:55:21.48	124.93	14.28	-37.0	-38.0	22.8	0.00e+00	0	30	0	1037041664	46	6463
2026-01-16 12:55:25.52	125.58	14.02	-36.3	-37.2	23.4	0.00e+00	92	30	0	1044381696	46	5892
2026-01-16 12:55:29.56	126.23	13.77	-36.3	-37.2	22.9	0.00e+00	0	30	0	1051721728	46	5894
2026-01-16 12:55:33.60	126.86	13.51	-37.3	-38.3	22.5	0.00e+00	0	30	0	1059061760	46	6691
2026-01-16 12:55:37.64	127.49	13.25	-37.5	-38.5	22.4	0.00e+00	0	30	0	1067450368	48	6100
2026-01-16 12:55:41.68	128.10	12.99	-38.3	-39.4	21.6	0.00e+00	92	30	0	1074790400	48	6740
2026-01-16 12:55:45.72	128.71	12.73	-38.0	-39.1	21.8	0.00e+00	0	30	0	1082130432	50	5828
2026-01-16 12:55:49.76	129.30	12.47	-37.1	-38.0	22.6	0.00e+00	0	30	0	1089470464	48	5752
2026-01-16 12:55:53.80	129.88	12.21	-37.1	-38.1	22.6	0.00e+00	46	30	0	1097859072	48	5815
2026-01-16 12:55:57.84	130.46	11.95	-37.9	-39.0	21.9	0.00e+00	0	30	0	1105199104	48	6392
2026-01-16 12:56:01.88	131.02	11.69	-38.0	-39.1	21.8	0.00e+00	0	30	0	1112539136	48	6480
2026-01-16 12:56:05.92	131.57	11.43	-38.7	-39.9	21.2	0.00e+00	0	30	0	1119879168	48	7092
2026-01-16 12:56:09.96	132.12	11.17	-38.3	-39.4	21.5	0.00e+00	92	30	0	1127219200	50	6015
2026-01-16 12:56:14.00	132.65	10.91	-37.2	-38.2	22.4	0.00e+00	0	30	0	1135607808	48	5839
2026-01-16 12:56:18.03	133.18	10.66	-37.1	-38.1	22.5	0.00e+00	0	30	0	1142947840	48	5762
2026-01-16 12:56:22.07	133.70	10.40	-37.8	-38.8	21.7	0.00e+00	0	30	0	1150287872	48	6304
2026-01-16 12:56:26.11	134.21	10.14	-37.8	-38.8	21.9	0.00e+00	92	31	0	1157627904	48	6311
2026-01-16 12:56:30.15	134.71	9.89	-38.1	-39.2	21.5	0.00e+00	0	30	0	1166016512	48	6560
2026-01-16 12:56:34.19	135.20	9.63	-38.8	-40.0	20.8	0.00e+00	0	30	0	1173356544	50	6431
2026-01-16 12:56:38.23	135.68	9.38	-38.7	-39.9	21.0	0.00e+00	0	31	0	1180696576	50	6351
2026-01-16 12:56:42.27	136.16	9.12	-38.1	-39.2	21.5	0.00e+00	91	31	0	1188036608	50	5886
2026-01-16 12:56:46.31	136.63	8.87	-38.2	-39.3	21.4	0.00e+00	0	31	0	1195376640	50	5953
2026-01-16 12:56:50.35	137.09	8.62	-38.2	-39.4	21.4	0.00e+00	0	31	0	1203765248	50	5984
2026-01-16 12:56:54.39	137.54	8.37	-38.2	-39.3	21.3	0.00e+00	46	31	0	1211105280	50	5956
2026-01-16 12:56:58.42	137.98	8.12	-38.4	-39.5	21.1	0.00e+00	0	31	0	1218445312	50	6075
2026-01-16 12:57:02.46	138.42	7.87	-38.5	-39.7	21.0	0.00e+00	0	30	0	1225785344	50	6191
2026-01-16 12:57:06.50	138.85	7.63	-39.1	-40.5	20.1	0.00e+00	0	31	0	1234173952	50	6785
2026-01-16 12:57:10.54	139.28	7.38	-39.7	-41.2	18.5	0.00e+00	69	31	0	1241513984	50	7388
2026-01-16 12:57:14.58	139.70	7.13	-40.8	-42.7	17.2	1.69e-04	0	31	0	1248854016	52	7818
2026-01-16 12:57:18.62	140.11	6.89	-41.9	-44.5	15.1	7.99e-04	0	31	0	1256194048	56	7637
2026-01-16 12:57:22.66	140.51	6.65	-42.7	-46.3	12.6	8.60e-04	0	31	0	1263534080	56	9443
2026-01-16 12:57:26.70	140.91	6.40	-43.5	-48.2	11.0	2.37e-03	88	31	0	1271922688	58	10411
2026-01-16 12:57:30.74	141.30	6.16	-44.1	-49.9	8.8	4.51e-02	0	31	0	1279262720	60	11243
2026-01-16 12:57:34.78	141.69	5.92	-43.8	-48.9	10.3	9.64e-03	0	31	0	1286602752	60	10055
2026-01-16 12:57:38.82	142.07	5.69	-43.3	-47.8	11.8	7.85e-04	17	31	0	1293942784	60	8829
2026-01-16 12:57:42.86	142.44	5.45	-42.3	-45.6	13.9	1.44e-05	0	31	0	1302331392	58	7731
2026-01-16 12:57:46.89	142.81	5.21	-41.7	-44.1	15.9	0.00e+00	0	31	0	1309671424	56	7289
2026-01-16 12:57:50.93	143.17	4.98	-41.2	-43.3	16.6	0.00e+00	0	31	0	1317011456	56	6688
2026-01-16 12:57:54.96	143.52	4.74	-41.4	-43.6	16.4	0.00e+00	92	31	0	1324351488	56	6880
2026-01-16 12:57:59.00	143.88	4.51	-41.7	-44.0	16.3	0.00e+00	0	31	0	1331691520	56	7195
2026-01-16 12:58:03.05	144.22	4.28	-41.7	-44.0	15.8	0.00e+00	0	31	0	1340080128	56	7240
2026-01-16 12:58:07.09	144.56	4.05	-41.7	-44.2	15.8	7.00e-07	0	31	0	1347420160	56	7363
2026-01-16 12:58:11.12	144.90	3.82	-41.3	-43.5	16.5	0.00e+00	90	31	0	1354760192	56	6843
2026-01-16 12:58:15.16	145.23	3.59	-41.7	-44.1	16.0	0.00e+00	0	31	0	1362100224	56	7298
2026-01-16 12:58:19.20	145.56	3.37	-42.0	-44.7	15.1	0.00e+00	0	31	0	1370488832	56	7788
2026-01-16 12:58:23.24	145.88	3.14	-42.0	-44.8	14.8	0.00e+00	17	31	0	1377828864	56	7953
2026-01-16 12:58:27.28	146.19	2.92	-47.2	-62.5	3.6	1.51e+00	0	31	104	1382023168	60	47945
2026-01-16 12:58:31.32	146.51	2.69	-47.9	-63.1	3.6	1.51e+00	0	31	104	1382023168	60	51810
2026-01-16 12:58:35.36	146.81	2.47	-48.0	-63.2	3.6	1.51e+00	0	31	104	1382023168	60	51950
2026-01-16 12:58:39.40	147.12	2.25	-48.0	-63.2	3.6	1.51e+00	0	31	104	1382023168	60	52205
2026-01-16 12:58:43.44	147.42	2.03	-48.1	-63.4	3.6	1.51e+00	0	31	104	1382023168	60	53458
2026-01-16 12:58:47.48	147.71	1.81	-48.1	-63.3	3.6	1.51e+00	0	31	104	1382023168	60	52899
2026-01-16 12:58:51.52	148.00	1.59	-48.1	-63.3	3.6	1.51e+00	0	31	104	1382023168	60	52948
2026-01-16 12:58:55.56	148.29	1.37	-48.0	-63.3	3.6	1.51e+00	0	31	104	1382023168	60	52593
2026-01-16 12:58:59.60	148.57	1.16	-48.3	-63.5	3.6	1.51e+00	0	31	104	1382023168	60	54134
2026-01-16 12:59:03.64	148.85	0.94	-48.2	-63.4	3.6	1.51e+00	0	31	104	1382023168	60	53517
2026-01-16 12:59:07.68	149.12	0.73	-48.1	-63.3	3.6	1.51e+00	0	31	104	1382023168	60	53059
2026-01-16 12:59:11.72	149.40	0.52	-48.1	-63.4	3.6	1.51e+00	0	31	104	1382023168	60	53236
2026-01-16 12:59:15.76	149.66	0.31	-48.5	-63.8	3.6	1.51e+00	0	31	104	1382023168	60	56038
2026-01-16 12:59:19.79	149.93	0.10	-48.1	-63.3	3.6	1.51e+00	0	31	104	1382023168	60	52894
2026-01-16 12:59:23.83	150.19	-0.11	-48.1	-63.4	3.6	1.51e+00	0	31	104	1382023168	60	53201

#Closed at: 2026-01-16 12:59:23
#Recorded file [1382 MB]: D:/lorett/data/35029_260117_004519.dat