passes_logs/2026/01/16/R4.6S_Anadyr/R4.6S_Anadyr__20260116_033534_NOAA_21_JPSS-2_rec.log

#Pass ID: 20260116_033534_NOAA 21 (JPSS-2)
#Satellite: NOAA 21 (JPSS-2)
#Configuration: NOAA-21
#almurnet v.1.7.20251203
#Start time: 2026-01-16 03:35:36

#Version: 2.2.20231116
#Station: R4.6S_Anadyr
#Location: 177.4865 lon 64.73178 lat
#TLE: 1 54234U 22150A   26014.58979933  .00000039  00000+0  39403-4 0  9998
#TLE: 2 54234  98.7497 315.4945 0000653 294.6373  65.4735 14.19534652164756

#Time	Az	El	Level	Level2	SNR	BER	BlckErr	Temp	State	Recorded	gain1	gain2
2026-01-16 03:35:36.84	248.88	0.08	-48.1	-59.7	3.5	8.44e-01	0	26	0	0	60	35098
2026-01-16 03:35:39.87	249.18	0.20	-48.0	-61.0	3.5	1.52e+00	0	27	104	0	60	39551
2026-01-16 03:35:42.90	249.49	0.31	-48.0	-61.0	3.5	1.52e+00	0	28	104	0	60	39367
2026-01-16 03:35:45.93	249.79	0.43	-48.2	-61.0	3.5	1.52e+00	0	28	104	0	60	39524
2026-01-16 03:35:48.96	250.10	0.54	-48.1	-60.9	3.5	1.52e+00	0	28	104	0	60	39138
2026-01-16 03:35:51.99	250.42	0.66	-47.7	-60.5	3.5	1.52e+00	0	28	104	0	60	37048
2026-01-16 03:35:55.02	250.73	0.77	-46.5	-59.3	3.5	1.52e+00	0	28	104	0	60	32222
2026-01-16 03:35:58.05	251.05	0.88	-46.5	-59.3	3.5	1.52e+00	0	28	104	0	60	32205
2026-01-16 03:36:01.07	251.37	0.99	-46.4	-59.2	3.5	1.52e+00	0	28	104	0	60	32146
2026-01-16 03:36:04.00	251.68	1.10	-46.5	-59.3	3.5	1.52e+00	0	28	104	0	60	32244
2026-01-16 03:36:07.04	252.00	1.22	-46.4	-59.2	3.5	1.52e+00	0	28	104	0	60	32000
2026-01-16 03:36:10.06	252.33	1.33	-46.4	-59.2	3.5	1.51e+00	0	28	104	0	60	31952
2026-01-16 03:36:13.09	252.66	1.44	-46.4	-59.2	3.5	1.52e+00	0	28	104	0	60	31848
2026-01-16 03:36:16.12	252.99	1.55	-46.4	-59.2	3.5	1.51e+00	0	28	104	0	60	32100
2026-01-16 03:36:19.15	253.32	1.66	-46.4	-59.2	3.5	1.52e+00	0	28	104	0	60	31992
2026-01-16 03:36:22.18	253.66	1.78	-46.4	-59.1	3.5	1.52e+00	0	28	104	0	60	31671
2026-01-16 03:36:25.21	253.99	1.89	-46.4	-59.2	3.5	1.52e+00	0	28	104	0	60	32131
2026-01-16 03:36:28.24	254.34	2.00	-46.4	-59.1	3.5	1.52e+00	0	28	104	0	60	31707
2026-01-16 03:36:31.27	254.68	2.11	-46.4	-59.1	3.5	1.51e+00	0	28	104	0	60	31679
2026-01-16 03:36:34.30	255.02	2.22	-46.4	-59.2	3.5	1.52e+00	0	28	104	0	60	31937
2026-01-16 03:36:37.33	255.37	2.33	-46.4	-59.2	3.5	1.52e+00	0	28	104	0	60	32052
2026-01-16 03:36:40.36	255.72	2.43	-46.4	-59.0	3.5	1.52e+00	0	28	104	0	60	31173
2026-01-16 03:36:43.38	256.07	2.54	-46.4	-59.2	3.5	1.52e+00	0	28	104	0	60	31943
2026-01-16 03:36:46.41	256.43	2.65	-46.4	-59.0	3.5	1.52e+00	0	28	104	0	60	31455
2026-01-16 03:36:49.44	256.79	2.76	-46.3	-57.9	3.5	1.51e+00	0	28	104	0	60	27635
2026-01-16 03:36:52.47	257.15	2.86	-45.3	-52.0	6.8	1.02e+00	122	28	104	0	60	13970
2026-01-16 03:36:55.50	257.51	2.97	-41.9	-44.3	14.2	4.50e-06	123	28	0	7340032	58	6455
2026-01-16 03:36:58.52	257.87	3.08	-39.6	-41.6	13.3	0.00e+00	123	28	104	15728640	50	7546
2026-01-16 03:37:01.55	258.24	3.18	-38.1	-39.5	18.5	0.00e+00	120	28	0	20971520	50	5880
2026-01-16 03:37:04.58	258.61	3.29	-39.6	-41.2	17.3	0.00e+00	120	28	0	30408704	50	7181
2026-01-16 03:37:07.61	258.98	3.39	-38.4	-39.8	18.7	0.00e+00	120	28	0	39845888	50	6107
2026-01-16 03:37:10.63	259.36	3.49	-37.9	-39.2	19.2	0.00e+00	123	28	0	49283072	50	5719
2026-01-16 03:37:13.66	259.74	3.60	-37.9	-39.2	19.4	0.00e+00	120	28	0	58720256	48	6381
2026-01-16 03:37:16.68	260.12	3.70	-37.7	-38.9	19.7	0.00e+00	121	28	0	68157440	48	6174
2026-01-16 03:37:19.71	260.50	3.80	-38.3	-39.7	18.9	0.00e+00	120	28	0	77594624	48	6732
2026-01-16 03:37:22.74	260.88	3.90	-37.8	-39.0	19.6	0.00e+00	123	28	0	87031808	48	6267
2026-01-16 03:37:25.76	261.27	4.00	-37.7	-39.0	19.6	0.00e+00	123	28	0	96468992	48	6212
2026-01-16 03:37:28.79	261.66	4.10	-38.1	-39.4	19.4	0.00e+00	123	28	0	105906176	48	6506
2026-01-16 03:37:31.82	262.05	4.20	-38.1	-39.4	19.3	0.00e+00	123	28	0	115343360	48	6547
2026-01-16 03:37:34.85	262.45	4.30	-37.6	-38.8	19.9	0.00e+00	123	28	0	124780544	48	6092
2026-01-16 03:37:37.88	262.85	4.40	-37.5	-38.8	20.0	0.00e+00	123	28	0	134217728	48	6092
2026-01-16 03:37:40.90	263.25	4.49	-37.4	-38.6	20.1	0.00e+00	123	28	0	143654912	48	5949
2026-01-16 03:37:43.93	263.65	4.59	-37.6	-38.8	19.9	0.00e+00	122	28	0	153092096	48	6093
2026-01-16 03:37:46.96	264.06	4.68	-37.2	-38.4	20.2	0.00e+00	123	28	0	162529280	48	5838
2026-01-16 03:37:49.98	264.46	4.78	-37.3	-38.5	20.5	0.00e+00	123	28	0	171966464	48	5859
2026-01-16 03:37:53.01	264.87	4.87	-37.2	-38.4	20.3	0.00e+00	120	28	0	181403648	48	5832
2026-01-16 03:37:56.04	265.29	4.96	-37.2	-38.4	20.4	0.00e+00	123	28	0	190840832	48	5801
2026-01-16 03:37:59.06	265.70	5.05	-37.1	-38.2	20.5	0.00e+00	122	28	0	200278016	48	5714
2026-01-16 03:38:02.09	266.12	5.14	-37.3	-38.5	20.3	0.00e+00	123	28	0	209715200	48	5901
2026-01-16 03:38:05.12	266.54	5.23	-37.2	-38.4	20.4	0.00e+00	123	28	0	219152384	48	5808
2026-01-16 03:38:08.15	266.96	5.32	-36.9	-38.1	20.8	0.00e+00	123	28	0	228589568	46	6281
2026-01-16 03:38:11.18	267.39	5.41	-37.1	-38.2	20.6	0.00e+00	123	28	0	238026752	46	6402
2026-01-16 03:38:14.20	267.82	5.50	-36.8	-37.9	20.9	0.00e+00	123	28	0	247463936	46	6171
2026-01-16 03:38:17.23	268.25	5.58	-37.2	-38.3	20.5	0.00e+00	123	28	0	256901120	46	6480
2026-01-16 03:38:20.26	268.68	5.67	-36.9	-38.1	20.7	0.00e+00	123	28	0	266338304	46	6297
2026-01-16 03:38:23.28	269.11	5.75	-36.9	-38.1	20.8	0.00e+00	123	28	0	275775488	46	6281
2026-01-16 03:38:26.31	269.55	5.83	-36.8	-37.9	20.9	0.00e+00	123	28	0	285212672	46	6195
2026-01-16 03:38:29.33	269.99	5.91	-36.9	-38.0	20.9	0.00e+00	122	28	0	294649856	46	6272
2026-01-16 03:38:32.37	270.43	5.99	-36.7	-37.9	21.0	0.00e+00	120	28	0	305135616	46	6146
2026-01-16 03:38:35.39	270.88	6.07	-36.6	-37.7	21.1	0.00e+00	123	28	0	313524224	46	6040
2026-01-16 03:38:38.42	271.32	6.15	-36.7	-37.9	20.9	0.00e+00	122	28	0	324009984	46	6151
2026-01-16 03:38:41.45	271.77	6.22	-36.7	-37.8	21.1	0.00e+00	120	28	0	333447168	46	6128
2026-01-16 03:38:44.47	272.22	6.30	-36.6	-37.7	21.2	0.00e+00	122	28	0	342884352	46	6026
2026-01-16 03:38:47.50	272.68	6.37	-36.7	-37.8	21.1	0.00e+00	122	28	0	352321536	46	6125
2026-01-16 03:38:50.53	273.13	6.45	-36.6	-37.8	21.2	0.00e+00	122	28	0	361758720	46	6071
2026-01-16 03:38:53.56	273.59	6.52	-36.6	-37.7	21.2	0.00e+00	123	28	0	371195904	46	6010
2026-01-16 03:38:56.59	274.05	6.59	-36.5	-37.5	21.3	0.00e+00	122	28	0	380633088	46	5921
2026-01-16 03:38:59.62	274.51	6.65	-36.3	-37.3	21.5	0.00e+00	120	28	0	390070272	46	5790
2026-01-16 03:39:02.65	274.98	6.72	-36.3	-37.3	21.5	0.00e+00	122	28	0	399507456	46	5790
2026-01-16 03:39:05.67	275.44	6.79	-36.3	-37.4	21.5	0.00e+00	123	28	0	408944640	46	5834
2026-01-16 03:39:08.70	275.91	6.85	-36.3	-37.4	21.5	0.00e+00	122	28	0	418381824	46	5803
2026-01-16 03:39:11.73	276.38	6.91	-36.2	-37.2	21.6	0.00e+00	122	28	0	427819008	46	5725
2026-01-16 03:39:14.76	276.85	6.98	-36.2	-37.3	21.6	0.00e+00	122	28	0	437256192	46	5733
2026-01-16 03:39:17.78	277.32	7.03	-36.3	-37.3	21.5	0.00e+00	122	28	0	446693376	46	5788
2026-01-16 03:39:20.81	277.80	7.09	-36.6	-37.7	21.2	0.00e+00	123	28	0	456130560	46	6000
2026-01-16 03:39:23.84	278.28	7.15	-36.4	-37.5	21.4	0.00e+00	123	28	0	465567744	46	5894
2026-01-16 03:39:26.87	278.75	7.20	-36.3	-37.4	21.6	0.00e+00	122	28	0	475004928	46	5794
2026-01-16 03:39:29.90	279.24	7.26	-36.2	-37.2	21.6	0.00e+00	122	28	0	484442112	46	5704
2026-01-16 03:39:32.92	279.72	7.31	-36.3	-37.4	21.6	0.00e+00	120	28	0	493879296	46	5835
2026-01-16 03:39:35.95	280.20	7.36	-36.3	-37.4	21.6	0.00e+00	123	28	0	503316480	46	5797
2026-01-16 03:39:38.98	280.69	7.41	-36.1	-37.2	21.7	0.00e+00	123	28	0	512753664	46	5684
2026-01-16 03:39:42.00	281.17	7.46	-36.1	-37.2	21.8	0.00e+00	120	28	0	522190848	46	5673
2026-01-16 03:39:45.03	281.66	7.50	-36.2	-37.2	21.7	0.00e+00	122	28	0	531628032	46	5693
2026-01-16 03:39:48.06	282.15	7.54	-36.5	-37.5	21.3	0.00e+00	123	28	0	541065216	46	5921
2026-01-16 03:39:51.09	282.64	7.59	-36.3	-37.4	21.6	0.00e+00	123	28	0	550502400	46	5840
2026-01-16 03:39:54.12	283.14	7.63	-36.3	-37.4	21.6	0.00e+00	123	28	0	559939584	46	5806
2026-01-16 03:39:57.15	283.63	7.67	-35.9	-37.0	21.8	0.00e+00	122	28	0	569376768	46	5570
2026-01-16 03:40:00.18	284.13	7.70	-36.0	-37.1	21.7	0.00e+00	122	28	0	578813952	46	5621
2026-01-16 03:40:03.20	284.62	7.74	-36.1	-37.2	21.7	0.00e+00	122	28	0	588251136	46	5666
2026-01-16 03:40:06.23	285.12	7.77	-36.0	-37.1	21.9	0.00e+00	123	28	0	597688320	46	5627
2026-01-16 03:40:09.26	285.62	7.80	-36.3	-37.4	21.6	0.00e+00	123	28	0	607125504	46	5814
2026-01-16 03:40:12.29	286.12	7.83	-36.4	-37.5	21.4	0.00e+00	123	28	0	616562688	46	5897
2026-01-16 03:40:15.32	286.62	7.86	-36.1	-37.2	21.7	0.00e+00	123	28	0	625999872	46	5671
2026-01-16 03:40:18.34	287.12	7.88	-36.1	-37.2	21.8	0.00e+00	120	28	0	635437056	46	5670
2026-01-16 03:40:21.37	287.62	7.91	-35.8	-36.8	22.0	0.00e+00	123	28	0	644874240	46	5467
2026-01-16 03:40:24.40	288.12	7.93	-36.0	-37.1	21.8	0.00e+00	122	28	0	654311424	46	5599
2026-01-16 03:40:27.43	288.62	7.95	-36.1	-37.2	21.7	0.00e+00	123	28	0	663748608	46	5692
2026-01-16 03:40:30.46	289.13	7.97	-36.1	-37.1	21.8	0.00e+00	122	28	0	673185792	46	5632
2026-01-16 03:40:33.49	289.63	7.98	-35.9	-37.0	21.9	0.00e+00	123	28	0	682622976	46	5555
2026-01-16 03:40:36.52	290.14	8.00	-36.2	-37.2	21.7	0.00e+00	122	28	0	693108736	46	5712
2026-01-16 03:40:39.55	290.64	8.01	-36.1	-37.2	21.7	0.00e+00	123	28	0	701497344	46	5700
2026-01-16 03:40:42.57	291.15	8.02	-36.2	-37.3	21.6	0.00e+00	123	28	0	711983104	46	5778
2026-01-16 03:40:45.60	291.66	8.03	-36.8	-37.9	21.0	0.00e+00	123	28	0	721420288	46	6174
2026-01-16 03:40:48.63	292.16	8.04	-36.2	-37.3	21.6	0.00e+00	120	28	0	730857472	46	5751
2026-01-16 03:40:51.66	292.67	8.04	-36.1	-37.2	21.8	0.00e+00	122	28	0	740294656	46	5702
2026-01-16 03:40:54.69	293.18	8.05	-36.0	-37.0	21.9	0.00e+00	122	28	0	749731840	46	5583
2026-01-16 03:40:57.71	293.68	8.05	-35.8	-36.8	22.0	0.00e+00	123	28	0	759169024	46	5451
2026-01-16 03:41:00.74	294.19	8.05	-36.0	-37.0	21.8	0.00e+00	123	28	0	768606208	46	5588
2026-01-16 03:41:03.77	294.70	8.05	-36.0	-37.1	21.8	0.00e+00	124	28	0	778043392	46	5618
2026-01-16 03:41:06.80	295.20	8.04	-36.1	-37.1	21.8	0.00e+00	122	28	0	787480576	46	5659
2026-01-16 03:41:09.82	295.71	8.03	-36.1	-37.1	21.8	0.00e+00	123	28	0	796917760	46	5651
2026-01-16 03:41:12.85	296.21	8.03	-36.3	-37.3	21.6	0.00e+00	122	28	0	806354944	46	5777
2026-01-16 03:41:15.88	296.72	8.02	-36.2	-37.3	21.7	0.00e+00	123	28	0	815792128	46	5759
2026-01-16 03:41:18.90	297.22	8.00	-36.0	-37.1	21.8	0.00e+00	123	28	0	825229312	46	5631
2026-01-16 03:41:21.93	297.73	7.99	-36.0	-37.0	22.0	0.00e+00	123	28	0	834666496	46	5588
2026-01-16 03:41:24.96	298.23	7.97	-35.8	-36.8	22.1	0.00e+00	120	28	0	844103680	46	5433
2026-01-16 03:41:27.99	298.74	7.96	-35.8	-36.8	22.0	0.00e+00	123	28	0	853540864	46	5454
2026-01-16 03:41:31.01	299.24	7.94	-35.8	-36.8	22.0	0.00e+00	122	28	0	862978048	44	6095
2026-01-16 03:41:34.04	299.74	7.92	-35.8	-36.8	22.1	0.00e+00	123	28	0	872415232	44	6103
2026-01-16 03:41:37.07	300.24	7.89	-35.7	-36.8	22.2	0.00e+00	123	28	0	881852416	44	6071
2026-01-16 03:41:40.10	300.74	7.87	-35.6	-36.5	22.2	0.00e+00	123	28	0	891289600	44	5922
2026-01-16 03:41:43.13	301.24	7.84	-35.7	-36.7	22.0	0.00e+00	120	28	0	900726784	44	6047
2026-01-16 03:41:46.15	301.74	7.81	-35.7	-36.7	22.1	0.00e+00	124	28	0	910163968	44	6038
2026-01-16 03:41:49.18	302.24	7.78	-35.7	-36.7	22.1	0.00e+00	122	28	0	919601152	44	6059
2026-01-16 03:41:52.21	302.74	7.75	-35.7	-36.7	22.1	0.00e+00	123	28	0	929038336	44	6044
2026-01-16 03:41:55.24	303.23	7.71	-35.8	-36.8	22.0	0.00e+00	122	28	0	938475520	44	6124
2026-01-16 03:41:58.27	303.73	7.68	-35.9	-37.0	21.9	0.00e+00	122	28	0	947912704	44	6228
2026-01-16 03:42:01.29	304.22	7.64	-35.8	-36.8	22.0	0.00e+00	121	28	0	957349888	44	6132
2026-01-16 03:42:04.32	304.71	7.60	-36.2	-37.2	21.7	0.00e+00	122	28	0	966787072	44	6404
2026-01-16 03:42:07.35	305.20	7.56	-36.2	-37.2	21.7	0.00e+00	122	28	0	976224256	44	6416
2026-01-16 03:42:10.38	305.69	7.52	-36.2	-37.2	21.7	0.00e+00	123	28	0	985661440	44	6423
2026-01-16 03:42:13.41	306.18	7.47	-36.3	-37.4	21.5	0.00e+00	120	28	0	995098624	44	6506
2026-01-16 03:42:16.44	306.67	7.43	-36.7	-37.9	21.2	0.00e+00	123	28	0	1004535808	44	6901
2026-01-16 03:42:19.46	307.15	7.38	-37.0	-38.2	20.8	0.00e+00	123	28	0	1013972992	46	6357
2026-01-16 03:42:22.49	307.63	7.33	-36.4	-37.5	21.4	0.00e+00	122	28	0	1023410176	46	5892
2026-01-16 03:42:25.52	308.11	7.28	-36.4	-37.5	21.3	0.00e+00	123	28	0	1032847360	46	5887
2026-01-16 03:42:28.55	308.59	7.23	-36.4	-37.5	21.4	0.00e+00	120	28	0	1042284544	46	5870
2026-01-16 03:42:31.58	309.07	7.17	-36.4	-37.5	21.3	0.00e+00	123	28	0	1051721728	46	5899
2026-01-16 03:42:34.61	309.55	7.11	-36.5	-37.6	21.2	0.00e+00	120	28	0	1061158912	46	5946
2026-01-16 03:42:37.63	310.02	7.06	-36.4	-37.5	21.3	0.00e+00	123	28	0	1070596096	46	5912
2026-01-16 03:42:40.66	310.50	7.00	-36.5	-37.6	21.2	0.00e+00	122	28	0	1080033280	46	5965
2026-01-16 03:42:43.69	310.97	6.94	-36.4	-37.6	21.3	0.00e+00	122	28	0	1089470464	46	5928
2026-01-16 03:42:46.71	311.43	6.88	-36.3	-37.4	21.4	0.00e+00	122	28	0	1098907648	46	5795
2026-01-16 03:42:49.75	311.90	6.81	-36.3	-37.4	21.4	0.00e+00	122	28	0	1109393408	46	5798
2026-01-16 03:42:52.77	312.37	6.75	-36.3	-37.3	21.5	0.00e+00	123	28	0	1118830592	46	5777
2026-01-16 03:42:55.80	312.83	6.68	-36.3	-37.3	21.6	0.00e+00	120	28	0	1128267776	46	5774
2026-01-16 03:42:58.83	313.29	6.62	-36.4	-37.4	21.4	0.00e+00	123	28	0	1137704960	46	5855
2026-01-16 03:43:01.86	313.75	6.55	-36.3	-37.4	21.4	0.00e+00	123	28	0	1147142144	46	5801
2026-01-16 03:43:04.89	314.21	6.48	-36.5	-37.6	21.4	0.00e+00	120	28	0	1156579328	46	5929
2026-01-16 03:43:07.91	314.66	6.40	-36.5	-37.6	21.2	0.00e+00	123	28	0	1166016512	46	5951
2026-01-16 03:43:10.94	315.11	6.33	-36.3	-37.3	21.4	0.00e+00	120	28	0	1175453696	46	5787
2026-01-16 03:43:13.97	315.56	6.26	-36.4	-37.5	21.3	0.00e+00	122	28	0	1184890880	46	5879
2026-01-16 03:43:17.00	316.01	6.18	-36.4	-37.5	21.3	0.00e+00	123	28	0	1194328064	46	5873
2026-01-16 03:43:20.03	316.46	6.11	-36.4	-37.5	21.3	0.00e+00	123	28	0	1203765248	46	5872
2026-01-16 03:43:23.05	316.90	6.03	-36.6	-37.7	21.0	0.00e+00	123	28	0	1213202432	46	6028
2026-01-16 03:43:26.08	317.34	5.95	-36.5	-37.7	21.0	0.00e+00	123	29	0	1222639616	46	6000
2026-01-16 03:43:29.12	317.78	5.87	-36.6	-37.7	21.1	0.00e+00	123	29	0	1232076800	46	6023
2026-01-16 03:43:32.14	318.22	5.79	-36.6	-37.7	21.1	0.00e+00	121	29	0	1241513984	46	6049
2026-01-16 03:43:35.17	318.65	5.71	-36.6	-37.7	21.0	0.00e+00	122	29	0	1250951168	46	6028
2026-01-16 03:43:38.20	319.08	5.62	-36.7	-37.9	20.8	0.00e+00	121	29	0	1260388352	46	6171
2026-01-16 03:43:41.23	319.51	5.54	-36.7	-37.8	20.8	0.00e+00	127	29	0	1269825536	46	6113
2026-01-16 03:43:44.26	319.94	5.45	-36.6	-37.8	20.8	0.00e+00	122	29	0	1279262720	46	6091
2026-01-16 03:43:47.28	320.36	5.37	-36.5	-37.6	21.0	0.00e+00	120	29	0	1288699904	46	5948
2026-01-16 03:43:50.31	320.79	5.28	-36.5	-37.6	21.0	0.00e+00	120	29	0	1298137088	46	5963
2026-01-16 03:43:53.34	321.21	5.19	-36.5	-37.6	21.1	0.00e+00	120	29	0	1307574272	46	5961
2026-01-16 03:43:56.37	321.62	5.10	-36.5	-37.7	21.0	0.00e+00	123	29	0	1317011456	46	5999
2026-01-16 03:43:59.40	322.04	5.01	-36.8	-37.9	20.7	0.00e+00	120	29	0	1326448640	46	6204
2026-01-16 03:44:02.43	322.45	4.92	-37.2	-38.4	20.3	0.00e+00	123	29	0	1335885824	46	6559
2026-01-16 03:44:05.46	322.86	4.83	-37.2	-38.4	20.3	0.00e+00	123	29	0	1345323008	46	6551
2026-01-16 03:44:08.49	323.27	4.73	-37.1	-38.2	20.5	0.00e+00	120	29	0	1354760192	46	6413
2026-01-16 03:44:11.51	323.67	4.64	-36.9	-38.1	20.6	0.00e+00	122	29	0	1364197376	46	6288
2026-01-16 03:44:14.54	324.07	4.55	-36.9	-38.0	20.5	0.00e+00	123	29	0	1373634560	46	6258
2026-01-16 03:44:17.57	324.47	4.45	-36.9	-38.1	20.5	0.00e+00	122	29	0	1383071744	46	6295
2026-01-16 03:44:20.60	324.87	4.35	-37.3	-38.5	20.1	0.00e+00	123	29	0	1392508928	46	6619
2026-01-16 03:44:23.63	325.27	4.26	-37.6	-38.8	19.8	0.00e+00	123	29	0	1401946112	48	6104
2026-01-16 03:44:26.65	325.66	4.16	-37.4	-38.6	20.0	0.00e+00	122	29	0	1411383296	48	5941
2026-01-16 03:44:29.68	326.05	4.06	-37.3	-38.5	20.0	0.00e+00	120	29	0	1420820480	48	5912
2026-01-16 03:44:32.71	326.44	3.96	-37.2	-38.4	20.0	0.00e+00	122	29	0	1430257664	48	5852
2026-01-16 03:44:35.74	326.82	3.86	-37.2	-38.4	20.0	0.00e+00	122	29	0	1439694848	48	5847
2026-01-16 03:44:38.76	327.20	3.76	-37.2	-38.4	20.0	0.00e+00	122	29	0	1450180608	48	5827
2026-01-16 03:44:41.79	327.58	3.66	-37.1	-38.3	20.1	0.00e+00	123	29	0	1458569216	48	5749
2026-01-16 03:44:44.82	327.96	3.56	-37.5	-38.8	19.6	0.00e+00	122	29	0	1469054976	48	6089
2026-01-16 03:44:47.85	328.33	3.46	-37.4	-38.6	19.6	0.00e+00	122	29	0	1477443584	48	5960
2026-01-16 03:44:50.87	328.70	3.35	-37.7	-39.0	18.8	0.00e+00	122	29	0	1487929344	48	6236
2026-01-16 03:44:53.90	329.07	3.25	-38.3	-39.8	17.9	0.00e+00	122	29	0	1497366528	48	6845
2026-01-16 03:44:56.93	329.44	3.15	-38.3	-39.8	17.8	0.00e+00	123	29	0	1506803712	48	6858
2026-01-16 03:44:59.96	329.81	3.04	-39.1	-41.0	16.0	0.00e+00	123	29	0	1516240896	50	6974
2026-01-16 03:45:02.99	330.17	2.94	-47.4	-60.2	3.5	1.52e+00	0	29	104	1520435200	60	36111
2026-01-16 03:45:06.01	330.53	2.83	-48.0	-60.9	3.5	1.52e+00	0	29	104	1520435200	60	38830
2026-01-16 03:45:09.04	330.88	2.73	-48.2	-61.0	3.5	1.52e+00	0	29	104	1520435200	60	39417
2026-01-16 03:45:12.07	331.24	2.62	-47.7	-61.1	3.5	1.52e+00	0	29	104	1520435200	60	39728
2026-01-16 03:45:15.11	331.59	2.51	-48.1	-61.0	3.5	1.52e+00	0	29	104	1520435200	60	39293
2026-01-16 03:45:18.14	331.94	2.40	-48.1	-61.0	3.5	1.52e+00	0	29	104	1520435200	60	39434
2026-01-16 03:45:21.16	332.29	2.30	-48.1	-60.9	3.5	1.52e+00	0	29	104	1520435200	60	38909
2026-01-16 03:45:24.19	332.63	2.19	-48.1	-61.0	3.5	1.52e+00	0	30	104	1520435200	60	39227
2026-01-16 03:45:27.22	332.98	2.08	-48.3	-61.1	3.5	1.52e+00	0	30	104	1520435200	60	39887
2026-01-16 03:45:30.25	333.32	1.97	-48.2	-61.1	3.5	1.51e+00	0	30	104	1520435200	60	39841
2026-01-16 03:45:33.28	333.66	1.86	-48.3	-61.2	3.5	1.52e+00	0	30	104	1520435200	60	40200
2026-01-16 03:45:36.31	333.99	1.75	-48.1	-60.9	3.5	1.52e+00	0	30	104	1520435200	60	39092
2026-01-16 03:45:39.34	334.33	1.64	-48.3	-61.1	3.5	1.51e+00	0	30	104	1520435200	60	39985
2026-01-16 03:45:42.37	334.66	1.53	-48.2	-61.1	3.5	1.51e+00	0	30	104	1520435200	60	39638
2026-01-16 03:45:45.40	334.98	1.42	-48.3	-61.2	3.5	1.51e+00	0	30	104	1520435200	60	40237
2026-01-16 03:45:48.43	335.31	1.31	-48.2	-61.1	3.5	1.52e+00	0	30	104	1520435200	60	39632
2026-01-16 03:45:51.46	335.63	1.20	-48.3	-61.1	3.5	1.52e+00	0	30	104	1520435200	60	39792
2026-01-16 03:45:54.50	335.96	1.09	-48.3	-61.1	3.5	1.52e+00	0	30	104	1520435200	60	39744
2026-01-16 03:45:57.53	336.28	0.98	-48.1	-61.0	3.5	1.52e+00	0	30	104	1520435200	60	39355
2026-01-16 03:46:00.56	336.59	0.86	-48.2	-61.1	3.5	1.52e+00	0	30	104	1520435200	60	39674
2026-01-16 03:46:03.59	336.91	0.75	-48.5	-61.4	3.5	1.52e+00	0	30	104	1520435200	60	41242
2026-01-16 03:46:06.62	337.22	0.64	-48.3	-61.2	3.5	1.52e+00	0	30	104	1520435200	60	40152
2026-01-16 03:46:09.65	337.53	0.53	-48.2	-61.0	3.5	1.52e+00	0	30	104	1520435200	60	39383
2026-01-16 03:46:12.69	337.84	0.41	-48.3	-61.1	3.5	1.52e+00	0	30	104	1520435200	60	39953
2026-01-16 03:46:15.71	338.15	0.30	-48.1	-60.9	3.5	1.52e+00	0	30	104	1520435200	60	39012
2026-01-16 03:46:18.75	338.45	0.19	-48.2	-61.1	3.5	1.52e+00	0	30	104	1520435200	60	39741
2026-01-16 03:46:21.78	338.75	0.07	-48.2	-61.1	3.5	1.52e+00	0	30	104	1520435200	60	39771
2026-01-16 03:46:24.80	339.05	-0.04	-48.2	-61.1	3.5	1.52e+00	0	30	104	1520435200	60	39862

#Closed at: 2026-01-16 03:46:25
#Recorded file [1520 MB]: D:/lorett/data/35029_260116_153536.dat