passes_logs/2026/01/29/PlanumMoscow/PlanumMoscow__20260129_082629_METOP-C_rec.log

#Pass ID: 20260129_082629_METOP-C
#Satellite: METOP-C
#Configuration: METOP-C
#Start time: 2026-01-29 08:26:34.337245

#LorettStation: 1.0.0 05.05.2024
#Station: PlanumMoscow
#Location: 37.6253844 lon 55.6713361 lat
#TLE: 1 43689U 18087A   25293.88981035  .00000265  00000+0  14109-3 0  9997
#TLE: 2 43689  98.7006 352.4487 0002041 122.1097 238.0279 14.21482740360838

#Time	Az	El	Level	SNR
2026-01-29 08:30:12.819385	356.2	27.2	-52.0	0.0
2026-01-29 08:30:15.062908	355.8	27.6	-52.5	0.0
2026-01-29 08:30:17.304968	355.5	27.9	-52.2	0.0
2026-01-29 08:30:19.548491	355.1	28.2	-52.2	0.0
2026-01-29 08:30:21.791561	354.7	28.6	-52.7	0.0
2026-01-29 08:30:24.036076	354.3	28.9	-52.8	0.0
2026-01-29 08:30:26.277653	354.0	29.3	-52.5	0.0
2026-01-29 08:30:28.521664	353.6	29.7	-52.5	0.0
2026-01-29 08:30:30.812227	353.1	30.0	-52.7	0.0
2026-01-29 08:30:33.055258	352.7	30.4	-52.7	0.0
2026-01-29 08:30:35.309288	352.3	30.8	-52.9	0.0
2026-01-29 08:30:37.556338	351.9	31.1	-52.8	0.0
2026-01-29 08:30:39.800844	351.4	31.5	-52.7	0.0
2026-01-29 08:30:42.045380	350.9	31.9	-53.0	0.0
2026-01-29 08:30:44.290935	350.5	32.3	-53.2	0.0
2026-01-29 08:30:46.537004	350.0	32.7	-53.3	0.0
2026-01-29 08:30:48.780519	349.5	33.0	-53.3	0.0
2026-01-29 08:30:51.029036	349.0	33.4	-53.3	0.0
2026-01-29 08:30:53.272057	348.5	33.8	-53.3	0.0
2026-01-29 08:30:55.518576	347.9	34.2	-53.6	0.0
2026-01-29 08:30:57.761629	347.4	34.6	-53.6	0.0
2026-01-29 08:31:00.011649	346.8	35.0	-53.8	0.0
2026-01-29 08:31:02.254215	346.3	35.4	-54.2	0.0
2026-01-29 08:31:04.497277	345.7	35.8	-54.3	0.0
2026-01-29 08:31:06.745793	345.1	36.2	-54.0	0.0
2026-01-29 08:31:08.988853	344.5	36.6	-54.1	0.0
2026-01-29 08:31:11.232376	343.8	37.0	-54.2	0.0
2026-01-29 08:31:13.476446	343.2	37.4	-54.7	0.0
2026-01-29 08:31:15.719970	342.5	37.8	-54.7	0.0
2026-01-29 08:31:17.963039	341.9	38.2	-54.7	0.0
2026-01-29 08:31:20.205077	341.2	38.6	-55.0	0.0
2026-01-29 08:31:22.452153	340.4	39.0	-55.3	0.0
2026-01-29 08:31:24.695173	339.7	39.4	-55.2	0.0
2026-01-29 08:31:26.938200	339.0	39.8	-55.3	0.0
2026-01-29 08:31:29.181747	338.2	40.2	-55.6	0.0
2026-01-29 08:31:31.423776	337.4	40.6	-55.8	0.0
2026-01-29 08:31:33.665836	336.6	41.0	-56.2	0.0
2026-01-29 08:31:35.909351	335.7	41.4	-56.2	0.0
2026-01-29 08:31:38.153362	334.9	41.8	-56.1	0.0
2026-01-29 08:31:40.395392	334.0	42.2	-56.4	0.0
2026-01-29 08:31:42.637925	333.1	42.6	-56.9	0.0
2026-01-29 08:31:44.881480	332.2	43.0	-57.2	0.0
2026-01-29 08:31:47.123558	331.3	43.4	-57.2	0.0
2026-01-29 08:31:49.370113	330.3	43.8	-57.7	0.0
2026-01-29 08:31:51.612142	329.3	44.1	-57.8	0.0
2026-01-29 08:31:53.855704	328.3	44.5	-58.0	0.0
2026-01-29 08:31:56.098741	327.3	44.8	-58.5	0.0
2026-01-29 08:31:58.342753	326.2	45.2	-58.6	0.0
2026-01-29 08:32:00.586300	325.2	45.5	-59.3	0.0
2026-01-29 08:32:02.828832	324.0	45.9	-59.7	0.0
2026-01-29 08:32:05.071387	322.9	46.2	-59.7	0.0
2026-01-29 08:32:07.315911	321.8	46.5	-59.9	0.0
2026-01-29 08:32:09.559969	320.6	46.8	-60.2	0.0
2026-01-29 08:32:11.804989	319.4	47.1	-60.7	0.0
2026-01-29 08:32:14.049543	318.2	47.4	-61.1	0.0
2026-01-29 08:32:16.292571	317.0	47.6	-61.2	0.0
2026-01-29 08:32:18.537109	315.7	47.9	-61.2	0.0
2026-01-29 08:32:20.781683	314.4	48.1	-62.0	0.0
2026-01-29 08:32:23.026190	313.1	48.3	-62.2	0.0
2026-01-29 08:32:25.269743	311.8	48.6	-62.3	0.0
2026-01-29 08:32:27.512762	310.5	48.8	-62.3	0.0
2026-01-29 08:32:29.756317	309.1	48.9	-62.3	0.0
2026-01-29 08:32:31.999840	307.8	49.1	-62.5	0.0
2026-01-29 08:32:34.245854	306.4	49.2	-62.6	0.0
2026-01-29 08:32:36.493411	305.0	49.4	-62.3	0.0
2026-01-29 08:32:38.735945	303.6	49.5	-61.4	0.0
2026-01-29 08:32:40.980492	302.2	49.6	-61.9	0.0
2026-01-29 08:32:43.224537	300.7	49.6	-62.2	0.0
2026-01-29 08:32:45.471582	299.3	49.7	-61.8	0.0
2026-01-29 08:32:47.715106	297.9	49.7	-62.0	0.0
2026-01-29 08:32:49.958157	296.5	49.7	-61.8	0.0
2026-01-29 08:32:52.205186	295.0	49.7	-61.6	0.0
2026-01-29 08:32:54.448701	293.6	49.7	-61.7	0.0
2026-01-29 08:32:56.692246	292.2	49.7	-61.6	0.0
2026-01-29 08:32:58.936257	290.7	49.6	-61.7	0.0
2026-01-29 08:33:01.180313	289.3	49.5	-61.9	0.0
2026-01-29 08:33:03.423839	287.9	49.4	-61.4	0.0
2026-01-29 08:33:05.665394	286.5	49.3	-60.9	0.0
2026-01-29 08:33:07.908918	285.1	49.2	-61.4	0.0
2026-01-29 08:33:10.152961	283.8	49.0	-61.0	0.0
2026-01-29 08:33:12.397468	282.4	48.8	-61.3	0.0
2026-01-29 08:33:14.642487	281.0	48.7	-61.1	0.0
2026-01-29 08:33:16.885538	279.7	48.5	-61.2	0.0
2026-01-29 08:33:19.129557	278.4	48.2	-61.2	0.0
2026-01-29 08:33:21.356032	277.1	48.0	-61.4	0.0
2026-01-29 08:33:23.603540	275.9	47.8	-61.1	0.0
2026-01-29 08:33:25.846568	274.6	47.5	-61.2	0.0
2026-01-29 08:33:28.091098	273.4	47.2	-61.3	0.0
2026-01-29 08:33:30.334133	272.2	46.9	-60.9	0.0
2026-01-29 08:33:32.580671	271.0	46.7	-61.2	0.0
2026-01-29 08:33:34.825700	269.8	46.3	-61.3	0.0
2026-01-29 08:33:37.069742	268.7	46.0	-61.4	0.0
2026-01-29 08:33:39.314257	267.6	45.7	-61.6	0.0
2026-01-29 08:33:41.558764	266.5	45.4	-61.7	0.0
2026-01-29 08:33:43.803806	265.4	45.0	-61.8	0.0
2026-01-29 08:33:46.048330	264.3	44.7	-61.9	0.0
2026-01-29 08:33:48.292370	263.3	44.3	-62.1	0.0
2026-01-29 08:33:50.536382	262.3	43.9	-62.0	0.0
2026-01-29 08:33:52.780888	261.3	43.6	-62.0	0.0
2026-01-29 08:33:55.024900	260.4	43.2	-62.1	0.0
2026-01-29 08:33:57.268455	259.5	42.8	-62.3	0.0
2026-01-29 08:33:59.516971	258.5	42.4	-61.7	0.0
2026-01-29 08:34:01.761016	257.7	42.0	-61.4	0.0
2026-01-29 08:34:04.005523	256.8	41.6	-61.0	0.0
2026-01-29 08:34:06.250030	255.9	41.2	-61.0	0.0
2026-01-29 08:34:08.496584	255.1	40.8	-60.9	0.0
2026-01-29 08:34:10.740131	254.3	40.4	-62.4	0.0
2026-01-29 08:34:12.984638	253.5	40.0	-61.2	0.0
2026-01-29 08:34:15.229161	252.8	39.6	-61.7	0.0
2026-01-29 08:34:17.476202	252.0	39.2	-62.2	0.0
2026-01-29 08:34:19.720718	251.3	38.8	-61.5	0.0
2026-01-29 08:34:21.965263	250.6	38.4	-59.4	0.0
2026-01-29 08:34:24.211276	249.9	38.0	-61.4	0.0
2026-01-29 08:34:26.455317	249.2	37.6	-61.0	0.0
2026-01-29 08:34:28.699328	248.6	37.2	-60.9	0.0
2026-01-29 08:34:30.943844	247.9	36.8	-61.3	0.0
2026-01-29 08:34:33.190895	247.3	36.4	-61.1	0.0
2026-01-29 08:34:35.435411	246.7	35.9	-61.2	0.0
2026-01-29 08:34:37.679452	246.1	35.5	-60.5	0.0
2026-01-29 08:34:39.928473	245.5	35.1	-61.6	0.0
2026-01-29 08:34:42.171988	244.9	34.7	-61.8	0.0
2026-01-29 08:34:44.416525	244.4	34.3	-62.2	0.0
2026-01-29 08:34:46.661041	243.8	34.0	-61.5	0.0
2026-01-29 08:34:48.908092	243.3	33.6	-60.9	0.0
2026-01-29 08:34:51.152607	242.8	33.2	-62.2	0.0
2026-01-29 08:34:53.396619	242.3	32.8	-62.2	0.0
2026-01-29 08:34:55.641671	241.8	32.4	-61.8	0.0
2026-01-29 08:34:57.885690	241.3	32.0	-62.8	0.0
2026-01-29 08:35:00.129734	240.9	31.6	-59.7	0.0
2026-01-29 08:35:02.374250	240.4	31.3	-62.6	0.0
2026-01-29 08:35:04.620325	240.0	30.9	-62.4	0.0
2026-01-29 08:35:06.864832	239.5	30.5	-61.8	0.0
2026-01-29 08:35:09.109339	239.1	30.1	-59.3	0.0
2026-01-29 08:35:11.353379	238.7	29.8	-61.2	0.0
2026-01-29 08:35:13.596399	238.3	29.4	-62.3	0.0
2026-01-29 08:35:15.839998	237.9	29.1	-62.2	0.0
2026-01-29 08:35:18.084505	237.5	28.7	-61.8	0.0
2026-01-29 08:35:20.327564	237.1	28.3	-59.8	0.0
2026-01-29 08:35:22.576080	236.7	28.0	-60.1	0.0
2026-01-29 08:35:24.819627	236.4	27.6	-60.4	0.0
2026-01-29 08:35:27.064142	236.0	27.3	-61.3	0.0
2026-01-29 08:35:29.308649	235.7	27.0	-60.5	0.0
2026-01-29 08:35:31.552188	235.3	26.6	-60.3	0.0
2026-01-29 08:35:33.798703	235.0	26.3	-61.2	0.0
2026-01-29 08:35:36.046263	234.7	26.0	-61.1	0.0
2026-01-29 08:35:38.289314	234.4	25.6	-60.2	0.0
2026-01-29 08:35:40.532865	234.0	25.3	-60.2	0.0
2026-01-29 08:35:42.779888	233.7	25.0	-59.4	0.0
2026-01-29 08:35:45.024394	233.4	24.7	-62.9	0.0
2026-01-29 08:35:47.267940	233.1	24.3	-63.4	0.0
2026-01-29 08:35:49.512447	232.9	24.0	-62.6	0.0
2026-01-29 08:35:51.756459	232.6	23.7	-63.9	0.0
2026-01-29 08:35:53.999975	232.3	23.4	-63.5	0.0
2026-01-29 08:35:56.244482	232.0	23.1	-64.2	0.0
2026-01-29 08:35:58.488989	231.8	22.8	-64.1	0.0
2026-01-29 08:36:00.733496	231.5	22.5	-62.6	0.0
2026-01-29 08:36:02.979506	231.3	22.2	-62.9	0.0
2026-01-29 08:36:05.224014	231.0	21.9	-62.7	0.0
2026-01-29 08:36:07.468520	230.8	21.6	-63.5	0.0
2026-01-29 08:36:09.713027	230.5	21.3	-64.6	0.0
2026-01-29 08:36:11.957559	230.3	21.0	-62.5	0.0
2026-01-29 08:36:14.202105	230.0	20.8	-63.4	0.0
2026-01-29 08:36:16.449125	229.8	20.5	-62.7	0.0
2026-01-29 08:36:18.692684	229.6	20.2	-65.6	0.0
2026-01-29 08:36:20.938703	229.4	19.9	-64.9	0.0
2026-01-29 08:36:23.183250	229.2	19.7	-63.2	0.0
2026-01-29 08:36:25.427757	228.9	19.4	-63.7	0.0
2026-01-29 08:36:27.672263	228.7	19.1	-63.3	0.0
2026-01-29 08:36:29.917274	228.5	18.9	-63.9	0.0
2026-01-29 08:36:32.161295	228.3	18.6	-63.8	0.0
2026-01-29 08:36:34.405338	228.1	18.3	-62.5	0.0
2026-01-29 08:36:36.652359	227.9	18.1	-64.3	0.0
2026-01-29 08:36:38.896416	227.8	17.8	-64.1	0.0
2026-01-29 08:36:41.139939	227.6	17.6	-64.7	0.0
2026-01-29 08:36:43.383995	227.4	17.3	-64.7	0.0
2026-01-29 08:36:45.632015	227.2	17.1	-64.1	0.0
2026-01-29 08:36:47.875560	227.0	16.8	-63.8	0.0
2026-01-29 08:36:50.120106	226.9	16.6	-63.8	0.0
2026-01-29 08:36:52.364621	226.7	16.3	-63.8	0.0
2026-01-29 08:36:54.609654	226.5	16.1	-63.8	0.0
2026-01-29 08:36:56.854169	226.3	15.9	-63.4	0.0
2026-01-29 08:36:59.098211	226.2	15.6	-63.8	0.0
2026-01-29 08:37:01.342223	226.0	15.4	-63.6	0.0
2026-01-29 08:37:03.586737	225.9	15.2	-64.3	0.0
2026-01-29 08:37:05.830781	225.7	14.9	-64.0	0.0
2026-01-29 08:37:08.074816	225.6	14.7	-64.0	0.0
2026-01-29 08:37:10.322333	225.4	14.5	-63.3	0.0
2026-01-29 08:37:12.566848	225.3	14.3	-64.5	0.0
2026-01-29 08:37:14.810907	225.1	14.0	-64.4	0.0
2026-01-29 08:37:17.054927	225.0	13.8	-64.3	0.0
2026-01-29 08:37:19.298481	224.8	13.6	-64.4	0.0
2026-01-29 08:37:21.542988	224.7	13.4	-64.5	0.0
2026-01-29 08:37:23.787495	224.5	13.2	-64.4	0.0
2026-01-29 08:37:26.030547	224.4	13.0	-63.9	0.0
2026-01-29 08:37:28.274063	224.3	12.7	-63.3	0.0
2026-01-29 08:37:30.518602	224.1	12.5	-63.7	0.0
2026-01-29 08:37:32.763117	224.0	12.3	-62.8	0.0
2026-01-29 08:37:35.008633	223.9	12.1	-63.1	0.0
2026-01-29 08:37:37.254676	223.8	11.9	-62.7	0.0
2026-01-29 08:37:39.500191	223.6	11.7	-62.7	0.0
2026-01-29 08:37:41.744232	223.5	11.5	-62.6	0.0
2026-01-29 08:37:44.000245	223.4	11.3	-62.4	0.0
2026-01-29 08:37:46.243810	223.3	11.1	-61.8	0.0
2026-01-29 08:37:48.488317	223.2	10.9	-62.1	0.0
2026-01-29 08:37:50.732340	223.0	10.7	-62.5	0.0
2026-01-29 08:37:52.978909	222.9	10.5	-62.4	0.0
2026-01-29 08:37:55.224933	222.8	10.3	-62.6	0.0
2026-01-29 08:37:57.468472	222.7	10.1	-62.7	0.0
2026-01-29 08:37:59.712489	222.6	9.9	-62.8	0.0
2026-01-29 08:38:01.956037	222.5	9.8	-62.5	0.0
2026-01-29 08:38:04.203049	222.4	9.6	-63.7	0.0
2026-01-29 08:38:06.448059	222.3	9.4	-63.8	0.1
2026-01-29 08:38:08.692608	222.2	9.2	-63.9	0.0
2026-01-29 08:38:10.937115	222.1	9.0	-64.0	3.0
2026-01-29 08:38:13.182622	222.0	8.8	-64.4	2.2
2026-01-29 08:38:15.431665	221.9	8.7	-64.4	3.1
2026-01-29 08:38:17.678717	221.8	8.5	-64.9	1.7
2026-01-29 08:38:19.923225	221.7	8.3	-64.8	4.5
2026-01-29 08:38:22.167739	221.6	8.1	-65.0	4.3
2026-01-29 08:38:24.411789	221.5	7.9	-65.6	4.1
2026-01-29 08:38:26.655305	221.4	7.8	-65.3	4.3
2026-01-29 08:38:28.898820	221.3	7.6	-65.4	4.7
2026-01-29 08:38:31.142859	221.2	7.4	-65.4	4.5
2026-01-29 08:38:33.388879	221.1	7.2	-65.5	5.2
2026-01-29 08:38:35.633419	221.0	7.1	-65.5	4.9
2026-01-29 08:38:37.877501	220.9	6.9	-65.3	4.9
2026-01-29 08:38:40.122021	220.9	6.7	-65.2	4.4
2026-01-29 08:38:42.366069	220.8	6.6	-64.9	4.5
2026-01-29 08:38:44.610584	220.7	6.4	-64.8	4.4
2026-01-29 08:38:46.855091	220.6	6.2	-64.7	3.3
2026-01-29 08:38:49.099132	220.5	6.1	-64.6	3.5
2026-01-29 08:38:51.348145	220.4	5.9	-64.2	1.7
2026-01-29 08:38:53.594652	220.4	5.8	-62.6	0.0
2026-01-29 08:38:55.838685	220.3	5.6	-66.1	0.0
2026-01-29 08:38:58.083192	220.2	5.4	-68.6	0.0
2026-01-29 08:39:00.327699	220.1	5.3	-68.1	0.0
2026-01-29 08:39:02.575215	220.0	5.1	-66.8	0.0
#Closed at: 2026-01-29 08:26:29.338762