passes_logs/2026/01/29/PlanumMoscow/PlanumMoscow__20260129_112319_METEOR-M2_4_rec.log

#Pass ID: 20260129_112319_METEOR-M2 4
#Satellite: METEOR-M2 4
#Configuration: METEOR-M2 4
#Start time: 2026-01-29 11:23:24.718292

#LorettStation: 1.0.0 05.05.2024
#Station: PlanumMoscow
#Location: 37.6253844 lon 55.6713361 lat
#TLE: 1 59051U 24039A   25293.94737965  .00000087  00000+0  58459-4 0  9998
#TLE: 2 59051  98.6671 251.7071 0007726 135.4772 224.7028 14.22388966 85257

#Time	Az	El	Level	SNR
2026-01-29 11:27:03.159478	166.1	29.7	-64.9	14.5
2026-01-29 11:27:05.404489	166.2	30.1	-65.3	14.2
2026-01-29 11:27:07.647014	166.2	30.6	-65.4	15.0
2026-01-29 11:27:09.890043	166.3	31.0	-65.3	14.7
2026-01-29 11:27:12.135569	166.4	31.5	-65.4	15.1
2026-01-29 11:27:14.378093	166.4	31.9	-65.5	14.8
2026-01-29 11:27:16.621112	166.5	32.4	-65.7	14.8
2026-01-29 11:27:18.863653	166.5	32.8	-65.4	14.9
2026-01-29 11:27:21.112169	166.6	33.3	-65.3	14.3
2026-01-29 11:27:23.356694	166.7	33.8	-65.4	13.9
2026-01-29 11:27:25.599714	166.7	34.3	-65.4	14.3
2026-01-29 11:27:27.845243	166.8	34.8	-65.3	14.0
2026-01-29 11:27:30.089255	166.9	35.3	-65.5	14.0
2026-01-29 11:27:32.332780	167.0	35.8	-65.8	14.5
2026-01-29 11:27:34.575799	167.0	36.4	-65.6	14.4
2026-01-29 11:27:36.819811	167.1	36.9	-65.9	15.2
2026-01-29 11:27:39.062832	167.2	37.4	-66.0	14.1
2026-01-29 11:27:41.305366	167.3	38.0	-65.8	13.5
2026-01-29 11:27:43.546419	167.4	38.6	-65.8	13.6
2026-01-29 11:27:45.788448	167.4	39.1	-66.1	13.9
2026-01-29 11:27:48.032476	167.5	39.7	-66.5	14.3
2026-01-29 11:27:50.275992	167.6	40.3	-66.3	14.1
2026-01-29 11:27:52.521516	167.7	40.9	-66.3	13.1
2026-01-29 11:27:54.764039	167.8	41.5	-66.7	13.0
2026-01-29 11:27:57.007556	167.9	42.1	-66.7	13.2
2026-01-29 11:27:59.251071	168.0	42.8	-66.4	12.3
2026-01-29 11:28:01.495082	168.2	43.4	-66.7	14.1
2026-01-29 11:28:03.738597	168.3	44.1	-66.5	13.0
2026-01-29 11:28:05.981618	168.4	44.7	-66.7	13.6
2026-01-29 11:28:08.224153	168.5	45.4	-66.8	13.3
2026-01-29 11:28:10.467172	168.7	46.1	-66.8	13.5
2026-01-29 11:28:12.708704	168.8	46.8	-66.5	13.3
2026-01-29 11:28:14.950237	168.9	47.5	-66.7	13.6
2026-01-29 11:28:17.193763	169.1	48.2	-66.8	13.8
2026-01-29 11:28:19.441271	169.2	49.0	-67.1	13.2
2026-01-29 11:28:21.685786	169.4	49.7	-67.1	13.8
2026-01-29 11:28:23.930293	169.6	50.5	-67.5	13.9
2026-01-29 11:28:26.173808	169.8	51.3	-67.7	13.9
2026-01-29 11:28:28.417820	170.0	52.0	-67.6	13.1
2026-01-29 11:28:30.661831	170.2	52.8	-67.9	13.3
2026-01-29 11:28:32.905346	170.4	53.6	-68.0	12.8
2026-01-29 11:28:35.150882	170.6	54.5	-68.1	12.4
2026-01-29 11:28:37.395398	170.8	55.3	-68.1	12.3
2026-01-29 11:28:39.638913	171.1	56.2	-68.5	12.5
2026-01-29 11:28:41.882934	171.3	57.0	-68.7	11.3
2026-01-29 11:28:44.125954	171.6	57.9	-68.3	10.9
2026-01-29 11:28:46.368498	171.9	58.8	-68.7	10.9
2026-01-29 11:28:48.612510	172.2	59.7	-68.9	10.5
2026-01-29 11:28:50.859539	172.6	60.6	-69.0	10.6
2026-01-29 11:28:53.101570	172.9	61.5	-69.3	10.2
2026-01-29 11:28:55.344104	173.3	62.5	-69.4	9.6
2026-01-29 11:28:57.587629	173.8	63.4	-69.4	9.4
2026-01-29 11:28:59.835146	174.2	64.4	-69.6	9.5
2026-01-29 11:29:02.079157	174.7	65.3	-69.5	9.1
2026-01-29 11:29:04.322177	175.3	66.3	-69.2	10.2
2026-01-29 11:29:06.570198	175.9	67.3	-69.0	11.5
2026-01-29 11:29:08.814705	176.6	68.3	-68.5	12.3
2026-01-29 11:29:11.058716	177.3	69.3	-68.6	11.7
2026-01-29 11:29:13.303223	178.1	70.3	-68.7	12.3
2026-01-29 11:29:15.550235	179.0	71.3	-68.3	12.6
2026-01-29 11:29:17.794742	180.0	72.4	-68.6	13.0
2026-01-29 11:29:20.038257	181.2	73.4	-68.5	11.6
2026-01-29 11:29:22.282781	182.5	74.4	-68.8	12.6
2026-01-29 11:29:24.525305	184.0	75.5	-68.8	12.6
2026-01-29 11:29:26.770317	185.7	76.5	-69.0	12.3
2026-01-29 11:29:29.013846	187.7	77.5	-69.4	12.0
2026-01-29 11:29:31.257362	190.1	78.5	-68.6	11.8
2026-01-29 11:29:33.499886	193.0	79.5	-68.9	12.1
2026-01-29 11:29:35.743916	196.4	80.5	-68.9	12.8
2026-01-29 11:29:37.987441	200.7	81.4	-68.3	13.0
2026-01-29 11:29:40.231452	205.9	82.3	-68.1	13.4
2026-01-29 11:29:42.475476	212.5	83.1	-68.4	13.3
2026-01-29 11:29:44.719990	220.6	83.8	-68.5	13.2
2026-01-29 11:29:46.966506	230.6	84.3	-68.1	13.6
2026-01-29 11:29:49.210024	242.2	84.7	-68.2	13.0
2026-01-29 11:29:51.454531	254.8	84.8	-68.3	13.2
2026-01-29 11:29:53.697560	267.2	84.6	-68.2	13.3
2026-01-29 11:29:55.942067	278.5	84.2	-68.4	12.9
2026-01-29 11:29:58.187078	288.0	83.6	-68.1	12.7
2026-01-29 11:30:00.431088	295.7	82.9	-68.2	13.1
2026-01-29 11:30:02.677110	302.0	82.1	-68.2	12.0
2026-01-29 11:30:04.921617	307.0	81.2	-68.1	12.0
2026-01-29 11:30:07.167143	311.0	80.3	-68.3	12.9
2026-01-29 11:30:09.410728	314.3	79.3	-68.1	12.8
2026-01-29 11:30:11.654749	317.1	78.3	-68.1	12.4
2026-01-29 11:30:13.898297	319.4	77.3	-67.7	12.7
2026-01-29 11:30:16.141350	321.3	76.3	-67.6	11.6
2026-01-29 11:30:18.384380	323.0	75.2	-68.1	11.2
2026-01-29 11:30:20.627905	324.4	74.2	-67.9	10.8
2026-01-29 11:30:22.870959	325.7	73.2	-68.1	10.7
2026-01-29 11:30:25.114524	326.8	72.1	-68.1	9.9
2026-01-29 11:30:27.361537	327.8	71.1	-67.4	9.8
2026-01-29 11:30:29.604063	328.7	70.1	-67.1	10.2
2026-01-29 11:30:31.847115	329.5	69.1	-67.6	9.6
2026-01-29 11:30:34.090631	330.2	68.1	-67.6	9.0
2026-01-29 11:30:36.333157	330.8	67.1	-67.4	8.0
2026-01-29 11:30:38.579752	331.4	66.1	-67.5	9.1
2026-01-29 11:30:40.823277	331.9	65.1	-68.0	8.1
2026-01-29 11:30:43.066791	332.4	64.2	-68.0	7.7
2026-01-29 11:30:45.309845	332.9	63.2	-67.6	6.3
2026-01-29 11:30:47.553361	333.3	62.3	-67.6	6.5
2026-01-29 11:30:49.797411	333.7	61.3	-67.6	7.4
2026-01-29 11:30:52.041446	334.1	60.4	-67.0	7.1
2026-01-29 11:30:54.284964	334.4	59.5	-67.7	8.3
2026-01-29 11:30:56.529480	334.7	58.6	-67.2	8.5
2026-01-29 11:30:58.773492	335.0	57.7	-67.7	7.5
2026-01-29 11:31:01.017041	335.3	56.9	-68.4	8.8
2026-01-29 11:31:03.259575	335.6	56.0	-67.4	6.4
2026-01-29 11:31:05.504082	335.8	55.2	-68.0	6.4
2026-01-29 11:31:07.747598	336.0	54.3	-67.7	7.3
2026-01-29 11:31:09.991650	336.3	53.5	-67.2	6.7
2026-01-29 11:31:12.238672	336.5	52.7	-66.9	6.9
2026-01-29 11:31:14.482692	336.7	51.9	-67.3	6.3
2026-01-29 11:31:16.726736	336.9	51.1	-67.3	7.1
2026-01-29 11:31:18.971243	337.0	50.4	-67.4	7.9
2026-01-29 11:31:21.216305	337.2	49.6	-67.4	8.4
2026-01-29 11:31:23.460325	337.4	48.9	-67.4	8.3
2026-01-29 11:31:25.703841	337.5	48.1	-66.6	7.3
2026-01-29 11:31:27.949421	337.7	47.4	-66.6	7.1
2026-01-29 11:31:30.192954	337.8	46.7	-67.0	7.2
2026-01-29 11:31:32.437017	338.0	46.0	-67.1	7.1
2026-01-29 11:31:34.679559	338.1	45.3	-67.1	8.5
2026-01-29 11:31:36.923113	338.2	44.7	-66.1	5.5
2026-01-29 11:31:39.167142	338.3	44.0	-66.7	8.8
2026-01-29 11:31:41.411649	338.5	43.4	-66.7	8.2
2026-01-29 11:31:43.656706	338.6	42.7	-66.5	8.2
2026-01-29 11:31:45.900231	338.7	42.1	-66.7	7.8
2026-01-29 11:31:48.143778	338.8	41.5	-65.8	7.0
2026-01-29 11:31:50.386321	338.9	40.9	-65.7	9.2
2026-01-29 11:31:52.629879	339.0	40.3	-65.5	8.1
2026-01-29 11:31:54.873902	339.1	39.7	-65.8	9.2
2026-01-29 11:31:57.118925	339.2	39.1	-65.5	8.4
2026-01-29 11:31:59.362025	339.3	38.5	-65.1	8.2
2026-01-29 11:32:01.606079	339.3	38.0	-64.8	8.0
2026-01-29 11:32:03.853654	339.4	37.4	-65.1	7.9
2026-01-29 11:32:06.097192	339.5	36.9	-64.7	6.1
2026-01-29 11:32:08.341738	339.6	36.3	-64.6	8.2
2026-01-29 11:32:10.585758	339.7	35.8	-63.7	6.8
2026-01-29 11:32:12.833274	339.7	35.3	-64.3	8.5
2026-01-29 11:32:15.077327	339.8	34.8	-65.1	8.2
2026-01-29 11:32:17.321347	339.9	34.3	-64.6	7.0
2026-01-29 11:32:19.566359	339.9	33.8	-64.4	7.6
2026-01-29 11:32:21.809381	340.0	33.3	-63.0	4.5
2026-01-29 11:32:24.056440	340.1	32.8	-64.1	7.0
2026-01-29 11:32:26.298966	340.1	32.4	-63.6	6.5
2026-01-29 11:32:28.541986	340.2	31.9	-65.1	7.8
2026-01-29 11:32:30.789052	340.3	31.5	-65.3	8.8
2026-01-29 11:32:33.033599	340.3	31.0	-64.2	8.0
2026-01-29 11:32:35.278164	340.4	30.6	-65.0	8.5
2026-01-29 11:32:37.522195	340.4	30.1	-64.6	8.6
2026-01-29 11:32:39.764750	340.5	29.7	-64.9	8.6
2026-01-29 11:32:42.008777	340.5	29.3	-65.0	8.5
2026-01-29 11:32:44.251797	340.6	28.9	-65.0	9.0
2026-01-29 11:32:46.498354	340.6	28.5	-65.6	10.2
2026-01-29 11:32:48.742383	340.7	28.1	-65.4	9.5
2026-01-29 11:32:50.984948	340.7	27.7	-65.0	9.0
2026-01-29 11:32:53.227979	340.8	27.3	-65.3	9.7
2026-01-29 11:32:55.471045	340.8	26.9	-65.2	10.0
2026-01-29 11:32:57.713572	340.9	26.5	-65.1	9.5
2026-01-29 11:32:59.956129	340.9	26.1	-64.4	8.8
2026-01-29 11:33:02.200685	341.0	25.8	-65.4	9.4
2026-01-29 11:33:04.449211	341.0	25.4	-65.2	9.9
2026-01-29 11:33:06.691281	341.1	25.0	-65.2	9.7
2026-01-29 11:33:08.934310	341.1	24.7	-65.2	9.6
2026-01-29 11:33:11.178857	341.1	24.3	-65.4	10.2
2026-01-29 11:33:13.424868	341.2	24.0	-65.4	9.9
2026-01-29 11:33:15.668416	341.2	23.6	-65.3	9.7
2026-01-29 11:33:17.912427	341.3	23.3	-65.3	9.5
2026-01-29 11:33:20.156461	341.3	23.0	-64.7	8.7
2026-01-29 11:33:22.400472	341.3	22.7	-64.7	9.3
2026-01-29 11:33:24.644533	341.4	22.3	-65.3	9.2
2026-01-29 11:33:26.872673	341.4	22.0	-64.9	9.4
2026-01-29 11:33:29.116693	341.5	21.7	-64.9	9.6
2026-01-29 11:33:31.360250	341.5	21.4	-65.0	9.2
2026-01-29 11:33:33.604757	341.5	21.1	-65.1	9.1
2026-01-29 11:33:35.848801	341.6	20.8	-65.2	8.3
2026-01-29 11:33:38.093315	341.6	20.5	-65.5	8.4
2026-01-29 11:33:40.338833	341.6	20.2	-65.3	7.7
2026-01-29 11:33:42.583381	341.7	19.9	-65.3	8.4
2026-01-29 11:33:44.827401	341.7	19.6	-65.4	9.3
2026-01-29 11:33:47.071949	341.7	19.3	-65.3	9.1
2026-01-29 11:33:49.316960	341.8	19.0	-65.3	8.8
2026-01-29 11:33:51.559518	341.8	18.7	-65.0	8.5
2026-01-29 11:33:53.804033	341.8	18.5	-65.0	9.4
2026-01-29 11:33:56.048540	341.9	18.2	-65.1	8.8
2026-01-29 11:33:58.291089	341.9	17.9	-65.1	9.6
2026-01-29 11:34:00.535596	341.9	17.7	-65.4	9.6
2026-01-29 11:34:02.780103	341.9	17.4	-65.4	9.4
2026-01-29 11:34:05.024115	342.0	17.1	-65.1	7.7
2026-01-29 11:34:07.269168	342.0	16.9	-65.4	7.9
2026-01-29 11:34:09.514675	342.0	16.6	-64.5	6.4
2026-01-29 11:34:11.759182	342.1	16.4	-65.0	7.0
2026-01-29 11:34:14.002740	342.1	16.1	-65.0	8.0
2026-01-29 11:34:16.250267	342.1	15.9	-64.9	7.7
2026-01-29 11:34:18.494324	342.1	15.6	-64.3	7.1
2026-01-29 11:34:20.738840	342.2	15.4	-64.8	7.5
2026-01-29 11:34:22.981892	342.2	15.1	-65.2	6.9
2026-01-29 11:34:25.225944	342.2	14.9	-64.4	4.9
2026-01-29 11:34:27.470459	342.3	14.6	-64.7	7.1
2026-01-29 11:34:29.715007	342.3	14.4	-64.4	6.5
2026-01-29 11:34:31.958532	342.3	14.2	-64.1	5.4
2026-01-29 11:34:34.202602	342.3	13.9	-64.7	6.5
2026-01-29 11:34:36.446621	342.4	13.7	-64.2	5.5
2026-01-29 11:34:38.690684	342.4	13.5	-64.2	5.5
2026-01-29 11:34:40.934208	342.4	13.3	-64.1	5.8
2026-01-29 11:34:43.177755	342.4	13.1	-64.4	5.9
2026-01-29 11:34:45.422271	342.5	12.8	-64.5	6.0
2026-01-29 11:34:47.666307	342.5	12.6	-64.1	4.8
2026-01-29 11:34:49.910318	342.5	12.4	-64.0	4.6
2026-01-29 11:34:52.155843	342.5	12.2	-63.8	5.6
2026-01-29 11:34:54.398892	342.5	12.0	-64.5	6.2
2026-01-29 11:34:56.643912	342.6	11.8	-64.6	5.8
2026-01-29 11:34:58.887481	342.6	11.6	-64.9	5.7
2026-01-29 11:35:01.131988	342.6	11.3	-64.2	4.8
2026-01-29 11:35:03.376503	342.6	11.1	-64.9	5.0
2026-01-29 11:35:05.621063	342.7	10.9	-64.1	5.1
2026-01-29 11:35:07.864588	342.7	10.7	-64.0	3.5
2026-01-29 11:35:10.108128	342.7	10.5	-64.5	4.2
2026-01-29 11:35:12.352643	342.7	10.3	-64.1	4.5
2026-01-29 11:35:14.596189	342.8	10.1	-63.9	3.8
2026-01-29 11:35:16.840704	342.8	10.0	-64.0	4.5
2026-01-29 11:35:19.084252	342.8	9.8	-63.3	4.3
2026-01-29 11:35:21.328264	342.8	9.6	-63.7	6.0
2026-01-29 11:35:23.572771	342.8	9.4	-63.2	3.4
2026-01-29 11:35:25.818320	342.9	9.2	-64.1	5.3
2026-01-29 11:35:28.062836	342.9	9.0	-63.7	5.9
2026-01-29 11:35:30.305905	342.9	8.8	-63.9	7.0
2026-01-29 11:35:32.550412	342.9	8.6	-63.0	5.2
2026-01-29 11:35:34.793979	342.9	8.4	-63.6	5.1
2026-01-29 11:35:37.037008	343.0	8.3	-64.0	6.6
2026-01-29 11:35:39.281034	343.0	8.1	-63.4	4.2
2026-01-29 11:35:41.526061	343.0	7.9	-63.0	4.6
2026-01-29 11:35:43.774595	343.0	7.7	-63.8	5.1
2026-01-29 11:35:46.018638	343.0	7.5	-64.0	4.1
2026-01-29 11:35:48.262659	343.1	7.4	-63.6	3.8
2026-01-29 11:35:50.507703	343.1	7.2	-63.6	4.0
2026-01-29 11:35:52.751244	343.1	7.0	-63.8	3.4
2026-01-29 11:35:54.995760	343.1	6.9	-63.3	2.7
2026-01-29 11:35:57.239804	343.1	6.7	-64.0	3.8
2026-01-29 11:35:59.484320	343.2	6.5	-63.9	1.7
2026-01-29 11:36:01.729373	343.2	6.3	-64.0	3.5
2026-01-29 11:36:03.973889	343.2	6.2	-63.9	1.7
2026-01-29 11:36:06.218436	343.2	6.0	-64.1	0.2
2026-01-29 11:36:08.462455	343.2	5.8	-67.6	0.0
2026-01-29 11:36:10.706508	343.3	5.7	-65.8	0.0
2026-01-29 11:36:12.951024	343.3	5.5	-67.7	0.0
2026-01-29 11:36:15.195059	343.3	5.4	-66.0	0.0
2026-01-29 11:36:17.439566	343.3	5.2	-65.9	0.0
2026-01-29 11:36:19.683577	343.3	5.0	-64.2	0.0
#Closed at: 2026-01-29 11:23:19.720750