passes_logs/2026/01/29/PlanumMoscow/PlanumMoscow__20260129_181605_METOP-C_rec.log

#Pass ID: 20260129_181605_METOP-C
#Satellite: METOP-C
#Configuration: METOP-C
#Start time: 2026-01-29 18:16:10.230694

#LorettStation: 1.0.0 05.05.2024
#Station: PlanumMoscow
#Location: 37.6253844 lon 55.6713361 lat
#TLE: 1 43689U 18087A   25293.88981035  .00000265  00000+0  14109-3 0  9997
#TLE: 2 43689  98.7006 352.4487 0002041 122.1097 238.0279 14.21482740360838

#Time	Az	El	Level	SNR
2026-01-29 18:19:48.694110	174.7	29.4	-68.8	0.0
2026-01-29 18:19:50.940626	174.8	29.9	-68.4	0.0
2026-01-29 18:19:53.184638	175.0	30.3	-69.3	0.0
2026-01-29 18:19:55.428649	175.1	30.7	-69.3	0.0
2026-01-29 18:19:57.673660	175.3	31.2	-69.6	0.0
2026-01-29 18:19:59.918167	175.4	31.6	-69.8	0.0
2026-01-29 18:20:02.162178	175.6	32.1	-69.7	0.0
2026-01-29 18:20:04.406190	175.8	32.5	-69.9	0.0
2026-01-29 18:20:06.650201	176.0	33.0	-69.7	0.0
2026-01-29 18:20:08.894707	176.1	33.5	-69.0	0.0
2026-01-29 18:20:11.139214	176.3	33.9	-69.0	0.0
2026-01-29 18:20:13.383226	176.5	34.4	-69.5	0.0
2026-01-29 18:20:15.626742	176.7	34.9	-69.0	0.0
2026-01-29 18:20:17.870753	176.9	35.4	-67.3	0.0
2026-01-29 18:20:20.115261	177.1	35.9	-69.8	0.0
2026-01-29 18:20:22.359767	177.3	36.4	-69.4	0.0
2026-01-29 18:20:24.602789	177.6	37.0	-69.6	0.0
2026-01-29 18:20:26.846799	177.8	37.5	-68.9	0.0
2026-01-29 18:20:29.091306	178.0	38.0	-68.8	0.0
2026-01-29 18:20:31.335813	178.3	38.6	-70.0	0.0
2026-01-29 18:20:33.578834	178.5	39.1	-69.8	0.0
2026-01-29 18:20:35.823340	178.8	39.7	-68.8	0.0
2026-01-29 18:20:38.067847	179.0	40.3	-70.2	0.0
2026-01-29 18:20:40.316860	179.3	40.9	-70.1	0.0
2026-01-29 18:20:42.561366	179.6	41.5	-67.4	0.0
2026-01-29 18:20:44.805873	179.9	42.1	-69.5	0.0
2026-01-29 18:20:47.050380	180.2	42.7	-70.0	0.0
2026-01-29 18:20:49.295392	180.5	43.3	-69.7	0.0
2026-01-29 18:20:51.540403	180.9	43.9	-69.7	0.0
2026-01-29 18:20:53.784414	181.2	44.6	-69.1	0.0
2026-01-29 18:20:56.028425	181.6	45.2	-69.9	0.0
2026-01-29 18:20:58.270950	182.0	45.9	-69.8	0.0
2026-01-29 18:21:00.515457	182.4	46.5	-70.1	0.0
2026-01-29 18:21:02.759976	182.8	47.2	-70.2	0.0
2026-01-29 18:21:05.003975	183.2	47.9	-69.9	0.0
2026-01-29 18:21:07.248986	183.6	48.6	-69.6	0.0
2026-01-29 18:21:09.493493	184.1	49.3	-69.5	0.0
2026-01-29 18:21:11.737999	184.6	50.0	-69.9	0.0
2026-01-29 18:21:13.982506	185.1	50.7	-70.1	0.0
2026-01-29 18:21:16.228518	185.7	51.5	-69.9	0.0
2026-01-29 18:21:18.473025	186.2	52.2	-69.9	0.0
2026-01-29 18:21:20.718532	186.8	53.0	-70.0	0.0
2026-01-29 18:21:22.963048	187.4	53.7	-70.2	0.0
2026-01-29 18:21:25.206563	188.1	54.5	-70.5	0.0
2026-01-29 18:21:27.451070	188.8	55.3	-69.9	0.0
2026-01-29 18:21:29.695082	189.5	56.0	-70.7	0.0
2026-01-29 18:21:31.939589	190.3	56.8	-70.7	0.0
2026-01-29 18:21:34.188105	191.1	57.6	-70.6	0.0
2026-01-29 18:21:36.432612	192.0	58.4	-70.7	0.0
2026-01-29 18:21:38.677123	192.9	59.2	-70.8	0.0
2026-01-29 18:21:40.922131	193.9	60.0	-70.8	0.0
2026-01-29 18:21:43.166142	194.9	60.8	-71.2	0.0
2026-01-29 18:21:45.410649	196.0	61.6	-71.1	0.0
2026-01-29 18:21:47.655156	197.2	62.5	-71.2	0.0
2026-01-29 18:21:49.899663	198.5	63.3	-71.3	0.0
2026-01-29 18:21:52.144170	199.8	64.1	-71.5	0.0
2026-01-29 18:21:54.388676	201.3	64.9	-71.4	0.0
2026-01-29 18:21:56.633184	202.8	65.7	-71.7	0.0
2026-01-29 18:21:58.877195	204.5	66.4	-71.6	0.0
2026-01-29 18:22:01.121702	206.3	67.2	-71.4	0.0
2026-01-29 18:22:03.366209	208.2	68.0	-71.5	0.0
2026-01-29 18:22:05.610716	210.3	68.7	-71.7	0.0
2026-01-29 18:22:07.854728	212.5	69.4	-71.8	0.0
2026-01-29 18:22:10.105235	214.9	70.1	-71.6	0.0
2026-01-29 18:22:12.349742	217.5	70.8	-72.2	0.0
2026-01-29 18:22:14.594249	220.3	71.4	-71.1	0.0
2026-01-29 18:22:16.838261	223.3	72.0	-72.0	0.0
2026-01-29 18:22:19.082767	226.4	72.5	-71.6	0.0
2026-01-29 18:22:21.326779	229.8	73.0	-71.7	0.0
2026-01-29 18:22:23.571286	233.4	73.4	-71.7	0.0
2026-01-29 18:22:25.815298	237.1	73.8	-72.0	0.0
2026-01-29 18:22:28.059804	241.1	74.1	-72.1	0.0
2026-01-29 18:22:30.303350	245.1	74.3	-71.9	0.0
2026-01-29 18:22:32.547425	249.3	74.5	-72.0	0.0
2026-01-29 18:22:34.796949	253.5	74.6	-70.9	0.0
2026-01-29 18:22:37.040992	257.8	74.5	-72.0	0.0
2026-01-29 18:22:39.285004	262.0	74.5	-72.1	0.0
2026-01-29 18:22:41.529519	266.1	74.3	-72.2	0.0
2026-01-29 18:22:43.776579	270.1	74.0	-71.7	0.0
2026-01-29 18:22:46.020133	274.0	73.7	-71.5	0.0
2026-01-29 18:22:48.264208	277.7	73.3	-71.5	0.0
2026-01-29 18:22:50.508219	281.2	72.9	-71.8	0.0
2026-01-29 18:22:52.752230	284.5	72.4	-71.5	0.0
2026-01-29 18:22:54.996259	287.7	71.8	-71.6	0.0
2026-01-29 18:22:57.239811	290.6	71.2	-71.1	0.0
2026-01-29 18:22:59.486318	293.3	70.6	-71.1	0.0
2026-01-29 18:23:01.729833	295.8	69.9	-71.4	0.0
2026-01-29 18:23:03.974341	298.2	69.2	-70.7	0.0
2026-01-29 18:23:06.217400	300.4	68.5	-70.6	0.0
2026-01-29 18:23:08.461906	302.4	67.8	-71.4	0.0
2026-01-29 18:23:10.705934	304.3	67.0	-70.8	0.0
2026-01-29 18:23:12.950441	306.0	66.2	-71.1	0.0
2026-01-29 18:23:15.194984	307.7	65.5	-70.9	0.0
2026-01-29 18:23:17.439036	309.2	64.7	-70.6	0.0
2026-01-29 18:23:19.682600	310.6	63.9	-71.3	0.0
2026-01-29 18:23:21.927107	311.9	63.1	-71.0	0.0
2026-01-29 18:23:24.171614	313.2	62.3	-71.1	0.0
2026-01-29 18:23:26.417121	314.3	61.4	-70.8	0.0
2026-01-29 18:23:28.692150	315.4	60.6	-70.4	0.0
2026-01-29 18:23:30.937193	316.5	59.8	-70.9	0.0
2026-01-29 18:23:33.181707	317.4	59.0	-70.9	0.0
2026-01-29 18:23:35.425741	318.3	58.2	-70.7	0.0
2026-01-29 18:23:37.672257	319.2	57.4	-69.9	0.0
2026-01-29 18:23:39.916278	320.0	56.6	-70.3	0.0
2026-01-29 18:23:42.159825	320.7	55.9	-70.5	0.0
2026-01-29 18:23:44.403391	321.5	55.1	-70.8	0.0
2026-01-29 18:23:46.646917	322.1	54.3	-70.3	0.0
2026-01-29 18:23:48.890936	322.8	53.6	-70.2	0.0
2026-01-29 18:23:51.134502	323.4	52.8	-69.9	0.0
2026-01-29 18:23:53.378506	324.0	52.1	-70.2	0.0
2026-01-29 18:23:55.626061	324.5	51.3	-69.9	0.0
2026-01-29 18:23:57.869081	325.1	50.6	-70.7	0.0
2026-01-29 18:24:00.111639	325.6	49.9	-70.5	0.0
2026-01-29 18:24:02.355651	326.1	49.2	-69.8	0.0
2026-01-29 18:24:04.598670	326.5	48.5	-69.9	0.0
2026-01-29 18:24:06.840225	327.0	47.8	-70.1	0.0
2026-01-29 18:24:09.083332	327.4	47.1	-70.5	0.0
2026-01-29 18:24:11.324409	327.8	46.4	-70.8	0.0
2026-01-29 18:24:13.568420	328.2	45.8	-69.4	0.0
2026-01-29 18:24:15.813433	328.6	45.1	-69.9	0.0
2026-01-29 18:24:18.057453	328.9	44.5	-69.5	0.0
2026-01-29 18:24:20.306473	329.3	43.8	-69.6	0.0
2026-01-29 18:24:22.549506	329.6	43.2	-69.7	0.0
2026-01-29 18:24:24.792031	329.9	42.6	-69.6	0.0
2026-01-29 18:24:27.036538	330.2	42.0	-69.4	0.0
2026-01-29 18:24:29.286046	330.5	41.4	-69.9	0.0
2026-01-29 18:24:31.530552	330.8	40.8	-68.4	0.0
2026-01-29 18:24:33.775060	331.1	40.2	-68.2	0.0
2026-01-29 18:24:36.019071	331.3	39.7	-68.7	0.0
2026-01-29 18:24:38.262587	331.6	39.1	-69.2	0.0
2026-01-29 18:24:40.507094	331.9	38.5	-68.9	0.0
2026-01-29 18:24:42.751600	332.1	38.0	-69.1	0.0
2026-01-29 18:24:44.995115	332.3	37.5	-68.6	0.0
2026-01-29 18:24:47.239637	332.6	36.9	-68.0	0.0
2026-01-29 18:24:49.484138	332.8	36.4	-68.6	0.0
2026-01-29 18:24:51.728148	333.0	35.9	-65.8	0.0
2026-01-29 18:24:53.972655	333.2	35.4	-68.1	0.0
2026-01-29 18:24:56.220668	333.4	34.9	-67.1	0.0
2026-01-29 18:24:58.465175	333.6	34.4	-67.5	0.0
2026-01-29 18:25:00.709681	333.8	33.9	-66.2	0.0
2026-01-29 18:25:02.954189	334.0	33.4	-68.5	0.0
2026-01-29 18:25:05.198200	334.2	33.0	-67.0	0.0
2026-01-29 18:25:07.442707	334.3	32.5	-68.8	0.0
2026-01-29 18:25:09.687214	334.5	32.1	-67.1	0.0
2026-01-29 18:25:11.936226	334.7	31.6	-67.1	0.0
2026-01-29 18:25:14.180733	334.8	31.2	-66.2	0.0
2026-01-29 18:25:16.425240	335.0	30.7	-67.2	0.0
2026-01-29 18:25:18.669747	335.1	30.3	-67.1	0.0
2026-01-29 18:25:20.916759	335.3	29.9	-66.9	0.0
2026-01-29 18:25:23.161266	335.4	29.5	-67.6	0.0
2026-01-29 18:25:25.405773	335.6	29.0	-67.2	0.0
2026-01-29 18:25:27.652290	335.7	28.6	-68.2	0.0
2026-01-29 18:25:29.896797	335.9	28.2	-67.2	0.0
2026-01-29 18:25:32.141303	336.0	27.9	-67.8	0.0
2026-01-29 18:25:34.385314	336.1	27.5	-67.9	0.0
2026-01-29 18:25:36.630326	336.2	27.1	-67.6	0.0
2026-01-29 18:25:38.874832	336.4	26.7	-67.8	0.0
2026-01-29 18:25:41.119339	336.5	26.3	-67.6	0.0
2026-01-29 18:25:43.363350	336.6	26.0	-68.7	0.0
2026-01-29 18:25:45.607361	336.7	25.6	-67.7	0.0
2026-01-29 18:25:47.851868	336.8	25.2	-68.0	0.0
2026-01-29 18:25:50.096375	337.0	24.9	-68.6	0.0
2026-01-29 18:25:52.345388	337.1	24.5	-68.5	0.0
2026-01-29 18:25:54.589895	337.2	24.2	-68.3	0.0
2026-01-29 18:25:56.834401	337.3	23.9	-68.7	0.0
2026-01-29 18:25:59.078908	337.4	23.5	-68.4	0.0
2026-01-29 18:26:01.323415	337.5	23.2	-69.1	0.0
2026-01-29 18:26:03.567426	337.6	22.9	-68.7	0.0
2026-01-29 18:26:05.811933	337.7	22.5	-69.3	0.0
2026-01-29 18:26:08.058466	337.8	22.2	-69.0	0.0
2026-01-29 18:26:10.301982	337.9	21.9	-68.8	0.0
2026-01-29 18:26:12.546488	338.0	21.6	-67.4	0.0
2026-01-29 18:26:14.790995	338.0	21.3	-68.5	0.0
2026-01-29 18:26:17.036511	338.1	21.0	-68.8	0.0
2026-01-29 18:26:19.280027	338.2	20.7	-68.5	0.0
2026-01-29 18:26:21.524038	338.3	20.4	-68.4	0.0
2026-01-29 18:26:23.768049	338.4	20.1	-68.9	0.0
2026-01-29 18:26:26.017061	338.5	19.8	-68.2	0.0
2026-01-29 18:26:28.261568	338.6	19.5	-69.1	0.0
2026-01-29 18:26:30.505578	338.6	19.2	-68.4	0.0
2026-01-29 18:26:32.749590	338.7	18.9	-68.7	0.0
2026-01-29 18:26:34.993600	338.8	18.7	-67.1	0.0
2026-01-29 18:26:37.238107	338.9	18.4	-67.6	0.0
2026-01-29 18:26:39.482614	338.9	18.1	-66.8	0.0
2026-01-29 18:26:41.726129	339.0	17.9	-67.9	0.0
2026-01-29 18:26:43.970140	339.1	17.6	-67.9	0.0
2026-01-29 18:26:46.214647	339.2	17.3	-68.0	0.0
2026-01-29 18:26:48.459154	339.2	17.1	-67.4	0.0
2026-01-29 18:26:50.702669	339.3	16.8	-67.4	0.0
2026-01-29 18:26:52.946681	339.4	16.6	-67.1	0.0
2026-01-29 18:26:55.191187	339.4	16.3	-67.5	0.0
2026-01-29 18:26:57.434703	339.5	16.1	-68.0	0.0
2026-01-29 18:26:59.679210	339.6	15.8	-68.7	0.0
2026-01-29 18:27:01.923717	339.6	15.6	-67.6	0.0
2026-01-29 18:27:04.169729	339.7	15.3	-68.7	0.0
2026-01-29 18:27:06.414235	339.8	15.1	-68.2	0.0
2026-01-29 18:27:08.658247	339.8	14.9	-66.9	0.0
2026-01-29 18:27:10.902754	339.9	14.6	-67.6	0.0
2026-01-29 18:27:13.147260	340.0	14.4	-68.2	0.0
2026-01-29 18:27:15.391271	340.0	14.2	-68.5	0.0
2026-01-29 18:27:17.635283	340.1	13.9	-68.1	0.0
2026-01-29 18:27:19.879790	340.1	13.7	-67.6	0.0
2026-01-29 18:27:22.123801	340.2	13.5	-68.1	0.0
2026-01-29 18:27:24.368307	340.2	13.3	-67.3	0.0
2026-01-29 18:27:26.612814	340.3	13.0	-67.5	0.0
2026-01-29 18:27:28.856826	340.4	12.8	-67.8	0.0
2026-01-29 18:27:31.101333	340.4	12.6	-68.1	0.0
2026-01-29 18:27:33.345840	340.5	12.4	-68.4	0.0
2026-01-29 18:27:35.590347	340.5	12.2	-68.0	0.0
2026-01-29 18:27:37.834359	340.6	12.0	-67.5	0.0
2026-01-29 18:27:40.078370	340.6	11.8	-66.5	0.0
2026-01-29 18:27:42.323382	340.7	11.6	-67.5	0.0
2026-01-29 18:27:44.567888	340.7	11.3	-66.9	0.0
2026-01-29 18:27:46.812395	340.8	11.1	-66.9	0.0
2026-01-29 18:27:49.056902	340.8	10.9	-67.3	0.0
2026-01-29 18:27:51.301409	340.9	10.7	-67.2	0.0
2026-01-29 18:27:53.545421	340.9	10.5	-66.4	0.0
2026-01-29 18:27:55.789431	341.0	10.3	-66.9	0.0
2026-01-29 18:27:58.033443	341.0	10.1	-67.6	0.0
2026-01-29 18:28:00.277949	341.1	10.0	-67.1	0.0
2026-01-29 18:28:02.522456	341.1	9.8	-66.7	0.0
2026-01-29 18:28:04.766972	341.2	9.6	-65.6	0.0
2026-01-29 18:28:07.010984	341.2	9.4	-66.4	0.0
2026-01-29 18:28:09.255491	341.3	9.2	-66.6	0.0
2026-01-29 18:28:11.498511	341.3	9.0	-66.0	0.0
2026-01-29 18:28:13.743018	341.3	8.8	-66.1	0.0
2026-01-29 18:28:15.987534	341.4	8.6	-66.9	0.0
2026-01-29 18:28:18.231048	341.4	8.5	-66.1	0.0
2026-01-29 18:28:20.474564	341.5	8.3	-65.7	0.0
2026-01-29 18:28:22.718575	341.5	8.1	-65.9	0.0
2026-01-29 18:28:24.962585	341.6	7.9	-65.5	0.0
2026-01-29 18:28:27.206597	341.6	7.7	-65.8	0.0
2026-01-29 18:28:29.454621	341.6	7.6	-65.8	0.0
2026-01-29 18:28:31.698136	341.7	7.4	-66.2	0.0
2026-01-29 18:28:33.942148	341.7	7.2	-65.9	0.0
2026-01-29 18:28:36.185169	341.8	7.0	-65.7	0.0
2026-01-29 18:28:38.429676	341.8	6.9	-66.2	0.0
2026-01-29 18:28:40.673191	341.8	6.7	-64.8	0.0
2026-01-29 18:28:42.918203	341.9	6.5	-65.7	0.0
2026-01-29 18:28:45.161222	341.9	6.4	-65.3	0.0
2026-01-29 18:28:47.404738	342.0	6.2	-65.5	0.0
2026-01-29 18:28:49.649253	342.0	6.0	-64.3	0.0
2026-01-29 18:28:51.892768	342.0	5.9	-66.3	5.6
2026-01-29 18:28:54.135292	342.1	5.7	-68.2	0.0
2026-01-29 18:28:56.377815	342.1	5.5	-70.5	0.0
2026-01-29 18:28:58.621835	342.1	5.4	-70.7	0.0
2026-01-29 18:29:00.866848	342.2	5.2	-71.4	0.0
2026-01-29 18:29:03.109372	342.2	5.1	-72.5	0.0
#Closed at: 2026-01-29 18:16:05.233292