passes_logs/2026/01/29/PlanumMoscow/PlanumMoscow__20260129_064223_METEOR-M2_3_rec.log

#Pass ID: 20260129_064223_METEOR-M2 3
#Satellite: METEOR-M2 3
#Configuration: METEOR-M2 3
#Start time: 2026-01-29 06:42:28.775262

#LorettStation: 1.0.0 05.05.2024
#Station: PlanumMoscow
#Location: 37.6253844 lon 55.6713361 lat
#TLE: 1 57166U 23091A   25293.99389264  .00000062  00000+0  46113-4 0  9997
#TLE: 2 57166  98.6457 348.4330 0004759 135.3141 224.8422 14.24016546120475

#Time	Az	El	Level	SNR
2026-01-29 06:46:07.190347	41.9	26.0	-60.8	7.1
2026-01-29 06:46:09.433367	42.3	26.3	-60.7	6.3
2026-01-29 06:46:11.676387	42.7	26.6	-61.1	5.4
2026-01-29 06:46:13.920398	43.2	26.9	-62.6	7.6
2026-01-29 06:46:16.164904	43.6	27.2	-62.7	8.2
2026-01-29 06:46:18.408421	44.0	27.5	-61.7	7.3
2026-01-29 06:46:20.651440	44.5	27.8	-62.3	7.4
2026-01-29 06:46:22.895450	44.9	28.2	-62.2	6.9
2026-01-29 06:46:25.139462	45.4	28.5	-61.8	7.5
2026-01-29 06:46:27.381986	45.8	28.8	-61.6	4.2
2026-01-29 06:46:29.625006	46.3	29.1	-61.8	6.8
2026-01-29 06:46:31.868025	46.8	29.4	-63.9	8.6
2026-01-29 06:46:34.112532	47.3	29.8	-63.4	10.1
2026-01-29 06:46:36.358552	47.8	30.1	-64.3	10.5
2026-01-29 06:46:38.602564	48.3	30.4	-63.5	8.8
2026-01-29 06:46:40.847079	48.9	30.8	-63.0	8.5
2026-01-29 06:46:43.090595	49.4	31.1	-62.4	5.4
2026-01-29 06:46:45.334606	50.0	31.4	-62.1	6.0
2026-01-29 06:46:47.578625	50.5	31.8	-62.8	7.0
2026-01-29 06:46:49.821645	51.1	32.1	-62.8	7.6
2026-01-29 06:46:52.064169	51.7	32.4	-62.4	6.9
2026-01-29 06:46:54.308189	52.3	32.8	-63.6	7.7
2026-01-29 06:46:56.551208	52.9	33.1	-62.5	6.8
2026-01-29 06:46:58.793741	53.5	33.4	-62.8	8.5
2026-01-29 06:47:01.037751	54.2	33.8	-62.1	7.5
2026-01-29 06:47:03.280771	54.8	34.1	-61.4	5.8
2026-01-29 06:47:05.524783	55.5	34.4	-62.3	8.5
2026-01-29 06:47:07.773803	56.1	34.8	-61.9	6.3
2026-01-29 06:47:10.017815	56.8	35.1	-61.4	5.0
2026-01-29 06:47:12.261330	57.5	35.4	-61.9	6.1
2026-01-29 06:47:14.505836	58.3	35.8	-61.8	6.7
2026-01-29 06:47:16.749848	59.0	36.1	-61.2	5.9
2026-01-29 06:47:18.995861	59.7	36.4	-61.6	6.2
2026-01-29 06:47:21.238385	60.5	36.8	-60.5	5.7
2026-01-29 06:47:23.481405	61.3	37.1	-60.3	3.0
2026-01-29 06:47:25.725912	62.1	37.4	-61.7	7.2
2026-01-29 06:47:27.968931	62.9	37.7	-60.4	4.6
2026-01-29 06:47:30.212454	63.7	38.0	-59.6	1.4
2026-01-29 06:47:32.456473	64.5	38.4	-60.3	3.3
2026-01-29 06:47:34.698997	65.4	38.7	-60.5	3.4
2026-01-29 06:47:36.939546	66.3	39.0	-60.9	4.0
2026-01-29 06:47:39.187567	67.2	39.3	-61.2	5.8
2026-01-29 06:47:41.432074	68.1	39.6	-59.8	5.1
2026-01-29 06:47:43.676590	69.0	39.8	-61.9	7.1
2026-01-29 06:47:45.920601	69.9	40.1	-60.2	0.0
2026-01-29 06:47:48.163628	70.9	40.4	-61.0	5.0
2026-01-29 06:47:50.408135	71.9	40.7	-59.8	5.0
2026-01-29 06:47:52.655658	72.8	40.9	-60.2	2.6
2026-01-29 06:47:54.901704	73.8	41.2	-60.0	2.3
2026-01-29 06:47:57.146210	74.9	41.4	-61.3	4.9
2026-01-29 06:47:59.391222	75.9	41.7	-59.2	2.5
2026-01-29 06:48:01.642235	76.9	41.9	-62.2	3.3
2026-01-29 06:48:03.886777	78.0	42.1	-63.0	7.3
2026-01-29 06:48:06.132293	79.1	42.3	-62.1	6.0
2026-01-29 06:48:08.375808	80.2	42.5	-62.3	6.5
2026-01-29 06:48:10.620324	81.3	42.7	-62.5	9.2
2026-01-29 06:48:12.864334	82.4	42.9	-62.0	3.7
2026-01-29 06:48:15.111850	83.5	43.1	-62.5	3.7
2026-01-29 06:48:17.356358	84.7	43.2	-63.4	8.0
2026-01-29 06:48:19.600368	85.8	43.4	-63.7	8.9
2026-01-29 06:48:21.844875	87.0	43.5	-62.7	6.2
2026-01-29 06:48:24.088886	88.1	43.6	-64.3	6.7
2026-01-29 06:48:26.333393	89.3	43.7	-64.2	8.3
2026-01-29 06:48:28.577900	90.5	43.8	-64.1	6.0
2026-01-29 06:48:30.828409	91.7	43.9	-64.5	7.6
2026-01-29 06:48:33.072420	92.9	43.9	-64.8	7.8
2026-01-29 06:48:35.316927	94.1	44.0	-64.6	8.0
2026-01-29 06:48:37.560938	95.3	44.0	-64.6	6.7
2026-01-29 06:48:39.808951	96.5	44.1	-65.0	8.3
2026-01-29 06:48:42.054962	97.7	44.1	-64.7	7.4
2026-01-29 06:48:44.298974	98.9	44.1	-64.9	8.2
2026-01-29 06:48:46.542985	100.1	44.1	-65.0	9.3
2026-01-29 06:48:48.790492	101.4	44.0	-64.7	9.0
2026-01-29 06:48:51.034999	102.6	44.0	-64.7	9.2
2026-01-29 06:48:53.279506	103.8	43.9	-63.3	7.6
2026-01-29 06:48:55.524013	105.0	43.9	-65.3	9.3
2026-01-29 06:48:57.769024	106.2	43.8	-64.9	7.5
2026-01-29 06:49:00.013035	107.3	43.7	-65.1	9.1
2026-01-29 06:49:02.257542	108.5	43.6	-64.6	8.4
2026-01-29 06:49:04.501553	109.7	43.4	-65.8	7.7
2026-01-29 06:49:06.746060	110.8	43.3	-66.0	10.2
2026-01-29 06:49:08.993072	112.0	43.2	-65.3	9.4
2026-01-29 06:49:11.237083	113.1	43.0	-65.3	10.6
2026-01-29 06:49:13.481590	114.3	42.8	-64.7	8.5
2026-01-29 06:49:15.725601	115.4	42.6	-62.9	8.2
2026-01-29 06:49:17.970108	116.5	42.4	-64.2	8.9
2026-01-29 06:49:20.216616	117.6	42.2	-65.3	10.6
2026-01-29 06:49:22.461122	118.6	42.0	-64.3	9.2
2026-01-29 06:49:24.705629	119.7	41.8	-64.9	7.8
2026-01-29 06:49:26.949144	120.7	41.6	-65.4	9.1
2026-01-29 06:49:29.193155	121.8	41.3	-64.6	8.5
2026-01-29 06:49:31.440167	122.8	41.1	-64.9	9.2
2026-01-29 06:49:33.684674	123.8	40.8	-64.6	10.2
2026-01-29 06:49:35.933686	124.8	40.6	-66.3	12.5
2026-01-29 06:49:38.178193	125.7	40.3	-65.1	12.4
2026-01-29 06:49:40.422700	126.7	40.0	-65.5	12.5
2026-01-29 06:49:42.666216	127.6	39.7	-64.8	9.9
2026-01-29 06:49:44.911227	128.6	39.4	-64.9	12.7
2026-01-29 06:49:47.155734	129.5	39.1	-65.7	11.7
2026-01-29 06:49:49.399744	130.3	38.8	-65.6	9.4
2026-01-29 06:49:51.644251	131.2	38.5	-65.5	11.3
2026-01-29 06:49:53.888758	132.1	38.2	-65.9	11.9
2026-01-29 06:49:56.133770	132.9	37.9	-65.8	11.6
2026-01-29 06:49:58.377791	133.7	37.6	-66.1	11.7
2026-01-29 06:50:00.622297	134.5	37.3	-65.8	13.3
2026-01-29 06:50:02.867804	135.3	36.9	-65.2	12.0
2026-01-29 06:50:05.113817	136.1	36.6	-66.0	13.8
2026-01-29 06:50:07.363324	136.9	36.3	-66.0	13.2
2026-01-29 06:50:09.607831	137.6	35.9	-65.6	13.8
2026-01-29 06:50:11.852843	138.3	35.6	-66.0	12.7
2026-01-29 06:50:14.099854	139.1	35.3	-65.4	11.7
2026-01-29 06:50:16.343865	139.8	34.9	-65.7	13.0
2026-01-29 06:50:18.588372	140.4	34.6	-65.9	12.9
2026-01-29 06:50:20.832879	141.1	34.3	-65.7	12.1
2026-01-29 06:50:23.080395	141.8	33.9	-65.7	13.2
2026-01-29 06:50:25.324902	142.4	33.6	-65.7	13.2
2026-01-29 06:50:27.569409	143.1	33.2	-66.0	14.3
2026-01-29 06:50:29.812926	143.7	32.9	-66.1	14.2
2026-01-29 06:50:32.063434	144.3	32.6	-65.9	13.4
2026-01-29 06:50:34.307941	144.9	32.2	-65.8	14.5
2026-01-29 06:50:36.552448	145.5	31.9	-65.8	13.8
2026-01-29 06:50:38.798460	146.0	31.6	-66.3	15.4
2026-01-29 06:50:41.044968	146.6	31.2	-66.1	15.0
2026-01-29 06:50:43.288979	147.2	30.9	-66.0	13.6
2026-01-29 06:50:45.532990	147.7	30.6	-65.3	11.9
2026-01-29 06:50:47.777497	148.2	30.2	-66.1	13.7
2026-01-29 06:50:50.022004	148.7	29.9	-66.0	14.4
2026-01-29 06:50:52.266511	149.2	29.6	-66.2	14.8
2026-01-29 06:50:54.510522	149.7	29.2	-66.2	14.6
2026-01-29 06:50:56.754533	150.2	28.9	-66.4	14.5
2026-01-29 06:50:58.998544	150.7	28.6	-66.5	14.4
2026-01-29 06:51:01.242555	151.2	28.3	-66.5	14.4
2026-01-29 06:51:03.487062	151.6	27.9	-66.5	15.1
2026-01-29 06:51:05.731568	152.1	27.6	-60.4	0.0
2026-01-29 06:51:07.976075	152.5	27.3	-60.4	0.0
2026-01-29 06:51:10.219590	153.0	27.0	-60.4	0.0
2026-01-29 06:51:12.464097	153.4	26.7	-60.6	0.0
2026-01-29 06:51:14.708604	153.8	26.4	-64.5	7.1
2026-01-29 06:51:16.952615	154.2	26.0	-63.6	7.3
2026-01-29 06:51:19.199122	154.6	25.7	-63.7	7.2
2026-01-29 06:51:21.443629	155.0	25.4	-63.7	7.8
2026-01-29 06:51:23.688136	155.4	25.1	-63.8	8.2
2026-01-29 06:51:25.935148	155.8	24.8	-63.6	8.1
2026-01-29 06:51:28.179654	156.1	24.5	-63.5	8.4
2026-01-29 06:51:30.424161	156.5	24.2	-63.6	8.6
2026-01-29 06:51:32.667676	156.8	23.9	-63.8	8.4
2026-01-29 06:51:34.912183	157.2	23.6	-63.6	8.5
2026-01-29 06:51:37.156690	157.5	23.4	-63.9	8.6
2026-01-29 06:51:39.400701	157.9	23.1	-64.0	8.7
2026-01-29 06:51:41.649713	158.2	22.8	-63.9	8.1
2026-01-29 06:51:43.894220	158.5	22.5	-64.0	8.4
2026-01-29 06:51:46.138727	158.9	22.2	-63.9	8.3
2026-01-29 06:51:48.382739	159.2	21.9	-65.9	13.5
2026-01-29 06:51:50.627246	159.5	21.7	-66.0	13.1
2026-01-29 06:51:52.871753	159.8	21.4	-66.4	13.1
2026-01-29 06:51:55.116269	160.1	21.1	-66.3	12.6
2026-01-29 06:51:57.360776	160.4	20.8	-65.8	12.2
2026-01-29 06:51:59.605786	160.7	20.6	-66.2	11.8
2026-01-29 06:52:01.850293	161.0	20.3	-66.4	11.4
2026-01-29 06:52:04.094304	161.2	20.0	-66.1	12.9
2026-01-29 06:52:06.339316	161.5	19.8	-66.3	12.6
2026-01-29 06:52:08.583823	161.8	19.5	-66.1	12.5
2026-01-29 06:52:10.828330	162.1	19.3	-66.4	12.7
2026-01-29 06:52:13.073837	162.3	19.0	-66.4	12.6
2026-01-29 06:52:15.319344	162.6	18.8	-66.4	12.6
2026-01-29 06:52:17.566851	162.8	18.5	-65.9	11.7
2026-01-29 06:52:19.811864	163.1	18.3	-66.3	12.3
2026-01-29 06:52:22.057875	163.3	18.0	-66.8	12.1
2026-01-29 06:52:24.302382	163.6	17.8	-66.5	12.6
2026-01-29 06:52:26.546889	163.8	17.5	-66.6	12.2
2026-01-29 06:52:28.792901	164.0	17.3	-66.3	12.6
2026-01-29 06:52:31.038408	164.3	17.0	-65.8	11.4
2026-01-29 06:52:33.282458	164.5	16.8	-66.4	12.0
2026-01-29 06:52:35.526965	164.7	16.6	-66.6	12.7
2026-01-29 06:52:37.775980	164.9	16.3	-66.0	11.9
2026-01-29 06:52:40.020549	165.2	16.1	-66.6	11.9
2026-01-29 06:52:42.264567	165.4	15.9	-66.7	11.8
2026-01-29 06:52:44.511115	165.6	15.6	-66.7	11.8
2026-01-29 06:52:46.755678	165.8	15.4	-66.3	12.1
2026-01-29 06:52:49.000201	166.0	15.2	-66.6	12.5
2026-01-29 06:52:51.289742	166.2	15.0	-66.3	12.2
2026-01-29 06:52:53.534249	166.4	14.7	-65.8	11.4
2026-01-29 06:52:55.779765	166.6	14.5	-66.0	11.6
2026-01-29 06:52:58.025313	166.8	14.3	-66.1	11.1
2026-01-29 06:53:00.269355	167.0	14.1	-66.1	11.1
2026-01-29 06:53:02.513367	167.2	13.9	-65.4	10.3
2026-01-29 06:53:04.757881	167.4	13.7	-65.9	11.3
2026-01-29 06:53:07.006893	167.5	13.5	-65.8	10.8
2026-01-29 06:53:09.251438	167.7	13.2	-66.2	11.5
2026-01-29 06:53:11.495945	167.9	13.0	-65.8	10.7
2026-01-29 06:53:13.739995	168.1	12.8	-65.4	9.0
2026-01-29 06:53:15.985007	168.3	12.6	-64.9	10.0
2026-01-29 06:53:18.229513	168.4	12.4	-65.6	10.3
2026-01-29 06:53:20.474061	168.6	12.2	-66.2	10.1
2026-01-29 06:53:22.719120	168.8	12.0	-65.8	10.9
2026-01-29 06:53:24.963627	168.9	11.8	-66.0	10.6
2026-01-29 06:53:27.208142	169.1	11.6	-66.0	9.6
2026-01-29 06:53:29.451689	169.2	11.4	-66.0	10.2
2026-01-29 06:53:31.696204	169.4	11.2	-66.1	10.4
2026-01-29 06:53:33.940711	169.6	11.0	-65.9	9.7
2026-01-29 06:53:36.184753	169.7	10.9	-65.9	9.3
2026-01-29 06:53:38.433773	169.9	10.7	-66.0	10.1
2026-01-29 06:53:40.677815	170.0	10.5	-66.2	10.1
2026-01-29 06:53:42.922321	170.2	10.3	-66.3	9.4
2026-01-29 06:53:45.166332	170.3	10.1	-65.8	8.6
2026-01-29 06:53:47.410343	170.5	9.9	-65.8	7.8
2026-01-29 06:53:49.654850	170.6	9.7	-66.0	7.9
2026-01-29 06:53:51.898391	170.7	9.5	-65.8	8.6
2026-01-29 06:53:54.142409	170.9	9.4	-65.8	9.0
2026-01-29 06:53:56.401957	171.0	9.2	-65.6	8.5
2026-01-29 06:53:58.646464	171.2	9.0	-65.8	8.5
2026-01-29 06:54:00.890475	171.3	8.8	-65.5	8.7
2026-01-29 06:54:03.133992	171.4	8.7	-66.1	8.1
2026-01-29 06:54:05.376545	171.6	8.5	-66.1	9.4
2026-01-29 06:54:07.619565	171.7	8.3	-65.8	7.7
2026-01-29 06:54:09.864080	171.8	8.1	-65.7	7.9
2026-01-29 06:54:12.107109	171.9	8.0	-64.7	6.9
2026-01-29 06:54:14.350664	172.1	7.8	-65.9	7.0
2026-01-29 06:54:16.592709	172.2	7.6	-65.4	6.9
2026-01-29 06:54:18.836751	172.3	7.4	-65.5	6.4
2026-01-29 06:54:21.079324	172.4	7.3	-65.5	8.3
2026-01-29 06:54:23.321888	172.6	7.1	-65.8	7.7
2026-01-29 06:54:25.565412	172.7	6.9	-65.6	8.5
2026-01-29 06:54:27.810456	172.8	6.8	-65.7	7.3
2026-01-29 06:54:30.054963	172.9	6.6	-65.8	7.6
2026-01-29 06:54:32.299482	173.0	6.4	-65.4	6.4
2026-01-29 06:54:34.543044	173.1	6.3	-65.1	7.4
2026-01-29 06:54:36.787560	173.3	6.1	-65.5	6.4
2026-01-29 06:54:39.032604	173.4	6.0	-67.9	3.4
2026-01-29 06:54:41.277111	173.5	5.8	-70.0	0.0
2026-01-29 06:54:43.525664	173.6	5.6	-68.5	0.0
2026-01-29 06:54:45.772172	173.7	5.5	-70.3	0.0
2026-01-29 06:54:48.016679	173.8	5.3	-71.1	0.0
2026-01-29 06:54:50.260236	173.9	5.2	-71.8	0.0
2026-01-29 06:54:52.506744	174.0	5.0	-71.9	0.0
#Closed at: 2026-01-29 06:42:23.776643