passes_logs/2026/01/29/PlanumMoscow/PlanumMoscow__20260129_013406_METEOR-M2_4_rec.log

#Pass ID: 20260129_013406_METEOR-M2 4
#Satellite: METEOR-M2 4
#Configuration: METEOR-M2 4
#Start time: 2026-01-29 01:34:11.396502

#LorettStation: 1.0.0 05.05.2024
#Station: PlanumMoscow
#Location: 37.6253844 lon 55.6713361 lat
#TLE: 1 59051U 24039A   25293.94737965  .00000087  00000+0  58459-4 0  9998
#TLE: 2 59051  98.6671 251.7071 0007726 135.4772 224.7028 14.22388966 85257

#Time	Az	El	Level	SNR
2026-01-29 01:37:49.822511	359.8	28.0	-51.9	0.0
2026-01-29 01:37:52.067027	359.5	28.3	-52.0	0.0
2026-01-29 01:37:54.312048	359.2	28.7	-52.3	0.0
2026-01-29 01:37:56.560078	358.9	29.1	-52.6	0.0
2026-01-29 01:37:58.803099	358.6	29.5	-52.9	0.0
2026-01-29 01:38:01.046120	358.3	29.9	-52.6	0.0
2026-01-29 01:38:03.291650	357.9	30.2	-52.6	0.0
2026-01-29 01:38:05.536144	357.6	30.6	-52.5	0.0
2026-01-29 01:38:07.779667	357.2	31.0	-52.7	0.0
2026-01-29 01:38:10.024174	356.9	31.4	-52.9	0.0
2026-01-29 01:38:12.271208	356.5	31.9	-52.8	0.0
2026-01-29 01:38:14.515712	356.1	32.3	-52.7	0.0
2026-01-29 01:38:16.759732	355.7	32.7	-52.6	0.0
2026-01-29 01:38:19.006248	355.3	33.1	-53.2	0.0
2026-01-29 01:38:21.249765	354.9	33.5	-53.4	0.0
2026-01-29 01:38:23.493280	354.5	33.9	-53.6	0.0
2026-01-29 01:38:25.737787	354.1	34.4	-53.6	0.0
2026-01-29 01:38:27.983808	353.6	34.8	-53.6	0.0
2026-01-29 01:38:30.228315	353.2	35.3	-53.9	0.0
2026-01-29 01:38:32.471337	352.7	35.7	-53.8	0.0
2026-01-29 01:38:34.715348	352.2	36.1	-54.1	0.0
2026-01-29 01:38:36.958865	351.7	36.6	-54.7	0.0
2026-01-29 01:38:39.201885	351.2	37.1	-54.8	0.0
2026-01-29 01:38:41.446392	350.7	37.5	-54.7	0.0
2026-01-29 01:38:43.689916	350.1	38.0	-54.8	0.0
2026-01-29 01:38:45.932441	349.6	38.4	-55.0	0.0
2026-01-29 01:38:48.176453	349.0	38.9	-55.4	0.0
2026-01-29 01:38:50.420464	348.4	39.4	-55.6	0.0
2026-01-29 01:38:52.663483	347.8	39.9	-55.5	0.0
2026-01-29 01:38:54.906999	347.2	40.3	-55.9	0.0
2026-01-29 01:38:57.151011	346.5	40.8	-56.2	0.0
2026-01-29 01:38:59.394527	345.9	41.3	-56.4	0.0
2026-01-29 01:39:01.637051	345.2	41.8	-56.5	0.0
2026-01-29 01:39:03.880567	344.5	42.3	-56.6	0.3
2026-01-29 01:39:06.125073	343.8	42.8	-56.7	0.0
2026-01-29 01:39:08.369589	343.0	43.3	-57.1	0.1
2026-01-29 01:39:10.618116	342.2	43.8	-57.2	1.2
2026-01-29 01:39:12.861631	341.4	44.2	-57.3	1.1
2026-01-29 01:39:15.103661	340.6	44.7	-57.3	0.7
2026-01-29 01:39:17.349698	339.7	45.2	-57.7	0.3
2026-01-29 01:39:19.593215	338.9	45.7	-58.2	0.7
2026-01-29 01:39:21.836730	338.0	46.2	-58.5	1.1
2026-01-29 01:39:24.080259	337.0	46.7	-58.6	1.1
2026-01-29 01:39:26.324784	336.1	47.2	-58.6	2.0
2026-01-29 01:39:28.569291	335.1	47.7	-58.7	2.1
2026-01-29 01:39:30.813303	334.0	48.1	-58.8	2.4
2026-01-29 01:39:33.061819	333.0	48.6	-59.1	2.4
2026-01-29 01:39:35.306335	331.9	49.1	-59.7	2.9
2026-01-29 01:39:37.549355	330.8	49.5	-59.9	3.2
2026-01-29 01:39:39.793862	329.6	50.0	-59.8	3.1
2026-01-29 01:39:42.036883	328.4	50.4	-59.7	2.8
2026-01-29 01:39:44.279912	327.2	50.8	-59.9	2.6
2026-01-29 01:39:46.523429	325.9	51.2	-60.1	2.5
2026-01-29 01:39:48.769955	324.6	51.7	-60.1	2.5
2026-01-29 01:39:51.015462	323.3	52.1	-60.0	3.2
2026-01-29 01:39:53.258483	321.9	52.4	-60.1	2.6
2026-01-29 01:39:55.502999	320.5	52.8	-60.3	2.1
2026-01-29 01:39:57.746020	319.0	53.2	-60.2	2.5
2026-01-29 01:39:59.989536	317.6	53.5	-60.1	1.7
2026-01-29 01:40:02.233051	316.0	53.8	-59.9	2.1
2026-01-29 01:40:04.477076	314.5	54.1	-60.0	0.9
2026-01-29 01:40:06.722601	312.9	54.4	-59.9	1.6
2026-01-29 01:40:08.965130	311.3	54.6	-59.9	1.1
2026-01-29 01:40:11.210141	309.7	54.9	-59.8	0.6
2026-01-29 01:40:13.454648	308.0	55.1	-59.7	0.8
2026-01-29 01:40:15.698669	306.3	55.3	-59.6	0.6
2026-01-29 01:40:17.942184	304.6	55.4	-60.0	0.0
2026-01-29 01:40:20.186700	302.9	55.6	-60.1	0.0
2026-01-29 01:40:22.430216	301.2	55.7	-60.1	0.0
2026-01-29 01:40:24.674227	299.4	55.8	-59.9	0.1
2026-01-29 01:40:26.917764	297.6	55.9	-59.8	0.6
2026-01-29 01:40:29.164785	295.9	55.9	-59.9	0.0
2026-01-29 01:40:31.408305	294.1	55.9	-59.9	0.0
2026-01-29 01:40:33.652812	292.3	55.9	-60.3	0.0
2026-01-29 01:40:35.897824	290.5	55.8	-60.9	0.0
2026-01-29 01:40:38.141349	288.8	55.8	-60.7	0.0
2026-01-29 01:40:40.384370	287.0	55.7	-60.4	0.0
2026-01-29 01:40:42.625903	285.3	55.5	-60.5	0.0
2026-01-29 01:40:44.869420	283.6	55.4	-60.6	0.0
2026-01-29 01:40:47.113925	281.9	55.2	-61.0	0.0
2026-01-29 01:40:49.357441	280.2	55.0	-60.7	0.0
2026-01-29 01:40:51.600460	278.5	54.8	-60.9	0.3
2026-01-29 01:40:53.844480	276.9	54.6	-61.4	0.0
2026-01-29 01:40:56.088987	275.3	54.3	-61.8	0.0
2026-01-29 01:40:58.332998	273.7	54.0	-61.6	0.0
2026-01-29 01:41:00.575031	272.2	53.7	-61.9	0.0
2026-01-29 01:41:02.818547	270.7	53.4	-62.1	0.8
2026-01-29 01:41:05.059574	269.2	53.0	-62.3	1.8
2026-01-29 01:41:07.303089	267.8	52.7	-62.2	2.9
2026-01-29 01:41:09.546117	266.4	52.3	-62.4	3.8
2026-01-29 01:41:11.788137	265.0	51.9	-62.1	3.2
2026-01-29 01:41:14.031148	263.7	51.5	-62.3	4.8
2026-01-29 01:41:16.275159	262.4	51.1	-62.6	4.4
2026-01-29 01:41:18.518673	261.1	50.7	-62.9	3.2
2026-01-29 01:41:20.762685	259.9	50.2	-63.2	2.6
2026-01-29 01:41:23.006200	258.7	49.8	-62.9	3.0
2026-01-29 01:41:25.255212	257.6	49.3	-62.3	2.7
2026-01-29 01:41:27.499222	256.4	48.9	-63.1	3.7
2026-01-29 01:41:29.742243	255.3	48.4	-62.7	3.8
2026-01-29 01:41:31.985759	254.3	47.9	-63.0	4.3
2026-01-29 01:41:34.229275	253.3	47.5	-63.1	6.1
2026-01-29 01:41:36.473286	252.3	47.0	-63.6	5.6
2026-01-29 01:41:38.722298	251.3	46.5	-63.4	5.9
2026-01-29 01:41:40.966813	250.4	46.0	-63.4	6.0
2026-01-29 01:41:43.207841	249.5	45.5	-63.8	6.8
2026-01-29 01:41:45.451357	248.6	45.0	-63.5	6.4
2026-01-29 01:41:47.693378	247.8	44.5	-63.8	7.0
2026-01-29 01:41:49.935406	247.0	44.0	-63.7	6.7
2026-01-29 01:41:52.179417	246.2	43.5	-64.1	7.7
2026-01-29 01:41:54.426429	245.4	43.1	-63.8	7.9
2026-01-29 01:41:56.669458	244.6	42.6	-63.7	7.2
2026-01-29 01:41:58.913479	243.9	42.1	-63.9	6.9
2026-01-29 01:42:01.158491	243.2	41.6	-63.8	8.7
2026-01-29 01:42:03.402503	242.5	41.1	-63.6	7.2
2026-01-29 01:42:05.647009	241.9	40.6	-64.4	8.0
2026-01-29 01:42:07.890526	241.2	40.1	-65.0	9.9
2026-01-29 01:42:10.139556	240.6	39.6	-65.5	9.9
2026-01-29 01:42:12.381576	240.0	39.2	-64.7	10.9
2026-01-29 01:42:14.626082	239.4	38.7	-65.7	9.3
2026-01-29 01:42:16.868109	238.8	38.2	-66.3	9.4
2026-01-29 01:42:19.110634	238.3	37.7	-65.7	9.1
2026-01-29 01:42:21.354150	237.7	37.3	-63.0	10.2
2026-01-29 01:42:23.597665	237.2	36.8	-65.8	11.1
2026-01-29 01:42:25.846184	236.7	36.4	-65.9	11.5
2026-01-29 01:42:28.090193	236.2	35.9	-63.2	8.4
2026-01-29 01:42:30.334204	235.7	35.5	-64.3	10.3
2026-01-29 01:42:32.577226	235.3	35.0	-64.9	12.0
2026-01-29 01:42:34.819741	234.8	34.6	-65.1	11.6
2026-01-29 01:42:37.061760	234.4	34.1	-65.2	11.0
2026-01-29 01:42:39.305267	233.9	33.7	-65.3	12.7
2026-01-29 01:42:41.549278	233.5	33.3	-64.7	10.6
2026-01-29 01:42:43.792290	233.1	32.8	-65.2	12.1
2026-01-29 01:42:46.034311	232.7	32.4	-66.1	12.9
2026-01-29 01:42:48.277826	232.3	32.0	-64.4	9.4
2026-01-29 01:42:50.520846	231.9	31.6	-65.2	12.5
2026-01-29 01:42:52.763361	231.6	31.2	-65.0	12.0
2026-01-29 01:42:55.006876	231.2	30.8	-64.5	10.4
2026-01-29 01:42:57.249896	230.9	30.4	-63.9	9.7
2026-01-29 01:42:59.493411	230.5	30.0	-65.0	11.5
2026-01-29 01:43:01.737423	230.2	29.6	-64.5	8.5
2026-01-29 01:43:03.981434	229.9	29.2	-65.3	11.6
2026-01-29 01:43:06.230951	229.5	28.8	-65.1	9.8
2026-01-29 01:43:08.473467	229.2	28.4	-64.6	10.4
2026-01-29 01:43:10.717478	228.9	28.1	-64.7	11.2
2026-01-29 01:43:12.960499	228.6	27.7	-64.0	10.5
2026-01-29 01:43:15.202015	228.4	27.3	-63.3	8.3
2026-01-29 01:43:17.445521	228.1	27.0	-64.6	10.7
2026-01-29 01:43:19.689532	227.8	26.6	-64.6	9.3
2026-01-29 01:43:21.935553	227.5	26.3	-64.6	10.0
2026-01-29 01:43:24.179564	227.3	25.9	-63.4	9.1
2026-01-29 01:43:26.420593	227.0	25.6	-64.2	10.0
2026-01-29 01:43:28.664110	226.8	25.2	-63.8	9.7
2026-01-29 01:43:30.907626	226.5	24.9	-64.0	9.3
2026-01-29 01:43:33.149645	226.3	24.6	-63.9	9.3
2026-01-29 01:43:35.391168	226.0	24.2	-63.5	8.9
2026-01-29 01:43:37.634683	225.8	23.9	-64.2	10.2
2026-01-29 01:43:39.877703	225.6	23.6	-63.9	9.9
2026-01-29 01:43:42.118731	225.4	23.3	-63.8	8.7
2026-01-29 01:43:44.362246	225.1	22.9	-64.6	10.1
2026-01-29 01:43:46.604257	224.9	22.6	-64.7	9.8
2026-01-29 01:43:48.846763	224.7	22.3	-64.2	9.9
2026-01-29 01:43:51.090269	224.5	22.0	-64.4	9.9
2026-01-29 01:43:53.335281	224.3	21.7	-64.6	10.1
2026-01-29 01:43:55.580796	224.1	21.4	-64.6	10.9
2026-01-29 01:43:57.825313	223.9	21.1	-65.0	11.2
2026-01-29 01:44:00.073334	223.7	20.8	-64.1	9.2
2026-01-29 01:44:02.317345	223.5	20.5	-64.4	10.4
2026-01-29 01:44:04.561356	223.4	20.2	-64.8	10.5
2026-01-29 01:44:06.804378	223.2	20.0	-64.8	10.8
2026-01-29 01:44:09.047903	223.0	19.7	-64.5	9.6
2026-01-29 01:44:11.289418	222.8	19.4	-64.3	9.3
2026-01-29 01:44:13.532933	222.7	19.1	-64.1	8.6
2026-01-29 01:44:15.776945	222.5	18.9	-63.9	9.3
2026-01-29 01:44:18.021451	222.4	18.6	-63.9	8.2
2026-01-29 01:44:20.263967	222.2	18.3	-63.3	7.3
2026-01-29 01:44:22.507483	222.0	18.0	-63.3	7.0
2026-01-29 01:44:24.751503	221.9	17.8	-62.8	7.2
2026-01-29 01:44:26.995032	221.7	17.5	-62.9	6.1
2026-01-29 01:44:29.238052	221.6	17.3	-62.6	6.7
2026-01-29 01:44:31.481568	221.4	17.0	-62.9	6.0
2026-01-29 01:44:33.724587	221.3	16.8	-62.9	5.9
2026-01-29 01:44:35.968598	221.2	16.5	-62.5	6.1
2026-01-29 01:44:38.212113	221.0	16.3	-62.8	6.3
2026-01-29 01:44:40.455629	220.9	16.0	-63.2	6.4
2026-01-29 01:44:42.698154	220.8	15.8	-63.5	6.0
2026-01-29 01:44:44.942689	220.6	15.5	-63.2	6.7
2026-01-29 01:44:47.185708	220.5	15.3	-63.2	6.3
2026-01-29 01:44:49.427738	220.4	15.1	-63.3	6.4
2026-01-29 01:44:51.669758	220.2	14.8	-63.6	7.2
2026-01-29 01:44:53.912283	220.1	14.6	-63.6	7.5
2026-01-29 01:44:56.155303	220.0	14.4	-63.4	7.0
2026-01-29 01:44:58.399314	219.9	14.1	-64.1	7.9
2026-01-29 01:45:00.642830	219.8	13.9	-64.2	7.8
2026-01-29 01:45:02.887842	219.6	13.7	-64.3	7.9
2026-01-29 01:45:05.135854	219.5	13.5	-64.3	7.7
2026-01-29 01:45:07.379865	219.4	13.2	-64.6	8.3
2026-01-29 01:45:09.624877	219.3	13.0	-64.6	8.9
2026-01-29 01:45:11.870888	219.2	12.8	-65.0	8.9
2026-01-29 01:45:14.115404	219.1	12.6	-65.1	9.0
2026-01-29 01:45:16.358920	219.0	12.4	-65.7	9.6
2026-01-29 01:45:18.601939	218.9	12.2	-65.9	10.2
2026-01-29 01:45:20.845949	218.8	12.0	-66.0	10.1
2026-01-29 01:45:23.090961	218.7	11.8	-66.2	11.1
2026-01-29 01:45:25.334477	218.6	11.6	-66.3	10.7
2026-01-29 01:45:27.577001	218.5	11.3	-66.5	10.7
2026-01-29 01:45:29.821013	218.4	11.1	-66.9	10.5
2026-01-29 01:45:32.064032	218.3	10.9	-65.6	9.7
2026-01-29 01:45:34.309556	218.2	10.7	-66.6	11.4
2026-01-29 01:45:36.553567	218.1	10.5	-66.5	11.2
2026-01-29 01:45:38.797083	218.0	10.4	-66.5	10.1
2026-01-29 01:45:41.040598	217.9	10.2	-66.4	10.3
2026-01-29 01:45:43.283618	217.9	10.0	-66.2	10.1
2026-01-29 01:45:45.527134	217.8	9.8	-66.2	10.1
2026-01-29 01:45:47.770649	217.7	9.6	-66.3	9.8
2026-01-29 01:45:50.013173	217.6	9.4	-66.5	9.6
2026-01-29 01:45:52.256193	217.5	9.2	-66.6	10.6
2026-01-29 01:45:54.499213	217.4	9.0	-65.5	8.0
2026-01-29 01:45:56.742729	217.4	8.8	-65.9	9.1
2026-01-29 01:45:58.991246	217.3	8.7	-67.2	10.1
2026-01-29 01:46:01.234761	217.2	8.5	-67.3	10.3
2026-01-29 01:46:03.479268	217.1	8.3	-67.0	11.2
2026-01-29 01:46:05.725785	217.0	8.1	-67.4	10.5
2026-01-29 01:46:07.970796	217.0	7.9	-66.1	8.7
2026-01-29 01:46:10.214321	216.9	7.8	-66.7	10.0
2026-01-29 01:46:12.457342	216.8	7.6	-66.7	9.2
2026-01-29 01:46:14.701867	216.7	7.4	-66.4	9.8
2026-01-29 01:46:16.945878	216.7	7.2	-66.2	8.4
2026-01-29 01:46:19.189889	216.6	7.1	-65.9	7.0
2026-01-29 01:46:21.435414	216.5	6.9	-65.5	7.9
2026-01-29 01:46:23.678446	216.5	6.7	-65.0	6.9
2026-01-29 01:46:25.921962	216.4	6.5	-65.0	5.4
2026-01-29 01:46:28.164488	216.3	6.4	-65.0	4.9
2026-01-29 01:46:30.410500	216.3	6.2	-64.7	4.5
2026-01-29 01:46:32.653519	216.2	6.0	-65.1	5.8
2026-01-29 01:46:34.898035	216.1	5.9	-69.1	0.0
2026-01-29 01:46:37.140560	216.1	5.7	-66.6	0.0
2026-01-29 01:46:39.383581	216.0	5.5	-69.6	0.0
2026-01-29 01:46:41.627593	215.9	5.4	-70.8	0.0
2026-01-29 01:46:43.871116	215.9	5.2	-67.2	0.0
2026-01-29 01:46:46.115127	215.8	5.1	-66.1	0.0
#Closed at: 2026-01-29 01:34:06.397545