passes_logs/2026/01/29/PlanumMoscow/PlanumMoscow__20260129_061007_METOP-B_rec.log

#Pass ID: 20260129_061007_METOP-B
#Satellite: METOP-B
#Configuration: METOP-B
#Start time: 2026-01-29 06:10:12.359904

#LorettStation: 1.0.0 05.05.2024
#Station: PlanumMoscow
#Location: 37.6253844 lon 55.6713361 lat
#TLE: 1 38771U 12049A   25293.92766658  .00000266  00000+0  14193-3 0  9996
#TLE: 2 38771  98.6882 344.7603 0001609 341.5209  18.5909 14.21379342679275

#Time	Az	El	Level	SNR
2026-01-29 06:13:50.837632	50.1	23.2	-63.7	1.8
2026-01-29 06:13:51.954892	50.3	23.3	-63.6	0.9
2026-01-29 06:13:53.074145	50.6	23.4	-63.8	0.9
2026-01-29 06:13:54.192903	50.8	23.5	-63.6	0.2
2026-01-29 06:13:55.314156	51.0	23.6	-64.0	1.4
2026-01-29 06:13:56.434409	51.3	23.7	-63.2	0.8
2026-01-29 06:13:57.552166	51.5	23.9	-64.1	3.0
2026-01-29 06:13:58.671429	51.7	24.0	-64.4	2.8
2026-01-29 06:13:59.791690	52.0	24.1	-63.5	2.7
2026-01-29 06:14:00.911447	52.2	24.2	-63.7	2.0
2026-01-29 06:14:02.032213	52.5	24.3	-63.6	1.7
2026-01-29 06:14:03.154475	52.7	24.4	-63.8	1.0
2026-01-29 06:14:04.273232	53.0	24.5	-63.8	0.9
2026-01-29 06:14:05.389995	53.2	24.6	-64.2	0.8
2026-01-29 06:14:06.509248	53.5	24.8	-65.2	3.9
2026-01-29 06:14:07.627005	53.7	24.9	-64.1	1.1
2026-01-29 06:14:08.747762	54.0	25.0	-63.8	1.7
2026-01-29 06:14:09.867015	54.2	25.1	-64.5	1.8
2026-01-29 06:14:10.985276	54.5	25.2	-64.4	2.3
2026-01-29 06:14:12.106034	54.8	25.3	-64.1	2.8
2026-01-29 06:14:13.225792	55.0	25.4	-64.1	3.5
2026-01-29 06:14:14.346053	55.3	25.5	-64.1	4.4
2026-01-29 06:14:15.466810	55.5	25.7	-63.9	2.5
2026-01-29 06:14:16.583574	55.8	25.8	-63.6	0.9
2026-01-29 06:14:17.705829	56.1	25.9	-63.7	0.7
2026-01-29 06:14:18.826587	56.4	26.0	-64.0	2.3
2026-01-29 06:14:19.945848	56.6	26.1	-64.1	2.4
2026-01-29 06:14:21.064606	56.9	26.2	-63.6	1.4
2026-01-29 06:14:22.182858	57.2	26.3	-64.0	0.4
2026-01-29 06:14:23.300110	57.5	26.4	-63.7	0.1
2026-01-29 06:14:24.419363	57.7	26.5	-63.0	0.0
2026-01-29 06:14:25.539616	58.0	26.6	-63.4	0.0
2026-01-29 06:14:26.659869	58.3	26.8	-64.1	1.6
2026-01-29 06:14:27.782131	58.6	26.9	-63.8	1.5
2026-01-29 06:14:28.899384	58.9	27.0	-64.4	3.0
2026-01-29 06:14:30.019636	59.2	27.1	-63.0	2.1
2026-01-29 06:14:31.138889	59.5	27.2	-63.5	3.1
2026-01-29 06:14:32.257646	59.8	27.3	-63.4	1.4
2026-01-29 06:14:33.375906	60.1	27.4	-63.1	1.5
2026-01-29 06:14:34.495159	60.4	27.5	-63.9	2.1
2026-01-29 06:14:35.615412	60.7	27.6	-64.5	4.8
2026-01-29 06:14:36.735674	61.0	27.7	-63.2	0.8
2026-01-29 06:14:37.853926	61.3	27.8	-64.7	3.3
2026-01-29 06:14:38.971179	61.6	27.9	-64.0	2.3
2026-01-29 06:14:40.089453	61.9	28.0	-64.4	2.8
2026-01-29 06:14:41.209706	62.2	28.1	-64.2	2.8
2026-01-29 06:14:42.328966	62.5	28.2	-64.8	2.2
2026-01-29 06:14:43.448219	62.8	28.4	-65.3	4.4
2026-01-29 06:14:44.565984	63.1	28.5	-63.7	0.0
2026-01-29 06:14:45.683244	63.5	28.6	-64.8	1.7
2026-01-29 06:14:46.800497	63.8	28.7	-65.3	1.3
2026-01-29 06:14:47.919749	64.1	28.8	-64.2	2.1
2026-01-29 06:14:49.038507	64.4	28.9	-64.9	3.2
2026-01-29 06:14:50.155264	64.8	29.0	-64.0	0.0
2026-01-29 06:14:51.273029	65.1	29.1	-64.1	0.0
2026-01-29 06:14:52.391795	65.4	29.2	-64.2	1.3
2026-01-29 06:14:53.509560	65.8	29.3	-63.9	0.0
2026-01-29 06:14:54.633814	66.1	29.4	-63.5	0.0
2026-01-29 06:14:55.752066	66.4	29.4	-63.2	0.0
2026-01-29 06:14:56.869823	66.8	29.5	-63.2	0.0
2026-01-29 06:14:57.986579	67.1	29.6	-63.4	0.0
2026-01-29 06:14:59.107336	67.4	29.7	-63.8	0.0
2026-01-29 06:15:00.226102	67.8	29.8	-63.6	0.0
2026-01-29 06:15:01.343866	68.1	29.9	-63.7	0.0
2026-01-29 06:15:02.466120	68.5	30.0	-62.3	0.0
2026-01-29 06:15:03.587382	68.8	30.1	-61.7	0.0
2026-01-29 06:15:04.711637	69.2	30.2	-62.3	0.0
2026-01-29 06:15:05.833890	69.6	30.3	-62.5	0.0
2026-01-29 06:15:06.955151	69.9	30.4	-62.3	0.0
2026-01-29 06:15:08.076413	70.3	30.5	-62.3	0.0
2026-01-29 06:15:09.198666	70.6	30.5	-61.7	0.0
2026-01-29 06:15:10.319434	71.0	30.6	-61.8	0.0
2026-01-29 06:15:11.440200	71.4	30.7	-63.0	0.0
2026-01-29 06:15:12.564958	71.7	30.8	-60.0	0.0
2026-01-29 06:15:13.686726	72.1	30.9	-63.3	0.0
2026-01-29 06:15:14.808989	72.5	31.0	-62.6	0.0
2026-01-29 06:15:15.931747	72.8	31.0	-63.0	0.0
2026-01-29 06:15:17.054511	73.2	31.1	-63.0	0.0
2026-01-29 06:15:18.177764	73.6	31.2	-61.3	0.0
2026-01-29 06:15:19.299522	74.0	31.3	-61.8	0.0
2026-01-29 06:15:20.421775	74.3	31.4	-63.1	0.0
2026-01-29 06:15:21.544029	74.7	31.4	-63.4	0.0
2026-01-29 06:15:22.665787	75.1	31.5	-63.0	0.0
2026-01-29 06:15:23.788041	75.5	31.6	-62.4	0.0
2026-01-29 06:15:24.910799	75.9	31.6	-61.4	0.0
2026-01-29 06:15:26.033054	76.3	31.7	-61.4	0.0
2026-01-29 06:15:27.155819	76.7	31.8	-61.7	0.0
2026-01-29 06:15:28.278072	77.1	31.8	-62.8	0.0
2026-01-29 06:15:29.399845	77.5	31.9	-61.5	0.0
2026-01-29 06:15:30.521106	77.8	32.0	-61.0	0.0
2026-01-29 06:15:31.643360	78.2	32.0	-60.7	0.0
2026-01-29 06:15:32.765118	78.6	32.1	-60.8	0.0
2026-01-29 06:15:33.886876	79.0	32.2	-60.8	0.0
2026-01-29 06:15:35.008138	79.4	32.2	-60.4	0.0
2026-01-29 06:15:36.128903	79.8	32.3	-60.1	0.0
2026-01-29 06:15:37.250664	80.2	32.3	-60.9	0.0
2026-01-29 06:15:38.372419	80.7	32.4	-61.3	0.0
2026-01-29 06:15:39.501674	81.1	32.4	-61.1	0.0
2026-01-29 06:15:40.623432	81.5	32.5	-61.0	0.0
2026-01-29 06:15:41.744694	81.9	32.5	-60.9	0.0
2026-01-29 06:15:42.865956	82.3	32.6	-61.9	0.0
2026-01-29 06:15:43.988210	82.7	32.6	-61.8	0.0
2026-01-29 06:15:45.109995	83.1	32.7	-61.9	0.0
2026-01-29 06:15:46.231256	83.5	32.7	-62.7	0.0
2026-01-29 06:15:47.352518	83.9	32.8	-61.9	0.0
2026-01-29 06:15:48.474276	84.4	32.8	-60.7	0.0
2026-01-29 06:15:49.596529	84.8	32.9	-63.0	0.0
2026-01-29 06:15:50.718783	85.2	32.9	-61.6	0.0
2026-01-29 06:15:51.840541	85.6	32.9	-61.0	0.0
2026-01-29 06:15:52.962794	86.0	33.0	-62.0	0.0
2026-01-29 06:15:54.084055	86.5	33.0	-60.0	0.0
2026-01-29 06:15:55.205316	86.9	33.0	-61.2	0.0
2026-01-29 06:15:56.327570	87.3	33.1	-61.1	0.0
2026-01-29 06:15:57.448337	87.7	33.1	-59.4	0.0
2026-01-29 06:15:58.570103	88.1	33.1	-61.9	0.0
2026-01-29 06:15:59.692861	88.6	33.1	-61.7	0.0
2026-01-29 06:16:00.814620	89.0	33.2	-60.0	0.0
2026-01-29 06:16:01.935386	89.4	33.2	-60.7	0.0
2026-01-29 06:16:03.057640	89.8	33.2	-63.1	0.0
2026-01-29 06:16:04.179397	90.3	33.2	-60.8	0.0
2026-01-29 06:16:05.301650	90.7	33.2	-63.0	0.0
2026-01-29 06:16:06.423904	91.1	33.3	-62.5	0.0
2026-01-29 06:16:07.545662	91.6	33.3	-61.4	0.0
2026-01-29 06:16:08.667932	92.0	33.3	-62.7	0.0
2026-01-29 06:16:09.791186	92.4	33.3	-62.8	0.0
2026-01-29 06:16:10.913440	92.8	33.3	-61.9	0.0
2026-01-29 06:16:12.035197	93.3	33.3	-62.4	0.0
2026-01-29 06:16:13.157956	93.7	33.3	-62.3	0.0
2026-01-29 06:16:14.280209	94.1	33.3	-62.5	0.0
2026-01-29 06:16:15.401967	94.6	33.3	-63.2	0.0
2026-01-29 06:16:16.523725	95.0	33.3	-63.9	0.0
2026-01-29 06:16:17.645987	95.4	33.3	-63.4	0.0
2026-01-29 06:16:18.768240	95.9	33.3	-63.0	0.1
2026-01-29 06:16:19.890494	96.3	33.3	-63.7	0.0
2026-01-29 06:16:21.012252	96.7	33.3	-63.3	0.0
2026-01-29 06:16:22.134505	97.1	33.3	-64.2	2.8
2026-01-29 06:16:23.255768	97.6	33.3	-62.1	0.0
2026-01-29 06:16:24.378021	98.0	33.2	-62.9	0.0
2026-01-29 06:16:25.501284	98.4	33.2	-64.7	1.2
2026-01-29 06:16:26.624042	98.9	33.2	-63.6	1.8
2026-01-29 06:16:27.746295	99.3	33.2	-63.7	1.9
2026-01-29 06:16:28.868548	99.7	33.2	-64.0	1.9
2026-01-29 06:16:29.990307	100.1	33.2	-63.7	2.0
2026-01-29 06:16:31.111073	100.6	33.1	-64.3	3.6
2026-01-29 06:16:32.232335	101.0	33.1	-63.4	0.9
2026-01-29 06:16:33.356598	101.4	33.1	-62.5	0.5
2026-01-29 06:16:34.479356	101.8	33.0	-63.9	4.1
2026-01-29 06:16:35.602114	102.3	33.0	-63.0	1.4
2026-01-29 06:16:36.723871	102.7	33.0	-63.0	2.6
2026-01-29 06:16:37.845628	103.1	32.9	-64.2	4.0
2026-01-29 06:16:38.965899	103.5	32.9	-63.1	3.2
2026-01-29 06:16:40.086664	103.9	32.9	-64.1	3.8
2026-01-29 06:16:41.207926	104.3	32.8	-62.9	1.2
2026-01-29 06:16:42.330685	104.8	32.8	-64.2	4.7
2026-01-29 06:16:43.451955	105.2	32.8	-64.0	5.1
2026-01-29 06:16:44.573217	105.6	32.7	-64.1	1.7
2026-01-29 06:16:45.693982	106.0	32.7	-63.8	3.1
2026-01-29 06:16:46.814748	106.4	32.6	-62.7	0.9
2026-01-29 06:16:47.936506	106.8	32.6	-64.0	3.1
2026-01-29 06:16:49.057778	107.2	32.5	-63.6	1.5
2026-01-29 06:16:50.182041	107.7	32.5	-64.3	1.7
2026-01-29 06:16:51.303302	108.1	32.4	-63.9	2.9
2026-01-29 06:16:52.424564	108.5	32.4	-64.3	2.3
2026-01-29 06:16:53.546331	108.9	32.3	-63.8	1.5
2026-01-29 06:16:54.668593	109.3	32.2	-64.1	1.8
2026-01-29 06:16:55.789855	109.7	32.2	-64.3	3.4
2026-01-29 06:16:56.911613	110.1	32.1	-65.3	5.8
2026-01-29 06:16:58.035867	110.5	32.1	-64.5	2.8
2026-01-29 06:16:59.157623	110.9	32.0	-64.8	5.4
2026-01-29 06:17:00.280877	111.3	31.9	-64.1	1.0
2026-01-29 06:17:01.402634	111.7	31.9	-65.3	5.1
2026-01-29 06:17:02.524888	112.1	31.8	-64.7	3.9
2026-01-29 06:17:03.646645	112.5	31.7	-64.5	4.5
2026-01-29 06:17:04.768403	112.8	31.7	-65.2	4.9
2026-01-29 06:17:05.890161	113.2	31.6	-65.0	4.8
2026-01-29 06:17:07.012414	113.6	31.5	-65.4	7.2
2026-01-29 06:17:08.134172	114.0	31.5	-65.9	7.1
2026-01-29 06:17:09.255434	114.4	31.4	-65.4	6.1
2026-01-29 06:17:10.377200	114.8	31.3	-65.4	6.3
2026-01-29 06:17:11.498472	115.2	31.2	-65.6	5.7
2026-01-29 06:17:12.620725	115.5	31.1	-66.1	6.1
2026-01-29 06:17:13.741546	115.9	31.1	-65.6	0.0
2026-01-29 06:17:14.863304	116.3	31.0	-65.7	4.3
2026-01-29 06:17:15.985062	116.7	30.9	-65.3	3.6
2026-01-29 06:17:17.105829	117.0	30.8	-65.2	2.5
2026-01-29 06:17:18.228083	117.4	30.7	-64.9	4.3
2026-01-29 06:17:19.352842	117.8	30.7	-65.3	1.7
2026-01-29 06:17:20.478600	118.1	30.6	-65.6	5.0
2026-01-29 06:17:21.599365	118.5	30.5	-65.1	3.5
2026-01-29 06:17:22.721619	118.9	30.4	-65.1	5.8
2026-01-29 06:17:23.843872	119.2	30.3	-64.9	4.3
2026-01-29 06:17:24.966629	119.6	30.2	-64.7	6.5
2026-01-29 06:17:26.088388	119.9	30.1	-65.6	6.3
2026-01-29 06:17:27.210641	120.3	30.0	-65.6	6.1
2026-01-29 06:17:28.332399	120.6	29.9	-64.4	0.5
2026-01-29 06:17:29.454157	121.0	29.9	-63.8	0.0
2026-01-29 06:17:30.578924	121.3	29.8	-64.6	3.3
2026-01-29 06:17:31.700186	121.7	29.7	-65.3	4.2
2026-01-29 06:17:32.821448	122.0	29.6	-65.2	3.2
2026-01-29 06:17:33.942710	122.4	29.5	-64.5	2.4
2026-01-29 06:17:35.064963	122.7	29.4	-64.2	0.8
2026-01-29 06:17:36.186226	123.0	29.3	-64.5	0.0
2026-01-29 06:17:37.308501	123.4	29.2	-65.4	3.6
2026-01-29 06:17:38.432755	123.7	29.1	-63.8	2.4
2026-01-29 06:17:39.555008	124.0	29.0	-64.1	4.6
2026-01-29 06:17:40.677262	124.4	28.9	-65.1	4.7
2026-01-29 06:17:41.799020	124.7	28.8	-63.7	5.3
2026-01-29 06:17:42.920281	125.0	28.7	-64.7	1.6
2026-01-29 06:17:44.041047	125.3	28.6	-64.7	0.0
2026-01-29 06:17:45.162805	125.7	28.5	-65.4	4.7
2026-01-29 06:17:46.285068	126.0	28.4	-64.8	2.3
2026-01-29 06:17:47.406826	126.3	28.3	-64.4	3.0
2026-01-29 06:17:48.529080	126.6	28.2	-64.1	0.0
2026-01-29 06:17:49.650840	126.9	28.1	-63.3	0.0
2026-01-29 06:17:50.773094	127.2	28.0	-65.3	4.7
2026-01-29 06:17:51.895347	127.6	27.8	-65.7	4.9
2026-01-29 06:17:53.017105	127.9	27.7	-66.2	5.5
2026-01-29 06:17:54.138862	128.2	27.6	-65.7	4.5
2026-01-29 06:17:55.260620	128.5	27.5	-65.7	5.5
2026-01-29 06:17:56.382873	128.8	27.4	-66.0	5.2
2026-01-29 06:17:57.505127	129.1	27.3	-63.8	5.0
2026-01-29 06:17:58.628890	129.4	27.2	-66.1	7.6
2026-01-29 06:17:59.750152	129.7	27.1	-65.5	5.7
2026-01-29 06:18:00.872406	130.0	27.0	-65.9	6.0
2026-01-29 06:18:01.994164	130.2	26.9	-65.4	4.4
2026-01-29 06:18:03.115922	130.5	26.8	-66.0	7.0
2026-01-29 06:18:04.237680	130.8	26.7	-66.0	6.9
2026-01-29 06:18:05.359934	131.1	26.5	-65.2	5.6
2026-01-29 06:18:06.481694	131.4	26.4	-66.4	7.1
2026-01-29 06:18:07.603452	131.7	26.3	-65.6	7.9
2026-01-29 06:18:08.725705	132.0	26.2	-65.1	6.6
2026-01-29 06:18:09.847968	132.2	26.1	-65.6	6.7
2026-01-29 06:18:10.969725	132.5	26.0	-66.1	7.2
2026-01-29 06:18:12.091979	132.8	25.9	-65.6	6.6
2026-01-29 06:18:13.215233	133.1	25.8	-66.1	7.1
2026-01-29 06:18:14.337486	133.3	25.6	-66.1	6.9
2026-01-29 06:18:15.459740	133.6	25.5	-65.9	8.1
2026-01-29 06:18:16.581993	133.9	25.4	-65.7	7.4
2026-01-29 06:18:17.704247	134.1	25.3	-66.0	7.2
2026-01-29 06:18:18.826004	134.4	25.2	-65.8	7.4
2026-01-29 06:18:19.950259	134.7	25.1	-65.5	7.3
2026-01-29 06:18:21.072512	134.9	25.0	-65.5	7.0
2026-01-29 06:18:22.194766	135.2	24.9	-65.3	7.8
2026-01-29 06:18:23.317019	135.4	24.7	-65.9	7.3
2026-01-29 06:18:24.439273	135.7	24.6	-65.8	7.4
2026-01-29 06:18:25.561526	135.9	24.5	-66.0	8.3
2026-01-29 06:18:26.683780	136.2	24.4	-65.7	7.9
2026-01-29 06:18:27.810538	136.4	24.3	-65.4	6.5
2026-01-29 06:18:28.932296	136.7	24.2	-65.6	7.8
2026-01-29 06:18:30.054549	136.9	24.1	-66.2	8.1
2026-01-29 06:18:31.176803	137.2	23.9	-65.4	6.7
2026-01-29 06:18:32.299056	137.4	23.8	-65.2	6.6
2026-01-29 06:18:33.421310	137.6	23.7	-65.2	5.8
2026-01-29 06:18:34.543563	137.9	23.6	-65.7	8.0
2026-01-29 06:18:35.665321	138.1	23.5	-65.0	5.8
2026-01-29 06:18:36.787078	138.4	23.4	-65.3	6.9
2026-01-29 06:18:37.909332	138.6	23.3	-65.4	6.9
2026-01-29 06:18:39.031585	138.8	23.1	-65.4	5.3
2026-01-29 06:18:40.153839	139.1	23.0	-65.6	7.9
2026-01-29 06:18:41.276092	139.3	22.9	-65.9	6.9
2026-01-29 06:18:42.397354	139.5	22.8	-65.7	8.2
2026-01-29 06:18:43.521112	139.7	22.7	-65.5	6.3
2026-01-29 06:18:44.643365	140.0	22.6	-65.6	7.1
2026-01-29 06:18:45.765619	140.2	22.5	-65.4	7.0
2026-01-29 06:18:46.887872	140.4	22.3	-65.9	7.6
2026-01-29 06:18:48.010126	140.6	22.2	-65.8	7.8
2026-01-29 06:18:49.132379	140.8	22.1	-65.4	7.5
2026-01-29 06:18:50.254633	141.0	22.0	-65.6	6.8
2026-01-29 06:18:51.376390	141.3	21.9	-66.0	6.6
2026-01-29 06:18:52.499644	141.5	21.8	-65.3	5.9
2026-01-29 06:18:53.621897	141.7	21.7	-65.5	6.4
2026-01-29 06:18:54.744151	141.9	21.6	-65.5	6.0
2026-01-29 06:18:55.866404	142.1	21.4	-65.3	5.8
2026-01-29 06:18:56.988162	142.3	21.3	-66.0	6.5
2026-01-29 06:18:58.110416	142.5	21.2	-65.3	5.3
2026-01-29 06:18:59.232174	142.7	21.1	-65.5	5.4
2026-01-29 06:19:00.356932	142.9	21.0	-65.8	5.7
2026-01-29 06:19:01.479185	143.1	20.9	-65.7	4.8
2026-01-29 06:19:02.601439	143.3	20.8	-65.7	5.6
2026-01-29 06:19:03.723692	143.5	20.7	-66.1	6.3
2026-01-29 06:19:04.845946	143.7	20.5	-66.1	6.1
2026-01-29 06:19:05.968199	143.9	20.4	-65.5	5.4
2026-01-29 06:19:07.089957	144.1	20.3	-66.0	4.8
2026-01-29 06:19:08.214211	144.3	20.2	-66.1	6.2
2026-01-29 06:19:09.336464	144.5	20.1	-65.6	4.7
2026-01-29 06:19:10.458718	144.7	20.0	-66.0	5.7
2026-01-29 06:19:11.580971	144.9	19.9	-65.0	3.7
2026-01-29 06:19:12.703225	145.1	19.8	-66.0	5.4
2026-01-29 06:19:13.825478	145.2	19.7	-65.9	6.1
2026-01-29 06:19:14.949236	145.4	19.5	-66.0	6.5
2026-01-29 06:19:16.071490	145.6	19.4	-66.1	6.7
2026-01-29 06:19:17.193744	145.8	19.3	-65.9	7.0
2026-01-29 06:19:18.315997	146.0	19.2	-66.1	6.3
2026-01-29 06:19:19.438251	146.1	19.1	-66.3	5.8
2026-01-29 06:19:20.560504	146.3	19.0	-65.6	4.9
2026-01-29 06:19:21.682758	146.5	18.9	-65.6	5.1
2026-01-29 06:19:22.805010	146.7	18.8	-65.1	4.9
2026-01-29 06:19:23.927272	146.9	18.7	-65.9	4.6
2026-01-29 06:19:25.049525	147.0	18.6	-66.1	6.0
2026-01-29 06:19:26.171779	147.2	18.5	-65.7	4.9
2026-01-29 06:19:27.294033	147.4	18.4	-65.6	3.9
2026-01-29 06:19:28.416286	147.5	18.2	-65.3	5.1
2026-01-29 06:19:29.538540	147.7	18.1	-65.3	4.7
2026-01-29 06:19:30.660297	147.9	18.0	-65.4	4.7
2026-01-29 06:19:31.783056	148.0	17.9	-65.3	6.6
2026-01-29 06:19:32.905309	148.2	17.8	-65.6	5.7
2026-01-29 06:19:34.027563	148.4	17.7	-64.3	4.9
2026-01-29 06:19:35.149816	148.5	17.6	-65.2	5.4
2026-01-29 06:19:36.272070	148.7	17.5	-65.1	5.6
2026-01-29 06:19:37.394323	148.9	17.4	-65.1	5.5
2026-01-29 06:19:38.517586	149.0	17.3	-64.8	4.4
2026-01-29 06:19:39.638848	149.2	17.2	-64.7	4.9
2026-01-29 06:19:40.763101	149.3	17.1	-64.7	4.9
2026-01-29 06:19:41.885355	149.5	17.0	-65.5	7.0
2026-01-29 06:19:43.007609	149.6	16.9	-65.2	5.7
2026-01-29 06:19:44.129862	149.8	16.8	-65.4	6.0
2026-01-29 06:19:45.252116	149.9	16.7	-65.0	3.7
2026-01-29 06:19:46.373873	150.1	16.6	-64.6	4.8
2026-01-29 06:19:47.495630	150.2	16.5	-65.6	6.0
2026-01-29 06:19:48.622884	150.4	16.4	-65.9	5.9
2026-01-29 06:19:49.745138	150.5	16.3	-65.8	6.8
2026-01-29 06:19:50.867391	150.7	16.1	-65.6	6.8
2026-01-29 06:19:51.989654	150.8	16.0	-65.2	4.9
2026-01-29 06:19:53.111898	151.0	15.9	-65.3	6.3
2026-01-29 06:19:54.234151	151.1	15.8	-65.6	6.5
2026-01-29 06:19:55.357405	151.3	15.7	-65.6	6.0
2026-01-29 06:19:56.482164	151.4	15.6	-65.6	6.0
2026-01-29 06:19:57.604418	151.6	15.5	-65.2	6.1
2026-01-29 06:19:58.726671	151.7	15.4	-65.5	6.3
2026-01-29 06:19:59.848924	151.8	15.3	-65.7	7.0
2026-01-29 06:20:00.970187	152.0	15.2	-65.9	5.9
2026-01-29 06:20:02.092440	152.1	15.1	-65.3	6.5
2026-01-29 06:20:03.215694	152.3	15.0	-65.0	5.7
2026-01-29 06:20:04.339957	152.4	14.9	-65.3	6.4
2026-01-29 06:20:05.462211	152.5	14.8	-65.3	6.4
2026-01-29 06:20:06.583968	152.7	14.7	-65.3	6.1
2026-01-29 06:20:07.706222	152.8	14.6	-65.2	6.6
2026-01-29 06:20:08.828475	152.9	14.5	-65.0	4.4
2026-01-29 06:20:09.950729	153.1	14.4	-65.7	7.4
2026-01-29 06:20:11.072985	153.2	14.3	-65.4	5.6
2026-01-29 06:20:12.194245	153.3	14.2	-65.3	6.3
2026-01-29 06:20:13.316498	153.5	14.2	-65.5	5.5
2026-01-29 06:20:14.439752	153.6	14.1	-65.5	5.5
2026-01-29 06:20:15.562005	153.7	14.0	-65.5	4.5
2026-01-29 06:20:16.684259	153.9	13.9	-65.5	4.6
2026-01-29 06:20:17.806512	154.0	13.8	-65.7	6.1
2026-01-29 06:20:18.928766	154.1	13.7	-65.7	5.8
2026-01-29 06:20:20.051019	154.2	13.6	-65.7	6.1
2026-01-29 06:20:21.173282	154.4	13.5	-65.9	6.1
2026-01-29 06:20:22.295536	154.5	13.4	-65.6	5.1
2026-01-29 06:20:23.417789	154.6	13.3	-65.7	5.1
2026-01-29 06:20:24.540042	154.7	13.2	-65.7	5.8
2026-01-29 06:20:25.661800	154.8	13.1	-65.8	5.5
2026-01-29 06:20:26.784053	155.0	13.0	-65.8	5.4
2026-01-29 06:20:27.906307	155.1	12.9	-65.0	5.0
2026-01-29 06:20:29.027568	155.2	12.8	-65.7	5.4
2026-01-29 06:20:30.151822	155.3	12.7	-65.1	4.9
2026-01-29 06:20:31.274075	155.4	12.6	-65.4	5.7
2026-01-29 06:20:32.396329	155.6	12.5	-65.6	5.2
2026-01-29 06:20:33.519087	155.7	12.4	-65.4	5.4
2026-01-29 06:20:34.641340	155.8	12.4	-65.6	5.0
2026-01-29 06:20:35.763594	155.9	12.3	-65.5	5.9
2026-01-29 06:20:36.885351	156.0	12.2	-65.9	5.2
2026-01-29 06:20:38.007605	156.1	12.1	-65.2	3.9
2026-01-29 06:20:39.129362	156.2	12.0	-65.2	3.5
2026-01-29 06:20:40.251615	156.4	11.9	-65.0	3.1
2026-01-29 06:20:41.373373	156.5	11.8	-65.0	5.0
2026-01-29 06:20:42.495130	156.6	11.7	-65.1	2.2
2026-01-29 06:20:43.617384	156.7	11.6	-65.0	4.5
2026-01-29 06:20:44.739637	156.8	11.5	-65.2	4.2
2026-01-29 06:20:45.863892	156.9	11.4	-65.4	3.7
2026-01-29 06:20:46.986145	157.0	11.3	-65.8	4.6
2026-01-29 06:20:48.108398	157.1	11.3	-65.6	5.1
2026-01-29 06:20:49.230652	157.2	11.2	-65.4	3.2
2026-01-29 06:20:50.352905	157.3	11.1	-65.5	3.3
2026-01-29 06:20:51.475159	157.4	11.0	-65.5	3.7
2026-01-29 06:20:52.597412	157.5	10.9	-65.4	3.6
2026-01-29 06:20:53.724667	157.7	10.8	-65.0	3.2
2026-01-29 06:20:54.846920	157.8	10.7	-65.3	2.4
2026-01-29 06:20:55.969173	157.9	10.6	-65.4	3.4
2026-01-29 06:20:57.090932	158.0	10.6	-65.5	3.2
2026-01-29 06:20:58.214186	158.1	10.5	-65.7	2.9
2026-01-29 06:20:59.336439	158.2	10.4	-65.6	4.0
2026-01-29 06:21:00.458692	158.3	10.3	-65.5	4.0
2026-01-29 06:21:01.582955	158.4	10.2	-65.8	4.1
2026-01-29 06:21:02.705208	158.5	10.1	-66.0	1.6
2026-01-29 06:21:03.827462	158.6	10.0	-65.4	1.6
2026-01-29 06:21:04.949715	158.7	9.9	-65.3	3.1
2026-01-29 06:21:06.071969	158.8	9.9	-64.9	2.7
2026-01-29 06:21:07.194223	158.9	9.8	-65.4	2.4
2026-01-29 06:21:08.316476	159.0	9.7	-65.4	3.4
2026-01-29 06:21:09.443236	159.1	9.6	-65.5	3.9
2026-01-29 06:21:10.565489	159.2	9.5	-65.2	2.4
2026-01-29 06:21:11.687743	159.2	9.4	-65.3	2.3
2026-01-29 06:21:12.809996	159.3	9.3	-65.5	2.1
2026-01-29 06:21:13.932250	159.4	9.3	-65.8	4.4
2026-01-29 06:21:15.054503	159.5	9.2	-65.4	4.4
2026-01-29 06:21:16.176261	159.6	9.1	-65.1	2.9
2026-01-29 06:21:17.298030	159.7	9.0	-65.2	3.3
2026-01-29 06:21:18.423284	159.8	8.9	-65.6	3.1
2026-01-29 06:21:19.545538	159.9	8.8	-65.4	3.7
2026-01-29 06:21:20.667791	160.0	8.8	-66.0	3.8
2026-01-29 06:21:21.790045	160.1	8.7	-65.6	3.3
2026-01-29 06:21:22.912298	160.2	8.6	-65.2	2.5
2026-01-29 06:21:24.034551	160.3	8.5	-65.3	3.7
2026-01-29 06:21:25.156805	160.3	8.4	-65.2	4.0
2026-01-29 06:21:26.281059	160.4	8.4	-65.2	3.2
2026-01-29 06:21:27.403312	160.5	8.3	-65.9	4.1
2026-01-29 06:21:28.525566	160.6	8.2	-65.4	2.7
2026-01-29 06:21:29.647819	160.7	8.1	-65.1	1.9
2026-01-29 06:21:30.770073	160.8	8.0	-65.2	2.6
2026-01-29 06:21:31.892326	160.9	7.9	-65.0	3.7
2026-01-29 06:21:33.014579	161.0	7.9	-65.8	3.0
2026-01-29 06:21:34.139338	161.0	7.8	-65.2	3.0
2026-01-29 06:21:35.261591	161.1	7.7	-65.1	3.1
2026-01-29 06:21:36.383844	161.2	7.6	-65.3	3.3
2026-01-29 06:21:37.506098	161.3	7.5	-65.8	3.0
2026-01-29 06:21:38.629352	161.4	7.5	-65.9	3.1
2026-01-29 06:21:39.751109	161.5	7.4	-65.9	3.3
2026-01-29 06:21:40.873363	161.6	7.3	-65.3	2.4
2026-01-29 06:21:41.997121	161.6	7.2	-65.1	2.2
2026-01-29 06:21:43.119385	161.7	7.1	-65.1	1.7
2026-01-29 06:21:44.241628	161.8	7.1	-65.6	3.0
2026-01-29 06:21:45.363881	161.9	7.0	-65.2	2.6
2026-01-29 06:21:46.486135	162.0	6.9	-65.3	2.7
2026-01-29 06:21:47.608388	162.0	6.8	-65.3	2.2
2026-01-29 06:21:48.730642	162.1	6.8	-65.2	2.6
2026-01-29 06:21:49.855905	162.2	6.7	-65.5	1.4
2026-01-29 06:21:50.978158	162.3	6.6	-65.6	3.6
2026-01-29 06:21:52.101412	162.4	6.5	-65.3	3.0
2026-01-29 06:21:53.222675	162.4	6.4	-65.0	1.4
2026-01-29 06:21:54.344928	162.5	6.4	-64.9	1.6
2026-01-29 06:21:55.468181	162.6	6.3	-64.8	0.5
2026-01-29 06:21:56.590435	162.7	6.2	-65.3	2.5
2026-01-29 06:21:57.712689	162.7	6.1	-65.7	2.0
2026-01-29 06:21:58.834457	162.8	6.1	-65.6	2.4
2026-01-29 06:21:59.956710	162.9	6.0	-65.9	2.0
2026-01-29 06:22:01.078964	163.0	5.9	-67.6	0.0
2026-01-29 06:22:02.201217	163.0	5.8	-69.9	0.0
2026-01-29 06:22:03.323510	163.1	5.8	-69.4	0.0
2026-01-29 06:22:04.445229	163.2	5.7	-70.1	0.0
2026-01-29 06:22:05.567482	163.3	5.6	-70.8	0.0
2026-01-29 06:22:06.689735	163.3	5.5	-70.6	0.0
2026-01-29 06:22:07.811003	163.4	5.5	-70.3	0.0
2026-01-29 06:22:08.933256	163.5	5.4	-70.8	0.0
2026-01-29 06:22:10.055510	163.6	5.3	-71.4	0.0
2026-01-29 06:22:11.179764	163.6	5.2	-71.7	0.0
2026-01-29 06:22:12.302017	163.7	5.2	-72.3	0.0
2026-01-29 06:22:13.424270	163.8	5.1	-72.2	0.0
2026-01-29 06:22:14.546524	163.9	5.0	-72.2	0.0
#Closed at: 2026-01-29 06:10:07.361242