passes_logs/2026/01/28/T1/T1__20260128_030907_FENGYUN_3D_rec.log

#Pass ID: 20260128_030907_FENGYUN 3D
#Satellite: FENGYUN 3D
#Configuration: FENGYUN 3D
#almurnet v.1.7.20251203
#Start time: 2026-01-28 03:09:08

#Version: 2.0.20230620
#Station: T1
#Location: 37.570604 lon 55.790049 lat
#TLE: 1 43010U 17072A   26027.47796828  .00000374  00000+0  19850-3 0  9992
#TLE: 2 43010  98.9960 359.4888 0002523  87.5419 272.6045 14.19701595425023

#Time	Az	El	Level	Level2	SNR	BER	BlckErr	Temp	State	Recorded	gain1	gain2
2026-01-28 03:09:08.84	8.74	5.08	-50.1	-62.4	3.8	8.48e-01	0	40	0	0	71	15082
2026-01-28 03:09:11.82	8.54	5.27	-50.3	-62.4	3.8	8.48e-01	0	40	104	0	72	14273
2026-01-28 03:09:14.79	8.35	5.47	-50.2	-62.3	3.8	8.47e-01	0	40	104	0	72	14180
2026-01-28 03:09:17.77	8.15	5.66	-50.0	-62.3	3.8	8.47e-01	0	41	104	0	72	14113
2026-01-28 03:09:20.75	7.94	5.86	-49.9	-62.3	3.8	8.48e-01	0	41	104	0	71	14934
2026-01-28 03:09:23.73	7.73	6.05	-49.6	-62.2	3.8	8.47e-01	0	41	104	0	70	15669
2026-01-28 03:09:26.71	7.52	6.25	-49.4	-62.1	3.8	8.47e-01	0	41	104	0	70	15537
2026-01-28 03:09:29.69	7.31	6.45	-48.5	-61.9	3.8	8.46e-01	0	41	104	0	68	16980
2026-01-28 03:09:32.67	7.09	6.65	-47.3	-61.6	3.8	8.47e-01	0	41	104	0	66	18489
2026-01-28 03:09:35.65	6.87	6.85	-47.2	-61.5	3.8	8.47e-01	0	41	104	0	66	18152
2026-01-28 03:09:38.63	6.65	7.06	-47.3	-61.3	3.8	8.46e-01	0	41	104	0	66	17713
2026-01-28 03:09:41.61	6.43	7.26	-47.2	-60.5	3.8	8.47e-01	0	41	104	0	66	16137
2026-01-28 03:09:44.58	6.20	7.46	-47.1	-58.7	4.1	8.45e-01	0	41	104	0	66	13241
2026-01-28 03:09:47.56	5.96	7.67	-46.9	-57.7	4.3	8.33e-01	0	42	0	0	65	12377
2026-01-28 03:09:50.54	5.73	7.88	-46.9	-57.4	4.4	8.28e-01	0	42	0	0	65	12032
2026-01-28 03:09:53.52	5.49	8.09	-46.9	-57.2	4.5	8.24e-01	0	41	0	0	65	11731
2026-01-28 03:09:56.50	5.24	8.30	-46.2	-53.5	6.8	3.14e-01	0	42	0	5242880	64	8139
2026-01-28 03:09:59.48	5.00	8.51	-44.3	-48.5	11.9	8.17e-04	0	42	0	20971520	60	5760
2026-01-28 03:10:02.46	4.75	8.72	-42.7	-45.8	14.7	0.00e+00	0	42	0	38797312	57	5030
2026-01-28 03:10:05.43	4.49	8.93	-42.9	-46.1	14.4	0.00e+00	0	42	0	54525952	57	5182
2026-01-28 03:10:08.41	4.23	9.15	-42.3	-45.0	15.6	0.00e+00	0	42	0	71303168	56	4843
2026-01-28 03:10:11.39	3.97	9.36	-44.9	-49.4	10.9	1.12e-01	0	42	0	88080384	61	6022
2026-01-28 03:10:14.37	3.70	9.58	-40.2	-42.3	18.0	0.00e+00	0	42	0	104857600	52	4452
2026-01-28 03:10:17.35	3.43	9.80	-39.8	-41.9	18.5	0.00e+00	0	42	0	122683392	51	4523
2026-01-28 03:10:20.33	3.16	10.02	-39.8	-41.9	18.5	0.00e+00	0	42	0	138412032	51	4519
2026-01-28 03:10:23.30	2.88	10.24	-39.8	-41.9	18.5	0.00e+00	0	42	0	155189248	51	4522
2026-01-28 03:10:26.28	2.59	10.46	-39.6	-41.7	18.7	0.00e+00	0	42	0	171966464	51	4426
2026-01-28 03:10:29.26	2.30	10.69	-39.3	-41.4	19.0	0.00e+00	0	42	0	188743680	50	4544
2026-01-28 03:10:32.24	2.01	10.91	-39.3	-41.4	19.1	0.00e+00	0	42	0	205520896	50	4516
2026-01-28 03:10:35.22	1.71	11.14	-39.2	-41.2	19.2	0.00e+00	0	42	0	222298112	50	4436
2026-01-28 03:10:38.20	1.41	11.37	-39.2	-41.3	19.2	0.00e+00	0	42	0	239075328	50	4448
2026-01-28 03:10:41.18	1.10	11.60	-39.1	-41.1	19.3	0.00e+00	0	42	0	255852544	50	4384
2026-01-28 03:10:44.16	0.79	11.83	-38.9	-41.0	19.5	0.00e+00	0	42	0	272629760	49	4562
2026-01-28 03:10:47.13	0.47	12.06	-39.0	-41.0	19.5	0.00e+00	0	42	0	289406976	49	4562
2026-01-28 03:10:50.11	0.15	12.29	-38.9	-40.8	19.6	0.00e+00	0	42	0	306184192	49	4485
2026-01-28 03:10:53.09	359.82	12.52	-38.9	-40.9	19.6	0.00e+00	0	42	0	322961408	49	4524
2026-01-28 03:10:56.07	359.49	12.76	-38.9	-40.8	19.7	0.00e+00	0	42	0	339738624	49	4470
2026-01-28 03:10:59.05	359.15	13.00	-39.0	-41.0	19.5	0.00e+00	0	42	0	356515840	49	4566
2026-01-28 03:11:02.03	358.80	13.24	-38.7	-40.7	19.8	0.00e+00	0	43	0	373293056	49	4393
2026-01-28 03:11:05.00	358.45	13.47	-38.6	-40.5	20.0	0.00e+00	0	42	0	390070272	49	4302
2026-01-28 03:11:07.98	358.09	13.72	-38.6	-40.5	20.0	0.00e+00	0	42	0	406847488	49	4328
2026-01-28 03:11:10.96	357.73	13.96	-38.7	-40.6	19.9	0.00e+00	0	43	0	423624704	49	4359
2026-01-28 03:11:13.94	357.36	14.20	-38.6	-40.6	19.9	0.00e+00	0	42	0	440401920	49	4353
2026-01-28 03:11:16.92	356.98	14.45	-38.4	-40.3	20.2	0.00e+00	0	42	0	457179136	48	4479
2026-01-28 03:11:19.90	356.60	14.69	-38.3	-40.2	20.3	0.00e+00	0	43	0	473956352	48	4409
2026-01-28 03:11:22.88	356.21	14.94	-38.2	-40.1	20.4	0.00e+00	0	43	0	490733568	48	4342
2026-01-28 03:11:25.86	355.82	15.19	-38.1	-39.9	20.6	0.00e+00	0	42	0	507510784	48	4284
2026-01-28 03:11:28.83	355.42	15.44	-38.2	-40.0	20.5	0.00e+00	0	43	0	524288000	48	4307
2026-01-28 03:11:31.81	355.01	15.69	-38.2	-40.1	20.4	0.00e+00	0	43	0	541065216	48	4355
2026-01-28 03:11:34.79	354.59	15.94	-38.1	-39.9	20.6	0.00e+00	0	43	0	557842432	48	4281
2026-01-28 03:11:37.77	354.17	16.19	-37.8	-39.7	20.6	0.00e+00	0	43	0	574619648	47	4403
2026-01-28 03:11:40.75	353.74	16.44	-37.9	-39.7	20.7	0.00e+00	0	43	0	591396864	47	4396
2026-01-28 03:11:43.73	353.30	16.70	-37.7	-39.4	20.8	0.00e+00	0	43	0	608174080	47	4279
2026-01-28 03:11:46.71	352.85	16.95	-37.5	-39.3	21.0	0.00e+00	0	43	0	624951296	47	4218
2026-01-28 03:11:49.69	352.40	17.21	-37.4	-39.2	21.1	0.00e+00	0	42	0	641728512	46	4415
2026-01-28 03:11:52.67	351.94	17.47	-37.5	-39.3	21.0	0.00e+00	0	43	0	658505728	46	4483
2026-01-28 03:11:55.64	351.47	17.72	-37.5	-39.4	20.9	0.00e+00	0	43	0	675282944	46	4501
2026-01-28 03:11:58.62	350.99	17.98	-37.5	-39.3	21.0	0.00e+00	0	43	0	692060160	46	4473
2026-01-28 03:12:01.60	350.51	18.24	-37.4	-39.2	21.1	0.00e+00	0	43	0	708837376	46	4407
2026-01-28 03:12:04.58	350.01	18.50	-37.1	-38.9	21.4	0.00e+00	0	42	0	725614592	46	4262
2026-01-28 03:12:07.56	349.51	18.76	-37.2	-39.0	21.3	0.00e+00	0	43	0	742391808	46	4326
2026-01-28 03:12:10.54	348.99	19.02	-37.0	-38.8	21.5	0.00e+00	0	43	0	758120448	46	4207
2026-01-28 03:12:13.52	348.47	19.28	-36.8	-38.5	21.7	0.00e+00	0	43	0	775946240	45	4336
2026-01-28 03:12:16.50	347.94	19.54	-36.9	-38.7	21.6	0.00e+00	0	43	0	792723456	45	4401
2026-01-28 03:12:19.48	347.40	19.80	-37.2	-38.9	21.4	0.00e+00	0	42	0	809500672	45	4520
2026-01-28 03:12:22.46	346.85	20.07	-37.3	-39.0	21.3	0.00e+00	0	43	0	826277888	45	4584
2026-01-28 03:12:25.43	346.29	20.33	-37.1	-38.8	21.5	0.00e+00	0	43	0	842006528	45	4474
2026-01-28 03:12:28.41	345.72	20.59	-36.8	-38.5	21.7	0.00e+00	0	43	0	859832320	45	4318
2026-01-28 03:12:31.39	345.15	20.85	-36.8	-38.5	21.7	0.00e+00	0	43	0	875560960	45	4327
2026-01-28 03:12:34.37	344.56	21.11	-36.7	-38.5	21.8	0.00e+00	0	43	0	892338176	45	4292
2026-01-28 03:12:37.35	343.96	21.37	-36.7	-38.5	21.8	0.00e+00	0	43	0	910163968	45	4296
2026-01-28 03:12:40.33	343.35	21.63	-36.7	-38.4	21.8	0.00e+00	0	43	0	925892608	45	4290
2026-01-28 03:12:43.31	342.73	21.88	-36.7	-38.5	21.8	0.00e+00	0	43	0	942669824	45	4296
2026-01-28 03:12:46.28	342.10	22.14	-36.6	-38.3	21.9	0.00e+00	0	43	0	959447040	45	4239
2026-01-28 03:12:49.26	341.46	22.39	-36.2	-37.9	22.3	0.00e+00	0	43	0	976224256	44	4267
2026-01-28 03:12:52.24	340.81	22.65	-36.4	-38.1	22.1	0.00e+00	0	43	0	993001472	44	4372
2026-01-28 03:12:55.22	340.15	22.90	-36.4	-38.1	22.2	0.00e+00	0	43	0	1009778688	44	4356
2026-01-28 03:12:58.20	339.47	23.15	-36.3	-38.0	22.3	0.00e+00	0	43	0	1026555904	44	4304
2026-01-28 03:13:01.18	338.79	23.40	-36.0	-37.6	22.5	0.00e+00	0	43	0	1043333120	44	4145
2026-01-28 03:13:04.16	338.09	23.65	-35.9	-37.6	22.4	0.00e+00	0	43	0	1060110336	43	4388
2026-01-28 03:13:07.13	337.39	23.89	-35.9	-37.6	22.4	0.00e+00	0	43	0	1076887552	43	4379
2026-01-28 03:13:10.11	336.67	24.13	-35.8	-37.5	22.6	0.00e+00	0	43	0	1093664768	43	4303
2026-01-28 03:13:13.09	335.94	24.37	-35.8	-37.5	22.6	0.00e+00	0	43	0	1110441984	43	4293
2026-01-28 03:13:16.07	335.20	24.61	-35.8	-37.6	22.5	0.00e+00	0	43	0	1127219200	43	4348
2026-01-28 03:13:19.05	334.45	24.84	-36.1	-37.8	22.2	0.00e+00	0	43	0	1143996416	43	4463
2026-01-28 03:13:22.03	333.68	25.07	-35.8	-37.5	22.5	0.00e+00	0	43	0	1160773632	43	4327
2026-01-28 03:13:25.01	332.91	25.30	-35.8	-37.5	22.6	0.00e+00	0	43	0	1177550848	43	4301
2026-01-28 03:13:27.99	332.12	25.52	-36.0	-37.7	22.4	0.00e+00	0	43	0	1194328064	43	4393
2026-01-28 03:13:30.96	331.33	25.74	-35.8	-37.4	22.6	0.00e+00	0	43	0	1211105280	43	4291
2026-01-28 03:13:33.94	330.52	25.95	-35.6	-37.3	22.7	0.00e+00	0	43	0	1227882496	43	4228
2026-01-28 03:13:36.92	329.70	26.16	-35.5	-37.2	22.8	0.00e+00	0	43	0	1244659712	43	4182
2026-01-28 03:13:39.90	328.87	26.37	-35.8	-37.4	22.6	0.00e+00	0	43	0	1261436928	43	4288
2026-01-28 03:13:42.88	328.03	26.56	-35.7	-37.4	22.7	0.00e+00	0	43	0	1278214144	43	4255
2026-01-28 03:13:45.86	327.18	26.76	-35.6	-37.3	22.8	0.00e+00	0	43	0	1294991360	43	4194
2026-01-28 03:13:48.84	326.32	26.95	-35.7	-37.4	22.7	0.00e+00	0	43	0	1311768576	43	4260
2026-01-28 03:13:51.81	325.45	27.13	-35.9	-37.6	22.4	0.00e+00	0	43	0	1328545792	43	4380
2026-01-28 03:13:54.79	324.57	27.30	-35.6	-37.3	22.7	0.00e+00	0	43	0	1345323008	43	4211
2026-01-28 03:13:57.77	323.68	27.47	-35.5	-37.2	22.8	0.00e+00	0	43	0	1362100224	43	4182
2026-01-28 03:14:00.75	322.78	27.63	-35.6	-37.3	22.8	0.00e+00	0	43	0	1378877440	43	4208
2026-01-28 03:14:03.73	321.87	27.79	-35.3	-37.0	23.1	0.00e+00	0	43	0	1395654656	42	4292
2026-01-28 03:14:06.71	320.95	27.94	-35.4	-37.1	23.0	0.00e+00	0	43	0	1412431872	42	4345
2026-01-28 03:14:09.69	320.03	28.08	-35.2	-36.8	23.1	0.00e+00	0	43	0	1429209088	42	4242
2026-01-28 03:14:12.67	319.09	28.21	-35.4	-37.0	23.0	0.00e+00	0	43	0	1445986304	42	4333
2026-01-28 03:14:15.65	318.15	28.34	-35.4	-37.1	22.9	0.00e+00	0	43	0	1462763520	42	4357
2026-01-28 03:14:18.62	317.20	28.45	-35.1	-36.8	23.2	0.00e+00	0	43	0	1479540736	42	4201
2026-01-28 03:14:21.60	316.25	28.56	-35.1	-36.8	23.2	0.00e+00	0	43	0	1496317952	42	4205
2026-01-28 03:14:24.58	315.28	28.66	-35.2	-36.9	23.1	0.00e+00	0	43	0	1513095168	42	4286
2026-01-28 03:14:27.56	314.31	28.75	-35.0	-36.6	23.3	0.00e+00	0	43	0	1529872384	42	4133
2026-01-28 03:14:30.54	313.34	28.83	-35.1	-36.7	23.2	0.00e+00	0	43	0	1546649600	41	4413
2026-01-28 03:14:33.52	312.36	28.91	-35.2	-36.9	23.1	0.00e+00	0	43	0	1563426816	41	4500
2026-01-28 03:14:36.50	311.38	28.97	-35.1	-36.7	23.3	0.00e+00	0	43	0	1580204032	41	4412
2026-01-28 03:14:39.48	310.39	29.03	-34.9	-36.5	23.4	0.00e+00	0	43	0	1596981248	41	4316
2026-01-28 03:14:42.46	309.40	29.07	-34.8	-36.4	23.5	0.00e+00	0	43	0	1613758464	41	4277
2026-01-28 03:14:45.43	308.41	29.11	-34.6	-36.3	23.6	0.00e+00	0	43	0	1629487104	41	4195
2026-01-28 03:14:48.41	307.42	29.13	-34.9	-36.5	23.4	0.00e+00	0	43	0	1647312896	41	4336
2026-01-28 03:14:51.39	306.42	29.15	-35.0	-36.7	23.3	0.00e+00	0	43	0	1663041536	41	4401
2026-01-28 03:14:54.37	305.42	29.16	-35.1	-36.7	23.2	0.00e+00	0	43	0	1679818752	41	4438
2026-01-28 03:14:57.35	304.43	29.15	-34.9	-36.6	23.4	0.00e+00	0	43	0	1697644544	41	4346
2026-01-28 03:15:00.33	303.43	29.14	-34.8	-36.4	23.5	0.00e+00	0	43	0	1713373184	41	4287
2026-01-28 03:15:03.30	302.44	29.12	-34.8	-36.4	23.5	0.00e+00	0	43	0	1730150400	41	4261
2026-01-28 03:15:06.28	301.44	29.09	-34.8	-36.5	23.5	0.00e+00	0	43	0	1746927616	41	4292
2026-01-28 03:15:09.26	300.45	29.04	-34.8	-36.5	23.5	0.00e+00	0	43	0	1763704832	41	4300
2026-01-28 03:15:12.24	299.46	28.99	-34.8	-36.5	23.4	0.00e+00	0	43	0	1780482048	41	4297
2026-01-28 03:15:15.22	298.48	28.93	-34.8	-36.4	23.5	0.00e+00	0	43	0	1797259264	41	4278
2026-01-28 03:15:18.20	297.50	28.86	-34.9	-36.5	23.4	0.00e+00	0	43	0	1814036480	41	4304
2026-01-28 03:15:21.18	296.52	28.79	-35.0	-36.7	23.3	0.00e+00	0	43	0	1830813696	41	4401
2026-01-28 03:15:24.16	295.55	28.70	-35.1	-36.7	23.2	0.00e+00	0	43	0	1847590912	41	4440
2026-01-28 03:15:27.14	294.58	28.60	-34.6	-36.2	23.7	0.00e+00	0	43	0	1864368128	41	4174
2026-01-28 03:15:30.11	293.62	28.50	-34.7	-36.3	23.6	0.00e+00	0	43	0	1881145344	41	4212
2026-01-28 03:15:33.09	292.67	28.38	-34.8	-36.4	23.5	0.00e+00	0	43	0	1897922560	41	4259
2026-01-28 03:15:36.07	291.72	28.26	-34.9	-36.5	23.4	0.00e+00	0	43	0	1914699776	41	4334
2026-01-28 03:15:39.05	290.78	28.13	-35.0	-36.6	23.3	0.00e+00	0	43	0	1931476992	41	4388
2026-01-28 03:15:42.03	289.85	27.99	-35.1	-36.7	23.2	0.00e+00	0	43	0	1948254208	41	4438
2026-01-28 03:15:45.01	288.93	27.85	-35.0	-36.7	23.3	0.00e+00	0	43	0	1965031424	41	4392
2026-01-28 03:15:47.98	288.01	27.70	-34.9	-36.5	23.4	0.00e+00	0	43	0	1981808640	41	4317
2026-01-28 03:15:50.96	287.11	27.54	-35.0	-36.6	23.3	0.00e+00	0	43	0	1998585856	41	4369
2026-01-28 03:15:53.94	286.21	27.37	-35.2	-36.9	23.1	0.00e+00	0	43	0	2015363072	41	4500
2026-01-28 03:15:56.92	285.32	27.20	-35.2	-36.8	23.1	0.00e+00	0	43	0	2032140288	41	4485
2026-01-28 03:15:59.90	284.44	27.02	-35.0	-36.7	23.3	0.00e+00	0	43	0	2048917504	41	4392
2026-01-28 03:16:02.88	283.58	26.83	-35.1	-36.7	23.2	0.00e+00	0	43	0	2065694720	41	4423
2026-01-28 03:16:05.86	282.72	26.64	-35.1	-36.8	23.2	0.00e+00	0	43	0	2082471936	41	4442
2026-01-28 03:16:08.84	281.87	26.44	-35.1	-36.8	23.2	0.00e+00	0	43	0	2099249152	41	4452
2026-01-28 03:16:11.82	281.04	26.24	-35.0	-36.6	23.3	0.00e+00	0	43	0	2116026368	41	4383
2026-01-28 03:16:14.80	280.21	26.03	-35.2	-36.8	23.2	0.00e+00	0	43	0	2132803584	41	4472
2026-01-28 03:16:17.78	279.40	25.82	-35.2	-36.9	23.1	0.00e+00	0	43	0	2149580800	41	4507
2026-01-28 03:16:20.75	278.59	25.60	-35.3	-37.0	23.0	0.00e+00	0	43	0	2166358016	41	4552
2026-01-28 03:16:23.73	277.80	25.38	-35.4	-37.1	22.9	0.00e+00	0	43	0	2183135232	41	4615
2026-01-28 03:16:26.71	277.02	25.16	-35.3	-37.0	22.9	0.00e+00	0	43	0	2199912448	41	4563
2026-01-28 03:16:29.69	276.25	24.93	-35.4	-37.1	22.9	0.00e+00	0	43	0	2216689664	41	4608
2026-01-28 03:16:32.67	275.49	24.70	-35.4	-37.0	22.9	0.00e+00	0	43	0	2233466880	41	4591
2026-01-28 03:16:35.65	274.74	24.46	-35.5	-37.1	22.9	0.00e+00	0	43	0	2250244096	41	4651
2026-01-28 03:16:38.63	274.01	24.22	-35.5	-37.2	22.8	0.00e+00	0	43	0	2267021312	41	4670
2026-01-28 03:16:41.61	273.28	23.98	-35.3	-36.9	23.0	0.00e+00	0	43	0	2283798528	41	4510
2026-01-28 03:16:44.58	272.57	23.74	-35.4	-37.1	22.9	0.00e+00	0	43	0	2300575744	41	4611
2026-01-28 03:16:47.56	271.87	23.49	-35.6	-37.3	22.7	0.00e+00	0	43	0	2317352960	41	4718
2026-01-28 03:16:50.54	271.17	23.24	-35.3	-37.0	22.9	0.00e+00	0	43	0	2334130176	41	4558
2026-01-28 03:16:53.52	270.49	22.99	-35.6	-37.3	22.7	0.00e+00	0	43	0	2350907392	41	4727
2026-01-28 03:16:56.50	269.82	22.73	-35.7	-37.3	22.7	0.00e+00	0	43	0	2367684608	42	4484
2026-01-28 03:16:59.47	269.17	22.48	-35.7	-37.4	22.6	0.00e+00	0	43	0	2384461824	42	4504
2026-01-28 03:17:02.45	268.52	22.23	-35.8	-37.5	22.5	0.00e+00	0	43	0	2401239040	42	4556
2026-01-28 03:17:05.43	267.88	21.97	-36.1	-37.8	22.3	0.00e+00	0	43	0	2416967680	42	4724
2026-01-28 03:17:08.41	267.25	21.71	-36.2	-37.9	22.2	0.00e+00	0	43	0	2434793472	43	4506
2026-01-28 03:17:11.39	266.64	21.45	-36.2	-37.9	22.2	0.00e+00	0	43	0	2451570688	43	4501
2026-01-28 03:17:14.37	266.03	21.19	-36.1	-37.8	22.2	0.00e+00	0	43	0	2467299328	43	4460
2026-01-28 03:17:17.35	265.43	20.93	-36.2	-37.9	22.1	0.00e+00	0	43	0	2485125120	43	4543
2026-01-28 03:17:20.33	264.85	20.67	-36.1	-37.8	22.2	0.00e+00	0	43	0	2500853760	43	4472
2026-01-28 03:17:23.30	264.27	20.41	-36.2	-37.9	22.1	0.00e+00	0	43	0	2517630976	43	4504
2026-01-28 03:17:26.28	263.71	20.14	-36.2	-37.9	22.1	0.00e+00	0	43	0	2534408192	43	4525
2026-01-28 03:17:29.26	263.15	19.88	-36.4	-38.1	21.9	0.00e+00	0	43	0	2551185408	43	4622
2026-01-28 03:17:32.24	262.60	19.62	-36.3	-38.1	21.9	0.00e+00	0	43	0	2567962624	43	4602
2026-01-28 03:17:35.22	262.07	19.36	-36.1	-37.8	22.2	0.00e+00	0	43	0	2584739840	43	4446
2026-01-28 03:17:38.20	261.54	19.10	-36.2	-37.9	22.1	0.00e+00	0	43	0	2601517056	43	4508
2026-01-28 03:17:41.18	261.02	18.83	-36.4	-38.0	21.9	0.00e+00	0	43	0	2618294272	43	4598
2026-01-28 03:17:44.16	260.51	18.57	-36.4	-38.1	21.8	0.00e+00	0	43	0	2635071488	43	4635
2026-01-28 03:17:47.14	260.01	18.31	-36.6	-38.3	21.7	0.00e+00	0	43	0	2651848704	43	4711
2026-01-28 03:17:50.12	259.51	18.05	-36.9	-38.6	21.5	0.00e+00	0	43	0	2668625920	44	4636
2026-01-28 03:17:53.10	259.03	17.79	-37.0	-38.7	21.4	0.00e+00	0	43	0	2685403136	44	4702
2026-01-28 03:17:56.07	258.55	17.53	-37.2	-38.9	21.2	0.00e+00	0	43	0	2702180352	45	4531
2026-01-28 03:17:59.05	258.09	17.28	-37.2	-39.0	21.2	0.00e+00	0	43	0	2718957568	45	4568
2026-01-28 03:18:02.03	257.63	17.02	-37.1	-38.9	21.3	0.00e+00	0	43	0	2735734784	45	4501
2026-01-28 03:18:05.01	257.17	16.76	-37.2	-38.9	21.2	0.00e+00	0	43	0	2752512000	45	4527
2026-01-28 03:18:07.99	256.73	16.51	-37.3	-39.1	21.1	0.00e+00	0	43	0	2769289216	45	4615
2026-01-28 03:18:10.97	256.29	16.25	-37.3	-39.1	21.1	0.00e+00	0	43	0	2786066432	45	4603
2026-01-28 03:18:13.95	255.86	16.00	-37.4	-39.2	21.0	0.00e+00	0	43	0	2802843648	45	4657
2026-01-28 03:18:16.93	255.44	15.74	-37.5	-39.3	20.9	0.00e+00	0	43	0	2819620864	45	4723
2026-01-28 03:18:19.90	255.03	15.49	-37.6	-39.3	20.8	0.00e+00	0	43	0	2836398080	46	4478
2026-01-28 03:18:22.89	254.62	15.24	-37.7	-39.4	20.7	0.00e+00	0	43	0	2853175296	46	4543
2026-01-28 03:18:25.86	254.22	14.99	-37.6	-39.4	20.8	0.00e+00	0	43	0	2869952512	46	4508
2026-01-28 03:18:28.83	253.83	14.74	-37.7	-39.5	20.6	0.00e+00	0	43	0	2886729728	46	4581
2026-01-28 03:18:31.81	253.44	14.50	-37.9	-39.7	20.4	0.00e+00	0	43	0	2903506944	46	4699
2026-01-28 03:18:34.79	253.06	14.25	-38.0	-39.8	20.3	0.00e+00	0	43	0	2920284160	46	4737
2026-01-28 03:18:37.76	252.68	14.01	-38.1	-39.8	20.3	0.00e+00	0	43	0	2937061376	46	4758
2026-01-28 03:18:40.74	252.32	13.76	-38.0	-39.8	20.4	0.00e+00	0	43	0	2953838592	46	4712
2026-01-28 03:18:43.72	251.95	13.52	-38.0	-39.8	20.4	0.00e+00	0	43	0	2970615808	46	4711
2026-01-28 03:18:46.70	251.60	13.28	-38.1	-39.9	20.3	0.00e+00	0	43	0	2987393024	46	4770
2026-01-28 03:18:49.68	251.25	13.04	-38.0	-39.8	20.3	0.00e+00	0	43	0	3004170240	46	4720
2026-01-28 03:18:52.66	250.90	12.80	-38.1	-39.9	20.2	0.00e+00	0	43	0	3020947456	46	4785
2026-01-28 03:18:55.63	250.56	12.57	-38.2	-40.1	20.0	0.00e+00	0	43	0	3037724672	47	4620
2026-01-28 03:18:58.61	250.23	12.33	-38.4	-40.3	19.8	0.00e+00	0	43	0	3054501888	47	4719
2026-01-28 03:19:01.59	249.90	12.09	-38.6	-40.4	19.7	0.00e+00	0	43	0	3071279104	47	4794
2026-01-28 03:19:04.57	249.58	11.86	-38.5	-40.3	19.8	0.00e+00	0	43	0	3088056320	47	4724
2026-01-28 03:19:07.55	249.26	11.63	-38.6	-40.5	19.6	0.00e+00	0	43	0	3104833536	47	4838
2026-01-28 03:19:10.53	248.95	11.40	-38.8	-40.7	19.6	0.00e+00	0	43	0	3121610752	48	4665
2026-01-28 03:19:13.51	248.64	11.17	-38.7	-40.6	19.7	0.00e+00	0	43	0	3138387968	48	4617
2026-01-28 03:19:16.48	248.34	10.94	-38.7	-40.6	19.7	0.00e+00	0	43	0	3155165184	48	4614
2026-01-28 03:19:19.46	248.04	10.72	-38.9	-40.8	19.5	0.00e+00	0	43	0	3171942400	48	4708
2026-01-28 03:19:22.44	247.74	10.49	-39.1	-40.9	19.3	0.00e+00	0	43	0	3188719616	48	4810
2026-01-28 03:19:25.42	247.45	10.27	-39.1	-41.0	19.3	0.00e+00	0	43	0	3204448256	48	4851
2026-01-28 03:19:28.40	247.17	10.04	-39.2	-41.1	19.2	0.00e+00	0	43	0	3222274048	49	4613
2026-01-28 03:19:31.38	246.89	9.82	-39.2	-41.1	19.2	0.00e+00	0	43	0	3239051264	49	4611
2026-01-28 03:19:34.36	246.61	9.60	-39.2	-41.2	19.1	0.00e+00	0	43	0	3254779904	49	4657
2026-01-28 03:19:37.33	246.34	9.39	-39.3	-41.2	19.0	0.00e+00	0	43	0	3272605696	49	4679
2026-01-28 03:19:40.31	246.08	9.17	-39.3	-41.2	19.0	0.00e+00	0	43	0	3288334336	49	4658
2026-01-28 03:19:43.29	245.81	8.95	-49.0	-60.9	3.8	7.00e-01	0	43	104	3303014400	68	15178
2026-01-28 03:19:46.27	245.55	8.74	-49.4	-61.7	3.8	8.46e-01	0	43	104	3303014400	69	15728
2026-01-28 03:19:49.25	245.30	8.52	-49.4	-61.7	3.8	8.47e-01	0	43	104	3303014400	69	15668
2026-01-28 03:19:52.23	245.05	8.31	-49.4	-61.7	3.8	8.46e-01	0	43	104	3303014400	69	15591
2026-01-28 03:19:55.21	244.80	8.10	-49.5	-61.7	3.8	8.48e-01	0	43	104	3303014400	69	15597
2026-01-28 03:19:58.19	244.55	7.89	-49.3	-61.6	3.8	8.47e-01	0	43	104	3303014400	69	15533
2026-01-28 03:20:01.16	244.31	7.68	-49.3	-61.6	3.8	8.47e-01	0	43	104	3303014400	69	15436
2026-01-28 03:20:04.14	244.07	7.48	-49.3	-61.6	3.8	8.47e-01	0	43	104	3303014400	69	15409
2026-01-28 03:20:07.12	243.84	7.27	-49.3	-61.6	3.8	8.47e-01	0	43	104	3303014400	69	15405
2026-01-28 03:20:10.10	243.61	7.06	-49.3	-61.5	3.8	8.46e-01	0	43	104	3303014400	69	15389
2026-01-28 03:20:13.08	243.38	6.86	-49.3	-61.6	3.8	8.47e-01	0	43	104	3303014400	69	15422
2026-01-28 03:20:16.06	243.16	6.66	-49.3	-61.6	3.8	8.47e-01	0	43	104	3303014400	69	15439
2026-01-28 03:20:19.04	242.94	6.46	-49.3	-61.6	3.8	8.47e-01	0	43	104	3303014400	69	15435
2026-01-28 03:20:22.01	242.72	6.26	-49.3	-61.6	3.8	8.47e-01	0	43	104	3303014400	69	15446
2026-01-28 03:20:24.99	242.51	6.06	-49.3	-61.6	3.8	8.47e-01	0	43	104	3303014400	69	15409
2026-01-28 03:20:27.97	242.29	5.86	-49.3	-61.6	3.8	8.48e-01	0	43	104	3303014400	69	15404
2026-01-28 03:20:30.95	242.09	5.66	-49.3	-61.5	3.8	8.48e-01	0	43	104	3303014400	69	15331
2026-01-28 03:20:33.93	241.88	5.47	-49.3	-61.5	3.8	8.46e-01	0	43	104	3303014400	69	15398
2026-01-28 03:20:36.91	241.68	5.27	-49.3	-61.6	3.8	8.47e-01	0	43	104	3303014400	69	15416
2026-01-28 03:20:39.89	241.48	5.08	-49.3	-61.5	3.8	8.47e-01	0	43	104	3303014400	69	15389

#Closed at: 2026-01-28 03:20:42
#Recorded file [3303 MB]: D:/Data/31040_260128_060908.dat