passes_logs/2026/01/28/T1/T1__20260128_003152_SUOMI_NPP_rec.log

#Pass ID: 20260128_003152_SUOMI NPP
#Satellite: SUOMI NPP
#Configuration: NPP
#almurnet v.1.7.20251203
#Start time: 2026-01-28 00:31:52

#Version: 2.0.20230620
#Station: T1
#Location: 37.570604 lon 55.790049 lat
#TLE: 1 37849U 11061A   26027.50945616  .00000185  00000+0  10897-3 0  9994
#TLE: 2 37849  98.7823 329.4511 0002105  42.1421 317.9917 14.19530771738482

#Time	Az	El	Level	Level2	SNR	BER	BlckErr	Temp	State	Recorded	gain1	gain2
2026-01-28 00:31:52.46	11.72	4.99	-50.1	-65.6	3.8	1.49e+00	0	41	0	0	71	21770
2026-01-28 00:31:55.44	11.62	5.19	-50.4	-65.6	3.8	1.49e+00	0	41	104	0	72	20605
2026-01-28 00:31:58.42	11.51	5.40	-50.4	-65.6	3.8	1.49e+00	0	41	104	0	72	20703
2026-01-28 00:32:01.40	11.40	5.61	-50.3	-65.6	3.8	1.49e+00	0	42	104	0	72	20582
2026-01-28 00:32:04.38	11.28	5.82	-50.3	-65.5	3.8	1.49e+00	0	42	104	0	72	20489
2026-01-28 00:32:07.36	11.17	6.04	-50.2	-65.4	3.8	1.49e+00	0	42	104	0	72	20212
2026-01-28 00:32:10.33	11.05	6.25	-50.2	-65.4	3.8	1.49e+00	0	42	104	0	71	21421
2026-01-28 00:32:13.31	10.93	6.47	-49.9	-65.3	3.8	1.49e+00	0	42	104	0	70	22431
2026-01-28 00:32:16.29	10.81	6.68	-49.3	-65.1	3.9	1.49e+00	0	42	104	0	69	23163
2026-01-28 00:32:19.27	10.69	6.90	-46.3	-63.1	3.8	1.49e+00	0	42	104	0	64	24504
2026-01-28 00:32:22.25	10.56	7.12	-46.4	-62.6	3.9	1.49e+00	0	42	104	0	64	23054
2026-01-28 00:32:25.23	10.44	7.35	-46.4	-62.5	3.8	1.48e+00	0	42	104	0	64	23030
2026-01-28 00:32:28.21	10.31	7.57	-46.4	-62.3	4.0	1.48e+00	0	42	104	0	64	22449
2026-01-28 00:32:31.19	10.18	7.80	-46.4	-61.2	4.2	1.43e+00	0	42	0	0	64	19671
2026-01-28 00:32:34.17	10.04	8.03	-46.2	-57.9	5.9	5.30e-01	0	43	0	4194304	64	13418
2026-01-28 00:32:37.15	9.91	8.26	-45.7	-54.3	9.2	3.00e-02	0	43	0	9437184	63	9448
2026-01-28 00:32:40.13	9.77	8.49	-45.2	-52.0	11.5	9.57e-04	0	42	0	14680064	62	7709
2026-01-28 00:32:43.11	9.63	8.72	-45.0	-51.6	12.0	2.51e-04	0	43	0	20971520	62	7327
2026-01-28 00:32:46.09	9.48	8.96	-45.4	-53.0	10.6	2.28e-03	0	43	0	26214400	62	8574
2026-01-28 00:32:49.07	9.34	9.20	-45.0	-51.3	12.3	8.30e-04	0	43	0	31457280	62	7092
2026-01-28 00:32:52.04	9.19	9.44	-43.4	-47.4	16.1	3.45e-04	0	43	0	36700160	58	5720
2026-01-28 00:32:55.02	9.04	9.68	-43.0	-46.5	17.0	0.00e+00	0	43	0	41943040	58	5132
2026-01-28 00:32:58.00	8.88	9.93	-43.0	-46.3	17.2	0.00e+00	0	43	0	48234496	57	5303
2026-01-28 00:33:00.98	8.73	10.17	-42.8	-46.0	17.6	0.00e+00	0	43	0	53477376	57	5104
2026-01-28 00:33:03.96	8.57	10.42	-42.7	-45.7	17.8	0.00e+00	0	43	0	58720256	57	4964
2026-01-28 00:33:06.94	8.41	10.67	-42.8	-45.8	17.7	0.00e+00	0	43	0	65011712	57	5007
2026-01-28 00:33:09.92	8.24	10.93	-42.8	-45.7	17.8	0.00e+00	0	43	0	70254592	57	4976
2026-01-28 00:33:12.90	8.07	11.18	-42.9	-45.8	17.7	0.00e+00	0	43	0	75497472	57	5002
2026-01-28 00:33:15.88	7.90	11.44	-43.0	-45.9	17.6	0.00e+00	0	43	0	81788928	57	5072
2026-01-28 00:33:18.86	7.73	11.70	-42.9	-45.8	17.7	0.00e+00	0	43	0	87031808	57	5024
2026-01-28 00:33:21.84	7.55	11.97	-43.0	-45.8	17.7	0.00e+00	0	43	0	92274688	57	5034
2026-01-28 00:33:24.81	7.37	12.23	-42.9	-45.8	17.7	0.00e+00	0	43	0	98566144	57	5024
2026-01-28 00:33:27.79	7.18	12.50	-43.0	-45.9	17.6	0.00e+00	0	43	0	103809024	57	5077
2026-01-28 00:33:30.77	6.99	12.77	-42.9	-45.7	17.9	0.00e+00	0	43	0	109051904	57	4952
2026-01-28 00:33:33.75	6.80	13.05	-42.8	-45.6	18.0	0.00e+00	0	43	0	115343360	57	4917
2026-01-28 00:33:36.73	6.60	13.33	-42.8	-45.6	18.0	0.00e+00	0	43	0	120586240	57	4893
2026-01-28 00:33:39.71	6.40	13.61	-42.7	-45.4	18.1	0.00e+00	0	43	0	125829120	57	4789
2026-01-28 00:33:42.69	6.20	13.89	-42.8	-45.5	18.1	0.00e+00	0	43	0	132120576	57	4817
2026-01-28 00:33:45.67	5.99	14.17	-42.8	-45.5	18.0	0.00e+00	0	43	0	137363456	57	4856
2026-01-28 00:33:48.65	5.78	14.46	-42.9	-45.6	18.0	0.00e+00	0	43	0	142606336	57	4906
2026-01-28 00:33:51.62	5.56	14.75	-42.9	-45.6	18.0	0.00e+00	0	43	0	148897792	57	4909
2026-01-28 00:33:54.60	5.34	15.05	-42.7	-45.4	18.2	0.00e+00	0	43	0	154140672	57	4783
2026-01-28 00:33:57.58	5.11	15.35	-42.9	-45.5	18.1	0.00e+00	0	43	0	159383552	57	4849
2026-01-28 00:34:00.56	4.88	15.65	-42.9	-45.5	18.2	0.00e+00	0	43	0	165675008	57	4848
2026-01-28 00:34:03.54	4.64	15.95	-43.2	-45.9	17.8	0.00e+00	0	44	0	170917888	57	5084
2026-01-28 00:34:06.52	4.40	16.26	-43.2	-45.8	17.9	0.00e+00	0	44	0	176160768	57	4993
2026-01-28 00:34:09.50	4.15	16.57	-43.2	-45.7	17.9	0.00e+00	0	44	0	182452224	57	4982
2026-01-28 00:34:12.48	3.90	16.89	-43.4	-46.0	17.7	0.00e+00	0	43	0	187695104	57	5124
2026-01-28 00:34:15.45	3.64	17.21	-43.3	-46.0	17.7	0.00e+00	0	44	0	192937984	57	5111
2026-01-28 00:34:18.43	3.38	17.53	-43.0	-45.6	18.1	0.00e+00	0	44	0	199229440	57	4903
2026-01-28 00:34:21.41	3.11	17.85	-43.2	-45.8	17.9	0.00e+00	0	43	0	204472320	57	5033
2026-01-28 00:34:24.39	2.84	18.18	-43.1	-45.7	18.0	0.00e+00	0	44	0	209715200	57	4955
2026-01-28 00:34:27.37	2.55	18.51	-43.0	-45.7	18.0	0.00e+00	0	43	0	216006656	57	4948
2026-01-28 00:34:30.35	2.26	18.85	-43.1	-45.7	18.0	0.00e+00	0	43	0	221249536	57	4980
2026-01-28 00:34:33.33	1.97	19.19	-43.3	-46.0	17.7	0.00e+00	0	44	0	226492416	57	5128
2026-01-28 00:34:36.31	1.67	19.54	-43.3	-45.9	17.9	0.00e+00	0	43	0	232783872	57	5045
2026-01-28 00:34:39.28	1.36	19.88	-43.5	-46.1	17.7	0.00e+00	0	43	0	238026752	57	5176
2026-01-28 00:34:42.26	1.04	20.24	-43.5	-46.1	17.7	0.00e+00	0	43	0	243269632	57	5211
2026-01-28 00:34:45.24	0.72	20.59	-43.5	-46.1	17.7	0.00e+00	0	43	0	249561088	58	4909
2026-01-28 00:34:48.22	0.39	20.95	-43.9	-46.7	17.1	0.00e+00	0	44	0	254803968	58	5276
2026-01-28 00:34:51.20	0.05	21.32	-43.7	-46.5	17.3	0.00e+00	0	44	0	260046848	58	5136
2026-01-28 00:34:54.18	359.70	21.69	-43.5	-46.1	17.7	0.00e+00	0	44	0	266338304	58	4894
2026-01-28 00:34:57.15	359.34	22.06	-43.4	-45.9	17.9	0.00e+00	0	43	0	271581184	58	4799
2026-01-28 00:35:00.13	358.97	22.44	-43.6	-46.3	17.5	0.00e+00	0	43	0	276824064	58	5014
2026-01-28 00:35:03.11	358.60	22.82	-44.0	-46.8	17.1	0.00e+00	0	43	0	282066944	58	5336
2026-01-28 00:35:06.09	358.21	23.20	-44.2	-47.1	16.8	0.00e+00	0	44	0	288358400	59	5189
2026-01-28 00:35:09.07	357.82	23.59	-44.1	-47.1	16.8	0.00e+00	0	43	0	293601280	59	5194
2026-01-28 00:35:12.05	357.41	23.99	-44.2	-47.2	16.8	0.00e+00	0	43	0	298844160	59	5226
2026-01-28 00:35:15.03	356.99	24.39	-44.2	-47.2	16.7	0.00e+00	0	44	0	305135616	59	5258
2026-01-28 00:35:18.00	356.57	24.79	-44.6	-47.6	16.3	0.00e+00	0	43	0	310378496	59	5524
2026-01-28 00:35:20.98	356.13	25.20	-44.7	-47.9	16.1	0.00e+00	0	44	0	315621376	60	5365
2026-01-28 00:35:23.96	355.68	25.61	-44.5	-47.7	16.3	0.00e+00	0	44	0	321912832	60	5232
2026-01-28 00:35:26.94	355.22	26.03	-44.3	-47.3	16.7	0.00e+00	0	44	0	327155712	60	4998
2026-01-28 00:35:29.92	354.74	26.45	-43.5	-46.1	17.7	0.00e+00	0	44	0	332398592	59	4641
2026-01-28 00:35:32.90	354.25	26.88	-43.6	-46.2	17.6	0.00e+00	0	44	0	338690048	58	4962
2026-01-28 00:35:35.88	353.75	27.31	-43.8	-46.5	17.4	0.00e+00	0	43	0	343932928	58	5103
2026-01-28 00:35:38.85	353.24	27.74	-43.8	-46.4	17.5	0.00e+00	0	44	0	349175808	58	5082
2026-01-28 00:35:41.83	352.70	28.18	-43.7	-46.4	17.5	0.00e+00	0	44	0	355467264	58	5065
2026-01-28 00:35:44.81	352.16	28.62	-44.1	-46.9	17.1	0.00e+00	0	44	0	360710144	58	5344
2026-01-28 00:35:47.79	351.60	29.07	-44.4	-47.3	16.6	0.00e+00	0	44	0	365953024	59	5310
2026-01-28 00:35:50.77	351.02	29.52	-44.0	-46.8	17.1	0.00e+00	0	44	0	372244480	59	5000
2026-01-28 00:35:53.75	350.43	29.98	-44.2	-47.0	16.8	0.00e+00	0	43	0	377487360	59	5158
2026-01-28 00:35:56.72	349.82	30.43	-44.4	-47.2	16.7	0.00e+00	0	44	0	382730240	59	5273
2026-01-28 00:35:59.70	349.19	30.90	-44.5	-47.4	16.6	0.00e+00	0	43	0	389021696	60	5076
2026-01-28 00:36:02.68	348.54	31.36	-44.9	-48.1	16.0	0.00e+00	0	44	0	394264576	60	5474
2026-01-28 00:36:05.66	347.87	31.83	-44.9	-48.1	15.9	0.00e+00	0	44	0	399507456	60	5500
2026-01-28 00:36:08.64	347.18	32.30	-44.8	-47.9	16.1	0.00e+00	0	44	0	405798912	60	5344
2026-01-28 00:36:11.62	346.47	32.78	-44.7	-48.0	16.1	0.00e+00	0	43	0	411041792	60	5416
2026-01-28 00:36:14.60	345.74	33.25	-45.0	-48.4	15.7	0.00e+00	0	44	0	416284672	60	5705
2026-01-28 00:36:17.58	344.99	33.73	-45.1	-48.5	15.6	0.00e+00	0	43	0	422576128	61	5420
2026-01-28 00:36:20.56	344.22	34.21	-44.9	-48.1	16.0	0.00e+00	0	44	0	427819008	61	5170
2026-01-28 00:36:23.53	343.42	34.69	-44.7	-47.7	16.6	0.00e+00	0	44	0	433061888	60	5236
2026-01-28 00:36:26.51	342.60	35.18	-45.4	-48.7	15.4	0.00e+00	0	44	0	439353344	61	5547
2026-01-28 00:36:29.49	341.76	35.66	-46.5	-50.7	13.5	3.00e-06	0	44	0	444596224	63	6203
2026-01-28 00:36:32.47	340.88	36.14	-45.6	-49.3	14.8	1.50e-06	0	44	0	449839104	63	5320
2026-01-28 00:36:35.45	339.98	36.63	-44.8	-48.0	16.0	0.00e+00	0	44	0	456130560	61	5131
2026-01-28 00:36:38.43	339.06	37.11	-44.3	-47.1	17.0	0.00e+00	0	44	0	461373440	60	4876
2026-01-28 00:36:41.41	338.10	37.59	-45.0	-48.1	15.9	0.00e+00	0	44	0	466616320	60	5513
2026-01-28 00:36:44.39	337.12	38.06	-45.2	-48.3	15.9	0.00e+00	0	44	0	472907776	61	5295
2026-01-28 00:36:47.36	336.11	38.54	-45.2	-48.4	15.7	0.00e+00	0	44	0	478150656	61	5375
2026-01-28 00:36:50.34	335.07	39.01	-45.8	-49.6	14.5	0.00e+00	0	44	0	483393536	62	5802
2026-01-28 00:36:53.32	333.99	39.47	-45.4	-48.8	15.3	7.00e-07	0	44	0	489684992	62	5303
2026-01-28 00:36:56.30	332.89	39.93	-44.3	-47.1	16.9	0.00e+00	0	43	0	494927872	59	5186
2026-01-28 00:36:59.28	331.75	40.39	-45.8	-49.6	14.5	0.00e+00	0	44	0	500170752	62	5800
2026-01-28 00:37:02.26	330.58	40.83	-44.5	-47.5	16.6	0.00e+00	0	44	0	506462208	61	4837
2026-01-28 00:37:05.24	329.38	41.27	-44.3	-47.4	16.6	0.00e+00	0	44	0	511705088	60	5047
2026-01-28 00:37:08.22	328.15	41.70	-44.1	-47.1	16.8	0.00e+00	0	44	0	516947968	59	5175
2026-01-28 00:37:11.19	326.88	42.11	-44.4	-47.3	16.7	0.00e+00	0	44	0	523239424	59	5321
2026-01-28 00:37:14.17	325.58	42.52	-43.3	-45.7	18.1	0.00e+00	0	44	0	528482304	58	4696
2026-01-28 00:37:17.15	324.25	42.91	-43.0	-45.4	18.5	0.00e+00	0	44	0	533725184	56	5073
2026-01-28 00:37:20.13	322.89	43.29	-44.5	-47.4	16.7	0.00e+00	0	44	0	540016640	59	5346
2026-01-28 00:37:23.11	321.49	43.65	-44.0	-46.7	17.3	0.00e+00	0	44	0	545259520	60	4674
2026-01-28 00:37:26.09	320.06	44.00	-43.0	-45.4	18.5	0.00e+00	0	44	0	550502400	57	4780
2026-01-28 00:37:29.06	318.60	44.33	-41.8	-44.0	19.6	0.00e+00	0	44	0	555745280	55	4554
2026-01-28 00:37:32.04	317.11	44.64	-43.8	-46.4	17.6	0.00e+00	0	44	0	562036736	58	5075
2026-01-28 00:37:35.02	315.59	44.93	-44.6	-47.6	16.5	0.00e+00	0	44	0	567279616	60	5205
2026-01-28 00:37:38.00	314.05	45.20	-45.9	-49.5	14.6	7.00e-07	0	44	0	572522496	62	5782
2026-01-28 00:37:40.98	312.47	45.45	-45.3	-48.6	15.4	0.00e+00	0	44	0	578813952	62	5208
2026-01-28 00:37:43.96	310.88	45.68	-43.3	-45.7	18.2	0.00e+00	0	44	0	584056832	57	4956
2026-01-28 00:37:46.94	309.26	45.88	-44.3	-47.1	16.9	0.00e+00	0	44	0	589299712	59	5180
2026-01-28 00:37:49.91	307.62	46.06	-45.4	-48.7	15.4	0.00e+00	0	44	0	595591168	61	5537
2026-01-28 00:37:52.89	305.97	46.21	-44.6	-47.5	16.4	0.00e+00	0	44	0	600834048	61	4860
2026-01-28 00:37:55.87	304.30	46.34	-44.4	-47.2	16.8	0.00e+00	0	44	0	606076928	59	5279
2026-01-28 00:37:58.85	302.61	46.44	-45.0	-48.2	15.9	0.00e+00	0	44	0	612368384	61	5229
2026-01-28 00:38:01.83	300.92	46.51	-45.5	-48.9	15.2	0.00e+00	0	44	0	617611264	61	5714
2026-01-28 00:38:04.81	299.22	46.55	-44.9	-48.0	16.0	0.00e+00	0	44	0	622854144	61	5130
2026-01-28 00:38:07.78	297.53	46.57	-44.7	-47.6	16.5	0.00e+00	0	44	0	629145600	60	5176
2026-01-28 00:38:10.76	295.82	46.56	-44.2	-47.0	17.0	0.00e+00	0	44	0	634388480	60	4833
2026-01-28 00:38:13.74	294.12	46.52	-44.0	-46.6	17.4	0.00e+00	0	44	0	639631360	60	4632
2026-01-28 00:38:16.72	292.43	46.46	-43.3	-45.8	18.2	0.00e+00	0	44	0	645922816	58	4706
2026-01-28 00:38:19.70	290.74	46.36	-44.6	-47.5	16.6	0.00e+00	0	44	0	651165696	59	5430
2026-01-28 00:38:22.68	289.07	46.24	-43.7	-46.3	17.7	0.00e+00	0	44	0	656408576	59	4723
2026-01-28 00:38:25.66	287.41	46.10	-44.2	-46.9	17.0	0.00e+00	0	44	0	662700032	59	5072
2026-01-28 00:38:28.64	285.76	45.92	-44.7	-47.7	16.4	0.00e+00	0	44	0	667942912	61	4950
2026-01-28 00:38:31.62	284.14	45.73	-44.6	-47.4	16.7	0.00e+00	0	44	0	673185792	60	5096
2026-01-28 00:38:34.59	282.54	45.51	-44.6	-47.4	16.7	0.00e+00	0	44	0	679477248	60	5095
2026-01-28 00:38:37.57	280.96	45.26	-43.5	-46.0	17.9	0.00e+00	0	44	0	684720128	59	4552
2026-01-28 00:38:40.55	279.40	44.99	-44.2	-47.0	17.1	0.00e+00	0	44	0	689963008	59	5109
2026-01-28 00:38:43.53	277.88	44.71	-44.8	-47.9	16.2	0.00e+00	0	44	0	696254464	60	5351
2026-01-28 00:38:46.51	276.38	44.40	-44.8	-47.8	16.3	0.00e+00	0	44	0	701497344	61	5034
2026-01-28 00:38:49.49	274.91	44.07	-45.0	-48.1	16.1	0.00e+00	0	44	0	706740224	61	5189
2026-01-28 00:38:52.47	273.47	43.73	-43.0	-45.4	18.5	0.00e+00	0	44	0	713031680	58	4494
2026-01-28 00:38:55.44	272.06	43.37	-44.1	-46.9	17.1	0.00e+00	0	44	0	718274560	58	5357
2026-01-28 00:38:58.42	270.69	42.99	-43.5	-46.0	17.9	0.00e+00	0	44	0	723517440	59	4574
2026-01-28 00:39:01.40	269.34	42.60	-43.7	-46.3	17.6	0.00e+00	0	44	0	729808896	58	5025
2026-01-28 00:39:04.38	268.03	42.20	-42.2	-44.4	19.4	0.00e+00	0	44	0	735051776	56	4505
2026-01-28 00:39:07.36	266.76	41.78	-40.9	-43.0	20.4	0.00e+00	0	44	0	740294656	53	4560
2026-01-28 00:39:10.34	265.51	41.35	-40.6	-42.6	20.8	0.00e+00	0	44	0	746586112	52	4619
2026-01-28 00:39:13.31	264.30	40.92	-41.2	-43.3	20.2	0.00e+00	0	44	0	751828992	52	4995
2026-01-28 00:39:16.29	263.12	40.47	-40.9	-42.9	20.5	0.00e+00	0	44	0	757071872	53	4535
2026-01-28 00:39:19.27	261.98	40.02	-41.5	-43.7	19.9	0.00e+00	0	44	0	763363328	53	4933
2026-01-28 00:39:22.25	260.86	39.56	-43.5	-46.1	17.9	0.00e+00	0	44	0	768606208	58	4879
2026-01-28 00:39:25.23	259.78	39.09	-43.2	-45.7	18.2	0.00e+00	0	44	0	773849088	57	4936
2026-01-28 00:39:28.21	258.73	38.62	-43.2	-45.7	18.2	0.00e+00	0	43	0	779091968	57	4933
2026-01-28 00:39:31.19	257.70	38.15	-43.8	-46.5	17.5	0.00e+00	0	44	0	785383424	58	5148
2026-01-28 00:39:34.17	256.71	37.67	-42.8	-45.2	18.7	0.00e+00	0	44	0	790626304	57	4667
2026-01-28 00:39:37.14	255.75	37.19	-42.8	-45.2	18.6	0.00e+00	0	44	0	795869184	57	4666
2026-01-28 00:39:40.12	254.82	36.71	-42.9	-45.3	18.6	0.00e+00	0	44	0	802160640	56	4986
2026-01-28 00:39:43.10	253.91	36.22	-43.6	-46.0	17.9	0.00e+00	0	44	0	807403520	57	5137
2026-01-28 00:39:46.08	253.03	35.74	-45.0	-48.0	16.1	0.00e+00	0	44	0	812646400	60	5441
2026-01-28 00:39:49.06	252.17	35.25	-44.1	-46.8	17.2	0.00e+00	0	44	0	818937856	59	4990
2026-01-28 00:39:52.04	251.34	34.77	-45.2	-48.3	15.9	0.00e+00	0	44	0	824180736	61	5284
2026-01-28 00:39:55.02	250.53	34.28	-46.3	-50.1	14.0	3.80e-06	0	44	0	829423616	63	5811
2026-01-28 00:39:58.00	249.75	33.80	-45.8	-49.2	14.9	0.00e+00	0	44	0	835715072	63	5258
2026-01-28 00:40:00.97	248.99	33.32	-46.7	-50.9	13.1	0.00e+00	0	44	0	840957952	64	6015
2026-01-28 00:40:03.95	248.26	32.84	-46.7	-50.8	13.2	2.97e-05	0	44	0	846200832	65	5630
2026-01-28 00:40:06.93	247.54	32.37	-46.2	-50.0	14.0	1.50e-06	0	44	0	852492288	64	5429
2026-01-28 00:40:09.91	246.85	31.89	-45.1	-48.2	15.8	0.00e+00	0	44	0	857735168	62	4983
2026-01-28 00:40:12.89	246.17	31.42	-45.3	-48.4	16.1	0.00e+00	0	44	0	862978048	61	5364
2026-01-28 00:40:15.87	245.52	30.95	-44.4	-47.2	16.8	0.00e+00	0	44	0	869269504	60	4958
2026-01-28 00:40:18.84	244.88	30.49	-44.6	-47.6	16.4	0.00e+00	0	44	0	874512384	60	5168
2026-01-28 00:40:21.82	244.26	30.03	-44.9	-47.9	16.1	0.00e+00	0	44	0	879755264	61	5059
2026-01-28 00:40:24.80	243.66	29.57	-44.4	-47.1	16.9	0.00e+00	0	44	0	886046720	60	4910
2026-01-28 00:40:27.78	243.08	29.12	-44.9	-47.8	16.2	0.00e+00	0	44	0	891289600	60	5325
2026-01-28 00:40:30.76	242.51	28.67	-44.8	-47.7	16.2	0.00e+00	0	44	0	896532480	60	5278
2026-01-28 00:40:33.74	241.96	28.22	-44.6	-47.5	16.5	0.00e+00	0	44	0	902823936	60	5107
2026-01-28 00:40:36.72	241.42	27.78	-44.2	-47.0	16.9	0.00e+00	0	44	0	908066816	60	4857
2026-01-28 00:40:39.70	240.90	27.34	-44.3	-47.3	16.7	0.00e+00	0	44	0	913309696	60	4994
2026-01-28 00:40:42.68	240.39	26.91	-43.8	-46.4	17.4	0.00e+00	0	44	0	919601152	59	4804
2026-01-28 00:40:45.66	239.90	26.48	-44.6	-47.4	16.5	0.00e+00	0	44	0	924844032	59	5381
2026-01-28 00:40:48.63	239.42	26.06	-44.8	-47.8	16.1	0.00e+00	0	44	0	930086912	61	5007
2026-01-28 00:40:51.61	238.95	25.64	-44.0	-46.8	17.1	0.00e+00	0	44	0	936378368	60	4738
2026-01-28 00:40:54.59	238.50	25.22	-43.2	-45.7	18.1	0.00e+00	0	44	0	941621248	58	4666
2026-01-28 00:40:57.57	238.05	24.81	-43.5	-46.1	17.6	0.00e+00	0	44	0	946864128	57	5191
2026-01-28 00:41:00.55	237.62	24.40	-44.3	-47.1	16.7	0.00e+00	0	44	0	953155584	59	5187
2026-01-28 00:41:03.53	237.20	24.00	-44.2	-47.0	17.0	0.00e+00	0	44	0	958398464	59	5124
2026-01-28 00:41:06.51	236.79	23.60	-44.8	-47.8	16.0	0.00e+00	0	44	0	963641344	60	5294
2026-01-28 00:41:09.49	236.39	23.21	-45.4	-48.7	15.3	0.00e+00	0	44	0	969932800	61	5562
2026-01-28 00:41:12.47	236.00	22.82	-45.0	-48.2	15.8	0.00e+00	0	44	0	975175680	62	4928
2026-01-28 00:41:15.44	235.62	22.44	-44.0	-46.8	17.1	0.00e+00	0	44	0	980418560	60	4714
2026-01-28 00:41:18.42	235.25	22.06	-43.8	-46.4	17.4	0.00e+00	0	44	0	986710016	59	4783
2026-01-28 00:41:21.40	234.89	21.68	-43.5	-46.1	17.7	0.00e+00	0	44	0	991952896	58	4888
2026-01-28 00:41:24.38	234.54	21.31	-43.6	-46.3	17.5	0.00e+00	0	44	0	997195776	58	4994
2026-01-28 00:41:27.36	234.19	20.95	-43.8	-46.5	17.3	0.00e+00	0	44	0	1003487232	58	5135
2026-01-28 00:41:30.34	233.85	20.58	-43.9	-46.6	17.2	0.00e+00	0	44	0	1008730112	58	5210
2026-01-28 00:41:33.32	233.53	20.23	-43.8	-46.5	17.3	0.00e+00	0	44	0	1013972992	59	4815
2026-01-28 00:41:36.30	233.21	19.87	-43.3	-45.9	17.9	0.00e+00	0	44	0	1020264448	58	4769
2026-01-28 00:41:39.27	232.89	19.52	-43.9	-46.5	17.3	0.00e+00	0	44	0	1025507328	58	5135
2026-01-28 00:41:42.25	232.59	19.17	-44.4	-47.2	16.6	0.00e+00	0	44	0	1030750208	59	5242
2026-01-28 00:41:45.23	232.29	18.83	-45.0	-48.1	15.8	0.00e+00	0	44	0	1037041664	60	5476
2026-01-28 00:41:48.21	232.00	18.49	-44.9	-48.0	15.9	0.00e+00	0	44	0	1042284544	61	5141
2026-01-28 00:41:51.19	231.71	18.16	-44.8	-47.9	15.9	0.00e+00	0	44	0	1047527424	61	5077
2026-01-28 00:41:54.17	231.43	17.83	-44.7	-47.7	16.2	0.00e+00	0	44	0	1053818880	61	4964
2026-01-28 00:41:57.15	231.16	17.50	-44.2	-47.1	16.7	0.00e+00	0	44	0	1059061760	60	4887
2026-01-28 00:42:00.13	230.89	17.18	-44.0	-46.7	17.1	0.00e+00	0	44	0	1064304640	59	4932
2026-01-28 00:42:03.11	230.63	16.86	-43.8	-46.4	17.3	0.00e+00	0	44	0	1069547520	59	4804
2026-01-28 00:42:06.09	230.37	16.54	-44.0	-46.8	16.9	0.00e+00	0	44	0	1075838976	59	5021
2026-01-28 00:42:09.06	230.12	16.23	-44.3	-47.2	16.5	0.00e+00	0	44	0	1081081856	59	5246
2026-01-28 00:42:12.04	229.88	15.92	-44.4	-47.3	16.4	0.00e+00	0	44	0	1086324736	59	5338
2026-01-28 00:42:15.02	229.64	15.61	-44.1	-47.0	16.8	0.00e+00	0	44	0	1092616192	59	5108
2026-01-28 00:42:18.00	229.40	15.31	-44.0	-46.9	16.8	0.00e+00	0	44	0	1097859072	59	5057
2026-01-28 00:42:20.98	229.17	15.01	-44.2	-47.0	16.6	0.00e+00	0	44	0	1103101952	59	5149
2026-01-28 00:42:23.96	228.95	14.71	-44.6	-47.6	16.1	0.00e+00	0	44	0	1109393408	59	5520
2026-01-28 00:42:26.94	228.72	14.42	-45.0	-48.3	15.4	0.00e+00	0	44	0	1114636288	60	5638
2026-01-28 00:42:29.91	228.51	14.13	-45.4	-48.9	14.8	7.00e-07	0	44	0	1119879168	61	5693
2026-01-28 00:42:32.89	228.30	13.84	-45.5	-49.1	14.7	0.00e+00	0	44	0	1126170624	61	5824
2026-01-28 00:42:35.87	228.09	13.56	-45.4	-48.9	14.8	0.00e+00	0	44	0	1131413504	61	5692
2026-01-28 00:42:38.85	227.88	13.28	-45.0	-48.4	15.3	0.00e+00	0	44	0	1136656384	61	5369
2026-01-28 00:42:41.83	227.68	13.00	-45.0	-48.3	15.4	0.00e+00	0	44	0	1142947840	61	5326
2026-01-28 00:42:44.81	227.49	12.72	-44.9	-48.1	15.6	0.00e+00	0	44	0	1148190720	61	5218
2026-01-28 00:42:47.78	227.30	12.45	-44.8	-47.9	15.8	0.00e+00	0	44	0	1153433600	61	5079
2026-01-28 00:42:50.76	227.11	12.18	-44.7	-47.9	15.8	0.00e+00	0	44	0	1159725056	61	5052
2026-01-28 00:42:53.74	226.92	11.91	-44.9	-48.1	15.6	0.00e+00	0	44	0	1164967936	61	5170
2026-01-28 00:42:56.72	226.74	11.65	-44.9	-48.1	15.6	0.00e+00	0	44	0	1170210816	61	5180
2026-01-28 00:42:59.70	226.56	11.38	-44.9	-48.1	15.5	0.00e+00	0	44	0	1176502272	61	5211
2026-01-28 00:43:02.68	226.39	11.12	-44.9	-48.2	15.5	0.00e+00	0	44	0	1181745152	61	5224
2026-01-28 00:43:05.66	226.21	10.87	-45.0	-48.2	15.4	0.00e+00	0	44	0	1186988032	61	5259
2026-01-28 00:43:08.63	226.05	10.61	-45.0	-48.3	15.3	0.00e+00	0	44	0	1193279488	61	5302
2026-01-28 00:43:11.61	225.88	10.36	-45.0	-48.2	15.3	0.00e+00	0	44	0	1198522368	61	5270
2026-01-28 00:43:14.59	225.72	10.11	-45.1	-48.4	15.2	0.00e+00	0	44	0	1203765248	61	5383
2026-01-28 00:43:17.57	225.56	9.86	-45.1	-48.4	15.2	0.00e+00	0	44	0	1210056704	61	5397
2026-01-28 00:43:20.55	225.40	9.62	-45.2	-48.6	14.9	0.00e+00	0	44	0	1215299584	61	5509
2026-01-28 00:43:23.53	225.24	9.37	-45.2	-48.6	14.9	0.00e+00	0	44	0	1220542464	61	5502
2026-01-28 00:43:26.51	225.09	9.13	-45.1	-48.6	14.9	0.00e+00	0	44	0	1226833920	61	5486
2026-01-28 00:43:29.49	224.94	8.89	-48.9	-64.2	3.8	1.44e+00	0	44	104	1231028224	69	20946
2026-01-28 00:43:32.47	224.80	8.65	-49.6	-64.9	3.8	1.49e+00	0	44	104	1231028224	69	22535
2026-01-28 00:43:35.45	224.65	8.42	-49.5	-65.0	3.8	1.49e+00	0	44	104	1231028224	70	21604
2026-01-28 00:43:38.42	224.51	8.19	-49.5	-65.0	3.8	1.49e+00	0	44	104	1231028224	70	21508
2026-01-28 00:43:41.40	224.37	7.95	-49.6	-65.0	3.8	1.49e+00	0	44	104	1231028224	70	21618
2026-01-28 00:43:44.38	224.23	7.72	-49.7	-65.1	3.8	1.49e+00	0	44	104	1231028224	70	21763
2026-01-28 00:43:47.36	224.10	7.50	-49.8	-65.1	3.8	1.49e+00	0	44	104	1231028224	70	21773
2026-01-28 00:43:50.34	223.97	7.27	-49.7	-65.0	3.8	1.49e+00	0	44	104	1231028224	70	21602
2026-01-28 00:43:53.32	223.84	7.05	-49.6	-64.9	3.8	1.49e+00	0	44	104	1231028224	70	21433
2026-01-28 00:43:56.30	223.71	6.83	-49.6	-64.9	3.8	1.49e+00	0	44	104	1231028224	70	21342
2026-01-28 00:43:59.27	223.58	6.61	-49.6	-64.9	3.8	1.49e+00	0	44	104	1231028224	70	21433
2026-01-28 00:44:02.25	223.46	6.39	-49.6	-64.9	3.8	1.49e+00	0	44	104	1231028224	70	21338
2026-01-28 00:44:05.23	223.33	6.17	-49.6	-64.9	3.8	1.49e+00	0	44	104	1231028224	70	21383
2026-01-28 00:44:08.21	223.21	5.96	-49.6	-64.9	3.8	1.49e+00	0	44	104	1231028224	70	21423
2026-01-28 00:44:11.19	223.09	5.74	-49.6	-64.9	3.8	1.49e+00	0	44	104	1231028224	70	21362
2026-01-28 00:44:14.17	222.98	5.53	-49.5	-64.9	3.8	1.49e+00	0	44	104	1231028224	70	21405
2026-01-28 00:44:17.15	222.86	5.32	-49.6	-64.9	3.8	1.49e+00	0	44	104	1231028224	70	21368
2026-01-28 00:44:20.12	222.75	5.11	-49.6	-64.9	3.8	1.49e+00	0	44	104	1231028224	70	21327

#Closed at: 2026-01-28 00:44:23
#Recorded file [1231 MB]: D:/Data/31040_260128_033152.dat