passes_logs/2026/01/28/T1/T1__20260128_081407_NOAA_21_JPSS-2_rec.log

#Pass ID: 20260128_081407_NOAA 21 (JPSS-2)
#Satellite: NOAA 21 (JPSS-2)
#Configuration: NOAA 21
#almurnet v.1.7.20251203
#Start time: 2026-01-28 08:14:07

#Version: 2.0.20230620
#Station: T1
#Location: 37.570604 lon 55.790049 lat
#TLE: 1 54234U 22150A   26027.55906748  .00000170  00000+0  10132-3 0  9996
#TLE: 2 54234  98.7510 328.3076 0000860 204.4692 155.6443 14.19540154166599

#Time	Az	El	Level	Level2	SNR	BER	BlckErr	Temp	State	Recorded	gain1	gain2
2026-01-28 08:14:07.40	106.47	5.00	-49.2	-62.2	3.8	1.49e+00	0	40	0	0	70	15613
2026-01-28 08:14:10.38	106.21	5.18	-49.2	-62.2	3.8	1.49e+00	0	40	104	0	70	15639
2026-01-28 08:14:13.37	105.96	5.36	-49.2	-62.2	3.8	1.49e+00	0	40	104	0	70	15727
2026-01-28 08:14:16.35	105.70	5.54	-49.2	-62.2	3.8	1.49e+00	0	40	104	0	70	15745
2026-01-28 08:14:19.34	105.44	5.72	-49.2	-62.2	3.8	1.49e+00	0	41	104	0	70	15724
2026-01-28 08:14:22.33	105.17	5.90	-49.2	-62.1	3.8	1.49e+00	0	41	104	0	70	15542
2026-01-28 08:14:25.31	104.90	6.08	-49.2	-62.0	3.8	1.49e+00	0	41	104	0	70	15307
2026-01-28 08:14:28.30	104.63	6.26	-49.2	-61.9	3.8	1.49e+00	0	41	104	0	70	15189
2026-01-28 08:14:31.28	104.35	6.45	-49.2	-62.0	3.8	1.49e+00	0	41	104	0	70	15299
2026-01-28 08:14:34.27	104.07	6.63	-49.2	-62.0	3.8	1.49e+00	0	41	104	0	70	15366
2026-01-28 08:14:37.26	103.79	6.81	-49.1	-61.7	3.8	1.49e+00	0	41	104	0	70	14810
2026-01-28 08:14:40.24	103.50	7.00	-49.0	-60.9	3.8	1.49e+00	0	41	104	0	70	13468
2026-01-28 08:14:43.23	103.21	7.19	-49.0	-60.7	3.8	1.49e+00	0	41	104	0	70	13133
2026-01-28 08:14:46.21	102.91	7.37	-49.1	-61.0	3.8	1.49e+00	0	41	104	0	70	13632
2026-01-28 08:14:49.20	102.61	7.56	-49.1	-61.1	3.8	1.49e+00	0	41	104	0	70	13835
2026-01-28 08:14:52.18	102.31	7.75	-49.0	-60.7	3.8	1.49e+00	0	41	104	0	70	13176
2026-01-28 08:14:55.17	102.00	7.93	-49.1	-61.5	3.8	1.49e+00	0	41	104	0	70	14428
2026-01-28 08:14:58.15	101.69	8.12	-47.7	-53.9	6.8	3.72e-01	0	42	0	0	67	7138
2026-01-28 08:15:01.14	101.38	8.31	-44.1	-46.9	14.0	4.50e-06	0	42	0	0	60	4764
2026-01-28 08:15:04.13	101.06	8.50	-42.1	-44.3	16.6	0.00e+00	0	42	0	0	56	4445
2026-01-28 08:15:07.12	100.74	8.69	-43.1	-45.5	15.4	0.00e+00	0	41	0	0	56	5117
2026-01-28 08:15:10.10	100.41	8.88	-46.5	-50.8	10.0	3.63e-03	0	42	0	0	63	6309
2026-01-28 08:15:13.09	100.08	9.08	-48.0	-54.6	6.4	9.15e-02	0	42	0	0	66	8206
2026-01-28 08:15:16.09	99.74	9.27	-44.5	-47.5	13.5	9.53e-05	0	42	0	0	61	4819
2026-01-28 08:15:19.09	99.39	9.46	-44.0	-46.7	14.3	1.50e-06	0	42	0	0	59	4938
2026-01-28 08:15:22.09	99.05	9.66	-43.1	-45.6	15.4	0.00e+00	0	42	0	0	58	4607
2026-01-28 08:15:25.10	98.69	9.85	-41.7	-43.8	17.0	0.00e+00	0	42	0	0	55	4472
2026-01-28 08:15:28.10	98.34	10.05	-41.2	-43.2	17.5	0.00e+00	0	42	0	0	54	4437
2026-01-28 08:15:31.09	97.97	10.24	-40.9	-42.8	17.8	0.00e+00	0	42	0	0	53	4490
2026-01-28 08:15:34.09	97.61	10.44	-40.8	-42.7	17.9	0.00e+00	0	42	0	0	53	4435
2026-01-28 08:15:37.09	97.24	10.63	-40.9	-42.9	17.8	0.00e+00	0	42	0	0	53	4513
2026-01-28 08:15:40.09	96.86	10.83	-40.8	-42.8	17.9	0.00e+00	0	42	0	0	53	4458
2026-01-28 08:15:43.08	96.48	11.03	-40.9	-42.8	17.9	0.00e+00	0	42	0	0	53	4481
2026-01-28 08:15:46.08	96.09	11.23	-40.4	-42.3	18.4	0.00e+00	0	42	0	0	52	4462
2026-01-28 08:15:49.08	95.70	11.42	-40.3	-42.1	18.6	0.00e+00	0	42	0	0	52	4372
2026-01-28 08:15:52.08	95.30	11.62	-40.3	-42.1	18.6	0.00e+00	0	42	0	0	52	4376
2026-01-28 08:15:55.07	94.90	11.82	-40.1	-42.0	18.8	0.00e+00	0	42	0	0	52	4306
2026-01-28 08:15:58.07	94.49	12.02	-40.1	-41.9	18.8	0.00e+00	0	42	0	0	52	4279
2026-01-28 08:16:01.07	94.07	12.22	-40.0	-41.8	19.0	0.00e+00	0	42	0	0	51	4444
2026-01-28 08:16:04.06	93.65	12.41	-40.2	-42.0	18.7	0.00e+00	0	42	0	0	51	4597
2026-01-28 08:16:07.06	93.23	12.61	-40.3	-42.2	18.7	0.00e+00	0	42	0	0	51	4665
2026-01-28 08:16:10.05	92.80	12.81	-40.4	-42.3	18.6	0.00e+00	0	42	0	0	51	4709
2026-01-28 08:16:13.05	92.36	13.01	-40.3	-42.1	18.7	0.00e+00	0	42	0	0	51	4637
2026-01-28 08:16:16.04	91.91	13.21	-40.3	-42.1	18.8	0.00e+00	0	42	0	0	51	4636
2026-01-28 08:16:19.04	91.46	13.41	-40.3	-42.2	18.8	0.00e+00	0	42	0	0	51	4664
2026-01-28 08:16:22.03	91.01	13.60	-40.2	-42.1	18.9	0.00e+00	0	42	0	0	51	4600
2026-01-28 08:16:25.03	90.55	13.80	-40.2	-42.0	18.9	0.00e+00	0	42	0	0	51	4582
2026-01-28 08:16:28.02	90.08	14.00	-40.3	-42.1	18.8	0.00e+00	0	42	0	0	51	4624
2026-01-28 08:16:31.01	89.60	14.20	-40.3	-42.2	18.7	0.00e+00	0	42	0	0	51	4668
2026-01-28 08:16:34.01	89.12	14.39	-40.2	-42.0	18.9	0.00e+00	0	42	0	0	51	4566
2026-01-28 08:16:37.00	88.64	14.59	-40.2	-42.1	18.8	0.00e+00	0	42	0	0	51	4609
2026-01-28 08:16:39.99	88.14	14.79	-40.3	-42.2	18.7	0.00e+00	0	42	0	0	51	4675
2026-01-28 08:16:42.99	87.64	14.98	-40.1	-42.0	19.0	0.00e+00	0	42	0	0	51	4558
2026-01-28 08:16:45.98	87.14	15.18	-40.1	-41.9	19.0	0.00e+00	0	42	0	0	51	4538
2026-01-28 08:16:48.97	86.62	15.37	-40.2	-42.0	18.9	0.00e+00	0	42	0	0	51	4581
2026-01-28 08:16:51.96	86.10	15.56	-40.1	-42.0	19.0	0.00e+00	0	42	0	0	51	4546
2026-01-28 08:16:54.95	85.58	15.75	-40.1	-42.0	19.0	0.00e+00	0	42	0	0	51	4564
2026-01-28 08:16:57.94	85.04	15.95	-40.3	-42.1	18.8	0.00e+00	0	42	0	0	51	4646
2026-01-28 08:17:00.93	84.50	16.14	-40.4	-42.3	18.6	0.00e+00	0	42	0	0	51	4744
2026-01-28 08:17:03.92	83.96	16.32	-40.3	-42.2	18.8	0.00e+00	0	42	0	0	51	4699
2026-01-28 08:17:06.91	83.40	16.51	-40.1	-42.0	19.0	0.00e+00	0	42	0	0	51	4564
2026-01-28 08:17:09.90	82.84	16.70	-40.4	-42.3	18.7	0.00e+00	0	43	0	0	51	4730
2026-01-28 08:17:12.89	82.27	16.88	-40.3	-42.1	18.8	0.00e+00	0	42	0	0	51	4648
2026-01-28 08:17:15.88	81.70	17.07	-40.4	-42.3	18.7	0.00e+00	0	43	0	0	51	4735
2026-01-28 08:17:18.88	81.11	17.25	-40.2	-42.0	19.0	0.00e+00	0	43	0	0	51	4579
2026-01-28 08:17:21.87	80.52	17.43	-40.3	-42.1	18.8	0.00e+00	0	43	0	0	51	4645
2026-01-28 08:17:24.87	79.93	17.61	-40.3	-42.1	18.8	0.00e+00	0	43	0	0	51	4639
2026-01-28 08:17:27.86	79.32	17.78	-40.2	-42.0	19.0	0.00e+00	0	43	0	0	51	4552
2026-01-28 08:17:30.85	78.71	17.96	-40.2	-42.0	19.0	0.00e+00	0	43	0	0	51	4572
2026-01-28 08:17:33.85	78.09	18.13	-39.8	-41.6	19.4	0.00e+00	0	43	0	0	51	4347
2026-01-28 08:17:36.84	77.47	18.30	-39.7	-41.5	19.4	0.00e+00	0	43	0	0	51	4308
2026-01-28 08:17:39.83	76.84	18.47	-39.5	-41.2	19.7	0.00e+00	0	43	0	0	50	4409
2026-01-28 08:17:42.82	76.20	18.63	-39.4	-41.1	19.9	0.00e+00	0	42	0	0	50	4345
2026-01-28 08:17:45.81	75.55	18.79	-39.4	-41.1	19.7	0.00e+00	0	43	0	0	50	4382
2026-01-28 08:17:48.80	74.90	18.95	-39.4	-41.1	19.8	0.00e+00	0	43	0	0	50	4381
2026-01-28 08:17:51.80	74.24	19.11	-39.4	-41.1	19.8	0.00e+00	0	43	0	0	50	4383
2026-01-28 08:17:54.79	73.57	19.26	-39.6	-41.3	19.7	0.00e+00	0	43	0	0	50	4465
2026-01-28 08:17:57.78	72.90	19.41	-39.5	-41.2	19.8	0.00e+00	0	43	0	0	50	4425
2026-01-28 08:18:00.77	72.22	19.56	-39.4	-41.1	19.8	0.00e+00	0	43	0	0	50	4369
2026-01-28 08:18:03.76	71.54	19.70	-39.2	-40.9	20.0	0.00e+00	0	43	0	0	50	4271
2026-01-28 08:18:06.75	70.84	19.84	-39.3	-41.0	19.9	0.00e+00	0	43	0	0	50	4307
2026-01-28 08:18:09.75	70.14	19.98	-39.3	-40.9	20.0	0.00e+00	0	43	0	0	50	4290
2026-01-28 08:18:12.75	69.44	20.11	-39.3	-41.0	19.9	0.00e+00	0	43	0	0	50	4322
2026-01-28 08:18:15.75	68.72	20.24	-39.2	-40.9	20.0	0.00e+00	0	43	0	0	50	4274
2026-01-28 08:18:18.74	68.01	20.36	-39.2	-40.9	20.1	0.00e+00	0	43	0	0	50	4245
2026-01-28 08:18:21.74	67.28	20.48	-39.1	-40.8	20.2	0.00e+00	0	43	0	0	50	4215
2026-01-28 08:18:24.74	66.55	20.60	-39.1	-40.8	20.2	0.00e+00	0	43	0	0	50	4205
2026-01-28 08:18:27.73	65.82	20.71	-39.2	-40.9	20.0	0.00e+00	0	43	0	0	50	4263
2026-01-28 08:18:30.73	65.08	20.82	-39.3	-41.0	19.9	0.00e+00	0	43	0	0	50	4310
2026-01-28 08:18:33.72	64.34	20.92	-39.5	-41.2	19.8	0.00e+00	0	43	0	0	50	4403
2026-01-28 08:18:36.72	63.58	21.02	-39.6	-41.3	19.7	0.00e+00	0	43	0	0	50	4469
2026-01-28 08:18:39.69	62.84	21.11	-39.4	-41.1	19.8	0.00e+00	0	43	0	0	50	4384
2026-01-28 08:18:42.68	62.08	21.20	-39.4	-41.1	19.9	0.00e+00	0	42	0	0	50	4379
2026-01-28 08:18:45.67	61.32	21.28	-39.3	-41.0	20.0	0.00e+00	0	43	0	0	50	4301
2026-01-28 08:18:48.67	60.55	21.36	-39.2	-40.9	20.1	0.00e+00	0	43	0	0	50	4247
2026-01-28 08:18:51.66	59.78	21.43	-39.2	-40.9	20.0	0.00e+00	0	43	0	0	50	4288
2026-01-28 08:18:54.65	59.01	21.50	-39.3	-41.0	20.0	0.00e+00	0	43	0	0	50	4303
2026-01-28 08:18:57.65	58.23	21.56	-39.1	-40.8	20.2	0.00e+00	0	43	0	0	50	4203
2026-01-28 08:19:00.64	57.45	21.62	-39.3	-41.1	20.0	0.00e+00	0	43	0	0	50	4342
2026-01-28 08:19:03.64	56.67	21.67	-39.3	-41.0	20.0	0.00e+00	0	43	0	0	50	4309
2026-01-28 08:19:06.63	55.88	21.72	-39.2	-40.9	20.1	0.00e+00	0	43	0	0	50	4271
2026-01-28 08:19:09.62	55.10	21.76	-39.2	-40.8	20.1	0.00e+00	0	43	0	0	50	4230
2026-01-28 08:19:12.60	54.31	21.79	-39.3	-41.0	20.0	0.00e+00	0	43	0	0	50	4307
2026-01-28 08:19:15.59	53.52	21.82	-39.5	-41.2	19.8	0.00e+00	0	43	0	0	50	4426
2026-01-28 08:19:18.59	52.73	21.84	-39.4	-41.1	19.9	0.00e+00	0	43	0	0	50	4366
2026-01-28 08:19:21.59	51.94	21.86	-39.3	-41.0	19.9	0.00e+00	0	43	0	0	50	4324
2026-01-28 08:19:24.58	51.14	21.87	-39.2	-40.9	20.0	0.00e+00	0	43	0	0	50	4256
2026-01-28 08:19:27.57	50.35	21.87	-39.4	-41.2	19.8	0.00e+00	0	43	0	0	50	4397
2026-01-28 08:19:30.58	49.55	21.87	-39.5	-41.2	19.8	0.00e+00	0	43	0	0	50	4402
2026-01-28 08:19:33.57	48.76	21.87	-39.4	-41.2	19.8	0.00e+00	0	43	0	0	50	4406
2026-01-28 08:19:36.56	47.97	21.85	-39.8	-41.5	19.5	0.00e+00	0	43	0	0	50	4590
2026-01-28 08:19:39.55	47.18	21.83	-39.6	-41.4	19.7	0.00e+00	0	43	0	0	50	4513
2026-01-28 08:19:42.55	46.39	21.81	-39.4	-41.1	19.9	0.00e+00	0	43	0	0	50	4361
2026-01-28 08:19:45.54	45.60	21.78	-39.4	-41.1	19.9	0.00e+00	0	43	0	0	50	4365
2026-01-28 08:19:48.53	44.81	21.74	-39.2	-40.9	20.1	0.00e+00	0	43	0	0	50	4247
2026-01-28 08:19:51.52	44.03	21.70	-39.3	-41.0	20.0	0.00e+00	0	43	0	0	50	4297
2026-01-28 08:19:54.52	43.24	21.66	-39.6	-41.3	19.7	0.00e+00	0	43	0	0	50	4443
2026-01-28 08:19:57.52	42.46	21.60	-39.3	-41.0	19.9	0.00e+00	0	43	0	0	50	4326
2026-01-28 08:20:00.52	41.68	21.54	-39.4	-41.0	19.9	0.00e+00	0	43	0	0	50	4338
2026-01-28 08:20:03.51	40.91	21.48	-39.3	-40.9	20.0	0.00e+00	0	43	0	0	50	4282
2026-01-28 08:20:06.50	40.14	21.41	-39.2	-40.9	20.0	0.00e+00	0	43	0	0	50	4265
2026-01-28 08:20:09.49	39.37	21.34	-39.5	-41.2	19.7	0.00e+00	0	43	0	0	50	4412
2026-01-28 08:20:12.49	38.60	21.26	-39.6	-41.3	19.6	0.00e+00	0	43	0	0	50	4475
2026-01-28 08:20:15.50	37.84	21.17	-39.6	-41.3	19.7	0.00e+00	0	43	0	0	50	4487
2026-01-28 08:20:18.49	37.09	21.08	-39.6	-41.3	19.6	0.00e+00	0	43	0	0	50	4470
2026-01-28 08:20:21.49	36.33	20.99	-39.7	-41.5	19.5	0.00e+00	0	43	0	0	50	4550
2026-01-28 08:20:24.49	35.59	20.89	-39.6	-41.3	19.7	0.00e+00	0	43	0	0	50	4476
2026-01-28 08:20:27.48	34.85	20.79	-39.5	-41.2	19.8	0.00e+00	0	43	0	0	50	4437
2026-01-28 08:20:30.47	34.11	20.68	-39.5	-41.2	19.7	0.00e+00	0	43	0	0	50	4416
2026-01-28 08:20:33.46	33.38	20.57	-39.6	-41.4	19.6	0.00e+00	0	43	0	0	50	4526
2026-01-28 08:20:36.46	32.65	20.45	-39.6	-41.4	19.7	0.00e+00	0	43	0	0	50	4515
2026-01-28 08:20:39.45	31.94	20.33	-39.8	-41.5	19.5	0.00e+00	0	43	0	0	50	4591
2026-01-28 08:20:42.45	31.22	20.20	-39.5	-41.2	19.9	0.00e+00	0	43	0	0	50	4416
2026-01-28 08:20:45.44	30.51	20.07	-39.4	-41.1	19.9	0.00e+00	0	43	0	0	50	4357
2026-01-28 08:20:48.43	29.81	19.94	-39.5	-41.2	19.8	0.00e+00	0	43	0	0	50	4407
2026-01-28 08:20:51.43	29.12	19.80	-39.7	-41.5	19.6	0.00e+00	0	43	0	0	50	4561
2026-01-28 08:20:54.42	28.43	19.66	-40.0	-41.8	19.4	0.00e+00	0	43	0	0	50	4729
2026-01-28 08:20:57.42	27.75	19.52	-40.0	-41.8	19.3	0.00e+00	0	43	0	0	50	4743
2026-01-28 08:21:00.41	27.07	19.37	-39.8	-41.6	19.5	0.00e+00	0	43	0	0	50	4609
2026-01-28 08:21:03.41	26.40	19.22	-39.6	-41.4	19.7	0.00e+00	0	43	0	0	50	4507
2026-01-28 08:21:06.41	25.74	19.06	-40.0	-41.9	19.3	0.00e+00	0	43	0	0	50	4769
2026-01-28 08:21:09.41	25.08	18.91	-40.1	-42.0	19.1	0.00e+00	0	43	0	0	51	4579
2026-01-28 08:21:12.39	24.44	18.75	-39.8	-41.6	19.4	0.00e+00	0	43	0	0	51	4345
2026-01-28 08:21:15.39	23.79	18.58	-39.8	-41.6	19.5	0.00e+00	0	43	0	0	51	4359
2026-01-28 08:21:18.39	23.16	18.42	-39.8	-41.5	19.5	0.00e+00	0	43	0	0	51	4336
2026-01-28 08:21:21.38	22.53	18.25	-39.6	-41.4	19.7	0.00e+00	0	43	0	0	51	4263
2026-01-28 08:21:24.37	21.91	18.08	-39.7	-41.5	19.6	0.00e+00	0	43	0	0	50	4547
2026-01-28 08:21:27.36	21.30	17.91	-40.0	-41.8	19.3	0.00e+00	0	43	0	0	50	4741
2026-01-28 08:21:30.36	20.69	17.73	-39.9	-41.7	19.3	0.00e+00	0	43	0	0	50	4672
2026-01-28 08:21:33.35	20.09	17.56	-39.7	-41.5	19.5	0.00e+00	0	43	0	0	50	4566
2026-01-28 08:21:36.34	19.50	17.38	-39.7	-41.5	19.6	0.00e+00	0	43	0	0	50	4550
2026-01-28 08:21:39.34	18.92	17.20	-39.9	-41.7	19.3	0.00e+00	0	43	0	0	50	4679
2026-01-28 08:21:42.33	18.34	17.02	-39.9	-41.8	19.2	0.00e+00	0	43	0	0	50	4727
2026-01-28 08:21:45.33	17.77	16.83	-40.1	-42.0	19.1	0.00e+00	0	43	0	0	51	4556
2026-01-28 08:21:48.33	17.20	16.65	-40.3	-42.1	19.0	0.00e+00	0	43	0	0	51	4648
2026-01-28 08:21:51.32	16.65	16.46	-40.2	-42.0	19.1	0.00e+00	0	43	0	0	51	4584
2026-01-28 08:21:54.32	16.10	16.28	-40.0	-41.8	19.3	0.00e+00	0	43	0	0	51	4476
2026-01-28 08:21:57.31	15.55	16.09	-40.1	-42.0	19.1	0.00e+00	0	43	0	0	51	4576
2026-01-28 08:22:00.30	15.02	15.90	-40.2	-42.2	18.8	0.00e+00	0	43	0	0	51	4699
2026-01-28 08:22:03.30	14.49	15.71	-40.2	-42.2	18.8	0.00e+00	0	43	0	0	51	4698
2026-01-28 08:22:06.30	13.97	15.51	-40.0	-41.9	19.0	0.00e+00	0	43	0	0	51	4543
2026-01-28 08:22:09.28	13.45	15.32	-40.2	-42.2	18.8	0.00e+00	0	43	0	0	51	4670
2026-01-28 08:22:12.28	12.94	15.13	-40.5	-42.5	18.6	0.00e+00	0	43	0	0	51	4827
2026-01-28 08:22:15.29	12.44	14.93	-40.6	-42.6	18.4	0.00e+00	0	43	0	0	52	4622
2026-01-28 08:22:18.28	11.94	14.74	-40.6	-42.5	18.5	0.00e+00	0	43	0	0	52	4583
2026-01-28 08:22:21.27	11.46	14.54	-40.4	-42.4	18.5	0.00e+00	0	43	0	0	52	4529
2026-01-28 08:22:24.26	10.97	14.35	-40.0	-42.0	19.0	0.00e+00	0	43	0	0	52	4292
2026-01-28 08:22:27.26	10.50	14.15	-40.2	-42.2	18.9	0.00e+00	0	43	0	0	51	4678
2026-01-28 08:22:30.27	10.03	13.95	-40.1	-42.1	19.0	0.00e+00	0	43	0	0	51	4599
2026-01-28 08:22:33.26	9.56	13.76	-40.1	-42.1	18.9	0.00e+00	0	43	0	0	51	4624
2026-01-28 08:22:36.26	9.11	13.56	-40.2	-42.1	18.9	0.00e+00	0	43	0	0	51	4641
2026-01-28 08:22:39.25	8.66	13.36	-40.3	-42.3	18.7	0.00e+00	0	43	0	0	51	4710
2026-01-28 08:22:42.25	8.21	13.16	-40.3	-42.3	18.7	0.00e+00	0	43	0	0	51	4741
2026-01-28 08:22:45.24	7.77	12.97	-40.4	-42.4	18.6	0.00e+00	0	43	0	0	51	4794
2026-01-28 08:22:48.24	7.34	12.77	-40.6	-42.7	18.3	0.00e+00	0	43	0	0	52	4688
2026-01-28 08:22:51.23	6.92	12.57	-41.0	-43.3	17.8	0.00e+00	0	43	0	0	52	4985
2026-01-28 08:22:54.23	6.49	12.37	-41.1	-43.3	17.7	0.00e+00	0	43	0	0	53	4722
2026-01-28 08:22:57.22	6.08	12.18	-41.1	-43.2	17.7	0.00e+00	0	43	0	0	53	4697
2026-01-28 08:23:00.21	5.67	11.98	-40.7	-42.8	18.1	0.00e+00	0	43	0	0	53	4472
2026-01-28 08:23:03.21	5.27	11.78	-40.7	-42.8	18.1	0.00e+00	0	43	0	0	53	4485
2026-01-28 08:23:06.20	4.87	11.58	-40.9	-43.1	17.9	0.00e+00	0	43	0	0	53	4620
2026-01-28 08:23:09.20	4.48	11.39	-41.1	-43.3	17.7	0.00e+00	0	43	0	0	53	4722
2026-01-28 08:23:12.20	4.09	11.19	-40.9	-43.0	17.8	0.00e+00	0	43	0	0	53	4579
2026-01-28 08:23:15.20	3.70	10.99	-40.7	-42.9	18.0	0.00e+00	0	43	0	0	53	4495
2026-01-28 08:23:18.20	3.33	10.80	-40.9	-42.9	18.0	0.00e+00	0	43	0	0	53	4520
2026-01-28 08:23:21.19	2.96	10.60	-41.1	-43.2	17.7	0.00e+00	0	43	0	0	53	4683
2026-01-28 08:23:24.19	2.59	10.41	-41.1	-43.4	17.5	0.00e+00	0	43	0	0	53	4814
2026-01-28 08:23:27.19	2.23	10.21	-41.3	-43.6	17.3	0.00e+00	0	43	0	0	53	4872
2026-01-28 08:23:30.18	1.87	10.02	-41.3	-43.4	17.5	0.00e+00	0	43	0	0	53	4771
2026-01-28 08:23:33.17	1.52	9.82	-41.1	-43.3	17.6	0.00e+00	0	43	0	0	53	4713
2026-01-28 08:23:36.17	1.17	9.63	-41.2	-43.5	17.4	0.00e+00	0	43	0	0	53	4868
2026-01-28 08:23:39.17	0.83	9.44	-41.3	-43.8	17.1	0.00e+00	0	43	0	0	53	5019
2026-01-28 08:23:42.16	0.49	9.24	-41.6	-44.2	16.7	0.00e+00	0	43	0	0	53	5274
2026-01-28 08:23:45.16	0.16	9.05	-41.6	-44.1	16.7	0.00e+00	0	43	0	0	53	5208
2026-01-28 08:23:48.15	359.83	8.86	-48.8	-62.9	3.8	1.49e+00	0	43	104	0	68	19016
2026-01-28 08:23:51.14	359.51	8.67	-49.7	-63.0	3.8	1.49e+00	0	43	104	0	69	18288
2026-01-28 08:23:54.13	359.19	8.48	-49.5	-63.2	3.8	1.49e+00	0	43	104	0	70	17530
2026-01-28 08:23:57.13	358.87	8.29	-49.9	-63.2	3.8	1.49e+00	0	43	104	0	70	17516
2026-01-28 08:24:00.12	358.56	8.10	-50.1	-63.2	3.8	1.49e+00	0	43	104	0	71	16623
2026-01-28 08:24:03.12	358.25	7.91	-49.8	-63.2	3.8	1.49e+00	0	43	104	0	71	16574
2026-01-28 08:24:06.11	357.95	7.72	-50.1	-63.2	3.8	1.49e+00	0	43	104	0	71	16612
2026-01-28 08:24:09.11	357.65	7.54	-50.2	-63.2	3.8	1.49e+00	0	43	104	0	71	16605
2026-01-28 08:24:12.10	357.35	7.35	-50.0	-63.2	3.8	1.49e+00	0	43	104	0	71	16559
2026-01-28 08:24:15.08	357.06	7.16	-49.8	-63.2	3.8	1.49e+00	0	43	104	0	71	16559
2026-01-28 08:24:18.08	356.78	6.98	-49.7	-63.1	3.8	1.49e+00	0	43	104	0	71	16468
2026-01-28 08:24:21.07	356.49	6.79	-49.7	-63.1	3.8	1.49e+00	0	43	104	0	71	16429
2026-01-28 08:24:24.06	356.21	6.61	-49.7	-63.1	3.8	1.49e+00	0	43	104	0	71	16391
2026-01-28 08:24:27.05	355.94	6.43	-49.7	-63.1	3.8	1.49e+00	0	43	104	0	71	16358
2026-01-28 08:24:30.04	355.67	6.24	-49.7	-63.1	3.8	1.49e+00	0	43	104	0	71	16359
2026-01-28 08:24:33.04	355.40	6.06	-49.7	-63.1	3.8	1.49e+00	0	43	104	0	71	16360
2026-01-28 08:24:36.03	355.13	5.88	-49.7	-63.1	3.8	1.49e+00	0	43	104	0	71	16382
2026-01-28 08:24:39.02	354.87	5.70	-49.7	-63.0	3.8	1.49e+00	0	43	104	0	71	16310
2026-01-28 08:24:42.01	354.61	5.52	-49.7	-63.0	3.8	1.49e+00	0	43	104	0	71	16308
2026-01-28 08:24:45.00	354.35	5.34	-49.7	-63.0	3.8	1.49e+00	0	43	104	0	71	16239
2026-01-28 08:24:47.99	354.10	5.16	-49.6	-63.0	3.8	1.49e+00	0	43	104	0	71	16294
2026-01-28 08:24:50.98	353.85	4.99	-49.6	-63.0	3.8	1.49e+00	0	43	104	0	71	16214

#Closed at: 2026-01-28 08:24:51
#Recorded file [0 MB]: D:/Data/31040_260128_111407.dat