passes_logs/2026/01/28/T1/T1__20260128_220324_NOAA_21_JPSS-2_rec.log

#Pass ID: 20260128_220324_NOAA 21 (JPSS-2)
#Satellite: NOAA 21 (JPSS-2)
#Configuration: NOAA 21
#almurnet v.1.7.20251203
#Start time: 2026-01-28 22:03:24

#Version: 2.0.20230620
#Station: T1
#Location: 37.570604 lon 55.790049 lat
#TLE: 1 54234U 22150A   26027.77052245  .00000166  00000+0  99439-4 0  9997
#TLE: 2 54234  98.7510 328.5165 0000872 203.6403 156.4733 14.19540252166628

#Time	Az	El	Level	Level2	SNR	BER	BlckErr	Temp	State	Recorded	gain1	gain2
2026-01-28 22:03:24.93	31.13	5.01	-49.7	-63.0	3.8	1.49e+00	0	38	0	0	70	17182
2026-01-28 22:03:27.90	31.41	5.18	-50.0	-63.0	3.8	1.49e+00	0	38	104	0	71	16308
2026-01-28 22:03:30.88	31.69	5.34	-50.2	-63.1	3.8	1.49e+00	0	38	104	0	71	16433
2026-01-28 22:03:33.86	31.98	5.51	-50.0	-63.1	3.8	1.49e+00	0	39	104	0	71	16315
2026-01-28 22:03:36.84	32.27	5.68	-49.9	-63.0	3.8	1.49e+00	0	39	104	0	71	16205
2026-01-28 22:03:39.82	32.56	5.85	-49.8	-62.9	3.8	1.49e+00	0	39	104	0	71	15948
2026-01-28 22:03:42.80	32.86	6.02	-49.5	-62.6	3.8	1.49e+00	0	39	104	0	70	16364
2026-01-28 22:03:45.78	33.16	6.19	-49.2	-62.4	3.8	1.49e+00	0	39	104	0	70	16038
2026-01-28 22:03:48.76	33.46	6.36	-49.2	-62.3	3.8	1.49e+00	0	39	104	0	70	15888
2026-01-28 22:03:51.74	33.76	6.53	-49.2	-62.3	3.8	1.49e+00	0	39	104	0	70	15810
2026-01-28 22:03:54.72	34.07	6.70	-49.2	-62.3	3.8	1.49e+00	0	39	104	0	70	15835
2026-01-28 22:03:57.70	34.39	6.87	-49.2	-62.3	3.8	1.49e+00	0	39	104	0	70	15864
2026-01-28 22:04:00.68	34.70	7.04	-49.2	-62.4	3.8	1.49e+00	0	39	104	0	70	15949
2026-01-28 22:04:03.66	35.02	7.21	-49.2	-62.4	3.8	1.49e+00	0	39	104	0	70	15954
2026-01-28 22:04:06.65	35.35	7.38	-49.2	-62.3	3.8	1.49e+00	0	39	104	0	70	15790
2026-01-28 22:04:09.63	35.67	7.56	-49.2	-62.1	3.8	1.49e+00	0	39	104	0	70	15554
2026-01-28 22:04:12.61	36.00	7.73	-49.2	-62.0	3.8	1.49e+00	0	40	104	0	70	15298
2026-01-28 22:04:15.59	36.34	7.90	-49.1	-61.7	3.8	1.49e+00	0	39	104	0	70	14801
2026-01-28 22:04:18.57	36.68	8.08	-49.1	-61.9	3.8	1.49e+00	0	40	104	0	70	15071
2026-01-28 22:04:21.55	37.02	8.25	-49.2	-62.2	3.8	1.49e+00	0	40	104	0	70	15705
2026-01-28 22:04:24.53	37.37	8.43	-49.2	-62.3	3.8	1.49e+00	0	40	104	0	70	15819
2026-01-28 22:04:27.51	37.72	8.60	-49.2	-62.3	3.8	1.49e+00	0	40	104	0	70	15856
2026-01-28 22:04:30.49	38.07	8.78	-49.1	-61.7	3.8	1.49e+00	0	40	104	0	70	14871
2026-01-28 22:04:33.47	38.43	8.95	-48.5	-56.9	4.6	1.02e+00	0	40	104	0	69	8979
2026-01-28 22:04:36.45	38.79	9.13	-47.2	-52.5	8.5	2.94e-02	0	40	0	0	65	6851
2026-01-28 22:04:39.44	39.16	9.31	-46.3	-50.5	10.0	1.47e+00	0	40	104	0	64	5753
2026-01-28 22:04:42.42	39.53	9.48	-42.2	-44.3	16.6	0.00e+00	0	40	0	0	56	4487
2026-01-28 22:04:45.48	39.92	9.67	-41.7	-43.8	17.0	0.00e+00	0	40	0	0	55	4488
2026-01-28 22:04:48.33	40.28	9.84	-41.4	-43.4	17.4	0.00e+00	0	40	0	0	54	4515
2026-01-28 22:04:51.46	40.68	10.02	-41.6	-43.7	17.2	0.00e+00	0	40	0	0	54	4663
2026-01-28 22:04:54.30	41.05	10.19	-41.5	-43.5	17.4	0.00e+00	0	40	0	0	54	4589
2026-01-28 22:04:57.43	41.47	10.38	-41.3	-43.3	17.6	0.00e+00	0	40	0	0	54	4446
2026-01-28 22:05:00.38	41.86	10.55	-41.2	-43.2	17.6	0.00e+00	0	40	0	0	54	4434
2026-01-28 22:05:03.50	42.28	10.74	-41.0	-42.9	17.9	0.00e+00	0	40	0	0	53	4536
2026-01-28 22:05:06.39	42.68	10.91	-41.0	-43.0	17.9	0.00e+00	0	40	0	0	53	4583
2026-01-28 22:05:09.68	43.14	11.11	-41.1	-43.1	17.8	0.00e+00	0	40	0	0	53	4619
2026-01-28 22:05:12.49	43.53	11.28	-41.0	-42.9	17.9	0.00e+00	0	40	0	0	53	4527
2026-01-28 22:05:15.62	43.97	11.46	-40.9	-42.9	18.0	0.00e+00	0	41	0	0	53	4504
2026-01-28 22:05:18.82	44.43	11.65	-40.8	-42.8	18.1	0.00e+00	0	40	0	0	53	4449
2026-01-28 22:05:21.66	44.85	11.82	-40.9	-42.8	18.0	0.00e+00	0	40	0	0	53	4490
2026-01-28 22:05:24.90	45.32	12.01	-40.7	-42.6	18.3	0.00e+00	0	40	0	0	53	4366
2026-01-28 22:05:27.75	45.75	12.18	-40.7	-42.6	18.3	0.00e+00	0	40	0	0	53	4371
2026-01-28 22:05:30.88	46.22	12.37	-40.7	-42.5	18.3	0.00e+00	0	40	0	0	53	4340
2026-01-28 22:05:33.72	46.65	12.54	-40.6	-42.5	18.3	0.00e+00	0	40	0	0	53	4316
2026-01-28 22:05:36.85	47.14	12.72	-40.7	-42.6	18.3	0.00e+00	0	40	0	0	53	4356
2026-01-28 22:05:39.79	47.60	12.90	-40.8	-42.7	18.2	0.00e+00	0	40	0	0	53	4400
2026-01-28 22:05:42.92	48.09	13.08	-40.6	-42.5	18.4	0.00e+00	0	41	0	0	53	4328
2026-01-28 22:05:45.85	48.56	13.25	-40.6	-42.5	18.5	0.00e+00	0	40	0	0	53	4298
2026-01-28 22:05:49.12	49.09	13.44	-40.6	-42.4	18.5	0.00e+00	0	40	0	0	53	4288
2026-01-28 22:05:51.88	49.54	13.60	-40.5	-42.4	18.6	0.00e+00	0	40	0	0	52	4520
2026-01-28 22:05:55.46	50.13	13.81	-40.3	-42.2	18.8	0.00e+00	0	41	0	0	52	4404
2026-01-28 22:05:58.16	50.58	13.97	-40.4	-42.3	18.7	0.00e+00	0	41	0	0	52	4449
2026-01-28 22:06:01.81	51.20	14.18	-40.5	-42.4	18.6	0.00e+00	0	40	0	0	52	4519
2026-01-28 22:06:04.51	51.67	14.33	-40.5	-42.3	18.7	0.00e+00	0	40	0	0	52	4485
2026-01-28 22:06:07.78	52.23	14.52	-40.5	-42.4	18.6	0.00e+00	0	41	0	0	52	4528
2026-01-28 22:06:10.58	52.73	14.68	-40.7	-42.6	18.5	0.00e+00	0	41	0	0	52	4601
2026-01-28 22:06:13.89	53.31	14.86	-40.4	-42.3	18.7	0.00e+00	0	40	0	0	52	4443
2026-01-28 22:06:16.74	53.82	15.02	-40.3	-42.2	18.8	0.00e+00	0	41	0	0	52	4393
2026-01-28 22:06:20.13	54.44	15.21	-40.4	-42.3	18.7	0.00e+00	0	40	0	0	52	4468
2026-01-28 22:06:22.83	54.94	15.36	-40.6	-42.5	18.5	0.00e+00	0	40	0	0	52	4559
2026-01-28 22:06:26.12	55.55	15.54	-40.6	-42.4	18.6	0.00e+00	0	40	0	0	52	4528
2026-01-28 22:06:28.96	56.08	15.69	-40.2	-42.1	18.9	0.00e+00	0	40	0	0	52	4341
2026-01-28 22:06:32.03	56.66	15.85	-40.2	-42.0	18.9	0.00e+00	0	41	0	0	52	4326
2026-01-28 22:06:35.01	57.23	16.01	-40.4	-42.2	18.8	0.00e+00	0	40	0	0	52	4417
2026-01-28 22:06:37.99	57.81	16.17	-40.3	-42.2	18.8	0.00e+00	0	41	0	0	52	4406
2026-01-28 22:06:40.97	58.39	16.32	-40.2	-42.0	19.1	0.00e+00	0	41	0	0	52	4299
2026-01-28 22:06:43.98	58.99	16.48	-40.1	-41.9	19.2	0.00e+00	0	41	0	0	51	4514
2026-01-28 22:06:46.96	59.58	16.63	-40.0	-41.7	19.2	0.00e+00	0	41	0	0	51	4428
2026-01-28 22:06:49.95	60.18	16.78	-40.1	-41.9	19.1	0.00e+00	0	41	0	0	51	4506
2026-01-28 22:06:52.93	60.79	16.92	-40.0	-41.7	19.3	0.00e+00	0	41	0	0	51	4437
2026-01-28 22:06:55.92	61.41	17.07	-39.9	-41.7	19.3	0.00e+00	0	41	0	0	51	4419
2026-01-28 22:06:58.97	62.04	17.21	-39.9	-41.7	19.3	0.00e+00	0	41	0	0	51	4395
2026-01-28 22:07:01.84	62.64	17.35	-40.0	-41.8	19.2	0.00e+00	0	40	0	0	51	4455
2026-01-28 22:07:04.97	63.30	17.49	-39.9	-41.7	19.3	0.00e+00	0	40	0	0	51	4393
2026-01-28 22:07:07.81	63.90	17.62	-39.7	-41.5	19.5	0.00e+00	0	40	0	0	51	4301
2026-01-28 22:07:10.95	64.58	17.76	-39.7	-41.4	19.5	0.00e+00	0	40	0	0	51	4276
2026-01-28 22:07:13.82	65.20	17.88	-39.6	-41.3	19.6	0.00e+00	0	41	0	0	51	4231
2026-01-28 22:07:17.09	65.92	18.02	-39.6	-41.4	19.6	0.00e+00	0	40	0	0	51	4251
2026-01-28 22:07:19.90	66.53	18.14	-39.6	-41.3	19.6	0.00e+00	0	40	0	0	51	4212
2026-01-28 22:07:23.17	67.26	18.27	-39.5	-41.2	19.7	0.00e+00	0	40	0	0	50	4437
2026-01-28 22:07:25.89	67.87	18.37	-39.5	-41.2	19.8	0.00e+00	0	40	0	0	50	4419
2026-01-28 22:07:29.19	68.62	18.50	-39.2	-40.9	20.0	0.00e+00	0	40	0	0	50	4268
2026-01-28 22:07:32.54	69.38	18.62	-39.5	-41.2	19.8	0.00e+00	0	41	0	0	50	4427
2026-01-28 22:07:35.25	70.00	18.72	-39.3	-41.0	20.0	0.00e+00	0	40	0	0	50	4324
2026-01-28 22:07:38.56	70.76	18.83	-39.3	-40.9	20.1	0.00e+00	0	40	0	0	50	4282
2026-01-28 22:07:41.26	71.39	18.92	-39.4	-41.1	19.8	0.00e+00	0	40	0	0	50	4353
2026-01-28 22:07:44.72	72.20	19.03	-39.3	-41.0	20.0	0.00e+00	0	40	0	0	50	4327
2026-01-28 22:07:47.44	72.84	19.12	-39.2	-40.9	20.0	0.00e+00	0	40	0	0	50	4272
2026-01-28 22:07:50.74	73.62	19.21	-39.4	-41.0	19.9	0.00e+00	0	41	0	0	50	4337
2026-01-28 22:07:53.45	74.26	19.29	-39.3	-40.9	20.1	0.00e+00	0	41	0	0	50	4291
2026-01-28 22:07:56.79	75.06	19.38	-39.3	-41.0	20.0	0.00e+00	0	40	0	0	50	4309
2026-01-28 22:07:59.79	75.78	19.45	-39.5	-41.2	19.7	0.00e+00	0	40	0	0	50	4429
2026-01-28 22:08:02.91	76.54	19.53	-39.5	-41.2	19.8	0.00e+00	0	41	0	0	50	4420
2026-01-28 22:08:05.76	77.23	19.59	-39.4	-41.1	19.8	0.00e+00	0	40	0	0	50	4386
2026-01-28 22:08:08.89	77.99	19.66	-39.6	-41.3	19.7	0.00e+00	0	40	0	0	50	4479
2026-01-28 22:08:11.73	78.68	19.71	-39.5	-41.2	19.8	0.00e+00	0	40	0	0	50	4427
2026-01-28 22:08:15.08	79.51	19.77	-39.4	-41.1	19.8	0.00e+00	0	40	0	0	50	4378
2026-01-28 22:08:17.79	80.18	19.81	-39.4	-41.1	19.8	0.00e+00	0	41	0	0	50	4388
2026-01-28 22:08:21.07	80.99	19.86	-39.4	-41.2	19.8	0.00e+00	0	41	0	0	50	4394
2026-01-28 22:08:23.78	81.66	19.90	-39.6	-41.3	19.7	0.00e+00	0	40	0	0	50	4483
2026-01-28 22:08:27.05	82.47	19.93	-39.5	-41.3	19.7	0.00e+00	0	40	0	0	50	4462
2026-01-28 22:08:29.75	83.14	19.96	-39.6	-41.4	19.6	0.00e+00	0	40	0	0	50	4522
2026-01-28 22:08:33.26	84.02	19.99	-39.6	-41.4	19.6	0.00e+00	0	40	0	0	50	4500
2026-01-28 22:08:35.97	84.69	20.01	-39.5	-41.2	19.7	0.00e+00	0	40	0	0	50	4425
2026-01-28 22:08:39.29	85.53	20.03	-39.4	-41.1	19.8	0.00e+00	0	41	0	0	50	4387
2026-01-28 22:08:42.02	86.21	20.03	-39.4	-41.1	19.8	0.00e+00	0	41	0	0	50	4371
2026-01-28 22:08:45.30	87.03	20.04	-39.5	-41.3	19.7	0.00e+00	0	40	0	0	50	4447
2026-01-28 22:08:48.02	87.71	20.04	-39.4	-41.2	19.8	0.00e+00	0	40	0	0	50	4404
2026-01-28 22:08:51.30	88.53	20.04	-39.5	-41.2	19.7	0.00e+00	0	40	0	0	50	4411
2026-01-28 22:08:54.03	89.22	20.03	-39.5	-41.3	19.7	0.00e+00	0	40	0	0	50	4465
2026-01-28 22:08:57.30	90.04	20.01	-39.5	-41.2	19.8	0.00e+00	0	40	0	0	50	4401
2026-01-28 22:09:00.12	90.74	19.99	-39.4	-41.1	19.8	0.00e+00	0	40	0	0	50	4391
2026-01-28 22:09:03.25	91.52	19.97	-39.5	-41.2	19.8	0.00e+00	0	40	0	0	50	4424
2026-01-28 22:09:06.39	92.31	19.94	-39.5	-41.2	19.8	0.00e+00	0	40	0	0	50	4409
2026-01-28 22:09:09.41	93.06	19.90	-39.5	-41.2	19.8	0.00e+00	0	40	0	0	50	4407
2026-01-28 22:09:12.40	93.80	19.87	-39.4	-41.1	19.8	0.00e+00	0	40	0	0	50	4384
2026-01-28 22:09:15.39	94.54	19.82	-39.2	-40.9	20.0	0.00e+00	0	41	0	0	50	4281
2026-01-28 22:09:18.37	95.28	19.78	-39.1	-40.8	20.1	0.00e+00	0	40	0	0	50	4231
2026-01-28 22:09:21.34	96.01	19.72	-39.1	-40.8	20.1	0.00e+00	0	41	0	0	50	4225
2026-01-28 22:09:24.46	96.77	19.66	-39.1	-40.8	20.2	0.00e+00	0	40	0	0	50	4202
2026-01-28 22:09:27.30	97.47	19.61	-39.0	-40.7	20.2	0.00e+00	0	40	0	0	49	4415
2026-01-28 22:09:30.43	98.23	19.54	-39.0	-40.7	20.2	0.00e+00	0	41	0	0	49	4418
2026-01-28 22:09:33.28	98.92	19.47	-39.2	-40.8	20.0	0.00e+00	0	41	0	0	49	4493
2026-01-28 22:09:36.59	99.72	19.39	-39.3	-40.9	19.9	0.00e+00	0	40	0	0	49	4541
2026-01-28 22:09:39.43	100.40	19.31	-39.4	-41.1	19.8	0.00e+00	0	40	0	0	49	4636
2026-01-28 22:09:42.56	101.15	19.23	-39.4	-41.1	19.9	0.00e+00	0	40	0	0	49	4601
2026-01-28 22:09:45.41	101.82	19.14	-39.2	-40.8	20.1	0.00e+00	0	41	0	0	49	4492
2026-01-28 22:09:48.54	102.56	19.05	-39.2	-40.9	20.1	0.00e+00	0	40	0	0	49	4519
2026-01-28 22:09:51.46	103.25	18.96	-39.3	-41.0	20.0	0.00e+00	0	40	0	0	49	4561
2026-01-28 22:09:54.58	103.98	18.85	-39.1	-40.8	20.1	0.00e+00	0	40	0	0	49	4472
2026-01-28 22:09:57.43	104.64	18.75	-39.0	-40.7	20.2	0.00e+00	0	41	0	0	49	4422
2026-01-28 22:10:00.56	105.36	18.64	-39.2	-40.9	20.0	0.00e+00	0	40	0	0	49	4502
2026-01-28 22:10:03.40	106.01	18.54	-39.2	-40.9	20.0	0.00e+00	0	41	0	0	49	4497
2026-01-28 22:10:06.65	106.75	18.42	-39.2	-40.9	19.9	0.00e+00	0	40	0	0	49	4534
2026-01-28 22:10:09.45	107.38	18.31	-39.2	-40.9	20.0	0.00e+00	0	40	0	0	49	4511
2026-01-28 22:10:12.72	108.11	18.18	-39.3	-41.0	19.9	0.00e+00	0	40	0	0	49	4578
2026-01-28 22:10:15.44	108.72	18.06	-39.5	-41.2	19.6	0.00e+00	0	40	0	0	49	4677
2026-01-28 22:10:18.71	109.44	17.93	-39.5	-41.3	19.6	0.00e+00	0	41	0	0	50	4455
2026-01-28 22:10:21.68	110.08	17.80	-39.6	-41.3	19.6	0.00e+00	0	40	0	0	50	4490
2026-01-28 22:10:24.67	110.73	17.67	-39.7	-41.5	19.5	0.00e+00	0	41	0	0	50	4547
2026-01-28 22:10:27.65	111.37	17.53	-39.7	-41.5	19.4	0.00e+00	0	40	0	0	50	4571
2026-01-28 22:10:30.63	112.01	17.39	-39.7	-41.5	19.2	0.00e+00	0	40	0	0	50	4561
2026-01-28 22:10:33.62	112.64	17.25	-39.6	-41.3	19.5	0.00e+00	0	40	0	0	50	4466
2026-01-28 22:10:36.60	113.26	17.11	-39.5	-41.2	19.7	0.00e+00	0	41	0	0	50	4410
2026-01-28 22:10:39.59	113.88	16.97	-39.7	-41.5	19.4	0.00e+00	0	41	0	0	50	4564
2026-01-28 22:10:42.57	114.49	16.82	-40.0	-41.8	19.1	0.00e+00	0	41	0	0	50	4720
2026-01-28 22:10:45.56	115.10	16.67	-40.1	-41.8	19.1	0.00e+00	0	40	0	0	51	4482
2026-01-28 22:10:48.54	115.70	16.52	-39.8	-41.6	19.3	0.00e+00	0	40	0	0	51	4341
2026-01-28 22:10:51.52	116.29	16.37	-39.6	-41.4	19.6	0.00e+00	0	40	0	0	51	4243
2026-01-28 22:10:54.51	116.88	16.21	-39.8	-41.5	19.4	0.00e+00	0	40	0	0	51	4332
2026-01-28 22:10:57.51	117.47	16.05	-40.2	-42.0	19.0	0.00e+00	0	40	0	0	51	4566
2026-01-28 22:11:00.50	118.05	15.90	-40.1	-41.9	19.1	0.00e+00	0	40	0	0	51	4524
2026-01-28 22:11:03.48	118.62	15.74	-40.0	-41.8	19.1	0.00e+00	0	40	0	0	51	4459
2026-01-28 22:11:06.46	119.18	15.57	-40.0	-41.7	19.3	0.00e+00	0	40	0	0	51	4424
2026-01-28 22:11:09.44	119.74	15.41	-40.0	-41.8	19.2	0.00e+00	0	40	0	0	51	4461
2026-01-28 22:11:12.44	120.30	15.24	-40.2	-42.0	19.0	0.00e+00	0	40	0	0	51	4595
2026-01-28 22:11:15.49	120.86	15.07	-40.3	-42.1	18.9	0.00e+00	0	40	0	0	51	4641
2026-01-28 22:11:18.43	121.39	14.91	-40.2	-42.1	18.9	0.00e+00	0	40	0	0	51	4606
2026-01-28 22:11:21.56	121.95	14.73	-40.3	-42.1	18.8	0.00e+00	0	40	0	0	51	4628
2026-01-28 22:11:24.40	122.46	14.57	-40.1	-41.9	19.0	0.00e+00	0	40	0	0	51	4521
2026-01-28 22:11:27.53	123.00	14.39	-40.2	-42.0	19.0	0.00e+00	0	40	0	0	51	4552
2026-01-28 22:11:30.41	123.50	14.23	-40.2	-42.0	19.0	0.00e+00	0	40	0	0	51	4558
2026-01-28 22:11:33.59	124.05	14.04	-40.3	-42.1	18.9	0.00e+00	0	41	0	0	51	4623
2026-01-28 22:11:36.43	124.53	13.88	-40.1	-41.9	19.1	0.00e+00	0	41	0	0	51	4529
2026-01-28 22:11:39.55	125.06	13.69	-40.1	-41.9	19.1	0.00e+00	0	41	0	0	51	4513
2026-01-28 22:11:42.39	125.53	13.53	-40.1	-41.8	19.1	0.00e+00	0	40	0	0	51	4493
2026-01-28 22:11:45.52	126.04	13.34	-40.0	-41.7	19.2	0.00e+00	0	41	0	0	51	4440
2026-01-28 22:11:48.43	126.51	13.17	-40.1	-41.9	19.0	0.00e+00	0	40	0	0	51	4533
2026-01-28 22:11:51.62	127.02	12.98	-40.2	-42.0	18.9	0.00e+00	0	41	0	0	51	4567
2026-01-28 22:11:54.47	127.47	12.81	-40.3	-42.1	18.8	0.00e+00	0	41	0	0	51	4622
2026-01-28 22:11:57.55	127.95	12.63	-40.3	-42.2	18.7	0.00e+00	0	41	0	0	51	4672
2026-01-28 22:12:00.53	128.41	12.45	-40.4	-42.3	18.6	0.00e+00	0	40	0	0	51	4737
2026-01-28 22:12:03.52	128.87	12.27	-40.6	-42.5	18.4	0.00e+00	0	41	0	0	51	4859
2026-01-28 22:12:06.51	129.32	12.09	-40.6	-42.5	18.2	0.00e+00	0	40	0	0	52	4551
2026-01-28 22:12:09.51	129.77	11.91	-40.7	-42.7	18.1	0.00e+00	0	40	0	0	52	4653
2026-01-28 22:12:12.49	130.21	11.73	-40.9	-42.8	18.0	0.00e+00	0	40	0	0	52	4748
2026-01-28 22:12:15.48	130.64	11.55	-40.9	-42.9	18.0	0.00e+00	0	40	0	0	52	4762
2026-01-28 22:12:18.46	131.07	11.37	-40.7	-42.6	18.2	0.00e+00	0	40	0	0	52	4642
2026-01-28 22:12:21.44	131.50	11.19	-40.7	-42.6	18.1	0.00e+00	0	40	0	0	52	4648
2026-01-28 22:12:24.47	131.92	11.01	-40.8	-42.8	18.0	0.00e+00	0	40	0	0	52	4724
2026-01-28 22:12:27.55	132.35	10.82	-41.0	-42.9	17.9	0.00e+00	0	40	0	0	52	4800
2026-01-28 22:12:30.41	132.74	10.65	-41.1	-43.1	17.8	0.00e+00	0	40	0	0	52	4880
2026-01-28 22:12:33.54	133.17	10.46	-41.1	-43.1	17.7	0.00e+00	0	40	0	0	53	4620
2026-01-28 22:12:36.38	133.55	10.29	-41.1	-43.1	17.6	0.00e+00	0	41	0	0	53	4634
2026-01-28 22:12:39.51	133.96	10.10	-41.1	-43.0	17.7	0.00e+00	0	40	0	0	53	4591
2026-01-28 22:12:42.36	134.33	9.93	-41.3	-43.3	17.3	0.00e+00	0	40	0	0	53	4746
2026-01-28 22:12:45.48	134.74	9.74	-41.5	-43.6	17.2	0.00e+00	0	40	0	0	53	4881
2026-01-28 22:12:48.33	135.10	9.57	-41.5	-43.6	17.1	0.00e+00	0	41	0	0	53	4922
2026-01-28 22:12:51.45	135.50	9.38	-41.5	-43.5	17.2	0.00e+00	0	40	0	0	53	4868
2026-01-28 22:12:54.29	135.85	9.21	-41.5	-43.6	17.1	0.00e+00	0	40	0	0	53	4898
2026-01-28 22:12:57.59	136.26	9.02	-44.4	-47.3	13.9	0.00e+00	0	40	0	0	59	5320
2026-01-28 22:13:00.51	136.61	8.84	-49.7	-62.7	3.8	1.49e+00	0	40	104	0	69	17570
2026-01-28 22:13:03.84	137.01	8.64	-49.9	-62.9	3.8	1.49e+00	0	40	104	0	70	17040
2026-01-28 22:13:06.54	137.33	8.48	-50.0	-63.0	3.8	1.49e+00	0	40	104	0	70	17140
2026-01-28 22:13:09.80	137.72	8.29	-50.1	-63.1	3.8	1.49e+00	0	40	104	0	70	17304
2026-01-28 22:13:12.51	138.03	8.13	-50.1	-63.1	3.8	1.49e+00	0	40	104	0	70	17394
2026-01-28 22:13:15.77	138.41	7.93	-50.0	-63.1	3.8	1.49e+00	0	40	104	0	70	17392
2026-01-28 22:13:18.48	138.71	7.77	-50.1	-63.1	3.8	1.49e+00	0	40	104	0	71	16497
2026-01-28 22:13:21.87	139.09	7.57	-50.1	-63.1	3.8	1.49e+00	0	40	104	0	71	16465
2026-01-28 22:13:24.59	139.39	7.41	-50.1	-63.1	3.8	1.49e+00	0	40	104	0	71	16456
2026-01-28 22:13:27.87	139.75	7.22	-50.1	-63.2	3.8	1.49e+00	0	40	104	0	71	16521
2026-01-28 22:13:30.58	140.05	7.06	-50.0	-63.1	3.8	1.49e+00	0	41	104	0	71	16479
2026-01-28 22:13:33.84	140.39	6.87	-49.9	-63.0	3.8	1.49e+00	0	41	104	0	71	16305
2026-01-28 22:13:36.54	140.68	6.72	-49.9	-62.9	3.8	1.49e+00	0	41	104	0	71	16115
2026-01-28 22:13:39.80	141.02	6.53	-49.4	-62.5	3.8	1.49e+00	0	41	104	0	70	16228
2026-01-28 22:13:42.51	141.30	6.37	-49.0	-62.1	3.9	1.49e+00	0	40	104	0	69	16488
2026-01-28 22:13:45.78	141.63	6.18	-49.0	-62.1	3.9	1.49e+00	0	40	104	0	69	16462
2026-01-28 22:13:48.49	141.91	6.02	-49.1	-62.2	3.8	1.49e+00	0	40	104	0	69	16689
2026-01-28 22:13:51.75	142.23	5.84	-49.3	-62.4	3.8	1.49e+00	0	40	104	0	69	16993
2026-01-28 22:13:54.47	142.50	5.68	-49.2	-62.4	3.8	1.49e+00	0	40	104	0	69	16927
2026-01-28 22:13:57.73	142.82	5.49	-49.2	-62.4	3.8	1.49e+00	0	40	104	0	69	16919
2026-01-28 22:14:00.43	143.08	5.34	-49.2	-62.4	3.8	1.49e+00	0	40	104	0	69	16943
2026-01-28 22:14:03.69	143.39	5.16	-49.2	-62.4	3.8	1.49e+00	0	40	104	0	69	16964
2026-01-28 22:14:06.40	143.65	5.00	-49.2	-62.4	3.8	1.49e+00	0	40	104	0	69	16890

#Closed at: 2026-01-28 22:14:07
#Recorded file [0 MB]: D:/Data/31040_260129_010324.dat