passes_logs/2026/01/28/T1/T1__20260128_102224_SUOMI_NPP_rec.log

#Pass ID: 20260128_102224_SUOMI NPP
#Satellite: SUOMI NPP
#Configuration: NPP
#almurnet v.1.7.20251203
#Start time: 2026-01-28 10:22:25

#Version: 2.0.20230620
#Station: T1
#Location: 37.570604 lon 55.790049 lat
#TLE: 1 37849U 11061A   26027.86188320  .00000172  00000+0  10275-3 0  9990
#TLE: 2 37849  98.7823 329.8005 0002088  41.4184 318.7150 14.19530883738530

#Time	Az	El	Level	Level2	SNR	BER	BlckErr	Temp	State	Recorded	gain1	gain2
2026-01-28 10:22:25.83	171.83	5.11	-50.0	-65.4	3.8	1.49e+00	0	41	0	0	71	21432
2026-01-28 10:22:29.80	171.92	5.40	-49.8	-65.4	3.8	1.49e+00	0	41	104	0	71	21434
2026-01-28 10:22:33.77	172.01	5.69	-50.2	-65.4	3.8	1.49e+00	0	42	104	0	71	21382
2026-01-28 10:22:37.74	172.10	5.98	-50.2	-65.4	3.8	1.49e+00	0	42	104	0	71	21304
2026-01-28 10:22:41.72	172.19	6.27	-49.9	-65.3	3.8	1.49e+00	0	42	104	0	71	21232
2026-01-28 10:22:45.69	172.29	6.57	-48.7	-65.1	3.8	1.49e+00	0	42	104	0	68	24539
2026-01-28 10:22:49.66	172.38	6.87	-46.7	-63.9	3.8	1.49e+00	0	42	104	0	65	25533
2026-01-28 10:22:53.64	172.48	7.18	-46.0	-63.9	3.8	1.49e+00	0	42	104	0	63	28365
2026-01-28 10:22:57.61	172.58	7.49	-45.9	-58.8	5.1	8.51e-01	0	42	0	2097152	63	15881
2026-01-28 10:23:01.58	172.68	7.80	-45.1	-54.0	9.2	3.31e-02	0	43	0	9437184	62	9680
2026-01-28 10:23:05.55	172.79	8.11	-44.7	-52.1	11.2	1.47e-03	0	42	0	16777216	61	8193
2026-01-28 10:23:09.52	172.89	8.43	-44.7	-52.5	10.8	1.68e-03	0	43	0	24117248	60	9152
2026-01-28 10:23:13.49	173.00	8.76	-45.5	-56.3	7.1	1.10e-01	0	43	0	31457280	61	13299
2026-01-28 10:23:17.46	173.11	9.09	-45.5	-59.3	4.8	1.45e+00	0	43	104	36700160	62	17738
2026-01-28 10:23:21.44	173.23	9.42	-45.1	-56.2	7.6	3.26e-04	0	43	0	39845888	60	14019
2026-01-28 10:23:25.41	173.34	9.76	-44.4	-49.3	14.1	3.80e-06	0	43	0	44040192	60	6338
2026-01-28 10:23:29.38	173.46	10.10	-44.2	-48.6	14.7	7.00e-07	0	43	0	51380224	60	5852
2026-01-28 10:23:33.35	173.58	10.44	-43.4	-47.2	16.1	0.00e+00	0	43	0	58720256	58	5578
2026-01-28 10:23:37.32	173.70	10.80	-43.1	-46.6	16.7	0.00e+00	0	43	0	66060288	58	5200
2026-01-28 10:23:41.29	173.83	11.15	-42.7	-46.1	17.2	0.00e+00	0	43	0	73400320	57	5213
2026-01-28 10:23:45.27	173.96	11.51	-42.4	-45.5	17.8	0.00e+00	0	43	0	81788928	56	5128
2026-01-28 10:23:49.24	174.09	11.88	-42.8	-45.6	17.8	0.00e+00	0	43	0	89128960	56	5166
2026-01-28 10:23:53.21	174.22	12.25	-43.0	-45.8	17.6	0.00e+00	0	43	0	96468992	56	5281
2026-01-28 10:23:57.18	174.36	12.63	-43.0	-45.5	17.8	0.00e+00	0	43	0	103809024	56	5149
2026-01-28 10:24:01.15	174.50	13.01	-42.7	-45.1	18.2	0.00e+00	0	43	0	111149056	56	4921
2026-01-28 10:24:05.12	174.64	13.40	-42.7	-45.1	18.3	0.00e+00	0	43	0	118489088	56	4922
2026-01-28 10:24:09.10	174.79	13.80	-42.6	-45.1	18.3	0.00e+00	0	43	0	125829120	56	4884
2026-01-28 10:24:13.07	174.94	14.20	-42.7	-45.2	18.2	0.00e+00	0	43	0	133169152	56	4962
2026-01-28 10:24:17.04	175.10	14.61	-42.5	-45.0	18.4	0.00e+00	0	43	0	140509184	56	4856
2026-01-28 10:24:21.01	175.26	15.03	-42.4	-44.9	18.5	0.00e+00	0	43	0	147849216	56	4781
2026-01-28 10:24:24.98	175.42	15.45	-42.8	-45.3	18.1	0.00e+00	0	44	0	156237824	56	5041
2026-01-28 10:24:28.95	175.59	15.88	-42.9	-45.4	18.1	0.00e+00	0	43	0	163577856	56	5071
2026-01-28 10:24:32.92	175.76	16.32	-43.1	-45.7	17.8	0.00e+00	0	43	0	170917888	56	5261
2026-01-28 10:24:36.90	175.94	16.76	-43.2	-45.8	17.7	0.00e+00	0	44	0	178257920	57	5027
2026-01-28 10:24:40.87	176.12	17.22	-43.4	-46.1	17.4	0.00e+00	0	44	0	185597952	57	5183
2026-01-28 10:24:44.84	176.31	17.68	-43.5	-46.2	17.3	0.00e+00	0	44	0	192937984	57	5247
2026-01-28 10:24:48.81	176.50	18.15	-43.8	-46.6	17.0	0.00e+00	0	44	0	200278016	58	5206
2026-01-28 10:24:52.78	176.70	18.63	-44.1	-46.9	16.7	0.00e+00	0	44	0	207618048	58	5379
2026-01-28 10:24:56.76	176.90	19.12	-44.0	-46.8	16.9	0.00e+00	0	43	0	214958080	59	5001
2026-01-28 10:25:00.73	177.12	19.62	-43.7	-46.5	17.1	0.00e+00	0	44	0	222298112	59	4836
2026-01-28 10:25:04.70	177.33	20.13	-43.6	-46.2	17.4	0.00e+00	0	44	0	230686720	58	4973
2026-01-28 10:25:08.67	177.56	20.64	-43.7	-46.6	17.0	0.00e+00	0	44	0	238026752	58	5166
2026-01-28 10:25:12.64	177.79	21.17	-44.1	-47.0	16.6	0.00e+00	0	44	0	245366784	58	5425
2026-01-28 10:25:16.61	178.03	21.71	-44.1	-47.1	16.6	0.00e+00	0	44	0	252706816	59	5184
2026-01-28 10:25:20.58	178.28	22.26	-43.8	-46.6	17.0	0.00e+00	0	44	0	260046848	59	4908
2026-01-28 10:25:24.56	178.53	22.83	-43.7	-46.4	17.2	0.00e+00	0	44	0	267386880	59	4794
2026-01-28 10:25:28.53	178.80	23.40	-43.5	-46.2	17.4	0.00e+00	0	43	0	274726912	58	4953
2026-01-28 10:25:32.50	179.07	23.99	-43.0	-45.4	18.1	0.00e+00	0	44	0	282066944	58	4535
2026-01-28 10:25:36.47	179.36	24.59	-42.7	-45.1	18.5	0.00e+00	0	44	0	289406976	56	4897
2026-01-28 10:25:40.44	179.65	25.20	-42.8	-45.2	18.4	0.00e+00	0	44	0	297795584	56	4967
2026-01-28 10:25:44.41	179.96	25.83	-42.6	-45.0	18.6	0.00e+00	0	44	0	305135616	56	4833
2026-01-28 10:25:48.39	180.28	26.47	-42.9	-45.3	18.3	0.00e+00	0	43	0	312475648	56	5031
2026-01-28 10:25:52.36	180.61	27.12	-43.3	-45.8	17.8	0.00e+00	0	44	0	319815680	57	5025
2026-01-28 10:25:56.33	180.95	27.79	-42.9	-45.4	18.2	0.00e+00	0	44	0	327155712	57	4780
2026-01-28 10:26:00.30	181.31	28.48	-42.9	-45.4	18.2	0.00e+00	0	44	0	334495744	57	4786
2026-01-28 10:26:04.27	181.69	29.18	-42.8	-45.2	18.4	0.00e+00	0	44	0	341835776	57	4689
2026-01-28 10:26:08.25	182.08	29.90	-42.2	-44.5	19.1	0.00e+00	0	44	0	349175808	56	4583
2026-01-28 10:26:12.22	182.49	30.64	-43.6	-46.2	17.5	0.00e+00	0	44	0	356515840	58	4955
2026-01-28 10:26:16.19	182.91	31.39	-45.0	-48.2	15.7	0.00e+00	0	44	0	363855872	60	5542
2026-01-28 10:26:20.16	183.36	32.17	-44.8	-47.8	15.9	0.00e+00	0	44	0	372244480	60	5338
2026-01-28 10:26:24.13	183.83	32.96	-44.9	-48.0	15.8	0.00e+00	0	44	0	379584512	61	5134
2026-01-28 10:26:28.10	184.32	33.77	-45.2	-48.4	15.4	0.00e+00	0	44	0	386924544	61	5391
2026-01-28 10:26:32.08	184.83	34.60	-44.5	-47.5	16.3	0.00e+00	0	44	0	394264576	61	4845
2026-01-28 10:26:36.05	185.38	35.45	-44.5	-47.5	16.4	0.00e+00	0	44	0	401604608	60	5117
2026-01-28 10:26:40.02	185.94	36.32	-45.0	-48.1	15.7	0.00e+00	0	44	0	408944640	61	5213
2026-01-28 10:26:43.99	186.55	37.21	-45.4	-48.7	15.2	0.00e+00	0	44	0	416284672	61	5567
2026-01-28 10:26:47.96	187.18	38.12	-46.1	-49.9	13.9	5.30e-06	0	44	0	423624704	63	5690
2026-01-28 10:26:51.93	187.85	39.05	-45.3	-48.5	15.4	0.00e+00	0	44	0	430964736	62	5140
2026-01-28 10:26:55.90	188.56	40.00	-46.4	-50.2	13.8	0.00e+00	0	44	0	438304768	63	5899
2026-01-28 10:26:59.88	189.31	40.98	-46.1	-49.9	14.1	7.00e-07	0	44	0	446693376	63	5683
2026-01-28 10:27:03.85	190.11	41.98	-46.3	-50.2	13.6	1.06e-05	0	44	0	454033408	63	5903
2026-01-28 10:27:07.82	190.96	42.99	-45.4	-48.7	15.1	0.00e+00	0	44	0	461373440	62	5262
2026-01-28 10:27:11.79	191.86	44.03	-43.8	-46.4	17.3	0.00e+00	0	44	0	468713472	59	4799
2026-01-28 10:27:15.76	192.82	45.09	-44.1	-46.9	16.9	0.00e+00	0	44	0	476053504	59	5074
2026-01-28 10:27:19.73	193.85	46.17	-44.4	-47.3	16.5	0.00e+00	0	44	0	483393536	60	5029
2026-01-28 10:27:23.70	194.95	47.26	-44.7	-47.6	16.3	0.00e+00	0	44	0	490733568	61	4874
2026-01-28 10:27:27.68	196.14	48.38	-43.5	-46.0	17.8	0.00e+00	0	44	0	498073600	58	4826
2026-01-28 10:27:31.65	197.40	49.50	-43.5	-46.2	17.6	0.00e+00	0	44	0	505413632	58	4950
2026-01-28 10:27:35.62	198.77	50.64	-42.6	-45.1	18.6	0.00e+00	0	44	0	512753664	57	4611
2026-01-28 10:27:39.59	200.24	51.80	-41.9	-44.1	19.4	0.00e+00	0	44	0	521142272	54	4885
2026-01-28 10:27:43.56	201.83	52.95	-41.0	-43.0	20.2	0.00e+00	0	44	0	528482304	54	4336
2026-01-28 10:27:47.53	203.55	54.11	-39.8	-41.8	21.4	0.00e+00	0	44	0	535822336	51	4447
2026-01-28 10:27:51.51	205.41	55.27	-40.4	-42.5	20.9	0.00e+00	0	44	0	543162368	51	4816
2026-01-28 10:27:55.48	207.43	56.43	-41.7	-43.9	19.6	0.00e+00	0	44	0	550502400	54	4798
2026-01-28 10:27:59.45	209.62	57.57	-41.2	-43.3	19.9	0.00e+00	0	44	0	557842432	53	4729
2026-01-28 10:28:03.42	212.00	58.68	-41.7	-43.9	19.6	0.00e+00	0	44	0	565182464	54	4777
2026-01-28 10:28:07.39	214.59	59.77	-42.9	-45.4	18.4	0.00e+00	0	44	0	572522496	56	5058
2026-01-28 10:28:11.36	217.40	60.83	-42.7	-45.0	18.8	0.00e+00	0	44	0	579862528	56	4830
2026-01-28 10:28:15.33	220.44	61.83	-42.7	-45.0	18.7	0.00e+00	0	44	0	588251136	56	4854
2026-01-28 10:28:19.30	223.74	62.77	-43.4	-46.0	17.8	0.00e+00	0	44	0	595591168	57	5123
2026-01-28 10:28:23.27	227.29	63.64	-41.7	-43.9	19.6	0.00e+00	0	44	0	602931200	54	4770
2026-01-28 10:28:27.24	231.09	64.42	-40.6	-42.7	20.7	0.00e+00	0	44	0	610271232	53	4395
2026-01-28 10:28:31.22	235.16	65.11	-44.4	-47.2	16.7	0.00e+00	0	44	0	617611264	59	5252
2026-01-28 10:28:35.19	239.45	65.68	-42.9	-45.2	18.4	0.00e+00	0	44	0	624951296	57	4690
2026-01-28 10:28:39.16	243.95	66.13	-42.2	-44.4	19.3	0.00e+00	0	44	0	632291328	56	4505
2026-01-28 10:28:43.13	248.60	66.44	-43.6	-46.1	17.7	0.00e+00	0	44	0	639631360	58	4902
2026-01-28 10:28:47.10	253.35	66.60	-42.7	-45.0	18.7	0.00e+00	0	44	0	646971392	57	4550
2026-01-28 10:28:51.07	258.15	66.62	-42.7	-45.1	18.6	0.00e+00	0	44	0	654311424	57	4625
2026-01-28 10:28:55.04	262.92	66.49	-42.2	-44.5	19.3	0.00e+00	0	44	0	662700032	56	4560
2026-01-28 10:28:59.01	267.60	66.22	-42.4	-44.7	18.8	0.00e+00	0	44	0	670040064	55	4974
2026-01-28 10:29:02.99	272.15	65.81	-41.5	-43.6	19.9	0.00e+00	0	44	0	677380096	54	4607
2026-01-28 10:29:06.96	276.49	65.27	-41.6	-43.8	19.7	0.00e+00	0	44	0	684720128	54	4725
2026-01-28 10:29:10.93	280.61	64.62	-42.3	-44.5	19.2	0.00e+00	0	44	0	692060160	56	4569
2026-01-28 10:29:14.90	284.48	63.86	-42.1	-44.4	19.2	0.00e+00	0	44	0	699400192	54	5047
2026-01-28 10:29:18.87	288.10	63.02	-41.2	-43.3	20.1	0.00e+00	0	44	0	706740224	54	4467
2026-01-28 10:29:22.84	291.45	62.09	-40.3	-42.3	21.0	0.00e+00	0	44	0	714080256	52	4449
2026-01-28 10:29:26.82	294.56	61.11	-40.8	-42.9	20.5	0.00e+00	0	44	0	721420288	52	4761
2026-01-28 10:29:30.79	297.43	60.07	-39.2	-41.0	22.1	0.00e+00	0	44	0	728760320	50	4326
2026-01-28 10:29:34.76	300.07	58.99	-40.0	-41.9	21.3	0.00e+00	0	44	0	736100352	50	4814
2026-01-28 10:29:38.73	302.50	57.88	-41.1	-43.3	20.1	0.00e+00	0	44	0	744488960	52	4996
2026-01-28 10:29:42.71	304.74	56.75	-41.1	-43.4	19.8	0.00e+00	0	44	0	751828992	52	5078
2026-01-28 10:29:46.68	306.80	55.61	-40.2	-42.2	20.9	0.00e+00	0	44	0	759169024	52	4418
2026-01-28 10:29:50.65	308.70	54.45	-41.1	-43.3	20.0	0.00e+00	0	44	0	766509056	53	4745
2026-01-28 10:29:54.62	310.45	53.30	-41.4	-43.5	19.9	0.00e+00	0	44	0	773849088	54	4560
2026-01-28 10:29:58.59	312.07	52.14	-42.4	-44.7	19.1	0.00e+00	0	44	0	781189120	56	4673
2026-01-28 10:30:02.56	313.57	51.00	-41.6	-43.8	19.7	0.00e+00	0	44	0	788529152	55	4459
2026-01-28 10:30:06.53	314.96	49.86	-41.8	-44.0	19.5	0.00e+00	0	44	0	795869184	55	4582
2026-01-28 10:30:10.51	316.26	48.73	-43.1	-45.6	18.1	0.00e+00	0	44	0	803209216	57	4926
2026-01-28 10:30:14.48	317.46	47.62	-42.0	-44.2	19.3	0.00e+00	0	44	0	810549248	54	4958
2026-01-28 10:30:18.45	318.58	46.52	-44.8	-47.8	16.1	0.00e+00	0	44	0	818937856	61	5032
2026-01-28 10:30:22.42	319.63	45.45	-43.8	-46.5	17.4	0.00e+00	0	44	0	826277888	59	4821
2026-01-28 10:30:26.39	320.61	44.39	-43.4	-45.9	17.8	0.00e+00	0	44	0	833617920	58	4814
2026-01-28 10:30:30.36	321.52	43.35	-43.7	-46.3	17.5	0.00e+00	0	44	0	840957952	58	4998
2026-01-28 10:30:34.33	322.39	42.33	-43.4	-46.0	17.8	0.00e+00	0	44	0	848297984	58	4816
2026-01-28 10:30:38.31	323.20	41.33	-40.7	-42.7	20.6	0.00e+00	0	44	0	855638016	52	4689
2026-01-28 10:30:42.28	323.96	40.36	-44.9	-48.1	15.8	0.00e+00	0	44	0	862978048	60	5527
2026-01-28 10:30:46.25	324.68	39.40	-42.3	-44.7	19.0	0.00e+00	0	44	0	870318080	56	4685
2026-01-28 10:30:50.22	325.36	38.47	-42.1	-44.6	18.9	0.00e+00	0	44	0	877658112	54	5209
2026-01-28 10:30:54.19	326.01	37.56	-43.8	-46.6	17.1	0.00e+00	0	44	0	886046720	59	4926
2026-01-28 10:30:58.17	326.62	36.66	-41.5	-43.7	19.8	0.00e+00	0	44	0	893386752	54	4683
2026-01-28 10:31:02.14	327.20	35.79	-44.4	-47.5	16.4	0.00e+00	0	44	0	900726784	59	5440
2026-01-28 10:31:06.11	327.75	34.94	-43.3	-45.9	17.8	0.00e+00	0	44	0	908066816	58	4807
2026-01-28 10:31:10.08	328.27	34.11	-42.4	-44.7	18.9	0.00e+00	0	44	0	915406848	56	4694
2026-01-28 10:31:14.05	328.77	33.30	-43.4	-46.0	17.8	0.00e+00	0	44	0	922746880	57	5141
2026-01-28 10:31:18.02	329.24	32.51	-43.4	-46.0	17.7	0.00e+00	0	44	0	930086912	58	4830
2026-01-28 10:31:21.99	329.69	31.73	-43.9	-46.7	17.1	0.00e+00	0	44	0	937426944	58	5221
2026-01-28 10:31:25.97	330.13	30.98	-44.1	-47.2	16.6	0.00e+00	0	44	0	944766976	59	5239
2026-01-28 10:31:29.94	330.54	30.24	-43.8	-46.8	16.9	0.00e+00	0	44	0	952107008	59	5012
2026-01-28 10:31:33.91	330.94	29.52	-43.7	-46.4	17.3	0.00e+00	0	44	0	960495616	58	5079
2026-01-28 10:31:37.88	331.32	28.82	-44.0	-46.9	16.9	0.00e+00	0	44	0	967835648	59	5065
2026-01-28 10:31:41.85	331.68	28.13	-43.8	-46.8	17.0	0.00e+00	0	44	0	975175680	59	5018
2026-01-28 10:31:45.82	332.04	27.46	-42.5	-45.2	18.4	0.00e+00	0	44	0	982515712	57	4652
2026-01-28 10:31:49.79	332.37	26.80	-42.4	-44.9	18.8	0.00e+00	0	44	0	989855744	56	4767
2026-01-28 10:31:53.77	332.70	26.16	-42.8	-45.3	18.4	0.00e+00	0	44	0	997195776	56	4984
2026-01-28 10:31:57.74	333.01	25.53	-43.1	-45.7	18.0	0.00e+00	0	44	0	1004535808	57	4942
2026-01-28 10:32:01.71	333.31	24.91	-42.9	-45.5	18.1	0.00e+00	0	44	0	1011875840	57	4847
2026-01-28 10:32:05.68	333.60	24.31	-43.0	-45.7	18.0	0.00e+00	0	44	0	1019215872	57	4949
2026-01-28 10:32:09.65	333.88	23.73	-42.5	-45.2	18.4	0.00e+00	0	44	0	1026555904	57	4685
2026-01-28 10:32:13.62	334.15	23.15	-41.3	-43.6	19.7	0.00e+00	0	44	0	1034944512	54	4611
2026-01-28 10:32:17.60	334.41	22.59	-40.0	-42.0	21.1	0.00e+00	0	44	0	1042284544	52	4324
2026-01-28 10:32:21.57	334.66	22.04	-40.5	-42.5	20.7	0.00e+00	0	44	0	1049624576	51	4828
2026-01-28 10:32:25.54	334.91	21.49	-40.9	-43.1	20.2	0.00e+00	0	44	0	1056964608	52	4876
2026-01-28 10:32:29.51	335.14	20.97	-41.2	-43.5	19.8	0.00e+00	0	44	0	1064304640	53	4824
2026-01-28 10:32:33.48	335.37	20.45	-40.8	-43.0	20.1	0.00e+00	0	44	0	1071644672	53	4591
2026-01-28 10:32:37.45	335.59	19.94	-40.8	-43.0	20.2	0.00e+00	0	44	0	1078984704	53	4553
2026-01-28 10:32:41.42	335.81	19.44	-41.0	-43.2	20.0	0.00e+00	0	44	0	1086324736	53	4685
2026-01-28 10:32:45.40	336.02	18.95	-41.2	-43.5	19.7	0.00e+00	0	44	0	1093664768	53	4815
2026-01-28 10:32:49.37	336.22	18.47	-41.7	-44.1	19.2	0.00e+00	0	44	0	1101004800	54	4905
2026-01-28 10:32:53.34	336.42	18.00	-42.2	-44.7	18.7	0.00e+00	0	44	0	1109393408	55	4934
2026-01-28 10:32:57.31	336.61	17.54	-42.5	-45.0	18.4	0.00e+00	0	44	0	1116733440	55	5120
2026-01-28 10:33:01.28	336.80	17.08	-42.4	-44.9	18.4	0.00e+00	0	44	0	1124073472	55	5070
2026-01-28 10:33:05.25	336.98	16.64	-42.1	-44.5	18.8	0.00e+00	0	44	0	1131413504	55	4858
2026-01-28 10:33:09.22	337.15	16.20	-41.7	-43.9	19.2	0.00e+00	0	44	0	1138753536	55	4539
2026-01-28 10:33:13.20	337.33	15.77	-41.5	-43.7	19.5	0.00e+00	0	44	0	1146093568	54	4673
2026-01-28 10:33:17.17	337.50	15.34	-41.3	-43.5	19.7	0.00e+00	0	44	0	1153433600	54	4590
2026-01-28 10:33:21.14	337.66	14.93	-41.3	-43.7	19.5	0.00e+00	0	44	0	1160773632	54	4681
2026-01-28 10:33:25.11	337.82	14.52	-41.6	-44.1	19.1	0.00e+00	0	44	0	1168113664	54	4907
2026-01-28 10:33:29.08	337.97	14.12	-41.9	-44.4	18.8	0.00e+00	0	44	0	1176502272	54	5079
2026-01-28 10:33:33.05	338.13	13.72	-41.9	-44.5	18.8	0.00e+00	0	44	0	1183842304	54	5120
2026-01-28 10:33:37.03	338.28	13.33	-42.1	-44.9	18.3	0.00e+00	0	44	0	1191182336	54	5372
2026-01-28 10:33:41.00	338.42	12.94	-42.3	-45.3	17.9	0.00e+00	0	44	0	1198522368	55	5309
2026-01-28 10:33:44.97	338.56	12.57	-42.9	-45.9	17.6	0.00e+00	0	44	0	1205862400	56	5345
2026-01-28 10:33:48.94	338.70	12.19	-43.4	-46.4	17.1	0.00e+00	0	44	0	1213202432	57	5360
2026-01-28 10:33:52.91	338.84	11.83	-43.7	-46.8	16.7	0.00e+00	0	44	0	1220542464	58	5286
2026-01-28 10:33:56.88	338.97	11.47	-43.9	-47.4	16.0	0.00e+00	0	44	0	1227882496	58	5667
2026-01-28 10:34:00.86	339.10	11.11	-43.8	-47.6	15.9	0.00e+00	0	44	0	1235222528	58	5806
2026-01-28 10:34:04.83	339.23	10.76	-43.8	-47.3	16.1	0.00e+00	0	44	0	1242562560	58	5650
2026-01-28 10:34:08.80	339.35	10.41	-43.9	-47.2	16.2	0.00e+00	0	44	0	1250951168	58	5552
2026-01-28 10:34:12.77	339.47	10.07	-43.7	-46.8	16.6	0.00e+00	0	44	0	1258291200	58	5316
2026-01-28 10:34:16.74	339.59	9.73	-43.5	-46.6	16.8	0.00e+00	0	44	0	1265631232	58	5196
2026-01-28 10:34:20.71	339.71	9.40	-43.4	-46.4	16.9	0.00e+00	0	44	0	1272971264	58	5078
2026-01-28 10:34:24.69	339.83	9.07	-43.3	-46.2	17.1	0.00e+00	0	44	0	1280311296	58	4983
2026-01-28 10:34:28.66	339.94	8.75	-49.0	-64.7	3.8	1.49e+00	0	44	104	1282408448	68	23526
2026-01-28 10:34:32.63	340.05	8.43	-48.3	-64.4	3.8	1.49e+00	0	44	104	1282408448	67	23859
2026-01-28 10:34:36.60	340.16	8.11	-48.8	-64.6	3.8	1.49e+00	0	44	104	1282408448	69	21965
2026-01-28 10:34:40.58	340.27	7.80	-49.4	-64.7	3.8	1.49e+00	0	44	104	1282408448	69	22119
2026-01-28 10:34:44.55	340.37	7.49	-49.4	-64.8	3.8	1.49e+00	0	44	104	1282408448	69	22457
2026-01-28 10:34:48.52	340.48	7.18	-49.4	-64.8	3.8	1.49e+00	0	44	104	1282408448	69	22335
2026-01-28 10:34:52.49	340.58	6.88	-49.3	-64.7	3.8	1.49e+00	0	44	104	1282408448	69	22210
2026-01-28 10:34:56.46	340.68	6.58	-49.3	-64.7	3.8	1.49e+00	0	44	104	1282408448	69	22222
2026-01-28 10:35:00.44	340.78	6.29	-49.3	-64.8	3.8	1.49e+00	0	44	104	1282408448	69	22286
2026-01-28 10:35:04.41	340.87	6.00	-49.3	-64.7	3.8	1.49e+00	0	44	104	1282408448	69	22125
2026-01-28 10:35:08.38	340.97	5.71	-49.3	-64.7	3.8	1.49e+00	0	44	104	1282408448	69	22097
2026-01-28 10:35:12.35	341.06	5.42	-49.3	-64.7	3.8	1.49e+00	0	44	104	1282408448	69	22252
2026-01-28 10:35:16.32	341.15	5.14	-49.3	-64.7	3.8	1.49e+00	0	44	104	1282408448	69	22218

#Closed at: 2026-01-28 10:35:19
#Recorded file [1282 MB]: D:/Data/31040_260128_132225.dat