passes_logs/2026/01/28/T1/T1__20260128_014251_NOAA_21_JPSS-2_rec.log

#Pass ID: 20260128_014251_NOAA 21 (JPSS-2)
#Satellite: NOAA 21 (JPSS-2)
#Configuration: NOAA 21
#almurnet v.1.7.20251203
#Start time: 2026-01-28 01:42:52

#Version: 2.0.20230620
#Station: T1
#Location: 37.570604 lon 55.790049 lat
#TLE: 1 54234U 22150A   26027.41809747  .00000179  00000+0  10565-3 0  9991
#TLE: 2 54234  98.7510 328.1683 0000854 205.0798 155.0336 14.19540145166571

#Time	Az	El	Level	Level2	SNR	BER	BlckErr	Temp	State	Recorded	gain1	gain2
2026-01-28 01:42:52.58	4.44	5.07	-50.2	-63.4	3.8	1.49e+00	0	40	0	0	71	16985
2026-01-28 01:42:55.55	4.16	5.23	-50.3	-63.4	3.8	1.49e+00	0	40	104	0	72	15960
2026-01-28 01:42:58.53	3.87	5.40	-50.2	-63.4	3.8	1.49e+00	0	40	104	0	72	16048
2026-01-28 01:43:01.51	3.58	5.57	-50.3	-63.4	3.8	1.49e+00	0	41	104	0	71	16995
2026-01-28 01:43:04.49	3.29	5.73	-50.2	-63.4	3.8	1.49e+00	0	40	104	0	71	16978
2026-01-28 01:43:07.47	2.99	5.90	-49.8	-63.4	3.8	1.49e+00	0	41	104	0	71	16901
2026-01-28 01:43:10.45	2.69	6.07	-50.2	-63.3	3.8	1.49e+00	0	41	104	0	71	16775
2026-01-28 01:43:13.43	2.38	6.23	-49.8	-63.2	3.8	1.49e+00	0	41	104	0	70	17636
2026-01-28 01:43:16.41	2.07	6.40	-48.5	-63.0	3.8	1.49e+00	0	41	104	0	69	18238
2026-01-28 01:43:19.38	1.76	6.57	-47.8	-62.7	3.8	1.49e+00	0	41	104	0	67	19758
2026-01-28 01:43:22.36	1.44	6.74	-47.8	-62.7	3.8	1.49e+00	0	41	104	0	67	19677
2026-01-28 01:43:25.34	1.12	6.90	-47.8	-62.6	3.8	1.49e+00	0	41	104	0	67	19565
2026-01-28 01:43:28.32	0.80	7.07	-47.8	-62.6	3.8	1.49e+00	0	41	104	0	67	19450
2026-01-28 01:43:31.30	0.47	7.24	-47.8	-62.6	3.8	1.49e+00	0	41	104	0	67	19458
2026-01-28 01:43:34.28	0.14	7.41	-47.8	-62.6	3.8	1.49e+00	0	41	104	0	67	19520
2026-01-28 01:43:37.26	359.80	7.58	-47.8	-62.7	3.8	1.49e+00	0	41	104	0	67	19652
2026-01-28 01:43:40.24	359.46	7.75	-47.8	-62.6	3.8	1.49e+00	0	41	104	0	67	19576
2026-01-28 01:43:43.22	359.12	7.92	-47.8	-62.7	3.8	1.49e+00	0	41	104	0	67	19671
2026-01-28 01:43:46.20	358.77	8.09	-47.7	-62.3	3.8	1.49e+00	0	41	104	0	67	18877
2026-01-28 01:43:49.17	358.42	8.26	-47.7	-61.3	3.8	1.49e+00	0	41	104	0	67	16827
2026-01-28 01:43:52.15	358.06	8.43	-47.6	-59.9	4.0	1.48e+00	0	41	104	0	67	14371
2026-01-28 01:43:55.13	357.70	8.60	-47.4	-57.9	4.1	1.18e+00	0	41	104	0	66	12083
2026-01-28 01:43:58.11	357.34	8.77	-46.2	-52.2	9.1	3.26e-02	0	41	0	0	64	7027
2026-01-28 01:44:01.09	356.97	8.94	-44.7	-48.6	12.9	7.01e-05	0	41	0	0	61	5508
2026-01-28 01:44:04.07	356.59	9.11	-45.1	-49.2	12.4	8.01e-05	0	41	0	0	60	6247
2026-01-28 01:44:07.05	356.21	9.28	-41.7	-45.2	16.1	0.00e+00	0	41	0	0	54	5578
2026-01-28 01:44:10.02	355.83	9.45	-40.6	-43.4	17.8	0.00e+00	0	41	0	0	52	5074
2026-01-28 01:44:13.00	355.44	9.62	-40.4	-43.3	17.9	0.00e+00	0	41	0	0	52	5025
2026-01-28 01:44:15.98	355.05	9.79	-40.5	-43.2	17.9	0.00e+00	0	41	0	0	52	4947
2026-01-28 01:44:18.96	354.65	9.96	-40.9	-43.2	17.9	0.00e+00	0	41	0	0	52	4979
2026-01-28 01:44:21.94	354.25	10.13	-40.6	-43.0	18.1	0.00e+00	0	41	0	0	52	4844
2026-01-28 01:44:24.92	353.84	10.30	-40.6	-43.0	18.1	0.00e+00	0	41	0	0	52	4854
2026-01-28 01:44:27.90	353.43	10.46	-40.5	-43.1	18.1	0.00e+00	0	41	0	0	52	4884
2026-01-28 01:44:30.88	353.02	10.63	-40.3	-43.0	18.2	0.00e+00	0	41	0	0	52	4836
2026-01-28 01:44:33.86	352.59	10.80	-40.1	-42.9	18.4	0.00e+00	0	41	0	0	52	4786
2026-01-28 01:44:36.83	352.17	10.97	-40.2	-42.9	18.4	0.00e+00	0	41	0	0	51	5100
2026-01-28 01:44:39.81	351.74	11.14	-40.4	-42.8	18.5	0.00e+00	0	41	0	0	51	5016
2026-01-28 01:44:42.79	351.30	11.30	-40.5	-42.7	18.6	0.00e+00	0	41	0	0	51	4962
2026-01-28 01:44:45.77	350.86	11.47	-40.5	-42.7	18.5	0.00e+00	0	41	0	0	51	4944
2026-01-28 01:44:48.75	350.41	11.64	-40.6	-42.8	18.4	0.00e+00	0	41	0	0	52	4731
2026-01-28 01:44:51.72	349.96	11.80	-40.7	-42.9	18.3	0.00e+00	0	41	0	0	52	4790
2026-01-28 01:44:54.70	349.50	11.97	-40.6	-42.9	18.4	0.00e+00	0	41	0	0	52	4786
2026-01-28 01:44:57.68	349.04	12.13	-40.4	-42.8	18.5	0.00e+00	0	41	0	0	52	4707
2026-01-28 01:45:00.66	348.57	12.29	-40.5	-42.8	18.5	0.00e+00	0	41	0	0	52	4739
2026-01-28 01:45:03.64	348.10	12.45	-40.6	-42.8	18.5	0.00e+00	0	41	0	0	52	4739
2026-01-28 01:45:06.62	347.62	12.62	-40.6	-42.6	18.7	0.00e+00	0	41	0	0	52	4629
2026-01-28 01:45:09.59	347.14	12.78	-40.7	-42.7	18.5	0.00e+00	0	41	0	0	52	4658
2026-01-28 01:45:12.57	346.65	12.94	-40.7	-42.8	18.5	0.00e+00	0	41	0	0	52	4707
2026-01-28 01:45:15.55	346.16	13.09	-40.7	-42.7	18.5	0.00e+00	0	41	0	0	52	4685
2026-01-28 01:45:18.53	345.66	13.25	-40.8	-42.9	18.4	0.00e+00	0	41	0	0	52	4772
2026-01-28 01:45:21.51	345.15	13.41	-41.0	-43.1	18.2	0.00e+00	0	41	0	0	52	4886
2026-01-28 01:45:24.49	344.64	13.56	-41.0	-43.1	18.3	0.00e+00	0	41	0	0	52	4893
2026-01-28 01:45:27.47	344.12	13.72	-40.7	-42.8	18.6	0.00e+00	0	41	0	0	52	4741
2026-01-28 01:45:30.45	343.60	13.87	-40.7	-42.9	18.5	0.00e+00	0	41	0	0	52	4763
2026-01-28 01:45:33.43	343.07	14.02	-40.7	-42.7	18.6	0.00e+00	0	41	0	0	52	4703
2026-01-28 01:45:36.40	342.54	14.17	-40.4	-42.5	18.8	0.00e+00	0	41	0	0	52	4563
2026-01-28 01:45:39.38	342.01	14.32	-40.4	-42.5	18.7	0.00e+00	0	41	0	0	52	4582
2026-01-28 01:45:42.36	341.46	14.46	-40.8	-42.9	18.4	0.00e+00	0	41	0	0	52	4778
2026-01-28 01:45:45.34	340.91	14.61	-41.0	-42.9	18.5	0.00e+00	0	41	0	0	52	4781
2026-01-28 01:45:48.32	340.36	14.75	-40.7	-42.7	18.6	0.00e+00	0	41	0	0	52	4704
2026-01-28 01:45:51.30	339.80	14.89	-40.7	-42.7	18.7	0.00e+00	0	41	0	0	52	4667
2026-01-28 01:45:54.27	339.23	15.03	-40.7	-42.7	18.6	0.00e+00	0	41	0	0	52	4666
2026-01-28 01:45:57.25	338.66	15.16	-40.6	-42.5	18.8	0.00e+00	0	41	0	0	52	4578
2026-01-28 01:46:00.23	338.09	15.30	-40.6	-42.6	18.7	0.00e+00	0	41	0	0	52	4628
2026-01-28 01:46:03.21	337.51	15.43	-40.7	-42.5	18.7	0.00e+00	0	41	0	0	52	4589
2026-01-28 01:46:06.19	336.92	15.56	-40.7	-42.6	18.6	0.00e+00	0	41	0	0	52	4630
2026-01-28 01:46:09.17	336.33	15.69	-40.7	-42.7	18.6	0.00e+00	0	41	0	0	52	4669
2026-01-28 01:46:12.14	335.73	15.81	-40.7	-42.6	18.7	0.00e+00	0	41	0	0	52	4623
2026-01-28 01:46:15.12	335.13	15.93	-40.4	-42.3	19.0	0.00e+00	0	41	0	0	52	4481
2026-01-28 01:46:18.10	334.53	16.05	-40.3	-42.2	19.1	0.00e+00	0	41	0	0	52	4410
2026-01-28 01:46:21.08	333.91	16.17	-40.1	-41.9	19.4	0.00e+00	0	41	0	0	52	4265
2026-01-28 01:46:24.06	333.30	16.29	-40.2	-42.1	19.2	0.00e+00	0	41	0	0	52	4347
2026-01-28 01:46:27.04	332.68	16.40	-40.2	-42.1	19.2	0.00e+00	0	41	0	0	52	4371
2026-01-28 01:46:30.02	332.05	16.51	-40.0	-41.9	19.4	0.00e+00	0	41	0	0	52	4279
2026-01-28 01:46:33.00	331.42	16.61	-40.1	-41.9	19.4	0.00e+00	0	41	0	0	51	4515
2026-01-28 01:46:35.97	330.79	16.71	-40.2	-42.0	19.3	0.00e+00	0	41	0	0	51	4583
2026-01-28 01:46:38.95	330.15	16.81	-40.3	-42.2	19.2	0.00e+00	0	41	0	0	51	4655
2026-01-28 01:46:41.93	329.50	16.91	-40.4	-42.2	19.1	0.00e+00	0	41	0	0	51	4682
2026-01-28 01:46:44.91	328.86	17.00	-40.5	-42.3	19.1	0.00e+00	0	41	0	0	51	4751
2026-01-28 01:46:47.89	328.20	17.09	-40.1	-42.0	19.4	0.00e+00	0	41	0	0	51	4555
2026-01-28 01:46:50.87	327.55	17.18	-40.0	-41.9	19.4	0.00e+00	0	41	0	0	51	4537
2026-01-28 01:46:53.85	326.89	17.26	-40.2	-42.1	19.2	0.00e+00	0	41	0	0	51	4646
2026-01-28 01:46:56.83	326.23	17.34	-40.0	-42.1	19.2	0.00e+00	0	41	0	0	51	4599
2026-01-28 01:46:59.81	325.56	17.41	-40.3	-42.2	19.1	0.00e+00	0	41	0	0	51	4666
2026-01-28 01:47:02.79	324.89	17.48	-40.4	-42.2	19.1	0.00e+00	0	41	0	0	51	4701
2026-01-28 01:47:05.76	324.22	17.55	-40.5	-42.3	19.1	0.00e+00	0	41	0	0	51	4707
2026-01-28 01:47:08.74	323.55	17.61	-40.5	-42.4	19.1	0.00e+00	0	41	0	0	51	4760
2026-01-28 01:47:11.72	322.87	17.67	-40.3	-42.1	19.3	0.00e+00	0	41	0	0	51	4639
2026-01-28 01:47:14.70	322.19	17.73	-40.1	-41.9	19.5	0.00e+00	0	41	0	0	51	4510
2026-01-28 01:47:17.68	321.50	17.78	-40.3	-42.1	19.2	0.00e+00	0	41	0	0	51	4618
2026-01-28 01:47:20.66	320.82	17.83	-40.2	-42.1	19.3	0.00e+00	0	41	0	0	51	4612
2026-01-28 01:47:23.64	320.13	17.87	-40.4	-42.3	19.1	0.00e+00	0	41	0	0	51	4710
2026-01-28 01:47:26.61	319.44	17.91	-40.5	-42.4	19.0	0.00e+00	0	41	0	0	51	4786
2026-01-28 01:47:29.59	318.75	17.94	-40.4	-42.2	19.2	0.00e+00	0	41	0	0	51	4665
2026-01-28 01:47:32.57	318.06	17.97	-40.1	-42.0	19.4	0.00e+00	0	41	0	0	51	4568
2026-01-28 01:47:35.55	317.36	18.00	-40.2	-42.1	19.3	0.00e+00	0	41	0	0	51	4625
2026-01-28 01:47:38.53	316.67	18.02	-40.4	-42.3	19.2	0.00e+00	0	41	0	0	51	4724
2026-01-28 01:47:41.51	315.97	18.04	-40.4	-42.1	19.2	0.00e+00	0	41	0	0	51	4647
2026-01-28 01:47:44.49	315.27	18.05	-40.4	-42.2	19.2	0.00e+00	0	41	0	0	51	4668
2026-01-28 01:47:47.47	314.57	18.06	-40.5	-42.3	19.1	0.00e+00	0	41	0	0	51	4754
2026-01-28 01:47:50.44	313.88	18.06	-40.7	-42.6	18.7	0.00e+00	0	41	0	0	52	4637
2026-01-28 01:47:53.42	313.18	18.06	-40.8	-42.7	18.7	0.00e+00	0	41	0	0	52	4692
2026-01-28 01:47:56.40	312.48	18.06	-40.4	-42.1	19.2	0.00e+00	0	41	0	0	52	4390
2026-01-28 01:47:59.38	311.78	18.05	-40.2	-42.0	19.3	0.00e+00	0	41	0	0	52	4322
2026-01-28 01:48:02.35	311.09	18.04	-40.3	-42.1	19.2	0.00e+00	0	41	0	0	52	4345
2026-01-28 01:48:05.33	310.39	18.02	-40.3	-42.1	19.2	0.00e+00	0	41	0	0	52	4365
2026-01-28 01:48:08.30	309.70	18.00	-40.2	-42.0	19.2	0.00e+00	0	41	0	0	52	4326
2026-01-28 01:48:11.28	309.00	17.97	-40.2	-42.0	19.2	0.00e+00	0	41	0	0	52	4297
2026-01-28 01:48:14.26	308.31	17.94	-40.2	-41.9	19.3	0.00e+00	0	41	0	0	52	4287
2026-01-28 01:48:17.24	307.62	17.90	-40.3	-42.1	19.2	0.00e+00	0	41	0	0	52	4354
2026-01-28 01:48:20.22	306.93	17.87	-40.4	-42.2	19.1	0.00e+00	0	41	0	0	52	4431
2026-01-28 01:48:23.19	306.24	17.82	-40.3	-42.1	19.1	0.00e+00	0	41	0	0	52	4386
2026-01-28 01:48:26.17	305.55	17.78	-40.3	-42.1	19.1	0.00e+00	0	41	0	0	52	4367
2026-01-28 01:48:29.11	304.88	17.72	-40.5	-42.3	19.0	0.00e+00	0	41	0	0	52	4462
2026-01-28 01:48:32.09	304.20	17.67	-40.6	-42.4	18.9	0.00e+00	0	41	0	0	52	4511
2026-01-28 01:48:35.07	303.52	17.61	-40.6	-42.5	18.8	0.00e+00	0	41	0	0	52	4548
2026-01-28 01:48:38.05	302.84	17.55	-40.8	-42.7	18.5	0.00e+00	0	41	0	0	52	4657
2026-01-28 01:48:41.03	302.17	17.48	-40.5	-42.4	18.8	0.00e+00	0	41	0	0	52	4496
2026-01-28 01:48:44.01	301.50	17.41	-40.3	-42.1	19.2	0.00e+00	0	41	0	0	52	4365
2026-01-28 01:48:46.98	300.83	17.33	-40.4	-42.2	19.1	0.00e+00	0	41	0	0	52	4403
2026-01-28 01:48:49.96	300.17	17.25	-40.6	-42.4	18.8	0.00e+00	0	41	0	0	52	4516
2026-01-28 01:48:52.94	299.51	17.17	-40.6	-42.4	18.9	0.00e+00	0	41	0	0	52	4496
2026-01-28 01:48:55.92	298.85	17.09	-40.5	-42.3	19.0	0.00e+00	0	41	0	0	52	4442
2026-01-28 01:48:58.90	298.20	17.00	-40.4	-42.2	18.9	0.00e+00	0	41	0	0	52	4433
2026-01-28 01:49:01.88	297.55	16.90	-40.3	-42.1	19.1	0.00e+00	0	41	0	0	52	4379
2026-01-28 01:49:04.86	296.90	16.81	-40.5	-42.3	18.9	0.00e+00	0	41	0	0	52	4470
2026-01-28 01:49:07.83	296.26	16.71	-40.4	-42.3	18.9	0.00e+00	0	41	0	0	52	4447
2026-01-28 01:49:10.81	295.63	16.60	-40.4	-42.2	19.0	0.00e+00	0	41	0	0	52	4407
2026-01-28 01:49:13.79	294.99	16.50	-40.4	-42.2	19.0	0.00e+00	0	41	0	0	52	4418
2026-01-28 01:49:16.77	294.37	16.39	-40.4	-42.1	19.1	0.00e+00	0	41	0	0	52	4383
2026-01-28 01:49:19.75	293.74	16.28	-40.5	-42.2	18.9	0.00e+00	0	41	0	0	52	4438
2026-01-28 01:49:22.73	293.13	16.16	-40.7	-42.5	18.7	0.00e+00	0	41	0	0	52	4567
2026-01-28 01:49:25.71	292.51	16.05	-40.5	-42.3	18.9	0.00e+00	0	41	0	0	52	4448
2026-01-28 01:49:28.69	291.90	15.93	-40.6	-42.4	18.8	0.00e+00	0	41	0	0	52	4527
2026-01-28 01:49:31.66	291.30	15.80	-40.4	-42.2	19.0	0.00e+00	0	41	0	0	52	4412
2026-01-28 01:49:34.64	290.70	15.68	-40.2	-41.9	19.2	0.00e+00	0	41	0	0	52	4275
2026-01-28 01:49:37.62	290.11	15.55	-40.3	-42.1	19.1	0.00e+00	0	41	0	0	52	4345
2026-01-28 01:49:40.60	289.52	15.42	-40.6	-42.5	18.8	0.00e+00	0	41	0	0	52	4547
2026-01-28 01:49:43.58	288.94	15.29	-40.6	-42.4	18.8	0.00e+00	0	41	0	0	52	4517
2026-01-28 01:49:46.56	288.36	15.15	-40.5	-42.3	18.9	0.00e+00	0	41	0	0	52	4462
2026-01-28 01:49:49.54	287.79	15.01	-40.2	-42.0	19.2	0.00e+00	0	41	0	0	52	4302
2026-01-28 01:49:52.51	287.22	14.88	-40.4	-42.2	19.0	0.00e+00	0	41	0	0	52	4410
2026-01-28 01:49:55.49	286.66	14.73	-40.6	-42.4	18.8	0.00e+00	0	41	0	0	52	4536
2026-01-28 01:49:58.47	286.10	14.59	-40.6	-42.4	18.8	0.00e+00	0	41	0	0	52	4530
2026-01-28 01:50:01.45	285.55	14.45	-40.8	-42.6	18.7	0.00e+00	0	41	0	0	52	4618
2026-01-28 01:50:04.43	285.00	14.30	-40.8	-42.7	18.6	0.00e+00	0	41	0	0	52	4668
2026-01-28 01:50:07.41	284.46	14.15	-40.8	-42.7	18.5	0.00e+00	0	41	0	0	52	4660
2026-01-28 01:50:10.39	283.93	14.00	-40.8	-42.7	18.5	0.00e+00	0	41	0	0	52	4652
2026-01-28 01:50:13.37	283.40	13.85	-40.6	-42.4	18.7	0.00e+00	0	41	0	0	52	4538
2026-01-28 01:50:16.35	282.87	13.70	-40.5	-42.3	18.8	0.00e+00	0	41	0	0	52	4473
2026-01-28 01:50:19.33	282.35	13.54	-40.9	-42.7	18.4	0.00e+00	0	41	0	0	52	4691
2026-01-28 01:50:22.30	281.84	13.39	-41.0	-42.9	18.3	0.00e+00	0	41	0	0	52	4767
2026-01-28 01:50:25.28	281.33	13.23	-41.1	-43.1	18.1	0.00e+00	0	41	0	0	52	4882
2026-01-28 01:50:28.26	280.83	13.07	-41.2	-43.2	18.0	0.00e+00	0	41	0	0	53	4677
2026-01-28 01:50:31.24	280.33	12.91	-41.1	-43.0	18.1	0.00e+00	0	41	0	0	53	4590
2026-01-28 01:50:34.22	279.84	12.75	-41.1	-43.0	18.2	0.00e+00	0	41	0	0	53	4574
2026-01-28 01:50:37.19	279.36	12.59	-41.1	-43.1	18.1	0.00e+00	0	41	0	0	53	4610
2026-01-28 01:50:40.17	278.88	12.43	-41.2	-43.2	18.0	0.00e+00	0	41	0	0	53	4661
2026-01-28 01:50:43.15	278.40	12.27	-41.1	-43.0	17.9	0.00e+00	0	41	0	0	53	4584
2026-01-28 01:50:46.13	277.93	12.11	-40.9	-42.8	18.1	0.00e+00	0	41	0	0	53	4480
2026-01-28 01:50:49.11	277.46	11.94	-40.7	-42.6	18.4	0.00e+00	0	41	0	0	53	4353
2026-01-28 01:50:52.09	277.00	11.78	-40.7	-42.6	18.4	0.00e+00	0	41	0	0	53	4362
2026-01-28 01:50:55.06	276.55	11.61	-40.9	-42.8	18.2	0.00e+00	0	41	0	0	53	4487
2026-01-28 01:50:58.04	276.10	11.44	-41.2	-43.1	18.0	0.00e+00	0	41	0	0	53	4643
2026-01-28 01:51:01.02	275.66	11.28	-41.4	-43.4	17.8	0.00e+00	0	41	0	0	53	4765
2026-01-28 01:51:04.00	275.22	11.11	-41.5	-43.5	17.6	0.00e+00	0	41	0	0	53	4868
2026-01-28 01:51:06.98	274.78	10.94	-41.5	-43.5	17.6	0.00e+00	0	41	0	0	53	4817
2026-01-28 01:51:09.96	274.35	10.77	-41.7	-43.7	17.5	0.00e+00	0	41	0	0	53	4962
2026-01-28 01:51:12.94	273.93	10.60	-42.0	-44.1	17.0	0.00e+00	0	41	0	0	54	4921
2026-01-28 01:51:15.92	273.51	10.43	-41.8	-43.9	17.3	0.00e+00	0	41	0	0	54	4785
2026-01-28 01:51:18.90	273.10	10.26	-41.7	-43.7	17.5	0.00e+00	0	41	0	0	54	4679
2026-01-28 01:51:21.88	272.69	10.09	-41.3	-43.2	17.9	0.00e+00	0	41	0	0	54	4423
2026-01-28 01:51:24.86	272.28	9.92	-41.2	-43.2	17.9	0.00e+00	0	41	0	0	54	4414
2026-01-28 01:51:27.83	271.88	9.76	-41.1	-43.2	17.9	0.00e+00	0	41	0	0	54	4421
2026-01-28 01:51:30.81	271.49	9.58	-41.2	-43.3	17.8	0.00e+00	0	41	0	0	54	4457
2026-01-28 01:51:33.79	271.10	9.41	-41.3	-43.3	17.7	0.00e+00	0	41	0	0	54	4480
2026-01-28 01:51:36.77	270.71	9.24	-41.5	-43.5	17.5	0.00e+00	0	41	0	0	54	4572
2026-01-28 01:51:39.75	270.33	9.07	-41.7	-43.8	17.2	0.00e+00	0	41	0	0	54	4742
2026-01-28 01:51:42.73	269.95	8.90	-49.4	-62.3	3.8	1.49e+00	0	41	104	0	69	16883
2026-01-28 01:51:45.71	269.58	8.73	-49.6	-62.7	3.8	1.49e+00	0	41	104	0	69	17504
2026-01-28 01:51:48.69	269.21	8.56	-49.5	-62.7	3.8	1.49e+00	0	41	104	0	70	16509
2026-01-28 01:51:51.67	268.85	8.39	-49.4	-62.6	3.8	1.49e+00	0	41	104	0	70	16425
2026-01-28 01:51:54.65	268.49	8.22	-49.4	-62.6	3.8	1.49e+00	0	41	104	0	70	16350
2026-01-28 01:51:57.63	268.13	8.05	-49.4	-62.6	3.8	1.49e+00	0	41	104	0	70	16398
2026-01-28 01:52:00.61	267.78	7.88	-49.4	-62.6	3.8	1.49e+00	0	41	104	0	70	16463
2026-01-28 01:52:03.59	267.43	7.71	-49.4	-62.6	3.8	1.49e+00	0	41	104	0	70	16426
2026-01-28 01:52:06.57	267.09	7.54	-49.4	-62.6	3.8	1.49e+00	0	41	104	0	70	16362
2026-01-28 01:52:09.55	266.75	7.37	-49.4	-62.6	3.8	1.49e+00	0	41	104	0	70	16318
2026-01-28 01:52:12.53	266.42	7.20	-49.4	-62.6	3.8	1.49e+00	0	41	104	0	70	16411
2026-01-28 01:52:15.51	266.09	7.03	-49.4	-62.5	3.8	1.49e+00	0	41	104	0	70	16302
2026-01-28 01:52:18.49	265.76	6.86	-49.4	-62.6	3.8	1.49e+00	0	41	104	0	70	16369
2026-01-28 01:52:21.46	265.44	6.69	-49.4	-62.6	3.8	1.49e+00	0	41	104	0	70	16354
2026-01-28 01:52:24.44	265.12	6.52	-49.4	-62.6	3.8	1.49e+00	0	41	104	0	70	16371
2026-01-28 01:52:27.42	264.80	6.36	-49.4	-62.6	3.8	1.49e+00	0	41	104	0	70	16350
2026-01-28 01:52:30.40	264.49	6.19	-49.4	-62.6	3.8	1.49e+00	0	41	104	0	70	16334
2026-01-28 01:52:33.38	264.18	6.02	-49.4	-62.6	3.8	1.49e+00	0	41	104	0	70	16342
2026-01-28 01:52:36.36	263.88	5.85	-49.4	-62.6	3.8	1.49e+00	0	41	104	0	70	16354
2026-01-28 01:52:39.34	263.58	5.68	-49.4	-62.5	3.8	1.49e+00	0	41	104	0	70	16280
2026-01-28 01:52:42.32	263.28	5.52	-49.4	-62.6	3.8	1.49e+00	0	41	104	0	70	16334
2026-01-28 01:52:45.30	262.98	5.35	-49.4	-62.6	3.8	1.49e+00	0	41	104	0	70	16344
2026-01-28 01:52:48.28	262.69	5.18	-49.4	-62.6	3.8	1.49e+00	0	41	104	0	70	16318
2026-01-28 01:52:51.26	262.41	5.02	-49.4	-62.6	3.8	1.49e+00	0	41	104	0	70	16332

#Closed at: 2026-01-28 01:52:53
#Recorded file [0 MB]: D:/Data/31040_260128_044252.dat