passes_logs/2026/01/28/T1/T1__20260128_094207_FENGYUN_3D_rec.log

#Pass ID: 20260128_094207_FENGYUN 3D
#Satellite: FENGYUN 3D
#Configuration: FENGYUN 3D
#almurnet v.1.7.20251203
#Start time: 2026-01-28 09:42:07

#Version: 2.0.20230620
#Station: T1
#Location: 37.570604 lon 55.790049 lat
#TLE: 1 43010U 17072A   26027.90082829  .00000305  00000+0  16579-3 0  9998
#TLE: 2 43010  98.9960 359.9183 0002511  88.1058 272.0405 14.19701796425082

#Time	Az	El	Level	Level2	SNR	BER	BlckErr	Temp	State	Recorded	gain1	gain2
2026-01-28 09:42:07.49	85.93	5.02	-49.5	-61.9	3.8	8.46e-01	0	41	0	0	70	15188
2026-01-28 09:42:09.47	85.71	5.12	-49.9	-62.0	3.8	8.46e-01	0	41	104	0	71	14505
2026-01-28 09:42:11.46	85.49	5.22	-49.8	-62.1	3.8	8.47e-01	0	41	104	0	71	14627
2026-01-28 09:42:13.45	85.27	5.31	-50.0	-62.1	3.8	8.48e-01	0	41	104	0	71	14622
2026-01-28 09:42:15.43	85.05	5.41	-49.9	-62.1	3.8	8.46e-01	0	41	104	0	71	14570
2026-01-28 09:42:17.42	84.83	5.51	-49.9	-62.1	3.8	8.48e-01	0	41	104	0	71	14543
2026-01-28 09:42:19.41	84.60	5.61	-49.8	-62.0	3.8	8.46e-01	0	41	104	0	71	14473
2026-01-28 09:42:21.40	84.37	5.71	-49.8	-62.0	3.8	8.47e-01	0	42	104	0	71	14384
2026-01-28 09:42:23.39	84.14	5.81	-49.7	-61.9	3.8	8.48e-01	0	42	104	0	71	14211
2026-01-28 09:42:25.37	83.91	5.91	-49.6	-61.7	3.8	8.48e-01	0	42	104	0	71	13996
2026-01-28 09:42:27.36	83.68	6.01	-49.3	-61.4	3.8	8.46e-01	0	42	104	0	70	14225
2026-01-28 09:42:29.35	83.45	6.11	-49.2	-61.3	3.8	8.47e-01	0	42	104	0	70	14190
2026-01-28 09:42:31.34	83.21	6.20	-49.2	-61.3	3.8	8.48e-01	0	42	104	0	70	14091
2026-01-28 09:42:33.33	82.98	6.30	-49.2	-61.2	3.8	8.47e-01	0	42	104	0	70	13954
2026-01-28 09:42:35.31	82.74	6.40	-49.2	-61.2	3.8	8.47e-01	0	42	104	0	70	13926
2026-01-28 09:42:37.30	82.50	6.50	-49.2	-61.2	3.8	8.48e-01	0	42	104	0	70	13963
2026-01-28 09:42:39.29	82.26	6.60	-49.2	-61.2	3.8	8.49e-01	0	42	104	0	70	13926
2026-01-28 09:42:41.27	82.02	6.70	-49.2	-61.2	3.8	8.46e-01	0	42	104	0	70	13917
2026-01-28 09:42:43.26	81.77	6.79	-49.2	-61.2	3.8	8.46e-01	0	42	104	0	70	13966
2026-01-28 09:42:45.25	81.52	6.89	-49.2	-61.2	3.8	8.47e-01	0	43	104	0	70	13948
2026-01-28 09:42:47.24	81.28	6.99	-49.2	-61.1	3.8	8.48e-01	0	42	104	0	70	13839
2026-01-28 09:42:49.22	81.03	7.09	-49.2	-61.0	3.8	8.47e-01	0	42	104	0	70	13717
2026-01-28 09:42:51.21	80.78	7.18	-49.1	-60.9	3.8	8.48e-01	0	42	104	0	70	13507
2026-01-28 09:42:53.20	80.52	7.28	-49.1	-60.8	3.8	8.48e-01	0	43	104	0	70	13339
2026-01-28 09:42:55.19	80.27	7.38	-49.1	-60.9	3.8	8.47e-01	0	42	104	0	70	13480
2026-01-28 09:42:57.18	80.01	7.48	-49.2	-61.1	3.8	8.46e-01	0	42	104	0	70	13786
2026-01-28 09:42:59.16	79.75	7.57	-49.2	-61.1	3.8	8.47e-01	0	43	104	0	70	13751
2026-01-28 09:43:01.15	79.49	7.67	-49.1	-60.8	3.8	8.46e-01	0	43	104	0	70	13334
2026-01-28 09:43:03.14	79.23	7.77	-49.0	-60.1	3.8	8.47e-01	0	43	104	0	70	12287
2026-01-28 09:43:05.13	78.96	7.86	-49.0	-59.7	3.8	8.47e-01	0	43	104	0	70	11705
2026-01-28 09:43:07.12	78.70	7.96	-49.0	-60.0	3.8	8.46e-01	0	43	104	0	70	12113
2026-01-28 09:43:09.10	78.43	8.05	-49.1	-60.4	3.8	8.47e-01	0	43	104	0	70	12676
2026-01-28 09:43:11.09	78.16	8.15	-49.1	-60.4	3.8	8.48e-01	0	43	104	0	70	12685
2026-01-28 09:43:13.08	77.89	8.25	-48.9	-59.1	3.8	8.47e-01	0	43	104	0	69	11681
2026-01-28 09:43:15.06	77.62	8.34	-48.7	-57.8	4.2	8.38e-01	0	43	0	0	69	9949
2026-01-28 09:43:17.05	77.35	8.44	-48.9	-59.3	3.8	8.45e-01	0	43	104	0	69	11825
2026-01-28 09:43:19.04	77.07	8.53	-47.2	-52.7	7.1	5.50e-01	0	43	0	2097152	66	6641
2026-01-28 09:43:21.03	76.79	8.62	-43.5	-46.4	13.6	8.35e-05	0	43	0	12582912	59	4768
2026-01-28 09:43:23.01	76.51	8.72	-40.6	-42.8	17.0	0.00e+00	0	43	0	24117248	53	4447
2026-01-28 09:43:25.00	76.23	8.81	-40.0	-42.1	17.6	0.00e+00	0	43	0	35651584	52	4386
2026-01-28 09:43:26.99	75.94	8.91	-41.8	-44.2	15.6	0.00e+00	0	43	0	46137344	54	4933
2026-01-28 09:43:28.98	75.66	9.00	-45.4	-49.1	10.8	4.05e-04	0	43	0	57671680	61	5842
2026-01-28 09:43:30.97	75.37	9.09	-41.3	-43.6	16.3	4.74e-04	0	43	0	69206016	54	4601
2026-01-28 09:43:32.95	75.08	9.18	-49.2	-61.1	3.8	6.88e-01	0	43	104	77594624	68	15431
2026-01-28 09:43:34.94	74.79	9.28	-48.7	-57.8	4.1	2.99e-01	0	43	0	82837504	67	11247
2026-01-28 09:43:36.93	74.50	9.37	-41.3	-43.6	16.2	0.00e+00	0	43	0	90177536	54	4620
2026-01-28 09:43:38.91	74.20	9.46	-39.9	-42.0	17.9	0.00e+00	0	43	0	100663296	51	4547
2026-01-28 09:43:40.90	73.91	9.55	-39.9	-41.9	17.9	0.00e+00	0	43	0	112197632	51	4544
2026-01-28 09:43:42.89	73.61	9.64	-39.2	-41.2	18.6	0.00e+00	0	43	0	123731968	50	4405
2026-01-28 09:43:44.87	73.31	9.73	-39.1	-41.1	18.6	0.00e+00	0	43	0	134217728	50	4385
2026-01-28 09:43:46.86	73.01	9.82	-38.9	-40.9	18.8	0.00e+00	0	43	0	145752064	49	4540
2026-01-28 09:43:48.85	72.70	9.91	-39.1	-41.1	18.7	0.00e+00	0	43	0	157286400	49	4609
2026-01-28 09:43:50.83	72.40	10.00	-39.0	-41.0	18.6	0.00e+00	0	43	0	167772160	49	4584
2026-01-28 09:43:52.82	72.09	10.09	-39.0	-41.0	18.7	0.00e+00	0	43	0	179306496	49	4597
2026-01-28 09:43:54.80	71.78	10.17	-39.0	-41.0	18.8	0.00e+00	0	43	0	190840832	49	4559
2026-01-28 09:43:56.79	71.47	10.26	-38.9	-40.9	18.8	0.00e+00	0	43	0	201326592	49	4543
2026-01-28 09:43:58.78	71.15	10.35	-38.9	-40.9	18.8	0.00e+00	0	43	0	212860928	49	4534
2026-01-28 09:44:00.76	70.84	10.43	-38.8	-40.8	19.0	0.00e+00	0	43	0	224395264	49	4461
2026-01-28 09:44:02.75	70.52	10.52	-38.7	-40.7	19.1	0.00e+00	0	43	0	234881024	49	4407
2026-01-28 09:44:04.74	70.20	10.61	-38.8	-40.8	19.0	0.00e+00	0	43	0	246415360	49	4447
2026-01-28 09:44:06.73	69.88	10.69	-38.6	-40.5	19.2	0.00e+00	0	43	0	257949696	49	4314
2026-01-28 09:44:08.71	69.56	10.77	-38.7	-40.7	19.1	0.00e+00	0	43	0	268435456	49	4397
2026-01-28 09:44:10.70	69.23	10.86	-38.6	-40.6	19.2	0.00e+00	0	43	0	279969792	49	4343
2026-01-28 09:44:12.69	68.91	10.94	-38.7	-40.7	19.2	0.00e+00	0	43	0	290455552	49	4394
2026-01-28 09:44:14.67	68.58	11.02	-38.6	-40.6	19.2	0.00e+00	0	43	0	301989888	49	4366
2026-01-28 09:44:16.66	68.25	11.10	-38.5	-40.5	19.3	0.00e+00	0	43	0	313524224	49	4319
2026-01-28 09:44:18.64	67.92	11.18	-38.6	-40.6	19.2	0.00e+00	0	44	0	325058560	49	4357
2026-01-28 09:44:20.63	67.58	11.26	-38.6	-40.6	19.2	0.00e+00	0	43	0	335544320	49	4355
2026-01-28 09:44:22.62	67.25	11.34	-38.7	-40.6	19.1	0.00e+00	0	43	0	347078656	49	4386
2026-01-28 09:44:24.60	66.91	11.42	-38.7	-40.7	19.1	0.00e+00	0	43	0	358612992	49	4402
2026-01-28 09:44:26.59	66.57	11.50	-38.6	-40.5	19.3	0.00e+00	0	44	0	369098752	49	4326
2026-01-28 09:44:28.57	66.23	11.58	-38.5	-40.5	19.3	0.00e+00	0	44	0	380633088	49	4308
2026-01-28 09:44:30.56	65.89	11.66	-38.5	-40.4	19.4	0.00e+00	0	44	0	391118848	49	4289
2026-01-28 09:44:32.55	65.54	11.73	-38.3	-40.3	19.5	0.00e+00	0	43	0	402653184	48	4451
2026-01-28 09:44:34.53	65.20	11.81	-38.4	-40.4	19.5	0.00e+00	0	43	0	414187520	48	4496
2026-01-28 09:44:36.52	64.85	11.88	-38.2	-40.1	19.7	0.00e+00	0	44	0	424673280	48	4376
2026-01-28 09:44:38.50	64.50	11.95	-38.3	-40.2	19.6	0.00e+00	0	43	0	436207616	48	4392
2026-01-28 09:44:40.49	64.14	12.03	-38.2	-40.1	19.7	0.00e+00	0	44	0	447741952	48	4370
2026-01-28 09:44:42.48	63.79	12.10	-38.5	-40.4	19.4	0.00e+00	0	43	0	458227712	48	4524
2026-01-28 09:44:44.47	63.43	12.17	-38.4	-40.4	19.4	0.00e+00	0	43	0	469762048	48	4508
2026-01-28 09:44:46.45	63.08	12.24	-38.4	-40.4	19.4	0.00e+00	0	44	0	481296384	48	4494
2026-01-28 09:44:48.44	62.72	12.31	-38.3	-40.2	19.6	0.00e+00	0	43	0	492830720	48	4402
2026-01-28 09:44:50.43	62.36	12.38	-38.3	-40.2	19.6	0.00e+00	0	44	0	503316480	48	4404
2026-01-28 09:44:52.42	61.99	12.44	-38.1	-40.0	19.8	0.00e+00	0	43	0	514850816	48	4300
2026-01-28 09:44:54.40	61.63	12.51	-38.2	-40.1	19.7	0.00e+00	0	44	0	525336576	48	4377
2026-01-28 09:44:56.39	61.26	12.58	-38.2	-40.1	19.7	0.00e+00	0	44	0	536870912	48	4364
2026-01-28 09:44:58.38	60.90	12.64	-38.2	-40.1	19.7	0.00e+00	0	44	0	548405248	48	4378
2026-01-28 09:45:00.36	60.53	12.70	-38.2	-40.1	19.7	0.00e+00	0	44	0	558891008	48	4352
2026-01-28 09:45:02.35	60.16	12.77	-38.0	-39.9	19.9	0.00e+00	0	44	0	570425344	48	4265
2026-01-28 09:45:04.34	59.79	12.83	-38.0	-39.9	19.9	0.00e+00	0	44	0	581959680	48	4245
2026-01-28 09:45:06.33	59.41	12.89	-37.8	-39.7	19.8	0.00e+00	0	44	0	592445440	47	4413
2026-01-28 09:45:08.31	59.04	12.95	-37.7	-39.6	19.9	0.00e+00	0	44	0	603979776	47	4375
2026-01-28 09:45:10.30	58.66	13.01	-37.7	-39.7	19.9	0.00e+00	0	44	0	615514112	47	4396
2026-01-28 09:45:12.29	58.28	13.06	-37.7	-39.6	19.9	0.00e+00	0	43	0	625999872	47	4377
2026-01-28 09:45:14.28	57.90	13.12	-37.7	-39.7	19.9	0.00e+00	0	44	0	637534208	47	4392
2026-01-28 09:45:16.26	57.52	13.17	-37.5	-39.4	20.1	0.00e+00	0	44	0	649068544	47	4271
2026-01-28 09:45:18.25	57.14	13.23	-37.4	-39.3	20.2	0.00e+00	0	44	0	659554304	46	4466
2026-01-28 09:45:20.24	56.75	13.28	-37.6	-39.4	20.1	0.00e+00	0	44	0	671088640	46	4537
2026-01-28 09:45:22.23	56.37	13.33	-37.7	-39.6	20.0	0.00e+00	0	44	0	682622976	46	4623
2026-01-28 09:45:24.21	55.98	13.38	-37.7	-39.6	19.9	0.00e+00	0	44	0	693108736	46	4644
2026-01-28 09:45:26.20	55.60	13.43	-37.7	-39.7	19.9	0.00e+00	0	44	0	704643072	46	4660
2026-01-28 09:45:28.19	55.21	13.48	-37.6	-39.5	20.0	0.00e+00	0	44	0	715128832	46	4565
2026-01-28 09:45:30.17	54.82	13.53	-37.7	-39.6	19.9	0.00e+00	0	44	0	726663168	46	4614
2026-01-28 09:45:32.16	54.42	13.57	-37.7	-39.6	19.9	0.00e+00	0	44	0	738197504	46	4638
2026-01-28 09:45:34.15	54.03	13.62	-37.5	-39.4	20.2	0.00e+00	0	43	0	749731840	46	4507
2026-01-28 09:45:36.13	53.64	13.66	-37.5	-39.3	20.6	0.00e+00	0	44	0	760217600	46	4458
2026-01-28 09:45:38.12	53.24	13.70	-37.5	-39.3	20.6	0.00e+00	0	44	0	771751936	46	4476
2026-01-28 09:45:40.11	52.85	13.74	-37.6	-39.4	20.5	0.00e+00	0	44	0	783286272	46	4525
2026-01-28 09:45:42.10	52.45	13.78	-37.6	-39.4	20.5	0.00e+00	0	44	0	793772032	46	4542
2026-01-28 09:45:44.09	52.05	13.82	-37.8	-39.6	20.4	0.00e+00	0	44	0	805306368	46	4602
2026-01-28 09:45:46.07	51.65	13.85	-37.3	-39.1	20.8	0.00e+00	0	44	0	815792128	46	4354
2026-01-28 09:45:48.06	51.25	13.89	-37.4	-39.2	20.7	0.00e+00	0	44	0	827326464	46	4414
2026-01-28 09:45:50.05	50.85	13.92	-37.4	-39.2	20.7	0.00e+00	0	44	0	838860800	46	4405
2026-01-28 09:45:52.03	50.45	13.96	-37.3	-39.1	20.8	0.00e+00	0	44	0	849346560	46	4376
2026-01-28 09:45:54.02	50.04	13.99	-37.3	-39.1	20.8	0.00e+00	0	44	0	860880896	46	4370
2026-01-28 09:45:56.01	49.64	14.02	-37.6	-39.4	20.6	0.00e+00	0	44	0	872415232	46	4502
2026-01-28 09:45:57.99	49.24	14.05	-37.6	-39.4	20.6	0.00e+00	0	43	0	883949568	46	4498
2026-01-28 09:45:59.98	48.83	14.07	-37.6	-39.4	20.5	0.00e+00	0	44	0	894435328	46	4495
2026-01-28 09:46:01.97	48.42	14.10	-37.4	-39.2	20.7	0.00e+00	0	44	0	905969664	46	4428
2026-01-28 09:46:03.96	48.02	14.12	-37.5	-39.3	20.6	0.00e+00	0	43	0	917504000	46	4456
2026-01-28 09:46:05.94	47.61	14.15	-37.4	-39.2	20.7	0.00e+00	0	44	0	927989760	46	4393
2026-01-28 09:46:07.93	47.20	14.17	-37.3	-39.0	20.9	0.00e+00	0	44	0	939524096	46	4331
2026-01-28 09:46:09.92	46.79	14.19	-37.3	-39.0	20.8	0.00e+00	0	43	0	950009856	46	4329
2026-01-28 09:46:11.90	46.39	14.21	-37.3	-39.1	20.8	0.00e+00	0	44	0	961544192	46	4357
2026-01-28 09:46:13.89	45.98	14.22	-37.4	-39.2	20.7	0.00e+00	0	44	0	973078528	46	4415
2026-01-28 09:46:15.88	45.57	14.24	-37.5	-39.3	20.6	0.00e+00	0	44	0	983564288	46	4447
2026-01-28 09:46:17.87	45.15	14.25	-37.4	-39.2	20.7	0.00e+00	0	44	0	995098624	46	4420
2026-01-28 09:46:19.85	44.74	14.27	-37.3	-39.1	20.8	0.00e+00	0	44	0	1006632960	46	4354
2026-01-28 09:46:21.84	44.33	14.28	-37.5	-39.3	20.6	0.00e+00	0	44	0	1018167296	46	4456
2026-01-28 09:46:23.83	43.92	14.29	-37.4	-39.1	20.7	0.00e+00	0	44	0	1028653056	46	4390
2026-01-28 09:46:25.82	43.51	14.29	-37.6	-39.3	20.6	0.00e+00	0	44	0	1040187392	46	4486
2026-01-28 09:46:27.81	43.10	14.30	-37.7	-39.4	20.5	0.00e+00	0	44	0	1050673152	46	4541
2026-01-28 09:46:29.79	42.69	14.31	-37.7	-39.5	20.5	0.00e+00	0	43	0	1062207488	46	4551
2026-01-28 09:46:31.78	42.27	14.31	-37.6	-39.4	20.5	0.00e+00	0	44	0	1073741824	46	4512
2026-01-28 09:46:33.77	41.86	14.31	-37.2	-39.0	20.9	0.00e+00	0	44	0	1084227584	46	4300
2026-01-28 09:46:35.75	41.45	14.31	-37.4	-39.2	20.7	0.00e+00	0	44	0	1095761920	46	4407
2026-01-28 09:46:37.74	41.04	14.31	-37.5	-39.2	20.7	0.00e+00	0	43	0	1107296256	46	4437
2026-01-28 09:46:39.73	40.62	14.31	-37.2	-38.9	21.0	0.00e+00	0	44	0	1117782016	46	4289
2026-01-28 09:46:41.72	40.21	14.31	-37.2	-38.9	21.0	0.00e+00	0	44	0	1129316352	46	4274
2026-01-28 09:46:43.70	39.80	14.30	-37.1	-38.8	21.1	0.00e+00	0	44	0	1140850688	46	4225
2026-01-28 09:46:45.69	39.39	14.30	-37.2	-39.0	20.9	0.00e+00	0	44	0	1151336448	46	4301
2026-01-28 09:46:47.68	38.98	14.29	-37.1	-38.9	21.0	0.00e+00	0	44	0	1162870784	46	4247
2026-01-28 09:46:49.66	38.57	14.28	-37.3	-39.1	20.8	0.00e+00	0	44	0	1174405120	46	4349
2026-01-28 09:46:51.65	38.16	14.27	-37.5	-39.3	20.6	0.00e+00	0	44	0	1184890880	46	4478
2026-01-28 09:46:53.64	37.74	14.26	-37.7	-39.5	20.4	0.00e+00	0	44	0	1196425216	46	4567
2026-01-28 09:46:55.62	37.34	14.24	-37.5	-39.3	20.7	0.00e+00	0	44	0	1207959552	46	4457
2026-01-28 09:46:57.61	36.92	14.23	-37.5	-39.3	20.7	0.00e+00	0	44	0	1218445312	46	4461
2026-01-28 09:46:59.60	36.51	14.21	-37.5	-39.2	20.7	0.00e+00	0	44	0	1229979648	46	4441
2026-01-28 09:47:01.59	36.11	14.19	-37.5	-39.3	20.7	0.00e+00	0	43	0	1241513984	46	4460
2026-01-28 09:47:03.58	35.70	14.17	-37.4	-39.2	20.8	0.00e+00	0	44	0	1251999744	46	4398
2026-01-28 09:47:05.56	35.29	14.15	-37.2	-39.0	20.9	0.00e+00	0	44	0	1263534080	46	4314
2026-01-28 09:47:07.55	34.88	14.13	-37.0	-38.7	21.1	0.00e+00	0	44	0	1275068416	46	4193
2026-01-28 09:47:09.54	34.47	14.11	-36.9	-38.7	21.2	0.00e+00	0	44	0	1285554176	45	4402
2026-01-28 09:47:11.52	34.07	14.08	-37.1	-38.8	21.1	0.00e+00	0	44	0	1297088512	45	4473
2026-01-28 09:47:13.51	33.66	14.06	-37.0	-38.8	21.1	0.00e+00	0	44	0	1308622848	45	4450
2026-01-28 09:47:15.50	33.26	14.03	-37.2	-38.9	21.0	0.00e+00	0	44	0	1319108608	45	4526
2026-01-28 09:47:17.49	32.86	14.00	-37.3	-39.0	20.9	0.00e+00	0	44	0	1330642944	45	4598
2026-01-28 09:47:19.47	32.45	13.97	-37.4	-39.3	20.7	0.00e+00	0	44	0	1342177280	45	4708
2026-01-28 09:47:21.46	32.05	13.94	-37.5	-39.3	20.7	0.00e+00	0	44	0	1352663040	45	4710
2026-01-28 09:47:23.45	31.65	13.90	-37.4	-39.2	20.7	0.00e+00	0	44	0	1364197376	45	4674
2026-01-28 09:47:25.44	31.25	13.87	-37.4	-39.2	20.7	0.00e+00	0	44	0	1374683136	45	4672
2026-01-28 09:47:27.42	30.85	13.83	-37.4	-39.2	20.7	0.00e+00	0	44	0	1386217472	45	4679
2026-01-28 09:47:29.41	30.45	13.79	-37.4	-39.1	20.8	0.00e+00	0	44	0	1397751808	45	4646
2026-01-28 09:47:31.40	30.06	13.76	-37.3	-39.1	20.8	0.00e+00	0	44	0	1409286144	45	4633
2026-01-28 09:47:33.39	29.66	13.72	-37.5	-39.2	20.7	0.00e+00	0	44	0	1419771904	45	4699
2026-01-28 09:47:35.37	29.27	13.68	-37.4	-39.2	20.7	0.00e+00	0	44	0	1431306240	45	4657
2026-01-28 09:47:37.36	28.87	13.63	-37.4	-39.2	20.7	0.00e+00	0	44	0	1442840576	45	4663
2026-01-28 09:47:39.34	28.48	13.59	-37.6	-39.4	20.5	0.00e+00	0	44	0	1453326336	45	4800
2026-01-28 09:47:41.33	28.09	13.54	-37.8	-39.6	20.3	0.00e+00	0	44	0	1464860672	46	4651
2026-01-28 09:47:43.32	27.70	13.50	-37.8	-39.6	20.3	0.00e+00	0	44	0	1475346432	46	4646
2026-01-28 09:47:45.30	27.31	13.45	-37.8	-39.6	20.3	0.00e+00	0	44	0	1486880768	46	4651
2026-01-28 09:47:47.29	26.92	13.40	-37.9	-39.8	20.2	0.00e+00	0	44	0	1498415104	46	4727
2026-01-28 09:47:49.28	26.54	13.35	-38.1	-40.0	20.0	0.00e+00	0	43	0	1508900864	46	4829
2026-01-28 09:47:51.26	26.15	13.30	-38.0	-39.9	20.1	0.00e+00	0	44	0	1520435200	46	4772
2026-01-28 09:47:53.25	25.77	13.25	-37.9	-39.8	20.2	0.00e+00	0	44	0	1531969536	46	4722
2026-01-28 09:47:55.24	25.39	13.20	-38.1	-40.0	20.0	0.00e+00	0	44	0	1542455296	46	4833
2026-01-28 09:47:57.22	25.01	13.14	-38.1	-40.0	20.0	0.00e+00	0	44	0	1553989632	47	4552
2026-01-28 09:47:59.21	24.63	13.09	-37.9	-39.8	20.2	0.00e+00	0	44	0	1565523968	47	4463
2026-01-28 09:48:01.17	24.25	13.03	-37.8	-39.6	20.3	0.00e+00	0	44	0	1576009728	47	4372
2026-01-28 09:48:03.16	23.88	12.97	-37.8	-39.7	20.3	0.00e+00	0	44	0	1587544064	47	4397
2026-01-28 09:48:05.14	23.50	12.91	-37.8	-39.6	20.3	0.00e+00	0	44	0	1599078400	47	4387
2026-01-28 09:48:07.13	23.13	12.85	-38.0	-39.8	20.2	0.00e+00	0	44	0	1609564160	47	4466
2026-01-28 09:48:09.12	22.76	12.79	-37.9	-39.8	20.2	0.00e+00	0	44	0	1621098496	47	4446
2026-01-28 09:48:11.10	22.39	12.73	-38.0	-39.9	20.1	0.00e+00	0	44	0	1632632832	47	4506
2026-01-28 09:48:13.09	22.02	12.67	-38.1	-40.0	20.0	0.00e+00	0	44	0	1643118592	47	4570
2026-01-28 09:48:15.07	21.65	12.60	-38.2	-40.1	19.8	0.00e+00	0	44	0	1654652928	47	4631
2026-01-28 09:48:17.06	21.29	12.54	-38.1	-40.1	19.9	0.00e+00	0	44	0	1666187264	47	4620
2026-01-28 09:48:19.04	20.93	12.47	-38.0	-40.0	20.0	0.00e+00	0	44	0	1676673024	47	4549
2026-01-28 09:48:21.03	20.56	12.41	-38.0	-39.9	20.0	0.00e+00	0	44	0	1688207360	47	4527
2026-01-28 09:48:23.01	20.21	12.34	-38.0	-39.9	20.0	0.00e+00	0	44	0	1698693120	47	4526
2026-01-28 09:48:25.00	19.85	12.27	-38.1	-40.1	19.9	0.00e+00	0	44	0	1710227456	47	4610
2026-01-28 09:48:26.99	19.49	12.20	-38.1	-40.0	19.9	0.00e+00	0	44	0	1721761792	47	4591
2026-01-28 09:48:28.97	19.13	12.13	-38.0	-39.9	20.0	0.00e+00	0	44	0	1732247552	47	4504
2026-01-28 09:48:30.96	18.78	12.06	-38.2	-40.0	19.9	0.00e+00	0	44	0	1743781888	47	4573
2026-01-28 09:48:32.95	18.43	11.99	-38.2	-40.1	19.9	0.00e+00	0	44	0	1755316224	47	4622
2026-01-28 09:48:34.93	18.08	11.91	-38.1	-40.0	20.0	0.00e+00	0	44	0	1765801984	47	4546
2026-01-28 09:48:36.92	17.73	11.84	-38.1	-40.0	20.0	0.00e+00	0	44	0	1777336320	47	4546
2026-01-28 09:48:38.90	17.39	11.76	-38.0	-39.9	20.0	0.00e+00	0	44	0	1788870656	47	4496
2026-01-28 09:48:40.88	17.04	11.69	-38.1	-40.1	19.9	0.00e+00	0	44	0	1799356416	47	4601
2026-01-28 09:48:42.87	16.70	11.61	-38.0	-39.9	19.9	0.00e+00	0	44	0	1810890752	47	4543
2026-01-28 09:48:44.86	16.36	11.54	-38.0	-40.0	19.9	0.00e+00	0	44	0	1822425088	47	4569
2026-01-28 09:48:46.84	16.02	11.46	-38.1	-40.2	19.8	0.00e+00	0	44	0	1832910848	47	4658
2026-01-28 09:48:48.83	15.68	11.38	-38.3	-40.4	19.5	0.00e+00	0	44	0	1844445184	47	4801
2026-01-28 09:48:50.82	15.35	11.30	-38.4	-40.5	19.4	0.00e+00	0	44	0	1855979520	47	4851
2026-01-28 09:48:52.80	15.02	11.22	-38.2	-40.3	19.0	0.00e+00	0	44	0	1866465280	47	4712
2026-01-28 09:48:54.79	14.68	11.14	-38.1	-40.0	19.9	0.00e+00	0	44	0	1877999616	47	4594
2026-01-28 09:48:56.78	14.35	11.06	-38.2	-40.2	19.7	0.00e+00	0	44	0	1889533952	47	4688
2026-01-28 09:48:58.77	14.02	10.98	-38.3	-40.2	19.7	0.00e+00	0	44	0	1900019712	47	4693
2026-01-28 09:49:00.76	13.70	10.90	-38.5	-40.4	19.5	0.00e+00	0	44	0	1911554048	47	4794
2026-01-28 09:49:02.74	13.38	10.81	-38.4	-40.3	19.6	0.00e+00	0	44	0	1923088384	47	4758
2026-01-28 09:49:04.73	13.05	10.73	-38.6	-40.5	19.4	0.00e+00	0	44	0	1933574144	47	4848
2026-01-28 09:49:06.72	12.73	10.64	-38.8	-40.7	19.4	0.00e+00	0	44	0	1945108480	48	4690
2026-01-28 09:49:08.71	12.41	10.56	-38.7	-40.6	19.4	0.00e+00	0	44	0	1956642816	48	4642
2026-01-28 09:49:10.69	12.10	10.47	-38.7	-40.6	19.5	0.00e+00	0	44	0	1967128576	48	4624
2026-01-28 09:49:12.68	11.78	10.39	-38.7	-40.7	19.4	0.00e+00	0	44	0	1978662912	48	4686
2026-01-28 09:49:14.67	11.47	10.30	-38.8	-40.9	19.2	0.00e+00	0	44	0	1990197248	48	4797
2026-01-28 09:49:16.66	11.16	10.22	-38.8	-40.9	19.2	0.00e+00	0	44	0	2000683008	48	4782
2026-01-28 09:49:18.64	10.85	10.13	-38.8	-40.8	19.3	0.00e+00	0	44	0	2012217344	48	4758
2026-01-28 09:49:20.63	10.54	10.04	-38.5	-40.6	19.5	0.00e+00	0	44	0	2023751680	48	4636
2026-01-28 09:49:22.62	10.24	9.95	-38.4	-40.6	19.5	0.00e+00	0	44	0	2034237440	48	4629
2026-01-28 09:49:24.61	9.93	9.86	-38.5	-40.8	19.3	0.00e+00	0	44	0	2045771776	48	4728
2026-01-28 09:49:26.59	9.63	9.77	-38.6	-40.8	19.3	0.00e+00	0	44	0	2057306112	48	4747
2026-01-28 09:49:28.58	9.33	9.68	-38.6	-40.8	19.3	0.00e+00	0	44	0	2067791872	48	4735
2026-01-28 09:49:30.57	9.03	9.59	-38.6	-40.7	19.3	0.00e+00	0	44	0	2079326208	48	4703
2026-01-28 09:49:32.56	8.74	9.50	-38.9	-41.0	19.1	0.00e+00	0	44	0	2090860544	48	4834
2026-01-28 09:49:34.55	8.44	9.41	-39.2	-41.3	18.8	0.00e+00	0	44	0	2101346304	49	4710
2026-01-28 09:49:36.53	8.15	9.32	-39.2	-41.2	18.8	0.00e+00	0	44	0	2112880640	49	4698
2026-01-28 09:49:38.52	7.86	9.23	-39.2	-41.3	18.8	0.00e+00	0	44	0	2123366400	49	4744
2026-01-28 09:49:40.51	7.57	9.14	-39.3	-41.4	18.6	0.00e+00	0	44	0	2134900736	49	4804
2026-01-28 09:49:42.49	7.29	9.04	-39.3	-41.4	18.7	0.00e+00	0	44	0	2146435072	49	4772
2026-01-28 09:49:44.48	7.00	8.95	-47.5	-61.3	3.8	8.24e-01	0	44	104	2154823680	65	18807
2026-01-28 09:49:46.47	6.72	8.86	-49.0	-61.8	3.8	8.46e-01	0	44	104	2154823680	68	16816
2026-01-28 09:49:48.46	6.44	8.77	-49.8	-62.0	3.8	8.46e-01	0	44	104	2154823680	70	15281
2026-01-28 09:49:50.44	6.16	8.67	-49.8	-62.1	3.8	8.46e-01	0	44	104	2154823680	70	15427
2026-01-28 09:49:52.43	5.88	8.58	-49.8	-62.1	3.8	8.46e-01	0	44	104	2154823680	70	15562
2026-01-28 09:49:54.42	5.61	8.48	-49.8	-62.1	3.8	8.47e-01	0	44	104	2154823680	70	15545
2026-01-28 09:49:56.41	5.33	8.39	-50.0	-62.2	3.8	8.46e-01	0	44	104	2154823680	70	15629
2026-01-28 09:49:58.39	5.06	8.29	-50.0	-62.2	3.8	8.47e-01	0	44	104	2154823680	70	15685
2026-01-28 09:50:00.38	4.79	8.20	-49.9	-62.2	3.8	8.48e-01	0	44	104	2154823680	70	15683
2026-01-28 09:50:02.36	4.52	8.10	-49.9	-62.1	3.8	8.47e-01	0	44	104	2154823680	70	15554
2026-01-28 09:50:04.35	4.26	8.01	-48.9	-61.8	3.8	8.46e-01	0	44	104	2154823680	68	16865
2026-01-28 09:50:06.34	3.99	7.91	-50.0	-62.2	3.8	8.47e-01	0	44	104	2154823680	70	15692
2026-01-28 09:50:08.32	3.73	7.82	-50.0	-62.1	3.8	8.47e-01	0	44	104	2154823680	70	15563
2026-01-28 09:50:10.31	3.47	7.72	-49.9	-62.1	3.8	8.46e-01	0	44	104	2154823680	70	15539
2026-01-28 09:50:12.30	3.21	7.62	-49.7	-62.0	3.8	8.47e-01	0	44	104	2154823680	70	15390
2026-01-28 09:50:14.28	2.95	7.53	-49.7	-62.0	3.8	8.47e-01	0	44	104	2154823680	70	15292
2026-01-28 09:50:16.27	2.70	7.43	-49.6	-61.8	3.8	8.47e-01	0	44	104	2154823680	69	15894
2026-01-28 09:50:18.26	2.44	7.33	-49.1	-61.5	3.8	8.47e-01	0	44	104	2154823680	69	15282
2026-01-28 09:50:20.25	2.19	7.24	-49.1	-61.4	3.8	8.49e-01	0	44	104	2154823680	69	15122