passes_logs/2026/01/28/T1/T1__20260128_225316_NOAA_20_JPSS-1_rec.log

#Pass ID: 20260128_225316_NOAA 20 (JPSS-1)
#Satellite: NOAA 20 (JPSS-1)
#Configuration: NOAA 20
#almurnet v.1.7.20251203
#Start time: 2026-01-28 22:53:18

#Version: 2.0.20230620
#Station: T1
#Location: 37.570604 lon 55.790049 lat
#TLE: 1 43013U 17073A   26027.80586608  .00000156  00000+0  94940-4 0  9998
#TLE: 2 43013  98.7647 328.6108 0000947  21.3465 338.7750 14.19541216424550

#Time	Az	El	Level	Level2	SNR	BER	BlckErr	Temp	State	Recorded	gain1	gain2
2026-01-28 22:53:18.61	22.47	5.12	-50.1	-65.2	3.8	1.49e+00	0	37	0	0	70	22232
2026-01-28 22:53:21.59	22.61	5.32	-50.0	-65.2	3.8	1.49e+00	0	36	104	0	72	19774
2026-01-28 22:53:24.57	22.76	5.52	-50.1	-65.2	3.8	1.49e+00	0	37	104	0	71	20976
2026-01-28 22:53:27.55	22.91	5.73	-50.0	-65.2	3.8	1.49e+00	0	37	104	0	71	20805
2026-01-28 22:53:30.53	23.06	5.93	-49.8	-65.0	3.8	1.49e+00	0	37	104	0	71	20335
2026-01-28 22:53:33.51	23.21	6.14	-49.1	-64.7	3.8	1.49e+00	0	37	104	0	69	22019
2026-01-28 22:53:36.49	23.37	6.35	-48.5	-64.4	3.8	1.49e+00	0	37	104	0	68	22651
2026-01-28 22:53:39.47	23.52	6.56	-48.5	-64.3	3.8	1.49e+00	0	37	104	0	68	22448
2026-01-28 22:53:42.45	23.68	6.78	-48.5	-64.2	3.8	1.49e+00	0	37	104	0	68	22203
2026-01-28 22:53:45.43	23.84	6.99	-48.5	-64.3	3.8	1.49e+00	0	37	104	0	68	22349
2026-01-28 22:53:48.41	24.01	7.21	-48.5	-64.4	3.8	1.49e+00	0	38	104	0	68	22682
2026-01-28 22:53:51.39	24.17	7.42	-48.4	-64.3	3.8	1.49e+00	0	37	104	0	68	22329
2026-01-28 22:53:54.37	24.34	7.64	-48.4	-64.0	3.8	1.49e+00	0	38	104	0	68	21509
2026-01-28 22:53:57.35	24.51	7.86	-48.4	-63.5	3.8	1.49e+00	0	38	104	0	68	20515
2026-01-28 22:54:00.34	24.68	8.09	-48.4	-63.5	3.8	1.49e+00	0	38	104	0	68	20348
2026-01-28 22:54:03.32	24.86	8.31	-48.4	-63.4	3.8	1.49e+00	0	38	104	0	68	20268
2026-01-28 22:54:06.30	25.04	8.54	-48.4	-62.9	3.8	1.49e+00	0	38	104	0	68	19015
2026-01-28 22:54:09.27	25.22	8.77	-48.2	-60.9	4.2	1.46e+00	0	38	0	0	68	15133
2026-01-28 22:54:12.25	25.40	9.00	-47.8	-57.5	5.8	5.09e-01	0	38	0	4194304	67	10891
2026-01-28 22:54:15.31	25.59	9.24	-48.2	-59.5	4.6	1.17e+00	0	38	0	9437184	67	13573
2026-01-28 22:54:18.44	25.79	9.48	-44.9	-48.8	14.5	1.20e-04	0	38	0	12582912	61	5630
2026-01-28 22:54:21.28	25.97	9.71	-44.3	-47.9	15.5	0.00e+00	0	38	0	17825792	60	5347
2026-01-28 22:54:24.47	26.18	9.96	-44.1	-47.6	15.9	0.00e+00	0	38	0	24117248	60	5165
2026-01-28 22:54:27.37	26.37	10.19	-44.2	-47.5	15.9	0.00e+00	0	38	0	29360128	60	5151
2026-01-28 22:54:30.56	26.58	10.45	-44.2	-47.4	16.1	0.00e+00	0	38	0	35651584	60	5066
2026-01-28 22:54:33.47	26.78	10.69	-44.0	-47.0	16.4	0.00e+00	0	38	0	40894464	60	4854
2026-01-28 22:54:36.66	27.00	10.96	-43.9	-46.8	16.6	0.00e+00	0	38	0	46137344	59	5025
2026-01-28 22:54:39.50	27.20	11.19	-43.8	-46.6	16.8	0.00e+00	0	38	0	51380224	59	4923
2026-01-28 22:54:42.64	27.43	11.46	-43.6	-46.4	17.0	0.00e+00	0	38	0	57671680	59	4810
2026-01-28 22:54:45.70	27.65	11.72	-43.5	-46.3	17.1	0.00e+00	0	38	0	63963136	59	4727
2026-01-28 22:54:48.86	27.89	11.99	-43.5	-46.3	17.1	0.00e+00	0	39	0	69206016	58	5031
2026-01-28 22:54:51.88	28.11	12.25	-43.4	-46.2	17.3	0.00e+00	0	39	0	75497472	58	4975
2026-01-28 22:54:54.86	28.34	12.51	-43.5	-46.3	17.2	0.00e+00	0	39	0	80740352	58	5024
2026-01-28 22:54:57.85	28.58	12.78	-43.4	-46.2	17.2	0.00e+00	0	39	0	85983232	58	4973
2026-01-28 22:55:00.88	28.82	13.05	-43.5	-46.4	17.1	0.00e+00	0	38	0	92274688	58	5081
2026-01-28 22:55:03.83	29.05	13.31	-43.2	-46.0	17.5	0.00e+00	0	39	0	97517568	58	4841
2026-01-28 22:55:06.81	29.30	13.59	-43.2	-45.9	17.6	0.00e+00	0	39	0	102760448	58	4812
2026-01-28 22:55:09.80	29.55	13.86	-43.3	-46.0	17.5	0.00e+00	0	39	0	109051904	58	4834
2026-01-28 22:55:12.78	29.80	14.14	-43.4	-46.1	17.5	0.00e+00	0	39	0	114294784	58	4878
2026-01-28 22:55:15.78	30.06	14.42	-43.3	-45.9	17.6	0.00e+00	0	39	0	119537664	58	4810
2026-01-28 22:55:18.73	30.32	14.70	-43.3	-45.9	17.6	0.00e+00	0	39	0	125829120	58	4794
2026-01-28 22:55:22.26	30.64	15.03	-43.1	-45.7	17.8	0.00e+00	0	39	0	132120576	58	4690
2026-01-28 22:55:25.21	30.91	15.32	-43.0	-45.6	17.9	0.00e+00	0	39	0	137363456	57	4911
2026-01-28 22:55:28.20	31.19	15.61	-42.9	-45.4	18.1	0.00e+00	0	39	0	143654912	57	4785
2026-01-28 22:55:31.18	31.47	15.90	-42.8	-45.4	18.2	0.00e+00	0	39	0	148897792	57	4760
2026-01-28 22:55:34.28	31.77	16.21	-42.9	-45.5	18.0	0.00e+00	0	39	0	154140672	57	4845
2026-01-28 22:55:37.34	32.07	16.52	-43.0	-45.5	18.0	0.00e+00	0	39	0	160432128	57	4855
2026-01-28 22:55:40.21	32.36	16.81	-43.1	-45.7	17.9	0.00e+00	0	39	0	165675008	57	4935
2026-01-28 22:55:43.34	32.68	17.13	-43.2	-45.7	17.8	0.00e+00	0	39	0	171966464	57	4957
2026-01-28 22:55:46.18	32.98	17.42	-43.3	-45.9	17.7	0.00e+00	0	39	0	177209344	57	5065
2026-01-28 22:55:49.34	33.32	17.76	-43.3	-45.9	17.6	0.00e+00	0	39	0	182452224	57	5073
2026-01-28 22:55:52.18	33.63	18.06	-43.3	-46.0	17.6	0.00e+00	0	39	0	187695104	57	5132
2026-01-28 22:55:55.45	33.99	18.41	-43.4	-46.1	17.5	0.00e+00	0	39	0	193986560	57	5196
2026-01-28 22:55:58.24	34.31	18.71	-43.4	-46.1	17.5	0.00e+00	0	39	0	199229440	57	5214
2026-01-28 22:56:01.50	34.69	19.06	-43.4	-46.0	17.6	0.00e+00	0	39	0	205520896	57	5139
2026-01-28 22:56:04.22	35.01	19.36	-43.4	-46.0	17.7	0.00e+00	0	39	0	210763776	57	5105
2026-01-28 22:56:07.56	35.41	19.73	-43.4	-46.0	17.6	0.00e+00	0	39	0	217055232	57	5155
2026-01-28 22:56:10.33	35.76	20.05	-43.5	-46.2	17.4	0.00e+00	0	39	0	222298112	57	5256
2026-01-28 22:56:13.85	36.20	20.45	-43.6	-46.3	17.3	0.00e+00	0	39	0	228589568	57	5327
2026-01-28 22:56:16.83	36.59	20.79	-43.6	-46.3	17.4	0.00e+00	0	39	0	234881024	58	4993
2026-01-28 22:56:19.81	36.98	21.14	-43.6	-46.3	17.4	0.00e+00	0	39	0	240123904	58	4987
2026-01-28 22:56:22.80	37.38	21.49	-43.7	-46.4	17.3	0.00e+00	0	39	0	245366784	58	5070
2026-01-28 22:56:25.72	37.79	21.83	-43.9	-46.7	17.0	0.00e+00	0	39	0	250609664	58	5229
2026-01-28 22:56:29.07	38.26	22.23	-43.9	-46.6	17.0	0.00e+00	0	39	0	256901120	58	5193
2026-01-28 22:56:31.77	38.65	22.56	-43.7	-46.4	17.3	0.00e+00	0	39	0	262144000	58	5091
2026-01-28 22:56:35.05	39.14	22.96	-43.6	-46.2	17.4	0.00e+00	0	39	0	268435456	58	4983
2026-01-28 22:56:37.76	39.55	23.29	-43.6	-46.3	17.4	0.00e+00	0	39	0	273678336	58	4984
2026-01-28 22:56:41.14	40.07	23.72	-43.4	-46.0	17.7	0.00e+00	0	39	0	279969792	58	4825
2026-01-28 22:56:43.86	40.50	24.06	-43.4	-45.9	17.7	0.00e+00	0	39	0	285212672	58	4812
2026-01-28 22:56:47.24	41.05	24.49	-43.4	-45.9	17.7	0.00e+00	0	39	0	291504128	58	4812
2026-01-28 22:56:49.96	41.50	24.83	-43.5	-46.1	17.6	0.00e+00	0	39	0	296747008	58	4880
2026-01-28 22:56:53.23	42.06	25.26	-43.4	-45.9	17.8	0.00e+00	0	39	0	303038464	58	4775
2026-01-28 22:56:55.95	42.53	25.61	-43.5	-46.0	17.6	0.00e+00	0	39	0	307232768	58	4868
2026-01-28 22:56:59.22	43.12	26.04	-43.7	-46.3	17.4	0.00e+00	0	39	0	313524224	58	5019
2026-01-28 22:57:01.93	43.62	26.40	-43.8	-46.5	17.2	0.00e+00	0	39	0	318767104	58	5138
2026-01-28 22:57:05.20	44.23	26.84	-43.7	-46.4	17.4	0.00e+00	0	39	0	325058560	58	5050
2026-01-28 22:57:08.01	44.77	27.21	-43.8	-46.4	17.3	0.00e+00	0	39	0	330301440	58	5094
2026-01-28 22:57:11.13	45.39	27.64	-43.9	-46.6	17.2	0.00e+00	0	39	0	336592896	58	5198
2026-01-28 22:57:13.98	45.96	28.03	-44.1	-46.8	16.9	0.00e+00	0	39	0	341835776	58	5325
2026-01-28 22:57:17.11	46.61	28.46	-44.2	-46.9	16.8	0.00e+00	0	39	0	347078656	59	5095
2026-01-28 22:57:20.03	47.23	28.86	-44.2	-47.0	16.7	0.00e+00	0	39	0	353370112	59	5139
2026-01-28 22:57:23.02	47.88	29.28	-44.2	-47.0	16.7	0.00e+00	0	39	0	358612992	59	5146
2026-01-28 22:57:26.00	48.55	29.69	-44.2	-47.0	16.7	0.00e+00	0	39	0	363855872	59	5133
2026-01-28 22:57:28.98	49.24	30.11	-44.3	-47.1	16.7	0.00e+00	0	39	0	370147328	59	5170
2026-01-28 22:57:31.97	49.94	30.53	-44.7	-47.7	16.1	0.00e+00	0	39	0	375390208	60	5222
2026-01-28 22:57:34.95	50.66	30.95	-44.5	-47.4	16.3	0.00e+00	0	39	0	380633088	60	5100
2026-01-28 22:57:37.94	51.40	31.38	-44.4	-47.3	16.5	0.00e+00	0	39	0	386924544	60	5028
2026-01-28 22:57:40.92	52.16	31.80	-44.8	-47.9	15.9	0.00e+00	0	40	0	392167424	60	5380
2026-01-28 22:57:43.91	52.94	32.23	-45.1	-48.3	15.6	0.00e+00	0	39	0	397410304	60	5594
2026-01-28 22:57:46.96	53.75	32.66	-44.7	-47.7	16.1	0.00e+00	0	39	0	403701760	60	5269
2026-01-28 22:57:49.81	54.54	33.07	-45.3	-48.5	15.3	0.00e+00	0	39	0	408944640	61	5450
2026-01-28 22:57:52.93	55.42	33.51	-45.3	-48.7	15.2	0.00e+00	0	39	0	414187520	61	5539
2026-01-28 22:57:55.78	56.24	33.92	-45.1	-48.3	15.5	0.00e+00	0	39	0	419430400	61	5335
2026-01-28 22:57:59.03	57.21	34.38	-44.7	-47.7	16.1	0.00e+00	0	39	0	425721856	61	4943
2026-01-28 22:58:01.87	58.07	34.78	-44.9	-48.1	15.8	0.00e+00	0	39	0	430964736	61	5161
2026-01-28 22:58:05.12	59.09	35.23	-45.9	-49.5	14.4	7.00e-07	0	39	0	437256192	62	5727
2026-01-28 22:58:08.88	60.30	35.75	-44.8	-47.9	16.0	0.00e+00	0	39	0	444596224	61	5042
2026-01-28 22:58:11.66	61.22	36.13	-45.0	-48.1	15.7	0.00e+00	0	39	0	449839104	61	5212
2026-01-28 22:58:15.01	62.36	36.59	-45.8	-49.3	14.6	1.50e-06	0	39	0	456130560	62	5638
2026-01-28 22:58:17.87	63.35	36.97	-45.4	-48.7	15.1	0.00e+00	0	39	0	461373440	62	5278
2026-01-28 22:58:21.26	64.56	37.42	-45.0	-48.2	15.7	0.00e+00	0	39	0	467664896	61	5231
2026-01-28 22:58:23.96	65.55	37.77	-45.3	-48.6	15.3	0.00e+00	0	40	0	472907776	61	5503
2026-01-28 22:58:27.24	66.78	38.19	-45.4	-48.7	15.2	0.00e+00	0	39	0	479199232	61	5537
2026-01-28 22:58:29.96	67.82	38.53	-44.6	-47.6	16.3	0.00e+00	0	39	0	484442112	61	4884
2026-01-28 22:58:33.24	69.11	38.93	-44.8	-47.8	16.1	0.00e+00	0	39	0	489684992	60	5293
2026-01-28 22:58:36.00	70.21	39.25	-46.0	-49.8	14.1	2.20e-06	0	39	0	494927872	62	5950
2026-01-28 22:58:39.29	71.56	39.63	-45.9	-49.4	14.4	2.20e-06	0	40	0	501219328	63	5386
2026-01-28 22:58:42.01	72.70	39.93	-45.5	-48.9	15.0	0.00e+00	0	39	0	506462208	63	5075
2026-01-28 22:58:45.30	74.10	40.29	-45.1	-48.3	15.5	0.00e+00	0	39	0	512753664	62	5040
2026-01-28 22:58:48.32	75.42	40.59	-45.1	-48.2	15.6	0.00e+00	0	39	0	517996544	62	4971
2026-01-28 22:58:51.25	76.72	40.88	-44.1	-46.9	17.0	0.00e+00	0	39	0	524288000	60	4782
2026-01-28 22:58:54.24	78.06	41.16	-44.1	-46.9	17.0	0.00e+00	0	39	0	529530880	60	4774
2026-01-28 22:58:57.22	79.43	41.42	-44.7	-47.7	16.2	0.00e+00	0	39	0	534773760	60	5226
2026-01-28 22:59:00.30	80.86	41.67	-45.3	-48.7	15.2	0.00e+00	0	39	0	541065216	61	5541
2026-01-28 22:59:03.14	82.21	41.89	-45.0	-48.2	15.6	0.00e+00	0	39	0	546308096	61	5262
2026-01-28 22:59:06.25	83.70	42.11	-45.2	-48.6	15.2	0.00e+00	0	40	0	551550976	61	5522
2026-01-28 22:59:09.38	85.22	42.30	-44.7	-47.9	16.0	0.00e+00	0	39	0	557842432	61	5056
2026-01-28 22:59:12.22	86.61	42.47	-44.0	-46.9	17.0	0.00e+00	0	39	0	563085312	60	4765
2026-01-28 22:59:15.47	88.22	42.63	-44.1	-47.1	16.8	0.00e+00	0	40	0	569376768	60	4887
2026-01-28 22:59:18.32	89.65	42.75	-43.7	-46.4	17.4	0.00e+00	0	39	0	574619648	59	4784
2026-01-28 22:59:21.65	91.32	42.87	-44.3	-47.2	16.7	0.00e+00	0	40	0	580911104	59	5219
2026-01-28 22:59:24.56	92.80	42.96	-44.0	-46.7	17.1	0.00e+00	0	40	0	586153984	59	4957
2026-01-28 22:59:27.84	94.47	43.02	-44.3	-47.1	16.7	0.00e+00	0	40	0	592445440	60	4924
2026-01-28 22:59:30.54	95.85	43.06	-43.2	-45.7	18.1	0.00e+00	0	40	0	597688320	58	4675
2026-01-28 22:59:33.86	97.55	43.08	-43.4	-45.9	17.9	0.00e+00	0	40	0	603979776	58	4787
2026-01-28 22:59:36.67	98.99	43.07	-43.0	-45.4	18.4	0.00e+00	0	40	0	609222656	57	4775
2026-01-28 22:59:40.16	100.78	43.04	-42.8	-45.2	18.5	0.00e+00	0	39	0	615514112	57	4700
2026-01-28 22:59:42.88	102.17	42.99	-43.9	-46.7	17.2	0.00e+00	0	40	0	620756992	58	5219
2026-01-28 22:59:46.16	103.83	42.91	-43.5	-46.1	17.7	0.00e+00	0	40	0	627048448	58	4883
2026-01-28 22:59:48.97	105.26	42.82	-44.5	-47.6	16.2	0.00e+00	0	40	0	632291328	59	5468
2026-01-28 22:59:52.10	106.83	42.70	-43.6	-46.2	17.6	0.00e+00	0	39	0	637534208	59	4702
2026-01-28 22:59:54.94	108.25	42.57	-44.2	-47.0	16.8	0.00e+00	0	40	0	643825664	59	5145
2026-01-28 22:59:58.07	109.79	42.40	-44.1	-46.8	17.0	0.00e+00	0	40	0	649068544	59	5041
2026-01-28 23:00:00.92	111.19	42.23	-44.5	-47.4	16.5	0.00e+00	0	40	0	654311424	60	5076
2026-01-28 23:00:04.05	112.70	42.02	-44.5	-47.4	16.4	0.00e+00	0	40	0	660602880	60	5091
2026-01-28 23:00:06.89	114.06	41.82	-44.1	-46.8	17.0	0.00e+00	0	40	0	665845760	60	4754
2026-01-28 23:00:10.02	115.53	41.57	-44.4	-47.2	16.7	0.00e+00	0	40	0	672137216	59	5246
2026-01-28 23:00:12.86	116.85	41.33	-44.1	-46.9	17.0	0.00e+00	0	40	0	677380096	60	4796
2026-01-28 23:00:15.99	118.28	41.05	-44.0	-46.7	17.1	0.00e+00	0	40	0	682622976	58	5241
2026-01-28 23:00:18.83	119.56	40.78	-42.1	-44.4	19.3	0.00e+00	0	40	0	687865856	56	4498
2026-01-28 23:00:22.02	120.97	40.46	-43.2	-45.7	18.1	0.00e+00	0	40	0	694157312	57	4941
2026-01-28 23:00:24.93	122.23	40.16	-41.5	-43.7	19.8	0.00e+00	0	40	0	699400192	55	4401
2026-01-28 23:00:28.06	123.55	39.82	-42.0	-44.3	19.2	0.00e+00	0	40	0	705691648	55	4749
2026-01-28 23:00:30.90	124.74	39.50	-41.5	-43.7	19.9	0.00e+00	0	40	0	710934528	54	4652
2026-01-28 23:00:34.03	126.01	39.13	-42.4	-44.7	18.8	0.00e+00	0	40	0	716177408	55	4978
2026-01-28 23:00:36.87	127.15	38.79	-42.2	-44.5	19.0	0.00e+00	0	40	0	722468864	55	4862
2026-01-28 23:00:40.07	128.39	38.40	-42.3	-44.6	19.1	0.00e+00	0	40	0	727711744	56	4629
2026-01-28 23:00:42.91	129.48	38.04	-42.5	-44.8	18.9	0.00e+00	0	40	0	732954624	56	4746
2026-01-28 23:00:46.04	130.65	37.64	-42.2	-44.4	19.3	0.00e+00	0	39	0	739246080	56	4527
2026-01-28 23:00:48.88	131.68	37.26	-42.9	-45.3	18.4	0.00e+00	0	40	0	744488960	56	5014
2026-01-28 23:00:52.01	132.79	36.85	-42.8	-45.2	18.5	0.00e+00	0	40	0	750780416	56	4956
2026-01-28 23:00:54.86	133.78	36.46	-42.1	-44.4	19.3	0.00e+00	0	40	0	756023296	56	4506
2026-01-28 23:00:57.91	134.81	36.04	-41.3	-43.4	20.1	0.00e+00	0	40	0	761266176	54	4527
2026-01-28 23:01:00.89	135.80	35.63	-43.4	-46.0	17.8	0.00e+00	0	40	0	766509056	57	5102
2026-01-28 23:01:03.88	136.76	35.21	-42.2	-44.5	19.2	0.00e+00	0	40	0	772800512	56	4584
2026-01-28 23:01:06.86	137.70	34.79	-43.8	-46.5	17.2	0.00e+00	0	40	0	778043392	58	5138
2026-01-28 23:01:09.85	138.61	34.37	-43.1	-45.5	18.2	0.00e+00	0	40	0	783286272	58	4591
2026-01-28 23:01:12.83	139.50	33.95	-44.0	-46.7	17.1	0.00e+00	0	40	0	789577728	58	5243
2026-01-28 23:01:15.82	140.37	33.52	-42.8	-45.2	18.4	0.00e+00	0	40	0	794820608	57	4695
2026-01-28 23:01:18.87	141.24	33.08	-42.3	-44.6	18.9	0.00e+00	0	40	0	801112064	55	4923
2026-01-28 23:01:21.95	142.09	32.64	-44.8	-47.9	15.9	0.00e+00	0	40	0	806354944	60	5351
2026-01-28 23:01:24.88	142.88	32.22	-42.4	-44.6	19.1	0.00e+00	0	40	0	811597824	56	4646
2026-01-28 23:01:27.87	143.66	31.79	-44.6	-47.6	16.2	0.00e+00	0	40	0	817889280	59	5514
2026-01-28 23:01:30.85	144.42	31.37	-44.0	-46.9	16.8	0.00e+00	0	40	0	823132160	60	4760
2026-01-28 23:01:33.83	145.17	30.94	-42.2	-44.5	19.2	0.00e+00	0	40	0	828375040	56	4556
2026-01-28 23:01:36.88	145.91	30.51	-44.5	-47.5	16.3	0.00e+00	0	40	0	834666496	59	5447
2026-01-28 23:01:39.85	146.61	30.08	-43.4	-46.0	17.7	0.00e+00	0	40	0	839909376	58	4837
2026-01-28 23:01:42.83	147.29	29.66	-42.4	-44.7	19.0	0.00e+00	0	40	0	845152256	56	4671
2026-01-28 23:01:45.82	147.97	29.24	-44.8	-48.0	15.9	0.00e+00	0	40	0	851443712	60	5434
2026-01-28 23:01:48.84	148.63	28.82	-43.6	-46.3	17.3	0.00e+00	0	40	0	856686592	59	4736
2026-01-28 23:01:51.85	149.27	28.40	-43.0	-45.5	18.2	0.00e+00	0	40	0	862978048	57	4821
2026-01-28 23:01:55.14	149.95	27.95	-43.8	-46.6	17.1	0.00e+00	0	40	0	868220928	58	5198
2026-01-28 23:01:57.84	150.50	27.57	-44.0	-46.8	16.9	0.00e+00	0	40	0	873463808	59	5022
2026-01-28 23:02:01.13	151.15	27.13	-43.2	-45.8	17.9	0.00e+00	0	40	0	879755264	58	4716
2026-01-28 23:02:03.84	151.67	26.76	-42.4	-44.8	18.8	0.00e+00	0	40	0	884998144	56	4756
2026-01-28 23:02:07.18	152.30	26.31	-43.2	-45.8	17.9	0.00e+00	0	40	0	891289600	57	4993
2026-01-28 23:02:10.21	152.86	25.91	-43.3	-45.9	17.8	0.00e+00	0	40	0	896532480	57	5045
2026-01-28 23:02:14.10	153.55	25.39	-42.7	-45.1	18.5	0.00e+00	0	40	0	903872512	57	4634
2026-01-28 23:02:16.94	154.04	25.02	-42.7	-45.2	18.5	0.00e+00	0	40	0	909115392	57	4675
2026-01-28 23:02:20.59	154.66	24.55	-42.9	-45.3	18.3	0.00e+00	0	40	0	916455424	57	4756
2026-01-28 23:02:23.44	155.12	24.18	-42.7	-45.2	18.4	0.00e+00	0	40	0	921698304	57	4658
2026-01-28 23:02:26.57	155.63	23.78	-42.7	-45.1	18.5	0.00e+00	0	40	0	927989760	57	4612
2026-01-28 23:02:29.41	156.07	23.43	-42.8	-45.2	18.4	0.00e+00	0	40	0	933232640	57	4694
2026-01-28 23:02:32.54	156.55	23.04	-42.7	-45.2	18.5	0.00e+00	0	40	0	938475520	57	4664
2026-01-28 23:02:35.38	156.98	22.68	-43.1	-45.7	17.9	0.00e+00	0	40	0	943718400	57	4939
2026-01-28 23:02:38.51	157.44	22.30	-43.6	-46.3	17.3	0.00e+00	0	40	0	950009856	57	5329
2026-01-28 23:02:41.46	157.86	21.94	-43.5	-46.1	17.5	0.00e+00	0	40	0	955252736	57	5170
2026-01-28 23:02:44.59	158.29	21.57	-43.0	-45.5	18.0	0.00e+00	0	40	0	961544192	57	4866
2026-01-28 23:02:47.43	158.68	21.23	-43.0	-45.6	18.0	0.00e+00	0	40	0	966787072	57	4889
2026-01-28 23:02:50.56	159.10	20.86	-43.3	-45.9	17.6	0.00e+00	0	40	0	973078528	57	5100
2026-01-28 23:02:53.40	159.47	20.53	-43.4	-46.0	17.6	0.00e+00	0	40	0	978321408	57	5131
2026-01-28 23:02:56.60	159.88	20.16	-43.2	-45.7	17.8	0.00e+00	0	40	0	983564288	57	4974
2026-01-28 23:02:59.45	160.24	19.84	-43.1	-45.7	17.9	0.00e+00	0	40	0	988807168	57	4940
2026-01-28 23:03:02.58	160.62	19.49	-43.3	-45.8	17.7	0.00e+00	0	40	0	995098624	57	5041
2026-01-28 23:03:05.42	160.96	19.17	-43.3	-45.9	17.6	0.00e+00	0	40	0	1000341504	57	5097
2026-01-28 23:03:08.55	161.33	18.82	-43.5	-46.2	17.3	0.00e+00	0	40	0	1006632960	57	5252
2026-01-28 23:03:11.39	161.66	18.51	-43.6	-46.4	17.2	0.00e+00	0	40	0	1011875840	57	5352
2026-01-28 23:03:14.51	162.01	18.17	-43.8	-46.5	17.0	0.00e+00	0	40	0	1017118720	58	5140
2026-01-28 23:03:17.36	162.32	17.87	-43.9	-46.6	16.9	0.00e+00	0	40	0	1022361600	58	5218
2026-01-28 23:03:20.41	162.65	17.54	-43.7	-46.5	17.1	0.00e+00	0	40	0	1028653056	58	5106
2026-01-28 23:03:23.40	162.97	17.23	-43.5	-46.2	17.3	0.00e+00	0	40	0	1033895936	58	4978
2026-01-28 23:03:26.38	163.28	16.92	-43.6	-46.4	17.2	0.00e+00	0	40	0	1040187392	58	5045
2026-01-28 23:03:29.36	163.58	16.61	-43.6	-46.3	17.2	0.00e+00	0	40	0	1045430272	58	4998
2026-01-28 23:03:32.35	163.88	16.31	-43.5	-46.2	17.3	0.00e+00	0	40	0	1050673152	58	4977
2026-01-28 23:03:35.33	164.17	16.01	-43.5	-46.2	17.4	0.00e+00	0	40	0	1056964608	58	4941
2026-01-28 23:03:38.31	164.46	15.71	-43.4	-46.1	17.4	0.00e+00	0	40	0	1062207488	58	4915
2026-01-28 23:03:41.30	164.74	15.41	-43.4	-46.1	17.4	0.00e+00	0	40	0	1067450368	58	4914
2026-01-28 23:03:44.38	165.03	15.11	-43.4	-46.1	17.4	0.00e+00	0	40	0	1073741824	58	4893
2026-01-28 23:03:47.33	165.30	14.83	-43.6	-46.3	17.1	0.00e+00	0	40	0	1078984704	58	5032
2026-01-28 23:03:50.46	165.58	14.52	-43.9	-46.7	16.8	0.00e+00	0	40	0	1085276160	58	5265
2026-01-28 23:03:53.30	165.82	14.25	-44.0	-47.0	16.5	0.00e+00	0	40	0	1090519040	58	5423
2026-01-28 23:03:56.43	166.09	13.96	-44.1	-47.1	16.3	0.00e+00	0	40	0	1095761920	59	5202
2026-01-28 23:03:59.27	166.33	13.70	-44.0	-47.0	16.4	0.00e+00	0	40	0	1101004800	59	5139
2026-01-28 23:04:02.63	166.61	13.39	-43.7	-46.6	16.8	0.00e+00	0	40	0	1107296256	59	4914
2026-01-28 23:04:05.34	166.83	13.14	-43.3	-46.1	17.3	0.00e+00	0	40	0	1112539136	58	4886
2026-01-28 23:04:08.62	167.09	12.84	-43.2	-46.0	17.5	0.00e+00	0	40	0	1118830592	58	4815
2026-01-28 23:04:11.58	167.32	12.58	-43.2	-45.9	17.5	0.00e+00	0	40	0	1124073472	58	4767
2026-01-28 23:04:14.56	167.55	12.31	-43.4	-46.1	17.2	0.00e+00	0	40	0	1130364928	58	4918
2026-01-28 23:04:17.54	167.78	12.05	-43.7	-46.6	16.8	0.00e+00	0	40	0	1135607808	58	5183
2026-01-28 23:04:20.58	168.01	11.78	-43.9	-47.0	16.4	0.00e+00	0	40	0	1141899264	58	5416
2026-01-28 23:04:23.56	168.23	11.53	-44.2	-47.5	15.9	0.00e+00	0	40	0	1147142144	59	5418
2026-01-28 23:04:26.54	168.44	11.27	-44.3	-48.0	15.4	0.00e+00	0	40	0	1152385024	59	5738
2026-01-28 23:04:29.53	168.65	11.02	-44.3	-48.1	15.3	0.00e+00	0	40	0	1158676480	59	5824
2026-01-28 23:04:32.51	168.86	10.77	-43.9	-47.9	15.4	0.00e+00	0	40	0	1163919360	59	5681
2026-01-28 23:04:35.50	169.06	10.52	-43.8	-47.8	15.5	0.00e+00	0	40	0	1169162240	59	5612
2026-01-28 23:04:38.48	169.27	10.27	-43.5	-47.3	15.9	0.00e+00	0	40	0	1175453696	59	5337
2026-01-28 23:04:41.47	169.46	10.03	-43.5	-47.2	16.1	0.00e+00	0	40	0	1180696576	59	5271
2026-01-28 23:04:44.45	169.66	9.79	-43.4	-47.1	16.1	0.00e+00	0	40	0	1185939456	58	5520
2026-01-28 23:04:47.44	169.85	9.55	-43.2	-47.0	16.3	0.00e+00	0	40	0	1192230912	58	5415
2026-01-28 23:04:50.42	170.04	9.31	-43.2	-47.0	16.2	0.00e+00	0	40	0	1197473792	58	5450
2026-01-28 23:04:53.41	170.23	9.07	-43.3	-47.1	15.9	0.00e+00	0	40	0	1202716672	58	5481
2026-01-28 23:04:56.56	170.42	8.83	-49.0	-64.6	3.8	1.49e+00	0	40	104	1205862400	69	21832
2026-01-28 23:04:59.42	170.59	8.60	-49.8	-65.1	3.8	1.49e+00	0	40	104	1205862400	70	21790
2026-01-28 23:05:02.54	170.78	8.36	-49.9	-65.2	3.8	1.49e+00	0	40	104	1205862400	70	22034
2026-01-28 23:05:05.38	170.95	8.15	-50.1	-65.2	3.8	1.49e+00	0	40	104	1205862400	70	22190
2026-01-28 23:05:08.50	171.13	7.91	-50.1	-65.3	3.8	1.49e+00	0	40	104	1205862400	70	22441
2026-01-28 23:05:11.34	171.29	7.70	-50.1	-65.3	3.8	1.49e+00	0	40	104	1205862400	71	21025
2026-01-28 23:05:14.46	171.46	7.46	-50.2	-65.3	3.8	1.49e+00	0	40	104	1205862400	71	21150
2026-01-28 23:05:17.30	171.62	7.25	-49.9	-65.3	3.8	1.49e+00	0	40	104	1205862400	71	21065
2026-01-28 23:05:20.48	171.80	7.02	-49.8	-65.2	3.8	1.49e+00	0	40	104	1205862400	71	20938
2026-01-28 23:05:23.35	171.95	6.81	-49.6	-65.0	3.8	1.49e+00	0	40	104	1205862400	71	20404
2026-01-28 23:05:26.54	172.12	6.58	-49.3	-64.7	3.8	1.49e+00	0	40	104	1205862400	69	22083
2026-01-28 23:05:29.41	172.27	6.37	-49.5	-64.6	3.8	1.49e+00	0	40	104	1205862400	69	21976
2026-01-28 23:05:32.60	172.43	6.14	-49.3	-64.6	3.8	1.49e+00	0	40	104	1205862400	69	21821
2026-01-28 23:05:35.44	172.58	5.94	-49.2	-64.5	3.8	1.49e+00	0	40	104	1205862400	69	21692
2026-01-28 23:05:38.56	172.73	5.72	-49.2	-64.5	3.8	1.49e+00	0	40	104	1205862400	69	21636
2026-01-28 23:05:41.40	172.88	5.53	-49.2	-64.5	3.8	1.49e+00	0	40	104	1205862400	69	21634
2026-01-28 23:05:44.52	173.03	5.31	-49.2	-64.6	3.8	1.49e+00	0	40	104	1205862400	69	21793
2026-01-28 23:05:47.36	173.16	5.12	-49.2	-64.5	3.8	1.49e+00	0	40	104	1205862400	69	21629

#Closed at: 2026-01-28 23:05:50
#Recorded file [1205 MB]: D:/Data/31040_260129_015318.dat