passes_logs/2026/01/28/T1/T1__20260128_045130_FENGYUN_3E_rec.log

#Pass ID: 20260128_045130_FENGYUN 3E
#Satellite: FENGYUN 3E
#Configuration: FENGYUN 3E
#almurnet v.1.7.20251203
#Start time: 2026-01-28 04:51:31

#Version: 2.0.20230620
#Station: T1
#Location: 37.570604 lon 55.790049 lat
#TLE: 1 49008U 21062A   26027.61944472  .00000309  00000+0  16619-3 0  9993
#TLE: 2 49008  98.7500  32.6009 0002501 114.4803 245.6635 14.19888604236631

#Time	Az	El	Level	Level2	SNR	BER	BlckErr	Temp	State	Recorded	gain1	gain2
2026-01-28 04:51:31.05	10.87	5.05	-50.6	-61.5	3.8	8.45e-01	0	41	0	0	70	13425
2026-01-28 04:51:34.04	10.74	5.26	-50.7	-61.4	3.8	8.47e-01	0	42	104	0	71	12632
2026-01-28 04:51:37.03	10.61	5.46	-50.7	-61.5	3.8	8.47e-01	0	41	104	0	71	12684
2026-01-28 04:51:40.02	10.47	5.67	-50.5	-61.3	3.8	8.47e-01	0	42	104	0	71	12480
2026-01-28 04:51:43.01	10.34	5.88	-50.2	-61.2	3.8	8.46e-01	0	42	104	0	71	12368
2026-01-28 04:51:46.01	10.20	6.09	-49.7	-61.2	3.8	8.47e-01	0	42	104	0	70	13065
2026-01-28 04:51:49.01	10.06	6.31	-49.7	-61.1	3.8	8.48e-01	0	42	104	0	69	13631
2026-01-28 04:51:52.00	9.92	6.52	-48.9	-60.9	3.8	8.46e-01	0	42	104	0	68	14189
2026-01-28 04:51:55.00	9.78	6.74	-47.7	-59.6	3.8	8.45e-01	0	42	104	0	65	14404
2026-01-28 04:51:57.99	9.63	6.95	-47.6	-57.9	3.9	8.45e-01	0	42	104	0	65	11941
2026-01-28 04:52:00.98	9.48	7.17	-47.4	-56.9	4.3	8.35e-01	0	42	0	0	65	10650
2026-01-28 04:52:03.97	9.33	7.39	-47.4	-56.7	4.3	8.34e-01	0	43	0	0	65	10399
2026-01-28 04:52:06.96	9.18	7.62	-47.5	-56.9	4.3	8.34e-01	0	43	0	0	65	10577
2026-01-28 04:52:09.95	9.02	7.84	-47.3	-56.1	4.6	8.20e-01	0	43	0	0	65	9620
2026-01-28 04:52:12.94	8.86	8.07	-46.5	-52.2	7.3	1.48e-01	0	43	0	9437184	63	6902
2026-01-28 04:52:15.93	8.70	8.30	-44.7	-48.1	11.5	8.58e-04	0	43	0	30408704	60	5109
2026-01-28 04:52:18.92	8.54	8.53	-43.2	-45.5	14.1	4.50e-06	0	43	0	52428800	57	4494
2026-01-28 04:52:21.91	8.37	8.76	-43.1	-45.3	14.3	1.10e-06	0	43	0	74448896	56	4671
2026-01-28 04:52:24.90	8.20	8.99	-44.4	-47.3	12.3	1.69e-04	0	43	0	95420416	58	5235
2026-01-28 04:52:27.90	8.03	9.23	-42.2	-44.0	15.4	0.00e+00	0	43	0	117440512	55	4257
2026-01-28 04:52:30.89	7.85	9.46	-39.9	-41.1	18.4	0.00e+00	0	43	0	138412032	50	4065
2026-01-28 04:52:33.88	7.67	9.70	-39.3	-40.5	19.0	0.00e+00	0	43	0	159383552	49	4019
2026-01-28 04:52:36.88	7.49	9.95	-39.4	-40.6	18.9	0.00e+00	0	43	0	181403648	49	4071
2026-01-28 04:52:39.87	7.31	10.19	-39.1	-40.3	19.3	0.00e+00	0	43	0	203423744	49	3919
2026-01-28 04:52:42.86	7.12	10.44	-39.1	-40.3	19.2	0.00e+00	0	43	0	224395264	48	4157
2026-01-28 04:52:45.85	6.92	10.68	-39.0	-40.1	19.4	0.00e+00	0	43	0	246415360	48	4079
2026-01-28 04:52:48.85	6.73	10.94	-38.9	-40.0	19.5	0.00e+00	0	43	0	267386880	48	4013
2026-01-28 04:52:51.85	6.53	11.19	-38.8	-39.9	19.6	0.00e+00	0	43	0	289406976	48	4003
2026-01-28 04:52:54.84	6.33	11.44	-39.0	-40.1	19.4	0.00e+00	0	43	0	311427072	48	4071
2026-01-28 04:52:57.84	6.12	11.70	-38.8	-39.9	19.6	0.00e+00	0	43	0	332398592	48	3985
2026-01-28 04:53:00.84	5.91	11.96	-38.6	-39.7	19.7	0.00e+00	0	43	0	354418688	48	3910
2026-01-28 04:53:03.83	5.69	12.22	-38.5	-39.6	19.6	0.00e+00	0	43	0	376438784	47	4094
2026-01-28 04:53:06.83	5.47	12.49	-38.5	-39.7	19.6	0.00e+00	0	43	0	397410304	47	4110
2026-01-28 04:53:09.82	5.25	12.75	-38.5	-39.6	19.7	0.00e+00	0	43	0	419430400	47	4065
2026-01-28 04:53:12.81	5.02	13.02	-38.3	-39.4	19.8	0.00e+00	0	44	0	441450496	47	4001
2026-01-28 04:53:15.81	4.79	13.30	-38.4	-39.5	19.8	0.00e+00	0	44	0	462422016	46	4245
2026-01-28 04:53:18.80	4.56	13.57	-38.1	-39.1	20.1	0.00e+00	0	44	0	484442112	46	4083
2026-01-28 04:53:21.79	4.32	13.85	-38.0	-39.0	20.3	0.00e+00	0	43	0	505413632	46	4038
2026-01-28 04:53:24.78	4.07	14.13	-37.8	-38.8	20.5	0.00e+00	0	44	0	527433728	46	3953
2026-01-28 04:53:27.76	3.82	14.41	-37.8	-38.8	20.5	0.00e+00	0	44	0	549453824	46	3936
2026-01-28 04:53:30.76	3.57	14.69	-37.8	-38.8	20.5	0.00e+00	0	44	0	570425344	46	3946
2026-01-28 04:53:33.74	3.31	14.98	-37.8	-38.8	20.5	0.00e+00	0	44	0	592445440	46	3922
2026-01-28 04:53:36.74	3.04	15.27	-37.8	-38.7	20.5	0.00e+00	0	44	0	613416960	46	3913
2026-01-28 04:53:39.72	2.77	15.57	-37.9	-38.9	20.5	0.00e+00	0	44	0	635437056	46	3968
2026-01-28 04:53:42.71	2.49	15.86	-37.8	-38.8	20.6	0.00e+00	0	43	0	656408576	46	3918
2026-01-28 04:53:45.71	2.21	16.16	-37.6	-38.6	20.7	0.00e+00	0	44	0	678428672	45	4077
2026-01-28 04:53:48.70	1.92	16.46	-37.6	-38.6	20.7	0.00e+00	0	44	0	699400192	45	4064
2026-01-28 04:53:51.69	1.63	16.77	-37.2	-38.2	21.1	0.00e+00	0	44	0	721420288	45	3902
2026-01-28 04:53:54.69	1.32	17.08	-37.1	-38.0	21.3	0.00e+00	0	44	0	743440384	44	4046
2026-01-28 04:53:57.68	1.02	17.39	-37.0	-38.0	21.3	0.00e+00	0	44	0	764411904	44	4029
2026-01-28 04:54:00.67	0.70	17.70	-36.8	-37.8	21.5	0.00e+00	0	44	0	786432000	44	3934
2026-01-28 04:54:03.66	0.38	18.02	-36.9	-37.9	21.4	0.00e+00	0	44	0	808452096	44	3977
2026-01-28 04:54:06.65	0.05	18.34	-36.9	-37.9	21.5	0.00e+00	0	44	0	829423616	44	3961
2026-01-28 04:54:09.65	359.72	18.67	-36.9	-37.8	21.5	0.00e+00	0	44	0	851443712	44	3933
2026-01-28 04:54:12.65	359.37	19.00	-36.8	-37.7	21.6	0.00e+00	0	44	0	872415232	44	3901
2026-01-28 04:54:15.64	359.02	19.33	-36.2	-37.1	22.0	0.00e+00	0	44	0	894435328	43	3855
2026-01-28 04:54:18.63	358.66	19.66	-36.1	-37.0	22.1	0.00e+00	0	44	0	916455424	42	4015
2026-01-28 04:54:21.63	358.29	20.00	-35.9	-36.8	22.3	0.00e+00	0	44	0	937426944	42	3938
2026-01-28 04:54:24.62	357.92	20.34	-36.1	-37.0	22.1	0.00e+00	0	44	0	959447040	42	4042
2026-01-28 04:54:27.61	357.54	20.68	-36.3	-37.2	22.0	0.00e+00	0	44	0	981467136	42	4115
2026-01-28 04:54:30.61	357.14	21.03	-36.3	-37.2	21.9	0.00e+00	0	44	0	1002438656	42	4144
2026-01-28 04:54:33.61	356.74	21.38	-36.3	-37.2	22.0	0.00e+00	0	44	0	1024458752	42	4104
2026-01-28 04:54:36.60	356.33	21.74	-36.2	-37.1	22.1	0.00e+00	0	44	0	1045430272	42	4073
2026-01-28 04:54:39.59	355.90	22.09	-35.9	-36.8	22.4	0.00e+00	0	44	0	1067450368	41	4158
2026-01-28 04:54:42.59	355.47	22.46	-35.7	-36.6	22.5	0.00e+00	0	44	0	1089470464	41	4085
2026-01-28 04:54:45.58	355.03	22.82	-35.9	-36.8	22.3	0.00e+00	0	44	0	1110441984	41	4164
2026-01-28 04:54:48.58	354.57	23.19	-36.1	-37.0	22.2	0.00e+00	0	44	0	1132462080	42	4009
2026-01-28 04:54:51.56	354.11	23.56	-36.2	-37.1	22.1	0.00e+00	0	44	0	1153433600	42	4090
2026-01-28 04:54:54.56	353.64	23.93	-36.2	-37.1	22.1	0.00e+00	0	44	0	1175453696	42	4098
2026-01-28 04:54:57.55	353.15	24.31	-36.1	-37.0	22.2	0.00e+00	0	44	0	1196425216	42	4038
2026-01-28 04:55:00.54	352.65	24.69	-36.0	-36.9	22.2	0.00e+00	0	44	0	1218445312	41	4238
2026-01-28 04:55:03.54	352.14	25.08	-35.9	-36.8	22.3	0.00e+00	0	44	0	1240465408	41	4187
2026-01-28 04:55:06.53	351.61	25.46	-35.8	-36.7	22.5	0.00e+00	0	44	0	1261436928	41	4120
2026-01-28 04:55:09.52	351.07	25.85	-35.9	-36.8	22.4	0.00e+00	0	44	0	1283457024	41	4160
2026-01-28 04:55:12.52	350.52	26.25	-35.8	-36.7	22.4	0.00e+00	0	44	0	1305477120	41	4135
2026-01-28 04:55:15.52	349.95	26.64	-36.1	-36.9	22.3	0.00e+00	0	44	0	1326448640	42	4001
2026-01-28 04:55:18.51	349.37	27.04	-36.0	-36.9	22.3	0.00e+00	0	44	0	1348468736	42	3971
2026-01-28 04:55:21.49	348.78	27.44	-36.1	-36.9	22.3	0.00e+00	0	44	0	1369440256	42	3998
2026-01-28 04:55:24.49	348.17	27.84	-35.6	-36.4	22.7	0.00e+00	0	44	0	1391460352	41	3996
2026-01-28 04:55:27.48	347.54	28.25	-35.6	-36.5	22.7	0.00e+00	0	44	0	1413480448	41	4018
2026-01-28 04:55:30.47	346.90	28.65	-35.4	-36.2	22.9	0.00e+00	0	44	0	1434451968	41	3911
2026-01-28 04:55:33.47	346.23	29.06	-35.3	-36.1	23.0	0.00e+00	0	44	0	1456472064	41	3862
2026-01-28 04:55:36.47	345.55	29.48	-35.1	-36.0	23.1	0.00e+00	0	44	0	1478492160	40	4006
2026-01-28 04:55:39.46	344.86	29.89	-35.1	-35.9	23.2	0.00e+00	0	44	0	1499463680	40	3993
2026-01-28 04:55:42.46	344.14	30.30	-35.2	-36.0	23.1	0.00e+00	0	44	0	1521483776	40	4032
2026-01-28 04:55:45.46	343.41	30.72	-35.1	-35.9	23.2	0.00e+00	0	44	0	1543503872	40	3990
2026-01-28 04:55:48.44	342.66	31.13	-35.3	-36.1	23.0	0.00e+00	0	44	0	1564475392	40	4086
2026-01-28 04:55:51.44	341.89	31.54	-35.4	-36.3	22.9	0.00e+00	0	44	0	1585446912	40	4147
2026-01-28 04:55:54.44	341.09	31.96	-35.5	-36.4	22.7	0.00e+00	0	44	0	1607467008	40	4219
2026-01-28 04:55:57.43	340.28	32.37	-35.7	-36.6	22.5	0.00e+00	0	44	0	1629487104	40	4315
2026-01-28 04:56:00.42	339.45	32.79	-35.8	-36.7	22.5	0.00e+00	0	44	0	1650458624	41	4105
2026-01-28 04:56:03.41	338.59	33.20	-35.6	-36.5	22.7	0.00e+00	0	44	0	1672478720	41	4015
2026-01-28 04:56:06.40	337.72	33.61	-35.4	-36.3	22.9	0.00e+00	0	44	0	1693450240	41	3926
2026-01-28 04:56:09.40	336.81	34.01	-35.3	-36.1	23.0	0.00e+00	0	44	0	1715470336	41	3857
2026-01-28 04:56:12.39	335.89	34.42	-34.6	-35.5	23.5	0.00e+00	0	44	0	1737490432	40	3784
2026-01-28 04:56:15.38	334.94	34.82	-34.8	-35.6	23.5	0.00e+00	0	44	0	1758461952	39	4071
2026-01-28 04:56:18.37	333.97	35.21	-35.1	-35.9	23.3	0.00e+00	0	44	0	1780482048	39	4211
2026-01-28 04:56:21.36	332.98	35.60	-35.3	-36.1	23.0	0.00e+00	0	44	0	1802502144	40	4071
2026-01-28 04:56:24.36	331.96	35.99	-35.2	-36.1	23.0	0.00e+00	0	44	0	1823473664	40	4068
2026-01-28 04:56:27.35	330.92	36.37	-35.6	-36.4	22.7	0.00e+00	0	44	0	1845493760	40	4242
2026-01-28 04:56:30.34	329.85	36.75	-35.9	-36.8	22.4	0.00e+00	0	44	0	1866465280	41	4161
2026-01-28 04:56:33.34	328.76	37.11	-35.8	-36.7	22.6	0.00e+00	0	44	0	1888485376	41	4106
2026-01-28 04:56:36.33	327.64	37.47	-35.5	-36.4	22.8	0.00e+00	0	44	0	1910505472	41	3984
2026-01-28 04:56:39.32	326.50	37.82	-35.6	-36.5	22.7	0.00e+00	0	44	0	1931476992	41	4019
2026-01-28 04:56:42.31	325.33	38.16	-35.3	-36.2	22.9	0.00e+00	0	44	0	1953497088	41	3883
2026-01-28 04:56:45.30	324.14	38.49	-35.5	-36.4	22.8	0.00e+00	0	44	0	1974468608	41	3970
2026-01-28 04:56:48.29	322.93	38.81	-35.7	-36.6	22.6	0.00e+00	0	44	0	1996488704	41	4071
2026-01-28 04:56:51.28	321.69	39.11	-35.5	-36.4	22.8	0.00e+00	0	44	0	2018508800	41	3969
2026-01-28 04:56:54.28	320.42	39.41	-35.4	-36.3	22.8	0.00e+00	0	44	0	2039480320	41	3921
2026-01-28 04:56:57.27	319.14	39.69	-35.5	-36.4	22.8	0.00e+00	0	44	0	2061500416	41	3975
2026-01-28 04:57:00.26	317.83	39.95	-35.5	-36.4	22.7	0.00e+00	0	44	0	2082471936	41	3983
2026-01-28 04:57:03.26	316.50	40.20	-35.8	-36.7	22.5	0.00e+00	0	44	0	2104492032	41	4126
2026-01-28 04:57:06.25	315.16	40.43	-35.6	-36.5	22.7	0.00e+00	0	44	0	2125463552	41	4027
2026-01-28 04:57:09.25	313.79	40.65	-35.2	-36.0	23.1	0.00e+00	0	44	0	2147483648	41	3819
2026-01-28 04:57:12.25	312.40	40.85	-35.3	-36.2	22.9	0.00e+00	0	44	0	2169503744	41	3879
2026-01-28 04:57:15.24	311.00	41.03	-35.5	-36.4	22.8	0.00e+00	0	44	0	2190475264	41	3968
2026-01-28 04:57:18.22	309.59	41.19	-35.6	-36.5	22.6	0.00e+00	0	44	0	2212495360	41	4027
2026-01-28 04:57:21.22	308.15	41.33	-35.5	-36.3	22.8	0.00e+00	0	44	0	2234515456	41	3944
2026-01-28 04:57:24.21	306.71	41.46	-35.6	-36.5	22.7	0.00e+00	0	44	0	2255486976	41	4014
2026-01-28 04:57:27.19	305.26	41.56	-35.3	-36.2	23.0	0.00e+00	0	44	0	2277507072	41	3874
2026-01-28 04:57:30.19	303.80	41.64	-35.2	-36.0	23.1	0.00e+00	0	44	0	2298478592	41	3802
2026-01-28 04:57:33.19	302.33	41.70	-35.2	-36.0	23.0	0.00e+00	0	44	0	2320498688	40	4026
2026-01-28 04:57:36.18	300.86	41.74	-35.3	-36.1	23.0	0.00e+00	0	44	0	2342518784	40	4088
2026-01-28 04:57:39.17	299.38	41.76	-35.5	-36.4	22.8	0.00e+00	0	44	0	2363490304	40	4202
2026-01-28 04:57:42.17	297.90	41.75	-35.1	-35.9	23.2	0.00e+00	0	44	0	2385510400	40	3982
2026-01-28 04:57:45.17	296.43	41.73	-35.2	-36.1	23.0	0.00e+00	0	44	0	2407530496	40	4058
2026-01-28 04:57:48.17	294.95	41.68	-35.4	-36.2	22.9	0.00e+00	0	44	0	2428502016	40	4126
2026-01-28 04:57:51.16	293.49	41.62	-35.3	-36.1	23.0	0.00e+00	0	44	0	2450522112	40	4078
2026-01-28 04:57:54.17	292.02	41.53	-35.3	-36.2	22.9	0.00e+00	0	44	0	2472542208	40	4108
2026-01-28 04:57:57.16	290.57	41.42	-35.4	-36.2	22.9	0.00e+00	0	44	0	2493513728	40	4125
2026-01-28 04:58:00.16	289.12	41.29	-35.2	-36.0	23.1	0.00e+00	0	44	0	2515533824	40	4024
2026-01-28 04:58:03.15	287.70	41.14	-35.5	-36.3	22.8	0.00e+00	0	44	0	2536505344	40	4183
2026-01-28 04:58:06.15	286.28	40.97	-35.2	-36.0	23.1	0.00e+00	0	44	0	2558525440	40	4020
2026-01-28 04:58:09.14	284.88	40.78	-35.2	-36.0	23.0	0.00e+00	0	44	0	2579496960	40	4048
2026-01-28 04:58:12.13	283.50	40.58	-35.0	-35.9	23.2	0.00e+00	0	44	0	2601517056	40	3966
2026-01-28 04:58:15.13	282.14	40.35	-35.2	-36.0	23.1	0.00e+00	0	44	0	2623537152	40	4029
2026-01-28 04:58:18.12	280.79	40.12	-35.2	-36.0	23.1	0.00e+00	0	44	0	2644508672	40	4044
2026-01-28 04:58:21.12	279.47	39.86	-35.4	-36.3	22.8	0.00e+00	0	44	0	2666528768	40	4158
2026-01-28 04:58:24.12	278.16	39.59	-35.2	-36.1	23.1	0.00e+00	0	44	0	2688548864	40	4054
2026-01-28 04:58:27.11	276.88	39.30	-35.4	-36.3	22.8	0.00e+00	0	44	0	2709520384	40	4150
2026-01-28 04:58:30.10	275.63	39.01	-35.3	-36.2	23.0	0.00e+00	0	44	0	2731540480	40	4105
2026-01-28 04:58:33.09	274.39	38.70	-35.3	-36.2	22.9	0.00e+00	0	44	0	2752512000	40	4105
2026-01-28 04:58:36.09	273.18	38.37	-35.3	-36.1	22.9	0.00e+00	0	44	0	2774532096	40	4088
2026-01-28 04:58:39.08	271.99	38.04	-35.1	-35.9	23.2	0.00e+00	0	44	0	2796552192	40	3983
2026-01-28 04:58:42.07	270.83	37.69	-35.0	-35.9	23.2	0.00e+00	0	44	0	2817523712	40	3972
2026-01-28 04:58:45.07	269.69	37.34	-35.1	-36.0	23.1	0.00e+00	0	44	0	2839543808	40	4015
2026-01-28 04:58:48.06	268.58	36.98	-35.3	-36.2	22.9	0.00e+00	0	44	0	2861563904	40	4105
2026-01-28 04:58:51.06	267.49	36.61	-35.1	-35.9	23.1	0.00e+00	0	44	0	2882535424	40	3990
2026-01-28 04:58:54.06	266.43	36.23	-35.1	-36.0	23.1	0.00e+00	0	44	0	2904555520	40	4009
2026-01-28 04:58:57.05	265.39	35.84	-35.2	-36.0	23.1	0.00e+00	0	44	0	2925527040	40	4026
2026-01-28 04:59:00.05	264.37	35.45	-35.1	-35.9	23.1	0.00e+00	0	44	0	2947547136	40	3998
2026-01-28 04:59:03.05	263.38	35.06	-35.0	-35.8	23.2	0.00e+00	0	44	0	2969567232	40	3948
2026-01-28 04:59:06.04	262.42	34.66	-35.0	-35.8	23.3	0.00e+00	0	44	0	2990538752	40	3931
2026-01-28 04:59:09.03	261.48	34.25	-35.2	-36.1	23.0	0.00e+00	0	44	0	3012558848	40	4058
2026-01-28 04:59:12.02	260.56	33.85	-34.9	-35.7	23.3	0.00e+00	0	44	0	3033530368	40	3902
2026-01-28 04:59:15.02	259.66	33.44	-34.8	-35.6	23.4	0.00e+00	0	44	0	3055550464	40	3840
2026-01-28 04:59:18.02	258.78	33.02	-34.8	-35.7	23.4	0.00e+00	0	44	0	3077570560	40	3881
2026-01-28 04:59:21.02	257.93	32.61	-34.9	-35.8	23.3	0.00e+00	0	44	0	3098542080	40	3927
2026-01-28 04:59:24.01	257.10	32.19	-35.1	-35.9	23.1	0.00e+00	0	44	0	3120562176	40	3982
2026-01-28 04:59:27.00	256.29	31.78	-35.4	-36.2	22.8	0.00e+00	0	44	0	3142582272	40	4143
2026-01-28 04:59:29.99	255.51	31.36	-35.1	-36.0	23.1	0.00e+00	0	44	0	3163553792	40	4005
2026-01-28 04:59:32.99	254.74	30.95	-35.2	-36.0	23.1	0.00e+00	0	44	0	3185573888	40	4021
2026-01-28 04:59:35.99	253.99	30.53	-35.3	-36.2	22.9	0.00e+00	0	44	0	3206545408	40	4104
2026-01-28 04:59:38.98	253.26	30.11	-35.5	-36.4	22.7	0.00e+00	0	44	0	3228565504	40	4212
2026-01-28 04:59:41.98	252.55	29.70	-35.4	-36.3	22.8	0.00e+00	0	44	0	3250585600	40	4157
2026-01-28 04:59:44.97	251.86	29.29	-35.2	-36.0	23.1	0.00e+00	0	44	0	3271557120	40	4039
2026-01-28 04:59:47.96	251.18	28.87	-35.5	-36.3	22.8	0.00e+00	0	44	0	3293577216	40	4182
2026-01-28 04:59:50.96	250.52	28.46	-35.4	-36.3	22.8	0.00e+00	0	44	0	3315597312	40	4165
2026-01-28 04:59:53.95	249.88	28.05	-35.3	-36.1	22.9	0.00e+00	0	44	0	3336568832	40	4091
2026-01-28 04:59:56.95	249.26	27.65	-35.6	-36.5	22.7	0.00e+00	0	44	0	3358588928	40	4244
2026-01-28 04:59:59.94	248.65	27.24	-35.7	-36.6	22.4	0.00e+00	0	44	0	3379560448	41	4082
2026-01-28 05:00:02.94	248.05	26.84	-35.6	-36.5	22.6	0.00e+00	0	44	0	3401580544	41	4018
2026-01-28 05:00:05.93	247.48	26.44	-35.4	-36.2	22.8	0.00e+00	0	44	0	3423600640	41	3897
2026-01-28 05:00:08.93	246.91	26.05	-35.5	-36.3	22.7	0.00e+00	0	44	0	3444572160	41	3956
2026-01-28 05:00:11.92	246.36	25.65	-35.6	-36.5	22.6	0.00e+00	0	44	0	3466592256	41	4031
2026-01-28 05:00:14.91	245.82	25.26	-35.2	-36.0	23.0	0.00e+00	0	44	0	3487563776	41	3800
2026-01-28 05:00:17.90	245.30	24.87	-35.3	-36.1	22.9	0.00e+00	0	44	0	3509583872	41	3847
2026-01-28 05:00:20.90	244.79	24.49	-35.6	-36.5	22.5	0.00e+00	0	44	0	3530555392	41	4017
2026-01-28 05:00:23.89	244.29	24.11	-35.8	-36.7	22.3	0.00e+00	0	44	0	3552575488	41	4126
2026-01-28 05:00:26.89	243.80	23.73	-35.6	-36.5	22.6	0.00e+00	0	44	0	3574595584	41	4019
2026-01-28 05:00:29.88	243.33	23.36	-35.4	-36.2	22.8	0.00e+00	0	44	0	3595567104	41	3912
2026-01-28 05:00:32.88	242.87	22.98	-35.3	-36.2	22.8	0.00e+00	0	44	0	3617587200	41	3881
2026-01-28 05:00:35.86	242.42	22.62	-35.5	-36.4	22.6	0.00e+00	0	44	0	3639607296	41	3971
2026-01-28 05:00:38.85	241.98	22.25	-35.7	-36.6	22.5	0.00e+00	0	44	0	3660578816	41	4052
2026-01-28 05:00:41.85	241.54	21.89	-35.7	-36.5	22.3	0.00e+00	0	44	0	3682598912	41	4047
2026-01-28 05:00:44.85	241.12	21.53	-35.6	-36.4	22.6	0.00e+00	0	44	0	3703570432	41	4004
2026-01-28 05:00:47.85	240.71	21.18	-35.4	-36.2	22.7	0.00e+00	0	44	0	3725590528	41	3904
2026-01-28 05:00:50.83	240.31	20.83	-35.9	-36.7	22.3	0.00e+00	0	44	0	3747610624	41	4142
2026-01-28 05:00:53.83	239.92	20.48	-36.4	-37.3	21.8	0.00e+00	0	44	0	3768582144	42	4162
2026-01-28 05:00:56.83	239.53	20.13	-36.7	-37.6	21.5	0.00e+00	0	44	0	3790602240	42	4312
2026-01-28 05:00:59.82	239.16	19.79	-36.6	-37.5	21.6	0.00e+00	0	44	0	3812622336	42	4277
2026-01-28 05:01:02.81	238.79	19.45	-36.7	-37.6	21.3	0.00e+00	0	44	0	3833593856	42	4330
2026-01-28 05:01:05.80	238.43	19.12	-37.0	-37.9	21.2	0.00e+00	0	44	0	3855613952	43	4238
2026-01-28 05:01:08.79	238.08	18.79	-37.0	-37.9	21.1	0.00e+00	0	44	0	3876585472	43	4240
2026-01-28 05:01:11.79	237.74	18.46	-36.9	-37.8	21.3	0.00e+00	0	44	0	3898605568	43	4157
2026-01-28 05:01:14.78	237.40	18.14	-36.7	-37.5	21.6	0.00e+00	0	44	0	3919577088	43	4047
2026-01-28 05:01:17.78	237.07	17.81	-36.7	-37.6	21.5	0.00e+00	0	44	0	3941597184	43	4079
2026-01-28 05:01:20.77	236.75	17.50	-36.8	-37.8	21.3	0.00e+00	0	44	0	3963617280	43	4154
2026-01-28 05:01:23.77	236.43	17.18	-37.0	-38.0	21.0	0.00e+00	0	44	0	3984588800	43	4261
2026-01-28 05:01:26.75	236.13	16.87	-37.0	-38.0	21.1	0.00e+00	0	44	0	4006608896	43	4249
2026-01-28 05:01:29.74	235.83	16.56	-37.2	-38.1	21.0	0.00e+00	0	44	0	4027580416	43	4309
2026-01-28 05:01:32.74	235.53	16.26	-37.5	-38.4	20.9	0.00e+00	0	44	0	4049600512	44	4219
2026-01-28 05:01:35.73	235.24	15.95	-37.7	-38.7	20.6	0.00e+00	0	44	0	4071620608	44	4367
2026-01-28 05:01:38.72	234.96	15.65	-37.7	-38.7	20.6	0.00e+00	0	44	0	4092592128	44	4361
2026-01-28 05:01:41.71	234.68	15.36	-37.7	-38.7	20.6	0.00e+00	0	44	0	4114612224	45	4115
2026-01-28 05:01:44.71	234.41	15.06	-37.8	-38.8	20.5	0.00e+00	0	44	0	4136632320	45	4147
2026-01-28 05:01:47.71	234.14	14.77	-37.9	-38.9	20.3	0.00e+00	0	44	0	4157603840	45	4216
2026-01-28 05:01:50.70	233.88	14.48	-37.9	-38.9	20.3	0.00e+00	0	44	0	4179623936	45	4214
2026-01-28 05:01:53.69	233.62	14.20	-38.1	-39.1	20.1	0.00e+00	0	44	0	4200595456	45	4319
2026-01-28 05:01:56.68	233.37	13.92	-38.4	-39.5	19.8	0.00e+00	0	44	0	4222615552	46	4260
2026-01-28 05:01:59.67	233.13	13.64	-38.7	-39.8	19.5	0.00e+00	0	44	0	4244635648	46	4401
2026-01-28 05:02:02.66	232.88	13.36	-38.7	-39.7	19.6	0.00e+00	0	44	0	4265607168	47	4131
2026-01-28 05:02:05.65	232.65	13.09	-38.5	-39.5	19.7	0.00e+00	0	44	0	4287627264	47	4024
2026-01-28 05:02:08.65	232.41	12.81	-38.4	-39.4	19.8	0.00e+00	0	44	0	4308598784	47	4002
2026-01-28 05:02:11.64	232.19	12.54	-38.3	-39.3	19.9	0.00e+00	0	44	0	4330618880	47	3928
2026-01-28 05:02:14.64	231.96	12.28	-38.2	-39.2	20.0	0.00e+00	0	44	0	4352638976	47	3876
2026-01-28 05:02:17.64	231.74	12.01	-38.2	-39.2	20.0	0.00e+00	0	44	0	4373610496	47	3872
2026-01-28 05:02:20.63	231.52	11.75	-38.3	-39.2	19.9	0.00e+00	0	44	0	4395630592	47	3912
2026-01-28 05:02:23.62	231.31	11.49	-38.5	-39.5	19.7	0.00e+00	0	44	0	4416602112	46	4252
2026-01-28 05:02:26.61	231.10	11.23	-38.5	-39.6	19.6	0.00e+00	0	44	0	4438622208	46	4322
2026-01-28 05:02:29.61	230.90	10.98	-38.7	-39.8	19.4	0.00e+00	0	44	0	4460642304	46	4393
2026-01-28 05:02:32.61	230.70	10.72	-38.8	-39.8	19.4	0.00e+00	0	44	0	4481613824	47	4174
2026-01-28 05:02:35.60	230.50	10.47	-38.9	-40.0	19.2	0.00e+00	0	44	0	4503633920	47	4250
2026-01-28 05:02:38.60	230.31	10.23	-39.0	-40.1	19.0	0.00e+00	0	44	0	4524605440	47	4339
2026-01-28 05:02:41.59	230.12	9.98	-39.0	-40.2	19.0	0.00e+00	0	44	0	4546625536	47	4351
2026-01-28 05:02:44.59	229.93	9.74	-39.4	-40.5	18.9	0.00e+00	0	44	0	4568645632	48	4282
2026-01-28 05:02:47.58	229.75	9.49	-39.5	-40.6	18.8	0.00e+00	0	44	0	4589617152	48	4312
2026-01-28 05:02:50.57	229.56	9.25	-39.5	-40.6	18.8	0.00e+00	0	44	0	4611637248	48	4306
2026-01-28 05:02:53.57	229.39	9.02	-40.6	-41.8	17.7	0.00e+00	0	44	0	4633657344	50	4397
2026-01-28 05:02:56.56	229.21	8.78	-49.9	-60.7	3.8	8.48e-01	0	44	104	4635754496	69	13073
2026-01-28 05:02:59.55	229.04	8.55	-47.3	-60.8	3.8	8.47e-01	0	44	104	4635754496	69	13238
2026-01-28 05:03:02.55	228.87	8.31	-49.2	-60.8	3.8	8.47e-01	0	44	104	4635754496	69	13118
2026-01-28 05:03:05.54	228.70	8.08	-49.4	-60.8	3.8	8.47e-01	0	44	104	4635754496	69	13212
2026-01-28 05:03:08.54	228.54	7.86	-48.8	-60.7	3.8	8.48e-01	0	44	104	4635754496	67	14566
2026-01-28 05:03:11.53	228.38	7.63	-49.9	-60.7	3.8	8.47e-01	0	44	104	4635754496	69	13107
2026-01-28 05:03:14.53	228.22	7.40	-49.8	-60.7	3.8	8.47e-01	0	44	104	4635754496	68	13750
2026-01-28 05:03:17.52	228.07	7.18	-49.7	-60.6	3.8	8.45e-01	0	44	104	4635754496	68	13698
2026-01-28 05:03:20.51	227.91	6.96	-49.7	-60.6	3.8	8.47e-01	0	44	104	4635754496	68	13693
2026-01-28 05:03:23.51	227.76	6.74	-48.4	-60.7	3.9	8.47e-01	0	44	104	4635754496	68	13727
2026-01-28 05:03:26.49	227.61	6.52	-49.5	-60.6	3.8	8.47e-01	0	44	104	4635754496	68	13721
2026-01-28 05:03:29.49	227.47	6.31	-49.7	-60.6	3.8	8.46e-01	0	44	104	4635754496	68	13648
2026-01-28 05:03:32.48	227.32	6.09	-49.5	-60.6	3.8	8.47e-01	0	44	104	4635754496	68	13723
2026-01-28 05:03:35.47	227.18	5.88	-42.9	-60.5	3.8	8.46e-01	0	44	104	4635754496	61	20265
2026-01-28 05:03:38.47	227.04	5.67	-42.8	-60.5	3.7	8.46e-01	0	44	104	4635754496	65	16098
2026-01-28 05:03:41.46	226.90	5.46	-43.9	-60.4	3.7	8.46e-01	0	44	104	4635754496	66	14918
2026-01-28 05:03:44.45	226.77	5.25	-49.5	-60.6	3.8	8.46e-01	0	44	104	4635754496	68	13650
2026-01-28 05:03:47.44	226.63	5.05	-49.6	-60.6	3.8	8.47e-01	0	44	104	4635754496	68	13678

#Closed at: 2026-01-28 05:03:49
#Recorded file [4635 MB]: D:/Data/31040_260128_075131.dat