passes_logs/2026/01/28/T1/T1__20260128_021249_SUOMI_NPP_rec.log

#Pass ID: 20260128_021249_SUOMI NPP
#Satellite: SUOMI NPP
#Configuration: NPP
#almurnet v.1.7.20251203
#Start time: 2026-01-28 02:12:51

#Version: 2.0.20230620
#Station: T1
#Location: 37.570604 lon 55.790049 lat
#TLE: 1 37849U 11061A   26027.50945616  .00000185  00000+0  10897-3 0  9994
#TLE: 2 37849  98.7823 329.4511 0002105  42.1421 317.9917 14.19530771738482

#Time	Az	El	Level	Level2	SNR	BER	BlckErr	Temp	State	Recorded	gain1	gain2
2026-01-28 02:12:51.67	1.85	5.11	-50.1	-65.5	3.8	1.49e+00	0	37	0	0	71	21644
2026-01-28 02:12:54.64	1.52	5.25	-50.1	-65.4	3.8	1.49e+00	0	38	104	0	72	20297
2026-01-28 02:12:57.62	1.18	5.40	-49.9	-65.5	3.8	1.49e+00	0	38	104	0	71	21577
2026-01-28 02:13:00.60	0.84	5.54	-49.9	-65.5	3.8	1.49e+00	0	38	104	0	71	21597
2026-01-28 02:13:03.58	0.49	5.68	-50.0	-65.4	3.8	1.49e+00	0	38	104	0	70	22764
2026-01-28 02:13:06.56	0.15	5.83	-49.6	-65.4	3.8	1.49e+00	0	38	104	0	69	23956
2026-01-28 02:13:09.54	359.79	5.97	-49.5	-65.3	3.8	1.49e+00	0	38	104	0	70	22498
2026-01-28 02:13:12.52	359.44	6.11	-48.5	-65.2	3.8	1.49e+00	0	39	104	0	69	23450
2026-01-28 02:13:15.50	359.08	6.25	-47.0	-64.8	3.8	1.49e+00	0	38	104	0	65	28129
2026-01-28 02:13:18.47	358.72	6.40	-47.0	-64.8	3.8	1.49e+00	0	39	104	0	65	28139
2026-01-28 02:13:21.45	358.35	6.54	-46.9	-64.8	3.8	1.49e+00	0	39	104	0	65	28107
2026-01-28 02:13:24.43	357.98	6.68	-46.9	-64.7	3.8	1.49e+00	0	39	104	0	65	28004
2026-01-28 02:13:27.41	357.61	6.82	-47.0	-64.7	3.8	1.49e+00	0	39	104	0	65	27964
2026-01-28 02:13:30.39	357.23	6.96	-47.0	-64.7	3.8	1.49e+00	0	39	104	0	65	28026
2026-01-28 02:13:33.37	356.85	7.10	-46.9	-64.7	3.8	1.49e+00	0	39	104	0	65	27811
2026-01-28 02:13:36.35	356.47	7.24	-47.0	-64.7	3.8	1.49e+00	0	39	104	0	65	27908
2026-01-28 02:13:39.33	356.08	7.38	-47.0	-64.7	3.8	1.49e+00	0	39	104	0	65	28024
2026-01-28 02:13:42.31	355.69	7.52	-46.9	-64.7	3.8	1.49e+00	0	39	104	0	65	27994
2026-01-28 02:13:45.28	355.29	7.66	-46.9	-64.7	3.8	1.49e+00	0	39	104	0	65	27890
2026-01-28 02:13:48.26	354.89	7.79	-46.9	-64.5	3.8	1.49e+00	0	39	104	0	65	27349
2026-01-28 02:13:51.24	354.49	7.93	-47.0	-64.5	3.8	1.49e+00	0	39	104	0	65	27230
2026-01-28 02:13:54.22	354.08	8.07	-46.9	-64.6	3.8	1.49e+00	0	39	104	0	65	27675
2026-01-28 02:13:57.20	353.67	8.20	-46.9	-64.7	3.8	1.49e+00	0	39	104	0	65	27836
2026-01-28 02:14:00.18	353.26	8.34	-46.9	-64.0	3.8	1.49e+00	0	40	104	0	65	25644
2026-01-28 02:14:03.16	352.84	8.47	-46.8	-62.9	3.8	1.49e+00	0	39	104	0	65	22523
2026-01-28 02:14:06.14	352.41	8.61	-46.8	-62.4	3.8	1.48e+00	0	40	104	0	65	21504
2026-01-28 02:14:09.12	351.99	8.74	-46.7	-60.2	4.5	1.30e+00	0	40	0	0	65	16649
2026-01-28 02:14:12.10	351.55	8.87	-46.2	-55.3	7.9	9.71e-02	0	40	0	5242880	64	10026
2026-01-28 02:14:15.07	351.12	9.00	-45.1	-51.2	12.3	6.64e-04	0	40	0	11534336	62	6979
2026-01-28 02:14:18.05	350.68	9.13	-44.7	-49.8	13.6	9.12e-04	0	40	0	16777216	61	6313
2026-01-28 02:14:21.03	350.24	9.26	-42.9	-46.6	16.8	0.00e+00	0	40	0	22020096	57	5515
2026-01-28 02:14:24.01	349.79	9.39	-43.3	-46.8	16.6	0.00e+00	0	40	0	28311552	57	5650
2026-01-28 02:14:26.99	349.34	9.52	-43.8	-47.6	15.9	0.00e+00	0	40	0	33554432	58	5791
2026-01-28 02:14:29.97	348.88	9.64	-43.6	-47.8	15.7	0.00e+00	0	40	0	38797312	58	5943
2026-01-28 02:14:32.95	348.42	9.77	-43.3	-47.5	16.0	0.00e+00	0	40	0	45088768	58	5728
2026-01-28 02:14:35.93	347.96	9.89	-43.4	-47.7	15.8	0.00e+00	0	40	0	50331648	58	5859
2026-01-28 02:14:38.90	347.49	10.02	-43.0	-47.0	16.4	0.00e+00	0	40	0	55574528	58	5447
2026-01-28 02:14:41.88	347.02	10.14	-42.4	-46.2	17.2	0.00e+00	0	40	0	61865984	56	5562
2026-01-28 02:14:44.86	346.55	10.26	-41.8	-45.5	17.6	0.00e+00	0	40	0	67108864	55	5460
2026-01-28 02:14:47.84	346.07	10.38	-42.3	-46.3	16.9	0.00e+00	0	40	0	72351744	55	5972
2026-01-28 02:14:50.82	345.58	10.49	-42.0	-46.0	17.2	0.00e+00	0	40	0	78643200	55	5788
2026-01-28 02:14:53.80	345.10	10.61	-41.7	-45.9	17.3	0.00e+00	0	40	0	83886080	55	5697
2026-01-28 02:14:56.78	344.60	10.72	-42.1	-45.9	17.3	0.00e+00	0	40	0	89128960	55	5672
2026-01-28 02:14:59.75	344.11	10.84	-42.5	-45.7	17.5	0.00e+00	0	40	0	95420416	55	5570
2026-01-28 02:15:02.73	343.61	10.95	-43.0	-46.3	17.1	0.00e+00	0	40	0	100663296	56	5633
2026-01-28 02:15:05.71	343.11	11.06	-43.5	-47.0	16.4	0.00e+00	0	40	0	105906176	57	5781
2026-01-28 02:15:08.69	342.60	11.17	-43.5	-47.0	16.5	0.00e+00	0	40	0	112197632	57	5776
2026-01-28 02:15:11.67	342.09	11.27	-43.2	-46.4	17.1	0.00e+00	0	40	0	117440512	57	5356
2026-01-28 02:15:14.65	341.58	11.38	-43.2	-46.4	17.1	0.00e+00	0	40	0	122683392	57	5366
2026-01-28 02:15:17.62	341.06	11.48	-43.4	-46.7	16.7	0.00e+00	0	40	0	128974848	57	5579
2026-01-28 02:15:20.60	340.54	11.58	-43.4	-46.6	16.9	0.00e+00	0	40	0	134217728	57	5485
2026-01-28 02:15:23.58	340.01	11.68	-43.1	-46.7	16.7	0.00e+00	0	40	0	139460608	57	5551
2026-01-28 02:15:26.56	339.48	11.78	-43.0	-46.4	17.1	0.00e+00	0	40	0	145752064	57	5356
2026-01-28 02:15:29.54	338.95	11.87	-43.1	-45.9	17.5	0.00e+00	0	40	0	150994944	57	5087
2026-01-28 02:15:32.52	338.42	11.96	-43.4	-46.5	17.0	0.00e+00	0	40	0	156237824	57	5450
2026-01-28 02:15:35.50	337.88	12.05	-43.4	-46.9	16.6	0.00e+00	0	40	0	162529280	57	5710
2026-01-28 02:15:38.47	337.34	12.14	-43.0	-46.1	17.3	0.00e+00	0	40	0	167772160	57	5216
2026-01-28 02:15:41.45	336.79	12.23	-43.0	-46.1	17.3	0.00e+00	0	40	0	173015040	57	5176
2026-01-28 02:15:44.43	336.24	12.31	-43.8	-47.3	16.3	0.00e+00	0	40	0	179306496	58	5615
2026-01-28 02:15:47.41	335.69	12.39	-44.2	-47.7	15.9	0.00e+00	0	40	0	184549376	59	5546
2026-01-28 02:15:50.39	335.13	12.47	-43.4	-46.3	17.2	0.00e+00	0	40	0	189792256	58	5005
2026-01-28 02:15:53.37	334.57	12.55	-43.0	-45.8	17.7	0.00e+00	0	40	0	195035136	57	4985
2026-01-28 02:15:56.35	334.01	12.63	-42.8	-45.5	17.9	0.00e+00	0	40	0	201326592	57	4840
2026-01-28 02:15:59.32	333.45	12.70	-42.8	-45.5	18.0	0.00e+00	0	40	0	206569472	57	4835
2026-01-28 02:16:02.30	332.88	12.77	-42.8	-45.5	18.0	0.00e+00	0	40	0	211812352	57	4860
2026-01-28 02:16:05.28	332.31	12.83	-42.8	-45.4	18.1	0.00e+00	0	40	0	218103808	57	4778
2026-01-28 02:16:08.26	331.74	12.90	-43.1	-45.8	17.7	0.00e+00	0	40	0	223346688	57	4996
2026-01-28 02:16:11.24	331.16	12.96	-43.4	-46.2	17.4	0.00e+00	0	40	0	228589568	57	5269
2026-01-28 02:16:14.22	330.59	13.02	-43.7	-46.8	16.7	0.00e+00	0	40	0	234881024	58	5340
2026-01-28 02:16:17.20	330.01	13.08	-44.1	-47.2	16.3	0.00e+00	0	40	0	240123904	58	5583
2026-01-28 02:16:20.18	329.42	13.13	-43.9	-47.0	16.6	0.00e+00	0	40	0	245366784	59	5128
2026-01-28 02:16:23.15	328.84	13.18	-43.8	-47.0	16.4	0.00e+00	0	40	0	251658240	59	5154
2026-01-28 02:16:26.13	328.26	13.23	-43.9	-47.0	16.5	0.00e+00	0	40	0	256901120	59	5139
2026-01-28 02:16:29.11	327.67	13.27	-44.1	-47.2	16.3	0.00e+00	0	40	0	262144000	59	5259
2026-01-28 02:16:32.09	327.08	13.31	-43.2	-46.1	17.5	0.00e+00	0	40	0	268435456	58	4877
2026-01-28 02:16:35.07	326.49	13.35	-42.8	-45.7	17.8	0.00e+00	0	40	0	273678336	57	4929
2026-01-28 02:16:38.05	325.89	13.39	-43.1	-46.3	17.2	0.00e+00	0	40	0	278921216	57	5303
2026-01-28 02:16:41.02	325.30	13.42	-43.4	-46.8	16.8	0.00e+00	0	40	0	285212672	57	5616
2026-01-28 02:16:44.00	324.71	13.45	-43.1	-46.4	17.1	0.00e+00	0	40	0	290455552	57	5362
2026-01-28 02:16:46.98	324.11	13.48	-42.6	-45.6	17.8	0.00e+00	0	40	0	295698432	57	4905
2026-01-28 02:16:49.96	323.51	13.50	-43.2	-46.1	17.4	0.00e+00	0	40	0	301989888	57	5165
2026-01-28 02:16:52.94	322.91	13.52	-43.6	-46.5	17.1	0.00e+00	0	40	0	307232768	58	5105
2026-01-28 02:16:55.91	322.32	13.54	-43.8	-46.8	16.7	0.00e+00	0	40	0	312475648	58	5324
2026-01-28 02:16:58.89	321.71	13.56	-43.4	-46.4	17.2	0.00e+00	0	40	0	318767104	58	5045
2026-01-28 02:17:01.87	321.11	13.57	-43.3	-46.3	17.3	0.00e+00	0	40	0	324009984	58	4994
2026-01-28 02:17:04.85	320.51	13.58	-43.4	-46.3	17.2	0.00e+00	0	40	0	329252864	58	5032
2026-01-28 02:17:07.83	319.91	13.58	-43.1	-46.0	17.4	0.00e+00	0	40	0	335544320	58	4861
2026-01-28 02:17:10.81	319.31	13.59	-43.0	-45.9	17.6	0.00e+00	0	40	0	340787200	57	5049
2026-01-28 02:17:13.79	318.71	13.59	-43.1	-46.0	17.5	0.00e+00	0	40	0	346030080	57	5103
2026-01-28 02:17:16.76	318.11	13.58	-43.4	-46.3	17.2	0.00e+00	0	40	0	352321536	57	5290
2026-01-28 02:17:19.74	317.51	13.57	-43.3	-46.0	17.4	0.00e+00	0	40	0	357564416	57	5138
2026-01-28 02:17:22.72	316.90	13.56	-43.1	-45.9	17.6	0.00e+00	0	40	0	362807296	57	5055
2026-01-28 02:17:25.70	316.30	13.55	-43.1	-46.1	17.4	0.00e+00	0	40	0	369098752	57	5164
2026-01-28 02:17:28.68	315.70	13.53	-43.3	-46.2	17.3	0.00e+00	0	40	0	374341632	57	5252
2026-01-28 02:17:31.66	315.10	13.52	-43.5	-46.4	17.0	0.00e+00	0	40	0	379584512	57	5378
2026-01-28 02:17:34.63	314.51	13.49	-43.8	-46.9	16.6	0.00e+00	0	40	0	385875968	58	5349
2026-01-28 02:17:37.61	313.91	13.47	-44.3	-47.5	16.0	0.00e+00	0	40	0	391118848	59	5450
2026-01-28 02:17:40.59	313.31	13.44	-44.0	-47.2	16.3	0.00e+00	0	40	0	396361728	59	5232
2026-01-28 02:17:43.57	312.72	13.41	-43.5	-46.4	17.2	0.00e+00	0	40	0	402653184	58	5061
2026-01-28 02:17:46.55	312.12	13.37	-43.2	-46.0	17.5	0.00e+00	0	40	0	407896064	58	4834
2026-01-28 02:17:49.53	311.53	13.33	-43.4	-46.3	17.2	0.00e+00	0	40	0	413138944	58	5007
2026-01-28 02:17:52.51	310.94	13.29	-43.7	-46.6	16.9	0.00e+00	0	40	0	419430400	58	5188
2026-01-28 02:17:55.48	310.35	13.25	-43.8	-46.8	16.8	0.00e+00	0	40	0	424673280	58	5285
2026-01-28 02:17:58.46	309.76	13.20	-43.7	-46.6	16.9	0.00e+00	0	40	0	429916160	58	5198
2026-01-28 02:18:01.44	309.18	13.16	-43.9	-46.9	16.7	0.00e+00	0	41	0	436207616	58	5350
2026-01-28 02:18:04.42	308.59	13.10	-44.0	-47.1	16.5	0.00e+00	0	40	0	441450496	58	5491
2026-01-28 02:18:07.40	308.01	13.05	-43.9	-46.8	16.7	0.00e+00	0	40	0	446693376	58	5308
2026-01-28 02:18:10.38	307.43	12.99	-44.0	-47.0	16.6	0.00e+00	0	40	0	452984832	58	5404
2026-01-28 02:18:13.36	306.85	12.93	-44.1	-47.0	16.6	0.00e+00	0	40	0	458227712	59	5117
2026-01-28 02:18:16.33	306.28	12.87	-44.2	-47.0	16.5	0.00e+00	0	40	0	463470592	59	5143
2026-01-28 02:18:19.31	305.71	12.80	-44.2	-47.1	16.5	0.00e+00	0	40	0	468713472	59	5172
2026-01-28 02:18:22.29	305.14	12.73	-43.7	-46.4	17.1	0.00e+00	0	40	0	475004928	59	4801
2026-01-28 02:18:25.27	304.57	12.66	-43.7	-46.4	17.1	0.00e+00	0	40	0	480247808	59	4811
2026-01-28 02:18:28.26	304.01	12.59	-44.1	-46.9	16.6	0.00e+00	0	40	0	485490688	59	5096
2026-01-28 02:18:31.23	303.45	12.51	-43.7	-46.5	17.0	0.00e+00	0	40	0	491782144	59	4824
2026-01-28 02:18:34.21	302.89	12.44	-43.9	-46.6	16.8	0.00e+00	0	40	0	497025024	59	4923
2026-01-28 02:18:37.19	302.33	12.35	-44.3	-47.2	16.3	0.00e+00	0	40	0	502267904	59	5232
2026-01-28 02:18:40.17	301.78	12.27	-44.4	-47.3	16.1	0.00e+00	0	40	0	508559360	59	5326
2026-01-28 02:18:43.15	301.23	12.19	-44.3	-47.3	16.2	0.00e+00	0	40	0	513802240	59	5306
2026-01-28 02:18:46.13	300.69	12.10	-44.3	-47.2	16.2	0.00e+00	0	40	0	519045120	59	5277
2026-01-28 02:18:49.11	300.14	12.01	-44.3	-47.2	16.2	0.00e+00	0	40	0	525336576	59	5279
2026-01-28 02:18:52.08	299.61	11.92	-44.2	-47.1	16.3	0.00e+00	0	40	0	530579456	59	5192
2026-01-28 02:18:55.06	299.07	11.82	-43.8	-46.5	16.9	0.00e+00	0	40	0	535822336	59	4865
2026-01-28 02:18:58.04	298.54	11.73	-43.9	-46.6	16.8	0.00e+00	0	40	0	542113792	59	4922
2026-01-28 02:19:01.02	298.01	11.63	-43.9	-46.6	16.8	0.00e+00	0	40	0	547356672	59	4916
2026-01-28 02:19:04.00	297.48	11.53	-44.1	-46.9	16.5	0.00e+00	0	40	0	552599552	59	5090
2026-01-28 02:19:06.98	296.96	11.43	-44.0	-46.8	16.7	0.00e+00	0	40	0	558891008	59	5010
2026-01-28 02:19:09.96	296.44	11.32	-43.8	-46.5	16.9	0.00e+00	0	40	0	564133888	59	4834
2026-01-28 02:19:12.94	295.93	11.22	-44.0	-46.8	16.5	0.00e+00	0	40	0	569376768	59	5039
2026-01-28 02:19:15.92	295.42	11.11	-44.1	-47.0	16.4	0.00e+00	0	40	0	575668224	59	5126
2026-01-28 02:19:18.90	294.91	11.00	-44.4	-47.4	16.0	0.00e+00	0	40	0	580911104	59	5400
2026-01-28 02:19:21.87	294.41	10.89	-44.5	-47.5	15.9	0.00e+00	0	40	0	586153984	59	5448
2026-01-28 02:19:24.85	293.91	10.78	-44.4	-47.4	16.0	0.00e+00	0	40	0	592445440	59	5392
2026-01-28 02:19:27.83	293.42	10.67	-44.6	-47.7	15.8	0.00e+00	0	40	0	597688320	59	5536
2026-01-28 02:19:30.81	292.93	10.55	-44.5	-47.5	15.9	0.00e+00	0	40	0	602931200	59	5433
2026-01-28 02:19:33.79	292.44	10.43	-44.6	-47.7	15.7	0.00e+00	0	40	0	609222656	59	5551
2026-01-28 02:19:36.76	291.96	10.31	-44.6	-47.6	15.8	0.00e+00	0	40	0	614465536	60	5207
2026-01-28 02:19:39.74	291.48	10.20	-44.5	-47.5	15.9	0.00e+00	0	40	0	619708416	60	5129
2026-01-28 02:19:42.72	291.00	10.07	-44.9	-48.2	15.2	0.00e+00	0	40	0	625999872	60	5534
2026-01-28 02:19:45.70	290.53	9.95	-45.1	-48.5	14.9	0.00e+00	0	40	0	631242752	61	5453
2026-01-28 02:19:48.68	290.06	9.83	-44.9	-48.1	15.2	0.00e+00	0	40	0	636485632	61	5213
2026-01-28 02:19:51.66	289.60	9.70	-44.8	-47.9	15.5	0.00e+00	0	40	0	642777088	61	5075
2026-01-28 02:19:54.64	289.14	9.58	-45.1	-48.4	15.0	0.00e+00	0	40	0	648019968	61	5363
2026-01-28 02:19:57.62	288.68	9.45	-45.5	-49.2	14.2	1.50e-06	0	40	0	653262848	61	5892
2026-01-28 02:20:00.60	288.23	9.32	-46.0	-50.2	13.2	1.44e-05	0	40	0	659554304	62	6260
2026-01-28 02:20:03.57	287.79	9.19	-45.9	-49.9	13.5	5.30e-06	0	40	0	664797184	62	6061
2026-01-28 02:20:06.55	287.34	9.06	-45.3	-48.8	14.7	0.00e+00	0	40	0	670040064	62	5298
2026-01-28 02:20:09.53	286.90	8.93	-49.3	-63.1	3.8	1.02e+00	0	40	104	675282944	69	18373
2026-01-28 02:20:12.51	286.47	8.80	-49.3	-64.6	3.8	1.49e+00	0	40	104	675282944	69	21982
2026-01-28 02:20:15.49	286.04	8.67	-49.3	-64.6	3.8	1.49e+00	0	40	104	675282944	69	21870
2026-01-28 02:20:18.47	285.61	8.54	-49.3	-64.6	3.8	1.49e+00	0	40	104	675282944	69	21870
2026-01-28 02:20:21.45	285.18	8.40	-49.3	-64.5	3.8	1.49e+00	0	40	104	675282944	69	21723
2026-01-28 02:20:24.43	284.76	8.27	-49.3	-64.6	3.8	1.49e+00	0	40	104	675282944	69	21977
2026-01-28 02:20:27.40	284.35	8.13	-49.3	-64.6	3.8	1.49e+00	0	40	104	675282944	69	21897
2026-01-28 02:20:30.38	283.94	8.00	-49.3	-64.6	3.8	1.49e+00	0	40	104	675282944	69	21867
2026-01-28 02:20:33.36	283.53	7.86	-49.3	-64.7	3.8	1.49e+00	0	40	104	675282944	69	22043
2026-01-28 02:20:36.34	283.13	7.72	-49.3	-64.6	3.8	1.49e+00	0	40	104	675282944	69	21926
2026-01-28 02:20:39.32	282.73	7.58	-49.3	-64.7	3.8	1.49e+00	0	40	104	675282944	69	22046
2026-01-28 02:20:42.30	282.33	7.44	-49.3	-64.6	3.8	1.49e+00	0	40	104	675282944	69	21945
2026-01-28 02:20:45.28	281.94	7.30	-49.3	-64.7	3.8	1.49e+00	0	40	104	675282944	69	22060
2026-01-28 02:20:48.26	281.55	7.16	-49.3	-64.6	3.8	1.49e+00	0	40	104	675282944	69	21983
2026-01-28 02:20:51.24	281.16	7.02	-49.3	-64.7	3.8	1.49e+00	0	40	104	675282944	69	22085
2026-01-28 02:20:54.22	280.78	6.88	-49.3	-64.7	3.8	1.49e+00	0	40	104	675282944	69	22040
2026-01-28 02:20:57.19	280.41	6.74	-49.3	-64.7	3.8	1.49e+00	0	40	104	675282944	69	22061
2026-01-28 02:21:00.17	280.03	6.60	-49.3	-64.6	3.8	1.49e+00	0	40	104	675282944	69	21992
2026-01-28 02:21:03.15	279.66	6.46	-49.3	-64.6	3.8	1.49e+00	0	40	104	675282944	69	21990
2026-01-28 02:21:06.13	279.30	6.32	-49.3	-64.7	3.8	1.49e+00	0	40	104	675282944	69	22051
2026-01-28 02:21:09.11	278.93	6.18	-49.3	-64.7	3.8	1.49e+00	0	40	104	675282944	69	22036
2026-01-28 02:21:12.09	278.57	6.03	-49.3	-64.6	3.8	1.49e+00	0	40	104	675282944	69	21988
2026-01-28 02:21:15.07	278.22	5.89	-49.3	-64.7	3.8	1.49e+00	0	40	104	675282944	69	22069
2026-01-28 02:21:18.05	277.87	5.75	-49.3	-64.7	3.8	1.49e+00	0	40	104	675282944	69	22067
2026-01-28 02:21:21.03	277.52	5.60	-49.3	-64.7	3.8	1.49e+00	0	40	104	675282944	69	22036
2026-01-28 02:21:24.01	277.17	5.46	-49.3	-64.7	3.8	1.49e+00	0	40	104	675282944	69	22025
2026-01-28 02:21:26.99	276.83	5.32	-49.1	-64.5	3.9	1.49e+00	0	40	104	675282944	69	21644
2026-01-28 02:21:29.97	276.49	5.17	-49.1	-64.6	3.8	1.49e+00	0	40	104	675282944	69	21855
2026-01-28 02:21:32.94	276.16	5.03	-49.1	-64.5	3.8	1.49e+00	0	40	104	675282944	69	21625

#Closed at: 2026-01-28 02:21:34
#Recorded file [675 MB]: D:/Data/31040_260128_051251.dat