passes_logs/2026/01/28/T1/T1__20260128_125956_FENGYUN_3D_rec.log

#Pass ID: 20260128_125956_FENGYUN 3D
#Satellite: FENGYUN 3D
#Configuration: FENGYUN 3D
#almurnet v.1.7.20251203
#Start time: 2026-01-28 12:59:58

#Version: 2.0.20230620
#Station: T1
#Location: 37.570604 lon 55.790049 lat
#TLE: 1 43010U 17072A   26027.90082829  .00000305  00000+0  16579-3 0  9998
#TLE: 2 43010  98.9960 359.9183 0002511  88.1058 272.0405 14.19701796425082

#Time	Az	El	Level	Level2	SNR	BER	BlckErr	Temp	State	Recorded	gain1	gain2
2026-01-28 12:59:58.33	192.27	5.17	-49.9	-62.3	3.8	8.47e-01	0	40	0	0	70	15820
2026-01-28 13:00:01.31	192.44	5.37	-50.2	-62.3	3.8	8.47e-01	0	40	104	0	71	15010
2026-01-28 13:00:04.29	192.62	5.57	-50.1	-62.3	3.8	8.46e-01	0	40	104	0	70	15799
2026-01-28 13:00:07.26	192.80	5.77	-50.0	-62.2	3.8	8.47e-01	0	40	104	0	70	15634
2026-01-28 13:00:10.24	192.98	5.97	-49.6	-62.0	3.8	8.46e-01	0	40	104	0	70	15365
2026-01-28 13:00:13.22	193.16	6.18	-49.6	-61.9	3.8	8.47e-01	0	41	104	0	70	15067
2026-01-28 13:00:16.20	193.35	6.39	-47.2	-61.4	3.8	8.47e-01	0	41	104	0	68	15960
2026-01-28 13:00:19.18	193.54	6.60	-48.7	-61.5	3.8	8.47e-01	0	41	104	0	68	16243
2026-01-28 13:00:22.16	193.73	6.80	-48.7	-61.6	3.8	8.46e-01	0	41	104	0	68	16324
2026-01-28 13:00:25.14	193.92	7.02	-48.4	-59.8	3.7	8.46e-01	0	41	104	0	67	14105
2026-01-28 13:00:28.12	194.12	7.23	-48.0	-56.9	4.5	8.27e-01	0	41	0	0	66	10700
2026-01-28 13:00:31.10	194.32	7.44	-48.1	-57.3	4.3	8.27e-01	0	41	0	0	66	11286
2026-01-28 13:00:34.08	194.52	7.66	-47.2	-53.7	6.5	6.28e-01	0	41	0	1048576	65	7834
2026-01-28 13:00:37.06	194.72	7.88	-43.4	-46.3	13.9	1.94e-05	0	41	0	18874368	58	5034
2026-01-28 13:00:40.04	194.93	8.10	-40.0	-42.1	17.8	0.00e+00	0	41	0	35651584	52	4373
2026-01-28 13:00:43.02	195.14	8.32	-39.2	-41.3	18.7	0.00e+00	0	41	0	51380224	50	4463
2026-01-28 13:00:45.99	195.35	8.54	-40.3	-42.5	17.6	0.00e+00	0	41	0	69206016	51	4847
2026-01-28 13:00:48.97	195.57	8.76	-42.9	-45.7	14.6	0.00e+00	0	41	0	84934656	56	5238
2026-01-28 13:00:51.95	195.79	8.99	-45.7	-50.0	10.2	4.80e-03	0	41	0	101711872	62	6088
2026-01-28 13:00:54.93	196.02	9.21	-42.9	-45.5	14.8	3.31e-04	0	42	0	118489088	57	4851
2026-01-28 13:00:57.91	196.24	9.44	-43.7	-46.6	13.8	1.14e-05	0	42	0	134217728	57	5470
2026-01-28 13:01:00.89	196.47	9.67	-41.5	-43.8	16.3	0.00e+00	0	42	0	150994944	55	4484
2026-01-28 13:01:03.87	196.71	9.91	-40.2	-42.4	17.7	0.00e+00	0	42	0	167772160	52	4504
2026-01-28 13:01:06.85	196.94	10.14	-39.7	-41.7	18.3	0.00e+00	0	42	0	184549376	51	4431
2026-01-28 13:01:09.82	197.18	10.38	-39.3	-41.3	18.8	0.00e+00	0	42	0	201326592	49	4731
2026-01-28 13:01:12.80	197.43	10.62	-39.1	-41.2	18.9	0.00e+00	0	42	0	218103808	49	4659
2026-01-28 13:01:15.78	197.68	10.85	-38.9	-40.9	19.1	0.00e+00	0	42	0	234881024	49	4525
2026-01-28 13:01:18.76	197.93	11.10	-38.8	-40.7	19.3	0.00e+00	0	42	0	251658240	49	4427
2026-01-28 13:01:21.74	198.19	11.34	-38.6	-40.6	19.5	0.00e+00	0	42	0	268435456	48	4599
2026-01-28 13:01:24.72	198.45	11.59	-38.6	-40.6	19.5	0.00e+00	0	42	0	285212672	48	4609
2026-01-28 13:01:27.70	198.71	11.83	-38.3	-40.3	19.8	0.00e+00	0	42	0	301989888	48	4442
2026-01-28 13:01:30.68	198.98	12.08	-38.1	-40.1	19.7	0.00e+00	0	42	0	318767104	47	4631
2026-01-28 13:01:33.66	199.26	12.33	-38.1	-40.0	19.8	0.00e+00	0	42	0	335544320	47	4569
2026-01-28 13:01:36.63	199.53	12.59	-38.1	-40.0	19.8	0.00e+00	0	42	0	352321536	47	4577
2026-01-28 13:01:39.61	199.82	12.84	-38.1	-40.0	19.8	0.00e+00	0	42	0	369098752	47	4588
2026-01-28 13:01:42.59	200.10	13.10	-38.0	-39.9	19.9	0.00e+00	0	42	0	385875968	47	4527
2026-01-28 13:01:45.57	200.40	13.36	-37.9	-39.8	20.0	0.00e+00	0	42	0	402653184	47	4467
2026-01-28 13:01:48.55	200.70	13.62	-37.9	-39.8	20.0	0.00e+00	0	42	0	419430400	47	4459
2026-01-28 13:01:51.53	201.00	13.89	-37.9	-39.8	20.0	0.00e+00	0	42	0	436207616	46	4740
2026-01-28 13:01:54.51	201.31	14.15	-37.9	-39.8	20.0	0.00e+00	0	42	0	452984832	46	4757
2026-01-28 13:01:57.49	201.62	14.42	-37.9	-39.8	20.0	0.00e+00	0	43	0	469762048	46	4729
2026-01-28 13:02:00.46	201.94	14.69	-37.7	-39.6	20.2	0.00e+00	0	42	0	486539264	46	4606
2026-01-28 13:02:03.44	202.26	14.96	-37.6	-39.5	20.3	0.00e+00	0	42	0	503316480	46	4552
2026-01-28 13:02:06.42	202.59	15.24	-37.5	-39.4	20.4	0.00e+00	0	42	0	519045120	45	4776
2026-01-28 13:02:09.40	202.93	15.52	-37.4	-39.3	20.4	0.00e+00	0	42	0	536870912	45	4733
2026-01-28 13:02:12.38	203.27	15.80	-37.5	-39.4	20.4	0.00e+00	0	43	0	552599552	45	4778
2026-01-28 13:02:15.36	203.62	16.08	-37.4	-39.2	20.6	0.00e+00	0	42	0	569376768	45	4676
2026-01-28 13:02:18.34	203.98	16.36	-37.0	-38.8	20.9	0.00e+00	0	43	0	587202560	45	4479
2026-01-28 13:02:21.32	204.34	16.65	-37.0	-38.9	20.9	0.00e+00	0	42	0	602931200	45	4504
2026-01-28 13:02:24.30	204.71	16.94	-37.4	-39.2	20.6	0.00e+00	0	43	0	619708416	45	4677
2026-01-28 13:02:27.27	205.08	17.23	-37.4	-39.2	20.6	0.00e+00	0	42	0	636485632	45	4701
2026-01-28 13:02:30.25	205.47	17.52	-37.1	-38.9	20.8	0.00e+00	0	42	0	653262848	45	4540
2026-01-28 13:02:33.23	205.86	17.82	-36.9	-38.8	21.0	0.00e+00	0	42	0	670040064	45	4450
2026-01-28 13:02:36.21	206.26	18.12	-36.8	-38.6	21.1	0.00e+00	0	43	0	686817280	45	4387
2026-01-28 13:02:39.19	206.66	18.42	-36.9	-38.8	21.0	0.00e+00	0	42	0	703594496	44	4709
2026-01-28 13:02:42.17	207.07	18.72	-36.8	-38.6	21.2	0.00e+00	0	43	0	720371712	44	4618
2026-01-28 13:02:45.15	207.50	19.02	-36.6	-38.4	21.3	0.00e+00	0	42	0	737148928	44	4529
2026-01-28 13:02:48.13	207.93	19.33	-36.6	-38.4	21.3	0.00e+00	0	43	0	753926144	44	4521
2026-01-28 13:02:51.11	208.36	19.64	-36.6	-38.3	21.4	0.00e+00	0	42	0	770703360	44	4486
2026-01-28 13:02:54.08	208.81	19.95	-36.3	-38.1	21.6	0.00e+00	0	43	0	787480576	44	4377
2026-01-28 13:02:57.06	209.26	20.27	-36.4	-38.2	21.6	0.00e+00	0	42	0	804257792	44	4392
2026-01-28 13:03:00.04	209.73	20.58	-36.3	-38.1	21.6	0.00e+00	0	42	0	821035008	44	4342
2026-01-28 13:03:03.02	210.20	20.90	-36.2	-37.9	21.7	0.00e+00	0	42	0	837812224	44	4291
2026-01-28 13:03:06.00	210.69	21.22	-36.2	-38.0	21.7	0.00e+00	0	42	0	854589440	44	4319
2026-01-28 13:03:08.98	211.18	21.54	-36.3	-38.1	21.6	0.00e+00	0	43	0	871366656	44	4373
2026-01-28 13:03:11.96	211.69	21.87	-36.2	-38.0	21.7	0.00e+00	0	43	0	888143872	44	4323
2026-01-28 13:03:14.94	212.20	22.19	-36.1	-37.9	21.8	0.00e+00	0	43	0	904921088	44	4258
2026-01-28 13:03:17.92	212.73	22.52	-35.7	-37.5	22.1	0.00e+00	0	43	0	921698304	43	4293
2026-01-28 13:03:20.89	213.26	22.85	-35.5	-37.2	22.2	0.00e+00	0	42	0	938475520	43	4181
2026-01-28 13:03:23.87	213.81	23.18	-35.3	-37.0	22.4	0.00e+00	0	43	0	955252736	42	4336
2026-01-28 13:03:26.85	214.37	23.52	-35.4	-37.1	22.3	0.00e+00	0	42	0	972029952	42	4382
2026-01-28 13:03:29.83	214.94	23.85	-35.6	-37.3	22.2	0.00e+00	0	43	0	988807168	42	4466
2026-01-28 13:03:32.81	215.52	24.19	-35.4	-37.2	22.3	0.00e+00	0	43	0	1005584384	42	4399
2026-01-28 13:03:35.79	216.12	24.52	-35.5	-37.2	22.2	0.00e+00	0	43	0	1022361600	42	4437
2026-01-28 13:03:38.77	216.72	24.86	-35.6	-37.3	22.2	0.00e+00	0	43	0	1039138816	42	4469
2026-01-28 13:03:41.75	217.34	25.20	-35.5	-37.2	22.2	0.00e+00	0	43	0	1055916032	42	4431
2026-01-28 13:03:44.73	217.98	25.54	-35.4	-37.2	22.3	0.00e+00	0	43	0	1072693248	42	4409
2026-01-28 13:03:47.71	218.63	25.88	-35.2	-37.0	22.4	0.00e+00	0	43	0	1089470464	42	4301
2026-01-28 13:03:50.68	219.28	26.22	-35.2	-36.9	22.5	0.00e+00	0	43	0	1106247680	42	4260
2026-01-28 13:03:53.66	219.96	26.56	-35.3	-37.0	22.4	0.00e+00	0	43	0	1123024896	42	4325
2026-01-28 13:03:56.64	220.65	26.90	-35.0	-36.7	22.7	0.00e+00	0	43	0	1139802112	42	4166
2026-01-28 13:03:59.62	221.35	27.25	-35.0	-36.7	22.6	0.00e+00	0	42	0	1156579328	41	4429
2026-01-28 13:04:02.60	222.07	27.59	-35.0	-36.7	22.6	0.00e+00	0	43	0	1173356544	41	4415
2026-01-28 13:04:05.58	222.81	27.93	-34.8	-36.5	22.8	0.00e+00	0	43	0	1190133760	41	4319
2026-01-28 13:04:08.55	223.55	28.27	-35.1	-36.8	22.5	0.00e+00	0	43	0	1206910976	41	4482
2026-01-28 13:04:11.53	224.32	28.60	-34.9	-36.6	22.8	0.00e+00	0	43	0	1223688192	41	4346
2026-01-28 13:04:14.51	225.10	28.94	-34.9	-36.6	22.7	0.00e+00	0	42	0	1240465408	41	4386
2026-01-28 13:04:17.49	225.90	29.28	-34.9	-36.6	22.8	0.00e+00	0	43	0	1257242624	41	4357
2026-01-28 13:04:20.47	226.71	29.61	-34.4	-36.1	23.2	0.00e+00	0	43	0	1274019840	40	4343
2026-01-28 13:04:23.45	227.54	29.94	-34.6	-36.3	23.0	0.00e+00	0	43	0	1290797056	40	4480
2026-01-28 13:04:26.43	228.39	30.27	-34.7	-36.4	23.0	0.00e+00	0	43	0	1306525696	40	4511
2026-01-28 13:04:29.41	229.25	30.59	-34.9	-36.6	22.8	0.00e+00	0	43	0	1324351488	40	4628
2026-01-28 13:04:32.39	230.13	30.91	-34.8	-36.5	22.8	0.00e+00	0	43	0	1341128704	40	4565
2026-01-28 13:04:35.36	231.03	31.23	-34.5	-36.2	23.1	0.00e+00	0	43	0	1356857344	40	4425
2026-01-28 13:04:38.34	231.94	31.54	-34.7	-36.4	22.8	0.00e+00	0	43	0	1374683136	40	4542
2026-01-28 13:04:41.32	232.87	31.85	-34.8	-36.5	22.8	0.00e+00	0	43	0	1390411776	40	4573
2026-01-28 13:04:44.30	233.83	32.15	-34.6	-36.3	23.0	0.00e+00	0	43	0	1408237568	40	4465
2026-01-28 13:04:47.28	234.79	32.45	-34.7	-36.4	22.9	0.00e+00	0	43	0	1423966208	40	4519
2026-01-28 13:04:50.26	235.78	32.74	-34.7	-36.4	22.9	0.00e+00	0	43	0	1440743424	40	4516
2026-01-28 13:04:53.24	236.78	33.02	-34.8	-36.5	22.8	0.00e+00	0	43	0	1458569216	40	4594
2026-01-28 13:04:56.21	237.80	33.30	-34.7	-36.4	23.0	0.00e+00	0	43	0	1474297856	40	4508
2026-01-28 13:04:59.19	238.83	33.57	-34.7	-36.5	22.8	0.00e+00	0	43	0	1491075072	40	4557
2026-01-28 13:05:02.17	239.89	33.83	-34.5	-36.2	23.0	0.00e+00	0	43	0	1507852288	40	4427
2026-01-28 13:05:05.15	240.95	34.08	-34.5	-36.2	23.0	0.00e+00	0	43	0	1524629504	40	4409
2026-01-28 13:05:08.13	242.04	34.33	-34.6	-36.3	22.9	0.00e+00	0	43	0	1541406720	40	4492
2026-01-28 13:05:11.11	243.14	34.56	-34.6	-36.3	23.0	0.00e+00	0	43	0	1558183936	40	4448
2026-01-28 13:05:14.08	244.25	34.79	-34.4	-36.1	23.2	0.00e+00	0	43	0	1574961152	40	4365
2026-01-28 13:05:17.06	245.39	35.00	-34.5	-36.2	23.0	0.00e+00	0	43	0	1591738368	40	4434
2026-01-28 13:05:20.04	246.53	35.20	-34.5	-36.2	23.1	0.00e+00	0	43	0	1608515584	40	4392
2026-01-28 13:05:23.02	247.69	35.39	-34.3	-36.0	23.3	0.00e+00	0	43	0	1625292800	40	4311
2026-01-28 13:05:26.00	248.86	35.57	-34.3	-35.9	23.3	0.00e+00	0	43	0	1642070016	40	4288
2026-01-28 13:05:28.98	250.05	35.74	-34.3	-36.0	23.2	0.00e+00	0	43	0	1658847232	40	4314
2026-01-28 13:05:31.96	251.24	35.89	-34.5	-36.2	23.1	0.00e+00	0	43	0	1675624448	40	4395
2026-01-28 13:05:34.94	252.45	36.03	-34.2	-35.9	23.3	0.00e+00	0	43	0	1692401664	40	4277
2026-01-28 13:05:37.92	253.67	36.16	-34.5	-36.2	23.0	0.00e+00	0	43	0	1709178880	40	4436
2026-01-28 13:05:40.89	254.89	36.27	-34.4	-36.1	23.2	0.00e+00	0	43	0	1725956096	40	4375
2026-01-28 13:05:43.87	256.12	36.37	-34.1	-35.8	23.4	0.00e+00	0	43	0	1742733312	40	4215
2026-01-28 13:05:46.85	257.36	36.46	-34.3	-36.0	23.2	0.00e+00	0	43	0	1759510528	40	4308
2026-01-28 13:05:49.83	258.61	36.52	-34.2	-35.9	23.3	0.00e+00	0	43	0	1776287744	40	4258
2026-01-28 13:05:52.81	259.86	36.58	-34.3	-36.0	23.2	0.00e+00	0	43	0	1793064960	40	4306
2026-01-28 13:05:55.79	261.11	36.62	-34.3	-35.9	23.9	0.00e+00	0	43	0	1809842176	40	4265
2026-01-28 13:05:58.77	262.37	36.65	-34.5	-36.1	23.8	0.00e+00	0	43	0	1826619392	40	4371
2026-01-28 13:06:01.74	263.62	36.65	-34.5	-36.1	23.7	0.00e+00	0	43	0	1843396608	40	4381
2026-01-28 13:06:04.72	264.88	36.65	-34.3	-35.9	23.9	0.00e+00	0	43	0	1860173824	40	4264
2026-01-28 13:06:07.70	266.13	36.63	-34.4	-36.0	23.8	0.00e+00	0	43	0	1876951040	40	4327
2026-01-28 13:06:10.68	267.39	36.59	-34.4	-36.0	23.8	0.00e+00	0	43	0	1893728256	40	4308
2026-01-28 13:06:13.66	268.64	36.54	-34.5	-36.1	23.7	0.00e+00	0	43	0	1910505472	40	4366
2026-01-28 13:06:16.64	269.88	36.48	-34.4	-36.0	23.8	0.00e+00	0	43	0	1927282688	40	4328
2026-01-28 13:06:19.61	271.12	36.40	-34.2	-35.8	24.0	0.00e+00	0	43	0	1944059904	40	4209
2026-01-28 13:06:22.59	272.35	36.30	-34.4	-36.0	23.8	0.00e+00	0	43	0	1960837120	40	4320
2026-01-28 13:06:25.57	273.58	36.19	-34.3	-35.9	23.9	0.00e+00	0	43	0	1977614336	40	4258
2026-01-28 13:06:28.55	274.80	36.07	-34.4	-36.0	23.8	0.00e+00	0	43	0	1994391552	40	4308
2026-01-28 13:06:31.53	276.00	35.93	-34.2	-35.8	24.0	0.00e+00	0	43	0	2011168768	40	4205
2026-01-28 13:06:34.51	277.20	35.79	-34.4	-36.0	23.9	0.00e+00	0	43	0	2027945984	40	4304
2026-01-28 13:06:37.49	278.39	35.62	-34.4	-36.0	23.8	0.00e+00	0	43	0	2044723200	40	4325
2026-01-28 13:06:40.47	279.56	35.45	-34.6	-36.2	23.6	0.00e+00	0	43	0	2061500416	40	4440
2026-01-28 13:06:43.45	280.72	35.26	-34.6	-36.2	23.6	0.00e+00	0	43	0	2078277632	40	4436
2026-01-28 13:06:46.43	281.87	35.06	-34.5	-36.2	23.7	0.00e+00	0	43	0	2094006272	40	4394
2026-01-28 13:06:49.40	283.00	34.85	-34.6	-36.2	23.6	0.00e+00	0	43	0	2111832064	40	4436
2026-01-28 13:06:52.38	284.12	34.63	-34.7	-36.3	23.6	0.00e+00	0	43	0	2127560704	40	4457
2026-01-28 13:06:55.36	285.22	34.40	-34.5	-36.1	23.7	0.00e+00	0	43	0	2145386496	40	4383
2026-01-28 13:06:58.34	286.31	34.16	-34.6	-36.2	23.6	0.00e+00	0	43	0	2162163712	40	4432
2026-01-28 13:07:01.32	287.38	33.92	-34.8	-36.4	23.5	0.00e+00	0	43	0	2177892352	40	4543
2026-01-28 13:07:04.30	288.43	33.66	-34.8	-36.4	23.5	0.00e+00	0	43	0	2195718144	40	4532
2026-01-28 13:07:07.28	289.47	33.39	-34.9	-36.5	23.4	0.00e+00	0	43	0	2211446784	40	4586
2026-01-28 13:07:10.25	290.49	33.12	-35.1	-36.7	23.2	0.00e+00	0	43	0	2228224000	40	4676
2026-01-28 13:07:13.23	291.49	32.84	-35.1	-36.8	23.2	0.00e+00	0	43	0	2245001216	40	4713
2026-01-28 13:07:16.21	292.48	32.55	-34.9	-36.6	23.3	0.00e+00	0	43	0	2261778432	40	4606
2026-01-28 13:07:19.19	293.45	32.26	-35.0	-36.6	23.3	0.00e+00	0	43	0	2278555648	40	4644
2026-01-28 13:07:22.17	294.40	31.96	-35.1	-36.7	23.2	0.00e+00	0	43	0	2295332864	40	4689
2026-01-28 13:07:25.15	295.34	31.65	-35.0	-36.6	23.3	0.00e+00	0	43	0	2312110080	40	4651
2026-01-28 13:07:28.13	296.26	31.34	-34.9	-36.6	23.3	0.00e+00	0	43	0	2328887296	40	4617
2026-01-28 13:07:31.11	297.16	31.03	-34.9	-36.5	23.4	0.00e+00	0	43	0	2345664512	40	4584
2026-01-28 13:07:34.09	298.04	30.71	-34.8	-36.4	23.5	0.00e+00	0	43	0	2362441728	40	4533
2026-01-28 13:07:37.07	298.91	30.39	-35.1	-36.8	23.1	0.00e+00	0	43	0	2379218944	40	4726
2026-01-28 13:07:40.04	299.75	30.07	-35.0	-36.7	23.2	0.00e+00	0	43	0	2395996160	40	4660
2026-01-28 13:07:43.02	300.59	29.74	-35.0	-36.7	23.2	0.00e+00	0	43	0	2412773376	40	4653
2026-01-28 13:07:46.00	301.40	29.41	-35.0	-36.6	23.3	0.00e+00	0	43	0	2429550592	40	4635
2026-01-28 13:07:48.98	302.20	29.08	-35.0	-36.7	23.2	0.00e+00	0	43	0	2446327808	40	4665
2026-01-28 13:07:51.96	302.98	28.74	-35.1	-36.8	23.1	0.00e+00	0	43	0	2463105024	41	4442
2026-01-28 13:07:54.94	303.75	28.41	-35.2	-36.8	23.1	0.00e+00	0	43	0	2479882240	41	4472
2026-01-28 13:07:57.91	304.50	28.07	-35.3	-37.0	22.9	0.00e+00	0	43	0	2496659456	41	4576
2026-01-28 13:08:00.89	305.24	27.73	-35.4	-37.1	22.9	0.00e+00	0	43	0	2513436672	41	4600
2026-01-28 13:08:03.87	305.96	27.39	-35.2	-36.9	23.1	0.00e+00	0	43	0	2530213888	41	4512
2026-01-28 13:08:06.85	306.67	27.06	-35.5	-37.2	22.8	0.00e+00	0	43	0	2546991104	41	4685
2026-01-28 13:08:09.83	307.36	26.72	-35.5	-37.1	22.8	0.00e+00	0	43	0	2563768320	41	4651
2026-01-28 13:08:12.81	308.03	26.38	-35.5	-37.1	22.8	0.00e+00	0	43	0	2580545536	41	4647
2026-01-28 13:08:15.79	308.70	26.04	-35.3	-37.0	23.0	0.00e+00	0	43	0	2597322752	41	4547
2026-01-28 13:08:18.77	309.35	25.70	-35.2	-36.9	23.0	0.00e+00	0	43	0	2614099968	41	4519
2026-01-28 13:08:21.75	309.98	25.36	-35.1	-36.7	23.2	0.00e+00	0	43	0	2630877184	41	4437
2026-01-28 13:08:24.72	310.60	25.03	-35.1	-36.7	23.1	0.00e+00	0	43	0	2647654400	41	4433
2026-01-28 13:08:27.70	311.22	24.69	-35.3	-36.9	23.0	0.00e+00	0	43	0	2664431616	41	4538
2026-01-28 13:08:30.68	311.81	24.36	-35.4	-37.1	22.8	0.00e+00	0	43	0	2681208832	41	4642
2026-01-28 13:08:33.66	312.40	24.02	-35.6	-37.3	22.7	0.00e+00	0	43	0	2697986048	41	4712
2026-01-28 13:08:36.64	312.97	23.69	-35.6	-37.3	22.7	0.00e+00	0	43	0	2714763264	42	4463
2026-01-28 13:08:39.62	313.53	23.36	-35.8	-37.4	22.6	0.00e+00	0	43	0	2731540480	42	4530
2026-01-28 13:08:42.60	314.08	23.03	-35.9	-37.5	22.4	0.00e+00	0	43	0	2748317696	42	4597
2026-01-28 13:08:45.57	314.62	22.70	-36.0	-37.7	22.3	0.00e+00	0	43	0	2765094912	42	4663
2026-01-28 13:08:48.55	315.15	22.38	-35.9	-37.6	22.4	0.00e+00	0	43	0	2781872128	42	4639
2026-01-28 13:08:51.53	315.66	22.05	-35.9	-37.6	22.4	0.00e+00	0	43	0	2798649344	42	4621
2026-01-28 13:08:54.51	316.17	21.73	-35.9	-37.6	22.4	0.00e+00	0	43	0	2815426560	42	4613
2026-01-28 13:08:57.49	316.67	21.41	-36.0	-37.7	22.2	0.00e+00	0	43	0	2832203776	42	4695
2026-01-28 13:09:00.47	317.15	21.09	-36.3	-38.0	22.0	0.00e+00	0	43	0	2848980992	43	4583
2026-01-28 13:09:03.45	317.63	20.77	-36.3	-38.1	21.9	0.00e+00	0	43	0	2865758208	43	4606
2026-01-28 13:09:06.43	318.10	20.46	-36.4	-38.1	21.9	0.00e+00	0	43	0	2882535424	43	4622
2026-01-28 13:09:09.41	318.56	20.15	-36.2	-38.0	22.0	0.00e+00	0	43	0	2899312640	43	4557
2026-01-28 13:09:12.39	319.01	19.84	-36.5	-38.2	21.8	0.00e+00	0	43	0	2916089856	43	4683
2026-01-28 13:09:15.36	319.45	19.53	-36.9	-38.6	21.6	0.00e+00	0	43	0	2932867072	44	4644
2026-01-28 13:09:18.34	319.88	19.22	-37.2	-39.0	21.3	0.00e+00	0	43	0	2949644288	45	4547
2026-01-28 13:09:21.32	320.30	18.92	-37.1	-38.9	21.4	0.00e+00	0	43	0	2965372928	45	4501
2026-01-28 13:09:24.30	320.72	18.62	-37.2	-38.9	21.3	0.00e+00	0	43	0	2983198720	45	4532
2026-01-28 13:09:27.28	321.13	18.32	-37.3	-39.1	21.1	0.00e+00	0	43	0	2998927360	45	4610
2026-01-28 13:09:30.26	321.53	18.02	-37.5	-39.3	20.9	0.00e+00	0	43	0	3015704576	45	4712
2026-01-28 13:09:33.24	321.92	17.73	-37.4	-39.1	21.1	0.00e+00	0	43	0	3033530368	45	4646
2026-01-28 13:09:36.21	322.31	17.44	-37.3	-39.1	21.1	0.00e+00	0	43	0	3049259008	45	4651
2026-01-28 13:09:39.19	322.68	17.15	-37.3	-39.1	21.1	0.00e+00	0	43	0	3066036224	45	4641
2026-01-28 13:09:42.17	323.06	16.86	-37.2	-39.0	21.2	0.00e+00	0	43	0	3082813440	45	4569
2026-01-28 13:09:45.15	323.42	16.57	-37.3	-39.0	21.1	0.00e+00	0	43	0	3099590656	45	4585
2026-01-28 13:09:48.13	323.78	16.29	-37.4	-39.1	21.0	0.00e+00	0	43	0	3116367872	45	4629
2026-01-28 13:09:51.11	324.13	16.01	-37.4	-39.1	21.0	0.00e+00	0	43	0	3133145088	45	4640
2026-01-28 13:09:54.09	324.48	15.73	-37.5	-39.2	20.9	0.00e+00	0	43	0	3149922304	45	4705
2026-01-28 13:09:57.07	324.82	15.46	-37.6	-39.5	20.7	0.00e+00	0	43	0	3166699520	45	4825
2026-01-28 13:10:00.04	325.15	15.18	-37.6	-39.5	20.7	0.00e+00	0	43	0	3183476736	45	4845
2026-01-28 13:10:03.02	325.48	14.91	-37.7	-39.6	20.6	0.00e+00	0	43	0	3200253952	46	4644
2026-01-28 13:10:06.00	325.80	14.64	-37.9	-39.8	20.4	0.00e+00	0	43	0	3217031168	46	4723
2026-01-28 13:10:08.98	326.11	14.37	-37.9	-39.8	20.4	0.00e+00	0	43	0	3233808384	46	4743
2026-01-28 13:10:11.96	326.43	14.11	-37.9	-39.7	20.4	0.00e+00	0	43	0	3250585600	46	4702
2026-01-28 13:10:14.94	326.73	13.85	-38.0	-39.8	20.3	0.00e+00	0	43	0	3267362816	46	4758
2026-01-28 13:10:17.91	327.03	13.59	-38.0	-39.9	20.3	0.00e+00	0	43	0	3284140032	46	4775
2026-01-28 13:10:20.89	327.33	13.33	-38.2	-40.0	20.1	0.00e+00	0	43	0	3300917248	47	4576
2026-01-28 13:10:23.87	327.62	13.07	-38.4	-40.2	19.9	0.00e+00	0	43	0	3317694464	47	4692
2026-01-28 13:10:26.85	327.90	12.82	-38.4	-40.3	19.8	0.00e+00	0	43	0	3334471680	47	4722
2026-01-28 13:10:29.83	328.19	12.56	-38.5	-40.4	19.8	0.00e+00	0	43	0	3351248896	47	4764
2026-01-28 13:10:32.81	328.46	12.31	-38.6	-40.5	19.6	0.00e+00	0	43	0	3368026112	47	4848
2026-01-28 13:10:35.79	328.74	12.06	-38.6	-40.5	19.6	0.00e+00	0	43	0	3384803328	47	4855
2026-01-28 13:10:38.77	329.00	11.82	-38.6	-40.5	19.6	0.00e+00	0	43	0	3401580544	47	4865
2026-01-28 13:10:41.74	329.27	11.57	-38.8	-40.7	19.6	0.00e+00	0	43	0	3418357760	48	4662
2026-01-28 13:10:44.72	329.53	11.33	-38.9	-40.8	19.5	0.00e+00	0	43	0	3435134976	48	4745
2026-01-28 13:10:47.70	329.78	11.09	-39.0	-41.0	19.3	0.00e+00	0	43	0	3451912192	48	4823
2026-01-28 13:10:50.68	330.03	10.85	-39.0	-41.0	19.3	0.00e+00	0	43	0	3468689408	48	4843
2026-01-28 13:10:53.66	330.28	10.61	-39.0	-41.0	19.3	0.00e+00	0	43	0	3485466624	48	4820
2026-01-28 13:10:56.64	330.53	10.38	-39.1	-41.0	19.2	0.00e+00	0	43	0	3502243840	49	4598
2026-01-28 13:10:59.62	330.77	10.15	-39.0	-40.9	19.3	0.00e+00	0	43	0	3519021056	49	4519
2026-01-28 13:11:02.60	331.00	9.91	-39.0	-40.9	19.4	0.00e+00	0	43	0	3535798272	49	4507
2026-01-28 13:11:05.57	331.24	9.69	-39.2	-41.1	19.1	0.00e+00	0	43	0	3552575488	49	4627
2026-01-28 13:11:08.55	331.47	9.46	-39.1	-41.1	19.1	0.00e+00	0	43	0	3569352704	49	4609
2026-01-28 13:11:11.53	331.69	9.23	-39.2	-41.2	19.0	0.00e+00	0	43	0	3586129920	49	4676
2026-01-28 13:11:14.51	331.92	9.01	-40.1	-42.2	18.1	0.00e+00	0	43	0	3602907136	50	4933
2026-01-28 13:11:17.49	332.14	8.78	-48.5	-61.2	3.8	8.47e-01	0	43	104	3606052864	67	16608
2026-01-28 13:11:20.47	332.35	8.56	-48.9	-61.4	3.8	8.46e-01	0	43	104	3606052864	68	16011
2026-01-28 13:11:23.45	332.57	8.34	-49.3	-61.4	3.8	8.48e-01	0	43	104	3606052864	69	15216
2026-01-28 13:11:26.43	332.78	8.12	-49.4	-61.5	3.8	8.46e-01	0	43	104	3606052864	69	15324
2026-01-28 13:11:29.41	332.99	7.91	-49.4	-61.5	3.8	8.47e-01	0	43	104	3606052864	69	15349
2026-01-28 13:11:32.38	333.19	7.69	-49.3	-61.6	3.8	8.47e-01	0	43	104	3606052864	69	15471
2026-01-28 13:11:35.36	333.39	7.48	-49.3	-61.6	3.8	8.47e-01	0	43	104	3606052864	69	15438
2026-01-28 13:11:38.34	333.59	7.27	-49.2	-61.6	3.8	8.47e-01	0	43	104	3606052864	69	15449
2026-01-28 13:11:41.32	333.79	7.06	-49.2	-61.6	3.8	8.46e-01	0	43	104	3606052864	69	15430
2026-01-28 13:11:44.30	333.99	6.85	-49.2	-61.6	3.8	8.46e-01	0	43	104	3606052864	69	15421
2026-01-28 13:11:47.28	334.18	6.64	-49.2	-61.6	3.8	8.47e-01	0	43	104	3606052864	69	15425
2026-01-28 13:11:50.26	334.37	6.43	-49.2	-61.6	3.8	8.47e-01	0	43	104	3606052864	69	15422
2026-01-28 13:11:53.24	334.55	6.23	-49.2	-61.6	3.8	8.47e-01	0	43	104	3606052864	69	15423
2026-01-28 13:11:56.21	334.74	6.03	-49.2	-61.6	3.8	8.48e-01	0	43	104	3606052864	69	15407
2026-01-28 13:11:59.20	334.92	5.82	-49.2	-61.5	3.8	8.46e-01	0	43	104	3606052864	69	15345
2026-01-28 13:12:02.17	335.10	5.62	-49.2	-61.6	3.8	8.47e-01	0	43	104	3606052864	69	15418
2026-01-28 13:12:05.15	335.28	5.42	-49.2	-61.5	3.8	8.47e-01	0	43	104	3606052864	69	15394
2026-01-28 13:12:08.13	335.45	5.23	-49.2	-61.5	3.8	8.48e-01	0	43	104	3606052864	69	15356
2026-01-28 13:12:11.11	335.63	5.03	-49.2	-61.6	3.8	8.46e-01	0	43	104	3606052864	69	15440

#Closed at: 2026-01-28 13:12:13
#Recorded file [3606 MB]: D:/Data/31040_260128_155958.dat