passes_logs/2026/01/28/T1/T1__20260128_095235_NOAA_21_JPSS-2_rec.log

#Pass ID: 20260128_095235_NOAA 21 (JPSS-2)
#Satellite: NOAA 21 (JPSS-2)
#Configuration: NOAA 21
#almurnet v.1.7.20251203
#Start time: 2026-01-28 09:52:35

#Version: 2.0.20230620
#Station: T1
#Location: 37.570604 lon 55.790049 lat
#TLE: 1 54234U 22150A   26027.55906748  .00000170  00000+0  10132-3 0  9996
#TLE: 2 54234  98.7510 328.3076 0000860 204.4692 155.6443 14.19540154166599

#Time	Az	El	Level	Level2	SNR	BER	BlckErr	Temp	State	Recorded	gain1	gain2
2026-01-28 09:52:35.49	158.63	5.02	-49.7	-63.0	3.8	1.49e+00	0	42	0	0	70	17159
2026-01-28 09:52:38.46	158.62	5.23	-49.8	-63.0	3.8	1.49e+00	0	42	104	0	71	16291
2026-01-28 09:52:41.44	158.62	5.45	-49.6	-63.0	3.8	1.49e+00	0	42	104	0	71	16281
2026-01-28 09:52:44.42	158.62	5.67	-50.0	-63.0	3.8	1.49e+00	0	42	104	0	70	17110
2026-01-28 09:52:47.40	158.61	5.89	-49.8	-62.9	3.8	1.49e+00	0	42	104	0	70	16929
2026-01-28 09:52:50.38	158.61	6.11	-49.3	-62.7	3.8	1.49e+00	0	42	104	0	70	16617
2026-01-28 09:52:53.36	158.60	6.33	-49.5	-62.6	3.8	1.49e+00	0	43	104	0	70	16481
2026-01-28 09:52:56.34	158.60	6.56	-48.9	-62.4	3.8	1.49e+00	0	42	104	0	69	16934
2026-01-28 09:52:59.31	158.59	6.79	-49.1	-61.5	3.8	1.49e+00	0	42	104	0	69	15337
2026-01-28 09:53:02.29	158.59	7.02	-49.0	-61.2	3.8	1.49e+00	0	43	104	0	69	14846
2026-01-28 09:53:05.27	158.58	7.25	-48.8	-59.1	4.1	1.48e+00	0	43	104	0	69	11674
2026-01-28 09:53:08.25	158.58	7.49	-48.2	-55.6	5.7	4.82e-01	0	43	0	0	68	8218
2026-01-28 09:53:11.23	158.57	7.72	-46.9	-52.0	8.7	4.13e-02	0	43	0	0	65	6453
2026-01-28 09:53:14.21	158.56	7.96	-45.8	-49.7	11.3	1.79e-03	0	43	0	0	63	5541
2026-01-28 09:53:17.19	158.56	8.20	-45.2	-48.6	12.4	1.59e-04	0	43	0	0	62	5209
2026-01-28 09:53:20.17	158.55	8.44	-45.5	-49.0	12.0	3.00e-04	0	43	0	0	62	5463
2026-01-28 09:53:23.14	158.54	8.69	-46.6	-51.1	9.8	8.81e-03	0	43	0	0	63	6541
2026-01-28 09:53:26.12	158.54	8.94	-47.9	-54.9	6.1	2.59e-01	0	43	0	0	66	8473
2026-01-28 09:53:29.10	158.53	9.19	-48.8	-60.4	3.8	1.13e+00	0	43	104	0	68	14280
2026-01-28 09:53:32.08	158.52	9.44	-49.0	-62.2	3.8	1.49e+00	0	43	104	0	68	17586
2026-01-28 09:53:35.06	158.51	9.70	-41.6	-43.8	17.1	3.07e-02	0	43	0	0	55	4448
2026-01-28 09:53:38.04	158.51	9.96	-41.5	-43.5	17.3	2.29e-02	0	43	0	0	55	4329
2026-01-28 09:53:41.02	158.50	10.22	-41.2	-43.2	17.6	0.00e+00	0	43	0	0	54	4436
2026-01-28 09:53:43.99	158.49	10.48	-40.7	-42.6	18.2	0.00e+00	0	43	0	0	53	4371
2026-01-28 09:53:46.97	158.48	10.75	-40.5	-42.4	18.4	0.00e+00	0	43	0	0	53	4284
2026-01-28 09:53:49.95	158.47	11.02	-40.4	-42.4	18.5	0.00e+00	0	43	0	0	52	4499
2026-01-28 09:53:52.93	158.46	11.29	-40.4	-42.3	18.5	0.00e+00	0	43	0	0	52	4459
2026-01-28 09:53:55.91	158.45	11.57	-40.3	-42.2	18.6	0.00e+00	0	43	0	0	52	4423
2026-01-28 09:53:58.89	158.44	11.85	-40.4	-42.3	18.6	0.00e+00	0	43	0	0	52	4457
2026-01-28 09:54:01.87	158.43	12.13	-40.2	-42.1	18.8	0.00e+00	0	43	0	0	52	4344
2026-01-28 09:54:04.85	158.42	12.41	-40.2	-42.0	18.8	0.00e+00	0	43	0	0	52	4315
2026-01-28 09:54:07.83	158.41	12.70	-40.0	-41.8	19.0	0.00e+00	0	43	0	0	52	4217
2026-01-28 09:54:10.80	158.40	12.99	-40.2	-42.0	18.8	0.00e+00	0	43	0	0	52	4328
2026-01-28 09:54:13.78	158.38	13.29	-40.1	-41.9	18.9	0.00e+00	0	43	0	0	52	4274
2026-01-28 09:54:16.76	158.37	13.59	-40.0	-41.8	19.1	0.00e+00	0	43	0	0	51	4487
2026-01-28 09:54:19.74	158.36	13.89	-40.0	-41.8	19.1	0.00e+00	0	43	0	0	51	4474
2026-01-28 09:54:22.72	158.34	14.20	-40.0	-41.8	19.1	0.00e+00	0	43	0	0	51	4464
2026-01-28 09:54:25.70	158.33	14.51	-40.0	-41.8	19.2	0.00e+00	0	43	0	0	51	4451
2026-01-28 09:54:28.68	158.32	14.83	-39.9	-41.7	19.3	0.00e+00	0	43	0	0	51	4405
2026-01-28 09:54:31.66	158.30	15.15	-39.9	-41.7	19.2	0.00e+00	0	43	0	0	51	4419
2026-01-28 09:54:34.64	158.29	15.47	-39.8	-41.6	19.3	0.00e+00	0	43	0	0	51	4367
2026-01-28 09:54:37.61	158.27	15.80	-39.8	-41.7	19.3	0.00e+00	0	43	0	0	51	4393
2026-01-28 09:54:40.59	158.25	16.13	-39.8	-41.7	19.3	0.00e+00	0	43	0	0	51	4396
2026-01-28 09:54:43.57	158.24	16.47	-39.9	-41.7	19.3	0.00e+00	0	44	0	0	51	4436
2026-01-28 09:54:46.55	158.22	16.81	-40.0	-41.8	19.2	0.00e+00	0	43	0	0	51	4455
2026-01-28 09:54:49.53	158.20	17.15	-39.9	-41.7	18.5	0.00e+00	0	43	0	0	51	4432
2026-01-28 09:54:52.51	158.18	17.50	-40.0	-41.8	19.2	0.00e+00	0	43	0	0	51	4472
2026-01-28 09:54:55.48	158.16	17.86	-40.1	-41.9	19.1	0.00e+00	0	43	0	0	51	4512
2026-01-28 09:54:58.46	158.14	18.22	-40.1	-41.9	19.1	0.00e+00	0	44	0	0	51	4523
2026-01-28 09:55:01.44	158.12	18.59	-40.1	-41.9	19.0	0.00e+00	0	44	0	0	51	4543
2026-01-28 09:55:04.42	158.10	18.96	-40.1	-41.9	19.1	0.00e+00	0	43	0	0	51	4545
2026-01-28 09:55:07.40	158.08	19.34	-40.1	-42.0	19.0	0.00e+00	0	44	0	0	51	4555
2026-01-28 09:55:10.38	158.05	19.73	-40.1	-41.9	19.1	0.00e+00	0	43	0	0	51	4544
2026-01-28 09:55:13.36	158.03	20.12	-39.9	-41.7	19.3	0.00e+00	0	44	0	0	51	4410
2026-01-28 09:55:16.33	158.01	20.51	-40.0	-41.8	19.2	0.00e+00	0	44	0	0	51	4448
2026-01-28 09:55:19.31	157.98	20.91	-39.7	-41.5	19.6	0.00e+00	0	44	0	0	51	4302
2026-01-28 09:55:22.29	157.95	21.32	-39.4	-41.2	19.8	0.00e+00	0	43	0	0	50	4407
2026-01-28 09:55:25.27	157.93	21.74	-39.3	-41.0	19.9	0.00e+00	0	44	0	0	50	4327
2026-01-28 09:55:28.25	157.90	22.16	-39.1	-40.7	20.2	0.00e+00	0	43	0	0	50	4186
2026-01-28 09:55:31.23	157.87	22.59	-38.9	-40.6	20.3	0.00e+00	0	44	0	0	49	4367
2026-01-28 09:55:34.21	157.84	23.03	-38.7	-40.4	20.5	0.00e+00	0	44	0	0	49	4254
2026-01-28 09:55:37.19	157.81	23.48	-38.6	-40.2	20.6	0.00e+00	0	44	0	0	49	4176
2026-01-28 09:55:40.16	157.77	23.93	-38.6	-40.2	20.6	0.00e+00	0	43	0	0	48	4412
2026-01-28 09:55:43.14	157.74	24.39	-38.4	-40.0	20.7	0.00e+00	0	44	0	0	48	4324
2026-01-28 09:55:46.12	157.70	24.86	-38.5	-40.1	20.7	0.00e+00	0	43	0	0	48	4364
2026-01-28 09:55:49.10	157.67	25.34	-38.6	-40.2	20.6	0.00e+00	0	44	0	0	48	4431
2026-01-28 09:55:52.08	157.63	25.82	-38.6	-40.2	20.6	0.00e+00	0	44	0	0	48	4441
2026-01-28 09:55:55.06	157.59	26.32	-38.9	-40.6	20.2	0.00e+00	0	44	0	0	48	4628
2026-01-28 09:55:58.03	157.55	26.82	-39.2	-40.9	20.0	0.00e+00	0	44	0	0	48	4766
2026-01-28 09:56:01.01	157.51	27.33	-39.5	-41.2	19.8	0.00e+00	0	43	0	0	49	4673
2026-01-28 09:56:03.99	157.46	27.86	-39.8	-41.5	19.4	0.00e+00	0	43	0	0	50	4586
2026-01-28 09:56:06.97	157.42	28.39	-40.0	-41.8	19.1	0.00e+00	0	44	0	0	50	4748
2026-01-28 09:56:09.95	157.37	28.94	-40.1	-41.9	19.1	0.00e+00	0	44	0	0	50	4813
2026-01-28 09:56:12.93	157.32	29.49	-40.0	-41.8	19.2	0.00e+00	0	43	0	0	51	4453
2026-01-28 09:56:15.91	157.27	30.06	-39.9	-41.6	19.5	0.00e+00	0	44	0	0	51	4381
2026-01-28 09:56:18.89	157.21	30.64	-39.5	-41.3	19.8	0.00e+00	0	44	0	0	51	4201
2026-01-28 09:56:21.86	157.15	31.22	-39.4	-41.1	20.0	0.00e+00	0	43	0	0	50	4389
2026-01-28 09:56:24.84	157.10	31.83	-39.5	-41.2	19.9	0.00e+00	0	44	0	0	50	4427
2026-01-28 09:56:27.82	157.03	32.44	-39.7	-41.5	19.7	0.00e+00	0	43	0	0	50	4548
2026-01-28 09:56:30.80	156.97	33.07	-40.0	-41.7	19.4	0.00e+00	0	43	0	0	50	4697
2026-01-28 09:56:33.78	156.90	33.71	-40.2	-42.0	19.2	0.00e+00	0	44	0	0	51	4566
2026-01-28 09:56:36.76	156.83	34.36	-40.6	-42.4	18.8	0.00e+00	0	44	0	0	51	4778
2026-01-28 09:56:39.74	156.76	35.03	-40.8	-42.7	18.4	0.00e+00	0	44	0	0	52	4675
2026-01-28 09:56:42.72	156.68	35.71	-41.3	-43.3	17.9	0.00e+00	0	44	0	0	53	4708
2026-01-28 09:56:45.70	156.60	36.41	-41.3	-43.2	18.0	0.00e+00	0	44	0	0	53	4700
2026-01-28 09:56:48.67	156.52	37.11	-41.3	-43.2	18.0	0.00e+00	0	44	0	0	53	4694
2026-01-28 09:56:51.65	156.43	37.84	-41.4	-43.3	17.9	0.00e+00	0	44	0	0	53	4748
2026-01-28 09:56:54.63	156.33	38.59	-41.1	-43.0	18.2	0.00e+00	0	44	0	0	53	4584
2026-01-28 09:56:57.61	156.23	39.34	-41.1	-43.0	18.3	0.00e+00	0	43	0	0	53	4555
2026-01-28 09:57:00.59	156.13	40.12	-41.2	-43.1	18.0	0.00e+00	0	44	0	0	53	4603
2026-01-28 09:57:03.57	156.02	40.92	-41.4	-43.4	17.8	0.00e+00	0	44	0	0	53	4762
2026-01-28 09:57:06.55	155.91	41.73	-41.6	-43.5	17.7	0.00e+00	0	44	0	0	53	4855
2026-01-28 09:57:09.52	155.79	42.55	-41.7	-43.6	17.6	0.00e+00	0	44	0	0	54	4651
2026-01-28 09:57:12.50	155.66	43.40	-41.5	-43.4	17.8	0.00e+00	0	44	0	0	54	4516
2026-01-28 09:57:15.48	155.52	44.27	-41.7	-43.7	17.4	0.00e+00	0	44	0	0	54	4679
2026-01-28 09:57:18.46	155.38	45.16	-42.4	-44.6	16.7	0.00e+00	0	44	0	0	55	4878
2026-01-28 09:57:21.44	155.22	46.06	-42.8	-45.0	16.5	0.00e+00	0	44	0	0	56	4853
2026-01-28 09:57:24.42	155.06	46.99	-42.3	-44.4	17.1	0.00e+00	0	44	0	0	56	4508
2026-01-28 09:57:27.39	154.89	47.93	-41.4	-43.4	17.9	0.00e+00	0	44	0	0	54	4513
2026-01-28 09:57:30.37	154.70	48.90	-41.7	-43.7	17.7	0.00e+00	0	43	0	0	54	4659
2026-01-28 09:57:33.35	154.50	49.89	-41.8	-43.8	17.6	0.00e+00	0	44	0	0	54	4717
2026-01-28 09:57:36.33	154.29	50.90	-41.5	-43.5	17.9	0.00e+00	0	44	0	0	54	4559
2026-01-28 09:57:39.31	154.06	51.94	-41.0	-42.9	18.2	0.00e+00	0	44	0	0	54	4284
2026-01-28 09:57:42.29	153.82	52.99	-40.4	-42.2	18.9	0.00e+00	0	44	0	0	52	4435
2026-01-28 09:57:45.27	153.55	54.07	-40.3	-42.1	19.1	0.00e+00	0	44	0	0	52	4355
2026-01-28 09:57:48.25	153.27	55.17	-39.8	-41.5	19.7	0.00e+00	0	44	0	0	51	4316
2026-01-28 09:57:51.22	152.96	56.29	-39.4	-41.1	20.1	0.00e+00	0	44	0	0	50	4360
2026-01-28 09:57:54.20	152.62	57.43	-39.0	-40.6	20.5	0.00e+00	0	43	0	0	49	4382
2026-01-28 09:57:57.18	152.26	58.60	-38.7	-40.3	20.8	0.00e+00	0	44	0	0	49	4207
2026-01-28 09:58:00.16	151.85	59.78	-38.9	-40.6	20.5	0.00e+00	0	44	0	0	49	4341
2026-01-28 09:58:03.14	151.41	60.99	-38.8	-40.4	20.6	0.00e+00	0	43	0	0	49	4261
2026-01-28 09:58:06.12	150.92	62.22	-38.4	-40.0	20.8	0.00e+00	0	44	0	0	48	4309
2026-01-28 09:58:09.10	150.38	63.47	-38.2	-39.8	21.3	0.00e+00	0	44	0	0	48	4195
2026-01-28 09:58:12.08	149.78	64.75	-38.1	-39.7	21.2	0.00e+00	0	44	0	0	48	4161
2026-01-28 09:58:15.05	149.10	66.03	-37.5	-39.1	21.6	0.00e+00	0	44	0	0	47	4111
2026-01-28 09:58:18.03	148.34	67.34	-37.7	-39.3	21.3	0.00e+00	0	44	0	0	46	4479
2026-01-28 09:58:21.01	147.47	68.66	-37.7	-39.2	21.4	0.00e+00	0	43	0	0	46	4437
2026-01-28 09:58:23.99	146.47	70.00	-38.5	-40.1	20.6	0.00e+00	0	44	0	0	47	4622
2026-01-28 09:58:26.97	145.32	71.34	-38.8	-40.5	20.5	0.00e+00	0	44	0	0	48	4578
2026-01-28 09:58:29.95	143.98	72.70	-38.7	-40.4	20.6	0.00e+00	0	44	0	0	48	4521
2026-01-28 09:58:32.93	142.39	74.07	-38.3	-39.9	21.1	0.00e+00	0	44	0	0	48	4253
2026-01-28 09:58:35.91	140.48	75.43	-38.5	-40.1	20.9	0.00e+00	0	44	0	0	48	4386
2026-01-28 09:58:38.89	138.17	76.79	-38.6	-40.2	20.8	0.00e+00	0	44	0	0	48	4427
2026-01-28 09:58:41.87	135.31	78.13	-38.3	-39.8	21.2	0.00e+00	0	44	0	0	48	4238
2026-01-28 09:58:44.85	131.71	79.45	-38.3	-39.9	21.0	0.00e+00	0	44	0	0	48	4273
2026-01-28 09:58:47.82	127.09	80.72	-38.3	-39.9	20.9	0.00e+00	0	44	0	0	48	4249
2026-01-28 09:58:50.80	121.00	81.93	-38.6	-40.3	20.7	0.00e+00	0	43	0	0	48	4464
2026-01-28 09:58:53.78	112.88	83.01	-39.1	-40.8	20.4	0.00e+00	0	44	0	0	48	4742
2026-01-28 09:58:56.76	102.04	83.92	-39.2	-40.8	20.3	0.00e+00	0	44	0	0	49	4489
2026-01-28 09:58:59.74	88.11	84.54	-38.7	-40.3	20.7	0.00e+00	0	44	0	0	49	4234
2026-01-28 09:59:02.72	71.83	84.77	-38.2	-39.8	21.1	0.00e+00	0	44	0	0	48	4234
2026-01-28 09:59:05.70	55.46	84.57	-38.5	-40.2	20.8	0.00e+00	0	44	0	0	48	4402
2026-01-28 09:59:08.68	41.33	83.97	-38.7	-40.3	20.7	0.00e+00	0	44	0	0	48	4488
2026-01-28 09:59:11.65	30.32	83.09	-38.7	-40.3	20.7	0.00e+00	0	44	0	0	48	4488
2026-01-28 09:59:14.63	22.03	82.01	-38.3	-39.9	21.2	0.00e+00	0	44	0	0	48	4271
2026-01-28 09:59:17.61	15.82	80.81	-38.4	-39.9	21.1	0.00e+00	0	44	0	0	48	4291
2026-01-28 09:59:20.59	11.10	79.54	-37.7	-39.3	21.3	0.00e+00	0	44	0	0	47	4214
2026-01-28 09:59:23.57	7.44	78.23	-39.1	-40.8	20.3	0.00e+00	0	44	0	0	48	4734
2026-01-28 09:59:26.55	4.54	76.89	-38.5	-40.1	20.7	0.00e+00	0	44	0	0	49	4135
2026-01-28 09:59:29.53	2.20	75.53	-38.8	-40.4	20.7	0.00e+00	0	44	0	0	48	4533
2026-01-28 09:59:32.51	0.27	74.17	-38.1	-39.7	20.8	0.00e+00	0	44	0	0	48	4167
2026-01-28 09:59:35.48	358.67	72.81	-38.5	-40.1	21.0	0.00e+00	0	44	0	0	48	4347
2026-01-28 09:59:38.46	357.31	71.46	-38.1	-39.6	21.1	0.00e+00	0	44	0	0	48	4133
2026-01-28 09:59:41.44	356.15	70.11	-38.2	-39.8	21.1	0.00e+00	0	44	0	0	47	4445
2026-01-28 09:59:44.42	355.14	68.78	-39.3	-41.0	19.6	0.00e+00	0	44	0	0	49	4585
2026-01-28 09:59:47.40	354.26	67.46	-38.2	-39.8	21.1	0.00e+00	0	44	0	0	48	4207
2026-01-28 09:59:50.38	353.49	66.15	-39.5	-41.2	20.0	0.00e+00	0	44	0	0	49	4689
2026-01-28 09:59:53.36	352.81	64.86	-38.1	-39.7	20.7	0.00e+00	0	44	0	0	48	4153
2026-01-28 09:59:56.34	352.20	63.60	-37.7	-39.2	21.5	0.00e+00	0	44	0	0	47	4191
2026-01-28 09:59:59.31	351.66	62.35	-40.1	-41.8	19.4	0.00e+00	0	44	0	0	50	4746
2026-01-28 10:00:02.29	351.17	61.12	-38.7	-40.3	20.4	0.00e+00	0	44	0	0	49	4227
2026-01-28 10:00:05.27	350.72	59.92	-38.9	-40.5	20.7	0.00e+00	0	44	0	0	48	4558
2026-01-28 10:00:08.25	350.32	58.73	-40.8	-42.7	18.6	0.00e+00	0	44	0	0	52	4700
2026-01-28 10:00:11.23	349.95	57.57	-39.6	-41.3	19.5	0.00e+00	0	44	0	0	51	4212
2026-01-28 10:00:14.21	349.61	56.42	-40.2	-42.0	19.1	0.00e+00	0	44	0	0	50	4841
2026-01-28 10:00:17.19	349.30	55.30	-41.1	-43.0	18.2	0.00e+00	0	43	0	0	52	4854
2026-01-28 10:00:20.17	349.01	54.21	-42.2	-44.4	16.7	0.00e+00	0	44	0	0	55	4810
2026-01-28 10:00:23.15	348.75	53.13	-39.8	-41.6	19.7	0.00e+00	0	44	0	0	51	4355
2026-01-28 10:00:26.12	348.50	52.08	-41.1	-43.0	18.5	0.00e+00	0	44	0	0	52	4833
2026-01-28 10:00:29.10	348.28	51.05	-41.3	-43.2	17.7	0.00e+00	0	44	0	0	53	4691
2026-01-28 10:00:32.08	348.06	50.04	-41.9	-44.0	17.1	0.00e+00	0	44	0	0	54	4821
2026-01-28 10:00:35.06	347.87	49.05	-41.8	-43.9	17.1	0.00e+00	0	44	0	0	54	4779
2026-01-28 10:00:38.04	347.68	48.09	-41.4	-43.3	18.1	0.00e+00	0	43	0	0	54	4483
2026-01-28 10:00:41.02	347.51	47.14	-42.9	-45.1	16.6	0.00e+00	0	44	0	0	56	4909
2026-01-28 10:00:44.00	347.34	46.22	-43.1	-45.5	15.8	0.00e+00	0	44	0	0	57	4844
2026-01-28 10:00:46.97	347.19	45.31	-42.7	-45.0	16.3	0.00e+00	0	44	0	0	57	4577
2026-01-28 10:00:49.95	347.05	44.43	-42.5	-44.7	16.6	0.00e+00	0	44	0	0	57	4436
2026-01-28 10:00:52.93	346.91	43.56	-41.8	-43.9	17.3	0.00e+00	0	44	0	0	55	4509
2026-01-28 10:00:55.91	346.78	42.72	-41.8	-43.8	17.6	0.00e+00	0	43	0	0	55	4488
2026-01-28 10:00:58.89	346.66	41.89	-41.9	-44.0	17.4	0.00e+00	0	44	0	0	55	4556
2026-01-28 10:01:01.87	346.55	41.08	-42.4	-44.6	16.9	0.00e+00	0	44	0	0	55	4890
2026-01-28 10:01:04.85	346.44	40.29	-42.0	-44.1	17.4	0.00e+00	0	44	0	0	55	4614
2026-01-28 10:01:07.82	346.34	39.51	-42.6	-44.7	16.8	0.00e+00	0	44	0	0	55	4961
2026-01-28 10:01:10.80	346.24	38.75	-42.2	-44.3	17.2	0.00e+00	0	44	0	0	55	4732
2026-01-28 10:01:13.78	346.15	38.01	-41.1	-43.0	18.3	0.00e+00	0	44	0	0	54	4325
2026-01-28 10:01:16.76	346.06	37.29	-40.2	-42.0	19.1	0.00e+00	0	43	0	0	52	4329
2026-01-28 10:01:19.74	345.98	36.58	-40.8	-42.7	18.6	0.00e+00	0	43	0	0	52	4659
2026-01-28 10:01:22.72	345.90	35.88	-41.1	-43.1	18.3	0.00e+00	0	44	0	0	52	4878
2026-01-28 10:01:25.70	345.82	35.20	-41.1	-43.0	18.3	0.00e+00	0	44	0	0	52	4831
2026-01-28 10:01:28.68	345.75	34.53	-40.9	-42.7	18.6	0.00e+00	0	44	0	0	52	4700
2026-01-28 10:01:31.66	345.68	33.88	-40.4	-42.3	18.8	0.00e+00	0	44	0	0	52	4449
2026-01-28 10:01:34.64	345.61	33.24	-40.4	-42.3	18.7	0.00e+00	0	44	0	0	52	4456
2026-01-28 10:01:37.61	345.55	32.62	-40.2	-42.0	19.2	0.00e+00	0	44	0	0	52	4328
2026-01-28 10:01:40.59	345.49	32.01	-40.2	-42.0	19.3	0.00e+00	0	44	0	0	52	4326
2026-01-28 10:01:43.57	345.43	31.41	-40.1	-41.8	19.4	0.00e+00	0	44	0	0	52	4238
2026-01-28 10:01:46.55	345.38	30.82	-40.0	-41.8	19.4	0.00e+00	0	44	0	0	52	4237
2026-01-28 10:01:49.53	345.32	30.24	-40.1	-41.9	19.3	0.00e+00	0	44	0	0	52	4259
2026-01-28 10:01:52.51	345.27	29.68	-40.2	-42.1	18.9	0.00e+00	0	44	0	0	52	4369
2026-01-28 10:01:55.49	345.22	29.12	-40.5	-42.5	18.5	0.00e+00	0	44	0	0	52	4550
2026-01-28 10:01:58.47	345.18	28.58	-40.4	-42.3	18.7	0.00e+00	0	44	0	0	52	4473
2026-01-28 10:02:01.45	345.13	28.04	-40.4	-42.2	18.7	0.00e+00	0	44	0	0	52	4417
2026-01-28 10:02:04.43	345.09	27.52	-40.2	-42.1	18.9	0.00e+00	0	44	0	0	52	4345
2026-01-28 10:02:07.40	345.05	27.01	-39.9	-41.7	19.4	0.00e+00	0	44	0	0	51	4429
2026-01-28 10:02:10.38	345.01	26.51	-39.3	-41.0	19.9	0.00e+00	0	44	0	0	50	4329
2026-01-28 10:02:13.36	344.97	26.01	-39.1	-40.9	20.1	0.00e+00	0	44	0	0	50	4244
2026-01-28 10:02:16.34	344.93	25.53	-39.1	-40.7	20.2	0.00e+00	0	44	0	0	50	4190
2026-01-28 10:02:19.32	344.90	25.05	-39.0	-40.7	20.3	0.00e+00	0	44	0	0	50	4159
2026-01-28 10:02:22.30	344.87	24.58	-38.9	-40.6	20.4	0.00e+00	0	44	0	0	49	4351
2026-01-28 10:02:25.28	344.83	24.12	-39.1	-40.8	20.3	0.00e+00	0	44	0	0	49	4456
2026-01-28 10:02:28.26	344.80	23.67	-39.2	-40.9	20.2	0.00e+00	0	44	0	0	49	4531
2026-01-28 10:02:31.24	344.77	23.22	-39.3	-41.1	20.1	0.00e+00	0	44	0	0	49	4599
2026-01-28 10:02:34.22	344.74	22.79	-39.3	-41.2	20.0	0.00e+00	0	43	0	0	49	4665
2026-01-28 10:02:37.19	344.72	22.36	-39.2	-41.1	20.0	0.00e+00	0	44	0	0	49	4634
2026-01-28 10:02:40.17	344.69	21.94	-39.3	-41.1	20.0	0.00e+00	0	44	0	0	49	4636
2026-01-28 10:02:43.15	344.66	21.52	-39.2	-41.0	20.2	0.00e+00	0	44	0	0	49	4551
2026-01-28 10:02:46.13	344.64	21.11	-39.4	-41.1	20.0	0.00e+00	0	44	0	0	49	4611
2026-01-28 10:02:49.11	344.62	20.71	-39.4	-41.1	19.9	0.00e+00	0	44	0	0	49	4650
2026-01-28 10:02:52.09	344.59	20.31	-39.4	-41.2	19.9	0.00e+00	0	44	0	0	49	4695
2026-01-28 10:02:55.07	344.57	19.92	-39.5	-41.3	19.8	0.00e+00	0	44	0	0	49	4709
2026-01-28 10:02:58.05	344.55	19.54	-39.6	-41.4	19.6	0.00e+00	0	44	0	0	50	4499
2026-01-28 10:03:01.03	344.53	19.16	-39.7	-41.5	19.5	0.00e+00	0	44	0	0	50	4567
2026-01-28 10:03:04.00	344.51	18.79	-39.8	-41.6	19.4	0.00e+00	0	44	0	0	50	4633
2026-01-28 10:03:06.98	344.49	18.42	-39.9	-41.7	19.2	0.00e+00	0	44	0	0	50	4704
2026-01-28 10:03:09.96	344.47	18.06	-39.9	-41.8	19.3	0.00e+00	0	44	0	0	50	4712
2026-01-28 10:03:12.94	344.46	17.71	-40.0	-41.9	19.2	0.00e+00	0	44	0	0	50	4768
2026-01-28 10:03:15.92	344.44	17.36	-40.2	-42.0	19.1	0.00e+00	0	44	0	0	51	4563
2026-01-28 10:03:18.90	344.42	17.01	-40.2	-42.1	19.0	0.00e+00	0	44	0	0	51	4605
2026-01-28 10:03:21.88	344.41	16.67	-40.2	-42.2	19.0	0.00e+00	0	44	0	0	51	4663
2026-01-28 10:03:24.86	344.39	16.33	-40.0	-42.0	19.1	0.00e+00	0	44	0	0	51	4574
2026-01-28 10:03:27.83	344.38	16.00	-39.9	-42.0	19.1	0.00e+00	0	44	0	0	51	4566
2026-01-28 10:03:30.81	344.37	15.67	-39.9	-41.9	19.2	0.00e+00	0	44	0	0	51	4494
2026-01-28 10:03:33.79	344.35	15.35	-40.1	-42.0	19.1	0.00e+00	0	44	0	0	51	4561
2026-01-28 10:03:36.77	344.34	15.03	-40.1	-42.0	19.1	0.00e+00	0	44	0	0	51	4552
2026-01-28 10:03:39.75	344.33	14.72	-40.0	-42.0	19.0	0.00e+00	0	44	0	0	51	4562
2026-01-28 10:03:42.73	344.32	14.41	-40.0	-42.0	19.0	0.00e+00	0	44	0	0	51	4597
2026-01-28 10:03:45.71	344.31	14.10	-40.1	-42.1	18.9	0.00e+00	0	44	0	0	51	4637
2026-01-28 10:03:48.69	344.30	13.80	-40.1	-42.2	18.9	0.00e+00	0	44	0	0	51	4671
2026-01-28 10:03:51.66	344.29	13.50	-40.1	-42.1	19.0	0.00e+00	0	44	0	0	51	4609
2026-01-28 10:03:54.64	344.28	13.20	-40.1	-42.1	18.9	0.00e+00	0	44	0	0	51	4636
2026-01-28 10:03:57.62	344.27	12.91	-40.0	-42.0	19.0	0.00e+00	0	44	0	0	51	4569
2026-01-28 10:04:00.60	344.26	12.62	-40.2	-42.2	18.8	0.00e+00	0	44	0	0	51	4674
2026-01-28 10:04:03.58	344.25	12.34	-40.1	-42.1	18.9	0.00e+00	0	44	0	0	51	4617
2026-01-28 10:04:06.56	344.24	12.06	-40.2	-42.2	18.8	0.00e+00	0	44	0	0	51	4680
2026-01-28 10:04:09.54	344.24	11.78	-40.2	-42.2	18.8	0.00e+00	0	44	0	0	51	4663
2026-01-28 10:04:12.51	344.23	11.50	-40.3	-42.3	18.7	0.00e+00	0	44	0	0	51	4707
2026-01-28 10:04:15.49	344.22	11.23	-40.3	-42.4	18.6	0.00e+00	0	44	0	0	51	4773
2026-01-28 10:04:18.47	344.22	10.96	-40.4	-42.5	18.4	0.00e+00	0	44	0	0	51	4855
2026-01-28 10:04:21.45	344.21	10.69	-40.2	-42.5	18.4	0.00e+00	0	44	0	0	51	4870
2026-01-28 10:04:24.43	344.20	10.43	-40.2	-42.8	18.2	0.00e+00	0	44	0	0	51	5000
2026-01-28 10:04:27.41	344.20	10.17	-40.0	-42.8	18.1	0.00e+00	0	44	0	0	51	5000
2026-01-28 10:04:30.39	344.19	9.91	-40.1	-42.9	18.0	0.00e+00	0	44	0	0	51	5088
2026-01-28 10:04:33.37	344.19	9.66	-40.2	-43.0	17.9	0.00e+00	0	44	0	0	51	5126
2026-01-28 10:04:36.34	344.18	9.40	-40.3	-43.1	17.8	0.00e+00	0	44	0	0	51	5175
2026-01-28 10:04:39.32	344.18	9.15	-40.5	-43.3	17.6	0.00e+00	0	44	0	0	51	5289
2026-01-28 10:04:42.30	344.18	8.91	-46.7	-61.0	3.8	5.79e-01	0	44	104	0	64	19286
2026-01-28 10:04:45.28	344.17	8.66	-48.7	-62.4	3.8	1.49e+00	0	44	104	0	67	19075
2026-01-28 10:04:48.26	344.17	8.42	-48.0	-62.2	3.8	1.49e+00	0	44	104	0	66	19661
2026-01-28 10:04:51.24	344.17	8.18	-48.6	-62.2	3.8	1.49e+00	0	44	104	0	68	17585
2026-01-28 10:04:54.22	344.16	7.94	-49.1	-62.3	3.8	1.49e+00	0	44	104	0	69	16788
2026-01-28 10:04:57.19	344.16	7.70	-49.3	-62.3	3.8	1.49e+00	0	44	104	0	69	16828
2026-01-28 10:05:00.17	344.16	7.47	-49.4	-62.4	3.8	1.49e+00	0	44	104	0	69	16961
2026-01-28 10:05:03.15	344.15	7.24	-49.1	-62.4	3.8	1.49e+00	0	44	104	0	69	17002
2026-01-28 10:05:06.13	344.15	7.01	-49.1	-62.4	3.8	1.49e+00	0	44	104	0	69	17024
2026-01-28 10:05:09.11	344.15	6.78	-49.1	-62.4	3.8	1.49e+00	0	44	104	0	69	16918
2026-01-28 10:05:12.09	344.15	6.55	-49.1	-62.4	3.8	1.49e+00	0	44	104	0	69	16988
2026-01-28 10:05:15.07	344.15	6.33	-49.1	-62.4	3.8	1.49e+00	0	44	104	0	69	16944
2026-01-28 10:05:18.05	344.15	6.11	-49.1	-62.4	3.8	1.49e+00	0	44	104	0	69	16908
2026-01-28 10:05:21.03	344.15	5.89	-49.1	-62.4	3.8	1.49e+00	0	44	104	0	69	16920
2026-01-28 10:05:24.00	344.15	5.67	-49.1	-62.4	3.8	1.49e+00	0	44	104	0	69	16987
2026-01-28 10:05:26.98	344.15	5.46	-49.1	-62.4	3.8	1.49e+00	0	44	104	0	69	16895
2026-01-28 10:05:29.96	344.15	5.24	-49.1	-62.4	3.8	1.49e+00	0	44	104	0	69	16976
2026-01-28 10:05:32.94	344.15	5.03	-49.1	-62.4	3.8	1.49e+00	0	44	104	0	69	16932

#Closed at: 2026-01-28 10:05:34
#Recorded file [0 MB]: D:/Data/31040_260128_125235.dat