passes_logs/2026/01/28/T1/T1__20260128_144153_FENGYUN_3E_rec.log

#Pass ID: 20260128_144153_FENGYUN 3E
#Satellite: FENGYUN 3E
#Configuration: FENGYUN 3E
#almurnet v.1.7.20251203
#Start time: 2026-01-28 14:41:54

#Version: 2.0.20230620
#Station: T1
#Location: 37.570604 lon 55.790049 lat
#TLE: 1 49008U 21062A   26027.83084825  .00000170  00000+0  10081-3 0  9997
#TLE: 2 49008  98.7501  32.8098 0002509 114.2687 245.8752 14.19888158236667

#Time	Az	El	Level	Level2	SNR	BER	BlckErr	Temp	State	Recorded	gain1	gain2
2026-01-28 14:41:54.25	175.65	5.02	-50.3	-61.3	3.8	8.47e-01	0	41	0	0	70	13257
2026-01-28 14:41:58.21	175.76	5.30	-50.7	-61.4	3.8	8.47e-01	0	41	104	0	71	12602
2026-01-28 14:42:02.18	175.88	5.58	-50.5	-61.5	3.8	8.48e-01	0	42	104	0	71	12677
2026-01-28 14:42:06.16	175.99	5.87	-50.7	-61.4	3.8	8.48e-01	0	42	104	0	71	12568
2026-01-28 14:42:10.13	176.12	6.16	-50.4	-61.3	3.8	8.48e-01	0	42	104	0	71	12444
2026-01-28 14:42:14.10	176.24	6.45	-50.5	-61.2	3.8	8.46e-01	0	42	104	0	71	12290
2026-01-28 14:42:18.07	176.36	6.75	-50.0	-61.1	3.8	8.47e-01	0	42	104	0	70	12823
2026-01-28 14:42:22.04	176.49	7.05	-47.3	-59.0	3.8	8.47e-01	0	42	104	0	65	13461
2026-01-28 14:42:26.02	176.62	7.36	-45.5	-50.4	8.9	3.77e-02	0	42	0	11534336	61	6330
2026-01-28 14:42:29.99	176.75	7.67	-42.3	-44.8	14.5	0.00e+00	0	42	0	39845888	55	4666
2026-01-28 14:42:33.96	176.89	7.98	-40.7	-42.6	16.5	0.00e+00	0	43	0	69206016	52	4338
2026-01-28 14:42:37.93	177.03	8.29	-41.4	-43.6	15.6	0.00e+00	0	42	0	97517568	52	4826
2026-01-28 14:42:41.90	177.17	8.61	-44.1	-47.3	12.0	1.53e-04	0	43	0	126877696	57	5588
2026-01-28 14:42:45.87	177.31	8.94	-46.4	-53.3	6.2	2.51e-01	0	43	0	155189248	62	8318
2026-01-28 14:42:49.84	177.46	9.26	-47.1	-59.6	3.8	8.02e-01	0	43	104	173015040	64	15251
2026-01-28 14:42:53.81	177.61	9.59	-41.8	-43.7	15.5	0.00e+00	0	43	0	192937984	53	4650
2026-01-28 14:42:57.79	177.76	9.93	-40.3	-42.0	17.2	0.00e+00	0	43	0	222298112	50	4522
2026-01-28 14:43:01.76	177.91	10.27	-39.4	-41.1	18.1	0.00e+00	0	43	0	250609664	49	4306
2026-01-28 14:43:05.73	178.07	10.62	-38.8	-40.4	18.7	0.00e+00	0	43	0	278921216	48	4213
2026-01-28 14:43:09.70	178.24	10.97	-38.2	-39.7	19.1	0.00e+00	0	43	0	308281344	47	4125
2026-01-28 14:43:13.67	178.40	11.32	-38.2	-39.7	19.0	0.00e+00	0	43	0	336592896	46	4381
2026-01-28 14:43:17.64	178.57	11.68	-38.1	-39.6	19.2	0.00e+00	0	43	0	364904448	46	4308
2026-01-28 14:43:21.62	178.75	12.05	-38.1	-39.6	19.2	0.00e+00	0	43	0	394264576	46	4301
2026-01-28 14:43:25.59	178.93	12.42	-37.7	-39.2	19.6	0.00e+00	0	43	0	422576128	46	4121
2026-01-28 14:43:29.56	179.11	12.79	-37.6	-39.1	19.6	0.00e+00	0	43	0	450887680	46	4078
2026-01-28 14:43:33.53	179.30	13.17	-37.6	-39.1	19.6	0.00e+00	0	43	0	480247808	46	4080
2026-01-28 14:43:37.50	179.49	13.56	-37.4	-38.9	19.8	0.00e+00	0	43	0	508559360	45	4217
2026-01-28 14:43:41.47	179.69	13.95	-37.3	-38.8	19.9	0.00e+00	0	43	0	536870912	45	4146
2026-01-28 14:43:45.44	179.89	14.35	-37.1	-38.5	20.1	0.00e+00	0	43	0	566231040	44	4278
2026-01-28 14:43:49.42	180.09	14.76	-36.9	-38.3	20.2	0.00e+00	0	43	0	594542592	44	4181
2026-01-28 14:43:53.39	180.31	15.17	-36.9	-38.3	20.3	0.00e+00	0	44	0	622854144	44	4172
2026-01-28 14:43:57.36	180.53	15.59	-36.7	-38.2	20.4	0.00e+00	0	43	0	652214272	44	4100
2026-01-28 14:44:01.33	180.75	16.02	-36.6	-38.0	20.4	0.00e+00	0	43	0	680525824	43	4267
2026-01-28 14:44:05.30	180.98	16.45	-36.4	-37.8	20.5	0.00e+00	0	43	0	709885952	43	4182
2026-01-28 14:44:09.27	181.21	16.89	-36.3	-37.7	20.6	0.00e+00	0	44	0	738197504	43	4141
2026-01-28 14:44:13.25	181.46	17.34	-36.3	-37.8	20.5	0.00e+00	0	44	0	766509056	43	4148
2026-01-28 14:44:17.22	181.71	17.80	-36.2	-37.6	20.6	0.00e+00	0	44	0	795869184	42	4338
2026-01-28 14:44:21.19	181.97	18.26	-36.1	-37.5	20.7	0.00e+00	0	44	0	824180736	42	4264
2026-01-28 14:44:25.16	182.23	18.73	-36.1	-37.5	20.7	0.00e+00	0	43	0	852492288	42	4291
2026-01-28 14:44:29.13	182.50	19.21	-35.8	-37.1	21.1	0.00e+00	0	44	0	880803840	42	4097
2026-01-28 14:44:33.11	182.79	19.71	-35.8	-37.2	21.0	0.00e+00	0	44	0	910163968	41	4370
2026-01-28 14:44:37.08	183.08	20.20	-35.8	-37.1	21.1	0.00e+00	0	44	0	938475520	41	4339
2026-01-28 14:44:41.05	183.38	20.71	-35.8	-37.2	21.0	0.00e+00	0	44	0	967835648	41	4366
2026-01-28 14:44:45.02	183.68	21.23	-35.9	-37.2	21.1	0.00e+00	0	43	0	996147200	41	4387
2026-01-28 14:44:48.99	184.00	21.76	-35.8	-37.2	21.2	0.00e+00	0	44	0	1024458752	41	4351
2026-01-28 14:44:52.96	184.33	22.30	-35.6	-36.9	21.4	0.00e+00	0	44	0	1053818880	41	4228
2026-01-28 14:44:56.94	184.68	22.85	-35.5	-36.8	21.5	0.00e+00	0	44	0	1082130432	41	4150
2026-01-28 14:45:00.91	185.03	23.41	-35.6	-37.0	21.3	0.00e+00	0	43	0	1110441984	41	4244
2026-01-28 14:45:04.88	185.40	23.98	-35.5	-36.8	21.4	0.00e+00	0	44	0	1139802112	41	4187
2026-01-28 14:45:08.85	185.77	24.57	-35.2	-36.6	21.6	0.00e+00	0	44	0	1168113664	41	4053
2026-01-28 14:45:12.82	186.17	25.16	-35.1	-36.4	21.7	0.00e+00	0	44	0	1196425216	40	4234
2026-01-28 14:45:16.79	186.57	25.77	-34.9	-36.2	21.9	0.00e+00	0	44	0	1225785344	40	4120
2026-01-28 14:45:20.76	187.00	26.39	-34.7	-36.0	22.0	0.00e+00	0	44	0	1254096896	40	4045
2026-01-28 14:45:24.74	187.44	27.03	-34.8	-36.1	21.9	0.00e+00	0	44	0	1282408448	40	4095
2026-01-28 14:45:28.70	187.89	27.67	-35.0	-36.4	21.8	0.00e+00	0	44	0	1311768576	40	4195
2026-01-28 14:45:32.68	188.37	28.34	-34.9	-36.2	22.0	0.00e+00	0	44	0	1340080128	40	4118
2026-01-28 14:45:36.65	188.87	29.01	-34.6	-35.8	22.4	0.00e+00	0	44	0	1368391680	39	4186
2026-01-28 14:45:40.62	189.38	29.70	-34.6	-35.8	22.4	0.00e+00	0	44	0	1397751808	39	4176
2026-01-28 14:45:44.59	189.92	30.40	-34.9	-36.1	22.2	0.00e+00	0	44	0	1426063360	39	4335
2026-01-28 14:45:48.56	190.48	31.12	-35.0	-36.3	22.0	0.00e+00	0	44	0	1454374912	39	4416
2026-01-28 14:45:52.53	191.07	31.86	-34.9	-36.2	22.1	0.00e+00	0	44	0	1483735040	39	4369
2026-01-28 14:45:56.50	191.68	32.60	-34.6	-36.0	22.3	0.00e+00	0	44	0	1512046592	39	4250
2026-01-28 14:46:00.48	192.32	33.37	-34.7	-36.1	22.2	0.00e+00	0	44	0	1540358144	39	4302
2026-01-28 14:46:04.45	193.00	34.15	-34.4	-35.7	22.5	0.00e+00	0	44	0	1569718272	39	4123
2026-01-28 14:46:08.42	193.70	34.95	-34.6	-35.8	22.4	0.00e+00	0	44	0	1598029824	39	4179
2026-01-28 14:46:12.39	194.44	35.76	-35.0	-36.3	22.0	0.00e+00	0	44	0	1626341376	39	4408
2026-01-28 14:46:16.36	195.22	36.58	-35.0	-36.4	21.8	0.00e+00	0	44	0	1655701504	39	4450
2026-01-28 14:46:20.33	196.03	37.42	-34.7	-36.0	22.3	0.00e+00	0	44	0	1684013056	39	4259
2026-01-28 14:46:24.30	196.89	38.28	-35.2	-36.6	21.8	0.00e+00	0	44	0	1713373184	39	4580
2026-01-28 14:46:28.27	197.80	39.15	-34.9	-36.2	22.2	0.00e+00	0	44	0	1741684736	40	4122
2026-01-28 14:46:32.25	198.75	40.04	-35.5	-36.8	21.6	0.00e+00	0	44	0	1769996288	40	4441
2026-01-28 14:46:36.22	199.76	40.94	-34.9	-36.2	22.1	0.00e+00	0	44	0	1798307840	40	4135
2026-01-28 14:46:40.19	200.83	41.85	-34.8	-36.0	22.2	0.00e+00	0	44	0	1827667968	40	4038
2026-01-28 14:46:44.16	201.95	42.77	-35.4	-36.8	21.7	0.00e+00	0	44	0	1855979520	40	4392
2026-01-28 14:46:48.13	203.14	43.70	-35.4	-36.7	21.8	0.00e+00	0	44	0	1884291072	40	4369
2026-01-28 14:46:52.10	204.41	44.65	-35.2	-36.5	21.9	0.00e+00	0	44	0	1913651200	40	4265
2026-01-28 14:46:56.08	205.75	45.60	-35.3	-36.6	21.8	0.00e+00	0	44	0	1941962752	40	4330
2026-01-28 14:47:00.05	207.17	46.55	-35.8	-36.7	22.5	0.00e+00	0	44	0	1971322880	41	4120
2026-01-28 14:47:04.02	208.68	47.50	-36.6	-37.5	21.7	0.00e+00	0	44	0	1999634432	43	4049
2026-01-28 14:47:07.99	210.28	48.46	-36.1	-37.0	22.2	0.00e+00	0	44	0	2027945984	43	3792
2026-01-28 14:47:11.97	211.99	49.41	-36.1	-36.9	22.3	0.00e+00	0	44	0	2057306112	42	3997
2026-01-28 14:47:15.94	213.80	50.35	-36.9	-37.8	21.5	0.00e+00	0	44	0	2085617664	43	4170
2026-01-28 14:47:19.91	215.73	51.28	-37.0	-37.9	21.6	0.00e+00	0	44	0	2113929216	44	3974
2026-01-28 14:47:23.88	217.77	52.19	-36.7	-37.5	21.7	0.00e+00	0	44	0	2142240768	43	4049
2026-01-28 14:47:27.85	219.95	53.08	-36.6	-37.5	21.8	0.00e+00	0	44	0	2171600896	43	4026
2026-01-28 14:47:31.82	222.25	53.94	-36.9	-37.9	21.5	0.00e+00	0	44	0	2199912448	43	4204
2026-01-28 14:47:35.79	224.70	54.76	-36.7	-37.6	21.6	0.00e+00	0	44	0	2228224000	43	4076
2026-01-28 14:47:39.77	227.29	55.55	-36.5	-37.3	21.9	0.00e+00	0	44	0	2257584128	43	3950
2026-01-28 14:47:43.74	230.02	56.28	-36.8	-37.7	21.5	0.00e+00	0	44	0	2285895680	43	4128
2026-01-28 14:47:47.71	232.89	56.96	-37.1	-38.0	21.5	0.00e+00	0	44	0	2315255808	44	4042
2026-01-28 14:47:51.68	235.89	57.57	-36.4	-37.3	22.0	0.00e+00	0	44	0	2343567360	43	3918
2026-01-28 14:47:55.65	239.03	58.12	-36.3	-37.2	22.1	0.00e+00	0	44	0	2371878912	43	3877
2026-01-28 14:47:59.62	242.28	58.58	-36.5	-37.4	21.9	0.00e+00	0	44	0	2401239040	43	3965
2026-01-28 14:48:03.58	245.64	58.96	-36.7	-37.5	21.8	0.00e+00	0	44	0	2429550592	43	4050
2026-01-28 14:48:07.55	249.08	59.25	-36.9	-37.8	21.4	0.00e+00	0	44	0	2457862144	43	4181
2026-01-28 14:48:11.52	252.59	59.45	-36.8	-37.6	21.8	0.00e+00	0	44	0	2487222272	44	3868
2026-01-28 14:48:15.49	256.14	59.54	-36.4	-37.2	22.1	0.00e+00	0	44	0	2515533824	43	3903
2026-01-28 14:48:19.46	259.70	59.54	-36.5	-37.3	22.0	0.00e+00	0	44	0	2543845376	43	3954
2026-01-28 14:48:23.44	263.26	59.44	-36.9	-37.8	21.5	0.00e+00	0	44	0	2572156928	43	4184
2026-01-28 14:48:27.41	266.76	59.25	-36.8	-37.7	21.6	0.00e+00	0	44	0	2601517056	43	4108
2026-01-28 14:48:31.38	270.21	58.96	-36.9	-37.7	21.6	0.00e+00	0	44	0	2629828608	43	4142
2026-01-28 14:48:35.35	273.56	58.57	-36.7	-37.6	21.7	0.00e+00	0	44	0	2659188736	43	4080
2026-01-28 14:48:39.31	276.80	58.11	-36.6	-37.5	21.7	0.00e+00	0	44	0	2687500288	43	4036
2026-01-28 14:48:43.28	279.93	57.57	-37.8	-38.8	20.8	0.00e+00	0	44	0	2715811840	45	4150
2026-01-28 14:48:47.25	282.93	56.95	-36.9	-37.8	21.6	0.00e+00	0	44	0	2745171968	44	3944
2026-01-28 14:48:51.22	285.80	56.28	-37.1	-38.0	21.4	0.00e+00	0	44	0	2773483520	44	4028
2026-01-28 14:48:55.19	288.52	55.54	-36.9	-37.8	21.5	0.00e+00	0	44	0	2801795072	44	3941
2026-01-28 14:48:59.17	291.10	54.76	-37.1	-38.0	21.5	0.00e+00	0	44	0	2831155200	44	4020
2026-01-28 14:49:03.14	293.54	53.94	-36.4	-37.2	22.0	0.00e+00	0	44	0	2859466752	43	3910
2026-01-28 14:49:07.11	295.84	53.08	-37.1	-38.0	21.3	0.00e+00	0	44	0	2887778304	43	4258
2026-01-28 14:49:11.08	298.01	52.19	-37.4	-38.4	20.8	0.00e+00	0	44	0	2916089856	44	4199
2026-01-28 14:49:15.05	300.05	51.29	-36.7	-37.6	21.9	0.00e+00	0	44	0	2945449984	44	3825
2026-01-28 14:49:19.02	301.97	50.36	-37.0	-37.9	21.6	0.00e+00	0	44	0	2973761536	44	3980
2026-01-28 14:49:22.99	303.78	49.42	-36.7	-37.6	21.9	0.00e+00	0	44	0	3003121664	44	3828
2026-01-28 14:49:26.96	305.48	48.48	-36.9	-37.8	21.6	0.00e+00	0	44	0	3031433216	44	3947
2026-01-28 14:49:30.93	307.08	47.53	-36.3	-37.1	22.1	0.00e+00	0	44	0	3059744768	43	3865
2026-01-28 14:49:34.90	308.58	46.58	-36.1	-37.0	22.3	0.00e+00	0	44	0	3089104896	42	4006
2026-01-28 14:49:38.88	310.01	45.63	-35.7	-36.6	22.6	0.00e+00	0	44	0	3117416448	42	3847
2026-01-28 14:49:42.85	311.34	44.68	-35.4	-36.2	22.9	0.00e+00	0	44	0	3145728000	41	3895
2026-01-28 14:49:46.82	312.60	43.74	-35.2	-36.0	23.0	0.00e+00	0	44	0	3175088128	40	4018
2026-01-28 14:49:50.79	313.79	42.82	-35.8	-36.7	22.3	0.00e+00	0	44	0	3203399680	40	4342
2026-01-28 14:49:54.76	314.92	41.90	-35.5	-36.4	22.7	0.00e+00	0	44	0	3231711232	41	3974
2026-01-28 14:49:58.73	315.98	40.99	-35.3	-36.2	22.9	0.00e+00	0	44	0	3261071360	41	3882
2026-01-28 14:50:02.70	316.99	40.10	-35.4	-36.3	22.8	0.00e+00	0	44	0	3289382912	41	3917
2026-01-28 14:50:06.67	317.94	39.21	-35.5	-36.4	22.7	0.00e+00	0	44	0	3317694464	41	3972
2026-01-28 14:50:10.64	318.84	38.35	-35.2	-36.1	23.0	0.00e+00	0	44	0	3347054592	41	3839
2026-01-28 14:50:14.61	319.70	37.50	-35.1	-36.0	23.1	0.00e+00	0	44	0	3375366144	40	4007
2026-01-28 14:50:18.58	320.52	36.66	-35.0	-35.8	23.2	0.00e+00	0	44	0	3404726272	40	3938
2026-01-28 14:50:22.55	321.30	35.84	-35.1	-36.0	23.0	0.00e+00	0	44	0	3433037824	40	4032
2026-01-28 14:50:26.52	322.03	35.03	-35.4	-36.3	22.8	0.00e+00	0	44	0	3461349376	40	4149
2026-01-28 14:50:30.49	322.74	34.24	-35.0	-35.9	23.1	0.00e+00	0	44	0	3489660928	40	3975
2026-01-28 14:50:34.46	323.41	33.46	-34.7	-35.5	23.5	0.00e+00	0	44	0	3519021056	39	4025
2026-01-28 14:50:38.44	324.06	32.70	-35.1	-35.9	23.0	0.00e+00	0	44	0	3547332608	39	4238
2026-01-28 14:50:42.41	324.67	31.95	-35.5	-36.3	22.7	0.00e+00	0	44	0	3575644160	40	4188
2026-01-28 14:50:46.38	325.26	31.22	-35.2	-36.0	23.0	0.00e+00	0	44	0	3605004288	40	4038
2026-01-28 14:50:50.35	325.82	30.51	-35.0	-35.8	23.2	0.00e+00	0	44	0	3633315840	40	3952
2026-01-28 14:50:54.32	326.36	29.81	-35.0	-35.9	23.1	0.00e+00	0	44	0	3661627392	40	3970
2026-01-28 14:50:58.29	326.88	29.12	-35.3	-36.2	22.8	0.00e+00	0	44	0	3690987520	40	4107
2026-01-28 14:51:02.26	327.37	28.45	-35.4	-36.3	22.8	0.00e+00	0	44	0	3719299072	40	4172
2026-01-28 14:51:06.24	327.85	27.79	-35.5	-36.4	22.7	0.00e+00	0	44	0	3748659200	40	4201
2026-01-28 14:51:10.21	328.31	27.15	-35.5	-36.4	22.7	0.00e+00	0	44	0	3776970752	40	4197
2026-01-28 14:51:14.18	328.75	26.52	-35.5	-36.4	22.5	0.00e+00	0	44	0	3805282304	40	4211
2026-01-28 14:51:18.15	329.17	25.90	-35.6	-36.5	22.6	0.00e+00	0	44	0	3833593856	40	4243
2026-01-28 14:51:22.12	329.58	25.29	-35.5	-36.4	22.6	0.00e+00	0	44	0	3862953984	40	4223
2026-01-28 14:51:26.09	329.98	24.70	-35.5	-36.4	22.6	0.00e+00	0	44	0	3891265536	40	4209
2026-01-28 14:51:30.06	330.36	24.12	-35.5	-36.3	22.7	0.00e+00	0	44	0	3919577088	40	4184
2026-01-28 14:51:34.04	330.73	23.55	-35.5	-36.4	22.7	0.00e+00	0	44	0	3948937216	40	4199
2026-01-28 14:51:38.01	331.08	22.99	-35.5	-36.4	22.6	0.00e+00	0	44	0	3977248768	40	4196
2026-01-28 14:51:41.98	331.42	22.44	-35.6	-36.5	22.5	0.00e+00	0	44	0	4005560320	40	4268
2026-01-28 14:51:45.95	331.76	21.90	-35.8	-36.7	22.3	0.00e+00	0	44	0	4034920448	41	4138
2026-01-28 14:51:49.92	332.08	21.38	-36.0	-36.9	22.1	0.00e+00	0	44	0	4063232000	41	4235
2026-01-28 14:51:53.90	332.39	20.86	-36.3	-37.2	21.9	0.00e+00	0	44	0	4092592128	42	4135
2026-01-28 14:51:57.87	332.69	20.35	-36.4	-37.3	21.8	0.00e+00	0	44	0	4120903680	42	4149
2026-01-28 14:52:01.84	332.99	19.86	-36.5	-37.4	21.7	0.00e+00	0	44	0	4149215232	42	4203
2026-01-28 14:52:05.81	333.27	19.37	-36.5	-37.4	21.7	0.00e+00	0	44	0	4177526784	42	4223
2026-01-28 14:52:09.78	333.54	18.89	-36.5	-37.5	21.6	0.00e+00	0	44	0	4206886912	42	4257
2026-01-28 14:52:13.75	333.81	18.42	-36.5	-37.5	21.6	0.00e+00	0	44	0	4235198464	42	4244
2026-01-28 14:52:17.73	334.07	17.95	-36.6	-37.6	21.5	0.00e+00	0	44	0	4263510016	42	4295
2026-01-28 14:52:21.70	334.33	17.50	-36.6	-37.6	21.5	0.00e+00	0	44	0	4292870144	42	4300
2026-01-28 14:52:25.67	334.57	17.05	-36.8	-37.7	21.4	0.00e+00	0	44	0	4321181696	43	4127
2026-01-28 14:52:29.64	334.81	16.61	-37.0	-38.0	21.1	0.00e+00	0	44	0	4350541824	43	4245
2026-01-28 14:52:33.62	335.04	16.18	-37.2	-38.1	21.0	0.00e+00	0	44	0	4378853376	43	4331
2026-01-28 14:52:37.59	335.27	15.76	-37.5	-38.4	20.8	0.00e+00	0	44	0	4407164928	44	4229
2026-01-28 14:52:41.56	335.49	15.34	-37.6	-38.6	20.7	0.00e+00	0	44	0	4436525056	44	4316
2026-01-28 14:52:45.53	335.71	14.93	-37.6	-38.6	20.6	0.00e+00	0	44	0	4464836608	44	4335
2026-01-28 14:52:49.50	335.92	14.52	-37.6	-38.6	20.5	0.00e+00	0	44	0	4493148160	44	4334
2026-01-28 14:52:53.48	336.12	14.13	-37.6	-38.5	20.7	0.00e+00	0	44	0	4522508288	44	4279
2026-01-28 14:52:57.45	336.32	13.73	-37.6	-38.6	20.6	0.00e+00	0	44	0	4550819840	44	4304
2026-01-28 14:53:01.42	336.52	13.35	-37.7	-38.8	20.4	0.00e+00	0	44	0	4579131392	45	4153
2026-01-28 14:53:05.39	336.71	12.97	-37.7	-38.7	20.5	0.00e+00	0	44	0	4608491520	45	4129
2026-01-28 14:53:09.36	336.89	12.59	-38.0	-39.0	20.2	0.00e+00	0	44	0	4636803072	45	4283
2026-01-28 14:53:13.33	337.08	12.23	-38.0	-39.1	20.0	0.00e+00	0	44	0	4666163200	45	4321
2026-01-28 14:53:17.31	337.26	11.86	-38.2	-39.3	19.8	0.00e+00	0	44	0	4694474752	45	4432
2026-01-28 14:53:21.28	337.43	11.50	-38.4	-39.6	19.6	0.00e+00	0	44	0	4722786304	46	4316
2026-01-28 14:53:25.25	337.60	11.15	-38.5	-39.7	19.5	0.00e+00	0	44	0	4751097856	46	4359
2026-01-28 14:53:29.22	337.77	10.80	-38.7	-39.8	19.4	0.00e+00	0	44	0	4780457984	47	4151
2026-01-28 14:53:33.19	337.93	10.46	-38.9	-40.0	19.1	0.00e+00	0	44	0	4808769536	47	4291
2026-01-28 14:53:37.16	338.09	10.12	-38.9	-40.1	19.0	0.00e+00	0	44	0	4837081088	47	4331
2026-01-28 14:53:41.14	338.25	9.78	-38.9	-40.1	19.0	0.00e+00	0	44	0	4866441216	47	4322
2026-01-28 14:53:45.11	338.40	9.45	-39.1	-40.3	18.8	0.00e+00	0	44	0	4894752768	47	4414
2026-01-28 14:53:49.08	338.55	9.13	-39.0	-40.2	18.9	0.00e+00	0	44	0	4923064320	47	4375
2026-01-28 14:53:53.05	338.70	8.80	-49.8	-60.9	3.8	8.47e-01	0	44	104	4937744384	68	14087
2026-01-28 14:53:57.02	338.84	8.49	-48.1	-60.4	3.8	8.46e-01	0	44	104	4937744384	67	14053
2026-01-28 14:54:01.00	338.99	8.17	-49.1	-60.6	3.8	8.47e-01	0	44	104	4937744384	68	13585
2026-01-28 14:54:04.97	339.12	7.86	-49.8	-60.7	3.8	8.46e-01	0	44	104	4937744384	69	12976
2026-01-28 14:54:08.94	339.26	7.55	-49.7	-60.6	3.8	8.47e-01	0	44	104	4937744384	69	12957
2026-01-28 14:54:12.91	339.40	7.25	-49.7	-60.6	3.8	8.48e-01	0	44	104	4937744384	69	12903
2026-01-28 14:54:16.89	339.53	6.95	-49.7	-60.6	3.8	8.46e-01	0	44	104	4937744384	69	12909
2026-01-28 14:54:20.86	339.66	6.65	-49.6	-60.6	3.8	8.47e-01	0	44	104	4937744384	69	12873
2026-01-28 14:54:24.83	339.78	6.36	-49.6	-60.6	3.8	8.46e-01	0	44	104	4937744384	69	12891
2026-01-28 14:54:28.80	339.91	6.07	-49.7	-60.6	3.8	8.47e-01	0	44	104	4937744384	69	12903
2026-01-28 14:54:32.77	340.03	5.78	-49.6	-60.5	3.8	8.48e-01	0	44	104	4937744384	69	12783
2026-01-28 14:54:36.74	340.15	5.50	-49.6	-60.6	3.8	8.46e-01	0	44	104	4937744384	69	12867
2026-01-28 14:54:40.72	340.27	5.22	-49.6	-60.6	3.8	8.48e-01	0	44	104	4937744384	69	12846

#Closed at: 2026-01-28 14:54:44
#Recorded file [4937 MB]: D:/Data/31040_260128_174154.dat