passes_logs/2026/01/28/T1/T1__20260128_072611_NOAA_20_JPSS-1_rec.log

#Pass ID: 20260128_072611_NOAA 20 (JPSS-1)
#Satellite: NOAA 20 (JPSS-1)
#Configuration: NOAA 20
#almurnet v.1.7.20251203
#Start time: 2026-01-28 07:26:12

#Version: 2.0.20230620
#Station: T1
#Location: 37.570604 lon 55.790049 lat
#TLE: 1 43013U 17073A   26027.80586608  .00000156  00000+0  94940-4 0  9998
#TLE: 2 43013  98.7647 328.6108 0000947  21.3465 338.7750 14.19541216424550

#Time	Az	El	Level	Level2	SNR	BER	BlckErr	Temp	State	Recorded	gain1	gain2
2026-01-28 07:26:12.31	78.68	5.03	-49.7	-65.3	3.8	1.49e+00	0	37	0	0	70	22440
2026-01-28 07:26:14.31	78.45	5.12	-50.2	-65.3	3.8	1.49e+00	0	37	104	0	71	21258
2026-01-28 07:26:16.31	78.21	5.21	-50.1	-65.4	3.8	1.49e+00	0	37	104	0	71	21330
2026-01-28 07:26:18.31	77.97	5.30	-50.2	-65.3	3.8	1.49e+00	0	37	104	0	71	21251
2026-01-28 07:26:20.30	77.73	5.39	-50.1	-65.4	3.8	1.49e+00	0	37	104	0	71	21305
2026-01-28 07:26:22.30	77.49	5.48	-49.9	-65.4	3.8	1.49e+00	0	38	104	0	71	21295
2026-01-28 07:26:24.29	77.25	5.57	-50.1	-65.3	3.8	1.49e+00	0	37	104	0	71	21140
2026-01-28 07:26:26.29	77.01	5.66	-50.1	-65.3	3.8	1.49e+00	0	38	104	0	71	21036
2026-01-28 07:26:28.28	76.76	5.75	-49.9	-65.1	3.8	1.49e+00	0	38	104	0	71	20774
2026-01-28 07:26:30.28	76.52	5.84	-49.7	-65.0	3.8	1.49e+00	0	37	104	0	71	20394
2026-01-28 07:26:32.28	76.27	5.93	-49.4	-64.6	3.8	1.49e+00	0	38	104	0	70	20747
2026-01-28 07:26:34.28	76.02	6.02	-49.4	-64.6	3.8	1.49e+00	0	38	104	0	70	20654
2026-01-28 07:26:36.28	75.76	6.11	-49.4	-64.6	3.8	1.49e+00	0	38	104	0	70	20736
2026-01-28 07:26:38.27	75.51	6.20	-49.4	-64.6	3.8	1.49e+00	0	38	104	0	70	20621
2026-01-28 07:26:40.27	75.26	6.29	-49.4	-64.6	3.8	1.49e+00	0	38	104	0	70	20645
2026-01-28 07:26:42.26	75.00	6.37	-49.3	-64.6	3.8	1.49e+00	0	38	104	0	70	20615
2026-01-28 07:26:44.26	74.74	6.46	-49.3	-64.6	3.8	1.49e+00	0	38	104	0	70	20574
2026-01-28 07:26:46.26	74.48	6.55	-49.3	-64.6	3.8	1.49e+00	0	38	104	0	70	20594
2026-01-28 07:26:48.26	74.22	6.64	-49.3	-64.6	3.8	1.49e+00	0	38	104	0	70	20603
2026-01-28 07:26:50.26	73.96	6.72	-49.3	-64.5	3.8	1.49e+00	0	38	104	0	70	20529
2026-01-28 07:26:52.25	73.69	6.81	-49.3	-64.5	3.8	1.49e+00	0	39	104	0	70	20414
2026-01-28 07:26:54.25	73.43	6.90	-49.3	-64.5	3.8	1.49e+00	0	38	104	0	70	20504
2026-01-28 07:26:56.24	73.16	6.98	-49.3	-64.5	3.8	1.49e+00	0	38	104	0	70	20500
2026-01-28 07:26:58.23	72.89	7.07	-49.3	-64.5	3.8	1.49e+00	0	38	104	0	70	20429
2026-01-28 07:27:00.23	72.62	7.15	-49.3	-64.5	3.8	1.49e+00	0	39	104	0	70	20332
2026-01-28 07:27:02.22	72.35	7.24	-49.3	-64.4	3.8	1.49e+00	0	39	104	0	70	20277
2026-01-28 07:27:04.22	72.07	7.32	-49.3	-64.5	3.8	1.49e+00	0	39	104	0	70	20366
2026-01-28 07:27:06.22	71.80	7.41	-49.3	-64.4	3.8	1.49e+00	0	39	104	0	70	20289
2026-01-28 07:27:08.20	71.52	7.49	-49.3	-64.4	3.8	1.49e+00	0	39	104	0	70	20274
2026-01-28 07:27:10.20	71.24	7.57	-49.3	-64.3	3.8	1.49e+00	0	39	104	0	70	20033
2026-01-28 07:27:12.20	70.96	7.66	-49.3	-64.3	3.8	1.49e+00	0	39	104	0	70	19909
2026-01-28 07:27:14.20	70.68	7.74	-49.3	-64.4	3.8	1.49e+00	0	39	104	0	70	20116
2026-01-28 07:27:16.20	70.40	7.82	-49.3	-64.4	3.8	1.49e+00	0	39	104	0	70	20237
2026-01-28 07:27:18.19	70.11	7.91	-49.3	-64.4	3.8	1.49e+00	0	39	104	0	70	20191
2026-01-28 07:27:20.19	69.82	7.99	-49.3	-64.0	3.8	1.49e+00	0	39	104	0	70	19352
2026-01-28 07:27:22.19	69.54	8.07	-49.2	-63.8	3.8	1.49e+00	0	39	104	0	70	18792
2026-01-28 07:27:24.19	69.24	8.15	-49.3	-63.9	3.8	1.49e+00	0	39	104	0	70	19072
2026-01-28 07:27:26.18	68.95	8.23	-49.3	-64.1	3.8	1.49e+00	0	39	104	0	70	19472
2026-01-28 07:27:28.18	68.66	8.31	-49.3	-64.0	3.8	1.49e+00	0	39	104	0	70	19346
2026-01-28 07:27:30.18	68.36	8.39	-49.2	-62.9	3.8	1.49e+00	0	39	104	0	70	16911
2026-01-28 07:27:32.18	68.07	8.47	-49.1	-61.8	4.0	1.47e+00	0	39	104	0	70	14894
2026-01-28 07:27:34.18	67.77	8.55	-49.2	-62.7	3.8	1.49e+00	0	39	104	0	70	16573
2026-01-28 07:27:36.18	67.47	8.63	-48.1	-55.4	7.7	4.21e-01	0	39	0	2097152	68	8039
2026-01-28 07:27:38.18	67.16	8.71	-45.9	-49.9	13.3	1.36e-04	0	39	0	5242880	63	5698
2026-01-28 07:27:40.18	66.86	8.78	-44.5	-47.7	15.6	0.00e+00	0	39	0	9437184	61	4976
2026-01-28 07:27:42.17	66.56	8.86	-45.2	-48.8	14.5	0.00e+00	0	39	0	12582912	61	5603
2026-01-28 07:27:44.17	66.25	8.94	-47.0	-52.4	10.7	9.08e-04	0	39	0	16777216	64	7201
2026-01-28 07:27:46.17	65.94	9.01	-48.9	-59.4	4.8	3.05e-01	0	39	0	20971520	68	12723
2026-01-28 07:27:48.17	65.63	9.09	-47.0	-52.1	11.2	3.81e-04	0	39	0	24117248	65	6497
2026-01-28 07:27:50.17	65.32	9.16	-46.3	-50.7	12.6	5.15e-01	0	39	0	25165824	64	5917
2026-01-28 07:27:52.17	65.00	9.24	-46.1	-50.4	13.0	2.70e-04	0	39	0	29360128	63	5993
2026-01-28 07:27:54.17	64.69	9.31	-45.2	-48.8	14.6	7.00e-07	0	39	0	32505856	62	5289
2026-01-28 07:27:56.17	64.37	9.38	-44.5	-47.7	15.7	0.00e+00	0	39	0	36700160	61	4937
2026-01-28 07:27:58.16	64.06	9.45	-44.4	-47.4	15.9	0.00e+00	0	39	0	39845888	60	5095
2026-01-28 07:28:00.14	63.74	9.52	-44.3	-47.4	16.0	0.00e+00	0	39	0	44040192	60	5053
2026-01-28 07:28:02.14	63.42	9.60	-44.1	-47.2	16.2	0.00e+00	0	39	0	47185920	60	4939
2026-01-28 07:28:04.13	63.10	9.67	-44.2	-47.2	16.2	0.00e+00	0	39	0	51380224	60	4970
2026-01-28 07:28:06.13	62.77	9.74	-44.3	-47.4	16.0	0.00e+00	0	39	0	55574528	60	5045
2026-01-28 07:28:08.12	62.45	9.80	-44.0	-47.0	16.4	0.00e+00	0	39	0	58720256	60	4843
2026-01-28 07:28:10.12	62.12	9.87	-44.1	-47.1	16.3	0.00e+00	0	39	0	62914560	60	4895
2026-01-28 07:28:12.11	61.79	9.94	-44.1	-47.0	16.4	0.00e+00	0	40	0	66060288	60	4856
2026-01-28 07:28:14.11	61.46	10.01	-44.0	-47.0	16.4	0.00e+00	0	39	0	70254592	60	4839
2026-01-28 07:28:16.10	61.13	10.07	-44.0	-47.0	16.4	0.00e+00	0	39	0	73400320	59	5113
2026-01-28 07:28:18.09	60.80	10.14	-44.1	-47.1	16.3	0.00e+00	0	39	0	77594624	59	5180
2026-01-28 07:28:20.09	60.46	10.20	-44.0	-46.9	16.4	0.00e+00	0	39	0	80740352	59	5083
2026-01-28 07:28:22.08	60.13	10.26	-44.2	-47.2	16.2	0.00e+00	0	40	0	84934656	59	5236
2026-01-28 07:28:24.06	59.79	10.33	-44.2	-47.1	16.3	0.00e+00	0	40	0	89128960	59	5191
2026-01-28 07:28:26.06	59.45	10.39	-44.3	-47.2	16.1	0.00e+00	0	40	0	92274688	59	5277
2026-01-28 07:28:28.06	59.11	10.45	-44.1	-47.0	16.4	0.00e+00	0	40	0	96468992	59	5109
2026-01-28 07:28:30.05	58.77	10.51	-44.1	-47.1	16.3	0.00e+00	0	40	0	99614720	59	5160
2026-01-28 07:28:32.05	58.43	10.57	-44.1	-47.0	16.4	0.00e+00	0	40	0	103809024	59	5142
2026-01-28 07:28:34.03	58.09	10.63	-44.1	-47.0	16.4	0.00e+00	0	40	0	106954752	59	5114
2026-01-28 07:28:36.02	57.74	10.68	-44.1	-47.0	16.4	0.00e+00	0	40	0	111149056	59	5123
2026-01-28 07:28:38.02	57.39	10.74	-44.2	-47.1	16.3	0.00e+00	0	40	0	115343360	59	5181
2026-01-28 07:28:40.00	57.05	10.80	-44.1	-47.0	16.4	0.00e+00	0	40	0	118489088	59	5145
2026-01-28 07:28:42.00	56.70	10.85	-44.0	-46.9	16.5	0.00e+00	0	40	0	122683392	59	5081
2026-01-28 07:28:44.00	56.34	10.91	-44.0	-46.9	16.5	0.00e+00	0	39	0	125829120	59	5090
2026-01-28 07:28:46.00	55.99	10.96	-43.9	-46.8	16.6	0.00e+00	0	40	0	130023424	59	5022
2026-01-28 07:28:47.99	55.64	11.01	-44.0	-46.8	16.6	0.00e+00	0	40	0	133169152	59	5018
2026-01-28 07:28:50.00	55.28	11.06	-43.9	-46.8	16.7	0.00e+00	0	40	0	137363456	59	4987
2026-01-28 07:28:52.00	54.92	11.11	-44.1	-47.0	16.4	0.00e+00	0	40	0	141557760	59	5147
2026-01-28 07:28:53.99	54.57	11.16	-44.1	-47.0	16.4	0.00e+00	0	40	0	144703488	59	5137
2026-01-28 07:28:55.99	54.21	11.21	-44.1	-47.0	16.4	0.00e+00	0	40	0	148897792	59	5154
2026-01-28 07:28:57.99	53.85	11.26	-44.2	-47.2	16.3	0.00e+00	0	40	0	152043520	59	5227
2026-01-28 07:28:59.98	53.48	11.31	-44.3	-47.3	16.1	0.00e+00	0	40	0	156237824	59	5316
2026-01-28 07:29:01.98	53.12	11.35	-44.3	-47.4	16.1	0.00e+00	0	40	0	159383552	59	5353
2026-01-28 07:29:03.97	52.76	11.40	-44.4	-47.4	16.0	0.00e+00	0	40	0	163577856	59	5384
2026-01-28 07:29:05.97	52.39	11.44	-44.4	-47.4	16.0	0.00e+00	0	40	0	167772160	59	5385
2026-01-28 07:29:07.96	52.03	11.48	-44.3	-47.3	16.2	0.00e+00	0	40	0	170917888	59	5296
2026-01-28 07:29:09.96	51.66	11.52	-44.2	-47.2	16.3	0.00e+00	0	40	0	175112192	59	5225
2026-01-28 07:29:11.95	51.30	11.56	-44.3	-47.3	16.2	0.00e+00	0	40	0	178257920	59	5298
2026-01-28 07:29:13.94	50.93	11.60	-44.1	-47.1	16.4	0.00e+00	0	40	0	182452224	59	5179
2026-01-28 07:29:15.94	50.56	11.64	-44.3	-47.3	16.2	0.00e+00	0	40	0	185597952	59	5310
2026-01-28 07:29:17.94	50.19	11.68	-44.2	-47.2	16.3	0.00e+00	0	40	0	189792256	59	5246
2026-01-28 07:29:19.94	49.81	11.71	-44.0	-47.0	16.5	0.00e+00	0	40	0	193986560	59	5112
2026-01-28 07:29:21.94	49.44	11.75	-44.0	-46.9	16.5	0.00e+00	0	40	0	197132288	59	5088
2026-01-28 07:29:23.94	49.07	11.78	-44.1	-47.1	16.4	0.00e+00	0	40	0	201326592	59	5166
2026-01-28 07:29:25.94	48.69	11.81	-43.9	-46.7	16.7	0.00e+00	0	40	0	204472320	59	4966
2026-01-28 07:29:27.94	48.32	11.84	-43.9	-46.8	16.7	0.00e+00	0	40	0	208666624	59	4985
2026-01-28 07:29:29.93	47.94	11.87	-44.0	-46.9	16.6	0.00e+00	0	40	0	211812352	59	5050
2026-01-28 07:29:31.93	47.56	11.90	-43.8	-46.6	16.9	0.00e+00	0	40	0	216006656	59	4888
2026-01-28 07:29:33.92	47.19	11.93	-43.8	-46.6	16.9	0.00e+00	0	40	0	220200960	59	4884
2026-01-28 07:29:35.91	46.81	11.96	-43.7	-46.5	17.0	0.00e+00	0	40	0	223346688	59	4824
2026-01-28 07:29:37.91	46.43	11.98	-43.7	-46.4	17.1	0.00e+00	0	40	0	227540992	59	4796
2026-01-28 07:29:39.91	46.05	12.01	-43.7	-46.4	17.0	0.00e+00	0	40	0	230686720	59	4813
2026-01-28 07:29:41.90	45.67	12.03	-43.7	-46.4	17.1	0.00e+00	0	40	0	234881024	59	4778
2026-01-28 07:29:43.91	45.29	12.05	-43.7	-46.4	17.1	0.00e+00	0	40	0	238026752	59	4783
2026-01-28 07:29:45.91	44.91	12.07	-43.7	-46.4	17.1	0.00e+00	0	40	0	242221056	59	4790
2026-01-28 07:29:47.91	44.53	12.09	-43.6	-46.3	17.2	0.00e+00	0	40	0	245366784	59	4735
2026-01-28 07:29:49.90	44.15	12.11	-43.7	-46.5	17.0	0.00e+00	0	40	0	249561088	59	4833
2026-01-28 07:29:51.91	43.76	12.13	-43.7	-46.4	17.1	0.00e+00	0	40	0	253755392	59	4789
2026-01-28 07:29:53.90	43.38	12.14	-43.5	-46.2	17.3	0.00e+00	0	40	0	256901120	58	4929
2026-01-28 07:29:55.90	43.00	12.16	-43.4	-46.1	17.4	0.00e+00	0	40	0	261095424	58	4897
2026-01-28 07:29:57.89	42.61	12.17	-43.5	-46.2	17.2	0.00e+00	0	40	0	264241152	58	4974
2026-01-28 07:29:59.88	42.23	12.18	-43.6	-46.3	17.2	0.00e+00	0	40	0	268435456	58	5009
2026-01-28 07:30:01.88	41.85	12.19	-43.4	-46.1	17.4	0.00e+00	0	40	0	272629760	58	4893
2026-01-28 07:30:03.89	41.46	12.20	-43.3	-45.9	17.6	0.00e+00	0	40	0	275775488	58	4787
2026-01-28 07:30:05.89	41.07	12.21	-43.3	-45.9	17.5	0.00e+00	0	40	0	279969792	58	4807
2026-01-28 07:30:07.88	40.69	12.22	-43.4	-46.0	17.5	0.00e+00	0	40	0	283115520	58	4862
2026-01-28 07:30:09.88	40.30	12.22	-43.4	-46.0	17.5	0.00e+00	0	40	0	287309824	58	4838
2026-01-28 07:30:11.87	39.92	12.23	-43.5	-46.1	17.4	0.00e+00	0	40	0	290455552	58	4925
2026-01-28 07:30:13.87	39.53	12.23	-43.6	-46.2	17.3	0.00e+00	0	40	0	294649856	58	4979
2026-01-28 07:30:15.86	39.15	12.23	-43.5	-46.1	17.3	0.00e+00	0	40	0	297795584	58	4922
2026-01-28 07:30:17.86	38.76	12.23	-43.3	-45.9	17.6	0.00e+00	0	40	0	301989888	58	4783
2026-01-28 07:30:19.86	38.38	12.23	-43.3	-46.0	17.5	0.00e+00	0	40	0	306184192	58	4826
2026-01-28 07:30:21.86	37.99	12.23	-43.4	-46.1	17.3	0.00e+00	0	40	0	309329920	58	4911
2026-01-28 07:30:23.86	37.61	12.23	-43.6	-46.4	17.2	0.00e+00	0	40	0	313524224	58	5047
2026-01-28 07:30:25.86	37.22	12.22	-43.8	-46.7	16.8	0.00e+00	0	40	0	316669952	58	5219
2026-01-28 07:30:27.86	36.84	12.22	-43.9	-46.8	16.7	0.00e+00	0	40	0	320864256	58	5304
2026-01-28 07:30:29.86	36.45	12.21	-44.0	-47.0	16.5	0.00e+00	0	40	0	324009984	58	5447
2026-01-28 07:30:31.86	36.06	12.20	-44.0	-47.1	16.4	0.00e+00	0	40	0	328204288	58	5509
2026-01-28 07:30:33.85	35.68	12.19	-44.0	-47.1	16.4	0.00e+00	0	40	0	332398592	58	5506
2026-01-28 07:30:35.86	35.30	12.18	-44.1	-47.0	16.5	0.00e+00	0	41	0	335544320	58	5448
2026-01-28 07:30:37.85	34.91	12.17	-44.2	-47.1	16.4	0.00e+00	0	40	0	339738624	59	5185
2026-01-28 07:30:39.84	34.53	12.15	-44.3	-47.3	16.2	0.00e+00	0	40	0	342884352	59	5330
2026-01-28 07:30:41.85	34.15	12.14	-44.3	-47.3	16.2	0.00e+00	0	40	0	347078656	59	5318
2026-01-28 07:30:43.85	33.76	12.12	-44.3	-47.3	16.2	0.00e+00	0	40	0	351272960	59	5305
2026-01-28 07:30:45.85	33.38	12.11	-44.0	-46.9	16.6	0.00e+00	0	40	0	354418688	59	5089
2026-01-28 07:30:47.84	33.00	12.09	-43.9	-46.9	16.6	0.00e+00	0	40	0	358612992	59	5052
2026-01-28 07:30:49.84	32.62	12.07	-44.0	-47.1	16.4	0.00e+00	0	40	0	361758720	59	5181
2026-01-28 07:30:51.84	32.24	12.05	-44.0	-47.0	16.4	0.00e+00	0	40	0	365953024	59	5158
2026-01-28 07:30:53.84	31.86	12.03	-44.1	-47.1	16.4	0.00e+00	0	40	0	369098752	59	5208
2026-01-28 07:30:55.83	31.48	12.00	-44.1	-47.1	16.4	0.00e+00	0	40	0	373293056	59	5205
2026-01-28 07:30:57.83	31.10	11.98	-44.1	-47.0	16.5	0.00e+00	0	40	0	377487360	59	5136
2026-01-28 07:30:59.83	30.72	11.95	-44.1	-47.0	16.5	0.00e+00	0	40	0	380633088	59	5113
2026-01-28 07:31:01.83	30.34	11.93	-44.0	-46.9	16.5	0.00e+00	0	40	0	384827392	59	5091
2026-01-28 07:31:03.83	29.96	11.90	-44.0	-46.9	16.5	0.00e+00	0	40	0	387973120	59	5093
2026-01-28 07:31:05.82	29.59	11.87	-43.9	-46.8	16.6	0.00e+00	0	40	0	392167424	59	5023
2026-01-28 07:31:07.82	29.21	11.84	-43.9	-46.9	16.6	0.00e+00	0	40	0	395313152	59	5075
2026-01-28 07:31:09.82	28.84	11.81	-44.0	-47.0	16.5	0.00e+00	0	40	0	399507456	59	5115
2026-01-28 07:31:11.81	28.47	11.78	-43.8	-46.8	16.6	0.00e+00	0	40	0	403701760	59	5016
2026-01-28 07:31:13.80	28.10	11.74	-44.0	-47.0	16.4	0.00e+00	0	40	0	406847488	59	5158
2026-01-28 07:31:15.79	27.72	11.71	-44.2	-47.3	16.2	0.00e+00	0	40	0	411041792	59	5290
2026-01-28 07:31:17.79	27.35	11.67	-44.0	-47.0	16.4	0.00e+00	0	40	0	414187520	59	5147
2026-01-28 07:31:19.78	26.98	11.63	-44.0	-47.0	16.5	0.00e+00	0	40	0	418381824	59	5126
2026-01-28 07:31:21.79	26.61	11.60	-44.0	-47.0	16.5	0.00e+00	0	40	0	421527552	59	5134
2026-01-28 07:31:23.78	26.25	11.56	-43.9	-46.9	16.5	0.00e+00	0	40	0	425721856	59	5097
2026-01-28 07:31:25.76	25.88	11.52	-43.8	-47.0	16.4	0.00e+00	0	40	0	429916160	59	5115
2026-01-28 07:31:27.77	25.51	11.48	-43.9	-47.1	16.3	0.00e+00	0	40	0	433061888	59	5206
2026-01-28 07:31:29.77	25.15	11.43	-44.0	-47.3	16.1	0.00e+00	0	40	0	437256192	59	5291
2026-01-28 07:31:31.77	24.78	11.39	-43.9	-47.0	16.4	0.00e+00	0	40	0	440401920	59	5116
2026-01-28 07:31:33.76	24.42	11.35	-43.9	-46.8	16.5	0.00e+00	0	40	0	444596224	59	5038
2026-01-28 07:31:35.74	24.07	11.30	-43.8	-46.7	16.4	0.00e+00	0	40	0	447741952	59	4939
2026-01-28 07:31:37.74	23.70	11.25	-43.7	-46.6	16.2	0.00e+00	0	40	0	451936256	59	4903
2026-01-28 07:31:39.74	23.34	11.21	-43.9	-46.8	16.1	0.00e+00	0	40	0	455081984	59	5032
2026-01-28 07:31:41.73	22.99	11.16	-44.1	-47.0	16.5	0.00e+00	0	40	0	459276288	59	5129
2026-01-28 07:31:43.71	22.63	11.11	-43.9	-47.0	16.1	0.00e+00	0	40	0	463470592	59	5130
2026-01-28 07:31:45.70	22.28	11.06	-43.6	-46.9	15.5	0.00e+00	0	40	0	466616320	59	5068
2026-01-28 07:31:47.69	21.93	11.01	-43.5	-46.7	16.1	0.00e+00	0	40	0	470810624	59	4962
2026-01-28 07:31:49.68	21.58	10.96	-43.3	-46.5	16.8	0.00e+00	0	40	0	473956352	58	5148
2026-01-28 07:31:51.66	21.23	10.90	-43.4	-46.5	16.9	0.00e+00	0	40	0	478150656	58	5153
2026-01-28 07:31:53.66	20.88	10.85	-43.1	-46.3	16.1	0.00e+00	0	40	0	481296384	58	4988
2026-01-28 07:31:55.65	20.53	10.79	-41.3	-45.6	8.2	2.88e-03	0	40	0	485490688	54	5840
2026-01-28 07:31:57.65	20.18	10.74	-35.4	-43.1	3.8	1.48e+00	0	40	104	487587840	42	8724
2026-01-28 07:31:59.64	19.83	10.68	-37.5	-44.5	3.9	1.49e+00	0	40	104	487587840	45	8592
2026-01-28 07:32:01.64	19.49	10.62	-37.1	-45.9	3.8	1.49e+00	0	40	104	488636416	46	9599
2026-01-28 07:32:03.63	19.15	10.56	-42.4	-47.3	7.1	1.19e+00	0	40	0	489684992	57	5987
2026-01-28 07:32:05.62	18.81	10.50	-44.2	-48.6	9.0	1.45e-01	0	40	0	490733568	59	6137
2026-01-28 07:32:07.62	18.46	10.44	-44.2	-48.1	10.4	1.18e-02	0	40	0	494927872	59	5834
2026-01-28 07:32:09.62	18.12	10.38	-44.3	-47.3	16.0	0.00e+00	0	40	0	498073600	59	5334
2026-01-28 07:32:11.61	17.79	10.32	-43.9	-46.9	16.3	0.00e+00	0	40	0	502267904	59	5070
2026-01-28 07:32:13.60	17.45	10.26	-43.4	-46.4	16.0	0.00e+00	0	40	0	505413632	58	5081
2026-01-28 07:32:15.59	17.12	10.20	-43.1	-46.2	17.1	0.00e+00	0	40	0	509607936	58	4928
2026-01-28 07:32:17.59	16.79	10.13	-43.0	-46.2	16.4	0.00e+00	0	40	0	513802240	58	4947
2026-01-28 07:32:19.59	16.45	10.07	-43.0	-46.3	16.7	0.00e+00	0	40	0	516947968	57	5315
2026-01-28 07:32:21.59	16.12	10.00	-42.9	-46.3	17.1	0.00e+00	0	40	0	521142272	57	5282
2026-01-28 07:32:23.58	15.79	9.93	-43.1	-46.5	16.8	0.00e+00	0	40	0	524288000	57	5455
2026-01-28 07:32:25.58	15.47	9.87	-43.3	-46.7	16.6	0.00e+00	0	40	0	528482304	57	5549
2026-01-28 07:32:27.57	15.14	9.80	-43.4	-46.7	16.2	0.00e+00	0	40	0	531628032	57	5564
2026-01-28 07:32:29.56	14.82	9.73	-43.7	-46.9	16.0	0.00e+00	0	41	0	535822336	57	5689
2026-01-28 07:32:31.56	14.50	9.66	-43.7	-46.7	16.3	0.00e+00	0	40	0	538968064	58	5276
2026-01-28 07:32:33.55	14.18	9.59	-43.9	-47.0	16.3	0.00e+00	0	40	0	543162368	58	5440
2026-01-28 07:32:35.54	13.86	9.52	-44.0	-47.1	16.2	0.00e+00	0	40	0	547356672	58	5513
2026-01-28 07:32:37.54	13.54	9.45	-44.2	-47.4	16.0	0.00e+00	0	41	0	550502400	59	5368
2026-01-28 07:32:39.53	13.22	9.38	-44.3	-47.6	15.8	0.00e+00	0	40	0	554696704	59	5468
2026-01-28 07:32:41.53	12.91	9.30	-44.2	-47.6	15.8	0.00e+00	0	41	0	557842432	59	5491
2026-01-28 07:32:43.52	12.60	9.23	-44.4	-48.0	15.4	0.00e+00	0	41	0	562036736	59	5730
2026-01-28 07:32:45.51	12.29	9.16	-44.4	-48.1	15.3	0.00e+00	0	41	0	565182464	59	5802
2026-01-28 07:32:47.50	11.98	9.08	-44.5	-48.3	15.1	0.00e+00	0	41	0	569376768	59	5972
2026-01-28 07:32:49.49	11.67	9.01	-44.7	-48.8	14.7	0.00e+00	0	40	0	573571072	59	6334
2026-01-28 07:32:51.48	11.36	8.93	-48.2	-64.6	3.8	1.49e+00	0	41	104	574619648	68	23250
2026-01-28 07:32:53.48	11.06	8.86	-49.3	-64.9	3.8	1.49e+00	0	40	104	574619648	70	21505
2026-01-28 07:32:55.48	10.76	8.78	-49.4	-65.2	3.8	1.49e+00	0	40	104	574619648	70	22184
2026-01-28 07:32:57.47	10.45	8.70	-49.9	-65.4	3.8	1.49e+00	0	40	104	574619648	70	22563
2026-01-28 07:32:59.47	10.15	8.63	-49.8	-65.4	3.8	1.49e+00	0	40	104	574619648	70	22749
2026-01-28 07:33:01.47	9.86	8.55	-50.0	-65.4	3.8	1.49e+00	0	40	104	574619648	71	21415
2026-01-28 07:33:03.46	9.56	8.47	-49.9	-65.4	3.8	1.49e+00	0	40	104	574619648	71	21458
2026-01-28 07:33:05.46	9.26	8.39	-50.1	-65.5	3.8	1.49e+00	0	40	104	574619648	71	21552
2026-01-28 07:33:07.46	8.97	8.31	-50.1	-65.4	3.8	1.49e+00	0	40	104	574619648	71	21465
2026-01-28 07:33:09.46	8.68	8.23	-50.2	-65.4	3.8	1.49e+00	0	41	104	574619648	71	21441
2026-01-28 07:33:11.46	8.39	8.15	-50.0	-65.4	3.8	1.49e+00	0	40	104	574619648	71	21457
2026-01-28 07:33:13.46	8.10	8.07	-50.0	-65.4	3.8	1.49e+00	0	41	104	574619648	71	21464
2026-01-28 07:33:15.46	7.81	7.99	-50.2	-65.4	3.8	1.49e+00	0	41	104	574619648	71	21479
2026-01-28 07:33:17.46	7.52	7.91	-50.1	-65.4	3.8	1.49e+00	0	40	104	574619648	71	21369
2026-01-28 07:33:19.46	7.24	7.82	-50.1	-65.3	3.8	1.49e+00	0	41	104	574619648	71	21216
2026-01-28 07:33:21.45	6.96	7.74	-49.9	-65.3	3.8	1.49e+00	0	41	104	574619648	71	21102
2026-01-28 07:33:23.45	6.68	7.66	-49.8	-65.2	3.8	1.49e+00	0	41	104	574619648	71	20871
2026-01-28 07:33:25.45	6.40	7.57	-49.6	-64.9	3.8	1.49e+00	0	41	104	574619648	71	20181
2026-01-28 07:33:27.44	6.12	7.49	-49.3	-64.7	3.8	1.49e+00	0	41	104	574619648	70	20915
2026-01-28 07:33:29.44	5.85	7.41	-49.3	-64.7	3.8	1.49e+00	0	40	104	574619648	70	20780
2026-01-28 07:33:31.44	5.57	7.32	-49.3	-64.7	3.8	1.49e+00	0	40	104	574619648	70	20919
2026-01-28 07:33:33.43	5.30	7.24	-49.3	-64.6	3.8	1.49e+00	0	41	104	574619648	70	20729
2026-01-28 07:33:35.43	5.03	7.15	-49.3	-64.7	3.8	1.49e+00	0	41	104	574619648	70	20808
2026-01-28 07:33:37.42	4.76	7.07	-49.3	-64.7	3.8	1.49e+00	0	41	104	574619648	70	20791
2026-01-28 07:33:39.41	4.50	6.98	-49.3	-64.7	3.8	1.49e+00	0	41	104	574619648	70	20848
2026-01-28 07:33:41.41	4.23	6.90	-49.3	-64.7	3.8	1.49e+00	0	40	104	574619648	70	20836
2026-01-28 07:33:43.41	3.97	6.81	-49.3	-64.7	3.8	1.49e+00	0	41	104	574619648	70	20780
2026-01-28 07:33:45.40	3.70	6.72	-49.3	-64.6	3.8	1.49e+00	0	41	104	574619648	70	20706
2026-01-28 07:33:47.40	3.44	6.64	-49.3	-64.6	3.8	1.49e+00	0	41	104	574619648	70	20654
2026-01-28 07:33:49.39	3.18	6.55	-49.3	-64.6	3.8	1.49e+00	0	40	104	574619648	70	20740
2026-01-28 07:33:51.39	2.93	6.46	-49.3	-64.6	3.8	1.49e+00	0	41	104	574619648	70	20721
2026-01-28 07:33:53.38	2.67	6.38	-49.3	-64.6	3.8	1.49e+00	0	40	104	574619648	70	20733
2026-01-28 07:33:55.39	2.41	6.29	-49.3	-64.6	3.8	1.49e+00	0	40	104	574619648	70	20746
2026-01-28 07:33:57.38	2.16	6.20	-49.3	-64.6	3.8	1.49e+00	0	40	104	574619648	70	20743
2026-01-28 07:33:59.37	1.91	6.11	-49.3	-64.6	3.8	1.49e+00	0	41	104	574619648	70	20725
2026-01-28 07:34:01.37	1.66	6.02	-49.3	-64.6	3.8	1.49e+00	0	41	104	574619648	70	20740
2026-01-28 07:34:03.38	1.41	5.93	-49.2	-64.6	3.8	1.49e+00	0	41	104	574619648	70	20674
2026-01-28 07:34:05.37	1.16	5.84	-49.2	-64.7	3.8	1.49e+00	0	40	104	574619648	70	20821
2026-01-28 07:34:07.38	0.92	5.75	-49.3	-64.6	3.8	1.49e+00	0	41	104	574619648	70	20602
2026-01-28 07:34:09.38	0.67	5.67	-49.2	-64.6	3.8	1.49e+00	0	41	104	574619648	70	20589
2026-01-28 07:34:11.37	0.43	5.58	-49.2	-64.6	3.8	1.49e+00	0	40	104	574619648	70	20637
2026-01-28 07:34:13.37	0.19	5.49	-49.2	-64.6	3.8	1.49e+00	0	41	104	574619648	70	20658
2026-01-28 07:34:15.37	359.95	5.40	-49.2	-64.6	3.8	1.49e+00	0	41	104	574619648	70	20679
2026-01-28 07:34:17.37	359.71	5.31	-49.2	-64.6	3.8	1.49e+00	0	41	104	574619648	70	20655
2026-01-28 07:34:19.37	359.48	5.22	-49.2	-64.5	3.8	1.49e+00	0	41	104	574619648	70	20521
2026-01-28 07:34:21.37	359.24	5.13	-49.2	-64.6	3.8	1.49e+00	0	41	104	574619648	70	20638
2026-01-28 07:34:23.36	359.01	5.04	-49.2	-64.6	3.8	1.49e+00	0	41	104	574619648	70	20566

#Closed at: 2026-01-28 07:34:25
#Recorded file [574 MB]: D:/Data/31040_260128_102612.dat