passes_logs/2026/01/28/T1/T1__20260128_005339_AQUA_rec.log

#Pass ID: 20260128_005339_AQUA
#Satellite: AQUA
#Configuration: AQUA
#almurnet v.1.7.20251203
#Start time: 2026-01-28 00:53:40

#Version: 2.0.20230620
#Station: T1
#Location: 37.570604 lon 55.790049 lat
#TLE: 1 27424U 02022A   26027.49103455  .00001862  00000+0  38220-3 0  9997
#TLE: 2 27424  98.4102 354.1298 0001846  63.8060  46.9979 14.61867034262711

#Time	Az	El	Level	Level2	SNR	BER	BlckErr	Temp	State	Recorded	gain1	gain2
2026-01-28 00:53:40.83	20.58	5.09	-51.8	-72.0	3.8	7.48e-01	0	41	0	0	74	38650
2026-01-28 00:53:43.80	20.69	5.31	-52.1	-72.1	3.8	7.41e-01	0	41	104	0	75	36705
2026-01-28 00:53:46.78	20.81	5.53	-51.9	-72.0	3.8	7.46e-01	0	41	104	0	75	36358
2026-01-28 00:53:49.76	20.92	5.75	-51.8	-72.0	3.8	7.45e-01	0	41	104	0	75	36140
2026-01-28 00:53:52.74	21.04	5.97	-50.0	-71.7	3.8	7.46e-01	0	41	104	0	72	41682
2026-01-28 00:53:55.72	21.16	6.20	-50.5	-71.4	3.8	7.44e-01	0	42	104	0	72	40482
2026-01-28 00:53:58.70	21.29	6.43	-50.0	-71.0	3.8	7.45e-01	0	42	104	0	70	42936
2026-01-28 00:54:01.68	21.41	6.66	-50.0	-71.0	3.8	7.46e-01	0	42	104	0	70	43209
2026-01-28 00:54:04.66	21.54	6.89	-50.0	-70.7	3.8	7.50e-01	0	42	104	0	70	41467
2026-01-28 00:54:07.64	21.67	7.13	-50.0	-68.9	3.8	7.40e-01	0	42	104	0	70	33834
2026-01-28 00:54:10.62	21.80	7.37	-49.9	-66.3	4.6	7.15e-01	0	42	104	0	70	25072
2026-01-28 00:54:13.60	21.93	7.61	-49.9	-65.5	5.1	7.02e-01	0	42	0	0	70	22960
2026-01-28 00:54:16.58	22.07	7.85	-49.9	-65.4	5.2	7.01e-01	0	42	0	0	70	22771
2026-01-28 00:54:19.56	22.20	8.09	-49.9	-66.6	4.0	7.41e-01	0	42	104	524288	70	26063
2026-01-28 00:54:22.53	22.34	8.34	-49.9	-65.5	5.1	7.09e-01	0	43	0	524288	70	22934
2026-01-28 00:54:25.51	22.48	8.59	-49.8	-63.2	6.8	6.68e-01	0	43	0	3670016	70	17557
2026-01-28 00:54:28.49	22.63	8.85	-49.5	-60.2	9.9	6.24e-01	0	43	0	9437184	70	12418
2026-01-28 00:54:31.47	22.77	9.10	-49.0	-57.2	12.8	6.06e-01	0	43	0	15204352	70	8859
2026-01-28 00:54:34.45	22.92	9.36	-47.8	-52.5	18.0	6.05e-01	0	43	0	18350080	66	6443
2026-01-28 00:54:37.43	23.08	9.62	-45.7	-49.3	20.7	6.04e-01	0	43	0	24117248	63	5307
2026-01-28 00:54:40.41	23.23	9.89	-45.0	-48.1	22.0	6.04e-01	0	43	0	29884416	62	4898
2026-01-28 00:54:43.38	23.39	10.15	-44.7	-47.7	22.5	6.05e-01	0	43	0	35651584	61	4952
2026-01-28 00:54:46.36	23.55	10.42	-44.4	-47.3	22.8	6.03e-01	0	43	0	40894464	60	5037
2026-01-28 00:54:49.34	23.71	10.70	-44.3	-47.1	23.0	6.04e-01	0	43	0	46661632	60	4906
2026-01-28 00:54:52.32	23.88	10.97	-44.2	-47.0	23.2	6.03e-01	0	43	0	51904512	60	4844
2026-01-28 00:54:55.30	24.05	11.25	-44.1	-47.0	23.2	6.02e-01	0	43	0	57671680	60	4830
2026-01-28 00:54:58.28	24.22	11.54	-44.2	-47.0	23.1	6.03e-01	0	43	0	63438848	60	4858
2026-01-28 00:55:01.25	24.40	11.82	-44.3	-47.1	23.0	6.01e-01	0	43	0	68681728	60	4908
2026-01-28 00:55:04.23	24.58	12.11	-44.1	-47.1	23.1	6.06e-01	0	43	0	74448896	60	4883
2026-01-28 00:55:07.21	24.76	12.41	-44.0	-47.0	23.1	6.02e-01	0	43	0	80216064	60	4838
2026-01-28 00:55:10.19	24.95	12.71	-44.0	-47.1	23.2	6.04e-01	0	43	0	85458944	59	5164
2026-01-28 00:55:13.17	25.14	13.01	-43.9	-46.8	23.4	6.05e-01	0	43	0	91226112	59	5033
2026-01-28 00:55:16.15	25.33	13.32	-43.8	-46.8	23.3	6.05e-01	0	43	0	96993280	59	5040
2026-01-28 00:55:19.13	25.53	13.63	-43.8	-46.7	23.5	6.03e-01	0	43	0	102236160	59	4977
2026-01-28 00:55:22.10	25.74	13.94	-43.9	-46.7	23.6	6.01e-01	0	43	0	108003328	59	4945
2026-01-28 00:55:25.08	25.94	14.26	-43.9	-46.7	23.5	6.02e-01	0	43	0	113246208	59	4971
2026-01-28 00:55:28.06	26.16	14.58	-43.8	-46.5	23.8	6.03e-01	0	43	0	119013376	59	4867
2026-01-28 00:55:31.04	26.37	14.91	-43.8	-46.5	23.8	6.04e-01	0	43	0	124780544	59	4859
2026-01-28 00:55:34.02	26.60	15.24	-43.7	-46.4	23.9	6.06e-01	0	43	0	130023424	59	4811
2026-01-28 00:55:37.00	26.82	15.58	-43.6	-46.4	23.9	6.04e-01	0	43	0	135790592	59	4783
2026-01-28 00:55:39.98	27.06	15.92	-43.4	-46.3	24.0	6.04e-01	0	43	0	141557760	58	5016
2026-01-28 00:55:42.95	27.29	16.27	-43.4	-46.2	24.1	6.03e-01	0	43	0	146800640	58	4983
2026-01-28 00:55:45.93	27.54	16.62	-43.6	-46.5	23.9	6.03e-01	0	43	0	152567808	58	5125
2026-01-28 00:55:48.91	27.79	16.98	-43.5	-46.3	24.1	6.05e-01	0	44	0	158334976	58	4995
2026-01-28 00:55:51.89	28.04	17.34	-43.6	-46.4	23.9	6.05e-01	0	43	0	163577856	58	5064
2026-01-28 00:55:54.87	28.30	17.71	-43.6	-46.4	24.0	6.02e-01	0	44	0	169345024	58	5045
2026-01-28 00:55:57.85	28.57	18.08	-43.6	-46.1	24.2	6.02e-01	0	43	0	175112192	58	4909
2026-01-28 00:56:00.83	28.85	18.46	-43.8	-46.3	24.1	6.06e-01	0	43	0	180355072	58	4998
2026-01-28 00:56:03.81	29.13	18.85	-43.7	-46.3	24.1	6.03e-01	0	43	0	186122240	58	4987
2026-01-28 00:56:06.79	29.42	19.24	-43.8	-46.4	24.0	6.03e-01	0	43	0	191889408	58	5047
2026-01-28 00:56:09.77	29.72	19.64	-43.5	-46.0	24.3	6.01e-01	0	43	0	197132288	58	4860
2026-01-28 00:56:12.74	30.02	20.04	-43.6	-46.3	24.1	6.03e-01	0	43	0	202899456	58	5015
2026-01-28 00:56:15.72	30.33	20.45	-43.7	-46.4	24.0	6.02e-01	0	43	0	208666624	58	5051
2026-01-28 00:56:18.70	30.66	20.87	-43.7	-46.3	24.1	6.03e-01	0	43	0	213909504	58	5030
2026-01-28 00:56:21.68	30.99	21.29	-43.7	-46.3	24.1	6.03e-01	0	43	0	219676672	58	5002
2026-01-28 00:56:24.66	31.33	21.72	-43.8	-46.4	24.1	6.04e-01	0	44	0	225443840	58	5052
2026-01-28 00:56:27.64	31.68	22.16	-43.9	-46.5	24.0	6.01e-01	0	43	0	230686720	58	5101
2026-01-28 00:56:30.62	32.04	22.61	-44.0	-46.7	23.8	6.00e-01	0	44	0	236453888	58	5246
2026-01-28 00:56:33.59	32.41	23.06	-43.9	-46.6	23.8	6.02e-01	0	44	0	242221056	58	5160
2026-01-28 00:56:36.57	32.79	23.52	-44.0	-46.6	23.9	6.03e-01	0	43	0	247463936	58	5169
2026-01-28 00:56:39.55	33.19	23.99	-44.0	-46.7	23.8	6.07e-01	0	44	0	253231104	58	5248
2026-01-28 00:56:42.53	33.59	24.47	-43.8	-46.4	24.0	6.05e-01	0	43	0	258473984	58	5098
2026-01-28 00:56:45.51	34.01	24.95	-43.9	-46.5	23.9	6.05e-01	0	43	0	264241152	58	5155
2026-01-28 00:56:48.49	34.45	25.45	-44.0	-46.6	23.8	6.02e-01	0	44	0	270008320	58	5187
2026-01-28 00:56:51.46	34.89	25.95	-43.8	-46.3	24.2	6.05e-01	0	44	0	275251200	58	5021
2026-01-28 00:56:54.44	35.35	26.46	-43.9	-46.5	24.0	6.05e-01	0	43	0	281018368	58	5152
2026-01-28 00:56:57.42	35.83	26.98	-43.8	-46.3	24.2	6.02e-01	0	43	0	286785536	58	5009
2026-01-28 00:57:00.40	36.32	27.51	-43.9	-46.5	24.0	6.04e-01	0	43	0	292028416	58	5105
2026-01-28 00:57:03.38	36.83	28.04	-43.5	-46.1	24.4	6.02e-01	0	44	0	297795584	58	4885
2026-01-28 00:57:06.36	37.36	28.59	-43.5	-46.1	24.3	6.07e-01	0	44	0	303562752	58	4926
2026-01-28 00:57:09.34	37.91	29.15	-43.7	-46.2	24.2	6.03e-01	0	43	0	308805632	58	4977
2026-01-28 00:57:12.31	38.47	29.71	-43.8	-46.3	24.2	6.04e-01	0	44	0	314572800	58	4991
2026-01-28 00:57:15.29	39.06	30.28	-43.7	-46.1	24.4	6.01e-01	0	44	0	320339968	58	4917
2026-01-28 00:57:18.27	39.67	30.87	-43.7	-46.2	24.4	6.03e-01	0	43	0	325582848	58	4938
2026-01-28 00:57:21.25	40.30	31.46	-43.9	-46.4	24.1	6.02e-01	0	43	0	331350016	58	5070
2026-01-28 00:57:24.23	40.95	32.06	-43.8	-46.3	24.2	6.05e-01	0	44	0	337117184	58	5037
2026-01-28 00:57:27.21	41.63	32.67	-44.0	-46.5	24.1	6.03e-01	0	43	0	342360064	58	5102
2026-01-28 00:57:30.19	42.34	33.29	-44.1	-46.6	23.9	6.03e-01	0	44	0	348127232	58	5203
2026-01-28 00:57:33.17	43.07	33.92	-44.2	-46.7	23.9	6.03e-01	0	44	0	353894400	59	4959
2026-01-28 00:57:36.14	43.83	34.56	-44.3	-46.9	23.7	6.03e-01	0	43	0	359137280	59	5064
2026-01-28 00:57:39.12	44.63	35.21	-44.4	-47.0	23.5	6.04e-01	0	44	0	364904448	60	4858
2026-01-28 00:57:42.10	45.46	35.86	-44.5	-47.2	23.4	6.03e-01	0	43	0	370671616	60	4940
2026-01-28 00:57:45.08	46.32	36.53	-44.5	-47.2	23.3	6.02e-01	0	44	0	375914496	60	4955
2026-01-28 00:57:48.06	47.22	37.20	-44.6	-47.4	23.1	6.02e-01	0	44	0	381681664	60	5050
2026-01-28 00:57:51.04	48.16	37.87	-44.6	-47.3	23.3	6.03e-01	0	44	0	387448832	60	5019
2026-01-28 00:57:54.02	49.13	38.56	-44.5	-47.2	23.3	6.06e-01	0	43	0	392691712	60	4941
2026-01-28 00:57:56.99	50.15	39.24	-44.8	-47.5	23.0	6.03e-01	0	43	0	398458880	60	5142
2026-01-28 00:57:59.97	51.21	39.93	-44.4	-47.1	23.4	6.05e-01	0	44	0	403701760	60	4879
2026-01-28 00:58:02.95	52.32	40.63	-44.3	-46.9	23.6	6.03e-01	0	44	0	409468928	60	4786
2026-01-28 00:58:05.93	53.49	41.33	-43.9	-46.3	24.2	6.02e-01	0	44	0	415236096	59	4742
2026-01-28 00:58:08.91	54.70	42.03	-43.8	-46.3	24.3	6.06e-01	0	44	0	420478976	59	4711
2026-01-28 00:58:11.89	55.96	42.73	-43.5	-45.9	24.6	6.03e-01	0	43	0	426246144	58	4808
2026-01-28 00:58:14.87	57.29	43.42	-43.4	-45.8	24.7	6.05e-01	0	43	0	432013312	58	4711
2026-01-28 00:58:17.85	58.67	44.12	-43.1	-45.4	25.1	6.05e-01	0	43	0	437256192	58	4518
2026-01-28 00:58:20.83	60.11	44.80	-43.1	-45.4	25.0	6.01e-01	0	44	0	443023360	58	4505
2026-01-28 00:58:23.81	61.62	45.48	-43.2	-45.5	25.0	6.06e-01	0	43	0	448790528	58	4588
2026-01-28 00:58:26.79	63.19	46.15	-43.3	-45.7	24.7	6.06e-01	0	43	0	454033408	58	4664
2026-01-28 00:58:29.76	64.83	46.81	-43.2	-45.5	25.0	6.04e-01	0	43	0	459800576	57	4848
2026-01-28 00:58:32.74	66.54	47.45	-43.1	-45.5	25.0	6.03e-01	0	43	0	465567744	57	4817
2026-01-28 00:58:35.72	68.32	48.07	-43.2	-45.6	24.9	6.02e-01	0	44	0	470810624	57	4876
2026-01-28 00:58:38.70	70.18	48.67	-43.3	-45.7	24.8	6.02e-01	0	43	0	476577792	57	4940
2026-01-28 00:58:41.68	72.11	49.25	-43.4	-45.7	24.8	6.04e-01	0	44	0	482344960	57	4980
2026-01-28 00:58:44.66	74.11	49.80	-43.4	-45.8	24.8	6.03e-01	0	44	0	487587840	57	4988
2026-01-28 00:58:47.64	76.18	50.32	-43.7	-46.1	24.4	6.04e-01	0	44	0	493355008	58	4922
2026-01-28 00:58:50.62	78.33	50.80	-43.4	-45.8	24.7	6.03e-01	0	44	0	499122176	58	4738
2026-01-28 00:58:53.60	80.54	51.25	-43.6	-46.0	24.5	6.04e-01	0	44	0	504365056	58	4866
2026-01-28 00:58:56.57	82.81	51.65	-43.4	-45.9	24.6	6.03e-01	0	44	0	510132224	58	4785
2026-01-28 00:58:59.55	85.14	52.02	-43.7	-46.2	24.3	6.03e-01	0	44	0	515899392	58	4981
2026-01-28 00:59:02.53	87.53	52.33	-43.6	-46.2	24.3	6.03e-01	0	43	0	521142272	58	4941
2026-01-28 00:59:05.51	89.97	52.60	-43.7	-46.2	24.3	6.04e-01	0	44	0	526909440	58	4974
2026-01-28 00:59:08.49	92.45	52.81	-44.0	-46.5	24.1	6.04e-01	0	43	0	532676608	58	5133
2026-01-28 00:59:11.46	94.95	52.97	-43.8	-46.5	24.1	6.01e-01	0	44	0	537919488	58	5120
2026-01-28 00:59:14.44	97.49	53.08	-44.0	-46.4	24.2	6.04e-01	0	44	0	543686656	58	5090
2026-01-28 00:59:17.42	100.04	53.13	-44.0	-46.5	24.1	6.03e-01	0	44	0	548929536	58	5112
2026-01-28 00:59:20.40	102.59	53.12	-43.9	-46.4	24.2	6.05e-01	0	44	0	554696704	58	5047
2026-01-28 00:59:23.38	105.13	53.06	-44.1	-46.6	24.0	6.04e-01	0	44	0	560463872	58	5165
2026-01-28 00:59:26.36	107.67	52.94	-43.7	-46.2	24.4	6.05e-01	0	44	0	565706752	58	4929
2026-01-28 00:59:29.34	110.17	52.76	-43.6	-46.2	24.3	6.03e-01	0	43	0	571473920	58	4957
2026-01-28 00:59:32.31	112.63	52.54	-44.2	-46.7	24.0	6.03e-01	0	44	0	577241088	58	5230
2026-01-28 00:59:35.29	115.06	52.26	-44.0	-46.5	24.1	6.01e-01	0	44	0	582483968	59	4848
2026-01-28 00:59:38.27	117.44	51.93	-43.9	-46.3	24.2	6.06e-01	0	44	0	588251136	59	4756
2026-01-28 00:59:41.25	119.77	51.55	-44.1	-46.6	23.9	6.03e-01	0	44	0	594018304	59	4923
2026-01-28 00:59:44.23	122.03	51.14	-44.1	-46.7	23.9	6.05e-01	0	43	0	599261184	59	4953
2026-01-28 00:59:47.21	124.23	50.68	-44.0	-46.6	24.0	6.04e-01	0	44	0	605028352	59	4905
2026-01-28 00:59:50.18	126.35	50.18	-44.3	-46.8	23.8	6.03e-01	0	43	0	610795520	59	5030
2026-01-28 00:59:53.16	128.41	49.65	-44.4	-46.9	23.7	6.04e-01	0	44	0	616038400	59	5090
2026-01-28 00:59:56.14	130.40	49.10	-44.2	-46.8	23.9	6.03e-01	0	44	0	621805568	59	4993
2026-01-28 00:59:59.12	132.31	48.51	-44.2	-46.7	23.9	6.03e-01	0	44	0	627572736	59	4973
2026-01-28 01:00:02.10	134.15	47.90	-44.1	-46.7	23.8	6.03e-01	0	44	0	632815616	60	4701
2026-01-28 01:00:05.08	135.92	47.27	-44.1	-46.7	23.8	6.03e-01	0	43	0	638582784	60	4661
2026-01-28 01:00:08.06	137.62	46.62	-43.9	-46.4	24.2	6.02e-01	0	44	0	644349952	59	4764
2026-01-28 01:00:11.04	139.25	45.96	-44.1	-46.6	24.0	6.05e-01	0	44	0	649592832	59	4918
2026-01-28 01:00:14.02	140.81	45.28	-44.0	-46.5	24.1	6.02e-01	0	44	0	655360000	59	4832
2026-01-28 01:00:16.99	142.30	44.60	-44.1	-46.5	24.0	6.03e-01	0	44	0	661127168	59	4867
2026-01-28 01:00:19.97	143.73	43.91	-43.8	-46.3	24.2	6.03e-01	0	44	0	666370048	59	4741
2026-01-28 01:00:22.95	145.10	43.21	-44.2	-46.6	23.9	6.03e-01	0	44	0	672137216	59	4926
2026-01-28 01:00:25.93	146.41	42.51	-44.1	-46.6	24.0	6.02e-01	0	44	0	677380096	59	4915
2026-01-28 01:00:28.91	147.66	41.81	-44.4	-47.0	23.6	6.05e-01	0	44	0	683147264	59	5120
2026-01-28 01:00:31.89	148.86	41.11	-44.7	-47.4	23.2	6.06e-01	0	44	0	688914432	60	5056
2026-01-28 01:00:34.87	150.01	40.41	-44.0	-46.5	23.9	6.07e-01	0	44	0	694157312	60	4562
2026-01-28 01:00:37.84	151.11	39.71	-44.2	-46.7	23.8	6.02e-01	0	44	0	699924480	60	4683
2026-01-28 01:00:40.82	152.17	39.01	-44.4	-47.0	23.5	6.03e-01	0	44	0	705691648	60	4821
2026-01-28 01:00:43.80	153.18	38.32	-44.4	-47.0	23.5	6.04e-01	0	44	0	710934528	60	4820
2026-01-28 01:00:46.78	154.14	37.64	-44.2	-46.8	23.6	6.03e-01	0	44	0	716701696	60	4743
2026-01-28 01:00:49.76	155.07	36.96	-43.8	-46.3	24.2	6.06e-01	0	44	0	722468864	59	4739
2026-01-28 01:00:52.74	155.96	36.29	-44.0	-46.6	24.0	6.04e-01	0	44	0	727711744	59	4871
2026-01-28 01:00:55.72	156.82	35.62	-43.7	-46.1	24.4	6.00e-01	0	44	0	733478912	59	4647
2026-01-28 01:00:58.70	157.64	34.97	-43.2	-45.6	24.9	6.02e-01	0	44	0	739246080	58	4613
2026-01-28 01:01:01.68	158.43	34.32	-43.2	-45.6	24.8	6.04e-01	0	44	0	744488960	58	4630
2026-01-28 01:01:04.66	159.18	33.68	-43.0	-45.3	25.1	6.04e-01	0	44	0	750256128	58	4484
2026-01-28 01:01:07.63	159.91	33.05	-42.9	-45.2	25.2	6.01e-01	0	44	0	756023296	57	4667
2026-01-28 01:01:10.61	160.61	32.43	-42.6	-45.0	25.3	6.02e-01	0	44	0	761266176	57	4553
2026-01-28 01:01:13.59	161.28	31.82	-42.5	-44.8	25.5	6.05e-01	0	44	0	767033344	56	4722
2026-01-28 01:01:16.57	161.93	31.21	-42.6	-44.8	25.5	6.00e-01	0	44	0	772800512	56	4746
2026-01-28 01:01:19.55	162.56	30.62	-42.6	-44.9	25.5	6.03e-01	0	44	0	778043392	56	4761
2026-01-28 01:01:22.53	163.16	30.04	-42.7	-45.0	25.2	6.05e-01	0	43	0	783810560	56	4851
2026-01-28 01:01:25.51	163.74	29.46	-42.7	-45.0	25.4	6.03e-01	0	44	0	789577728	56	4817
2026-01-28 01:01:28.48	164.30	28.90	-43.0	-45.4	25.0	6.05e-01	0	44	0	794820608	56	5044
2026-01-28 01:01:31.46	164.84	28.34	-43.0	-45.3	25.0	6.02e-01	0	44	0	800587776	56	5019
2026-01-28 01:01:34.44	165.36	27.80	-42.8	-45.2	25.1	6.03e-01	0	44	0	806354944	56	4935
2026-01-28 01:01:37.42	165.87	27.26	-43.2	-45.6	24.8	5.99e-01	0	44	0	811597824	57	4895
2026-01-28 01:01:40.40	166.36	26.73	-43.3	-45.7	24.7	6.04e-01	0	44	0	817364992	57	4978
2026-01-28 01:01:43.38	166.83	26.21	-43.4	-45.8	24.6	6.05e-01	0	44	0	822607872	57	5030
2026-01-28 01:01:46.36	167.29	25.70	-43.4	-45.9	24.5	6.04e-01	0	44	0	828375040	57	5050
2026-01-28 01:01:49.34	167.73	25.20	-43.4	-45.9	24.5	6.02e-01	0	44	0	834142208	57	5044
2026-01-28 01:01:52.32	168.16	24.70	-43.5	-46.0	24.4	6.06e-01	0	44	0	839385088	57	5146
2026-01-28 01:01:55.29	168.57	24.22	-43.5	-46.0	24.4	6.04e-01	0	44	0	845152256	57	5118
2026-01-28 01:01:58.27	168.98	23.74	-43.6	-46.1	24.3	6.03e-01	0	44	0	850919424	58	4893
2026-01-28 01:02:01.25	169.37	23.27	-43.5	-46.0	24.4	6.03e-01	0	44	0	856162304	58	4824
2026-01-28 01:02:04.23	169.74	22.81	-43.3	-45.8	24.6	6.02e-01	0	44	0	861929472	58	4715
2026-01-28 01:02:07.21	170.11	22.36	-43.3	-45.8	24.6	6.03e-01	0	44	0	867696640	58	4728
2026-01-28 01:02:10.19	170.47	21.91	-43.3	-45.8	24.6	6.03e-01	0	44	0	872939520	58	4741
2026-01-28 01:02:13.17	170.82	21.47	-43.2	-45.7	24.6	6.02e-01	0	44	0	878706688	58	4696
2026-01-28 01:02:16.15	171.15	21.04	-43.3	-45.9	24.5	6.04e-01	0	44	0	884473856	58	4801
2026-01-28 01:02:19.12	171.48	20.62	-43.4	-45.9	24.5	6.05e-01	0	44	0	889716736	58	4768
2026-01-28 01:02:22.10	171.80	20.20	-43.6	-46.2	24.2	6.02e-01	0	44	0	895483904	58	4928
2026-01-28 01:02:25.08	172.11	19.79	-43.5	-46.1	24.3	6.02e-01	0	44	0	901251072	58	4873
2026-01-28 01:02:28.06	172.41	19.38	-43.5	-46.0	24.3	6.03e-01	0	44	0	906493952	58	4839
2026-01-28 01:02:31.04	172.70	18.98	-43.4	-45.8	24.4	6.05e-01	0	44	0	912261120	58	4758
2026-01-28 01:02:34.02	172.99	18.59	-43.4	-45.8	24.5	6.04e-01	0	44	0	917504000	58	4737
2026-01-28 01:02:37.00	173.27	18.21	-43.2	-45.7	24.7	6.02e-01	0	44	0	923271168	58	4655
2026-01-28 01:02:39.97	173.54	17.83	-43.2	-45.7	24.6	6.03e-01	0	43	0	929038336	58	4662
2026-01-28 01:02:42.95	173.81	17.45	-43.3	-45.7	24.5	6.06e-01	0	44	0	934805504	58	4695
2026-01-28 01:02:45.93	174.06	17.09	-43.3	-45.7	24.5	6.03e-01	0	44	0	940048384	58	4694
2026-01-28 01:02:48.91	174.32	16.72	-43.1	-45.6	24.6	6.00e-01	0	44	0	945815552	58	4616
2026-01-28 01:02:51.89	174.56	16.37	-43.2	-45.8	24.4	6.03e-01	0	44	0	951582720	58	4713
2026-01-28 01:02:54.87	174.80	16.01	-43.2	-45.8	24.4	6.04e-01	0	44	0	956825600	58	4751
2026-01-28 01:02:57.85	175.04	15.67	-43.2	-45.8	24.4	6.03e-01	0	44	0	962592768	58	4741
2026-01-28 01:03:00.82	175.27	15.33	-43.2	-45.8	24.3	6.04e-01	0	44	0	967835648	58	4713
2026-01-28 01:03:03.80	175.49	14.99	-43.1	-45.7	24.5	6.04e-01	0	44	0	973602816	58	4680
2026-01-28 01:03:06.78	175.71	14.66	-43.1	-45.9	24.4	6.00e-01	0	44	0	979369984	58	4767
2026-01-28 01:03:09.76	175.92	14.33	-43.1	-45.8	24.4	6.07e-01	0	44	0	984612864	58	4735
2026-01-28 01:03:12.74	176.13	14.00	-43.1	-45.8	24.4	6.03e-01	0	44	0	990380032	58	4757
2026-01-28 01:03:15.72	176.34	13.69	-43.3	-46.0	24.2	6.04e-01	0	44	0	996147200	58	4845
2026-01-28 01:03:18.70	176.54	13.37	-43.2	-45.9	24.2	6.02e-01	0	44	0	1001390080	58	4814
2026-01-28 01:03:21.68	176.73	13.06	-43.5	-46.2	24.0	6.04e-01	0	44	0	1007157248	58	4949
2026-01-28 01:03:24.66	176.93	12.75	-43.5	-46.1	24.0	6.02e-01	0	44	0	1012924416	58	4910
2026-01-28 01:03:27.63	177.11	12.45	-43.5	-46.1	24.0	6.03e-01	0	44	0	1018167296	58	4915
2026-01-28 01:03:30.61	177.30	12.15	-43.6	-46.2	24.0	6.03e-01	0	44	0	1023934464	58	4955
2026-01-28 01:03:33.59	177.48	11.86	-43.7	-46.4	23.8	6.04e-01	0	44	0	1029701632	58	5054
2026-01-28 01:03:36.57	177.65	11.57	-43.7	-46.4	23.7	6.03e-01	0	44	0	1034944512	58	5058
2026-01-28 01:03:39.55	177.83	11.28	-43.6	-46.5	23.7	6.04e-01	0	44	0	1040711680	58	5128
2026-01-28 01:03:42.53	178.00	11.00	-43.3	-46.4	23.7	6.05e-01	0	44	0	1045954560	58	5076
2026-01-28 01:03:45.51	178.16	10.72	-43.3	-46.4	23.7	6.06e-01	0	44	0	1051721728	58	5076
2026-01-28 01:03:48.49	178.33	10.44	-43.4	-46.6	23.5	6.03e-01	0	44	0	1057488896	58	5184
2026-01-28 01:03:51.47	178.49	10.17	-43.4	-46.7	23.4	6.04e-01	0	44	0	1062731776	58	5228
2026-01-28 01:03:54.44	178.64	9.90	-43.3	-46.5	23.5	6.04e-01	0	44	0	1068498944	58	5141
2026-01-28 01:03:57.42	178.80	9.63	-43.3	-46.5	23.4	6.04e-01	0	44	0	1074266112	58	5153
2026-01-28 01:04:00.40	178.95	9.36	-43.4	-46.7	23.3	6.03e-01	0	43	0	1079508992	58	5229
2026-01-28 01:04:03.38	179.10	9.10	-43.6	-46.9	23.1	6.02e-01	0	44	0	1085276160	58	5345
2026-01-28 01:04:06.36	179.25	8.84	-50.2	-70.8	3.8	7.47e-01	0	44	104	1088946176	71	39981
2026-01-28 01:04:09.34	179.39	8.59	-50.4	-71.7	3.8	7.47e-01	0	44	104	1088946176	72	41496
2026-01-28 01:04:12.32	179.53	8.33	-51.4	-71.7	3.8	7.46e-01	0	44	104	1088946176	73	39299
2026-01-28 01:04:15.29	179.67	8.08	-51.3	-71.4	3.8	7.50e-01	0	44	104	1088946176	73	38131
2026-01-28 01:04:18.27	179.80	7.84	-51.5	-71.5	3.8	7.44e-01	0	44	104	1088946176	73	38504
2026-01-28 01:04:21.25	179.94	7.59	-51.3	-71.3	3.8	7.47e-01	0	44	104	1088946176	73	37577
2026-01-28 01:04:24.23	180.07	7.35	-50.8	-71.3	3.8	7.43e-01	0	44	104	1088946176	73	37667
2026-01-28 01:04:27.21	180.20	7.11	-51.3	-71.4	3.8	7.48e-01	0	44	104	1088946176	73	37981
2026-01-28 01:04:30.19	180.33	6.87	-51.0	-71.4	3.8	7.46e-01	0	44	104	1088946176	73	38039
2026-01-28 01:04:33.16	180.45	6.64	-51.0	-71.4	3.8	7.44e-01	0	44	104	1088946176	73	37976
2026-01-28 01:04:36.15	180.57	6.40	-50.6	-71.3	3.8	7.48e-01	0	44	104	1088946176	72	39999
2026-01-28 01:04:39.12	180.69	6.17	-50.9	-71.3	3.8	7.48e-01	0	44	104	1088946176	73	37742
2026-01-28 01:04:42.10	180.81	5.94	-50.3	-71.3	3.8	7.45e-01	0	44	104	1088946176	72	39724
2026-01-28 01:04:45.08	180.93	5.72	-50.3	-71.3	3.8	7.49e-01	0	44	104	1088946176	72	39636
2026-01-28 01:04:48.06	181.05	5.49	-50.3	-71.3	3.8	7.46e-01	0	44	104	1088946176	72	39682
2026-01-28 01:04:51.04	181.16	5.27	-50.3	-71.3	3.8	7.47e-01	0	44	104	1088946176	72	39602
2026-01-28 01:04:54.02	181.27	5.05	-50.3	-71.2	3.8	7.43e-01	0	44	104	1088946176	72	39566

#Closed at: 2026-01-28 01:04:56
#Recorded file [1088 MB]: D:/Data/31040_260128_035340.dat