passes_logs/2026/01/28/T1/T1__20260128_212054_KHAYYAM_rec.log

#Pass ID: 20260128_212054_KHAYYAM
#Satellite: KHAYYAM
#Configuration: KHAYYAM_480M
#almurnet v.1.7.20251203
#Start time: 2026-01-28 21:20:55

#Version: 2.0.20230620
#Station: T1
#Location: 37.570604 lon 55.790049 lat
#TLE: 1 53370U 22096A   26027.88583762  .00009241  00000+0  37526-3 0  9992
#TLE: 2 53370  97.3551 294.6645 0002122 106.8672 253.2799 15.24796902193200

#Time	Az	El	Level	Level2	SNR	BER	BlckErr	Temp	State	Recorded	gain1	gain2
2026-01-28 21:20:55.66	13.64	5.12	-53.2	-57.7	3.6	0.00e+00	0	46	0	0	77	24856
2026-01-28 21:20:57.64	13.64	5.28	-53.7	-58.1	3.7	0.00e+00	0	46	104	0	78	24623
2026-01-28 21:20:59.63	13.64	5.44	-53.4	-58.0	3.7	0.00e+00	0	46	104	0	78	24278
2026-01-28 21:21:01.62	13.64	5.61	-53.1	-57.6	3.7	0.00e+00	0	46	104	0	78	23323
2026-01-28 21:21:03.61	13.64	5.77	-53.2	-57.7	3.7	0.00e+00	0	47	104	0	78	23481
2026-01-28 21:21:05.59	13.64	5.94	-53.5	-57.9	3.7	0.00e+00	0	47	104	0	78	24016
2026-01-28 21:21:07.58	13.64	6.11	-52.0	-55.6	3.7	0.00e+00	0	47	104	0	76	20813
2026-01-28 21:21:09.57	13.64	6.28	-52.2	-55.9	3.7	0.00e+00	0	47	104	0	74	24216
2026-01-28 21:21:11.55	13.64	6.45	-51.3	-56.1	3.7	0.00e+00	0	47	104	0	74	24670
2026-01-28 21:21:13.54	13.64	6.63	-51.7	-56.6	3.7	0.00e+00	0	48	104	0	75	24785
2026-01-28 21:21:15.53	13.64	6.80	-49.7	-55.4	3.7	0.00e+00	0	48	104	0	71	26913
2026-01-28 21:21:17.51	13.64	6.98	-50.7	-56.1	3.7	0.00e+00	0	48	104	0	72	27753
2026-01-28 21:21:19.50	13.64	7.16	-50.7	-56.1	3.7	0.00e+00	0	48	104	0	72	27803
2026-01-28 21:21:21.49	13.64	7.34	-50.7	-56.1	3.7	0.00e+00	0	48	104	0	72	27742
2026-01-28 21:21:23.48	13.63	7.52	-50.7	-56.1	3.7	0.00e+00	0	48	104	0	72	27765
2026-01-28 21:21:25.46	13.63	7.70	-50.7	-56.1	3.7	0.00e+00	0	48	104	0	72	27682
2026-01-28 21:21:27.45	13.63	7.89	-50.7	-56.1	3.7	0.00e+00	0	49	104	0	72	27780
2026-01-28 21:21:29.44	13.63	8.08	-50.7	-56.1	3.7	0.00e+00	0	48	104	0	72	27822
2026-01-28 21:21:31.43	13.63	8.27	-50.7	-56.2	3.7	0.00e+00	0	49	104	0	72	27972
2026-01-28 21:21:33.41	13.62	8.46	-50.7	-56.1	3.7	0.00e+00	0	49	104	0	72	27821
2026-01-28 21:21:35.40	13.62	8.65	-50.7	-56.2	3.7	0.00e+00	0	49	104	0	72	27840
2026-01-28 21:21:37.38	13.62	8.85	-50.7	-56.1	3.7	0.00e+00	0	49	104	0	72	27802
2026-01-28 21:21:39.37	13.62	9.05	-50.6	-56.1	3.7	0.00e+00	0	49	104	0	72	27737
2026-01-28 21:21:41.36	13.61	9.25	-50.8	-55.9	3.7	0.00e+00	0	49	104	0	72	27098
2026-01-28 21:21:43.35	13.61	9.45	-50.9	-56.1	3.7	0.00e+00	0	49	104	0	72	27585
2026-01-28 21:21:45.34	13.61	9.65	-50.9	-56.0	3.7	0.00e+00	0	49	104	0	72	27306
2026-01-28 21:21:47.33	13.60	9.86	-50.7	-55.7	3.7	0.00e+00	0	49	104	0	72	26464
2026-01-28 21:21:49.40	13.60	10.08	-50.2	-55.6	3.7	0.00e+00	0	49	104	0	72	25993
2026-01-28 21:21:51.47	13.59	10.30	-49.7	-55.3	3.7	0.00e+00	0	49	104	0	71	26865
2026-01-28 21:21:53.49	13.59	10.51	-49.2	-54.9	3.7	0.00e+00	0	50	104	0	70	27065
2026-01-28 21:21:55.71	13.59	10.76	-50.9	-56.1	3.7	0.00e+00	0	50	104	0	72	27722
2026-01-28 21:21:57.70	13.58	10.98	-49.9	-55.4	3.7	0.00e+00	0	50	104	0	71	27163
2026-01-28 21:21:59.69	13.58	11.20	-50.0	-55.4	3.7	0.00e+00	0	50	104	0	71	26940
2026-01-28 21:22:01.67	13.57	11.42	-50.0	-55.6	3.7	0.00e+00	0	50	104	0	71	27794
2026-01-28 21:22:03.66	13.57	11.65	-50.4	-56.0	3.7	0.00e+00	0	50	104	0	71	28896
2026-01-28 21:22:05.65	13.56	11.88	-49.5	-55.4	3.7	0.00e+00	0	50	104	0	71	26968
2026-01-28 21:22:07.64	13.55	12.12	-50.0	-55.7	3.7	0.00e+00	0	50	104	0	71	28131
2026-01-28 21:22:09.63	13.55	12.35	-49.8	-55.5	3.7	0.00e+00	0	50	104	0	71	27515
2026-01-28 21:22:11.62	13.54	12.59	-50.0	-55.7	3.7	0.00e+00	0	50	104	0	71	27997
2026-01-28 21:22:13.61	13.53	12.84	-49.8	-55.5	3.7	0.00e+00	0	50	104	0	71	27272
2026-01-28 21:22:15.57	13.53	13.08	-50.0	-55.7	3.7	0.00e+00	0	50	104	0	71	27932
2026-01-28 21:22:17.56	13.52	13.33	-50.0	-55.7	3.7	0.00e+00	0	50	104	0	71	27940
2026-01-28 21:22:19.55	13.51	13.58	-49.9	-55.7	3.7	0.00e+00	0	50	104	0	71	27950
2026-01-28 21:22:21.54	13.50	13.84	-50.1	-55.9	3.7	0.00e+00	0	50	104	0	71	28612
2026-01-28 21:22:23.53	13.50	14.10	-50.1	-55.7	3.7	0.00e+00	0	50	104	0	71	28070
2026-01-28 21:22:25.52	13.49	14.36	-50.3	-56.0	3.7	0.00e+00	0	50	104	0	71	28967
2026-01-28 21:22:27.49	13.48	14.63	-50.2	-55.9	3.7	0.00e+00	0	51	104	0	71	28493
2026-01-28 21:22:29.48	13.47	14.90	-50.3	-56.0	3.7	0.00e+00	0	51	104	0	71	28993
2026-01-28 21:22:31.47	13.46	15.18	-50.2	-55.9	3.7	0.00e+00	0	51	104	0	71	28486
2026-01-28 21:22:33.46	13.45	15.46	-50.3	-56.0	3.7	0.00e+00	0	51	104	0	71	28923
2026-01-28 21:22:35.45	13.44	15.74	-50.2	-55.8	3.7	0.00e+00	0	51	104	0	71	28477
2026-01-28 21:22:37.44	13.43	16.03	-50.3	-55.8	3.7	0.00e+00	0	50	104	0	72	26648
2026-01-28 21:22:39.43	13.41	16.32	-50.0	-55.6	3.7	0.00e+00	0	51	104	0	72	26157
2026-01-28 21:22:41.44	13.40	16.63	-50.5	-55.9	3.7	0.00e+00	0	51	104	0	72	27039
2026-01-28 21:22:43.43	13.39	16.93	-50.4	-55.9	3.7	0.00e+00	0	50	104	0	72	27023
2026-01-28 21:22:45.42	13.38	17.24	-50.8	-56.1	3.7	0.00e+00	0	51	104	0	72	27653
2026-01-28 21:22:47.41	13.36	17.55	-51.0	-56.2	3.6	0.00e+00	0	51	104	0	73	26549
2026-01-28 21:22:49.40	13.35	17.87	-50.8	-56.2	3.7	0.00e+00	0	51	104	0	72	27980
2026-01-28 21:22:51.39	13.34	18.19	-51.0	-56.1	3.7	0.00e+00	0	51	104	0	72	27622
2026-01-28 21:22:53.37	13.32	18.52	-51.2	-56.2	3.7	0.00e+00	0	51	104	0	73	26388
2026-01-28 21:22:55.38	13.30	18.86	-52.6	-57.1	3.7	0.00e+00	0	51	104	0	76	24804
2026-01-28 21:22:57.37	13.29	19.20	-51.2	-56.3	3.7	0.00e+00	0	51	104	0	74	25261
2026-01-28 21:22:59.36	13.27	19.55	-51.7	-56.6	3.7	0.00e+00	0	51	104	0	74	26141
2026-01-28 21:23:01.42	13.25	19.92	-52.2	-56.9	3.7	0.00e+00	0	51	104	0	75	25623
2026-01-28 21:23:03.41	13.24	20.28	-53.2	-57.5	3.7	0.00e+00	0	51	104	0	76	25825
2026-01-28 21:23:05.40	13.22	20.64	-53.2	-57.6	3.7	0.00e+00	0	51	104	0	77	24553
2026-01-28 21:23:07.39	13.20	21.02	-53.1	-57.4	3.7	0.00e+00	0	51	104	0	77	24191
2026-01-28 21:23:09.38	13.18	21.40	-52.7	-57.0	3.7	0.00e+00	0	51	104	0	77	23055
2026-01-28 21:23:11.37	13.15	21.79	-52.4	-56.8	3.7	0.00e+00	0	51	104	0	76	23884
2026-01-28 21:23:13.36	13.13	22.18	-51.9	-56.7	3.7	0.00e+00	0	51	104	0	75	24851
2026-01-28 21:23:15.35	13.11	22.59	-52.0	-56.9	3.7	0.00e+00	0	51	104	0	75	25431
2026-01-28 21:23:17.34	13.09	23.00	-51.9	-56.6	3.7	0.00e+00	0	51	104	0	75	24675
2026-01-28 21:23:19.33	13.06	23.42	-51.9	-56.3	3.7	0.00e+00	0	51	104	0	75	23945
2026-01-28 21:23:21.34	13.03	23.86	-52.0	-56.5	3.7	0.00e+00	0	51	104	0	75	24509
2026-01-28 21:23:23.42	13.01	24.32	-52.1	-56.7	3.7	0.00e+00	0	51	104	0	75	25064
2026-01-28 21:23:25.41	12.98	24.76	-52.3	-56.9	3.7	0.00e+00	0	51	104	0	75	25418
2026-01-28 21:23:27.40	12.95	25.22	-52.5	-57.2	3.7	0.00e+00	0	51	104	0	75	26466
2026-01-28 21:23:29.39	12.92	25.69	-52.4	-57.2	3.7	0.00e+00	0	51	104	0	75	26318
2026-01-28 21:23:31.38	12.89	26.17	-51.7	-56.6	3.7	0.00e+00	0	51	104	0	75	24701
2026-01-28 21:23:33.37	12.85	26.66	-51.7	-56.6	3.7	0.00e+00	0	51	104	0	75	24735
2026-01-28 21:23:35.47	12.82	27.19	-52.2	-57.1	3.7	0.00e+00	0	51	104	0	75	26129
2026-01-28 21:23:37.46	12.78	27.70	-52.6	-57.3	3.7	0.00e+00	0	51	104	0	76	25285
2026-01-28 21:23:39.45	12.74	28.22	-53.0	-57.6	3.7	0.00e+00	0	51	104	0	76	26050
2026-01-28 21:23:41.44	12.70	28.76	-52.9	-57.6	3.7	0.00e+00	0	51	104	0	76	25983
2026-01-28 21:23:43.59	12.66	29.35	-52.3	-57.2	3.7	0.00e+00	0	51	104	0	76	24931
2026-01-28 21:23:45.61	12.62	29.92	-52.0	-57.1	3.7	0.00e+00	0	51	104	0	76	24663
2026-01-28 21:23:47.68	12.57	30.52	-51.7	-56.7	3.7	0.00e+00	0	51	104	0	75	25043
2026-01-28 21:23:49.89	12.52	31.18	-52.1	-56.9	3.7	0.00e+00	0	51	104	0	75	25559
2026-01-28 21:23:51.92	12.47	31.80	-52.4	-57.1	3.7	0.00e+00	0	51	104	0	75	26111
2026-01-28 21:23:53.93	12.41	32.43	-52.4	-57.1	3.7	0.00e+00	0	51	104	0	75	26255
2026-01-28 21:23:55.92	12.36	33.07	-52.6	-57.4	3.7	0.00e+00	0	51	104	0	75	26912
2026-01-28 21:23:57.91	12.30	33.73	-52.9	-57.5	3.7	0.00e+00	0	51	104	0	76	25828
2026-01-28 21:23:59.93	12.24	34.41	-53.0	-57.6	3.7	0.00e+00	0	51	104	0	76	25990
2026-01-28 21:24:01.98	12.17	35.12	-52.9	-57.5	3.7	0.00e+00	0	51	104	0	76	25948
2026-01-28 21:24:03.97	12.11	35.83	-52.8	-57.4	3.7	0.00e+00	0	51	104	0	76	25658
2026-01-28 21:24:05.96	12.04	36.56	-52.5	-57.3	3.7	0.00e+00	0	51	104	0	76	25153
2026-01-28 21:24:07.94	11.96	37.30	-52.4	-57.2	3.7	0.00e+00	0	51	104	0	76	24980
2026-01-28 21:24:09.96	11.88	38.08	-52.5	-57.3	3.7	0.00e+00	0	51	104	0	76	25168
2026-01-28 21:24:12.01	11.80	38.90	-52.4	-57.3	3.7	0.00e+00	0	51	104	0	76	25201
2026-01-28 21:24:14.01	11.71	39.71	-52.6	-57.4	3.7	0.00e+00	0	51	104	0	76	25595
2026-01-28 21:24:16.00	11.62	40.54	-53.1	-57.7	3.7	0.00e+00	0	51	104	0	76	26524
2026-01-28 21:24:18.00	11.52	41.40	-52.7	-57.5	3.7	0.00e+00	0	51	104	0	76	25801
2026-01-28 21:24:20.01	11.41	42.29	-52.7	-57.5	3.7	0.00e+00	0	51	104	0	76	25768
2026-01-28 21:24:22.01	11.30	43.20	-53.1	-57.7	3.7	0.00e+00	0	51	104	0	76	26298
2026-01-28 21:24:24.00	11.18	44.13	-53.2	-57.6	3.7	0.00e+00	0	51	104	0	77	24740
2026-01-28 21:24:25.99	11.05	45.08	-53.3	-57.7	3.7	0.00e+00	0	51	104	0	77	25050
2026-01-28 21:24:27.98	10.92	46.06	-53.3	-57.8	3.7	0.00e+00	0	51	104	0	77	25364
2026-01-28 21:24:30.10	10.76	47.13	-53.3	-57.8	3.7	0.00e+00	0	51	104	0	77	25225
2026-01-28 21:24:32.09	10.61	48.17	-53.1	-57.7	3.7	0.00e+00	0	51	104	0	77	24849
2026-01-28 21:24:34.08	10.44	49.24	-52.6	-57.3	3.7	0.00e+00	0	51	104	0	77	23947
2026-01-28 21:24:36.07	10.26	50.33	-53.4	-57.9	3.7	0.00e+00	0	51	104	0	77	25606
2026-01-28 21:24:38.05	10.06	51.45	-53.3	-57.8	3.7	0.00e+00	0	51	104	0	77	25379
2026-01-28 21:24:40.06	9.85	52.61	-52.9	-57.7	3.7	0.00e+00	0	51	104	0	77	24924
2026-01-28 21:24:42.05	9.61	53.80	-52.3	-57.3	3.7	0.00e+00	0	51	104	0	76	25206
2026-01-28 21:24:44.04	9.36	55.01	-52.4	-57.4	3.7	0.00e+00	0	51	104	0	76	25497
2026-01-28 21:24:46.03	9.08	56.26	-52.3	-57.3	3.7	0.00e+00	0	51	104	0	76	25303
2026-01-28 21:24:48.24	8.74	57.68	-52.8	-57.6	3.7	0.00e+00	0	51	104	0	76	26002
2026-01-28 21:24:50.25	8.40	59.00	-52.5	-57.4	3.7	0.00e+00	0	51	104	0	76	25632
2026-01-28 21:24:52.24	8.02	60.34	-53.0	-57.7	3.7	0.00e+00	0	51	104	0	77	25016
2026-01-28 21:24:54.22	7.60	61.71	-52.9	-57.7	3.7	0.00e+00	0	51	104	0	77	24879
2026-01-28 21:24:56.22	7.13	63.12	-53.1	-57.8	3.7	0.00e+00	0	52	104	0	77	25121
2026-01-28 21:24:58.20	6.60	64.55	-53.2	-57.8	3.7	0.00e+00	0	51	104	0	77	25376
2026-01-28 21:25:00.20	5.98	66.01	-53.3	-57.9	3.7	0.00e+00	0	51	104	0	77	25388
2026-01-28 21:25:02.25	5.26	67.55	-53.4	-57.9	3.7	0.00e+00	0	51	104	0	77	25600
2026-01-28 21:25:04.24	4.45	69.06	-53.1	-57.8	3.7	0.00e+00	0	51	104	0	77	25110
2026-01-28 21:25:06.23	3.49	70.59	-53.4	-57.9	3.7	0.00e+00	0	51	104	0	77	25551
2026-01-28 21:25:08.44	2.22	72.32	-53.4	-57.9	3.7	0.00e+00	0	51	104	0	77	25671
2026-01-28 21:25:10.46	0.79	73.92	-53.3	-57.9	3.7	0.00e+00	0	51	104	0	77	25445
2026-01-28 21:25:12.45	359.07	75.51	-53.4	-57.9	3.7	0.00e+00	0	51	104	0	77	25661
2026-01-28 21:25:14.44	356.89	77.10	-53.3	-57.9	3.7	0.00e+00	0	51	104	0	77	25436
2026-01-28 21:25:16.43	354.09	78.68	-53.0	-57.7	3.7	0.00e+00	0	52	104	0	77	25045
2026-01-28 21:25:18.42	350.35	80.24	-53.4	-57.9	3.7	0.00e+00	0	51	104	0	77	25589
2026-01-28 21:25:20.44	345.08	81.79	-53.3	-57.8	3.7	0.00e+00	0	51	104	0	77	25370
2026-01-28 21:25:22.43	337.56	83.22	-53.2	-57.6	3.7	0.00e+00	0	51	104	0	77	24795
2026-01-28 21:25:24.53	325.52	84.54	-53.1	-57.5	3.7	0.00e+00	0	51	104	0	77	24491
2026-01-28 21:25:26.58	307.68	85.48	-52.7	-57.2	3.7	0.00e+00	0	51	104	0	77	23559
2026-01-28 21:25:28.64	284.03	85.81	-53.1	-57.7	3.7	0.00e+00	0	51	104	0	77	25009
2026-01-28 21:25:30.63	261.57	85.41	-52.7	-57.5	3.7	0.00e+00	0	51	104	0	77	24409
2026-01-28 21:25:32.61	244.84	84.47	-52.6	-57.4	3.7	0.00e+00	0	51	104	0	76	25518
2026-01-28 21:25:34.60	233.61	83.21	-53.0	-57.7	3.7	0.00e+00	0	51	104	0	77	24860
2026-01-28 21:25:36.59	226.11	81.77	-53.0	-57.5	3.7	0.00e+00	0	52	104	0	77	24503
2026-01-28 21:25:38.72	220.61	80.14	-53.1	-57.7	3.7	0.00e+00	0	51	104	0	77	24941
2026-01-28 21:25:40.71	216.94	78.57	-53.5	-57.8	3.7	0.00e+00	0	51	104	0	77	25377
2026-01-28 21:25:42.70	214.18	76.99	-53.5	-57.9	3.7	0.00e+00	0	51	104	0	77	25536
2026-01-28 21:25:44.69	212.04	75.40	-53.4	-58.0	3.7	0.00e+00	0	51	104	0	77	25689
2026-01-28 21:25:46.68	210.34	73.81	-53.2	-57.9	3.7	0.00e+00	0	51	104	0	77	25394
2026-01-28 21:25:48.67	208.95	72.23	-53.3	-57.8	3.7	0.00e+00	0	51	104	0	77	25289
2026-01-28 21:25:50.66	207.80	70.67	-53.3	-57.9	3.7	0.00e+00	0	51	104	0	77	25535
2026-01-28 21:25:52.65	206.84	69.13	-53.4	-57.9	3.7	0.00e+00	0	51	104	0	77	25548
2026-01-28 21:25:54.64	206.01	67.61	-53.3	-57.8	3.7	0.00e+00	0	51	104	0	77	25350
2026-01-28 21:25:56.63	205.30	66.12	-53.5	-58.0	3.7	0.00e+00	0	51	104	0	77	25753
2026-01-28 21:25:58.62	204.69	64.65	-52.5	-57.5	3.7	0.00e+00	0	51	104	0	77	24411
2026-01-28 21:26:00.61	204.14	63.21	-53.0	-57.7	3.7	0.00e+00	0	51	104	0	77	24856
2026-01-28 21:26:02.60	203.67	61.80	-53.3	-57.8	3.7	0.00e+00	0	51	104	0	77	25363
2026-01-28 21:26:04.59	203.24	60.42	-52.8	-57.6	3.7	0.00e+00	0	51	104	0	77	24644
2026-01-28 21:26:06.58	202.86	59.07	-53.4	-57.9	3.7	0.00e+00	0	51	104	0	77	25570
2026-01-28 21:26:08.57	202.51	57.76	-53.3	-57.8	3.7	0.00e+00	0	51	104	0	77	25128
2026-01-28 21:26:10.56	202.20	56.47	-53.2	-57.7	3.7	0.00e+00	0	51	104	0	77	24974
2026-01-28 21:26:12.55	201.92	55.21	-53.6	-57.9	3.7	0.00e+00	0	51	104	0	77	25662
2026-01-28 21:26:14.54	201.66	53.99	-53.6	-58.0	3.7	0.00e+00	0	51	104	0	77	25804
2026-01-28 21:26:16.53	201.43	52.79	-53.5	-57.9	3.7	0.00e+00	0	51	104	0	77	25590
2026-01-28 21:26:18.52	201.21	51.63	-53.3	-57.8	3.7	0.00e+00	0	51	104	0	77	25129
2026-01-28 21:26:20.56	201.00	50.47	-52.2	-57.2	3.7	0.00e+00	0	51	104	0	76	25018
2026-01-28 21:26:22.50	200.82	49.39	-52.4	-57.4	3.7	0.00e+00	0	51	104	0	76	25491
2026-01-28 21:26:24.49	200.65	48.32	-53.4	-57.8	3.7	0.00e+00	0	52	104	0	77	25156
2026-01-28 21:26:26.48	200.49	47.27	-53.2	-57.6	3.7	0.00e+00	0	52	104	0	77	24789
2026-01-28 21:26:28.47	200.34	46.25	-53.3	-57.8	3.7	0.00e+00	0	51	104	0	77	25270
2026-01-28 21:26:30.46	200.21	45.26	-53.2	-57.6	3.7	0.00e+00	0	51	104	0	77	24804
2026-01-28 21:26:32.45	200.08	44.29	-52.8	-57.5	3.7	0.00e+00	0	52	104	0	77	24325
2026-01-28 21:26:34.44	199.95	43.35	-52.8	-57.5	3.7	0.00e+00	0	52	104	0	77	24243
2026-01-28 21:26:36.43	199.84	42.44	-53.2	-57.8	3.7	0.00e+00	0	51	104	0	77	25150
2026-01-28 21:26:38.39	199.74	41.57	-53.3	-57.8	3.7	0.00e+00	0	51	104	0	77	25122
2026-01-28 21:26:40.38	199.63	40.70	-53.2	-57.5	3.7	0.00e+00	0	52	104	0	77	24317
2026-01-28 21:26:42.37	199.54	39.86	-53.0	-57.5	3.7	0.00e+00	0	51	104	0	77	24282
2026-01-28 21:26:44.36	199.45	39.04	-53.2	-57.4	3.7	0.00e+00	0	51	104	0	77	23999
2026-01-28 21:26:46.35	199.36	38.24	-53.1	-57.3	3.7	0.00e+00	0	51	104	0	77	23851
2026-01-28 21:26:48.34	199.28	37.46	-53.2	-57.5	3.7	0.00e+00	0	52	104	0	77	24503
2026-01-28 21:26:50.37	199.21	36.69	-53.2	-57.7	3.7	0.00e+00	0	52	104	0	77	24819
2026-01-28 21:26:52.36	199.13	35.95	-53.2	-57.6	3.7	0.00e+00	0	52	104	0	77	24604
2026-01-28 21:26:54.35	199.06	35.23	-53.1	-57.5	3.7	0.00e+00	0	51	104	0	77	24448
2026-01-28 21:26:56.34	199.00	34.54	-53.1	-57.5	3.7	0.00e+00	0	51	104	0	77	24391
2026-01-28 21:26:58.32	198.94	33.86	-53.3	-57.7	3.7	0.00e+00	0	51	104	0	77	24817
2026-01-28 21:27:00.31	198.88	33.19	-53.3	-57.8	3.7	0.00e+00	0	52	104	0	77	25213
2026-01-28 21:27:02.30	198.82	32.54	-53.2	-57.7	3.7	0.00e+00	0	51	104	0	77	24940
2026-01-28 21:27:04.29	198.77	31.91	-52.8	-57.5	3.7	0.00e+00	0	51	104	0	77	24301
2026-01-28 21:27:06.33	198.71	31.28	-52.8	-57.4	3.7	0.00e+00	0	51	104	0	77	24202
2026-01-28 21:27:08.37	198.66	30.66	-53.1	-57.6	3.7	0.00e+00	0	51	104	0	77	24658
2026-01-28 21:27:10.40	198.62	30.07	-52.9	-57.5	3.7	0.00e+00	0	52	104	0	77	24451
2026-01-28 21:27:12.40	198.57	29.49	-53.2	-57.7	3.7	0.00e+00	0	51	104	0	77	24848
2026-01-28 21:27:14.39	198.53	28.93	-53.2	-57.6	3.7	0.00e+00	0	52	104	0	77	24624
2026-01-28 21:27:16.37	198.49	28.39	-53.1	-57.5	3.6	0.00e+00	0	51	104	0	77	24355
2026-01-28 21:27:18.36	198.45	27.86	-53.2	-57.5	3.7	0.00e+00	0	51	104	0	77	24521
2026-01-28 21:27:20.38	198.41	27.33	-53.1	-57.6	3.7	0.00e+00	0	52	104	0	77	24747
2026-01-28 21:27:22.44	198.37	26.80	-53.1	-57.6	3.7	0.00e+00	0	51	104	0	77	24746
2026-01-28 21:27:24.35	198.34	26.32	-53.2	-57.6	3.6	0.00e+00	0	51	104	0	77	24664
2026-01-28 21:27:26.56	198.30	25.78	-53.1	-57.5	3.7	0.00e+00	0	51	104	0	77	24351
2026-01-28 21:27:28.55	198.27	25.31	-53.1	-57.6	3.7	0.00e+00	0	51	104	0	77	24746
2026-01-28 21:27:30.54	198.24	24.84	-53.2	-57.6	3.7	0.00e+00	0	52	104	0	77	24771
2026-01-28 21:27:32.53	198.21	24.39	-53.2	-57.6	3.7	0.00e+00	0	51	104	0	77	24688
2026-01-28 21:27:34.52	198.18	23.94	-53.0	-57.5	3.7	0.00e+00	0	52	104	0	77	24361
2026-01-28 21:27:36.51	198.15	23.51	-52.8	-57.2	3.7	0.00e+00	0	52	104	0	77	23598
2026-01-28 21:27:38.50	198.13	23.08	-52.7	-57.2	3.7	0.00e+00	0	51	104	0	77	23524
2026-01-28 21:27:40.49	198.10	22.66	-52.6	-57.1	3.7	0.00e+00	0	51	104	0	77	23356
2026-01-28 21:27:42.61	198.08	22.23	-52.5	-57.1	3.7	0.00e+00	0	52	104	0	77	23305
2026-01-28 21:27:44.82	198.05	21.78	-52.5	-57.1	3.7	0.00e+00	0	51	104	0	76	24696
2026-01-28 21:27:46.80	198.03	21.39	-52.7	-57.3	3.7	0.00e+00	0	51	104	0	76	25111
2026-01-28 21:27:48.82	198.01	21.00	-52.7	-57.3	3.7	0.00e+00	0	52	104	0	76	25182
2026-01-28 21:27:50.81	197.99	20.62	-52.6	-57.2	3.7	0.00e+00	0	52	104	0	76	24984
2026-01-28 21:27:52.82	197.96	20.24	-52.6	-57.2	3.7	0.00e+00	0	52	104	0	76	25024
2026-01-28 21:27:54.82	197.95	19.88	-52.5	-57.0	3.7	0.00e+00	0	52	104	0	76	24440
2026-01-28 21:27:56.86	197.93	19.51	-52.4	-57.0	3.7	0.00e+00	0	51	104	0	76	24296
2026-01-28 21:27:58.88	197.91	19.16	-52.7	-57.2	3.7	0.00e+00	0	52	104	0	76	24895
2026-01-28 21:28:00.87	197.89	18.81	-52.6	-57.1	3.7	0.00e+00	0	52	104	0	76	24748
2026-01-28 21:28:02.86	197.87	18.47	-52.6	-57.2	3.7	0.00e+00	0	52	104	0	76	24894
2026-01-28 21:28:04.87	197.86	18.14	-52.4	-57.0	3.7	0.00e+00	0	52	104	0	75	25923
2026-01-28 21:28:06.86	197.84	17.81	-51.9	-56.6	3.7	0.00e+00	0	52	104	0	75	24751
2026-01-28 21:28:08.85	197.83	17.49	-51.4	-56.3	3.7	0.00e+00	0	51	104	0	74	25326
2026-01-28 21:28:10.84	197.81	17.17	-51.4	-56.3	3.7	0.00e+00	0	51	104	0	74	25305
2026-01-28 21:28:12.82	197.80	16.86	-51.7	-56.5	3.7	0.00e+00	0	52	104	0	74	25691
2026-01-28 21:28:14.82	197.78	16.56	-51.5	-56.2	3.7	0.00e+00	0	52	104	0	74	24994
2026-01-28 21:28:17.12	197.77	16.21	-51.5	-56.2	3.7	0.00e+00	0	52	104	0	74	25033
2026-01-28 21:28:19.11	197.76	15.91	-51.2	-56.0	3.7	0.00e+00	0	51	104	0	74	24315
2026-01-28 21:28:21.10	197.74	15.62	-51.3	-56.1	3.7	0.00e+00	0	52	104	0	74	24626
2026-01-28 21:28:23.11	197.73	15.33	-51.1	-55.8	3.7	0.00e+00	0	51	104	0	74	23714
2026-01-28 21:28:25.11	197.72	15.05	-51.1	-55.9	3.7	0.00e+00	0	52	104	0	74	24020
2026-01-28 21:28:27.11	197.71	14.77	-51.3	-56.0	3.7	0.00e+00	0	52	104	0	74	24502
2026-01-28 21:28:29.36	197.70	14.46	-51.3	-56.0	3.7	0.00e+00	0	52	104	0	74	24503
2026-01-28 21:28:31.38	197.69	14.19	-51.3	-56.1	3.7	0.00e+00	0	51	104	0	74	24658
2026-01-28 21:28:33.74	197.67	13.88	-51.1	-56.0	3.7	0.00e+00	0	52	104	0	74	24367
2026-01-28 21:28:36.01	197.66	13.58	-51.3	-56.1	3.7	0.00e+00	0	52	104	0	74	24563
2026-01-28 21:28:38.28	197.65	13.29	-51.3	-56.1	3.7	0.00e+00	0	52	104	0	74	24601
2026-01-28 21:28:40.56	197.64	13.00	-51.5	-56.1	3.7	0.00e+00	0	52	104	0	74	24699
2026-01-28 21:28:42.83	197.63	12.71	-51.3	-56.1	3.7	0.00e+00	0	51	104	0	74	24593
2026-01-28 21:28:45.10	197.62	12.44	-51.4	-56.1	3.7	0.00e+00	0	52	104	0	74	24730
2026-01-28 21:28:47.69	197.61	12.12	-51.3	-56.0	3.7	0.00e+00	0	52	104	0	74	24489
2026-01-28 21:28:49.96	197.60	11.85	-51.2	-55.9	3.7	0.00e+00	0	51	104	0	74	24018
2026-01-28 21:28:52.24	197.60	11.59	-51.4	-56.1	3.7	0.00e+00	0	52	104	0	74	24638
2026-01-28 21:28:54.51	197.59	11.32	-51.3	-56.0	3.7	0.00e+00	0	51	104	0	74	24486
2026-01-28 21:28:56.79	197.58	11.06	-51.4	-56.2	3.7	0.00e+00	0	52	104	0	74	25002
2026-01-28 21:28:58.86	197.57	10.83	-51.3	-55.9	3.7	0.00e+00	0	52	104	0	74	24137
2026-01-28 21:29:00.85	197.57	10.61	-51.5	-56.2	3.7	0.00e+00	0	52	104	0	74	25027
2026-01-28 21:29:02.84	197.56	10.39	-51.3	-56.0	3.7	0.00e+00	0	52	104	0	74	24336
2026-01-28 21:29:04.83	197.56	10.18	-51.5	-56.1	3.7	0.00e+00	0	51	104	0	74	24710
2026-01-28 21:29:06.82	197.55	9.96	-51.4	-56.1	3.7	0.00e+00	0	52	104	0	74	24535
2026-01-28 21:29:08.82	197.54	9.75	-51.4	-56.0	3.7	0.00e+00	0	52	104	0	74	24504
2026-01-28 21:29:10.82	197.54	9.54	-51.4	-56.1	3.7	0.00e+00	0	52	104	0	74	24608
2026-01-28 21:29:12.84	197.53	9.33	-51.3	-56.0	3.7	0.00e+00	0	52	104	0	74	24404
2026-01-28 21:29:14.83	197.53	9.13	-51.3	-56.0	3.7	0.00e+00	0	52	104	0	74	24323
2026-01-28 21:29:16.84	197.52	8.93	-51.3	-56.0	3.7	0.00e+00	0	52	104	0	74	24249
2026-01-28 21:29:18.82	197.52	8.73	-50.9	-55.7	3.7	0.00e+00	0	52	104	0	73	25002
2026-01-28 21:29:20.83	197.52	8.53	-48.8	-53.6	3.7	0.00e+00	0	52	104	0	69	24804
2026-01-28 21:29:22.86	197.51	8.33	-47.5	-50.7	3.7	0.00e+00	0	52	104	0	65	22299
2026-01-28 21:29:24.85	197.51	8.14	-46.7	-51.4	3.7	0.00e+00	0	52	104	0	64	25551
2026-01-28 21:29:26.85	197.50	7.95	-52.3	-56.8	3.7	0.00e+00	0	52	104	0	75	25348
2026-01-28 21:29:28.84	197.50	7.76	-52.6	-57.2	3.7	0.00e+00	0	52	104	0	76	24975
2026-01-28 21:29:30.82	197.50	7.57	-52.8	-57.3	3.7	0.00e+00	0	52	104	0	76	25203
2026-01-28 21:29:32.81	197.49	7.39	-52.9	-57.3	3.7	0.00e+00	0	52	104	0	76	25270
2026-01-28 21:29:34.80	197.49	7.20	-52.7	-57.4	3.7	0.00e+00	0	52	104	0	76	25507
2026-01-28 21:29:36.78	197.49	7.02	-52.4	-57.2	3.7	0.00e+00	0	52	104	0	76	24937
2026-01-28 21:29:38.77	197.48	6.84	-52.4	-57.1	3.7	0.00e+00	0	52	104	0	76	24583
2026-01-28 21:29:40.77	197.48	6.66	-52.6	-57.3	3.7	0.00e+00	0	52	104	0	76	25236
2026-01-28 21:29:42.76	197.48	6.49	-51.6	-57.0	3.7	0.00e+00	0	52	104	0	75	25889
2026-01-28 21:29:44.75	197.48	6.31	-52.2	-56.6	3.7	0.00e+00	0	52	104	0	75	24800
2026-01-28 21:29:46.76	197.47	6.14	-51.6	-55.3	3.7	0.00e+00	0	52	104	0	75	21296
2026-01-28 21:29:48.75	197.47	5.96	-51.2	-54.8	3.7	0.00e+00	0	52	104	0	74	21216
2026-01-28 21:29:50.74	197.47	5.79	-51.2	-54.8	3.7	0.00e+00	0	52	104	0	74	21123
2026-01-28 21:29:52.74	197.47	5.62	-51.2	-54.8	3.7	0.00e+00	0	52	104	0	74	21175
2026-01-28 21:29:54.73	197.47	5.46	-51.2	-54.8	3.7	0.00e+00	0	52	104	0	74	21143
2026-01-28 21:29:56.72	197.46	5.29	-51.2	-54.7	3.7	0.00e+00	0	52	104	0	74	21092
2026-01-28 21:29:58.72	197.46	5.13	-51.2	-54.7	3.7	0.00e+00	0	52	104	0	74	21082
2026-01-28 21:30:00.72	197.46	4.96	-51.2	-54.7	3.7	0.00e+00	0	51	104	0	74	21100

#Closed at: 2026-01-28 21:30:01
#Recorded file [0 MB]: D:/Data/31040_260129_002055.dat