passes_logs/2026/01/28/T1/T1__20260128_223254_SUOMI_NPP_rec.log

#Pass ID: 20260128_223254_SUOMI NPP
#Satellite: SUOMI NPP
#Configuration: NPP
#almurnet v.1.7.20251203
#Start time: 2026-01-28 22:32:53

#Version: 2.0.20230620
#Station: T1
#Location: 37.570604 lon 55.790049 lat
#TLE: 1 37849U 11061A   26027.86188320  .00000172  00000+0  10275-3 0  9990
#TLE: 2 37849  98.7823 329.8005 0002088  41.4184 318.7150 14.19530883738530

#Time	Az	El	Level	Level2	SNR	BER	BlckErr	Temp	State	Recorded	gain1	gain2
2026-01-28 22:32:53.89	26.33	4.97	-49.7	-65.2	3.8	1.49e+00	0	36	0	0	70	22098
2026-01-28 22:32:56.87	26.55	5.16	-50.1	-65.3	3.8	1.49e+00	0	37	104	0	71	21154
2026-01-28 22:32:59.85	26.76	5.35	-50.1	-65.3	3.8	1.49e+00	0	37	104	0	71	21109
2026-01-28 22:33:02.82	26.98	5.54	-50.1	-65.2	3.8	1.49e+00	0	37	104	0	71	20919
2026-01-28 22:33:05.80	27.20	5.73	-50.0	-65.1	3.8	1.49e+00	0	37	104	0	71	20743
2026-01-28 22:33:08.78	27.42	5.92	-49.5	-65.0	3.8	1.49e+00	0	37	104	0	71	20321
2026-01-28 22:33:11.76	27.65	6.11	-48.9	-64.6	3.8	1.49e+00	0	37	104	0	69	21851
2026-01-28 22:33:14.74	27.88	6.30	-48.9	-64.6	3.8	1.49e+00	0	38	104	0	69	21877
2026-01-28 22:33:17.72	28.11	6.50	-48.9	-64.6	3.8	1.49e+00	0	38	104	0	69	21767
2026-01-28 22:33:20.70	28.34	6.69	-48.9	-64.5	3.8	1.49e+00	0	38	104	0	69	21616
2026-01-28 22:33:23.68	28.58	6.89	-48.9	-64.5	3.8	1.49e+00	0	38	104	0	69	21637
2026-01-28 22:33:26.66	28.82	7.09	-48.9	-64.4	3.8	1.49e+00	0	38	104	0	69	21371
2026-01-28 22:33:29.64	29.07	7.29	-48.9	-64.2	3.8	1.49e+00	0	38	104	0	69	20824
2026-01-28 22:33:32.62	29.31	7.49	-48.9	-64.1	3.8	1.49e+00	0	38	104	0	69	20715
2026-01-28 22:33:35.60	29.56	7.69	-48.9	-64.4	3.8	1.49e+00	0	38	104	0	69	21504
2026-01-28 22:33:38.58	29.82	7.89	-48.9	-64.5	3.8	1.49e+00	0	38	104	0	69	21633
2026-01-28 22:33:41.56	30.07	8.10	-48.9	-64.4	3.8	1.49e+00	0	38	104	0	69	21396
2026-01-28 22:33:44.54	30.33	8.30	-48.9	-64.3	3.8	1.49e+00	0	38	104	0	69	21115
2026-01-28 22:33:47.52	30.60	8.51	-48.8	-64.0	3.8	1.49e+00	0	38	104	0	69	20402
2026-01-28 22:33:50.50	30.87	8.71	-48.8	-62.4	3.9	1.49e+00	0	38	104	0	69	16926
2026-01-28 22:33:53.48	31.14	8.92	-48.3	-57.8	5.8	5.31e-01	0	38	0	2097152	68	10548
2026-01-28 22:33:56.46	31.41	9.13	-48.1	-57.3	6.1	1.10e-01	0	38	0	8388608	67	10638
2026-01-28 22:33:59.45	31.69	9.34	-47.1	-53.4	5.2	1.47e+00	0	39	104	11534336	66	7136
2026-01-28 22:34:02.43	31.97	9.56	-43.7	-46.7	16.5	0.00e+00	0	39	0	15728640	59	4971
2026-01-28 22:34:05.41	32.26	9.77	-43.3	-46.1	17.1	0.00e+00	0	39	0	22020096	58	4902
2026-01-28 22:34:08.40	32.55	9.98	-43.2	-46.0	17.2	0.00e+00	0	39	0	27262976	58	4841
2026-01-28 22:34:11.38	32.85	10.20	-43.4	-46.3	16.9	0.00e+00	0	39	0	32505856	58	5016
2026-01-28 22:34:14.37	33.15	10.42	-43.6	-46.6	16.7	0.00e+00	0	39	0	38797312	58	5164
2026-01-28 22:34:17.35	33.45	10.64	-43.8	-46.9	16.4	0.00e+00	0	39	0	44040192	58	5364
2026-01-28 22:34:20.40	33.77	10.86	-43.9	-46.9	16.3	0.00e+00	0	39	0	49283072	58	5402
2026-01-28 22:34:23.71	34.11	11.11	-43.8	-46.6	16.7	0.00e+00	0	39	0	55574528	58	5200
2026-01-28 22:34:26.55	34.41	11.32	-43.6	-46.4	16.8	0.00e+00	0	39	0	60817408	58	5077
2026-01-28 22:34:29.68	34.75	11.55	-43.5	-46.2	17.1	0.00e+00	0	39	0	67108864	58	4957
2026-01-28 22:34:32.52	35.06	11.77	-43.6	-46.3	16.9	0.00e+00	0	39	0	72351744	58	5034
2026-01-28 22:34:35.85	35.43	12.02	-43.3	-46.0	17.2	0.00e+00	0	39	0	78643200	58	4865
2026-01-28 22:34:38.80	35.77	12.25	-43.3	-46.1	17.2	0.00e+00	0	39	0	83886080	58	4904
2026-01-28 22:34:41.98	36.13	12.49	-43.2	-46.0	17.3	0.00e+00	0	39	0	90177536	58	4822
2026-01-28 22:34:44.82	36.46	12.71	-43.3	-46.0	17.3	0.00e+00	0	39	0	95420416	58	4840
2026-01-28 22:34:47.94	36.83	12.95	-43.1	-45.7	17.6	0.00e+00	0	39	0	101711872	58	4682
2026-01-28 22:34:50.78	37.17	13.17	-43.0	-45.6	17.7	0.00e+00	0	39	0	106954752	58	4605
2026-01-28 22:34:54.04	37.57	13.43	-42.8	-45.4	17.9	0.00e+00	0	39	0	112197632	57	4765
2026-01-28 22:34:56.88	37.92	13.65	-43.0	-45.5	17.7	0.00e+00	0	39	0	118489088	57	4870
2026-01-28 22:35:00.01	38.31	13.90	-43.2	-45.8	17.6	0.00e+00	0	39	0	123731968	57	5006
2026-01-28 22:35:02.86	38.68	14.13	-43.6	-46.3	17.0	0.00e+00	0	39	0	128974848	57	5318
2026-01-28 22:35:05.98	39.08	14.38	-43.7	-46.5	16.9	0.00e+00	0	39	0	135266304	58	5107
2026-01-28 22:35:08.83	39.46	14.61	-43.7	-46.4	17.0	0.00e+00	0	39	0	140509184	58	5082
2026-01-28 22:35:11.95	39.88	14.86	-43.6	-46.4	17.0	0.00e+00	0	39	0	146800640	58	5050
2026-01-28 22:35:14.79	40.26	15.09	-43.2	-45.8	17.5	0.00e+00	0	39	0	152043520	58	4756
2026-01-28 22:35:18.01	40.71	15.36	-42.9	-45.5	17.9	0.00e+00	0	39	0	157286400	57	4816
2026-01-28 22:35:20.91	41.11	15.59	-42.8	-45.2	18.1	0.00e+00	0	39	0	163577856	57	4704
2026-01-28 22:35:24.10	41.57	15.86	-42.7	-45.2	18.2	0.00e+00	0	39	0	168820736	57	4657
2026-01-28 22:35:26.94	41.98	16.09	-42.6	-45.0	18.3	0.00e+00	0	39	0	174063616	57	4572
2026-01-28 22:35:30.07	42.44	16.35	-42.4	-44.8	18.6	0.00e+00	0	39	0	180355072	56	4717
2026-01-28 22:35:33.22	42.91	16.62	-42.3	-44.7	18.6	0.00e+00	0	39	0	186646528	56	4673
2026-01-28 22:35:36.06	43.35	16.85	-42.4	-44.8	18.6	0.00e+00	0	39	0	191889408	56	4713
2026-01-28 22:35:39.28	43.85	17.12	-42.6	-45.0	18.3	0.00e+00	0	39	0	197132288	56	4838
2026-01-28 22:35:42.13	44.29	17.36	-42.7	-45.1	18.3	0.00e+00	0	39	0	202375168	56	4897
2026-01-28 22:35:45.25	44.79	17.63	-42.6	-45.0	18.4	0.00e+00	0	39	0	208666624	56	4838
2026-01-28 22:35:48.09	45.25	17.87	-42.4	-44.7	18.6	0.00e+00	0	39	0	213909504	56	4697
2026-01-28 22:35:51.22	45.77	18.14	-42.1	-44.4	18.8	0.00e+00	0	39	0	220200960	56	4545
2026-01-28 22:35:54.06	46.25	18.38	-41.9	-44.3	18.8	0.00e+00	0	39	0	225443840	55	4717
2026-01-28 22:35:57.18	46.78	18.64	-41.7	-44.0	19.2	0.00e+00	0	39	0	230686720	55	4563
2026-01-28 22:36:00.10	47.29	18.89	-41.5	-43.7	19.4	0.00e+00	0	39	0	236978176	54	4696
2026-01-28 22:36:03.47	47.88	19.18	-41.9	-44.3	18.9	0.00e+00	0	39	0	243269632	54	4989
2026-01-28 22:36:06.17	48.37	19.41	-42.0	-44.3	18.9	0.00e+00	0	39	0	248512512	54	5002
2026-01-28 22:36:10.01	49.07	19.74	-41.7	-44.0	19.2	0.00e+00	0	39	0	254803968	54	4820
2026-01-28 22:36:12.85	49.60	19.99	-41.8	-44.1	19.0	0.00e+00	0	39	0	260046848	54	4922
2026-01-28 22:36:16.97	50.38	20.34	-42.0	-44.4	18.8	0.00e+00	0	39	0	268435456	54	5061
2026-01-28 22:36:19.81	50.93	20.59	-41.7	-44.0	19.1	0.00e+00	0	39	0	273678336	54	4832
2026-01-28 22:36:23.79	51.71	20.93	-42.1	-44.4	18.8	0.00e+00	0	39	0	281018368	54	5065
2026-01-28 22:36:26.64	52.29	21.17	-41.7	-44.0	19.2	0.00e+00	0	40	0	286261248	54	4836
2026-01-28 22:36:30.62	53.10	21.51	-41.7	-44.0	19.2	0.00e+00	0	39	0	293601280	54	4838
2026-01-28 22:36:33.82	53.77	21.78	-41.8	-44.0	19.1	0.00e+00	0	39	0	299892736	54	4856
2026-01-28 22:36:36.67	54.37	22.02	-41.7	-43.9	19.2	0.00e+00	0	39	0	305135616	54	4801
2026-01-28 22:36:39.80	55.04	22.29	-41.8	-44.1	19.1	0.00e+00	0	39	0	311427072	54	4881
2026-01-28 22:36:42.74	55.69	22.54	-42.0	-44.3	18.9	0.00e+00	0	39	0	316669952	54	5009
2026-01-28 22:36:45.87	56.38	22.80	-42.0	-44.3	18.9	0.00e+00	0	39	0	321912832	54	4999
2026-01-28 22:36:48.71	57.02	23.03	-41.8	-44.1	19.1	0.00e+00	0	39	0	328204288	54	4902
2026-01-28 22:36:51.84	57.74	23.29	-41.6	-43.8	19.4	0.00e+00	0	39	0	333447168	54	4728
2026-01-28 22:36:54.68	58.40	23.52	-41.7	-43.9	19.3	0.00e+00	0	39	0	338690048	54	4799
2026-01-28 22:36:57.82	59.15	23.78	-42.3	-44.7	18.5	0.00e+00	0	39	0	344981504	55	4965
2026-01-28 22:37:00.66	59.83	24.01	-42.1	-44.5	18.7	0.00e+00	0	39	0	350224384	55	4852
2026-01-28 22:37:03.92	60.62	24.27	-41.8	-44.1	19.1	0.00e+00	0	39	0	356515840	55	4605
2026-01-28 22:37:06.76	61.33	24.49	-41.8	-44.0	19.2	0.00e+00	0	39	0	361758720	55	4595
2026-01-28 22:37:10.12	62.17	24.75	-41.9	-44.1	19.1	0.00e+00	0	39	0	368050176	54	4918
2026-01-28 22:37:12.85	62.87	24.96	-42.6	-45.1	18.2	0.00e+00	0	39	0	373293056	55	5183
2026-01-28 22:37:16.15	63.72	25.21	-41.9	-44.2	19.0	0.00e+00	0	39	0	379584512	55	4654
2026-01-28 22:37:19.06	64.48	25.42	-42.0	-44.3	18.9	0.00e+00	0	39	0	384827392	55	4739
2026-01-28 22:37:22.71	65.46	25.69	-43.3	-45.9	17.6	0.00e+00	0	39	0	391118848	57	5081
2026-01-28 22:37:25.55	66.23	25.89	-42.6	-45.0	18.4	0.00e+00	0	39	0	396361728	57	4578
2026-01-28 22:37:29.54	67.32	26.17	-43.1	-45.6	17.9	0.00e+00	0	39	0	404750336	57	4893
2026-01-28 22:37:32.46	68.13	26.37	-43.2	-45.8	17.7	0.00e+00	0	39	0	409993216	57	5011
2026-01-28 22:37:36.45	69.26	26.63	-43.2	-45.7	17.8	0.00e+00	0	40	0	417333248	57	4970
2026-01-28 22:37:39.42	70.11	26.82	-43.2	-45.8	17.7	0.00e+00	0	39	0	422576128	57	4992
2026-01-28 22:37:42.83	71.10	27.03	-43.3	-45.8	17.7	0.00e+00	0	40	0	428867584	57	5034
2026-01-28 22:37:45.58	71.91	27.20	-43.8	-46.5	17.0	0.00e+00	0	39	0	434110464	58	5157
2026-01-28 22:37:49.59	73.10	27.43	-42.7	-45.1	18.4	0.00e+00	0	39	0	441450496	57	4620
2026-01-28 22:37:52.43	73.96	27.59	-44.0	-46.8	16.8	0.00e+00	0	39	0	446693376	58	5298
2026-01-28 22:37:56.24	75.11	27.79	-44.3	-47.2	16.4	0.00e+00	0	39	0	454033408	59	5220
2026-01-28 22:37:59.03	75.97	27.93	-45.1	-48.4	15.2	0.00e+00	0	39	0	459276288	60	5714
2026-01-28 22:38:02.15	76.94	28.08	-45.4	-49.0	14.7	0.00e+00	0	39	0	465567744	61	5740
2026-01-28 22:38:05.00	77.83	28.21	-45.5	-49.0	14.7	0.00e+00	0	39	0	470810624	61	5746
2026-01-28 22:38:08.15	78.83	28.35	-44.9	-48.1	15.5	7.00e-07	0	39	0	477102080	61	5218
2026-01-28 22:38:11.12	79.77	28.47	-44.3	-47.3	16.4	0.00e+00	0	39	0	482344960	60	5001
2026-01-28 22:38:14.48	80.85	28.59	-45.1	-48.4	15.2	0.00e+00	0	40	0	488636416	61	5371
2026-01-28 22:38:17.18	81.72	28.69	-44.4	-47.5	16.2	0.00e+00	0	39	0	493879296	60	5108
2026-01-28 22:38:20.78	82.89	28.80	-44.2	-47.3	16.3	0.00e+00	0	40	0	500170752	60	4992
2026-01-28 22:38:23.63	83.82	28.88	-43.7	-46.5	17.0	0.00e+00	0	39	0	505413632	58	5148
2026-01-28 22:38:27.61	85.13	28.98	-43.5	-46.3	17.3	0.00e+00	0	39	0	512753664	58	4995
2026-01-28 22:38:30.44	86.06	29.05	-43.3	-45.9	17.7	0.00e+00	0	39	0	519045120	58	4794
2026-01-28 22:38:34.02	87.25	29.11	-43.3	-46.0	17.5	0.00e+00	0	39	0	525336576	58	4821
2026-01-28 22:38:36.93	88.22	29.16	-43.1	-45.7	17.7	0.00e+00	0	39	0	530579456	58	4701
2026-01-28 22:38:40.21	89.31	29.20	-43.6	-46.3	17.3	0.00e+00	0	39	0	536870912	58	5016
2026-01-28 22:38:42.99	90.24	29.23	-43.1	-45.5	17.9	0.00e+00	0	39	0	542113792	58	4598
2026-01-28 22:38:46.29	91.34	29.25	-43.8	-46.5	17.1	0.00e+00	0	39	0	548405248	58	5142
2026-01-28 22:38:49.00	92.25	29.25	-44.4	-47.4	16.2	0.00e+00	0	39	0	553648128	59	5382
2026-01-28 22:38:52.27	93.35	29.25	-44.4	-47.5	16.1	0.00e+00	0	39	0	559939584	59	5410
2026-01-28 22:38:55.28	94.36	29.24	-43.2	-45.7	17.8	0.00e+00	0	40	0	565182464	58	4685
2026-01-28 22:38:58.33	95.38	29.22	-43.6	-46.2	17.3	0.00e+00	0	39	0	570425344	57	5255
2026-01-28 22:39:01.32	96.38	29.19	-44.8	-47.9	15.7	0.00e+00	0	39	0	576716800	60	5396
2026-01-28 22:39:04.30	97.37	29.15	-44.5	-47.6	16.0	0.00e+00	0	39	0	581959680	60	5184
2026-01-28 22:39:07.28	98.37	29.11	-44.7	-47.8	15.8	0.00e+00	0	39	0	587202560	60	5319
2026-01-28 22:39:10.24	99.35	29.05	-44.8	-48.0	15.6	0.00e+00	0	39	0	593494016	60	5439
2026-01-28 22:39:13.59	100.46	28.98	-46.0	-50.0	13.7	5.30e-06	0	39	0	599785472	62	6074
2026-01-28 22:39:16.29	101.35	28.91	-45.5	-48.9	14.7	0.00e+00	0	39	0	605028352	62	5399
2026-01-28 22:39:19.57	102.42	28.81	-45.7	-49.3	14.4	0.00e+00	0	39	0	610271232	62	5635
2026-01-28 22:39:22.28	103.30	28.73	-44.6	-47.7	15.9	7.00e-07	0	39	0	615514112	61	4942
2026-01-28 22:39:25.58	104.37	28.62	-46.1	-50.0	13.6	7.60e-06	0	39	0	621805568	62	6123
2026-01-28 22:39:28.30	105.25	28.52	-44.6	-47.7	15.9	0.00e+00	0	39	0	627048448	61	4940
2026-01-28 22:39:31.93	106.41	28.38	-44.0	-46.9	16.7	0.00e+00	0	40	0	633339904	60	4762
2026-01-28 22:39:34.74	107.30	28.26	-43.5	-46.2	17.3	0.00e+00	0	40	0	638582784	59	4675
2026-01-28 22:39:38.22	108.39	28.10	-44.2	-47.0	16.6	0.00e+00	0	39	0	645922816	58	5447
2026-01-28 22:39:40.95	109.24	27.97	-44.2	-47.1	16.5	0.00e+00	0	39	0	651165696	59	5181
2026-01-28 22:39:44.28	110.27	27.80	-43.8	-46.5	17.0	0.00e+00	0	39	0	656408576	59	4823
2026-01-28 22:39:47.15	111.15	27.65	-43.9	-46.7	16.8	0.00e+00	0	39	0	662700032	59	4958
2026-01-28 22:39:50.60	112.19	27.46	-43.8	-46.5	17.0	0.00e+00	0	39	0	668991488	58	5123
2026-01-28 22:39:53.32	113.00	27.31	-44.1	-46.9	16.6	0.00e+00	0	39	0	674234368	59	5089
2026-01-28 22:39:56.59	113.97	27.11	-44.2	-47.2	16.4	0.00e+00	0	39	0	679477248	59	5231
2026-01-28 22:39:59.29	114.76	26.95	-45.6	-49.2	14.4	0.00e+00	0	39	0	684720128	61	5905
2026-01-28 22:40:02.56	115.71	26.74	-44.6	-47.7	15.9	0.00e+00	0	39	0	691011584	61	4954
2026-01-28 22:40:05.40	116.52	26.56	-44.4	-47.3	16.2	0.00e+00	0	39	0	696254464	60	5041
2026-01-28 22:40:08.73	117.47	26.33	-44.2	-47.1	16.5	0.00e+00	0	39	0	702545920	60	4876
2026-01-28 22:40:11.72	118.30	26.13	-44.3	-47.2	16.3	0.00e+00	0	40	0	708837376	59	5252
2026-01-28 22:40:14.73	119.13	25.92	-44.4	-47.4	16.2	0.00e+00	0	39	0	714080256	59	5348
2026-01-28 22:40:17.73	119.94	25.70	-43.7	-46.4	17.0	0.00e+00	0	39	0	719323136	59	4808
2026-01-28 22:40:20.71	120.74	25.49	-43.9	-46.6	16.9	0.00e+00	0	39	0	725614592	59	4907
2026-01-28 22:40:23.84	121.57	25.25	-43.6	-46.3	17.1	0.00e+00	0	40	0	730857472	59	4739
2026-01-28 22:40:27.07	122.41	25.01	-43.8	-46.5	17.0	0.00e+00	0	39	0	737148928	58	5158
2026-01-28 22:40:29.91	123.14	24.79	-43.3	-45.9	17.6	0.00e+00	0	39	0	742391808	58	4784
2026-01-28 22:40:33.04	123.94	24.55	-42.3	-44.7	18.7	0.00e+00	0	40	0	748683264	56	4663
2026-01-28 22:40:35.89	124.65	24.32	-43.2	-45.8	17.7	0.00e+00	0	39	0	753926144	57	4987
2026-01-28 22:40:39.01	125.41	24.07	-42.4	-44.7	18.6	0.00e+00	0	40	0	759169024	56	4702
2026-01-28 22:40:41.85	126.10	23.85	-43.0	-45.5	17.9	0.00e+00	0	40	0	764411904	56	5126
2026-01-28 22:40:45.09	126.88	23.58	-42.7	-45.1	18.2	0.00e+00	0	39	0	770703360	57	4651
2026-01-28 22:40:47.94	127.55	23.35	-42.3	-44.7	18.6	0.00e+00	0	39	0	775946240	55	4929
2026-01-28 22:40:51.07	128.27	23.09	-44.2	-47.2	16.3	0.00e+00	0	39	0	782237696	59	5229
2026-01-28 22:40:53.91	128.92	22.85	-42.8	-45.3	18.1	0.00e+00	0	40	0	787480576	57	4736
2026-01-28 22:40:57.04	129.62	22.59	-41.7	-43.9	19.3	0.00e+00	0	39	0	793772032	55	4515
2026-01-28 22:40:59.89	130.25	22.35	-41.5	-43.7	19.4	0.00e+00	0	39	0	799014912	55	4411
2026-01-28 22:41:03.01	130.93	22.08	-41.8	-44.1	19.0	0.00e+00	0	39	0	804257792	54	4901
2026-01-28 22:41:05.85	131.53	21.84	-44.4	-47.4	16.2	0.00e+00	0	39	0	809500672	59	5347
2026-01-28 22:41:08.98	132.19	21.57	-44.4	-47.5	16.0	0.00e+00	0	39	0	815792128	60	5133
2026-01-28 22:41:11.82	132.78	21.33	-43.7	-46.4	17.0	0.00e+00	0	39	0	821035008	59	4806
2026-01-28 22:41:15.04	133.44	21.05	-43.2	-45.8	17.6	0.00e+00	0	39	0	827326464	58	4721
2026-01-28 22:41:17.88	134.01	20.81	-42.3	-44.6	18.7	0.00e+00	0	39	0	832569344	56	4622
2026-01-28 22:41:21.01	134.62	20.54	-41.7	-44.0	19.1	0.00e+00	0	39	0	837812224	55	4567
2026-01-28 22:41:23.85	135.17	20.29	-42.4	-44.8	18.3	0.00e+00	0	40	0	844103680	55	5020
2026-01-28 22:41:26.98	135.77	20.02	-42.4	-44.8	18.5	0.00e+00	0	39	0	849346560	56	4724
2026-01-28 22:41:29.83	136.31	19.77	-42.7	-45.1	18.2	0.00e+00	0	39	0	854589440	56	4922
2026-01-28 22:41:33.15	136.92	19.48	-43.1	-45.7	17.6	0.00e+00	0	40	0	860880896	57	4972
2026-01-28 22:41:35.88	137.41	19.25	-42.6	-45.0	18.3	0.00e+00	0	39	0	866123776	57	4565
2026-01-28 22:41:39.17	138.00	18.96	-41.4	-43.7	19.4	0.00e+00	0	39	0	872415232	54	4664
2026-01-28 22:41:41.92	138.48	18.73	-41.5	-43.8	19.3	0.00e+00	0	39	0	877658112	54	4714
2026-01-28 22:41:45.19	139.05	18.44	-41.6	-43.8	19.2	0.00e+00	0	39	0	883949568	54	4733
2026-01-28 22:41:48.11	139.54	18.19	-41.4	-43.6	19.4	0.00e+00	0	39	0	889192448	54	4620
2026-01-28 22:41:52.02	140.19	17.86	-41.7	-44.0	19.2	0.00e+00	0	39	0	896532480	54	4818
2026-01-28 22:41:54.87	140.66	17.61	-41.9	-44.2	18.9	0.00e+00	0	39	0	901775360	54	4946
2026-01-28 22:41:58.97	141.32	17.26	-41.7	-44.0	19.0	0.00e+00	0	39	0	909115392	54	4850
2026-01-28 22:42:01.81	141.76	17.02	-41.5	-43.7	19.3	0.00e+00	0	39	0	914358272	54	4698
2026-01-28 22:42:05.53	142.34	16.71	-41.5	-43.8	19.2	0.00e+00	0	39	0	921698304	54	4723
2026-01-28 22:42:08.51	142.79	16.46	-41.8	-44.2	18.9	0.00e+00	0	39	0	926941184	54	4939
2026-01-28 22:42:11.56	143.25	16.20	-41.8	-44.2	18.8	0.00e+00	0	39	0	933232640	54	4929
2026-01-28 22:42:14.54	143.69	15.95	-41.7	-44.0	19.0	0.00e+00	0	39	0	938475520	54	4844
2026-01-28 22:42:17.53	144.12	15.70	-42.1	-44.5	18.5	0.00e+00	0	39	0	944766976	54	5131
2026-01-28 22:42:20.52	144.54	15.45	-43.0	-45.6	17.7	0.00e+00	0	39	0	950009856	56	5188
2026-01-28 22:42:23.50	144.96	15.21	-43.1	-45.8	17.5	0.00e+00	0	39	0	955252736	57	4996
2026-01-28 22:42:26.49	145.37	14.96	-43.0	-45.6	17.6	0.00e+00	0	39	0	961544192	57	4908
2026-01-28 22:42:29.47	145.78	14.72	-42.8	-45.4	17.8	0.00e+00	0	39	0	966787072	57	4783
2026-01-28 22:42:32.46	146.17	14.47	-43.1	-45.7	17.5	0.00e+00	0	39	0	972029952	57	4959
2026-01-28 22:42:35.44	146.57	14.23	-43.7	-46.5	16.7	0.00e+00	0	39	0	978321408	57	5450
2026-01-28 22:42:38.43	146.95	13.99	-44.1	-47.2	16.1	0.00e+00	0	39	0	983564288	59	5271
2026-01-28 22:42:41.41	147.33	13.75	-43.9	-47.0	16.3	0.00e+00	0	39	0	988807168	59	5140
2026-01-28 22:42:44.47	147.71	13.50	-44.0	-47.0	16.3	0.00e+00	0	39	0	995098624	59	5134
2026-01-28 22:42:47.54	148.09	13.26	-43.8	-46.7	16.5	0.00e+00	0	39	0	1000341504	59	4938
2026-01-28 22:42:50.38	148.44	13.04	-43.7	-46.6	16.7	0.00e+00	0	39	0	1005584384	59	4898
2026-01-28 22:42:53.51	148.81	12.79	-43.6	-46.5	16.7	0.00e+00	0	39	0	1011875840	58	5149
2026-01-28 22:42:56.36	149.15	12.57	-43.4	-46.3	16.9	0.00e+00	0	39	0	1017118720	58	4992
2026-01-28 22:42:59.49	149.51	12.32	-43.0	-45.7	17.5	0.00e+00	0	39	0	1023410176	57	4928
2026-01-28 22:43:02.33	149.83	12.10	-42.7	-45.2	17.9	0.00e+00	0	39	0	1028653056	57	4662
2026-01-28 22:43:05.45	150.18	11.86	-42.7	-45.3	17.8	0.00e+00	0	39	0	1033895936	57	4749
2026-01-28 22:43:08.30	150.50	11.65	-43.0	-45.8	17.4	0.00e+00	0	39	0	1039138816	57	5000
2026-01-28 22:43:11.42	150.84	11.41	-43.5	-46.4	16.8	0.00e+00	0	39	0	1045430272	57	5367
2026-01-28 22:43:14.30	151.15	11.19	-43.8	-46.8	16.4	0.00e+00	0	39	0	1050673152	58	5316
2026-01-28 22:43:17.83	151.52	10.93	-43.9	-46.9	16.3	0.00e+00	0	39	0	1056964608	58	5387
2026-01-28 22:43:20.54	151.81	10.72	-43.7	-46.6	16.5	0.00e+00	0	39	0	1062207488	58	5202
2026-01-28 22:43:23.81	152.14	10.48	-43.5	-46.3	16.8	0.00e+00	0	40	0	1068498944	58	5030
2026-01-28 22:43:26.51	152.42	10.28	-43.6	-46.4	16.7	0.00e+00	0	39	0	1073741824	58	5071
2026-01-28 22:43:29.78	152.74	10.04	-43.8	-46.8	16.4	0.00e+00	0	39	0	1080033280	58	5288
2026-01-28 22:43:32.76	153.03	9.82	-44.0	-47.2	15.9	0.00e+00	0	39	0	1085276160	58	5562
2026-01-28 22:43:35.74	153.32	9.61	-43.9	-47.2	15.9	0.00e+00	0	39	0	1090519040	59	5227
2026-01-28 22:43:38.73	153.61	9.39	-43.7	-46.7	16.4	0.00e+00	0	39	0	1096810496	58	5268
2026-01-28 22:43:41.63	153.88	9.18	-43.5	-46.4	16.6	0.00e+00	0	39	0	1102053376	58	5078
2026-01-28 22:43:44.76	154.17	8.96	-47.1	-53.4	10.2	3.98e-04	0	39	0	1108344832	64	8023
2026-01-28 22:43:47.60	154.43	8.76	-49.2	-64.8	3.8	1.49e+00	0	39	104	1108344832	69	22361
2026-01-28 22:43:50.72	154.71	8.54	-49.7	-65.1	3.8	1.49e+00	0	39	104	1108344832	70	21789
2026-01-28 22:43:53.56	154.97	8.34	-49.9	-65.1	3.8	1.49e+00	0	39	104	1108344832	70	21996
2026-01-28 22:43:56.68	155.24	8.12	-50.0	-65.2	3.8	1.49e+00	0	39	104	1108344832	70	22204
2026-01-28 22:43:59.52	155.49	7.93	-49.8	-65.3	3.8	1.49e+00	0	39	104	1108344832	70	22321
2026-01-28 22:44:02.64	155.75	7.71	-50.1	-65.3	3.8	1.49e+00	0	39	104	1108344832	71	21071
2026-01-28 22:44:05.48	155.99	7.52	-50.0	-65.3	3.8	1.49e+00	0	39	104	1108344832	71	21210
2026-01-28 22:44:08.63	156.26	7.30	-50.1	-65.3	3.8	1.49e+00	0	39	104	1108344832	71	21166
2026-01-28 22:44:11.53	156.49	7.11	-49.9	-65.3	3.8	1.49e+00	0	39	104	1108344832	71	21116
2026-01-28 22:44:14.66	156.75	6.90	-50.1	-65.3	3.8	1.49e+00	0	39	104	1108344832	71	21128
2026-01-28 22:44:17.50	156.97	6.71	-49.9	-65.2	3.8	1.49e+00	0	39	104	1108344832	71	20979
2026-01-28 22:44:20.62	157.22	6.50	-49.8	-65.1	3.8	1.49e+00	0	39	104	1108344832	71	20652
2026-01-28 22:44:23.45	157.44	6.31	-49.4	-64.8	3.8	1.49e+00	0	39	104	1108344832	70	21054
2026-01-28 22:44:26.61	157.68	6.10	-49.3	-64.6	3.8	1.49e+00	0	39	104	1108344832	70	20743
2026-01-28 22:44:29.45	157.90	5.92	-49.3	-64.6	3.8	1.49e+00	0	40	104	1108344832	70	20639
2026-01-28 22:44:32.57	158.13	5.71	-49.3	-64.6	3.8	1.49e+00	0	40	104	1108344832	70	20683
2026-01-28 22:44:35.41	158.34	5.53	-49.3	-64.6	3.8	1.49e+00	0	40	104	1108344832	70	20660
2026-01-28 22:44:38.53	158.57	5.33	-49.3	-64.6	3.8	1.49e+00	0	40	104	1108344832	70	20545
2026-01-28 22:44:41.37	158.78	5.15	-49.3	-64.6	3.8	1.49e+00	0	40	104	1108344832	70	20575
2026-01-28 22:44:44.49	159.00	4.95	-49.2	-64.5	3.8	1.49e+00	0	39	104	1108344832	70	20536

#Closed at: 2026-01-28 22:44:45
#Recorded file [1108 MB]: D:/Data/31040_260129_013253.dat