passes_logs/2026/01/28/T1/T1__20260128_084308_SUOMI_NPP_rec.log

#Pass ID: 20260128_084308_SUOMI NPP
#Satellite: SUOMI NPP
#Configuration: NPP
#almurnet v.1.7.20251203
#Start time: 2026-01-28 08:43:10

#Version: 2.0.20230620
#Station: T1
#Location: 37.570604 lon 55.790049 lat
#TLE: 1 37849U 11061A   26027.86188320  .00000172  00000+0  10275-3 0  9990
#TLE: 2 37849  98.7823 329.8005 0002088  41.4184 318.7150 14.19530883738530

#Time	Az	El	Level	Level2	SNR	BER	BlckErr	Temp	State	Recorded	gain1	gain2
2026-01-28 08:43:10.63	119.54	5.13	-48.9	-64.0	3.8	1.49e+00	0	41	0	0	69	20361
2026-01-28 08:43:13.62	119.34	5.33	-48.9	-64.0	3.8	1.49e+00	0	41	104	0	69	20448
2026-01-28 08:43:16.62	119.14	5.52	-48.9	-64.0	3.8	1.49e+00	0	41	104	0	69	20370
2026-01-28 08:43:19.61	118.93	5.72	-48.9	-64.0	3.8	1.49e+00	0	41	104	0	69	20420
2026-01-28 08:43:22.61	118.72	5.92	-48.9	-64.0	3.8	1.49e+00	0	41	104	0	69	20350
2026-01-28 08:43:25.60	118.51	6.12	-48.9	-63.9	3.8	1.49e+00	0	41	104	0	69	20284
2026-01-28 08:43:28.57	118.30	6.32	-48.8	-63.8	3.8	1.49e+00	0	41	104	0	69	19963
2026-01-28 08:43:31.54	118.09	6.52	-48.8	-63.2	3.8	1.49e+00	0	41	104	0	69	18643
2026-01-28 08:43:34.51	117.87	6.72	-48.8	-63.1	3.8	1.49e+00	0	42	104	0	69	18396
2026-01-28 08:43:37.50	117.65	6.92	-48.8	-63.6	3.8	1.49e+00	0	42	104	0	69	19604
2026-01-28 08:43:40.48	117.42	7.13	-48.9	-63.7	3.8	1.49e+00	0	42	104	0	69	19832
2026-01-28 08:43:43.47	117.19	7.34	-48.8	-63.3	3.8	1.49e+00	0	42	104	0	69	18819
2026-01-28 08:43:46.47	116.96	7.54	-48.9	-64.0	3.8	1.49e+00	0	42	104	0	69	20337
2026-01-28 08:43:49.45	116.72	7.75	-48.7	-60.8	4.1	1.49e+00	0	42	0	0	69	14171
2026-01-28 08:43:52.44	116.48	7.96	-47.4	-54.2	8.2	1.60e-01	0	42	0	4194304	66	7884
2026-01-28 08:43:55.42	116.24	8.17	-44.2	-47.4	15.2	0.00e+00	0	42	0	9437184	60	5058
2026-01-28 08:43:58.41	116.00	8.39	-44.1	-47.3	15.3	0.00e+00	0	42	0	15728640	59	5320
2026-01-28 08:44:01.40	115.75	8.60	-46.3	-51.4	11.3	7.38e-04	0	42	0	20971520	63	6781
2026-01-28 08:44:04.39	115.49	8.82	-46.9	-52.8	9.7	9.64e-03	0	42	0	27262976	64	7464
2026-01-28 08:44:07.39	115.23	9.04	-48.2	-57.5	5.3	7.23e-01	0	42	0	32505856	67	10825
2026-01-28 08:44:10.38	114.97	9.25	-48.5	-61.3	3.9	1.49e+00	0	42	104	36700160	67	16762
2026-01-28 08:44:13.38	114.70	9.47	-46.7	-52.2	10.4	2.37e-02	0	42	0	37748736	65	6577
2026-01-28 08:44:16.37	114.43	9.70	-45.4	-49.3	13.5	2.13e-05	0	43	0	44040192	62	5635
2026-01-28 08:44:19.36	114.16	9.92	-46.0	-50.5	12.3	8.62e-05	0	42	0	49283072	62	6466
2026-01-28 08:44:22.35	113.88	10.14	-46.1	-50.7	12.1	4.07e-04	0	43	0	54525952	63	6220
2026-01-28 08:44:25.35	113.59	10.37	-44.3	-47.5	15.3	0.00e+00	0	43	0	60817408	60	5146
2026-01-28 08:44:28.35	113.31	10.59	-45.1	-48.9	14.0	3.00e-06	0	43	0	66060288	60	6054
2026-01-28 08:44:31.35	113.01	10.82	-45.3	-49.3	13.6	9.90e-06	0	43	0	71303168	62	5640
2026-01-28 08:44:34.34	112.71	11.05	-43.8	-46.8	16.0	0.00e+00	0	42	0	77594624	59	5031
2026-01-28 08:44:37.33	112.41	11.28	-44.4	-47.7	15.2	0.00e+00	0	43	0	82837504	59	5551
2026-01-28 08:44:40.33	112.10	11.52	-44.2	-47.4	15.4	0.00e+00	0	43	0	88080384	59	5396
2026-01-28 08:44:43.33	111.79	11.75	-43.7	-46.7	16.2	0.00e+00	0	43	0	94371840	59	4949
2026-01-28 08:44:46.32	111.47	11.99	-44.4	-47.6	15.3	0.00e+00	0	43	0	99614720	59	5502
2026-01-28 08:44:49.31	111.15	12.22	-44.0	-47.0	15.9	0.00e+00	0	43	0	105906176	59	5159
2026-01-28 08:44:52.31	110.82	12.46	-44.0	-47.1	15.8	0.00e+00	0	43	0	111149056	59	5196
2026-01-28 08:44:55.30	110.49	12.70	-43.8	-46.8	16.1	0.00e+00	0	43	0	116391936	59	5016
2026-01-28 08:44:58.29	110.15	12.94	-43.1	-45.7	17.1	0.00e+00	0	43	0	122683392	58	4694
2026-01-28 08:45:01.29	109.81	13.18	-43.6	-46.5	16.4	0.00e+00	0	43	0	127926272	58	5134
2026-01-28 08:45:04.28	109.45	13.43	-43.7	-46.7	16.3	0.00e+00	0	43	0	133169152	58	5228
2026-01-28 08:45:07.28	109.10	13.67	-43.7	-46.6	16.4	0.00e+00	0	43	0	139460608	58	5182
2026-01-28 08:45:10.28	108.73	13.92	-44.4	-47.7	15.3	0.00e+00	0	43	0	144703488	59	5543
2026-01-28 08:45:13.28	108.36	14.17	-44.2	-47.2	15.7	0.00e+00	0	43	0	149946368	59	5268
2026-01-28 08:45:16.29	107.99	14.42	-44.3	-47.5	15.5	0.00e+00	0	43	0	156237824	59	5446
2026-01-28 08:45:19.28	107.61	14.67	-43.8	-46.8	16.2	0.00e+00	0	43	0	161480704	59	4997
2026-01-28 08:45:22.28	107.22	14.92	-43.8	-46.7	16.2	0.00e+00	0	43	0	166723584	59	4957
2026-01-28 08:45:25.28	106.82	15.17	-43.3	-46.1	17.0	0.00e+00	0	43	0	173015040	58	4887
2026-01-28 08:45:28.28	106.42	15.43	-43.3	-46.0	17.1	0.00e+00	0	43	0	178257920	58	4816
2026-01-28 08:45:31.27	106.01	15.68	-43.1	-45.7	17.3	0.00e+00	0	43	0	184549376	58	4696
2026-01-28 08:45:34.27	105.59	15.94	-43.0	-45.6	17.4	0.00e+00	0	43	0	189792256	57	4920
2026-01-28 08:45:37.26	105.17	16.19	-43.1	-45.8	17.2	0.00e+00	0	43	0	195035136	57	5008
2026-01-28 08:45:40.25	104.74	16.45	-42.7	-45.1	17.8	0.00e+00	0	43	0	201326592	57	4647
2026-01-28 08:45:43.24	104.30	16.71	-43.3	-46.0	17.0	0.00e+00	0	43	0	206569472	57	5151
2026-01-28 08:45:46.24	103.85	16.97	-42.6	-45.1	17.9	0.00e+00	0	43	0	211812352	57	4604
2026-01-28 08:45:49.23	103.40	17.23	-43.0	-45.6	17.4	0.00e+00	0	43	0	218103808	56	5218
2026-01-28 08:45:52.23	102.94	17.50	-43.1	-45.7	17.3	0.00e+00	0	43	0	223346688	56	5268
2026-01-28 08:45:55.22	102.47	17.76	-42.8	-45.3	17.7	0.00e+00	0	43	0	228589568	56	5034
2026-01-28 08:45:58.22	101.99	18.02	-43.2	-45.8	17.2	0.00e+00	0	43	0	234881024	57	5036
2026-01-28 08:46:01.22	101.50	18.29	-42.7	-45.2	17.9	0.00e+00	0	43	0	240123904	57	4654
2026-01-28 08:46:04.21	101.00	18.56	-43.4	-46.2	16.9	0.00e+00	0	43	0	245366784	57	5226
2026-01-28 08:46:07.21	100.50	18.82	-42.6	-45.1	17.9	0.00e+00	0	43	0	251658240	57	4636
2026-01-28 08:46:10.21	99.98	19.09	-43.7	-46.6	16.6	0.00e+00	0	43	0	256901120	57	5488
2026-01-28 08:46:13.21	99.46	19.36	-43.1	-45.8	17.4	0.00e+00	0	43	0	263192576	57	4987
2026-01-28 08:46:16.21	98.93	19.63	-44.0	-47.1	16.1	0.00e+00	0	43	0	268435456	59	5200
2026-01-28 08:46:19.20	98.39	19.89	-43.2	-45.9	17.1	0.00e+00	0	43	0	273678336	58	4798
2026-01-28 08:46:22.19	97.84	20.16	-43.7	-46.6	16.6	0.00e+00	0	43	0	279969792	58	5189
2026-01-28 08:46:25.18	97.27	20.43	-43.4	-46.1	17.0	0.00e+00	0	43	0	285212672	58	4896
2026-01-28 08:46:28.19	96.70	20.70	-43.7	-46.6	16.6	0.00e+00	0	43	0	290455552	58	5189
2026-01-28 08:46:31.18	96.12	20.96	-43.4	-46.2	17.0	0.00e+00	0	43	0	296747008	58	4934
2026-01-28 08:46:34.17	95.53	21.23	-42.8	-45.4	17.7	0.00e+00	0	43	0	301989888	57	4773
2026-01-28 08:46:37.16	94.93	21.50	-43.0	-45.7	17.4	0.00e+00	0	43	0	307232768	57	4927
2026-01-28 08:46:40.17	94.31	21.77	-42.9	-45.4	17.7	0.00e+00	0	43	0	313524224	57	4783
2026-01-28 08:46:43.17	93.69	22.03	-43.2	-45.9	17.3	0.00e+00	0	43	0	318767104	57	5048
2026-01-28 08:46:46.17	93.05	22.30	-42.8	-45.4	17.7	0.00e+00	0	43	0	325058560	57	4785
2026-01-28 08:46:49.17	92.41	22.56	-42.3	-44.8	18.3	0.00e+00	0	43	0	330301440	56	4717
2026-01-28 08:46:52.16	91.75	22.82	-41.3	-43.5	19.3	0.00e+00	0	43	0	335544320	54	4582
2026-01-28 08:46:55.15	91.09	23.08	-41.5	-43.8	19.1	0.00e+00	0	43	0	341835776	54	4725
2026-01-28 08:46:58.15	90.41	23.34	-42.0	-44.4	18.5	0.00e+00	0	43	0	347078656	54	5077
2026-01-28 08:47:01.14	89.72	23.60	-42.3	-44.8	18.2	0.00e+00	0	43	0	352321536	55	5032
2026-01-28 08:47:04.14	89.01	23.85	-41.6	-44.0	18.9	0.00e+00	0	43	0	358612992	55	4569
2026-01-28 08:47:07.14	88.30	24.11	-41.4	-43.7	19.2	0.00e+00	0	43	0	363855872	54	4693
2026-01-28 08:47:10.13	87.58	24.36	-41.7	-44.0	18.9	0.00e+00	0	43	0	369098752	54	4869
2026-01-28 08:47:13.11	86.84	24.60	-41.7	-44.1	18.8	0.00e+00	0	43	0	375390208	54	4909
2026-01-28 08:47:16.11	86.10	24.85	-41.3	-43.5	19.4	0.00e+00	0	43	0	380633088	54	4578
2026-01-28 08:47:19.09	85.34	25.09	-41.7	-44.0	18.9	0.00e+00	0	43	0	385875968	54	4867
2026-01-28 08:47:22.09	84.57	25.33	-41.3	-43.6	19.3	0.00e+00	0	43	0	392167424	54	4628
2026-01-28 08:47:25.08	83.79	25.56	-41.7	-44.2	18.7	0.00e+00	0	43	0	397410304	54	4953
2026-01-28 08:47:28.07	82.99	25.79	-42.2	-44.9	18.0	0.00e+00	0	43	0	402653184	55	5069
2026-01-28 08:47:31.07	82.19	26.02	-42.1	-44.7	18.3	0.00e+00	0	43	0	408944640	55	4936
2026-01-28 08:47:34.07	81.37	26.24	-41.9	-44.5	18.4	0.00e+00	0	43	0	414187520	55	4815
2026-01-28 08:47:37.06	80.54	26.46	-41.9	-44.4	18.4	0.00e+00	0	43	0	420478976	55	4804
2026-01-28 08:47:40.04	79.70	26.67	-42.3	-45.0	17.9	0.00e+00	0	43	0	425721856	55	5116
2026-01-28 08:47:43.03	78.85	26.88	-41.8	-44.4	18.5	0.00e+00	0	43	0	430964736	55	4774
2026-01-28 08:47:46.03	77.99	27.08	-41.9	-44.5	18.4	0.00e+00	0	43	0	437256192	55	4823
2026-01-28 08:47:49.02	77.12	27.28	-42.5	-45.2	17.8	0.00e+00	0	43	0	442499072	55	5261
2026-01-28 08:47:52.01	76.24	27.46	-41.9	-44.4	18.4	0.00e+00	0	43	0	447741952	55	4808
2026-01-28 08:47:55.00	75.35	27.65	-42.0	-44.5	18.3	0.00e+00	0	43	0	454033408	55	4847
2026-01-28 08:47:57.99	74.44	27.82	-41.6	-44.0	18.9	0.00e+00	0	43	0	459276288	55	4562
2026-01-28 08:48:00.96	73.54	27.99	-41.9	-44.4	18.5	0.00e+00	0	43	0	464519168	55	4766
2026-01-28 08:48:03.95	72.61	28.16	-42.5	-45.2	17.7	0.00e+00	0	43	0	470810624	55	5256
2026-01-28 08:48:06.94	71.68	28.31	-41.9	-44.4	18.5	0.00e+00	0	43	0	476053504	55	4800
2026-01-28 08:48:09.94	70.74	28.46	-42.2	-44.7	18.2	0.00e+00	0	43	0	481296384	55	4971
2026-01-28 08:48:12.93	69.79	28.60	-42.9	-45.5	17.6	0.00e+00	0	43	0	487587840	56	5152
2026-01-28 08:48:15.92	68.84	28.73	-43.7	-46.8	16.4	0.00e+00	0	43	0	492830720	58	5307
2026-01-28 08:48:18.91	67.87	28.85	-43.9	-46.9	16.2	0.00e+00	0	43	0	498073600	58	5387
2026-01-28 08:48:21.89	66.90	28.97	-44.0	-47.1	16.0	0.00e+00	0	43	0	504365056	58	5526
2026-01-28 08:48:24.88	65.93	29.07	-43.9	-47.1	16.1	0.00e+00	0	43	0	509607936	58	5488
2026-01-28 08:48:27.87	64.94	29.17	-43.1	-45.9	17.2	0.00e+00	0	43	0	514850816	58	4803
2026-01-28 08:48:30.87	63.95	29.26	-43.5	-46.5	16.7	0.00e+00	0	43	0	521142272	57	5421
2026-01-28 08:48:33.85	62.96	29.33	-43.9	-47.2	15.9	0.00e+00	0	43	0	526385152	58	5584
2026-01-28 08:48:36.84	61.96	29.40	-43.3	-46.3	16.8	0.00e+00	0	43	0	531628032	58	5025
2026-01-28 08:48:39.82	60.96	29.46	-44.4	-48.0	15.2	0.00e+00	0	43	0	537919488	59	5724
2026-01-28 08:48:42.82	59.95	29.51	-43.8	-47.0	16.2	0.00e+00	0	43	0	543162368	59	5116
2026-01-28 08:48:45.81	58.94	29.55	-42.3	-44.8	18.2	0.00e+00	0	43	0	548405248	56	4754
2026-01-28 08:48:48.81	57.93	29.58	-43.0	-45.9	17.2	0.00e+00	0	43	0	554696704	56	5352
2026-01-28 08:48:51.80	56.92	29.60	-43.7	-46.8	16.4	0.00e+00	0	43	0	559939584	58	5287
2026-01-28 08:48:54.79	55.90	29.61	-43.9	-47.0	16.2	0.00e+00	0	43	0	566231040	59	5128
2026-01-28 08:48:57.78	54.89	29.61	-43.0	-45.7	17.4	0.00e+00	0	43	0	571473920	57	4965
2026-01-28 08:49:00.77	53.88	29.60	-43.7	-46.7	16.5	0.00e+00	0	43	0	576716800	58	5221
2026-01-28 08:49:03.77	52.86	29.58	-43.3	-46.2	17.0	0.00e+00	0	43	0	583008256	58	4939
2026-01-28 08:49:06.76	51.85	29.55	-43.0	-45.7	17.4	0.00e+00	0	43	0	588251136	58	4694
2026-01-28 08:49:09.76	50.84	29.50	-43.0	-45.8	17.3	0.00e+00	0	43	0	593494016	57	5040
2026-01-28 08:49:12.75	49.83	29.45	-43.4	-46.3	16.9	0.00e+00	0	43	0	599785472	57	5305
2026-01-28 08:49:15.74	48.83	29.39	-42.4	-45.0	18.1	0.00e+00	0	43	0	605028352	56	4863
2026-01-28 08:49:18.74	47.83	29.32	-42.3	-44.9	18.2	0.00e+00	0	43	0	610271232	56	4786
2026-01-28 08:49:21.73	46.84	29.24	-42.1	-44.6	18.5	0.00e+00	0	43	0	616562688	56	4624
2026-01-28 08:49:24.72	45.85	29.16	-42.3	-44.9	18.0	0.00e+00	0	43	0	621805568	55	5070
2026-01-28 08:49:27.71	44.87	29.06	-42.5	-45.1	17.8	0.00e+00	0	43	0	627048448	55	5212
2026-01-28 08:49:30.70	43.90	28.95	-43.2	-46.0	17.3	0.00e+00	0	43	0	633339904	57	5114
2026-01-28 08:49:33.69	42.93	28.84	-42.6	-45.2	17.9	0.00e+00	0	43	0	638582784	57	4666
2026-01-28 08:49:36.68	41.97	28.71	-42.6	-45.2	18.0	0.00e+00	0	43	0	643825664	56	4939
2026-01-28 08:49:39.67	41.01	28.58	-43.3	-46.0	17.2	0.00e+00	0	43	0	650117120	57	5147
2026-01-28 08:49:42.66	40.07	28.44	-43.1	-45.8	17.4	0.00e+00	0	43	0	655360000	57	5006
2026-01-28 08:49:45.65	39.13	28.29	-43.4	-46.2	17.1	0.00e+00	0	43	0	660602880	57	5261
2026-01-28 08:49:48.64	38.20	28.14	-43.5	-46.3	16.9	0.00e+00	0	43	0	666894336	58	5035
2026-01-28 08:49:51.63	37.29	27.97	-43.7	-46.7	16.5	0.00e+00	0	43	0	672137216	58	5240
2026-01-28 08:49:54.62	36.38	27.80	-44.5	-48.0	15.2	0.00e+00	0	43	0	677380096	59	5725
2026-01-28 08:49:57.61	35.48	27.63	-45.0	-48.7	14.6	1.50e-06	0	43	0	683671552	60	5892
2026-01-28 08:50:00.59	34.59	27.44	-44.8	-48.5	14.8	7.00e-07	0	43	0	688914432	61	5437
2026-01-28 08:50:03.58	33.72	27.25	-44.4	-47.9	15.4	0.00e+00	0	43	0	695205888	60	5380
2026-01-28 08:50:06.57	32.85	27.06	-43.1	-46.0	17.2	0.00e+00	0	43	0	700448768	58	4856
2026-01-28 08:50:09.57	31.99	26.86	-42.1	-44.6	18.5	0.00e+00	0	43	0	705691648	56	4628
2026-01-28 08:50:12.56	31.14	26.65	-42.2	-44.8	18.2	0.00e+00	0	43	0	711983104	55	4991
2026-01-28 08:50:15.55	30.31	26.44	-42.0	-44.5	18.3	0.00e+00	0	43	0	717225984	55	4867
2026-01-28 08:50:18.54	29.49	26.22	-43.1	-46.0	17.2	0.00e+00	0	43	0	722468864	56	5407
2026-01-28 08:50:21.53	28.68	26.00	-42.9	-45.6	17.5	0.00e+00	0	43	0	728760320	57	4924
2026-01-28 08:50:24.52	27.88	25.77	-43.7	-46.9	16.3	0.00e+00	0	43	0	734003200	58	5354
2026-01-28 08:50:27.50	27.09	25.54	-44.0	-47.2	16.0	0.00e+00	0	43	0	739246080	59	5249
2026-01-28 08:50:30.49	26.31	25.31	-42.9	-45.6	17.5	0.00e+00	0	43	0	745537536	57	4917
2026-01-28 08:50:33.49	25.55	25.07	-41.7	-44.1	18.8	0.00e+00	0	43	0	750780416	55	4627
2026-01-28 08:50:36.49	24.79	24.83	-41.7	-44.1	18.8	0.00e+00	0	43	0	756023296	55	4612
2026-01-28 08:50:39.48	24.05	24.59	-41.3	-43.7	19.1	0.00e+00	0	43	0	762314752	54	4673
2026-01-28 08:50:42.47	23.32	24.34	-41.2	-43.7	19.1	0.00e+00	0	43	0	767557632	54	4666
2026-01-28 08:50:45.46	22.60	24.09	-40.9	-43.3	19.5	0.00e+00	0	43	0	772800512	53	4734
2026-01-28 08:50:48.45	21.89	23.84	-40.8	-43.1	19.7	0.00e+00	0	43	0	779091968	53	4610
2026-01-28 08:50:51.43	21.20	23.59	-41.5	-44.0	18.9	0.00e+00	0	43	0	784334848	53	5119
2026-01-28 08:50:54.43	20.51	23.33	-41.8	-44.4	18.6	0.00e+00	0	43	0	790626304	54	5052
2026-01-28 08:50:57.42	19.84	23.07	-41.7	-44.2	18.7	0.00e+00	0	43	0	795869184	54	4953
2026-01-28 08:51:00.41	19.18	22.81	-41.5	-43.9	19.0	0.00e+00	0	43	0	801112064	54	4813
2026-01-28 08:51:03.40	18.53	22.55	-40.9	-43.2	19.6	0.00e+00	0	43	0	807403520	53	4677
2026-01-28 08:51:06.38	17.89	22.29	-40.1	-42.2	20.5	0.00e+00	0	43	0	812646400	52	4421
2026-01-28 08:51:09.37	17.26	22.03	-40.7	-42.9	20.0	0.00e+00	0	43	0	817889280	52	4779
2026-01-28 08:51:12.37	16.64	21.76	-41.3	-43.7	19.2	0.00e+00	0	43	0	824180736	53	4967
2026-01-28 08:51:15.36	16.04	21.50	-41.1	-43.6	19.3	0.00e+00	0	43	0	829423616	53	4873
2026-01-28 08:51:18.35	15.44	21.23	-41.1	-43.6	19.2	0.00e+00	0	43	0	834666496	53	4899
2026-01-28 08:51:21.33	14.86	20.97	-41.2	-43.7	19.2	0.00e+00	0	43	0	840957952	53	4929
2026-01-28 08:51:24.32	14.28	20.70	-41.2	-43.6	19.3	0.00e+00	0	43	0	846200832	53	4895
2026-01-28 08:51:27.31	13.71	20.44	-41.4	-43.7	19.3	0.00e+00	0	43	0	851443712	53	4932
2026-01-28 08:51:30.30	13.16	20.17	-40.6	-42.8	20.0	0.00e+00	0	43	0	857735168	53	4460
2026-01-28 08:51:33.30	12.61	19.90	-40.9	-43.3	19.6	0.00e+00	0	43	0	862978048	52	5001
2026-01-28 08:51:36.30	12.07	19.64	-41.9	-44.5	18.5	0.00e+00	0	43	0	868220928	54	5121
2026-01-28 08:51:39.30	11.54	19.37	-42.0	-44.6	18.4	0.00e+00	0	43	0	874512384	55	4872
2026-01-28 08:51:42.29	11.02	19.10	-41.3	-43.7	19.2	0.00e+00	0	43	0	879755264	54	4678
2026-01-28 08:51:45.28	10.52	18.84	-40.8	-43.2	19.7	0.00e+00	0	43	0	884998144	53	4652
2026-01-28 08:51:48.28	10.01	18.57	-41.3	-43.7	19.2	0.00e+00	0	43	0	891289600	53	4934
2026-01-28 08:51:51.27	9.52	18.31	-42.1	-44.8	18.2	0.00e+00	0	43	0	896532480	54	5309
2026-01-28 08:51:54.27	9.04	18.04	-42.8	-45.7	17.5	0.00e+00	0	43	0	901775360	56	5272
2026-01-28 08:51:57.27	8.56	17.78	-42.4	-45.3	17.8	0.00e+00	0	43	0	908066816	56	5035
2026-01-28 08:52:00.27	8.10	17.52	-42.3	-45.1	18.1	0.00e+00	0	43	0	913309696	56	4881
2026-01-28 08:52:03.26	7.64	17.26	-42.7	-45.4	17.7	0.00e+00	0	43	0	919601152	56	5093
2026-01-28 08:52:06.27	7.19	17.00	-43.1	-46.0	17.1	0.00e+00	0	43	0	924844032	57	5153
2026-01-28 08:52:09.27	6.74	16.74	-42.6	-45.5	17.6	0.00e+00	0	43	0	930086912	57	4847
2026-01-28 08:52:12.26	6.31	16.48	-41.8	-44.4	18.5	0.00e+00	0	43	0	936378368	55	4796
2026-01-28 08:52:15.26	5.88	16.22	-41.5	-44.0	18.9	0.00e+00	0	43	0	941621248	54	4847
2026-01-28 08:52:18.26	5.46	15.96	-41.7	-44.3	18.6	0.00e+00	0	43	0	946864128	54	4998
2026-01-28 08:52:21.26	5.05	15.71	-42.1	-44.7	18.2	0.00e+00	0	43	0	953155584	54	5266
2026-01-28 08:52:24.25	4.64	15.46	-42.1	-44.8	18.1	0.00e+00	0	43	0	958398464	55	5018
2026-01-28 08:52:27.24	4.25	15.20	-41.9	-44.6	18.3	0.00e+00	0	43	0	963641344	55	4907
2026-01-28 08:52:30.24	3.85	14.95	-41.9	-44.5	18.4	0.00e+00	0	43	0	969932800	55	4847
2026-01-28 08:52:33.23	3.47	14.70	-42.4	-45.2	17.7	0.00e+00	0	43	0	975175680	55	5273
2026-01-28 08:52:36.23	3.09	14.45	-43.3	-46.8	16.4	0.00e+00	0	43	0	981467136	57	5625
2026-01-28 08:52:39.23	2.72	14.20	-43.8	-47.5	15.7	0.00e+00	0	43	0	986710016	58	5773
2026-01-28 08:52:42.23	2.35	13.96	-42.8	-45.6	17.5	0.00e+00	0	43	0	991952896	57	4871
2026-01-28 08:52:45.23	1.99	13.71	-42.0	-44.5	18.5	0.00e+00	0	43	0	998244352	56	4570
2026-01-28 08:52:48.23	1.64	13.47	-41.9	-44.5	18.4	0.00e+00	0	43	0	1003487232	55	4852
2026-01-28 08:52:51.22	1.29	13.23	-42.6	-45.5	17.4	0.00e+00	0	43	0	1008730112	55	5436
2026-01-28 08:52:54.22	0.95	12.98	-43.7	-46.9	16.2	0.00e+00	0	43	0	1015021568	58	5398
2026-01-28 08:52:57.21	0.62	12.74	-44.2	-47.8	15.3	0.00e+00	0	43	0	1020264448	59	5624
2026-01-28 08:53:00.21	0.29	12.51	-44.0	-47.9	15.3	0.00e+00	0	44	0	1025507328	59	5682
2026-01-28 08:53:03.22	359.96	12.27	-43.9	-47.8	15.4	0.00e+00	0	43	0	1031798784	59	5604
2026-01-28 08:53:06.22	359.64	12.03	-44.1	-47.5	15.7	0.00e+00	0	43	0	1037041664	59	5435
2026-01-28 08:53:09.22	359.33	11.80	-43.9	-47.3	15.8	0.00e+00	0	43	0	1043333120	59	5294
2026-01-28 08:53:12.22	359.02	11.56	-43.9	-47.3	15.8	0.00e+00	0	43	0	1048576000	59	5315
2026-01-28 08:53:15.22	358.71	11.33	-43.9	-47.6	15.4	0.00e+00	0	43	0	1053818880	59	5527
2026-01-28 08:53:18.22	358.41	11.10	-43.8	-47.8	15.3	0.00e+00	0	43	0	1060110336	59	5614
2026-01-28 08:53:21.22	358.12	10.87	-43.6	-47.4	15.6	0.00e+00	0	44	0	1065353216	59	5348
2026-01-28 08:53:24.22	357.83	10.65	-43.3	-46.7	16.4	0.00e+00	0	43	0	1070596096	58	5235
2026-01-28 08:53:27.21	357.54	10.42	-42.9	-45.9	17.1	0.00e+00	0	43	0	1076887552	57	5054
2026-01-28 08:53:30.20	357.26	10.20	-43.0	-46.0	16.9	0.00e+00	0	43	0	1082130432	57	5153
2026-01-28 08:53:33.20	356.99	9.97	-43.4	-46.7	16.3	0.00e+00	0	43	0	1087373312	57	5536
2026-01-28 08:53:36.20	356.72	9.75	-43.7	-47.6	15.4	0.00e+00	0	43	0	1093664768	58	5823
2026-01-28 08:53:39.19	356.45	9.53	-43.4	-48.3	14.8	7.00e-07	0	43	0	1098907648	58	6282
2026-01-28 08:53:42.19	356.19	9.31	-42.6	-48.6	14.4	0.00e+00	0	43	0	1104150528	57	6896
2026-01-28 08:53:45.18	355.93	9.09	-42.7	-49.0	14.1	7.00e-07	0	44	0	1110441984	56	7639
2026-01-28 08:53:48.18	355.67	8.88	-48.4	-64.5	3.9	1.49e+00	0	43	104	1113587712	67	24265
2026-01-28 08:53:51.18	355.42	8.66	-49.6	-64.8	3.8	1.49e+00	0	43	104	1113587712	69	22503
2026-01-28 08:53:54.18	355.17	8.45	-49.5	-65.0	3.8	1.49e+00	0	43	104	1113587712	69	22818
2026-01-28 08:53:57.18	354.93	8.23	-49.2	-65.0	3.8	1.49e+00	0	43	104	1113587712	69	22847
2026-01-28 08:54:00.17	354.69	8.02	-49.4	-64.9	3.8	1.49e+00	0	44	104	1113587712	69	22762
2026-01-28 08:54:03.17	354.45	7.81	-49.6	-64.8	3.8	1.49e+00	0	43	104	1113587712	69	22455
2026-01-28 08:54:06.16	354.22	7.60	-49.4	-64.6	3.8	1.49e+00	0	44	104	1113587712	69	21942
2026-01-28 08:54:09.15	353.99	7.40	-49.0	-64.4	3.8	1.49e+00	0	43	104	1113587712	69	21361
2026-01-28 08:54:12.15	353.77	7.19	-49.0	-64.4	3.8	1.49e+00	0	43	104	1113587712	69	21311
2026-01-28 08:54:15.14	353.54	6.99	-49.0	-64.4	3.8	1.49e+00	0	43	104	1113587712	69	21311
2026-01-28 08:54:18.15	353.32	6.78	-49.0	-64.3	3.8	1.49e+00	0	43	104	1113587712	69	21200
2026-01-28 08:54:21.14	353.11	6.58	-49.0	-64.3	3.8	1.49e+00	0	43	104	1113587712	69	21211
2026-01-28 08:54:24.14	352.89	6.38	-49.0	-64.4	3.8	1.49e+00	0	44	104	1113587712	69	21313
2026-01-28 08:54:27.13	352.69	6.18	-48.9	-64.4	3.8	1.49e+00	0	43	104	1113587712	69	21319
2026-01-28 08:54:30.14	352.48	5.98	-48.9	-64.3	3.8	1.49e+00	0	43	104	1113587712	69	21233
2026-01-28 08:54:33.13	352.27	5.78	-49.0	-64.3	3.8	1.49e+00	0	44	104	1113587712	69	21248
2026-01-28 08:54:36.12	352.07	5.58	-48.9	-64.4	3.8	1.49e+00	0	43	104	1113587712	69	21273
2026-01-28 08:54:39.12	351.88	5.39	-49.0	-64.3	3.8	1.49e+00	0	44	104	1113587712	69	21255
2026-01-28 08:54:42.11	351.68	5.19	-48.9	-64.3	3.8	1.49e+00	0	43	104	1113587712	69	21219
2026-01-28 08:54:45.11	351.49	5.00	-48.9	-64.3	3.8	1.49e+00	0	43	104	1113587712	69	21217

#Closed at: 2026-01-28 08:54:46
#Recorded file [1113 MB]: D:/Data/31040_260128_114310.dat