passes_logs/2026/01/28/T1/T1__20260128_113434_NOAA_21_JPSS-2_rec.log

#Pass ID: 20260128_113434_NOAA 21 (JPSS-2)
#Satellite: NOAA 21 (JPSS-2)
#Configuration: NOAA 21
#almurnet v.1.7.20251203
#Start time: 2026-01-28 11:34:35

#Version: 2.0.20230620
#Station: T1
#Location: 37.570604 lon 55.790049 lat
#TLE: 1 54234U 22150A   26027.55906748  .00000170  00000+0  10132-3 0  9996
#TLE: 2 54234  98.7510 328.3076 0000860 204.4692 155.6443 14.19540154166599

#Time	Az	El	Level	Level2	SNR	BER	BlckErr	Temp	State	Recorded	gain1	gain2
2026-01-28 11:34:35.31	214.88	5.07	-49.7	-63.0	3.8	1.49e+00	0	38	0	0	70	17222
2026-01-28 11:34:38.29	215.15	5.24	-50.1	-63.1	3.8	1.49e+00	0	38	104	0	71	16386
2026-01-28 11:34:41.27	215.43	5.41	-49.9	-63.0	3.8	1.49e+00	0	38	104	0	71	16239
2026-01-28 11:34:44.25	215.71	5.59	-49.9	-62.9	3.8	1.49e+00	0	38	104	0	71	16107
2026-01-28 11:34:47.23	216.00	5.76	-49.7	-62.8	3.8	1.49e+00	0	38	104	0	71	15860
2026-01-28 11:34:50.21	216.29	5.93	-49.4	-62.5	3.8	1.49e+00	0	38	104	0	70	16231
2026-01-28 11:34:53.18	216.58	6.11	-47.2	-62.0	3.8	1.49e+00	0	38	104	0	66	19329
2026-01-28 11:34:56.16	216.87	6.28	-47.2	-61.9	3.8	1.49e+00	0	39	104	0	66	19024
2026-01-28 11:34:59.14	217.17	6.46	-47.2	-61.8	3.8	1.49e+00	0	39	104	0	66	18835
2026-01-28 11:35:02.12	217.47	6.63	-47.3	-62.0	3.8	1.49e+00	0	38	104	0	66	19192
2026-01-28 11:35:05.10	217.78	6.81	-47.1	-61.8	3.8	1.49e+00	0	39	104	0	66	18782
2026-01-28 11:35:08.08	218.09	6.99	-47.1	-61.4	3.8	1.49e+00	0	39	104	0	66	18066
2026-01-28 11:35:11.06	218.40	7.16	-47.1	-61.4	3.8	1.49e+00	0	39	104	0	66	18026
2026-01-28 11:35:14.04	218.72	7.34	-47.2	-61.8	3.8	1.49e+00	0	39	104	0	66	18908
2026-01-28 11:35:17.01	219.04	7.52	-47.2	-62.0	3.8	1.49e+00	0	39	104	0	66	19187
2026-01-28 11:35:19.99	219.36	7.70	-47.1	-61.8	3.8	1.49e+00	0	39	104	0	66	18846
2026-01-28 11:35:22.97	219.69	7.88	-47.1	-58.9	4.0	1.48e+00	0	39	104	0	66	13469
2026-01-28 11:35:25.95	220.02	8.06	-46.9	-58.4	4.2	1.47e+00	0	39	104	0	65	13540
2026-01-28 11:35:28.93	220.36	8.24	-46.3	-53.8	6.9	3.42e-01	0	39	0	0	64	8397
2026-01-28 11:35:31.91	220.70	8.42	-43.4	-46.6	14.1	3.00e-06	0	39	0	0	58	5215
2026-01-28 11:35:34.89	221.04	8.60	-41.6	-44.2	16.4	0.00e+00	0	39	0	0	55	4687
2026-01-28 11:35:37.87	221.39	8.78	-42.7	-45.6	15.0	0.00e+00	0	39	0	0	55	5520
2026-01-28 11:35:40.84	221.74	8.96	-45.1	-50.0	10.8	1.89e-03	0	39	0	0	60	6827
2026-01-28 11:35:43.82	222.10	9.14	-47.1	-55.1	5.7	1.46e-01	0	39	0	0	64	9829
2026-01-28 11:35:46.80	222.46	9.33	-47.2	-55.3	5.8	6.99e-03	0	39	0	0	65	9434
2026-01-28 11:35:49.78	222.82	9.51	-43.9	-46.6	14.2	7.00e-07	0	39	0	0	59	4926
2026-01-28 11:35:52.76	223.19	9.69	-42.6	-44.9	16.1	0.00e+00	0	39	0	0	56	4765
2026-01-28 11:35:55.74	223.57	9.88	-41.4	-43.5	17.3	0.00e+00	0	40	0	0	54	4566
2026-01-28 11:35:58.72	223.95	10.06	-41.1	-43.1	17.6	0.00e+00	0	39	0	0	54	4376
2026-01-28 11:36:01.70	224.33	10.24	-40.9	-42.9	17.8	0.00e+00	0	40	0	0	53	4525
2026-01-28 11:36:04.68	224.72	10.43	-40.8	-42.8	18.0	0.00e+00	0	40	0	0	53	4446
2026-01-28 11:36:07.65	225.11	10.61	-40.9	-42.9	17.9	0.00e+00	0	39	0	0	53	4508
2026-01-28 11:36:10.63	225.51	10.80	-40.6	-42.5	18.3	0.00e+00	0	40	0	0	53	4323
2026-01-28 11:36:13.61	225.91	10.98	-40.5	-42.3	18.5	0.00e+00	0	40	0	0	52	4490
2026-01-28 11:36:16.59	226.32	11.17	-40.4	-42.3	18.6	0.00e+00	0	40	0	0	52	4448
2026-01-28 11:36:19.57	226.73	11.35	-40.2	-42.1	18.7	0.00e+00	0	40	0	0	52	4347
2026-01-28 11:36:22.55	227.15	11.54	-40.1	-41.9	18.9	0.00e+00	0	40	0	0	52	4284
2026-01-28 11:36:25.52	227.57	11.72	-40.2	-42.0	18.8	0.00e+00	0	40	0	0	52	4323
2026-01-28 11:36:28.50	228.00	11.91	-40.3	-42.1	18.7	0.00e+00	0	40	0	0	52	4383
2026-01-28 11:36:31.48	228.43	12.09	-40.2	-42.0	18.8	0.00e+00	0	40	0	0	52	4320
2026-01-28 11:36:34.46	228.87	12.28	-40.3	-42.1	18.7	0.00e+00	0	40	0	0	52	4385
2026-01-28 11:36:37.44	229.32	12.46	-40.4	-42.2	18.6	0.00e+00	0	40	0	0	52	4418
2026-01-28 11:36:40.42	229.77	12.65	-40.5	-42.3	18.5	0.00e+00	0	40	0	0	52	4484
2026-01-28 11:36:43.40	230.22	12.83	-40.3	-42.2	18.7	0.00e+00	0	40	0	0	52	4410
2026-01-28 11:36:46.37	230.68	13.02	-40.4	-42.2	18.7	0.00e+00	0	40	0	0	52	4419
2026-01-28 11:36:49.35	231.15	13.20	-40.2	-42.1	18.8	0.00e+00	0	40	0	0	52	4353
2026-01-28 11:36:52.33	231.62	13.38	-40.1	-41.9	18.9	0.00e+00	0	40	0	0	52	4286
2026-01-28 11:36:55.31	232.09	13.57	-40.0	-41.8	19.0	0.00e+00	0	40	0	0	52	4240
2026-01-28 11:36:58.29	232.58	13.75	-40.1	-41.9	18.9	0.00e+00	0	40	0	0	52	4286
2026-01-28 11:37:01.27	233.07	13.93	-40.1	-42.0	19.0	0.00e+00	0	40	0	0	51	4552
2026-01-28 11:37:04.25	233.56	14.11	-40.1	-41.9	19.1	0.00e+00	0	40	0	0	51	4517
2026-01-28 11:37:07.22	234.06	14.30	-40.1	-41.9	19.0	0.00e+00	0	40	0	0	51	4518
2026-01-28 11:37:10.20	234.57	14.48	-40.1	-41.9	19.0	0.00e+00	0	40	0	0	51	4545
2026-01-28 11:37:13.18	235.08	14.66	-40.0	-41.8	19.1	0.00e+00	0	40	0	0	51	4470
2026-01-28 11:37:16.16	235.60	14.83	-40.1	-41.9	19.0	0.00e+00	0	40	0	0	51	4506
2026-01-28 11:37:19.14	236.12	15.01	-40.1	-41.9	18.9	0.00e+00	0	40	0	0	51	4545
2026-01-28 11:37:22.12	236.65	15.19	-40.2	-42.0	19.0	0.00e+00	0	40	0	0	51	4562
2026-01-28 11:37:25.10	237.19	15.36	-40.1	-42.0	19.0	0.00e+00	0	40	0	0	51	4547
2026-01-28 11:37:28.08	237.73	15.54	-40.2	-42.0	19.0	0.00e+00	0	40	0	0	51	4565
2026-01-28 11:37:31.05	238.28	15.71	-40.1	-41.9	19.1	0.00e+00	0	40	0	0	51	4539
2026-01-28 11:37:34.03	238.84	15.89	-40.2	-42.0	19.0	0.00e+00	0	40	0	0	51	4583
2026-01-28 11:37:37.01	239.40	16.06	-40.2	-42.0	18.9	0.00e+00	0	40	0	0	51	4581
2026-01-28 11:37:39.99	239.97	16.23	-40.4	-42.2	18.8	0.00e+00	0	40	0	0	51	4685
2026-01-28 11:37:42.97	240.54	16.39	-40.3	-42.1	19.0	0.00e+00	0	40	0	0	51	4629
2026-01-28 11:37:45.95	241.12	16.56	-40.3	-42.1	19.0	0.00e+00	0	40	0	0	51	4599
2026-01-28 11:37:48.93	241.71	16.72	-40.2	-41.9	19.1	0.00e+00	0	40	0	0	51	4542
2026-01-28 11:37:51.91	242.30	16.89	-40.1	-42.0	19.1	0.00e+00	0	40	0	0	51	4546
2026-01-28 11:37:54.89	242.90	17.05	-40.0	-41.9	19.1	0.00e+00	0	40	0	0	51	4497
2026-01-28 11:37:57.86	243.50	17.21	-40.3	-42.2	18.9	0.00e+00	0	40	0	0	51	4658
2026-01-28 11:38:00.84	244.12	17.36	-40.2	-42.0	19.0	0.00e+00	0	40	0	0	51	4584
2026-01-28 11:38:03.82	244.73	17.52	-40.0	-41.7	19.3	0.00e+00	0	40	0	0	51	4431
2026-01-28 11:38:06.80	245.36	17.67	-39.9	-41.7	19.3	0.00e+00	0	40	0	0	51	4393
2026-01-28 11:38:09.78	245.99	17.82	-39.9	-41.7	19.2	0.00e+00	0	40	0	0	51	4431
2026-01-28 11:38:12.75	246.62	17.97	-39.9	-41.7	19.3	0.00e+00	0	40	0	0	51	4413
2026-01-28 11:38:15.73	247.26	18.11	-40.0	-41.7	19.3	0.00e+00	0	40	0	0	51	4433
2026-01-28 11:38:18.71	247.91	18.26	-39.9	-41.7	19.4	0.00e+00	0	40	0	0	51	4392
2026-01-28 11:38:21.69	248.56	18.40	-39.8	-41.6	19.4	0.00e+00	0	40	0	0	51	4371
2026-01-28 11:38:24.66	249.22	18.53	-39.9	-41.7	19.4	0.00e+00	0	40	0	0	51	4393
2026-01-28 11:38:27.64	249.89	18.67	-39.6	-41.4	19.7	0.00e+00	0	40	0	0	51	4247
2026-01-28 11:38:30.62	250.56	18.80	-39.6	-41.4	19.6	0.00e+00	0	40	0	0	51	4254
2026-01-28 11:38:33.60	251.23	18.92	-39.7	-41.5	19.5	0.00e+00	0	40	0	0	51	4297
2026-01-28 11:38:36.58	251.92	19.05	-39.6	-41.4	19.6	0.00e+00	0	40	0	0	51	4276
2026-01-28 11:38:39.56	252.60	19.17	-39.4	-41.1	19.9	0.00e+00	0	40	0	0	50	4377
2026-01-28 11:38:42.53	253.29	19.29	-39.6	-41.3	19.7	0.00e+00	0	39	0	0	50	4471
2026-01-28 11:38:45.51	253.99	19.40	-39.5	-41.3	19.7	0.00e+00	0	40	0	0	50	4457
2026-01-28 11:38:48.49	254.69	19.51	-39.3	-41.1	19.9	0.00e+00	0	40	0	0	50	4347
2026-01-28 11:38:51.47	255.40	19.61	-39.4	-41.1	19.9	0.00e+00	0	40	0	0	50	4349
2026-01-28 11:38:54.45	256.11	19.72	-39.4	-41.1	20.0	0.00e+00	0	40	0	0	50	4352
2026-01-28 11:38:57.43	256.83	19.82	-39.2	-41.0	20.1	0.00e+00	0	40	0	0	50	4295
2026-01-28 11:39:00.41	257.55	19.91	-39.1	-40.8	20.1	0.00e+00	0	40	0	0	50	4229
2026-01-28 11:39:03.39	258.27	20.00	-39.3	-41.0	20.0	0.00e+00	0	40	0	0	50	4312
2026-01-28 11:39:06.37	259.00	20.09	-39.2	-40.9	20.1	0.00e+00	0	40	0	0	50	4284
2026-01-28 11:39:09.34	259.73	20.17	-39.3	-41.0	20.0	0.00e+00	0	40	0	0	50	4294
2026-01-28 11:39:12.32	260.47	20.24	-39.3	-41.1	19.9	0.00e+00	0	40	0	0	50	4345
2026-01-28 11:39:15.30	261.21	20.32	-39.3	-41.0	20.0	0.00e+00	0	40	0	0	50	4300
2026-01-28 11:39:18.28	261.95	20.38	-39.2	-40.9	20.0	0.00e+00	0	39	0	0	50	4248
2026-01-28 11:39:21.26	262.70	20.45	-39.3	-41.0	20.1	0.00e+00	0	40	0	0	50	4293
2026-01-28 11:39:24.24	263.45	20.51	-39.2	-40.9	20.1	0.00e+00	0	40	0	0	50	4276
2026-01-28 11:39:27.21	264.20	20.56	-39.3	-41.0	20.1	0.00e+00	0	40	0	0	50	4324
2026-01-28 11:39:30.19	264.95	20.61	-39.6	-41.3	19.7	0.00e+00	0	40	0	0	50	4485
2026-01-28 11:39:33.17	265.71	20.65	-39.4	-41.1	19.8	0.00e+00	0	40	0	0	50	4378
2026-01-28 11:39:36.15	266.47	20.69	-39.2	-40.9	20.0	0.00e+00	0	40	0	0	50	4260
2026-01-28 11:39:39.13	267.23	20.73	-39.4	-41.1	19.9	0.00e+00	0	40	0	0	50	4369
2026-01-28 11:39:42.11	267.99	20.76	-39.3	-41.0	20.1	0.00e+00	0	40	0	0	50	4297
2026-01-28 11:39:45.08	268.75	20.78	-39.3	-41.0	20.0	0.00e+00	0	40	0	0	50	4309
2026-01-28 11:39:48.06	269.51	20.80	-39.3	-41.0	19.9	0.00e+00	0	40	0	0	50	4327
2026-01-28 11:39:51.04	270.28	20.81	-39.2	-40.9	20.0	0.00e+00	0	39	0	0	50	4279
2026-01-28 11:39:54.02	271.04	20.82	-39.2	-40.9	20.0	0.00e+00	0	40	0	0	50	4281
2026-01-28 11:39:57.00	271.81	20.83	-39.3	-41.0	19.9	0.00e+00	0	40	0	0	50	4334
2026-01-28 11:39:59.98	272.57	20.83	-39.2	-40.9	20.0	0.00e+00	0	40	0	0	50	4276
2026-01-28 11:40:02.96	273.34	20.82	-39.2	-40.9	20.1	0.00e+00	0	40	0	0	50	4281
2026-01-28 11:40:05.94	274.10	20.81	-39.2	-40.9	20.0	0.00e+00	0	40	0	0	50	4286
2026-01-28 11:40:08.92	274.87	20.79	-39.3	-41.0	20.0	0.00e+00	0	40	0	0	50	4308
2026-01-28 11:40:11.90	275.63	20.77	-39.4	-41.1	19.8	0.00e+00	0	40	0	0	50	4391
2026-01-28 11:40:14.87	276.39	20.75	-39.5	-41.2	19.8	0.00e+00	0	40	0	0	50	4419
2026-01-28 11:40:17.85	277.15	20.71	-39.3	-40.9	20.0	0.00e+00	0	40	0	0	50	4283
2026-01-28 11:40:20.83	277.91	20.68	-39.4	-41.1	19.8	0.00e+00	0	40	0	0	50	4357
2026-01-28 11:40:23.81	278.66	20.64	-39.3	-41.0	19.9	0.00e+00	0	40	0	0	50	4314
2026-01-28 11:40:26.79	279.42	20.59	-39.2	-40.8	20.1	0.00e+00	0	40	0	0	50	4226
2026-01-28 11:40:29.77	280.17	20.54	-39.2	-40.9	20.1	0.00e+00	0	40	0	0	50	4274
2026-01-28 11:40:32.75	280.92	20.48	-39.3	-41.0	20.0	0.00e+00	0	40	0	0	50	4314
2026-01-28 11:40:35.73	281.67	20.42	-39.4	-41.1	19.9	0.00e+00	0	40	0	0	50	4370
2026-01-28 11:40:38.70	282.41	20.36	-39.3	-41.0	20.1	0.00e+00	0	40	0	0	50	4314
2026-01-28 11:40:41.68	283.15	20.29	-39.1	-40.8	20.1	0.00e+00	0	40	0	0	50	4211
2026-01-28 11:40:44.66	283.89	20.22	-39.3	-41.0	20.0	0.00e+00	0	40	0	0	50	4306
2026-01-28 11:40:47.64	284.62	20.14	-39.2	-40.9	20.1	0.00e+00	0	40	0	0	50	4257
2026-01-28 11:40:50.62	285.35	20.05	-39.3	-41.0	20.0	0.00e+00	0	39	0	0	50	4317
2026-01-28 11:40:53.60	286.07	19.97	-39.2	-40.9	20.1	0.00e+00	0	40	0	0	50	4245
2026-01-28 11:40:56.58	286.80	19.88	-39.2	-40.9	20.1	0.00e+00	0	40	0	0	50	4272
2026-01-28 11:40:59.56	287.51	19.78	-39.3	-40.9	20.0	0.00e+00	0	40	0	0	50	4290
2026-01-28 11:41:02.54	288.23	19.68	-39.2	-40.9	20.0	0.00e+00	0	40	0	0	50	4246
2026-01-28 11:41:05.51	288.93	19.58	-39.4	-41.0	19.8	0.00e+00	0	40	0	0	50	4340
2026-01-28 11:41:08.49	289.63	19.47	-39.3	-41.0	19.9	0.00e+00	0	40	0	0	50	4329
2026-01-28 11:41:11.47	290.33	19.36	-39.2	-40.9	20.0	0.00e+00	0	40	0	0	50	4274
2026-01-28 11:41:14.45	291.03	19.25	-39.2	-40.9	20.0	0.00e+00	0	40	0	0	50	4281
2026-01-28 11:41:17.43	291.71	19.13	-39.2	-40.8	20.1	0.00e+00	0	40	0	0	50	4226
2026-01-28 11:41:20.41	292.40	19.01	-39.3	-40.9	20.0	0.00e+00	0	40	0	0	50	4285
2026-01-28 11:41:23.39	293.07	18.88	-39.2	-40.8	20.1	0.00e+00	0	40	0	0	50	4228
2026-01-28 11:41:26.37	293.74	18.75	-39.3	-41.0	20.0	0.00e+00	0	40	0	0	50	4308
2026-01-28 11:41:29.34	294.41	18.62	-39.2	-40.9	20.1	0.00e+00	0	40	0	0	50	4245
2026-01-28 11:41:32.32	295.07	18.49	-39.2	-40.9	20.1	0.00e+00	0	40	0	0	50	4260
2026-01-28 11:41:35.30	295.72	18.35	-39.4	-41.2	19.8	0.00e+00	0	40	0	0	50	4396
2026-01-28 11:41:38.28	296.37	18.21	-39.3	-41.0	19.9	0.00e+00	0	40	0	0	50	4327
2026-01-28 11:41:41.26	297.02	18.07	-39.5	-41.3	19.7	0.00e+00	0	40	0	0	50	4450
2026-01-28 11:41:44.24	297.65	17.92	-39.6	-41.3	19.6	0.00e+00	0	40	0	0	50	4470
2026-01-28 11:41:47.22	298.28	17.78	-39.9	-41.7	19.3	0.00e+00	0	40	0	0	50	4653
2026-01-28 11:41:50.20	298.91	17.63	-39.8	-41.6	19.4	0.00e+00	0	40	0	0	50	4619
2026-01-28 11:41:53.18	299.53	17.48	-39.9	-41.6	19.4	0.00e+00	0	40	0	0	50	4639
2026-01-28 11:41:56.15	300.14	17.32	-40.0	-41.7	19.3	0.00e+00	0	40	0	0	50	4701
2026-01-28 11:41:59.13	300.74	17.16	-40.1	-41.9	19.1	0.00e+00	0	40	0	0	50	4789
2026-01-28 11:42:02.11	301.34	17.01	-40.3	-42.1	18.8	0.00e+00	0	40	0	0	51	4621
2026-01-28 11:42:05.09	301.94	16.85	-39.8	-41.5	19.3	0.00e+00	0	40	0	0	51	4329
2026-01-28 11:42:08.07	302.53	16.68	-39.8	-41.5	19.3	0.00e+00	0	40	0	0	51	4336
2026-01-28 11:42:11.05	303.11	16.52	-40.1	-41.9	19.1	0.00e+00	0	40	0	0	51	4526
2026-01-28 11:42:14.03	303.68	16.35	-40.3	-42.1	18.8	0.00e+00	0	40	0	0	51	4633
2026-01-28 11:42:17.00	304.25	16.19	-40.3	-42.1	18.9	0.00e+00	0	40	0	0	51	4611
2026-01-28 11:42:19.98	304.81	16.02	-40.1	-41.9	19.0	0.00e+00	0	40	0	0	51	4503
2026-01-28 11:42:22.96	305.37	15.85	-40.2	-42.0	19.0	0.00e+00	0	40	0	0	51	4556
2026-01-28 11:42:25.94	305.92	15.68	-40.1	-41.8	19.2	0.00e+00	0	40	0	0	51	4483
2026-01-28 11:42:28.92	306.47	15.51	-40.5	-42.3	18.7	0.00e+00	0	40	0	0	51	4748
2026-01-28 11:42:31.90	307.00	15.33	-40.7	-42.5	18.5	0.00e+00	0	40	0	0	51	4860
2026-01-28 11:42:34.88	307.54	15.16	-40.4	-42.2	18.6	0.00e+00	0	40	0	0	52	4431
2026-01-28 11:42:37.85	308.06	14.98	-40.3	-42.1	18.8	0.00e+00	0	40	0	0	52	4374
2026-01-28 11:42:40.83	308.58	14.81	-40.3	-42.2	18.8	0.00e+00	0	40	0	0	52	4402
2026-01-28 11:42:43.81	309.10	14.63	-40.5	-42.3	18.6	0.00e+00	0	40	0	0	52	4490
2026-01-28 11:42:46.79	309.60	14.45	-40.6	-42.5	18.5	0.00e+00	0	40	0	0	52	4558
2026-01-28 11:42:49.77	310.11	14.27	-40.6	-42.6	18.4	0.00e+00	0	40	0	0	52	4607
2026-01-28 11:42:52.75	310.60	14.09	-40.4	-42.3	18.6	0.00e+00	0	40	0	0	52	4469
2026-01-28 11:42:55.72	311.09	13.91	-40.4	-42.3	18.6	0.00e+00	0	40	0	0	52	4464
2026-01-28 11:42:58.70	311.58	13.73	-40.3	-42.2	18.8	0.00e+00	0	40	0	0	52	4392
2026-01-28 11:43:01.68	312.06	13.55	-40.2	-42.0	18.9	0.00e+00	0	40	0	0	52	4329
2026-01-28 11:43:04.66	312.53	13.37	-40.2	-42.0	18.9	0.00e+00	0	40	0	0	52	4312
2026-01-28 11:43:07.64	313.00	13.19	-40.3	-42.1	18.8	0.00e+00	0	40	0	0	52	4375
2026-01-28 11:43:10.62	313.46	13.00	-40.3	-42.1	18.7	0.00e+00	0	40	0	0	52	4379
2026-01-28 11:43:13.59	313.92	12.82	-40.3	-42.1	18.7	0.00e+00	0	40	0	0	52	4383
2026-01-28 11:43:16.57	314.37	12.64	-40.4	-42.3	18.7	0.00e+00	0	40	0	0	52	4450
2026-01-28 11:43:19.55	314.81	12.46	-40.3	-42.2	18.8	0.00e+00	0	40	0	0	52	4395
2026-01-28 11:43:22.53	315.25	12.27	-40.3	-42.2	18.7	0.00e+00	0	40	0	0	52	4403
2026-01-28 11:43:25.51	315.69	12.09	-40.2	-42.1	18.7	0.00e+00	0	40	0	0	52	4388
2026-01-28 11:43:28.49	316.12	11.91	-40.2	-42.1	18.8	0.00e+00	0	40	0	0	52	4361
2026-01-28 11:43:31.47	316.54	11.72	-40.4	-42.3	18.6	0.00e+00	0	40	0	0	52	4457
2026-01-28 11:43:34.44	316.96	11.54	-40.5	-42.4	18.5	0.00e+00	0	40	0	0	52	4518
2026-01-28 11:43:37.42	317.38	11.36	-40.7	-42.6	18.3	0.00e+00	0	40	0	0	52	4602
2026-01-28 11:43:40.40	317.79	11.17	-40.8	-42.7	18.2	0.00e+00	0	40	0	0	52	4662
2026-01-28 11:43:43.38	318.19	10.99	-40.8	-42.8	18.0	0.00e+00	0	40	0	0	52	4731
2026-01-28 11:43:46.36	318.59	10.81	-41.0	-43.1	17.7	0.00e+00	0	40	0	0	52	4897
2026-01-28 11:43:49.34	318.99	10.63	-41.2	-43.4	17.4	0.00e+00	0	40	0	0	53	4764
2026-01-28 11:43:52.32	319.38	10.44	-41.2	-43.3	17.5	0.00e+00	0	39	0	0	53	4749
2026-01-28 11:43:55.29	319.76	10.26	-41.0	-43.2	17.7	0.00e+00	0	40	0	0	53	4673
2026-01-28 11:43:58.27	320.14	10.08	-40.9	-43.0	17.8	0.00e+00	0	40	0	0	53	4595
2026-01-28 11:44:01.25	320.52	9.90	-40.9	-43.0	17.8	0.00e+00	0	40	0	0	53	4559
2026-01-28 11:44:04.23	320.89	9.72	-41.0	-43.0	17.8	0.00e+00	0	40	0	0	53	4590
2026-01-28 11:44:07.21	321.26	9.53	-41.1	-43.2	17.7	0.00e+00	0	40	0	0	53	4655
2026-01-28 11:44:10.19	321.62	9.35	-41.3	-43.4	17.5	0.00e+00	0	40	0	0	53	4765
2026-01-28 11:44:13.17	321.98	9.17	-41.4	-43.5	17.3	0.00e+00	0	40	0	0	53	4853
2026-01-28 11:44:16.15	322.34	8.99	-41.4	-43.6	17.3	0.00e+00	0	40	0	0	53	4873
2026-01-28 11:44:19.13	322.69	8.81	-48.5	-62.1	3.8	1.49e+00	0	40	104	0	68	17405
2026-01-28 11:44:22.10	323.03	8.63	-49.0	-62.2	3.8	1.49e+00	0	40	104	0	68	17578
2026-01-28 11:44:25.08	323.38	8.45	-49.2	-62.2	3.8	1.49e+00	0	40	104	0	69	16544
2026-01-28 11:44:28.06	323.71	8.28	-49.3	-62.3	3.8	1.49e+00	0	40	104	0	69	16804
2026-01-28 11:44:31.04	324.05	8.10	-49.1	-62.3	3.8	1.49e+00	0	40	104	0	69	16848
2026-01-28 11:44:34.02	324.38	7.92	-49.1	-62.3	3.8	1.49e+00	0	40	104	0	69	16860
2026-01-28 11:44:37.00	324.71	7.74	-49.1	-62.3	3.8	1.49e+00	0	40	104	0	69	16803
2026-01-28 11:44:39.98	325.03	7.57	-49.1	-62.4	3.8	1.49e+00	0	40	104	0	69	16915
2026-01-28 11:44:42.96	325.35	7.39	-49.1	-62.3	3.8	1.49e+00	0	40	104	0	69	16868
2026-01-28 11:44:45.94	325.67	7.21	-49.1	-62.3	3.8	1.49e+00	0	40	104	0	69	16811
2026-01-28 11:44:48.91	325.98	7.04	-49.1	-62.3	3.8	1.49e+00	0	40	104	0	69	16875
2026-01-28 11:44:51.89	326.28	6.86	-49.1	-62.3	3.8	1.49e+00	0	40	104	0	69	16849
2026-01-28 11:44:54.87	326.59	6.69	-49.1	-62.3	3.8	1.49e+00	0	40	104	0	69	16873
2026-01-28 11:44:57.85	326.89	6.52	-49.1	-62.3	3.8	1.49e+00	0	40	104	0	69	16836
2026-01-28 11:45:00.83	327.19	6.34	-49.1	-62.3	3.8	1.49e+00	0	40	104	0	69	16756
2026-01-28 11:45:03.81	327.48	6.17	-49.1	-62.3	3.8	1.49e+00	0	40	104	0	69	16867
2026-01-28 11:45:06.79	327.78	6.00	-49.1	-62.3	3.8	1.49e+00	0	40	104	0	69	16770
2026-01-28 11:45:09.77	328.06	5.83	-49.1	-62.3	3.8	1.49e+00	0	40	104	0	69	16809
2026-01-28 11:45:12.75	328.35	5.66	-49.1	-62.3	3.8	1.49e+00	0	40	104	0	69	16792
2026-01-28 11:45:15.73	328.63	5.49	-49.1	-62.3	3.8	1.49e+00	0	40	104	0	69	16835
2026-01-28 11:45:18.71	328.91	5.32	-49.1	-62.3	3.8	1.49e+00	0	40	104	0	69	16825
2026-01-28 11:45:21.69	329.19	5.15	-49.1	-62.3	3.8	1.49e+00	0	40	104	0	69	16789
2026-01-28 11:45:24.66	329.46	4.98	-49.1	-62.3	3.8	1.49e+00	0	40	104	0	69	16768

#Closed at: 2026-01-28 11:45:25
#Recorded file [0 MB]: D:/Data/31040_260128_143435.dat