passes_logs/2026/01/28/T1/T1__20260128_163656_FENGYUN_3G_rec.log

#Pass ID: 20260128_163656_FENGYUN 3G
#Satellite: FENGYUN 3G
#Configuration: FENGYUN 3G
#almurnet v.1.7.20251203
#Start time: 2026-01-28 16:36:56

#Version: 2.0.20230620
#Station: T1
#Location: 37.570604 lon 55.790049 lat
#TLE: 1 56232U 23055A   26027.33093889  .00044881  00000+0  67100-3 0  9994
#TLE: 2 56232  49.9947 352.2708 0004101  93.7831 266.3606 15.54500775158110

#Time	Az	El	Level	Level2	SNR	BER	BlckErr	Temp	State	Recorded	gain1	gain2
2026-01-28 16:36:56.55	227.15	5.05	-49.9	-69.1	3.8	8.48e-01	0	40	0	0	71	32806
2026-01-28 16:36:58.54	226.94	5.19	-50.3	-69.2	3.8	8.48e-01	0	40	104	0	72	31243
2026-01-28 16:37:00.52	226.72	5.34	-50.2	-69.2	3.8	8.46e-01	0	41	104	0	72	31294
2026-01-28 16:37:02.51	226.51	5.49	-50.1	-69.2	3.8	8.47e-01	0	40	104	0	72	31175
2026-01-28 16:37:04.49	226.29	5.63	-50.2	-69.1	3.8	8.47e-01	0	40	104	0	72	31062
2026-01-28 16:37:06.48	226.07	5.78	-50.1	-69.1	3.8	8.48e-01	0	41	104	0	72	30764
2026-01-28 16:37:08.47	225.84	5.93	-50.1	-69.0	3.8	8.47e-01	0	40	104	0	72	30562
2026-01-28 16:37:10.45	225.61	6.08	-50.0	-69.0	3.8	8.47e-01	0	41	104	0	71	32210
2026-01-28 16:37:12.44	225.38	6.23	-49.9	-68.9	3.8	8.46e-01	0	41	104	0	71	31850
2026-01-28 16:37:14.42	225.14	6.39	-48.5	-68.7	3.8	8.47e-01	0	41	104	0	69	34922
2026-01-28 16:37:16.41	224.90	6.54	-45.8	-68.3	3.8	8.46e-01	0	41	104	0	63	47360
2026-01-28 16:37:18.39	224.66	6.70	-46.0	-68.3	3.8	8.46e-01	0	41	104	0	63	47351
2026-01-28 16:37:20.38	224.41	6.85	-46.1	-68.3	3.8	8.46e-01	0	41	104	0	63	47451
2026-01-28 16:37:22.37	224.16	7.01	-46.0	-68.3	3.8	8.46e-01	0	41	104	0	63	47294
2026-01-28 16:37:24.35	223.90	7.17	-46.0	-68.3	3.8	8.47e-01	0	41	104	0	63	47344
2026-01-28 16:37:26.34	223.64	7.33	-46.0	-68.3	3.8	8.47e-01	0	41	104	0	63	47352
2026-01-28 16:37:28.33	223.38	7.49	-46.1	-68.3	3.8	8.46e-01	0	41	104	0	63	47262
2026-01-28 16:37:30.31	223.11	7.65	-46.2	-68.3	3.8	8.47e-01	0	41	104	0	63	47367
2026-01-28 16:37:32.30	222.84	7.81	-46.0	-68.3	3.8	8.46e-01	0	41	104	0	63	47373
2026-01-28 16:37:34.28	222.57	7.97	-45.9	-68.3	3.8	8.46e-01	0	41	104	0	63	47257
2026-01-28 16:37:36.27	222.28	8.14	-46.1	-68.3	3.8	8.47e-01	0	41	104	0	63	47196
2026-01-28 16:37:38.26	222.00	8.30	-46.0	-68.3	3.8	8.47e-01	0	41	104	0	63	47224
2026-01-28 16:37:40.24	221.71	8.47	-45.8	-68.3	3.8	8.48e-01	0	41	104	0	63	47390
2026-01-28 16:37:42.23	221.42	8.64	-46.0	-68.3	3.8	8.47e-01	0	42	104	0	63	47335
2026-01-28 16:37:44.21	221.12	8.81	-46.0	-68.3	3.8	8.46e-01	0	41	104	0	63	47339
2026-01-28 16:37:46.20	220.82	8.98	-46.0	-68.3	3.8	8.47e-01	0	42	104	0	63	47222
2026-01-28 16:37:48.19	220.51	9.15	-47.0	-68.2	3.8	8.47e-01	0	41	104	0	64	44218
2026-01-28 16:37:50.17	220.19	9.32	-46.1	-68.3	3.8	8.47e-01	0	42	104	0	63	47196
2026-01-28 16:37:52.16	219.87	9.50	-48.1	-68.3	3.8	8.47e-01	0	42	104	0	66	39667
2026-01-28 16:37:54.14	219.55	9.67	-47.4	-68.3	3.8	8.47e-01	0	42	104	0	66	39633
2026-01-28 16:37:56.13	219.22	9.85	-49.3	-68.4	3.8	8.47e-01	0	42	104	0	69	34016
2026-01-28 16:37:58.12	218.89	10.03	-49.3	-68.4	3.8	8.46e-01	0	42	104	0	69	34050
2026-01-28 16:38:00.10	218.55	10.20	-49.3	-68.5	3.8	8.47e-01	0	42	104	0	69	34175
2026-01-28 16:38:02.09	218.20	10.38	-49.3	-68.5	3.8	8.46e-01	0	42	104	0	69	34202
2026-01-28 16:38:04.07	217.85	10.56	-49.1	-68.5	3.8	8.46e-01	0	42	104	0	69	34116
2026-01-28 16:38:06.06	217.49	10.75	-49.2	-68.5	3.8	8.48e-01	0	42	104	0	69	34254
2026-01-28 16:38:08.05	217.13	10.93	-49.4	-68.5	3.8	8.48e-01	0	42	104	0	69	34247
2026-01-28 16:38:10.03	216.76	11.12	-49.4	-68.5	3.8	8.47e-01	0	42	104	0	69	34210
2026-01-28 16:38:12.02	216.38	11.30	-49.3	-68.5	3.8	8.47e-01	0	42	104	0	69	34303
2026-01-28 16:38:14.00	216.00	11.49	-49.2	-68.5	3.8	8.47e-01	0	42	104	0	69	34289
2026-01-28 16:38:15.99	215.61	11.68	-49.5	-68.5	3.8	8.47e-01	0	42	104	0	69	34233
2026-01-28 16:38:17.97	215.21	11.87	-49.6	-68.5	3.8	8.47e-01	0	42	104	0	69	34198
2026-01-28 16:38:19.96	214.81	12.06	-49.4	-68.5	3.8	8.48e-01	0	42	104	0	69	34303
2026-01-28 16:38:21.95	214.40	12.25	-49.5	-68.5	3.8	8.46e-01	0	42	104	0	69	34381
2026-01-28 16:38:23.93	213.98	12.44	-49.2	-68.5	3.8	8.47e-01	0	42	104	0	69	34341
2026-01-28 16:38:25.92	213.56	12.63	-49.4	-68.5	3.8	8.47e-01	0	42	104	0	69	34431
2026-01-28 16:38:27.90	213.13	12.83	-49.3	-68.6	3.8	8.46e-01	0	42	104	0	69	34601
2026-01-28 16:38:29.89	212.68	13.02	-49.5	-68.6	3.8	8.46e-01	0	42	104	0	69	34618
2026-01-28 16:38:31.87	212.24	13.22	-49.5	-68.6	3.8	8.46e-01	0	42	104	0	69	34585
2026-01-28 16:38:33.86	211.78	13.42	-49.6	-68.6	3.8	8.48e-01	0	42	104	0	69	34593
2026-01-28 16:38:35.85	211.32	13.62	-49.5	-68.6	3.8	8.47e-01	0	42	104	0	69	34666
2026-01-28 16:38:37.83	210.85	13.82	-49.5	-68.6	3.8	8.47e-01	0	42	104	0	69	34686
2026-01-28 16:38:39.82	210.37	14.02	-49.5	-68.6	3.8	8.47e-01	0	42	104	0	70	32878
2026-01-28 16:38:41.80	209.88	14.22	-49.6	-68.6	3.8	8.47e-01	0	42	104	0	70	32820
2026-01-28 16:38:43.79	209.38	14.42	-49.6	-68.6	3.8	8.47e-01	0	42	104	0	70	32775
2026-01-28 16:38:45.77	208.88	14.62	-49.6	-68.6	3.8	8.47e-01	0	42	104	0	70	32924
2026-01-28 16:38:47.76	208.36	14.83	-49.7	-68.7	3.8	8.47e-01	0	42	104	0	70	33006
2026-01-28 16:38:49.75	207.84	15.03	-49.6	-68.7	3.8	8.48e-01	0	42	104	0	70	32955
2026-01-28 16:38:51.73	207.31	15.23	-49.7	-68.7	3.8	8.47e-01	0	42	104	0	70	33000
2026-01-28 16:38:53.72	206.76	15.44	-49.6	-68.7	3.8	8.47e-01	0	42	104	0	70	33033
2026-01-28 16:38:55.70	206.21	15.64	-49.7	-68.7	3.8	8.47e-01	0	42	104	0	70	33145
2026-01-28 16:38:57.69	205.65	15.85	-49.7	-68.7	3.8	8.48e-01	0	42	104	0	70	33085
2026-01-28 16:38:59.68	205.08	16.05	-49.5	-68.7	3.8	8.46e-01	0	42	104	0	70	33124
2026-01-28 16:39:01.66	204.50	16.26	-49.6	-68.7	3.8	8.46e-01	0	42	104	0	70	33021
2026-01-28 16:39:03.65	203.90	16.47	-49.6	-68.7	3.8	8.48e-01	0	42	104	0	70	33048
2026-01-28 16:39:05.63	203.30	16.67	-49.6	-68.7	3.8	8.46e-01	0	42	104	0	70	33191
2026-01-28 16:39:07.62	202.69	16.88	-49.5	-68.7	3.8	8.46e-01	0	42	104	0	70	33166
2026-01-28 16:39:09.60	202.07	17.08	-49.5	-68.7	3.8	8.47e-01	0	42	104	0	70	33166
2026-01-28 16:39:11.59	201.43	17.28	-49.5	-68.7	3.8	8.46e-01	0	42	104	0	70	33258
2026-01-28 16:39:13.58	200.79	17.49	-49.6	-68.7	3.8	8.47e-01	0	42	104	0	70	33118
2026-01-28 16:39:15.56	200.13	17.69	-49.7	-68.7	3.8	8.47e-01	0	42	104	0	70	33152
2026-01-28 16:39:17.55	199.47	17.89	-49.7	-68.7	3.8	8.46e-01	0	42	104	0	70	33179
2026-01-28 16:39:19.53	198.79	18.09	-49.8	-68.7	3.8	8.47e-01	0	42	104	0	70	33152
2026-01-28 16:39:21.52	198.10	18.29	-49.7	-68.8	3.8	8.47e-01	0	42	104	0	70	33375
2026-01-28 16:39:23.50	197.40	18.49	-49.4	-68.7	3.8	8.47e-01	0	42	104	0	70	33239
2026-01-28 16:39:25.49	196.69	18.69	-49.3	-68.8	3.8	8.47e-01	0	42	104	0	70	33365
2026-01-28 16:39:27.48	195.97	18.89	-49.4	-68.7	3.8	8.48e-01	0	42	104	0	70	33307
2026-01-28 16:39:29.46	195.23	19.08	-49.4	-68.8	3.8	8.49e-01	0	42	104	0	70	33404
2026-01-28 16:39:31.45	194.49	19.27	-49.4	-68.8	3.8	8.47e-01	0	42	104	0	70	33397
2026-01-28 16:39:33.43	193.73	19.46	-49.5	-68.8	3.8	8.48e-01	0	42	104	0	70	33479
2026-01-28 16:39:35.42	192.96	19.65	-49.6	-68.8	3.8	8.47e-01	0	42	104	0	70	33533
2026-01-28 16:39:37.41	192.18	19.83	-49.5	-68.8	3.8	8.46e-01	0	42	104	0	70	33454
2026-01-28 16:39:39.39	191.39	20.01	-49.5	-68.8	3.8	8.47e-01	0	42	104	0	70	33474
2026-01-28 16:39:41.38	190.59	20.19	-49.4	-68.8	3.8	8.46e-01	0	42	104	0	70	33598
2026-01-28 16:39:43.36	189.78	20.36	-49.4	-68.8	3.8	8.48e-01	0	42	104	0	70	33468
2026-01-28 16:39:45.35	188.95	20.53	-49.5	-68.8	3.8	8.47e-01	0	42	104	0	70	33535
2026-01-28 16:39:47.33	188.12	20.70	-49.5	-68.8	3.8	8.46e-01	0	42	104	0	70	33662
2026-01-28 16:39:49.32	187.27	20.86	-49.6	-68.8	3.8	8.47e-01	0	42	104	0	70	33551
2026-01-28 16:39:51.31	186.41	21.02	-49.6	-68.8	3.8	8.46e-01	0	42	104	0	70	33569
2026-01-28 16:39:53.29	185.55	21.18	-49.6	-68.8	3.8	8.47e-01	0	42	104	0	70	33527
2026-01-28 16:39:55.28	184.67	21.33	-49.5	-68.8	3.8	8.47e-01	0	42	104	0	70	33596
2026-01-28 16:39:57.26	183.78	21.47	-49.6	-68.8	3.8	8.48e-01	0	42	104	0	70	33624
2026-01-28 16:39:59.25	182.88	21.61	-49.6	-68.8	3.8	8.46e-01	0	42	104	0	70	33612
2026-01-28 16:40:01.23	181.98	21.74	-49.5	-68.9	3.8	8.46e-01	0	42	104	0	70	33704
2026-01-28 16:40:03.22	181.06	21.87	-49.6	-68.8	3.8	8.47e-01	0	42	104	0	70	33658
2026-01-28 16:40:05.21	180.13	21.99	-49.8	-68.8	3.8	8.47e-01	0	42	104	0	70	33654
2026-01-28 16:40:07.19	179.20	22.11	-49.7	-68.9	3.8	8.47e-01	0	42	104	0	70	33737
2026-01-28 16:40:09.18	178.26	22.22	-49.7	-68.9	3.8	8.46e-01	0	42	104	0	70	33728
2026-01-28 16:40:11.16	177.31	22.32	-49.8	-68.8	3.8	8.47e-01	0	42	104	0	70	33661
2026-01-28 16:40:13.15	176.35	22.42	-49.7	-68.8	3.8	8.47e-01	0	42	104	0	70	33608
2026-01-28 16:40:15.13	175.39	22.51	-49.8	-68.8	3.8	8.46e-01	0	42	104	0	70	33661
2026-01-28 16:40:17.12	174.42	22.59	-49.6	-68.8	3.8	8.47e-01	0	42	104	0	70	33607
2026-01-28 16:40:19.11	173.44	22.67	-49.8	-68.9	3.8	8.47e-01	0	42	104	0	70	33700
2026-01-28 16:40:21.09	172.46	22.74	-49.6	-68.9	3.8	8.47e-01	0	42	104	0	70	33728
2026-01-28 16:40:23.08	171.48	22.80	-49.8	-68.8	3.8	8.47e-01	0	42	104	0	70	33624
2026-01-28 16:40:25.06	170.49	22.85	-49.7	-68.8	3.8	8.47e-01	0	42	104	0	70	33574
2026-01-28 16:40:27.05	169.49	22.89	-49.6	-68.8	3.8	8.47e-01	0	42	104	0	70	33676
2026-01-28 16:40:29.04	168.50	22.93	-49.8	-68.8	3.8	8.46e-01	0	42	104	0	70	33642
2026-01-28 16:40:31.02	167.50	22.96	-49.8	-68.8	3.8	8.46e-01	0	42	104	0	70	33626
2026-01-28 16:40:33.01	166.50	22.98	-49.8	-68.8	3.8	8.47e-01	0	42	104	0	70	33606
2026-01-28 16:40:34.99	165.50	22.99	-49.9	-68.8	3.8	8.48e-01	0	42	104	0	70	33483
2026-01-28 16:40:36.98	164.49	23.00	-49.9	-68.8	3.8	8.46e-01	0	42	104	0	70	33645
2026-01-28 16:40:38.97	163.49	22.99	-49.8	-68.8	3.8	8.47e-01	0	42	104	0	70	33534
2026-01-28 16:40:40.95	162.49	22.98	-49.8	-68.8	3.8	8.48e-01	0	42	104	0	70	33544
2026-01-28 16:40:42.94	161.49	22.96	-49.7	-68.8	3.8	8.47e-01	0	42	104	0	70	33630
2026-01-28 16:40:44.92	160.49	22.93	-49.8	-68.8	3.8	8.47e-01	0	42	104	0	70	33617
2026-01-28 16:40:46.91	159.49	22.90	-49.9	-68.8	3.8	8.46e-01	0	42	104	0	70	33635
2026-01-28 16:40:48.90	158.50	22.85	-49.9	-68.8	3.8	8.47e-01	0	42	104	0	70	33594
2026-01-28 16:40:50.88	157.51	22.80	-49.9	-68.8	3.8	8.47e-01	0	42	104	0	70	33584
2026-01-28 16:40:52.87	156.52	22.74	-49.8	-68.8	3.8	8.49e-01	0	42	104	0	70	33677
2026-01-28 16:40:54.85	155.54	22.68	-49.8	-68.8	3.8	8.47e-01	0	42	104	0	70	33603
2026-01-28 16:40:56.84	154.56	22.60	-49.8	-68.8	3.8	8.46e-01	0	42	104	0	70	33609
2026-01-28 16:40:58.82	153.60	22.52	-49.8	-68.8	3.8	8.47e-01	0	42	104	0	70	33540
2026-01-28 16:41:00.81	152.63	22.43	-49.8	-68.8	3.8	8.48e-01	0	42	104	0	70	33685
2026-01-28 16:41:02.80	151.67	22.34	-49.7	-68.8	3.8	8.48e-01	0	42	104	0	70	33609
2026-01-28 16:41:04.78	150.73	22.23	-49.7	-68.8	3.8	8.47e-01	0	42	104	0	70	33583
2026-01-28 16:41:06.77	149.78	22.12	-49.7	-68.8	3.8	8.46e-01	0	42	104	0	70	33603
2026-01-28 16:41:08.76	148.85	22.01	-49.7	-68.8	3.8	8.45e-01	0	42	104	0	70	33577
2026-01-28 16:41:10.74	147.92	21.89	-49.7	-68.8	3.8	8.47e-01	0	42	104	0	70	33612
2026-01-28 16:41:12.73	147.00	21.76	-49.7	-68.8	3.8	8.46e-01	0	42	104	0	70	33569
2026-01-28 16:41:14.71	146.10	21.63	-49.4	-68.8	3.8	8.46e-01	0	42	104	0	70	33519
2026-01-28 16:41:16.70	145.20	21.49	-49.5	-68.8	3.8	8.47e-01	0	42	104	0	70	33593
2026-01-28 16:41:18.68	144.31	21.34	-49.7	-68.8	3.8	8.46e-01	0	42	104	0	70	33487
2026-01-28 16:41:20.67	143.43	21.20	-49.7	-68.8	3.8	8.47e-01	0	42	104	0	70	33440
2026-01-28 16:41:22.66	142.56	21.04	-49.9	-68.8	3.8	8.46e-01	0	42	104	0	70	33464
2026-01-28 16:41:24.64	141.71	20.88	-49.9	-68.8	3.8	8.46e-01	0	42	104	0	70	33449
2026-01-28 16:41:26.63	140.86	20.72	-49.9	-68.8	3.8	8.47e-01	0	42	104	0	70	33424
2026-01-28 16:41:28.61	140.03	20.55	-49.8	-68.8	3.8	8.47e-01	0	42	104	0	70	33454
2026-01-28 16:41:30.60	139.20	20.38	-49.7	-68.8	3.8	8.48e-01	0	42	104	0	70	33434
2026-01-28 16:41:32.59	138.39	20.21	-49.7	-68.8	3.8	8.46e-01	0	42	104	0	70	33466
2026-01-28 16:41:34.57	137.59	20.03	-49.8	-68.8	3.8	8.47e-01	0	42	104	0	70	33359
2026-01-28 16:41:36.56	136.79	19.85	-49.8	-68.8	3.8	8.47e-01	0	42	104	0	70	33418
2026-01-28 16:41:38.54	136.02	19.67	-49.9	-68.8	3.8	8.47e-01	0	42	104	0	70	33406
2026-01-28 16:41:40.53	135.25	19.48	-49.8	-68.8	3.8	8.48e-01	0	42	104	0	70	33334
2026-01-28 16:41:42.52	134.49	19.29	-49.8	-68.7	3.8	8.46e-01	0	42	104	0	70	33231
2026-01-28 16:41:44.50	133.74	19.10	-49.8	-68.7	3.8	8.48e-01	0	42	104	0	70	33290
2026-01-28 16:41:46.49	133.01	18.91	-49.9	-68.7	3.8	8.47e-01	0	42	104	0	70	33231
2026-01-28 16:41:48.47	132.29	18.72	-49.8	-68.7	3.8	8.46e-01	0	42	104	0	70	33275
2026-01-28 16:41:50.46	131.57	18.52	-49.8	-68.7	3.8	8.46e-01	0	42	104	0	70	33247
2026-01-28 16:41:52.44	130.88	18.32	-49.8	-68.7	3.8	8.46e-01	0	42	104	0	70	33254
2026-01-28 16:41:54.43	130.18	18.12	-49.8	-68.7	3.8	8.46e-01	0	42	104	0	70	33140
2026-01-28 16:41:56.42	129.51	17.92	-49.8	-68.7	3.8	8.48e-01	0	42	104	0	70	33164
2026-01-28 16:41:58.40	128.84	17.72	-49.8	-68.7	3.8	8.47e-01	0	42	104	0	70	33175
2026-01-28 16:42:00.39	128.18	17.52	-49.8	-68.7	3.8	8.46e-01	0	42	104	0	70	33211
2026-01-28 16:42:02.37	127.54	17.31	-49.8	-68.7	3.8	8.46e-01	0	42	104	0	70	33126
2026-01-28 16:42:04.36	126.91	17.11	-49.9	-68.7	3.8	8.48e-01	0	42	104	0	70	33227
2026-01-28 16:42:06.34	126.28	16.91	-49.8	-68.7	3.8	8.46e-01	0	42	104	0	70	33058
2026-01-28 16:42:08.33	125.67	16.70	-49.8	-68.7	3.8	8.47e-01	0	42	104	0	70	33059
2026-01-28 16:42:10.31	125.07	16.50	-49.8	-68.7	3.8	8.46e-01	0	42	104	0	70	33149
2026-01-28 16:42:12.30	124.48	16.29	-49.8	-68.6	3.8	8.47e-01	0	42	104	0	70	32912
2026-01-28 16:42:14.29	123.89	16.09	-49.8	-68.7	3.8	8.47e-01	0	42	104	0	70	33047
2026-01-28 16:42:16.27	123.32	15.88	-49.8	-68.7	3.8	8.47e-01	0	42	104	0	70	33047
2026-01-28 16:42:18.26	122.76	15.68	-49.8	-68.7	3.8	8.47e-01	0	42	104	0	70	32938
2026-01-28 16:42:20.24	122.21	15.47	-49.8	-68.6	3.8	8.48e-01	0	42	104	0	70	32855
2026-01-28 16:42:22.23	121.67	15.27	-49.8	-68.7	3.8	8.47e-01	0	42	104	0	70	32966
2026-01-28 16:42:24.21	121.13	15.06	-49.7	-68.6	3.8	8.47e-01	0	42	104	0	70	32895
2026-01-28 16:42:26.20	120.61	14.86	-49.7	-68.7	3.8	8.47e-01	0	42	104	0	70	32930
2026-01-28 16:42:28.19	120.09	14.66	-49.7	-68.6	3.8	8.46e-01	0	42	104	0	70	32667
2026-01-28 16:42:30.17	119.59	14.45	-49.7	-68.6	3.8	8.47e-01	0	42	104	0	70	32829
2026-01-28 16:42:32.16	119.09	14.25	-49.7	-68.6	3.8	8.47e-01	0	42	104	0	70	32712
2026-01-28 16:42:34.14	118.60	14.05	-49.7	-68.6	3.8	8.48e-01	0	42	104	0	70	32772
2026-01-28 16:42:36.13	118.12	13.85	-49.6	-68.6	3.8	8.45e-01	0	42	104	0	70	32626
2026-01-28 16:42:38.11	117.65	13.65	-49.7	-68.6	3.8	8.47e-01	0	42	104	0	70	32702
2026-01-28 16:42:40.10	117.19	13.45	-49.6	-68.5	3.8	8.47e-01	0	42	104	0	70	32544
2026-01-28 16:42:42.09	116.73	13.26	-49.6	-68.6	3.8	8.46e-01	0	42	104	0	70	32672
2026-01-28 16:42:44.07	116.28	13.06	-49.6	-68.5	3.8	8.48e-01	0	42	104	0	70	32542
2026-01-28 16:42:46.05	115.85	12.87	-49.7	-68.6	3.8	8.48e-01	0	42	104	0	70	32638
2026-01-28 16:42:48.04	115.41	12.67	-49.7	-68.5	3.8	8.46e-01	0	42	104	0	70	32463
2026-01-28 16:42:50.03	114.99	12.48	-49.7	-68.5	3.8	8.48e-01	0	42	104	0	70	32430
2026-01-28 16:42:52.01	114.57	12.28	-49.6	-68.5	3.8	8.46e-01	0	42	104	0	70	32367
2026-01-28 16:42:54.00	114.16	12.09	-49.6	-68.5	3.8	8.47e-01	0	42	104	0	70	32450
2026-01-28 16:42:55.98	113.76	11.90	-49.5	-68.5	3.8	8.47e-01	0	42	104	0	70	32343
2026-01-28 16:42:57.97	113.36	11.71	-49.6	-68.5	3.8	8.47e-01	0	42	104	0	70	32288
2026-01-28 16:42:59.96	112.97	11.53	-49.6	-68.4	3.8	8.48e-01	0	42	104	0	70	32109
2026-01-28 16:43:01.94	112.59	11.34	-49.6	-68.5	3.8	8.48e-01	0	42	104	0	70	32187
2026-01-28 16:43:03.93	112.21	11.15	-49.5	-68.4	3.8	8.47e-01	0	42	104	0	70	32124
2026-01-28 16:43:05.91	111.84	10.97	-49.5	-68.5	3.8	8.47e-01	0	42	104	0	70	32198
2026-01-28 16:43:07.90	111.48	10.78	-49.5	-68.4	3.8	8.46e-01	0	42	104	0	70	32131
2026-01-28 16:43:09.88	111.12	10.60	-49.5	-68.4	3.8	8.46e-01	0	42	104	0	70	31967
2026-01-28 16:43:11.87	110.77	10.42	-49.4	-68.4	3.8	8.47e-01	0	42	104	0	70	31874
2026-01-28 16:43:13.85	110.42	10.24	-49.5	-68.4	3.8	8.46e-01	0	42	104	0	70	32009
2026-01-28 16:43:15.84	110.08	10.06	-49.4	-68.3	3.8	8.46e-01	0	42	104	0	70	31764
2026-01-28 16:43:17.83	109.75	9.89	-49.4	-68.4	3.8	8.45e-01	0	42	104	0	70	31891
2026-01-28 16:43:19.81	109.42	9.71	-49.4	-68.3	3.8	8.47e-01	0	42	104	0	70	31796
2026-01-28 16:43:21.80	109.09	9.53	-49.4	-68.4	3.8	8.47e-01	0	42	104	0	70	31842
2026-01-28 16:43:23.78	108.78	9.36	-49.3	-68.3	3.8	8.46e-01	0	42	104	0	70	31746
2026-01-28 16:43:25.77	108.46	9.19	-49.3	-68.3	3.8	8.46e-01	0	42	104	0	70	31637
2026-01-28 16:43:27.76	108.15	9.02	-49.6	-68.4	3.8	8.47e-01	0	42	104	0	70	32066
2026-01-28 16:43:29.74	107.85	8.85	-49.9	-68.8	3.8	8.46e-01	0	42	104	0	70	33337
2026-01-28 16:43:31.73	107.55	8.68	-50.0	-68.9	3.8	8.47e-01	0	42	104	0	70	33769
2026-01-28 16:43:33.71	107.26	8.51	-50.0	-69.0	3.8	8.46e-01	0	42	104	0	70	34238
2026-01-28 16:43:35.70	106.97	8.34	-49.6	-69.1	3.8	8.47e-01	0	42	104	0	70	34510
2026-01-28 16:43:37.68	106.69	8.18	-50.2	-69.1	3.8	8.47e-01	0	42	104	0	71	32685
2026-01-28 16:43:39.67	106.41	8.01	-50.3	-69.1	3.8	8.47e-01	0	42	104	0	71	32841
2026-01-28 16:43:41.66	106.13	7.85	-50.3	-69.1	3.8	8.47e-01	0	42	104	0	71	32884
2026-01-28 16:43:43.64	105.86	7.69	-50.3	-69.1	3.8	8.48e-01	0	42	104	0	71	32904
2026-01-28 16:43:45.63	105.59	7.53	-50.3	-69.2	3.8	8.46e-01	0	42	104	0	71	33042
2026-01-28 16:43:47.61	105.33	7.37	-50.3	-69.2	3.8	8.47e-01	0	42	104	0	71	33169
2026-01-28 16:43:49.60	105.07	7.21	-50.3	-69.2	3.8	8.47e-01	0	42	104	0	71	33286
2026-01-28 16:43:51.58	104.82	7.05	-50.3	-69.2	3.8	8.47e-01	0	42	104	0	71	33146
2026-01-28 16:43:53.57	104.56	6.89	-50.2	-69.2	3.8	8.48e-01	0	42	104	0	71	33282
2026-01-28 16:43:55.56	104.32	6.74	-50.3	-69.3	3.8	8.48e-01	0	42	104	0	71	33466
2026-01-28 16:43:57.54	104.07	6.58	-50.3	-69.3	3.8	8.48e-01	0	42	104	0	71	33414
2026-01-28 16:43:59.53	103.83	6.43	-50.3	-69.3	3.8	8.46e-01	0	42	104	0	71	33318
2026-01-28 16:44:01.51	103.60	6.28	-50.2	-69.2	3.8	8.48e-01	0	42	104	0	71	33229
2026-01-28 16:44:03.50	103.36	6.12	-50.2	-69.2	3.8	8.48e-01	0	42	104	0	71	33110
2026-01-28 16:44:05.49	103.13	5.97	-49.9	-69.1	3.8	8.47e-01	0	42	104	0	71	32881
2026-01-28 16:44:07.47	102.91	5.82	-50.0	-69.0	3.8	8.47e-01	0	42	104	0	71	32488
2026-01-28 16:44:09.46	102.69	5.67	-49.8	-68.8	3.8	8.47e-01	0	42	104	0	71	31671
2026-01-28 16:44:11.45	102.47	5.53	-49.5	-68.6	3.8	8.46e-01	0	42	104	0	71	30908
2026-01-28 16:44:13.43	102.25	5.38	-49.5	-68.5	3.8	8.46e-01	0	42	104	0	70	32287
2026-01-28 16:44:15.42	102.04	5.23	-49.5	-68.6	3.8	8.47e-01	0	42	104	0	70	32720
2026-01-28 16:44:17.40	101.83	5.09	-49.5	-68.6	3.8	8.46e-01	0	42	104	0	70	32609
2026-01-28 16:44:19.39	101.62	4.95	-49.5	-68.6	3.8	8.46e-01	0	42	104	0	70	32619

#Closed at: 2026-01-28 16:44:20
#Recorded file [0 MB]: D:/Data/31040_260128_193656.dat