passes_logs/2026/01/28/T1/T1__20260128_023120_AQUA_rec.log

#Pass ID: 20260128_023120_AQUA
#Satellite: AQUA
#Configuration: AQUA
#almurnet v.1.7.20251203
#Start time: 2026-01-28 02:31:22

#Version: 2.0.20230620
#Station: T1
#Location: 37.570604 lon 55.790049 lat
#TLE: 1 27424U 02022A   26027.49103455  .00001862  00000+0  38220-3 0  9997
#TLE: 2 27424  98.4102 354.1298 0001846  63.8060  46.9979 14.61867034262711

#Time	Az	El	Level	Level2	SNR	BER	BlckErr	Temp	State	Recorded	gain1	gain2
2026-01-28 02:31:22.71	6.31	5.13	-51.7	-71.8	3.8	7.46e-01	0	38	0	0	74	37553
2026-01-28 02:31:25.68	6.10	5.34	-51.8	-71.9	3.8	7.46e-01	0	38	104	0	74	37814
2026-01-28 02:31:28.66	5.89	5.54	-51.7	-71.8	3.8	7.46e-01	0	38	104	0	74	37696
2026-01-28 02:31:31.64	5.68	5.75	-51.1	-71.8	3.8	7.44e-01	0	38	104	0	73	39718
2026-01-28 02:31:34.62	5.46	5.96	-50.6	-71.7	3.8	7.45e-01	0	39	104	0	73	39475
2026-01-28 02:31:37.60	5.23	6.17	-50.1	-71.7	3.8	7.47e-01	0	39	104	0	71	44281
2026-01-28 02:31:40.58	5.01	6.39	-49.9	-71.6	3.7	7.45e-01	0	39	104	0	71	43733
2026-01-28 02:31:43.56	4.78	6.60	-49.6	-71.5	3.8	7.46e-01	0	39	104	0	70	45560
2026-01-28 02:31:46.54	4.54	6.81	-50.7	-71.1	3.8	7.49e-01	0	39	104	0	72	38714
2026-01-28 02:31:49.52	4.30	7.03	-50.6	-71.0	3.8	7.47e-01	0	39	104	0	72	38290
2026-01-28 02:31:52.50	4.06	7.25	-50.6	-70.5	3.8	7.45e-01	0	39	104	0	72	36112
2026-01-28 02:31:55.48	3.82	7.47	-50.5	-67.1	4.4	7.30e-01	0	39	104	0	72	24562
2026-01-28 02:31:58.45	3.57	7.69	-50.4	-64.6	5.6	6.97e-01	0	39	0	524288	72	18376
2026-01-28 02:32:01.43	3.31	7.92	-50.4	-64.2	5.9	6.86e-01	0	39	0	5242880	72	17506
2026-01-28 02:32:04.41	3.05	8.14	-50.3	-63.2	6.7	6.71e-01	0	40	0	10485760	72	15619
2026-01-28 02:32:07.39	2.79	8.37	-49.8	-58.8	11.0	6.11e-01	0	39	0	16252928	71	10031
2026-01-28 02:32:10.37	2.52	8.60	-48.1	-53.2	16.7	6.03e-01	0	39	0	21495808	68	6255
2026-01-28 02:32:13.35	2.25	8.83	-46.9	-51.1	18.8	6.01e-01	0	39	0	27262976	65	5809
2026-01-28 02:32:16.33	1.97	9.06	-47.8	-52.7	17.1	6.04e-01	0	40	0	33030144	66	6618
2026-01-28 02:32:19.31	1.68	9.29	-44.0	-47.5	22.0	6.02e-01	0	40	0	38273024	60	5125
2026-01-28 02:32:22.28	1.40	9.53	-43.6	-46.8	21.8	6.01e-01	0	40	0	44040192	59	4991
2026-01-28 02:32:25.26	1.10	9.77	-43.4	-46.7	22.9	6.03e-01	0	40	0	49807360	58	5246
2026-01-28 02:32:28.24	0.80	10.01	-43.5	-46.6	23.0	6.04e-01	0	40	0	55050240	58	5194
2026-01-28 02:32:31.22	0.50	10.25	-43.4	-46.5	23.3	6.01e-01	0	40	0	60817408	58	5101
2026-01-28 02:32:34.20	0.19	10.49	-43.4	-46.3	23.6	6.06e-01	0	40	0	66584576	58	5017
2026-01-28 02:32:37.18	359.87	10.74	-43.3	-46.2	23.7	6.05e-01	0	40	0	71827456	58	4974
2026-01-28 02:32:40.16	359.55	10.98	-43.3	-46.1	23.7	6.04e-01	0	40	0	77594624	58	4915
2026-01-28 02:32:43.14	359.22	11.23	-43.6	-46.4	23.5	6.02e-01	0	40	0	83361792	58	5062
2026-01-28 02:32:46.11	358.88	11.48	-43.3	-46.1	23.8	6.02e-01	0	40	0	88604672	58	4887
2026-01-28 02:32:49.09	358.54	11.73	-43.4	-46.1	23.9	6.04e-01	0	40	0	94371840	58	4879
2026-01-28 02:32:52.07	358.19	11.99	-43.4	-46.0	23.9	6.03e-01	0	40	0	100139008	58	4863
2026-01-28 02:32:55.05	357.84	12.25	-43.4	-46.0	23.9	6.04e-01	0	40	0	105381888	58	4852
2026-01-28 02:32:58.03	357.48	12.50	-43.4	-46.0	24.0	6.03e-01	0	40	0	111149056	58	4834
2026-01-28 02:33:01.01	357.11	12.77	-43.3	-45.9	24.1	6.00e-01	0	40	0	116391936	58	4796
2026-01-28 02:33:03.99	356.73	13.03	-43.1	-45.7	24.2	6.02e-01	0	40	0	122159104	58	4699
2026-01-28 02:33:06.96	356.35	13.29	-43.1	-45.8	24.3	6.01e-01	0	40	0	127926272	58	4713
2026-01-28 02:33:09.94	355.96	13.56	-43.0	-45.7	23.4	6.01e-01	0	40	0	133169152	58	4672
2026-01-28 02:33:12.92	355.56	13.83	-43.1	-45.7	24.2	6.00e-01	0	40	0	138936320	57	4936
2026-01-28 02:33:15.90	355.15	14.10	-43.1	-45.6	24.3	6.03e-01	0	40	0	144703488	57	4872
2026-01-28 02:33:18.88	354.73	14.37	-43.0	-45.7	24.2	6.04e-01	0	40	0	149946368	57	4932
2026-01-28 02:33:21.86	354.31	14.64	-42.7	-45.6	24.2	6.02e-01	0	40	0	155713536	57	4893
2026-01-28 02:33:24.83	353.88	14.92	-42.8	-45.7	24.3	6.03e-01	0	41	0	161480704	57	4938
2026-01-28 02:33:27.81	353.44	15.20	-43.1	-45.7	24.3	6.00e-01	0	40	0	166723584	57	4975
2026-01-28 02:33:30.79	352.99	15.48	-43.1	-45.7	24.4	6.01e-01	0	41	0	172490752	57	4951
2026-01-28 02:33:33.77	352.53	15.76	-43.1	-45.7	24.5	6.04e-01	0	40	0	178257920	57	4927
2026-01-28 02:33:36.75	352.06	16.04	-43.0	-45.7	24.4	6.03e-01	0	41	0	183500800	57	4949
2026-01-28 02:33:39.72	351.58	16.33	-42.7	-45.3	24.8	6.05e-01	0	40	0	189267968	57	4733
2026-01-28 02:33:42.70	351.09	16.62	-42.9	-45.4	24.7	6.03e-01	0	41	0	195035136	57	4782
2026-01-28 02:33:45.68	350.59	16.90	-42.9	-45.4	24.6	6.02e-01	0	40	0	200278016	57	4797
2026-01-28 02:33:48.66	350.08	17.20	-42.8	-45.3	24.6	6.04e-01	0	40	0	206045184	57	4720
2026-01-28 02:33:51.64	349.56	17.49	-42.8	-45.4	24.4	6.03e-01	0	40	0	211812352	57	4801
2026-01-28 02:33:54.62	349.03	17.78	-42.5	-45.4	24.3	6.02e-01	0	41	0	217055232	57	4793
2026-01-28 02:33:57.60	348.48	18.08	-42.4	-45.4	24.2	6.02e-01	0	40	0	222822400	56	5059
2026-01-28 02:34:00.58	347.93	18.37	-42.6	-45.3	24.3	6.01e-01	0	41	0	228589568	56	5038
2026-01-28 02:34:03.56	347.36	18.67	-43.1	-45.6	24.1	6.03e-01	0	41	0	233832448	56	5175
2026-01-28 02:34:06.54	346.78	18.97	-43.0	-45.6	24.2	6.00e-01	0	40	0	239599616	56	5193
2026-01-28 02:34:09.52	346.19	19.27	-42.8	-45.4	24.5	6.03e-01	0	41	0	245366784	56	5068
2026-01-28 02:34:12.49	345.59	19.57	-42.9	-45.3	24.8	6.03e-01	0	41	0	250609664	56	5013
2026-01-28 02:34:15.47	344.97	19.87	-43.0	-45.4	24.7	6.00e-01	0	41	0	256376832	56	5081
2026-01-28 02:34:18.45	344.34	20.17	-42.9	-45.5	24.7	6.02e-01	0	41	0	261619712	56	5122
2026-01-28 02:34:21.43	343.70	20.47	-43.3	-45.9	24.4	6.03e-01	0	41	0	267386880	57	5062
2026-01-28 02:34:24.41	343.04	20.77	-43.2	-45.6	24.5	6.01e-01	0	41	0	273154048	57	4926
2026-01-28 02:34:27.39	342.37	21.07	-42.6	-45.6	24.5	6.01e-01	0	41	0	278396928	57	4880
2026-01-28 02:34:30.37	341.69	21.38	-43.0	-45.7	24.4	6.00e-01	0	41	0	284164096	57	4937
2026-01-28 02:34:33.34	340.99	21.68	-43.0	-45.4	24.6	6.01e-01	0	41	0	289931264	57	4790
2026-01-28 02:34:36.32	340.28	21.98	-42.8	-45.5	24.5	6.03e-01	0	40	0	295174144	57	4847
2026-01-28 02:34:39.30	339.55	22.28	-43.2	-45.8	24.2	6.02e-01	0	41	0	300941312	57	5037
2026-01-28 02:34:42.28	338.81	22.58	-43.2	-45.8	24.3	6.01e-01	0	41	0	306708480	57	5036
2026-01-28 02:34:45.26	338.05	22.88	-42.9	-45.5	24.7	6.03e-01	0	41	0	311951360	57	4824
2026-01-28 02:34:48.24	337.27	23.17	-43.2	-45.8	24.5	6.01e-01	0	41	0	317718528	57	5014
2026-01-28 02:34:51.22	336.48	23.47	-43.2	-45.7	24.5	6.03e-01	0	41	0	323485696	57	4943
2026-01-28 02:34:54.20	335.68	23.76	-43.2	-45.7	24.5	6.00e-01	0	41	0	328728576	57	4935
2026-01-28 02:34:57.18	334.85	24.05	-43.0	-45.8	24.4	5.98e-01	0	41	0	334495744	57	5011
2026-01-28 02:35:00.16	334.02	24.34	-42.9	-45.6	24.5	6.02e-01	0	41	0	340262912	57	4909
2026-01-28 02:35:03.14	333.16	24.62	-43.2	-45.8	24.4	6.03e-01	0	41	0	345505792	57	5007
2026-01-28 02:35:06.11	332.29	24.90	-43.3	-45.8	24.5	6.01e-01	0	41	0	351272960	57	4994
2026-01-28 02:35:09.09	331.41	25.18	-43.2	-45.7	24.6	6.00e-01	0	41	0	357040128	57	4938
2026-01-28 02:35:12.07	330.50	25.45	-43.0	-45.5	24.6	6.02e-01	0	41	0	362283008	57	4859
2026-01-28 02:35:15.05	329.58	25.72	-42.8	-45.5	24.6	6.02e-01	0	41	0	368050176	57	4857
2026-01-28 02:35:18.03	328.65	25.98	-43.1	-45.7	23.3	6.04e-01	0	41	0	373817344	57	4965
2026-01-28 02:35:21.01	327.69	26.24	-43.0	-45.5	24.6	6.00e-01	0	41	0	379060224	57	4858
2026-01-28 02:35:23.99	326.72	26.49	-43.0	-45.5	24.7	6.03e-01	0	41	0	384827392	57	4840
2026-01-28 02:35:26.97	325.74	26.74	-42.9	-45.5	24.7	6.02e-01	0	41	0	390594560	57	4837
2026-01-28 02:35:29.95	324.74	26.97	-42.9	-45.5	24.8	6.00e-01	0	41	0	395837440	57	4822
2026-01-28 02:35:32.93	323.72	27.20	-42.8	-45.4	24.7	6.02e-01	0	41	0	401604608	57	4780
2026-01-28 02:35:35.91	322.69	27.43	-42.7	-45.3	24.9	6.02e-01	0	41	0	406847488	57	4730
2026-01-28 02:35:38.88	321.65	27.64	-42.8	-45.3	25.0	6.01e-01	0	41	0	412614656	57	4714
2026-01-28 02:35:41.86	320.59	27.85	-42.7	-45.3	24.9	6.03e-01	0	41	0	418381824	57	4736
2026-01-28 02:35:44.84	319.51	28.04	-42.7	-45.3	25.0	6.00e-01	0	41	0	423624704	57	4709
2026-01-28 02:35:47.82	318.42	28.23	-42.7	-45.2	25.0	6.04e-01	0	41	0	429391872	57	4657
2026-01-28 02:35:50.80	317.32	28.41	-42.8	-45.2	25.0	6.02e-01	0	41	0	435159040	57	4680
2026-01-28 02:35:53.78	316.21	28.57	-43.0	-45.5	24.8	6.02e-01	0	41	0	440401920	57	4826
2026-01-28 02:35:56.76	315.08	28.73	-42.6	-45.3	24.9	6.01e-01	0	41	0	446169088	57	4732
2026-01-28 02:35:59.74	313.94	28.88	-42.7	-45.2	25.0	6.01e-01	0	41	0	451936256	57	4691
2026-01-28 02:36:02.72	312.80	29.01	-42.9	-45.3	25.0	6.03e-01	0	41	0	457179136	57	4723
2026-01-28 02:36:05.69	311.64	29.13	-43.0	-45.4	24.8	6.01e-01	0	41	0	462946304	57	4783
2026-01-28 02:36:08.67	310.48	29.24	-43.1	-45.5	24.8	6.04e-01	0	41	0	468713472	57	4816
2026-01-28 02:36:11.65	309.30	29.34	-43.0	-45.4	24.9	6.05e-01	0	41	0	473956352	57	4775
2026-01-28 02:36:14.63	308.12	29.42	-42.9	-45.3	24.8	6.01e-01	0	41	0	479723520	57	4746
2026-01-28 02:36:17.61	306.93	29.49	-42.8	-45.1	25.1	6.04e-01	0	41	0	485490688	57	4617
2026-01-28 02:36:20.59	305.74	29.55	-43.1	-45.4	24.8	6.02e-01	0	41	0	490733568	57	4791
2026-01-28 02:36:23.57	304.55	29.59	-43.5	-45.9	24.4	6.00e-01	0	41	0	496500736	57	5071
2026-01-28 02:36:26.55	303.35	29.62	-43.8	-46.3	24.0	6.02e-01	0	41	0	502267904	58	5037
2026-01-28 02:36:29.52	302.15	29.64	-43.5	-46.0	24.1	6.01e-01	0	41	0	507510784	58	4832
2026-01-28 02:36:32.50	300.95	29.64	-42.6	-44.9	25.0	6.01e-01	0	41	0	513277952	57	4543
2026-01-28 02:36:35.48	299.75	29.63	-42.4	-44.7	25.4	5.98e-01	0	41	0	519045120	56	4705
2026-01-28 02:36:38.46	298.55	29.61	-42.9	-45.3	25.0	6.01e-01	0	41	0	524288000	57	4728
2026-01-28 02:36:41.44	297.35	29.57	-42.2	-44.4	25.6	6.01e-01	0	41	0	530055168	56	4542
2026-01-28 02:36:44.42	296.16	29.52	-43.5	-46.0	24.4	6.04e-01	0	41	0	535822336	57	5112
2026-01-28 02:36:47.39	294.97	29.46	-42.7	-44.9	25.2	5.98e-01	0	41	0	541065216	57	4538
2026-01-28 02:36:50.38	293.78	29.38	-43.4	-45.9	24.3	6.03e-01	0	41	0	546832384	57	5073
2026-01-28 02:36:53.35	292.61	29.29	-43.4	-45.9	24.1	6.02e-01	0	41	0	552075264	58	4802
2026-01-28 02:36:56.33	291.43	29.18	-43.5	-46.0	24.3	6.02e-01	0	41	0	557842432	57	5109
2026-01-28 02:36:59.31	290.27	29.07	-43.7	-46.1	24.2	6.01e-01	0	41	0	563609600	58	4926
2026-01-28 02:37:02.29	289.12	28.94	-43.2	-45.6	24.7	6.03e-01	0	41	0	568852480	58	4606
2026-01-28 02:37:05.27	287.97	28.80	-42.9	-45.3	25.0	6.01e-01	0	41	0	574619648	57	4710
2026-01-28 02:37:08.24	286.84	28.65	-43.3	-45.7	24.5	6.03e-01	0	41	0	580386816	58	4698
2026-01-28 02:37:11.22	285.72	28.49	-43.2	-45.5	24.5	6.04e-01	0	41	0	585629696	58	4590
2026-01-28 02:37:14.20	284.61	28.32	-44.5	-47.2	23.0	6.04e-01	0	41	0	591396864	59	5236
2026-01-28 02:37:17.18	283.51	28.13	-44.3	-46.9	23.3	6.03e-01	0	41	0	597164032	59	5081
2026-01-28 02:37:20.16	282.43	27.94	-43.6	-46.0	24.2	6.01e-01	0	41	0	602406912	59	4592
2026-01-28 02:37:23.14	281.36	27.74	-43.6	-46.1	24.1	6.02e-01	0	41	0	608174080	59	4600
2026-01-28 02:37:26.12	280.30	27.53	-43.9	-46.4	24.0	5.98e-01	0	41	0	613941248	58	5048
2026-01-28 02:37:29.09	279.26	27.31	-43.8	-46.2	24.0	6.02e-01	0	41	0	619184128	59	4699
2026-01-28 02:37:32.07	278.24	27.08	-44.4	-47.0	23.3	6.01e-01	0	41	0	624951296	59	5145
2026-01-28 02:37:35.05	277.22	26.84	-44.4	-47.0	23.4	6.02e-01	0	41	0	630718464	59	5110
2026-01-28 02:37:38.03	276.23	26.60	-44.4	-47.0	23.3	6.03e-01	0	41	0	635961344	59	5150
2026-01-28 02:37:41.01	275.25	26.35	-44.2	-46.8	23.6	6.02e-01	0	41	0	641728512	59	4996
2026-01-28 02:37:43.99	274.28	26.10	-44.4	-47.1	23.2	6.02e-01	0	41	0	647495680	59	5192
2026-01-28 02:37:46.97	273.34	25.84	-44.6	-47.2	23.2	6.03e-01	0	41	0	652738560	59	5277
2026-01-28 02:37:49.95	272.41	25.57	-44.3	-46.8	23.6	6.01e-01	0	41	0	658505728	59	5014
2026-01-28 02:37:52.93	271.49	25.30	-44.3	-47.0	23.4	6.00e-01	0	41	0	664272896	59	5111
2026-01-28 02:37:55.91	270.59	25.02	-44.0	-46.6	23.8	6.00e-01	0	41	0	669515776	59	4874
2026-01-28 02:37:58.88	269.71	24.74	-44.2	-46.8	23.6	6.02e-01	0	41	0	675282944	59	5004
2026-01-28 02:38:01.86	268.85	24.46	-43.7	-46.3	24.0	6.00e-01	0	41	0	681050112	59	4708
2026-01-28 02:38:04.84	268.00	24.17	-44.5	-47.3	23.0	6.02e-01	0	41	0	686292992	59	5314
2026-01-28 02:38:07.82	267.16	23.88	-44.6	-47.2	23.2	6.03e-01	0	41	0	692060160	59	5268
2026-01-28 02:38:10.80	266.35	23.59	-44.0	-46.6	23.5	6.00e-01	0	41	0	697303040	60	4632
2026-01-28 02:38:13.78	265.55	23.29	-44.2	-46.9	23.3	6.01e-01	0	41	0	703070208	60	4784
2026-01-28 02:38:16.76	264.76	23.00	-44.3	-46.9	23.4	6.02e-01	0	41	0	708837376	59	5096
2026-01-28 02:38:19.74	263.99	22.70	-44.0	-46.7	23.6	6.01e-01	0	41	0	714080256	59	4931
2026-01-28 02:38:22.72	263.24	22.40	-44.2	-46.9	23.4	6.03e-01	0	41	0	719847424	59	5044
2026-01-28 02:38:25.70	262.50	22.10	-44.0	-46.6	23.7	6.02e-01	0	41	0	725614592	59	4877
2026-01-28 02:38:28.67	261.77	21.80	-44.0	-46.7	23.7	6.04e-01	0	41	0	730857472	59	4936
2026-01-28 02:38:31.65	261.06	21.49	-44.2	-46.8	23.5	6.00e-01	0	41	0	736624640	59	5035
2026-01-28 02:38:34.63	260.37	21.19	-43.9	-46.5	23.8	6.00e-01	0	41	0	742391808	59	4827
2026-01-28 02:38:37.61	259.69	20.89	-44.0	-46.6	23.6	6.01e-01	0	41	0	747634688	59	4926
2026-01-28 02:38:40.59	259.02	20.58	-43.9	-46.5	23.8	6.00e-01	0	41	0	753401856	59	4832
2026-01-28 02:38:43.57	258.37	20.28	-43.9	-46.5	23.7	6.00e-01	0	41	0	759169024	59	4818
2026-01-28 02:38:46.54	257.73	19.98	-44.0	-46.6	23.7	6.00e-01	0	41	0	764411904	59	4894
2026-01-28 02:38:49.52	257.11	19.67	-43.9	-46.5	23.7	6.01e-01	0	41	0	770179072	59	4847
2026-01-28 02:38:52.50	256.49	19.37	-44.0	-46.6	23.6	6.04e-01	0	41	0	775946240	59	4896
2026-01-28 02:38:55.48	255.89	19.07	-43.8	-46.4	23.8	6.02e-01	0	41	0	781189120	59	4782
2026-01-28 02:38:58.46	255.30	18.77	-44.1	-46.8	23.5	6.01e-01	0	41	0	786956288	59	4986
2026-01-28 02:39:01.44	254.73	18.47	-44.1	-46.7	23.5	6.01e-01	0	41	0	792723456	59	4954
2026-01-28 02:39:04.41	254.17	18.17	-43.9	-46.6	23.7	6.02e-01	0	41	0	797966336	59	4876
2026-01-28 02:39:07.39	253.61	17.88	-43.8	-46.4	23.8	6.02e-01	0	41	0	803733504	59	4791
2026-01-28 02:39:10.37	253.07	17.58	-44.0	-46.6	23.6	6.03e-01	0	41	0	809500672	59	4895
2026-01-28 02:39:13.35	252.54	17.29	-44.0	-46.6	23.6	6.02e-01	0	41	0	814743552	59	4890
2026-01-28 02:39:16.33	252.03	16.99	-44.1	-46.7	23.5	6.01e-01	0	41	0	820510720	59	4957
2026-01-28 02:39:19.31	251.52	16.70	-43.9	-46.5	23.6	6.04e-01	0	41	0	825753600	59	4864
2026-01-28 02:39:22.29	251.02	16.41	-44.0	-46.6	23.6	6.03e-01	0	41	0	831520768	59	4893
2026-01-28 02:39:25.27	250.53	16.13	-44.0	-46.6	23.6	6.03e-01	0	41	0	837287936	59	4876
2026-01-28 02:39:28.24	250.06	15.84	-44.1	-46.7	23.5	6.05e-01	0	41	0	842530816	59	4979
2026-01-28 02:39:31.22	249.59	15.56	-44.2	-46.9	23.2	6.01e-01	0	41	0	848297984	59	5063
2026-01-28 02:39:34.20	249.13	15.28	-44.0	-46.6	23.5	6.01e-01	0	41	0	854065152	59	4902
2026-01-28 02:39:37.18	248.68	14.99	-44.1	-46.7	23.4	6.03e-01	0	41	0	859308032	59	4975
2026-01-28 02:39:40.16	248.24	14.72	-44.1	-46.7	23.5	6.02e-01	0	42	0	865075200	59	4966
2026-01-28 02:39:43.14	247.81	14.44	-44.0	-46.6	23.5	6.04e-01	0	41	0	870842368	59	4919
2026-01-28 02:39:46.12	247.39	14.17	-44.1	-46.7	23.4	6.00e-01	0	42	0	876085248	59	4960
2026-01-28 02:39:49.10	246.97	13.89	-44.2	-46.9	23.3	6.04e-01	0	42	0	881852416	59	5058
2026-01-28 02:39:52.08	246.57	13.62	-44.2	-46.9	23.2	6.03e-01	0	42	0	887619584	59	5063
2026-01-28 02:39:55.05	246.17	13.35	-44.0	-46.7	23.4	6.03e-01	0	42	0	892862464	59	4953
2026-01-28 02:39:58.03	245.78	13.09	-44.1	-46.8	23.3	6.02e-01	0	41	0	898629632	59	5010
2026-01-28 02:40:01.01	245.40	12.82	-44.3	-47.0	23.1	6.01e-01	0	41	0	904396800	59	5148
2026-01-28 02:40:03.99	245.02	12.56	-44.4	-47.1	23.1	5.99e-01	0	41	0	909639680	59	5203
2026-01-28 02:40:06.97	244.65	12.30	-44.3	-47.0	23.1	6.01e-01	0	42	0	915406848	59	5137
2026-01-28 02:40:09.95	244.29	12.04	-44.4	-47.1	23.0	6.02e-01	0	41	0	920649728	59	5191
2026-01-28 02:40:12.93	243.94	11.78	-44.6	-47.3	22.8	6.01e-01	0	41	0	926416896	59	5305
2026-01-28 02:40:15.90	243.59	11.53	-44.6	-47.3	22.8	6.05e-01	0	41	0	932184064	59	5332
2026-01-28 02:40:18.88	243.25	11.28	-44.6	-47.3	22.8	6.01e-01	0	42	0	937426944	59	5328
2026-01-28 02:40:21.86	242.91	11.03	-44.5	-47.3	22.8	6.02e-01	0	42	0	943194112	59	5292
2026-01-28 02:40:24.84	242.58	10.78	-44.4	-47.3	22.7	6.02e-01	0	42	0	948961280	59	5325
2026-01-28 02:40:27.82	242.26	10.53	-44.5	-47.4	22.6	6.01e-01	0	42	0	954728448	59	5396
2026-01-28 02:40:30.80	241.95	10.28	-44.5	-47.4	22.7	6.01e-01	0	42	0	959971328	59	5346
2026-01-28 02:40:33.78	241.63	10.04	-44.5	-47.3	22.6	6.02e-01	0	41	0	965738496	60	5023
2026-01-28 02:40:36.76	241.33	9.80	-44.8	-47.6	22.3	6.00e-01	0	41	0	970981376	60	5217
2026-01-28 02:40:39.74	241.03	9.56	-44.7	-47.6	22.4	6.02e-01	0	42	0	976748544	60	5193
2026-01-28 02:40:42.72	240.74	9.32	-44.6	-47.4	22.5	6.03e-01	0	41	0	982515712	60	5077
2026-01-28 02:40:45.70	240.45	9.09	-44.5	-47.3	22.6	6.00e-01	0	41	0	987758592	60	5028
2026-01-28 02:40:48.68	240.16	8.85	-51.1	-71.1	3.8	7.45e-01	0	42	104	990380032	73	36789
2026-01-28 02:40:51.66	239.88	8.62	-50.7	-71.0	3.8	7.47e-01	0	42	104	990380032	73	36254
2026-01-28 02:40:54.63	239.61	8.39	-50.8	-70.7	3.8	7.47e-01	0	42	104	990380032	72	37031
2026-01-28 02:40:57.61	239.34	8.16	-50.0	-70.9	3.8	7.43e-01	0	41	104	990380032	72	38175
2026-01-28 02:41:00.59	239.08	7.94	-50.8	-71.2	3.8	7.51e-01	0	42	104	990380032	72	39459
2026-01-28 02:41:03.57	238.82	7.71	-50.1	-71.1	3.8	7.44e-01	0	42	104	990380032	72	39019
2026-01-28 02:41:06.55	238.56	7.49	-50.1	-71.0	3.8	7.47e-01	0	42	104	990380032	72	38646
2026-01-28 02:41:09.53	238.31	7.27	-50.1	-71.0	3.8	7.48e-01	0	42	104	990380032	72	38623
2026-01-28 02:41:12.51	238.06	7.05	-50.1	-71.0	3.8	7.45e-01	0	42	104	990380032	72	38544
2026-01-28 02:41:15.49	237.82	6.83	-50.0	-71.0	3.8	7.43e-01	0	42	104	990380032	72	38544
2026-01-28 02:41:18.47	237.58	6.61	-50.0	-71.0	3.8	7.45e-01	0	42	104	990380032	72	38543
2026-01-28 02:41:21.45	237.34	6.39	-50.0	-71.0	3.8	7.48e-01	0	42	104	990380032	72	38640
2026-01-28 02:41:24.43	237.11	6.18	-50.0	-71.1	3.8	7.48e-01	0	42	104	990380032	72	38869
2026-01-28 02:41:27.40	236.89	5.97	-50.1	-71.1	3.8	7.44e-01	0	42	104	990380032	72	38730
2026-01-28 02:41:30.38	236.66	5.76	-50.1	-71.1	3.8	7.44e-01	0	42	104	990380032	72	38805
2026-01-28 02:41:33.36	236.44	5.55	-50.0	-71.0	3.8	7.43e-01	0	42	104	990380032	72	38650
2026-01-28 02:41:36.34	236.22	5.34	-50.0	-71.1	3.8	7.46e-01	0	42	104	990380032	72	38753
2026-01-28 02:41:39.31	236.01	5.14	-50.0	-71.1	3.8	7.48e-01	0	42	104	990380032	72	38717
2026-01-28 02:41:42.29	235.80	4.93	-50.0	-71.1	3.8	7.47e-01	0	42	104	990380032	72	38711

#Closed at: 2026-01-28 02:41:43
#Recorded file [990 MB]: D:/Data/31040_260128_053122.dat