passes_logs/2026/01/28/T1/T1__20260128_111925_FENGYUN_3D_rec.log

#Pass ID: 20260128_111925_FENGYUN 3D
#Satellite: FENGYUN 3D
#Configuration: FENGYUN 3D
#almurnet v.1.7.20251203
#Start time: 2026-01-28 11:19:27

#Version: 2.0.20230620
#Station: T1
#Location: 37.570604 lon 55.790049 lat
#TLE: 1 43010U 17072A   26027.90082829  .00000305  00000+0  16579-3 0  9998
#TLE: 2 43010  98.9960 359.9183 0002511  88.1058 272.0405 14.19701796425082

#Time	Az	El	Level	Level2	SNR	BER	BlckErr	Temp	State	Recorded	gain1	gain2
2026-01-28 11:19:27.20	138.96	5.12	-49.8	-62.2	3.8	8.48e-01	0	38	0	0	70	15679
2026-01-28 11:19:31.16	138.82	5.40	-50.1	-62.2	3.8	8.47e-01	0	38	104	0	71	14737
2026-01-28 11:19:35.14	138.68	5.68	-50.0	-62.1	3.8	8.47e-01	0	38	104	0	71	14577
2026-01-28 11:19:39.11	138.54	5.97	-49.6	-61.9	3.8	8.46e-01	0	38	104	0	71	14320
2026-01-28 11:19:43.08	138.39	6.26	-49.1	-59.9	3.8	8.45e-01	0	39	104	0	70	12043
2026-01-28 11:19:47.05	138.24	6.55	-49.3	-61.2	3.8	8.47e-01	0	39	104	0	70	13904
2026-01-28 11:19:51.02	138.09	6.84	-49.2	-61.1	3.8	8.47e-01	0	39	104	0	70	13843
2026-01-28 11:19:54.99	137.93	7.14	-49.1	-60.1	3.8	8.47e-01	0	39	104	0	70	12284
2026-01-28 11:19:58.97	137.77	7.44	-47.7	-54.0	6.2	4.67e-01	0	39	0	2097152	67	7224
2026-01-28 11:20:02.94	137.61	7.75	-44.3	-47.4	12.7	3.97e-04	0	39	0	24117248	60	5082
2026-01-28 11:20:06.91	137.44	8.06	-41.5	-43.8	16.1	0.00e+00	0	39	0	46137344	55	4463
2026-01-28 11:20:10.88	137.27	8.37	-41.2	-43.4	16.5	0.00e+00	0	39	0	68157440	53	4813
2026-01-28 11:20:14.85	137.09	8.69	-43.9	-46.8	13.4	5.70e-06	0	39	0	91226112	58	5294
2026-01-28 11:20:18.83	136.92	9.01	-47.6	-53.6	6.4	1.80e-01	0	39	0	113246208	65	7801
2026-01-28 11:20:22.80	136.73	9.33	-45.4	-49.0	10.9	8.13e-01	0	40	104	128974848	62	5433
2026-01-28 11:20:26.77	136.54	9.66	-42.1	-44.5	15.6	0.00e+00	0	40	0	149946368	56	4583
2026-01-28 11:20:30.74	136.35	9.99	-40.0	-42.1	17.9	0.00e+00	0	40	0	171966464	51	4613
2026-01-28 11:20:34.71	136.16	10.33	-39.6	-41.6	18.4	0.00e+00	0	40	0	193986560	51	4370
2026-01-28 11:20:38.69	135.95	10.67	-39.4	-41.5	18.5	0.00e+00	0	40	0	217055232	50	4558
2026-01-28 11:20:42.66	135.75	11.01	-39.4	-41.4	18.6	0.00e+00	0	40	0	239075328	50	4536
2026-01-28 11:20:46.63	135.53	11.36	-39.2	-41.2	18.8	0.00e+00	0	40	0	261095424	50	4415
2026-01-28 11:20:50.60	135.32	11.72	-39.2	-41.3	18.8	0.00e+00	0	40	0	284164096	50	4442
2026-01-28 11:20:54.57	135.09	12.08	-38.9	-40.9	19.1	0.00e+00	0	40	0	306184192	49	4525
2026-01-28 11:20:58.55	134.87	12.44	-38.7	-40.6	19.4	0.00e+00	0	40	0	328204288	49	4371
2026-01-28 11:21:02.52	134.63	12.81	-38.6	-40.5	19.5	0.00e+00	0	40	0	351272960	49	4319
2026-01-28 11:21:06.49	134.39	13.18	-38.4	-40.4	19.6	0.00e+00	0	40	0	373293056	48	4500
2026-01-28 11:21:10.46	134.14	13.56	-38.4	-40.3	19.7	0.00e+00	0	40	0	395313152	48	4486
2026-01-28 11:21:14.43	133.89	13.95	-38.1	-40.0	19.9	0.00e+00	0	40	0	417333248	48	4323
2026-01-28 11:21:18.40	133.63	14.34	-38.1	-40.0	20.0	0.00e+00	0	40	0	440401920	48	4320
2026-01-28 11:21:22.37	133.36	14.73	-38.0	-39.9	20.1	0.00e+00	0	40	0	462422016	48	4254
2026-01-28 11:21:26.34	133.08	15.13	-37.9	-39.8	19.9	0.00e+00	0	40	0	484442112	47	4493
2026-01-28 11:21:30.31	132.80	15.54	-37.7	-39.5	20.2	0.00e+00	0	40	0	507510784	47	4330
2026-01-28 11:21:34.29	132.51	15.96	-37.6	-39.5	20.2	0.00e+00	0	40	0	529530880	47	4312
2026-01-28 11:21:38.26	132.21	16.38	-37.6	-39.5	20.2	0.00e+00	0	40	0	551550976	47	4335
2026-01-28 11:21:42.23	131.90	16.80	-37.5	-39.3	20.4	0.00e+00	0	40	0	574619648	46	4490
2026-01-28 11:21:46.20	131.58	17.24	-37.3	-39.2	20.5	0.00e+00	0	40	0	596639744	46	4400
2026-01-28 11:21:50.17	131.25	17.68	-37.2	-39.0	20.7	0.00e+00	0	40	0	618659840	46	4318
2026-01-28 11:21:54.15	130.91	18.13	-37.2	-39.0	20.7	0.00e+00	0	40	0	641728512	46	4318
2026-01-28 11:21:58.12	130.56	18.58	-37.1	-39.0	20.7	0.00e+00	0	40	0	663748608	46	4294
2026-01-28 11:22:02.09	130.20	19.04	-37.1	-39.0	20.7	0.00e+00	0	40	0	685768704	46	4310
2026-01-28 11:22:06.06	129.83	19.51	-36.7	-38.5	21.1	0.00e+00	0	40	0	708837376	45	4327
2026-01-28 11:22:10.04	129.45	19.99	-36.7	-38.5	21.1	0.00e+00	0	40	0	730857472	45	4308
2026-01-28 11:22:14.00	129.05	20.48	-36.5	-38.3	21.3	0.00e+00	0	40	0	752877568	44	4443
2026-01-28 11:22:17.98	128.65	20.97	-36.6	-38.4	21.2	0.00e+00	0	40	0	774897664	44	4532
2026-01-28 11:22:21.95	128.22	21.47	-36.4	-38.2	21.4	0.00e+00	0	40	0	797966336	44	4404
2026-01-28 11:22:25.92	127.79	21.98	-36.2	-38.0	21.5	0.00e+00	0	40	0	819986432	44	4334
2026-01-28 11:22:29.89	127.33	22.50	-35.8	-37.5	21.8	0.00e+00	0	40	0	842006528	43	4332
2026-01-28 11:22:33.86	126.87	23.03	-35.7	-37.5	21.9	0.00e+00	0	40	0	865075200	43	4327
2026-01-28 11:22:37.84	126.38	23.56	-35.7	-37.5	21.8	0.00e+00	0	40	0	887095296	43	4332
2026-01-28 11:22:41.81	125.88	24.11	-35.6	-37.4	21.9	0.00e+00	0	40	0	909115392	43	4253
2026-01-28 11:22:45.78	125.36	24.66	-35.4	-37.2	22.1	0.00e+00	0	40	0	931135488	42	4407
2026-01-28 11:22:49.75	124.82	25.23	-35.4	-37.1	22.2	0.00e+00	0	40	0	954204160	42	4387
2026-01-28 11:22:53.72	124.27	25.80	-35.3	-37.1	22.1	0.00e+00	0	40	0	976224256	42	4377
2026-01-28 11:22:57.70	123.68	26.38	-35.2	-37.0	22.3	0.00e+00	0	40	0	999292928	42	4313
2026-01-28 11:23:01.67	123.08	26.97	-35.3	-37.0	22.2	0.00e+00	0	40	0	1021313024	42	4336
2026-01-28 11:23:05.64	122.46	27.57	-35.2	-37.0	22.3	0.00e+00	0	40	0	1043333120	42	4309
2026-01-28 11:23:09.61	121.81	28.18	-35.1	-36.8	22.4	0.00e+00	0	40	0	1065353216	42	4241
2026-01-28 11:23:13.58	121.13	28.80	-34.8	-36.5	22.7	0.00e+00	0	40	0	1088421888	41	4326
2026-01-28 11:23:17.56	120.43	29.43	-34.9	-36.7	22.5	0.00e+00	0	40	0	1110441984	41	4417
2026-01-28 11:23:21.53	119.70	30.07	-35.1	-36.9	22.3	0.00e+00	0	40	0	1132462080	41	4507
2026-01-28 11:23:25.50	118.94	30.71	-35.0	-36.7	22.5	0.00e+00	0	40	0	1155530752	41	4433
2026-01-28 11:23:29.47	118.15	31.37	-35.0	-36.8	22.5	0.00e+00	0	40	0	1177550848	41	4460
2026-01-28 11:23:33.44	117.32	32.03	-35.1	-36.8	22.5	0.00e+00	0	40	0	1199570944	41	4475
2026-01-28 11:23:37.41	116.46	32.70	-35.2	-37.0	22.3	0.00e+00	0	40	0	1222639616	41	4569
2026-01-28 11:23:41.39	115.56	33.38	-34.7	-36.5	22.7	0.00e+00	0	40	0	1244659712	41	4296
2026-01-28 11:23:45.36	114.63	34.07	-34.9	-36.6	22.6	0.00e+00	0	40	0	1266679808	41	4374
2026-01-28 11:23:49.33	113.65	34.76	-34.7	-36.4	22.7	0.00e+00	0	40	0	1288699904	41	4281
2026-01-28 11:23:53.30	112.63	35.46	-34.8	-36.5	22.6	0.00e+00	0	40	0	1311768576	41	4312
2026-01-28 11:23:57.28	111.56	36.16	-34.7	-36.5	22.7	0.00e+00	0	40	0	1333788672	41	4295
2026-01-28 11:24:01.25	110.45	36.87	-34.7	-36.4	22.8	0.00e+00	0	40	0	1356857344	41	4288
2026-01-28 11:24:05.22	109.29	37.57	-34.7	-36.4	22.8	0.00e+00	0	40	0	1378877440	41	4261
2026-01-28 11:24:09.19	108.08	38.28	-34.8	-36.5	22.7	0.00e+00	0	40	0	1400897536	41	4326
2026-01-28 11:24:13.16	106.81	38.99	-35.1	-36.9	22.4	0.00e+00	0	40	0	1422917632	41	4507
2026-01-28 11:24:17.13	105.49	39.69	-34.9	-36.6	22.7	0.00e+00	0	40	0	1445986304	41	4375
2026-01-28 11:24:21.10	104.11	40.40	-34.7	-36.4	22.9	0.00e+00	0	40	0	1468006400	41	4263
2026-01-28 11:24:25.08	102.66	41.09	-35.0	-36.7	22.6	0.00e+00	0	40	0	1490026496	41	4432
2026-01-28 11:24:29.05	101.15	41.78	-34.6	-36.3	23.0	0.00e+00	0	40	0	1513095168	41	4200
2026-01-28 11:24:33.02	99.58	42.46	-34.6	-36.3	22.9	0.00e+00	0	40	0	1535115264	41	4232
2026-01-28 11:24:36.99	97.94	43.12	-34.9	-36.6	22.8	0.00e+00	0	40	0	1557135360	41	4369
2026-01-28 11:24:40.96	96.23	43.76	-34.8	-36.5	22.8	0.00e+00	0	40	0	1579155456	41	4329
2026-01-28 11:24:44.93	94.45	44.39	-34.5	-36.1	23.1	0.00e+00	0	40	0	1602224128	40	4386
2026-01-28 11:24:48.90	92.61	45.00	-34.4	-36.2	23.1	0.00e+00	0	40	0	1624244224	40	4398
2026-01-28 11:24:52.88	90.68	45.58	-35.1	-36.8	22.5	0.00e+00	0	40	0	1646264320	40	4743
2026-01-28 11:24:56.85	88.69	46.13	-34.9	-36.6	22.8	0.00e+00	0	40	0	1669332992	40	4616
2026-01-28 11:25:00.82	86.64	46.64	-35.3	-37.0	22.4	0.00e+00	0	40	0	1691353088	41	4587
2026-01-28 11:25:04.79	84.51	47.13	-35.2	-36.9	22.5	0.00e+00	0	40	0	1713373184	41	4526
2026-01-28 11:25:08.76	82.33	47.57	-35.5	-37.2	22.2	0.00e+00	0	40	0	1736441856	41	4689
2026-01-28 11:25:12.73	80.08	47.97	-35.6	-37.4	22.2	0.00e+00	0	40	0	1758461952	42	4499
2026-01-28 11:25:16.70	77.78	48.32	-35.4	-37.1	22.3	0.00e+00	0	40	0	1780482048	42	4380
2026-01-28 11:25:20.67	75.42	48.63	-35.2	-36.9	22.5	0.00e+00	0	40	0	1802502144	42	4290
2026-01-28 11:25:24.65	73.02	48.88	-35.1	-36.8	22.7	0.00e+00	0	40	0	1825570816	42	4225
2026-01-28 11:25:28.62	70.59	49.08	-35.2	-36.9	22.6	0.00e+00	0	40	0	1847590912	42	4246
2026-01-28 11:25:32.59	68.13	49.22	-35.2	-37.0	22.5	0.00e+00	0	40	0	1869611008	42	4300
2026-01-28 11:25:36.56	65.66	49.31	-35.4	-37.2	22.4	0.00e+00	0	40	0	1892679680	42	4398
2026-01-28 11:25:40.53	63.17	49.34	-35.7	-37.4	22.1	0.00e+00	0	40	0	1914699776	42	4517
2026-01-28 11:25:44.50	60.68	49.31	-35.4	-37.2	22.4	0.00e+00	0	40	0	1936719872	42	4398
2026-01-28 11:25:48.47	58.21	49.23	-35.5	-37.3	22.2	0.00e+00	0	40	0	1959788544	42	4452
2026-01-28 11:25:52.45	55.74	49.09	-35.3	-37.1	22.4	0.00e+00	0	40	0	1981808640	42	4348
2026-01-28 11:25:56.42	53.31	48.89	-35.3	-37.0	22.5	0.00e+00	0	40	0	2003828736	42	4333
2026-01-28 11:26:00.39	50.92	48.64	-35.3	-37.1	22.4	0.00e+00	0	40	0	2025848832	42	4341
2026-01-28 11:26:04.36	48.57	48.33	-35.4	-37.1	22.4	0.00e+00	0	40	0	2048917504	42	4379
2026-01-28 11:26:08.33	46.27	47.98	-35.5	-37.2	22.2	0.00e+00	0	40	0	2070937600	42	4436
2026-01-28 11:26:12.30	44.02	47.59	-35.1	-36.8	22.6	0.00e+00	0	40	0	2094006272	42	4240
2026-01-28 11:26:16.27	41.83	47.15	-35.2	-36.9	22.5	0.00e+00	0	40	0	2116026368	42	4265
2026-01-28 11:26:20.25	39.71	46.67	-35.3	-37.1	22.4	0.00e+00	0	40	0	2138046464	42	4348
2026-01-28 11:26:24.22	37.65	46.15	-34.7	-36.4	23.1	0.00e+00	0	40	0	2160066560	41	4247
2026-01-28 11:26:28.19	35.66	45.60	-34.6	-36.3	23.1	0.00e+00	0	40	0	2183135232	41	4225
2026-01-28 11:26:32.16	33.75	45.03	-34.7	-36.4	22.9	0.00e+00	0	40	0	2205155328	41	4282
2026-01-28 11:26:36.13	31.90	44.42	-34.9	-36.6	22.7	0.00e+00	0	40	0	2227175424	41	4364
2026-01-28 11:26:40.10	30.12	43.80	-34.6	-36.3	23.0	0.00e+00	0	40	0	2250244096	40	4477
2026-01-28 11:26:44.08	28.41	43.16	-34.4	-36.1	23.2	0.00e+00	0	40	0	2272264192	40	4354
2026-01-28 11:26:48.05	26.78	42.50	-34.4	-36.1	23.2	0.00e+00	0	40	0	2294284288	40	4367
2026-01-28 11:26:52.02	25.21	41.82	-34.8	-36.6	22.7	0.00e+00	0	40	0	2316304384	40	4606
2026-01-28 11:26:55.99	23.70	41.14	-34.6	-36.2	23.6	0.00e+00	0	40	0	2339373056	40	4441
2026-01-28 11:26:59.96	22.26	40.45	-34.7	-36.4	23.5	0.00e+00	0	40	0	2361393152	40	4515
2026-01-28 11:27:03.93	20.88	39.75	-34.6	-36.2	23.6	0.00e+00	0	40	0	2383413248	40	4425
2026-01-28 11:27:07.90	19.56	39.04	-34.3	-35.9	23.8	0.00e+00	0	40	0	2406481920	40	4272
2026-01-28 11:27:11.88	18.29	38.34	-34.2	-35.8	23.9	0.00e+00	0	40	0	2428502016	40	4241
2026-01-28 11:27:15.85	17.08	37.63	-34.4	-36.1	23.7	0.00e+00	0	40	0	2450522112	40	4346
2026-01-28 11:27:19.82	15.92	36.93	-34.4	-36.0	23.7	0.00e+00	0	40	0	2473590784	40	4334
2026-01-28 11:27:23.79	14.81	36.23	-34.2	-35.8	23.9	0.00e+00	0	40	0	2495610880	40	4235
2026-01-28 11:27:27.76	13.75	35.53	-34.4	-36.1	23.7	0.00e+00	0	40	0	2517630976	40	4341
2026-01-28 11:27:31.73	12.73	34.83	-34.3	-36.0	23.7	0.00e+00	0	40	0	2539651072	40	4304
2026-01-28 11:27:35.70	11.75	34.14	-34.1	-35.7	24.0	0.00e+00	0	40	0	2562719744	40	4151
2026-01-28 11:27:39.67	10.82	33.46	-34.3	-35.9	23.8	0.00e+00	0	40	0	2584739840	40	4267
2026-01-28 11:27:43.64	9.93	32.79	-34.6	-36.3	23.5	0.00e+00	0	40	0	2606759936	40	4472
2026-01-28 11:27:47.62	9.07	32.12	-34.4	-36.0	23.7	0.00e+00	0	40	0	2629828608	40	4322
2026-01-28 11:27:51.59	8.24	31.45	-34.8	-36.4	23.3	0.00e+00	0	40	0	2651848704	40	4545
2026-01-28 11:27:55.56	7.45	30.80	-34.8	-36.5	23.3	0.00e+00	0	40	0	2673868800	40	4569
2026-01-28 11:27:59.53	6.69	30.16	-35.0	-36.7	23.1	0.00e+00	0	40	0	2696937472	40	4667
2026-01-28 11:28:03.50	5.97	29.52	-35.0	-36.6	23.2	0.00e+00	0	40	0	2718957568	40	4628
2026-01-28 11:28:07.47	5.27	28.90	-35.0	-36.6	23.2	0.00e+00	0	40	0	2740977664	40	4635
2026-01-28 11:28:11.44	4.59	28.28	-35.1	-36.8	23.0	0.00e+00	0	40	0	2762997760	40	4708
2026-01-28 11:28:15.41	3.95	27.67	-35.1	-36.8	22.3	0.00e+00	0	40	0	2786066432	41	4459
2026-01-28 11:28:19.38	3.32	27.07	-35.1	-36.7	23.0	0.00e+00	0	40	0	2808086528	41	4434
2026-01-28 11:28:23.36	2.72	26.48	-35.2	-36.9	22.9	0.00e+00	0	40	0	2831155200	41	4497
2026-01-28 11:28:27.33	2.14	25.90	-35.1	-36.8	23.0	0.00e+00	0	40	0	2853175296	41	4468
2026-01-28 11:28:31.30	1.59	25.33	-35.3	-36.9	22.8	0.00e+00	0	40	0	2875195392	41	4537
2026-01-28 11:28:35.27	1.05	24.77	-35.1	-36.8	23.0	0.00e+00	0	40	0	2897215488	41	4465
2026-01-28 11:28:39.24	0.54	24.22	-35.3	-37.0	22.8	0.00e+00	0	40	0	2920284160	41	4546
2026-01-28 11:28:43.22	0.04	23.68	-35.4	-37.1	22.7	0.00e+00	0	40	0	2942304256	41	4602
2026-01-28 11:28:47.19	359.55	23.14	-35.1	-36.8	22.9	0.00e+00	0	40	0	2964324352	41	4464
2026-01-28 11:28:51.16	359.09	22.62	-35.4	-37.0	22.7	0.00e+00	0	40	0	2987393024	41	4585
2026-01-28 11:28:55.13	358.64	22.10	-35.7	-37.4	22.4	0.00e+00	0	40	0	3009413120	42	4521
2026-01-28 11:28:59.11	358.20	21.59	-35.9	-37.6	22.2	0.00e+00	0	40	0	3031433216	42	4631
2026-01-28 11:29:03.08	357.78	21.09	-35.8	-37.5	22.3	0.00e+00	0	40	0	3053453312	42	4567
2026-01-28 11:29:07.05	357.38	20.60	-35.9	-37.6	22.2	0.00e+00	0	40	0	3076521984	42	4626
2026-01-28 11:29:11.02	356.99	20.11	-36.0	-37.7	22.1	0.00e+00	0	40	0	3098542080	42	4692
2026-01-28 11:29:14.99	356.61	19.64	-36.1	-37.8	22.0	0.00e+00	0	40	0	3120562176	42	4740
2026-01-28 11:29:18.96	356.24	19.17	-36.1	-37.9	22.0	0.00e+00	0	40	0	3143630848	42	4776
2026-01-28 11:29:22.94	355.88	18.71	-36.3	-38.1	21.7	0.00e+00	0	40	0	3165650944	43	4625
2026-01-28 11:29:26.91	355.53	18.26	-36.6	-38.3	21.5	0.00e+00	0	40	0	3187671040	43	4745
2026-01-28 11:29:30.88	355.20	17.81	-36.6	-38.4	21.5	0.00e+00	0	40	0	3210739712	43	4786
2026-01-28 11:29:34.85	354.87	17.37	-36.6	-38.4	21.5	0.00e+00	0	40	0	3232759808	43	4767
2026-01-28 11:29:38.82	354.56	16.94	-36.8	-38.6	21.4	0.00e+00	0	40	0	3254779904	44	4622
2026-01-28 11:29:42.79	354.25	16.51	-37.1	-38.9	21.1	0.00e+00	0	40	0	3276800000	44	4779
2026-01-28 11:29:46.76	353.95	16.09	-37.2	-39.0	21.0	0.00e+00	0	40	0	3299868672	45	4574
2026-01-28 11:29:50.74	353.66	15.68	-37.4	-39.3	20.8	0.00e+00	0	40	0	3321888768	45	4711
2026-01-28 11:29:54.71	353.38	15.27	-37.5	-39.3	20.7	0.00e+00	0	40	0	3344957440	45	4733
2026-01-28 11:29:58.68	353.11	14.87	-37.6	-39.4	20.6	0.00e+00	0	40	0	3366977536	45	4806
2026-01-28 11:30:02.65	352.85	14.48	-37.7	-39.5	20.5	0.00e+00	0	40	0	3388997632	46	4577
2026-01-28 11:30:06.62	352.59	14.09	-37.7	-39.6	20.4	0.00e+00	0	40	0	3411017728	46	4644
2026-01-28 11:30:10.59	352.34	13.70	-37.8	-39.7	20.4	0.00e+00	0	40	0	3434086400	46	4652
2026-01-28 11:30:14.56	352.09	13.32	-37.8	-39.6	20.4	0.00e+00	0	40	0	3456106496	46	4645
2026-01-28 11:30:18.53	351.86	12.95	-37.6	-39.6	20.4	0.00e+00	0	40	0	3478126592	46	4633
2026-01-28 11:30:22.51	351.62	12.58	-37.8	-39.9	20.1	0.00e+00	0	40	0	3501195264	46	4773
2026-01-28 11:30:26.47	351.40	12.22	-37.9	-39.9	20.1	0.00e+00	0	40	0	3523215360	46	4803
2026-01-28 11:30:30.45	351.18	11.86	-38.0	-40.1	19.9	0.00e+00	0	40	0	3545235456	46	4878
2026-01-28 11:30:34.42	350.96	11.51	-38.1	-40.1	19.9	0.00e+00	0	40	0	3568304128	47	4637
2026-01-28 11:30:38.39	350.76	11.16	-38.3	-40.4	19.7	0.00e+00	0	40	0	3590324224	47	4763
2026-01-28 11:30:42.36	350.55	10.82	-38.1	-40.4	19.5	0.00e+00	0	40	0	3612344320	47	4806
2026-01-28 11:30:46.33	350.36	10.48	-38.0	-40.4	19.5	0.00e+00	0	40	0	3634364416	47	4808
2026-01-28 11:30:50.30	350.16	10.14	-38.3	-40.6	19.3	0.00e+00	0	40	0	3657433088	47	4897
2026-01-28 11:30:54.27	349.97	9.81	-38.5	-40.7	19.3	0.00e+00	0	40	0	3679453184	47	4929
2026-01-28 11:30:58.25	349.79	9.48	-38.7	-40.8	19.3	0.00e+00	0	40	0	3701473280	48	4759
2026-01-28 11:31:02.22	349.61	9.16	-38.7	-40.9	19.2	0.00e+00	0	40	0	3724541952	48	4770
2026-01-28 11:31:06.19	349.43	8.84	-47.1	-61.5	3.8	8.47e-01	0	40	104	3740270592	64	20322
2026-01-28 11:31:10.16	349.26	8.52	-49.1	-61.8	3.8	8.48e-01	0	40	104	3740270592	69	15854
2026-01-28 11:31:14.14	349.10	8.21	-48.1	-61.7	3.8	8.47e-01	0	40	104	3740270592	68	16584
2026-01-28 11:31:18.11	348.93	7.90	-49.0	-61.4	3.8	8.48e-01	0	40	104	3740270592	68	15993
2026-01-28 11:31:22.08	348.77	7.60	-49.2	-61.4	3.8	8.47e-01	0	40	104	3740270592	69	15122
2026-01-28 11:31:26.05	348.62	7.30	-49.1	-61.5	3.8	8.47e-01	0	40	104	3740270592	69	15260
2026-01-28 11:31:30.02	348.46	7.00	-49.1	-61.4	3.8	8.46e-01	0	40	104	3740270592	69	15185
2026-01-28 11:31:33.99	348.32	6.70	-49.1	-61.5	3.8	8.48e-01	0	40	104	3740270592	69	15245
2026-01-28 11:31:37.97	348.17	6.41	-49.1	-61.4	3.8	8.47e-01	0	40	104	3740270592	69	15206
2026-01-28 11:31:41.94	348.03	6.12	-49.1	-61.4	3.8	8.47e-01	0	40	104	3740270592	69	15128
2026-01-28 11:31:45.91	347.89	5.84	-49.1	-61.4	3.8	8.47e-01	0	40	104	3740270592	69	15105
2026-01-28 11:31:49.88	347.75	5.55	-49.0	-61.4	3.8	8.46e-01	0	40	104	3740270592	69	15110
2026-01-28 11:31:53.85	347.62	5.27	-49.0	-61.4	3.8	8.48e-01	0	40	104	3740270592	69	15106
2026-01-28 11:31:57.82	347.49	5.00	-49.0	-61.3	3.8	8.47e-01	0	40	104	3740270592	69	15036

#Closed at: 2026-01-28 11:31:58
#Recorded file [3740 MB]: D:/Data/31040_260128_141927.dat