passes_logs/2026/01/28/T1/T1__20260128_065405_KHAYYAM_rec.log

#Pass ID: 20260128_065405_KHAYYAM
#Satellite: KHAYYAM
#Configuration: KHAYYAM_480M
#almurnet v.1.7.20251203
#Start time: 2026-01-28 06:54:05

#Version: 2.0.20230620
#Station: T1
#Location: 37.570604 lon 55.790049 lat
#TLE: 1 53370U 22096A   26027.62333840  .00009189  00000+0  37322-3 0  9999
#TLE: 2 53370  97.3550 294.4067 0002110 106.9293 253.2176 15.24792297193169

#Time	Az	El	Level	Level2	SNR	BER	BlckErr	Temp	State	Recorded	gain1	gain2
2026-01-28 06:54:05.05	126.46	5.00	-52.3	-57.1	3.5	0.00e+00	0	42	0	0	76	24588
2026-01-28 06:54:07.05	126.27	5.15	-53.0	-57.7	3.7	0.00e+00	0	43	104	0	77	24841
2026-01-28 06:54:09.04	126.08	5.30	-53.4	-57.8	3.7	0.00e+00	0	43	104	0	77	25274
2026-01-28 06:54:11.03	125.89	5.45	-52.8	-57.5	3.7	0.00e+00	0	43	104	0	77	24426
2026-01-28 06:54:13.03	125.69	5.60	-53.0	-57.6	3.7	0.00e+00	0	43	104	0	77	24738
2026-01-28 06:54:15.02	125.50	5.75	-53.1	-57.6	3.7	0.00e+00	0	44	104	0	77	24658
2026-01-28 06:54:17.02	125.30	5.90	-53.1	-57.6	3.7	0.00e+00	0	44	104	0	77	24728
2026-01-28 06:54:19.02	125.09	6.05	-53.0	-57.5	3.7	0.00e+00	0	44	104	0	77	24376
2026-01-28 06:54:21.01	124.89	6.21	-52.8	-57.3	3.7	0.00e+00	0	44	104	0	77	23903
2026-01-28 06:54:23.01	124.68	6.36	-52.8	-57.3	3.7	0.00e+00	0	44	104	0	77	23757
2026-01-28 06:54:25.00	124.47	6.52	-52.1	-56.7	3.7	0.00e+00	0	44	104	0	76	23687
2026-01-28 06:54:27.00	124.26	6.67	-52.1	-56.7	3.7	0.00e+00	0	44	104	0	76	23616
2026-01-28 06:54:28.99	124.04	6.83	-52.1	-56.7	3.7	0.00e+00	0	45	104	0	76	23593
2026-01-28 06:54:30.98	123.82	6.99	-52.1	-56.7	3.7	0.00e+00	0	45	104	0	76	23599
2026-01-28 06:54:32.98	123.60	7.15	-52.1	-56.7	3.7	0.00e+00	0	45	104	0	76	23502
2026-01-28 06:54:34.97	123.37	7.31	-52.1	-56.7	3.7	0.00e+00	0	45	104	0	76	23511
2026-01-28 06:54:36.97	123.14	7.47	-52.1	-56.7	3.7	0.00e+00	0	45	104	0	76	23549
2026-01-28 06:54:38.96	122.91	7.63	-52.1	-56.7	3.7	0.00e+00	0	45	104	0	76	23484
2026-01-28 06:54:40.97	122.67	7.80	-52.1	-56.7	3.7	0.00e+00	0	45	104	0	76	23546
2026-01-28 06:54:42.95	122.43	7.96	-52.1	-56.7	3.7	0.00e+00	0	45	104	0	76	23550
2026-01-28 06:54:44.95	122.19	8.12	-52.1	-56.6	3.7	0.00e+00	0	46	104	0	76	23418
2026-01-28 06:54:46.94	121.94	8.29	-52.0	-56.6	3.7	0.00e+00	0	46	104	0	76	23238
2026-01-28 06:54:48.93	121.69	8.46	-51.9	-56.5	3.7	0.00e+00	0	46	104	0	75	24273
2026-01-28 06:54:50.93	121.44	8.63	-51.8	-56.2	3.7	0.00e+00	0	46	104	0	75	23486
2026-01-28 06:54:52.94	121.18	8.80	-51.9	-56.4	3.7	0.00e+00	0	46	104	0	75	24048
2026-01-28 06:54:54.93	120.92	8.97	-52.0	-56.6	3.7	0.00e+00	0	46	104	0	75	24606
2026-01-28 06:54:56.93	120.65	9.14	-52.1	-56.7	3.7	0.00e+00	0	46	104	0	75	24824
2026-01-28 06:54:58.93	120.38	9.32	-52.3	-56.8	3.7	0.00e+00	0	46	104	0	75	25226
2026-01-28 06:55:00.93	120.11	9.49	-52.3	-56.8	3.7	0.00e+00	0	46	104	0	75	25296
2026-01-28 06:55:02.92	119.83	9.66	-52.2	-56.7	3.7	0.00e+00	0	46	104	0	75	25020
2026-01-28 06:55:04.92	119.55	9.84	-52.2	-56.7	3.7	0.00e+00	0	47	104	0	75	25069
2026-01-28 06:55:06.91	119.26	10.02	-52.0	-56.7	3.6	0.00e+00	0	46	104	0	75	24915
2026-01-28 06:55:08.91	118.97	10.20	-52.2	-56.8	3.7	0.00e+00	0	47	104	0	75	25169
2026-01-28 06:55:10.91	118.68	10.38	-52.2	-56.8	3.7	0.00e+00	0	47	104	0	75	25149
2026-01-28 06:55:12.90	118.38	10.56	-52.1	-56.7	3.7	0.00e+00	0	47	104	0	75	24942
2026-01-28 06:55:14.89	118.07	10.74	-52.1	-56.8	3.7	0.00e+00	0	47	104	0	75	25142
2026-01-28 06:55:16.89	117.76	10.93	-52.2	-56.7	3.7	0.00e+00	0	47	104	0	75	25046
2026-01-28 06:55:18.88	117.45	11.11	-52.1	-56.8	3.7	0.00e+00	0	47	104	0	75	25106
2026-01-28 06:55:20.87	117.13	11.29	-52.2	-56.8	3.7	0.00e+00	0	47	104	0	75	25225
2026-01-28 06:55:22.87	116.81	11.48	-52.2	-56.7	3.7	0.00e+00	0	47	104	0	75	25060
2026-01-28 06:55:24.86	116.48	11.67	-52.1	-56.8	3.7	0.00e+00	0	47	104	0	75	25152
2026-01-28 06:55:26.85	116.14	11.86	-52.4	-56.9	3.7	0.00e+00	0	47	104	0	75	25608
2026-01-28 06:55:28.83	115.81	12.05	-52.5	-57.0	3.7	0.00e+00	0	47	104	0	75	25770
2026-01-28 06:55:30.83	115.46	12.24	-52.5	-57.0	3.7	0.00e+00	0	47	104	0	75	25693
2026-01-28 06:55:32.83	115.11	12.43	-52.5	-57.0	3.7	0.00e+00	0	47	104	0	75	25873
2026-01-28 06:55:34.83	114.75	12.63	-52.3	-56.9	3.7	0.00e+00	0	47	104	0	75	25388
2026-01-28 06:55:36.83	114.39	12.82	-52.4	-56.9	3.7	0.00e+00	0	47	104	0	75	25606
2026-01-28 06:55:38.83	114.02	13.02	-52.4	-56.9	3.7	0.00e+00	0	47	104	0	75	25573
2026-01-28 06:55:40.82	113.64	13.21	-52.5	-57.0	3.7	0.00e+00	0	47	104	0	75	25815
2026-01-28 06:55:42.81	113.26	13.41	-52.4	-57.0	3.7	0.00e+00	0	47	104	0	75	25951
2026-01-28 06:55:44.81	112.88	13.61	-52.4	-57.1	3.7	0.00e+00	0	47	104	0	75	26021
2026-01-28 06:55:46.80	112.48	13.81	-52.3	-57.0	3.7	0.00e+00	0	47	104	0	75	25908
2026-01-28 06:55:48.79	112.08	14.01	-52.4	-57.0	3.7	0.00e+00	0	47	104	0	75	25966
2026-01-28 06:55:50.78	111.68	14.21	-52.5	-57.1	3.7	0.00e+00	0	47	104	0	75	26137
2026-01-28 06:55:52.78	111.26	14.42	-52.5	-57.1	3.7	0.00e+00	0	47	104	0	75	26256
2026-01-28 06:55:54.79	110.84	14.62	-52.5	-57.2	3.7	0.00e+00	0	48	104	0	75	26381
2026-01-28 06:55:56.78	110.41	14.83	-52.4	-57.2	3.7	0.00e+00	0	48	104	0	75	26505
2026-01-28 06:55:58.78	109.98	15.03	-52.4	-57.1	3.7	0.00e+00	0	48	104	0	75	26189
2026-01-28 06:56:00.77	109.54	15.24	-52.5	-57.2	3.7	0.00e+00	0	48	104	0	75	26412
2026-01-28 06:56:02.77	109.09	15.45	-52.0	-56.0	3.7	0.00e+00	0	48	104	0	75	22981
2026-01-28 06:56:04.76	108.63	15.66	-51.8	-55.5	3.7	0.00e+00	0	48	104	0	75	21719
2026-01-28 06:56:06.76	108.17	15.87	-52.2	-56.1	3.7	0.00e+00	0	47	104	0	75	23222
2026-01-28 06:56:08.75	107.70	16.07	-34.0	-35.0	4.6	0.00e+00	0	47	104	0	39	16211
2026-01-28 06:56:10.76	107.21	16.29	-34.1	-35.1	4.5	0.00e+00	0	48	104	0	40	15569
2026-01-28 06:56:12.75	106.73	16.50	-33.7	-34.7	4.6	0.00e+00	0	47	104	0	39	15685
2026-01-28 06:56:14.75	106.23	16.71	-40.3	-41.4	4.5	0.00e+00	0	48	104	0	51	16978
2026-01-28 06:56:16.74	105.73	16.92	-51.7	-55.1	3.7	0.00e+00	0	48	104	0	73	23291
2026-01-28 06:56:18.74	105.21	17.13	-41.9	-43.0	12.8	0.00e+00	0	48	0	41943040	54	17216
2026-01-28 06:56:20.73	104.69	17.34	-32.8	-33.7	19.5	0.00e+00	0	48	0	167772160	37	15723
2026-01-28 06:56:22.73	104.16	17.56	-30.4	-31.2	19.6	0.00e+00	0	48	0	285212672	32	15801
2026-01-28 06:56:24.73	103.62	17.77	-29.7	-30.5	19.9	0.00e+00	0	48	0	402653184	31	15448
2026-01-28 06:56:26.72	103.07	17.98	-29.2	-30.0	20.2	0.00e+00	0	48	0	528482304	30	15444
2026-01-28 06:56:28.72	102.51	18.20	-28.4	-29.2	20.7	0.00e+00	0	48	0	645922816	28	15721
2026-01-28 06:56:30.72	101.94	18.41	-28.4	-29.3	20.6	0.00e+00	0	48	0	763363328	28	15857
2026-01-28 06:56:32.72	101.37	18.62	-28.3	-29.1	20.7	0.00e+00	0	49	0	889192448	28	15546
2026-01-28 06:56:34.72	100.78	18.84	-28.3	-29.1	20.7	0.00e+00	0	48	0	1006632960	28	15541
2026-01-28 06:56:36.72	100.18	19.05	-28.1	-28.9	20.9	0.00e+00	0	49	0	1124073472	27	16125
2026-01-28 06:56:38.72	99.58	19.26	-28.2	-29.1	20.8	0.00e+00	0	49	0	1249902592	27	16400
2026-01-28 06:56:40.71	98.96	19.47	-28.1	-29.0	20.7	0.00e+00	0	49	0	1367343104	27	16241
2026-01-28 06:56:42.71	98.34	19.68	-28.2	-29.1	20.7	0.00e+00	0	49	0	1484783616	27	16414
2026-01-28 06:56:44.70	97.71	19.89	-28.1	-28.9	20.9	0.00e+00	0	49	0	1602224128	27	16060
2026-01-28 06:56:46.70	97.06	20.09	-27.8	-28.6	21.0	0.00e+00	0	49	0	1719664640	27	15615
2026-01-28 06:56:48.69	96.41	20.30	-27.8	-28.7	21.0	0.00e+00	0	49	0	1845493760	27	15706
2026-01-28 06:56:50.68	95.75	20.50	-27.7	-28.5	21.0	0.00e+00	0	49	0	1962934272	27	15457
2026-01-28 06:56:52.68	95.07	20.71	-27.8	-28.7	20.9	0.00e+00	0	49	0	2080374784	27	15708
2026-01-28 06:56:54.68	94.38	20.91	-27.5	-28.4	21.0	0.00e+00	0	49	0	2206203904	26	16051
2026-01-28 06:56:56.68	93.69	21.11	-27.7	-28.5	21.0	0.00e+00	0	49	0	2323644416	26	16304
2026-01-28 06:56:58.68	92.98	21.31	-27.5	-28.3	21.0	0.00e+00	0	49	0	2441084928	26	15917
2026-01-28 06:57:00.68	92.26	21.50	-27.4	-28.3	20.9	0.00e+00	0	49	0	2566914048	26	15864
2026-01-28 06:57:02.67	91.54	21.70	-27.4	-28.3	20.9	0.00e+00	0	49	0	2684354560	26	15885
2026-01-28 06:57:04.67	90.80	21.89	-27.2	-28.0	21.2	0.00e+00	0	49	0	2801795072	26	15437
2026-01-28 06:57:06.66	90.05	22.07	-27.1	-28.0	21.2	0.00e+00	0	49	0	2919235584	26	15344
2026-01-28 06:57:08.66	89.30	22.26	-27.3	-28.1	21.1	0.00e+00	0	49	0	3045064704	26	15608
2026-01-28 06:57:10.65	88.53	22.44	-27.2	-28.0	21.1	0.00e+00	0	49	0	3162505216	26	15451
2026-01-28 06:57:12.65	87.75	22.62	-27.0	-27.8	21.2	0.00e+00	0	49	0	3279945728	26	15100
2026-01-28 06:57:14.64	86.97	22.79	-27.2	-28.0	21.1	0.00e+00	0	49	0	3397386240	26	15415
2026-01-28 06:57:16.64	86.17	22.96	-27.0	-27.8	21.1	0.00e+00	0	49	0	3523215360	25	15986
2026-01-28 06:57:18.63	85.36	23.13	-26.9	-27.7	21.2	0.00e+00	0	49	0	3640655872	25	15726
2026-01-28 06:57:20.63	84.55	23.29	-27.0	-27.8	21.0	0.00e+00	0	49	0	3758096384	25	16014
2026-01-28 06:57:22.62	83.72	23.45	-26.8	-27.7	21.2	0.00e+00	0	49	0	3883925504	25	15669
2026-01-28 06:57:24.61	82.89	23.60	-26.8	-27.6	21.2	0.00e+00	0	50	0	4001366016	25	15542
2026-01-28 06:57:26.61	82.04	23.75	-27.0	-27.9	21.1	0.00e+00	0	50	0	4118806528	25	16019
2026-01-28 06:57:28.60	81.19	23.89	-26.9	-27.7	21.2	0.00e+00	0	50	0	4236247040	25	15747
2026-01-28 06:57:30.59	80.33	24.03	-26.8	-27.6	21.3	0.00e+00	0	50	0	4353687552	25	15592
2026-01-28 06:57:32.59	79.46	24.16	-27.1	-27.9	21.2	0.00e+00	0	49	0	4479516672	25	16115
2026-01-28 06:57:34.59	78.58	24.29	-26.9	-27.8	21.1	0.00e+00	0	50	0	4596957184	25	15898
2026-01-28 06:57:36.59	77.70	24.41	-26.8	-27.6	21.3	0.00e+00	0	50	0	4714397696	25	15575
2026-01-28 06:57:38.59	76.80	24.52	-26.7	-27.6	21.1	0.00e+00	0	49	0	4840226816	25	15517
2026-01-28 06:57:40.59	75.90	24.63	-27.1	-27.9	21.1	0.00e+00	0	50	0	4957667328	25	16121
2026-01-28 06:57:42.59	74.99	24.73	-27.0	-27.9	21.1	0.00e+00	0	50	0	5075107840	25	16054
2026-01-28 06:57:44.59	74.08	24.83	-26.9	-27.7	21.2	0.00e+00	0	50	0	5200936960	25	15752
2026-01-28 06:57:46.59	73.16	24.91	-26.7	-27.6	21.3	0.00e+00	0	50	0	5318377472	25	15532
2026-01-28 06:57:48.58	72.23	24.99	-27.2	-28.0	21.0	0.00e+00	0	50	0	5435817984	25	16388
2026-01-28 06:57:50.58	71.30	25.07	-27.2	-28.1	21.0	0.00e+00	0	49	0	5553258496	25	16418
2026-01-28 06:57:52.58	70.37	25.14	-27.1	-28.0	21.0	0.00e+00	0	49	0	5679087616	25	16259
2026-01-28 06:57:54.58	69.43	25.19	-27.1	-27.9	21.0	0.00e+00	0	50	0	5796528128	25	16135
2026-01-28 06:57:56.58	68.48	25.25	-27.5	-28.3	20.8	0.00e+00	0	50	0	5913968640	25	16889
2026-01-28 06:57:58.58	67.54	25.29	-27.4	-28.2	20.8	0.00e+00	0	50	0	6039797760	25	16664
2026-01-28 06:58:00.57	66.59	25.33	-27.3	-28.2	20.8	0.00e+00	0	50	0	6157238272	25	16595
2026-01-28 06:58:02.57	65.64	25.35	-27.4	-28.2	20.9	0.00e+00	0	50	0	6274678784	26	15746
2026-01-28 06:58:04.57	64.69	25.38	-27.7	-28.6	20.7	0.00e+00	0	50	0	6400507904	26	16458
2026-01-28 06:58:06.57	63.74	25.39	-27.6	-28.4	20.7	0.00e+00	0	50	0	6517948416	26	16125
2026-01-28 06:58:08.57	62.78	25.39	-27.5	-28.4	20.8	0.00e+00	0	50	0	6635388928	26	16027
2026-01-28 06:58:10.57	61.83	25.39	-27.3	-28.1	20.9	0.00e+00	0	50	0	6752829440	26	15630
2026-01-28 06:58:12.57	60.87	25.38	-27.7	-28.5	20.7	0.00e+00	0	50	0	6878658560	26	16354
2026-01-28 06:58:14.56	59.93	25.36	-27.5	-28.3	20.7	0.00e+00	0	50	0	6996099072	26	15995
2026-01-28 06:58:16.56	58.97	25.33	-27.3	-28.2	20.8	0.00e+00	0	50	0	7113539584	26	15653
2026-01-28 06:58:18.55	58.03	25.30	-27.2	-28.0	20.8	0.00e+00	0	50	0	7239368704	26	15405
2026-01-28 06:58:20.54	57.09	25.26	-27.4	-28.3	20.6	0.00e+00	0	50	0	7356809216	26	15855
2026-01-28 06:58:22.54	56.14	25.21	-27.2	-28.1	20.7	0.00e+00	0	50	0	7474249728	26	15545
2026-01-28 06:58:24.53	55.21	25.15	-27.1	-27.9	20.8	0.00e+00	0	50	0	7591690240	26	15220
2026-01-28 06:58:26.53	54.27	25.09	-26.4	-27.7	21.0	0.00e+00	0	50	0	7717519360	25	15817
2026-01-28 06:58:28.53	53.34	25.02	-27.2	-28.1	20.6	0.00e+00	0	50	0	7834959872	25	16465
2026-01-28 06:58:30.53	52.42	24.94	-27.1	-27.9	20.8	0.00e+00	0	50	0	7952400384	25	16151
2026-01-28 06:58:32.53	51.50	24.85	-27.0	-27.9	20.7	0.00e+00	0	50	0	8069840896	25	16022
2026-01-28 06:58:34.53	50.58	24.76	-26.9	-27.7	20.7	0.00e+00	0	50	0	8195670016	25	15783
2026-01-28 06:58:36.52	49.68	24.66	-27.2	-28.0	20.6	0.00e+00	0	50	0	8313110528	25	16308
2026-01-28 06:58:38.52	48.78	24.55	-27.0	-27.9	20.6	0.00e+00	0	50	0	8430551040	25	16079
2026-01-28 06:58:40.51	47.89	24.44	-27.0	-27.8	20.6	0.00e+00	0	50	0	8556380160	25	15981
2026-01-28 06:58:42.51	47.00	24.32	-27.3	-28.1	20.5	0.00e+00	0	50	0	8673820672	25	16527
2026-01-28 06:58:44.51	46.12	24.20	-27.2	-28.0	20.6	0.00e+00	0	50	0	8791261184	25	16365
2026-01-28 06:58:46.50	45.25	24.07	-27.1	-28.0	20.8	0.00e+00	0	50	0	8908701696	25	16244
2026-01-28 06:58:48.50	44.39	23.93	-27.3	-28.1	20.5	0.00e+00	0	50	0	9034530816	25	16495
2026-01-28 06:58:50.50	43.54	23.79	-27.2	-28.1	20.6	0.00e+00	0	50	0	9151971328	25	16429
2026-01-28 06:58:52.50	42.69	23.65	-27.2	-28.1	20.7	0.00e+00	0	50	0	9277800448	25	16420
2026-01-28 06:58:54.50	41.85	23.50	-27.5	-28.3	20.4	0.00e+00	0	50	0	9386852352	25	16873
2026-01-28 06:58:56.49	41.03	23.34	-27.4	-28.3	20.6	0.00e+00	0	50	0	9512681472	25	16851
2026-01-28 06:58:58.49	40.21	23.18	-27.2	-28.1	20.4	0.00e+00	0	50	0	9630121984	25	16401
2026-01-28 06:59:00.48	39.41	23.02	-27.6	-28.4	19.7	0.00e+00	0	50	0	9747562496	25	17120
2026-01-28 06:59:02.48	38.61	22.85	-27.4	-28.3	20.1	0.00e+00	0	50	0	9873391616	25	16856
2026-01-28 06:59:04.48	37.82	22.67	-27.6	-28.4	20.0	0.00e+00	0	50	0	9990832128	26	16121
2026-01-28 06:59:06.47	37.05	22.50	-27.7	-28.6	19.8	0.00e+00	0	50	0	10108272640	26	16408
2026-01-28 06:59:08.47	36.28	22.32	-27.4	-28.3	20.1	0.00e+00	0	50	0	10234101760	26	15894
2026-01-28 06:59:10.47	35.52	22.14	-27.7	-28.6	20.0	0.00e+00	0	50	0	10351542272	26	16437
2026-01-28 06:59:12.46	34.78	21.95	-27.7	-28.5	20.3	0.00e+00	0	50	0	10468982784	26	16323
2026-01-28 06:59:14.46	34.04	21.76	-27.9	-28.8	20.1	0.00e+00	0	50	0	10594811904	26	16842
2026-01-28 06:59:16.46	33.31	21.57	-28.0	-28.8	20.1	0.00e+00	0	50	0	10712252416	26	16890
2026-01-28 06:59:18.45	32.60	21.38	-28.0	-28.9	20.0	0.00e+00	0	50	0	10829692928	26	17015
2026-01-28 06:59:20.45	31.89	21.18	-27.9	-28.8	19.9	0.00e+00	0	50	0	10947133440	27	15919
2026-01-28 06:59:22.44	31.20	20.98	-28.3	-29.1	19.5	0.00e+00	0	50	0	11064573952	27	16512
2026-01-28 06:59:24.44	30.51	20.78	-28.2	-29.1	19.7	0.00e+00	0	50	0	11190403072	27	16415
2026-01-28 06:59:26.44	29.84	20.58	-28.1	-28.9	19.6	0.00e+00	0	50	0	11307843584	27	16137
2026-01-28 06:59:28.44	29.17	20.38	-28.2	-29.0	19.7	0.00e+00	0	50	0	11425284096	27	16366
2026-01-28 06:59:30.44	28.52	20.17	-28.5	-29.4	19.6	0.00e+00	0	50	0	11551113216	27	16968
2026-01-28 06:59:32.44	27.87	19.97	-28.3	-29.2	19.5	0.00e+00	0	50	0	11668553728	27	16654
2026-01-28 06:59:34.44	27.24	19.76	-28.6	-29.4	19.2	0.00e+00	0	50	0	11785994240	28	16189
2026-01-28 06:59:36.45	26.61	19.55	-28.4	-29.3	19.4	0.00e+00	0	50	0	11911823360	28	15916
2026-01-28 06:59:38.45	25.99	19.34	-28.7	-29.6	19.2	0.00e+00	0	50	0	12029263872	28	16449
2026-01-28 06:59:40.44	25.39	19.13	-28.5	-29.4	19.3	0.00e+00	0	50	0	12146704384	28	16066
2026-01-28 06:59:42.44	24.79	18.92	-28.7	-29.6	19.2	0.00e+00	0	50	0	12264144896	28	16498
2026-01-28 06:59:44.44	24.21	18.71	-28.7	-29.6	19.6	0.00e+00	0	50	0	12389974016	28	16426
2026-01-28 06:59:46.43	23.63	18.50	-29.0	-29.8	19.4	0.00e+00	0	50	0	12507414528	28	16943
2026-01-28 06:59:48.43	23.07	18.29	-29.0	-29.8	19.4	0.00e+00	0	49	0	12624855040	29	15982
2026-01-28 06:59:50.43	22.51	18.07	-28.8	-29.7	19.4	0.00e+00	0	50	0	12750684160	29	15761
2026-01-28 06:59:52.43	21.96	17.86	-29.1	-29.9	19.2	0.00e+00	0	50	0	12868124672	29	16195
2026-01-28 06:59:54.43	21.42	17.65	-29.0	-29.9	19.3	0.00e+00	0	50	0	12985565184	29	16077
2026-01-28 06:59:56.43	20.89	17.44	-29.1	-30.0	19.2	0.00e+00	0	50	0	13111394304	29	16306
2026-01-28 06:59:58.42	20.37	17.23	-29.3	-30.2	18.6	0.00e+00	0	50	0	13228834816	29	16711
2026-01-28 07:00:00.42	19.86	17.02	-29.6	-30.4	18.9	0.00e+00	0	50	0	13346275328	29	17144
2026-01-28 07:00:02.41	19.35	16.81	-29.4	-30.3	18.9	0.00e+00	0	49	0	13463715840	29	16864
2026-01-28 07:00:04.41	18.86	16.59	-29.6	-30.5	18.7	0.00e+00	0	49	0	13589544960	29	17201
2026-01-28 07:00:06.41	18.37	16.38	-29.5	-30.4	18.9	0.00e+00	0	50	0	13706985472	30	16120
2026-01-28 07:00:08.41	17.89	16.17	-29.8	-30.7	19.0	0.00e+00	0	50	0	13824425984	30	16591
2026-01-28 07:00:10.40	17.42	15.97	-29.8	-30.7	19.2	0.00e+00	0	50	0	13950255104	31	15661
2026-01-28 07:00:12.40	16.95	15.76	-29.7	-30.5	19.3	0.00e+00	0	50	0	14067695616	31	15443
2026-01-28 07:00:14.39	16.50	15.55	-30.0	-30.8	19.0	0.00e+00	0	50	0	14185136128	31	15964
2026-01-28 07:00:16.39	16.05	15.34	-29.9	-30.8	18.7	0.00e+00	0	50	0	14302576640	31	15852
2026-01-28 07:00:18.37	15.61	15.14	-30.2	-31.0	18.1	0.00e+00	0	50	0	14428405760	31	16373
2026-01-28 07:00:20.37	15.18	14.93	-30.1	-31.0	17.8	0.00e+00	0	50	0	14545846272	31	16362
2026-01-28 07:00:22.36	14.75	14.73	-30.2	-31.1	17.9	0.00e+00	0	50	0	14663286784	31	16402
2026-01-28 07:00:24.35	14.33	14.53	-30.4	-31.3	17.9	0.00e+00	0	50	0	14780727296	31	16801
2026-01-28 07:00:26.34	13.92	14.33	-30.5	-31.4	18.0	0.00e+00	0	49	0	14898167808	32	16053
2026-01-28 07:00:28.34	13.52	14.13	-30.5	-31.4	18.1	0.00e+00	0	50	0	15023996928	32	16097
2026-01-28 07:00:30.34	13.12	13.92	-30.7	-31.6	18.2	0.00e+00	0	50	0	15141437440	32	16461
2026-01-28 07:00:32.34	12.72	13.72	-30.7	-31.6	18.4	0.00e+00	0	50	0	15258877952	32	16478
2026-01-28 07:00:34.33	12.34	13.53	-30.9	-31.8	18.1	0.00e+00	0	50	0	15384707072	32	16825
2026-01-28 07:00:36.32	11.96	13.33	-31.1	-32.0	17.5	0.00e+00	0	50	0	15502147584	32	17311
2026-01-28 07:00:38.32	11.58	13.13	-30.8	-31.7	17.7	0.00e+00	0	49	0	15619588096	33	15745
2026-01-28 07:00:40.32	11.22	12.94	-31.0	-31.9	17.7	0.00e+00	0	50	0	15745417216	33	16124
2026-01-28 07:00:42.31	10.85	12.74	-31.2	-32.1	17.5	0.00e+00	0	50	0	15862857728	33	16507
2026-01-28 07:00:44.31	10.50	12.55	-31.2	-32.1	17.2	0.00e+00	0	49	0	15980298240	33	16515
2026-01-28 07:00:46.31	10.15	12.36	-31.4	-32.3	17.0	0.00e+00	0	50	0	16097738752	33	16882
2026-01-28 07:00:48.30	9.80	12.17	-31.6	-32.5	17.2	0.00e+00	0	49	0	16223567872	33	17177
2026-01-28 07:00:50.30	9.46	11.98	-31.2	-32.1	17.5	0.00e+00	0	50	0	16341008384	34	15604
2026-01-28 07:00:52.29	9.13	11.79	-31.3	-32.3	16.9	0.00e+00	0	49	0	16458448896	34	15847
2026-01-28 07:00:54.29	8.80	11.60	-31.6	-32.6	16.7	0.00e+00	0	50	0	16575889408	34	16420
2026-01-28 07:00:56.29	8.48	11.42	-31.8	-32.7	16.9	0.00e+00	0	49	0	16701718528	34	16704
2026-01-28 07:00:58.29	8.16	11.23	-31.7	-32.6	17.1	0.00e+00	0	50	0	16819159040	34	16551
2026-01-28 07:01:00.29	7.85	11.05	-31.9	-32.8	17.0	0.00e+00	0	50	0	16936599552	34	16925
2026-01-28 07:01:02.29	7.54	10.86	-32.1	-33.0	17.1	0.00e+00	0	49	0	17062428672	34	17224
2026-01-28 07:01:04.29	7.23	10.68	-32.1	-33.0	17.3	0.00e+00	0	49	0	17179869184	35	16294
2026-01-28 07:01:06.29	6.93	10.50	-31.9	-32.8	17.3	0.00e+00	0	49	0	17297309696	35	16013
2026-01-28 07:01:08.28	6.64	10.32	-32.1	-33.0	16.8	0.00e+00	0	50	0	17414750208	35	16387
2026-01-28 07:01:10.28	6.35	10.14	-32.3	-33.2	16.1	0.00e+00	0	49	0	17540579328	35	16672
2026-01-28 07:01:12.28	6.06	9.97	-32.2	-33.2	15.8	0.00e+00	0	49	0	17658019840	35	16662
2026-01-28 07:01:14.28	5.78	9.79	-32.3	-33.3	15.6	0.00e+00	0	49	0	17775460352	35	16853
2026-01-28 07:01:16.28	5.51	9.61	-32.4	-33.4	15.6	0.00e+00	0	49	0	17901289472	35	16967
2026-01-28 07:01:18.28	5.23	9.44	-32.7	-33.6	15.5	0.00e+00	0	49	0	18018729984	35	17520
2026-01-28 07:01:20.28	4.96	9.27	-33.9	-34.8	15.9	0.00e+00	0	49	0	18136170496	39	15987
2026-01-28 07:01:22.27	4.70	9.10	-33.9	-34.8	16.4	0.00e+00	0	49	0	18261999616	39	15983
2026-01-28 07:01:24.27	4.44	8.93	-48.5	-53.9	3.7	3.46e-02	0	49	104	18362662912	67	28811
2026-01-28 07:01:26.26	4.18	8.76	-51.0	-56.3	3.7	3.46e-02	0	49	104	18362662912	73	26694
2026-01-28 07:01:28.26	3.93	8.59	-52.0	-56.8	3.7	3.46e-02	0	49	104	18362662912	74	26816
2026-01-28 07:01:30.27	3.68	8.42	-52.7	-57.4	3.7	3.46e-02	0	49	104	18362662912	76	25533
2026-01-28 07:01:32.26	3.44	8.25	-51.8	-57.0	3.7	3.46e-02	0	49	104	18362662912	75	25810
2026-01-28 07:01:34.25	3.19	8.09	-52.9	-57.7	3.7	3.46e-02	0	49	104	18362662912	77	24901
2026-01-28 07:01:36.25	2.96	7.92	-52.9	-57.7	3.7	3.46e-02	0	49	104	18362662912	76	26346
2026-01-28 07:01:38.24	2.72	7.76	-52.2	-57.3	3.7	3.46e-02	0	49	104	18362662912	76	25144
2026-01-28 07:01:40.23	2.49	7.60	-52.6	-57.5	3.7	3.46e-02	0	49	104	18362662912	76	25698
2026-01-28 07:01:42.22	2.26	7.44	-52.4	-57.4	3.7	3.46e-02	0	49	104	18362662912	76	25445
2026-01-28 07:01:44.22	2.04	7.28	-53.0	-57.6	3.7	3.46e-02	0	49	104	18362662912	77	24591
2026-01-28 07:01:46.22	1.82	7.12	-53.1	-57.5	3.7	3.46e-02	0	49	104	18362662912	77	24426
2026-01-28 07:01:48.21	1.60	6.96	-53.0	-57.6	3.7	3.46e-02	0	49	104	18362662912	77	24736
2026-01-28 07:01:50.21	1.38	6.81	-52.7	-57.4	3.7	3.46e-02	0	49	104	18362662912	77	24105
2026-01-28 07:01:52.20	1.17	6.65	-52.9	-57.6	3.7	3.46e-02	0	48	104	18362662912	77	24568
2026-01-28 07:01:54.20	0.96	6.49	-52.1	-56.0	3.7	3.46e-02	0	49	104	18362662912	76	21638
2026-01-28 07:01:56.20	0.75	6.34	-51.6	-55.4	3.7	3.46e-02	0	48	104	18362662912	75	21588
2026-01-28 07:01:58.20	0.55	6.19	-51.4	-55.1	3.7	3.46e-02	0	49	104	18362662912	74	22106
2026-01-28 07:02:00.20	0.35	6.03	-51.4	-55.2	3.7	3.46e-02	0	48	104	18362662912	74	22153
2026-01-28 07:02:02.19	0.15	5.88	-51.4	-55.1	3.7	0.00e+00	0	48	104	18362662912	74	22055
2026-01-28 07:02:04.19	359.96	5.73	-51.4	-55.2	3.7	0.00e+00	0	48	104	18362662912	74	22120
2026-01-28 07:02:06.18	359.76	5.58	-51.4	-55.2	3.7	0.00e+00	0	48	104	18362662912	74	22174
2026-01-28 07:02:08.18	359.57	5.44	-51.4	-55.1	3.7	0.00e+00	0	49	104	18362662912	74	22100
2026-01-28 07:02:10.18	359.38	5.29	-51.4	-55.1	3.7	0.00e+00	0	48	104	18362662912	74	22035
2026-01-28 07:02:12.17	359.20	5.14	-51.4	-55.2	3.7	0.00e+00	0	48	104	18362662912	74	22143
2026-01-28 07:02:14.17	359.02	4.99	-51.4	-55.2	3.7	0.00e+00	0	48	104	18362662912	74	22112

#Closed at: 2026-01-28 07:02:15
#Recorded file [18362 MB]: D:/Data/31040_260128_095405.dat