passes_logs/2026/01/28/T1/T1__20260128_000203_NOAA_21_JPSS-2_rec.log

#Pass ID: 20260128_000203_NOAA 21 (JPSS-2)
#Satellite: NOAA 21 (JPSS-2)
#Configuration: NOAA 21
#almurnet v.1.7.20251203
#Start time: 2026-01-28 00:02:04

#Version: 2.0.20230620
#Station: T1
#Location: 37.570604 lon 55.790049 lat
#TLE: 1 54234U 22150A   26027.41809747  .00000179  00000+0  10565-3 0  9991
#TLE: 2 54234  98.7510 328.1683 0000854 205.0798 155.0336 14.19540145166571

#Time	Az	El	Level	Level2	SNR	BER	BlckErr	Temp	State	Recorded	gain1	gain2
2026-01-28 00:02:04.97	14.10	5.13	-50.3	-63.4	3.8	1.49e+00	0	41	0	0	71	16983
2026-01-28 00:02:07.95	14.05	5.34	-50.4	-63.4	3.8	1.49e+00	0	41	104	0	72	16094
2026-01-28 00:02:10.93	14.01	5.56	-50.2	-63.4	3.8	1.49e+00	0	42	104	0	72	15962
2026-01-28 00:02:13.91	13.96	5.78	-50.2	-63.3	3.8	1.49e+00	0	42	104	0	72	15821
2026-01-28 00:02:16.89	13.92	5.99	-50.0	-63.1	3.8	1.49e+00	0	42	104	0	72	15504
2026-01-28 00:02:19.87	13.87	6.21	-49.7	-63.0	3.8	1.49e+00	0	42	104	0	71	16267
2026-01-28 00:02:22.85	13.82	6.43	-48.5	-62.9	3.8	1.49e+00	0	42	104	0	69	17901
2026-01-28 00:02:25.82	13.77	6.66	-49.1	-62.4	3.8	1.49e+00	0	42	104	0	68	17938
2026-01-28 00:02:28.80	13.72	6.88	-49.0	-61.7	3.8	1.49e+00	0	42	104	0	68	16562
2026-01-28 00:02:31.78	13.67	7.11	-49.0	-61.4	3.8	1.49e+00	0	42	104	0	68	16026
2026-01-28 00:02:34.76	13.62	7.34	-48.9	-61.0	3.8	1.49e+00	0	42	104	0	68	15355
2026-01-28 00:02:37.74	13.56	7.57	-48.8	-59.7	4.0	1.48e+00	0	42	104	0	68	13172
2026-01-28 00:02:40.72	13.51	7.80	-48.5	-57.5	4.8	1.16e+00	0	43	104	0	68	10188
2026-01-28 00:02:43.70	13.45	8.04	-47.7	-54.3	6.8	2.27e-01	0	43	0	0	67	7468
2026-01-28 00:02:46.68	13.40	8.28	-46.7	-51.6	9.5	1.81e-02	0	43	0	0	65	6142
2026-01-28 00:02:49.65	13.34	8.52	-46.0	-50.1	11.1	2.06e-03	0	43	0	0	64	5479
2026-01-28 00:02:52.63	13.28	8.76	-45.8	-49.7	11.6	7.61e-04	0	43	0	0	63	5550
2026-01-28 00:02:55.61	13.22	9.00	-46.3	-50.7	10.5	3.29e-03	0	43	0	0	63	6228
2026-01-28 00:02:58.59	13.16	9.25	-47.0	-52.2	9.1	9.28e-04	0	43	0	0	64	7015
2026-01-28 00:03:01.57	13.09	9.50	-42.7	-45.1	16.1	0.00e+00	0	43	0	0	57	4624
2026-01-28 00:03:04.55	13.03	9.75	-41.6	-43.8	17.2	0.00e+00	0	43	0	0	55	4458
2026-01-28 00:03:07.53	12.96	10.01	-41.6	-43.7	17.3	0.00e+00	0	43	0	0	54	4695
2026-01-28 00:03:10.50	12.90	10.26	-41.4	-43.5	17.5	0.00e+00	0	43	0	0	54	4587
2026-01-28 00:03:13.48	12.83	10.52	-41.2	-43.3	17.7	0.00e+00	0	43	0	0	54	4459
2026-01-28 00:03:16.46	12.76	10.78	-41.3	-43.5	17.5	0.00e+00	0	43	0	0	54	4560
2026-01-28 00:03:19.44	12.69	11.05	-41.1	-43.2	17.8	0.00e+00	0	43	0	0	54	4412
2026-01-28 00:03:22.42	12.62	11.32	-40.9	-43.0	18.0	0.00e+00	0	43	0	0	53	4555
2026-01-28 00:03:25.40	12.54	11.59	-40.9	-43.0	18.1	0.00e+00	0	43	0	0	53	4559
2026-01-28 00:03:28.38	12.47	11.86	-40.9	-43.0	18.1	0.00e+00	0	43	0	0	53	4553
2026-01-28 00:03:31.36	12.39	12.14	-40.7	-42.8	18.3	0.00e+00	0	43	0	0	53	4449
2026-01-28 00:03:34.34	12.31	12.42	-40.6	-42.6	18.4	0.00e+00	0	43	0	0	53	4363
2026-01-28 00:03:37.32	12.23	12.70	-40.6	-42.6	18.5	0.00e+00	0	43	0	0	53	4361
2026-01-28 00:03:40.29	12.15	12.99	-40.6	-42.5	18.5	0.00e+00	0	43	0	0	52	4594
2026-01-28 00:03:43.27	12.06	13.28	-40.7	-42.7	18.4	0.00e+00	0	43	0	0	52	4683
2026-01-28 00:03:46.25	11.97	13.57	-40.7	-42.6	18.4	0.00e+00	0	43	0	0	52	4650
2026-01-28 00:03:49.23	11.89	13.87	-40.6	-42.6	18.5	0.00e+00	0	43	0	0	52	4643
2026-01-28 00:03:52.21	11.80	14.17	-40.6	-42.5	18.6	0.00e+00	0	43	0	0	52	4594
2026-01-28 00:03:55.19	11.70	14.47	-40.6	-42.6	18.5	0.00e+00	0	43	0	0	52	4636
2026-01-28 00:03:58.17	11.61	14.78	-40.7	-42.7	18.4	0.00e+00	0	43	0	0	52	4683
2026-01-28 00:04:01.15	11.51	15.09	-40.6	-42.5	18.6	0.00e+00	0	43	0	0	52	4594
2026-01-28 00:04:04.13	11.41	15.41	-40.6	-42.6	18.5	0.00e+00	0	43	0	0	52	4620
2026-01-28 00:04:07.10	11.31	15.73	-40.6	-42.6	18.6	0.00e+00	0	44	0	0	52	4613
2026-01-28 00:04:10.08	11.21	16.05	-40.6	-42.6	18.6	0.00e+00	0	43	0	0	52	4604
2026-01-28 00:04:13.06	11.10	16.38	-40.6	-42.5	18.6	0.00e+00	0	43	0	0	52	4598
2026-01-28 00:04:16.04	10.99	16.71	-40.7	-42.7	18.5	0.00e+00	0	44	0	0	52	4679
2026-01-28 00:04:19.02	10.88	17.05	-40.6	-42.5	18.7	0.00e+00	0	43	0	0	52	4576
2026-01-28 00:04:22.00	10.76	17.39	-40.6	-42.5	18.7	0.00e+00	0	43	0	0	52	4592
2026-01-28 00:04:24.98	10.64	17.74	-40.6	-42.6	18.7	0.00e+00	0	43	0	0	52	4606
2026-01-28 00:04:27.96	10.52	18.09	-40.7	-42.6	18.7	0.00e+00	0	43	0	0	52	4646
2026-01-28 00:04:30.93	10.40	18.44	-40.5	-42.5	18.8	0.00e+00	0	44	0	0	52	4550
2026-01-28 00:04:33.91	10.27	18.80	-40.6	-42.5	18.7	0.00e+00	0	44	0	0	52	4595
2026-01-28 00:04:36.89	10.14	19.17	-40.5	-42.4	18.9	0.00e+00	0	43	0	0	52	4515
2026-01-28 00:04:39.87	10.01	19.54	-40.4	-42.3	19.0	0.00e+00	0	44	0	0	52	4474
2026-01-28 00:04:42.85	9.87	19.92	-40.3	-42.1	19.1	0.00e+00	0	44	0	0	52	4391
2026-01-28 00:04:45.83	9.73	20.30	-40.2	-42.1	19.2	0.00e+00	0	44	0	0	52	4355
2026-01-28 00:04:48.80	9.58	20.69	-40.1	-41.9	19.3	0.00e+00	0	44	0	0	52	4266
2026-01-28 00:04:51.78	9.43	21.08	-40.0	-41.8	19.4	0.00e+00	0	44	0	0	51	4464
2026-01-28 00:04:54.76	9.28	21.48	-39.9	-41.7	19.5	0.00e+00	0	44	0	0	51	4419
2026-01-28 00:04:57.74	9.12	21.89	-39.9	-41.6	19.6	0.00e+00	0	44	0	0	51	4383
2026-01-28 00:05:00.72	8.96	22.30	-39.5	-41.3	19.9	0.00e+00	0	44	0	0	51	4212
2026-01-28 00:05:03.70	8.79	22.72	-39.3	-41.1	20.2	0.00e+00	0	44	0	0	50	4351
2026-01-28 00:05:06.68	8.62	23.15	-39.2	-40.9	20.4	0.00e+00	0	43	0	0	50	4287
2026-01-28 00:05:09.66	8.44	23.58	-39.1	-40.8	20.5	0.00e+00	0	43	0	0	50	4228
2026-01-28 00:05:12.63	8.26	24.02	-39.2	-40.8	20.5	0.00e+00	0	44	0	0	50	4229
2026-01-28 00:05:15.61	8.07	24.47	-39.1	-40.8	20.6	0.00e+00	0	43	0	0	50	4203
2026-01-28 00:05:18.59	7.88	24.92	-39.3	-41.0	20.4	0.00e+00	0	44	0	0	50	4306
2026-01-28 00:05:21.57	7.68	25.38	-39.6	-41.2	20.2	0.00e+00	0	44	0	0	50	4441
2026-01-28 00:05:24.55	7.47	25.85	-39.7	-41.4	20.0	0.00e+00	0	44	0	0	50	4532
2026-01-28 00:05:27.53	7.26	26.33	-39.9	-41.6	19.8	0.00e+00	0	44	0	0	50	4628
2026-01-28 00:05:30.51	7.04	26.82	-40.1	-41.8	19.7	0.00e+00	0	44	0	0	50	4730
2026-01-28 00:05:33.48	6.82	27.31	-40.2	-41.9	19.6	0.00e+00	0	44	0	0	51	4518
2026-01-28 00:05:36.46	6.58	27.82	-40.1	-41.9	19.6	0.00e+00	0	44	0	0	51	4506
2026-01-28 00:05:39.44	6.34	28.33	-40.2	-42.0	19.5	0.00e+00	0	44	0	0	51	4552
2026-01-28 00:05:42.42	6.09	28.85	-40.2	-42.0	19.4	0.00e+00	0	44	0	0	51	4574
2026-01-28 00:05:45.40	5.83	29.38	-40.4	-42.1	19.3	0.00e+00	0	43	0	0	51	4644
2026-01-28 00:05:48.38	5.56	29.92	-40.3	-42.1	19.3	0.00e+00	0	44	0	0	51	4640
2026-01-28 00:05:51.36	5.28	30.47	-40.3	-42.0	19.4	0.00e+00	0	44	0	0	51	4585
2026-01-28 00:05:54.34	5.00	31.03	-40.1	-41.9	19.5	0.00e+00	0	44	0	0	51	4505
2026-01-28 00:05:57.32	4.70	31.60	-40.1	-41.9	19.5	0.00e+00	0	44	0	0	51	4507
2026-01-28 00:06:00.29	4.39	32.17	-40.2	-42.0	19.4	0.00e+00	0	44	0	0	51	4581
2026-01-28 00:06:03.27	4.07	32.76	-40.5	-42.3	19.1	0.00e+00	0	44	0	0	51	4712
2026-01-28 00:06:06.25	3.73	33.37	-40.6	-42.5	19.0	0.00e+00	0	44	0	0	51	4823
2026-01-28 00:06:09.23	3.39	33.98	-40.7	-42.5	18.9	0.00e+00	0	44	0	0	52	4557
2026-01-28 00:06:12.21	3.02	34.60	-40.8	-42.7	18.7	0.00e+00	0	44	0	0	52	4681
2026-01-28 00:06:15.19	2.65	35.23	-41.1	-43.1	18.4	0.00e+00	0	44	0	0	52	4889
2026-01-28 00:06:18.17	2.26	35.88	-41.6	-43.6	17.9	0.00e+00	0	44	0	0	53	4886
2026-01-28 00:06:21.15	1.85	36.54	-42.0	-44.2	17.4	0.00e+00	0	44	0	0	54	4943
2026-01-28 00:06:24.12	1.43	37.20	-42.2	-44.4	17.2	0.00e+00	0	43	0	0	55	4793
2026-01-28 00:06:27.10	0.99	37.89	-42.1	-44.2	17.3	0.00e+00	0	44	0	0	55	4704
2026-01-28 00:06:30.08	0.52	38.58	-42.0	-44.0	17.6	0.00e+00	0	44	0	0	55	4555
2026-01-28 00:06:33.06	0.04	39.28	-41.9	-43.9	17.7	0.00e+00	0	44	0	0	55	4514
2026-01-28 00:06:36.04	359.53	40.00	-42.0	-44.1	17.5	0.00e+00	0	44	0	0	55	4621
2026-01-28 00:06:39.02	359.01	40.73	-41.4	-43.3	18.3	0.00e+00	0	44	0	0	54	4478
2026-01-28 00:06:42.00	358.45	41.47	-41.1	-43.0	18.6	0.00e+00	0	44	0	0	54	4293
2026-01-28 00:06:44.97	357.87	42.22	-41.8	-43.8	17.6	0.00e+00	0	44	0	0	54	4758
2026-01-28 00:06:47.95	357.26	42.99	-42.3	-44.4	17.1	0.00e+00	0	44	0	0	55	4808
2026-01-28 00:06:50.93	356.63	43.77	-42.3	-44.5	17.3	0.00e+00	0	44	0	0	55	4816
2026-01-28 00:06:53.91	355.95	44.56	-42.6	-44.8	16.9	0.00e+00	0	44	0	0	55	4999
2026-01-28 00:06:56.89	355.25	45.36	-42.9	-45.1	16.8	0.00e+00	0	44	0	0	56	4883
2026-01-28 00:06:59.87	354.50	46.17	-42.8	-45.0	16.9	0.00e+00	0	44	0	0	56	4857
2026-01-28 00:07:02.84	353.72	46.99	-42.3	-44.3	17.4	0.00e+00	0	44	0	0	56	4485
2026-01-28 00:07:05.82	352.89	47.83	-42.0	-44.0	17.8	0.00e+00	0	44	0	0	56	4321
2026-01-28 00:07:08.80	352.02	48.67	-41.2	-43.0	18.6	0.00e+00	0	44	0	0	54	4337
2026-01-28 00:07:11.78	351.09	49.52	-41.9	-43.9	17.8	0.00e+00	0	44	0	0	54	4789
2026-01-28 00:07:14.76	350.11	50.38	-41.9	-43.9	17.7	0.00e+00	0	44	0	0	54	4800
2026-01-28 00:07:17.74	349.08	51.24	-41.7	-43.6	18.0	0.00e+00	0	44	0	0	54	4623
2026-01-28 00:07:20.72	347.98	52.12	-41.8	-43.8	17.9	0.00e+00	0	44	0	0	54	4712
2026-01-28 00:07:23.70	346.81	52.99	-41.4	-43.4	18.3	0.00e+00	0	44	0	0	54	4526
2026-01-28 00:07:26.67	345.58	53.87	-41.5	-43.4	18.3	0.00e+00	0	44	0	0	54	4512
2026-01-28 00:07:29.65	344.26	54.75	-40.6	-42.4	19.2	0.00e+00	0	44	0	0	53	4262
2026-01-28 00:07:32.63	342.86	55.62	-40.0	-41.7	19.6	0.00e+00	0	44	0	0	51	4439
2026-01-28 00:07:35.61	341.36	56.50	-40.4	-42.2	19.4	0.00e+00	0	44	0	0	51	4695
2026-01-28 00:07:38.59	339.77	57.36	-39.9	-41.7	19.5	0.00e+00	0	44	0	0	51	4399
2026-01-28 00:07:41.57	338.08	58.22	-40.0	-41.8	19.6	0.00e+00	0	44	0	0	51	4442
2026-01-28 00:07:44.55	336.27	59.06	-39.9	-41.6	19.5	0.00e+00	0	44	0	0	51	4364
2026-01-28 00:07:47.53	334.34	59.89	-39.5	-41.2	20.3	0.00e+00	0	44	0	0	50	4416
2026-01-28 00:07:50.51	332.29	60.70	-39.5	-41.1	20.3	0.00e+00	0	44	0	0	50	4382
2026-01-28 00:07:53.48	330.11	61.48	-38.8	-40.5	21.0	0.00e+00	0	43	0	0	49	4299
2026-01-28 00:07:56.46	327.78	62.23	-39.0	-40.6	20.8	0.00e+00	0	44	0	0	49	4346
2026-01-28 00:07:59.44	325.30	62.95	-39.1	-40.7	20.6	0.00e+00	0	44	0	0	49	4417
2026-01-28 00:08:02.42	322.68	63.63	-38.9	-40.5	20.8	0.00e+00	0	44	0	0	49	4333
2026-01-28 00:08:05.40	319.91	64.26	-39.8	-41.5	20.0	0.00e+00	0	44	0	0	50	4584
2026-01-28 00:08:08.38	316.98	64.84	-39.1	-40.7	20.7	0.00e+00	0	44	0	0	49	4420
2026-01-28 00:08:11.36	313.91	65.36	-39.5	-41.2	20.2	0.00e+00	0	44	0	0	49	4685
2026-01-28 00:08:14.33	310.71	65.81	-39.1	-40.7	20.6	0.00e+00	0	44	0	0	49	4419
2026-01-28 00:08:17.31	307.37	66.20	-39.2	-40.8	20.7	0.00e+00	0	44	0	0	49	4482
2026-01-28 00:08:20.29	303.92	66.51	-38.6	-40.2	21.2	0.00e+00	0	44	0	0	49	4161
2026-01-28 00:08:23.27	300.38	66.75	-38.2	-39.7	21.5	0.00e+00	0	44	0	0	48	4192
2026-01-28 00:08:26.25	296.78	66.90	-38.8	-40.4	20.9	0.00e+00	0	44	0	0	48	4526
2026-01-28 00:08:29.23	293.14	66.96	-38.7	-40.3	21.0	0.00e+00	0	44	0	0	48	4443
2026-01-28 00:08:32.21	289.49	66.94	-38.8	-40.4	20.9	0.00e+00	0	44	0	0	49	4270
2026-01-28 00:08:35.19	285.86	66.84	-38.6	-40.2	21.0	0.00e+00	0	44	0	0	48	4400
2026-01-28 00:08:38.16	282.30	66.65	-39.3	-40.9	20.4	0.00e+00	0	44	0	0	49	4528
2026-01-28 00:08:41.14	278.79	66.38	-39.3	-41.0	20.5	0.00e+00	0	44	0	0	49	4549
2026-01-28 00:08:44.12	275.39	66.04	-38.8	-40.4	20.8	0.00e+00	0	44	0	0	49	4251
2026-01-28 00:08:47.10	272.10	65.62	-38.7	-40.2	21.0	0.00e+00	0	44	0	0	49	4188
2026-01-28 00:08:50.08	268.95	65.13	-38.9	-40.5	20.8	0.00e+00	0	44	0	0	49	4309
2026-01-28 00:08:53.06	265.94	64.58	-39.5	-41.2	20.1	0.00e+00	0	44	0	0	49	4665
2026-01-28 00:08:56.04	263.07	63.98	-39.1	-40.7	20.7	0.00e+00	0	44	0	0	50	4184
2026-01-28 00:08:59.02	260.36	63.33	-38.8	-40.4	21.0	0.00e+00	0	44	0	0	49	4273
2026-01-28 00:09:02.00	257.80	62.63	-39.4	-41.0	20.3	0.00e+00	0	44	0	0	49	4596
2026-01-28 00:09:04.97	255.40	61.90	-39.5	-41.2	20.1	0.00e+00	0	44	0	0	49	4684
2026-01-28 00:09:07.95	253.13	61.13	-39.2	-40.8	20.6	0.00e+00	0	44	0	0	49	4492
2026-01-28 00:09:10.93	251.00	60.33	-39.3	-41.0	20.3	0.00e+00	0	44	0	0	49	4566
2026-01-28 00:09:13.91	249.00	59.51	-39.4	-41.1	20.2	0.00e+00	0	44	0	0	49	4606
2026-01-28 00:09:16.89	247.12	58.67	-40.0	-41.7	19.6	0.00e+00	0	44	0	0	50	4662
2026-01-28 00:09:19.87	245.36	57.82	-39.2	-40.8	20.3	0.00e+00	0	44	0	0	49	4484
2026-01-28 00:09:22.85	243.71	56.96	-40.8	-42.6	18.9	0.00e+00	0	44	0	0	53	4366
2026-01-28 00:09:25.83	242.16	56.08	-39.6	-41.2	20.2	0.00e+00	0	44	0	0	50	4427
2026-01-28 00:09:28.80	240.71	55.21	-40.5	-42.2	19.3	0.00e+00	0	44	0	0	51	4695
2026-01-28 00:09:31.78	239.34	54.33	-41.6	-43.6	17.5	0.00e+00	0	44	0	0	54	4616
2026-01-28 00:09:34.76	238.06	53.44	-39.8	-41.5	19.5	0.00e+00	0	44	0	0	51	4308
2026-01-28 00:09:37.74	236.85	52.56	-40.9	-42.8	18.7	0.00e+00	0	44	0	0	52	4723
2026-01-28 00:09:40.72	235.71	51.69	-41.8	-43.8	17.8	0.00e+00	0	44	0	0	54	4709
2026-01-28 00:09:43.69	234.64	50.82	-41.0	-42.9	18.4	0.00e+00	0	44	0	0	54	4255
2026-01-28 00:09:46.67	233.63	49.95	-41.8	-43.8	17.7	0.00e+00	0	44	0	0	54	4733
2026-01-28 00:09:49.65	232.67	49.09	-42.5	-44.6	16.7	0.00e+00	0	44	0	0	55	4892
2026-01-28 00:09:52.63	231.77	48.24	-43.0	-45.2	16.2	0.00e+00	0	44	0	0	56	4930
2026-01-28 00:09:55.61	230.91	47.40	-42.3	-44.2	17.4	0.00e+00	0	44	0	0	56	4441
2026-01-28 00:09:58.59	230.10	46.57	-42.3	-44.4	17.1	0.00e+00	0	44	0	0	55	4787
2026-01-28 00:10:01.57	229.34	45.74	-42.8	-45.0	16.4	0.00e+00	0	44	0	0	57	4591
2026-01-28 00:10:04.54	228.61	44.94	-42.3	-44.4	17.4	0.00e+00	0	44	0	0	56	4496
2026-01-28 00:10:07.53	227.91	44.13	-42.0	-44.0	17.7	0.00e+00	0	44	0	0	56	4308
2026-01-28 00:10:10.51	227.25	43.35	-41.7	-43.6	18.0	0.00e+00	0	43	0	0	55	4368
2026-01-28 00:10:13.48	226.63	42.57	-43.2	-45.4	16.5	0.00e+00	0	44	0	0	56	5047
2026-01-28 00:10:16.46	226.03	41.81	-42.6	-44.7	16.6	0.00e+00	0	44	0	0	57	4436
2026-01-28 00:10:19.44	225.46	41.06	-41.7	-43.7	17.8	0.00e+00	0	44	0	0	55	4413
2026-01-28 00:10:22.42	224.92	40.32	-42.3	-44.3	17.3	0.00e+00	0	44	0	0	55	4746
2026-01-28 00:10:25.40	224.40	39.59	-41.8	-43.7	17.8	0.00e+00	0	44	0	0	55	4441
2026-01-28 00:10:28.38	223.90	38.88	-41.9	-43.9	17.6	0.00e+00	0	44	0	0	55	4535
2026-01-28 00:10:31.36	223.43	38.17	-42.4	-44.6	16.9	0.00e+00	0	44	0	0	55	4890
2026-01-28 00:10:34.33	222.97	37.48	-41.9	-43.9	17.5	0.00e+00	0	44	0	0	55	4538
2026-01-28 00:10:37.31	222.54	36.81	-41.3	-43.2	18.2	0.00e+00	0	44	0	0	54	4427
2026-01-28 00:10:40.29	222.12	36.14	-42.2	-44.2	17.4	0.00e+00	0	43	0	0	54	4957
2026-01-28 00:10:43.27	221.72	35.48	-42.4	-44.5	17.0	0.00e+00	0	44	0	0	55	4846
2026-01-28 00:10:46.25	221.33	34.84	-41.5	-43.5	17.9	0.00e+00	0	44	0	0	55	4300
2026-01-28 00:10:49.23	220.96	34.21	-41.1	-42.9	18.4	0.00e+00	0	44	0	0	54	4277
2026-01-28 00:10:52.20	220.60	33.59	-41.2	-43.0	18.4	0.00e+00	0	44	0	0	54	4328
2026-01-28 00:10:55.18	220.26	32.98	-41.0	-42.8	18.6	0.00e+00	0	44	0	0	53	4466
2026-01-28 00:10:58.16	219.93	32.38	-40.5	-42.3	19.1	0.00e+00	0	44	0	0	53	4238
2026-01-28 00:11:01.14	219.61	31.80	-40.6	-42.4	19.0	0.00e+00	0	44	0	0	52	4526
2026-01-28 00:11:04.12	219.31	31.22	-41.0	-42.9	18.6	0.00e+00	0	43	0	0	52	4772
2026-01-28 00:11:07.10	219.01	30.65	-40.8	-42.6	18.8	0.00e+00	0	44	0	0	52	4644
2026-01-28 00:11:10.08	218.73	30.09	-40.3	-42.0	19.3	0.00e+00	0	44	0	0	52	4315
2026-01-28 00:11:13.05	218.45	29.55	-39.9	-41.6	19.6	0.00e+00	0	44	0	0	51	4374
2026-01-28 00:11:16.03	218.19	29.01	-39.8	-41.5	19.6	0.00e+00	0	44	0	0	51	4319
2026-01-28 00:11:19.01	217.93	28.48	-40.0	-41.7	19.5	0.00e+00	0	44	0	0	51	4437
2026-01-28 00:11:21.99	217.68	27.96	-40.0	-41.8	19.6	0.00e+00	0	44	0	0	51	4447
2026-01-28 00:11:24.97	217.44	27.45	-40.0	-41.7	19.7	0.00e+00	0	44	0	0	51	4423
2026-01-28 00:11:27.95	217.21	26.95	-40.1	-41.8	19.6	0.00e+00	0	44	0	0	51	4482
2026-01-28 00:11:30.93	216.98	26.46	-40.1	-41.9	19.4	0.00e+00	0	44	0	0	51	4511
2026-01-28 00:11:33.91	216.76	25.97	-40.0	-41.8	19.5	0.00e+00	0	44	0	0	51	4468
2026-01-28 00:11:36.88	216.55	25.50	-39.9	-41.6	19.7	0.00e+00	0	44	0	0	51	4367
2026-01-28 00:11:39.86	216.35	25.03	-39.4	-41.1	20.1	0.00e+00	0	44	0	0	50	4369
2026-01-28 00:11:42.84	216.15	24.57	-39.4	-41.0	20.2	0.00e+00	0	44	0	0	50	4330
2026-01-28 00:11:45.82	215.96	24.12	-39.6	-41.3	20.0	0.00e+00	0	44	0	0	50	4455
2026-01-28 00:11:48.80	215.77	23.67	-39.7	-41.4	19.9	0.00e+00	0	44	0	0	50	4500
2026-01-28 00:11:51.78	215.59	23.23	-39.7	-41.4	19.8	0.00e+00	0	44	0	0	50	4502
2026-01-28 00:11:54.76	215.41	22.80	-39.8	-41.5	19.7	0.00e+00	0	44	0	0	50	4580
2026-01-28 00:11:57.74	215.24	22.38	-39.9	-41.6	19.6	0.00e+00	0	44	0	0	50	4619
2026-01-28 00:12:00.71	215.07	21.96	-39.9	-41.7	19.5	0.00e+00	0	44	0	0	50	4668
2026-01-28 00:12:03.69	214.91	21.55	-39.9	-41.6	19.6	0.00e+00	0	44	0	0	50	4646
2026-01-28 00:12:06.67	214.75	21.14	-39.8	-41.5	19.7	0.00e+00	0	44	0	0	50	4564
2026-01-28 00:12:09.65	214.60	20.75	-39.8	-41.5	19.7	0.00e+00	0	44	0	0	50	4577
2026-01-28 00:12:12.63	214.45	20.35	-39.7	-41.4	19.8	0.00e+00	0	44	0	0	50	4533
2026-01-28 00:12:15.61	214.30	19.97	-39.9	-41.7	19.6	0.00e+00	0	44	0	0	50	4652
2026-01-28 00:12:18.59	214.16	19.58	-40.0	-41.8	19.4	0.00e+00	0	44	0	0	50	4739
2026-01-28 00:12:21.57	214.02	19.21	-40.2	-42.0	19.3	0.00e+00	0	44	0	0	50	4827
2026-01-28 00:12:24.54	213.89	18.84	-40.3	-42.2	19.1	0.00e+00	0	44	0	0	51	4658
2026-01-28 00:12:27.52	213.76	18.47	-40.3	-42.1	19.1	0.00e+00	0	44	0	0	51	4649
2026-01-28 00:12:30.50	213.63	18.11	-40.4	-42.2	19.0	0.00e+00	0	44	0	0	51	4671
2026-01-28 00:12:33.48	213.50	17.76	-40.4	-42.3	18.9	0.00e+00	0	44	0	0	51	4721
2026-01-28 00:12:36.46	213.38	17.41	-40.5	-42.4	18.9	0.00e+00	0	44	0	0	51	4762
2026-01-28 00:12:39.43	213.26	17.07	-40.6	-42.4	18.8	0.00e+00	0	44	0	0	51	4780
2026-01-28 00:12:42.41	213.15	16.73	-40.6	-42.4	18.7	0.00e+00	0	44	0	0	52	4518
2026-01-28 00:12:45.39	213.03	16.39	-40.8	-42.7	18.4	0.00e+00	0	44	0	0	52	4695
2026-01-28 00:12:48.37	212.92	16.06	-40.7	-42.6	18.5	0.00e+00	0	44	0	0	52	4619
2026-01-28 00:12:51.35	212.81	15.73	-40.8	-42.7	18.4	0.00e+00	0	44	0	0	52	4683
2026-01-28 00:12:54.33	212.71	15.41	-40.8	-42.7	18.4	0.00e+00	0	44	0	0	52	4679
2026-01-28 00:12:57.31	212.61	15.09	-40.8	-42.8	18.3	0.00e+00	0	44	0	0	52	4713
2026-01-28 00:13:00.29	212.50	14.77	-40.8	-42.7	18.4	0.00e+00	0	44	0	0	52	4681
2026-01-28 00:13:03.27	212.41	14.46	-40.6	-42.5	18.5	0.00e+00	0	44	0	0	52	4570
2026-01-28 00:13:06.25	212.31	14.16	-40.7	-42.6	18.5	0.00e+00	0	44	0	0	52	4608
2026-01-28 00:13:09.23	212.22	13.85	-40.6	-42.5	18.5	0.00e+00	0	44	0	0	52	4572
2026-01-28 00:13:12.20	212.12	13.55	-40.8	-42.6	18.4	0.00e+00	0	44	0	0	52	4646
2026-01-28 00:13:15.18	212.03	13.26	-40.7	-42.6	18.4	0.00e+00	0	44	0	0	52	4611
2026-01-28 00:13:18.16	211.94	12.97	-40.8	-42.6	18.4	0.00e+00	0	44	0	0	52	4651
2026-01-28 00:13:21.14	211.86	12.68	-40.8	-42.7	18.3	0.00e+00	0	44	0	0	52	4654
2026-01-28 00:13:24.12	211.77	12.39	-40.9	-42.8	18.2	0.00e+00	0	44	0	0	52	4715
2026-01-28 00:13:27.10	211.69	12.11	-40.9	-42.8	18.2	0.00e+00	0	44	0	0	52	4714
2026-01-28 00:13:30.08	211.61	11.83	-40.7	-42.6	18.3	0.00e+00	0	44	0	0	52	4645
2026-01-28 00:13:33.06	211.53	11.55	-40.7	-42.6	18.4	0.00e+00	0	44	0	0	52	4617
2026-01-28 00:13:36.03	211.45	11.28	-40.7	-42.6	18.3	0.00e+00	0	44	0	0	52	4647
2026-01-28 00:13:39.01	211.38	11.01	-40.8	-42.7	18.2	0.00e+00	0	44	0	0	52	4680
2026-01-28 00:13:41.99	211.30	10.74	-40.9	-42.9	18.1	0.00e+00	0	44	0	0	52	4760
2026-01-28 00:13:44.97	211.23	10.48	-40.9	-42.9	18.0	0.00e+00	0	44	0	0	52	4788
2026-01-28 00:13:47.95	211.16	10.22	-40.9	-42.9	18.0	0.00e+00	0	44	0	0	52	4813
2026-01-28 00:13:50.93	211.09	9.96	-41.0	-43.0	17.9	0.00e+00	0	44	0	0	52	4841
2026-01-28 00:13:53.91	211.02	9.70	-41.3	-43.3	17.6	0.00e+00	0	44	0	0	53	4714
2026-01-28 00:13:56.89	210.95	9.45	-41.4	-43.5	17.5	0.00e+00	0	44	0	0	53	4817
2026-01-28 00:13:59.86	210.88	9.20	-41.5	-43.6	17.2	0.00e+00	0	44	0	0	54	4637
2026-01-28 00:14:02.84	210.82	8.95	-47.3	-52.6	9.1	0.00e+00	0	44	0	0	64	7295
2026-01-28 00:14:05.82	210.75	8.70	-44.6	-61.2	3.8	1.49e+00	0	44	104	0	61	23406
2026-01-28 00:14:08.80	210.69	8.46	-49.4	-62.5	3.8	1.49e+00	0	44	104	0	69	17215
2026-01-28 00:14:11.78	210.63	8.21	-49.6	-62.6	3.8	1.49e+00	0	44	104	0	69	17407
2026-01-28 00:14:14.76	210.57	7.97	-49.6	-62.6	3.8	1.49e+00	0	44	104	0	69	17473
2026-01-28 00:14:17.74	210.51	7.74	-49.4	-62.6	3.8	1.49e+00	0	44	104	0	69	17388
2026-01-28 00:14:20.72	210.45	7.50	-49.4	-62.6	3.8	1.49e+00	0	44	104	0	69	17478
2026-01-28 00:14:23.69	210.39	7.27	-49.2	-62.7	3.8	1.49e+00	0	44	104	0	69	17499
2026-01-28 00:14:26.68	210.34	7.04	-49.5	-62.6	3.8	1.49e+00	0	44	104	0	69	17454
2026-01-28 00:14:29.65	210.28	6.81	-49.4	-62.5	3.8	1.49e+00	0	44	104	0	69	17225
2026-01-28 00:14:32.63	210.23	6.58	-49.3	-62.5	3.8	1.49e+00	0	44	104	0	69	17178
2026-01-28 00:14:35.61	210.17	6.36	-49.4	-62.5	3.8	1.49e+00	0	44	104	0	69	17158
2026-01-28 00:14:38.59	210.12	6.14	-49.3	-62.5	3.8	1.49e+00	0	44	104	0	69	17126
2026-01-28 00:14:41.57	210.07	5.91	-49.3	-62.5	3.8	1.49e+00	0	44	104	0	69	17154
2026-01-28 00:14:44.55	210.02	5.69	-49.3	-62.5	3.8	1.49e+00	0	44	104	0	69	17154
2026-01-28 00:14:47.53	209.97	5.48	-49.3	-62.5	3.8	1.49e+00	0	44	104	0	69	17179
2026-01-28 00:14:50.51	209.92	5.26	-49.3	-62.5	3.8	1.49e+00	0	44	104	0	69	17172
2026-01-28 00:14:53.48	209.87	5.05	-49.3	-62.5	3.8	1.49e+00	0	44	104	0	69	17123

#Closed at: 2026-01-28 00:14:55
#Recorded file [0 MB]: D:/Data/31040_260128_030204.dat