passes_logs/2026/01/28/T1/T1__20260128_162525_FENGYUN_3E_rec.log

#Pass ID: 20260128_162525_FENGYUN 3E
#Satellite: FENGYUN 3E
#Configuration: FENGYUN 3E
#almurnet v.1.7.20251203
#Start time: 2026-01-28 16:25:25

#Version: 2.0.20230620
#Station: T1
#Location: 37.570604 lon 55.790049 lat
#TLE: 1 49008U 21062A   26027.83084825  .00000170  00000+0  10081-3 0  9997
#TLE: 2 49008  98.7501  32.8098 0002509 114.2687 245.8752 14.19888158236667

#Time	Az	El	Level	Level2	SNR	BER	BlckErr	Temp	State	Recorded	gain1	gain2
2026-01-28 16:25:25.81	237.34	4.99	-50.1	-61.2	3.8	8.48e-01	0	41	0	0	70	13073
2026-01-28 16:25:28.79	237.70	5.12	-50.7	-61.4	3.8	8.46e-01	0	42	104	0	71	12556
2026-01-28 16:25:31.77	238.07	5.25	-50.4	-61.4	3.8	8.46e-01	0	42	104	0	71	12601
2026-01-28 16:25:34.75	238.44	5.38	-50.7	-61.4	3.8	8.46e-01	0	42	104	0	71	12616
2026-01-28 16:25:37.72	238.80	5.51	-50.4	-61.3	3.8	8.47e-01	0	42	104	0	71	12467
2026-01-28 16:25:40.70	239.18	5.64	-50.2	-61.3	3.8	8.46e-01	0	42	104	0	71	12394
2026-01-28 16:25:43.68	239.55	5.77	-50.0	-61.0	3.8	8.47e-01	0	42	104	0	70	12807
2026-01-28 16:25:46.66	239.93	5.90	-49.5	-60.7	3.8	8.48e-01	0	42	104	0	69	13011
2026-01-28 16:25:49.64	240.32	6.02	-49.5	-60.6	3.8	8.45e-01	0	43	104	0	69	12928
2026-01-28 16:25:52.62	240.70	6.15	-49.4	-60.6	3.8	8.47e-01	0	42	104	0	69	12820
2026-01-28 16:25:55.60	241.09	6.28	-49.4	-60.6	3.8	8.47e-01	0	43	104	0	69	12833
2026-01-28 16:25:58.58	241.48	6.40	-49.4	-60.6	3.8	8.47e-01	0	43	104	0	69	12830
2026-01-28 16:26:01.56	241.88	6.53	-49.4	-60.6	3.8	8.47e-01	0	43	104	0	69	12955
2026-01-28 16:26:04.54	242.28	6.65	-49.4	-60.6	3.8	8.46e-01	0	43	104	0	69	12910
2026-01-28 16:26:07.52	242.68	6.78	-49.4	-60.6	3.8	8.46e-01	0	43	104	0	69	12827
2026-01-28 16:26:10.49	243.09	6.90	-49.4	-60.3	3.8	8.47e-01	0	43	104	0	69	12486
2026-01-28 16:26:13.47	243.50	7.03	-49.4	-60.2	3.8	8.48e-01	0	43	104	0	69	12326
2026-01-28 16:26:16.45	243.91	7.15	-49.4	-60.2	3.8	8.47e-01	0	43	104	0	69	12327
2026-01-28 16:26:19.43	244.33	7.27	-49.3	-60.3	3.8	8.48e-01	0	43	104	0	69	12493
2026-01-28 16:26:22.41	244.74	7.39	-49.4	-60.5	3.8	8.47e-01	0	43	104	0	69	12680
2026-01-28 16:26:25.39	245.17	7.51	-49.3	-60.4	3.8	8.47e-01	0	43	104	0	69	12629
2026-01-28 16:26:28.37	245.59	7.63	-49.3	-60.6	3.8	8.47e-01	0	43	104	0	69	12886
2026-01-28 16:26:31.35	246.02	7.75	-49.3	-60.3	3.8	8.46e-01	0	43	104	0	69	12455
2026-01-28 16:26:34.32	246.45	7.87	-49.3	-60.5	3.8	8.47e-01	0	43	104	0	69	12667
2026-01-28 16:26:37.30	246.89	7.99	-49.3	-60.2	3.8	8.47e-01	0	43	104	0	69	12266
2026-01-28 16:26:40.28	247.33	8.10	-49.2	-59.6	3.8	8.46e-01	0	43	104	0	69	11509
2026-01-28 16:26:43.26	247.77	8.22	-49.3	-59.8	3.8	8.46e-01	0	44	104	0	69	11772
2026-01-28 16:26:46.24	248.22	8.33	-49.2	-60.0	3.8	8.46e-01	0	44	104	0	69	11982
2026-01-28 16:26:49.22	248.67	8.45	-49.1	-58.8	3.8	8.46e-01	0	44	104	0	69	10440
2026-01-28 16:26:52.20	249.12	8.56	-48.9	-57.1	4.2	8.37e-01	0	44	0	0	68	9105
2026-01-28 16:26:55.18	249.58	8.67	-46.5	-50.0	9.2	4.52e-02	0	44	0	6291456	63	5363
2026-01-28 16:26:58.15	250.04	8.78	-40.9	-42.2	17.0	0.00e+00	0	44	0	27262976	52	4116
2026-01-28 16:27:01.13	250.50	8.89	-40.3	-41.6	17.7	0.00e+00	0	44	0	49283072	50	4295
2026-01-28 16:27:04.11	250.97	9.00	-44.0	-46.0	13.3	4.50e-06	0	44	0	70254592	57	4791
2026-01-28 16:27:07.09	251.44	9.11	-48.2	-53.8	5.7	2.24e-01	0	44	0	92274688	65	7408
2026-01-28 16:27:10.07	251.91	9.21	-47.9	-52.9	6.4	5.86e-02	0	44	0	113246208	65	6688
2026-01-28 16:27:13.04	252.39	9.32	-39.3	-40.4	18.9	0.00e+00	0	44	0	134217728	49	3994
2026-01-28 16:27:16.02	252.87	9.42	-38.9	-39.9	19.4	0.00e+00	0	44	0	156237824	48	3983
2026-01-28 16:27:19.00	253.35	9.52	-38.8	-39.8	19.5	0.00e+00	0	44	0	177209344	48	3942
2026-01-28 16:27:21.98	253.84	9.62	-38.7	-39.8	19.6	0.00e+00	0	44	0	199229440	48	3914
2026-01-28 16:27:24.96	254.33	9.72	-38.9	-39.9	19.4	0.00e+00	0	44	0	220200960	48	3988
2026-01-28 16:27:27.94	254.82	9.82	-39.0	-40.1	19.3	0.00e+00	0	44	0	242221056	48	4062
2026-01-28 16:27:30.92	255.32	9.91	-38.8	-39.9	19.4	0.00e+00	0	44	0	264241152	48	3970
2026-01-28 16:27:33.89	255.81	10.01	-38.6	-39.7	19.6	0.00e+00	0	44	0	285212672	48	3874
2026-01-28 16:27:36.87	256.32	10.10	-38.5	-39.5	19.5	0.00e+00	0	44	0	307232768	47	4043
2026-01-28 16:27:39.85	256.82	10.19	-38.5	-39.6	19.5	0.00e+00	0	44	0	328204288	47	4064
2026-01-28 16:27:42.83	257.33	10.28	-38.5	-39.5	19.5	0.00e+00	0	44	0	350224384	47	4046
2026-01-28 16:27:45.81	257.84	10.37	-38.4	-39.4	19.6	0.00e+00	0	44	0	371195904	47	3973
2026-01-28 16:27:48.79	258.36	10.46	-38.1	-39.1	19.9	0.00e+00	0	44	0	393216000	47	3847
2026-01-28 16:27:51.77	258.87	10.54	-38.1	-39.1	19.9	0.00e+00	0	44	0	414187520	46	4094
2026-01-28 16:27:54.74	259.39	10.62	-38.4	-39.4	19.6	0.00e+00	0	44	0	436207616	46	4225
2026-01-28 16:27:57.72	259.91	10.71	-38.5	-39.5	19.5	0.00e+00	0	44	0	457179136	46	4280
2026-01-28 16:28:00.70	260.44	10.78	-38.5	-39.6	19.5	0.00e+00	0	44	0	478150656	46	4292
2026-01-28 16:28:03.68	260.97	10.86	-38.2	-39.2	19.9	0.00e+00	0	44	0	500170752	46	4108
2026-01-28 16:28:06.66	261.50	10.94	-38.3	-39.3	19.8	0.00e+00	0	44	0	521142272	46	4156
2026-01-28 16:28:09.64	262.03	11.01	-38.6	-39.6	19.5	0.00e+00	0	44	0	543162368	46	4333
2026-01-28 16:28:12.62	262.57	11.08	-38.4	-39.5	19.6	0.00e+00	0	44	0	565182464	46	4246
2026-01-28 16:28:15.59	263.11	11.15	-38.3	-39.3	19.7	0.00e+00	0	44	0	586153984	46	4182
2026-01-28 16:28:18.57	263.65	11.22	-38.4	-39.4	19.6	0.00e+00	0	44	0	608174080	46	4242
2026-01-28 16:28:21.55	264.19	11.28	-38.4	-39.4	19.7	0.00e+00	0	44	0	629145600	46	4211
2026-01-28 16:28:24.53	264.74	11.35	-38.3	-39.3	19.8	0.00e+00	0	44	0	651165696	46	4162
2026-01-28 16:28:27.51	265.28	11.41	-38.1	-39.1	20.0	0.00e+00	0	44	0	672137216	46	4077
2026-01-28 16:28:30.49	265.83	11.46	-38.0	-39.0	20.1	0.00e+00	0	44	0	694157312	46	4020
2026-01-28 16:28:33.47	266.39	11.52	-38.1	-39.1	20.0	0.00e+00	0	44	0	715128832	46	4058
2026-01-28 16:28:36.45	266.94	11.58	-38.1	-39.1	19.9	0.00e+00	0	44	0	737148928	46	4087
2026-01-28 16:28:39.42	267.50	11.63	-38.1	-39.0	20.0	0.00e+00	0	44	0	758120448	46	4044
2026-01-28 16:28:42.40	268.05	11.68	-37.9	-38.9	20.2	0.00e+00	0	44	0	780140544	46	3967
2026-01-28 16:28:45.38	268.61	11.72	-37.7	-38.7	20.4	0.00e+00	0	44	0	801112064	46	3880
2026-01-28 16:28:48.36	269.17	11.77	-37.9	-38.8	20.2	0.00e+00	0	44	0	823132160	46	3949
2026-01-28 16:28:51.34	269.74	11.81	-37.9	-38.9	20.2	0.00e+00	0	44	0	844103680	46	3988
2026-01-28 16:28:54.32	270.30	11.85	-37.9	-38.8	20.2	0.00e+00	0	44	0	866123776	46	3953
2026-01-28 16:28:57.30	270.87	11.89	-37.9	-38.8	20.2	0.00e+00	0	44	0	887095296	46	3957
2026-01-28 16:29:00.28	271.43	11.92	-37.9	-38.9	20.2	0.00e+00	0	44	0	909115392	46	3968
2026-01-28 16:29:03.26	272.00	11.96	-37.8	-38.8	20.3	0.00e+00	0	44	0	930086912	46	3920
2026-01-28 16:29:06.24	272.57	11.99	-38.0	-39.0	20.1	0.00e+00	0	44	0	952107008	46	4011
2026-01-28 16:29:09.22	273.14	12.01	-38.0	-39.0	20.1	0.00e+00	0	44	0	973078528	46	4037
2026-01-28 16:29:12.20	273.72	12.04	-38.0	-39.0	20.1	0.00e+00	0	44	0	995098624	46	4043
2026-01-28 16:29:15.17	274.29	12.06	-37.9	-38.9	20.2	0.00e+00	0	44	0	1016070144	46	3984
2026-01-28 16:29:18.15	274.86	12.08	-37.9	-38.9	20.2	0.00e+00	0	44	0	1038090240	46	3971
2026-01-28 16:29:21.13	275.43	12.10	-38.0	-39.0	20.1	0.00e+00	0	44	0	1059061760	46	4025
2026-01-28 16:29:24.11	276.01	12.11	-38.4	-39.4	19.7	0.00e+00	0	44	0	1081081856	46	4224
2026-01-28 16:29:27.09	276.58	12.12	-38.2	-39.2	19.9	0.00e+00	0	44	0	1102053376	46	4130
2026-01-28 16:29:30.07	277.16	12.13	-37.9	-38.9	20.2	0.00e+00	0	44	0	1124073472	46	3981
2026-01-28 16:29:33.05	277.73	12.14	-38.0	-39.0	20.1	0.00e+00	0	44	0	1145044992	46	4017
2026-01-28 16:29:36.03	278.31	12.14	-38.1	-39.1	20.0	0.00e+00	0	44	0	1167065088	46	4084
2026-01-28 16:29:39.01	278.88	12.15	-37.9	-38.9	20.1	0.00e+00	0	44	0	1188036608	46	3998
2026-01-28 16:29:41.99	279.46	12.15	-38.0	-39.0	20.1	0.00e+00	0	44	0	1210056704	46	4029
2026-01-28 16:29:44.97	280.04	12.14	-37.9	-38.9	20.2	0.00e+00	0	44	0	1232076800	46	3971
2026-01-28 16:29:47.94	280.61	12.14	-38.0	-39.0	20.1	0.00e+00	0	44	0	1253048320	46	4032
2026-01-28 16:29:50.92	281.18	12.13	-38.0	-39.0	20.1	0.00e+00	0	44	0	1274019840	46	4041
2026-01-28 16:29:53.90	281.76	12.12	-38.0	-39.0	20.1	0.00e+00	0	44	0	1296039936	46	4018
2026-01-28 16:29:56.88	282.33	12.10	-38.0	-39.0	20.1	0.00e+00	0	44	0	1317011456	46	4030
2026-01-28 16:29:59.86	282.91	12.09	-38.0	-39.0	20.1	0.00e+00	0	44	0	1339031552	46	4025
2026-01-28 16:30:02.84	283.48	12.07	-38.3	-39.3	19.8	0.00e+00	0	44	0	1360003072	46	4153
2026-01-28 16:30:05.82	284.05	12.05	-38.2	-39.2	19.9	0.00e+00	0	44	0	1382023168	46	4105
2026-01-28 16:30:08.80	284.62	12.02	-38.1	-39.2	19.9	0.00e+00	0	44	0	1402994688	46	4099
2026-01-28 16:30:11.77	285.19	11.99	-38.2	-39.2	19.9	0.00e+00	0	44	0	1425014784	46	4126
2026-01-28 16:30:14.75	285.76	11.97	-38.1	-39.1	19.9	0.00e+00	0	44	0	1445986304	46	4077
2026-01-28 16:30:17.73	286.33	11.93	-38.2	-39.2	19.9	0.00e+00	0	44	0	1468006400	46	4117
2026-01-28 16:30:20.71	286.90	11.90	-38.3	-39.3	19.8	0.00e+00	0	44	0	1488977920	46	4158
2026-01-28 16:30:23.69	287.46	11.86	-38.2	-39.2	19.9	0.00e+00	0	44	0	1510998016	46	4099
2026-01-28 16:30:26.67	288.03	11.82	-38.3	-39.3	19.8	0.00e+00	0	44	0	1533018112	46	4160
2026-01-28 16:30:29.65	288.59	11.78	-38.2	-39.2	19.8	0.00e+00	0	44	0	1553989632	46	4122
2026-01-28 16:30:32.63	289.15	11.74	-38.3	-39.3	19.7	0.00e+00	0	44	0	1576009728	46	4160
2026-01-28 16:30:35.61	289.71	11.69	-38.3	-39.3	19.7	0.00e+00	0	44	0	1596981248	46	4156
2026-01-28 16:30:38.58	290.26	11.64	-38.3	-39.3	19.6	0.00e+00	0	44	0	1619001344	46	4190
2026-01-28 16:30:41.56	290.82	11.59	-38.5	-39.5	19.5	0.00e+00	0	44	0	1639972864	46	4263
2026-01-28 16:30:44.54	291.37	11.54	-38.8	-39.8	19.2	0.00e+00	0	44	0	1660944384	47	4177
2026-01-28 16:30:47.52	291.92	11.49	-38.9	-39.9	19.1	0.00e+00	0	44	0	1682964480	47	4241
2026-01-28 16:30:50.50	292.47	11.43	-38.8	-39.9	19.2	0.00e+00	0	44	0	1703936000	47	4200
2026-01-28 16:30:53.48	293.02	11.37	-38.8	-39.8	19.2	0.00e+00	0	44	0	1725956096	47	4175
2026-01-28 16:30:56.45	293.56	11.31	-38.7	-39.7	19.3	0.00e+00	0	44	0	1746927616	47	4121
2026-01-28 16:30:59.43	294.11	11.24	-38.8	-39.9	19.1	0.00e+00	0	44	0	1768947712	47	4217
2026-01-28 16:31:02.41	294.65	11.18	-38.9	-39.9	19.1	0.00e+00	0	44	0	1789919232	47	4234
2026-01-28 16:31:05.39	295.18	11.11	-39.1	-40.3	18.7	0.00e+00	0	44	0	1811939328	47	4396
2026-01-28 16:31:08.37	295.72	11.04	-39.2	-40.3	18.8	0.00e+00	0	44	0	1833959424	47	4402
2026-01-28 16:31:11.34	296.25	10.97	-39.0	-40.1	18.9	0.00e+00	0	44	0	1854930944	47	4309
2026-01-28 16:31:14.32	296.78	10.89	-39.2	-40.2	18.8	0.00e+00	0	44	0	1876951040	47	4386
2026-01-28 16:31:17.30	297.31	10.82	-39.2	-40.3	18.7	0.00e+00	0	44	0	1897922560	47	4429
2026-01-28 16:31:20.28	297.83	10.74	-39.6	-40.6	18.6	0.00e+00	0	44	0	1919942656	48	4339
2026-01-28 16:31:23.26	298.35	10.66	-39.7	-40.8	18.4	0.00e+00	0	44	0	1940914176	48	4413
2026-01-28 16:31:26.23	298.87	10.58	-39.7	-40.8	18.4	0.00e+00	0	44	0	1962934272	49	4150
2026-01-28 16:31:29.21	299.39	10.49	-39.7	-40.8	18.5	0.00e+00	0	44	0	1983905792	49	4149
2026-01-28 16:31:32.19	299.90	10.41	-39.5	-40.6	18.7	0.00e+00	0	44	0	2005925888	49	4052
2026-01-28 16:31:35.17	300.41	10.32	-39.6	-40.7	18.5	0.00e+00	0	44	0	2026897408	49	4136
2026-01-28 16:31:38.15	300.92	10.23	-39.5	-40.6	18.6	0.00e+00	0	44	0	2047868928	49	4076
2026-01-28 16:31:41.13	301.42	10.14	-39.6	-40.7	18.5	0.00e+00	0	44	0	2069889024	49	4124
2026-01-28 16:31:44.11	301.93	10.05	-39.8	-40.9	18.3	0.00e+00	0	44	0	2090860544	49	4236
2026-01-28 16:31:47.09	302.42	9.96	-39.9	-41.0	18.2	0.00e+00	0	44	0	2112880640	49	4269
2026-01-28 16:31:50.07	302.92	9.86	-39.9	-41.0	18.2	0.00e+00	0	44	0	2134900736	49	4275
2026-01-28 16:31:53.04	303.41	9.77	-40.0	-41.2	18.0	0.00e+00	0	44	0	2155872256	49	4344
2026-01-28 16:31:56.02	303.90	9.67	-39.9	-41.1	18.1	0.00e+00	0	44	0	2177892352	49	4300
2026-01-28 16:31:59.00	304.38	9.57	-39.9	-41.1	18.1	0.00e+00	0	44	0	2198863872	49	4296
2026-01-28 16:32:01.98	304.87	9.47	-39.9	-40.9	18.2	0.00e+00	0	44	0	2220883968	49	4241
2026-01-28 16:32:04.96	305.35	9.37	-39.9	-41.0	18.2	0.00e+00	0	44	0	2241855488	49	4278
2026-01-28 16:32:07.94	305.82	9.26	-40.0	-41.2	18.1	0.00e+00	0	44	0	2263875584	49	4343
2026-01-28 16:32:10.92	306.29	9.16	-40.2	-41.3	17.9	0.00e+00	0	44	0	2284847104	49	4440
2026-01-28 16:32:13.90	306.76	9.05	-40.3	-41.5	17.7	0.00e+00	0	44	0	2306867200	50	4270
2026-01-28 16:32:16.88	307.23	8.95	-49.4	-60.2	3.8	8.47e-01	0	44	104	2321547264	68	13083
2026-01-28 16:32:19.86	307.69	8.84	-49.6	-60.4	3.8	8.46e-01	0	44	104	2321547264	68	13373
2026-01-28 16:32:22.84	308.15	8.73	-49.5	-60.5	3.8	8.46e-01	0	44	104	2321547264	69	12755
2026-01-28 16:32:25.81	308.61	8.62	-49.5	-60.4	3.8	8.47e-01	0	44	104	2321547264	69	12625
2026-01-28 16:32:28.79	309.06	8.51	-49.5	-60.5	3.8	8.46e-01	0	44	104	2321547264	69	12675
2026-01-28 16:32:31.77	309.51	8.40	-49.5	-60.5	3.8	8.47e-01	0	44	104	2321547264	69	12758
2026-01-28 16:32:34.75	309.95	8.28	-49.5	-60.4	3.8	8.48e-01	0	44	104	2321547264	69	12655
2026-01-28 16:32:37.73	310.40	8.17	-49.5	-60.5	3.8	8.46e-01	0	44	104	2321547264	69	12711
2026-01-28 16:32:40.71	310.83	8.06	-49.5	-60.5	3.8	8.46e-01	0	44	104	2321547264	69	12687
2026-01-28 16:32:43.69	311.27	7.94	-49.5	-60.4	3.8	8.47e-01	0	44	104	2321547264	69	12661
2026-01-28 16:32:46.67	311.70	7.82	-49.5	-60.4	3.8	8.47e-01	0	44	104	2321547264	69	12659
2026-01-28 16:32:49.65	312.13	7.71	-49.5	-60.5	3.8	8.48e-01	0	44	104	2321547264	69	12685
2026-01-28 16:32:52.62	312.56	7.59	-49.5	-60.4	3.8	8.47e-01	0	44	104	2321547264	69	12662
2026-01-28 16:32:55.60	312.98	7.47	-49.5	-60.4	3.8	8.47e-01	0	44	104	2321547264	69	12618
2026-01-28 16:32:58.58	313.40	7.35	-49.4	-60.4	3.8	8.45e-01	0	44	104	2321547264	69	12659
2026-01-28 16:33:01.56	313.81	7.23	-49.5	-60.4	3.8	8.47e-01	0	44	104	2321547264	69	12597
2026-01-28 16:33:04.54	314.23	7.11	-49.5	-60.4	3.8	8.46e-01	0	44	104	2321547264	69	12633
2026-01-28 16:33:07.52	314.63	6.98	-49.5	-60.4	3.8	8.46e-01	0	44	104	2321547264	69	12600
2026-01-28 16:33:10.50	315.04	6.86	-49.5	-60.5	3.8	8.47e-01	0	44	104	2321547264	69	12665
2026-01-28 16:33:13.48	315.44	6.74	-49.5	-60.4	3.8	8.45e-01	0	44	104	2321547264	69	12622
2026-01-28 16:33:16.45	315.84	6.62	-49.5	-60.4	3.8	8.46e-01	0	44	104	2321547264	69	12564
2026-01-28 16:33:19.43	316.24	6.49	-49.5	-60.4	3.8	8.47e-01	0	44	104	2321547264	69	12653
2026-01-28 16:33:22.41	316.63	6.37	-49.5	-60.4	3.8	8.46e-01	0	44	104	2321547264	69	12657
2026-01-28 16:33:25.39	317.02	6.24	-49.5	-60.4	3.8	8.48e-01	0	44	104	2321547264	69	12641
2026-01-28 16:33:28.37	317.40	6.12	-49.5	-60.4	3.8	8.47e-01	0	44	104	2321547264	69	12604
2026-01-28 16:33:31.35	317.79	5.99	-49.5	-60.4	3.8	8.46e-01	0	44	104	2321547264	69	12656
2026-01-28 16:33:34.33	318.17	5.86	-49.5	-60.4	3.8	8.47e-01	0	44	104	2321547264	69	12602
2026-01-28 16:33:37.31	318.54	5.74	-49.5	-60.5	3.8	8.47e-01	0	44	104	2321547264	69	12692
2026-01-28 16:33:40.29	318.92	5.61	-49.5	-60.5	3.8	8.47e-01	0	44	104	2321547264	69	12676
2026-01-28 16:33:43.27	319.29	5.48	-49.5	-60.4	3.8	8.46e-01	0	44	104	2321547264	69	12649
2026-01-28 16:33:46.25	319.65	5.35	-49.5	-60.4	3.8	8.48e-01	0	44	104	2321547264	69	12640
2026-01-28 16:33:49.22	320.02	5.23	-49.5	-60.4	3.8	8.47e-01	0	44	104	2321547264	69	12621
2026-01-28 16:33:52.20	320.38	5.10	-49.5	-60.4	3.8	8.47e-01	0	44	104	2321547264	69	12570
2026-01-28 16:33:55.18	320.74	4.97	-49.5	-60.4	3.8	8.46e-01	0	44	104	2321547264	69	12625

#Closed at: 2026-01-28 16:33:56
#Recorded file [2321 MB]: D:/Data/31040_260128_192525.dat