passes_logs/2026/01/28/T1/T1__20260128_090306_NOAA_20_JPSS-1_rec.log

#Pass ID: 20260128_090306_NOAA 20 (JPSS-1)
#Satellite: NOAA 20 (JPSS-1)
#Configuration: NOAA 20
#almurnet v.1.7.20251203
#Start time: 2026-01-28 09:03:08

#Version: 2.0.20230620
#Station: T1
#Location: 37.570604 lon 55.790049 lat
#TLE: 1 43013U 17073A   26027.80586608  .00000156  00000+0  94940-4 0  9998
#TLE: 2 43013  98.7647 328.6108 0000947  21.3465 338.7750 14.19541216424550

#Time	Az	El	Level	Level2	SNR	BER	BlckErr	Temp	State	Recorded	gain1	gain2
2026-01-28 09:03:08.98	132.58	5.15	-49.6	-65.1	3.8	1.49e+00	0	41	0	0	70	21787
2026-01-28 09:03:11.96	132.45	5.35	-49.7	-65.1	3.8	1.49e+00	0	41	104	0	71	20633
2026-01-28 09:03:14.95	132.31	5.56	-49.7	-65.0	3.8	1.49e+00	0	41	104	0	70	21751
2026-01-28 09:03:17.93	132.17	5.77	-49.5	-64.9	3.8	1.49e+00	0	41	104	0	70	21465
2026-01-28 09:03:20.92	132.02	5.98	-49.6	-64.8	3.8	1.49e+00	0	41	104	0	70	21187
2026-01-28 09:03:23.90	131.88	6.19	-49.4	-64.6	3.8	1.49e+00	0	42	104	0	70	20620
2026-01-28 09:03:26.88	131.73	6.40	-49.0	-64.0	3.8	1.49e+00	0	42	104	0	70	19288
2026-01-28 09:03:29.86	131.58	6.62	-49.0	-64.2	3.8	1.49e+00	0	42	104	0	70	19709
2026-01-28 09:03:32.85	131.43	6.84	-49.0	-64.2	3.8	1.49e+00	0	42	104	0	70	19683
2026-01-28 09:03:35.84	131.27	7.06	-48.9	-63.9	3.8	1.49e+00	0	42	104	0	69	20075
2026-01-28 09:03:38.82	131.11	7.28	-48.9	-63.6	3.8	1.49e+00	0	42	104	0	69	19434
2026-01-28 09:03:41.80	130.95	7.50	-48.7	-60.4	4.3	1.40e+00	0	42	0	0	69	13489
2026-01-28 09:03:44.79	130.79	7.72	-47.6	-54.6	8.2	1.45e-01	0	42	0	5242880	67	7742
2026-01-28 09:03:47.77	130.63	7.95	-46.0	-50.3	12.7	3.86e-04	0	42	0	10485760	63	5977
2026-01-28 09:03:50.76	130.46	8.18	-44.8	-48.3	14.7	0.00e+00	0	42	0	15728640	61	5330
2026-01-28 09:03:53.74	130.29	8.41	-44.8	-48.3	14.8	0.00e+00	0	42	0	22020096	61	5305
2026-01-28 09:03:56.72	130.11	8.64	-46.0	-50.4	12.7	3.58e-05	0	42	0	27262976	62	6369
2026-01-28 09:03:59.72	129.94	8.87	-47.7	-54.9	7.9	5.30e-02	0	42	0	32505856	65	9060
2026-01-28 09:04:02.69	129.76	9.10	-46.2	-50.8	11.9	1.13e+00	0	42	0	38797312	64	5981
2026-01-28 09:04:05.68	129.58	9.34	-47.0	-52.4	10.3	1.35e+00	0	42	0	41943040	66	6419
2026-01-28 09:04:08.66	129.39	9.58	-46.8	-52.1	10.9	1.76e-03	0	43	0	44040192	65	6505
2026-01-28 09:04:11.64	129.20	9.82	-46.2	-50.8	12.3	3.32e-04	0	43	0	50331648	64	5941
2026-01-28 09:04:14.62	129.01	10.06	-46.0	-50.3	12.7	1.16e-04	0	43	0	55574528	64	5655
2026-01-28 09:04:17.61	128.82	10.31	-46.1	-50.5	12.7	5.18e-05	0	43	0	60817408	63	6092
2026-01-28 09:04:20.60	128.62	10.56	-45.2	-48.9	14.4	2.20e-06	0	43	0	67108864	62	5365
2026-01-28 09:04:23.59	128.41	10.81	-44.3	-47.5	15.8	0.00e+00	0	43	0	72351744	60	5131
2026-01-28 09:04:26.57	128.21	11.06	-44.1	-47.3	15.9	0.00e+00	0	43	0	77594624	60	5020
2026-01-28 09:04:29.55	128.00	11.31	-44.2	-47.4	15.9	0.00e+00	0	43	0	83886080	60	5073
2026-01-28 09:04:32.54	127.79	11.57	-43.8	-46.7	16.5	0.00e+00	0	43	0	89128960	59	4977
2026-01-28 09:04:35.52	127.57	11.82	-43.7	-46.5	16.7	0.00e+00	0	43	0	94371840	59	4862
2026-01-28 09:04:38.50	127.35	12.08	-43.9	-46.8	16.5	0.00e+00	0	43	0	100663296	59	5029
2026-01-28 09:04:41.49	127.12	12.35	-44.0	-46.9	16.4	0.00e+00	0	43	0	105906176	59	5083
2026-01-28 09:04:44.47	126.89	12.61	-43.6	-46.3	17.0	0.00e+00	0	43	0	111149056	59	4733
2026-01-28 09:04:47.45	126.66	12.88	-43.3	-45.9	17.4	0.00e+00	0	43	0	117440512	58	4813
2026-01-28 09:04:50.43	126.42	13.15	-43.8	-46.7	16.7	0.00e+00	0	43	0	122683392	58	5228
2026-01-28 09:04:53.42	126.18	13.42	-43.9	-46.8	16.6	0.00e+00	0	43	0	127926272	58	5293
2026-01-28 09:04:56.41	125.93	13.70	-43.4	-46.0	17.3	0.00e+00	0	43	0	134217728	58	4851
2026-01-28 09:04:59.38	125.68	13.98	-43.3	-45.9	17.4	0.00e+00	0	43	0	139460608	58	4814
2026-01-28 09:05:02.37	125.42	14.26	-43.8	-46.7	16.7	0.00e+00	0	43	0	144703488	58	5258
2026-01-28 09:05:05.36	125.16	14.54	-43.6	-46.3	17.1	0.00e+00	0	43	0	150994944	58	5014
2026-01-28 09:05:08.34	124.89	14.83	-43.2	-45.8	17.6	0.00e+00	0	43	0	156237824	58	4707
2026-01-28 09:05:11.32	124.62	15.12	-43.5	-46.3	17.1	0.00e+00	0	43	0	161480704	58	4997
2026-01-28 09:05:14.32	124.34	15.41	-43.2	-45.8	17.6	0.00e+00	0	43	0	167772160	58	4724
2026-01-28 09:05:17.30	124.06	15.70	-42.8	-45.3	18.1	0.00e+00	0	43	0	173015040	57	4743
2026-01-28 09:05:20.28	123.77	16.00	-43.2	-45.8	17.6	0.00e+00	0	43	0	178257920	57	5023
2026-01-28 09:05:23.27	123.47	16.30	-43.2	-45.8	17.6	0.00e+00	0	43	0	184549376	57	5022
2026-01-28 09:05:26.25	123.17	16.60	-43.1	-45.6	17.8	0.00e+00	0	43	0	189792256	57	4896
2026-01-28 09:05:29.25	122.86	16.91	-43.2	-45.8	17.6	0.00e+00	0	43	0	195035136	57	4996
2026-01-28 09:05:32.23	122.55	17.22	-43.0	-45.5	17.9	0.00e+00	0	43	0	201326592	57	4868
2026-01-28 09:05:35.21	122.23	17.53	-43.2	-45.8	17.7	0.00e+00	0	43	0	206569472	57	4989
2026-01-28 09:05:38.19	121.90	17.84	-43.0	-45.6	17.9	0.00e+00	0	43	0	211812352	57	4876
2026-01-28 09:05:41.16	121.57	18.16	-43.2	-45.9	17.6	0.00e+00	0	43	0	218103808	57	5042
2026-01-28 09:05:44.14	121.22	18.48	-43.1	-45.7	17.8	0.00e+00	0	43	0	223346688	57	4936
2026-01-28 09:05:47.12	120.88	18.81	-43.1	-45.6	17.9	0.00e+00	0	43	0	228589568	57	4894
2026-01-28 09:05:50.10	120.52	19.13	-43.1	-45.7	17.8	0.00e+00	0	44	0	234881024	57	4929
2026-01-28 09:05:53.08	120.15	19.46	-43.1	-45.6	17.9	0.00e+00	0	43	0	240123904	57	4906
2026-01-28 09:05:56.07	119.78	19.80	-43.3	-46.0	17.5	0.00e+00	0	43	0	245366784	57	5106
2026-01-28 09:05:59.05	119.40	20.13	-43.0	-45.5	17.9	0.00e+00	0	43	0	251658240	57	4860
2026-01-28 09:06:02.03	119.01	20.47	-43.2	-45.8	17.7	0.00e+00	0	43	0	256901120	57	5036
2026-01-28 09:06:05.01	118.61	20.82	-43.3	-45.9	17.6	0.00e+00	0	43	0	262144000	57	5091
2026-01-28 09:06:07.99	118.20	21.16	-43.4	-46.0	17.5	0.00e+00	0	43	0	268435456	57	5157
2026-01-28 09:06:10.98	117.78	21.51	-43.4	-46.0	17.5	0.00e+00	0	43	0	273678336	57	5148
2026-01-28 09:06:13.97	117.35	21.87	-43.5	-46.2	17.3	0.00e+00	0	43	0	278921216	57	5273
2026-01-28 09:06:16.96	116.92	22.22	-43.5	-46.1	17.4	0.00e+00	0	43	0	285212672	58	4923
2026-01-28 09:06:19.95	116.47	22.58	-43.6	-46.3	17.3	0.00e+00	0	43	0	290455552	58	5011
2026-01-28 09:06:22.95	116.00	22.95	-43.5	-46.2	17.4	0.00e+00	0	43	0	295698432	58	4939
2026-01-28 09:06:25.94	115.53	23.31	-43.6	-46.2	17.4	0.00e+00	0	43	0	301989888	58	4945
2026-01-28 09:06:28.94	115.05	23.68	-43.4	-46.0	17.6	0.00e+00	0	43	0	307232768	58	4851
2026-01-28 09:06:31.92	114.56	24.06	-43.5	-46.2	17.4	0.00e+00	0	43	0	312475648	58	4957
2026-01-28 09:06:34.91	114.05	24.43	-43.4	-46.0	17.6	0.00e+00	0	43	0	318767104	58	4841
2026-01-28 09:06:37.90	113.53	24.81	-43.3	-46.0	17.6	0.00e+00	0	43	0	324009984	58	4838
2026-01-28 09:06:40.90	113.00	25.19	-43.4	-46.1	17.5	0.00e+00	0	43	0	329252864	58	4882
2026-01-28 09:06:43.89	112.46	25.57	-43.6	-46.4	17.3	0.00e+00	0	43	0	335544320	58	5053
2026-01-28 09:06:46.88	111.90	25.96	-43.8	-46.6	17.1	0.00e+00	0	43	0	340787200	58	5168
2026-01-28 09:06:49.87	111.33	26.35	-43.9	-46.7	17.0	0.00e+00	0	43	0	346030080	58	5229
2026-01-28 09:06:52.85	110.74	26.74	-44.2	-47.0	16.5	0.00e+00	0	43	0	352321536	59	5154
2026-01-28 09:06:55.85	110.14	27.14	-44.5	-47.5	16.1	0.00e+00	0	43	0	357564416	59	5448
2026-01-28 09:06:58.84	109.53	27.53	-44.8	-47.9	15.7	0.00e+00	0	43	0	363855872	60	5389
2026-01-28 09:07:01.84	108.89	27.93	-45.2	-48.5	15.2	0.00e+00	0	43	0	369098752	61	5420
2026-01-28 09:07:04.82	108.25	28.33	-45.1	-48.4	15.2	0.00e+00	0	43	0	374341632	61	5386
2026-01-28 09:07:07.81	107.58	28.73	-45.3	-48.7	15.0	7.00e-07	0	44	0	380633088	61	5550
2026-01-28 09:07:10.80	106.90	29.13	-45.2	-48.6	15.2	0.00e+00	0	44	0	385875968	61	5477
2026-01-28 09:07:13.79	106.20	29.54	-45.2	-48.5	15.2	0.00e+00	0	43	0	391118848	61	5443
2026-01-28 09:07:16.78	105.49	29.94	-45.3	-48.7	15.0	0.00e+00	0	43	0	397410304	61	5560
2026-01-28 09:07:19.77	104.75	30.34	-45.3	-48.7	15.1	0.00e+00	0	43	0	402653184	61	5540
2026-01-28 09:07:22.77	104.00	30.75	-45.8	-49.5	14.3	2.20e-06	0	43	0	407896064	62	5739
2026-01-28 09:07:25.76	103.22	31.16	-46.2	-50.0	13.7	2.20e-06	0	43	0	414187520	62	6121
2026-01-28 09:07:28.75	102.43	31.56	-45.6	-49.1	14.6	1.50e-06	0	44	0	419430400	62	5493
2026-01-28 09:07:31.74	101.62	31.96	-45.2	-48.5	15.2	0.00e+00	0	43	0	424673280	62	5121
2026-01-28 09:07:34.75	100.78	32.37	-44.7	-47.8	16.0	0.00e+00	0	43	0	430964736	61	5030
2026-01-28 09:07:37.74	99.93	32.77	-44.9	-48.0	15.7	0.00e+00	0	43	0	436207616	61	5159
2026-01-28 09:07:40.73	99.05	33.17	-44.8	-47.9	15.8	0.00e+00	0	43	0	441450496	61	5082
2026-01-28 09:07:43.73	98.15	33.57	-45.2	-48.6	15.2	0.00e+00	0	44	0	447741952	61	5476
2026-01-28 09:07:46.72	97.23	33.96	-45.1	-48.3	15.5	0.00e+00	0	44	0	452984832	61	5325
2026-01-28 09:07:49.72	96.29	34.35	-45.5	-49.0	14.7	0.00e+00	0	43	0	458227712	61	5767
2026-01-28 09:07:52.70	95.33	34.73	-45.3	-48.6	15.1	0.00e+00	0	43	0	464519168	62	5216
2026-01-28 09:07:55.70	94.34	35.12	-45.7	-49.4	14.4	0.00e+00	0	43	0	469762048	62	5678
2026-01-28 09:07:58.69	93.33	35.49	-46.1	-49.9	13.8	2.20e-06	0	43	0	476053504	62	6034
2026-01-28 09:08:01.69	92.29	35.86	-46.1	-50.1	13.6	6.80e-06	0	43	0	481296384	63	5844
2026-01-28 09:08:04.68	91.23	36.22	-45.5	-49.0	14.8	7.00e-07	0	43	0	486539264	62	5421
2026-01-28 09:08:07.68	90.15	36.58	-45.4	-48.8	15.0	0.00e+00	0	43	0	492830720	62	5302
2026-01-28 09:08:10.68	89.04	36.93	-45.1	-48.6	15.2	0.00e+00	0	44	0	498073600	61	5465
2026-01-28 09:08:13.67	87.91	37.26	-45.2	-48.8	14.9	0.00e+00	0	44	0	503316480	61	5637
2026-01-28 09:08:16.67	86.75	37.59	-44.8	-48.2	15.6	0.00e+00	0	44	0	509607936	61	5255
2026-01-28 09:08:19.67	85.57	37.91	-44.0	-47.0	16.8	0.00e+00	0	44	0	514850816	60	4850
2026-01-28 09:08:22.67	84.37	38.22	-43.7	-46.4	17.3	0.00e+00	0	44	0	520093696	59	4802
2026-01-28 09:08:25.66	83.15	38.51	-43.6	-46.4	17.3	0.00e+00	0	43	0	526385152	59	4801
2026-01-28 09:08:28.65	81.91	38.80	-43.5	-46.2	17.6	0.00e+00	0	44	0	531628032	58	4942
2026-01-28 09:08:31.65	80.64	39.06	-43.2	-45.7	18.0	0.00e+00	0	43	0	536870912	58	4690
2026-01-28 09:08:34.65	79.36	39.32	-43.0	-45.5	18.3	0.00e+00	0	44	0	543162368	57	4815
2026-01-28 09:08:37.65	78.05	39.56	-42.7	-45.1	18.5	0.00e+00	0	43	0	548405248	57	4637
2026-01-28 09:08:40.64	76.73	39.78	-42.8	-45.2	18.5	0.00e+00	0	43	0	554696704	57	4672
2026-01-28 09:08:43.64	75.38	39.99	-42.8	-45.3	18.4	0.00e+00	0	44	0	559939584	57	4706
2026-01-28 09:08:46.64	74.02	40.18	-42.5	-44.8	18.8	0.00e+00	0	43	0	565182464	57	4481
2026-01-28 09:08:49.63	72.65	40.36	-42.2	-44.5	19.2	0.00e+00	0	44	0	571473920	56	4546
2026-01-28 09:08:52.63	71.26	40.51	-42.5	-44.8	18.9	0.00e+00	0	43	0	576716800	56	4743
2026-01-28 09:08:55.63	69.86	40.65	-42.4	-44.8	18.9	0.00e+00	0	43	0	581959680	56	4712
2026-01-28 09:08:58.62	68.45	40.77	-42.5	-44.8	18.9	0.00e+00	0	43	0	588251136	56	4756
2026-01-28 09:09:01.62	67.03	40.86	-42.7	-45.1	18.7	0.00e+00	0	44	0	593494016	56	4899
2026-01-28 09:09:04.61	65.60	40.94	-42.7	-45.1	18.6	0.00e+00	0	43	0	598736896	56	4906
2026-01-28 09:09:07.60	64.17	41.00	-43.6	-46.2	17.5	0.00e+00	0	44	0	605028352	57	5269
2026-01-28 09:09:10.58	62.74	41.04	-43.7	-46.3	17.5	0.00e+00	0	43	0	610271232	57	5309
2026-01-28 09:09:13.57	61.30	41.05	-44.2	-47.0	16.8	0.00e+00	0	43	0	615514112	59	5118
2026-01-28 09:09:16.56	59.86	41.05	-44.3	-47.2	16.6	0.00e+00	0	43	0	621805568	59	5260
2026-01-28 09:09:19.55	58.43	41.03	-45.3	-48.6	15.3	0.00e+00	0	43	0	627048448	61	5492
2026-01-28 09:09:22.54	56.99	40.98	-44.7	-47.8	16.0	0.00e+00	0	43	0	632291328	61	5002
2026-01-28 09:09:25.53	55.56	40.92	-45.9	-49.6	14.3	1.50e-06	0	43	0	638582784	62	5817
2026-01-28 09:09:28.52	54.14	40.84	-46.4	-50.4	13.4	1.44e-05	0	43	0	643825664	63	6060
2026-01-28 09:09:31.52	52.72	40.73	-46.5	-50.8	13.1	1.14e-05	0	44	0	649068544	63	6294
2026-01-28 09:09:34.52	51.31	40.61	-46.6	-50.9	12.9	2.59e-05	0	44	0	655360000	63	6360
2026-01-28 09:09:37.51	49.92	40.47	-46.1	-49.9	13.8	3.80e-06	0	44	0	660602880	63	5692
2026-01-28 09:09:40.50	48.54	40.31	-45.4	-48.8	15.0	0.00e+00	0	44	0	666894336	62	5335
2026-01-28 09:09:43.50	47.17	40.13	-43.8	-46.5	17.2	0.00e+00	0	43	0	672137216	59	4827
2026-01-28 09:09:46.49	45.82	39.93	-43.7	-46.4	17.4	0.00e+00	0	44	0	677380096	59	4777
2026-01-28 09:09:49.48	44.49	39.72	-42.6	-45.0	18.7	0.00e+00	0	43	0	683671552	57	4567
2026-01-28 09:09:52.48	43.17	39.49	-42.2	-44.5	19.2	0.00e+00	0	44	0	688914432	56	4577
2026-01-28 09:09:55.48	41.87	39.25	-42.2	-44.5	19.1	0.00e+00	0	44	0	694157312	56	4594
2026-01-28 09:09:58.47	40.60	38.99	-41.5	-43.7	19.8	0.00e+00	0	44	0	700448768	54	4689
2026-01-28 09:10:01.47	39.34	38.72	-41.4	-43.6	19.9	0.00e+00	0	44	0	705691648	54	4614
2026-01-28 09:10:04.46	38.11	38.43	-41.5	-43.7	19.8	0.00e+00	0	44	0	710934528	54	4675
2026-01-28 09:10:07.46	36.89	38.13	-41.5	-43.7	19.8	0.00e+00	0	44	0	717225984	54	4663
2026-01-28 09:10:10.46	35.70	37.82	-41.7	-43.9	19.6	0.00e+00	0	43	0	722468864	54	4773
2026-01-28 09:10:13.45	34.54	37.51	-42.0	-44.3	19.2	0.00e+00	0	43	0	728760320	54	4991
2026-01-28 09:10:16.44	33.40	37.18	-42.0	-44.4	19.1	0.00e+00	0	44	0	734003200	54	5066
2026-01-28 09:10:19.44	32.27	36.84	-42.0	-44.4	19.1	0.00e+00	0	43	0	739246080	55	4761
2026-01-28 09:10:22.44	31.18	36.49	-42.1	-44.4	19.0	0.00e+00	0	44	0	745537536	55	4793
2026-01-28 09:10:25.43	30.11	36.13	-42.3	-44.7	18.8	0.00e+00	0	44	0	750780416	55	4959
2026-01-28 09:10:28.43	29.05	35.77	-42.3	-44.7	18.8	0.00e+00	0	44	0	756023296	55	4962
2026-01-28 09:10:31.43	28.03	35.40	-42.6	-45.1	18.4	0.00e+00	0	43	0	762314752	55	5171
2026-01-28 09:10:34.43	27.02	35.02	-43.0	-45.6	18.1	0.00e+00	0	43	0	767557632	56	5164
2026-01-28 09:10:37.42	26.05	34.64	-43.8	-46.7	17.0	0.00e+00	0	44	0	772800512	58	5246
2026-01-28 09:10:40.42	25.09	34.25	-43.7	-46.6	17.1	0.00e+00	0	44	0	779091968	58	5166
2026-01-28 09:10:43.42	24.16	33.86	-44.0	-46.9	16.8	0.00e+00	0	44	0	784334848	58	5380
2026-01-28 09:10:46.42	23.24	33.47	-44.4	-47.5	16.2	0.00e+00	0	44	0	789577728	59	5439
2026-01-28 09:10:49.41	22.36	33.08	-44.7	-47.9	15.8	0.00e+00	0	43	0	795869184	60	5382
2026-01-28 09:10:52.41	21.49	32.68	-45.1	-48.5	15.2	0.00e+00	0	44	0	801112064	60	5751
2026-01-28 09:10:55.41	20.64	32.28	-44.9	-48.2	15.5	0.00e+00	0	44	0	807403520	60	5550
2026-01-28 09:10:58.40	19.82	31.88	-45.4	-48.9	14.8	7.00e-07	0	43	0	812646400	61	5686
2026-01-28 09:11:01.39	19.01	31.47	-45.2	-48.6	15.1	0.00e+00	0	43	0	817889280	61	5483
2026-01-28 09:11:04.39	18.23	31.07	-45.3	-48.8	15.0	7.00e-07	0	43	0	824180736	61	5603
2026-01-28 09:11:07.38	17.47	30.67	-44.8	-48.2	15.5	0.00e+00	0	44	0	829423616	61	5230
2026-01-28 09:11:10.38	16.72	30.26	-44.8	-48.1	15.6	0.00e+00	0	43	0	834666496	61	5196
2026-01-28 09:11:13.36	16.00	29.86	-44.3	-47.5	16.2	0.00e+00	0	44	0	840957952	60	5117
2026-01-28 09:11:16.36	15.29	29.46	-44.0	-47.2	16.5	0.00e+00	0	43	0	846200832	60	4949
2026-01-28 09:11:19.36	14.59	29.05	-44.0	-47.0	16.6	0.00e+00	0	44	0	851443712	59	5157
2026-01-28 09:11:22.35	13.92	28.65	-43.8	-46.5	17.1	0.00e+00	0	44	0	857735168	59	4860
2026-01-28 09:11:25.35	13.26	28.25	-43.8	-46.6	17.0	0.00e+00	0	44	0	862978048	59	4905
2026-01-28 09:11:28.34	12.62	27.86	-43.6	-46.5	17.1	0.00e+00	0	43	0	868220928	59	4840
2026-01-28 09:11:31.34	12.00	27.46	-43.5	-46.4	17.3	0.00e+00	0	43	0	874512384	58	5057
2026-01-28 09:11:34.33	11.39	27.07	-43.4	-46.1	17.5	0.00e+00	0	44	0	879755264	58	4902
2026-01-28 09:11:37.32	10.80	26.68	-43.7	-46.5	17.1	0.00e+00	0	44	0	884998144	58	5141
2026-01-28 09:11:40.32	10.22	26.29	-43.8	-46.7	16.9	0.00e+00	0	43	0	891289600	58	5246
2026-01-28 09:11:43.31	9.65	25.90	-43.6	-46.4	17.2	0.00e+00	0	43	0	896532480	58	5079
2026-01-28 09:11:46.31	9.10	25.51	-43.6	-46.3	17.3	0.00e+00	0	43	0	902823936	58	5027
2026-01-28 09:11:49.30	8.56	25.13	-44.0	-46.7	16.9	0.00e+00	0	44	0	908066816	58	5274
2026-01-28 09:11:52.30	8.04	24.75	-44.2	-47.1	16.5	0.00e+00	0	44	0	913309696	59	5173
2026-01-28 09:11:55.30	7.52	24.38	-44.1	-47.1	16.5	0.00e+00	0	44	0	919601152	59	5196
2026-01-28 09:11:58.29	7.03	24.00	-43.8	-46.7	16.8	0.00e+00	0	43	0	924844032	59	4977
2026-01-28 09:12:01.29	6.54	23.63	-43.8	-46.7	16.9	0.00e+00	0	44	0	930086912	59	4957
2026-01-28 09:12:04.28	6.06	23.27	-43.7	-46.6	17.0	0.00e+00	0	44	0	936378368	59	4883
2026-01-28 09:12:07.27	5.60	22.90	-43.5	-46.3	17.3	0.00e+00	0	44	0	941621248	58	5007
2026-01-28 09:12:10.26	5.14	22.54	-43.8	-46.7	16.9	0.00e+00	0	44	0	946864128	58	5242
2026-01-28 09:12:13.25	4.70	22.19	-44.1	-47.1	16.5	0.00e+00	0	44	0	953155584	59	5197
2026-01-28 09:12:16.25	4.27	21.83	-44.0	-47.2	16.4	0.00e+00	0	44	0	958398464	59	5254
2026-01-28 09:12:19.24	3.84	21.48	-43.9	-47.2	16.4	0.00e+00	0	43	0	963641344	59	5244
2026-01-28 09:12:22.24	3.43	21.13	-43.9	-46.9	16.7	0.00e+00	0	44	0	969932800	59	5063
2026-01-28 09:12:25.23	3.03	20.79	-43.7	-46.6	17.0	0.00e+00	0	43	0	975175680	59	4886
2026-01-28 09:12:28.22	2.63	20.44	-43.7	-46.6	17.0	0.00e+00	0	43	0	980418560	59	4895
2026-01-28 09:12:31.21	2.25	20.11	-43.8	-46.8	16.8	0.00e+00	0	43	0	986710016	59	4997
2026-01-28 09:12:34.20	1.87	19.77	-43.9	-46.8	16.7	0.00e+00	0	44	0	991952896	59	5006
2026-01-28 09:12:37.19	1.50	19.44	-43.8	-46.8	16.7	0.00e+00	0	44	0	998244352	59	5005
2026-01-28 09:12:40.17	1.14	19.11	-43.7	-46.6	16.8	0.00e+00	0	44	0	1003487232	59	4915
2026-01-28 09:12:43.17	0.79	18.79	-43.6	-46.4	17.0	0.00e+00	0	44	0	1008730112	59	4812
2026-01-28 09:12:46.15	0.44	18.46	-43.8	-46.7	16.7	0.00e+00	0	43	0	1015021568	59	4975
2026-01-28 09:12:49.14	0.11	18.14	-43.5	-46.5	17.0	0.00e+00	0	44	0	1020264448	59	4865
2026-01-28 09:12:52.13	359.78	17.83	-43.7	-46.9	16.4	0.00e+00	0	43	0	1025507328	59	5060
2026-01-28 09:12:55.12	359.45	17.52	-44.0	-47.2	15.6	0.00e+00	0	44	0	1031798784	59	5276
2026-01-28 09:12:58.12	359.13	17.20	-44.0	-47.2	15.4	0.00e+00	0	44	0	1037041664	59	5246
2026-01-28 09:13:01.11	358.83	16.90	-43.7	-46.9	16.1	0.00e+00	0	43	0	1042284544	59	5093
2026-01-28 09:13:04.11	358.52	16.59	-43.7	-46.9	16.4	0.00e+00	0	43	0	1048576000	59	5060
2026-01-28 09:13:07.10	358.22	16.29	-44.0	-47.1	16.2	0.00e+00	0	44	0	1053818880	59	5185
2026-01-28 09:13:10.09	357.93	15.99	-44.1	-47.1	15.9	0.00e+00	0	44	0	1059061760	59	5190
2026-01-28 09:13:13.08	357.65	15.70	-44.1	-47.2	15.8	0.00e+00	0	43	0	1065353216	59	5276
2026-01-28 09:13:16.07	357.37	15.40	-44.0	-47.2	15.3	0.00e+00	0	44	0	1070596096	59	5269
2026-01-28 09:13:19.05	357.09	15.12	-44.2	-47.3	15.8	0.00e+00	0	44	0	1075838976	59	5327
2026-01-28 09:13:22.05	356.83	14.83	-44.1	-47.4	14.2	0.00e+00	0	44	0	1082130432	59	5397
2026-01-28 09:13:25.04	356.56	14.54	-43.3	-47.3	10.1	4.08e-03	0	43	0	1087373312	58	5594
2026-01-28 09:13:28.04	356.30	14.26	-43.7	-47.3	12.1	3.84e-04	0	43	0	1092616192	58	5603
2026-01-28 09:13:31.03	356.05	13.98	-44.2	-47.4	14.8	0.00e+00	0	44	0	1098907648	59	5362
2026-01-28 09:13:34.02	355.80	13.70	-44.2	-47.6	14.1	2.20e-06	0	43	0	1104150528	59	5478
2026-01-28 09:13:37.01	355.56	13.43	-44.3	-47.7	15.0	0.00e+00	0	44	0	1109393408	59	5545
2026-01-28 09:13:40.01	355.32	13.16	-44.3	-47.8	15.4	0.00e+00	0	44	0	1115684864	59	5595
2026-01-28 09:13:43.00	355.09	12.89	-43.8	-47.4	15.6	0.00e+00	0	44	0	1120927744	59	5397
2026-01-28 09:13:45.99	354.86	12.62	-43.4	-47.3	15.8	0.00e+00	0	44	0	1127219200	58	5647
2026-01-28 09:13:48.98	354.63	12.36	-43.6	-47.6	15.3	0.00e+00	0	44	0	1132462080	58	5817
2026-01-28 09:13:51.97	354.41	12.10	-43.9	-47.7	15.6	0.00e+00	0	44	0	1137704960	58	5886
2026-01-28 09:13:54.96	354.19	11.84	-44.1	-47.9	15.4	0.00e+00	0	44	0	1143996416	58	6044
2026-01-28 09:13:57.95	353.98	11.58	-44.2	-48.0	15.2	0.00e+00	0	44	0	1149239296	59	5780
2026-01-28 09:14:00.94	353.77	11.33	-44.2	-48.2	15.1	0.00e+00	0	44	0	1154482176	59	5888
2026-01-28 09:14:03.93	353.57	11.07	-43.7	-48.3	15.0	0.00e+00	0	44	0	1160773632	59	5961
2026-01-28 09:14:06.92	353.36	10.82	-43.2	-48.2	15.1	7.00e-07	0	43	0	1166016512	58	6224
2026-01-28 09:14:09.92	353.17	10.58	-43.5	-48.2	15.0	0.00e+00	0	44	0	1171259392	58	6249
2026-01-28 09:14:12.91	352.97	10.33	-44.0	-48.1	15.1	7.00e-07	0	44	0	1177550848	58	6185
2026-01-28 09:14:15.90	352.78	10.09	-44.0	-48.2	15.1	0.00e+00	0	44	0	1182793728	58	6214
2026-01-28 09:14:18.89	352.59	9.84	-43.6	-48.3	15.0	0.00e+00	0	44	0	1188036608	58	6286
2026-01-28 09:14:21.88	352.41	9.60	-43.4	-48.5	14.7	0.00e+00	0	44	0	1194328064	58	6441
2026-01-28 09:14:24.87	352.23	9.37	-43.3	-48.5	14.7	7.00e-07	0	43	0	1199570944	58	6455
2026-01-28 09:14:27.86	352.05	9.13	-43.2	-48.7	14.5	7.00e-07	0	44	0	1204813824	58	6623
2026-01-28 09:14:30.86	351.87	8.90	-46.7	-64.2	3.8	1.45e+00	0	44	104	1209008128	64	27902
2026-01-28 09:14:33.85	351.70	8.66	-48.5	-64.4	3.8	1.49e+00	0	44	104	1209008128	68	22652
2026-01-28 09:14:36.84	351.53	8.43	-49.2	-64.9	3.8	1.49e+00	0	44	104	1209008128	69	22568
2026-01-28 09:14:39.83	351.36	8.21	-48.8	-64.9	3.8	1.49e+00	0	44	104	1209008128	69	22574
2026-01-28 09:14:42.83	351.20	7.98	-49.1	-64.7	3.8	1.49e+00	0	44	104	1209008128	69	22102
2026-01-28 09:14:45.82	351.04	7.75	-49.1	-64.3	3.8	1.49e+00	0	44	104	1209008128	69	21141
2026-01-28 09:14:48.80	350.88	7.53	-49.1	-64.4	3.8	1.49e+00	0	44	104	1209008128	69	21452
2026-01-28 09:14:51.80	350.72	7.31	-49.0	-64.4	3.8	1.49e+00	0	44	104	1209008128	69	21464
2026-01-28 09:14:54.79	350.57	7.09	-49.0	-64.4	3.8	1.49e+00	0	44	104	1209008128	69	21460
2026-01-28 09:14:57.79	350.42	6.87	-49.0	-64.4	3.8	1.49e+00	0	44	104	1209008128	69	21372
2026-01-28 09:15:00.78	350.27	6.66	-49.0	-64.4	3.8	1.49e+00	0	44	104	1209008128	69	21395
2026-01-28 09:15:03.77	350.12	6.44	-49.0	-64.4	3.8	1.49e+00	0	44	104	1209008128	69	21414
2026-01-28 09:15:06.76	349.98	6.23	-49.0	-64.4	3.8	1.49e+00	0	44	104	1209008128	69	21442
2026-01-28 09:15:09.75	349.84	6.02	-49.0	-64.4	3.8	1.49e+00	0	44	104	1209008128	69	21479
2026-01-28 09:15:12.74	349.70	5.81	-49.0	-64.4	3.8	1.49e+00	0	44	104	1209008128	69	21414
2026-01-28 09:15:15.74	349.56	5.60	-49.0	-64.4	3.8	1.49e+00	0	44	104	1209008128	69	21457
2026-01-28 09:15:18.72	349.43	5.39	-49.0	-64.4	3.8	1.49e+00	0	44	104	1209008128	69	21333
2026-01-28 09:15:21.71	349.29	5.19	-49.0	-64.4	3.8	1.49e+00	0	44	104	1209008128	69	21280
2026-01-28 09:15:24.70	349.16	4.98	-49.0	-64.4	3.8	1.49e+00	0	44	104	1209008128	69	21408

#Closed at: 2026-01-28 09:15:25
#Recorded file [1209 MB]: D:/Data/31040_260128_120308.dat