passes_logs/2026/01/28/T1/T1__20260128_120450_AQUA_rec.log

#Pass ID: 20260128_120450_AQUA
#Satellite: AQUA
#Configuration: AQUA
#almurnet v.1.7.20251203
#Start time: 2026-01-28 12:04:50

#Version: 2.0.20230620
#Station: T1
#Location: 37.570604 lon 55.790049 lat
#TLE: 1 27424U 02022A   26027.63960626  .00001831  00000+0  37607-3 0  9998
#TLE: 2 27424  98.4102 354.2809 0001844  63.7090 108.5242 14.61867354262735

#Time	Az	El	Level	Level2	SNR	BER	BlckErr	Temp	State	Recorded	gain1	gain2
2026-01-28 12:04:50.02	173.72	5.00	-50.8	-71.6	3.8	7.48e-01	0	36	0	0	73	39126
2026-01-28 12:04:53.00	173.81	5.22	-51.7	-71.7	3.8	7.44e-01	0	37	104	0	73	39263
2026-01-28 12:04:55.98	173.89	5.45	-51.0	-71.7	3.8	7.44e-01	0	37	104	0	73	39268
2026-01-28 12:04:58.96	173.97	5.67	-51.7	-71.7	3.8	7.43e-01	0	37	104	0	74	37048
2026-01-28 12:05:01.93	174.06	5.90	-51.7	-71.6	3.8	7.46e-01	0	37	104	0	74	36827
2026-01-28 12:05:04.91	174.14	6.13	-51.5	-71.6	3.8	7.45e-01	0	37	104	0	74	36742
2026-01-28 12:05:07.89	174.23	6.37	-51.4	-71.6	3.8	7.49e-01	0	37	104	0	74	36647
2026-01-28 12:05:10.87	174.32	6.60	-51.1	-71.5	3.8	7.42e-01	0	37	104	0	73	38391
2026-01-28 12:05:13.85	174.41	6.84	-49.5	-71.3	3.8	7.44e-01	0	37	104	0	71	42305
2026-01-28 12:05:16.83	174.51	7.08	-44.5	-68.6	3.9	7.42e-01	0	37	104	0	60	58358
2026-01-28 12:05:19.81	174.60	7.33	-44.4	-62.5	7.0	6.64e-01	0	38	0	1048576	60	28919
2026-01-28 12:05:22.79	174.70	7.57	-44.1	-56.1	13.6	6.10e-01	0	37	0	6815744	60	13772
2026-01-28 12:05:25.77	174.79	7.82	-43.9	-52.4	17.4	6.07e-01	0	38	0	12058624	59	9599
2026-01-28 12:05:28.74	174.89	8.07	-43.4	-50.8	19.1	6.07e-01	0	38	0	17825792	58	8379
2026-01-28 12:05:31.72	174.99	8.33	-43.4	-51.2	18.7	6.07e-01	0	38	0	23592960	58	8779
2026-01-28 12:05:34.70	175.09	8.58	-43.9	-53.8	16.1	6.06e-01	0	38	0	28835840	58	11911
2026-01-28 12:05:37.68	175.20	8.84	-44.6	-59.2	10.6	6.22e-01	0	38	0	34603008	59	20834
2026-01-28 12:05:40.66	175.30	9.11	-44.2	-55.5	13.6	6.09e-01	0	38	0	39321600	59	13691
2026-01-28 12:05:43.64	175.41	9.37	-44.3	-52.7	16.7	6.07e-01	0	38	0	44040192	60	9360
2026-01-28 12:05:46.62	175.52	9.64	-44.2	-49.0	20.6	6.08e-01	0	38	0	47185920	60	6076
2026-01-28 12:05:49.60	175.63	9.91	-43.6	-47.5	22.4	6.08e-01	0	38	0	52953088	59	5416
2026-01-28 12:05:52.57	175.75	10.19	-43.1	-46.8	23.1	6.07e-01	0	38	0	58195968	58	5294
2026-01-28 12:05:55.55	175.86	10.47	-42.6	-46.2	23.6	6.05e-01	0	38	0	63963136	57	5231
2026-01-28 12:05:58.53	175.98	10.75	-42.7	-46.2	23.6	6.06e-01	0	38	0	69730304	57	5271
2026-01-28 12:06:01.51	176.10	11.04	-42.6	-46.1	23.7	6.06e-01	0	38	0	74973184	57	5218
2026-01-28 12:06:04.49	176.23	11.33	-43.0	-46.1	23.8	6.08e-01	0	38	0	80740352	57	5161
2026-01-28 12:06:07.47	176.35	11.62	-43.1	-45.9	23.9	6.05e-01	0	38	0	85983232	57	5093
2026-01-28 12:06:10.45	176.48	11.92	-43.2	-45.9	23.9	6.05e-01	0	38	0	91750400	57	5091
2026-01-28 12:06:13.43	176.61	12.22	-43.4	-46.0	23.8	6.06e-01	0	38	0	97517568	57	5156
2026-01-28 12:06:16.41	176.75	12.52	-43.2	-45.8	23.8	6.07e-01	0	38	0	102760448	57	5021
2026-01-28 12:06:19.39	176.88	12.83	-43.1	-45.7	24.1	6.08e-01	0	38	0	108527616	57	4976
2026-01-28 12:06:22.37	177.02	13.15	-43.1	-45.8	24.2	6.08e-01	0	38	0	114294784	57	4995
2026-01-28 12:06:25.35	177.16	13.47	-43.0	-45.7	24.2	6.06e-01	0	39	0	119537664	57	4962
2026-01-28 12:06:28.32	177.31	13.79	-42.9	-45.5	24.3	6.07e-01	0	38	0	125304832	57	4870
2026-01-28 12:06:31.30	177.46	14.12	-42.9	-45.6	24.3	6.07e-01	0	38	0	131072000	57	4918
2026-01-28 12:06:34.28	177.61	14.45	-42.7	-45.4	24.5	6.07e-01	0	38	0	136314880	57	4783
2026-01-28 12:06:37.26	177.77	14.79	-42.7	-45.4	24.5	6.07e-01	0	38	0	142082048	57	4764
2026-01-28 12:06:40.24	177.93	15.13	-42.9	-45.5	24.4	6.08e-01	0	38	0	147849216	57	4855
2026-01-28 12:06:43.22	178.09	15.48	-42.8	-45.5	24.5	6.10e-01	0	38	0	153092096	57	4827
2026-01-28 12:06:46.20	178.26	15.83	-42.8	-45.5	24.5	6.05e-01	0	39	0	158859264	57	4829
2026-01-28 12:06:49.18	178.43	16.19	-42.8	-45.4	24.5	6.07e-01	0	38	0	164626432	57	4775
2026-01-28 12:06:52.15	178.60	16.55	-42.7	-45.2	24.7	6.06e-01	0	39	0	169869312	57	4696
2026-01-28 12:06:55.13	178.78	16.92	-42.7	-45.2	24.7	6.06e-01	0	39	0	175636480	57	4704
2026-01-28 12:06:58.11	178.96	17.30	-42.9	-45.4	24.6	6.04e-01	0	39	0	180879360	57	4795
2026-01-28 12:07:01.09	179.15	17.68	-42.9	-45.5	24.5	6.06e-01	0	39	0	186646528	57	4827
2026-01-28 12:07:04.07	179.35	18.07	-43.0	-45.5	24.5	6.06e-01	0	38	0	192413696	57	4816
2026-01-28 12:07:07.05	179.54	18.46	-42.9	-45.3	24.7	6.05e-01	0	39	0	197656576	57	4743
2026-01-28 12:07:10.03	179.75	18.87	-42.8	-45.3	24.7	6.06e-01	0	38	0	203423744	57	4747
2026-01-28 12:07:13.01	179.96	19.28	-42.8	-45.3	24.7	6.06e-01	0	38	0	209190912	57	4725
2026-01-28 12:07:15.98	180.17	19.69	-42.8	-45.3	24.7	6.07e-01	0	39	0	214958080	57	4754
2026-01-28 12:07:18.96	180.39	20.11	-42.8	-45.4	24.6	6.07e-01	0	39	0	220200960	57	4805
2026-01-28 12:07:21.94	180.62	20.55	-42.7	-45.2	24.8	6.07e-01	0	39	0	225968128	57	4693
2026-01-28 12:07:24.92	180.86	20.99	-42.9	-45.4	24.6	6.07e-01	0	39	0	231211008	57	4790
2026-01-28 12:07:27.90	181.10	21.43	-43.1	-45.6	24.5	6.05e-01	0	39	0	236978176	57	4910
2026-01-28 12:07:30.88	181.34	21.89	-42.8	-45.4	24.7	6.06e-01	0	39	0	242745344	57	4777
2026-01-28 12:07:33.86	181.60	22.35	-43.0	-45.6	24.5	6.06e-01	0	39	0	247988224	57	4875
2026-01-28 12:07:36.84	181.86	22.83	-43.2	-45.8	24.3	6.04e-01	0	39	0	253755392	57	4993
2026-01-28 12:07:39.82	182.14	23.31	-43.1	-45.7	24.4	6.05e-01	0	39	0	259522560	57	4941
2026-01-28 12:07:42.79	182.41	23.80	-43.1	-45.6	24.5	6.06e-01	0	39	0	264765440	57	4910
2026-01-28 12:07:45.77	182.70	24.30	-43.2	-45.8	24.4	6.06e-01	0	39	0	270532608	57	4997
2026-01-28 12:07:48.75	183.00	24.81	-43.2	-45.6	24.5	6.10e-01	0	39	0	276299776	57	4908
2026-01-28 12:07:51.73	183.31	25.33	-43.1	-45.5	24.6	6.05e-01	0	39	0	281542656	57	4858
2026-01-28 12:07:54.71	183.63	25.86	-43.3	-45.8	24.3	6.05e-01	0	39	0	287309824	57	5018
2026-01-28 12:07:57.69	183.96	26.41	-43.2	-45.7	24.4	6.06e-01	0	39	0	293076992	57	4959
2026-01-28 12:08:00.67	184.30	26.96	-43.0	-45.5	24.7	6.07e-01	0	39	0	298319872	57	4818
2026-01-28 12:08:03.65	184.66	27.52	-43.0	-45.5	24.6	6.05e-01	0	39	0	304087040	57	4821
2026-01-28 12:08:06.63	185.03	28.10	-42.8	-45.2	24.9	6.07e-01	0	39	0	309854208	57	4674
2026-01-28 12:08:09.60	185.41	28.69	-42.9	-45.3	24.8	6.05e-01	0	39	0	315097088	57	4749
2026-01-28 12:08:12.58	185.80	29.29	-42.7	-45.1	25.0	6.07e-01	0	39	0	320864256	57	4601
2026-01-28 12:08:15.56	186.21	29.90	-42.7	-45.1	25.0	6.06e-01	0	39	0	326107136	57	4632
2026-01-28 12:08:18.54	186.64	30.53	-42.6	-45.0	25.1	6.07e-01	0	39	0	331874304	57	4557
2026-01-28 12:08:21.52	187.08	31.17	-42.9	-45.3	24.8	6.09e-01	0	39	0	337641472	57	4746
2026-01-28 12:08:24.50	187.55	31.82	-43.1	-45.5	24.7	6.06e-01	0	39	0	342884352	57	4829
2026-01-28 12:08:27.48	188.03	32.49	-43.6	-46.1	24.2	6.06e-01	0	39	0	348651520	57	5160
2026-01-28 12:08:30.45	188.53	33.16	-43.3	-45.7	24.5	6.06e-01	0	39	0	354418688	57	4948
2026-01-28 12:08:33.43	189.05	33.86	-43.5	-45.9	24.3	6.06e-01	0	39	0	359661568	57	5077
2026-01-28 12:08:36.41	189.60	34.57	-43.6	-46.1	24.2	6.07e-01	0	39	0	365428736	57	5173
2026-01-28 12:08:39.39	190.17	35.29	-43.8	-46.4	23.9	6.09e-01	0	39	0	371195904	58	5082
2026-01-28 12:08:42.37	190.77	36.03	-44.2	-46.8	23.4	6.10e-01	0	39	0	376438784	59	5031
2026-01-28 12:08:45.35	191.39	36.78	-44.5	-47.2	23.2	6.04e-01	0	39	0	382205952	59	5223
2026-01-28 12:08:48.32	192.05	37.55	-44.3	-47.0	23.2	6.07e-01	0	39	0	387973120	60	4853
2026-01-28 12:08:51.30	192.73	38.33	-44.7	-47.5	22.8	6.07e-01	0	39	0	393216000	60	5133
2026-01-28 12:08:54.28	193.45	39.13	-44.4	-47.2	23.1	6.07e-01	0	39	0	398983168	60	4931
2026-01-28 12:08:57.26	194.21	39.94	-44.3	-46.9	23.3	6.06e-01	0	39	0	404750336	60	4794
2026-01-28 12:09:00.24	195.01	40.76	-44.1	-46.7	23.7	6.08e-01	0	39	0	409993216	59	4962
2026-01-28 12:09:03.22	195.85	41.60	-43.8	-46.3	24.0	6.08e-01	0	39	0	415760384	59	4743
2026-01-28 12:09:06.20	196.74	42.46	-43.1	-45.4	24.8	6.05e-01	0	39	0	421527552	58	4545
2026-01-28 12:09:09.18	197.67	43.33	-42.8	-45.2	24.9	6.06e-01	0	39	0	426770432	57	4697
2026-01-28 12:09:12.15	198.65	44.20	-42.8	-45.2	24.9	6.04e-01	0	39	0	432537600	57	4692
2026-01-28 12:09:15.13	199.70	45.09	-42.8	-45.1	25.1	6.07e-01	0	39	0	438304768	57	4614
2026-01-28 12:09:18.11	200.80	45.99	-42.5	-44.8	25.4	6.05e-01	0	39	0	443547648	57	4462
2026-01-28 12:09:21.09	201.97	46.91	-42.7	-45.0	25.2	6.06e-01	0	39	0	449314816	56	4848
2026-01-28 12:09:24.07	203.21	47.82	-42.3	-44.8	25.4	6.08e-01	0	39	0	454557696	56	4726
2026-01-28 12:09:27.05	204.52	48.75	-42.5	-44.8	25.3	6.07e-01	0	39	0	460324864	56	4756
2026-01-28 12:09:30.02	205.92	49.67	-42.9	-45.3	24.9	6.08e-01	0	39	0	466092032	56	5013
2026-01-28 12:09:33.00	207.40	50.60	-42.6	-44.9	25.2	6.04e-01	0	39	0	471334912	56	4809
2026-01-28 12:09:35.98	208.98	51.53	-42.7	-45.0	25.1	6.06e-01	0	39	0	477102080	56	4849
2026-01-28 12:09:38.96	210.66	52.45	-42.7	-45.0	25.2	6.05e-01	0	39	0	482869248	56	4822
2026-01-28 12:09:41.94	212.45	53.36	-42.4	-44.7	25.4	6.03e-01	0	39	0	488112128	56	4692
2026-01-28 12:09:44.92	214.35	54.26	-42.5	-44.7	25.3	6.05e-01	0	39	0	493879296	56	4703
2026-01-28 12:09:47.90	216.37	55.15	-42.9	-45.2	25.0	6.06e-01	0	39	0	499646464	56	4961
2026-01-28 12:09:50.88	218.53	56.01	-43.4	-45.9	24.4	6.06e-01	0	39	0	504889344	57	5073
2026-01-28 12:09:53.85	220.81	56.84	-43.9	-46.5	23.9	6.07e-01	0	39	0	510656512	58	5136
2026-01-28 12:09:56.83	223.23	57.64	-44.4	-47.0	23.4	6.07e-01	0	39	0	516423680	59	5102
2026-01-28 12:09:59.81	225.81	58.40	-44.5	-47.1	23.3	6.06e-01	0	39	0	521666560	59	5162
2026-01-28 12:10:02.79	228.53	59.12	-44.5	-47.3	23.0	6.06e-01	0	39	0	527433728	60	5032
2026-01-28 12:10:05.77	231.39	59.78	-44.7	-47.6	22.8	6.07e-01	0	39	0	533200896	60	5179
2026-01-28 12:10:08.75	234.40	60.38	-45.2	-48.0	22.2	6.08e-01	0	39	0	538443776	61	5145
2026-01-28 12:10:11.73	237.55	60.91	-45.1	-48.0	22.4	6.08e-01	0	39	0	544210944	61	5103
2026-01-28 12:10:14.71	240.82	61.37	-45.1	-47.9	22.4	6.07e-01	0	39	0	549978112	61	5089
2026-01-28 12:10:17.68	244.19	61.75	-45.0	-47.7	22.7	6.07e-01	0	39	0	555220992	61	4952
2026-01-28 12:10:20.66	247.67	62.05	-45.2	-48.0	22.4	6.11e-01	0	39	0	560988160	61	5136
2026-01-28 12:10:23.64	251.22	62.25	-45.4	-48.4	22.0	6.06e-01	0	39	0	566755328	61	5387
2026-01-28 12:10:26.62	254.81	62.36	-45.2	-48.1	22.2	6.07e-01	0	39	0	571998208	62	4904
2026-01-28 12:10:29.60	258.42	62.38	-44.9	-47.8	22.5	6.07e-01	0	40	0	577765376	61	5003
2026-01-28 12:10:32.57	262.01	62.30	-45.1	-47.9	22.4	6.05e-01	0	39	0	583008256	61	5081
2026-01-28 12:10:35.55	265.58	62.13	-45.1	-47.9	22.4	6.07e-01	0	39	0	588775424	61	5099
2026-01-28 12:10:38.53	269.08	61.86	-44.9	-47.7	22.7	6.07e-01	0	39	0	594542592	61	4939
2026-01-28 12:10:41.51	272.50	61.51	-44.5	-47.3	23.0	6.07e-01	0	39	0	599785472	61	4723
2026-01-28 12:10:44.49	275.80	61.08	-44.3	-47.0	23.3	6.08e-01	0	39	0	605552640	60	4842
2026-01-28 12:10:47.47	278.99	60.57	-44.4	-47.0	23.3	6.07e-01	0	39	0	611319808	60	4849
2026-01-28 12:10:50.45	282.04	59.99	-44.6	-47.4	23.1	6.07e-01	0	40	0	616562688	59	5341
2026-01-28 12:10:53.42	284.94	59.35	-44.3	-47.0	23.4	6.07e-01	0	39	0	622329856	59	5126
2026-01-28 12:10:56.41	287.72	58.66	-43.7	-46.2	24.1	6.07e-01	0	39	0	628097024	59	4673
2026-01-28 12:10:59.38	290.32	57.91	-43.9	-46.4	24.0	6.07e-01	0	39	0	633339904	59	4782
2026-01-28 12:11:02.36	292.80	57.13	-43.5	-46.0	24.3	6.07e-01	0	40	0	639107072	58	4815
2026-01-28 12:11:05.34	295.13	56.31	-43.2	-45.6	24.7	6.05e-01	0	39	0	644874240	58	4624
2026-01-28 12:11:08.32	297.32	55.46	-43.1	-45.5	24.7	6.05e-01	0	39	0	650117120	57	4866
2026-01-28 12:11:11.30	299.39	54.58	-42.7	-45.1	25.1	6.06e-01	0	39	0	655884288	57	4601
2026-01-28 12:11:14.28	301.33	53.69	-42.9	-45.3	25.0	6.07e-01	0	39	0	661651456	57	4707
2026-01-28 12:11:17.26	303.15	52.78	-42.7	-45.0	25.2	6.08e-01	0	39	0	666894336	57	4592
2026-01-28 12:11:20.24	304.86	51.87	-43.2	-45.7	24.6	6.07e-01	0	39	0	672661504	57	4961
2026-01-28 12:11:23.22	306.47	50.95	-43.2	-45.6	24.7	6.09e-01	0	39	0	678428672	57	4895
2026-01-28 12:11:26.19	307.98	50.03	-43.7	-46.4	23.9	6.06e-01	0	39	0	683671552	58	5072
2026-01-28 12:11:29.17	309.40	49.10	-43.6	-46.1	24.1	6.09e-01	0	39	0	689438720	58	4926
2026-01-28 12:11:32.15	310.74	48.18	-43.6	-46.2	24.0	6.08e-01	0	39	0	695205888	58	4974
2026-01-28 12:11:35.13	312.01	47.27	-43.5	-46.0	24.2	6.07e-01	0	39	0	700448768	58	4853
2026-01-28 12:11:38.11	313.20	46.36	-43.3	-45.8	24.5	6.08e-01	0	39	0	706215936	58	4740
2026-01-28 12:11:41.09	314.32	45.46	-43.3	-45.8	24.5	6.08e-01	0	39	0	711983104	58	4758
2026-01-28 12:11:44.07	315.38	44.57	-43.3	-45.9	24.4	6.07e-01	0	39	0	717225984	58	4762
2026-01-28 12:11:47.04	316.38	43.69	-43.3	-45.8	24.5	6.07e-01	0	39	0	722993152	58	4749
2026-01-28 12:11:50.02	317.33	42.82	-43.7	-46.2	24.1	6.07e-01	0	39	0	728236032	58	4982
2026-01-28 12:11:53.00	318.23	41.97	-44.1	-56.1	3.7	7.50e-01	0	40	104	732430336	58	15546
2026-01-28 12:11:55.98	319.09	41.13	-46.8	-59.7	3.8	7.44e-01	0	39	104	732430336	64	16656
2026-01-28 12:11:58.96	319.90	40.30	-47.6	-61.0	3.7	7.50e-01	0	39	104	732430336	66	17116
2026-01-28 12:12:01.94	320.67	39.49	-44.4	-56.1	3.8	7.49e-01	0	39	104	732430336	60	13743
2026-01-28 12:12:04.91	321.40	38.69	-45.5	-58.0	3.7	7.45e-01	0	39	104	732430336	61	16155
2026-01-28 12:12:07.89	322.10	37.91	-46.9	-60.2	3.9	7.37e-01	0	39	104	732430336	65	16608
2026-01-28 12:12:10.87	322.77	37.14	-43.9	-56.3	4.1	7.37e-01	0	39	104	732430336	59	14969
2026-01-28 12:12:13.85	323.40	36.38	-43.8	-55.9	3.8	7.44e-01	0	39	104	732430336	58	15114
2026-01-28 12:12:16.83	324.01	35.64	-46.4	-59.3	3.8	7.44e-01	0	39	104	732430336	64	15869
2026-01-28 12:12:19.81	324.59	34.92	-43.5	-55.1	3.8	7.48e-01	0	39	104	732430336	59	13009
2026-01-28 12:12:22.79	325.14	34.21	-43.4	-55.4	3.8	7.47e-01	0	39	104	732430336	57	15188
2026-01-28 12:12:25.77	325.68	33.51	-45.5	-58.4	3.9	7.46e-01	0	40	104	732430336	62	16032
2026-01-28 12:12:28.75	326.19	32.83	-42.8	-54.7	3.8	7.41e-01	0	39	104	732430336	57	13901
2026-01-28 12:12:31.73	326.67	32.16	-43.7	-55.6	3.8	7.47e-01	0	40	104	732430336	57	15432
2026-01-28 12:12:34.70	327.14	31.51	-45.5	-58.0	3.8	7.48e-01	0	40	104	732430336	63	14433
2026-01-28 12:12:37.68	327.59	30.87	-42.9	-54.5	3.8	7.45e-01	0	39	104	732430336	57	13710
2026-01-28 12:12:40.66	328.03	30.24	-43.0	-54.9	3.8	7.47e-01	0	39	104	732430336	56	15128
2026-01-28 12:12:43.64	328.44	29.63	-45.8	-58.9	3.8	7.46e-01	0	40	104	732430336	63	16024
2026-01-28 12:12:46.62	328.84	29.03	-42.9	-55.0	3.8	7.45e-01	0	40	104	732430336	57	14493
2026-01-28 12:12:49.60	329.23	28.44	-43.4	-55.4	3.8	7.49e-01	0	40	104	732430336	57	15103
2026-01-28 12:12:52.58	329.60	27.86	-45.9	-59.2	3.9	7.46e-01	0	40	104	732430336	64	15740
2026-01-28 12:12:55.55	329.96	27.29	-43.3	-55.1	3.8	7.43e-01	0	40	104	732430336	58	13847
2026-01-28 12:12:58.53	330.31	26.74	-43.1	-55.3	3.8	7.46e-01	0	39	104	732430336	57	14896
2026-01-28 12:13:01.51	330.65	26.20	-47.0	-62.4	3.9	7.44e-01	0	40	104	732430336	66	20082
2026-01-28 12:13:04.49	330.97	25.66	-43.6	-55.9	3.8	7.47e-01	0	39	104	732430336	59	14216
2026-01-28 12:13:07.47	331.28	25.14	-43.7	-55.7	3.8	7.43e-01	0	40	104	732430336	59	13915
2026-01-28 12:13:10.45	331.59	24.63	-48.6	-63.3	4.0	7.44e-01	0	40	104	732430336	69	18762
2026-01-28 12:13:13.43	331.88	24.12	-43.8	-55.7	3.8	7.44e-01	0	40	104	732430336	59	14038
2026-01-28 12:13:16.41	332.17	23.63	-43.3	-55.0	3.8	7.47e-01	0	39	104	732430336	58	13677
2026-01-28 12:13:19.39	332.44	23.15	-48.4	-64.1	4.0	7.42e-01	0	40	104	732430336	69	20618
2026-01-28 12:13:22.37	332.71	22.67	-43.3	-55.4	3.8	7.45e-01	0	39	104	732430336	58	14324
2026-01-28 12:13:25.35	332.97	22.21	-43.3	-55.4	3.8	7.47e-01	0	40	104	732430336	58	14235
2026-01-28 12:13:28.33	333.22	21.75	-47.8	-66.5	3.9	7.40e-01	0	40	104	732430336	67	30722
2026-01-28 12:13:31.31	333.47	21.30	-43.7	-55.6	3.8	7.48e-01	0	40	104	732430336	59	13728
2026-01-28 12:13:34.28	333.70	20.86	-43.2	-55.0	3.8	7.50e-01	0	39	104	732430336	58	13578
2026-01-28 12:13:37.26	333.93	20.43	-50.1	-68.0	3.9	7.38e-01	0	40	104	732430336	71	28899
2026-01-28 12:13:40.24	334.16	20.01	-43.5	-55.4	3.9	7.43e-01	0	40	104	732430336	58	14299
2026-01-28 12:13:43.22	334.38	19.59	-42.9	-54.9	3.8	7.47e-01	0	40	104	732430336	57	14361
2026-01-28 12:13:46.20	334.59	19.18	-49.7	-68.6	3.9	7.43e-01	0	40	104	732430336	70	32554
2026-01-28 12:13:49.18	334.80	18.78	-43.3	-55.4	3.8	7.48e-01	0	40	104	732430336	58	14228
2026-01-28 12:13:52.16	335.00	18.38	-42.9	-54.8	3.8	7.46e-01	0	40	104	732430336	57	14093
2026-01-28 12:13:55.13	335.20	17.99	-49.3	-69.2	3.8	7.44e-01	0	40	104	732430336	69	37269
2026-01-28 12:13:58.11	335.39	17.61	-43.3	-55.2	3.8	7.46e-01	0	40	104	732430336	58	13940
2026-01-28 12:14:01.09	335.58	17.23	-43.2	-55.0	3.8	7.48e-01	0	40	104	732430336	58	13656
2026-01-28 12:14:04.07	335.76	16.86	-49.5	-69.2	3.7	7.47e-01	0	40	104	732430336	69	37141
2026-01-28 12:14:07.05	335.94	16.50	-43.3	-55.0	3.8	7.48e-01	0	40	104	732430336	58	13709
2026-01-28 12:14:10.03	336.11	16.14	-43.0	-54.7	3.8	7.44e-01	0	40	104	732430336	57	14038
2026-01-28 12:14:13.01	336.28	15.78	-49.9	-68.7	3.8	7.47e-01	0	39	104	732430336	70	33056
2026-01-28 12:14:15.99	336.45	15.44	-43.4	-55.3	3.8	7.43e-01	0	40	104	732430336	58	14170
2026-01-28 12:14:18.97	336.61	15.09	-43.0	-54.8	3.8	7.44e-01	0	40	104	732430336	58	13311
2026-01-28 12:14:21.94	336.77	14.76	-49.3	-68.0	3.7	7.50e-01	0	40	104	732430336	69	32424
2026-01-28 12:14:24.92	336.93	14.42	-43.5	-55.3	3.8	7.44e-01	0	40	104	732430336	58	14097
2026-01-28 12:14:27.90	337.08	14.09	-43.2	-55.2	3.8	7.46e-01	0	40	104	732430336	58	14041
2026-01-28 12:14:30.88	337.23	13.77	-50.0	-67.7	3.8	7.47e-01	0	40	104	732430336	70	29589
2026-01-28 12:14:33.86	337.37	13.45	-43.4	-55.8	3.8	7.42e-01	0	39	104	732430336	58	14987
2026-01-28 12:14:36.84	337.52	13.14	-43.4	-55.6	3.8	7.48e-01	0	40	104	732430336	58	14662
2026-01-28 12:14:39.82	337.66	12.83	-48.1	-65.9	3.8	7.52e-01	0	40	104	732430336	66	30334
2026-01-28 12:14:42.79	337.79	12.52	-43.1	-55.7	3.8	7.48e-01	0	40	104	732430336	58	14737
2026-01-28 12:14:45.77	337.93	12.22	-42.7	-55.4	3.8	7.45e-01	0	40	104	732430336	57	15095
2026-01-28 12:14:48.75	338.06	11.92	-47.4	-64.9	3.7	7.49e-01	0	40	104	732430336	65	28423
2026-01-28 12:14:51.73	338.19	11.63	-43.2	-55.7	3.8	7.47e-01	0	40	104	732430336	58	14765
2026-01-28 12:14:54.71	338.31	11.34	-43.3	-55.4	3.8	7.48e-01	0	40	104	732430336	58	14288
2026-01-28 12:14:57.69	338.44	11.05	-46.9	-63.4	3.8	7.51e-01	0	40	104	732430336	64	25448
2026-01-28 12:15:00.67	338.56	10.77	-43.4	-55.9	3.8	7.47e-01	0	40	104	732430336	58	15184
2026-01-28 12:15:03.65	338.68	10.49	-43.1	-55.9	3.8	7.46e-01	0	40	104	732430336	58	15215
2026-01-28 12:15:06.63	338.80	10.21	-46.2	-60.9	3.8	7.47e-01	0	40	104	732430336	62	21474
2026-01-28 12:15:09.61	338.91	9.94	-45.4	-60.5	3.8	7.44e-01	0	40	104	732430336	63	19322
2026-01-28 12:15:12.59	339.03	9.67	-44.1	-56.5	3.8	7.40e-01	0	40	104	732430336	60	14488
2026-01-28 12:15:15.57	339.14	9.41	-46.3	-60.6	3.8	7.50e-01	0	40	104	732430336	63	19556
2026-01-28 12:15:18.55	339.25	9.14	-44.0	-56.4	3.8	7.46e-01	0	40	104	732430336	59	15064
2026-01-28 12:15:21.52	339.35	8.88	-47.5	-70.8	3.8	7.45e-01	0	40	104	732430336	67	50095
2026-01-28 12:15:24.50	339.46	8.63	-49.2	-70.8	3.8	7.44e-01	0	40	104	732430336	69	44794
2026-01-28 12:15:27.48	339.56	8.37	-49.6	-70.7	3.9	7.46e-01	0	40	104	732430336	69	44091
2026-01-28 12:15:30.46	339.67	8.12	-49.5	-70.8	3.8	7.43e-01	0	40	104	732430336	70	42091
2026-01-28 12:15:33.44	339.77	7.87	-50.7	-70.9	3.8	7.47e-01	0	40	104	732430336	72	38002
2026-01-28 12:15:36.42	339.87	7.63	-50.7	-71.0	3.8	7.48e-01	0	40	104	732430336	72	38519
2026-01-28 12:15:39.40	339.96	7.38	-49.7	-71.1	3.8	7.47e-01	0	40	104	732430336	71	41204
2026-01-28 12:15:42.38	340.06	7.14	-49.7	-71.1	3.8	7.44e-01	0	40	104	732430336	71	41137
2026-01-28 12:15:45.35	340.15	6.90	-49.7	-71.1	3.8	7.45e-01	0	40	104	732430336	71	41076
2026-01-28 12:15:48.33	340.25	6.67	-49.7	-71.1	3.8	7.46e-01	0	40	104	732430336	71	41078
2026-01-28 12:15:51.31	340.34	6.43	-49.7	-71.1	3.8	7.45e-01	0	40	104	732430336	71	41032
2026-01-28 12:15:54.29	340.43	6.20	-49.7	-71.1	3.8	7.42e-01	0	40	104	732430336	71	40983
2026-01-28 12:15:57.27	340.52	5.97	-49.7	-71.0	3.8	7.47e-01	0	40	104	732430336	71	40944
2026-01-28 12:16:00.25	340.61	5.74	-49.7	-71.0	3.8	7.44e-01	0	40	104	732430336	71	40936
2026-01-28 12:16:03.23	340.69	5.52	-49.7	-71.0	3.8	7.46e-01	0	40	104	732430336	71	40936
2026-01-28 12:16:06.21	340.78	5.30	-49.7	-71.0	3.8	7.45e-01	0	40	104	732430336	71	40943
2026-01-28 12:16:09.19	340.86	5.08	-49.7	-71.0	3.8	7.48e-01	0	40	104	732430336	71	40915

#Closed at: 2026-01-28 12:16:12
#Recorded file [732 MB]: D:/Data/31040_260128_150450.dat