passes_logs/2026/01/28/T1/T1__20260128_012836_FENGYUN_3D_rec.log

#Pass ID: 20260128_012836_FENGYUN 3D
#Satellite: FENGYUN 3D
#Configuration: FENGYUN 3D
#almurnet v.1.7.20251203
#Start time: 2026-01-28 01:28:35

#Version: 2.0.20230620
#Station: T1
#Location: 37.570604 lon 55.790049 lat
#TLE: 1 43010U 17072A   26027.47796828  .00000374  00000+0  19850-3 0  9992
#TLE: 2 43010  98.9960 359.4888 0002523  87.5419 272.6045 14.19701595425023

#Time	Az	El	Level	Level2	SNR	BER	BlckErr	Temp	State	Recorded	gain1	gain2
2026-01-28 01:28:35.74	18.99	4.97	-50.0	-62.4	3.8	8.47e-01	0	39	0	0	71	15137
2026-01-28 01:28:39.71	19.08	5.25	-50.4	-62.4	3.8	8.48e-01	0	39	104	0	72	14371
2026-01-28 01:28:43.68	19.17	5.54	-50.2	-62.4	3.8	8.47e-01	0	40	104	0	72	14370
2026-01-28 01:28:47.65	19.25	5.82	-50.2	-62.3	3.8	8.47e-01	0	40	104	0	72	14148
2026-01-28 01:28:51.62	19.34	6.11	-49.9	-62.1	3.8	8.46e-01	0	40	104	0	71	14676
2026-01-28 01:28:55.59	19.44	6.41	-49.2	-61.8	3.8	8.48e-01	0	40	104	0	69	15803
2026-01-28 01:28:59.57	19.53	6.70	-47.1	-60.5	3.8	8.46e-01	0	40	104	0	66	16289
2026-01-28 01:29:03.54	19.62	7.00	-46.9	-58.8	4.0	8.46e-01	0	40	104	0	65	14165
2026-01-28 01:29:07.51	19.72	7.31	-46.8	-57.4	4.4	8.29e-01	0	41	0	0	65	12070
2026-01-28 01:29:11.48	19.82	7.61	-46.7	-56.6	4.7	8.02e-01	0	41	0	0	65	10992
2026-01-28 01:29:15.45	19.92	7.93	-46.6	-56.0	5.1	7.59e-01	0	41	0	0	65	10196
2026-01-28 01:29:19.42	20.02	8.24	-46.3	-54.5	6.1	3.73e-01	0	41	0	8388608	64	9105
2026-01-28 01:29:23.40	20.12	8.56	-45.8	-52.3	8.1	8.44e-02	0	41	0	30408704	63	7502
2026-01-28 01:29:27.37	20.23	8.88	-45.1	-50.5	10.0	1.10e-02	0	41	0	52428800	62	6421
2026-01-28 01:29:31.34	20.33	9.21	-47.2	-57.4	4.0	8.46e-01	0	41	104	70254592	65	11975
2026-01-28 01:29:35.31	20.44	9.54	-40.8	-43.2	17.1	0.00e+00	0	41	0	90177536	53	4694
2026-01-28 01:29:39.28	20.55	9.88	-39.7	-41.8	18.6	0.00e+00	0	41	0	112197632	51	4487
2026-01-28 01:29:43.25	20.67	10.22	-39.2	-41.3	19.2	0.00e+00	0	41	0	135266304	50	4458
2026-01-28 01:29:47.23	20.78	10.56	-39.0	-41.0	19.5	0.00e+00	0	41	0	157286400	50	4327
2026-01-28 01:29:51.20	20.90	10.91	-39.0	-41.0	19.5	0.00e+00	0	41	0	180355072	49	4570
2026-01-28 01:29:55.17	21.02	11.27	-39.0	-40.9	19.6	0.00e+00	0	41	0	202375168	49	4527
2026-01-28 01:29:59.14	21.14	11.63	-39.1	-41.1	19.4	0.00e+00	0	41	0	224395264	49	4617
2026-01-28 01:30:03.11	21.27	11.99	-38.7	-40.7	19.8	0.00e+00	0	41	0	246415360	49	4417
2026-01-28 01:30:07.09	21.40	12.36	-38.8	-40.8	19.8	0.00e+00	0	41	0	269484032	49	4451
2026-01-28 01:30:11.05	21.53	12.74	-38.8	-40.8	19.8	0.00e+00	0	42	0	291504128	49	4453
2026-01-28 01:30:15.03	21.66	13.12	-38.9	-40.8	19.8	0.00e+00	0	41	0	313524224	49	4450
2026-01-28 01:30:19.00	21.80	13.51	-38.9	-40.8	19.8	0.00e+00	0	41	0	336592896	49	4450
2026-01-28 01:30:22.97	21.94	13.90	-38.8	-40.7	19.9	0.00e+00	0	42	0	358612992	49	4420
2026-01-28 01:30:26.94	22.08	14.30	-38.7	-40.5	20.0	0.00e+00	0	42	0	380633088	49	4329
2026-01-28 01:30:30.91	22.23	14.71	-38.6	-40.5	20.1	0.00e+00	0	42	0	403701760	49	4296
2026-01-28 01:30:34.88	22.38	15.12	-38.3	-40.1	20.5	0.00e+00	0	42	0	425721856	48	4371
2026-01-28 01:30:38.85	22.54	15.55	-38.1	-39.9	20.7	0.00e+00	0	42	0	447741952	48	4262
2026-01-28 01:30:42.82	22.70	15.97	-37.8	-39.6	20.7	0.00e+00	0	42	0	469762048	47	4368
2026-01-28 01:30:46.79	22.86	16.41	-37.6	-39.4	20.9	0.00e+00	0	42	0	492830720	47	4282
2026-01-28 01:30:50.76	23.03	16.85	-37.6	-39.4	21.0	0.00e+00	0	42	0	514850816	47	4259
2026-01-28 01:30:54.74	23.20	17.31	-37.5	-39.3	21.1	0.00e+00	0	42	0	536870912	46	4444
2026-01-28 01:30:58.71	23.37	17.77	-37.4	-39.2	21.1	0.00e+00	0	42	0	559939584	46	4422
2026-01-28 01:31:02.68	23.56	18.24	-37.3	-39.0	21.3	0.00e+00	0	41	0	581959680	46	4335
2026-01-28 01:31:06.65	23.74	18.71	-37.1	-38.9	21.5	0.00e+00	0	42	0	603979776	46	4253
2026-01-28 01:31:10.62	23.94	19.20	-37.2	-38.9	21.4	0.00e+00	0	42	0	627048448	46	4291
2026-01-28 01:31:14.59	24.13	19.70	-36.8	-38.6	21.7	0.00e+00	0	42	0	649068544	45	4347
2026-01-28 01:31:18.57	24.34	20.20	-36.8	-38.6	21.7	0.00e+00	0	42	0	671088640	45	4343
2026-01-28 01:31:22.54	24.55	20.72	-36.7	-38.4	21.8	0.00e+00	0	42	0	693108736	45	4273
2026-01-28 01:31:26.51	24.77	21.25	-36.7	-38.4	21.9	0.00e+00	0	42	0	716177408	45	4255
2026-01-28 01:31:30.48	24.99	21.78	-36.5	-38.2	22.1	0.00e+00	0	42	0	738197504	44	4432
2026-01-28 01:31:34.46	25.22	22.33	-36.5	-38.3	22.0	0.00e+00	0	42	0	760217600	44	4462
2026-01-28 01:31:38.43	25.46	22.90	-36.4	-38.1	22.2	0.00e+00	0	42	0	783286272	44	4350
2026-01-28 01:31:42.40	25.71	23.47	-36.1	-37.8	22.4	0.00e+00	0	42	0	805306368	44	4219
2026-01-28 01:31:46.37	25.96	24.05	-36.0	-37.7	22.6	0.00e+00	0	42	0	827326464	44	4159
2026-01-28 01:31:50.34	26.23	24.65	-36.1	-37.8	22.4	0.00e+00	0	42	0	850395136	44	4228
2026-01-28 01:31:54.31	26.51	25.26	-36.0	-37.7	22.5	0.00e+00	0	41	0	872415232	44	4165
2026-01-28 01:31:58.28	26.79	25.89	-35.8	-37.5	22.6	0.00e+00	0	42	0	894435328	43	4303
2026-01-28 01:32:02.26	27.09	26.53	-35.6	-37.3	22.8	0.00e+00	0	41	0	917504000	43	4195
2026-01-28 01:32:06.23	27.40	27.19	-35.7	-37.3	22.7	0.00e+00	0	42	0	939524096	43	4240
2026-01-28 01:32:10.20	27.72	27.86	-35.7	-37.3	22.7	0.00e+00	0	42	0	961544192	43	4241
2026-01-28 01:32:14.17	28.05	28.54	-35.5	-37.2	22.9	0.00e+00	0	42	0	983564288	42	4420
2026-01-28 01:32:18.14	28.40	29.24	-35.6	-37.3	22.8	0.00e+00	0	42	0	1006632960	42	4479
2026-01-28 01:32:22.11	28.76	29.96	-35.9	-37.5	22.6	0.00e+00	0	42	0	1028653056	42	4596
2026-01-28 01:32:26.08	29.14	30.70	-35.6	-37.3	22.8	0.00e+00	0	42	0	1050673152	42	4460
2026-01-28 01:32:30.06	29.54	31.46	-35.2	-36.8	23.2	0.00e+00	0	42	0	1073741824	42	4241
2026-01-28 01:32:34.03	29.95	32.23	-35.5	-37.1	23.0	0.00e+00	0	42	0	1095761920	42	4387
2026-01-28 01:32:38.00	30.39	33.02	-35.2	-36.9	23.2	0.00e+00	0	42	0	1117782016	42	4256
2026-01-28 01:32:41.97	30.84	33.83	-35.2	-36.9	23.2	0.00e+00	0	42	0	1140850688	42	4246
2026-01-28 01:32:45.94	31.32	34.67	-35.1	-36.7	23.3	0.00e+00	0	42	0	1162870784	42	4171
2026-01-28 01:32:49.91	31.82	35.52	-35.3	-36.9	23.1	0.00e+00	0	42	0	1184890880	42	4290
2026-01-28 01:32:53.88	32.35	36.39	-35.0	-36.6	23.5	0.00e+00	0	42	0	1206910976	42	4113
2026-01-28 01:32:57.85	32.91	37.29	-34.8	-36.5	23.5	0.00e+00	0	42	0	1229979648	41	4304
2026-01-28 01:33:01.83	33.50	38.21	-34.7	-36.3	23.7	0.00e+00	0	42	0	1251999744	41	4233
2026-01-28 01:33:05.80	34.12	39.15	-35.2	-37.0	22.5	0.00e+00	0	42	0	1275068416	41	4551
2026-01-28 01:33:09.77	34.78	40.11	-34.9	-36.6	22.8	0.00e+00	0	42	0	1297088512	41	4390
2026-01-28 01:33:13.74	35.48	41.09	-35.1	-36.8	22.7	0.00e+00	0	42	0	1319108608	41	4468
2026-01-28 01:33:17.71	36.22	42.10	-35.4	-37.2	22.4	0.00e+00	0	42	0	1341128704	41	4668
2026-01-28 01:33:21.69	37.02	43.13	-35.1	-36.8	22.7	0.00e+00	0	42	0	1364197376	41	4488
2026-01-28 01:33:25.66	37.86	44.19	-35.5	-37.3	22.3	0.00e+00	0	42	0	1386217472	41	4725
2026-01-28 01:33:29.63	38.76	45.26	-35.8	-37.5	22.1	0.00e+00	0	42	0	1408237568	42	4596
2026-01-28 01:33:33.60	39.72	46.36	-35.5	-37.2	22.5	0.00e+00	0	42	0	1431306240	42	4428
2026-01-28 01:33:37.57	40.75	47.47	-35.5	-37.2	22.5	0.00e+00	0	42	0	1453326336	42	4432
2026-01-28 01:33:41.54	41.86	48.61	-35.6	-37.3	22.5	0.00e+00	0	42	0	1475346432	42	4452
2026-01-28 01:33:45.51	43.05	49.77	-35.7	-37.4	22.3	0.00e+00	0	42	0	1497366528	42	4534
2026-01-28 01:33:49.49	44.33	50.94	-36.2	-38.0	21.8	0.00e+00	0	42	0	1520435200	43	4562
2026-01-28 01:33:53.46	45.72	52.12	-36.1	-37.8	22.1	0.00e+00	0	42	0	1542455296	43	4469
2026-01-28 01:33:57.43	47.23	53.32	-36.4	-38.1	21.8	0.00e+00	0	42	0	1564475392	43	4633
2026-01-28 01:34:01.40	48.86	54.52	-36.4	-38.1	21.7	0.00e+00	0	42	0	1587544064	43	4650
2026-01-28 01:34:05.37	50.63	55.73	-37.0	-38.8	21.2	0.00e+00	0	42	0	1609564160	44	4721
2026-01-28 01:34:09.35	52.57	56.94	-36.3	-38.0	21.9	0.00e+00	0	42	0	1631584256	44	4327
2026-01-28 01:34:13.32	54.68	58.14	-36.4	-38.1	21.9	0.00e+00	0	42	0	1654652928	44	4376
2026-01-28 01:34:17.29	56.98	59.32	-35.7	-37.4	22.4	0.00e+00	0	42	0	1676673024	43	4285
2026-01-28 01:34:21.26	59.50	60.48	-35.0	-36.7	23.0	0.00e+00	0	42	0	1698693120	42	4156
2026-01-28 01:34:25.23	62.25	61.61	-35.2	-36.9	22.8	0.00e+00	0	42	0	1720713216	42	4247
2026-01-28 01:34:29.20	65.26	62.69	-35.2	-36.9	22.6	0.00e+00	0	42	0	1743781888	41	4534
2026-01-28 01:34:33.17	68.55	63.72	-35.0	-36.7	22.9	0.00e+00	0	42	0	1765801984	41	4439
2026-01-28 01:34:37.15	72.14	64.68	-34.6	-36.3	23.2	0.00e+00	0	42	0	1788870656	41	4229
2026-01-28 01:34:41.12	76.02	65.56	-34.9	-36.6	22.9	0.00e+00	0	42	0	1810890752	41	4378
2026-01-28 01:34:45.09	80.20	66.34	-35.1	-36.8	22.7	0.00e+00	0	42	0	1832910848	41	4475
2026-01-28 01:34:49.06	84.66	67.00	-34.4	-36.1	23.3	0.00e+00	0	42	0	1854930944	40	4371
2026-01-28 01:34:53.03	89.39	67.53	-34.5	-36.2	23.4	0.00e+00	0	42	0	1877999616	40	4400
2026-01-28 01:34:57.00	94.34	67.91	-34.6	-36.3	23.2	0.00e+00	0	42	0	1900019712	40	4490
2026-01-28 01:35:00.97	99.43	68.15	-34.1	-35.8	23.6	0.00e+00	0	42	0	1922039808	40	4219
2026-01-28 01:35:04.94	104.61	68.22	-34.7	-36.5	23.1	0.00e+00	0	42	0	1945108480	40	4549
2026-01-28 01:35:08.92	109.79	68.13	-34.5	-36.2	23.3	0.00e+00	0	42	0	1967128576	40	4421
2026-01-28 01:35:12.89	114.87	67.88	-34.6	-36.3	23.2	0.00e+00	0	42	0	1989148672	40	4484
2026-01-28 01:35:16.86	119.80	67.47	-34.8	-36.5	23.0	0.00e+00	0	42	0	2012217344	40	4569
2026-01-28 01:35:20.83	124.50	66.92	-34.6	-36.3	23.2	0.00e+00	0	42	0	2034237440	40	4462
2026-01-28 01:35:24.80	128.94	66.25	-34.7	-36.4	23.1	0.00e+00	0	42	0	2056257536	40	4537
2026-01-28 01:35:28.77	133.09	65.46	-35.0	-36.7	22.8	0.00e+00	0	42	0	2078277632	41	4415
2026-01-28 01:35:32.74	136.94	64.57	-34.7	-36.4	23.1	0.00e+00	0	42	0	2101346304	41	4249
2026-01-28 01:35:36.72	140.49	63.60	-34.7	-36.4	23.2	0.00e+00	0	42	0	2123366400	41	4261
2026-01-28 01:35:40.69	143.75	62.56	-35.0	-36.7	23.0	0.00e+00	0	42	0	2145386496	41	4392
2026-01-28 01:35:44.66	146.73	61.47	-35.3	-37.0	22.7	0.00e+00	0	42	0	2168455168	41	4565
2026-01-28 01:35:48.63	149.46	60.33	-35.2	-37.0	22.7	0.00e+00	0	42	0	2190475264	41	4556
2026-01-28 01:35:52.61	151.96	59.16	-35.6	-37.4	22.4	0.00e+00	0	42	0	2212495360	41	4773
2026-01-28 01:35:56.58	154.25	57.97	-35.9	-37.6	22.2	0.00e+00	0	42	0	2234515456	42	4625
2026-01-28 01:36:00.55	156.33	56.77	-36.2	-37.9	21.9	0.00e+00	0	42	0	2257584128	43	4520
2026-01-28 01:36:04.52	158.25	55.56	-36.1	-37.8	22.0	0.00e+00	0	42	0	2279604224	43	4482
2026-01-28 01:36:08.49	160.01	54.35	-36.1	-37.9	22.0	0.00e+00	0	42	0	2302672896	43	4497
2026-01-28 01:36:12.46	161.62	53.14	-36.4	-38.2	21.6	0.00e+00	0	42	0	2324692992	43	4691
2026-01-28 01:36:16.44	163.12	51.94	-35.9	-37.6	22.1	0.00e+00	0	42	0	2346713088	43	4372
2026-01-28 01:36:20.40	164.49	50.75	-35.7	-37.4	22.3	0.00e+00	0	42	0	2368733184	43	4273
2026-01-28 01:36:24.38	165.77	49.58	-35.7	-37.4	22.4	0.00e+00	0	42	0	2391801856	43	4256
2026-01-28 01:36:28.35	166.95	48.42	-35.6	-37.3	22.5	0.00e+00	0	42	0	2413821952	42	4459
2026-01-28 01:36:32.32	168.05	47.28	-35.9	-37.7	22.0	0.00e+00	0	42	0	2435842048	42	4670
2026-01-28 01:36:36.29	169.07	46.16	-35.2	-36.9	22.6	0.00e+00	0	42	0	2458910720	42	4270
2026-01-28 01:36:40.26	170.02	45.06	-35.3	-37.0	22.5	0.00e+00	0	42	0	2480930816	42	4330
2026-01-28 01:36:44.23	170.91	43.98	-35.4	-37.1	22.5	0.00e+00	0	42	0	2502950912	42	4382
2026-01-28 01:36:48.20	171.75	42.93	-35.0	-36.7	22.8	0.00e+00	0	42	0	2526019584	42	4163
2026-01-28 01:36:52.18	172.53	41.90	-35.0	-36.7	22.8	0.00e+00	0	42	0	2548039680	41	4403
2026-01-28 01:36:56.15	173.27	40.89	-35.1	-36.8	22.7	0.00e+00	0	42	0	2570059776	41	4446
2026-01-28 01:37:00.12	173.96	39.90	-35.0	-36.7	22.8	0.00e+00	0	42	0	2592079872	41	4401
2026-01-28 01:37:04.09	174.62	38.94	-35.0	-36.8	22.7	0.00e+00	0	42	0	2615148544	41	4445
2026-01-28 01:37:08.06	175.23	38.00	-34.8	-36.5	22.8	0.00e+00	0	42	0	2637168640	41	4326
2026-01-28 01:37:12.04	175.82	37.08	-34.8	-36.6	22.8	0.00e+00	0	42	0	2659188736	41	4353
2026-01-28 01:37:16.01	176.37	36.18	-35.0	-36.7	22.6	0.00e+00	0	42	0	2682257408	41	4414
2026-01-28 01:37:19.98	176.90	35.31	-34.7	-36.5	22.8	0.00e+00	0	42	0	2704277504	41	4293
2026-01-28 01:37:23.95	177.40	34.45	-35.0	-36.7	22.6	0.00e+00	0	42	0	2726297600	41	4410
2026-01-28 01:37:27.92	177.87	33.62	-35.1	-36.8	22.6	0.00e+00	0	42	0	2749366272	41	4472
2026-01-28 01:37:31.90	178.32	32.81	-35.1	-36.9	22.4	0.00e+00	0	42	0	2771386368	41	4502
2026-01-28 01:37:35.87	178.75	32.01	-35.2	-37.0	22.4	0.00e+00	0	42	0	2793406464	41	4546
2026-01-28 01:37:39.84	179.16	31.24	-35.4	-37.1	22.2	0.00e+00	0	42	0	2815426560	41	4649
2026-01-28 01:37:43.81	179.56	30.48	-35.4	-37.2	22.2	0.00e+00	0	42	0	2838495232	41	4665
2026-01-28 01:37:47.78	179.93	29.75	-35.1	-36.8	22.5	0.00e+00	0	42	0	2860515328	41	4485
2026-01-28 01:37:51.75	180.29	29.03	-35.2	-37.0	22.4	0.00e+00	0	42	0	2882535424	41	4547
2026-01-28 01:37:55.73	180.64	28.32	-35.2	-36.9	22.5	0.00e+00	0	42	0	2905604096	41	4525
2026-01-28 01:37:59.70	180.97	27.63	-35.2	-37.0	22.4	0.00e+00	0	42	0	2927624192	41	4547
2026-01-28 01:38:03.67	181.28	26.96	-35.3	-37.0	22.3	0.00e+00	0	42	0	2949644288	41	4580
2026-01-28 01:38:07.64	181.59	26.31	-35.3	-37.1	22.3	0.00e+00	0	42	0	2972712960	41	4606
2026-01-28 01:38:11.61	181.88	25.67	-35.6	-37.4	22.1	0.00e+00	0	42	0	2994733056	42	4497
2026-01-28 01:38:15.58	182.16	25.04	-35.8	-37.6	21.9	0.00e+00	0	42	0	3016753152	42	4624
2026-01-28 01:38:19.55	182.44	24.43	-36.0	-37.8	21.7	0.00e+00	0	42	0	3039821824	42	4727
2026-01-28 01:38:23.52	182.70	23.83	-36.0	-37.8	21.7	0.00e+00	0	42	0	3061841920	42	4757
2026-01-28 01:38:27.50	182.95	23.24	-36.0	-37.8	21.7	0.00e+00	0	42	0	3083862016	42	4727
2026-01-28 01:38:31.47	183.20	22.67	-35.9	-37.7	21.8	0.00e+00	0	42	0	3105882112	42	4657
2026-01-28 01:38:35.44	183.43	22.11	-35.9	-37.7	21.8	0.00e+00	0	42	0	3128950784	42	4657
2026-01-28 01:38:39.41	183.66	21.56	-36.0	-37.8	21.7	0.00e+00	0	42	0	3150970880	42	4715
2026-01-28 01:38:43.38	183.88	21.02	-36.1	-37.9	21.6	0.00e+00	0	42	0	3172990976	43	4531
2026-01-28 01:38:47.35	184.09	20.49	-36.3	-38.1	21.4	0.00e+00	0	42	0	3196059648	43	4646
2026-01-28 01:38:51.32	184.30	19.98	-36.6	-38.5	21.2	0.00e+00	0	42	0	3218079744	43	4816
2026-01-28 01:38:55.30	184.50	19.47	-36.9	-38.7	21.1	0.00e+00	0	42	0	3240099840	44	4691
2026-01-28 01:38:59.27	184.70	18.97	-37.1	-39.0	20.8	0.00e+00	0	42	0	3263168512	44	4844
2026-01-28 01:39:03.24	184.88	18.48	-37.0	-38.9	20.9	0.00e+00	0	42	0	3285188608	45	4533
2026-01-28 01:39:07.21	185.07	18.01	-37.1	-38.9	20.9	0.00e+00	0	42	0	3307208704	45	4532
2026-01-28 01:39:11.18	185.25	17.54	-37.1	-39.0	20.8	0.00e+00	0	42	0	3329228800	45	4560
2026-01-28 01:39:15.15	185.42	17.08	-37.2	-39.1	20.7	0.00e+00	0	42	0	3352297472	45	4612
2026-01-28 01:39:19.13	185.59	16.62	-37.3	-39.2	20.6	0.00e+00	0	42	0	3374317568	45	4658
2026-01-28 01:39:23.10	185.75	16.18	-37.5	-39.3	20.5	0.00e+00	0	42	0	3396337664	45	4753
2026-01-28 01:39:27.07	185.91	15.74	-37.6	-39.5	20.4	0.00e+00	0	42	0	3419406336	45	4820
2026-01-28 01:39:31.04	186.07	15.31	-38.0	-39.9	20.1	0.00e+00	0	42	0	3441426432	46	4765
2026-01-28 01:39:35.01	186.22	14.89	-38.0	-39.9	20.1	0.00e+00	0	42	0	3463446528	46	4777
2026-01-28 01:39:38.98	186.36	14.48	-38.2	-40.1	19.8	0.00e+00	0	42	0	3486515200	47	4644
2026-01-28 01:39:42.95	186.51	14.07	-38.3	-40.3	19.7	0.00e+00	0	42	0	3508535296	47	4716
2026-01-28 01:39:46.93	186.65	13.67	-38.4	-40.4	19.5	0.00e+00	0	42	0	3530555392	47	4783
2026-01-28 01:39:50.90	186.78	13.27	-38.4	-40.4	19.5	0.00e+00	0	42	0	3553624064	47	4797
2026-01-28 01:39:54.87	186.92	12.88	-38.5	-40.5	19.4	0.00e+00	0	42	0	3575644160	47	4834
2026-01-28 01:39:58.84	187.05	12.50	-38.6	-40.5	19.4	0.00e+00	0	42	0	3597664256	47	4865
2026-01-28 01:40:02.81	187.17	12.13	-38.8	-40.8	19.4	0.00e+00	0	42	0	3619684352	48	4721
2026-01-28 01:40:06.78	187.30	11.75	-38.8	-40.7	19.4	0.00e+00	0	42	0	3642753024	48	4699
2026-01-28 01:40:10.75	187.42	11.39	-38.8	-40.8	19.3	0.00e+00	0	42	0	3664773120	48	4712
2026-01-28 01:40:14.73	187.54	11.03	-38.9	-40.9	19.2	0.00e+00	0	42	0	3686793216	48	4789
2026-01-28 01:40:18.70	187.66	10.67	-38.9	-40.9	19.2	0.00e+00	0	42	0	3709861888	48	4767
2026-01-28 01:40:22.67	187.77	10.32	-39.0	-41.0	19.1	0.00e+00	0	42	0	3731881984	48	4844
2026-01-28 01:40:26.64	187.88	9.98	-39.0	-41.0	19.1	0.00e+00	0	42	0	3753902080	48	4829
2026-01-28 01:40:30.61	187.99	9.64	-39.1	-41.1	19.0	0.00e+00	0	42	0	3776970752	49	4637
2026-01-28 01:40:34.58	188.10	9.30	-39.2	-41.2	18.9	0.00e+00	0	42	0	3798990848	49	4679
2026-01-28 01:40:38.56	188.20	8.97	-40.2	-42.3	17.9	0.00e+00	0	42	0	3821010944	50	5037
2026-01-28 01:40:42.53	188.30	8.64	-49.2	-61.8	3.8	8.46e-01	0	42	104	3823108096	69	15884
2026-01-28 01:40:46.50	188.40	8.32	-46.2	-60.6	3.8	8.46e-01	0	42	104	3823108096	64	18496
2026-01-28 01:40:50.48	188.50	8.00	-47.6	-60.6	3.8	8.47e-01	0	42	104	3823108096	65	17380
2026-01-28 01:40:54.45	188.60	7.68	-49.1	-61.8	3.8	8.47e-01	0	42	104	3823108096	69	15912
2026-01-28 01:40:58.42	188.69	7.37	-49.1	-61.8	3.8	8.46e-01	0	42	104	3823108096	69	15940
2026-01-28 01:41:02.39	188.79	7.06	-49.6	-61.9	3.8	8.46e-01	0	42	104	3823108096	70	15153
2026-01-28 01:41:06.36	188.88	6.76	-49.7	-61.9	3.8	8.46e-01	0	42	104	3823108096	70	15083
2026-01-28 01:41:10.33	188.97	6.46	-49.7	-61.8	3.8	8.47e-01	0	42	104	3823108096	70	14999
2026-01-28 01:41:14.31	189.06	6.16	-49.5	-61.8	3.8	8.46e-01	0	42	104	3823108096	70	14980
2026-01-28 01:41:18.28	189.14	5.87	-49.5	-61.8	3.8	8.47e-01	0	42	104	3823108096	70	14933
2026-01-28 01:41:22.25	189.23	5.58	-49.5	-61.7	3.8	8.47e-01	0	42	104	3823108096	70	14848
2026-01-28 01:41:26.22	189.31	5.29	-49.5	-61.8	3.8	8.47e-01	0	42	104	3823108096	70	14892
2026-01-28 01:41:30.19	189.39	5.01	-49.5	-61.8	3.8	8.47e-01	0	42	104	3823108096	70	14893

#Closed at: 2026-01-28 01:41:32
#Recorded file [3823 MB]: D:/Data/31040_260128_042835.dat