passes_logs/2026/01/28/T1/T1__20260128_234313_NOAA_21_JPSS-2_rec.log

#Pass ID: 20260128_234313_NOAA 21 (JPSS-2)
#Satellite: NOAA 21 (JPSS-2)
#Configuration: NOAA 21
#almurnet v.1.7.20251203
#Start time: 2026-01-28 23:43:13

#Version: 2.0.20230620
#Station: T1
#Location: 37.570604 lon 55.790049 lat
#TLE: 1 54234U 22150A   26027.77052245  .00000166  00000+0  99439-4 0  9997
#TLE: 2 54234  98.7510 328.5165 0000872 203.6403 156.4733 14.19540252166628

#Time	Az	El	Level	Level2	SNR	BER	BlckErr	Temp	State	Recorded	gain1	gain2
2026-01-28 23:43:13.91	16.12	5.03	-49.8	-63.0	3.8	1.49e+00	0	39	0	0	70	17264
2026-01-28 23:43:16.88	16.13	5.24	-50.2	-63.1	3.8	1.49e+00	0	40	104	0	71	16483
2026-01-28 23:43:19.86	16.13	5.46	-50.2	-63.1	3.8	1.49e+00	0	40	104	0	71	16453
2026-01-28 23:43:22.84	16.14	5.67	-50.1	-63.0	3.8	1.49e+00	0	40	104	0	71	16260
2026-01-28 23:43:25.82	16.15	5.89	-50.0	-63.0	3.8	1.49e+00	0	40	104	0	71	16167
2026-01-28 23:43:28.81	16.15	6.11	-49.6	-62.8	3.8	1.49e+00	0	40	104	0	71	15887
2026-01-28 23:43:31.79	16.16	6.33	-49.1	-62.7	3.8	1.49e+00	0	40	104	0	69	17521
2026-01-28 23:43:34.77	16.16	6.56	-48.5	-62.0	3.8	1.49e+00	0	40	104	0	67	18227
2026-01-28 23:43:37.75	16.17	6.78	-48.2	-62.0	3.8	1.49e+00	0	41	104	0	68	17118
2026-01-28 23:43:40.73	16.18	7.01	-48.1	-61.2	3.8	1.49e+00	0	41	104	0	68	15726
2026-01-28 23:43:43.71	16.18	7.24	-48.0	-60.2	3.9	1.48e+00	0	41	104	0	68	13985
2026-01-28 23:43:46.69	16.19	7.47	-47.7	-58.5	4.3	1.47e+00	0	41	104	0	67	12227
2026-01-28 23:43:49.67	16.19	7.71	-47.6	-58.0	4.0	1.20e+00	0	41	104	0	67	11484
2026-01-28 23:43:52.65	16.20	7.94	-47.4	-56.2	5.3	5.73e-01	0	41	0	0	66	9875
2026-01-28 23:43:55.63	16.20	8.18	-47.1	-54.5	6.6	2.30e-01	0	41	0	0	66	8102
2026-01-28 23:43:58.61	16.21	8.42	-46.7	-52.9	8.0	7.26e-02	0	41	0	0	65	7175
2026-01-28 23:44:01.59	16.21	8.66	-46.1	-51.4	9.5	1.49e-02	0	41	0	0	64	6406
2026-01-28 23:44:04.57	16.22	8.91	-45.9	-50.8	10.2	6.00e-03	0	41	0	0	63	6346
2026-01-28 23:44:07.55	16.22	9.16	-46.4	-51.7	9.4	2.62e-02	0	41	0	0	63	7011
2026-01-28 23:44:10.55	16.23	9.41	-46.1	-51.2	9.4	7.51e-01	0	42	0	0	64	6246
2026-01-28 23:44:13.53	16.23	9.66	-41.7	-44.1	16.9	0.00e+00	0	41	0	0	55	4622
2026-01-28 23:44:16.52	16.23	9.92	-40.8	-43.0	17.9	0.00e+00	0	42	0	0	53	4563
2026-01-28 23:44:19.50	16.24	10.18	-40.8	-43.0	17.9	0.00e+00	0	42	0	0	53	4585
2026-01-28 23:44:22.49	16.24	10.44	-40.6	-42.7	18.2	0.00e+00	0	42	0	0	53	4425
2026-01-28 23:44:25.55	16.25	10.71	-40.5	-42.6	18.3	0.00e+00	0	41	0	0	53	4359
2026-01-28 23:44:28.40	16.25	10.97	-40.5	-42.6	18.3	0.00e+00	0	41	0	0	52	4635
2026-01-28 23:44:31.53	16.25	11.25	-40.3	-42.4	18.6	0.00e+00	0	42	0	0	52	4507
2026-01-28 23:44:34.37	16.26	11.51	-40.3	-42.3	18.6	0.00e+00	0	42	0	0	52	4472
2026-01-28 23:44:37.50	16.26	11.80	-40.2	-42.3	18.7	0.00e+00	0	42	0	0	52	4448
2026-01-28 23:44:40.34	16.26	12.06	-40.3	-42.3	18.7	0.00e+00	0	42	0	0	52	4471
2026-01-28 23:44:43.47	16.26	12.36	-40.2	-42.3	18.7	0.00e+00	0	42	0	0	52	4447
2026-01-28 23:44:46.31	16.27	12.63	-40.2	-42.2	18.7	0.00e+00	0	42	0	0	52	4434
2026-01-28 23:44:49.44	16.27	12.93	-40.2	-42.2	18.8	0.00e+00	0	42	0	0	52	4421
2026-01-28 23:44:52.29	16.27	13.21	-40.2	-42.2	18.8	0.00e+00	0	42	0	0	52	4409
2026-01-28 23:44:55.59	16.27	13.54	-40.3	-42.2	18.8	0.00e+00	0	42	0	0	52	4427
2026-01-28 23:44:58.31	16.27	13.81	-40.4	-42.4	18.6	0.00e+00	0	42	0	0	52	4495
2026-01-28 23:45:01.58	16.28	14.15	-40.4	-42.3	18.7	0.00e+00	0	42	0	0	52	4455
2026-01-28 23:45:04.48	16.28	14.45	-40.2	-42.1	18.9	0.00e+00	0	42	0	0	52	4366
2026-01-28 23:45:07.57	16.28	14.77	-40.1	-42.0	19.0	0.00e+00	0	42	0	0	52	4300
2026-01-28 23:45:10.42	16.28	15.07	-40.1	-42.0	19.0	0.00e+00	0	42	0	0	52	4300
2026-01-28 23:45:13.56	16.28	15.41	-40.2	-42.0	19.0	0.00e+00	0	42	0	0	52	4325
2026-01-28 23:45:16.40	16.28	15.72	-40.1	-41.9	19.1	0.00e+00	0	42	0	0	52	4254
2026-01-28 23:45:19.53	16.28	16.06	-40.2	-42.0	19.0	0.00e+00	0	42	0	0	52	4305
2026-01-28 23:45:22.38	16.28	16.38	-40.1	-41.9	19.0	0.00e+00	0	42	0	0	52	4280
2026-01-28 23:45:25.50	16.28	16.73	-40.1	-41.9	19.0	0.00e+00	0	42	0	0	52	4275
2026-01-28 23:45:28.42	16.28	17.07	-40.1	-41.9	19.1	0.00e+00	0	42	0	0	52	4273
2026-01-28 23:45:31.59	16.28	17.44	-40.2	-42.0	19.0	0.00e+00	0	42	0	0	52	4299
2026-01-28 23:45:34.44	16.27	17.77	-40.1	-41.9	19.1	0.00e+00	0	42	0	0	52	4246
2026-01-28 23:45:37.56	16.27	18.15	-40.1	-41.9	19.1	0.00e+00	0	42	0	0	52	4258
2026-01-28 23:45:40.41	16.27	18.49	-40.1	-41.9	19.1	0.00e+00	0	42	0	0	52	4252
2026-01-28 23:45:43.54	16.27	18.88	-40.0	-41.8	19.2	0.00e+00	0	42	0	0	52	4220
2026-01-28 23:45:46.38	16.26	19.24	-40.0	-41.8	19.2	0.00e+00	0	42	0	0	52	4236
2026-01-28 23:45:49.70	16.26	19.66	-39.9	-41.7	19.4	0.00e+00	0	42	0	0	51	4425
2026-01-28 23:45:52.54	16.26	20.03	-39.8	-41.6	19.4	0.00e+00	0	42	0	0	51	4382
2026-01-28 23:45:55.76	16.25	20.45	-39.7	-41.5	19.6	0.00e+00	0	42	0	0	51	4309
2026-01-28 23:45:58.69	16.25	20.84	-39.5	-41.2	19.8	0.00e+00	0	42	0	0	51	4183
2026-01-28 23:46:02.25	16.24	21.33	-39.3	-41.0	20.0	0.00e+00	0	42	0	0	50	4321
2026-01-28 23:46:05.25	16.24	21.74	-39.2	-40.9	20.1	0.00e+00	0	42	0	0	50	4252
2026-01-28 23:46:08.27	16.23	22.17	-39.0	-40.7	20.2	0.00e+00	0	42	0	0	50	4159
2026-01-28 23:46:11.25	16.23	22.59	-38.8	-40.5	20.4	0.00e+00	0	42	0	0	49	4306
2026-01-28 23:46:14.23	16.22	23.03	-38.6	-40.3	20.7	0.00e+00	0	42	0	0	49	4195
2026-01-28 23:46:17.34	16.21	23.49	-38.6	-40.2	20.7	0.00e+00	0	43	0	0	49	4193
2026-01-28 23:46:20.22	16.20	23.92	-38.6	-40.2	20.7	0.00e+00	0	42	0	0	49	4182
2026-01-28 23:46:23.59	16.19	24.44	-38.6	-40.2	20.8	0.00e+00	0	42	0	0	49	4173
2026-01-28 23:46:26.32	16.18	24.87	-38.7	-40.4	20.6	0.00e+00	0	42	0	0	49	4250
2026-01-28 23:46:29.59	16.17	25.39	-38.8	-40.5	20.6	0.00e+00	0	42	0	0	49	4307
2026-01-28 23:46:32.42	16.16	25.85	-39.0	-40.7	20.4	0.00e+00	0	42	0	0	49	4402
2026-01-28 23:46:35.55	16.15	26.36	-39.3	-41.0	20.1	0.00e+00	0	42	0	0	49	4570
2026-01-28 23:46:38.46	16.14	26.85	-39.5	-41.1	19.9	0.00e+00	0	42	0	0	49	4651
2026-01-28 23:46:41.59	16.13	27.39	-39.9	-41.6	19.5	0.00e+00	0	42	0	0	50	4624
2026-01-28 23:46:44.43	16.11	27.89	-40.0	-41.8	19.3	0.00e+00	0	42	0	0	50	4720
2026-01-28 23:46:47.56	16.10	28.45	-40.1	-41.9	19.2	0.00e+00	0	43	0	0	51	4538
2026-01-28 23:46:50.40	16.08	28.96	-40.3	-42.1	19.1	0.00e+00	0	42	0	0	51	4630
2026-01-28 23:46:53.53	16.07	29.54	-40.3	-42.2	19.1	0.00e+00	0	42	0	0	51	4656
2026-01-28 23:46:56.39	16.05	30.08	-40.1	-41.9	19.3	0.00e+00	0	43	0	0	51	4523
2026-01-28 23:46:59.69	16.03	30.72	-39.9	-41.7	19.6	0.00e+00	0	43	0	0	51	4418
2026-01-28 23:47:02.41	16.01	31.25	-39.5	-41.3	19.9	0.00e+00	0	43	0	0	51	4212
2026-01-28 23:47:05.69	15.99	31.91	-39.4	-41.1	20.2	0.00e+00	0	42	0	0	50	4351
2026-01-28 23:47:08.59	15.97	32.51	-39.4	-41.1	20.2	0.00e+00	0	42	0	0	50	4355
2026-01-28 23:47:11.58	15.95	33.14	-39.8	-41.5	19.7	0.00e+00	0	42	0	0	50	4584
2026-01-28 23:47:14.56	15.92	33.77	-40.2	-42.0	19.3	0.00e+00	0	43	0	0	51	4563
2026-01-28 23:47:17.55	15.90	34.43	-40.6	-42.5	18.8	0.00e+00	0	43	0	0	51	4816
2026-01-28 23:47:20.53	15.87	35.09	-40.9	-42.8	18.4	0.00e+00	0	42	0	0	52	4743
2026-01-28 23:47:23.52	15.84	35.77	-41.5	-43.5	17.8	0.00e+00	0	42	0	0	53	4863
2026-01-28 23:47:26.50	15.81	36.47	-41.9	-44.0	17.5	0.00e+00	0	42	0	0	54	4815
2026-01-28 23:47:29.49	15.78	37.18	-41.8	-43.9	17.5	0.00e+00	0	43	0	0	54	4786
2026-01-28 23:47:32.47	15.74	37.90	-41.4	-43.3	18.1	0.00e+00	0	43	0	0	54	4486
2026-01-28 23:47:35.52	15.70	38.66	-41.1	-43.0	18.3	0.00e+00	0	42	0	0	54	4314
2026-01-28 23:47:38.37	15.67	39.39	-40.9	-42.7	18.5	0.00e+00	0	42	0	0	53	4423
2026-01-28 23:47:41.49	15.62	40.20	-41.0	-42.9	18.3	0.00e+00	0	43	0	0	53	4497
2026-01-28 23:47:44.33	15.58	40.96	-41.2	-43.1	18.2	0.00e+00	0	42	0	0	53	4635
2026-01-28 23:47:47.46	15.53	41.81	-41.9	-44.0	17.5	0.00e+00	0	42	0	0	54	4835
2026-01-28 23:47:50.30	15.49	42.60	-42.2	-44.2	17.3	0.00e+00	0	42	0	0	54	4959
2026-01-28 23:47:53.43	15.43	43.49	-42.1	-44.1	17.3	0.00e+00	0	42	0	0	55	4612
2026-01-28 23:47:56.27	15.38	44.31	-42.4	-44.5	16.9	0.00e+00	0	43	0	0	55	4852
2026-01-28 23:47:59.40	15.31	45.24	-42.6	-44.8	16.5	0.00e+00	0	42	0	0	55	5035
2026-01-28 23:48:02.22	15.25	46.10	-42.9	-45.2	16.4	0.00e+00	0	42	0	0	56	4927
2026-01-28 23:48:05.56	15.18	47.14	-42.0	-44.1	17.4	0.00e+00	0	42	0	0	56	4348
2026-01-28 23:48:08.27	15.11	48.01	-41.5	-43.4	17.9	0.00e+00	0	43	0	0	55	4268
2026-01-28 23:48:11.54	15.02	49.07	-41.5	-43.4	18.0	0.00e+00	0	43	0	0	54	4529
2026-01-28 23:48:14.27	14.94	49.98	-40.9	-42.8	18.6	0.00e+00	0	42	0	0	53	4465
2026-01-28 23:48:17.65	14.84	51.13	-41.3	-43.2	18.2	0.00e+00	0	43	0	0	53	4693
2026-01-28 23:48:20.43	14.75	52.10	-41.4	-43.4	18.0	0.00e+00	0	43	0	0	53	4775
2026-01-28 23:48:23.78	14.62	53.29	-40.6	-42.4	19.0	0.00e+00	0	43	0	0	53	4246
2026-01-28 23:48:26.49	14.52	54.28	-40.4	-42.2	19.1	0.00e+00	0	43	0	0	52	4431
2026-01-28 23:48:29.79	14.38	55.51	-39.9	-41.6	19.7	0.00e+00	0	43	0	0	51	4376
2026-01-28 23:48:32.49	14.25	56.53	-39.8	-41.6	19.6	0.00e+00	0	43	0	0	51	4347
2026-01-28 23:48:35.76	14.08	57.80	-39.8	-41.5	19.7	0.00e+00	0	43	0	0	51	4327
2026-01-28 23:48:38.67	13.92	58.95	-39.2	-40.9	20.3	0.00e+00	0	43	0	0	50	4257
2026-01-28 23:48:41.94	13.72	60.27	-38.8	-40.5	20.7	0.00e+00	0	42	0	0	49	4296
2026-01-28 23:48:44.65	13.53	61.39	-38.9	-40.6	20.4	0.00e+00	0	42	0	0	49	4353
2026-01-28 23:48:48.03	13.27	62.81	-38.7	-40.3	20.7	0.00e+00	0	43	0	0	49	4239
2026-01-28 23:48:50.81	13.03	64.00	-38.5	-40.1	20.8	0.00e+00	0	42	0	0	48	4366
2026-01-28 23:48:54.20	12.71	65.47	-38.1	-39.7	21.2	0.00e+00	0	42	0	0	48	4176
2026-01-28 23:48:56.91	12.41	66.67	-37.9	-39.5	21.4	0.00e+00	0	43	0	0	47	4323
2026-01-28 23:49:00.19	12.00	68.14	-38.2	-39.8	21.1	0.00e+00	0	43	0	0	47	4492
2026-01-28 23:49:02.93	11.61	69.39	-37.7	-39.3	21.3	0.00e+00	0	43	0	0	47	4225
2026-01-28 23:49:06.20	11.07	70.90	-37.8	-39.4	21.4	0.00e+00	0	43	0	0	47	4244
2026-01-28 23:49:08.96	10.53	72.20	-38.3	-40.0	20.9	0.00e+00	0	42	0	0	47	4546
2026-01-28 23:49:12.25	9.77	73.76	-37.9	-39.5	21.1	0.00e+00	0	42	0	0	47	4330
2026-01-28 23:49:15.30	8.91	75.22	-37.7	-39.3	21.4	0.00e+00	0	43	0	0	47	4218
2026-01-28 23:49:18.65	7.73	76.84	-37.9	-39.4	21.3	0.00e+00	0	42	0	0	47	4285
2026-01-28 23:49:21.45	6.49	78.20	-37.8	-39.4	21.3	0.00e+00	0	43	0	0	47	4248
2026-01-28 23:49:24.62	4.67	79.74	-38.2	-39.8	21.1	0.00e+00	0	43	0	0	47	4471
2026-01-28 23:49:27.47	2.47	81.13	-38.4	-40.0	20.9	0.00e+00	0	42	0	0	47	4561
2026-01-28 23:49:30.61	359.08	82.65	-38.7	-40.3	20.8	0.00e+00	0	43	0	0	48	4478
2026-01-28 23:49:33.46	354.50	84.01	-38.6	-40.2	20.7	0.00e+00	0	43	0	0	48	4414
2026-01-28 23:49:36.58	346.39	85.43	-39.1	-40.8	20.1	0.00e+00	0	42	0	0	49	4470
2026-01-28 23:49:39.49	332.95	86.60	-38.4	-40.0	20.9	0.00e+00	0	43	0	0	48	4332
2026-01-28 23:49:42.47	307.74	87.44	-38.2	-39.8	21.2	0.00e+00	0	43	0	0	48	4211
2026-01-28 23:49:45.46	272.39	87.49	-38.1	-39.7	20.9	0.00e+00	0	43	0	0	47	4423
2026-01-28 23:49:48.44	245.63	86.72	-38.6	-40.3	20.8	0.00e+00	0	42	0	0	48	4442
2026-01-28 23:49:51.43	230.94	85.53	-38.3	-39.9	21.1	0.00e+00	0	43	0	0	48	4275
2026-01-28 23:49:54.41	222.76	84.19	-37.9	-39.5	21.5	0.00e+00	0	42	0	0	47	4296
2026-01-28 23:49:57.40	217.72	82.77	-38.4	-40.0	20.8	0.00e+00	0	42	0	0	47	4583
2026-01-28 23:50:00.39	214.36	81.32	-38.3	-39.9	20.7	0.00e+00	0	43	0	0	47	4516
2026-01-28 23:50:03.37	211.98	79.87	-38.1	-39.7	21.2	0.00e+00	0	43	0	0	47	4405
2026-01-28 23:50:06.36	210.21	78.41	-38.1	-39.7	20.9	0.00e+00	0	43	0	0	47	4439
2026-01-28 23:50:09.52	208.77	76.87	-38.0	-39.5	21.3	0.00e+00	0	42	0	0	47	4329
2026-01-28 23:50:12.36	207.75	75.49	-38.1	-39.7	20.4	0.00e+00	0	42	0	0	47	4425
2026-01-28 23:50:15.49	206.83	73.99	-38.2	-39.8	20.6	0.00e+00	0	43	0	0	47	4479
2026-01-28 23:50:18.33	206.15	72.64	-39.0	-40.7	20.5	0.00e+00	0	42	0	0	48	4679
2026-01-28 23:50:21.46	205.51	71.16	-37.7	-39.3	21.5	0.00e+00	0	42	0	0	47	4199
2026-01-28 23:50:24.41	205.00	69.79	-38.2	-39.8	21.1	0.00e+00	0	42	0	0	47	4468
2026-01-28 23:50:27.55	204.53	68.35	-37.7	-39.2	21.1	0.00e+00	0	43	0	0	47	4184
2026-01-28 23:50:30.39	204.17	67.07	-37.8	-39.3	21.4	0.00e+00	0	43	0	0	46	4481
2026-01-28 23:50:33.51	203.82	65.68	-38.9	-40.6	20.5	0.00e+00	0	43	0	0	48	4627
2026-01-28 23:50:36.35	203.53	64.43	-37.9	-39.4	20.8	0.00e+00	0	43	0	0	47	4291
2026-01-28 23:50:39.48	203.25	63.08	-39.7	-41.5	19.8	0.00e+00	0	43	0	0	50	4563
2026-01-28 23:50:42.32	203.03	61.88	-39.4	-41.1	19.6	0.00e+00	0	43	0	0	50	4375
2026-01-28 23:50:45.45	202.80	60.58	-38.1	-39.6	21.2	0.00e+00	0	43	0	0	48	4140
2026-01-28 23:50:48.29	202.62	59.42	-39.1	-40.8	20.3	0.00e+00	0	43	0	0	48	4720
2026-01-28 23:50:51.41	202.44	58.17	-39.4	-41.1	19.7	0.00e+00	0	42	0	0	50	4350
2026-01-28 23:50:54.26	202.29	57.05	-38.4	-40.0	20.6	0.00e+00	0	42	0	0	48	4319
2026-01-28 23:50:57.46	202.13	55.82	-40.7	-42.5	18.7	0.00e+00	0	42	0	0	52	4590
2026-01-28 23:51:00.31	202.00	54.75	-41.5	-43.5	17.5	0.00e+00	0	42	0	0	53	4851
2026-01-28 23:51:03.58	201.87	53.55	-40.3	-42.1	19.0	0.00e+00	0	42	0	0	52	4364
2026-01-28 23:51:06.28	201.77	52.57	-40.1	-41.8	19.4	0.00e+00	0	43	0	0	51	4472
2026-01-28 23:51:09.55	201.65	51.42	-41.4	-43.3	17.8	0.00e+00	0	43	0	0	53	4719
2026-01-28 23:51:12.30	201.56	50.47	-42.3	-44.4	16.6	0.00e+00	0	43	0	0	55	4807
2026-01-28 23:51:15.64	201.46	49.34	-42.2	-44.4	16.7	0.00e+00	0	43	0	0	55	4791
2026-01-28 23:51:18.42	201.39	48.42	-41.0	-42.9	18.2	0.00e+00	0	42	0	0	54	4280
2026-01-28 23:51:21.72	201.30	47.36	-42.3	-44.5	16.9	0.00e+00	0	43	0	0	55	4832
2026-01-28 23:51:24.42	201.24	46.50	-43.5	-45.9	15.7	0.00e+00	0	42	0	0	57	5064
2026-01-28 23:51:27.69	201.16	45.50	-42.9	-45.1	16.4	0.00e+00	0	43	0	0	57	4632
2026-01-28 23:51:30.55	201.10	44.63	-43.1	-45.4	16.1	0.00e+00	0	43	0	0	57	4767
2026-01-28 23:51:33.68	201.04	43.71	-42.2	-44.3	16.9	0.00e+00	0	43	0	0	56	4461
2026-01-28 23:51:36.79	200.98	42.81	-41.2	-43.0	18.1	0.00e+00	0	43	0	0	54	4334
2026-01-28 23:51:39.63	200.93	42.01	-41.5	-43.5	17.8	0.00e+00	0	43	0	0	54	4559
2026-01-28 23:51:42.89	200.88	41.12	-43.0	-45.3	16.3	0.00e+00	0	42	0	0	56	5004
2026-01-28 23:51:45.78	200.83	40.34	-43.3	-45.6	16.0	0.00e+00	0	43	0	0	57	4875
2026-01-28 23:51:48.98	200.79	39.50	-42.5	-44.6	16.8	0.00e+00	0	43	0	0	57	4384
2026-01-28 23:51:51.82	200.75	38.77	-42.2	-44.3	17.2	0.00e+00	0	43	0	0	56	4455
2026-01-28 23:51:54.95	200.71	37.98	-42.3	-44.4	17.1	0.00e+00	0	43	0	0	56	4511
2026-01-28 23:51:57.79	200.67	37.28	-41.2	-43.1	18.2	0.00e+00	0	43	0	0	54	4366
2026-01-28 23:52:01.08	200.64	36.49	-40.8	-42.7	18.5	0.00e+00	0	43	0	0	53	4398
2026-01-28 23:52:03.92	200.61	35.83	-40.4	-42.2	19.0	0.00e+00	0	42	0	0	52	4405
2026-01-28 23:52:07.05	200.57	35.10	-40.6	-42.5	18.6	0.00e+00	0	43	0	0	52	4549
2026-01-28 23:52:10.03	200.54	34.43	-40.1	-41.8	19.2	0.00e+00	0	43	0	0	52	4228
2026-01-28 23:52:13.01	200.52	33.78	-40.0	-41.8	19.3	0.00e+00	0	43	0	0	51	4448
2026-01-28 23:52:16.00	200.49	33.13	-39.8	-41.5	19.6	0.00e+00	0	43	0	0	51	4325
2026-01-28 23:52:18.98	200.47	32.50	-40.1	-41.9	19.3	0.00e+00	0	43	0	0	51	4521
2026-01-28 23:52:21.97	200.44	31.88	-40.0	-41.7	19.5	0.00e+00	0	43	0	0	51	4415
2026-01-28 23:52:24.95	200.42	31.28	-40.0	-41.8	19.4	0.00e+00	0	43	0	0	51	4444
2026-01-28 23:52:27.94	200.40	30.69	-40.3	-42.1	19.0	0.00e+00	0	43	0	0	51	4638
2026-01-28 23:52:30.97	200.38	30.10	-40.6	-42.4	18.8	0.00e+00	0	43	0	0	51	4792
2026-01-28 23:52:33.97	200.36	29.52	-40.2	-42.0	19.0	0.00e+00	0	43	0	0	51	4590
2026-01-28 23:52:36.95	200.34	28.97	-39.9	-41.7	19.2	0.00e+00	0	43	0	0	51	4437
2026-01-28 23:52:39.94	200.33	28.42	-39.7	-41.5	19.3	0.00e+00	0	43	0	0	51	4317
2026-01-28 23:52:42.92	200.31	27.88	-39.9	-41.6	19.2	0.00e+00	0	43	0	0	51	4386
2026-01-28 23:52:45.97	200.29	27.35	-39.6	-41.4	19.5	0.00e+00	0	43	0	0	51	4249
2026-01-28 23:52:48.84	200.28	26.85	-39.7	-41.4	19.5	0.00e+00	0	43	0	0	51	4288
2026-01-28 23:52:51.97	200.26	26.32	-39.4	-41.1	19.9	0.00e+00	0	43	0	0	50	4381
2026-01-28 23:52:54.81	200.25	25.84	-39.3	-41.0	20.0	0.00e+00	0	43	0	0	50	4295
2026-01-28 23:52:57.98	200.24	25.33	-39.2	-40.9	20.1	0.00e+00	0	43	0	0	50	4277
2026-01-28 23:53:00.87	200.23	24.86	-39.1	-40.8	20.2	0.00e+00	0	43	0	0	50	4198
2026-01-28 23:53:04.14	200.21	24.35	-39.0	-40.6	20.3	0.00e+00	0	43	0	0	50	4137
2026-01-28 23:53:06.87	200.20	23.92	-39.1	-40.7	20.2	0.00e+00	0	43	0	0	49	4422
2026-01-28 23:53:10.14	200.19	23.43	-38.9	-40.6	20.3	0.00e+00	0	43	0	0	49	4357
2026-01-28 23:53:12.84	200.19	23.02	-39.0	-40.7	20.2	0.00e+00	0	43	0	0	49	4398
2026-01-28 23:53:16.27	200.17	22.52	-39.0	-40.7	20.3	0.00e+00	0	43	0	0	49	4392
2026-01-28 23:53:18.97	200.17	22.13	-39.0	-40.6	20.3	0.00e+00	0	43	0	0	49	4381
2026-01-28 23:53:22.24	200.16	21.67	-39.0	-40.7	20.3	0.00e+00	0	43	0	0	49	4401
2026-01-28 23:53:24.94	200.15	21.29	-39.1	-40.8	20.2	0.00e+00	0	43	0	0	49	4450
2026-01-28 23:53:28.22	200.14	20.84	-38.9	-40.6	20.4	0.00e+00	0	43	0	0	49	4359
2026-01-28 23:53:30.92	200.14	20.47	-39.1	-40.7	20.2	0.00e+00	0	43	0	0	49	4423
2026-01-28 23:53:34.20	200.13	20.04	-39.3	-41.0	20.0	0.00e+00	0	43	0	0	49	4549
2026-01-28 23:53:36.91	200.12	19.68	-39.4	-41.1	19.8	0.00e+00	0	42	0	0	49	4634
2026-01-28 23:53:40.17	200.12	19.26	-39.5	-41.3	19.7	0.00e+00	0	43	0	0	49	4714
2026-01-28 23:53:42.89	200.11	18.92	-39.6	-41.3	19.7	0.00e+00	0	43	0	0	49	4743
2026-01-28 23:53:46.20	200.11	18.50	-39.8	-41.6	19.4	0.00e+00	0	43	0	0	50	4603
2026-01-28 23:53:49.25	200.10	18.13	-40.0	-41.8	19.2	0.00e+00	0	43	0	0	50	4716
2026-01-28 23:53:52.23	200.10	17.77	-40.1	-41.9	19.1	0.00e+00	0	43	0	0	50	4794
2026-01-28 23:53:55.22	200.10	17.41	-40.2	-42.1	18.9	0.00e+00	0	43	0	0	51	4606
2026-01-28 23:53:58.21	200.09	17.06	-40.2	-42.0	19.0	0.00e+00	0	43	0	0	51	4585
2026-01-28 23:54:01.18	200.09	16.71	-40.1	-41.9	19.0	0.00e+00	0	43	0	0	51	4528
2026-01-28 23:54:04.31	200.08	16.36	-40.2	-42.0	18.9	0.00e+00	0	43	0	0	51	4575
2026-01-28 23:54:07.82	200.08	15.96	-40.1	-42.0	19.0	0.00e+00	0	42	0	0	51	4547
2026-01-28 23:54:10.53	200.08	15.66	-40.2	-42.0	18.9	0.00e+00	0	43	0	0	51	4562
2026-01-28 23:54:13.80	200.08	15.30	-40.3	-42.1	18.8	0.00e+00	0	43	0	0	51	4625
2026-01-28 23:54:16.51	200.07	15.01	-40.4	-42.3	18.6	0.00e+00	0	43	0	0	51	4740
2026-01-28 23:54:19.78	200.07	14.66	-40.4	-42.3	18.6	0.00e+00	0	43	0	0	51	4710
2026-01-28 23:54:22.70	200.07	14.35	-40.4	-42.3	18.5	0.00e+00	0	43	0	0	51	4731
2026-01-28 23:54:26.25	200.07	13.99	-40.4	-42.2	18.6	0.00e+00	0	43	0	0	51	4700
2026-01-28 23:54:29.25	200.07	13.68	-40.6	-42.4	18.4	0.00e+00	0	43	0	0	51	4813
2026-01-28 23:54:32.52	200.07	13.35	-40.6	-42.5	18.3	0.00e+00	0	43	0	0	51	4820
2026-01-28 23:54:35.24	200.07	13.08	-40.5	-42.4	18.4	0.00e+00	0	43	0	0	51	4773
2026-01-28 23:54:38.52	200.06	12.76	-40.5	-42.4	18.4	0.00e+00	0	43	0	0	51	4761
2026-01-28 23:54:41.26	200.06	12.49	-40.5	-42.4	18.4	0.00e+00	0	43	0	0	51	4786
2026-01-28 23:54:44.55	200.06	12.17	-40.6	-42.5	18.2	0.00e+00	0	43	0	0	52	4587
2026-01-28 23:54:47.25	200.06	11.92	-40.5	-42.4	18.2	0.00e+00	0	43	0	0	52	4529
2026-01-28 23:54:50.51	200.06	11.61	-40.6	-42.5	18.1	0.00e+00	0	43	0	0	52	4586
2026-01-28 23:54:53.23	200.06	11.36	-40.6	-42.5	18.1	0.00e+00	0	43	0	0	52	4588
2026-01-28 23:54:56.61	200.06	11.05	-40.6	-42.6	18.1	0.00e+00	0	43	0	0	52	4622
2026-01-28 23:54:59.32	200.06	10.80	-40.7	-42.7	18.0	0.00e+00	0	43	0	0	52	4676
2026-01-28 23:55:02.60	200.06	10.51	-40.8	-42.8	17.8	0.00e+00	0	43	0	0	52	4757
2026-01-28 23:55:05.32	200.07	10.26	-40.9	-43.0	17.7	0.00e+00	0	43	0	0	52	4819
2026-01-28 23:55:08.60	200.07	9.98	-41.0	-43.1	17.6	0.00e+00	0	43	0	0	52	4879
2026-01-28 23:55:11.46	200.07	9.73	-41.0	-43.1	17.5	0.00e+00	0	43	0	0	52	4893
2026-01-28 23:55:14.59	200.07	9.46	-41.1	-43.2	17.5	0.00e+00	0	43	0	0	52	4948
2026-01-28 23:55:17.43	200.07	9.22	-41.1	-43.2	17.4	0.00e+00	0	43	0	0	53	4682
2026-01-28 23:55:20.61	200.07	8.95	-48.7	-61.9	3.8	1.49e+00	0	43	104	0	68	16897
2026-01-28 23:55:23.45	200.07	8.71	-46.6	-61.4	3.8	1.49e+00	0	43	104	0	65	19040
2026-01-28 23:55:26.57	200.07	8.45	-44.5	-61.0	3.8	1.49e+00	0	43	104	0	60	24361
2026-01-28 23:55:29.41	200.08	8.22	-49.3	-62.3	3.8	1.49e+00	0	43	104	0	69	16882
2026-01-28 23:55:32.54	200.08	7.97	-49.4	-62.3	3.8	1.49e+00	0	43	104	0	69	16854
2026-01-28 23:55:35.39	200.08	7.74	-49.5	-62.4	3.8	1.49e+00	0	43	104	0	69	17078
2026-01-28 23:55:38.64	200.08	7.48	-49.3	-62.5	3.8	1.49e+00	0	43	104	0	69	17123
2026-01-28 23:55:41.54	200.08	7.25	-49.2	-62.5	3.8	1.49e+00	0	43	104	0	69	17122
2026-01-28 23:55:44.66	200.09	7.01	-48.7	-62.5	3.8	1.49e+00	0	43	104	0	69	17086
2026-01-28 23:55:47.50	200.09	6.79	-49.4	-62.4	3.8	1.49e+00	0	43	104	0	69	16957
2026-01-28 23:55:50.62	200.09	6.55	-49.2	-62.3	3.8	1.49e+00	0	43	104	0	69	16792
2026-01-28 23:55:53.46	200.09	6.34	-49.2	-62.3	3.8	1.49e+00	0	43	104	0	69	16785
2026-01-28 23:55:56.58	200.09	6.10	-49.2	-62.3	3.8	1.49e+00	0	43	104	0	69	16789
2026-01-28 23:55:59.42	200.10	5.89	-49.2	-62.3	3.8	1.49e+00	0	43	104	0	69	16787
2026-01-28 23:56:02.54	200.10	5.66	-49.2	-62.3	3.8	1.49e+00	0	43	104	0	69	16742
2026-01-28 23:56:05.38	200.10	5.45	-49.2	-62.3	3.8	1.49e+00	0	43	104	0	69	16769
2026-01-28 23:56:08.50	200.10	5.22	-49.2	-62.3	3.8	1.49e+00	0	43	104	0	69	16763
2026-01-28 23:56:11.34	200.11	5.02	-49.2	-62.3	3.8	1.49e+00	0	43	104	0	69	16769

#Closed at: 2026-01-28 23:56:13
#Recorded file [0 MB]: D:/Data/31040_260129_024313.dat