passes_logs/2026/01/28/T1/T1__20260128_063229_FENGYUN_3E_rec.log

#Pass ID: 20260128_063229_FENGYUN 3E
#Satellite: FENGYUN 3E
#Configuration: FENGYUN 3E
#almurnet v.1.7.20251203
#Start time: 2026-01-28 06:32:29

#Version: 2.0.20230620
#Station: T1
#Location: 37.570604 lon 55.790049 lat
#TLE: 1 49008U 21062A   26027.61944472  .00000309  00000+0  16619-3 0  9993
#TLE: 2 49008  98.7500  32.6009 0002501 114.4803 245.6635 14.19888604236631

#Time	Az	El	Level	Level2	SNR	BER	BlckErr	Temp	State	Recorded	gain1	gain2
2026-01-28 06:32:29.40	1.04	5.01	-50.1	-61.2	3.8	8.45e-01	0	39	0	0	70	13054
2026-01-28 06:32:31.39	0.81	5.10	-50.4	-61.3	3.8	8.46e-01	0	39	104	0	71	12460
2026-01-28 06:32:33.39	0.58	5.20	-50.7	-61.3	3.8	8.45e-01	0	39	104	0	71	12472
2026-01-28 06:32:35.38	0.34	5.29	-50.3	-61.3	3.8	8.47e-01	0	39	104	0	71	12475
2026-01-28 06:32:37.37	0.11	5.38	-50.2	-61.2	3.8	8.46e-01	0	39	104	0	71	12345
2026-01-28 06:32:39.36	359.87	5.47	-50.2	-61.3	3.8	8.47e-01	0	39	104	0	70	13142
2026-01-28 06:32:41.36	359.63	5.56	-50.4	-61.3	3.8	8.47e-01	0	40	104	0	70	13119
2026-01-28 06:32:43.35	359.39	5.65	-50.1	-61.2	3.8	8.47e-01	0	40	104	0	69	13843
2026-01-28 06:32:45.34	359.15	5.74	-49.9	-61.2	3.8	8.46e-01	0	39	104	0	69	13756
2026-01-28 06:32:47.34	358.90	5.83	-49.8	-61.2	3.8	8.46e-01	0	40	104	0	69	13767
2026-01-28 06:32:49.33	358.66	5.92	-49.5	-61.1	3.8	8.47e-01	0	40	104	0	69	13653
2026-01-28 06:32:51.32	358.41	6.01	-49.5	-61.0	3.8	8.47e-01	0	40	104	0	69	13561
2026-01-28 06:32:53.32	358.16	6.10	-48.2	-60.8	3.8	8.47e-01	0	40	104	0	66	15701
2026-01-28 06:32:55.31	357.91	6.18	-46.5	-60.7	3.8	8.47e-01	0	40	104	0	63	18417
2026-01-28 06:32:57.31	357.66	6.27	-47.3	-60.7	3.8	8.46e-01	0	40	104	0	63	18420
2026-01-28 06:32:59.30	357.41	6.36	-47.2	-60.6	3.8	8.46e-01	0	40	104	0	63	18258
2026-01-28 06:33:01.29	357.15	6.45	-47.2	-60.6	3.8	8.47e-01	0	40	104	0	64	17155
2026-01-28 06:33:03.28	356.90	6.54	-47.2	-60.5	3.8	8.48e-01	0	40	104	0	64	17012
2026-01-28 06:33:05.28	356.64	6.63	-47.1	-60.6	3.8	8.47e-01	0	40	104	0	64	17097
2026-01-28 06:33:07.27	356.38	6.71	-47.1	-60.5	3.8	8.46e-01	0	40	104	0	64	16937
2026-01-28 06:33:09.26	356.12	6.80	-47.1	-60.5	3.8	8.47e-01	0	40	104	0	64	17024
2026-01-28 06:33:11.26	355.85	6.89	-47.1	-60.4	3.8	8.46e-01	0	40	104	0	64	16860
2026-01-28 06:33:13.25	355.59	6.98	-47.1	-60.5	3.8	8.45e-01	0	41	104	0	64	16919
2026-01-28 06:33:15.24	355.33	7.06	-47.0	-60.4	3.8	8.48e-01	0	40	104	0	64	16751
2026-01-28 06:33:17.23	355.06	7.15	-47.1	-60.5	3.8	8.47e-01	0	40	104	0	64	16983
2026-01-28 06:33:19.23	354.79	7.23	-47.1	-60.5	3.8	8.47e-01	0	41	104	0	64	17030
2026-01-28 06:33:21.22	354.52	7.32	-47.1	-60.5	3.8	8.46e-01	0	41	104	0	64	17015
2026-01-28 06:33:23.21	354.25	7.41	-47.0	-60.6	3.8	8.47e-01	0	41	104	0	64	17150
2026-01-28 06:33:25.20	353.97	7.49	-47.1	-60.5	3.8	8.46e-01	0	41	104	0	64	16901
2026-01-28 06:33:27.19	353.70	7.57	-47.1	-60.5	3.8	8.47e-01	0	41	104	0	64	16892
2026-01-28 06:33:29.19	353.42	7.66	-47.1	-60.5	3.8	8.47e-01	0	41	104	0	64	16943
2026-01-28 06:33:31.18	353.14	7.74	-47.1	-60.5	3.8	8.47e-01	0	41	104	0	64	17040
2026-01-28 06:33:33.17	352.86	7.83	-47.1	-60.5	3.8	8.48e-01	0	41	104	0	64	16935
2026-01-28 06:33:35.17	352.57	7.91	-47.1	-60.3	3.8	8.47e-01	0	41	104	0	64	16672
2026-01-28 06:33:37.16	352.29	7.99	-47.2	-60.2	3.8	8.47e-01	0	41	104	0	64	16416
2026-01-28 06:33:39.15	352.01	8.08	-47.1	-60.3	3.8	8.47e-01	0	41	104	0	64	16580
2026-01-28 06:33:41.14	351.72	8.16	-47.1	-60.4	3.8	8.45e-01	0	41	104	0	64	16725
2026-01-28 06:33:43.13	351.43	8.24	-47.1	-60.2	3.8	8.46e-01	0	41	104	0	64	16485
2026-01-28 06:33:45.13	351.14	8.32	-47.0	-60.2	3.8	8.48e-01	0	41	104	0	64	16320
2026-01-28 06:33:47.12	350.85	8.40	-47.1	-60.2	3.8	8.47e-01	0	41	104	0	64	16364
2026-01-28 06:33:49.11	350.55	8.48	-47.0	-59.2	3.8	8.47e-01	0	41	104	0	64	14627
2026-01-28 06:33:51.10	350.26	8.56	-46.9	-57.8	4.0	8.43e-01	0	41	104	0	64	12441
2026-01-28 06:33:53.09	349.96	8.64	-46.8	-56.9	4.2	8.39e-01	0	41	0	0	64	11286
2026-01-28 06:33:55.08	349.66	8.72	-46.7	-56.3	4.4	8.29e-01	0	41	0	0	64	10429
2026-01-28 06:33:57.07	349.36	8.80	-46.6	-55.2	5.0	7.95e-01	0	41	0	0	63	9738
2026-01-28 06:33:59.07	349.06	8.87	-46.1	-52.5	6.8	2.50e-01	0	41	0	6291456	63	7193
2026-01-28 06:34:01.06	348.76	8.95	-44.6	-48.6	10.9	4.99e-03	0	41	0	19922944	60	5407
2026-01-28 06:34:03.05	348.45	9.03	-42.6	-45.0	14.4	3.40e-06	0	41	0	34603008	56	4529
2026-01-28 06:34:05.05	348.14	9.10	-44.5	-49.3	10.0	8.21e-03	0	41	0	49283072	58	6610
2026-01-28 06:34:07.06	347.83	9.18	-45.5	-53.5	6.1	6.33e-02	0	41	0	63963136	60	9579
2026-01-28 06:34:09.06	347.52	9.26	-39.4	-40.8	18.5	0.00e+00	0	41	0	78643200	49	4180
2026-01-28 06:34:11.06	347.20	9.33	-39.1	-40.6	18.7	0.00e+00	0	41	0	92274688	49	4091
2026-01-28 06:34:13.05	346.89	9.40	-39.1	-40.7	18.7	0.00e+00	0	42	0	106954752	48	4344
2026-01-28 06:34:15.06	346.57	9.48	-38.9	-40.5	18.8	0.00e+00	0	41	0	121634816	48	4279
2026-01-28 06:34:17.06	346.26	9.55	-38.8	-40.4	18.9	0.00e+00	0	41	0	136314880	48	4233
2026-01-28 06:34:19.05	345.94	9.62	-38.8	-40.4	19.0	0.00e+00	0	41	0	149946368	48	4209
2026-01-28 06:34:21.05	345.62	9.69	-39.0	-40.6	18.8	0.00e+00	0	41	0	164626432	48	4323
2026-01-28 06:34:23.05	345.29	9.77	-39.2	-40.9	18.5	0.00e+00	0	41	0	179306496	48	4460
2026-01-28 06:34:25.05	344.97	9.84	-39.3	-40.9	18.5	0.00e+00	0	41	0	192937984	48	4482
2026-01-28 06:34:27.05	344.64	9.91	-39.3	-41.1	18.4	0.00e+00	0	41	0	207618048	48	4550
2026-01-28 06:34:29.05	344.31	9.97	-39.1	-40.9	18.5	0.00e+00	0	41	0	222298112	48	4465
2026-01-28 06:34:31.05	343.98	10.04	-39.0	-40.7	18.7	0.00e+00	0	41	0	236978176	48	4387
2026-01-28 06:34:33.05	343.65	10.11	-38.9	-40.4	19.0	0.00e+00	0	41	0	250609664	48	4229
2026-01-28 06:34:35.05	343.32	10.18	-38.8	-40.1	19.3	0.00e+00	0	41	0	265289728	48	4080
2026-01-28 06:34:37.05	342.99	10.24	-38.8	-40.0	19.4	0.00e+00	0	42	0	279969792	48	4030
2026-01-28 06:34:39.06	342.65	10.31	-38.7	-39.9	19.5	0.00e+00	0	42	0	294649856	48	4004
2026-01-28 06:34:41.06	342.31	10.37	-38.9	-40.1	19.3	0.00e+00	0	41	0	309329920	48	4088
2026-01-28 06:34:43.06	341.97	10.44	-39.0	-40.3	19.2	0.00e+00	0	41	0	324009984	48	4148
2026-01-28 06:34:45.06	341.63	10.50	-39.2	-40.3	19.1	0.00e+00	0	41	0	337641472	48	4193
2026-01-28 06:34:47.06	341.29	10.56	-39.3	-40.5	18.9	0.00e+00	0	41	0	352321536	48	4256
2026-01-28 06:34:49.07	340.95	10.62	-39.4	-40.6	18.9	0.00e+00	0	41	0	367001600	48	4314
2026-01-28 06:34:51.07	340.60	10.68	-39.2	-40.4	19.0	0.00e+00	0	41	0	381681664	48	4223
2026-01-28 06:34:53.07	340.26	10.74	-39.2	-40.3	19.1	0.00e+00	0	41	0	395313152	48	4167
2026-01-28 06:34:55.07	339.91	10.80	-39.2	-40.3	19.1	0.00e+00	0	41	0	409993216	48	4181
2026-01-28 06:34:57.07	339.56	10.86	-39.0	-40.1	19.3	0.00e+00	0	42	0	424673280	48	4089
2026-01-28 06:34:59.07	339.21	10.92	-38.9	-40.1	19.3	0.00e+00	0	42	0	439353344	48	4073
2026-01-28 06:35:01.07	338.86	10.97	-38.8	-40.0	19.4	0.00e+00	0	42	0	452984832	48	4021
2026-01-28 06:35:03.07	338.50	11.03	-38.8	-40.0	19.4	0.00e+00	0	41	0	467664896	48	4008
2026-01-28 06:35:05.07	338.15	11.08	-38.7	-39.8	19.6	0.00e+00	0	42	0	482344960	48	3926
2026-01-28 06:35:07.07	337.79	11.13	-38.4	-39.5	19.6	0.00e+00	0	41	0	497025024	47	4032
2026-01-28 06:35:09.07	337.44	11.19	-38.4	-39.6	19.6	0.00e+00	0	41	0	511705088	47	4061
2026-01-28 06:35:11.07	337.08	11.24	-38.4	-39.5	19.6	0.00e+00	0	41	0	525336576	47	4043
2026-01-28 06:35:13.06	336.72	11.29	-38.4	-39.6	19.6	0.00e+00	0	42	0	540016640	47	4052
2026-01-28 06:35:15.06	336.36	11.34	-38.4	-39.6	19.6	0.00e+00	0	41	0	554696704	47	4081
2026-01-28 06:35:17.07	336.00	11.38	-38.4	-39.5	19.6	0.00e+00	0	41	0	569376768	47	4046
2026-01-28 06:35:19.07	335.63	11.43	-38.6	-39.7	19.5	0.00e+00	0	41	0	583008256	47	4136
2026-01-28 06:35:21.07	335.27	11.48	-38.7	-39.8	19.4	0.00e+00	0	41	0	597688320	47	4151
2026-01-28 06:35:23.08	334.90	11.52	-38.8	-39.9	19.3	0.00e+00	0	41	0	612368384	47	4222
2026-01-28 06:35:25.08	334.53	11.57	-38.9	-40.0	19.2	0.00e+00	0	41	0	627048448	47	4290
2026-01-28 06:35:27.07	334.17	11.61	-39.0	-40.1	19.1	0.00e+00	0	41	0	640679936	47	4331
2026-01-28 06:35:29.07	333.80	11.65	-39.0	-40.1	19.1	0.00e+00	0	41	0	655360000	47	4292
2026-01-28 06:35:31.07	333.43	11.69	-38.9	-40.0	19.2	0.00e+00	0	42	0	670040064	47	4272
2026-01-28 06:35:33.07	333.06	11.73	-38.9	-39.9	19.3	0.00e+00	0	42	0	684720128	47	4241
2026-01-28 06:35:35.07	332.69	11.77	-38.7	-39.8	19.4	0.00e+00	0	41	0	699400192	47	4148
2026-01-28 06:35:37.07	332.31	11.81	-38.7	-39.8	19.4	0.00e+00	0	42	0	713031680	47	4165
2026-01-28 06:35:39.07	331.94	11.84	-38.5	-39.5	19.7	0.00e+00	0	41	0	727711744	47	4040
2026-01-28 06:35:41.07	331.56	11.88	-38.6	-39.6	19.5	0.00e+00	0	41	0	742391808	47	4096
2026-01-28 06:35:43.08	331.19	11.91	-38.5	-39.5	19.6	0.00e+00	0	41	0	757071872	47	4047
2026-01-28 06:35:45.08	330.81	11.95	-38.6	-39.7	19.5	0.00e+00	0	42	0	770703360	47	4104
2026-01-28 06:35:47.08	330.43	11.98	-38.7	-39.7	19.5	0.00e+00	0	42	0	785383424	47	4133
2026-01-28 06:35:49.08	330.05	12.01	-38.7	-39.7	19.4	0.00e+00	0	42	0	800063488	47	4137
2026-01-28 06:35:51.08	329.67	12.04	-38.7	-39.8	19.4	0.00e+00	0	41	0	814743552	47	4158
2026-01-28 06:35:53.09	329.29	12.06	-38.7	-39.8	19.4	0.00e+00	0	41	0	828375040	47	4149
2026-01-28 06:35:55.09	328.91	12.09	-38.7	-39.8	19.4	0.00e+00	0	42	0	843055104	47	4161
2026-01-28 06:35:57.09	328.53	12.12	-38.8	-39.9	19.3	0.00e+00	0	42	0	857735168	47	4241
2026-01-28 06:35:59.09	328.15	12.14	-38.9	-40.0	19.3	0.00e+00	0	42	0	872415232	47	4252
2026-01-28 06:36:01.10	327.76	12.17	-39.0	-40.0	19.2	0.00e+00	0	41	0	887095296	47	4288
2026-01-28 06:36:03.09	327.38	12.19	-38.9	-40.0	19.3	0.00e+00	0	41	0	900726784	47	4249
2026-01-28 06:36:05.09	327.00	12.21	-38.9	-40.0	19.2	0.00e+00	0	42	0	915406848	47	4266
2026-01-28 06:36:07.09	326.61	12.23	-38.7	-39.8	19.4	0.00e+00	0	42	0	930086912	47	4183
2026-01-28 06:36:09.09	326.23	12.25	-38.5	-39.7	19.5	0.00e+00	0	42	0	944766976	47	4102
2026-01-28 06:36:11.09	325.84	12.26	-38.5	-39.7	19.6	0.00e+00	0	42	0	958398464	47	4104
2026-01-28 06:36:13.09	325.46	12.28	-38.5	-39.7	19.5	0.00e+00	0	42	0	973078528	47	4108
2026-01-28 06:36:15.09	325.07	12.29	-38.5	-39.7	19.5	0.00e+00	0	41	0	987758592	47	4129
2026-01-28 06:36:17.10	324.68	12.31	-38.5	-39.7	19.5	0.00e+00	0	42	0	1002438656	47	4143
2026-01-28 06:36:19.10	324.29	12.32	-38.4	-39.6	19.6	0.00e+00	0	42	0	1016070144	47	4079
2026-01-28 06:36:21.10	323.91	12.33	-38.4	-39.5	19.7	0.00e+00	0	41	0	1030750208	47	4041
2026-01-28 06:36:23.10	323.52	12.34	-38.4	-39.5	19.7	0.00e+00	0	42	0	1045430272	47	4019
2026-01-28 06:36:25.09	323.13	12.35	-38.4	-39.5	19.7	0.00e+00	0	42	0	1060110336	47	4012
2026-01-28 06:36:27.09	322.75	12.35	-38.5	-39.6	19.6	0.00e+00	0	42	0	1074790400	47	4057
2026-01-28 06:36:29.09	322.36	12.36	-38.5	-39.5	19.6	0.00e+00	0	42	0	1088421888	47	4049
2026-01-28 06:36:31.09	321.97	12.36	-38.6	-39.7	19.5	0.00e+00	0	42	0	1103101952	47	4113
2026-01-28 06:36:33.10	321.58	12.37	-38.6	-39.6	19.6	0.00e+00	0	42	0	1117782016	47	4085
2026-01-28 06:36:35.10	321.19	12.37	-38.6	-39.6	19.5	0.00e+00	0	42	0	1132462080	47	4094
2026-01-28 06:36:37.10	320.80	12.37	-38.6	-39.7	19.5	0.00e+00	0	41	0	1146093568	47	4125
2026-01-28 06:36:39.10	320.41	12.37	-38.6	-39.6	19.5	0.00e+00	0	42	0	1160773632	47	4092
2026-01-28 06:36:41.10	320.02	12.37	-38.7	-39.8	19.4	0.00e+00	0	42	0	1175453696	47	4186
2026-01-28 06:36:43.10	319.63	12.36	-38.5	-39.6	19.6	0.00e+00	0	41	0	1190133760	47	4064
2026-01-28 06:36:45.10	319.25	12.36	-38.4	-39.5	19.7	0.00e+00	0	41	0	1203765248	47	4018
2026-01-28 06:36:47.10	318.86	12.35	-38.3	-39.4	19.8	0.00e+00	0	42	0	1218445312	47	3969
2026-01-28 06:36:49.10	318.47	12.35	-38.3	-39.3	19.8	0.00e+00	0	41	0	1233125376	47	3947
2026-01-28 06:36:51.10	318.08	12.34	-38.3	-39.3	19.9	0.00e+00	0	42	0	1247805440	47	3923
2026-01-28 06:36:53.10	317.69	12.33	-38.3	-39.3	19.9	0.00e+00	0	41	0	1262485504	47	3942
2026-01-28 06:36:55.10	317.31	12.32	-38.4	-39.4	19.8	0.00e+00	0	42	0	1276116992	47	3991
2026-01-28 06:36:57.10	316.92	12.30	-38.6	-39.6	19.6	0.00e+00	0	41	0	1290797056	47	4078
2026-01-28 06:36:59.11	316.53	12.29	-38.7	-39.7	19.5	0.00e+00	0	42	0	1305477120	47	4140
2026-01-28 06:37:01.11	316.14	12.27	-38.7	-39.8	19.4	0.00e+00	0	42	0	1320157184	47	4187
2026-01-28 06:37:03.11	315.76	12.26	-38.7	-39.8	19.4	0.00e+00	0	41	0	1334837248	47	4173
2026-01-28 06:37:05.11	315.37	12.24	-38.8	-39.9	19.3	0.00e+00	0	41	0	1348468736	47	4219
2026-01-28 06:37:07.11	314.99	12.22	-38.7	-39.8	19.4	0.00e+00	0	41	0	1363148800	47	4162
2026-01-28 06:37:09.11	314.60	12.20	-38.8	-39.8	19.3	0.00e+00	0	42	0	1377828864	47	4192
2026-01-28 06:37:11.12	314.22	12.18	-39.1	-40.2	19.0	0.00e+00	0	42	0	1392508928	47	4351
2026-01-28 06:37:13.12	313.83	12.16	-39.1	-40.2	19.1	0.00e+00	0	42	0	1407188992	47	4343
2026-01-28 06:37:15.13	313.45	12.14	-39.0	-40.1	19.1	0.00e+00	0	42	0	1420820480	47	4297
2026-01-28 06:37:17.13	313.07	12.11	-38.9	-40.0	19.2	0.00e+00	0	41	0	1435500544	47	4270
2026-01-28 06:37:19.13	312.68	12.08	-38.9	-40.0	19.2	0.00e+00	0	41	0	1450180608	47	4278
2026-01-28 06:37:21.14	312.30	12.06	-39.0	-40.1	19.1	0.00e+00	0	41	0	1464860672	47	4335
2026-01-28 06:37:23.14	311.92	12.03	-39.2	-40.3	18.9	0.00e+00	0	42	0	1478492160	47	4398
2026-01-28 06:37:25.14	311.54	12.00	-39.1	-40.2	19.0	0.00e+00	0	41	0	1493172224	47	4388
2026-01-28 06:37:27.14	311.16	11.97	-39.2	-40.3	18.9	0.00e+00	0	42	0	1507852288	47	4434
2026-01-28 06:37:29.14	310.78	11.94	-39.2	-40.3	18.9	0.00e+00	0	42	0	1522532352	47	4406
2026-01-28 06:37:31.14	310.41	11.90	-39.2	-40.3	18.9	0.00e+00	0	42	0	1536163840	47	4410
2026-01-28 06:37:33.14	310.03	11.87	-39.0	-40.1	19.1	0.00e+00	0	41	0	1550843904	47	4320
2026-01-28 06:37:35.15	309.65	11.83	-39.2	-40.2	18.9	0.00e+00	0	41	0	1565523968	47	4384
2026-01-28 06:37:37.15	309.28	11.80	-39.1	-40.2	19.0	0.00e+00	0	41	0	1580204032	47	4362
2026-01-28 06:37:39.15	308.90	11.76	-39.2	-40.3	18.8	0.00e+00	0	41	0	1594884096	47	4439
2026-01-28 06:37:41.15	308.53	11.72	-39.4	-40.5	19.0	0.00e+00	0	41	0	1608515584	48	4250
2026-01-28 06:37:43.16	308.16	11.68	-39.4	-40.4	19.0	0.00e+00	0	42	0	1623195648	48	4241
2026-01-28 06:37:45.16	307.79	11.64	-39.3	-40.3	19.1	0.00e+00	0	41	0	1637875712	48	4175
2026-01-28 06:37:47.16	307.42	11.60	-39.3	-40.4	19.1	0.00e+00	0	42	0	1652555776	48	4198
2026-01-28 06:37:49.16	307.05	11.55	-39.4	-40.5	18.9	0.00e+00	0	41	0	1667235840	48	4266
2026-01-28 06:37:51.16	306.68	11.51	-39.4	-40.5	19.0	0.00e+00	0	42	0	1681915904	48	4250
2026-01-28 06:37:53.16	306.32	11.46	-39.4	-40.4	19.0	0.00e+00	0	42	0	1695547392	48	4234
2026-01-28 06:37:55.16	305.95	11.42	-39.4	-40.5	19.0	0.00e+00	0	41	0	1710227456	48	4255
2026-01-28 06:37:57.17	305.59	11.37	-39.4	-40.4	19.0	0.00e+00	0	42	0	1724907520	48	4223
2026-01-28 06:37:59.17	305.22	11.32	-39.3	-40.3	19.1	0.00e+00	0	41	0	1739587584	48	4168
2026-01-28 06:38:01.17	304.86	11.27	-39.2	-40.3	19.1	0.00e+00	0	41	0	1753219072	48	4150
2026-01-28 06:38:03.16	304.50	11.22	-39.2	-40.3	19.1	0.00e+00	0	42	0	1767899136	48	4162
2026-01-28 06:38:05.16	304.15	11.17	-39.3	-40.3	19.1	0.00e+00	0	42	0	1782579200	48	4189
2026-01-28 06:38:07.16	303.79	11.12	-39.4	-40.5	18.9	0.00e+00	0	42	0	1797259264	48	4255
2026-01-28 06:38:09.17	303.43	11.06	-39.6	-40.7	18.7	0.00e+00	0	41	0	1810890752	48	4356
2026-01-28 06:38:11.17	303.07	11.01	-39.7	-40.8	18.6	0.00e+00	0	42	0	1825570816	48	4416
2026-01-28 06:38:13.17	302.72	10.95	-39.6	-40.7	18.7	0.00e+00	0	42	0	1840250880	48	4366
2026-01-28 06:38:15.18	302.37	10.90	-39.6	-40.7	18.7	0.00e+00	0	41	0	1854930944	48	4342
2026-01-28 06:38:17.18	302.02	10.84	-39.6	-40.7	18.7	0.00e+00	0	42	0	1868562432	48	4350
2026-01-28 06:38:19.18	301.67	10.78	-39.6	-40.7	18.7	0.00e+00	0	41	0	1883242496	48	4366
2026-01-28 06:38:21.18	301.32	10.72	-39.6	-40.7	18.7	0.00e+00	0	42	0	1897922560	48	4361
2026-01-28 06:38:23.19	300.97	10.66	-39.8	-40.9	18.5	0.00e+00	0	42	0	1912602624	49	4195
2026-01-28 06:38:25.18	300.63	10.60	-39.8	-40.9	18.4	0.00e+00	0	41	0	1927282688	49	4229
2026-01-28 06:38:27.18	300.28	10.54	-39.5	-40.6	18.7	0.00e+00	0	41	0	1940914176	49	4072
2026-01-28 06:38:29.18	299.94	10.48	-39.5	-40.6	18.7	0.00e+00	0	42	0	1955594240	49	4079
2026-01-28 06:38:31.19	299.60	10.42	-39.7	-40.8	18.5	0.00e+00	0	41	0	1970274304	49	4159
2026-01-28 06:38:33.19	299.26	10.35	-39.8	-41.0	18.4	0.00e+00	0	42	0	1984954368	49	4247
2026-01-28 06:38:35.19	298.92	10.29	-40.0	-41.1	18.2	0.00e+00	0	42	0	1998585856	49	4315
2026-01-28 06:38:37.19	298.58	10.22	-40.1	-41.2	18.1	0.00e+00	0	42	0	2013265920	49	4373
2026-01-28 06:38:39.19	298.25	10.16	-40.0	-41.1	18.2	0.00e+00	0	42	0	2027945984	49	4302
2026-01-28 06:38:41.20	297.91	10.09	-40.0	-41.2	18.2	0.00e+00	0	42	0	2042626048	49	4349
2026-01-28 06:38:43.20	297.58	10.02	-39.8	-40.9	18.4	0.00e+00	0	42	0	2056257536	49	4224
2026-01-28 06:38:45.20	297.25	9.95	-39.8	-40.9	18.4	0.00e+00	0	41	0	2070937600	49	4195
2026-01-28 06:38:47.20	296.92	9.88	-39.8	-40.9	18.4	0.00e+00	0	42	0	2085617664	49	4220
2026-01-28 06:38:49.20	296.60	9.81	-39.7	-40.9	18.5	0.00e+00	0	42	0	2100297728	49	4199
2026-01-28 06:38:51.21	296.27	9.74	-39.8	-40.9	18.5	0.00e+00	0	42	0	2114977792	49	4200
2026-01-28 06:38:53.21	295.94	9.67	-39.8	-40.9	18.4	0.00e+00	0	42	0	2129657856	49	4206
2026-01-28 06:38:55.21	295.62	9.60	-39.8	-40.9	18.4	0.00e+00	0	42	0	2143289344	49	4207
2026-01-28 06:38:57.22	295.30	9.53	-39.7	-40.8	18.5	0.00e+00	0	41	0	2157969408	49	4190
2026-01-28 06:38:59.22	294.98	9.45	-39.8	-41.0	18.3	0.00e+00	0	42	0	2172649472	49	4260
2026-01-28 06:39:01.22	294.66	9.38	-39.9	-41.1	18.2	0.00e+00	0	42	0	2187329536	49	4296
2026-01-28 06:39:03.22	294.35	9.30	-39.9	-41.0	18.2	0.00e+00	0	42	0	2200961024	49	4284
2026-01-28 06:39:05.22	294.03	9.23	-39.9	-41.1	18.2	0.00e+00	0	42	0	2215641088	49	4293
2026-01-28 06:39:07.22	293.72	9.15	-40.1	-41.2	18.1	0.00e+00	0	42	0	2230321152	49	4364
2026-01-28 06:39:09.22	293.41	9.08	-40.1	-41.3	18.0	0.00e+00	0	41	0	2245001216	49	4398
2026-01-28 06:39:11.22	293.10	9.00	-40.2	-41.4	17.8	0.00e+00	0	42	0	2259681280	50	4217
2026-01-28 06:39:13.21	292.79	8.92	-49.8	-60.5	3.8	8.47e-01	0	42	104	2265972736	69	12701
2026-01-28 06:39:15.20	292.49	8.85	-49.6	-60.4	3.8	8.45e-01	0	41	104	2265972736	69	12643
2026-01-28 06:39:17.19	292.19	8.77	-49.6	-60.5	3.8	8.46e-01	0	42	104	2265972736	69	12697
2026-01-28 06:39:19.18	291.89	8.69	-49.6	-60.2	3.8	8.47e-01	0	42	104	2265972736	69	12263
2026-01-28 06:39:21.17	291.59	8.61	-49.5	-59.8	3.8	8.47e-01	0	42	104	2265972736	69	11764
2026-01-28 06:39:23.17	291.29	8.53	-49.5	-59.9	3.8	8.46e-01	0	42	104	2265972736	69	11893
2026-01-28 06:39:25.16	290.99	8.45	-49.5	-60.1	3.8	8.47e-01	0	41	104	2265972736	69	12191
2026-01-28 06:39:27.15	290.70	8.37	-49.5	-60.2	3.8	8.47e-01	0	42	104	2265972736	69	12354
2026-01-28 06:39:29.15	290.40	8.29	-49.5	-60.1	3.8	8.48e-01	0	41	104	2265972736	69	12117
2026-01-28 06:39:31.13	290.11	8.21	-49.5	-60.0	3.8	8.46e-01	0	42	104	2265972736	69	12039
2026-01-28 06:39:33.12	289.82	8.13	-49.5	-60.0	3.8	8.47e-01	0	42	104	2265972736	69	12009
2026-01-28 06:39:35.12	289.53	8.04	-49.6	-60.2	3.8	8.45e-01	0	42	104	2265972736	69	12282
2026-01-28 06:39:37.11	289.25	7.96	-49.5	-60.1	3.8	8.47e-01	0	41	104	2265972736	69	12162
2026-01-28 06:39:39.10	288.96	7.88	-49.3	-58.7	3.8	8.46e-01	0	42	104	2265972736	69	10356
2026-01-28 06:39:41.09	288.68	7.79	-49.3	-58.4	3.8	8.45e-01	0	42	104	2265972736	69	10014
2026-01-28 06:39:43.08	288.40	7.71	-49.5	-60.1	3.8	8.47e-01	0	41	104	2265972736	69	12207
2026-01-28 06:39:45.07	288.12	7.63	-49.1	-57.5	3.9	8.43e-01	0	41	104	2265972736	69	9013
2026-01-28 06:39:47.06	287.84	7.54	-48.2	-53.7	5.7	6.25e-01	0	42	0	2265972736	67	6535
2026-01-28 06:39:49.06	287.56	7.46	-48.1	-53.5	5.9	3.41e-01	0	42	0	2280652800	66	6764
2026-01-28 06:39:51.05	287.29	7.37	-48.7	-55.6	4.6	7.98e-01	0	42	0	2284847104	66	8636
2026