passes_logs/2026/01/28/T1/T1__20260128_104312_NOAA_20_JPSS-1_rec.log

#Pass ID: 20260128_104312_NOAA 20 (JPSS-1)
#Satellite: NOAA 20 (JPSS-1)
#Configuration: NOAA 20
#almurnet v.1.7.20251203
#Start time: 2026-01-28 10:43:13

#Version: 2.0.20230620
#Station: T1
#Location: 37.570604 lon 55.790049 lat
#TLE: 1 43013U 17073A   26027.80586608  .00000156  00000+0  94940-4 0  9998
#TLE: 2 43013  98.7647 328.6108 0000947  21.3465 338.7750 14.19541216424550

#Time	Az	El	Level	Level2	SNR	BER	BlckErr	Temp	State	Recorded	gain1	gain2
2026-01-28 10:43:13.73	185.38	5.10	-50.2	-65.4	3.8	1.49e+00	0	41	0	0	71	21355
2026-01-28 10:43:17.69	185.56	5.37	-50.1	-65.4	3.8	1.49e+00	0	41	104	0	71	21335
2026-01-28 10:43:21.66	185.75	5.65	-50.0	-65.3	3.8	1.49e+00	0	41	104	0	71	21236
2026-01-28 10:43:25.64	185.94	5.93	-49.9	-65.1	3.8	1.49e+00	0	42	104	0	71	20769
2026-01-28 10:43:29.61	186.13	6.21	-49.5	-64.9	3.8	1.49e+00	0	42	104	0	70	21442
2026-01-28 10:43:33.58	186.32	6.50	-48.4	-64.7	3.8	1.49e+00	0	42	104	0	68	23470
2026-01-28 10:43:37.55	186.52	6.79	-48.6	-63.5	3.8	1.49e+00	0	42	104	0	68	20359
2026-01-28 10:43:41.52	186.73	7.08	-48.5	-62.3	4.0	1.48e+00	0	42	104	0	68	17693
2026-01-28 10:43:45.50	186.93	7.38	-48.4	-60.9	4.2	1.44e+00	0	42	0	0	68	15222
2026-01-28 10:43:49.47	187.14	7.67	-46.7	-52.5	10.7	1.10e-02	0	42	0	6291456	65	6836
2026-01-28 10:43:53.44	187.36	7.98	-44.6	-48.2	15.1	0.00e+00	0	43	0	13631488	61	5264
2026-01-28 10:43:57.41	187.58	8.28	-44.4	-48.0	15.4	0.00e+00	0	42	0	20971520	60	5408
2026-01-28 10:44:01.39	187.80	8.59	-46.1	-51.0	12.3	9.23e-05	0	43	0	29360128	62	6866
2026-01-28 10:44:05.36	188.03	8.90	-47.6	-55.8	7.3	9.00e-02	0	43	0	36700160	65	9993
2026-01-28 10:44:09.33	188.27	9.21	-47.5	-55.1	8.3	3.93e-03	0	43	0	44040192	65	9268
2026-01-28 10:44:13.30	188.50	9.53	-46.5	-52.1	11.1	1.51e-03	0	43	0	50331648	64	6936
2026-01-28 10:44:17.27	188.75	9.86	-44.9	-48.7	14.8	7.00e-07	0	43	0	57671680	61	5531
2026-01-28 10:44:21.25	188.99	10.18	-44.3	-47.6	15.8	0.00e+00	0	43	0	65011712	60	5207
2026-01-28 10:44:25.22	189.25	10.51	-43.8	-46.9	16.5	0.00e+00	0	43	0	72351744	59	5083
2026-01-28 10:44:29.19	189.51	10.85	-43.6	-46.6	16.8	0.00e+00	0	43	0	79691776	59	4904
2026-01-28 10:44:33.16	189.77	11.18	-43.4	-46.4	17.1	0.00e+00	0	43	0	87031808	58	5043
2026-01-28 10:44:37.13	190.04	11.53	-43.2	-46.1	17.4	0.00e+00	0	43	0	94371840	58	4913
2026-01-28 10:44:41.10	190.32	11.87	-43.0	-45.9	17.6	0.00e+00	0	43	0	102760448	58	4776
2026-01-28 10:44:45.07	190.60	12.22	-43.0	-45.8	17.7	0.00e+00	0	43	0	110100480	57	4987
2026-01-28 10:44:49.05	190.89	12.58	-42.9	-45.5	18.0	0.00e+00	0	43	0	117440512	57	4864
2026-01-28 10:44:53.02	191.19	12.94	-42.8	-45.4	18.1	0.00e+00	0	43	0	124780544	57	4802
2026-01-28 10:44:56.99	191.49	13.31	-42.9	-45.5	18.0	0.00e+00	0	43	0	132120576	57	4862
2026-01-28 10:45:00.96	191.80	13.68	-42.9	-45.5	18.0	0.00e+00	0	43	0	139460608	57	4844
2026-01-28 10:45:04.94	192.12	14.05	-42.7	-45.3	18.1	0.00e+00	0	43	0	146800640	57	4727
2026-01-28 10:45:08.91	192.45	14.43	-42.6	-45.3	18.2	0.00e+00	0	43	0	154140672	57	4717
2026-01-28 10:45:12.88	192.78	14.82	-42.7	-45.2	18.2	0.00e+00	0	43	0	161480704	57	4696
2026-01-28 10:45:16.85	193.13	15.21	-42.7	-45.3	18.2	0.00e+00	0	43	0	168820736	57	4739
2026-01-28 10:45:20.82	193.48	15.60	-42.5	-45.0	18.3	0.00e+00	0	43	0	177209344	57	4573
2026-01-28 10:45:24.79	193.84	16.00	-42.4	-44.9	18.1	0.00e+00	0	43	0	184549376	56	4806
2026-01-28 10:45:28.77	194.21	16.41	-42.2	-44.9	17.7	0.00e+00	0	43	0	191889408	56	4762
2026-01-28 10:45:32.74	194.59	16.82	-41.9	-44.6	17.7	0.00e+00	0	43	0	199229440	55	4892
2026-01-28 10:45:36.71	194.98	17.24	-42.3	-44.9	18.3	0.00e+00	0	43	0	206569472	55	5071
2026-01-28 10:45:40.68	195.38	17.66	-42.3	-44.8	18.3	0.00e+00	0	43	0	213909504	55	5012
2026-01-28 10:45:44.65	195.79	18.09	-42.5	-45.0	18.3	0.00e+00	0	43	0	221249536	55	5142
2026-01-28 10:45:48.63	196.22	18.53	-42.9	-45.5	18.1	0.00e+00	0	43	0	228589568	56	5121
2026-01-28 10:45:52.60	196.65	18.98	-43.1	-45.6	18.0	0.00e+00	0	43	0	235929600	56	5188
2026-01-28 10:45:56.57	197.10	19.42	-43.1	-45.6	18.0	0.00e+00	0	43	0	243269632	56	5187
2026-01-28 10:46:00.54	197.56	19.88	-43.0	-45.5	18.1	0.00e+00	0	43	0	251658240	56	5145
2026-01-28 10:46:04.51	198.04	20.34	-43.1	-45.6	18.1	0.00e+00	0	43	0	258998272	56	5207
2026-01-28 10:46:08.48	198.52	20.81	-43.2	-45.7	18.0	0.00e+00	0	43	0	266338304	57	4982
2026-01-28 10:46:12.45	199.03	21.29	-43.1	-45.6	18.1	0.00e+00	0	43	0	273678336	57	4906
2026-01-28 10:46:16.43	199.55	21.77	-43.0	-45.5	18.2	0.00e+00	0	44	0	281018368	57	4824
2026-01-28 10:46:20.40	200.08	22.26	-42.8	-45.3	18.5	0.00e+00	0	43	0	288358400	57	4714
2026-01-28 10:46:24.37	200.63	22.76	-42.9	-45.3	18.4	0.00e+00	0	43	0	295698432	57	4737
2026-01-28 10:46:28.34	201.20	23.26	-43.1	-45.5	18.2	0.00e+00	0	43	0	303038464	57	4846
2026-01-28 10:46:32.31	201.79	23.77	-43.1	-45.6	18.1	0.00e+00	0	44	0	310378496	57	4880
2026-01-28 10:46:36.28	202.40	24.29	-43.1	-45.6	18.2	0.00e+00	0	43	0	318767104	57	4893
2026-01-28 10:46:40.26	203.02	24.82	-42.9	-45.3	18.4	0.00e+00	0	44	0	326107136	57	4737
2026-01-28 10:46:44.23	203.67	25.35	-43.0	-45.5	18.3	0.00e+00	0	43	0	333447168	57	4825
2026-01-28 10:46:48.20	204.34	25.89	-43.4	-45.9	17.9	0.00e+00	0	43	0	340787200	57	5070
2026-01-28 10:46:52.17	205.03	26.43	-43.2	-45.7	18.1	0.00e+00	0	44	0	348127232	57	4965
2026-01-28 10:46:56.14	205.75	26.99	-43.5	-46.0	17.7	0.00e+00	0	44	0	355467264	57	5153
2026-01-28 10:47:00.11	206.49	27.55	-43.9	-46.6	17.3	0.00e+00	0	43	0	362807296	58	5183
2026-01-28 10:47:04.08	207.25	28.11	-44.2	-47.0	16.9	0.00e+00	0	44	0	370147328	59	5104
2026-01-28 10:47:08.06	208.05	28.68	-44.1	-46.9	16.9	0.00e+00	0	43	0	377487360	59	5077
2026-01-28 10:47:12.03	208.87	29.26	-44.5	-47.4	16.4	0.00e+00	0	44	0	384827392	59	5395
2026-01-28 10:47:16.00	209.72	29.84	-45.1	-48.4	15.5	0.00e+00	0	43	0	393216000	60	5705
2026-01-28 10:47:19.97	210.60	30.43	-44.8	-47.9	16.0	0.00e+00	0	44	0	400556032	60	5353
2026-01-28 10:47:23.94	211.51	31.02	-44.2	-47.0	16.9	0.00e+00	0	43	0	407896064	60	4842
2026-01-28 10:47:27.91	212.46	31.62	-44.3	-47.2	16.7	0.00e+00	0	44	0	415236096	60	4947
2026-01-28 10:47:31.89	213.44	32.22	-44.0	-46.7	17.2	0.00e+00	0	44	0	422576128	59	4977
2026-01-28 10:47:35.86	214.46	32.82	-43.9	-46.6	17.3	0.00e+00	0	43	0	429916160	59	4878
2026-01-28 10:47:39.83	215.52	33.43	-44.1	-46.9	17.0	0.00e+00	0	44	0	437256192	59	5044
2026-01-28 10:47:43.80	216.61	34.03	-44.0	-46.7	17.2	0.00e+00	0	44	0	444596224	59	4961
2026-01-28 10:47:47.77	217.75	34.64	-44.1	-46.8	17.1	0.00e+00	0	44	0	451936256	59	5034
2026-01-28 10:47:51.74	218.92	35.24	-44.1	-46.9	17.0	0.00e+00	0	44	0	459276288	59	5043
2026-01-28 10:47:55.71	220.14	35.84	-43.1	-45.5	18.4	0.00e+00	0	43	0	467664896	58	4582
2026-01-28 10:47:59.69	221.41	36.44	-43.0	-45.5	18.4	0.00e+00	0	43	0	475004928	57	4815
2026-01-28 10:48:03.63	222.72	37.03	-43.4	-45.9	18.0	0.00e+00	0	43	0	482344960	57	5069
2026-01-28 10:48:07.60	224.08	37.62	-42.9	-45.3	18.6	0.00e+00	0	43	0	489684992	57	4732
2026-01-28 10:48:11.58	225.49	38.20	-44.0	-46.6	17.3	0.00e+00	0	44	0	497025024	58	5202
2026-01-28 10:48:15.55	226.95	38.77	-44.3	-47.1	16.8	0.00e+00	0	44	0	504365056	59	5168
2026-01-28 10:48:19.52	228.45	39.32	-44.7	-47.6	16.4	0.00e+00	0	44	0	511705088	60	5191
2026-01-28 10:48:23.49	230.01	39.87	-44.7	-47.6	16.3	0.00e+00	0	43	0	519045120	60	5193
2026-01-28 10:48:27.47	231.63	40.39	-43.9	-46.5	17.4	0.00e+00	0	44	0	526385152	59	4839
2026-01-28 10:48:31.44	233.29	40.90	-44.5	-47.3	16.6	0.00e+00	0	44	0	533725184	59	5338
2026-01-28 10:48:35.41	235.01	41.39	-44.0	-46.6	17.3	0.00e+00	0	43	0	542113792	59	4926
2026-01-28 10:48:39.37	236.77	41.85	-45.6	-48.9	15.1	0.00e+00	0	44	0	549453824	61	5678
2026-01-28 10:48:43.34	238.58	42.29	-44.9	-47.8	16.1	0.00e+00	0	43	0	556793856	61	5026
2026-01-28 10:48:47.31	240.44	42.71	-46.0	-49.7	14.4	0.00e+00	0	44	0	564133888	63	5559
2026-01-28 10:48:51.28	242.35	43.09	-44.9	-48.1	16.0	0.00e+00	0	44	0	571473920	61	5160
2026-01-28 10:48:55.25	244.30	43.44	-45.2	-48.5	15.5	0.00e+00	0	44	0	578813952	61	5418
2026-01-28 10:48:59.22	246.29	43.76	-44.7	-47.6	16.4	0.00e+00	0	44	0	586153984	60	5203
2026-01-28 10:49:03.20	248.33	44.04	-44.2	-47.1	16.9	0.00e+00	0	44	0	593494016	60	4876
2026-01-28 10:49:07.17	250.39	44.28	-44.6	-47.5	16.6	0.00e+00	0	44	0	600834048	60	5112
2026-01-28 10:49:11.14	252.48	44.48	-45.0	-48.1	16.0	0.00e+00	0	44	0	608174080	60	5465
2026-01-28 10:49:15.11	254.59	44.65	-44.8	-47.7	16.3	0.00e+00	0	44	0	616562688	60	5271
2026-01-28 10:49:19.08	256.73	44.77	-44.6	-47.5	16.5	0.00e+00	0	44	0	623902720	61	4842
2026-01-28 10:49:23.05	258.87	44.84	-44.0	-46.7	17.3	0.00e+00	0	44	0	631242752	59	4938
2026-01-28 10:49:27.02	261.02	44.87	-44.0	-46.7	17.2	0.00e+00	0	44	0	638582784	59	4957
2026-01-28 10:49:30.99	263.18	44.86	-43.6	-46.2	17.7	0.00e+00	0	44	0	645922816	59	4689
2026-01-28 10:49:34.97	265.33	44.81	-43.4	-45.9	18.1	0.00e+00	0	44	0	653262848	58	4809
2026-01-28 10:49:38.94	267.47	44.71	-43.3	-45.7	18.3	0.00e+00	0	44	0	660602880	58	4683
2026-01-28 10:49:42.91	269.59	44.57	-44.2	-46.9	17.0	0.00e+00	0	44	0	667942912	59	5094
2026-01-28 10:49:46.88	271.69	44.39	-43.7	-46.2	17.7	0.00e+00	0	44	0	675282944	59	4705
2026-01-28 10:49:50.86	273.77	44.16	-43.7	-46.2	17.7	0.00e+00	0	44	0	682622976	58	4955
2026-01-28 10:49:54.83	275.81	43.90	-44.9	-47.9	16.1	0.00e+00	0	44	0	691011584	60	5390
2026-01-28 10:49:58.80	277.82	43.60	-44.7	-47.7	16.3	0.00e+00	0	44	0	698351616	60	5273
2026-01-28 10:50:02.76	279.78	43.27	-43.9	-46.5	17.6	0.00e+00	0	44	0	705691648	59	4817
2026-01-28 10:50:06.73	281.71	42.90	-44.0	-46.7	17.3	0.00e+00	0	44	0	713031680	60	4664
2026-01-28 10:50:10.71	283.59	42.51	-44.6	-47.5	16.5	0.00e+00	0	44	0	720371712	59	5429
2026-01-28 10:50:14.68	285.43	42.08	-43.3	-45.8	18.2	0.00e+00	0	44	0	727711744	58	4725
2026-01-28 10:50:18.65	287.21	41.63	-41.8	-43.9	19.8	0.00e+00	0	44	0	735051776	55	4539
2026-01-28 10:50:22.62	288.95	41.16	-43.5	-46.0	18.0	0.00e+00	0	44	0	742391808	57	5108
2026-01-28 10:50:26.59	290.63	40.66	-42.5	-44.8	19.1	0.00e+00	0	44	0	749731840	56	4740
2026-01-28 10:50:30.56	292.26	40.14	-42.1	-44.3	19.6	0.00e+00	0	44	0	758120448	56	4474
2026-01-28 10:50:34.54	293.85	39.61	-43.2	-45.7	18.2	0.00e+00	0	44	0	765460480	57	4953
2026-01-28 10:50:38.51	295.38	39.06	-42.9	-45.3	18.6	0.00e+00	0	44	0	772800512	56	5029
2026-01-28 10:50:42.48	296.86	38.50	-42.7	-45.1	18.8	0.00e+00	0	44	0	780140544	57	4620
2026-01-28 10:50:46.45	298.28	37.93	-43.1	-45.5	18.4	0.00e+00	0	44	0	787480576	57	4845
2026-01-28 10:50:50.42	299.66	37.35	-43.2	-45.7	18.3	0.00e+00	0	43	0	794820608	57	4939
2026-01-28 10:50:54.39	301.00	36.77	-43.1	-45.5	18.5	0.00e+00	0	44	0	802160640	57	4830
2026-01-28 10:50:58.36	302.28	36.18	-42.1	-44.3	19.6	0.00e+00	0	44	0	809500672	56	4463
2026-01-28 10:51:02.34	303.52	35.58	-43.3	-45.8	18.2	0.00e+00	0	43	0	816840704	57	5003
2026-01-28 10:51:06.31	304.72	34.98	-42.4	-44.7	19.1	0.00e+00	0	44	0	824180736	56	4690
2026-01-28 10:51:10.28	305.87	34.38	-44.5	-47.4	16.6	0.00e+00	0	44	0	832569344	59	5364
2026-01-28 10:51:14.25	306.98	33.78	-43.5	-46.1	17.9	0.00e+00	0	44	0	839909376	59	4605
2026-01-28 10:51:18.22	308.05	33.18	-45.0	-48.1	15.9	0.00e+00	0	44	0	847249408	60	5471
2026-01-28 10:51:22.19	309.09	32.58	-42.7	-45.0	18.9	0.00e+00	0	44	0	854589440	57	4548
2026-01-28 10:51:26.16	310.08	31.98	-45.5	-48.9	15.1	7.00e-07	0	44	0	861929472	61	5680
2026-01-28 10:51:30.14	311.05	31.38	-43.1	-45.5	18.4	0.00e+00	0	44	0	869269504	58	4579
2026-01-28 10:51:34.11	311.97	30.79	-45.2	-48.4	15.7	0.00e+00	0	44	0	876609536	61	5371
2026-01-28 10:51:38.08	312.87	30.21	-43.6	-46.2	17.7	0.00e+00	0	44	0	883949568	59	4675
2026-01-28 10:51:42.05	313.73	29.63	-44.1	-47.0	17.0	0.00e+00	0	44	0	891289600	58	5407
2026-01-28 10:51:46.02	314.57	29.05	-43.0	-45.7	18.2	0.00e+00	0	44	0	898629632	58	4677
2026-01-28 10:51:50.00	315.37	28.48	-42.0	-44.3	19.4	0.00e+00	0	44	0	905969664	55	4753
2026-01-28 10:51:53.97	316.15	27.91	-44.0	-46.8	17.2	0.00e+00	0	44	0	914358272	58	5305
2026-01-28 10:51:57.94	316.90	27.36	-43.1	-45.6	18.2	0.00e+00	0	44	0	921698304	58	4634
2026-01-28 10:52:01.91	317.63	26.80	-43.0	-45.5	18.4	0.00e+00	0	44	0	929038336	56	5133
2026-01-28 10:52:05.88	318.33	26.26	-43.3	-46.0	17.9	0.00e+00	0	44	0	936378368	57	5113
2026-01-28 10:52:09.85	319.01	25.72	-42.4	-44.7	19.1	0.00e+00	0	44	0	943718400	56	4696
2026-01-28 10:52:13.83	319.67	25.19	-42.7	-45.2	18.7	0.00e+00	0	44	0	951058432	56	4940
2026-01-28 10:52:17.80	320.31	24.66	-43.2	-45.9	18.0	0.00e+00	0	44	0	958398464	57	5099
2026-01-28 10:52:21.77	320.92	24.14	-42.9	-45.7	18.2	0.00e+00	0	43	0	965738496	57	4937
2026-01-28 10:52:25.74	321.52	23.63	-42.3	-44.8	19.0	0.00e+00	0	43	0	973078528	56	4732
2026-01-28 10:52:29.72	322.10	23.13	-42.5	-45.0	18.9	0.00e+00	0	43	0	981467136	56	4820
2026-01-28 10:52:33.69	322.66	22.63	-42.9	-45.4	18.4	0.00e+00	0	43	0	988807168	56	5092
2026-01-28 10:52:37.66	323.20	22.14	-43.0	-45.6	18.3	0.00e+00	0	44	0	996147200	56	5177
2026-01-28 10:52:41.63	323.73	21.66	-43.0	-45.6	18.3	0.00e+00	0	44	0	1003487232	56	5186
2026-01-28 10:52:45.60	324.24	21.18	-43.2	-46.0	17.9	0.00e+00	0	44	0	1010827264	57	5112
2026-01-28 10:52:49.57	324.74	20.71	-43.5	-46.3	17.5	0.00e+00	0	44	0	1018167296	57	5317
2026-01-28 10:52:53.55	325.22	20.25	-43.6	-46.4	17.4	0.00e+00	0	43	0	1025507328	57	5378
2026-01-28 10:52:57.52	325.69	19.79	-43.5	-46.1	17.7	0.00e+00	0	44	0	1032847360	57	5180
2026-01-28 10:53:01.49	326.14	19.34	-43.0	-45.5	18.3	0.00e+00	0	44	0	1040187392	57	4841
2026-01-28 10:53:05.46	326.59	18.90	-43.0	-45.8	18.0	0.00e+00	0	43	0	1047527424	57	5006
2026-01-28 10:53:09.43	327.02	18.46	-43.1	-46.1	17.7	0.00e+00	0	44	0	1055916032	57	5171
2026-01-28 10:53:13.41	327.44	18.03	-43.1	-46.0	17.8	0.00e+00	0	44	0	1063256064	57	5109
2026-01-28 10:53:17.38	327.85	17.61	-43.0	-45.8	18.0	0.00e+00	0	43	0	1070596096	57	5010
2026-01-28 10:53:21.35	328.24	17.19	-43.0	-45.9	17.8	0.00e+00	0	43	0	1077936128	57	5066
2026-01-28 10:53:25.32	328.63	16.78	-43.6	-46.4	17.3	0.00e+00	0	43	0	1085276160	57	5391
2026-01-28 10:53:29.29	329.01	16.37	-44.2	-47.1	16.7	0.00e+00	0	44	0	1092616192	59	5166
2026-01-28 10:53:33.27	329.38	15.97	-44.1	-46.9	16.8	0.00e+00	0	43	0	1099956224	59	5072
2026-01-28 10:53:37.24	329.73	15.57	-43.9	-46.7	17.1	0.00e+00	0	44	0	1107296256	59	4944
2026-01-28 10:53:41.21	330.08	15.18	-43.6	-46.4	17.3	0.00e+00	0	43	0	1114636288	59	4778
2026-01-28 10:53:45.18	330.42	14.79	-43.5	-46.3	17.4	0.00e+00	0	44	0	1121976320	58	5029
2026-01-28 10:53:49.15	330.76	14.41	-43.4	-46.3	17.4	0.00e+00	0	44	0	1130364928	58	4986
2026-01-28 10:53:53.12	331.08	14.04	-43.5	-46.3	17.4	0.00e+00	0	43	0	1137704960	58	5003
2026-01-28 10:53:57.10	331.40	13.67	-43.8	-46.7	17.0	0.00e+00	0	43	0	1145044992	58	5232
2026-01-28 10:54:01.07	331.71	13.30	-44.0	-46.9	16.8	0.00e+00	0	43	0	1152385024	58	5352
2026-01-28 10:54:05.04	332.01	12.94	-44.2	-47.1	16.5	0.00e+00	0	44	0	1159725056	59	5214
2026-01-28 10:54:09.01	332.31	12.59	-44.1	-47.1	16.6	0.00e+00	0	43	0	1167065088	59	5193
2026-01-28 10:54:12.98	332.60	12.24	-44.1	-47.1	16.4	0.00e+00	0	43	0	1174405120	59	5191
2026-01-28 10:54:16.95	332.88	11.89	-44.2	-47.3	15.9	0.00e+00	0	43	0	1181745152	59	5317
2026-01-28 10:54:20.93	333.16	11.55	-44.4	-47.5	16.1	0.00e+00	0	43	0	1189085184	59	5461
2026-01-28 10:54:24.90	333.43	11.21	-44.7	-48.0	15.6	0.00e+00	0	43	0	1196425216	60	5428
2026-01-28 10:54:28.87	333.69	10.87	-44.7	-48.1	15.5	0.00e+00	0	43	0	1204813824	60	5506
2026-01-28 10:54:32.84	333.95	10.54	-44.4	-47.9	15.5	0.00e+00	0	43	0	1212153856	60	5357
2026-01-28 10:54:36.81	334.21	10.22	-44.2	-47.7	15.7	0.00e+00	0	43	0	1219493888	60	5228
2026-01-28 10:54:40.78	334.46	9.90	-44.1	-47.5	16.0	0.00e+00	0	43	0	1226833920	60	5111
2026-01-28 10:54:44.75	334.70	9.58	-43.9	-47.3	14.7	0.00e+00	0	43	0	1234173952	59	5307
2026-01-28 10:54:48.73	334.94	9.26	-43.2	-47.2	10.6	2.48e-03	0	43	0	1241513984	58	5553
2026-01-28 10:54:52.70	335.17	8.95	-45.6	-50.8	11.0	2.67e-05	0	43	0	1248854016	61	7042
2026-01-28 10:54:56.67	335.40	8.64	-48.9	-64.5	3.9	1.49e+00	0	43	104	1249902592	68	22878
2026-01-28 10:55:00.64	335.63	8.34	-48.7	-64.6	3.8	1.49e+00	0	43	104	1249902592	69	21946
2026-01-28 10:55:04.62	335.85	8.04	-49.4	-64.7	3.8	1.49e+00	0	43	104	1249902592	69	22102
2026-01-28 10:55:08.59	336.07	7.74	-49.5	-64.8	3.8	1.49e+00	0	43	104	1249902592	69	22311
2026-01-28 10:55:12.56	336.28	7.44	-49.4	-64.8	3.8	1.49e+00	0	43	104	1249902592	69	22358
2026-01-28 10:55:16.53	336.49	7.15	-49.4	-64.8	3.8	1.49e+00	0	43	104	1249902592	69	22302
2026-01-28 10:55:20.50	336.70	6.86	-49.4	-64.8	3.8	1.49e+00	0	43	104	1249902592	69	22336
2026-01-28 10:55:24.48	336.90	6.58	-49.3	-64.8	3.8	1.49e+00	0	43	104	1249902592	69	22307
2026-01-28 10:55:28.45	337.10	6.29	-49.4	-64.7	3.8	1.49e+00	0	43	104	1249902592	69	22255
2026-01-28 10:55:32.42	337.29	6.01	-49.4	-64.8	3.8	1.49e+00	0	43	104	1249902592	69	22283
2026-01-28 10:55:36.39	337.48	5.74	-49.3	-64.7	3.8	1.49e+00	0	43	104	1249902592	69	22220
2026-01-28 10:55:40.37	337.67	5.46	-49.3	-64.7	3.8	1.49e+00	0	43	104	1249902592	69	22200
2026-01-28 10:55:44.34	337.86	5.19	-49.3	-64.8	3.8	1.49e+00	0	43	104	1249902592	69	22310

#Closed at: 2026-01-28 10:55:48
#Recorded file [1249 MB]: D:/Data/31040_260128_134313.dat