passes_logs/2026/01/28/T1/T1__20260128_082714_KHAYYAM_rec.log

#Pass ID: 20260128_082714_KHAYYAM
#Satellite: KHAYYAM
#Configuration: KHAYYAM_480M
#almurnet v.1.7.20251203
#Start time: 2026-01-28 08:27:15

#Version: 2.0.20230620
#Station: T1
#Location: 37.570604 lon 55.790049 lat
#TLE: 1 53370U 22096A   26027.62333840  .00009189  00000+0  37322-3 0  9999
#TLE: 2 53370  97.3550 294.4067 0002110 106.9293 253.2176 15.24792297193169

#Time	Az	El	Level	Level2	SNR	BER	BlckErr	Temp	State	Recorded	gain1	gain2
2026-01-28 08:27:15.51	187.24	5.12	-49.8	-54.9	3.3	0.00e+00	0	46	0	0	70	26961
2026-01-28 08:27:18.48	187.44	5.36	-49.8	-54.9	3.7	0.00e+00	0	46	104	0	70	26979
2026-01-28 08:27:21.47	187.64	5.60	-49.8	-54.8	3.7	0.00e+00	0	46	104	0	70	26880
2026-01-28 08:27:24.46	187.84	5.84	-49.8	-54.8	3.7	0.00e+00	0	47	104	0	70	26878
2026-01-28 08:27:27.45	188.05	6.08	-49.7	-54.8	3.7	0.00e+00	0	47	104	0	70	26662
2026-01-28 08:27:30.44	188.26	6.33	-49.9	-54.9	3.7	0.00e+00	0	47	104	0	70	26960
2026-01-28 08:27:33.42	188.47	6.58	-49.8	-54.9	3.7	0.00e+00	0	47	104	0	70	27012
2026-01-28 08:27:36.41	188.69	6.83	-49.8	-54.8	3.7	0.00e+00	0	48	104	0	70	26747
2026-01-28 08:27:39.39	188.92	7.09	-49.7	-54.8	3.7	0.00e+00	0	48	104	0	70	26717
2026-01-28 08:27:42.38	189.15	7.35	-49.7	-54.7	3.7	0.00e+00	0	48	104	0	70	26348
2026-01-28 08:27:45.37	189.38	7.61	-49.7	-54.8	3.7	0.00e+00	0	48	104	0	70	26651
2026-01-28 08:27:48.36	189.62	7.87	-49.7	-54.7	3.7	0.00e+00	0	48	104	0	70	26493
2026-01-28 08:27:51.35	189.87	8.14	-49.7	-54.6	3.7	0.00e+00	0	48	104	0	70	26020
2026-01-28 08:27:54.33	190.12	8.42	-49.7	-54.6	3.7	0.00e+00	0	49	104	0	70	26147
2026-01-28 08:27:57.32	190.38	8.69	-49.8	-54.8	3.7	0.00e+00	0	49	104	0	70	26730
2026-01-28 08:28:00.31	190.64	8.97	-49.8	-54.8	3.7	0.00e+00	0	49	104	0	70	26859
2026-01-28 08:28:03.30	190.91	9.26	-49.5	-54.5	3.7	0.00e+00	0	49	104	0	70	25908
2026-01-28 08:28:06.31	191.19	9.55	-49.5	-54.5	3.7	0.00e+00	0	49	104	0	70	25974
2026-01-28 08:28:09.31	191.47	9.84	-49.4	-54.4	3.7	0.00e+00	0	49	104	0	70	25568
2026-01-28 08:28:12.30	191.76	10.14	-49.4	-54.4	3.7	0.00e+00	0	49	104	0	70	25622
2026-01-28 08:28:15.30	192.06	10.44	-49.3	-54.4	3.7	0.00e+00	0	49	104	0	70	25594
2026-01-28 08:28:18.28	192.36	10.75	-49.4	-54.5	3.7	0.00e+00	0	49	104	0	70	25685
2026-01-28 08:28:21.27	192.67	11.06	-49.6	-54.7	3.7	0.00e+00	0	49	104	0	70	26374
2026-01-28 08:28:24.26	192.99	11.37	-49.8	-54.8	3.7	0.00e+00	0	49	104	0	71	25337
2026-01-28 08:28:27.25	193.32	11.69	-50.4	-55.4	3.7	0.00e+00	0	49	104	0	71	27142
2026-01-28 08:28:30.25	193.66	12.02	-50.4	-55.5	3.7	0.00e+00	0	50	104	0	71	27388
2026-01-28 08:28:33.25	194.00	12.35	-50.5	-55.5	3.7	0.00e+00	0	50	104	0	72	25774
2026-01-28 08:28:36.24	194.36	12.68	-50.5	-55.5	3.7	0.00e+00	0	49	104	0	72	25871
2026-01-28 08:28:39.23	194.72	13.02	-50.2	-55.2	3.7	0.00e+00	0	50	104	0	72	24904
2026-01-28 08:28:42.23	195.10	13.37	-50.4	-55.3	3.7	0.00e+00	0	50	104	0	72	25314
2026-01-28 08:28:45.22	195.48	13.72	-50.7	-55.6	3.7	0.00e+00	0	50	104	0	72	26082
2026-01-28 08:28:48.21	195.88	14.08	-50.8	-55.7	3.7	0.00e+00	0	50	104	0	72	26468
2026-01-28 08:28:51.21	196.29	14.44	-51.2	-55.9	3.7	0.00e+00	0	50	104	0	72	27047
2026-01-28 08:28:54.20	196.71	14.81	-51.3	-56.0	3.7	0.00e+00	0	50	104	0	73	25802
2026-01-28 08:28:57.19	197.14	15.19	-50.8	-55.6	3.7	0.00e+00	0	50	104	0	73	24749
2026-01-28 08:29:00.18	197.58	15.57	-50.7	-55.6	3.7	0.00e+00	0	50	104	0	73	24584
2026-01-28 08:29:03.17	198.04	15.96	-51.1	-56.0	3.7	0.00e+00	0	50	104	0	73	25817
2026-01-28 08:29:06.17	198.51	16.35	-51.1	-56.2	3.7	0.00e+00	0	50	104	0	73	26347
2026-01-28 08:29:09.17	199.00	16.76	-51.4	-56.2	3.7	0.00e+00	0	50	104	0	74	25005
2026-01-28 08:29:12.17	199.51	17.17	-52.4	-57.0	3.7	0.00e+00	0	50	104	0	75	25888
2026-01-28 08:29:15.16	200.02	17.58	-52.7	-57.3	3.7	0.00e+00	0	50	104	0	76	25188
2026-01-28 08:29:18.16	200.56	18.01	-52.0	-56.9	3.7	0.00e+00	0	50	104	0	75	25564
2026-01-28 08:29:21.15	201.11	18.44	-51.8	-56.8	3.7	0.00e+00	0	50	104	0	74	26647
2026-01-28 08:29:24.14	201.68	18.88	-51.8	-56.6	3.7	0.00e+00	0	50	104	0	74	26181
2026-01-28 08:29:27.13	202.27	19.32	-52.1	-56.7	3.7	0.00e+00	0	50	104	0	75	25076
2026-01-28 08:29:30.13	202.88	19.78	-52.1	-56.9	3.7	0.00e+00	0	50	104	0	75	25624
2026-01-28 08:29:33.12	203.51	20.24	-52.4	-57.0	3.7	0.00e+00	0	50	104	0	75	25819
2026-01-28 08:29:36.11	204.17	20.71	-52.2	-56.8	3.7	0.00e+00	0	50	104	0	75	25238
2026-01-28 08:29:39.11	204.84	21.19	-52.2	-56.6	3.7	0.00e+00	0	50	104	0	75	24724
2026-01-28 08:29:42.11	205.54	21.68	-51.9	-56.0	3.7	0.00e+00	0	50	104	0	75	22953
2026-01-28 08:29:45.10	206.27	22.17	-52.0	-56.3	3.7	0.00e+00	0	50	104	0	74	25323
2026-01-28 08:29:48.09	207.02	22.67	-52.6	-56.6	3.7	0.00e+00	0	50	104	0	76	23270
2026-01-28 08:29:51.08	207.80	23.18	-52.5	-57.0	3.7	0.00e+00	0	51	104	0	76	24251
2026-01-28 08:29:54.07	208.60	23.69	-52.7	-57.2	3.7	0.00e+00	0	50	104	0	76	25054
2026-01-28 08:29:57.07	209.44	24.22	-52.7	-57.3	3.7	0.00e+00	0	51	104	0	76	25109
2026-01-28 08:30:00.06	210.31	24.75	-52.6	-57.3	3.6	0.00e+00	0	50	104	0	76	25322
2026-01-28 08:30:03.06	211.21	25.29	-52.6	-57.3	3.7	0.00e+00	0	51	104	0	76	25294
2026-01-28 08:30:06.06	212.15	25.83	-51.9	-56.5	3.7	0.00e+00	0	51	104	0	75	24327
2026-01-28 08:30:09.06	213.12	26.38	-52.6	-57.0	3.7	0.00e+00	0	51	104	0	75	25750
2026-01-28 08:30:12.05	214.13	26.94	-52.7	-57.1	3.7	0.00e+00	0	50	104	0	76	24617
2026-01-28 08:30:15.05	215.18	27.50	-52.6	-57.1	3.7	0.00e+00	0	51	104	0	76	24548
2026-01-28 08:30:18.03	216.27	28.06	-52.8	-57.3	3.7	0.00e+00	0	50	104	0	76	25207
2026-01-28 08:30:21.03	217.40	28.63	-52.7	-57.4	3.7	0.00e+00	0	51	104	0	76	25657
2026-01-28 08:30:24.03	218.58	29.20	-52.8	-57.4	3.7	0.00e+00	0	51	104	0	76	25628
2026-01-28 08:30:27.03	219.81	29.77	-52.3	-56.3	3.7	0.00e+00	0	51	104	0	76	22520
2026-01-28 08:30:30.02	221.08	30.35	-51.9	-55.8	3.7	0.00e+00	0	51	104	0	75	22572
2026-01-28 08:30:33.03	222.40	30.92	-52.7	-57.3	3.7	0.00e+00	0	51	104	0	76	25275
2026-01-28 08:30:36.03	223.77	31.49	-52.1	-56.1	3.7	0.00e+00	0	51	104	0	76	22095
2026-01-28 08:30:39.03	225.20	32.05	-51.8	-55.6	3.7	0.00e+00	0	50	104	0	75	21932
2026-01-28 08:30:42.03	226.68	32.61	-52.8	-57.4	3.7	0.00e+00	0	51	104	0	76	25541
2026-01-28 08:30:45.03	228.21	33.16	-52.5	-56.8	3.7	0.00e+00	0	51	104	0	76	23695
2026-01-28 08:30:48.02	229.79	33.69	-51.7	-55.7	3.7	0.00e+00	0	50	104	0	75	22125
2026-01-28 08:30:51.02	231.43	34.22	-52.2	-57.2	3.7	0.00e+00	0	51	104	0	75	26432
2026-01-28 08:30:54.01	233.13	34.73	-52.0	-56.1	3.7	0.00e+00	0	51	104	0	75	23408
2026-01-28 08:30:57.01	234.88	35.22	-52.0	-56.3	3.7	0.00e+00	0	51	104	0	75	23726
2026-01-28 08:31:00.00	236.69	35.69	-52.4	-57.1	3.7	0.00e+00	0	51	104	0	75	26240
2026-01-28 08:31:02.99	238.55	36.14	-52.4	-56.2	3.7	0.00e+00	0	51	104	0	75	23649
2026-01-28 08:31:05.98	240.46	36.56	-52.2	-55.8	3.7	0.00e+00	0	51	104	0	75	22432
2026-01-28 08:31:08.98	242.42	36.95	-53.0	-57.4	3.7	0.00e+00	0	51	104	0	76	25660
2026-01-28 08:31:11.97	244.43	37.31	-51.8	-55.8	3.7	0.00e+00	0	51	104	0	75	22612
2026-01-28 08:31:14.97	246.50	37.64	-51.9	-56.0	3.7	0.00e+00	0	51	104	0	75	22927
2026-01-28 08:31:17.97	248.60	37.93	-52.5	-57.4	3.7	0.00e+00	0	51	104	0	75	26977
2026-01-28 08:31:20.97	250.74	38.19	-52.7	-57.4	3.7	0.00e+00	0	51	104	0	76	25538
2026-01-28 08:31:23.96	252.90	38.40	-52.4	-56.9	3.7	0.00e+00	0	51	104	0	76	24193
2026-01-28 08:31:26.95	255.09	38.56	-53.1	-57.5	3.7	0.00e+00	0	51	104	0	76	25924
2026-01-28 08:31:29.94	257.30	38.69	-52.9	-57.5	3.7	0.00e+00	0	51	104	0	76	25804
2026-01-28 08:31:32.95	259.54	38.76	-52.6	-57.3	3.7	0.00e+00	0	51	104	0	76	25265
2026-01-28 08:31:35.95	261.78	38.80	-52.6	-57.3	3.7	0.00e+00	0	51	104	0	76	25237
2026-01-28 08:31:38.95	264.02	38.78	-52.5	-57.2	3.7	0.00e+00	0	51	104	0	75	26529
2026-01-28 08:31:41.96	266.26	38.72	-51.9	-55.9	3.7	0.00e+00	0	51	104	0	75	22831
2026-01-28 08:31:44.96	268.48	38.61	-52.1	-56.2	3.7	0.00e+00	0	51	104	0	75	23453
2026-01-28 08:31:47.97	270.69	38.46	-52.4	-57.4	3.7	0.00e+00	0	51	104	0	75	26902
2026-01-28 08:31:50.98	272.88	38.26	-51.3	-54.9	3.7	0.00e+00	0	51	104	0	74	21506
2026-01-28 08:31:53.98	275.02	38.02	-50.3	-53.0	3.8	0.00e+00	0	51	104	0	71	20419
2026-01-28 08:31:56.98	277.14	37.75	-47.2	-49.0	4.1	0.00e+00	0	51	104	0	66	17288
2026-01-28 08:31:59.98	279.21	37.43	-47.1	-48.8	4.2	0.00e+00	0	51	104	0	64	18913
2026-01-28 08:32:02.98	281.23	37.08	-49.3	-51.4	3.9	0.00e+00	0	51	104	0	69	19205
2026-01-28 08:32:05.97	283.21	36.70	-48.3	-50.4	4.0	0.00e+00	0	51	104	0	67	19081
2026-01-28 08:32:08.97	285.14	36.29	-27.7	-28.6	4.6	0.00e+00	0	51	104	0	45	5494
2026-01-28 08:32:11.97	287.01	35.85	-27.9	-28.8	4.6	0.00e+00	0	51	104	0	26	16820
2026-01-28 08:32:14.97	288.84	35.39	-24.5	-25.4	4.6	0.00e+00	0	51	104	0	20	16019
2026-01-28 08:32:17.96	290.60	34.91	-26.0	-26.9	4.6	0.00e+00	0	51	104	0	22	17019
2026-01-28 08:32:20.96	292.31	34.40	-27.7	-28.6	4.7	0.00e+00	0	51	104	0	26	16524
2026-01-28 08:32:23.94	293.96	33.89	-26.2	-27.1	4.6	0.00e+00	0	51	104	0	23	16433
2026-01-28 08:32:26.93	295.55	33.36	-24.5	-25.3	22.0	0.00e+00	0	51	0	58720256	20	15973
2026-01-28 08:32:29.92	297.09	32.82	-28.6	-29.5	20.2	0.00e+00	0	51	0	234881024	27	17207
2026-01-28 08:32:32.92	298.58	32.27	-24.6	-25.4	22.2	0.00e+00	0	51	0	419430400	21	15220
2026-01-28 08:32:35.91	300.02	31.71	-24.7	-25.5	22.0	0.00e+00	0	52	0	595591168	20	16369
2026-01-28 08:32:38.90	301.40	31.15	-24.6	-25.5	22.0	0.00e+00	0	51	0	771751936	21	15315
2026-01-28 08:32:41.90	302.73	30.58	-24.8	-25.6	21.8	0.00e+00	0	52	0	956301312	21	15636
2026-01-28 08:32:44.90	304.01	30.01	-24.8	-25.6	22.0	0.00e+00	0	52	0	1132462080	21	15520
2026-01-28 08:32:47.89	305.25	29.45	-24.9	-25.8	22.0	0.00e+00	0	52	0	1317011456	21	15841
2026-01-28 08:32:50.89	306.44	28.88	-25.2	-26.0	21.9	0.00e+00	0	52	0	1493172224	21	16313
2026-01-28 08:32:53.88	307.58	28.31	-25.4	-26.2	21.8	0.00e+00	0	52	0	1677721600	22	15779
2026-01-28 08:32:56.87	308.68	27.75	-25.6	-26.4	21.8	0.00e+00	0	52	0	1853882368	22	16106
2026-01-28 08:32:59.86	309.74	27.19	-25.7	-26.6	21.8	0.00e+00	0	52	0	2038431744	23	15515
2026-01-28 08:33:02.85	310.76	26.64	-25.9	-26.7	21.7	0.00e+00	0	52	0	2214592512	23	15728
2026-01-28 08:33:05.84	311.74	26.09	-26.0	-26.8	21.5	0.00e+00	0	52	0	2390753280	24	15095
2026-01-28 08:33:08.84	312.69	25.55	-26.1	-27.0	21.2	0.00e+00	0	52	0	2575302656	24	15303
2026-01-28 08:33:11.84	313.60	25.01	-26.5	-27.3	21.0	0.00e+00	0	52	0	2751463424	24	16003
2026-01-28 08:33:14.83	314.48	24.48	-26.6	-27.5	21.2	0.00e+00	0	52	0	2936012800	24	16206
2026-01-28 08:33:17.83	315.32	23.96	-26.7	-27.5	21.1	0.00e+00	0	52	0	3112173568	25	15423
2026-01-28 08:33:20.81	316.14	23.45	-26.7	-27.6	21.1	0.00e+00	0	52	0	3288334336	25	15523
2026-01-28 08:33:23.81	316.92	22.94	-27.2	-28.0	20.6	0.00e+00	0	52	0	3472883712	25	16300
2026-01-28 08:33:26.81	317.68	22.44	-27.7	-28.5	20.3	0.00e+00	0	52	0	3649044480	25	17292
2026-01-28 08:33:29.81	318.42	21.94	-27.7	-28.5	20.4	0.00e+00	0	53	0	3833593856	27	15404
2026-01-28 08:33:32.80	319.12	21.46	-28.0	-28.9	19.7	0.00e+00	0	52	0	4009754624	27	16068
2026-01-28 08:33:35.79	319.81	20.98	-27.9	-28.8	20.1	0.00e+00	0	52	0	4185915392	27	15894
2026-01-28 08:33:38.78	320.46	20.51	-28.0	-28.9	20.3	0.00e+00	0	53	0	4370464768	27	16049
2026-01-28 08:33:41.78	321.10	20.05	-28.3	-29.2	20.0	0.00e+00	0	52	0	4546625536	27	16581
2026-01-28 08:33:44.78	321.72	19.59	-28.2	-29.1	19.9	0.00e+00	0	52	0	4731174912	28	15494
2026-01-28 08:33:47.77	322.32	19.15	-28.8	-29.7	19.4	0.00e+00	0	53	0	4907335680	28	16612
2026-01-28 08:33:50.77	322.90	18.71	-28.8	-29.7	19.5	0.00e+00	0	52	0	5091885056	29	15716
2026-01-28 08:33:53.76	323.45	18.28	-28.9	-29.8	19.7	0.00e+00	0	52	0	5268045824	29	15860
2026-01-28 08:33:56.75	323.99	17.85	-29.1	-30.0	19.7	0.00e+00	0	52	0	5444206592	29	16251
2026-01-28 08:33:59.74	324.52	17.44	-29.2	-30.0	19.8	0.00e+00	0	52	0	5628755968	30	15421
2026-01-28 08:34:02.74	325.03	17.03	-29.8	-30.6	18.7	0.00e+00	0	53	0	5804916736	30	16570
2026-01-28 08:34:05.73	325.52	16.63	-29.9	-30.8	17.9	0.00e+00	0	52	0	5989466112	30	16884
2026-01-28 08:34:08.73	326.00	16.23	-29.9	-30.8	17.9	0.00e+00	0	52	0	6165626880	31	15979
2026-01-28 08:34:11.72	326.46	15.84	-30.1	-31.0	18.1	0.00e+00	0	52	0	6341787648	31	16267
2026-01-28 08:34:14.72	326.91	15.46	-30.1	-31.0	18.1	0.00e+00	0	52	0	6526337024	31	16297
2026-01-28 08:34:17.71	327.35	15.08	-30.2	-31.1	18.1	0.00e+00	0	52	0	6702497792	31	16541
2026-01-28 08:34:20.71	327.77	14.71	-30.6	-31.5	18.5	0.00e+00	0	53	0	6878658560	32	16330
2026-01-28 08:34:23.70	328.18	14.35	-30.8	-31.7	18.6	0.00e+00	0	53	0	7063207936	32	16642
2026-01-28 08:34:26.69	328.58	13.99	-31.0	-31.9	17.9	0.00e+00	0	52	0	7239368704	32	17089
2026-01-28 08:34:29.68	328.97	13.64	-31.0	-31.8	17.8	0.00e+00	0	53	0	7423918080	33	16011
2026-01-28 08:34:32.67	329.35	13.29	-31.1	-32.0	18.1	0.00e+00	0	53	0	7600078848	33	16300
2026-01-28 08:34:35.67	329.72	12.95	-31.3	-32.1	18.3	0.00e+00	0	53	0	7784628224	34	15633
2026-01-28 08:34:38.67	330.08	12.61	-31.5	-32.4	17.9	0.00e+00	0	53	0	7960788992	34	16113
2026-01-28 08:34:41.67	330.43	12.28	-31.7	-32.6	17.7	0.00e+00	0	53	0	8145338368	34	16509
2026-01-28 08:34:44.66	330.77	11.96	-31.6	-32.5	17.8	0.00e+00	0	53	0	8321499136	35	15408
2026-01-28 08:34:47.65	331.10	11.64	-31.8	-32.6	17.9	0.00e+00	0	53	0	8497659904	35	15621
2026-01-28 08:34:50.65	331.43	11.32	-32.0	-32.8	17.8	0.00e+00	0	53	0	8682209280	35	16006
2026-01-28 08:34:53.64	331.74	11.01	-32.5	-33.4	17.4	0.00e+00	0	53	0	8858370048	35	17092
2026-01-28 08:34:56.63	332.05	10.71	-33.6	-34.5	18.0	0.00e+00	0	53	0	9042919424	38	16232
2026-01-28 08:34:59.62	332.35	10.41	-33.7	-34.6	18.0	0.00e+00	0	53	0	9219080192	38	16550
2026-01-28 08:35:02.61	332.65	10.11	-33.9	-34.8	17.9	0.00e+00	0	53	0	9403629568	38	16931
2026-01-28 08:35:05.61	332.93	9.81	-33.8	-34.7	17.8	0.00e+00	0	52	0	9579790336	39	15709
2026-01-28 08:35:08.61	333.21	9.53	-33.9	-34.8	17.3	0.00e+00	0	53	0	9755951104	39	15980
2026-01-28 08:35:11.60	333.49	9.24	-34.3	-35.3	16.8	0.00e+00	0	53	0	9940500480	39	16774
2026-01-28 08:35:14.60	333.75	8.96	-35.7	-36.6	15.7	0.00e+00	0	53	0	10116661248	41	17513
2026-01-28 08:35:17.59	334.01	8.68	-50.0	-55.8	3.7	4.36e-02	0	52	104	10133438464	72	26593
2026-01-28 08:35:20.59	334.27	8.41	-51.8	-56.8	3.7	4.36e-02	0	52	104	10133438464	74	26813
2026-01-28 08:35:23.59	334.52	8.14	-51.3	-56.7	3.7	4.36e-02	0	52	104	10133438464	73	28043
2026-01-28 08:35:26.58	334.76	7.87	-52.8	-57.4	3.7	4.36e-02	0	52	104	10133438464	76	25596
2026-01-28 08:35:29.57	335.00	7.61	-53.2	-57.9	3.7	4.36e-02	0	52	104	10133438464	77	25415
2026-01-28 08:35:32.56	335.24	7.35	-53.0	-57.7	3.7	4.36e-02	0	52	104	10133438464	77	25029
2026-01-28 08:35:35.54	335.46	7.09	-53.1	-57.8	3.7	4.36e-02	0	52	104	10133438464	77	25118
2026-01-28 08:35:38.53	335.69	6.84	-52.4	-57.1	3.7	4.36e-02	0	52	104	10133438464	76	24553
2026-01-28 08:35:41.53	335.91	6.59	-52.3	-57.0	3.7	4.36e-02	0	52	104	10133438464	76	24492
2026-01-28 08:35:44.52	336.12	6.34	-52.3	-57.0	3.7	4.36e-02	0	52	104	10133438464	76	24440
2026-01-28 08:35:47.50	336.33	6.10	-52.3	-57.0	3.7	4.36e-02	0	52	104	10133438464	76	24426
2026-01-28 08:35:50.49	336.54	5.86	-52.3	-57.0	3.7	4.36e-02	0	52	104	10133438464	76	24318
2026-01-28 08:35:53.48	336.74	5.62	-52.3	-57.0	3.7	4.36e-02	0	52	104	10133438464	76	24366
2026-01-28 08:35:56.46	336.94	5.39	-52.3	-57.0	3.7	4.36e-02	0	52	104	10133438464	76	24287
2026-01-28 08:35:59.43	337.14	5.15	-52.3	-57.0	3.7	4.36e-02	0	52	104	10133438464	76	24307
2026-01-28 08:36:02.42	337.33	4.92	-52.3	-57.0	3.7	4.36e-02	0	52	104	10133438464	76	24327

#Closed at: 2026-01-28 08:36:03
#Recorded file [10133 MB]: D:/Data/31040_260128_112715.dat