passes_logs/2026/01/01/planumMaritime01/planumMaritime01__20260101_190345_METEOR-M2_3_rec.log

#Pass ID: 20260101_190345_METEOR-M2 3
#Satellite: METEOR-M2 3
#Configuration: METEOR-M2 3
#Start time: 2026-01-01 19:03:50.105864

#LorettStation: 1.0.0 05.05.2024
#Station: planumMaritime01
#Location: 37.49445 lon 55.92918 lat
#TLE: 1 57166U 23091A   26001.29492983  .00000064  00000+0  46916-4 0  9994
#TLE: 2 57166  98.6349  59.4901 0002979 303.9888  56.1007 14.24028798130761

#Time	Az	El	Level	SNR
2026-01-01 19:03:52.286811	209.4	10.2	-82.6	0.0
2026-01-01 19:03:54.557011	209.7	10.3	-82.0	0.0
2026-01-01 19:03:56.828548	209.9	10.5	-81.9	0.0
2026-01-01 19:03:59.101236	210.1	10.7	-81.3	0.0
2026-01-01 19:04:01.376451	210.4	10.8	-79.2	2.2
2026-01-01 19:04:03.647840	210.6	11.0	-76.4	2.7
2026-01-01 19:04:05.926237	210.9	11.2	-74.7	0.3
2026-01-01 19:04:08.200425	211.2	11.3	-74.8	1.2
2026-01-01 19:04:10.481117	211.4	11.5	-74.6	2.0
2026-01-01 19:04:12.754528	211.7	11.7	-74.8	0.8
2026-01-01 19:04:15.028001	211.9	11.9	-74.9	0.4
2026-01-01 19:04:17.306385	212.2	12.0	-74.6	1.6
2026-01-01 19:04:19.578910	212.5	12.2	-74.9	0.7
2026-01-01 19:04:21.853853	212.7	12.4	-74.8	1.9
2026-01-01 19:04:24.120472	213.0	12.5	-74.8	1.7
2026-01-01 19:04:26.391852	213.3	12.7	-74.7	2.4
2026-01-01 19:04:28.667325	213.6	12.9	-74.8	2.1
2026-01-01 19:04:30.943688	213.9	13.1	-74.9	2.7
2026-01-01 19:04:33.214111	214.2	13.3	-74.8	3.1
2026-01-01 19:04:35.490892	214.5	13.4	-74.8	2.2
2026-01-01 19:04:37.761138	214.8	13.6	-74.9	3.6
2026-01-01 19:04:40.033027	215.1	13.8	-75.0	2.4
2026-01-01 19:04:42.306619	215.4	14.0	-75.0	2.8
2026-01-01 19:04:44.578231	215.7	14.2	-75.3	2.9
2026-01-01 19:04:46.852893	216.0	14.3	-75.1	2.2
2026-01-01 19:04:49.125563	216.3	14.5	-75.2	3.3
2026-01-01 19:04:51.400760	216.6	14.7	-75.3	2.9
2026-01-01 19:04:53.670806	216.9	14.9	-75.4	2.9
2026-01-01 19:04:55.944126	217.3	15.1	-75.7	3.3
2026-01-01 19:04:58.215303	217.6	15.3	-75.4	2.7
2026-01-01 19:05:00.486809	217.9	15.4	-75.4	3.5
2026-01-01 19:05:02.757959	218.3	15.6	-75.7	3.6
2026-01-01 19:05:05.030848	218.6	15.8	-75.8	3.9
2026-01-01 19:05:07.308495	219.0	16.0	-75.6	4.4
2026-01-01 19:05:09.585452	219.3	16.2	-75.7	4.2
2026-01-01 19:05:11.857846	219.7	16.4	-75.9	4.6
2026-01-01 19:05:14.137836	220.0	16.6	-76.0	4.6
2026-01-01 19:05:16.413727	220.4	16.7	-75.8	4.6
2026-01-01 19:05:18.688610	220.8	16.9	-76.3	5.5
2026-01-01 19:05:20.950254	221.1	17.1	-76.2	5.4
2026-01-01 19:05:23.207299	221.5	17.3	-76.1	5.0
2026-01-01 19:05:25.470745	221.9	17.5	-76.4	5.6
2026-01-01 19:05:27.731530	222.3	17.7	-76.6	6.1
2026-01-01 19:05:29.988148	222.7	17.9	-76.3	6.3
2026-01-01 19:05:32.246308	223.1	18.1	-76.5	7.1
2026-01-01 19:05:34.507661	223.5	18.3	-76.7	6.1
2026-01-01 19:05:36.767575	223.9	18.4	-76.6	7.2
2026-01-01 19:05:39.026436	224.3	18.6	-77.0	7.9
2026-01-01 19:05:41.293454	224.7	18.8	-76.8	8.2
2026-01-01 19:05:43.555586	225.1	19.0	-77.0	8.3
2026-01-01 19:05:45.833173	225.5	19.2	-77.0	8.6
2026-01-01 19:05:48.112854	226.0	19.4	-77.0	8.0
2026-01-01 19:05:50.384426	226.4	19.6	-77.4	8.4
2026-01-01 19:05:52.655374	226.8	19.8	-77.7	8.7
2026-01-01 19:05:54.923991	227.3	20.0	-77.5	9.0
2026-01-01 19:05:57.193726	227.7	20.1	-77.5	9.4
2026-01-01 19:05:59.458853	228.2	20.3	-77.5	9.7
2026-01-01 19:06:01.726805	228.7	20.5	-77.2	9.9
2026-01-01 19:06:03.999105	229.1	20.7	-77.3	9.8
2026-01-01 19:06:06.270186	229.6	20.9	-77.6	9.7
2026-01-01 19:06:08.543987	230.1	21.1	-77.5	10.4
2026-01-01 19:06:10.817008	230.6	21.3	-77.3	9.4
2026-01-01 19:06:13.088874	231.1	21.5	-77.4	9.3
2026-01-01 19:06:15.363870	231.6	21.6	-77.6	9.7
2026-01-01 19:06:17.637962	232.1	21.8	-77.3	10.3
2026-01-01 19:06:19.910686	232.6	22.0	-77.6	9.8
2026-01-01 19:06:22.185421	233.1	22.2	-77.7	9.6
2026-01-01 19:06:24.449857	233.6	22.4	-77.7	9.1
2026-01-01 19:06:26.717782	234.1	22.6	-77.3	9.9
2026-01-01 19:06:28.984184	234.7	22.7	-77.4	9.4
2026-01-01 19:06:31.257404	235.2	22.9	-77.2	8.1
2026-01-01 19:06:33.526441	235.8	23.1	-77.2	9.4
2026-01-01 19:06:35.805220	236.3	23.3	-77.0	9.1
2026-01-01 19:06:38.077768	236.9	23.4	-77.0	9.5
2026-01-01 19:06:40.346696	237.4	23.6	-77.0	9.4
2026-01-01 19:06:42.609579	238.0	23.8	-76.9	9.1
2026-01-01 19:06:44.873164	238.6	23.9	-76.6	9.0
2026-01-01 19:06:47.140318	239.2	24.1	-76.7	8.5
2026-01-01 19:06:49.406480	239.7	24.3	-76.5	8.9
2026-01-01 19:06:51.673078	240.3	24.4	-76.3	9.2
2026-01-01 19:06:53.935009	240.9	24.6	-76.2	9.2
2026-01-01 19:06:56.200518	241.5	24.7	-76.4	9.4
2026-01-01 19:06:58.476821	242.2	24.9	-76.4	9.5
2026-01-01 19:07:00.750724	242.8	25.1	-76.4	8.8
2026-01-01 19:07:03.027297	243.4	25.2	-76.3	8.2
2026-01-01 19:07:05.298428	244.0	25.3	-76.3	8.9
2026-01-01 19:07:07.572227	244.7	25.5	-76.5	8.8
2026-01-01 19:07:09.848115	245.3	25.6	-76.6	8.7
2026-01-01 19:07:12.121062	246.0	25.8	-76.4	8.5
2026-01-01 19:07:14.400241	246.6	25.9	-76.2	8.6
2026-01-01 19:07:16.678608	247.3	26.0	-76.5	8.8
2026-01-01 19:07:18.954821	247.9	26.2	-76.4	9.0
2026-01-01 19:07:21.229922	248.6	26.3	-76.3	7.7
2026-01-01 19:07:23.503836	249.3	26.4	-76.2	8.1
2026-01-01 19:07:25.775137	249.9	26.5	-76.4	8.6
2026-01-01 19:07:28.049581	250.6	26.6	-75.8	8.5
2026-01-01 19:07:30.320816	251.3	26.8	-76.0	8.7
2026-01-01 19:07:32.589803	252.0	26.9	-76.0	8.4
2026-01-01 19:07:34.860452	252.7	27.0	-76.1	8.7
2026-01-01 19:07:37.134340	253.4	27.1	-76.0	9.0
2026-01-01 19:07:39.404671	254.1	27.2	-75.9	9.3
2026-01-01 19:07:41.666846	254.8	27.2	-76.1	9.6
2026-01-01 19:07:43.933696	255.5	27.3	-75.9	9.8
2026-01-01 19:07:46.203557	256.2	27.4	-75.8	8.7
2026-01-01 19:07:48.475037	257.0	27.5	-76.2	9.0
2026-01-01 19:07:50.745779	257.7	27.6	-75.9	9.9
2026-01-01 19:07:53.014255	258.4	27.6	-75.9	9.5
2026-01-01 19:07:55.287515	259.1	27.7	-75.9	10.0
2026-01-01 19:07:57.553698	259.9	27.7	-75.7	8.1
2026-01-01 19:07:59.825769	260.6	27.8	-76.1	9.9
2026-01-01 19:08:02.103913	261.3	27.8	-75.9	9.4
2026-01-01 19:08:04.379849	262.1	27.9	-75.7	9.5
2026-01-01 19:08:06.654219	262.8	27.9	-76.0	10.0
2026-01-01 19:08:08.934938	263.6	28.0	-75.4	8.4
2026-01-01 19:08:11.206636	264.3	28.0	-76.0	9.3
2026-01-01 19:08:13.483786	265.1	28.0	-75.5	8.5
2026-01-01 19:08:15.762617	265.8	28.0	-75.5	7.4
2026-01-01 19:08:18.037079	266.5	28.0	-76.6	10.2
2026-01-01 19:08:20.312910	267.3	28.0	-76.1	9.7
2026-01-01 19:08:22.586451	268.0	28.1	-76.3	9.6
2026-01-01 19:08:24.862769	268.8	28.0	-76.1	9.0
2026-01-01 19:08:27.136909	269.5	28.0	-76.0	9.2
2026-01-01 19:08:29.411858	270.3	28.0	-75.8	8.1
2026-01-01 19:08:31.684486	271.0	28.0	-76.0	9.0
2026-01-01 19:08:33.962339	271.8	28.0	-75.1	6.3
2026-01-01 19:08:36.236523	272.5	28.0	-75.8	8.7
2026-01-01 19:08:38.507270	273.2	27.9	-75.8	7.4
2026-01-01 19:08:40.776752	274.0	27.9	-75.4	7.2
2026-01-01 19:08:43.049966	274.7	27.8	-75.5	6.5
2026-01-01 19:08:45.324505	275.5	27.8	-75.3	6.6
2026-01-01 19:08:47.598332	276.2	27.7	-76.3	8.3
2026-01-01 19:08:49.872960	276.9	27.7	-75.1	5.1
2026-01-01 19:08:52.146067	277.6	27.6	-75.1	7.3
2026-01-01 19:08:54.417421	278.4	27.5	-75.2	6.9
2026-01-01 19:08:56.691912	279.1	27.5	-75.8	6.3
2026-01-01 19:08:58.967310	279.8	27.4	-75.1	6.1
2026-01-01 19:09:01.239681	280.5	27.3	-73.4	3.9
2026-01-01 19:09:03.510702	281.2	27.2	-75.1	7.2
2026-01-01 19:09:05.783830	281.9	27.1	-75.3	5.7
2026-01-01 19:09:08.052033	282.6	27.0	-75.3	6.5
2026-01-01 19:09:10.318981	283.3	27.0	-75.6	5.0
2026-01-01 19:09:12.589525	284.0	26.8	-75.8	4.4
2026-01-01 19:09:14.864915	284.7	26.7	-74.9	3.4
2026-01-01 19:09:17.135663	285.4	26.6	-74.2	3.7
2026-01-01 19:09:19.407640	286.1	26.5	-74.7	4.1
2026-01-01 19:09:21.682177	286.8	26.4	-74.5	4.2
2026-01-01 19:09:23.950739	287.4	26.3	-74.7	4.0
2026-01-01 19:09:26.221775	288.1	26.2	-75.6	5.0
2026-01-01 19:09:28.488449	288.8	26.0	-75.1	5.9
2026-01-01 19:09:30.757708	289.4	25.9	-73.6	2.8
2026-01-01 19:09:33.028426	290.1	25.8	-74.4	5.2
2026-01-01 19:09:35.296846	290.7	25.6	-73.0	5.3
2026-01-01 19:09:37.573868	291.3	25.5	-73.8	4.2
2026-01-01 19:09:39.848364	292.0	25.3	-73.7	0.1
2026-01-01 19:09:42.118914	292.6	25.2	-74.1	3.3
2026-01-01 19:09:44.389627	293.2	25.0	-73.8	3.3
2026-01-01 19:09:46.655492	293.8	24.9	-74.8	5.2
2026-01-01 19:09:48.924087	294.4	24.7	-74.8	3.8
2026-01-01 19:09:51.187932	295.0	24.6	-74.1	2.9
2026-01-01 19:09:53.451280	295.6	24.4	-74.4	3.2
2026-01-01 19:09:55.716609	296.2	24.3	-74.5	4.3
2026-01-01 19:09:57.980133	296.8	24.1	-74.5	4.2
2026-01-01 19:10:00.242693	297.4	23.9	-75.2	4.6
2026-01-01 19:10:02.505140	297.9	23.8	-74.1	2.8
2026-01-01 19:10:04.767745	298.5	23.6	-74.2	4.4
2026-01-01 19:10:07.029721	299.1	23.4	-73.5	1.7
2026-01-01 19:10:09.287857	299.6	23.3	-75.0	6.3
2026-01-01 19:10:11.546351	300.2	23.1	-75.2	5.6
2026-01-01 19:10:13.822221	300.7	22.9	-73.2	0.0
2026-01-01 19:10:16.093387	301.2	22.7	-73.1	3.4
2026-01-01 19:10:18.367063	301.8	22.6	-74.0	3.8
2026-01-01 19:10:20.631359	302.3	22.4	-74.7	4.9
2026-01-01 19:10:22.899031	302.8	22.2	-75.6	4.8
2026-01-01 19:10:25.170418	303.3	22.0	-73.8	2.5
2026-01-01 19:10:27.437387	303.8	21.9	-74.4	1.7
2026-01-01 19:10:29.706267	304.3	21.7	-74.7	1.1
2026-01-01 19:10:31.972071	304.8	21.5	-75.4	2.7
2026-01-01 19:10:34.242790	305.3	21.3	-73.1	0.9
2026-01-01 19:10:36.514999	305.8	21.1	-74.4	5.0
2026-01-01 19:10:38.791027	306.3	20.9	-76.0	4.5
2026-01-01 19:10:41.065293	306.8	20.7	-72.5	0.0
2026-01-01 19:10:43.339500	307.2	20.6	-73.2	0.2
2026-01-01 19:10:45.608622	307.7	20.4	-74.2	0.0
2026-01-01 19:10:47.877284	308.1	20.2	-74.8	2.0
2026-01-01 19:10:50.149701	308.6	20.0	-72.1	0.0
2026-01-01 19:10:52.418621	309.0	19.8	-74.1	1.3
2026-01-01 19:10:54.695785	309.5	19.6	-70.3	0.0
2026-01-01 19:10:56.971818	309.9	19.4	-75.6	0.1
2026-01-01 19:10:59.249073	310.3	19.2	-72.2	0.0
2026-01-01 19:11:01.522450	310.8	19.1	-73.6	0.6
2026-01-01 19:11:03.787881	311.2	18.9	-71.9	0.0
2026-01-01 19:11:06.048454	311.6	18.7	-74.0	3.7
2026-01-01 19:11:08.307531	312.0	18.5	-72.8	0.0
2026-01-01 19:11:10.570460	312.4	18.3	-74.4	1.7
2026-01-01 19:11:12.830731	312.8	18.1	-72.2	0.0
2026-01-01 19:11:15.088379	313.2	17.9	-72.6	0.0
2026-01-01 19:11:17.343803	313.6	17.7	-72.5	0.0
2026-01-01 19:11:19.603965	314.0	17.6	-73.6	0.0
2026-01-01 19:11:21.860634	314.3	17.4	-73.6	0.0
2026-01-01 19:11:24.115997	314.7	17.2	-72.3	0.0
2026-01-01 19:11:26.378117	315.1	17.0	-73.1	0.0
2026-01-01 19:11:28.633769	315.5	16.8	-71.8	0.0
2026-01-01 19:11:30.892281	315.8	16.6	-74.8	2.6
2026-01-01 19:11:33.165275	316.2	16.4	-70.6	0.0
2026-01-01 19:11:35.434124	316.5	16.3	-73.8	0.1
2026-01-01 19:11:37.700902	316.9	16.1	-73.2	0.0
2026-01-01 19:11:39.975292	317.2	15.9	-72.8	0.0
2026-01-01 19:11:42.239443	317.6	15.7	-72.6	0.0
2026-01-01 19:11:44.507152	317.9	15.5	-72.5	0.0
2026-01-01 19:11:46.775982	318.2	15.3	-73.1	0.0
2026-01-01 19:11:49.042648	318.6	15.2	-73.1	0.0
2026-01-01 19:11:51.317836	318.9	15.0	-72.6	0.0
2026-01-01 19:11:53.593765	319.2	14.8	-72.4	0.0
2026-01-01 19:11:55.867108	319.5	14.6	-72.5	0.0
2026-01-01 19:11:58.142903	319.8	14.4	-72.6	0.0
2026-01-01 19:12:00.418046	320.2	14.3	-72.7	0.0
2026-01-01 19:12:02.694895	320.5	14.1	-72.0	0.0
2026-01-01 19:12:04.964460	320.8	13.9	-72.7	0.0
2026-01-01 19:12:07.226300	321.1	13.7	-72.2	0.0
2026-01-01 19:12:09.489128	321.4	13.5	-72.6	0.0
2026-01-01 19:12:11.745912	321.6	13.4	-73.9	0.0
2026-01-01 19:12:14.002420	321.9	13.2	-72.6	0.0
2026-01-01 19:12:16.263075	322.2	13.0	-72.8	0.0
2026-01-01 19:12:18.524063	322.5	12.9	-72.0	0.0
2026-01-01 19:12:20.784191	322.8	12.7	-72.8	0.0
2026-01-01 19:12:23.042814	323.1	12.5	-72.1	0.0
2026-01-01 19:12:25.305957	323.3	12.3	-70.9	0.0
2026-01-01 19:12:27.566235	323.6	12.2	-72.5	0.0
2026-01-01 19:12:29.834233	323.9	12.0	-72.3	0.0
2026-01-01 19:12:32.107446	324.1	11.8	-73.1	0.0
2026-01-01 19:12:34.379582	324.4	11.7	-73.2	0.0
2026-01-01 19:12:36.650813	324.6	11.5	-73.6	0.0
2026-01-01 19:12:38.926108	324.9	11.3	-72.9	0.0
2026-01-01 19:12:41.199116	325.2	11.1	-72.6	0.0
2026-01-01 19:12:43.472416	325.4	11.0	-72.6	0.0
2026-01-01 19:12:45.748807	325.7	10.8	-73.4	0.0
2026-01-01 19:12:48.019181	325.9	10.6	-74.7	0.0
2026-01-01 19:12:50.291839	326.1	10.5	-74.4	0.0
2026-01-01 19:12:52.568888	326.4	10.3	-79.3	0.0
2026-01-01 19:12:54.840107	326.6	10.2	-79.8	0.0
#Closed at: 2026-01-01 19:03:45.116784