passes_logs/2026/01/01/planumMaritime01/planumMaritime01__20260101_175834_METOP-C_rec.log

#Pass ID: 20260101_175834_METOP-C
#Satellite: METOP-C
#Configuration: METOP-C
#Start time: 2026-01-01 17:58:39.073816

#LorettStation: 1.0.0 05.05.2024
#Station: planumMaritime01
#Location: 37.49445 lon 55.92918 lat
#TLE: 1 43689U 18087A   26001.31932789  .00000269  00000+0  14274-3 0  9992
#TLE: 2 43689  98.6901  63.7860 0000249 350.8424   9.2749 14.21492938371124

#Time	Az	El	Level	SNR
2026-01-01 17:58:43.772139	158.1	10.4	-75.5	0.0
2026-01-01 17:58:46.028140	158.1	10.6	-72.9	0.0
2026-01-01 17:58:48.282229	158.1	10.8	-72.6	1.6
2026-01-01 17:58:50.538719	158.1	11.0	-72.7	2.7
2026-01-01 17:58:52.792744	158.0	11.2	-72.2	1.3
2026-01-01 17:58:55.046586	158.0	11.4	-72.8	3.2
2026-01-01 17:58:57.298853	158.0	11.7	-72.9	2.6
2026-01-01 17:58:59.554304	158.0	11.9	-72.8	2.5
2026-01-01 17:59:01.808184	158.0	12.1	-72.8	5.0
2026-01-01 17:59:04.063527	158.0	12.3	-72.6	3.1
2026-01-01 17:59:06.317649	158.0	12.5	-73.1	4.5
2026-01-01 17:59:08.571150	158.0	12.7	-72.9	2.0
2026-01-01 17:59:10.825662	158.0	13.0	-72.7	3.5
2026-01-01 17:59:13.078924	157.9	13.2	-72.9	3.9
2026-01-01 17:59:15.334685	157.9	13.4	-73.0	4.1
2026-01-01 17:59:17.590472	157.9	13.6	-72.8	3.3
2026-01-01 17:59:19.845825	157.9	13.9	-73.6	5.0
2026-01-01 17:59:22.099887	157.9	14.1	-72.8	3.5
2026-01-01 17:59:24.352754	157.9	14.3	-72.9	4.5
2026-01-01 17:59:26.607964	157.9	14.6	-73.1	4.8
2026-01-01 17:59:28.859169	157.9	14.8	-72.9	5.1
2026-01-01 17:59:31.112405	157.8	15.1	-72.8	4.0
2026-01-01 17:59:33.368080	157.8	15.3	-73.1	3.6
2026-01-01 17:59:35.621395	157.8	15.5	-73.1	3.4
2026-01-01 17:59:37.875189	157.8	15.8	-73.6	4.3
2026-01-01 17:59:40.128859	157.8	16.0	-73.0	4.2
2026-01-01 17:59:42.382242	157.8	16.3	-73.1	4.2
2026-01-01 17:59:44.637032	157.7	16.6	-73.5	4.6
2026-01-01 17:59:46.892045	157.7	16.8	-72.5	2.9
2026-01-01 17:59:49.146414	157.7	17.1	-73.5	3.3
2026-01-01 17:59:51.401227	157.7	17.3	-73.9	5.2
2026-01-01 17:59:53.653300	157.7	17.6	-73.5	4.8
2026-01-01 17:59:55.906827	157.7	17.9	-73.4	4.5
2026-01-01 17:59:58.159649	157.6	18.2	-73.4	5.3
2026-01-01 18:00:00.415466	157.6	18.4	-72.8	1.7
2026-01-01 18:00:02.668179	157.6	18.7	-73.4	4.6
2026-01-01 18:00:04.925243	157.6	19.0	-73.3	5.0
2026-01-01 18:00:07.176769	157.6	19.3	-73.2	4.7
2026-01-01 18:00:09.429205	157.5	19.6	-73.0	5.0
2026-01-01 18:00:11.679964	157.5	19.9	-73.0	5.2
2026-01-01 18:00:13.934786	157.5	20.2	-72.4	5.5
2026-01-01 18:00:16.189496	157.5	20.5	-72.2	5.1
2026-01-01 18:00:18.439309	157.4	20.8	-71.7	2.4
2026-01-01 18:00:20.693663	157.4	21.1	-72.6	5.9
2026-01-01 18:00:22.949357	157.4	21.4	-72.3	5.1
2026-01-01 18:00:25.204268	157.4	21.7	-72.4	6.7
2026-01-01 18:00:27.455607	157.3	22.0	-72.4	6.3
2026-01-01 18:00:29.710728	157.3	22.4	-71.6	6.3
2026-01-01 18:00:31.962375	157.3	22.7	-71.1	4.2
2026-01-01 18:00:34.215731	157.2	23.0	-72.6	6.5
2026-01-01 18:00:36.466783	157.2	23.4	-72.1	7.0
2026-01-01 18:00:38.723192	157.2	23.7	-72.7	7.3
2026-01-01 18:00:40.976632	157.2	24.1	-72.5	6.3
2026-01-01 18:00:43.228475	157.1	24.4	-73.4	7.6
2026-01-01 18:00:45.480806	157.1	24.8	-73.0	6.6
2026-01-01 18:00:47.733199	157.1	25.1	-72.9	8.5
2026-01-01 18:00:49.991703	157.0	25.5	-72.6	6.1
2026-01-01 18:00:52.244766	157.0	25.9	-73.0	6.9
2026-01-01 18:00:54.498214	157.0	26.2	-72.2	4.9
2026-01-01 18:00:56.749437	156.9	26.6	-72.8	7.8
2026-01-01 18:00:59.002069	156.9	27.0	-73.0	8.3
2026-01-01 18:01:01.255409	156.8	27.4	-72.9	8.7
2026-01-01 18:01:03.508399	156.8	27.8	-72.9	8.4
2026-01-01 18:01:05.759769	156.8	28.2	-72.8	7.2
2026-01-01 18:01:08.012207	156.7	28.6	-73.0	9.0
2026-01-01 18:01:10.264836	156.7	29.0	-73.0	8.4
2026-01-01 18:01:12.515353	156.6	29.5	-73.1	8.6
2026-01-01 18:01:14.767542	156.6	29.9	-73.0	8.4
2026-01-01 18:01:17.019963	156.5	30.3	-73.4	9.6
2026-01-01 18:01:19.270371	156.5	30.8	-73.4	9.3
2026-01-01 18:01:21.523637	156.4	31.2	-73.4	10.1
2026-01-01 18:01:23.773940	156.4	31.7	-73.3	8.8
2026-01-01 18:01:26.027123	156.3	32.1	-73.3	9.2
2026-01-01 18:01:28.279679	156.2	32.6	-73.4	11.5
2026-01-01 18:01:30.531935	156.2	33.1	-73.1	10.4
2026-01-01 18:01:32.784717	156.1	33.6	-72.4	7.6
2026-01-01 18:01:35.036105	156.1	34.1	-73.1	11.2
2026-01-01 18:01:37.288391	156.0	34.6	-72.9	9.8
2026-01-01 18:01:39.540806	155.9	35.1	-73.4	11.4
2026-01-01 18:01:41.790706	155.9	35.6	-73.7	10.6
2026-01-01 18:01:44.042600	155.8	36.1	-73.6	11.1
2026-01-01 18:01:46.296622	155.7	36.7	-73.4	11.3
2026-01-01 18:01:48.551926	155.6	37.2	-73.7	11.5
2026-01-01 18:01:50.803132	155.5	37.7	-73.8	11.7
2026-01-01 18:01:53.055556	155.5	38.3	-73.8	11.3
2026-01-01 18:01:55.309987	155.4	38.9	-74.1	10.6
2026-01-01 18:01:57.564025	155.3	39.5	-74.1	10.6
2026-01-01 18:01:59.819729	155.2	40.1	-74.1	11.7
2026-01-01 18:02:02.071188	155.1	40.7	-73.7	11.8
2026-01-01 18:02:04.325660	155.0	41.3	-73.0	12.7
2026-01-01 18:02:06.578831	154.9	41.9	-73.3	13.1
2026-01-01 18:02:08.833634	154.8	42.5	-72.8	12.7
2026-01-01 18:02:11.088459	154.7	43.2	-72.9	13.1
2026-01-01 18:02:13.342622	154.5	43.8	-72.9	14.0
2026-01-01 18:02:15.594573	154.4	44.5	-73.1	12.9
2026-01-01 18:02:17.850716	154.3	45.2	-73.0	13.1
2026-01-01 18:02:20.103761	154.1	45.9	-73.2	12.5
2026-01-01 18:02:22.356932	154.0	46.6	-73.1	11.7
2026-01-01 18:02:24.609151	153.8	47.3	-73.4	11.0
2026-01-01 18:02:26.862581	153.7	48.0	-73.7	11.9
2026-01-01 18:02:29.113018	153.5	48.7	-73.5	11.6
2026-01-01 18:02:31.364372	153.3	49.5	-73.3	12.6
2026-01-01 18:02:33.614869	153.2	50.2	-73.0	11.7
2026-01-01 18:02:35.868205	153.0	51.0	-72.9	12.1
2026-01-01 18:02:38.121007	152.7	51.8	-72.6	13.2
2026-01-01 18:02:40.376187	152.5	52.6	-72.2	12.9
2026-01-01 18:02:42.639373	152.3	53.4	-72.7	13.0
2026-01-01 18:02:44.892235	152.1	54.2	-72.9	12.8
2026-01-01 18:02:47.143427	151.8	55.1	-72.9	12.5
2026-01-01 18:02:49.395821	151.5	55.9	-72.8	10.9
2026-01-01 18:02:51.647759	151.2	56.8	-72.8	12.2
2026-01-01 18:02:53.898598	150.9	57.6	-72.9	12.0
2026-01-01 18:02:56.152023	150.6	58.5	-72.8	10.6
2026-01-01 18:02:58.404992	150.2	59.4	-73.0	11.5
2026-01-01 18:03:00.655859	149.8	60.3	-73.0	12.1
2026-01-01 18:03:02.909925	149.4	61.3	-72.7	10.4
2026-01-01 18:03:05.164475	149.0	62.2	-72.7	11.5
2026-01-01 18:03:07.419386	148.5	63.1	-72.2	10.4
2026-01-01 18:03:09.671603	148.0	64.1	-71.7	10.8
2026-01-01 18:03:11.924269	147.4	65.1	-72.2	10.3
2026-01-01 18:03:14.176602	146.8	66.0	-72.1	10.1
2026-01-01 18:03:16.428261	146.1	67.0	-72.6	8.5
2026-01-01 18:03:18.682537	145.4	68.0	-73.2	8.3
2026-01-01 18:03:20.935415	144.5	69.0	-73.2	7.6
2026-01-01 18:03:23.189289	143.6	70.0	-73.0	6.6
2026-01-01 18:03:25.443904	142.6	71.1	-73.0	7.8
2026-01-01 18:03:27.696271	141.4	72.1	-72.5	8.1
2026-01-01 18:03:29.947235	140.1	73.1	-72.3	8.0
2026-01-01 18:03:32.199483	138.7	74.1	-73.0	8.5
2026-01-01 18:03:34.449759	137.0	75.1	-72.5	6.9
2026-01-01 18:03:36.704603	135.0	76.1	-73.1	8.7
2026-01-01 18:03:38.960226	132.8	77.1	-72.7	8.1
2026-01-01 18:03:41.211360	130.2	78.1	-72.8	8.0
2026-01-01 18:03:43.462913	127.0	79.1	-73.0	10.6
2026-01-01 18:03:45.716268	123.3	80.0	-71.4	8.0
2026-01-01 18:03:47.966610	118.8	80.9	-71.5	6.0
2026-01-01 18:03:50.219655	113.4	81.7	-73.1	8.4
2026-01-01 18:03:52.471315	106.9	82.4	-73.1	10.2
2026-01-01 18:03:54.725912	99.1	83.0	-71.6	6.1
2026-01-01 18:03:56.977336	90.0	83.5	-71.6	8.6
2026-01-01 18:03:59.228989	79.8	83.8	-70.9	7.2
2026-01-01 18:04:01.480886	69.0	83.8	-71.2	7.5
2026-01-01 18:04:03.735218	58.4	83.7	-71.1	8.4
2026-01-01 18:04:05.987871	48.6	83.3	-71.0	8.0
2026-01-01 18:04:08.240836	40.0	82.8	-71.3	6.9
2026-01-01 18:04:10.490187	32.7	82.1	-70.9	8.5
2026-01-01 18:04:12.740720	26.7	81.4	-71.1	5.9
2026-01-01 18:04:14.995122	21.6	80.5	-70.7	2.9
2026-01-01 18:04:17.248644	17.5	79.6	-71.1	5.3
2026-01-01 18:04:19.502156	14.0	78.7	-70.8	2.3
2026-01-01 18:04:21.757403	11.1	77.7	-72.2	8.8
2026-01-01 18:04:24.012525	8.6	76.7	-71.0	6.3
2026-01-01 18:04:26.265145	6.5	75.7	-71.7	6.1
2026-01-01 18:04:28.519336	4.7	74.7	-71.3	4.3
2026-01-01 18:04:30.773501	3.1	73.7	-71.9	8.0
2026-01-01 18:04:33.026804	1.7	72.7	-71.4	8.2
2026-01-01 18:04:35.281413	0.4	71.7	-70.9	6.8
2026-01-01 18:04:37.534710	359.3	70.7	-70.4	4.0
2026-01-01 18:04:39.788101	358.4	69.7	-71.0	3.9
2026-01-01 18:04:42.039765	357.5	68.7	-71.7	7.1
2026-01-01 18:04:44.291422	356.7	67.7	-72.2	5.8
2026-01-01 18:04:46.545220	356.0	66.7	-71.5	6.0
2026-01-01 18:04:48.795425	355.3	65.7	-71.5	6.3
2026-01-01 18:04:51.048364	354.7	64.7	-69.5	3.3
2026-01-01 18:04:53.301490	354.2	63.8	-71.2	8.6
2026-01-01 18:04:55.556431	353.7	62.8	-71.1	8.4
2026-01-01 18:04:57.808032	353.2	61.9	-70.7	7.5
2026-01-01 18:05:00.065010	352.8	60.9	-71.2	8.6
2026-01-01 18:05:02.317467	352.4	60.0	-71.7	10.5
2026-01-01 18:05:04.570964	352.0	59.1	-71.5	9.9
2026-01-01 18:05:06.825775	351.6	58.2	-71.9	9.9
2026-01-01 18:05:09.074554	351.3	57.4	-71.9	7.5
2026-01-01 18:05:11.325696	351.0	56.5	-71.9	7.4
2026-01-01 18:05:13.578782	350.7	55.6	-71.6	7.2
2026-01-01 18:05:15.832699	350.4	54.8	-71.8	8.1
2026-01-01 18:05:18.087720	350.2	54.0	-72.1	10.9
2026-01-01 18:05:20.341744	350.0	53.1	-71.3	9.1
2026-01-01 18:05:22.593247	349.7	52.3	-70.4	7.9
2026-01-01 18:05:24.846065	349.5	51.6	-70.3	7.5
2026-01-01 18:05:27.097458	349.3	50.8	-70.1	6.7
2026-01-01 18:05:29.348907	349.1	50.0	-70.5	7.7
2026-01-01 18:05:31.596367	348.9	49.3	-69.7	5.9
2026-01-01 18:05:33.849463	348.8	48.5	-69.7	5.2
2026-01-01 18:05:36.102544	348.6	47.8	-67.5	3.0
2026-01-01 18:05:38.356689	348.5	47.1	-66.9	3.8
2026-01-01 18:05:40.611440	348.3	46.4	-69.0	3.0
2026-01-01 18:05:42.865432	348.2	45.7	-69.6	3.3
2026-01-01 18:05:45.118449	348.0	45.0	-68.5	0.0
2026-01-01 18:05:47.371955	347.9	44.3	-68.3	0.8
2026-01-01 18:05:49.625253	347.8	43.7	-69.1	3.3
2026-01-01 18:05:51.877345	347.7	43.0	-68.3	0.0
2026-01-01 18:05:54.130774	347.5	42.4	-67.6	0.0
2026-01-01 18:05:56.383674	347.4	41.8	-67.9	0.0
2026-01-01 18:05:58.632775	347.3	41.1	-67.6	0.0
2026-01-01 18:06:00.886618	347.2	40.5	-67.1	0.0
2026-01-01 18:06:03.141165	347.1	39.9	-66.6	0.0
2026-01-01 18:06:05.392680	347.0	39.4	-66.4	0.0
2026-01-01 18:06:07.644593	347.0	38.8	-66.3	0.0
2026-01-01 18:06:09.895504	346.9	38.2	-66.0	0.0
2026-01-01 18:06:12.148826	346.8	37.7	-65.6	0.0
2026-01-01 18:06:14.402221	346.7	37.1	-64.9	0.0
2026-01-01 18:06:16.656011	346.6	36.6	-64.9	0.0
2026-01-01 18:06:18.909614	346.6	36.0	-64.4	0.0
2026-01-01 18:06:21.161186	346.5	35.5	-62.0	0.0
2026-01-01 18:06:23.413942	346.4	35.0	-64.0	0.0
2026-01-01 18:06:25.670019	346.4	34.5	-64.4	0.0
2026-01-01 18:06:27.923661	346.3	34.0	-63.5	0.0
2026-01-01 18:06:30.176727	346.2	33.5	-63.6	0.0
2026-01-01 18:06:32.429571	346.2	33.0	-64.2	0.0
2026-01-01 18:06:34.685268	346.1	32.6	-65.1	0.0
2026-01-01 18:06:36.937591	346.1	32.1	-65.1	0.0
2026-01-01 18:06:39.190766	346.0	31.6	-65.4	0.0
2026-01-01 18:06:41.443573	345.9	31.2	-66.3	0.0
2026-01-01 18:06:43.696741	345.9	30.7	-65.8	0.0
2026-01-01 18:06:45.948667	345.8	30.3	-64.6	0.0
2026-01-01 18:06:48.203644	345.8	29.9	-66.2	0.0
2026-01-01 18:06:50.458741	345.8	29.4	-66.2	0.0
2026-01-01 18:06:52.711403	345.7	29.0	-65.7	0.0
2026-01-01 18:06:54.967157	345.7	28.6	-64.3	0.0
2026-01-01 18:06:57.223425	345.6	28.2	-65.2	0.0
2026-01-01 18:06:59.474230	345.6	27.8	-65.3	0.0
2026-01-01 18:07:01.727529	345.5	27.4	-64.7	0.0
2026-01-01 18:07:03.979374	345.5	27.0	-63.4	0.0
2026-01-01 18:07:06.234208	345.5	26.6	-63.3	0.0
2026-01-01 18:07:08.485044	345.4	26.3	-64.7	0.0
2026-01-01 18:07:10.739156	345.4	25.9	-65.2	0.0
2026-01-01 18:07:12.993729	345.4	25.5	-64.9	0.0
2026-01-01 18:07:15.243999	345.3	25.1	-63.2	0.0
2026-01-01 18:07:17.496151	345.3	24.8	-64.6	0.0
2026-01-01 18:07:19.754685	345.3	24.4	-66.9	0.0
2026-01-01 18:07:22.007303	345.2	24.1	-65.3	0.0
2026-01-01 18:07:24.262538	345.2	23.7	-65.5	0.0
2026-01-01 18:07:26.516757	345.2	23.4	-65.4	0.0
2026-01-01 18:07:28.767194	345.1	23.1	-65.7	0.0
2026-01-01 18:07:31.019574	345.1	22.7	-66.6	0.0
2026-01-01 18:07:33.272886	345.1	22.4	-65.9	0.0
2026-01-01 18:07:35.523143	345.1	22.1	-63.8	0.0
2026-01-01 18:07:37.777021	345.0	21.8	-63.8	0.0
2026-01-01 18:07:40.029530	345.0	21.5	-63.4	0.0
2026-01-01 18:07:42.282994	345.0	21.1	-62.3	0.0
2026-01-01 18:07:44.535607	345.0	20.8	-64.4	0.0
2026-01-01 18:07:46.788026	345.0	20.5	-64.0	0.0
2026-01-01 18:07:49.039539	344.9	20.2	-63.5	0.0
2026-01-01 18:07:51.295582	344.9	19.9	-63.4	0.0
2026-01-01 18:07:53.547695	344.9	19.6	-64.4	0.0
2026-01-01 18:07:55.798787	344.9	19.4	-62.7	0.0
2026-01-01 18:07:58.055664	344.8	19.1	-64.4	0.0
2026-01-01 18:08:00.308391	344.8	18.8	-64.5	0.0
2026-01-01 18:08:02.563326	344.8	18.5	-64.3	0.0
2026-01-01 18:08:04.816664	344.8	18.2	-64.9	0.0
2026-01-01 18:08:07.070182	344.8	18.0	-66.5	0.0
2026-01-01 18:08:09.325549	344.8	17.7	-68.1	0.0
2026-01-01 18:08:11.608698	344.7	17.4	-68.3	0.0
2026-01-01 18:08:13.866606	344.7	17.2	-68.8	0.0
2026-01-01 18:08:16.119548	344.7	16.9	-68.3	0.0
2026-01-01 18:08:18.372256	344.7	16.6	-69.9	0.0
2026-01-01 18:08:20.627145	344.7	16.4	-68.8	0.0
2026-01-01 18:08:22.882050	344.7	16.1	-68.5	0.0
2026-01-01 18:08:25.135641	344.7	15.9	-69.7	0.0
2026-01-01 18:08:27.388512	344.6	15.6	-68.6	0.0
2026-01-01 18:08:29.642607	344.6	15.4	-66.9	0.0
2026-01-01 18:08:31.896203	344.6	15.1	-66.9	0.0
2026-01-01 18:08:34.150462	344.6	14.9	-66.5	0.0
2026-01-01 18:08:36.404905	344.6	14.7	-65.8	0.0
2026-01-01 18:08:38.658265	344.6	14.4	-66.2	0.0
2026-01-01 18:08:40.912158	344.6	14.2	-65.9	0.0
2026-01-01 18:08:43.164757	344.6	14.0	-65.9	0.0
2026-01-01 18:08:45.420122	344.5	13.7	-65.9	0.0
2026-01-01 18:08:47.674754	344.5	13.5	-65.6	0.0
2026-01-01 18:08:49.929784	344.5	13.3	-66.4	0.0
2026-01-01 18:08:52.186108	344.5	13.1	-66.4	0.0
2026-01-01 18:08:54.438547	344.5	12.8	-66.5	0.0
2026-01-01 18:08:56.692460	344.5	12.6	-67.8	0.0
2026-01-01 18:08:58.947428	344.5	12.4	-67.4	0.0
2026-01-01 18:09:01.203064	344.5	12.2	-69.7	0.0
2026-01-01 18:09:03.455934	344.5	12.0	-67.7	0.0
2026-01-01 18:09:05.709846	344.5	11.8	-67.6	0.0
2026-01-01 18:09:07.966341	344.4	11.6	-68.1	0.0
2026-01-01 18:09:10.218651	344.4	11.3	-67.7	0.0
2026-01-01 18:09:12.472070	344.4	11.1	-67.1	0.0
2026-01-01 18:09:14.725410	344.4	10.9	-66.1	0.0
2026-01-01 18:09:16.979395	344.4	10.7	-66.6	0.0
2026-01-01 18:09:19.233634	344.4	10.5	-66.2	0.0
2026-01-01 18:09:21.488382	344.4	10.3	-64.7	0.0
2026-01-01 18:09:23.742108	344.4	10.1	-70.7	0.0
2026-01-01 18:09:25.994414	344.4	9.9	-76.2	0.0
#Closed at: 2026-01-01 17:58:34.083587