passes_logs/2026/01/01/planumMaritime01/planumMaritime01__20260101_233856_METEOR-M2_4_rec.log

#Pass ID: 20260101_233856_METEOR-M2 4
#Satellite: METEOR-M2 4
#Configuration: METEOR-M2 4
#Start time: 2026-01-01 23:39:01.775125

#LorettStation: 1.0.0 05.05.2024
#Station: planumMaritime01
#Location: 37.49445 lon 55.92918 lat
#TLE: 1 59051U 24039A   26001.33093902  .00000101  00000+0  65101-4 0  9994
#TLE: 2 59051  98.6794 322.9353 0006125 297.7572  62.2984 14.22405016 95544

#Time	Az	El	Level	SNR
2026-01-01 23:39:03.942673	36.4	10.1	-76.9	0.0
2026-01-01 23:39:06.212199	36.7	10.3	-78.3	0.0
2026-01-01 23:39:08.474693	36.9	10.4	-78.2	0.0
2026-01-01 23:39:10.739257	37.2	10.6	-76.4	0.0
2026-01-01 23:39:13.003278	37.5	10.8	-74.3	0.0
2026-01-01 23:39:15.270054	37.8	10.9	-74.9	0.0
2026-01-01 23:39:17.533866	38.0	11.1	-75.1	0.0
2026-01-01 23:39:19.799076	38.3	11.2	-72.7	0.0
2026-01-01 23:39:22.066540	38.6	11.4	-72.9	0.0
2026-01-01 23:39:24.335082	38.9	11.5	-74.5	0.0
2026-01-01 23:39:26.604186	39.2	11.7	-75.0	0.0
2026-01-01 23:39:28.870281	39.5	11.8	-74.4	0.0
2026-01-01 23:39:31.137770	39.8	12.0	-72.9	0.0
2026-01-01 23:39:33.405143	40.1	12.1	-72.7	0.0
2026-01-01 23:39:35.673707	40.4	12.3	-73.7	0.0
2026-01-01 23:39:37.943711	40.7	12.5	-74.7	0.0
2026-01-01 23:39:40.218697	41.0	12.6	-74.2	0.0
2026-01-01 23:39:42.495223	41.3	12.8	-74.9	0.0
2026-01-01 23:39:44.773829	41.6	12.9	-74.1	0.0
2026-01-01 23:39:47.045106	41.9	13.1	-74.4	0.0
2026-01-01 23:39:49.313796	42.2	13.3	-73.5	0.0
2026-01-01 23:39:51.583945	42.6	13.4	-74.4	0.0
2026-01-01 23:39:53.850026	42.9	13.6	-74.2	0.0
2026-01-01 23:39:56.116047	43.2	13.7	-73.0	0.0
2026-01-01 23:39:58.381208	43.5	13.9	-73.7	0.0
2026-01-01 23:40:00.654298	43.9	14.1	-74.5	0.0
2026-01-01 23:40:02.928276	44.2	14.2	-74.6	0.0
2026-01-01 23:40:05.201889	44.6	14.4	-73.4	0.0
2026-01-01 23:40:07.476581	44.9	14.5	-74.6	0.0
2026-01-01 23:40:09.752015	45.3	14.7	-75.2	0.0
2026-01-01 23:40:12.027020	45.6	14.9	-72.8	0.0
2026-01-01 23:40:14.305394	46.0	15.0	-74.2	0.0
2026-01-01 23:40:16.577186	46.4	15.2	-74.5	0.0
2026-01-01 23:40:18.855801	46.7	15.3	-73.0	0.0
2026-01-01 23:40:21.129274	47.1	15.5	-72.6	0.0
2026-01-01 23:40:23.408032	47.5	15.7	-73.3	0.0
2026-01-01 23:40:25.682369	47.9	15.8	-73.7	0.0
2026-01-01 23:40:27.959575	48.2	16.0	-73.5	0.0
2026-01-01 23:40:30.236955	48.6	16.1	-73.1	0.0
2026-01-01 23:40:32.508011	49.0	16.3	-73.5	0.0
2026-01-01 23:40:34.783179	49.4	16.5	-73.1	0.0
2026-01-01 23:40:37.059893	49.8	16.6	-72.6	0.0
2026-01-01 23:40:39.335756	50.2	16.8	-73.3	0.0
2026-01-01 23:40:41.606252	50.6	16.9	-73.1	0.0
2026-01-01 23:40:43.881846	51.0	17.1	-73.1	0.0
2026-01-01 23:40:46.154665	51.5	17.3	-72.9	0.0
2026-01-01 23:40:48.429521	51.9	17.4	-74.1	0.0
2026-01-01 23:40:50.695845	52.3	17.6	-74.9	0.0
2026-01-01 23:40:52.964265	52.7	17.7	-73.0	0.0
2026-01-01 23:40:55.228819	53.2	17.9	-73.8	0.0
2026-01-01 23:40:57.490793	53.6	18.0	-74.8	0.0
2026-01-01 23:40:59.751694	54.0	18.2	-73.9	0.0
2026-01-01 23:41:02.015424	54.5	18.3	-75.4	0.0
2026-01-01 23:41:04.275802	54.9	18.5	-73.1	0.0
2026-01-01 23:41:06.541407	55.4	18.6	-73.9	0.0
2026-01-01 23:41:08.804237	55.8	18.8	-75.4	0.0
2026-01-01 23:41:11.071148	56.3	19.0	-75.0	0.0
2026-01-01 23:41:13.341533	56.8	19.1	-74.7	0.0
2026-01-01 23:41:15.608184	57.3	19.3	-74.6	0.0
2026-01-01 23:41:17.881494	57.7	19.4	-75.3	0.0
2026-01-01 23:41:20.156080	58.2	19.5	-74.7	0.0
2026-01-01 23:41:22.426892	58.7	19.7	-76.4	0.0
2026-01-01 23:41:24.705267	59.2	19.8	-74.0	0.0
2026-01-01 23:41:26.981010	59.7	20.0	-75.4	0.0
2026-01-01 23:41:29.253340	60.2	20.1	-74.7	0.0
2026-01-01 23:41:31.525200	60.7	20.3	-75.0	0.0
2026-01-01 23:41:33.798729	61.2	20.4	-74.9	0.0
2026-01-01 23:41:36.070846	61.7	20.5	-75.3	0.0
2026-01-01 23:41:38.342219	62.3	20.7	-75.7	0.0
2026-01-01 23:41:40.620431	62.8	20.8	-76.8	1.1
2026-01-01 23:41:42.890972	63.3	20.9	-74.6	0.0
2026-01-01 23:41:45.170898	63.8	21.1	-74.0	0.0
2026-01-01 23:41:47.443368	64.4	21.2	-77.5	2.2
2026-01-01 23:41:49.717197	64.9	21.3	-77.6	0.0
2026-01-01 23:41:51.984002	65.5	21.5	-74.5	0.0
2026-01-01 23:41:54.246412	66.0	21.6	-76.7	0.0
2026-01-01 23:41:56.509632	66.6	21.7	-76.4	0.3
2026-01-01 23:41:58.771544	67.1	21.8	-75.4	1.4
2026-01-01 23:42:01.043029	67.7	21.9	-77.6	3.1
2026-01-01 23:42:03.319025	68.3	22.1	-76.2	0.0
2026-01-01 23:42:05.588229	68.8	22.2	-75.4	0.8
2026-01-01 23:42:07.864053	69.4	22.3	-75.5	0.0
2026-01-01 23:42:10.140055	70.0	22.4	-75.6	0.0
2026-01-01 23:42:12.411682	70.6	22.5	-76.9	2.0
2026-01-01 23:42:14.684797	71.2	22.6	-77.0	0.0
2026-01-01 23:42:16.957924	71.8	22.7	-76.1	3.0
2026-01-01 23:42:19.238970	72.4	22.8	-75.4	1.6
2026-01-01 23:42:21.513032	73.0	22.9	-76.7	2.2
2026-01-01 23:42:23.787236	73.6	23.0	-76.9	3.1
2026-01-01 23:42:26.062195	74.2	23.1	-77.6	1.4
2026-01-01 23:42:28.338642	74.8	23.2	-77.5	2.9
2026-01-01 23:42:30.613363	75.4	23.2	-78.0	2.8
2026-01-01 23:42:32.887655	76.0	23.3	-77.9	2.3
2026-01-01 23:42:35.163495	76.6	23.4	-76.9	0.0
2026-01-01 23:42:37.436840	77.3	23.5	-76.1	0.0
2026-01-01 23:42:39.714287	77.9	23.5	-77.9	3.8
2026-01-01 23:42:41.995895	78.5	23.6	-77.9	6.1
2026-01-01 23:42:44.274080	79.1	23.7	-78.5	2.8
2026-01-01 23:42:46.553118	79.8	23.7	-77.9	6.4
2026-01-01 23:42:48.828496	80.4	23.8	-78.4	3.3
2026-01-01 23:42:51.105168	81.1	23.8	-78.2	4.4
2026-01-01 23:42:53.380112	81.7	23.9	-77.8	2.9
2026-01-01 23:42:55.657149	82.3	23.9	-78.4	6.5
2026-01-01 23:42:57.927662	83.0	24.0	-78.2	5.2
2026-01-01 23:43:00.196766	83.6	24.0	-78.0	2.4
2026-01-01 23:43:02.462603	84.3	24.1	-78.7	7.3
2026-01-01 23:43:04.729026	84.9	24.1	-78.2	3.4
2026-01-01 23:43:06.995718	85.6	24.1	-78.8	6.8
2026-01-01 23:43:09.259270	86.2	24.1	-78.5	5.7
2026-01-01 23:43:11.526355	86.9	24.2	-78.7	7.7
2026-01-01 23:43:13.791026	87.5	24.2	-78.8	8.6
2026-01-01 23:43:16.054981	88.2	24.2	-78.5	5.9
2026-01-01 23:43:18.320426	88.8	24.2	-79.0	8.5
2026-01-01 23:43:20.589436	89.5	24.2	-78.6	4.5
2026-01-01 23:43:22.859093	90.1	24.2	-79.0	8.5
2026-01-01 23:43:25.131332	90.8	24.2	-79.2	8.4
2026-01-01 23:43:27.399981	91.4	24.2	-79.1	6.8
2026-01-01 23:43:29.662071	92.1	24.2	-79.6	8.7
2026-01-01 23:43:31.920482	92.7	24.2	-79.6	7.8
2026-01-01 23:43:34.183017	93.4	24.1	-79.3	6.1
2026-01-01 23:43:36.442828	94.0	24.1	-79.4	7.2
2026-01-01 23:43:38.713367	94.7	24.1	-79.6	7.3
2026-01-01 23:43:40.987325	95.3	24.1	-78.8	4.7
2026-01-01 23:43:43.264205	96.0	24.0	-79.0	8.3
2026-01-01 23:43:45.538616	96.6	24.0	-79.5	9.2
2026-01-01 23:43:47.809116	97.3	24.0	-79.3	8.2
2026-01-01 23:43:50.083896	97.9	23.9	-79.4	9.1
2026-01-01 23:43:52.357145	98.6	23.9	-79.6	8.4
2026-01-01 23:43:54.632680	99.2	23.8	-80.1	7.8
2026-01-01 23:43:56.907326	99.8	23.8	-79.9	6.0
2026-01-01 23:43:59.184537	100.5	23.7	-80.4	8.9
2026-01-01 23:44:01.458085	101.1	23.6	-80.7	9.1
2026-01-01 23:44:03.734599	101.7	23.6	-80.3	9.0
2026-01-01 23:44:06.011088	102.4	23.5	-80.4	8.8
2026-01-01 23:44:08.284467	103.0	23.4	-80.4	8.3
2026-01-01 23:44:10.560849	103.6	23.4	-80.7	9.4
2026-01-01 23:44:12.836145	104.2	23.3	-80.7	8.2
2026-01-01 23:44:15.112997	104.9	23.2	-81.0	8.8
2026-01-01 23:44:17.387238	105.5	23.1	-80.4	6.5
2026-01-01 23:44:19.657195	106.1	23.0	-81.1	9.0
2026-01-01 23:44:21.932836	106.7	22.9	-80.7	9.2
2026-01-01 23:44:24.208673	107.3	22.8	-80.6	8.4
2026-01-01 23:44:26.484133	107.9	22.7	-80.5	8.5
2026-01-01 23:44:28.756417	108.5	22.6	-80.5	8.0
2026-01-01 23:44:31.032597	109.1	22.5	-80.6	7.5
2026-01-01 23:44:33.306600	109.7	22.4	-80.6	8.9
2026-01-01 23:44:35.584058	110.3	22.3	-80.5	8.5
2026-01-01 23:44:37.860509	110.8	22.2	-80.3	8.4
2026-01-01 23:44:40.134547	111.4	22.1	-80.8	8.8
2026-01-01 23:44:42.409934	112.0	22.0	-80.7	9.4
2026-01-01 23:44:44.686638	112.6	21.9	-80.6	8.7
2026-01-01 23:44:46.964083	113.1	21.7	-79.4	7.8
2026-01-01 23:44:49.240115	113.7	21.6	-80.1	8.2
2026-01-01 23:44:51.519950	114.2	21.5	-80.2	9.2
2026-01-01 23:44:53.797078	114.8	21.4	-80.5	9.3
2026-01-01 23:44:56.067596	115.3	21.2	-80.2	9.2
2026-01-01 23:44:58.334159	115.9	21.1	-80.5	9.6
2026-01-01 23:45:00.600915	116.4	21.0	-79.7	8.2
2026-01-01 23:45:02.870350	116.9	20.9	-79.7	8.2
2026-01-01 23:45:05.134488	117.5	20.7	-80.1	8.7
2026-01-01 23:45:07.402837	118.0	20.6	-80.0	5.3
2026-01-01 23:45:09.671788	118.5	20.4	-79.7	6.5
2026-01-01 23:45:11.940155	119.0	20.3	-79.9	6.5
2026-01-01 23:45:14.209353	119.5	20.2	-80.0	6.6
2026-01-01 23:45:16.477568	120.0	20.0	-79.9	7.9
2026-01-01 23:45:18.744892	120.5	19.9	-80.3	8.4
2026-01-01 23:45:21.013031	121.0	19.7	-80.0	7.3
2026-01-01 23:45:23.279180	121.5	19.6	-79.9	8.0
2026-01-01 23:45:25.544732	122.0	19.4	-80.2	5.1
2026-01-01 23:45:27.811236	122.5	19.3	-79.4	3.5
2026-01-01 23:45:30.079764	123.0	19.1	-80.1	7.5
2026-01-01 23:45:32.348365	123.4	19.0	-80.7	8.2
2026-01-01 23:45:34.619022	123.9	18.8	-80.2	6.9
2026-01-01 23:45:36.885398	124.4	18.7	-79.7	5.8
2026-01-01 23:45:39.157161	124.8	18.5	-79.7	6.1
2026-01-01 23:45:41.427094	125.3	18.4	-80.7	7.7
2026-01-01 23:45:43.698412	125.7	18.2	-80.4	6.2
2026-01-01 23:45:45.973303	126.2	18.1	-80.7	6.7
2026-01-01 23:45:48.247081	126.6	17.9	-81.0	7.2
2026-01-01 23:45:50.524172	127.1	17.7	-81.1	6.4
2026-01-01 23:45:52.799468	127.5	17.6	-81.1	6.6
2026-01-01 23:45:55.067372	127.9	17.4	-80.3	6.4
2026-01-01 23:45:57.330715	128.4	17.3	-80.5	7.6
2026-01-01 23:45:59.595413	128.8	17.1	-80.5	8.2
2026-01-01 23:46:01.861051	129.2	16.9	-80.7	6.7
2026-01-01 23:46:04.128923	129.6	16.8	-80.3	7.7
2026-01-01 23:46:06.391600	130.0	16.6	-80.6	7.9
2026-01-01 23:46:08.661352	130.4	16.5	-80.6	6.8
2026-01-01 23:46:10.927638	130.8	16.3	-80.3	7.0
2026-01-01 23:46:13.197165	131.2	16.1	-80.6	6.9
2026-01-01 23:46:15.460051	131.6	16.0	-80.7	6.3
2026-01-01 23:46:17.739084	132.0	15.8	-80.9	7.0
2026-01-01 23:46:20.014285	132.4	15.7	-80.7	7.3
2026-01-01 23:46:22.291538	132.7	15.5	-80.2	7.2
2026-01-01 23:46:24.568133	133.1	15.3	-80.5	6.6
2026-01-01 23:46:26.846639	133.5	15.2	-81.1	5.9
2026-01-01 23:46:29.121381	133.9	15.0	-80.5	4.6
2026-01-01 23:46:31.388575	134.2	14.9	-81.0	5.3
2026-01-01 23:46:33.651830	134.6	14.7	-81.4	5.4
2026-01-01 23:46:35.926788	134.9	14.5	-80.3	6.4
2026-01-01 23:46:38.204195	135.3	14.4	-80.5	4.4
2026-01-01 23:46:40.478760	135.6	14.2	-81.0	5.4
2026-01-01 23:46:42.758464	136.0	14.0	-80.2	5.6
2026-01-01 23:46:45.031085	136.3	13.9	-80.0	6.3
2026-01-01 23:46:47.292241	136.7	13.7	-79.3	5.1
2026-01-01 23:46:49.554529	137.0	13.6	-80.1	4.4
2026-01-01 23:46:51.811990	137.3	13.4	-80.1	5.6
2026-01-01 23:46:54.087043	137.6	13.2	-80.2	3.9
2026-01-01 23:46:56.362424	138.0	13.1	-80.3	4.9
2026-01-01 23:46:58.636718	138.3	12.9	-80.4	6.1
2026-01-01 23:47:00.914098	138.6	12.8	-80.2	3.7
2026-01-01 23:47:03.185190	138.9	12.6	-80.7	1.8
2026-01-01 23:47:05.454465	139.2	12.4	-80.4	5.9
2026-01-01 23:47:07.725017	139.5	12.3	-80.9	1.5
2026-01-01 23:47:09.997725	139.8	12.1	-80.8	3.7
2026-01-01 23:47:12.271306	140.1	12.0	-80.3	6.8
2026-01-01 23:47:14.546248	140.4	11.8	-80.8	3.1
2026-01-01 23:47:16.818482	140.7	11.6	-80.2	5.2
2026-01-01 23:47:19.090352	141.0	11.5	-81.2	2.0
2026-01-01 23:47:21.367507	141.3	11.3	-80.9	3.7
2026-01-01 23:47:23.646893	141.6	11.2	-81.3	3.0
2026-01-01 23:47:25.923278	141.9	11.0	-80.5	6.3
2026-01-01 23:47:28.199714	142.2	10.9	-79.9	6.6
2026-01-01 23:47:30.463963	142.4	10.7	-80.5	8.9
2026-01-01 23:47:32.730273	142.7	10.5	-80.6	7.8
2026-01-01 23:47:34.997839	143.0	10.4	-78.8	8.5
2026-01-01 23:47:37.263727	143.2	10.2	-79.6	7.1
2026-01-01 23:47:39.528849	143.5	10.1	-80.0	7.7
#Closed at: 2026-01-01 23:38:56.781724