passes_logs/2026/01/19/R4.6S_Anadyr/R4.6S_Anadyr__20260119_132917_SUOMI_NPP_rec.log

#Pass ID: 20260119_132917_SUOMI NPP
#Satellite: SUOMI NPP
#Configuration: NPP
#almurnet v.1.7.20251203
#Start time: 2026-01-19 13:29:20

#Version: 2.2.20231116
#Station: R4.6S_Anadyr
#Location: 177.4865 lon 64.73178 lat
#TLE: 1 37849U 11061A   26018.91022273  .00000066  00000+0  52264-4 0  9997
#TLE: 2 37849  98.7816 320.9252 0002364  56.8129 303.3273 14.19526186737260

#Time	Az	El	Level	Level2	SNR	BER	BlckErr	Temp	State	Recorded	gain1	gain2
2026-01-19 13:29:20.03	18.94	0.12	-50.6	-63.2	3.4	1.52e+00	0	38	0	0	60	50697
2026-01-19 13:29:24.06	19.12	0.34	-50.6	-65.8	3.6	1.51e+00	0	39	104	0	60	70329
2026-01-19 13:29:28.11	19.30	0.57	-50.5	-65.8	3.5	1.51e+00	0	40	104	0	60	70645
2026-01-19 13:29:32.15	19.48	0.81	-50.6	-65.8	3.6	1.51e+00	0	40	104	0	60	70327
2026-01-19 13:29:36.18	19.66	1.04	-50.3	-65.6	3.6	1.51e+00	0	40	104	0	60	68653
2026-01-19 13:29:40.23	19.85	1.27	-49.8	-65.1	3.6	1.51e+00	0	40	104	0	60	65169
2026-01-19 13:29:44.26	20.04	1.51	-49.2	-64.4	3.6	1.51e+00	0	40	104	0	60	60295
2026-01-19 13:29:48.30	20.23	1.75	-49.0	-64.2	3.6	1.51e+00	0	40	104	0	60	58614
2026-01-19 13:29:52.34	20.43	1.99	-49.0	-64.1	3.6	1.51e+00	0	40	104	0	60	58062
2026-01-19 13:29:56.38	20.63	2.23	-49.0	-63.3	3.6	1.51e+00	0	40	104	0	60	52930
2026-01-19 13:30:00.43	20.83	2.47	-48.9	-62.5	3.6	1.50e+00	0	40	104	0	60	48017
2026-01-19 13:30:04.47	21.03	2.72	-48.8	-60.7	3.8	1.51e+00	0	40	104	0	60	39301
2026-01-19 13:30:08.51	21.24	2.96	-46.0	-49.3	13.9	1.40e-04	0	40	0	5242880	60	10606
2026-01-19 13:30:12.55	21.45	3.21	-44.8	-47.3	15.8	0.00e+00	0	40	0	12582912	60	8360
2026-01-19 13:30:16.59	21.66	3.46	-47.0	-51.5	11.4	3.56e-04	43	40	0	19922944	60	13598
2026-01-19 13:30:20.63	21.88	3.72	-48.1	-55.1	4.8	1.47e+00	21	40	104	26214400	60	20450
2026-01-19 13:30:24.66	22.10	3.97	-47.1	-51.5	11.0	1.66e-03	9	40	0	26214400	60	13605
2026-01-19 13:30:28.70	22.32	4.23	-45.6	-48.5	14.8	0.00e+00	0	40	0	33554432	60	9660
2026-01-19 13:30:32.74	22.55	4.49	-45.2	-47.7	15.2	0.00e+00	29	40	0	40894464	60	8787
2026-01-19 13:30:36.78	22.78	4.75	-44.6	-46.8	16.7	0.00e+00	0	40	0	48234496	60	7901
2026-01-19 13:30:40.82	23.02	5.01	-44.0	-45.9	17.5	0.00e+00	0	40	0	56623104	60	7146
2026-01-19 13:30:44.86	23.26	5.28	-43.6	-45.4	18.0	0.00e+00	0	40	0	63963136	60	6731
2026-01-19 13:30:48.90	23.50	5.55	-43.6	-45.4	18.1	0.00e+00	42	40	0	71303168	60	6764
2026-01-19 13:30:52.93	23.75	5.82	-43.5	-45.3	18.2	0.00e+00	0	40	0	78643200	60	6657
2026-01-19 13:30:56.97	24.00	6.09	-43.4	-45.1	18.4	0.00e+00	0	41	0	85983232	60	6516
2026-01-19 13:31:01.01	24.25	6.36	-43.3	-45.0	18.3	0.00e+00	35	41	0	94371840	60	6458
2026-01-19 13:31:05.05	24.51	6.64	-43.2	-44.9	18.7	0.00e+00	35	40	0	101711872	60	6333
2026-01-19 13:31:09.08	24.78	6.92	-43.3	-45.0	18.7	0.00e+00	0	40	0	109051904	60	6395
2026-01-19 13:31:13.12	25.05	7.21	-42.9	-44.5	19.1	0.00e+00	0	40	0	116391936	60	6060
2026-01-19 13:31:17.15	25.32	7.49	-42.5	-44.0	19.5	0.00e+00	25	41	0	124780544	58	6431
2026-01-19 13:31:21.19	25.60	7.78	-42.5	-43.9	19.6	0.00e+00	0	41	0	132120576	58	6380
2026-01-19 13:31:25.23	25.89	8.07	-42.1	-43.4	20.1	0.00e+00	0	41	0	139460608	58	6012
2026-01-19 13:31:29.27	26.18	8.37	-42.1	-43.5	20.2	0.00e+00	0	41	0	146800640	58	6063
2026-01-19 13:31:33.31	26.48	8.66	-42.0	-43.3	20.3	0.00e+00	91	41	0	154140672	58	5935
2026-01-19 13:31:37.35	26.78	8.96	-42.0	-43.4	20.2	0.00e+00	0	41	0	162529280	58	5987
2026-01-19 13:31:41.39	27.09	9.27	-42.1	-43.4	20.3	0.00e+00	0	41	0	169869312	56	6747
2026-01-19 13:31:45.43	27.40	9.57	-41.8	-43.1	20.5	0.00e+00	0	41	0	177209344	56	6486
2026-01-19 13:31:49.47	27.72	9.88	-41.7	-43.0	20.8	0.00e+00	80	41	0	184549376	56	6430
2026-01-19 13:31:53.51	28.05	10.19	-41.5	-42.8	20.9	0.00e+00	0	41	0	192937984	56	6274
2026-01-19 13:31:57.54	28.38	10.51	-41.3	-42.4	21.2	0.00e+00	0	41	0	200278016	56	6029
2026-01-19 13:32:01.58	28.72	10.83	-41.3	-42.5	21.1	0.00e+00	40	41	0	207618048	56	6079
2026-01-19 13:32:05.62	29.07	11.15	-41.2	-42.4	21.1	0.00e+00	0	41	0	214958080	56	6014
2026-01-19 13:32:09.66	29.42	11.47	-40.7	-41.8	21.7	0.00e+00	0	41	0	222298112	54	6273
2026-01-19 13:32:13.69	29.78	11.80	-40.8	-41.9	21.7	0.00e+00	0	41	0	230686720	54	6340
2026-01-19 13:32:17.74	30.15	12.14	-40.6	-41.7	21.8	0.00e+00	91	41	0	238026752	54	6174
2026-01-19 13:32:21.77	30.53	12.47	-40.4	-41.4	22.0	0.00e+00	0	41	0	245366784	54	6014
2026-01-19 13:32:25.81	30.92	12.81	-40.5	-41.5	21.9	0.00e+00	0	41	0	252706816	54	6083
2026-01-19 13:32:29.84	31.31	13.15	-40.8	-41.9	21.7	0.00e+00	9	41	0	261095424	54	6343
2026-01-19 13:32:33.88	31.71	13.50	-40.5	-41.6	21.9	0.00e+00	90	41	0	268435456	54	6125
2026-01-19 13:32:37.92	32.13	13.85	-40.5	-41.6	21.9	0.00e+00	0	41	0	275775488	54	6104
2026-01-19 13:32:41.95	32.55	14.20	-40.2	-41.2	22.4	0.00e+00	0	41	0	283115520	54	5868
2026-01-19 13:32:45.99	32.98	14.56	-40.1	-41.1	22.3	0.00e+00	34	41	0	290455552	54	5789
2026-01-19 13:32:50.04	33.42	14.93	-40.1	-41.2	22.4	0.00e+00	39	41	0	298844160	54	5832
2026-01-19 13:32:54.07	33.88	15.29	-40.3	-41.4	22.2	0.00e+00	0	41	0	306184192	54	5986
2026-01-19 13:32:58.11	34.34	15.66	-40.8	-41.9	21.8	0.00e+00	0	41	0	313524224	54	6383
2026-01-19 13:33:02.15	34.81	16.04	-41.3	-42.5	21.5	0.00e+00	92	41	0	320864256	54	6795
2026-01-19 13:33:06.19	35.30	16.41	-41.0	-42.1	21.6	0.00e+00	0	41	0	328204288	54	6491
2026-01-19 13:33:10.23	35.80	16.80	-41.0	-42.1	21.6	0.00e+00	0	41	0	336592896	54	6522
2026-01-19 13:33:14.26	36.31	17.18	-41.2	-42.3	21.5	0.00e+00	1	41	0	343932928	54	6689
2026-01-19 13:33:18.30	36.83	17.57	-41.4	-42.6	21.1	0.00e+00	79	41	0	351272960	54	6857
2026-01-19 13:33:22.34	37.37	17.96	-41.1	-42.2	21.5	0.00e+00	0	41	0	358612992	54	6612
2026-01-19 13:33:26.37	37.92	18.36	-40.8	-42.0	21.8	0.00e+00	0	41	0	367001600	54	6392
2026-01-19 13:33:30.41	38.48	18.76	-41.1	-42.3	21.6	0.00e+00	0	41	0	374341632	54	6648
2026-01-19 13:33:34.45	39.06	19.17	-41.0	-42.1	21.7	0.00e+00	90	41	0	381681664	54	6514
2026-01-19 13:33:38.48	39.65	19.58	-41.1	-42.2	21.5	0.00e+00	0	41	0	389021696	54	6556
2026-01-19 13:33:42.52	40.26	19.99	-41.4	-42.6	21.3	0.00e+00	0	41	0	396361728	54	6901
2026-01-19 13:33:46.55	40.89	20.41	-41.4	-42.5	21.4	0.00e+00	42	41	0	404750336	54	6848
2026-01-19 13:33:50.59	41.53	20.83	-40.9	-42.0	21.9	0.00e+00	0	41	0	412090368	54	6411
2026-01-19 13:33:54.63	42.19	21.25	-40.2	-41.2	22.5	0.00e+00	0	41	0	419430400	54	5838
2026-01-19 13:33:58.67	42.87	21.68	-40.1	-41.1	22.6	0.00e+00	0	41	0	426770432	54	5766
2026-01-19 13:34:02.70	43.57	22.11	-39.4	-40.3	23.3	0.00e+00	32	41	0	435159040	52	5934
2026-01-19 13:34:06.74	44.28	22.55	-38.5	-39.4	23.9	0.00e+00	0	41	0	442499072	50	5996
2026-01-19 13:34:10.78	45.02	22.98	-38.8	-39.7	23.7	0.00e+00	0	41	0	449839104	50	6208
2026-01-19 13:34:14.81	45.77	23.42	-39.1	-40.0	23.3	0.00e+00	0	41	0	457179136	50	6436
2026-01-19 13:34:18.85	46.55	23.86	-39.0	-39.9	23.5	0.00e+00	92	41	0	464519168	50	6371
2026-01-19 13:34:22.89	47.35	24.31	-39.2	-40.1	23.4	0.00e+00	0	41	0	472907776	50	6528
2026-01-19 13:34:26.93	48.17	24.75	-39.4	-40.3	23.3	0.00e+00	0	41	0	480247808	50	6659
2026-01-19 13:34:30.96	49.01	25.20	-39.3	-40.2	23.4	0.00e+00	35	41	0	487587840	50	6568
2026-01-19 13:34:35.00	49.88	25.65	-40.1	-41.1	22.6	0.00e+00	0	41	0	494927872	52	6509
2026-01-19 13:34:39.05	50.77	26.10	-39.9	-40.9	22.7	0.00e+00	0	41	0	503316480	52	6375
2026-01-19 13:34:43.09	51.69	26.55	-39.6	-40.5	23.1	0.00e+00	0	41	0	510656512	52	6085
2026-01-19 13:34:47.13	52.64	27.00	-39.9	-40.9	22.9	0.00e+00	14	41	0	517996544	52	6354
2026-01-19 13:34:51.17	53.60	27.45	-40.0	-41.0	22.8	0.00e+00	33	41	0	525336576	52	6453
2026-01-19 13:34:55.21	54.60	27.89	-39.8	-40.8	22.9	0.00e+00	0	41	0	532676608	52	6247
2026-01-19 13:34:59.25	55.63	28.34	-40.6	-41.7	22.0	0.00e+00	0	41	0	541065216	54	6197
2026-01-19 13:35:03.29	56.68	28.78	-41.5	-42.6	21.4	0.00e+00	79	41	0	548405248	54	6922
2026-01-19 13:35:07.33	57.76	29.22	-41.4	-42.6	21.4	0.00e+00	0	41	0	555745280	56	6110
2026-01-19 13:35:11.36	58.87	29.65	-43.3	-44.9	19.6	0.00e+00	0	41	0	563085312	58	7112
2026-01-19 13:35:15.41	60.01	30.08	-43.4	-44.9	19.4	0.00e+00	0	41	0	571473920	60	6334
2026-01-19 13:35:19.45	61.18	30.50	-42.9	-44.3	19.8	0.00e+00	31	41	0	578813952	58	6638
2026-01-19 13:35:23.48	62.38	30.92	-43.8	-45.5	18.9	0.00e+00	0	41	0	586153984	60	6790
2026-01-19 13:35:27.52	63.61	31.33	-43.9	-45.6	19.2	0.00e+00	0	41	0	593494016	60	6851
2026-01-19 13:35:31.56	64.87	31.72	-42.9	-44.3	19.8	0.00e+00	50	41	0	600834048	60	5952
2026-01-19 13:35:35.60	66.16	32.11	-43.6	-45.2	19.5	0.00e+00	0	41	0	609222656	60	6543
2026-01-19 13:35:39.64	67.49	32.49	-42.7	-44.0	20.2	0.00e+00	0	41	0	616562688	58	6463
2026-01-19 13:35:43.67	68.83	32.85	-42.7	-44.1	20.2	0.00e+00	0	41	0	623902720	58	6465
2026-01-19 13:35:47.71	70.22	33.21	-44.8	-46.7	17.9	0.00e+00	92	41	0	631242752	60	7823
2026-01-19 13:35:51.75	71.63	33.54	-43.3	-44.8	19.5	0.00e+00	0	41	0	639631360	60	6282
2026-01-19 13:35:55.79	73.07	33.86	-44.9	-46.9	17.8	0.00e+00	0	41	0	646971392	60	7993
2026-01-19 13:35:59.82	74.53	34.17	-44.4	-46.2	18.3	0.00e+00	0	41	0	654311424	60	7382
2026-01-19 13:36:03.86	76.03	34.46	-43.3	-44.8	19.5	0.00e+00	81	41	0	661651456	60	6269
2026-01-19 13:36:07.90	77.55	34.72	-43.6	-45.3	19.3	0.00e+00	0	41	0	668991488	60	6631
2026-01-19 13:36:11.94	79.09	34.97	-43.1	-44.6	19.6	0.00e+00	0	41	0	677380096	58	6908
2026-01-19 13:36:15.98	80.66	35.20	-42.6	-43.9	20.3	0.00e+00	38	41	0	684720128	58	6359
2026-01-19 13:36:19.95	82.22	35.40	-42.1	-43.5	20.9	0.00e+00	0	41	0	692060160	58	6038
2026-01-19 13:36:23.98	83.82	35.58	-43.1	-44.6	19.6	0.00e+00	0	41	0	699400192	58	6884
2026-01-19 13:36:28.02	85.44	35.73	-42.3	-43.6	20.7	0.00e+00	0	41	0	706740224	58	6148
2026-01-19 13:36:32.06	87.08	35.86	-42.6	-44.0	20.1	0.00e+00	89	41	0	715128832	58	6403
2026-01-19 13:36:36.09	88.72	35.97	-44.5	-46.3	18.3	0.00e+00	0	41	0	722468864	60	7458
2026-01-19 13:36:40.13	90.38	36.05	-44.0	-45.7	18.8	0.00e+00	0	41	0	729808896	60	7000
2026-01-19 13:36:44.17	92.04	36.11	-42.8	-44.3	19.6	0.00e+00	0	41	0	737148928	58	6629
2026-01-19 13:36:48.20	93.71	36.13	-44.2	-46.0	18.5	0.00e+00	90	41	0	745537536	60	7243
2026-01-19 13:36:52.24	95.38	36.13	-42.8	-44.2	20.1	0.00e+00	0	41	0	752877568	58	6574
2026-01-19 13:36:56.27	97.04	36.11	-42.6	-43.9	20.3	0.00e+00	0	41	0	760217600	58	6385
2026-01-19 13:37:00.31	98.71	36.06	-45.4	-47.7	16.9	0.00e+00	37	41	0	767557632	60	8789
2026-01-19 13:37:04.35	100.37	35.98	-43.7	-45.4	18.9	0.00e+00	92	41	0	774897664	60	6703
2026-01-19 13:37:08.39	102.02	35.87	-42.7	-44.1	20.1	0.00e+00	0	41	0	783286272	58	6502
2026-01-19 13:37:12.43	103.65	35.74	-44.0	-45.7	18.8	0.00e+00	0	41	0	790626304	60	6990
2026-01-19 13:37:16.47	105.28	35.59	-44.4	-46.2	18.2	0.00e+00	43	41	0	797966336	60	7396
2026-01-19 13:37:20.50	106.88	35.41	-44.6	-46.4	17.9	0.00e+00	0	41	0	805306368	60	7579
2026-01-19 13:37:24.54	108.47	35.21	-44.8	-46.8	17.5	0.00e+00	0	41	0	813694976	60	7943
2026-01-19 13:37:28.58	110.04	34.98	-46.4	-49.2	15.3	0.00e+00	0	41	0	821035008	60	10393
2026-01-19 13:37:32.61	111.59	34.74	-44.1	-45.8	18.6	0.00e+00	65	41	0	828375040	60	7018
2026-01-19 13:37:36.65	113.11	34.47	-42.3	-43.6	20.6	0.00e+00	0	41	0	835715072	58	6124
2026-01-19 13:37:40.69	114.61	34.18	-43.4	-44.9	19.7	0.00e+00	0	41	0	843055104	58	7115
2026-01-19 13:37:44.73	116.08	33.88	-43.1	-44.5	19.8	0.00e+00	0	41	0	851443712	60	6072
2026-01-19 13:37:48.77	117.53	33.56	-42.5	-43.8	20.5	0.00e+00	90	41	0	858783744	58	6250
2026-01-19 13:37:52.80	118.94	33.22	-41.3	-42.4	21.7	0.00e+00	0	41	0	866123776	56	5986
2026-01-19 13:37:56.84	120.33	32.87	-41.5	-42.7	21.4	0.00e+00	0	41	0	873463808	56	6188
2026-01-19 13:38:00.88	121.69	32.50	-46.1	-48.9	15.6	0.00e+00	36	41	0	881852416	60	10126
2026-01-19 13:38:04.92	123.01	32.12	-40.3	-41.3	22.6	0.00e+00	89	41	0	889192448	54	5935
2026-01-19 13:38:08.95	124.31	31.74	-40.5	-41.5	22.3	0.00e+00	0	41	0	896532480	54	6062
2026-01-19 13:38:12.99	125.57	31.34	-40.0	-40.9	22.9	0.00e+00	0	41	0	903872512	52	6389
2026-01-19 13:38:17.03	126.81	30.93	-38.9	-39.8	23.7	0.00e+00	11	41	0	911212544	52	5598
2026-01-19 13:38:21.07	128.02	30.51	-41.6	-42.8	21.2	0.00e+00	0	41	0	919601152	54	7028
2026-01-19 13:38:25.10	129.19	30.09	-38.4	-39.2	24.1	0.00e+00	33	41	0	926941184	50	5875
2026-01-19 13:38:29.14	130.33	29.66	-40.1	-41.1	22.7	0.00e+00	0	41	0	934281216	52	6505
2026-01-19 13:38:33.18	131.45	29.22	-40.7	-41.8	21.3	0.00e+00	92	41	0	941621248	52	7018
2026-01-19 13:38:37.21	132.53	28.78	-40.3	-41.3	22.5	0.00e+00	0	41	0	948961280	54	5924
2026-01-19 13:38:41.25	133.59	28.34	-41.0	-42.2	21.7	0.00e+00	0	41	0	957349888	54	6550
2026-01-19 13:38:45.29	134.62	27.89	-38.2	-39.0	24.1	0.00e+00	0	41	0	964689920	50	5733
2026-01-19 13:38:49.32	135.62	27.44	-41.7	-42.9	21.2	0.00e+00	92	41	0	972029952	56	6376
2026-01-19 13:38:53.36	136.59	26.99	-40.0	-41.0	22.6	0.00e+00	0	41	0	979369984	54	5727
2026-01-19 13:38:57.40	137.54	26.54	-39.1	-40.0	23.5	0.00e+00	0	41	0	987758592	52	5712
2026-01-19 13:39:01.44	138.46	26.09	-38.3	-39.2	24.1	0.00e+00	21	41	0	995098624	48	6544
2026-01-19 13:39:05.48	139.35	25.64	-39.9	-40.9	22.8	0.00e+00	0	41	0	1002438656	52	6328
2026-01-19 13:39:09.52	140.23	25.18	-39.1	-40.0	23.6	0.00e+00	0	41	0	1009778688	52	5705
2026-01-19 13:39:13.55	141.07	24.74	-39.7	-40.7	22.9	0.00e+00	0	41	0	1017118720	52	6219
2026-01-19 13:39:17.59	141.90	24.29	-37.9	-38.7	24.3	0.00e+00	92	41	0	1025507328	50	5536
2026-01-19 13:39:21.63	142.70	23.84	-38.4	-39.3	24.1	0.00e+00	0	41	0	1032847360	48	6660
2026-01-19 13:39:25.67	143.48	23.39	-38.7	-39.5	23.9	0.00e+00	0	41	0	1040187392	50	6091
2026-01-19 13:39:29.71	144.24	22.95	-38.1	-38.9	24.3	0.00e+00	0	41	0	1047527424	50	5661
2026-01-19 13:39:33.75	144.97	22.51	-38.6	-39.5	23.9	0.00e+00	62	41	0	1055916032	50	6057
2026-01-19 13:39:37.79	145.69	22.08	-38.5	-39.4	23.8	0.00e+00	0	41	0	1063256064	50	5968
2026-01-19 13:39:41.83	146.39	21.64	-38.1	-39.0	24.2	0.00e+00	0	41	0	1070596096	50	5719
2026-01-19 13:39:45.86	147.07	21.21	-38.4	-39.3	24.0	0.00e+00	31	41	0	1077936128	50	5933
2026-01-19 13:39:49.90	147.73	20.78	-38.7	-39.6	23.6	0.00e+00	79	41	0	1085276160	50	6135
2026-01-19 13:39:53.94	148.38	20.36	-38.6	-39.5	23.7	0.00e+00	0	41	0	1093664768	50	6083
2026-01-19 13:39:57.98	149.00	19.94	-38.8	-39.7	23.7	0.00e+00	0	41	0	1101004800	50	6201
2026-01-19 13:40:02.01	149.61	19.53	-39.3	-40.3	23.1	0.00e+00	0	41	0	1108344832	50	6643
2026-01-19 13:40:06.05	150.21	19.11	-40.2	-41.2	22.4	0.00e+00	0	41	0	1115684864	52	6567
2026-01-19 13:40:10.08	150.79	18.71	-40.3	-41.3	22.4	0.00e+00	0	41	0	1124073472	52	6670
2026-01-19 13:40:14.12	151.35	18.30	-41.3	-42.5	21.2	0.00e+00	0	41	0	1131413504	54	6801
2026-01-19 13:40:18.16	151.90	17.90	-41.6	-42.8	21.0	0.00e+00	92	41	0	1138753536	56	6315
2026-01-19 13:40:22.20	152.44	17.50	-40.2	-41.3	22.4	0.00e+00	0	41	0	1146093568	54	5933
2026-01-19 13:40:26.24	152.97	17.11	-39.8	-40.8	22.6	0.00e+00	0	41	0	1153433600	52	6282
2026-01-19 13:40:30.27	153.48	16.72	-41.2	-42.5	21.1	0.00e+00	0	41	0	1161822208	54	6770
2026-01-19 13:40:34.31	153.97	16.34	-42.5	-44.2	19.3	0.00e+00	91	41	0	1169162240	56	7344
2026-01-19 13:40:38.35	154.46	15.96	-43.3	-45.2	18.1	0.00e+00	0	41	0	1176502272	58	7368
2026-01-19 13:40:42.39	154.93	15.58	-44.0	-46.1	17.1	0.00e+00	0	41	0	1183842304	60	7329
2026-01-19 13:40:46.42	155.40	15.21	-43.8	-45.8	17.6	0.00e+00	91	41	0	1192230912	60	7027
2026-01-19 13:40:50.46	155.85	14.84	-42.5	-44.0	19.4	0.00e+00	0	41	0	1199570944	58	6455
2026-01-19 13:40:54.50	156.29	14.48	-41.1	-42.3	21.3	0.00e+00	0	41	0	1206910976	56	5952
2026-01-19 13:40:58.54	156.72	14.12	-40.2	-41.2	22.2	0.00e+00	0	41	0	1214251008	54	5884
2026-01-19 13:41:02.57	157.14	13.76	-40.9	-42.1	21.5	0.00e+00	92	41	0	1221591040	54	6472
2026-01-19 13:41:06.61	157.56	13.41	-41.4	-42.6	21.0	0.00e+00	0	41	0	1229979648	54	6871
2026-01-19 13:41:10.64	157.96	13.06	-42.2	-43.7	20.1	0.00e+00	0	41	0	1237319680	56	6942
2026-01-19 13:41:14.68	158.35	12.72	-41.6	-42.8	20.9	0.00e+00	0	41	0	1244659712	56	6302
2026-01-19 13:41:18.72	158.74	12.37	-41.1	-42.2	21.4	0.00e+00	92	41	0	1251999744	56	5877
2026-01-19 13:41:22.76	159.11	12.04	-40.4	-41.5	22.0	0.00e+00	0	41	0	1260388352	54	6044
2026-01-19 13:41:26.79	159.48	11.70	-40.2	-41.2	22.2	0.00e+00	0	41	0	1267728384	54	5896
2026-01-19 13:41:30.83	159.84	11.37	-40.4	-41.4	21.9	0.00e+00	28	41	0	1275068416	54	6026
2026-01-19 13:41:34.87	160.20	11.04	-40.5	-41.6	21.7	0.00e+00	0	41	0	1282408448	54	6150
2026-01-19 13:41:38.91	160.54	10.72	-40.7	-41.8	21.7	0.00e+00	0	41	0	1289748480	54	6284
2026-01-19 13:41:42.94	160.88	10.40	-41.0	-42.1	21.4	0.00e+00	0	41	0	1298137088	54	6516
2026-01-19 13:41:46.98	161.21	10.08	-41.5	-42.7	20.8	0.00e+00	0	41	0	1305477120	54	6953
2026-01-19 13:41:51.02	161.54	9.77	-41.5	-42.7	20.8	0.00e+00	0	41	0	1312817152	54	6967
2026-01-19 13:41:55.06	161.86	9.46	-41.7	-42.9	20.7	0.00e+00	0	41	0	1320157184	56	6351
2026-01-19 13:41:59.10	162.17	9.15	-41.6	-42.9	20.7	0.00e+00	0	41	0	1327497216	56	6328
2026-01-19 13:42:03.13	162.47	8.84	-41.8	-43.1	20.5	0.00e+00	92	41	0	1335885824	56	6497
2026-01-19 13:42:07.17	162.77	8.54	-42.0	-43.2	20.3	0.00e+00	0	41	0	1343225856	56	6601
2026-01-19 13:42:11.21	163.07	8.24	-42.3	-43.7	20.1	0.00e+00	0	41	0	1350565888	56	6931
2026-01-19 13:42:15.24	163.35	7.95	-42.3	-43.7	19.9	0.00e+00	9	41	0	1357905920	56	6962
2026-01-19 13:42:19.28	163.64	7.66	-42.5	-43.9	19.6	0.00e+00	92	41	0	1366294528	56	7133
2026-01-19 13:42:23.32	163.92	7.37	-42.8	-44.3	19.4	0.00e+00	0	41	0	1373634560	58	6649
2026-01-19 13:42:27.35	164.19	7.08	-42.8	-44.3	19.2	0.00e+00	0	41	0	1380974592	58	6644
2026-01-19 13:42:31.39	164.45	6.79	-43.1	-44.7	18.8	0.00e+00	63	41	0	1388314624	58	6996
2026-01-19 13:42:35.43	164.72	6.51	-43.6	-45.4	18.3	0.00e+00	0	41	0	1395654656	58	7525
2026-01-19 13:42:39.46	164.97	6.23	-44.0	-45.9	17.8	0.00e+00	0	41	0	1404043264	60	7092
2026-01-19 13:42:43.49	165.23	5.96	-43.9	-45.8	17.7	0.00e+00	0	41	0	1411383296	60	7069
2026-01-19 13:42:47.53	165.48	5.68	-44.1	-46.0	17.5	0.00e+00	54	41	0	1418723328	60	7247
2026-01-19 13:42:51.57	165.72	5.41	-44.1	-46.1	17.6	0.00e+00	0	42	0	1426063360	60	7324
2026-01-19 13:42:55.60	165.96	5.14	-44.1	-46.0	17.4	0.00e+00	0	41	0	1434451968	60	7250
2026-01-19 13:42:59.64	166.20	4.87	-43.7	-45.5	17.9	0.00e+00	0	41	0	1441792000	60	6791
2026-01-19 13:43:03.68	166.43	4.61	-43.8	-45.6	17.7	0.00e+00	84	41	0	1449132032	60	6913
2026-01-19 13:43:07.72	166.66	4.35	-43.8	-45.7	17.6	0.00e+00	0	41	0	1456472064	60	6966
2026-01-19 13:43:11.75	166.88	4.08	-44.1	-46.1	17.2	0.00e+00	0	41	0	1463812096	60	7314
2026-01-19 13:43:15.79	167.10	3.83	-44.2	-46.3	16.7	0.00e+00	24	41	0	1472200704	60	7476
2026-01-19 13:43:19.84	167.32	3.57	-44.2	-46.4	16.7	0.00e+00	43	41	0	1479540736	60	7526
2026-01-19 13:43:23.87	167.53	3.32	-44.7	-47.0	16.1	0.00e+00	0	41	0	1486880768	60	8127
2026-01-19 13:43:27.91	167.74	3.06	-44.9	-47.5	15.4	0.00e+00	0	41	0	1494220800	60	8596
2026-01-19 13:43:31.95	167.95	2.81	-49.9	-65.1	3.6	1.51e+00	0	41	104	1495269376	60	65002
2026-01-19 13:43:35.99	168.15	2.56	-50.3	-65.5	3.6	1.51e+00	0	42	104	1495269376	60	68429
2026-01-19 13:43:40.03	168.35	2.32	-50.5	-65.7	3.6	1.51e+00	0	41	104	1495269376	60	69842
2026-01-19 13:43:44.07	168.55	2.07	-50.4	-65.7	3.6	1.51e+00	0	41	104	1495269376	60	69669
2026-01-19 13:43:48.11	168.75	1.83	-50.5	-65.7	3.6	1.51e+00	0	41	104	1495269376	60	69552
2026-01-19 13:43:52.15	168.94	1.59	-50.4	-65.7	3.6	1.51e+00	0	41	104	1495269376	60	69532
2026-01-19 13:43:56.19	169.13	1.35	-50.5	-65.7	3.6	1.51e+00	0	41	104	1495269376	60	69505
2026-01-19 13:44:00.23	169.31	1.11	-50.5	-65.7	3.6	1.51e+00	0	41	104	1495269376	60	69314
2026-01-19 13:44:04.27	169.50	0.88	-50.5	-65.7	3.6	1.51e+00	0	41	104	1495269376	60	69507
2026-01-19 13:44:08.30	169.68	0.64	-50.5	-65.6	3.6	1.51e+00	0	41	104	1495269376	60	69269
2026-01-19 13:44:12.35	169.85	0.41	-50.5	-65.6	3.6	1.51e+00	0	42	104	1495269376	60	69038
2026-01-19 13:44:16.39	170.03	0.18	-50.5	-65.7	3.6	1.51e+00	0	41	104	1495269376	60	69315
2026-01-19 13:44:20.43	170.20	-0.05	-50.5	-65.7	3.6	1.51e+00	0	41	104	1495269376	60	69385

#Closed at: 2026-01-19 13:44:20
#Recorded file [1495 MB]: D:/lorett/data/35029_260120_012920.dat