passes_logs/2026/01/19/R4.6S_Anadyr/R4.6S_Anadyr__20260119_160757_FENGYUN_3D_rec.log

#Pass ID: 20260119_160757_FENGYUN 3D
#Satellite: FENGYUN 3D
#Configuration: FENGYUN 3D
#almurnet v.1.7.20251203
#Start time: 2026-01-19 16:08:01

#Version: 2.2.20231116
#Station: R4.6S_Anadyr
#Location: 177.4865 lon 64.73178 lat
#TLE: 1 43010U 17072A   26018.95027258  .00000058  00000+0  49274-4 0  9992
#TLE: 2 43010  98.9939 350.8271 0002416 102.0826 258.0620 14.19696908423819

#Time	Az	El	Level	Level2	SNR	BER	BlckErr	Temp	State	Recorded	gain1	gain2
2026-01-19 16:08:01.09	19.99	0.20	-50.6	-61.3	3.3	8.41e-01	0	40	0	0	60	41804
2026-01-19 16:08:05.13	20.09	0.44	-50.0	-62.2	3.6	8.45e-01	0	40	104	0	60	46516
2026-01-19 16:08:09.17	20.20	0.68	-49.8	-62.1	3.6	8.45e-01	0	40	104	0	60	45974
2026-01-19 16:08:13.22	20.30	0.93	-49.7	-61.9	3.6	8.46e-01	0	40	104	0	60	44846
2026-01-19 16:08:17.25	20.41	1.17	-49.3	-61.5	3.6	8.45e-01	0	40	104	0	60	42779
2026-01-19 16:08:21.29	20.52	1.42	-48.8	-60.8	3.6	8.44e-01	0	40	104	0	60	39678
2026-01-19 16:08:25.33	20.62	1.66	-48.3	-60.3	3.6	8.44e-01	0	40	104	0	60	37589
2026-01-19 16:08:29.37	20.73	1.91	-48.3	-60.4	3.6	8.45e-01	0	40	104	0	60	37963
2026-01-19 16:08:33.41	20.85	2.17	-48.2	-58.7	3.6	8.44e-01	0	40	104	0	60	31093
2026-01-19 16:08:37.45	20.96	2.42	-47.9	-54.9	4.0	8.25e-01	0	41	0	0	60	20113
2026-01-19 16:08:41.49	21.08	2.68	-47.2	-52.1	6.3	3.47e-01	0	41	0	2097152	60	14601
2026-01-19 16:08:45.53	21.19	2.94	-41.7	-43.1	16.5	0.00e+00	0	40	0	25165824	56	6529
2026-01-19 16:08:49.57	21.31	3.20	-38.2	-39.1	20.5	0.00e+00	0	40	0	47185920	50	5806
2026-01-19 16:08:53.61	21.43	3.47	-39.4	-40.4	19.0	0.00e+00	0	41	0	70254592	50	6742
2026-01-19 16:08:57.66	21.55	3.73	-43.1	-45.1	13.9	0.00e+00	0	41	0	93323264	54	9164
2026-01-19 16:09:01.70	21.68	4.00	-46.5	-50.7	10.1	8.16e-01	0	41	104	109051904	60	12427
2026-01-19 16:09:05.74	21.80	4.27	-42.8	-44.6	14.9	0.00e+00	0	41	0	131072000	58	6851
2026-01-19 16:09:09.78	21.93	4.55	-43.1	-44.9	14.7	4.50e-06	0	41	0	154140672	60	6340
2026-01-19 16:09:13.82	22.06	4.83	-43.1	-44.8	14.9	0.00e+00	0	41	0	177209344	58	7057
2026-01-19 16:09:17.86	22.20	5.11	-41.6	-43.0	16.6	0.00e+00	0	41	0	199229440	56	6429
2026-01-19 16:09:21.91	22.33	5.39	-42.2	-43.6	16.5	0.00e+00	0	41	0	222298112	56	6919
2026-01-19 16:09:25.95	22.47	5.68	-40.9	-42.1	18.0	0.00e+00	0	41	0	244318208	54	6484
2026-01-19 16:09:29.99	22.61	5.97	-40.0	-41.1	18.8	0.00e+00	0	41	0	267386880	52	6530
2026-01-19 16:09:34.02	22.75	6.26	-36.8	-37.6	22.3	0.00e+00	0	41	0	290455552	46	6130
2026-01-19 16:09:38.06	22.89	6.55	-36.8	-37.6	22.3	0.00e+00	0	41	0	313524224	46	6172
2026-01-19 16:09:42.11	23.04	6.85	-36.4	-37.2	22.9	0.00e+00	0	41	0	335544320	46	5837
2026-01-19 16:09:46.15	23.19	7.15	-36.0	-36.8	23.1	0.00e+00	0	41	0	358612992	46	5587
2026-01-19 16:09:50.18	23.34	7.46	-36.0	-36.8	23.0	0.00e+00	0	41	0	381681664	46	5574
2026-01-19 16:09:54.23	23.50	7.77	-35.8	-36.6	23.4	0.00e+00	0	41	0	403701760	46	5453
2026-01-19 16:09:58.27	23.65	8.08	-35.7	-36.4	23.4	0.00e+00	0	41	0	426770432	44	6033
2026-01-19 16:10:02.31	23.81	8.40	-35.6	-36.3	23.7	0.00e+00	0	41	0	449839104	44	5955
2026-01-19 16:10:06.35	23.98	8.72	-35.4	-36.1	23.9	0.00e+00	0	41	0	471859200	44	5808
2026-01-19 16:10:10.40	24.15	9.04	-35.3	-36.0	24.1	0.00e+00	0	41	0	494927872	44	5703
2026-01-19 16:10:14.44	24.32	9.37	-35.2	-35.9	24.1	0.00e+00	0	41	0	517996544	44	5653
2026-01-19 16:10:18.47	24.49	9.71	-35.2	-35.9	24.2	0.00e+00	0	41	0	540016640	44	5631
2026-01-19 16:10:22.51	24.67	10.04	-35.0	-35.7	24.2	0.00e+00	0	41	0	563085312	44	5557
2026-01-19 16:10:26.55	24.85	10.38	-35.1	-35.8	24.2	0.00e+00	0	41	0	586153984	44	5616
2026-01-19 16:10:30.60	25.04	10.73	-35.1	-35.8	24.2	0.00e+00	0	41	0	608174080	44	5623
2026-01-19 16:10:34.64	25.23	11.08	-35.0	-35.7	24.4	0.00e+00	0	41	0	631242752	44	5512
2026-01-19 16:10:38.68	25.42	11.44	-35.0	-35.7	24.4	0.00e+00	0	41	0	654311424	44	5526
2026-01-19 16:10:42.72	25.62	11.80	-34.9	-35.6	24.6	0.00e+00	0	41	0	676331520	44	5446
2026-01-19 16:10:46.75	25.82	12.16	-34.7	-35.4	24.7	0.00e+00	0	41	0	699400192	42	6021
2026-01-19 16:10:50.79	26.03	12.54	-34.8	-35.6	24.5	0.00e+00	0	41	0	722468864	42	6107
2026-01-19 16:10:54.83	26.24	12.91	-34.7	-35.4	24.8	0.00e+00	0	41	0	744488960	42	5994
2026-01-19 16:10:58.87	26.46	13.30	-34.5	-35.2	25.0	0.00e+00	0	41	0	767557632	42	5849
2026-01-19 16:11:02.91	26.68	13.68	-34.5	-35.3	25.0	0.00e+00	0	41	0	790626304	42	5897
2026-01-19 16:11:06.96	26.91	14.08	-34.3	-35.0	25.1	0.00e+00	0	41	0	813694976	42	5742
2026-01-19 16:11:11.00	27.14	14.48	-34.2	-34.8	25.3	0.00e+00	0	41	0	835715072	42	5611
2026-01-19 16:11:15.04	27.38	14.89	-34.2	-34.9	25.4	0.00e+00	0	41	0	858783744	42	5635
2026-01-19 16:11:19.08	27.63	15.30	-34.0	-34.6	25.5	0.00e+00	0	41	0	880803840	42	5494
2026-01-19 16:11:23.12	27.88	15.72	-33.8	-34.5	25.6	0.00e+00	0	41	0	903872512	40	6048
2026-01-19 16:11:27.15	28.14	16.14	-33.7	-34.4	25.8	0.00e+00	0	41	0	926941184	40	5984
2026-01-19 16:11:31.20	28.40	16.58	-33.5	-34.1	25.9	0.00e+00	0	41	0	948961280	40	5822
2026-01-19 16:11:35.23	28.68	17.02	-33.4	-34.1	26.1	0.00e+00	0	41	0	972029952	40	5771
2026-01-19 16:11:39.28	28.96	17.47	-33.4	-34.0	26.1	0.00e+00	0	41	0	995098624	40	5753
2026-01-19 16:11:43.31	29.25	17.92	-33.3	-33.9	26.2	0.00e+00	0	41	0	1018167296	40	5687
2026-01-19 16:11:47.36	29.54	18.39	-33.0	-33.6	26.5	0.00e+00	0	41	0	1040187392	40	5499
2026-01-19 16:11:51.40	29.85	18.86	-32.9	-33.5	26.6	0.00e+00	0	41	0	1063256064	40	5399
2026-01-19 16:11:55.44	30.16	19.34	-32.9	-33.5	26.6	0.00e+00	0	41	0	1085276160	38	6066
2026-01-19 16:11:59.48	30.49	19.83	-32.9	-33.5	26.5	0.00e+00	0	41	0	1108344832	38	6078
2026-01-19 16:12:03.52	30.82	20.33	-32.8	-33.4	26.7	0.00e+00	0	41	0	1131413504	38	6012
2026-01-19 16:12:07.56	31.17	20.84	-32.8	-33.4	26.8	0.00e+00	0	41	0	1154482176	38	6012
2026-01-19 16:12:11.60	31.53	21.36	-32.3	-32.9	27.1	0.00e+00	0	41	0	1176502272	38	5636
2026-01-19 16:12:15.64	31.89	21.89	-32.1	-32.7	27.2	0.00e+00	0	41	0	1199570944	38	5544
2026-01-19 16:12:19.68	32.27	22.42	-32.4	-33.0	27.0	0.00e+00	0	41	0	1222639616	38	5754
2026-01-19 16:12:23.72	32.67	22.97	-32.3	-32.9	27.1	0.00e+00	0	41	0	1244659712	38	5676
2026-01-19 16:12:27.76	33.07	23.53	-32.3	-33.0	27.1	0.00e+00	0	41	0	1267728384	38	5710
2026-01-19 16:12:31.80	33.49	24.10	-32.1	-32.7	27.2	0.00e+00	0	41	0	1289748480	38	5553
2026-01-19 16:12:35.84	33.93	24.68	-31.9	-32.5	27.3	0.00e+00	0	41	0	1312817152	38	5420
2026-01-19 16:12:39.88	34.38	25.27	-31.9	-32.5	27.4	0.00e+00	0	41	0	1335885824	38	5436
2026-01-19 16:12:43.92	34.85	25.88	-31.7	-32.3	27.6	0.00e+00	0	41	0	1358954496	36	5916
2026-01-19 16:12:47.96	35.34	26.49	-31.6	-32.2	27.7	0.00e+00	0	41	0	1380974592	36	5863
2026-01-19 16:12:52.01	35.84	27.12	-31.6	-32.2	27.7	0.00e+00	0	41	0	1404043264	36	5880
2026-01-19 16:12:56.04	36.36	27.76	-31.6	-32.3	27.7	0.00e+00	0	41	0	1427111936	36	5899
2026-01-19 16:13:00.09	36.91	28.42	-31.4	-32.0	27.9	0.00e+00	0	41	0	1449132032	36	5748
2026-01-19 16:13:04.13	37.48	29.08	-31.6	-32.3	27.7	0.00e+00	0	41	0	1472200704	36	5902
2026-01-19 16:13:08.17	38.07	29.76	-31.5	-32.1	27.7	0.00e+00	0	41	0	1495269376	36	5796
2026-01-19 16:13:12.21	38.69	30.45	-31.3	-31.9	28.0	0.00e+00	0	41	0	1517289472	36	5691
2026-01-19 16:13:16.25	39.33	31.16	-31.2	-31.7	28.0	0.00e+00	0	41	0	1540358144	36	5563
2026-01-19 16:13:20.29	40.00	31.88	-31.3	-31.9	27.9	0.00e+00	0	41	0	1563426816	36	5652
2026-01-19 16:13:24.33	40.70	32.61	-31.7	-32.3	27.7	0.00e+00	0	41	0	1585446912	36	5950
2026-01-19 16:13:28.37	41.43	33.36	-31.4	-32.0	27.9	0.00e+00	0	41	0	1608515584	36	5723
2026-01-19 16:13:32.42	42.20	34.12	-31.1	-31.7	28.1	0.00e+00	0	41	0	1631584256	36	5560
2026-01-19 16:13:36.46	43.00	34.89	-31.0	-31.6	28.2	0.00e+00	0	41	0	1654652928	36	5482
2026-01-19 16:13:40.50	43.84	35.68	-31.1	-31.7	28.1	0.00e+00	0	41	0	1676673024	36	5563
2026-01-19 16:13:44.54	44.72	36.48	-30.8	-31.4	28.4	0.00e+00	0	41	0	1699741696	34	6022
2026-01-19 16:13:48.58	45.65	37.29	-31.2	-31.8	28.1	0.00e+00	0	41	0	1721761792	34	6299
2026-01-19 16:13:52.62	46.62	38.12	-31.1	-31.7	28.1	0.00e+00	0	41	0	1744830464	34	6226
2026-01-19 16:13:56.66	47.64	38.95	-31.0	-31.6	28.3	0.00e+00	0	41	0	1767899136	34	6158
2026-01-19 16:14:00.70	48.72	39.80	-30.8	-31.4	28.4	0.00e+00	0	41	0	1789919232	34	5990
2026-01-19 16:14:04.74	49.85	40.65	-30.8	-31.4	28.3	0.00e+00	0	41	0	1812987904	34	6032
2026-01-19 16:14:08.78	51.04	41.51	-30.8	-31.4	28.5	0.00e+00	0	41	0	1836056576	34	5968
2026-01-19 16:14:12.81	52.30	42.38	-31.4	-31.9	28.1	0.00e+00	0	41	0	1859125248	34	6390
2026-01-19 16:14:16.86	53.63	43.25	-31.3	-31.9	28.1	0.00e+00	0	41	0	1881145344	34	6332
2026-01-19 16:14:20.90	55.03	44.13	-31.7	-32.3	27.7	0.00e+00	0	41	0	1904214016	34	6655
2026-01-19 16:14:24.94	56.50	45.01	-31.5	-32.0	28.0	0.00e+00	0	41	0	1926234112	36	5746
2026-01-19 16:14:28.98	58.07	45.88	-31.6	-32.2	27.9	0.00e+00	0	41	0	1949302784	36	5852
2026-01-19 16:14:33.02	59.71	46.75	-31.8	-32.4	27.8	0.00e+00	0	41	0	1972371456	36	5982
2026-01-19 16:14:37.07	61.46	47.61	-31.8	-32.4	27.7	0.00e+00	0	41	0	1995440128	36	6003
2026-01-19 16:14:41.11	63.30	48.46	-31.7	-32.3	27.9	0.00e+00	0	41	0	2017460224	36	5915
2026-01-19 16:14:45.15	65.24	49.29	-31.4	-32.0	28.0	0.00e+00	0	41	0	2040528896	36	5727
2026-01-19 16:14:49.19	67.29	50.10	-31.7	-32.3	27.8	0.00e+00	0	41	0	2063597568	36	5959
2026-01-19 16:14:53.23	69.44	50.89	-31.6	-32.2	27.9	0.00e+00	0	41	0	2085617664	36	5855
2026-01-19 16:14:57.27	71.71	51.64	-31.9	-32.5	27.6	0.00e+00	0	41	0	2108686336	36	6079
2026-01-19 16:15:01.31	74.10	52.36	-32.1	-32.8	27.6	0.00e+00	0	41	0	2131755008	36	6248
2026-01-19 16:15:05.35	76.59	53.03	-32.2	-32.8	27.4	0.00e+00	0	41	0	2153775104	38	5567
2026-01-19 16:15:09.39	79.20	53.65	-32.4	-33.0	27.3	0.00e+00	0	41	0	2176843776	38	5749
2026-01-19 16:15:13.43	81.92	54.22	-32.9	-33.6	26.9	0.00e+00	0	41	0	2199912448	38	6118
2026-01-19 16:15:17.47	84.75	54.74	-32.6	-33.2	27.1	0.00e+00	0	41	0	2221932544	38	5895
2026-01-19 16:15:21.51	87.67	55.18	-32.7	-33.4	27.0	0.00e+00	0	41	0	2245001216	38	5979
2026-01-19 16:15:25.55	90.67	55.55	-32.4	-32.9	27.3	0.00e+00	0	41	0	2268069888	38	5690
2026-01-19 16:15:29.58	93.74	55.85	-32.8	-33.4	27.0	0.00e+00	0	41	0	2290089984	38	5996
2026-01-19 16:15:33.62	96.87	56.07	-32.6	-33.3	27.1	0.00e+00	0	41	0	2313158656	38	5903
2026-01-19 16:15:37.66	100.05	56.20	-33.6	-34.2	26.5	0.00e+00	0	41	0	2336227328	38	6596
2026-01-19 16:15:41.70	103.24	56.25	-32.7	-33.3	27.0	0.00e+00	0	41	0	2358247424	38	5955
2026-01-19 16:15:45.74	106.44	56.21	-32.4	-33.0	27.0	0.00e+00	0	41	0	2381316096	38	5757
2026-01-19 16:15:49.78	109.62	56.09	-32.5	-33.0	27.0	0.00e+00	0	41	0	2404384768	38	5742
2026-01-19 16:15:53.82	112.76	55.89	-33.0	-33.6	26.8	0.00e+00	0	41	0	2426404864	38	6169
2026-01-19 16:15:57.86	115.85	55.61	-32.4	-33.0	27.2	0.00e+00	0	41	0	2449473536	38	5739
2026-01-19 16:16:01.90	118.87	55.25	-32.4	-33.0	27.1	0.00e+00	0	41	0	2472542208	38	5755
2026-01-19 16:16:05.94	121.81	54.81	-32.6	-33.2	27.1	0.00e+00	0	41	0	2494562304	38	5864
2026-01-19 16:16:09.98	124.65	54.31	-32.6	-33.2	27.1	0.00e+00	0	41	0	2517630976	38	5879
2026-01-19 16:16:14.02	127.40	53.75	-32.5	-33.2	27.2	0.00e+00	0	41	0	2540699648	38	5864
2026-01-19 16:16:18.06	130.03	53.13	-33.1	-33.8	26.9	0.00e+00	0	41	0	2562719744	38	6312
2026-01-19 16:16:22.10	132.55	52.46	-32.2	-32.7	27.5	0.00e+00	0	41	0	2585788416	38	5557
2026-01-19 16:16:26.14	134.95	51.75	-32.2	-32.8	27.4	0.00e+00	0	41	0	2608857088	38	5621
2026-01-19 16:16:30.18	137.25	51.00	-32.0	-32.7	27.7	0.00e+00	0	41	0	2630877184	38	5540
2026-01-19 16:16:34.22	139.42	50.22	-31.9	-32.4	27.8	0.00e+00	0	41	0	2653945856	38	5373
2026-01-19 16:16:38.26	141.49	49.41	-31.7	-32.3	27.8	0.00e+00	0	41	0	2677014528	36	5897
2026-01-19 16:16:42.30	143.46	48.58	-31.8	-32.3	27.9	0.00e+00	0	41	0	2699034624	36	5922
2026-01-19 16:16:46.34	145.31	47.73	-32.3	-33.0	27.7	0.00e+00	0	41	0	2722103296	36	6399
2026-01-19 16:16:50.38	147.07	46.87	-32.0	-32.5	27.9	0.00e+00	0	41	0	2745171968	36	6057
2026-01-19 16:16:54.42	148.74	46.00	-31.9	-32.5	27.7	0.00e+00	0	41	0	2767192064	36	6042
2026-01-19 16:16:58.46	150.32	45.12	-32.0	-32.7	28.1	0.00e+00	0	41	0	2790260736	36	6194
2026-01-19 16:17:02.50	151.81	44.24	-31.8	-32.3	27.9	0.00e+00	0	41	0	2813329408	36	5961
2026-01-19 16:17:06.54	153.23	43.36	-31.7	-32.3	27.8	0.00e+00	0	41	0	2835349504	36	5905
2026-01-19 16:17:10.58	154.57	42.49	-31.6	-32.1	27.8	0.00e+00	0	41	0	2858418176	36	5818
2026-01-19 16:17:14.62	155.84	41.61	-32.0	-32.7	28.1	0.00e+00	0	41	0	2881486848	36	6204
2026-01-19 16:17:18.67	157.05	40.74	-32.0	-32.7	28.0	0.00e+00	0	41	0	2904555520	36	6222
2026-01-19 16:17:22.71	158.19	39.88	-31.3	-32.0	28.2	0.00e+00	0	41	0	2926575616	36	5697
2026-01-19 16:17:26.75	159.28	39.03	-31.5	-32.1	28.2	0.00e+00	0	41	0	2949644288	36	5775
2026-01-19 16:17:30.79	160.31	38.19	-32.0	-32.5	27.4	0.00e+00	0	41	0	2971664384	36	6087
2026-01-19 16:17:34.83	161.29	37.36	-31.3	-32.0	28.1	0.00e+00	0	41	0	2994733056	36	5757
2026-01-19 16:17:38.87	162.22	36.55	-30.8	-31.5	28.5	0.00e+00	0	41	0	3017801728	34	6057
2026-01-19 16:17:42.91	163.11	35.74	-31.3	-32.0	28.3	0.00e+00	0	41	0	3040870400	34	6403
2026-01-19 16:17:46.95	163.96	34.95	-31.6	-32.3	28.1	0.00e+00	0	41	0	3062890496	34	6634
2026-01-19 16:17:50.99	164.77	34.17	-31.0	-31.7	28.4	0.00e+00	0	41	0	3085959168	34	6177
2026-01-19 16:17:55.03	165.54	33.40	-31.5	-32.1	28.1	0.00e+00	0	41	0	3109027840	34	6531
2026-01-19 16:17:59.07	166.28	32.65	-31.3	-31.8	28.2	0.00e+00	0	41	0	3131047936	36	5613
2026-01-19 16:18:03.11	166.98	31.91	-31.1	-31.7	28.3	0.00e+00	0	41	0	3154116608	36	5507
2026-01-19 16:18:07.15	167.66	31.19	-31.2	-31.8	28.3	0.00e+00	0	41	0	3176136704	36	5570
2026-01-19 16:18:11.20	168.30	30.47	-31.7	-32.4	28.0	0.00e+00	0	41	0	3199205376	36	5976
2026-01-19 16:18:15.24	168.92	29.78	-31.8	-32.3	27.9	0.00e+00	0	41	0	3222274048	36	5961
2026-01-19 16:18:19.28	169.52	29.09	-31.3	-31.8	28.0	0.00e+00	0	41	0	3245342720	36	5610
2026-01-19 16:18:23.32	170.09	28.42	-31.3	-31.8	28.0	0.00e+00	0	41	0	3267362816	36	5608
2026-01-19 16:18:27.37	170.64	27.76	-31.3	-31.8	27.9	0.00e+00	0	41	0	3290431488	36	5629
2026-01-19 16:18:31.41	171.17	27.12	-31.2	-31.7	28.1	0.00e+00	0	41	0	3313500160	36	5535
2026-01-19 16:18:35.45	171.67	26.48	-31.6	-32.2	27.9	0.00e+00	0	41	0	3335520256	36	5850
2026-01-19 16:18:39.49	172.16	25.86	-31.6	-32.3	27.8	0.00e+00	0	41	0	3358588928	36	5902
2026-01-19 16:18:43.53	172.63	25.26	-31.7	-32.2	27.8	0.00e+00	0	41	0	3381657600	36	5850
2026-01-19 16:18:47.57	173.08	24.66	-31.9	-32.4	27.7	0.00e+00	0	41	0	3403677696	36	6013
2026-01-19 16:18:51.61	173.52	24.07	-31.9	-32.5	27.5	0.00e+00	0	41	0	3426746368	36	6051
2026-01-19 16:18:55.64	173.94	23.50	-31.9	-32.4	27.6	0.00e+00	0	41	0	3449815040	36	6028
2026-01-19 16:18:59.69	174.35	22.94	-32.2	-32.7	27.5	0.00e+00	0	41	0	3471835136	36	6212
2026-01-19 16:19:03.72	174.74	22.39	-31.9	-32.4	27.5	0.00e+00	0	41	0	3494903808	36	6008
2026-01-19 16:19:07.76	175.12	21.85	-32.3	-33.0	27.1	0.00e+00	0	41	0	3517972480	36	6416
2026-01-19 16:19:11.81	175.49	21.31	-32.5	-33.2	27.1	0.00e+00	0	41	0	3539992576	36	6604
2026-01-19 16:19:15.85	175.85	20.79	-32.4	-33.1	27.1	0.00e+00	0	41	0	3563061248	36	6491
2026-01-19 16:19:19.89	176.20	20.28	-32.3	-32.9	27.1	0.00e+00	0	41	0	3586129920	36	6331
2026-01-19 16:19:23.92	176.53	19.78	-32.5	-33.0	26.8	0.00e+00	0	41	0	3608150016	36	6452
2026-01-19 16:19:27.96	176.85	19.29	-32.6	-33.2	26.6	0.00e+00	0	41	0	3631218688	36	6590
2026-01-19 16:19:32.00	177.17	18.80	-32.8	-33.5	26.4	0.00e+00	0	41	0	3654287360	38	6093
2026-01-19 16:19:36.04	177.47	18.33	-33.1	-33.8	26.3	0.00e+00	0	41	0	3676307456	38	6258
2026-01-19 16:19:40.08	177.77	17.86	-33.0	-33.6	26.3	0.00e+00	0	41	0	3699376128	38	6155
2026-01-19 16:19:44.12	178.06	17.40	-33.2	-33.8	26.2	0.00e+00	0	41	0	3722444800	38	6279
2026-01-19 16:19:48.15	178.34	16.95	-33.2	-33.7	26.3	0.00e+00	0	41	0	3744464896	38	6239
2026-01-19 16:19:52.19	178.61	16.50	-33.3	-34.1	26.2	0.00e+00	0	41	0	3767533568	38	6475
2026-01-19 16:19:56.23	178.87	16.07	-33.2	-33.8	26.2	0.00e+00	0	41	0	3790602240	38	6282
2026-01-19 16:20:00.27	179.13	15.64	-33.5	-34.2	26.0	0.00e+00	0	41	0	3812622336	38	6608
2026-01-19 16:20:04.31	179.38	15.22	-33.6	-34.3	25.8	0.00e+00	0	41	0	3835691008	38	6681
2026-01-19 16:20:08.36	179.63	14.80	-33.8	-34.5	25.7	0.00e+00	0	41	0	3858759680	40	6086
2026-01-19 16:20:12.39	179.87	14.39	-34.0	-34.6	25.5	0.00e+00	0	41	0	3880779776	40	6153
2026-01-19 16:20:16.43	180.10	13.99	-33.9	-34.5	25.5	0.00e+00	0	41	0	3903848448	40	6090
2026-01-19 16:20:20.47	180.32	13.59	-34.1	-34.7	25.3	0.00e+00	0	41	0	3926917120	40	6224
2026-01-19 16:20:24.51	180.55	13.20	-34.1	-34.9	25.2	0.00e+00	0	41	0	3949985792	40	6344
2026-01-19 16:20:28.55	180.76	12.82	-34.2	-34.8	25.1	0.00e+00	0	41	0	3972005888	40	6300
2026-01-19 16:20:32.60	180.97	12.44	-34.5	-35.2	24.9	0.00e+00	0	41	0	3995074560	40	6592
2026-01-19 16:20:36.63	181.18	12.06	-34.6	-35.3	24.8	0.00e+00	0	41	0	4017094656	40	6630
2026-01-19 16:20:40.68	181.38	11.70	-34.6	-35.3	24.8	0.00e+00	0	41	0	4040163328	42	5952
2026-01-19 16:20:44.72	181.57	11.33	-34.7	-35.3	24.6	0.00e+00	0	41	0	4063232000	42	5947
2026-01-19 16:20:48.76	181.77	10.97	-34.6	-35.4	24.7	0.00e+00	0	41	0	4086300672	42	5969
2026-01-19 16:20:52.80	181.95	10.62	-34.9	-35.7	24.5	0.00e+00	0	41	0	4108320768	42	6225
2026-01-19 16:20:56.84	182.14	10.27	-35.1	-35.7	24.4	0.00e+00	0	41	0	4131389440	42	6228
2026-01-19 16:21:00.87	182.32	9.93	-35.0	-35.6	24.3	0.00e+00	0	41	0	4153409536	42	6173
2026-01-19 16:21:04.92	182.49	9.59	-35.4	-36.0	24.0	0.00e+00	0	41	0	4176478208	42	6460
2026-01-19 16:21:08.96	182.66	9.26	-35.5	-36.1	23.8	0.00e+00	0	41	0	4199546880	42	6536
2026-01-19 16:21:13.00	182.83	8.93	-35.5	-36.1	23.9	0.00e+00	0	41	0	4221566976	42	6524
2026-01-19 16:21:17.04	183.00	8.60	-35.5	-36.3	23.7	0.00e+00	0	41	0	4244635648	42	6640
2026-01-19 16:21:21.07	183.16	8.28	-35.6	-36.4	23.6	0.00e+00	0	41	0	4267704320	44	5999
2026-01-19 16:21:25.11	183.32	7.96	-35.5	-36.3	23.7	0.00e+00	0	41	0	4290772992	44	5930
2026-01-19 16:21:29.16	183.47	7.64	-35.8	-36.4	23.5	0.00e+00	0	41	0	4312793088	44	6023
2026-01-19 16:21:33.20	183.62	7.33	-35.8	-36.4	23.4	0.00e+00	0	41	0	4335861760	44	6025
2026-01-19 16:21:37.25	183.77	7.03	-36.4	-37.3	22.7	0.00e+00	0	41	0	4357881856	44	6618
2026-01-19 16:21:41.29	183.92	6.72	-35.9	-36.7	23.2	0.00e+00	0	41	0	4380950528	44	6236
2026-01-19 16:21:45.33	184.06	6.42	-36.4	-37.1	22.8	0.00e+00	0	41	0	4404019200	44	6502
2026-01-19 16:21:49.37	184.20	6.12	-36.2	-37.0	23.0	0.00e+00	0	41	0	4427087872	44	6404
2026-01-19 16:21:53.40	184.34	5.83	-36.3	-37.1	22.8	0.00e+00	0	41	0	4449107968	44	6531
2026-01-19 16:21:57.45	184.48	5.54	-36.5	-37.2	22.6	0.00e+00	0	41	0	4472176640	46	5878
2026-01-19 16:22:01.49	184.61	5.25	-36.5	-37.3	22.5	0.00e+00	0	41	0	4495245312	46	5943
2026-01-19 16:22:05.52	184.74	4.97	-36.9	-37.6	22.3	0.00e+00	0	41	0	4517265408	46	6153
2026-01-19 16:22:09.56	184.87	4.69	-37.0	-37.8	21.9	0.00e+00	0	41	0	4540334080	46	6311
2026-01-19 16:22:13.61	185.00	4.41	-37.1	-37.9	21.9	0.00e+00	0	41	0	4562354176	46	6322
2026-01-19 16:22:17.65	185.12	4.13	-37.4	-38.2	21.3	0.00e+00	0	41	0	4585422848	48	5838
2026-01-19 16:22:21.69	185.25	3.86	-37.3	-38.2	21.6	0.00e+00	0	41	0	4608491520	48	5858
2026-01-19 16:22:25.73	185.37	3.59	-37.5	-38.4	21.2	0.00e+00	0	41	0	4631560192	48	5993
2026-01-19 16:22:29.77	185.49	3.32	-37.8	-38.7	21.1	0.00e+00	0	41	0	4653580288	48	6211
2026-01-19 16:22:33.81	185.60	3.05	-38.0	-38.9	20.6	0.00e+00	0	41	0	4676648960	48	6376
2026-01-19 16:22:37.86	185.72	2.79	-49.5	-61.7	3.6	8.45e-01	0	41	104	4679794688	60	43724
2026-01-19 16:22:41.90	185.83	2.53	-49.6	-61.9	3.6	8.45e-01	0	41	104	4679794688	60	45069
2026-01-19 16:22:45.94	185.94	2.27	-49.8	-62.1	3.6	8.45e-01	0	41	104	4679794688	60	45831
2026-01-19 16:22:49.98	186.05	2.01	-50.0	-62.2	3.6	8.45e-01	0	41	104	4679794688	60	46412
2026-01-19 16:22:54.01	186.16	1.76	-50.2	-62.3	3.6	8.45e-01	0	41	104	4679794688	60	47328
2026-01-19 16:22:58.05	186.27	1.51	-50.0	-62.1	3.6	8.46e-01	0	41	104	4679794688	60	46284
2026-01-19 16:23:02.09	186.37	1.26	-50.4	-62.6	3.6	8.46e-01	0	41	104	4679794688	60	48511
2026-01-19 16:23:06.13	186.47	1.01	-50.3	-62.4	3.6	8.45e-01	0	41	104	4679794688	60	47765
2026-01-19 16:23:10.17	186.58	0.77	-50.2	-62.4	3.6	8.46e-01	0	41	104	4679794688	60	47604
2026-01-19 16:23:14.21	186.68	0.52	-50.3	-62.4	3.6	8.45e-01	0	41	104	4679794688	60	47475
2026-01-19 16:23:18.25	186.78	0.28	-50.4	-62.5	3.6	8.44e-01	0	41	104	4679794688	60	48182
2026-01-19 16:23:22.29	186.87	0.04	-50.8	-62.9	3.6	8.45e-01	0	41	104	4679794688	60	50674

#Closed at: 2026-01-19 16:23:23
#Recorded file [4679 MB]: D:/lorett/data/35029_260120_040801.dat