passes_logs/2026/01/19/R4.6S_Anadyr/R4.6S_Anadyr__20260119_225533_NOAA_21_JPSS-2_rec.log

#Pass ID: 20260119_225533_NOAA 21 (JPSS-2)
#Satellite: NOAA 21 (JPSS-2)
#Configuration: NOAA-21
#almurnet v.1.7.20251203
#Start time: 2026-01-19 22:55:37

#Version: 2.2.20231116
#Station: R4.6S_Anadyr
#Location: 177.4865 lon 64.73178 lat
#TLE: 1 54234U 22150A   26019.31231101  .00000073  00000+0  55355-4 0  9994
#TLE: 2 54234  98.7504 320.1599 0000604 258.3686 101.7423 14.19535697165426

#Time	Az	El	Level	Level2	SNR	BER	BlckErr	Temp	State	Recorded	gain1	gain2
2026-01-19 22:55:37.04	124.64	0.23	-53.3	-54.9	5.7	0.00e+00	0	39	0	0	60	67931
2026-01-19 22:55:40.94	124.52	0.46	-51.2	-64.0	3.5	1.52e+00	0	41	104	0	60	55683
2026-01-19 22:55:44.85	124.39	0.69	-51.3	-64.1	3.5	1.52e+00	0	41	104	0	60	56255
2026-01-19 22:55:48.77	124.26	0.93	-51.2	-64.0	3.5	1.52e+00	0	41	104	0	60	55841
2026-01-19 22:55:52.68	124.13	1.16	-51.1	-63.9	3.5	1.52e+00	0	41	104	0	60	54990
2026-01-19 22:55:56.59	124.00	1.40	-50.1	-62.9	3.5	1.52e+00	0	41	104	0	60	49140
2026-01-19 22:56:00.50	123.86	1.64	-49.6	-62.7	3.5	1.52e+00	0	41	104	0	60	48074
2026-01-19 22:56:04.41	123.73	1.88	-48.7	-61.9	3.5	1.52e+00	0	41	104	0	60	43442
2026-01-19 22:56:08.33	123.59	2.12	-49.0	-61.8	3.5	1.52e+00	0	41	104	0	60	43240
2026-01-19 22:56:12.24	123.44	2.37	-48.9	-62.1	3.5	1.52e+00	0	41	104	0	60	44952
2026-01-19 22:56:16.16	123.30	2.61	-49.4	-62.3	3.5	1.51e+00	0	41	104	0	60	45489
2026-01-19 22:56:20.06	123.15	2.86	-49.2	-61.5	3.5	1.52e+00	0	41	104	0	60	41746
2026-01-19 22:56:23.97	123.00	3.11	-50.1	-61.9	4.4	1.50e+00	0	42	104	0	60	43660
2026-01-19 22:56:27.89	122.85	3.36	-47.5	-52.0	9.6	3.11e-03	0	42	0	2097152	60	13929
2026-01-19 22:56:31.80	122.69	3.62	-47.0	-50.6	11.3	2.03e-04	0	42	0	13631488	60	11829
2026-01-19 22:56:35.71	122.53	3.88	-49.7	-60.3	3.5	8.73e-02	0	42	104	18874368	60	36464
2026-01-19 22:56:39.63	122.37	4.13	-42.1	-43.5	18.5	0.00e+00	0	42	0	25165824	58	5913
2026-01-19 22:56:43.54	122.21	4.40	-42.0	-43.5	18.6	0.00e+00	0	42	0	36700160	56	6589
2026-01-19 22:56:47.44	122.04	4.66	-41.8	-43.2	18.5	0.00e+00	0	42	0	49283072	56	6359
2026-01-19 22:56:51.35	121.87	4.92	-43.6	-45.2	16.4	0.00e+00	0	42	0	61865984	60	6420
2026-01-19 22:56:55.26	121.69	5.19	-41.8	-43.1	19.3	0.00e+00	0	42	0	73400320	56	6346
2026-01-19 22:56:59.17	121.52	5.46	-40.9	-42.3	20.1	0.00e+00	0	42	0	85983232	54	6453
2026-01-19 22:57:03.08	121.33	5.74	-42.8	-44.4	19.2	0.00e+00	0	42	0	98566144	58	6539
2026-01-19 22:57:06.99	121.15	6.01	-42.6	-44.1	18.3	0.00e+00	0	42	0	110100480	56	7082
2026-01-19 22:57:10.90	120.96	6.29	-41.7	-43.0	19.3	0.00e+00	0	42	0	122683392	58	5552
2026-01-19 22:57:14.80	120.77	6.57	-41.3	-42.6	19.7	0.00e+00	0	42	0	135266304	56	5932
2026-01-19 22:57:18.72	120.57	6.86	-41.1	-42.4	19.7	0.00e+00	0	42	0	146800640	56	5796
2026-01-19 22:57:22.63	120.37	7.14	-40.3	-41.5	20.3	0.00e+00	0	42	0	159383552	54	5879
2026-01-19 22:57:26.53	120.16	7.43	-40.2	-41.4	20.8	0.00e+00	0	42	0	170917888	52	6527
2026-01-19 22:57:30.44	119.95	7.72	-40.4	-41.6	20.3	0.00e+00	0	42	0	183500800	54	5944
2026-01-19 22:57:34.36	119.74	8.02	-39.9	-40.9	21.6	0.00e+00	0	42	0	196083712	52	6195
2026-01-19 22:57:38.27	119.52	8.32	-39.7	-40.8	21.8	0.00e+00	0	42	0	207618048	52	6067
2026-01-19 22:57:42.19	119.30	8.62	-39.7	-40.8	21.9	0.00e+00	0	42	0	220200960	52	6065
2026-01-19 22:57:46.11	119.07	8.93	-39.3	-40.3	22.1	0.00e+00	0	42	0	232783872	52	5751
2026-01-19 22:57:50.01	118.83	9.23	-38.9	-39.9	22.1	0.00e+00	0	42	0	245366784	52	5510
2026-01-19 22:57:53.92	118.59	9.55	-39.4	-40.5	21.9	0.00e+00	0	42	0	256901120	52	5873
2026-01-19 22:57:57.83	118.35	9.86	-39.3	-40.3	22.4	0.00e+00	0	42	0	269484032	50	6488
2026-01-19 22:58:01.75	118.10	10.18	-39.5	-40.5	22.6	0.00e+00	0	42	0	281018368	50	6644
2026-01-19 22:58:05.66	117.84	10.50	-38.6	-39.6	22.8	0.00e+00	0	42	0	293601280	50	5945
2026-01-19 22:58:09.57	117.58	10.83	-39.2	-40.1	23.0	0.00e+00	0	42	0	306184192	50	6344
2026-01-19 22:58:13.49	117.31	11.16	-39.2	-40.2	22.7	0.00e+00	0	42	0	317718528	50	6355
2026-01-19 22:58:17.40	117.04	11.49	-38.1	-39.1	22.8	0.00e+00	0	42	0	330301440	50	5638
2026-01-19 22:58:21.31	116.76	11.83	-38.5	-39.4	22.8	0.00e+00	0	43	0	342884352	50	5851
2026-01-19 22:58:25.22	116.47	12.17	-38.9	-39.9	23.3	0.00e+00	0	42	0	354418688	50	6144
2026-01-19 22:58:29.13	116.18	12.52	-38.3	-39.3	23.4	0.00e+00	0	42	0	367001600	50	5758
2026-01-19 22:58:33.05	115.87	12.87	-38.2	-39.2	23.4	0.00e+00	0	42	0	379584512	50	5668
2026-01-19 22:58:36.96	115.56	13.22	-39.0	-40.0	23.1	0.00e+00	0	42	0	391118848	50	6232
2026-01-19 22:58:40.87	115.25	13.58	-39.0	-40.0	23.2	0.00e+00	0	42	0	403701760	50	6229
2026-01-19 22:58:44.79	114.92	13.94	-39.2	-40.2	23.1	0.00e+00	0	42	0	416284672	50	6406
2026-01-19 22:58:48.70	114.59	14.31	-37.7	-38.6	23.5	0.00e+00	0	42	0	427819008	50	5328
2026-01-19 22:58:52.62	114.24	14.68	-37.5	-38.5	23.3	0.00e+00	0	42	0	440401920	48	5881
2026-01-19 22:58:56.52	113.89	15.06	-37.2	-38.1	23.5	0.00e+00	0	42	0	452984832	48	5657
2026-01-19 22:59:00.43	113.53	15.44	-38.1	-39.1	23.6	0.00e+00	0	42	0	464519168	50	5631
2026-01-19 22:59:04.35	113.16	15.82	-38.1	-39.1	23.4	0.00e+00	0	42	0	477102080	50	5606
2026-01-19 22:59:08.26	112.78	16.22	-39.5	-40.5	21.0	0.00e+00	0	42	0	489684992	52	5873
2026-01-19 22:59:12.18	112.39	16.61	-38.6	-39.5	22.6	0.00e+00	0	42	0	501219328	52	5256
2026-01-19 22:59:16.09	111.99	17.01	-39.5	-40.5	22.4	0.00e+00	0	42	0	513802240	52	5913
2026-01-19 22:59:20.00	111.57	17.42	-39.7	-40.7	21.8	0.00e+00	0	42	0	526385152	52	6057
2026-01-19 22:59:23.91	111.15	17.83	-39.9	-41.1	21.1	0.00e+00	0	42	0	537919488	52	6311
2026-01-19 22:59:27.83	110.71	18.25	-39.4	-40.4	23.4	0.00e+00	0	42	0	550502400	52	5831
2026-01-19 22:59:31.73	110.26	18.67	-39.4	-40.5	22.8	0.00e+00	0	42	0	563085312	52	5921
2026-01-19 22:59:35.64	109.80	19.09	-38.0	-38.9	22.8	0.00e+00	0	42	0	574619648	50	5520
2026-01-19 22:59:39.55	109.33	19.53	-37.9	-38.9	23.5	0.00e+00	0	42	0	587202560	48	6153
2026-01-19 22:59:43.47	108.84	19.96	-37.8	-38.7	24.0	0.00e+00	0	42	0	599785472	48	6025
2026-01-19 22:59:47.37	108.33	20.41	-37.9	-38.8	24.1	0.00e+00	0	42	0	611319808	48	6130
2026-01-19 22:59:51.28	107.81	20.86	-37.7	-38.6	23.7	0.00e+00	0	42	0	623902720	48	5955
2026-01-19 22:59:55.19	107.28	21.31	-37.0	-37.9	24.4	0.00e+00	0	42	0	635437056	48	5483
2026-01-19 22:59:59.10	106.73	21.77	-37.1	-38.0	24.6	0.00e+00	0	42	0	648019968	48	5537
2026-01-19 23:00:03.00	106.16	22.23	-36.8	-37.7	24.5	0.00e+00	0	42	0	660602880	46	6006
2026-01-19 23:00:06.93	105.57	22.71	-37.2	-38.1	24.5	0.00e+00	0	42	0	673185792	46	6330
2026-01-19 23:00:10.84	104.97	23.18	-36.9	-37.8	24.5	0.00e+00	0	42	0	684720128	48	5422
2026-01-19 23:00:14.74	104.35	23.66	-36.5	-37.4	24.4	0.00e+00	0	42	0	697303040	46	5796
2026-01-19 23:00:18.66	103.70	24.15	-37.1	-38.0	24.4	0.00e+00	0	42	0	709885952	46	6238
2026-01-19 23:00:22.57	103.04	24.64	-38.0	-38.9	24.2	0.00e+00	0	42	0	721420288	48	6167
2026-01-19 23:00:26.49	102.35	25.14	-37.5	-38.4	23.9	0.00e+00	0	42	0	734003200	48	5803
2026-01-19 23:00:30.41	101.65	25.64	-39.6	-40.6	23.5	0.00e+00	0	42	0	746586112	50	6655
2026-01-19 23:00:34.32	100.92	26.14	-38.9	-39.9	23.2	0.00e+00	0	42	0	758120448	52	5498
2026-01-19 23:00:38.23	100.16	26.65	-40.4	-41.4	23.5	0.00e+00	0	42	0	770703360	54	5829
2026-01-19 23:00:42.14	99.38	27.17	-39.7	-40.6	22.9	0.00e+00	0	42	0	782237696	56	4723
2026-01-19 23:00:46.05	98.58	27.68	-38.1	-39.0	23.7	0.00e+00	0	42	0	794820608	50	5590
2026-01-19 23:00:49.96	97.75	28.20	-39.0	-40.0	23.5	0.00e+00	0	42	0	807403520	50	6206
2026-01-19 23:00:53.87	96.89	28.73	-38.8	-39.7	23.7	0.00e+00	0	42	0	818937856	50	6059
2026-01-19 23:00:57.77	96.00	29.25	-38.2	-39.1	23.7	0.00e+00	0	42	0	831520768	50	5657
2026-01-19 23:01:01.69	95.08	29.78	-37.3	-38.2	24.1	0.00e+00	0	42	0	844103680	48	5703
2026-01-19 23:01:05.59	94.13	30.31	-38.0	-38.9	23.9	0.00e+00	0	42	0	855638016	50	5526
2026-01-19 23:01:09.50	93.15	30.84	-38.5	-39.4	23.8	0.00e+00	0	42	0	868220928	52	5202
2026-01-19 23:01:13.40	92.14	31.36	-38.3	-39.2	23.5	0.00e+00	0	42	0	880803840	50	5721
2026-01-19 23:01:17.31	91.10	31.89	-39.0	-40.0	23.0	0.00e+00	0	42	0	892338176	52	5569
2026-01-19 23:01:21.23	90.01	32.42	-39.5	-40.4	23.2	0.00e+00	0	42	0	904921088	50	6563
2026-01-19 23:01:25.13	88.90	32.94	-38.9	-39.9	23.2	0.00e+00	0	42	0	917504000	50	6180
2026-01-19 23:01:29.05	87.74	33.46	-39.7	-40.6	23.1	0.00e+00	0	42	0	929038336	52	5992
2026-01-19 23:01:32.96	86.55	33.97	-38.6	-39.6	23.3	0.00e+00	0	42	0	941621248	50	5956
2026-01-19 23:01:36.87	85.32	34.48	-38.4	-39.3	23.2	0.00e+00	0	42	0	954204160	50	5779
2026-01-19 23:01:40.77	84.05	34.98	-38.9	-39.9	23.1	0.00e+00	0	42	0	965738496	50	6170
2026-01-19 23:01:44.69	82.74	35.47	-39.9	-40.9	22.7	0.00e+00	0	42	0	978321408	56	4918
2026-01-19 23:01:48.60	81.39	35.95	-38.8	-39.9	22.6	0.00e+00	0	42	0	989855744	52	5469
2026-01-19 23:01:52.50	80.01	36.42	-39.0	-40.0	22.3	0.00e+00	0	42	0	1002438656	50	6258
2026-01-19 23:01:56.42	78.58	36.88	-38.5	-39.5	23.0	0.00e+00	0	42	0	1015021568	50	5898
2026-01-19 23:02:00.33	77.11	37.32	-38.3	-39.3	23.0	0.00e+00	0	42	0	1026555904	50	5762
2026-01-19 23:02:04.24	75.60	37.75	-38.8	-39.8	22.3	0.00e+00	0	42	0	1039138816	50	6080
2026-01-19 23:02:08.16	74.05	38.15	-39.2	-40.2	22.3	0.00e+00	0	42	0	1051721728	52	5705
2026-01-19 23:02:12.07	72.47	38.54	-39.0	-40.0	22.5	0.00e+00	0	42	0	1063256064	50	6232
2026-01-19 23:02:15.98	70.85	38.91	-38.5	-39.5	22.8	0.00e+00	0	42	0	1075838976	50	5862
2026-01-19 23:02:19.89	69.19	39.25	-38.8	-39.8	22.7	0.00e+00	0	42	0	1088421888	50	6074
2026-01-19 23:02:23.81	67.49	39.57	-39.7	-40.8	21.9	0.00e+00	0	42	0	1101004800	52	6089
2026-01-19 23:02:27.72	65.77	39.86	-39.0	-40.1	22.3	0.00e+00	0	42	0	1112539136	52	5601
2026-01-19 23:02:31.63	64.02	40.12	-39.0	-39.9	22.7	0.00e+00	0	42	0	1125122048	50	6193
2026-01-19 23:02:35.54	62.23	40.36	-39.3	-40.3	22.4	0.00e+00	0	42	0	1136656384	50	6450
2026-01-19 23:02:39.45	60.43	40.56	-39.3	-40.3	22.3	0.00e+00	0	42	0	1149239296	52	5756
2026-01-19 23:02:43.36	58.60	40.73	-40.6	-41.6	21.8	0.00e+00	0	42	0	1161822208	54	5976
2026-01-19 23:02:47.28	56.75	40.87	-39.9	-40.9	22.1	0.00e+00	0	42	0	1173356544	54	5501
2026-01-19 23:02:51.19	54.90	40.98	-40.7	-41.8	20.9	0.00e+00	0	42	0	1185939456	54	6120
2026-01-19 23:02:55.10	53.03	41.05	-40.8	-41.9	21.4	0.00e+00	0	42	0	1198522368	54	6189
2026-01-19 23:02:59.01	51.16	41.09	-41.2	-42.3	21.5	0.00e+00	0	42	0	1210056704	54	6474
2026-01-19 23:03:02.93	49.28	41.09	-40.3	-41.3	21.9	0.00e+00	0	42	0	1222639616	54	5788
2026-01-19 23:03:06.84	47.40	41.06	-41.0	-42.2	20.9	0.00e+00	0	42	0	1235222528	54	6381
2026-01-19 23:03:10.76	45.53	40.99	-39.7	-40.7	22.1	0.00e+00	0	42	0	1246756864	52	6028
2026-01-19 23:03:14.67	43.67	40.89	-39.9	-40.9	21.7	0.00e+00	0	42	0	1259339776	52	6189
2026-01-19 23:03:18.59	41.82	40.75	-40.2	-41.3	22.0	0.00e+00	0	42	0	1271922688	52	6439
2026-01-19 23:03:22.49	40.00	40.58	-41.8	-43.0	20.4	0.00e+00	0	42	0	1283457024	56	6266
2026-01-19 23:03:26.41	38.19	40.38	-39.2	-40.2	22.6	0.00e+00	0	42	0	1296039936	52	5678
2026-01-19 23:03:30.33	36.40	40.15	-40.3	-41.4	21.7	0.00e+00	0	42	0	1308622848	52	6563
2026-01-19 23:03:34.24	34.65	39.89	-40.6	-41.8	20.9	0.00e+00	0	42	0	1320157184	54	6097
2026-01-19 23:03:38.15	32.92	39.61	-40.5	-41.6	21.2	0.00e+00	0	42	0	1332740096	54	5968
2026-01-19 23:03:42.06	31.23	39.29	-40.0	-41.1	21.4	0.00e+00	0	42	0	1345323008	54	5630
2026-01-19 23:03:45.97	29.57	38.95	-40.6	-41.7	21.0	0.00e+00	0	42	0	1356857344	54	6036
2026-01-19 23:03:49.88	27.94	38.59	-39.2	-40.2	22.6	0.00e+00	0	42	0	1369440256	52	5663
2026-01-19 23:03:53.80	26.35	38.21	-39.9	-41.0	21.5	0.00e+00	0	42	0	1382023168	54	5538
2026-01-19 23:03:57.71	24.81	37.80	-38.7	-39.7	22.8	0.00e+00	0	42	0	1393557504	50	6020
2026-01-19 23:04:01.61	23.30	37.38	-40.3	-41.4	21.5	0.00e+00	0	42	0	1406140416	54	5822
2026-01-19 23:04:05.52	21.83	36.94	-38.6	-39.7	22.7	0.00e+00	0	42	0	1418723328	50	5995
2026-01-19 23:04:09.44	20.40	36.49	-39.5	-40.6	22.0	0.00e+00	0	42	0	1430257664	52	5963
2026-01-19 23:04:13.36	19.00	36.02	-37.8	-38.7	23.5	0.00e+00	0	42	0	1442840576	48	6048
2026-01-19 23:04:17.28	17.65	35.54	-40.3	-41.4	22.4	0.00e+00	0	42	0	1455423488	54	5852
2026-01-19 23:04:21.19	16.34	35.05	-37.9	-38.8	24.1	0.00e+00	0	42	0	1466957824	48	6115
2026-01-19 23:04:25.10	15.07	34.55	-40.6	-41.8	21.7	0.00e+00	0	42	0	1479540736	54	6076
2026-01-19 23:04:29.01	13.84	34.05	-38.7	-39.7	23.4	0.00e+00	0	42	0	1492123648	50	6016
2026-01-19 23:04:32.92	12.65	33.54	-38.4	-39.3	23.6	0.00e+00	0	42	0	1503657984	48	6479
2026-01-19 23:04:36.83	11.49	33.02	-38.6	-39.6	23.0	0.00e+00	0	42	0	1516240896	50	5948
2026-01-19 23:04:40.74	10.37	32.50	-37.9	-38.8	24.2	0.00e+00	0	42	0	1528823808	48	6084
2026-01-19 23:04:44.65	9.29	31.98	-37.8	-38.8	23.7	0.00e+00	0	42	0	1540358144	48	6080
2026-01-19 23:04:48.56	8.24	31.45	-37.5	-38.4	23.8	0.00e+00	0	42	0	1552941056	48	5824
2026-01-19 23:04:52.47	7.23	30.93	-38.4	-39.4	22.9	0.00e+00	0	42	0	1565523968	48	6556
2026-01-19 23:04:56.39	6.25	30.40	-37.6	-38.6	23.5	0.00e+00	0	42	0	1577058304	48	5946
2026-01-19 23:05:00.30	5.30	29.87	-36.8	-37.7	24.5	0.00e+00	0	42	0	1589641216	46	6008
2026-01-19 23:05:04.21	4.38	29.35	-37.8	-38.7	23.6	0.00e+00	0	42	0	1602224128	48	6063
2026-01-19 23:05:08.13	3.49	28.82	-36.8	-37.7	23.7	0.00e+00	0	42	0	1613758464	46	6011
2026-01-19 23:05:12.04	2.63	28.30	-36.9	-37.9	24.2	0.00e+00	0	42	0	1626341376	46	6140
2026-01-19 23:05:15.95	1.80	27.78	-37.8	-38.7	24.0	0.00e+00	0	42	0	1637875712	48	6035
2026-01-19 23:05:19.87	0.99	27.26	-38.0	-38.9	23.8	0.00e+00	0	42	0	1650458624	48	6205
2026-01-19 23:05:23.78	0.21	26.75	-38.7	-39.7	24.0	0.00e+00	0	42	0	1663041536	48	6749
2026-01-19 23:05:27.69	359.46	26.24	-37.5	-38.4	24.1	0.00e+00	0	42	0	1674575872	48	5819
2026-01-19 23:05:31.60	358.73	25.74	-37.8	-38.6	24.2	0.00e+00	0	42	0	1687158784	48	5982
2026-01-19 23:05:35.51	358.02	25.24	-37.4	-38.4	23.9	0.00e+00	0	42	0	1699741696	48	5803
2026-01-19 23:05:39.42	357.33	24.75	-37.6	-38.5	23.9	0.00e+00	0	42	0	1711276032	48	5912
2026-01-19 23:05:43.33	356.67	24.26	-38.6	-39.5	23.5	0.00e+00	0	42	0	1723858944	50	5914
2026-01-19 23:05:47.24	356.03	23.77	-37.9	-38.8	23.9	0.00e+00	0	42	0	1736441856	48	6104
2026-01-19 23:05:51.15	355.41	23.29	-37.2	-38.1	24.0	0.00e+00	0	42	0	1747976192	48	5656
2026-01-19 23:05:55.07	354.80	22.81	-37.1	-38.0	24.1	0.00e+00	0	42	0	1760559104	48	5578
2026-01-19 23:05:58.98	354.22	22.34	-37.6	-38.6	23.9	0.00e+00	0	42	0	1773142016	48	5933
2026-01-19 23:06:02.89	353.65	21.88	-38.4	-39.4	23.6	0.00e+00	0	42	0	1784676352	50	5827
2026-01-19 23:06:06.80	353.10	21.42	-38.4	-39.3	23.6	0.00e+00	0	42	0	1797259264	50	5780
2026-01-19 23:06:10.72	352.56	20.97	-38.7	-39.6	24.0	0.00e+00	0	42	0	1809842176	48	6722
2026-01-19 23:06:14.62	352.05	20.52	-37.5	-38.4	24.4	0.00e+00	0	42	0	1821376512	48	5841
2026-01-19 23:06:18.54	351.54	20.08	-37.5	-38.4	24.4	0.00e+00	0	42	0	1833959424	46	6545
2026-01-19 23:06:22.45	351.05	19.64	-37.5	-38.4	24.1	0.00e+00	0	42	0	1846542336	48	5848
2026-01-19 23:06:26.36	350.58	19.21	-37.5	-38.4	24.3	0.00e+00	0	42	0	1858076672	48	5799
2026-01-19 23:06:30.27	350.12	18.78	-37.6	-38.5	24.0	0.00e+00	0	42	0	1870659584	48	5919
2026-01-19 23:06:34.18	349.67	18.36	-37.3	-38.2	23.9	0.00e+00	0	42	0	1883242496	48	5675
2026-01-19 23:06:38.09	349.24	17.95	-37.5	-38.4	23.8	0.00e+00	0	42	0	1894776832	48	5830
2026-01-19 23:06:42.00	348.81	17.54	-38.0	-39.0	24.0	0.00e+00	0	42	0	1907359744	48	6210
2026-01-19 23:06:45.91	348.40	17.13	-38.0	-38.9	23.6	0.00e+00	0	42	0	1919942656	48	6146
2026-01-19 23:06:49.83	348.00	16.73	-38.2	-39.2	23.4	0.00e+00	0	42	0	1931476992	50	5664
2026-01-19 23:06:53.73	347.61	16.34	-38.0	-39.0	23.3	0.00e+00	0	42	0	1944059904	50	5546
2026-01-19 23:06:57.64	347.23	15.95	-39.3	-40.3	22.7	0.00e+00	0	42	0	1955594240	50	6455
2026-01-19 23:07:01.55	346.86	15.56	-39.5	-40.4	23.3	0.00e+00	0	42	0	1968177152	50	6557
2026-01-19 23:07:05.47	346.50	15.18	-39.0	-40.0	23.2	0.00e+00	0	42	0	1980760064	50	6217
2026-01-19 23:07:09.37	346.15	14.81	-38.8	-39.8	23.2	0.00e+00	0	42	0	1993342976	50	6084
2026-01-19 23:07:13.29	345.81	14.43	-39.2	-40.2	22.8	0.00e+00	0	42	0	2004877312	52	5688
2026-01-19 23:07:17.20	345.48	14.07	-38.6	-39.6	23.1	0.00e+00	0	42	0	2017460224	50	5944
2026-01-19 23:07:21.12	345.15	13.70	-38.9	-39.9	22.9	0.00e+00	0	42	0	2030043136	50	6187
2026-01-19 23:07:25.02	344.84	13.35	-39.2	-40.2	22.9	0.00e+00	0	42	0	2041577472	50	6403
2026-01-19 23:07:28.94	344.53	12.99	-39.6	-40.6	22.7	0.00e+00	0	42	0	2054160384	50	6689
2026-01-19 23:07:32.86	344.23	12.64	-39.8	-40.8	22.5	0.00e+00	0	42	0	2066743296	52	6115
2026-01-19 23:07:36.77	343.94	12.30	-39.5	-40.6	22.6	0.00e+00	0	42	0	2078277632	52	5969
2026-01-19 23:07:40.69	343.65	11.96	-40.4	-41.4	22.6	0.00e+00	0	42	0	2090860544	52	6546
2026-01-19 23:07:44.60	343.37	11.62	-39.8	-40.9	22.5	0.00e+00	0	42	0	2102394880	52	6178
2026-01-19 23:07:48.52	343.10	11.29	-39.5	-40.6	22.4	0.00e+00	0	42	0	2114977792	52	5942
2026-01-19 23:07:52.42	342.83	10.96	-40.5	-41.6	22.2	0.00e+00	0	42	0	2127560704	52	6655
2026-01-19 23:07:56.33	342.57	10.63	-40.6	-41.7	22.3	0.00e+00	0	42	0	2139095040	54	6028
2026-01-19 23:08:00.24	342.32	10.31	-39.6	-40.6	22.1	0.00e+00	0	42	0	2151677952	54	5325
2026-01-19 23:08:04.16	342.07	9.99	-40.3	-41.4	21.8	0.00e+00	0	42	0	2164260864	52	6505
2026-01-19 23:08:08.06	341.83	9.68	-40.2	-41.3	21.7	0.00e+00	0	42	0	2175795200	52	6475
2026-01-19 23:08:11.98	341.59	9.37	-40.8	-42.1	21.3	0.00e+00	0	42	0	2188378112	54	6279
2026-01-19 23:08:15.89	341.36	9.06	-40.7	-41.9	21.3	0.00e+00	0	42	0	2200961024	54	6167
2026-01-19 23:08:19.80	341.13	8.75	-40.5	-41.7	21.1	0.00e+00	0	42	0	2212495360	54	6046
2026-01-19 23:08:23.72	340.91	8.45	-41.3	-42.6	21.1	0.00e+00	0	42	0	2225078272	56	5930
2026-01-19 23:08:27.64	340.69	8.15	-41.4	-42.7	20.5	0.00e+00	0	42	0	2237661184	56	6014
2026-01-19 23:08:31.54	340.48	7.86	-41.4	-42.6	20.1	0.00e+00	0	42	0	2249195520	56	5993
2026-01-19 23:08:35.46	340.27	7.56	-41.3	-42.5	20.6	0.00e+00	0	42	0	2261778432	56	5912
2026-01-19 23:08:39.36	340.07	7.28	-40.9	-42.1	20.6	0.00e+00	0	42	0	2274361344	54	6309
2026-01-19 23:08:43.27	339.87	6.99	-41.9	-43.1	20.4	0.00e+00	0	42	0	2285895680	56	6296
2026-01-19 23:08:47.18	339.68	6.71	-41.2	-42.5	20.4	0.00e+00	0	42	0	2298478592	52	7404
2026-01-19 23:08:51.09	339.49	6.42	-40.0	-41.3	20.7	0.00e+00	0	42	0	2311061504	54	5728
2026-01-19 23:08:55.00	339.30	6.15	-41.7	-43.0	20.4	0.00e+00	0	42	0	2322595840	54	6979
2026-01-19 23:08:58.91	339.12	5.87	-41.6	-42.9	20.3	0.00e+00	0	42	0	2335178752	56	6177
2026-01-19 23:09:02.83	338.94	5.60	-42.1	-43.4	19.9	0.00e+00	0	42	0	2347761664	56	6505
2026-01-19 23:09:06.73	338.76	5.33	-41.9	-43.4	18.6	0.00e+00	0	42	0	2359296000	56	6502
2026-01-19 23:09:10.64	338.59	5.06	-43.0	-44.9	16.4	0.00e+00	0	42	0	2371878912	58	6887
2026-01-19 23:09:14.55	338.42	4.79	-45.1	-47.8	13.1	9.10e-06	0	42	0	2383413248	60	8643
2026-01-19 23:09:18.46	338.26	4.53	-46.2	-50.7	8.7	2.91e-02	0	42	0	2395996160	60	12058
2026-01-19 23:09:22.37	338.10	4.27	-46.6	-54.3	5.4	1.47e+00	3	42	104	2407530496	60	18140
2026-01-19 23:09:26.28	337.94	4.01	-47.7	-58.0	3.9	1.49e+00	0	42	104	2407530496	60	27821
2026-01-19 23:09:30.19	337.78	3.75	-47.8	-59.5	3.5	1.51e+00	0	43	104	2407530496	60	33185
2026-01-19 23:09:34.10	337.63	3.50	-47.2	-59.9	3.5	1.52e+00	0	42	104	2407530496	60	34721
2026-01-19 23:09:38.01	337.48	3.25	-47.4	-60.1	3.5	1.51e+00	0	43	104	2407530496	60	35641
2026-01-19 23:09:41.92	337.33	3.00	-48.3	-61.1	3.5	1.52e+00	0	43	104	2407530496	60	39811
2026-01-19 23:09:45.82	337.19	2.75	-51.4	-64.2	3.5	1.52e+00	0	42	104	2407530496	60	57114
2026-01-19 23:09:49.74	337.04	2.50	-51.3	-64.2	3.5	1.52e+00	0	42	104	2407530496	60	56828
2026-01-19 23:09:53.66	336.90	2.26	-51.1	-64.0	3.5	1.52e+00	0	43	104	2407530496	60	55327
2026-01-19 23:09:57.58	336.77	2.02	-51.1	-64.4	3.5	1.52e+00	0	42	104	2407530496	60	58021
2026-01-19 23:10:01.49	336.63	1.78	-52.3	-65.3	3.5	1.52e+00	0	43	104	2407530496	60	64313
2026-01-19 23:10:05.40	336.50	1.54	-52.6	-65.4	3.5	1.52e+00	0	42	104	2407530496	60	65374
2026-01-19 23:10:09.32	336.37	1.30	-51.7	-64.5	3.5	1.52e+00	0	43	104	2407530496	60	59234
2026-01-19 23:10:13.22	336.24	1.07	-52.2	-65.1	3.5	1.52e+00	0	42	104	2407530496	60	63202
2026-01-19 23:10:17.13	336.12	0.83	-52.1	-65.0	3.5	1.52e+00	0	42	104	2407530496	60	62219
2026-01-19 23:10:21.05	336.00	0.60	-51.9	-64.8	3.5	1.52e+00	0	43	104	2407530496	60	61120
2026-01-19 23:10:24.96	335.88	0.37	-52.1	-65.0	3.5	1.52e+00	0	43	104	2407530496	60	62511
2026-01-19 23:10:28.87	335.76	0.14	-52.4	-65.3	3.5	1.52e+00	0	43	104	2407530496	60	64533
2026-01-19 23:10:32.78	335.64	-0.08	-52.2	-65.0	3.5	1.52e+00	0	42	104	2407530496	60	62573

#Closed at: 2026-01-19 23:10:33
#Recorded file [2407 MB]: D:/lorett/data/35029_260120_105537.dat