passes_logs/2026/01/19/R4.6S_Anadyr/R4.6S_Anadyr__20260119_014517_NOAA_20_JPSS-1_rec.log

#Pass ID: 20260119_014517_NOAA 20 (JPSS-1)
#Satellite: NOAA 20 (JPSS-1)
#Configuration: NOAA 20
#almurnet v.1.7.20251203
#Start time: 2026-01-19 01:45:18

#Version: 2.2.20231116
#Station: R4.6S_Anadyr
#Location: 177.4865 lon 64.73178 lat
#TLE: 1 43013U 17073A   26018.57232797  .00000065  00000+0  51758-4 0  9998
#TLE: 2 43013  98.7640 319.4740 0001368  34.2083 325.9181 14.19536753423241

#Time	Az	El	Level	Level2	SNR	BER	BlckErr	Temp	State	Recorded	gain1	gain2
2026-01-19 01:45:18.41	195.62	0.05	-50.3	-68.3	3.5	3.03e+01	0	38	0	0	60	99694
2026-01-19 01:45:22.44	195.82	0.28	-49.9	-65.1	3.6	1.51e+00	0	40	104	0	60	64984
2026-01-19 01:45:26.48	196.02	0.50	-50.1	-65.3	3.6	1.51e+00	0	40	104	0	60	66270
2026-01-19 01:45:30.52	196.23	0.73	-49.8	-65.1	3.6	1.51e+00	0	40	104	0	60	64969
2026-01-19 01:45:34.56	196.44	0.96	-49.7	-64.8	3.6	1.51e+00	0	40	104	0	60	63034
2026-01-19 01:45:38.60	196.65	1.19	-49.1	-64.5	3.6	1.51e+00	0	40	104	0	60	60438
2026-01-19 01:45:42.64	196.87	1.43	-47.9	-63.1	3.6	1.51e+00	0	40	104	0	60	51603
2026-01-19 01:45:46.68	197.08	1.66	-47.9	-63.0	3.6	1.51e+00	0	40	104	0	60	51219
2026-01-19 01:45:50.72	197.31	1.90	-47.9	-63.1	3.6	1.51e+00	0	40	104	0	60	51480
2026-01-19 01:45:54.76	197.53	2.13	-47.9	-63.0	3.6	1.51e+00	0	40	104	0	60	51180
2026-01-19 01:45:58.80	197.76	2.37	-48.0	-63.0	3.6	1.51e+00	0	40	104	0	60	51056
2026-01-19 01:46:02.83	197.99	2.61	-47.9	-62.0	3.6	1.51e+00	0	40	104	0	60	45672
2026-01-19 01:46:06.87	198.23	2.86	-48.0	-62.0	3.6	1.51e+00	0	40	104	0	60	45450
2026-01-19 01:46:10.91	198.46	3.10	-46.6	-51.9	10.0	2.15e-02	0	41	0	3145728	60	14245
2026-01-19 01:46:14.95	198.71	3.35	-45.5	-49.1	12.9	2.36e-05	92	40	0	9437184	60	10307
2026-01-19 01:46:18.99	198.95	3.60	-48.2	-62.4	3.6	1.98e-02	0	41	104	16777216	60	47665
2026-01-19 01:46:23.03	199.21	3.85	-44.6	-47.1	15.7	0.00e+00	90	40	0	18874368	60	8177
2026-01-19 01:46:27.07	199.46	4.10	-44.0	-46.4	16.1	0.00e+00	7	40	0	26214400	60	7517
2026-01-19 01:46:31.10	199.72	4.35	-43.0	-45.5	15.8	0.00e+00	92	40	0	33554432	60	6835
2026-01-19 01:46:35.14	199.98	4.61	-43.4	-46.0	15.5	0.00e+00	92	41	0	41943040	58	8058
2026-01-19 01:46:39.18	200.25	4.86	-43.6	-45.5	17.5	0.00e+00	92	41	0	49283072	60	6845
2026-01-19 01:46:43.21	200.52	5.12	-43.0	-44.8	18.2	0.00e+00	0	40	0	56623104	60	6271
2026-01-19 01:46:47.25	200.80	5.38	-43.2	-45.1	17.8	0.00e+00	91	40	0	63963136	60	6518
2026-01-19 01:46:51.29	201.08	5.65	-43.1	-44.9	18.3	0.00e+00	92	41	0	72351744	60	6327
2026-01-19 01:46:55.33	201.37	5.91	-43.0	-44.7	18.6	0.00e+00	90	41	0	79691776	60	6194
2026-01-19 01:46:59.37	201.66	6.18	-42.6	-44.1	19.1	0.00e+00	0	41	0	87031808	58	6524
2026-01-19 01:47:03.38	201.95	6.45	-42.7	-44.3	19.1	0.00e+00	92	41	0	94371840	58	6640
2026-01-19 01:47:07.42	202.26	6.72	-42.3	-43.8	19.3	0.00e+00	92	41	0	101711872	58	6303
2026-01-19 01:47:11.45	202.56	7.00	-42.2	-43.7	19.4	0.00e+00	92	40	0	110100480	58	6208
2026-01-19 01:47:15.49	202.88	7.28	-42.0	-43.5	19.5	0.00e+00	0	40	0	117440512	58	6039
2026-01-19 01:47:19.53	203.20	7.55	-42.0	-43.5	19.6	0.00e+00	92	41	0	124780544	58	6061
2026-01-19 01:47:23.57	203.52	7.84	-42.1	-43.5	19.6	0.00e+00	90	41	0	132120576	56	6824
2026-01-19 01:47:27.61	203.85	8.12	-41.8	-43.2	20.2	0.00e+00	90	41	0	139460608	56	6560
2026-01-19 01:47:31.65	204.19	8.41	-41.9	-43.2	20.2	0.00e+00	92	41	0	147849216	56	6611
2026-01-19 01:47:35.69	204.53	8.70	-41.6	-42.9	20.7	0.00e+00	92	40	0	155189248	56	6329
2026-01-19 01:47:39.73	204.88	8.99	-41.4	-42.6	20.8	0.00e+00	92	40	0	162529280	56	6151
2026-01-19 01:47:43.77	205.24	9.28	-41.1	-42.3	21.2	0.00e+00	91	41	0	169869312	56	5952
2026-01-19 01:47:47.80	205.60	9.58	-40.5	-41.6	21.7	0.00e+00	92	40	0	178257920	54	6170
2026-01-19 01:47:51.84	205.97	9.88	-40.3	-41.4	22.0	0.00e+00	92	40	0	185597952	54	6011
2026-01-19 01:47:55.88	206.35	10.18	-40.3	-41.4	22.1	0.00e+00	92	40	0	192937984	54	6000
2026-01-19 01:47:59.91	206.73	10.48	-40.3	-41.3	22.1	0.00e+00	92	40	0	200278016	54	5964
2026-01-19 01:48:03.95	207.13	10.79	-40.3	-41.4	22.0	0.00e+00	92	40	0	207618048	54	6012
2026-01-19 01:48:07.99	207.53	11.10	-40.0	-41.1	22.3	0.00e+00	92	41	0	216006656	54	5781
2026-01-19 01:48:12.03	207.94	11.41	-40.1	-41.1	22.4	0.00e+00	92	41	0	223346688	54	5794
2026-01-19 01:48:16.06	208.36	11.73	-39.9	-40.9	22.6	0.00e+00	8	41	0	230686720	54	5639
2026-01-19 01:48:20.10	208.78	12.04	-39.8	-40.8	22.7	0.00e+00	92	40	0	238026752	52	6278
2026-01-19 01:48:24.14	209.22	12.36	-39.7	-40.7	22.8	0.00e+00	91	41	0	246415360	52	6198
2026-01-19 01:48:28.18	209.67	12.69	-39.9	-40.8	22.8	0.00e+00	92	41	0	253755392	52	6315
2026-01-19 01:48:32.21	210.12	13.01	-39.5	-40.5	23.0	0.00e+00	34	41	0	261095424	52	6069
2026-01-19 01:48:36.25	210.58	13.34	-39.5	-40.4	23.0	0.00e+00	92	41	0	268435456	52	6024
2026-01-19 01:48:40.29	211.06	13.67	-39.6	-40.6	22.8	0.00e+00	92	41	0	275775488	52	6150
2026-01-19 01:48:44.32	211.54	14.01	-39.8	-40.8	22.8	0.00e+00	72	41	0	284164096	52	6257
2026-01-19 01:48:48.36	212.04	14.34	-39.9	-40.9	22.5	0.00e+00	37	41	0	291504128	52	6372
2026-01-19 01:48:52.40	212.54	14.68	-40.2	-41.2	22.2	0.00e+00	91	40	0	298844160	52	6588
2026-01-19 01:48:56.44	213.06	15.03	-40.4	-41.4	22.1	0.00e+00	91	41	0	306184192	52	6746
2026-01-19 01:49:00.47	213.59	15.37	-40.2	-41.3	22.2	0.00e+00	41	41	0	314572800	52	6639
2026-01-19 01:49:04.51	214.13	15.72	-40.2	-41.2	22.3	0.00e+00	87	41	0	321912832	52	6570
2026-01-19 01:49:08.55	214.69	16.07	-40.3	-41.4	22.1	0.00e+00	92	41	0	329252864	52	6711
2026-01-19 01:49:12.59	215.25	16.42	-40.4	-41.5	21.9	0.00e+00	90	41	0	336592896	52	6835
2026-01-19 01:49:16.63	215.83	16.78	-40.4	-41.4	22.1	0.00e+00	0	41	0	343932928	52	6748
2026-01-19 01:49:20.67	216.43	17.14	-40.5	-41.6	21.8	0.00e+00	92	40	0	352321536	52	6875
2026-01-19 01:49:24.71	217.03	17.50	-40.4	-41.5	21.9	0.00e+00	92	41	0	359661568	52	6791
2026-01-19 01:49:28.75	217.65	17.86	-39.9	-40.9	22.3	0.00e+00	92	40	0	367001600	52	6385
2026-01-19 01:49:32.79	218.29	18.22	-39.9	-40.9	22.2	0.00e+00	31	40	0	374341632	52	6362
2026-01-19 01:49:36.83	218.94	18.59	-40.0	-41.1	21.8	0.00e+00	91	40	0	382730240	52	6495
2026-01-19 01:49:40.87	219.61	18.96	-40.0	-41.1	21.9	0.00e+00	91	41	0	390070272	52	6484
2026-01-19 01:49:44.91	220.29	19.33	-39.8	-40.9	22.0	0.00e+00	92	40	0	397410304	52	6320
2026-01-19 01:49:48.94	220.99	19.70	-39.7	-40.7	22.2	0.00e+00	45	41	0	404750336	52	6200
2026-01-19 01:49:52.99	221.70	20.07	-39.2	-40.2	22.5	0.00e+00	90	41	0	412090368	52	5881
2026-01-19 01:49:57.02	222.43	20.45	-39.1	-40.0	23.0	0.00e+00	92	41	0	420478976	52	5748
2026-01-19 01:50:01.07	223.19	20.82	-39.1	-40.0	23.0	0.00e+00	92	40	0	427819008	52	5751
2026-01-19 01:50:05.10	223.95	21.20	-38.9	-39.9	23.4	0.00e+00	0	40	0	435159040	52	5652
2026-01-19 01:50:09.14	224.74	21.57	-38.5	-39.4	23.8	0.00e+00	92	40	0	442499072	50	6022
2026-01-19 01:50:13.18	225.54	21.95	-38.4	-39.2	24.0	0.00e+00	92	40	0	450887680	50	5884
2026-01-19 01:50:17.22	226.37	22.32	-38.5	-39.4	24.1	0.00e+00	90	40	0	458227712	50	5973
2026-01-19 01:50:21.25	227.21	22.70	-38.3	-39.1	24.3	0.00e+00	0	40	0	465567744	50	5823
2026-01-19 01:50:25.29	228.07	23.07	-38.3	-39.2	24.2	0.00e+00	92	41	0	472907776	50	5843
2026-01-19 01:50:29.33	228.95	23.44	-38.4	-39.2	24.3	0.00e+00	92	41	0	480247808	50	5868
2026-01-19 01:50:33.36	229.86	23.82	-38.5	-39.3	24.2	0.00e+00	92	40	0	488636416	50	5940
2026-01-19 01:50:37.40	230.78	24.18	-38.8	-39.7	24.0	0.00e+00	92	40	0	495976448	50	6203
2026-01-19 01:50:41.44	231.73	24.55	-38.4	-39.3	24.3	0.00e+00	92	40	0	503316480	50	5919
2026-01-19 01:50:45.48	232.70	24.91	-38.6	-39.4	24.2	0.00e+00	92	40	0	510656512	50	6019
2026-01-19 01:50:49.51	233.69	25.27	-39.0	-39.9	23.7	0.00e+00	66	40	0	519045120	50	6341
2026-01-19 01:50:53.55	234.70	25.63	-39.3	-40.2	23.5	0.00e+00	90	40	0	526385152	50	6547
2026-01-19 01:50:57.58	235.73	25.98	-39.5	-40.4	23.3	0.00e+00	92	40	0	533725184	50	6722
2026-01-19 01:51:01.63	236.79	26.32	-39.8	-40.7	23.1	0.00e+00	92	40	0	541065216	52	6206
2026-01-19 01:51:05.66	237.87	26.66	-39.7	-40.6	23.2	0.00e+00	0	40	0	548405248	52	6168
2026-01-19 01:51:09.70	238.97	26.99	-40.3	-41.4	22.5	0.00e+00	92	40	0	556793856	52	6704
2026-01-19 01:51:13.74	240.09	27.32	-41.1	-42.2	21.7	0.00e+00	92	40	0	564133888	54	6544
2026-01-19 01:51:17.78	241.24	27.63	-41.3	-42.4	21.6	0.00e+00	92	40	0	571473920	54	6704
2026-01-19 01:51:21.81	242.41	27.94	-41.0	-42.1	21.7	0.00e+00	42	40	0	578813952	54	6487
2026-01-19 01:51:25.85	243.60	28.24	-41.2	-42.3	21.6	0.00e+00	92	40	0	587202560	54	6630
2026-01-19 01:51:29.89	244.81	28.53	-41.3	-42.4	21.6	0.00e+00	92	40	0	594542592	54	6751
2026-01-19 01:51:33.93	246.04	28.80	-40.7	-41.7	22.2	0.00e+00	90	40	0	601882624	54	6241
2026-01-19 01:51:37.97	247.29	29.07	-41.1	-42.2	21.7	0.00e+00	33	40	0	609222656	54	6592
2026-01-19 01:51:42.01	248.57	29.32	-41.0	-42.1	21.9	0.00e+00	92	40	0	616562688	54	6532
2026-01-19 01:51:46.05	249.86	29.56	-41.4	-42.6	21.4	0.00e+00	91	40	0	624951296	54	6870
2026-01-19 01:51:50.09	251.17	29.79	-42.7	-44.1	20.1	0.00e+00	90	40	0	632291328	56	7275
2026-01-19 01:51:54.13	252.50	30.00	-43.6	-45.1	19.1	0.00e+00	30	40	0	639631360	58	7327
2026-01-19 01:51:58.16	253.84	30.19	-43.4	-44.9	19.2	0.00e+00	92	40	0	646971392	58	7165
2026-01-19 01:52:02.20	255.20	30.37	-43.3	-44.8	19.2	0.00e+00	92	40	0	655360000	58	7084
2026-01-19 01:52:06.24	256.57	30.54	-42.7	-44.1	20.0	0.00e+00	48	40	0	662700032	58	6498
2026-01-19 01:52:10.28	257.96	30.68	-43.2	-44.6	19.4	0.00e+00	47	40	0	670040064	58	6907
2026-01-19 01:52:14.32	259.36	30.81	-42.5	-43.9	20.3	0.00e+00	90	40	0	677380096	58	6328
2026-01-19 01:52:18.36	260.77	30.92	-41.8	-43.0	21.1	0.00e+00	91	40	0	684720128	56	6435
2026-01-19 01:52:22.40	262.19	31.01	-42.3	-43.6	20.6	0.00e+00	92	40	0	693108736	56	6881
2026-01-19 01:52:26.44	263.61	31.09	-41.6	-42.8	21.3	0.00e+00	90	40	0	700448768	56	6276
2026-01-19 01:52:30.47	265.04	31.14	-43.1	-44.5	19.7	0.00e+00	90	41	0	707788800	58	6835
2026-01-19 01:52:34.50	266.47	31.17	-42.3	-43.6	20.5	0.00e+00	92	40	0	715128832	58	6112
2026-01-19 01:52:38.54	267.90	31.19	-41.9	-43.0	21.2	0.00e+00	42	40	0	723517440	56	6455
2026-01-19 01:52:42.58	269.34	31.19	-40.9	-41.9	22.1	0.00e+00	91	40	0	730857472	56	5668
2026-01-19 01:52:46.61	270.77	31.16	-40.7	-41.8	22.2	0.00e+00	91	40	0	738197504	54	6268
2026-01-19 01:52:50.65	272.20	31.12	-41.6	-42.8	21.3	0.00e+00	92	40	0	745537536	54	7042
2026-01-19 01:52:54.69	273.63	31.06	-42.4	-43.6	20.6	0.00e+00	0	40	0	752877568	56	6922
2026-01-19 01:52:58.73	275.05	30.98	-41.9	-43.1	21.1	0.00e+00	92	40	0	761266176	56	6535
2026-01-19 01:53:02.77	276.46	30.88	-42.3	-43.6	20.7	0.00e+00	92	40	0	768606208	56	6921
2026-01-19 01:53:06.80	277.86	30.76	-42.0	-43.2	20.9	0.00e+00	92	40	0	775946240	56	6599
2026-01-19 01:53:10.84	279.25	30.63	-42.7	-44.0	20.2	0.00e+00	0	40	0	783286272	56	7218
2026-01-19 01:53:14.88	280.63	30.47	-42.9	-44.3	19.9	0.00e+00	90	40	0	791674880	58	6675
2026-01-19 01:53:18.91	281.99	30.31	-42.0	-43.2	21.0	0.00e+00	92	41	0	799014912	58	5865
2026-01-19 01:53:22.95	283.34	30.12	-43.1	-44.5	19.7	0.00e+00	0	40	0	806354944	58	6818
2026-01-19 01:53:26.99	284.68	29.92	-42.4	-43.7	20.5	0.00e+00	0	40	0	813694976	58	6214
2026-01-19 01:53:31.03	286.00	29.70	-41.6	-42.7	21.4	0.00e+00	92	40	0	821035008	56	6226
2026-01-19 01:53:35.07	287.30	29.47	-41.0	-42.0	22.1	0.00e+00	90	40	0	829423616	56	5750
2026-01-19 01:53:39.11	288.58	29.23	-41.7	-42.9	21.2	0.00e+00	3	40	0	836763648	56	6337
2026-01-19 01:53:43.14	289.84	28.97	-41.1	-42.2	21.8	0.00e+00	31	40	0	844103680	56	5871
2026-01-19 01:53:47.18	291.08	28.71	-40.3	-41.3	22.6	0.00e+00	92	40	0	851443712	54	5951
2026-01-19 01:53:51.23	292.31	28.42	-41.3	-42.4	21.7	0.00e+00	92	40	0	859832320	54	6714
2026-01-19 01:53:55.27	293.51	28.13	-41.7	-42.9	21.3	0.00e+00	0	40	0	867172352	56	6358
2026-01-19 01:53:59.31	294.69	27.83	-41.2	-42.3	21.8	0.00e+00	91	40	0	874512384	56	5947
2026-01-19 01:54:03.35	295.84	27.52	-41.1	-42.2	21.8	0.00e+00	92	40	0	881852416	56	5872
2026-01-19 01:54:07.39	296.98	27.21	-41.9	-43.1	21.1	0.00e+00	90	40	0	889192448	56	6484
2026-01-19 01:54:11.43	298.09	26.88	-41.8	-43.0	21.2	0.00e+00	5	40	0	897581056	56	6418
2026-01-19 01:54:15.47	299.18	26.55	-41.3	-42.4	21.6	0.00e+00	92	40	0	904921088	56	6029
2026-01-19 01:54:19.51	300.24	26.21	-40.8	-41.9	22.1	0.00e+00	92	40	0	912261120	56	5653
2026-01-19 01:54:23.55	301.29	25.86	-40.2	-41.2	22.7	0.00e+00	48	40	0	919601152	54	5875
2026-01-19 01:54:27.59	302.31	25.51	-40.6	-41.7	22.1	0.00e+00	6	40	0	927989760	54	6198
2026-01-19 01:54:31.63	303.31	25.16	-40.3	-41.3	22.6	0.00e+00	92	40	0	935329792	54	5942
2026-01-19 01:54:35.67	304.29	24.80	-40.2	-41.2	22.8	0.00e+00	92	40	0	942669824	54	5860
2026-01-19 01:54:39.70	305.24	24.44	-40.1	-41.0	22.9	0.00e+00	49	40	0	950009856	52	6444
2026-01-19 01:54:43.74	306.18	24.08	-40.5	-41.5	22.4	0.00e+00	40	40	0	957349888	54	6096
2026-01-19 01:54:47.78	307.09	23.71	-40.7	-41.7	22.3	0.00e+00	92	40	0	965738496	54	6238
2026-01-19 01:54:51.81	307.98	23.34	-41.7	-42.9	21.2	0.00e+00	92	40	0	973078528	56	6381
2026-01-19 01:54:55.85	308.86	22.97	-40.8	-41.9	22.0	0.00e+00	2	40	0	980418560	54	6351
2026-01-19 01:54:59.89	309.71	22.60	-40.9	-42.0	21.9	0.00e+00	0	40	0	987758592	54	6457
2026-01-19 01:55:03.93	310.54	22.22	-39.8	-40.7	23.1	0.00e+00	92	40	0	996147200	52	6221
2026-01-19 01:55:07.97	311.36	21.85	-41.2	-42.4	21.6	0.00e+00	48	40	0	1003487232	54	6699
2026-01-19 01:55:12.01	312.15	21.48	-40.7	-41.7	22.2	0.00e+00	34	40	0	1010827264	54	6217
2026-01-19 01:55:16.05	312.93	21.11	-41.4	-42.6	21.4	0.00e+00	0	40	0	1018167296	54	6864
2026-01-19 01:55:20.09	313.69	20.73	-40.1	-41.1	22.7	0.00e+00	92	40	0	1025507328	54	5792
2026-01-19 01:55:24.13	314.43	20.36	-40.2	-41.2	22.6	0.00e+00	50	40	0	1033895936	52	6543
2026-01-19 01:55:28.17	315.15	19.99	-40.2	-41.2	22.6	0.00e+00	32	40	0	1041235968	52	6569
2026-01-19 01:55:32.22	315.86	19.62	-40.0	-41.0	22.8	0.00e+00	92	40	0	1048576000	52	6443
2026-01-19 01:55:36.25	316.55	19.25	-40.4	-41.5	22.4	0.00e+00	92	40	0	1055916032	52	6781
2026-01-19 01:55:40.29	317.22	18.89	-39.7	-40.7	23.1	0.00e+00	47	40	0	1064304640	52	6203
2026-01-19 01:55:44.33	317.88	18.52	-39.4	-40.4	23.3	0.00e+00	35	40	0	1071644672	52	5981
2026-01-19 01:55:48.37	318.53	18.16	-39.2	-40.1	23.5	0.00e+00	92	40	0	1078984704	52	5765
2026-01-19 01:55:52.41	319.15	17.80	-39.2	-40.1	23.5	0.00e+00	92	40	0	1086324736	52	5765
2026-01-19 01:55:56.45	319.77	17.44	-39.4	-40.3	23.4	0.00e+00	0	40	0	1093664768	52	5927
2026-01-19 01:56:00.48	320.37	17.08	-39.8	-40.7	23.0	0.00e+00	48	40	0	1102053376	52	6220
2026-01-19 01:56:04.52	320.96	16.73	-39.9	-40.9	22.7	0.00e+00	92	40	0	1109393408	52	6359
2026-01-19 01:56:08.56	321.53	16.38	-39.5	-40.5	23.2	0.00e+00	92	40	0	1116733440	52	6037
2026-01-19 01:56:12.59	322.09	16.03	-39.5	-40.5	23.2	0.00e+00	6	40	0	1124073472	52	6035
2026-01-19 01:56:16.64	322.64	15.68	-39.8	-40.8	22.8	0.00e+00	0	40	0	1132462080	52	6299
2026-01-19 01:56:20.67	323.17	15.34	-39.7	-40.7	23.0	0.00e+00	92	40	0	1139802112	52	6182
2026-01-19 01:56:24.71	323.70	15.00	-40.1	-41.1	22.5	0.00e+00	46	40	0	1147142144	52	6524
2026-01-19 01:56:28.75	324.21	14.66	-40.5	-41.6	22.0	0.00e+00	35	40	0	1154482176	52	6871
2026-01-19 01:56:32.78	324.71	14.32	-40.6	-41.7	22.0	0.00e+00	0	40	0	1161822208	54	6190
2026-01-19 01:56:36.82	325.21	13.99	-40.7	-41.7	21.9	0.00e+00	92	40	0	1170210816	54	6242
2026-01-19 01:56:40.86	325.69	13.66	-40.9	-42.0	21.6	0.00e+00	0	40	0	1177550848	54	6442
2026-01-19 01:56:44.90	326.16	13.33	-41.0	-42.2	21.4	0.00e+00	0	40	0	1184890880	54	6576
2026-01-19 01:56:48.94	326.62	13.00	-41.3	-42.6	21.1	0.00e+00	35	40	0	1192230912	54	6852
2026-01-19 01:56:52.97	327.07	12.68	-41.1	-42.3	21.3	0.00e+00	90	40	0	1200619520	54	6661
2026-01-19 01:56:57.01	327.51	12.36	-41.0	-42.2	21.4	0.00e+00	40	40	0	1207959552	54	6548
2026-01-19 01:57:01.05	327.94	12.04	-41.1	-42.3	21.2	0.00e+00	0	40	0	1215299584	54	6645
2026-01-19 01:57:05.09	328.37	11.73	-41.4	-42.7	20.8	0.00e+00	90	40	0	1222639616	54	6960
2026-01-19 01:57:09.13	328.79	11.42	-41.8	-43.1	20.5	0.00e+00	43	40	0	1229979648	56	6470
2026-01-19 01:57:13.18	329.19	11.11	-41.1	-42.2	21.3	0.00e+00	37	40	0	1238368256	56	5890
2026-01-19 01:57:17.22	329.59	10.80	-40.5	-41.6	21.8	0.00e+00	39	40	0	1245708288	54	6126
2026-01-19 01:57:21.26	329.98	10.50	-40.4	-41.4	21.8	0.00e+00	90	40	0	1253048320	54	6022
2026-01-19 01:57:25.30	330.37	10.19	-40.8	-42.0	21.2	0.00e+00	43	40	0	1260388352	54	6416
2026-01-19 01:57:29.34	330.75	9.90	-41.1	-42.3	20.9	0.00e+00	39	40	0	1268776960	54	6655
2026-01-19 01:57:33.38	331.11	9.60	-41.2	-42.5	20.8	0.00e+00	38	40	0	1276116992	54	6803
2026-01-19 01:57:37.42	331.48	9.31	-40.7	-41.8	21.3	0.00e+00	92	40	0	1283457024	54	6290
2026-01-19 01:57:41.46	331.83	9.02	-41.2	-42.5	20.9	0.00e+00	6	40	0	1290797056	54	6772
2026-01-19 01:57:45.49	332.18	8.73	-41.9	-43.3	20.1	0.00e+00	0	40	0	1298137088	56	6675
2026-01-19 01:57:49.54	332.52	8.44	-42.2	-43.7	19.1	0.00e+00	34	40	0	1306525696	56	6994
2026-01-19 01:57:53.58	332.86	8.16	-42.4	-44.0	18.8	0.00e+00	92	40	0	1313865728	56	7185
2026-01-19 01:57:57.62	333.19	7.88	-42.1	-43.5	19.4	0.00e+00	6	40	0	1321205760	56	6813
2026-01-19 01:58:01.65	333.51	7.60	-41.7	-43.2	19.7	0.00e+00	0	40	0	1328545792	56	6546
2026-01-19 01:58:05.69	333.83	7.32	-41.7	-43.0	20.0	0.00e+00	0	40	0	1336934400	56	6445
2026-01-19 01:58:09.73	334.15	7.05	-41.8	-43.2	19.6	0.00e+00	63	40	0	1344274432	56	6585
2026-01-19 01:58:13.77	334.45	6.77	-41.9	-43.4	19.2	0.00e+00	39	40	0	1351614464	56	6707
2026-01-19 01:58:17.81	334.76	6.50	-42.2	-43.8	18.6	0.00e+00	39	40	0	1358954496	58	6295
2026-01-19 01:58:21.85	335.05	6.24	-42.5	-44.3	18.0	0.00e+00	0	40	0	1366294528	58	6660
2026-01-19 01:58:25.89	335.35	5.97	-42.5	-44.4	17.2	0.00e+00	0	40	0	1374683136	58	6765
2026-01-19 01:58:29.92	335.63	5.71	-43.3	-45.7	15.8	0.00e+00	40	40	0	1382023168	58	7843
2026-01-19 01:58:33.97	335.91	5.45	-43.7	-46.9	13.9	0.00e+00	35	40	0	1389363200	58	8941
2026-01-19 01:58:38.00	336.19	5.19	-44.1	-47.8	12.7	1.16e-04	91	40	0	1396703232	60	8857
2026-01-19 01:58:42.04	336.47	4.93	-44.8	-49.8	9.9	4.24e-03	2	41	0	1405091840	60	11194
2026-01-19 01:58:46.07	336.73	4.68	-45.1	-52.3	6.3	1.33e-01	40	41	0	1412431872	60	14898
2026-01-19 01:58:50.10	337.00	4.42	-45.1	-54.0	4.6	7.14e-01	0	41	0	1419771904	60	18030
2026-01-19 01:58:54.14	337.26	4.17	-45.1	-57.4	3.7	1.45e+00	0	41	104	1425014784	60	26657
2026-01-19 01:58:58.18	337.51	3.92	-45.1	-58.5	3.6	1.50e+00	0	40	104	1425014784	60	30298
2026-01-19 01:59:02.22	337.77	3.68	-45.1	-59.6	3.6	1.51e+00	0	41	104	1425014784	60	34690
2026-01-19 01:59:06.26	338.01	3.43	-45.1	-59.8	3.6	1.51e+00	0	41	104	1425014784	60	35372
2026-01-19 01:59:10.29	338.26	3.19	-45.1	-60.0	3.6	1.51e+00	0	41	104	1425014784	60	36269
2026-01-19 01:59:14.33	338.50	2.94	-45.1	-60.2	3.6	1.51e+00	0	41	104	1425014784	60	36853
2026-01-19 01:59:18.38	338.74	2.70	-49.7	-65.0	3.6	1.51e+00	0	41	104	1425014784	60	64139
2026-01-19 01:59:22.42	338.97	2.46	-50.1	-65.3	3.6	1.51e+00	0	41	104	1425014784	60	66419
2026-01-19 01:59:26.46	339.20	2.23	-50.2	-65.4	3.6	1.51e+00	0	40	104	1425014784	60	67659
2026-01-19 01:59:30.50	339.43	1.99	-49.9	-65.2	3.6	1.51e+00	0	41	104	1425014784	60	66033
2026-01-19 01:59:34.54	339.65	1.76	-50.0	-65.2	3.6	1.51e+00	0	41	104	1425014784	60	66121
2026-01-19 01:59:38.58	339.87	1.53	-50.1	-65.3	3.6	1.51e+00	0	41	104	1425014784	60	66579
2026-01-19 01:59:42.61	340.09	1.29	-50.1	-65.3	3.6	1.51e+00	0	41	104	1425014784	60	66813
2026-01-19 01:59:46.65	340.31	1.07	-50.1	-65.3	3.6	1.51e+00	0	41	104	1425014784	60	66543
2026-01-19 01:59:50.69	340.52	0.84	-50.1	-65.3	3.6	1.51e+00	0	41	104	1425014784	60	66330
2026-01-19 01:59:54.73	340.73	0.61	-50.0	-65.3	3.6	1.51e+00	0	41	104	1425014784	60	66482
2026-01-19 01:59:58.77	340.93	0.39	-50.1	-65.3	3.6	1.51e+00	0	40	104	1425014784	60	66454
2026-01-19 02:00:02.81	341.13	0.16	-50.1	-65.3	3.6	1.51e+00	0	40	104	1425014784	60	66615
2026-01-19 02:00:06.84	341.33	-0.06	-50.1	-65.3	3.6	1.51e+00	0	41	104	1425014784	60	66490

#Closed at: 2026-01-19 02:00:08
#Recorded file [1425 MB]: D:/lorett/data/35029_260119_134518.dat