passes_logs/2026/01/19/R4.6S_Anadyr/R4.6S_Anadyr__20260119_022209_FENGYUN_3D_rec.log

#Pass ID: 20260119_022209_FENGYUN 3D
#Satellite: FENGYUN 3D
#Configuration: FENGYUN 3D
#almurnet v.1.7.20251203
#Start time: 2026-01-19 02:22:12

#Version: 2.2.20231116
#Station: R4.6S_Anadyr
#Location: 177.4865 lon 64.73178 lat
#TLE: 1 43010U 17072A   26018.59788810  .00000129  00000+0  82801-4 0  9992
#TLE: 2 43010  98.9937 350.4692 0002400 102.4643 257.6801 14.19696801423766

#Time	Az	El	Level	Level2	SNR	BER	BlckErr	Temp	State	Recorded	gain1	gain2
2026-01-19 02:22:12.42	158.67	0.18	-50.1	-60.8	3.3	8.39e-01	0	39	0	0	60	39845
2026-01-19 02:22:16.45	158.70	0.42	-50.2	-62.3	3.6	8.44e-01	0	40	104	0	60	47131
2026-01-19 02:22:20.49	158.73	0.67	-50.1	-62.3	3.5	8.44e-01	0	40	104	0	60	47015
2026-01-19 02:22:24.53	158.76	0.92	-49.8	-62.0	3.6	8.46e-01	0	40	104	0	60	45259
2026-01-19 02:22:28.57	158.79	1.17	-48.6	-60.6	3.6	8.46e-01	0	40	104	0	60	38752
2026-01-19 02:22:32.61	158.82	1.42	-48.4	-60.3	3.6	8.47e-01	0	40	104	0	60	37362
2026-01-19 02:22:36.65	158.85	1.68	-48.4	-60.4	3.6	8.46e-01	0	40	104	0	60	37919
2026-01-19 02:22:40.68	158.88	1.94	-48.4	-60.5	3.6	8.46e-01	0	40	104	0	60	38163
2026-01-19 02:22:44.72	158.91	2.20	-48.4	-60.4	3.6	8.45e-01	0	40	104	0	60	37888
2026-01-19 02:22:48.76	158.94	2.46	-48.2	-58.7	3.6	8.46e-01	0	40	104	0	60	31007
2026-01-19 02:22:52.80	158.97	2.72	-48.1	-58.1	3.8	8.42e-01	0	40	104	0	60	28913
2026-01-19 02:22:56.84	159.00	2.99	-47.5	-54.3	5.6	8.26e-01	0	40	104	0	60	18799
2026-01-19 02:23:00.88	159.04	3.26	-43.1	-44.8	14.7	1.10e-06	0	40	0	20971520	60	6317
2026-01-19 02:23:04.92	159.07	3.53	-40.5	-41.7	17.6	0.00e+00	0	40	0	42991616	54	6244
2026-01-19 02:23:08.96	159.10	3.81	-46.6	-50.5	8.5	1.02e-01	0	40	0	58720256	60	12103
2026-01-19 02:23:13.00	159.14	4.09	-38.6	-39.6	19.9	0.00e+00	0	40	104	71303168	50	6118
2026-01-19 02:23:17.04	159.17	4.37	-38.7	-39.6	19.6	0.00e+00	0	40	0	93323264	50	6164
2026-01-19 02:23:21.08	159.20	4.65	-39.2	-40.1	19.9	0.00e+00	0	40	0	116391936	50	6523
2026-01-19 02:23:25.12	159.24	4.94	-38.3	-39.2	20.3	0.00e+00	0	40	0	138412032	50	5881
2026-01-19 02:23:29.16	159.27	5.23	-37.7	-38.5	21.3	0.00e+00	0	40	0	161480704	50	5401
2026-01-19 02:23:33.20	159.31	5.52	-38.2	-39.1	21.2	0.00e+00	0	40	0	184549376	48	6501
2026-01-19 02:23:37.25	159.34	5.82	-38.2	-39.1	21.5	0.00e+00	0	40	0	206569472	48	6521
2026-01-19 02:23:41.28	159.38	6.12	-38.0	-38.8	21.5	0.00e+00	0	40	0	229638144	48	6316
2026-01-19 02:23:45.32	159.42	6.42	-37.8	-38.6	21.4	0.00e+00	0	40	0	252706816	48	6171
2026-01-19 02:23:49.36	159.45	6.73	-37.5	-38.4	21.8	0.00e+00	0	41	0	274726912	48	5965
2026-01-19 02:23:53.41	159.49	7.04	-36.6	-37.4	22.6	0.00e+00	0	40	0	297795584	46	5988
2026-01-19 02:23:57.45	159.53	7.36	-36.7	-37.5	22.6	0.00e+00	0	40	0	320864256	46	6043
2026-01-19 02:24:01.49	159.57	7.68	-36.2	-36.9	23.1	0.00e+00	0	40	0	343932928	46	5660
2026-01-19 02:24:05.53	159.61	8.00	-36.3	-37.0	23.0	0.00e+00	0	40	0	365953024	46	5745
2026-01-19 02:24:09.57	159.65	8.33	-36.3	-37.0	23.1	0.00e+00	0	41	0	389021696	46	5747
2026-01-19 02:24:13.61	159.69	8.66	-36.1	-36.8	23.3	0.00e+00	0	40	0	411041792	46	5615
2026-01-19 02:24:17.65	159.73	8.99	-36.0	-36.7	23.4	0.00e+00	0	40	0	434110464	46	5545
2026-01-19 02:24:21.69	159.77	9.34	-35.7	-36.4	23.7	0.00e+00	0	41	0	457179136	44	6015
2026-01-19 02:24:25.73	159.82	9.68	-35.5	-36.2	23.8	0.00e+00	0	40	0	479199232	44	5876
2026-01-19 02:24:29.77	159.86	10.03	-35.7	-36.4	23.8	0.00e+00	0	40	0	502267904	44	5981
2026-01-19 02:24:33.80	159.90	10.38	-35.4	-36.1	24.0	0.00e+00	0	40	0	525336576	44	5808
2026-01-19 02:24:37.85	159.95	10.75	-35.6	-36.3	24.0	0.00e+00	0	40	0	548405248	44	5906
2026-01-19 02:24:41.89	159.99	11.11	-35.2	-36.0	24.2	0.00e+00	0	40	0	570425344	44	5696
2026-01-19 02:24:45.93	160.04	11.48	-35.2	-35.9	24.3	0.00e+00	0	40	0	593494016	44	5640
2026-01-19 02:24:49.97	160.09	11.86	-35.4	-36.0	24.1	0.00e+00	0	40	0	615514112	44	5747
2026-01-19 02:24:54.01	160.14	12.24	-35.1	-35.8	24.5	0.00e+00	0	40	0	638582784	44	5581
2026-01-19 02:24:58.05	160.19	12.63	-34.7	-35.4	24.7	0.00e+00	0	40	0	661651456	42	6012
2026-01-19 02:25:02.09	160.24	13.03	-34.6	-35.2	25.0	0.00e+00	0	40	0	684720128	42	5864
2026-01-19 02:25:06.13	160.29	13.43	-34.5	-35.2	25.1	0.00e+00	0	40	0	706740224	42	5843
2026-01-19 02:25:10.17	160.34	13.84	-34.1	-34.8	25.4	0.00e+00	0	40	0	729808896	42	5589
2026-01-19 02:25:14.21	160.39	14.25	-34.1	-34.8	25.5	0.00e+00	0	40	0	752877568	42	5580
2026-01-19 02:25:18.25	160.45	14.68	-34.0	-34.6	25.6	0.00e+00	0	40	0	774897664	42	5478
2026-01-19 02:25:22.29	160.50	15.11	-33.7	-34.3	25.8	0.00e+00	0	40	0	797966336	40	5959
2026-01-19 02:25:26.33	160.56	15.54	-33.8	-34.5	25.8	0.00e+00	0	40	0	819986432	40	6044
2026-01-19 02:25:30.37	160.62	15.99	-33.5	-34.2	25.9	0.00e+00	0	40	0	843055104	40	5849
2026-01-19 02:25:34.41	160.68	16.44	-33.5	-34.2	26.0	0.00e+00	0	40	0	866123776	40	5841
2026-01-19 02:25:38.44	160.74	16.91	-33.5	-34.1	26.0	0.00e+00	0	40	0	889192448	40	5816
2026-01-19 02:25:42.48	160.80	17.38	-33.4	-34.1	26.1	0.00e+00	0	40	0	911212544	40	5762
2026-01-19 02:25:46.52	160.87	17.86	-33.3	-34.0	26.1	0.00e+00	0	40	0	934281216	40	5697
2026-01-19 02:25:50.56	160.93	18.35	-33.0	-33.6	26.6	0.00e+00	0	40	0	957349888	40	5465
2026-01-19 02:25:54.60	161.00	18.85	-32.9	-33.5	26.6	0.00e+00	0	40	0	979369984	40	5420
2026-01-19 02:25:58.64	161.07	19.36	-32.7	-33.3	26.8	0.00e+00	0	41	0	1002438656	38	5922
2026-01-19 02:26:02.69	161.14	19.88	-32.6	-33.2	26.9	0.00e+00	0	40	0	1025507328	38	5880
2026-01-19 02:26:06.73	161.21	20.42	-32.8	-33.4	26.8	0.00e+00	0	41	0	1047527424	38	6010
2026-01-19 02:26:10.77	161.29	20.96	-32.6	-33.2	27.0	0.00e+00	0	41	0	1070596096	38	5843
2026-01-19 02:26:14.81	161.37	21.52	-32.5	-33.2	26.9	0.00e+00	0	41	0	1093664768	38	5849
2026-01-19 02:26:18.85	161.45	22.09	-32.4	-33.1	27.0	0.00e+00	0	40	0	1115684864	38	5765
2026-01-19 02:26:22.89	161.53	22.67	-32.2	-32.9	27.3	0.00e+00	0	40	0	1138753536	38	5636
2026-01-19 02:26:26.93	161.61	23.26	-32.2	-32.8	27.3	0.00e+00	0	40	0	1161822208	38	5591
2026-01-19 02:26:30.97	161.70	23.87	-32.2	-32.8	27.3	0.00e+00	0	40	0	1183842304	38	5613
2026-01-19 02:26:35.02	161.79	24.50	-32.1	-32.7	27.4	0.00e+00	0	40	0	1206910976	38	5529
2026-01-19 02:26:39.06	161.89	25.14	-31.9	-32.5	27.5	0.00e+00	0	41	0	1229979648	38	5432
2026-01-19 02:26:43.10	161.98	25.79	-31.8	-32.4	27.5	0.00e+00	0	40	0	1251999744	38	5359
2026-01-19 02:26:47.14	162.08	26.46	-31.7	-32.3	27.7	0.00e+00	0	40	0	1275068416	38	5310
2026-01-19 02:26:51.18	162.19	27.15	-31.5	-32.1	27.8	0.00e+00	0	40	0	1298137088	36	5823
2026-01-19 02:26:55.21	162.30	27.86	-31.5	-32.1	27.9	0.00e+00	0	40	0	1320157184	36	5816
2026-01-19 02:26:59.25	162.41	28.58	-31.9	-32.5	27.6	0.00e+00	0	40	0	1343225856	36	6048
2026-01-19 02:27:03.29	162.53	29.32	-31.8	-32.4	27.6	0.00e+00	0	40	0	1366294528	36	5980
2026-01-19 02:27:07.33	162.65	30.09	-31.7	-32.3	27.8	0.00e+00	0	40	0	1389363200	36	5927
2026-01-19 02:27:11.38	162.78	30.88	-31.5	-32.1	27.9	0.00e+00	0	40	0	1411383296	36	5792
2026-01-19 02:27:15.42	162.91	31.68	-31.3	-31.9	28.0	0.00e+00	0	41	0	1434451968	36	5689
2026-01-19 02:27:19.46	163.05	32.51	-31.3	-31.9	28.1	0.00e+00	0	41	0	1456472064	36	5658
2026-01-19 02:27:23.50	163.19	33.36	-31.7	-32.4	27.8	0.00e+00	0	41	0	1479540736	36	5968
2026-01-19 02:27:27.55	163.35	34.24	-31.5	-32.1	27.9	0.00e+00	0	40	0	1502609408	36	5811
2026-01-19 02:27:31.59	163.51	35.14	-31.4	-32.0	28.0	0.00e+00	0	40	0	1525678080	36	5729
2026-01-19 02:27:35.63	163.68	36.07	-31.0	-31.6	28.3	0.00e+00	0	40	0	1547698176	36	5460
2026-01-19 02:27:39.67	163.86	37.03	-31.0	-31.6	28.3	0.00e+00	0	41	0	1570766848	36	5471
2026-01-19 02:27:43.70	164.05	38.01	-31.2	-31.8	28.2	0.00e+00	0	40	0	1593835520	36	5574
2026-01-19 02:27:47.74	164.24	39.02	-31.2	-31.8	28.2	0.00e+00	0	41	0	1615855616	36	5571
2026-01-19 02:27:51.79	164.46	40.07	-31.5	-32.1	27.9	0.00e+00	0	40	0	1638924288	36	5820
2026-01-19 02:27:55.83	164.68	41.14	-31.9	-32.5	27.7	0.00e+00	0	41	0	1660944384	36	6091
2026-01-19 02:27:59.87	164.92	42.25	-31.4	-32.0	28.1	0.00e+00	0	41	0	1684013056	36	5713
2026-01-19 02:28:03.91	165.18	43.39	-31.5	-32.1	28.0	0.00e+00	0	40	0	1707081728	36	5768
2026-01-19 02:28:07.95	165.45	44.57	-31.8	-32.4	27.7	0.00e+00	0	40	0	1730150400	36	5996
2026-01-19 02:28:11.99	165.74	45.78	-31.7	-32.3	27.8	0.00e+00	0	40	0	1752170496	36	5948
2026-01-19 02:28:16.03	166.06	47.02	-31.9	-32.5	27.6	0.00e+00	0	40	0	1775239168	36	6058
2026-01-19 02:28:20.07	166.40	48.31	-31.6	-32.3	27.9	0.00e+00	0	40	0	1798307840	36	5898
2026-01-19 02:28:24.11	166.77	49.63	-31.8	-32.4	27.7	0.00e+00	0	40	0	1820327936	36	5984
2026-01-19 02:28:28.15	167.17	50.99	-31.9	-32.5	27.7	0.00e+00	0	40	0	1843396608	36	6084
2026-01-19 02:28:32.18	167.61	52.39	-32.6	-33.2	27.1	0.00e+00	0	40	0	1866465280	38	5872
2026-01-19 02:28:36.22	168.10	53.83	-33.1	-33.7	26.7	0.00e+00	0	40	0	1888485376	38	6220
2026-01-19 02:28:40.27	168.63	55.31	-33.1	-33.8	26.6	0.00e+00	0	40	0	1911554048	38	6258
2026-01-19 02:28:44.31	169.22	56.83	-32.7	-33.3	27.1	0.00e+00	0	41	0	1934622720	38	5927
2026-01-19 02:28:48.35	169.88	58.38	-31.9	-32.5	27.6	0.00e+00	0	41	0	1956642816	38	5430
2026-01-19 02:28:52.39	170.62	59.98	-31.9	-32.5	27.6	0.00e+00	0	40	0	1979711488	38	5435
2026-01-19 02:28:56.43	171.46	61.61	-31.3	-31.9	28.0	0.00e+00	0	40	0	2002780160	36	5679
2026-01-19 02:29:00.47	172.41	63.28	-30.9	-31.5	28.4	0.00e+00	0	40	0	2024800256	36	5399
2026-01-19 02:29:04.51	173.51	64.97	-30.6	-31.2	28.6	0.00e+00	0	40	0	2047868928	34	5871
2026-01-19 02:29:08.55	174.78	66.70	-31.0	-31.6	28.4	0.00e+00	0	40	0	2070937600	34	6116
2026-01-19 02:29:12.60	176.29	68.46	-30.6	-31.2	28.7	0.00e+00	0	40	0	2092957696	34	5842
2026-01-19 02:29:16.64	178.08	70.23	-30.9	-31.5	28.4	0.00e+00	0	41	0	2116026368	34	6051
2026-01-19 02:29:20.68	180.24	72.01	-30.5	-31.0	28.7	0.00e+00	0	41	0	2139095040	34	5754
2026-01-19 02:29:24.72	182.91	73.79	-29.9	-30.5	29.1	0.00e+00	0	41	0	2161115136	34	5384
2026-01-19 02:29:28.76	186.26	75.56	-29.7	-30.3	29.2	0.00e+00	0	40	0	2184183808	32	5905
2026-01-19 02:29:32.80	190.57	77.29	-29.5	-30.1	29.4	0.00e+00	0	40	0	2207252480	32	5812
2026-01-19 02:29:36.84	196.23	78.94	-28.9	-29.5	29.7	0.00e+00	0	41	0	2230321152	30	6073
2026-01-19 02:29:40.88	203.83	80.47	-28.7	-29.3	29.9	0.00e+00	0	41	0	2252341248	30	5908
2026-01-19 02:29:44.92	214.12	81.78	-28.9	-29.4	29.8	0.00e+00	0	40	0	2275409920	30	6033
2026-01-19 02:29:48.96	227.73	82.74	-28.7	-29.2	29.9	0.00e+00	0	40	0	2297430016	30	5886
2026-01-19 02:29:53.01	244.33	83.20	-29.2	-29.7	29.5	0.00e+00	0	41	0	2320498688	30	6242
2026-01-19 02:29:57.05	261.65	83.05	-28.8	-29.4	29.7	0.00e+00	0	40	0	2343567360	30	6018
2026-01-19 02:30:01.08	276.89	82.33	-28.7	-29.2	29.9	0.00e+00	0	40	0	2366636032	30	5879
2026-01-19 02:30:05.13	288.86	81.17	-28.8	-29.4	29.7	0.00e+00	0	40	0	2388656128	30	5987
2026-01-19 02:30:09.17	297.73	79.74	-29.0	-29.6	29.6	0.00e+00	0	40	0	2411724800	30	6131
2026-01-19 02:30:13.20	304.29	78.15	-29.4	-30.1	29.4	0.00e+00	0	40	0	2434793472	30	6496
2026-01-19 02:30:17.24	309.23	76.46	-29.6	-30.3	29.3	0.00e+00	0	40	0	2456813568	30	6617
2026-01-19 02:30:21.28	313.03	74.71	-30.2	-30.8	28.8	0.00e+00	0	40	0	2479882240	32	6315
2026-01-19 02:30:25.32	316.02	72.94	-30.5	-31.2	28.7	0.00e+00	0	40	0	2501902336	32	6557
2026-01-19 02:30:29.36	318.42	71.16	-30.1	-30.7	28.9	0.00e+00	0	40	0	2524971008	32	6200
2026-01-19 02:30:33.40	320.39	69.38	-30.5	-31.2	28.6	0.00e+00	0	40	0	2548039680	32	6545
2026-01-19 02:30:37.45	322.03	67.62	-30.6	-31.1	28.5	0.00e+00	0	40	0	2571108352	34	5814
2026-01-19 02:30:41.49	323.42	65.88	-30.3	-30.9	28.8	0.00e+00	0	40	0	2593128448	34	5632
2026-01-19 02:30:45.53	324.60	64.17	-31.1	-31.7	28.2	0.00e+00	0	40	0	2616197120	34	6189
2026-01-19 02:30:49.57	325.63	62.49	-31.5	-32.1	27.9	0.00e+00	0	41	0	2639265792	34	6475
2026-01-19 02:30:53.60	326.52	60.85	-31.4	-32.1	28.0	0.00e+00	0	40	0	2661285888	34	6507
2026-01-19 02:30:57.64	327.31	59.24	-31.5	-32.1	27.9	0.00e+00	0	40	0	2684354560	34	6467
2026-01-19 02:31:01.68	328.01	57.67	-32.1	-32.7	27.5	0.00e+00	0	40	0	2706374656	36	6214
2026-01-19 02:31:05.72	328.63	56.13	-32.7	-33.3	26.9	0.00e+00	0	40	0	2729443328	36	6659
2026-01-19 02:31:09.76	329.19	54.64	-32.3	-33.0	27.2	0.00e+00	0	40	0	2752512000	38	5712
2026-01-19 02:31:13.80	329.70	53.18	-32.6	-33.1	27.1	0.00e+00	0	40	0	2775580672	38	5815
2026-01-19 02:31:17.84	330.16	51.77	-32.5	-33.2	27.2	0.00e+00	0	40	0	2797600768	38	5852
2026-01-19 02:31:21.88	330.59	50.39	-31.8	-32.5	27.8	0.00e+00	0	41	0	2820669440	36	6051
2026-01-19 02:31:25.92	330.97	49.05	-31.9	-32.6	27.6	0.00e+00	0	40	0	2843738112	36	6136
2026-01-19 02:31:29.96	331.33	47.75	-31.6	-32.1	27.8	0.00e+00	0	40	0	2865758208	36	5807
2026-01-19 02:31:34.01	331.66	46.48	-31.6	-32.2	27.9	0.00e+00	0	40	0	2888826880	36	5843
2026-01-19 02:31:38.05	331.97	45.26	-31.4	-32.1	28.0	0.00e+00	0	40	0	2911895552	36	5777
2026-01-19 02:31:42.09	332.25	44.07	-31.3	-31.8	28.1	0.00e+00	0	41	0	2933915648	36	5613
2026-01-19 02:31:46.13	332.52	42.91	-31.3	-32.0	28.1	0.00e+00	0	41	0	2956984320	36	5698
2026-01-19 02:31:50.17	332.77	41.79	-31.4	-31.9	28.1	0.00e+00	0	40	0	2980052992	36	5662
2026-01-19 02:31:54.21	333.00	40.70	-31.2	-31.7	28.2	0.00e+00	0	40	0	3002073088	36	5539
2026-01-19 02:31:58.25	333.22	39.65	-31.3	-31.9	28.1	0.00e+00	0	40	0	3025141760	36	5666
2026-01-19 02:32:02.29	333.42	38.62	-31.0	-31.5	28.3	0.00e+00	0	40	0	3048210432	36	5413
2026-01-19 02:32:06.32	333.62	37.63	-30.9	-31.4	28.4	0.00e+00	0	40	0	3070230528	36	5375
2026-01-19 02:32:10.37	333.80	36.66	-30.8	-31.3	28.5	0.00e+00	0	40	0	3093299200	34	5924
2026-01-19 02:32:14.41	333.98	35.72	-31.3	-31.8	28.1	0.00e+00	0	40	0	3116367872	34	6302
2026-01-19 02:32:18.45	334.15	34.80	-31.5	-32.1	27.9	0.00e+00	0	40	0	3138387968	34	6493
2026-01-19 02:32:22.49	334.30	33.92	-30.9	-31.5	28.4	0.00e+00	0	41	0	3161456640	34	6042
2026-01-19 02:32:26.53	334.46	33.05	-31.0	-31.7	28.3	0.00e+00	0	41	0	3184525312	34	6180
2026-01-19 02:32:30.57	334.60	32.22	-31.4	-32.1	27.9	0.00e+00	0	40	0	3206545408	34	6500
2026-01-19 02:32:34.62	334.74	31.40	-31.5	-32.2	27.9	0.00e+00	0	40	0	3229614080	34	6568
2026-01-19 02:32:38.66	334.87	30.60	-31.8	-32.4	27.7	0.00e+00	0	40	0	3252682752	36	5969
2026-01-19 02:32:42.70	335.00	29.83	-31.6	-32.3	27.7	0.00e+00	0	40	0	3275751424	36	5934
2026-01-19 02:32:46.74	335.12	29.08	-31.6	-32.2	27.9	0.00e+00	0	41	0	3297771520	36	5835
2026-01-19 02:32:50.78	335.23	28.35	-31.7	-32.4	27.7	0.00e+00	0	40	0	3320840192	36	6006
2026-01-19 02:32:54.82	335.35	27.63	-31.5	-32.1	27.9	0.00e+00	0	41	0	3342860288	36	5767
2026-01-19 02:32:58.86	335.45	26.94	-31.6	-32.2	27.8	0.00e+00	0	40	0	3365928960	36	5889
2026-01-19 02:33:02.90	335.56	26.26	-31.5	-32.0	27.8	0.00e+00	0	41	0	3388997632	36	5754
2026-01-19 02:33:06.95	335.66	25.60	-31.7	-32.2	27.8	0.00e+00	0	40	0	3412066304	36	5843
2026-01-19 02:33:10.99	335.76	24.95	-32.0	-32.5	27.5	0.00e+00	0	40	0	3434086400	36	6090
2026-01-19 02:33:15.03	335.85	24.32	-32.2	-32.7	27.3	0.00e+00	0	40	0	3457155072	36	6237
2026-01-19 02:33:19.06	335.94	23.71	-32.4	-33.0	27.2	0.00e+00	0	40	0	3480223744	36	6417
2026-01-19 02:33:23.10	336.03	23.11	-32.5	-33.1	27.0	0.00e+00	0	40	0	3502243840	38	5803
2026-01-19 02:33:27.14	336.12	22.52	-32.5	-33.3	26.9	0.00e+00	0	41	0	3525312512	38	5903
2026-01-19 02:33:31.18	336.20	21.94	-32.5	-33.2	26.9	0.00e+00	0	41	0	3548381184	38	5891
2026-01-19 02:33:35.23	336.28	21.38	-32.8	-33.5	26.7	0.00e+00	0	40	0	3570401280	38	6069
2026-01-19 02:33:39.27	336.36	20.83	-32.7	-33.3	26.8	0.00e+00	0	40	0	3593469952	38	5932
2026-01-19 02:33:43.30	336.44	20.30	-32.7	-33.5	26.7	0.00e+00	0	40	0	3616538624	38	6036
2026-01-19 02:33:47.34	336.51	19.77	-32.8	-33.5	26.7	0.00e+00	0	40	0	3638558720	38	6095
2026-01-19 02:33:51.38	336.58	19.25	-33.0	-33.8	26.5	0.00e+00	0	40	0	3661627392	38	6246
2026-01-19 02:33:55.42	336.65	18.75	-33.1	-33.8	26.4	0.00e+00	0	40	0	3684696064	38	6275
2026-01-19 02:33:59.45	336.72	18.26	-33.3	-34.0	26.2	0.00e+00	0	40	0	3706716160	38	6449
2026-01-19 02:34:03.49	336.79	17.77	-33.3	-34.0	26.2	0.00e+00	0	40	0	3729784832	38	6446
2026-01-19 02:34:07.53	336.85	17.29	-33.5	-34.2	26.1	0.00e+00	0	40	0	3752853504	38	6602
2026-01-19 02:34:11.58	336.92	16.83	-33.6	-34.4	25.9	0.00e+00	0	41	0	3774873600	40	5979
2026-01-19 02:34:15.62	336.98	16.37	-33.9	-34.6	25.7	0.00e+00	0	41	0	3797942272	40	6156
2026-01-19 02:34:19.66	337.04	15.92	-34.3	-35.1	25.3	0.00e+00	0	40	0	3821010944	40	6491
2026-01-19 02:34:23.70	337.10	15.48	-34.1	-34.9	25.5	0.00e+00	0	40	0	3843031040	40	6338
2026-01-19 02:34:27.74	337.16	15.05	-34.4	-35.1	25.2	0.00e+00	0	41	0	3866099712	40	6502
2026-01-19 02:34:31.78	337.22	14.62	-34.5	-35.2	25.1	0.00e+00	0	40	0	3889168384	40	6590
2026-01-19 02:34:35.82	337.28	14.20	-34.7	-35.3	25.0	0.00e+00	0	40	0	3911188480	40	6644
2026-01-19 02:34:39.86	337.33	13.79	-35.0	-35.8	24.7	0.00e+00	0	40	0	3934257152	42	6272
2026-01-19 02:34:43.90	337.39	13.39	-35.0	-35.8	24.6	0.00e+00	0	40	0	3957325824	42	6298
2026-01-19 02:34:47.94	337.44	12.99	-35.0	-35.7	24.6	0.00e+00	0	40	0	3979345920	42	6187
2026-01-19 02:34:51.97	337.49	12.60	-35.2	-36.0	24.4	0.00e+00	0	40	0	4002414592	42	6410
2026-01-19 02:34:56.02	337.54	12.21	-35.1	-35.8	24.4	0.00e+00	0	40	0	4025483264	42	6265
2026-01-19 02:35:00.06	337.59	11.83	-35.1	-35.9	24.3	0.00e+00	0	41	0	4047503360	42	6385
2026-01-19 02:35:04.09	337.64	11.46	-35.3	-36.2	24.2	0.00e+00	0	40	0	4070572032	42	6548
2026-01-19 02:35:08.14	337.69	11.09	-35.5	-36.3	24.0	0.00e+00	0	40	0	4093640704	42	6669
2026-01-19 02:35:12.18	337.74	10.73	-35.6	-36.4	23.9	0.00e+00	0	40	0	4115660800	42	6756
2026-01-19 02:35:16.22	337.79	10.37	-35.6	-36.4	23.9	0.00e+00	0	40	0	4138729472	44	5998
2026-01-19 02:35:20.25	337.84	10.02	-35.7	-36.4	23.7	0.00e+00	0	40	0	4161798144	44	5966
2026-01-19 02:35:24.29	337.88	9.67	-35.6	-36.5	23.7	0.00e+00	0	41	0	4183818240	44	6043
2026-01-19 02:35:28.33	337.93	9.33	-35.5	-36.2	23.9	0.00e+00	0	40	0	4206886912	44	5862
2026-01-19 02:35:32.37	337.97	8.99	-36.0	-36.8	23.4	0.00e+00	0	41	0	4229955584	44	6288
2026-01-19 02:35:36.41	338.02	8.66	-36.0	-36.7	23.3	0.00e+00	0	41	0	4251975680	44	6190
2026-01-19 02:35:40.45	338.06	8.33	-35.9	-36.6	23.4	0.00e+00	0	40	0	4275044352	44	6111
2026-01-19 02:35:44.49	338.10	8.01	-36.1	-36.9	23.2	0.00e+00	0	41	0	4298113024	44	6359
2026-01-19 02:35:48.54	338.15	7.69	-36.3	-37.0	22.9	0.00e+00	0	41	0	4320133120	44	6453
2026-01-19 02:35:52.58	338.19	7.37	-36.4	-37.1	22.8	0.00e+00	0	41	0	4343201792	44	6494
2026-01-19 02:35:56.61	338.23	7.06	-36.5	-37.3	22.7	0.00e+00	0	40	0	4366270464	44	6663
2026-01-19 02:36:00.65	338.27	6.75	-36.6	-37.3	22.6	0.00e+00	0	40	0	4388290560	44	6650
2026-01-19 02:36:04.69	338.31	6.44	-37.0	-37.8	22.1	0.00e+00	0	40	0	4411359232	46	6274
2026-01-19 02:36:08.74	338.35	6.14	-37.1	-37.9	22.0	0.00e+00	0	41	0	4434427904	46	6333
2026-01-19 02:36:12.78	338.39	5.84	-37.2	-38.0	21.8	0.00e+00	0	40	0	4457496576	46	6411
2026-01-19 02:36:17.10	338.43	5.53	-38.2	-39.2	20.2	0.00e+00	0	40	0	4479516672	48	6563
2026-01-19 02:36:21.13	338.47	5.24	-39.8	-41.0	18.3	0.00e+00	0	40	0	4502585344	52	6397
2026-01-19 02:36:25.18	338.51	4.95	-41.1	-42.6	15.8	0.00e+00	0	41	0	4524605440	54	6903
2026-01-19 02:36:29.22	338.55	4.67	-42.7	-45.1	12.2	1.42e-04	0	40	0	4547674112	58	7313
2026-01-19 02:36:33.26	338.59	4.38	-44.1	-48.2	8.2	5.22e-02	0	40	0	4570742784	60	9314
2026-01-19 02:36:37.30	338.62	4.10	-44.9	-50.8	4.7	7.51e-01	0	41	0	4589617152	60	12510
2026-01-19 02:36:41.34	338.66	3.83	-45.2	-55.4	3.7	8.45e-01	0	41	104	4589617152	60	21227
2026-01-19 02:36:45.39	338.70	3.55	-45.3	-56.6	3.6	8.45e-01	0	41	104	4589617152	60	24408
2026-01-19 02:36:49.42	338.73	3.28	-45.4	-57.3	3.5	8.45e-01	0	41	104	4589617152	60	26528
2026-01-19 02:36:53.46	338.77	3.02	-45.4	-57.3	3.6	8.45e-01	0	41	104	4589617152	60	26594
2026-01-19 02:36:57.50	338.81	2.75	-49.7	-61.8	3.5	8.45e-01	0	41	104	4589617152	60	44670
2026-01-19 02:37:01.53	338.84	2.49	-50.1	-62.2	3.6	8.46e-01	0	41	104	4589617152	60	46828
2026-01-19 02:37:05.58	338.88	2.23	-50.2	-62.4	3.6	8.45e-01	0	41	104	4589617152	60	47748
2026-01-19 02:37:09.61	338.91	1.97	-50.0	-62.3	3.6	8.45e-01	0	41	104	4589617152	60	46853
2026-01-19 02:37:13.65	338.94	1.71	-50.1	-62.3	3.6	8.45e-01	0	41	104	4589617152	60	46878
2026-01-19 02:37:17.69	338.98	1.46	-50.1	-62.3	3.6	8.46e-01	0	41	104	4589617152	60	46917
2026-01-19 02:37:21.73	339.01	1.21	-50.1	-62.3	3.6	8.45e-01	0	41	104	4589617152	60	46964
2026-01-19 02:37:25.77	339.05	0.96	-50.1	-62.3	3.6	8.45e-01	0	41	104	4589617152	60	46858
2026-01-19 02:37:29.80	339.08	0.71	-50.1	-62.3	3.6	8.45e-01	0	41	104	4589617152	60	46871
2026-01-19 02:37:33.84	339.11	0.47	-50.1	-62.2	3.6	8.45e-01	0	41	104	4589617152	60	46587
2026-01-19 02:37:37.89	339.15	0.22	-50.1	-62.2	3.6	8.46e-01	0	41	104	4589617152	60	46788

#Closed at: 2026-01-19 02:37:41
#Recorded file [4589 MB]: D:/lorett/data/35029_260119_142212.dat