passes_logs/2026/01/19/R4.6S_Anadyr/R4.6S_Anadyr__20260119_005415_NOAA_21_JPSS-2_rec.log

#Pass ID: 20260119_005415_NOAA 21 (JPSS-2)
#Satellite: NOAA 21 (JPSS-2)
#Configuration: NOAA-21
#almurnet v.1.7.20251203
#Start time: 2026-01-19 00:54:16

#Version: 2.2.20231116
#Station: R4.6S_Anadyr
#Location: 177.4865 lon 64.73178 lat
#TLE: 1 54234U 22150A   26018.60745868  .00000048  00000+0  43754-4 0  9997
#TLE: 2 54234  98.7503 319.4636 0000607 264.0480  96.0627 14.19535445165329

#Time	Az	El	Level	Level2	SNR	BER	BlckErr	Temp	State	Recorded	gain1	gain2
2026-01-19 00:54:16.72	173.56	0.08	-50.0	-64.9	3.5	1.51e+00	0	38	0	0	60	63224
2026-01-19 00:54:20.75	173.65	0.32	-50.2	-63.0	3.5	1.52e+00	0	39	104	0	60	49707
2026-01-19 00:54:24.80	173.75	0.57	-50.2	-63.1	3.5	1.52e+00	0	39	104	0	60	50025
2026-01-19 00:54:28.84	173.85	0.81	-50.2	-63.1	3.5	1.51e+00	0	39	104	0	60	49898
2026-01-19 00:54:32.88	173.95	1.06	-50.1	-63.0	3.5	1.52e+00	0	40	104	0	60	49472
2026-01-19 00:54:36.92	174.06	1.30	-49.9	-62.8	3.5	1.51e+00	0	40	104	0	60	48724
2026-01-19 00:54:40.95	174.16	1.55	-49.3	-62.1	3.5	1.52e+00	0	40	104	0	60	44856
2026-01-19 00:54:44.99	174.27	1.81	-48.5	-61.0	3.5	1.51e+00	0	40	104	0	60	39210
2026-01-19 00:54:49.03	174.37	2.06	-48.6	-61.2	3.5	1.52e+00	0	40	104	0	60	40135
2026-01-19 00:54:53.07	174.48	2.32	-48.5	-61.3	3.5	1.51e+00	0	40	104	0	60	40768
2026-01-19 00:54:57.11	174.59	2.57	-48.4	-59.6	3.5	1.51e+00	0	40	104	0	60	33341
2026-01-19 00:55:01.15	174.70	2.84	-48.5	-60.2	3.5	1.51e+00	0	40	104	0	60	35806
2026-01-19 00:55:05.18	174.82	3.10	-46.8	-51.3	9.0	4.78e-02	123	40	0	1048576	60	12883
2026-01-19 00:55:09.22	174.93	3.36	-41.3	-42.9	17.8	0.00e+00	123	40	0	13631488	56	6157
2026-01-19 00:55:13.25	175.05	3.63	-40.0	-41.3	19.0	0.00e+00	123	40	0	26214400	54	5742
2026-01-19 00:55:17.29	175.17	3.90	-47.1	-53.0	7.9	1.14e+00	0	40	104	37748736	60	15668
2026-01-19 00:55:21.33	175.29	4.18	-40.6	-42.0	18.8	0.00e+00	120	40	0	48234496	54	6209
2026-01-19 00:55:25.37	175.42	4.45	-40.1	-41.4	19.4	0.00e+00	123	40	0	59768832	54	5795
2026-01-19 00:55:29.41	175.54	4.73	-40.1	-41.3	19.6	0.00e+00	122	40	0	73400320	52	6478
2026-01-19 00:55:33.44	175.67	5.01	-39.6	-40.8	20.0	0.00e+00	122	40	0	85983232	52	6116
2026-01-19 00:55:37.48	175.80	5.30	-39.7	-40.9	20.0	0.00e+00	127	40	0	98566144	52	6150
2026-01-19 00:55:41.51	175.93	5.59	-39.3	-40.4	20.4	0.00e+00	122	40	0	111149056	52	5847
2026-01-19 00:55:45.55	176.07	5.88	-39.4	-40.6	20.4	0.00e+00	122	40	0	123731968	52	5944
2026-01-19 00:55:49.59	176.21	6.17	-39.3	-40.4	20.4	0.00e+00	122	40	0	136314880	52	5844
2026-01-19 00:55:53.64	176.35	6.47	-39.0	-40.2	20.7	0.00e+00	123	40	0	148897792	52	5671
2026-01-19 00:55:57.68	176.49	6.77	-39.2	-40.3	20.5	0.00e+00	123	40	0	161480704	52	5767
2026-01-19 00:56:01.72	176.63	7.07	-39.4	-40.5	20.6	0.00e+00	123	40	0	174063616	52	5910
2026-01-19 00:56:05.76	176.78	7.38	-38.5	-39.5	21.3	0.00e+00	122	40	0	186646528	50	5922
2026-01-19 00:56:09.80	176.93	7.69	-38.7	-39.7	21.2	0.00e+00	123	40	0	199229440	50	6058
2026-01-19 00:56:13.85	177.09	8.01	-38.7	-39.8	21.3	0.00e+00	122	40	0	211812352	50	6133
2026-01-19 00:56:17.89	177.24	8.33	-38.3	-39.4	21.6	0.00e+00	123	40	0	224395264	50	5827
2026-01-19 00:56:21.93	177.41	8.65	-38.2	-39.3	21.7	0.00e+00	123	40	0	236978176	50	5741
2026-01-19 00:56:25.97	177.57	8.98	-38.0	-39.1	21.9	0.00e+00	122	40	0	249561088	50	5595
2026-01-19 00:56:30.01	177.74	9.31	-38.2	-39.2	21.8	0.00e+00	121	40	0	262144000	50	5706
2026-01-19 00:56:34.06	177.91	9.64	-37.9	-38.9	22.0	0.00e+00	123	40	0	274726912	50	5506
2026-01-19 00:56:38.10	178.08	9.98	-38.0	-39.0	22.0	0.00e+00	122	40	0	287309824	50	5568
2026-01-19 00:56:42.14	178.26	10.33	-37.8	-38.9	22.2	0.00e+00	123	40	0	299892736	48	6149
2026-01-19 00:56:46.18	178.44	10.68	-37.5	-38.5	22.5	0.00e+00	123	40	0	312475648	48	5909
2026-01-19 00:56:50.22	178.63	11.03	-37.6	-38.6	22.4	0.00e+00	122	41	0	325058560	48	5960
2026-01-19 00:56:54.26	178.82	11.39	-37.3	-38.3	22.8	0.00e+00	123	40	0	337641472	48	5743
2026-01-19 00:56:58.30	179.01	11.75	-37.2	-38.2	22.8	0.00e+00	123	40	0	351272960	48	5704
2026-01-19 00:57:02.34	179.21	12.12	-37.2	-38.2	22.9	0.00e+00	122	41	0	363855872	48	5663
2026-01-19 00:57:06.39	179.41	12.49	-37.0	-37.9	23.1	0.00e+00	123	40	0	376438784	48	5512
2026-01-19 00:57:10.43	179.62	12.87	-37.0	-37.9	23.0	0.00e+00	123	41	0	389021696	48	5511
2026-01-19 00:57:14.47	179.84	13.26	-36.9	-37.8	23.1	0.00e+00	122	41	0	401604608	48	5453
2026-01-19 00:57:18.51	180.06	13.65	-36.8	-37.8	23.2	0.00e+00	123	41	0	414187520	46	6067
2026-01-19 00:57:22.55	180.28	14.05	-36.7	-37.6	23.2	0.00e+00	123	41	0	426770432	46	5965
2026-01-19 00:57:26.59	180.51	14.45	-36.7	-37.6	23.3	0.00e+00	120	41	0	439353344	46	5988
2026-01-19 00:57:30.64	180.75	14.86	-36.5	-37.5	23.5	0.00e+00	123	41	0	451936256	46	5860
2026-01-19 00:57:34.67	180.99	15.28	-36.5	-37.5	23.5	0.00e+00	123	41	0	464519168	46	5863
2026-01-19 00:57:38.71	181.24	15.70	-36.6	-37.5	23.4	0.00e+00	123	41	0	477102080	46	5910
2026-01-19 00:57:42.75	181.49	16.13	-36.5	-37.5	23.4	0.00e+00	122	41	0	489684992	46	5883
2026-01-19 00:57:46.79	181.76	16.57	-36.5	-37.5	23.3	0.00e+00	120	41	0	502267904	46	5888
2026-01-19 00:57:50.82	182.03	17.01	-36.6	-37.6	23.4	0.00e+00	123	41	0	514850816	46	5944
2026-01-19 00:57:54.86	182.30	17.46	-36.5	-37.4	23.5	0.00e+00	123	41	0	527433728	46	5853
2026-01-19 00:57:58.90	182.59	17.92	-36.5	-37.4	23.6	0.00e+00	122	41	0	540016640	46	5825
2026-01-19 00:58:02.94	182.88	18.39	-36.7	-37.6	23.4	0.00e+00	123	41	0	552599552	46	5975
2026-01-19 00:58:06.97	183.19	18.87	-36.8	-37.7	23.4	0.00e+00	123	41	0	565182464	46	6040
2026-01-19 00:58:11.02	183.50	19.35	-36.6	-37.5	23.5	0.00e+00	122	41	0	577765376	46	5902
2026-01-19 00:58:15.06	183.82	19.85	-36.7	-37.7	23.3	0.00e+00	123	41	0	590348288	46	5995
2026-01-19 00:58:19.09	184.15	20.35	-36.5	-37.4	23.5	0.00e+00	123	41	0	602931200	46	5856
2026-01-19 00:58:23.13	184.49	20.86	-36.2	-37.2	23.6	0.00e+00	123	41	0	615514112	46	5684
2026-01-19 00:58:27.18	184.85	21.39	-35.9	-36.9	23.8	0.00e+00	123	41	0	628097024	46	5493
2026-01-19 00:58:31.21	185.21	21.92	-35.5	-36.4	24.0	0.00e+00	122	41	0	640679936	44	5824
2026-01-19 00:58:35.25	185.59	22.46	-35.2	-36.1	24.4	0.00e+00	123	41	0	653262848	44	5621
2026-01-19 00:58:39.30	185.98	23.01	-35.1	-36.0	24.6	0.00e+00	123	41	0	666894336	44	5562
2026-01-19 00:58:43.34	186.39	23.58	-35.2	-36.1	24.5	0.00e+00	123	41	0	679477248	44	5637
2026-01-19 00:58:47.38	186.80	24.15	-35.0	-35.9	24.7	0.00e+00	123	41	0	692060160	44	5497
2026-01-19 00:58:51.42	187.24	24.74	-35.1	-36.0	24.6	0.00e+00	123	41	0	704643072	44	5575
2026-01-19 00:58:55.46	187.69	25.33	-35.4	-36.3	24.4	0.00e+00	123	41	0	717225984	44	5759
2026-01-19 00:58:59.50	188.15	25.94	-35.7	-36.7	24.1	0.00e+00	123	41	0	729808896	44	6002
2026-01-19 00:59:03.54	188.64	26.56	-35.9	-36.8	24.1	0.00e+00	123	41	0	742391808	44	6083
2026-01-19 00:59:07.58	189.14	27.20	-36.3	-37.2	23.7	0.00e+00	123	41	0	754974720	44	6364
2026-01-19 00:59:11.62	189.66	27.85	-36.7	-37.6	23.4	0.00e+00	123	41	0	767557632	44	6714
2026-01-19 00:59:15.67	190.21	28.51	-36.9	-37.9	22.7	0.00e+00	123	41	0	780140544	46	6162
2026-01-19 00:59:19.71	190.77	29.18	-36.8	-37.7	22.8	0.00e+00	123	41	0	792723456	46	6059
2026-01-19 00:59:23.75	191.36	29.86	-36.7	-37.7	22.9	0.00e+00	120	41	0	805306368	46	6050
2026-01-19 00:59:27.79	191.98	30.56	-36.5	-37.5	23.3	0.00e+00	123	41	0	817889280	46	5903
2026-01-19 00:59:31.82	192.62	31.28	-36.0	-36.9	23.8	0.00e+00	123	41	0	830472192	46	5515
2026-01-19 00:59:35.86	193.29	32.00	-36.1	-37.0	23.9	0.00e+00	123	41	0	843055104	46	5555
2026-01-19 00:59:39.91	193.99	32.74	-36.3	-37.3	23.8	0.00e+00	122	41	0	855638016	46	5740
2026-01-19 00:59:43.95	194.72	33.50	-36.5	-37.4	23.8	0.00e+00	123	41	0	868220928	46	5851
2026-01-19 00:59:47.99	195.49	34.27	-37.2	-38.1	23.1	0.00e+00	123	41	0	880803840	46	6331
2026-01-19 00:59:52.02	196.29	35.05	-38.0	-39.0	22.3	0.00e+00	123	41	0	893386752	48	6237
2026-01-19 00:59:56.06	197.13	35.84	-37.8	-38.8	22.5	0.00e+00	122	41	0	905969664	48	6113
2026-01-19 01:00:00.10	198.01	36.65	-37.9	-38.9	22.5	0.00e+00	123	41	0	918552576	48	6161
2026-01-19 01:00:04.14	198.94	37.47	-37.7	-38.7	22.8	0.00e+00	120	41	0	931135488	48	6035
2026-01-19 01:00:08.18	199.91	38.30	-37.8	-38.8	22.8	0.00e+00	122	41	0	943718400	48	6075
2026-01-19 01:00:12.22	200.94	39.14	-37.8	-38.8	22.4	0.00e+00	122	41	0	956301312	48	6119
2026-01-19 01:00:16.27	202.02	40.00	-38.6	-39.6	21.8	0.00e+00	122	41	0	968884224	48	6705
2026-01-19 01:00:20.30	203.15	40.86	-38.4	-39.4	22.2	0.00e+00	123	41	0	982515712	50	5819
2026-01-19 01:00:24.34	204.35	41.73	-38.9	-39.9	21.7	0.00e+00	123	41	0	995098624	50	6190
2026-01-19 01:00:28.38	205.61	42.61	-38.9	-40.0	21.4	0.00e+00	123	41	0	1007681536	50	6272
2026-01-19 01:00:32.42	206.94	43.49	-39.3	-40.4	21.3	0.00e+00	122	41	0	1020264448	50	6499
2026-01-19 01:00:36.46	208.35	44.37	-39.2	-40.2	21.2	0.00e+00	121	41	0	1032847360	50	6422
2026-01-19 01:00:40.50	209.83	45.26	-38.8	-39.8	21.8	0.00e+00	123	41	0	1045430272	50	6110
2026-01-19 01:00:44.54	211.40	46.14	-38.3	-39.3	21.7	0.00e+00	122	41	0	1058013184	50	5767
2026-01-19 01:00:48.58	213.06	47.02	-39.0	-40.1	21.1	0.00e+00	122	41	0	1070596096	50	6347
2026-01-19 01:00:52.62	214.81	47.89	-38.3	-39.3	21.9	0.00e+00	123	41	0	1083179008	50	5760
2026-01-19 01:00:56.66	216.66	48.74	-37.8	-38.8	22.8	0.00e+00	123	41	0	1095761920	48	6067
2026-01-19 01:01:00.70	218.62	49.58	-37.6	-38.6	22.4	0.00e+00	123	41	0	1108344832	48	5978
2026-01-19 01:01:04.74	220.68	50.40	-38.0	-39.1	22.1	0.00e+00	121	41	0	1120927744	48	6287
2026-01-19 01:01:08.78	222.85	51.19	-38.3	-39.3	22.3	0.00e+00	122	41	0	1133510656	48	6472
2026-01-19 01:01:12.83	225.15	51.95	-37.2	-38.1	23.3	0.00e+00	120	41	0	1146093568	48	5654
2026-01-19 01:01:16.88	227.56	52.67	-37.2	-38.2	22.9	0.00e+00	123	41	0	1158676480	48	5673
2026-01-19 01:01:20.91	230.07	53.34	-37.6	-38.7	22.6	0.00e+00	122	41	0	1171259392	48	6003
2026-01-19 01:01:24.95	232.70	53.97	-37.6	-38.6	22.6	0.00e+00	123	41	0	1183842304	48	5969
2026-01-19 01:01:28.99	235.45	54.54	-36.5	-37.5	23.4	0.00e+00	123	41	0	1196425216	46	5878
2026-01-19 01:01:33.04	238.31	55.06	-36.7	-37.7	23.2	0.00e+00	123	41	0	1209008128	46	5999
2026-01-19 01:01:37.08	241.25	55.50	-36.1	-37.0	23.9	0.00e+00	122	41	0	1221591040	46	5553
2026-01-19 01:01:41.12	244.28	55.87	-36.4	-37.3	23.5	0.00e+00	122	41	0	1234173952	46	5775
2026-01-19 01:01:45.16	247.39	56.16	-36.2	-37.1	23.5	0.00e+00	120	41	0	1246756864	46	5621
2026-01-19 01:01:49.20	250.55	56.38	-36.2	-37.2	23.3	0.00e+00	121	41	0	1259339776	46	5674
2026-01-19 01:01:53.25	253.76	56.50	-36.5	-37.5	23.2	0.00e+00	123	41	0	1272971264	46	5893
2026-01-19 01:01:57.29	256.98	56.55	-36.5	-37.4	23.5	0.00e+00	123	41	0	1285554176	46	5828
2026-01-19 01:02:01.33	260.19	56.50	-36.4	-37.4	23.6	0.00e+00	122	41	0	1298137088	46	5794
2026-01-19 01:02:05.37	263.39	56.38	-36.4	-37.3	23.7	0.00e+00	120	41	0	1310720000	46	5748
2026-01-19 01:02:09.42	266.56	56.16	-36.4	-37.3	23.6	0.00e+00	122	41	0	1323302912	46	5758
2026-01-19 01:02:13.46	269.66	55.87	-36.8	-37.7	23.3	0.00e+00	123	41	0	1335885824	46	6045
2026-01-19 01:02:17.50	272.69	55.50	-37.0	-38.0	23.4	0.00e+00	123	41	0	1348468736	46	6248
2026-01-19 01:02:21.54	275.64	55.06	-37.5	-38.5	22.9	0.00e+00	121	41	0	1361051648	46	6619
2026-01-19 01:02:25.58	278.48	54.55	-37.2	-38.2	23.4	0.00e+00	122	41	0	1373634560	48	5672
2026-01-19 01:02:29.62	281.22	53.98	-36.8	-37.7	23.8	0.00e+00	123	41	0	1386217472	48	5368
2026-01-19 01:02:33.66	283.86	53.35	-36.6	-37.5	23.7	0.00e+00	121	41	0	1398800384	46	5879
2026-01-19 01:02:37.70	286.37	52.68	-37.5	-38.5	23.1	0.00e+00	123	41	0	1411383296	46	6597
2026-01-19 01:02:41.74	288.77	51.96	-37.9	-38.9	22.7	0.00e+00	122	41	0	1423966208	48	6153
2026-01-19 01:02:45.78	291.06	51.21	-38.3	-39.3	22.5	0.00e+00	122	41	0	1436549120	48	6487
2026-01-19 01:02:49.83	293.23	50.42	-38.4	-39.5	22.0	0.00e+00	120	41	0	1449132032	48	6575
2026-01-19 01:02:53.87	295.29	49.60	-38.1	-39.1	22.8	0.00e+00	123	41	0	1461714944	48	6321
2026-01-19 01:02:57.91	297.25	48.77	-39.1	-40.2	21.8	0.00e+00	123	41	0	1474297856	50	6403
2026-01-19 01:03:01.95	299.09	47.92	-39.4	-40.5	21.5	0.00e+00	123	41	0	1486880768	50	6574
2026-01-19 01:03:05.99	300.84	47.05	-38.9	-39.9	21.8	0.00e+00	123	41	0	1499463680	50	6189
2026-01-19 01:03:10.04	302.50	46.18	-38.9	-40.0	21.7	0.00e+00	120	41	0	1512046592	50	6225
2026-01-19 01:03:14.08	304.07	45.30	-38.7	-39.7	22.3	0.00e+00	127	41	0	1524629504	50	6011
2026-01-19 01:03:18.12	305.56	44.42	-39.5	-40.6	21.2	0.00e+00	122	41	0	1537212416	50	6665
2026-01-19 01:03:22.16	306.96	43.54	-38.8	-39.8	21.9	0.00e+00	122	41	0	1549795328	50	6114
2026-01-19 01:03:26.20	308.29	42.66	-39.1	-40.2	21.6	0.00e+00	122	41	0	1563426816	50	6373
2026-01-19 01:03:30.25	309.55	41.78	-39.1	-40.1	21.8	0.00e+00	123	41	0	1576009728	50	6339
2026-01-19 01:03:34.29	310.75	40.92	-38.7	-39.7	22.2	0.00e+00	121	41	0	1588592640	50	6047
2026-01-19 01:03:38.33	311.88	40.06	-38.5	-39.5	22.4	0.00e+00	123	41	0	1601175552	50	5860
2026-01-19 01:03:42.37	312.96	39.21	-39.3	-40.4	21.2	0.00e+00	122	41	0	1613758464	50	6547
2026-01-19 01:03:46.42	313.99	38.37	-38.3	-39.3	22.5	0.00e+00	123	41	0	1626341376	50	5773
2026-01-19 01:03:50.46	314.96	37.54	-38.5	-39.5	22.4	0.00e+00	120	41	0	1638924288	50	5896
2026-01-19 01:03:54.50	315.89	36.72	-37.8	-38.8	23.1	0.00e+00	123	41	0	1651507200	48	6092
2026-01-19 01:03:58.54	316.77	35.92	-37.5	-38.5	23.2	0.00e+00	123	41	0	1664090112	48	5880
2026-01-19 01:04:02.58	317.61	35.13	-37.5	-38.5	23.2	0.00e+00	123	41	0	1676673024	48	5903
2026-01-19 01:04:06.62	318.41	34.35	-37.2	-38.2	23.3	0.00e+00	123	41	0	1689255936	48	5667
2026-01-19 01:04:10.66	319.18	33.58	-36.9	-37.8	23.7	0.00e+00	123	41	0	1701838848	48	5418
2026-01-19 01:04:14.71	319.91	32.83	-36.8	-37.7	23.8	0.00e+00	122	41	0	1714421760	46	6014
2026-01-19 01:04:18.75	320.61	32.09	-37.4	-38.3	23.3	0.00e+00	122	41	0	1727004672	46	6491
2026-01-19 01:04:22.79	321.28	31.37	-36.7	-37.7	23.5	0.00e+00	123	41	0	1739587584	46	6003
2026-01-19 01:04:26.84	321.92	30.66	-35.8	-36.7	24.3	0.00e+00	116	41	0	1752170496	46	5345
2026-01-19 01:04:30.88	322.54	29.96	-35.9	-36.7	24.3	0.00e+00	123	41	0	1764753408	44	6046
2026-01-19 01:04:34.92	323.13	29.28	-36.6	-37.5	23.8	0.00e+00	123	41	0	1777336320	44	6583
2026-01-19 01:04:38.96	323.69	28.61	-36.9	-37.8	23.3	0.00e+00	122	41	0	1789919232	46	6117
2026-01-19 01:04:43.00	324.24	27.96	-36.9	-37.8	23.3	0.00e+00	122	41	0	1802502144	46	6132
2026-01-19 01:04:47.04	324.76	27.31	-36.6	-37.5	23.6	0.00e+00	120	41	0	1816133632	46	5895
2026-01-19 01:04:51.09	325.27	26.68	-36.4	-37.3	23.6	0.00e+00	122	41	0	1828716544	46	5789
2026-01-19 01:04:55.13	325.75	26.06	-36.4	-37.3	23.5	0.00e+00	123	41	0	1840250880	46	5781
2026-01-19 01:04:59.17	326.22	25.45	-36.2	-37.1	23.9	0.00e+00	123	41	0	1853882368	46	5616
2026-01-19 01:05:03.21	326.67	24.86	-36.0	-36.9	24.2	0.00e+00	123	41	0	1866465280	46	5473
2026-01-19 01:05:07.25	327.10	24.28	-36.0	-36.9	24.1	0.00e+00	123	41	0	1879048192	46	5483
2026-01-19 01:05:11.29	327.52	23.70	-36.2	-37.1	24.0	0.00e+00	119	41	0	1891631104	46	5644
2026-01-19 01:05:15.33	327.93	23.14	-36.2	-37.2	24.0	0.00e+00	123	41	0	1904214016	46	5668
2026-01-19 01:05:19.37	328.32	22.59	-36.4	-37.3	23.9	0.00e+00	120	41	0	1916796928	46	5748
2026-01-19 01:05:23.41	328.70	22.05	-36.4	-37.3	23.9	0.00e+00	122	41	0	1929379840	46	5770
2026-01-19 01:05:27.45	329.07	21.52	-36.3	-37.2	23.8	0.00e+00	122	41	0	1941962752	46	5694
2026-01-19 01:05:31.50	329.42	21.00	-36.1	-37.0	23.9	0.00e+00	123	41	0	1954545664	46	5587
2026-01-19 01:05:35.54	329.77	20.49	-36.2	-37.1	23.8	0.00e+00	120	41	0	1967128576	46	5644
2026-01-19 01:05:39.58	330.10	19.99	-36.1	-37.0	24.0	0.00e+00	123	41	0	1979711488	46	5585
2026-01-19 01:05:43.62	330.42	19.50	-36.1	-37.1	24.0	0.00e+00	122	41	0	1992294400	46	5605
2026-01-19 01:05:47.67	330.74	19.01	-36.4	-37.3	23.7	0.00e+00	123	41	0	2004877312	46	5743
2026-01-19 01:05:51.70	331.04	18.54	-36.7	-37.6	23.5	0.00e+00	122	41	0	2017460224	46	5962
2026-01-19 01:05:55.75	331.34	18.07	-36.7	-37.7	23.2	0.00e+00	120	41	0	2030043136	46	6004
2026-01-19 01:05:59.79	331.63	17.61	-36.9	-37.9	22.9	0.00e+00	123	41	0	2042626048	46	6178
2026-01-19 01:06:03.83	331.91	17.16	-37.3	-38.3	22.4	0.00e+00	123	41	0	2055208960	46	6469
2026-01-19 01:06:07.87	332.18	16.72	-37.5	-38.5	22.4	0.00e+00	123	41	0	2067791872	46	6585
2026-01-19 01:06:11.91	332.44	16.28	-37.3	-38.3	22.5	0.00e+00	123	41	0	2080374784	46	6483
2026-01-19 01:06:15.96	332.70	15.85	-37.3	-38.3	22.6	0.00e+00	122	41	0	2092957696	46	6441
2026-01-19 01:06:20.00	332.95	15.43	-37.4	-38.4	22.4	0.00e+00	122	41	0	2106589184	46	6520
2026-01-19 01:06:24.04	333.20	15.02	-37.3	-38.3	22.5	0.00e+00	122	41	0	2119172096	46	6459
2026-01-19 01:06:28.08	333.44	14.61	-37.2	-38.2	22.5	0.00e+00	122	41	0	2131755008	46	6420
2026-01-19 01:06:32.12	333.67	14.21	-37.4	-38.4	22.4	0.00e+00	122	41	0	2144337920	46	6526
2026-01-19 01:06:36.16	333.90	13.81	-37.6	-38.6	22.2	0.00e+00	121	41	0	2156920832	46	6702
2026-01-19 01:06:40.20	334.12	13.42	-37.5	-38.6	22.3	0.00e+00	122	41	0	2169503744	48	5931
2026-01-19 01:06:44.24	334.33	13.04	-37.4	-38.4	22.4	0.00e+00	122	41	0	2182086656	48	5793
2026-01-19 01:06:48.28	334.55	12.66	-37.4	-38.4	22.3	0.00e+00	120	41	0	2194669568	48	5840
2026-01-19 01:06:52.33	334.75	12.29	-37.4	-38.4	22.2	0.00e+00	122	41	0	2207252480	48	5809
2026-01-19 01:06:56.37	334.95	11.92	-37.4	-38.4	22.3	0.00e+00	123	41	0	2219835392	48	5800
2026-01-19 01:07:00.40	335.15	11.56	-37.5	-38.5	22.1	0.00e+00	123	41	0	2232418304	48	5913
2026-01-19 01:07:04.44	335.34	11.20	-37.7	-38.7	21.8	0.00e+00	123	41	0	2245001216	48	6027
2026-01-19 01:07:08.48	335.53	10.85	-38.0	-39.1	21.5	0.00e+00	120	41	0	2257584128	48	6281
2026-01-19 01:07:12.53	335.72	10.50	-38.5	-39.6	21.3	0.00e+00	120	41	0	2270167040	48	6658
2026-01-19 01:07:16.57	335.90	10.16	-38.1	-39.2	21.2	0.00e+00	122	41	0	2282749952	48	6410
2026-01-19 01:07:20.61	336.08	9.82	-38.1	-39.2	21.3	0.00e+00	122	41	0	2295332864	48	6385
2026-01-19 01:07:24.65	336.25	9.49	-38.3	-39.3	21.3	0.00e+00	122	41	0	2307915776	48	6491
2026-01-19 01:07:28.69	336.42	9.16	-38.3	-39.4	21.1	0.00e+00	122	41	0	2320498688	48	6561
2026-01-19 01:07:32.73	336.59	8.83	-38.4	-39.6	20.9	0.00e+00	122	41	0	2333081600	48	6665
2026-01-19 01:07:36.77	336.75	8.51	-38.4	-39.5	20.8	0.00e+00	122	41	0	2345664512	48	6640
2026-01-19 01:07:40.82	336.91	8.19	-38.6	-39.8	20.7	0.00e+00	122	41	0	2358247424	48	6837
2026-01-19 01:07:44.86	337.07	7.88	-38.6	-39.8	20.7	0.00e+00	123	41	0	2370830336	50	6105
2026-01-19 01:07:48.90	337.22	7.57	-39.0	-40.2	20.7	0.00e+00	123	41	0	2383413248	50	6399
2026-01-19 01:07:52.94	337.37	7.26	-39.2	-40.4	20.1	0.00e+00	123	41	0	2397044736	50	6540
2026-01-19 01:07:56.98	337.52	6.96	-39.6	-40.9	19.6	0.00e+00	122	41	0	2409627648	50	6890
2026-01-19 01:08:01.02	337.67	6.66	-39.4	-40.6	19.9	0.00e+00	122	41	0	2422210560	50	6686
2026-01-19 01:08:05.06	337.81	6.36	-39.2	-40.5	19.8	0.00e+00	123	41	0	2434793472	50	6599
2026-01-19 01:08:09.10	337.95	6.07	-39.5	-40.8	19.5	0.00e+00	122	41	0	2447376384	50	6811
2026-01-19 01:08:13.14	338.09	5.78	-39.8	-41.2	18.9	0.00e+00	122	41	0	2459959296	52	6374
2026-01-19 01:08:17.18	338.23	5.49	-40.5	-42.1	17.7	0.00e+00	122	41	0	2472542208	52	7071
2026-01-19 01:08:21.23	338.36	5.21	-41.6	-43.5	15.9	0.00e+00	123	41	0	2485125120	54	7423
2026-01-19 01:08:25.26	338.49	4.93	-42.9	-45.5	13.3	5.30e-06	123	41	0	2497708032	58	7444
2026-01-19 01:08:29.30	338.62	4.65	-44.1	-48.2	9.7	1.01e-02	120	41	0	2510290944	60	9039
2026-01-19 01:08:33.35	338.75	4.37	-44.9	-50.5	6.6	1.99e-01	120	41	0	2522873856	60	11822
2026-01-19 01:08:37.39	338.88	4.10	-45.3	-54.9	3.6	1.31e+00	0	41	104	2526019584	60	19426
2026-01-19 01:08:41.43	339.00	3.83	-45.3	-57.5	3.5	1.51e+00	0	41	104	2526019584	60	26417
2026-01-19 01:08:45.47	339.12	3.56	-45.3	-57.8	3.5	1.52e+00	0	41	104	2526019584	60	27181
2026-01-19 01:08:49.51	339.24	3.30	-45.3	-58.0	3.5	1.52e+00	0	41	104	2526019584	60	27838
2026-01-19 01:08:53.54	339.36	3.03	-45.5	-58.2	3.5	1.52e+00	0	41	104	2526019584	60	28540
2026-01-19 01:08:57.58	339.48	2.77	-49.5	-62.3	3.5	1.51e+00	0	41	104	2526019584	60	45940
2026-01-19 01:09:01.62	339.59	2.52	-50.2	-63.0	3.5	1.51e+00	0	41	104	2526019584	60	49423
2026-01-19 01:09:05.66	339.70	2.26	-50.4	-63.2	3.5	1.52e+00	0	41	104	2526019584	60	50604
2026-01-19 01:09:09.70	339.81	2.01	-49.7	-62.5	3.5	1.52e+00	0	41	104	2526019584	60	46941
2026-01-19 01:09:13.74	339.92	1.76	-49.9	-62.6	3.5	1.52e+00	0	41	104	2526019584	60	47344
2026-01-19 01:09:17.79	340.03	1.51	-50.2	-62.9	3.5	1.52e+00	0	41	104	2526019584	60	49078
2026-01-19 01:09:21.82	340.14	1.26	-50.2	-63.0	3.5	1.52e+00	0	41	104	2526019584	60	49654
2026-01-19 01:09:25.87	340.25	1.01	-50.2	-63.0	3.5	1.52e+00	0	41	104	2526019584	60	49329
2026-01-19 01:09:29.90	340.35	0.77	-50.2	-62.9	3.5	1.52e+00	0	41	104	2526019584	60	49205
2026-01-19 01:09:33.94	340.45	0.53	-50.2	-62.9	3.5	1.52e+00	0	41	104	2526019584	60	49182
2026-01-19 01:09:37.97	340.55	0.29	-50.2	-63.0	3.5	1.52e+00	0	41	104	2526019584	60	49304
2026-01-19 01:09:42.01	340.65	0.05	-50.2	-62.9	3.5	1.52e+00	0	41	104	2526019584	60	49164

#Closed at: 2026-01-19 01:09:43
#Recorded file [2526 MB]: D:/lorett/data/35029_260119_125416.dat