passes_logs/2026/01/19/R4.6S_Anadyr/R4.6S_Anadyr__20260119_221112_TY-42_rec.log

#Pass ID: 20260119_221112_TY-42
#Satellite: TY-42
#Configuration: TY-42_900M
#almurnet v.1.7.20251203
#Start time: 2026-01-19 22:11:43

#Version: 2.2.20231116
#Station: R4.6S_Anadyr
#Location: 177.4865 lon 64.73178 lat
#TLE: 1 64048U 25103A   26019.64980324  .00008009  00000-0  38191-3 0 09999
#TLE: 2 64048 097.4122 094.9798 0001728 092.0823 301.7953 15.19165919 37529

#Time	Az	El	Level	Level2	SNR	BER	BlckErr	Temp	State	Recorded	gain1	gain2
2026-01-19 22:11:43.40	23.18	1.85	-52.5	-65.0	3.4	1.52e+00	0	39	0	0	60	62281
2026-01-19 22:11:46.43	23.42	2.04	-49.1	-51.6	6.1	0.00e+00	0	41	104	0	60	46303
2026-01-19 22:11:49.45	23.66	2.23	-48.9	-51.4	6.1	0.00e+00	0	41	104	0	60	45426
2026-01-19 22:11:52.48	23.91	2.42	-49.1	-51.6	6.1	0.00e+00	0	41	104	0	60	46808
2026-01-19 22:11:55.51	24.17	2.61	-49.1	-51.6	6.1	0.00e+00	0	41	104	0	60	46450
2026-01-19 22:11:58.54	24.43	2.81	-49.2	-51.7	6.1	0.00e+00	0	41	104	0	60	47002
2026-01-19 22:12:01.56	24.69	3.00	-49.0	-51.5	6.1	0.00e+00	0	41	104	0	60	45994
2026-01-19 22:12:04.59	24.95	3.20	-49.3	-51.8	6.1	0.00e+00	0	41	104	0	60	47388
2026-01-19 22:12:07.63	25.22	3.40	-49.2	-51.7	6.1	0.00e+00	0	42	104	0	60	47138
2026-01-19 22:12:10.65	25.50	3.59	-49.2	-51.7	6.1	0.00e+00	0	42	104	0	60	47147
2026-01-19 22:12:13.68	25.78	3.80	-49.2	-51.7	6.1	0.00e+00	0	42	104	0	60	47109
2026-01-19 22:12:16.70	26.06	4.00	-49.2	-51.7	6.1	0.00e+00	0	42	104	0	60	46971
2026-01-19 22:12:19.73	26.35	4.20	-49.0	-51.5	6.1	0.00e+00	0	42	104	0	60	45957
2026-01-19 22:12:22.76	26.64	4.41	-48.9	-51.3	6.1	0.00e+00	0	42	104	0	60	45036
2026-01-19 22:12:25.79	26.94	4.61	-49.2	-51.6	6.1	0.00e+00	0	42	104	0	60	46389
2026-01-19 22:12:28.82	27.25	4.82	-49.3	-51.7	6.1	0.00e+00	0	42	104	0	60	47289
2026-01-19 22:12:31.84	27.55	5.03	-49.1	-51.6	6.1	0.00e+00	0	42	104	0	60	46614
2026-01-19 22:12:34.88	27.87	5.24	-49.1	-51.6	6.1	0.00e+00	0	42	104	0	60	46721
2026-01-19 22:12:37.91	28.19	5.46	-49.4	-51.9	6.1	0.00e+00	0	42	104	0	60	48370
2026-01-19 22:12:40.93	28.52	5.67	-49.6	-52.0	6.1	0.00e+00	0	42	104	0	60	48870
2026-01-19 22:12:43.96	28.85	5.89	-47.8	-49.6	6.1	0.00e+00	0	42	104	0	60	36928
2026-01-19 22:12:46.99	29.18	6.11	-41.7	-42.2	8.8	0.00e+00	4951	42	104	0	60	15702
2026-01-19 22:12:50.01	29.53	6.33	-40.7	-41.0	9.8	8.33e-02	5512	43	0	92274688	56	17245
2026-01-19 22:12:53.04	29.88	6.55	-40.4	-40.9	9.6	0.00e+00	324	42	104	142606336	58	15169
2026-01-19 22:12:56.07	30.23	6.77	-40.9	-41.1	9.7	4.41e-01	5511	43	0	385875968	56	17522
2026-01-19 22:12:59.10	30.60	7.00	-41.9	-42.5	9.3	0.00e+00	0	43	104	679477248	60	16301
2026-01-19 22:13:02.12	30.97	7.23	-39.3	-39.5	10.7	1.78e-01	5512	43	0	872415232	56	14625
2026-01-19 22:13:05.15	31.34	7.45	-39.1	-39.3	10.7	5.07e-01	5714	43	0	1207959552	54	16002
2026-01-19 22:13:08.18	31.73	7.69	-38.1	-38.4	10.9	0.00e+00	5493	43	104	1400897536	54	14453
2026-01-19 22:13:11.21	32.12	7.92	-33.8	-34.2	14.1	3.19e-01	0	43	0	1686110208	44	15738
2026-01-19 22:13:14.23	32.52	8.15	-37.1	-37.5	12.8	1.41e-01	0	43	0	2030043136	52	14517
2026-01-19 22:13:17.26	32.92	8.39	-32.8	-33.3	15.2	1.61e-01	0	43	0	2365587456	38	20080
2026-01-19 22:13:20.29	33.34	8.63	-34.2	-34.7	14.1	8.74e-02	0	44	0	2709520384	44	16648
2026-01-19 22:13:23.31	33.76	8.87	-33.4	-33.8	14.4	2.97e-02	0	44	0	3045064704	42	16915
2026-01-19 22:13:26.34	34.19	9.11	-31.6	-32.1	15.1	1.49e-02	0	44	0	3388997632	40	15616
2026-01-19 22:13:29.37	34.63	9.36	-34.1	-34.5	14.7	8.31e-03	0	44	0	3732930560	38	23031
2026-01-19 22:13:32.40	35.08	9.60	-35.9	-36.3	13.5	1.89e-02	0	44	0	4068474880	44	19981
2026-01-19 22:13:35.42	35.54	9.85	-33.2	-33.5	14.9	2.46e-02	0	44	0	4412407808	42	16316
2026-01-19 22:13:38.45	36.01	10.10	-31.8	-32.2	15.3	1.71e-02	0	44	0	4756340736	42	14081
2026-01-19 22:13:41.48	36.49	10.35	-33.7	-34.0	15.4	2.63e-03	0	44	0	5091885056	44	15478
2026-01-19 22:13:44.50	36.97	10.61	-33.2	-33.6	15.0	5.60e-03	0	44	0	5435817984	36	23369
2026-01-19 22:13:47.54	37.47	10.87	-33.2	-33.7	15.2	8.25e-03	0	44	0	5779750912	42	16637
2026-01-19 22:13:50.56	37.98	11.12	-30.7	-31.2	16.1	5.80e-03	0	44	0	6115295232	34	19816
2026-01-19 22:13:53.58	38.49	11.38	-29.7	-30.1	16.6	8.28e-04	0	44	0	6459228160	34	17517
2026-01-19 22:13:56.61	39.02	11.64	-30.4	-30.8	16.2	4.31e-04	0	44	0	6794772480	34	19000
2026-01-19 22:13:59.64	39.56	11.91	-28.5	-29.0	16.7	5.07e-04	0	44	0	7138705408	32	17270
2026-01-19 22:14:02.67	40.12	12.17	-28.2	-28.6	16.8	3.26e-05	0	44	0	7482638336	32	16578
2026-01-19 22:14:05.70	40.68	12.44	-27.3	-27.8	16.9	1.63e-05	0	44	0	7818182656	30	16886
2026-01-19 22:14:08.73	41.26	12.71	-28.5	-29.0	16.7	2.72e-05	0	44	0	8162115584	30	19338
2026-01-19 22:14:11.75	41.84	12.98	-27.8	-28.3	16.7	5.44e-05	0	44	0	8497659904	30	17972
2026-01-19 22:14:14.78	42.45	13.25	-27.7	-28.2	16.9	0.00e+00	0	44	0	8841592832	30	17665
2026-01-19 22:14:17.81	43.06	13.52	-27.9	-28.4	16.8	1.08e-05	0	44	0	9177137152	30	18191
2026-01-19 22:14:20.84	43.69	13.80	-27.5	-27.9	16.9	0.00e+00	0	44	0	9521070080	30	17189
2026-01-19 22:14:23.87	44.33	14.07	-27.1	-27.6	17.0	5.40e-06	0	44	0	9856614400	28	18480
2026-01-19 22:14:26.90	44.99	14.35	-26.2	-26.7	17.1	1.63e-05	0	44	0	10200547328	28	16731
2026-01-19 22:14:29.93	45.66	14.63	-26.1	-26.6	17.2	5.40e-06	0	44	0	10544480256	28	16464
2026-01-19 22:14:32.96	46.34	14.91	-26.2	-26.7	17.3	0.00e+00	0	44	0	10880024576	28	16685
2026-01-19 22:14:35.99	47.04	15.19	-26.1	-26.5	17.3	0.00e+00	0	44	0	11223957504	26	18429
2026-01-19 22:14:39.02	47.76	15.47	-25.7	-26.2	17.3	0.00e+00	0	44	0	11567890432	26	17774
2026-01-19 22:14:42.04	48.49	15.74	-26.2	-26.7	17.2	0.00e+00	0	44	0	11903434752	26	18724
2026-01-19 22:14:45.07	49.23	16.03	-25.5	-26.0	17.3	0.00e+00	0	44	0	12247367680	26	17322
2026-01-19 22:14:48.10	50.00	16.31	-25.6	-26.0	17.3	0.00e+00	0	44	0	12591300608	26	17398
2026-01-19 22:14:51.13	50.77	16.59	-25.9	-26.4	17.2	0.00e+00	0	44	0	12935233536	26	18165
2026-01-19 22:14:54.16	51.57	16.87	-25.6	-26.1	17.3	0.00e+00	0	44	0	13270777856	26	17428
2026-01-19 22:14:57.19	52.39	17.15	-25.5	-26.0	17.2	0.00e+00	0	44	0	13614710784	26	17374
2026-01-19 22:15:00.22	53.22	17.42	-25.6	-26.0	17.2	0.00e+00	0	44	0	13958643712	26	17360
2026-01-19 22:15:03.25	54.07	17.70	-25.4	-25.8	17.1	0.00e+00	0	44	0	14294188032	26	16952
2026-01-19 22:15:06.28	54.93	17.98	-25.6	-26.0	17.2	1.63e-05	0	44	0	14638120960	26	17290
2026-01-19 22:15:09.31	55.82	18.25	-24.6	-25.1	17.2	0.00e+00	0	44	0	14973665280	24	17504
2026-01-19 22:15:12.34	56.72	18.52	-24.6	-25.1	17.2	0.00e+00	0	44	0	15317598208	24	17565
2026-01-19 22:15:15.37	57.64	18.79	-24.6	-25.1	17.2	0.00e+00	0	44	0	15661531136	24	17431
2026-01-19 22:15:18.40	58.58	19.06	-24.3	-24.8	17.3	0.00e+00	0	44	0	15997075456	24	16941
2026-01-19 22:15:21.42	59.54	19.32	-24.4	-24.9	17.2	0.00e+00	0	44	0	16341008384	24	17007
2026-01-19 22:15:24.44	60.51	19.57	-23.8	-24.3	17.3	0.00e+00	0	44	0	16676552704	24	16052
2026-01-19 22:15:27.47	61.51	19.83	-23.8	-24.3	17.3	0.00e+00	0	44	0	17020485632	24	15936
2026-01-19 22:15:30.50	62.52	20.08	-24.0	-24.4	17.3	0.00e+00	0	44	0	17356029952	22	18215
2026-01-19 22:15:33.53	63.55	20.32	-23.9	-24.4	17.4	0.00e+00	0	44	0	17699962880	22	18020
2026-01-19 22:15:36.56	64.61	20.56	-23.8	-24.3	17.4	0.00e+00	0	44	0	18035507200	22	17858
2026-01-19 22:15:39.59	65.68	20.80	-24.1	-24.6	17.2	0.00e+00	0	44	0	18379440128	22	18475
2026-01-19 22:15:42.62	66.76	21.02	-23.2	-23.7	17.3	0.00e+00	0	44	0	18723373056	22	16741
2026-01-19 22:15:45.64	67.87	21.24	-23.3	-23.7	17.4	0.00e+00	0	44	0	19058917376	22	16804
2026-01-19 22:15:48.67	68.99	21.45	-23.9	-24.4	17.4	0.00e+00	0	45	0	19402850304	24	16077
2026-01-19 22:15:51.69	70.12	21.66	-23.3	-23.8	17.4	0.00e+00	0	44	0	19746783232	22	16837
2026-01-19 22:15:54.72	71.28	21.85	-23.1	-23.6	17.4	0.00e+00	0	44	0	20082327552	22	16557
2026-01-19 22:15:57.75	72.45	22.04	-24.4	-24.9	17.4	0.00e+00	0	44	0	20426260480	24	17038
2026-01-19 22:16:00.78	73.64	22.21	-24.6	-25.0	17.3	0.00e+00	0	44	0	20770193408	26	15507
2026-01-19 22:16:03.80	74.84	22.38	-23.6	-24.1	17.4	0.00e+00	0	44	0	21105737728	24	15581
2026-01-19 22:16:06.83	76.06	22.53	-24.6	-25.0	17.4	0.00e+00	0	45	0	21449670656	22	19489
2026-01-19 22:16:09.86	77.29	22.68	-23.6	-24.1	17.3	0.00e+00	0	45	0	21785214976	22	17407
2026-01-19 22:16:12.89	78.53	22.81	-23.2	-23.7	17.4	0.00e+00	0	44	0	22129147904	22	16764
2026-01-19 22:16:15.92	79.79	22.93	-23.0	-23.5	17.3	0.00e+00	0	44	0	22464692224	22	16397
2026-01-19 22:16:18.95	81.05	23.04	-23.5	-24.0	17.2	0.00e+00	0	45	0	22808625152	22	17249
2026-01-19 22:16:21.98	82.32	23.14	-23.5	-24.0	17.3	0.00e+00	0	44	0	23152558080	22	17207
2026-01-19 22:16:25.00	83.60	23.22	-23.0	-23.5	17.3	0.00e+00	0	45	0	23488102400	22	16332
2026-01-19 22:16:28.04	84.89	23.29	-23.1	-23.6	17.3	0.00e+00	0	44	0	23832035328	22	16524
2026-01-19 22:16:31.06	86.18	23.35	-22.9	-23.4	17.3	0.00e+00	0	45	0	24167579648	20	18046
2026-01-19 22:16:34.08	87.48	23.39	-23.0	-23.5	17.2	0.00e+00	0	44	0	24511512576	20	18336
2026-01-19 22:16:37.11	88.78	23.42	-23.0	-23.4	17.1	0.00e+00	0	45	0	24847056896	20	18130
2026-01-19 22:16:40.14	90.09	23.43	-22.9	-23.4	17.1	0.00e+00	0	45	0	25190989824	20	18034
2026-01-19 22:16:43.16	91.39	23.43	-23.1	-23.5	17.2	0.00e+00	0	45	0	25534922752	20	18427
2026-01-19 22:16:46.19	92.70	23.42	-22.9	-23.3	17.1	0.00e+00	0	45	0	25870467072	20	17975
2026-01-19 22:16:49.22	94.00	23.39	-22.8	-23.3	17.1	0.00e+00	0	45	0	26214400000	20	17909
2026-01-19 22:16:52.25	95.30	23.35	-23.4	-23.8	17.1	0.00e+00	0	45	0	26558332928	20	19007
2026-01-19 22:16:55.28	96.60	23.30	-23.3	-23.7	17.1	0.00e+00	0	45	0	26902265856	20	18817
2026-01-19 22:16:58.30	97.88	23.23	-22.9	-23.4	17.0	0.00e+00	0	45	0	27237810176	20	18078
2026-01-19 22:17:01.33	99.17	23.15	-23.3	-23.7	17.0	0.00e+00	0	45	0	27581743104	20	18833
2026-01-19 22:17:04.36	100.45	23.05	-23.1	-23.6	17.0	0.00e+00	0	45	0	27917287424	20	18443
2026-01-19 22:17:07.39	101.71	22.94	-23.4	-23.8	17.1	0.00e+00	0	45	0	28261220352	22	16848
2026-01-19 22:17:10.41	102.97	22.82	-23.5	-23.9	17.0	0.00e+00	0	45	0	28596764672	22	17146
2026-01-19 22:17:13.44	104.21	22.69	-23.5	-23.9	17.1	0.00e+00	0	45	0	28940697600	22	17135
2026-01-19 22:17:16.47	105.45	22.55	-23.5	-24.0	17.1	0.00e+00	0	45	0	29284630528	22	17260
2026-01-19 22:17:19.50	106.67	22.39	-24.0	-24.4	17.2	0.00e+00	0	45	0	29620174848	22	18118
2026-01-19 22:17:22.52	107.87	22.23	-23.9	-24.3	17.2	0.00e+00	0	45	0	29964107776	22	18009
2026-01-19 22:17:25.55	109.07	22.05	-23.8	-24.2	17.3	0.00e+00	0	45	0	30299652096	22	17701
2026-01-19 22:17:28.59	110.25	21.87	-23.3	-23.7	17.3	0.00e+00	0	45	0	30643585024	22	16775
2026-01-19 22:17:31.61	111.41	21.67	-23.9	-24.3	17.3	0.00e+00	0	45	0	30979129344	22	17857
2026-01-19 22:17:34.64	112.55	21.47	-24.1	-24.5	17.3	0.00e+00	0	45	0	31323062272	22	18363
2026-01-19 22:17:37.67	113.68	21.26	-24.3	-24.7	17.4	0.00e+00	0	45	0	31666995200	22	18845
2026-01-19 22:17:40.70	114.79	21.04	-23.7	-24.1	17.4	0.00e+00	0	45	0	32002539520	22	17514
2026-01-19 22:17:43.72	115.88	20.81	-23.9	-24.4	17.4	0.00e+00	0	45	0	32346472448	22	18060
2026-01-19 22:17:46.75	116.96	20.58	-23.8	-24.2	17.5	0.00e+00	0	45	0	32682016768	22	17702
2026-01-19 22:17:49.78	118.02	20.34	-24.6	-25.0	17.5	0.00e+00	0	45	0	33025949696	22	19336
2026-01-19 22:17:52.81	119.06	20.09	-24.2	-24.6	17.6	0.00e+00	0	45	0	33369882624	22	18575
2026-01-19 22:17:55.83	120.08	19.84	-24.2	-24.6	17.6	0.00e+00	0	45	0	33713815552	24	16514
2026-01-19 22:17:58.86	121.08	19.58	-24.4	-24.9	17.7	0.00e+00	0	45	0	34049359872	24	17016
2026-01-19 22:18:01.89	122.06	19.32	-24.5	-24.9	17.6	0.00e+00	0	45	0	34393292800	24	17129
2026-01-19 22:18:04.92	123.03	19.06	-24.8	-25.2	17.6	0.00e+00	0	45	0	34737225728	24	17761
2026-01-19 22:18:07.94	123.97	18.79	-25.1	-25.5	17.5	0.00e+00	0	45	0	35072770048	24	18385
2026-01-19 22:18:10.97	124.90	18.52	-25.1	-25.5	17.6	0.00e+00	0	45	0	35416702976	24	18350
2026-01-19 22:18:13.99	125.80	18.25	-24.9	-25.3	17.6	0.00e+00	0	45	0	35752247296	24	17911
2026-01-19 22:18:17.02	126.69	17.98	-24.9	-25.4	17.6	0.00e+00	0	45	0	36096180224	24	18052
2026-01-19 22:18:20.05	127.57	17.70	-25.1	-25.5	17.6	0.00e+00	0	45	0	36431724544	24	18389
2026-01-19 22:18:23.07	128.42	17.42	-25.2	-25.6	17.6	0.00e+00	0	45	0	36775657472	24	18483
2026-01-19 22:18:26.10	129.25	17.14	-24.6	-25.1	17.7	0.00e+00	0	45	0	37111201792	24	17424
2026-01-19 22:18:29.13	130.07	16.86	-25.2	-25.7	17.7	0.00e+00	0	45	0	37455134720	26	16623
2026-01-19 22:18:32.16	130.88	16.58	-26.1	-26.5	17.6	0.00e+00	0	45	0	37790679040	26	18423
2026-01-19 22:18:35.19	131.66	16.30	-25.8	-26.2	17.5	0.00e+00	0	45	0	38134611968	26	17770
2026-01-19 22:18:38.21	132.43	16.01	-25.5	-25.9	17.6	0.00e+00	0	45	0	38470156288	26	17082
2026-01-19 22:18:41.24	133.18	15.73	-25.6	-26.1	17.6	0.00e+00	0	45	0	38814089216	26	17426
2026-01-19 22:18:44.27	133.92	15.45	-25.4	-25.8	17.5	0.00e+00	0	45	0	39158022144	26	16975
2026-01-19 22:18:47.30	134.64	15.17	-25.6	-26.1	17.4	0.00e+00	0	45	0	39501955072	26	17496
2026-01-19 22:18:50.33	135.34	14.88	-25.7	-26.2	17.5	0.00e+00	0	45	0	39837499392	26	17667
2026-01-19 22:18:53.36	136.03	14.60	-26.9	-27.4	17.3	0.00e+00	0	45	0	40181432320	26	20248
2026-01-19 22:18:56.39	136.70	14.32	-26.4	-26.8	17.3	0.00e+00	0	45	0	40525365248	28	16976
2026-01-19 22:18:59.42	137.36	14.04	-25.6	-26.1	17.3	0.00e+00	0	45	0	40860909568	26	17412
2026-01-19 22:19:02.44	138.01	13.77	-25.9	-26.4	17.3	0.00e+00	0	45	0	41204842496	26	18014
2026-01-19 22:19:05.47	138.64	13.49	-25.9	-26.4	17.2	0.00e+00	0	45	0	41548775424	26	18170
2026-01-19 22:19:08.50	139.26	13.21	-26.5	-27.0	17.1	0.00e+00	0	45	0	41884319744	26	19346
2026-01-19 22:19:11.53	139.86	12.94	-27.3	-27.8	16.9	0.00e+00	0	45	0	42228252672	28	18877
2026-01-19 22:19:14.56	140.46	12.67	-27.8	-28.2	16.6	1.08e-05	0	45	0	42563796992	30	17738
2026-01-19 22:19:17.59	141.04	12.40	-29.0	-29.4	15.9	2.40e-04	0	45	0	42907729920	32	18164
2026-01-19 22:19:20.61	141.60	12.13	-29.7	-30.1	16.2	6.10e-04	0	45	0	43243274240	34	17508
2026-01-19 22:19:23.63	142.16	11.86	-28.8	-29.3	16.5	4.80e-04	0	45	0	43587207168	32	17877
2026-01-19 22:19:26.66	142.70	11.60	-28.8	-29.2	16.6	1.74e-04	0	45	0	43922751488	32	17729
2026-01-19 22:19:29.69	143.23	11.33	-27.6	-28.0	16.8	4.35e-05	0	45	0	44266684416	30	17311
2026-01-19 22:19:32.72	143.75	11.07	-27.6	-28.0	16.8	4.35e-05	0	45	0	44610617344	30	17394
2026-01-19 22:19:35.74	144.26	10.81	-27.7	-28.1	16.8	0.00e+00	0	45	0	44946161664	30	17533
2026-01-19 22:19:38.77	144.76	10.55	-27.3	-27.7	16.8	3.81e-05	0	45	0	45290094592	30	16703
2026-01-19 22:19:41.80	145.25	10.30	-27.7	-28.2	16.8	3.26e-05	0	45	0	45625638912	30	17632
2026-01-19 22:19:44.82	145.73	10.04	-27.5	-28.0	16.8	1.08e-05	0	45	0	45969571840	30	17305
2026-01-19 22:19:47.85	146.20	9.79	-26.6	-27.1	16.9	0.00e+00	0	45	0	46313504768	28	17510
2026-01-19 22:19:50.88	146.66	9.54	-27.1	-27.6	16.8	5.40e-06	0	45	0	46649049088	28	18546
2026-01-19 22:19:53.91	147.11	9.29	-26.5	-27.0	16.8	1.08e-05	0	45	0	46992982016	28	17278
2026-01-19 22:19:56.94	147.55	9.04	-26.7	-27.2	16.8	2.72e-05	0	45	0	47336914944	28	17624
2026-01-19 22:19:59.97	147.99	8.80	-26.7	-27.2	16.8	1.08e-05	0	45	0	47672459264	28	17658
2026-01-19 22:20:03.00	148.41	8.56	-27.9	-28.4	16.7	4.90e-05	0	45	0	48016392192	30	18058
2026-01-19 22:20:06.02	148.83	8.32	-27.4	-27.9	16.8	3.81e-05	0	45	0	48360325120	30	17094
2026-01-19 22:20:09.05	149.24	8.08	-27.0	-27.5	16.8	4.35e-05	0	45	0	48695869440	30	16315
2026-01-19 22:20:12.07	149.64	7.84	-28.8	-29.2	16.6	1.09e-04	0	45	0	49039802368	30	19919
2026-01-19 22:20:15.10	150.03	7.60	-28.9	-29.3	16.4	1.91e-04	0	45	0	49375346688	34	15976
2026-01-19 22:20:18.13	150.41	7.37	-28.7	-29.2	16.5	2.89e-04	0	45	0	49719279616	32	17798
2026-01-19 22:20:21.16	150.79	7.14	-28.7	-29.2	16.6	1.85e-04	0	45	0	50054823936	32	17620
2026-01-19 22:20:24.19	151.16	6.91	-28.4	-28.9	16.6	2.07e-04	0	45	0	50398756864	32	17120
2026-01-19 22:20:27.21	151.53	6.68	-28.9	-29.3	16.5	2.23e-04	0	45	0	50734301184	32	17990
2026-01-19 22:20:30.24	151.88	6.46	-29.9	-30.4	16.5	3.60e-04	0	45	0	51078234112	32	20282
2026-01-19 22:20:33.27	152.23	6.23	-29.4	-29.9	16.3	3.00e-04	0	45	0	51422167040	34	17034
2026-01-19 22:20:36.29	152.58	6.01	-29.4	-29.9	16.0	1.11e-03	0	45	0	51757711360	34	17129
2026-01-19 22:20:39.32	152.92	5.79	-30.5	-30.9	15.9	1.84e-03	0	45	0	52101644288	36	17179
2026-01-19 22:20:42.35	153.25	5.57	-31.9	-32.4	15.0	2.93e-03	0	45	0	52437188608	38	18039
2026-01-19 22:20:45.37	153.57	5.36	-33.0	-33.5	14.3	1.30e-02	0	45	0	52781121536	40	18307
2026-01-19 22:20:48.40	153.89	5.14	-34.5	-35.0	13.7	2.28e-02	0	45	0	53125054464	44	17243
2026-01-19 22:20:51.43	154.21	4.93	-35.8	-36.2	13.1	6.49e-02	0	45	0	53460598784	46	17701
2026-01-19 22:20:54.46	154.52	4.72	-38.5	-38.9	11.1	9.49e-02	3309	45	0	53804531712	50	19102
2026-01-19 22:20:57.49	154.82	4.51	-36.8	-37.2	12.3	2.03e-01	0	45	0	54148464640	48	17637
2026-01-19 22:21:00.52	155.12	4.30	-35.0	-35.4	13.0	1.17e-01	0	45	0	54492397568	46	16184
2026-01-19 22:21:03.55	155.41	4.09	-34.6	-35.0	13.4	6.48e-02	0	45	0	54827941888	44	17302
2026-01-19 22:21:06.57	155.70	3.89	-34.4	-34.8	13.9	5.17e-02	0	45	0	55171874816	44	16945
2026-01-19 22:21:09.60	155.98	3.68	-33.4	-33.8	14.3	3.93e-02	0	45	0	55507419136	42	16915
2026-01-19 22:21:12.62	156.26	3.48	-32.4	-32.8	14.6	2.18e-02	0	45	0	55851352064	40	16949
2026-01-19 22:21:15.65	156.54	3.28	-32.2	-32.7	14.7	1.63e-02	0	45	0	56186896384	40	16719
2026-01-19 22:21:18.68	156.81	3.08	-33.6	-34.1	14.5	1.66e-02	0	45	0	56530829312	40	19575
2026-01-19 22:21:21.70	157.07	2.89	-50.5	-53.0	6.1	1.69e-02	0	45	104	56614715392	60	54451
2026-01-19 22:21:24.73	157.33	2.69	-51.8	-54.3	6.1	6.03e-03	0	45	104	56614715392	60	63818
2026-01-19 22:21:27.76	157.59	2.49	-51.9	-54.3	6.1	6.03e-03	0	45	104	56614715392	60	63356
2026-01-19 22:21:30.79	157.84	2.30	-51.9	-54.3	6.1	6.03e-03	0	45	104	56614715392	60	63687
2026-01-19 22:21:33.82	158.09	2.11	-51.9	-54.4	6.1	6.03e-03	0	45	104	56614715392	60	63949
2026-01-19 22:21:36.85	158.34	1.92	-51.8	-54.3	6.1	6.03e-03	0	45	104	56614715392	60	63843
2026-01-19 22:21:39.88	158.58	1.73	-52.3	-54.8	6.1	0.00e+00	0	45	104	56614715392	60	67180
2026-01-19 22:21:42.91	158.81	1.54	-51.8	-54.3	6.1	0.00e+00	0	44	104	56614715392	60	63238
2026-01-19 22:21:45.94	159.05	1.35	-52.0	-54.5	6.1	0.00e+00	0	45	104	56614715392	60	64729
2026-01-19 22:21:48.97	159.28	1.17	-52.3	-54.8	6.1	0.00e+00	0	45	104	56614715392	60	67631
2026-01-19 22:21:52.00	159.51	0.98	-52.1	-54.6	6.1	0.00e+00	0	45	104	56614715392	60	65514
2026-01-19 22:21:55.03	159.73	0.80	-52.2	-54.7	6.1	0.00e+00	0	45	104	56614715392	60	66273
2026-01-19 22:21:58.06	159.95	0.62	-51.7	-54.2	6.1	0.00e+00	0	45	104	56614715392	60	62533
2026-01-19 22:22:01.08	160.17	0.44	-52.5	-55.0	6.1	0.00e+00	0	45	104	56614715392	60	68608
2026-01-19 22:22:04.11	160.38	0.26	-52.6	-55.2	6.1	0.00e+00	0	45	104	56614715392	60	70568
2026-01-19 22:22:07.14	160.59	0.08	-52.4	-54.8	6.1	0.00e+00	0	45	104	56614715392	60	67675
2026-01-19 22:22:10.16	160.80	-0.10	-52.6	-55.0	6.1	0.00e+00	0	45	104	56614715392	60	69203

#Closed at: 2026-01-19 22:22:11
#Recorded file [56614 MB]: D:/lorett/data/35029_260120_101143.dat