passes_logs/2026/01/19/R4.6S_Anadyr/R4.6S_Anadyr__20260119_200813_SUOMI_NPP_rec.log

#Pass ID: 20260119_200813_SUOMI NPP
#Satellite: SUOMI NPP
#Configuration: NPP
#almurnet v.1.7.20251203
#Start time: 2026-01-19 20:08:15

#Version: 2.2.20231116
#Station: R4.6S_Anadyr
#Location: 177.4865 lon 64.73178 lat
#TLE: 1 37849U 11061A   26019.26265094  .00000081  00000+0  59609-4 0  9993
#TLE: 2 37849  98.7817 321.2746 0002356  56.2510 303.8890 14.19526363737315

#Time	Az	El	Level	Level2	SNR	BER	BlckErr	Temp	State	Recorded	gain1	gain2
2026-01-19 20:08:15.30	63.20	0.11	-50.7	-62.3	3.4	8.45e-01	0	38	0	0	60	46939
2026-01-19 20:08:18.33	62.97	0.26	-51.1	-66.3	3.6	1.51e+00	0	39	104	0	60	74306
2026-01-19 20:08:21.36	62.75	0.40	-50.0	-65.3	3.6	1.51e+00	0	39	104	0	60	66685
2026-01-19 20:08:24.39	62.51	0.55	-50.0	-65.2	3.6	1.51e+00	0	39	104	0	60	65784
2026-01-19 20:08:27.42	62.28	0.70	-49.9	-65.2	3.6	1.51e+00	0	39	104	0	60	65650
2026-01-19 20:08:30.45	62.04	0.85	-49.8	-65.0	3.6	1.51e+00	0	40	104	0	60	64595
2026-01-19 20:08:33.48	61.80	1.00	-49.5	-64.9	3.6	1.51e+00	0	40	104	0	60	63415
2026-01-19 20:08:36.51	61.56	1.15	-49.3	-64.6	3.6	1.51e+00	0	40	104	0	60	61173
2026-01-19 20:08:39.54	61.32	1.30	-48.4	-63.7	3.6	1.51e+00	0	40	104	0	60	55137
2026-01-19 20:08:42.57	61.07	1.45	-48.1	-63.3	3.6	1.51e+00	0	40	104	0	60	52794
2026-01-19 20:08:45.60	60.82	1.60	-48.1	-63.2	3.6	1.51e+00	0	40	104	0	60	52129
2026-01-19 20:08:48.63	60.57	1.76	-48.1	-63.2	3.6	1.51e+00	0	40	104	0	60	52427
2026-01-19 20:08:51.66	60.32	1.91	-48.1	-63.1	3.6	1.51e+00	0	40	104	0	60	51556
2026-01-19 20:08:54.69	60.06	2.06	-48.1	-63.2	3.6	1.51e+00	0	40	104	0	60	51971
2026-01-19 20:08:57.72	59.80	2.21	-48.1	-63.0	3.6	1.51e+00	0	40	104	0	60	51211
2026-01-19 20:09:00.75	59.54	2.36	-48.1	-63.2	3.6	1.51e+00	0	40	104	0	60	52432
2026-01-19 20:09:03.78	59.27	2.52	-48.1	-63.3	3.6	1.51e+00	0	40	104	0	60	52590
2026-01-19 20:09:06.81	59.00	2.67	-48.0	-61.9	3.6	1.51e+00	0	40	104	0	60	45169
2026-01-19 20:09:09.84	58.73	2.82	-48.0	-62.8	3.6	1.51e+00	0	40	104	0	60	50069
2026-01-19 20:09:12.87	58.46	2.97	-47.3	-54.6	6.7	5.15e-01	0	40	0	0	60	19334
2026-01-19 20:09:15.90	58.18	3.13	-48.1	-62.9	3.6	1.51e+00	0	40	104	3145728	60	50593
2026-01-19 20:09:18.93	57.90	3.28	-47.9	-62.4	3.6	2.44e-01	0	40	104	4194304	60	47664
2026-01-19 20:09:21.96	57.62	3.44	-44.1	-46.6	15.5	0.00e+00	0	40	0	6291456	60	7719
2026-01-19 20:09:24.99	57.33	3.59	-44.2	-46.8	15.4	0.00e+00	0	40	0	11534336	60	7931
2026-01-19 20:09:28.02	57.04	3.74	-43.9	-46.3	16.2	7.00e-07	92	40	0	17825792	60	7486
2026-01-19 20:09:31.04	56.75	3.90	-43.1	-45.1	17.5	0.00e+00	52	40	0	23068672	60	6469
2026-01-19 20:09:34.07	56.45	4.05	-45.0	-48.0	14.4	0.00e+00	0	40	0	29360128	60	9106
2026-01-19 20:09:37.09	56.16	4.21	-44.9	-47.8	14.4	0.00e+00	71	40	0	34603008	60	8909
2026-01-19 20:09:40.11	55.85	4.36	-42.8	-44.7	17.2	0.00e+00	88	40	0	40894464	60	6227
2026-01-19 20:09:43.14	55.55	4.52	-43.9	-46.3	16.1	0.00e+00	0	40	0	46137344	60	7434
2026-01-19 20:09:46.17	55.24	4.67	-43.6	-45.8	16.9	0.00e+00	0	40	0	51380224	60	7064
2026-01-19 20:09:49.20	54.93	4.83	-43.6	-45.8	16.7	0.00e+00	92	40	0	57671680	60	7078
2026-01-19 20:09:52.23	54.61	4.98	-43.1	-45.2	17.4	0.00e+00	14	40	0	62914560	60	6573
2026-01-19 20:09:55.25	54.29	5.14	-43.7	-45.9	16.4	0.00e+00	0	40	0	69206016	58	8004
2026-01-19 20:09:58.28	53.97	5.30	-42.5	-44.3	18.2	0.00e+00	92	40	0	74448896	58	6631
2026-01-19 20:10:01.31	53.64	5.45	-43.0	-45.0	17.6	0.00e+00	92	40	0	79691776	58	7185
2026-01-19 20:10:04.34	53.31	5.61	-42.8	-44.7	17.8	0.00e+00	0	40	0	85983232	58	6978
2026-01-19 20:10:07.37	52.98	5.76	-42.7	-44.6	18.0	0.00e+00	0	40	0	91226112	58	6855
2026-01-19 20:10:10.40	52.64	5.92	-43.0	-44.9	17.6	0.00e+00	48	40	0	97517568	58	7129
2026-01-19 20:10:13.43	52.30	6.07	-42.5	-44.2	18.6	0.00e+00	0	40	0	102760448	58	6611
2026-01-19 20:10:16.45	51.96	6.23	-42.6	-44.3	18.3	0.00e+00	0	40	0	108003328	56	7480
2026-01-19 20:10:19.48	51.61	6.38	-42.0	-43.5	19.1	0.00e+00	90	40	0	114294784	56	6804
2026-01-19 20:10:22.51	51.26	6.54	-41.9	-43.4	19.1	0.00e+00	91	40	0	119537664	56	6721
2026-01-19 20:10:25.54	50.90	6.70	-42.3	-43.9	18.6	0.00e+00	0	40	0	125829120	56	7166
2026-01-19 20:10:28.57	50.54	6.85	-41.9	-43.4	19.3	0.00e+00	92	40	0	131072000	56	6764
2026-01-19 20:10:31.60	50.18	7.01	-41.9	-43.5	19.2	0.00e+00	90	40	0	137363456	56	6783
2026-01-19 20:10:34.62	49.81	7.16	-42.3	-43.9	18.6	0.00e+00	0	40	0	142606336	56	7106
2026-01-19 20:10:37.65	49.44	7.32	-42.9	-44.7	17.8	0.00e+00	0	41	0	147849216	58	6995
2026-01-19 20:10:40.68	49.06	7.47	-42.9	-44.6	18.2	0.00e+00	70	41	0	154140672	58	6904
2026-01-19 20:10:43.71	48.68	7.63	-42.5	-44.2	18.4	0.00e+00	0	40	0	159383552	58	6608
2026-01-19 20:10:46.74	48.30	7.78	-42.5	-44.2	18.5	0.00e+00	0	41	0	165675008	58	6560
2026-01-19 20:10:49.77	47.91	7.93	-42.4	-44.0	18.8	0.00e+00	90	40	0	170917888	58	6422
2026-01-19 20:10:52.80	47.51	8.09	-42.3	-43.9	19.1	0.00e+00	45	41	0	176160768	58	6353
2026-01-19 20:10:55.83	47.12	8.24	-42.3	-43.8	19.1	0.00e+00	0	41	0	182452224	56	7058
2026-01-19 20:10:58.85	46.72	8.39	-41.8	-43.2	19.6	0.00e+00	92	41	0	187695104	56	6594
2026-01-19 20:11:01.88	46.31	8.54	-42.1	-43.6	19.2	0.00e+00	82	41	0	193986560	56	6923
2026-01-19 20:11:04.91	45.90	8.70	-41.9	-43.4	19.3	0.00e+00	0	41	0	199229440	56	6746
2026-01-19 20:11:07.93	45.49	8.85	-42.6	-44.3	18.5	0.00e+00	0	41	0	205520896	56	7494
2026-01-19 20:11:10.96	45.07	9.00	-42.3	-44.0	18.9	0.00e+00	92	41	0	210763776	58	6407
2026-01-19 20:11:13.99	44.64	9.15	-42.2	-43.7	19.1	0.00e+00	0	41	0	216006656	58	6240
2026-01-19 20:11:17.02	44.22	9.30	-41.9	-43.4	19.5	0.00e+00	0	41	0	222298112	58	5981
2026-01-19 20:11:20.05	43.78	9.45	-42.0	-43.5	19.5	0.00e+00	77	41	0	227540992	58	6058
2026-01-19 20:11:23.08	43.35	9.59	-41.6	-43.0	19.8	0.00e+00	36	41	0	233832448	56	6406
2026-01-19 20:11:26.11	42.91	9.74	-41.3	-42.6	20.3	0.00e+00	0	41	0	239075328	56	6163
2026-01-19 20:11:29.14	42.46	9.89	-40.9	-42.2	20.5	0.00e+00	16	41	0	244318208	54	6571
2026-01-19 20:11:32.17	42.01	10.03	-40.8	-42.0	20.7	0.00e+00	49	41	0	250609664	54	6454
2026-01-19 20:11:35.20	41.56	10.18	-40.7	-41.9	20.8	0.00e+00	0	41	0	255852544	54	6339
2026-01-19 20:11:38.23	41.10	10.32	-40.1	-41.2	21.4	0.00e+00	0	41	0	262144000	54	5893
2026-01-19 20:11:41.25	40.63	10.47	-40.1	-41.2	21.4	0.00e+00	79	41	0	267386880	54	5896
2026-01-19 20:11:44.28	40.16	10.61	-40.3	-41.5	21.1	0.00e+00	0	41	0	273678336	54	6094
2026-01-19 20:11:47.31	39.69	10.75	-40.6	-41.8	21.0	0.00e+00	0	41	0	278921216	54	6291
2026-01-19 20:11:50.34	39.21	10.89	-40.4	-41.6	21.2	0.00e+00	92	41	0	284164096	54	6116
2026-01-19 20:11:53.37	38.73	11.03	-40.0	-41.1	21.6	0.00e+00	83	41	0	290455552	54	5789
2026-01-19 20:11:56.40	38.24	11.16	-39.6	-40.6	22.0	0.00e+00	0	41	0	295698432	52	6152
2026-01-19 20:11:59.42	37.75	11.30	-39.5	-40.6	22.1	0.00e+00	0	41	0	301989888	52	6120
2026-01-19 20:12:02.44	37.26	11.43	-39.5	-40.6	22.1	0.00e+00	49	41	0	307232768	52	6108
2026-01-19 20:12:05.47	36.76	11.57	-39.9	-41.0	21.7	0.00e+00	0	41	0	312475648	52	6455
2026-01-19 20:12:08.50	36.25	11.70	-39.8	-40.9	21.7	0.00e+00	0	41	0	318767104	52	6355
2026-01-19 20:12:11.52	35.74	11.83	-39.2	-40.2	22.5	0.00e+00	0	41	0	324009984	52	5858
2026-01-19 20:12:14.55	35.23	11.96	-39.2	-40.3	22.4	0.00e+00	22	41	0	330301440	52	5899
2026-01-19 20:12:17.58	34.71	12.09	-39.3	-40.3	22.4	0.00e+00	0	41	0	335544320	52	5935
2026-01-19 20:12:20.61	34.18	12.21	-39.7	-40.8	21.9	0.00e+00	0	41	0	340787200	52	6280
2026-01-19 20:12:23.63	33.66	12.34	-39.7	-40.8	22.1	0.00e+00	42	41	0	347078656	52	6250
2026-01-19 20:12:26.66	33.12	12.46	-39.9	-41.0	21.8	0.00e+00	0	41	0	352321536	52	6423
2026-01-19 20:12:29.69	32.58	12.58	-39.7	-40.8	21.9	0.00e+00	0	41	0	358612992	52	6263
2026-01-19 20:12:32.72	32.04	12.70	-40.1	-41.3	21.6	0.00e+00	79	41	0	363855872	52	6633
2026-01-19 20:12:35.75	31.50	12.81	-40.4	-41.6	21.3	0.00e+00	0	41	0	370147328	52	6900
2026-01-19 20:12:38.78	30.95	12.93	-40.1	-41.3	21.6	0.00e+00	0	41	0	375390208	52	6635
2026-01-19 20:12:41.81	30.39	13.04	-39.8	-40.8	22.0	0.00e+00	0	41	0	380633088	52	6311
2026-01-19 20:12:44.84	29.83	13.15	-39.7	-40.8	22.1	0.00e+00	47	41	0	386924544	52	6259
2026-01-19 20:12:47.86	29.27	13.26	-40.0	-41.1	21.9	0.00e+00	0	41	0	392167424	52	6510
2026-01-19 20:12:50.89	28.70	13.36	-39.4	-40.5	22.3	0.00e+00	0	41	0	398458880	52	6049
2026-01-19 20:12:53.92	28.13	13.46	-39.6	-40.6	22.2	0.00e+00	42	41	0	403701760	52	6143
2026-01-19 20:12:56.95	27.55	13.57	-39.8	-40.8	21.9	0.00e+00	0	41	0	408944640	52	6308
2026-01-19 20:12:59.98	26.98	13.66	-40.2	-41.4	21.5	0.00e+00	0	41	0	415236096	52	6759
2026-01-19 20:13:03.01	26.39	13.76	-39.8	-40.9	21.9	0.00e+00	92	41	0	420478976	52	6336
2026-01-19 20:13:06.03	25.81	13.85	-39.3	-40.2	22.2	0.00e+00	0	41	0	426770432	52	5893
2026-01-19 20:13:09.06	25.22	13.94	-39.4	-40.4	22.4	0.00e+00	0	41	0	432013312	52	5994
2026-01-19 20:13:12.09	24.62	14.03	-38.9	-39.9	22.8	0.00e+00	0	41	0	438304768	50	6334
2026-01-19 20:13:15.11	24.03	14.11	-39.1	-40.1	22.5	0.00e+00	17	41	0	443547648	50	6530
2026-01-19 20:13:18.14	23.42	14.20	-38.7	-39.6	23.0	0.00e+00	0	41	0	448790528	50	6140
2026-01-19 20:13:21.17	22.82	14.28	-39.0	-40.0	22.7	0.00e+00	0	41	0	455081984	50	6411
2026-01-19 20:13:24.20	22.21	14.35	-39.6	-40.6	22.0	0.00e+00	91	41	0	460324864	50	6924
2026-01-19 20:13:27.23	21.60	14.42	-39.8	-40.9	22.0	0.00e+00	0	41	0	466616320	52	6370
2026-01-19 20:13:30.26	20.99	14.49	-40.1	-41.2	21.9	0.00e+00	0	41	0	471859200	52	6593
2026-01-19 20:13:33.28	20.37	14.56	-39.8	-40.9	21.8	0.00e+00	92	41	0	477102080	52	6332
2026-01-19 20:13:36.31	19.75	14.63	-40.1	-41.2	21.7	0.00e+00	0	41	0	483393536	52	6587
2026-01-19 20:13:39.34	19.13	14.69	-40.1	-41.2	21.7	0.00e+00	0	41	0	488636416	52	6584
2026-01-19 20:13:42.36	18.51	14.74	-39.6	-40.6	22.3	0.00e+00	0	41	0	494927872	52	6167
2026-01-19 20:13:45.39	17.88	14.80	-39.2	-40.2	22.5	0.00e+00	51	41	0	500170752	52	5852
2026-01-19 20:13:48.42	17.25	14.85	-39.4	-40.5	22.4	0.00e+00	0	41	0	506462208	52	6042
2026-01-19 20:13:51.45	16.62	14.89	-39.7	-40.8	22.0	0.00e+00	0	41	0	511705088	52	6275
2026-01-19 20:13:54.48	15.99	14.94	-39.9	-41.0	21.9	0.00e+00	92	41	0	516947968	52	6424
2026-01-19 20:13:57.51	15.35	14.98	-39.9	-41.0	21.8	0.00e+00	0	41	0	523239424	52	6417
2026-01-19 20:14:00.53	14.72	15.02	-39.9	-40.9	22.0	0.00e+00	0	41	0	528482304	52	6383
2026-01-19 20:14:03.56	14.08	15.05	-39.9	-41.0	21.9	0.00e+00	64	41	0	534773760	52	6419
2026-01-19 20:14:06.59	13.44	15.08	-39.9	-41.1	21.9	0.00e+00	0	41	0	540016640	52	6471
2026-01-19 20:14:09.62	12.80	15.11	-39.8	-40.8	21.9	0.00e+00	0	41	0	545259520	52	6314
2026-01-19 20:14:12.64	12.16	15.13	-39.7	-40.7	22.1	0.00e+00	0	41	0	551550976	52	6236
2026-01-19 20:14:15.67	11.52	15.15	-39.9	-40.9	21.9	0.00e+00	43	41	0	556793856	52	6388
2026-01-19 20:14:18.70	10.87	15.16	-39.4	-40.4	22.4	0.00e+00	0	41	0	563085312	52	6021
2026-01-19 20:14:21.73	10.23	15.18	-39.6	-40.7	22.1	0.00e+00	0	41	0	568328192	52	6207
2026-01-19 20:14:24.75	9.59	15.18	-40.0	-41.1	21.8	0.00e+00	77	41	0	573571072	52	6516
2026-01-19 20:14:27.78	8.94	15.19	-39.9	-41.0	21.8	0.00e+00	0	41	0	579862528	52	6406
2026-01-19 20:14:30.81	8.30	15.19	-39.6	-40.6	22.3	0.00e+00	0	41	0	585105408	52	6160
2026-01-19 20:14:33.84	7.65	15.19	-39.0	-40.0	22.7	0.00e+00	30	41	0	591396864	52	5713
2026-01-19 20:14:36.86	7.01	15.18	-39.5	-40.5	22.2	0.00e+00	50	41	0	596639744	52	6096
2026-01-19 20:14:39.89	6.36	15.17	-39.9	-41.0	22.1	0.00e+00	0	41	0	602931200	52	6395
2026-01-19 20:14:42.92	5.72	15.16	-39.8	-40.9	21.8	0.00e+00	0	41	0	608174080	52	6353
2026-01-19 20:14:45.95	5.08	15.14	-40.4	-41.5	21.4	0.00e+00	50	41	0	613416960	52	6832
2026-01-19 20:14:48.98	4.43	15.12	-40.3	-41.5	21.5	0.00e+00	0	41	0	619708416	52	6778
2026-01-19 20:14:52.01	3.79	15.09	-39.9	-41.1	21.9	0.00e+00	0	41	0	624951296	52	6471
2026-01-19 20:14:55.04	3.15	15.07	-39.7	-40.9	21.9	0.00e+00	92	41	0	631242752	52	6321
2026-01-19 20:14:58.06	2.52	15.03	-39.6	-40.6	22.2	0.00e+00	0	41	0	636485632	52	6169
2026-01-19 20:15:01.09	1.88	15.00	-39.7	-40.8	22.0	0.00e+00	0	41	0	641728512	52	6279
2026-01-19 20:15:04.12	1.24	14.96	-39.7	-40.8	22.1	0.00e+00	0	41	0	648019968	52	6272
2026-01-19 20:15:07.15	0.61	14.92	-39.5	-40.5	22.3	0.00e+00	57	41	0	653262848	52	6055
2026-01-19 20:15:10.18	359.98	14.87	-39.2	-40.2	22.5	0.00e+00	0	41	0	659554304	52	5890
2026-01-19 20:15:13.21	359.35	14.82	-39.6	-40.6	22.2	0.00e+00	0	41	0	664797184	52	6149
2026-01-19 20:15:16.24	358.72	14.77	-39.7	-40.7	22.0	0.00e+00	92	41	0	671088640	52	6245
2026-01-19 20:15:19.27	358.09	14.72	-39.8	-40.9	21.9	0.00e+00	0	41	0	676331520	52	6359
2026-01-19 20:15:22.30	357.47	14.66	-40.1	-41.2	21.6	0.00e+00	0	41	0	681574400	52	6613
2026-01-19 20:15:25.33	356.85	14.60	-40.2	-41.4	21.7	0.00e+00	90	41	0	687865856	52	6704
2026-01-19 20:15:28.36	356.23	14.53	-39.3	-40.3	22.4	0.00e+00	0	41	0	693108736	52	5951
2026-01-19 20:15:31.39	355.62	14.46	-38.8	-39.8	22.8	0.00e+00	0	41	0	699400192	50	6291
2026-01-19 20:15:34.41	355.01	14.39	-39.2	-40.2	22.5	0.00e+00	0	41	0	704643072	50	6586
2026-01-19 20:15:37.43	354.40	14.32	-38.9	-39.9	22.9	0.00e+00	50	41	0	709885952	50	6327
2026-01-19 20:15:40.46	353.79	14.24	-39.1	-40.1	22.5	0.00e+00	0	41	0	716177408	50	6516
2026-01-19 20:15:43.48	353.19	14.16	-39.8	-40.8	22.0	0.00e+00	0	41	0	721420288	50	7087
2026-01-19 20:15:46.51	352.59	14.08	-39.7	-40.8	22.0	0.00e+00	42	41	0	727711744	52	6258
2026-01-19 20:15:49.54	352.00	13.99	-40.1	-41.3	21.7	0.00e+00	0	41	0	732954624	52	6619
2026-01-19 20:15:52.57	351.41	13.90	-40.1	-41.2	21.7	0.00e+00	0	41	0	739246080	52	6610
2026-01-19 20:15:55.60	350.82	13.81	-40.1	-41.2	21.6	0.00e+00	92	41	0	744488960	52	6565
2026-01-19 20:15:58.62	350.23	13.71	-39.7	-40.7	22.0	0.00e+00	0	41	0	749731840	52	6238
2026-01-19 20:16:01.65	349.65	13.62	-39.5	-40.5	22.3	0.00e+00	0	41	0	756023296	52	6093
2026-01-19 20:16:04.68	349.08	13.52	-39.2	-40.2	22.5	0.00e+00	0	41	0	761266176	52	5858
2026-01-19 20:16:07.71	348.50	13.42	-39.4	-40.4	22.4	0.00e+00	45	41	0	767557632	52	5998
2026-01-19 20:16:10.73	347.93	13.31	-38.4	-39.3	23.1	0.00e+00	0	41	0	772800512	50	5923
2026-01-19 20:16:13.76	347.37	13.21	-38.5	-39.5	22.8	0.00e+00	0	41	0	778043392	50	6045
2026-01-19 20:16:16.79	346.81	13.10	-39.0	-40.0	22.4	0.00e+00	65	41	0	784334848	50	6425
2026-01-19 20:16:19.82	346.25	12.99	-39.5	-40.6	22.1	0.00e+00	0	41	0	789577728	50	6870
2026-01-19 20:16:22.85	345.70	12.87	-40.2	-41.4	21.5	0.00e+00	0	41	0	795869184	52	6711
2026-01-19 20:16:25.87	345.15	12.76	-40.4	-41.7	21.2	0.00e+00	33	41	0	801112064	52	6953
2026-01-19 20:16:28.90	344.61	12.64	-40.4	-41.7	21.2	0.00e+00	9	41	0	806354944	52	6939
2026-01-19 20:16:31.93	344.07	12.52	-40.1	-41.3	21.2	0.00e+00	0	41	0	812646400	52	6678
2026-01-19 20:16:34.96	343.53	12.40	-40.6	-41.9	21.0	0.00e+00	0	41	0	817889280	52	7126
2026-01-19 20:16:37.98	343.01	12.28	-40.5	-41.8	21.0	0.00e+00	47	41	0	824180736	52	7046
2026-01-19 20:16:41.01	342.48	12.16	-40.4	-41.6	21.2	0.00e+00	0	41	0	829423616	52	6919
2026-01-19 20:16:44.04	341.96	12.03	-40.7	-41.9	21.1	0.00e+00	0	41	0	835715072	52	7145
2026-01-19 20:16:47.07	341.44	11.90	-40.6	-41.8	21.0	0.00e+00	90	41	0	840957952	54	6250
2026-01-19 20:16:50.09	340.93	11.77	-40.0	-41.1	21.8	0.00e+00	0	41	0	846200832	54	5798
2026-01-19 20:16:53.12	340.42	11.64	-40.0	-41.1	21.7	0.00e+00	0	41	0	852492288	52	6494
2026-01-19 20:16:56.15	339.92	11.51	-40.5	-41.7	21.1	0.00e+00	48	41	0	857735168	54	6223
2026-01-19 20:16:59.18	339.42	11.37	-41.6	-43.0	20.0	0.00e+00	44	41	0	864026624	54	7204
2026-01-19 20:17:02.20	338.93	11.24	-41.7	-43.2	19.9	0.00e+00	0	41	0	869269504	56	6564
2026-01-19 20:17:05.23	338.44	11.10	-41.4	-42.7	20.5	0.00e+00	0	41	0	874512384	56	6208
2026-01-19 20:17:08.26	337.96	10.96	-41.5	-42.9	20.1	0.00e+00	85	41	0	880803840	56	6355
2026-01-19 20:17:11.28	337.48	10.83	-43.0	-44.7	18.2	0.00e+00	0	41	0	886046720	58	6961
2026-01-19 20:17:14.31	337.00	10.69	-43.9	-46.0	17.2	0.00e+00	0	41	0	892338176	60	7232
2026-01-19 20:17:17.34	336.53	10.54	-43.5	-45.4	17.7	0.00e+00	81	41	0	897581056	60	6697
2026-01-19 20:17:20.37	336.07	10.40	-43.0	-44.8	18.4	0.00e+00	0	41	0	902823936	60	6254
2026-01-19 20:17:23.40	335.60	10.26	-42.8	-44.4	18.6	0.00e+00	0	41	0	909115392	60	6016
2026-01-19 20:17:26.42	335.15	10.11	-42.3	-43.8	19.2	0.00e+00	0	41	0	914358272	58	6302
2026-01-19 20:17:29.45	334.70	9.97	-42.1	-43.5	19.6	0.00e+00	0	41	0	920649728	56	6804
2026-01-19 20:17:32.48	334.25	9.82	-42.0	-43.4	19.7	0.00e+00	0	41	0	925892608	56	6734
2026-01-19 20:17:35.51	333.81	9.68	-41.7	-43.1	19.8	0.00e+00	0	41	0	931135488	56	6488
2026-01-19 20:17:38.54	333.37	9.53	-41.4	-42.7	20.4	0.00e+00	40	41	0	937426944	56	6186
2026-01-19 20:17:41.56	332.94	9.38	-41.0	-42.3	20.4	0.00e+00	0	41	0	942669824	56	5927
2026-01-19 20:17:44.60	332.50	9.23	-41.3	-42.6	20.3	0.00e+00	0	41	0	948961280	56	6135
2026-01-19 20:17:47.63	332.08	9.08	-41.5	-42.8	20.2	0.00e+00	57	41	0	954204160	56	6289
2026-01-19 20:17:50.66	331.66	8.93	-41.7	-43.1	19.8	0.00e+00	0	41	0	960495616	56	6500
2026-01-19 20:17:53.68	331.24	8.78	-41.7	-43.1	19.9	0.00e+00	0	41	0	965738496	56	6487
2026-01-19 20:17:56.71	330.83	8.63	-41.7	-43.2	19.7	0.00e+00	21	41	0	970981376	56	6542
2026-01-19 20:17:59.74	330.42	8.48	-41.5	-42.9	20.0	0.00e+00	44	41	0	977272832	56	6329
2026-01-19 20:18:02.77	330.02	8.33	-41.7	-43.1	19.8	0.00e+00	0	41	0	982515712	56	6470
2026-01-19 20:18:05.79	329.62	8.17	-41.1	-42.4	20.4	0.00e+00	0	41	0	988807168	56	6007
2026-01-19 20:18:08.82	329.23	8.02	-40.8	-42.0	20.7	0.00e+00	92	41	0	994050048	54	6460
2026-01-19 20:18:11.85	328.84	7.87	-40.1	-41.2	21.4	0.00e+00	0	41	0	999292928	54	5861
2026-01-19 20:18:14.88	328.45	7.71	-40.3	-41.5	21.2	0.00e+00	0	41	0	1005584384	54	6047
2026-01-19 20:18:17.91	328.07	7.56	-40.4	-41.6	20.9	0.00e+00	73	41	0	1010827264	54	6136
2026-01-19 20:18:20.93	327.69	7.41	-40.5	-41.7	20.8	0.00e+00	0	41	0	1017118720	54	6227
2026-01-19 20:18:23.96	327.32	7.25	-40.2	-41.4	21.2	0.00e+00	0	41	0	1022361600	54	5967
2026-01-19 20:18:26.99	326.95	7.10	-39.8	-40.9	21.3	0.00e+00	0	41	0	1028653056	54	5651
2026-01-19 20:18:30.02	326.59	6.94	-40.2	-41.3	20.9	0.00e+00	46	41	0	1033895936	54	5957
2026-01-19 20:18:33.04	326.22	6.79	-40.5	-41.8	20.8	0.00e+00	0	41	0	1039138816	54	6255
2026-01-19 20:18:36.07	325.87	6.63	-40.9	-42.1	20.3	0.00e+00	0	41	0	1045430272	54	6538
2026-01-19 20:18:39.10	325.51	6.48	-41.1	-42.4	20.4	0.00e+00	90	41	0	1050673152	54	6763
2026-01-19 20:18:42.13	325.16	6.32	-41.3	-42.6	19.8	0.00e+00	0	41	0	1056964608	54	6902
2026-01-19 20:18:45.16	324.82	6.16	-41.4	-42.7	19.9	0.00e+00	0	41	0	1062207488	54	6991
2026-01-19 20:18:48.19	324.47	6.01	-40.8	-42.1	20.4	0.00e+00	92	41	0	1067450368	54	6512
2026-01-19 20:18:51.21	324.14	5.85	-40.5	-41.7	21.0	0.00e+00	0	41	0	1073741824	54	6223
2026-01-19 20:18:54.24	323.80	5.70	-41.6	-43.0	19.0	0.00e+00	0	41	0	1078984704	54	7224
2026-01-19 20:18:57.27	323.47	5.54	-40.5	-41.7	20.9	0.00e+00	0	41	0	1085276160	56	5553
2026-01-19 20:19:00.30	323.14	5.39	-41.1	-42.5	20.3	0.00e+00	25	41	0	1090519040	56	6036
2026-01-19 20:19:03.33	322.82	5.23	-40.8	-42.1	20.6	0.00e+00	0	41	0	1096810496	54	6516
2026-01-19 20:19:06.36	322.50	5.08	-41.4	-42.9	19.9	0.00e+00	0	41	0	1102053376	56	6328
2026-01-19 20:19:09.39	322.18	4.92	-42.5	-44.1	18.5	0.00e+00	61	41	0	1107296256	56	7332
2026-01-19 20:19:12.41	321.87	4.77	-42.1	-43.7	18.9	0.00e+00	0	41	0	1113587712	56	6948
2026-01-19 20:19:15.44	321.56	4.61	-41.9	-43.5	19.3	0.00e+00	0	41	0	1118830592	58	6062
2026-01-19 20:19:18.47	321.25	4.46	-40.9	-42.2	19.9	0.00e+00	90	41	0	1125122048	54	6577
2026-01-19 20:19:21.50	320.95	4.30	-40.4	-41.7	20.4	0.00e+00	0	41	0	1130364928	54	6208
2026-01-19 20:19:24.52	320.65	4.15	-41.1	-42.5	19.7	0.00e+00	32	41	0	1135607808	54	6773
2026-01-19 20:19:27.55	320.35	3.99	-42.0	-43.6	18.5	0.00e+00	0	41	0	1141899264	54	7729
2026-01-19 20:19:30.58	320.06	3.84	-41.5	-43.0	19.2	0.00e+00	39	41	0	1147142144	56	6392
2026-01-19 20:19:33.60	319.77	3.68	-43.4	-45.6	16.1	0.00e+00	0	41	0	1153433600	58	7737
2026-01-19 20:19:36.64	319.48	3.53	-42.9	-44.9	17.3	0.00e+00	0	41	0	1158676480	56	7981
2026-01-19 20:19:39.66	319.20	3.38	-42.3	-44.0	18.4	0.00e+00	51	41	0	1164967936	58	6462
2026-01-19 20:19:42.69	318.92	3.22	-41.9	-43.6	18.5	0.00e+00	0	41	0	1170210816	58	6129
2026-01-19 20:19:45.72	318.64	3.07	-43.1	-45.2	16.8	0.00e+00	0	41	0	1175453696	60	6594
2026-01-19 20:19:48.75	318.36	2.91	-49.0	-64.1	3.6	1.51e+00	0	41	104	1178599424	60	57944
2026-01-19 20:19:51.78	318.09	2.76	-49.6	-64.8	3.6	1.51e+00	0	41	104	1178599424	60	62506
2026-01-19 20:19:54.80	317.82	2.61	-49.9	-65.1	3.6	1.51e+00	0	41	104	1178599424	60	64767
2026-01-19 20:19:57.84	317.55	2.46	-50.0	-65.2	3.6	1.51e+00	0	41	104	1178599424	60	66008
2026-01-19 20:20:00.86	317.29	2.30	-50.0	-65.2	3.6	1.51e+00	0	41	104	1178599424	60	65475
2026-01-19 20:20:03.89	317.03	2.15	-49.7	-65.1	3.6	1.51e+00	0	41	104	1178599424	60	64713
2026-01-19 20:20:06.92	316.77	2.00	-49.8	-65.1	3.6	1.51e+00	0	41	104	1178599424	60	65218
2026-01-19 20:20:09.95	316.52	1.85	-49.8	-65.0	3.6	1.51e+00	0	41	104	1178599424	60	64539
2026-01-19 20:20:12.98	316.26	1.70	-50.0	-65.2	3.6	1.51e+00	0	41	104	1178599424	60	65936
2026-01-19 20:20:16.01	316.01	1.55	-50.3	-65.5	3.6	1.51e+00	0	41	104	1178599424	60	67991
2026-01-19 20:20:19.04	315.77	1.40	-50.2	-65.4	3.6	1.51e+00	0	41	104	1178599424	60	67097
2026-01-19 20:20:22.07	315.52	1.24	-50.1	-65.3	3.6	1.51e+00	0	41	104	1178599424	60	66613
2026-01-19 20:20:25.09	315.28	1.10	-50.1	-65.2	3.6	1.51e+00	0	41	104	1178599424	60	66136
2026-01-19 20:20:28.12	315.04	0.95	-50.4	-65.5	3.6	1.51e+00	0	41	104	1178599424	60	68314
2026-01-19 20:20:31.15	314.81	0.80	-51.1	-66.3	3.6	1.51e+00	0	41	104	1178599424	60	74314
2026-01-19 20:20:34.17	314.57	0.65	-50.6	-65.8	3.6	1.51e+00	0	41	104	1178599424	60	70552
2026-01-19 20:20:37.21	314.34	0.50	-50.4	-65.6	3.6	1.51e+00	0	41	104	1178599424	60	68732
2026-01-19 20:20:40.24	314.11	0.35	-50.4	-65.5	3.6	1.51e+00	0	41	104	1178599424	60	68422
2026-01-19 20:20:43.27	313.88	0.20	-50.4	-65.5	3.6	1.51e+00	0	41	104	1178599424	60	68462
2026-01-19 20:20:46.29	313.66	0.05	-50.5	-65.6	3.6	1.51e+00	0	41	104	1178599424	60	69271
2026-01-19 20:20:49.32	313.43	-0.09	-50.6	-65.7	3.6	1.51e+00	0	41	104	1178599424	60	69887

#Closed at: 2026-01-19 20:20:49
#Recorded file [1178 MB]: D:/lorett/data/35029_260120_080815.dat