passes_logs/2026/01/19/R4.6S_Anadyr/R4.6S_Anadyr__20260119_012504_AQUA_rec.log

#Pass ID: 20260119_012504_AQUA
#Satellite: AQUA
#Configuration: AQUA
#almurnet v.1.7.20251203
#Start time: 2026-01-19 01:25:05

#Version: 2.2.20231116
#Station: R4.6S_Anadyr
#Location: 177.4865 lon 64.73178 lat
#TLE: 1 27424U 02022A   26018.67315038  .00000896  00000+0  18931-3 0  9992
#TLE: 2 27424  98.4088 345.1622 0002002  73.7601  98.9671 14.61828261261423

#Time	Az	El	Level	Level2	SNR	BER	BlckErr	Temp	State	Recorded	gain1	gain2
2026-01-19 01:25:05.20	142.43	0.04	-50.2	-62.6	3.4	1.52e+00	0	38	0	0	60	47464
2026-01-19 01:25:09.24	142.37	0.29	-50.5	-68.3	3.5	3.03e+01	0	39	104	0	60	100431
2026-01-19 01:25:13.28	142.30	0.54	-50.6	-68.4	3.5	3.03e+01	0	39	104	0	60	101652
2026-01-19 01:25:17.31	142.24	0.79	-50.4	-68.3	3.5	3.03e+01	0	39	104	0	60	100284
2026-01-19 01:25:21.35	142.17	1.05	-50.1	-68.0	3.5	3.03e+01	0	39	104	0	60	96639
2026-01-19 01:25:25.39	142.10	1.31	-49.3	-67.2	3.5	3.03e+01	0	39	104	0	60	87800
2026-01-19 01:25:29.43	142.02	1.57	-45.9	-65.2	3.5	3.03e+01	0	39	104	0	60	70208
2026-01-19 01:25:33.47	141.95	1.83	-45.9	-65.2	3.5	3.03e+01	0	39	104	0	60	70242
2026-01-19 01:25:37.51	141.87	2.10	-46.0	-65.1	3.5	3.03e+01	0	40	104	0	60	69477
2026-01-19 01:25:41.55	141.80	2.37	-45.9	-65.0	3.5	3.03e+01	0	40	104	0	60	68046
2026-01-19 01:25:45.58	141.72	2.64	-45.8	-64.7	3.5	3.03e+01	0	40	104	0	60	66394
2026-01-19 01:25:49.62	141.64	2.92	-45.4	-64.6	3.5	3.03e+01	0	40	104	0	60	65371
2026-01-19 01:25:53.66	141.55	3.19	-45.8	-61.2	4.4	3.03e+01	0	40	104	0	60	44284
2026-01-19 01:25:57.70	141.47	3.48	-45.9	-62.6	3.8	3.03e+01	0	40	104	0	60	51756
2026-01-19 01:26:01.74	141.38	3.76	-46.0	-65.2	3.5	3.03e+01	0	40	104	0	60	69813
2026-01-19 01:26:05.78	141.29	4.05	-46.0	-64.3	3.6	3.03e+01	0	40	104	0	60	63103
2026-01-19 01:26:09.82	141.20	4.34	-46.7	-61.5	4.5	3.03e+01	0	40	104	0	60	45737
2026-01-19 01:26:13.87	141.10	4.63	-46.5	-57.5	6.3	3.03e+01	91	40	0	1572864	60	28954
2026-01-19 01:26:17.90	141.01	4.93	-46.2	-55.7	8.2	3.03e+01	89	40	0	8912896	60	23496
2026-01-19 01:26:21.94	140.91	5.23	-46.6	-54.4	9.9	3.03e+01	90	40	0	16777216	60	20221
2026-01-19 01:26:25.98	140.81	5.54	-46.4	-53.1	11.7	3.03e+01	91	40	0	24117248	60	17464
2026-01-19 01:26:30.02	140.70	5.85	-46.2	-52.1	13.3	3.03e+01	91	40	0	31981568	60	15552
2026-01-19 01:26:34.06	140.60	6.16	-46.1	-51.5	14.0	3.03e+01	91	40	0	39321600	60	14448
2026-01-19 01:26:38.10	140.49	6.48	-46.2	-51.1	14.7	3.03e+01	91	40	0	46661632	60	13887
2026-01-19 01:26:42.15	140.38	6.80	-46.6	-52.1	14.0	3.03e+01	90	40	0	54525952	60	15474
2026-01-19 01:26:46.19	140.26	7.13	-46.6	-52.0	14.5	3.03e+01	92	40	0	61865984	60	15269
2026-01-19 01:26:50.23	140.14	7.46	-46.9	-52.5	13.9	3.03e+01	92	40	0	69730304	60	16138
2026-01-19 01:26:54.26	140.02	7.80	-47.6	-53.8	12.6	3.03e+01	90	40	0	77070336	60	18842
2026-01-19 01:26:58.30	139.89	8.14	-47.6	-53.4	12.9	3.03e+01	92	40	0	84934656	60	17906
2026-01-19 01:27:02.34	139.76	8.48	-42.7	-44.8	22.1	3.03e+01	92	40	0	92274688	60	6651
2026-01-19 01:27:06.38	139.63	8.83	-39.4	-40.9	25.7	3.03e+01	92	40	0	100139008	54	6026
2026-01-19 01:27:10.41	139.50	9.19	-38.4	-39.8	26.8	3.03e+01	90	40	0	107479040	52	5927
2026-01-19 01:27:14.45	139.36	9.55	-38.2	-39.5	27.1	3.03e+01	90	40	0	114819072	52	5762
2026-01-19 01:27:18.49	139.21	9.92	-37.7	-39.1	27.5	3.03e+01	92	40	0	122683392	50	6136
2026-01-19 01:27:22.53	139.06	10.29	-37.7	-39.0	27.6	3.03e+01	92	40	0	130023424	50	6112
2026-01-19 01:27:26.56	138.91	10.67	-37.6	-38.9	27.8	3.03e+01	92	40	0	137887744	50	6016
2026-01-19 01:27:30.60	138.75	11.06	-37.2	-38.5	28.2	3.03e+01	92	40	0	145227776	50	5763
2026-01-19 01:27:34.64	138.59	11.45	-37.0	-38.3	28.3	3.03e+01	92	40	0	153092096	48	6310
2026-01-19 01:27:38.68	138.42	11.85	-37.0	-38.3	28.4	3.03e+01	92	40	0	160432128	48	6296
2026-01-19 01:27:42.72	138.24	12.26	-36.8	-38.0	28.7	3.03e+01	91	40	0	168296448	48	6128
2026-01-19 01:27:46.77	138.06	12.68	-36.6	-37.8	28.9	3.03e+01	91	40	0	175636480	48	5970
2026-01-19 01:27:50.81	137.88	13.10	-36.5	-37.8	29.0	3.03e+01	90	40	0	182976512	48	5949
2026-01-19 01:27:54.84	137.69	13.53	-36.7	-37.9	28.9	3.03e+01	92	40	0	190840832	48	6033
2026-01-19 01:27:58.88	137.49	13.97	-36.7	-37.9	28.8	3.03e+01	92	40	0	198180864	48	6036
2026-01-19 01:28:02.92	137.28	14.41	-36.6	-37.9	28.9	3.03e+01	92	40	0	206045184	48	6000
2026-01-19 01:28:06.96	137.07	14.87	-36.7	-37.9	28.9	3.03e+01	92	40	0	213385216	48	6016
2026-01-19 01:28:10.99	136.85	15.34	-36.4	-37.6	29.1	3.03e+01	92	40	0	221249536	48	5856
2026-01-19 01:28:15.03	136.62	15.81	-36.2	-37.4	29.3	3.03e+01	92	40	0	228589568	48	5694
2026-01-19 01:28:19.07	136.39	16.30	-36.1	-37.3	29.4	3.03e+01	93	40	0	236453888	48	5622
2026-01-19 01:28:23.11	136.14	16.79	-36.1	-37.3	29.5	3.03e+01	92	40	0	243793920	46	6298
2026-01-19 01:28:27.15	135.89	17.30	-36.2	-37.5	29.4	3.03e+01	90	40	0	251133952	46	6433
2026-01-19 01:28:31.19	135.62	17.81	-36.3	-37.6	29.3	3.03e+01	92	40	0	258998272	46	6511
2026-01-19 01:28:35.22	135.35	18.34	-36.6	-37.8	29.1	3.03e+01	86	40	0	266338304	46	6677
2026-01-19 01:28:39.26	135.06	18.88	-36.4	-37.6	29.4	3.03e+01	92	40	0	274202624	46	6515
2026-01-19 01:28:43.30	134.77	19.44	-36.3	-37.5	29.4	3.03e+01	92	40	0	281542656	46	6452
2026-01-19 01:28:47.34	134.46	20.00	-36.3	-37.5	29.3	3.03e+01	92	40	0	289406976	46	6487
2026-01-19 01:28:51.38	134.14	20.58	-36.6	-37.9	29.1	3.03e+01	92	40	0	296747008	46	6745
2026-01-19 01:28:55.42	133.80	21.18	-36.7	-38.0	29.0	3.03e+01	92	40	0	304611328	46	6848
2026-01-19 01:28:59.46	133.45	21.78	-36.6	-37.8	29.2	3.03e+01	90	40	0	311951360	46	6715
2026-01-19 01:29:03.50	133.09	22.41	-36.3	-37.5	29.5	3.03e+01	92	40	0	319291392	46	6447
2026-01-19 01:29:07.54	132.71	23.05	-36.9	-38.1	29.0	3.03e+01	89	40	0	327155712	46	6916
2026-01-19 01:29:11.58	132.31	23.70	-36.9	-38.1	29.0	3.03e+01	92	40	0	334495744	46	6902
2026-01-19 01:29:15.62	131.89	24.37	-36.8	-38.1	29.1	3.03e+01	92	40	0	342360064	46	6884
2026-01-19 01:29:19.66	131.45	25.06	-36.6	-37.9	29.2	3.03e+01	92	40	0	349700096	46	6756
2026-01-19 01:29:23.70	130.99	25.77	-36.6	-37.9	29.2	3.03e+01	92	40	0	357564416	46	6750
2026-01-19 01:29:27.75	130.51	26.50	-36.5	-37.7	29.3	3.03e+01	92	40	0	364904448	46	6640
2026-01-19 01:29:31.78	130.01	27.24	-36.6	-37.8	29.4	3.03e+01	92	40	0	372768768	46	6677
2026-01-19 01:29:35.82	129.47	28.01	-36.3	-37.5	29.5	3.03e+01	92	40	0	380108800	46	6443
2026-01-19 01:29:39.86	128.92	28.80	-35.9	-37.0	29.9	3.03e+01	92	40	0	387448832	46	6117
2026-01-19 01:29:43.90	128.33	29.60	-36.1	-37.3	29.7	3.03e+01	92	40	0	395313152	46	6297
2026-01-19 01:29:47.93	127.71	30.43	-35.8	-37.0	30.1	3.03e+01	91	40	0	402653184	46	6077
2026-01-19 01:29:51.97	127.05	31.28	-36.1	-37.2	29.8	3.03e+01	88	40	0	410517504	46	6277
2026-01-19 01:29:56.01	126.36	32.15	-36.3	-37.4	29.7	3.03e+01	92	40	0	417857536	46	6423
2026-01-19 01:30:00.05	125.62	33.05	-36.6	-37.8	29.4	3.03e+01	92	40	0	425721856	46	6665
2026-01-19 01:30:04.08	124.84	33.97	-36.4	-37.6	29.5	3.03e+01	90	40	0	433061888	46	6512
2026-01-19 01:30:08.12	124.02	34.91	-37.2	-38.4	28.8	3.03e+01	92	40	0	440926208	48	6376
2026-01-19 01:30:12.16	123.14	35.88	-37.3	-38.5	28.8	3.03e+01	92	40	0	448266240	48	6476
2026-01-19 01:30:16.20	122.20	36.87	-38.1	-39.4	28.0	3.03e+01	90	40	0	455606272	50	6386
2026-01-19 01:30:20.24	121.21	37.88	-38.2	-39.5	27.9	3.03e+01	90	40	0	463470592	50	6457
2026-01-19 01:30:24.29	120.14	38.92	-38.7	-40.0	27.5	3.03e+01	91	40	0	470810624	52	6083
2026-01-19 01:30:28.33	119.01	39.98	-39.0	-40.3	27.2	3.03e+01	91	40	0	478674944	52	6315
2026-01-19 01:30:32.36	117.79	41.06	-38.3	-39.6	27.9	3.03e+01	92	40	0	486014976	52	5810
2026-01-19 01:30:36.40	116.49	42.15	-38.0	-39.3	28.1	3.03e+01	91	40	0	493879296	50	6304
2026-01-19 01:30:40.44	115.10	43.27	-37.8	-39.1	28.3	3.03e+01	90	40	0	501219328	50	6136
2026-01-19 01:30:44.47	113.60	44.39	-37.5	-38.7	28.6	3.03e+01	92	40	0	509083648	50	5902
2026-01-19 01:30:48.51	111.99	45.53	-37.4	-38.7	28.6	3.03e+01	92	40	0	516423680	50	5875
2026-01-19 01:30:52.55	110.25	46.68	-37.7	-38.9	28.4	3.03e+01	86	40	0	523763712	50	6038
2026-01-19 01:30:56.59	108.38	47.83	-37.6	-38.9	28.5	3.03e+01	92	40	0	531628032	50	6000
2026-01-19 01:31:00.62	106.37	48.97	-37.6	-38.9	28.4	3.03e+01	92	40	0	538968064	50	6023
2026-01-19 01:31:04.66	104.19	50.11	-37.4	-38.6	28.6	3.03e+01	92	40	0	546832384	50	5841
2026-01-19 01:31:08.70	101.85	51.22	-36.9	-38.2	29.0	3.03e+01	90	40	0	554172416	48	6229
2026-01-19 01:31:12.73	99.33	52.31	-36.7	-37.9	29.2	3.03e+01	91	40	0	562036736	48	6043
2026-01-19 01:31:16.77	96.61	53.36	-36.8	-38.0	29.3	3.03e+01	92	40	0	569376768	48	6096
2026-01-19 01:31:20.81	93.69	54.37	-37.1	-38.3	29.0	3.03e+01	91	40	0	576716800	48	6312
2026-01-19 01:31:24.85	90.56	55.31	-37.2	-38.4	28.8	3.03e+01	91	40	0	584581120	48	6412
2026-01-19 01:31:28.89	87.22	56.18	-37.1	-38.3	28.9	3.03e+01	90	40	0	591921152	48	6291
2026-01-19 01:31:32.93	83.68	56.96	-37.6	-38.8	28.5	3.03e+01	92	40	0	599785472	48	6707
2026-01-19 01:31:36.97	79.94	57.64	-38.0	-39.3	28.1	3.03e+01	92	40	0	607125504	50	6312
2026-01-19 01:31:41.01	76.03	58.21	-38.3	-39.6	27.8	3.03e+01	92	40	0	614989824	50	6516
2026-01-19 01:31:45.05	71.96	58.65	-38.1	-39.3	28.0	3.03e+01	92	40	0	622329856	50	6340
2026-01-19 01:31:49.09	67.78	58.95	-38.3	-39.6	27.8	3.03e+01	92	40	0	630194176	50	6545
2026-01-19 01:31:53.13	63.52	59.12	-38.5	-39.8	27.6	3.03e+01	92	40	0	637534208	50	6709
2026-01-19 01:31:57.17	59.23	59.14	-39.1	-40.4	27.1	3.03e+01	92	40	0	645398528	52	6392
2026-01-19 01:32:01.21	54.96	59.01	-38.2	-39.4	28.0	3.03e+01	92	40	0	652738560	52	5701
2026-01-19 01:32:05.25	50.75	58.74	-38.4	-39.7	27.8	3.03e+01	90	40	0	660078592	52	5899
2026-01-19 01:32:09.29	46.65	58.33	-38.5	-39.8	27.7	3.03e+01	92	40	0	667942912	52	5976
2026-01-19 01:32:13.33	42.70	57.79	-38.5	-39.8	27.8	3.03e+01	91	40	0	675282944	52	5945
2026-01-19 01:32:17.37	38.92	57.14	-38.1	-39.4	28.0	3.03e+01	92	40	0	683147264	50	6377
2026-01-19 01:32:21.41	35.33	56.38	-38.2	-39.5	27.8	3.03e+01	92	40	0	690487296	50	6429
2026-01-19 01:32:25.45	31.95	55.54	-37.0	-38.2	29.1	3.03e+01	91	40	0	698351616	50	5572
2026-01-19 01:32:29.49	28.77	54.61	-36.4	-37.6	29.5	3.03e+01	92	40	0	705691648	48	5855
2026-01-19 01:32:33.52	25.81	53.63	-36.3	-37.4	29.7	3.03e+01	90	40	0	713555968	48	5718
2026-01-19 01:32:37.56	23.05	52.59	-36.3	-37.5	29.6	3.03e+01	59	40	0	720896000	48	5771
2026-01-19 01:32:41.60	20.48	51.51	-35.8	-36.9	30.1	3.03e+01	57	40	0	728236032	46	6055
2026-01-19 01:32:45.64	18.09	50.41	-36.6	-37.8	29.3	3.03e+01	58	40	0	736100352	46	6707
2026-01-19 01:32:49.67	15.89	49.28	-36.5	-37.7	29.4	3.03e+01	56	40	0	743440384	48	5901
2026-01-19 01:32:53.71	13.84	48.14	-36.4	-37.6	29.6	3.03e+01	60	40	0	751304704	48	5800
2026-01-19 01:32:57.75	11.93	47.00	-36.1	-37.3	29.8	3.03e+01	60	40	0	758644736	48	5617
2026-01-19 01:33:01.79	10.17	45.85	-36.4	-37.6	29.5	3.03e+01	57	40	0	766509056	48	5849
2026-01-19 01:33:05.83	8.53	44.71	-37.0	-38.2	29.1	3.03e+01	60	40	0	773849088	48	6238
2026-01-19 01:33:09.86	7.01	43.59	-36.9	-38.1	29.2	3.03e+01	56	40	0	781713408	48	6180
2026-01-19 01:33:13.90	5.59	42.48	-37.4	-38.6	28.6	3.03e+01	59	40	0	789053440	48	6560
2026-01-19 01:33:17.94	4.26	41.38	-37.7	-39.0	28.3	3.03e+01	59	40	0	796393472	50	6075
2026-01-19 01:33:21.98	3.03	40.30	-38.3	-39.6	27.8	3.03e+01	60	40	0	804257792	50	6558
2026-01-19 01:33:26.02	1.88	39.24	-38.5	-39.8	27.6	3.03e+01	61	41	0	811597824	50	6691
2026-01-19 01:33:30.06	0.80	38.20	-38.2	-39.5	27.9	3.03e+01	59	40	0	819462144	52	5743
2026-01-19 01:33:34.10	359.79	37.18	-38.6	-39.9	27.4	3.03e+01	61	40	0	826802176	52	6042
2026-01-19 01:33:38.13	358.85	36.19	-38.3	-39.7	27.8	3.03e+01	60	40	0	834666496	52	5875
2026-01-19 01:33:42.17	357.96	35.22	-37.5	-38.7	28.6	3.03e+01	44	40	0	842006528	50	5891
2026-01-19 01:33:46.21	357.12	34.28	-37.4	-38.6	28.7	3.03e+01	60	40	0	849346560	50	5840
2026-01-19 01:33:50.25	356.33	33.35	-37.0	-38.2	29.1	3.03e+01	46	40	0	857210880	48	6244
2026-01-19 01:33:54.28	355.59	32.46	-36.6	-37.8	29.4	3.03e+01	60	40	0	864550912	48	5941
2026-01-19 01:33:58.32	354.89	31.58	-36.4	-37.6	29.4	3.03e+01	49	40	0	872415232	48	5856
2026-01-19 01:34:02.36	354.22	30.73	-36.4	-37.6	29.5	3.03e+01	60	40	0	879755264	48	5797
2026-01-19 01:34:06.40	353.59	29.90	-36.4	-37.6	29.6	3.03e+01	49	41	0	887619584	48	5848
2026-01-19 01:34:10.44	353.00	29.09	-36.3	-37.6	29.5	3.03e+01	61	40	0	894959616	48	5793
2026-01-19 01:34:14.48	352.43	28.30	-36.8	-38.0	29.1	3.03e+01	51	40	0	902823936	48	6117
2026-01-19 01:34:18.51	351.90	27.53	-36.6	-37.8	29.3	3.03e+01	59	40	0	910163968	48	5959
2026-01-19 01:34:22.55	351.39	26.78	-36.7	-37.9	29.2	3.03e+01	44	41	0	917504000	48	6034
2026-01-19 01:34:26.59	350.90	26.05	-36.8	-38.0	29.0	3.03e+01	57	41	0	925368320	48	6103
2026-01-19 01:34:30.63	350.44	25.34	-37.1	-38.4	28.8	3.03e+01	50	41	0	932708352	48	6378
2026-01-19 01:34:34.67	350.00	24.65	-37.1	-38.3	28.8	3.03e+01	59	41	0	940572672	48	6343
2026-01-19 01:34:38.71	349.58	23.98	-36.9	-38.2	28.9	3.03e+01	44	41	0	947912704	48	6224
2026-01-19 01:34:42.75	349.18	23.32	-37.2	-38.4	28.8	3.03e+01	59	41	0	955777024	48	6418
2026-01-19 01:34:46.78	348.79	22.68	-37.2	-38.5	28.6	3.03e+01	61	41	0	963117056	48	6432
2026-01-19 01:34:50.82	348.43	22.05	-37.1	-38.4	28.7	3.03e+01	60	41	0	970981376	48	6371
2026-01-19 01:34:54.86	348.08	21.44	-37.3	-38.5	28.6	3.03e+01	58	41	0	978321408	48	6485
2026-01-19 01:34:58.90	347.74	20.85	-37.1	-38.3	28.7	3.03e+01	57	40	0	985661440	48	6350
2026-01-19 01:35:02.94	347.42	20.27	-36.9	-38.2	28.8	3.03e+01	59	41	0	993525760	48	6246
2026-01-19 01:35:06.97	347.11	19.70	-37.0	-38.3	28.8	3.03e+01	57	40	0	1000865792	48	6297
2026-01-19 01:35:11.01	346.81	19.14	-37.1	-38.4	28.7	3.03e+01	60	40	0	1008730112	48	6366
2026-01-19 01:35:15.05	346.52	18.60	-37.0	-38.2	28.7	3.03e+01	59	40	0	1016070144	48	6259
2026-01-19 01:35:19.09	346.25	18.07	-36.8	-38.0	29.0	3.03e+01	58	41	0	1023934464	48	6116
2026-01-19 01:35:23.13	345.98	17.55	-36.8	-38.0	29.0	3.03e+01	59	41	0	1031274496	48	6103
2026-01-19 01:35:27.17	345.73	17.04	-36.9	-38.1	28.8	3.03e+01	57	41	0	1039138816	48	6184
2026-01-19 01:35:31.20	345.48	16.55	-37.0	-38.3	28.7	3.03e+01	58	40	0	1046478848	48	6290
2026-01-19 01:35:35.24	345.25	16.06	-37.4	-38.6	28.3	3.03e+01	60	41	0	1053818880	48	6553
2026-01-19 01:35:39.28	345.02	15.59	-37.2	-38.5	28.5	3.03e+01	61	40	0	1061683200	48	6454
2026-01-19 01:35:43.33	344.80	15.12	-37.2	-38.4	28.5	3.03e+01	61	40	0	1069023232	48	6404
2026-01-19 01:35:47.36	344.59	14.66	-37.1	-38.4	28.5	3.03e+01	58	40	0	1076887552	48	6388
2026-01-19 01:35:51.40	344.38	14.21	-37.0	-38.3	28.6	3.03e+01	61	40	0	1084227584	48	6309
2026-01-19 01:35:55.44	344.18	13.77	-37.2	-38.5	28.4	3.03e+01	52	40	0	1092091904	48	6441
2026-01-19 01:35:59.48	343.99	13.34	-37.2	-38.5	28.4	3.03e+01	61	40	0	1099431936	48	6428
2026-01-19 01:36:03.52	343.81	12.92	-37.5	-38.8	28.2	3.03e+01	45	41	0	1107296256	48	6694
2026-01-19 01:36:07.56	343.63	12.50	-37.6	-47.8	3.6	3.03e+01	0	41	104	1112014848	48	18869
2026-01-19 01:36:11.59	343.46	12.09	-46.9	-59.2	3.4	3.03e+01	0	40	104	1112014848	56	44334
2026-01-19 01:36:15.62	343.29	11.69	-38.4	-48.6	3.6	3.03e+01	0	41	104	1112014848	52	16422
2026-01-19 01:36:19.65	343.13	11.30	-40.3	-50.7	3.6	3.03e+01	0	41	104	1112014848	56	16551
2026-01-19 01:36:23.68	342.97	10.91	-43.9	-55.0	4.0	3.03e+01	0	41	104	1112014848	60	21757
2026-01-19 01:36:27.72	342.82	10.53	-42.1	-52.7	3.6	3.03e+01	0	41	104	1112014848	56	21005
2026-01-19 01:36:31.76	342.67	10.16	-39.2	-49.5	3.5	3.03e+01	0	41	104	1112014848	52	18199
2026-01-19 01:36:35.80	342.53	9.79	-38.6	-48.9	3.5	3.03e+01	0	41	104	1112014848	52	16969
2026-01-19 01:36:39.83	342.39	9.43	-41.7	-52.2	3.5	3.03e+01	0	41	104	1112014848	60	15625
2026-01-19 01:36:43.87	342.25	9.07	-38.9	-49.3	3.5	3.03e+01	0	41	104	1112014848	52	17729
2026-01-19 01:36:47.91	342.12	8.72	-48.8	-66.7	3.5	3.03e+01	0	41	104	1112014848	60	82829
2026-01-19 01:36:51.95	342.00	8.37	-39.4	-49.9	3.5	3.03e+01	0	41	104	1112014848	54	17064
2026-01-19 01:36:55.99	341.87	8.03	-41.8	-52.5	3.5	3.03e+01	0	41	104	1112014848	58	18240
2026-01-19 01:37:00.02	341.75	7.69	-41.4	-52.1	3.5	3.03e+01	0	41	104	1112014848	58	17338
2026-01-19 01:37:04.06	341.64	7.36	-47.8	-62.2	3.5	3.03e+01	0	41	104	1112014848	60	49666
2026-01-19 01:37:08.10	341.52	7.03	-48.8	-66.8	3.5	3.03e+01	0	41	104	1112014848	60	83858
2026-01-19 01:37:12.14	341.41	6.71	-40.1	-50.6	3.5	3.03e+01	0	41	104	1112014848	54	18470
2026-01-19 01:37:16.18	341.30	6.39	-48.1	-65.9	3.5	3.03e+01	0	41	104	1112014848	60	75535
2026-01-19 01:37:20.22	341.20	6.08	-40.3	-50.9	3.5	3.03e+01	0	41	104	1112014848	56	17086
2026-01-19 01:37:24.25	341.10	5.77	-46.3	-61.0	3.5	3.03e+01	0	41	104	1112014848	60	43354
2026-01-19 01:37:28.29	341.00	5.46	-42.2	-53.3	3.5	3.03e+01	0	40	104	1112014848	60	17857
2026-01-19 01:37:32.33	340.90	5.16	-43.7	-55.6	3.5	3.03e+01	0	41	104	1112014848	60	23296
2026-01-19 01:37:36.37	340.81	4.86	-45.0	-58.2	3.5	3.03e+01	0	41	104	1112014848	60	31421
2026-01-19 01:37:40.40	340.72	4.57	-45.8	-60.8	3.5	3.03e+01	0	41	104	1112014848	60	42100
2026-01-19 01:37:44.44	340.63	4.28	-46.2	-63.8	3.5	3.03e+01	0	41	104	1112014848	60	59711
2026-01-19 01:37:48.48	340.54	3.99	-46.1	-63.7	3.5	3.03e+01	0	41	104	1112014848	60	59222
2026-01-19 01:37:52.52	340.46	3.70	-46.1	-64.0	3.5	3.03e+01	0	41	104	1112014848	60	61238
2026-01-19 01:37:56.56	340.38	3.42	-46.0	-64.0	3.5	3.03e+01	0	41	104	1112014848	60	61179
2026-01-19 01:38:00.59	340.29	3.14	-45.9	-64.0	3.5	3.03e+01	0	41	104	1112014848	60	61156
2026-01-19 01:38:04.63	340.22	2.87	-49.1	-67.4	3.5	3.03e+01	0	41	104	1112014848	60	90505
2026-01-19 01:38:08.67	340.14	2.60	-50.4	-68.3	3.5	3.03e+01	0	41	104	1112014848	60	99949
2026-01-19 01:38:12.71	340.07	2.33	-50.6	-68.5	3.5	3.03e+01	0	41	104	1112014848	60	102915
2026-01-19 01:38:16.75	339.99	2.06	-50.2	-68.5	3.5	3.03e+01	0	41	104	1112014848	60	102798
2026-01-19 01:38:20.78	339.92	1.80	-49.5	-68.4	3.5	3.03e+01	0	41	104	1112014848	60	101745
2026-01-19 01:38:24.82	339.85	1.53	-50.2	-68.4	3.5	3.03e+01	0	41	104	1112014848	60	100843
2026-01-19 01:38:28.86	339.79	1.27	-50.4	-68.4	3.5	3.03e+01	0	41	104	1112014848	60	101444
2026-01-19 01:38:32.90	339.72	1.02	-50.3	-68.4	3.5	3.03e+01	0	41	104	1112014848	60	101090
2026-01-19 01:38:36.94	339.65	0.76	-50.3	-68.4	3.5	3.03e+01	0	41	104	1112014848	60	100786
2026-01-19 01:38:40.98	339.59	0.51	-50.3	-68.4	3.5	3.03e+01	0	41	104	1112014848	60	101057
2026-01-19 01:38:45.02	339.53	0.26	-50.3	-68.4	3.5	3.03e+01	0	41	104	1112014848	60	100950
2026-01-19 01:38:49.06	339.47	0.01	-50.3	-68.4	3.5	3.03e+01	0	41	104	1112014848	60	101687

#Closed at: 2026-01-19 01:38:50
#Recorded file [1112 MB]: D:/lorett/data/35029_260119_132505.dat