passes_logs/2026/01/19/R4.6S_Anadyr/R4.6S_Anadyr__20260119_162444_AQUA_rec.log

#Pass ID: 20260119_162444_AQUA
#Satellite: AQUA
#Configuration: AQUA
#almurnet v.1.7.20251203
#Start time: 2026-01-19 16:24:48

#Version: 2.2.20231116
#Station: R4.6S_Anadyr
#Location: 177.4865 lon 64.73178 lat
#TLE: 1 27424U 02022A   26018.92652823  .00000914  00000+0  19290-3 0  9996
#TLE: 2 27424  98.4089 345.4199 0001997  73.4625 351.8991 14.61828815261466

#Time	Az	El	Level	Level2	SNR	BER	BlckErr	Temp	State	Recorded	gain1	gain2
2026-01-19 16:24:48.47	19.85	0.22	-50.6	-67.1	3.3	3.04e+01	0	40	0	0	60	86698
2026-01-19 16:24:52.51	19.86	0.47	-50.4	-68.2	3.5	3.04e+01	0	40	104	0	60	98954
2026-01-19 16:24:56.55	19.88	0.72	-50.3	-68.1	3.5	3.04e+01	0	41	104	0	60	97941
2026-01-19 16:25:00.59	19.89	0.98	-50.0	-67.8	3.5	3.04e+01	0	41	104	0	60	94833
2026-01-19 16:25:04.63	19.91	1.23	-49.5	-67.4	3.5	3.04e+01	0	41	104	0	60	90057
2026-01-19 16:25:08.68	19.93	1.49	-48.8	-66.6	3.5	3.04e+01	0	41	104	0	60	82035
2026-01-19 16:25:12.72	19.94	1.76	-48.8	-66.6	3.5	3.04e+01	0	41	104	0	60	82152
2026-01-19 16:25:16.76	19.96	2.02	-48.7	-66.5	3.5	3.04e+01	0	41	104	0	60	81752
2026-01-19 16:25:20.79	19.97	2.29	-48.7	-66.4	3.5	3.04e+01	0	41	104	0	60	80321
2026-01-19 16:25:24.83	19.99	2.56	-48.5	-65.3	3.5	3.04e+01	0	41	104	0	60	70447
2026-01-19 16:25:28.87	20.00	2.84	-48.4	-64.7	3.5	3.04e+01	0	41	104	0	60	65917
2026-01-19 16:25:32.92	20.02	3.11	-45.4	-57.5	3.5	3.04e+01	0	41	104	0	60	28898
2026-01-19 16:25:36.96	20.03	3.40	-42.1	-53.0	3.5	3.04e+01	0	41	104	0	60	17149
2026-01-19 16:25:41.00	20.05	3.68	-42.2	-53.1	3.5	3.04e+01	0	41	104	0	58	19426
2026-01-19 16:25:45.04	20.06	3.97	-44.2	-55.7	3.5	3.04e+01	0	41	104	0	60	23552
2026-01-19 16:25:49.07	20.08	4.26	-43.7	-54.9	3.5	3.04e+01	0	41	104	0	60	21359
2026-01-19 16:25:53.11	20.09	4.55	-39.2	-49.7	3.5	3.04e+01	0	41	104	0	54	16591
2026-01-19 16:25:57.15	20.11	4.85	-49.0	-66.4	3.5	3.04e+01	0	41	104	0	60	80551
2026-01-19 16:26:01.18	20.12	5.15	-39.5	-49.9	3.5	3.04e+01	0	41	104	0	54	17078
2026-01-19 16:26:05.22	20.14	5.45	-40.3	-50.8	3.5	3.04e+01	0	41	104	0	58	15046
2026-01-19 16:26:09.26	20.15	5.76	-38.8	-49.1	3.5	3.04e+01	0	41	104	0	52	17437
2026-01-19 16:26:13.30	20.17	6.07	-48.9	-65.7	3.5	3.04e+01	0	41	104	0	60	74240
2026-01-19 16:26:17.34	20.18	6.39	-42.2	-53.1	3.5	3.04e+01	0	41	104	0	58	19442
2026-01-19 16:26:21.37	20.20	6.71	-41.3	-51.9	3.5	3.04e+01	0	41	104	0	56	19015
2026-01-19 16:26:25.41	20.21	7.04	-40.4	-51.0	3.5	3.04e+01	0	41	104	0	56	17202
2026-01-19 16:26:29.45	20.22	7.37	-47.3	-60.7	3.6	3.04e+01	0	41	104	0	60	41627
2026-01-19 16:26:33.49	20.24	7.71	-46.1	-58.4	3.5	3.04e+01	0	41	104	0	60	31975
2026-01-19 16:26:37.53	20.25	8.05	-40.2	-50.7	3.4	3.04e+01	0	41	104	0	52	20868
2026-01-19 16:26:41.57	20.27	8.39	-43.3	-54.2	3.5	3.04e+01	0	41	104	0	54	27924
2026-01-19 16:26:45.60	20.28	8.75	-39.1	-49.5	3.5	3.04e+01	0	41	104	0	54	16180
2026-01-19 16:26:49.64	20.30	9.10	-41.6	-52.3	3.5	3.04e+01	0	41	104	0	58	17736
2026-01-19 16:26:53.68	20.31	9.47	-38.7	-49.0	3.5	3.04e+01	0	41	104	0	52	17201
2026-01-19 16:26:57.72	20.32	9.83	-48.2	-61.8	3.5	3.04e+01	0	41	104	0	60	47371
2026-01-19 16:27:01.76	20.34	10.21	-38.4	-48.8	3.6	3.04e+01	0	41	104	0	52	16767
2026-01-19 16:27:05.80	20.35	10.59	-38.2	-48.5	3.5	3.04e+01	0	41	104	0	50	18236
2026-01-19 16:27:09.84	20.36	10.98	-40.1	-50.6	3.5	3.04e+01	0	41	104	0	56	16432
2026-01-19 16:27:13.87	20.38	11.37	-44.9	-56.4	3.5	3.04e+01	0	41	104	0	60	25284
2026-01-19 16:27:17.91	20.39	11.78	-49.3	-67.0	3.5	3.04e+01	0	41	104	0	60	86214
2026-01-19 16:27:21.95	20.40	12.19	-37.2	-47.4	3.5	3.04e+01	0	41	104	0	50	16130
2026-01-19 16:27:25.99	20.42	12.61	-42.1	-52.8	3.5	3.04e+01	0	41	104	0	58	18781
2026-01-19 16:27:30.02	20.43	13.03	-37.2	-47.5	3.5	3.04e+01	0	41	104	0	50	16162
2026-01-19 16:27:34.06	20.44	13.47	-49.5	-66.5	3.5	3.04e+01	0	41	104	0	60	81696
2026-01-19 16:27:38.10	20.45	13.91	-39.4	-49.8	3.5	3.04e+01	0	41	104	0	54	16717
2026-01-19 16:27:42.14	20.47	14.36	-38.5	-48.9	3.5	3.04e+01	0	41	104	0	52	16993
2026-01-19 16:27:46.18	20.48	14.82	-38.3	-48.6	3.5	3.04e+01	0	41	104	0	52	16382
2026-01-19 16:27:50.21	20.49	15.29	-44.7	-56.1	3.6	3.04e+01	0	41	104	0	60	24639
2026-01-19 16:27:54.25	20.50	15.78	-49.8	-67.3	3.5	3.04e+01	0	41	104	0	60	89596
2026-01-19 16:27:58.29	20.51	16.27	-36.6	-46.8	3.5	3.04e+01	0	41	104	0	48	16830
2026-01-19 16:28:02.33	20.53	16.77	-38.8	-49.1	3.6	3.04e+01	0	41	104	0	56	13816
2026-01-19 16:28:06.37	20.54	17.29	-39.9	-50.3	3.5	3.04e+01	0	41	104	0	54	17786
2026-01-19 16:28:10.41	20.55	17.82	-48.1	-61.4	3.5	3.04e+01	0	41	104	0	60	45419
2026-01-19 16:28:14.44	20.56	18.36	-39.1	-49.4	3.5	3.04e+01	0	41	104	0	52	18052
2026-01-19 16:28:18.48	20.57	18.91	-38.8	-49.1	3.5	3.04e+01	0	41	104	0	52	17360
2026-01-19 16:28:22.52	20.58	19.48	-37.6	-47.8	3.5	3.04e+01	0	41	104	0	50	16885
2026-01-19 16:28:26.56	20.59	20.07	-40.5	-51.0	3.5	3.04e+01	0	41	104	0	58	15342
2026-01-19 16:28:30.60	20.60	20.67	-45.5	-57.1	3.5	3.04e+01	0	41	104	0	60	27622
2026-01-19 16:28:34.63	20.61	21.28	-42.4	-53.1	3.5	3.04e+01	0	41	104	0	52	27655
2026-01-19 16:28:38.67	20.62	21.91	-43.3	-54.0	3.5	3.04e+01	0	41	104	0	52	30744
2026-01-19 16:28:42.70	20.63	22.56	-37.6	-47.8	3.6	3.04e+01	0	41	104	0	50	16795
2026-01-19 16:28:46.75	20.64	23.23	-41.9	-52.6	3.5	3.04e+01	0	41	104	0	58	18348
2026-01-19 16:28:50.79	20.64	23.91	-37.5	-47.7	3.5	3.04e+01	0	41	104	0	50	16616
2026-01-19 16:28:54.82	20.65	24.62	-48.9	-63.1	3.5	3.04e+01	0	41	104	0	60	55248
2026-01-19 16:28:58.86	20.66	25.35	-44.4	-55.4	3.5	3.04e+01	0	41	104	0	60	22783
2026-01-19 16:29:02.89	20.67	26.10	-49.9	-66.7	3.5	3.04e+01	0	41	104	0	60	82760
2026-01-19 16:29:06.93	20.67	26.87	-39.8	-50.1	3.5	3.04e+01	0	41	104	0	56	15508
2026-01-19 16:29:10.97	20.68	27.67	-41.8	-52.4	3.5	3.04e+01	0	41	104	0	58	18099
2026-01-19 16:29:15.01	20.69	28.50	-50.1	-67.8	3.5	3.04e+01	0	41	104	0	60	94390
2026-01-19 16:29:19.04	20.69	29.35	-36.4	-46.5	3.5	3.04e+01	0	41	104	0	48	16318
2026-01-19 16:29:23.08	20.69	30.23	-44.1	-55.2	3.5	3.04e+01	0	41	104	0	60	22038
2026-01-19 16:29:27.12	20.70	31.14	-41.1	-51.5	3.6	3.04e+01	0	41	104	0	56	18216
2026-01-19 16:29:31.16	20.70	32.08	-42.5	-53.3	3.5	3.04e+01	0	41	104	0	60	17853
2026-01-19 16:29:35.20	20.70	33.06	-38.9	-49.2	3.5	3.04e+01	0	41	104	0	52	17553
2026-01-19 16:29:39.24	20.70	34.07	-41.3	-51.8	3.5	3.04e+01	0	41	104	0	60	14986
2026-01-19 16:29:43.27	20.70	35.11	-40.2	-50.6	3.5	3.04e+01	0	41	104	0	56	16445
2026-01-19 16:29:47.31	20.70	36.20	-40.6	-51.0	3.5	3.04e+01	0	41	104	0	56	17096
2026-01-19 16:29:51.35	20.70	37.32	-50.1	-67.0	3.5	3.04e+01	0	41	104	0	60	86383
2026-01-19 16:29:55.38	20.70	38.49	-42.5	-53.2	3.5	3.04e+01	0	41	104	0	60	17548
2026-01-19 16:29:59.42	20.69	39.70	-39.1	-49.3	3.5	3.04e+01	0	41	104	0	54	15885
2026-01-19 16:30:03.46	20.68	40.96	-39.9	-50.4	3.5	3.04e+01	0	41	104	0	54	18041
2026-01-19 16:30:07.50	20.68	42.27	-45.0	-56.2	3.5	3.04e+01	0	41	104	0	60	24891
2026-01-19 16:30:11.54	20.67	43.62	-38.9	-49.2	3.5	3.04e+01	0	41	104	0	52	17506
2026-01-19 16:30:15.58	20.65	45.03	-41.5	-52.0	3.5	3.04e+01	0	41	104	0	52	24392
2026-01-19 16:30:19.61	20.64	46.49	-47.3	-59.5	3.5	3.04e+01	0	41	104	0	60	36138
2026-01-19 16:30:23.65	20.62	48.01	-48.7	-62.1	3.5	3.04e+01	0	41	104	0	60	49214
2026-01-19 16:30:27.69	20.59	49.59	-39.7	-50.2	3.5	3.04e+01	0	41	104	0	58	13950
2026-01-19 16:30:31.72	20.57	51.22	-42.7	-53.3	3.5	3.04e+01	0	41	104	0	56	22454
2026-01-19 16:30:35.76	20.53	52.92	-47.2	-59.5	3.4	3.04e+01	0	41	104	0	60	36282
2026-01-19 16:30:39.80	20.49	54.68	-36.6	-46.8	3.5	3.04e+01	0	41	104	0	48	16828
2026-01-19 16:30:43.84	20.45	56.51	-48.2	-61.2	3.5	3.04e+01	0	41	104	0	60	44281
2026-01-19 16:30:47.88	20.39	58.40	-45.1	-56.3	3.5	3.04e+01	0	41	104	0	60	25144
2026-01-19 16:30:51.91	20.33	60.35	-44.7	-55.9	3.5	3.04e+01	0	41	104	0	58	26916
2026-01-19 16:30:55.95	20.25	62.37	-41.4	-51.8	3.5	3.04e+01	0	41	104	0	56	18765
2026-01-19 16:30:59.99	20.15	64.45	-48.7	-62.5	3.5	3.04e+01	0	41	104	0	60	51239
2026-01-19 16:31:04.03	20.03	66.60	-42.9	-53.7	3.5	3.04e+01	0	41	104	0	60	18629
2026-01-19 16:31:08.07	19.87	68.81	-48.2	-61.2	3.5	3.04e+01	0	41	104	0	60	44301
2026-01-19 16:31:12.11	19.68	71.07	-50.4	-66.1	3.5	3.04e+01	0	41	104	524288	60	77796
2026-01-19 16:31:16.15	19.42	73.38	-46.5	-49.5	18.6	3.04e+01	59	41	0	6291456	60	11468
2026-01-19 16:31:20.18	19.07	75.74	-43.5	-45.4	22.5	3.04e+01	63	41	0	14155776	60	7173
2026-01-19 16:31:24.22	18.56	78.15	-41.6	-43.1	24.7	3.04e+01	61	41	0	21495808	56	6961
2026-01-19 16:31:28.26	17.77	80.59	-38.6	-39.9	27.6	3.04e+01	59	41	0	29360128	52	6018
2026-01-19 16:31:32.30	16.41	83.06	-37.9	-39.1	28.3	3.04e+01	56	41	0	36700160	50	6198
2026-01-19 16:31:36.34	13.50	85.54	-39.1	-40.4	27.9	3.04e+01	58	41	0	44040192	52	6397
2026-01-19 16:31:40.37	3.37	87.99	-36.3	-37.5	29.5	3.04e+01	61	41	0	51904512	48	5745
2026-01-19 16:31:44.41	247.74	89.12	-36.7	-37.9	29.9	3.04e+01	58	41	0	59244544	48	5996
2026-01-19 16:31:48.46	213.05	86.81	-37.6	-38.9	28.6	3.04e+01	56	41	0	67108864	50	6022
2026-01-19 16:31:52.50	208.05	84.33	-38.6	-39.9	28.2	3.04e+01	61	41	0	74448896	52	6001
2026-01-19 16:31:56.54	206.11	81.85	-38.0	-39.3	28.4	3.04e+01	58	41	0	82313216	50	6307
2026-01-19 16:32:00.57	205.09	79.40	-40.2	-41.6	27.1	3.04e+01	61	41	0	89653248	52	7323
2026-01-19 16:32:04.61	204.46	76.97	-41.4	-42.9	25.6	3.04e+01	57	41	0	97517568	56	6771
2026-01-19 16:32:08.64	204.04	74.59	-41.4	-42.8	25.8	3.04e+01	56	41	0	104857600	56	6699
2026-01-19 16:32:12.68	203.74	72.24	-41.2	-42.7	25.7	3.04e+01	58	41	0	112197632	56	6587
2026-01-19 16:32:16.72	203.51	69.95	-41.7	-43.3	24.5	3.04e+01	58	41	0	120061952	58	6347
2026-01-19 16:32:20.76	203.34	67.71	-42.2	-43.8	24.2	3.04e+01	60	41	0	127401984	60	5978
2026-01-19 16:32:24.79	203.20	65.53	-40.9	-42.4	25.3	3.04e+01	46	41	0	135266304	58	5660
2026-01-19 16:32:28.83	203.09	63.41	-40.0	-41.3	27.0	3.04e+01	60	41	0	142606336	56	5639
2026-01-19 16:32:32.87	203.00	61.35	-40.2	-41.6	27.1	3.04e+01	45	41	0	150470656	52	7320
2026-01-19 16:32:36.91	202.93	59.36	-39.3	-40.6	27.7	3.04e+01	57	41	0	157810688	54	5826
2026-01-19 16:32:40.95	202.87	57.43	-38.3	-39.5	27.3	3.04e+01	60	41	0	165675008	48	7275
2026-01-19 16:32:44.98	202.82	55.57	-36.6	-37.8	29.7	3.04e+01	56	41	0	173015040	48	5936
2026-01-19 16:32:49.02	202.77	53.77	-35.8	-37.0	30.1	3.04e+01	45	41	0	180355072	46	6111
2026-01-19 16:32:53.05	202.74	52.04	-35.8	-36.9	29.8	3.04e+01	58	41	0	188219392	46	6054
2026-01-19 16:32:57.09	202.71	50.37	-36.4	-37.6	29.3	3.04e+01	59	41	0	195559424	46	6499
2026-01-19 16:33:01.13	202.68	48.75	-37.3	-38.6	28.3	3.04e+01	59	41	0	203423744	48	6505
2026-01-19 16:33:05.16	202.66	47.20	-36.7	-37.9	28.9	3.04e+01	48	41	0	210763776	48	6060
2026-01-19 16:33:09.20	202.64	45.71	-36.8	-38.0	29.1	3.04e+01	59	41	0	218628096	48	6129
2026-01-19 16:33:13.24	202.62	44.27	-37.2	-38.4	28.9	3.04e+01	50	41	0	225968128	48	6403
2026-01-19 16:33:17.27	202.61	42.88	-36.5	-37.7	29.3	3.04e+01	61	41	0	233308160	48	5883
2026-01-19 16:33:21.31	202.60	41.55	-37.9	-39.2	28.2	3.04e+01	53	41	0	241172480	48	7017
2026-01-19 16:33:25.35	202.59	40.26	-38.1	-39.4	28.0	3.04e+01	60	41	0	248512512	50	6372
2026-01-19 16:33:29.38	202.58	39.03	-38.4	-39.7	27.6	3.04e+01	45	41	0	256376832	50	6627
2026-01-19 16:33:33.42	202.58	37.83	-38.0	-39.3	28.0	3.04e+01	60	41	0	263716864	50	6321
2026-01-19 16:33:37.46	202.57	36.68	-38.1	-39.3	28.0	3.04e+01	51	41	0	271581184	50	6339
2026-01-19 16:33:41.50	202.57	35.57	-37.0	-38.2	28.9	3.04e+01	58	41	0	278921216	50	5577
2026-01-19 16:33:45.54	202.57	34.50	-37.0	-38.2	29.1	3.04e+01	60	41	0	286785536	48	6241
2026-01-19 16:33:49.58	202.57	33.47	-36.5	-37.7	29.5	3.04e+01	60	41	0	294125568	48	5869
2026-01-19 16:33:53.61	202.57	32.48	-36.0	-37.2	29.7	3.04e+01	56	41	0	301465600	48	5575
2026-01-19 16:33:57.65	202.57	31.52	-36.2	-37.4	29.6	3.04e+01	59	41	0	309329920	48	5707
2026-01-19 16:34:01.69	202.57	30.59	-35.8	-37.0	29.7	3.04e+01	56	41	0	316669952	46	6115
2026-01-19 16:34:05.73	202.57	29.69	-36.1	-37.3	29.6	3.04e+01	59	41	0	324534272	46	6336
2026-01-19 16:34:09.77	202.58	28.82	-36.4	-37.6	29.2	3.04e+01	56	41	0	331874304	46	6549
2026-01-19 16:34:13.80	202.58	27.98	-36.2	-37.4	29.3	3.04e+01	58	41	0	339738624	46	6396
2026-01-19 16:34:17.84	202.59	27.16	-36.3	-37.5	29.5	3.04e+01	58	41	0	347078656	46	6433
2026-01-19 16:34:21.88	202.59	26.38	-36.1	-37.3	29.6	3.04e+01	57	41	0	354942976	46	6285
2026-01-19 16:34:25.92	202.60	25.61	-36.4	-37.6	29.2	3.04e+01	53	41	0	362283008	46	6547
2026-01-19 16:34:29.95	202.60	24.87	-37.1	-38.3	28.7	3.04e+01	60	41	0	369623040	48	6333
2026-01-19 16:34:33.99	202.61	24.15	-37.1	-38.4	28.7	3.04e+01	59	41	0	377487360	48	6352
2026-01-19 16:34:38.03	202.61	23.45	-37.0	-38.2	28.7	3.04e+01	58	41	0	384827392	48	6233
2026-01-19 16:34:42.08	202.62	22.77	-36.9	-38.1	28.7	3.04e+01	60	41	0	392691712	48	6171
2026-01-19 16:34:46.11	202.63	22.11	-36.8	-38.0	28.8	3.04e+01	51	41	0	400031744	48	6098
2026-01-19 16:34:50.15	202.64	21.47	-36.9	-38.2	28.8	3.04e+01	57	41	0	407896064	48	6214
2026-01-19 16:34:54.19	202.64	20.84	-36.7	-37.9	29.0	3.04e+01	45	41	0	415236096	48	6010
2026-01-19 16:34:58.24	202.65	20.23	-36.8	-38.0	28.9	3.04e+01	62	41	0	423100416	48	6104
2026-01-19 16:35:02.28	202.66	19.64	-36.7	-37.9	29.0	3.04e+01	56	41	0	430440448	48	6050
2026-01-19 16:35:06.32	202.67	19.06	-36.8	-38.0	28.9	3.04e+01	59	41	0	437780480	48	6107
2026-01-19 16:35:10.36	202.68	18.50	-36.8	-38.1	28.9	3.04e+01	56	41	0	445644800	48	6143
2026-01-19 16:35:14.40	202.68	17.95	-37.1	-38.4	28.7	3.04e+01	59	41	0	452984832	48	6371
2026-01-19 16:35:18.44	202.69	17.42	-36.9	-38.1	28.7	3.04e+01	52	41	0	460849152	48	6205
2026-01-19 16:35:22.47	202.70	16.89	-36.8	-38.1	28.7	3.04e+01	62	41	0	468189184	48	6158
2026-01-19 16:35:26.51	202.71	16.38	-36.7	-38.0	28.8	3.04e+01	51	41	0	476053504	48	6083
2026-01-19 16:35:30.55	202.72	15.88	-36.7	-38.0	28.9	3.04e+01	60	41	0	483393536	48	6072
2026-01-19 16:35:34.59	202.73	15.39	-36.6	-37.9	28.9	3.04e+01	44	41	0	491257856	48	5997
2026-01-19 16:35:38.63	202.74	14.92	-36.5	-37.7	29.0	3.04e+01	57	41	0	498597888	48	5900
2026-01-19 16:35:42.67	202.75	14.45	-36.4	-37.7	29.0	3.04e+01	51	41	0	505937920	48	5861
2026-01-19 16:35:46.71	202.76	13.99	-36.3	-37.5	29.1	3.04e+01	60	41	0	513802240	48	5788
2026-01-19 16:35:50.75	202.77	13.54	-36.5	-37.7	29.0	3.04e+01	57	41	0	521142272	48	5926
2026-01-19 16:35:54.78	202.78	13.10	-36.6	-37.8	28.8	3.04e+01	60	41	0	529006592	48	5967
2026-01-19 16:35:58.82	202.79	12.67	-36.5	-37.7	29.0	3.04e+01	54	41	0	536346624	48	5925
2026-01-19 16:36:02.85	202.80	12.25	-36.6	-37.8	28.9	3.04e+01	56	41	0	544210944	48	5968
2026-01-19 16:36:06.89	202.81	11.83	-36.5	-37.7	29.0	3.04e+01	60	41	0	551550976	48	5915
2026-01-19 16:36:10.93	202.82	11.43	-36.6	-37.8	28.9	3.04e+01	61	41	0	558891008	48	5979
2026-01-19 16:36:14.97	202.83	11.03	-36.6	-37.9	28.8	3.04e+01	56	41	0	566755328	48	5999
2026-01-19 16:36:19.25	202.84	10.61	-36.8	-38.0	28.7	3.04e+01	59	41	0	574095360	48	6116
2026-01-19 16:36:23.29	202.86	10.23	-36.8	-38.1	28.5	3.04e+01	59	41	0	581959680	48	6137
2026-01-19 16:36:27.33	202.87	9.85	-36.8	-38.1	28.6	3.04e+01	59	41	0	589299712	48	6152
2026-01-19 16:36:31.37	202.88	9.47	-37.0	-38.2	28.4	3.04e+01	59	41	0	597164032	48	6242
2026-01-19 16:36:35.41	202.89	9.11	-37.1	-38.3	28.2	3.04e+01	57	41	0	604504064	48	6327
2026-01-19 16:36:39.45	202.90	8.75	-37.2	-38.4	28.1	3.04e+01	60	41	0	612368384	48	6422
2026-01-19 16:36:43.49	202.91	8.39	-37.8	-39.1	27.6	3.04e+01	60	41	0	619708416	48	6944
2026-01-19 16:36:47.53	202.92	8.04	-37.6	-38.9	27.9	3.04e+01	58	41	0	627572736	48	6732
2026-01-19 16:36:51.58	202.93	7.70	-37.6	-38.9	27.8	3.04e+01	57	41	0	634912768	48	6762
2026-01-19 16:36:55.61	202.94	7.36	-37.7	-39.0	27.6	3.04e+01	61	41	0	642252800	48	6812
2026-01-19 16:36:59.65	202.96	7.03	-37.8	-39.1	27.4	3.04e+01	61	41	0	650117120	48	6949
2026-01-19 16:37:03.69	202.97	6.70	-38.1	-39.4	27.2	3.04e+01	61	41	0	657457152	50	6417
2026-01-19 16:37:07.73	202.98	6.37	-38.3	-39.6	27.0	3.04e+01	45	41	0	665321472	50	6552
2026-01-19 16:37:11.77	202.99	6.05	-38.3	-39.7	26.9	3.04e+01	62	41	0	672661504	50	6589
2026-01-19 16:37:15.81	203.00	5.74	-38.3	-39.7	26.8	3.04e+01	57	41	0	680525824	50	6625
2026-01-19 16:37:19.85	203.01	5.43	-38.5	-39.9	26.5	3.04e+01	57	41	0	687865856	50	6764
2026-01-19 16:37:23.89	203.02	5.12	-38.6	-40.0	26.5	3.04e+01	45	41	0	695730176	50	6805
2026-01-19 16:37:27.93	203.04	4.82	-38.7	-40.1	26.4	3.04e+01	59	41	0	703070208	52	6188
2026-01-19 16:37:31.96	203.05	4.52	-39.0	-40.5	26.0	3.04e+01	39	41	0	710410240	52	6436
2026-01-19 16:37:36.00	203.06	4.22	-38.9	-40.4	26.0	3.04e+01	60	41	0	718274560	52	6356
2026-01-19 16:37:40.04	203.07	3.93	-39.0	-40.5	25.8	3.04e+01	48	41	0	725614592	52	6450
2026-01-19 16:37:44.08	203.08	3.64	-39.3	-40.7	25.5	3.04e+01	57	41	0	733478912	52	6644
2026-01-19 16:37:48.12	203.09	3.35	-39.4	-40.9	25.3	3.04e+01	44	41	0	740818944	52	6761
2026-01-19 16:37:52.17	203.10	3.07	-39.2	-40.7	25.4	3.04e+01	60	41	0	748683264	54	5899
2026-01-19 16:37:56.21	203.12	2.79	-49.8	-67.6	3.5	3.04e+01	0	41	104	751304704	60	92608
2026-01-19 16:38:00.24	203.13	2.52	-50.2	-68.1	3.4	3.04e+01	0	41	104	751304704	60	97698
2026-01-19 16:38:04.28	203.14	2.24	-50.3	-68.2	3.5	3.04e+01	0	41	104	751304704	60	99316
2026-01-19 16:38:08.32	203.15	1.97	-50.3	-68.2	3.5	3.04e+01	0	41	104	751304704	60	99470
2026-01-19 16:38:12.36	203.16	1.71	-50.3	-68.2	3.5	3.04e+01	0	41	104	751304704	60	99480
2026-01-19 16:38:16.39	203.17	1.44	-50.4	-68.4	3.5	3.04e+01	0	41	104	751304704	60	101009
2026-01-19 16:38:20.43	203.19	1.18	-51.1	-68.8	3.5	3.04e+01	0	41	104	751304704	60	106473
2026-01-19 16:38:24.47	203.20	0.92	-50.9	-68.8	3.5	3.04e+01	0	41	104	751304704	60	105466
2026-01-19 16:38:28.52	203.21	0.66	-50.9	-68.7	3.5	3.04e+01	0	41	104	751304704	60	104596
2026-01-19 16:38:32.56	203.22	0.41	-50.9	-68.8	3.5	3.04e+01	0	41	104	751304704	60	105625
2026-01-19 16:38:36.60	203.23	0.16	-51.1	-68.9	3.5	3.04e+01	0	41	104	751304704	60	107510

#Closed at: 2026-01-19 16:38:40
#Recorded file [751 MB]: D:/lorett/data/35029_260120_042448.dat