passes_logs/2026/01/19/R4.6S_Anadyr/R4.6S_Anadyr__20260119_164958_SUOMI_NPP_rec.log

#Pass ID: 20260119_164958_SUOMI NPP
#Satellite: SUOMI NPP
#Configuration: NPP
#almurnet v.1.7.20251203
#Start time: 2026-01-19 16:49:59

#Version: 2.2.20231116
#Station: R4.6S_Anadyr
#Location: 177.4865 lon 64.73178 lat
#TLE: 1 37849U 11061A   26018.91022273  .00000066  00000+0  52264-4 0  9997
#TLE: 2 37849  98.7816 320.9252 0002364  56.8129 303.3273 14.19526186737260

#Time	Az	El	Level	Level2	SNR	BER	BlckErr	Temp	State	Recorded	gain1	gain2
2026-01-19 16:49:59.58	27.73	0.06	-51.2	-68.9	3.5	3.04e+01	0	38	0	0	60	107325
2026-01-19 16:50:03.61	27.54	0.28	-50.8	-66.1	3.6	1.51e+00	0	39	104	0	60	72618
2026-01-19 16:50:07.65	27.35	0.51	-51.3	-66.4	3.6	1.51e+00	0	39	104	0	60	75408
2026-01-19 16:50:11.69	27.15	0.74	-50.1	-65.3	3.6	1.51e+00	0	39	104	0	60	66344
2026-01-19 16:50:15.72	26.96	0.97	-49.8	-65.0	3.6	1.51e+00	0	39	104	0	60	64391
2026-01-19 16:50:19.76	26.76	1.20	-49.3	-64.5	3.6	1.51e+00	0	40	104	0	60	60808
2026-01-19 16:50:23.80	26.55	1.43	-48.5	-63.7	3.6	1.51e+00	0	40	104	0	60	55317
2026-01-19 16:50:27.84	26.35	1.67	-48.3	-63.4	3.6	1.51e+00	0	39	104	0	60	53582
2026-01-19 16:50:31.88	26.13	1.90	-48.3	-63.4	3.6	1.51e+00	0	39	104	0	60	53277
2026-01-19 16:50:35.92	25.92	2.14	-48.3	-63.2	3.6	1.51e+00	0	40	104	0	60	52511
2026-01-19 16:50:39.96	25.70	2.38	-48.3	-63.5	3.6	1.51e+00	0	40	104	0	60	53967
2026-01-19 16:50:43.99	25.48	2.62	-48.3	-63.3	3.6	1.51e+00	0	40	104	0	60	52611
2026-01-19 16:50:48.03	25.25	2.86	-48.2	-62.7	3.6	1.51e+00	0	40	104	0	60	49532
2026-01-19 16:50:52.07	25.02	3.11	-47.9	-57.8	5.1	1.50e+00	92	40	104	0	60	28089
2026-01-19 16:50:56.11	24.79	3.35	-46.7	-51.6	10.4	2.33e-03	0	40	0	6291456	60	13775
2026-01-19 16:51:00.15	24.55	3.60	-48.1	-63.1	3.6	7.03e-01	0	40	104	9437184	60	51630
2026-01-19 16:51:04.19	24.31	3.85	-43.1	-45.1	17.5	0.00e+00	52	40	0	13631488	60	6499
2026-01-19 16:51:08.23	24.06	4.10	-43.1	-45.0	17.6	0.00e+00	0	40	0	20971520	60	6455
2026-01-19 16:51:12.26	23.81	4.35	-42.7	-44.5	17.8	0.00e+00	0	40	0	28311552	58	6782
2026-01-19 16:51:16.30	23.55	4.61	-42.9	-44.8	17.8	0.00e+00	0	40	0	35651584	58	7010
2026-01-19 16:51:20.34	23.29	4.86	-42.6	-44.4	18.2	0.00e+00	20	40	0	44040192	58	6725
2026-01-19 16:51:24.38	23.02	5.12	-42.3	-43.9	18.6	0.00e+00	31	40	0	51380224	58	6382
2026-01-19 16:51:28.41	22.75	5.38	-42.0	-43.5	19.2	0.00e+00	0	40	0	58720256	58	6073
2026-01-19 16:51:32.45	22.48	5.64	-41.9	-43.4	19.3	0.00e+00	0	40	0	66060288	58	5983
2026-01-19 16:51:36.49	22.19	5.91	-42.3	-43.9	19.0	0.00e+00	92	40	0	74448896	58	6323
2026-01-19 16:51:40.53	21.91	6.18	-41.9	-43.4	19.6	0.00e+00	0	40	0	81788928	56	6727
2026-01-19 16:51:44.57	21.61	6.44	-41.7	-43.1	19.6	0.00e+00	0	40	0	89128960	56	6490
2026-01-19 16:51:48.60	21.32	6.71	-42.0	-43.5	19.4	0.00e+00	41	40	0	96468992	56	6783
2026-01-19 16:51:52.64	21.01	6.99	-42.5	-44.1	19.2	0.00e+00	92	40	0	103809024	58	6483
2026-01-19 16:51:56.68	20.70	7.26	-42.1	-43.5	19.5	0.00e+00	0	40	0	112197632	58	6101
2026-01-19 16:52:00.70	20.38	7.54	-41.9	-43.3	19.7	0.00e+00	0	40	0	119537664	58	5923
2026-01-19 16:52:04.72	20.06	7.81	-41.9	-43.3	19.7	0.00e+00	45	40	0	126877696	56	6643
2026-01-19 16:52:08.75	19.73	8.09	-41.8	-43.2	19.8	0.00e+00	0	40	0	134217728	56	6546
2026-01-19 16:52:12.79	19.40	8.38	-41.9	-43.3	19.7	0.00e+00	0	40	0	142606336	56	6680
2026-01-19 16:52:16.83	19.05	8.66	-41.7	-43.1	20.0	0.00e+00	0	40	0	149946368	56	6494
2026-01-19 16:52:20.87	18.70	8.95	-41.2	-42.5	20.5	0.00e+00	48	40	0	157286400	56	6048
2026-01-19 16:52:24.91	18.34	9.24	-41.1	-42.4	20.6	0.00e+00	0	40	0	164626432	56	6001
2026-01-19 16:52:28.95	17.98	9.53	-41.1	-42.3	20.7	0.00e+00	0	40	0	171966464	56	5962
2026-01-19 16:52:32.99	17.61	9.83	-41.4	-42.7	20.4	0.00e+00	0	40	0	180355072	56	6200
2026-01-19 16:52:37.03	17.23	10.12	-42.1	-43.5	19.6	0.00e+00	68	40	0	187695104	56	6835
2026-01-19 16:52:41.07	16.84	10.42	-41.2	-42.4	20.6	0.00e+00	0	40	0	195035136	56	6026
2026-01-19 16:52:45.11	16.44	10.72	-41.1	-42.4	20.7	0.00e+00	0	40	0	202375168	56	5975
2026-01-19 16:52:49.15	16.03	11.03	-41.3	-42.5	20.7	0.00e+00	54	40	0	210763776	56	6086
2026-01-19 16:52:53.19	15.62	11.33	-40.6	-41.8	21.2	0.00e+00	0	40	0	218103808	54	6298
2026-01-19 16:52:57.22	15.19	11.64	-40.9	-42.1	21.0	0.00e+00	0	40	0	225443840	54	6518
2026-01-19 16:53:01.26	14.76	11.95	-40.6	-41.8	21.3	0.00e+00	0	40	0	232783872	54	6266
2026-01-19 16:53:05.30	14.32	12.27	-41.2	-42.5	20.6	0.00e+00	90	40	0	240123904	54	6818
2026-01-19 16:53:09.34	13.86	12.58	-40.7	-41.9	21.0	0.00e+00	0	40	0	248512512	54	6376
2026-01-19 16:53:13.38	13.40	12.90	-41.2	-42.4	20.8	0.00e+00	0	40	0	255852544	54	6767
2026-01-19 16:53:17.42	12.93	13.22	-40.9	-42.1	20.6	0.00e+00	0	40	0	263192576	54	6495
2026-01-19 16:53:21.46	12.44	13.54	-40.5	-41.6	21.5	0.00e+00	89	40	0	270532608	54	6148
2026-01-19 16:53:25.50	11.95	13.86	-40.3	-41.4	21.5	0.00e+00	0	40	0	278921216	54	5984
2026-01-19 16:53:29.53	11.44	14.19	-40.7	-41.8	21.4	0.00e+00	0	40	0	286261248	54	6296
2026-01-19 16:53:33.57	10.92	14.52	-40.2	-41.3	21.7	0.00e+00	56	40	0	293601280	54	5941
2026-01-19 16:53:37.61	10.39	14.85	-40.9	-42.1	20.7	0.00e+00	66	40	0	300941312	54	6496
2026-01-19 16:53:41.65	9.85	15.18	-41.1	-42.3	21.0	0.00e+00	0	40	0	308281344	54	6673
2026-01-19 16:53:45.68	9.30	15.51	-40.9	-42.1	21.1	0.00e+00	0	40	0	316669952	54	6503
2026-01-19 16:53:49.72	8.73	15.85	-40.6	-41.7	21.6	0.00e+00	41	40	0	324009984	54	6237
2026-01-19 16:53:53.76	8.15	16.19	-40.4	-41.6	21.7	0.00e+00	0	40	0	331350016	54	6104
2026-01-19 16:53:57.80	7.56	16.52	-40.0	-41.0	22.1	0.00e+00	0	40	0	338690048	54	5760
2026-01-19 16:54:01.83	6.95	16.86	-39.6	-40.6	22.5	0.00e+00	0	40	0	346030080	52	6130
2026-01-19 16:54:05.87	6.33	17.21	-39.3	-40.2	22.7	0.00e+00	92	40	0	354418688	52	5872
2026-01-19 16:54:09.91	5.69	17.55	-39.7	-40.7	22.4	0.00e+00	0	40	0	361758720	52	6206
2026-01-19 16:54:13.95	5.04	17.89	-40.3	-41.4	21.6	0.00e+00	0	40	0	369098752	52	6740
2026-01-19 16:54:17.99	4.37	18.24	-40.0	-41.1	22.0	0.00e+00	0	40	0	376438784	52	6508
2026-01-19 16:54:22.02	3.69	18.58	-40.2	-41.3	22.0	0.00e+00	58	40	0	384827392	52	6690
2026-01-19 16:54:26.06	2.99	18.93	-39.5	-40.4	22.8	0.00e+00	0	40	0	392167424	52	6014
2026-01-19 16:54:30.10	2.28	19.28	-39.4	-40.4	22.7	0.00e+00	0	40	0	399507456	52	5972
2026-01-19 16:54:34.14	1.54	19.62	-40.2	-41.4	22.0	0.00e+00	56	40	0	406847488	52	6693
2026-01-19 16:54:38.18	0.79	19.97	-40.3	-41.4	21.9	0.00e+00	40	40	0	414187520	52	6739
2026-01-19 16:54:42.21	0.03	20.31	-40.6	-41.8	21.5	0.00e+00	0	40	0	422576128	54	6263
2026-01-19 16:54:46.25	359.25	20.66	-39.8	-40.8	22.4	0.00e+00	0	40	0	429916160	54	5625
2026-01-19 16:54:50.29	358.44	21.00	-40.8	-41.9	21.4	0.00e+00	26	40	0	437256192	54	6376
2026-01-19 16:54:54.33	357.62	21.34	-39.6	-40.6	22.5	0.00e+00	0	40	0	444596224	52	6169
2026-01-19 16:54:58.36	356.79	21.68	-39.6	-40.6	22.3	0.00e+00	33	40	0	452984832	52	6161
2026-01-19 16:55:02.40	355.93	22.02	-39.6	-40.6	22.6	0.00e+00	0	40	0	460324864	52	6148
2026-01-19 16:55:06.44	355.05	22.36	-40.0	-41.1	22.0	0.00e+00	74	40	0	467664896	52	6539
2026-01-19 16:55:10.47	354.16	22.69	-39.6	-40.7	22.4	0.00e+00	0	40	0	475004928	52	6195
2026-01-19 16:55:14.51	353.24	23.02	-38.2	-39.1	23.8	0.00e+00	0	40	0	482344960	50	5775
2026-01-19 16:55:18.56	352.30	23.34	-38.7	-39.7	23.1	0.00e+00	0	40	0	490733568	50	6179
2026-01-19 16:55:22.60	351.35	23.66	-39.3	-40.3	22.8	0.00e+00	24	40	0	498073600	50	6675
2026-01-19 16:55:26.64	350.37	23.98	-39.0	-39.9	23.1	0.00e+00	0	40	0	505413632	50	6388
2026-01-19 16:55:30.68	349.38	24.29	-38.0	-38.8	23.9	0.00e+00	0	40	0	512753664	50	5598
2026-01-19 16:55:34.71	348.37	24.59	-38.5	-39.4	23.6	0.00e+00	49	40	0	521142272	50	6008
2026-01-19 16:55:38.76	347.33	24.89	-38.0	-38.9	23.9	0.00e+00	0	40	0	528482304	50	5646
2026-01-19 16:55:42.79	346.28	25.18	-38.1	-38.9	23.9	0.00e+00	0	40	0	535822336	50	5679
2026-01-19 16:55:46.83	345.20	25.47	-38.4	-39.3	23.5	0.00e+00	0	40	0	543162368	48	6636
2026-01-19 16:55:50.87	344.11	25.74	-39.3	-40.2	22.9	0.00e+00	92	40	0	550502400	52	5880
2026-01-19 16:55:54.90	343.00	26.01	-39.5	-40.5	22.8	0.00e+00	0	40	0	558891008	52	6043
2026-01-19 16:55:58.94	341.87	26.26	-39.3	-40.3	23.0	0.00e+00	0	40	0	566231040	52	5907
2026-01-19 16:56:02.97	340.72	26.51	-39.4	-40.4	22.7	0.00e+00	0	40	0	573571072	52	5989
2026-01-19 16:56:07.01	339.56	26.74	-38.3	-39.2	23.7	0.00e+00	90	40	0	580911104	50	5841
2026-01-19 16:56:11.05	338.37	26.97	-39.3	-40.3	22.2	0.00e+00	0	40	0	589299712	50	6652
2026-01-19 16:56:15.09	337.17	27.18	-38.6	-39.4	23.7	0.00e+00	0	40	0	596639744	50	6027
2026-01-19 16:56:19.12	335.96	27.38	-39.6	-40.5	23.2	0.00e+00	58	40	0	603979776	50	6848
2026-01-19 16:56:23.16	334.73	27.56	-39.5	-40.5	23.0	0.00e+00	0	40	0	611319808	50	6810
2026-01-19 16:56:27.20	333.48	27.74	-40.9	-42.0	21.8	0.00e+00	0	40	0	618659840	54	6446
2026-01-19 16:56:31.24	332.22	27.90	-39.5	-40.5	22.8	0.00e+00	0	40	0	627048448	52	6085
2026-01-19 16:56:35.28	330.95	28.04	-40.1	-41.1	22.5	0.00e+00	21	40	0	634388480	52	6467
2026-01-19 16:56:39.31	329.68	28.17	-40.5	-41.6	22.0	0.00e+00	0	40	0	641728512	52	6856
2026-01-19 16:56:43.35	328.38	28.28	-41.5	-42.6	21.4	0.00e+00	0	40	0	649068544	54	6908
2026-01-19 16:56:47.40	327.08	28.38	-41.3	-42.3	21.8	0.00e+00	33	40	0	657457152	54	6687
2026-01-19 16:56:51.44	325.77	28.46	-41.3	-42.5	21.5	0.00e+00	90	40	0	664797184	54	6793
2026-01-19 16:56:55.48	324.46	28.52	-41.4	-42.5	21.4	0.00e+00	0	40	0	672137216	54	6808
2026-01-19 16:56:59.52	323.14	28.57	-41.4	-42.5	21.3	0.00e+00	0	40	0	679477248	56	6087
2026-01-19 16:57:03.56	321.82	28.60	-41.9	-43.2	21.0	0.00e+00	58	40	0	686817280	56	6544
2026-01-19 16:57:07.60	320.50	28.61	-40.8	-41.9	22.1	0.00e+00	76	40	0	695205888	56	5654
2026-01-19 16:57:11.64	319.17	28.61	-40.2	-41.2	22.7	0.00e+00	0	40	0	702545920	54	5831
2026-01-19 16:57:15.67	317.85	28.59	-40.9	-42.0	21.9	0.00e+00	0	40	0	709885952	54	6435
2026-01-19 16:57:19.71	316.53	28.55	-40.4	-41.4	22.4	0.00e+00	62	40	0	717225984	54	5994
2026-01-19 16:57:23.75	315.22	28.50	-40.5	-41.6	22.2	0.00e+00	0	40	0	725614592	54	6132
2026-01-19 16:57:27.79	313.91	28.43	-42.0	-43.2	21.4	0.00e+00	0	40	0	732954624	56	6604
2026-01-19 16:57:31.83	312.60	28.34	-39.5	-40.4	23.1	0.00e+00	0	40	0	740294656	52	5992
2026-01-19 16:57:35.87	311.30	28.24	-40.1	-40.9	23.2	0.00e+00	92	40	0	747634688	52	6386
2026-01-19 16:57:39.91	310.01	28.12	-39.7	-40.6	23.4	0.00e+00	0	40	0	754974720	52	6119
2026-01-19 16:57:43.94	308.74	27.98	-39.6	-40.4	23.8	0.00e+00	0	40	0	763363328	52	6012
2026-01-19 16:57:47.98	307.47	27.83	-40.1	-41.0	22.9	0.00e+00	0	40	0	770703360	52	6461
2026-01-19 16:57:52.02	306.22	27.67	-41.0	-42.0	22.2	0.00e+00	54	40	0	778043392	54	6443
2026-01-19 16:57:56.06	304.98	27.49	-40.6	-41.6	22.4	0.00e+00	0	40	0	785383424	54	6170
2026-01-19 16:58:00.10	303.75	27.30	-40.0	-40.9	23.4	0.00e+00	0	40	0	793772032	52	6335
2026-01-19 16:58:04.13	302.54	27.10	-41.4	-42.4	22.6	0.00e+00	24	40	0	801112064	54	6708
2026-01-19 16:58:08.17	301.34	26.88	-40.8	-41.9	22.0	0.00e+00	0	40	0	808452096	54	6327
2026-01-19 16:58:12.21	300.17	26.65	-41.5	-42.6	21.8	0.00e+00	0	40	0	815792128	56	6155
2026-01-19 16:58:16.25	299.00	26.41	-41.2	-42.3	21.7	0.00e+00	0	40	0	823132160	54	6649
2026-01-19 16:58:20.29	297.86	26.16	-41.2	-42.3	21.4	0.00e+00	36	40	0	831520768	54	6644
2026-01-19 16:58:24.32	296.74	25.90	-41.4	-42.5	21.3	0.00e+00	0	40	0	838860800	54	6833
2026-01-19 16:58:28.36	295.63	25.63	-40.8	-41.9	22.0	0.00e+00	0	40	0	846200832	54	6332
2026-01-19 16:58:32.40	294.54	25.35	-39.9	-40.9	22.7	0.00e+00	30	40	0	853540864	52	6330
2026-01-19 16:58:36.44	293.47	25.06	-38.8	-39.6	23.7	0.00e+00	90	40	0	860880896	52	5498
2026-01-19 16:58:40.47	292.43	24.77	-40.3	-41.2	22.4	0.00e+00	0	40	0	869269504	52	6609
2026-01-19 16:58:44.51	291.40	24.47	-40.9	-42.1	21.8	0.00e+00	0	40	0	876609536	54	6485
2026-01-19 16:58:48.56	290.39	24.16	-40.4	-41.5	22.1	0.00e+00	51	40	0	883949568	54	6085
2026-01-19 16:58:52.60	289.40	23.85	-40.8	-41.9	21.9	0.00e+00	0	40	0	891289600	54	6388
2026-01-19 16:58:56.63	288.43	23.53	-40.9	-42.0	22.2	0.00e+00	0	40	0	899678208	54	6395
2026-01-19 16:59:00.67	287.48	23.21	-39.3	-40.3	23.4	0.00e+00	0	40	0	907018240	52	5898
2026-01-19 16:59:04.70	286.55	22.88	-39.3	-40.2	23.4	0.00e+00	50	40	0	914358272	52	5852
2026-01-19 16:59:08.74	285.64	22.55	-38.2	-39.0	24.0	0.00e+00	0	40	0	921698304	50	5743
2026-01-19 16:59:12.77	284.75	22.21	-37.7	-38.5	24.4	0.00e+00	0	40	0	929038336	48	6052
2026-01-19 16:59:16.81	283.88	21.88	-37.7	-38.5	24.3	0.00e+00	0	40	0	937426944	48	6100
2026-01-19 16:59:20.85	283.03	21.54	-39.1	-40.1	23.4	0.00e+00	92	40	0	944766976	50	6474
2026-01-19 16:59:24.89	282.20	21.19	-39.5	-40.5	22.9	0.00e+00	0	40	0	952107008	50	6772
2026-01-19 16:59:28.93	281.38	20.85	-38.8	-39.7	23.5	0.00e+00	0	40	0	959447040	50	6184
2026-01-19 16:59:32.97	280.58	20.51	-38.2	-39.1	23.9	0.00e+00	0	40	0	967835648	50	5775
2026-01-19 16:59:37.01	279.80	20.16	-37.0	-37.7	24.8	0.00e+00	90	40	0	975175680	48	5560
2026-01-19 16:59:41.05	279.04	19.81	-37.6	-38.4	24.4	0.00e+00	0	40	0	982515712	48	6002
2026-01-19 16:59:45.09	278.30	19.47	-38.3	-39.2	23.8	0.00e+00	0	40	0	989855744	48	6596
2026-01-19 16:59:49.12	277.57	19.12	-38.0	-38.9	24.0	0.00e+00	21	40	0	997195776	48	6333
2026-01-19 16:59:53.17	276.86	18.77	-38.6	-39.5	23.6	0.00e+00	0	40	0	1005584384	48	6799
2026-01-19 16:59:57.20	276.17	18.43	-39.2	-40.1	23.3	0.00e+00	0	40	0	1012924416	50	6530
2026-01-19 17:00:01.25	275.49	18.08	-38.7	-39.5	23.5	0.00e+00	0	40	0	1020264448	50	6095
2026-01-19 17:00:05.29	274.82	17.73	-37.4	-38.3	24.3	0.00e+00	37	40	0	1027604480	48	5897
2026-01-19 17:00:09.33	274.17	17.39	-38.7	-39.6	22.9	0.00e+00	0	40	0	1035993088	48	6920
2026-01-19 17:00:13.36	273.54	17.05	-39.4	-40.3	22.6	0.00e+00	0	40	0	1043333120	50	6673
2026-01-19 17:00:17.40	272.92	16.70	-38.9	-39.9	23.2	0.00e+00	0	40	0	1050673152	50	6334
2026-01-19 17:00:21.44	272.32	16.36	-38.8	-39.7	23.2	0.00e+00	74	40	0	1058013184	50	6212
2026-01-19 17:00:25.48	271.73	16.02	-39.4	-40.4	22.7	0.00e+00	0	40	0	1065353216	50	6746
2026-01-19 17:00:29.51	271.15	15.69	-40.2	-41.3	22.0	0.00e+00	0	40	0	1073741824	52	6647
2026-01-19 17:00:33.55	270.59	15.35	-39.2	-40.1	23.0	0.00e+00	53	40	0	1081081856	52	5828
2026-01-19 17:00:37.59	270.03	15.02	-39.5	-40.4	23.0	0.00e+00	0	40	0	1088421888	50	6756
2026-01-19 17:00:41.63	269.49	14.68	-40.0	-41.0	22.2	0.00e+00	0	40	0	1095761920	52	6462
2026-01-19 17:00:45.68	268.96	14.35	-39.5	-40.4	22.8	0.00e+00	0	40	0	1104150528	52	6002
2026-01-19 17:00:49.71	268.45	14.03	-39.3	-40.3	22.8	0.00e+00	40	40	0	1111490560	52	5909
2026-01-19 17:00:53.75	267.95	13.70	-39.1	-40.1	22.9	0.00e+00	0	40	0	1118830592	52	5764
2026-01-19 17:00:57.79	267.45	13.38	-39.4	-40.3	22.7	0.00e+00	0	40	0	1126170624	52	5936
2026-01-19 17:01:01.83	266.97	13.06	-40.2	-41.3	21.8	0.00e+00	0	40	0	1133510656	52	6644
2026-01-19 17:01:05.87	266.50	12.74	-40.4	-41.5	21.8	0.00e+00	92	40	0	1141899264	52	6770
2026-01-19 17:01:09.91	266.04	12.42	-40.0	-41.1	22.2	0.00e+00	0	40	0	1149239296	52	6465
2026-01-19 17:01:13.95	265.59	12.10	-40.2	-41.3	21.9	0.00e+00	0	40	0	1156579328	52	6645
2026-01-19 17:01:17.99	265.15	11.79	-41.2	-42.4	20.9	0.00e+00	49	40	0	1163919360	54	6755
2026-01-19 17:01:22.03	264.71	11.48	-40.8	-41.9	21.4	0.00e+00	75	40	0	1172307968	54	6358
2026-01-19 17:01:26.07	264.29	11.17	-40.5	-41.6	22.3	0.00e+00	0	40	0	1179648000	54	6113
2026-01-19 17:01:30.11	263.88	10.87	-39.6	-40.6	22.5	0.00e+00	0	40	0	1186988032	52	6136
2026-01-19 17:01:34.15	263.47	10.56	-40.2	-41.3	21.9	0.00e+00	24	40	0	1194328064	52	6633
2026-01-19 17:01:38.19	263.07	10.26	-41.3	-42.6	20.7	0.00e+00	0	40	0	1201668096	54	6862
2026-01-19 17:01:42.23	262.69	9.96	-42.0	-43.3	20.0	0.00e+00	0	40	0	1210056704	56	6672
2026-01-19 17:01:46.27	262.31	9.67	-42.3	-43.7	19.8	0.00e+00	0	40	0	1217396736	56	6934
2026-01-19 17:01:50.31	261.93	9.37	-42.0	-43.3	19.9	0.00e+00	92	40	0	1224736768	56	6667
2026-01-19 17:01:54.34	261.57	9.08	-42.0	-43.4	19.8	0.00e+00	0	40	0	1232076800	56	6725
2026-01-19 17:01:58.38	261.21	8.79	-42.0	-43.4	19.7	0.00e+00	0	40	0	1239416832	56	6737
2026-01-19 17:02:02.41	260.86	8.51	-42.5	-43.9	19.3	0.00e+00	0	40	0	1247805440	56	7155
2026-01-19 17:02:06.45	260.52	8.22	-42.7	-44.3	19.0	0.00e+00	90	40	0	1255145472	58	6650
2026-01-19 17:02:10.50	260.18	7.94	-42.2	-43.6	19.6	0.00e+00	0	40	0	1262485504	58	6143
2026-01-19 17:02:14.54	259.85	7.66	-41.4	-42.6	20.4	0.00e+00	0	40	0	1269825536	56	6162
2026-01-19 17:02:18.58	259.53	7.38	-40.6	-41.7	21.2	0.00e+00	8	40	0	1278214144	54	6204
2026-01-19 17:02:22.62	259.21	7.10	-40.3	-41.4	21.4	0.00e+00	0	40	0	1285554176	54	6024
2026-01-19 17:02:26.66	258.90	6.83	-40.8	-42.1	20.8	0.00e+00	0	40	0	1292894208	54	6471
2026-01-19 17:02:30.70	258.60	6.56	-41.6	-43.0	19.9	0.00e+00	0	40	0	1300234240	54	7172
2026-01-19 17:02:34.74	258.30	6.29	-42.6	-44.2	18.9	0.00e+00	90	40	0	1308622848	56	7389
2026-01-19 17:02:38.78	258.00	6.02	-42.9	-44.6	18.4	0.00e+00	0	40	0	1315962880	58	6891
2026-01-19 17:02:42.82	257.72	5.75	-42.8	-44.4	18.5	0.00e+00	0	40	0	1323302912	58	6769
2026-01-19 17:02:46.86	257.43	5.49	-42.9	-44.6	18.4	0.00e+00	0	40	0	1330642944	58	6918
2026-01-19 17:02:50.89	257.16	5.23	-42.9	-44.6	18.2	0.00e+00	40	40	0	1337982976	58	6878
2026-01-19 17:02:54.94	256.89	4.97	-42.8	-44.5	18.4	0.00e+00	0	40	0	1346371584	58	6802
2026-01-19 17:02:58.97	256.62	4.71	-42.8	-44.5	18.3	0.00e+00	0	40	0	1353711616	58	6827
2026-01-19 17:03:03.01	256.36	4.45	-43.2	-45.0	18.0	0.00e+00	29	40	0	1361051648	58	7198
2026-01-19 17:03:07.05	256.10	4.20	-43.4	-45.3	17.6	0.00e+00	0	40	0	1368391680	58	7444
2026-01-19 17:03:11.08	255.85	3.95	-43.8	-46.0	17.0	0.00e+00	0	40	0	1375731712	60	7187
2026-01-19 17:03:15.12	255.60	3.69	-43.8	-46.0	16.6	0.00e+00	0	40	0	1384120320	60	7211
2026-01-19 17:03:19.16	255.35	3.45	-44.0	-46.2	16.4	0.00e+00	42	40	0	1391460352	60	7417
2026-01-19 17:03:23.20	255.12	3.20	-44.4	-46.8	15.7	0.00e+00	0	40	0	1398800384	60	7950
2026-01-19 17:03:27.24	254.88	2.95	-49.0	-64.2	3.6	1.50e+00	0	40	104	1405091840	60	58525
2026-01-19 17:03:31.28	254.65	2.71	-49.8	-65.1	3.6	1.51e+00	0	40	104	1405091840	60	64700
2026-01-19 17:03:35.32	254.42	2.47	-50.0	-65.2	3.6	1.51e+00	0	40	104	1405091840	60	65777
2026-01-19 17:03:39.35	254.20	2.23	-50.0	-65.2	3.6	1.51e+00	0	40	104	1405091840	60	66106
2026-01-19 17:03:43.39	253.98	1.99	-49.7	-65.2	3.6	1.51e+00	0	40	104	1405091840	60	65646
2026-01-19 17:03:47.44	253.76	1.75	-49.9	-65.1	3.5	1.51e+00	0	40	104	1405091840	60	65200
2026-01-19 17:03:51.48	253.55	1.51	-50.0	-65.3	3.6	1.51e+00	0	40	104	1405091840	60	66436
2026-01-19 17:03:55.52	253.34	1.28	-50.2	-65.4	3.6	1.51e+00	0	40	104	1405091840	60	67557
2026-01-19 17:03:59.55	253.14	1.05	-50.4	-65.6	3.6	1.51e+00	0	40	104	1405091840	60	69049
2026-01-19 17:04:03.59	252.93	0.82	-50.1	-65.3	3.6	1.51e+00	0	40	104	1405091840	60	66872
2026-01-19 17:04:07.63	252.73	0.59	-50.6	-65.8	3.6	1.51e+00	0	40	104	1405091840	60	70321
2026-01-19 17:04:11.67	252.54	0.36	-50.8	-65.9	3.6	1.51e+00	0	40	104	1405091840	60	71503
2026-01-19 17:04:15.72	252.35	0.13	-51.1	-66.3	3.6	1.51e+00	0	40	104	1405091840	60	74488

#Closed at: 2026-01-19 17:04:18
#Recorded file [1405 MB]: D:/lorett/data/35029_260120_044959.dat