passes_logs/2026/01/19/R4.6S_Anadyr/R4.6S_Anadyr__20260119_171029_NOAA_20_JPSS-1_rec.log

#Pass ID: 20260119_171029_NOAA 20 (JPSS-1)
#Satellite: NOAA 20 (JPSS-1)
#Configuration: NOAA 20
#almurnet v.1.7.20251203
#Start time: 2026-01-19 17:10:31

#Version: 2.2.20231116
#Station: R4.6S_Anadyr
#Location: 177.4865 lon 64.73178 lat
#TLE: 1 43013U 17073A   26018.92475364  .00000071  00000+0  54435-4 0  9998
#TLE: 2 43013  98.7641 319.8227 0001354  33.6678 326.4584 14.19536868423299

#Time	Az	El	Level	Level2	SNR	BER	BlckErr	Temp	State	Recorded	gain1	gain2
2026-01-19 17:10:31.09	30.12	0.07	-50.5	-65.3	3.5	1.51e+00	0	37	0	0	60	66741
2026-01-19 17:10:35.13	29.90	0.29	-50.8	-66.1	3.6	1.51e+00	0	39	104	0	60	72696
2026-01-19 17:10:39.18	29.68	0.51	-50.3	-65.5	3.6	1.51e+00	0	39	104	0	60	68303
2026-01-19 17:10:43.22	29.45	0.73	-50.1	-65.4	3.6	1.51e+00	0	39	104	0	60	67015
2026-01-19 17:10:47.26	29.22	0.96	-49.7	-64.9	3.6	1.51e+00	0	39	104	0	60	63819
2026-01-19 17:10:51.29	28.99	1.18	-49.3	-64.6	3.6	1.51e+00	0	39	104	0	60	61243
2026-01-19 17:10:55.34	28.75	1.41	-48.5	-63.6	3.5	1.51e+00	0	39	104	0	60	54476
2026-01-19 17:10:59.38	28.51	1.63	-48.3	-63.5	3.6	1.51e+00	0	39	104	0	60	54288
2026-01-19 17:11:03.41	28.26	1.86	-48.3	-63.5	3.6	1.51e+00	0	39	104	0	60	54316
2026-01-19 17:11:07.45	28.01	2.09	-48.3	-63.3	3.6	1.51e+00	0	39	104	0	60	53077
2026-01-19 17:11:11.49	27.76	2.32	-48.3	-63.4	3.6	1.51e+00	0	39	104	0	60	53542
2026-01-19 17:11:15.53	27.50	2.55	-48.3	-63.5	3.6	1.51e+00	0	39	104	0	60	54024
2026-01-19 17:11:19.57	27.24	2.79	-48.3	-62.9	3.6	1.51e+00	0	39	104	0	60	50477
2026-01-19 17:11:23.61	26.97	3.02	-48.2	-61.0	3.6	1.51e+00	0	39	104	0	60	40668
2026-01-19 17:11:27.65	26.70	3.26	-46.9	-52.1	9.9	9.69e-03	78	40	0	4194304	60	14527
2026-01-19 17:11:31.69	26.42	3.50	-46.8	-51.3	11.0	8.56e-01	90	39	0	11534336	60	13296
2026-01-19 17:11:35.73	26.14	3.73	-44.3	-46.9	15.6	2.44e-01	6	39	104	15728640	60	7978
2026-01-19 17:11:39.77	25.85	3.97	-43.6	-45.6	17.1	0.00e+00	85	39	0	23068672	60	6911
2026-01-19 17:11:43.81	25.56	4.22	-43.3	-45.2	17.5	0.00e+00	0	39	0	30408704	60	6571
2026-01-19 17:11:47.85	25.26	4.46	-42.9	-44.7	18.1	0.00e+00	92	39	0	37748736	60	6218
2026-01-19 17:11:51.89	24.96	4.70	-43.1	-45.0	18.0	0.00e+00	7	39	0	45088768	60	6410
2026-01-19 17:11:55.93	24.66	4.95	-42.7	-44.4	18.4	0.00e+00	5	39	0	52428800	58	6742
2026-01-19 17:11:59.96	24.34	5.20	-42.6	-44.3	18.6	0.00e+00	10	39	0	60817408	58	6634
2026-01-19 17:12:04.00	24.03	5.45	-42.7	-44.3	18.6	0.00e+00	92	39	0	68157440	58	6667
2026-01-19 17:12:08.03	23.70	5.70	-42.5	-44.1	18.8	0.00e+00	0	40	0	75497472	58	6505
2026-01-19 17:12:12.07	23.37	5.95	-42.2	-43.6	19.4	0.00e+00	0	40	0	82837504	58	6170
2026-01-19 17:12:16.11	23.04	6.20	-42.4	-44.0	19.2	0.00e+00	79	40	0	91226112	58	6420
2026-01-19 17:12:20.15	22.70	6.46	-42.3	-43.8	19.2	0.00e+00	5	40	0	98566144	58	6304
2026-01-19 17:12:24.19	22.35	6.71	-42.5	-44.0	19.1	0.00e+00	77	39	0	105906176	58	6446
2026-01-19 17:12:28.23	21.99	6.97	-42.5	-44.0	19.2	0.00e+00	0	40	0	113246208	58	6415
2026-01-19 17:12:32.27	21.63	7.23	-42.4	-44.0	19.2	0.00e+00	92	40	0	120586240	58	6396
2026-01-19 17:12:36.31	21.26	7.49	-42.1	-43.6	19.6	0.00e+00	0	40	0	128974848	58	6118
2026-01-19 17:12:40.35	20.89	7.76	-42.1	-43.6	19.6	0.00e+00	2	40	0	136314880	58	6120
2026-01-19 17:12:44.39	20.51	8.02	-42.4	-43.8	19.5	0.00e+00	6	40	0	143654912	58	6310
2026-01-19 17:12:48.42	20.12	8.29	-42.3	-43.8	19.5	0.00e+00	92	40	0	150994944	58	6249
2026-01-19 17:12:52.46	19.72	8.55	-42.2	-43.7	19.8	0.00e+00	0	40	0	159383552	58	6210
2026-01-19 17:12:56.50	19.32	8.82	-42.2	-43.7	19.7	0.00e+00	0	40	0	166723584	58	6194
2026-01-19 17:13:00.53	18.90	9.09	-42.1	-43.5	20.0	0.00e+00	0	40	0	174063616	58	6040
2026-01-19 17:13:04.57	18.48	9.36	-41.9	-43.3	20.2	0.00e+00	92	40	0	181403648	58	5918
2026-01-19 17:13:08.61	18.06	9.64	-41.8	-43.2	20.3	0.00e+00	81	40	0	188743680	56	6541
2026-01-19 17:13:12.65	17.62	9.91	-41.6	-42.8	20.6	0.00e+00	80	40	0	197132288	56	6317
2026-01-19 17:13:16.69	17.17	10.19	-41.6	-42.9	20.6	0.00e+00	5	40	0	204472320	56	6366
2026-01-19 17:13:20.72	16.72	10.46	-41.5	-42.8	20.6	0.00e+00	91	40	0	211812352	56	6266
2026-01-19 17:13:24.76	16.26	10.74	-41.9	-43.2	20.4	0.00e+00	7	40	0	219152384	56	6549
2026-01-19 17:13:28.80	15.78	11.02	-41.9	-43.3	20.4	0.00e+00	79	40	0	227540992	56	6624
2026-01-19 17:13:32.84	15.30	11.30	-41.6	-42.8	20.7	0.00e+00	0	40	0	234881024	56	6311
2026-01-19 17:13:36.88	14.81	11.59	-41.6	-42.9	20.7	0.00e+00	92	40	0	242221056	56	6353
2026-01-19 17:13:40.92	14.31	11.87	-41.6	-42.9	20.8	0.00e+00	7	40	0	249561088	56	6334
2026-01-19 17:13:44.96	13.80	12.15	-41.4	-42.6	20.8	0.00e+00	73	40	0	256901120	56	6166
2026-01-19 17:13:49.00	13.28	12.44	-41.4	-42.6	20.9	0.00e+00	15	40	0	265289728	56	6141
2026-01-19 17:13:53.04	12.75	12.73	-41.0	-42.2	21.4	0.00e+00	0	40	0	272629760	56	5833
2026-01-19 17:13:57.06	12.21	13.01	-40.9	-42.1	21.4	0.00e+00	0	40	0	279969792	56	5765
2026-01-19 17:14:01.10	11.65	13.30	-41.0	-42.1	21.4	0.00e+00	0	40	0	287309824	56	5821
2026-01-19 17:14:05.14	11.09	13.59	-40.8	-42.0	21.6	0.00e+00	92	40	0	295698432	56	5716
2026-01-19 17:14:09.18	10.51	13.88	-40.6	-41.8	21.8	0.00e+00	1	40	0	303038464	54	6259
2026-01-19 17:14:13.22	9.92	14.17	-40.5	-41.6	21.9	0.00e+00	79	40	0	310378496	54	6136
2026-01-19 17:14:17.25	9.33	14.46	-40.4	-41.4	22.2	0.00e+00	72	40	0	317718528	54	6028
2026-01-19 17:14:21.30	8.71	14.75	-40.5	-41.6	21.9	0.00e+00	92	40	0	325058560	54	6161
2026-01-19 17:14:25.33	8.09	15.04	-41.0	-42.1	21.4	0.00e+00	8	40	0	333447168	54	6517
2026-01-19 17:14:29.37	7.45	15.33	-40.8	-41.9	21.7	0.00e+00	73	40	0	340787200	54	6343
2026-01-19 17:14:33.41	6.80	15.62	-41.1	-42.3	21.4	0.00e+00	0	40	0	348127232	54	6631
2026-01-19 17:14:37.44	6.14	15.91	-41.0	-42.1	21.5	0.00e+00	92	40	0	355467264	54	6516
2026-01-19 17:14:41.48	5.47	16.20	-41.2	-42.4	21.3	0.00e+00	0	40	0	363855872	54	6748
2026-01-19 17:14:45.52	4.78	16.48	-40.9	-42.0	21.6	0.00e+00	0	40	0	371195904	54	6464
2026-01-19 17:14:49.56	4.08	16.77	-41.0	-42.1	21.6	0.00e+00	0	40	0	378535936	54	6530
2026-01-19 17:14:53.59	3.36	17.06	-41.2	-42.4	21.4	0.00e+00	90	40	0	385875968	54	6708
2026-01-19 17:14:57.63	2.63	17.34	-41.0	-42.1	21.6	0.00e+00	5	40	0	393216000	54	6534
2026-01-19 17:15:01.67	1.89	17.63	-41.0	-42.2	21.7	0.00e+00	6	40	0	401604608	54	6543
2026-01-19 17:15:05.71	1.13	17.91	-41.0	-42.2	21.7	0.00e+00	9	40	0	408944640	54	6541
2026-01-19 17:15:09.74	0.36	18.19	-40.8	-41.9	21.7	0.00e+00	92	40	0	416284672	54	6367
2026-01-19 17:15:13.78	359.57	18.46	-40.6	-41.7	22.0	0.00e+00	0	40	0	423624704	54	6182
2026-01-19 17:15:17.82	358.77	18.74	-40.3	-41.3	22.5	0.00e+00	0	40	0	432013312	54	5945
2026-01-19 17:15:21.86	357.95	19.01	-39.4	-40.4	23.1	0.00e+00	0	40	0	439353344	52	5977
2026-01-19 17:15:25.89	357.13	19.28	-39.0	-39.9	23.6	0.00e+00	80	40	0	446693376	52	5655
2026-01-19 17:15:29.93	356.28	19.54	-38.7	-39.6	23.9	0.00e+00	10	40	0	454033408	50	6144
2026-01-19 17:15:33.97	355.42	19.80	-38.6	-39.5	23.9	0.00e+00	76	40	0	461373440	50	6083
2026-01-19 17:15:38.00	354.54	20.06	-38.5	-39.4	24.0	0.00e+00	92	40	0	469762048	50	6025
2026-01-19 17:15:42.04	353.65	20.31	-38.7	-39.6	24.1	0.00e+00	83	40	0	477102080	50	6114
2026-01-19 17:15:46.08	352.75	20.55	-38.2	-39.0	24.4	0.00e+00	0	40	0	484442112	50	5754
2026-01-19 17:15:50.12	351.83	20.80	-38.5	-39.4	24.0	0.00e+00	0	40	0	491782144	50	6014
2026-01-19 17:15:54.16	350.89	21.03	-38.3	-39.2	24.3	0.00e+00	91	40	0	499122176	50	5860
2026-01-19 17:15:58.20	349.95	21.26	-38.5	-39.3	24.1	0.00e+00	73	40	0	507510784	50	5944
2026-01-19 17:16:02.24	348.98	21.48	-38.8	-39.6	23.8	0.00e+00	0	40	0	514850816	50	6171
2026-01-19 17:16:06.27	348.01	21.70	-39.0	-39.9	23.8	0.00e+00	0	40	0	522190848	50	6370
2026-01-19 17:16:10.31	347.02	21.91	-38.4	-39.2	24.3	0.00e+00	92	40	0	529530880	50	5876
2026-01-19 17:16:14.35	346.01	22.11	-38.1	-38.9	24.6	0.00e+00	10	40	0	537919488	50	5687
2026-01-19 17:16:18.39	345.00	22.30	-38.4	-39.3	24.3	0.00e+00	0	40	0	545259520	50	5903
2026-01-19 17:16:22.43	343.97	22.49	-37.9	-38.7	24.8	0.00e+00	0	40	0	552599552	50	5531
2026-01-19 17:16:26.46	342.93	22.67	-37.8	-38.6	24.9	0.00e+00	92	40	0	559939584	48	6168
2026-01-19 17:16:30.50	341.87	22.83	-38.3	-39.1	24.5	0.00e+00	0	40	0	567279616	48	6490
2026-01-19 17:16:34.54	340.81	22.99	-39.1	-40.0	23.3	0.00e+00	0	40	0	575668224	50	6440
2026-01-19 17:16:38.58	339.73	23.14	-38.6	-39.5	24.2	0.00e+00	5	40	0	583008256	50	6056
2026-01-19 17:16:42.61	338.65	23.27	-38.9	-39.7	23.8	0.00e+00	13	40	0	590348288	50	6242
2026-01-19 17:16:46.65	337.55	23.40	-39.7	-40.6	23.0	0.00e+00	73	40	0	597688320	50	6925
2026-01-19 17:16:50.69	336.45	23.52	-39.8	-40.8	23.1	0.00e+00	0	40	0	606076928	52	6252
2026-01-19 17:16:54.72	335.34	23.62	-40.1	-41.1	22.9	0.00e+00	17	40	0	613416960	52	6468
2026-01-19 17:16:58.76	334.22	23.72	-40.2	-41.2	22.8	0.00e+00	10	40	0	620756992	52	6559
2026-01-19 17:17:02.80	333.10	23.80	-40.6	-41.7	22.4	0.00e+00	9	40	0	628097024	52	6955
2026-01-19 17:17:06.84	331.97	23.87	-41.2	-42.3	22.0	0.00e+00	0	40	0	635437056	54	6647
2026-01-19 17:17:10.87	330.84	23.93	-40.6	-41.7	22.3	0.00e+00	91	40	0	643825664	54	6180
2026-01-19 17:17:14.91	329.70	23.97	-40.2	-41.2	22.6	0.00e+00	6	40	0	651165696	54	5883
2026-01-19 17:17:18.95	328.56	24.01	-41.1	-42.1	22.4	0.00e+00	7	40	0	658505728	54	6516
2026-01-19 17:17:22.99	327.41	24.03	-40.6	-41.6	22.5	0.00e+00	8	40	0	665845760	54	6135
2026-01-19 17:17:27.02	326.27	24.04	-40.2	-41.1	23.0	0.00e+00	90	40	0	674234368	54	5821
2026-01-19 17:17:31.06	325.12	24.04	-40.3	-41.3	22.7	0.00e+00	2	40	0	681574400	54	5917
2026-01-19 17:17:35.10	323.98	24.02	-39.7	-40.6	23.5	0.00e+00	0	40	0	688914432	52	6150
2026-01-19 17:17:39.14	322.83	23.99	-39.7	-40.6	23.6	0.00e+00	4	40	0	696254464	52	6117
2026-01-19 17:17:43.17	321.70	23.95	-39.3	-40.2	23.6	0.00e+00	92	40	0	703594496	52	5845
2026-01-19 17:17:47.21	320.56	23.90	-38.9	-39.8	24.3	0.00e+00	0	40	0	711983104	52	5568
2026-01-19 17:17:51.25	319.42	23.84	-38.8	-39.7	24.4	0.00e+00	72	40	0	719323136	50	6178
2026-01-19 17:17:55.29	318.30	23.76	-38.4	-39.2	24.8	0.00e+00	0	40	0	726663168	50	5895
2026-01-19 17:17:59.33	317.17	23.67	-38.7	-39.5	24.6	0.00e+00	92	40	0	734003200	50	6056
2026-01-19 17:18:03.37	316.06	23.57	-38.3	-39.1	24.9	0.00e+00	0	40	0	742391808	50	5778
2026-01-19 17:18:07.40	314.95	23.46	-38.8	-39.6	24.9	0.00e+00	5	40	0	749731840	48	6878
2026-01-19 17:18:11.44	313.85	23.34	-38.8	-39.6	24.6	0.00e+00	0	40	0	757071872	50	6157
2026-01-19 17:18:15.48	312.76	23.21	-38.4	-39.2	24.9	0.00e+00	92	40	0	764411904	50	5855
2026-01-19 17:18:19.52	311.68	23.06	-39.4	-40.2	24.1	0.00e+00	0	40	0	771751936	52	5887
2026-01-19 17:18:23.55	310.61	22.91	-39.8	-40.7	23.9	0.00e+00	2	40	0	780140544	52	6216
2026-01-19 17:18:27.59	309.55	22.75	-39.9	-40.8	23.6	0.00e+00	0	40	0	787480576	52	6261
2026-01-19 17:18:31.63	308.50	22.58	-40.7	-41.6	23.6	0.00e+00	92	40	0	794820608	52	6885
2026-01-19 17:18:35.67	307.46	22.40	-40.6	-41.6	23.2	0.00e+00	0	40	0	802160640	54	6104
2026-01-19 17:18:39.70	306.44	22.21	-40.8	-41.7	23.1	0.00e+00	0	40	0	809500672	54	6204
2026-01-19 17:18:43.74	305.43	22.01	-41.0	-42.0	23.1	0.00e+00	19	40	0	817889280	54	6412
2026-01-19 17:18:47.78	304.43	21.80	-41.7	-42.7	22.6	0.00e+00	92	40	0	825229312	54	6975
2026-01-19 17:18:51.82	303.44	21.59	-41.4	-42.4	22.6	0.00e+00	78	40	0	832569344	56	6023
2026-01-19 17:18:55.85	302.47	21.37	-41.3	-42.3	23.2	0.00e+00	78	40	0	839909376	54	6621
2026-01-19 17:18:59.89	301.52	21.14	-41.9	-42.9	22.5	0.00e+00	74	40	0	848297984	56	6349
2026-01-19 17:19:03.92	300.57	20.91	-40.4	-41.3	23.0	0.00e+00	8	40	0	855638016	54	5936
2026-01-19 17:19:07.96	299.65	20.67	-41.1	-42.1	22.9	0.00e+00	4	40	0	862978048	54	6477
2026-01-19 17:19:12.00	298.73	20.43	-40.6	-41.5	22.8	0.00e+00	3	40	0	870318080	54	6102
2026-01-19 17:19:16.04	297.83	20.18	-40.1	-41.0	23.2	0.00e+00	92	40	0	877658112	54	5725
2026-01-19 17:19:20.08	296.95	19.92	-40.3	-41.3	23.0	0.00e+00	0	40	0	886046720	54	5907
2026-01-19 17:19:24.12	296.07	19.66	-39.6	-40.6	23.3	0.00e+00	10	40	0	893386752	52	6108
2026-01-19 17:19:28.16	295.22	19.40	-39.8	-40.7	23.0	0.00e+00	9	40	0	900726784	52	6238
2026-01-19 17:19:32.20	294.38	19.14	-39.8	-40.7	23.2	0.00e+00	92	40	0	908066816	52	6217
2026-01-19 17:19:36.24	293.55	18.86	-39.6	-40.5	23.1	0.00e+00	78	40	0	916455424	52	6090
2026-01-19 17:19:40.27	292.74	18.59	-39.7	-40.6	23.2	0.00e+00	2	40	0	923795456	52	6141
2026-01-19 17:19:44.31	291.95	18.32	-39.8	-40.7	22.9	0.00e+00	0	40	0	931135488	52	6223
2026-01-19 17:19:48.35	291.16	18.04	-40.2	-41.2	22.8	0.00e+00	92	40	0	938475520	52	6595
2026-01-19 17:19:52.39	290.40	17.76	-39.9	-40.9	23.2	0.00e+00	72	40	0	945815552	52	6342
2026-01-19 17:19:56.43	289.64	17.47	-40.0	-40.9	22.9	0.00e+00	0	40	0	954204160	52	6372
2026-01-19 17:20:00.47	288.90	17.19	-40.0	-41.0	22.9	0.00e+00	0	40	0	961544192	52	6410
2026-01-19 17:20:04.50	288.18	16.90	-39.8	-40.7	23.2	0.00e+00	90	40	0	968884224	52	6200
2026-01-19 17:20:08.54	287.47	16.62	-39.4	-40.3	23.5	0.00e+00	0	40	0	976224256	52	5920
2026-01-19 17:20:12.58	286.77	16.33	-39.5	-40.4	23.5	0.00e+00	82	40	0	984612864	52	6005
2026-01-19 17:20:16.62	286.09	16.04	-40.1	-41.0	23.3	0.00e+00	57	40	0	991952896	52	6444
2026-01-19 17:20:20.66	285.42	15.75	-39.7	-40.6	23.3	0.00e+00	90	40	0	999292928	52	6144
2026-01-19 17:20:24.70	284.76	15.46	-39.4	-40.3	23.7	0.00e+00	5	40	0	1006632960	52	5906
2026-01-19 17:20:28.74	284.12	15.17	-38.9	-39.8	23.8	0.00e+00	5	40	0	1013972992	52	5589
2026-01-19 17:20:32.78	283.48	14.88	-38.9	-39.8	23.7	0.00e+00	53	40	0	1022361600	52	5579
2026-01-19 17:20:36.82	282.86	14.58	-38.7	-39.6	23.9	0.00e+00	19	40	0	1029701632	50	6106
2026-01-19 17:20:40.85	282.26	14.29	-38.9	-39.8	23.7	0.00e+00	0	40	0	1037041664	50	6301
2026-01-19 17:20:44.89	281.66	14.00	-39.5	-40.4	23.3	0.00e+00	7	40	0	1044381696	50	6721
2026-01-19 17:20:48.93	281.08	13.71	-39.4	-40.4	23.2	0.00e+00	92	40	0	1052770304	50	6714
2026-01-19 17:20:52.97	280.50	13.42	-39.5	-40.4	23.2	0.00e+00	78	40	0	1060110336	50	6740
2026-01-19 17:20:57.01	279.94	13.13	-39.5	-40.5	22.9	0.00e+00	75	40	0	1067450368	50	6798
2026-01-19 17:21:01.05	279.39	12.85	-39.5	-40.4	23.1	0.00e+00	0	40	0	1074790400	50	6764
2026-01-19 17:21:05.08	278.85	12.56	-39.3	-40.3	23.2	0.00e+00	92	40	0	1082130432	50	6641
2026-01-19 17:21:09.12	278.33	12.27	-39.5	-40.5	22.9	0.00e+00	2	40	0	1090519040	50	6773
2026-01-19 17:21:13.16	277.81	11.99	-40.0	-41.0	22.4	0.00e+00	81	40	0	1097859072	52	6462
2026-01-19 17:21:17.20	277.30	11.70	-40.2	-41.2	22.3	0.00e+00	77	40	0	1105199104	52	6594
2026-01-19 17:21:21.24	276.80	11.42	-40.2	-41.2	22.3	0.00e+00	92	40	0	1112539136	52	6568
2026-01-19 17:21:25.28	276.31	11.14	-40.1	-41.1	22.4	0.00e+00	2	40	0	1120927744	52	6493
2026-01-19 17:21:29.31	275.83	10.86	-40.4	-41.5	22.1	0.00e+00	2	40	0	1128267776	52	6803
2026-01-19 17:21:33.35	275.36	10.58	-40.7	-41.8	21.9	0.00e+00	0	40	0	1135607808	54	6269
2026-01-19 17:21:37.38	274.90	10.30	-40.7	-41.8	21.8	0.00e+00	92	40	0	1142947840	54	6260
2026-01-19 17:21:41.42	274.45	10.02	-41.0	-42.1	21.6	0.00e+00	81	40	0	1150287872	54	6521
2026-01-19 17:21:45.46	274.01	9.75	-41.1	-42.3	21.3	0.00e+00	2	40	0	1158676480	54	6653
2026-01-19 17:21:49.50	273.57	9.47	-40.9	-42.0	21.7	0.00e+00	0	40	0	1166016512	54	6413
2026-01-19 17:21:53.54	273.15	9.20	-40.9	-42.1	21.3	0.00e+00	92	40	0	1173356544	54	6472
2026-01-19 17:21:57.58	272.73	8.93	-41.2	-42.4	21.0	0.00e+00	4	40	0	1180696576	54	6739
2026-01-19 17:22:01.62	272.32	8.66	-41.5	-42.8	20.6	0.00e+00	1	40	0	1189085184	54	7010
2026-01-19 17:22:05.66	271.92	8.39	-41.8	-43.1	20.6	0.00e+00	92	40	0	1196425216	56	6467
2026-01-19 17:22:09.70	271.52	8.12	-41.9	-43.2	20.4	0.00e+00	92	40	0	1203765248	56	6556
2026-01-19 17:22:13.73	271.13	7.86	-42.1	-43.5	20.2	0.00e+00	5	40	0	1211105280	56	6804
2026-01-19 17:22:17.78	270.75	7.59	-42.0	-43.4	20.1	0.00e+00	3	40	0	1218445312	56	6718
2026-01-19 17:22:21.82	270.38	7.33	-42.0	-43.4	20.1	0.00e+00	92	40	0	1226833920	56	6721
2026-01-19 17:22:25.86	270.01	7.07	-42.4	-43.8	19.7	0.00e+00	0	40	0	1234173952	56	7040
2026-01-19 17:22:29.89	269.65	6.81	-42.4	-43.8	19.6	0.00e+00	7	40	0	1241513984	56	7053
2026-01-19 17:22:33.93	269.30	6.55	-42.2	-43.6	19.7	0.00e+00	7	40	0	1248854016	56	6892
2026-01-19 17:22:37.97	268.95	6.30	-42.4	-43.9	19.4	0.00e+00	92	40	0	1257242624	56	7101
2026-01-19 17:22:42.00	268.61	6.04	-42.5	-44.1	19.2	0.00e+00	0	40	0	1264582656	56	7255
2026-01-19 17:22:46.04	268.27	5.79	-42.5	-44.0	19.1	0.00e+00	0	40	0	1271922688	58	6434
2026-01-19 17:22:50.08	267.94	5.54	-42.7	-44.3	18.8	0.00e+00	0	40	0	1279262720	58	6634
2026-01-19 17:22:54.12	267.62	5.29	-43.1	-44.8	18.4	0.00e+00	92	40	0	1286602752	58	7050
2026-01-19 17:22:58.16	267.30	5.04	-42.9	-44.7	18.3	0.00e+00	3	40	0	1294991360	58	6930
2026-01-19 17:23:02.20	266.99	4.79	-43.2	-45.0	18.1	0.00e+00	1	40	0	1302331392	58	7173
2026-01-19 17:23:06.24	266.69	4.54	-43.3	-45.1	17.8	0.00e+00	0	40	0	1309671424	58	7294
2026-01-19 17:23:10.27	266.38	4.30	-43.1	-45.0	17.9	0.00e+00	90	40	0	1317011456	58	7209
2026-01-19 17:23:14.31	266.09	4.06	-43.2	-45.0	17.8	0.00e+00	0	40	0	1325400064	58	7247
2026-01-19 17:23:18.35	265.80	3.82	-43.1	-44.9	17.8	0.00e+00	0	40	0	1332740096	58	7134
2026-01-19 17:23:22.39	265.51	3.58	-43.2	-45.1	17.5	0.00e+00	0	40	0	1340080128	58	7327
2026-01-19 17:23:26.43	265.23	3.34	-43.4	-45.5	17.1	0.00e+00	92	40	0	1347420160	58	7646
2026-01-19 17:23:30.46	264.95	3.10	-43.5	-45.6	16.9	0.00e+00	0	40	0	1354760192	58	7718
2026-01-19 17:23:34.51	264.68	2.87	-49.4	-64.5	3.6	1.51e+00	0	40	104	1358954496	60	61000
2026-01-19 17:23:38.54	264.41	2.63	-49.8	-65.1	3.6	1.51e+00	0	40	104	1358954496	60	64675
2026-01-19 17:23:42.59	264.15	2.40	-49.9	-65.2	3.6	1.51e+00	0	40	104	1358954496	60	65737
2026-01-19 17:23:46.63	263.89	2.17	-50.0	-65.2	3.6	1.51e+00	0	40	104	1358954496	60	65807
2026-01-19 17:23:50.67	263.64	1.94	-50.0	-65.3	3.6	1.51e+00	0	40	104	1358954496	60	66712
2026-01-19 17:23:54.71	263.39	1.71	-50.3	-65.6	3.6	1.51e+00	0	40	104	1358954496	60	68619
2026-01-19 17:23:58.75	263.14	1.48	-50.6	-65.8	3.6	1.51e+00	0	40	104	1358954496	60	70505
2026-01-19 17:24:02.78	262.90	1.25	-51.1	-66.3	3.6	1.51e+00	0	40	104	1358954496	60	74291
2026-01-19 17:24:06.82	262.66	1.03	-50.5	-65.7	3.6	1.51e+00	0	40	104	1358954496	60	69769
2026-01-19 17:24:10.86	262.42	0.80	-50.9	-66.1	3.6	1.51e+00	0	40	104	1358954496	60	72670
2026-01-19 17:24:14.90	262.19	0.58	-51.4	-66.6	3.6	1.51e+00	0	40	104	1358954496	60	76937
2026-01-19 17:24:18.94	261.96	0.36	-51.2	-66.4	3.6	1.51e+00	0	40	104	1358954496	60	75324
2026-01-19 17:24:22.98	261.74	0.14	-50.8	-66.0	3.6	1.51e+00	0	40	104	1358954496	60	71872

#Closed at: 2026-01-19 17:24:26
#Recorded file [1358 MB]: D:/lorett/data/35029_260120_051031.dat