passes_logs/2026/01/19/R4.6S_Anadyr/R4.6S_Anadyr__20260119_234522_NOAA_20_JPSS-1_rec.log

#Pass ID: 20260119_234522_NOAA 20 (JPSS-1)
#Satellite: NOAA 20 (JPSS-1)
#Configuration: NOAA 20
#almurnet v.1.7.20251203
#Start time: 2026-01-19 23:45:24

#Version: 2.2.20231116
#Station: R4.6S_Anadyr
#Location: 177.4865 lon 64.73178 lat
#TLE: 1 43013U 17073A   26019.27717929  .00000087  00000+0  62288-4 0  9995
#TLE: 2 43013  98.7641 320.1715 0001339  33.1986 326.9274 14.19537047423343

#Time	Az	El	Level	Level2	SNR	BER	BlckErr	Temp	State	Recorded	gain1	gain2
2026-01-19 23:45:24.88	144.79	0.12	-51.0	-65.9	3.5	1.51e+00	0	39	0	0	60	71439
2026-01-19 23:45:28.90	144.75	0.36	-51.4	-66.6	3.6	1.51e+00	0	40	104	0	60	76987
2026-01-19 23:45:32.94	144.71	0.61	-50.5	-65.8	3.6	1.51e+00	0	40	104	0	60	70523
2026-01-19 23:45:36.98	144.67	0.86	-50.8	-66.0	3.6	1.51e+00	0	41	104	0	60	72303
2026-01-19 23:45:41.02	144.63	1.11	-50.5	-65.7	3.6	1.51e+00	0	41	104	0	60	69920
2026-01-19 23:45:45.06	144.59	1.36	-49.8	-65.1	3.6	1.51e+00	0	41	104	0	60	64863
2026-01-19 23:45:49.09	144.54	1.61	-48.0	-63.7	3.5	1.51e+00	0	41	104	0	60	55523
2026-01-19 23:45:53.13	144.50	1.87	-48.0	-63.4	3.6	1.51e+00	0	41	104	0	60	53579
2026-01-19 23:45:57.17	144.45	2.13	-48.4	-63.8	3.6	1.51e+00	0	41	104	0	60	55932
2026-01-19 23:46:01.20	144.41	2.39	-48.3	-63.7	3.6	1.51e+00	0	41	104	0	60	55412
2026-01-19 23:46:05.24	144.36	2.65	-48.2	-63.8	3.6	1.51e+00	0	41	104	0	60	55763
2026-01-19 23:46:09.28	144.31	2.92	-48.5	-63.4	3.6	1.51e+00	0	41	104	0	60	53659
2026-01-19 23:46:13.32	144.26	3.19	-48.0	-57.5	4.5	8.22e-01	92	41	0	0	60	27247
2026-01-19 23:46:17.36	144.21	3.46	-46.7	-52.2	9.6	3.50e-02	92	41	0	8388608	60	14801
2026-01-19 23:46:21.40	144.16	3.73	-45.9	-50.4	11.7	1.78e-03	28	41	0	15728640	60	11936
2026-01-19 23:46:25.44	144.11	4.01	-43.3	-45.7	16.1	1.05e-01	92	42	104	19922944	60	6993
2026-01-19 23:46:29.48	144.05	4.29	-44.1	-46.7	15.9	0.00e+00	92	42	0	22020096	60	7797
2026-01-19 23:46:33.52	144.00	4.57	-44.1	-46.3	16.8	0.00e+00	90	42	0	30408704	60	7474
2026-01-19 23:46:37.56	143.94	4.85	-43.6	-45.8	17.2	0.00e+00	0	41	0	37748736	60	7021
2026-01-19 23:46:41.60	143.88	5.14	-43.1	-45.2	17.9	0.00e+00	92	42	0	45088768	60	6560
2026-01-19 23:46:45.63	143.82	5.43	-43.4	-45.5	17.9	0.00e+00	90	42	0	52428800	60	6801
2026-01-19 23:46:49.67	143.76	5.73	-42.6	-44.3	18.3	0.00e+00	92	42	0	59768832	58	6673
2026-01-19 23:46:53.71	143.70	6.03	-42.6	-44.6	18.3	0.00e+00	0	42	0	68157440	58	6918
2026-01-19 23:46:57.75	143.63	6.33	-42.3	-44.2	18.5	0.00e+00	92	42	0	75497472	58	6590
2026-01-19 23:47:01.79	143.57	6.63	-42.2	-44.0	18.9	0.00e+00	92	42	0	82837504	58	6409
2026-01-19 23:47:05.83	143.50	6.94	-41.8	-43.7	19.3	0.00e+00	91	42	0	90177536	58	6182
2026-01-19 23:47:09.86	143.43	7.25	-41.7	-43.3	19.6	0.00e+00	15	42	0	98566144	56	6661
2026-01-19 23:47:13.90	143.36	7.57	-42.0	-43.4	19.6	0.00e+00	92	42	0	105906176	56	6747
2026-01-19 23:47:17.93	143.29	7.89	-41.9	-43.4	19.9	0.00e+00	92	42	0	113246208	56	6696
2026-01-19 23:47:21.97	143.21	8.21	-41.8	-43.2	20.2	0.00e+00	61	42	0	120586240	56	6585
2026-01-19 23:47:26.01	143.13	8.54	-41.4	-42.6	20.6	0.00e+00	92	42	0	127926272	56	6166
2026-01-19 23:47:30.05	143.05	8.87	-41.5	-42.8	20.6	0.00e+00	92	42	0	136314880	56	6268
2026-01-19 23:47:34.09	142.97	9.21	-41.5	-42.8	20.5	0.00e+00	92	42	0	143654912	56	6317
2026-01-19 23:47:38.13	142.89	9.55	-41.2	-42.4	20.8	0.00e+00	90	42	0	150994944	56	6032
2026-01-19 23:47:42.17	142.80	9.90	-41.5	-42.8	20.3	0.00e+00	92	42	0	158334976	56	6260
2026-01-19 23:47:46.21	142.72	10.25	-41.3	-42.5	20.9	0.00e+00	91	42	0	166723584	56	6098
2026-01-19 23:47:50.25	142.63	10.60	-40.9	-42.2	20.7	0.00e+00	92	42	0	174063616	54	6576
2026-01-19 23:47:54.29	142.53	10.96	-41.3	-42.5	20.4	7.00e-07	7	42	0	181403648	54	6835
2026-01-19 23:47:58.33	142.44	11.33	-40.7	-41.9	20.8	0.00e+00	92	42	0	188743680	54	6380
2026-01-19 23:48:02.38	142.34	11.70	-40.6	-41.8	21.0	0.00e+00	92	42	0	196083712	54	6251
2026-01-19 23:48:06.42	142.24	12.08	-40.9	-42.0	21.3	0.00e+00	92	42	0	204472320	54	6405
2026-01-19 23:48:10.45	142.13	12.46	-40.9	-42.0	21.5	0.00e+00	0	42	0	211812352	54	6454
2026-01-19 23:48:14.49	142.03	12.85	-40.2	-41.3	22.2	0.00e+00	92	42	0	219152384	54	5915
2026-01-19 23:48:18.54	141.92	13.25	-40.0	-41.1	22.5	0.00e+00	91	42	0	226492416	54	5773
2026-01-19 23:48:22.57	141.80	13.65	-40.1	-41.1	22.9	0.00e+00	92	41	0	234881024	52	6477
2026-01-19 23:48:26.61	141.69	14.06	-40.0	-40.9	23.3	0.00e+00	17	42	0	242221056	52	6385
2026-01-19 23:48:30.65	141.56	14.48	-39.4	-40.2	23.8	0.00e+00	92	42	0	249561088	52	5889
2026-01-19 23:48:34.69	141.44	14.90	-39.1	-40.0	24.1	0.00e+00	90	42	0	256901120	52	5727
2026-01-19 23:48:38.72	141.31	15.33	-39.0	-39.9	23.8	0.00e+00	91	42	0	264241152	50	6355
2026-01-19 23:48:42.76	141.18	15.76	-38.5	-39.4	24.1	0.00e+00	0	41	0	272629760	50	6000
2026-01-19 23:48:46.80	141.04	16.21	-38.7	-39.5	24.2	0.00e+00	92	42	0	279969792	50	6101
2026-01-19 23:48:50.84	140.90	16.66	-38.3	-39.2	24.4	0.00e+00	92	41	0	287309824	50	5845
2026-01-19 23:48:54.88	140.75	17.12	-38.3	-39.1	24.4	0.00e+00	92	41	0	294649856	50	5799
2026-01-19 23:48:58.92	140.60	17.59	-38.3	-39.2	24.3	0.00e+00	92	42	0	303038464	50	5840
2026-01-19 23:49:02.96	140.45	18.07	-38.0	-38.9	24.5	0.00e+00	92	42	0	310378496	50	5633
2026-01-19 23:49:07.00	140.28	18.56	-38.1	-39.0	24.5	0.00e+00	92	41	0	317718528	50	5712
2026-01-19 23:49:11.04	140.12	19.06	-38.1	-38.9	24.5	0.00e+00	52	42	0	325058560	50	5677
2026-01-19 23:49:15.06	139.94	19.57	-38.1	-38.9	24.5	0.00e+00	92	42	0	332398592	50	5692
2026-01-19 23:49:19.10	139.76	20.08	-38.0	-38.8	24.6	0.00e+00	92	41	0	340787200	50	5589
2026-01-19 23:49:23.14	139.58	20.61	-38.2	-39.0	24.7	0.00e+00	92	42	0	348127232	50	5720
2026-01-19 23:49:27.17	139.38	21.15	-37.9	-38.7	24.8	0.00e+00	28	42	0	355467264	50	5508
2026-01-19 23:49:31.22	139.18	21.70	-38.2	-39.0	24.7	0.00e+00	92	42	0	362807296	50	5698
2026-01-19 23:49:35.25	138.97	22.27	-38.3	-39.2	24.3	0.00e+00	92	41	0	371195904	50	5846
2026-01-19 23:49:39.29	138.75	22.84	-38.0	-38.9	24.7	0.00e+00	0	41	0	378535936	50	5644
2026-01-19 23:49:43.33	138.53	23.43	-38.4	-39.2	24.4	0.00e+00	2	41	0	385875968	50	5862
2026-01-19 23:49:47.36	138.29	24.03	-38.8	-39.6	24.2	0.00e+00	92	42	0	393216000	50	6172
2026-01-19 23:49:51.40	138.05	24.64	-39.3	-40.2	24.0	0.00e+00	90	41	0	400556032	50	6569
2026-01-19 23:49:55.44	137.79	25.27	-39.3	-40.1	23.9	0.00e+00	55	41	0	408944640	50	6528
2026-01-19 23:49:59.48	137.53	25.91	-39.4	-40.3	23.7	0.00e+00	0	41	0	416284672	50	6654
2026-01-19 23:50:03.51	137.25	26.57	-39.8	-40.7	23.4	0.00e+00	92	42	0	423624704	52	6220
2026-01-19 23:50:07.55	136.96	27.25	-40.3	-41.3	22.9	0.00e+00	90	42	0	430964736	52	6676
2026-01-19 23:50:11.59	136.65	27.93	-41.2	-42.3	22.1	0.00e+00	0	42	0	439353344	54	6638
2026-01-19 23:50:15.63	136.34	28.64	-41.8	-43.0	21.3	0.00e+00	22	41	0	446693376	56	6401
2026-01-19 23:50:19.67	136.00	29.37	-41.9	-43.1	21.6	0.00e+00	92	42	0	454033408	56	6484
2026-01-19 23:50:23.70	135.65	30.10	-41.6	-42.7	21.5	0.00e+00	92	42	0	461373440	56	6231
2026-01-19 23:50:27.73	135.29	30.86	-42.4	-43.7	20.8	0.00e+00	12	41	0	468713472	56	6951
2026-01-19 23:50:31.77	134.91	31.64	-42.6	-43.9	20.4	0.00e+00	75	41	0	477102080	56	7132
2026-01-19 23:50:35.81	134.50	32.44	-43.0	-44.5	19.8	0.00e+00	92	41	0	484442112	58	6791
2026-01-19 23:50:39.85	134.08	33.26	-43.2	-44.7	19.5	0.00e+00	92	42	0	491782144	58	6967
2026-01-19 23:50:43.88	133.63	34.09	-43.5	-45.0	19.3	0.00e+00	65	41	0	499122176	58	7225
2026-01-19 23:50:47.92	133.16	34.95	-43.0	-44.4	19.8	0.00e+00	92	41	0	506462208	58	6749
2026-01-19 23:50:51.96	132.66	35.84	-43.6	-45.2	19.1	0.00e+00	90	41	0	514850816	60	6549
2026-01-19 23:50:55.99	132.13	36.74	-43.8	-45.5	18.8	0.00e+00	92	41	0	522190848	60	6776
2026-01-19 23:51:00.03	131.57	37.66	-43.4	-44.9	19.3	0.00e+00	31	41	0	529530880	60	6343
2026-01-19 23:51:04.07	130.98	38.61	-43.1	-44.6	19.7	0.00e+00	92	42	0	536870912	60	6135
2026-01-19 23:51:08.11	130.35	39.58	-42.3	-43.6	20.5	0.00e+00	90	41	0	545259520	58	6156
2026-01-19 23:51:12.15	129.68	40.58	-41.7	-42.9	21.3	0.00e+00	90	41	0	552599552	56	6354
2026-01-19 23:51:16.19	128.96	41.60	-41.1	-42.1	22.0	0.00e+00	0	41	0	559939584	56	5828
2026-01-19 23:51:20.23	128.20	42.64	-41.0	-42.0	22.1	0.00e+00	92	42	0	567279616	56	5760
2026-01-19 23:51:24.26	127.39	43.70	-41.0	-42.1	22.1	0.00e+00	92	42	0	574619648	56	5772
2026-01-19 23:51:28.30	126.52	44.79	-39.8	-40.8	23.2	0.00e+00	90	41	0	583008256	54	5585
2026-01-19 23:51:32.34	125.59	45.90	-39.7	-40.6	23.3	0.00e+00	0	42	0	590348288	52	6146
2026-01-19 23:51:36.37	124.59	47.03	-39.9	-40.8	23.4	0.00e+00	92	42	0	597688320	52	6274
2026-01-19 23:51:40.41	123.51	48.19	-40.6	-41.6	22.5	0.00e+00	92	42	0	605028352	52	6909
2026-01-19 23:51:44.44	122.34	49.36	-40.1	-41.0	23.0	0.00e+00	91	41	0	613416960	52	6462
2026-01-19 23:51:48.48	121.08	50.54	-39.0	-39.9	24.0	0.00e+00	61	41	0	620756992	52	5660
2026-01-19 23:51:52.52	119.72	51.75	-38.5	-39.3	24.5	0.00e+00	92	42	0	628097024	50	5960
2026-01-19 23:51:56.55	118.24	52.96	-38.1	-38.9	24.7	0.00e+00	92	41	0	635437056	50	5677
2026-01-19 23:52:00.59	116.63	54.19	-39.0	-39.9	24.0	0.00e+00	44	42	0	642777088	50	6352
2026-01-19 23:52:04.63	114.87	55.41	-40.7	-41.8	22.3	0.00e+00	29	41	0	651165696	52	7016
2026-01-19 23:52:08.67	112.96	56.64	-42.4	-43.7	20.5	0.00e+00	92	42	0	658505728	56	7003
2026-01-19 23:52:12.71	110.86	57.86	-42.1	-43.3	20.9	0.00e+00	92	42	0	665845760	56	6683
2026-01-19 23:52:16.75	108.57	59.07	-41.3	-42.4	21.8	0.00e+00	0	41	0	673185792	56	5987
2026-01-19 23:52:20.79	106.06	60.25	-39.5	-40.5	23.5	0.00e+00	92	42	0	681574400	52	6035
2026-01-19 23:52:24.83	103.30	61.40	-38.1	-38.9	24.7	0.00e+00	92	42	0	688914432	50	5674
2026-01-19 23:52:28.87	100.29	62.50	-38.1	-38.9	24.8	0.00e+00	92	42	0	696254464	48	6337
2026-01-19 23:52:32.91	96.99	63.55	-37.9	-38.7	25.0	0.00e+00	0	41	0	703594496	48	6236
2026-01-19 23:52:36.94	93.40	64.52	-38.4	-39.2	24.6	0.00e+00	92	42	0	710934528	48	6568
2026-01-19 23:52:40.98	89.50	65.41	-39.2	-40.1	23.9	0.00e+00	92	41	0	719323136	50	6511
2026-01-19 23:52:45.01	85.30	66.20	-41.1	-42.2	22.0	0.00e+00	92	41	0	726663168	54	6568
2026-01-19 23:52:49.05	80.80	66.86	-41.5	-42.7	21.7	0.00e+00	7	41	0	734003200	54	6970
2026-01-19 23:52:53.08	76.05	67.40	-42.0	-43.2	21.3	0.00e+00	92	42	0	741343232	56	6560
2026-01-19 23:52:57.12	71.07	67.78	-41.2	-42.3	22.2	0.00e+00	92	41	0	749731840	56	5902
2026-01-19 23:53:01.16	65.94	68.01	-42.1	-43.3	21.3	0.00e+00	92	41	0	757071872	56	6651
2026-01-19 23:53:05.20	60.74	68.07	-42.5	-43.7	20.8	0.00e+00	50	41	0	764411904	56	6985
2026-01-19 23:53:09.24	55.55	67.96	-41.5	-42.6	21.9	0.00e+00	92	41	0	771751936	56	6140
2026-01-19 23:53:13.28	50.45	67.69	-42.2	-43.4	21.5	0.00e+00	90	41	0	779091968	56	6702
2026-01-19 23:53:17.32	45.53	67.26	-41.3	-42.3	22.3	0.00e+00	0	41	0	787480576	56	5951
2026-01-19 23:53:21.36	40.84	66.69	-40.7	-41.6	22.8	0.00e+00	1	41	0	794820608	56	5468
2026-01-19 23:53:25.40	36.42	65.99	-40.5	-41.5	23.2	0.00e+00	90	41	0	802160640	54	6080
2026-01-19 23:53:29.43	32.31	65.17	-39.0	-39.8	24.5	0.00e+00	89	41	0	809500672	52	5629
2026-01-19 23:53:33.47	28.50	64.26	-38.8	-39.6	24.7	0.00e+00	7	41	0	817889280	50	6166
2026-01-19 23:53:37.50	25.01	63.27	-39.6	-40.4	24.0	0.00e+00	92	41	0	825229312	50	6759
2026-01-19 23:53:41.54	21.79	62.20	-40.2	-41.2	23.2	0.00e+00	92	41	0	832569344	52	6550
2026-01-19 23:53:45.58	18.86	61.09	-40.8	-41.8	22.5	0.00e+00	92	41	0	839909376	54	6303
2026-01-19 23:53:49.62	16.18	59.93	-42.0	-43.1	21.4	0.00e+00	35	41	0	847249408	56	6537
2026-01-19 23:53:53.65	13.74	58.75	-42.6	-43.9	20.6	0.00e+00	90	41	0	855638016	58	6334
2026-01-19 23:53:57.69	11.51	57.54	-42.5	-43.8	20.8	0.00e+00	91	41	0	862978048	58	6264
2026-01-19 23:54:01.71	9.47	56.33	-42.4	-43.7	21.2	0.00e+00	92	41	0	870318080	58	6177
2026-01-19 23:54:05.75	7.61	55.10	-40.1	-41.0	23.6	0.00e+00	0	41	0	877658112	54	5720
2026-01-19 23:54:09.79	5.90	53.88	-39.1	-40.0	24.1	0.00e+00	92	41	0	886046720	52	5723
2026-01-19 23:54:13.83	4.32	52.66	-39.1	-39.9	24.3	0.00e+00	90	41	0	893386752	52	5685
2026-01-19 23:54:17.87	2.88	51.45	-39.2	-40.0	24.2	0.00e+00	8	41	0	900726784	50	6459
2026-01-19 23:54:21.90	1.55	50.26	-40.4	-41.3	23.0	0.00e+00	0	41	0	908066816	54	5957
2026-01-19 23:54:25.94	0.32	49.08	-41.0	-42.1	22.3	0.00e+00	92	41	0	915406848	54	6470
2026-01-19 23:54:29.98	359.18	47.91	-40.7	-41.7	22.8	0.00e+00	92	41	0	923795456	54	6224
2026-01-19 23:54:34.02	358.12	46.77	-41.9	-43.1	21.4	0.00e+00	36	41	0	931135488	56	6506
2026-01-19 23:54:38.05	357.14	45.65	-41.6	-42.7	21.8	0.00e+00	44	41	0	938475520	56	6213
2026-01-19 23:54:42.09	356.23	44.55	-41.3	-42.5	21.9	0.00e+00	90	41	0	945815552	56	6038
2026-01-19 23:54:46.13	355.38	43.47	-42.5	-43.8	20.8	0.00e+00	92	41	0	953155584	56	7041
2026-01-19 23:54:50.17	354.58	42.41	-43.0	-44.4	20.2	0.00e+00	36	41	0	961544192	58	6721
2026-01-19 23:54:54.20	353.83	41.38	-43.5	-45.0	19.4	0.00e+00	15	41	0	968884224	58	7245
2026-01-19 23:54:58.25	353.13	40.37	-43.0	-44.3	20.2	0.00e+00	91	41	0	976224256	60	5942
2026-01-19 23:55:02.28	352.48	39.39	-42.6	-43.9	20.7	0.00e+00	92	41	0	983564288	58	6354
2026-01-19 23:55:06.32	351.86	38.43	-41.9	-43.1	21.4	0.00e+00	0	42	0	991952896	58	5771
2026-01-19 23:55:10.36	351.28	37.49	-42.3	-43.6	20.9	0.00e+00	0	41	0	999292928	58	6114
2026-01-19 23:55:14.40	350.73	36.57	-41.6	-42.7	21.8	0.00e+00	92	41	0	1006632960	56	6214
2026-01-19 23:55:18.43	350.21	35.68	-42.0	-43.2	21.4	0.00e+00	91	41	0	1013972992	56	6542
2026-01-19 23:55:22.47	349.72	34.81	-42.0	-43.1	21.3	0.00e+00	0	41	0	1021313024	56	6514
2026-01-19 23:55:26.51	349.26	33.96	-42.8	-44.1	20.6	0.00e+00	89	41	0	1029701632	58	6505
2026-01-19 23:55:30.55	348.82	33.12	-42.9	-44.2	20.3	0.00e+00	92	41	0	1037041664	58	6580
2026-01-19 23:55:34.59	348.40	32.31	-43.4	-45.0	19.6	0.00e+00	48	41	0	1044381696	58	7177
2026-01-19 23:55:38.62	348.01	31.53	-44.5	-46.3	18.1	0.00e+00	0	41	0	1051721728	60	7498
2026-01-19 23:55:42.66	347.63	30.76	-44.0	-45.6	18.8	0.00e+00	92	41	0	1060110336	60	6877
2026-01-19 23:55:46.70	347.27	30.00	-43.6	-45.2	19.4	0.00e+00	92	41	0	1067450368	60	6570
2026-01-19 23:55:50.74	346.93	29.27	-43.4	-44.8	19.7	0.00e+00	32	41	0	1074790400	60	6300
2026-01-19 23:55:54.77	346.60	28.55	-43.5	-45.0	19.5	0.00e+00	0	41	0	1082130432	60	6443
2026-01-19 23:55:58.81	346.29	27.85	-42.8	-44.1	20.3	0.00e+00	92	41	0	1089470464	60	5818
2026-01-19 23:56:02.85	345.99	27.17	-42.3	-43.5	20.7	0.00e+00	55	41	0	1097859072	58	6093
2026-01-19 23:56:06.89	345.70	26.50	-42.0	-43.2	21.4	0.00e+00	5	41	0	1105199104	58	5843
2026-01-19 23:56:10.93	345.43	25.85	-41.7	-42.8	21.7	0.00e+00	5	41	0	1112539136	56	6288
2026-01-19 23:56:14.97	345.17	25.21	-42.2	-43.4	21.3	0.00e+00	92	41	0	1119879168	56	6724
2026-01-19 23:56:19.01	344.92	24.59	-41.5	-42.6	21.8	0.00e+00	49	41	0	1128267776	56	6115
2026-01-19 23:56:23.04	344.68	23.98	-40.6	-41.6	22.5	0.00e+00	50	41	0	1135607808	54	6153
2026-01-19 23:56:27.08	344.45	23.39	-40.2	-41.2	22.8	0.00e+00	49	41	0	1142947840	54	5849
2026-01-19 23:56:31.12	344.23	22.81	-40.1	-41.0	22.9	0.00e+00	92	41	0	1150287872	54	5752
2026-01-19 23:56:35.16	344.01	22.24	-40.1	-41.1	22.8	0.00e+00	2	41	0	1157627904	54	5790
2026-01-19 23:56:39.19	343.81	21.68	-40.0	-40.9	22.8	0.00e+00	32	41	0	1166016512	54	5686
2026-01-19 23:56:43.23	343.61	21.13	-40.0	-41.0	22.9	0.00e+00	0	41	0	1173356544	54	5723
2026-01-19 23:56:47.27	343.42	20.60	-40.2	-41.2	22.6	0.00e+00	91	41	0	1180696576	54	5860
2026-01-19 23:56:51.30	343.24	20.07	-40.5	-41.6	22.3	0.00e+00	0	41	0	1188036608	54	6116
2026-01-19 23:56:55.34	343.06	19.56	-40.7	-41.7	22.3	0.00e+00	0	41	0	1196425216	54	6230
2026-01-19 23:56:59.38	342.89	19.06	-40.9	-42.0	22.1	0.00e+00	33	41	0	1203765248	54	6404
2026-01-19 23:57:03.41	342.73	18.56	-40.9	-41.9	22.1	0.00e+00	92	41	0	1211105280	54	6359
2026-01-19 23:57:07.45	342.57	18.08	-40.8	-41.8	22.1	0.00e+00	0	41	0	1218445312	54	6283
2026-01-19 23:57:11.49	342.42	17.60	-41.2	-42.3	21.6	0.00e+00	2	41	0	1225785344	54	6684
2026-01-19 23:57:15.53	342.27	17.14	-41.3	-42.4	21.5	0.00e+00	53	41	0	1234173952	54	6752
2026-01-19 23:57:19.56	342.13	16.68	-41.5	-42.7	21.4	0.00e+00	57	41	0	1241513984	54	6958
2026-01-19 23:57:23.60	341.99	16.23	-41.6	-42.8	21.2	0.00e+00	0	41	0	1248854016	54	7076
2026-01-19 23:57:27.63	341.86	15.79	-41.6	-42.8	21.2	0.00e+00	29	41	0	1256194048	56	6317
2026-01-19 23:57:31.67	341.73	15.35	-41.6	-42.9	21.1	0.00e+00	90	41	0	1263534080	56	6366
2026-01-19 23:57:35.71	341.60	14.93	-41.9	-43.3	20.8	0.00e+00	4	41	0	1271922688	56	6652
2026-01-19 23:57:39.75	341.48	14.51	-42.2	-43.7	20.1	0.00e+00	0	41	0	1279262720	56	6996
2026-01-19 23:57:43.79	341.36	14.09	-42.1	-43.6	20.4	0.00e+00	29	41	0	1286602752	56	6915
2026-01-19 23:57:47.83	341.25	13.69	-42.0	-43.5	20.4	0.00e+00	92	41	0	1293942784	56	6820
2026-01-19 23:57:51.87	341.14	13.29	-42.0	-43.5	20.5	0.00e+00	7	41	0	1302331392	56	6803
2026-01-19 23:57:55.91	341.03	12.90	-42.0	-43.6	20.5	0.00e+00	7	41	0	1309671424	56	6856
2026-01-19 23:57:59.94	340.93	12.51	-42.1	-43.6	20.5	0.00e+00	0	41	0	1317011456	56	6878
2026-01-19 23:58:03.98	340.83	12.13	-41.9	-43.4	20.5	0.00e+00	92	41	0	1324351488	56	6709
2026-01-19 23:58:08.02	340.73	11.75	-41.9	-43.4	20.4	0.00e+00	60	41	0	1331691520	56	6761
2026-01-19 23:58:12.05	340.64	11.39	-42.0	-43.6	20.4	0.00e+00	60	41	0	1340080128	56	6865
2026-01-19 23:58:16.09	340.54	11.02	-42.1	-43.6	20.3	0.00e+00	0	41	0	1347420160	56	6915
2026-01-19 23:58:20.13	340.45	10.66	-42.2	-43.7	20.2	0.00e+00	92	41	0	1354760192	56	6992
2026-01-19 23:58:24.17	340.37	10.31	-42.1	-43.7	20.3	0.00e+00	27	41	0	1362100224	56	6981
2026-01-19 23:58:28.21	340.28	9.96	-42.0	-43.6	20.1	0.00e+00	26	41	0	1370488832	56	6907
2026-01-19 23:58:32.25	340.20	9.62	-42.2	-43.9	20.0	0.00e+00	92	41	0	1377828864	56	7131
2026-01-19 23:58:36.29	340.12	9.28	-42.4	-44.1	19.7	0.00e+00	92	41	0	1385168896	56	7325
2026-01-19 23:58:40.33	340.04	8.94	-42.6	-44.3	19.4	0.00e+00	0	41	0	1392508928	56	7439
2026-01-19 23:58:44.37	339.97	8.61	-42.8	-44.6	19.1	0.00e+00	21	41	0	1399848960	58	6879
2026-01-19 23:58:48.40	339.90	8.28	-43.0	-44.8	19.1	0.00e+00	63	41	0	1408237568	58	7030
2026-01-19 23:58:52.44	339.82	7.96	-43.2	-44.9	18.8	0.00e+00	0	41	0	1415577600	58	7142
2026-01-19 23:58:56.47	339.75	7.64	-43.1	-45.0	18.6	0.00e+00	53	41	0	1422917632	58	7179
2026-01-19 23:59:00.51	339.69	7.33	-43.6	-45.4	18.5	0.00e+00	0	41	0	1430257664	58	7557
2026-01-19 23:59:04.55	339.62	7.02	-43.5	-45.4	18.5	0.00e+00	91	41	0	1438646272	58	7543
2026-01-19 23:59:08.59	339.56	6.71	-43.6	-45.6	18.1	0.00e+00	66	42	0	1445986304	60	6883
2026-01-19 23:59:12.63	339.50	6.41	-43.8	-45.7	18.4	0.00e+00	19	41	0	1453326336	60	6971
2026-01-19 23:59:16.67	339.43	6.11	-43.6	-45.5	17.9	0.00e+00	6	41	0	1460666368	60	6841
2026-01-19 23:59:20.71	339.38	5.81	-43.6	-45.6	18.1	0.00e+00	92	42	0	1468006400	60	6884
2026-01-19 23:59:24.75	339.32	5.52	-43.6	-45.7	17.3	0.00e+00	0	41	0	1476395008	60	6999
2026-01-19 23:59:28.79	339.26	5.23	-44.3	-46.9	15.7	0.00e+00	0	42	0	1483735040	60	7969
2026-01-19 23:59:32.83	339.21	4.94	-45.1	-48.7	13.2	1.14e-05	64	41	0	1491075072	60	9856
2026-01-19 23:59:36.87	339.15	4.66	-45.5	-51.3	9.3	1.01e-02	92	42	0	1498415104	60	13215
2026-01-19 23:59:40.91	339.10	4.38	-45.8	-53.7	5.8	2.22e-01	5	42	0	1506803712	60	17490
2026-01-19 23:59:44.95	339.05	4.10	-45.8	-56.5	3.7	1.40e+00	0	42	0	1513095168	60	24264
2026-01-19 23:59:48.99	339.00	3.82	-45.8	-59.9	3.6	1.51e+00	0	42	104	1513095168	60	35708
2026-01-19 23:59:53.03	338.95	3.55	-46.1	-61.2	3.6	1.51e+00	0	42	104	1513095168	60	41574
2026-01-19 23:59:57.07	338.91	3.28	-45.6	-60.6	3.6	1.51e+00	0	42	104	1513095168	60	38955
2026-01-20 00:00:01.10	338.86	3.01	-45.8	-60.9	3.6	1.51e+00	0	42	104	1513095168	60	40060
2026-01-20 00:00:05.14	338.82	2.75	-50.0	-65.2	3.6	1.51e+00	0	42	104	1513095168	60	65886
2026-01-20 00:00:09.18	338.77	2.49	-50.4	-65.6	3.6	1.51e+00	0	42	104	1513095168	60	68799
2026-01-20 00:00:13.22	338.73	2.23	-50.7	-65.8	3.6	1.51e+00	0	42	104	1513095168	60	70826
2026-01-20 00:00:17.26	338.69	1.97	-49.7	-65.6	3.6	1.51e+00	0	42	104	1513095168	60	68700
2026-01-20 00:00:21.30	338.65	1.71	-50.5	-65.7	3.6	1.51e+00	0	42	104	1513095168	60	69413
2026-01-20 00:00:25.34	338.61	1.46	-50.6	-65.8	3.6	1.51e+00	0	42	104	1513095168	60	70154
2026-01-20 00:00:29.38	338.57	1.21	-50.8	-66.0	3.6	1.51e+00	0	42	104	1513095168	60	72214
2026-01-20 00:00:33.42	338.54	0.96	-50.9	-66.1	3.6	1.51e+00	0	42	104	1513095168	60	72743
2026-01-20 00:00:37.46	338.50	0.71	-50.7	-65.9	3.6	1.51e+00	0	42	104	1513095168	60	70991
2026-01-20 00:00:41.50	338.46	0.47	-51.7	-66.9	3.6	1.51e+00	0	42	104	1513095168	60	80349
2026-01-20 00:00:45.54	338.43	0.23	-51.8	-67.1	3.6	1.51e+00	0	42	104	1513095168	60	81577
2026-01-20 00:00:49.58	338.39	-0.02	-51.9	-67.1	3.6	1.51e+00	0	42	104	1513095168	60	81557

#Closed at: 2026-01-20 00:00:51
#Recorded file [1513 MB]: D:/lorett/data/35029_260120_114524.dat