passes_logs/2026/01/19/R4.6S_Anadyr/R4.6S_Anadyr__20260119_202817_NOAA_20_JPSS-1_rec.log

#Pass ID: 20260119_202817_NOAA 20 (JPSS-1)
#Satellite: NOAA 20 (JPSS-1)
#Configuration: NOAA 20
#almurnet v.1.7.20251203
#Start time: 2026-01-19 20:28:19

#Version: 2.2.20231116
#Station: R4.6S_Anadyr
#Location: 177.4865 lon 64.73178 lat
#TLE: 1 43013U 17073A   26019.27717929  .00000087  00000+0  62288-4 0  9995
#TLE: 2 43013  98.7641 320.1715 0001339  33.1986 326.9274 14.19537047423343

#Time	Az	El	Level	Level2	SNR	BER	BlckErr	Temp	State	Recorded	gain1	gain2
2026-01-19 20:28:19.68	70.60	0.11	-50.5	-65.3	3.5	1.51e+00	0	39	0	0	60	66621
2026-01-19 20:28:23.72	70.31	0.31	-50.1	-65.3	3.6	1.51e+00	0	40	104	0	60	66728
2026-01-19 20:28:27.77	70.01	0.52	-50.0	-65.2	3.6	1.51e+00	0	40	104	0	60	65638
2026-01-19 20:28:31.81	69.71	0.72	-49.9	-65.0	3.6	1.51e+00	0	40	104	0	60	64479
2026-01-19 20:28:35.84	69.41	0.92	-49.8	-65.0	3.6	1.51e+00	0	40	104	0	60	64121
2026-01-19 20:28:39.88	69.10	1.12	-49.4	-64.7	3.6	1.51e+00	0	41	104	0	60	62075
2026-01-19 20:28:43.92	68.78	1.33	-48.6	-63.7	3.6	1.51e+00	0	41	104	0	60	55179
2026-01-19 20:28:47.96	68.46	1.53	-47.9	-63.1	3.6	1.51e+00	0	41	104	0	60	51509
2026-01-19 20:28:52.00	68.14	1.74	-47.9	-63.1	3.6	1.51e+00	0	41	104	0	60	51918
2026-01-19 20:28:56.04	67.81	1.95	-47.9	-62.9	3.6	1.51e+00	0	41	104	0	60	50719
2026-01-19 20:29:00.09	67.48	2.15	-47.9	-62.9	3.6	1.51e+00	0	41	104	0	60	50404
2026-01-19 20:29:04.12	67.14	2.36	-47.9	-63.1	3.6	1.51e+00	0	41	104	0	60	51433
2026-01-19 20:29:08.15	66.80	2.57	-47.9	-62.9	3.6	1.51e+00	0	41	104	0	60	50477
2026-01-19 20:29:12.20	66.45	2.78	-47.9	-62.6	3.6	1.51e+00	0	41	104	0	60	48970
2026-01-19 20:29:16.24	66.10	2.99	-47.5	-55.6	5.9	7.65e-01	92	41	0	1048576	60	21764
2026-01-19 20:29:20.28	65.74	3.20	-47.9	-62.7	3.6	1.51e+00	0	41	104	4194304	60	49323
2026-01-19 20:29:24.32	65.38	3.41	-45.4	-48.9	13.1	4.70e-04	47	41	0	7340032	60	10093
2026-01-19 20:29:28.35	65.01	3.62	-43.0	-44.9	17.5	0.00e+00	0	41	0	14680064	60	6385
2026-01-19 20:29:32.39	64.63	3.83	-45.8	-49.6	12.6	0.00e+00	92	41	0	22020096	60	10926
2026-01-19 20:29:36.43	64.25	4.04	-44.5	-47.2	15.2	0.00e+00	92	41	0	30408704	60	8301
2026-01-19 20:29:40.47	63.87	4.25	-45.1	-48.1	14.3	6.80e-06	63	42	0	37748736	60	9219
2026-01-19 20:29:44.51	63.48	4.46	-45.0	-48.0	14.7	0.00e+00	0	41	0	45088768	60	9115
2026-01-19 20:29:48.55	63.08	4.68	-44.6	-47.4	15.2	4.50e-06	92	41	0	52428800	60	8468
2026-01-19 20:29:52.59	62.67	4.89	-44.3	-46.9	15.6	1.50e-06	92	41	0	60817408	60	8002
2026-01-19 20:29:56.62	62.27	5.10	-43.8	-46.1	16.3	0.00e+00	55	42	0	68157440	60	7279
2026-01-19 20:30:00.66	61.85	5.32	-43.9	-46.2	16.5	0.00e+00	86	41	0	75497472	60	7362
2026-01-19 20:30:04.70	61.43	5.53	-43.6	-45.7	16.9	0.00e+00	91	41	0	82837504	60	6983
2026-01-19 20:30:08.74	61.00	5.75	-43.0	-44.9	17.7	0.00e+00	92	41	0	90177536	58	7151
2026-01-19 20:30:12.77	60.56	5.96	-42.8	-44.6	18.0	0.00e+00	27	41	0	98566144	58	6865
2026-01-19 20:30:16.81	60.12	6.18	-42.9	-44.8	18.2	0.00e+00	90	41	0	105906176	58	7027
2026-01-19 20:30:20.85	59.67	6.39	-42.7	-44.4	18.3	0.00e+00	92	42	0	113246208	58	6767
2026-01-19 20:30:24.89	59.22	6.61	-43.0	-44.9	17.9	0.00e+00	91	42	0	120586240	58	7106
2026-01-19 20:30:28.92	58.76	6.82	-42.9	-44.7	18.0	0.00e+00	0	42	0	128974848	58	6945
2026-01-19 20:30:32.96	58.29	7.04	-42.6	-44.3	18.5	0.00e+00	90	42	0	136314880	58	6664
2026-01-19 20:30:37.00	57.81	7.25	-42.3	-43.9	18.8	0.00e+00	92	41	0	143654912	58	6363
2026-01-19 20:30:41.04	57.33	7.47	-42.0	-43.5	19.3	0.00e+00	92	42	0	150994944	58	6094
2026-01-19 20:30:45.08	56.84	7.68	-42.1	-43.6	19.2	0.00e+00	8	42	0	158334976	58	6164
2026-01-19 20:30:49.11	56.34	7.90	-42.0	-43.6	19.2	0.00e+00	92	42	0	166723584	58	6120
2026-01-19 20:30:53.15	55.83	8.11	-42.1	-43.6	19.1	0.00e+00	92	42	0	174063616	58	6153
2026-01-19 20:30:57.19	55.32	8.32	-41.9	-43.4	19.4	0.00e+00	0	42	0	181403648	58	5977
2026-01-19 20:31:01.22	54.80	8.54	-42.0	-43.5	19.3	0.00e+00	50	42	0	188743680	58	6103
2026-01-19 20:31:05.26	54.27	8.75	-42.2	-43.8	19.2	0.00e+00	92	42	0	197132288	58	6259
2026-01-19 20:31:09.30	53.73	8.96	-42.1	-43.7	19.3	0.00e+00	92	42	0	204472320	58	6187
2026-01-19 20:31:13.34	53.19	9.18	-42.2	-43.7	19.3	0.00e+00	0	42	0	211812352	58	6242
2026-01-19 20:31:17.37	52.63	9.39	-41.9	-43.4	19.6	0.00e+00	0	41	0	219152384	58	5965
2026-01-19 20:31:21.41	52.07	9.60	-41.9	-43.3	19.8	0.00e+00	90	42	0	226492416	56	6664
2026-01-19 20:31:25.45	51.50	9.81	-41.8	-43.2	19.8	0.00e+00	92	42	0	234881024	56	6605
2026-01-19 20:31:29.49	50.92	10.01	-41.8	-43.2	19.9	0.00e+00	48	42	0	242221056	56	6587
2026-01-19 20:31:33.53	50.34	10.22	-42.1	-43.6	19.6	0.00e+00	0	42	0	249561088	56	6877
2026-01-19 20:31:37.57	49.74	10.43	-41.8	-43.1	20.0	0.00e+00	92	41	0	256901120	56	6520
2026-01-19 20:31:41.61	49.14	10.63	-41.8	-43.2	19.8	0.00e+00	83	42	0	265289728	56	6552
2026-01-19 20:31:45.65	48.53	10.84	-41.3	-42.6	20.5	0.00e+00	5	42	0	272629760	56	6152
2026-01-19 20:31:49.69	47.90	11.04	-41.0	-42.2	21.1	0.00e+00	89	42	0	279969792	56	5840
2026-01-19 20:31:53.73	47.27	11.24	-40.7	-41.8	21.2	0.00e+00	90	42	0	287309824	56	5629
2026-01-19 20:31:57.75	46.64	11.44	-40.4	-41.5	21.6	0.00e+00	34	42	0	294649856	54	6048
2026-01-19 20:32:01.79	45.99	11.63	-40.2	-41.3	21.7	0.00e+00	0	42	0	303038464	54	5904
2026-01-19 20:32:05.83	45.34	11.83	-40.3	-41.5	21.6	0.00e+00	92	42	0	310378496	54	6044
2026-01-19 20:32:09.87	44.67	12.02	-40.2	-41.3	21.8	0.00e+00	92	42	0	317718528	54	5922
2026-01-19 20:32:13.91	44.00	12.21	-40.1	-41.2	22.0	0.00e+00	0	42	0	325058560	54	5833
2026-01-19 20:32:17.95	43.31	12.39	-39.5	-40.5	22.6	0.00e+00	0	42	0	332398592	52	6088
2026-01-19 20:32:21.99	42.62	12.58	-39.4	-40.3	22.8	0.00e+00	92	42	0	340787200	52	5961
2026-01-19 20:32:26.03	41.92	12.76	-39.4	-40.4	22.7	0.00e+00	92	42	0	348127232	52	6008
2026-01-19 20:32:30.07	41.21	12.94	-39.4	-40.4	22.6	0.00e+00	44	41	0	355467264	52	6021
2026-01-19 20:32:34.11	40.50	13.12	-39.6	-40.6	22.7	0.00e+00	0	42	0	362807296	52	6122
2026-01-19 20:32:38.15	39.77	13.29	-39.8	-40.8	22.4	0.00e+00	91	42	0	371195904	52	6290
2026-01-19 20:32:42.19	39.04	13.46	-39.9	-40.9	22.3	0.00e+00	90	41	0	378535936	52	6351
2026-01-19 20:32:46.22	38.29	13.62	-39.7	-40.8	22.3	0.00e+00	36	41	0	385875968	52	6261
2026-01-19 20:32:50.26	37.54	13.78	-39.7	-40.7	22.4	0.00e+00	0	41	0	393216000	52	6220
2026-01-19 20:32:54.30	36.78	13.94	-39.5	-40.6	22.5	0.00e+00	79	41	0	401604608	52	6109
2026-01-19 20:32:58.34	36.02	14.09	-39.4	-40.4	22.8	0.00e+00	2	41	0	408944640	52	6003
2026-01-19 20:33:02.38	35.24	14.24	-39.5	-40.4	22.8	0.00e+00	0	41	0	416284672	52	6022
2026-01-19 20:33:06.42	34.46	14.39	-39.3	-40.2	22.8	0.00e+00	90	41	0	423624704	52	5890
2026-01-19 20:33:10.46	33.67	14.53	-39.4	-40.4	22.8	0.00e+00	90	41	0	430964736	52	6007
2026-01-19 20:33:14.50	32.87	14.67	-39.1	-40.1	23.1	0.00e+00	6	41	0	439353344	52	5774
2026-01-19 20:33:18.55	32.06	14.80	-39.4	-40.4	22.8	0.00e+00	0	41	0	446693376	52	6002
2026-01-19 20:33:22.58	31.25	14.92	-39.3	-40.3	22.9	0.00e+00	92	41	0	454033408	52	5935
2026-01-19 20:33:26.62	30.43	15.04	-39.1	-40.1	23.0	0.00e+00	53	41	0	461373440	52	5789
2026-01-19 20:33:30.66	29.60	15.16	-39.4	-40.3	22.8	0.00e+00	6	41	0	469762048	52	5949
2026-01-19 20:33:34.70	28.77	15.27	-39.8	-40.8	22.4	0.00e+00	6	41	0	477102080	52	6302
2026-01-19 20:33:38.74	27.93	15.37	-39.8	-40.8	22.4	0.00e+00	91	41	0	484442112	52	6288
2026-01-19 20:33:42.78	27.09	15.47	-39.8	-40.9	22.2	0.00e+00	34	41	0	491782144	52	6332
2026-01-19 20:33:46.81	26.24	15.56	-39.8	-40.9	22.3	0.00e+00	48	41	0	499122176	52	6329
2026-01-19 20:33:50.85	25.38	15.65	-40.2	-41.2	22.1	0.00e+00	2	41	0	507510784	52	6615
2026-01-19 20:33:54.89	24.53	15.73	-39.8	-40.9	22.4	0.00e+00	92	41	0	514850816	52	6323
2026-01-19 20:33:58.93	23.66	15.80	-39.8	-40.8	22.5	0.00e+00	0	41	0	522190848	52	6288
2026-01-19 20:34:02.96	22.80	15.87	-39.7	-40.7	22.5	0.00e+00	0	41	0	529530880	52	6207
2026-01-19 20:34:07.00	21.92	15.93	-39.8	-40.8	22.5	0.00e+00	28	41	0	537919488	52	6294
2026-01-19 20:34:11.04	21.05	15.98	-39.9	-40.9	22.4	0.00e+00	91	41	0	545259520	52	6348
2026-01-19 20:34:15.08	20.17	16.03	-40.1	-41.1	22.3	0.00e+00	2	41	0	552599552	52	6518
2026-01-19 20:34:19.11	19.29	16.07	-39.9	-40.9	22.4	0.00e+00	0	41	0	559939584	52	6382
2026-01-19 20:34:23.16	18.41	16.10	-40.1	-41.1	22.2	0.00e+00	0	41	0	567279616	52	6535
2026-01-19 20:34:27.20	17.52	16.13	-39.9	-40.9	22.3	0.00e+00	0	41	0	575668224	52	6361
2026-01-19 20:34:31.24	16.64	16.15	-39.8	-40.9	22.4	0.00e+00	46	41	0	583008256	52	6330
2026-01-19 20:34:35.28	15.75	16.16	-40.0	-41.0	22.2	0.00e+00	0	41	0	590348288	52	6449
2026-01-19 20:34:39.32	14.86	16.17	-40.4	-41.5	21.9	0.00e+00	91	41	0	597688320	52	6784
2026-01-19 20:34:43.36	13.97	16.17	-39.9	-40.9	22.1	0.00e+00	0	41	0	606076928	52	6376
2026-01-19 20:34:47.40	13.09	16.16	-40.0	-41.1	22.2	0.00e+00	34	41	0	613416960	52	6482
2026-01-19 20:34:51.44	12.20	16.14	-39.9	-41.0	22.4	0.00e+00	0	41	0	620756992	52	6415
2026-01-19 20:34:55.48	11.31	16.12	-40.2	-41.3	22.1	0.00e+00	92	41	0	628097024	52	6626
2026-01-19 20:34:59.52	10.43	16.09	-40.1	-41.1	22.2	0.00e+00	0	41	0	635437056	52	6519
2026-01-19 20:35:03.56	9.55	16.06	-39.7	-40.7	22.5	0.00e+00	34	41	0	643825664	52	6223
2026-01-19 20:35:07.60	8.67	16.01	-39.9	-40.9	22.3	0.00e+00	29	41	0	651165696	52	6373
2026-01-19 20:35:11.63	7.79	15.97	-39.5	-40.5	22.7	0.00e+00	92	41	0	658505728	52	6088
2026-01-19 20:35:15.67	6.92	15.91	-39.6	-40.6	22.7	0.00e+00	54	41	0	665845760	52	6126
2026-01-19 20:35:19.71	6.05	15.85	-39.6	-40.5	22.7	0.00e+00	0	41	0	674234368	52	6100
2026-01-19 20:35:23.74	5.19	15.78	-39.1	-40.0	23.2	0.00e+00	0	41	0	681574400	52	5732
2026-01-19 20:35:27.78	4.32	15.70	-39.3	-40.3	22.9	0.00e+00	92	41	0	688914432	52	5904
2026-01-19 20:35:31.83	3.46	15.62	-39.6	-40.6	22.6	0.00e+00	47	41	0	696254464	52	6124
2026-01-19 20:35:35.87	2.61	15.53	-39.5	-40.5	22.7	0.00e+00	0	41	0	703594496	52	6051
2026-01-19 20:35:39.91	1.76	15.44	-39.5	-40.5	22.8	0.00e+00	0	41	0	711983104	52	6074
2026-01-19 20:35:43.95	0.92	15.34	-39.8	-40.8	22.4	0.00e+00	92	41	0	719323136	52	6264
2026-01-19 20:35:47.99	0.09	15.23	-40.1	-41.2	22.1	0.00e+00	34	41	0	726663168	52	6565
2026-01-19 20:35:52.02	359.26	15.12	-40.2	-41.3	21.9	0.00e+00	47	41	0	734003200	52	6619
2026-01-19 20:35:56.06	358.44	15.01	-39.9	-41.0	22.3	0.00e+00	0	41	0	742391808	52	6409
2026-01-19 20:36:00.10	357.62	14.88	-39.8	-40.8	22.4	0.00e+00	57	41	0	749731840	52	6302
2026-01-19 20:36:04.14	356.81	14.76	-39.8	-40.8	22.4	0.00e+00	0	41	0	757071872	52	6283
2026-01-19 20:36:08.18	356.01	14.62	-39.6	-40.6	22.5	0.00e+00	30	41	0	764411904	52	6115
2026-01-19 20:36:12.22	355.21	14.49	-39.6	-40.6	22.5	0.00e+00	90	41	0	771751936	52	6148
2026-01-19 20:36:16.26	354.42	14.35	-39.7	-40.7	22.4	0.00e+00	90	41	0	780140544	52	6237
2026-01-19 20:36:20.22	353.66	14.20	-39.7	-40.7	22.4	0.00e+00	0	41	0	787480576	52	6221
2026-01-19 20:36:24.26	352.89	14.05	-39.7	-40.7	22.4	0.00e+00	0	41	0	794820608	52	6216
2026-01-19 20:36:28.30	352.12	13.90	-39.8	-40.8	22.3	0.00e+00	92	41	0	802160640	52	6265
2026-01-19 20:36:32.34	351.37	13.74	-39.7	-40.7	22.4	0.00e+00	34	41	0	810549248	52	6223
2026-01-19 20:36:36.38	350.62	13.58	-39.8	-40.8	22.2	0.00e+00	8	41	0	817889280	52	6272
2026-01-19 20:36:40.42	349.88	13.41	-40.3	-41.4	21.7	0.00e+00	53	41	0	825229312	52	6732
2026-01-19 20:36:44.46	349.15	13.24	-40.4	-41.6	21.5	0.00e+00	92	41	0	832569344	52	6862
2026-01-19 20:36:48.49	348.43	13.07	-40.5	-41.7	21.5	0.00e+00	0	41	0	839909376	52	6964
2026-01-19 20:36:52.53	347.71	12.89	-40.8	-41.9	21.2	0.00e+00	53	41	0	848297984	54	6380
2026-01-19 20:36:56.57	347.01	12.71	-41.0	-42.2	21.1	0.00e+00	52	41	0	855638016	54	6581
2026-01-19 20:37:00.61	346.31	12.53	-41.5	-42.8	20.4	0.00e+00	92	41	0	862978048	54	7073
2026-01-19 20:37:04.65	345.62	12.34	-41.7	-43.1	20.1	0.00e+00	0	41	0	870318080	56	6524
2026-01-19 20:37:08.69	344.95	12.16	-41.7	-43.1	20.2	0.00e+00	27	41	0	878706688	56	6486
2026-01-19 20:37:12.73	344.28	11.97	-41.9	-43.3	20.0	0.00e+00	26	41	0	886046720	56	6626
2026-01-19 20:37:16.78	343.61	11.77	-42.4	-43.9	19.4	0.00e+00	88	41	0	893386752	56	7158
2026-01-19 20:37:20.82	342.96	11.58	-42.5	-44.0	19.4	0.00e+00	2	41	0	900726784	56	7179
2026-01-19 20:37:24.85	342.32	11.38	-42.7	-44.3	19.1	0.00e+00	0	41	0	908066816	58	6634
2026-01-19 20:37:28.89	341.68	11.18	-42.5	-44.1	19.3	0.00e+00	0	41	0	916455424	58	6490
2026-01-19 20:37:32.93	341.06	10.98	-42.7	-44.2	19.1	0.00e+00	92	41	0	923795456	58	6598
2026-01-19 20:37:36.96	340.44	10.78	-42.8	-44.4	19.1	0.00e+00	25	41	0	931135488	58	6757
2026-01-19 20:37:41.00	339.83	10.58	-42.8	-44.5	18.8	0.00e+00	2	41	0	938475520	58	6785
2026-01-19 20:37:45.04	339.23	10.37	-42.4	-43.9	19.5	0.00e+00	75	41	0	946864128	58	6337
2026-01-19 20:37:49.08	338.64	10.17	-42.0	-43.4	19.8	0.00e+00	33	41	0	954204160	58	6024
2026-01-19 20:37:53.12	338.06	9.96	-41.8	-43.2	20.0	0.00e+00	25	41	0	961544192	56	6568
2026-01-19 20:37:57.16	337.48	9.75	-41.9	-43.3	19.9	0.00e+00	33	41	0	968884224	56	6657
2026-01-19 20:38:01.20	336.92	9.54	-41.9	-43.3	20.1	0.00e+00	90	41	0	976224256	56	6652
2026-01-19 20:38:05.24	336.36	9.33	-41.3	-42.5	20.5	0.00e+00	22	41	0	984612864	56	6084
2026-01-19 20:38:09.28	335.81	9.12	-41.0	-42.2	20.9	0.00e+00	26	41	0	991952896	56	5860
2026-01-19 20:38:13.32	335.27	8.91	-41.1	-42.3	20.8	0.00e+00	50	41	0	999292928	56	5926
2026-01-19 20:38:17.36	334.73	8.70	-40.8	-42.0	21.0	0.00e+00	92	41	0	1006632960	54	6419
2026-01-19 20:38:21.40	334.21	8.48	-40.6	-41.8	21.1	0.00e+00	50	41	0	1015021568	54	6274
2026-01-19 20:38:25.44	333.69	8.27	-40.2	-41.3	21.3	0.00e+00	6	41	0	1022361600	54	5958
2026-01-19 20:38:29.48	333.18	8.06	-40.7	-41.9	21.1	0.00e+00	0	41	0	1029701632	54	6342
2026-01-19 20:38:33.52	332.68	7.84	-40.7	-41.9	21.1	0.00e+00	91	41	0	1037041664	54	6327
2026-01-19 20:38:37.56	332.18	7.63	-40.7	-41.9	20.9	0.00e+00	58	41	0	1044381696	54	6359
2026-01-19 20:38:41.60	331.70	7.41	-41.3	-42.6	20.2	0.00e+00	0	41	0	1052770304	54	6867
2026-01-19 20:38:45.64	331.22	7.20	-41.0	-42.3	20.6	0.00e+00	4	41	0	1060110336	54	6671
2026-01-19 20:38:49.68	330.74	6.98	-41.1	-42.4	20.4	0.00e+00	92	41	0	1067450368	54	6723
2026-01-19 20:38:53.72	330.28	6.77	-41.0	-42.2	20.5	0.00e+00	30	41	0	1074790400	54	6603
2026-01-19 20:38:57.76	329.82	6.55	-41.0	-42.2	20.5	0.00e+00	23	41	0	1083179008	54	6610
2026-01-19 20:39:01.80	329.37	6.34	-41.6	-43.0	19.8	0.00e+00	64	41	0	1090519040	54	7221
2026-01-19 20:39:05.84	328.92	6.12	-41.4	-42.7	20.2	0.00e+00	3	41	0	1097859072	56	6225
2026-01-19 20:39:09.87	328.48	5.91	-41.8	-43.2	19.5	0.00e+00	0	41	0	1105199104	56	6615
2026-01-19 20:39:13.91	328.05	5.69	-41.8	-43.2	19.8	0.00e+00	0	41	0	1112539136	56	6588
2026-01-19 20:39:17.96	327.62	5.48	-42.1	-43.5	19.4	0.00e+00	91	41	0	1120927744	56	6846
2026-01-19 20:39:21.99	327.21	5.26	-42.2	-43.8	19.0	0.00e+00	63	41	0	1128267776	56	7037
2026-01-19 20:39:26.04	326.79	5.05	-42.6	-44.2	18.9	0.00e+00	0	41	0	1135607808	58	6594
2026-01-19 20:39:30.08	326.39	4.84	-42.5	-44.2	18.5	0.00e+00	0	41	0	1142947840	58	6603
2026-01-19 20:39:34.12	325.99	4.62	-42.8	-44.6	18.0	0.00e+00	92	41	0	1151336448	58	6850
2026-01-19 20:39:38.16	325.59	4.41	-42.7	-44.4	18.1	0.00e+00	0	41	0	1158676480	58	6744
2026-01-19 20:39:42.20	325.20	4.20	-42.9	-44.7	18.0	0.00e+00	0	41	0	1166016512	58	6966
2026-01-19 20:39:46.24	324.82	3.99	-43.1	-45.0	17.3	0.00e+00	0	41	0	1173356544	58	7235
2026-01-19 20:39:50.28	324.44	3.78	-42.3	-44.1	18.3	0.00e+00	92	41	0	1181745152	58	6474
2026-01-19 20:39:54.32	324.07	3.57	-43.3	-45.3	17.4	0.00e+00	0	41	0	1189085184	60	6673
2026-01-19 20:39:58.36	323.71	3.36	-45.0	-48.0	14.3	0.00e+00	54	41	0	1196425216	60	9104
2026-01-19 20:40:02.40	323.35	3.15	-44.6	-47.3	14.9	7.60e-06	6	41	0	1203765248	60	8368
2026-01-19 20:40:06.44	322.99	2.94	-48.9	-64.0	3.6	1.51e+00	0	41	104	1210056704	60	57289
2026-01-19 20:40:10.47	322.64	2.73	-49.8	-65.0	3.6	1.51e+00	0	41	104	1210056704	60	64226
2026-01-19 20:40:14.51	322.30	2.52	-50.1	-65.3	3.6	1.51e+00	0	41	104	1210056704	60	66783
2026-01-19 20:40:18.55	321.96	2.31	-50.2	-65.4	3.6	1.51e+00	0	41	104	1210056704	60	66990
2026-01-19 20:40:22.59	321.62	2.11	-50.0	-65.3	3.6	1.51e+00	0	41	104	1210056704	60	66483
2026-01-19 20:40:26.62	321.29	1.90	-50.0	-65.2	3.6	1.51e+00	0	41	104	1210056704	60	66143
2026-01-19 20:40:30.66	320.97	1.69	-50.2	-65.4	3.6	1.51e+00	0	41	104	1210056704	60	66998
2026-01-19 20:40:34.71	320.65	1.49	-50.2	-65.4	3.6	1.51e+00	0	41	104	1210056704	60	67317
2026-01-19 20:40:38.75	320.33	1.28	-50.2	-65.4	3.6	1.51e+00	0	41	104	1210056704	60	67421
2026-01-19 20:40:42.78	320.02	1.08	-50.2	-65.3	3.6	1.51e+00	0	41	104	1210056704	60	66893
2026-01-19 20:40:46.82	319.71	0.88	-50.2	-65.4	3.6	1.51e+00	0	41	104	1210056704	60	66948
2026-01-19 20:40:50.86	319.41	0.67	-50.2	-65.4	3.6	1.51e+00	0	41	104	1210056704	60	67398
2026-01-19 20:40:54.90	319.11	0.47	-50.2	-65.3	3.6	1.51e+00	0	42	104	1210056704	60	66821
2026-01-19 20:40:58.94	318.82	0.27	-50.2	-65.4	3.6	1.51e+00	0	41	104	1210056704	60	66984
2026-01-19 20:41:02.98	318.53	0.07	-50.2	-65.4	3.6	1.51e+00	0	41	104	1210056704	60	67632

#Closed at: 2026-01-19 20:41:06
#Recorded file [1210 MB]: D:/lorett/data/35029_260120_082819.dat