passes_logs/2026/01/19/R4.6S_Anadyr/R4.6S_Anadyr__20260119_114859_SUOMI_NPP_rec.log

#Pass ID: 20260119_114859_SUOMI NPP
#Satellite: SUOMI NPP
#Configuration: NPP
#almurnet v.1.7.20251203
#Start time: 2026-01-19 11:49:00

#Version: 2.2.20231116
#Station: R4.6S_Anadyr
#Location: 177.4865 lon 64.73178 lat
#TLE: 1 37849U 11061A   26018.91022273  .00000066  00000+0  52264-4 0  9997
#TLE: 2 37849  98.7816 320.9252 0002364  56.8129 303.3273 14.19526186737260

#Time	Az	El	Level	Level2	SNR	BER	BlckErr	Temp	State	Recorded	gain1	gain2
2026-01-19 11:49:00.84	20.31	0.05	-50.8	-68.5	3.5	3.03e+01	0	38	0	0	60	102492
2026-01-19 11:49:03.87	20.59	0.18	-50.2	-65.4	3.6	1.51e+00	0	39	104	0	60	67207
2026-01-19 11:49:06.91	20.87	0.31	-50.2	-65.4	3.6	1.51e+00	0	39	104	0	60	67424
2026-01-19 11:49:09.93	21.15	0.43	-50.2	-65.4	3.6	1.51e+00	0	39	104	0	60	67509
2026-01-19 11:49:12.97	21.44	0.56	-50.2	-65.4	3.6	1.51e+00	0	39	104	0	60	67276
2026-01-19 11:49:16.00	21.72	0.69	-49.9	-65.2	3.6	1.51e+00	0	39	104	0	60	65722
2026-01-19 11:49:19.03	22.01	0.81	-49.8	-65.0	3.6	1.51e+00	0	39	104	0	60	64114
2026-01-19 11:49:22.06	22.30	0.94	-49.5	-64.7	3.6	1.51e+00	0	39	104	0	60	62240
2026-01-19 11:49:25.09	22.60	1.06	-48.8	-63.9	3.6	1.51e+00	0	39	104	0	60	56486
2026-01-19 11:49:28.13	22.89	1.19	-48.5	-63.6	3.6	1.51e+00	0	39	104	0	60	54913
2026-01-19 11:49:31.16	23.19	1.32	-48.5	-63.6	3.6	1.51e+00	0	39	104	0	60	54822
2026-01-19 11:49:34.19	23.49	1.44	-48.5	-63.6	3.6	1.51e+00	0	40	104	0	60	54999
2026-01-19 11:49:37.22	23.80	1.57	-48.5	-63.7	3.6	1.51e+00	0	40	104	0	60	55166
2026-01-19 11:49:40.25	24.10	1.70	-48.5	-63.7	3.6	1.51e+00	0	40	104	0	60	55047
2026-01-19 11:49:43.28	24.41	1.82	-48.5	-63.6	3.6	1.51e+00	0	40	104	0	60	54990
2026-01-19 11:49:46.31	24.72	1.95	-48.5	-63.6	3.6	1.51e+00	0	40	104	0	60	54967
2026-01-19 11:49:49.34	25.03	2.08	-48.5	-63.7	3.6	1.51e+00	0	40	104	0	60	55289
2026-01-19 11:49:52.37	25.35	2.20	-48.5	-63.7	3.6	1.51e+00	0	40	104	0	60	55255
2026-01-19 11:49:55.40	25.67	2.33	-48.5	-63.6	3.6	1.51e+00	0	40	104	0	60	54588
2026-01-19 11:49:58.43	25.99	2.45	-48.5	-63.0	3.6	1.51e+00	0	40	104	0	60	51341
2026-01-19 11:50:01.44	26.31	2.58	-48.3	-60.1	3.7	1.49e+00	0	40	104	0	60	36726
2026-01-19 11:50:04.48	26.63	2.70	-46.3	-50.4	12.3	1.56e-03	54	40	0	3145728	60	11906
2026-01-19 11:50:07.50	26.96	2.83	-43.0	-44.9	17.7	0.00e+00	0	40	0	9437184	60	6354
2026-01-19 11:50:10.53	27.29	2.95	-44.7	-47.5	15.1	0.00e+00	0	40	0	14680064	60	8528
2026-01-19 11:50:13.56	27.63	3.08	-44.5	-47.1	12.6	1.50e-06	47	40	0	20971520	60	8210
2026-01-19 11:50:16.58	27.96	3.20	-46.7	-51.4	9.2	0.00e+00	0	40	0	22020096	60	13414
2026-01-19 11:50:19.61	28.30	3.33	-43.2	-45.1	17.8	0.00e+00	0	40	0	25165824	60	6479
2026-01-19 11:50:22.64	28.64	3.45	-43.3	-45.2	17.4	0.00e+00	25	40	0	30408704	60	6574
2026-01-19 11:50:25.67	28.99	3.57	-43.4	-45.3	17.2	0.00e+00	0	40	0	35651584	60	6680
2026-01-19 11:50:28.70	29.34	3.70	-42.7	-44.5	18.6	0.00e+00	0	40	0	41943040	58	6792
2026-01-19 11:50:31.73	29.69	3.82	-42.2	-43.8	18.8	0.00e+00	0	40	0	47185920	58	6278
2026-01-19 11:50:34.76	30.04	3.95	-42.7	-44.4	18.4	0.00e+00	41	40	0	53477376	58	6725
2026-01-19 11:50:37.78	30.39	4.07	-42.7	-44.4	18.4	0.00e+00	0	40	0	58720256	58	6758
2026-01-19 11:50:40.81	30.75	4.19	-42.6	-44.2	18.7	0.00e+00	0	40	0	65011712	58	6609
2026-01-19 11:50:43.84	31.12	4.31	-42.2	-43.7	19.0	0.00e+00	92	40	0	70254592	58	6230
2026-01-19 11:50:46.87	31.48	4.43	-42.0	-43.5	19.2	0.00e+00	0	40	0	75497472	58	6097
2026-01-19 11:50:49.90	31.85	4.55	-42.1	-43.6	19.2	0.00e+00	0	40	0	81788928	58	6157
2026-01-19 11:50:52.93	32.22	4.68	-42.1	-43.6	19.3	0.00e+00	0	40	0	87031808	58	6168
2026-01-19 11:50:55.95	32.59	4.80	-42.3	-43.8	19.1	0.00e+00	0	40	0	93323264	58	6292
2026-01-19 11:50:58.98	32.97	4.92	-42.3	-43.8	19.0	0.00e+00	0	40	0	98566144	58	6299
2026-01-19 11:51:02.01	33.35	5.04	-42.0	-43.5	19.4	0.00e+00	0	40	0	103809024	58	6096
2026-01-19 11:51:05.04	33.73	5.15	-41.8	-43.2	19.7	0.00e+00	91	40	0	110100480	56	6584
2026-01-19 11:51:08.06	34.11	5.27	-41.6	-43.0	19.7	0.00e+00	0	40	0	115343360	56	6403
2026-01-19 11:51:11.09	34.50	5.39	-41.7	-43.2	19.7	0.00e+00	0	40	0	121634816	56	6541
2026-01-19 11:51:14.12	34.89	5.51	-42.0	-43.4	19.6	0.00e+00	56	40	0	126877696	56	6755
2026-01-19 11:51:17.15	35.29	5.63	-42.0	-43.4	19.5	0.00e+00	0	40	0	132120576	56	6746
2026-01-19 11:51:20.18	35.68	5.74	-41.9	-43.3	19.5	0.00e+00	0	40	0	138412032	56	6656
2026-01-19 11:51:23.21	36.09	5.86	-42.2	-43.8	19.3	0.00e+00	0	40	0	143654912	56	7013
2026-01-19 11:51:26.23	36.49	5.97	-42.5	-44.0	19.0	0.00e+00	44	41	0	149946368	56	7228
2026-01-19 11:51:29.26	36.89	6.09	-42.0	-43.4	19.6	0.00e+00	0	40	0	155189248	56	6768
2026-01-19 11:51:32.29	37.30	6.20	-42.0	-43.4	19.5	0.00e+00	0	40	0	161480704	56	6764
2026-01-19 11:51:35.32	37.72	6.31	-42.3	-43.8	19.4	0.00e+00	44	40	0	166723584	56	7010
2026-01-19 11:51:38.34	38.13	6.43	-42.3	-43.8	19.3	0.00e+00	0	40	0	171966464	56	7066
2026-01-19 11:51:41.37	38.55	6.54	-42.4	-44.0	19.1	0.00e+00	0	41	0	178257920	58	6411
2026-01-19 11:51:44.39	38.97	6.65	-42.3	-43.8	19.3	0.00e+00	91	40	0	183500800	58	6285
2026-01-19 11:51:47.43	39.40	6.76	-41.8	-43.2	19.8	0.00e+00	0	40	0	189792256	58	5888
2026-01-19 11:51:50.46	39.83	6.87	-41.9	-43.3	19.9	0.00e+00	0	40	0	195035136	56	6626
2026-01-19 11:51:53.49	40.26	6.97	-42.2	-43.7	19.6	0.00e+00	0	40	0	200278016	56	6995
2026-01-19 11:51:56.51	40.69	7.08	-42.1	-43.6	19.6	0.00e+00	40	41	0	206569472	56	6862
2026-01-19 11:51:59.54	41.13	7.19	-42.3	-43.7	19.4	0.00e+00	0	40	0	211812352	56	7007
2026-01-19 11:52:02.55	41.57	7.29	-42.4	-43.8	19.4	0.00e+00	0	40	0	218103808	56	7077
2026-01-19 11:52:05.58	42.01	7.40	-42.5	-44.1	19.1	0.00e+00	90	40	0	223346688	56	7258
2026-01-19 11:52:08.60	42.45	7.50	-42.7	-44.3	19.0	0.00e+00	0	40	0	228589568	56	7463
2026-01-19 11:52:11.63	42.90	7.60	-42.4	-43.9	19.2	0.00e+00	0	40	0	234881024	58	6386
2026-01-19 11:52:14.66	43.36	7.70	-42.2	-43.7	19.6	0.00e+00	73	40	0	240123904	58	6195
2026-01-19 11:52:17.69	43.81	7.80	-42.1	-43.5	19.6	0.00e+00	0	40	0	246415360	58	6094
2026-01-19 11:52:20.71	44.27	7.90	-42.1	-43.5	19.7	0.00e+00	0	40	0	251658240	58	6102
2026-01-19 11:52:23.73	44.73	8.00	-42.2	-43.6	19.6	0.00e+00	0	40	0	257949696	58	6161
2026-01-19 11:52:26.76	45.20	8.10	-42.4	-43.9	19.4	0.00e+00	8	40	0	263192576	58	6319
2026-01-19 11:52:29.79	45.66	8.19	-42.4	-43.9	19.4	0.00e+00	0	40	0	268435456	58	6356
2026-01-19 11:52:32.82	46.13	8.28	-42.2	-43.6	19.7	0.00e+00	0	40	0	274726912	58	6168
2026-01-19 11:52:35.85	46.61	8.38	-41.9	-43.2	20.0	0.00e+00	39	40	0	279969792	58	5882
2026-01-19 11:52:38.88	47.08	8.47	-41.9	-43.3	20.0	0.00e+00	0	40	0	286261248	56	6626
2026-01-19 11:52:41.90	47.56	8.56	-42.3	-43.8	19.5	0.00e+00	0	40	0	291504128	56	7015
2026-01-19 11:52:44.93	48.05	8.65	-42.6	-44.1	19.2	0.00e+00	92	40	0	296747008	56	7335
2026-01-19 11:52:47.96	48.53	8.73	-42.4	-43.9	19.5	0.00e+00	0	40	0	303038464	56	7123
2026-01-19 11:52:50.99	49.02	8.82	-42.6	-44.2	19.2	0.00e+00	0	41	0	308281344	56	7349
2026-01-19 11:52:54.02	49.51	8.90	-42.1	-43.5	19.6	0.00e+00	0	41	0	314572800	56	6829
2026-01-19 11:52:57.05	50.00	8.99	-42.0	-43.4	20.0	0.00e+00	26	40	0	319815680	56	6736
2026-01-19 11:53:00.08	50.50	9.07	-41.8	-43.1	20.2	0.00e+00	0	41	0	326107136	56	6516
2026-01-19 11:53:03.11	51.00	9.15	-42.3	-43.8	19.5	0.00e+00	0	40	0	331350016	56	7049
2026-01-19 11:53:06.14	51.50	9.22	-43.1	-44.7	18.6	0.00e+00	92	41	0	336592896	58	6985
2026-01-19 11:53:09.17	52.00	9.30	-43.2	-44.9	18.6	0.00e+00	0	40	0	342884352	58	7098
2026-01-19 11:53:12.20	52.51	9.38	-42.4	-43.9	19.4	0.00e+00	0	40	0	348127232	58	6330
2026-01-19 11:53:15.23	53.02	9.45	-42.0	-43.4	20.0	0.00e+00	28	41	0	354418688	58	5988
2026-01-19 11:53:18.26	53.53	9.52	-42.3	-43.7	19.6	0.00e+00	0	41	0	359661568	58	6229
2026-01-19 11:53:21.28	54.04	9.59	-42.1	-43.5	19.8	0.00e+00	0	41	0	364904448	58	6069
2026-01-19 11:53:24.31	54.56	9.66	-41.7	-43.0	20.4	0.00e+00	0	40	0	371195904	56	6421
2026-01-19 11:53:27.34	55.08	9.72	-41.8	-43.1	20.2	0.00e+00	55	41	0	376438784	56	6489
2026-01-19 11:53:30.37	55.60	9.78	-42.5	-44.0	19.4	0.00e+00	0	40	0	382730240	56	7199
2026-01-19 11:53:33.40	56.12	9.85	-42.1	-43.4	19.9	0.00e+00	0	40	0	387973120	56	6769
2026-01-19 11:53:36.43	56.65	9.91	-41.9	-43.3	20.1	0.00e+00	92	40	0	394264576	56	6652
2026-01-19 11:53:39.46	57.18	9.96	-42.6	-44.1	19.2	0.00e+00	0	40	0	399507456	56	7327
2026-01-19 11:53:42.49	57.70	10.02	-42.1	-43.5	19.9	0.00e+00	0	41	0	404750336	58	6085
2026-01-19 11:53:45.51	58.23	10.07	-41.6	-42.9	20.5	0.00e+00	0	40	0	411041792	56	6319
2026-01-19 11:53:48.54	58.77	10.13	-42.0	-43.4	20.0	0.00e+00	0	41	0	416284672	56	6700
2026-01-19 11:53:51.57	59.30	10.18	-42.5	-44.0	19.3	0.00e+00	0	41	0	422576128	56	7177
2026-01-19 11:53:54.60	59.84	10.22	-42.2	-43.6	19.8	0.00e+00	0	41	0	427819008	56	6897
2026-01-19 11:53:57.63	60.38	10.27	-43.1	-44.7	18.8	0.00e+00	91	41	0	433061888	58	6977
2026-01-19 11:54:00.65	60.92	10.31	-44.2	-46.2	17.5	0.00e+00	0	40	0	439353344	60	7351
2026-01-19 11:54:03.68	61.46	10.35	-43.7	-45.5	18.0	0.00e+00	0	40	0	444596224	60	6811
2026-01-19 11:54:06.71	62.00	10.39	-43.1	-44.8	18.8	0.00e+00	90	41	0	450887680	60	6248
2026-01-19 11:54:09.74	62.55	10.43	-43.1	-44.7	18.8	0.00e+00	0	41	0	456130560	60	6217
2026-01-19 11:54:12.77	63.09	10.46	-43.1	-44.8	18.7	0.00e+00	0	41	0	462422016	60	6253
2026-01-19 11:54:15.80	63.64	10.50	-42.7	-44.3	19.0	0.00e+00	40	40	0	467664896	60	5911
2026-01-19 11:54:18.83	64.19	10.53	-42.6	-44.1	19.3	0.00e+00	47	41	0	472907776	58	6529
2026-01-19 11:54:21.86	64.74	10.55	-42.6	-44.1	19.4	0.00e+00	0	40	0	479199232	58	6482
2026-01-19 11:54:24.89	65.29	10.58	-42.1	-43.5	19.9	0.00e+00	0	41	0	484442112	58	6059
2026-01-19 11:54:27.92	65.84	10.60	-41.8	-43.1	20.2	0.00e+00	90	41	0	490733568	56	6481
2026-01-19 11:54:30.95	66.39	10.62	-41.9	-43.3	20.0	0.00e+00	0	41	0	495976448	56	6677
2026-01-19 11:54:33.98	66.94	10.64	-41.8	-43.2	20.1	0.00e+00	0	41	0	501219328	56	6544
2026-01-19 11:54:37.01	67.50	10.66	-41.8	-43.1	20.4	0.00e+00	91	40	0	507510784	56	6485
2026-01-19 11:54:40.03	68.05	10.67	-41.8	-43.1	20.3	0.00e+00	0	41	0	512753664	56	6538
2026-01-19 11:54:43.06	68.60	10.68	-41.8	-43.1	20.1	0.00e+00	0	40	0	519045120	56	6536
2026-01-19 11:54:46.09	69.16	10.69	-41.2	-42.4	20.7	0.00e+00	0	41	0	524288000	56	6013
2026-01-19 11:54:49.12	69.71	10.70	-41.2	-42.4	20.8	0.00e+00	62	41	0	530579456	56	6001
2026-01-19 11:54:52.15	70.27	10.70	-41.1	-42.3	20.9	0.00e+00	0	41	0	535822336	56	5953
2026-01-19 11:54:55.17	70.82	10.71	-40.6	-41.7	21.5	0.00e+00	0	40	0	541065216	54	6220
2026-01-19 11:54:58.20	71.38	10.71	-40.9	-42.1	21.0	0.00e+00	92	40	0	547356672	54	6538
2026-01-19 11:55:01.23	71.93	10.70	-41.4	-42.7	20.5	0.00e+00	33	41	0	552599552	54	6966
2026-01-19 11:55:04.26	72.49	10.70	-41.0	-42.3	20.9	0.00e+00	33	41	0	558891008	54	6632
2026-01-19 11:55:07.29	73.04	10.69	-40.9	-42.2	20.9	0.00e+00	91	40	0	564133888	54	6542
2026-01-19 11:55:10.31	73.60	10.68	-41.0	-42.2	21.0	0.00e+00	0	40	0	569376768	54	6593
2026-01-19 11:55:13.34	74.15	10.67	-40.9	-42.2	21.0	0.00e+00	0	40	0	575668224	54	6608
2026-01-19 11:55:16.37	74.71	10.65	-40.7	-42.0	21.1	0.00e+00	0	40	0	580911104	54	6421
2026-01-19 11:55:19.40	75.26	10.64	-40.3	-41.5	21.6	0.00e+00	9	40	0	587202560	54	6053
2026-01-19 11:55:22.43	75.81	10.62	-40.4	-41.6	21.5	0.00e+00	0	40	0	592445440	54	6148
2026-01-19 11:55:25.46	76.36	10.60	-40.1	-41.3	21.8	0.00e+00	0	41	0	597688320	54	5920
2026-01-19 11:55:28.49	76.92	10.57	-39.6	-40.8	22.2	0.00e+00	92	40	0	603979776	52	6288
2026-01-19 11:55:31.51	77.46	10.55	-39.7	-41.0	22.0	0.00e+00	0	40	0	609222656	52	6420
2026-01-19 11:55:34.54	78.01	10.52	-40.2	-41.5	21.6	0.00e+00	0	41	0	615514112	52	6819
2026-01-19 11:55:37.57	78.56	10.49	-40.1	-41.3	21.8	0.00e+00	91	41	0	620756992	52	6659
2026-01-19 11:55:40.60	79.11	10.46	-40.1	-41.2	21.8	0.00e+00	9	41	0	627048448	52	6609
2026-01-19 11:55:43.63	79.66	10.42	-40.2	-41.2	21.8	0.00e+00	0	41	0	632291328	52	6612
2026-01-19 11:55:46.65	80.20	10.38	-40.3	-41.5	21.6	0.00e+00	0	41	0	637534208	52	6771
2026-01-19 11:55:49.68	80.74	10.34	-40.3	-41.4	21.5	0.00e+00	41	41	0	643825664	52	6727
2026-01-19 11:55:52.71	81.29	10.30	-40.5	-41.7	21.2	0.00e+00	0	41	0	649068544	52	6950
2026-01-19 11:55:55.74	81.83	10.26	-40.7	-42.0	21.0	0.00e+00	0	41	0	655360000	54	6452
2026-01-19 11:55:58.77	82.37	10.21	-41.1	-42.4	20.6	0.00e+00	56	41	0	660602880	54	6719
2026-01-19 11:56:01.80	82.90	10.16	-40.6	-41.8	21.2	0.00e+00	0	41	0	665845760	54	6284
2026-01-19 11:56:04.83	83.44	10.11	-40.1	-41.2	21.7	0.00e+00	0	41	0	672137216	54	5853
2026-01-19 11:56:07.86	83.97	10.06	-39.7	-40.7	22.1	0.00e+00	0	41	0	677380096	52	6227
2026-01-19 11:56:10.88	84.50	10.01	-39.3	-40.3	22.5	0.00e+00	47	41	0	683671552	52	5898
2026-01-19 11:56:13.91	85.03	9.95	-39.0	-39.9	22.8	0.00e+00	0	41	0	688914432	52	5670
2026-01-19 11:56:16.94	85.56	9.89	-39.5	-40.5	22.2	0.00e+00	0	41	0	695205888	52	6063
2026-01-19 11:56:19.97	86.09	9.83	-39.7	-40.8	22.1	0.00e+00	43	41	0	700448768	52	6271
2026-01-19 11:56:23.00	86.61	9.77	-39.8	-40.9	22.1	0.00e+00	0	41	0	705691648	52	6345
2026-01-19 11:56:26.03	87.13	9.70	-39.9	-41.0	21.9	0.00e+00	0	40	0	711983104	52	6418
2026-01-19 11:56:29.06	87.65	9.64	-40.0	-41.1	21.9	0.00e+00	92	41	0	717225984	52	6482
2026-01-19 11:56:32.09	88.17	9.57	-40.1	-41.3	21.6	0.00e+00	0	40	0	723517440	52	6623
2026-01-19 11:56:35.12	88.68	9.50	-39.6	-41.0	22.0	0.00e+00	0	41	0	728760320	52	6391
2026-01-19 11:56:38.15	89.20	9.43	-39.0	-40.2	22.6	0.00e+00	0	41	0	734003200	52	5857
2026-01-19 11:56:41.18	89.71	9.35	-39.5	-40.5	22.3	0.00e+00	41	41	0	740294656	52	6057
2026-01-19 11:56:44.21	90.21	9.28	-39.7	-40.9	22.1	0.00e+00	0	40	0	745537536	52	6367
2026-01-19 11:56:47.24	90.72	9.20	-39.5	-40.9	22.1	0.00e+00	0	40	0	751828992	52	6339
2026-01-19 11:56:50.27	91.22	9.12	-39.7	-40.9	22.1	0.00e+00	90	41	0	757071872	52	6321
2026-01-19 11:56:53.30	91.72	9.04	-40.0	-41.3	21.6	0.00e+00	0	41	0	763363328	52	6671
2026-01-19 11:56:56.32	92.22	8.96	-40.7	-41.9	21.1	0.00e+00	0	41	0	768606208	54	6381
2026-01-19 11:56:59.35	92.71	8.88	-41.2	-42.5	20.5	0.00e+00	92	40	0	773849088	54	6790
2026-01-19 11:57:02.38	93.20	8.79	-41.3	-42.7	20.3	0.00e+00	0	41	0	780140544	54	6940
2026-01-19 11:57:05.41	93.69	8.70	-41.3	-42.7	20.4	0.00e+00	0	41	0	785383424	54	6944
2026-01-19 11:57:08.44	94.18	8.62	-41.4	-42.7	20.4	0.00e+00	0	41	0	791674880	54	6954
2026-01-19 11:57:11.47	94.66	8.53	-41.5	-42.9	20.2	0.00e+00	38	41	0	796917760	54	7117
2026-01-19 11:57:14.50	95.14	8.44	-41.2	-42.8	20.3	0.00e+00	0	41	0	802160640	54	7020
2026-01-19 11:57:17.53	95.62	8.34	-41.8	-43.4	19.8	0.00e+00	0	41	0	808452096	56	6716
2026-01-19 11:57:20.55	96.09	8.25	-41.9	-43.4	19.8	0.00e+00	92	41	0	813694976	56	6701
2026-01-19 11:57:23.58	96.56	8.16	-42.0	-43.4	19.6	0.00e+00	0	41	0	819986432	56	6769
2026-01-19 11:57:26.61	97.03	8.06	-42.3	-43.8	19.3	0.00e+00	0	40	0	825229312	56	7060
2026-01-19 11:57:29.64	97.50	7.96	-43.1	-45.0	18.3	0.00e+00	69	41	0	831520768	58	7187
2026-01-19 11:57:32.67	97.96	7.86	-42.8	-44.8	18.2	0.00e+00	0	41	0	836763648	58	7039
2026-01-19 11:57:35.70	98.42	7.76	-42.3	-44.4	18.6	0.00e+00	0	41	0	842006528	58	6752
2026-01-19 11:57:38.72	98.87	7.66	-42.2	-44.3	18.7	0.00e+00	0	41	0	848297984	58	6658
2026-01-19 11:57:41.75	99.33	7.56	-42.5	-44.3	18.9	0.00e+00	48	41	0	853540864	58	6628
2026-01-19 11:57:44.78	99.78	7.46	-42.5	-44.2	18.9	0.00e+00	0	41	0	859832320	58	6540
2026-01-19 11:57:47.80	100.22	7.35	-42.7	-44.4	18.7	0.00e+00	0	41	0	865075200	58	6765
2026-01-19 11:57:50.83	100.67	7.25	-42.6	-44.6	18.6	0.00e+00	90	41	0	870318080	58	6876
2026-01-19 11:57:53.86	101.11	7.14	-42.9	-44.7	18.2	0.00e+00	0	41	0	876609536	58	6981
2026-01-19 11:57:56.89	101.55	7.03	-42.5	-44.2	18.7	0.00e+00	0	41	0	881852416	58	6591
2026-01-19 11:57:59.92	101.98	6.93	-41.7	-44.0	18.8	0.00e+00	30	41	0	888143872	56	7233
2026-01-19 11:58:02.95	102.42	6.82	-41.5	-44.1	18.6	0.00e+00	0	41	0	893386752	56	7296
2026-01-19 11:58:05.98	102.84	6.71	-42.3	-44.1	18.9	0.00e+00	0	41	0	899678208	56	7269
2026-01-19 11:58:09.01	103.27	6.59	-42.0	-43.5	19.4	0.00e+00	0	41	0	904921088	56	6810
2026-01-19 11:58:12.04	103.69	6.48	-42.0	-43.4	19.5	0.00e+00	43	41	0	910163968	56	6752
2026-01-19 11:58:15.07	104.11	6.37	-42.1	-43.6	19.3	0.00e+00	0	41	0	916455424	56	6918
2026-01-19 11:58:18.09	104.53	6.26	-42.1	-43.5	19.3	0.00e+00	0	41	0	921698304	56	6846
2026-01-19 11:58:21.12	104.94	6.14	-42.1	-43.8	19.1	0.00e+00	91	41	0	927989760	56	7059
2026-01-19 11:58:24.15	105.35	6.03	-41.5	-43.6	19.3	0.00e+00	0	41	0	933232640	56	6857
2026-01-19 11:58:27.18	105.76	5.91	-42.2	-43.7	19.1	0.00e+00	0	41	0	938475520	56	6958
2026-01-19 11:58:30.21	106.16	5.80	-42.0	-43.8	18.9	0.00e+00	32	41	0	944766976	56	7078
2026-01-19 11:58:33.24	106.56	5.68	-41.7	-43.6	19.3	0.00e+00	33	41	0	950009856	56	6903
2026-01-19 11:58:36.26	106.96	5.56	-41.9	-43.5	19.3	0.00e+00	0	41	0	956301312	56	6816
2026-01-19 11:58:39.29	107.35	5.44	-41.3	-42.8	19.9	0.00e+00	0	41	0	961544192	56	6315
2026-01-19 11:58:42.32	107.75	5.33	-41.0	-42.8	20.0	0.00e+00	36	41	0	967835648	56	6272
2026-01-19 11:58:45.35	108.13	5.21	-41.3	-43.1	19.4	0.00e+00	0	41	0	973078528	56	6530
2026-01-19 11:58:48.38	108.52	5.09	-40.9	-42.9	19.7	0.00e+00	0	41	0	978321408	56	6380
2026-01-19 11:58:51.40	108.90	4.97	-41.1	-42.6	19.9	0.00e+00	92	41	0	984612864	54	6912
2026-01-19 11:58:54.43	109.28	4.85	-40.9	-42.6	19.8	0.00e+00	0	41	0	989855744	54	6911
2026-01-19 11:58:57.46	109.66	4.72	-41.5	-43.0	19.7	0.00e+00	0	41	0	996147200	54	7231
2026-01-19 11:59:00.49	110.03	4.60	-42.0	-43.8	18.8	0.00e+00	79	41	0	1001390080	56	7071
2026-01-19 11:59:03.52	110.40	4.48	-42.2	-43.9	18.7	0.00e+00	30	41	0	1006632960	56	7095
2026-01-19 11:59:06.55	110.77	4.36	-41.9	-43.8	18.8	0.00e+00	0	41	0	1012924416	56	7022
2026-01-19 11:59:09.58	111.13	4.23	-42.4	-44.5	17.9	0.00e+00	0	41	0	1018167296	56	7598
2026-01-19 11:59:12.61	111.50	4.11	-42.3	-44.7	17.6	0.00e+00	92	41	0	1024458752	56	7811
2026-01-19 11:59:15.64	111.85	3.99	-42.4	-44.2	18.0	0.00e+00	0	41	0	1029701632	58	6604
2026-01-19 11:59:18.67	112.21	3.86	-41.5	-43.8	18.3	0.00e+00	0	41	0	1035993088	56	7021
2026-01-19 11:59:21.70	112.56	3.74	-41.7	-43.6	18.7	0.00e+00	92	41	0	1041235968	56	6881
2026-01-19 11:59:24.73	112.91	3.61	-41.9	-43.7	18.4	0.00e+00	0	41	0	1046478848	56	6979
2026-01-19 11:59:27.75	113.26	3.49	-42.4	-44.6	17.5	0.00e+00	0	41	0	1052770304	56	7701
2026-01-19 11:59:30.78	113.60	3.36	-41.7	-44.9	17.3	0.00e+00	0	41	0	1058013184	56	8003
2026-01-19 11:59:33.82	113.95	3.24	-42.6	-45.1	17.0	0.00e+00	40	41	0	1064304640	56	8212
2026-01-19 11:59:36.85	114.29	3.11	-43.1	-45.7	16.3	0.00e+00	0	41	0	1069547520	58	7784
2026-01-19 11:59:39.88	114.62	2.99	-48.3	-63.0	3.6	7.03e-01	0	41	104	1074790400	60	51179
2026-01-19 11:59:42.91	114.96	2.86	-48.7	-64.9	3.6	1.51e+00	0	41	104	1074790400	60	63343
2026-01-19 11:59:45.94	115.29	2.73	-49.9	-65.2	3.6	1.51e+00	0	41	104	1074790400	60	65492
2026-01-19 11:59:48.97	115.61	2.61	-50.2	-65.3	3.6	1.51e+00	0	41	104	1074790400	60	66676
2026-01-19 11:59:52.00	115.94	2.48	-50.2	-65.4	3.6	1.51e+00	0	41	104	1074790400	60	67442
2026-01-19 11:59:55.04	116.26	2.35	-50.2	-65.4	3.6	1.51e+00	0	41	104	1074790400	60	66947
2026-01-19 11:59:58.07	116.58	2.23	-50.2	-65.5	3.6	1.51e+00	0	41	104	1074790400	60	67762
2026-01-19 12:00:01.10	116.90	2.10	-50.2	-65.4	3.6	1.51e+00	0	41	104	1074790400	60	67358
2026-01-19 12:00:04.13	117.22	1.97	-50.1	-65.3	3.6	1.51e+00	0	41	104	1074790400	60	66848
2026-01-19 12:00:07.16	117.53	1.85	-50.1	-65.3	3.6	1.51e+00	0	41	104	1074790400	60	66797
2026-01-19 12:00:10.19	117.84	1.72	-50.1	-65.4	3.6	1.51e+00	0	41	104	1074790400	60	67139
2026-01-19 12:00:13.22	118.14	1.59	-50.1	-65.3	3.6	1.51e+00	0	41	104	1074790400	60	66764
2026-01-19 12:00:16.25	118.45	1.46	-50.1	-65.3	3.6	1.51e+00	0	41	104	1074790400	60	66685
2026-01-19 12:00:19.28	118.75	1.34	-50.1	-65.3	3.6	1.51e+00	0	41	104	1074790400	60	66870
2026-01-19 12:00:22.31	119.05	1.21	-50.1	-65.4	3.6	1.51e+00	0	41	104	1074790400	60	66996
2026-01-19 12:00:25.34	119.35	1.08	-50.1	-65.3	3.6	1.51e+00	0	41	104	1074790400	60	66870
2026-01-19 12:00:28.37	119.64	0.95	-50.1	-65.3	3.6	1.51e+00	0	41	104	1074790400	60	66886
2026-01-19 12:00:31.40	119.94	0.82	-50.1	-65.4	3.6	1.51e+00	0	41	104	1074790400	60	67135
2026-01-19 12:00:34.43	120.23	0.70	-50.1	-65.3	3.6	1.51e+00	0	41	104	1074790400	60	66753
2026-01-19 12:00:37.46	120.51	0.57	-50.1	-65.4	3.6	1.51e+00	0	41	104	1074790400	60	67153
2026-01-19 12:00:40.49	120.80	0.44	-50.2	-65.3	3.6	1.51e+00	0	41	104	1074790400	60	66810
2026-01-19 12:00:43.52	121.08	0.31	-50.1	-65.4	3.6	1.51e+00	0	41	104	1074790400	60	67069
2026-01-19 12:00:46.55	121.36	0.18	-50.1	-65.3	3.6	1.51e+00	0	41	104	1074790400	60	66581
2026-01-19 12:00:49.58	121.64	0.06	-50.1	-65.3	3.6	1.51e+00	0	41	104	1074790400	60	66736
2026-01-19 12:00:52.61	121.92	-0.07	-50.1	-65.3	3.6	1.51e+00	0	41	104	1074790400	60	66742

#Closed at: 2026-01-19 12:00:52
#Recorded file [1074 MB]: D:/lorett/data/35029_260119_234900.dat