passes_logs/2026/01/19/R4.6S_Anadyr/R4.6S_Anadyr__20260119_030251_AQUA_rec.log

#Pass ID: 20260119_030251_AQUA
#Satellite: AQUA
#Configuration: AQUA
#almurnet v.1.7.20251203
#Start time: 2026-01-19 03:02:52

#Version: 2.2.20231116
#Station: R4.6S_Anadyr
#Location: 177.4865 lon 64.73178 lat
#TLE: 1 27424U 02022A   26018.67315038  .00000896  00000+0  18931-3 0  9992
#TLE: 2 27424  98.4088 345.1622 0002002  73.7601  98.9671 14.61828261261423

#Time	Az	El	Level	Level2	SNR	BER	BlckErr	Temp	State	Recorded	gain1	gain2
2026-01-19 03:02:52.52	185.44	0.06	-50.1	-61.8	3.5	8.45e-01	0	38	0	0	60	44351
2026-01-19 03:02:56.56	185.61	0.30	-50.6	-68.5	3.5	3.02e+01	0	39	104	0	60	102051
2026-01-19 03:03:00.60	185.78	0.54	-50.6	-68.5	3.5	3.02e+01	0	39	104	0	60	102811
2026-01-19 03:03:04.63	185.95	0.79	-50.6	-68.5	3.5	3.02e+01	0	39	104	0	60	101934
2026-01-19 03:03:08.67	186.13	1.03	-50.4	-68.3	3.5	3.02e+01	0	39	104	0	60	100422
2026-01-19 03:03:12.71	186.31	1.28	-49.7	-67.7	3.5	3.02e+01	0	39	104	0	60	92928
2026-01-19 03:03:16.74	186.49	1.53	-49.1	-66.8	3.5	3.02e+01	0	39	104	0	60	84526
2026-01-19 03:03:20.78	186.68	1.79	-49.1	-67.0	3.5	3.02e+01	0	39	104	0	60	85705
2026-01-19 03:03:24.82	186.87	2.04	-49.1	-66.5	3.5	3.02e+01	0	40	104	0	60	80931
2026-01-19 03:03:28.86	187.06	2.30	-49.1	-66.8	3.5	3.02e+01	0	40	104	0	60	83832
2026-01-19 03:03:32.90	187.26	2.56	-49.0	-64.9	3.5	3.02e+01	0	40	104	0	60	67313
2026-01-19 03:03:36.94	187.46	2.82	-49.0	-64.9	3.7	3.02e+01	0	40	104	0	60	67759
2026-01-19 03:03:40.98	187.66	3.09	-48.8	-60.4	5.7	3.02e+01	0	40	0	0	60	40278
2026-01-19 03:03:45.01	187.87	3.35	-44.8	-47.7	19.1	3.02e+01	92	40	0	7340032	60	9325
2026-01-19 03:03:49.06	188.08	3.63	-41.5	-43.4	23.0	3.02e+01	90	40	0	14680064	58	6355
2026-01-19 03:03:53.10	188.30	3.90	-48.0	-55.5	8.7	3.02e+01	92	40	0	22544384	60	22884
2026-01-19 03:03:57.14	188.52	4.17	-39.9	-41.5	25.0	3.02e+01	90	40	0	25690112	54	6431
2026-01-19 03:04:01.18	188.74	4.45	-40.3	-41.8	25.0	3.02e+01	88	40	0	33030144	54	6709
2026-01-19 03:04:05.22	188.97	4.74	-40.7	-42.3	24.3	3.02e+01	89	40	0	40370176	54	7086
2026-01-19 03:04:09.26	189.20	5.02	-40.7	-42.3	24.5	3.02e+01	92	40	0	48234496	54	7075
2026-01-19 03:04:13.29	189.44	5.31	-40.7	-42.3	24.7	3.02e+01	91	40	0	55574528	56	6296
2026-01-19 03:04:17.34	189.68	5.60	-39.6	-41.0	25.7	3.02e+01	91	40	0	63438848	54	6128
2026-01-19 03:04:21.37	189.93	5.89	-39.5	-41.0	25.8	3.02e+01	92	40	0	70778880	54	6070
2026-01-19 03:04:25.41	190.19	6.19	-39.4	-40.9	25.9	3.02e+01	90	40	0	78643200	54	6030
2026-01-19 03:04:29.45	190.44	6.49	-39.4	-40.8	26.0	3.02e+01	92	40	0	85983232	54	5955
2026-01-19 03:04:33.48	190.71	6.80	-39.4	-40.8	26.1	3.02e+01	92	40	0	93847552	54	5971
2026-01-19 03:04:37.53	190.98	7.10	-39.4	-40.9	26.1	3.02e+01	92	40	0	101187584	54	6004
2026-01-19 03:04:41.56	191.25	7.42	-39.1	-40.5	26.5	3.02e+01	92	40	0	108527616	54	5739
2026-01-19 03:04:45.60	191.54	7.73	-38.9	-40.3	26.7	3.02e+01	92	40	0	116391936	52	6323
2026-01-19 03:04:49.64	191.82	8.05	-38.9	-40.3	26.8	3.02e+01	91	40	0	123731968	52	6295
2026-01-19 03:04:53.68	192.12	8.37	-38.8	-40.2	26.8	3.02e+01	91	40	0	131596288	52	6238
2026-01-19 03:04:57.72	192.42	8.70	-38.9	-40.2	26.8	3.02e+01	91	40	0	138936320	52	6257
2026-01-19 03:05:01.75	192.73	9.03	-38.5	-39.9	27.2	3.02e+01	92	40	0	146800640	52	5995
2026-01-19 03:05:05.79	193.05	9.37	-38.6	-39.9	27.1	3.02e+01	91	40	0	154140672	52	6047
2026-01-19 03:05:09.83	193.37	9.71	-38.6	-40.0	27.1	3.02e+01	92	40	0	162004992	52	6084
2026-01-19 03:05:13.87	193.70	10.06	-38.5	-39.9	27.3	3.02e+01	89	40	0	169345024	52	6015
2026-01-19 03:05:17.91	194.04	10.41	-38.4	-39.7	27.4	3.02e+01	92	40	0	176685056	52	5925
2026-01-19 03:05:21.95	194.39	10.76	-38.3	-39.6	27.5	3.02e+01	92	40	0	184549376	52	5808
2026-01-19 03:05:25.99	194.75	11.12	-38.2	-39.5	27.6	3.02e+01	92	40	0	191889408	52	5779
2026-01-19 03:05:30.03	195.12	11.48	-38.3	-39.6	27.6	3.02e+01	92	40	0	199753728	52	5831
2026-01-19 03:05:34.07	195.49	11.85	-38.2	-39.5	27.7	3.02e+01	90	40	0	207093760	52	5738
2026-01-19 03:05:38.11	195.88	12.23	-37.9	-39.2	27.9	3.02e+01	90	40	0	214958080	50	6256
2026-01-19 03:05:42.15	196.28	12.61	-37.8	-39.0	28.1	3.02e+01	89	40	0	222298112	50	6129
2026-01-19 03:05:46.19	196.69	13.00	-37.8	-39.0	28.1	3.02e+01	91	40	0	230162432	50	6117
2026-01-19 03:05:50.23	197.10	13.39	-37.7	-39.0	28.2	3.02e+01	92	40	0	237502464	50	6083
2026-01-19 03:05:54.26	197.53	13.78	-37.9	-39.2	28.0	3.02e+01	90	40	0	244842496	50	6240
2026-01-19 03:05:58.30	197.98	14.19	-37.6	-38.9	28.2	3.02e+01	90	40	0	252706816	50	6014
2026-01-19 03:06:02.34	198.43	14.60	-37.7	-38.9	28.2	3.02e+01	89	40	0	260046848	50	6051
2026-01-19 03:06:06.38	198.90	15.01	-37.4	-38.7	28.5	3.02e+01	90	40	0	267911168	50	5880
2026-01-19 03:06:10.42	199.38	15.43	-37.1	-38.4	28.7	3.02e+01	92	40	0	275251200	50	5672
2026-01-19 03:06:14.47	199.88	15.86	-37.4	-38.6	28.6	3.02e+01	92	40	0	283115520	50	5844
2026-01-19 03:06:18.50	200.39	16.29	-37.3	-38.5	28.6	3.02e+01	92	40	0	290455552	50	5756
2026-01-19 03:06:22.55	200.92	16.74	-37.3	-38.6	28.6	3.02e+01	92	40	0	298319872	50	5824
2026-01-19 03:06:26.59	201.46	17.18	-37.2	-38.5	28.7	3.02e+01	92	40	0	305659904	50	5734
2026-01-19 03:06:30.62	202.02	17.64	-37.3	-38.6	28.6	3.02e+01	92	40	0	312999936	50	5809
2026-01-19 03:06:34.66	202.60	18.10	-37.3	-38.6	28.6	3.02e+01	91	40	0	320864256	50	5823
2026-01-19 03:06:38.70	203.19	18.57	-37.2	-38.5	28.7	3.02e+01	92	40	0	328204288	50	5737
2026-01-19 03:06:42.74	203.81	19.04	-37.3	-38.5	28.7	3.02e+01	90	40	0	336068608	50	5775
2026-01-19 03:06:46.78	204.45	19.52	-37.6	-38.9	28.4	3.02e+01	90	40	0	343408640	50	6015
2026-01-19 03:06:50.82	205.10	20.01	-37.1	-38.4	28.8	3.02e+01	92	40	0	351272960	50	5674
2026-01-19 03:06:54.86	205.78	20.51	-37.6	-38.8	28.5	3.02e+01	92	40	0	358612992	50	5986
2026-01-19 03:06:58.90	206.48	21.01	-37.5	-38.7	28.5	3.02e+01	92	40	0	365953024	50	5914
2026-01-19 03:07:02.94	207.21	21.52	-37.4	-38.7	28.6	3.02e+01	92	40	0	373817344	50	5860
2026-01-19 03:07:06.98	207.96	22.04	-37.4	-38.7	28.7	3.02e+01	92	40	0	381157376	50	5885
2026-01-19 03:07:11.02	208.73	22.56	-37.4	-38.6	28.6	3.02e+01	92	40	0	389021696	50	5856
2026-01-19 03:07:15.05	209.54	23.09	-37.5	-38.8	28.6	3.02e+01	92	40	0	396361728	50	5945
2026-01-19 03:07:19.09	210.37	23.63	-37.5	-38.7	28.6	3.02e+01	91	40	0	404226048	50	5922
2026-01-19 03:07:23.13	211.23	24.17	-37.6	-38.9	28.5	3.02e+01	87	40	0	411566080	50	5995
2026-01-19 03:07:27.17	212.12	24.72	-37.6	-38.9	28.4	3.02e+01	91	40	0	419430400	50	6010
2026-01-19 03:07:31.21	213.05	25.27	-37.5	-38.8	28.5	3.02e+01	92	40	0	426770432	50	5931
2026-01-19 03:07:35.25	214.01	25.83	-37.7	-38.9	28.5	3.02e+01	92	40	0	434634752	50	6052
2026-01-19 03:07:39.29	215.00	26.39	-37.9	-39.1	28.2	3.02e+01	91	40	0	441974784	50	6193
2026-01-19 03:07:43.32	216.03	26.96	-37.7	-39.0	28.4	3.02e+01	92	40	0	449314816	50	6071
2026-01-19 03:07:47.36	217.10	27.53	-38.0	-39.2	28.2	3.02e+01	91	40	0	457179136	50	6271
2026-01-19 03:07:51.40	218.21	28.10	-37.5	-38.8	28.6	3.02e+01	91	40	0	464519168	50	5961
2026-01-19 03:07:55.44	219.36	28.67	-37.7	-39.0	28.5	3.02e+01	91	40	0	472383488	50	6065
2026-01-19 03:07:59.48	220.55	29.24	-37.5	-38.8	28.6	3.02e+01	91	40	0	479723520	50	5954
2026-01-19 03:08:03.51	221.78	29.81	-37.7	-39.0	28.5	3.02e+01	92	40	0	487587840	50	6081
2026-01-19 03:08:07.55	223.06	30.38	-37.4	-38.7	28.7	3.02e+01	91	40	0	494927872	50	5884
2026-01-19 03:08:11.58	224.39	30.95	-37.7	-39.0	28.4	3.02e+01	92	40	0	502792192	50	6099
2026-01-19 03:08:15.62	225.76	31.51	-37.6	-38.9	28.5	3.02e+01	92	40	0	510132224	50	6012
2026-01-19 03:08:19.66	227.18	32.06	-37.7	-38.9	28.5	3.02e+01	90	40	0	517472256	50	6059
2026-01-19 03:08:23.69	228.65	32.61	-37.8	-39.0	28.4	3.02e+01	87	40	0	525336576	50	6132
2026-01-19 03:08:27.73	230.18	33.14	-37.8	-39.1	28.3	3.02e+01	91	40	0	532676608	50	6152
2026-01-19 03:08:31.77	231.75	33.66	-37.5	-38.7	28.6	3.02e+01	92	40	0	540540928	50	5918
2026-01-19 03:08:35.81	233.38	34.17	-37.6	-38.8	28.6	3.02e+01	91	40	0	547880960	50	5982
2026-01-19 03:08:39.85	235.05	34.66	-37.7	-38.9	28.5	3.02e+01	90	40	0	555745280	50	6035
2026-01-19 03:08:43.89	236.78	35.13	-37.7	-39.0	28.4	3.02e+01	92	40	0	563085312	50	6090
2026-01-19 03:08:47.93	238.56	35.58	-37.9	-39.1	28.5	3.02e+01	92	40	0	570425344	50	6198
2026-01-19 03:08:51.97	240.38	36.01	-37.6	-38.9	28.6	3.02e+01	92	40	0	578289664	50	5997
2026-01-19 03:08:56.01	242.25	36.41	-37.5	-38.7	28.7	3.02e+01	92	40	0	585629696	50	5908
2026-01-19 03:09:00.05	244.17	36.78	-37.7	-38.9	28.5	3.02e+01	90	40	0	593494016	50	6036
2026-01-19 03:09:04.09	246.13	37.12	-37.6	-38.9	28.5	3.02e+01	92	40	0	600834048	50	5996
2026-01-19 03:09:08.12	248.13	37.42	-37.5	-38.8	28.7	3.02e+01	92	40	0	608698368	50	5932
2026-01-19 03:09:12.16	250.16	37.69	-37.6	-38.8	28.6	3.02e+01	92	40	0	616038400	50	5983
2026-01-19 03:09:16.20	252.23	37.92	-37.5	-38.8	28.6	3.02e+01	91	40	0	623902720	50	5939
2026-01-19 03:09:20.24	254.32	38.11	-37.4	-38.6	28.8	3.02e+01	90	40	0	631242752	50	5818
2026-01-19 03:09:24.28	256.43	38.26	-37.2	-38.5	29.0	3.02e+01	92	40	0	638582784	50	5740
2026-01-19 03:09:28.32	258.57	38.37	-37.3	-38.5	28.9	3.02e+01	91	40	0	646447104	50	5778
2026-01-19 03:09:32.36	260.71	38.43	-37.3	-38.5	28.9	3.02e+01	91	40	0	653787136	50	5757
2026-01-19 03:09:36.39	262.85	38.45	-37.2	-38.5	28.9	3.02e+01	91	40	0	661651456	50	5732
2026-01-19 03:09:40.43	265.00	38.43	-37.6	-38.9	28.7	3.02e+01	92	40	0	668991488	50	6001
2026-01-19 03:09:44.47	267.14	38.36	-37.4	-38.6	28.9	3.02e+01	91	40	0	676855808	50	5824
2026-01-19 03:09:48.51	269.27	38.25	-37.1	-38.4	29.0	3.02e+01	92	40	0	684195840	50	5670
2026-01-19 03:09:52.55	271.38	38.10	-37.3	-38.6	28.9	3.02e+01	92	40	0	692060160	50	5794
2026-01-19 03:09:56.59	273.47	37.91	-37.1	-38.3	29.1	3.02e+01	92	40	0	699400192	50	5625
2026-01-19 03:10:00.63	275.54	37.68	-37.2	-38.4	29.0	3.02e+01	92	40	0	706740224	50	5702
2026-01-19 03:10:04.67	277.57	37.41	-36.9	-38.1	29.2	3.02e+01	92	40	0	714604544	50	5507
2026-01-19 03:10:08.71	279.56	37.10	-37.3	-38.5	28.9	3.02e+01	92	40	0	721944576	48	6449
2026-01-19 03:10:12.75	281.51	36.77	-37.0	-38.2	29.1	3.02e+01	92	40	0	729808896	48	6250
2026-01-19 03:10:16.79	283.43	36.40	-36.9	-38.1	29.2	3.02e+01	90	40	0	737148928	48	6161
2026-01-19 03:10:20.83	285.29	36.00	-36.7	-37.9	29.3	3.02e+01	89	40	0	745013248	48	6062
2026-01-19 03:10:24.87	287.11	35.57	-36.5	-37.7	29.5	3.02e+01	88	40	0	752353280	48	5874
2026-01-19 03:10:28.91	288.88	35.12	-36.3	-37.5	29.7	3.02e+01	91	40	0	760217600	48	5769
2026-01-19 03:10:32.94	290.60	34.66	-36.5	-37.7	29.5	3.02e+01	92	40	0	767557632	48	5888
2026-01-19 03:10:36.98	292.27	34.17	-36.2	-37.4	29.8	3.02e+01	92	40	0	774897664	48	5673
2026-01-19 03:10:41.02	293.89	33.66	-36.1	-37.3	29.8	3.02e+01	90	40	0	782761984	48	5638
2026-01-19 03:10:45.06	295.45	33.14	-35.8	-37.0	30.2	3.02e+01	92	40	0	790102016	46	6082
2026-01-19 03:10:49.10	296.97	32.61	-36.1	-37.2	29.8	3.02e+01	92	40	0	797966336	46	6264
2026-01-19 03:10:53.13	298.43	32.07	-35.7	-36.9	30.2	3.02e+01	92	40	0	805306368	46	6030
2026-01-19 03:10:57.17	299.85	31.51	-35.9	-37.1	30.0	3.02e+01	92	40	0	813170688	46	6193
2026-01-19 03:11:01.21	301.22	30.96	-35.7	-36.8	30.2	3.02e+01	90	40	0	820510720	46	5970
2026-01-19 03:11:05.26	302.54	30.39	-35.7	-36.9	30.3	3.02e+01	90	40	0	828375040	46	6004
2026-01-19 03:11:09.29	303.82	29.83	-35.7	-36.9	30.2	3.02e+01	90	40	0	835715072	46	6021
2026-01-19 03:11:13.33	305.05	29.26	-35.9	-37.1	30.0	3.02e+01	49	40	0	843055104	46	6155
2026-01-19 03:11:17.37	306.23	28.69	-35.9	-37.1	30.0	3.02e+01	55	40	0	850919424	46	6191
2026-01-19 03:11:21.42	307.38	28.12	-36.1	-37.3	29.8	3.02e+01	52	40	0	858259456	46	6336
2026-01-19 03:11:25.45	308.48	27.55	-36.3	-37.5	29.7	3.02e+01	62	40	0	866123776	46	6430
2026-01-19 03:11:29.49	309.54	26.99	-36.2	-37.4	29.6	3.02e+01	45	40	0	873463808	46	6403
2026-01-19 03:11:33.53	310.57	26.42	-36.6	-37.8	29.4	3.02e+01	60	40	0	881328128	46	6683
2026-01-19 03:11:37.57	311.56	25.87	-36.4	-37.5	29.6	3.02e+01	44	40	0	888668160	46	6495
2026-01-19 03:11:41.61	312.52	25.31	-36.6	-37.9	29.3	3.02e+01	56	40	0	896532480	46	6734
2026-01-19 03:11:45.65	313.44	24.76	-36.5	-37.7	29.5	3.02e+01	46	40	0	903872512	46	6645
2026-01-19 03:11:49.69	314.33	24.22	-36.6	-37.8	29.3	3.02e+01	62	40	0	911212544	46	6707
2026-01-19 03:11:53.73	315.19	23.68	-36.6	-37.8	29.4	3.02e+01	53	40	0	919076864	46	6655
2026-01-19 03:11:57.76	316.01	23.15	-36.7	-37.9	29.3	3.02e+01	60	40	0	926416896	46	6732
2026-01-19 03:12:01.80	316.82	22.62	-36.8	-38.0	29.2	3.02e+01	61	40	0	934281216	46	6868
2026-01-19 03:12:05.84	317.59	22.10	-36.6	-37.8	29.3	3.02e+01	61	40	0	941621248	46	6722
2026-01-19 03:12:09.88	318.34	21.59	-36.4	-37.6	29.5	3.02e+01	58	40	0	949485568	46	6559
2026-01-19 03:12:13.92	319.06	21.08	-36.5	-37.7	29.4	3.02e+01	60	40	0	956825600	46	6589
2026-01-19 03:12:17.96	319.76	20.58	-36.5	-37.7	29.4	3.02e+01	58	40	0	964689920	46	6602
2026-01-19 03:12:22.00	320.44	20.09	-36.5	-37.7	29.4	3.02e+01	58	40	0	972029952	46	6627
2026-01-19 03:12:26.04	321.09	19.60	-36.6	-37.8	29.4	3.02e+01	59	40	0	979369984	46	6695
2026-01-19 03:12:30.08	321.73	19.12	-36.5	-37.7	29.4	3.02e+01	59	40	0	987234304	46	6602
2026-01-19 03:12:34.12	322.34	18.65	-36.4	-37.6	29.5	3.02e+01	62	40	0	994574336	46	6537
2026-01-19 03:12:38.16	322.94	18.18	-36.6	-37.8	29.3	3.02e+01	59	40	0	1002438656	46	6696
2026-01-19 03:12:42.20	323.51	17.73	-36.3	-37.5	29.4	3.02e+01	58	40	0	1009778688	46	6482
2026-01-19 03:12:46.24	324.07	17.27	-36.3	-37.5	29.5	3.02e+01	60	40	0	1017643008	46	6490
2026-01-19 03:12:50.28	324.62	16.83	-36.2	-37.4	29.5	3.02e+01	59	40	0	1024983040	46	6417
2026-01-19 03:12:54.32	325.14	16.39	-36.5	-37.7	29.3	3.02e+01	60	40	0	1032847360	46	6627
2026-01-19 03:12:58.36	325.65	15.96	-36.6	-37.8	29.2	3.02e+01	59	40	0	1040187392	46	6668
2026-01-19 03:13:02.40	326.15	15.53	-36.6	-37.8	29.3	3.02e+01	46	40	0	1047527424	46	6659
2026-01-19 03:13:06.44	326.63	15.12	-36.7	-37.9	29.1	3.02e+01	58	40	0	1055391744	46	6746
2026-01-19 03:13:10.48	327.10	14.70	-36.5	-37.7	29.2	3.02e+01	46	40	0	1062731776	46	6611
2026-01-19 03:13:14.52	327.56	14.30	-36.9	-38.1	29.0	3.02e+01	57	40	0	1070596096	46	6942
2026-01-19 03:13:18.56	328.00	13.90	-36.7	-38.0	28.9	3.02e+01	63	40	0	1077936128	48	6075
2026-01-19 03:13:22.59	328.43	13.50	-36.9	-38.2	28.7	3.02e+01	58	40	0	1085800448	48	6231
2026-01-19 03:13:26.63	328.85	13.11	-36.8	-38.1	28.8	3.02e+01	55	40	0	1093140480	48	6137
2026-01-19 03:13:30.67	329.26	12.73	-36.8	-38.1	28.8	3.02e+01	62	40	0	1101004800	48	6136
2026-01-19 03:13:34.71	329.66	12.35	-36.9	-38.1	28.8	3.02e+01	54	40	0	1108344832	48	6168
2026-01-19 03:13:38.75	330.04	11.98	-37.1	-38.3	28.5	3.02e+01	59	40	0	1115684864	48	6332
2026-01-19 03:13:42.79	330.42	11.61	-37.2	-38.4	28.4	3.02e+01	47	40	0	1123549184	48	6404
2026-01-19 03:13:46.83	330.79	11.25	-37.2	-38.5	28.3	3.02e+01	61	40	0	1130889216	48	6443
2026-01-19 03:13:50.87	331.15	10.89	-37.0	-38.2	28.5	3.02e+01	46	40	0	1138753536	48	6276
2026-01-19 03:13:54.90	331.50	10.54	-37.3	-38.5	28.4	3.02e+01	57	40	0	1146093568	48	6482
2026-01-19 03:13:58.95	331.84	10.19	-37.4	-38.6	28.2	3.02e+01	46	40	0	1153957888	48	6570
2026-01-19 03:14:02.99	332.17	9.85	-37.6	-38.9	27.9	3.02e+01	57	40	0	1161297920	48	6754
2026-01-19 03:14:07.02	332.50	9.51	-37.5	-38.8	28.0	3.02e+01	46	40	0	1169162240	48	6690
2026-01-19 03:14:11.07	332.82	9.17	-38.3	-48.5	3.6	3.02e+01	0	40	104	1169686528	50	18279
2026-01-19 03:14:15.10	333.13	8.84	-40.9	-51.4	3.4	3.02e+01	0	41	104	1169686528	52	22772
2026-01-19 03:14:19.14	333.43	8.52	-38.5	-48.7	3.6	3.02e+01	0	41	104	1169686528	52	16635
2026-01-19 03:14:23.18	333.73	8.20	-49.5	-66.8	3.5	3.02e+01	0	40	104	1169686528	60	84307
2026-01-19 03:14:27.22	334.02	7.88	-39.1	-49.5	4.1	3.02e+01	0	40	104	1169686528	52	18109
2026-01-19 03:14:31.26	334.30	7.56	-49.4	-66.8	3.5	3.02e+01	0	40	104	1169686528	60	84201
2026-01-19 03:14:35.30	334.58	7.25	-39.7	-50.3	3.5	3.02e+01	0	41	104	1169686528	54	17740
2026-01-19 03:14:39.34	334.85	6.95	-43.6	-54.7	3.5	3.02e+01	0	41	104	1169686528	60	20833
2026-01-19 03:14:43.38	335.12	6.64	-39.6	-50.1	3.5	3.02e+01	0	40	104	1169686528	54	17335
2026-01-19 03:14:47.42	335.38	6.34	-39.5	-50.0	3.5	3.02e+01	0	41	104	1169686528	54	17278
2026-01-19 03:14:51.46	335.64	6.05	-44.2	-55.5	3.6	3.02e+01	0	41	104	1169686528	60	22964
2026-01-19 03:14:55.50	335.89	5.75	-41.7	-52.5	3.5	3.02e+01	0	40	104	1169686528	58	18305
2026-01-19 03:14:59.54	336.13	5.47	-46.2	-61.7	3.5	3.02e+01	0	40	104	1169686528	60	46657
2026-01-19 03:15:03.58	336.37	5.18	-43.8	-55.7	3.5	3.02e+01	0	40	104	1169686528	60	23417
2026-01-19 03:15:07.62	336.61	4.90	-45.9	-62.8	3.5	3.02e+01	0	41	104	1169686528	60	53347
2026-01-19 03:15:11.65	336.84	4.62	-45.7	-60.2	3.5	3.02e+01	0	41	104	1169686528	60	39311
2026-01-19 03:15:15.69	337.07	4.34	-45.8	-62.3	3.5	3.02e+01	0	41	104	1169686528	60	49983
2026-01-19 03:15:19.72	337.29	4.06	-46.1	-62.6	3.5	3.02e+01	0	41	104	1169686528	60	52188
2026-01-19 03:15:23.76	337.51	3.79	-46.0	-63.4	3.5	3.02e+01	0	41	104	1169686528	60	56606
2026-01-19 03:15:27.81	337.73	3.52	-46.0	-63.9	3.5	3.02e+01	0	41	104	1169686528	60	60314
2026-01-19 03:15:31.84	337.94	3.26	-46.1	-64.0	3.5	3.02e+01	0	41	104	1169686528	60	60891
2026-01-19 03:15:35.88	338.14	2.99	-46.0	-63.9	3.5	3.02e+01	0	41	104	1169686528	60	60629
2026-01-19 03:15:39.92	338.35	2.73	-50.2	-68.0	3.5	3.02e+01	0	41	104	1169686528	60	96624
2026-01-19 03:15:43.96	338.55	2.47	-50.6	-68.5	3.5	3.02e+01	0	41	104	1169686528	60	102037
2026-01-19 03:15:48.00	338.74	2.22	-50.7	-68.6	3.5	3.02e+01	0	41	104	1169686528	60	103687
2026-01-19 03:15:52.05	338.94	1.96	-50.6	-68.6	3.5	3.02e+01	0	41	104	1169686528	60	103990
2026-01-19 03:15:56.09	339.13	1.71	-50.6	-68.5	3.5	3.02e+01	0	41	104	1169686528	60	102042
2026-01-19 03:16:00.13	339.31	1.46	-50.7	-68.5	3.5	3.02e+01	0	41	104	1169686528	60	102724
2026-01-19 03:16:04.16	339.50	1.21	-50.6	-68.5	3.5	3.02e+01	0	41	104	1169686528	60	102046
2026-01-19 03:16:08.21	339.68	0.97	-50.6	-68.5	3.5	3.02e+01	0	41	104	1169686528	60	101865
2026-01-19 03:16:12.25	339.86	0.72	-50.6	-68.5	3.5	3.02e+01	0	41	104	1169686528	60	102423
2026-01-19 03:16:16.29	340.03	0.48	-50.6	-68.5	3.5	3.02e+01	0	41	104	1169686528	60	101924
2026-01-19 03:16:20.33	340.20	0.24	-50.6	-68.5	3.5	3.02e+01	0	41	104	1169686528	60	102032
2026-01-19 03:16:24.37	340.37	0.00	-50.6	-68.4	3.5	3.02e+01	0	41	104	1169686528	60	101694

#Closed at: 2026-01-19 03:16:27
#Recorded file [1169 MB]: D:/lorett/data/35029_260119_150252.dat