passes_logs/2026/01/19/R4.6S_Anadyr/R4.6S_Anadyr__20260119_192819_FENGYUN_3D_rec.log

#Pass ID: 20260119_192819_FENGYUN 3D
#Satellite: FENGYUN 3D
#Configuration: FENGYUN 3D
#almurnet v.1.7.20251203
#Start time: 2026-01-19 19:28:23

#Version: 2.2.20231116
#Station: R4.6S_Anadyr
#Location: 177.4865 lon 64.73178 lat
#TLE: 1 43010U 17072A   26019.30265705  .00000224  00000+0  12791-3 0  9991
#TLE: 2 43010  98.9940 351.1850 0002428 100.8496 259.2953 14.19697535423864

#Time	Az	El	Level	Level2	SNR	BER	BlckErr	Temp	State	Recorded	gain1	gain2
2026-01-19 19:28:23.08	32.08	0.17	-52.2	-63.0	3.3	8.40e-01	0	39	0	0	60	51035
2026-01-19 19:28:27.12	31.84	0.39	-49.9	-62.0	3.6	8.45e-01	0	39	104	0	60	45667
2026-01-19 19:28:31.16	31.61	0.60	-49.7	-61.8	3.6	8.46e-01	0	39	104	0	60	44599
2026-01-19 19:28:35.20	31.37	0.82	-49.4	-61.6	3.6	8.45e-01	0	39	104	0	60	43329
2026-01-19 19:28:39.24	31.12	1.04	-49.0	-61.2	3.6	8.47e-01	0	39	104	0	60	41372
2026-01-19 19:28:43.27	30.87	1.27	-48.2	-60.3	3.6	8.45e-01	0	39	104	0	60	37574
2026-01-19 19:28:47.31	30.62	1.49	-47.7	-59.7	3.6	8.45e-01	0	39	104	0	60	34914
2026-01-19 19:28:51.35	30.36	1.71	-47.6	-59.8	3.6	8.45e-01	0	39	104	0	60	35206
2026-01-19 19:28:55.39	30.10	1.94	-47.6	-59.4	3.6	8.44e-01	0	39	104	0	60	33618
2026-01-19 19:28:59.43	29.84	2.17	-47.6	-59.6	3.6	8.45e-01	0	40	104	0	60	34489
2026-01-19 19:29:03.48	29.57	2.39	-47.6	-59.7	3.6	8.45e-01	0	39	104	0	60	34762
2026-01-19 19:29:07.52	29.29	2.62	-47.6	-59.2	3.6	8.46e-01	0	40	104	0	60	32911
2026-01-19 19:29:11.56	29.02	2.85	-47.5	-59.0	3.6	8.44e-01	0	40	104	0	60	32071
2026-01-19 19:29:15.60	28.73	3.09	-46.9	-53.0	4.8	1.51e-01	0	40	0	4194304	60	16195
2026-01-19 19:29:19.64	28.44	3.32	-46.4	-51.5	4.7	2.03e-02	0	40	0	25165824	60	13588
2026-01-19 19:29:23.68	28.15	3.55	-45.4	-49.1	5.6	8.45e-01	0	40	104	30408704	60	10361
2026-01-19 19:29:27.72	27.85	3.79	-39.8	-41.0	18.1	0.00e+00	0	40	0	47185920	52	6431
2026-01-19 19:29:31.76	27.55	4.02	-39.5	-40.7	18.3	0.00e+00	0	40	0	70254592	50	6950
2026-01-19 19:29:35.80	27.24	4.26	-39.0	-40.0	19.0	0.00e+00	0	40	0	92274688	50	6458
2026-01-19 19:29:39.84	26.93	4.50	-39.7	-40.9	18.3	0.00e+00	0	40	0	115343360	52	6323
2026-01-19 19:29:43.88	26.61	4.74	-38.0	-39.0	19.8	0.00e+00	0	40	0	138412032	50	5718
2026-01-19 19:29:47.91	26.29	4.98	-36.9	-37.8	21.2	0.00e+00	0	40	0	160432128	48	5608
2026-01-19 19:29:51.95	25.96	5.23	-37.1	-38.0	21.3	0.00e+00	0	40	0	183500800	46	6414
2026-01-19 19:29:55.99	25.62	5.47	-36.7	-37.5	21.7	0.00e+00	0	40	0	206569472	46	6042
2026-01-19 19:30:00.03	25.28	5.72	-36.9	-37.7	21.6	0.00e+00	0	40	0	228589568	46	6229
2026-01-19 19:30:04.08	24.93	5.97	-36.6	-37.4	21.8	0.00e+00	0	40	0	251658240	46	6027
2026-01-19 19:30:08.12	24.58	6.21	-37.0	-37.8	21.5	0.00e+00	0	40	0	274726912	46	6288
2026-01-19 19:30:12.16	24.22	6.46	-37.8	-38.7	20.5	0.00e+00	0	40	0	296747008	48	6178
2026-01-19 19:30:16.20	23.85	6.72	-37.4	-38.2	21.5	0.00e+00	0	40	0	319815680	48	5893
2026-01-19 19:30:20.24	23.48	6.97	-37.1	-37.9	21.7	0.00e+00	0	40	0	342884352	48	5669
2026-01-19 19:30:24.27	23.10	7.22	-37.3	-38.1	21.5	0.00e+00	0	40	0	364904448	46	6532
2026-01-19 19:30:28.32	22.71	7.48	-36.5	-37.3	22.5	0.00e+00	0	40	0	387973120	46	5908
2026-01-19 19:30:32.36	22.31	7.73	-37.3	-38.1	21.6	0.00e+00	0	40	0	411041792	46	6496
2026-01-19 19:30:36.39	21.91	7.99	-36.8	-37.6	22.1	0.00e+00	0	40	0	433061888	46	6143
2026-01-19 19:30:40.43	21.50	8.25	-35.8	-36.5	23.1	0.00e+00	0	40	0	456130560	46	5426
2026-01-19 19:30:44.47	21.09	8.51	-36.2	-37.0	22.6	0.00e+00	0	40	0	479199232	44	6443
2026-01-19 19:30:48.51	20.66	8.77	-35.6	-36.3	23.2	0.00e+00	0	40	0	501219328	44	5954
2026-01-19 19:30:52.55	20.23	9.03	-35.9	-36.6	23.0	0.00e+00	0	40	0	524288000	44	6167
2026-01-19 19:30:56.59	19.79	9.30	-36.0	-36.8	23.0	0.00e+00	0	40	0	547356672	44	6252
2026-01-19 19:31:00.63	19.34	9.56	-35.7	-36.4	23.3	0.00e+00	0	40	0	569376768	44	6004
2026-01-19 19:31:04.67	18.88	9.83	-35.6	-36.4	23.3	0.00e+00	0	40	0	592445440	44	5970
2026-01-19 19:31:08.70	18.42	10.09	-35.5	-36.2	23.5	0.00e+00	0	40	0	615514112	44	5884
2026-01-19 19:31:12.74	17.94	10.36	-35.5	-36.2	23.6	0.00e+00	0	40	0	637534208	44	5885
2026-01-19 19:31:16.78	17.46	10.63	-35.3	-36.0	23.8	0.00e+00	0	40	0	660602880	44	5761
2026-01-19 19:31:20.82	16.96	10.90	-35.3	-36.0	23.8	0.00e+00	0	40	0	683671552	44	5700
2026-01-19 19:31:24.87	16.46	11.17	-35.0	-35.7	24.0	0.00e+00	0	40	0	705691648	44	5512
2026-01-19 19:31:28.91	15.95	11.44	-35.2	-36.0	23.8	0.00e+00	0	40	0	728760320	44	5705
2026-01-19 19:31:32.95	15.42	11.71	-34.6	-35.2	24.6	0.00e+00	0	40	0	751828992	42	5884
2026-01-19 19:31:36.99	14.89	11.99	-35.4	-36.1	23.8	0.00e+00	0	40	0	774897664	42	6509
2026-01-19 19:31:41.04	14.35	12.26	-34.6	-35.3	24.6	0.00e+00	0	40	0	796917760	42	5927
2026-01-19 19:31:45.08	13.80	12.53	-34.5	-35.2	24.6	0.00e+00	0	40	0	819986432	42	5866
2026-01-19 19:31:49.12	13.23	12.81	-34.7	-35.4	24.6	0.00e+00	0	40	0	843055104	42	6019
2026-01-19 19:31:53.16	12.66	13.08	-34.7	-35.3	24.5	0.00e+00	0	40	0	865075200	42	5960
2026-01-19 19:31:57.20	12.07	13.36	-34.6	-35.3	24.5	0.00e+00	0	40	0	888143872	42	5907
2026-01-19 19:32:01.24	11.47	13.63	-34.5	-35.2	24.6	0.00e+00	0	40	0	910163968	42	5853
2026-01-19 19:32:05.27	10.87	13.90	-34.5	-35.1	24.8	0.00e+00	0	40	0	933232640	42	5825
2026-01-19 19:32:09.31	10.25	14.18	-34.2	-34.9	25.1	0.00e+00	0	40	0	956301312	42	5655
2026-01-19 19:32:13.35	9.62	14.45	-33.9	-34.5	25.4	0.00e+00	0	40	0	979369984	40	6086
2026-01-19 19:32:17.39	8.97	14.72	-33.9	-34.6	25.2	0.00e+00	0	40	0	1001390080	40	6148
2026-01-19 19:32:21.43	8.32	15.00	-34.0	-34.6	25.3	0.00e+00	0	40	0	1024458752	40	6167
2026-01-19 19:32:25.47	7.65	15.27	-33.6	-34.2	25.6	0.00e+00	0	40	0	1047527424	40	5890
2026-01-19 19:32:29.50	6.97	15.54	-33.9	-34.6	25.3	0.00e+00	0	40	0	1069547520	40	6109
2026-01-19 19:32:33.54	6.28	15.81	-34.0	-34.7	25.3	0.00e+00	0	40	0	1092616192	40	6210
2026-01-19 19:32:37.58	5.57	16.08	-33.9	-34.6	25.4	0.00e+00	0	40	0	1114636288	40	6117
2026-01-19 19:32:41.62	4.85	16.34	-33.6	-34.3	25.7	0.00e+00	0	40	0	1137704960	40	5903
2026-01-19 19:32:45.66	4.12	16.61	-33.6	-34.2	25.6	0.00e+00	0	40	0	1160773632	40	5862
2026-01-19 19:32:49.70	3.38	16.87	-33.4	-34.0	25.8	0.00e+00	0	40	0	1183842304	40	5746
2026-01-19 19:32:53.74	2.62	17.13	-33.3	-33.9	25.9	0.00e+00	0	40	0	1205862400	40	5692
2026-01-19 19:32:57.79	1.84	17.39	-33.5	-34.1	25.9	0.00e+00	0	40	0	1228931072	40	5816
2026-01-19 19:33:01.82	1.06	17.64	-33.1	-33.8	26.1	0.00e+00	0	40	0	1251999744	40	5567
2026-01-19 19:33:05.86	0.26	17.90	-33.2	-33.9	26.0	0.00e+00	0	40	0	1274019840	40	5654
2026-01-19 19:33:09.90	359.45	18.14	-33.3	-34.0	25.9	0.00e+00	0	40	0	1297088512	40	5706
2026-01-19 19:33:13.94	358.62	18.39	-32.8	-33.4	26.3	0.00e+00	0	40	0	1319108608	40	5359
2026-01-19 19:33:17.98	357.78	18.63	-33.0	-33.6	26.0	0.00e+00	0	40	0	1342177280	38	6146
2026-01-19 19:33:22.01	356.93	18.87	-32.9	-33.5	26.3	0.00e+00	0	40	0	1365245952	38	6080
2026-01-19 19:33:26.05	356.07	19.10	-32.9	-33.6	26.4	0.00e+00	0	40	0	1388314624	38	6123
2026-01-19 19:33:30.09	355.19	19.33	-32.7	-33.4	26.5	0.00e+00	0	40	0	1410334720	38	5969
2026-01-19 19:33:34.13	354.29	19.55	-33.1	-33.7	26.3	0.00e+00	0	40	0	1433403392	38	6202
2026-01-19 19:33:38.17	353.39	19.77	-32.6	-33.3	26.7	0.00e+00	0	40	0	1456472064	38	5935
2026-01-19 19:33:42.21	352.47	19.98	-32.6	-33.3	26.5	0.00e+00	0	40	0	1478492160	38	5943
2026-01-19 19:33:46.25	351.54	20.18	-32.4	-33.1	26.7	0.00e+00	0	40	0	1501560832	38	5796
2026-01-19 19:33:50.30	350.59	20.38	-32.3	-33.0	26.9	0.00e+00	0	40	0	1524629504	38	5696
2026-01-19 19:33:54.34	349.63	20.57	-32.1	-32.6	27.1	0.00e+00	0	40	0	1546649600	38	5500
2026-01-19 19:33:58.38	348.66	20.76	-32.6	-33.2	26.6	0.00e+00	0	41	0	1569718272	38	5863
2026-01-19 19:34:02.42	347.68	20.94	-32.2	-32.8	27.0	0.00e+00	0	40	0	1592786944	38	5619
2026-01-19 19:34:06.46	346.69	21.11	-32.3	-33.0	26.9	0.00e+00	0	40	0	1614807040	38	5729
2026-01-19 19:34:10.50	345.69	21.27	-32.4	-33.0	26.7	0.00e+00	0	40	0	1637875712	38	5709
2026-01-19 19:34:14.54	344.68	21.42	-32.1	-32.7	27.1	0.00e+00	0	41	0	1660944384	38	5511
2026-01-19 19:34:18.59	343.65	21.57	-32.1	-32.8	27.0	0.00e+00	0	40	0	1682964480	38	5576
2026-01-19 19:34:22.63	342.62	21.70	-32.1	-32.8	27.0	0.00e+00	0	40	0	1706033152	38	5581
2026-01-19 19:34:26.67	341.58	21.83	-32.2	-32.8	27.0	0.00e+00	0	40	0	1729101824	38	5618
2026-01-19 19:34:30.71	340.53	21.94	-32.3	-32.9	26.8	0.00e+00	0	40	0	1751121920	38	5687
2026-01-19 19:34:34.75	339.47	22.05	-32.3	-33.0	27.0	0.00e+00	0	40	0	1774190592	38	5696
2026-01-19 19:34:38.79	338.41	22.15	-32.3	-32.9	27.0	0.00e+00	0	40	0	1797259264	38	5671
2026-01-19 19:34:42.83	337.34	22.23	-32.0	-32.6	27.2	0.00e+00	0	40	0	1819279360	38	5484
2026-01-19 19:34:46.87	336.26	22.31	-32.0	-32.6	27.2	0.00e+00	0	40	0	1842348032	38	5489
2026-01-19 19:34:50.91	335.18	22.37	-32.1	-32.7	27.1	0.00e+00	0	40	0	1865416704	38	5548
2026-01-19 19:34:54.94	334.10	22.43	-31.9	-32.6	27.2	0.00e+00	0	40	0	1887436800	38	5457
2026-01-19 19:34:58.98	333.01	22.47	-32.0	-32.7	27.3	0.00e+00	0	40	0	1910505472	38	5532
2026-01-19 19:35:03.02	331.92	22.50	-32.2	-32.9	27.1	0.00e+00	0	40	0	1933574144	38	5648
2026-01-19 19:35:07.06	330.83	22.52	-32.4	-33.1	27.0	0.00e+00	0	40	0	1955594240	38	5766
2026-01-19 19:35:11.11	329.73	22.53	-31.9	-32.5	27.4	0.00e+00	0	40	0	1978662912	38	5399
2026-01-19 19:35:15.15	328.64	22.53	-32.1	-32.7	27.3	0.00e+00	0	40	0	2001731584	38	5544
2026-01-19 19:35:19.19	327.54	22.52	-32.0	-32.6	27.3	0.00e+00	0	40	0	2023751680	38	5471
2026-01-19 19:35:23.23	326.45	22.49	-32.4	-33.0	27.1	0.00e+00	0	40	0	2046820352	38	5743
2026-01-19 19:35:27.27	325.36	22.46	-32.2	-32.9	27.0	0.00e+00	0	40	0	2069889024	38	5635
2026-01-19 19:35:31.31	324.27	22.41	-32.0	-32.6	27.4	0.00e+00	0	40	0	2092957696	38	5470
2026-01-19 19:35:35.34	323.19	22.36	-32.1	-32.8	27.2	0.00e+00	0	40	0	2114977792	38	5617
2026-01-19 19:35:39.39	322.10	22.29	-32.4	-33.0	27.1	0.00e+00	0	40	0	2138046464	38	5720
2026-01-19 19:35:43.43	321.03	22.21	-32.1	-32.7	27.3	0.00e+00	0	40	0	2160066560	38	5520
2026-01-19 19:35:47.46	319.96	22.12	-32.2	-32.8	27.4	0.00e+00	0	40	0	2183135232	38	5601
2026-01-19 19:35:51.50	318.90	22.02	-32.4	-33.0	27.3	0.00e+00	0	41	0	2206203904	38	5741
2026-01-19 19:35:55.54	317.84	21.91	-32.4	-33.1	27.1	0.00e+00	0	40	0	2228224000	38	5792
2026-01-19 19:35:59.58	316.80	21.79	-32.5	-33.2	27.2	0.00e+00	0	40	0	2251292672	38	5888
2026-01-19 19:36:03.63	315.75	21.67	-32.4	-33.1	27.3	0.00e+00	0	41	0	2274361344	38	5779
2026-01-19 19:36:07.67	314.72	21.53	-32.4	-33.0	27.1	0.00e+00	0	40	0	2297430016	38	5729
2026-01-19 19:36:11.71	313.70	21.38	-32.4	-32.9	27.1	0.00e+00	0	40	0	2319450112	38	5691
2026-01-19 19:36:15.75	312.69	21.23	-32.5	-33.1	27.0	0.00e+00	0	40	0	2342518784	38	5801
2026-01-19 19:36:19.77	311.69	21.06	-32.7	-33.3	27.0	0.00e+00	0	40	0	2364538880	38	5921
2026-01-19 19:36:23.81	310.70	20.89	-33.0	-33.6	26.7	0.00e+00	0	40	0	2387607552	38	6171
2026-01-19 19:36:27.86	309.72	20.71	-32.6	-33.1	27.1	0.00e+00	0	40	0	2410676224	38	5826
2026-01-19 19:36:31.90	308.76	20.52	-33.4	-34.1	26.5	0.00e+00	0	40	0	2433744896	38	6482
2026-01-19 19:36:35.94	307.80	20.33	-33.2	-33.8	26.6	0.00e+00	0	40	0	2455764992	40	5579
2026-01-19 19:36:39.97	306.86	20.13	-33.0	-33.6	26.6	0.00e+00	0	40	0	2478833664	40	5497
2026-01-19 19:36:44.01	305.93	19.92	-33.1	-33.7	26.8	0.00e+00	0	40	0	2501902336	38	6176
2026-01-19 19:36:48.05	305.01	19.71	-33.3	-34.0	26.7	0.00e+00	0	40	0	2523922432	38	6412
2026-01-19 19:36:52.09	304.11	19.49	-33.5	-34.2	26.6	0.00e+00	0	40	0	2546991104	38	6543
2026-01-19 19:36:56.13	303.22	19.27	-33.4	-34.0	26.5	0.00e+00	0	40	0	2569011200	38	6412
2026-01-19 19:37:00.17	302.34	19.04	-33.1	-33.7	26.5	0.00e+00	0	40	0	2592079872	38	6239
2026-01-19 19:37:04.21	301.47	18.80	-33.2	-33.8	26.4	0.00e+00	0	40	0	2615148544	38	6301
2026-01-19 19:37:08.25	300.62	18.56	-33.1	-33.8	26.5	0.00e+00	0	40	0	2638217216	38	6301
2026-01-19 19:37:12.29	299.78	18.32	-33.1	-33.7	26.5	0.00e+00	0	40	0	2660237312	38	6203
2026-01-19 19:37:16.33	298.96	18.07	-33.3	-34.0	26.5	0.00e+00	0	40	0	2683305984	38	6431
2026-01-19 19:37:20.37	298.15	17.82	-33.2	-33.8	26.3	0.00e+00	0	41	0	2706374656	38	6304
2026-01-19 19:37:24.42	297.35	17.57	-33.7	-34.4	26.0	0.00e+00	0	41	0	2728394752	40	6024
2026-01-19 19:37:28.46	296.56	17.31	-33.5	-34.1	26.0	0.00e+00	0	41	0	2751463424	40	5785
2026-01-19 19:37:32.50	295.79	17.05	-33.9	-34.5	25.6	0.00e+00	0	41	0	2774532096	40	6075
2026-01-19 19:37:36.54	295.04	16.79	-33.4	-34.1	26.0	0.00e+00	0	40	0	2796552192	40	5765
2026-01-19 19:37:40.58	294.29	16.53	-33.6	-34.2	25.6	0.00e+00	0	40	0	2819620864	40	5865
2026-01-19 19:37:44.62	293.56	16.26	-33.3	-33.8	26.0	0.00e+00	0	41	0	2842689536	40	5617
2026-01-19 19:37:48.66	292.84	15.99	-33.9	-34.5	25.4	0.00e+00	0	40	0	2864709632	40	6088
2026-01-19 19:37:52.70	292.14	15.73	-33.7	-34.4	25.7	0.00e+00	0	40	0	2887778304	40	5994
2026-01-19 19:37:56.74	291.45	15.46	-33.7	-34.4	25.5	0.00e+00	0	40	0	2910846976	40	5997
2026-01-19 19:38:00.78	290.77	15.18	-33.7	-34.3	25.7	0.00e+00	0	40	0	2933915648	40	5924
2026-01-19 19:38:04.83	290.10	14.91	-33.6	-34.2	25.6	0.00e+00	0	40	0	2955935744	40	5840
2026-01-19 19:38:08.87	289.45	14.64	-34.0	-34.6	25.4	0.00e+00	0	40	0	2979004416	40	6164
2026-01-19 19:38:12.91	288.80	14.36	-33.7	-34.2	25.6	0.00e+00	0	40	0	3001024512	40	5892
2026-01-19 19:38:16.95	288.17	14.09	-34.2	-34.9	25.1	0.00e+00	0	40	0	3024093184	40	6381
2026-01-19 19:38:20.99	287.55	13.81	-34.2	-34.8	25.1	0.00e+00	0	41	0	3047161856	40	6298
2026-01-19 19:38:25.03	286.95	13.54	-34.4	-35.0	24.8	0.00e+00	0	41	0	3069181952	40	6456
2026-01-19 19:38:29.07	286.35	13.26	-34.7	-35.4	24.7	0.00e+00	0	41	0	3092250624	42	5974
2026-01-19 19:38:33.11	285.76	12.99	-34.9	-35.5	24.5	0.00e+00	0	41	0	3115319296	42	6095
2026-01-19 19:38:37.15	285.19	12.71	-34.9	-35.7	24.4	0.00e+00	0	40	0	3138387968	42	6184
2026-01-19 19:38:41.19	284.63	12.44	-34.4	-35.2	24.8	0.00e+00	0	41	0	3160408064	42	5843
2026-01-19 19:38:45.23	284.08	12.17	-34.7	-35.4	24.6	0.00e+00	0	41	0	3183476736	42	6026
2026-01-19 19:38:49.27	283.53	11.89	-35.0	-35.7	24.3	0.00e+00	0	40	0	3205496832	42	6178
2026-01-19 19:38:53.31	283.00	11.62	-34.9	-35.5	24.3	0.00e+00	0	41	0	3228565504	42	6103
2026-01-19 19:38:57.35	282.48	11.35	-35.3	-36.1	23.8	0.00e+00	0	41	0	3251634176	42	6522
2026-01-19 19:39:01.39	281.97	11.08	-35.2	-35.8	24.1	0.00e+00	0	41	0	3274702848	42	6282
2026-01-19 19:39:05.44	281.46	10.80	-35.3	-35.9	24.0	0.00e+00	0	41	0	3296722944	42	6345
2026-01-19 19:39:09.48	280.97	10.53	-35.3	-36.1	23.9	0.00e+00	0	41	0	3319791616	42	6498
2026-01-19 19:39:13.52	280.49	10.26	-35.4	-36.2	23.8	0.00e+00	0	41	0	3342860288	42	6568
2026-01-19 19:39:17.56	280.01	10.00	-35.4	-36.2	23.7	0.00e+00	0	41	0	3364880384	42	6582
2026-01-19 19:39:21.60	279.55	9.73	-35.4	-36.1	23.7	0.00e+00	0	41	0	3387949056	44	5795
2026-01-19 19:39:25.64	279.09	9.46	-35.9	-36.6	23.2	0.00e+00	0	40	0	3411017728	44	6115
2026-01-19 19:39:29.68	278.64	9.20	-36.0	-36.8	23.1	0.00e+00	0	41	0	3433037824	44	6276
2026-01-19 19:39:33.72	278.20	8.93	-36.2	-36.9	22.8	0.00e+00	0	41	0	3456106496	44	6363
2026-01-19 19:39:37.76	277.77	8.67	-35.9	-36.6	23.0	0.00e+00	0	41	0	3479175168	44	6139
2026-01-19 19:39:41.80	277.34	8.41	-36.5	-37.3	22.5	0.00e+00	0	41	0	3501195264	44	6682
2026-01-19 19:39:45.83	276.92	8.15	-36.4	-37.2	22.7	0.00e+00	0	41	0	3524263936	46	5835
2026-01-19 19:39:49.87	276.51	7.89	-37.1	-37.8	21.9	0.00e+00	0	41	0	3547332608	46	6280
2026-01-19 19:39:53.91	276.11	7.63	-36.2	-36.9	22.7	0.00e+00	0	40	0	3569352704	46	5678
2026-01-19 19:39:57.94	275.72	7.38	-36.7	-37.5	22.2	0.00e+00	0	41	0	3592421376	46	6038
2026-01-19 19:40:01.98	275.33	7.12	-36.4	-37.1	22.6	0.00e+00	0	41	0	3615490048	46	5788
2026-01-19 19:40:06.02	274.95	6.87	-36.4	-37.2	22.5	0.00e+00	0	41	0	3637510144	46	5879
2026-01-19 19:40:10.06	274.58	6.62	-36.9	-37.7	22.0	0.00e+00	0	41	0	3660578816	46	6189
2026-01-19 19:40:14.10	274.21	6.36	-36.6	-37.4	22.3	0.00e+00	0	41	0	3683647488	46	6026
2026-01-19 19:40:18.15	273.85	6.11	-36.7	-37.6	22.0	0.00e+00	0	41	0	3705667584	46	6157
2026-01-19 19:40:22.19	273.49	5.87	-36.8	-37.7	21.9	0.00e+00	0	41	0	3728736256	46	6207
2026-01-19 19:40:26.23	273.14	5.62	-37.0	-37.9	21.6	0.00e+00	0	41	0	3750756352	46	6383
2026-01-19 19:40:30.27	272.80	5.37	-37.0	-37.8	21.7	0.00e+00	0	41	0	3773825024	46	6264
2026-01-19 19:40:34.31	272.46	5.13	-37.4	-38.2	21.3	0.00e+00	0	41	0	3796893696	46	6579
2026-01-19 19:40:38.35	272.13	4.88	-37.7	-38.6	21.0	0.00e+00	0	41	0	3819962368	48	6121
2026-01-19 19:40:42.39	271.81	4.64	-37.3	-38.2	21.1	0.00e+00	0	41	0	3841982464	46	6575
2026-01-19 19:40:46.42	271.49	4.40	-37.1	-37.9	21.5	0.00e+00	0	41	0	3865051136	46	6324
2026-01-19 19:40:50.46	271.18	4.16	-36.5	-37.4	21.9	0.00e+00	0	41	0	3888119808	46	6000
2026-01-19 19:40:54.50	270.87	3.92	-37.9	-38.8	20.5	0.00e+00	0	41	0	3910139904	48	6297
2026-01-19 19:40:58.54	270.56	3.69	-38.1	-39.1	20.4	0.00e+00	0	41	0	3933208576	48	6528
2026-01-19 19:41:02.58	270.26	3.45	-37.4	-38.3	20.9	0.00e+00	0	41	0	3956277248	50	5313
2026-01-19 19:41:06.62	269.97	3.22	-39.6	-40.8	18.4	0.00e+00	0	41	0	3978297344	50	7024
2026-01-19 19:41:10.66	269.68	2.99	-48.3	-60.3	3.6	1.14e-05	0	41	104	4000317440	60	37257
2026-01-19 19:41:14.71	269.40	2.75	-49.6	-61.7	3.6	8.45e-01	0	41	104	4000317440	60	43811
2026-01-19 19:41:18.75	269.12	2.52	-49.8	-61.9	3.6	8.47e-01	0	41	104	4000317440	60	45110
2026-01-19 19:41:22.79	268.84	2.29	-49.9	-62.0	3.6	8.44e-01	0	41	104	4000317440	60	45277
2026-01-19 19:41:26.83	268.57	2.07	-49.5	-61.9	3.6	8.45e-01	0	41	104	4000317440	60	45111
2026-01-19 19:41:30.86	268.30	1.84	-49.6	-61.9	3.6	8.45e-01	0	41	104	4000317440	60	45082
2026-01-19 19:41:34.90	268.04	1.61	-50.2	-62.4	3.6	8.45e-01	0	41	104	4000317440	60	47412
2026-01-19 19:41:38.94	267.78	1.39	-50.3	-62.4	3.6	8.46e-01	0	41	104	4000317440	60	47866
2026-01-19 19:41:42.98	267.53	1.17	-50.7	-62.8	3.6	8.45e-01	0	41	104	4000317440	60	49965
2026-01-19 19:41:47.02	267.28	0.94	-51.0	-63.1	3.6	8.45e-01	0	41	104	4000317440	60	51600
2026-01-19 19:41:51.06	267.03	0.72	-50.5	-62.6	3.6	8.45e-01	0	41	104	4000317440	60	48683
2026-01-19 19:41:55.10	266.79	0.50	-50.6	-62.8	3.6	8.46e-01	0	41	104	4000317440	60	49614
2026-01-19 19:41:59.13	266.55	0.29	-51.0	-63.1	3.6	8.46e-01	0	41	104	4000317440	60	51472
2026-01-19 19:42:03.17	266.32	0.07	-50.9	-63.1	3.6	8.44e-01	0	41	104	4000317440	60	51511

#Closed at: 2026-01-19 19:42:05
#Recorded file [4000 MB]: D:/lorett/data/35029_260120_072823.dat