passes_logs/2026/01/19/R4.6S_Anadyr/R4.6S_Anadyr__20260119_182934_SUOMI_NPP_rec.log

#Pass ID: 20260119_182934_SUOMI NPP
#Satellite: SUOMI NPP
#Configuration: NPP
#almurnet v.1.7.20251203
#Start time: 2026-01-19 18:29:37

#Version: 2.2.20231116
#Station: R4.6S_Anadyr
#Location: 177.4865 lon 64.73178 lat
#TLE: 1 37849U 11061A   26019.26265094  .00000081  00000+0  59609-4 0  9993
#TLE: 2 37849  98.7817 321.2746 0002356  56.2510 303.8890 14.19526363737315

#Time	Az	El	Level	Level2	SNR	BER	BlckErr	Temp	State	Recorded	gain1	gain2
2026-01-19 18:29:37.64	40.34	0.14	-50.1	-61.8	3.5	8.46e-01	0	37	0	0	60	44325
2026-01-19 18:29:40.67	40.12	0.29	-52.0	-67.2	3.6	1.51e+00	0	38	104	0	60	83261
2026-01-19 18:29:43.70	39.91	0.45	-51.8	-67.0	3.6	1.51e+00	0	38	104	0	60	80809
2026-01-19 18:29:46.73	39.68	0.60	-50.7	-65.9	3.6	1.51e+00	0	39	104	0	60	71564
2026-01-19 18:29:49.75	39.46	0.75	-50.2	-65.3	3.6	1.51e+00	0	39	104	0	60	66726
2026-01-19 18:29:52.78	39.24	0.90	-49.6	-64.8	3.6	1.51e+00	0	39	104	0	60	62758
2026-01-19 18:29:55.81	39.01	1.06	-49.5	-64.7	3.6	1.51e+00	0	39	104	0	60	62435
2026-01-19 18:29:58.83	38.78	1.21	-49.4	-64.6	3.6	1.51e+00	0	39	104	0	60	61314
2026-01-19 18:30:01.86	38.55	1.36	-49.1	-64.3	3.6	1.51e+00	0	39	104	0	60	59056
2026-01-19 18:30:04.89	38.31	1.52	-48.4	-63.6	3.6	1.51e+00	0	39	104	0	60	54482
2026-01-19 18:30:07.92	38.07	1.67	-47.8	-63.0	3.6	1.51e+00	0	39	104	0	60	50814
2026-01-19 18:30:10.95	37.83	1.83	-47.8	-63.0	3.6	1.51e+00	0	39	104	0	60	50879
2026-01-19 18:30:13.99	37.59	1.99	-47.8	-62.8	3.6	1.51e+00	0	39	104	0	60	49769
2026-01-19 18:30:17.01	37.34	2.14	-47.8	-62.6	3.6	1.51e+00	0	39	104	0	60	48807
2026-01-19 18:30:20.04	37.09	2.30	-47.8	-63.0	3.6	1.51e+00	0	39	104	0	60	51239
2026-01-19 18:30:23.07	36.84	2.45	-47.8	-63.0	3.6	1.51e+00	0	39	104	0	60	50808
2026-01-19 18:30:26.10	36.59	2.61	-47.8	-62.8	3.6	1.51e+00	0	39	104	0	60	49725
2026-01-19 18:30:29.13	36.33	2.77	-47.8	-62.0	3.6	1.50e+00	0	39	104	0	60	45286
2026-01-19 18:30:32.16	36.07	2.93	-47.6	-59.5	3.7	1.51e+00	0	39	104	0	60	34244
2026-01-19 18:30:35.19	35.81	3.09	-46.5	-52.1	9.2	7.27e-02	0	39	0	3145728	60	14560
2026-01-19 18:30:38.22	35.54	3.24	-47.7	-62.5	3.6	9.79e-01	0	39	104	4194304	60	48067
2026-01-19 18:30:41.25	35.27	3.40	-45.0	-48.5	13.5	7.00e-07	0	39	0	5242880	60	9641
2026-01-19 18:30:44.28	35.00	3.56	-44.8	-48.0	13.6	5.30e-06	0	39	0	10485760	60	9123
2026-01-19 18:30:47.31	34.73	3.72	-44.5	-47.5	14.8	1.50e-06	0	39	0	16777216	60	8527
2026-01-19 18:30:50.34	34.45	3.88	-45.1	-48.5	14.0	7.00e-07	0	39	0	22020096	60	9591
2026-01-19 18:30:53.37	34.17	4.04	-44.4	-47.0	14.9	0.00e+00	0	39	0	28311552	60	8109
2026-01-19 18:30:56.39	33.88	4.20	-44.6	-47.4	15.0	0.00e+00	0	39	0	33554432	60	8491
2026-01-19 18:30:59.42	33.60	4.36	-44.2	-46.7	16.3	0.00e+00	0	39	0	38797312	60	7788
2026-01-19 18:31:02.45	33.31	4.52	-43.5	-45.7	17.0	0.00e+00	0	39	0	45088768	60	6935
2026-01-19 18:31:05.48	33.01	4.68	-42.6	-44.5	17.8	0.00e+00	0	39	0	50331648	58	6775
2026-01-19 18:31:08.51	32.71	4.84	-42.7	-44.6	17.5	0.00e+00	0	39	0	56623104	58	6864
2026-01-19 18:31:11.54	32.41	5.01	-43.6	-45.7	16.5	0.00e+00	0	39	0	61865984	58	7837
2026-01-19 18:31:14.57	32.11	5.17	-42.9	-44.8	17.6	0.00e+00	0	39	0	68157440	58	7060
2026-01-19 18:31:17.60	31.80	5.33	-43.1	-45.0	17.4	0.00e+00	0	39	0	73400320	58	7253
2026-01-19 18:31:20.63	31.49	5.49	-43.3	-45.3	17.0	0.00e+00	0	39	0	78643200	58	7473
2026-01-19 18:31:23.66	31.17	5.66	-42.9	-44.8	17.7	0.00e+00	0	39	0	84934656	58	7045
2026-01-19 18:31:26.69	30.85	5.82	-42.4	-44.1	18.3	0.00e+00	0	39	0	90177536	58	6515
2026-01-19 18:31:29.72	30.53	5.98	-42.7	-44.5	18.1	0.00e+00	0	39	0	96468992	58	6771
2026-01-19 18:31:32.75	30.20	6.14	-42.7	-44.5	18.0	0.00e+00	0	39	0	101711872	58	6810
2026-01-19 18:31:35.77	29.87	6.31	-42.7	-44.6	18.3	0.00e+00	0	39	0	106954752	58	6849
2026-01-19 18:31:38.80	29.54	6.47	-42.1	-43.8	18.8	0.00e+00	0	39	0	113246208	58	6246
2026-01-19 18:31:41.83	29.20	6.63	-42.5	-44.3	18.3	0.00e+00	0	39	0	118489088	58	6655
2026-01-19 18:31:44.86	28.86	6.80	-42.4	-44.1	18.6	0.00e+00	0	39	0	124780544	58	6479
2026-01-19 18:31:47.89	28.51	6.96	-42.1	-43.7	18.9	0.00e+00	0	39	0	130023424	58	6196
2026-01-19 18:31:50.92	28.17	7.12	-42.0	-43.5	18.9	0.00e+00	0	39	0	136314880	58	6100
2026-01-19 18:31:53.95	27.81	7.29	-42.2	-43.9	18.8	0.00e+00	0	39	0	141557760	58	6328
2026-01-19 18:31:56.98	27.45	7.45	-42.3	-43.9	18.6	0.00e+00	0	39	0	146800640	58	6381
2026-01-19 18:32:00.01	27.09	7.61	-41.8	-43.3	19.3	0.00e+00	0	39	0	153092096	58	5959
2026-01-19 18:32:03.04	26.72	7.78	-41.7	-43.2	19.5	0.00e+00	0	39	0	158334976	56	6576
2026-01-19 18:32:06.07	26.35	7.94	-41.3	-42.6	20.0	0.00e+00	0	39	0	164626432	56	6159
2026-01-19 18:32:09.10	25.98	8.10	-41.3	-42.7	19.9	0.00e+00	0	39	0	169869312	56	6220
2026-01-19 18:32:12.13	25.60	8.27	-41.3	-42.6	20.0	0.00e+00	0	39	0	175112192	56	6152
2026-01-19 18:32:15.16	25.22	8.43	-41.5	-43.0	19.7	0.00e+00	0	39	0	181403648	56	6404
2026-01-19 18:32:18.19	24.83	8.59	-41.4	-42.8	20.0	0.00e+00	0	39	0	186646528	56	6248
2026-01-19 18:32:21.22	24.44	8.75	-41.6	-43.0	19.8	0.00e+00	0	39	0	192937984	56	6412
2026-01-19 18:32:24.25	24.04	8.92	-41.6	-43.0	19.8	0.00e+00	0	39	0	198180864	56	6427
2026-01-19 18:32:27.27	23.64	9.08	-41.5	-42.9	19.9	0.00e+00	0	39	0	204472320	56	6347
2026-01-19 18:32:30.30	23.23	9.24	-41.6	-43.0	19.7	0.00e+00	0	40	0	209715200	56	6400
2026-01-19 18:32:33.32	22.82	9.40	-41.9	-43.3	19.5	0.00e+00	0	39	0	214958080	56	6691
2026-01-19 18:32:36.35	22.41	9.56	-41.5	-42.9	19.9	0.00e+00	0	39	0	221249536	56	6346
2026-01-19 18:32:39.37	21.99	9.72	-41.6	-43.0	19.7	0.00e+00	0	40	0	226492416	56	6411
2026-01-19 18:32:42.41	21.56	9.88	-41.7	-43.1	19.7	0.00e+00	0	40	0	232783872	56	6489
2026-01-19 18:32:45.44	21.13	10.04	-41.3	-42.6	20.1	0.00e+00	0	39	0	238026752	56	6167
2026-01-19 18:32:48.47	20.70	10.20	-41.6	-43.0	19.9	0.00e+00	0	40	0	243269632	56	6410
2026-01-19 18:32:51.50	20.26	10.36	-41.8	-43.2	19.6	0.00e+00	0	40	0	249561088	56	6615
2026-01-19 18:32:54.52	19.82	10.51	-42.0	-43.5	19.4	0.00e+00	0	40	0	254803968	56	6811
2026-01-19 18:32:57.55	19.37	10.67	-42.0	-43.6	19.3	0.00e+00	0	39	0	261095424	56	6861
2026-01-19 18:33:00.58	18.91	10.83	-41.4	-42.8	20.0	0.00e+00	0	40	0	266338304	56	6307
2026-01-19 18:33:03.61	18.46	10.98	-41.4	-42.7	20.1	0.00e+00	0	40	0	272629760	56	6223
2026-01-19 18:33:06.64	17.99	11.14	-41.1	-42.4	20.4	0.00e+00	0	40	0	277872640	56	5994
2026-01-19 18:33:09.67	17.52	11.29	-40.6	-41.8	21.0	0.00e+00	0	40	0	283115520	56	5626
2026-01-19 18:33:12.70	17.05	11.44	-40.5	-41.7	20.9	0.00e+00	0	40	0	289406976	54	6224
2026-01-19 18:33:15.73	16.57	11.60	-40.3	-41.5	21.2	0.00e+00	0	40	0	294649856	54	6066
2026-01-19 18:33:18.76	16.09	11.75	-39.7	-40.7	21.8	0.00e+00	0	40	0	300941312	52	6225
2026-01-19 18:33:21.79	15.60	11.90	-39.7	-40.8	21.8	0.00e+00	0	40	0	306184192	52	6264
2026-01-19 18:33:24.82	15.10	12.04	-39.6	-40.7	21.9	0.00e+00	0	40	0	311427072	52	6217
2026-01-19 18:33:27.85	14.61	12.19	-40.3	-41.5	21.2	0.00e+00	0	40	0	317718528	52	6804
2026-01-19 18:33:30.88	14.10	12.34	-39.7	-40.8	21.8	0.00e+00	0	40	0	322961408	52	6288
2026-01-19 18:33:33.91	13.59	12.48	-39.6	-40.7	22.0	0.00e+00	0	40	0	329252864	52	6182
2026-01-19 18:33:36.94	13.08	12.62	-39.6	-40.7	21.9	0.00e+00	0	40	0	334495744	52	6223
2026-01-19 18:33:39.97	12.56	12.77	-39.6	-40.7	22.0	0.00e+00	0	40	0	340787200	52	6184
2026-01-19 18:33:42.99	12.04	12.91	-39.7	-40.8	21.9	0.00e+00	0	40	0	346030080	52	6304
2026-01-19 18:33:46.02	11.51	13.04	-40.1	-41.2	21.5	0.00e+00	0	40	0	351272960	52	6608
2026-01-19 18:33:49.05	10.97	13.18	-40.1	-41.3	21.4	0.00e+00	0	40	0	357564416	52	6672
2026-01-19 18:33:52.08	10.43	13.32	-38.9	-39.9	22.7	0.00e+00	0	40	0	362807296	52	5686
2026-01-19 18:33:55.10	9.89	13.45	-38.5	-39.4	23.0	0.00e+00	0	40	0	369098752	50	6026
2026-01-19 18:33:58.13	9.34	13.58	-38.4	-39.3	23.1	0.00e+00	0	40	0	374341632	50	5934
2026-01-19 18:34:01.16	8.78	13.71	-39.2	-40.2	22.2	0.00e+00	0	40	0	379584512	50	6579
2026-01-19 18:34:04.19	8.23	13.84	-39.3	-40.4	22.2	0.00e+00	0	40	0	385875968	50	6711
2026-01-19 18:34:07.22	7.66	13.96	-39.6	-40.7	22.0	0.00e+00	0	40	0	391118848	50	6955
2026-01-19 18:34:10.25	7.09	14.09	-39.3	-40.3	22.4	0.00e+00	0	40	0	397410304	52	5929
2026-01-19 18:34:13.28	6.52	14.21	-39.8	-40.9	21.8	0.00e+00	0	40	0	402653184	52	6340
2026-01-19 18:34:16.31	5.94	14.32	-40.3	-41.5	21.3	0.00e+00	0	40	0	408944640	52	6831
2026-01-19 18:34:19.33	5.36	14.44	-39.5	-40.6	22.2	0.00e+00	0	40	0	414187520	52	6159
2026-01-19 18:34:22.37	4.77	14.55	-39.5	-40.6	22.2	0.00e+00	0	40	0	419430400	52	6116
2026-01-19 18:34:25.40	4.18	14.67	-39.0	-40.1	22.6	0.00e+00	0	40	0	425721856	52	5768
2026-01-19 18:34:28.43	3.58	14.77	-38.9	-39.9	22.5	0.00e+00	0	40	0	430964736	50	6390
2026-01-19 18:34:31.46	2.98	14.88	-39.3	-40.3	22.4	0.00e+00	0	40	0	437256192	50	6653
2026-01-19 18:34:34.49	2.37	14.98	-38.8	-39.8	22.8	0.00e+00	0	40	0	442499072	50	6279
2026-01-19 18:34:37.52	1.76	15.08	-39.1	-40.1	22.5	0.00e+00	0	40	0	447741952	50	6529
2026-01-19 18:34:40.55	1.15	15.18	-38.9	-39.9	22.1	0.00e+00	0	40	0	454033408	50	6352
2026-01-19 18:34:43.57	0.53	15.28	-38.7	-39.6	23.0	0.00e+00	0	40	0	459276288	50	6137
2026-01-19 18:34:46.60	359.91	15.37	-38.6	-39.5	23.0	0.00e+00	0	40	0	465567744	50	6081
2026-01-19 18:34:49.63	359.29	15.46	-38.5	-39.5	23.2	0.00e+00	0	40	0	470810624	50	6048
2026-01-19 18:34:52.66	358.66	15.54	-39.1	-40.1	22.3	0.00e+00	0	40	0	477102080	50	6493
2026-01-19 18:34:55.69	358.02	15.62	-38.8	-39.8	22.9	0.00e+00	0	40	0	482344960	50	6248
2026-01-19 18:34:58.71	357.39	15.70	-38.7	-39.7	22.9	0.00e+00	0	40	0	487587840	50	6183
2026-01-19 18:35:01.74	356.75	15.78	-39.5	-40.5	22.2	0.00e+00	0	40	0	493879296	50	6840
2026-01-19 18:35:04.77	356.11	15.85	-38.9	-39.9	22.6	0.00e+00	0	40	0	499122176	50	6360
2026-01-19 18:35:07.80	355.46	15.92	-39.3	-40.4	22.3	0.00e+00	0	40	0	505413632	50	6705
2026-01-19 18:35:10.83	354.81	15.98	-39.5	-40.6	22.1	0.00e+00	0	40	0	510656512	52	6107
2026-01-19 18:35:13.86	354.16	16.04	-39.0	-40.0	22.7	0.00e+00	0	40	0	515899392	52	5707
2026-01-19 18:35:16.89	353.51	16.10	-39.0	-40.0	22.7	0.00e+00	0	40	0	522190848	50	6447
2026-01-19 18:35:19.92	352.85	16.16	-38.6	-39.6	22.9	0.00e+00	0	40	0	527433728	50	6142
2026-01-19 18:35:22.95	352.19	16.21	-38.4	-39.3	23.2	0.00e+00	0	40	0	533725184	50	5963
2026-01-19 18:35:25.97	351.53	16.25	-38.9	-39.9	22.7	0.00e+00	0	40	0	538968064	50	6336
2026-01-19 18:35:29.00	350.87	16.30	-39.0	-40.0	22.6	0.00e+00	0	40	0	544210944	50	6391
2026-01-19 18:35:32.03	350.20	16.33	-39.3	-40.3	22.3	0.00e+00	0	40	0	550502400	50	6639
2026-01-19 18:35:35.05	349.54	16.37	-39.8	-41.0	21.8	0.00e+00	0	40	0	555745280	52	6392
2026-01-19 18:35:38.09	348.87	16.40	-39.9	-41.0	21.9	0.00e+00	0	40	0	562036736	52	6442
2026-01-19 18:35:41.12	348.20	16.43	-39.8	-40.9	21.9	0.00e+00	0	40	0	567279616	52	6355
2026-01-19 18:35:44.15	347.53	16.45	-39.6	-40.6	22.1	0.00e+00	0	40	0	573571072	52	6167
2026-01-19 18:35:47.18	346.86	16.47	-39.5	-40.6	22.1	0.00e+00	0	40	0	578813952	52	6132
2026-01-19 18:35:50.21	346.19	16.49	-39.4	-40.4	22.4	0.00e+00	0	40	0	584056832	52	6021
2026-01-19 18:35:53.23	345.52	16.50	-39.1	-40.1	22.6	0.00e+00	0	40	0	590348288	52	5805
2026-01-19 18:35:56.26	344.84	16.50	-39.5	-40.5	22.2	0.00e+00	0	40	0	595591168	52	6085
2026-01-19 18:35:59.29	344.17	16.51	-39.5	-40.6	22.2	0.00e+00	0	40	0	601882624	52	6118
2026-01-19 18:36:02.32	343.49	16.51	-39.6	-40.7	22.3	0.00e+00	0	40	0	607125504	52	6176
2026-01-19 18:36:05.35	342.82	16.50	-39.1	-40.1	22.7	0.00e+00	0	40	0	612368384	52	5798
2026-01-19 18:36:08.37	342.15	16.49	-38.7	-39.7	23.0	0.00e+00	0	40	0	618659840	50	6217
2026-01-19 18:36:11.40	341.48	16.48	-38.8	-39.8	22.8	0.00e+00	0	40	0	623902720	50	6308
2026-01-19 18:36:14.43	340.80	16.46	-39.1	-40.2	22.3	0.00e+00	0	40	0	630194176	50	6586
2026-01-19 18:36:17.46	340.13	16.44	-39.8	-41.0	21.7	0.00e+00	0	40	0	635437056	52	6417
2026-01-19 18:36:20.47	339.47	16.42	-40.2	-41.4	21.6	0.00e+00	0	40	0	641728512	52	6727
2026-01-19 18:36:23.50	338.80	16.39	-39.9	-41.1	21.9	0.00e+00	0	40	0	646971392	52	6506
2026-01-19 18:36:26.53	338.13	16.36	-39.4	-40.6	22.4	0.00e+00	0	40	0	652214272	52	6111
2026-01-19 18:36:29.56	337.46	16.32	-39.3	-40.3	22.4	0.00e+00	0	40	0	658505728	52	5959
2026-01-19 18:36:32.59	336.80	16.28	-39.6	-40.7	22.0	0.00e+00	0	40	0	663748608	52	6178
2026-01-19 18:36:35.61	336.14	16.23	-39.6	-40.7	22.1	0.00e+00	0	40	0	670040064	52	6183
2026-01-19 18:36:38.64	335.48	16.19	-38.9	-39.9	22.8	0.00e+00	0	40	0	675282944	52	5642
2026-01-19 18:36:41.67	334.82	16.13	-38.8	-39.8	22.6	0.00e+00	0	40	0	680525824	50	6278
2026-01-19 18:36:44.70	334.17	16.08	-39.2	-40.2	22.5	0.00e+00	0	40	0	686817280	50	6587
2026-01-19 18:36:47.73	333.51	16.02	-38.9	-39.9	22.7	0.00e+00	0	40	0	692060160	50	6352
2026-01-19 18:36:50.76	332.86	15.96	-39.1	-40.2	22.5	0.00e+00	0	40	0	698351616	50	6555
2026-01-19 18:36:53.78	332.22	15.89	-39.4	-40.5	22.3	0.00e+00	0	40	0	703594496	50	6801
2026-01-19 18:36:56.81	331.57	15.82	-39.5	-40.6	22.2	0.00e+00	0	40	0	709885952	50	6906
2026-01-19 18:36:59.83	330.93	15.75	-39.6	-40.7	22.4	0.00e+00	0	40	0	715128832	50	6936
2026-01-19 18:37:02.86	330.29	15.67	-39.3	-40.3	22.5	0.00e+00	0	40	0	720371712	50	6668
2026-01-19 18:37:05.89	329.66	15.59	-39.4	-40.4	22.5	0.00e+00	0	40	0	726663168	50	6700
2026-01-19 18:37:08.92	329.03	15.51	-38.9	-39.8	22.9	0.00e+00	0	40	0	731906048	50	6308
2026-01-19 18:37:11.95	328.40	15.42	-39.0	-39.9	22.8	0.00e+00	0	40	0	738197504	50	6366
2026-01-19 18:37:14.98	327.77	15.33	-39.2	-40.2	22.6	0.00e+00	0	40	0	743440384	50	6568
2026-01-19 18:37:18.01	327.15	15.24	-39.7	-40.7	22.2	0.00e+00	0	40	0	748683264	52	6221
2026-01-19 18:37:21.04	326.54	15.14	-39.9	-40.9	22.1	0.00e+00	0	40	0	754974720	52	6363
2026-01-19 18:37:24.07	325.92	15.04	-40.2	-41.4	21.7	0.00e+00	0	40	0	760217600	52	6700
2026-01-19 18:37:27.09	325.32	14.94	-40.2	-41.3	21.7	0.00e+00	0	40	0	766509056	52	6690
2026-01-19 18:37:30.12	324.71	14.84	-39.9	-40.9	22.0	0.00e+00	0	40	0	771751936	52	6386
2026-01-19 18:37:33.15	324.11	14.73	-39.5	-40.6	22.2	0.00e+00	0	40	0	778043392	52	6109
2026-01-19 18:37:36.17	323.52	14.62	-39.3	-40.4	22.4	0.00e+00	0	40	0	783286272	52	5970
2026-01-19 18:37:39.21	322.93	14.51	-38.9	-39.8	22.9	0.00e+00	0	40	0	788529152	52	5612
2026-01-19 18:37:42.23	322.34	14.39	-38.5	-39.4	23.2	0.00e+00	0	40	0	794820608	50	6022
2026-01-19 18:37:45.26	321.76	14.28	-39.0	-39.9	22.8	0.00e+00	0	40	0	800063488	50	6377
2026-01-19 18:37:48.29	321.18	14.16	-39.7	-40.7	22.2	0.00e+00	0	40	0	806354944	52	6221
2026-01-19 18:37:51.32	320.61	14.04	-39.8	-40.9	22.1	0.00e+00	0	40	0	811597824	52	6339
2026-01-19 18:37:54.35	320.04	13.91	-40.9	-42.1	21.0	0.00e+00	0	40	0	816840704	54	6495
2026-01-19 18:37:57.38	319.48	13.79	-40.5	-41.7	21.4	0.00e+00	0	40	0	823132160	54	6225
2026-01-19 18:38:00.41	318.92	13.66	-40.6	-41.7	21.5	0.00e+00	0	40	0	828375040	54	6217
2026-01-19 18:38:03.43	318.37	13.53	-40.5	-41.7	21.6	0.00e+00	0	40	0	834666496	54	6175
2026-01-19 18:38:06.46	317.82	13.40	-40.9	-42.1	21.1	0.00e+00	0	40	0	839909376	54	6513
2026-01-19 18:38:09.49	317.28	13.26	-41.0	-42.2	21.2	0.00e+00	0	40	0	845152256	54	6586
2026-01-19 18:38:12.51	316.74	13.13	-40.8	-42.0	21.2	0.00e+00	0	40	0	851443712	54	6408
2026-01-19 18:38:15.54	316.21	12.99	-40.4	-41.6	21.5	0.00e+00	0	40	0	856686592	54	6115
2026-01-19 18:38:18.57	315.68	12.85	-39.8	-40.9	22.0	0.00e+00	0	40	0	862978048	54	5640
2026-01-19 18:38:21.60	315.16	12.71	-39.8	-40.8	22.2	0.00e+00	0	40	0	868220928	52	6317
2026-01-19 18:38:24.63	314.64	12.57	-40.5	-41.6	21.6	0.00e+00	0	40	0	874512384	52	6926
2026-01-19 18:38:27.66	314.13	12.42	-41.2	-42.4	21.1	0.00e+00	0	40	0	879755264	54	6752
2026-01-19 18:38:30.69	313.62	12.28	-41.1	-42.3	21.1	0.00e+00	0	40	0	884998144	54	6679
2026-01-19 18:38:33.71	313.12	12.13	-40.4	-41.5	21.6	0.00e+00	0	40	0	891289600	54	6098
2026-01-19 18:38:36.74	312.62	11.98	-41.2	-42.3	21.1	0.00e+00	0	40	0	896532480	54	6684
2026-01-19 18:38:39.77	312.13	11.84	-42.5	-44.0	19.5	0.00e+00	0	40	0	902823936	56	7239
2026-01-19 18:38:42.80	311.64	11.69	-43.9	-45.9	17.8	0.00e+00	0	40	0	908066816	60	7131
2026-01-19 18:38:45.83	311.16	11.53	-43.2	-45.0	18.4	0.00e+00	0	40	0	913309696	60	6436
2026-01-19 18:38:48.86	310.68	11.38	-42.9	-44.4	19.3	0.00e+00	0	40	0	919601152	58	6757
2026-01-19 18:38:51.88	310.21	11.23	-42.2	-43.7	19.8	0.00e+00	0	40	0	924844032	58	6181
2026-01-19 18:38:54.91	309.74	11.08	-42.0	-43.3	20.7	0.00e+00	0	40	0	931135488	58	5898
2026-01-19 18:38:57.94	309.28	10.92	-41.4	-42.6	20.8	0.00e+00	0	40	0	936378368	56	6167
2026-01-19 18:39:00.97	308.82	10.76	-41.7	-42.9	20.6	0.00e+00	0	40	0	942669824	56	6374
2026-01-19 18:39:03.99	308.37	10.61	-41.8	-43.0	20.4	0.00e+00	0	40	0	947912704	56	6452
2026-01-19 18:39:07.02	307.92	10.45	-41.7	-42.9	20.9	0.00e+00	0	40	0	953155584	56	6389
2026-01-19 18:39:10.05	307.48	10.29	-41.0	-42.1	21.1	0.00e+00	0	40	0	959447040	54	6520
2026-01-19 18:39:13.08	307.04	10.14	-40.8	-42.0	21.3	0.00e+00	0	40	0	964689920	54	6406
2026-01-19 18:39:16.10	306.61	9.98	-41.0	-42.2	21.0	0.00e+00	0	40	0	970981376	54	6600
2026-01-19 18:39:19.13	306.18	9.82	-41.5	-42.8	20.5	0.00e+00	0	40	0	976224256	54	7023
2026-01-19 18:39:22.16	305.76	9.66	-41.8	-43.0	20.5	0.00e+00	0	40	0	981467136	56	6438
2026-01-19 18:39:25.19	305.34	9.50	-41.9	-43.2	20.3	0.00e+00	0	40	0	987758592	56	6613
2026-01-19 18:39:28.22	304.93	9.34	-41.9	-43.2	20.4	0.00e+00	0	40	0	993001472	56	6562
2026-01-19 18:39:31.25	304.52	9.17	-41.5	-42.8	20.5	0.00e+00	0	40	0	999292928	56	6248
2026-01-19 18:39:34.28	304.11	9.01	-41.0	-42.2	21.1	0.00e+00	0	40	0	1004535808	56	5885
2026-01-19 18:39:37.31	303.71	8.85	-40.6	-41.6	21.9	0.00e+00	0	40	0	1010827264	54	6144
2026-01-19 18:39:40.33	303.32	8.69	-39.8	-40.8	22.1	0.00e+00	0	40	0	1016070144	54	5591
2026-01-19 18:39:43.36	302.93	8.53	-40.5	-41.6	21.9	0.00e+00	0	40	0	1021313024	54	6109
2026-01-19 18:39:46.39	302.54	8.36	-40.5	-41.5	21.7	0.00e+00	0	40	0	1027604480	54	6089
2026-01-19 18:39:49.41	302.16	8.20	-40.4	-41.5	21.7	0.00e+00	0	40	0	1032847360	54	6060
2026-01-19 18:39:52.44	301.78	8.04	-40.3	-41.4	22.1	0.00e+00	0	40	0	1039138816	54	6000
2026-01-19 18:39:55.47	301.40	7.87	-40.2	-41.3	22.0	0.00e+00	0	40	0	1044381696	54	5932
2026-01-19 18:39:58.50	301.04	7.71	-40.8	-41.9	21.6	0.00e+00	0	40	0	1049624576	54	6365
2026-01-19 18:40:01.53	300.67	7.55	-40.7	-41.9	21.4	0.00e+00	0	40	0	1055916032	54	6342
2026-01-19 18:40:04.56	300.31	7.38	-41.6	-42.8	20.9	0.00e+00	0	40	0	1061158912	56	6292
2026-01-19 18:40:07.59	299.95	7.22	-41.3	-42.5	20.8	0.00e+00	0	40	0	1067450368	56	6084
2026-01-19 18:40:10.62	299.60	7.06	-41.3	-42.5	20.7	0.00e+00	0	40	0	1072693248	56	6070
2026-01-19 18:40:13.65	299.25	6.89	-42.0	-43.3	20.5	0.00e+00	0	40	0	1078984704	56	6678
2026-01-19 18:40:16.68	298.90	6.73	-41.2	-42.4	20.7	0.00e+00	0	40	0	1084227584	56	5992
2026-01-19 18:40:19.71	298.56	6.57	-41.1	-42.2	21.3	0.00e+00	0	40	0	1089470464	56	5891
2026-01-19 18:40:22.74	298.23	6.40	-40.4	-41.5	21.7	0.00e+00	0	40	0	1095761920	54	6059
2026-01-19 18:40:25.76	297.89	6.24	-40.5	-41.6	21.6	0.00e+00	0	40	0	1101004800	54	6155
2026-01-19 18:40:28.80	297.56	6.08	-41.1	-42.3	20.9	0.00e+00	0	40	0	1107296256	54	6643
2026-01-19 18:40:31.83	297.24	5.91	-41.1	-42.3	20.8	0.00e+00	0	40	0	1112539136	56	5964
2026-01-19 18:40:34.86	296.92	5.75	-41.7	-43.1	20.0	0.00e+00	0	40	0	1117782016	56	6473
2026-01-19 18:40:37.89	296.60	5.59	-41.8	-43.1	19.7	0.00e+00	0	40	0	1124073472	56	6516
2026-01-19 18:40:40.91	296.28	5.43	-41.3	-42.5	20.8	0.00e+00	0	40	0	1129316352	56	6062
2026-01-19 18:40:43.94	295.97	5.26	-40.7	-41.9	21.0	0.00e+00	0	40	0	1135607808	56	5639
2026-01-19 18:40:46.97	295.66	5.10	-40.7	-41.9	20.8	0.00e+00	0	40	0	1140850688	54	6321
2026-01-19 18:40:50.00	295.36	4.94	-40.9	-42.1	20.7	0.00e+00	0	40	0	1147142144	54	6501
2026-01-19 18:40:53.03	295.06	4.78	-41.4	-42.6	20.3	0.00e+00	0	40	0	1152385024	54	6925
2026-01-19 18:40:56.06	294.76	4.62	-42.1	-43.5	20.0	0.00e+00	0	40	0	1157627904	56	6771
2026-01-19 18:40:59.10	294.47	4.46	-42.9	-44.5	18.9	0.00e+00	0	40	0	1163919360	58	6783
2026-01-19 18:41:02.12	294.18	4.29	-43.4	-45.0	18.6	0.00e+00	0	40	0	1169162240	58	7236
2026-01-19 18:41:05.15	293.89	4.13	-43.3	-45.1	18.1	0.00e+00	0	40	0	1175453696	60	6502
2026-01-19 18:41:08.18	293.61	3.97	-43.4	-45.1	18.4	0.00e+00	0	40	0	1180696576	60	6511
2026-01-19 18:41:11.21	293.33	3.81	-42.7	-44.3	18.7	0.00e+00	0	40	0	1185939456	58	6667
2026-01-19 18:41:14.24	293.05	3.65	-42.6	-44.1	19.0	0.00e+00	0	40	0	1192230912	58	6537
2026-01-19 18:41:17.27	292.77	3.49	-43.2	-44.9	18.6	0.00e+00	0	40	0	1197473792	58	7094
2026-01-19 18:41:20.30	292.50	3.34	-43.1	-45.0	17.7	0.00e+00	0	40	0	1203765248	58	7194
2026-01-19 18:41:23.33	292.23	3.18	-44.5	-46.6	17.0	0.00e+00	0	40	0	1209008128	60	7699
2026-01-19 18:41:26.36	291.97	3.02	-45.8	-48.9	12.7	0.00e+00	0	40	0	1215299584	60	10023
2026-01-19 18:41:29.39	291.70	2.86	-49.4	-64.6	3.6	1.51e+00	0	40	104	1215299584	60	61209
2026-01-19 18:41:32.42	291.45	2.70	-49.9	-65.1	3.6	1.51e+00	0	40	104	1215299584	60	64664
2026-01-19 18:41:35.45	291.19	2.55	-49.9	-65.1	3.6	1.51e+00	0	40	104	1215299584	60	65376
2026-01-19 18:41:38.48	290.93	2.39	-49.8	-65.1	3.6	1.51e+00	0	40	104	1215299584	60	64725
2026-01-19 18:41:41.51	290.68	2.23	-49.6	-65.0	3.6	1.51e+00	0	40	104	1215299584	60	64325
2026-01-19 18:41:44.53	290.44	2.08	-49.6	-64.9	3.6	1.51e+00	0	40	104	1215299584	60	63763
2026-01-19 18:41:47.57	290.19	1.92	-49.9	-65.2	3.6	1.51e+00	0	40	104	1215299584	60	65638
2026-01-19 18:41:50.59	289.95	1.76	-50.2	-65.4	3.6	1.51e+00	0	40	104	1215299584	60	67298
2026-01-19 18:41:53.62	289.71	1.61	-50.4	-65.6	3.6	1.51e+00	0	40	104	1215299584	60	69218
2026-01-19 18:41:56.65	289.47	1.45	-50.4	-65.5	3.6	1.51e+00	0	40	104	1215299584	60	68255
2026-01-19 18:41:59.68	289.23	1.30	-50.8	-65.9	3.6	1.51e+00	0	40	104	1215299584	60	71296
2026-01-19 18:42:02.71	289.00	1.14	-51.0	-66.1	3.6	1.51e+00	0	40	104	1215299584	60	73312
2026-01-19 18:42:05.73	288.77	0.99	-51.1	-66.2	3.6	1.51e+00	0	40	104	1215299584	60	73789
2026-01-19 18:42:08.76	288.54	0.84	-50.7	-65.9	3.6	1.51e+00	0	40	104	1215299584	60	71348
2026-01-19 18:42:11.79	288.32	0.69	-50.8	-66.0	3.6	1.51e+00	0	40	104	1215299584	60	71787
2026-01-19 18:42:14.82	288.09	0.53	-50.6	-65.8	3.6	1.51e+00	0	40	104	1215299584	60	70395
2026-01-19 18:42:17.85	287.87	0.38	-50.0	-65.1	3.5	1.51e+00	0	40	104	1215299584	60	65230
2026-01-19 18:42:20.88	287.66	0.23	-51.2	-66.3	3.6	1.51e+00	0	40	104	1215299584	60	74889
2026-01-19 18:42:23.91	287.44	0.08	-50.8	-66.0	3.6	1.51e+00	0	40	104	1215299584	60	71940

#Closed at: 2026-01-19 18:42:25
#Recorded file [1215 MB]: D:/lorett/data/35029_260120_062937.dat