passes_logs/2026/01/19/R4.6S_Anadyr/R4.6S_Anadyr__20260119_134957_NOAA_20_JPSS-1_rec.log

#Pass ID: 20260119_134957_NOAA 20 (JPSS-1)
#Satellite: NOAA 20 (JPSS-1)
#Configuration: NOAA 20
#almurnet v.1.7.20251203
#Start time: 2026-01-19 13:49:59

#Version: 2.2.20231116
#Station: R4.6S_Anadyr
#Location: 177.4865 lon 64.73178 lat
#TLE: 1 43013U 17073A   26018.92475364  .00000071  00000+0  54435-4 0  9998
#TLE: 2 43013  98.7641 319.8227 0001354  33.6678 326.4584 14.19536868423299

#Time	Az	El	Level	Level2	SNR	BER	BlckErr	Temp	State	Recorded	gain1	gain2
2026-01-19 13:49:59.52	19.19	0.12	-50.5	-65.4	3.6	1.51e+00	0	39	0	0	60	67090
2026-01-19 13:50:03.53	19.31	0.35	-50.5	-65.8	3.6	1.51e+00	0	40	104	0	60	70319
2026-01-19 13:50:07.57	19.44	0.59	-50.5	-65.8	3.6	1.51e+00	0	40	104	0	60	70840
2026-01-19 13:50:11.61	19.57	0.83	-50.6	-65.8	3.6	1.51e+00	0	40	104	0	60	70118
2026-01-19 13:50:15.65	19.70	1.07	-50.3	-65.5	3.6	1.51e+00	0	40	104	0	60	68194
2026-01-19 13:50:19.69	19.83	1.31	-49.8	-65.1	3.6	1.51e+00	0	40	104	0	60	64698
2026-01-19 13:50:23.73	19.97	1.55	-49.1	-64.2	3.6	1.51e+00	0	40	104	0	60	58791
2026-01-19 13:50:27.76	20.10	1.80	-49.1	-64.1	3.6	1.51e+00	0	40	104	0	60	58006
2026-01-19 13:50:31.80	20.24	2.05	-49.0	-63.8	3.6	1.51e+00	0	40	104	0	60	56187
2026-01-19 13:50:35.84	20.38	2.30	-49.0	-62.8	3.6	1.51e+00	0	40	104	0	60	50130
2026-01-19 13:50:39.88	20.52	2.55	-49.0	-63.6	3.6	1.51e+00	0	40	104	0	60	54617
2026-01-19 13:50:43.91	20.67	2.81	-48.4	-55.7	6.8	3.65e-01	0	40	0	1048576	60	21924
2026-01-19 13:50:47.95	20.81	3.06	-45.8	-48.8	14.4	2.20e-06	90	40	0	8388608	60	9957
2026-01-19 13:50:51.99	20.96	3.32	-45.1	-47.7	15.5	0.00e+00	0	40	0	15728640	60	8767
2026-01-19 13:50:56.03	21.11	3.59	-47.5	-52.6	10.3	2.13e-03	0	40	0	24117248	60	15392
2026-01-19 13:51:00.07	21.27	3.85	-49.2	-63.4	3.6	6.05e-01	0	40	104	29360128	60	53553
2026-01-19 13:51:04.11	21.42	4.12	-46.4	-49.7	13.5	3.05e-05	91	40	0	29360128	60	11103
2026-01-19 13:51:08.15	21.58	4.39	-46.1	-49.2	14.5	0.00e+00	30	40	0	37748736	60	10411
2026-01-19 13:51:12.18	21.74	4.66	-46.1	-49.1	14.9	7.00e-07	30	40	0	45088768	60	10342
2026-01-19 13:51:16.22	21.91	4.93	-45.8	-48.7	14.9	0.00e+00	26	41	0	52428800	60	9793
2026-01-19 13:51:20.26	22.07	5.21	-45.7	-48.4	15.2	0.00e+00	92	40	0	59768832	60	9472
2026-01-19 13:51:24.29	22.24	5.49	-43.7	-45.4	18.2	0.00e+00	54	41	0	67108864	60	6768
2026-01-19 13:51:28.33	22.41	5.77	-43.3	-45.0	18.7	0.00e+00	26	41	0	75497472	60	6410
2026-01-19 13:51:32.37	22.59	6.06	-43.2	-44.7	19.0	0.00e+00	0	41	0	82837504	60	6240
2026-01-19 13:51:36.41	22.77	6.34	-43.1	-44.7	19.2	0.00e+00	92	41	0	90177536	60	6190
2026-01-19 13:51:40.44	22.95	6.63	-43.2	-44.7	19.2	0.00e+00	6	40	0	97517568	60	6227
2026-01-19 13:51:44.48	23.13	6.93	-42.8	-44.3	19.6	0.00e+00	0	41	0	105906176	60	5925
2026-01-19 13:51:48.52	23.32	7.23	-42.9	-44.4	19.4	0.00e+00	7	41	0	113246208	58	6768
2026-01-19 13:51:52.56	23.51	7.53	-42.6	-44.0	19.9	0.00e+00	75	41	0	120586240	58	6462
2026-01-19 13:51:56.60	23.71	7.83	-42.4	-43.8	20.2	0.00e+00	7	41	0	127926272	58	6271
2026-01-19 13:52:00.63	23.91	8.14	-42.3	-43.7	20.3	0.00e+00	0	41	0	135266304	58	6195
2026-01-19 13:52:04.68	24.11	8.45	-42.3	-43.6	20.3	0.00e+00	92	41	0	143654912	58	6136
2026-01-19 13:52:08.72	24.32	8.77	-42.1	-43.4	20.6	0.00e+00	52	41	0	150994944	58	6010
2026-01-19 13:52:12.76	24.53	9.09	-41.9	-43.1	20.8	0.00e+00	25	41	0	158334976	58	5826
2026-01-19 13:52:16.79	24.75	9.41	-41.8	-43.1	20.9	0.00e+00	0	41	0	165675008	58	5783
2026-01-19 13:52:20.83	24.97	9.73	-41.8	-43.0	21.1	0.00e+00	92	41	0	174063616	56	6400
2026-01-19 13:52:24.86	25.19	10.06	-41.5	-42.6	21.4	0.00e+00	0	41	0	181403648	56	6171
2026-01-19 13:52:28.90	25.42	10.40	-41.3	-42.5	21.6	0.00e+00	0	41	0	188743680	56	6051
2026-01-19 13:52:32.94	25.65	10.74	-41.3	-42.4	21.7	0.00e+00	30	41	0	196083712	56	6023
2026-01-19 13:52:36.98	25.89	11.08	-41.3	-42.4	21.7	0.00e+00	92	41	0	203423744	56	6008
2026-01-19 13:52:41.01	26.14	11.43	-41.2	-42.3	21.8	0.00e+00	30	41	0	211812352	56	5915
2026-01-19 13:52:45.05	26.39	11.78	-41.3	-42.4	21.8	0.00e+00	0	41	0	219152384	56	5990
2026-01-19 13:52:49.09	26.64	12.14	-41.1	-42.2	22.0	0.00e+00	0	41	0	226492416	56	5846
2026-01-19 13:52:53.13	26.90	12.50	-41.2	-42.3	21.8	0.00e+00	92	41	0	233832448	56	5950
2026-01-19 13:52:57.17	27.17	12.87	-40.8	-41.9	22.3	0.00e+00	27	41	0	242221056	56	5652
2026-01-19 13:53:01.21	27.44	13.24	-40.6	-41.6	22.5	0.00e+00	21	41	0	249561088	54	6137
2026-01-19 13:53:05.24	27.72	13.62	-40.6	-41.6	22.5	0.00e+00	0	41	0	256901120	54	6137
2026-01-19 13:53:09.28	28.01	14.00	-40.5	-41.5	22.6	0.00e+00	92	41	0	264241152	54	6089
2026-01-19 13:53:13.31	28.30	14.39	-40.4	-41.4	22.6	0.00e+00	0	41	0	271581184	54	6021
2026-01-19 13:53:17.34	28.60	14.78	-40.4	-41.4	22.7	0.00e+00	60	41	0	279969792	54	5979
2026-01-19 13:53:21.38	28.91	15.18	-40.2	-41.2	22.9	0.00e+00	92	41	0	287309824	54	5881
2026-01-19 13:53:25.42	29.23	15.58	-40.1	-41.1	23.1	0.00e+00	91	41	0	294649856	54	5767
2026-01-19 13:53:29.46	29.56	15.99	-40.3	-41.3	23.0	0.00e+00	0	41	0	301989888	54	5907
2026-01-19 13:53:33.50	29.89	16.41	-40.2	-41.2	22.9	0.00e+00	60	41	0	310378496	54	5869
2026-01-19 13:53:37.53	30.23	16.83	-40.4	-41.4	22.8	0.00e+00	63	41	0	317718528	54	5974
2026-01-19 13:53:41.57	30.58	17.27	-40.5	-41.5	22.7	0.00e+00	78	41	0	325058560	54	6052
2026-01-19 13:53:45.61	30.95	17.70	-40.7	-41.7	22.4	0.00e+00	0	41	0	332398592	54	6193
2026-01-19 13:53:49.65	31.32	18.15	-40.7	-41.7	22.6	0.00e+00	6	41	0	339738624	54	6210
2026-01-19 13:53:53.69	31.70	18.60	-40.7	-41.7	22.5	0.00e+00	92	41	0	348127232	54	6208
2026-01-19 13:53:57.73	32.09	19.06	-40.8	-41.8	22.5	0.00e+00	0	41	0	355467264	54	6261
2026-01-19 13:54:01.76	32.50	19.52	-40.9	-41.9	22.4	0.00e+00	27	41	0	362807296	54	6357
2026-01-19 13:54:05.81	32.92	20.00	-40.9	-42.0	22.4	0.00e+00	21	41	0	370147328	54	6391
2026-01-19 13:54:09.84	33.34	20.48	-40.9	-41.9	22.5	0.00e+00	92	41	0	378535936	54	6371
2026-01-19 13:54:13.88	33.79	20.96	-41.0	-42.0	22.4	0.00e+00	0	41	0	385875968	54	6435
2026-01-19 13:54:17.92	34.24	21.46	-40.6	-41.6	22.7	0.00e+00	0	41	0	393216000	54	6144
2026-01-19 13:54:21.96	34.71	21.97	-40.5	-41.5	22.9	0.00e+00	61	41	0	400556032	54	6056
2026-01-19 13:54:26.00	35.20	22.48	-40.6	-41.6	22.8	0.00e+00	91	41	0	407896064	54	6131
2026-01-19 13:54:30.03	35.70	23.00	-40.7	-41.6	22.8	0.00e+00	0	41	0	416284672	54	6171
2026-01-19 13:54:34.07	36.22	23.53	-40.9	-41.9	22.6	0.00e+00	0	41	0	423624704	54	6348
2026-01-19 13:54:38.11	36.76	24.07	-40.9	-41.9	22.5	0.00e+00	0	41	0	430964736	54	6375
2026-01-19 13:54:42.15	37.31	24.62	-40.5	-41.4	23.0	0.00e+00	92	41	0	438304768	54	6009
2026-01-19 13:54:46.19	37.88	25.17	-40.6	-41.6	22.8	0.00e+00	18	41	0	446693376	54	6148
2026-01-19 13:54:50.22	38.47	25.74	-40.8	-41.8	22.7	0.00e+00	2	41	0	454033408	54	6278
2026-01-19 13:54:54.26	39.09	26.31	-41.0	-42.0	22.5	0.00e+00	0	41	0	461373440	54	6464
2026-01-19 13:54:58.30	39.72	26.90	-41.1	-42.1	22.4	0.00e+00	2	41	0	468713472	54	6530
2026-01-19 13:55:02.34	40.38	27.49	-41.2	-42.3	22.3	0.00e+00	61	41	0	476053504	54	6628
2026-01-19 13:55:06.38	41.07	28.09	-41.7	-42.8	21.8	0.00e+00	0	41	0	484442112	54	7020
2026-01-19 13:55:10.42	41.78	28.70	-42.3	-43.4	21.3	0.00e+00	40	41	0	491782144	56	6760
2026-01-19 13:55:14.46	42.51	29.32	-42.0	-43.2	21.5	0.00e+00	5	41	0	499122176	56	6568
2026-01-19 13:55:18.50	43.28	29.95	-42.6	-43.8	20.9	0.00e+00	0	41	0	506462208	56	7072
2026-01-19 13:55:22.54	44.07	30.59	-42.8	-44.1	20.6	0.00e+00	22	41	0	514850816	58	6483
2026-01-19 13:55:26.58	44.90	31.23	-42.5	-43.7	21.0	0.00e+00	92	41	0	522190848	58	6239
2026-01-19 13:55:30.62	45.76	31.88	-42.0	-43.1	21.6	0.00e+00	25	41	0	529530880	58	5812
2026-01-19 13:55:34.66	46.65	32.54	-41.6	-42.7	22.0	0.00e+00	6	41	0	536870912	56	6224
2026-01-19 13:55:38.70	47.58	33.21	-41.6	-42.7	21.9	0.00e+00	0	41	0	544210944	56	6205
2026-01-19 13:55:42.73	48.55	33.88	-41.3	-42.3	22.2	0.00e+00	91	41	0	552599552	56	5960
2026-01-19 13:55:46.77	49.56	34.56	-41.5	-42.5	22.1	0.00e+00	62	41	0	559939584	56	6102
2026-01-19 13:55:50.81	50.61	35.25	-41.1	-42.1	22.5	0.00e+00	0	41	0	567279616	56	5764
2026-01-19 13:55:54.85	51.71	35.93	-40.9	-41.9	22.7	0.00e+00	2	41	0	574619648	56	5685
2026-01-19 13:55:58.89	52.85	36.62	-40.6	-41.6	23.0	0.00e+00	91	41	0	583008256	54	6105
2026-01-19 13:56:02.93	54.04	37.32	-40.0	-40.9	23.5	0.00e+00	0	41	0	590348288	54	5695
2026-01-19 13:56:06.97	55.28	38.01	-40.1	-41.0	23.5	0.00e+00	23	41	0	597688320	52	6450
2026-01-19 13:56:11.00	56.57	38.70	-41.1	-42.1	22.5	0.00e+00	0	41	0	605028352	54	6495
2026-01-19 13:56:15.04	57.92	39.39	-40.3	-41.3	23.2	0.00e+00	90	41	0	612368384	54	5916
2026-01-19 13:56:19.08	59.33	40.08	-41.0	-42.0	22.6	0.00e+00	0	41	0	620756992	54	6420
2026-01-19 13:56:23.12	60.80	40.76	-41.5	-42.5	22.3	0.00e+00	65	41	0	628097024	56	6095
2026-01-19 13:56:27.16	62.33	41.43	-41.3	-42.4	21.8	0.00e+00	0	41	0	635437056	56	5985
2026-01-19 13:56:31.20	63.92	42.09	-41.2	-42.2	22.6	0.00e+00	90	41	0	642777088	56	5845
2026-01-19 13:56:35.23	65.57	42.73	-41.1	-42.1	22.4	0.00e+00	0	41	0	651165696	56	5807
2026-01-19 13:56:39.27	67.30	43.36	-41.9	-43.0	21.8	0.00e+00	0	41	0	658505728	56	6452
2026-01-19 13:56:43.31	69.09	43.97	-41.8	-42.9	21.8	0.00e+00	58	41	0	665845760	56	6336
2026-01-19 13:56:47.35	70.95	44.56	-42.2	-43.3	21.4	0.00e+00	58	41	0	673185792	58	5954
2026-01-19 13:56:51.38	72.87	45.12	-41.1	-42.2	22.6	0.00e+00	6	41	0	680525824	56	5829
2026-01-19 13:56:55.42	74.87	45.65	-42.6	-43.8	21.0	0.00e+00	18	41	0	688914432	56	7060
2026-01-19 13:56:59.46	76.93	46.15	-42.2	-43.4	21.4	0.00e+00	92	41	0	696254464	56	6697
2026-01-19 13:57:03.49	79.05	46.62	-42.7	-43.9	20.9	0.00e+00	63	41	0	703594496	58	6366
2026-01-19 13:57:07.53	81.23	47.05	-42.7	-44.0	20.9	0.00e+00	28	41	0	710934528	58	6435
2026-01-19 13:57:11.57	83.48	47.44	-41.9	-43.1	21.7	0.00e+00	27	41	0	718274560	58	5766
2026-01-19 13:57:15.61	85.77	47.78	-42.9	-44.2	20.7	0.00e+00	92	41	0	726663168	58	6561
2026-01-19 13:57:19.65	88.12	48.07	-41.9	-43.0	21.7	0.00e+00	0	41	0	734003200	58	5736
2026-01-19 13:57:23.69	90.50	48.32	-42.1	-43.2	21.5	0.00e+00	65	41	0	741343232	58	5886
2026-01-19 13:57:27.73	92.92	48.51	-42.0	-43.1	21.6	0.00e+00	65	41	0	748683264	58	5784
2026-01-19 13:57:31.77	95.36	48.65	-41.8	-42.9	21.8	0.00e+00	92	41	0	757071872	56	6335
2026-01-19 13:57:35.80	97.82	48.73	-41.3	-42.3	22.4	0.00e+00	24	41	0	764411904	56	5937
2026-01-19 13:57:39.84	100.29	48.76	-41.3	-42.3	22.4	0.00e+00	2	41	0	771751936	56	5951
2026-01-19 13:57:43.88	102.76	48.73	-42.5	-43.6	21.0	0.00e+00	0	41	0	779091968	56	6925
2026-01-19 13:57:47.92	105.22	48.65	-41.6	-42.7	22.0	0.00e+00	92	41	0	786432000	56	6200
2026-01-19 13:57:51.96	107.67	48.51	-41.7	-42.8	21.9	0.00e+00	17	41	0	794820608	56	6292
2026-01-19 13:57:56.00	110.09	48.31	-42.8	-44.2	20.7	0.00e+00	2	41	0	802160640	56	7354
2026-01-19 13:58:00.03	112.47	48.07	-43.0	-44.3	20.5	0.00e+00	0	41	0	809500672	58	6616
2026-01-19 13:58:04.07	114.82	47.77	-43.6	-45.1	19.7	0.00e+00	90	41	0	816840704	58	7283
2026-01-19 13:58:08.11	117.11	47.43	-44.1	-45.7	19.3	0.00e+00	0	41	0	825229312	60	6937
2026-01-19 13:58:12.15	119.36	47.04	-44.1	-45.6	19.2	0.00e+00	54	41	0	832569344	60	6900
2026-01-19 13:58:16.18	121.54	46.61	-44.1	-45.7	19.2	0.00e+00	32	41	0	839909376	60	6985
2026-01-19 13:58:20.22	123.67	46.14	-42.7	-43.9	20.8	0.00e+00	92	41	0	847249408	58	6372
2026-01-19 13:58:24.26	125.73	45.64	-41.2	-42.2	22.4	0.00e+00	0	41	0	854589440	56	5885
2026-01-19 13:58:28.30	127.73	45.11	-41.6	-42.7	21.9	0.00e+00	63	41	0	862978048	56	6232
2026-01-19 13:58:32.34	129.66	44.54	-40.3	-41.3	23.2	0.00e+00	90	41	0	870318080	54	5930
2026-01-19 13:58:36.38	131.52	43.95	-40.8	-41.8	22.7	0.00e+00	58	41	0	877658112	54	6297
2026-01-19 13:58:40.42	133.32	43.34	-41.0	-42.0	22.5	0.00e+00	23	41	0	884998144	54	6436
2026-01-19 13:58:44.46	135.04	42.71	-40.1	-41.0	23.5	0.00e+00	6	41	0	893386752	54	5715
2026-01-19 13:58:48.50	136.70	42.06	-40.4	-41.3	23.1	0.00e+00	92	41	0	900726784	54	5964
2026-01-19 13:58:52.54	138.30	41.39	-41.3	-42.4	22.2	0.00e+00	23	41	0	908066816	54	6752
2026-01-19 13:58:56.57	139.83	40.72	-41.5	-42.6	21.9	0.00e+00	63	41	0	915406848	54	6853
2026-01-19 13:59:00.62	141.30	40.04	-39.9	-40.8	23.7	0.00e+00	23	41	0	922746880	54	5571
2026-01-19 13:59:04.66	142.71	39.35	-43.7	-45.2	19.6	0.00e+00	91	41	0	931135488	58	7355
2026-01-19 13:59:08.69	144.06	38.66	-42.7	-43.9	20.7	0.00e+00	57	41	0	938475520	58	6380
2026-01-19 13:59:12.73	145.36	37.96	-42.8	-44.1	20.8	0.00e+00	58	41	0	945815552	60	5791
2026-01-19 13:59:16.77	146.60	37.27	-41.9	-43.0	21.6	0.00e+00	20	41	0	953155584	56	6435
2026-01-19 13:59:20.81	147.79	36.57	-42.6	-43.9	20.8	0.00e+00	92	41	0	961544192	58	6339
2026-01-19 13:59:24.85	148.93	35.88	-42.6	-43.9	20.7	0.00e+00	0	41	0	968884224	56	7098
2026-01-19 13:59:28.89	150.03	35.19	-43.0	-44.4	20.4	0.00e+00	0	41	0	976224256	60	6004
2026-01-19 13:59:32.93	151.08	34.50	-41.4	-42.5	22.0	0.00e+00	0	41	0	983564288	56	6068
2026-01-19 13:59:36.97	152.09	33.82	-44.2	-45.9	19.0	0.00e+00	90	41	0	990904320	60	7103
2026-01-19 13:59:41.01	153.06	33.14	-41.9	-43.0	21.3	0.00e+00	0	41	0	999292928	58	5755
2026-01-19 13:59:45.05	153.99	32.47	-44.0	-45.5	19.3	0.00e+00	2	41	0	1006632960	60	6838
2026-01-19 13:59:49.09	154.89	31.81	-41.3	-42.4	22.2	0.00e+00	92	41	0	1013972992	56	5981
2026-01-19 13:59:53.13	155.75	31.15	-42.6	-43.9	20.6	0.00e+00	90	41	0	1021313024	56	7139
2026-01-19 13:59:57.17	156.57	30.50	-43.2	-44.7	20.1	0.00e+00	19	41	0	1029701632	60	6180
2026-01-19 14:00:01.21	157.37	29.86	-41.9	-43.0	21.6	0.00e+00	20	41	0	1037041664	56	6411
2026-01-19 14:00:05.24	158.13	29.23	-42.8	-44.1	20.5	0.00e+00	92	41	0	1044381696	58	6513
2026-01-19 14:00:09.28	158.87	28.61	-42.2	-43.4	21.2	0.00e+00	54	41	0	1051721728	58	5995
2026-01-19 14:00:13.32	159.58	28.00	-41.1	-42.1	22.4	0.00e+00	0	41	0	1059061760	56	5781
2026-01-19 14:00:17.36	160.26	27.39	-41.2	-42.2	22.2	0.00e+00	60	41	0	1067450368	56	5892
2026-01-19 14:00:21.40	160.92	26.80	-41.5	-42.6	21.8	0.00e+00	92	41	0	1074790400	56	6161
2026-01-19 14:00:25.44	161.55	26.21	-41.4	-42.4	22.1	0.00e+00	5	41	0	1082130432	56	6013
2026-01-19 14:00:29.48	162.17	25.64	-41.2	-42.3	22.0	0.00e+00	7	41	0	1089470464	56	5928
2026-01-19 14:00:33.52	162.76	25.07	-42.0	-43.2	21.2	0.00e+00	6	41	0	1097859072	56	6612
2026-01-19 14:00:37.56	163.33	24.51	-41.9	-43.1	21.5	0.00e+00	92	41	0	1105199104	56	6478
2026-01-19 14:00:41.59	163.88	23.96	-40.4	-41.3	22.9	0.00e+00	7	41	0	1112539136	54	5953
2026-01-19 14:00:45.63	164.42	23.42	-40.4	-41.4	22.9	0.00e+00	0	41	0	1119879168	54	5978
2026-01-19 14:00:49.67	164.94	22.89	-40.7	-41.7	22.5	0.00e+00	7	41	0	1127219200	54	6234
2026-01-19 14:00:53.70	165.44	22.36	-41.2	-42.2	22.0	0.00e+00	92	41	0	1135607808	54	6598
2026-01-19 14:00:57.74	165.92	21.85	-41.2	-42.3	22.0	0.00e+00	24	41	0	1142947840	54	6635
2026-01-19 14:01:01.78	166.39	21.34	-40.5	-41.5	22.7	0.00e+00	23	41	0	1150287872	54	6053
2026-01-19 14:01:05.82	166.85	20.84	-40.7	-41.7	22.6	0.00e+00	0	41	0	1157627904	54	6191
2026-01-19 14:01:09.86	167.29	20.35	-41.5	-42.7	21.6	0.00e+00	90	41	0	1166016512	54	6954
2026-01-19 14:01:13.89	167.71	19.87	-42.1	-43.3	21.0	0.00e+00	57	41	0	1173356544	56	6661
2026-01-19 14:01:17.93	168.13	19.39	-41.6	-42.8	21.6	0.00e+00	59	41	0	1180696576	56	6296
2026-01-19 14:01:21.97	168.53	18.93	-40.8	-41.8	22.4	0.00e+00	0	41	0	1188036608	56	5613
2026-01-19 14:01:26.01	168.92	18.46	-40.3	-41.2	22.9	0.00e+00	92	41	0	1195376640	54	5875
2026-01-19 14:01:30.05	169.31	18.01	-40.1	-41.0	23.0	0.00e+00	0	41	0	1203765248	54	5751
2026-01-19 14:01:34.09	169.68	17.57	-40.4	-41.4	22.6	0.00e+00	0	41	0	1211105280	54	6025
2026-01-19 14:01:38.13	170.04	17.13	-40.6	-41.6	22.4	0.00e+00	86	41	0	1218445312	54	6164
2026-01-19 14:01:42.17	170.39	16.69	-40.3	-41.3	22.8	0.00e+00	51	41	0	1225785344	54	5911
2026-01-19 14:01:46.21	170.73	16.27	-40.2	-41.1	23.0	0.00e+00	2	41	0	1234173952	54	5802
2026-01-19 14:01:50.25	171.06	15.85	-39.9	-40.9	23.1	0.00e+00	0	41	0	1241513984	54	5635
2026-01-19 14:01:54.29	171.38	15.44	-40.1	-41.0	23.0	0.00e+00	92	41	0	1248854016	54	5750
2026-01-19 14:01:58.33	171.70	15.03	-40.4	-41.4	22.6	0.00e+00	55	41	0	1256194048	54	6015
2026-01-19 14:02:02.36	172.00	14.63	-40.9	-41.9	22.1	0.00e+00	0	41	0	1263534080	54	6366
2026-01-19 14:02:06.40	172.30	14.23	-41.3	-42.4	21.6	0.00e+00	34	41	0	1271922688	54	6714
2026-01-19 14:02:10.44	172.59	13.84	-41.4	-42.5	21.5	0.00e+00	92	41	0	1279262720	54	6833
2026-01-19 14:02:14.47	172.88	13.46	-41.1	-42.2	21.8	0.00e+00	0	41	0	1286602752	54	6609
2026-01-19 14:02:18.51	173.15	13.08	-41.0	-42.0	21.9	0.00e+00	0	41	0	1293942784	54	6453
2026-01-19 14:02:22.55	173.43	12.71	-40.8	-41.9	22.2	0.00e+00	55	41	0	1302331392	54	6339
2026-01-19 14:02:26.59	173.69	12.34	-40.7	-41.7	22.2	0.00e+00	91	42	0	1309671424	54	6207
2026-01-19 14:02:30.64	173.95	11.98	-40.7	-41.8	22.2	0.00e+00	0	41	0	1317011456	54	6261
2026-01-19 14:02:34.68	174.20	11.62	-41.1	-42.2	21.7	0.00e+00	0	41	0	1324351488	54	6587
2026-01-19 14:02:38.72	174.45	11.27	-41.3	-42.5	21.4	0.00e+00	0	41	0	1331691520	54	6792
2026-01-19 14:02:42.75	174.69	10.92	-41.6	-42.8	21.1	0.00e+00	90	41	0	1340080128	54	7036
2026-01-19 14:02:46.79	174.93	10.57	-41.9	-43.2	20.8	0.00e+00	26	41	0	1347420160	56	6584
2026-01-19 14:02:50.83	175.16	10.23	-42.1	-43.3	20.4	0.00e+00	2	41	0	1354760192	56	6686
2026-01-19 14:02:54.87	175.38	9.90	-42.3	-43.6	20.2	0.00e+00	0	42	0	1362100224	56	6864
2026-01-19 14:02:58.91	175.61	9.57	-42.7	-44.1	20.0	0.00e+00	90	42	0	1370488832	58	6518
2026-01-19 14:03:02.95	175.82	9.24	-42.6	-44.0	19.6	0.00e+00	27	42	0	1377828864	58	6433
2026-01-19 14:03:06.99	176.04	8.91	-41.6	-42.8	20.9	0.00e+00	0	42	0	1385168896	58	5617
2026-01-19 14:03:11.02	176.24	8.59	-41.6	-42.8	20.9	0.00e+00	25	42	0	1392508928	56	6302
2026-01-19 14:03:15.07	176.45	8.28	-41.8	-43.0	20.6	0.00e+00	92	42	0	1399848960	56	6429
2026-01-19 14:03:19.10	176.65	7.97	-42.3	-43.6	20.2	0.00e+00	54	42	0	1408237568	56	6862
2026-01-19 14:03:23.14	176.84	7.66	-42.3	-43.7	20.0	0.00e+00	0	42	0	1415577600	58	6228
2026-01-19 14:03:27.18	177.03	7.35	-42.1	-43.4	20.2	0.00e+00	92	42	0	1422917632	58	6017
2026-01-19 14:03:31.22	177.22	7.05	-42.1	-43.5	20.2	0.00e+00	0	42	0	1430257664	58	6039
2026-01-19 14:03:35.26	177.41	6.75	-42.5	-44.0	19.8	0.00e+00	0	41	0	1438646272	58	6394
2026-01-19 14:03:39.30	177.59	6.45	-42.6	-44.0	19.8	0.00e+00	0	42	0	1445986304	58	6425
2026-01-19 14:03:43.33	177.77	6.16	-42.6	-44.1	19.5	0.00e+00	92	42	0	1453326336	58	6509
2026-01-19 14:03:47.37	177.94	5.87	-42.8	-44.3	19.3	0.00e+00	0	42	0	1460666368	58	6676
2026-01-19 14:03:51.41	178.11	5.59	-42.7	-44.2	19.4	0.00e+00	30	41	0	1468006400	58	6581
2026-01-19 14:03:55.45	178.28	5.30	-43.3	-45.0	19.0	0.00e+00	5	42	0	1476395008	58	7183
2026-01-19 14:03:59.49	178.45	5.02	-43.0	-44.6	18.8	0.00e+00	92	42	0	1483735040	58	6871
2026-01-19 14:04:03.53	178.61	4.74	-43.3	-45.0	18.6	0.00e+00	48	41	0	1491075072	58	7221
2026-01-19 14:04:07.57	178.77	4.47	-43.3	-45.0	18.5	0.00e+00	42	42	0	1498415104	58	7192
2026-01-19 14:04:11.60	178.93	4.20	-43.6	-45.4	18.2	0.00e+00	0	42	0	1506803712	58	7552
2026-01-19 14:04:15.64	179.08	3.93	-43.7	-45.5	18.2	0.00e+00	92	42	0	1514143744	60	6828
2026-01-19 14:04:19.68	179.23	3.66	-44.1	-46.0	17.4	0.00e+00	0	41	0	1521483776	60	7245
2026-01-19 14:04:23.72	179.38	3.39	-44.1	-46.1	17.4	0.00e+00	51	42	0	1528823808	60	7283
2026-01-19 14:04:27.76	179.53	3.13	-44.5	-46.6	17.0	0.00e+00	31	42	0	1536163840	60	7763
2026-01-19 14:04:31.80	179.68	2.87	-50.0	-65.2	3.6	1.51e+00	0	41	104	1539309568	60	65720
2026-01-19 14:04:35.84	179.82	2.61	-50.4	-65.6	3.6	1.51e+00	0	42	104	1539309568	60	69082
2026-01-19 14:04:39.88	179.96	2.36	-50.4	-65.8	3.6	1.51e+00	0	42	104	1539309568	60	70352
2026-01-19 14:04:43.93	180.10	2.10	-50.5	-65.8	3.6	1.51e+00	0	42	104	1539309568	60	70130
2026-01-19 14:04:47.97	180.23	1.85	-50.5	-65.8	3.6	1.51e+00	0	42	104	1539309568	60	70596
2026-01-19 14:04:52.01	180.37	1.60	-50.6	-65.8	3.6	1.51e+00	0	42	104	1539309568	60	70540
2026-01-19 14:04:56.05	180.50	1.35	-50.6	-65.8	3.6	1.51e+00	0	41	104	1539309568	60	70284
2026-01-19 14:05:00.09	180.63	1.11	-50.6	-65.8	3.6	1.51e+00	0	42	104	1539309568	60	70112
2026-01-19 14:05:04.13	180.76	0.87	-50.6	-65.8	3.6	1.51e+00	0	42	104	1539309568	60	70300
2026-01-19 14:05:08.17	180.88	0.62	-50.6	-65.7	3.6	1.51e+00	0	42	104	1539309568	60	69999
2026-01-19 14:05:12.21	181.01	0.38	-50.6	-65.8	3.6	1.51e+00	0	42	104	1539309568	60	70475
2026-01-19 14:05:16.25	181.13	0.15	-50.5	-65.7	3.6	1.51e+00	0	42	104	1539309568	60	69735

#Closed at: 2026-01-19 14:05:18
#Recorded file [1539 MB]: D:/lorett/data/35029_260120_014959.dat