passes_logs/2026/01/19/R4.6S_Anadyr/R4.6S_Anadyr__20260119_040340_FENGYUN_3D_rec.log

#Pass ID: 20260119_040340_FENGYUN 3D
#Satellite: FENGYUN 3D
#Configuration: FENGYUN 3D
#almurnet v.1.7.20251203
#Start time: 2026-01-19 04:03:41

#Version: 2.2.20231116
#Station: R4.6S_Anadyr
#Location: 177.4865 lon 64.73178 lat
#TLE: 1 43010U 17072A   26018.59788810  .00000129  00000+0  82801-4 0  9992
#TLE: 2 43010  98.9937 350.4692 0002400 102.4643 257.6801 14.19696801423766

#Time	Az	El	Level	Level2	SNR	BER	BlckErr	Temp	State	Recorded	gain1	gain2
2026-01-19 04:03:41.95	202.46	0.09	-50.2	-65.1	3.5	1.51e+00	0	39	0	0	60	65085
2026-01-19 04:03:45.99	202.69	0.31	-50.0	-62.2	3.6	8.45e-01	0	40	104	0	60	46682
2026-01-19 04:03:50.03	202.93	0.53	-50.0	-62.2	3.6	8.46e-01	0	40	104	0	60	46757
2026-01-19 04:03:54.06	203.17	0.75	-50.1	-62.2	3.6	8.45e-01	0	40	104	0	60	46724
2026-01-19 04:03:58.10	203.41	0.97	-49.6	-62.0	3.5	8.46e-01	0	40	104	0	60	45556
2026-01-19 04:04:02.15	203.66	1.20	-49.5	-61.7	3.6	8.46e-01	0	40	104	0	60	43852
2026-01-19 04:04:06.18	203.91	1.42	-48.2	-60.3	3.6	8.45e-01	0	40	104	0	60	37309
2026-01-19 04:04:10.22	204.17	1.65	-48.2	-60.2	3.6	8.45e-01	0	40	104	0	60	37142
2026-01-19 04:04:14.26	204.42	1.87	-48.1	-60.0	3.6	8.46e-01	0	40	104	0	60	36307
2026-01-19 04:04:18.30	204.69	2.10	-48.2	-60.2	3.6	8.44e-01	0	40	104	0	60	36974
2026-01-19 04:04:22.34	204.95	2.33	-48.1	-59.5	3.6	8.45e-01	0	40	104	0	60	33943
2026-01-19 04:04:26.38	205.22	2.57	-48.0	-58.7	3.6	8.45e-01	0	40	104	0	60	31181
2026-01-19 04:04:30.42	205.49	2.80	-47.7	-54.9	4.0	8.26e-01	0	41	0	0	60	20183
2026-01-19 04:04:34.47	205.77	3.03	-45.1	-48.0	11.0	1.11e-02	0	41	0	7340032	60	9064
2026-01-19 04:04:38.51	206.06	3.27	-41.2	-42.5	16.7	0.00e+00	0	41	0	29360128	56	6103
2026-01-19 04:04:42.55	206.34	3.51	-43.1	-45.1	16.0	8.44e-01	0	41	104	47185920	60	6479
2026-01-19 04:04:46.59	206.63	3.75	-40.3	-41.5	17.8	0.00e+00	0	41	0	68157440	54	6096
2026-01-19 04:04:50.64	206.93	3.99	-39.2	-40.2	19.3	0.00e+00	0	40	0	91226112	52	5864
2026-01-19 04:04:54.68	207.23	4.23	-38.3	-39.2	20.3	0.00e+00	0	40	0	114294784	50	5895
2026-01-19 04:04:58.73	207.53	4.48	-37.6	-38.5	21.1	0.00e+00	0	40	0	136314880	48	6039
2026-01-19 04:05:02.77	207.84	4.72	-37.8	-38.7	20.9	0.00e+00	0	41	0	159383552	48	6226
2026-01-19 04:05:06.81	208.16	4.97	-37.4	-38.2	21.4	0.00e+00	0	41	0	182452224	48	5889
2026-01-19 04:05:10.84	208.48	5.22	-37.3	-38.2	21.4	0.00e+00	0	41	0	204472320	48	5863
2026-01-19 04:05:14.88	208.80	5.47	-37.5	-38.4	21.3	0.00e+00	0	40	0	227540992	48	5969
2026-01-19 04:05:18.92	209.13	5.72	-37.3	-38.1	21.6	0.00e+00	0	41	0	250609664	48	5808
2026-01-19 04:05:22.97	209.47	5.97	-37.1	-37.9	21.8	0.00e+00	0	40	0	273678336	48	5685
2026-01-19 04:05:27.01	209.81	6.23	-36.6	-37.4	22.4	0.00e+00	0	41	0	295698432	46	6012
2026-01-19 04:05:31.05	210.16	6.48	-36.5	-37.3	22.6	0.00e+00	0	41	0	318767104	46	5899
2026-01-19 04:05:35.09	210.51	6.74	-36.6	-37.4	22.4	0.00e+00	0	41	0	340787200	46	6004
2026-01-19 04:05:39.12	210.87	7.00	-36.5	-37.2	22.7	0.00e+00	0	41	0	363855872	46	5895
2026-01-19 04:05:43.17	211.24	7.26	-36.5	-37.3	22.7	0.00e+00	0	41	0	386924544	46	5948
2026-01-19 04:05:47.20	211.61	7.53	-36.5	-37.3	22.8	0.00e+00	0	41	0	408944640	46	5933
2026-01-19 04:05:51.25	211.99	7.79	-36.9	-37.7	22.4	0.00e+00	0	41	0	432013312	46	6212
2026-01-19 04:05:55.29	212.38	8.06	-36.8	-37.5	22.6	0.00e+00	0	41	0	455081984	46	6098
2026-01-19 04:05:59.33	212.77	8.33	-36.6	-37.3	22.9	0.00e+00	0	41	0	478150656	46	5934
2026-01-19 04:06:03.37	213.17	8.60	-36.0	-36.7	23.3	0.00e+00	0	41	0	500170752	46	5559
2026-01-19 04:06:07.42	213.57	8.87	-36.1	-36.8	23.3	0.00e+00	0	41	0	523239424	46	5612
2026-01-19 04:06:11.46	213.99	9.15	-35.8	-36.5	23.6	0.00e+00	0	41	0	545259520	44	6084
2026-01-19 04:06:15.49	214.41	9.42	-35.7	-36.4	23.7	0.00e+00	0	41	0	568328192	44	6009
2026-01-19 04:06:19.54	214.84	9.70	-35.7	-36.4	23.8	0.00e+00	0	41	0	591396864	44	5997
2026-01-19 04:06:23.58	215.28	9.98	-35.4	-36.1	24.0	0.00e+00	0	41	0	614465536	44	5825
2026-01-19 04:06:27.62	215.72	10.26	-35.4	-36.1	24.0	0.00e+00	0	41	0	636485632	44	5797
2026-01-19 04:06:31.66	216.17	10.55	-35.3	-36.0	24.1	0.00e+00	0	41	0	659554304	44	5730
2026-01-19 04:06:35.70	216.64	10.83	-35.5	-36.2	24.1	0.00e+00	0	41	0	682622976	44	5864
2026-01-19 04:06:39.74	217.11	11.12	-35.6	-36.3	23.9	0.00e+00	0	41	0	704643072	44	5957
2026-01-19 04:06:43.78	217.59	11.40	-35.3	-36.0	24.2	0.00e+00	0	41	0	727711744	44	5728
2026-01-19 04:06:47.82	218.08	11.69	-35.2	-36.0	24.2	0.00e+00	0	41	0	750780416	44	5700
2026-01-19 04:06:51.86	218.57	11.98	-35.4	-36.2	24.1	0.00e+00	0	41	0	772800512	44	5840
2026-01-19 04:06:55.90	219.08	12.28	-34.9	-35.6	24.6	0.00e+00	0	41	0	795869184	44	5444
2026-01-19 04:06:59.94	219.60	12.57	-34.8	-35.5	24.6	0.00e+00	0	41	0	818937856	42	6088
2026-01-19 04:07:03.97	220.13	12.87	-35.1	-35.8	24.4	0.00e+00	0	41	0	840957952	42	6268
2026-01-19 04:07:08.01	220.66	13.16	-35.0	-35.7	24.5	0.00e+00	0	41	0	864026624	42	6228
2026-01-19 04:07:12.05	221.21	13.46	-35.1	-35.8	24.6	0.00e+00	0	41	0	887095296	42	6314
2026-01-19 04:07:16.10	221.77	13.76	-34.9	-35.7	24.6	0.00e+00	0	41	0	909115392	42	6180
2026-01-19 04:07:20.14	222.34	14.06	-34.5	-35.2	25.0	0.00e+00	0	41	0	932184064	42	5878
2026-01-19 04:07:24.18	222.93	14.36	-34.5	-35.2	25.1	0.00e+00	0	41	0	955252736	42	5864
2026-01-19 04:07:28.22	223.52	14.67	-34.3	-35.0	25.3	0.00e+00	0	41	0	977272832	42	5717
2026-01-19 04:07:32.26	224.13	14.97	-34.2	-34.9	25.3	0.00e+00	0	41	0	1000341504	42	5676
2026-01-19 04:07:36.30	224.74	15.28	-34.1	-34.8	25.4	0.00e+00	0	41	0	1023410176	42	5596
2026-01-19 04:07:40.34	225.37	15.58	-33.9	-34.6	25.5	0.00e+00	0	41	0	1045430272	42	5466
2026-01-19 04:07:44.38	226.02	15.89	-34.0	-34.7	25.6	0.00e+00	0	41	0	1068498944	42	5505
2026-01-19 04:07:48.42	226.67	16.19	-34.0	-34.7	25.5	0.00e+00	0	41	0	1091567616	42	5560
2026-01-19 04:07:52.47	227.34	16.50	-34.1	-34.8	25.6	0.00e+00	0	41	0	1114636288	42	5580
2026-01-19 04:07:56.51	228.02	16.81	-34.0	-34.6	25.6	0.00e+00	0	41	0	1136656384	42	5475
2026-01-19 04:08:00.54	228.72	17.11	-33.8	-34.5	25.7	0.00e+00	0	41	0	1159725056	42	5398
2026-01-19 04:08:04.57	229.42	17.42	-33.5	-34.1	26.0	0.00e+00	0	41	0	1181745152	40	5822
2026-01-19 04:08:08.62	230.15	17.72	-33.6	-34.2	26.0	0.00e+00	0	41	0	1204813824	40	5867
2026-01-19 04:08:12.66	230.88	18.03	-33.7	-34.4	25.8	0.00e+00	0	41	0	1227882496	40	5979
2026-01-19 04:08:16.70	231.64	18.33	-33.4	-34.0	26.1	0.00e+00	0	41	0	1249902592	40	5753
2026-01-19 04:08:20.74	232.40	18.64	-33.3	-34.0	26.2	0.00e+00	0	41	0	1272971264	40	5701
2026-01-19 04:08:24.78	233.19	18.94	-33.4	-34.1	26.1	0.00e+00	0	41	0	1296039936	40	5764
2026-01-19 04:08:28.82	233.98	19.24	-33.3	-34.0	26.2	0.00e+00	0	41	0	1319108608	40	5735
2026-01-19 04:08:32.86	234.79	19.54	-33.0	-33.7	26.4	0.00e+00	0	41	0	1341128704	40	5527
2026-01-19 04:08:36.90	235.62	19.83	-33.1	-33.8	26.3	0.00e+00	0	41	0	1364197376	40	5579
2026-01-19 04:08:40.94	236.47	20.13	-33.2	-33.8	26.3	0.00e+00	0	41	0	1386217472	40	5624
2026-01-19 04:08:44.98	237.32	20.42	-32.9	-33.5	26.5	0.00e+00	0	41	0	1409286144	40	5431
2026-01-19 04:08:49.02	238.20	20.71	-33.0	-33.7	26.5	0.00e+00	0	41	0	1432354816	38	6183
2026-01-19 04:08:53.05	239.09	20.99	-32.8	-33.5	26.7	0.00e+00	0	41	0	1454374912	38	6038
2026-01-19 04:08:57.09	240.00	21.27	-33.0	-33.7	26.5	0.00e+00	0	41	0	1477443584	38	6200
2026-01-19 04:09:01.13	240.92	21.55	-33.3	-34.0	26.3	0.00e+00	0	41	0	1500512256	38	6422
2026-01-19 04:09:05.18	241.86	21.82	-32.6	-33.2	26.8	0.00e+00	0	41	0	1523580928	38	5889
2026-01-19 04:09:09.21	242.81	22.08	-32.8	-33.5	26.7	0.00e+00	0	41	0	1545601024	38	6055
2026-01-19 04:09:13.26	243.79	22.35	-32.5	-33.2	27.0	0.00e+00	0	41	0	1568669696	38	5843
2026-01-19 04:09:17.30	244.77	22.60	-32.3	-33.0	27.0	0.00e+00	0	41	0	1590689792	38	5701
2026-01-19 04:09:21.34	245.78	22.85	-32.6	-33.2	26.8	0.00e+00	0	41	0	1613758464	38	5891
2026-01-19 04:09:25.38	246.79	23.09	-32.3	-33.0	27.1	0.00e+00	0	41	0	1636827136	38	5726
2026-01-19 04:09:29.42	247.83	23.33	-32.4	-33.1	27.0	0.00e+00	0	41	0	1659895808	38	5769
2026-01-19 04:09:33.46	248.88	23.56	-32.3	-33.0	27.1	0.00e+00	0	41	0	1681915904	38	5698
2026-01-19 04:09:37.50	249.94	23.78	-31.9	-32.6	27.4	0.00e+00	0	41	0	1704984576	38	5442
2026-01-19 04:09:41.54	251.02	23.99	-32.5	-33.2	27.0	0.00e+00	0	41	0	1728053248	38	5832
2026-01-19 04:09:45.58	252.11	24.19	-32.5	-33.1	27.0	0.00e+00	0	41	0	1750073344	38	5803
2026-01-19 04:09:49.61	253.21	24.38	-31.9	-32.6	27.4	0.00e+00	0	41	0	1773142016	38	5460
2026-01-19 04:09:53.65	254.33	24.57	-32.0	-32.6	27.4	0.00e+00	0	41	0	1795162112	38	5473
2026-01-19 04:09:57.69	255.46	24.74	-32.0	-32.6	27.4	0.00e+00	0	41	0	1818230784	38	5456
2026-01-19 04:10:01.73	256.60	24.90	-32.1	-32.7	27.3	0.00e+00	0	41	0	1841299456	38	5525
2026-01-19 04:10:05.76	257.75	25.05	-31.8	-32.5	27.5	0.00e+00	0	41	0	1863319552	38	5379
2026-01-19 04:10:09.80	258.91	25.19	-31.8	-32.5	27.5	0.00e+00	0	41	0	1886388224	38	5381
2026-01-19 04:10:13.83	260.08	25.32	-32.0	-32.6	27.2	0.00e+00	0	41	0	1909456896	36	6159
2026-01-19 04:10:17.87	261.27	25.44	-31.9	-32.5	27.5	0.00e+00	0	41	0	1932525568	36	6102
2026-01-19 04:10:21.91	262.46	25.54	-31.6	-32.2	27.7	0.00e+00	0	41	0	1954545664	36	5894
2026-01-19 04:10:25.95	263.65	25.64	-31.7	-32.3	27.7	0.00e+00	0	41	0	1977614336	36	5901
2026-01-19 04:10:29.99	264.86	25.72	-31.7	-32.3	27.6	0.00e+00	0	41	0	1999634432	36	5931
2026-01-19 04:10:34.04	266.07	25.78	-32.0	-32.6	27.4	0.00e+00	0	41	0	2022703104	36	6134
2026-01-19 04:10:38.08	267.28	25.83	-31.8	-32.4	27.6	0.00e+00	0	41	0	2045771776	36	6003
2026-01-19 04:10:42.12	268.50	25.87	-31.9	-32.5	27.4	0.00e+00	0	41	0	2068840448	36	6060
2026-01-19 04:10:46.15	269.72	25.90	-31.9	-32.6	27.5	0.00e+00	0	41	0	2090860544	36	6109
2026-01-19 04:10:50.19	270.94	25.91	-31.9	-32.5	27.3	0.00e+00	0	41	0	2113929216	36	6069
2026-01-19 04:10:54.23	272.16	25.91	-31.6	-32.2	27.7	0.00e+00	0	41	0	2136997888	36	5883
2026-01-19 04:10:58.27	273.38	25.90	-31.7	-32.3	27.6	0.00e+00	0	41	0	2159017984	36	5925
2026-01-19 04:11:02.31	274.59	25.87	-31.9	-32.6	27.4	0.00e+00	0	41	0	2182086656	36	6105
2026-01-19 04:11:06.35	275.81	25.83	-31.7	-32.4	27.5	0.00e+00	0	41	0	2204106752	36	5967
2026-01-19 04:11:10.39	277.02	25.77	-31.6	-32.3	27.6	0.00e+00	0	41	0	2227175424	36	5911
2026-01-19 04:11:14.43	278.23	25.71	-31.8	-32.4	27.5	0.00e+00	0	41	0	2250244096	36	6033
2026-01-19 04:11:18.47	279.43	25.62	-31.8	-32.5	27.5	0.00e+00	0	41	0	2273312768	36	6047
2026-01-19 04:11:22.50	280.62	25.53	-31.9	-32.6	27.4	0.00e+00	0	41	0	2295332864	36	6156
2026-01-19 04:11:26.54	281.81	25.42	-31.8	-32.4	27.5	0.00e+00	0	41	0	2318401536	36	6003
2026-01-19 04:11:30.58	282.99	25.31	-31.6	-32.3	27.6	0.00e+00	0	41	0	2341470208	36	5903
2026-01-19 04:11:34.62	284.16	25.18	-31.8	-32.4	27.4	0.00e+00	0	41	0	2363490304	36	6015
2026-01-19 04:11:38.66	285.32	25.03	-32.1	-32.7	27.3	0.00e+00	0	41	0	2386558976	36	6228
2026-01-19 04:11:42.70	286.47	24.88	-32.2	-32.8	27.2	0.00e+00	0	41	0	2408579072	36	6274
2026-01-19 04:11:46.74	287.61	24.72	-32.1	-32.7	27.3	0.00e+00	0	41	0	2431647744	36	6176
2026-01-19 04:11:50.77	288.73	24.54	-32.0	-32.6	27.2	0.00e+00	0	41	0	2454716416	36	6150
2026-01-19 04:11:54.81	289.84	24.36	-32.1	-32.7	27.3	0.00e+00	0	41	0	2476736512	36	6198
2026-01-19 04:11:58.85	290.94	24.17	-32.0	-32.6	27.5	0.00e+00	0	41	0	2499805184	36	6124
2026-01-19 04:12:02.90	292.03	23.96	-32.1	-32.7	27.4	0.00e+00	0	41	0	2522873856	36	6239
2026-01-19 04:12:06.94	293.11	23.75	-32.5	-33.0	27.1	0.00e+00	0	41	0	2545942528	36	6451
2026-01-19 04:12:10.98	294.16	23.53	-32.3	-32.8	27.3	0.00e+00	0	41	0	2567962624	36	6317
2026-01-19 04:12:15.02	295.21	23.30	-32.5	-33.1	27.2	0.00e+00	0	41	0	2591031296	36	6518
2026-01-19 04:12:19.06	296.24	23.07	-32.5	-33.2	27.1	0.00e+00	0	41	0	2613051392	36	6563
2026-01-19 04:12:23.10	297.25	22.83	-32.6	-33.2	27.0	0.00e+00	0	41	0	2636120064	36	6609
2026-01-19 04:12:27.14	298.25	22.58	-33.2	-33.8	26.6	0.00e+00	0	41	0	2659188736	38	6273
2026-01-19 04:12:31.19	299.23	22.32	-33.5	-34.2	26.2	0.00e+00	0	41	0	2682257408	38	6581
2026-01-19 04:12:35.23	300.20	22.06	-32.6	-33.2	27.0	0.00e+00	0	41	0	2704277504	38	5870
2026-01-19 04:12:39.27	301.14	21.80	-32.5	-33.2	27.1	0.00e+00	0	41	0	2727346176	38	5886
2026-01-19 04:12:43.31	302.08	21.53	-33.0	-33.7	26.6	0.00e+00	0	41	0	2750414848	38	6208
2026-01-19 04:12:47.35	303.00	21.25	-32.9	-33.5	26.8	0.00e+00	0	41	0	2772434944	38	6097
2026-01-19 04:12:51.40	303.90	20.97	-33.0	-33.6	26.7	0.00e+00	0	41	0	2795503616	38	6159
2026-01-19 04:12:55.44	304.79	20.69	-33.2	-33.8	26.5	0.00e+00	0	41	0	2818572288	38	6314
2026-01-19 04:12:59.48	305.66	20.40	-33.1	-33.7	26.6	0.00e+00	0	41	0	2840592384	38	6186
2026-01-19 04:13:03.52	306.51	20.11	-33.1	-33.8	26.5	0.00e+00	0	41	0	2863661056	38	6298
2026-01-19 04:13:07.56	307.35	19.82	-33.5	-34.1	26.2	0.00e+00	0	41	0	2886729728	38	6495
2026-01-19 04:13:11.60	308.17	19.53	-33.6	-34.1	26.1	0.00e+00	0	41	0	2908749824	38	6538
2026-01-19 04:13:15.63	308.98	19.23	-33.8	-34.5	25.8	0.00e+00	0	41	0	2931818496	40	6090
2026-01-19 04:13:19.67	309.77	18.93	-33.7	-34.5	25.6	0.00e+00	0	41	0	2954887168	40	6057
2026-01-19 04:13:23.71	310.55	18.63	-33.8	-34.5	25.8	0.00e+00	0	41	0	2976907264	40	6083
2026-01-19 04:13:27.75	311.31	18.33	-33.7	-34.3	26.0	0.00e+00	0	41	0	2999975936	40	5918
2026-01-19 04:13:31.79	312.06	18.03	-33.8	-34.5	25.8	0.00e+00	0	41	0	3023044608	40	6043
2026-01-19 04:13:35.83	312.79	17.72	-34.3	-35.0	25.4	0.00e+00	0	41	0	3045064704	40	6428
2026-01-19 04:13:39.87	313.51	17.42	-34.2	-34.9	25.5	0.00e+00	0	41	0	3068133376	40	6323
2026-01-19 04:13:43.91	314.21	17.12	-34.1	-34.8	25.6	0.00e+00	0	41	0	3091202048	40	6249
2026-01-19 04:13:47.95	314.91	16.81	-34.3	-35.0	25.4	0.00e+00	0	41	0	3113222144	40	6395
2026-01-19 04:13:51.99	315.58	16.51	-34.3	-35.0	25.4	0.00e+00	0	41	0	3136290816	40	6434
2026-01-19 04:13:56.03	316.25	16.20	-34.5	-35.3	25.2	0.00e+00	0	41	0	3159359488	40	6616
2026-01-19 04:14:00.07	316.90	15.90	-34.3	-35.1	25.3	0.00e+00	0	41	0	3182428160	40	6496
2026-01-19 04:14:04.11	317.54	15.60	-34.5	-35.1	25.3	0.00e+00	0	41	0	3204448256	40	6534
2026-01-19 04:14:08.15	318.17	15.29	-34.5	-35.2	25.1	0.00e+00	0	41	0	3227516928	40	6575
2026-01-19 04:14:12.20	318.78	14.99	-34.3	-34.9	25.3	0.00e+00	0	41	0	3249537024	40	6370
2026-01-19 04:14:16.23	319.38	14.69	-34.6	-35.4	25.1	0.00e+00	0	41	0	3272605696	40	6716
2026-01-19 04:14:20.27	319.97	14.39	-34.8	-35.5	24.8	0.00e+00	0	41	0	3295674368	42	6071
2026-01-19 04:14:24.31	320.55	14.09	-34.7	-35.3	24.9	0.00e+00	0	41	0	3317694464	42	5931
2026-01-19 04:14:28.35	321.12	13.79	-34.9	-35.7	24.7	0.00e+00	0	41	0	3340763136	42	6223
2026-01-19 04:14:32.39	321.68	13.50	-35.1	-35.9	24.5	0.00e+00	0	41	0	3363831808	42	6344
2026-01-19 04:14:36.43	322.23	13.20	-35.2	-35.8	24.5	0.00e+00	0	41	0	3386900480	42	6288
2026-01-19 04:14:40.47	322.76	12.90	-35.2	-35.8	24.4	0.00e+00	0	41	0	3408920576	42	6300
2026-01-19 04:14:44.51	323.29	12.61	-35.3	-36.0	24.3	0.00e+00	0	41	0	3431989248	42	6430
2026-01-19 04:14:48.55	323.80	12.32	-35.5	-36.2	24.2	0.00e+00	0	41	0	3454009344	42	6608
2026-01-19 04:14:52.60	324.31	12.03	-35.7	-36.4	24.0	0.00e+00	0	41	0	3477078016	42	6693
2026-01-19 04:14:56.64	324.81	11.74	-35.5	-36.1	24.1	0.00e+00	0	41	0	3500146688	44	5814
2026-01-19 04:15:00.67	325.30	11.45	-35.5	-36.3	24.1	0.00e+00	0	41	0	3523215360	44	5937
2026-01-19 04:15:04.70	325.77	11.17	-35.5	-36.2	24.0	0.00e+00	0	41	0	3545235456	44	5835
2026-01-19 04:15:08.74	326.24	10.89	-35.6	-36.2	23.9	0.00e+00	0	41	0	3568304128	44	5891
2026-01-19 04:15:12.79	326.71	10.60	-35.5	-36.2	24.1	0.00e+00	0	41	0	3591372800	44	5830
2026-01-19 04:15:16.83	327.16	10.32	-35.7	-36.4	23.8	0.00e+00	0	41	0	3613392896	44	6007
2026-01-19 04:15:20.87	327.60	10.04	-36.0	-36.7	23.5	0.00e+00	0	41	0	3636461568	44	6179
2026-01-19 04:15:24.90	328.04	9.77	-36.3	-37.2	23.2	0.00e+00	0	41	0	3658481664	44	6568
2026-01-19 04:15:28.94	328.47	9.49	-36.4	-37.1	23.1	0.00e+00	0	41	0	3681550336	44	6523
2026-01-19 04:15:32.98	328.89	9.22	-36.5	-37.2	22.9	0.00e+00	0	41	0	3704619008	44	6596
2026-01-19 04:15:37.01	329.30	8.95	-36.6	-37.4	22.8	0.00e+00	0	41	0	3727687680	44	6715
2026-01-19 04:15:41.05	329.71	8.68	-36.6	-37.4	22.8	0.00e+00	0	41	0	3749707776	46	5992
2026-01-19 04:15:45.09	330.11	8.41	-36.8	-37.5	22.6	0.00e+00	0	41	0	3772776448	46	6050
2026-01-19 04:15:49.13	330.50	8.14	-36.9	-37.6	22.3	0.00e+00	0	41	0	3795845120	46	6167
2026-01-19 04:15:53.18	330.89	7.87	-36.9	-37.6	22.4	0.00e+00	0	41	0	3817865216	46	6121
2026-01-19 04:15:57.21	331.26	7.61	-37.0	-37.7	22.2	0.00e+00	0	41	0	3840933888	46	6208
2026-01-19 04:16:01.26	331.64	7.35	-37.1	-37.8	22.2	0.00e+00	0	41	0	3862953984	46	6286
2026-01-19 04:16:05.30	332.00	7.09	-37.4	-38.2	21.8	0.00e+00	0	41	0	3886022656	46	6595
2026-01-19 04:16:09.34	332.36	6.83	-37.4	-38.2	21.7	0.00e+00	0	41	0	3909091328	46	6573
2026-01-19 04:16:13.37	332.72	6.58	-37.5	-38.3	21.6	0.00e+00	0	41	0	3932160000	46	6643
2026-01-19 04:16:17.41	333.07	6.32	-37.5	-38.3	21.4	0.00e+00	0	41	0	3954180096	46	6669
2026-01-19 04:16:21.45	333.41	6.07	-37.6	-38.4	21.2	0.00e+00	0	41	0	3977248768	46	6727
2026-01-19 04:16:25.50	333.75	5.82	-38.8	-39.7	19.5	0.00e+00	0	41	0	4000317440	50	6240
2026-01-19 04:16:29.54	334.08	5.57	-40.1	-41.4	17.0	0.00e+00	0	41	0	4022337536	52	6711
2026-01-19 04:16:33.58	334.41	5.32	-42.0	-44.1	13.1	3.40e-06	0	41	0	4045406208	56	7320
2026-01-19 04:16:37.61	334.73	5.07	-43.5	-46.9	9.6	8.12e-03	0	41	0	4067426304	58	8984
2026-01-19 04:16:41.66	335.04	4.83	-44.5	-49.8	5.9	2.78e-01	0	41	0	4090494976	60	11121
2026-01-19 04:16:45.69	335.35	4.58	-44.8	-51.4	4.2	7.97e-01	0	41	0	4098883584	60	13475
2026-01-19 04:16:49.73	335.66	4.34	-45.1	-54.8	3.7	8.43e-01	0	41	104	4098883584	60	19977
2026-01-19 04:16:53.77	335.96	4.10	-45.2	-56.6	3.6	8.46e-01	0	41	104	4098883584	60	24478
2026-01-19 04:16:57.81	336.26	3.86	-45.2	-56.2	3.6	8.43e-01	0	41	104	4098883584	60	23406
2026-01-19 04:17:01.84	336.55	3.63	-45.3	-56.7	3.6	8.45e-01	0	41	104	4098883584	60	24622
2026-01-19 04:17:05.88	336.84	3.39	-45.2	-57.4	3.6	8.45e-01	0	41	104	4098883584	60	26693
2026-01-19 04:17:09.92	337.13	3.15	-45.3	-57.4	3.6	8.44e-01	0	41	104	4098883584	60	26880
2026-01-19 04:17:13.96	337.41	2.92	-47.5	-59.7	3.6	8.45e-01	0	41	104	4098883584	60	34748
2026-01-19 04:17:17.99	337.68	2.69	-49.8	-62.0	3.6	8.46e-01	0	41	104	4098883584	60	45404
2026-01-19 04:17:22.03	337.95	2.46	-50.2	-62.3	3.6	8.44e-01	0	41	104	4098883584	60	46997
2026-01-19 04:17:26.07	338.22	2.23	-50.3	-62.4	3.6	8.45e-01	0	41	104	4098883584	60	47789
2026-01-19 04:17:30.11	338.49	2.01	-50.1	-62.3	3.6	8.46e-01	0	41	104	4098883584	60	47025
2026-01-19 04:17:34.15	338.75	1.78	-50.1	-62.2	3.6	8.45e-01	0	41	104	4098883584	60	46712
2026-01-19 04:17:38.19	339.00	1.55	-50.2	-62.3	3.6	8.45e-01	0	41	104	4098883584	60	47003
2026-01-19 04:17:42.23	339.26	1.33	-50.2	-62.3	3.6	8.46e-01	0	41	104	4098883584	60	46980
2026-01-19 04:17:46.27	339.51	1.11	-50.2	-62.3	3.6	8.46e-01	0	41	104	4098883584	60	47307
2026-01-19 04:17:50.31	339.76	0.89	-50.2	-62.3	3.6	8.46e-01	0	41	104	4098883584	60	46947
2026-01-19 04:17:54.35	340.00	0.67	-50.2	-62.3	3.6	8.45e-01	0	41	104	4098883584	60	47144
2026-01-19 04:17:58.39	340.24	0.45	-50.2	-62.3	3.6	8.45e-01	0	41	104	4098883584	60	47057
2026-01-19 04:18:02.43	340.48	0.23	-50.2	-62.3	3.6	8.45e-01	0	41	104	4098883584	60	47101
2026-01-19 04:18:06.47	340.71	0.02	-50.1	-62.3	3.6	8.45e-01	0	41	104	4098883584	60	47247

#Closed at: 2026-01-19 04:18:06
#Recorded file [4098 MB]: D:/lorett/data/35029_260119_160341.dat