passes_logs/2026/01/19/R4.6S_Anadyr/R4.6S_Anadyr__20260119_144002_NOAA_21_JPSS-2_rec.log

#Pass ID: 20260119_144002_NOAA 21 (JPSS-2)
#Satellite: NOAA 21 (JPSS-2)
#Configuration: NOAA-21
#almurnet v.1.7.20251203
#Start time: 2026-01-19 14:40:03

#Version: 2.2.20231116
#Station: R4.6S_Anadyr
#Location: 177.4865 lon 64.73178 lat
#TLE: 1 54234U 22150A   26018.88939962  .00000052  00000+0  45304-4 0  9995
#TLE: 2 54234  98.7504 319.7421 0000606 261.7569  98.3539 14.19535520165361

#Time	Az	El	Level	Level2	SNR	BER	BlckErr	Temp	State	Recorded	gain1	gain2
2026-01-19 14:40:03.55	20.37	0.09	-50.6	-65.5	3.5	1.51e+00	0	38	0	0	60	67846
2026-01-19 14:40:07.58	20.40	0.33	-50.5	-63.4	3.5	1.52e+00	0	40	104	0	60	51869
2026-01-19 14:40:11.62	20.42	0.57	-50.6	-63.5	3.5	1.52e+00	0	40	104	0	60	52551
2026-01-19 14:40:15.66	20.45	0.82	-50.6	-63.4	3.5	1.51e+00	0	40	104	0	60	51934
2026-01-19 14:40:19.70	20.47	1.06	-50.3	-63.2	3.5	1.52e+00	0	40	104	0	60	50793
2026-01-19 14:40:23.74	20.50	1.31	-49.9	-62.7	3.5	1.52e+00	0	40	104	0	60	48082
2026-01-19 14:40:27.78	20.52	1.57	-49.1	-61.8	3.5	1.52e+00	0	40	104	0	60	43117
2026-01-19 14:40:31.82	20.55	1.82	-49.0	-61.5	3.5	1.52e+00	0	40	104	0	60	41941
2026-01-19 14:40:35.86	20.57	2.08	-49.0	-61.5	3.5	1.52e+00	0	40	104	0	60	41758
2026-01-19 14:40:39.91	20.60	2.34	-49.0	-61.5	3.5	1.52e+00	0	40	104	0	60	41942
2026-01-19 14:40:43.95	20.63	2.60	-49.0	-60.7	3.5	1.51e+00	0	41	104	0	60	37976
2026-01-19 14:40:47.99	20.65	2.86	-48.7	-58.1	4.4	1.46e+00	0	41	104	0	60	28045
2026-01-19 14:40:52.03	20.68	3.13	-46.4	-49.8	11.3	1.84e-03	122	41	0	9437184	60	10863
2026-01-19 14:40:56.06	20.70	3.40	-44.8	-47.3	13.9	1.50e-06	122	41	0	22020096	60	8130
2026-01-19 14:41:00.10	20.73	3.67	-46.3	-49.7	11.1	6.48e-04	123	41	0	34603008	60	10750
2026-01-19 14:41:04.14	20.76	3.94	-48.9	-61.6	3.5	1.52e+00	0	41	104	45088768	60	42249
2026-01-19 14:41:08.18	20.78	4.22	-44.6	-47.0	14.0	0.00e+00	123	41	0	49283072	60	7818
2026-01-19 14:41:12.22	20.81	4.50	-43.7	-45.7	15.6	7.00e-07	122	41	0	61865984	60	6763
2026-01-19 14:41:16.26	20.84	4.78	-42.2	-43.8	17.5	0.00e+00	122	41	0	74448896	58	6104
2026-01-19 14:41:20.31	20.86	5.07	-40.5	-41.7	19.6	0.00e+00	123	41	0	87031808	54	6058
2026-01-19 14:41:24.35	20.89	5.36	-40.1	-41.3	19.9	0.00e+00	120	41	0	99614720	54	5782
2026-01-19 14:41:28.39	20.92	5.65	-40.1	-41.3	20.1	0.00e+00	122	41	0	112197632	54	5778
2026-01-19 14:41:32.43	20.95	5.95	-39.9	-41.1	20.2	0.00e+00	123	41	0	124780544	54	5639
2026-01-19 14:41:36.47	20.97	6.25	-39.8	-41.0	20.5	0.00e+00	122	41	0	137363456	52	6221
2026-01-19 14:41:40.51	21.00	6.55	-39.7	-40.9	20.5	0.00e+00	122	41	0	149946368	52	6174
2026-01-19 14:41:44.55	21.03	6.86	-39.7	-40.9	20.7	0.00e+00	122	41	0	162529280	52	6152
2026-01-19 14:41:48.59	21.06	7.17	-39.4	-40.6	20.9	0.00e+00	122	41	0	175112192	52	5937
2026-01-19 14:41:52.63	21.09	7.48	-39.2	-40.3	21.2	0.00e+00	123	41	0	187695104	52	5762
2026-01-19 14:41:56.67	21.11	7.80	-39.1	-40.2	21.3	0.00e+00	120	41	0	200278016	52	5725
2026-01-19 14:42:00.71	21.14	8.12	-39.0	-40.1	21.5	0.00e+00	123	41	0	212860928	52	5605
2026-01-19 14:42:04.75	21.17	8.45	-38.9	-40.0	21.6	0.00e+00	122	41	0	225443840	52	5545
2026-01-19 14:42:08.79	21.20	8.78	-39.0	-40.1	21.4	0.00e+00	123	41	0	239075328	52	5603
2026-01-19 14:42:12.83	21.23	9.11	-38.5	-39.5	21.9	0.00e+00	123	41	0	251658240	50	5917
2026-01-19 14:42:16.87	21.26	9.45	-38.4	-39.4	22.1	0.00e+00	122	41	0	264241152	50	5819
2026-01-19 14:42:20.92	21.29	9.79	-38.3	-39.3	22.1	0.00e+00	123	41	0	276824064	50	5790
2026-01-19 14:42:24.95	21.32	10.14	-38.3	-39.3	22.2	0.00e+00	122	41	0	289406976	50	5760
2026-01-19 14:42:28.99	21.36	10.49	-37.9	-38.9	22.6	0.00e+00	123	41	0	301989888	50	5507
2026-01-19 14:42:33.04	21.39	10.85	-38.0	-39.0	22.5	0.00e+00	122	41	0	314572800	50	5543
2026-01-19 14:42:37.07	21.42	11.22	-37.6	-38.6	22.8	0.00e+00	120	41	0	327155712	48	5979
2026-01-19 14:42:41.11	21.45	11.59	-37.6	-38.6	22.8	0.00e+00	123	41	0	339738624	48	5954
2026-01-19 14:42:45.15	21.48	11.96	-37.4	-38.4	23.0	0.00e+00	123	41	0	352321536	48	5840
2026-01-19 14:42:49.19	21.52	12.34	-37.4	-38.3	23.1	0.00e+00	120	41	0	364904448	48	5790
2026-01-19 14:42:53.23	21.55	12.73	-37.3	-38.3	23.1	0.00e+00	122	41	0	377487360	48	5747
2026-01-19 14:42:57.27	21.58	13.12	-37.3	-38.3	23.2	0.00e+00	123	41	0	390070272	48	5770
2026-01-19 14:43:01.31	21.62	13.52	-37.3	-38.3	23.1	0.00e+00	123	41	0	402653184	48	5757
2026-01-19 14:43:05.35	21.65	13.93	-37.3	-38.3	23.2	0.00e+00	120	41	0	415236096	48	5754
2026-01-19 14:43:09.39	21.69	14.34	-37.4	-38.3	23.2	0.00e+00	123	41	0	427819008	48	5787
2026-01-19 14:43:13.43	21.72	14.76	-37.4	-38.3	23.2	0.00e+00	122	41	0	440401920	48	5776
2026-01-19 14:43:17.47	21.76	15.19	-37.5	-38.4	23.1	0.00e+00	123	42	0	452984832	48	5838
2026-01-19 14:43:21.50	21.79	15.62	-37.6	-38.6	23.0	0.00e+00	123	41	0	465567744	48	5933
2026-01-19 14:43:25.54	21.83	16.07	-37.6	-38.6	23.0	0.00e+00	123	42	0	478150656	48	5969
2026-01-19 14:43:29.58	21.87	16.52	-37.6	-38.6	23.0	0.00e+00	122	42	0	490733568	48	5931
2026-01-19 14:43:33.62	21.91	16.98	-37.4	-38.4	23.2	0.00e+00	123	42	0	503316480	48	5824
2026-01-19 14:43:37.66	21.95	17.45	-37.5	-38.5	23.2	0.00e+00	120	42	0	515899392	48	5864
2026-01-19 14:43:41.70	21.99	17.93	-37.4	-38.4	23.2	0.00e+00	120	42	0	528482304	48	5802
2026-01-19 14:43:45.74	22.03	18.42	-37.4	-38.4	23.3	0.00e+00	123	42	0	541065216	48	5840
2026-01-19 14:43:49.78	22.07	18.91	-37.2	-38.2	23.4	0.00e+00	123	42	0	554696704	48	5676
2026-01-19 14:43:53.82	22.11	19.42	-37.4	-38.3	23.3	0.00e+00	122	42	0	567279616	48	5782
2026-01-19 14:43:57.85	22.15	19.94	-37.1	-38.1	23.5	0.00e+00	123	42	0	579862528	48	5607
2026-01-19 14:44:01.90	22.20	20.47	-36.9	-37.9	23.7	0.00e+00	122	42	0	592445440	48	5474
2026-01-19 14:44:05.94	22.24	21.01	-36.7	-37.6	24.0	0.00e+00	123	42	0	605028352	46	5988
2026-01-19 14:44:09.97	22.29	21.56	-36.6	-37.5	24.1	0.00e+00	123	42	0	617611264	46	5886
2026-01-19 14:44:14.01	22.34	22.13	-36.2	-37.1	24.4	0.00e+00	120	42	0	630194176	46	5630
2026-01-19 14:44:18.05	22.38	22.70	-36.3	-37.2	24.3	0.00e+00	121	42	0	642777088	46	5697
2026-01-19 14:44:22.09	22.43	23.30	-36.0	-36.9	24.6	0.00e+00	122	42	0	655360000	46	5477
2026-01-19 14:44:26.13	22.48	23.90	-35.9	-36.8	24.7	0.00e+00	122	42	0	667942912	46	5440
2026-01-19 14:44:30.17	22.54	24.52	-36.0	-36.8	24.6	0.00e+00	123	42	0	680525824	46	5466
2026-01-19 14:44:34.21	22.59	25.16	-36.1	-37.0	24.5	0.00e+00	122	42	0	693108736	46	5536
2026-01-19 14:44:38.25	22.64	25.81	-36.4	-37.3	24.2	0.00e+00	123	42	0	705691648	46	5754
2026-01-19 14:44:42.29	22.70	26.47	-37.0	-38.0	23.7	0.00e+00	123	42	0	718274560	46	6206
2026-01-19 14:44:46.33	22.76	27.16	-37.4	-38.4	23.5	0.00e+00	122	42	0	730857472	46	6528
2026-01-19 14:44:50.37	22.82	27.86	-37.7	-38.7	23.2	0.00e+00	123	42	0	743440384	46	6744
2026-01-19 14:44:54.41	22.88	28.58	-37.8	-38.8	23.1	0.00e+00	123	42	0	756023296	48	6083
2026-01-19 14:44:58.45	22.94	29.32	-37.3	-38.3	23.5	0.00e+00	122	42	0	768606208	48	5735
2026-01-19 14:45:02.49	23.01	30.07	-37.1	-38.1	23.8	0.00e+00	122	42	0	781189120	48	5603
2026-01-19 14:45:06.53	23.08	30.85	-37.0	-37.9	23.8	0.00e+00	123	42	0	793772032	48	5530
2026-01-19 14:45:10.56	23.15	31.65	-37.1	-38.0	23.8	0.00e+00	122	42	0	806354944	48	5552
2026-01-19 14:45:14.60	23.23	32.47	-36.7	-37.6	24.1	0.00e+00	123	42	0	818937856	46	5943
2026-01-19 14:45:18.64	23.30	33.32	-36.9	-37.8	23.9	0.00e+00	122	42	0	831520768	46	6078
2026-01-19 14:45:22.67	23.38	34.19	-37.6	-38.6	23.4	0.00e+00	123	42	0	844103680	46	6655
2026-01-19 14:45:26.71	23.47	35.08	-38.0	-39.0	22.9	0.00e+00	123	42	0	856686592	48	6256
2026-01-19 14:45:30.76	23.56	36.01	-38.2	-39.2	22.9	0.00e+00	122	42	0	869269504	48	6364
2026-01-19 14:45:34.79	23.65	36.96	-38.7	-39.7	22.4	0.00e+00	123	42	0	881852416	48	6766
2026-01-19 14:45:38.84	23.74	37.93	-39.2	-40.3	22.1	0.00e+00	122	42	0	895483904	50	6438
2026-01-19 14:45:42.87	23.85	38.94	-38.6	-39.6	22.5	0.00e+00	123	42	0	908066816	50	5949
2026-01-19 14:45:46.92	23.95	39.98	-38.4	-39.4	22.6	0.00e+00	120	42	0	920649728	50	5836
2026-01-19 14:45:50.96	24.07	41.05	-38.6	-39.6	22.5	0.00e+00	120	42	0	933232640	50	5928
2026-01-19 14:45:54.99	24.19	42.15	-39.2	-40.2	21.9	0.00e+00	123	42	0	945815552	50	6419
2026-01-19 14:45:59.03	24.31	43.28	-40.1	-41.2	21.2	0.00e+00	122	42	0	958398464	52	6389
2026-01-19 14:46:03.07	24.45	44.45	-40.0	-41.1	21.4	0.00e+00	122	42	0	970981376	52	6345
2026-01-19 14:46:07.12	24.60	45.66	-40.4	-41.6	20.8	0.00e+00	123	42	0	983564288	52	6668
2026-01-19 14:46:11.16	24.75	46.90	-40.2	-41.4	21.0	0.00e+00	123	42	0	996147200	52	6548
2026-01-19 14:46:15.20	24.92	48.18	-39.7	-40.8	21.6	0.00e+00	122	42	0	1008730112	52	6116
2026-01-19 14:46:19.24	25.10	49.50	-39.0	-40.1	22.1	0.00e+00	123	42	0	1021313024	52	5604
2026-01-19 14:46:23.28	25.30	50.86	-38.9	-39.9	22.3	0.00e+00	123	42	0	1033895936	50	6189
2026-01-19 14:46:27.33	25.51	52.27	-38.4	-39.4	22.7	0.00e+00	122	42	0	1046478848	50	5826
2026-01-19 14:46:31.37	25.74	53.71	-37.7	-38.6	23.3	0.00e+00	123	42	0	1059061760	48	5977
2026-01-19 14:46:35.41	26.00	55.19	-37.2	-38.1	23.7	0.00e+00	122	42	0	1071644672	48	5649
2026-01-19 14:46:39.45	26.28	56.71	-36.9	-37.9	23.8	0.00e+00	123	42	0	1084227584	48	5471
2026-01-19 14:46:43.49	26.60	58.28	-36.8	-37.7	24.0	0.00e+00	123	42	0	1096810496	48	5378
2026-01-19 14:46:47.53	26.95	59.89	-36.5	-37.5	24.2	0.00e+00	122	42	0	1109393408	46	5876
2026-01-19 14:46:51.57	27.35	61.54	-35.5	-36.4	24.9	0.00e+00	123	42	0	1121976320	44	5842
2026-01-19 14:46:55.61	27.80	63.23	-35.7	-36.6	24.8	0.00e+00	120	42	0	1134559232	44	5932
2026-01-19 14:46:59.65	28.33	64.96	-35.5	-36.3	25.0	0.00e+00	120	42	0	1147142144	44	5776
2026-01-19 14:47:03.69	28.93	66.73	-35.7	-36.5	24.9	0.00e+00	120	42	0	1159725056	44	5920
2026-01-19 14:47:07.73	29.65	68.54	-35.7	-36.6	24.7	0.00e+00	123	42	0	1172307968	44	5980
2026-01-19 14:47:11.77	30.51	70.38	-35.4	-36.3	24.7	0.00e+00	123	42	0	1185939456	44	5730
2026-01-19 14:47:15.82	31.56	72.26	-34.8	-35.6	25.5	0.00e+00	123	42	0	1198522368	42	5962
2026-01-19 14:47:19.86	32.87	74.15	-35.0	-35.9	25.3	0.00e+00	123	42	0	1211105280	42	6162
2026-01-19 14:47:23.90	34.55	76.07	-35.3	-36.2	24.8	0.00e+00	123	42	0	1223688192	42	6397
2026-01-19 14:47:27.94	36.78	77.99	-35.8	-36.7	24.3	0.00e+00	120	42	0	1236271104	44	6018
2026-01-19 14:47:31.97	39.88	79.91	-35.8	-36.7	24.1	0.00e+00	123	42	0	1248854016	44	6042
2026-01-19 14:47:36.01	44.46	81.82	-36.7	-37.7	23.9	0.00e+00	121	42	0	1261436928	46	6002
2026-01-19 14:47:40.05	51.77	83.65	-36.3	-37.2	24.1	0.00e+00	123	42	0	1274019840	46	5680
2026-01-19 14:47:44.09	64.66	85.31	-36.7	-37.6	24.0	0.00e+00	120	42	0	1286602752	46	5982
2026-01-19 14:47:48.13	88.72	86.52	-36.6	-37.5	24.1	0.00e+00	123	42	0	1299185664	46	5914
2026-01-19 14:47:52.17	124.28	86.71	-36.0	-36.9	24.4	0.00e+00	123	42	0	1311768576	44	6181
2026-01-19 14:47:56.21	152.67	85.75	-35.9	-36.8	24.6	0.00e+00	122	42	0	1324351488	44	6067
2026-01-19 14:48:00.25	168.23	84.18	-35.3	-36.2	24.7	0.00e+00	123	42	0	1336934400	44	5668
2026-01-19 14:48:04.28	176.80	82.38	-36.2	-37.1	24.3	0.00e+00	122	42	0	1349517312	44	6302
2026-01-19 14:48:08.32	182.04	80.49	-35.5	-36.4	24.9	0.00e+00	120	42	0	1362100224	44	5840
2026-01-19 14:48:12.36	185.51	78.57	-35.5	-36.4	24.9	0.00e+00	123	42	0	1374683136	44	5800
2026-01-19 14:48:16.40	187.96	76.64	-35.1	-36.0	25.1	0.00e+00	123	42	0	1387266048	44	5561
2026-01-19 14:48:20.44	189.78	74.72	-35.5	-36.3	25.0	0.00e+00	123	42	0	1399848960	44	5762
2026-01-19 14:48:24.48	191.19	72.81	-35.8	-36.8	24.4	0.00e+00	123	42	0	1412431872	44	6079
2026-01-19 14:48:28.52	192.31	70.93	-35.2	-36.1	25.0	0.00e+00	120	42	0	1425014784	44	5639
2026-01-19 14:48:32.56	193.22	69.08	-35.4	-36.3	24.7	0.00e+00	123	42	0	1437597696	44	5779
2026-01-19 14:48:36.60	193.97	67.26	-36.2	-37.1	24.4	0.00e+00	123	42	0	1450180608	44	6332
2026-01-19 14:48:40.64	194.61	65.47	-35.2	-36.1	25.0	0.00e+00	122	42	0	1462763520	44	5626
2026-01-19 14:48:44.68	195.15	63.72	-35.9	-36.8	24.6	0.00e+00	122	41	0	1475346432	44	6071
2026-01-19 14:48:48.71	195.63	62.02	-36.0	-36.9	23.9	0.00e+00	122	42	0	1487929344	44	6173
2026-01-19 14:48:52.75	196.04	60.35	-36.4	-37.4	24.0	0.00e+00	123	42	0	1500512256	44	6505
2026-01-19 14:48:56.79	196.41	58.73	-36.4	-37.4	24.1	0.00e+00	123	42	0	1513095168	46	5814
2026-01-19 14:49:00.83	196.73	57.14	-35.9	-36.8	24.5	0.00e+00	121	41	0	1526726656	44	6080
2026-01-19 14:49:04.87	197.02	55.60	-38.5	-39.5	22.4	0.00e+00	123	41	0	1539309568	48	6626
2026-01-19 14:49:08.91	197.29	54.10	-37.3	-38.2	23.1	0.00e+00	123	42	0	1551892480	48	5719
2026-01-19 14:49:12.95	197.53	52.64	-37.7	-38.7	23.2	0.00e+00	122	41	0	1564475392	48	6033
2026-01-19 14:49:16.99	197.74	51.22	-38.8	-39.8	22.0	0.00e+00	122	42	0	1577058304	50	6123
2026-01-19 14:49:21.03	197.94	49.85	-39.6	-40.7	21.4	0.00e+00	122	42	0	1589641216	50	6799
2026-01-19 14:49:25.07	198.13	48.51	-38.7	-39.7	22.3	0.00e+00	123	42	0	1602224128	50	6028
2026-01-19 14:49:29.11	198.30	47.22	-39.9	-41.0	21.1	0.00e+00	123	41	0	1614807040	52	6264
2026-01-19 14:49:33.16	198.46	45.95	-38.9	-40.0	22.1	0.00e+00	123	41	0	1627389952	52	5532
2026-01-19 14:49:37.20	198.60	44.73	-41.0	-42.3	20.0	0.00e+00	123	42	0	1639972864	54	6429
2026-01-19 14:49:41.24	198.74	43.55	-40.1	-41.2	21.1	0.00e+00	122	42	0	1652555776	54	5681
2026-01-19 14:49:45.28	198.87	42.40	-38.9	-40.0	22.0	0.00e+00	123	41	0	1665138688	50	6220
2026-01-19 14:49:49.32	198.99	41.29	-40.7	-42.0	20.3	0.00e+00	123	42	0	1677721600	54	6238
2026-01-19 14:49:53.36	199.11	40.20	-39.2	-40.3	21.8	0.00e+00	123	42	0	1690304512	52	5740
2026-01-19 14:49:57.40	199.22	39.15	-39.0	-40.1	21.9	0.00e+00	122	42	0	1702887424	52	5597
2026-01-19 14:50:01.44	199.32	38.13	-38.3	-39.3	22.7	0.00e+00	122	42	0	1715470336	50	5756
2026-01-19 14:50:05.48	199.42	37.15	-37.8	-38.7	23.0	0.00e+00	123	42	0	1728053248	48	6041
2026-01-19 14:50:09.52	199.51	36.18	-38.5	-39.5	22.2	0.00e+00	122	42	0	1740636160	48	6638
2026-01-19 14:50:13.56	199.60	35.25	-38.9	-40.0	21.8	0.00e+00	123	41	0	1753219072	50	6250
2026-01-19 14:50:17.60	199.68	34.35	-39.0	-40.1	21.6	0.00e+00	122	42	0	1765801984	50	6327
2026-01-19 14:50:21.63	199.76	33.47	-37.9	-38.9	23.0	0.00e+00	123	41	0	1778384896	50	5483
2026-01-19 14:50:25.67	199.84	32.61	-37.4	-38.4	23.3	0.00e+00	122	41	0	1790967808	48	5805
2026-01-19 14:50:29.71	199.91	31.78	-37.1	-38.0	23.6	0.00e+00	122	42	0	1803550720	48	5558
2026-01-19 14:50:33.75	199.98	30.97	-37.6	-38.6	23.1	0.00e+00	123	42	0	1816133632	48	5955
2026-01-19 14:50:37.79	200.05	30.18	-37.7	-38.7	23.0	0.00e+00	121	42	0	1828716544	48	6032
2026-01-19 14:50:41.84	200.11	29.41	-37.4	-38.4	23.1	0.00e+00	121	42	0	1842348032	48	5843
2026-01-19 14:50:45.87	200.18	28.67	-37.1	-38.1	23.4	0.00e+00	123	41	0	1854930944	48	5602
2026-01-19 14:50:49.91	200.24	27.94	-36.7	-37.6	23.8	0.00e+00	120	42	0	1867513856	46	5953
2026-01-19 14:50:53.94	200.30	27.23	-36.4	-37.3	24.0	0.00e+00	122	42	0	1880096768	46	5766
2026-01-19 14:50:57.98	200.35	26.54	-36.2	-37.1	24.2	0.00e+00	122	42	0	1892679680	46	5626
2026-01-19 14:51:01.99	200.41	25.87	-35.9	-36.7	24.5	0.00e+00	123	42	0	1905262592	46	5404
2026-01-19 14:51:06.04	200.46	25.22	-36.0	-36.9	24.4	0.00e+00	122	42	0	1917845504	46	5477
2026-01-19 14:51:10.08	200.51	24.57	-36.0	-36.8	24.5	0.00e+00	123	41	0	1930428416	46	5464
2026-01-19 14:51:14.12	200.56	23.95	-36.2	-37.1	24.3	0.00e+00	122	42	0	1943011328	46	5637
2026-01-19 14:51:18.15	200.61	23.34	-36.4	-37.2	24.2	0.00e+00	122	42	0	1955594240	46	5718
2026-01-19 14:51:22.19	200.66	22.74	-36.6	-37.5	24.0	0.00e+00	123	41	0	1968177152	46	5921
2026-01-19 14:51:26.23	200.71	22.16	-36.6	-37.5	23.8	0.00e+00	123	42	0	1980760064	46	5926
2026-01-19 14:51:30.28	200.75	21.59	-36.6	-37.5	23.9	0.00e+00	123	41	0	1993342976	46	5878
2026-01-19 14:51:34.31	200.80	21.03	-36.7	-37.7	23.8	0.00e+00	123	42	0	2005925888	46	6004
2026-01-19 14:51:38.35	200.84	20.48	-36.5	-37.5	23.9	0.00e+00	123	42	0	2018508800	46	5876
2026-01-19 14:51:42.39	200.88	19.95	-36.7	-37.7	23.7	0.00e+00	122	42	0	2031091712	46	6019
2026-01-19 14:51:46.43	200.92	19.43	-36.6	-37.6	23.8	0.00e+00	123	41	0	2043674624	46	5930
2026-01-19 14:51:50.47	200.96	18.91	-36.8	-37.7	23.6	0.00e+00	120	41	0	2056257536	46	6060
2026-01-19 14:51:54.51	201.00	18.41	-36.9	-37.9	23.5	0.00e+00	123	41	0	2068840448	46	6135
2026-01-19 14:51:58.55	201.04	17.92	-37.2	-38.2	23.2	0.00e+00	122	41	0	2081423360	46	6361
2026-01-19 14:52:02.59	201.08	17.44	-37.2	-38.2	23.3	0.00e+00	123	41	0	2094006272	46	6392
2026-01-19 14:52:06.63	201.12	16.96	-37.4	-38.4	23.2	0.00e+00	123	42	0	2106589184	46	6510
2026-01-19 14:52:10.66	201.15	16.50	-37.4	-38.3	23.3	0.00e+00	123	41	0	2119172096	46	6468
2026-01-19 14:52:14.70	201.19	16.05	-37.2	-38.2	23.3	0.00e+00	123	41	0	2131755008	46	6395
2026-01-19 14:52:18.74	201.22	15.60	-37.3	-38.3	23.3	0.00e+00	122	42	0	2144337920	46	6439
2026-01-19 14:52:22.78	201.26	15.16	-37.4	-38.4	23.1	0.00e+00	122	42	0	2156920832	46	6511
2026-01-19 14:52:26.82	201.29	14.73	-37.5	-38.4	23.1	0.00e+00	122	42	0	2169503744	46	6556
2026-01-19 14:52:30.86	201.32	14.30	-37.3	-38.3	23.2	0.00e+00	123	41	0	2183135232	46	6433
2026-01-19 14:52:34.90	201.36	13.89	-37.5	-38.5	23.0	0.00e+00	122	42	0	2194669568	46	6606
2026-01-19 14:52:38.94	201.39	13.48	-37.4	-38.3	23.2	0.00e+00	120	42	0	2208301056	46	6469
2026-01-19 14:52:42.97	201.42	13.08	-37.3	-38.3	23.3	0.00e+00	122	42	0	2220883968	46	6435
2026-01-19 14:52:47.02	201.45	12.68	-37.4	-38.3	23.1	0.00e+00	123	41	0	2233466880	46	6489
2026-01-19 14:52:51.06	201.48	12.29	-37.5	-38.5	23.0	0.00e+00	123	42	0	2246049792	46	6622
2026-01-19 14:52:55.10	201.51	11.91	-37.7	-38.6	22.8	0.00e+00	122	42	0	2258632704	48	5990
2026-01-19 14:52:59.14	201.54	11.53	-37.8	-38.7	22.8	0.00e+00	123	42	0	2271215616	48	6062
2026-01-19 14:53:03.18	201.57	11.16	-38.0	-39.0	22.6	0.00e+00	123	42	0	2283798528	48	6206
2026-01-19 14:53:07.22	201.60	10.79	-38.1	-39.1	22.4	0.00e+00	120	42	0	2296381440	48	6330
2026-01-19 14:53:11.26	201.63	10.43	-38.3	-39.3	22.3	0.00e+00	123	42	0	2308964352	48	6476
2026-01-19 14:53:15.29	201.66	10.07	-38.4	-39.4	22.2	0.00e+00	120	42	0	2321547264	48	6539
2026-01-19 14:53:19.34	201.68	9.72	-38.7	-39.7	21.9	0.00e+00	120	42	0	2334130176	48	6777
2026-01-19 14:53:23.38	201.71	9.38	-38.8	-39.9	21.7	0.00e+00	122	42	0	2346713088	50	6188
2026-01-19 14:53:27.42	201.74	9.04	-39.3	-40.4	21.2	0.00e+00	123	42	0	2359296000	50	6553
2026-01-19 14:53:31.46	201.77	8.70	-40.1	-41.3	20.4	0.00e+00	122	41	0	2371878912	52	6428
2026-01-19 14:53:35.50	201.79	8.37	-39.5	-40.7	20.9	0.00e+00	122	42	0	2384461824	52	6035
2026-01-19 14:53:39.55	201.82	8.04	-39.7	-40.9	20.7	0.00e+00	123	42	0	2397044736	52	6146
2026-01-19 14:53:43.59	201.84	7.72	-39.9	-41.1	20.6	0.00e+00	123	42	0	2409627648	52	6297
2026-01-19 14:53:47.63	201.87	7.40	-40.1	-41.3	20.3	0.00e+00	122	42	0	2422210560	52	6498
2026-01-19 14:53:51.67	201.90	7.08	-40.2	-41.4	20.1	0.00e+00	123	42	0	2434793472	52	6534
2026-01-19 14:53:55.71	201.92	6.77	-40.3	-41.5	20.0	0.00e+00	122	42	0	2447376384	52	6629
2026-01-19 14:53:59.76	201.95	6.46	-40.3	-41.5	20.0	0.00e+00	123	42	0	2459959296	52	6612
2026-01-19 14:54:03.79	201.97	6.16	-40.6	-41.9	19.7	0.00e+00	120	41	0	2472542208	52	6904
2026-01-19 14:54:07.83	201.99	5.86	-40.7	-42.0	19.4	0.00e+00	123	42	0	2485125120	54	6248
2026-01-19 14:54:11.87	202.02	5.56	-40.7	-42.0	19.4	0.00e+00	122	42	0	2498756608	54	6258
2026-01-19 14:54:15.91	202.04	5.26	-40.7	-42.0	19.2	0.00e+00	120	42	0	2510290944	54	6228
2026-01-19 14:54:19.95	202.07	4.97	-40.9	-42.3	19.1	0.00e+00	123	42	0	2523922432	54	6451
2026-01-19 14:54:23.99	202.09	4.69	-40.8	-42.1	19.3	0.00e+00	123	42	0	2536505344	54	6335
2026-01-19 14:54:28.02	202.11	4.40	-40.9	-42.3	18.8	0.00e+00	123	42	0	2549088256	54	6466
2026-01-19 14:54:32.06	202.14	4.12	-41.4	-42.8	18.5	0.00e+00	122	42	0	2561671168	54	6845
2026-01-19 14:54:36.10	202.16	3.84	-41.0	-42.4	18.7	0.00e+00	123	42	0	2574254080	54	6537
2026-01-19 14:54:40.14	202.18	3.57	-40.7	-42.1	18.9	0.00e+00	122	42	0	2586836992	54	6282
2026-01-19 14:54:44.18	202.20	3.29	-41.5	-42.9	18.3	0.00e+00	123	42	0	2599419904	56	6202
2026-01-19 14:54:48.22	202.22	3.02	-41.8	-43.4	17.2	0.00e+00	122	42	0	2612002816	56	6521
2026-01-19 14:54:52.26	202.25	2.75	-50.0	-63.0	3.5	1.51e+00	0	42	104	2612002816	60	49653
2026-01-19 14:54:56.30	202.27	2.49	-50.1	-63.3	3.5	1.52e+00	0	42	104	2612002816	60	51050
2026-01-19 14:55:00.34	202.29	2.23	-50.0	-63.3	3.5	1.52e+00	0	42	104	2612002816	60	51114
2026-01-19 14:55:04.38	202.31	1.97	-50.3	-63.3	3.5	1.52e+00	0	42	104	2612002816	60	51364
2026-01-19 14:55:08.42	202.33	1.71	-50.3	-63.3	3.5	1.52e+00	0	42	104	2612002816	60	51339
2026-01-19 14:55:12.46	202.35	1.45	-50.4	-63.2	3.5	1.52e+00	0	42	104	2612002816	60	50761
2026-01-19 14:55:16.50	202.38	1.20	-50.5	-63.3	3.5	1.52e+00	0	42	104	2612002816	60	51397
2026-01-19 14:55:20.54	202.40	0.95	-50.5	-63.3	3.5	1.52e+00	0	42	104	2612002816	60	51220
2026-01-19 14:55:24.58	202.42	0.70	-50.5	-63.3	3.5	1.52e+00	0	42	104	2612002816	60	51454
2026-01-19 14:55:28.62	202.44	0.45	-50.5	-63.3	3.5	1.52e+00	0	42	104	2612002816	60	51244
2026-01-19 14:55:32.67	202.46	0.21	-50.5	-63.3	3.5	1.52e+00	0	42	104	2612002816	60	51496
2026-01-19 14:55:36.71	202.48	-0.04	-50.5	-63.3	3.5	1.52e+00	0	42	104	2612002816	60	51116

#Closed at: 2026-01-19 14:55:37
#Recorded file [2612 MB]: D:/lorett/data/35029_260120_024003.dat