passes_logs/2026/01/19/R4.6S_Anadyr/R4.6S_Anadyr__20260119_153023_NOAA_20_JPSS-1_rec.log

#Pass ID: 20260119_153023_NOAA 20 (JPSS-1)
#Satellite: NOAA 20 (JPSS-1)
#Configuration: NOAA 20
#almurnet v.1.7.20251203
#Start time: 2026-01-19 15:30:24

#Version: 2.2.20231116
#Station: R4.6S_Anadyr
#Location: 177.4865 lon 64.73178 lat
#TLE: 1 43013U 17073A   26018.92475364  .00000071  00000+0  54435-4 0  9998
#TLE: 2 43013  98.7641 319.8227 0001354  33.6678 326.4584 14.19536868423299

#Time	Az	El	Level	Level2	SNR	BER	BlckErr	Temp	State	Recorded	gain1	gain2
2026-01-19 15:30:24.09	22.51	0.05	-50.4	-65.3	3.5	1.51e+00	0	39	0	0	60	66655
2026-01-19 15:30:28.12	22.44	0.29	-50.4	-65.6	3.6	1.51e+00	0	40	104	0	60	68893
2026-01-19 15:30:32.17	22.37	0.53	-50.3	-65.5	3.6	1.51e+00	0	40	104	0	60	67998
2026-01-19 15:30:36.21	22.30	0.78	-50.1	-65.3	3.6	1.51e+00	0	40	104	0	60	66919
2026-01-19 15:30:40.25	22.22	1.02	-49.9	-65.2	3.6	1.51e+00	0	40	104	0	60	65469
2026-01-19 15:30:44.29	22.15	1.27	-49.5	-64.8	3.6	1.51e+00	0	40	104	0	60	62455
2026-01-19 15:30:48.33	22.07	1.52	-48.8	-64.0	3.6	1.51e+00	0	41	104	0	60	57498
2026-01-19 15:30:52.37	22.00	1.77	-48.6	-63.6	3.6	1.51e+00	0	40	104	0	60	54475
2026-01-19 15:30:56.40	21.92	2.03	-48.7	-63.8	3.6	1.51e+00	0	41	104	0	60	55988
2026-01-19 15:31:00.44	21.84	2.28	-48.6	-63.4	3.6	1.51e+00	0	41	104	0	60	53390
2026-01-19 15:31:04.49	21.75	2.54	-48.6	-62.3	3.6	1.51e+00	0	41	104	0	60	47165
2026-01-19 15:31:08.53	21.67	2.80	-48.6	-62.9	3.6	1.51e+00	0	41	104	0	60	50190
2026-01-19 15:31:12.57	21.58	3.07	-48.3	-58.1	4.4	1.37e+00	58	41	0	0	60	29120
2026-01-19 15:31:16.61	21.49	3.33	-46.7	-51.2	11.4	4.95e-03	5	41	0	7340032	60	13053
2026-01-19 15:31:20.65	21.40	3.60	-45.9	-49.4	13.3	7.60e-06	5	41	0	15728640	60	10713
2026-01-19 15:31:24.69	21.31	3.87	-48.0	-56.3	5.4	1.32e+00	89	41	104	18874368	60	23549
2026-01-19 15:31:28.73	21.22	4.14	-41.9	-43.3	19.7	0.00e+00	80	41	0	20971520	56	6674
2026-01-19 15:31:32.76	21.12	4.42	-41.6	-43.0	20.0	0.00e+00	79	41	0	28311552	56	6413
2026-01-19 15:31:36.81	21.02	4.70	-41.5	-42.8	20.3	0.00e+00	6	41	0	35651584	56	6310
2026-01-19 15:31:40.84	20.92	4.98	-41.4	-42.7	20.4	0.00e+00	90	41	0	42991616	56	6199
2026-01-19 15:31:44.88	20.82	5.26	-41.4	-42.6	20.5	0.00e+00	0	41	0	51380224	56	6163
2026-01-19 15:31:48.92	20.71	5.55	-41.2	-42.5	20.8	0.00e+00	80	41	0	58720256	56	6050
2026-01-19 15:31:52.96	20.60	5.84	-41.2	-42.4	20.8	0.00e+00	1	41	0	66060288	56	6004
2026-01-19 15:31:57.00	20.49	6.14	-41.2	-42.4	20.8	0.00e+00	89	41	0	73400320	56	6014
2026-01-19 15:32:01.04	20.38	6.43	-41.4	-42.7	20.7	0.00e+00	0	41	0	80740352	56	6199
2026-01-19 15:32:05.08	20.26	6.73	-41.6	-42.9	20.6	0.00e+00	0	41	0	89128960	56	6355
2026-01-19 15:32:09.12	20.15	7.04	-41.3	-42.5	20.9	0.00e+00	74	41	0	96468992	56	6084
2026-01-19 15:32:13.16	20.02	7.34	-40.4	-41.5	21.7	0.00e+00	92	41	0	103809024	54	6057
2026-01-19 15:32:17.21	19.90	7.66	-40.4	-41.5	22.0	0.00e+00	2	41	0	111149056	54	6042
2026-01-19 15:32:21.24	19.77	7.97	-40.2	-41.2	22.1	0.00e+00	0	41	0	119537664	54	5875
2026-01-19 15:32:25.28	19.64	8.29	-40.1	-41.1	22.2	0.00e+00	2	41	0	126877696	54	5789
2026-01-19 15:32:29.32	19.51	8.61	-40.0	-41.1	22.3	0.00e+00	92	41	0	134217728	54	5766
2026-01-19 15:32:33.36	19.37	8.94	-39.8	-40.8	22.5	0.00e+00	1	41	0	141557760	54	5622
2026-01-19 15:32:37.39	19.23	9.27	-39.7	-40.7	22.7	0.00e+00	78	41	0	148897792	52	6204
2026-01-19 15:32:41.43	19.09	9.60	-39.6	-40.6	21.4	2.20e-03	0	41	0	157286400	52	6149
2026-01-19 15:32:45.47	18.94	9.94	-39.6	-40.6	22.9	1.25e-03	92	41	0	164626432	52	6113
2026-01-19 15:32:49.51	18.79	10.28	-39.9	-40.9	22.6	0.00e+00	0	41	0	171966464	52	6335
2026-01-19 15:32:53.55	18.63	10.63	-39.3	-40.3	22.9	0.00e+00	0	41	0	179306496	52	5931
2026-01-19 15:32:57.59	18.47	10.98	-39.5	-40.5	23.0	0.00e+00	92	41	0	187695104	52	6080
2026-01-19 15:33:01.62	18.31	11.34	-39.6	-40.6	22.9	0.00e+00	7	41	0	195035136	52	6139
2026-01-19 15:33:05.66	18.14	11.70	-39.5	-40.4	23.2	0.00e+00	8	41	0	202375168	52	6018
2026-01-19 15:33:09.70	17.96	12.07	-39.4	-40.3	23.2	0.00e+00	81	41	0	209715200	52	5954
2026-01-19 15:33:13.74	17.78	12.44	-39.5	-40.4	23.1	0.00e+00	92	41	0	217055232	52	6015
2026-01-19 15:33:17.78	17.60	12.82	-39.6	-40.5	23.1	0.00e+00	0	41	0	225443840	52	6083
2026-01-19 15:33:21.82	17.41	13.21	-39.3	-40.3	23.3	0.00e+00	0	41	0	232783872	52	5916
2026-01-19 15:33:25.86	17.22	13.60	-39.5	-40.4	23.2	0.00e+00	0	41	0	240123904	52	5999
2026-01-19 15:33:29.90	17.02	13.99	-39.5	-40.4	23.2	0.00e+00	92	41	0	247463936	52	5999
2026-01-19 15:33:33.94	16.81	14.39	-39.4	-40.4	23.3	0.00e+00	80	41	0	255852544	52	5969
2026-01-19 15:33:37.98	16.60	14.80	-39.2	-40.2	23.5	0.00e+00	2	41	0	263192576	52	5834
2026-01-19 15:33:42.02	16.38	15.22	-39.2	-40.2	23.5	0.00e+00	0	41	0	270532608	52	5839
2026-01-19 15:33:46.06	16.16	15.64	-39.2	-40.1	23.5	0.00e+00	92	41	0	277872640	52	5795
2026-01-19 15:33:50.10	15.92	16.07	-39.1	-40.0	23.6	0.00e+00	81	41	0	286261248	52	5740
2026-01-19 15:33:54.14	15.69	16.50	-39.1	-40.0	23.6	0.00e+00	0	41	0	293601280	52	5752
2026-01-19 15:33:58.18	15.44	16.95	-39.1	-40.0	23.7	0.00e+00	3	41	0	300941312	52	5721
2026-01-19 15:34:02.21	15.19	17.40	-39.1	-40.0	23.6	0.00e+00	92	41	0	308281344	52	5737
2026-01-19 15:34:06.25	14.92	17.85	-39.2	-40.1	23.6	0.00e+00	0	41	0	315621376	52	5819
2026-01-19 15:34:10.29	14.65	18.32	-39.3	-40.3	23.5	0.00e+00	0	41	0	324009984	52	5899
2026-01-19 15:34:14.33	14.37	18.79	-39.2	-40.1	23.6	0.00e+00	0	41	0	331350016	52	5789
2026-01-19 15:34:18.36	14.08	19.28	-39.1	-40.0	23.8	0.00e+00	0	41	0	338690048	52	5736
2026-01-19 15:34:22.40	13.78	19.77	-39.1	-40.0	23.8	0.00e+00	6	41	0	346030080	52	5699
2026-01-19 15:34:26.44	13.47	20.27	-38.9	-39.7	24.0	0.00e+00	0	41	0	353370112	52	5565
2026-01-19 15:34:30.48	13.15	20.78	-38.9	-39.8	24.0	0.00e+00	91	41	0	361758720	52	5588
2026-01-19 15:34:34.52	12.82	21.30	-39.2	-40.1	23.9	0.00e+00	0	41	0	369098752	52	5774
2026-01-19 15:34:38.56	12.47	21.83	-38.8	-39.7	24.0	0.00e+00	2	41	0	376438784	52	5515
2026-01-19 15:34:42.60	12.12	22.37	-39.1	-40.0	23.8	0.00e+00	81	41	0	383778816	52	5742
2026-01-19 15:34:46.64	11.75	22.92	-39.2	-40.1	23.8	0.00e+00	91	41	0	392167424	52	5777
2026-01-19 15:34:50.68	11.36	23.48	-39.3	-40.2	23.7	0.00e+00	6	41	0	399507456	52	5844
2026-01-19 15:34:54.72	10.96	24.05	-39.6	-40.5	23.4	0.00e+00	82	41	0	406847488	52	6076
2026-01-19 15:34:58.75	10.55	24.63	-40.0	-41.0	23.0	0.00e+00	82	41	0	414187520	52	6394
2026-01-19 15:35:02.79	10.12	25.23	-40.4	-41.4	22.5	0.00e+00	92	41	0	421527552	52	6751
2026-01-19 15:35:06.83	9.67	25.83	-40.6	-41.7	22.1	0.00e+00	0	41	0	429916160	54	6192
2026-01-19 15:35:10.86	9.21	26.45	-41.0	-42.1	21.9	0.00e+00	2	41	0	437256192	54	6524
2026-01-19 15:35:14.90	8.72	27.08	-41.4	-42.6	21.5	0.00e+00	3	41	0	444596224	54	6871
2026-01-19 15:35:18.94	8.22	27.72	-42.0	-43.3	20.9	0.00e+00	92	41	0	451936256	56	6617
2026-01-19 15:35:22.98	7.69	28.37	-42.3	-43.5	20.9	0.00e+00	2	41	0	460324864	56	6808
2026-01-19 15:35:27.02	7.14	29.04	-42.3	-43.6	20.6	0.00e+00	0	41	0	467664896	56	6860
2026-01-19 15:35:31.06	6.56	29.72	-42.2	-43.4	20.8	0.00e+00	0	41	0	475004928	56	6750
2026-01-19 15:35:35.10	5.96	30.42	-41.9	-43.1	21.1	0.00e+00	90	41	0	482344960	56	6527
2026-01-19 15:35:39.14	5.34	31.12	-41.7	-42.8	21.3	0.00e+00	0	41	0	489684992	56	6300
2026-01-19 15:35:43.17	4.68	31.84	-41.6	-42.8	21.4	0.00e+00	82	41	0	498073600	56	6255
2026-01-19 15:35:47.21	4.00	32.58	-41.5	-42.6	21.6	0.00e+00	0	41	0	505413632	56	6149
2026-01-19 15:35:51.25	3.28	33.32	-41.5	-42.7	21.6	0.00e+00	0	41	0	512753664	56	6212
2026-01-19 15:35:55.29	2.52	34.08	-41.7	-42.8	21.3	0.00e+00	0	41	0	520093696	56	6316
2026-01-19 15:35:59.33	1.73	34.86	-42.7	-44.1	20.1	0.00e+00	0	41	0	528482304	56	7307
2026-01-19 15:36:03.36	0.90	35.64	-42.5	-43.9	20.3	0.00e+00	92	41	0	535822336	58	6341
2026-01-19 15:36:07.40	0.03	36.44	-42.8	-44.2	20.1	0.00e+00	5	41	0	543162368	58	6552
2026-01-19 15:36:11.44	359.12	37.25	-43.1	-44.5	19.7	0.00e+00	5	41	0	550502400	58	6836
2026-01-19 15:36:15.48	358.15	38.07	-42.7	-44.1	20.1	0.00e+00	0	41	0	557842432	58	6484
2026-01-19 15:36:19.50	357.14	38.90	-42.9	-44.3	20.0	0.00e+00	90	41	0	566231040	58	6684
2026-01-19 15:36:23.54	356.07	39.74	-43.3	-44.9	19.5	0.00e+00	87	41	0	573571072	58	7106
2026-01-19 15:36:27.58	354.94	40.59	-42.9	-44.3	20.0	0.00e+00	86	41	0	580911104	58	6657
2026-01-19 15:36:31.62	353.75	41.45	-42.7	-44.0	20.4	0.00e+00	6	41	0	588251136	58	6456
2026-01-19 15:36:35.65	352.50	42.31	-42.0	-43.2	21.1	0.00e+00	90	41	0	596639744	56	6603
2026-01-19 15:36:39.69	351.18	43.17	-41.6	-42.8	21.5	0.00e+00	0	41	0	603979776	56	6267
2026-01-19 15:36:43.73	349.78	44.04	-41.6	-42.7	21.5	0.00e+00	0	41	0	611319808	56	6242
2026-01-19 15:36:47.77	348.30	44.91	-42.2	-43.5	20.6	0.00e+00	83	41	0	618659840	56	6833
2026-01-19 15:36:51.80	346.74	45.77	-42.2	-43.5	20.9	0.00e+00	92	41	0	625999872	58	6058
2026-01-19 15:36:55.84	345.09	46.62	-42.0	-43.2	21.1	0.00e+00	0	41	0	634388480	56	6551
2026-01-19 15:36:59.88	343.35	47.47	-42.9	-44.2	20.2	0.00e+00	0	41	0	641728512	58	6606
2026-01-19 15:37:03.92	341.51	48.30	-42.9	-44.3	20.1	0.00e+00	81	41	0	649068544	58	6674
2026-01-19 15:37:07.96	339.57	49.11	-41.7	-42.9	21.5	0.00e+00	92	41	0	656408576	56	6326
2026-01-19 15:37:12.00	337.52	49.91	-41.1	-42.2	22.0	0.00e+00	0	41	0	664797184	56	5860
2026-01-19 15:37:16.03	335.37	50.67	-39.7	-40.6	23.3	0.00e+00	0	41	0	672137216	54	5483
2026-01-19 15:37:20.07	333.11	51.40	-39.2	-40.1	23.9	0.00e+00	0	41	0	679477248	52	5768
2026-01-19 15:37:24.11	330.73	52.09	-39.0	-39.8	24.0	0.00e+00	92	41	0	686817280	52	5630
2026-01-19 15:37:28.15	328.24	52.73	-38.8	-39.7	24.3	0.00e+00	81	41	0	694157312	50	6175
2026-01-19 15:37:32.19	325.65	53.33	-39.6	-40.5	23.5	0.00e+00	81	41	0	702545920	50	6805
2026-01-19 15:37:36.23	322.95	53.87	-40.1	-41.1	23.0	0.00e+00	80	41	0	709885952	52	6486
2026-01-19 15:37:40.27	320.16	54.35	-39.1	-39.9	24.0	0.00e+00	0	41	0	717225984	52	5692
2026-01-19 15:37:44.31	317.27	54.76	-39.2	-40.1	23.7	0.00e+00	80	41	0	724566016	50	6483
2026-01-19 15:37:48.34	314.32	55.10	-38.5	-39.4	24.7	0.00e+00	81	41	0	732954624	50	5984
2026-01-19 15:37:52.38	311.29	55.36	-37.8	-38.6	25.1	0.00e+00	90	41	0	740294656	48	6147
2026-01-19 15:37:56.41	308.22	55.55	-37.1	-37.9	25.6	0.00e+00	5	41	0	747634688	48	5648
2026-01-19 15:38:00.45	305.12	55.65	-37.2	-38.0	25.7	0.00e+00	0	41	0	754974720	48	5704
2026-01-19 15:38:04.49	302.00	55.67	-37.8	-38.6	25.3	0.00e+00	5	41	0	762314752	48	6106
2026-01-19 15:38:08.52	298.89	55.60	-38.7	-39.6	24.5	0.00e+00	92	41	0	770703360	48	6878
2026-01-19 15:38:12.56	295.80	55.46	-38.1	-38.9	25.2	0.00e+00	83	41	0	778043392	48	6339
2026-01-19 15:38:16.60	292.74	55.23	-37.1	-37.9	25.6	0.00e+00	7	41	0	785383424	48	5631
2026-01-19 15:38:20.64	289.75	54.92	-36.9	-37.6	26.2	0.00e+00	6	41	0	792723456	46	6139
2026-01-19 15:38:24.68	286.83	54.54	-36.1	-36.8	26.5	0.00e+00	90	41	0	801112064	46	5613
2026-01-19 15:38:28.72	283.99	54.09	-37.2	-37.9	26.0	0.00e+00	81	41	0	808452096	46	6368
2026-01-19 15:38:32.76	281.24	53.58	-38.3	-39.1	25.0	0.00e+00	0	41	0	815792128	48	6487
2026-01-19 15:38:36.79	278.60	53.01	-39.0	-39.9	24.2	0.00e+00	0	41	0	823132160	50	6331
2026-01-19 15:38:40.84	276.06	52.38	-39.9	-40.8	23.9	0.00e+00	92	41	0	830472192	52	6280
2026-01-19 15:38:44.88	273.63	51.71	-39.5	-40.3	24.0	0.00e+00	0	41	0	838860800	52	5952
2026-01-19 15:38:48.92	271.31	50.99	-40.1	-41.1	23.0	0.00e+00	81	41	0	846200832	52	6475
2026-01-19 15:38:52.95	269.11	50.25	-40.7	-41.7	22.6	0.00e+00	10	41	0	853540864	52	6937
2026-01-19 15:38:56.99	267.01	49.47	-41.5	-42.6	21.8	0.00e+00	86	41	0	860880896	54	6899
2026-01-19 15:39:01.03	265.02	48.66	-42.6	-43.8	20.7	0.00e+00	0	41	0	869269504	56	7058
2026-01-19 15:39:05.07	263.13	47.83	-44.3	-46.0	18.6	0.00e+00	2	41	0	876609536	60	7236
2026-01-19 15:39:09.11	261.34	46.99	-43.5	-45.0	19.5	0.00e+00	2	41	0	883949568	60	6408
2026-01-19 15:39:13.15	259.64	46.14	-43.7	-45.3	19.4	0.00e+00	69	41	0	891289600	60	6626
2026-01-19 15:39:17.18	258.04	45.28	-43.0	-44.4	20.0	0.00e+00	0	41	0	898629632	60	6012
2026-01-19 15:39:21.22	256.53	44.41	-42.0	-43.2	21.0	0.00e+00	2	41	0	907018240	58	5839
2026-01-19 15:39:25.26	255.09	43.54	-42.2	-43.4	20.9	0.00e+00	92	41	0	914358272	58	5999
2026-01-19 15:39:29.30	253.73	42.67	-42.1	-43.3	21.0	0.00e+00	0	41	0	921698304	58	5950
2026-01-19 15:39:33.34	252.44	41.80	-43.0	-44.4	19.9	0.00e+00	0	41	0	929038336	58	6735
2026-01-19 15:39:37.38	251.22	40.94	-43.8	-45.4	19.1	0.00e+00	0	41	0	937426944	58	7548
2026-01-19 15:39:41.42	250.06	40.09	-43.5	-45.0	19.4	0.00e+00	92	41	0	944766976	60	6454
2026-01-19 15:39:45.45	248.96	39.24	-43.9	-45.4	19.0	0.00e+00	7	41	0	952107008	60	6759
2026-01-19 15:39:49.49	247.92	38.40	-43.0	-44.4	20.0	0.00e+00	0	41	0	959447040	60	6011
2026-01-19 15:39:53.53	246.93	37.57	-43.5	-44.9	19.7	0.00e+00	0	41	0	966787072	60	6388
2026-01-19 15:39:57.57	245.99	36.75	-42.7	-44.0	20.5	0.00e+00	90	41	0	975175680	58	6445
2026-01-19 15:40:01.60	245.10	35.95	-42.3	-43.6	20.9	0.00e+00	0	41	0	982515712	58	6104
2026-01-19 15:40:05.64	244.25	35.16	-41.9	-43.0	21.3	0.00e+00	0	41	0	989855744	58	5743
2026-01-19 15:40:09.67	243.44	34.38	-42.6	-43.9	20.5	0.00e+00	8	41	0	997195776	58	6326
2026-01-19 15:40:13.71	242.67	33.61	-42.6	-43.9	20.6	0.00e+00	92	41	0	1005584384	58	6324
2026-01-19 15:40:17.75	241.93	32.85	-42.0	-43.2	21.0	0.00e+00	83	41	0	1012924416	58	5860
2026-01-19 15:40:21.78	241.23	32.11	-42.0	-43.2	21.1	0.00e+00	0	41	0	1020264448	58	5865
2026-01-19 15:40:25.82	240.56	31.38	-42.6	-43.9	20.4	0.00e+00	0	41	0	1027604480	58	6331
2026-01-19 15:40:29.86	239.92	30.67	-42.3	-43.5	20.8	0.00e+00	91	41	0	1034944512	58	6101
2026-01-19 15:40:33.89	239.31	29.97	-42.5	-43.8	20.5	0.00e+00	0	41	0	1043333120	58	6265
2026-01-19 15:40:37.93	238.72	29.28	-41.3	-42.4	21.8	0.00e+00	81	41	0	1050673152	56	6010
2026-01-19 15:40:41.95	238.16	28.61	-41.2	-42.3	21.9	0.00e+00	77	41	0	1058013184	56	5897
2026-01-19 15:40:45.99	237.62	27.95	-41.2	-42.3	21.8	0.00e+00	92	41	0	1065353216	56	5899
2026-01-19 15:40:50.03	237.10	27.30	-41.2	-42.3	21.8	0.00e+00	0	41	0	1072693248	56	5923
2026-01-19 15:40:54.07	236.60	26.66	-40.8	-41.8	22.2	0.00e+00	0	41	0	1081081856	56	5626
2026-01-19 15:40:58.11	236.13	26.03	-41.2	-42.3	21.9	0.00e+00	86	41	0	1088421888	56	5919
2026-01-19 15:41:02.14	235.67	25.42	-41.4	-42.5	21.7	0.00e+00	92	41	0	1095761920	56	6076
2026-01-19 15:41:06.18	235.23	24.82	-40.9	-42.0	22.2	0.00e+00	0	41	0	1103101952	56	5699
2026-01-19 15:41:10.22	234.81	24.23	-40.2	-41.2	22.9	0.00e+00	1	41	0	1111490560	54	5855
2026-01-19 15:41:14.26	234.40	23.65	-40.1	-41.1	22.8	0.00e+00	92	41	0	1118830592	54	5768
2026-01-19 15:41:18.30	234.01	23.09	-40.5	-41.5	22.4	0.00e+00	81	41	0	1126170624	54	6059
2026-01-19 15:41:22.34	233.63	22.53	-40.6	-41.7	22.3	0.00e+00	2	41	0	1133510656	54	6199
2026-01-19 15:41:26.38	233.26	21.99	-40.4	-41.5	22.5	0.00e+00	81	41	0	1140850688	54	6040
2026-01-19 15:41:30.41	232.91	21.45	-40.4	-41.4	22.5	0.00e+00	92	41	0	1149239296	54	6009
2026-01-19 15:41:34.45	232.57	20.93	-40.7	-41.8	22.2	0.00e+00	0	41	0	1156579328	54	6247
2026-01-19 15:41:38.49	232.24	20.41	-41.0	-42.1	21.9	0.00e+00	78	41	0	1163919360	54	6508
2026-01-19 15:41:42.52	231.93	19.90	-40.7	-41.8	22.2	0.00e+00	77	41	0	1171259392	54	6281
2026-01-19 15:41:46.56	231.62	19.41	-40.3	-41.3	22.7	0.00e+00	92	41	0	1179648000	54	5899
2026-01-19 15:41:50.60	231.32	18.92	-40.0	-41.0	22.8	0.00e+00	4	41	0	1186988032	54	5733
2026-01-19 15:41:54.64	231.04	18.44	-40.3	-41.3	22.6	0.00e+00	3	41	0	1194328064	54	5924
2026-01-19 15:41:58.68	230.76	17.97	-40.6	-41.6	22.1	0.00e+00	0	41	0	1201668096	54	6164
2026-01-19 15:42:02.72	230.49	17.50	-40.6	-41.6	22.2	0.00e+00	90	41	0	1209008128	54	6168
2026-01-19 15:42:06.75	230.23	17.05	-40.5	-41.5	22.3	0.00e+00	4	41	0	1217396736	54	6097
2026-01-19 15:42:10.79	229.98	16.60	-40.8	-41.8	22.0	0.00e+00	4	41	0	1224736768	54	6312
2026-01-19 15:42:14.83	229.73	16.16	-40.9	-42.0	21.8	0.00e+00	0	41	0	1232076800	54	6450
2026-01-19 15:42:18.87	229.50	15.73	-41.0	-42.2	21.6	0.00e+00	92	41	0	1239416832	54	6551
2026-01-19 15:42:22.91	229.26	15.30	-41.4	-42.5	21.4	0.00e+00	82	41	0	1247805440	54	6832
2026-01-19 15:42:26.95	229.04	14.89	-41.1	-42.3	21.5	0.00e+00	4	41	0	1255145472	54	6616
2026-01-19 15:42:31.00	228.82	14.47	-41.1	-42.2	21.6	0.00e+00	87	41	0	1262485504	54	6598
2026-01-19 15:42:35.04	228.61	14.07	-41.1	-42.3	21.5	0.00e+00	91	41	0	1269825536	54	6629
2026-01-19 15:42:39.08	228.41	13.67	-41.1	-42.2	21.4	0.00e+00	2	41	0	1277165568	54	6604
2026-01-19 15:42:43.12	228.21	13.27	-41.2	-42.3	21.3	0.00e+00	0	41	0	1285554176	54	6692
2026-01-19 15:42:47.16	228.01	12.89	-41.5	-42.7	21.0	0.00e+00	80	41	0	1292894208	54	6944
2026-01-19 15:42:51.19	227.83	12.50	-41.9	-43.1	20.6	0.00e+00	0	41	0	1300234240	56	6529
2026-01-19 15:42:55.23	227.64	12.13	-42.3	-43.6	20.2	0.00e+00	2	41	0	1307574272	56	6919
2026-01-19 15:42:59.27	227.46	11.76	-42.5	-43.9	19.9	0.00e+00	0	41	0	1315962880	56	7111
2026-01-19 15:43:03.31	227.29	11.39	-42.5	-43.9	19.8	0.00e+00	92	41	0	1323302912	56	7160
2026-01-19 15:43:07.36	227.12	11.03	-42.7	-44.1	19.6	0.00e+00	0	41	0	1330642944	56	7320
2026-01-19 15:43:11.40	226.96	10.68	-42.7	-44.1	19.6	0.00e+00	5	41	0	1337982976	56	7317
2026-01-19 15:43:15.44	226.80	10.32	-42.7	-44.1	19.5	0.00e+00	6	41	0	1345323008	58	6535
2026-01-19 15:43:19.48	226.64	9.98	-42.7	-44.2	19.5	0.00e+00	92	41	0	1353711616	58	6542
2026-01-19 15:43:23.52	226.49	9.64	-42.9	-44.5	19.2	0.00e+00	0	41	0	1361051648	58	6792
2026-01-19 15:43:27.56	226.34	9.30	-43.1	-44.7	18.8	0.00e+00	77	41	0	1368391680	58	6980
2026-01-19 15:43:31.60	226.19	8.97	-43.4	-45.0	18.5	0.00e+00	6	41	0	1375731712	58	7233
2026-01-19 15:43:35.64	226.05	8.64	-43.6	-45.3	18.2	0.00e+00	92	41	0	1384120320	58	7495
2026-01-19 15:43:39.67	225.91	8.32	-44.0	-45.9	17.7	0.00e+00	8	42	0	1391460352	60	7163
2026-01-19 15:43:43.71	225.78	7.99	-44.2	-46.3	17.2	0.00e+00	74	41	0	1398800384	60	7441
2026-01-19 15:43:47.75	225.64	7.68	-44.3	-46.4	17.1	0.00e+00	44	41	0	1406140416	60	7533
2026-01-19 15:43:51.79	225.52	7.36	-44.5	-46.7	16.8	0.00e+00	89	41	0	1413480448	60	7781
2026-01-19 15:43:55.82	225.39	7.06	-44.7	-47.0	16.4	0.00e+00	0	41	0	1421869056	60	8068
2026-01-19 15:43:59.86	225.27	6.75	-44.7	-47.0	16.3	0.00e+00	0	41	0	1429209088	60	8090
2026-01-19 15:44:03.90	225.15	6.45	-45.1	-47.6	15.7	0.00e+00	2	41	0	1436549120	60	8691
2026-01-19 15:44:07.94	225.03	6.15	-45.0	-47.7	15.5	0.00e+00	92	41	0	1443889152	60	8725
2026-01-19 15:44:11.98	224.91	5.85	-45.2	-47.9	15.1	0.00e+00	71	41	0	1452277760	60	8996
2026-01-19 15:44:16.02	224.80	5.56	-45.2	-48.0	15.0	0.00e+00	5	41	0	1459617792	60	9092
2026-01-19 15:44:20.06	224.69	5.27	-45.2	-48.0	14.9	0.00e+00	92	41	0	1466957824	60	9072
2026-01-19 15:44:24.10	224.59	4.99	-45.3	-48.2	14.6	7.00e-07	91	41	0	1474297856	60	9280
2026-01-19 15:44:28.14	224.48	4.70	-45.4	-48.5	14.3	1.50e-06	76	41	0	1482686464	60	9617
2026-01-19 15:44:32.18	224.38	4.42	-45.3	-48.5	14.1	2.20e-06	78	41	0	1490026496	60	9619
2026-01-19 15:44:36.22	224.28	4.14	-45.5	-48.9	13.6	3.80e-06	92	42	0	1497366528	60	10032
2026-01-19 15:44:40.26	224.18	3.87	-45.6	-48.9	13.6	8.30e-06	0	41	0	1504706560	60	10127
2026-01-19 15:44:44.30	224.08	3.60	-45.5	-48.9	13.5	1.22e-05	74	41	0	1512046592	60	10055
2026-01-19 15:44:48.34	223.99	3.33	-45.5	-49.0	13.2	2.82e-05	0	41	0	1520435200	60	10166
2026-01-19 15:44:52.37	223.89	3.06	-45.6	-49.3	12.8	5.72e-05	92	41	0	1527775232	60	10601
2026-01-19 15:44:56.41	223.80	2.80	-49.6	-64.8	3.6	1.51e+00	0	42	104	1529872384	60	63065
2026-01-19 15:45:00.45	223.71	2.53	-50.1	-65.3	3.6	1.51e+00	0	41	104	1529872384	60	66545
2026-01-19 15:45:04.50	223.63	2.27	-50.2	-65.4	3.6	1.51e+00	0	42	104	1529872384	60	67437
2026-01-19 15:45:08.54	223.54	2.01	-49.9	-65.3	3.6	1.51e+00	0	42	104	1529872384	60	66842
2026-01-19 15:45:12.58	223.46	1.76	-50.0	-65.2	3.6	1.51e+00	0	42	104	1529872384	60	66081
2026-01-19 15:45:16.62	223.37	1.51	-50.1	-65.3	3.5	1.51e+00	0	41	104	1529872384	60	66496
2026-01-19 15:45:20.66	223.29	1.26	-50.2	-65.4	3.6	1.51e+00	0	42	104	1529872384	60	67541
2026-01-19 15:45:24.69	223.21	1.01	-50.3	-65.5	3.6	1.51e+00	0	41	104	1529872384	60	67747
2026-01-19 15:45:28.74	223.14	0.76	-50.6	-65.7	3.6	1.51e+00	0	42	104	1529872384	60	69598
2026-01-19 15:45:32.78	223.06	0.51	-50.4	-65.6	3.6	1.51e+00	0	41	104	1529872384	60	68629
2026-01-19 15:45:36.81	222.99	0.27	-50.5	-65.7	3.6	1.51e+00	0	42	104	1529872384	60	69825
2026-01-19 15:45:40.86	222.91	0.03	-50.5	-65.7	3.6	1.51e+00	0	42	104	1529872384	60	69630

#Closed at: 2026-01-19 15:45:42
#Recorded file [1529 MB]: D:/lorett/data/35029_260120_033024.dat