passes_logs/2026/01/19/R4.6S_Anadyr/R4.6S_Anadyr__20260119_120933_NOAA_20_JPSS-1_rec.log

#Pass ID: 20260119_120933_NOAA 20 (JPSS-1)
#Satellite: NOAA 20 (JPSS-1)
#Configuration: NOAA 20
#almurnet v.1.7.20251203
#Start time: 2026-01-19 12:09:34

#Version: 2.2.20231116
#Station: R4.6S_Anadyr
#Location: 177.4865 lon 64.73178 lat
#TLE: 1 43013U 17073A   26018.92475364  .00000071  00000+0  54435-4 0  9998
#TLE: 2 43013  98.7641 319.8227 0001354  33.6678 326.4584 14.19536868423299

#Time	Az	El	Level	Level2	SNR	BER	BlckErr	Temp	State	Recorded	gain1	gain2
2026-01-19 12:09:34.66	19.35	0.04	-50.2	-65.1	3.5	1.51e+00	0	38	0	0	60	64948
2026-01-19 12:09:38.69	19.67	0.23	-50.2	-65.4	3.6	1.51e+00	0	39	104	0	60	67102
2026-01-19 12:09:42.74	20.00	0.42	-50.3	-65.4	3.6	1.51e+00	0	40	104	0	60	67598
2026-01-19 12:09:46.78	20.33	0.61	-50.2	-65.4	3.6	1.51e+00	0	40	104	0	60	67691
2026-01-19 12:09:50.82	20.67	0.80	-49.9	-65.2	3.6	1.51e+00	0	40	104	0	60	65556
2026-01-19 12:09:54.86	21.01	0.99	-49.6	-64.8	3.6	1.51e+00	0	40	104	0	60	63150
2026-01-19 12:09:58.90	21.35	1.18	-48.7	-64.0	3.6	1.51e+00	0	40	104	0	60	57199
2026-01-19 12:10:02.94	21.70	1.37	-48.5	-63.7	3.6	1.51e+00	0	40	104	0	60	55028
2026-01-19 12:10:06.98	22.05	1.56	-48.5	-63.7	3.6	1.51e+00	0	40	104	0	60	55316
2026-01-19 12:10:11.02	22.41	1.76	-48.5	-63.7	3.6	1.51e+00	0	40	104	0	60	55122
2026-01-19 12:10:15.06	22.77	1.95	-48.5	-63.7	3.6	1.51e+00	0	40	104	0	60	55445
2026-01-19 12:10:19.11	23.13	2.14	-48.5	-63.7	3.6	1.51e+00	0	40	104	0	60	55342
2026-01-19 12:10:23.15	23.50	2.33	-48.4	-62.1	3.6	1.51e+00	0	40	104	0	60	46134
2026-01-19 12:10:27.19	23.88	2.53	-47.7	-54.4	7.3	4.06e-01	90	40	0	2097152	60	18953
2026-01-19 12:10:31.23	24.25	2.72	-43.9	-46.1	16.7	0.00e+00	81	40	0	9437184	60	7260
2026-01-19 12:10:35.27	24.64	2.92	-45.3	-48.3	14.2	0.00e+00	0	40	0	16777216	60	9425
2026-01-19 12:10:39.31	25.03	3.11	-48.4	-63.5	3.6	1.51e+00	0	40	104	24117248	60	54239
2026-01-19 12:10:43.35	25.42	3.31	-44.2	-46.5	16.4	0.00e+00	91	40	0	25165824	60	7659
2026-01-19 12:10:47.38	25.82	3.50	-42.7	-44.4	18.4	0.00e+00	81	40	0	33554432	58	6744
2026-01-19 12:10:51.42	26.22	3.70	-42.6	-44.3	18.6	0.00e+00	0	40	0	40894464	58	6634
2026-01-19 12:10:55.46	26.63	3.90	-42.7	-44.4	18.6	0.00e+00	0	40	0	48234496	58	6693
2026-01-19 12:10:59.49	27.04	4.09	-42.6	-44.2	18.5	0.00e+00	73	40	0	55574528	58	6589
2026-01-19 12:11:03.53	27.46	4.29	-42.4	-44.0	19.0	0.00e+00	0	40	0	63963136	58	6398
2026-01-19 12:11:07.56	27.88	4.48	-42.3	-43.9	19.2	0.00e+00	0	40	0	71303168	58	6323
2026-01-19 12:11:11.60	28.31	4.68	-42.1	-43.6	19.5	0.00e+00	0	40	0	78643200	58	6151
2026-01-19 12:11:15.64	28.75	4.88	-42.1	-43.6	19.4	0.00e+00	92	40	0	85983232	58	6162
2026-01-19 12:11:19.68	29.19	5.08	-41.8	-43.2	20.0	0.00e+00	7	40	0	93323264	58	5844
2026-01-19 12:11:23.72	29.64	5.27	-41.7	-43.0	20.1	0.00e+00	6	40	0	101711872	56	6459
2026-01-19 12:11:27.75	30.09	5.47	-41.7	-43.1	20.2	0.00e+00	36	40	0	109051904	56	6511
2026-01-19 12:11:31.79	30.55	5.67	-41.9	-43.3	19.9	0.00e+00	5	40	0	116391936	56	6649
2026-01-19 12:11:35.83	31.01	5.87	-42.4	-43.9	19.4	0.00e+00	81	40	0	123731968	56	7113
2026-01-19 12:11:39.87	31.48	6.06	-42.3	-43.7	19.9	0.00e+00	81	40	0	131072000	56	6961
2026-01-19 12:11:43.90	31.96	6.26	-42.2	-43.6	19.7	0.00e+00	92	40	0	139460608	56	6913
2026-01-19 12:11:47.94	32.44	6.46	-42.5	-44.1	19.1	0.00e+00	0	40	0	146800640	56	7262
2026-01-19 12:11:51.98	32.93	6.66	-42.4	-43.9	19.4	0.00e+00	0	40	0	154140672	58	6353
2026-01-19 12:11:56.02	33.43	6.85	-41.9	-43.3	20.0	0.00e+00	0	40	0	161480704	58	5937
2026-01-19 12:12:00.06	33.93	7.05	-42.0	-43.4	20.1	0.00e+00	92	40	0	169869312	58	5984
2026-01-19 12:12:04.10	34.44	7.25	-41.8	-43.1	20.3	0.00e+00	2	40	0	177209344	56	6534
2026-01-19 12:12:08.14	34.95	7.44	-41.4	-42.6	20.9	0.00e+00	0	40	0	184549376	56	6136
2026-01-19 12:12:12.17	35.47	7.64	-40.9	-42.1	21.3	0.00e+00	82	40	0	191889408	56	5767
2026-01-19 12:12:16.22	36.00	7.83	-41.0	-42.2	21.2	0.00e+00	91	40	0	199229440	56	5866
2026-01-19 12:12:20.25	36.54	8.03	-40.9	-42.1	21.4	0.00e+00	79	40	0	207618048	56	5773
2026-01-19 12:12:24.30	37.08	8.22	-40.6	-41.7	21.7	0.00e+00	0	41	0	214958080	54	6181
2026-01-19 12:12:28.33	37.63	8.41	-40.5	-41.6	21.7	0.00e+00	0	40	0	222298112	54	6134
2026-01-19 12:12:32.37	38.18	8.61	-40.6	-41.7	21.8	0.00e+00	90	40	0	229638144	54	6193
2026-01-19 12:12:36.40	38.75	8.80	-40.6	-41.8	21.6	0.00e+00	0	40	0	238026752	54	6249
2026-01-19 12:12:40.44	39.32	8.99	-40.6	-41.7	21.7	0.00e+00	81	40	0	245366784	54	6215
2026-01-19 12:12:44.49	39.90	9.18	-40.5	-41.6	21.8	0.00e+00	0	40	0	252706816	54	6162
2026-01-19 12:12:48.52	40.48	9.36	-40.7	-41.8	21.6	0.00e+00	92	40	0	260046848	54	6293
2026-01-19 12:12:52.56	41.07	9.55	-40.7	-41.8	21.6	0.00e+00	7	40	0	267386880	54	6307
2026-01-19 12:12:56.59	41.67	9.74	-40.7	-41.8	21.8	0.00e+00	0	40	0	275775488	54	6250
2026-01-19 12:13:00.63	42.28	9.92	-40.8	-41.9	21.6	0.00e+00	0	41	0	283115520	54	6335
2026-01-19 12:13:04.67	42.89	10.11	-40.8	-42.0	21.6	0.00e+00	92	40	0	290455552	54	6406
2026-01-19 12:13:08.70	43.51	10.29	-40.8	-41.9	21.6	0.00e+00	2	40	0	297795584	54	6378
2026-01-19 12:13:12.74	44.14	10.47	-40.9	-42.0	21.5	0.00e+00	8	40	0	306184192	54	6429
2026-01-19 12:13:16.77	44.78	10.65	-41.1	-42.3	21.4	0.00e+00	92	41	0	313524224	54	6656
2026-01-19 12:13:20.81	45.42	10.82	-41.3	-42.5	21.1	0.00e+00	4	40	0	320864256	54	6780
2026-01-19 12:13:24.85	46.08	11.00	-41.3	-42.4	21.1	0.00e+00	82	41	0	328204288	54	6759
2026-01-19 12:13:28.88	46.73	11.17	-41.6	-42.8	20.8	0.00e+00	2	41	0	335544320	54	7042
2026-01-19 12:13:32.92	47.40	11.34	-41.7	-43.0	20.7	0.00e+00	92	41	0	343932928	54	7193
2026-01-19 12:13:36.96	48.08	11.51	-41.8	-43.0	20.6	0.00e+00	0	41	0	351272960	56	6449
2026-01-19 12:13:41.00	48.76	11.67	-41.7	-43.0	20.8	0.00e+00	80	41	0	358612992	56	6405
2026-01-19 12:13:45.03	49.45	11.83	-41.8	-43.1	20.7	0.00e+00	0	41	0	365953024	56	6488
2026-01-19 12:13:49.07	50.14	12.00	-41.7	-43.0	20.8	0.00e+00	90	41	0	374341632	56	6397
2026-01-19 12:13:53.10	50.85	12.15	-41.6	-42.8	20.9	0.00e+00	0	41	0	381681664	56	6288
2026-01-19 12:13:57.14	51.56	12.31	-41.6	-42.8	20.9	0.00e+00	0	41	0	389021696	56	6314
2026-01-19 12:14:01.18	52.28	12.46	-42.1	-43.4	20.4	0.00e+00	0	41	0	396361728	56	6697
2026-01-19 12:14:05.22	53.00	12.61	-42.1	-43.5	20.4	0.00e+00	92	41	0	403701760	56	6776
2026-01-19 12:14:09.25	53.73	12.75	-41.9	-43.2	20.6	0.00e+00	81	41	0	412090368	56	6569
2026-01-19 12:14:13.29	54.47	12.89	-41.8	-43.0	20.7	0.00e+00	2	41	0	419430400	56	6446
2026-01-19 12:14:17.32	55.22	13.03	-42.0	-43.2	20.6	0.00e+00	0	41	0	426770432	56	6600
2026-01-19 12:14:21.36	55.97	13.17	-42.0	-43.2	20.6	0.00e+00	92	41	0	434110464	56	6614
2026-01-19 12:14:25.39	56.73	13.30	-41.2	-42.4	21.3	0.00e+00	82	41	0	442499072	56	5999
2026-01-19 12:14:29.43	57.50	13.42	-41.0	-42.1	21.7	0.00e+00	81	40	0	449839104	56	5794
2026-01-19 12:14:33.47	58.27	13.55	-41.0	-42.1	21.7	0.00e+00	0	40	0	457179136	56	5816
2026-01-19 12:14:37.51	59.05	13.67	-41.1	-42.2	21.6	0.00e+00	90	41	0	464519168	56	5857
2026-01-19 12:14:41.54	59.84	13.78	-40.7	-41.8	21.9	0.00e+00	0	40	0	471859200	54	6301
2026-01-19 12:14:45.58	60.63	13.89	-40.4	-41.4	22.2	0.00e+00	86	41	0	480247808	54	6014
2026-01-19 12:14:49.62	61.43	14.00	-40.9	-42.1	21.6	0.00e+00	0	40	0	487587840	54	6468
2026-01-19 12:14:53.66	62.23	14.10	-41.3	-42.5	21.3	0.00e+00	92	40	0	494927872	54	6774
2026-01-19 12:14:57.70	63.04	14.19	-41.4	-42.6	21.1	0.00e+00	0	41	0	502267904	54	6903
2026-01-19 12:15:01.73	63.85	14.28	-41.5	-42.7	21.0	0.00e+00	0	40	0	510656512	54	6949
2026-01-19 12:15:05.77	64.67	14.37	-41.5	-42.8	21.0	0.00e+00	91	41	0	517996544	54	7026
2026-01-19 12:15:09.81	65.49	14.45	-41.3	-42.5	21.3	0.00e+00	35	41	0	525336576	54	6815
2026-01-19 12:15:13.85	66.31	14.53	-41.4	-42.6	21.2	0.00e+00	0	41	0	532676608	54	6911
2026-01-19 12:15:17.88	67.14	14.60	-41.2	-42.6	21.1	0.00e+00	0	41	0	540016640	54	6864
2026-01-19 12:15:21.92	67.98	14.66	-40.9	-42.2	21.5	0.00e+00	92	41	0	548405248	54	6540
2026-01-19 12:15:25.95	68.81	14.72	-41.1	-42.2	21.5	0.00e+00	0	41	0	555745280	54	6587
2026-01-19 12:15:29.99	69.65	14.77	-40.9	-42.3	21.4	0.00e+00	81	41	0	563085312	54	6621
2026-01-19 12:15:34.02	70.50	14.82	-40.8	-42.0	21.7	0.00e+00	0	41	0	570425344	54	6453
2026-01-19 12:15:38.06	71.34	14.86	-41.0	-42.2	21.5	0.00e+00	92	41	0	577765376	54	6553
2026-01-19 12:15:42.10	72.19	14.90	-41.0	-42.2	21.5	0.00e+00	0	41	0	586153984	54	6552
2026-01-19 12:15:46.15	73.04	14.93	-40.5	-41.6	22.0	0.00e+00	0	41	0	593494016	54	6134
2026-01-19 12:15:50.18	73.89	14.96	-40.4	-41.5	22.1	0.00e+00	81	41	0	600834048	54	6045
2026-01-19 12:15:54.22	74.75	14.98	-40.7	-41.8	21.8	0.00e+00	90	41	0	608174080	54	6280
2026-01-19 12:15:58.26	75.60	14.99	-40.6	-41.7	22.0	0.00e+00	0	41	0	616562688	54	6200
2026-01-19 12:16:02.30	76.46	15.00	-40.1	-41.2	22.5	0.00e+00	0	41	0	623902720	54	5844
2026-01-19 12:16:06.33	77.31	15.00	-40.3	-41.3	22.3	0.00e+00	0	41	0	631242752	54	5940
2026-01-19 12:16:10.37	78.17	15.00	-40.4	-41.4	22.3	0.00e+00	92	41	0	638582784	54	6016
2026-01-19 12:16:14.41	79.02	14.99	-40.0	-41.0	22.5	0.00e+00	0	41	0	645922816	54	5730
2026-01-19 12:16:18.45	79.88	14.97	-39.9	-41.0	22.6	0.00e+00	2	41	0	654311424	54	5747
2026-01-19 12:16:22.48	80.73	14.95	-39.9	-41.0	22.6	0.00e+00	4	41	0	661651456	54	5741
2026-01-19 12:16:26.52	81.58	14.92	-40.2	-41.4	22.3	0.00e+00	6	41	0	668991488	54	5974
2026-01-19 12:16:30.56	82.43	14.89	-39.9	-41.0	22.6	0.00e+00	0	41	0	676331520	54	5715
2026-01-19 12:16:34.60	83.28	14.85	-40.2	-41.2	22.4	0.00e+00	0	41	0	684720128	54	5859
2026-01-19 12:16:38.64	84.12	14.80	-40.2	-41.2	22.5	0.00e+00	0	41	0	692060160	54	5852
2026-01-19 12:16:42.68	84.97	14.75	-39.8	-40.8	22.9	0.00e+00	7	41	0	699400192	52	6272
2026-01-19 12:16:46.72	85.81	14.69	-40.1	-41.1	22.6	0.00e+00	7	41	0	706740224	52	6482
2026-01-19 12:16:50.76	86.65	14.63	-39.9	-41.0	22.7	0.00e+00	7	41	0	714080256	52	6444
2026-01-19 12:16:54.80	87.48	14.56	-39.6	-40.6	23.0	0.00e+00	92	41	0	722468864	52	6135
2026-01-19 12:16:58.83	88.31	14.49	-39.3	-40.3	23.4	0.00e+00	81	41	0	729808896	52	5914
2026-01-19 12:17:02.88	89.14	14.41	-39.4	-40.5	23.1	0.00e+00	0	41	0	737148928	52	6043
2026-01-19 12:17:06.91	89.96	14.33	-39.9	-40.9	22.7	0.00e+00	6	41	0	744488960	52	6364
2026-01-19 12:17:10.95	90.77	14.24	-39.5	-40.6	23.0	0.00e+00	92	41	0	752877568	52	6145
2026-01-19 12:17:14.99	91.59	14.14	-39.1	-40.0	23.5	0.00e+00	4	41	0	760217600	52	5742
2026-01-19 12:17:19.03	92.39	14.05	-39.1	-40.1	23.4	0.00e+00	82	40	0	767557632	52	5796
2026-01-19 12:17:23.07	93.20	13.94	-39.4	-40.3	23.3	0.00e+00	0	41	0	774897664	52	5949
2026-01-19 12:17:27.11	93.99	13.83	-39.4	-40.4	23.2	0.00e+00	92	41	0	782237696	52	5991
2026-01-19 12:17:31.15	94.78	13.72	-39.1	-40.0	23.5	0.00e+00	0	41	0	790626304	52	5744
2026-01-19 12:17:35.19	95.57	13.60	-39.2	-40.2	23.4	0.00e+00	0	41	0	797966336	52	5844
2026-01-19 12:17:39.23	96.35	13.48	-39.4	-40.3	23.3	0.00e+00	0	41	0	805306368	52	5919
2026-01-19 12:17:43.26	97.12	13.36	-39.9	-41.1	22.6	0.00e+00	92	41	0	812646400	52	6487
2026-01-19 12:17:47.30	97.89	13.23	-40.1	-41.2	22.3	0.00e+00	0	41	0	821035008	52	6545
2026-01-19 12:17:51.34	98.65	13.10	-40.3	-41.4	22.2	0.00e+00	0	41	0	828375040	52	6743
2026-01-19 12:17:55.38	99.40	12.96	-40.4	-41.4	22.3	0.00e+00	0	41	0	835715072	52	6751
2026-01-19 12:17:59.42	100.15	12.82	-40.3	-41.4	22.2	0.00e+00	92	41	0	843055104	52	6739
2026-01-19 12:18:03.46	100.88	12.67	-41.2	-42.4	21.1	0.00e+00	0	41	0	850395136	54	6726
2026-01-19 12:18:07.50	101.62	12.52	-42.1	-43.5	20.3	0.00e+00	3	41	0	858783744	56	6771
2026-01-19 12:18:11.53	102.34	12.37	-42.5	-43.9	19.9	0.00e+00	0	41	0	866123776	56	7146
2026-01-19 12:18:15.57	103.06	12.22	-42.6	-44.2	19.7	0.00e+00	92	41	0	873463808	56	7351
2026-01-19 12:18:19.61	103.77	12.06	-41.9	-43.3	20.5	0.00e+00	82	41	0	880803840	56	6619
2026-01-19 12:18:23.65	104.47	11.90	-41.5	-42.9	20.8	0.00e+00	83	41	0	889192448	56	6376
2026-01-19 12:18:27.69	105.17	11.74	-42.0	-43.7	20.1	0.00e+00	92	41	0	896532480	56	6928
2026-01-19 12:18:31.73	105.86	11.57	-42.7	-44.2	19.4	0.00e+00	30	41	0	903872512	58	6594
2026-01-19 12:18:35.77	106.54	11.41	-42.3	-43.7	20.1	0.00e+00	0	41	0	911212544	58	6175
2026-01-19 12:18:39.80	107.21	11.24	-42.0	-43.3	20.4	0.00e+00	0	41	0	918552576	58	5930
2026-01-19 12:18:43.84	107.88	11.06	-41.8	-43.1	20.4	0.00e+00	92	41	0	926941184	58	5817
2026-01-19 12:18:47.88	108.53	10.89	-41.2	-42.4	21.2	0.00e+00	0	41	0	934281216	56	6004
2026-01-19 12:18:51.92	109.19	10.71	-41.0	-42.4	21.3	0.00e+00	0	41	0	941621248	56	5973
2026-01-19 12:18:55.96	109.83	10.53	-41.4	-42.8	20.8	0.00e+00	2	41	0	948961280	56	6283
2026-01-19 12:19:00.00	110.46	10.35	-41.6	-43.0	20.7	0.00e+00	91	41	0	957349888	56	6424
2026-01-19 12:19:04.03	111.09	10.17	-41.1	-42.8	20.8	0.00e+00	82	41	0	964689920	56	6306
2026-01-19 12:19:08.07	111.71	9.99	-41.4	-42.6	21.1	0.00e+00	78	41	0	972029952	56	6129
2026-01-19 12:19:12.11	112.32	9.80	-40.3	-41.4	22.1	0.00e+00	0	41	0	979369984	54	6004
2026-01-19 12:19:16.14	112.93	9.61	-40.9	-42.1	21.4	0.00e+00	92	41	0	986710016	54	6488
2026-01-19 12:19:20.18	113.53	9.42	-40.9	-42.2	21.4	0.00e+00	81	41	0	995098624	54	6545
2026-01-19 12:19:24.22	114.12	9.24	-40.6	-41.8	21.7	0.00e+00	0	41	0	1002438656	54	6256
2026-01-19 12:19:28.26	114.70	9.04	-41.2	-42.3	21.2	0.00e+00	2	41	0	1009778688	54	6689
2026-01-19 12:19:32.29	115.27	8.85	-40.8	-42.0	21.5	0.00e+00	92	41	0	1017118720	54	6422
2026-01-19 12:19:36.33	115.84	8.66	-40.5	-41.8	21.6	0.00e+00	0	41	0	1025507328	54	6271
2026-01-19 12:19:40.37	116.41	8.47	-41.1	-42.3	21.2	0.00e+00	0	41	0	1032847360	54	6669
2026-01-19 12:19:44.41	116.96	8.27	-41.1	-42.3	21.2	0.00e+00	0	41	0	1040187392	54	6658
2026-01-19 12:19:48.44	117.51	8.08	-40.7	-41.8	21.6	0.00e+00	91	41	0	1047527424	54	6293
2026-01-19 12:19:52.48	118.05	7.88	-40.9	-42.2	21.3	0.00e+00	5	41	0	1054867456	54	6560
2026-01-19 12:19:56.53	118.58	7.68	-41.4	-42.7	20.8	0.00e+00	0	41	0	1063256064	54	6957
2026-01-19 12:20:00.57	119.11	7.49	-41.2	-42.4	21.0	0.00e+00	92	41	0	1070596096	54	6762
2026-01-19 12:20:04.61	119.63	7.29	-41.2	-42.4	21.1	0.00e+00	75	41	0	1077936128	54	6741
2026-01-19 12:20:08.65	120.14	7.09	-41.6	-42.9	20.5	0.00e+00	77	41	0	1085276160	54	7091
2026-01-19 12:20:12.69	120.65	6.89	-41.9	-43.2	20.2	0.00e+00	8	41	0	1093664768	56	6609
2026-01-19 12:20:16.73	121.15	6.70	-41.8	-43.1	20.3	0.00e+00	92	41	0	1101004800	56	6495
2026-01-19 12:20:20.77	121.64	6.50	-42.0	-43.4	19.9	0.00e+00	0	41	0	1108344832	56	6760
2026-01-19 12:20:24.80	122.12	6.30	-42.0	-43.7	19.6	0.00e+00	0	41	0	1115684864	56	6952
2026-01-19 12:20:28.84	122.60	6.10	-42.1	-43.6	19.4	0.00e+00	81	41	0	1123024896	56	6907
2026-01-19 12:20:32.87	123.08	5.90	-42.0	-43.7	19.7	0.00e+00	92	41	0	1131413504	56	6946
2026-01-19 12:20:36.91	123.55	5.70	-42.5	-44.1	19.3	0.00e+00	2	41	0	1138753536	56	7271
2026-01-19 12:20:40.95	124.01	5.50	-42.6	-44.1	19.2	0.00e+00	0	41	0	1146093568	56	7333
2026-01-19 12:20:44.99	124.46	5.30	-42.5	-44.1	19.3	0.00e+00	81	41	0	1153433600	58	6488
2026-01-19 12:20:49.03	124.91	5.10	-42.5	-44.1	19.3	0.00e+00	92	41	0	1161822208	58	6495
2026-01-19 12:20:53.07	125.36	4.90	-42.8	-44.5	18.7	0.00e+00	2	41	0	1169162240	58	6818
2026-01-19 12:20:57.11	125.80	4.70	-43.1	-44.8	18.3	0.00e+00	2	41	0	1176502272	58	7085
2026-01-19 12:21:01.16	126.23	4.50	-43.1	-44.9	18.3	0.00e+00	0	41	0	1183842304	58	7090
2026-01-19 12:21:05.19	126.66	4.30	-43.0	-44.8	18.4	0.00e+00	92	41	0	1191182336	58	7064
2026-01-19 12:21:09.23	127.08	4.11	-43.1	-45.1	18.0	0.00e+00	76	41	0	1199570944	58	7308
2026-01-19 12:21:13.27	127.49	3.91	-43.4	-45.4	17.7	0.00e+00	80	41	0	1206910976	58	7555
2026-01-19 12:21:17.30	127.90	3.71	-43.2	-45.1	17.9	0.00e+00	0	41	0	1214251008	58	7304
2026-01-19 12:21:21.34	128.31	3.51	-43.1	-45.0	18.0	0.00e+00	20	41	0	1221591040	58	7174
2026-01-19 12:21:25.38	128.71	3.31	-43.5	-45.5	17.1	0.00e+00	78	41	0	1229979648	58	7670
2026-01-19 12:21:29.42	129.10	3.12	-44.4	-47.0	15.8	0.00e+00	4	41	0	1237319680	60	8081
2026-01-19 12:21:33.47	129.50	2.92	-49.5	-64.8	3.5	1.51e+00	0	41	104	1240465408	60	63014
2026-01-19 12:21:37.50	129.88	2.72	-50.1	-65.4	3.6	1.51e+00	0	41	104	1240465408	60	67230
2026-01-19 12:21:41.54	130.26	2.53	-50.5	-65.7	3.6	1.51e+00	0	41	104	1240465408	60	69646
2026-01-19 12:21:45.59	130.64	2.33	-50.5	-65.7	3.6	1.51e+00	0	41	104	1240465408	60	69456
2026-01-19 12:21:49.63	131.01	2.13	-50.5	-65.7	3.6	1.51e+00	0	41	104	1240465408	60	70045
2026-01-19 12:21:53.66	131.37	1.94	-50.5	-65.7	3.5	1.51e+00	0	41	104	1240465408	60	69851
2026-01-19 12:21:57.70	131.73	1.74	-50.5	-65.7	3.6	1.51e+00	0	41	104	1240465408	60	69582
2026-01-19 12:22:01.74	132.09	1.55	-50.5	-65.7	3.6	1.51e+00	0	41	104	1240465408	60	69400
2026-01-19 12:22:05.78	132.44	1.36	-50.5	-65.7	3.6	1.51e+00	0	41	104	1240465408	60	69680
2026-01-19 12:22:09.82	132.79	1.16	-50.5	-65.7	3.6	1.51e+00	0	41	104	1240465408	60	69708
2026-01-19 12:22:13.86	133.14	0.97	-50.5	-65.7	3.6	1.51e+00	0	41	104	1240465408	60	69853
2026-01-19 12:22:17.90	133.48	0.78	-50.5	-65.7	3.6	1.51e+00	0	41	104	1240465408	60	69446
2026-01-19 12:22:21.94	133.81	0.59	-50.5	-65.7	3.6	1.51e+00	0	41	104	1240465408	60	69407
2026-01-19 12:22:25.98	134.14	0.39	-50.5	-65.7	3.6	1.51e+00	0	41	104	1240465408	60	69581
2026-01-19 12:22:30.02	134.47	0.20	-50.5	-65.7	3.6	1.51e+00	0	41	104	1240465408	60	69883
2026-01-19 12:22:34.05	134.79	0.01	-50.5	-65.7	3.6	1.51e+00	0	41	104	1240465408	60	69607

#Closed at: 2026-01-19 12:22:35
#Recorded file [1240 MB]: D:/lorett/data/35029_260120_000934.dat