passes_logs/2026/01/19/R4.6S_Anadyr/R4.6S_Anadyr__20260119_211708_NOAA_21_JPSS-2_rec.log

#Pass ID: 20260119_211708_NOAA 21 (JPSS-2)
#Satellite: NOAA 21 (JPSS-2)
#Configuration: NOAA-21
#almurnet v.1.7.20251203
#Start time: 2026-01-19 21:17:10

#Version: 2.2.20231116
#Station: R4.6S_Anadyr
#Location: 177.4865 lon 64.73178 lat
#TLE: 1 54234U 22150A   26019.31231101  .00000073  00000+0  55355-4 0  9994
#TLE: 2 54234  98.7504 320.1599 0000604 258.3686 101.7423 14.19535697165426

#Time	Az	El	Level	Level2	SNR	BER	BlckErr	Temp	State	Recorded	gain1	gain2
2026-01-19 21:17:10.58	87.17	0.10	-50.3	-65.2	3.3	1.51e+00	0	39	0	0	60	65472
2026-01-19 21:17:14.61	86.92	0.31	-51.9	-64.7	3.5	1.52e+00	0	40	104	0	60	60533
2026-01-19 21:17:18.65	86.66	0.52	-52.1	-64.9	3.5	1.52e+00	0	40	104	0	60	61948
2026-01-19 21:17:22.69	86.39	0.74	-51.0	-63.8	3.5	1.52e+00	0	41	104	0	60	54628
2026-01-19 21:17:26.73	86.13	0.95	-51.0	-64.0	3.5	1.52e+00	0	41	104	0	60	55346
2026-01-19 21:17:30.77	85.85	1.17	-50.5	-63.5	3.5	1.52e+00	0	41	104	0	60	52636
2026-01-19 21:17:34.81	85.58	1.38	-48.9	-62.6	3.5	1.52e+00	0	41	104	0	60	47381
2026-01-19 21:17:38.85	85.30	1.60	-48.8	-61.8	3.5	1.52e+00	0	41	104	0	60	43115
2026-01-19 21:17:42.89	85.01	1.82	-48.9	-61.9	3.5	1.52e+00	0	41	104	0	60	43642
2026-01-19 21:17:46.93	84.72	2.04	-49.1	-61.7	3.5	1.52e+00	0	41	104	0	60	42735
2026-01-19 21:17:50.97	84.43	2.26	-49.0	-61.8	3.5	1.52e+00	0	41	104	0	60	43124
2026-01-19 21:17:55.01	84.13	2.48	-48.9	-61.9	3.5	1.51e+00	0	41	104	0	60	43483
2026-01-19 21:17:59.05	83.83	2.70	-48.9	-60.7	3.5	1.52e+00	0	41	104	0	60	38210
2026-01-19 21:18:03.09	83.52	2.93	-48.8	-61.2	3.5	1.52e+00	0	41	104	0	60	40180
2026-01-19 21:18:07.13	83.21	3.15	-46.3	-49.8	11.2	1.17e-02	122	41	0	5242880	60	10827
2026-01-19 21:18:11.17	82.89	3.38	-48.4	-60.9	3.5	1.51e+00	0	41	104	15728640	60	39125
2026-01-19 21:18:15.21	82.57	3.61	-42.6	-44.4	16.9	0.00e+00	123	41	0	24117248	58	6506
2026-01-19 21:18:19.25	82.24	3.83	-42.4	-44.0	17.2	0.00e+00	123	41	0	36700160	56	7003
2026-01-19 21:18:23.29	81.91	4.06	-44.1	-46.2	14.9	0.00e+00	123	41	0	49283072	60	7172
2026-01-19 21:18:27.33	81.57	4.29	-41.6	-43.0	18.3	0.00e+00	123	41	0	61865984	56	6213
2026-01-19 21:18:31.37	81.22	4.52	-41.3	-42.7	18.8	0.00e+00	122	41	0	74448896	54	6772
2026-01-19 21:18:35.42	80.87	4.76	-40.5	-41.8	19.7	0.00e+00	120	41	0	87031808	54	6072
2026-01-19 21:18:39.46	80.52	4.99	-40.6	-41.8	19.6	0.00e+00	122	41	0	99614720	54	6130
2026-01-19 21:18:43.51	80.15	5.22	-40.9	-42.2	19.8	0.00e+00	120	41	0	112197632	54	6355
2026-01-19 21:18:47.55	79.79	5.46	-40.0	-41.2	20.1	0.00e+00	122	42	0	124780544	54	5717
2026-01-19 21:18:51.59	79.41	5.69	-39.6	-40.7	20.6	0.00e+00	122	42	0	137363456	52	6054
2026-01-19 21:18:55.64	79.03	5.93	-39.7	-40.9	20.5	0.00e+00	122	42	0	149946368	52	6150
2026-01-19 21:18:59.68	78.64	6.17	-39.9	-41.1	20.3	0.00e+00	123	42	0	162529280	52	6333
2026-01-19 21:19:03.72	78.25	6.41	-40.0	-41.2	19.9	0.00e+00	122	42	0	175112192	54	5706
2026-01-19 21:19:07.76	77.85	6.65	-40.4	-41.6	19.6	0.00e+00	123	42	0	187695104	54	5983
2026-01-19 21:19:11.80	77.44	6.89	-39.9	-41.1	20.2	0.00e+00	123	42	0	200278016	54	5634
2026-01-19 21:19:15.84	77.03	7.13	-39.7	-40.8	20.6	0.00e+00	122	42	0	212860928	52	6105
2026-01-19 21:19:19.88	76.61	7.37	-39.7	-40.9	20.5	0.00e+00	123	42	0	225443840	52	6166
2026-01-19 21:19:23.92	76.18	7.61	-40.1	-41.3	20.2	0.00e+00	123	42	0	238026752	52	6475
2026-01-19 21:19:27.97	75.74	7.86	-39.1	-40.2	21.3	0.00e+00	123	42	0	250609664	52	5696
2026-01-19 21:19:32.01	75.30	8.10	-39.2	-40.3	21.1	0.00e+00	123	42	0	264241152	52	5770
2026-01-19 21:19:36.05	74.85	8.35	-39.5	-40.7	20.8	0.00e+00	123	42	0	276824064	52	6030
2026-01-19 21:19:40.09	74.39	8.59	-39.7	-40.8	21.3	0.00e+00	122	42	0	289406976	52	6100
2026-01-19 21:19:44.14	73.92	8.84	-38.7	-39.7	21.7	0.00e+00	122	42	0	301989888	50	6054
2026-01-19 21:19:48.18	73.45	9.09	-38.8	-39.8	21.7	0.00e+00	123	42	0	314572800	50	6118
2026-01-19 21:19:52.21	72.97	9.33	-38.5	-39.6	21.9	0.00e+00	123	42	0	327155712	50	5942
2026-01-19 21:19:56.25	72.48	9.58	-39.3	-40.4	21.1	0.00e+00	123	42	0	339738624	50	6561
2026-01-19 21:20:00.29	71.98	9.83	-40.3	-41.5	20.3	0.00e+00	122	42	0	352321536	54	5878
2026-01-19 21:20:04.33	71.47	10.08	-37.9	-38.9	22.7	0.00e+00	121	42	0	364904448	50	5514
2026-01-19 21:20:08.37	70.95	10.33	-38.5	-39.5	22.0	0.00e+00	120	42	0	377487360	50	5897
2026-01-19 21:20:12.42	70.42	10.58	-38.3	-39.3	22.5	0.00e+00	123	42	0	390070272	50	5776
2026-01-19 21:20:16.46	69.89	10.82	-37.6	-38.5	23.0	0.00e+00	123	42	0	402653184	48	5918
2026-01-19 21:20:20.50	69.34	11.07	-38.1	-39.1	22.7	0.00e+00	120	42	0	415236096	48	6312
2026-01-19 21:20:24.54	68.79	11.32	-38.3	-39.2	23.0	0.00e+00	123	42	0	427819008	48	6402
2026-01-19 21:20:28.59	68.22	11.57	-38.1	-39.1	23.1	0.00e+00	122	42	0	440401920	50	5614
2026-01-19 21:20:32.63	67.65	11.82	-37.9	-38.9	23.0	0.00e+00	123	42	0	452984832	48	6147
2026-01-19 21:20:36.67	67.06	12.07	-37.7	-38.6	23.2	0.00e+00	120	42	0	465567744	48	5988
2026-01-19 21:20:40.71	66.47	12.32	-37.6	-38.5	23.2	0.00e+00	122	42	0	478150656	48	5923
2026-01-19 21:20:44.75	65.86	12.56	-37.9	-38.8	23.1	0.00e+00	123	42	0	490733568	48	6132
2026-01-19 21:20:48.79	65.25	12.81	-38.3	-39.3	22.7	0.00e+00	120	42	0	503316480	48	6454
2026-01-19 21:20:52.83	64.62	13.06	-37.5	-38.4	23.2	0.00e+00	123	42	0	515899392	48	5833
2026-01-19 21:20:56.87	63.99	13.30	-38.0	-38.9	22.9	0.00e+00	123	42	0	528482304	48	6194
2026-01-19 21:21:00.91	63.34	13.54	-37.5	-38.5	23.3	0.00e+00	121	42	0	541065216	48	5890
2026-01-19 21:21:04.95	62.68	13.79	-37.4	-38.4	23.4	0.00e+00	123	42	0	554696704	48	5816
2026-01-19 21:21:08.98	62.01	14.03	-37.5	-38.5	23.3	0.00e+00	123	42	0	566231040	48	5868
2026-01-19 21:21:13.03	61.33	14.27	-37.8	-38.8	23.1	0.00e+00	122	42	0	579862528	48	6097
2026-01-19 21:21:17.07	60.64	14.50	-38.6	-39.6	22.6	0.00e+00	122	42	0	592445440	50	5932
2026-01-19 21:21:21.11	59.94	14.74	-38.2	-39.2	22.8	0.00e+00	123	42	0	605028352	50	5676
2026-01-19 21:21:25.16	59.23	14.97	-38.1	-39.1	22.8	0.00e+00	124	42	0	617611264	50	5615
2026-01-19 21:21:29.20	58.50	15.20	-38.2	-39.1	22.8	0.00e+00	123	42	0	630194176	50	5650
2026-01-19 21:21:33.24	57.77	15.43	-38.0	-38.9	23.1	0.00e+00	123	42	0	642777088	48	6188
2026-01-19 21:21:37.28	57.02	15.66	-38.5	-39.5	22.8	0.00e+00	120	42	0	655360000	50	5861
2026-01-19 21:21:41.32	56.26	15.88	-38.1	-39.1	23.0	0.00e+00	122	42	0	667942912	50	5604
2026-01-19 21:21:45.36	55.49	16.10	-37.9	-38.9	23.1	0.00e+00	122	42	0	680525824	50	5483
2026-01-19 21:21:49.40	54.71	16.31	-37.7	-38.7	23.2	0.00e+00	122	42	0	693108736	48	6015
2026-01-19 21:21:53.45	53.91	16.53	-37.8	-38.8	23.2	0.00e+00	122	42	0	705691648	48	6065
2026-01-19 21:21:57.48	53.11	16.73	-37.3	-38.2	23.5	0.00e+00	120	42	0	718274560	48	5703
2026-01-19 21:22:01.52	52.30	16.94	-37.4	-38.3	23.5	0.00e+00	123	42	0	730857472	48	5755
2026-01-19 21:22:05.56	51.47	17.14	-37.3	-38.3	23.4	0.00e+00	123	42	0	743440384	48	5745
2026-01-19 21:22:09.59	50.63	17.33	-37.4	-38.3	23.3	0.00e+00	123	42	0	756023296	48	5785
2026-01-19 21:22:13.63	49.79	17.52	-37.6	-38.5	23.3	0.00e+00	122	42	0	768606208	48	5910
2026-01-19 21:22:17.67	48.93	17.71	-36.9	-37.8	23.9	0.00e+00	123	42	0	781189120	48	5451
2026-01-19 21:22:21.70	48.06	17.89	-37.2	-38.1	23.8	0.00e+00	123	42	0	793772032	46	6339
2026-01-19 21:22:25.74	47.18	18.06	-36.5	-37.4	24.1	0.00e+00	122	42	0	806354944	46	5856
2026-01-19 21:22:29.78	46.29	18.23	-36.7	-37.7	23.9	0.00e+00	123	42	0	818937856	46	6010
2026-01-19 21:22:33.82	45.39	18.39	-37.0	-37.9	23.8	0.00e+00	120	42	0	831520768	46	6169
2026-01-19 21:22:37.86	44.48	18.55	-37.2	-38.2	23.7	0.00e+00	123	42	0	844103680	46	6362
2026-01-19 21:22:41.90	43.56	18.70	-36.6	-37.5	24.1	0.00e+00	123	42	0	856686592	46	5885
2026-01-19 21:22:45.94	42.64	18.84	-36.7	-37.6	24.2	0.00e+00	123	42	0	870318080	46	5988
2026-01-19 21:22:49.99	41.70	18.98	-36.9	-37.8	23.9	0.00e+00	120	42	0	881852416	46	6111
2026-01-19 21:22:54.02	40.76	19.10	-36.7	-37.7	24.0	0.00e+00	122	42	0	895483904	46	6010
2026-01-19 21:22:58.06	39.81	19.23	-36.8	-37.7	23.9	0.00e+00	122	42	0	908066816	46	6058
2026-01-19 21:23:02.11	38.85	19.34	-37.2	-38.1	23.6	0.00e+00	123	42	0	920649728	46	6332
2026-01-19 21:23:06.15	37.88	19.44	-37.3	-38.2	23.7	0.00e+00	122	42	0	933232640	46	6387
2026-01-19 21:23:10.19	36.91	19.54	-37.1	-38.0	23.8	0.00e+00	122	42	0	945815552	46	6254
2026-01-19 21:23:14.23	35.93	19.63	-37.2	-38.1	23.6	0.00e+00	123	42	0	958398464	48	5628
2026-01-19 21:23:18.27	34.95	19.71	-37.6	-38.6	23.3	0.00e+00	122	42	0	970981376	48	5929
2026-01-19 21:23:22.31	33.96	19.78	-38.1	-39.1	23.1	0.00e+00	122	42	0	983564288	48	6303
2026-01-19 21:23:26.35	32.96	19.84	-37.6	-38.6	23.8	0.00e+00	122	42	0	996147200	48	5947
2026-01-19 21:23:30.39	31.97	19.89	-37.9	-38.9	23.5	0.00e+00	123	42	0	1008730112	48	6156
2026-01-19 21:23:34.43	30.97	19.94	-37.1	-38.1	23.9	0.00e+00	123	42	0	1021313024	48	5606
2026-01-19 21:23:38.48	29.96	19.97	-37.1	-38.0	24.0	0.00e+00	123	42	0	1033895936	48	5554
2026-01-19 21:23:42.52	28.96	20.00	-37.4	-38.3	23.6	0.00e+00	123	42	0	1046478848	48	5744
2026-01-19 21:23:46.56	27.96	20.02	-37.5	-38.4	23.6	0.00e+00	122	42	0	1059061760	48	5856
2026-01-19 21:23:50.60	26.95	20.02	-37.7	-38.6	23.4	0.00e+00	123	42	0	1071644672	48	5968
2026-01-19 21:23:54.64	25.94	20.02	-37.3	-38.2	23.7	0.00e+00	122	42	0	1084227584	48	5675
2026-01-19 21:23:58.68	24.94	20.01	-37.2	-38.1	23.8	0.00e+00	123	42	0	1096810496	48	5631
2026-01-19 21:24:02.71	23.93	19.99	-36.8	-37.7	24.0	0.00e+00	123	42	0	1109393408	48	5403
2026-01-19 21:24:06.75	22.93	19.96	-36.9	-37.9	23.8	0.00e+00	122	42	0	1121976320	48	5477
2026-01-19 21:24:10.79	21.93	19.92	-37.1	-38.0	23.8	0.00e+00	123	42	0	1134559232	48	5588
2026-01-19 21:24:14.83	20.93	19.87	-37.3	-38.3	23.7	0.00e+00	123	42	0	1147142144	48	5735
2026-01-19 21:24:18.87	19.94	19.82	-37.2	-38.1	23.8	0.00e+00	123	42	0	1159725056	48	5639
2026-01-19 21:24:22.90	18.95	19.75	-36.9	-37.8	23.9	0.00e+00	122	42	0	1172307968	48	5433
2026-01-19 21:24:26.94	17.97	19.68	-37.0	-37.9	24.0	0.00e+00	122	42	0	1185939456	48	5498
2026-01-19 21:24:30.98	16.99	19.59	-37.2	-38.1	23.8	0.00e+00	120	42	0	1197473792	48	5655
2026-01-19 21:24:35.01	16.01	19.50	-37.6	-38.5	23.5	0.00e+00	123	42	0	1211105280	48	5909
2026-01-19 21:24:39.06	15.04	19.40	-37.1	-38.0	23.8	0.00e+00	122	42	0	1223688192	48	5579
2026-01-19 21:24:43.10	14.08	19.29	-37.0	-37.9	23.8	0.00e+00	123	42	0	1236271104	48	5515
2026-01-19 21:24:47.14	13.12	19.18	-37.1	-38.1	23.7	0.00e+00	123	42	0	1248854016	48	5623
2026-01-19 21:24:51.17	12.18	19.05	-37.7	-38.7	23.7	0.00e+00	120	42	0	1261436928	48	6006
2026-01-19 21:24:55.20	11.24	18.92	-37.8	-38.7	23.6	0.00e+00	122	42	0	1274019840	48	6040
2026-01-19 21:24:59.25	10.31	18.78	-37.6	-38.6	23.4	0.00e+00	120	42	0	1286602752	48	5940
2026-01-19 21:25:03.28	9.39	18.64	-37.4	-38.3	23.7	0.00e+00	123	42	0	1299185664	48	5757
2026-01-19 21:25:07.33	8.47	18.49	-37.1	-38.1	23.7	0.00e+00	123	42	0	1311768576	48	5608
2026-01-19 21:25:11.37	7.57	18.33	-37.5	-38.4	23.7	0.00e+00	122	42	0	1324351488	48	5835
2026-01-19 21:25:15.40	6.68	18.17	-38.0	-38.9	23.5	0.00e+00	123	42	0	1336934400	48	6202
2026-01-19 21:25:19.44	5.79	17.99	-37.2	-38.1	23.5	0.00e+00	122	42	0	1349517312	48	5644
2026-01-19 21:25:23.49	4.92	17.82	-37.6	-38.6	23.3	0.00e+00	122	42	0	1362100224	48	5950
2026-01-19 21:25:27.53	4.05	17.64	-37.2	-38.2	23.5	0.00e+00	123	42	0	1374683136	48	5674
2026-01-19 21:25:31.57	3.20	17.45	-37.4	-38.4	23.5	0.00e+00	127	42	0	1387266048	48	5806
2026-01-19 21:25:35.61	2.36	17.26	-37.8	-38.7	23.5	0.00e+00	123	42	0	1399848960	48	6034
2026-01-19 21:25:39.65	1.53	17.06	-37.0	-37.9	23.8	0.00e+00	123	42	0	1412431872	48	5492
2026-01-19 21:25:43.68	0.71	16.86	-37.7	-38.7	23.6	0.00e+00	122	42	0	1425014784	48	6003
2026-01-19 21:25:47.73	359.90	16.65	-37.3	-38.2	23.5	0.00e+00	123	42	0	1437597696	48	5694
2026-01-19 21:25:51.76	359.10	16.44	-37.8	-38.8	23.3	0.00e+00	123	42	0	1450180608	48	6103
2026-01-19 21:25:55.81	358.32	16.23	-37.4	-38.3	23.3	0.00e+00	123	42	0	1462763520	48	5780
2026-01-19 21:25:59.85	357.54	16.01	-37.1	-38.1	23.4	0.00e+00	122	42	0	1475346432	48	5597
2026-01-19 21:26:03.88	356.78	15.79	-37.6	-38.5	23.0	0.00e+00	123	42	0	1487929344	48	5915
2026-01-19 21:26:07.92	356.03	15.57	-37.7	-38.7	22.9	0.00e+00	123	42	0	1500512256	48	6047
2026-01-19 21:26:11.96	355.29	15.34	-37.9	-38.8	22.9	0.00e+00	123	42	0	1513095168	48	6127
2026-01-19 21:26:16.00	354.56	15.11	-38.0	-39.0	22.9	0.00e+00	124	42	0	1526726656	48	6237
2026-01-19 21:26:20.04	353.84	14.88	-38.5	-39.4	22.9	0.00e+00	122	42	0	1538260992	48	6560
2026-01-19 21:26:24.08	353.13	14.65	-38.3	-39.3	22.9	0.00e+00	122	42	0	1551892480	48	6452
2026-01-19 21:26:28.12	352.44	14.41	-38.0	-39.0	22.9	0.00e+00	123	42	0	1564475392	50	5560
2026-01-19 21:26:32.17	351.75	14.18	-37.6	-38.6	23.0	0.00e+00	122	42	0	1577058304	48	5950
2026-01-19 21:26:36.21	351.08	13.94	-38.0	-38.9	23.3	0.00e+00	122	42	0	1589641216	48	6180
2026-01-19 21:26:40.25	350.42	13.70	-38.1	-39.0	22.9	0.00e+00	122	42	0	1602224128	48	6272
2026-01-19 21:26:44.29	349.77	13.45	-38.4	-39.3	22.8	0.00e+00	120	42	0	1614807040	50	5780
2026-01-19 21:26:48.33	349.13	13.21	-38.1	-39.1	23.1	0.00e+00	122	42	0	1627389952	50	5622
2026-01-19 21:26:52.37	348.50	12.97	-38.5	-39.5	22.2	0.00e+00	123	42	0	1639972864	50	5915
2026-01-19 21:26:56.41	347.88	12.72	-39.1	-40.2	22.3	0.00e+00	123	42	0	1652555776	50	6387
2026-01-19 21:27:00.45	347.27	12.47	-38.9	-40.0	22.3	0.00e+00	123	42	0	1665138688	50	6224
2026-01-19 21:27:04.49	346.67	12.23	-38.6	-39.6	22.5	0.00e+00	123	42	0	1677721600	50	5947
2026-01-19 21:27:08.53	346.08	11.98	-38.9	-40.0	22.1	0.00e+00	123	42	0	1690304512	50	6206
2026-01-19 21:27:12.57	345.50	11.73	-39.0	-40.0	22.1	0.00e+00	122	42	0	1702887424	52	5583
2026-01-19 21:27:16.61	344.93	11.48	-39.0	-40.0	22.2	0.00e+00	123	42	0	1715470336	50	6264
2026-01-19 21:27:20.65	344.38	11.23	-39.5	-40.5	22.1	0.00e+00	122	42	0	1728053248	52	5917
2026-01-19 21:27:24.69	343.83	10.99	-39.7	-40.7	21.8	0.00e+00	122	42	0	1740636160	52	6025
2026-01-19 21:27:28.73	343.29	10.74	-39.7	-40.7	21.8	0.00e+00	123	42	0	1753219072	52	6056
2026-01-19 21:27:32.77	342.76	10.49	-39.9	-40.9	22.0	0.00e+00	122	42	0	1765801984	52	6180
2026-01-19 21:27:36.82	342.24	10.24	-39.7	-40.9	21.0	0.00e+00	123	42	0	1778384896	52	6150
2026-01-19 21:27:40.85	341.72	9.99	-40.4	-41.5	21.3	0.00e+00	123	42	0	1790967808	54	5887
2026-01-19 21:27:44.90	341.22	9.74	-40.5	-41.6	21.3	0.00e+00	122	42	0	1803550720	54	5986
2026-01-19 21:27:48.94	340.73	9.50	-41.3	-42.5	20.8	0.00e+00	123	42	0	1816133632	54	6612
2026-01-19 21:27:52.98	340.24	9.25	-42.1	-43.4	19.8	0.00e+00	122	42	0	1828716544	56	6557
2026-01-19 21:27:57.02	339.76	9.00	-41.0	-42.2	20.5	0.00e+00	123	42	0	1842348032	56	5673
2026-01-19 21:28:01.06	339.29	8.76	-41.0	-42.2	21.1	0.00e+00	123	42	0	1854930944	54	6368
2026-01-19 21:28:05.10	338.83	8.51	-39.8	-40.9	21.3	0.00e+00	120	42	0	1867513856	52	6172
2026-01-19 21:28:09.14	338.38	8.27	-40.5	-41.7	20.0	0.00e+00	123	42	0	1880096768	54	6062
2026-01-19 21:28:13.18	337.93	8.02	-42.0	-43.2	19.9	0.00e+00	123	42	0	1892679680	56	6406
2026-01-19 21:28:17.22	337.49	7.78	-41.8	-43.1	19.8	0.00e+00	122	42	0	1905262592	56	6324
2026-01-19 21:28:21.26	337.06	7.54	-41.3	-42.5	20.8	0.00e+00	123	42	0	1917845504	56	5863
2026-01-19 21:28:25.30	336.64	7.29	-40.7	-41.8	20.4	0.00e+00	120	42	0	1930428416	54	6128
2026-01-19 21:28:29.34	336.22	7.05	-42.6	-43.9	19.7	0.00e+00	122	42	0	1943011328	56	6896
2026-01-19 21:28:33.38	335.82	6.81	-43.2	-44.7	19.2	0.00e+00	123	42	0	1955594240	58	6736
2026-01-19 21:28:37.42	335.41	6.57	-40.4	-41.7	20.0	0.00e+00	123	42	0	1968177152	54	6024
2026-01-19 21:28:41.46	335.02	6.33	-42.2	-43.5	19.4	0.00e+00	123	42	0	1980760064	56	6636
2026-01-19 21:28:45.50	334.63	6.10	-43.6	-45.1	17.5	0.00e+00	121	42	0	1993342976	58	7078
2026-01-19 21:28:49.53	334.25	5.86	-42.7	-44.1	18.4	0.00e+00	122	42	0	2005925888	56	7111
2026-01-19 21:28:53.58	333.87	5.62	-43.6	-45.3	16.7	0.00e+00	122	42	0	2018508800	58	7267
2026-01-19 21:28:57.62	333.50	5.39	-43.9	-46.0	15.5	0.00e+00	123	42	0	2031091712	60	6992
2026-01-19 21:29:01.66	333.14	5.15	-44.3	-46.5	14.8	7.00e-07	123	42	0	2043674624	60	7455
2026-01-19 21:29:05.70	332.78	4.92	-43.2	-45.1	16.0	0.00e+00	120	42	0	2056257536	60	6340
2026-01-19 21:29:09.74	332.43	4.69	-42.1	-43.8	16.7	0.00e+00	123	42	0	2068840448	58	6078
2026-01-19 21:29:13.78	332.08	4.46	-42.6	-44.3	16.8	0.00e+00	123	42	0	2081423360	58	6447
2026-01-19 21:29:17.82	331.74	4.23	-42.9	-44.8	16.3	0.00e+00	123	42	0	2094006272	56	7667
2026-01-19 21:29:21.86	331.41	4.00	-42.2	-43.9	17.1	0.00e+00	122	42	0	2106589184	58	6157
2026-01-19 21:29:25.90	331.08	3.77	-45.3	-47.5	14.4	0.00e+00	123	42	0	2119172096	60	8359
2026-01-19 21:29:29.94	330.76	3.54	-44.0	-45.9	16.0	0.00e+00	123	42	0	2131755008	60	6927
2026-01-19 21:29:33.98	330.44	3.32	-45.0	-47.2	14.8	0.00e+00	123	42	0	2144337920	60	8029
2026-01-19 21:29:38.02	330.12	3.09	-43.4	-45.5	15.0	0.00e+00	123	42	0	2157969408	60	6584
2026-01-19 21:29:42.06	329.82	2.87	-51.1	-63.9	3.5	1.52e+00	0	42	104	2162163712	60	55262
2026-01-19 21:29:46.11	329.51	2.64	-51.6	-64.4	3.5	1.52e+00	0	42	104	2162163712	60	58364
2026-01-19 21:29:50.15	329.21	2.42	-51.8	-64.6	3.5	1.52e+00	0	42	104	2162163712	60	59715
2026-01-19 21:29:54.18	328.92	2.20	-52.3	-65.3	3.5	1.52e+00	0	42	104	2162163712	60	64656
2026-01-19 21:29:58.22	328.63	1.98	-51.9	-64.9	3.5	1.52e+00	0	42	104	2162163712	60	61686
2026-01-19 21:30:02.26	328.34	1.76	-51.6	-64.6	3.5	1.52e+00	0	42	104	2162163712	60	59618
2026-01-19 21:30:06.30	328.06	1.54	-51.4	-64.3	3.5	1.52e+00	0	42	104	2162163712	60	57749
2026-01-19 21:30:10.34	327.79	1.33	-52.6	-65.5	3.5	1.52e+00	0	42	104	2162163712	60	66296
2026-01-19 21:30:14.38	327.51	1.11	-52.5	-65.4	3.5	1.51e+00	0	42	104	2162163712	60	65013
2026-01-19 21:30:18.42	327.25	0.90	-51.8	-64.7	3.5	1.52e+00	0	42	104	2162163712	60	60263
2026-01-19 21:30:22.46	326.98	0.68	-52.7	-65.6	3.5	1.52e+00	0	42	104	2162163712	60	67213
2026-01-19 21:30:26.50	326.72	0.47	-52.9	-65.8	3.5	1.52e+00	0	42	104	2162163712	60	68074
2026-01-19 21:30:30.54	326.47	0.26	-52.7	-65.6	3.5	1.51e+00	0	42	104	2162163712	60	67049
2026-01-19 21:30:34.58	326.21	0.04	-51.9	-64.8	3.5	1.52e+00	0	42	104	2162163712	60	60945

#Closed at: 2026-01-19 21:30:35
#Recorded file [2162 MB]: D:/lorett/data/35029_260120_091710.dat