passes_logs/2026/01/19/R4.6S_Anadyr/R4.6S_Anadyr__20260119_150945_SUOMI_NPP_rec.log

#Pass ID: 20260119_150945_SUOMI NPP
#Satellite: SUOMI NPP
#Configuration: NPP
#almurnet v.1.7.20251203
#Start time: 2026-01-19 15:09:47

#Version: 2.2.20231116
#Station: R4.6S_Anadyr
#Location: 177.4865 lon 64.73178 lat
#TLE: 1 37849U 11061A   26018.91022273  .00000066  00000+0  52264-4 0  9997
#TLE: 2 37849  98.7816 320.9252 0002364  56.8129 303.3273 14.19526186737260

#Time	Az	El	Level	Level2	SNR	BER	BlckErr	Temp	State	Recorded	gain1	gain2
2026-01-19 15:09:47.17	21.37	0.12	-50.5	-62.9	3.5	1.52e+00	0	39	0	0	60	49205
2026-01-19 15:09:51.21	21.35	0.36	-50.5	-65.7	3.6	1.51e+00	0	40	104	0	60	69594
2026-01-19 15:09:55.25	21.32	0.61	-50.5	-65.7	3.6	1.51e+00	0	40	104	0	60	69451
2026-01-19 15:09:59.29	21.30	0.85	-50.4	-65.5	3.6	1.51e+00	0	40	104	0	60	68455
2026-01-19 15:10:03.32	21.27	1.10	-50.1	-65.4	3.6	1.51e+00	0	40	104	0	60	66937
2026-01-19 15:10:07.36	21.25	1.35	-49.6	-65.0	3.6	1.51e+00	0	40	104	0	60	63956
2026-01-19 15:10:11.40	21.22	1.60	-48.9	-63.9	3.6	1.51e+00	0	40	104	0	60	56329
2026-01-19 15:10:15.44	21.19	1.86	-48.8	-64.0	3.6	1.51e+00	0	40	104	0	60	57369
2026-01-19 15:10:19.48	21.17	2.12	-48.8	-63.9	3.6	1.51e+00	0	40	104	0	60	56930
2026-01-19 15:10:23.52	21.14	2.38	-48.8	-63.6	3.6	1.51e+00	0	41	104	0	60	54835
2026-01-19 15:10:27.56	21.11	2.64	-48.8	-62.7	3.6	1.51e+00	0	41	104	0	60	49607
2026-01-19 15:10:31.60	21.08	2.90	-48.8	-63.9	3.6	1.51e+00	0	41	104	0	60	56356
2026-01-19 15:10:35.64	21.05	3.17	-48.4	-57.1	4.9	7.79e-01	0	41	0	1048576	60	26021
2026-01-19 15:10:39.68	21.01	3.44	-47.7	-53.9	8.4	5.51e-02	67	41	0	9437184	60	17811
2026-01-19 15:10:43.72	20.98	3.71	-47.9	-54.6	7.5	7.79e-02	0	41	0	16777216	60	19476
2026-01-19 15:10:47.76	20.95	3.99	-48.6	-60.3	3.6	1.27e-01	0	41	104	24117248	60	37389
2026-01-19 15:10:51.80	20.91	4.26	-45.0	-47.6	15.6	0.00e+00	42	41	0	24117248	60	8635
2026-01-19 15:10:55.84	20.87	4.54	-44.5	-46.8	16.4	0.00e+00	0	41	0	31457280	60	7893
2026-01-19 15:10:59.88	20.84	4.83	-43.8	-45.9	17.4	0.00e+00	0	41	0	38797312	60	7103
2026-01-19 15:11:03.91	20.80	5.11	-43.7	-45.6	17.7	0.00e+00	0	41	0	47185920	60	6888
2026-01-19 15:11:07.95	20.76	5.40	-44.0	-46.0	17.3	0.00e+00	92	41	0	54525952	60	7247
2026-01-19 15:11:11.99	20.72	5.70	-43.6	-45.5	17.7	0.00e+00	0	41	0	61865984	60	6786
2026-01-19 15:11:16.03	20.68	5.99	-43.6	-45.5	18.1	0.00e+00	0	41	0	69206016	60	6801
2026-01-19 15:11:20.07	20.63	6.29	-43.2	-45.0	18.4	0.00e+00	0	41	0	77594624	60	6411
2026-01-19 15:11:24.11	20.59	6.59	-43.4	-45.1	18.4	0.00e+00	92	41	0	84934656	60	6503
2026-01-19 15:11:28.15	20.54	6.90	-43.1	-44.8	18.6	0.00e+00	0	41	0	92274688	60	6255
2026-01-19 15:11:32.19	20.50	7.21	-42.9	-44.5	19.0	0.00e+00	0	41	0	99614720	60	6081
2026-01-19 15:11:36.22	20.45	7.52	-42.7	-44.3	19.1	0.00e+00	0	41	0	106954752	58	6633
2026-01-19 15:11:40.26	20.40	7.84	-42.7	-44.2	19.1	0.00e+00	92	41	0	115343360	58	6615
2026-01-19 15:11:44.30	20.35	8.16	-42.8	-44.4	19.1	0.00e+00	0	41	0	122683392	58	6709
2026-01-19 15:11:48.34	20.30	8.49	-42.5	-44.0	19.4	0.00e+00	0	41	0	130023424	58	6455
2026-01-19 15:11:52.38	20.24	8.82	-42.3	-43.8	19.7	0.00e+00	63	41	0	137363456	58	6280
2026-01-19 15:11:56.41	20.19	9.15	-42.3	-43.7	19.7	0.00e+00	0	41	0	145752064	58	6210
2026-01-19 15:12:00.45	20.13	9.49	-42.2	-43.6	19.9	0.00e+00	0	41	0	153092096	58	6106
2026-01-19 15:12:04.49	20.07	9.84	-42.1	-43.5	20.0	0.00e+00	0	41	0	160432128	58	6061
2026-01-19 15:12:08.53	20.01	10.19	-42.0	-43.4	20.2	0.00e+00	92	41	0	167772160	56	6722
2026-01-19 15:12:12.57	19.94	10.54	-41.7	-43.0	20.5	0.00e+00	0	41	0	175112192	56	6427
2026-01-19 15:12:16.61	19.88	10.90	-41.5	-42.8	20.6	0.00e+00	0	41	0	183500800	56	6274
2026-01-19 15:12:20.65	19.81	11.26	-42.0	-43.4	20.4	0.00e+00	17	41	0	190840832	56	6696
2026-01-19 15:12:24.69	19.74	11.63	-41.6	-42.9	20.7	0.00e+00	92	41	0	198180864	56	6383
2026-01-19 15:12:28.72	19.67	12.01	-41.3	-42.6	20.9	0.00e+00	0	41	0	205520896	56	6129
2026-01-19 15:12:32.76	19.60	12.39	-41.2	-42.4	21.0	0.00e+00	0	41	0	213909504	56	6013
2026-01-19 15:12:36.80	19.52	12.77	-41.2	-42.4	21.2	0.00e+00	43	41	0	221249536	56	6004
2026-01-19 15:12:40.84	19.44	13.17	-41.2	-42.5	21.1	0.00e+00	0	41	0	228589568	56	6047
2026-01-19 15:12:44.88	19.36	13.57	-41.0	-42.2	21.2	0.00e+00	0	41	0	235929600	56	5882
2026-01-19 15:12:48.92	19.28	13.97	-41.3	-42.6	21.1	0.00e+00	0	41	0	243269632	56	6106
2026-01-19 15:12:52.96	19.19	14.39	-41.1	-42.3	21.4	0.00e+00	43	41	0	251658240	56	5899
2026-01-19 15:12:56.99	19.10	14.80	-40.9	-42.1	21.4	0.00e+00	0	41	0	258998272	56	5805
2026-01-19 15:13:01.03	19.01	15.23	-40.6	-41.7	21.8	0.00e+00	0	41	0	266338304	54	6220
2026-01-19 15:13:05.07	18.91	15.67	-40.4	-41.5	22.0	0.00e+00	0	41	0	273678336	54	6055
2026-01-19 15:13:09.11	18.81	16.11	-40.2	-41.3	22.2	0.00e+00	88	41	0	282066944	54	5924
2026-01-19 15:13:13.15	18.71	16.56	-40.0	-41.0	22.4	0.00e+00	0	41	0	289406976	54	5759
2026-01-19 15:13:17.19	18.60	17.02	-39.9	-40.9	22.5	0.00e+00	0	41	0	296747008	54	5691
2026-01-19 15:13:21.22	18.49	17.48	-40.0	-41.0	22.4	0.00e+00	0	41	0	304087040	54	5749
2026-01-19 15:13:25.26	18.38	17.96	-40.1	-41.1	22.4	0.00e+00	0	41	0	311427072	54	5796
2026-01-19 15:13:29.30	18.26	18.45	-39.9	-40.9	22.5	0.00e+00	0	41	0	319815680	54	5680
2026-01-19 15:13:33.34	18.14	18.94	-39.9	-40.9	22.6	0.00e+00	0	41	0	327155712	52	6390
2026-01-19 15:13:37.37	18.01	19.45	-39.7	-40.7	22.6	0.00e+00	65	41	0	334495744	52	6235
2026-01-19 15:13:41.41	17.88	19.96	-39.9	-40.9	22.6	0.00e+00	0	41	0	341835776	52	6371
2026-01-19 15:13:45.45	17.74	20.49	-39.8	-40.8	22.7	0.00e+00	0	41	0	350224384	52	6287
2026-01-19 15:13:49.49	17.60	21.02	-39.7	-40.7	22.7	0.00e+00	0	41	0	357564416	52	6228
2026-01-19 15:13:53.53	17.45	21.57	-39.4	-40.3	23.0	0.00e+00	90	41	0	364904448	52	5962
2026-01-19 15:13:57.57	17.29	22.13	-39.5	-40.5	23.0	0.00e+00	0	41	0	372244480	52	6069
2026-01-19 15:14:01.60	17.13	22.71	-39.3	-40.3	23.1	0.00e+00	0	41	0	379584512	52	5910
2026-01-19 15:14:05.64	16.96	23.29	-39.2	-40.1	23.3	0.00e+00	17	41	0	387973120	52	5819
2026-01-19 15:14:09.68	16.79	23.89	-38.8	-39.7	23.6	0.00e+00	81	41	0	395313152	52	5551
2026-01-19 15:14:13.71	16.61	24.50	-38.9	-39.8	23.5	0.00e+00	0	41	0	402653184	50	6263
2026-01-19 15:14:17.75	16.42	25.13	-39.6	-40.6	23.0	0.00e+00	0	41	0	409993216	50	6863
2026-01-19 15:14:21.79	16.22	25.77	-39.5	-40.5	23.0	0.00e+00	50	41	0	418381824	52	6053
2026-01-19 15:14:25.83	16.01	26.43	-39.2	-40.1	23.2	0.00e+00	0	41	0	425721856	52	5827
2026-01-19 15:14:29.87	15.79	27.11	-39.5	-40.4	23.1	0.00e+00	0	41	0	433061888	52	5998
2026-01-19 15:14:33.90	15.56	27.79	-40.1	-41.1	22.5	0.00e+00	0	41	0	440401920	52	6512
2026-01-19 15:14:37.94	15.33	28.50	-39.8	-40.7	22.8	0.00e+00	79	41	0	447741952	52	6213
2026-01-19 15:14:41.97	15.08	29.23	-40.2	-41.2	22.3	0.00e+00	0	41	0	456130560	52	6561
2026-01-19 15:14:46.01	14.81	29.97	-41.4	-42.5	21.4	0.00e+00	0	41	0	463470592	54	6847
2026-01-19 15:14:50.05	14.54	30.73	-41.8	-43.0	20.8	0.00e+00	0	41	0	470810624	56	6427
2026-01-19 15:14:54.08	14.25	31.51	-41.4	-42.5	21.4	0.00e+00	34	41	0	478150656	56	6088
2026-01-19 15:14:58.12	13.94	32.32	-42.5	-43.9	20.2	0.00e+00	33	41	0	485490688	58	6374
2026-01-19 15:15:02.16	13.62	33.14	-42.7	-44.1	20.0	0.00e+00	0	41	0	493879296	58	6507
2026-01-19 15:15:06.19	13.28	33.99	-43.2	-44.8	19.5	0.00e+00	47	41	0	501219328	58	7043
2026-01-19 15:15:10.23	12.92	34.85	-42.8	-44.2	20.0	0.00e+00	92	41	0	508559360	60	5889
2026-01-19 15:15:14.27	12.55	35.75	-42.0	-43.4	20.6	0.00e+00	0	41	0	515899392	58	5981
2026-01-19 15:15:18.30	12.14	36.66	-43.4	-45.0	19.4	0.00e+00	0	41	0	524288000	58	7250
2026-01-19 15:15:22.34	11.72	37.60	-41.3	-42.4	21.7	0.00e+00	92	41	0	531628032	56	6022
2026-01-19 15:15:26.38	11.27	38.57	-40.9	-42.0	21.7	0.00e+00	0	41	0	538968064	54	6441
2026-01-19 15:15:30.42	10.78	39.56	-41.7	-42.9	21.3	0.00e+00	0	41	0	546308096	56	6372
2026-01-19 15:15:34.46	10.27	40.58	-41.3	-42.4	21.5	0.00e+00	0	41	0	553648128	56	5995
2026-01-19 15:15:38.49	9.72	41.62	-42.0	-43.3	20.7	0.00e+00	75	41	0	562036736	56	6651
2026-01-19 15:15:42.53	9.14	42.70	-42.8	-44.3	19.9	0.00e+00	0	41	0	569376768	56	7423
2026-01-19 15:15:46.57	8.51	43.80	-43.4	-45.1	19.2	0.00e+00	0	41	0	576716800	58	7311
2026-01-19 15:15:50.61	7.83	44.93	-41.8	-43.0	21.0	0.00e+00	48	41	0	584056832	56	6436
2026-01-19 15:15:54.65	7.11	46.08	-40.5	-41.6	22.2	0.00e+00	67	41	0	592445440	54	6134
2026-01-19 15:15:58.69	6.32	47.27	-41.2	-42.4	21.5	0.00e+00	0	41	0	599785472	56	5976
2026-01-19 15:16:02.73	5.47	48.48	-40.5	-41.5	22.3	0.00e+00	0	41	0	607125504	54	6072
2026-01-19 15:16:06.76	4.56	49.72	-40.0	-41.1	22.8	0.00e+00	20	41	0	614465536	54	5764
2026-01-19 15:16:10.80	3.56	50.98	-39.8	-40.8	22.8	0.00e+00	0	41	0	621805568	52	6299
2026-01-19 15:16:14.84	2.47	52.27	-40.4	-41.4	22.3	0.00e+00	0	41	0	630194176	52	6767
2026-01-19 15:16:18.88	1.28	53.59	-40.7	-41.9	21.9	0.00e+00	0	41	0	637534208	54	6336
2026-01-19 15:16:22.92	359.97	54.92	-40.3	-41.4	22.2	0.00e+00	50	41	0	644874240	54	6000
2026-01-19 15:16:26.96	358.54	56.27	-38.5	-39.4	23.8	0.00e+00	0	41	0	652214272	50	5965
2026-01-19 15:16:31.00	356.95	57.64	-40.5	-41.5	22.3	0.00e+00	0	41	0	660602880	52	6821
2026-01-19 15:16:35.04	355.19	59.02	-41.2	-42.4	21.4	0.00e+00	0	41	0	667942912	54	6767
2026-01-19 15:16:39.08	353.24	60.40	-40.5	-41.6	22.2	0.00e+00	36	41	0	675282944	54	6139
2026-01-19 15:16:43.12	351.06	61.77	-40.3	-41.3	22.5	0.00e+00	0	41	0	682622976	54	5949
2026-01-19 15:16:47.16	348.62	63.13	-40.5	-41.7	22.2	0.00e+00	0	41	0	689963008	54	6184
2026-01-19 15:16:51.20	345.89	64.47	-38.2	-39.1	24.1	0.00e+00	54	41	0	698351616	50	5793
2026-01-19 15:16:55.23	342.83	65.78	-39.1	-40.0	23.5	0.00e+00	85	41	0	705691648	50	6437
2026-01-19 15:16:59.27	339.37	67.03	-41.8	-43.0	20.7	0.00e+00	0	41	0	713031680	56	6457
2026-01-19 15:17:03.31	335.49	68.22	-44.1	-46.1	18.2	0.00e+00	0	41	0	720371712	60	7292
2026-01-19 15:17:07.35	331.14	69.31	-43.9	-45.7	18.2	0.00e+00	92	41	0	728760320	60	6995
2026-01-19 15:17:11.39	326.30	70.30	-41.0	-42.1	21.0	0.00e+00	0	41	0	736100352	56	5825
2026-01-19 15:17:15.43	320.94	71.14	-41.7	-42.9	20.8	0.00e+00	0	41	0	743440384	56	6378
2026-01-19 15:17:19.47	315.10	71.82	-41.0	-42.2	21.7	0.00e+00	0	41	0	750780416	54	6540
2026-01-19 15:17:23.51	308.85	72.32	-43.9	-45.6	18.6	0.00e+00	91	41	0	758120448	60	6892
2026-01-19 15:17:27.55	302.30	72.60	-43.9	-45.7	18.6	0.00e+00	0	41	0	766509056	60	6942
2026-01-19 15:17:31.59	295.62	72.66	-42.6	-44.1	20.1	0.00e+00	0	41	0	773849088	58	6512
2026-01-19 15:17:35.63	288.97	72.49	-40.4	-41.5	22.4	0.00e+00	0	41	0	781189120	54	6055
2026-01-19 15:17:39.67	282.54	72.11	-40.8	-41.9	22.1	0.00e+00	37	41	0	788529152	54	6344
2026-01-19 15:17:43.70	276.48	71.53	-41.0	-42.1	21.5	0.00e+00	0	41	0	796917760	54	6506
2026-01-19 15:17:47.74	270.86	70.77	-42.7	-44.0	20.3	0.00e+00	0	41	0	804257792	58	6404
2026-01-19 15:17:51.77	265.75	69.85	-44.3	-45.9	18.4	0.00e+00	52	41	0	811597824	60	7132
2026-01-19 15:17:55.81	261.13	68.81	-42.6	-43.9	20.3	0.00e+00	0	41	0	818937856	58	6371
2026-01-19 15:17:59.85	257.00	67.67	-41.7	-42.9	21.3	0.00e+00	0	41	0	826277888	58	5647
2026-01-19 15:18:03.89	253.32	66.45	-41.6	-42.7	21.5	0.00e+00	0	41	0	834666496	56	6214
2026-01-19 15:18:07.92	250.06	65.17	-40.6	-41.6	22.3	0.00e+00	73	41	0	842006528	54	6161
2026-01-19 15:18:11.96	247.15	63.84	-39.0	-39.9	23.6	0.00e+00	0	41	0	849346560	50	6350
2026-01-19 15:18:16.00	244.56	62.49	-38.6	-39.5	23.6	0.00e+00	0	41	0	856686592	50	6097
2026-01-19 15:18:20.03	242.25	61.12	-40.2	-41.3	22.4	0.00e+00	0	41	0	864026624	52	6674
2026-01-19 15:18:24.07	240.17	59.74	-40.0	-41.0	22.7	0.00e+00	92	41	0	872415232	52	6416
2026-01-19 15:18:28.11	238.31	58.36	-39.4	-40.4	23.1	0.00e+00	0	41	0	879755264	52	5970
2026-01-19 15:18:32.15	236.63	56.98	-39.9	-40.9	22.7	0.00e+00	33	41	0	887095296	52	6348
2026-01-19 15:18:36.18	235.12	55.62	-36.8	-37.6	25.0	0.00e+00	51	41	0	894435328	48	5452
2026-01-19 15:18:40.22	233.74	54.28	-38.8	-39.7	23.4	0.00e+00	0	41	0	902823936	50	6207
2026-01-19 15:18:44.26	232.49	52.95	-41.4	-42.7	21.2	0.00e+00	0	41	0	910163968	54	6984
2026-01-19 15:18:48.30	231.35	51.64	-41.3	-42.6	21.4	0.00e+00	0	41	0	917504000	54	6851
2026-01-19 15:18:52.33	230.30	50.36	-40.9	-42.0	21.8	0.00e+00	43	41	0	924844032	54	6423
2026-01-19 15:18:56.37	229.34	49.10	-39.1	-40.0	23.4	0.00e+00	0	41	0	932184064	50	6406
2026-01-19 15:19:00.41	228.45	47.87	-40.5	-41.5	22.1	0.00e+00	0	41	0	940572672	52	6825
2026-01-19 15:19:04.45	227.63	46.67	-41.4	-42.6	21.1	0.00e+00	0	41	0	947912704	54	6908
2026-01-19 15:19:08.48	226.88	45.50	-41.6	-42.8	21.2	0.00e+00	81	41	0	955252736	56	6268
2026-01-19 15:19:12.52	226.17	44.35	-42.0	-43.3	20.6	0.00e+00	0	41	0	962592768	56	6689
2026-01-19 15:19:16.56	225.52	43.23	-45.9	-48.9	16.0	0.00e+00	0	41	0	970981376	60	10019
2026-01-19 15:19:20.59	224.91	42.14	-43.9	-45.8	18.5	0.00e+00	0	41	0	978321408	60	7031
2026-01-19 15:19:24.63	224.34	41.08	-41.2	-42.4	21.6	0.00e+00	92	41	0	985661440	56	5972
2026-01-19 15:19:28.67	223.81	40.04	-42.8	-44.2	19.8	0.00e+00	0	41	0	993001472	58	6589
2026-01-19 15:19:32.71	223.31	39.03	-43.5	-45.1	19.1	0.00e+00	0	41	0	1000341504	60	6539
2026-01-19 15:19:36.75	222.84	38.05	-44.5	-46.5	18.0	0.00e+00	91	41	0	1008730112	60	7607
2026-01-19 15:19:40.79	222.40	37.09	-39.7	-40.7	22.4	0.00e+00	0	41	0	1016070144	54	5526
2026-01-19 15:19:44.83	221.98	36.16	-39.7	-40.7	22.9	0.00e+00	0	41	0	1023410176	52	6176
2026-01-19 15:19:48.87	221.59	35.25	-42.1	-43.4	20.5	0.00e+00	0	41	0	1030750208	56	6737
2026-01-19 15:19:52.91	221.22	34.37	-44.2	-46.0	18.4	0.00e+00	92	41	0	1039138816	60	7215
2026-01-19 15:19:56.95	220.87	33.51	-42.9	-44.4	19.5	0.00e+00	0	41	0	1046478848	58	6754
2026-01-19 15:20:00.99	220.53	32.67	-41.6	-42.8	21.1	0.00e+00	0	41	0	1053818880	56	6283
2026-01-19 15:20:05.03	220.22	31.85	-41.8	-43.0	20.8	0.00e+00	0	41	0	1061158912	56	6463
2026-01-19 15:20:09.08	219.92	31.06	-42.4	-43.7	20.2	0.00e+00	90	41	0	1068498944	58	6217
2026-01-19 15:20:13.11	219.63	30.28	-44.7	-46.7	17.6	0.00e+00	33	41	0	1076887552	60	7847
2026-01-19 15:20:17.15	219.36	29.53	-44.7	-46.7	17.7	0.00e+00	0	41	0	1084227584	60	7796
2026-01-19 15:20:21.19	219.11	28.79	-44.0	-45.8	18.2	0.00e+00	27	41	0	1091567616	60	7081
2026-01-19 15:20:25.23	218.86	28.07	-43.3	-44.8	19.3	0.00e+00	0	41	0	1098907648	60	6300
2026-01-19 15:20:29.28	218.62	27.37	-41.0	-42.0	21.8	0.00e+00	0	41	0	1107296256	56	5754
2026-01-19 15:20:33.32	218.40	26.69	-39.7	-40.6	22.8	0.00e+00	0	41	0	1114636288	52	6160
2026-01-19 15:20:37.35	218.18	26.02	-40.0	-41.0	22.5	0.00e+00	27	41	0	1121976320	52	6408
2026-01-19 15:20:41.39	217.98	25.37	-42.2	-43.5	20.4	0.00e+00	0	41	0	1129316352	56	6833
2026-01-19 15:20:45.43	217.78	24.73	-43.7	-45.5	18.5	0.00e+00	0	41	0	1136656384	60	6799
2026-01-19 15:20:49.47	217.59	24.11	-43.3	-45.0	19.2	0.00e+00	0	41	0	1145044992	60	6436
2026-01-19 15:20:53.50	217.41	23.50	-41.8	-43.1	20.8	0.00e+00	49	41	0	1152385024	58	5801
2026-01-19 15:20:57.53	217.24	22.91	-41.8	-43.2	20.9	0.00e+00	0	41	0	1159725056	56	6554
2026-01-19 15:21:01.57	217.07	22.33	-41.5	-42.7	21.2	0.00e+00	0	41	0	1167065088	56	6240
2026-01-19 15:21:05.61	216.91	21.76	-40.5	-41.6	22.0	0.00e+00	43	41	0	1175453696	54	6132
2026-01-19 15:21:09.65	216.76	21.20	-40.3	-41.4	22.1	0.00e+00	9	41	0	1182793728	54	6018
2026-01-19 15:21:13.69	216.61	20.66	-40.5	-41.7	21.9	0.00e+00	0	41	0	1190133760	54	6197
2026-01-19 15:21:17.72	216.47	20.13	-40.8	-42.0	21.7	0.00e+00	0	41	0	1197473792	54	6449
2026-01-19 15:21:21.76	216.33	19.60	-40.7	-41.9	21.7	0.00e+00	92	41	0	1204813824	54	6341
2026-01-19 15:21:25.79	216.20	19.09	-40.5	-41.6	21.9	0.00e+00	0	41	0	1213202432	54	6131
2026-01-19 15:21:29.83	216.07	18.59	-40.9	-42.1	21.4	0.00e+00	0	41	0	1220542464	54	6480
2026-01-19 15:21:33.87	215.95	18.10	-42.1	-43.4	20.4	0.00e+00	0	41	0	1227882496	56	6758
2026-01-19 15:21:37.91	215.83	17.62	-42.8	-44.3	19.5	0.00e+00	92	41	0	1235222528	58	6660
2026-01-19 15:21:41.95	215.72	17.14	-42.7	-44.1	19.7	0.00e+00	0	41	0	1243611136	58	6525
2026-01-19 15:21:45.99	215.61	16.68	-41.7	-43.0	20.6	0.00e+00	0	41	0	1250951168	56	6446
2026-01-19 15:21:50.02	215.50	16.23	-41.1	-42.2	21.5	0.00e+00	17	41	0	1258291200	56	5879
2026-01-19 15:21:54.06	215.39	15.78	-41.4	-42.6	21.2	0.00e+00	41	41	0	1265631232	56	6126
2026-01-19 15:21:58.10	215.29	15.34	-42.2	-43.5	20.3	0.00e+00	0	41	0	1272971264	56	6820
2026-01-19 15:22:02.14	215.20	14.91	-43.0	-44.6	19.5	0.00e+00	0	41	0	1281359872	58	6858
2026-01-19 15:22:06.18	215.10	14.48	-42.9	-44.3	19.5	0.00e+00	39	41	0	1288699904	58	6675
2026-01-19 15:22:10.22	215.01	14.06	-42.7	-44.2	19.5	0.00e+00	19	41	0	1296039936	58	6573
2026-01-19 15:22:14.26	214.92	13.65	-41.8	-43.0	20.7	0.00e+00	0	41	0	1303379968	58	5727
2026-01-19 15:22:18.30	214.84	13.25	-41.2	-42.4	21.2	0.00e+00	0	41	0	1311768576	56	5973
2026-01-19 15:22:22.34	214.76	12.85	-40.7	-41.8	21.7	0.00e+00	66	41	0	1319108608	54	6250
2026-01-19 15:22:26.38	214.68	12.46	-40.6	-41.7	21.7	0.00e+00	0	41	0	1326448640	54	6208
2026-01-19 15:22:30.42	214.60	12.08	-40.6	-41.7	21.7	0.00e+00	0	41	0	1333788672	54	6213
2026-01-19 15:22:34.46	214.52	11.70	-40.7	-41.9	21.6	0.00e+00	0	41	0	1341128704	54	6320
2026-01-19 15:22:38.50	214.45	11.33	-41.4	-42.6	21.1	0.00e+00	90	41	0	1349517312	54	6852
2026-01-19 15:22:42.54	214.38	10.96	-41.4	-42.6	20.9	0.00e+00	0	41	0	1356857344	54	6873
2026-01-19 15:22:46.58	214.31	10.60	-41.9	-43.2	20.4	0.00e+00	0	41	0	1364197376	56	6609
2026-01-19 15:22:50.61	214.24	10.24	-42.1	-43.4	20.2	0.00e+00	4	41	0	1371537408	56	6714
2026-01-19 15:22:54.65	214.18	9.89	-42.4	-43.8	19.7	0.00e+00	92	41	0	1379926016	56	7080
2026-01-19 15:22:58.69	214.11	9.54	-42.6	-44.0	19.5	0.00e+00	0	42	0	1387266048	58	6425
2026-01-19 15:23:02.73	214.05	9.20	-42.9	-44.4	19.1	0.00e+00	0	41	0	1394606080	58	6763
2026-01-19 15:23:06.77	213.99	8.86	-43.1	-44.7	19.0	0.00e+00	36	41	0	1401946112	58	6950
2026-01-19 15:23:10.81	213.93	8.53	-43.2	-44.9	18.6	0.00e+00	0	42	0	1409286144	58	7116
2026-01-19 15:23:14.85	213.88	8.20	-43.1	-44.8	18.8	0.00e+00	0	42	0	1417674752	58	7030
2026-01-19 15:23:18.88	213.82	7.88	-43.4	-45.2	18.3	0.00e+00	0	41	0	1425014784	58	7371
2026-01-19 15:23:22.92	213.77	7.56	-43.3	-45.0	18.5	0.00e+00	92	41	0	1432354816	58	7227
2026-01-19 15:23:26.96	213.72	7.24	-43.7	-45.5	18.0	0.00e+00	0	41	0	1439694848	58	7660
2026-01-19 15:23:30.99	213.67	6.93	-43.8	-45.7	17.8	0.00e+00	0	41	0	1448083456	60	6988
2026-01-19 15:23:35.03	213.62	6.62	-43.7	-45.6	17.9	0.00e+00	0	41	0	1455423488	60	6887
2026-01-19 15:23:39.07	213.57	6.31	-43.7	-45.6	17.8	0.00e+00	90	42	0	1462763520	60	6912
2026-01-19 15:23:43.11	213.52	6.01	-43.9	-45.8	17.5	0.00e+00	0	41	0	1470103552	60	7050
2026-01-19 15:23:47.15	213.48	5.71	-44.3	-46.5	17.1	0.00e+00	33	41	0	1477443584	60	7609
2026-01-19 15:23:51.18	213.43	5.42	-43.9	-45.9	17.6	0.00e+00	39	41	0	1485832192	60	7099
2026-01-19 15:23:55.22	213.39	5.13	-43.8	-45.8	17.6	0.00e+00	0	41	0	1493172224	60	7022
2026-01-19 15:23:59.26	213.35	4.84	-44.1	-46.2	17.1	0.00e+00	0	41	0	1500512256	60	7398
2026-01-19 15:24:03.29	213.30	4.55	-43.9	-46.0	17.1	0.00e+00	0	41	0	1507852288	60	7190
2026-01-19 15:24:07.33	213.26	4.27	-44.0	-46.1	17.1	0.00e+00	92	41	0	1515192320	60	7303
2026-01-19 15:24:11.37	213.22	3.99	-44.0	-46.2	16.9	0.00e+00	0	41	0	1523580928	60	7355
2026-01-19 15:24:15.41	213.19	3.72	-44.1	-46.4	16.5	0.00e+00	0	41	0	1530920960	60	7509
2026-01-19 15:24:19.44	213.15	3.44	-44.2	-46.5	16.3	0.00e+00	0	42	0	1538260992	60	7643
2026-01-19 15:24:23.49	213.11	3.17	-44.4	-46.8	16.1	0.00e+00	92	42	0	1545601024	60	7936
2026-01-19 15:24:27.52	213.08	2.90	-49.2	-64.5	3.6	1.51e+00	0	42	104	1551892480	60	60583
2026-01-19 15:24:31.56	213.04	2.64	-49.9	-65.2	3.6	1.51e+00	0	42	104	1551892480	60	66003
2026-01-19 15:24:35.60	213.01	2.37	-50.2	-65.4	3.6	1.51e+00	0	42	104	1551892480	60	67689
2026-01-19 15:24:39.64	212.98	2.11	-50.2	-65.5	3.6	1.51e+00	0	42	104	1551892480	60	67828
2026-01-19 15:24:43.68	212.94	1.85	-50.2	-65.4	3.6	1.51e+00	0	42	104	1551892480	60	67164
2026-01-19 15:24:47.72	212.91	1.59	-50.3	-65.4	3.6	1.51e+00	0	42	104	1551892480	60	67497
2026-01-19 15:24:51.76	212.88	1.34	-50.3	-65.4	3.6	1.51e+00	0	42	104	1551892480	60	67036
2026-01-19 15:24:55.80	212.85	1.09	-50.3	-65.4	3.6	1.51e+00	0	42	104	1551892480	60	67376
2026-01-19 15:24:59.84	212.82	0.84	-50.4	-65.6	3.6	1.51e+00	0	42	104	1551892480	60	68517
2026-01-19 15:25:03.88	212.79	0.59	-50.4	-65.6	3.6	1.51e+00	0	42	104	1551892480	60	68892
2026-01-19 15:25:07.92	212.76	0.34	-50.4	-65.5	3.6	1.51e+00	0	42	104	1551892480	60	68469
2026-01-19 15:25:11.95	212.74	0.10	-50.5	-65.6	3.6	1.51e+00	0	42	104	1551892480	60	68699

#Closed at: 2026-01-19 15:25:15
#Recorded file [1551 MB]: D:/lorett/data/35029_260120_030947.dat