passes_logs/2026/01/19/R4.6S_Anadyr/R4.6S_Anadyr__20260119_125934_NOAA_21_JPSS-2_rec.log

#Pass ID: 20260119_125934_NOAA 21 (JPSS-2)
#Satellite: NOAA 21 (JPSS-2)
#Configuration: NOAA-21
#almurnet v.1.7.20251203
#Start time: 2026-01-19 12:59:37

#Version: 2.2.20231116
#Station: R4.6S_Anadyr
#Location: 177.4865 lon 64.73178 lat
#TLE: 1 54234U 22150A   26018.88939962  .00000052  00000+0  45304-4 0  9995
#TLE: 2 54234  98.7504 319.7421 0000606 261.7569  98.3539 14.19535520165361

#Time	Az	El	Level	Level2	SNR	BER	BlckErr	Temp	State	Recorded	gain1	gain2
2026-01-19 12:59:37.61	18.83	0.17	-50.6	-62.0	3.3	1.54e+00	0	40	0	0	60	44314
2026-01-19 12:59:41.65	19.06	0.39	-50.7	-63.6	3.5	1.52e+00	0	40	104	0	60	52891
2026-01-19 12:59:45.68	19.29	0.61	-50.7	-63.5	3.5	1.52e+00	0	40	104	0	60	52617
2026-01-19 12:59:49.73	19.52	0.83	-50.5	-63.4	3.5	1.52e+00	0	40	104	0	60	51863
2026-01-19 12:59:53.77	19.76	1.06	-49.7	-63.0	3.5	1.52e+00	0	40	104	0	60	49531
2026-01-19 12:59:57.81	20.00	1.28	-49.5	-62.4	3.5	1.52e+00	0	40	104	0	60	46012
2026-01-19 13:00:01.84	20.24	1.50	-49.0	-61.8	3.5	1.52e+00	0	40	104	0	60	43398
2026-01-19 13:00:05.88	20.49	1.73	-49.0	-61.8	3.5	1.52e+00	0	40	104	0	60	43190
2026-01-19 13:00:09.92	20.74	1.96	-49.0	-61.6	3.5	1.51e+00	0	40	104	0	60	42214
2026-01-19 13:00:13.96	20.99	2.19	-48.7	-59.1	3.9	1.51e+00	0	40	104	0	60	31597
2026-01-19 13:00:18.00	21.25	2.42	-48.7	-59.0	3.6	1.49e+00	0	40	104	0	60	31437
2026-01-19 13:00:22.04	21.51	2.65	-44.5	-46.9	14.5	1.37e-05	122	41	0	7340032	60	7731
2026-01-19 13:00:26.08	21.77	2.88	-40.9	-42.3	18.8	0.00e+00	122	40	0	19922944	54	6440
2026-01-19 13:00:30.12	22.04	3.12	-43.7	-45.7	15.3	0.00e+00	123	40	0	32505856	58	7604
2026-01-19 13:00:34.16	22.32	3.35	-48.9	-61.7	3.5	1.22e+00	0	40	104	44040192	60	42782
2026-01-19 13:00:38.20	22.59	3.59	-44.2	-46.4	15.0	0.00e+00	123	40	0	48234496	60	7328
2026-01-19 13:00:42.24	22.87	3.83	-44.5	-46.8	15.3	0.00e+00	122	41	0	60817408	60	7693
2026-01-19 13:00:46.28	23.16	4.07	-44.2	-46.3	15.4	0.00e+00	123	41	0	73400320	60	7217
2026-01-19 13:00:50.32	23.45	4.31	-43.2	-45.1	16.7	0.00e+00	120	41	0	85983232	58	7056
2026-01-19 13:00:54.36	23.74	4.56	-42.2	-43.8	18.0	0.00e+00	122	41	0	98566144	58	6090
2026-01-19 13:00:58.40	24.04	4.80	-40.7	-42.0	19.2	0.00e+00	120	41	0	111149056	54	6261
2026-01-19 13:01:02.45	24.35	5.05	-40.6	-41.9	19.6	0.00e+00	122	41	0	123731968	54	6172
2026-01-19 13:01:06.49	24.66	5.30	-40.1	-41.3	20.0	0.00e+00	122	41	0	136314880	54	5791
2026-01-19 13:01:10.53	24.97	5.55	-40.1	-41.4	20.0	0.00e+00	123	41	0	148897792	54	5794
2026-01-19 13:01:14.57	25.29	5.81	-40.1	-41.4	20.0	0.00e+00	122	41	0	161480704	54	5809
2026-01-19 13:01:18.61	25.61	6.06	-40.0	-41.2	20.3	0.00e+00	120	41	0	174063616	54	5675
2026-01-19 13:01:22.65	25.94	6.32	-39.9	-41.1	20.4	0.00e+00	123	41	0	186646528	52	6314
2026-01-19 13:01:26.70	26.28	6.58	-39.5	-40.7	20.8	0.00e+00	122	41	0	199229440	52	6004
2026-01-19 13:01:30.74	26.62	6.84	-39.1	-40.3	21.3	0.00e+00	122	41	0	212860928	52	5729
2026-01-19 13:01:34.78	26.97	7.10	-39.1	-40.2	21.3	0.00e+00	123	41	0	225443840	52	5705
2026-01-19 13:01:38.82	27.32	7.36	-39.3	-40.4	21.0	0.00e+00	122	41	0	238026752	52	5857
2026-01-19 13:01:42.86	27.68	7.63	-39.3	-40.3	21.1	0.00e+00	120	41	0	250609664	52	5790
2026-01-19 13:01:46.90	28.04	7.89	-38.8	-39.8	21.6	0.00e+00	120	41	0	263192576	50	6119
2026-01-19 13:01:50.94	28.41	8.16	-38.6	-39.7	21.7	0.00e+00	122	41	0	275775488	50	6019
2026-01-19 13:01:54.98	28.79	8.43	-38.4	-39.4	22.0	0.00e+00	123	41	0	288358400	50	5818
2026-01-19 13:01:59.02	29.18	8.71	-38.4	-39.5	22.1	0.00e+00	121	41	0	300941312	50	5875
2026-01-19 13:02:03.06	29.57	8.98	-38.4	-39.5	22.1	0.00e+00	123	41	0	313524224	50	5887
2026-01-19 13:02:07.10	29.97	9.26	-38.5	-39.5	22.0	0.00e+00	123	41	0	326107136	50	5888
2026-01-19 13:02:11.14	30.37	9.54	-38.1	-39.1	22.4	0.00e+00	122	41	0	338690048	50	5620
2026-01-19 13:02:15.19	30.79	9.82	-37.9	-38.9	22.6	0.00e+00	123	41	0	351272960	50	5497
2026-01-19 13:02:19.23	31.21	10.10	-37.8	-38.8	22.7	0.00e+00	122	41	0	363855872	50	5461
2026-01-19 13:02:23.27	31.64	10.39	-37.8	-38.8	22.7	0.00e+00	123	41	0	376438784	50	5442
2026-01-19 13:02:27.31	32.07	10.67	-37.9	-38.9	22.6	0.00e+00	122	41	0	389021696	48	6143
2026-01-19 13:02:31.35	32.52	10.96	-37.6	-38.6	22.9	0.00e+00	127	41	0	401604608	48	5974
2026-01-19 13:02:35.39	32.97	11.25	-37.5	-38.5	23.0	0.00e+00	123	41	0	414187520	48	5889
2026-01-19 13:02:39.43	33.44	11.54	-37.4	-38.4	23.1	0.00e+00	122	41	0	426770432	48	5842
2026-01-19 13:02:43.46	33.91	11.84	-37.5	-38.5	23.1	0.00e+00	121	41	0	439353344	48	5866
2026-01-19 13:02:47.50	34.39	12.13	-37.3	-38.3	23.2	0.00e+00	123	41	0	451936256	48	5735
2026-01-19 13:02:51.54	34.88	12.43	-37.3	-38.2	23.4	0.00e+00	121	41	0	464519168	48	5703
2026-01-19 13:02:55.58	35.38	12.73	-37.3	-38.3	23.3	0.00e+00	122	41	0	477102080	48	5759
2026-01-19 13:02:59.62	35.89	13.03	-37.1	-38.0	23.4	0.00e+00	122	41	0	489684992	48	5579
2026-01-19 13:03:03.66	36.41	13.34	-37.3	-38.2	23.3	0.00e+00	123	41	0	502267904	48	5710
2026-01-19 13:03:07.71	36.94	13.64	-37.2	-38.2	23.4	0.00e+00	123	41	0	514850816	48	5684
2026-01-19 13:03:11.75	37.48	13.95	-37.4	-38.4	23.3	0.00e+00	123	41	0	528482304	48	5804
2026-01-19 13:03:15.79	38.03	14.26	-37.3	-38.3	23.3	0.00e+00	123	41	0	541065216	48	5742
2026-01-19 13:03:19.83	38.59	14.57	-37.3	-38.2	23.3	0.00e+00	122	41	0	553648128	48	5716
2026-01-19 13:03:23.87	39.17	14.88	-37.6	-38.5	23.1	0.00e+00	123	41	0	566231040	48	5912
2026-01-19 13:03:27.91	39.75	15.19	-37.5	-38.5	23.2	0.00e+00	123	41	0	578813952	48	5875
2026-01-19 13:03:31.95	40.35	15.50	-37.7	-38.6	23.1	0.00e+00	123	41	0	591396864	48	5991
2026-01-19 13:03:35.98	40.96	15.82	-37.7	-38.7	23.1	0.00e+00	123	41	0	603979776	48	6038
2026-01-19 13:03:40.02	41.58	16.13	-37.7	-38.7	23.1	0.00e+00	123	41	0	616562688	48	6002
2026-01-19 13:03:44.06	42.22	16.45	-37.7	-38.6	23.1	0.00e+00	123	41	0	629145600	48	5993
2026-01-19 13:03:48.10	42.86	16.77	-37.8	-38.8	23.0	0.00e+00	120	41	0	641728512	48	6072
2026-01-19 13:03:52.14	43.53	17.08	-37.9	-38.9	23.0	0.00e+00	120	41	0	654311424	48	6141
2026-01-19 13:03:56.19	44.20	17.40	-37.9	-38.9	22.8	0.00e+00	122	41	0	666894336	48	6166
2026-01-19 13:04:00.22	44.89	17.72	-38.0	-39.0	22.7	0.00e+00	120	41	0	679477248	48	6234
2026-01-19 13:04:04.26	45.60	18.04	-37.9	-38.9	22.8	0.00e+00	122	41	0	692060160	48	6193
2026-01-19 13:04:08.30	46.31	18.36	-37.7	-38.6	23.2	0.00e+00	123	41	0	704643072	48	5980
2026-01-19 13:04:12.34	47.05	18.68	-37.7	-38.7	23.0	0.00e+00	122	41	0	717225984	48	6037
2026-01-19 13:04:16.38	47.80	19.00	-37.6	-38.6	23.2	0.00e+00	123	41	0	729808896	48	5965
2026-01-19 13:04:20.42	48.56	19.31	-37.6	-38.6	23.1	0.00e+00	120	41	0	742391808	48	5956
2026-01-19 13:04:24.46	49.34	19.63	-37.4	-38.3	23.3	0.00e+00	123	41	0	754974720	48	5773
2026-01-19 13:04:28.50	50.13	19.95	-37.0	-37.9	23.7	0.00e+00	123	41	0	767557632	48	5528
2026-01-19 13:04:32.54	50.95	20.26	-36.7	-37.6	24.1	0.00e+00	123	41	0	780140544	46	5950
2026-01-19 13:04:36.59	51.78	20.57	-36.8	-37.8	23.8	0.00e+00	122	41	0	792723456	46	6083
2026-01-19 13:04:40.63	52.62	20.88	-36.7	-37.6	24.0	0.00e+00	123	41	0	805306368	46	5978
2026-01-19 13:04:44.67	53.48	21.19	-37.1	-38.1	23.7	0.00e+00	123	41	0	818937856	46	6278
2026-01-19 13:04:48.71	54.36	21.49	-36.8	-37.7	23.8	0.00e+00	123	41	0	830472192	46	6040
2026-01-19 13:04:52.75	55.25	21.80	-36.6	-37.6	23.9	0.00e+00	122	41	0	844103680	46	5944
2026-01-19 13:04:56.79	56.17	22.09	-36.3	-37.2	24.3	0.00e+00	120	41	0	856686592	46	5717
2026-01-19 13:05:00.83	57.10	22.39	-36.5	-37.4	24.0	0.00e+00	120	41	0	869269504	46	5836
2026-01-19 13:05:04.88	58.04	22.68	-36.2	-37.1	24.4	0.00e+00	123	41	0	881852416	46	5655
2026-01-19 13:05:08.92	59.01	22.96	-36.2	-37.1	24.3	0.00e+00	120	41	0	894435328	46	5635
2026-01-19 13:05:12.96	59.99	23.24	-36.4	-37.3	24.2	0.00e+00	122	41	0	907018240	46	5749
2026-01-19 13:05:17.00	60.99	23.52	-36.4	-37.4	24.2	0.00e+00	122	41	0	919601152	46	5796
2026-01-19 13:05:21.04	62.00	23.78	-36.4	-37.3	24.2	0.00e+00	123	41	0	932184064	46	5780
2026-01-19 13:05:25.08	63.03	24.05	-36.8	-37.7	24.0	0.00e+00	122	41	0	944766976	46	6021
2026-01-19 13:05:29.12	64.08	24.30	-36.8	-37.8	23.9	0.00e+00	122	41	0	957349888	46	6080
2026-01-19 13:05:33.16	65.15	24.55	-37.0	-37.9	23.7	0.00e+00	117	41	0	969932800	46	6185
2026-01-19 13:05:37.21	66.23	24.79	-36.9	-37.8	23.9	0.00e+00	123	41	0	982515712	46	6075
2026-01-19 13:05:41.25	67.33	25.02	-37.0	-37.9	23.8	0.00e+00	122	41	0	995098624	46	6197
2026-01-19 13:05:45.29	68.45	25.24	-37.0	-37.9	23.8	0.00e+00	123	41	0	1007681536	46	6192
2026-01-19 13:05:49.33	69.57	25.45	-36.7	-37.7	23.9	0.00e+00	122	41	0	1020264448	46	6003
2026-01-19 13:05:53.37	70.72	25.65	-36.7	-37.6	24.0	0.00e+00	122	41	0	1032847360	46	5990
2026-01-19 13:05:57.41	71.88	25.84	-36.5	-37.4	24.1	0.00e+00	122	41	0	1045430272	46	5812
2026-01-19 13:06:01.45	73.05	26.02	-36.7	-37.6	24.0	0.00e+00	122	41	0	1058013184	46	5966
2026-01-19 13:06:05.49	74.23	26.19	-36.7	-37.6	24.0	0.00e+00	123	41	0	1070596096	46	5966
2026-01-19 13:06:09.53	75.43	26.34	-36.4	-37.3	24.2	0.00e+00	120	41	0	1083179008	46	5786
2026-01-19 13:06:13.57	76.63	26.49	-36.4	-37.4	24.2	0.00e+00	121	41	0	1095761920	46	5798
2026-01-19 13:06:17.61	77.85	26.62	-36.3	-37.2	24.3	0.00e+00	120	41	0	1108344832	46	5685
2026-01-19 13:06:21.64	79.07	26.74	-36.4	-37.3	24.3	0.00e+00	123	41	0	1121976320	46	5737
2026-01-19 13:06:25.68	80.31	26.84	-36.5	-37.3	24.2	0.00e+00	120	41	0	1134559232	46	5788
2026-01-19 13:06:29.72	81.55	26.93	-36.5	-37.4	24.2	0.00e+00	122	41	0	1147142144	46	5846
2026-01-19 13:06:33.76	82.80	27.01	-36.7	-37.6	24.2	0.00e+00	123	41	0	1159725056	46	5955
2026-01-19 13:06:37.80	84.06	27.07	-36.4	-37.3	24.2	0.00e+00	123	41	0	1172307968	46	5727
2026-01-19 13:06:41.84	85.32	27.12	-36.6	-37.6	24.2	0.00e+00	122	41	0	1184890880	46	5927
2026-01-19 13:06:45.89	86.58	27.15	-36.3	-37.2	24.3	0.00e+00	123	41	0	1197473792	46	5719
2026-01-19 13:06:49.93	87.85	27.17	-36.6	-37.5	24.0	0.00e+00	122	41	0	1210056704	46	5925
2026-01-19 13:06:53.97	89.11	27.18	-36.2	-37.1	24.4	0.00e+00	120	41	0	1222639616	46	5609
2026-01-19 13:06:58.01	90.38	27.17	-36.3	-37.2	24.4	0.00e+00	120	41	0	1235222528	46	5699
2026-01-19 13:07:02.05	91.64	27.14	-36.3	-37.2	24.3	0.00e+00	122	41	0	1247805440	46	5676
2026-01-19 13:07:06.09	92.91	27.10	-36.2	-37.2	24.4	0.00e+00	123	41	0	1260388352	46	5666
2026-01-19 13:07:10.13	94.17	27.05	-36.5	-37.4	24.2	0.00e+00	122	41	0	1272971264	46	5823
2026-01-19 13:07:14.17	95.42	26.98	-36.4	-37.3	24.3	0.00e+00	123	41	0	1285554176	46	5757
2026-01-19 13:07:18.22	96.67	26.90	-36.2	-37.1	24.4	0.00e+00	122	41	0	1298137088	46	5636
2026-01-19 13:07:22.26	97.91	26.80	-36.3	-37.2	24.3	0.00e+00	121	41	0	1310720000	46	5680
2026-01-19 13:07:26.30	99.15	26.69	-36.2	-37.1	24.4	0.00e+00	122	41	0	1323302912	46	5627
2026-01-19 13:07:30.35	100.37	26.56	-36.3	-37.2	24.3	0.00e+00	123	41	0	1335885824	46	5713
2026-01-19 13:07:34.38	101.59	26.43	-36.5	-37.4	24.2	0.00e+00	122	41	0	1348468736	46	5815
2026-01-19 13:07:38.43	102.79	26.28	-36.7	-37.6	24.0	0.00e+00	122	41	0	1361051648	46	5988
2026-01-19 13:07:42.46	103.99	26.12	-36.8	-37.8	23.8	0.00e+00	122	41	0	1373634560	46	6075
2026-01-19 13:07:46.50	105.17	25.94	-36.8	-37.8	23.7	0.00e+00	123	41	0	1386217472	46	6089
2026-01-19 13:07:50.53	106.33	25.76	-36.7	-37.7	23.9	0.00e+00	122	41	0	1398800384	46	6007
2026-01-19 13:07:54.57	107.49	25.56	-36.2	-37.1	24.3	0.00e+00	123	41	0	1412431872	46	5659
2026-01-19 13:07:58.61	108.63	25.36	-36.7	-37.6	23.9	0.00e+00	122	41	0	1423966208	46	5971
2026-01-19 13:08:02.66	109.76	25.14	-36.6	-37.6	24.1	0.00e+00	123	41	0	1437597696	46	5945
2026-01-19 13:08:06.69	110.86	24.92	-36.3	-37.3	24.2	0.00e+00	120	41	0	1450180608	46	5734
2026-01-19 13:08:10.73	111.96	24.68	-36.0	-36.9	24.3	0.00e+00	122	41	0	1462763520	46	5530
2026-01-19 13:08:14.78	113.04	24.44	-36.0	-36.9	24.5	0.00e+00	123	41	0	1475346432	46	5476
2026-01-19 13:08:18.82	114.10	24.19	-36.4	-37.3	24.1	0.00e+00	123	41	0	1487929344	46	5783
2026-01-19 13:08:22.86	115.15	23.93	-36.7	-37.6	24.0	0.00e+00	122	41	0	1500512256	46	5951
2026-01-19 13:08:26.89	116.18	23.66	-36.3	-37.2	24.2	0.00e+00	123	41	0	1513095168	46	5700
2026-01-19 13:08:30.93	117.19	23.39	-36.8	-37.7	23.8	0.00e+00	122	41	0	1525678080	46	6036
2026-01-19 13:08:34.98	118.19	23.11	-36.7	-37.7	24.0	0.00e+00	123	41	0	1538260992	46	6009
2026-01-19 13:08:39.01	119.16	22.83	-36.5	-37.4	24.0	0.00e+00	121	41	0	1550843904	46	5857
2026-01-19 13:08:43.05	120.12	22.54	-36.6	-37.5	24.0	0.00e+00	122	41	0	1563426816	46	5902
2026-01-19 13:08:47.09	121.06	22.25	-36.4	-37.3	24.2	0.00e+00	122	41	0	1576009728	46	5764
2026-01-19 13:08:51.13	121.99	21.95	-36.4	-37.3	24.2	0.00e+00	122	41	0	1588592640	46	5781
2026-01-19 13:08:55.17	122.90	21.65	-36.7	-37.6	23.9	0.00e+00	120	41	0	1601175552	46	5970
2026-01-19 13:08:59.21	123.79	21.34	-36.6	-37.6	24.0	0.00e+00	123	41	0	1613758464	46	5953
2026-01-19 13:09:03.26	124.67	21.03	-36.1	-37.0	24.4	0.00e+00	123	41	0	1626341376	46	5533
2026-01-19 13:09:07.29	125.52	20.72	-36.3	-37.2	24.2	0.00e+00	120	41	0	1638924288	46	5677
2026-01-19 13:09:11.33	126.36	20.41	-36.2	-37.2	24.3	0.00e+00	120	41	0	1651507200	46	5669
2026-01-19 13:09:15.37	127.19	20.10	-36.4	-37.3	24.0	0.00e+00	123	41	0	1664090112	46	5755
2026-01-19 13:09:19.41	127.99	19.78	-36.5	-37.4	23.9	0.00e+00	122	41	0	1676673024	46	5836
2026-01-19 13:09:23.45	128.78	19.46	-36.7	-37.6	23.8	0.00e+00	127	41	0	1689255936	46	5986
2026-01-19 13:09:27.49	129.56	19.14	-36.8	-37.8	23.7	0.00e+00	122	41	0	1701838848	46	6065
2026-01-19 13:09:31.53	130.32	18.82	-37.0	-37.9	23.6	0.00e+00	127	41	0	1714421760	46	6185
2026-01-19 13:09:35.57	131.07	18.50	-37.1	-38.0	23.5	0.00e+00	122	41	0	1727004672	46	6267
2026-01-19 13:09:39.61	131.80	18.18	-37.0	-38.0	23.5	0.00e+00	122	41	0	1739587584	46	6231
2026-01-19 13:09:43.65	132.51	17.86	-37.0	-38.0	23.5	0.00e+00	123	41	0	1753219072	46	6229
2026-01-19 13:09:47.69	133.21	17.54	-37.3	-38.3	23.3	0.00e+00	123	41	0	1765801984	46	6456
2026-01-19 13:09:51.73	133.90	17.21	-37.1	-38.1	23.4	0.00e+00	122	41	0	1778384896	46	6291
2026-01-19 13:09:55.77	134.57	16.89	-37.4	-38.3	23.3	0.00e+00	123	41	0	1790967808	46	6481
2026-01-19 13:09:59.81	135.23	16.57	-37.4	-38.4	23.1	0.00e+00	123	41	0	1803550720	46	6524
2026-01-19 13:10:03.84	135.87	16.25	-37.3	-38.3	23.2	0.00e+00	122	41	0	1816133632	46	6436
2026-01-19 13:10:07.88	136.50	15.94	-37.0	-38.0	23.5	0.00e+00	125	41	0	1828716544	46	6212
2026-01-19 13:10:11.92	137.12	15.62	-37.0	-37.9	23.5	0.00e+00	120	41	0	1841299456	46	6193
2026-01-19 13:10:15.96	137.73	15.30	-37.3	-38.2	23.3	0.00e+00	123	41	0	1853882368	46	6413
2026-01-19 13:10:20.01	138.32	14.99	-37.7	-38.6	22.9	0.00e+00	123	41	0	1866465280	48	5981
2026-01-19 13:10:24.04	138.90	14.67	-37.6	-38.6	22.9	0.00e+00	118	41	0	1879048192	48	5947
2026-01-19 13:10:28.08	139.47	14.36	-37.7	-38.7	22.8	0.00e+00	118	41	0	1891631104	48	6030
2026-01-19 13:10:32.12	140.03	14.05	-37.9	-38.9	22.5	0.00e+00	122	41	0	1904214016	48	6196
2026-01-19 13:10:36.16	140.58	13.74	-38.5	-39.5	21.9	0.00e+00	123	41	0	1916796928	48	6615
2026-01-19 13:10:40.20	141.12	13.43	-39.0	-40.1	21.3	0.00e+00	122	41	0	1929379840	50	6287
2026-01-19 13:10:44.24	141.64	13.12	-39.3	-40.4	20.8	0.00e+00	123	41	0	1941962752	50	6564
2026-01-19 13:10:48.28	142.16	12.82	-39.2	-40.4	21.0	0.00e+00	123	41	0	1954545664	50	6501
2026-01-19 13:10:52.32	142.66	12.51	-38.9	-40.0	21.4	0.00e+00	123	41	0	1967128576	50	6210
2026-01-19 13:10:56.36	143.16	12.21	-38.8	-39.9	21.5	0.00e+00	122	41	0	1979711488	50	6144
2026-01-19 13:11:00.40	143.65	11.91	-38.8	-39.9	21.5	0.00e+00	123	41	0	1992294400	50	6141
2026-01-19 13:11:04.44	144.12	11.62	-38.8	-39.9	21.3	0.00e+00	120	41	0	2004877312	50	6191
2026-01-19 13:11:08.48	144.59	11.32	-38.8	-39.9	21.5	0.00e+00	123	41	0	2017460224	50	6155
2026-01-19 13:11:12.52	145.05	11.03	-38.5	-39.6	21.7	0.00e+00	123	41	0	2030043136	50	5952
2026-01-19 13:11:16.56	145.50	10.73	-38.5	-39.6	21.9	0.00e+00	123	41	0	2042626048	50	5929
2026-01-19 13:11:20.59	145.94	10.45	-38.6	-39.7	21.8	0.00e+00	123	41	0	2055208960	50	6023
2026-01-19 13:11:24.63	146.37	10.16	-38.4	-39.4	22.0	0.00e+00	122	41	0	2068840448	50	5846
2026-01-19 13:11:28.67	146.80	9.87	-38.6	-39.6	21.8	0.00e+00	122	41	0	2081423360	50	5992
2026-01-19 13:11:32.71	147.22	9.59	-38.5	-39.5	21.9	0.00e+00	122	41	0	2092957696	50	5923
2026-01-19 13:11:36.75	147.62	9.30	-38.7	-39.7	21.7	0.00e+00	120	41	0	2106589184	50	6058
2026-01-19 13:11:40.80	148.03	9.02	-38.6	-39.7	21.7	0.00e+00	123	41	0	2119172096	50	6028
2026-01-19 13:11:44.84	148.42	8.75	-38.8	-39.9	21.5	0.00e+00	123	41	0	2131755008	50	6192
2026-01-19 13:11:48.89	148.81	8.47	-38.8	-39.8	21.6	0.00e+00	122	41	0	2144337920	50	6132
2026-01-19 13:11:52.93	149.19	8.19	-39.0	-40.1	21.3	0.00e+00	121	41	0	2156920832	50	6310
2026-01-19 13:11:56.97	149.57	7.92	-39.1	-40.2	21.2	0.00e+00	123	41	0	2169503744	50	6378
2026-01-19 13:12:01.01	149.93	7.65	-39.3	-40.5	21.0	0.00e+00	123	41	0	2182086656	50	6574
2026-01-19 13:12:05.05	150.29	7.38	-39.1	-40.2	21.2	0.00e+00	120	41	0	2194669568	50	6393
2026-01-19 13:12:09.09	150.65	7.12	-39.0	-40.1	21.2	0.00e+00	122	41	0	2207252480	50	6327
2026-01-19 13:12:13.13	151.00	6.85	-39.0	-40.1	21.2	0.00e+00	123	41	0	2219835392	50	6316
2026-01-19 13:12:17.17	151.34	6.59	-39.2	-40.4	20.9	0.00e+00	120	41	0	2232418304	50	6502
2026-01-19 13:12:21.22	151.68	6.33	-39.3	-40.4	20.8	0.00e+00	122	41	0	2245001216	50	6557
2026-01-19 13:12:25.25	152.01	6.07	-39.9	-41.1	20.1	0.00e+00	122	41	0	2257584128	52	6330
2026-01-19 13:12:29.29	152.33	5.81	-40.4	-41.8	19.5	0.00e+00	122	41	0	2270167040	52	6805
2026-01-19 13:12:33.33	152.65	5.55	-40.8	-42.1	19.0	0.00e+00	122	41	0	2282749952	54	6303
2026-01-19 13:12:37.37	152.97	5.30	-41.6	-43.1	17.9	0.00e+00	127	41	0	2295332864	54	7055
2026-01-19 13:12:41.41	153.28	5.05	-42.4	-44.2	16.5	0.00e+00	123	41	0	2307915776	56	7153
2026-01-19 13:12:45.45	153.58	4.80	-42.9	-45.0	15.5	0.00e+00	123	41	0	2320498688	58	6970
2026-01-19 13:12:49.49	153.88	4.55	-43.5	-45.8	14.6	0.00e+00	120	41	0	2333081600	58	7643
2026-01-19 13:12:53.53	154.18	4.30	-43.9	-46.5	13.6	9.90e-06	122	41	0	2345664512	60	7439
2026-01-19 13:12:57.57	154.47	4.06	-44.4	-47.3	12.6	6.94e-05	123	42	0	2358247424	60	8163
2026-01-19 13:13:01.61	154.75	3.81	-44.5	-47.3	12.5	1.30e-04	123	41	0	2370830336	60	8169
2026-01-19 13:13:05.65	155.03	3.57	-44.6	-47.5	12.4	1.43e-04	123	41	0	2384461824	60	8351
2026-01-19 13:13:09.69	155.31	3.33	-44.1	-46.7	13.5	1.22e-05	123	41	0	2397044736	60	7558
2026-01-19 13:13:13.73	155.58	3.09	-44.0	-46.5	13.9	7.60e-06	122	42	0	2409627648	60	7416
2026-01-19 13:13:17.77	155.85	2.85	-49.7	-62.5	3.5	1.52e+00	0	42	104	2414870528	60	46809
2026-01-19 13:13:21.81	156.12	2.62	-50.1	-63.2	3.5	1.52e+00	0	42	104	2414870528	60	50457
2026-01-19 13:13:25.85	156.38	2.38	-50.6	-63.5	3.5	1.52e+00	0	42	104	2414870528	60	52558
2026-01-19 13:13:29.88	156.63	2.15	-50.6	-63.5	3.5	1.52e+00	0	42	104	2414870528	60	52730
2026-01-19 13:13:33.92	156.89	1.92	-50.7	-63.5	3.5	1.52e+00	0	42	104	2414870528	60	52357
2026-01-19 13:13:37.96	157.14	1.69	-50.6	-63.5	3.5	1.52e+00	0	41	104	2414870528	60	52602
2026-01-19 13:13:42.00	157.38	1.46	-50.6	-63.5	3.5	1.51e+00	0	41	104	2414870528	60	52493
2026-01-19 13:13:46.04	157.62	1.23	-50.6	-63.5	3.5	1.51e+00	0	41	104	2414870528	60	52462
2026-01-19 13:13:50.09	157.86	1.01	-50.7	-63.5	3.5	1.52e+00	0	42	104	2414870528	60	52521
2026-01-19 13:13:54.12	158.10	0.78	-50.6	-63.5	3.5	1.52e+00	0	42	104	2414870528	60	52486
2026-01-19 13:13:58.16	158.33	0.56	-50.6	-63.5	3.5	1.51e+00	0	42	104	2414870528	60	52639
2026-01-19 13:14:02.20	158.56	0.34	-50.6	-63.5	3.5	1.52e+00	0	42	104	2414870528	60	52529
2026-01-19 13:14:06.24	158.78	0.12	-50.7	-63.5	3.5	1.52e+00	0	42	104	2414870528	60	52720
2026-01-19 13:14:10.28	159.01	-0.10	-50.6	-63.5	3.5	1.52e+00	0	42	104	2414870528	60	52402

#Closed at: 2026-01-19 13:14:10
#Recorded file [2414 MB]: D:/lorett/data/35029_260120_005937.dat