passes_logs/2026/01/19/R4.6S_Anadyr/R4.6S_Anadyr__20260119_184952_NOAA_20_JPSS-1_rec.log

#Pass ID: 20260119_184952_NOAA 20 (JPSS-1)
#Satellite: NOAA 20 (JPSS-1)
#Configuration: NOAA 20
#almurnet v.1.7.20251203
#Start time: 2026-01-19 18:49:53

#Version: 2.2.20231116
#Station: R4.6S_Anadyr
#Location: 177.4865 lon 64.73178 lat
#TLE: 1 43013U 17073A   26019.27717929  .00000087  00000+0  62288-4 0  9995
#TLE: 2 43013  98.7641 320.1715 0001339  33.1986 326.9274 14.19537047423343

#Time	Az	El	Level	Level2	SNR	BER	BlckErr	Temp	State	Recorded	gain1	gain2
2026-01-19 18:49:53.23	45.13	0.03	-51.1	-66.0	3.5	1.51e+00	0	38	0	0	60	72315
2026-01-19 18:49:56.26	44.90	0.18	-51.8	-67.0	3.6	1.51e+00	0	39	104	0	60	80858
2026-01-19 18:49:59.29	44.68	0.33	-50.0	-65.2	3.6	1.51e+00	0	39	104	0	60	65979
2026-01-19 18:50:02.32	44.45	0.48	-49.8	-65.0	3.6	1.51e+00	0	39	104	0	60	64527
2026-01-19 18:50:05.35	44.22	0.63	-49.6	-64.8	3.6	1.51e+00	0	39	104	0	60	62773
2026-01-19 18:50:08.38	43.99	0.78	-49.5	-64.7	3.6	1.51e+00	0	39	104	0	60	62008
2026-01-19 18:50:11.41	43.75	0.93	-49.2	-64.5	3.6	1.51e+00	0	39	104	0	60	61013
2026-01-19 18:50:14.45	43.51	1.08	-48.9	-64.2	3.6	1.51e+00	0	39	104	0	60	58908
2026-01-19 18:50:17.48	43.27	1.23	-48.2	-63.4	3.6	1.51e+00	0	39	104	0	60	53436
2026-01-19 18:50:20.51	43.03	1.38	-47.4	-62.6	3.6	1.51e+00	0	39	104	0	60	48831
2026-01-19 18:50:23.54	42.78	1.53	-47.4	-62.6	3.6	1.51e+00	0	39	104	0	60	48649
2026-01-19 18:50:26.57	42.53	1.68	-47.4	-62.6	3.6	1.51e+00	0	39	104	0	60	48715
2026-01-19 18:50:29.60	42.28	1.83	-47.4	-62.6	3.6	1.51e+00	0	39	104	0	60	48615
2026-01-19 18:50:32.62	42.03	1.99	-47.4	-62.4	3.6	1.51e+00	0	39	104	0	60	47626
2026-01-19 18:50:35.65	41.78	2.14	-47.4	-62.4	3.6	1.51e+00	0	39	104	0	60	47440
2026-01-19 18:50:38.68	41.52	2.29	-47.4	-62.6	3.6	1.51e+00	0	39	104	0	60	48821
2026-01-19 18:50:41.71	41.25	2.44	-47.4	-62.5	3.6	1.51e+00	0	39	104	0	60	48390
2026-01-19 18:50:44.74	40.99	2.60	-47.4	-62.1	3.6	1.51e+00	0	39	104	0	60	45874
2026-01-19 18:50:47.77	40.72	2.75	-47.4	-62.3	3.6	1.51e+00	0	39	104	0	60	47014
2026-01-19 18:50:50.80	40.45	2.90	-47.3	-59.7	3.7	1.51e+00	0	40	104	0	60	34925
2026-01-19 18:50:53.83	40.18	3.06	-47.0	-55.5	5.0	2.31e-01	0	39	0	2097152	60	21471
2026-01-19 18:50:56.86	39.90	3.21	-47.3	-57.6	3.8	1.46e+00	0	39	104	6291456	60	27417
2026-01-19 18:50:59.89	39.62	3.37	-44.5	-47.6	14.4	1.67e-05	0	40	0	10485760	60	8645
2026-01-19 18:51:02.92	39.34	3.52	-43.9	-46.5	15.3	1.56e-04	0	40	0	15728640	60	7634
2026-01-19 18:51:05.95	39.06	3.68	-44.8	-48.1	13.4	9.10e-06	0	40	0	20971520	60	9178
2026-01-19 18:51:08.98	38.77	3.83	-45.0	-48.4	13.3	8.30e-06	0	40	0	27262976	60	9554
2026-01-19 18:51:12.00	38.48	3.99	-43.8	-46.3	15.9	0.00e+00	0	40	0	32505856	60	7446
2026-01-19 18:51:15.03	38.18	4.14	-44.0	-46.6	15.6	0.00e+00	0	40	0	38797312	60	7703
2026-01-19 18:51:18.06	37.88	4.30	-44.0	-46.6	15.5	0.00e+00	0	40	0	44040192	60	7693
2026-01-19 18:51:21.08	37.58	4.45	-42.8	-44.8	17.4	0.00e+00	0	39	0	49283072	60	6287
2026-01-19 18:51:24.11	37.28	4.61	-43.6	-45.9	16.1	0.00e+00	0	40	0	55574528	58	8044
2026-01-19 18:51:27.14	36.97	4.77	-43.1	-45.2	17.0	0.00e+00	0	40	0	60817408	60	6590
2026-01-19 18:51:30.17	36.66	4.92	-43.3	-45.4	16.9	0.00e+00	0	40	0	67108864	60	6757
2026-01-19 18:51:33.20	36.34	5.08	-43.3	-45.5	16.3	0.00e+00	0	40	0	72351744	60	6803
2026-01-19 18:51:36.22	36.02	5.23	-42.9	-45.0	16.8	0.00e+00	0	40	0	78643200	58	7176
2026-01-19 18:51:39.25	35.70	5.39	-42.9	-44.9	17.4	0.00e+00	0	40	0	83886080	58	7129
2026-01-19 18:51:42.28	35.38	5.55	-42.9	-44.9	17.2	0.00e+00	0	40	0	89128960	58	7135
2026-01-19 18:51:45.31	35.05	5.70	-42.3	-44.0	18.0	0.00e+00	0	40	0	95420416	58	6456
2026-01-19 18:51:48.34	34.71	5.86	-42.8	-44.7	17.6	0.00e+00	0	40	0	100663296	58	6963
2026-01-19 18:51:51.36	34.38	6.02	-42.5	-44.3	17.9	0.00e+00	0	40	0	106954752	56	7507
2026-01-19 18:51:54.39	34.04	6.17	-43.4	-45.5	17.1	0.00e+00	0	40	0	112197632	58	7672
2026-01-19 18:51:57.42	33.69	6.33	-42.3	-44.1	18.3	0.00e+00	0	40	0	117440512	58	6484
2026-01-19 18:52:00.45	33.35	6.49	-41.8	-43.4	19.1	0.00e+00	0	40	0	123731968	56	6733
2026-01-19 18:52:03.48	32.99	6.64	-41.8	-43.3	19.2	0.00e+00	0	40	0	128974848	56	6663
2026-01-19 18:52:06.50	32.64	6.80	-41.9	-43.5	18.8	0.00e+00	0	40	0	135266304	58	6093
2026-01-19 18:52:09.54	32.28	6.95	-42.1	-43.7	18.8	0.00e+00	0	40	0	140509184	58	6244
2026-01-19 18:52:12.56	31.92	7.11	-42.1	-43.7	18.8	0.00e+00	0	40	0	146800640	58	6210
2026-01-19 18:52:15.59	31.55	7.27	-42.1	-43.7	19.0	0.00e+00	0	40	0	152043520	58	6183
2026-01-19 18:52:18.62	31.18	7.42	-42.1	-43.7	18.9	0.00e+00	0	40	0	157286400	58	6180
2026-01-19 18:52:21.65	30.80	7.58	-42.0	-43.6	19.2	0.00e+00	0	40	0	163577856	58	6112
2026-01-19 18:52:24.68	30.42	7.73	-42.0	-43.6	18.9	0.00e+00	0	40	0	168820736	56	6896
2026-01-19 18:52:27.71	30.04	7.89	-42.2	-43.8	19.1	0.00e+00	0	40	0	175112192	56	7021
2026-01-19 18:52:30.74	29.65	8.04	-41.8	-43.2	19.5	0.00e+00	0	40	0	180355072	56	6609
2026-01-19 18:52:33.76	29.26	8.20	-41.8	-43.2	19.5	0.00e+00	0	40	0	185597952	56	6607
2026-01-19 18:52:36.79	28.86	8.35	-41.5	-42.9	19.9	0.00e+00	0	40	0	191889408	56	6376
2026-01-19 18:52:39.82	28.46	8.51	-41.8	-43.2	19.5	0.00e+00	0	40	0	197132288	56	6587
2026-01-19 18:52:42.84	28.05	8.66	-41.8	-43.3	19.4	0.00e+00	0	40	0	203423744	56	6661
2026-01-19 18:52:45.87	27.64	8.81	-41.7	-43.2	19.6	0.00e+00	0	40	0	208666624	56	6572
2026-01-19 18:52:48.90	27.23	8.96	-41.7	-43.1	19.7	0.00e+00	0	40	0	214958080	56	6506
2026-01-19 18:52:51.93	26.81	9.11	-41.5	-42.9	19.9	0.00e+00	0	40	0	220200960	56	6337
2026-01-19 18:52:54.96	26.39	9.27	-41.7	-43.2	19.6	0.00e+00	0	40	0	225443840	56	6555
2026-01-19 18:52:57.99	25.96	9.42	-41.7	-43.2	19.5	0.00e+00	0	40	0	231735296	56	6565
2026-01-19 18:53:01.00	25.53	9.57	-41.7	-43.2	19.6	0.00e+00	0	40	0	236978176	56	6562
2026-01-19 18:53:04.02	25.10	9.71	-41.6	-43.1	19.8	0.00e+00	0	40	0	243269632	56	6490
2026-01-19 18:53:07.05	24.65	9.86	-41.8	-43.2	19.6	0.00e+00	0	40	0	248512512	56	6582
2026-01-19 18:53:10.08	24.21	10.01	-41.5	-42.8	20.1	0.00e+00	0	40	0	253755392	56	6300
2026-01-19 18:53:13.11	23.76	10.16	-41.4	-42.8	20.2	0.00e+00	0	40	0	260046848	56	6270
2026-01-19 18:53:16.14	23.30	10.30	-41.6	-43.0	19.9	0.00e+00	0	40	0	265289728	56	6394
2026-01-19 18:53:19.17	22.84	10.45	-40.9	-42.1	20.8	0.00e+00	0	40	0	271581184	56	5791
2026-01-19 18:53:22.19	22.38	10.59	-40.5	-41.7	21.1	0.00e+00	0	40	0	276824064	54	6226
2026-01-19 18:53:25.22	21.91	10.74	-40.8	-42.0	20.8	0.00e+00	0	40	0	282066944	54	6441
2026-01-19 18:53:28.25	21.44	10.88	-40.5	-41.6	21.3	0.00e+00	0	40	0	288358400	54	6172
2026-01-19 18:53:31.28	20.96	11.02	-40.3	-41.4	21.3	0.00e+00	0	40	0	293601280	54	6019
2026-01-19 18:53:34.31	20.47	11.16	-40.1	-41.3	21.4	0.00e+00	0	40	0	299892736	54	5911
2026-01-19 18:53:37.34	19.99	11.30	-40.1	-41.3	21.5	0.00e+00	0	40	0	305135616	54	5928
2026-01-19 18:53:40.36	19.50	11.43	-40.0	-41.1	21.7	0.00e+00	0	40	0	311427072	54	5780
2026-01-19 18:53:43.39	19.00	11.57	-40.5	-41.7	21.2	0.00e+00	0	40	0	316669952	52	6967
2026-01-19 18:53:46.42	18.50	11.70	-39.8	-40.8	22.0	0.00e+00	0	40	0	321912832	52	6312
2026-01-19 18:53:49.45	17.99	11.84	-40.0	-41.1	21.8	0.00e+00	0	40	0	328204288	52	6466
2026-01-19 18:53:52.47	17.48	11.97	-39.7	-40.7	21.9	0.00e+00	0	40	0	333447168	52	6218
2026-01-19 18:53:55.51	16.96	12.10	-39.3	-40.3	22.6	0.00e+00	0	40	0	339738624	52	5953
2026-01-19 18:53:58.54	16.44	12.23	-39.1	-40.1	22.7	0.00e+00	0	40	0	344981504	52	5789
2026-01-19 18:54:01.56	15.92	12.35	-39.4	-40.5	22.2	0.00e+00	0	40	0	350224384	52	6038
2026-01-19 18:54:04.59	15.39	12.48	-40.1	-41.2	21.8	0.00e+00	0	40	0	356515840	52	6594
2026-01-19 18:54:07.62	14.86	12.60	-40.0	-41.0	21.8	0.00e+00	0	40	0	361758720	52	6454
2026-01-19 18:54:10.65	14.32	12.72	-40.0	-41.1	21.6	0.00e+00	0	40	0	368050176	52	6508
2026-01-19 18:54:13.68	13.77	12.84	-40.0	-41.1	21.7	0.00e+00	0	40	0	373293056	52	6501
2026-01-19 18:54:16.71	13.23	12.96	-39.7	-40.8	22.1	0.00e+00	0	40	0	379584512	52	6292
2026-01-19 18:54:19.74	12.67	13.08	-39.9	-41.0	22.0	0.00e+00	0	40	0	384827392	52	6429
2026-01-19 18:54:22.77	12.12	13.19	-39.5	-40.6	22.3	0.00e+00	0	40	0	390070272	52	6110
2026-01-19 18:54:25.79	11.56	13.30	-39.4	-40.4	22.5	0.00e+00	0	40	0	396361728	52	6017
2026-01-19 18:54:28.82	10.99	13.41	-39.6	-40.6	22.4	0.00e+00	0	40	0	401604608	52	6148
2026-01-19 18:54:31.85	10.42	13.52	-39.5	-40.5	22.4	0.00e+00	0	40	0	407896064	52	6068
2026-01-19 18:54:34.88	9.85	13.62	-39.5	-40.5	22.6	0.00e+00	0	40	0	413138944	52	6050
2026-01-19 18:54:37.91	9.27	13.72	-39.7	-40.8	22.3	0.00e+00	0	40	0	418381824	52	6275
2026-01-19 18:54:40.93	8.69	13.82	-39.8	-40.8	22.2	0.00e+00	0	40	0	424673280	52	6310
2026-01-19 18:54:43.96	8.11	13.92	-39.5	-40.5	22.5	0.00e+00	0	40	0	429916160	52	6085
2026-01-19 18:54:46.99	7.52	14.01	-39.4	-40.4	22.5	0.00e+00	0	40	0	436207616	52	6022
2026-01-19 18:54:50.02	6.93	14.10	-39.2	-40.2	22.8	0.00e+00	0	40	0	441450496	52	5875
2026-01-19 18:54:53.05	6.33	14.19	-39.2	-40.2	22.7	0.00e+00	0	40	0	447741952	52	5861
2026-01-19 18:54:56.07	5.73	14.28	-39.2	-40.2	22.7	0.00e+00	0	40	0	452984832	52	5887
2026-01-19 18:54:59.10	5.13	14.36	-39.2	-40.2	22.8	0.00e+00	0	40	0	458227712	52	5869
2026-01-19 18:55:02.13	4.52	14.44	-39.1	-40.0	22.8	0.00e+00	0	40	0	464519168	52	5759
2026-01-19 18:55:05.16	3.91	14.52	-39.2	-40.1	22.8	0.00e+00	0	40	0	469762048	52	5821
2026-01-19 18:55:08.19	3.30	14.59	-39.3	-40.3	22.6	0.00e+00	0	40	0	476053504	52	5927
2026-01-19 18:55:11.22	2.68	14.66	-39.5	-40.5	22.4	0.00e+00	0	40	0	481296384	52	6090
2026-01-19 18:55:14.25	2.06	14.73	-39.3	-40.3	22.7	0.00e+00	0	40	0	486539264	52	5960
2026-01-19 18:55:17.28	1.44	14.79	-39.6	-40.6	22.4	0.00e+00	0	40	0	492830720	52	6167
2026-01-19 18:55:20.31	0.82	14.86	-39.8	-40.8	22.3	0.00e+00	0	40	0	498073600	52	6286
2026-01-19 18:55:23.34	0.19	14.91	-40.0	-41.1	22.0	0.00e+00	0	40	0	504365056	52	6531
2026-01-19 18:55:26.36	359.56	14.97	-39.8	-40.8	22.1	0.00e+00	0	40	0	509607936	52	6304
2026-01-19 18:55:29.39	358.93	15.02	-39.2	-40.2	22.7	0.00e+00	0	40	0	514850816	52	5858
2026-01-19 18:55:32.42	358.30	15.07	-39.4	-40.5	22.6	0.00e+00	0	40	0	521142272	52	6041
2026-01-19 18:55:35.44	357.66	15.11	-39.3	-40.3	22.6	0.00e+00	0	40	0	526385152	52	5936
2026-01-19 18:55:38.47	357.02	15.15	-39.2	-40.2	22.7	0.00e+00	0	40	0	532676608	52	5893
2026-01-19 18:55:41.50	356.38	15.19	-39.5	-40.5	22.4	0.00e+00	0	40	0	537919488	52	6087
2026-01-19 18:55:44.53	355.74	15.22	-39.7	-40.7	22.3	0.00e+00	0	40	0	544210944	52	6245
2026-01-19 18:55:47.56	355.10	15.25	-39.4	-40.4	22.5	0.00e+00	0	40	0	549453824	52	5995
2026-01-19 18:55:50.59	354.46	15.28	-39.5	-40.6	22.4	0.00e+00	0	40	0	554696704	52	6119
2026-01-19 18:55:53.62	353.81	15.30	-39.5	-40.5	22.6	0.00e+00	0	40	0	560988160	52	6050
2026-01-19 18:55:56.64	353.17	15.32	-39.4	-40.4	22.6	0.00e+00	0	40	0	566231040	52	6008
2026-01-19 18:55:59.67	352.52	15.34	-39.7	-40.7	22.4	0.00e+00	0	40	0	572522496	52	6207
2026-01-19 18:56:02.70	351.87	15.35	-39.7	-40.7	22.4	0.00e+00	0	40	0	577765376	52	6205
2026-01-19 18:56:05.73	351.23	15.36	-39.5	-40.5	22.6	0.00e+00	0	40	0	583008256	52	6056
2026-01-19 18:56:08.76	350.58	15.37	-39.6	-40.7	22.4	0.00e+00	0	40	0	589299712	52	6179
2026-01-19 18:56:11.78	349.93	15.37	-39.7	-40.8	22.4	0.00e+00	0	40	0	594542592	52	6246
2026-01-19 18:56:14.81	349.28	15.36	-39.6	-40.6	22.5	0.00e+00	0	40	0	600834048	52	6114
2026-01-19 18:56:17.84	348.64	15.36	-39.3	-40.3	22.7	0.00e+00	0	40	0	606076928	52	5915
2026-01-19 18:56:20.87	347.99	15.35	-39.6	-40.6	22.4	0.00e+00	0	40	0	612368384	52	6162
2026-01-19 18:56:23.90	347.34	15.33	-39.6	-40.6	22.4	0.00e+00	0	40	0	617611264	52	6164
2026-01-19 18:56:26.93	346.70	15.32	-39.9	-41.0	22.1	0.00e+00	0	40	0	622854144	52	6435
2026-01-19 18:56:29.96	346.05	15.30	-40.1	-41.2	22.1	0.00e+00	0	40	0	629145600	52	6569
2026-01-19 18:56:32.98	345.41	15.27	-40.1	-41.3	21.8	0.00e+00	0	40	0	634388480	52	6647
2026-01-19 18:56:36.01	344.76	15.24	-39.7	-40.8	22.3	0.00e+00	0	40	0	640679936	52	6289
2026-01-19 18:56:39.04	344.12	15.21	-39.7	-40.8	22.2	0.00e+00	0	40	0	645922816	52	6278
2026-01-19 18:56:42.07	343.48	15.18	-39.9	-41.0	22.1	0.00e+00	0	40	0	651165696	52	6456
2026-01-19 18:56:45.10	342.84	15.14	-39.9	-41.1	22.0	0.00e+00	0	40	0	657457152	52	6478
2026-01-19 18:56:48.12	342.21	15.09	-39.8	-40.9	22.3	0.00e+00	0	40	0	662700032	52	6355
2026-01-19 18:56:51.15	341.57	15.05	-39.4	-40.5	22.4	0.00e+00	0	40	0	668991488	52	6038
2026-01-19 18:56:54.18	340.94	15.00	-39.5	-40.6	22.3	0.00e+00	0	40	0	674234368	52	6173
2026-01-19 18:56:57.21	340.31	14.95	-39.6	-40.7	22.5	0.00e+00	0	40	0	680525824	52	6205
2026-01-19 18:57:00.24	339.68	14.89	-39.4	-40.5	22.6	0.00e+00	0	40	0	685768704	52	6043
2026-01-19 18:57:03.27	339.05	14.83	-39.3	-40.3	22.7	0.00e+00	0	40	0	691011584	52	5932
2026-01-19 18:57:06.29	338.43	14.77	-40.0	-41.1	22.0	0.00e+00	0	40	0	697303040	52	6483
2026-01-19 18:57:09.32	337.81	14.70	-39.6	-40.7	22.3	0.00e+00	0	40	0	702545920	52	6227
2026-01-19 18:57:12.35	337.19	14.63	-39.5	-40.6	22.5	0.00e+00	0	40	0	708837376	52	6126
2026-01-19 18:57:15.38	336.58	14.56	-39.6	-40.7	22.3	0.00e+00	0	40	0	714080256	52	6178
2026-01-19 18:57:18.41	335.97	14.48	-39.8	-40.9	22.2	0.00e+00	0	40	0	719323136	52	6339
2026-01-19 18:57:21.44	335.36	14.41	-39.9	-40.9	22.2	0.00e+00	0	40	0	725614592	52	6387
2026-01-19 18:57:24.46	334.75	14.33	-40.0	-41.1	22.1	0.00e+00	0	40	0	730857472	52	6480
2026-01-19 18:57:27.49	334.15	14.24	-40.2	-41.4	21.7	0.00e+00	0	40	0	737148928	52	6708
2026-01-19 18:57:30.52	333.55	14.15	-40.1	-41.1	21.9	0.00e+00	0	40	0	742391808	52	6537
2026-01-19 18:57:33.55	332.96	14.06	-40.4	-41.5	21.8	0.00e+00	0	40	0	748683264	52	6796
2026-01-19 18:57:36.58	332.37	13.97	-40.3	-41.4	21.9	0.00e+00	0	40	0	753926144	52	6725
2026-01-19 18:57:39.60	331.78	13.88	-40.1	-41.1	22.3	0.00e+00	0	40	0	759169024	52	6521
2026-01-19 18:57:42.64	331.19	13.78	-40.3	-41.4	22.2	0.00e+00	0	40	0	765460480	52	6713
2026-01-19 18:57:45.67	330.61	13.68	-40.2	-41.3	21.9	0.00e+00	0	40	0	770703360	52	6620
2026-01-19 18:57:48.70	330.04	13.58	-40.1	-41.1	22.0	0.00e+00	0	40	0	776994816	52	6516
2026-01-19 18:57:51.73	329.47	13.47	-39.8	-40.8	22.5	0.00e+00	0	40	0	782237696	52	6300
2026-01-19 18:57:54.76	328.90	13.36	-39.6	-40.6	22.6	0.00e+00	0	40	0	787480576	52	6147
2026-01-19 18:57:57.78	328.34	13.25	-39.9	-40.9	22.2	0.00e+00	0	40	0	793772032	52	6381
2026-01-19 18:58:00.81	327.78	13.14	-39.8	-40.9	22.5	0.00e+00	0	40	0	799014912	52	6318
2026-01-19 18:58:03.84	327.22	13.03	-39.7	-40.7	22.6	0.00e+00	0	40	0	805306368	52	6186
2026-01-19 18:58:06.87	326.67	12.91	-39.4	-40.4	22.7	0.00e+00	0	40	0	810549248	52	6008
2026-01-19 18:58:09.89	326.13	12.79	-39.7	-40.7	22.3	0.00e+00	0	40	0	815792128	52	6240
2026-01-19 18:58:12.92	325.59	12.67	-39.5	-40.5	22.5	0.00e+00	0	40	0	822083584	52	6102
2026-01-19 18:58:15.95	325.05	12.55	-39.9	-40.9	22.1	0.00e+00	0	40	0	827326464	52	6389
2026-01-19 18:58:18.98	324.52	12.43	-40.2	-41.2	21.9	0.00e+00	0	40	0	833617920	52	6601
2026-01-19 18:58:22.01	323.99	12.30	-40.5	-41.6	21.5	0.00e+00	0	40	0	838860800	52	6899
2026-01-19 18:58:25.04	323.47	12.17	-40.5	-41.7	21.4	0.00e+00	0	40	0	845152256	52	6945
2026-01-19 18:58:28.07	322.95	12.04	-40.5	-41.6	21.5	0.00e+00	0	40	0	850395136	52	6927
2026-01-19 18:58:31.10	322.43	11.91	-40.8	-42.0	21.2	0.00e+00	0	40	0	855638016	54	6426
2026-01-19 18:58:34.12	321.92	11.78	-41.4	-42.6	20.6	0.00e+00	0	40	0	861929472	54	6913
2026-01-19 18:58:37.15	321.42	11.65	-41.3	-42.5	20.6	0.00e+00	0	40	0	867172352	54	6835
2026-01-19 18:58:40.18	320.92	11.51	-41.9	-43.3	20.2	0.00e+00	0	40	0	873463808	56	6629
2026-01-19 18:58:43.21	320.42	11.37	-41.9	-43.2	20.3	0.00e+00	0	40	0	878706688	56	6580
2026-01-19 18:58:46.24	319.93	11.24	-42.2	-43.6	19.9	0.00e+00	0	40	0	883949568	56	6899
2026-01-19 18:58:49.27	319.45	11.10	-41.7	-43.0	20.3	0.00e+00	0	40	0	890241024	56	6463
2026-01-19 18:58:52.30	318.97	10.96	-42.7	-44.2	19.1	0.00e+00	0	40	0	895483904	56	7349
2026-01-19 18:58:55.32	318.49	10.82	-43.3	-44.9	18.9	0.00e+00	0	40	0	901775360	58	7122
2026-01-19 18:58:58.35	318.02	10.67	-43.0	-44.6	19.1	0.00e+00	0	40	0	907018240	58	6852
2026-01-19 18:59:01.38	317.55	10.53	-42.8	-44.4	19.0	0.00e+00	0	40	0	913309696	58	6723
2026-01-19 18:59:04.41	317.09	10.39	-42.9	-44.5	18.9	0.00e+00	0	40	0	918552576	58	6841
2026-01-19 18:59:07.43	316.63	10.24	-43.1	-44.7	19.0	0.00e+00	0	40	0	923795456	60	6234
2026-01-19 18:59:10.46	316.18	10.09	-43.2	-44.8	19.1	0.00e+00	0	40	0	930086912	60	6272
2026-01-19 18:59:13.49	315.73	9.95	-43.2	-44.8	19.0	0.00e+00	0	40	0	935329792	60	6306
2026-01-19 18:59:16.52	315.28	9.80	-43.1	-44.7	18.8	0.00e+00	0	40	0	941621248	58	6986
2026-01-19 18:59:19.54	314.85	9.65	-43.1	-44.7	19.0	0.00e+00	0	40	0	946864128	58	6943
2026-01-19 18:59:22.58	314.41	9.50	-42.7	-44.3	18.9	0.00e+00	0	40	0	952107008	58	6667
2026-01-19 18:59:25.60	313.98	9.35	-43.6	-45.2	18.7	0.00e+00	0	40	0	958398464	58	7402
2026-01-19 18:59:28.63	313.55	9.20	-43.5	-45.1	18.7	0.00e+00	0	40	0	963641344	58	7326
2026-01-19 18:59:31.66	313.13	9.05	-43.0	-44.5	19.5	0.00e+00	0	40	0	969932800	58	6814
2026-01-19 18:59:34.69	312.71	8.90	-42.7	-44.3	19.3	0.00e+00	0	40	0	975175680	58	6647
2026-01-19 18:59:37.72	312.30	8.74	-42.2	-43.6	19.6	0.00e+00	0	40	0	981467136	58	6140
2026-01-19 18:59:40.75	311.89	8.59	-42.1	-43.6	19.6	0.00e+00	0	40	0	986710016	58	6132
2026-01-19 18:59:43.78	311.49	8.44	-42.1	-43.5	19.8	0.00e+00	0	40	0	991952896	58	6085
2026-01-19 18:59:46.80	311.09	8.28	-42.1	-43.6	19.6	0.00e+00	0	40	0	998244352	56	6856
2026-01-19 18:59:49.83	310.70	8.13	-42.2	-43.6	19.9	0.00e+00	0	40	0	1003487232	56	6880
2026-01-19 18:59:52.86	310.30	7.97	-41.6	-42.9	20.3	0.00e+00	0	40	0	1009778688	56	6340
2026-01-19 18:59:55.89	309.92	7.82	-41.9	-43.2	20.6	0.00e+00	0	40	0	1015021568	56	6560
2026-01-19 18:59:58.92	309.53	7.66	-41.7	-43.1	20.1	0.00e+00	0	40	0	1020264448	56	6507
2026-01-19 19:00:01.94	309.16	7.51	-41.7	-43.0	20.4	0.00e+00	0	40	0	1026555904	56	6452
2026-01-19 19:00:04.97	308.78	7.35	-42.1	-43.6	20.0	0.00e+00	0	40	0	1031798784	58	6112
2026-01-19 19:00:08.00	308.41	7.20	-41.8	-43.1	20.4	0.00e+00	0	40	0	1038090240	58	5816
2026-01-19 19:00:11.03	308.05	7.04	-42.4	-43.8	19.7	0.00e+00	0	40	0	1043333120	56	7069
2026-01-19 19:00:14.06	307.68	6.89	-40.4	-41.6	21.2	0.00e+00	0	40	0	1049624576	54	6107
2026-01-19 19:00:17.09	307.32	6.73	-41.6	-43.0	20.2	0.00e+00	0	40	0	1054867456	54	7178
2026-01-19 19:00:20.11	306.97	6.57	-38.8	-42.9	17.5	2.12e-02	0	40	0	1060110336	50	8959
2026-01-19 19:00:23.15	306.62	6.42	-38.5	-42.4	16.9	3.08e-02	0	40	0	1066401792	50	8491
2026-01-19 19:00:26.17	306.27	6.26	-41.1	-42.4	20.8	0.00e+00	0	40	0	1071644672	54	6717
2026-01-19 19:00:29.20	305.93	6.10	-41.6	-42.9	20.6	0.00e+00	0	40	0	1077936128	56	6341
2026-01-19 19:00:32.23	305.59	5.95	-42.4	-43.8	19.6	0.00e+00	0	40	0	1083179008	56	7087
2026-01-19 19:00:35.26	305.26	5.79	-41.3	-42.6	20.5	0.00e+00	0	40	0	1088421888	56	6138
2026-01-19 19:00:38.28	304.93	5.63	-41.3	-42.6	20.2	0.00e+00	0	40	0	1094713344	56	6154
2026-01-19 19:00:41.31	304.60	5.48	-42.0	-43.4	19.8	0.00e+00	0	40	0	1099956224	56	6768
2026-01-19 19:00:44.34	304.27	5.32	-42.1	-43.5	19.9	0.00e+00	0	40	0	1106247680	56	6839
2026-01-19 19:00:47.37	303.95	5.16	-41.9	-43.3	19.9	0.00e+00	0	40	0	1111490560	56	6650
2026-01-19 19:00:50.40	303.63	5.01	-41.7	-43.1	19.9	0.00e+00	0	40	0	1117782016	56	6500
2026-01-19 19:00:53.43	303.32	4.85	-42.2	-43.7	19.3	0.00e+00	0	40	0	1123024896	58	6200
2026-01-19 19:00:56.46	303.01	4.69	-41.9	-43.3	19.7	0.00e+00	0	40	0	1128267776	58	5931
2026-01-19 19:00:59.49	302.70	4.54	-42.6	-44.2	18.9	0.00e+00	0	40	0	1134559232	56	7415
2026-01-19 19:01:02.52	302.40	4.38	-43.2	-45.0	18.1	0.00e+00	0	40	0	1139802112	58	7236
2026-01-19 19:01:05.55	302.10	4.23	-42.9	-44.6	18.3	0.00e+00	0	40	0	1146093568	58	6923
2026-01-19 19:01:08.58	301.80	4.07	-43.0	-44.7	18.4	0.00e+00	0	40	0	1151336448	58	7004
2026-01-19 19:01:11.61	301.51	3.92	-44.0	-46.1	17.3	0.00e+00	0	40	0	1156579328	60	7278
2026-01-19 19:01:14.64	301.21	3.76	-43.4	-45.4	17.5	0.00e+00	0	40	0	1162870784	60	6713
2026-01-19 19:01:17.67	300.93	3.61	-43.6	-45.6	17.2	0.00e+00	0	40	0	1168113664	60	6907
2026-01-19 19:01:20.70	300.64	3.45	-43.6	-45.6	17.3	0.00e+00	0	40	0	1174405120	58	7731
2026-01-19 19:01:23.73	300.36	3.30	-43.6	-45.7	17.1	0.00e+00	0	40	0	1179648000	60	6996
2026-01-19 19:01:26.76	300.08	3.14	-43.4	-45.5	17.0	0.00e+00	0	40	0	1185939456	60	6805
2026-01-19 19:01:29.79	299.81	2.99	-48.8	-64.0	3.6	0.00e+00	0	40	104	1190133760	60	57018
2026-01-19 19:01:32.82	299.53	2.83	-50.5	-65.7	3.6	1.51e+00	0	40	104	1190133760	60	69804
2026-01-19 19:01:35.85	299.27	2.68	-49.9	-65.1	3.6	1.51e+00	0	40	104	1190133760	60	64985
2026-01-19 19:01:38.88	299.00	2.53	-49.9	-65.2	3.6	1.51e+00	0	40	104	1190133760	60	65477
2026-01-19 19:01:41.91	298.73	2.37	-49.8	-65.0	3.6	1.51e+00	0	40	104	1190133760	60	64278
2026-01-19 19:01:44.94	298.47	2.22	-49.5	-65.0	3.6	1.51e+00	0	40	104	1190133760	60	64313
2026-01-19 19:01:47.98	298.21	2.07	-49.9	-65.1	3.6	1.51e+00	0	40	104	1190133760	60	65310
2026-01-19 19:01:51.01	297.96	1.92	-50.2	-65.5	3.6	1.51e+00	0	40	104	1190133760	60	67715
2026-01-19 19:01:54.04	297.71	1.76	-50.4	-65.6	3.6	1.51e+00	0	40	104	1190133760	60	68846
2026-01-19 19:01:57.07	297.46	1.61	-50.7	-65.9	3.6	1.51e+00	0	40	104	1190133760	60	71310
2026-01-19 19:02:00.10	297.21	1.46	-50.5	-65.7	3.6	1.51e+00	0	40	104	1190133760	60	69725
2026-01-19 19:02:03.13	296.96	1.31	-50.9	-66.1	3.6	1.51e+00	0	40	104	1190133760	60	73086
2026-01-19 19:02:06.15	296.72	1.16	-50.4	-65.6	3.6	1.51e+00	0	40	104	1190133760	60	69167
2026-01-19 19:02:09.18	296.48	1.01	-50.8	-66.0	3.6	1.51e+00	0	40	104	1190133760	60	71921
2026-01-19 19:02:12.21	296.25	0.86	-51.4	-66.5	3.6	1.51e+00	0	40	104	1190133760	60	76760
2026-01-19 19:02:15.24	296.01	0.71	-50.9	-66.0	3.6	1.51e+00	0	40	104	1190133760	60	72457
2026-01-19 19:02:18.27	295.78	0.56	-50.6	-65.7	3.6	1.51e+00	0	40	104	1190133760	60	69950
2026-01-19 19:02:21.29	295.55	0.41	-50.8	-65.9	3.6	1.51e+00	0	40	104	1190133760	60	71626
2026-01-19 19:02:24.32	295.32	0.26	-50.9	-66.1	3.6	1.51e+00	0	40	104	1190133760	60	72730
2026-01-19 19:02:27.35	295.10	0.11	-51.1	-66.2	3.6	1.51e+00	0	40	104	1190133760	60	74163
2026-01-19 19:02:30.38	294.87	-0.04	-50.8	-66.0	3.6	1.51e+00	0	40	104	1190133760	60	72058

#Closed at: 2026-01-19 19:02:30
#Recorded file [1190 MB]: D:/lorett/data/35029_260120_064953.dat