passes_logs/2026/01/19/R4.6S_Anadyr/R4.6S_Anadyr__20260119_032910_NOAA_20_JPSS-1_rec.log

#Pass ID: 20260119_032910_NOAA 20 (JPSS-1)
#Satellite: NOAA 20 (JPSS-1)
#Configuration: NOAA 20
#almurnet v.1.7.20251203
#Start time: 2026-01-19 03:29:11

#Version: 2.2.20231116
#Station: R4.6S_Anadyr
#Location: 177.4865 lon 64.73178 lat
#TLE: 1 43013U 17073A   26018.57232797  .00000065  00000+0  51758-4 0  9998
#TLE: 2 43013  98.7640 319.4740 0001368  34.2083 325.9181 14.19536753423241

#Time	Az	El	Level	Level2	SNR	BER	BlckErr	Temp	State	Recorded	gain1	gain2
2026-01-19 03:29:11.98	245.37	0.06	-50.6	-68.3	3.5	3.02e+01	0	39	0	0	60	100461
2026-01-19 03:29:15.01	245.67	0.18	-50.1	-65.4	3.6	1.51e+00	0	40	104	0	60	66979
2026-01-19 03:29:18.03	245.96	0.30	-50.1	-65.3	3.6	1.51e+00	0	40	104	0	60	66914
2026-01-19 03:29:21.06	246.26	0.42	-50.1	-65.4	3.6	1.51e+00	0	40	104	0	60	67065
2026-01-19 03:29:24.09	246.57	0.54	-50.2	-65.5	3.6	1.51e+00	0	40	104	0	60	68044
2026-01-19 03:29:27.12	246.87	0.66	-50.3	-65.5	3.6	1.51e+00	0	40	104	0	60	68273
2026-01-19 03:29:30.15	247.18	0.78	-50.3	-65.5	3.6	1.51e+00	0	40	104	0	60	67998
2026-01-19 03:29:33.18	247.49	0.90	-50.1	-65.3	3.6	1.51e+00	0	40	104	0	60	66316
2026-01-19 03:29:36.21	247.80	1.01	-49.3	-64.5	3.6	1.51e+00	0	40	104	0	60	60911
2026-01-19 03:29:39.23	248.11	1.13	-48.1	-63.2	3.6	1.51e+00	0	40	104	0	60	52312
2026-01-19 03:29:42.26	248.43	1.25	-48.1	-63.2	3.6	1.51e+00	0	40	104	0	60	52305
2026-01-19 03:29:45.29	248.75	1.37	-48.0	-63.1	3.6	1.51e+00	0	40	104	0	60	51831
2026-01-19 03:29:48.32	249.07	1.48	-48.0	-63.2	3.6	1.51e+00	0	40	104	0	60	52326
2026-01-19 03:29:51.35	249.39	1.60	-48.0	-63.1	3.6	1.51e+00	0	40	104	0	60	51930
2026-01-19 03:29:54.38	249.72	1.72	-48.0	-63.1	3.6	1.51e+00	0	40	104	0	60	51862
2026-01-19 03:29:57.41	250.05	1.83	-48.0	-63.2	3.6	1.51e+00	0	41	104	0	60	52309
2026-01-19 03:30:00.44	250.38	1.95	-48.0	-63.1	3.6	1.51e+00	0	40	104	0	60	51781
2026-01-19 03:30:03.47	250.71	2.07	-48.0	-63.2	3.6	1.51e+00	0	40	104	0	60	51966
2026-01-19 03:30:06.50	251.05	2.18	-48.0	-63.2	3.6	1.51e+00	0	41	104	0	60	52001
2026-01-19 03:30:09.53	251.39	2.30	-48.0	-63.2	3.6	1.51e+00	0	41	104	0	60	52053
2026-01-19 03:30:12.56	251.73	2.41	-48.0	-62.7	3.6	1.51e+00	0	41	104	0	60	49406
2026-01-19 03:30:15.59	252.07	2.53	-48.0	-63.2	3.6	1.51e+00	0	40	104	0	60	52050
2026-01-19 03:30:18.62	252.42	2.64	-48.0	-62.7	3.6	1.51e+00	0	40	104	0	60	49145
2026-01-19 03:30:21.64	252.76	2.76	-47.9	-61.5	3.6	1.51e+00	0	41	104	0	60	42934
2026-01-19 03:30:24.67	253.12	2.87	-48.0	-62.8	3.5	1.51e+00	0	41	104	0	60	49813
2026-01-19 03:30:27.70	253.47	2.98	-46.9	-52.7	8.7	4.66e-02	0	40	0	2097152	60	15633
2026-01-19 03:30:30.74	253.83	3.10	-48.4	-62.1	3.8	1.51e+00	0	41	104	5242880	60	45853
2026-01-19 03:30:33.77	254.19	3.21	-43.3	-45.3	17.6	3.51e-03	92	41	0	8388608	60	6633
2026-01-19 03:30:36.79	254.55	3.32	-43.7	-46.0	16.4	0.00e+00	0	41	0	14680064	60	7200
2026-01-19 03:30:39.82	254.91	3.43	-43.5	-45.6	17.1	0.00e+00	90	41	0	19922944	60	6913
2026-01-19 03:30:42.85	255.28	3.54	-43.1	-45.0	17.5	0.00e+00	92	41	0	25165824	60	6436
2026-01-19 03:30:45.88	255.65	3.65	-43.1	-45.0	17.6	0.00e+00	72	41	0	31457280	60	6429
2026-01-19 03:30:48.91	256.02	3.76	-42.8	-44.6	17.9	0.00e+00	91	40	0	36700160	60	6146
2026-01-19 03:30:51.94	256.40	3.87	-43.1	-44.9	17.8	0.00e+00	92	41	0	42991616	60	6390
2026-01-19 03:30:54.96	256.77	3.98	-42.9	-44.8	17.9	0.00e+00	92	40	0	48234496	58	7042
2026-01-19 03:30:57.99	257.15	4.09	-42.6	-44.3	18.3	0.00e+00	92	41	0	53477376	58	6654
2026-01-19 03:31:01.02	257.54	4.20	-42.0	-43.6	19.1	0.00e+00	90	41	0	59768832	58	6107
2026-01-19 03:31:04.05	257.92	4.30	-42.2	-43.8	19.0	0.00e+00	92	41	0	65011712	58	6304
2026-01-19 03:31:07.08	258.31	4.41	-42.0	-43.5	19.1	0.00e+00	1	41	0	71303168	58	6089
2026-01-19 03:31:10.11	258.70	4.52	-42.2	-43.8	18.8	0.00e+00	92	41	0	76546048	58	6288
2026-01-19 03:31:13.14	259.10	4.62	-42.4	-44.0	18.7	0.00e+00	92	41	0	81788928	58	6458
2026-01-19 03:31:16.17	259.49	4.72	-42.5	-44.1	18.7	0.00e+00	8	41	0	88080384	58	6511
2026-01-19 03:31:19.19	259.89	4.83	-42.3	-43.9	18.9	0.00e+00	90	41	0	93323264	58	6359
2026-01-19 03:31:22.22	260.29	4.93	-42.4	-44.0	18.8	0.00e+00	92	41	0	99614720	58	6431
2026-01-19 03:31:25.25	260.70	5.03	-42.7	-44.4	18.6	0.00e+00	67	41	0	104857600	58	6694
2026-01-19 03:31:28.28	261.11	5.13	-42.4	-44.0	18.8	0.00e+00	92	41	0	111149056	58	6459
2026-01-19 03:31:31.31	261.52	5.23	-42.4	-44.0	19.0	0.00e+00	92	41	0	116391936	58	6402
2026-01-19 03:31:34.34	261.93	5.33	-42.5	-44.2	18.6	0.00e+00	92	41	0	121634816	58	6553
2026-01-19 03:31:37.37	262.34	5.43	-42.4	-44.1	18.8	0.00e+00	92	41	0	127926272	58	6469
2026-01-19 03:31:40.40	262.76	5.53	-42.5	-44.1	18.7	0.00e+00	91	41	0	133169152	58	6494
2026-01-19 03:31:43.43	263.18	5.63	-42.7	-44.3	18.6	0.00e+00	92	41	0	139460608	58	6690
2026-01-19 03:31:46.45	263.61	5.72	-42.2	-43.7	19.3	0.00e+00	0	41	0	144703488	58	6243
2026-01-19 03:31:49.48	264.03	5.82	-42.2	-43.7	19.4	0.00e+00	95	40	0	149946368	58	6179
2026-01-19 03:31:52.51	264.46	5.91	-42.2	-43.7	19.3	0.00e+00	90	40	0	156237824	58	6193
2026-01-19 03:31:55.54	264.89	6.00	-41.8	-43.2	19.9	0.00e+00	0	41	0	161480704	58	5836
2026-01-19 03:31:58.57	265.33	6.10	-42.1	-43.5	19.6	0.00e+00	92	41	0	167772160	56	6810
2026-01-19 03:32:01.59	265.76	6.19	-42.1	-43.5	19.6	0.00e+00	92	41	0	173015040	56	6825
2026-01-19 03:32:04.62	266.20	6.28	-42.1	-43.5	19.5	0.00e+00	91	41	0	179306496	56	6820
2026-01-19 03:32:07.66	266.65	6.37	-42.1	-43.6	19.6	0.00e+00	92	41	0	184549376	56	6876
2026-01-19 03:32:10.69	267.09	6.45	-42.2	-43.7	19.4	0.00e+00	92	41	0	189792256	56	6940
2026-01-19 03:32:13.72	267.54	6.54	-42.2	-43.6	19.5	0.00e+00	91	40	0	196083712	56	6922
2026-01-19 03:32:16.75	267.99	6.63	-42.5	-44.1	19.2	0.00e+00	92	40	0	201326592	56	7293
2026-01-19 03:32:19.78	268.44	6.71	-42.3	-43.8	19.3	0.00e+00	92	41	0	207618048	56	7069
2026-01-19 03:32:22.81	268.89	6.79	-42.4	-43.9	19.3	0.00e+00	92	40	0	212860928	56	7143
2026-01-19 03:32:25.84	269.35	6.87	-42.5	-44.0	19.2	0.00e+00	11	40	0	218103808	56	7215
2026-01-19 03:32:28.87	269.81	6.95	-42.6	-44.2	19.0	0.00e+00	91	41	0	224395264	56	7373
2026-01-19 03:32:31.90	270.27	7.03	-42.7	-44.3	19.0	0.00e+00	91	41	0	229638144	56	7439
2026-01-19 03:32:34.93	270.74	7.11	-42.7	-44.3	18.9	0.00e+00	79	41	0	235929600	58	6677
2026-01-19 03:32:37.96	271.20	7.19	-42.7	-44.3	19.0	0.00e+00	90	41	0	241172480	58	6648
2026-01-19 03:32:40.98	271.67	7.26	-42.6	-44.1	19.1	0.00e+00	92	41	0	247463936	58	6516
2026-01-19 03:32:44.01	272.14	7.34	-42.2	-43.7	19.5	0.00e+00	90	41	0	252706816	58	6204
2026-01-19 03:32:47.04	272.62	7.41	-42.4	-43.9	19.4	0.00e+00	92	41	0	257949696	58	6356
2026-01-19 03:32:50.07	273.09	7.48	-42.5	-44.1	19.2	0.00e+00	90	41	0	264241152	58	6478
2026-01-19 03:32:53.10	273.57	7.55	-42.6	-44.2	19.1	0.00e+00	92	41	0	269484032	58	6584
2026-01-19 03:32:56.13	274.05	7.61	-42.4	-43.9	19.4	0.00e+00	0	41	0	275775488	58	6328
2026-01-19 03:32:59.16	274.53	7.68	-42.5	-44.0	19.3	0.00e+00	92	41	0	281018368	58	6404
2026-01-19 03:33:02.19	275.02	7.75	-42.2	-43.7	19.6	0.00e+00	92	41	0	286261248	58	6184
2026-01-19 03:33:05.22	275.50	7.81	-42.4	-43.9	19.4	0.00e+00	0	41	0	292552704	58	6362
2026-01-19 03:33:08.25	275.99	7.87	-42.5	-44.1	19.3	0.00e+00	92	41	0	297795584	58	6474
2026-01-19 03:33:11.28	276.48	7.93	-42.6	-44.1	19.3	0.00e+00	92	40	0	304087040	58	6488
2026-01-19 03:33:14.31	276.97	7.99	-43.0	-44.6	18.8	0.00e+00	91	41	0	309329920	58	6878
2026-01-19 03:33:17.34	277.47	8.04	-42.9	-44.5	18.8	0.00e+00	92	40	0	315621376	58	6835
2026-01-19 03:33:20.37	277.96	8.10	-42.7	-44.3	19.1	0.00e+00	89	41	0	320864256	58	6624
2026-01-19 03:33:23.40	278.46	8.15	-42.5	-44.0	19.4	0.00e+00	92	40	0	326107136	58	6412
2026-01-19 03:33:26.43	278.96	8.20	-42.6	-44.1	19.3	0.00e+00	86	41	0	332398592	58	6493
2026-01-19 03:33:29.46	279.46	8.25	-42.5	-44.0	19.4	0.00e+00	92	41	0	337641472	58	6438
2026-01-19 03:33:32.49	279.97	8.30	-42.1	-43.5	19.9	0.00e+00	92	41	0	343932928	58	6074
2026-01-19 03:33:35.52	280.47	8.34	-42.4	-43.9	19.6	0.00e+00	0	40	0	349175808	58	6340
2026-01-19 03:33:38.54	280.97	8.39	-42.7	-44.2	19.0	0.00e+00	92	40	0	355467264	58	6583
2026-01-19 03:33:41.57	281.48	8.43	-42.7	-44.2	19.3	0.00e+00	92	41	0	360710144	58	6584
2026-01-19 03:33:44.60	281.99	8.47	-42.5	-44.0	19.5	0.00e+00	90	41	0	365953024	58	6416
2026-01-19 03:33:47.63	282.50	8.51	-42.5	-43.9	19.6	0.00e+00	2	40	0	372244480	58	6367
2026-01-19 03:33:50.65	283.01	8.54	-42.4	-43.9	19.6	0.00e+00	90	40	0	377487360	58	6331
2026-01-19 03:33:53.68	283.52	8.58	-42.6	-44.1	19.4	0.00e+00	92	41	0	383778816	58	6510
2026-01-19 03:33:56.71	284.03	8.61	-42.4	-43.8	19.6	0.00e+00	11	40	0	389021696	58	6308
2026-01-19 03:33:59.74	284.55	8.64	-42.8	-44.3	19.2	0.00e+00	92	41	0	394264576	58	6659
2026-01-19 03:34:02.77	285.06	8.67	-42.7	-44.2	19.3	0.00e+00	92	41	0	400556032	58	6552
2026-01-19 03:34:05.80	285.58	8.70	-43.2	-44.8	18.8	0.00e+00	0	40	0	405798912	58	7048
2026-01-19 03:34:08.83	286.09	8.72	-43.3	-45.0	18.5	0.00e+00	90	41	0	412090368	58	7189
2026-01-19 03:34:11.86	286.61	8.74	-43.2	-44.8	18.7	0.00e+00	91	41	0	417333248	58	7072
2026-01-19 03:34:14.89	287.13	8.77	-43.1	-44.7	18.9	0.00e+00	1	41	0	422576128	58	6991
2026-01-19 03:34:17.92	287.65	8.78	-42.9	-44.5	19.0	0.00e+00	92	40	0	428867584	58	6821
2026-01-19 03:34:20.95	288.17	8.80	-43.2	-44.8	18.8	0.00e+00	92	40	0	434110464	58	7053
2026-01-19 03:34:23.99	288.69	8.82	-43.6	-45.3	18.3	0.00e+00	92	41	0	440401920	58	7507
2026-01-19 03:34:27.02	289.21	8.83	-43.5	-45.2	18.5	0.00e+00	81	41	0	445644800	58	7407
2026-01-19 03:34:30.05	289.73	8.84	-43.4	-45.0	18.5	0.00e+00	91	41	0	451936256	58	7247
2026-01-19 03:34:33.08	290.25	8.85	-43.3	-45.0	18.6	0.00e+00	92	41	0	457179136	58	7187
2026-01-19 03:34:36.10	290.77	8.85	-42.9	-44.4	19.2	0.00e+00	7	41	0	462422016	58	6739
2026-01-19 03:34:39.13	291.30	8.86	-42.7	-44.2	19.4	0.00e+00	92	41	0	468713472	58	6561
2026-01-19 03:34:42.16	291.82	8.86	-42.6	-44.1	19.5	0.00e+00	92	40	0	473956352	58	6468
2026-01-19 03:34:45.19	292.34	8.86	-42.8	-44.4	19.2	0.00e+00	0	40	0	480247808	58	6715
2026-01-19 03:34:48.22	292.86	8.86	-42.8	-44.3	19.2	0.00e+00	90	40	0	485490688	58	6676
2026-01-19 03:34:51.25	293.38	8.86	-42.5	-43.9	19.6	0.00e+00	90	41	0	491782144	58	6387
2026-01-19 03:34:54.28	293.90	8.85	-42.1	-43.4	20.1	0.00e+00	0	40	0	497025024	58	6014
2026-01-19 03:34:57.31	294.43	8.84	-42.0	-43.3	20.3	0.00e+00	0	41	0	502267904	58	5943
2026-01-19 03:35:00.34	294.95	8.83	-41.9	-43.2	20.3	0.00e+00	92	41	0	508559360	58	5891
2026-01-19 03:35:03.37	295.47	8.82	-42.3	-43.7	19.8	0.00e+00	92	40	0	513802240	58	6199
2026-01-19 03:35:06.40	295.99	8.81	-42.1	-43.4	20.1	0.00e+00	8	41	0	520093696	58	6019
2026-01-19 03:35:09.43	296.51	8.79	-41.7	-42.9	20.6	0.00e+00	90	40	0	525336576	56	6370
2026-01-19 03:35:12.46	297.02	8.77	-41.6	-42.8	20.7	0.00e+00	92	40	0	530579456	56	6303
2026-01-19 03:35:15.48	297.54	8.75	-41.7	-43.0	20.5	0.00e+00	0	41	0	536870912	56	6431
2026-01-19 03:35:18.51	298.06	8.73	-41.6	-42.9	20.6	0.00e+00	92	40	0	542113792	56	6367
2026-01-19 03:35:21.54	298.58	8.71	-41.5	-42.8	20.7	0.00e+00	90	40	0	548405248	56	6280
2026-01-19 03:35:24.57	299.09	8.68	-41.6	-42.9	20.6	0.00e+00	0	40	0	553648128	56	6346
2026-01-19 03:35:27.60	299.61	8.65	-41.5	-42.7	20.8	0.00e+00	3	40	0	559939584	56	6208
2026-01-19 03:35:30.63	300.12	8.62	-41.8	-43.1	20.5	0.00e+00	92	40	0	565182464	56	6467
2026-01-19 03:35:33.66	300.63	8.59	-41.9	-43.2	20.2	0.00e+00	92	40	0	570425344	56	6615
2026-01-19 03:35:36.69	301.14	8.56	-41.8	-43.1	20.5	0.00e+00	3	40	0	576716800	56	6479
2026-01-19 03:35:39.73	301.66	8.52	-41.4	-42.6	20.9	0.00e+00	92	40	0	581959680	56	6145
2026-01-19 03:35:42.75	302.16	8.49	-41.6	-42.8	20.7	0.00e+00	92	40	0	588251136	56	6301
2026-01-19 03:35:45.78	302.67	8.45	-41.9	-43.3	20.2	0.00e+00	0	40	0	593494016	56	6642
2026-01-19 03:35:48.81	303.18	8.41	-41.8	-43.1	20.4	0.00e+00	92	40	0	598736896	56	6470
2026-01-19 03:35:51.83	303.68	8.36	-41.9	-43.3	20.2	0.00e+00	92	41	0	605028352	56	6638
2026-01-19 03:35:54.87	304.19	8.32	-42.2	-43.6	19.9	0.00e+00	86	40	0	610271232	56	6863
2026-01-19 03:35:57.89	304.69	8.27	-42.0	-43.3	20.1	0.00e+00	87	41	0	616562688	56	6678
2026-01-19 03:36:00.92	305.19	8.22	-41.9	-43.2	20.3	0.00e+00	90	41	0	621805568	56	6573
2026-01-19 03:36:03.94	305.68	8.17	-41.7	-42.9	20.5	0.00e+00	92	40	0	628097024	56	6387
2026-01-19 03:36:06.98	306.18	8.12	-41.4	-42.6	20.8	0.00e+00	0	40	0	633339904	56	6148
2026-01-19 03:36:10.01	306.68	8.07	-41.7	-43.0	20.4	0.00e+00	92	41	0	638582784	56	6435
2026-01-19 03:36:13.03	307.17	8.01	-42.0	-43.4	20.1	0.00e+00	92	40	0	644874240	56	6694
2026-01-19 03:36:16.06	307.66	7.96	-42.1	-43.4	20.0	0.00e+00	0	40	0	650117120	56	6756
2026-01-19 03:36:18.86	308.11	7.90	-41.8	-43.1	20.3	0.00e+00	92	40	0	656408576	56	6523
2026-01-19 03:36:22.03	308.62	7.84	-41.9	-43.2	20.2	0.00e+00	91	40	0	661651456	56	6586
2026-01-19 03:36:24.92	309.09	7.78	-41.6	-42.9	20.5	0.00e+00	0	40	0	666894336	56	6359
2026-01-19 03:36:28.09	309.59	7.71	-41.2	-42.4	21.0	0.00e+00	0	40	0	673185792	56	6012
2026-01-19 03:36:30.97	310.05	7.65	-41.3	-42.5	20.9	0.00e+00	90	40	0	678428672	56	6056
2026-01-19 03:36:34.15	310.55	7.58	-41.3	-42.5	20.9	0.00e+00	92	41	0	684720128	56	6081
2026-01-19 03:36:37.04	311.01	7.52	-41.4	-42.7	20.7	0.00e+00	0	41	0	689963008	56	6176
2026-01-19 03:36:40.21	311.51	7.45	-41.4	-42.6	20.8	0.00e+00	90	40	0	696254464	56	6135
2026-01-19 03:36:43.10	311.96	7.38	-41.5	-42.8	20.4	0.00e+00	53	41	0	701497344	56	6303
2026-01-19 03:36:46.27	312.45	7.30	-41.6	-42.9	20.5	0.00e+00	0	41	0	707788800	56	6341
2026-01-19 03:36:49.15	312.90	7.23	-41.6	-42.9	20.5	0.00e+00	92	40	0	713031680	56	6352
2026-01-19 03:36:52.33	313.38	7.15	-41.4	-42.7	20.7	0.00e+00	92	41	0	718274560	56	6183
2026-01-19 03:36:55.20	313.82	7.08	-41.1	-42.3	20.9	0.00e+00	81	40	0	724566016	56	5953
2026-01-19 03:36:58.38	314.31	7.00	-41.5	-42.8	20.5	0.00e+00	2	41	0	729808896	56	6292
2026-01-19 03:37:01.26	314.74	6.92	-42.1	-43.4	19.9	0.00e+00	92	41	0	735051776	56	6760
2026-01-19 03:37:04.43	315.22	6.84	-42.3	-43.8	19.4	0.00e+00	0	40	0	741343232	56	7068
2026-01-19 03:37:07.32	315.65	6.76	-42.2	-43.7	19.6	0.00e+00	0	41	0	746586112	56	6966
2026-01-19 03:37:10.50	316.13	6.68	-42.3	-43.8	19.5	0.00e+00	90	40	0	752877568	56	7084
2026-01-19 03:37:13.38	316.56	6.60	-41.9	-43.3	20.0	0.00e+00	88	41	0	758120448	56	6626
2026-01-19 03:37:16.55	317.02	6.51	-42.2	-43.6	19.6	0.00e+00	6	40	0	764411904	56	6882
2026-01-19 03:37:19.44	317.45	6.42	-42.2	-43.6	19.5	0.00e+00	92	40	0	769654784	56	6921
2026-01-19 03:37:22.61	317.91	6.33	-42.8	-44.4	18.9	0.00e+00	92	40	0	775946240	56	7521
2026-01-19 03:37:25.49	318.33	6.25	-43.0	-44.6	18.6	0.00e+00	0	41	0	781189120	58	6907
2026-01-19 03:37:28.66	318.78	6.15	-43.6	-45.5	17.8	0.00e+00	86	41	0	786432000	58	7609
2026-01-19 03:37:31.55	319.20	6.07	-43.7	-45.6	17.7	0.00e+00	92	40	0	792723456	60	6900
2026-01-19 03:37:34.72	319.65	5.97	-43.7	-45.7	17.6	0.00e+00	6	40	0	797966336	60	6934
2026-01-19 03:37:37.61	320.06	5.88	-43.5	-45.4	17.7	0.00e+00	5	41	0	803209216	60	6727
2026-01-19 03:37:40.78	320.50	5.79	-43.5	-45.4	17.8	0.00e+00	91	40	0	809500672	60	6705
2026-01-19 03:37:43.66	320.90	5.70	-43.2	-45.0	18.0	0.00e+00	85	40	0	814743552	60	6438
2026-01-19 03:37:46.84	321.34	5.59	-43.1	-44.8	18.4	0.00e+00	0	41	0	821035008	60	6292
2026-01-19 03:37:49.72	321.74	5.50	-43.7	-45.6	17.5	0.00e+00	90	41	0	826277888	60	6910
2026-01-19 03:37:52.90	322.18	5.40	-44.6	-46.9	16.2	0.00e+00	92	41	0	832569344	60	8038
2026-01-19 03:37:55.78	322.57	5.31	-44.8	-47.3	15.7	0.00e+00	82	41	0	837812224	60	8403
2026-01-19 03:37:58.95	323.00	5.20	-44.9	-47.5	15.5	0.00e+00	0	40	0	844103680	60	8535
2026-01-19 03:38:01.84	323.39	5.11	-44.9	-47.5	15.5	0.00e+00	90	41	0	849346560	60	8574
2026-01-19 03:38:05.01	323.81	5.00	-44.6	-47.0	15.9	0.00e+00	0	41	0	854589440	60	8119
2026-01-19 03:38:07.89	324.19	4.91	-44.6	-47.0	15.9	0.00e+00	0	40	0	860880896	60	8083
2026-01-19 03:38:11.06	324.61	4.80	-44.2	-46.5	16.6	0.00e+00	0	41	0	866123776	60	7647
2026-01-19 03:38:13.95	324.99	4.70	-44.4	-46.7	16.1	0.00e+00	0	40	0	871366656	60	7855
2026-01-19 03:38:17.12	325.40	4.59	-44.4	-46.8	16.3	0.00e+00	0	41	0	877658112	60	7865
2026-01-19 03:38:20.01	325.77	4.49	-44.4	-46.8	16.2	0.00e+00	82	41	0	882900992	60	7902
2026-01-19 03:38:23.18	326.18	4.38	-44.1	-46.3	16.7	0.00e+00	90	41	0	889192448	60	7500
2026-01-19 03:38:26.06	326.55	4.28	-44.0	-46.2	16.7	0.00e+00	0	41	0	894435328	60	7377
2026-01-19 03:38:29.24	326.95	4.17	-44.5	-46.9	16.1	0.00e+00	0	41	0	900726784	60	7980
2026-01-19 03:38:32.12	327.31	4.07	-44.3	-46.7	16.1	0.00e+00	92	41	0	905969664	60	7814
2026-01-19 03:38:35.30	327.71	3.96	-44.4	-46.9	16.0	0.00e+00	0	41	0	912261120	60	7970
2026-01-19 03:38:38.18	328.06	3.86	-43.9	-46.1	16.7	0.00e+00	81	41	0	917504000	60	7282
2026-01-19 03:38:41.36	328.45	3.74	-43.6	-45.7	17.1	0.00e+00	92	41	0	922746880	60	6988
2026-01-19 03:38:44.24	328.80	3.64	-43.6	-45.7	17.0	0.00e+00	82	41	0	929038336	60	6992
2026-01-19 03:38:47.42	329.19	3.52	-43.6	-45.7	16.9	0.00e+00	0	41	0	934281216	60	6972
2026-01-19 03:38:50.30	329.54	3.42	-44.2	-46.7	15.7	0.00e+00	92	41	0	939524096	60	7838
2026-01-19 03:38:53.47	329.91	3.30	-43.9	-46.5	15.4	0.00e+00	71	41	0	945815552	60	7634
2026-01-19 03:38:56.36	330.26	3.20	-44.3	-47.3	14.5	0.00e+00	0	41	0	951058432	60	8365
2026-01-19 03:38:59.53	330.63	3.08	-45.3	-49.4	11.9	1.64e-04	5	41	0	957349888	60	10709
2026-01-19 03:39:02.42	330.97	2.97	-48.8	-64.0	3.6	1.51e+00	0	41	104	960495616	60	57011
2026-01-19 03:39:05.59	331.34	2.86	-49.8	-65.0	3.6	1.51e+00	0	41	104	960495616	60	64348
2026-01-19 03:39:08.48	331.67	2.75	-50.1	-65.4	3.6	1.51e+00	0	41	104	960495616	60	67058
2026-01-19 03:39:11.65	332.03	2.63	-50.3	-65.5	3.6	1.51e+00	0	41	104	960495616	60	67937
2026-01-19 03:39:14.54	332.36	2.52	-50.3	-65.5	3.6	1.51e+00	0	41	104	960495616	60	67813
2026-01-19 03:39:17.71	332.72	2.40	-49.9	-65.4	3.6	1.51e+00	0	41	104	960495616	60	66945
2026-01-19 03:39:20.60	333.04	2.30	-50.1	-65.3	3.6	1.51e+00	0	41	104	960495616	60	66878
2026-01-19 03:39:23.78	333.39	2.18	-50.1	-65.3	3.6	1.51e+00	0	41	104	960495616	60	66824
2026-01-19 03:39:26.66	333.71	2.07	-50.2	-65.5	3.6	1.51e+00	0	41	104	960495616	60	67740
2026-01-19 03:39:29.83	334.06	1.95	-50.2	-65.4	3.6	1.51e+00	0	41	104	960495616	60	67195
2026-01-19 03:39:32.72	334.37	1.84	-50.2	-65.4	3.6	1.51e+00	0	41	104	960495616	60	67226
2026-01-19 03:39:35.89	334.71	1.72	-50.2	-65.4	3.6	1.51e+00	0	41	104	960495616	60	67533
2026-01-19 03:39:38.78	335.02	1.61	-50.2	-65.4	3.6	1.51e+00	0	41	104	960495616	60	67502
2026-01-19 03:39:41.95	335.36	1.48	-50.2	-65.4	3.6	1.51e+00	0	41	104	960495616	60	67446
2026-01-19 03:39:44.84	335.66	1.37	-50.2	-65.4	3.6	1.51e+00	0	41	104	960495616	60	67330
2026-01-19 03:39:48.01	336.00	1.25	-50.2	-65.4	3.6	1.51e+00	0	41	104	960495616	60	67371
2026-01-19 03:39:50.90	336.30	1.14	-50.2	-65.4	3.6	1.51e+00	0	41	104	960495616	60	67163
2026-01-19 03:39:54.07	336.62	1.02	-50.2	-65.4	3.6	1.51e+00	0	41	104	960495616	60	67131
2026-01-19 03:39:56.95	336.92	0.91	-50.2	-65.4	3.6	1.51e+00	0	41	104	960495616	60	67540
2026-01-19 03:40:00.13	337.24	0.78	-50.2	-65.4	3.6	1.51e+00	0	41	104	960495616	60	67494
2026-01-19 03:40:03.01	337.53	0.67	-50.2	-65.4	3.5	1.51e+00	0	41	104	960495616	60	67186
2026-01-19 03:40:06.19	337.85	0.55	-50.2	-65.4	3.6	1.51e+00	0	41	104	960495616	60	67466
2026-01-19 03:40:09.07	338.13	0.44	-50.2	-65.4	3.6	1.51e+00	0	41	104	960495616	60	67569
2026-01-19 03:40:12.24	338.45	0.32	-50.2	-65.4	3.6	1.51e+00	0	41	104	960495616	60	67437
2026-01-19 03:40:15.13	338.73	0.20	-50.2	-65.4	3.6	1.51e+00	0	41	104	960495616	60	67333
2026-01-19 03:40:18.30	339.04	0.08	-50.2	-65.4	3.6	1.51e+00	0	41	104	960495616	60	67025

#Closed at: 2026-01-19 03:40:21
#Recorded file [960 MB]: D:/lorett/data/35029_260119_152911.dat