passes_logs/2026/01/19/R4.6S_Anadyr/R4.6S_Anadyr__20260119_000406_NOAA_20_JPSS-1_rec.log

#Pass ID: 20260119_000406_NOAA 20 (JPSS-1)
#Satellite: NOAA 20 (JPSS-1)
#Configuration: NOAA 20
#almurnet v.1.7.20251203
#Start time: 2026-01-19 00:04:07

#Version: 2.2.20231116
#Station: R4.6S_Anadyr
#Location: 177.4865 lon 64.73178 lat
#TLE: 1 43013U 17073A   26018.57232797  .00000065  00000+0  51758-4 0  9998
#TLE: 2 43013  98.7640 319.4740 0001368  34.2083 325.9181 14.19536753423241

#Time	Az	El	Level	Level2	SNR	BER	BlckErr	Temp	State	Recorded	gain1	gain2
2026-01-19 00:04:07.83	152.50	0.08	-49.9	-64.9	3.5	1.51e+00	0	38	0	0	60	63516
2026-01-19 00:04:11.87	152.50	0.32	-50.0	-65.1	3.6	1.51e+00	0	39	104	0	60	65321
2026-01-19 00:04:15.90	152.50	0.57	-49.9	-65.2	3.6	1.51e+00	0	40	104	0	60	65634
2026-01-19 00:04:19.94	152.49	0.82	-49.9	-65.2	3.6	1.51e+00	0	40	104	0	60	65481
2026-01-19 00:04:23.98	152.49	1.07	-49.7	-64.9	3.6	1.51e+00	0	40	104	0	60	63679
2026-01-19 00:04:28.01	152.48	1.32	-49.0	-64.3	3.6	1.51e+00	0	40	104	0	60	59569
2026-01-19 00:04:32.05	152.48	1.58	-48.3	-63.4	3.6	1.51e+00	0	40	104	0	60	53758
2026-01-19 00:04:36.09	152.48	1.83	-48.2	-63.4	3.6	1.51e+00	0	40	104	0	60	53654
2026-01-19 00:04:40.13	152.47	2.09	-48.2	-63.5	3.6	1.51e+00	0	40	104	0	60	53773
2026-01-19 00:04:44.18	152.47	2.35	-48.2	-63.5	3.6	1.51e+00	0	40	104	0	60	53961
2026-01-19 00:04:48.21	152.46	2.62	-48.2	-63.1	3.6	1.51e+00	0	40	104	0	60	51696
2026-01-19 00:04:52.25	152.45	2.89	-48.2	-62.9	3.6	1.51e+00	0	40	104	0	60	50235
2026-01-19 00:04:56.29	152.45	3.15	-48.1	-61.5	3.6	1.51e+00	0	40	104	0	60	43097
2026-01-19 00:05:00.33	152.44	3.43	-47.1	-52.9	9.1	5.21e-02	0	40	0	5242880	60	15949
2026-01-19 00:05:04.37	152.43	3.70	-46.1	-50.2	12.1	2.48e-04	0	40	0	12582912	60	11711
2026-01-19 00:05:08.40	152.43	3.98	-44.7	-47.5	13.8	0.00e+00	0	40	104	16777216	60	8591
2026-01-19 00:05:12.44	152.42	4.26	-43.9	-46.2	16.4	0.00e+00	0	40	0	16777216	60	7400
2026-01-19 00:05:16.48	152.41	4.54	-43.8	-46.0	16.5	0.00e+00	0	40	0	24117248	60	7239
2026-01-19 00:05:20.52	152.40	4.83	-43.8	-46.0	16.7	0.00e+00	0	40	0	32505856	60	7190
2026-01-19 00:05:24.56	152.39	5.12	-43.7	-45.9	16.6	0.00e+00	0	40	0	39845888	60	7160
2026-01-19 00:05:28.60	152.38	5.41	-43.8	-46.0	16.7	0.00e+00	0	40	0	47185920	60	7199
2026-01-19 00:05:32.64	152.37	5.71	-43.4	-45.3	17.5	0.00e+00	0	40	0	54525952	60	6664
2026-01-19 00:05:36.68	152.36	6.01	-43.4	-45.4	17.5	0.00e+00	0	40	0	62914560	60	6696
2026-01-19 00:05:40.72	152.35	6.31	-43.4	-45.3	17.6	0.00e+00	0	41	0	70254592	60	6690
2026-01-19 00:05:44.76	152.34	6.61	-42.9	-44.7	18.2	0.00e+00	0	40	0	77594624	60	6242
2026-01-19 00:05:48.80	152.33	6.92	-43.1	-44.9	18.1	0.00e+00	0	40	0	84934656	60	6332
2026-01-19 00:05:52.84	152.32	7.24	-42.9	-44.6	18.3	0.00e+00	0	40	0	92274688	60	6165
2026-01-19 00:05:56.88	152.30	7.56	-42.5	-44.1	18.8	0.00e+00	0	41	0	100663296	58	6521
2026-01-19 00:06:00.92	152.29	7.88	-42.6	-44.2	18.8	0.00e+00	0	41	0	108003328	58	6587
2026-01-19 00:06:04.96	152.28	8.20	-42.4	-43.9	19.1	0.00e+00	0	41	0	115343360	58	6381
2026-01-19 00:06:09.00	152.26	8.53	-42.3	-43.8	19.3	0.00e+00	0	41	0	122683392	58	6298
2026-01-19 00:06:13.04	152.25	8.87	-42.2	-43.7	19.4	0.00e+00	0	41	0	131072000	58	6242
2026-01-19 00:06:17.08	152.23	9.21	-42.1	-43.6	19.6	0.00e+00	0	41	0	138412032	58	6104
2026-01-19 00:06:21.12	152.21	9.55	-42.1	-43.7	19.5	0.00e+00	0	41	0	145752064	58	6174
2026-01-19 00:06:25.16	152.20	9.90	-42.1	-43.6	19.6	0.00e+00	0	41	0	153092096	58	6116
2026-01-19 00:06:29.20	152.18	10.25	-42.0	-43.4	19.9	0.00e+00	0	41	0	161480704	58	5980
2026-01-19 00:06:33.24	152.16	10.61	-42.0	-43.4	19.9	0.00e+00	0	41	0	168820736	56	6711
2026-01-19 00:06:37.28	152.14	10.98	-41.8	-43.1	20.2	0.00e+00	0	41	0	176160768	56	6517
2026-01-19 00:06:41.32	152.12	11.35	-41.8	-43.1	20.2	0.00e+00	0	41	0	183500800	56	6519
2026-01-19 00:06:45.36	152.10	11.72	-41.5	-42.8	20.6	0.00e+00	0	41	0	190840832	56	6254
2026-01-19 00:06:49.40	152.08	12.10	-41.3	-42.6	20.8	0.00e+00	0	41	0	199229440	56	6124
2026-01-19 00:06:53.44	152.05	12.49	-41.4	-42.7	20.8	0.00e+00	0	41	0	206569472	56	6182
2026-01-19 00:06:57.48	152.03	12.88	-41.1	-42.3	21.1	0.00e+00	0	41	0	213909504	56	5942
2026-01-19 00:07:01.52	152.00	13.28	-40.8	-42.0	21.4	0.00e+00	0	41	0	221249536	56	5726
2026-01-19 00:07:05.56	151.98	13.69	-40.8	-41.9	21.5	0.00e+00	0	41	0	229638144	56	5687
2026-01-19 00:07:09.60	151.95	14.10	-40.7	-41.9	21.4	0.00e+00	0	41	0	236978176	54	6328
2026-01-19 00:07:13.64	151.92	14.52	-40.5	-41.6	21.7	0.00e+00	0	41	0	244318208	54	6158
2026-01-19 00:07:17.69	151.89	14.95	-40.6	-41.7	21.7	0.00e+00	0	41	0	251658240	54	6195
2026-01-19 00:07:21.73	151.86	15.39	-40.3	-41.4	21.9	0.00e+00	0	41	0	258998272	54	6018
2026-01-19 00:07:25.77	151.83	15.83	-40.2	-41.3	22.0	0.00e+00	0	41	0	267386880	54	5937
2026-01-19 00:07:29.81	151.80	16.28	-40.1	-41.2	22.2	0.00e+00	0	41	0	274726912	54	5844
2026-01-19 00:07:33.85	151.76	16.74	-40.0	-41.0	22.4	0.00e+00	0	41	0	282066944	54	5735
2026-01-19 00:07:37.89	151.72	17.21	-39.8	-40.8	22.6	0.00e+00	0	41	0	289406976	52	6283
2026-01-19 00:07:41.93	151.69	17.69	-39.7	-40.7	22.6	0.00e+00	0	41	0	297795584	52	6218
2026-01-19 00:07:45.97	151.65	18.18	-39.6	-40.6	22.8	0.00e+00	0	41	0	305135616	52	6164
2026-01-19 00:07:50.01	151.61	18.68	-39.4	-40.3	23.2	0.00e+00	0	41	0	312475648	52	5930
2026-01-19 00:07:54.05	151.56	19.18	-39.3	-40.2	23.3	0.00e+00	0	41	0	319815680	52	5868
2026-01-19 00:07:58.09	151.52	19.70	-39.5	-40.4	23.0	0.00e+00	0	41	0	327155712	52	6014
2026-01-19 00:08:02.13	151.47	20.23	-39.3	-40.3	23.2	0.00e+00	0	41	0	335544320	52	5904
2026-01-19 00:08:06.17	151.42	20.77	-39.3	-40.2	23.3	0.00e+00	0	41	0	342884352	52	5866
2026-01-19 00:08:10.20	151.37	21.32	-39.3	-40.3	23.3	0.00e+00	0	41	0	350224384	52	5900
2026-01-19 00:08:14.24	151.31	21.89	-39.2	-40.1	23.4	0.00e+00	0	41	0	357564416	52	5795
2026-01-19 00:08:18.28	151.26	22.47	-39.2	-40.1	23.4	0.00e+00	0	41	0	365953024	52	5785
2026-01-19 00:08:22.32	151.20	23.06	-39.0	-40.0	23.6	0.00e+00	0	41	0	373293056	52	5697
2026-01-19 00:08:26.36	151.14	23.66	-39.0	-40.0	23.6	0.00e+00	0	41	0	380633088	52	5700
2026-01-19 00:08:30.40	151.07	24.28	-38.9	-39.8	23.7	0.00e+00	0	41	0	387973120	52	5587
2026-01-19 00:08:34.44	151.00	24.92	-39.0	-39.9	23.6	0.00e+00	0	41	0	395313152	52	5688
2026-01-19 00:08:38.48	150.93	25.57	-39.1	-40.0	23.5	0.00e+00	0	41	0	403701760	52	5711
2026-01-19 00:08:42.52	150.86	26.23	-39.4	-40.3	23.2	0.00e+00	0	41	0	411041792	52	5925
2026-01-19 00:08:46.56	150.78	26.91	-39.8	-40.8	22.8	0.00e+00	0	41	0	418381824	52	6275
2026-01-19 00:08:50.60	150.70	27.61	-40.0	-41.0	22.7	0.00e+00	0	41	0	425721856	52	6401
2026-01-19 00:08:54.63	150.61	28.33	-40.5	-41.5	22.2	0.00e+00	0	41	0	434110464	52	6813
2026-01-19 00:08:58.68	150.52	29.07	-40.8	-41.9	21.9	0.00e+00	0	41	0	441450496	54	6318
2026-01-19 00:09:02.71	150.42	29.83	-41.0	-42.1	21.7	0.00e+00	0	41	0	448790528	54	6492
2026-01-19 00:09:06.75	150.32	30.60	-41.5	-42.6	21.3	0.00e+00	0	41	0	456130560	54	6912
2026-01-19 00:09:10.79	150.21	31.40	-42.3	-43.5	20.5	0.00e+00	0	41	0	463470592	56	6846
2026-01-19 00:09:14.83	150.09	32.22	-42.4	-43.8	20.3	0.00e+00	0	41	0	471859200	56	7022
2026-01-19 00:09:18.87	149.97	33.07	-42.4	-43.7	20.4	0.00e+00	0	41	0	479199232	56	6977
2026-01-19 00:09:22.91	149.84	33.94	-41.4	-42.6	21.4	0.00e+00	0	41	0	486539264	56	6132
2026-01-19 00:09:26.94	149.71	34.83	-40.8	-41.9	22.1	0.00e+00	0	41	0	493879296	56	5639
2026-01-19 00:09:30.98	149.56	35.75	-39.5	-40.4	23.4	0.00e+00	0	41	0	502267904	52	5984
2026-01-19 00:09:35.02	149.41	36.69	-38.8	-39.7	24.0	0.00e+00	0	41	0	509607936	52	5519
2026-01-19 00:09:39.05	149.24	37.66	-38.7	-39.5	24.1	0.00e+00	0	41	0	516947968	50	6087
2026-01-19 00:09:43.09	149.07	38.67	-38.7	-39.6	24.1	0.00e+00	0	41	0	524288000	50	6114
2026-01-19 00:09:47.13	148.88	39.70	-39.3	-40.3	23.4	0.00e+00	0	41	0	531628032	50	6635
2026-01-19 00:09:51.17	148.68	40.76	-40.0	-40.9	22.9	0.00e+00	0	41	0	540016640	52	6386
2026-01-19 00:09:55.21	148.46	41.86	-40.5	-41.5	22.4	0.00e+00	0	41	0	547356672	52	6823
2026-01-19 00:09:59.25	148.23	42.99	-40.4	-41.4	22.4	0.00e+00	0	41	0	554696704	54	5999
2026-01-19 00:10:03.29	147.98	44.15	-40.6	-41.7	22.2	0.00e+00	0	41	0	562036736	54	6195
2026-01-19 00:10:07.33	147.71	45.35	-41.3	-42.4	21.6	0.00e+00	0	41	0	570425344	54	6747
2026-01-19 00:10:11.37	147.42	46.58	-42.4	-43.7	20.5	0.00e+00	0	41	0	577765376	56	6976
2026-01-19 00:10:15.41	147.10	47.85	-42.7	-44.0	20.1	0.00e+00	0	41	0	585105408	58	6462
2026-01-19 00:10:19.45	146.75	49.16	-42.1	-43.4	20.7	0.00e+00	0	41	0	592445440	58	6012
2026-01-19 00:10:23.49	146.37	50.50	-40.2	-41.2	22.6	0.00e+00	0	41	0	599785472	54	5878
2026-01-19 00:10:27.53	145.95	51.89	-37.9	-38.7	24.8	0.00e+00	0	41	0	608174080	50	5562
2026-01-19 00:10:31.57	145.49	53.31	-38.3	-39.1	24.4	0.00e+00	0	41	0	615514112	50	5807
2026-01-19 00:10:35.61	144.98	54.77	-38.4	-39.3	24.4	0.00e+00	0	41	0	622854144	50	5900
2026-01-19 00:10:39.65	144.41	56.28	-40.2	-41.2	22.6	0.00e+00	0	41	0	630194176	52	6568
2026-01-19 00:10:43.69	143.78	57.82	-42.8	-44.2	19.7	0.00e+00	0	41	0	638582784	58	6592
2026-01-19 00:10:47.73	143.06	59.39	-43.9	-45.6	18.6	0.00e+00	0	41	0	645922816	60	6871
2026-01-19 00:10:51.77	142.25	61.01	-40.7	-41.7	22.3	0.00e+00	0	41	0	653262848	56	5538
2026-01-19 00:10:55.81	141.33	62.66	-38.2	-39.1	24.6	0.00e+00	0	41	0	660602880	50	5774
2026-01-19 00:10:59.85	140.27	64.34	-38.5	-39.4	24.2	0.00e+00	0	40	0	667942912	50	5973
2026-01-19 00:11:03.89	139.03	66.05	-39.3	-40.2	23.5	0.00e+00	0	41	0	676331520	50	6613
2026-01-19 00:11:07.93	137.58	67.78	-39.9	-40.8	23.0	0.00e+00	0	41	0	683671552	52	6310
2026-01-19 00:11:11.97	135.86	69.54	-39.9	-40.9	22.9	0.00e+00	0	41	0	691011584	52	6324
2026-01-19 00:11:16.01	133.78	71.31	-39.8	-40.8	22.9	0.00e+00	0	41	0	698351616	52	6251
2026-01-19 00:11:20.05	131.24	73.07	-39.7	-40.6	23.2	0.00e+00	0	41	0	706740224	52	6140
2026-01-19 00:11:24.09	128.07	74.83	-41.5	-42.8	21.2	0.00e+00	0	40	0	714080256	54	7022
2026-01-19 00:11:28.13	124.04	76.55	-41.1	-42.2	21.7	0.00e+00	0	40	0	721420288	54	6548
2026-01-19 00:11:32.18	118.80	78.21	-40.1	-41.1	22.7	0.00e+00	0	41	0	728760320	54	5787
2026-01-19 00:11:36.22	111.87	79.75	-38.7	-39.6	24.0	0.00e+00	0	40	0	736100352	50	6138
2026-01-19 00:11:40.26	102.63	81.11	-39.8	-40.7	23.1	0.00e+00	0	40	0	744488960	52	6213
2026-01-19 00:11:44.30	90.45	82.16	-41.9	-43.1	20.9	0.00e+00	0	40	0	751828992	56	6511
2026-01-19 00:11:48.34	75.37	82.77	-42.5	-43.8	20.3	0.00e+00	0	40	0	759169024	56	7009
2026-01-19 00:11:52.37	58.88	82.83	-42.9	-44.4	19.7	0.00e+00	0	40	0	766509056	58	6705
2026-01-19 00:11:56.41	43.39	82.30	-42.3	-43.6	20.2	0.00e+00	0	40	0	774897664	58	6165
2026-01-19 00:12:00.45	30.68	81.32	-40.6	-41.6	22.3	0.00e+00	0	41	0	782237696	54	6142
2026-01-19 00:12:04.49	20.97	80.00	-40.0	-41.0	22.8	0.00e+00	0	40	0	789577728	54	5699
2026-01-19 00:12:08.53	13.69	78.49	-41.1	-42.2	21.6	0.00e+00	0	41	0	796917760	54	6585
2026-01-19 00:12:12.57	8.21	76.85	-40.6	-41.7	22.2	0.00e+00	0	41	0	804257792	54	6176
2026-01-19 00:12:16.61	3.99	75.14	-40.7	-41.7	22.1	0.00e+00	0	41	0	812646400	54	6235
2026-01-19 00:12:20.65	0.69	73.39	-39.6	-40.6	23.3	0.00e+00	0	41	0	819986432	52	6116
2026-01-19 00:12:24.69	358.05	71.63	-38.0	-38.8	24.6	0.00e+00	0	41	0	827326464	50	5580
2026-01-19 00:12:28.73	355.91	69.87	-39.5	-40.5	23.1	0.00e+00	0	40	0	834666496	50	6770
2026-01-19 00:12:32.76	354.13	68.12	-43.0	-44.5	19.4	0.00e+00	0	40	0	843055104	58	6796
2026-01-19 00:12:36.80	352.64	66.38	-42.8	-44.3	20.0	0.00e+00	0	41	0	850395136	60	5913
2026-01-19 00:12:40.84	351.37	64.67	-39.1	-40.0	23.8	0.00e+00	0	40	0	857735168	52	5699
2026-01-19 00:12:44.88	350.28	62.99	-37.5	-38.3	25.0	0.00e+00	0	40	0	865075200	48	5918
2026-01-19 00:12:48.91	349.34	61.34	-38.1	-38.9	24.6	0.00e+00	0	41	0	872415232	48	6378
2026-01-19 00:12:52.95	348.51	59.72	-41.2	-42.4	21.5	0.00e+00	0	41	0	880803840	54	6699
2026-01-19 00:12:56.99	347.78	58.14	-41.2	-42.4	21.4	0.00e+00	0	41	0	888143872	54	6701
2026-01-19 00:13:01.02	347.13	56.60	-41.5	-42.7	21.2	0.00e+00	0	41	0	895483904	56	6191
2026-01-19 00:13:05.06	346.55	55.10	-39.2	-40.1	23.5	0.00e+00	0	41	0	902823936	52	5771
2026-01-19 00:13:09.10	346.03	53.63	-38.4	-39.2	24.3	0.00e+00	0	40	0	911212544	50	5877
2026-01-19 00:13:13.14	345.57	52.21	-38.8	-39.7	24.0	0.00e+00	0	40	0	918552576	50	6239
2026-01-19 00:13:17.18	345.14	50.82	-41.0	-42.2	21.6	0.00e+00	0	41	0	925892608	54	6567
2026-01-19 00:13:21.22	344.76	49.47	-41.6	-42.8	20.9	0.00e+00	0	41	0	933232640	54	7076
2026-01-19 00:13:25.26	344.40	48.16	-43.9	-45.7	18.5	0.00e+00	0	41	0	940572672	60	6936
2026-01-19 00:13:29.29	344.08	46.89	-41.1	-42.2	22.0	0.00e+00	0	41	0	948961280	56	5852
2026-01-19 00:13:33.33	343.78	45.65	-41.5	-42.7	21.2	0.00e+00	0	41	0	956301312	54	6950
2026-01-19 00:13:37.37	343.51	44.45	-42.4	-43.8	20.1	0.00e+00	0	41	0	963641344	58	6301
2026-01-19 00:13:41.41	343.26	43.29	-40.4	-41.5	22.2	0.00e+00	0	41	0	970981376	54	6067
2026-01-19 00:13:45.44	343.02	42.16	-41.3	-42.5	21.3	0.00e+00	0	41	0	979369984	54	6792
2026-01-19 00:13:49.49	342.80	41.06	-42.5	-43.9	20.2	0.00e+00	0	40	0	986710016	56	7136
2026-01-19 00:13:53.52	342.60	40.00	-41.5	-42.6	21.5	0.00e+00	0	41	0	994050048	56	6158
2026-01-19 00:13:57.56	342.41	38.96	-41.8	-43.0	20.8	0.00e+00	0	41	0	1001390080	56	6450
2026-01-19 00:14:01.60	342.24	37.96	-42.7	-44.1	19.9	0.00e+00	0	40	0	1008730112	56	7309
2026-01-19 00:14:05.63	342.07	36.98	-42.2	-43.6	20.5	0.00e+00	0	40	0	1017118720	58	6108
2026-01-19 00:14:09.67	341.92	36.03	-41.2	-42.3	21.7	0.00e+00	0	40	0	1024458752	56	5909
2026-01-19 00:14:13.71	341.77	35.11	-41.5	-42.6	21.2	0.00e+00	0	40	0	1031798784	56	6172
2026-01-19 00:14:17.75	341.63	34.22	-42.8	-44.2	19.9	0.00e+00	0	41	0	1039138816	56	7385
2026-01-19 00:14:21.78	341.50	33.35	-43.5	-45.1	18.8	0.00e+00	0	41	0	1047527424	58	7336
2026-01-19 00:14:25.82	341.38	32.50	-43.0	-44.5	19.4	0.00e+00	0	40	0	1054867456	58	6793
2026-01-19 00:14:29.86	341.27	31.68	-42.2	-43.6	20.3	0.00e+00	0	40	0	1062207488	58	6120
2026-01-19 00:14:33.90	341.16	30.88	-41.9	-43.2	20.8	0.00e+00	0	40	0	1069547520	58	5831
2026-01-19 00:14:37.94	341.06	30.10	-42.0	-43.2	20.7	0.00e+00	0	41	0	1076887552	58	5873
2026-01-19 00:14:41.98	340.96	29.34	-41.8	-43.0	21.0	0.00e+00	0	41	0	1085276160	56	6429
2026-01-19 00:14:46.02	340.87	28.60	-41.6	-42.8	21.1	0.00e+00	0	40	0	1092616192	56	6308
2026-01-19 00:14:50.05	340.78	27.88	-41.1	-42.3	21.5	0.00e+00	0	40	0	1099956224	56	5908
2026-01-19 00:14:54.09	340.70	27.18	-40.3	-41.3	22.4	0.00e+00	0	40	0	1107296256	54	5941
2026-01-19 00:14:58.13	340.62	26.50	-39.9	-40.9	22.8	0.00e+00	0	41	0	1115684864	54	5678
2026-01-19 00:15:02.17	340.55	25.83	-39.6	-40.6	22.9	0.00e+00	0	40	0	1123024896	52	6140
2026-01-19 00:15:06.21	340.48	25.18	-39.8	-40.7	22.9	0.00e+00	0	40	0	1130364928	52	6240
2026-01-19 00:15:10.24	340.41	24.54	-39.7	-40.6	22.9	0.00e+00	0	40	0	1137704960	52	6157
2026-01-19 00:15:14.28	340.35	23.92	-39.6	-40.6	23.0	0.00e+00	0	40	0	1145044992	52	6127
2026-01-19 00:15:18.32	340.29	23.32	-39.6	-40.5	23.0	0.00e+00	0	40	0	1153433600	52	6100
2026-01-19 00:15:22.35	340.23	22.73	-39.4	-40.3	23.2	0.00e+00	0	40	0	1160773632	52	5945
2026-01-19 00:15:26.39	340.18	22.15	-39.3	-40.2	23.3	0.00e+00	0	40	0	1168113664	52	5868
2026-01-19 00:15:30.43	340.12	21.58	-39.4	-40.4	23.1	0.00e+00	0	40	0	1175453696	52	6000
2026-01-19 00:15:34.47	340.07	21.03	-39.9	-40.9	22.5	0.00e+00	0	40	0	1183842304	52	6350
2026-01-19 00:15:38.51	340.03	20.49	-40.1	-41.2	22.3	0.00e+00	0	40	0	1191182336	52	6546
2026-01-19 00:15:42.55	339.98	19.96	-40.3	-41.3	22.1	0.00e+00	0	40	0	1198522368	52	6665
2026-01-19 00:15:46.59	339.94	19.44	-40.3	-41.4	21.9	0.00e+00	0	41	0	1205862400	52	6724
2026-01-19 00:15:50.63	339.90	18.93	-40.1	-41.2	22.1	0.00e+00	0	40	0	1213202432	52	6579
2026-01-19 00:15:54.67	339.86	18.43	-40.2	-41.3	21.8	0.00e+00	0	40	0	1221591040	52	6663
2026-01-19 00:15:58.71	339.82	17.94	-40.3	-41.4	21.7	0.00e+00	0	41	0	1228931072	52	6722
2026-01-19 00:16:02.74	339.78	17.46	-40.4	-41.5	21.5	0.00e+00	0	40	0	1236271104	52	6842
2026-01-19 00:16:06.78	339.75	16.99	-40.6	-41.8	21.4	0.00e+00	0	40	0	1243611136	54	6247
2026-01-19 00:16:10.82	339.72	16.53	-40.8	-42.0	21.0	0.00e+00	0	40	0	1251999744	54	6452
2026-01-19 00:16:14.86	339.68	16.08	-40.8	-42.0	21.2	0.00e+00	0	40	0	1259339776	54	6440
2026-01-19 00:16:18.90	339.65	15.64	-40.8	-42.1	21.1	0.00e+00	0	40	0	1266679808	54	6470
2026-01-19 00:16:22.93	339.63	15.20	-40.8	-42.1	21.2	0.00e+00	0	40	0	1274019840	54	6483
2026-01-19 00:16:26.97	339.60	14.77	-40.7	-41.9	21.3	0.00e+00	0	40	0	1281359872	54	6373
2026-01-19 00:16:31.01	339.57	14.35	-40.7	-41.9	21.4	0.00e+00	0	41	0	1289748480	54	6360
2026-01-19 00:16:35.05	339.55	13.94	-40.9	-42.1	21.3	0.00e+00	0	40	0	1297088512	54	6512
2026-01-19 00:16:39.09	339.52	13.53	-40.9	-42.1	21.2	0.00e+00	0	40	0	1304428544	54	6517
2026-01-19 00:16:43.13	339.50	13.13	-40.9	-42.2	21.1	0.00e+00	0	40	0	1311768576	54	6568
2026-01-19 00:16:47.17	339.48	12.74	-41.1	-42.5	20.7	0.00e+00	0	41	0	1320157184	54	6784
2026-01-19 00:16:51.21	339.46	12.35	-41.3	-42.8	20.4	0.00e+00	0	41	0	1327497216	54	7038
2026-01-19 00:16:55.25	339.44	11.97	-41.7	-43.2	20.3	0.00e+00	0	40	0	1334837248	56	6549
2026-01-19 00:16:59.29	339.42	11.59	-41.7	-43.2	20.2	0.00e+00	0	41	0	1342177280	56	6565
2026-01-19 00:17:03.33	339.40	11.22	-41.7	-43.2	20.0	0.00e+00	0	40	0	1349517312	56	6583
2026-01-19 00:17:07.36	339.39	10.86	-41.6	-43.2	20.0	0.00e+00	0	41	0	1357905920	56	6552
2026-01-19 00:17:11.40	339.37	10.50	-41.6	-43.2	20.0	0.00e+00	0	40	0	1365245952	56	6578
2026-01-19 00:17:15.44	339.35	10.15	-41.6	-43.1	19.9	0.00e+00	0	40	0	1372585984	56	6537
2026-01-19 00:17:19.47	339.34	9.80	-41.5	-43.0	20.1	0.00e+00	0	41	0	1379926016	56	6455
2026-01-19 00:17:23.51	339.33	9.45	-41.4	-42.8	20.3	0.00e+00	0	41	0	1388314624	56	6312
2026-01-19 00:17:27.55	339.31	9.11	-41.6	-43.0	20.1	0.00e+00	0	41	0	1395654656	56	6462
2026-01-19 00:17:31.59	339.30	8.78	-41.3	-42.7	20.3	0.00e+00	0	41	0	1402994688	56	6238
2026-01-19 00:17:35.62	339.29	8.45	-41.3	-42.7	20.4	0.00e+00	0	40	0	1410334720	56	6181
2026-01-19 00:17:39.66	339.28	8.12	-41.3	-42.7	20.3	0.00e+00	0	40	0	1417674752	56	6219
2026-01-19 00:17:43.70	339.27	7.80	-41.3	-42.7	20.3	0.00e+00	0	41	0	1426063360	56	6233
2026-01-19 00:17:47.74	339.26	7.48	-41.5	-43.0	20.0	0.00e+00	0	40	0	1433403392	56	6419
2026-01-19 00:17:51.77	339.25	7.17	-41.3	-42.7	20.2	0.00e+00	0	40	0	1440743424	56	6232
2026-01-19 00:17:55.81	339.24	6.86	-41.6	-43.1	19.6	0.00e+00	0	40	0	1448083456	56	6524
2026-01-19 00:17:59.85	339.23	6.55	-41.6	-43.1	19.7	0.00e+00	0	41	0	1456472064	56	6474
2026-01-19 00:18:03.89	339.23	6.25	-42.5	-44.2	18.8	0.00e+00	0	40	0	1463812096	56	7354
2026-01-19 00:18:07.93	339.22	5.95	-42.7	-44.6	18.1	0.00e+00	0	40	0	1471152128	58	6860
2026-01-19 00:18:11.97	339.21	5.65	-42.9	-44.8	17.4	0.00e+00	0	40	0	1478492160	58	7080
2026-01-19 00:18:16.01	339.21	5.36	-43.1	-45.4	16.3	0.00e+00	0	41	0	1485832192	58	7529
2026-01-19 00:18:20.04	339.20	5.07	-43.9	-47.1	14.1	7.00e-07	0	41	0	1494220800	60	8192
2026-01-19 00:18:24.08	339.20	4.79	-44.9	-50.1	10.1	3.96e-03	0	41	0	1501560832	60	11559
2026-01-19 00:18:28.12	339.19	4.50	-45.2	-52.8	6.1	1.54e-01	0	41	0	1508900864	60	15755
2026-01-19 00:18:32.16	339.19	4.22	-45.3	-55.1	4.1	1.03e+00	21	41	0	1516240896	60	20525
2026-01-19 00:18:36.20	339.18	3.95	-45.3	-59.0	3.6	1.51e+00	0	41	104	1517289472	60	32049
2026-01-19 00:18:40.24	339.18	3.67	-45.3	-59.9	3.6	1.51e+00	0	41	104	1517289472	60	35675
2026-01-19 00:18:44.28	339.18	3.40	-45.3	-60.3	3.6	1.51e+00	0	41	104	1517289472	60	37511
2026-01-19 00:18:48.32	339.17	3.13	-45.3	-60.4	3.6	1.51e+00	0	41	104	1517289472	60	37833
2026-01-19 00:18:52.36	339.17	2.86	-48.2	-63.4	3.6	1.51e+00	0	41	104	1517289472	60	53597
2026-01-19 00:18:56.40	339.17	2.60	-49.8	-65.0	3.6	1.51e+00	0	41	104	1517289472	60	64430
2026-01-19 00:19:00.44	339.17	2.34	-50.1	-65.3	3.6	1.51e+00	0	41	104	1517289472	60	66503
2026-01-19 00:19:04.48	339.17	2.08	-50.0	-65.3	3.6	1.51e+00	0	41	104	1517289472	60	66841
2026-01-19 00:19:08.52	339.17	1.82	-49.9	-65.1	3.6	1.51e+00	0	41	104	1517289472	60	65073
2026-01-19 00:19:12.55	339.17	1.57	-50.0	-65.2	3.6	1.51e+00	0	41	104	1517289472	60	65544
2026-01-19 00:19:16.59	339.17	1.31	-50.0	-65.2	3.6	1.51e+00	0	41	104	1517289472	60	65981
2026-01-19 00:19:20.63	339.17	1.06	-50.0	-65.2	3.6	1.51e+00	0	41	104	1517289472	60	65412
2026-01-19 00:19:24.68	339.17	0.81	-50.0	-65.2	3.6	1.51e+00	0	41	104	1517289472	60	65956
2026-01-19 00:19:28.72	339.17	0.57	-50.0	-65.2	3.6	1.51e+00	0	41	104	1517289472	60	65781
2026-01-19 00:19:32.76	339.17	0.32	-50.0	-65.2	3.6	1.51e+00	0	41	104	1517289472	60	65829
2026-01-19 00:19:36.79	339.17	0.08	-50.0	-65.2	3.6	1.51e+00	0	41	104	1517289472	60	65687

#Closed at: 2026-01-19 00:19:39
#Recorded file [1517 MB]: D:/lorett/data/35029_260119_120407.dat