passes_logs/2026/01/19/R4.6S_Anadyr/R4.6S_Anadyr__20260119_174819_FENGYUN_3D_rec.log

#Pass ID: 20260119_174819_FENGYUN 3D
#Satellite: FENGYUN 3D
#Configuration: FENGYUN 3D
#almurnet v.1.7.20251203
#Start time: 2026-01-19 17:48:22

#Version: 2.2.20231116
#Station: R4.6S_Anadyr
#Location: 177.4865 lon 64.73178 lat
#TLE: 1 43010U 17072A   26018.95027258  .00000058  00000+0  49274-4 0  9992
#TLE: 2 43010  98.9939 350.8271 0002416 102.0826 258.0620 14.19696908423819

#Time	Az	El	Level	Level2	SNR	BER	BlckErr	Temp	State	Recorded	gain1	gain2
2026-01-19 17:48:22.81	23.71	0.18	-52.8	-63.6	3.3	8.40e-01	0	38	0	0	60	54421
2026-01-19 17:48:26.84	23.62	0.42	-49.9	-62.1	3.6	8.44e-01	0	38	104	0	60	45930
2026-01-19 17:48:30.88	23.52	0.66	-49.7	-61.9	3.6	8.45e-01	0	38	104	0	60	44897
2026-01-19 17:48:34.93	23.43	0.90	-49.5	-61.6	3.6	8.45e-01	0	39	104	0	60	43706
2026-01-19 17:48:38.97	23.34	1.15	-49.0	-61.1	3.6	8.45e-01	0	39	104	0	60	41051
2026-01-19 17:48:43.01	23.24	1.40	-48.5	-60.6	3.6	8.45e-01	0	39	104	0	60	38533
2026-01-19 17:48:47.05	23.14	1.64	-48.1	-60.3	3.6	8.44e-01	0	39	104	0	60	37328
2026-01-19 17:48:51.09	23.04	1.90	-48.1	-60.0	3.6	8.44e-01	0	39	104	0	60	36002
2026-01-19 17:48:55.14	22.93	2.15	-48.0	-60.0	3.6	8.44e-01	0	39	104	0	60	36346
2026-01-19 17:48:59.18	22.83	2.41	-48.1	-60.1	3.6	8.46e-01	0	39	104	0	60	36612
2026-01-19 17:49:03.22	22.72	2.66	-48.0	-59.9	3.6	8.45e-01	0	39	104	0	60	35660
2026-01-19 17:49:07.26	22.61	2.92	-48.0	-58.9	3.6	8.45e-01	0	39	104	0	60	31990
2026-01-19 17:49:11.30	22.50	3.19	-48.0	-59.3	3.6	8.44e-01	0	39	104	0	60	33517
2026-01-19 17:49:15.33	22.38	3.45	-48.0	-59.2	3.5	8.45e-01	0	39	104	0	60	33002
2026-01-19 17:49:19.37	22.27	3.72	-48.0	-57.9	3.7	8.43e-01	0	39	104	0	60	28408
2026-01-19 17:49:23.41	22.15	3.99	-47.8	-57.5	3.7	8.45e-01	0	39	104	0	60	27231
2026-01-19 17:49:27.44	22.03	4.26	-38.2	-39.1	20.3	0.00e+00	0	39	0	15728640	50	5823
2026-01-19 17:49:31.48	21.90	4.53	-38.1	-39.0	20.4	0.00e+00	0	39	0	38797312	48	6449
2026-01-19 17:49:35.52	21.78	4.81	-38.0	-39.0	20.6	0.00e+00	0	39	0	60817408	48	6396
2026-01-19 17:49:39.56	21.65	5.09	-37.3	-38.2	21.3	0.00e+00	0	39	0	83886080	48	5839
2026-01-19 17:49:43.61	21.51	5.38	-36.9	-37.8	21.7	0.00e+00	0	39	0	106954752	48	5582
2026-01-19 17:49:47.65	21.38	5.66	-36.4	-37.2	22.3	0.00e+00	0	39	0	128974848	46	5852
2026-01-19 17:49:51.69	21.24	5.95	-36.5	-37.3	22.4	0.00e+00	0	39	0	152043520	46	5934
2026-01-19 17:49:55.74	21.10	6.24	-36.1	-36.9	22.7	0.00e+00	0	39	0	175112192	46	5644
2026-01-19 17:49:59.78	20.95	6.54	-36.0	-36.7	22.9	0.00e+00	0	39	0	197132288	46	5551
2026-01-19 17:50:03.82	20.80	6.84	-36.2	-36.9	22.7	0.00e+00	0	39	0	220200960	46	5664
2026-01-19 17:50:07.86	20.65	7.14	-35.8	-36.5	23.0	0.00e+00	0	39	0	243269632	44	6090
2026-01-19 17:50:11.90	20.49	7.45	-35.6	-36.3	23.2	0.00e+00	0	39	0	265289728	44	5945
2026-01-19 17:50:15.94	20.34	7.75	-35.5	-36.2	23.5	0.00e+00	0	39	0	288358400	44	5872
2026-01-19 17:50:19.98	20.17	8.07	-35.4	-36.2	23.4	0.00e+00	0	39	0	311427072	44	5846
2026-01-19 17:50:24.02	20.01	8.38	-35.2	-35.9	23.7	0.00e+00	0	39	0	333447168	44	5674
2026-01-19 17:50:28.06	19.83	8.70	-35.2	-35.9	23.8	0.00e+00	0	39	0	356515840	44	5690
2026-01-19 17:50:32.10	19.66	9.03	-35.3	-36.0	23.7	0.00e+00	0	39	0	379584512	44	5715
2026-01-19 17:50:36.15	19.48	9.35	-35.4	-36.1	23.7	0.00e+00	0	39	0	401604608	44	5827
2026-01-19 17:50:40.19	19.30	9.69	-35.4	-36.1	23.6	0.00e+00	0	39	0	424673280	44	5800
2026-01-19 17:50:44.22	19.11	10.02	-35.6	-36.4	23.5	0.00e+00	0	39	0	447741952	44	5980
2026-01-19 17:50:48.26	18.91	10.36	-35.6	-36.4	23.4	0.00e+00	0	39	0	469762048	44	5984
2026-01-19 17:50:52.30	18.72	10.70	-35.1	-35.8	24.0	0.00e+00	0	39	0	492830720	44	5607
2026-01-19 17:50:56.34	18.51	11.05	-35.2	-35.9	24.0	0.00e+00	0	39	0	515899392	44	5668
2026-01-19 17:51:00.39	18.30	11.41	-35.0	-35.7	24.0	0.00e+00	0	39	0	538968064	44	5564
2026-01-19 17:51:04.43	18.09	11.77	-34.8	-35.5	24.4	0.00e+00	0	39	0	560988160	42	6078
2026-01-19 17:51:08.46	17.87	12.13	-34.5	-35.2	24.7	0.00e+00	0	39	0	584056832	42	5871
2026-01-19 17:51:12.51	17.64	12.50	-34.4	-35.0	24.9	0.00e+00	0	39	0	606076928	42	5756
2026-01-19 17:51:16.54	17.41	12.87	-34.1	-34.8	25.1	0.00e+00	0	39	0	629145600	42	5603
2026-01-19 17:51:20.58	17.17	13.25	-34.2	-34.9	25.0	0.00e+00	0	39	0	652214272	42	5663
2026-01-19 17:51:24.62	16.93	13.63	-34.1	-34.8	25.2	0.00e+00	0	39	0	674234368	42	5569
2026-01-19 17:51:28.66	16.68	14.02	-34.2	-34.9	25.1	0.00e+00	0	39	0	697303040	42	5632
2026-01-19 17:51:32.70	16.42	14.42	-34.0	-34.7	25.2	0.00e+00	0	39	0	720371712	42	5524
2026-01-19 17:51:36.75	16.15	14.82	-34.0	-34.7	25.3	0.00e+00	0	39	0	743440384	42	5526
2026-01-19 17:51:40.79	15.88	15.23	-33.8	-34.4	25.5	0.00e+00	0	39	0	765460480	42	5356
2026-01-19 17:51:44.83	15.59	15.64	-33.6	-34.2	25.7	0.00e+00	0	39	0	788529152	40	5896
2026-01-19 17:51:48.87	15.30	16.06	-33.5	-34.1	25.8	0.00e+00	0	39	0	810549248	40	5817
2026-01-19 17:51:52.91	15.00	16.49	-33.2	-33.9	25.9	0.00e+00	0	39	0	833617920	40	5659
2026-01-19 17:51:56.95	14.69	16.92	-33.3	-34.0	25.9	0.00e+00	0	39	0	856686592	40	5714
2026-01-19 17:52:00.95	14.38	17.36	-33.2	-33.8	26.0	0.00e+00	0	39	0	878706688	40	5625
2026-01-19 17:52:04.99	14.05	17.80	-33.1	-33.8	26.1	0.00e+00	0	39	0	901775360	40	5603
2026-01-19 17:52:09.04	13.71	18.26	-32.7	-33.3	26.5	0.00e+00	0	39	0	924844032	38	5943
2026-01-19 17:52:13.07	13.36	18.72	-32.5	-33.2	26.7	0.00e+00	0	39	0	947912704	38	5842
2026-01-19 17:52:17.12	13.00	19.19	-32.6	-33.3	26.6	0.00e+00	0	39	0	969932800	38	5911
2026-01-19 17:52:21.16	12.63	19.67	-32.6	-33.3	26.6	0.00e+00	0	39	0	993001472	38	5917
2026-01-19 17:52:25.20	12.24	20.15	-32.5	-33.1	26.7	0.00e+00	0	39	0	1015021568	38	5818
2026-01-19 17:52:29.24	11.84	20.64	-32.1	-32.8	27.1	0.00e+00	0	39	0	1038090240	38	5568
2026-01-19 17:52:33.29	11.43	21.15	-32.0	-32.6	27.2	0.00e+00	0	39	0	1061158912	38	5488
2026-01-19 17:52:37.33	11.01	21.66	-32.2	-32.8	27.0	0.00e+00	0	40	0	1084227584	38	5591
2026-01-19 17:52:41.37	10.57	22.18	-32.2	-32.8	26.9	0.00e+00	0	39	0	1106247680	38	5630
2026-01-19 17:52:45.41	10.11	22.70	-32.2	-32.8	27.0	0.00e+00	0	39	0	1129316352	38	5595
2026-01-19 17:52:49.45	9.64	23.24	-31.5	-32.1	27.5	0.00e+00	0	39	0	1152385024	36	5819
2026-01-19 17:52:53.49	9.15	23.79	-31.6	-32.2	27.4	0.00e+00	0	39	0	1174405120	36	5890
2026-01-19 17:52:57.53	8.64	24.34	-31.7	-32.4	27.4	0.00e+00	0	39	0	1197473792	36	5982
2026-01-19 17:53:01.57	8.11	24.90	-31.3	-32.0	27.7	0.00e+00	0	39	0	1220542464	36	5708
2026-01-19 17:53:05.61	7.57	25.48	-31.3	-31.9	27.8	0.00e+00	0	39	0	1242562560	36	5657
2026-01-19 17:53:09.65	7.00	26.06	-31.4	-32.0	27.7	0.00e+00	0	39	0	1265631232	36	5728
2026-01-19 17:53:13.70	6.41	26.66	-31.4	-32.0	27.7	0.00e+00	0	39	0	1288699904	36	5751
2026-01-19 17:53:17.74	5.79	27.26	-31.0	-31.6	28.0	0.00e+00	0	39	0	1310720000	36	5483
2026-01-19 17:53:21.78	5.16	27.87	-31.3	-31.9	27.8	0.00e+00	0	40	0	1333788672	36	5656
2026-01-19 17:53:25.81	4.50	28.49	-31.4	-32.0	27.7	0.00e+00	0	39	0	1356857344	36	5739
2026-01-19 17:53:29.86	3.81	29.12	-31.0	-31.6	28.1	0.00e+00	0	39	0	1378877440	36	5480
2026-01-19 17:53:33.90	3.09	29.76	-31.1	-31.7	28.0	0.00e+00	0	39	0	1401946112	36	5539
2026-01-19 17:53:37.94	2.34	30.42	-31.4	-32.0	27.7	0.00e+00	0	39	0	1425014784	36	5697
2026-01-19 17:53:41.98	1.56	31.07	-31.1	-31.7	28.0	0.00e+00	0	40	0	1447034880	36	5525
2026-01-19 17:53:46.02	0.75	31.74	-30.7	-31.3	28.2	0.00e+00	0	39	0	1470103552	34	5939
2026-01-19 17:53:50.06	359.90	32.42	-30.9	-31.5	28.1	0.00e+00	0	39	0	1493172224	34	6045
2026-01-19 17:53:54.10	359.02	33.10	-30.8	-31.4	28.3	0.00e+00	0	40	0	1515192320	34	5997
2026-01-19 17:53:58.14	358.09	33.80	-30.8	-31.4	28.3	0.00e+00	0	40	0	1538260992	34	6004
2026-01-19 17:54:02.18	357.13	34.50	-31.0	-31.6	28.1	0.00e+00	0	40	0	1561329664	34	6164
2026-01-19 17:54:06.22	356.12	35.20	-31.1	-31.7	27.7	0.00e+00	0	39	0	1584398336	34	6230
2026-01-19 17:54:10.26	355.07	35.91	-31.1	-31.7	28.0	0.00e+00	0	40	0	1606418432	34	6206
2026-01-19 17:54:14.30	353.97	36.63	-30.6	-31.3	28.3	0.00e+00	0	40	0	1629487104	34	5904
2026-01-19 17:54:18.34	352.82	37.34	-31.0	-31.6	28.1	0.00e+00	0	39	0	1651507200	34	6157
2026-01-19 17:54:22.38	351.62	38.06	-30.7	-31.4	28.2	0.00e+00	0	39	0	1674575872	34	5976
2026-01-19 17:54:26.42	350.36	38.78	-30.9	-31.5	28.1	0.00e+00	0	39	0	1697644544	34	6041
2026-01-19 17:54:30.46	349.04	39.50	-30.8	-31.4	28.3	0.00e+00	0	39	0	1719664640	34	5976
2026-01-19 17:54:34.50	347.67	40.22	-31.3	-31.9	27.8	0.00e+00	0	39	0	1742733312	34	6324
2026-01-19 17:54:38.55	346.23	40.93	-30.9	-31.5	28.2	0.00e+00	0	39	0	1765801984	34	6095
2026-01-19 17:54:42.59	344.72	41.63	-31.1	-31.7	27.9	0.00e+00	0	40	0	1788870656	34	6200
2026-01-19 17:54:46.62	343.16	42.32	-30.8	-31.4	28.2	0.00e+00	0	39	0	1810890752	34	6004
2026-01-19 17:54:50.67	341.52	43.00	-30.9	-31.5	28.1	0.00e+00	0	39	0	1833959424	34	6079
2026-01-19 17:54:54.71	339.81	43.67	-31.1	-31.7	28.0	0.00e+00	0	39	0	1855979520	34	6213
2026-01-19 17:54:58.75	338.03	44.31	-31.2	-31.8	27.9	0.00e+00	0	39	0	1879048192	34	6289
2026-01-19 17:55:02.79	336.17	44.93	-31.2	-31.7	27.9	0.00e+00	0	40	0	1902116864	34	6244
2026-01-19 17:55:06.83	334.24	45.53	-31.0	-31.7	28.1	0.00e+00	0	39	0	1925185536	34	6175
2026-01-19 17:55:10.87	332.24	46.10	-31.1	-31.7	28.1	0.00e+00	0	40	0	1947205632	34	6176
2026-01-19 17:55:14.90	330.18	46.64	-32.1	-32.7	27.5	0.00e+00	0	39	0	1970274304	36	6212
2026-01-19 17:55:18.95	328.03	47.14	-32.0	-32.7	27.5	0.00e+00	0	39	0	1993342976	36	6189
2026-01-19 17:55:22.99	325.82	47.60	-32.2	-32.9	27.3	0.00e+00	0	39	0	2015363072	36	6336
2026-01-19 17:55:27.03	323.54	48.02	-32.2	-32.8	27.6	0.00e+00	0	40	0	2038431744	36	6252
2026-01-19 17:55:31.07	321.21	48.39	-32.3	-32.9	27.2	0.00e+00	0	40	0	2060451840	36	6375
2026-01-19 17:55:35.11	318.83	48.71	-32.3	-33.0	27.2	0.00e+00	0	39	0	2083520512	36	6394
2026-01-19 17:55:39.15	316.39	48.97	-32.0	-32.7	27.3	0.00e+00	0	40	0	2106589184	36	6180
2026-01-19 17:55:43.19	313.92	49.19	-31.9	-32.6	27.6	0.00e+00	0	39	0	2129657856	36	6105
2026-01-19 17:55:47.23	311.42	49.34	-32.3	-32.9	27.3	0.00e+00	0	39	0	2151677952	36	6356
2026-01-19 17:55:51.28	308.89	49.44	-33.1	-33.7	27.2	0.00e+00	0	39	0	2174746624	38	6230
2026-01-19 17:55:55.32	306.36	49.47	-32.1	-32.7	27.6	0.00e+00	0	40	0	2197815296	38	5525
2026-01-19 17:55:59.36	303.82	49.45	-31.7	-32.3	27.9	0.00e+00	0	40	0	2219835392	36	5957
2026-01-19 17:56:03.40	301.30	49.37	-32.3	-33.0	27.4	0.00e+00	0	40	0	2242904064	36	6392
2026-01-19 17:56:07.45	298.78	49.22	-32.4	-33.0	27.3	0.00e+00	0	40	0	2265972736	36	6412
2026-01-19 17:56:11.48	296.31	49.02	-32.6	-33.1	27.8	0.00e+00	0	40	0	2287992832	36	6514
2026-01-19 17:56:15.51	293.87	48.77	-32.7	-33.4	27.6	0.00e+00	0	40	0	2311061504	38	5983
2026-01-19 17:56:19.56	291.47	48.46	-32.2	-32.8	27.7	0.00e+00	0	40	0	2334130176	38	5624
2026-01-19 17:56:23.60	289.12	48.10	-31.4	-32.0	27.9	0.00e+00	0	39	0	2356150272	36	5748
2026-01-19 17:56:27.64	286.83	47.69	-31.4	-32.1	27.8	0.00e+00	0	40	0	2379218944	36	5798
2026-01-19 17:56:31.68	284.60	47.24	-31.9	-32.6	27.7	0.00e+00	0	40	0	2402287616	36	6158
2026-01-19 17:56:35.72	282.44	46.74	-31.7	-32.4	27.9	0.00e+00	0	40	0	2425356288	36	6008
2026-01-19 17:56:39.76	280.35	46.21	-31.3	-32.0	28.2	0.00e+00	0	40	0	2447376384	36	5717
2026-01-19 17:56:43.81	278.33	45.65	-31.5	-32.1	28.2	0.00e+00	0	40	0	2470445056	36	5816
2026-01-19 17:56:47.85	276.38	45.06	-31.4	-31.9	28.2	0.00e+00	0	40	0	2492465152	36	5687
2026-01-19 17:56:51.89	274.51	44.44	-31.3	-31.8	28.4	0.00e+00	0	40	0	2515533824	36	5614
2026-01-19 17:56:55.93	272.71	43.79	-31.7	-32.2	28.3	0.00e+00	0	39	0	2538602496	36	5876
2026-01-19 17:56:59.97	270.98	43.13	-31.0	-31.5	28.4	0.00e+00	0	39	0	2560622592	36	5414
2026-01-19 17:57:04.01	269.32	42.45	-31.0	-31.6	28.3	0.00e+00	0	40	0	2583691264	34	6121
2026-01-19 17:57:08.05	267.74	41.76	-30.8	-31.5	28.4	0.00e+00	0	40	0	2606759936	34	6059
2026-01-19 17:57:12.09	266.22	41.06	-31.1	-31.7	28.2	0.00e+00	0	40	0	2629828608	34	6208
2026-01-19 17:57:16.13	264.76	40.35	-31.1	-31.7	28.1	0.00e+00	0	40	0	2651848704	34	6192
2026-01-19 17:57:20.17	263.37	39.63	-31.3	-32.0	28.0	0.00e+00	0	40	0	2674917376	34	6393
2026-01-19 17:57:24.22	262.04	38.91	-31.2	-31.7	28.0	0.00e+00	0	40	0	2696937472	34	6206
2026-01-19 17:57:28.25	260.77	38.19	-30.7	-31.3	27.8	0.00e+00	0	40	0	2720006144	34	5915
2026-01-19 17:57:32.29	259.55	37.47	-30.7	-31.3	28.4	0.00e+00	0	40	0	2743074816	34	5941
2026-01-19 17:57:36.33	258.39	36.75	-30.4	-30.9	28.5	0.00e+00	0	40	0	2766143488	34	5655
2026-01-19 17:57:40.37	257.27	36.03	-30.7	-31.2	28.5	0.00e+00	0	40	0	2788163584	34	5864
2026-01-19 17:57:44.40	256.21	35.32	-30.5	-31.1	28.5	0.00e+00	0	40	0	2811232256	34	5795
2026-01-19 17:57:48.44	255.19	34.61	-30.4	-31.0	28.5	0.00e+00	0	40	0	2834300928	34	5697
2026-01-19 17:57:52.48	254.21	33.91	-30.4	-31.1	28.5	0.00e+00	0	40	0	2856321024	34	5792
2026-01-19 17:57:56.52	253.28	33.21	-30.7	-31.4	28.3	0.00e+00	0	39	0	2879389696	34	6003
2026-01-19 17:58:00.56	252.38	32.52	-30.8	-31.4	28.2	0.00e+00	0	40	0	2901409792	34	5991
2026-01-19 17:58:04.60	251.53	31.84	-30.9	-31.6	28.0	0.00e+00	0	39	0	2924478464	34	6104
2026-01-19 17:58:08.64	250.70	31.17	-31.1	-31.7	27.8	0.00e+00	0	39	0	2947547136	34	6204
2026-01-19 17:58:12.67	249.92	30.51	-31.2	-31.7	27.7	0.00e+00	0	39	0	2970615808	34	6222
2026-01-19 17:58:16.71	249.16	29.85	-31.1	-31.7	27.8	0.00e+00	0	39	0	2992635904	34	6179
2026-01-19 17:58:20.75	248.43	29.21	-31.2	-31.8	27.6	0.00e+00	0	40	0	3015704576	34	6264
2026-01-19 17:58:24.79	247.74	28.57	-31.2	-31.9	27.7	0.00e+00	0	39	0	3038773248	34	6363
2026-01-19 17:58:28.83	247.07	27.94	-31.3	-31.8	27.7	0.00e+00	0	40	0	3060793344	34	6288
2026-01-19 17:58:32.87	246.42	27.33	-31.6	-32.3	27.4	0.00e+00	0	40	0	3083862016	34	6647
2026-01-19 17:58:36.91	245.80	26.72	-31.5	-32.2	27.4	0.00e+00	0	39	0	3105882112	34	6587
2026-01-19 17:58:40.94	245.21	26.13	-31.4	-31.9	27.6	0.00e+00	0	40	0	3128950784	34	6378
2026-01-19 17:58:44.98	244.63	25.54	-31.3	-31.9	27.6	0.00e+00	0	40	0	3152019456	34	6344
2026-01-19 17:58:49.02	244.08	24.96	-31.2	-31.9	27.6	0.00e+00	0	39	0	3175088128	34	6345
2026-01-19 17:58:53.06	243.54	24.39	-31.4	-32.0	27.6	0.00e+00	0	40	0	3197108224	34	6451
2026-01-19 17:58:57.10	243.03	23.83	-31.5	-32.0	27.4	0.00e+00	0	40	0	3220176896	34	6437
2026-01-19 17:59:01.14	242.53	23.28	-31.4	-31.9	27.5	0.00e+00	0	40	0	3243245568	34	6377
2026-01-19 17:59:05.18	242.06	22.74	-31.4	-32.0	27.4	0.00e+00	0	40	0	3265265664	34	6400
2026-01-19 17:59:09.22	241.59	22.21	-31.8	-32.4	27.2	0.00e+00	0	40	0	3288334336	36	6032
2026-01-19 17:59:13.26	241.15	21.69	-31.9	-32.6	27.2	0.00e+00	0	40	0	3310354432	36	6107
2026-01-19 17:59:17.30	240.72	21.18	-31.9	-32.6	27.1	0.00e+00	0	40	0	3333423104	36	6130
2026-01-19 17:59:21.33	240.30	20.67	-31.8	-32.4	27.1	0.00e+00	0	40	0	3356491776	36	5994
2026-01-19 17:59:25.37	239.90	20.18	-32.0	-32.5	27.1	0.00e+00	0	40	0	3378511872	36	6082
2026-01-19 17:59:29.41	239.51	19.69	-32.1	-32.7	27.0	0.00e+00	0	40	0	3401580544	36	6190
2026-01-19 17:59:33.45	239.13	19.21	-32.3	-33.0	26.8	0.00e+00	0	40	0	3424649216	36	6402
2026-01-19 17:59:37.49	238.76	18.74	-32.6	-33.3	26.6	0.00e+00	0	40	0	3447717888	36	6633
2026-01-19 17:59:41.53	238.41	18.27	-32.8	-33.4	26.4	0.00e+00	0	40	0	3469737984	38	5993
2026-01-19 17:59:45.58	238.06	17.81	-33.0	-33.6	26.1	0.00e+00	0	40	0	3492806656	38	6105
2026-01-19 17:59:49.61	237.73	17.37	-32.8	-33.5	26.3	0.00e+00	0	40	0	3514826752	38	6074
2026-01-19 17:59:53.66	237.41	16.92	-33.0	-33.5	26.2	0.00e+00	0	40	0	3537895424	38	6079
2026-01-19 17:59:57.70	237.10	16.49	-33.0	-33.7	26.2	0.00e+00	0	40	0	3560964096	38	6207
2026-01-19 18:00:01.73	236.79	16.06	-33.2	-33.8	26.0	0.00e+00	0	40	0	3584032768	38	6261
2026-01-19 18:00:05.77	236.50	15.64	-33.6	-34.2	25.7	0.00e+00	0	40	0	3606052864	38	6546
2026-01-19 18:00:09.81	236.21	15.22	-33.6	-34.4	25.5	0.00e+00	0	40	0	3629121536	38	6704
2026-01-19 18:00:13.85	235.93	14.81	-33.8	-34.4	25.3	0.00e+00	0	40	0	3652190208	40	6010
2026-01-19 18:00:17.89	235.66	14.41	-34.5	-35.3	24.7	0.00e+00	0	40	0	3674210304	40	6617
2026-01-19 18:00:21.93	235.40	14.01	-34.8	-35.5	24.5	0.00e+00	0	40	0	3697278976	42	6046
2026-01-19 18:00:25.97	235.14	13.62	-35.2	-35.9	24.0	0.00e+00	0	40	0	3719299072	42	6342
2026-01-19 18:00:30.01	234.89	13.23	-35.5	-36.2	23.7	0.00e+00	0	40	0	3742367744	44	5856
2026-01-19 18:00:34.05	234.65	12.85	-35.7	-36.4	23.5	0.00e+00	0	40	0	3765436416	44	6001
2026-01-19 18:00:38.09	234.41	12.47	-35.8	-36.6	23.3	0.00e+00	0	40	0	3788505088	44	6173
2026-01-19 18:00:42.14	234.18	12.10	-36.2	-37.0	22.9	0.00e+00	0	40	0	3810525184	44	6435
2026-01-19 18:00:46.17	233.96	11.74	-36.7	-37.5	22.5	0.00e+00	0	40	0	3833593856	44	6818
2026-01-19 18:00:50.22	233.74	11.38	-36.8	-37.5	22.4	0.00e+00	0	40	0	3856662528	46	6082
2026-01-19 18:00:54.26	233.53	11.02	-37.4	-38.3	21.8	0.00e+00	0	40	0	3878682624	46	6643
2026-01-19 18:00:58.30	233.32	10.67	-37.9	-38.8	21.3	0.00e+00	0	40	0	3901751296	48	6283
2026-01-19 18:01:02.34	233.12	10.33	-38.2	-39.0	20.9	0.00e+00	0	40	0	3924819968	48	6442
2026-01-19 18:01:06.37	232.92	9.99	-38.9	-39.7	20.2	0.00e+00	0	40	0	3946840064	50	6239
2026-01-19 18:01:10.42	232.73	9.65	-39.4	-40.4	19.6	0.00e+00	0	40	0	3969908736	50	6765
2026-01-19 18:01:14.46	232.54	9.31	-39.6	-40.5	19.4	0.00e+00	0	40	0	3992977408	52	6081
2026-01-19 18:01:18.49	232.36	8.99	-40.0	-41.0	19.0	0.00e+00	0	40	0	4014997504	52	6452
2026-01-19 18:01:22.54	232.18	8.66	-40.7	-41.9	18.1	0.00e+00	0	40	0	4038066176	52	7119
2026-01-19 18:01:26.58	232.01	8.34	-40.9	-42.1	17.6	0.00e+00	0	40	0	4061134848	54	6494
2026-01-19 18:01:30.62	231.84	8.02	-41.7	-43.1	16.7	0.00e+00	0	40	0	4083154944	54	7276
2026-01-19 18:01:34.65	231.67	7.71	-41.8	-43.2	16.6	0.00e+00	0	40	0	4106223616	56	6571
2026-01-19 18:01:38.68	231.51	7.40	-42.3	-43.8	15.9	0.00e+00	0	40	0	4129292288	56	7070
2026-01-19 18:01:42.72	231.35	7.09	-42.5	-44.1	15.6	0.00e+00	0	40	0	4151312384	56	7286
2026-01-19 18:01:46.76	231.19	6.79	-42.9	-44.6	15.0	0.00e+00	0	40	0	4174381056	58	6891
2026-01-19 18:01:50.79	231.04	6.49	-43.4	-45.3	14.2	0.00e+00	0	40	0	4197449728	58	7493
2026-01-19 18:01:54.83	230.89	6.19	-43.5	-45.5	14.0	3.40e-06	0	40	0	4219469824	58	7620
2026-01-19 18:01:58.86	230.75	5.90	-44.0	-46.1	13.2	2.63e-05	0	40	0	4242538496	60	7300
2026-01-19 18:02:02.91	230.60	5.61	-44.2	-46.7	12.4	1.20e-04	0	40	0	4265607168	60	7773
2026-01-19 18:02:06.94	230.46	5.32	-44.4	-47.0	11.9	5.65e-04	0	40	0	4287627264	60	8062
2026-01-19 18:02:10.97	230.33	5.04	-44.5	-47.2	11.6	1.04e-03	0	40	0	4310695936	60	8284
2026-01-19 18:02:15.01	230.19	4.76	-44.8	-47.7	10.9	1.78e-03	0	40	0	4332716032	60	8777
2026-01-19 18:02:19.05	230.06	4.48	-44.7	-47.7	10.8	3.73e-03	0	40	0	4355784704	60	8738
2026-01-19 18:02:23.09	229.93	4.20	-44.9	-48.0	10.3	7.23e-03	0	40	0	4378853376	60	9062
2026-01-19 18:02:27.13	229.81	3.93	-45.0	-48.2	10.0	1.40e-02	0	40	0	4401922048	60	9300
2026-01-19 18:02:31.17	229.68	3.66	-45.2	-48.8	8.9	2.20e-02	0	40	0	4423942144	60	9959
2026-01-19 18:02:35.21	229.56	3.39	-45.2	-49.0	8.7	3.27e-02	0	40	0	4447010816	60	10147
2026-01-19 18:02:39.25	229.45	3.12	-45.4	-49.4	8.2	6.34e-02	0	40	0	4469030912	60	10669
2026-01-19 18:02:43.28	229.33	2.86	-48.8	-60.9	3.6	8.46e-01	0	40	104	4481613824	60	40302
2026-01-19 18:02:47.33	229.22	2.60	-49.6	-61.8	3.6	8.45e-01	0	40	104	4481613824	60	44372
2026-01-19 18:02:51.37	229.10	2.34	-49.7	-61.9	3.6	8.46e-01	0	40	104	4481613824	60	45071
2026-01-19 18:02:55.41	228.99	2.09	-49.6	-61.8	3.6	8.45e-01	0	40	104	4481613824	60	44494
2026-01-19 18:02:59.44	228.89	1.83	-49.4	-61.7	3.6	8.45e-01	0	40	104	4481613824	60	43976
2026-01-19 18:03:03.49	228.78	1.58	-49.7	-61.8	3.6	8.45e-01	0	40	104	4481613824	60	44217
2026-01-19 18:03:07.53	228.68	1.33	-49.9	-62.0	3.6	8.45e-01	0	40	104	4481613824	60	45654
2026-01-19 18:03:11.57	228.58	1.08	-50.1	-62.2	3.6	8.45e-01	0	40	104	4481613824	60	46737
2026-01-19 18:03:15.61	228.48	0.83	-50.2	-62.4	3.6	8.46e-01	0	40	104	4481613824	60	47597
2026-01-19 18:03:19.65	228.38	0.59	-49.9	-62.1	3.6	8.44e-01	0	40	104	4481613824	60	45893
2026-01-19 18:03:23.69	228.28	0.35	-50.9	-63.0	3.6	8.46e-01	0	40	104	4481613824	60	51185
2026-01-19 18:03:27.73	228.19	0.11	-50.1	-62.2	3.6	8.45e-01	0	40	104	4481613824	60	46777

#Closed at: 2026-01-19 18:03:29
#Recorded file [4481 MB]: D:/lorett/data/35029_260120_054822.dat