passes_logs/2026/01/19/R4.6S_Anadyr/R4.6S_Anadyr__20260119_044302_AQUA_rec.log

#Pass ID: 20260119_044302_AQUA
#Satellite: AQUA
#Configuration: AQUA
#almurnet v.1.7.20251203
#Start time: 2026-01-19 04:43:04

#Version: 2.2.20231116
#Station: R4.6S_Anadyr
#Location: 177.4865 lon 64.73178 lat
#TLE: 1 27424U 02022A   26018.67315038  .00000896  00000+0  18931-3 0  9992
#TLE: 2 27424  98.4088 345.1622 0002002  73.7601  98.9671 14.61828261261423

#Time	Az	El	Level	Level2	SNR	BER	BlckErr	Temp	State	Recorded	gain1	gain2
2026-01-19 04:43:04.61	234.27	0.10	-50.5	-68.4	3.5	3.03e+01	0	39	104	0	60	101278
2026-01-19 04:43:08.56	234.67	0.27	-50.5	-68.4	3.5	3.03e+01	0	39	104	0	60	100800
2026-01-19 04:43:11.30	234.95	0.39	-50.5	-68.4	3.5	3.03e+01	0	40	104	0	60	101377
2026-01-19 04:43:15.05	235.33	0.56	-50.6	-68.5	3.5	3.03e+01	0	40	104	0	60	102549
2026-01-19 04:43:17.79	235.61	0.68	-50.6	-68.6	3.5	3.03e+01	0	40	104	0	60	103273
2026-01-19 04:43:21.55	236.00	0.85	-50.6	-68.5	3.5	3.03e+01	0	40	104	0	60	102447
2026-01-19 04:43:24.29	236.29	0.98	-50.5	-68.4	3.5	3.03e+01	0	40	104	0	60	101347
2026-01-19 04:43:28.04	236.69	1.14	-49.8	-67.6	3.5	3.03e+01	0	40	104	0	60	92812
2026-01-19 04:43:30.78	236.99	1.27	-48.4	-66.3	3.5	3.03e+01	0	40	104	0	60	79118
2026-01-19 04:43:34.54	237.40	1.43	-48.3	-66.2	3.5	3.03e+01	0	40	104	0	60	78906
2026-01-19 04:43:37.28	237.70	1.56	-48.3	-66.2	3.5	3.03e+01	0	40	104	0	60	78980
2026-01-19 04:43:41.03	238.11	1.72	-48.3	-66.1	3.5	3.03e+01	0	40	104	0	60	77775
2026-01-19 04:43:43.78	238.42	1.85	-48.3	-66.1	3.5	3.03e+01	0	40	104	0	60	77306
2026-01-19 04:43:47.53	238.85	2.01	-48.3	-65.9	3.5	3.03e+01	0	40	104	0	60	75937
2026-01-19 04:43:50.29	239.16	2.14	-48.3	-65.4	3.5	3.03e+01	0	40	104	0	60	71842
2026-01-19 04:43:54.04	239.60	2.31	-48.3	-65.0	3.5	3.03e+01	0	40	104	0	60	68357
2026-01-19 04:43:56.78	239.92	2.43	-48.3	-63.6	3.6	3.03e+01	0	40	104	0	60	58345
2026-01-19 04:44:00.54	240.36	2.60	-48.2	-62.4	4.4	3.03e+01	0	40	104	0	60	50488
2026-01-19 04:44:03.28	240.69	2.72	-48.2	-61.9	4.5	3.03e+01	0	40	104	0	60	47792
2026-01-19 04:44:07.03	241.14	2.88	-48.1	-61.6	4.8	3.03e+01	0	40	104	0	60	46495
2026-01-19 04:44:09.77	241.47	3.01	-48.0	-59.4	5.5	3.03e+01	85	40	0	524288	60	35850
2026-01-19 04:44:13.53	241.94	3.17	-47.4	-54.6	11.4	3.03e+01	91	40	104	1048576	60	20653
2026-01-19 04:44:16.27	242.28	3.29	-47.0	-52.7	13.1	3.03e+01	92	40	0	5767168	60	16556
2026-01-19 04:44:20.02	242.75	3.46	-46.7	-51.5	14.6	3.03e+01	92	40	0	12582912	60	14519
2026-01-19 04:44:22.76	243.09	3.58	-46.0	-50.1	16.1	3.03e+01	86	40	0	17825792	60	12373
2026-01-19 04:44:26.51	243.58	3.75	-45.5	-49.0	17.1	3.03e+01	92	40	0	25165824	60	10856
2026-01-19 04:44:29.25	243.93	3.87	-45.0	-48.1	18.6	3.03e+01	90	40	0	29884416	60	9764
2026-01-19 04:44:33.00	244.42	4.03	-44.4	-47.2	19.2	3.03e+01	91	40	0	37224448	60	8799
2026-01-19 04:44:35.76	244.79	4.15	-44.3	-47.1	19.3	3.03e+01	92	40	0	42467328	60	8707
2026-01-19 04:44:39.51	245.29	4.31	-43.4	-45.7	20.7	3.03e+01	90	40	0	49283072	60	7400
2026-01-19 04:44:42.25	245.66	4.43	-43.4	-45.7	21.0	3.03e+01	90	40	0	54525952	60	7382
2026-01-19 04:44:46.01	246.17	4.60	-43.2	-45.4	21.3	3.03e+01	90	40	0	61341696	60	7143
2026-01-19 04:44:48.75	246.55	4.71	-42.9	-45.0	21.6	3.03e+01	92	41	0	66584576	60	6817
2026-01-19 04:44:52.50	247.07	4.87	-42.1	-44.0	22.6	3.03e+01	90	40	0	73924608	60	6117
2026-01-19 04:44:55.24	247.45	4.99	-41.6	-43.4	23.1	3.03e+01	92	40	0	78643200	58	6408
2026-01-19 04:44:58.98	247.98	5.15	-40.6	-42.2	24.3	3.03e+01	91	40	0	85983232	56	6269
2026-01-19 04:45:01.72	248.38	5.27	-40.8	-42.5	24.1	3.03e+01	92	40	0	91226112	56	6424
2026-01-19 04:45:05.48	248.92	5.43	-40.5	-42.1	24.6	3.03e+01	92	40	0	98041856	56	6165
2026-01-19 04:45:08.23	249.32	5.54	-40.5	-42.1	24.4	3.03e+01	92	40	0	103284736	56	6203
2026-01-19 04:45:11.98	249.88	5.70	-40.4	-41.9	24.8	3.03e+01	91	41	0	110100480	56	6057
2026-01-19 04:45:14.75	250.29	5.81	-40.1	-41.7	25.0	3.03e+01	92	40	0	115343360	54	6611
2026-01-19 04:45:18.50	250.85	5.97	-40.3	-41.9	24.9	3.03e+01	91	40	0	122683392	54	6762
2026-01-19 04:45:21.24	251.27	6.08	-39.8	-41.3	25.4	3.03e+01	92	40	0	127401984	54	6314
2026-01-19 04:45:24.99	251.84	6.23	-40.0	-41.5	25.3	3.03e+01	92	40	0	134742016	54	6470
2026-01-19 04:45:27.73	252.27	6.34	-39.8	-41.3	25.4	3.03e+01	92	40	0	139984896	54	6336
2026-01-19 04:45:31.49	252.86	6.49	-39.9	-41.4	25.4	3.03e+01	90	41	0	146800640	54	6386
2026-01-19 04:45:34.23	253.29	6.60	-40.1	-41.6	25.3	3.03e+01	92	40	0	152043520	54	6561
2026-01-19 04:45:37.98	253.89	6.75	-39.7	-41.1	25.6	3.03e+01	92	41	0	158859264	54	6187
2026-01-19 04:45:40.72	254.33	6.85	-39.6	-41.1	25.7	3.03e+01	91	40	0	164102144	54	6170
2026-01-19 04:45:44.47	254.93	7.00	-39.6	-41.1	25.9	3.03e+01	92	41	0	171442176	54	6148
2026-01-19 04:45:47.21	255.38	7.10	-39.4	-40.8	26.0	3.03e+01	92	40	0	176160768	54	5978
2026-01-19 04:45:50.96	256.00	7.24	-39.5	-41.0	25.9	3.03e+01	91	41	0	183500800	54	6074
2026-01-19 04:45:53.71	256.46	7.35	-39.3	-40.8	26.0	3.03e+01	92	41	0	188219392	54	5958
2026-01-19 04:45:57.46	257.09	7.48	-39.5	-41.0	26.0	3.03e+01	92	40	0	195559424	54	6065
2026-01-19 04:46:00.20	257.55	7.58	-39.2	-40.6	26.3	3.03e+01	92	40	0	200802304	54	5821
2026-01-19 04:46:03.95	258.19	7.72	-39.3	-40.7	26.2	3.03e+01	92	41	0	207618048	54	5879
2026-01-19 04:46:06.69	258.67	7.82	-39.3	-40.7	26.2	3.03e+01	90	41	0	212860928	54	5902
2026-01-19 04:46:10.44	259.32	7.95	-39.3	-40.7	26.2	3.03e+01	89	41	0	219676672	54	5925
2026-01-19 04:46:13.18	259.80	8.04	-39.4	-40.8	26.3	3.03e+01	92	41	0	224919552	54	5976
2026-01-19 04:46:16.95	260.46	8.17	-39.6	-41.1	25.9	3.03e+01	91	40	0	232259584	54	6144
2026-01-19 04:46:19.69	260.95	8.26	-39.4	-40.8	26.2	3.03e+01	92	41	0	236978176	54	5992
2026-01-19 04:46:23.44	261.62	8.38	-39.2	-40.6	26.4	3.03e+01	90	41	0	244318208	54	5847
2026-01-19 04:46:26.18	262.12	8.47	-39.0	-40.4	26.7	3.03e+01	90	40	0	249561088	52	6352
2026-01-19 04:46:29.93	262.80	8.59	-39.4	-40.8	26.4	3.03e+01	92	41	0	256376832	52	6677
2026-01-19 04:46:32.69	263.31	8.67	-39.7	-41.2	26.2	3.03e+01	91	40	0	261619712	52	7004
2026-01-19 04:46:36.45	264.00	8.79	-39.8	-41.3	26.0	3.03e+01	92	41	0	268435456	52	7056
2026-01-19 04:46:39.19	264.51	8.87	-39.5	-40.9	26.0	3.03e+01	92	40	0	273678336	52	6776
2026-01-19 04:46:42.94	265.21	8.98	-38.8	-40.2	26.8	3.03e+01	92	41	0	281018368	52	6255
2026-01-19 04:46:45.68	265.73	9.05	-39.1	-40.5	26.6	3.03e+01	92	41	0	285736960	52	6444
2026-01-19 04:46:49.43	266.44	9.16	-39.2	-40.7	26.4	3.03e+01	91	41	0	293076992	52	6574
2026-01-19 04:46:52.21	266.97	9.23	-39.0	-40.4	26.7	3.03e+01	92	41	0	298319872	52	6414
2026-01-19 04:46:55.96	267.69	9.33	-38.6	-40.0	27.0	3.03e+01	91	41	0	305135616	52	6081
2026-01-19 04:46:58.70	268.22	9.40	-38.8	-40.1	26.9	3.03e+01	90	41	0	310378496	52	6194
2026-01-19 04:47:02.45	268.95	9.49	-38.8	-40.1	26.8	3.03e+01	91	41	0	317194240	52	6175
2026-01-19 04:47:05.19	269.48	9.55	-38.7	-40.1	26.8	3.03e+01	90	41	0	322437120	52	6147
2026-01-19 04:47:08.95	270.22	9.64	-38.8	-40.2	26.9	3.03e+01	91	41	0	329777152	52	6238
2026-01-19 04:47:11.69	270.76	9.70	-38.9	-40.2	26.8	3.03e+01	92	41	0	334495744	52	6258
2026-01-19 04:47:15.43	271.51	9.78	-39.2	-40.6	26.7	3.03e+01	90	41	0	341835776	52	6504
2026-01-19 04:47:18.18	272.06	9.83	-38.8	-40.2	27.0	3.03e+01	92	40	0	347078656	52	6216
2026-01-19 04:47:21.93	272.81	9.91	-38.7	-40.0	27.1	3.03e+01	90	41	0	353894400	52	6125
2026-01-19 04:47:24.66	273.36	9.96	-38.6	-39.9	27.2	3.03e+01	92	40	0	359137280	52	6032
2026-01-19 04:47:28.41	274.11	10.02	-38.4	-39.8	27.4	3.03e+01	92	40	0	365953024	52	5937
2026-01-19 04:47:31.15	274.67	10.07	-38.5	-39.8	27.2	3.03e+01	92	41	0	371195904	52	5975
2026-01-19 04:47:34.91	275.43	10.13	-38.4	-39.8	27.3	3.03e+01	92	41	0	378011648	52	5934
2026-01-19 04:47:37.64	275.99	10.17	-38.6	-39.9	27.2	3.03e+01	92	41	0	383254528	52	6032
2026-01-19 04:47:41.39	276.76	10.22	-38.4	-39.7	27.4	3.03e+01	90	40	0	390594560	52	5904
2026-01-19 04:47:44.13	277.32	10.25	-38.3	-39.6	27.5	3.03e+01	89	41	0	395313152	52	5830
2026-01-19 04:47:47.88	278.10	10.30	-38.6	-39.9	27.2	3.03e+01	92	41	0	402653184	52	6039
2026-01-19 04:47:50.62	278.66	10.33	-38.5	-39.8	27.4	3.03e+01	91	41	0	407371776	52	5970
2026-01-19 04:47:54.37	279.44	10.36	-38.7	-40.1	27.1	3.03e+01	92	41	0	414711808	52	6141
2026-01-19 04:47:57.11	280.01	10.39	-38.6	-39.9	27.2	3.03e+01	90	41	0	419954688	52	6027
2026-01-19 04:48:00.87	280.79	10.42	-38.6	-40.0	27.2	3.03e+01	92	41	0	426770432	52	6066
2026-01-19 04:48:03.63	281.36	10.43	-38.4	-39.7	27.4	3.03e+01	92	41	0	432013312	52	5914
2026-01-19 04:48:07.38	282.15	10.46	-38.5	-39.8	27.3	3.03e+01	92	40	0	439353344	52	5990
2026-01-19 04:48:10.12	282.72	10.47	-38.2	-39.5	27.5	3.03e+01	91	41	0	444071936	52	5764
2026-01-19 04:48:13.87	283.50	10.48	-38.4	-39.7	27.5	3.03e+01	92	41	0	451411968	52	5899
2026-01-19 04:48:16.61	284.07	10.49	-38.4	-39.7	27.5	3.03e+01	89	41	0	456130560	52	5907
2026-01-19 04:48:20.37	284.86	10.50	-38.4	-39.7	27.5	3.03e+01	92	41	0	463470592	52	5897
2026-01-19 04:48:23.11	285.43	10.50	-38.3	-39.6	27.5	3.03e+01	91	41	0	468713472	52	5813
2026-01-19 04:48:26.86	286.22	10.50	-38.3	-39.6	27.5	3.03e+01	92	41	0	475529216	52	5833
2026-01-19 04:48:29.60	286.79	10.49	-38.1	-39.4	27.7	3.03e+01	92	41	0	480772096	52	5699
2026-01-19 04:48:33.35	287.58	10.48	-38.3	-39.6	27.5	3.03e+01	92	41	0	487587840	52	5847
2026-01-19 04:48:36.09	288.15	10.47	-38.6	-39.9	27.2	3.03e+01	89	40	0	492830720	52	6020
2026-01-19 04:48:39.84	288.93	10.45	-38.3	-39.6	27.5	3.03e+01	90	41	0	500170752	52	5843
2026-01-19 04:48:42.59	289.50	10.44	-38.6	-40.0	27.2	3.03e+01	92	41	0	504889344	52	6075
2026-01-19 04:48:46.34	290.28	10.41	-38.2	-39.4	27.7	3.03e+01	90	41	0	512229376	52	5723
2026-01-19 04:48:49.08	290.85	10.39	-38.4	-39.7	27.4	3.03e+01	92	41	0	517472256	52	5917
2026-01-19 04:48:52.85	291.63	10.36	-38.4	-39.8	27.4	3.03e+01	92	41	0	524288000	52	5939
2026-01-19 04:48:55.59	292.20	10.33	-38.3	-39.6	27.5	3.03e+01	91	41	0	529530880	52	5827
2026-01-19 04:48:59.34	292.97	10.29	-38.8	-40.1	27.2	3.03e+01	92	40	0	536346624	52	6173
2026-01-19 04:49:02.09	293.54	10.26	-38.7	-40.0	27.3	3.03e+01	91	40	0	541589504	52	6123
2026-01-19 04:49:05.85	294.31	10.21	-38.4	-39.7	27.4	3.03e+01	92	41	0	548929536	52	5895
2026-01-19 04:49:08.59	294.87	10.17	-38.6	-39.9	27.3	3.03e+01	92	41	0	553648128	52	6042
2026-01-19 04:49:12.34	295.64	10.12	-38.4	-39.7	27.6	3.03e+01	91	41	0	560988160	52	5872
2026-01-19 04:49:15.08	296.19	10.08	-38.4	-39.7	27.5	3.03e+01	91	41	0	566231040	52	5898
2026-01-19 04:49:18.85	296.96	10.01	-38.6	-39.9	27.3	3.03e+01	91	41	0	573046784	52	6032
2026-01-19 04:49:21.59	297.51	9.97	-38.3	-39.6	27.6	3.03e+01	89	41	0	578289664	52	5812
2026-01-19 04:49:25.33	298.26	9.90	-38.5	-39.8	27.4	3.03e+01	92	41	0	585105408	52	5965
2026-01-19 04:49:28.07	298.81	9.85	-38.4	-39.7	27.4	3.03e+01	92	41	0	590348288	52	5913
2026-01-19 04:49:31.82	299.55	9.77	-38.5	-39.8	27.4	3.03e+01	92	40	0	597688320	52	5993
2026-01-19 04:49:34.58	300.10	9.71	-38.4	-39.7	27.4	3.03e+01	92	40	0	602406912	52	5886
2026-01-19 04:49:38.33	300.84	9.63	-38.8	-40.1	27.1	3.03e+01	90	40	0	609746944	52	6187
2026-01-19 04:49:41.08	301.37	9.57	-38.7	-40.0	27.2	3.03e+01	92	41	0	614989824	52	6096
2026-01-19 04:49:44.84	302.11	9.48	-38.8	-40.1	27.0	3.03e+01	62	41	0	621805568	52	6178
2026-01-19 04:49:47.58	302.64	9.41	-38.5	-39.8	27.3	3.03e+01	45	40	0	627048448	52	5994
2026-01-19 04:49:51.33	303.36	9.32	-38.7	-40.0	27.2	3.03e+01	61	41	0	633864192	52	6130
2026-01-19 04:49:54.08	303.88	9.25	-38.7	-40.0	27.1	3.03e+01	60	41	0	639107072	52	6105
2026-01-19 04:49:57.82	304.60	9.15	-38.6	-39.9	27.2	3.03e+01	63	40	0	646447104	52	6063
2026-01-19 04:50:00.56	305.11	9.08	-38.7	-40.1	27.0	3.03e+01	61	41	0	651165696	52	6136
2026-01-19 04:50:04.33	305.82	8.97	-38.6	-39.9	27.2	3.03e+01	62	41	0	658505728	52	6024
2026-01-19 04:50:07.07	306.33	8.89	-38.7	-40.0	27.0	3.03e+01	61	40	0	663748608	52	6112
2026-01-19 04:50:10.82	307.03	8.78	-38.7	-40.1	27.1	3.03e+01	60	41	0	670564352	52	6163
2026-01-19 04:50:13.57	307.53	8.70	-39.0	-40.3	26.9	3.03e+01	59	41	0	675807232	52	6333
2026-01-19 04:50:17.32	308.22	8.58	-38.7	-40.1	26.9	3.03e+01	53	41	0	682622976	52	6163
2026-01-19 04:50:20.06	308.71	8.50	-38.7	-40.0	27.1	3.03e+01	52	40	0	687865856	52	6131
2026-01-19 04:50:23.82	309.39	8.38	-38.7	-40.1	26.9	3.03e+01	59	41	0	694681600	52	6168
2026-01-19 04:50:26.56	309.88	8.29	-39.1	-40.5	26.6	3.03e+01	63	40	0	699924480	52	6473
2026-01-19 04:50:30.32	310.55	8.16	-38.9	-40.3	26.6	3.03e+01	55	41	0	707264512	52	6296
2026-01-19 04:50:33.07	311.03	8.07	-39.2	-40.6	26.5	3.03e+01	51	40	0	712507392	52	6521
2026-01-19 04:50:36.82	311.68	7.94	-39.1	-40.5	26.5	3.03e+01	59	40	0	719323136	52	6452
2026-01-19 04:50:39.57	312.16	7.85	-39.3	-40.7	26.3	3.03e+01	61	41	0	724566016	52	6586
2026-01-19 04:50:43.33	312.80	7.72	-39.1	-40.5	26.5	3.03e+01	60	41	0	731381760	52	6445
2026-01-19 04:50:46.07	313.27	7.62	-39.3	-40.8	26.4	3.03e+01	58	40	0	736624640	52	6653
2026-01-19 04:50:49.82	313.90	7.48	-39.1	-40.5	26.5	3.03e+01	60	40	0	743440384	52	6458
2026-01-19 04:50:52.55	314.36	7.38	-39.1	-40.4	26.5	3.03e+01	60	41	0	748683264	52	6421
2026-01-19 04:50:56.33	314.99	7.24	-39.5	-40.9	26.0	3.03e+01	60	40	0	756023296	52	6773
2026-01-19 04:50:59.07	315.44	7.14	-39.4	-40.8	26.2	3.03e+01	61	40	0	761266176	52	6683
2026-01-19 04:51:02.82	316.05	7.00	-39.2	-40.6	26.4	3.03e+01	48	41	0	768081920	52	6525
2026-01-19 04:51:05.56	316.49	6.89	-39.5	-41.0	26.0	3.03e+01	62	40	0	773324800	52	6806
2026-01-19 04:51:09.31	317.09	6.75	-39.3	-40.8	26.1	3.03e+01	57	40	0	780140544	52	6650
2026-01-19 04:51:12.05	317.52	6.64	-39.5	-40.9	26.0	3.03e+01	61	41	0	785383424	52	6769
2026-01-19 04:51:15.80	318.11	6.50	-39.2	-40.6	26.2	3.03e+01	43	41	0	792199168	52	6546
2026-01-19 04:51:18.54	318.54	6.39	-39.3	-40.7	26.1	3.03e+01	54	41	0	797442048	52	6598
2026-01-19 04:51:22.29	319.12	6.24	-39.5	-41.0	25.9	3.03e+01	53	40	0	804782080	52	6826
2026-01-19 04:51:25.04	319.54	6.13	-39.4	-40.8	26.1	3.03e+01	57	40	0	809500672	52	6683
2026-01-19 04:51:28.79	320.11	5.98	-40.0	-41.5	25.3	3.03e+01	58	40	0	816840704	54	6456
2026-01-19 04:51:31.53	320.52	5.86	-39.3	-40.8	26.0	3.03e+01	46	40	0	822083584	54	5941
2026-01-19 04:51:35.28	321.07	5.71	-40.2	-41.7	25.1	3.03e+01	58	40	0	828899328	54	6608
2026-01-19 04:51:38.04	321.48	5.60	-39.7	-41.1	25.7	3.03e+01	59	40	0	834142208	54	6200
2026-01-19 04:51:41.78	322.02	5.44	-40.5	-42.1	24.8	3.03e+01	57	41	0	840957952	54	6911
2026-01-19 04:51:44.53	322.42	5.33	-39.5	-41.0	25.7	3.03e+01	57	41	0	846200832	54	6082
2026-01-19 04:51:48.28	322.95	5.17	-39.4	-40.9	25.8	3.03e+01	58	41	0	853540864	54	6035
2026-01-19 04:51:51.02	323.34	5.05	-39.4	-40.9	25.8	3.03e+01	62	41	0	858259456	54	6035
2026-01-19 04:51:54.77	323.87	4.89	-39.7	-41.2	25.5	3.03e+01	53	41	0	865599488	54	6234
2026-01-19 04:51:57.51	324.25	4.78	-40.0	-41.5	25.1	3.03e+01	59	41	0	870318080	54	6474
2026-01-19 04:52:01.26	324.76	4.62	-39.9	-41.4	25.2	3.03e+01	44	41	0	877658112	54	6417
2026-01-19 04:52:04.01	325.13	4.50	-40.2	-41.8	24.9	3.03e+01	50	41	0	882900992	54	6688
2026-01-19 04:52:07.76	325.64	4.34	-41.1	-51.5	3.6	3.03e+01	0	41	104	883425280	54	20520
2026-01-19 04:52:10.49	326.00	4.22	-49.0	-65.7	3.5	3.03e+01	0	41	104	883425280	60	74251
2026-01-19 04:52:14.25	326.50	4.06	-42.9	-53.7	4.0	3.03e+01	0	41	104	883425280	60	18544
2026-01-19 04:52:16.98	326.85	3.94	-41.5	-52.1	4.0	3.03e+01	0	40	104	883425280	58	17446
2026-01-19 04:52:20.73	327.34	3.78	-42.9	-53.9	3.5	3.03e+01	0	41	104	883425280	60	19009
2026-01-19 04:52:23.47	327.69	3.66	-44.1	-55.4	3.5	3.03e+01	0	41	104	883425280	60	22677
2026-01-19 04:52:27.23	328.16	3.49	-42.6	-53.4	3.5	3.03e+01	0	41	104	883425280	60	18006
2026-01-19 04:52:29.97	328.51	3.37	-43.8	-55.1	3.5	3.03e+01	0	41	104	883425280	60	21850
2026-01-19 04:52:33.71	328.97	3.21	-43.7	-54.9	3.5	3.03e+01	0	41	104	883425280	60	21493
2026-01-19 04:52:36.45	329.31	3.09	-43.7	-55.3	3.5	3.03e+01	0	41	104	883425280	60	22392
2026-01-19 04:52:40.21	329.76	2.92	-49.7	-67.5	3.5	3.03e+01	0	41	104	883425280	60	91267
2026-01-19 04:52:42.95	330.09	2.80	-50.5	-68.4	3.5	3.03e+01	0	41	104	883425280	60	100774
2026-01-19 04:52:46.70	330.54	2.64	-50.8	-68.7	3.5	3.03e+01	0	41	104	883425280	60	104299
2026-01-19 04:52:49.44	330.86	2.52	-50.8	-68.8	3.5	3.03e+01	0	41	104	883425280	60	106020
2026-01-19 04:52:53.19	331.30	2.35	-50.9	-68.7	3.5	3.03e+01	0	41	104	883425280	60	105194
2026-01-19 04:52:55.93	331.61	2.23	-50.7	-68.7	3.5	3.03e+01	0	41	104	883425280	60	104542
2026-01-19 04:52:59.69	332.04	2.07	-50.8	-68.6	3.5	3.03e+01	0	41	104	883425280	60	103815
2026-01-19 04:53:02.43	332.35	1.94	-50.8	-68.6	3.5	3.03e+01	0	41	104	883425280	60	103851
2026-01-19 04:53:06.18	332.77	1.78	-50.9	-68.7	3.5	3.03e+01	0	41	104	883425280	60	105014
2026-01-19 04:53:08.92	333.08	1.66	-50.9	-68.7	3.5	3.03e+01	0	41	104	883425280	60	104873
2026-01-19 04:53:12.67	333.49	1.49	-50.8	-68.7	3.5	3.03e+01	0	41	104	883425280	60	104394
2026-01-19 04:53:15.41	333.79	1.37	-50.8	-68.7	3.5	3.03e+01	0	41	104	883425280	60	104463
2026-01-19 04:53:19.16	334.19	1.20	-50.8	-68.7	3.5	3.03e+01	0	41	104	883425280	60	104185
2026-01-19 04:53:21.90	334.48	1.08	-50.8	-68.7	3.5	3.03e+01	0	41	104	883425280	60	104558
2026-01-19 04:53:25.65	334.88	0.92	-50.8	-68.6	3.5	3.03e+01	0	41	104	883425280	60	104159
2026-01-19 04:53:28.39	335.16	0.79	-50.8	-68.7	3.5	3.03e+01	0	41	104	883425280	60	104589
2026-01-19 04:53:32.16	335.55	0.63	-50.8	-68.7	3.5	3.03e+01	0	41	104	883425280	60	104377
2026-01-19 04:53:34.90	335.83	0.51	-50.8	-68.7	3.5	3.03e+01	0	41	104	883425280	60	104512
2026-01-19 04:53:38.65	336.21	0.34	-50.8	-68.6	3.5	3.03e+01	0	41	104	883425280	60	104015
2026-01-19 04:53:41.39	336.48	0.22	-50.8	-68.7	3.5	3.03e+01	0	41	104	883425280	60	104321
2026-01-19 04:53:45.14	336.86	0.05	-50.8	-68.7	3.5	3.03e+01	0	41	104	883425280	60	104292
2026-01-19 04:53:47.92	337.13	-0.07	-50.8	-68.7	3.5	3.03e+01	0	41	104	883425280	60	104530

#Closed at: 2026-01-19 04:53:49
#Recorded file [883 MB]: D:/lorett/data/35029_260119_164304.dat