passes_logs/2026/01/12/R3.2S_Murmansk/R3.2S_Murmansk__20260112_144828_FENGYUN_3D_rec.log

#Pass ID: 20260112_144828_FENGYUN 3D
#Satellite: FENGYUN 3D
#Configuration: FENGYUN 3D
#almurnet v.1.7.20251203
#Start time: 2026-01-12 14:48:30

#Version: 2.2.20231116
#Station: R3.2S_Murmansk
#Location: 33.079688 lon 68.888172 lat
#TLE: 1 43010U 17072A   26011.62066612  .00000104  00000+0  70810-4 0  9998
#TLE: 2 43010  98.9935 343.3846 0002223 114.2890 245.8518 14.19694405422776

#Time	Az	El	Level	Level2	SNR	BER	BlckErr	Temp	State	Recorded	gain1	gain2
2026-01-12 14:48:30.84	236.23	2.10	-57.4	-70.4	3.8	8.46e-01	0	21	0	0	81	15633
2026-01-12 14:48:33.85	236.51	2.24	-57.3	-70.3	3.8	8.47e-01	0	21	104	0	79	17380
2026-01-12 14:48:36.85	236.80	2.38	-57.3	-70.3	3.8	8.46e-01	0	21	104	0	79	17449
2026-01-12 14:48:39.86	237.09	2.52	-57.3	-70.3	3.8	8.45e-01	0	21	104	0	79	17458
2026-01-12 14:48:42.87	237.38	2.66	-57.4	-70.4	3.8	8.46e-01	0	21	104	0	79	17545
2026-01-12 14:48:45.88	237.68	2.81	-57.3	-70.4	3.8	8.45e-01	0	22	104	0	79	17501
2026-01-12 14:48:48.89	237.97	2.95	-57.3	-70.3	3.8	8.46e-01	0	22	104	0	79	17340
2026-01-12 14:48:51.91	238.28	3.09	-57.3	-70.2	3.8	8.45e-01	0	22	104	0	79	17104
2026-01-12 14:48:54.91	238.58	3.23	-57.3	-70.2	3.8	8.46e-01	0	22	104	0	79	17242
2026-01-12 14:48:57.91	238.89	3.37	-57.3	-70.4	3.8	8.45e-01	0	22	104	0	79	17510
2026-01-12 14:49:00.92	239.20	3.52	-57.3	-70.1	3.8	8.46e-01	0	22	104	0	79	16994
2026-01-12 14:49:03.92	239.51	3.66	-57.3	-70.2	3.8	8.46e-01	0	22	104	0	79	17090
2026-01-12 14:49:06.93	239.82	3.80	-57.3	-70.4	3.8	8.45e-01	0	22	104	0	79	17544
2026-01-12 14:49:09.92	240.14	3.94	-57.3	-70.3	3.8	8.46e-01	0	22	104	0	79	17384
2026-01-12 14:49:12.93	240.46	4.08	-57.3	-69.7	3.8	8.45e-01	0	22	104	0	79	16201
2026-01-12 14:49:15.91	240.78	4.22	-57.3	-69.8	3.8	8.45e-01	0	22	104	0	79	16329
2026-01-12 14:49:18.91	241.11	4.37	-57.3	-69.3	3.8	8.46e-01	0	22	104	0	79	15498
2026-01-12 14:49:21.92	241.44	4.51	-57.4	-70.4	3.8	8.45e-01	0	22	104	0	79	17505
2026-01-12 14:49:24.92	241.77	4.65	-57.0	-66.5	4.3	8.38e-01	0	22	0	0	79	11233
2026-01-12 14:49:27.91	242.11	4.79	-56.5	-63.3	5.9	4.68e-01	0	22	0	3145728	79	7764
2026-01-12 14:49:30.90	242.44	4.93	-54.5	-58.1	10.2	3.97e-03	0	22	0	19922944	75	5359
2026-01-12 14:49:33.90	242.78	5.08	-52.1	-54.3	12.8	0.00e+00	0	23	0	36700160	69	4883
2026-01-12 14:49:36.88	243.13	5.22	-54.6	-58.4	10.0	1.91e-04	0	22	0	51380224	74	5858
2026-01-12 14:49:39.88	243.48	5.36	-48.9	-50.4	14.6	0.00e+00	0	22	0	68157440	63	4415
2026-01-12 14:49:42.87	243.83	5.50	-48.6	-50.0	14.8	0.00e+00	0	22	0	84934656	63	4232
2026-01-12 14:49:45.86	244.18	5.64	-48.8	-50.3	14.7	0.00e+00	0	23	0	101711872	63	4349
2026-01-12 14:49:48.86	244.54	5.78	-48.8	-50.3	14.7	0.00e+00	0	22	0	118489088	63	4341
2026-01-12 14:49:51.85	244.90	5.92	-48.8	-50.3	14.7	0.00e+00	0	23	0	135266304	63	4365
2026-01-12 14:49:54.83	245.26	6.06	-48.8	-50.3	14.7	0.00e+00	0	22	0	152043520	63	4345
2026-01-12 14:49:57.82	245.63	6.20	-48.7	-50.1	14.8	0.00e+00	0	23	0	168820736	63	4252
2026-01-12 14:50:00.81	246.00	6.34	-48.3	-49.7	15.1	0.00e+00	0	23	0	185597952	63	4057
2026-01-12 14:50:03.81	246.37	6.48	-48.6	-50.0	14.9	0.00e+00	0	23	0	202375168	63	4230
2026-01-12 14:50:06.81	246.75	6.62	-48.6	-50.0	14.9	0.00e+00	0	23	0	219152384	63	4205
2026-01-12 14:50:09.81	247.13	6.76	-48.6	-50.1	14.9	0.00e+00	0	23	0	235929600	63	4243
2026-01-12 14:50:12.81	247.52	6.90	-48.3	-49.6	15.1	0.00e+00	0	23	0	253755392	63	4044
2026-01-12 14:50:15.80	247.91	7.04	-48.3	-49.7	15.1	0.00e+00	0	23	0	270532608	63	4068
2026-01-12 14:50:18.80	248.30	7.18	-48.4	-49.8	15.0	0.00e+00	0	23	0	287309824	63	4131
2026-01-12 14:50:21.79	248.69	7.32	-48.2	-49.5	15.2	0.00e+00	0	23	0	304087040	63	3993
2026-01-12 14:50:24.79	249.09	7.46	-48.0	-49.3	15.2	0.00e+00	0	23	0	320864256	62	4125
2026-01-12 14:50:27.78	249.49	7.59	-47.9	-49.2	15.2	0.00e+00	0	23	0	337641472	62	4093
2026-01-12 14:50:30.77	249.90	7.73	-48.1	-49.4	15.1	0.00e+00	0	23	0	354418688	62	4185
2026-01-12 14:50:33.76	250.31	7.87	-48.1	-49.4	15.1	0.00e+00	0	23	0	371195904	62	4185
2026-01-12 14:50:36.76	250.72	8.00	-47.9	-49.3	15.2	0.00e+00	0	23	0	387973120	62	4100
2026-01-12 14:50:39.75	251.14	8.14	-48.0	-49.3	15.2	0.00e+00	0	23	0	404750336	62	4120
2026-01-12 14:50:42.76	251.56	8.27	-48.0	-49.4	15.1	0.00e+00	0	23	0	421527552	62	4156
2026-01-12 14:50:45.74	251.99	8.40	-48.0	-49.3	15.2	0.00e+00	0	23	0	438304768	62	4144
2026-01-12 14:50:48.74	252.42	8.54	-48.1	-49.4	15.1	0.00e+00	0	23	0	455081984	62	4187
2026-01-12 14:50:51.74	252.85	8.67	-48.0	-49.3	15.2	0.00e+00	0	23	0	471859200	62	4109
2026-01-12 14:50:54.74	253.29	8.80	-47.8	-49.1	15.3	0.00e+00	0	23	0	488636416	62	4006
2026-01-12 14:50:57.74	253.73	8.94	-47.7	-49.0	15.4	0.00e+00	0	23	0	505413632	62	3986
2026-01-12 14:51:00.73	254.17	9.07	-47.6	-48.9	15.3	0.00e+00	0	23	0	522190848	61	4146
2026-01-12 14:51:03.73	254.62	9.20	-47.6	-48.8	15.3	0.00e+00	0	23	0	540016640	61	4139
2026-01-12 14:51:06.71	255.07	9.32	-47.6	-48.8	15.3	0.00e+00	0	23	0	556793856	61	4131
2026-01-12 14:51:09.70	255.52	9.45	-47.6	-48.8	15.3	0.00e+00	0	23	0	573571072	61	4139
2026-01-12 14:51:12.71	255.99	9.58	-47.5	-48.7	15.3	0.00e+00	0	23	0	590348288	61	4092
2026-01-12 14:51:15.71	256.45	9.70	-47.5	-48.8	15.3	0.00e+00	0	23	0	607125504	61	4118
2026-01-12 14:51:18.71	256.92	9.83	-47.3	-48.6	15.4	0.00e+00	0	23	0	623902720	61	4022
2026-01-12 14:51:21.70	257.39	9.95	-47.4	-48.6	15.4	0.00e+00	0	23	0	640679936	61	4030
2026-01-12 14:51:24.69	257.86	10.08	-47.3	-48.5	15.5	0.00e+00	0	23	0	657457152	61	3974
2026-01-12 14:51:27.68	258.34	10.20	-47.2	-48.4	15.3	0.00e+00	0	23	0	674234368	60	4189
2026-01-12 14:51:30.67	258.82	10.32	-47.3	-48.5	15.3	0.00e+00	0	23	0	691011584	60	4230
2026-01-12 14:51:33.66	259.31	10.44	-47.1	-48.4	15.4	0.00e+00	0	23	0	707788800	60	4157
2026-01-12 14:51:36.64	259.79	10.56	-47.2	-48.4	15.3	0.00e+00	0	23	0	724566016	60	4168
2026-01-12 14:51:39.64	260.29	10.67	-47.0	-48.2	15.4	0.00e+00	0	23	0	741343232	60	4073
2026-01-12 14:51:42.63	260.78	10.79	-46.9	-48.1	15.5	0.00e+00	0	23	0	758120448	60	4042
2026-01-12 14:51:45.63	261.29	10.90	-47.0	-48.2	15.5	0.00e+00	0	23	0	774897664	60	4052
2026-01-12 14:51:48.64	261.79	11.01	-47.1	-48.3	15.4	0.00e+00	0	23	0	791674880	60	4129
2026-01-12 14:51:51.65	262.31	11.13	-47.1	-48.3	15.4	0.00e+00	0	23	0	809500672	60	4112
2026-01-12 14:51:54.65	262.82	11.24	-47.1	-48.3	15.4	0.00e+00	0	23	0	826277888	60	4130
2026-01-12 14:51:57.65	263.34	11.34	-47.2	-48.4	15.4	0.00e+00	0	23	0	843055104	60	4171
2026-01-12 14:52:00.65	263.86	11.45	-47.0	-48.2	15.5	0.00e+00	0	23	0	859832320	60	4060
2026-01-12 14:52:03.65	264.38	11.56	-46.9	-48.1	15.5	0.00e+00	0	23	0	876609536	60	4037
2026-01-12 14:52:06.67	264.91	11.66	-46.9	-48.1	15.5	0.00e+00	0	23	0	893386752	60	4050
2026-01-12 14:52:09.67	265.45	11.76	-47.0	-48.2	15.5	0.00e+00	0	23	0	910163968	60	4073
2026-01-12 14:52:12.67	265.98	11.86	-46.9	-48.1	15.5	0.00e+00	0	23	0	926941184	60	4030
2026-01-12 14:52:15.68	266.52	11.96	-46.8	-48.0	15.6	0.00e+00	0	23	0	944766976	60	3963
2026-01-12 14:52:18.69	267.06	12.06	-47.1	-48.3	15.3	0.00e+00	0	23	0	961544192	59	4358
2026-01-12 14:52:21.69	267.61	12.15	-47.2	-48.5	15.2	0.00e+00	0	23	0	978321408	59	4463
2026-01-12 14:52:24.68	268.16	12.24	-47.3	-48.5	15.2	0.00e+00	0	23	0	995098624	59	4486
2026-01-12 14:52:27.67	268.71	12.33	-47.1	-48.4	15.3	0.00e+00	0	23	0	1011875840	59	4407
2026-01-12 14:52:30.67	269.26	12.42	-47.0	-48.2	15.3	0.00e+00	0	23	0	1028653056	59	4336
2026-01-12 14:52:33.66	269.82	12.51	-47.0	-48.2	15.4	0.00e+00	0	23	0	1045430272	59	4318
2026-01-12 14:52:36.67	270.38	12.59	-47.1	-48.4	15.3	0.00e+00	0	23	0	1062207488	59	4405
2026-01-12 14:52:39.66	270.95	12.67	-47.2	-48.4	15.3	0.00e+00	0	23	0	1078984704	59	4426
2026-01-12 14:52:42.65	271.51	12.75	-47.2	-48.4	15.2	0.00e+00	0	23	0	1095761920	59	4437
2026-01-12 14:52:45.65	272.08	12.83	-47.3	-48.6	15.2	0.00e+00	0	23	0	1112539136	59	4515
2026-01-12 14:52:48.65	272.66	12.90	-47.0	-48.3	15.3	0.00e+00	0	23	0	1130364928	59	4360
2026-01-12 14:52:51.65	273.23	12.97	-47.0	-48.2	15.3	0.00e+00	0	23	0	1147142144	59	4340
2026-01-12 14:52:54.67	273.81	13.04	-47.1	-48.3	15.3	0.00e+00	0	23	0	1163919360	59	4371
2026-01-12 14:52:57.67	274.40	13.11	-46.7	-47.9	15.5	0.00e+00	0	23	0	1180696576	59	4191
2026-01-12 14:53:00.67	274.98	13.18	-46.8	-48.0	15.5	0.00e+00	0	23	0	1197473792	59	4197
2026-01-12 14:53:03.67	275.57	13.24	-46.8	-48.0	15.5	0.00e+00	0	23	0	1214251008	59	4208
2026-01-12 14:53:06.66	276.15	13.30	-46.7	-47.9	15.5	0.00e+00	0	23	0	1231028224	59	4162
2026-01-12 14:53:09.68	276.75	13.35	-46.7	-47.9	15.5	0.00e+00	0	23	0	1247805440	59	4177
2026-01-12 14:53:12.68	277.34	13.41	-46.7	-47.9	15.5	0.00e+00	0	23	0	1264582656	59	4156
2026-01-12 14:53:15.67	277.93	13.46	-46.9	-48.1	15.4	0.00e+00	0	23	0	1281359872	59	4271
2026-01-12 14:53:18.65	278.53	13.51	-47.1	-48.4	15.3	0.00e+00	0	23	0	1298137088	59	4397
2026-01-12 14:53:21.65	279.12	13.55	-47.3	-48.5	15.2	0.00e+00	0	23	0	1315962880	59	4479
2026-01-12 14:53:24.64	279.72	13.60	-47.2	-48.4	15.3	0.00e+00	0	23	0	1332740096	59	4423
2026-01-12 14:53:27.63	280.32	13.64	-47.1	-48.4	15.3	0.00e+00	0	23	0	1349517312	59	4406
2026-01-12 14:53:30.61	280.92	13.68	-47.1	-48.3	15.3	0.00e+00	0	23	0	1366294528	59	4366
2026-01-12 14:53:33.60	281.53	13.71	-47.2	-48.4	15.3	0.00e+00	0	23	0	1383071744	59	4435
2026-01-12 14:53:36.57	282.13	13.74	-47.1	-48.3	15.3	0.00e+00	0	23	0	1399848960	59	4373
2026-01-12 14:53:39.56	282.73	13.77	-47.1	-48.3	15.3	0.00e+00	0	23	0	1416626176	59	4379
2026-01-12 14:53:42.56	283.34	13.80	-47.2	-48.4	15.3	0.00e+00	0	23	0	1433403392	59	4422
2026-01-12 14:53:45.55	283.95	13.82	-46.9	-48.1	15.4	0.00e+00	0	23	0	1450180608	59	4250
2026-01-12 14:53:48.56	284.56	13.84	-47.0	-48.2	15.4	0.00e+00	0	23	0	1466957824	59	4313
2026-01-12 14:53:51.55	285.17	13.86	-47.1	-48.3	15.3	0.00e+00	0	23	0	1483735040	59	4364
2026-01-12 14:53:54.55	285.78	13.87	-47.0	-48.2	15.4	0.00e+00	0	23	0	1500512256	59	4326
2026-01-12 14:53:57.55	286.39	13.88	-47.1	-48.3	15.4	0.00e+00	0	23	0	1517289472	59	4368
2026-01-12 14:54:00.54	287.00	13.89	-47.2	-48.4	15.3	0.00e+00	0	23	0	1534066688	59	4416
2026-01-12 14:54:03.54	287.62	13.90	-47.2	-48.5	15.3	0.00e+00	0	23	0	1550843904	59	4447
2026-01-12 14:54:06.55	288.23	13.90	-47.4	-48.6	15.2	0.00e+00	0	23	0	1567621120	59	4539
2026-01-12 14:54:09.55	288.84	13.90	-46.8	-47.9	15.6	0.00e+00	0	23	0	1585446912	60	3954
2026-01-12 14:54:12.54	289.46	13.90	-46.8	-47.9	15.6	0.00e+00	0	23	0	1602224128	60	3948
2026-01-12 14:54:15.55	290.07	13.89	-46.9	-48.0	15.6	0.00e+00	0	23	0	1619001344	60	4000
2026-01-12 14:54:18.55	290.68	13.88	-46.9	-48.0	15.6	0.00e+00	0	23	0	1635778560	60	4003
2026-01-12 14:54:21.54	291.29	13.87	-46.9	-48.1	15.5	0.00e+00	0	23	0	1652555776	60	4041
2026-01-12 14:54:24.52	291.90	13.85	-46.9	-48.1	15.5	0.00e+00	0	23	0	1669332992	60	4039
2026-01-12 14:54:27.51	292.51	13.83	-47.0	-48.3	15.5	0.00e+00	0	23	0	1686110208	60	4099
2026-01-12 14:54:30.51	293.12	13.81	-47.2	-48.4	15.4	0.00e+00	0	23	0	1702887424	60	4165
2026-01-12 14:54:33.51	293.73	13.79	-46.8	-48.0	15.6	0.00e+00	0	23	0	1719664640	60	3990
2026-01-12 14:54:36.47	294.33	13.76	-47.2	-48.4	15.4	0.00e+00	0	23	0	1736441856	60	4150
2026-01-12 14:54:39.45	294.93	13.73	-47.1	-48.3	15.4	0.00e+00	0	23	0	1753219072	60	4135
2026-01-12 14:54:42.45	295.53	13.70	-47.2	-48.4	15.4	0.00e+00	0	23	0	1769996288	60	4171
2026-01-12 14:54:45.45	296.14	13.66	-47.1	-48.4	15.4	0.00e+00	0	23	0	1786773504	60	4151
2026-01-12 14:54:48.44	296.74	13.62	-47.2	-48.4	15.4	0.00e+00	0	23	0	1803550720	60	4171
2026-01-12 14:54:51.44	297.34	13.58	-47.1	-48.3	15.4	0.00e+00	0	23	0	1820327936	60	4126
2026-01-12 14:54:54.46	297.94	13.54	-47.1	-48.3	15.5	0.00e+00	0	23	0	1837105152	60	4107
2026-01-12 14:54:57.46	298.54	13.49	-47.1	-48.3	15.4	0.00e+00	0	23	0	1853882368	60	4125
2026-01-12 14:55:00.45	299.13	13.44	-47.2	-48.4	15.4	0.00e+00	0	23	0	1871708160	60	4170
2026-01-12 14:55:03.44	299.72	13.39	-46.9	-48.1	15.5	0.00e+00	0	23	0	1888485376	60	4013
2026-01-12 14:55:06.44	300.32	13.33	-47.0	-48.2	15.5	0.00e+00	0	23	0	1905262592	60	4072
2026-01-12 14:55:09.44	300.90	13.28	-47.1	-48.3	15.5	0.00e+00	0	23	0	1922039808	60	4113
2026-01-12 14:55:12.44	301.49	13.22	-47.1	-48.4	15.4	0.00e+00	0	23	0	1938817024	60	4150
2026-01-12 14:55:15.44	302.07	13.15	-47.2	-48.5	15.4	0.00e+00	0	23	0	1955594240	60	4200
2026-01-12 14:55:18.45	302.66	13.09	-47.3	-48.5	15.4	0.00e+00	0	23	0	1972371456	60	4211
2026-01-12 14:55:21.45	303.24	13.02	-47.3	-48.6	15.3	0.00e+00	0	23	0	1989148672	60	4247
2026-01-12 14:55:24.43	303.81	12.95	-47.3	-48.5	15.3	0.00e+00	0	23	0	2005925888	60	4237
2026-01-12 14:55:27.42	304.38	12.88	-47.2	-48.4	15.4	0.00e+00	0	23	0	2022703104	60	4190
2026-01-12 14:55:30.41	304.95	12.80	-47.3	-48.5	15.3	0.00e+00	0	23	0	2039480320	60	4231
2026-01-12 14:55:33.40	305.52	12.72	-47.4	-48.6	15.3	0.00e+00	0	23	0	2056257536	60	4277
2026-01-12 14:55:36.39	306.08	12.64	-47.3	-48.6	15.3	0.00e+00	0	23	0	2073034752	60	4249
2026-01-12 14:55:39.39	306.64	12.56	-47.3	-48.5	15.4	0.00e+00	0	23	0	2089811968	60	4217
2026-01-12 14:55:42.36	307.20	12.48	-47.3	-48.5	15.3	0.00e+00	0	23	0	2106589184	60	4239
2026-01-12 14:55:45.34	307.75	12.39	-47.3	-48.6	15.3	0.00e+00	0	23	0	2123366400	60	4254
2026-01-12 14:55:48.34	308.30	12.31	-47.5	-48.7	15.3	0.00e+00	0	23	0	2140143616	60	4336
2026-01-12 14:55:51.34	308.85	12.22	-47.4	-48.6	15.3	0.00e+00	0	23	0	2156920832	60	4290
2026-01-12 14:55:54.34	309.40	12.12	-47.3	-48.6	15.3	0.00e+00	0	23	0	2174746624	60	4257
2026-01-12 14:55:57.34	309.94	12.03	-47.4	-48.7	15.3	0.00e+00	0	23	0	2191523840	60	4301
2026-01-12 14:56:00.35	310.48	11.93	-47.4	-48.7	15.2	0.00e+00	0	23	0	2208301056	60	4307
2026-01-12 14:56:03.35	311.02	11.83	-47.3	-48.6	15.3	0.00e+00	0	23	0	2225078272	60	4256
2026-01-12 14:56:06.35	311.55	11.73	-47.4	-48.7	15.3	0.00e+00	0	23	0	2241855488	60	4299
2026-01-12 14:56:09.35	312.08	11.63	-47.4	-48.7	15.2	0.00e+00	0	23	0	2258632704	60	4328
2026-01-12 14:56:12.34	312.60	11.53	-47.3	-48.6	15.3	0.00e+00	0	23	0	2275409920	60	4259
2026-01-12 14:56:15.35	313.13	11.42	-47.5	-48.8	15.2	0.00e+00	0	23	0	2292187136	60	4345
2026-01-12 14:56:18.37	313.65	11.32	-47.5	-48.8	15.2	0.00e+00	0	23	0	2308964352	60	4377
2026-01-12 14:56:21.35	314.16	11.21	-47.5	-48.8	15.2	0.00e+00	0	23	0	2326790144	60	4369
2026-01-12 14:56:24.32	314.66	11.10	-47.5	-48.7	15.2	0.00e+00	0	23	0	2342518784	60	4325
2026-01-12 14:56:27.31	315.17	10.99	-47.7	-48.9	15.1	0.00e+00	0	23	0	2359296000	60	4439
2026-01-12 14:56:30.30	315.67	10.88	-47.6	-48.9	15.1	0.00e+00	0	23	0	2377121792	60	4408
2026-01-12 14:56:33.29	316.17	10.76	-47.6	-48.9	15.1	0.00e+00	0	23	0	2392850432	60	4427
2026-01-12 14:56:36.28	316.66	10.65	-47.7	-49.0	15.1	0.00e+00	0	23	0	2409627648	60	4442
2026-01-12 14:56:39.25	317.15	10.53	-47.7	-49.0	15.1	0.00e+00	0	23	0	2427453440	60	4445
2026-01-12 14:56:42.23	317.63	10.42	-47.7	-49.0	15.1	0.00e+00	0	23	0	2443182080	60	4480
2026-01-12 14:56:45.23	318.12	10.30	-47.7	-49.0	15.1	0.00e+00	0	23	0	2459959296	60	4453
2026-01-12 14:56:48.22	318.60	10.18	-47.6	-48.9	15.1	0.00e+00	0	23	0	2477785088	60	4392
2026-01-12 14:56:51.22	319.07	10.06	-47.5	-48.8	15.2	0.00e+00	0	23	0	2494562304	60	4356
2026-01-12 14:56:54.22	319.55	9.93	-47.6	-48.8	15.1	0.00e+00	0	23	0	2511339520	60	4384
2026-01-12 14:56:57.22	320.02	9.81	-47.9	-49.2	15.0	0.00e+00	0	23	0	2528116736	60	4564
2026-01-12 14:57:00.21	320.48	9.69	-48.1	-49.4	15.0	0.00e+00	0	23	0	2544893952	61	4436
2026-01-12 14:57:03.20	320.94	9.56	-48.1	-49.4	15.0	0.00e+00	0	23	0	2561671168	61	4438
2026-01-12 14:57:06.18	321.39	9.43	-48.1	-49.4	15.0	0.00e+00	0	23	0	2578448384	61	4419
2026-01-12 14:57:09.17	321.85	9.31	-48.1	-49.4	15.0	0.00e+00	0	23	0	2595225600	61	4404
2026-01-12 14:57:12.17	322.30	9.18	-48.0	-49.3	15.0	0.00e+00	0	23	0	2612002816	61	4365
2026-01-12 14:57:15.17	322.74	9.05	-48.1	-49.5	14.9	0.00e+00	0	23	0	2628780032	61	4462
2026-01-12 14:57:18.18	323.19	8.92	-48.2	-49.5	14.9	0.00e+00	0	23	0	2645557248	61	4481
2026-01-12 14:57:21.18	323.62	8.79	-48.1	-49.5	14.9	0.00e+00	0	23	0	2662334464	61	4460
2026-01-12 14:57:24.18	324.06	8.66	-47.8	-49.1	15.1	0.00e+00	0	23	0	2679111680	61	4271
2026-01-12 14:57:27.18	324.49	8.52	-47.9	-49.2	15.1	0.00e+00	0	23	0	2696937472	61	4308
2026-01-12 14:57:30.17	324.92	8.39	-48.1	-49.5	14.9	0.00e+00	0	23	0	2713714688	61	4445
2026-01-12 14:57:33.16	325.34	8.26	-47.9	-49.3	15.0	0.00e+00	0	23	0	2730491904	61	4351
2026-01-12 14:57:36.14	325.76	8.13	-48.3	-49.7	14.8	0.00e+00	0	23	0	2747269120	61	4547
2026-01-12 14:57:39.13	326.17	7.99	-48.4	-49.8	14.9	0.00e+00	0	23	0	2764046336	62	4374
2026-01-12 14:57:42.14	326.58	7.86	-48.5	-49.9	14.8	0.00e+00	0	23	0	2780823552	62	4398
2026-01-12 14:57:45.13	326.99	7.72	-48.4	-49.8	14.9	0.00e+00	0	23	0	2797600768	62	4361
2026-01-12 14:57:48.14	327.40	7.58	-48.5	-49.9	14.8	0.00e+00	0	23	0	2814377984	62	4405
2026-01-12 14:57:51.13	327.80	7.45	-48.5	-49.9	14.8	0.00e+00	0	23	0	2831155200	62	4406
2026-01-12 14:57:54.13	328.19	7.31	-48.6	-50.0	14.7	0.00e+00	0	23	0	2847932416	62	4488
2026-01-12 14:57:57.13	328.59	7.17	-48.8	-50.3	14.6	0.00e+00	0	23	0	2864709632	62	4604
2026-01-12 14:58:00.14	328.98	7.04	-48.7	-50.1	14.7	0.00e+00	0	23	0	2881486848	62	4522
2026-01-12 14:58:03.13	329.37	6.90	-48.8	-50.3	14.6	0.00e+00	0	23	0	2898264064	62	4608
2026-01-12 14:58:06.13	329.75	6.76	-49.0	-50.5	14.6	0.00e+00	0	23	0	2915041280	63	4446
2026-01-12 14:58:09.13	330.13	6.62	-48.7	-50.1	14.8	0.00e+00	0	23	0	2932867072	63	4289
2026-01-12 14:58:12.12	330.51	6.48	-48.7	-50.2	14.8	0.00e+00	0	23	0	2949644288	63	4293
2026-01-12 14:58:15.11	330.88	6.34	-48.8	-50.2	14.7	0.00e+00	0	23	0	2966421504	63	4321
2026-01-12 14:58:18.12	331.25	6.20	-48.9	-50.4	14.6	0.00e+00	0	23	0	2983198720	63	4431
2026-01-12 14:58:21.12	331.61	6.06	-49.0	-50.5	14.7	0.00e+00	0	23	0	2999975936	64	4233
2026-01-12 14:58:24.11	331.98	5.92	-49.5	-51.1	14.3	0.00e+00	0	23	0	3016753152	64	4513
2026-01-12 14:58:27.11	332.34	5.78	-49.1	-50.6	14.6	0.00e+00	0	23	0	3033530368	64	4269
2026-01-12 14:58:30.11	332.69	5.64	-49.2	-50.7	14.6	0.00e+00	0	23	0	3050307584	64	4326
2026-01-12 14:58:33.10	333.04	5.50	-49.0	-50.6	14.6	0.00e+00	0	23	0	3067084800	64	4245
2026-01-12 14:58:36.09	333.39	5.36	-48.9	-50.4	14.7	0.00e+00	0	23	0	3083862016	64	4177
2026-01-12 14:58:39.09	333.74	5.22	-49.2	-50.8	14.5	0.00e+00	0	23	0	3100639232	64	4369
2026-01-12 14:58:42.09	334.08	5.08	-48.5	-50.0	14.7	0.00e+00	0	23	0	3117416448	63	4211
2026-01-12 14:58:45.07	334.42	4.94	-58.0	-71.1	3.8	8.45e-01	0	23	104	3127902208	81	16900
2026-01-12 14:58:48.08	334.76	4.80	-58.7	-71.8	3.8	8.45e-01	0	23	104	3127902208	82	17306
2026-01-12 14:58:51.07	335.09	4.66	-59.1	-72.1	3.8	8.45e-01	0	23	104	3127902208	83	17082
2026-01-12 14:58:54.06	335.42	4.52	-59.3	-72.3	3.8	8.45e-01	0	23	104	3127902208	83	17414
2026-01-12 14:58:57.06	335.75	4.38	-59.4	-72.4	3.8	8.46e-01	0	23	104	3127902208	83	17677
2026-01-12 14:59:00.05	336.08	4.24	-59.4	-72.4	3.8	8.46e-01	0	23	104	3127902208	83	17655
2026-01-12 14:59:03.07	336.40	4.10	-59.4	-72.5	3.8	8.46e-01	0	23	104	3127902208	83	17750
2026-01-12 14:59:06.06	336.72	3.96	-59.6	-72.7	3.8	8.46e-01	0	23	104	3127902208	84	17114
2026-01-12 14:59:09.04	337.03	3.82	-59.5	-72.6	3.8	8.45e-01	0	23	104	3127902208	84	16936
2026-01-12 14:59:12.05	337.35	3.68	-59.5	-72.6	3.8	8.47e-01	0	23	104	3127902208	84	16958
2026-01-12 14:59:15.06	337.66	3.54	-59.5	-72.5	3.8	8.47e-01	0	23	104	3127902208	84	16830
2026-01-12 14:59:18.04	337.97	3.40	-59.5	-72.5	3.8	8.45e-01	0	23	104	3127902208	84	16797
2026-01-12 14:59:21.04	338.27	3.26	-59.4	-72.5	3.8	8.46e-01	0	23	104	3127902208	84	16780
2026-01-12 14:59:24.04	338.57	3.12	-59.4	-72.5	3.8	8.45e-01	0	23	104	3127902208	84	16781
2026-01-12 14:59:27.03	338.87	2.98	-59.4	-72.4	3.8	8.46e-01	0	23	104	3127902208	84	16662
2026-01-12 14:59:30.03	339.17	2.84	-59.4	-72.4	3.8	8.47e-01	0	23	104	3127902208	84	16666
2026-01-12 14:59:33.02	339.46	2.70	-59.4	-72.5	3.8	8.46e-01	0	23	104	3127902208	84	16749
2026-01-12 14:59:36.03	339.75	2.55	-59.4	-72.4	3.8	8.47e-01	0	23	104	3127902208	84	16589
2026-01-12 14:59:39.00	340.04	2.42	-59.4	-72.4	3.8	8.46e-01	0	23	104	3127902208	84	16630
2026-01-12 14:59:41.99	340.33	2.28	-59.4	-72.4	3.8	8.46e-01	0	23	104	3127902208	84	16616
2026-01-12 14:59:44.97	340.61	2.14	-59.4	-72.4	3.8	8.46e-01	0	23	104	3127902208	84	16603
2026-01-12 14:59:47.95	340.89	2.00	-59.4	-72.4	3.8	8.46e-01	0	23	104	3127902208	84	16583

#Closed at: 2026-01-12 14:59:50
#Recorded file [3127 MB]: D:/lorett/data/31004_260112_174830.dat