passes_logs/2026/01/12/R3.2S_Murmansk/R3.2S_Murmansk__20260112_054713_NOAA_20_JPSS-1_rec.log

#Pass ID: 20260112_054713_NOAA 20 (JPSS-1)
#Satellite: NOAA 20 (JPSS-1)
#Configuration: NOAA 20
#almurnet v.1.7.20251203
#Start time: 2026-01-12 05:47:13

#Version: 2.2.20231116
#Station: R3.2S_Murmansk
#Location: 33.079688 lon 68.888172 lat
#TLE: 1 43013U 17073A   26011.59429536  .00000082  00000+0  59704-4 0  9990
#TLE: 2 43013  98.7632 312.5697 0001637  44.2118 315.9188 14.19535307422256

#Time	Az	El	Level	Level2	SNR	BER	BlckErr	Temp	State	Recorded	gain1	gain2
2026-01-12 05:47:13.62	72.10	2.03	-56.9	-72.9	3.8	1.49e+00	0	21	0	0	80	22092
2026-01-12 05:47:17.62	71.85	2.26	-56.8	-72.8	3.8	1.49e+00	0	21	104	0	78	24591
2026-01-12 05:47:21.62	71.59	2.49	-56.8	-72.8	3.8	1.49e+00	0	21	104	0	78	24605
2026-01-12 05:47:25.62	71.33	2.72	-56.8	-72.8	3.8	1.49e+00	0	21	104	0	78	24486
2026-01-12 05:47:29.63	71.07	2.95	-56.8	-72.8	3.8	1.49e+00	0	21	104	0	78	24646
2026-01-12 05:47:33.61	70.80	3.18	-56.8	-72.9	3.8	1.49e+00	0	21	104	0	78	24696
2026-01-12 05:47:37.61	70.53	3.42	-56.8	-72.8	3.8	1.49e+00	0	22	104	0	78	24487
2026-01-12 05:47:41.59	70.25	3.65	-56.8	-72.8	3.8	1.49e+00	0	22	104	0	78	24591
2026-01-12 05:47:45.59	69.97	3.89	-56.9	-72.7	3.8	1.49e+00	0	22	104	0	78	24384
2026-01-12 05:47:49.60	69.68	4.13	-56.9	-72.8	3.8	1.49e+00	0	22	104	0	78	24432
2026-01-12 05:47:53.60	69.39	4.37	-56.8	-72.4	3.8	1.49e+00	0	22	104	0	78	23447
2026-01-12 05:47:57.60	69.09	4.62	-56.7	-69.5	4.2	1.44e+00	0	22	0	0	78	16729
2026-01-12 05:48:01.59	68.79	4.86	-56.5	-66.8	5.2	6.80e-01	0	22	0	5242880	78	12342
2026-01-12 05:48:05.57	68.49	5.11	-56.7	-67.4	4.9	5.46e-01	0	22	0	12582912	78	13257
2026-01-12 05:48:09.57	68.17	5.35	-56.4	-64.9	6.4	1.49e+00	0	22	104	18874368	78	9869
2026-01-12 05:48:13.56	67.85	5.60	-54.9	-59.3	11.6	7.78e-05	0	22	0	25165824	76	5796
2026-01-12 05:48:17.54	67.53	5.85	-54.3	-58.1	12.4	3.80e-06	0	22	0	32505856	75	5388
2026-01-12 05:48:21.54	67.20	6.10	-54.3	-58.0	12.4	3.00e-06	0	22	0	40894464	74	5620
2026-01-12 05:48:25.54	66.87	6.35	-53.9	-57.1	13.1	0.00e+00	0	22	0	48234496	74	5099
2026-01-12 05:48:29.54	66.52	6.61	-53.6	-56.7	13.4	0.00e+00	0	22	0	55574528	73	5104
2026-01-12 05:48:33.53	66.17	6.86	-53.7	-56.8	13.3	0.00e+00	0	23	0	62914560	73	5187
2026-01-12 05:48:37.50	65.82	7.12	-53.6	-56.7	13.4	0.00e+00	0	22	0	70254592	73	5129
2026-01-12 05:48:41.50	65.46	7.38	-53.6	-56.7	13.4	0.00e+00	0	23	0	77594624	73	5108
2026-01-12 05:48:45.48	65.09	7.64	-53.5	-56.4	13.6	0.00e+00	0	22	0	84934656	73	4962
2026-01-12 05:48:49.47	64.72	7.90	-53.5	-56.4	13.6	0.00e+00	0	22	0	92274688	73	4977
2026-01-12 05:48:53.45	64.34	8.16	-53.5	-56.5	13.6	0.00e+00	0	23	0	100663296	73	4986
2026-01-12 05:48:57.43	63.95	8.43	-53.4	-56.2	13.8	0.00e+00	0	23	0	108003328	73	4843
2026-01-12 05:49:01.43	63.56	8.69	-53.2	-55.9	13.8	0.00e+00	0	22	0	115343360	72	4961
2026-01-12 05:49:05.41	63.15	8.96	-53.1	-55.7	14.0	0.00e+00	0	23	0	122683392	72	4828
2026-01-12 05:49:09.40	62.74	9.23	-53.0	-55.5	14.1	0.00e+00	0	23	0	130023424	72	4737
2026-01-12 05:49:13.37	62.32	9.50	-53.1	-55.6	14.0	0.00e+00	0	23	0	137363456	72	4814
2026-01-12 05:49:17.35	61.90	9.77	-53.0	-55.6	14.1	0.00e+00	0	23	0	144703488	72	4786
2026-01-12 05:49:21.34	61.46	10.04	-53.2	-55.9	13.9	0.00e+00	0	23	0	153092096	72	4933
2026-01-12 05:49:25.32	61.02	10.31	-53.2	-55.8	14.0	0.00e+00	0	23	0	160432128	72	4889
2026-01-12 05:49:29.31	60.57	10.59	-53.4	-56.1	13.8	0.00e+00	0	23	0	167772160	72	5059
2026-01-12 05:49:33.29	60.11	10.87	-53.1	-55.7	14.1	0.00e+00	0	23	0	175112192	72	4819
2026-01-12 05:49:37.28	59.64	11.14	-53.1	-55.6	14.1	0.00e+00	0	23	0	182452224	72	4804
2026-01-12 05:49:41.27	59.16	11.42	-52.9	-55.4	14.3	0.00e+00	0	23	0	189792256	72	4662
2026-01-12 05:49:45.26	58.67	11.70	-52.8	-55.2	14.4	0.00e+00	0	23	0	197132288	72	4593
2026-01-12 05:49:49.25	58.17	11.99	-52.7	-55.0	14.5	0.00e+00	0	23	0	204472320	72	4471
2026-01-12 05:49:53.25	57.66	12.27	-52.6	-54.8	14.5	0.00e+00	0	23	0	212860928	71	4651
2026-01-12 05:49:57.24	57.14	12.55	-52.6	-54.9	14.5	0.00e+00	0	23	0	220200960	71	4679
2026-01-12 05:50:01.24	56.61	12.84	-52.7	-55.0	14.4	0.00e+00	0	23	0	227540992	71	4712
2026-01-12 05:50:05.23	56.07	13.13	-52.6	-54.9	14.5	0.00e+00	0	23	0	234881024	71	4655
2026-01-12 05:50:09.21	55.52	13.41	-52.3	-54.5	14.8	0.00e+00	0	23	0	242221056	71	4454
2026-01-12 05:50:13.19	54.96	13.70	-52.2	-54.3	14.8	0.00e+00	0	23	0	249561088	71	4376
2026-01-12 05:50:17.19	54.39	13.99	-52.1	-54.2	14.8	0.00e+00	0	23	0	256901120	70	4558
2026-01-12 05:50:21.18	53.81	14.27	-52.2	-54.3	14.7	0.00e+00	0	23	0	265289728	70	4613
2026-01-12 05:50:25.17	53.21	14.56	-52.2	-54.4	14.6	0.00e+00	0	23	0	272629760	70	4672
2026-01-12 05:50:29.16	52.60	14.85	-52.3	-54.5	14.6	0.00e+00	0	23	0	279969792	70	4715
2026-01-12 05:50:33.14	51.99	15.14	-52.3	-54.5	14.6	0.00e+00	0	23	0	287309824	70	4743
2026-01-12 05:50:37.12	51.35	15.43	-52.4	-54.6	14.5	0.00e+00	0	23	0	294649856	70	4777
2026-01-12 05:50:41.12	50.71	15.72	-52.6	-54.9	14.3	0.00e+00	0	23	0	301989888	70	4964
2026-01-12 05:50:45.10	50.05	16.00	-52.5	-54.7	14.4	0.00e+00	0	23	0	309329920	70	4859
2026-01-12 05:50:49.11	49.38	16.29	-52.6	-54.8	14.4	0.00e+00	0	23	0	316669952	70	4906
2026-01-12 05:50:53.10	48.70	16.58	-52.8	-55.1	14.2	0.00e+00	0	23	0	325058560	70	5078
2026-01-12 05:50:57.09	48.00	16.87	-52.7	-55.1	14.2	0.00e+00	0	23	0	332398592	70	5054
2026-01-12 05:51:01.09	47.29	17.15	-52.7	-55.0	14.3	0.00e+00	0	23	0	339738624	70	5004
2026-01-12 05:51:05.08	46.56	17.43	-52.6	-54.8	14.4	0.00e+00	0	23	0	347078656	70	4899
2026-01-12 05:51:09.06	45.83	17.72	-52.6	-54.7	14.4	0.00e+00	0	23	0	354418688	70	4870
2026-01-12 05:51:13.06	45.08	18.00	-52.3	-54.4	14.6	0.00e+00	0	23	0	361758720	70	4698
2026-01-12 05:51:17.04	44.31	18.27	-52.1	-54.2	14.8	0.00e+00	0	23	0	369098752	70	4548
2026-01-12 05:51:21.03	43.53	18.55	-51.9	-53.9	15.0	0.00e+00	0	23	0	377487360	70	4413
2026-01-12 05:51:25.02	42.74	18.82	-51.2	-53.0	15.3	0.00e+00	0	23	0	384827392	69	4217
2026-01-12 05:51:29.00	41.93	19.09	-50.9	-52.7	15.3	0.00e+00	0	23	0	392167424	68	4294
2026-01-12 05:51:33.00	41.10	19.36	-50.8	-52.5	15.4	0.00e+00	0	23	0	399507456	68	4196
2026-01-12 05:51:37.01	40.26	19.62	-50.5	-52.1	15.4	0.00e+00	0	23	0	406847488	67	4273
2026-01-12 05:51:40.99	39.41	19.88	-50.4	-52.1	15.4	0.00e+00	0	23	0	414187520	67	4249
2026-01-12 05:51:44.98	38.54	20.14	-50.2	-51.8	15.5	0.00e+00	0	23	0	421527552	67	4139
2026-01-12 05:51:48.97	37.66	20.39	-50.1	-51.6	15.5	0.00e+00	0	23	0	428867584	66	4284
2026-01-12 05:51:52.95	36.77	20.64	-50.2	-51.8	15.4	0.00e+00	0	23	0	437256192	66	4345
2026-01-12 05:51:56.95	35.86	20.88	-50.3	-51.9	15.4	0.00e+00	0	23	0	444596224	66	4392
2026-01-12 05:52:00.96	34.93	21.11	-50.4	-52.1	15.3	0.00e+00	0	23	0	451936256	66	4503
2026-01-12 05:52:04.95	33.99	21.34	-50.4	-52.0	15.3	0.00e+00	0	23	0	459276288	66	4472
2026-01-12 05:52:08.94	33.03	21.57	-50.4	-52.0	15.3	0.00e+00	0	23	0	466616320	66	4482
2026-01-12 05:52:12.93	32.07	21.78	-50.0	-51.6	15.5	0.00e+00	0	23	0	473956352	66	4245
2026-01-12 05:52:16.91	31.09	21.99	-50.0	-51.5	15.5	0.00e+00	0	23	0	481296384	66	4229
2026-01-12 05:52:20.90	30.09	22.19	-50.1	-51.7	15.5	0.00e+00	0	23	0	489684992	66	4299
2026-01-12 05:52:24.89	29.09	22.39	-49.8	-51.3	15.7	0.00e+00	0	23	0	497025024	66	4103
2026-01-12 05:52:28.90	28.06	22.57	-49.9	-51.4	15.6	0.00e+00	0	23	0	504365056	66	4176
2026-01-12 05:52:32.90	27.03	22.75	-49.9	-51.4	15.6	0.00e+00	0	23	0	511705088	66	4180
2026-01-12 05:52:36.88	25.99	22.92	-50.2	-51.8	15.4	0.00e+00	0	23	0	519045120	66	4343
2026-01-12 05:52:40.89	24.93	23.08	-50.0	-51.6	15.5	0.00e+00	0	23	0	526385152	66	4264
2026-01-12 05:52:44.88	23.87	23.23	-50.3	-51.9	15.4	0.00e+00	0	23	0	533725184	66	4419
2026-01-12 05:52:48.88	22.79	23.37	-50.8	-52.6	15.0	0.00e+00	0	23	0	542113792	66	4769
2026-01-12 05:52:52.88	21.70	23.50	-51.2	-53.0	14.9	0.00e+00	0	23	0	549453824	67	4747
2026-01-12 05:52:56.88	20.61	23.62	-51.7	-53.5	14.9	0.00e+00	0	23	0	556793856	68	4749
2026-01-12 05:53:00.87	19.51	23.72	-51.6	-53.4	14.9	0.00e+00	0	23	0	564133888	68	4681
2026-01-12 05:53:04.86	18.40	23.82	-51.9	-53.8	14.7	0.00e+00	0	23	0	571473920	68	4914
2026-01-12 05:53:08.84	17.29	23.91	-52.1	-54.2	14.7	0.00e+00	0	23	0	578813952	69	4815
2026-01-12 05:53:12.80	16.18	23.98	-52.2	-54.2	14.7	0.00e+00	0	23	0	586153984	69	4831
2026-01-12 05:53:16.80	15.05	24.04	-51.8	-53.7	14.9	0.00e+00	0	23	0	594542592	69	4581
2026-01-12 05:53:20.79	13.92	24.09	-51.8	-53.7	14.9	0.00e+00	0	23	0	601882624	69	4583
2026-01-12 05:53:24.79	12.79	24.13	-52.1	-54.1	14.7	0.00e+00	0	23	0	609222656	69	4766
2026-01-12 05:53:28.78	11.65	24.15	-51.8	-53.7	15.0	0.00e+00	0	23	0	616562688	69	4576
2026-01-12 05:53:32.77	10.52	24.17	-51.7	-53.6	15.0	0.00e+00	0	23	0	623902720	69	4528
2026-01-12 05:53:36.76	9.38	24.17	-51.5	-53.2	15.2	0.00e+00	0	23	0	631242752	69	4339
2026-01-12 05:53:40.76	8.24	24.16	-51.3	-53.1	15.3	0.00e+00	0	23	0	638582784	69	4257
2026-01-12 05:53:44.78	7.10	24.13	-51.0	-52.7	15.3	0.00e+00	0	23	0	646971392	68	4339
2026-01-12 05:53:48.76	5.97	24.10	-50.5	-52.1	15.4	0.00e+00	0	23	0	654311424	67	4270
2026-01-12 05:53:52.78	4.84	24.05	-50.1	-51.7	15.5	0.00e+00	0	23	0	661651456	66	4305
2026-01-12 05:53:56.77	3.71	23.99	-49.9	-51.4	15.6	0.00e+00	0	23	0	668991488	66	4182
2026-01-12 05:54:00.77	2.59	23.92	-49.6	-51.1	15.5	0.00e+00	0	23	0	676331520	65	4246
2026-01-12 05:54:04.77	1.47	23.84	-49.5	-51.0	15.6	0.00e+00	0	23	0	683671552	65	4202
2026-01-12 05:54:08.76	0.36	23.74	-49.4	-50.9	15.7	0.00e+00	0	23	0	691011584	65	4165
2026-01-12 05:54:12.76	359.26	23.64	-49.8	-51.3	15.5	0.00e+00	0	23	0	699400192	65	4362
2026-01-12 05:54:16.75	358.16	23.52	-49.9	-51.4	15.4	0.00e+00	0	23	0	706740224	65	4411
2026-01-12 05:54:20.75	357.08	23.39	-49.9	-51.5	15.4	0.00e+00	0	23	0	714080256	65	4456
2026-01-12 05:54:24.73	356.00	23.26	-50.4	-52.0	15.1	0.00e+00	0	23	0	721420288	65	4740
2026-01-12 05:54:28.71	354.94	23.11	-50.6	-52.2	15.2	0.00e+00	0	23	0	728760320	66	4592
2026-01-12 05:54:32.71	353.88	22.95	-50.6	-52.2	15.2	0.00e+00	0	23	0	736100352	66	4584
2026-01-12 05:54:36.71	352.84	22.79	-51.1	-52.8	15.1	0.00e+00	0	23	0	743440384	67	4628
2026-01-12 05:54:40.70	351.80	22.61	-51.2	-53.0	15.0	0.00e+00	0	23	0	751828992	67	4732
2026-01-12 05:54:44.70	350.78	22.43	-51.2	-53.0	14.9	0.00e+00	0	23	0	759169024	67	4747
2026-01-12 05:54:48.69	349.77	22.23	-51.7	-53.5	14.8	0.00e+00	0	23	0	766509056	68	4751
2026-01-12 05:54:52.69	348.77	22.03	-51.9	-53.8	14.7	0.00e+00	0	23	0	773849088	68	4906
2026-01-12 05:54:56.69	347.79	21.82	-51.6	-53.4	15.1	0.00e+00	0	23	0	781189120	69	4436
2026-01-12 05:55:00.70	346.81	21.61	-51.9	-53.9	14.8	0.00e+00	0	23	0	788529152	69	4658
2026-01-12 05:55:04.70	345.86	21.39	-51.6	-53.5	15.0	0.00e+00	0	23	0	795869184	69	4470
2026-01-12 05:55:08.67	344.92	21.16	-51.7	-53.6	15.0	0.00e+00	0	23	0	804257792	69	4501
2026-01-12 05:55:12.66	343.99	20.92	-51.6	-53.4	15.1	0.00e+00	0	23	0	811597824	69	4440
2026-01-12 05:55:16.65	343.08	20.68	-51.4	-53.2	15.2	0.00e+00	0	23	0	818937856	69	4311
2026-01-12 05:55:20.64	342.18	20.44	-51.3	-53.1	15.3	0.00e+00	0	23	0	826277888	69	4243
2026-01-12 05:55:24.61	341.30	20.19	-51.1	-52.9	15.2	0.00e+00	0	23	0	833617920	68	4405
2026-01-12 05:55:28.62	340.43	19.94	-51.4	-53.2	15.0	0.00e+00	0	23	0	840957952	68	4585
2026-01-12 05:55:32.61	339.58	19.68	-51.3	-53.1	15.1	0.00e+00	0	23	0	848297984	68	4528
2026-01-12 05:55:36.61	338.73	19.41	-51.3	-53.0	15.1	0.00e+00	0	23	0	856686592	68	4484
2026-01-12 05:55:40.59	337.91	19.15	-51.3	-53.1	15.1	0.00e+00	0	23	0	864026624	68	4495
2026-01-12 05:55:44.59	337.10	18.88	-51.3	-53.1	15.1	0.00e+00	0	23	0	871366656	68	4532
2026-01-12 05:55:48.58	336.30	18.61	-51.4	-53.2	15.0	0.00e+00	0	23	0	878706688	68	4552
2026-01-12 05:55:52.58	335.52	18.33	-51.3	-53.1	15.0	0.00e+00	0	23	0	886046720	68	4539
2026-01-12 05:55:56.58	334.75	18.05	-51.2	-52.9	15.2	0.00e+00	0	23	0	893386752	68	4423
2026-01-12 05:56:00.57	333.99	17.77	-51.2	-53.0	15.1	0.00e+00	0	23	0	900726784	68	4459
2026-01-12 05:56:04.58	333.25	17.49	-51.0	-52.7	15.2	0.00e+00	0	23	0	909115392	68	4334
2026-01-12 05:56:08.58	332.52	17.21	-50.5	-52.1	15.4	0.00e+00	0	23	0	916455424	67	4273
2026-01-12 05:56:12.57	331.81	16.92	-50.5	-52.2	15.4	0.00e+00	0	23	0	923795456	67	4305
2026-01-12 05:56:16.56	331.11	16.64	-50.6	-52.3	15.3	0.00e+00	0	23	0	931135488	67	4361
2026-01-12 05:56:20.53	330.43	16.35	-50.3	-52.0	15.5	0.00e+00	0	23	0	938475520	67	4202
2026-01-12 05:56:24.53	329.76	16.06	-50.3	-51.9	15.5	0.00e+00	0	23	0	945815552	67	4159
2026-01-12 05:56:28.53	329.10	15.78	-50.5	-52.1	15.4	0.00e+00	0	23	0	953155584	67	4290
2026-01-12 05:56:32.53	328.45	15.49	-50.4	-52.1	15.4	0.00e+00	0	23	0	961544192	67	4253
2026-01-12 05:56:36.53	327.82	15.20	-50.4	-52.0	15.4	0.00e+00	0	23	0	968884224	67	4221
2026-01-12 05:56:40.52	327.20	14.91	-50.4	-52.0	15.4	0.00e+00	0	23	0	976224256	67	4224
2026-01-12 05:56:44.52	326.59	14.62	-50.5	-52.2	15.3	0.00e+00	0	23	0	983564288	67	4314
2026-01-12 05:56:48.51	325.99	14.33	-50.8	-52.6	15.1	0.00e+00	0	23	0	990904320	67	4495
2026-01-12 05:56:52.49	325.41	14.05	-50.9	-52.7	15.0	0.00e+00	0	23	0	998244352	67	4587
2026-01-12 05:56:56.49	324.83	13.76	-51.1	-52.9	14.9	0.00e+00	0	23	0	1005584384	67	4670
2026-01-12 05:57:00.47	324.27	13.47	-50.9	-52.7	15.0	0.00e+00	0	23	0	1013972992	67	4592
2026-01-12 05:57:04.48	323.72	13.18	-51.0	-52.9	14.9	0.00e+00	0	23	0	1021313024	67	4667
2026-01-12 05:57:08.49	323.17	12.90	-51.3	-53.2	14.7	0.00e+00	0	23	0	1028653056	67	4863
2026-01-12 05:57:12.48	322.64	12.61	-51.3	-53.2	14.8	0.00e+00	0	23	0	1035993088	67	4852
2026-01-12 05:57:16.47	322.12	12.33	-51.3	-53.3	14.7	0.00e+00	0	23	0	1043333120	67	4884
2026-01-12 05:57:20.46	321.61	12.05	-51.7	-53.7	14.6	0.00e+00	0	23	0	1050673152	68	4848
2026-01-12 05:57:24.45	321.11	11.76	-51.6	-53.6	14.7	0.00e+00	0	23	0	1058013184	68	4783
2026-01-12 05:57:28.44	320.62	11.48	-51.8	-53.9	14.6	0.00e+00	0	23	0	1066401792	68	4933
2026-01-12 05:57:32.44	320.14	11.20	-52.0	-54.1	14.6	0.00e+00	0	23	0	1073741824	69	4762
2026-01-12 05:57:36.45	319.67	10.92	-52.0	-54.1	14.6	0.00e+00	0	23	0	1081081856	69	4791
2026-01-12 05:57:40.45	319.21	10.65	-52.0	-54.1	14.6	0.00e+00	0	23	0	1088421888	69	4788
2026-01-12 05:57:44.45	318.75	10.37	-52.1	-54.2	14.5	0.00e+00	0	23	0	1095761920	69	4861
2026-01-12 05:57:48.44	318.31	10.10	-52.1	-54.3	14.4	0.00e+00	0	23	0	1103101952	69	4913
2026-01-12 05:57:52.44	317.87	9.82	-52.5	-54.8	14.3	0.00e+00	0	23	0	1110441984	70	4893
2026-01-12 05:57:56.43	317.44	9.55	-52.6	-55.0	14.1	0.00e+00	0	23	0	1118830592	70	5037
2026-01-12 05:58:00.42	317.03	9.28	-52.7	-55.1	14.1	0.00e+00	0	23	0	1126170624	70	5097
2026-01-12 05:58:04.43	316.61	9.01	-52.9	-55.4	13.9	0.00e+00	0	23	0	1133510656	70	5251
2026-01-12 05:58:08.41	316.21	8.74	-53.1	-55.7	13.8	0.00e+00	0	23	0	1140850688	71	5114
2026-01-12 05:58:12.41	315.81	8.48	-53.1	-55.7	13.8	0.00e+00	0	23	0	1148190720	71	5106
2026-01-12 05:58:16.41	315.42	8.21	-52.9	-55.5	13.9	0.00e+00	0	23	0	1155530752	71	5008
2026-01-12 05:58:20.39	315.04	7.95	-52.8	-55.3	14.0	0.00e+00	0	23	0	1162870784	71	4918
2026-01-12 05:58:24.37	314.67	7.69	-53.0	-55.7	13.8	0.00e+00	0	23	0	1171259392	71	5119
2026-01-12 05:58:28.35	314.30	7.43	-53.2	-55.9	13.7	0.00e+00	0	23	0	1178599424	71	5231
2026-01-12 05:58:32.35	313.94	7.17	-53.2	-56.0	13.6	0.00e+00	0	23	0	1185939456	71	5319
2026-01-12 05:58:36.33	313.59	6.91	-53.2	-56.0	13.5	0.00e+00	0	23	0	1193279488	71	5315
2026-01-12 05:58:40.33	313.24	6.66	-53.3	-56.1	13.5	0.00e+00	0	23	0	1200619520	71	5365
2026-01-12 05:58:44.34	312.89	6.40	-53.5	-56.5	13.3	0.00e+00	0	23	0	1207959552	72	5295
2026-01-12 05:58:48.34	312.56	6.15	-53.5	-56.6	13.2	0.00e+00	0	23	0	1215299584	72	5367
2026-01-12 05:58:52.33	312.23	5.90	-53.9	-57.2	12.7	0.00e+00	0	23	0	1223688192	72	5763
2026-01-12 05:58:56.32	311.91	5.65	-53.8	-57.1	12.8	0.00e+00	0	23	0	1231028224	72	5699
2026-01-12 05:59:00.33	311.59	5.40	-53.7	-56.9	12.9	0.00e+00	0	23	0	1238368256	72	5591
2026-01-12 05:59:04.33	311.27	5.15	-53.7	-56.9	12.9	0.00e+00	0	23	0	1245708288	72	5591
2026-01-12 05:59:08.33	310.96	4.91	-58.0	-74.2	3.8	1.49e+00	0	23	104	1250951168	81	24143
2026-01-12 05:59:12.32	310.66	4.66	-58.8	-74.8	3.8	1.49e+00	0	23	104	1250951168	82	24583
2026-01-12 05:59:16.30	310.37	4.42	-59.2	-75.3	3.8	1.49e+00	0	23	104	1250951168	83	24463
2026-01-12 05:59:20.28	310.08	4.18	-59.7	-75.7	3.8	1.49e+00	0	23	104	1250951168	84	24200
2026-01-12 05:59:24.28	309.79	3.94	-59.8	-75.8	3.8	1.49e+00	0	23	104	1250951168	84	24619
2026-01-12 05:59:28.25	309.51	3.71	-59.8	-75.9	3.8	1.49e+00	0	23	104	1250951168	84	24780
2026-01-12 05:59:32.24	309.23	3.47	-59.7	-75.7	3.8	1.49e+00	0	23	104	1250951168	84	24299
2026-01-12 05:59:36.24	308.96	3.23	-59.6	-75.7	3.8	1.49e+00	0	23	104	1250951168	84	24256
2026-01-12 05:59:40.22	308.69	3.00	-59.6	-75.6	3.8	1.49e+00	0	23	104	1250951168	84	24083
2026-01-12 05:59:44.21	308.43	2.77	-59.6	-75.6	3.8	1.49e+00	0	23	104	1250951168	84	24123
2026-01-12 05:59:48.20	308.17	2.54	-59.6	-75.6	3.8	1.49e+00	0	23	104	1250951168	84	24009
2026-01-12 05:59:52.21	307.92	2.31	-59.5	-75.6	3.8	1.49e+00	0	23	104	1250951168	84	23877
2026-01-12 05:59:56.20	307.67	2.08	-59.5	-75.5	3.8	1.49e+00	0	23	104	1250951168	84	23780

#Closed at: 2026-01-12 05:59:57
#Recorded file [1250 MB]: D:/lorett/data/31004_260112_084713.dat