passes_logs/2026/01/12/R3.2S_Murmansk/R3.2S_Murmansk__20260112_233858_NOAA_21_JPSS-2_rec.log

#Pass ID: 20260112_233858_NOAA 21 (JPSS-2)
#Satellite: NOAA 21 (JPSS-2)
#Configuration: NOAA-21
#almurnet v.1.7.20251203
#Start time: 2026-01-12 23:38:58

#Version: 2.2.20231116
#Station: R3.2S_Murmansk
#Location: 33.079688 lon 68.888172 lat
#TLE: 1 54234U 22150A   26012.26378519  .00000063  00000+0  50547-4 0  9993
#TLE: 2 54234  98.7495 313.1967 0000726 309.1075  51.0036 14.19534275164425

#Time	Az	El	Level	Level2	SNR	BER	BlckErr	Temp	State	Recorded	gain1	gain2
2026-01-12 23:38:58.70	21.20	2.00	-57.1	-70.4	3.8	1.49e+00	0	20	0	0	80	16674
2026-01-12 23:39:02.70	21.33	2.25	-57.0	-69.7	3.8	1.49e+00	0	20	104	0	79	16267
2026-01-12 23:39:06.71	21.46	2.50	-57.0	-68.8	3.9	1.49e+00	0	20	104	0	79	14675
2026-01-12 23:39:10.72	21.59	2.75	-56.8	-67.2	4.0	1.47e+00	0	20	104	0	79	12125
2026-01-12 23:39:14.72	21.73	3.01	-56.6	-65.0	5.1	5.83e-01	0	21	0	3145728	79	9423
2026-01-12 23:39:18.70	21.87	3.26	-56.3	-63.4	6.2	2.26e-01	0	21	0	15728640	79	7833
2026-01-12 23:39:22.70	22.01	3.52	-55.7	-61.0	8.2	4.80e-02	0	21	0	28311552	78	6300
2026-01-12 23:39:26.69	22.15	3.79	-53.5	-56.5	11.9	4.11e-05	0	21	0	40894464	73	5025
2026-01-12 23:39:30.68	22.29	4.05	-51.8	-54.0	13.6	0.00e+00	0	21	0	53477376	70	4457
2026-01-12 23:39:34.69	22.44	4.32	-51.6	-53.7	13.6	0.00e+00	0	21	0	66060288	69	4567
2026-01-12 23:39:38.67	22.59	4.58	-52.7	-55.3	12.5	7.00e-07	0	21	0	78643200	70	5171
2026-01-12 23:39:42.68	22.74	4.86	-54.4	-58.3	10.2	7.13e-04	0	21	0	91226112	73	6202
2026-01-12 23:39:46.68	22.89	5.13	-52.1	-54.4	13.3	7.00e-07	0	21	0	103809024	70	4653
2026-01-12 23:39:50.67	23.05	5.41	-52.7	-55.1	13.0	2.34e-03	0	21	0	113246208	72	4506
2026-01-12 23:39:54.67	23.21	5.69	-51.4	-53.3	14.0	0.00e+00	0	21	0	125829120	69	4383
2026-01-12 23:39:58.66	23.37	5.97	-50.8	-52.6	14.4	0.00e+00	0	21	0	138412032	68	4263
2026-01-12 23:40:02.66	23.53	6.26	-50.6	-52.4	14.3	0.00e+00	0	21	0	150994944	67	4396
2026-01-12 23:40:06.66	23.70	6.55	-50.6	-52.4	14.3	0.00e+00	0	22	0	163577856	67	4423
2026-01-12 23:40:10.66	23.87	6.84	-50.4	-52.1	14.5	0.00e+00	0	21	0	175112192	67	4280
2026-01-12 23:40:14.66	24.05	7.14	-50.4	-52.0	14.6	0.00e+00	0	21	0	187695104	67	4233
2026-01-12 23:40:18.65	24.22	7.43	-50.1	-51.7	14.6	0.00e+00	0	21	0	200278016	66	4340
2026-01-12 23:40:22.65	24.40	7.74	-50.0	-51.6	14.7	0.00e+00	0	22	0	212860928	66	4257
2026-01-12 23:40:26.65	24.59	8.04	-49.9	-51.5	14.8	0.00e+00	0	22	0	225443840	66	4206
2026-01-12 23:40:30.64	24.77	8.35	-50.0	-51.6	14.8	0.00e+00	0	22	0	238026752	66	4247
2026-01-12 23:40:34.63	24.96	8.66	-50.0	-51.6	14.7	0.00e+00	0	22	0	250609664	66	4265
2026-01-12 23:40:38.62	25.16	8.98	-49.8	-51.4	14.9	0.00e+00	0	22	0	263192576	66	4157
2026-01-12 23:40:42.63	25.36	9.30	-49.6	-51.2	14.8	0.00e+00	0	22	0	275775488	65	4293
2026-01-12 23:40:46.62	25.56	9.62	-49.5	-51.0	15.0	0.00e+00	0	22	0	288358400	65	4200
2026-01-12 23:40:50.61	25.76	9.95	-49.4	-50.9	15.0	0.00e+00	0	22	0	300941312	65	4166
2026-01-12 23:40:54.61	25.97	10.28	-49.4	-50.9	15.0	0.00e+00	0	22	0	312475648	65	4156
2026-01-12 23:40:58.61	26.19	10.62	-49.4	-50.9	15.0	0.00e+00	0	22	0	325058560	65	4148
2026-01-12 23:41:02.60	26.41	10.96	-49.4	-50.8	15.1	0.00e+00	0	22	0	337641472	65	4135
2026-01-12 23:41:06.59	26.63	11.30	-49.0	-50.4	15.1	0.00e+00	0	22	0	350224384	64	4176
2026-01-12 23:41:10.59	26.86	11.65	-49.1	-50.5	15.1	0.00e+00	0	22	0	362807296	64	4201
2026-01-12 23:41:14.60	27.10	12.01	-49.0	-50.4	15.1	0.00e+00	0	22	0	375390208	64	4186
2026-01-12 23:41:18.60	27.33	12.37	-48.9	-50.2	15.2	0.00e+00	0	22	0	387973120	64	4098
2026-01-12 23:41:22.60	27.58	12.73	-48.8	-50.2	15.3	0.00e+00	0	22	0	400556032	64	4071
2026-01-12 23:41:26.60	27.83	13.10	-48.6	-50.0	15.3	0.00e+00	0	22	0	413138944	63	4199
2026-01-12 23:41:30.55	28.08	13.47	-48.7	-50.0	15.2	0.00e+00	0	22	0	425721856	63	4241
2026-01-12 23:41:34.55	28.35	13.85	-48.8	-50.1	15.2	0.00e+00	0	22	0	438304768	63	4267
2026-01-12 23:41:38.53	28.61	14.23	-48.9	-50.3	15.1	0.00e+00	0	22	0	449839104	63	4355
2026-01-12 23:41:42.52	28.89	14.62	-48.9	-50.2	15.1	0.00e+00	0	22	0	462422016	63	4332
2026-01-12 23:41:46.52	29.17	15.02	-48.9	-50.3	15.1	0.00e+00	0	22	0	475004928	63	4370
2026-01-12 23:41:50.52	29.46	15.42	-49.0	-50.3	15.1	0.00e+00	0	22	0	487587840	63	4391
2026-01-12 23:41:54.53	29.76	15.83	-49.1	-50.5	15.0	0.00e+00	0	22	0	500170752	63	4461
2026-01-12 23:41:58.53	30.07	16.25	-48.9	-50.3	15.1	0.00e+00	0	22	0	512753664	63	4359
2026-01-12 23:42:02.54	30.38	16.67	-48.9	-50.3	15.1	0.00e+00	0	22	0	525336576	63	4355
2026-01-12 23:42:06.52	30.70	17.09	-49.0	-50.4	15.1	0.00e+00	0	22	0	537919488	63	4405
2026-01-12 23:42:10.53	31.03	17.53	-49.0	-50.3	15.1	0.00e+00	0	22	0	550502400	63	4389
2026-01-12 23:42:14.55	31.37	17.97	-48.9	-50.2	15.2	0.00e+00	0	22	0	563085312	63	4310
2026-01-12 23:42:18.55	31.72	18.42	-48.8	-50.1	15.2	0.00e+00	0	22	0	575668224	63	4263
2026-01-12 23:42:22.55	32.08	18.88	-48.8	-50.1	15.2	0.00e+00	0	22	0	588251136	63	4274
2026-01-12 23:42:26.54	32.45	19.34	-48.7	-50.0	15.3	0.00e+00	0	22	0	599785472	63	4220
2026-01-12 23:42:30.55	32.83	19.82	-48.6	-49.9	15.3	0.00e+00	0	22	0	612368384	63	4174
2026-01-12 23:42:34.54	33.22	20.29	-48.1	-49.3	15.5	0.00e+00	0	22	0	624951296	62	4126
2026-01-12 23:42:38.55	33.63	20.78	-47.8	-49.0	15.6	0.00e+00	0	22	0	637534208	62	3982
2026-01-12 23:42:42.57	34.04	21.28	-47.7	-48.9	15.7	0.00e+00	0	22	0	650117120	62	3936
2026-01-12 23:42:46.57	34.47	21.79	-47.6	-48.8	15.6	0.00e+00	0	22	0	662700032	61	4110
2026-01-12 23:42:50.57	34.92	22.30	-47.6	-48.8	15.6	0.00e+00	0	22	0	675282944	61	4102
2026-01-12 23:42:54.57	35.37	22.82	-47.4	-48.6	15.7	0.00e+00	0	22	0	687865856	61	4006
2026-01-12 23:42:58.57	35.85	23.35	-47.5	-48.6	15.6	0.00e+00	0	22	0	700448768	61	4041
2026-01-12 23:43:02.56	36.33	23.89	-47.6	-48.8	15.6	0.00e+00	0	22	0	713031680	61	4120
2026-01-12 23:43:06.55	36.84	24.44	-47.8	-49.0	15.4	0.00e+00	0	22	0	725614592	61	4229
2026-01-12 23:43:10.55	37.36	25.00	-47.9	-49.1	15.4	0.00e+00	0	22	0	738197504	61	4258
2026-01-12 23:43:14.55	37.90	25.57	-48.3	-49.6	15.2	0.00e+00	0	22	0	750780416	61	4512
2026-01-12 23:43:18.55	38.46	26.14	-48.3	-49.6	15.2	0.00e+00	0	22	0	762314752	61	4498
2026-01-12 23:43:22.53	39.04	26.73	-48.4	-49.7	15.2	0.00e+00	0	22	0	774897664	61	4559
2026-01-12 23:43:26.53	39.64	27.33	-48.7	-50.0	15.2	0.00e+00	0	22	0	787480576	62	4462
2026-01-12 23:43:30.53	40.26	27.93	-48.6	-49.9	15.2	0.00e+00	0	22	0	800063488	62	4412
2026-01-12 23:43:34.51	40.90	28.55	-48.5	-49.7	15.3	0.00e+00	0	22	0	812646400	62	4331
2026-01-12 23:43:38.49	41.57	29.17	-48.7	-49.9	15.2	0.00e+00	0	22	0	825229312	62	4434
2026-01-12 23:43:42.48	42.27	29.81	-48.5	-49.8	15.3	0.00e+00	0	22	0	837812224	62	4346
2026-01-12 23:43:46.47	42.99	30.45	-48.7	-50.0	15.2	0.00e+00	0	22	0	850395136	62	4449
2026-01-12 23:43:50.46	43.74	31.11	-48.9	-50.2	15.2	0.00e+00	0	22	0	862978048	63	4309
2026-01-12 23:43:54.47	44.53	31.78	-48.5	-49.7	15.4	0.00e+00	0	22	0	874512384	63	4092
2026-01-12 23:43:58.47	45.35	32.45	-48.7	-50.0	15.3	0.00e+00	0	22	0	887095296	63	4224
2026-01-12 23:44:02.46	46.20	33.14	-48.9	-50.2	15.2	0.00e+00	0	22	0	899678208	63	4336
2026-01-12 23:44:06.46	47.09	33.83	-48.4	-49.7	15.5	0.00e+00	0	22	0	912261120	63	4059
2026-01-12 23:44:10.45	48.01	34.53	-49.3	-50.6	15.0	0.00e+00	0	22	0	924844032	63	4536
2026-01-12 23:44:14.44	48.97	35.24	-49.2	-50.5	15.1	0.00e+00	0	22	0	937426944	63	4456
2026-01-12 23:44:18.44	49.98	35.96	-49.5	-50.9	15.0	0.00e+00	0	22	0	950009856	64	4428
2026-01-12 23:44:22.45	51.04	36.68	-49.9	-51.4	14.9	0.00e+00	0	22	0	962592768	65	4414
2026-01-12 23:44:26.43	52.13	37.41	-50.2	-51.7	14.7	0.00e+00	0	22	0	975175680	65	4563
2026-01-12 23:44:30.41	53.27	38.13	-50.5	-52.0	14.7	0.00e+00	0	22	0	987758592	66	4465
2026-01-12 23:44:34.41	54.47	38.87	-50.4	-51.9	14.7	0.00e+00	0	22	0	1000341504	66	4437
2026-01-12 23:44:38.40	55.73	39.60	-50.5	-52.0	14.7	0.00e+00	0	22	0	1011875840	66	4493
2026-01-12 23:44:42.41	57.04	40.34	-50.6	-52.1	14.7	0.00e+00	0	22	0	1024458752	66	4522
2026-01-12 23:44:46.42	58.42	41.08	-50.6	-52.2	14.6	0.00e+00	0	22	0	1037041664	66	4551
2026-01-12 23:44:50.42	59.86	41.81	-51.2	-52.8	14.4	0.00e+00	0	22	0	1049624576	67	4623
2026-01-12 23:44:54.41	61.35	42.53	-51.6	-53.3	14.3	0.00e+00	0	22	0	1062207488	68	4601
2026-01-12 23:44:58.42	62.93	43.25	-51.5	-53.1	14.4	0.00e+00	0	22	0	1074790400	68	4535
2026-01-12 23:45:02.42	64.57	43.95	-51.0	-52.5	14.8	0.00e+00	0	22	0	1087373312	68	4219
2026-01-12 23:45:06.43	66.28	44.65	-51.4	-53.0	14.4	0.00e+00	0	22	0	1099956224	68	4488
2026-01-12 23:45:10.41	68.06	45.32	-51.5	-53.2	14.4	0.00e+00	0	22	0	1112539136	68	4559
2026-01-12 23:45:14.41	69.92	45.97	-51.2	-52.8	14.6	0.00e+00	0	22	0	1125122048	68	4368
2026-01-12 23:45:18.42	71.86	46.60	-51.2	-52.8	14.6	0.00e+00	0	22	0	1137704960	68	4346
2026-01-12 23:45:22.43	73.89	47.21	-51.1	-52.7	14.7	0.00e+00	0	22	0	1150287872	68	4313
2026-01-12 23:45:26.42	75.97	47.78	-50.1	-51.5	15.1	0.00e+00	0	22	0	1162870784	67	3996
2026-01-12 23:45:30.41	78.14	48.31	-50.6	-52.1	14.7	0.00e+00	0	22	0	1174405120	66	4494
2026-01-12 23:45:34.40	80.37	48.81	-50.1	-51.5	14.9	0.00e+00	0	22	0	1186988032	66	4231
2026-01-12 23:45:38.38	82.67	49.26	-50.5	-52.0	14.7	0.00e+00	0	22	0	1199570944	66	4478
2026-01-12 23:45:42.37	85.04	49.67	-50.3	-51.8	14.9	0.00e+00	0	22	0	1212153856	66	4353
2026-01-12 23:45:46.37	87.48	50.04	-50.2	-51.6	15.0	0.00e+00	0	22	0	1224736768	66	4275
2026-01-12 23:45:50.37	89.97	50.34	-50.5	-52.0	14.7	0.00e+00	0	22	0	1237319680	66	4468
2026-01-12 23:45:54.36	92.51	50.60	-50.3	-51.8	14.9	0.00e+00	0	22	0	1249902592	66	4341
2026-01-12 23:45:58.34	95.07	50.79	-50.4	-51.9	14.8	0.00e+00	0	22	0	1262485504	66	4414
2026-01-12 23:46:02.34	97.68	50.93	-49.6	-50.9	15.2	0.00e+00	0	22	0	1274019840	65	4165
2026-01-12 23:46:06.34	100.30	51.00	-49.4	-50.7	15.3	0.00e+00	0	22	0	1286602752	65	4059
2026-01-12 23:46:10.33	102.92	51.02	-50.2	-51.6	14.8	0.00e+00	0	22	0	1299185664	65	4519
2026-01-12 23:46:14.33	105.55	50.97	-50.1	-51.6	14.8	0.00e+00	0	22	0	1311768576	65	4532
2026-01-12 23:46:18.34	108.17	50.86	-50.4	-51.8	14.8	0.00e+00	0	22	0	1324351488	66	4391
2026-01-12 23:46:22.35	110.77	50.68	-49.7	-51.0	15.1	0.00e+00	0	22	0	1336934400	65	4235
2026-01-12 23:46:26.35	113.33	50.45	-49.9	-51.2	15.0	0.00e+00	0	22	0	1349517312	65	4340
2026-01-12 23:46:30.35	115.84	50.16	-50.3	-51.8	14.7	0.00e+00	0	22	0	1362100224	65	4616
2026-01-12 23:46:34.36	118.31	49.82	-50.8	-52.4	14.4	0.00e+00	0	22	0	1374683136	66	4693
2026-01-12 23:46:38.36	120.71	49.43	-51.2	-52.8	14.3	0.00e+00	0	22	0	1387266048	67	4636
2026-01-12 23:46:42.37	123.06	48.99	-50.2	-51.7	15.1	0.00e+00	0	22	0	1399848960	67	4065
2026-01-12 23:46:46.37	125.33	48.50	-51.1	-52.7	14.4	0.00e+00	0	22	0	1412431872	67	4588
2026-01-12 23:46:50.37	127.53	47.98	-50.7	-52.3	14.7	0.00e+00	0	22	0	1425014784	67	4343
2026-01-12 23:46:54.37	129.66	47.42	-51.5	-53.2	14.3	0.00e+00	0	22	0	1437597696	68	4569
2026-01-12 23:46:58.39	131.72	46.82	-51.2	-52.8	14.6	0.00e+00	0	22	0	1450180608	68	4351
2026-01-12 23:47:02.41	133.70	46.20	-51.3	-52.9	14.6	0.00e+00	0	22	0	1462763520	68	4414
2026-01-12 23:47:06.42	135.60	45.55	-50.5	-51.9	14.9	0.00e+00	0	22	0	1475346432	67	4186
2026-01-12 23:47:10.43	137.42	44.88	-50.5	-52.0	14.7	0.00e+00	0	22	0	1486880768	66	4464
2026-01-12 23:47:14.43	139.16	44.19	-50.7	-52.3	14.7	0.00e+00	0	22	0	1499463680	67	4343
2026-01-12 23:47:18.43	140.83	43.49	-52.0	-53.7	14.2	0.00e+00	0	22	0	1512046592	69	4594
2026-01-12 23:47:22.43	142.42	42.77	-51.1	-52.7	14.7	0.00e+00	0	22	0	1524629504	68	4294
2026-01-12 23:47:26.43	143.95	42.05	-51.0	-52.6	14.7	0.00e+00	0	22	0	1537212416	68	4267
2026-01-12 23:47:30.43	145.42	41.32	-49.9	-51.3	15.1	0.00e+00	0	22	0	1549795328	66	4134
2026-01-12 23:47:34.43	146.81	40.58	-50.9	-52.5	14.4	0.00e+00	0	22	0	1562378240	66	4732
2026-01-12 23:47:38.42	148.15	39.84	-51.3	-53.0	14.4	0.00e+00	0	22	0	1574961152	68	4445
2026-01-12 23:47:42.40	149.42	39.11	-51.1	-52.6	14.7	0.00e+00	0	22	0	1587544064	68	4283
2026-01-12 23:47:46.41	150.65	38.37	-50.7	-52.2	14.9	0.00e+00	0	22	0	1600126976	68	4096
2026-01-12 23:47:50.41	151.81	37.63	-50.4	-51.9	14.9	0.00e+00	0	22	0	1612709888	67	4170
2026-01-12 23:47:54.43	152.94	36.89	-49.4	-50.8	15.2	0.00e+00	0	22	0	1625292800	65	4110
2026-01-12 23:47:58.43	154.01	36.17	-49.9	-51.3	15.0	0.00e+00	0	22	0	1636827136	65	4362
2026-01-12 23:48:02.43	155.03	35.44	-49.7	-51.0	15.0	0.00e+00	0	22	0	1649410048	65	4242
2026-01-12 23:48:06.43	156.02	34.73	-50.1	-51.6	14.8	0.00e+00	0	22	0	1661992960	65	4518
2026-01-12 23:48:10.43	156.96	34.02	-49.3	-50.6	15.3	0.00e+00	0	22	0	1674575872	65	4031
2026-01-12 23:48:14.44	157.86	33.32	-49.4	-50.8	15.0	0.00e+00	0	22	0	1687158784	64	4370
2026-01-12 23:48:18.44	158.73	32.63	-48.8	-50.0	15.4	0.00e+00	0	22	0	1699741696	64	4000
2026-01-12 23:48:22.45	159.56	31.95	-48.7	-50.0	15.4	0.00e+00	0	22	0	1712324608	64	3997
2026-01-12 23:48:26.44	160.35	31.27	-48.0	-49.1	15.5	0.00e+00	0	22	0	1724907520	62	4043
2026-01-12 23:48:30.44	161.12	30.61	-48.0	-49.2	15.5	0.00e+00	0	22	0	1737490432	62	4073
2026-01-12 23:48:34.45	161.86	29.95	-48.5	-49.8	15.2	0.00e+00	0	22	0	1750073344	62	4362
2026-01-12 23:48:38.44	162.56	29.31	-48.7	-50.1	15.1	0.00e+00	0	22	0	1762656256	62	4499
2026-01-12 23:48:42.43	163.24	28.68	-48.4	-49.6	15.3	0.00e+00	0	22	0	1775239168	62	4266
2026-01-12 23:48:46.45	163.90	28.05	-48.4	-49.6	15.3	0.00e+00	0	22	0	1787822080	62	4286
2026-01-12 23:48:50.44	164.53	27.44	-48.2	-49.5	15.4	0.00e+00	0	22	0	1799356416	62	4198
2026-01-12 23:48:54.45	165.14	26.84	-48.3	-49.6	15.3	0.00e+00	0	22	0	1811939328	62	4256
2026-01-12 23:48:58.45	165.72	26.24	-48.3	-49.6	15.4	0.00e+00	0	22	0	1824522240	62	4248
2026-01-12 23:49:02.45	166.29	25.66	-48.3	-49.6	15.3	0.00e+00	0	22	0	1837105152	62	4248
2026-01-12 23:49:06.45	166.84	25.09	-48.2	-49.4	15.4	0.00e+00	0	22	0	1849688064	62	4184
2026-01-12 23:49:10.44	167.36	24.52	-48.0	-49.3	15.5	0.00e+00	0	22	0	1862270976	62	4106
2026-01-12 23:49:14.45	167.87	23.97	-48.0	-49.2	15.5	0.00e+00	0	22	0	1874853888	62	4060
2026-01-12 23:49:18.45	168.37	23.42	-47.9	-49.1	15.5	0.00e+00	0	22	0	1887436800	62	4050
2026-01-12 23:49:22.45	168.84	22.89	-48.0	-49.2	15.5	0.00e+00	0	22	0	1900019712	62	4077
2026-01-12 23:49:26.46	169.30	22.36	-48.2	-49.4	15.4	0.00e+00	0	22	0	1912602624	62	4172
2026-01-12 23:49:30.46	169.75	21.84	-48.4	-49.7	15.3	0.00e+00	0	22	0	1925185536	62	4335
2026-01-12 23:49:34.44	170.18	21.33	-48.5	-49.8	15.2	0.00e+00	0	22	0	1937768448	62	4385
2026-01-12 23:49:38.43	170.60	20.83	-48.5	-49.8	15.2	0.00e+00	0	22	0	1950351360	62	4358
2026-01-12 23:49:42.41	171.00	20.34	-48.3	-49.5	15.3	0.00e+00	0	22	0	1961885696	62	4232
2026-01-12 23:49:46.41	171.40	19.86	-48.0	-49.2	15.5	0.00e+00	0	22	0	1974468608	62	4089
2026-01-12 23:49:50.41	171.78	19.38	-48.0	-49.2	15.5	0.00e+00	0	22	0	1987051520	62	4084
2026-01-12 23:49:54.38	172.15	18.92	-48.1	-49.4	15.4	0.00e+00	0	22	0	1999634432	62	4147
2026-01-12 23:49:58.39	172.51	18.46	-48.1	-49.4	15.4	0.00e+00	0	22	0	2012217344	62	4149
2026-01-12 23:50:02.39	172.86	18.00	-48.2	-49.4	15.3	0.00e+00	0	22	0	2024800256	62	4192
2026-01-12 23:50:06.39	173.21	17.56	-48.4	-49.7	15.2	0.00e+00	0	22	0	2037383168	62	4321
2026-01-12 23:50:10.39	173.54	17.12	-48.7	-50.0	15.1	0.00e+00	0	22	0	2049966080	62	4490
2026-01-12 23:50:14.39	173.86	16.69	-48.8	-50.1	15.0	0.00e+00	0	22	0	2062548992	62	4526
2026-01-12 23:50:18.38	174.17	16.26	-49.0	-50.4	15.0	0.00e+00	0	22	0	2075131904	63	4430
2026-01-12 23:50:22.38	174.48	15.84	-48.9	-50.3	15.1	0.00e+00	0	22	0	2086666240	63	4367
2026-01-12 23:50:26.38	174.78	15.43	-49.1	-50.4	15.0	0.00e+00	0	22	0	2099249152	63	4432
2026-01-12 23:50:30.38	175.07	15.02	-49.0	-50.3	15.1	0.00e+00	0	22	0	2111832064	63	4381
2026-01-12 23:50:34.38	175.35	14.62	-48.9	-50.2	15.1	0.00e+00	0	22	0	2124414976	63	4340
2026-01-12 23:50:38.38	175.63	14.23	-49.0	-50.4	15.0	0.00e+00	0	22	0	2136997888	63	4395
2026-01-12 23:50:42.37	175.90	13.84	-49.1	-50.5	14.9	0.00e+00	0	22	0	2149580800	63	4484
2026-01-12 23:50:46.36	176.16	13.46	-49.2	-50.7	14.9	0.00e+00	0	22	0	2162163712	63	4553
2026-01-12 23:50:50.36	176.42	13.08	-49.3	-50.7	14.8	0.00e+00	0	22	0	2174746624	63	4578
2026-01-12 23:50:54.35	176.67	12.71	-49.2	-50.6	14.9	0.00e+00	0	22	0	2187329536	63	4498
2026-01-12 23:50:58.35	176.91	12.34	-49.2	-50.6	14.9	0.00e+00	0	22	0	2199912448	63	4522
2026-01-12 23:51:02.35	177.15	11.98	-49.0	-50.4	15.0	0.00e+00	0	22	0	2212495360	63	4414
2026-01-12 23:51:06.34	177.38	11.63	-49.2	-50.6	14.9	0.00e+00	0	22	0	2224029696	63	4535
2026-01-12 23:51:10.35	177.61	11.27	-49.2	-50.6	14.9	0.00e+00	0	22	0	2236612608	63	4513
2026-01-12 23:51:14.34	177.84	10.93	-49.4	-50.8	14.7	0.00e+00	0	22	0	2249195520	63	4641
2026-01-12 23:51:18.32	178.05	10.58	-49.5	-51.0	14.8	0.00e+00	0	22	0	2261778432	64	4456
2026-01-12 23:51:22.32	178.27	10.25	-49.5	-51.0	14.8	0.00e+00	0	22	0	2274361344	64	4454
2026-01-12 23:51:26.30	178.48	9.91	-49.8	-51.3	14.6	0.00e+00	0	22	0	2286944256	64	4618
2026-01-12 23:51:30.30	178.68	9.58	-49.6	-51.2	14.7	0.00e+00	0	22	0	2299527168	64	4549
2026-01-12 23:51:34.30	178.88	9.26	-49.8	-51.3	14.5	0.00e+00	0	22	0	2312110080	64	4645
2026-01-12 23:51:38.27	179.08	8.94	-49.8	-51.3	14.5	0.00e+00	0	22	0	2324692992	64	4645
2026-01-12 23:51:42.26	179.27	8.62	-49.9	-51.5	14.6	0.00e+00	0	22	0	2337275904	65	4469
2026-01-12 23:51:46.24	179.46	8.30	-50.1	-51.7	14.4	0.00e+00	0	22	0	2348810240	65	4597
2026-01-12 23:51:50.23	179.65	7.99	-50.5	-52.2	14.3	0.00e+00	0	22	0	2361393152	66	4567
2026-01-12 23:51:54.23	179.83	7.69	-50.4	-52.1	14.4	0.00e+00	0	22	0	2373976064	66	4525
2026-01-12 23:51:58.21	180.01	7.38	-50.4	-52.1	14.3	0.00e+00	0	22	0	2386558976	66	4531
2026-01-12 23:52:02.21	180.18	7.08	-50.2	-51.9	14.5	0.00e+00	0	22	0	2399141888	66	4395
2026-01-12 23:52:06.23	180.35	6.78	-50.8	-52.6	14.0	0.00e+00	0	22	0	2411724800	66	4773
2026-01-12 23:52:10.23	180.52	6.49	-50.6	-52.4	14.1	0.00e+00	0	22	0	2424307712	66	4654
2026-01-12 23:52:14.24	180.69	6.20	-50.3	-52.0	14.3	0.00e+00	0	22	0	2436890624	66	4472
2026-01-12 23:52:18.22	180.85	5.91	-50.8	-52.6	14.1	0.00e+00	0	22	0	2449473536	67	4524
2026-01-12 23:52:22.22	181.01	5.63	-50.9	-52.7	14.0	0.00e+00	0	22	0	2462056448	67	4581
2026-01-12 23:52:26.22	181.17	5.34	-51.2	-53.2	13.6	0.00e+00	0	22	0	2474639360	67	4837
2026-01-12 23:52:30.21	181.32	5.06	-50.9	-52.7	13.9	0.00e+00	0	22	0	2487222272	67	4591
2026-01-12 23:52:34.22	181.47	4.79	-58.2	-72.0	3.8	1.49e+00	0	22	104	2491416576	81	18890
2026-01-12 23:52:38.24	181.62	4.51	-58.7	-72.5	3.8	1.49e+00	0	22	104	2491416576	82	18869
2026-01-12 23:52:42.23	181.77	4.24	-58.9	-72.7	3.8	1.49e+00	0	22	104	2491416576	82	19317
2026-01-12 23:52:46.25	181.91	3.97	-59.1	-72.9	3.8	1.49e+00	0	22	104	2491416576	83	18624
2026-01-12 23:52:50.25	182.06	3.70	-59.2	-73.0	3.8	1.49e+00	0	22	104	2491416576	83	18762
2026-01-12 23:52:54.25	182.20	3.44	-59.2	-73.0	3.8	1.49e+00	0	23	104	2491416576	83	18897
2026-01-12 23:52:58.25	182.33	3.18	-59.1	-73.0	3.8	1.49e+00	0	22	104	2491416576	83	18778
2026-01-12 23:53:02.26	182.47	2.92	-59.1	-72.9	3.8	1.49e+00	0	22	104	2491416576	83	18716
2026-01-12 23:53:06.28	182.60	2.66	-59.1	-72.9	3.8	1.49e+00	0	23	104	2491416576	83	18674
2026-01-12 23:53:10.28	182.73	2.41	-59.1	-72.9	3.8	1.49e+00	0	22	104	2491416576	83	18708
2026-01-12 23:53:14.29	182.86	2.15	-59.1	-72.9	3.8	1.49e+00	0	22	104	2491416576	83	18597
2026-01-12 23:53:18.29	182.99	1.90	-59.1	-72.9	3.8	1.49e+00	0	23	104	2491416576	83	18661

#Closed at: 2026-01-12 23:53:18
#Recorded file [2491 MB]: D:/lorett/data/31004_260113_023858.dat