passes_logs/2026/01/12/R3.2S_Murmansk/R3.2S_Murmansk__20260112_095516_NOAA_21_JPSS-2_rec.log

#Pass ID: 20260112_095516_NOAA 21 (JPSS-2)
#Satellite: NOAA 21 (JPSS-2)
#Configuration: NOAA-21
#almurnet v.1.7.20251203
#Start time: 2026-01-12 09:55:17

#Version: 2.2.20231116
#Station: R3.2S_Murmansk
#Location: 33.079688 lon 68.888172 lat
#TLE: 1 54234U 22150A   26011.55893233  .00000075  00000+0  56634-4 0  9995
#TLE: 2 54234  98.7494 312.5004 0000755 313.1908  46.9205 14.19534095164321

#Time	Az	El	Level	Level2	SNR	BER	BlckErr	Temp	State	Recorded	gain1	gain2
2026-01-12 09:55:17.63	161.32	2.06	-57.2	-70.9	3.8	1.49e+00	0	20	0	0	80	17562
2026-01-12 09:55:21.65	161.38	2.32	-57.1	-70.6	3.8	1.49e+00	0	20	104	0	79	18087
2026-01-12 09:55:25.68	161.44	2.58	-57.1	-70.7	3.8	1.49e+00	0	21	104	0	79	18116
2026-01-12 09:55:29.70	161.49	2.85	-57.1	-70.5	3.8	1.49e+00	0	21	104	0	79	17689
2026-01-12 09:55:33.72	161.55	3.11	-57.1	-70.6	3.8	1.49e+00	0	21	104	0	79	17894
2026-01-12 09:55:37.74	161.61	3.38	-57.1	-70.7	3.8	1.49e+00	0	21	104	0	79	18203
2026-01-12 09:55:41.76	161.67	3.65	-56.9	-67.4	4.2	1.47e+00	0	21	104	0	79	12518
2026-01-12 09:55:45.79	161.73	3.93	-56.4	-63.6	6.0	3.79e-01	0	21	0	6291456	79	8033
2026-01-12 09:55:49.82	161.79	4.20	-55.8	-61.2	8.1	5.99e-02	0	21	0	18874368	78	6455
2026-01-12 09:55:53.85	161.85	4.48	-55.0	-59.4	9.6	8.00e-03	0	21	0	31457280	76	5893
2026-01-12 09:55:57.87	161.92	4.77	-54.3	-58.0	10.8	5.93e-04	0	21	0	45088768	75	5283
2026-01-12 09:56:01.90	161.98	5.05	-54.6	-58.5	10.3	1.30e-03	0	21	0	56623104	75	5615
2026-01-12 09:56:05.93	162.05	5.34	-57.1	-69.0	3.9	1.48e+00	0	22	104	67108864	79	14972
2026-01-12 09:56:09.95	162.11	5.63	-51.5	-53.5	13.8	0.00e+00	0	21	0	76546048	69	4479
2026-01-12 09:56:13.97	162.18	5.93	-51.1	-53.0	14.0	0.00e+00	0	21	0	89128960	68	4468
2026-01-12 09:56:18.00	162.25	6.23	-50.9	-52.7	14.3	0.00e+00	0	22	0	101711872	68	4292
2026-01-12 09:56:22.03	162.32	6.53	-51.1	-52.9	14.1	0.00e+00	0	22	0	114294784	68	4409
2026-01-12 09:56:26.06	162.39	6.84	-50.5	-52.3	14.3	0.00e+00	0	22	0	126877696	67	4351
2026-01-12 09:56:30.09	162.46	7.15	-50.4	-52.1	14.5	0.00e+00	0	22	0	139460608	67	4288
2026-01-12 09:56:34.12	162.54	7.46	-50.3	-52.0	14.6	0.00e+00	0	22	0	152043520	67	4200
2026-01-12 09:56:38.12	162.61	7.77	-50.3	-51.9	14.7	0.00e+00	0	22	0	164626432	67	4171
2026-01-12 09:56:42.15	162.69	8.10	-50.0	-51.6	14.6	0.00e+00	0	22	0	177209344	66	4288
2026-01-12 09:56:46.18	162.76	8.42	-50.1	-51.7	14.6	0.00e+00	0	22	0	189792256	66	4320
2026-01-12 09:56:50.20	162.84	8.75	-50.1	-51.7	14.6	0.00e+00	0	22	0	202375168	66	4324
2026-01-12 09:56:54.22	162.92	9.08	-49.9	-51.4	14.8	0.00e+00	0	22	0	214958080	66	4191
2026-01-12 09:56:58.25	163.00	9.42	-49.7	-51.2	14.9	0.00e+00	0	22	0	227540992	66	4088
2026-01-12 09:57:02.27	163.09	9.77	-49.6	-51.1	14.8	0.00e+00	0	22	0	240123904	65	4261
2026-01-12 09:57:06.30	163.17	10.11	-49.5	-51.0	14.9	0.00e+00	0	22	0	252706816	65	4222
2026-01-12 09:57:10.32	163.26	10.47	-49.4	-50.9	15.0	0.00e+00	0	22	0	265289728	65	4158
2026-01-12 09:57:14.35	163.35	10.82	-49.3	-50.7	15.1	0.00e+00	0	22	0	277872640	65	4089
2026-01-12 09:57:18.38	163.44	11.19	-49.1	-50.6	15.0	0.00e+00	0	22	0	290455552	64	4261
2026-01-12 09:57:22.42	163.53	11.56	-49.0	-50.4	15.1	0.00e+00	0	22	0	303038464	64	4186
2026-01-12 09:57:26.45	163.63	11.93	-49.0	-50.4	15.1	0.00e+00	0	22	0	315621376	64	4168
2026-01-12 09:57:30.49	163.72	12.31	-48.8	-50.1	15.3	0.00e+00	0	22	0	328204288	64	4049
2026-01-12 09:57:34.51	163.82	12.70	-48.8	-50.1	15.3	0.00e+00	0	22	0	340787200	64	4044
2026-01-12 09:57:38.54	163.92	13.09	-48.6	-50.0	15.2	0.00e+00	0	22	0	353370112	63	4211
2026-01-12 09:57:42.57	164.03	13.49	-48.6	-49.9	15.2	0.00e+00	0	22	0	365953024	63	4186
2026-01-12 09:57:46.58	164.13	13.89	-48.6	-49.9	15.2	0.00e+00	0	22	0	378535936	63	4165
2026-01-12 09:57:50.59	164.24	14.30	-48.6	-49.9	15.3	0.00e+00	0	22	0	391118848	63	4161
2026-01-12 09:57:54.61	164.35	14.72	-48.6	-50.0	15.2	0.00e+00	0	22	0	403701760	63	4201
2026-01-12 09:57:58.63	164.46	15.14	-48.6	-50.0	15.2	0.00e+00	0	22	0	416284672	63	4205
2026-01-12 09:58:02.65	164.58	15.58	-48.7	-50.0	15.2	0.00e+00	0	22	0	428867584	63	4216
2026-01-12 09:58:06.67	164.70	16.02	-48.7	-50.1	15.2	0.00e+00	0	22	0	441450496	63	4259
2026-01-12 09:58:10.70	164.82	16.46	-48.6	-50.0	15.2	0.00e+00	0	22	0	454033408	63	4205
2026-01-12 09:58:14.71	164.95	16.92	-48.7	-50.0	15.2	0.00e+00	0	22	0	466616320	63	4218
2026-01-12 09:58:18.70	165.07	17.38	-48.7	-50.0	15.2	0.00e+00	0	22	0	479199232	63	4234
2026-01-12 09:58:22.67	165.21	17.85	-48.6	-50.0	15.2	0.00e+00	0	22	0	491782144	63	4201
2026-01-12 09:58:26.68	165.34	18.33	-48.7	-50.0	15.2	0.00e+00	0	22	0	504365056	63	4229
2026-01-12 09:58:30.67	165.48	18.82	-48.7	-50.0	15.2	0.00e+00	0	22	0	515899392	63	4211
2026-01-12 09:58:34.67	165.62	19.32	-48.5	-49.8	15.3	0.00e+00	0	22	0	528482304	63	4133
2026-01-12 09:58:38.65	165.77	19.83	-48.4	-49.7	15.4	0.00e+00	0	22	0	541065216	63	4069
2026-01-12 09:58:42.63	165.92	20.34	-48.1	-49.3	15.4	0.00e+00	0	22	0	553648128	62	4141
2026-01-12 09:58:46.61	166.08	20.87	-48.0	-49.3	15.5	0.00e+00	0	22	0	566231040	62	4099
2026-01-12 09:58:50.60	166.24	21.41	-47.7	-48.9	15.6	0.00e+00	0	22	0	578813952	62	3951
2026-01-12 09:58:54.58	166.41	21.96	-47.5	-48.7	15.5	0.00e+00	0	22	0	591396864	61	4089
2026-01-12 09:58:58.57	166.58	22.53	-47.5	-48.7	15.5	0.00e+00	0	22	0	603979776	61	4053
2026-01-12 09:59:02.58	166.76	23.11	-47.3	-48.4	15.7	0.00e+00	0	22	0	616562688	61	3953
2026-01-12 09:59:06.57	166.95	23.70	-47.1	-48.3	15.6	0.00e+00	0	22	0	628097024	60	4101
2026-01-12 09:59:10.57	167.14	24.30	-47.1	-48.3	15.6	0.00e+00	0	22	0	640679936	60	4122
2026-01-12 09:59:14.57	167.34	24.92	-47.2	-48.4	15.5	0.00e+00	0	22	0	653262848	60	4166
2026-01-12 09:59:18.56	167.54	25.55	-47.5	-48.7	15.4	0.00e+00	0	22	0	665845760	60	4294
2026-01-12 09:59:22.58	167.76	26.21	-47.9	-49.1	15.3	0.00e+00	0	22	0	678428672	60	4510
2026-01-12 09:59:26.61	167.98	26.88	-48.2	-49.5	15.2	0.00e+00	0	22	0	691011584	61	4452
2026-01-12 09:59:30.64	168.21	27.56	-48.5	-49.8	15.2	0.00e+00	0	22	0	703594496	62	4369
2026-01-12 09:59:34.67	168.46	28.26	-48.6	-49.9	15.2	0.00e+00	0	22	0	716177408	62	4394
2026-01-12 09:59:38.71	168.71	28.99	-48.5	-49.8	15.2	0.00e+00	0	22	0	728760320	62	4370
2026-01-12 09:59:42.74	168.98	29.72	-48.4	-49.6	15.3	0.00e+00	0	22	0	741343232	62	4272
2026-01-12 09:59:46.77	169.25	30.48	-48.2	-49.4	15.4	0.00e+00	0	22	0	753926144	62	4178
2026-01-12 09:59:50.79	169.54	31.26	-48.1	-49.4	15.4	0.00e+00	0	22	0	766509056	62	4152
2026-01-12 09:59:54.83	169.84	32.06	-48.0	-49.2	15.5	0.00e+00	0	22	0	779091968	62	4097
2026-01-12 09:59:58.85	170.16	32.87	-48.2	-49.5	15.4	0.00e+00	0	22	0	791674880	62	4211
2026-01-12 10:00:02.89	170.49	33.72	-48.6	-49.9	15.2	0.00e+00	0	22	0	804257792	62	4423
2026-01-12 10:00:06.91	170.84	34.58	-49.1	-50.5	15.1	0.00e+00	0	22	0	816840704	63	4447
2026-01-12 10:00:10.93	171.21	35.46	-49.6	-51.0	14.9	0.00e+00	0	22	0	829423616	64	4474
2026-01-12 10:00:14.96	171.59	36.37	-50.4	-52.0	14.5	0.00e+00	0	22	0	842006528	65	4715
2026-01-12 10:00:18.99	172.00	37.31	-51.2	-52.9	14.3	0.00e+00	0	22	0	854589440	67	4664
2026-01-12 10:00:23.03	172.44	38.27	-50.9	-52.5	14.5	0.00e+00	0	22	0	867172352	67	4456
2026-01-12 10:00:27.04	172.89	39.26	-50.7	-52.3	14.7	0.00e+00	0	22	0	879755264	67	4357
2026-01-12 10:00:31.07	173.38	40.27	-50.7	-52.2	14.7	0.00e+00	0	22	0	892338176	67	4336
2026-01-12 10:00:35.11	173.90	41.31	-50.5	-52.0	14.8	0.00e+00	0	22	0	904921088	67	4229
2026-01-12 10:00:39.13	174.45	42.38	-50.6	-52.2	14.7	0.00e+00	0	22	0	917504000	67	4297
2026-01-12 10:00:43.17	175.03	43.48	-50.2	-51.6	14.8	0.00e+00	0	22	0	930086912	66	4278
2026-01-12 10:00:47.18	175.66	44.60	-50.4	-51.9	14.7	0.00e+00	0	23	0	942669824	66	4435
2026-01-12 10:00:51.21	176.33	45.76	-50.3	-51.8	14.8	0.00e+00	0	23	0	955252736	66	4363
2026-01-12 10:00:55.24	177.06	46.94	-49.9	-51.3	15.1	0.00e+00	0	22	0	967835648	66	4109
2026-01-12 10:00:59.26	177.84	48.16	-49.9	-51.3	15.1	0.00e+00	0	23	0	980418560	66	4110
2026-01-12 10:01:03.29	178.68	49.40	-50.1	-51.5	14.9	0.00e+00	0	23	0	993001472	66	4241
2026-01-12 10:01:07.33	179.60	50.67	-50.5	-52.1	14.6	0.00e+00	0	22	0	1005584384	66	4519
2026-01-12 10:01:11.36	180.59	51.97	-49.9	-51.4	15.0	0.00e+00	0	22	0	1018167296	66	4153
2026-01-12 10:01:15.39	181.68	53.30	-49.4	-50.8	15.2	0.00e+00	0	23	0	1030750208	65	4105
2026-01-12 10:01:19.42	182.87	54.65	-47.8	-48.9	15.6	0.00e+00	0	23	0	1043333120	62	3949
2026-01-12 10:01:23.45	184.17	56.02	-47.5	-48.7	15.6	0.00e+00	0	22	0	1055916032	61	4061
2026-01-12 10:01:27.47	185.61	57.40	-47.7	-48.9	15.5	0.00e+00	0	23	0	1068498944	61	4155
2026-01-12 10:01:31.49	187.19	58.81	-47.4	-48.5	15.7	0.00e+00	0	22	0	1081081856	61	3985
2026-01-12 10:01:35.51	188.96	60.22	-46.9	-48.0	15.7	0.00e+00	0	22	0	1093664768	60	3984
2026-01-12 10:01:39.51	190.92	61.63	-46.7	-47.7	15.7	0.00e+00	0	22	0	1106247680	59	4098
2026-01-12 10:01:43.50	193.11	63.04	-46.5	-47.6	15.8	0.00e+00	0	22	0	1118830592	59	4018
2026-01-12 10:01:47.50	195.57	64.44	-47.0	-48.1	15.7	0.00e+00	0	22	0	1131413504	60	4030
2026-01-12 10:01:51.49	198.35	65.81	-47.1	-48.3	15.6	0.00e+00	0	23	0	1143996416	60	4123
2026-01-12 10:01:55.49	201.49	67.15	-47.2	-48.4	15.6	0.00e+00	0	22	0	1156579328	60	4148
2026-01-12 10:01:59.52	205.09	68.45	-47.3	-48.5	15.6	0.00e+00	0	22	0	1169162240	60	4202
2026-01-12 10:02:03.55	209.17	69.69	-47.4	-48.5	15.6	0.00e+00	0	22	0	1181745152	60	4225
2026-01-12 10:02:07.57	213.78	70.82	-47.2	-48.4	15.5	0.00e+00	0	22	0	1194328064	59	4406
2026-01-12 10:02:11.59	218.97	71.84	-47.4	-48.6	15.5	0.00e+00	0	22	0	1206910976	60	4256
2026-01-12 10:02:15.61	224.77	72.70	-47.3	-48.5	15.5	0.00e+00	0	22	0	1219493888	60	4198
2026-01-12 10:02:19.64	231.15	73.39	-47.7	-48.9	15.4	0.00e+00	0	22	0	1232076800	60	4417
2026-01-12 10:02:23.68	238.03	73.88	-47.1	-48.3	15.7	0.00e+00	0	22	0	1244659712	60	4103
2026-01-12 10:02:27.70	245.21	74.12	-47.1	-48.2	15.7	0.00e+00	0	22	0	1257242624	60	4090
2026-01-12 10:02:31.72	252.51	74.13	-47.0	-48.1	15.7	0.00e+00	0	22	0	1269825536	60	4016
2026-01-12 10:02:35.75	259.72	73.89	-46.9	-48.0	15.8	0.00e+00	0	22	0	1282408448	60	3961
2026-01-12 10:02:39.78	266.61	73.42	-47.3	-48.4	15.6	0.00e+00	0	22	0	1294991360	60	4178
2026-01-12 10:02:43.80	272.99	72.74	-47.0	-48.1	15.7	0.00e+00	0	22	0	1307574272	60	4024
2026-01-12 10:02:47.84	278.84	71.88	-46.8	-47.9	15.8	0.00e+00	0	22	0	1320157184	60	3952
2026-01-12 10:02:51.87	284.07	70.87	-47.6	-48.7	15.5	0.00e+00	0	22	0	1332740096	60	4327
2026-01-12 10:02:55.90	288.71	69.74	-47.1	-48.2	15.7	0.00e+00	0	22	0	1345323008	60	4084
2026-01-12 10:02:59.94	292.82	68.51	-47.7	-48.9	15.7	0.00e+00	0	22	0	1357905920	62	3925
2026-01-12 10:03:03.96	296.42	67.21	-48.3	-49.5	15.2	0.00e+00	0	22	0	1370488832	61	4490
2026-01-12 10:03:07.99	299.60	65.87	-46.8	-47.9	15.8	0.00e+00	0	22	0	1383071744	60	3938
2026-01-12 10:03:12.02	302.41	64.48	-49.1	-50.4	15.1	0.00e+00	0	22	0	1395654656	63	4432
2026-01-12 10:03:16.04	304.89	63.08	-46.8	-47.9	15.7	0.00e+00	0	22	0	1408237568	60	3939
2026-01-12 10:03:20.07	307.10	61.66	-48.4	-49.6	15.3	0.00e+00	0	22	0	1420820480	62	4276
2026-01-12 10:03:24.10	309.08	60.25	-47.4	-48.5	15.6	0.00e+00	0	22	0	1433403392	60	4210
2026-01-12 10:03:28.12	310.84	58.84	-48.5	-49.7	15.4	0.00e+00	0	22	0	1445986304	63	4082
2026-01-12 10:03:32.15	312.43	57.43	-47.0	-48.1	15.7	0.00e+00	0	22	0	1458569216	60	4037
2026-01-12 10:03:36.18	313.87	56.05	-49.3	-50.6	15.1	0.00e+00	0	22	0	1471152128	64	4290
2026-01-12 10:03:40.21	315.18	54.68	-48.1	-49.3	15.5	0.00e+00	0	23	0	1483735040	62	4114
2026-01-12 10:03:44.24	316.36	53.33	-49.8	-51.1	14.9	0.00e+00	0	22	0	1496317952	64	4538
2026-01-12 10:03:48.26	317.45	52.02	-49.8	-51.2	15.0	0.00e+00	0	22	0	1508900864	65	4306
2026-01-12 10:03:52.29	318.44	50.72	-49.8	-51.1	14.9	0.00e+00	0	22	0	1521483776	64	4516
2026-01-12 10:03:56.33	319.36	49.45	-50.8	-52.3	14.7	0.00e+00	0	22	0	1534066688	67	4368
2026-01-12 10:04:00.35	320.20	48.21	-50.3	-51.8	14.9	0.00e+00	0	22	0	1546649600	67	4103
2026-01-12 10:04:04.37	320.98	47.01	-50.5	-52.0	14.7	0.00e+00	0	22	0	1559232512	67	4207
2026-01-12 10:04:08.40	321.70	45.83	-50.8	-52.4	14.6	0.00e+00	0	22	0	1571815424	67	4401
2026-01-12 10:04:12.43	322.38	44.67	-51.8	-53.5	14.2	0.00e+00	0	22	0	1584398336	68	4707
2026-01-12 10:04:16.45	323.01	43.55	-51.3	-52.9	14.7	0.00e+00	0	22	0	1596981248	69	4147
2026-01-12 10:04:20.48	323.59	42.46	-51.3	-52.9	14.5	0.00e+00	0	23	0	1609564160	68	4424
2026-01-12 10:04:24.52	324.15	41.39	-50.5	-52.0	14.9	0.00e+00	0	22	0	1622147072	67	4206
2026-01-12 10:04:28.54	324.66	40.35	-50.6	-52.0	14.9	0.00e+00	0	22	0	1634729984	67	4227
2026-01-12 10:04:32.57	325.15	39.34	-51.6	-53.3	14.3	0.00e+00	0	23	0	1647312896	68	4606
2026-01-12 10:04:36.60	325.61	38.36	-50.2	-51.6	15.1	0.00e+00	0	22	0	1659895808	67	4033
2026-01-12 10:04:40.63	326.04	37.40	-49.8	-51.1	15.2	0.00e+00	0	22	0	1672478720	66	4048
2026-01-12 10:04:44.66	326.45	36.47	-49.4	-50.7	15.3	0.00e+00	0	23	0	1685061632	65	4062
2026-01-12 10:04:48.69	326.84	35.56	-49.6	-50.9	15.1	0.00e+00	0	22	0	1697644544	65	4179
2026-01-12 10:04:52.72	327.21	34.68	-49.4	-50.7	15.2	0.00e+00	0	23	0	1710227456	65	4083
2026-01-12 10:04:56.76	327.56	33.81	-49.4	-50.7	15.2	0.00e+00	0	22	0	1722810368	65	4083
2026-01-12 10:05:00.79	327.89	32.97	-49.8	-51.2	15.0	0.00e+00	0	22	0	1735393280	65	4296
2026-01-12 10:05:04.81	328.21	32.16	-49.2	-50.5	15.3	0.00e+00	0	22	0	1747976192	65	3986
2026-01-12 10:05:08.83	328.51	31.37	-48.8	-50.1	15.4	0.00e+00	0	22	0	1760559104	64	4019
2026-01-12 10:05:12.86	328.80	30.59	-48.5	-49.8	15.4	0.00e+00	0	22	0	1773142016	63	4111
2026-01-12 10:05:16.89	329.08	29.84	-48.5	-49.7	15.4	0.00e+00	0	22	0	1785724928	63	4085
2026-01-12 10:05:20.93	329.34	29.10	-48.1	-49.3	15.5	0.00e+00	0	23	0	1798307840	62	4108
2026-01-12 10:05:24.96	329.60	28.38	-48.0	-49.2	15.5	0.00e+00	0	22	0	1810890752	62	4060
2026-01-12 10:05:28.99	329.84	27.68	-48.1	-49.3	15.4	0.00e+00	0	22	0	1823473664	62	4128
2026-01-12 10:05:33.01	330.08	27.00	-48.1	-49.3	15.4	0.00e+00	0	22	0	1836056576	62	4144
2026-01-12 10:05:37.04	330.30	26.33	-48.1	-49.3	15.4	0.00e+00	0	22	0	1848639488	62	4130
2026-01-12 10:05:41.06	330.52	25.68	-47.9	-49.1	15.5	0.00e+00	0	22	0	1861222400	62	4036
2026-01-12 10:05:45.10	330.73	25.04	-48.0	-49.2	15.5	0.00e+00	0	22	0	1873805312	62	4087
2026-01-12 10:05:49.13	330.93	24.42	-48.1	-49.3	15.4	0.00e+00	0	23	0	1886388224	62	4114
2026-01-12 10:05:53.16	331.13	23.81	-47.9	-49.0	15.6	0.00e+00	0	22	0	1898971136	62	4000
2026-01-12 10:05:57.19	331.31	23.22	-47.8	-49.0	15.5	0.00e+00	0	22	0	1911554048	62	3992
2026-01-12 10:06:01.23	331.50	22.64	-48.1	-49.4	15.4	0.00e+00	0	23	0	1924136960	62	4154
2026-01-12 10:06:05.24	331.67	22.07	-48.2	-49.4	15.3	0.00e+00	0	23	0	1936719872	62	4182
2026-01-12 10:06:09.27	331.84	21.51	-48.2	-49.5	15.3	0.00e+00	0	22	0	1949302784	62	4207
2026-01-12 10:06:13.29	332.00	20.97	-48.1	-49.3	15.4	0.00e+00	0	22	0	1961885696	62	4105
2026-01-12 10:06:17.32	332.16	20.44	-47.7	-48.8	15.4	0.00e+00	0	22	0	1974468608	61	4139
2026-01-12 10:06:21.34	332.32	19.92	-47.6	-48.7	15.5	0.00e+00	0	22	0	1987051520	61	4093
2026-01-12 10:06:25.38	332.47	19.41	-47.8	-49.0	15.3	0.00e+00	0	22	0	1999634432	61	4235
2026-01-12 10:06:29.41	332.62	18.91	-47.8	-49.0	15.4	0.00e+00	0	22	0	2012217344	61	4226
2026-01-12 10:06:33.44	332.76	18.41	-48.0	-49.2	15.3	0.00e+00	0	23	0	2024800256	61	4312
2026-01-12 10:06:37.46	332.90	17.93	-48.0	-49.2	15.3	0.00e+00	0	23	0	2037383168	61	4338
2026-01-12 10:06:41.49	333.03	17.46	-48.2	-49.5	15.2	0.00e+00	0	23	0	2049966080	61	4469
2026-01-12 10:06:45.52	333.16	17.00	-48.3	-49.6	15.1	0.00e+00	0	22	0	2062548992	61	4511
2026-01-12 10:06:49.55	333.29	16.54	-48.5	-49.7	15.2	0.00e+00	0	22	0	2075131904	62	4336
2026-01-12 10:06:53.58	333.41	16.09	-48.7	-50.1	15.0	0.00e+00	0	23	0	2087714816	62	4496
2026-01-12 10:06:57.61	333.53	15.66	-48.9	-50.3	15.0	0.00e+00	0	23	0	2100297728	63	4356
2026-01-12 10:07:01.64	333.65	15.22	-49.0	-50.3	15.0	0.00e+00	0	22	0	2112880640	63	4388
2026-01-12 10:07:05.65	333.77	14.80	-49.1	-50.4	15.0	0.00e+00	0	23	0	2125463552	63	4429
2026-01-12 10:07:09.68	333.88	14.39	-49.2	-50.6	14.9	0.00e+00	0	22	0	2138046464	63	4515
2026-01-12 10:07:13.70	333.99	13.98	-49.2	-50.5	14.9	0.00e+00	0	22	0	2150629376	63	4485
2026-01-12 10:07:17.72	334.10	13.57	-49.2	-50.6	14.9	0.00e+00	0	22	0	2163212288	63	4513
2026-01-12 10:07:21.74	334.20	13.18	-49.3	-50.7	14.8	0.00e+00	0	23	0	2175795200	63	4574
2026-01-12 10:07:25.74	334.30	12.79	-49.2	-50.6	14.8	0.00e+00	0	23	0	2188378112	63	4530
2026-01-12 10:07:29.76	334.40	12.41	-49.3	-50.7	14.8	0.00e+00	0	22	0	2200961024	63	4589
2026-01-12 10:07:33.78	334.50	12.03	-49.4	-50.8	14.9	0.00e+00	0	22	0	2213543936	64	4358
2026-01-12 10:07:37.81	334.60	11.66	-49.5	-51.0	14.7	0.00e+00	0	22	0	2226126848	64	4442
2026-01-12 10:07:41.84	334.69	11.29	-49.6	-51.0	14.7	0.00e+00	0	22	0	2238709760	64	4488
2026-01-12 10:07:45.88	334.79	10.93	-49.7	-51.2	14.6	0.00e+00	0	23	0	2251292672	64	4585
2026-01-12 10:07:49.90	334.88	10.57	-49.7	-51.2	14.6	0.00e+00	0	23	0	2263875584	64	4572
2026-01-12 10:07:53.93	334.97	10.22	-49.7	-51.3	14.6	0.00e+00	0	23	0	2276458496	64	4604
2026-01-12 10:07:57.95	335.05	9.88	-49.7	-51.2	14.6	0.00e+00	0	23	0	2289041408	64	4585
2026-01-12 10:08:01.99	335.14	9.53	-49.8	-51.4	14.5	0.00e+00	0	22	0	2301624320	64	4665
2026-01-12 10:08:06.01	335.22	9.20	-49.8	-51.4	14.5	0.00e+00	0	22	0	2314207232	64	4659
2026-01-12 10:08:10.03	335.31	8.86	-49.8	-51.4	14.5	0.00e+00	0	23	0	2326790144	64	4667
2026-01-12 10:08:14.06	335.39	8.54	-49.9	-51.5	14.5	0.00e+00	0	22	0	2339373056	65	4454
2026-01-12 10:08:18.07	335.47	8.21	-50.0	-51.6	14.5	0.00e+00	0	23	0	2351955968	65	4514
2026-01-12 10:08:22.11	335.55	7.89	-50.0	-51.6	14.4	0.00e+00	0	22	0	2364538880	65	4526
2026-01-12 10:08:26.14	335.62	7.58	-50.2	-51.8	14.3	0.00e+00	0	23	0	2377121792	65	4644
2026-01-12 10:08:30.16	335.70	7.27	-50.5	-52.2	14.2	0.00e+00	0	23	0	2389704704	66	4587
2026-01-12 10:08:34.20	335.78	6.96	-50.5	-52.2	14.2	0.00e+00	0	22	0	2402287616	66	4576
2026-01-12 10:08:38.22	335.85	6.65	-50.7	-52.5	14.0	0.00e+00	0	22	0	2414870528	66	4722
2026-01-12 10:08:42.24	335.92	6.35	-50.5	-52.3	14.1	0.00e+00	0	22	0	2427453440	66	4606
2026-01-12 10:08:46.27	335.99	6.05	-50.8	-52.7	14.0	0.00e+00	0	22	0	2440036352	67	4554
2026-01-12 10:08:50.30	336.06	5.76	-50.9	-52.8	13.9	0.00e+00	0	23	0	2452619264	67	4609
2026-01-12 10:08:54.34	336.13	5.47	-51.1	-53.0	13.7	0.00e+00	0	23	0	2465202176	67	4740
2026-01-12 10:08:58.37	336.20	5.18	-51.0	-53.0	13.7	0.00e+00	0	23	0	2477785088	67	4715
2026-01-12 10:09:02.40	336.27	4.89	-58.2	-71.9	3.8	1.49e+00	0	23	104	2486173696	81	18675
2026-01-12 10:09:06.43	336.33	4.61	-58.9	-72.7	3.8	1.49e+00	0	23	104	2486173696	82	19172
2026-01-12 10:09:10.47	336.40	4.33	-59.2	-73.0	3.8	1.49e+00	0	23	104	2486173696	83	18852
2026-01-12 10:09:14.49	336.46	4.06	-59.3	-73.1	3.8	1.49e+00	0	23	104	2486173696	83	19144
2026-01-12 10:09:18.53	336.53	3.78	-59.6	-73.4	3.8	1.49e+00	0	23	104	2486173696	84	18725
2026-01-12 10:09:22.55	336.59	3.51	-59.7	-73.5	3.8	1.49e+00	0	23	104	2486173696	84	18770
2026-01-12 10:09:26.57	336.65	3.24	-59.6	-73.4	3.8	1.49e+00	0	23	104	2486173696	84	18561
2026-01-12 10:09:30.60	336.72	2.98	-59.5	-73.3	3.8	1.49e+00	0	23	104	2486173696	84	18499
2026-01-12 10:09:34.62	336.78	2.72	-59.5	-73.3	3.8	1.49e+00	0	23	104	2486173696	84	18387
2026-01-12 10:09:38.64	336.84	2.46	-59.5	-73.3	3.8	1.49e+00	0	23	104	2486173696	84	18409
2026-01-12 10:09:42.67	336.89	2.20	-59.5	-73.3	3.8	1.49e+00	0	23	104	2486173696	84	18434
2026-01-12 10:09:46.71	336.95	1.94	-59.5	-73.3	3.8	1.49e+00	0	23	104	2486173696	84	18363

#Closed at: 2026-01-12 10:09:46
#Recorded file [2486 MB]: D:/lorett/data/31004_260112_125517.dat