passes_logs/2026/01/12/R3.2S_Murmansk/R3.2S_Murmansk__20260112_002729_SUOMI_NPP_rec.log

#Pass ID: 20260112_002729_SUOMI NPP
#Satellite: SUOMI NPP
#Configuration: NPP
#almurnet v.1.7.20251203
#Start time: 2026-01-12 00:27:31

#Version: 2.2.20231116
#Station: R3.2S_Murmansk
#Location: 33.079688 lon 68.888172 lat
#TLE: 1 37849U 11061A   26011.57971124  .00000103  00000+0  69927-4 0  9996
#TLE: 2 37849  98.7807 313.6578 0002518  69.5076 290.6370 14.19524515736228

#Time	Az	El	Level	Level2	SNR	BER	BlckErr	Temp	State	Recorded	gain1	gain2
2026-01-12 00:27:31.44	23.49	2.13	-57.1	-73.0	3.8	1.49e+00	0	21	0	0	80	22440
2026-01-12 00:27:35.47	23.54	2.38	-57.1	-73.0	3.8	1.49e+00	0	21	104	0	79	23850
2026-01-12 00:27:39.50	23.59	2.64	-57.1	-72.9	3.8	1.49e+00	0	21	104	0	79	23572
2026-01-12 00:27:43.54	23.64	2.91	-57.1	-72.2	3.8	1.49e+00	0	21	104	0	79	21587
2026-01-12 00:27:47.58	23.69	3.18	-57.0	-71.3	3.8	1.49e+00	0	21	104	0	79	19405
2026-01-12 00:27:51.61	23.74	3.44	-57.0	-70.8	3.8	1.48e+00	0	21	104	0	79	18382
2026-01-12 00:27:55.64	23.79	3.71	-56.8	-68.1	4.7	9.90e-01	0	21	0	1048576	79	13426
2026-01-12 00:27:59.68	23.84	3.99	-56.1	-62.9	8.4	5.04e-02	0	22	0	9437184	78	7843
2026-01-12 00:28:03.72	23.90	4.27	-55.6	-61.1	10.0	3.33e-03	0	22	0	16777216	77	6728
2026-01-12 00:28:07.76	23.95	4.55	-55.3	-60.3	10.7	7.80e-04	0	22	0	24117248	77	6180
2026-01-12 00:28:11.79	24.00	4.83	-55.6	-61.3	9.6	5.33e-03	0	22	0	31457280	76	7356
2026-01-12 00:28:15.83	24.06	5.11	-54.4	-58.0	12.4	3.69e-03	0	22	0	38797312	75	5338
2026-01-12 00:28:19.86	24.11	5.40	-56.7	-67.8	4.8	2.75e-02	0	22	0	47185920	78	13787
2026-01-12 00:28:23.89	24.17	5.69	-53.5	-56.6	13.3	0.00e+00	0	22	0	54525952	73	5051
2026-01-12 00:28:27.92	24.23	5.99	-53.3	-56.1	13.7	0.00e+00	0	22	0	61865984	73	4809
2026-01-12 00:28:31.95	24.29	6.29	-53.2	-56.0	13.8	0.00e+00	0	22	0	69206016	73	4730
2026-01-12 00:28:35.98	24.34	6.59	-53.3	-56.1	13.6	0.00e+00	0	22	0	76546048	72	5047
2026-01-12 00:28:40.01	24.40	6.90	-52.9	-55.5	14.1	0.00e+00	0	22	0	84934656	72	4730
2026-01-12 00:28:44.04	24.47	7.20	-52.9	-55.4	13.9	0.00e+00	0	22	0	92274688	71	4979
2026-01-12 00:28:48.08	24.53	7.52	-52.9	-55.4	14.0	0.00e+00	0	22	0	99614720	71	4969
2026-01-12 00:28:52.10	24.59	7.83	-52.8	-55.4	14.0	0.00e+00	0	22	0	106954752	71	4935
2026-01-12 00:28:56.13	24.65	8.15	-52.5	-54.8	14.4	0.00e+00	0	22	0	115343360	71	4645
2026-01-12 00:29:00.16	24.72	8.48	-52.4	-54.6	14.5	0.00e+00	0	22	0	122683392	71	4545
2026-01-12 00:29:04.20	24.78	8.81	-52.3	-54.5	14.6	0.00e+00	0	22	0	130023424	71	4477
2026-01-12 00:29:08.23	24.85	9.14	-52.4	-54.6	14.5	0.00e+00	0	22	0	137363456	71	4536
2026-01-12 00:29:12.26	24.92	9.48	-52.2	-54.4	14.5	0.00e+00	0	22	0	144703488	70	4662
2026-01-12 00:29:16.29	24.99	9.82	-52.0	-54.1	14.7	0.00e+00	0	22	0	153092096	70	4536
2026-01-12 00:29:20.33	25.06	10.17	-52.0	-54.1	14.7	0.00e+00	0	22	0	160432128	70	4529
2026-01-12 00:29:24.36	25.13	10.52	-51.8	-53.9	14.8	0.00e+00	0	22	0	167772160	70	4401
2026-01-12 00:29:28.39	25.20	10.88	-51.6	-53.6	14.8	0.00e+00	0	22	0	175112192	69	4512
2026-01-12 00:29:32.43	25.27	11.24	-51.5	-53.4	15.0	0.00e+00	0	22	0	182452224	69	4415
2026-01-12 00:29:36.45	25.35	11.61	-51.3	-53.2	15.1	0.00e+00	0	22	0	190840832	69	4317
2026-01-12 00:29:40.48	25.43	11.98	-51.1	-52.9	15.0	0.00e+00	0	23	0	198180864	68	4411
2026-01-12 00:29:44.51	25.50	12.36	-51.0	-52.8	15.2	0.00e+00	0	22	0	205520896	68	4342
2026-01-12 00:29:48.55	25.58	12.75	-50.9	-52.7	15.2	0.00e+00	0	22	0	212860928	68	4307
2026-01-12 00:29:52.57	25.67	13.14	-50.8	-52.5	15.3	0.00e+00	0	22	0	220200960	68	4225
2026-01-12 00:29:56.61	25.75	13.54	-50.5	-52.1	15.3	0.00e+00	0	23	0	228589568	67	4289
2026-01-12 00:30:00.64	25.83	13.94	-50.4	-52.1	15.3	0.00e+00	0	23	0	235929600	67	4274
2026-01-12 00:30:04.67	25.92	14.35	-50.4	-52.1	15.3	0.00e+00	0	23	0	243269632	67	4276
2026-01-12 00:30:08.71	26.01	14.77	-50.4	-52.0	15.3	0.00e+00	0	22	0	250609664	67	4228
2026-01-12 00:30:12.74	26.10	15.20	-50.6	-52.2	15.2	0.00e+00	0	22	0	257949696	67	4336
2026-01-12 00:30:16.78	26.19	15.63	-50.5	-52.2	15.2	0.00e+00	0	23	0	266338304	67	4326
2026-01-12 00:30:20.81	26.29	16.07	-50.5	-52.1	15.3	0.00e+00	0	23	0	273678336	67	4283
2026-01-12 00:30:24.85	26.39	16.53	-50.7	-52.4	15.2	0.00e+00	0	22	0	281018368	67	4414
2026-01-12 00:30:28.88	26.49	16.98	-51.0	-52.8	14.9	0.00e+00	0	23	0	288358400	67	4645
2026-01-12 00:30:32.91	26.59	17.45	-51.0	-52.8	14.9	0.00e+00	0	22	0	296747008	67	4643
2026-01-12 00:30:36.95	26.70	17.93	-51.2	-53.0	14.8	0.00e+00	0	22	0	304087040	67	4737
2026-01-12 00:30:40.98	26.81	18.41	-51.3	-53.2	14.7	0.00e+00	0	23	0	311427072	67	4844
2026-01-12 00:30:45.01	26.92	18.90	-51.7	-53.6	14.7	0.00e+00	0	23	0	318767104	68	4781
2026-01-12 00:30:49.05	27.03	19.41	-52.1	-54.1	14.6	0.00e+00	0	23	0	326107136	69	4775
2026-01-12 00:30:53.08	27.15	19.92	-52.2	-54.3	14.5	0.00e+00	0	23	0	334495744	69	4877
2026-01-12 00:30:57.11	27.27	20.45	-52.4	-54.5	14.5	0.00e+00	0	23	0	341835776	70	4749
2026-01-12 00:31:01.15	27.40	20.99	-52.3	-54.3	14.7	0.00e+00	0	23	0	349175808	70	4638
2026-01-12 00:31:05.16	27.52	21.53	-52.5	-54.7	14.5	0.00e+00	0	22	0	356515840	70	4830
2026-01-12 00:31:09.19	27.66	22.09	-52.3	-54.4	14.6	0.00e+00	0	23	0	364904448	70	4677
2026-01-12 00:31:13.23	27.79	22.67	-52.2	-54.2	14.7	0.00e+00	0	23	0	372244480	70	4577
2026-01-12 00:31:17.26	27.94	23.25	-51.9	-53.9	14.9	0.00e+00	0	23	0	379584512	70	4406
2026-01-12 00:31:21.30	28.08	23.85	-51.8	-53.7	14.8	0.00e+00	0	23	0	386924544	69	4590
2026-01-12 00:31:25.32	28.23	24.47	-51.8	-53.7	14.9	0.00e+00	0	23	0	394264576	69	4573
2026-01-12 00:31:29.35	28.39	25.09	-51.4	-53.2	15.1	0.00e+00	0	23	0	402653184	69	4323
2026-01-12 00:31:33.38	28.55	25.74	-51.4	-53.3	15.1	0.00e+00	0	23	0	409993216	69	4341
2026-01-12 00:31:37.41	28.72	26.40	-51.8	-53.7	14.9	0.00e+00	0	23	0	417333248	69	4561
2026-01-12 00:31:41.44	28.90	27.07	-51.6	-53.5	15.0	0.00e+00	0	23	0	424673280	69	4455
2026-01-12 00:31:45.47	29.08	27.76	-51.6	-53.5	15.0	0.00e+00	0	23	0	432013312	69	4447
2026-01-12 00:31:49.50	29.27	28.47	-51.9	-53.8	14.8	0.00e+00	0	23	0	440401920	69	4624
2026-01-12 00:31:53.53	29.46	29.20	-52.1	-54.1	14.7	0.00e+00	0	23	0	447741952	69	4793
2026-01-12 00:31:57.57	29.67	29.95	-52.1	-54.1	14.6	0.00e+00	0	23	0	455081984	69	4803
2026-01-12 00:32:01.59	29.88	30.71	-52.6	-54.6	14.5	0.00e+00	0	23	0	462422016	70	4803
2026-01-12 00:32:05.62	30.11	31.50	-52.9	-55.1	14.4	0.00e+00	0	22	0	469762048	71	4776
2026-01-12 00:32:09.65	30.34	32.31	-53.2	-55.6	14.1	0.00e+00	0	23	0	478150656	71	5060
2026-01-12 00:32:13.69	30.59	33.14	-53.3	-55.6	14.3	0.00e+00	0	23	0	485490688	72	4810
2026-01-12 00:32:17.72	30.85	34.00	-53.1	-55.3	14.4	0.00e+00	0	22	0	492830720	72	4643
2026-01-12 00:32:21.75	31.12	34.87	-53.2	-55.5	14.3	0.00e+00	0	23	0	500170752	72	4750
2026-01-12 00:32:25.79	31.41	35.78	-52.9	-55.2	14.6	0.00e+00	0	23	0	507510784	72	4552
2026-01-12 00:32:29.82	31.71	36.70	-53.4	-55.8	14.2	0.00e+00	0	23	0	515899392	72	4907
2026-01-12 00:32:33.86	32.03	37.66	-53.3	-55.7	14.4	0.00e+00	0	23	0	523239424	73	4554
2026-01-12 00:32:37.88	32.36	38.64	-53.0	-55.2	14.5	0.00e+00	0	23	0	530579456	72	4595
2026-01-12 00:32:41.92	32.72	39.65	-52.5	-54.5	14.7	0.00e+00	0	23	0	537919488	71	4491
2026-01-12 00:32:45.95	33.10	40.69	-53.2	-55.5	14.2	0.00e+00	0	23	0	546308096	71	4988
2026-01-12 00:32:49.99	33.50	41.76	-53.5	-55.9	14.1	0.00e+00	0	23	0	553648128	72	4981
2026-01-12 00:32:54.00	33.93	42.85	-53.1	-55.4	14.4	0.00e+00	0	23	0	560988160	72	4675
2026-01-12 00:32:58.04	34.39	43.98	-52.4	-54.3	14.9	0.00e+00	0	23	0	568328192	71	4366
2026-01-12 00:33:02.08	34.89	45.15	-53.4	-55.7	14.2	0.00e+00	0	23	0	575668224	72	4862
2026-01-12 00:33:06.11	35.41	46.34	-53.6	-55.9	14.1	0.00e+00	0	23	0	584056832	73	4685
2026-01-12 00:33:10.14	35.98	47.57	-53.5	-55.9	14.3	0.00e+00	0	23	0	591396864	73	4688
2026-01-12 00:33:14.18	36.60	48.83	-52.2	-54.2	15.0	0.00e+00	0	23	0	598736896	71	4292
2026-01-12 00:33:18.21	37.27	50.12	-50.7	-52.3	15.3	0.00e+00	0	23	0	606076928	67	4373
2026-01-12 00:33:22.25	38.00	51.45	-49.4	-50.8	15.6	0.00e+00	0	23	0	613416960	65	4128
2026-01-12 00:33:26.29	38.80	52.82	-49.4	-50.8	15.6	0.00e+00	0	23	0	621805568	65	4110
2026-01-12 00:33:30.32	39.67	54.21	-49.4	-50.8	15.7	0.00e+00	0	23	0	629145600	65	4144
2026-01-12 00:33:34.36	40.63	55.64	-48.1	-49.3	15.7	0.00e+00	0	23	0	636485632	62	4144
2026-01-12 00:33:38.39	41.69	57.09	-49.0	-50.4	15.5	0.00e+00	0	23	0	643825664	63	4405
2026-01-12 00:33:42.41	42.87	58.57	-49.2	-50.7	15.5	0.00e+00	0	23	0	651165696	64	4305
2026-01-12 00:33:46.45	44.19	60.08	-48.9	-50.2	15.7	0.00e+00	0	23	0	659554304	64	4096
2026-01-12 00:33:50.48	45.67	61.61	-48.1	-49.4	15.7	0.00e+00	0	23	0	666894336	62	4157
2026-01-12 00:33:54.51	47.35	63.16	-48.3	-49.7	15.5	0.00e+00	0	23	0	674234368	61	4562
2026-01-12 00:33:58.54	49.25	64.72	-48.8	-50.1	15.6	0.00e+00	0	23	0	681574400	63	4286
2026-01-12 00:34:02.57	51.44	66.28	-49.5	-51.0	15.4	0.00e+00	0	23	0	688914432	64	4458
2026-01-12 00:34:06.60	53.97	67.84	-51.6	-53.4	14.9	0.00e+00	0	23	0	697303040	68	4679
2026-01-12 00:34:10.63	56.91	69.37	-53.6	-55.9	14.4	0.00e+00	0	23	0	704643072	73	4682
2026-01-12 00:34:14.66	60.35	70.88	-54.5	-57.3	13.6	0.00e+00	0	23	0	711983104	74	5168
2026-01-12 00:34:18.70	64.42	72.33	-55.7	-59.2	12.6	1.50e-06	0	23	0	719323136	77	5422
2026-01-12 00:34:22.73	69.22	73.71	-52.3	-54.1	15.0	0.00e+00	0	23	0	727711744	71	4282
2026-01-12 00:34:26.76	74.91	74.96	-52.1	-53.9	14.8	0.00e+00	0	23	0	735051776	69	4694
2026-01-12 00:34:30.80	81.61	76.06	-53.9	-56.3	14.2	0.00e+00	0	23	0	742391808	74	4619
2026-01-12 00:34:34.83	89.36	76.96	-52.8	-54.8	14.7	0.00e+00	0	23	0	749731840	71	4644
2026-01-12 00:34:38.86	98.10	77.59	-55.2	-58.3	13.1	0.00e+00	0	23	0	757071872	76	5200
2026-01-12 00:34:42.90	107.59	77.92	-56.1	-59.9	12.1	3.00e-06	0	23	0	765460480	77	5902
2026-01-12 00:34:46.93	117.32	77.92	-53.5	-55.7	14.5	0.00e+00	0	23	0	772800512	73	4584
2026-01-12 00:34:50.97	126.80	77.58	-56.5	-60.8	11.6	1.49e-04	0	23	0	780140544	79	5801
2026-01-12 00:34:55.00	135.52	76.94	-54.8	-57.7	13.4	0.00e+00	0	23	0	787480576	75	5119
2026-01-12 00:34:59.04	143.26	76.03	-54.3	-56.9	14.0	0.00e+00	0	23	0	794820608	75	4678
2026-01-12 00:35:03.07	149.93	74.93	-53.8	-56.2	14.2	0.00e+00	0	23	0	803209216	74	4551
2026-01-12 00:35:07.09	155.57	73.67	-51.8	-53.5	15.2	0.00e+00	0	23	0	810549248	70	4214
2026-01-12 00:35:11.12	160.36	72.30	-52.6	-54.6	14.7	0.00e+00	0	23	0	817889280	71	4498
2026-01-12 00:35:15.14	164.40	70.85	-56.4	-60.7	11.7	5.34e-05	0	23	0	825229312	78	6065
2026-01-12 00:35:19.17	167.83	69.34	-53.3	-55.5	14.5	0.00e+00	0	23	0	832569344	72	4737
2026-01-12 00:35:23.20	170.76	67.80	-51.9	-53.7	15.1	0.00e+00	0	23	0	840957952	70	4296
2026-01-12 00:35:27.23	173.28	66.24	-48.7	-50.0	15.9	0.00e+00	0	23	0	848297984	64	3982
2026-01-12 00:35:31.26	175.47	64.67	-48.5	-49.8	15.7	0.00e+00	0	23	0	855638016	63	4107
2026-01-12 00:35:35.29	177.37	63.11	-49.6	-51.0	15.4	0.00e+00	0	23	0	862978048	64	4468
2026-01-12 00:35:39.32	179.04	61.56	-49.3	-50.6	15.5	0.00e+00	0	23	0	870318080	64	4289
2026-01-12 00:35:43.35	180.52	60.03	-51.1	-52.7	15.3	0.00e+00	0	23	0	878706688	68	4311
2026-01-12 00:35:47.37	181.83	58.52	-51.7	-53.4	14.9	0.00e+00	0	23	0	886046720	68	4686
2026-01-12 00:35:51.40	183.01	57.04	-49.8	-51.2	15.6	0.00e+00	0	23	0	893386752	66	4065
2026-01-12 00:35:55.43	184.07	55.58	-50.8	-52.5	15.0	0.00e+00	0	23	0	900726784	66	4726
2026-01-12 00:35:59.47	185.03	54.15	-50.7	-52.3	15.2	0.00e+00	0	23	0	909115392	66	4619
2026-01-12 00:36:03.50	185.90	52.75	-50.0	-51.5	15.3	0.00e+00	0	23	0	916455424	65	4445
2026-01-12 00:36:07.54	186.69	51.39	-53.0	-55.2	14.4	0.00e+00	0	23	0	923795456	71	4830
2026-01-12 00:36:11.56	187.42	50.06	-52.3	-54.2	15.0	0.00e+00	0	23	0	931135488	71	4311
2026-01-12 00:36:15.59	188.09	48.77	-53.7	-56.1	14.0	0.00e+00	0	23	0	938475520	72	5064
2026-01-12 00:36:19.62	188.70	47.50	-51.6	-53.3	15.2	0.00e+00	0	23	0	946864128	69	4370
2026-01-12 00:36:23.66	189.27	46.27	-56.5	-61.0	11.2	7.70e-05	0	23	0	954204160	78	6339
2026-01-12 00:36:27.69	189.80	45.07	-52.4	-54.3	15.0	0.00e+00	0	23	0	961544192	71	4348
2026-01-12 00:36:31.73	190.29	43.91	-52.1	-54.0	14.8	0.00e+00	0	23	0	968884224	69	4759
2026-01-12 00:36:35.75	190.75	42.78	-53.6	-56.1	14.2	0.00e+00	0	23	0	976224256	73	4783
2026-01-12 00:36:39.79	191.18	41.68	-49.3	-50.7	15.6	0.00e+00	0	23	0	984612864	65	4074
2026-01-12 00:36:43.82	191.58	40.61	-51.1	-52.9	15.0	0.00e+00	0	23	0	991952896	67	4653
2026-01-12 00:36:47.85	191.96	39.57	-50.6	-52.1	15.3	0.00e+00	0	23	0	999292928	67	4287
2026-01-12 00:36:51.89	192.31	38.55	-52.8	-54.9	14.4	0.00e+00	0	23	0	1006632960	70	4966
2026-01-12 00:36:55.91	192.65	37.57	-52.6	-54.6	14.8	0.00e+00	0	23	0	1013972992	71	4535
2026-01-12 00:36:59.95	192.97	36.61	-53.4	-55.7	14.3	0.00e+00	0	23	0	1022361600	72	4862
2026-01-12 00:37:03.98	193.27	35.68	-52.9	-55.0	14.6	0.00e+00	0	23	0	1029701632	72	4492
2026-01-12 00:37:08.02	193.55	34.78	-50.3	-51.8	15.5	0.00e+00	0	23	0	1037041664	67	4106
2026-01-12 00:37:12.05	193.82	33.90	-53.6	-56.0	14.1	0.00e+00	0	23	0	1044381696	72	5018
2026-01-12 00:37:16.08	194.08	33.04	-55.1	-58.4	12.9	0.00e+00	0	23	0	1051721728	75	5543
2026-01-12 00:37:20.13	194.33	32.21	-54.1	-56.6	13.9	0.00e+00	0	23	0	1060110336	74	4803
2026-01-12 00:37:24.16	194.56	31.40	-52.5	-54.4	14.8	0.00e+00	0	23	0	1067450368	71	4425
2026-01-12 00:37:28.19	194.78	30.61	-51.6	-53.4	15.1	0.00e+00	0	23	0	1074790400	69	4425
2026-01-12 00:37:32.23	195.00	29.84	-51.2	-52.8	15.2	0.00e+00	0	23	0	1082130432	68	4391
2026-01-12 00:37:36.25	195.20	29.09	-52.5	-54.6	14.6	0.00e+00	0	23	0	1090519040	70	4792
2026-01-12 00:37:40.28	195.40	28.36	-54.3	-57.3	13.3	0.00e+00	0	23	0	1097859072	73	5475
2026-01-12 00:37:44.32	195.58	27.65	-53.9	-56.5	13.9	0.00e+00	0	23	0	1105199104	74	4746
2026-01-12 00:37:48.35	195.76	26.96	-52.0	-53.9	14.9	0.00e+00	0	23	0	1112539136	70	4433
2026-01-12 00:37:52.38	195.94	26.28	-51.3	-53.1	15.1	0.00e+00	0	23	0	1119879168	68	4508
2026-01-12 00:37:56.40	196.10	25.62	-50.8	-52.4	15.3	0.00e+00	0	23	0	1128267776	68	4185
2026-01-12 00:38:00.44	196.27	24.98	-50.4	-52.0	15.4	0.00e+00	0	23	0	1135607808	67	4229
2026-01-12 00:38:04.47	196.42	24.35	-50.1	-51.7	15.3	0.00e+00	0	23	0	1142947840	66	4314
2026-01-12 00:38:08.51	196.57	23.73	-49.6	-51.0	15.5	0.00e+00	0	23	0	1150287872	65	4241
2026-01-12 00:38:12.54	196.72	23.13	-49.7	-51.2	15.4	0.00e+00	0	23	0	1157627904	65	4334
2026-01-12 00:38:16.57	196.86	22.55	-50.8	-52.5	14.9	0.00e+00	0	23	0	1166016512	66	4738
2026-01-12 00:38:20.61	196.99	21.97	-50.9	-52.7	15.0	0.00e+00	0	23	0	1173356544	67	4566
2026-01-12 00:38:24.64	197.12	21.41	-50.7	-52.5	15.1	0.00e+00	0	23	0	1180696576	67	4447
2026-01-12 00:38:28.67	197.25	20.86	-50.7	-52.4	15.2	0.00e+00	0	23	0	1188036608	67	4399
2026-01-12 00:38:32.71	197.37	20.32	-50.8	-52.5	15.1	0.00e+00	0	23	0	1196425216	67	4480
2026-01-12 00:38:36.73	197.49	19.80	-50.8	-52.5	15.1	0.00e+00	0	23	0	1203765248	67	4478
2026-01-12 00:38:40.77	197.61	19.28	-50.8	-52.6	15.1	0.00e+00	0	23	0	1211105280	67	4495
2026-01-12 00:38:44.80	197.72	18.77	-50.7	-52.4	15.2	0.00e+00	0	23	0	1218445312	67	4407
2026-01-12 00:38:48.84	197.83	18.28	-50.5	-52.2	15.3	0.00e+00	0	23	0	1225785344	67	4309
2026-01-12 00:38:52.87	197.94	17.79	-50.4	-52.1	15.3	0.00e+00	0	23	0	1234173952	67	4258
2026-01-12 00:38:56.90	198.04	17.32	-50.6	-52.3	15.2	0.00e+00	0	23	0	1241513984	67	4351
2026-01-12 00:39:00.93	198.14	16.85	-50.8	-52.5	15.0	0.00e+00	0	23	0	1248854016	67	4475
2026-01-12 00:39:04.96	198.24	16.39	-50.9	-52.7	15.0	0.00e+00	0	23	0	1256194048	67	4567
2026-01-12 00:39:08.99	198.33	15.94	-50.8	-52.5	15.1	0.00e+00	0	23	0	1263534080	67	4493
2026-01-12 00:39:13.02	198.43	15.50	-51.2	-53.1	14.7	0.00e+00	0	23	0	1271922688	67	4789
2026-01-12 00:39:17.05	198.52	15.07	-51.2	-53.1	14.8	0.00e+00	0	23	0	1279262720	67	4762
2026-01-12 00:39:21.08	198.61	14.64	-51.7	-53.6	14.7	0.00e+00	0	23	0	1286602752	68	4793
2026-01-12 00:39:25.12	198.69	14.22	-51.7	-53.7	14.6	0.00e+00	0	23	0	1293942784	68	4830
2026-01-12 00:39:29.15	198.78	13.81	-51.6	-53.5	14.7	0.00e+00	0	23	0	1301282816	68	4751
2026-01-12 00:39:33.18	198.86	13.40	-51.6	-53.6	14.7	0.00e+00	0	23	0	1309671424	68	4781
2026-01-12 00:39:37.21	198.94	13.01	-51.4	-53.3	14.8	0.00e+00	0	23	0	1317011456	68	4630
2026-01-12 00:39:41.22	199.02	12.62	-51.4	-53.3	14.8	0.00e+00	0	23	0	1324351488	68	4633
2026-01-12 00:39:45.26	199.10	12.23	-51.5	-53.4	14.7	0.00e+00	0	23	0	1331691520	68	4705
2026-01-12 00:39:49.30	199.18	11.85	-51.5	-53.5	14.7	0.00e+00	0	23	0	1340080128	68	4721
2026-01-12 00:39:53.33	199.25	11.47	-51.7	-53.7	14.5	0.00e+00	0	23	0	1347420160	68	4855
2026-01-12 00:39:57.37	199.32	11.10	-51.9	-54.0	14.5	0.00e+00	0	23	0	1354760192	69	4709
2026-01-12 00:40:01.41	199.40	10.74	-52.1	-54.3	14.4	0.00e+00	0	23	0	1362100224	69	4901
2026-01-12 00:40:05.44	199.47	10.38	-52.0	-54.1	14.5	0.00e+00	0	23	0	1369440256	69	4810
2026-01-12 00:40:09.46	199.53	10.03	-52.5	-54.8	14.2	0.00e+00	0	23	0	1377828864	70	4898
2026-01-12 00:40:13.49	199.60	9.68	-52.3	-54.5	14.4	0.00e+00	0	23	0	1385168896	70	4728
2026-01-12 00:40:17.52	199.67	9.34	-52.0	-54.1	14.6	0.00e+00	0	23	0	1392508928	70	4538
2026-01-12 00:40:21.56	199.73	9.00	-51.9	-53.9	14.7	0.00e+00	0	23	0	1399848960	70	4433
2026-01-12 00:40:25.59	199.80	8.67	-51.9	-54.0	14.7	0.00e+00	0	23	0	1407188992	70	4455
2026-01-12 00:40:29.62	199.86	8.34	-52.0	-54.2	14.6	0.00e+00	0	23	0	1415577600	70	4553
2026-01-12 00:40:33.66	199.92	8.01	-52.1	-54.3	14.5	0.00e+00	0	23	0	1422917632	70	4639
2026-01-12 00:40:37.69	199.98	7.69	-52.2	-54.4	14.4	0.00e+00	0	23	0	1430257664	70	4679
2026-01-12 00:40:41.72	200.04	7.37	-52.2	-54.5	14.3	0.00e+00	0	23	0	1437597696	70	4717
2026-01-12 00:40:45.75	200.10	7.06	-52.4	-54.8	14.1	0.00e+00	0	23	0	1444937728	70	4900
2026-01-12 00:40:49.78	200.16	6.75	-52.7	-55.3	13.8	0.00e+00	0	23	0	1453326336	70	5171
2026-01-12 00:40:53.81	200.21	6.44	-52.6	-55.1	14.1	0.00e+00	0	23	0	1460666368	71	4799
2026-01-12 00:40:57.84	200.27	6.14	-52.3	-54.7	14.3	0.00e+00	0	23	0	1468006400	71	4563
2026-01-12 00:41:01.87	200.32	5.84	-52.9	-55.6	13.7	0.00e+00	0	23	0	1475346432	71	5069
2026-01-12 00:41:05.91	200.38	5.55	-52.6	-55.2	13.9	0.00e+00	0	23	0	1482686464	70	5121
2026-01-12 00:41:09.94	200.43	5.26	-56.4	-72.4	3.8	1.49e+00	0	23	104	1486880768	78	23416
2026-01-12 00:41:13.97	200.49	4.97	-54.1	-70.2	3.8	1.49e+00	0	23	104	1486880768	73	24389
2026-01-12 00:41:18.00	200.54	4.68	-54.1	-70.3	3.8	1.49e+00	0	23	104	1486880768	73	24634
2026-01-12 00:41:22.04	200.59	4.40	-54.1	-70.1	3.8	1.49e+00	0	23	104	1486880768	73	23865
2026-01-12 00:41:26.08	200.64	4.12	-54.1	-70.3	3.8	1.49e+00	0	23	104	1486880768	73	24529
2026-01-12 00:41:30.10	200.69	3.84	-54.1	-70.2	3.8	1.49e+00	0	23	104	1486880768	73	24409
2026-01-12 00:41:34.13	200.74	3.57	-54.1	-69.9	3.8	1.49e+00	0	23	104	1486880768	73	23579
2026-01-12 00:41:38.17	200.79	3.29	-54.2	-70.3	3.8	1.49e+00	0	23	104	1486880768	73	24684
2026-01-12 00:41:42.20	200.83	3.03	-54.2	-70.3	3.8	1.49e+00	0	23	104	1486880768	73	24597
2026-01-12 00:41:46.24	200.88	2.76	-54.1	-69.2	3.8	1.49e+00	0	23	104	1486880768	73	21512
2026-01-12 00:41:50.28	200.93	2.49	-54.1	-68.7	3.8	1.49e+00	0	23	104	1486880768	73	20364
2026-01-12 00:41:54.30	200.97	2.23	-54.1	-68.8	3.8	1.49e+00	0	23	104	1486880768	73	20746
2026-01-12 00:41:58.33	201.02	1.98	-54.2	-69.2	3.8	1.49e+00	0	23	104	1486880768	73	21640

#Closed at: 2026-01-12 00:41:58
#Recorded file [1486 MB]: D:/lorett/data/31004_260112_032731.dat