passes_logs/2026/01/12/R3.2S_Murmansk/R3.2S_Murmansk__20260112_044735_FENGYUN_3D_rec.log

#Pass ID: 20260112_044735_FENGYUN 3D
#Satellite: FENGYUN 3D
#Configuration: FENGYUN 3D
#almurnet v.1.7.20251203
#Start time: 2026-01-12 04:47:36

#Version: 2.2.20231116
#Station: R3.2S_Murmansk
#Location: 33.079688 lon 68.888172 lat
#TLE: 1 43010U 17072A   26011.62066612  .00000104  00000+0  70810-4 0  9998
#TLE: 2 43010  98.9935 343.3846 0002223 114.2890 245.8518 14.19694405422776

#Time	Az	El	Level	Level2	SNR	BER	BlckErr	Temp	State	Recorded	gain1	gain2
2026-01-12 04:47:36.46	36.12	2.07	-53.8	-67.0	3.8	8.45e-01	0	21	0	0	72	17761
2026-01-12 04:47:39.50	35.99	2.25	-53.8	-67.0	3.8	8.46e-01	0	21	104	0	72	17801
2026-01-12 04:47:42.52	35.86	2.44	-53.8	-67.0	3.8	8.46e-01	0	21	104	0	72	17761
2026-01-12 04:47:45.54	35.73	2.62	-53.8	-67.1	3.8	8.46e-01	0	21	104	0	72	17896
2026-01-12 04:47:48.57	35.60	2.81	-53.8	-67.1	3.8	8.47e-01	0	21	104	0	72	17892
2026-01-12 04:47:51.59	35.47	3.00	-53.8	-67.0	3.8	8.45e-01	0	21	104	0	72	17878
2026-01-12 04:47:54.62	35.33	3.19	-53.8	-67.1	3.8	8.46e-01	0	21	104	0	72	17903
2026-01-12 04:47:57.65	35.20	3.38	-53.8	-67.1	3.8	8.46e-01	0	21	104	0	72	17923
2026-01-12 04:48:00.67	35.06	3.58	-53.8	-67.1	3.8	8.46e-01	0	22	104	0	72	17925
2026-01-12 04:48:03.70	34.92	3.77	-53.8	-67.1	3.8	8.46e-01	0	21	104	0	72	17970
2026-01-12 04:48:06.72	34.78	3.97	-53.8	-67.1	3.8	8.45e-01	0	22	104	0	72	18000
2026-01-12 04:48:09.75	34.63	4.16	-53.8	-67.1	3.8	8.44e-01	0	22	104	0	72	17981
2026-01-12 04:48:12.78	34.48	4.36	-53.9	-67.1	3.8	8.46e-01	0	22	104	0	72	17927
2026-01-12 04:48:15.81	34.33	4.56	-53.8	-67.1	3.8	8.46e-01	0	22	104	0	72	18014
2026-01-12 04:48:18.84	34.18	4.76	-53.8	-67.0	3.8	8.46e-01	0	22	104	0	72	17888
2026-01-12 04:48:21.86	34.03	4.96	-53.8	-67.1	3.8	8.47e-01	0	22	104	0	72	17951
2026-01-12 04:48:24.89	33.87	5.17	-53.8	-67.1	3.8	8.47e-01	0	22	104	0	72	17985
2026-01-12 04:48:27.92	33.71	5.37	-53.8	-67.1	3.8	8.45e-01	0	22	104	0	72	17945
2026-01-12 04:48:30.95	33.55	5.58	-53.8	-67.1	3.8	8.46e-01	0	22	104	0	72	18027
2026-01-12 04:48:33.97	33.39	5.78	-53.8	-67.1	3.8	8.45e-01	0	22	104	0	72	17948
2026-01-12 04:48:36.99	33.22	5.99	-53.9	-67.1	3.8	8.45e-01	0	22	104	0	72	17982
2026-01-12 04:48:40.02	33.05	6.20	-53.8	-67.1	3.8	8.45e-01	0	22	104	0	72	17965
2026-01-12 04:48:43.05	32.88	6.41	-53.9	-67.1	3.8	8.45e-01	0	22	104	0	72	18043
2026-01-12 04:48:46.08	32.71	6.63	-53.8	-67.1	3.8	8.46e-01	0	22	104	0	72	17983
2026-01-12 04:48:49.11	32.53	6.84	-53.9	-67.1	3.8	8.45e-01	0	22	104	0	72	18041
2026-01-12 04:48:52.13	32.35	7.06	-53.8	-67.1	3.8	8.46e-01	0	22	104	0	72	18018
2026-01-12 04:48:55.15	32.17	7.28	-53.9	-67.2	3.8	8.46e-01	0	22	104	0	72	18130
2026-01-12 04:48:58.18	31.98	7.49	-53.8	-67.1	3.8	8.45e-01	0	22	104	0	72	18004
2026-01-12 04:49:01.20	31.80	7.71	-53.8	-67.1	3.8	8.46e-01	0	22	104	0	72	17972
2026-01-12 04:49:04.23	31.60	7.94	-53.9	-67.1	3.8	8.46e-01	0	22	104	0	72	17989
2026-01-12 04:49:07.26	31.41	8.16	-53.9	-67.1	3.8	8.46e-01	0	22	104	0	72	17998
2026-01-12 04:49:10.28	31.21	8.39	-53.9	-67.2	3.8	8.46e-01	0	22	104	0	73	17107
2026-01-12 04:49:13.31	31.01	8.61	-53.9	-67.2	3.8	8.46e-01	0	23	104	0	73	17096
2026-01-12 04:49:16.34	30.81	8.84	-53.9	-67.2	3.8	8.46e-01	0	22	104	0	73	17126
2026-01-12 04:49:19.37	30.60	9.07	-53.9	-67.2	3.8	8.45e-01	0	22	104	0	73	17127
2026-01-12 04:49:22.39	30.39	9.31	-53.9	-67.2	3.8	8.47e-01	0	22	104	0	73	17084
2026-01-12 04:49:25.42	30.17	9.54	-53.9	-67.2	3.8	8.47e-01	0	23	104	0	73	17088
2026-01-12 04:49:28.44	29.95	9.78	-53.9	-67.2	3.8	8.45e-01	0	23	104	0	73	17104
2026-01-12 04:49:31.47	29.73	10.02	-54.0	-67.2	3.8	8.46e-01	0	23	104	0	73	17110
2026-01-12 04:49:34.50	29.51	10.26	-53.9	-67.2	3.8	8.45e-01	0	22	104	0	73	17170
2026-01-12 04:49:37.53	29.28	10.50	-53.9	-67.2	3.8	8.46e-01	0	23	104	0	73	17112
2026-01-12 04:49:40.55	29.04	10.74	-53.9	-67.2	3.8	8.45e-01	0	22	104	0	73	17085
2026-01-12 04:49:43.58	28.80	10.99	-53.9	-67.2	3.8	8.45e-01	0	22	104	0	73	17143
2026-01-12 04:49:46.60	28.56	11.23	-54.0	-67.2	3.8	8.45e-01	0	23	104	0	73	17096
2026-01-12 04:49:49.62	28.32	11.48	-53.9	-67.2	3.8	8.45e-01	0	23	104	0	73	17118
2026-01-12 04:49:52.65	28.06	11.73	-53.9	-67.2	3.8	8.45e-01	0	23	104	0	73	17180
2026-01-12 04:49:55.67	27.81	11.99	-54.0	-67.2	3.8	8.46e-01	0	23	104	0	73	17116
2026-01-12 04:49:58.71	27.55	12.24	-53.9	-67.2	3.8	8.46e-01	0	22	104	0	73	17112
2026-01-12 04:50:01.73	27.28	12.50	-54.0	-67.2	3.8	8.46e-01	0	23	104	0	73	17105
2026-01-12 04:50:04.76	27.01	12.76	-54.0	-67.2	3.8	8.45e-01	0	23	104	0	73	17140
2026-01-12 04:50:07.78	26.74	13.02	-53.9	-67.2	3.8	8.46e-01	0	23	104	0	73	17147
2026-01-12 04:50:10.80	26.46	13.29	-53.9	-67.2	3.8	8.45e-01	0	23	104	0	73	17168
2026-01-12 04:50:13.83	26.17	13.55	-54.0	-67.2	3.8	8.46e-01	0	23	104	0	73	17119
2026-01-12 04:50:16.86	25.88	13.82	-54.0	-67.2	3.8	8.45e-01	0	23	104	0	73	17183
2026-01-12 04:50:19.88	25.58	14.09	-54.0	-67.2	3.8	8.46e-01	0	23	104	0	73	17202
2026-01-12 04:50:22.91	25.28	14.36	-54.0	-67.2	3.8	8.46e-01	0	23	104	0	73	17124
2026-01-12 04:50:25.94	24.97	14.64	-53.9	-67.2	3.8	8.46e-01	0	23	104	0	73	17171
2026-01-12 04:50:28.97	24.66	14.92	-54.0	-67.2	3.8	8.45e-01	0	23	104	0	73	17163
2026-01-12 04:50:31.99	24.34	15.20	-54.0	-67.2	3.8	8.46e-01	0	23	104	0	73	17162
2026-01-12 04:50:35.02	24.01	15.48	-54.0	-67.2	3.8	8.45e-01	0	23	104	0	73	17102
2026-01-12 04:50:38.05	23.68	15.76	-54.0	-67.2	3.8	8.45e-01	0	23	104	0	73	17179
2026-01-12 04:50:41.08	23.34	16.05	-54.0	-67.2	3.8	8.46e-01	0	23	104	0	73	17144
2026-01-12 04:50:44.10	22.99	16.34	-54.0	-67.2	3.8	8.45e-01	0	23	104	0	73	17114
2026-01-12 04:50:47.12	22.64	16.63	-54.0	-67.2	3.8	8.46e-01	0	23	104	0	73	17120
2026-01-12 04:50:50.15	22.28	16.92	-54.0	-67.2	3.8	8.46e-01	0	23	104	0	73	17133
2026-01-12 04:50:53.18	21.91	17.22	-54.0	-67.2	3.8	8.46e-01	0	23	104	0	73	17093
2026-01-12 04:50:56.20	21.54	17.52	-54.0	-67.2	3.8	8.46e-01	0	23	104	0	73	17159
2026-01-12 04:50:59.24	21.15	17.82	-54.0	-67.2	3.8	8.46e-01	0	23	104	0	73	17124
2026-01-12 04:51:02.27	20.76	18.12	-53.9	-67.2	3.8	8.46e-01	0	23	104	0	73	17119
2026-01-12 04:51:05.29	20.36	18.43	-54.0	-67.2	3.8	8.45e-01	0	23	104	0	73	17110
2026-01-12 04:51:08.31	19.96	18.73	-54.0	-67.2	3.8	8.45e-01	0	23	104	0	73	17194
2026-01-12 04:51:11.33	19.54	19.04	-54.0	-67.2	3.8	8.45e-01	0	23	104	0	73	17163
2026-01-12 04:51:14.36	19.12	19.36	-54.0	-67.2	3.8	8.46e-01	0	23	104	0	73	17127
2026-01-12 04:51:17.39	18.68	19.67	-53.9	-67.2	3.8	8.44e-01	0	23	104	0	73	17128
2026-01-12 04:51:20.42	18.24	19.99	-53.9	-67.2	3.8	8.46e-01	0	23	104	0	73	17121
2026-01-12 04:51:23.44	17.79	20.31	-54.0	-67.2	3.8	8.45e-01	0	23	104	0	73	17160
2026-01-12 04:51:26.46	17.33	20.63	-54.0	-67.2	3.8	8.44e-01	0	23	104	0	73	17139
2026-01-12 04:51:29.49	16.85	20.95	-54.0	-67.2	3.8	8.45e-01	0	23	104	0	73	17151
2026-01-12 04:51:32.51	16.37	21.27	-53.9	-67.2	3.8	8.45e-01	0	23	104	0	73	17161
2026-01-12 04:51:35.54	15.88	21.60	-54.0	-67.2	3.8	8.45e-01	0	23	104	0	73	17147
2026-01-12 04:51:38.56	15.38	21.93	-54.0	-67.2	3.8	8.46e-01	0	23	104	0	73	17151
2026-01-12 04:51:41.58	14.86	22.26	-54.0	-67.2	3.8	8.46e-01	0	23	104	0	73	17176
2026-01-12 04:51:44.61	14.34	22.59	-54.0	-67.2	3.8	8.45e-01	0	23	104	0	73	17172
2026-01-12 04:51:47.63	13.80	22.93	-54.0	-67.2	3.8	8.45e-01	0	23	104	0	73	17196
2026-01-12 04:51:50.66	13.25	23.26	-53.9	-67.2	3.8	8.46e-01	0	23	104	0	73	17198
2026-01-12 04:51:53.68	12.69	23.60	-53.9	-67.2	3.8	8.46e-01	0	23	104	0	73	17165
2026-01-12 04:51:56.70	12.12	23.94	-53.9	-67.2	3.8	8.45e-01	0	23	104	0	73	17111
2026-01-12 04:51:59.73	11.53	24.28	-53.9	-67.2	3.8	8.45e-01	0	23	104	0	73	17145
2026-01-12 04:52:02.76	10.93	24.62	-53.9	-67.2	3.8	8.46e-01	0	23	104	0	73	17142
2026-01-12 04:52:05.79	10.32	24.96	-53.9	-67.2	3.8	8.46e-01	0	23	104	0	73	17188
2026-01-12 04:52:08.82	9.69	25.30	-53.9	-67.2	3.8	8.45e-01	0	23	104	0	73	17158
2026-01-12 04:52:11.85	9.05	25.64	-53.9	-67.2	3.8	8.46e-01	0	23	104	0	73	17156
2026-01-12 04:52:14.87	8.39	25.99	-53.9	-67.2	3.8	8.47e-01	0	23	104	0	73	17172
2026-01-12 04:52:17.89	7.72	26.33	-53.9	-67.2	3.8	8.46e-01	0	23	104	0	73	17135
2026-01-12 04:52:20.92	7.04	26.67	-54.0	-67.2	3.8	8.44e-01	0	23	104	0	73	17150
2026-01-12 04:52:23.95	6.34	27.02	-54.0	-67.2	3.8	8.45e-01	0	23	104	0	73	17153
2026-01-12 04:52:26.98	5.62	27.36	-54.0	-67.2	3.8	8.46e-01	0	23	104	0	73	17153
2026-01-12 04:52:30.01	4.89	27.70	-54.0	-67.2	3.8	8.46e-01	0	23	104	0	73	17107
2026-01-12 04:52:33.03	4.15	28.04	-54.0	-67.2	3.8	8.46e-01	0	23	104	0	73	17126
2026-01-12 04:52:36.05	3.39	28.38	-54.0	-67.2	3.8	8.46e-01	0	23	104	0	73	17125
2026-01-12 04:52:39.08	2.61	28.72	-54.0	-67.2	3.8	8.46e-01	0	23	104	0	73	17127
2026-01-12 04:52:42.10	1.81	29.05	-54.0	-67.2	3.8	8.46e-01	0	23	104	0	73	17167
2026-01-12 04:52:45.12	1.00	29.38	-54.0	-67.1	3.8	8.44e-01	0	23	104	0	73	17076
2026-01-12 04:52:48.15	0.17	29.72	-54.0	-67.2	3.8	8.45e-01	0	23	104	0	73	17189
2026-01-12 04:52:51.18	359.32	30.04	-54.0	-67.2	3.8	8.45e-01	0	23	104	0	73	17211
2026-01-12 04:52:54.20	358.46	30.37	-54.0	-67.2	3.8	8.45e-01	0	23	104	0	73	17114
2026-01-12 04:52:57.23	357.57	30.69	-53.9	-67.2	3.8	8.45e-01	0	23	104	0	73	17184
2026-01-12 04:53:00.26	356.67	31.00	-54.0	-67.2	3.8	8.46e-01	0	23	104	0	73	17177
2026-01-12 04:53:03.29	355.75	31.31	-54.0	-67.2	3.8	8.47e-01	0	23	104	0	73	17148
2026-01-12 04:53:06.31	354.82	31.62	-54.0	-67.2	3.8	8.45e-01	0	23	104	0	73	17148
2026-01-12 04:53:09.33	353.87	31.92	-54.0	-67.2	3.8	8.44e-01	0	23	104	0	73	17178
2026-01-12 04:53:12.36	352.90	32.21	-54.0	-67.2	3.8	8.45e-01	0	23	104	0	73	17134
2026-01-12 04:53:15.38	351.91	32.50	-54.0	-67.2	3.8	8.45e-01	0	23	104	0	73	17170
2026-01-12 04:53:18.40	350.91	32.78	-54.0	-67.2	3.8	8.44e-01	0	23	104	0	73	17161
2026-01-12 04:53:21.43	349.88	33.05	-54.0	-67.2	3.8	8.46e-01	0	23	104	0	73	17105
2026-01-12 04:53:24.45	348.84	33.31	-54.0	-67.2	3.8	8.46e-01	0	23	104	0	73	17139
2026-01-12 04:53:27.48	347.78	33.57	-53.9	-67.2	3.8	8.46e-01	0	23	104	0	73	17179
2026-01-12 04:53:30.50	346.71	33.81	-54.0	-67.2	3.8	8.47e-01	0	23	104	0	73	17177
2026-01-12 04:53:33.54	345.61	34.05	-53.9	-67.2	3.8	8.45e-01	0	23	104	0	73	17143
2026-01-12 04:53:36.56	344.51	34.27	-54.0	-67.2	3.8	8.45e-01	0	23	104	0	73	17153
2026-01-12 04:53:39.59	343.39	34.49	-54.0	-67.2	3.8	8.46e-01	0	23	104	0	73	17167
2026-01-12 04:53:42.61	342.25	34.69	-54.0	-67.2	3.8	8.46e-01	0	23	104	0	73	17172
2026-01-12 04:53:45.64	341.10	34.89	-54.0	-67.2	3.8	8.46e-01	0	23	104	0	73	17109
2026-01-12 04:53:48.66	339.94	35.06	-53.9	-67.2	3.8	8.48e-01	0	23	104	0	73	17122
2026-01-12 04:53:51.69	338.76	35.23	-54.0	-67.2	3.8	8.46e-01	0	23	104	0	73	17145
2026-01-12 04:53:54.72	337.57	35.39	-53.9	-67.2	3.8	8.46e-01	0	23	104	0	73	17116
2026-01-12 04:53:57.75	336.37	35.53	-54.0	-67.2	3.8	8.45e-01	0	23	104	0	73	17093
2026-01-12 04:54:00.77	335.17	35.65	-54.0	-67.2	3.8	8.46e-01	0	23	104	0	73	17171
2026-01-12 04:54:03.80	333.95	35.77	-54.0	-67.2	3.8	8.46e-01	0	23	104	0	73	17121
2026-01-12 04:54:06.82	332.73	35.86	-54.0	-67.2	3.8	8.46e-01	0	23	104	0	73	17123
2026-01-12 04:54:09.84	331.50	35.95	-54.0	-67.2	3.8	8.45e-01	0	23	104	0	73	17175
2026-01-12 04:54:12.87	330.26	36.01	-54.0	-67.2	3.8	8.45e-01	0	23	104	0	73	17121
2026-01-12 04:54:15.90	329.01	36.07	-54.0	-67.2	3.8	8.45e-01	0	23	104	0	73	17132
2026-01-12 04:54:18.93	327.76	36.10	-54.0	-67.2	3.8	8.45e-01	0	23	104	0	73	17209
2026-01-12 04:54:21.96	326.51	36.13	-54.0	-67.2	3.8	8.44e-01	0	23	104	0	73	17145
2026-01-12 04:54:24.99	325.26	36.13	-54.0	-67.2	3.8	8.45e-01	0	23	104	0	73	17173
2026-01-12 04:54:28.01	324.01	36.12	-54.0	-67.2	3.8	8.45e-01	0	23	104	0	73	17166
2026-01-12 04:54:31.04	322.76	36.10	-54.0	-67.2	3.8	8.46e-01	0	23	104	0	73	17217
2026-01-12 04:54:34.07	321.52	36.06	-54.0	-67.2	3.8	8.46e-01	0	23	104	0	73	17171
2026-01-12 04:54:37.10	320.27	36.00	-54.0	-67.2	3.8	8.46e-01	0	23	104	0	73	17197
2026-01-12 04:54:40.12	319.04	35.93	-54.0	-67.2	3.8	8.46e-01	0	23	104	0	73	17149
2026-01-12 04:54:43.14	317.81	35.85	-53.9	-67.2	3.8	8.46e-01	0	23	104	0	73	17126
2026-01-12 04:54:46.17	316.58	35.75	-53.9	-67.2	3.8	8.46e-01	0	23	104	0	73	17166
2026-01-12 04:54:49.20	315.36	35.63	-54.0	-67.2	3.8	8.46e-01	0	23	104	0	73	17127
2026-01-12 04:54:52.23	314.15	35.50	-53.9	-67.2	3.8	8.45e-01	0	23	104	0	73	17124
2026-01-12 04:54:55.26	312.95	35.36	-54.0	-67.2	3.8	8.44e-01	0	23	104	0	73	17123
2026-01-12 04:54:58.28	311.77	35.20	-54.0	-67.2	3.8	8.45e-01	0	23	104	0	73	17202
2026-01-12 04:55:01.32	310.59	35.03	-54.0	-67.2	3.8	8.46e-01	0	23	104	0	73	17178
2026-01-12 04:55:04.34	309.43	34.85	-54.0	-67.2	3.8	8.46e-01	0	23	104	0	73	17174
2026-01-12 04:55:07.37	308.28	34.66	-54.0	-67.2	3.8	8.45e-01	0	23	104	0	73	17215
2026-01-12 04:55:10.40	307.14	34.45	-54.0	-67.2	3.8	8.46e-01	0	23	104	0	73	17201
2026-01-12 04:55:13.41	306.03	34.23	-54.0	-67.2	3.8	8.46e-01	0	23	104	0	73	17146
2026-01-12 04:55:16.44	304.92	34.00	-54.0	-67.2	3.8	8.46e-01	0	23	104	0	73	17143
2026-01-12 04:55:19.47	303.83	33.77	-54.0	-67.2	3.8	8.47e-01	0	23	104	0	73	17209
2026-01-12 04:55:22.49	302.76	33.52	-54.0	-67.2	3.8	8.46e-01	0	23	104	0	73	17165
2026-01-12 04:55:25.52	301.70	33.26	-54.0	-67.2	3.8	8.44e-01	0	23	104	0	73	17111
2026-01-12 04:55:28.55	300.66	33.00	-54.0	-67.2	3.8	8.45e-01	0	23	104	0	73	17187
2026-01-12 04:55:31.58	299.64	32.72	-54.0	-67.2	3.8	8.46e-01	0	23	104	0	73	17203
2026-01-12 04:55:34.60	298.64	32.44	-54.0	-67.2	3.8	8.45e-01	0	23	104	0	73	17209
2026-01-12 04:55:37.63	297.65	32.15	-54.0	-67.2	3.8	8.47e-01	0	23	104	0	73	17170
2026-01-12 04:55:40.66	296.68	31.86	-54.0	-67.2	3.8	8.45e-01	0	23	104	0	73	17155
2026-01-12 04:55:43.68	295.73	31.55	-54.0	-67.2	3.8	8.46e-01	0	23	104	0	73	17164
2026-01-12 04:55:46.71	294.79	31.25	-53.9	-67.2	3.8	8.44e-01	0	23	104	0	73	17186
2026-01-12 04:55:49.74	293.88	30.93	-54.0	-67.2	3.8	8.46e-01	0	23	104	0	73	17198
2026-01-12 04:55:52.77	292.98	30.62	-54.0	-67.2	3.8	8.46e-01	0	23	104	0	73	17267
2026-01-12 04:55:55.80	292.09	30.29	-54.0	-67.2	3.8	8.46e-01	0	23	104	0	73	17216
2026-01-12 04:55:58.82	291.23	29.97	-54.0	-67.2	3.8	8.45e-01	0	23	104	0	73	17222
2026-01-12 04:56:01.85	290.39	29.64	-54.0	-67.2	3.8	8.45e-01	0	23	104	0	73	17164
2026-01-12 04:56:04.87	289.56	29.31	-54.0	-67.2	3.8	8.46e-01	0	23	104	0	73	17223
2026-01-12 04:56:07.90	288.75	28.98	-54.0	-67.2	3.8	8.47e-01	0	23	104	0	73	17154
2026-01-12 04:56:10.92	287.96	28.64	-54.0	-67.2	3.8	8.46e-01	0	23	104	0	73	17193
2026-01-12 04:56:13.95	287.18	28.30	-54.0	-67.2	3.8	8.45e-01	0	23	104	0	73	17207
2026-01-12 04:56:16.98	286.41	27.96	-54.0	-67.2	3.8	8.46e-01	0	23	104	0	73	17183
2026-01-12 04:56:20.01	285.67	27.62	-54.0	-67.2	3.8	8.46e-01	0	23	104	0	73	17186
2026-01-12 04:56:23.03	284.94	27.28	-54.0	-67.2	3.8	8.46e-01	0	23	104	0	73	17202
2026-01-12 04:56:26.05	284.23	26.93	-54.0	-67.2	3.8	8.45e-01	0	23	104	0	73	17180
2026-01-12 04:56:29.08	283.53	26.59	-54.0	-67.2	3.8	8.45e-01	0	23	104	0	73	17260
2026-01-12 04:56:32.11	282.85	26.24	-54.0	-67.2	3.8	8.46e-01	0	23	104	0	73	17220
2026-01-12 04:56:35.14	282.18	25.90	-54.0	-67.2	3.8	8.46e-01	0	23	104	0	73	17172
2026-01-12 04:56:38.16	281.52	25.56	-54.0	-67.2	3.8	8.46e-01	0	23	104	0	73	17189
2026-01-12 04:56:41.19	280.88	25.21	-54.0	-67.2	3.8	8.45e-01	0	23	104	0	73	17143
2026-01-12 04:56:44.21	280.26	24.87	-54.0	-67.2	3.8	8.47e-01	0	23	104	0	73	17218
2026-01-12 04:56:47.24	279.65	24.53	-54.0	-67.2	3.8	8.46e-01	0	23	104	0	73	17215
2026-01-12 04:56:50.26	279.05	24.19	-54.0	-67.2	3.8	8.45e-01	0	23	104	0	73	17165
2026-01-12 04:56:53.29	278.46	23.85	-54.0	-67.2	3.8	8.46e-01	0	23	104	0	73	17224
2026-01-12 04:56:56.31	277.89	23.51	-54.0	-67.2	3.8	8.46e-01	0	23	104	0	73	17224
2026-01-12 04:56:59.34	277.33	23.17	-54.0	-67.2	3.8	8.45e-01	0	23	104	0	73	17212
2026-01-12 04:57:02.36	276.78	22.83	-54.0	-67.2	3.8	8.45e-01	0	23	104	0	73	17252
2026-01-12 04:57:05.39	276.24	22.50	-54.0	-67.2	3.8	8.46e-01	0	23	104	0	73	17192
2026-01-12 04:57:08.42	275.72	22.17	-54.0	-67.2	3.8	8.45e-01	0	23	104	0	73	17222
2026-01-12 04:57:11.44	275.21	21.84	-54.0	-67.2	3.8	8.45e-01	0	23	104	0	73	17208
2026-01-12 04:57:14.48	274.70	21.50	-54.0	-67.2	3.8	8.47e-01	0	23	104	0	73	17247
2026-01-12 04:57:17.50	274.21	21.18	-54.0	-67.2	3.8	8.46e-01	0	23	104	0	73	17244
2026-01-12 04:57:20.52	273.73	20.85	-54.1	-67.2	3.8	8.45e-01	0	23	104	0	73	17201
2026-01-12 04:57:23.55	273.26	20.53	-54.0	-67.2	3.8	8.45e-01	0	23	104	0	73	17174
2026-01-12 04:57:26.56	272.80	20.21	-54.1	-67.2	3.8	8.45e-01	0	23	104	0	73	17181
2026-01-12 04:57:29.59	272.34	19.89	-54.0	-67.2	3.8	8.43e-01	0	23	104	0	73	17276
2026-01-12 04:57:32.62	271.90	19.57	-54.0	-67.2	3.8	8.45e-01	0	23	104	0	73	17241
2026-01-12 04:57:35.64	271.47	19.26	-54.0	-67.3	3.8	8.46e-01	0	23	104	0	73	17293
2026-01-12 04:57:38.67	271.04	18.95	-54.1	-67.2	3.8	8.46e-01	0	23	104	0	73	17280
2026-01-12 04:57:41.69	270.63	18.64	-54.0	-67.2	3.8	8.46e-01	0	23	104	0	73	17257
2026-01-12 04:57:44.72	270.22	18.33	-54.0	-67.2	3.8	8.46e-01	0	23	104	0	73	17201
2026-01-12 04:57:47.75	269.82	18.02	-54.0	-67.2	3.8	8.46e-01	0	23	104	0	73	17226
2026-01-12 04:57:50.77	269.43	17.72	-54.0	-67.2	3.8	8.46e-01	0	23	104	0	73	17260
2026-01-12 04:57:53.80	269.05	17.42	-54.0	-67.2	3.8	8.46e-01	0	23	104	0	73	17250
2026-01-12 04:57:56.82	268.68	17.12	-54.0	-67.2	3.8	8.45e-01	0	23	104	0	73	17217
2026-01-12 04:57:59.86	268.31	16.82	-54.0	-67.2	3.8	8.45e-01	0	23	104	0	73	17199
2026-01-12 04:58:02.88	267.95	16.53	-54.0	-67.2	3.8	8.45e-01	0	23	104	0	73	17210
2026-01-12 04:58:05.91	267.59	16.24	-54.0	-67.2	3.8	8.45e-01	0	23	104	0	73	17249
2026-01-12 04:58:08.94	267.25	15.95	-54.1	-67.3	3.8	8.46e-01	0	23	104	0	73	17289
2026-01-12 04:58:11.97	266.91	15.66	-54.0	-67.2	3.8	8.46e-01	0	23	104	0	73	17196
2026-01-12 04:58:15.00	266.57	15.38	-54.1	-67.2	3.8	8.47e-01	0	23	104	0	73	17175
2026-01-12 04:58:18.02	266.25	15.10	-54.0	-67.2	3.8	8.45e-01	0	23	104	0	73	17210
2026-01-12 04:58:21.05	265.93	14.82	-54.1	-67.2	3.8	8.46e-01	0	23	104	0	73	17257
2026-01-12 04:58:24.08	265.61	14.54	-54.0	-67.3	3.8	8.47e-01	0	23	104	0	73	17291
2026-01-12 04:58:27.10	265.30	14.26	-54.1	-67.3	3.8	8.45e-01	0	23	104	0	73	17295
2026-01-12 04:58:30.12	265.00	13.99	-54.1	-67.2	3.8	8.45e-01	0	23	104	0	73	17247
2026-01-12 04:58:33.15	264.71	13.72	-54.1	-67.2	3.8	8.45e-01	0	23	104	0	73	17229
2026-01-12 04:58:36.18	264.41	13.45	-54.0	-67.2	3.8	8.47e-01	0	23	104	0	73	17258
2026-01-12 04:58:39.20	264.13	13.18	-54.1	-67.2	3.8	8.47e-01	0	23	104	0	73	17257
2026-01-12 04:58:42.23	263.85	12.92	-54.0	-67.2	3.8	8.45e-01	0	23	104	0	73	17180
2026-01-12 04:58:45.26	263.57	12.66	-54.0	-67.2	3.8	8.47e-01	0	23	104	0	73	17221
2026-01-12 04:58:48.29	263.30	12.40	-54.0	-67.2	3.8	8.46e-01	0	23	104	0	73	17244
2026-01-12 04:58:51.32	263.04	12.14	-54.1	-67.2	3.8	8.45e-01	0	23	104	0	73	17247
2026-01-12 04:58:54.35	262.77	11.88	-54.1	-67.2	3.8	8.46e-01	0	23	104	0	73	17222
2026-01-12 04:58:57.37	262.52	11.63	-54.1	-67.2	3.8	8.45e-01	0	23	104	0	73	17241
2026-01-12 04:59:00.40	262.27	11.38	-54.1	-67.2	3.8	8.45e-01	0	23	104	0	73	17211
2026-01-12 04:59:03.42	262.02	11.13	-54.1	-67.2	3.8	8.46e-01	0	23	104	0	73	17247
2026-01-12 04:59:06.44	261.78	10.88	-54.0	-67.2	3.8	8.46e-01	0	23	104	0	73	17204
2026-01-12 04:59:09.47	261.54	10.64	-54.1	-67.2	3.8	8.46e-01	0	23	104	0	73	17202
2026-01-12 04:59:12.49	261.30	10.39	-54.1	-67.2	3.8	8.45e-01	0	23	104	0	73	17253
2026-01-12 04:59:15.51	261.07	10.15	-54.1	-67.3	3.8	8.45e-01	0	23	104	0	73	17284
2026-01-12 04:59:18.53	260.85	9.91	-54.0	-67.2	3.8	8.45e-01	0	23	104	0	73	17252
2026-01-12 04:59:21.55	260.63	9.67	-54.0	-67.2	3.8	8.46e-01	0	23	104	0	73	17220
2026-01-12 04:59:24.58	260.41	9.44	-54.1	-67.2	3.8	8.45e-01	0	23	104	0	73	17252
2026-01-12 04:59:27.61	260.19	9.20	-54.1	-67.2	3.8	8.45e-01	0	23	104	0	73	17246
2026-01-12 04:59:30.63	259.98	8.97	-54.1	-67.3	3.8	8.47e-01	0	23	104	0	73	17328
2026-01-12 04:59:33.66	259.77	8.74	-54.1	-67.2	3.8	8.46e-01	0	23	104	0	73	17261
2026-01-12 04:59:36.69	259.56	8.51	-54.1	-67.3	3.8	8.45e-01	0	23	104	0	73	17291
2026-01-12 04:59:39.72	259.36	8.28	-54.1	-67.2	3.8	8.46e-01	0	23	104	0	73	17278
2026-01-12 04:59:42.74	259.16	8.06	-54.1	-67.3	3.8	8.46e-01	0	23	104	0	73	17301
2026-01-12 04:59:45.77	258.97	7.83	-54.1	-67.2	3.8	8.45e-01	0	23	104	0	73	17257
2026-01-12 04:59:48.80	258.78	7.61	-54.0	-67.2	3.8	8.45e-01	0	23	104	0	73	17255
2026-01-12 04:59:51.83	258.59	7.39	-54.1	-67.2	3.8	8.46e-01	0	23	104	0	73	17263
2026-01-12 04:59:54.86	258.40	7.17	-54.0	-67.2	3.8	8.44e-01	0	23	104	0	73	17245
2026-01-12 04:59:57.89	258.22	6.95	-54.0	-67.3	3.8	8.46e-01	0	24	104	0	73	17324
2026-01-12 05:00:00.92	258.04	6.74	-54.1	-67.3	3.8	8.48e-01	0	23	104	0	73	17309
2026-01-12 05:00:03.94	257.86	6.52	-54.1	-67.2	3.8	8.45e-01	0	23	104	0	73	17220
2026-01-12 05:00:06.97	257.68	6.31	-54.1	-67.2	3.8	8.46e-01	0	23	104	0	73	17280
2026-01-12 05:00:09.99	257.51	6.10	-54.1	-67.3	3.8	8.44e-01	0	23	104	0	73	17288
2026-01-12 05:00:13.01	257.34	5.89	-54.1	-67.3	3.8	8.45e-01	0	23	104	0	73	17291
2026-01-12 05:00:16.04	257.18	5.68	-54.1	-67.3	3.8	8.46e-01	0	23	104	0	73	17335
2026-01-12 05:00:19.06	257.01	5.47	-54.1	-67.3	3.8	8.46e-01	0	24	104	0	73	17320
2026-01-12 05:00:22.08	256.85	5.27	-54.1	-67.3	3.8	8.46e-01	0	23	104	0	73	17316
2026-01-12 05:00:25.10	256.69	5.06	-54.1	-67.3	3.8	8.45e-01	0	23	104	0	73	17318
2026-01-12 05:00:28.12	256.53	4.86	-54.1	-67.3	3.8	8.44e-01	0	23	104	0	73	17326
2026-01-12 05:00:31.14	256.38	4.66	-54.1	-67.2	3.8	8.45e-01	0	23	104	0	73	17277
2026-01-12 05:00:34.17	256.23	4.46	-54.1	-67.3	3.8	8.46e-01	0	24	104	0	73	17300
2026-01-12 05:00:37.20	256.08	4.26	-54.1	-67.3	3.8	8.45e-01	0	23	104	0	73	17315
2026-01-12 05:00:40.22	255.93	4.06	-54.1	-67.3	3.8	8.45e-01	0	23	104	0	73	17315
2026-01-12 05:00:43.24	255.78	3.87	-54.1	-67.3	3.8	8.46e-01	0	23	104	0	73	17308
2026-01-12 05:00:46.27	255.64	3.67	-54.1	-67.3	3.8	8.45e-01	0	23	104	0	73	17295
2026-01-12 05:00:49.30	255.50	3.47	-54.1	-67.2	3.8	8.47e-01	0	23	104	0	73	17280
2026-01-12 05:00:52.33	255.35	3.28	-54.1	-67.2	3.8	8.47e-01	0	23	104	0	73	17253
2026-01-12 05:00:55.36	255.22	3.09	-54.1	-67.2	3.8	8.46e-01	0	23	104	0	73	17209
2026-01-12 05:00:58.37	255.08	2.90	-54.1	-67.3	3.8	8.45e-01	0	23	104	0	73	17355
2026-01-12 05:01:01.40	254.95	2.71	-54.1	-67.3	3.8	8.45e-01	0	23	104	0	73	17305
2026-01-12 05:01:04.44	254.81	2.52	-54.1	-67.3	3.8	8.45e-01	0	23	104	0	73	17328
2026-01-12 05:01:07.47	254.68	2.33	-54.1	-67.3	3.8	8.46e-01	0	23	104	0	73	17327
2026-01-12 05:01:10.49	254.55	2.15	-54.1	-67.2	3.8	8.46e-01	0	23	104	0	73	17265
2026-01-12 05:01:13.51	254.43	1.96	-54.1	-67.3	3.8	8.45e-01	0	24	104	0	73	17291

#Closed at: 2026-01-12 05:01:15
#Recorded file [0 MB]: D:/lorett/data/31004_260112_074736.dat