passes_logs/2026/01/12/R3.2S_Murmansk/R3.2S_Murmansk__20260112_114349_AQUA_rec.log

#Pass ID: 20260112_114349_AQUA
#Satellite: AQUA
#Configuration: AQUA
#almurnet v.1.7.20251203
#Start time: 2026-01-12 11:43:49

#Version: 2.2.20231116
#Station: R3.2S_Murmansk
#Location: 33.079688 lon 68.888172 lat
#TLE: 1 27424U 02022A   26011.60158398  .00001056  00000+0  22133-3 0  9990
#TLE: 2 27424  98.4078 337.9720 0002034  82.3051 337.8743 14.61815760260390

#Time	Az	El	Level	Level2	SNR	BER	BlckErr	Temp	State	Recorded	gain1	gain2
2026-01-12 11:43:49.78	163.85	2.02	-56.7	-75.8	3.8	7.47e-01	0	21	0	0	82	32019
2026-01-12 11:43:53.75	163.92	2.29	-56.6	-75.2	3.8	7.46e-01	0	21	104	0	80	33356
2026-01-12 11:43:57.72	163.99	2.55	-56.6	-75.0	3.8	7.47e-01	0	21	104	0	80	32846
2026-01-12 11:44:01.71	164.06	2.83	-56.6	-74.8	3.8	7.46e-01	0	21	104	0	80	32048
2026-01-12 11:44:05.69	164.13	3.10	-56.5	-74.0	3.9	7.44e-01	0	21	104	0	80	29287
2026-01-12 11:44:09.65	164.20	3.37	-56.6	-75.9	3.8	7.49e-01	0	21	104	0	80	36185
2026-01-12 11:44:13.61	164.28	3.65	-56.4	-69.5	5.5	6.97e-01	42	21	0	0	80	17297
2026-01-12 11:44:17.59	164.35	3.94	-55.8	-63.7	10.1	6.19e-01	0	21	0	7340032	80	8932
2026-01-12 11:44:21.55	164.43	4.22	-54.8	-60.1	13.0	6.09e-01	0	21	0	14680064	78	6600
2026-01-12 11:44:25.53	164.51	4.51	-53.6	-57.5	14.5	6.05e-01	0	22	0	22020096	76	5510
2026-01-12 11:44:29.50	164.59	4.80	-52.2	-55.2	15.4	6.06e-01	0	22	0	29360128	73	4989
2026-01-12 11:44:33.48	164.67	5.10	-51.8	-54.5	15.6	6.06e-01	0	21	0	37224448	72	4885
2026-01-12 11:44:37.46	164.76	5.40	-50.6	-52.8	16.0	6.09e-01	0	22	0	44564480	70	4508
2026-01-12 11:44:41.44	164.84	5.70	-50.7	-53.1	15.7	6.04e-01	0	22	0	51904512	69	4927
2026-01-12 11:44:45.41	164.93	6.01	-50.6	-52.9	15.8	6.08e-01	0	22	0	59244544	69	4825
2026-01-12 11:44:49.38	165.02	6.32	-50.3	-52.4	16.0	6.06e-01	0	22	0	67108864	69	4571
2026-01-12 11:44:53.35	165.11	6.64	-50.0	-52.1	16.2	6.07e-01	0	22	0	74448896	69	4406
2026-01-12 11:44:57.32	165.20	6.96	-50.1	-52.2	16.1	6.07e-01	0	22	0	81788928	69	4445
2026-01-12 11:45:01.29	165.29	7.28	-50.0	-52.0	16.0	6.06e-01	0	22	0	89128960	68	4611
2026-01-12 11:45:05.27	165.39	7.61	-49.9	-51.9	16.0	6.07e-01	0	22	0	96468992	68	4580
2026-01-12 11:45:09.24	165.49	7.94	-49.8	-51.8	16.1	6.08e-01	0	22	0	103809024	68	4501
2026-01-12 11:45:13.22	165.59	8.28	-49.8	-51.7	16.1	6.07e-01	0	22	0	111673344	68	4475
2026-01-12 11:45:17.19	165.69	8.63	-49.8	-51.7	16.1	6.08e-01	0	22	0	119013376	68	4465
2026-01-12 11:45:21.16	165.79	8.98	-49.8	-51.7	16.1	6.07e-01	0	22	0	126353408	68	4487
2026-01-12 11:45:25.14	165.90	9.33	-49.7	-51.6	16.2	6.06e-01	0	22	0	133693440	68	4404
2026-01-12 11:45:29.10	166.01	9.69	-49.7	-51.6	16.1	6.05e-01	0	22	0	141033472	68	4423
2026-01-12 11:45:33.09	166.12	10.06	-49.6	-51.5	16.2	6.07e-01	0	22	0	148897792	68	4364
2026-01-12 11:45:37.06	166.24	10.43	-49.3	-51.1	16.1	6.07e-01	0	22	0	156237824	67	4427
2026-01-12 11:45:41.04	166.36	10.81	-49.1	-50.9	16.2	6.05e-01	0	22	0	163577856	67	4335
2026-01-12 11:45:45.01	166.48	11.19	-49.0	-50.8	16.3	6.07e-01	0	22	0	170917888	67	4261
2026-01-12 11:45:48.98	166.60	11.59	-48.9	-50.7	16.4	6.06e-01	0	22	0	178782208	67	4196
2026-01-12 11:45:52.95	166.73	11.98	-49.1	-50.8	16.3	6.08e-01	0	22	0	186122240	67	4267
2026-01-12 11:45:56.92	166.86	12.39	-49.0	-50.8	16.3	6.07e-01	0	22	0	193462272	67	4245
2026-01-12 11:46:00.90	166.99	12.80	-49.1	-50.9	16.3	6.08e-01	0	22	0	200802304	67	4304
2026-01-12 11:46:04.87	167.13	13.23	-49.0	-50.8	16.3	6.07e-01	0	22	0	208142336	67	4263
2026-01-12 11:46:08.83	167.27	13.65	-49.1	-50.8	16.3	6.08e-01	0	22	0	215482368	67	4286
2026-01-12 11:46:12.80	167.41	14.09	-48.8	-50.5	16.2	6.04e-01	0	22	0	223346688	66	4380
2026-01-12 11:46:16.77	167.56	14.54	-48.9	-50.6	16.2	6.08e-01	0	22	0	230686720	66	4405
2026-01-12 11:46:20.74	167.71	14.99	-48.8	-50.5	16.2	6.08e-01	0	22	0	238026752	66	4370
2026-01-12 11:46:24.71	167.87	15.46	-48.8	-50.5	16.3	6.05e-01	0	22	0	245366784	66	4343
2026-01-12 11:46:28.69	168.04	15.94	-48.7	-50.3	16.3	6.06e-01	0	22	0	253231104	66	4286
2026-01-12 11:46:32.65	168.20	16.42	-48.6	-50.2	16.3	6.06e-01	0	22	0	260571136	66	4239
2026-01-12 11:46:36.62	168.38	16.92	-48.6	-50.3	16.4	6.06e-01	0	22	0	267911168	66	4250
2026-01-12 11:46:40.59	168.56	17.42	-48.6	-50.2	16.3	6.05e-01	0	22	0	275251200	66	4235
2026-01-12 11:46:44.57	168.74	17.94	-48.7	-50.3	16.3	6.07e-01	0	22	0	282591232	66	4284
2026-01-12 11:46:48.53	168.93	18.47	-48.5	-50.2	16.4	6.08e-01	0	22	0	290455552	66	4208
2026-01-12 11:46:52.51	169.13	19.02	-48.5	-50.2	16.4	6.06e-01	0	22	0	297795584	66	4199
2026-01-12 11:46:56.48	169.34	19.57	-48.5	-50.2	16.4	6.07e-01	0	22	0	305135616	66	4211
2026-01-12 11:47:00.45	169.55	20.14	-48.6	-50.3	16.3	6.07e-01	0	22	0	312475648	66	4246
2026-01-12 11:47:04.43	169.77	20.73	-48.7	-50.4	16.3	6.06e-01	0	22	0	319815680	66	4297
2026-01-12 11:47:08.39	170.00	21.33	-48.7	-50.4	16.3	6.06e-01	0	22	0	327680000	66	4315
2026-01-12 11:47:12.37	170.24	21.94	-48.9	-50.6	16.2	6.07e-01	0	22	0	335020032	66	4397
2026-01-12 11:47:16.34	170.49	22.57	-48.9	-50.6	16.2	6.08e-01	0	22	0	342360064	66	4416
2026-01-12 11:47:20.33	170.75	23.22	-48.9	-50.6	16.2	6.05e-01	0	22	0	349700096	66	4415
2026-01-12 11:47:24.30	171.02	23.89	-48.8	-50.5	16.2	6.09e-01	0	22	0	357040128	66	4376
2026-01-12 11:47:28.27	171.30	24.57	-48.9	-50.6	16.2	6.08e-01	0	22	0	364904448	66	4425
2026-01-12 11:47:32.24	171.59	25.28	-49.0	-50.7	16.1	6.06e-01	0	22	0	372244480	66	4470
2026-01-12 11:47:36.20	171.90	26.00	-49.1	-50.8	16.1	6.08e-01	0	22	0	379584512	66	4519
2026-01-12 11:47:40.19	172.22	26.75	-48.8	-50.5	16.2	6.07e-01	0	22	0	386924544	66	4356
2026-01-12 11:47:44.16	172.56	27.51	-48.7	-50.3	16.3	6.05e-01	0	22	0	394264576	66	4261
2026-01-12 11:47:48.15	172.91	28.30	-48.4	-50.0	16.4	6.07e-01	0	22	0	402128896	66	4127
2026-01-12 11:47:52.12	173.28	29.12	-48.6	-50.2	16.2	6.06e-01	0	22	0	409468928	65	4452
2026-01-12 11:47:56.09	173.67	29.95	-48.4	-50.0	16.2	6.05e-01	0	22	0	416808960	65	4361
2026-01-12 11:48:00.06	174.08	30.81	-48.2	-49.7	16.3	6.07e-01	0	22	0	424148992	65	4234
2026-01-12 11:48:04.03	174.52	31.70	-48.5	-50.1	16.2	6.06e-01	0	22	0	432013312	65	4428
2026-01-12 11:48:08.02	174.98	32.62	-48.7	-50.3	16.1	6.08e-01	0	22	0	439353344	65	4542
2026-01-12 11:48:11.98	175.46	33.57	-48.8	-50.4	16.1	6.04e-01	0	22	0	446693376	65	4593
2026-01-12 11:48:15.94	175.98	34.54	-49.4	-51.1	16.0	6.05e-01	0	22	0	454033408	66	4696
2026-01-12 11:48:19.93	176.53	35.55	-49.4	-51.1	16.0	6.04e-01	0	22	0	461373440	66	4681
2026-01-12 11:48:23.90	177.11	36.59	-49.8	-51.6	16.0	6.04e-01	0	22	0	469237760	67	4679
2026-01-12 11:48:27.87	177.73	37.66	-50.5	-52.4	15.8	6.08e-01	0	22	0	476577792	68	4833
2026-01-12 11:48:31.86	178.39	38.77	-50.8	-52.8	15.8	6.07e-01	0	22	0	483917824	69	4812
2026-01-12 11:48:35.84	179.11	39.91	-50.2	-52.0	16.1	6.05e-01	0	22	0	491257856	69	4382
2026-01-12 11:48:39.81	179.87	41.09	-49.7	-51.4	16.2	6.05e-01	0	23	0	498597888	68	4331
2026-01-12 11:48:43.78	180.69	42.30	-49.4	-51.1	16.4	6.09e-01	0	22	0	506462208	68	4167
2026-01-12 11:48:47.75	181.57	43.54	-48.7	-50.3	16.3	6.08e-01	0	22	0	513802240	66	4278
2026-01-12 11:48:51.72	182.53	44.83	-48.4	-50.0	16.2	6.04e-01	0	22	0	521142272	65	4375
2026-01-12 11:48:55.70	183.57	46.15	-48.3	-49.9	16.3	6.06e-01	0	23	0	528482304	65	4319
2026-01-12 11:48:59.66	184.70	47.50	-48.3	-49.9	16.2	6.07e-01	0	22	0	535822336	65	4329
2026-01-12 11:49:03.63	185.93	48.88	-48.2	-49.8	16.3	6.07e-01	0	22	0	543686656	65	4266
2026-01-12 11:49:07.61	187.29	50.30	-48.2	-49.7	16.3	6.05e-01	0	23	0	551026688	65	4225
2026-01-12 11:49:11.57	188.77	51.74	-47.8	-49.3	16.3	6.07e-01	0	22	0	558366720	64	4277
2026-01-12 11:49:15.55	190.41	53.22	-47.8	-49.3	16.3	6.05e-01	0	22	0	565706752	64	4276
2026-01-12 11:49:19.54	192.23	54.72	-48.2	-49.8	16.1	6.09e-01	0	22	0	573571072	64	4494
2026-01-12 11:49:23.51	194.25	56.22	-48.5	-50.1	16.2	6.06e-01	0	22	0	580911104	65	4416
2026-01-12 11:49:27.48	196.49	57.73	-49.5	-51.3	15.9	6.07e-01	0	23	0	588251136	66	4766
2026-01-12 11:49:31.45	199.00	59.23	-50.4	-52.3	15.9	6.06e-01	0	22	0	595591168	68	4770
2026-01-12 11:49:35.43	201.82	60.72	-51.0	-53.0	15.8	6.07e-01	0	22	0	603455488	69	4916
2026-01-12 11:49:39.42	205.00	62.18	-51.3	-53.3	15.8	6.05e-01	0	22	0	610795520	70	4769
2026-01-12 11:49:43.40	208.56	63.59	-51.7	-53.8	15.8	6.08e-01	0	22	0	618135552	71	4770
2026-01-12 11:49:47.36	212.54	64.91	-52.7	-55.1	15.4	6.07e-01	0	22	0	625475584	73	4953
2026-01-12 11:49:51.34	217.03	66.15	-53.5	-56.3	15.1	6.04e-01	0	22	0	632815616	74	5348
2026-01-12 11:49:55.31	222.01	67.25	-53.0	-55.5	15.5	6.04e-01	0	23	0	640155648	74	4923
2026-01-12 11:49:59.28	227.50	68.19	-52.8	-55.3	15.7	6.05e-01	0	22	0	648019968	74	4769
2026-01-12 11:50:03.25	233.48	68.94	-53.0	-55.5	15.6	6.05e-01	0	22	0	655360000	74	4913
2026-01-12 11:50:07.21	239.84	69.46	-52.8	-55.2	15.7	6.06e-01	0	22	0	662700032	74	4744
2026-01-12 11:50:11.18	246.49	69.75	-51.7	-53.8	15.9	6.04e-01	0	22	0	670040064	72	4504
2026-01-12 11:50:15.16	253.27	69.77	-52.0	-54.2	15.8	6.05e-01	0	22	0	677380096	72	4727
2026-01-12 11:50:19.14	259.97	69.54	-52.4	-54.7	15.6	6.03e-01	0	22	0	685244416	72	4990
2026-01-12 11:50:23.11	266.41	69.06	-52.1	-54.3	15.7	6.05e-01	0	22	0	692584448	72	4769
2026-01-12 11:50:27.08	272.47	68.35	-51.6	-53.7	16.0	6.04e-01	0	22	0	699924480	72	4445
2026-01-12 11:50:31.05	278.06	67.45	-51.8	-53.8	16.0	6.02e-01	0	22	0	707264512	72	4540
2026-01-12 11:50:35.03	283.15	66.37	-51.5	-53.5	16.1	6.04e-01	0	22	0	715128832	72	4353
2026-01-12 11:50:39.01	287.72	65.17	-50.9	-52.8	16.2	6.05e-01	0	23	0	722468864	71	4248
2026-01-12 11:50:42.99	291.81	63.85	-50.7	-52.5	16.1	6.03e-01	0	22	0	729808896	70	4371
2026-01-12 11:50:46.97	295.45	62.46	-50.4	-52.2	16.1	6.06e-01	0	23	0	737148928	69	4484
2026-01-12 11:50:50.95	298.69	61.02	-49.8	-51.5	16.1	6.02e-01	0	22	0	745013248	68	4379
2026-01-12 11:50:54.94	301.57	59.53	-50.2	-51.9	16.0	6.04e-01	0	23	0	752353280	68	4593
2026-01-12 11:50:58.90	304.13	58.04	-49.4	-51.1	16.2	6.03e-01	0	23	0	759693312	67	4405
2026-01-12 11:51:02.85	306.41	56.54	-49.1	-50.8	16.2	6.03e-01	0	23	0	767033344	67	4250
2026-01-12 11:51:06.84	308.47	55.03	-48.6	-50.2	16.3	6.04e-01	0	23	0	774373376	66	4198
2026-01-12 11:51:10.82	310.33	53.54	-48.6	-50.1	16.3	6.03e-01	0	23	0	782237696	66	4181
2026-01-12 11:51:14.78	311.99	52.07	-48.6	-50.2	16.3	6.02e-01	0	22	0	789577728	66	4222
2026-01-12 11:51:18.77	313.51	50.62	-49.0	-50.7	16.2	6.03e-01	0	23	0	796917760	66	4442
2026-01-12 11:51:22.74	314.89	49.20	-49.3	-51.0	16.0	6.02e-01	0	22	0	804257792	66	4632
2026-01-12 11:51:26.71	316.14	47.81	-49.5	-51.2	15.9	6.01e-01	0	22	0	811597824	66	4752
2026-01-12 11:51:30.68	317.29	46.46	-49.4	-51.1	16.0	6.02e-01	0	22	0	819462144	66	4676
2026-01-12 11:51:34.65	318.35	45.14	-49.5	-51.2	16.0	6.03e-01	0	23	0	826802176	66	4708
2026-01-12 11:51:38.63	319.32	43.85	-49.4	-51.1	16.0	6.04e-01	0	23	0	834142208	66	4676
2026-01-12 11:51:42.62	320.22	42.59	-49.4	-51.1	16.0	6.04e-01	0	22	0	841482240	66	4679
2026-01-12 11:51:46.60	321.06	41.38	-49.8	-51.5	16.0	6.03e-01	0	22	0	849346560	67	4649
2026-01-12 11:51:50.57	321.83	40.20	-49.8	-51.6	15.9	6.03e-01	0	23	0	856686592	67	4669
2026-01-12 11:51:54.55	322.55	39.05	-49.8	-51.5	16.0	6.03e-01	0	22	0	864026624	67	4642
2026-01-12 11:51:58.52	323.22	37.95	-49.5	-51.2	16.1	6.02e-01	0	22	0	871366656	67	4478
2026-01-12 11:52:02.49	323.85	36.87	-49.5	-51.2	16.1	6.04e-01	0	22	0	878706688	67	4461
2026-01-12 11:52:06.48	324.44	35.83	-49.1	-50.7	16.3	6.02e-01	0	22	0	886571008	67	4200
2026-01-12 11:52:10.44	325.00	34.82	-48.6	-50.2	16.3	6.02e-01	0	22	0	893911040	66	4215
2026-01-12 11:52:14.42	325.52	33.84	-48.2	-49.8	16.3	6.04e-01	0	22	0	901251072	65	4261
2026-01-12 11:52:18.39	326.01	32.89	-47.9	-49.4	16.4	6.00e-01	0	22	0	908591104	65	4066
2026-01-12 11:52:22.37	326.47	31.97	-47.7	-49.2	16.4	6.05e-01	0	23	0	915931136	64	4196
2026-01-12 11:52:26.34	326.91	31.08	-47.8	-49.3	16.3	6.03e-01	0	22	0	923795456	64	4273
2026-01-12 11:52:30.31	327.33	30.21	-47.8	-49.3	16.3	6.02e-01	0	22	0	931135488	64	4268
2026-01-12 11:52:34.27	327.72	29.38	-48.0	-49.5	16.2	6.03e-01	0	22	0	938475520	64	4382
2026-01-12 11:52:38.23	328.10	28.56	-48.2	-49.8	16.1	6.02e-01	0	22	0	945815552	64	4533
2026-01-12 11:52:42.22	328.46	27.77	-48.2	-49.8	16.1	6.01e-01	0	22	0	953155584	64	4514
2026-01-12 11:52:46.20	328.80	27.00	-48.5	-50.1	16.0	6.00e-01	0	22	0	961019904	64	4662
2026-01-12 11:52:50.16	329.12	26.26	-48.7	-50.3	16.1	6.02e-01	0	22	0	968359936	65	4502
2026-01-12 11:52:54.13	329.43	25.53	-48.8	-50.5	16.0	6.04e-01	0	22	0	975699968	65	4608
2026-01-12 11:52:58.09	329.73	24.83	-49.1	-50.8	15.9	6.03e-01	0	22	0	983040000	65	4766
2026-01-12 11:53:02.06	330.01	24.14	-48.9	-50.6	16.0	6.03e-01	0	22	0	990380032	65	4665
2026-01-12 11:53:06.04	330.29	23.47	-49.0	-50.7	16.0	6.03e-01	0	23	0	998244352	65	4723
2026-01-12 11:53:10.02	330.55	22.82	-48.6	-50.2	16.1	6.06e-01	0	22	0	1005584384	65	4473
2026-01-12 11:53:13.99	330.80	22.19	-48.7	-50.3	16.1	6.05e-01	0	23	0	1012924416	65	4527
2026-01-12 11:53:17.96	331.04	21.57	-48.7	-50.3	16.1	6.03e-01	0	22	0	1020264448	65	4526
2026-01-12 11:53:21.93	331.28	20.97	-48.6	-50.2	16.1	6.01e-01	0	22	0	1028128768	65	4457
2026-01-12 11:53:25.91	331.50	20.38	-48.6	-50.3	16.1	6.02e-01	0	23	0	1035468800	65	4522
2026-01-12 11:53:29.89	331.72	19.81	-48.6	-50.2	16.1	6.04e-01	0	22	0	1042808832	65	4487
2026-01-12 11:53:33.86	331.93	19.25	-48.5	-50.1	16.2	6.04e-01	0	22	0	1050148864	65	4432
2026-01-12 11:53:37.85	332.13	18.71	-48.4	-50.0	16.2	6.04e-01	0	22	0	1057488896	65	4388
2026-01-12 11:53:41.83	332.32	18.17	-48.3	-49.8	16.2	6.06e-01	0	22	0	1065353216	65	4287
2026-01-12 11:53:45.81	332.51	17.65	-48.3	-49.9	16.2	6.01e-01	0	22	0	1072693248	65	4317
2026-01-12 11:53:49.80	332.69	17.14	-48.4	-50.0	16.2	6.01e-01	0	22	0	1080033280	65	4373
2026-01-12 11:53:53.77	332.87	16.64	-48.4	-50.0	16.2	6.03e-01	0	22	0	1087373312	65	4368
2026-01-12 11:53:57.75	333.04	16.16	-48.4	-50.0	16.2	6.01e-01	0	22	0	1095237632	65	4374
2026-01-12 11:54:01.72	333.21	15.68	-48.5	-50.2	16.1	6.04e-01	0	22	0	1102577664	65	4470
2026-01-12 11:54:05.69	333.37	15.22	-48.5	-50.2	16.2	6.05e-01	0	22	0	1109917696	65	4443
2026-01-12 11:54:09.66	333.53	14.76	-48.5	-50.1	16.2	6.02e-01	0	22	0	1117257728	65	4425
2026-01-12 11:54:13.62	333.68	14.31	-48.5	-50.1	16.1	6.03e-01	0	22	0	1124597760	65	4434
2026-01-12 11:54:17.59	333.82	13.87	-48.5	-50.1	16.2	6.03e-01	0	23	0	1132462080	65	4432
2026-01-12 11:54:21.55	333.97	13.45	-48.5	-50.2	16.1	6.04e-01	0	22	0	1139802112	65	4442
2026-01-12 11:54:25.53	334.11	13.02	-48.6	-50.2	16.1	6.04e-01	0	23	0	1147142144	65	4489
2026-01-12 11:54:29.50	334.24	12.61	-48.5	-50.2	16.1	6.04e-01	0	22	0	1154482176	65	4463
2026-01-12 11:54:33.47	334.38	12.20	-48.6	-50.3	16.1	6.04e-01	0	22	0	1161822208	65	4518
2026-01-12 11:54:37.44	334.51	11.80	-48.7	-50.4	16.0	6.05e-01	0	22	0	1169686528	65	4560
2026-01-12 11:54:41.42	334.63	11.41	-48.8	-50.6	15.9	6.02e-01	0	22	0	1177026560	65	4668
2026-01-12 11:54:45.40	334.76	11.02	-48.8	-50.5	16.0	6.05e-01	0	22	0	1184366592	65	4638
2026-01-12 11:54:49.38	334.88	10.64	-48.8	-50.5	16.0	6.00e-01	0	22	0	1191706624	65	4614
2026-01-12 11:54:53.33	334.99	10.27	-48.9	-50.7	15.9	6.03e-01	0	22	0	1199046656	65	4706
2026-01-12 11:54:57.30	335.11	9.91	-48.9	-50.7	15.9	6.03e-01	0	22	0	1206910976	65	4721
2026-01-12 11:55:01.27	335.22	9.55	-49.0	-50.7	15.9	6.02e-01	0	23	0	1214251008	65	4758
2026-01-12 11:55:05.24	335.33	9.19	-49.1	-50.9	15.8	6.01e-01	0	22	0	1221591040	65	4865
2026-01-12 11:55:09.23	335.44	8.84	-49.2	-51.0	16.0	6.03e-01	0	22	0	1228931072	66	4628
2026-01-12 11:55:13.20	335.54	8.50	-49.4	-51.3	15.9	6.02e-01	0	22	0	1236271104	66	4761
2026-01-12 11:55:17.18	335.65	8.16	-49.5	-51.4	15.8	6.04e-01	0	22	0	1243611136	66	4848
2026-01-12 11:55:21.16	335.75	7.82	-49.5	-51.4	15.8	6.03e-01	0	22	0	1251475456	66	4844
2026-01-12 11:55:25.13	335.85	7.49	-49.6	-51.6	15.9	6.03e-01	0	22	0	1258815488	67	4671
2026-01-12 11:55:29.10	335.94	7.17	-49.7	-51.7	15.9	6.02e-01	0	22	0	1266155520	67	4743
2026-01-12 11:55:33.07	336.04	6.85	-49.8	-51.8	15.8	6.03e-01	0	22	0	1273495552	67	4790
2026-01-12 11:55:37.04	336.13	6.53	-50.0	-52.0	15.7	6.00e-01	0	22	0	1281359872	67	4910
2026-01-12 11:55:41.01	336.22	6.22	-50.0	-52.0	15.7	6.05e-01	0	22	0	1288699904	67	4925
2026-01-12 11:55:44.99	336.31	5.91	-50.3	-52.5	15.7	6.06e-01	0	22	0	1296039936	68	4901
2026-01-12 11:55:48.96	336.40	5.61	-50.0	-52.1	15.9	6.04e-01	0	23	0	1303379968	68	4674
2026-01-12 11:55:52.93	336.49	5.31	-50.1	-52.2	15.8	6.01e-01	0	22	0	1311244288	68	4714
2026-01-12 11:55:56.90	336.57	5.02	-50.3	-52.5	15.7	6.02e-01	0	22	0	1318584320	68	4886
2026-01-12 11:56:00.90	336.65	4.72	-58.0	-77.3	3.8	7.43e-01	0	22	104	1320681472	83	35998
2026-01-12 11:56:04.89	336.74	4.43	-58.7	-78.0	3.8	7.46e-01	0	22	104	1320681472	85	34692
2026-01-12 11:56:08.88	336.82	4.14	-58.9	-78.2	3.8	7.43e-01	0	23	104	1320681472	85	35570
2026-01-12 11:56:12.86	336.90	3.86	-59.0	-78.3	3.8	7.46e-01	0	23	104	1320681472	85	36029
2026-01-12 11:56:16.82	336.98	3.58	-59.1	-78.4	3.8	7.44e-01	0	23	104	1320681472	85	36269
2026-01-12 11:56:20.81	337.05	3.31	-59.0	-78.4	3.8	7.46e-01	0	23	104	1320681472	85	36128
2026-01-12 11:56:24.78	337.13	3.03	-59.0	-78.3	3.8	7.48e-01	0	23	104	1320681472	85	36026
2026-01-12 11:56:28.76	337.20	2.76	-58.9	-78.3	3.8	7.46e-01	0	23	104	1320681472	85	35783
2026-01-12 11:56:32.74	337.28	2.50	-58.9	-78.3	3.8	7.46e-01	0	22	104	1320681472	85	35698
2026-01-12 11:56:36.70	337.35	2.23	-58.9	-78.2	3.8	7.49e-01	0	23	104	1320681472	85	35518
2026-01-12 11:56:40.69	337.42	1.97	-58.9	-78.2	3.8	7.46e-01	0	23	104	1320681472	85	35546

#Closed at: 2026-01-12 11:56:43
#Recorded file [1320 MB]: D:/lorett/data/31004_260112_144349.dat