passes_logs/2026/01/12/R3.2S_Murmansk/R3.2S_Murmansk__20260112_213204_2024-110A_rec.log

#Pass ID: 20260112_213204_2024-110A
#Satellite: 2024-110A
#Configuration: 01B_900M
#almurnet v.1.7.20251203
#Start time: 2026-01-12 21:32:05

#Version: 2.2.20231116
#Station: R3.2S_Murmansk
#Location: 33.079688 lon 68.888172 lat
#TLE: 1 60012U 24110A   26012.29215811  .00007717  00000+0  46734-3 0  9995
#TLE: 2 60012  97.5744 105.3254 0010423  75.6228 284.6158 15.10835003 88351

#Time	Az	El	Level	Level2	SNR	BER	BlckErr	Temp	State	Recorded	gain1	gain2
2026-01-12 21:32:05.10	201.34	2.04	-57.1	-60.3	6.1	0.00e+00	0	24	0	0	81	20379
2026-01-12 21:32:08.08	201.57	2.23	-57.1	-60.4	6.2	0.00e+00	0	24	104	0	81	20409
2026-01-12 21:32:11.09	201.81	2.42	-57.1	-60.3	6.2	0.00e+00	0	24	104	0	81	20377
2026-01-12 21:32:14.09	202.05	2.61	-57.2	-60.4	6.2	0.00e+00	0	24	104	0	81	20446
2026-01-12 21:32:17.08	202.29	2.81	-57.2	-60.4	6.2	0.00e+00	0	24	104	0	81	20424
2026-01-12 21:32:20.08	202.54	3.00	-57.2	-60.4	6.2	0.00e+00	0	24	104	0	81	20426
2026-01-12 21:32:23.09	202.79	3.20	-57.2	-60.3	6.2	0.00e+00	0	24	104	0	81	20388
2026-01-12 21:32:26.09	203.05	3.40	-57.2	-60.4	6.2	0.00e+00	0	24	104	0	81	20436
2026-01-12 21:32:29.08	203.31	3.59	-57.2	-60.4	6.2	0.00e+00	0	25	104	0	81	20484
2026-01-12 21:32:32.08	203.57	3.79	-57.2	-60.4	6.2	0.00e+00	0	24	104	0	81	20509
2026-01-12 21:32:35.09	203.84	4.00	-57.2	-60.4	6.2	0.00e+00	0	25	104	0	81	20481
2026-01-12 21:32:38.10	204.12	4.20	-57.2	-60.4	6.2	0.00e+00	0	25	104	0	81	20441
2026-01-12 21:32:41.11	204.40	4.41	-57.2	-60.4	6.2	0.00e+00	0	25	104	0	81	20506
2026-01-12 21:32:44.11	204.68	4.61	-57.2	-60.4	6.2	0.00e+00	0	25	104	0	81	20458
2026-01-12 21:32:47.11	204.97	4.82	-57.2	-60.4	6.2	0.00e+00	0	25	104	0	81	20423
2026-01-12 21:32:50.12	205.26	5.03	-57.2	-60.4	6.2	0.00e+00	0	25	104	0	81	20481
2026-01-12 21:32:53.13	205.56	5.25	-57.2	-60.4	6.2	0.00e+00	0	25	104	0	81	20490
2026-01-12 21:32:56.13	205.86	5.46	-57.3	-60.5	6.2	0.00e+00	0	25	104	0	81	20724
2026-01-12 21:32:59.13	206.17	5.68	-57.3	-60.5	6.2	0.00e+00	0	25	104	0	81	20872
2026-01-12 21:33:02.14	206.49	5.89	-57.2	-60.4	6.2	0.00e+00	0	25	104	0	81	20501
2026-01-12 21:33:05.14	206.81	6.11	-57.2	-60.4	6.2	0.00e+00	0	25	104	0	81	20559
2026-01-12 21:33:08.14	207.13	6.33	-57.3	-60.5	6.2	0.00e+00	0	25	104	0	81	20747
2026-01-12 21:33:11.13	207.46	6.55	-57.4	-60.6	6.2	0.00e+00	0	25	104	0	81	21005
2026-01-12 21:33:14.11	207.80	6.78	-57.3	-60.5	6.2	0.00e+00	0	25	104	0	81	20781
2026-01-12 21:33:17.10	208.14	7.00	-57.3	-60.5	6.2	0.00e+00	0	25	104	0	81	20862
2026-01-12 21:33:20.09	208.49	7.23	-57.4	-60.6	6.2	0.00e+00	0	25	104	0	81	21020
2026-01-12 21:33:23.08	208.84	7.46	-57.5	-60.7	6.2	0.00e+00	0	25	104	0	81	21155
2026-01-12 21:33:26.06	209.20	7.69	-57.4	-60.6	6.2	0.00e+00	0	25	104	0	81	20896
2026-01-12 21:33:29.05	209.57	7.92	-57.4	-60.6	6.2	0.00e+00	0	25	104	0	81	21051
2026-01-12 21:33:32.05	209.95	8.15	-57.5	-60.7	6.2	0.00e+00	0	25	104	0	81	21237
2026-01-12 21:33:35.04	210.33	8.39	-57.5	-60.7	6.2	0.00e+00	0	25	104	0	81	21353
2026-01-12 21:33:38.04	210.72	8.63	-57.5	-60.7	6.2	0.00e+00	0	25	104	0	81	21226
2026-01-12 21:33:41.04	211.12	8.87	-57.5	-60.7	6.2	0.00e+00	0	26	104	0	81	21241
2026-01-12 21:33:44.04	211.52	9.11	-57.6	-60.8	6.2	0.00e+00	0	26	104	0	81	21455
2026-01-12 21:33:47.04	211.94	9.36	-57.6	-60.8	6.2	0.00e+00	0	26	104	0	81	21529
2026-01-12 21:33:50.02	212.36	9.61	-57.6	-60.8	6.2	0.00e+00	0	26	104	0	81	21366
2026-01-12 21:33:53.00	212.79	9.85	-57.6	-60.8	6.2	0.00e+00	0	25	104	0	81	21382
2026-01-12 21:33:56.00	213.23	10.10	-57.6	-60.8	6.2	0.00e+00	0	26	104	0	81	21553
2026-01-12 21:33:59.01	213.68	10.36	-57.7	-60.9	6.2	0.00e+00	0	26	104	0	81	21711
2026-01-12 21:34:02.01	214.14	10.61	-57.6	-60.8	6.2	0.00e+00	0	26	104	0	81	21519
2026-01-12 21:34:05.00	214.60	10.87	-57.6	-60.8	6.2	0.00e+00	0	26	104	0	81	21534
2026-01-12 21:34:08.00	215.08	11.13	-57.7	-60.9	6.2	0.00e+00	0	26	104	0	81	21671
2026-01-12 21:34:10.99	215.56	11.39	-57.7	-60.9	6.2	0.00e+00	0	25	104	0	81	21701
2026-01-12 21:34:13.98	216.06	11.65	-57.7	-60.9	6.2	0.00e+00	0	26	104	0	81	21616
2026-01-12 21:34:16.97	216.57	11.92	-57.7	-60.9	6.2	0.00e+00	0	26	104	0	81	21693
2026-01-12 21:34:19.95	217.08	12.18	-57.7	-60.9	6.2	0.00e+00	0	26	104	0	81	21799
2026-01-12 21:34:22.94	217.61	12.45	-57.8	-61.0	6.2	0.00e+00	0	26	104	0	81	21870
2026-01-12 21:34:25.93	218.15	12.72	-57.7	-60.9	6.2	0.00e+00	0	26	104	0	81	21808
2026-01-12 21:34:28.93	218.70	12.99	-57.7	-61.0	6.2	0.00e+00	0	26	104	0	81	21873
2026-01-12 21:34:31.94	219.26	13.27	-57.8	-61.0	6.2	0.00e+00	0	26	104	0	81	21925
2026-01-12 21:34:34.94	219.84	13.54	-57.8	-61.0	6.2	0.00e+00	0	26	104	0	81	21994
2026-01-12 21:34:37.92	220.42	13.82	-57.8	-61.0	6.2	0.00e+00	0	26	104	0	81	21858
2026-01-12 21:34:40.93	221.03	14.10	-57.8	-61.0	6.2	0.00e+00	0	26	104	0	81	21945
2026-01-12 21:34:43.92	221.64	14.38	-57.8	-61.0	6.2	0.00e+00	0	26	104	0	81	21981
2026-01-12 21:34:46.92	222.27	14.66	-57.8	-61.0	6.2	0.00e+00	0	26	104	0	81	22077
2026-01-12 21:34:49.93	222.91	14.94	-57.8	-61.0	6.2	0.00e+00	0	26	104	0	81	22032
2026-01-12 21:34:52.91	223.56	15.23	-57.8	-61.0	6.2	0.00e+00	0	26	104	0	81	22078
2026-01-12 21:34:55.92	224.23	15.51	-57.8	-61.1	6.2	0.00e+00	0	26	104	0	81	22150
2026-01-12 21:34:58.91	224.92	15.80	-57.9	-61.1	6.2	0.00e+00	0	26	104	0	81	22236
2026-01-12 21:35:01.91	225.61	16.09	-57.9	-61.1	6.2	0.00e+00	0	26	104	0	81	22114
2026-01-12 21:35:04.92	226.33	16.37	-57.9	-61.1	6.2	0.00e+00	0	26	104	0	81	22216
2026-01-12 21:35:07.91	227.06	16.66	-57.9	-61.1	6.2	0.00e+00	0	26	104	0	81	22251
2026-01-12 21:35:10.91	227.81	16.95	-57.9	-61.1	6.2	0.00e+00	0	26	104	0	81	22310
2026-01-12 21:35:13.91	228.57	17.24	-57.9	-61.1	6.2	0.00e+00	0	26	104	0	81	22340
2026-01-12 21:35:16.91	229.35	17.53	-57.9	-61.1	6.2	0.00e+00	0	26	104	0	81	22240
2026-01-12 21:35:19.90	230.14	17.81	-57.9	-61.1	6.2	0.00e+00	0	26	104	0	81	22311
2026-01-12 21:35:22.89	230.95	18.10	-57.9	-61.2	6.2	0.00e+00	0	26	104	0	81	22438
2026-01-12 21:35:25.88	231.78	18.38	-57.9	-61.1	6.2	0.00e+00	0	26	104	0	81	22358
2026-01-12 21:35:28.88	232.63	18.67	-57.9	-61.1	6.2	0.00e+00	0	26	104	0	81	22362
2026-01-12 21:35:31.88	233.49	18.95	-58.0	-61.2	6.2	0.00e+00	0	26	104	0	81	22434
2026-01-12 21:35:34.87	234.37	19.23	-58.0	-61.2	6.2	0.00e+00	0	26	104	0	81	22538
2026-01-12 21:35:37.86	235.27	19.51	-58.0	-61.2	6.2	0.00e+00	0	26	104	0	81	22456
2026-01-12 21:35:40.86	236.19	19.78	-57.9	-61.1	6.2	0.00e+00	0	26	104	0	81	22340
2026-01-12 21:35:43.86	237.13	20.06	-58.0	-61.2	6.2	0.00e+00	0	26	104	0	81	22538
2026-01-12 21:35:46.86	238.08	20.33	-58.0	-61.2	6.2	0.00e+00	0	26	104	0	81	22473
2026-01-12 21:35:49.87	239.06	20.59	-58.0	-61.2	6.2	0.00e+00	0	26	104	0	81	22526
2026-01-12 21:35:52.86	240.05	20.85	-57.9	-61.2	6.2	0.00e+00	0	26	104	0	81	22381
2026-01-12 21:35:55.86	241.06	21.11	-58.0	-61.2	6.2	0.00e+00	0	26	104	0	81	22472
2026-01-12 21:35:58.87	242.10	21.36	-58.0	-61.2	6.2	0.00e+00	0	26	104	0	81	22552
2026-01-12 21:36:01.86	243.14	21.61	-58.0	-61.2	6.2	0.00e+00	0	26	104	0	81	22516
2026-01-12 21:36:04.87	244.22	21.85	-57.9	-61.2	6.2	0.00e+00	0	26	104	0	81	22458
2026-01-12 21:36:07.88	245.30	22.08	-58.0	-61.2	6.2	0.00e+00	0	26	104	0	81	22608
2026-01-12 21:36:10.88	246.41	22.31	-58.0	-61.2	6.2	0.00e+00	0	26	104	0	81	22618
2026-01-12 21:36:13.87	247.52	22.52	-58.0	-61.2	6.2	0.00e+00	0	26	104	0	81	22498
2026-01-12 21:36:16.86	248.66	22.73	-58.0	-61.2	6.2	0.00e+00	0	26	104	0	81	22568
2026-01-12 21:36:19.85	249.81	22.93	-58.0	-61.3	6.2	0.00e+00	0	26	104	0	81	22642
2026-01-12 21:36:22.85	250.98	23.12	-58.1	-61.3	6.2	0.00e+00	0	26	104	0	81	22643
2026-01-12 21:36:25.84	252.16	23.30	-58.0	-61.2	6.1	0.00e+00	0	26	104	0	81	22619
2026-01-12 21:36:28.84	253.36	23.48	-58.0	-61.3	6.1	0.00e+00	0	26	104	0	81	22682
2026-01-12 21:36:31.84	254.57	23.64	-58.0	-61.3	6.2	0.00e+00	0	26	104	0	81	22671
2026-01-12 21:36:34.84	255.80	23.79	-58.1	-61.3	6.2	0.00e+00	0	26	104	0	81	22781
2026-01-12 21:36:37.84	257.03	23.92	-58.0	-61.2	6.2	0.00e+00	0	26	104	0	81	22588
2026-01-12 21:36:40.84	258.28	24.05	-58.0	-61.3	6.2	0.00e+00	0	26	104	0	81	22652
2026-01-12 21:36:43.84	259.54	24.16	-58.1	-61.3	6.2	0.00e+00	0	26	104	0	81	22751
2026-01-12 21:36:46.86	260.82	24.26	-58.1	-61.3	6.2	0.00e+00	0	26	104	0	81	22846
2026-01-12 21:36:49.86	262.10	24.35	-58.1	-61.3	6.2	0.00e+00	0	26	104	0	81	22747
2026-01-12 21:36:52.86	263.38	24.42	-58.1	-61.4	6.2	0.00e+00	0	26	104	0	82	21635
2026-01-12 21:36:55.85	264.67	24.48	-58.2	-61.4	6.2	0.00e+00	0	26	104	0	82	21728
2026-01-12 21:36:58.85	265.97	24.53	-58.2	-61.4	6.2	0.00e+00	0	26	104	0	82	21767
2026-01-12 21:37:01.85	267.26	24.56	-58.2	-61.4	6.2	0.00e+00	0	26	104	0	82	21644
2026-01-12 21:37:04.84	268.56	24.58	-58.1	-61.4	6.2	0.00e+00	0	26	104	0	82	21670
2026-01-12 21:37:07.86	269.87	24.58	-58.2	-61.4	6.2	0.00e+00	0	26	104	0	82	21848
2026-01-12 21:37:10.85	271.17	24.57	-58.3	-61.5	6.2	0.00e+00	0	26	104	0	82	21892
2026-01-12 21:37:13.85	272.46	24.55	-58.2	-61.4	6.2	0.00e+00	0	26	104	0	82	21826
2026-01-12 21:37:16.84	273.76	24.51	-58.2	-61.5	6.2	0.00e+00	0	26	104	0	82	21873
2026-01-12 21:37:19.84	275.05	24.46	-58.3	-61.5	6.2	0.00e+00	0	26	104	0	82	21975
2026-01-12 21:37:22.83	276.33	24.39	-58.3	-61.5	6.2	0.00e+00	0	26	104	0	82	22090
2026-01-12 21:37:25.83	277.61	24.31	-58.3	-61.5	6.2	0.00e+00	0	26	104	0	82	21887
2026-01-12 21:37:28.83	278.88	24.22	-58.2	-61.5	6.2	0.00e+00	0	26	104	0	82	21952
2026-01-12 21:37:31.83	280.15	24.11	-58.3	-61.5	6.2	0.00e+00	0	26	104	0	82	22059
2026-01-12 21:37:34.82	281.39	23.99	-58.3	-61.6	6.2	0.00e+00	0	26	104	0	82	22117
2026-01-12 21:37:37.81	282.63	23.86	-58.3	-61.5	6.2	0.00e+00	0	26	104	0	82	22050
2026-01-12 21:37:40.80	283.86	23.72	-58.3	-61.6	6.2	0.00e+00	0	26	104	0	82	22147
2026-01-12 21:37:43.79	285.07	23.57	-58.4	-61.6	6.2	0.00e+00	0	26	104	0	82	22223
2026-01-12 21:37:46.79	286.28	23.40	-58.4	-61.6	6.2	0.00e+00	0	26	104	0	82	22226
2026-01-12 21:37:49.78	287.46	23.23	-58.4	-61.6	6.2	0.00e+00	0	26	104	0	82	22284
2026-01-12 21:37:52.77	288.63	23.04	-58.4	-61.6	6.2	0.00e+00	0	26	104	0	82	22248
2026-01-12 21:37:55.77	289.79	22.85	-58.4	-61.6	6.2	0.00e+00	0	26	104	0	82	22318
2026-01-12 21:37:58.76	290.93	22.64	-58.4	-61.6	6.2	0.00e+00	0	26	104	0	82	22318
2026-01-12 21:38:01.75	292.05	22.43	-58.4	-61.6	6.2	0.00e+00	0	26	104	0	82	22349
2026-01-12 21:38:04.76	293.17	22.21	-58.5	-61.7	6.2	0.00e+00	0	26	104	0	82	22503
2026-01-12 21:38:07.77	294.26	21.98	-58.5	-61.7	6.2	0.00e+00	0	26	104	0	82	22491
2026-01-12 21:38:10.78	295.34	21.75	-58.4	-61.7	6.2	0.00e+00	0	26	104	0	82	22383
2026-01-12 21:38:13.78	296.40	21.51	-58.4	-61.6	6.2	0.00e+00	0	26	104	0	82	22353
2026-01-12 21:38:16.79	297.44	21.26	-58.5	-61.7	6.2	0.00e+00	0	26	104	0	82	22372
2026-01-12 21:38:19.76	298.44	21.01	-58.5	-61.7	6.1	0.00e+00	0	26	104	0	82	22462
2026-01-12 21:38:22.75	299.44	20.75	-58.4	-61.6	6.2	0.00e+00	0	26	104	0	82	22324
2026-01-12 21:38:25.75	300.42	20.49	-58.4	-61.7	6.2	0.00e+00	0	26	104	0	82	22399
2026-01-12 21:38:28.73	301.38	20.23	-58.4	-61.7	6.2	0.00e+00	0	26	104	0	82	22477
2026-01-12 21:38:31.73	302.33	19.96	-58.5	-61.7	6.2	0.00e+00	0	26	104	0	82	22409
2026-01-12 21:38:34.73	303.25	19.68	-58.4	-61.6	6.1	0.00e+00	0	26	104	0	82	22269
2026-01-12 21:38:37.72	304.16	19.41	-58.4	-61.6	6.2	0.00e+00	0	26	104	0	82	22270
2026-01-12 21:38:40.71	305.04	19.13	-58.4	-61.6	6.2	0.00e+00	0	26	104	0	82	22226
2026-01-12 21:38:43.69	305.91	18.85	-58.4	-61.6	6.2	0.00e+00	0	26	104	0	82	22196
2026-01-12 21:38:46.69	306.76	18.57	-58.3	-61.6	6.2	0.00e+00	0	26	104	0	82	22111
2026-01-12 21:38:49.70	307.60	18.29	-58.3	-61.5	6.2	0.00e+00	0	26	104	0	82	22087
2026-01-12 21:38:52.69	308.42	18.00	-58.3	-61.5	6.2	0.00e+00	0	26	104	0	82	21970
2026-01-12 21:38:55.68	309.22	17.72	-58.3	-61.5	6.2	0.00e+00	0	26	104	0	82	22053
2026-01-12 21:38:58.67	310.00	17.43	-58.3	-61.5	6.2	0.00e+00	0	26	104	0	82	21976
2026-01-12 21:39:01.67	310.77	17.15	-58.3	-61.5	6.2	0.00e+00	0	26	104	0	82	21995
2026-01-12 21:39:04.67	311.52	16.86	-58.3	-61.5	6.2	0.00e+00	0	26	104	0	82	21974
2026-01-12 21:39:07.68	312.26	16.57	-58.3	-61.5	6.1	0.00e+00	0	26	104	0	82	21873
2026-01-12 21:39:10.67	312.98	16.29	-58.2	-61.5	6.2	0.00e+00	0	26	104	0	82	21861
2026-01-12 21:39:13.67	313.69	16.00	-58.2	-61.4	6.2	0.00e+00	0	26	104	0	82	21845
2026-01-12 21:39:16.66	314.37	15.72	-58.2	-61.4	6.2	0.00e+00	0	26	104	0	82	21699
2026-01-12 21:39:19.66	315.05	15.44	-58.2	-61.4	6.2	0.00e+00	0	26	104	0	82	21716
2026-01-12 21:39:22.67	315.71	15.15	-58.1	-61.4	6.2	0.00e+00	0	26	104	0	82	21653
2026-01-12 21:39:25.65	316.36	14.87	-58.1	-61.3	6.2	0.00e+00	0	26	104	0	82	21421
2026-01-12 21:39:28.65	316.99	14.59	-58.1	-61.3	6.2	0.00e+00	0	26	104	0	82	21414
2026-01-12 21:39:31.63	317.61	14.31	-58.1	-61.3	6.2	0.00e+00	0	26	104	0	82	21379
2026-01-12 21:39:34.63	318.21	14.03	-58.1	-61.3	6.2	0.00e+00	0	26	104	0	82	21491
2026-01-12 21:39:37.63	318.81	13.76	-58.0	-61.2	6.2	0.00e+00	0	26	104	0	82	21212
2026-01-12 21:39:40.64	319.39	13.48	-58.0	-61.2	6.2	0.00e+00	0	26	104	0	82	21206
2026-01-12 21:39:43.63	319.96	13.21	-58.0	-61.2	6.2	0.00e+00	0	26	104	0	82	21141
2026-01-12 21:39:46.64	320.51	12.94	-58.0	-61.2	6.2	0.00e+00	0	26	104	0	82	21191
2026-01-12 21:39:49.64	321.06	12.67	-57.9	-61.1	6.1	0.00e+00	0	26	104	0	82	21047
2026-01-12 21:39:52.63	321.59	12.40	-57.9	-61.1	6.2	0.00e+00	0	26	104	0	82	20931
2026-01-12 21:39:55.63	322.12	12.13	-57.9	-61.1	6.2	0.00e+00	0	26	104	0	82	20989
2026-01-12 21:39:58.65	322.63	11.87	-57.9	-61.1	6.2	0.00e+00	0	26	104	0	82	21044
2026-01-12 21:40:01.64	323.13	11.61	-57.8	-61.0	6.2	0.00e+00	0	26	104	0	82	20800
2026-01-12 21:40:04.62	323.62	11.35	-57.8	-61.0	6.2	0.00e+00	0	26	104	0	82	20784
2026-01-12 21:40:07.62	324.10	11.09	-57.8	-61.0	6.2	0.00e+00	0	26	104	0	82	20817
2026-01-12 21:40:10.63	324.57	10.83	-57.8	-61.0	6.2	0.00e+00	0	26	104	0	82	20755
2026-01-12 21:40:13.64	325.04	10.57	-57.7	-61.0	6.2	0.00e+00	0	26	104	0	82	20649
2026-01-12 21:40:16.63	325.49	10.32	-57.7	-60.9	6.2	0.00e+00	0	26	104	0	82	20625
2026-01-12 21:40:19.63	325.93	10.07	-57.7	-60.9	6.2	0.00e+00	0	26	104	0	82	20515
2026-01-12 21:40:22.62	326.37	9.82	-57.7	-60.9	6.2	0.00e+00	0	26	104	0	82	20493
2026-01-12 21:40:25.62	326.79	9.58	-57.6	-60.8	6.2	0.00e+00	0	26	104	0	82	20295
2026-01-12 21:40:28.61	327.21	9.33	-57.6	-60.8	6.2	0.00e+00	0	26	104	0	82	20235
2026-01-12 21:40:31.60	327.62	9.09	-57.6	-60.8	6.2	0.00e+00	0	26	104	0	82	20248
2026-01-12 21:40:34.59	328.02	8.85	-57.6	-60.7	6.2	0.00e+00	0	26	104	0	82	20148
2026-01-12 21:40:37.59	328.42	8.61	-57.5	-60.7	6.2	0.00e+00	0	26	104	0	82	20103
2026-01-12 21:40:40.58	328.80	8.38	-57.5	-60.7	6.2	0.00e+00	0	26	104	0	82	20108
2026-01-12 21:40:43.58	329.18	8.14	-57.5	-60.7	6.2	0.00e+00	0	26	104	0	82	20030
2026-01-12 21:40:46.59	329.56	7.91	-57.5	-60.7	6.2	0.00e+00	0	26	104	0	82	20108
2026-01-12 21:40:49.58	329.92	7.68	-57.4	-60.6	6.2	0.00e+00	0	26	104	0	82	19908
2026-01-12 21:40:52.57	330.28	7.45	-57.4	-60.6	6.2	0.00e+00	0	26	104	0	82	19892
2026-01-12 21:40:55.58	330.64	7.22	-57.3	-60.5	6.2	0.00e+00	0	26	104	0	81	20826
2026-01-12 21:40:58.58	330.98	7.00	-57.3	-60.5	6.2	0.00e+00	0	26	104	0	81	20823
2026-01-12 21:41:01.57	331.32	6.77	-57.2	-60.4	6.2	0.00e+00	0	26	104	0	81	20628
2026-01-12 21:41:04.57	331.66	6.55	-57.3	-60.5	6.2	0.00e+00	0	26	104	0	81	20645
2026-01-12 21:41:07.58	331.99	6.33	-57.2	-60.4	6.2	0.00e+00	0	26	104	0	81	20593
2026-01-12 21:41:10.57	332.31	6.11	-57.2	-60.4	6.2	0.00e+00	0	26	104	0	81	20491
2026-01-12 21:41:13.56	332.62	5.90	-57.1	-60.3	6.2	0.00e+00	0	26	104	0	81	20301
2026-01-12 21:41:16.57	332.94	5.68	-57.1	-60.3	6.2	0.00e+00	0	26	104	0	81	20324
2026-01-12 21:41:19.58	333.24	5.47	-57.0	-60.2	6.2	0.00e+00	0	26	104	0	81	20154
2026-01-12 21:41:22.57	333.54	5.26	-57.0	-60.2	6.2	0.00e+00	0	26	104	0	81	20108
2026-01-12 21:41:25.55	333.84	5.05	-56.8	-60.0	6.2	0.00e+00	0	26	104	0	80	20845
2026-01-12 21:41:28.54	334.13	4.84	-57.8	-61.0	6.2	0.00e+00	0	26	104	0	81	21899
2026-01-12 21:41:31.53	334.41	4.63	-58.4	-61.7	6.2	0.00e+00	0	26	104	0	82	22381
2026-01-12 21:41:34.52	334.69	4.43	-58.8	-62.0	6.2	0.00e+00	0	26	104	0	83	22036
2026-01-12 21:41:37.51	334.97	4.23	-59.0	-62.1	6.2	0.00e+00	0	26	104	0	83	22356
2026-01-12 21:41:40.49	335.24	4.03	-59.0	-62.3	6.2	0.00e+00	0	26	104	0	83	22657
2026-01-12 21:41:43.49	335.51	3.83	-59.1	-62.3	6.2	0.00e+00	0	26	104	0	83	22746
2026-01-12 21:41:46.50	335.77	3.63	-59.1	-62.3	6.2	0.00e+00	0	26	104	0	83	22813
2026-01-12 21:41:49.50	336.03	3.43	-59.3	-62.5	6.2	0.00e+00	0	26	104	0	84	21974
2026-01-12 21:41:52.51	336.29	3.23	-59.2	-62.4	6.2	0.00e+00	0	26	104	0	84	21716
2026-01-12 21:41:55.50	336.54	3.04	-59.2	-62.4	6.2	0.00e+00	0	26	104	0	84	21757
2026-01-12 21:41:58.50	336.79	2.84	-59.2	-62.4	6.2	0.00e+00	0	26	104	0	84	21629
2026-01-12 21:42:01.49	337.03	2.65	-59.1	-62.4	6.2	0.00e+00	0	26	104	0	84	21676
2026-01-12 21:42:04.50	337.27	2.46	-59.1	-62.4	6.2	0.00e+00	0	26	104	0	84	21655
2026-01-12 21:42:07.51	337.51	2.27	-59.1	-62.3	6.2	0.00e+00	0	26	104	0	84	21483
2026-01-12 21:42:10.51	337.74	2.08	-59.1	-62.3	6.2	0.00e+00	0	26	104	0	84	21542

#Closed at: 2026-01-12 21:42:12
#Recorded file [0 MB]: D:/lorett/data/31004_260113_003204.dat