passes_logs/2026/01/12/R3.2S_Murmansk/R3.2S_Murmansk__20260112_052653_SUOMI_NPP_rec.log

#Pass ID: 20260112_052653_SUOMI NPP
#Satellite: SUOMI NPP
#Configuration: NPP
#almurnet v.1.7.20251203
#Start time: 2026-01-12 05:26:55

#Version: 2.2.20231116
#Station: R3.2S_Murmansk
#Location: 33.079688 lon 68.888172 lat
#TLE: 1 37849U 11061A   26011.57971124  .00000103  00000+0  69927-4 0  9996
#TLE: 2 37849  98.7807 313.6578 0002518  69.5076 290.6370 14.19524515736228

#Time	Az	El	Level	Level2	SNR	BER	BlckErr	Temp	State	Recorded	gain1	gain2
2026-01-12 05:26:55.81	65.27	2.12	-53.8	-70.0	3.8	1.49e+00	0	20	0	0	72	25037
2026-01-12 05:26:58.82	65.08	2.30	-53.8	-70.0	3.8	1.49e+00	0	21	104	0	72	25091
2026-01-12 05:27:01.85	64.88	2.47	-53.9	-70.0	3.8	1.49e+00	0	21	104	0	72	25076
2026-01-12 05:27:04.87	64.68	2.64	-53.9	-70.0	3.9	1.49e+00	0	21	104	0	72	25113
2026-01-12 05:27:07.90	64.48	2.82	-54.0	-70.1	3.8	1.49e+00	0	21	104	0	73	23906
2026-01-12 05:27:10.93	64.27	2.99	-53.9	-70.1	3.8	1.49e+00	0	21	104	0	73	23906
2026-01-12 05:27:13.96	64.06	3.17	-53.9	-70.1	3.8	1.49e+00	0	21	104	0	73	23909
2026-01-12 05:27:16.98	63.85	3.35	-53.9	-70.1	3.8	1.49e+00	0	21	104	0	73	23891
2026-01-12 05:27:20.02	63.64	3.52	-53.9	-70.1	3.8	1.49e+00	0	21	104	0	73	23958
2026-01-12 05:27:23.05	63.42	3.70	-53.9	-70.1	3.8	1.49e+00	0	21	104	0	73	24031
2026-01-12 05:27:26.07	63.21	3.88	-53.9	-70.1	3.8	1.49e+00	0	21	104	0	73	23861
2026-01-12 05:27:29.10	62.98	4.06	-54.0	-70.1	3.8	1.49e+00	0	21	104	0	73	23957
2026-01-12 05:27:32.12	62.76	4.24	-54.0	-70.1	3.8	1.49e+00	0	21	104	0	73	24006
2026-01-12 05:27:35.15	62.53	4.42	-54.0	-70.1	3.8	1.49e+00	0	21	104	0	73	23984
2026-01-12 05:27:38.17	62.30	4.61	-54.0	-70.1	3.8	1.49e+00	0	21	104	0	73	23915
2026-01-12 05:27:41.20	62.07	4.79	-54.0	-70.1	3.8	1.49e+00	0	21	104	0	73	23992
2026-01-12 05:27:44.22	61.83	4.97	-54.0	-70.1	3.8	1.49e+00	0	21	104	0	73	23976
2026-01-12 05:27:47.25	61.59	5.16	-54.0	-70.1	3.8	1.49e+00	0	22	104	0	73	23953
2026-01-12 05:27:50.28	61.35	5.34	-53.9	-70.1	3.8	1.49e+00	0	22	104	0	73	23966
2026-01-12 05:27:53.30	61.11	5.53	-54.0	-70.1	3.8	1.49e+00	0	22	104	0	73	23983
2026-01-12 05:27:56.32	60.86	5.72	-54.0	-70.1	3.8	1.49e+00	0	22	104	0	73	23954
2026-01-12 05:27:59.33	60.61	5.90	-54.0	-70.1	3.8	1.49e+00	0	22	104	0	73	24036
2026-01-12 05:28:02.37	60.35	6.09	-54.0	-70.1	3.8	1.49e+00	0	22	104	0	73	23940
2026-01-12 05:28:05.40	60.09	6.28	-54.0	-70.1	3.8	1.49e+00	0	22	104	0	73	24065
2026-01-12 05:28:08.43	59.83	6.47	-54.0	-70.1	3.8	1.49e+00	0	22	104	0	73	23959
2026-01-12 05:28:11.45	59.56	6.66	-54.0	-70.1	3.8	1.49e+00	0	22	104	0	73	24014
2026-01-12 05:28:14.48	59.29	6.86	-54.0	-70.1	3.8	1.49e+00	0	22	104	0	73	24110
2026-01-12 05:28:17.50	59.02	7.05	-54.0	-70.1	3.8	1.49e+00	0	22	104	0	73	24009
2026-01-12 05:28:20.53	58.74	7.24	-54.0	-70.1	3.8	1.49e+00	0	22	104	0	73	24103
2026-01-12 05:28:23.56	58.46	7.44	-54.0	-70.1	3.8	1.49e+00	0	22	104	0	73	24026
2026-01-12 05:28:26.59	58.17	7.63	-54.0	-70.1	3.8	1.49e+00	0	22	104	0	73	24019
2026-01-12 05:28:29.61	57.88	7.83	-54.0	-70.1	3.8	1.49e+00	0	22	104	0	73	24058
2026-01-12 05:28:32.64	57.59	8.02	-54.0	-70.1	3.8	1.49e+00	0	22	104	0	73	24081
2026-01-12 05:28:35.67	57.29	8.22	-54.0	-70.1	3.8	1.49e+00	0	22	104	0	73	24094
2026-01-12 05:28:38.69	56.99	8.42	-54.0	-70.1	3.8	1.49e+00	0	22	104	0	73	24029
2026-01-12 05:28:41.72	56.68	8.62	-54.0	-70.1	3.8	1.49e+00	0	22	104	0	73	24062
2026-01-12 05:28:44.74	56.37	8.82	-54.0	-70.1	3.8	1.49e+00	0	22	104	0	73	24107
2026-01-12 05:28:47.78	56.06	9.02	-54.0	-70.1	3.8	1.49e+00	0	22	104	0	73	24056
2026-01-12 05:28:50.80	55.74	9.22	-54.0	-70.1	3.8	1.49e+00	0	22	104	0	73	24063
2026-01-12 05:28:53.83	55.41	9.42	-54.0	-70.1	3.8	1.49e+00	0	22	104	0	73	24117
2026-01-12 05:28:56.86	55.08	9.63	-54.0	-70.1	3.8	1.49e+00	0	22	104	0	73	24058
2026-01-12 05:28:59.88	54.75	9.83	-54.0	-70.1	3.8	1.49e+00	0	22	104	0	73	24089
2026-01-12 05:29:02.91	54.41	10.04	-54.0	-70.1	3.8	1.49e+00	0	22	104	0	73	24025
2026-01-12 05:29:05.93	54.07	10.24	-54.0	-70.1	3.8	1.49e+00	0	22	104	0	73	24094
2026-01-12 05:29:08.96	53.72	10.45	-54.0	-70.2	3.8	1.49e+00	0	22	104	0	73	24169
2026-01-12 05:29:11.99	53.37	10.65	-54.0	-70.1	3.8	1.49e+00	0	22	104	0	73	24065
2026-01-12 05:29:15.02	53.01	10.86	-54.0	-70.1	3.8	1.49e+00	0	22	104	0	73	24033
2026-01-12 05:29:18.04	52.65	11.07	-54.0	-70.1	3.8	1.49e+00	0	22	104	0	73	24106
2026-01-12 05:29:21.06	52.28	11.28	-54.0	-70.1	3.8	1.49e+00	0	22	104	0	73	24042
2026-01-12 05:29:24.09	51.90	11.48	-54.0	-70.1	3.8	1.49e+00	0	22	104	0	73	24060
2026-01-12 05:29:27.12	51.52	11.69	-54.0	-70.1	3.8	1.49e+00	0	22	104	0	73	24081
2026-01-12 05:29:30.15	51.14	11.90	-54.0	-70.1	3.8	1.49e+00	0	22	104	0	73	24087
2026-01-12 05:29:33.18	50.75	12.12	-54.0	-70.1	3.8	1.49e+00	0	22	104	0	73	24053
2026-01-12 05:29:36.20	50.35	12.33	-54.0	-70.1	3.8	1.49e+00	0	22	104	0	73	24106
2026-01-12 05:29:39.24	49.95	12.54	-54.0	-70.2	3.8	1.49e+00	0	22	104	0	73	24169
2026-01-12 05:29:42.27	49.54	12.75	-54.0	-70.2	3.8	1.49e+00	0	22	104	0	73	24135
2026-01-12 05:29:45.29	49.12	12.96	-54.0	-70.2	3.8	1.49e+00	0	22	104	0	73	24183
2026-01-12 05:29:48.31	48.70	13.17	-54.0	-70.2	3.8	1.49e+00	0	23	104	0	73	24164
2026-01-12 05:29:51.34	48.28	13.39	-54.0	-70.2	3.8	1.49e+00	0	22	104	0	73	24171
2026-01-12 05:29:54.37	47.84	13.60	-54.1	-70.2	3.8	1.49e+00	0	23	104	0	73	24194
2026-01-12 05:29:57.39	47.40	13.81	-54.1	-70.2	3.8	1.49e+00	0	22	104	0	73	24150
2026-01-12 05:30:00.42	46.96	14.03	-54.0	-70.2	3.8	1.49e+00	0	22	104	0	73	24159
2026-01-12 05:30:03.45	46.50	14.24	-54.0	-70.2	3.8	1.49e+00	0	22	104	0	73	24158
2026-01-12 05:30:06.47	46.04	14.45	-54.1	-70.2	3.8	1.49e+00	0	23	104	0	73	24227
2026-01-12 05:30:09.50	45.58	14.67	-54.0	-70.2	3.8	1.49e+00	0	23	104	0	73	24171
2026-01-12 05:30:12.53	45.10	14.88	-54.1	-70.2	3.8	1.49e+00	0	23	104	0	73	24155
2026-01-12 05:30:15.55	44.62	15.09	-54.1	-70.2	3.8	1.49e+00	0	22	104	0	73	24156
2026-01-12 05:30:18.57	44.14	15.31	-54.0	-70.2	3.8	1.49e+00	0	22	104	0	73	24135
2026-01-12 05:30:21.60	43.64	15.52	-54.1	-70.2	3.8	1.49e+00	0	23	104	0	73	24164
2026-01-12 05:30:24.64	43.14	15.73	-54.0	-70.2	3.8	1.49e+00	0	23	104	0	73	24177
2026-01-12 05:30:27.67	42.63	15.95	-54.1	-70.2	3.8	1.49e+00	0	22	104	0	73	24153
2026-01-12 05:30:30.69	42.11	16.16	-54.0	-70.2	3.8	1.49e+00	0	23	104	0	73	24199
2026-01-12 05:30:33.71	41.59	16.37	-54.0	-70.2	3.8	1.49e+00	0	22	104	0	73	24161
2026-01-12 05:30:36.74	41.06	16.58	-54.0	-70.2	3.8	1.49e+00	0	23	104	0	73	24131
2026-01-12 05:30:39.77	40.52	16.79	-54.1	-70.2	3.8	1.49e+00	0	23	104	0	73	24156
2026-01-12 05:30:42.79	39.98	16.99	-54.0	-70.1	3.8	1.49e+00	0	23	104	0	73	24115
2026-01-12 05:30:45.82	39.42	17.20	-54.1	-70.2	3.8	1.49e+00	0	23	104	0	73	24190
2026-01-12 05:30:48.85	38.86	17.41	-54.0	-70.2	3.8	1.49e+00	0	23	104	0	73	24141
2026-01-12 05:30:51.88	38.29	17.62	-54.1	-70.2	3.8	1.49e+00	0	23	104	0	73	24187
2026-01-12 05:30:54.91	37.71	17.82	-54.0	-70.2	3.8	1.49e+00	0	23	104	0	73	24221
2026-01-12 05:30:57.94	37.12	18.02	-54.0	-70.2	3.8	1.49e+00	0	23	104	0	73	24276
2026-01-12 05:31:00.96	36.53	18.22	-54.0	-70.2	3.8	1.49e+00	0	23	104	0	73	24179
2026-01-12 05:31:03.99	35.93	18.42	-54.0	-70.2	3.8	1.49e+00	0	23	104	0	73	24137
2026-01-12 05:31:07.01	35.32	18.62	-54.0	-70.2	3.8	1.49e+00	0	22	104	0	73	24219
2026-01-12 05:31:10.04	34.70	18.82	-54.0	-70.2	3.8	1.49e+00	0	23	104	0	73	24218
2026-01-12 05:31:13.07	34.08	19.01	-54.1	-70.2	3.8	1.49e+00	0	23	104	0	73	24280
2026-01-12 05:31:16.09	33.44	19.20	-54.1	-70.2	3.8	1.49e+00	0	23	104	0	73	24269
2026-01-12 05:31:19.12	32.80	19.39	-54.1	-70.2	3.8	1.49e+00	0	23	104	0	73	24287
2026-01-12 05:31:22.15	32.15	19.58	-54.1	-70.2	3.8	1.49e+00	0	23	104	0	73	24215
2026-01-12 05:31:25.17	31.49	19.76	-54.1	-70.2	3.8	1.49e+00	0	23	104	0	73	24242
2026-01-12 05:31:28.20	30.83	19.95	-54.1	-70.2	3.8	1.49e+00	0	23	104	0	73	24136
2026-01-12 05:31:31.22	30.15	20.13	-54.1	-70.2	3.8	1.49e+00	0	23	104	0	73	24193
2026-01-12 05:31:34.25	29.47	20.30	-54.0	-70.1	3.8	1.49e+00	0	23	104	0	73	24125
2026-01-12 05:31:37.27	28.78	20.48	-54.1	-70.2	3.8	1.49e+00	0	23	104	0	73	24243
2026-01-12 05:31:40.29	28.09	20.65	-54.1	-70.2	3.8	1.49e+00	0	23	104	0	73	24238
2026-01-12 05:31:43.32	27.38	20.81	-54.1	-70.2	3.8	1.49e+00	0	23	104	0	73	24225
2026-01-12 05:31:46.35	26.67	20.97	-54.1	-70.2	3.8	1.49e+00	0	23	104	0	73	24281
2026-01-12 05:31:49.37	25.95	21.13	-54.1	-70.2	3.8	1.49e+00	0	23	104	0	73	24255
2026-01-12 05:31:52.40	25.22	21.29	-54.1	-70.2	3.8	1.49e+00	0	23	104	0	73	24264
2026-01-12 05:31:55.43	24.49	21.44	-54.1	-70.2	3.8	1.49e+00	0	23	104	0	73	24203
2026-01-12 05:31:58.46	23.74	21.59	-54.0	-70.2	3.8	1.49e+00	0	23	104	0	73	24192
2026-01-12 05:32:01.49	22.99	21.73	-54.1	-70.2	3.8	1.49e+00	0	22	104	0	73	24155
2026-01-12 05:32:04.51	22.24	21.87	-54.1	-70.2	3.8	1.49e+00	0	23	104	0	73	24202
2026-01-12 05:32:07.54	21.47	22.00	-54.1	-70.2	3.8	1.49e+00	0	23	104	0	73	24137
2026-01-12 05:32:10.57	20.70	22.13	-54.1	-70.2	3.8	1.49e+00	0	23	104	0	73	24202
2026-01-12 05:32:13.59	19.93	22.25	-54.1	-70.2	3.8	1.49e+00	0	23	104	0	73	24238
2026-01-12 05:32:16.62	19.15	22.37	-54.1	-70.2	3.8	1.49e+00	0	23	104	0	73	24264
2026-01-12 05:32:19.64	18.36	22.49	-54.1	-70.2	3.8	1.49e+00	0	23	104	0	73	24188
2026-01-12 05:32:22.67	17.56	22.60	-54.0	-70.2	3.8	1.49e+00	0	23	104	0	73	24227
2026-01-12 05:32:25.69	16.77	22.70	-54.1	-70.2	3.8	1.49e+00	0	23	104	0	73	24157
2026-01-12 05:32:28.72	15.96	22.79	-54.1	-70.2	3.8	1.49e+00	0	23	104	0	73	24242
2026-01-12 05:32:31.74	15.16	22.89	-54.0	-70.2	3.8	1.49e+00	0	23	104	0	73	24196
2026-01-12 05:32:34.77	14.34	22.97	-54.0	-70.2	3.8	1.49e+00	0	23	104	0	73	24237
2026-01-12 05:32:37.80	13.52	23.05	-54.0	-70.2	3.8	1.49e+00	0	23	104	0	73	24179
2026-01-12 05:32:40.82	12.70	23.12	-54.0	-70.2	3.8	1.49e+00	0	23	104	0	73	24237
2026-01-12 05:32:43.85	11.87	23.19	-54.1	-70.2	3.8	1.49e+00	0	23	104	0	73	24280
2026-01-12 05:32:46.87	11.05	23.25	-54.1	-70.2	3.8	1.49e+00	0	23	104	0	73	24339
2026-01-12 05:32:49.90	10.21	23.30	-54.1	-70.2	3.8	1.49e+00	0	23	104	0	73	24255
2026-01-12 05:32:52.93	9.38	23.35	-54.1	-70.2	3.8	1.49e+00	0	23	104	0	73	24270
2026-01-12 05:32:55.96	8.54	23.39	-54.1	-70.2	3.8	1.49e+00	0	23	104	0	73	24252
2026-01-12 05:32:58.98	7.70	23.43	-54.1	-70.2	3.8	1.49e+00	0	23	104	0	73	24284
2026-01-12 05:33:02.01	6.86	23.46	-54.1	-70.2	3.8	1.49e+00	0	23	104	0	73	24271
2026-01-12 05:33:05.04	6.02	23.48	-54.1	-70.2	3.8	1.49e+00	0	23	104	0	73	24273
2026-01-12 05:33:08.07	5.17	23.49	-54.1	-70.2	3.8	1.49e+00	0	23	104	0	73	24252
2026-01-12 05:33:11.09	4.33	23.50	-54.1	-70.2	3.8	1.49e+00	0	23	104	0	73	24262
2026-01-12 05:33:14.10	3.49	23.50	-54.1	-70.2	3.8	1.49e+00	0	23	104	0	73	24236
2026-01-12 05:33:17.10	2.65	23.50	-54.1	-70.2	3.8	1.49e+00	0	23	104	0	73	24288
2026-01-12 05:33:20.12	1.81	23.49	-54.1	-70.2	3.8	1.49e+00	0	23	104	0	73	24216
2026-01-12 05:33:23.11	0.98	23.47	-54.1	-70.2	3.8	1.49e+00	0	23	104	0	73	24236
2026-01-12 05:33:26.09	0.15	23.44	-54.1	-70.2	3.8	1.49e+00	0	23	104	0	73	24329
2026-01-12 05:33:29.08	359.32	23.41	-54.1	-70.2	3.8	1.49e+00	0	23	104	0	73	24276
2026-01-12 05:33:32.08	358.49	23.37	-54.1	-70.2	3.8	1.49e+00	0	23	104	0	73	24251
2026-01-12 05:33:35.08	357.66	23.33	-54.1	-70.2	3.8	1.49e+00	0	23	104	0	73	24331
2026-01-12 05:33:38.07	356.84	23.28	-54.1	-70.2	3.8	1.49e+00	0	23	104	0	73	24257
2026-01-12 05:33:41.06	356.02	23.22	-54.1	-70.2	3.8	1.49e+00	0	23	104	0	73	24273
2026-01-12 05:33:44.06	355.20	23.16	-54.1	-70.2	3.8	1.49e+00	0	23	104	0	73	24328
2026-01-12 05:33:47.07	354.38	23.09	-54.1	-70.2	3.8	1.49e+00	0	23	104	0	73	24356
2026-01-12 05:33:50.07	353.56	23.01	-54.1	-70.2	3.8	1.49e+00	0	23	104	0	73	24332
2026-01-12 05:33:53.07	352.76	22.93	-54.1	-70.2	3.8	1.49e+00	0	23	104	0	73	24282
2026-01-12 05:33:56.07	351.95	22.84	-54.1	-70.2	3.8	1.49e+00	0	23	104	0	73	24240
2026-01-12 05:33:59.06	351.16	22.75	-54.1	-70.2	3.8	1.49e+00	0	23	104	0	73	24271
2026-01-12 05:34:02.04	350.37	22.65	-54.1	-70.2	3.8	1.49e+00	0	23	104	0	73	24287
2026-01-12 05:34:05.00	349.59	22.55	-54.1	-70.2	3.8	1.49e+00	0	23	104	0	73	24344
2026-01-12 05:34:07.98	348.81	22.44	-54.1	-70.2	3.8	1.49e+00	0	23	104	0	73	24227
2026-01-12 05:34:10.98	348.03	22.33	-53.9	-70.2	3.8	1.49e+00	0	23	104	0	73	24201
2026-01-12 05:34:13.96	347.26	22.21	-57.1	-73.1	3.8	1.49e+00	0	23	104	0	79	23988
2026-01-12 05:34:16.93	346.50	22.08	-57.1	-73.1	3.8	1.49e+00	0	23	104	0	79	23972
2026-01-12 05:34:19.91	345.75	21.96	-57.1	-73.1	3.8	1.49e+00	0	23	104	0	79	23943
2026-01-12 05:34:22.91	344.99	21.82	-57.1	-73.1	3.8	1.49e+00	0	23	104	0	79	23960
2026-01-12 05:34:25.88	344.25	21.69	-57.1	-73.1	3.8	1.49e+00	0	23	104	0	79	23937
2026-01-12 05:34:28.87	343.52	21.54	-57.1	-73.1	3.8	1.49e+00	0	23	104	0	79	23953
2026-01-12 05:34:31.85	342.79	21.40	-57.1	-73.1	3.8	1.49e+00	0	23	104	0	79	23897
2026-01-12 05:34:34.84	342.06	21.25	-57.0	-73.1	3.8	1.49e+00	0	23	104	0	79	23897
2026-01-12 05:34:37.83	341.35	21.09	-57.0	-73.1	3.8	1.49e+00	0	23	104	0	79	23863
2026-01-12 05:34:40.82	340.64	20.93	-57.0	-73.1	3.8	1.49e+00	0	23	104	0	79	23901
2026-01-12 05:34:43.79	339.94	20.77	-57.0	-73.1	3.8	1.49e+00	0	23	104	0	79	23870
2026-01-12 05:34:46.77	339.25	20.61	-57.0	-73.1	3.8	1.49e+00	0	23	104	0	79	23927
2026-01-12 05:34:49.76	338.56	20.44	-57.0	-73.1	3.8	1.49e+00	0	23	104	0	79	23938
2026-01-12 05:34:52.73	337.89	20.27	-57.0	-73.1	3.8	1.49e+00	0	23	104	0	79	23892
2026-01-12 05:34:55.71	337.22	20.10	-57.0	-73.1	3.8	1.49e+00	0	23	104	0	79	23913
2026-01-12 05:34:58.69	336.56	19.92	-57.2	-73.3	3.8	1.49e+00	0	23	104	0	79	24433
2026-01-12 05:35:01.68	335.90	19.74	-58.2	-74.3	3.8	1.49e+00	0	23	104	0	81	24443
2026-01-12 05:35:04.67	335.25	19.56	-58.6	-74.7	3.8	1.49e+00	0	23	104	0	82	24248
2026-01-12 05:35:07.65	334.61	19.37	-58.8	-74.9	3.8	1.49e+00	0	23	104	0	82	24763
2026-01-12 05:35:10.65	333.98	19.18	-59.0	-75.0	3.8	1.49e+00	0	23	104	0	83	23745
2026-01-12 05:35:13.64	333.35	18.99	-58.9	-74.9	3.8	1.49e+00	0	23	104	0	83	23560
2026-01-12 05:35:16.62	332.74	18.80	-59.0	-75.1	3.8	1.49e+00	0	23	104	0	83	23970
2026-01-12 05:35:19.59	332.13	18.61	-59.1	-75.2	3.8	1.49e+00	0	23	104	0	83	24170
2026-01-12 05:35:22.57	331.53	18.41	-59.2	-75.3	3.8	1.49e+00	0	23	104	0	83	24498
2026-01-12 05:35:25.56	330.94	18.22	-59.3	-75.3	3.8	1.49e+00	0	23	104	0	83	24546
2026-01-12 05:35:28.54	330.36	18.02	-59.3	-75.3	3.8	1.49e+00	0	23	104	0	83	24634
2026-01-12 05:35:31.53	329.78	17.82	-59.2	-75.3	3.8	1.49e+00	0	23	104	0	83	24450
2026-01-12 05:35:34.52	329.21	17.62	-59.3	-75.4	3.8	1.49e+00	0	23	104	0	83	24824
2026-01-12 05:35:37.50	328.65	17.41	-59.2	-75.3	3.8	1.49e+00	0	23	104	0	83	24521
2026-01-12 05:35:40.49	328.09	17.21	-59.2	-75.2	3.8	1.49e+00	0	23	104	0	83	24400
2026-01-12 05:35:43.49	327.54	17.01	-59.1	-75.2	3.8	1.49e+00	0	23	104	0	83	24323
2026-01-12 05:35:46.50	327.00	16.80	-59.1	-75.2	3.8	1.49e+00	0	23	104	0	83	24181
2026-01-12 05:35:49.49	326.47	16.59	-59.3	-75.4	3.8	1.49e+00	0	23	104	0	83	24730
2026-01-12 05:35:52.47	325.94	16.38	-59.3	-75.4	3.8	1.49e+00	0	23	104	0	83	24869
2026-01-12 05:35:55.45	325.43	16.18	-59.4	-75.4	3.8	1.49e+00	0	23	104	0	83	24936
2026-01-12 05:35:58.44	324.92	15.97	-59.3	-75.4	3.8	1.49e+00	0	23	104	0	83	24820
2026-01-12 05:36:01.42	324.42	15.76	-59.2	-75.2	3.8	1.49e+00	0	23	104	0	83	24396
2026-01-12 05:36:04.40	323.92	15.55	-58.9	-74.5	3.8	1.49e+00	0	23	104	0	83	22503
2026-01-12 05:36:07.39	323.43	15.34	-52.7	-54.9	14.5	4.34e-01	0	23	0	0	72	4410
2026-01-12 05:36:10.38	322.95	15.13	-56.4	-61.1	11.1	4.00e-04	0	23	0	5242880	78	6382
2026-01-12 05:36:13.38	322.47	14.92	-52.1	-54.2	14.8	7.00e-07	0	23	0	10485760	70	4565
2026-01-12 05:36:16.38	322.00	14.71	-51.5	-53.5	15.0	0.00e+00	0	23	0	16777216	69	4452
2026-01-12 05:36:19.36	321.54	14.50	-51.5	-53.4	15.0	0.00e+00	0	23	0	22020096	69	4431
2026-01-12 05:36:22.36	321.09	14.29	-50.5	-52.2	15.3	0.00e+00	0	23	0	27262976	67	4316
2026-01-12 05:36:25.36	320.64	14.07	-50.4	-52.1	15.4	0.00e+00	0	23	0	33554432	67	4281
2026-01-12 05:36:28.36	320.19	13.86	-51.0	-53.0	14.9	0.00e+00	0	23	0	38797312	67	4708
2026-01-12 05:36:31.37	319.76	13.65	-51.6	-53.7	14.7	0.00e+00	0	23	0	45088768	68	4831
2026-01-12 05:36:34.37	319.33	13.44	-51.4	-53.5	14.8	0.00e+00	0	23	0	50331648	68	4715
2026-01-12 05:36:37.37	318.90	13.23	-51.6	-53.7	14.7	0.00e+00	0	23	0	55574528	68	4837
2026-01-12 05:36:40.37	318.48	13.02	-51.4	-53.4	14.8	0.00e+00	0	23	0	61865984	68	4667
2026-01-12 05:36:43.35	318.07	12.81	-50.6	-52.4	15.2	0.00e+00	0	23	0	67108864	67	4415
2026-01-12 05:36:46.34	317.67	12.60	-50.6	-52.4	15.1	0.00e+00	0	23	0	72351744	67	4434
2026-01-12 05:36:49.31	317.27	12.39	-51.4	-53.5	14.6	0.00e+00	0	23	0	78643200	67	4999
2026-01-12 05:36:52.29	316.88	12.19	-52.1	-54.4	14.4	0.00e+00	0	23	0	83886080	69	4949
2026-01-12 05:36:55.27	316.49	11.98	-51.7	-53.8	14.7	0.00e+00	0	23	0	89128960	69	4644
2026-01-12 05:36:58.26	316.11	11.77	-51.5	-53.5	15.0	0.00e+00	0	23	0	95420416	69	4475
2026-01-12 05:37:01.25	315.73	11.56	-51.3	-53.3	15.1	0.00e+00	0	23	0	100663296	69	4356
2026-01-12 05:37:04.25	315.36	11.36	-51.3	-53.3	15.0	0.00e+00	0	23	0	105906176	69	4387
2026-01-12 05:37:07.24	314.99	11.15	-51.4	-53.5	15.0	0.00e+00	0	23	0	112197632	69	4442
2026-01-12 05:37:10.24	314.63	10.94	-51.6	-53.7	14.8	0.00e+00	0	23	0	117440512	69	4547
2026-01-12 05:37:13.24	314.28	10.74	-51.8	-54.0	14.6	0.00e+00	0	23	0	122683392	69	4750
2026-01-12 05:37:16.24	313.92	10.53	-52.2	-54.6	14.3	0.00e+00	0	23	0	128974848	69	5068
2026-01-12 05:37:19.24	313.58	10.33	-52.1	-54.5	14.4	0.00e+00	0	23	0	134217728	69	4992
2026-01-12 05:37:22.23	313.24	10.13	-52.0	-54.3	14.4	0.00e+00	0	23	0	139460608	69	4907
2026-01-12 05:37:25.22	312.90	9.92	-52.3	-54.8	14.2	0.00e+00	0	23	0	145752064	69	5185
2026-01-12 05:37:28.21	312.57	9.72	-52.7	-55.5	13.8	0.00e+00	0	23	0	150994944	70	5305
2026-01-12 05:37:31.22	312.24	9.52	-52.7	-55.4	13.9	0.00e+00	0	23	0	157286400	70	5240
2026-01-12 05:37:34.22	311.92	9.32	-52.3	-54.8	14.3	0.00e+00	0	23	0	162529280	70	4872
2026-01-12 05:37:37.22	311.60	9.12	-52.0	-54.2	14.7	0.00e+00	0	23	0	167772160	70	4577
2026-01-12 05:37:40.23	311.28	8.92	-51.8	-53.9	14.8	0.00e+00	0	23	0	174063616	70	4423
2026-01-12 05:37:43.22	310.98	8.72	-52.1	-54.3	14.5	0.00e+00	0	23	0	179306496	70	4642
2026-01-12 05:37:46.22	310.67	8.53	-52.3	-54.7	14.3	0.00e+00	0	23	0	184549376	70	4855
2026-01-12 05:37:49.22	310.37	8.33	-52.4	-54.9	14.2	0.00e+00	0	23	0	190840832	70	4981
2026-01-12 05:37:52.22	310.07	8.13	-52.2	-54.6	14.4	0.00e+00	0	23	0	196083712	70	4761
2026-01-12 05:37:55.19	309.78	7.94	-52.0	-54.3	14.5	0.00e+00	0	23	0	201326592	70	4637
2026-01-12 05:37:58.18	309.50	7.74	-52.0	-54.3	14.5	0.00e+00	0	23	0	207618048	70	4637
2026-01-12 05:38:01.18	309.21	7.55	-52.2	-54.6	14.4	0.00e+00	0	23	0	212860928	70	4766
2026-01-12 05:38:04.18	308.93	7.36	-52.4	-54.9	14.1	0.00e+00	0	23	0	219152384	70	4957
2026-01-12 05:38:07.17	308.65	7.17	-52.7	-55.4	13.8	0.00e+00	0	23	0	224395264	70	5226
2026-01-12 05:38:10.18	308.38	6.97	-52.9	-55.8	13.6	0.00e+00	0	23	0	229638144	70	5468
2026-01-12 05:38:13.18	308.11	6.78	-53.2	-56.3	13.3	0.00e+00	0	23	0	235929600	71	5491
2026-01-12 05:38:16.18	307.84	6.59	-53.4	-56.6	13.2	0.00e+00	0	23	0	241172480	72	5396
2026-01-12 05:38:19.17	307.58	6.41	-53.6	-57.0	12.9	0.00e+00	0	23	0	246415360	72	5620
2026-01-12 05:38:22.18	307.32	6.22	-53.6	-57.0	12.9	0.00e+00	0	23	0	252706816	72	5594
2026-01-12 05:38:25.17	307.07	6.03	-53.7	-57.1	12.9	0.00e+00	0	23	0	257949696	72	5660
2026-01-12 05:38:28.17	306.82	5.84	-53.6	-57.0	12.9	0.00e+00	0	23	0	263192576	72	5608
2026-01-12 05:38:31.17	306.57	5.66	-53.7	-57.1	12.8	0.00e+00	0	23	0	269484032	72	5722
2026-01-12 05:38:34.18	306.32	5.47	-53.6	-57.0	12.9	0.00e+00	0	23	0	274726912	72	5642
2026-01-12 05:38:37.16	306.08	5.29	-53.8	-57.5	12.5	0.00e+00	0	23	0	281018368	72	5927
2026-01-12 05:38:40.16	305.84	5.10	-54.1	-58.0	12.2	3.80e-06	0	23	0	286261248	73	5925
2026-01-12 05:38:43.16	305.60	4.92	-57.9	-73.9	3.8	1.49e+00	0	23	104	289406976	80	24754
2026-01-12 05:38:46.15	305.37	4.74	-58.7	-74.7	3.8	1.49e+00	0	23	104	289406976	82	24277
2026-01-12 05:38:49.14	305.14	4.56	-59.1	-75.1	3.8	1.49e+00	0	23	104	289406976	83	23935
2026-01-12 05:38:52.14	304.92	4.38	-59.3	-75.4	3.8	1.49e+00	0	23	104	289406976	83	24758
2026-01-12 05:38:55.13	304.69	4.20	-59.7	-75.7	3.8	1.49e+00	0	23	104	289406976	84	24307
2026-01-12 05:38:58.12	304.47	4.02	-59.7	-75.8	3.8	1.49e+00	0	23	104	289406976	84	24495
2026-01-12 05:39:01.12	304.25	3.84	-59.8	-75.9	3.8	1.49e+00	0	23	104	289406976	84	24704
2026-01-12 05:39:04.10	304.04	3.67	-59.8	-75.8	3.8	1.49e+00	0	23	104	289406976	84	24691
2026-01-12 05:39:07.10	303.83	3.49	-59.7	-75.8	3.8	1.49e+00	0	23	104	289406976	84	24534
2026-01-12 05:39:10.10	303.62	3.32	-59.6	-75.7	3.8	1.49e+00	0	23	104	289406976	84	24153
2026-01-12 05:39:13.11	303.41	3.14	-59.6	-75.6	3.8	1.49e+00	0	23	104	289406976	84	24038
2026-01-12 05:39:16.11	303.20	2.97	-59.6	-75.6	3.8	1.49e+00	0	23	104	289406976	84	23968
2026-01-12 05:39:19.12	303.00	2.79	-59.5	-75.6	3.8	1.49e+00	0	23	104	289406976	84	23893
2026-01-12 05:39:22.12	302.80	2.62	-59.5	-75.5	3.8	1.49e+00	0	23	104	289406976	84	23823
2026-01-12 05:39:25.12	302.60	2.45	-59.5	-75.5	3.8	1.49e+00	0	23	104	289406976	84	23846
2026-01-12 05:39:28.13	302.41	2.28	-59.5	-75.5	3.8	1.49e+00	0	23	104	289406976	84	23812
2026-01-12 05:39:31.13	302.21	2.10	-59.5	-75.5	3.8	1.49e+00	0	23	104	289406976	84	23801
2026-01-12 05:39:34.13	302.02	1.93	-59.5	-75.5	3.8	1.49e+00	0	23	104	289406976	84	23778

#Closed at: 2026-01-12 05:39:34
#Recorded file [289 MB]: D:/lorett/data/31004_260112_082655.dat