passes_logs/2026/01/12/R3.2S_Murmansk/R3.2S_Murmansk__20260112_211919_KANOPUS-V_5_rec.log

#Pass ID: 20260112_211919_KANOPUS-V 5
#Satellite: KANOPUS-V 5
#Configuration: KANOPUS-V_8320
#almurnet v.1.7.20251203
#Start time: 2026-01-12 21:19:20

#Version: 2.2.20231116
#Station: R3.2S_Murmansk
#Location: 33.079688 lon 68.888172 lat
#TLE: 1 43876U 18111A   26012.28056898  .00003514  00000+0  15053-3 0  9996
#TLE: 2 43876  97.3682 280.8443 0001794  87.9048 272.2394 15.23425790391056

#Time	Az	El	Level	Level2	SNR	BER	BlckErr	Temp	State	Recorded	gain1	gain2
2026-01-12 21:19:20.40	21.30	2.04	-58.2	-67.8	3.8	7.46e-01	0	21	0	0	80	11029
2026-01-12 21:19:23.29	21.45	2.23	-58.2	-67.9	3.8	7.46e-01	0	21	104	0	80	11048
2026-01-12 21:19:26.20	21.60	2.43	-58.2	-67.9	3.8	7.45e-01	0	21	104	0	80	11050
2026-01-12 21:19:29.10	21.76	2.63	-58.2	-67.9	3.8	7.47e-01	0	21	104	0	80	11063
2026-01-12 21:19:32.00	21.91	2.83	-58.2	-67.9	3.8	7.45e-01	0	21	104	0	80	11116
2026-01-12 21:19:34.90	22.07	3.03	-58.2	-67.9	3.8	7.45e-01	0	21	104	0	80	11095
2026-01-12 21:19:37.81	22.23	3.24	-58.2	-67.9	3.8	7.46e-01	0	22	104	0	80	11105
2026-01-12 21:19:40.70	22.39	3.44	-58.2	-67.9	3.8	7.44e-01	0	22	104	0	80	11115
2026-01-12 21:19:43.60	22.56	3.65	-58.2	-67.9	3.8	7.46e-01	0	22	104	0	80	11096
2026-01-12 21:19:46.49	22.73	3.86	-58.2	-67.9	3.8	7.45e-01	0	22	104	0	80	11117
2026-01-12 21:19:49.39	22.90	4.07	-58.2	-67.9	3.8	7.44e-01	0	22	104	0	80	11109
2026-01-12 21:19:52.29	23.07	4.29	-58.2	-67.9	3.8	7.45e-01	0	22	104	0	80	11086
2026-01-12 21:19:55.18	23.25	4.50	-58.2	-67.9	3.8	7.44e-01	0	22	104	0	80	11106
2026-01-12 21:19:58.09	23.43	4.72	-58.2	-67.9	3.8	7.45e-01	0	22	104	0	80	11098
2026-01-12 21:20:00.99	23.61	4.94	-58.2	-67.9	3.8	7.45e-01	0	22	104	0	80	11052
2026-01-12 21:20:03.89	23.80	5.17	-58.1	-67.8	3.8	7.45e-01	0	22	104	0	80	10985
2026-01-12 21:20:06.80	23.99	5.39	-58.2	-67.9	3.8	7.45e-01	0	22	104	0	80	11127
2026-01-12 21:20:09.70	24.18	5.62	-58.4	-68.1	3.8	7.46e-01	0	22	104	0	80	11350
2026-01-12 21:20:12.59	24.38	5.85	-58.4	-68.1	3.8	7.46e-01	0	22	104	0	80	11396
2026-01-12 21:20:15.50	24.58	6.08	-58.3	-68.0	3.8	7.46e-01	0	22	104	0	80	11261
2026-01-12 21:20:18.41	24.79	6.32	-58.5	-68.2	3.8	7.45e-01	0	22	104	0	80	11488
2026-01-12 21:20:21.31	25.00	6.56	-58.6	-68.3	3.8	7.45e-01	0	22	104	0	80	11578
2026-01-12 21:20:24.21	25.21	6.80	-58.5	-68.2	3.8	7.46e-01	0	22	104	0	80	11428
2026-01-12 21:20:27.13	25.43	7.04	-58.5	-68.2	3.8	7.45e-01	0	22	104	0	80	11504
2026-01-12 21:20:30.05	25.66	7.29	-58.6	-68.3	3.8	7.46e-01	0	22	104	0	80	11681
2026-01-12 21:20:32.97	25.88	7.54	-58.7	-68.4	3.8	7.45e-01	0	22	104	0	80	11730
2026-01-12 21:20:35.92	26.12	7.80	-58.6	-68.3	3.8	7.44e-01	0	22	104	0	80	11614
2026-01-12 21:20:38.89	26.36	8.06	-58.6	-68.4	3.8	7.46e-01	0	22	104	0	80	11689
2026-01-12 21:20:41.86	26.61	8.33	-58.8	-68.5	3.8	7.44e-01	0	22	104	0	80	11825
2026-01-12 21:20:44.84	26.86	8.60	-58.8	-68.5	3.8	7.46e-01	0	23	104	0	80	11897
2026-01-12 21:20:47.81	27.12	8.87	-58.7	-68.4	3.8	7.45e-01	0	23	104	0	80	11792
2026-01-12 21:20:50.78	27.38	9.15	-58.8	-68.4	3.8	7.45e-01	0	22	104	0	80	11816
2026-01-12 21:20:53.76	27.66	9.43	-58.8	-68.5	3.8	7.45e-01	0	22	104	0	80	11938
2026-01-12 21:20:56.73	27.93	9.71	-58.9	-68.6	3.8	7.46e-01	0	22	104	0	80	11987
2026-01-12 21:20:59.70	28.21	10.00	-58.8	-68.5	3.8	7.47e-01	0	23	104	0	80	11882
2026-01-12 21:21:02.65	28.50	10.29	-58.8	-68.6	3.8	7.45e-01	0	23	104	0	80	11999
2026-01-12 21:21:05.61	28.80	10.58	-59.0	-68.7	3.8	7.45e-01	0	23	104	0	81	11469
2026-01-12 21:21:08.56	29.10	10.88	-59.0	-68.6	3.8	7.43e-01	0	23	104	0	81	11378
2026-01-12 21:21:11.54	29.41	11.19	-58.9	-68.6	3.8	7.46e-01	0	23	104	0	81	11332
2026-01-12 21:21:14.50	29.73	11.50	-59.0	-68.7	3.8	7.44e-01	0	23	104	0	81	11465
2026-01-12 21:21:17.45	30.05	11.81	-59.0	-68.7	3.8	7.44e-01	0	23	104	0	81	11541
2026-01-12 21:21:20.42	30.39	12.12	-59.0	-68.6	3.8	7.47e-01	0	23	104	0	81	11413
2026-01-12 21:21:23.39	30.73	12.45	-59.0	-68.7	3.8	7.45e-01	0	23	104	0	81	11426
2026-01-12 21:21:26.34	31.08	12.77	-59.1	-68.8	3.8	7.44e-01	0	23	104	0	81	11614
2026-01-12 21:21:29.30	31.44	13.10	-59.1	-68.7	3.8	7.44e-01	0	23	104	0	81	11544
2026-01-12 21:21:32.27	31.81	13.44	-59.1	-68.8	3.8	7.44e-01	0	23	104	0	81	11553
2026-01-12 21:21:35.23	32.19	13.79	-59.1	-68.7	3.8	7.46e-01	0	23	104	0	81	11527
2026-01-12 21:21:38.20	32.58	14.13	-59.1	-68.8	3.8	7.46e-01	0	23	104	0	81	11657
2026-01-12 21:21:41.15	32.98	14.49	-59.2	-68.8	3.8	7.45e-01	0	23	104	0	81	11676
2026-01-12 21:21:44.12	33.40	14.85	-59.1	-68.8	3.8	7.44e-01	0	23	104	0	81	11576
2026-01-12 21:21:47.07	33.82	15.21	-59.1	-68.8	3.8	7.46e-01	0	23	104	0	81	11608
2026-01-12 21:21:50.04	34.26	15.58	-59.2	-68.9	3.8	7.48e-01	0	23	104	0	81	11772
2026-01-12 21:21:52.99	34.70	15.96	-59.2	-68.9	3.8	7.45e-01	0	23	104	0	81	11794
2026-01-12 21:21:55.95	35.16	16.34	-59.2	-68.9	3.8	7.45e-01	0	23	104	0	81	11730
2026-01-12 21:21:58.92	35.64	16.73	-59.2	-68.9	3.8	7.45e-01	0	23	104	0	81	11785
2026-01-12 21:22:01.90	36.14	17.13	-59.3	-69.0	3.8	7.46e-01	0	23	104	0	81	11863
2026-01-12 21:22:04.90	36.65	17.54	-59.3	-69.0	3.8	7.45e-01	0	23	104	0	81	11932
2026-01-12 21:22:07.89	37.17	17.95	-59.3	-69.0	3.8	7.46e-01	0	23	104	0	81	11836
2026-01-12 21:22:10.89	37.72	18.38	-59.3	-69.0	3.8	7.47e-01	0	23	104	0	81	11868
2026-01-12 21:22:13.89	38.28	18.81	-59.3	-69.1	3.8	7.46e-01	0	23	104	0	81	11999
2026-01-12 21:22:16.88	38.86	19.24	-59.4	-69.0	3.8	7.46e-01	0	23	104	0	81	11936
2026-01-12 21:22:19.88	39.46	19.68	-59.3	-69.0	3.8	7.44e-01	0	23	104	0	81	11922
2026-01-12 21:22:22.87	40.08	20.13	-59.4	-69.1	3.8	7.46e-01	0	23	104	0	81	12011
2026-01-12 21:22:25.87	40.72	20.59	-59.4	-69.1	3.8	7.46e-01	0	23	104	0	81	12032
2026-01-12 21:22:28.87	41.38	21.06	-59.4	-69.1	3.8	7.45e-01	0	23	104	0	81	12043
2026-01-12 21:22:31.87	42.07	21.53	-59.4	-69.1	3.8	7.44e-01	0	23	104	0	81	11970
2026-01-12 21:22:34.86	42.78	22.01	-59.5	-69.2	3.8	7.45e-01	0	23	104	0	82	11428
2026-01-12 21:22:37.85	43.51	22.50	-59.5	-69.2	3.8	7.45e-01	0	23	104	0	82	11486
2026-01-12 21:22:40.86	44.27	23.00	-59.5	-69.2	3.8	7.45e-01	0	23	104	0	82	11511
2026-01-12 21:22:43.85	45.06	23.50	-59.5	-69.2	3.8	7.46e-01	0	23	104	0	82	11444
2026-01-12 21:22:46.84	45.87	24.01	-59.5	-69.3	3.8	7.46e-01	0	23	104	0	82	11551
2026-01-12 21:22:49.82	46.72	24.52	-59.6	-69.3	3.8	7.46e-01	0	23	104	0	82	11554
2026-01-12 21:22:52.82	47.59	25.05	-59.6	-69.3	3.8	7.46e-01	0	23	104	0	82	11581
2026-01-12 21:22:55.81	48.50	25.58	-59.5	-69.2	3.8	7.44e-01	0	23	104	0	82	11534
2026-01-12 21:22:58.81	49.45	26.11	-59.6	-69.3	3.8	7.44e-01	0	23	104	0	82	11590
2026-01-12 21:23:01.80	50.43	26.65	-59.6	-69.3	3.8	7.47e-01	0	23	104	0	82	11638
2026-01-12 21:23:04.80	51.44	27.20	-59.6	-69.3	3.8	7.46e-01	0	23	104	0	82	11671
2026-01-12 21:23:07.80	52.50	27.75	-59.6	-69.3	3.8	7.46e-01	0	23	104	0	82	11621
2026-01-12 21:23:10.79	53.59	28.30	-59.6	-69.3	3.8	7.45e-01	0	23	104	0	82	11665
2026-01-12 21:23:13.77	54.72	28.85	-59.7	-69.4	3.8	7.47e-01	0	23	104	0	82	11726
2026-01-12 21:23:16.77	55.91	29.41	-59.7	-69.4	3.8	7.46e-01	0	23	104	0	82	11735
2026-01-12 21:23:19.78	57.14	29.97	-59.7	-69.4	3.8	7.45e-01	0	23	104	0	82	11698
2026-01-12 21:23:22.78	58.41	30.53	-59.7	-69.4	3.8	7.46e-01	0	23	104	0	82	11742
2026-01-12 21:23:25.78	59.73	31.09	-59.7	-69.4	3.8	7.45e-01	0	23	104	0	82	11741
2026-01-12 21:23:28.78	61.10	31.64	-59.7	-69.4	3.8	7.47e-01	0	23	104	0	82	11762
2026-01-12 21:23:31.78	62.52	32.19	-59.7	-69.4	3.8	7.46e-01	0	23	104	0	82	11744
2026-01-12 21:23:34.78	64.00	32.73	-59.7	-69.4	3.8	7.47e-01	0	23	104	0	82	11744
2026-01-12 21:23:37.76	65.51	33.25	-59.7	-69.4	3.8	7.46e-01	0	23	104	0	82	11800
2026-01-12 21:23:40.76	67.09	33.78	-59.7	-69.5	3.8	7.47e-01	0	23	104	0	82	11831
2026-01-12 21:23:43.75	68.72	34.28	-59.7	-69.4	3.8	7.45e-01	0	23	104	0	82	11767
2026-01-12 21:23:46.74	70.40	34.77	-59.7	-69.4	3.8	7.45e-01	0	23	104	0	82	11783
2026-01-12 21:23:49.73	72.13	35.24	-59.8	-69.5	3.8	7.44e-01	0	23	104	0	82	11845
2026-01-12 21:23:52.73	73.93	35.70	-59.8	-69.5	3.8	7.47e-01	0	23	104	0	82	11871
2026-01-12 21:23:55.73	75.77	36.12	-59.7	-69.4	3.8	7.45e-01	0	23	104	0	82	11815
2026-01-12 21:23:58.72	77.66	36.53	-59.8	-69.5	3.8	7.46e-01	0	23	104	0	82	11852
2026-01-12 21:24:01.70	79.59	36.90	-59.8	-69.5	3.8	7.47e-01	0	23	104	0	82	11901
2026-01-12 21:24:04.69	81.57	37.24	-59.8	-69.5	3.8	7.47e-01	0	23	104	0	82	11896
2026-01-12 21:24:07.67	83.59	37.55	-59.8	-69.5	3.8	7.45e-01	0	23	104	0	82	11860
2026-01-12 21:24:10.65	85.65	37.83	-59.8	-69.5	3.8	7.44e-01	0	23	104	0	82	11891
2026-01-12 21:24:13.65	87.75	38.06	-59.8	-69.5	3.8	7.46e-01	0	23	104	0	82	11933
2026-01-12 21:24:16.66	89.89	38.26	-59.8	-69.6	3.8	7.46e-01	0	23	104	0	82	11961
2026-01-12 21:24:19.65	92.04	38.42	-59.8	-69.5	3.8	7.46e-01	0	23	104	0	82	11927
2026-01-12 21:24:22.64	94.21	38.53	-59.8	-69.5	3.8	7.45e-01	0	23	104	0	82	11927
2026-01-12 21:24:25.63	96.40	38.60	-59.8	-69.6	3.8	7.45e-01	0	23	104	0	82	11981
2026-01-12 21:24:28.62	98.59	38.62	-59.8	-69.6	3.8	7.45e-01	0	23	104	0	82	11963
2026-01-12 21:24:31.62	100.79	38.60	-59.8	-69.5	3.8	7.46e-01	0	23	104	0	82	11945
2026-01-12 21:24:34.61	102.97	38.54	-59.8	-69.5	3.8	7.48e-01	0	23	104	0	82	11931
2026-01-12 21:24:37.60	105.14	38.43	-59.8	-69.6	3.8	7.47e-01	0	23	104	0	82	11994
2026-01-12 21:24:40.61	107.31	38.28	-59.8	-69.6	3.8	7.45e-01	0	23	104	0	82	11961
2026-01-12 21:24:43.60	109.45	38.09	-59.8	-69.5	3.8	7.45e-01	0	23	104	0	82	11914
2026-01-12 21:24:46.59	111.55	37.85	-59.8	-69.5	3.8	7.46e-01	0	23	104	0	82	11947
2026-01-12 21:24:49.58	113.62	37.58	-59.8	-69.6	3.8	7.45e-01	0	23	104	0	82	11989
2026-01-12 21:24:52.56	115.64	37.28	-59.8	-69.5	3.8	7.45e-01	0	23	104	0	82	11944
2026-01-12 21:24:55.54	117.63	36.94	-59.8	-69.5	3.8	7.45e-01	0	23	104	0	82	11873
2026-01-12 21:24:58.52	119.57	36.57	-59.8	-69.5	3.8	7.45e-01	0	23	104	0	82	11880
2026-01-12 21:25:01.50	121.46	36.17	-59.8	-69.5	3.8	7.46e-01	0	23	104	0	82	11878
2026-01-12 21:25:04.49	123.31	35.74	-59.7	-69.5	3.8	7.46e-01	0	23	104	0	82	11844
2026-01-12 21:25:07.48	125.11	35.29	-59.7	-69.5	3.8	7.45e-01	0	23	104	0	82	11857
2026-01-12 21:25:10.47	126.85	34.82	-59.7	-69.4	3.8	7.46e-01	0	23	104	0	82	11807
2026-01-12 21:25:13.46	128.54	34.33	-59.7	-69.5	3.8	7.46e-01	0	23	104	0	82	11830
2026-01-12 21:25:16.44	130.18	33.83	-59.7	-69.4	3.8	7.47e-01	0	23	104	0	82	11765
2026-01-12 21:25:19.43	131.76	33.31	-59.8	-69.5	3.8	7.46e-01	0	23	104	0	82	11876
2026-01-12 21:25:22.41	133.29	32.78	-59.7	-69.4	3.8	7.47e-01	0	23	104	0	82	11814
2026-01-12 21:25:25.38	134.76	32.24	-59.7	-69.4	3.8	7.46e-01	0	23	104	0	82	11765
2026-01-12 21:25:28.37	136.18	31.70	-59.7	-69.4	3.8	7.46e-01	0	23	104	0	82	11725
2026-01-12 21:25:31.38	137.57	31.14	-59.6	-69.4	3.8	7.46e-01	0	23	104	0	82	11690
2026-01-12 21:25:34.38	138.90	30.58	-59.6	-69.4	3.8	7.45e-01	0	23	104	0	82	11705
2026-01-12 21:25:37.37	140.18	30.02	-59.6	-69.4	3.8	7.45e-01	0	24	104	0	82	11709
2026-01-12 21:25:40.37	141.42	29.46	-59.6	-69.4	3.8	7.43e-01	0	23	104	0	82	11715
2026-01-12 21:25:43.37	142.61	28.90	-59.6	-69.3	3.8	7.45e-01	0	23	104	0	82	11639
2026-01-12 21:25:46.37	143.76	28.34	-59.6	-69.3	3.8	7.44e-01	0	23	104	0	82	11618
2026-01-12 21:25:49.37	144.86	27.78	-59.6	-69.3	3.8	7.45e-01	0	23	104	0	82	11591
2026-01-12 21:25:52.35	145.92	27.23	-59.6	-69.3	3.8	7.45e-01	0	23	104	0	82	11580
2026-01-12 21:25:55.34	146.94	26.68	-59.5	-69.2	3.8	7.44e-01	0	23	104	0	82	11536
2026-01-12 21:25:58.34	147.93	26.14	-59.5	-69.3	3.8	7.45e-01	0	23	104	0	82	11577
2026-01-12 21:26:01.34	148.89	25.60	-59.5	-69.2	3.8	7.46e-01	0	23	104	0	82	11521
2026-01-12 21:26:04.32	149.80	25.07	-59.5	-69.2	3.8	7.44e-01	0	23	104	0	82	11499
2026-01-12 21:26:07.30	150.68	24.54	-59.5	-69.2	3.8	7.45e-01	0	23	104	0	82	11497
2026-01-12 21:26:10.30	151.53	24.02	-59.5	-69.2	3.8	7.46e-01	0	23	104	0	82	11492
2026-01-12 21:26:13.29	152.35	23.51	-59.5	-69.1	3.8	7.47e-01	0	23	104	0	82	11408
2026-01-12 21:26:16.27	153.14	23.01	-59.4	-69.1	3.8	7.45e-01	0	23	104	0	82	11406
2026-01-12 21:26:19.27	153.91	22.51	-59.4	-69.1	3.8	7.45e-01	0	23	104	0	82	11398
2026-01-12 21:26:22.28	154.65	22.01	-59.5	-69.2	3.8	7.45e-01	0	23	104	0	82	11437
2026-01-12 21:26:25.29	155.37	21.53	-59.4	-69.1	3.8	7.45e-01	0	23	104	0	82	11403
2026-01-12 21:26:28.29	156.06	21.05	-59.4	-69.1	3.8	7.46e-01	0	23	104	0	82	11368
2026-01-12 21:26:31.29	156.73	20.58	-59.4	-69.1	3.8	7.46e-01	0	23	104	0	82	11351
2026-01-12 21:26:34.29	157.37	20.12	-59.4	-69.1	3.8	7.45e-01	0	23	104	0	82	11337
2026-01-12 21:26:37.28	157.99	19.66	-59.4	-69.1	3.8	7.46e-01	0	23	104	0	82	11327
2026-01-12 21:26:40.27	158.59	19.22	-59.3	-69.1	3.8	7.47e-01	0	23	104	0	82	11298
2026-01-12 21:26:43.26	159.18	18.78	-59.3	-69.0	3.8	7.45e-01	0	23	104	0	82	11239
2026-01-12 21:26:46.27	159.74	18.35	-59.3	-69.0	3.8	7.46e-01	0	23	104	0	82	11251
2026-01-12 21:26:49.27	160.29	17.92	-59.3	-69.0	3.8	7.44e-01	0	23	104	0	82	11178
2026-01-12 21:26:52.27	160.82	17.50	-59.3	-69.0	3.8	7.45e-01	0	23	104	0	82	11174
2026-01-12 21:26:55.27	161.34	17.09	-59.3	-68.9	3.8	7.45e-01	0	23	104	0	82	11155
2026-01-12 21:26:58.28	161.84	16.69	-59.2	-68.9	3.8	7.44e-01	0	23	104	0	82	11125
2026-01-12 21:27:01.28	162.32	16.29	-59.2	-68.9	3.8	7.45e-01	0	23	104	0	82	11108
2026-01-12 21:27:04.29	162.80	15.90	-59.2	-68.9	3.8	7.45e-01	0	23	104	0	82	11094
2026-01-12 21:27:07.30	163.25	15.51	-59.2	-68.9	3.8	7.44e-01	0	23	104	0	82	11157
2026-01-12 21:27:10.29	163.69	15.13	-59.2	-68.9	3.8	7.46e-01	0	23	104	0	82	11059
2026-01-12 21:27:13.28	164.12	14.76	-59.2	-68.9	3.8	7.46e-01	0	24	104	0	82	11048
2026-01-12 21:27:16.29	164.54	14.40	-59.1	-68.9	3.8	7.45e-01	0	23	104	0	82	11040
2026-01-12 21:27:19.28	164.95	14.04	-59.1	-68.9	3.8	7.46e-01	0	23	104	0	82	11049
2026-01-12 21:27:22.29	165.35	13.68	-59.1	-68.8	3.8	7.45e-01	0	23	104	0	82	10964
2026-01-12 21:27:25.29	165.73	13.33	-59.1	-68.8	3.8	7.45e-01	0	23	104	0	82	10944
2026-01-12 21:27:28.28	166.10	12.99	-59.1	-68.8	3.8	7.46e-01	0	23	104	0	82	10962
2026-01-12 21:27:31.29	166.47	12.65	-59.1	-68.8	3.8	7.47e-01	0	23	104	0	82	10958
2026-01-12 21:27:34.28	166.82	12.32	-59.1	-68.7	3.8	7.44e-01	0	23	104	0	82	10892
2026-01-12 21:27:37.28	167.17	11.99	-59.1	-68.7	3.8	7.44e-01	0	23	104	0	82	10870
2026-01-12 21:27:40.28	167.51	11.67	-59.0	-68.7	3.8	7.46e-01	0	23	104	0	82	10854
2026-01-12 21:27:43.29	167.84	11.35	-59.0	-68.7	3.8	7.45e-01	0	23	104	0	82	10836
2026-01-12 21:27:46.29	168.16	11.04	-59.0	-68.7	3.8	7.46e-01	0	23	104	0	82	10866
2026-01-12 21:27:49.29	168.47	10.73	-59.0	-68.7	3.8	7.45e-01	0	23	104	0	82	10848
2026-01-12 21:27:52.29	168.77	10.43	-58.9	-68.6	3.8	7.47e-01	0	23	104	0	82	10775
2026-01-12 21:27:55.29	169.07	10.13	-58.9	-68.6	3.8	7.45e-01	0	23	104	0	82	10774
2026-01-12 21:27:58.28	169.36	9.84	-58.9	-68.6	3.8	7.46e-01	0	23	104	0	82	10720
2026-01-12 21:28:01.28	169.64	9.54	-58.9	-68.6	3.8	7.46e-01	0	23	104	0	82	10697
2026-01-12 21:28:04.26	169.92	9.26	-58.8	-68.5	3.8	7.46e-01	0	23	104	0	82	10629
2026-01-12 21:28:07.24	170.19	8.98	-58.9	-68.6	3.8	7.44e-01	0	24	104	0	82	10656
2026-01-12 21:28:10.23	170.45	8.70	-58.8	-68.5	3.8	7.45e-01	0	24	104	0	82	10579
2026-01-12 21:28:13.23	170.71	8.42	-58.8	-68.5	3.8	7.45e-01	0	23	104	0	82	10632
2026-01-12 21:28:16.21	170.96	8.15	-58.8	-68.5	3.8	7.43e-01	0	23	104	0	82	10542
2026-01-12 21:28:19.20	171.21	7.89	-58.8	-68.5	3.8	7.46e-01	0	23	104	0	82	10537
2026-01-12 21:28:22.19	171.45	7.62	-58.7	-68.4	3.8	7.45e-01	0	23	104	0	82	10464
2026-01-12 21:28:25.19	171.69	7.36	-58.6	-68.3	3.8	7.45e-01	0	23	104	0	81	11005
2026-01-12 21:28:28.19	171.92	7.10	-58.6	-68.2	3.8	7.46e-01	0	23	104	0	81	10895
2026-01-12 21:28:31.18	172.15	6.85	-58.6	-68.2	3.8	7.46e-01	0	23	104	0	81	10898
2026-01-12 21:28:34.16	172.37	6.60	-58.5	-68.2	3.8	7.46e-01	0	23	104	0	81	10828
2026-01-12 21:28:37.16	172.59	6.35	-58.5	-68.2	3.8	7.46e-01	0	23	104	0	81	10869
2026-01-12 21:28:40.16	172.80	6.10	-58.4	-68.1	3.8	7.45e-01	0	23	104	0	81	10746
2026-01-12 21:28:43.16	173.01	5.86	-58.5	-68.2	3.8	7.46e-01	0	23	104	0	81	10825
2026-01-12 21:28:46.16	173.22	5.62	-58.4	-68.1	3.8	7.46e-01	0	23	104	0	81	10663
2026-01-12 21:28:49.15	173.42	5.38	-58.4	-68.1	3.8	7.45e-01	0	23	104	0	81	10723
2026-01-12 21:28:52.16	173.62	5.14	-58.3	-67.9	3.8	7.45e-01	0	23	104	0	81	10527
2026-01-12 21:28:55.17	173.81	4.91	-58.6	-68.3	3.8	7.46e-01	0	23	104	0	81	10946
2026-01-12 21:28:58.17	174.00	4.68	-59.3	-69.0	3.8	7.44e-01	0	23	104	0	81	11944
2026-01-12 21:29:01.16	174.19	4.45	-59.7	-69.4	3.8	7.46e-01	0	23	104	0	82	11801
2026-01-12 21:29:04.17	174.37	4.23	-60.0	-69.7	3.8	7.46e-01	0	23	104	0	83	11490
2026-01-12 21:29:07.17	174.55	4.00	-60.1	-69.8	3.8	7.45e-01	0	23	104	0	83	11622
2026-01-12 21:29:10.16	174.73	3.78	-60.2	-69.9	3.8	7.46e-01	0	23	104	0	83	11730
2026-01-12 21:29:13.15	174.90	3.56	-60.3	-70.0	3.9	7.44e-01	0	23	104	0	83	11861
2026-01-12 21:29:16.14	175.07	3.35	-60.3	-70.1	3.8	7.46e-01	0	23	104	0	83	11976
2026-01-12 21:29:19.13	175.24	3.13	-60.3	-70.0	3.8	7.44e-01	0	23	104	0	83	11948
2026-01-12 21:29:22.13	175.40	2.92	-60.3	-70.0	3.8	7.45e-01	0	23	104	0	83	11886
2026-01-12 21:29:25.13	175.56	2.71	-60.3	-70.0	3.8	7.45e-01	0	23	104	0	83	11861
2026-01-12 21:29:28.13	175.72	2.50	-60.3	-70.0	3.8	7.46e-01	0	24	104	0	83	11865
2026-01-12 21:29:31.13	175.88	2.30	-60.2	-70.0	3.8	7.46e-01	0	24	104	0	83	11871
2026-01-12 21:29:34.13	176.03	2.09	-60.2	-70.0	3.8	7.46e-01	0	23	104	0	83	11820

#Closed at: 2026-01-12 21:29:35
#Recorded file [0 MB]: D:/lorett/data/31004_260113_001920.dat