passes_logs/2026/01/12/R3.2S_Murmansk/R3.2S_Murmansk__20260112_072558_NOAA_20_JPSS-1_rec.log

#Pass ID: 20260112_072558_NOAA 20 (JPSS-1)
#Satellite: NOAA 20 (JPSS-1)
#Configuration: NOAA 20
#almurnet v.1.7.20251203
#Start time: 2026-01-12 07:25:58

#Version: 2.2.20231116
#Station: R3.2S_Murmansk
#Location: 33.079688 lon 68.888172 lat
#TLE: 1 43013U 17073A   26011.59429536  .00000082  00000+0  59704-4 0  9990
#TLE: 2 43013  98.7632 312.5697 0001637  44.2118 315.9188 14.19535307422256

#Time	Az	El	Level	Level2	SNR	BER	BlckErr	Temp	State	Recorded	gain1	gain2
2026-01-12 07:25:58.86	103.98	2.02	-57.1	-73.0	3.8	1.49e+00	0	21	0	0	80	22390
2026-01-12 07:26:02.86	103.80	2.26	-57.0	-73.0	3.8	1.49e+00	0	21	104	0	79	23653
2026-01-12 07:26:06.86	103.62	2.51	-57.0	-73.0	3.8	1.49e+00	0	21	104	0	79	23724
2026-01-12 07:26:10.88	103.43	2.76	-57.0	-73.0	3.8	1.49e+00	0	21	104	0	79	23732
2026-01-12 07:26:14.88	103.25	3.01	-57.0	-73.0	3.8	1.49e+00	0	21	104	0	79	23654
2026-01-12 07:26:18.88	103.06	3.26	-57.0	-73.0	3.8	1.49e+00	0	21	104	0	79	23676
2026-01-12 07:26:22.89	102.86	3.51	-57.0	-72.8	3.8	1.49e+00	0	21	104	0	79	23171
2026-01-12 07:26:26.90	102.66	3.77	-56.9	-72.6	3.8	1.49e+00	0	21	104	0	79	22743
2026-01-12 07:26:30.92	102.46	4.03	-56.9	-72.9	3.8	1.49e+00	0	21	104	0	79	23496
2026-01-12 07:26:34.92	102.25	4.29	-56.9	-71.2	3.8	1.49e+00	0	21	104	0	79	19361
2026-01-12 07:26:38.92	102.04	4.55	-56.7	-67.9	4.7	8.75e-01	0	22	0	2097152	79	13174
2026-01-12 07:26:42.90	101.83	4.81	-56.5	-65.2	6.4	2.47e-01	0	22	0	9437184	79	9610
2026-01-12 07:26:46.91	101.61	5.08	-56.4	-64.6	6.9	1.24e-01	0	22	0	17825792	79	9010
2026-01-12 07:26:50.89	101.39	5.35	-57.0	-69.5	4.3	1.77e-02	87	22	0	25165824	79	15801
2026-01-12 07:26:54.90	101.17	5.62	-54.7	-58.7	12.0	2.28e-05	0	22	0	30408704	75	5776
2026-01-12 07:26:58.89	100.94	5.89	-54.3	-58.1	12.5	5.30e-06	0	22	0	38797312	75	5362
2026-01-12 07:27:02.88	100.70	6.17	-53.6	-56.8	13.3	0.00e+00	0	22	0	46137344	73	5160
2026-01-12 07:27:06.88	100.46	6.45	-53.3	-56.2	13.7	0.00e+00	0	22	0	53477376	73	4864
2026-01-12 07:27:10.89	100.21	6.73	-53.2	-56.0	13.7	0.00e+00	0	22	0	60817408	72	5020
2026-01-12 07:27:14.89	99.96	7.01	-53.2	-56.0	13.7	0.00e+00	0	22	0	68157440	72	4986
2026-01-12 07:27:18.89	99.71	7.30	-53.0	-55.6	14.0	0.00e+00	0	22	0	75497472	72	4803
2026-01-12 07:27:22.89	99.45	7.58	-53.0	-55.8	13.9	0.00e+00	0	22	0	83886080	72	4880
2026-01-12 07:27:26.89	99.18	7.88	-53.1	-55.8	13.9	0.00e+00	0	22	0	91226112	72	4878
2026-01-12 07:27:30.90	98.91	8.17	-53.1	-55.8	13.9	0.00e+00	0	22	0	98566144	72	4884
2026-01-12 07:27:34.92	98.63	8.47	-53.1	-55.8	13.9	0.00e+00	0	22	0	105906176	72	4890
2026-01-12 07:27:38.92	98.35	8.77	-53.0	-55.6	14.1	0.00e+00	0	22	0	113246208	72	4773
2026-01-12 07:27:42.94	98.06	9.07	-53.0	-55.6	14.1	0.00e+00	0	22	0	120586240	72	4780
2026-01-12 07:27:46.94	97.76	9.38	-53.0	-55.6	14.1	0.00e+00	0	22	0	128974848	72	4766
2026-01-12 07:27:50.95	97.46	9.69	-52.9	-55.4	14.2	0.00e+00	0	22	0	136314880	72	4672
2026-01-12 07:27:54.95	97.15	10.00	-52.9	-55.4	14.3	0.00e+00	0	23	0	143654912	72	4658
2026-01-12 07:27:58.96	96.83	10.32	-52.7	-55.2	14.4	0.00e+00	0	22	0	150994944	72	4547
2026-01-12 07:28:02.97	96.50	10.63	-52.5	-54.9	14.4	0.00e+00	0	22	0	158334976	71	4675
2026-01-12 07:28:06.98	96.17	10.96	-52.5	-54.8	14.5	0.00e+00	0	22	0	165675008	71	4635
2026-01-12 07:28:11.00	95.83	11.28	-52.4	-54.6	14.6	0.00e+00	0	22	0	174063616	71	4539
2026-01-12 07:28:15.02	95.48	11.61	-52.2	-54.5	14.7	0.00e+00	0	22	0	181403648	71	4443
2026-01-12 07:28:19.02	95.13	11.94	-52.2	-54.4	14.6	0.00e+00	0	22	0	188743680	70	4672
2026-01-12 07:28:23.03	94.76	12.28	-52.2	-54.4	14.6	0.00e+00	0	23	0	196083712	70	4685
2026-01-12 07:28:27.04	94.39	12.62	-52.2	-54.4	14.7	0.00e+00	0	23	0	203423744	70	4660
2026-01-12 07:28:31.06	94.01	12.96	-52.1	-54.3	14.6	0.00e+00	0	22	0	210763776	70	4637
2026-01-12 07:28:35.06	93.62	13.30	-52.1	-54.2	14.7	0.00e+00	0	22	0	219152384	70	4588
2026-01-12 07:28:39.06	93.22	13.65	-52.1	-54.2	14.7	0.00e+00	0	23	0	226492416	70	4595
2026-01-12 07:28:43.08	92.81	14.01	-52.0	-54.1	14.8	0.00e+00	0	22	0	233832448	70	4499
2026-01-12 07:28:47.09	92.39	14.36	-51.8	-53.9	15.0	0.00e+00	0	22	0	241172480	70	4404
2026-01-12 07:28:51.10	91.95	14.72	-51.9	-54.0	14.9	0.00e+00	0	22	0	248512512	70	4475
2026-01-12 07:28:55.11	91.51	15.09	-51.9	-54.0	14.9	0.00e+00	0	22	0	256901120	70	4443
2026-01-12 07:28:59.12	91.06	15.46	-52.1	-54.2	14.8	0.00e+00	0	23	0	264241152	70	4570
2026-01-12 07:29:03.12	90.59	15.83	-52.1	-54.2	14.8	0.00e+00	0	23	0	271581184	70	4595
2026-01-12 07:29:07.14	90.12	16.20	-52.2	-54.4	14.7	0.00e+00	0	22	0	278921216	70	4656
2026-01-12 07:29:11.14	89.63	16.58	-52.2	-54.3	14.7	0.00e+00	0	22	0	286261248	70	4650
2026-01-12 07:29:15.16	89.12	16.96	-52.2	-54.4	14.7	0.00e+00	0	22	0	293601280	70	4659
2026-01-12 07:29:19.18	88.61	17.35	-52.1	-54.2	14.8	0.00e+00	0	23	0	301989888	70	4586
2026-01-12 07:29:23.19	88.08	17.74	-52.4	-54.6	14.5	0.00e+00	0	23	0	309329920	70	4805
2026-01-12 07:29:27.19	87.54	18.13	-52.4	-54.5	14.6	0.00e+00	0	22	0	316669952	70	4759
2026-01-12 07:29:31.20	86.98	18.53	-52.4	-54.5	14.6	0.00e+00	0	23	0	324009984	70	4751
2026-01-12 07:29:35.22	86.40	18.93	-52.1	-54.1	14.8	0.00e+00	0	23	0	331350016	70	4541
2026-01-12 07:29:39.23	85.81	19.33	-52.2	-54.3	14.8	0.00e+00	0	23	0	338690048	70	4606
2026-01-12 07:29:43.23	85.21	19.74	-52.1	-54.1	14.8	0.00e+00	0	23	0	347078656	70	4544
2026-01-12 07:29:47.24	84.59	20.15	-52.1	-54.2	14.8	0.00e+00	0	23	0	354418688	70	4567
2026-01-12 07:29:51.26	83.95	20.56	-52.1	-54.1	14.9	0.00e+00	0	22	0	361758720	70	4509
2026-01-12 07:29:55.27	83.29	20.98	-51.9	-53.9	15.0	0.00e+00	0	23	0	369098752	70	4413
2026-01-12 07:29:59.27	82.62	21.40	-51.7	-53.5	15.2	0.00e+00	0	23	0	376438784	70	4241
2026-01-12 07:30:03.29	81.92	21.82	-51.8	-53.7	15.1	0.00e+00	0	23	0	383778816	70	4310
2026-01-12 07:30:07.28	81.21	22.24	-51.9	-53.8	15.0	0.00e+00	0	23	0	392167424	70	4384
2026-01-12 07:30:11.29	80.48	22.67	-52.2	-54.3	14.8	0.00e+00	0	23	0	399507456	70	4602
2026-01-12 07:30:15.30	79.73	23.10	-52.4	-54.5	14.7	0.00e+00	0	23	0	406847488	70	4716
2026-01-12 07:30:19.32	78.95	23.53	-52.4	-54.5	14.6	0.00e+00	0	23	0	414187520	70	4747
2026-01-12 07:30:23.33	78.15	23.96	-52.4	-54.5	14.7	0.00e+00	0	23	0	421527552	70	4717
2026-01-12 07:30:27.34	77.33	24.39	-52.5	-54.6	14.6	0.00e+00	0	23	0	428867584	70	4793
2026-01-12 07:30:31.35	76.49	24.82	-52.3	-54.4	14.7	0.00e+00	0	23	0	437256192	70	4664
2026-01-12 07:30:35.37	75.62	25.25	-52.2	-54.2	14.8	0.00e+00	0	22	0	444596224	70	4554
2026-01-12 07:30:39.38	74.73	25.69	-52.1	-54.1	14.9	0.00e+00	0	23	0	451936256	70	4497
2026-01-12 07:30:43.38	73.82	26.12	-51.9	-53.9	15.0	0.00e+00	0	22	0	459276288	70	4405
2026-01-12 07:30:47.38	72.88	26.54	-52.0	-54.0	15.0	0.00e+00	0	23	0	466616320	70	4451
2026-01-12 07:30:51.39	71.91	26.97	-51.9	-53.8	15.1	0.00e+00	0	22	0	473956352	70	4368
2026-01-12 07:30:55.41	70.92	27.40	-51.9	-53.8	15.1	0.00e+00	0	22	0	482344960	70	4383
2026-01-12 07:30:59.41	69.90	27.82	-52.0	-54.0	15.0	0.00e+00	0	23	0	489684992	70	4460
2026-01-12 07:31:03.42	68.85	28.24	-52.2	-54.2	14.9	0.00e+00	0	22	0	497025024	70	4557
2026-01-12 07:31:07.42	67.78	28.65	-52.8	-55.0	14.4	0.00e+00	0	23	0	504365056	70	5004
2026-01-12 07:31:11.45	66.67	29.06	-53.7	-56.3	13.9	0.00e+00	0	23	0	511705088	72	5171
2026-01-12 07:31:15.46	65.54	29.46	-54.0	-56.8	13.7	0.00e+00	0	23	0	519045120	73	5164
2026-01-12 07:31:19.47	64.38	29.85	-54.1	-57.0	13.6	0.00e+00	0	23	0	527433728	73	5280
2026-01-12 07:31:23.48	63.20	30.24	-54.5	-57.5	13.4	0.00e+00	0	23	0	534773760	74	5328
2026-01-12 07:31:27.50	61.98	30.61	-55.1	-58.6	12.7	0.00e+00	0	23	0	542113792	75	5697
2026-01-12 07:31:31.52	60.73	30.98	-54.8	-58.0	13.1	0.00e+00	0	23	0	549453824	75	5292
2026-01-12 07:31:35.52	59.46	31.33	-54.2	-56.9	13.9	0.00e+00	0	23	0	556793856	75	4695
2026-01-12 07:31:39.53	58.16	31.67	-54.2	-57.0	13.7	0.00e+00	0	23	0	564133888	74	5027
2026-01-12 07:31:43.52	56.84	32.00	-54.2	-57.0	13.7	0.00e+00	0	23	0	572522496	74	5005
2026-01-12 07:31:47.54	55.48	32.32	-53.8	-56.3	14.0	0.00e+00	0	23	0	579862528	73	4926
2026-01-12 07:31:51.55	54.10	32.62	-53.3	-55.7	14.5	0.00e+00	0	23	0	587202560	73	4557
2026-01-12 07:31:55.55	52.70	32.90	-53.2	-55.5	14.4	0.00e+00	0	22	0	594542592	72	4721
2026-01-12 07:31:59.55	51.27	33.16	-53.0	-55.2	14.6	0.00e+00	0	23	0	601882624	72	4592
2026-01-12 07:32:03.57	49.81	33.41	-52.6	-54.7	14.8	0.00e+00	0	23	0	609222656	71	4584
2026-01-12 07:32:07.56	48.35	33.64	-52.9	-55.0	14.5	0.00e+00	0	23	0	617611264	71	4747
2026-01-12 07:32:11.58	46.85	33.84	-52.6	-54.6	14.8	0.00e+00	0	23	0	624951296	71	4532
2026-01-12 07:32:15.58	45.34	34.03	-51.8	-53.6	15.2	0.00e+00	0	23	0	632291328	70	4273
2026-01-12 07:32:19.59	43.82	34.19	-51.5	-53.3	15.2	0.00e+00	0	23	0	639631360	69	4376
2026-01-12 07:32:23.61	42.27	34.33	-52.0	-53.9	14.9	0.00e+00	0	23	0	646971392	69	4677
2026-01-12 07:32:27.62	40.71	34.45	-52.1	-54.0	14.8	0.00e+00	0	23	0	654311424	69	4725
2026-01-12 07:32:31.64	39.15	34.55	-52.0	-53.9	14.9	0.00e+00	0	23	0	662700032	69	4678
2026-01-12 07:32:35.65	37.57	34.62	-52.4	-54.4	14.8	0.00e+00	0	23	0	670040064	70	4687
2026-01-12 07:32:39.66	35.99	34.66	-52.2	-54.2	14.9	0.00e+00	0	23	0	677380096	70	4566
2026-01-12 07:32:43.67	34.41	34.68	-52.3	-54.3	14.8	0.00e+00	0	23	0	684720128	70	4641
2026-01-12 07:32:47.67	32.84	34.68	-52.1	-54.1	15.0	0.00e+00	0	23	0	692060160	70	4498
2026-01-12 07:32:51.67	31.26	34.65	-52.6	-54.7	14.6	0.00e+00	0	23	0	699400192	70	4868
2026-01-12 07:32:55.67	29.69	34.60	-52.9	-55.1	14.5	0.00e+00	0	23	0	707788800	71	4799
2026-01-12 07:32:59.69	28.11	34.52	-53.3	-55.7	14.2	0.00e+00	0	23	0	715128832	71	5128
2026-01-12 07:33:03.70	26.55	34.41	-53.4	-55.7	14.3	0.00e+00	0	23	0	722468864	72	4870
2026-01-12 07:33:07.72	25.00	34.29	-53.5	-55.9	14.2	0.00e+00	0	23	0	729808896	72	4972
2026-01-12 07:33:11.72	23.47	34.14	-53.8	-56.3	13.9	0.00e+00	0	23	0	737148928	72	5202
2026-01-12 07:33:15.72	21.95	33.97	-53.6	-56.1	14.2	0.00e+00	0	23	0	744488960	73	4771
2026-01-12 07:33:19.73	20.45	33.77	-53.6	-56.0	14.3	0.00e+00	0	23	0	752877568	73	4736
2026-01-12 07:33:23.75	18.96	33.56	-53.6	-56.0	14.3	0.00e+00	0	22	0	760217600	73	4741
2026-01-12 07:33:27.78	17.48	33.32	-53.3	-55.5	14.6	0.00e+00	0	23	0	767557632	73	4484
2026-01-12 07:33:31.79	16.04	33.07	-53.1	-55.3	14.6	0.00e+00	0	23	0	774897664	72	4601
2026-01-12 07:33:35.79	14.63	32.80	-52.9	-55.1	14.7	0.00e+00	0	23	0	782237696	72	4509
2026-01-12 07:33:39.80	13.23	32.51	-53.7	-56.2	14.0	0.00e+00	0	23	0	790626304	72	5127
2026-01-12 07:33:43.81	11.86	32.21	-53.9	-56.5	14.0	0.00e+00	0	23	0	797966336	73	4988
2026-01-12 07:33:47.82	10.52	31.89	-54.0	-56.6	13.9	0.00e+00	0	23	0	805306368	73	5074
2026-01-12 07:33:51.82	9.21	31.56	-54.0	-56.6	13.8	0.00e+00	0	23	0	812646400	73	5098
2026-01-12 07:33:55.84	7.91	31.21	-53.9	-56.5	14.0	0.00e+00	0	23	0	819986432	73	5014
2026-01-12 07:33:59.85	6.65	30.85	-54.0	-56.6	13.9	0.00e+00	0	23	0	827326464	73	5057
2026-01-12 07:34:03.85	5.42	30.48	-53.6	-56.1	14.2	0.00e+00	0	23	0	835715072	73	4760
2026-01-12 07:34:07.85	4.22	30.11	-53.8	-56.3	14.1	0.00e+00	0	23	0	843055104	73	4878
2026-01-12 07:34:11.86	3.05	29.72	-53.5	-55.9	14.3	0.00e+00	0	23	0	850395136	73	4694
2026-01-12 07:34:15.88	1.90	29.32	-53.6	-56.0	14.3	0.00e+00	0	23	0	857735168	73	4738
2026-01-12 07:34:19.89	0.78	28.92	-53.4	-55.7	14.5	0.00e+00	0	23	0	865075200	73	4578
2026-01-12 07:34:23.90	359.69	28.51	-53.2	-55.4	14.5	0.00e+00	0	23	0	872415232	72	4683
2026-01-12 07:34:27.91	358.63	28.10	-52.8	-54.9	14.9	0.00e+00	0	23	0	880803840	72	4393
2026-01-12 07:34:31.93	357.59	27.68	-52.3	-54.3	15.0	0.00e+00	0	23	0	888143872	71	4350
2026-01-12 07:34:35.94	356.58	27.26	-52.2	-54.1	14.9	0.00e+00	0	23	0	895483904	70	4534
2026-01-12 07:34:39.96	355.60	26.83	-51.5	-53.3	15.2	0.00e+00	0	23	0	902823936	69	4367
2026-01-12 07:34:43.97	354.64	26.41	-51.1	-52.8	15.3	0.00e+00	0	23	0	910163968	68	4344
2026-01-12 07:34:47.98	353.72	25.98	-50.7	-52.3	15.6	0.00e+00	0	23	0	917504000	68	4107
2026-01-12 07:34:52.00	352.81	25.55	-50.5	-52.1	15.5	0.00e+00	0	23	0	925892608	67	4245
2026-01-12 07:34:56.01	351.93	25.12	-50.3	-51.9	15.6	0.00e+00	0	23	0	933232640	67	4149
2026-01-12 07:35:00.01	351.08	24.69	-50.0	-51.5	15.6	0.00e+00	0	23	0	940572672	66	4215
2026-01-12 07:35:04.02	350.25	24.25	-50.3	-51.8	15.4	0.00e+00	0	23	0	947912704	66	4378
2026-01-12 07:35:08.03	349.44	23.82	-50.4	-52.0	15.3	0.00e+00	0	23	0	955252736	66	4493
2026-01-12 07:35:12.05	348.65	23.39	-50.7	-52.3	15.2	0.00e+00	0	23	0	962592768	66	4640
2026-01-12 07:35:16.05	347.88	22.97	-50.7	-52.4	15.1	0.00e+00	0	23	0	970981376	66	4680
2026-01-12 07:35:20.05	347.14	22.54	-50.7	-52.3	15.2	0.00e+00	0	23	0	978321408	66	4629
2026-01-12 07:35:24.06	346.42	22.12	-50.8	-52.5	15.1	0.00e+00	0	23	0	985661440	66	4744
2026-01-12 07:35:28.07	345.71	21.70	-50.9	-52.7	15.1	0.00e+00	0	23	0	993001472	67	4549
2026-01-12 07:35:32.08	345.03	21.28	-51.1	-52.8	15.1	0.00e+00	0	23	0	1000341504	67	4633
2026-01-12 07:35:36.08	344.36	20.86	-51.2	-53.0	15.0	0.00e+00	0	23	0	1007681536	67	4736
2026-01-12 07:35:40.08	343.72	20.45	-51.3	-53.1	14.9	0.00e+00	0	23	0	1016070144	67	4803
2026-01-12 07:35:44.08	343.09	20.04	-51.6	-53.4	14.9	0.00e+00	0	23	0	1023410176	68	4690
2026-01-12 07:35:48.08	342.48	19.63	-51.8	-53.7	14.8	0.00e+00	0	23	0	1030750208	68	4844
2026-01-12 07:35:52.08	341.88	19.23	-52.0	-54.0	14.8	0.00e+00	0	23	0	1038090240	69	4714
2026-01-12 07:35:56.08	341.30	18.83	-51.9	-53.8	14.8	0.00e+00	0	23	0	1045430272	69	4648
2026-01-12 07:36:00.09	340.73	18.43	-52.1	-54.1	14.7	0.00e+00	0	23	0	1052770304	69	4794
2026-01-12 07:36:04.08	340.19	18.04	-52.2	-54.2	14.6	0.00e+00	0	23	0	1061158912	69	4856
2026-01-12 07:36:08.08	339.65	17.65	-52.4	-54.5	14.5	0.00e+00	0	23	0	1068498944	69	4989
2026-01-12 07:36:12.09	339.13	17.26	-52.5	-54.6	14.6	0.00e+00	0	23	0	1075838976	70	4806
2026-01-12 07:36:16.10	338.62	16.88	-52.4	-54.5	14.6	0.00e+00	0	23	0	1083179008	70	4733
2026-01-12 07:36:20.09	338.12	16.50	-52.3	-54.4	14.7	0.00e+00	0	23	0	1090519040	70	4689
2026-01-12 07:36:24.09	337.64	16.12	-52.3	-54.4	14.7	0.00e+00	0	23	0	1097859072	70	4652
2026-01-12 07:36:28.08	337.17	15.75	-52.3	-54.4	14.7	0.00e+00	0	23	0	1105199104	70	4672
2026-01-12 07:36:32.08	336.71	15.38	-52.4	-54.5	14.6	0.00e+00	0	23	0	1113587712	70	4714
2026-01-12 07:36:36.06	336.27	15.02	-52.4	-54.5	14.6	0.00e+00	0	23	0	1120927744	70	4719
2026-01-12 07:36:40.06	335.83	14.66	-52.5	-54.6	14.5	0.00e+00	0	23	0	1128267776	70	4797
2026-01-12 07:36:44.05	335.41	14.30	-52.5	-54.7	14.5	0.00e+00	0	23	0	1135607808	70	4821
2026-01-12 07:36:48.03	335.00	13.95	-52.5	-54.6	14.5	0.00e+00	0	23	0	1142947840	70	4809
2026-01-12 07:36:52.03	334.59	13.60	-52.3	-54.4	14.6	0.00e+00	0	23	0	1150287872	70	4703
2026-01-12 07:36:56.02	334.20	13.25	-52.4	-54.6	14.6	0.00e+00	0	23	0	1157627904	70	4769
2026-01-12 07:37:00.01	333.81	12.91	-52.7	-55.0	14.3	0.00e+00	0	23	0	1166016512	70	4999
2026-01-12 07:37:04.00	333.44	12.57	-52.8	-55.2	14.1	0.00e+00	0	23	0	1173356544	70	5146
2026-01-12 07:37:07.99	333.07	12.24	-53.1	-55.5	14.1	0.00e+00	0	23	0	1180696576	71	5022
2026-01-12 07:37:11.98	332.71	11.91	-53.0	-55.4	14.1	0.00e+00	0	23	0	1188036608	71	4974
2026-01-12 07:37:15.96	332.36	11.58	-53.1	-55.5	14.1	0.00e+00	0	23	0	1195376640	71	5027
2026-01-12 07:37:19.98	332.02	11.25	-53.3	-55.9	13.8	0.00e+00	0	23	0	1202716672	71	5221
2026-01-12 07:37:23.99	331.68	10.93	-53.2	-55.7	13.9	0.00e+00	0	23	0	1210056704	71	5138
2026-01-12 07:37:27.97	331.36	10.61	-53.3	-55.9	13.8	0.00e+00	0	23	0	1218445312	71	5243
2026-01-12 07:37:31.98	331.04	10.29	-53.3	-55.9	13.8	0.00e+00	0	23	0	1225785344	71	5231
2026-01-12 07:37:35.96	330.72	9.98	-53.4	-56.1	13.8	0.00e+00	0	23	0	1233125376	72	5095
2026-01-12 07:37:39.95	330.42	9.67	-53.5	-56.3	13.6	0.00e+00	0	23	0	1240465408	72	5187
2026-01-12 07:37:43.93	330.12	9.36	-53.7	-56.6	13.4	0.00e+00	0	23	0	1247805440	72	5371
2026-01-12 07:37:47.93	329.83	9.06	-53.6	-56.5	13.4	0.00e+00	0	23	0	1255145472	72	5324
2026-01-12 07:37:51.92	329.54	8.76	-53.6	-56.5	13.5	0.00e+00	0	23	0	1262485504	72	5310
2026-01-12 07:37:55.91	329.26	8.46	-53.8	-56.8	13.2	0.00e+00	0	23	0	1270874112	72	5487
2026-01-12 07:37:59.91	328.99	8.17	-53.9	-57.0	13.1	0.00e+00	0	23	0	1278214144	72	5649
2026-01-12 07:38:03.90	328.72	7.87	-53.9	-57.0	13.2	0.00e+00	0	23	0	1285554176	73	5333
2026-01-12 07:38:07.89	328.46	7.58	-54.0	-57.1	13.1	0.00e+00	0	23	0	1292894208	73	5374
2026-01-12 07:38:11.88	328.20	7.30	-54.1	-57.4	12.9	0.00e+00	0	23	0	1300234240	73	5538
2026-01-12 07:38:15.87	327.95	7.01	-53.9	-57.1	13.1	0.00e+00	0	23	0	1307574272	73	5400
2026-01-12 07:38:19.87	327.70	6.73	-54.0	-57.3	13.0	0.00e+00	0	23	0	1314914304	73	5470
2026-01-12 07:38:23.86	327.46	6.45	-54.0	-57.3	12.9	0.00e+00	0	23	0	1323302912	73	5507
2026-01-12 07:38:27.83	327.23	6.18	-54.3	-57.8	12.4	0.00e+00	0	23	0	1330642944	73	5839
2026-01-12 07:38:31.82	326.99	5.90	-54.2	-57.8	12.5	7.00e-07	0	23	0	1337982976	73	5819
2026-01-12 07:38:35.80	326.77	5.63	-54.2	-57.9	12.4	1.50e-06	0	23	0	1345323008	73	5867
2026-01-12 07:38:39.78	326.54	5.36	-54.4	-58.3	12.1	1.50e-06	0	23	0	1352663040	73	6139
2026-01-12 07:38:43.78	326.33	5.09	-54.4	-58.3	12.1	2.20e-06	0	23	0	1360003072	74	5838
2026-01-12 07:38:47.76	326.11	4.83	-58.2	-74.2	3.8	1.49e+00	0	23	104	1364197376	81	24247
2026-01-12 07:38:51.76	325.90	4.57	-58.9	-74.9	3.8	1.49e+00	0	23	104	1364197376	82	24842
2026-01-12 07:38:55.77	325.69	4.30	-59.2	-75.3	3.8	1.49e+00	0	23	104	1364197376	83	24418
2026-01-12 07:38:59.76	325.49	4.05	-59.4	-75.4	3.8	1.49e+00	0	23	104	1364197376	83	24928
2026-01-12 07:39:03.79	325.29	3.79	-59.7	-75.7	3.8	1.49e+00	0	23	104	1364197376	84	24346
2026-01-12 07:39:07.80	325.10	3.53	-59.7	-75.7	3.8	1.49e+00	0	23	104	1364197376	84	24294
2026-01-12 07:39:11.78	324.90	3.28	-59.6	-75.6	3.8	1.49e+00	0	23	104	1364197376	84	24087
2026-01-12 07:39:15.77	324.72	3.03	-59.6	-75.6	3.8	1.49e+00	0	23	104	1364197376	84	24007
2026-01-12 07:39:19.75	324.53	2.78	-59.6	-75.6	3.8	1.49e+00	0	23	104	1364197376	84	23950
2026-01-12 07:39:23.73	324.35	2.54	-59.5	-75.6	3.8	1.49e+00	0	23	104	1364197376	84	23922
2026-01-12 07:39:27.72	324.17	2.29	-59.5	-75.5	3.8	1.49e+00	0	23	104	1364197376	84	23778
2026-01-12 07:39:31.71	324.00	2.05	-59.5	-75.5	3.8	1.49e+00	0	23	104	1364197376	84	23778

#Closed at: 2026-01-12 07:39:34
#Recorded file [1364 MB]: D:/lorett/data/31004_260112_102558.dat