passes_logs/2026/01/12/R3.2S_Murmansk/R3.2S_Murmansk__20260112_070539_SUOMI_NPP_rec.log

#Pass ID: 20260112_070539_SUOMI NPP
#Satellite: SUOMI NPP
#Configuration: NPP
#almurnet v.1.7.20251203
#Start time: 2026-01-12 07:05:41

#Version: 2.2.20231116
#Station: R3.2S_Murmansk
#Location: 33.079688 lon 68.888172 lat
#TLE: 1 37849U 11061A   26011.57971124  .00000103  00000+0  69927-4 0  9996
#TLE: 2 37849  98.7807 313.6578 0002518  69.5076 290.6370 14.19524515736228

#Time	Az	El	Level	Level2	SNR	BER	BlckErr	Temp	State	Recorded	gain1	gain2
2026-01-12 07:05:41.31	95.29	2.14	-57.0	-73.0	3.8	1.49e+00	0	20	0	0	80	22292
2026-01-12 07:05:45.31	95.09	2.38	-57.0	-72.9	3.8	1.49e+00	0	21	104	0	79	23481
2026-01-12 07:05:49.30	94.88	2.62	-57.0	-72.9	3.8	1.49e+00	0	21	104	0	79	23547
2026-01-12 07:05:53.31	94.67	2.86	-57.0	-73.0	3.8	1.49e+00	0	21	104	0	79	23632
2026-01-12 07:05:57.31	94.45	3.11	-57.0	-72.9	3.8	1.49e+00	0	21	104	0	79	23447
2026-01-12 07:06:01.32	94.23	3.36	-57.0	-72.9	3.8	1.49e+00	0	21	104	0	79	23444
2026-01-12 07:06:05.31	94.01	3.60	-57.0	-72.9	3.8	1.49e+00	0	21	104	0	79	23454
2026-01-12 07:06:09.32	93.78	3.86	-57.0	-72.8	3.8	1.49e+00	0	21	104	0	79	23169
2026-01-12 07:06:13.32	93.55	4.11	-57.0	-73.0	3.8	1.49e+00	0	21	104	0	79	23597
2026-01-12 07:06:17.32	93.31	4.36	-56.9	-71.8	3.8	1.49e+00	0	21	104	0	79	20552
2026-01-12 07:06:21.32	93.07	4.62	-56.8	-68.5	4.5	1.19e+00	10	22	0	1048576	79	14163
2026-01-12 07:06:25.33	92.82	4.88	-56.5	-65.7	5.9	3.46e-01	0	21	0	8388608	79	10278
2026-01-12 07:06:29.32	92.57	5.14	-55.8	-61.8	9.4	2.08e-02	0	21	0	15728640	78	6895
2026-01-12 07:06:33.30	92.32	5.40	-54.9	-59.4	11.4	1.17e-04	0	22	0	22020096	76	5888
2026-01-12 07:06:37.29	92.06	5.67	-53.9	-57.2	13.0	0.00e+00	0	22	0	29360128	74	5137
2026-01-12 07:06:41.29	91.80	5.93	-53.7	-56.9	13.0	0.00e+00	0	22	0	36700160	73	5277
2026-01-12 07:06:45.29	91.53	6.20	-53.9	-57.3	12.7	0.00e+00	0	22	0	44040192	73	5515
2026-01-12 07:06:49.28	91.25	6.47	-53.3	-56.3	13.6	0.00e+00	0	22	0	51380224	73	4883
2026-01-12 07:06:53.28	90.97	6.75	-53.3	-56.2	13.6	0.00e+00	0	22	0	58720256	73	4865
2026-01-12 07:06:57.27	90.69	7.02	-53.5	-56.5	13.5	0.00e+00	0	22	0	66060288	73	5000
2026-01-12 07:07:01.27	90.40	7.30	-53.5	-56.5	13.5	0.00e+00	0	22	0	74448896	73	4993
2026-01-12 07:07:05.26	90.10	7.58	-53.4	-56.3	13.6	0.00e+00	0	22	0	81788928	73	4919
2026-01-12 07:07:09.25	89.80	7.86	-53.4	-56.3	13.6	0.00e+00	0	22	0	89128960	73	4905
2026-01-12 07:07:13.24	89.49	8.14	-53.0	-56.1	13.7	0.00e+00	0	22	0	96468992	72	5069
2026-01-12 07:07:17.25	89.17	8.43	-52.6	-55.5	13.9	0.00e+00	0	22	0	103809024	71	5026
2026-01-12 07:07:21.24	88.85	8.72	-52.6	-55.5	13.9	0.00e+00	0	22	0	111149056	71	5010
2026-01-12 07:07:25.23	88.52	9.01	-52.6	-55.5	13.9	0.00e+00	0	22	0	118489088	71	4989
2026-01-12 07:07:29.22	88.19	9.31	-52.4	-55.2	14.2	0.00e+00	0	22	0	126877696	71	4850
2026-01-12 07:07:33.22	87.84	9.60	-52.4	-55.2	14.0	0.00e+00	0	22	0	134217728	70	5120
2026-01-12 07:07:37.21	87.49	9.90	-52.4	-55.2	14.0	0.00e+00	0	22	0	141557760	70	5145
2026-01-12 07:07:41.21	87.14	10.21	-52.2	-55.0	14.2	0.00e+00	0	22	0	148897792	70	4992
2026-01-12 07:07:45.20	86.77	10.51	-52.3	-55.0	14.2	0.00e+00	0	22	0	156237824	70	5009
2026-01-12 07:07:49.19	86.40	10.82	-52.3	-54.9	14.2	0.00e+00	0	22	0	163577856	70	4954
2026-01-12 07:07:53.19	86.02	11.13	-52.1	-54.5	14.5	0.00e+00	0	22	0	170917888	70	4758
2026-01-12 07:07:57.19	85.62	11.44	-52.1	-54.6	14.4	0.00e+00	0	22	0	179306496	70	4800
2026-01-12 07:08:01.19	85.23	11.75	-51.9	-54.3	14.6	0.00e+00	0	22	0	186646528	70	4640
2026-01-12 07:08:05.18	84.82	12.07	-52.1	-54.6	14.4	0.00e+00	0	22	0	193986560	70	4801
2026-01-12 07:08:09.17	84.40	12.39	-52.2	-54.9	14.2	0.00e+00	0	22	0	201326592	70	4936
2026-01-12 07:08:13.15	83.98	12.71	-52.0	-54.6	14.5	0.00e+00	0	22	0	208666624	70	4769
2026-01-12 07:08:17.15	83.54	13.04	-52.2	-54.9	14.3	0.00e+00	0	22	0	216006656	70	4963
2026-01-12 07:08:21.14	83.09	13.37	-52.0	-54.6	14.5	0.00e+00	0	22	0	223346688	70	4796
2026-01-12 07:08:25.14	82.64	13.70	-51.9	-54.4	14.4	0.00e+00	0	22	0	231735296	69	4950
2026-01-12 07:08:29.14	82.17	14.03	-52.0	-54.6	14.4	0.00e+00	0	22	0	239075328	69	5043
2026-01-12 07:08:33.13	81.69	14.37	-51.9	-54.3	14.5	0.00e+00	0	22	0	246415360	69	4872
2026-01-12 07:08:37.11	81.20	14.71	-51.6	-53.9	14.8	0.00e+00	0	23	0	253755392	69	4657
2026-01-12 07:08:41.10	80.70	15.05	-51.9	-54.3	14.5	0.00e+00	0	22	0	261095424	69	4877
2026-01-12 07:08:45.09	80.19	15.39	-51.9	-54.2	14.5	0.00e+00	0	23	0	268435456	69	4857
2026-01-12 07:08:49.10	79.67	15.74	-52.4	-55.1	14.2	0.00e+00	0	22	0	275775488	70	5056
2026-01-12 07:08:53.09	79.13	16.09	-51.9	-54.3	14.7	0.00e+00	0	22	0	284164096	70	4644
2026-01-12 07:08:57.09	78.58	16.44	-52.4	-55.0	14.2	0.00e+00	0	22	0	291504128	70	5013
2026-01-12 07:09:01.08	78.01	16.79	-51.8	-54.2	14.8	0.00e+00	0	22	0	298844160	70	4549
2026-01-12 07:09:05.07	77.44	17.15	-51.8	-54.2	14.6	0.00e+00	0	22	0	306184192	69	4837
2026-01-12 07:09:09.07	76.85	17.51	-51.2	-53.4	15.1	0.00e+00	0	22	0	313524224	69	4392
2026-01-12 07:09:13.07	76.24	17.87	-51.1	-53.2	15.0	0.00e+00	0	22	0	320864256	68	4583
2026-01-12 07:09:17.07	75.62	18.23	-51.2	-53.2	15.0	0.00e+00	0	22	0	328204288	68	4597
2026-01-12 07:09:21.07	74.98	18.60	-51.5	-53.7	14.7	0.00e+00	0	23	0	336592896	68	4866
2026-01-12 07:09:25.07	74.33	18.96	-51.5	-53.7	14.7	0.00e+00	0	22	0	343932928	68	4861
2026-01-12 07:09:29.07	73.66	19.33	-51.3	-53.6	14.7	0.00e+00	0	23	0	351272960	68	4770
2026-01-12 07:09:33.07	72.97	19.70	-51.0	-53.1	15.1	0.00e+00	0	22	0	358612992	68	4524
2026-01-12 07:09:37.05	72.27	20.06	-50.9	-53.0	15.1	0.00e+00	0	22	0	365953024	68	4488
2026-01-12 07:09:41.02	71.56	20.43	-51.1	-53.3	15.0	0.00e+00	0	23	0	373293056	68	4616
2026-01-12 07:09:45.00	70.82	20.80	-51.9	-54.3	14.4	0.00e+00	0	22	0	380633088	68	5185
2026-01-12 07:09:48.97	70.08	21.17	-51.7	-54.0	14.6	0.00e+00	0	22	0	387973120	68	5000
2026-01-12 07:09:52.95	69.31	21.54	-51.4	-53.5	14.8	0.00e+00	0	23	0	396361728	68	4739
2026-01-12 07:09:56.93	68.52	21.90	-51.6	-53.8	14.7	0.00e+00	0	23	0	403701760	68	4897
2026-01-12 07:10:00.88	67.71	22.27	-52.0	-54.3	14.6	0.00e+00	0	23	0	411041792	69	4904
2026-01-12 07:10:04.85	66.89	22.64	-51.7	-53.9	14.8	0.00e+00	0	22	0	418381824	69	4698
2026-01-12 07:10:08.85	66.04	23.00	-52.1	-54.4	14.5	0.00e+00	0	22	0	425721856	69	4973
2026-01-12 07:10:12.83	65.17	23.37	-51.8	-54.0	14.7	0.00e+00	0	22	0	433061888	69	4754
2026-01-12 07:10:16.83	64.28	23.73	-50.9	-52.9	15.2	0.00e+00	0	22	0	440401920	68	4401
2026-01-12 07:10:20.80	63.37	24.09	-50.0	-51.8	15.4	0.00e+00	0	23	0	447741952	66	4355
2026-01-12 07:10:24.77	62.44	24.44	-50.0	-51.8	15.4	0.00e+00	0	23	0	455081984	66	4361
2026-01-12 07:10:28.73	61.50	24.79	-50.3	-52.1	15.2	0.00e+00	0	23	0	463470592	66	4535
2026-01-12 07:10:32.70	60.53	25.14	-50.6	-52.6	14.9	0.00e+00	0	23	0	470810624	66	4799
2026-01-12 07:10:36.67	59.53	25.48	-50.5	-52.5	15.0	0.00e+00	0	22	0	478150656	66	4751
2026-01-12 07:10:40.80	58.48	25.83	-50.7	-52.6	14.9	0.00e+00	0	22	0	485490688	66	4810
2026-01-12 07:10:44.78	57.44	26.16	-50.7	-52.7	15.0	0.00e+00	0	22	0	492830720	67	4561
2026-01-12 07:10:48.74	56.38	26.49	-50.7	-52.6	15.1	0.00e+00	0	22	0	500170752	67	4500
2026-01-12 07:10:52.70	55.31	26.80	-50.5	-52.4	15.0	0.00e+00	0	22	0	507510784	66	4676
2026-01-12 07:10:56.67	54.21	27.11	-51.7	-54.0	14.6	0.00e+00	0	23	0	514850816	68	4998
2026-01-12 07:11:00.64	53.08	27.41	-51.0	-52.9	15.2	0.00e+00	0	22	0	522190848	68	4431
2026-01-12 07:11:04.64	51.93	27.71	-51.6	-53.8	14.7	0.00e+00	0	23	0	529530880	68	4895
2026-01-12 07:11:08.62	50.76	27.99	-51.4	-53.6	14.8	0.00e+00	0	23	0	537919488	68	4771
2026-01-12 07:11:12.62	49.57	28.26	-51.6	-53.9	14.6	0.00e+00	0	23	0	545259520	68	4981
2026-01-12 07:11:16.61	48.36	28.52	-51.7	-54.0	14.8	0.00e+00	0	22	0	552599552	69	4712
2026-01-12 07:11:20.60	47.13	28.77	-51.3	-53.3	15.1	0.00e+00	0	23	0	559939584	69	4388
2026-01-12 07:11:24.59	45.88	29.00	-51.1	-53.1	15.1	0.00e+00	0	23	0	567279616	68	4506
2026-01-12 07:11:28.56	44.62	29.22	-51.2	-53.3	14.7	0.00e+00	0	23	0	574619648	67	4921
2026-01-12 07:11:32.56	43.33	29.43	-50.5	-52.3	15.3	0.00e+00	0	23	0	581959680	67	4386
2026-01-12 07:11:36.55	42.03	29.62	-50.4	-52.2	15.1	0.00e+00	0	23	0	590348288	66	4561
2026-01-12 07:11:40.54	40.71	29.80	-51.7	-54.0	14.5	0.00e+00	0	23	0	597688320	68	5012
2026-01-12 07:11:44.54	39.38	29.96	-52.8	-55.7	13.8	0.00e+00	0	23	0	605028352	70	5431
2026-01-12 07:11:48.52	38.04	30.10	-52.5	-55.2	14.3	0.00e+00	0	23	0	612368384	71	4838
2026-01-12 07:11:52.50	36.69	30.23	-52.6	-55.2	14.3	0.00e+00	0	23	0	619708416	71	4865
2026-01-12 07:11:56.49	35.33	30.34	-51.9	-54.3	14.7	0.00e+00	0	23	0	627048448	70	4606
2026-01-12 07:12:00.48	33.96	30.43	-52.5	-55.3	14.1	0.00e+00	0	23	0	634388480	70	5185
2026-01-12 07:12:04.47	32.58	30.50	-52.2	-54.7	14.4	0.00e+00	0	23	0	641728512	70	4868
2026-01-12 07:12:08.46	31.19	30.56	-52.6	-55.4	14.0	0.00e+00	0	23	0	650117120	70	5240
2026-01-12 07:12:12.47	29.80	30.59	-51.2	-53.2	15.0	0.00e+00	0	23	0	657457152	68	4569
2026-01-12 07:12:16.47	28.41	30.61	-52.5	-55.1	14.2	0.00e+00	0	23	0	664797184	70	5065
2026-01-12 07:12:20.47	27.01	30.61	-53.0	-55.8	14.0	0.00e+00	0	23	0	672137216	71	5163
2026-01-12 07:12:24.48	25.62	30.58	-51.1	-53.1	15.0	0.00e+00	0	23	0	679477248	68	4514
2026-01-12 07:12:28.49	24.22	30.54	-52.2	-54.6	14.5	0.00e+00	0	23	0	686817280	70	4789
2026-01-12 07:12:32.50	22.83	30.48	-51.6	-53.8	14.9	0.00e+00	0	23	0	695205888	69	4602
2026-01-12 07:12:36.50	21.46	30.40	-52.4	-54.8	14.4	0.00e+00	0	22	0	702545920	70	4912
2026-01-12 07:12:40.49	20.09	30.31	-51.8	-54.0	14.9	0.00e+00	0	23	0	709885952	70	4487
2026-01-12 07:12:44.47	18.73	30.19	-52.1	-54.6	14.3	0.00e+00	0	23	0	717225984	69	5084
2026-01-12 07:12:48.47	17.38	30.06	-50.7	-52.6	15.3	0.00e+00	0	23	0	724566016	68	4282
2026-01-12 07:12:52.47	16.04	29.91	-51.1	-53.2	14.8	0.00e+00	0	23	0	731906048	67	4865
2026-01-12 07:12:56.45	14.72	29.74	-51.8	-54.1	14.5	0.00e+00	0	23	0	739246080	68	5066
2026-01-12 07:13:00.44	13.41	29.56	-51.4	-53.4	15.0	0.00e+00	0	23	0	747634688	69	4435
2026-01-12 07:13:04.43	12.11	29.37	-52.0	-54.3	14.6	0.00e+00	0	23	0	754974720	69	4912
2026-01-12 07:13:08.42	10.84	29.15	-51.8	-54.0	14.7	0.00e+00	0	23	0	762314752	69	4746
2026-01-12 07:13:12.39	9.58	28.93	-52.5	-54.9	14.4	0.00e+00	0	23	0	769654784	70	4973
2026-01-12 07:13:16.37	8.34	28.69	-52.7	-55.3	14.1	0.00e+00	0	23	0	776994816	70	5177
2026-01-12 07:13:20.34	7.13	28.44	-53.8	-57.1	13.2	0.00e+00	0	23	0	784334848	72	5680
2026-01-12 07:13:24.32	5.93	28.18	-53.8	-57.1	13.5	0.00e+00	0	23	0	791674880	73	5349
2026-01-12 07:13:28.30	4.75	27.90	-53.5	-56.7	13.5	0.00e+00	0	23	0	799014912	73	5153
2026-01-12 07:13:32.28	3.59	27.62	-51.9	-54.2	14.7	0.00e+00	0	23	0	806354944	70	4592
2026-01-12 07:13:36.26	2.45	27.33	-50.4	-52.3	15.3	0.00e+00	0	23	0	814743552	67	4356
2026-01-12 07:13:40.25	1.33	27.02	-50.3	-52.2	15.3	0.00e+00	0	23	0	822083584	67	4312
2026-01-12 07:13:44.24	0.23	26.71	-51.9	-54.3	14.5	0.00e+00	0	23	0	829423616	69	4895
2026-01-12 07:13:48.21	359.16	26.39	-52.0	-54.4	14.5	0.00e+00	0	23	0	836763648	69	4963
2026-01-12 07:13:52.21	358.10	26.06	-53.3	-56.3	13.8	0.00e+00	0	23	0	844103680	72	5182
2026-01-12 07:13:56.18	357.08	25.73	-52.2	-54.4	14.8	0.00e+00	0	23	0	851443712	71	4437
2026-01-12 07:14:00.18	356.06	25.39	-51.5	-53.5	15.0	0.00e+00	0	23	0	858783744	69	4478
2026-01-12 07:14:04.18	355.07	25.04	-50.0	-51.7	15.2	0.00e+00	0	23	0	867172352	66	4338
2026-01-12 07:14:08.18	354.10	24.69	-50.1	-51.9	15.3	0.00e+00	0	23	0	874512384	66	4399
2026-01-12 07:14:12.17	353.16	24.34	-50.2	-51.9	15.3	0.00e+00	0	23	0	881852416	66	4440
2026-01-12 07:14:16.17	352.23	23.98	-50.7	-52.6	15.0	0.00e+00	0	23	0	889192448	67	4511
2026-01-12 07:14:20.18	351.32	23.62	-50.6	-52.5	15.2	0.00e+00	0	23	0	896532480	67	4468
2026-01-12 07:14:24.20	350.44	23.26	-50.2	-52.0	15.2	0.00e+00	0	23	0	903872512	66	4447
2026-01-12 07:14:28.20	349.57	22.89	-49.5	-51.1	15.5	0.00e+00	0	23	0	911212544	65	4282
2026-01-12 07:14:32.21	348.73	22.52	-48.9	-50.5	15.7	0.00e+00	0	23	0	919601152	64	4203
2026-01-12 07:14:36.20	347.91	22.15	-49.9	-51.6	15.1	0.00e+00	0	23	0	926941184	64	4791
2026-01-12 07:14:40.20	347.10	21.79	-49.6	-51.3	15.4	0.00e+00	0	23	0	934281216	65	4364
2026-01-12 07:14:44.20	346.32	21.42	-49.8	-51.5	15.3	0.00e+00	0	23	0	941621248	65	4480
2026-01-12 07:14:48.21	345.55	21.04	-50.1	-51.8	15.1	0.00e+00	0	23	0	948961280	65	4640
2026-01-12 07:14:52.21	344.81	20.67	-49.9	-51.6	15.3	0.00e+00	0	23	0	956301312	65	4539
2026-01-12 07:14:56.21	344.08	20.31	-49.5	-51.1	15.5	0.00e+00	0	23	0	964689920	65	4248
2026-01-12 07:15:00.21	343.37	19.94	-50.5	-52.4	15.0	0.00e+00	0	23	0	972029952	66	4665
2026-01-12 07:15:04.21	342.67	19.57	-50.5	-52.3	15.1	0.00e+00	0	23	0	979369984	66	4624
2026-01-12 07:15:08.21	342.00	19.20	-50.1	-51.8	15.3	0.00e+00	0	23	0	986710016	66	4377
2026-01-12 07:15:12.21	341.34	18.84	-50.4	-52.2	15.1	0.00e+00	0	23	0	994050048	66	4584
2026-01-12 07:15:16.21	340.69	18.47	-51.1	-53.1	14.8	0.00e+00	0	23	0	1001390080	67	4788
2026-01-12 07:15:20.20	340.06	18.11	-51.4	-53.4	14.8	0.00e+00	0	23	0	1008730112	68	4692
2026-01-12 07:15:24.18	339.45	17.75	-51.0	-52.8	15.1	0.00e+00	0	23	0	1017118720	68	4391
2026-01-12 07:15:28.17	338.85	17.39	-51.5	-53.7	14.7	0.00e+00	0	23	0	1024458752	68	4820
2026-01-12 07:15:32.15	338.27	17.04	-51.8	-54.0	14.5	0.00e+00	0	23	0	1031798784	68	5026
2026-01-12 07:15:36.13	337.70	16.68	-51.0	-52.9	15.1	0.00e+00	0	23	0	1039138816	68	4420
2026-01-12 07:15:40.11	337.15	16.33	-50.2	-52.0	15.4	0.00e+00	0	23	0	1046478848	67	4213
2026-01-12 07:15:44.07	336.61	15.99	-50.8	-52.7	15.0	0.00e+00	0	23	0	1053818880	67	4556
2026-01-12 07:15:48.06	336.08	15.64	-51.1	-53.1	14.8	0.00e+00	0	23	0	1061158912	67	4810
2026-01-12 07:15:52.06	335.56	15.29	-50.9	-52.8	14.9	0.00e+00	0	23	0	1068498944	67	4633
2026-01-12 07:15:56.07	335.05	14.95	-50.9	-52.9	14.9	0.00e+00	0	23	0	1076887552	67	4662
2026-01-12 07:16:00.06	334.56	14.61	-52.3	-54.7	14.2	0.00e+00	0	22	0	1084227584	69	5128
2026-01-12 07:16:04.07	334.07	14.27	-52.9	-55.6	14.0	0.00e+00	0	23	0	1091567616	71	5071
2026-01-12 07:16:08.06	333.60	13.94	-51.6	-53.7	14.8	0.00e+00	0	23	0	1098907648	69	4581
2026-01-12 07:16:12.04	333.14	13.61	-50.8	-52.7	15.2	0.00e+00	0	23	0	1106247680	68	4338
2026-01-12 07:16:16.03	332.69	13.28	-51.5	-53.6	14.7	0.00e+00	0	23	0	1113587712	68	4804
2026-01-12 07:16:20.04	332.25	12.95	-52.6	-55.2	14.1	0.00e+00	0	23	0	1120927744	70	5112
2026-01-12 07:16:24.03	331.82	12.63	-52.9	-55.6	13.8	0.00e+00	0	23	0	1129316352	70	5399
2026-01-12 07:16:28.01	331.40	12.31	-52.7	-55.4	14.1	0.00e+00	0	23	0	1136656384	71	4933
2026-01-12 07:16:32.02	330.98	11.99	-52.5	-55.0	14.3	0.00e+00	0	23	0	1143996416	71	4744
2026-01-12 07:16:36.02	330.58	11.67	-52.6	-55.1	14.2	0.00e+00	0	23	0	1151336448	71	4800
2026-01-12 07:16:40.01	330.19	11.36	-52.9	-55.7	13.9	0.00e+00	0	23	0	1158676480	71	5121
2026-01-12 07:16:44.02	329.80	11.04	-53.0	-55.7	13.8	0.00e+00	0	23	0	1166016512	71	5155
2026-01-12 07:16:48.03	329.42	10.74	-52.3	-54.8	14.4	0.00e+00	0	23	0	1174405120	71	4619
2026-01-12 07:16:52.04	329.05	10.43	-51.9	-54.1	14.7	0.00e+00	0	23	0	1181745152	70	4519
2026-01-12 07:16:56.04	328.69	10.13	-51.3	-53.3	14.9	0.00e+00	0	23	0	1189085184	69	4391
2026-01-12 07:17:00.05	328.34	9.82	-51.8	-54.0	14.6	0.00e+00	0	23	0	1196425216	69	4737
2026-01-12 07:17:04.05	327.99	9.53	-52.5	-55.1	14.1	0.00e+00	0	23	0	1203765248	70	5058
2026-01-12 07:17:08.07	327.65	9.23	-53.1	-56.0	13.6	0.00e+00	0	23	0	1211105280	71	5307
2026-01-12 07:17:12.08	327.32	8.93	-53.3	-56.3	13.4	0.00e+00	0	23	0	1219493888	71	5503
2026-01-12 07:17:16.08	326.99	8.64	-53.2	-56.2	13.4	0.00e+00	0	23	0	1226833920	71	5458
2026-01-12 07:17:20.09	326.67	8.35	-53.2	-56.2	13.4	0.00e+00	0	23	0	1234173952	71	5433
2026-01-12 07:17:24.10	326.36	8.07	-53.0	-55.9	13.6	0.00e+00	0	23	0	1241513984	71	5259
2026-01-12 07:17:28.13	326.05	7.78	-52.8	-55.5	13.9	0.00e+00	0	23	0	1248854016	71	5018
2026-01-12 07:17:32.15	325.75	7.50	-52.8	-55.6	13.8	0.00e+00	0	23	0	1256194048	71	5079
2026-01-12 07:17:36.17	325.46	7.22	-52.9	-55.7	13.7	0.00e+00	0	23	0	1264582656	71	5136
2026-01-12 07:17:40.18	325.17	6.94	-53.2	-56.3	13.3	0.00e+00	0	23	0	1271922688	71	5524
2026-01-12 07:17:44.16	324.89	6.67	-53.6	-57.1	12.9	7.00e-07	0	23	0	1279262720	72	5674
2026-01-12 07:17:48.15	324.61	6.40	-53.9	-57.5	12.6	0.00e+00	0	23	0	1286602752	73	5628
2026-01-12 07:17:52.15	324.34	6.13	-53.9	-57.5	12.6	1.50e-06	0	23	0	1293942784	73	5646
2026-01-12 07:17:56.14	324.08	5.86	-53.9	-57.6	12.5	7.00e-07	0	23	0	1301282816	73	5696
2026-01-12 07:18:00.12	323.82	5.60	-53.9	-57.6	12.6	7.00e-07	0	23	0	1308622848	73	5662
2026-01-12 07:18:04.11	323.56	5.33	-53.8	-57.5	12.6	7.00e-07	0	23	0	1315962880	73	5620
2026-01-12 07:18:08.09	323.31	5.07	-54.1	-58.2	12.0	5.30e-06	0	23	0	1324351488	73	6083
2026-01-12 07:18:12.09	323.07	4.81	-58.2	-74.2	3.8	1.49e+00	0	23	104	1327497216	81	24232
2026-01-12 07:18:16.09	322.83	4.56	-58.9	-74.9	3.8	1.49e+00	0	23	104	1327497216	82	24830
2026-01-12 07:18:20.10	322.59	4.30	-59.2	-75.3	3.8	1.49e+00	0	23	104	1327497216	83	24439
2026-01-12 07:18:24.11	322.36	4.05	-59.4	-75.4	3.8	1.49e+00	0	23	104	1327497216	83	24964
2026-01-12 07:18:28.12	322.13	3.79	-59.7	-75.8	3.8	1.49e+00	0	23	104	1327497216	84	24423
2026-01-12 07:18:32.12	321.90	3.54	-59.6	-75.7	3.8	1.49e+00	0	23	104	1327497216	84	24205
2026-01-12 07:18:36.13	321.68	3.30	-59.6	-75.6	3.8	1.49e+00	0	23	104	1327497216	84	24071
2026-01-12 07:18:40.12	321.47	3.05	-59.6	-75.6	3.8	1.49e+00	0	23	104	1327497216	84	23924
2026-01-12 07:18:44.10	321.26	2.81	-59.5	-75.6	3.8	1.49e+00	0	23	104	1327497216	84	24015
2026-01-12 07:18:48.09	321.05	2.56	-59.5	-75.5	3.8	1.49e+00	0	23	104	1327497216	84	23817
2026-01-12 07:18:52.08	320.84	2.32	-59.5	-75.5	3.8	1.49e+00	0	23	104	1327497216	84	23771
2026-01-12 07:18:56.07	320.64	2.09	-59.5	-75.5	3.8	1.49e+00	0	23	104	1327497216	84	23749

#Closed at: 2026-01-12 07:18:58
#Recorded file [1327 MB]: D:/lorett/data/31004_260112_100541.dat