passes_logs/2026/01/12/R3.2S_Murmansk/R3.2S_Murmansk__20260112_034057_AQUA_rec.log

#Pass ID: 20260112_034057_AQUA
#Satellite: AQUA
#Configuration: AQUA
#almurnet v.1.7.20251203
#Start time: 2026-01-12 03:40:58

#Version: 2.2.20231116
#Station: R3.2S_Murmansk
#Location: 33.079688 lon 68.888172 lat
#TLE: 1 27424U 02022A   26011.60158398  .00001056  00000+0  22133-3 0  9990
#TLE: 2 27424  98.4078 337.9720 0002034  82.3051 337.8743 14.61815760260390

#Time	Az	El	Level	Level2	SNR	BER	BlckErr	Temp	State	Recorded	gain1	gain2
2026-01-12 03:40:58.40	28.55	2.03	-53.4	-72.8	3.8	7.47e-01	0	20	0	0	74	35701
2026-01-12 03:41:01.42	28.43	2.23	-53.4	-72.8	3.8	7.47e-01	0	21	104	0	74	35805
2026-01-12 03:41:04.46	28.32	2.43	-53.5	-72.7	3.8	7.47e-01	0	20	104	0	74	35543
2026-01-12 03:41:07.49	28.20	2.63	-53.5	-72.8	3.8	7.45e-01	0	21	104	0	74	35734
2026-01-12 03:41:10.51	28.09	2.82	-53.5	-72.7	3.8	7.50e-01	0	21	104	0	74	35686
2026-01-12 03:41:13.54	27.97	3.03	-53.5	-72.8	3.8	7.43e-01	0	21	104	0	74	35705
2026-01-12 03:41:16.57	27.84	3.23	-53.5	-72.8	3.8	7.48e-01	0	21	104	0	74	35988
2026-01-12 03:41:19.60	27.72	3.43	-53.5	-72.8	3.8	7.47e-01	0	21	104	0	74	35913
2026-01-12 03:41:22.63	27.59	3.64	-53.5	-72.9	3.8	7.44e-01	0	21	104	0	74	36107
2026-01-12 03:41:25.65	27.47	3.84	-53.5	-72.8	3.8	7.47e-01	0	21	104	0	74	35827
2026-01-12 03:41:28.67	27.34	4.05	-53.5	-72.8	3.8	7.43e-01	0	21	104	0	74	36019
2026-01-12 03:41:31.70	27.20	4.26	-53.5	-72.8	3.8	7.46e-01	0	21	104	0	74	36017
2026-01-12 03:41:34.73	27.07	4.48	-53.5	-72.8	3.8	7.49e-01	0	21	104	0	74	36036
2026-01-12 03:41:37.75	26.93	4.69	-53.5	-72.8	3.8	7.45e-01	0	22	104	0	74	36037
2026-01-12 03:41:40.78	26.79	4.90	-53.5	-72.8	3.8	7.46e-01	0	21	104	0	74	36072
2026-01-12 03:41:43.80	26.65	5.12	-53.5	-72.8	3.8	7.47e-01	0	21	104	0	74	36081
2026-01-12 03:41:46.83	26.51	5.34	-53.6	-72.9	3.8	7.45e-01	0	21	104	0	74	36172
2026-01-12 03:41:49.86	26.36	5.56	-53.6	-72.9	3.8	7.47e-01	0	21	104	0	74	36298
2026-01-12 03:41:52.88	26.21	5.78	-53.6	-72.9	3.8	7.44e-01	0	21	104	0	74	36231
2026-01-12 03:41:55.90	26.06	6.01	-53.6	-72.9	3.8	7.44e-01	0	21	104	0	74	36290
2026-01-12 03:41:58.93	25.90	6.24	-53.6	-72.9	3.8	7.44e-01	0	21	104	0	74	36191
2026-01-12 03:42:01.96	25.74	6.47	-53.5	-72.9	3.8	7.46e-01	0	22	104	0	74	36219
2026-01-12 03:42:04.97	25.58	6.69	-53.6	-72.9	3.8	7.44e-01	0	22	104	0	74	36288
2026-01-12 03:42:08.00	25.42	6.93	-53.6	-72.9	3.8	7.46e-01	0	22	104	0	74	36264
2026-01-12 03:42:11.02	25.25	7.16	-53.6	-72.9	3.8	7.46e-01	0	22	104	0	74	36286
2026-01-12 03:42:14.04	25.08	7.40	-53.6	-72.9	3.8	7.44e-01	0	22	104	0	74	36244
2026-01-12 03:42:17.07	24.91	7.64	-53.6	-72.9	3.8	7.46e-01	0	22	104	0	74	36193
2026-01-12 03:42:20.10	24.73	7.88	-53.6	-72.9	3.8	7.45e-01	0	22	104	0	74	36242
2026-01-12 03:42:23.12	24.55	8.13	-53.6	-72.9	3.8	7.43e-01	0	22	104	0	74	36254
2026-01-12 03:42:26.15	24.37	8.37	-53.6	-72.9	3.8	7.45e-01	0	22	104	0	74	36373
2026-01-12 03:42:29.18	24.18	8.62	-53.6	-72.9	3.8	7.47e-01	0	22	104	0	74	36237
2026-01-12 03:42:32.20	23.99	8.87	-53.6	-72.9	3.8	7.47e-01	0	22	104	0	74	36370
2026-01-12 03:42:35.23	23.79	9.13	-53.6	-72.9	3.8	7.47e-01	0	22	104	0	74	36428
2026-01-12 03:42:38.25	23.59	9.38	-53.6	-72.9	3.8	7.44e-01	0	22	104	0	74	36430
2026-01-12 03:42:41.28	23.39	9.64	-53.6	-72.9	3.8	7.47e-01	0	22	104	0	74	36354
2026-01-12 03:42:44.30	23.18	9.90	-53.6	-72.9	3.8	7.45e-01	0	22	104	0	74	36352
2026-01-12 03:42:47.33	22.97	10.17	-53.6	-72.9	3.8	7.45e-01	0	22	104	0	74	36407
2026-01-12 03:42:50.36	22.75	10.44	-53.6	-72.9	3.8	7.47e-01	0	22	104	0	74	36401
2026-01-12 03:42:53.39	22.53	10.71	-53.6	-72.9	3.8	7.43e-01	0	22	104	0	74	36370
2026-01-12 03:42:56.41	22.31	10.98	-53.6	-72.9	3.8	7.46e-01	0	22	104	0	74	36392
2026-01-12 03:42:59.44	22.08	11.26	-53.6	-72.9	3.8	7.47e-01	0	22	104	0	74	36448
2026-01-12 03:43:02.47	21.84	11.54	-53.6	-72.9	3.8	7.46e-01	0	22	104	0	74	36327
2026-01-12 03:43:05.49	21.60	11.82	-53.6	-72.9	3.8	7.44e-01	0	22	104	0	74	36459
2026-01-12 03:43:08.52	21.35	12.10	-53.6	-72.9	3.8	7.44e-01	0	22	104	0	74	36504
2026-01-12 03:43:11.55	21.10	12.39	-53.6	-72.9	3.8	7.49e-01	0	22	104	0	74	36521
2026-01-12 03:43:14.58	20.85	12.68	-53.6	-72.9	3.8	7.47e-01	0	22	104	0	74	36515
2026-01-12 03:43:17.61	20.58	12.98	-53.7	-73.1	3.8	7.42e-01	0	22	104	0	75	34934
2026-01-12 03:43:20.64	20.31	13.28	-53.6	-73.0	3.8	7.48e-01	0	22	104	0	75	34534
2026-01-12 03:43:23.67	20.04	13.58	-53.6	-73.0	3.8	7.47e-01	0	22	104	0	75	34602
2026-01-12 03:43:26.69	19.76	13.89	-53.6	-72.9	3.8	7.42e-01	0	22	104	0	75	34480
2026-01-12 03:43:29.72	19.47	14.20	-53.6	-73.0	3.8	7.43e-01	0	22	104	0	75	34533
2026-01-12 03:43:32.75	19.18	14.51	-53.6	-73.0	3.8	7.45e-01	0	22	104	0	75	34635
2026-01-12 03:43:35.78	18.87	14.83	-53.6	-73.0	3.8	7.45e-01	0	22	104	0	75	34550
2026-01-12 03:43:38.79	18.57	15.15	-53.7	-73.0	3.8	7.45e-01	0	22	104	0	75	34610
2026-01-12 03:43:41.82	18.25	15.47	-53.7	-73.0	3.8	7.50e-01	0	22	104	0	75	34634
2026-01-12 03:43:44.84	17.93	15.80	-53.7	-73.0	3.8	7.47e-01	0	22	104	0	75	34705
2026-01-12 03:43:47.87	17.59	16.13	-53.6	-73.0	3.8	7.45e-01	0	22	104	0	75	34656
2026-01-12 03:43:50.91	17.25	16.47	-53.7	-73.0	3.8	7.44e-01	0	22	104	0	75	34708
2026-01-12 03:43:53.93	16.90	16.81	-53.6	-73.0	3.8	7.44e-01	0	22	104	0	75	34600
2026-01-12 03:43:56.95	16.55	17.15	-53.7	-73.0	3.8	7.51e-01	0	22	104	0	75	34621
2026-01-12 03:43:59.97	16.18	17.50	-53.6	-73.0	3.8	7.47e-01	0	22	104	0	75	34566
2026-01-12 03:44:03.01	15.80	17.86	-53.6	-73.0	3.8	7.45e-01	0	22	104	0	75	34535
2026-01-12 03:44:06.03	15.42	18.21	-53.7	-73.0	3.8	7.44e-01	0	22	104	0	75	34564
2026-01-12 03:44:09.06	15.02	18.58	-53.7	-73.0	3.8	7.45e-01	0	22	104	0	75	34593
2026-01-12 03:44:12.08	14.62	18.94	-53.7	-73.0	3.8	7.47e-01	0	22	104	0	75	34625
2026-01-12 03:44:15.10	14.20	19.31	-53.7	-73.0	3.8	7.43e-01	0	23	104	0	75	34624
2026-01-12 03:44:18.13	13.77	19.69	-53.7	-73.0	3.8	7.49e-01	0	22	104	0	75	34653
2026-01-12 03:44:21.15	13.33	20.07	-53.7	-73.0	3.8	7.47e-01	0	22	104	0	75	34583
2026-01-12 03:44:24.18	12.88	20.46	-53.7	-73.0	3.8	7.48e-01	0	22	104	0	75	34680
2026-01-12 03:44:27.21	12.42	20.85	-53.7	-73.0	3.8	7.45e-01	0	23	104	0	75	34626
2026-01-12 03:44:30.23	11.94	21.24	-53.7	-73.0	3.8	7.46e-01	0	22	104	0	75	34606
2026-01-12 03:44:33.26	11.45	21.64	-53.7	-73.0	3.8	7.45e-01	0	23	104	0	75	34779
2026-01-12 03:44:36.29	10.94	22.04	-53.7	-73.0	3.8	7.44e-01	0	22	104	0	75	34650
2026-01-12 03:44:39.31	10.43	22.45	-53.7	-73.0	3.8	7.46e-01	0	22	104	0	75	34632
2026-01-12 03:44:42.33	9.90	22.86	-53.7	-73.0	3.8	7.48e-01	0	23	104	0	75	34690
2026-01-12 03:44:45.35	9.35	23.28	-53.7	-73.0	3.8	7.45e-01	0	22	104	0	75	34641
2026-01-12 03:44:48.38	8.78	23.70	-53.6	-73.0	3.8	7.45e-01	0	22	104	0	75	34619
2026-01-12 03:44:51.41	8.20	24.13	-53.7	-73.0	3.8	7.46e-01	0	23	104	0	75	34611
2026-01-12 03:44:54.43	7.60	24.56	-53.6	-73.0	3.8	7.48e-01	0	23	104	0	75	34531
2026-01-12 03:44:57.45	6.99	25.00	-53.7	-73.0	3.8	7.47e-01	0	23	104	0	75	34701
2026-01-12 03:45:00.48	6.35	25.44	-53.7	-73.0	3.8	7.46e-01	0	22	104	0	75	34690
2026-01-12 03:45:03.51	5.70	25.88	-53.7	-73.0	3.8	7.49e-01	0	23	104	0	75	34701
2026-01-12 03:45:06.53	5.03	26.33	-53.7	-73.0	3.8	7.44e-01	0	23	104	0	75	34675
2026-01-12 03:45:09.55	4.34	26.78	-53.7	-73.0	3.8	7.47e-01	0	22	104	0	75	34682
2026-01-12 03:45:12.58	3.62	27.24	-53.7	-73.0	3.8	7.48e-01	0	23	104	0	75	34664
2026-01-12 03:45:15.60	2.89	27.69	-53.7	-73.0	3.8	7.45e-01	0	22	104	0	75	34716
2026-01-12 03:45:18.62	2.13	28.15	-53.7	-73.0	3.8	7.48e-01	0	23	104	0	75	34688
2026-01-12 03:45:21.65	1.34	28.62	-53.7	-73.0	3.8	7.44e-01	0	23	104	0	75	34568
2026-01-12 03:45:24.67	0.54	29.08	-53.7	-73.0	3.8	7.48e-01	0	22	104	0	75	34656
2026-01-12 03:45:27.70	359.71	29.55	-53.7	-73.0	3.8	7.48e-01	0	23	104	0	75	34633
2026-01-12 03:45:30.72	358.85	30.02	-53.7	-73.0	3.8	7.44e-01	0	23	104	0	75	34637
2026-01-12 03:45:33.75	357.97	30.49	-53.7	-73.0	3.8	7.44e-01	0	22	104	0	75	34604
2026-01-12 03:45:36.78	357.06	30.97	-53.7	-73.0	3.8	7.45e-01	0	23	104	0	75	34627
2026-01-12 03:45:39.81	356.11	31.44	-53.7	-73.0	3.8	7.45e-01	0	23	104	0	75	34656
2026-01-12 03:45:42.83	355.15	31.91	-53.7	-73.0	3.8	7.46e-01	0	23	104	0	75	34676
2026-01-12 03:45:45.86	354.15	32.38	-53.7	-73.0	3.8	7.48e-01	0	23	104	0	75	34681
2026-01-12 03:45:48.88	353.12	32.84	-53.7	-73.0	3.8	7.46e-01	0	22	104	0	75	34721
2026-01-12 03:45:51.90	352.07	33.31	-53.7	-73.0	3.8	7.47e-01	0	23	104	0	75	34712
2026-01-12 03:45:54.93	350.98	33.77	-53.7	-73.0	3.8	7.45e-01	0	23	104	0	75	34756
2026-01-12 03:45:57.96	349.85	34.23	-53.7	-73.0	3.8	7.46e-01	0	23	104	0	75	34712
2026-01-12 03:46:00.99	348.69	34.68	-53.7	-73.0	3.8	7.49e-01	0	23	104	0	75	34691
2026-01-12 03:46:04.02	347.50	35.12	-53.7	-73.0	3.8	7.48e-01	0	23	104	0	75	34665
2026-01-12 03:46:07.05	346.28	35.56	-53.7	-73.0	3.8	7.43e-01	0	23	104	0	75	34554
2026-01-12 03:46:10.07	345.03	35.98	-53.7	-73.0	3.8	7.45e-01	0	23	104	0	75	34738
2026-01-12 03:46:13.10	343.73	36.40	-53.7	-73.0	3.8	7.48e-01	0	23	104	0	75	34732
2026-01-12 03:46:16.12	342.41	36.81	-53.7	-73.0	3.8	7.44e-01	0	23	104	0	75	34781
2026-01-12 03:46:19.15	341.05	37.20	-53.7	-73.0	3.8	7.45e-01	0	23	104	0	75	34718
2026-01-12 03:46:22.18	339.66	37.58	-53.7	-73.0	3.8	7.46e-01	0	23	104	0	75	34698
2026-01-12 03:46:25.21	338.23	37.95	-53.7	-73.0	3.8	7.45e-01	0	23	104	0	75	34768
2026-01-12 03:46:28.23	336.78	38.30	-53.7	-73.0	3.8	7.44e-01	0	23	104	0	75	34643
2026-01-12 03:46:31.25	335.29	38.63	-53.7	-73.0	3.8	7.46e-01	0	23	104	0	75	34692
2026-01-12 03:46:34.28	333.77	38.94	-53.7	-73.0	3.8	7.46e-01	0	23	104	0	75	34703
2026-01-12 03:46:37.31	332.22	39.23	-53.7	-73.0	3.8	7.46e-01	0	23	104	0	75	34706
2026-01-12 03:46:40.34	330.64	39.51	-53.7	-73.0	3.8	7.45e-01	0	23	104	0	75	34784
2026-01-12 03:46:43.36	329.04	39.75	-53.7	-73.0	3.8	7.47e-01	0	23	104	0	75	34695
2026-01-12 03:46:46.39	327.41	39.98	-53.7	-73.0	3.8	7.47e-01	0	23	104	0	75	34767
2026-01-12 03:46:49.41	325.76	40.18	-53.7	-73.0	3.8	7.44e-01	0	23	104	0	75	34799
2026-01-12 03:46:52.44	324.09	40.35	-53.7	-73.0	3.8	7.48e-01	0	23	104	0	75	34815
2026-01-12 03:46:55.45	322.41	40.50	-53.7	-73.1	3.8	7.46e-01	0	23	104	0	75	34898
2026-01-12 03:46:58.48	320.71	40.62	-53.7	-73.0	3.8	7.47e-01	0	23	104	0	75	34731
2026-01-12 03:47:01.51	318.99	40.71	-53.7	-73.0	3.8	7.46e-01	0	23	104	0	75	34810
2026-01-12 03:47:04.54	317.27	40.77	-53.7	-73.0	3.8	7.46e-01	0	23	104	0	75	34794
2026-01-12 03:47:07.56	315.55	40.81	-53.7	-73.0	3.8	7.48e-01	0	23	104	0	75	34706
2026-01-12 03:47:10.59	313.82	40.81	-53.7	-73.0	3.8	7.46e-01	0	23	104	0	75	34798
2026-01-12 03:47:13.62	312.09	40.79	-53.7	-73.0	3.8	7.50e-01	0	23	104	0	75	34723
2026-01-12 03:47:16.65	310.36	40.73	-53.7	-73.0	3.8	7.47e-01	0	23	104	0	75	34853
2026-01-12 03:47:19.68	308.64	40.65	-53.7	-73.0	3.8	7.48e-01	0	23	104	0	75	34791
2026-01-12 03:47:22.70	306.94	40.54	-53.7	-73.0	3.8	7.48e-01	0	23	104	0	75	34792
2026-01-12 03:47:25.73	305.25	40.41	-53.7	-73.0	3.8	7.45e-01	0	23	104	0	75	34822
2026-01-12 03:47:28.75	303.57	40.24	-53.7	-73.0	3.8	7.42e-01	0	23	104	0	75	34752
2026-01-12 03:47:31.78	301.91	40.05	-53.7	-73.0	3.8	7.46e-01	0	23	104	0	75	34776
2026-01-12 03:47:34.80	300.28	39.84	-53.7	-73.1	3.8	7.48e-01	0	23	104	0	75	34884
2026-01-12 03:47:37.83	298.66	39.59	-53.7	-73.0	3.8	7.48e-01	0	23	104	0	75	34773
2026-01-12 03:47:40.85	297.08	39.33	-53.7	-73.0	3.8	7.45e-01	0	23	104	0	75	34833
2026-01-12 03:47:43.87	295.52	39.05	-53.7	-73.0	3.8	7.47e-01	0	23	104	0	75	34871
2026-01-12 03:47:46.90	293.98	38.74	-53.7	-73.1	3.8	7.46e-01	0	23	104	0	75	34892
2026-01-12 03:47:49.92	292.49	38.42	-53.7	-73.0	3.8	7.47e-01	0	23	104	0	75	34847
2026-01-12 03:47:52.95	291.01	38.07	-53.7	-73.0	3.8	7.45e-01	0	23	104	0	75	34807
2026-01-12 03:47:55.97	289.58	37.71	-53.7	-73.0	3.8	7.45e-01	0	23	104	0	75	34778
2026-01-12 03:47:59.00	288.17	37.34	-53.7	-73.1	3.8	7.47e-01	0	23	104	0	75	34897
2026-01-12 03:48:02.02	286.80	36.95	-53.7	-73.0	3.8	7.48e-01	0	23	104	0	75	34824
2026-01-12 03:48:05.04	285.46	36.55	-53.7	-73.0	3.8	7.44e-01	0	23	104	0	75	34836
2026-01-12 03:48:08.07	284.15	36.13	-53.7	-73.0	3.8	7.49e-01	0	23	104	0	75	34803
2026-01-12 03:48:11.09	282.89	35.71	-53.7	-73.1	3.8	7.46e-01	0	23	104	0	75	34902
2026-01-12 03:48:14.11	281.65	35.27	-53.7	-73.0	3.8	7.47e-01	0	23	104	0	75	34799
2026-01-12 03:48:17.13	280.45	34.83	-53.7	-73.0	3.8	7.43e-01	0	23	104	0	75	34825
2026-01-12 03:48:20.16	279.28	34.38	-53.7	-73.1	3.8	7.46e-01	0	23	104	0	75	34885
2026-01-12 03:48:23.19	278.14	33.93	-53.7	-73.0	3.8	7.48e-01	0	23	104	0	75	34784
2026-01-12 03:48:26.21	277.04	33.47	-53.7	-73.0	3.8	7.47e-01	0	23	104	0	75	34782
2026-01-12 03:48:29.23	275.97	33.00	-53.7	-73.1	3.8	7.45e-01	0	23	104	0	75	34920
2026-01-12 03:48:32.26	274.92	32.54	-53.7	-73.0	3.8	7.45e-01	0	23	104	0	75	34775
2026-01-12 03:48:35.28	273.91	32.07	-53.7	-73.0	3.8	7.44e-01	0	23	104	0	75	34862
2026-01-12 03:48:38.31	272.93	31.59	-53.7	-73.0	3.8	7.47e-01	0	23	104	0	75	34781
2026-01-12 03:48:41.33	271.98	31.12	-53.7	-73.0	3.8	7.44e-01	0	23	104	0	75	34784
2026-01-12 03:48:44.35	271.06	30.65	-53.7	-73.0	3.8	7.43e-01	0	23	104	0	75	34797
2026-01-12 03:48:47.38	270.16	30.18	-53.7	-73.1	3.8	7.47e-01	0	23	104	0	75	34890
2026-01-12 03:48:50.41	269.29	29.71	-53.7	-73.0	3.8	7.45e-01	0	23	104	0	75	34791
2026-01-12 03:48:53.43	268.45	29.24	-53.7	-73.0	3.8	7.45e-01	0	23	104	0	75	34792
2026-01-12 03:48:56.46	267.63	28.77	-53.7	-73.0	3.8	7.45e-01	0	23	104	0	75	34813
2026-01-12 03:48:59.48	266.84	28.30	-53.7	-73.0	3.8	7.45e-01	0	23	104	0	75	34798
2026-01-12 03:49:02.51	266.07	27.84	-53.7	-73.0	3.8	7.48e-01	0	23	104	0	75	34766
2026-01-12 03:49:05.53	265.33	27.38	-53.7	-73.0	3.8	7.48e-01	0	23	104	0	75	34871
2026-01-12 03:49:08.57	264.60	26.92	-53.7	-73.0	3.8	7.47e-01	0	23	104	0	75	34855
2026-01-12 03:49:11.59	263.90	26.46	-53.7	-73.0	3.8	7.47e-01	0	23	104	0	75	34790
2026-01-12 03:49:14.62	263.21	26.01	-53.7	-73.0	3.8	7.48e-01	0	23	104	0	75	34841
2026-01-12 03:49:17.65	262.55	25.56	-53.7	-73.0	3.8	7.46e-01	0	23	104	0	75	34723
2026-01-12 03:49:20.68	261.91	25.12	-53.7	-73.0	3.8	7.49e-01	0	23	104	0	75	34734
2026-01-12 03:49:23.71	261.28	24.68	-53.7	-73.0	3.8	7.46e-01	0	23	104	0	75	34850
2026-01-12 03:49:26.73	260.68	24.25	-53.7	-73.0	3.8	7.45e-01	0	23	104	0	75	34836
2026-01-12 03:49:29.75	260.09	23.82	-53.7	-73.1	3.8	7.48e-01	0	23	104	0	75	34897
2026-01-12 03:49:32.78	259.52	23.39	-53.7	-73.1	3.8	7.47e-01	0	23	104	0	75	34906
2026-01-12 03:49:35.81	258.96	22.97	-53.7	-73.1	3.8	7.47e-01	0	23	104	0	75	34885
2026-01-12 03:49:38.83	258.42	22.56	-53.7	-73.0	3.8	7.46e-01	0	23	104	0	75	34794
2026-01-12 03:49:41.85	257.90	22.15	-53.7	-73.0	3.8	7.41e-01	0	23	104	0	75	34869
2026-01-12 03:49:44.87	257.39	21.74	-53.7	-73.0	3.8	7.46e-01	0	23	104	0	75	34826
2026-01-12 03:49:47.90	256.89	21.34	-53.7	-73.0	3.8	7.47e-01	0	23	104	0	75	34798
2026-01-12 03:49:50.93	256.40	20.94	-53.7	-73.0	3.8	7.44e-01	0	23	104	0	75	34814
2026-01-12 03:49:53.96	255.93	20.55	-53.7	-73.0	3.8	7.47e-01	0	23	104	0	75	34801
2026-01-12 03:49:56.98	255.48	20.16	-53.7	-73.1	3.8	7.42e-01	0	23	104	0	75	34911
2026-01-12 03:50:00.01	255.03	19.78	-53.7	-73.1	3.8	7.44e-01	0	23	104	0	75	34884
2026-01-12 03:50:03.03	254.60	19.40	-53.7	-73.0	3.8	7.47e-01	0	23	104	0	75	34828
2026-01-12 03:50:06.06	254.18	19.02	-53.7	-73.1	3.8	7.46e-01	0	23	104	0	75	34903
2026-01-12 03:50:09.09	253.76	18.65	-53.7	-73.1	3.8	7.48e-01	0	23	104	0	75	34932
2026-01-12 03:50:12.12	253.36	18.29	-53.7	-73.1	3.8	7.47e-01	0	23	104	0	75	34887
2026-01-12 03:50:15.14	252.97	17.93	-53.7	-73.1	3.8	7.50e-01	0	23	104	0	75	34909
2026-01-12 03:50:18.17	252.59	17.57	-53.7	-73.1	3.8	7.51e-01	0	23	104	0	75	34941
2026-01-12 03:50:21.20	252.22	17.22	-53.7	-73.1	3.8	7.47e-01	0	23	104	0	75	34908
2026-01-12 03:50:24.23	251.86	16.87	-53.7	-73.1	3.8	7.46e-01	0	23	104	0	75	34883
2026-01-12 03:50:27.26	251.50	16.53	-53.7	-73.0	3.8	7.44e-01	0	23	104	0	75	34829
2026-01-12 03:50:30.28	251.16	16.19	-53.7	-73.1	3.8	7.46e-01	0	23	104	0	75	34935
2026-01-12 03:50:33.31	250.82	15.86	-53.7	-73.1	3.8	7.45e-01	0	23	104	0	75	34900
2026-01-12 03:50:36.33	250.49	15.53	-53.7	-73.0	3.8	7.48e-01	0	23	104	0	75	34777
2026-01-12 03:50:39.36	250.17	15.20	-53.7	-73.0	3.8	7.46e-01	0	23	104	0	75	34855
2026-01-12 03:50:42.39	249.86	14.88	-53.7	-73.0	3.8	7.50e-01	0	23	104	0	75	34877
2026-01-12 03:50:45.41	249.56	14.56	-53.7	-73.1	3.8	7.45e-01	0	23	104	0	75	34912
2026-01-12 03:50:48.44	249.26	14.24	-53.7	-73.0	3.8	7.47e-01	0	23	104	0	75	34815
2026-01-12 03:50:51.47	248.96	13.93	-53.7	-73.0	3.8	7.47e-01	0	23	104	0	75	34818
2026-01-12 03:50:54.50	248.68	13.62	-53.7	-73.1	3.8	7.45e-01	0	23	104	0	75	34896
2026-01-12 03:50:57.53	248.40	13.32	-53.7	-73.0	3.8	7.45e-01	0	23	104	0	75	34856
2026-01-12 03:51:00.55	248.13	13.02	-53.7	-73.0	3.8	7.48e-01	0	23	104	0	75	34857
2026-01-12 03:51:03.58	247.86	12.72	-53.7	-73.0	3.8	7.43e-01	0	23	104	0	75	34800
2026-01-12 03:51:06.61	247.60	12.43	-53.7	-73.1	3.8	7.47e-01	0	23	104	0	75	34943
2026-01-12 03:51:09.63	247.35	12.14	-53.7	-73.0	3.8	7.46e-01	0	23	104	0	75	34803
2026-01-12 03:51:12.65	247.10	11.85	-53.7	-73.1	3.8	7.45e-01	0	23	104	0	75	34884
2026-01-12 03:51:15.68	246.85	11.57	-53.7	-73.1	3.8	7.48e-01	0	23	104	0	75	34881
2026-01-12 03:51:18.71	246.62	11.28	-53.7	-73.1	3.8	7.49e-01	0	23	104	0	75	34908
2026-01-12 03:51:21.74	246.38	11.01	-53.7	-73.1	3.8	7.46e-01	0	23	104	0	75	34949
2026-01-12 03:51:24.77	246.15	10.73	-53.7	-73.1	3.8	7.44e-01	0	23	104	0	75	34933
2026-01-12 03:51:27.79	245.93	10.46	-53.7	-73.1	3.8	7.47e-01	0	23	104	0	75	34902
2026-01-12 03:51:30.82	245.71	10.19	-53.7	-73.1	3.8	7.45e-01	0	23	104	0	75	34900
2026-01-12 03:51:33.85	245.49	9.92	-53.7	-73.0	3.8	7.43e-01	0	23	104	0	75	34762
2026-01-12 03:51:36.87	245.28	9.66	-53.7	-73.0	3.8	7.45e-01	0	23	104	0	75	34788
2026-01-12 03:51:39.89	245.08	9.40	-53.7	-73.1	3.8	7.46e-01	0	23	104	0	75	34949
2026-01-12 03:51:42.91	244.88	9.14	-53.7	-73.1	3.8	7.49e-01	0	23	104	0	75	34889
2026-01-12 03:51:45.94	244.68	8.89	-53.7	-73.0	3.8	7.45e-01	0	23	104	0	75	34850
2026-01-12 03:51:48.96	244.48	8.64	-53.7	-73.0	3.8	7.47e-01	0	23	104	0	75	34846
2026-01-12 03:51:51.99	244.29	8.39	-53.7	-73.0	3.8	7.44e-01	0	23	104	0	75	34782
2026-01-12 03:51:55.02	244.11	8.14	-53.7	-73.0	3.8	7.46e-01	0	23	104	0	75	34741
2026-01-12 03:51:58.05	243.92	7.89	-53.7	-73.0	3.8	7.47e-01	0	23	104	0	75	34824
2026-01-12 03:52:01.07	243.74	7.65	-53.7	-73.0	3.8	7.46e-01	0	23	104	0	75	34759
2026-01-12 03:52:04.10	243.57	7.41	-53.7	-73.0	3.8	7.45e-01	0	23	104	0	75	34767
2026-01-12 03:52:07.12	243.39	7.17	-53.7	-73.0	3.8	7.50e-01	0	23	104	0	75	34820
2026-01-12 03:52:10.15	243.22	6.93	-53.7	-73.0	3.8	7.44e-01	0	23	104	0	75	34777
2026-01-12 03:52:13.18	243.06	6.70	-53.7	-73.1	3.8	7.43e-01	0	23	104	0	75	34930
2026-01-12 03:52:16.21	242.89	6.47	-53.7	-73.1	3.8	7.46e-01	0	23	104	0	75	34888
2026-01-12 03:52:19.23	242.73	6.24	-53.7	-73.0	3.8	7.42e-01	0	23	104	0	75	34845
2026-01-12 03:52:22.26	242.57	6.01	-53.7	-73.0	3.8	7.45e-01	0	23	104	0	75	34763
2026-01-12 03:52:25.29	242.42	5.78	-53.7	-73.0	3.8	7.46e-01	0	23	104	0	75	34846
2026-01-12 03:52:28.32	242.27	5.56	-53.7	-73.1	3.8	7.48e-01	0	23	104	0	75	34932
2026-01-12 03:52:31.35	242.12	5.34	-53.7	-73.1	3.8	7.43e-01	0	23	104	0	75	34939
2026-01-12 03:52:34.37	241.97	5.12	-53.7	-73.1	3.8	7.48e-01	0	23	104	0	75	34896
2026-01-12 03:52:37.40	241.82	4.90	-53.7	-73.1	3.8	7.43e-01	0	23	104	0	75	34922
2026-01-12 03:52:40.42	241.68	4.68	-53.7	-73.0	3.8	7.42e-01	0	23	104	0	75	34867
2026-01-12 03:52:43.44	241.54	4.47	-53.7	-73.0	3.8	7.50e-01	0	23	104	0	75	34860
2026-01-12 03:52:46.47	241.41	4.25	-53.7	-73.1	3.8	7.46e-01	0	23	104	0	75	34934
2026-01-12 03:52:49.49	241.27	4.04	-53.7	-73.0	3.8	7.45e-01	0	23	104	0	75	34879
2026-01-12 03:52:52.52	241.14	3.83	-53.7	-73.0	3.8	7.44e-01	0	23	104	0	75	34811
2026-01-12 03:52:55.54	241.01	3.63	-53.7	-73.0	3.8	7.45e-01	0	23	104	0	75	34815
2026-01-12 03:52:58.57	240.88	3.42	-53.7	-73.1	3.8	7.46e-01	0	23	104	0	75	34916
2026-01-12 03:53:01.60	240.75	3.22	-53.7	-73.1	3.8	7.47e-01	0	23	104	0	75	34906
2026-01-12 03:53:04.62	240.63	3.01	-53.7	-73.0	3.8	7.48e-01	0	23	104	0	75	34868
2026-01-12 03:53:07.65	240.51	2.81	-53.7	-73.1	3.8	7.47e-01	0	23	104	0	75	34951
2026-01-12 03:53:10.68	240.39	2.61	-53.7	-73.1	3.8	7.43e-01	0	23	104	0	75	34931
2026-01-12 03:53:13.71	240.27	2.41	-53.7	-73.1	3.8	7.43e-01	0	23	104	0	75	34919
2026-01-12 03:53:16.73	240.15	2.21	-53.7	-73.1	3.8	7.47e-01	0	23	104	0	75	34884
2026-01-12 03:53:19.76	240.04	2.02	-53.7	-73.1	3.8	7.45e-01	0	23	104	0	75	34923

#Closed at: 2026-01-12 03:53:22
#Recorded file [0 MB]: D:/lorett/data/31004_260112_064058.dat