passes_logs/2026/01/12/R3.2S_Murmansk/R3.2S_Murmansk__20260112_205048_TY-42_rec.log

#Pass ID: 20260112_205048_TY-42
#Satellite: TY-42
#Configuration: TY-42_900M
#almurnet v.1.7.20251203
#Start time: 2026-01-12 20:50:49

#Version: 2.2.20231116
#Station: R3.2S_Murmansk
#Location: 33.079688 lon 68.888172 lat
#TLE: 1 64048U 25103A   26012.66797454  .00008010  00000-0  38191-3 0 09996
#TLE: 2 64048 097.4120 088.1293 0001877 092.3162 302.2280 15.19166642 36461

#Time	Az	El	Level	Level2	SNR	BER	BlckErr	Temp	State	Recorded	gain1	gain2
2026-01-12 20:50:49.70	216.31	2.08	-57.1	-60.3	6.1	0.00e+00	0	27	0	0	81	20254
2026-01-12 20:50:52.70	216.62	2.26	-57.1	-60.3	6.2	0.00e+00	0	27	104	0	81	20260
2026-01-12 20:50:55.69	216.93	2.44	-57.1	-60.3	6.2	0.00e+00	0	28	104	0	81	20254
2026-01-12 20:50:58.68	217.25	2.61	-57.1	-60.3	6.2	0.00e+00	0	28	104	0	81	20255
2026-01-12 20:51:01.66	217.57	2.79	-57.1	-60.3	6.2	0.00e+00	0	28	104	0	81	20361
2026-01-12 20:51:04.66	217.90	2.97	-57.1	-60.3	6.2	0.00e+00	0	28	104	0	81	20368
2026-01-12 20:51:07.66	218.23	3.15	-57.1	-60.3	6.2	0.00e+00	0	28	104	0	81	20372
2026-01-12 20:51:10.64	218.56	3.33	-57.2	-60.3	6.2	0.00e+00	0	28	104	0	81	20354
2026-01-12 20:51:13.63	218.91	3.51	-57.2	-60.4	6.2	0.00e+00	0	28	104	0	81	20443
2026-01-12 20:51:16.61	219.25	3.69	-57.2	-60.4	6.2	0.00e+00	0	29	104	0	81	20430
2026-01-12 20:51:19.61	219.60	3.88	-57.2	-60.4	6.2	0.00e+00	0	29	104	0	81	20436
2026-01-12 20:51:22.59	219.96	4.06	-57.2	-60.4	6.2	0.00e+00	0	29	104	0	81	20500
2026-01-12 20:51:25.58	220.32	4.25	-57.2	-60.4	6.2	0.00e+00	0	29	104	0	81	20459
2026-01-12 20:51:28.57	220.69	4.43	-57.2	-60.4	6.2	0.00e+00	0	29	104	0	81	20486
2026-01-12 20:51:31.56	221.07	4.62	-57.2	-60.4	6.2	0.00e+00	0	29	104	0	81	20544
2026-01-12 20:51:34.55	221.44	4.81	-57.2	-60.4	6.2	0.00e+00	0	29	104	0	81	20585
2026-01-12 20:51:37.54	221.83	4.99	-57.2	-60.4	6.2	0.00e+00	0	30	104	0	81	20617
2026-01-12 20:51:40.54	222.22	5.18	-57.2	-60.4	6.2	0.00e+00	0	29	104	0	81	20568
2026-01-12 20:51:43.54	222.62	5.37	-57.3	-60.5	6.2	0.00e+00	0	30	104	0	81	20869
2026-01-12 20:51:46.53	223.03	5.57	-42.3	-42.6	12.2	2.23e-01	0	31	0	176160768	52	14106
2026-01-12 20:51:49.51	223.44	5.76	-42.2	-42.6	12.2	4.02e-02	0	31	0	511705088	51	14788
2026-01-12 20:51:52.50	223.86	5.95	-42.4	-42.7	12.1	2.10e-02	0	31	0	847249408	51	14998
2026-01-12 20:51:55.49	224.28	6.14	-41.9	-42.2	12.4	2.05e-02	0	31	0	1182793728	51	14189
2026-01-12 20:51:58.47	224.71	6.34	-42.1	-42.5	12.1	1.67e-02	0	31	0	1518338048	50	15531
2026-01-12 20:52:01.46	225.15	6.53	-42.0	-42.3	12.2	1.58e-02	0	32	0	1853882368	50	15241
2026-01-12 20:52:04.46	225.60	6.73	-41.9	-42.2	12.3	1.45e-02	0	32	0	2197815296	50	15080
2026-01-12 20:52:07.45	226.05	6.92	-41.5	-41.8	12.4	1.40e-02	0	32	0	2524971008	50	14435
2026-01-12 20:52:10.42	226.50	7.12	-41.6	-41.9	12.3	1.26e-02	0	32	0	2860515328	49	15413
2026-01-12 20:52:13.41	226.97	7.32	-41.5	-41.8	12.3	1.42e-02	0	32	0	3204448256	49	15290
2026-01-12 20:52:16.40	227.45	7.52	-41.3	-41.6	12.4	1.06e-02	0	32	0	3539992576	49	14826
2026-01-12 20:52:19.39	227.93	7.72	-41.4	-41.7	12.4	7.82e-03	0	32	0	3867148288	49	14988
2026-01-12 20:52:22.36	228.42	7.91	-41.2	-41.5	12.5	7.02e-03	0	32	0	4211081216	49	14646
2026-01-12 20:52:25.35	228.92	8.11	-41.1	-41.4	12.4	6.38e-03	0	32	0	4538236928	48	15431
2026-01-12 20:52:28.32	229.42	8.31	-40.9	-41.2	12.5	6.14e-03	0	33	0	4873781248	48	14981
2026-01-12 20:52:31.32	229.94	8.52	-40.7	-41.0	12.5	5.68e-03	0	33	0	5217714176	48	14744
2026-01-12 20:52:34.31	230.47	8.72	-40.8	-41.2	12.5	4.88e-03	0	33	0	5553258496	48	14949
2026-01-12 20:52:37.31	231.00	8.92	-40.7	-41.0	12.6	4.24e-03	0	33	0	5888802816	48	14702
2026-01-12 20:52:40.30	231.54	9.12	-40.5	-40.8	12.7	4.40e-03	0	33	0	6224347136	48	14298
2026-01-12 20:52:43.30	232.10	9.32	-40.5	-40.8	12.7	3.16e-03	0	33	0	6568280064	48	14282
2026-01-12 20:52:46.30	232.66	9.53	-40.4	-40.7	12.7	3.18e-03	0	33	0	6903824384	48	14238
2026-01-12 20:52:49.30	233.23	9.73	-40.4	-40.7	12.7	3.47e-03	0	33	0	7230980096	48	14164
2026-01-12 20:52:52.29	233.81	9.93	-39.4	-39.7	12.6	3.38e-03	0	33	0	7574913024	46	14222
2026-01-12 20:52:55.29	234.40	10.14	-39.3	-39.6	12.6	4.68e-03	0	33	0	7910457344	45	14844
2026-01-12 20:52:58.29	235.00	10.34	-39.3	-39.6	12.5	4.52e-03	0	33	0	8246001664	45	14931
2026-01-12 20:53:01.27	235.61	10.54	-39.2	-39.5	12.6	4.14e-03	0	33	0	8581545984	45	14715
2026-01-12 20:53:04.26	236.23	10.74	-39.2	-39.5	12.6	3.97e-03	0	34	0	8925478912	45	14669
2026-01-12 20:53:07.25	236.86	10.94	-39.1	-39.4	12.7	3.52e-03	0	34	0	9252634624	45	14465
2026-01-12 20:53:10.25	237.50	11.14	-39.0	-39.3	12.7	3.87e-03	0	33	0	9596567552	45	14381
2026-01-12 20:53:13.24	238.15	11.34	-39.0	-39.3	12.7	3.30e-03	0	34	0	9932111872	45	14404
2026-01-12 20:53:16.24	238.81	11.54	-38.8	-39.1	12.6	3.39e-03	0	34	0	10267656192	44	14884
2026-01-12 20:53:19.24	239.48	11.74	-38.8	-39.1	12.6	3.08e-03	0	34	0	10603200512	44	14903
2026-01-12 20:53:22.24	240.17	11.94	-38.8	-39.1	12.7	2.93e-03	0	34	0	10938744832	44	14893
2026-01-12 20:53:25.24	240.86	12.14	-38.9	-39.2	12.6	3.37e-03	0	34	0	11282677760	44	14978
2026-01-12 20:53:28.23	241.57	12.33	-38.7	-39.1	12.7	3.35e-03	0	34	0	11618222080	44	14780
2026-01-12 20:53:31.21	242.28	12.53	-38.8	-39.1	12.6	3.06e-03	0	34	0	11953766400	44	14924
2026-01-12 20:53:34.22	243.01	12.72	-38.7	-39.0	12.7	2.88e-03	0	34	0	12289310720	44	14621
2026-01-12 20:53:37.23	243.75	12.91	-38.7	-39.0	12.7	2.58e-03	0	34	0	12624855040	44	14654
2026-01-12 20:53:40.21	244.49	13.10	-38.6	-38.9	12.7	2.75e-03	0	34	0	12968787968	44	14568
2026-01-12 20:53:43.21	245.25	13.28	-38.6	-38.9	12.7	2.72e-03	0	34	0	13304332288	44	14531
2026-01-12 20:53:46.20	246.02	13.47	-38.5	-38.8	12.7	2.79e-03	0	34	0	13631488000	44	14351
2026-01-12 20:53:49.21	246.81	13.65	-38.5	-38.8	12.7	2.22e-03	0	34	0	13975420928	44	14373
2026-01-12 20:53:52.21	247.60	13.83	-38.4	-38.7	12.7	2.11e-03	0	34	0	14319353856	44	14265
2026-01-12 20:53:55.20	248.41	14.01	-38.1	-38.4	12.7	2.16e-03	0	34	0	14654898176	43	14542
2026-01-12 20:53:58.21	249.23	14.18	-38.2	-38.5	12.8	2.02e-03	0	34	0	14990442496	43	14658
2026-01-12 20:54:01.20	250.05	14.35	-38.0	-38.3	12.8	1.69e-03	0	34	0	15325986816	43	14370
2026-01-12 20:54:04.18	250.89	14.51	-37.7	-38.0	12.8	1.36e-03	0	34	0	15661531136	42	14681
2026-01-12 20:54:07.17	251.73	14.68	-37.7	-38.0	12.8	1.36e-03	0	34	0	15997075456	42	14727
2026-01-12 20:54:10.18	252.59	14.84	-37.7	-38.0	12.8	1.29e-03	0	34	0	16332619776	42	14643
2026-01-12 20:54:13.17	253.46	14.99	-37.7	-38.0	12.8	1.29e-03	0	34	0	16676552704	42	14674
2026-01-12 20:54:16.15	254.34	15.14	-37.7	-38.0	12.8	1.22e-03	0	34	0	17003708416	42	14635
2026-01-12 20:54:19.14	255.22	15.29	-37.6	-37.9	12.9	1.23e-03	0	34	0	17339252736	42	14528
2026-01-12 20:54:22.13	256.12	15.43	-37.6	-37.9	12.9	1.07e-03	0	34	0	17683185664	42	14503
2026-01-12 20:54:25.12	257.03	15.56	-37.5	-37.8	12.9	9.49e-04	0	34	0	18018729984	42	14308
2026-01-12 20:54:28.11	257.95	15.69	-37.6	-37.9	12.9	1.03e-03	0	35	0	18354274304	42	14447
2026-01-12 20:54:31.10	258.87	15.82	-37.5	-37.7	12.9	9.15e-04	0	35	0	18689818624	42	14271
2026-01-12 20:54:34.08	259.80	15.94	-37.5	-37.8	12.8	8.77e-04	0	34	0	19025362944	41	15154
2026-01-12 20:54:37.08	260.75	16.05	-37.3	-37.7	12.8	1.01e-03	0	35	0	19360907264	41	14965
2026-01-12 20:54:40.08	261.70	16.16	-37.4	-37.7	12.8	1.01e-03	0	35	0	19696451584	41	15079
2026-01-12 20:54:43.08	262.66	16.27	-37.4	-37.7	12.8	1.02e-03	0	35	0	20040384512	41	15088
2026-01-12 20:54:46.07	263.63	16.36	-37.4	-37.7	12.8	1.04e-03	0	34	0	20375928832	41	15075
2026-01-12 20:54:49.05	264.60	16.45	-37.5	-37.8	12.8	1.02e-03	0	35	0	20703084544	41	15140
2026-01-12 20:54:52.04	265.58	16.53	-37.4	-37.7	12.8	1.22e-03	0	34	0	21047017472	41	15028
2026-01-12 20:54:55.03	266.56	16.61	-37.6	-37.9	12.8	2.43e-03	0	35	0	21382561792	41	15372
2026-01-12 20:54:58.00	267.54	16.68	-37.5	-37.8	12.8	2.00e-03	0	35	0	21718106112	41	15283
2026-01-12 20:55:00.98	268.54	16.74	-37.4	-37.7	12.8	1.22e-03	0	35	0	22053650432	41	15111
2026-01-12 20:55:03.98	269.54	16.79	-37.5	-37.7	12.8	1.28e-03	0	35	0	22389194752	41	15101
2026-01-12 20:55:06.97	270.54	16.84	-37.5	-37.8	12.7	1.43e-03	0	34	0	22724739072	41	15271
2026-01-12 20:55:09.96	271.55	16.88	-37.5	-37.8	12.7	1.84e-03	0	35	0	23060283392	41	15261
2026-01-12 20:55:12.97	272.56	16.91	-37.5	-37.8	12.7	1.97e-03	0	35	0	23404216320	41	15269
2026-01-12 20:55:15.96	273.57	16.94	-37.6	-37.9	12.7	1.68e-03	0	35	0	23739760640	41	15330
2026-01-12 20:55:18.94	274.58	16.96	-37.6	-37.9	12.7	1.65e-03	0	35	0	24066916352	41	15342
2026-01-12 20:55:21.92	275.59	16.97	-37.5	-37.8	12.7	1.48e-03	0	35	0	24410849280	41	15252
2026-01-12 20:55:24.90	276.60	16.97	-37.5	-37.8	12.7	1.41e-03	0	35	0	24738004992	41	15236
2026-01-12 20:55:27.90	277.62	16.96	-37.7	-38.0	12.7	1.52e-03	0	35	0	25073549312	41	15502
2026-01-12 20:55:30.88	278.63	16.95	-37.7	-38.0	12.7	1.38e-03	0	35	0	25417482240	41	15528
2026-01-12 20:55:33.86	279.63	16.93	-37.8	-38.1	12.7	1.60e-03	0	35	0	25753026560	41	15696
2026-01-12 20:55:36.86	280.65	16.90	-37.8	-38.1	12.7	1.84e-03	0	35	0	26088570880	41	15657
2026-01-12 20:55:39.84	281.65	16.86	-37.8	-38.1	12.7	2.08e-03	0	35	0	26424115200	41	15748
2026-01-12 20:55:42.84	282.66	16.82	-37.9	-38.2	12.6	2.08e-03	0	35	0	26759659520	41	15959
2026-01-12 20:55:45.82	283.65	16.77	-38.0	-38.3	12.6	2.33e-03	0	35	0	27095203840	42	15244
2026-01-12 20:55:48.82	284.65	16.71	-38.1	-38.4	12.6	2.54e-03	0	35	0	27430748160	42	15314
2026-01-12 20:55:51.81	285.64	16.64	-38.1	-38.3	12.6	2.16e-03	0	35	0	27774681088	42	15271
2026-01-12 20:55:54.80	286.63	16.57	-37.9	-38.2	12.7	1.74e-03	0	35	0	28101836800	42	14962
2026-01-12 20:55:57.80	287.61	16.49	-37.9	-38.2	12.7	1.64e-03	0	35	0	28437381120	42	14985
2026-01-12 20:56:00.79	288.58	16.41	-37.9	-38.2	12.7	1.66e-03	0	35	0	28781314048	42	14977
2026-01-12 20:56:03.79	289.55	16.31	-38.1	-38.4	12.7	1.44e-03	0	35	0	29116858368	42	15305
2026-01-12 20:56:06.77	290.51	16.21	-38.0	-38.3	12.7	1.48e-03	0	35	0	29452402688	42	15247
2026-01-12 20:56:09.78	291.47	16.11	-38.1	-38.4	12.7	1.49e-03	0	35	0	29787947008	42	15375
2026-01-12 20:56:12.77	292.41	16.00	-38.0	-38.3	12.7	1.67e-03	0	35	0	30131879936	42	15204
2026-01-12 20:56:15.77	293.35	15.88	-38.2	-38.5	12.7	1.54e-03	0	35	0	30467424256	42	15486
2026-01-12 20:56:18.76	294.28	15.76	-38.2	-38.5	12.7	1.63e-03	0	35	0	30802968576	42	15560
2026-01-12 20:56:21.75	295.19	15.63	-38.2	-38.5	12.7	1.47e-03	0	35	0	31138512896	42	15502
2026-01-12 20:56:24.74	296.10	15.50	-38.3	-38.5	12.7	1.61e-03	0	35	0	31474057216	42	15652
2026-01-12 20:56:27.72	297.00	15.36	-38.5	-38.8	12.7	1.55e-03	0	35	0	31809601536	42	16068
2026-01-12 20:56:30.69	297.88	15.22	-38.4	-38.6	12.7	1.62e-03	0	35	0	32145145856	43	14930
2026-01-12 20:56:33.67	298.76	15.07	-38.4	-38.7	12.7	1.20e-03	0	35	0	32480690176	43	15032
2026-01-12 20:56:36.66	299.63	14.92	-38.7	-38.9	12.7	1.44e-03	0	35	0	32816234496	43	15443
2026-01-12 20:56:39.65	300.49	14.76	-38.6	-38.9	12.7	1.64e-03	0	35	0	33151778816	43	15319
2026-01-12 20:56:42.64	301.34	14.60	-38.7	-39.0	12.7	1.61e-03	0	35	0	33487323136	43	15599
2026-01-12 20:56:45.63	302.17	14.44	-38.6	-38.9	12.7	1.66e-03	0	35	0	33822867456	43	15436
2026-01-12 20:56:48.62	303.00	14.27	-38.5	-38.8	12.7	1.54e-03	0	35	0	34158411776	43	15267
2026-01-12 20:56:51.61	303.82	14.10	-38.6	-38.9	12.8	1.48e-03	0	35	0	34502344704	43	15388
2026-01-12 20:56:54.61	304.62	13.93	-38.7	-39.0	12.7	1.55e-03	0	35	0	34837889024	43	15542
2026-01-12 20:56:57.60	305.42	13.75	-38.8	-39.1	12.7	1.67e-03	0	35	0	35165044736	43	15686
2026-01-12 20:57:00.60	306.20	13.57	-38.9	-39.2	12.7	1.81e-03	0	35	0	35508977664	43	15846
2026-01-12 20:57:03.60	306.98	13.39	-39.0	-39.3	12.7	2.17e-03	0	35	0	35844521984	43	16036
2026-01-12 20:57:06.60	307.74	13.21	-38.9	-39.2	12.7	1.96e-03	0	35	0	36188454912	43	15982
2026-01-12 20:57:09.59	308.49	13.02	-39.0	-39.3	12.7	1.85e-03	0	35	0	36515610624	43	16080
2026-01-12 20:57:12.60	309.23	12.83	-39.0	-39.3	12.6	2.18e-03	0	35	0	36851154944	43	16150
2026-01-12 20:57:15.58	309.96	12.64	-39.1	-39.4	12.7	2.18e-03	0	35	0	37195087872	44	15322
2026-01-12 20:57:18.58	310.68	12.45	-39.1	-39.4	12.7	2.23e-03	0	35	0	37530632192	44	15407
2026-01-12 20:57:21.57	311.38	12.26	-39.2	-39.5	12.6	2.26e-03	0	35	0	37866176512	44	15632
2026-01-12 20:57:24.55	312.07	12.06	-39.2	-39.5	12.6	2.40e-03	0	35	0	38201720832	44	15595
2026-01-12 20:57:27.53	312.75	11.87	-39.4	-39.7	12.6	2.40e-03	0	35	0	38537265152	44	15885
2026-01-12 20:57:30.52	313.43	11.67	-39.6	-39.9	12.6	3.08e-03	0	35	0	38872809472	45	15377
2026-01-12 20:57:33.49	314.09	11.48	-39.5	-39.8	12.6	3.77e-03	0	35	0	39208353792	45	15212
2026-01-12 20:57:36.48	314.74	11.28	-39.7	-40.0	12.5	3.77e-03	0	35	0	39543898112	45	15609
2026-01-12 20:57:39.49	315.38	11.08	-39.5	-39.8	12.6	5.62e-03	0	35	0	39879442432	45	15128
2026-01-12 20:57:42.47	316.01	10.88	-39.6	-39.9	12.5	3.23e-03	0	35	0	40214986752	45	15392
2026-01-12 20:57:45.46	316.63	10.68	-39.6	-39.9	12.6	2.63e-03	0	35	0	40558919680	45	15341
2026-01-12 20:57:48.44	317.24	10.48	-39.4	-39.7	12.6	2.79e-03	0	35	0	40886075392	45	15047
2026-01-12 20:57:51.44	317.85	10.28	-39.5	-39.8	12.6	2.89e-03	0	35	0	41221619712	45	15237
2026-01-12 20:57:54.42	318.44	10.08	-39.5	-39.8	12.6	2.85e-03	0	35	0	41565552640	45	15212
2026-01-12 20:57:57.42	319.02	9.88	-39.8	-40.1	12.5	3.29e-03	0	35	0	41901096960	45	15691
2026-01-12 20:58:00.39	319.59	9.68	-39.7	-40.0	12.5	3.26e-03	0	35	0	42236641280	45	15554
2026-01-12 20:58:03.38	320.15	9.48	-39.7	-40.1	12.5	3.31e-03	0	35	0	42572185600	45	15670
2026-01-12 20:58:06.37	320.71	9.28	-40.1	-40.4	12.4	3.65e-03	0	35	0	42907729920	45	16256
2026-01-12 20:58:09.35	321.25	9.08	-39.9	-40.2	12.4	4.70e-03	0	35	0	43243274240	45	15909
2026-01-12 20:58:12.36	321.79	8.87	-40.1	-40.4	12.4	5.00e-03	0	35	0	43578818560	46	15319
2026-01-12 20:58:15.35	322.32	8.67	-40.0	-40.4	12.4	5.00e-03	0	35	0	43922751488	46	15326
2026-01-12 20:58:18.35	322.84	8.47	-40.1	-40.5	12.3	4.73e-03	0	35	0	44249907200	46	15479
2026-01-12 20:58:21.34	323.35	8.27	-40.2	-40.6	12.3	6.43e-03	0	35	0	44585451520	46	15661
2026-01-12 20:58:24.33	323.85	8.08	-40.2	-40.5	12.3	6.33e-03	0	35	0	44929384448	46	15560
2026-01-12 20:58:27.31	324.34	7.88	-40.4	-40.7	12.2	7.50e-03	0	35	0	45264928768	46	15943
2026-01-12 20:58:30.30	324.83	7.68	-40.4	-40.7	12.2	6.72e-03	0	35	0	45592084480	46	16000
2026-01-12 20:58:33.27	325.30	7.48	-40.7	-41.0	12.2	7.69e-03	0	35	0	45936017408	47	15500
2026-01-12 20:58:36.23	325.77	7.29	-40.7	-41.0	12.1	8.65e-03	0	35	0	46263173120	47	15630
2026-01-12 20:58:39.22	326.23	7.09	-41.5	-41.8	12.3	1.05e-02	0	35	0	46607106048	49	15255
2026-01-12 20:58:42.22	326.69	6.90	-41.7	-42.0	12.3	7.70e-03	0	35	0	46942650368	49	15514
2026-01-12 20:58:45.21	327.14	6.70	-41.5	-41.8	12.3	6.77e-03	0	35	0	47278194688	49	15169
2026-01-12 20:58:48.20	327.58	6.51	-57.7	-60.9	6.2	7.06e-03	0	35	104	47387246592	81	21806
2026-01-12 20:58:51.21	328.01	6.31	-57.5	-60.7	6.2	7.06e-03	0	34	104	47387246592	81	21350
2026-01-12 20:58:54.19	328.44	6.12	-57.5	-60.7	6.2	4.77e-04	0	34	104	47387246592	81	21348
2026-01-12 20:58:57.18	328.86	5.93	-57.5	-60.8	6.2	4.77e-04	0	34	104	47387246592	81	21383
2026-01-12 20:59:00.17	329.27	5.74	-57.5	-60.7	6.2	4.77e-04	0	34	104	47387246592	81	21205
2026-01-12 20:59:03.16	329.68	5.55	-57.5	-60.7	6.2	4.77e-04	0	34	104	47387246592	81	21330
2026-01-12 20:59:06.15	330.08	5.36	-57.3	-60.5	6.2	0.00e+00	0	34	104	47387246592	81	20821
2026-01-12 20:59:09.14	330.48	5.17	-57.4	-60.6	6.2	0.00e+00	0	33	104	47387246592	81	20900
2026-01-12 20:59:12.14	330.86	4.98	-57.7	-60.9	6.2	0.00e+00	0	33	104	47387246592	81	21768
2026-01-12 20:59:15.12	331.25	4.80	-58.7	-61.9	6.2	0.00e+00	0	33	104	47387246592	83	21787
2026-01-12 20:59:18.13	331.63	4.61	-59.0	-62.3	6.2	0.00e+00	0	33	104	47387246592	83	22673
2026-01-12 20:59:21.12	332.00	4.43	-59.4	-62.6	6.2	0.00e+00	0	33	104	47387246592	84	22348
2026-01-12 20:59:24.13	332.36	4.24	-59.5	-62.8	6.2	0.00e+00	0	33	104	47387246592	84	22660
2026-01-12 20:59:27.11	332.72	4.06	-59.6	-62.8	6.1	0.00e+00	0	33	104	47387246592	84	22794
2026-01-12 20:59:30.09	333.07	3.88	-59.6	-62.8	6.2	0.00e+00	0	33	104	47387246592	84	22836
2026-01-12 20:59:33.08	333.42	3.69	-59.6	-62.9	6.2	0.00e+00	0	33	104	47387246592	85	21616
2026-01-12 20:59:36.06	333.77	3.51	-59.5	-62.8	6.2	0.00e+00	0	33	104	47387246592	85	21360
2026-01-12 20:59:39.06	334.11	3.33	-59.5	-62.8	6.2	0.00e+00	0	33	104	47387246592	85	21370
2026-01-12 20:59:42.07	334.44	3.15	-59.5	-62.7	6.2	0.00e+00	0	33	104	47387246592	85	21275
2026-01-12 20:59:45.07	334.77	2.97	-59.5	-62.6	6.2	0.00e+00	0	33	104	47387246592	85	21107
2026-01-12 20:59:48.07	335.10	2.80	-59.5	-62.7	6.2	0.00e+00	0	33	104	47387246592	85	21169
2026-01-12 20:59:51.07	335.42	2.62	-59.4	-62.7	6.1	0.00e+00	0	33	104	47387246592	85	21204
2026-01-12 20:59:54.06	335.73	2.44	-59.4	-62.6	6.2	0.00e+00	0	33	104	47387246592	85	21084
2026-01-12 20:59:57.05	336.04	2.27	-59.4	-62.6	6.2	0.00e+00	0	33	104	47387246592	85	21043
2026-01-12 21:00:00.05	336.35	2.10	-59.4	-62.6	6.2	0.00e+00	0	33	104	47387246592	85	21013

#Closed at: 2026-01-12 21:00:01
#Recorded file [47387 MB]: D:/lorett/data/31004_260112_235049.dat