passes_logs/2026/01/12/R3.2S_Murmansk/R3.2S_Murmansk__20260112_194546_KANOPUS-V_5_rec.log

#Pass ID: 20260112_194546_KANOPUS-V 5
#Satellite: KANOPUS-V 5
#Configuration: KANOPUS-V_8320
#almurnet v.1.7.20251203
#Start time: 2026-01-12 19:45:46

#Version: 2.2.20231116
#Station: R3.2S_Murmansk
#Location: 33.079688 lon 68.888172 lat
#TLE: 1 43876U 18111A   26012.28056898  .00003514  00000+0  15053-3 0  9996
#TLE: 2 43876  97.3682 280.8443 0001794  87.9048 272.2394 15.23425790391056

#Time	Az	El	Level	Level2	SNR	BER	BlckErr	Temp	State	Recorded	gain1	gain2
2026-01-12 19:45:46.25	26.15	2.00	-58.0	-67.7	3.8	7.45e-01	0	21	0	0	80	10817
2026-01-12 19:45:48.25	26.41	2.10	-58.0	-67.7	3.8	7.45e-01	0	21	104	0	80	10843
2026-01-12 19:45:50.23	26.66	2.20	-58.0	-67.7	3.8	7.45e-01	0	21	104	0	80	10860
2026-01-12 19:45:52.24	26.92	2.31	-58.0	-67.7	3.8	7.45e-01	0	21	104	0	80	10835
2026-01-12 19:45:54.23	27.18	2.41	-58.0	-67.7	3.8	7.45e-01	0	21	104	0	80	10871
2026-01-12 19:45:56.23	27.45	2.51	-58.0	-67.7	3.8	7.46e-01	0	21	104	0	80	10855
2026-01-12 19:45:58.23	27.71	2.61	-58.0	-67.7	3.8	7.45e-01	0	21	104	0	80	10849
2026-01-12 19:46:00.24	27.98	2.71	-58.0	-67.7	3.8	7.44e-01	0	21	104	0	80	10845
2026-01-12 19:46:02.24	28.25	2.81	-58.0	-67.8	3.8	7.47e-01	0	21	104	0	80	10930
2026-01-12 19:46:04.24	28.53	2.92	-58.0	-67.7	3.8	7.45e-01	0	21	104	0	80	10826
2026-01-12 19:46:06.22	28.80	3.02	-58.0	-67.7	3.8	7.46e-01	0	21	104	0	80	10888
2026-01-12 19:46:08.23	29.08	3.12	-58.0	-67.7	3.8	7.46e-01	0	21	104	0	80	10894
2026-01-12 19:46:10.22	29.35	3.22	-58.0	-67.7	3.8	7.44e-01	0	22	104	0	80	10856
2026-01-12 19:46:12.22	29.64	3.32	-58.0	-67.7	3.8	7.45e-01	0	21	104	0	80	10894
2026-01-12 19:46:14.22	29.92	3.43	-58.0	-67.7	3.8	7.46e-01	0	21	104	0	80	10868
2026-01-12 19:46:16.22	30.21	3.53	-58.0	-67.7	3.8	7.45e-01	0	22	104	0	80	10888
2026-01-12 19:46:18.22	30.50	3.63	-58.1	-67.7	3.8	7.44e-01	0	22	104	0	80	10861
2026-01-12 19:46:20.20	30.79	3.73	-58.1	-67.8	3.8	7.46e-01	0	22	104	0	80	10947
2026-01-12 19:46:22.20	31.08	3.83	-58.1	-67.8	3.8	7.44e-01	0	22	104	0	80	10926
2026-01-12 19:46:24.21	31.38	3.94	-58.1	-67.8	3.8	7.46e-01	0	22	104	0	80	10958
2026-01-12 19:46:26.21	31.68	4.04	-58.1	-67.8	3.8	7.45e-01	0	22	104	0	80	10924
2026-01-12 19:46:28.21	31.98	4.14	-58.1	-67.8	3.8	7.46e-01	0	22	104	0	80	10945
2026-01-12 19:46:30.21	32.29	4.24	-58.1	-67.8	3.8	7.44e-01	0	22	104	0	80	10935
2026-01-12 19:46:32.22	32.60	4.35	-58.1	-67.7	3.8	7.45e-01	0	22	104	0	80	10887
2026-01-12 19:46:34.22	32.91	4.45	-58.1	-67.7	3.8	7.45e-01	0	22	104	0	80	10896
2026-01-12 19:46:36.22	33.22	4.55	-58.1	-67.8	3.8	7.47e-01	0	22	104	0	80	10911
2026-01-12 19:46:38.21	33.53	4.65	-58.1	-67.8	3.8	7.47e-01	0	22	104	0	80	10938
2026-01-12 19:46:40.19	33.85	4.75	-58.1	-67.8	3.8	7.46e-01	0	22	104	0	80	10955
2026-01-12 19:46:42.19	34.17	4.86	-58.1	-67.7	3.8	7.46e-01	0	22	104	0	80	10902
2026-01-12 19:46:44.19	34.49	4.96	-58.1	-67.8	3.8	7.45e-01	0	22	104	0	80	10963
2026-01-12 19:46:46.19	34.82	5.06	-58.1	-67.8	3.8	7.47e-01	0	22	104	0	80	10973
2026-01-12 19:46:48.18	35.15	5.16	-57.8	-67.5	3.8	7.45e-01	0	22	104	0	80	10620
2026-01-12 19:46:50.18	35.48	5.26	-58.0	-67.7	3.8	7.47e-01	0	22	104	0	80	10872
2026-01-12 19:46:52.19	35.82	5.36	-58.0	-67.7	3.8	7.44e-01	0	22	104	0	80	10804
2026-01-12 19:46:54.18	36.16	5.46	-58.0	-67.7	3.8	7.47e-01	0	22	104	0	80	10783
2026-01-12 19:46:56.17	36.49	5.56	-58.1	-67.8	3.8	7.46e-01	0	22	104	0	80	10970
2026-01-12 19:46:58.17	36.84	5.66	-58.3	-68.0	3.8	7.46e-01	0	22	104	0	80	11260
2026-01-12 19:47:00.17	37.19	5.76	-58.2	-67.9	3.8	7.45e-01	0	22	104	0	80	11055
2026-01-12 19:47:02.16	37.53	5.86	-58.4	-68.1	3.8	7.47e-01	0	22	104	0	80	11317
2026-01-12 19:47:04.16	37.89	5.96	-58.2	-67.9	3.8	7.44e-01	0	22	104	0	80	11113
2026-01-12 19:47:06.14	38.24	6.06	-58.4	-68.1	3.8	7.46e-01	0	22	104	0	80	11317
2026-01-12 19:47:08.13	38.60	6.16	-58.3	-67.9	3.8	7.45e-01	0	22	104	0	80	11146
2026-01-12 19:47:10.12	38.96	6.26	-58.4	-68.1	3.8	7.45e-01	0	22	104	0	80	11406
2026-01-12 19:47:12.12	39.32	6.36	-58.3	-68.0	3.8	7.46e-01	0	22	104	0	80	11249
2026-01-12 19:47:14.12	39.69	6.46	-58.5	-68.2	3.8	7.47e-01	0	22	104	0	80	11463
2026-01-12 19:47:16.11	40.06	6.55	-58.3	-68.0	3.8	7.46e-01	0	22	104	0	80	11223
2026-01-12 19:47:18.10	40.43	6.65	-58.5	-68.2	3.8	7.45e-01	0	22	104	0	80	11421
2026-01-12 19:47:20.10	40.81	6.75	-58.4	-68.1	3.8	7.44e-01	0	22	104	0	80	11324
2026-01-12 19:47:22.10	41.19	6.85	-58.5	-68.2	3.8	7.46e-01	0	22	104	0	80	11513
2026-01-12 19:47:24.09	41.57	6.94	-58.4	-68.1	3.8	7.45e-01	0	23	104	0	80	11366
2026-01-12 19:47:26.09	41.96	7.04	-58.5	-68.3	3.8	7.46e-01	0	23	104	0	80	11615
2026-01-12 19:47:28.08	42.34	7.13	-58.4	-68.1	3.8	7.46e-01	0	22	104	0	80	11399
2026-01-12 19:47:30.08	42.74	7.23	-58.5	-68.3	3.8	7.46e-01	0	23	104	0	80	11582
2026-01-12 19:47:32.08	43.13	7.32	-58.5	-68.1	3.8	7.45e-01	0	23	104	0	80	11417
2026-01-12 19:47:34.07	43.53	7.42	-58.6	-68.3	3.8	7.45e-01	0	23	104	0	80	11577
2026-01-12 19:47:36.07	43.93	7.51	-58.5	-68.2	3.8	7.44e-01	0	22	104	0	80	11467
2026-01-12 19:47:38.06	44.33	7.60	-58.6	-68.3	3.8	7.43e-01	0	22	104	0	80	11623
2026-01-12 19:47:40.06	44.74	7.70	-58.5	-68.2	3.8	7.46e-01	0	23	104	0	80	11513
2026-01-12 19:47:42.06	45.15	7.79	-58.6	-68.3	3.8	7.45e-01	0	23	104	0	80	11646
2026-01-12 19:47:44.06	45.57	7.88	-58.5	-68.3	3.8	7.46e-01	0	23	104	0	80	11559
2026-01-12 19:47:46.05	45.99	7.97	-58.6	-68.3	3.8	7.46e-01	0	23	104	0	80	11659
2026-01-12 19:47:48.05	46.41	8.06	-58.6	-68.2	3.8	7.46e-01	0	23	104	0	80	11526
2026-01-12 19:47:50.04	46.83	8.15	-58.6	-68.4	3.8	7.45e-01	0	23	104	0	80	11690
2026-01-12 19:47:52.03	47.25	8.24	-58.6	-68.3	3.8	7.45e-01	0	23	104	0	80	11589
2026-01-12 19:47:54.02	47.68	8.32	-58.6	-68.3	3.8	7.46e-01	0	23	104	0	80	11665
2026-01-12 19:47:56.01	48.11	8.41	-58.6	-68.3	3.8	7.46e-01	0	23	104	0	80	11575
2026-01-12 19:47:58.00	48.55	8.49	-58.7	-68.4	3.8	7.45e-01	0	23	104	0	80	11715
2026-01-12 19:47:59.99	48.99	8.58	-58.6	-68.3	3.8	7.46e-01	0	23	104	0	80	11639
2026-01-12 19:48:01.98	49.43	8.66	-58.7	-68.4	3.8	7.46e-01	0	23	104	0	80	11727
2026-01-12 19:48:03.98	49.88	8.75	-58.6	-68.3	3.8	7.46e-01	0	23	104	0	80	11655
2026-01-12 19:48:05.98	50.32	8.83	-58.7	-68.4	3.8	7.45e-01	0	23	104	0	80	11772
2026-01-12 19:48:07.98	50.78	8.91	-58.6	-68.3	3.8	7.46e-01	0	23	104	0	80	11665
2026-01-12 19:48:09.97	51.23	8.99	-58.7	-68.4	3.8	7.44e-01	0	23	104	0	80	11807
2026-01-12 19:48:11.96	51.69	9.07	-58.7	-68.4	3.8	7.44e-01	0	23	104	0	80	11697
2026-01-12 19:48:13.96	52.15	9.15	-58.7	-68.4	3.8	7.48e-01	0	23	104	0	80	11769
2026-01-12 19:48:15.96	52.61	9.23	-58.7	-68.4	3.8	7.45e-01	0	23	104	0	80	11716
2026-01-12 19:48:17.96	53.08	9.30	-58.7	-68.4	3.8	7.45e-01	0	23	104	0	80	11774
2026-01-12 19:48:19.95	53.55	9.38	-58.7	-68.4	3.8	7.45e-01	0	23	104	0	80	11708
2026-01-12 19:48:21.95	54.02	9.45	-58.7	-68.5	3.8	7.47e-01	0	23	104	0	80	11828
2026-01-12 19:48:23.94	54.50	9.52	-58.7	-68.4	3.8	7.46e-01	0	23	104	0	80	11739
2026-01-12 19:48:25.95	54.98	9.60	-58.8	-68.4	3.8	7.45e-01	0	23	104	0	80	11817
2026-01-12 19:48:27.94	55.46	9.67	-58.7	-68.4	3.8	7.46e-01	0	23	104	0	80	11732
2026-01-12 19:48:29.95	55.95	9.74	-58.8	-68.4	3.8	7.46e-01	0	23	104	0	80	11792
2026-01-12 19:48:31.94	56.43	9.80	-58.7	-68.4	3.8	7.45e-01	0	23	104	0	80	11774
2026-01-12 19:48:33.94	56.92	9.87	-58.8	-68.5	3.8	7.45e-01	0	23	104	0	80	11833
2026-01-12 19:48:35.93	57.42	9.93	-58.7	-68.5	3.8	7.45e-01	0	23	104	0	80	11847
2026-01-12 19:48:37.92	57.91	10.00	-58.8	-68.5	3.8	7.45e-01	0	23	104	0	80	11938
2026-01-12 19:48:39.91	58.41	10.06	-58.7	-68.4	3.8	7.45e-01	0	23	104	0	80	11806
2026-01-12 19:48:41.90	58.90	10.12	-58.8	-68.5	3.8	7.46e-01	0	23	104	0	80	11909
2026-01-12 19:48:43.90	59.41	10.18	-58.7	-68.5	3.8	7.44e-01	0	23	104	0	80	11821
2026-01-12 19:48:45.88	59.91	10.24	-58.8	-68.5	3.8	7.46e-01	0	23	104	0	80	11924
2026-01-12 19:48:47.88	60.42	10.29	-58.8	-68.5	3.8	7.46e-01	0	23	104	0	80	11831
2026-01-12 19:48:49.87	60.93	10.35	-58.8	-68.5	3.8	7.44e-01	0	23	104	0	80	11915
2026-01-12 19:48:51.87	61.44	10.40	-58.8	-68.5	3.8	7.44e-01	0	23	104	0	80	11832
2026-01-12 19:48:53.86	61.95	10.45	-58.8	-68.5	3.8	7.46e-01	0	23	104	0	80	11905
2026-01-12 19:48:55.85	62.47	10.50	-58.8	-68.5	3.8	7.44e-01	0	23	104	0	80	11879
2026-01-12 19:48:57.85	62.99	10.55	-58.8	-68.5	3.8	7.45e-01	0	23	104	0	80	11945
2026-01-12 19:48:59.83	63.50	10.60	-58.8	-68.5	3.8	7.45e-01	0	23	104	0	80	11863
2026-01-12 19:49:01.81	64.02	10.64	-58.9	-68.6	3.8	7.45e-01	0	23	104	0	80	11989
2026-01-12 19:49:03.81	64.55	10.69	-58.8	-68.5	3.8	7.45e-01	0	23	104	0	80	11876
2026-01-12 19:49:05.81	65.08	10.73	-58.9	-68.5	3.8	7.45e-01	0	23	104	0	80	11945
2026-01-12 19:49:07.80	65.60	10.77	-58.8	-68.5	3.8	7.45e-01	0	23	104	0	80	11866
2026-01-12 19:49:09.80	66.13	10.81	-58.9	-68.6	3.8	7.44e-01	0	23	104	0	80	11995
2026-01-12 19:49:11.80	66.67	10.84	-58.8	-68.5	3.8	7.46e-01	0	23	104	0	80	11953
2026-01-12 19:49:13.79	67.20	10.88	-58.9	-68.6	3.8	7.47e-01	0	23	104	0	81	11364
2026-01-12 19:49:15.79	67.73	10.91	-58.9	-68.6	3.8	7.45e-01	0	23	104	0	81	11321
2026-01-12 19:49:17.78	68.27	10.94	-58.9	-68.6	3.8	7.45e-01	0	23	104	0	81	11343
2026-01-12 19:49:19.78	68.81	10.97	-58.9	-68.6	3.8	7.45e-01	0	23	104	0	81	11347
2026-01-12 19:49:21.79	69.35	10.99	-58.9	-68.7	3.8	7.45e-01	0	23	104	0	81	11423
2026-01-12 19:49:23.79	69.89	11.02	-58.9	-68.6	3.8	7.45e-01	0	23	104	0	81	11329
2026-01-12 19:49:25.79	70.43	11.04	-58.9	-68.7	3.8	7.46e-01	0	23	104	0	81	11432
2026-01-12 19:49:27.79	70.98	11.06	-58.9	-68.5	3.8	7.46e-01	0	23	104	0	81	11284
2026-01-12 19:49:29.79	71.52	11.08	-58.9	-68.6	3.8	7.46e-01	0	23	104	0	81	11396
2026-01-12 19:49:31.79	72.07	11.10	-58.9	-68.6	3.8	7.44e-01	0	23	104	0	81	11355
2026-01-12 19:49:33.78	72.61	11.11	-58.9	-68.7	3.8	7.45e-01	0	23	104	0	81	11418
2026-01-12 19:49:35.78	73.16	11.13	-58.9	-68.6	3.8	7.46e-01	0	23	104	0	81	11338
2026-01-12 19:49:37.78	73.70	11.14	-58.9	-68.6	3.8	7.45e-01	0	23	104	0	81	11413
2026-01-12 19:49:39.76	74.24	11.15	-58.9	-68.6	3.8	7.45e-01	0	23	104	0	81	11324
2026-01-12 19:49:41.75	74.79	11.15	-58.9	-68.7	3.8	7.47e-01	0	23	104	0	81	11419
2026-01-12 19:49:43.75	75.34	11.16	-58.9	-68.6	3.8	7.45e-01	0	23	104	0	81	11316
2026-01-12 19:49:45.74	75.88	11.16	-58.9	-68.7	3.8	7.47e-01	0	23	104	0	81	11436
2026-01-12 19:49:47.73	76.43	11.16	-58.9	-68.6	3.8	7.46e-01	0	23	104	0	81	11309
2026-01-12 19:49:49.73	76.98	11.16	-58.9	-68.7	3.8	7.45e-01	0	23	104	0	81	11421
2026-01-12 19:49:51.73	77.53	11.16	-58.9	-68.6	3.8	7.46e-01	0	23	104	0	81	11376
2026-01-12 19:49:53.72	78.07	11.15	-58.9	-68.7	3.8	7.45e-01	0	23	104	0	81	11428
2026-01-12 19:49:55.71	78.62	11.15	-58.9	-68.6	3.8	7.45e-01	0	23	104	0	81	11374
2026-01-12 19:49:57.70	79.16	11.14	-59.0	-68.7	3.8	7.45e-01	0	23	104	0	81	11425
2026-01-12 19:49:59.69	79.71	11.13	-58.9	-68.6	3.8	7.45e-01	0	23	104	0	81	11331
2026-01-12 19:50:01.69	80.25	11.11	-59.0	-68.7	3.8	7.47e-01	0	23	104	0	81	11418
2026-01-12 19:50:03.68	80.80	11.10	-58.9	-68.6	3.8	7.44e-01	0	23	104	0	81	11399
2026-01-12 19:50:05.67	81.34	11.08	-59.0	-68.6	3.8	7.47e-01	0	23	104	0	81	11417
2026-01-12 19:50:07.66	81.88	11.06	-58.9	-68.6	3.8	7.46e-01	0	23	104	0	81	11366
2026-01-12 19:50:09.66	82.42	11.04	-59.0	-68.7	3.8	7.46e-01	0	23	104	0	81	11453
2026-01-12 19:50:11.66	82.97	11.02	-58.9	-68.6	3.8	7.46e-01	0	23	104	0	81	11373
2026-01-12 19:50:13.66	83.51	10.99	-59.0	-68.7	3.8	7.45e-01	0	23	104	0	81	11469
2026-01-12 19:50:15.64	84.04	10.97	-58.9	-68.6	3.8	7.45e-01	0	23	104	0	81	11371
2026-01-12 19:50:17.64	84.58	10.94	-59.0	-68.7	3.8	7.45e-01	0	23	104	0	81	11472
2026-01-12 19:50:19.65	85.12	10.91	-58.9	-68.6	3.8	7.47e-01	0	23	104	0	81	11364
2026-01-12 19:50:21.66	85.66	10.88	-59.0	-68.7	3.8	7.46e-01	0	23	104	0	81	11451
2026-01-12 19:50:23.65	86.20	10.84	-58.5	-68.6	3.8	7.47e-01	0	23	104	0	80	12051
2026-01-12 19:50:25.65	86.73	10.80	-49.9	-52.9	12.4	6.10e-01	0	23	0	8388608	64	4952
2026-01-12 19:50:27.64	87.26	10.77	-51.2	-54.3	11.6	6.13e-01	0	23	0	37748736	67	4883
2026-01-12 19:50:29.64	87.79	10.73	-49.3	-52.2	12.8	6.10e-01	0	23	0	69206016	63	4829
2026-01-12 19:50:31.64	88.32	10.68	-49.1	-51.9	12.9	6.10e-01	0	23	0	98566144	62	4973
2026-01-12 19:50:33.64	88.85	10.64	-49.1	-51.8	12.9	6.10e-01	0	23	0	130023424	62	4919
2026-01-12 19:50:35.63	89.37	10.60	-49.1	-51.9	12.9	6.10e-01	0	23	0	161480704	62	4935
2026-01-12 19:50:37.63	89.89	10.55	-49.2	-52.1	12.7	6.09e-01	0	23	0	190840832	62	5076
2026-01-12 19:50:39.62	90.41	10.50	-49.3	-52.2	12.6	6.10e-01	0	23	0	222298112	62	5148
2026-01-12 19:50:41.61	90.93	10.45	-49.3	-52.2	12.7	6.10e-01	0	23	0	253755392	62	5116
2026-01-12 19:50:43.61	91.45	10.40	-49.3	-52.1	12.7	6.10e-01	0	23	0	283115520	62	5066
2026-01-12 19:50:45.60	91.96	10.35	-49.3	-52.2	12.7	5.83e-01	0	23	0	314572800	62	5118
2026-01-12 19:50:47.59	92.47	10.29	-49.4	-52.3	12.6	5.84e-01	0	23	0	343932928	62	5201
2026-01-12 19:50:49.58	92.98	10.23	-49.3	-52.4	12.6	5.84e-01	0	23	0	375390208	62	5232
2026-01-12 19:50:51.58	93.48	10.18	-49.3	-52.5	12.5	5.85e-01	0	23	0	406847488	62	5286
2026-01-12 19:50:53.57	93.99	10.12	-49.4	-52.7	12.4	5.85e-01	0	23	0	436207616	62	5410
2026-01-12 19:50:55.56	94.49	10.06	-49.7	-52.9	12.2	5.84e-01	0	23	0	467664896	62	5564
2026-01-12 19:50:57.55	94.98	9.99	-49.6	-52.8	12.3	5.84e-01	0	23	0	497025024	62	5487
2026-01-12 19:50:59.56	95.48	9.93	-49.6	-52.8	12.2	5.83e-01	0	23	0	528482304	62	5502
2026-01-12 19:51:01.56	95.98	9.86	-49.8	-52.9	12.1	5.85e-01	0	23	0	559939584	62	5542
2026-01-12 19:51:03.56	96.47	9.80	-49.6	-52.6	12.4	5.84e-01	0	23	0	589299712	62	5359
2026-01-12 19:51:05.56	96.96	9.73	-49.6	-52.6	12.3	5.84e-01	0	23	0	620756992	62	5367
2026-01-12 19:51:07.57	97.45	9.66	-49.7	-52.8	12.2	5.84e-01	0	23	0	652214272	62	5494
2026-01-12 19:51:09.57	97.94	9.59	-49.7	-52.8	12.2	5.85e-01	0	23	0	681574400	62	5515
2026-01-12 19:51:11.56	98.41	9.52	-49.7	-52.8	12.2	5.84e-01	0	23	0	713031680	62	5482
2026-01-12 19:51:13.56	98.89	9.44	-49.7	-52.8	12.2	6.01e-01	0	23	0	744488960	62	5473
2026-01-12 19:51:15.56	99.37	9.37	-49.7	-52.7	12.2	6.04e-01	0	23	0	773849088	62	5446
2026-01-12 19:51:17.56	99.84	9.29	-49.7	-52.7	12.2	6.02e-01	0	23	0	805306368	62	5416
2026-01-12 19:51:19.56	100.31	9.21	-49.6	-52.5	12.3	6.02e-01	0	23	0	836763648	62	5319
2026-01-12 19:51:21.55	100.78	9.14	-49.6	-52.5	12.3	6.04e-01	0	23	0	866123776	62	5321
2026-01-12 19:51:23.54	101.24	9.06	-49.8	-52.7	12.2	6.00e-01	0	23	0	897581056	62	5427
2026-01-12 19:51:25.54	101.70	8.98	-49.8	-52.8	12.1	6.04e-01	0	23	0	926941184	62	5478
2026-01-12 19:51:27.55	102.16	8.90	-50.0	-53.0	12.1	6.03e-01	0	23	0	958398464	63	5292
2026-01-12 19:51:29.55	102.61	8.81	-50.2	-53.2	11.9	6.06e-01	0	23	0	989855744	63	5408
2026-01-12 19:51:31.55	103.06	8.73	-50.4	-53.4	11.7	6.05e-01	0	23	0	1019215872	63	5556
2026-01-12 19:51:33.54	103.51	8.65	-50.3	-53.4	11.9	6.05e-01	0	23	0	1050673152	64	5220
2026-01-12 19:51:35.53	103.95	8.56	-50.2	-53.2	12.0	6.02e-01	0	23	0	1080033280	64	5138
2026-01-12 19:51:37.53	104.39	8.48	-50.3	-53.3	11.9	6.03e-01	0	23	0	1111490560	64	5190
2026-01-12 19:51:39.54	104.84	8.39	-50.3	-53.4	11.9	6.02e-01	0	23	0	1142947840	64	5254
2026-01-12 19:51:41.53	105.27	8.30	-50.4	-53.5	11.8	6.02e-01	0	23	0	1172307968	64	5319
2026-01-12 19:51:43.52	105.70	8.22	-50.4	-53.5	11.8	6.02e-01	0	23	0	1203765248	64	5313
2026-01-12 19:51:45.52	106.13	8.13	-50.5	-53.6	11.6	6.03e-01	0	23	0	1235222528	64	5391
2026-01-12 19:51:47.51	106.55	8.04	-50.4	-53.5	11.8	6.01e-01	0	23	0	1264582656	64	5296
2026-01-12 19:51:49.50	106.97	7.95	-50.6	-53.7	11.6	6.05e-01	0	23	0	1296039936	64	5430
2026-01-12 19:51:51.49	107.39	7.86	-50.6	-53.7	11.6	6.04e-01	0	23	0	1325400064	64	5431
2026-01-12 19:51:53.49	107.81	7.76	-50.7	-53.7	11.6	6.06e-01	0	23	0	1356857344	64	5414
2026-01-12 19:51:55.48	108.22	7.67	-50.6	-53.5	11.7	6.07e-01	0	23	0	1388314624	64	5340
2026-01-12 19:51:57.47	108.63	7.58	-50.7	-53.7	11.6	6.02e-01	0	23	0	1417674752	64	5417
2026-01-12 19:51:59.47	109.04	7.49	-50.9	-53.8	11.5	6.04e-01	0	23	0	1449132032	64	5492
2026-01-12 19:52:01.47	109.44	7.39	-50.9	-53.8	11.6	5.99e-01	0	23	0	1478492160	65	5183
2026-01-12 19:52:03.47	109.84	7.30	-50.9	-53.8	11.6	6.03e-01	0	23	0	1509949440	65	5178
2026-01-12 19:52:05.46	110.24	7.20	-50.8	-53.8	11.6	6.04e-01	0	23	0	1541406720	65	5161
2026-01-12 19:52:07.46	110.63	7.11	-51.1	-54.2	11.3	6.06e-01	0	23	0	1570766848	65	5413
2026-01-12 19:52:09.45	111.02	7.01	-51.1	-54.3	11.2	6.04e-01	0	23	0	1602224128	65	5476
2026-01-12 19:52:11.45	111.41	6.91	-51.2	-54.3	11.1	6.09e-01	0	23	0	1633681408	65	5495
2026-01-12 19:52:13.45	111.79	6.82	-51.1	-54.2	11.2	6.08e-01	0	23	0	1663041536	65	5424
2026-01-12 19:52:15.44	112.17	6.72	-51.3	-54.3	11.1	6.09e-01	0	23	0	1694498816	65	5505
2026-01-12 19:52:17.44	112.55	6.62	-51.3	-54.3	11.0	6.10e-01	0	23	0	1723858944	65	5524
2026-01-12 19:52:19.43	112.93	6.52	-51.3	-54.5	10.9	6.11e-01	0	23	0	1755316224	65	5624
2026-01-12 19:52:21.43	113.30	6.42	-51.2	-54.4	11.0	6.07e-01	0	23	0	1786773504	65	5561
2026-01-12 19:52:23.43	113.67	6.32	-51.2	-54.4	11.0	6.11e-01	0	23	0	1816133632	65	5530
2026-01-12 19:52:25.43	114.03	6.22	-51.3	-54.5	10.9	6.13e-01	0	23	0	1847590912	65	5602
2026-01-12 19:52:27.43	114.40	6.12	-51.1	-54.2	11.1	6.11e-01	0	23	0	1879048192	65	5422
2026-01-12 19:52:29.40	114.75	6.03	-50.9	-53.9	11.3	5.99e-01	0	23	0	1908408320	65	5259
2026-01-12 19:52:31.40	115.11	5.93	-51.5	-54.6	10.8	6.12e-01	0	23	0	1939865600	66	5345
2026-01-12 19:52:33.40	115.46	5.83	-51.2	-54.0	11.3	6.09e-01	0	23	0	1969225728	66	5008
2026-01-12 19:52:35.40	115.82	5.72	-51.3	-54.2	11.1	6.06e-01	0	23	0	2000683008	66	5125
2026-01-12 19:52:37.39	116.16	5.62	-51.4	-54.2	11.0	6.02e-01	0	23	0	2032140288	66	5133
2026-01-12 19:52:39.40	116.51	5.52	-51.3	-54.2	11.0	6.06e-01	0	23	0	2061500416	66	5126
2026-01-12 19:52:41.39	116.85	5.42	-51.6	-54.7	10.6	6.07e-01	0	23	0	2092957696	66	5413
2026-01-12 19:52:43.38	117.19	5.32	-51.6	-54.8	10.5	6.00e-01	0	23	0	2122317824	66	5509
2026-01-12 19:52:45.37	117.52	5.22	-51.6	-54.7	10.5	6.10e-01	0	23	0	2153775104	66	5438
2026-01-12 19:52:47.36	117.86	5.12	-51.8	-55.0	10.2	6.15e-01	0	23	0	2185232384	66	5620
2026-01-12 19:52:49.35	118.18	5.01	-51.6	-54.9	10.4	6.08e-01	0	23	0	2214592512	66	5549
2026-01-12 19:52:51.34	118.51	4.91	-58.8	-68.4	3.8	7.45e-01	0	23	104	2225078272	80	11758
2026-01-12 19:52:53.34	118.84	4.81	-59.3	-69.0	3.8	7.44e-01	0	23	104	2225078272	81	11872
2026-01-12 19:52:55.34	119.16	4.71	-59.6	-69.3	3.8	7.44e-01	0	23	104	2225078272	82	11583
2026-01-12 19:52:57.33	119.48	4.61	-59.8	-69.5	3.8	7.45e-01	0	23	104	2225078272	82	11892
2026-01-12 19:52:59.33	119.79	4.50	-60.0	-69.7	3.8	7.45e-01	0	23	104	2225078272	83	11442
2026-01-12 19:53:01.33	120.11	4.40	-60.0	-69.8	3.8	7.43e-01	0	23	104	2225078272	83	11575
2026-01-12 19:53:03.33	120.42	4.30	-60.1	-69.8	3.8	7.45e-01	0	23	104	2225078272	83	11659
2026-01-12 19:53:05.34	120.73	4.19	-60.1	-69.8	3.8	7.46e-01	0	23	104	2225078272	83	11676
2026-01-12 19:53:07.33	121.03	4.09	-60.2	-69.9	3.8	7.46e-01	0	23	104	2225078272	83	11752
2026-01-12 19:53:09.32	121.34	3.99	-60.2	-69.9	3.8	7.45e-01	0	23	104	2225078272	83	11784
2026-01-12 19:53:11.31	121.64	3.89	-60.3	-70.0	3.8	7.45e-01	0	23	104	2225078272	83	11834
2026-01-12 19:53:13.30	121.93	3.78	-60.3	-70.0	3.8	7.46e-01	0	23	104	2225078272	83	11896
2026-01-12 19:53:15.30	122.23	3.68	-60.3	-70.0	3.8	7.45e-01	0	23	104	2225078272	83	11929
2026-01-12 19:53:17.30	122.52	3.58	-60.4	-70.1	3.8	7.45e-01	0	23	104	2225078272	83	12077
2026-01-12 19:53:19.30	122.81	3.47	-60.3	-70.1	3.8	7.48e-01	0	23	104	2225078272	83	11986
2026-01-12 19:53:21.30	123.10	3.37	-60.3	-70.1	3.8	7.46e-01	0	23	104	2225078272	83	11990
2026-01-12 19:53:23.31	123.39	3.27	-60.3	-70.0	3.8	7.44e-01	0	23	104	2225078272	83	11924
2026-01-12 19:53:25.30	123.67	3.16	-60.3	-70.1	3.8	7.46e-01	0	23	104	2225078272	83	11975
2026-01-12 19:53:27.29	123.95	3.06	-60.3	-70.0	3.8	7.45e-01	0	23	104	2225078272	83	11891
2026-01-12 19:53:29.30	124.23	2.96	-60.3	-70.0	3.8	7.45e-01	0	23	104	2225078272	83	11920
2026-01-12 19:53:31.31	124.50	2.85	-60.3	-70.0	3.8	7.46e-01	0	23	104	2225078272	83	11895
2026-01-12 19:53:33.32	124.78	2.75	-60.3	-70.0	3.8	7.46e-01	0	23	104	2225078272	83	11938
2026-01-12 19:53:35.32	125.05	2.65	-60.3	-70.0	3.8	7.45e-01	0	23	104	2225078272	83	11910
2026-01-12 19:53:37.32	125.32	2.55	-60.3	-70.0	3.8	7.46e-01	0	23	104	2225078272	83	11891
2026-01-12 19:53:39.31	125.58	2.44	-60.3	-70.0	3.8	7.46e-01	0	23	104	2225078272	83	11878
2026-01-12 19:53:41.30	125.85	2.34	-60.3	-70.0	3.8	7.44e-01	0	23	104	2225078272	83	11862
2026-01-12 19:53:43.30	126.11	2.24	-60.2	-70.0	3.8	7.45e-01	0	23	104	2225078272	83	11838
2026-01-12 19:53:45.30	126.37	2.14	-60.2	-69.9	3.8	7.46e-01	0	23	104	2225078272	83	11805
2026-01-12 19:53:47.30	126.63	2.03	-60.2	-70.0	3.8	7.46e-01	0	23	104	2225078272	83	11834
2026-01-12 19:53:49.29	126.88	1.93	-60.2	-70.0	3.8	7.45e-01	0	23	104	2225078272	83	11848

#Closed at: 2026-01-12 19:53:50
#Recorded file [2225 MB]: D:/lorett/data/31004_260112_224546.dat