passes_logs/2026/01/12/R3.2S_Murmansk/R3.2S_Murmansk__20260112_132238_AQUA_rec.log

#Pass ID: 20260112_132238_AQUA
#Satellite: AQUA
#Configuration: AQUA
#almurnet v.1.7.20251203
#Start time: 2026-01-12 13:22:38

#Version: 2.2.20231116
#Station: R3.2S_Murmansk
#Location: 33.079688 lon 68.888172 lat
#TLE: 1 27424U 02022A   26011.60158398  .00001056  00000+0  22133-3 0  9990
#TLE: 2 27424  98.4078 337.9720 0002034  82.3051 337.8743 14.61815760260390

#Time	Az	El	Level	Level2	SNR	BER	BlckErr	Temp	State	Recorded	gain1	gain2
2026-01-12 13:22:38.65	207.82	2.00	-58.6	-77.9	3.8	7.45e-01	0	21	0	0	84	36183
2026-01-12 13:22:41.66	208.04	2.18	-58.5	-77.9	3.8	7.45e-01	0	21	104	0	84	36132
2026-01-12 13:22:44.67	208.27	2.36	-58.5	-77.9	3.8	7.45e-01	0	21	104	0	84	36126
2026-01-12 13:22:47.65	208.50	2.53	-58.5	-77.8	3.8	7.46e-01	0	21	104	0	84	36045
2026-01-12 13:22:50.66	208.73	2.71	-58.5	-77.8	3.8	7.44e-01	0	21	104	0	84	36077
2026-01-12 13:22:53.66	208.97	2.89	-58.5	-77.8	3.8	7.49e-01	0	21	104	0	84	36099
2026-01-12 13:22:56.66	209.21	3.07	-58.5	-77.8	3.8	7.47e-01	0	21	104	0	84	35991
2026-01-12 13:22:59.67	209.45	3.25	-58.5	-77.8	3.8	7.44e-01	0	21	104	0	84	36044
2026-01-12 13:23:02.68	209.70	3.43	-58.5	-77.9	3.8	7.45e-01	0	21	104	0	84	36108
2026-01-12 13:23:05.68	209.95	3.62	-58.5	-77.9	3.8	7.44e-01	0	21	104	0	84	36107
2026-01-12 13:23:08.69	210.20	3.80	-58.5	-77.8	3.8	7.45e-01	0	21	104	0	84	36040
2026-01-12 13:23:11.69	210.45	3.98	-58.5	-77.9	3.8	7.45e-01	0	22	104	0	84	36163
2026-01-12 13:23:14.70	210.71	4.17	-58.5	-77.8	3.8	7.43e-01	0	21	104	0	84	36087
2026-01-12 13:23:17.70	210.98	4.36	-58.5	-77.9	3.8	7.46e-01	0	22	104	0	84	36117
2026-01-12 13:23:20.69	211.24	4.54	-58.5	-77.9	3.8	7.48e-01	0	22	104	0	84	36119
2026-01-12 13:23:23.69	211.51	4.73	-58.5	-77.9	3.8	7.46e-01	0	21	104	0	84	36116
2026-01-12 13:23:26.69	211.78	4.92	-58.5	-77.9	3.8	7.48e-01	0	22	104	0	84	36111
2026-01-12 13:23:29.69	212.06	5.11	-58.5	-77.8	3.8	7.46e-01	0	22	104	0	84	36023
2026-01-12 13:23:32.69	212.34	5.30	-58.5	-77.8	3.8	7.46e-01	0	22	104	0	84	36044
2026-01-12 13:23:35.69	212.62	5.50	-58.5	-77.8	3.8	7.45e-01	0	22	104	0	84	36013
2026-01-12 13:23:38.70	212.91	5.69	-58.5	-77.8	3.8	7.44e-01	0	22	104	0	84	35951
2026-01-12 13:23:41.69	213.20	5.88	-58.5	-77.8	3.8	7.49e-01	0	22	104	0	84	35936
2026-01-12 13:23:44.69	213.50	6.08	-58.5	-77.8	3.8	7.44e-01	0	22	104	0	84	36064
2026-01-12 13:23:47.70	213.80	6.28	-58.5	-77.8	3.8	7.43e-01	0	22	104	0	84	36054
2026-01-12 13:23:50.70	214.11	6.47	-58.5	-77.9	3.8	7.47e-01	0	22	104	0	84	36138
2026-01-12 13:23:53.68	214.41	6.67	-58.5	-77.8	3.8	7.43e-01	0	22	104	0	84	36045
2026-01-12 13:23:56.69	214.73	6.87	-58.5	-77.8	3.8	7.45e-01	0	22	104	0	84	35987
2026-01-12 13:23:59.68	215.05	7.07	-58.5	-77.8	3.8	7.45e-01	0	22	104	0	84	36049
2026-01-12 13:24:02.67	215.37	7.27	-58.5	-77.8	3.8	7.46e-01	0	22	104	0	84	36028
2026-01-12 13:24:05.66	215.69	7.48	-58.5	-77.8	3.8	7.45e-01	0	22	104	0	84	36029
2026-01-12 13:24:08.66	216.03	7.68	-58.5	-77.8	3.8	7.48e-01	0	22	104	0	84	36069
2026-01-12 13:24:11.66	216.36	7.89	-58.5	-77.8	3.8	7.46e-01	0	22	104	0	84	36061
2026-01-12 13:24:14.65	216.70	8.09	-58.5	-77.8	3.8	7.45e-01	0	22	104	0	84	36021
2026-01-12 13:24:17.63	217.05	8.30	-58.5	-77.8	3.8	7.46e-01	0	22	104	0	84	36007
2026-01-12 13:24:20.62	217.40	8.50	-58.5	-77.8	3.8	7.47e-01	0	22	104	0	84	36050
2026-01-12 13:24:23.61	217.76	8.71	-58.5	-77.8	3.8	7.46e-01	0	22	104	0	84	36066
2026-01-12 13:24:26.59	218.12	8.92	-58.5	-77.8	3.8	7.48e-01	0	22	104	0	84	35976
2026-01-12 13:24:29.57	218.48	9.13	-58.5	-77.8	3.8	7.47e-01	0	22	104	0	84	35910
2026-01-12 13:24:32.56	218.85	9.34	-58.5	-77.8	3.8	7.49e-01	0	22	104	0	84	35953
2026-01-12 13:24:35.56	219.23	9.56	-58.5	-77.8	3.8	7.49e-01	0	22	104	0	84	36073
2026-01-12 13:24:38.55	219.62	9.77	-58.5	-77.8	3.8	7.51e-01	0	22	104	0	84	36016
2026-01-12 13:24:41.54	220.01	9.99	-58.5	-77.8	3.8	7.48e-01	0	22	104	0	84	35987
2026-01-12 13:24:44.53	220.41	10.20	-58.5	-77.8	3.8	7.50e-01	0	22	104	0	84	35989
2026-01-12 13:24:47.53	220.81	10.42	-58.5	-77.8	3.8	7.46e-01	0	22	104	0	84	35851
2026-01-12 13:24:50.51	221.22	10.64	-58.5	-77.8	3.8	7.47e-01	0	22	104	0	84	35920
2026-01-12 13:24:53.51	221.63	10.86	-58.5	-77.8	3.8	7.47e-01	0	22	104	0	84	35804
2026-01-12 13:24:56.51	222.06	11.08	-58.5	-77.8	3.8	7.45e-01	0	22	104	0	84	35951
2026-01-12 13:24:59.50	222.48	11.30	-58.5	-77.8	3.8	7.49e-01	0	22	104	0	84	35865
2026-01-12 13:25:02.50	222.92	11.52	-58.5	-77.8	3.8	7.46e-01	0	22	104	0	84	35880
2026-01-12 13:25:05.50	223.36	11.74	-58.5	-77.8	3.8	7.47e-01	0	22	104	0	84	35923
2026-01-12 13:25:08.49	223.81	11.96	-58.5	-77.8	3.8	7.46e-01	0	22	104	0	84	35827
2026-01-12 13:25:11.49	224.27	12.19	-58.5	-77.8	3.8	7.47e-01	0	22	104	0	84	35878
2026-01-12 13:25:14.48	224.73	12.41	-58.5	-77.8	3.8	7.49e-01	0	22	104	0	84	35872
2026-01-12 13:25:17.47	225.21	12.64	-58.5	-77.8	3.8	7.46e-01	0	22	104	0	84	35850
2026-01-12 13:25:20.47	225.69	12.86	-58.5	-77.8	3.8	7.47e-01	0	22	104	0	84	35722
2026-01-12 13:25:23.45	226.17	13.09	-58.5	-77.8	3.8	7.46e-01	0	22	104	0	84	35861
2026-01-12 13:25:26.45	226.67	13.32	-58.5	-77.8	3.8	7.45e-01	0	22	104	0	84	35768
2026-01-12 13:25:29.45	227.17	13.55	-58.5	-77.8	3.8	7.47e-01	0	22	104	0	84	35720
2026-01-12 13:25:32.44	227.68	13.77	-58.5	-77.8	3.8	7.46e-01	0	23	104	0	84	35823
2026-01-12 13:25:35.44	228.20	14.00	-58.5	-77.8	3.8	7.46e-01	0	22	104	0	84	35753
2026-01-12 13:25:38.42	228.72	14.23	-58.5	-77.8	3.8	7.44e-01	0	22	104	0	84	35843
2026-01-12 13:25:41.43	229.26	14.46	-58.5	-77.8	3.8	7.47e-01	0	22	104	0	84	35786
2026-01-12 13:25:44.42	229.81	14.69	-58.4	-77.8	3.8	7.45e-01	0	22	104	0	84	35724
2026-01-12 13:25:47.40	230.36	14.92	-58.5	-77.8	3.8	7.45e-01	0	22	104	0	84	35783
2026-01-12 13:25:50.41	230.92	15.15	-58.4	-77.8	3.8	7.47e-01	0	23	104	0	84	35711
2026-01-12 13:25:53.39	231.49	15.38	-58.5	-77.8	3.8	7.45e-01	0	22	104	0	84	35697
2026-01-12 13:25:56.37	232.07	15.60	-58.5	-77.8	3.8	7.45e-01	0	23	104	0	84	35754
2026-01-12 13:25:59.37	232.66	15.83	-58.5	-77.8	3.8	7.46e-01	0	23	104	0	84	35783
2026-01-12 13:26:02.36	233.25	16.06	-58.4	-77.7	3.8	7.46e-01	0	22	104	0	84	35671
2026-01-12 13:26:05.38	233.87	16.29	-58.4	-77.8	3.8	7.47e-01	0	23	104	0	84	35719
2026-01-12 13:26:08.38	234.49	16.52	-58.4	-77.8	3.8	7.46e-01	0	23	104	0	84	35748
2026-01-12 13:26:11.38	235.12	16.74	-58.4	-77.8	3.8	7.46e-01	0	23	104	0	84	35730
2026-01-12 13:26:14.37	235.75	16.97	-58.4	-77.8	3.8	7.45e-01	0	22	104	0	84	35707
2026-01-12 13:26:17.37	236.40	17.19	-58.4	-77.7	3.8	7.46e-01	0	23	104	0	84	35632
2026-01-12 13:26:20.37	237.06	17.42	-58.4	-77.8	3.8	7.45e-01	0	23	104	0	84	35718
2026-01-12 13:26:23.36	237.73	17.64	-58.4	-77.7	3.8	7.45e-01	0	22	104	0	84	35656
2026-01-12 13:26:26.36	238.40	17.86	-58.4	-77.7	3.8	7.46e-01	0	22	104	0	84	35678
2026-01-12 13:26:29.36	239.09	18.08	-58.4	-77.7	3.8	7.44e-01	0	22	104	0	84	35592
2026-01-12 13:26:32.36	239.79	18.30	-58.4	-77.7	3.8	7.46e-01	0	22	104	0	84	35662
2026-01-12 13:26:35.36	240.50	18.51	-58.4	-77.7	3.8	7.46e-01	0	23	104	0	84	35685
2026-01-12 13:26:38.36	241.22	18.73	-58.4	-77.7	3.8	7.46e-01	0	22	104	0	84	35523
2026-01-12 13:26:41.37	241.96	18.94	-58.4	-77.7	3.8	7.46e-01	0	22	104	0	84	35661
2026-01-12 13:26:44.37	242.70	19.15	-58.4	-77.8	3.8	7.44e-01	0	22	104	0	84	35756
2026-01-12 13:26:47.38	243.45	19.35	-58.4	-77.7	3.8	7.47e-01	0	22	104	0	84	35640
2026-01-12 13:26:50.39	244.22	19.56	-58.4	-77.7	3.8	7.45e-01	0	22	104	0	84	35637
2026-01-12 13:26:53.39	244.99	19.76	-58.4	-77.7	3.8	7.44e-01	0	22	104	0	84	35588
2026-01-12 13:26:56.39	245.77	19.96	-58.4	-77.7	3.8	7.47e-01	0	22	104	0	84	35576
2026-01-12 13:26:59.40	246.57	20.15	-58.4	-77.7	3.8	7.44e-01	0	22	104	0	84	35623
2026-01-12 13:27:02.39	247.37	20.34	-58.4	-77.7	3.8	7.48e-01	0	23	104	0	84	35610
2026-01-12 13:27:05.39	248.18	20.52	-58.4	-77.7	3.8	7.48e-01	0	23	104	0	84	35582
2026-01-12 13:27:08.38	249.00	20.71	-58.4	-77.7	3.8	7.46e-01	0	22	104	0	84	35582
2026-01-12 13:27:11.37	249.83	20.88	-58.4	-77.7	3.8	7.48e-01	0	22	104	0	84	35612
2026-01-12 13:27:14.36	250.67	21.05	-58.4	-77.7	3.8	7.47e-01	0	23	104	0	84	35616
2026-01-12 13:27:17.36	251.53	21.22	-58.4	-77.7	3.8	7.49e-01	0	22	104	0	84	35615
2026-01-12 13:27:20.37	252.39	21.39	-58.4	-77.7	3.8	7.47e-01	0	22	104	0	84	35576
2026-01-12 13:27:23.38	253.26	21.54	-58.4	-77.7	3.8	7.49e-01	0	23	104	0	84	35523
2026-01-12 13:27:26.37	254.14	21.70	-58.4	-77.7	3.8	7.47e-01	0	22	104	0	84	35604
2026-01-12 13:27:29.37	255.03	21.84	-58.4	-77.7	3.8	7.47e-01	0	23	104	0	84	35612
2026-01-12 13:27:32.35	255.92	21.98	-58.4	-77.7	3.8	7.46e-01	0	23	104	0	84	35675
2026-01-12 13:27:35.35	256.83	22.12	-58.4	-77.7	3.8	7.45e-01	0	23	104	0	84	35605
2026-01-12 13:27:38.35	257.74	22.25	-58.4	-77.7	3.8	7.44e-01	0	23	104	0	84	35500
2026-01-12 13:27:41.36	258.67	22.37	-58.4	-77.7	3.8	7.46e-01	0	23	104	0	84	35541
2026-01-12 13:27:44.37	259.60	22.48	-58.4	-77.7	3.8	7.44e-01	0	23	104	0	84	35562
2026-01-12 13:27:47.37	260.53	22.59	-58.4	-77.7	3.8	7.46e-01	0	23	104	0	84	35613
2026-01-12 13:27:50.37	261.47	22.69	-58.4	-77.7	3.8	7.42e-01	0	23	104	0	84	35548
2026-01-12 13:27:53.37	262.42	22.79	-58.4	-77.7	3.8	7.44e-01	0	23	104	0	84	35527
2026-01-12 13:27:56.37	263.38	22.87	-58.4	-77.7	3.8	7.46e-01	0	23	104	0	84	35576
2026-01-12 13:27:59.36	264.33	22.95	-58.4	-77.7	3.8	7.47e-01	0	22	104	0	84	35591
2026-01-12 13:28:02.34	265.29	23.02	-58.4	-77.7	3.8	7.45e-01	0	22	104	0	84	35532
2026-01-12 13:28:05.34	266.25	23.09	-58.4	-77.7	3.8	7.44e-01	0	23	104	0	84	35507
2026-01-12 13:28:08.35	267.23	23.14	-58.4	-77.7	3.8	7.47e-01	0	23	104	0	84	35552
2026-01-12 13:28:11.36	268.21	23.19	-58.4	-77.7	3.8	7.48e-01	0	23	104	0	84	35530
2026-01-12 13:28:14.37	269.19	23.23	-58.4	-77.7	3.8	7.44e-01	0	23	104	0	84	35582
2026-01-12 13:28:17.35	270.16	23.26	-58.4	-77.7	3.8	7.47e-01	0	23	104	0	84	35624
2026-01-12 13:28:20.35	271.14	23.29	-58.4	-77.7	3.8	7.47e-01	0	23	104	0	84	35496
2026-01-12 13:28:23.34	272.12	23.30	-58.4	-77.6	3.8	7.43e-01	0	23	104	0	84	35276
2026-01-12 13:28:26.34	273.10	23.31	-58.4	-77.7	3.8	7.46e-01	0	23	104	0	84	35417
2026-01-12 13:28:29.34	274.08	23.31	-58.4	-77.7	3.8	7.50e-01	0	23	104	0	84	35490
2026-01-12 13:28:32.34	275.07	23.30	-58.4	-77.7	3.8	7.46e-01	0	22	104	0	84	35572
2026-01-12 13:28:35.34	276.05	23.28	-58.4	-77.7	3.8	7.47e-01	0	23	104	0	84	35443
2026-01-12 13:28:38.35	277.03	23.25	-58.4	-77.7	3.8	7.48e-01	0	23	104	0	84	35430
2026-01-12 13:28:41.36	278.01	23.21	-58.4	-77.7	3.8	7.46e-01	0	23	104	0	84	35479
2026-01-12 13:28:44.35	278.98	23.17	-58.4	-77.7	3.8	7.47e-01	0	23	104	0	84	35467
2026-01-12 13:28:47.34	279.95	23.12	-58.4	-77.7	3.8	7.46e-01	0	23	104	0	84	35460
2026-01-12 13:28:50.33	280.92	23.06	-58.4	-77.7	3.8	7.46e-01	0	23	104	0	84	35364
2026-01-12 13:28:53.31	281.88	23.00	-58.4	-77.7	3.8	7.45e-01	0	22	104	0	84	35512
2026-01-12 13:28:56.32	282.84	22.92	-58.4	-77.7	3.8	7.51e-01	0	23	104	0	84	35530
2026-01-12 13:28:59.32	283.79	22.84	-58.4	-77.7	3.8	7.47e-01	0	23	104	0	84	35406
2026-01-12 13:29:02.32	284.74	22.75	-58.4	-77.7	3.8	7.46e-01	0	22	104	0	84	35482
2026-01-12 13:29:05.32	285.69	22.65	-58.4	-77.7	3.8	7.49e-01	0	23	104	0	84	35463
2026-01-12 13:29:08.32	286.62	22.55	-58.4	-77.7	3.8	7.44e-01	0	23	104	0	84	35400
2026-01-12 13:29:11.31	287.55	22.44	-58.4	-77.6	3.8	7.46e-01	0	23	104	0	84	35259
2026-01-12 13:29:14.32	288.48	22.32	-58.4	-77.6	3.8	7.46e-01	0	23	104	0	84	35235
2026-01-12 13:29:17.32	289.39	22.19	-58.4	-77.7	3.8	7.45e-01	0	23	104	0	84	35374
2026-01-12 13:29:20.32	290.30	22.06	-58.4	-77.7	3.8	7.46e-01	0	22	104	0	84	35424
2026-01-12 13:29:23.32	291.20	21.93	-58.4	-77.7	3.8	7.46e-01	0	23	104	0	84	35445
2026-01-12 13:29:26.31	292.09	21.78	-58.3	-77.7	3.8	7.48e-01	0	23	104	0	84	35355
2026-01-12 13:29:29.30	292.97	21.64	-58.4	-77.7	3.8	7.45e-01	0	23	104	0	84	35442
2026-01-12 13:29:32.29	293.84	21.48	-58.4	-77.7	3.8	7.45e-01	0	23	104	0	84	35424
2026-01-12 13:29:35.30	294.71	21.32	-58.4	-77.7	3.8	7.42e-01	0	23	104	0	84	35458
2026-01-12 13:29:38.29	295.56	21.16	-58.4	-77.7	3.8	7.47e-01	0	22	104	0	84	35340
2026-01-12 13:29:41.30	296.41	20.99	-58.3	-77.6	3.8	7.42e-01	0	23	104	0	84	35267
2026-01-12 13:29:44.29	297.24	20.82	-58.4	-77.7	3.8	7.43e-01	0	22	104	0	84	35404
2026-01-12 13:29:47.29	298.07	20.64	-58.3	-77.7	3.8	7.46e-01	0	23	104	0	84	35308
2026-01-12 13:29:50.29	298.89	20.45	-58.3	-77.7	3.8	7.50e-01	0	23	104	0	84	35292
2026-01-12 13:29:53.28	299.69	20.27	-58.3	-77.6	3.8	7.48e-01	0	23	104	0	84	35257
2026-01-12 13:29:56.29	300.49	20.08	-58.3	-77.7	3.8	7.45e-01	0	23	104	0	84	35308
2026-01-12 13:29:59.29	301.28	19.88	-58.3	-77.7	3.8	7.43e-01	0	23	104	0	84	35299
2026-01-12 13:30:02.29	302.05	19.69	-58.3	-77.7	3.8	7.47e-01	0	23	104	0	84	35287
2026-01-12 13:30:05.29	302.82	19.49	-58.3	-77.6	3.8	7.45e-01	0	23	104	0	84	35282
2026-01-12 13:30:08.28	303.57	19.28	-58.3	-77.6	3.8	7.46e-01	0	22	104	0	84	35235
2026-01-12 13:30:11.28	304.31	19.08	-58.3	-77.6	3.8	7.45e-01	0	23	104	0	84	35269
2026-01-12 13:30:14.27	305.05	18.87	-58.3	-77.6	3.8	7.52e-01	0	23	104	0	84	35283
2026-01-12 13:30:17.28	305.77	18.66	-58.3	-77.7	3.8	7.48e-01	0	23	104	0	84	35355
2026-01-12 13:30:20.27	306.48	18.45	-58.3	-77.7	3.8	7.46e-01	0	23	104	0	84	35322
2026-01-12 13:30:23.27	307.19	18.23	-58.3	-77.6	3.8	7.45e-01	0	23	104	0	84	35227
2026-01-12 13:30:26.26	307.88	18.01	-58.3	-77.6	3.8	7.47e-01	0	23	104	0	84	35211
2026-01-12 13:30:29.26	308.56	17.80	-58.3	-77.7	3.8	7.48e-01	0	23	104	0	84	35308
2026-01-12 13:30:32.26	309.23	17.57	-58.3	-77.6	3.8	7.45e-01	0	23	104	0	84	35207
2026-01-12 13:30:35.26	309.89	17.35	-58.3	-77.6	3.8	7.47e-01	0	23	104	0	84	35215
2026-01-12 13:30:38.25	310.54	17.13	-58.3	-77.6	3.8	7.48e-01	0	23	104	0	84	35175
2026-01-12 13:30:41.25	311.18	16.91	-58.3	-77.6	3.8	7.50e-01	0	23	104	0	84	35224
2026-01-12 13:30:44.24	311.81	16.68	-58.3	-77.6	3.8	7.46e-01	0	23	104	0	84	35256
2026-01-12 13:30:47.24	312.44	16.46	-58.3	-77.6	3.8	7.46e-01	0	23	104	0	84	35196
2026-01-12 13:30:50.24	313.05	16.23	-58.3	-77.6	3.8	7.43e-01	0	23	104	0	84	35183
2026-01-12 13:30:53.23	313.65	16.01	-58.3	-77.6	3.8	7.47e-01	0	23	104	0	84	35235
2026-01-12 13:30:56.23	314.25	15.78	-58.3	-77.6	3.8	7.50e-01	0	23	104	0	84	35248
2026-01-12 13:30:59.22	314.83	15.55	-58.3	-77.6	3.8	7.44e-01	0	23	104	0	84	35219
2026-01-12 13:31:02.20	315.40	15.33	-58.3	-77.6	3.8	7.42e-01	0	23	104	0	84	35263
2026-01-12 13:31:05.21	315.97	15.10	-58.3	-77.6	3.8	7.48e-01	0	23	104	0	84	35110
2026-01-12 13:31:08.21	316.53	14.87	-58.3	-77.6	3.8	7.45e-01	0	23	104	0	84	35191
2026-01-12 13:31:11.20	317.07	14.64	-58.3	-77.6	3.8	7.44e-01	0	23	104	0	84	35188
2026-01-12 13:31:14.21	317.62	14.41	-58.3	-77.6	3.8	7.47e-01	0	23	104	0	84	35220
2026-01-12 13:31:17.21	318.15	14.19	-58.3	-77.6	3.8	7.48e-01	0	23	104	0	84	35281
2026-01-12 13:31:20.21	318.67	13.96	-58.3	-77.6	3.8	7.47e-01	0	23	104	0	84	35206
2026-01-12 13:31:23.20	319.18	13.73	-58.3	-77.6	3.8	7.47e-01	0	23	104	0	84	35162
2026-01-12 13:31:26.20	319.69	13.50	-58.3	-77.7	3.8	7.46e-01	0	23	104	0	84	35293
2026-01-12 13:31:29.17	320.18	13.28	-58.3	-77.6	3.8	7.48e-01	0	23	104	0	84	35223
2026-01-12 13:31:32.16	320.67	13.06	-58.3	-77.6	3.8	7.45e-01	0	23	104	0	84	35104
2026-01-12 13:31:35.15	321.16	12.83	-58.3	-77.6	3.8	7.45e-01	0	23	104	0	84	35157
2026-01-12 13:31:38.14	321.63	12.61	-58.3	-77.6	3.8	7.46e-01	0	22	104	0	84	35123
2026-01-12 13:31:41.13	322.10	12.38	-58.3	-77.6	3.8	7.46e-01	0	23	104	0	84	35126
2026-01-12 13:31:44.13	322.56	12.16	-58.3	-77.6	3.8	7.49e-01	0	23	104	0	84	35181
2026-01-12 13:31:47.13	323.01	11.94	-58.3	-77.6	3.8	7.46e-01	0	23	104	0	84	35159
2026-01-12 13:31:50.13	323.46	11.72	-58.3	-77.6	3.8	7.48e-01	0	23	104	0	84	35063
2026-01-12 13:31:53.12	323.90	11.50	-58.3	-77.6	3.8	7.46e-01	0	23	104	0	84	35044
2026-01-12 13:31:56.10	324.33	11.28	-58.3	-77.6	3.8	7.47e-01	0	23	104	0	84	35147
2026-01-12 13:31:59.10	324.75	11.06	-58.3	-77.6	3.8	7.46e-01	0	23	104	0	84	35008
2026-01-12 13:32:02.09	325.17	10.84	-58.3	-77.6	3.8	7.47e-01	0	23	104	0	84	35074
2026-01-12 13:32:05.10	325.58	10.62	-58.3	-77.6	3.8	7.48e-01	0	23	104	0	84	35070
2026-01-12 13:32:08.11	325.99	10.41	-58.3	-77.6	3.8	7.47e-01	0	22	104	0	84	35053
2026-01-12 13:32:11.12	326.40	10.19	-58.3	-77.6	3.8	7.47e-01	0	23	104	0	84	35158
2026-01-12 13:32:14.11	326.79	9.98	-58.3	-77.6	3.8	7.45e-01	0	23	104	0	84	35080
2026-01-12 13:32:17.12	327.18	9.76	-58.3	-77.6	3.8	7.46e-01	0	23	104	0	84	35030
2026-01-12 13:32:20.13	327.56	9.55	-58.3	-77.6	3.8	7.45e-01	0	23	104	0	84	35000
2026-01-12 13:32:23.12	327.94	9.34	-58.3	-77.6	3.8	7.46e-01	0	23	104	0	84	35089
2026-01-12 13:32:26.13	328.31	9.13	-58.3	-77.6	3.8	7.47e-01	0	23	104	0	84	35184
2026-01-12 13:32:29.12	328.68	8.92	-58.3	-77.6	3.8	7.43e-01	0	23	104	0	84	35039
2026-01-12 13:32:32.11	329.03	8.71	-58.3	-77.6	3.8	7.47e-01	0	23	104	0	84	35133
2026-01-12 13:32:35.11	329.39	8.50	-58.3	-77.6	3.8	7.44e-01	0	23	104	0	84	35017
2026-01-12 13:32:38.10	329.74	8.30	-58.3	-77.6	3.8	7.45e-01	0	23	104	0	84	35102
2026-01-12 13:32:41.12	330.09	8.09	-58.3	-77.6	3.8	7.47e-01	0	23	104	0	84	35024
2026-01-12 13:32:44.11	330.42	7.89	-58.3	-77.6	3.8	7.46e-01	0	23	104	0	84	35082
2026-01-12 13:32:47.10	330.76	7.68	-58.3	-77.6	3.8	7.46e-01	0	23	104	0	84	35058
2026-01-12 13:32:50.12	331.09	7.48	-58.3	-77.6	3.8	7.47e-01	0	23	104	0	84	35102
2026-01-12 13:32:53.11	331.41	7.28	-58.3	-77.6	3.8	7.47e-01	0	23	104	0	84	35123
2026-01-12 13:32:56.12	331.74	7.08	-58.3	-77.6	3.8	7.50e-01	0	23	104	0	84	35079
2026-01-12 13:32:59.12	332.05	6.88	-58.3	-77.6	3.8	7.47e-01	0	23	104	0	84	35094
2026-01-12 13:33:02.12	332.36	6.68	-58.3	-77.6	3.8	7.47e-01	0	23	104	0	84	35072
2026-01-12 13:33:05.12	332.67	6.48	-58.3	-77.6	3.8	7.45e-01	0	23	104	0	84	34949
2026-01-12 13:33:08.11	332.97	6.29	-58.3	-77.6	3.8	7.44e-01	0	23	104	0	84	34946
2026-01-12 13:33:11.10	333.27	6.09	-58.3	-77.6	3.8	7.47e-01	0	23	104	0	84	34979
2026-01-12 13:33:14.11	333.57	5.90	-58.2	-77.6	3.8	7.47e-01	0	23	104	0	84	34975
2026-01-12 13:33:17.11	333.86	5.71	-58.3	-77.6	3.8	7.46e-01	0	23	104	0	84	34993
2026-01-12 13:33:20.09	334.14	5.52	-58.3	-77.6	3.8	7.48e-01	0	23	104	0	84	35040
2026-01-12 13:33:23.08	334.43	5.33	-58.3	-77.6	3.8	7.48e-01	0	23	104	0	84	34972
2026-01-12 13:33:26.08	334.71	5.14	-58.3	-77.6	3.8	7.46e-01	0	23	104	0	84	34987
2026-01-12 13:33:29.08	334.98	4.95	-58.2	-77.6	3.8	7.46e-01	0	23	104	0	84	34911
2026-01-12 13:33:32.08	335.25	4.76	-58.3	-77.6	3.8	7.46e-01	0	23	104	0	84	35009
2026-01-12 13:33:35.07	335.52	4.57	-58.3	-77.5	3.8	7.44e-01	0	23	104	0	84	34863
2026-01-12 13:33:38.07	335.79	4.39	-58.2	-77.6	3.8	7.47e-01	0	23	104	0	84	35010
2026-01-12 13:33:41.06	336.05	4.20	-58.3	-77.6	3.8	7.46e-01	0	23	104	0	84	34939
2026-01-12 13:33:44.05	336.30	4.02	-58.3	-77.6	3.8	7.45e-01	0	23	104	0	84	34969
2026-01-12 13:33:47.06	336.56	3.84	-58.2	-77.6	3.8	7.46e-01	0	23	104	0	84	34991
2026-01-12 13:33:50.07	336.81	3.65	-58.3	-77.6	3.8	7.48e-01	0	23	104	0	84	35041
2026-01-12 13:33:53.07	337.06	3.47	-58.3	-77.6	3.8	7.46e-01	0	23	104	0	84	34948
2026-01-12 13:33:56.07	337.31	3.29	-58.3	-77.6	3.8	7.46e-01	0	23	104	0	84	34986
2026-01-12 13:33:59.07	337.55	3.11	-58.2	-77.6	3.8	7.44e-01	0	23	104	0	84	34935
2026-01-12 13:34:02.06	337.79	2.94	-58.2	-77.6	3.8	7.48e-01	0	23	104	0	84	34903
2026-01-12 13:34:05.05	338.02	2.76	-58.2	-77.6	3.8	7.45e-01	0	23	104	0	84	34915
2026-01-12 13:34:08.04	338.25	2.58	-58.2	-77.6	3.8	7.48e-01	0	23	104	0	84	34881
2026-01-12 13:34:11.04	338.48	2.41	-58.2	-77.6	3.8	7.45e-01	0	23	104	0	84	34938
2026-01-12 13:34:14.03	338.71	2.23	-58.2	-77.5	3.8	7.45e-01	0	23	104	0	84	34827
2026-01-12 13:34:17.03	338.94	2.06	-58.2	-77.6	3.8	7.47e-01	0	23	104	0	84	34904

#Closed at: 2026-01-12 13:34:19
#Recorded file [0 MB]: D:/lorett/data/31004_260112_162238.dat