passes_logs/2026/01/12/R3.2S_Murmansk/R3.2S_Murmansk__20260112_013813_NOAA_21_JPSS-2_rec.log

#Pass ID: 20260112_013813_NOAA 21 (JPSS-2)
#Satellite: NOAA 21 (JPSS-2)
#Configuration: NOAA-21
#almurnet v.1.7.20251203
#Start time: 2026-01-12 01:38:14

#Version: 2.2.20231116
#Station: R3.2S_Murmansk
#Location: 33.079688 lon 68.888172 lat
#TLE: 1 54234U 22150A   26011.55893233  .00000075  00000+0  56634-4 0  9995
#TLE: 2 54234  98.7494 312.5004 0000755 313.1908  46.9205 14.19534095164321

#Time	Az	El	Level	Level2	SNR	BER	BlckErr	Temp	State	Recorded	gain1	gain2
2026-01-12 01:38:14.80	28.71	2.08	-53.9	-67.7	3.8	1.49e+00	0	21	0	0	72	19335
2026-01-12 01:38:18.84	28.63	2.34	-53.8	-67.8	3.8	1.49e+00	0	21	104	0	72	19476
2026-01-12 01:38:22.88	28.54	2.60	-53.8	-67.8	3.8	1.49e+00	0	21	104	0	72	19447
2026-01-12 01:38:26.91	28.46	2.86	-53.9	-67.8	3.8	1.49e+00	0	21	104	0	72	19466
2026-01-12 01:38:30.94	28.37	3.12	-53.9	-67.8	3.8	1.49e+00	0	21	104	0	72	19563
2026-01-12 01:38:34.97	28.28	3.38	-53.9	-67.8	3.8	1.49e+00	0	21	104	0	72	19540
2026-01-12 01:38:39.01	28.19	3.65	-53.9	-67.9	3.8	1.49e+00	0	21	104	0	72	19642
2026-01-12 01:38:43.04	28.09	3.92	-53.9	-67.8	3.8	1.49e+00	0	21	104	0	72	19554
2026-01-12 01:38:47.08	28.00	4.20	-54.0	-67.9	3.8	1.49e+00	0	21	104	0	73	18589
2026-01-12 01:38:51.12	27.90	4.47	-54.0	-67.9	3.8	1.49e+00	0	21	104	0	73	18638
2026-01-12 01:38:55.15	27.80	4.75	-54.0	-67.9	3.8	1.49e+00	0	21	104	0	73	18559
2026-01-12 01:38:59.19	27.70	5.03	-54.0	-67.9	3.8	1.49e+00	0	22	104	0	73	18609
2026-01-12 01:39:03.23	27.59	5.32	-54.0	-67.9	3.8	1.49e+00	0	21	104	0	73	18640
2026-01-12 01:39:07.26	27.49	5.61	-54.0	-67.9	3.8	1.49e+00	0	21	104	0	73	18636
2026-01-12 01:39:11.29	27.38	5.90	-54.0	-67.9	3.8	1.49e+00	0	22	104	0	73	18607
2026-01-12 01:39:15.33	27.26	6.19	-54.0	-67.9	3.8	1.49e+00	0	22	104	0	73	18657
2026-01-12 01:39:19.37	27.15	6.49	-54.0	-67.9	3.8	1.49e+00	0	21	104	0	73	18675
2026-01-12 01:39:23.41	27.03	6.79	-54.0	-67.9	3.8	1.49e+00	0	22	104	0	73	18658
2026-01-12 01:39:27.44	26.91	7.09	-54.0	-67.9	3.8	1.49e+00	0	22	104	0	73	18603
2026-01-12 01:39:31.46	26.79	7.40	-54.0	-67.9	3.8	1.49e+00	0	22	104	0	73	18692
2026-01-12 01:39:35.50	26.66	7.71	-54.0	-67.9	3.8	1.49e+00	0	22	104	0	73	18594
2026-01-12 01:39:39.53	26.53	8.02	-54.0	-67.9	3.8	1.49e+00	0	22	104	0	73	18665
2026-01-12 01:39:43.59	26.40	8.35	-54.0	-68.0	3.8	1.49e+00	0	22	104	0	73	18738
2026-01-12 01:39:47.62	26.27	8.67	-54.0	-67.9	3.8	1.49e+00	0	22	104	0	73	18670
2026-01-12 01:39:51.66	26.13	8.99	-53.9	-67.9	3.8	1.49e+00	0	22	104	0	73	18716
2026-01-12 01:39:55.70	25.98	9.32	-54.0	-67.9	3.8	1.49e+00	0	22	104	0	73	18730
2026-01-12 01:39:59.73	25.84	9.66	-54.0	-67.9	3.8	1.49e+00	0	22	104	0	73	18695
2026-01-12 01:40:03.76	25.69	10.00	-54.0	-67.9	3.8	1.49e+00	0	22	104	0	73	18716
2026-01-12 01:40:07.80	25.53	10.34	-54.0	-67.9	3.8	1.49e+00	0	22	104	0	73	18644
2026-01-12 01:40:11.83	25.38	10.69	-54.0	-67.9	3.8	1.49e+00	0	22	104	0	73	18703
2026-01-12 01:40:15.87	25.21	11.04	-54.0	-67.9	3.8	1.49e+00	0	22	104	0	73	18696
2026-01-12 01:40:19.90	25.05	11.40	-54.0	-68.0	3.8	1.49e+00	0	22	104	0	73	18747
2026-01-12 01:40:23.94	24.88	11.76	-54.0	-68.0	3.8	1.49e+00	0	22	104	0	73	18735
2026-01-12 01:40:27.97	24.70	12.13	-54.1	-68.0	3.8	1.49e+00	0	22	104	0	73	18768
2026-01-12 01:40:32.00	24.52	12.50	-54.0	-67.9	3.8	1.49e+00	0	22	104	0	73	18699
2026-01-12 01:40:36.03	24.33	12.88	-54.0	-67.9	3.8	1.49e+00	0	22	104	0	73	18695
2026-01-12 01:40:40.06	24.14	13.26	-54.0	-67.9	3.8	1.49e+00	0	22	104	0	73	18723
2026-01-12 01:40:44.09	23.95	13.65	-54.0	-68.0	3.8	1.49e+00	0	22	104	0	73	18747
2026-01-12 01:40:48.12	23.74	14.05	-54.1	-67.9	3.8	1.49e+00	0	22	104	0	73	18703
2026-01-12 01:40:52.16	23.54	14.45	-54.1	-67.9	3.8	1.49e+00	0	23	104	0	73	18715
2026-01-12 01:40:56.20	23.32	14.86	-54.1	-68.0	3.8	1.49e+00	0	22	104	0	73	18751
2026-01-12 01:41:00.23	23.10	15.27	-54.0	-68.0	3.8	1.49e+00	0	22	104	0	73	18732
2026-01-12 01:41:04.27	22.87	15.70	-54.0	-68.0	3.8	1.49e+00	0	22	104	0	73	18779
2026-01-12 01:41:08.30	22.64	16.13	-54.0	-67.9	3.8	1.49e+00	0	22	104	0	73	18712
2026-01-12 01:41:12.33	22.40	16.56	-54.0	-68.0	3.8	1.49e+00	0	22	104	0	73	18769
2026-01-12 01:41:16.37	22.15	17.00	-54.0	-68.0	3.8	1.49e+00	0	22	104	0	73	18747
2026-01-12 01:41:20.39	21.89	17.45	-54.0	-67.9	3.8	1.49e+00	0	23	104	0	73	18709
2026-01-12 01:41:24.43	21.62	17.91	-54.0	-68.0	3.8	1.49e+00	0	22	104	0	73	18782
2026-01-12 01:41:28.46	21.35	18.38	-54.0	-68.0	3.8	1.49e+00	0	23	104	0	73	18808
2026-01-12 01:41:32.50	21.07	18.85	-54.1	-68.0	3.8	1.49e+00	0	23	104	0	73	18744
2026-01-12 01:41:36.54	20.77	19.34	-54.1	-68.0	3.8	1.49e+00	0	22	104	0	73	18809
2026-01-12 01:41:40.57	20.47	19.83	-54.1	-68.0	3.8	1.49e+00	0	22	104	0	73	18766
2026-01-12 01:41:44.60	20.16	20.33	-54.0	-68.0	3.8	1.49e+00	0	23	104	0	73	18794
2026-01-12 01:41:48.64	19.83	20.84	-54.0	-68.0	3.8	1.49e+00	0	23	104	0	73	18813
2026-01-12 01:41:52.67	19.50	21.35	-54.0	-68.0	3.8	1.49e+00	0	22	104	0	73	18876
2026-01-12 01:41:56.71	19.15	21.88	-54.1	-68.0	3.8	1.49e+00	0	23	104	0	73	18768
2026-01-12 01:42:00.74	18.79	22.42	-54.1	-68.0	3.8	1.49e+00	0	22	104	0	73	18747
2026-01-12 01:42:04.77	18.41	22.97	-54.0	-67.9	3.8	1.49e+00	0	23	104	0	73	18728
2026-01-12 01:42:08.80	18.02	23.53	-54.1	-68.0	3.8	1.49e+00	0	22	104	0	73	18767
2026-01-12 01:42:12.84	17.62	24.10	-54.0	-68.0	3.8	1.49e+00	0	23	104	0	73	18825
2026-01-12 01:42:16.87	17.20	24.68	-54.1	-68.0	3.8	1.49e+00	0	23	104	0	73	18808
2026-01-12 01:42:20.91	16.77	25.28	-54.1	-68.0	3.8	1.49e+00	0	23	104	0	73	18823
2026-01-12 01:42:24.95	16.31	25.88	-54.1	-68.0	3.8	1.49e+00	0	23	104	0	73	18789
2026-01-12 01:42:28.98	15.84	26.50	-54.1	-68.0	3.8	1.49e+00	0	23	104	0	73	18787
2026-01-12 01:42:33.01	15.35	27.12	-54.1	-68.0	3.8	1.49e+00	0	22	104	0	73	18798
2026-01-12 01:42:37.04	14.84	27.76	-54.1	-68.0	3.8	1.49e+00	0	23	104	0	73	18749
2026-01-12 01:42:41.07	14.31	28.41	-54.1	-68.0	3.8	1.49e+00	0	23	104	0	73	18748
2026-01-12 01:42:45.11	13.76	29.08	-54.1	-68.0	3.8	1.49e+00	0	23	104	0	73	18762
2026-01-12 01:42:49.15	13.18	29.76	-54.1	-67.9	3.8	1.49e+00	0	23	104	0	73	18703
2026-01-12 01:42:53.19	12.57	30.45	-54.1	-68.0	3.8	1.49e+00	0	23	104	0	73	18741
2026-01-12 01:42:57.23	11.94	31.16	-54.1	-67.9	3.8	1.49e+00	0	23	104	0	73	18696
2026-01-12 01:43:01.27	11.27	31.88	-54.1	-68.0	3.8	1.49e+00	0	23	104	0	73	18782
2026-01-12 01:43:05.31	10.58	32.61	-54.1	-68.0	3.8	1.49e+00	0	23	104	0	73	18770
2026-01-12 01:43:09.34	9.86	33.35	-54.1	-68.0	3.8	1.49e+00	0	23	104	0	73	18793
2026-01-12 01:43:13.37	9.10	34.11	-54.0	-68.0	3.8	1.49e+00	0	23	104	0	73	18868
2026-01-12 01:43:17.41	8.30	34.88	-54.0	-68.0	3.8	1.49e+00	0	23	104	0	73	18769
2026-01-12 01:43:21.45	7.46	35.66	-54.1	-68.0	3.8	1.49e+00	0	23	104	0	73	18788
2026-01-12 01:43:25.48	6.58	36.45	-54.1	-68.0	3.8	1.49e+00	0	23	104	0	73	18773
2026-01-12 01:43:29.52	5.66	37.26	-54.1	-68.0	3.8	1.49e+00	0	23	104	0	73	18825
2026-01-12 01:43:33.55	4.69	38.07	-54.1	-68.0	3.8	1.49e+00	0	23	104	0	73	18827
2026-01-12 01:43:37.58	3.66	38.90	-54.1	-68.0	3.8	1.49e+00	0	23	104	0	73	18817
2026-01-12 01:43:41.62	2.59	39.73	-54.1	-68.0	3.8	1.49e+00	0	23	104	0	73	18788
2026-01-12 01:43:45.66	1.45	40.58	-54.1	-68.0	3.8	1.49e+00	0	23	104	0	73	18854
2026-01-12 01:43:49.70	0.25	41.43	-54.1	-68.0	3.8	1.49e+00	0	23	104	0	73	18782
2026-01-12 01:43:53.73	358.99	42.28	-54.1	-68.0	3.8	1.49e+00	0	23	104	0	73	18798
2026-01-12 01:43:57.77	357.66	43.14	-54.1	-68.0	3.8	1.49e+00	0	23	104	0	73	18830
2026-01-12 01:44:01.81	356.25	44.00	-54.1	-68.0	3.8	1.49e+00	0	23	104	0	73	18810
2026-01-12 01:44:05.84	354.77	44.85	-54.1	-68.0	3.8	1.49e+00	0	23	104	0	73	18759
2026-01-12 01:44:09.88	353.20	45.71	-54.1	-68.0	3.8	1.49e+00	0	23	104	0	73	18795
2026-01-12 01:44:13.91	351.55	46.55	-54.1	-68.0	3.8	1.49e+00	0	23	104	0	73	18821
2026-01-12 01:44:17.96	349.80	47.39	-54.1	-68.0	3.8	1.49e+00	0	23	104	0	73	18797
2026-01-12 01:44:21.99	347.96	48.21	-54.1	-68.0	3.8	1.49e+00	0	23	104	0	73	18813
2026-01-12 01:44:26.02	346.02	49.01	-54.1	-68.0	3.8	1.49e+00	0	23	104	0	73	18857
2026-01-12 01:44:30.05	343.97	49.78	-54.1	-68.0	3.8	1.49e+00	0	23	104	0	73	18780
2026-01-12 01:44:34.07	341.83	50.53	-54.1	-68.0	3.8	1.49e+00	0	23	104	0	73	18750
2026-01-12 01:44:38.11	339.57	51.24	-54.1	-68.0	3.8	1.49e+00	0	23	104	0	73	18768
2026-01-12 01:44:42.14	337.21	51.92	-54.1	-68.0	3.8	1.49e+00	0	23	104	0	73	18856
2026-01-12 01:44:46.18	334.73	52.55	-54.0	-68.0	3.8	1.49e+00	0	23	104	0	73	18876
2026-01-12 01:44:50.21	332.16	53.14	-54.0	-68.0	3.8	1.49e+00	0	23	104	0	73	18861
2026-01-12 01:44:54.25	329.47	53.66	-54.1	-68.0	3.8	1.49e+00	0	23	104	0	73	18800
2026-01-12 01:44:58.29	326.70	54.13	-54.1	-68.0	3.8	1.49e+00	0	23	104	0	73	18788
2026-01-12 01:45:02.32	323.84	54.53	-54.1	-68.0	3.8	1.49e+00	0	23	104	0	73	18839
2026-01-12 01:45:06.35	320.91	54.86	-54.1	-68.0	3.8	1.49e+00	0	23	104	0	73	18833
2026-01-12 01:45:10.39	317.92	55.11	-54.1	-68.0	3.8	1.49e+00	0	23	104	0	73	18813
2026-01-12 01:45:14.42	314.88	55.28	-54.1	-68.0	3.8	1.49e+00	0	23	104	0	73	18851
2026-01-12 01:45:18.45	311.82	55.38	-54.1	-68.0	3.8	1.49e+00	0	23	104	0	73	18842
2026-01-12 01:45:22.48	308.74	55.39	-54.1	-68.0	3.8	1.49e+00	0	23	104	0	73	18911
2026-01-12 01:45:26.52	305.66	55.32	-54.1	-68.0	3.8	1.49e+00	0	23	104	0	73	18811
2026-01-12 01:45:30.56	302.60	55.17	-54.1	-68.0	3.8	1.49e+00	0	23	104	0	73	18842
2026-01-12 01:45:34.59	299.60	54.95	-54.1	-68.0	3.8	1.49e+00	0	23	104	0	73	18847
2026-01-12 01:45:38.63	296.64	54.64	-54.1	-68.0	3.8	1.49e+00	0	23	104	0	73	18804
2026-01-12 01:45:42.66	293.76	54.26	-54.1	-68.0	3.8	1.49e+00	0	23	104	0	73	18824
2026-01-12 01:45:46.70	290.95	53.82	-54.1	-68.0	3.8	1.49e+00	0	23	104	0	73	18812
2026-01-12 01:45:50.74	288.23	53.31	-54.1	-68.0	3.8	1.49e+00	0	23	104	0	73	18815
2026-01-12 01:45:54.77	285.62	52.74	-54.1	-68.0	3.8	1.49e+00	0	23	104	0	73	18852
2026-01-12 01:45:58.81	283.11	52.12	-54.1	-68.0	3.8	1.49e+00	0	23	104	0	73	18804
2026-01-12 01:46:02.85	280.70	51.46	-54.1	-68.0	3.8	1.49e+00	0	23	104	0	73	18751
2026-01-12 01:46:06.88	278.41	50.76	-54.1	-68.0	3.8	1.49e+00	0	23	104	0	73	18892
2026-01-12 01:46:10.91	276.23	50.02	-54.1	-68.0	3.8	1.49e+00	0	23	104	0	73	18841
2026-01-12 01:46:14.94	274.15	49.25	-54.1	-68.0	3.8	1.49e+00	0	23	104	0	73	18838
2026-01-12 01:46:18.98	272.17	48.45	-54.1	-68.0	3.8	1.49e+00	0	23	104	0	73	18906
2026-01-12 01:46:23.01	270.30	47.63	-54.1	-68.0	3.8	1.49e+00	0	23	104	0	73	18829
2026-01-12 01:46:27.05	268.52	46.80	-54.1	-68.0	3.8	1.49e+00	0	23	104	0	73	18841
2026-01-12 01:46:31.08	266.83	45.96	-54.1	-68.0	3.8	1.49e+00	0	23	104	0	73	18884
2026-01-12 01:46:35.11	265.24	45.11	-54.1	-68.0	3.8	1.49e+00	0	23	104	0	73	18861
2026-01-12 01:46:39.14	263.73	44.25	-54.0	-68.0	3.8	1.49e+00	0	23	104	0	73	18870
2026-01-12 01:46:43.17	262.30	43.39	-54.1	-68.0	3.8	1.49e+00	0	23	104	0	73	18863
2026-01-12 01:46:47.21	260.94	42.53	-54.1	-68.0	3.8	1.49e+00	0	23	104	0	73	18858
2026-01-12 01:46:51.24	259.65	41.67	-54.1	-68.0	3.8	1.49e+00	0	23	104	0	73	18893
2026-01-12 01:46:55.28	258.43	40.82	-54.1	-68.0	3.8	1.49e+00	0	23	104	0	73	18812
2026-01-12 01:46:59.31	257.28	39.97	-54.1	-68.0	3.8	1.49e+00	0	23	104	0	73	18857
2026-01-12 01:47:03.35	256.18	39.13	-54.1	-68.0	3.8	1.49e+00	0	23	104	0	73	18886
2026-01-12 01:47:07.38	255.14	38.30	-54.1	-68.0	3.8	1.49e+00	0	23	104	0	73	18824
2026-01-12 01:47:11.42	254.15	37.48	-54.1	-68.0	3.8	1.49e+00	0	23	104	0	73	18848
2026-01-12 01:47:15.46	253.21	36.67	-54.1	-68.0	3.8	1.49e+00	0	23	104	0	73	18873
2026-01-12 01:47:19.50	252.31	35.87	-54.1	-68.0	3.8	1.49e+00	0	23	104	0	73	18897
2026-01-12 01:47:23.53	251.46	35.08	-54.1	-68.0	3.8	1.49e+00	0	23	104	0	73	18832
2026-01-12 01:47:27.57	250.65	34.31	-54.0	-68.0	3.8	1.49e+00	0	23	104	0	73	18858
2026-01-12 01:47:31.60	249.87	33.54	-54.1	-68.0	3.8	1.49e+00	0	23	104	0	73	18826
2026-01-12 01:47:35.64	249.13	32.79	-54.1	-68.0	3.8	1.49e+00	0	23	104	0	73	18848
2026-01-12 01:47:39.67	248.43	32.06	-54.1	-68.0	3.8	1.49e+00	0	23	104	0	73	18825
2026-01-12 01:47:43.70	247.76	31.33	-54.1	-68.0	3.8	1.49e+00	0	23	104	0	73	18798
2026-01-12 01:47:47.74	247.11	30.62	-54.1	-68.0	3.8	1.49e+00	0	23	104	0	73	18816
2026-01-12 01:47:51.78	246.50	29.92	-54.1	-68.0	3.8	1.49e+00	0	23	104	0	73	18893
2026-01-12 01:47:55.82	245.91	29.24	-54.1	-68.0	3.8	1.49e+00	0	23	104	0	73	18745
2026-01-12 01:47:59.85	245.34	28.57	-54.1	-68.0	3.8	1.49e+00	0	23	104	0	73	18862
2026-01-12 01:48:03.88	244.80	27.91	-54.1	-68.0	3.8	1.49e+00	0	23	104	0	73	18858
2026-01-12 01:48:07.92	244.28	27.26	-54.1	-68.0	3.8	1.49e+00	0	23	104	0	73	18841
2026-01-12 01:48:11.95	243.78	26.63	-54.1	-68.0	3.8	1.49e+00	0	23	104	0	73	18830
2026-01-12 01:48:15.99	243.31	26.01	-54.1	-68.0	3.8	1.49e+00	0	23	104	0	73	18842
2026-01-12 01:48:20.03	242.84	25.40	-54.1	-68.0	3.8	1.49e+00	0	23	104	0	73	18831
2026-01-12 01:48:24.06	242.40	24.80	-54.1	-68.0	3.8	1.49e+00	0	23	104	0	73	18832
2026-01-12 01:48:28.09	241.98	24.22	-54.1	-68.0	3.8	1.49e+00	0	23	104	0	73	18824
2026-01-12 01:48:32.12	241.57	23.64	-54.1	-68.0	3.8	1.49e+00	0	23	104	0	73	18933
2026-01-12 01:48:36.16	241.17	23.08	-54.1	-68.0	3.8	1.49e+00	0	23	104	0	73	18918
2026-01-12 01:48:40.20	240.79	22.52	-54.1	-68.0	3.8	1.49e+00	0	23	104	0	73	18850
2026-01-12 01:48:44.24	240.43	21.98	-54.1	-68.0	3.8	1.49e+00	0	23	104	0	73	18910
2026-01-12 01:48:48.28	240.07	21.44	-54.1	-68.0	3.8	1.49e+00	0	23	104	0	73	18828
2026-01-12 01:48:52.31	239.73	20.92	-54.1	-68.0	3.8	1.49e+00	0	23	104	0	73	18827
2026-01-12 01:48:56.35	239.40	20.41	-54.1	-68.0	3.8	1.49e+00	0	23	104	0	73	18920
2026-01-12 01:49:00.38	239.08	19.90	-54.1	-68.0	3.8	1.49e+00	0	23	104	0	73	18865
2026-01-12 01:49:04.42	238.77	19.41	-54.1	-68.0	3.8	1.49e+00	0	23	104	0	73	18808
2026-01-12 01:49:08.46	238.47	18.92	-54.1	-68.0	3.8	1.49e+00	0	23	104	0	73	18827
2026-01-12 01:49:12.50	238.19	18.44	-54.1	-68.0	3.8	1.49e+00	0	23	104	0	73	18806
2026-01-12 01:49:16.53	237.91	17.97	-54.1	-68.0	3.8	1.49e+00	0	23	104	0	73	18821
2026-01-12 01:49:20.57	237.64	17.51	-54.1	-68.0	3.8	1.49e+00	0	23	104	0	73	18849
2026-01-12 01:49:24.61	237.37	17.06	-54.1	-68.0	3.8	1.49e+00	0	23	104	0	73	18844
2026-01-12 01:49:28.64	237.12	16.61	-54.1	-68.0	3.8	1.49e+00	0	23	104	0	73	18873
2026-01-12 01:49:32.68	236.87	16.17	-54.1	-68.0	3.8	1.49e+00	0	23	104	0	73	18865
2026-01-12 01:49:36.71	236.64	15.74	-54.1	-68.0	3.8	1.49e+00	0	23	104	0	73	18854
2026-01-12 01:49:40.74	236.40	15.32	-54.1	-68.0	3.8	1.49e+00	0	23	104	0	73	18874
2026-01-12 01:49:44.78	236.18	14.90	-54.1	-68.0	3.8	1.49e+00	0	23	104	0	73	18838
2026-01-12 01:49:48.82	235.96	14.49	-54.1	-68.0	3.8	1.49e+00	0	23	104	0	73	18781
2026-01-12 01:49:52.85	235.75	14.08	-54.1	-68.0	3.8	1.49e+00	0	23	104	0	73	18874
2026-01-12 01:49:56.89	235.54	13.68	-54.1	-68.0	3.8	1.49e+00	0	23	104	0	73	18856
2026-01-12 01:50:00.92	235.34	13.29	-54.1	-68.0	3.8	1.49e+00	0	23	104	0	73	18840
2026-01-12 01:50:04.96	235.15	12.90	-54.1	-68.0	3.8	1.49e+00	0	23	104	0	73	18870
2026-01-12 01:50:08.98	234.96	12.52	-54.1	-68.0	3.8	1.49e+00	0	23	104	0	73	18848
2026-01-12 01:50:13.02	234.77	12.15	-54.1	-68.0	3.8	1.49e+00	0	23	104	0	73	18845
2026-01-12 01:50:17.05	234.60	11.78	-54.1	-68.0	3.8	1.49e+00	0	23	104	0	73	18796
2026-01-12 01:50:21.08	234.42	11.41	-54.1	-68.0	3.8	1.49e+00	0	23	104	0	73	18920
2026-01-12 01:50:25.12	234.25	11.05	-54.1	-68.0	3.8	1.49e+00	0	23	104	0	73	18790
2026-01-12 01:50:29.15	234.08	10.70	-54.1	-68.0	3.8	1.49e+00	0	23	104	0	73	18814
2026-01-12 01:50:33.18	233.92	10.35	-54.1	-68.0	3.8	1.49e+00	0	23	104	0	73	18809
2026-01-12 01:50:37.23	233.77	10.00	-54.1	-68.0	3.8	1.49e+00	0	23	104	0	73	18811
2026-01-12 01:50:41.27	233.61	9.66	-54.1	-68.0	3.8	1.49e+00	0	23	104	0	73	18864
2026-01-12 01:50:45.30	233.46	9.33	-54.1	-68.0	3.8	1.49e+00	0	23	104	0	73	18827
2026-01-12 01:50:49.34	233.32	8.99	-54.1	-68.0	3.8	1.49e+00	0	23	104	0	73	18816
2026-01-12 01:50:53.38	233.17	8.66	-54.1	-68.0	3.8	1.49e+00	0	23	104	0	73	18827
2026-01-12 01:50:57.41	233.04	8.34	-54.1	-68.0	3.8	1.49e+00	0	23	104	0	73	18870
2026-01-12 01:51:01.45	232.90	8.02	-54.1	-68.0	3.9	1.49e+00	0	23	104	0	73	18813
2026-01-12 01:51:05.48	232.77	7.70	-54.1	-68.0	3.8	1.49e+00	0	23	104	0	73	18839
2026-01-12 01:51:09.51	232.64	7.39	-54.1	-68.0	3.8	1.49e+00	0	23	104	0	73	18827
2026-01-12 01:51:13.55	232.51	7.08	-54.1	-68.0	3.8	1.49e+00	0	23	104	0	73	18791
2026-01-12 01:51:17.59	232.39	6.78	-54.1	-68.0	3.8	1.49e+00	0	23	104	0	73	18865
2026-01-12 01:51:21.62	232.27	6.48	-54.1	-68.0	3.8	1.49e+00	0	23	104	0	73	18833
2026-01-12 01:51:25.66	232.15	6.18	-54.1	-68.0	3.8	1.49e+00	0	23	104	0	73	18772
2026-01-12 01:51:29.69	232.03	5.88	-54.1	-68.0	3.8	1.49e+00	0	23	104	0	73	18871
2026-01-12 01:51:33.73	231.92	5.59	-54.1	-68.0	3.8	1.49e+00	0	23	104	0	73	18873
2026-01-12 01:51:37.76	231.81	5.30	-54.1	-68.0	3.8	1.49e+00	0	23	104	0	73	18785
2026-01-12 01:51:41.78	231.70	5.02	-54.1	-67.9	3.8	1.49e+00	0	23	104	0	73	18713
2026-01-12 01:51:45.82	231.60	4.73	-54.1	-68.0	3.8	1.49e+00	0	23	104	0	73	18791
2026-01-12 01:51:49.86	231.49	4.45	-54.1	-68.0	3.8	1.49e+00	0	23	104	0	73	18887
2026-01-12 01:51:53.89	231.39	4.18	-54.1	-68.0	3.8	1.49e+00	0	23	104	0	73	18841
2026-01-12 01:51:57.93	231.29	3.90	-54.0	-68.0	3.8	1.49e+00	0	23	104	0	73	18856
2026-01-12 01:52:01.97	231.20	3.63	-54.1	-68.0	3.8	1.49e+00	0	23	104	0	73	18858
2026-01-12 01:52:06.00	231.10	3.36	-54.1	-68.0	3.8	1.49e+00	0	23	104	0	73	18850
2026-01-12 01:52:10.03	231.01	3.09	-54.1	-68.0	3.8	1.49e+00	0	23	104	0	73	18845
2026-01-12 01:52:14.07	230.92	2.83	-54.1	-68.0	3.8	1.49e+00	0	23	104	0	73	18884
2026-01-12 01:52:18.11	230.83	2.56	-54.0	-68.0	3.8	1.49e+00	0	23	104	0	73	18795
2026-01-12 01:52:22.15	230.74	2.30	-54.1	-68.0	3.8	1.49e+00	0	23	104	0	73	18814
2026-01-12 01:52:26.19	230.66	2.05	-54.1	-68.0	3.8	1.49e+00	0	23	104	0	73	18757

#Closed at: 2026-01-12 01:52:29
#Recorded file [0 MB]: D:/lorett/data/31004_260112_043814.dat