passes_logs/2026/01/12/R3.2S_Murmansk/R3.2S_Murmansk__20260112_081520_NOAA_21_JPSS-2_rec.log

#Pass ID: 20260112_081520_NOAA 21 (JPSS-2)
#Satellite: NOAA 21 (JPSS-2)
#Configuration: NOAA-21
#almurnet v.1.7.20251203
#Start time: 2026-01-12 08:15:21

#Version: 2.2.20231116
#Station: R3.2S_Murmansk
#Location: 33.079688 lon 68.888172 lat
#TLE: 1 54234U 22150A   26011.55893233  .00000075  00000+0  56634-4 0  9995
#TLE: 2 54234  98.7494 312.5004 0000755 313.1908  46.9205 14.19534095164321

#Time	Az	El	Level	Level2	SNR	BER	BlckErr	Temp	State	Recorded	gain1	gain2
2026-01-12 08:15:21.55	122.09	2.06	-57.0	-70.7	3.8	1.49e+00	0	21	0	0	80	17153
2026-01-12 08:15:25.55	121.98	2.31	-56.9	-70.6	3.8	1.49e+00	0	21	104	0	78	19107
2026-01-12 08:15:29.53	121.86	2.57	-56.9	-70.7	3.8	1.49e+00	0	21	104	0	78	19188
2026-01-12 08:15:33.50	121.75	2.82	-56.9	-70.6	3.8	1.49e+00	0	21	104	0	78	19137
2026-01-12 08:15:37.47	121.63	3.08	-56.9	-70.6	3.8	1.49e+00	0	21	104	0	78	19001
2026-01-12 08:15:41.46	121.51	3.34	-56.9	-70.4	3.8	1.49e+00	0	21	104	0	78	18703
2026-01-12 08:15:45.43	121.38	3.60	-56.8	-69.7	3.8	1.49e+00	0	21	104	0	78	17093
2026-01-12 08:15:49.41	121.25	3.87	-56.6	-66.8	4.3	1.45e+00	0	21	104	0	78	12257
2026-01-12 08:15:53.38	121.12	4.14	-56.0	-62.7	6.5	2.20e-01	0	21	0	6291456	78	7638
2026-01-12 08:15:57.37	120.99	4.41	-54.3	-58.2	10.4	2.10e-03	0	22	0	18874368	75	5411
2026-01-12 08:16:01.34	120.86	4.68	-52.5	-55.0	12.7	4.50e-06	0	22	0	31457280	71	4742
2026-01-12 08:16:05.30	120.72	4.95	-51.9	-54.2	13.2	0.00e+00	0	22	0	44040192	70	4570
2026-01-12 08:16:09.28	120.58	5.23	-54.7	-59.0	9.6	1.26e-02	0	22	0	56623104	75	5934
2026-01-12 08:16:13.27	120.43	5.51	-50.9	-52.8	13.9	0.00e+00	0	22	0	69206016	68	4380
2026-01-12 08:16:17.27	120.29	5.80	-50.4	-52.2	14.2	0.00e+00	0	22	0	81788928	67	4321
2026-01-12 08:16:21.26	120.14	6.08	-50.4	-52.1	14.3	0.00e+00	0	22	0	94371840	67	4275
2026-01-12 08:16:25.25	119.98	6.37	-50.3	-52.0	14.4	0.00e+00	0	22	0	105906176	67	4201
2026-01-12 08:16:29.24	119.83	6.67	-50.3	-52.0	14.4	0.00e+00	0	22	0	118489088	67	4197
2026-01-12 08:16:33.22	119.67	6.96	-50.1	-51.8	14.4	0.00e+00	0	22	0	131072000	66	4358
2026-01-12 08:16:37.21	119.50	7.26	-50.1	-51.7	14.5	0.00e+00	0	22	0	143654912	66	4305
2026-01-12 08:16:41.19	119.33	7.56	-50.0	-51.6	14.5	0.00e+00	0	22	0	156237824	66	4268
2026-01-12 08:16:45.19	119.16	7.87	-49.9	-51.5	14.6	0.00e+00	0	22	0	168820736	66	4207
2026-01-12 08:16:49.16	118.99	8.18	-49.8	-51.4	14.7	0.00e+00	0	22	0	181403648	66	4146
2026-01-12 08:16:53.14	118.81	8.49	-49.5	-51.0	14.8	0.00e+00	0	22	0	193986560	65	4211
2026-01-12 08:16:57.13	118.63	8.81	-49.5	-50.9	14.8	0.00e+00	0	22	0	205520896	65	4182
2026-01-12 08:17:01.12	118.44	9.13	-49.6	-51.1	14.7	0.00e+00	0	22	0	218103808	65	4271
2026-01-12 08:17:05.12	118.24	9.46	-49.5	-51.0	14.8	0.00e+00	0	22	0	230686720	65	4201
2026-01-12 08:17:09.13	118.05	9.79	-49.3	-50.7	14.9	0.00e+00	0	22	0	243269632	65	4098
2026-01-12 08:17:13.09	117.85	10.12	-49.2	-50.6	15.0	0.00e+00	0	22	0	255852544	65	4051
2026-01-12 08:17:17.08	117.64	10.45	-49.2	-50.6	15.0	0.00e+00	0	23	0	268435456	65	4033
2026-01-12 08:17:21.07	117.43	10.79	-49.0	-50.4	15.0	0.00e+00	0	22	0	281018368	64	4161
2026-01-12 08:17:25.07	117.21	11.14	-48.9	-50.2	15.1	0.00e+00	0	22	0	293601280	64	4088
2026-01-12 08:17:29.05	116.99	11.49	-48.9	-50.2	15.1	0.00e+00	0	23	0	306184192	64	4085
2026-01-12 08:17:33.01	116.76	11.84	-48.8	-50.2	15.1	0.00e+00	0	23	0	317718528	64	4056
2026-01-12 08:17:37.00	116.53	12.20	-48.9	-50.2	15.1	0.00e+00	0	23	0	330301440	64	4081
2026-01-12 08:17:40.96	116.29	12.56	-48.7	-50.1	15.0	0.00e+00	0	23	0	342884352	63	4243
2026-01-12 08:17:44.93	116.04	12.93	-48.7	-50.1	15.0	0.00e+00	0	23	0	355467264	63	4243
2026-01-12 08:17:48.90	115.79	13.30	-48.8	-50.1	15.0	0.00e+00	0	23	0	368050176	63	4288
2026-01-12 08:17:52.87	115.53	13.68	-48.8	-50.1	15.0	0.00e+00	0	23	0	380633088	63	4277
2026-01-12 08:17:56.87	115.26	14.06	-48.6	-50.0	15.1	0.00e+00	0	23	0	393216000	63	4194
2026-01-12 08:18:00.85	114.99	14.45	-48.6	-49.9	15.1	0.00e+00	0	23	0	404750336	63	4155
2026-01-12 08:18:04.82	114.71	14.84	-48.5	-49.8	15.2	0.00e+00	0	23	0	417333248	63	4138
2026-01-12 08:18:08.79	114.42	15.24	-48.8	-50.1	15.1	0.00e+00	0	23	0	429916160	63	4261
2026-01-12 08:18:12.78	114.12	15.65	-48.8	-50.2	15.0	0.00e+00	0	23	0	442499072	63	4301
2026-01-12 08:18:16.74	113.82	16.06	-48.9	-50.3	15.0	0.00e+00	0	23	0	455081984	63	4353
2026-01-12 08:18:20.74	113.50	16.48	-48.9	-50.3	15.0	0.00e+00	0	23	0	467664896	63	4359
2026-01-12 08:18:24.71	113.18	16.90	-48.8	-50.2	15.0	0.00e+00	0	23	0	480247808	63	4306
2026-01-12 08:18:28.69	112.84	17.33	-48.8	-50.2	15.1	0.00e+00	0	23	0	491782144	63	4292
2026-01-12 08:18:32.67	112.50	17.77	-48.7	-50.0	15.1	0.00e+00	0	23	0	504365056	63	4225
2026-01-12 08:18:36.65	112.14	18.22	-48.8	-50.1	15.1	0.00e+00	0	23	0	516947968	63	4272
2026-01-12 08:18:40.63	111.78	18.67	-48.9	-50.3	15.0	0.00e+00	0	23	0	529530880	63	4341
2026-01-12 08:18:44.60	111.40	19.12	-49.0	-50.4	14.9	0.00e+00	0	23	0	542113792	63	4405
2026-01-12 08:18:48.58	111.01	19.59	-48.8	-50.1	15.0	0.00e+00	0	23	0	554696704	63	4281
2026-01-12 08:18:52.57	110.61	20.06	-48.7	-50.0	15.1	0.00e+00	0	23	0	567279616	63	4220
2026-01-12 08:18:56.55	110.20	20.54	-48.4	-49.7	15.3	0.00e+00	0	23	0	578813952	63	4076
2026-01-12 08:19:00.51	109.77	21.03	-48.2	-49.5	15.4	0.00e+00	0	23	0	591396864	63	3964
2026-01-12 08:19:04.49	109.33	21.53	-48.1	-49.3	15.3	0.00e+00	0	23	0	603979776	62	4118
2026-01-12 08:19:08.50	108.87	22.03	-47.8	-49.0	15.4	0.00e+00	0	23	0	616562688	62	4004
2026-01-12 08:19:12.48	108.39	22.54	-47.6	-48.8	15.4	0.00e+00	0	23	0	629145600	61	4110
2026-01-12 08:19:16.45	107.91	23.06	-47.4	-48.5	15.5	0.00e+00	0	23	0	641728512	61	3999
2026-01-12 08:19:20.45	107.40	23.59	-47.4	-48.5	15.5	0.00e+00	0	23	0	654311424	61	3996
2026-01-12 08:19:24.44	106.87	24.13	-47.4	-48.6	15.5	0.00e+00	0	23	0	665845760	61	4033
2026-01-12 08:19:28.42	106.33	24.68	-47.6	-48.8	15.4	0.00e+00	0	23	0	678428672	61	4101
2026-01-12 08:19:32.40	105.77	25.23	-47.7	-49.0	15.3	0.00e+00	0	23	0	691011584	61	4208
2026-01-12 08:19:36.37	105.19	25.79	-47.8	-49.0	15.3	0.00e+00	0	23	0	703594496	61	4242
2026-01-12 08:19:40.34	104.58	26.36	-48.1	-49.4	15.2	0.00e+00	0	23	0	716177408	61	4400
2026-01-12 08:19:44.32	103.95	26.94	-48.0	-49.2	15.2	0.00e+00	0	23	0	728760320	61	4326
2026-01-12 08:19:48.30	103.30	27.53	-48.3	-49.6	15.1	0.00e+00	0	23	0	741343232	61	4516
2026-01-12 08:19:52.28	102.63	28.12	-48.5	-49.8	15.1	0.00e+00	0	23	0	752877568	62	4385
2026-01-12 08:19:56.25	101.93	28.72	-48.3	-49.5	15.2	0.00e+00	0	23	0	765460480	62	4217
2026-01-12 08:20:00.24	101.20	29.34	-48.6	-49.9	15.1	0.00e+00	0	23	0	778043392	62	4439
2026-01-12 08:20:04.21	100.44	29.96	-48.6	-49.9	15.1	0.00e+00	0	23	0	790626304	62	4424
2026-01-12 08:20:08.18	99.65	30.58	-48.4	-49.7	15.2	0.00e+00	0	23	0	803209216	62	4295
2026-01-12 08:20:12.19	98.83	31.22	-48.5	-49.8	15.1	0.00e+00	0	23	0	815792128	62	4347
2026-01-12 08:20:16.15	97.98	31.86	-48.7	-50.0	15.0	0.00e+00	0	23	0	828375040	62	4477
2026-01-12 08:20:20.14	97.09	32.51	-48.6	-49.9	15.1	0.00e+00	0	23	0	839909376	62	4397
2026-01-12 08:20:24.11	96.16	33.16	-48.7	-50.0	15.0	0.00e+00	0	23	0	852492288	62	4473
2026-01-12 08:20:28.09	95.20	33.82	-49.0	-50.3	15.0	0.00e+00	0	23	0	865075200	63	4357
2026-01-12 08:20:32.07	94.19	34.49	-49.3	-50.6	14.9	0.00e+00	0	23	0	877658112	63	4539
2026-01-12 08:20:36.05	93.15	35.15	-49.8	-51.2	14.7	0.00e+00	0	23	0	890241024	64	4589
2026-01-12 08:20:40.04	92.05	35.83	-50.0	-51.5	14.7	0.00e+00	0	23	0	902823936	65	4442
2026-01-12 08:20:44.02	90.92	36.50	-49.6	-50.9	15.0	0.00e+00	0	23	0	915406848	65	4189
2026-01-12 08:20:47.99	89.73	37.17	-49.7	-51.1	14.9	0.00e+00	0	23	0	926941184	65	4282
2026-01-12 08:20:51.97	88.50	37.84	-49.7	-51.1	14.9	0.00e+00	0	23	0	939524096	65	4282
2026-01-12 08:20:55.95	87.21	38.51	-49.8	-51.2	14.8	0.00e+00	0	23	0	952107008	65	4330
2026-01-12 08:20:59.92	85.87	39.17	-50.2	-51.7	14.6	0.00e+00	0	23	0	964689920	65	4578
2026-01-12 08:21:03.89	84.48	39.83	-50.0	-51.5	14.7	0.00e+00	0	23	0	977272832	65	4465
2026-01-12 08:21:07.88	83.02	40.48	-50.6	-52.2	14.5	0.00e+00	0	23	0	989855744	66	4550
2026-01-12 08:21:11.86	81.51	41.12	-50.7	-52.3	14.4	0.00e+00	0	23	0	1002438656	66	4619
2026-01-12 08:21:15.82	79.94	41.74	-50.1	-51.5	14.9	0.00e+00	0	23	0	1013972992	66	4227
2026-01-12 08:21:19.79	78.30	42.35	-50.7	-52.2	14.4	0.00e+00	0	23	0	1026555904	66	4591
2026-01-12 08:21:23.78	76.60	42.95	-50.7	-52.3	14.5	0.00e+00	0	23	0	1039138816	66	4629
2026-01-12 08:21:27.77	74.83	43.52	-51.1	-52.7	14.3	0.00e+00	0	23	0	1051721728	67	4581
2026-01-12 08:21:31.76	73.00	44.07	-50.8	-52.4	14.5	0.00e+00	0	23	0	1064304640	67	4412
2026-01-12 08:21:35.73	71.12	44.60	-50.5	-52.0	14.7	0.00e+00	0	23	0	1076887552	67	4224
2026-01-12 08:21:39.70	69.17	45.09	-51.0	-52.6	14.4	0.00e+00	0	23	0	1089470464	67	4529
2026-01-12 08:21:43.69	67.15	45.55	-51.6	-53.3	14.2	0.00e+00	0	23	0	1101004800	68	4643
2026-01-12 08:21:47.66	65.09	45.98	-50.7	-52.2	14.9	0.00e+00	0	23	0	1113587712	68	4077
2026-01-12 08:21:51.62	62.98	46.36	-50.4	-51.8	14.9	0.00e+00	0	23	0	1126170624	67	4126
2026-01-12 08:21:55.59	60.81	46.71	-51.1	-52.7	14.3	0.00e+00	0	23	0	1138753536	67	4591
2026-01-12 08:21:59.57	58.59	47.01	-50.7	-52.2	14.6	0.00e+00	0	23	0	1151336448	67	4330
2026-01-12 08:22:03.54	56.34	47.27	-50.3	-51.8	14.9	0.00e+00	0	23	0	1163919360	67	4120
2026-01-12 08:22:07.51	54.05	47.48	-50.6	-52.1	14.7	0.00e+00	0	23	0	1176502272	67	4264
2026-01-12 08:22:11.48	51.74	47.64	-50.6	-52.2	14.7	0.00e+00	0	23	0	1188036608	67	4300
2026-01-12 08:22:15.45	49.41	47.75	-50.7	-52.3	14.6	0.00e+00	0	23	0	1200619520	67	4360
2026-01-12 08:22:19.44	47.05	47.80	-51.0	-52.6	14.4	0.00e+00	0	23	0	1213202432	67	4508
2026-01-12 08:22:23.41	44.70	47.81	-51.3	-53.1	14.1	0.00e+00	0	23	0	1225785344	67	4775
2026-01-12 08:22:27.40	42.34	47.76	-50.4	-51.9	14.9	0.00e+00	0	23	0	1238368256	67	4147
2026-01-12 08:22:31.38	40.00	47.65	-50.8	-52.4	14.6	0.00e+00	0	23	0	1250951168	67	4413
2026-01-12 08:22:35.36	37.68	47.50	-50.1	-51.6	14.9	0.00e+00	0	23	0	1263534080	66	4246
2026-01-12 08:22:39.33	35.39	47.30	-50.6	-52.1	14.5	0.00e+00	0	23	0	1275068416	66	4526
2026-01-12 08:22:43.30	33.13	47.05	-51.0	-52.6	14.4	0.00e+00	0	23	0	1287651328	67	4511
2026-01-12 08:22:47.27	30.92	46.75	-51.6	-53.2	14.4	0.00e+00	0	23	0	1300234240	69	4334
2026-01-12 08:22:51.24	28.75	46.41	-50.8	-52.3	14.9	0.00e+00	0	23	0	1312817152	68	4132
2026-01-12 08:22:55.22	26.62	46.03	-50.5	-52.0	14.8	0.00e+00	0	23	0	1325400064	67	4215
2026-01-12 08:22:59.19	24.55	45.61	-49.4	-50.8	15.1	0.00e+00	0	23	0	1336934400	65	4102
2026-01-12 08:23:03.17	22.54	45.15	-51.1	-52.8	14.3	0.00e+00	0	23	0	1349517312	67	4618
2026-01-12 08:23:07.16	20.58	44.66	-49.9	-51.3	15.0	0.00e+00	0	23	0	1362100224	66	4108
2026-01-12 08:23:11.15	18.68	44.14	-50.7	-52.2	14.5	0.00e+00	0	23	0	1374683136	66	4546
2026-01-12 08:23:15.13	16.85	43.59	-49.4	-50.7	15.2	0.00e+00	0	23	0	1387266048	65	4065
2026-01-12 08:23:19.11	15.08	43.02	-51.9	-53.7	14.0	0.00e+00	0	23	0	1399848960	68	4822
2026-01-12 08:23:23.09	13.38	42.43	-50.2	-51.6	14.9	0.00e+00	0	23	0	1412431872	67	4032
2026-01-12 08:23:27.07	11.74	41.82	-51.0	-52.6	14.3	0.00e+00	0	23	0	1425014784	67	4520
2026-01-12 08:23:31.05	10.16	41.20	-49.2	-50.5	15.0	0.00e+00	0	23	0	1437597696	64	4212
2026-01-12 08:23:35.04	8.63	40.56	-53.0	-55.2	13.4	0.00e+00	0	23	0	1449132032	71	4860
2026-01-12 08:23:39.03	7.17	39.91	-50.9	-52.4	14.7	0.00e+00	0	23	0	1461714944	68	4151
2026-01-12 08:23:43.01	5.77	39.26	-51.0	-52.6	14.4	0.00e+00	0	23	0	1474297856	67	4524
2026-01-12 08:23:47.00	4.42	38.59	-50.2	-51.6	14.9	0.00e+00	0	23	0	1486880768	67	4039
2026-01-12 08:23:50.98	3.13	37.93	-50.4	-51.9	14.5	0.00e+00	0	23	0	1499463680	65	4705
2026-01-12 08:23:54.95	1.90	37.26	-51.1	-52.6	14.5	0.00e+00	0	23	0	1512046592	68	4287
2026-01-12 08:23:58.94	0.71	36.59	-49.8	-51.2	15.0	0.00e+00	0	23	0	1524629504	66	4067
2026-01-12 08:24:02.91	359.57	35.92	-49.6	-51.0	15.0	0.00e+00	0	23	0	1536163840	65	4218
2026-01-12 08:24:06.89	358.48	35.25	-48.6	-49.9	15.2	0.00e+00	0	23	0	1548746752	63	4149
2026-01-12 08:24:10.88	357.42	34.58	-48.6	-49.8	15.2	0.00e+00	0	23	0	1561329664	62	4372
2026-01-12 08:24:14.85	356.42	33.92	-49.8	-51.3	14.7	0.00e+00	0	23	0	1573912576	64	4618
2026-01-12 08:24:18.82	355.46	33.27	-49.5	-50.9	14.9	0.00e+00	0	23	0	1586495488	64	4394
2026-01-12 08:24:22.80	354.53	32.61	-48.7	-49.9	15.2	0.00e+00	0	23	0	1599078400	63	4172
2026-01-12 08:24:26.79	353.64	31.96	-48.6	-49.9	15.2	0.00e+00	0	23	0	1611661312	63	4178
2026-01-12 08:24:30.77	352.78	31.32	-48.3	-49.6	15.4	0.00e+00	0	23	0	1623195648	63	4017
2026-01-12 08:24:34.74	351.96	30.69	-48.0	-49.2	15.4	0.00e+00	0	23	0	1635778560	62	4090
2026-01-12 08:24:38.73	351.17	30.06	-48.1	-49.3	15.3	0.00e+00	0	23	0	1648361472	62	4130
2026-01-12 08:24:42.71	350.41	29.44	-48.3	-49.5	15.3	0.00e+00	0	23	0	1660944384	62	4224
2026-01-12 08:24:46.68	349.68	28.83	-48.7	-50.0	15.1	0.00e+00	0	23	0	1673527296	62	4447
2026-01-12 08:24:50.65	348.98	28.23	-48.6	-49.9	15.1	0.00e+00	0	23	0	1686110208	62	4399
2026-01-12 08:24:54.63	348.31	27.64	-48.2	-49.5	15.3	0.00e+00	0	23	0	1698693120	62	4198
2026-01-12 08:24:58.63	347.65	27.05	-47.8	-49.0	15.5	0.00e+00	0	23	0	1710227456	62	3994
2026-01-12 08:25:02.57	347.03	26.48	-47.7	-48.9	15.4	0.00e+00	0	23	0	1722810368	61	4153
2026-01-12 08:25:06.55	346.42	25.91	-48.1	-49.3	15.2	0.00e+00	0	23	0	1735393280	61	4375
2026-01-12 08:25:10.52	345.84	25.35	-48.7	-50.0	15.1	0.00e+00	0	23	0	1747976192	62	4451
2026-01-12 08:25:14.50	345.28	24.79	-48.6	-49.9	15.1	0.00e+00	0	23	0	1760559104	62	4423
2026-01-12 08:25:18.48	344.74	24.25	-48.5	-49.7	15.2	0.00e+00	0	23	0	1773142016	62	4340
2026-01-12 08:25:22.45	344.21	23.72	-48.2	-49.5	15.3	0.00e+00	0	23	0	1785724928	62	4233
2026-01-12 08:25:26.44	343.71	23.19	-48.1	-49.4	15.3	0.00e+00	0	23	0	1797259264	62	4167
2026-01-12 08:25:30.43	343.22	22.67	-48.0	-49.2	15.4	0.00e+00	0	23	0	1809842176	62	4080
2026-01-12 08:25:34.40	342.74	22.16	-48.2	-49.4	15.3	0.00e+00	0	23	0	1822425088	62	4161
2026-01-12 08:25:38.38	342.29	21.65	-48.3	-49.5	15.2	0.00e+00	0	23	0	1835008000	62	4219
2026-01-12 08:25:42.37	341.84	21.16	-48.2	-49.4	15.2	0.00e+00	0	23	0	1847590912	62	4165
2026-01-12 08:25:46.34	341.42	20.67	-47.8	-49.0	15.4	0.00e+00	0	23	0	1860173824	62	3981
2026-01-12 08:25:50.32	341.00	20.19	-47.5	-48.7	15.4	0.00e+00	0	23	0	1872756736	61	4081
2026-01-12 08:25:54.30	340.60	19.72	-47.8	-48.9	15.3	0.00e+00	0	23	0	1884291072	61	4193
2026-01-12 08:25:58.27	340.21	19.25	-48.1	-49.4	15.2	0.00e+00	0	23	0	1896873984	61	4400
2026-01-12 08:26:02.23	339.84	18.80	-48.5	-49.7	15.1	0.00e+00	0	23	0	1909456896	62	4331
2026-01-12 08:26:06.19	339.47	18.35	-48.4	-49.7	15.1	0.00e+00	0	23	0	1922039808	62	4301
2026-01-12 08:26:10.17	339.12	17.91	-48.5	-49.7	15.1	0.00e+00	0	23	0	1934622720	62	4325
2026-01-12 08:26:14.14	338.78	17.47	-48.5	-49.8	15.1	0.00e+00	0	23	0	1946157056	62	4361
2026-01-12 08:26:18.12	338.44	17.04	-48.6	-49.9	15.0	0.00e+00	0	23	0	1958739968	62	4406
2026-01-12 08:26:22.10	338.12	16.61	-48.3	-49.6	15.2	0.00e+00	0	23	0	1971322880	62	4250
2026-01-12 08:26:26.08	337.81	16.20	-48.4	-49.6	15.1	0.00e+00	0	23	0	1983905792	62	4279
2026-01-12 08:26:30.06	337.50	15.78	-48.5	-49.7	15.1	0.00e+00	0	23	0	1996488704	62	4328
2026-01-12 08:26:34.04	337.20	15.38	-48.8	-50.1	14.9	0.00e+00	0	23	0	2009071616	62	4508
2026-01-12 08:26:38.01	336.91	14.98	-48.9	-50.2	14.9	0.00e+00	0	23	0	2021654528	62	4598
2026-01-12 08:26:41.99	336.63	14.58	-49.1	-50.5	14.9	0.00e+00	0	23	0	2033188864	63	4453
2026-01-12 08:26:45.96	336.36	14.20	-49.2	-50.6	14.8	0.00e+00	0	23	0	2045771776	63	4522
2026-01-12 08:26:49.96	336.09	13.81	-49.3	-50.8	14.7	0.00e+00	0	23	0	2058354688	63	4600
2026-01-12 08:26:53.94	335.84	13.43	-49.2	-50.6	14.9	0.00e+00	0	23	0	2070937600	64	4283
2026-01-12 08:26:57.91	335.59	13.06	-49.2	-50.6	14.9	0.00e+00	0	23	0	2083520512	64	4276
2026-01-12 08:27:01.86	335.34	12.70	-49.3	-50.7	14.8	0.00e+00	0	23	0	2096103424	64	4330
2026-01-12 08:27:05.83	335.10	12.34	-49.1	-50.4	15.0	0.00e+00	0	23	0	2108686336	64	4182
2026-01-12 08:27:09.80	334.87	11.98	-49.1	-50.5	14.9	0.00e+00	0	23	0	2120220672	64	4220
2026-01-12 08:27:13.79	334.65	11.62	-49.0	-50.4	15.0	0.00e+00	0	23	0	2132803584	64	4176
2026-01-12 08:27:17.74	334.43	11.28	-49.2	-50.6	14.9	0.00e+00	0	23	0	2145386496	64	4245
2026-01-12 08:27:21.71	334.21	10.93	-49.2	-50.6	14.9	0.00e+00	0	23	0	2157969408	64	4260
2026-01-12 08:27:25.68	334.00	10.60	-49.2	-50.6	14.9	0.00e+00	0	23	0	2170552320	64	4252
2026-01-12 08:27:29.65	333.80	10.26	-49.4	-50.8	14.7	0.00e+00	0	23	0	2183135232	64	4363
2026-01-12 08:27:33.63	333.60	9.93	-49.5	-51.0	14.6	0.00e+00	0	23	0	2194669568	64	4455
2026-01-12 08:27:37.61	333.40	9.60	-49.5	-50.9	14.7	0.00e+00	0	23	0	2207252480	64	4428
2026-01-12 08:27:41.60	333.21	9.28	-49.7	-51.2	14.5	0.00e+00	0	23	0	2219835392	64	4572
2026-01-12 08:27:45.58	333.02	8.96	-49.8	-51.3	14.4	0.00e+00	0	23	0	2232418304	64	4639
2026-01-12 08:27:49.56	332.84	8.64	-49.8	-51.4	14.4	0.00e+00	0	23	0	2245001216	64	4669
2026-01-12 08:27:53.53	332.67	8.33	-50.0	-51.6	14.4	0.00e+00	0	23	0	2257584128	65	4503
2026-01-12 08:27:57.51	332.49	8.02	-50.0	-51.6	14.4	0.00e+00	0	23	0	2270167040	65	4500
2026-01-12 08:28:01.49	332.32	7.71	-50.2	-51.8	14.2	0.00e+00	0	23	0	2281701376	65	4643
2026-01-12 08:28:05.45	332.16	7.41	-50.3	-52.0	14.1	0.00e+00	0	23	0	2294284288	65	4714
2026-01-12 08:28:09.42	332.00	7.11	-50.6	-52.4	14.1	0.00e+00	0	23	0	2306867200	66	4661
2026-01-12 08:28:13.41	331.84	6.82	-50.0	-51.5	14.6	0.00e+00	0	23	0	2319450112	66	4230
2026-01-12 08:28:17.39	331.68	6.53	-50.5	-52.2	14.1	0.00e+00	0	23	0	2332033024	66	4577
2026-01-12 08:28:21.38	331.53	6.24	-50.9	-52.7	14.0	0.00e+00	0	23	0	2344615936	67	4561
2026-01-12 08:28:25.36	331.38	5.95	-50.7	-52.4	14.1	0.00e+00	0	23	0	2357198848	67	4437
2026-01-12 08:28:29.34	331.24	5.67	-51.1	-53.0	13.7	0.00e+00	0	23	0	2368733184	67	4753
2026-01-12 08:28:33.31	331.10	5.39	-51.4	-53.4	13.6	0.00e+00	0	23	0	2381316096	68	4684
2026-01-12 08:28:37.29	330.96	5.11	-51.4	-53.3	13.7	0.00e+00	0	23	0	2393899008	68	4634
2026-01-12 08:28:41.29	330.82	4.83	-58.4	-72.2	3.8	1.49e+00	0	23	104	2399141888	81	19344
2026-01-12 08:28:45.31	330.69	4.55	-59.1	-72.9	3.8	1.49e+00	0	23	104	2399141888	83	18619
2026-01-12 08:28:49.33	330.55	4.28	-59.3	-73.1	3.8	1.49e+00	0	23	104	2399141888	83	19085
2026-01-12 08:28:53.35	330.42	4.01	-59.6	-73.4	3.8	1.49e+00	0	23	104	2399141888	84	18682
2026-01-12 08:28:57.36	330.30	3.74	-59.7	-73.5	3.8	1.49e+00	0	23	104	2399141888	84	18878
2026-01-12 08:29:01.37	330.18	3.48	-59.7	-73.5	3.8	1.49e+00	0	23	104	2399141888	84	18868
2026-01-12 08:29:05.33	330.06	3.22	-59.6	-73.5	3.8	1.49e+00	0	23	104	2399141888	84	18776
2026-01-12 08:29:09.31	329.94	2.96	-59.6	-73.4	3.8	1.49e+00	0	23	104	2399141888	84	18665
2026-01-12 08:29:13.28	329.82	2.71	-59.6	-73.4	3.8	1.49e+00	0	23	104	2399141888	84	18671
2026-01-12 08:29:17.27	329.71	2.45	-59.6	-73.4	3.8	1.49e+00	0	24	104	2399141888	84	18601
2026-01-12 08:29:21.24	329.60	2.20	-59.5	-73.3	3.8	1.49e+00	0	23	104	2399141888	84	18473
2026-01-12 08:29:25.22	329.49	1.95	-59.5	-73.4	3.8	1.49e+00	0	23	104	2399141888	84	18548

#Closed at: 2026-01-12 08:29:27
#Recorded file [2399 MB]: D:/lorett/data/31004_260112_111521.dat