passes_logs/2026/01/12/R3.2S_Murmansk/R3.2S_Murmansk__20260112_090518_NOAA_20_JPSS-1_rec.log

#Pass ID: 20260112_090518_NOAA 20 (JPSS-1)
#Satellite: NOAA 20 (JPSS-1)
#Configuration: NOAA 20
#almurnet v.1.7.20251203
#Start time: 2026-01-12 09:05:18

#Version: 2.2.20231116
#Station: R3.2S_Murmansk
#Location: 33.079688 lon 68.888172 lat
#TLE: 1 43013U 17073A   26011.59429536  .00000082  00000+0  59704-4 0  9990
#TLE: 2 43013  98.7632 312.5697 0001637  44.2118 315.9188 14.19535307422256

#Time	Az	El	Level	Level2	SNR	BER	BlckErr	Temp	State	Recorded	gain1	gain2
2026-01-12 09:05:18.36	141.32	1.98	-57.0	-73.0	3.8	1.49e+00	0	21	0	0	80	22304
2026-01-12 09:05:22.32	141.29	2.24	-57.0	-72.9	3.8	1.49e+00	0	21	104	0	79	23448
2026-01-12 09:05:26.29	141.25	2.50	-57.0	-73.0	3.8	1.49e+00	0	21	104	0	79	23589
2026-01-12 09:05:30.27	141.22	2.76	-57.0	-72.9	3.8	1.49e+00	0	21	104	0	79	23467
2026-01-12 09:05:34.24	141.18	3.02	-57.0	-72.8	3.8	1.49e+00	0	21	104	0	79	23307
2026-01-12 09:05:38.21	141.14	3.29	-57.0	-72.6	3.8	1.49e+00	0	21	104	0	79	22729
2026-01-12 09:05:42.20	141.10	3.55	-56.9	-71.0	3.8	1.49e+00	0	21	104	0	79	18928
2026-01-12 09:05:46.20	141.06	3.83	-56.8	-68.4	4.5	1.19e+00	0	21	0	1048576	79	13934
2026-01-12 09:05:50.17	141.02	4.10	-56.2	-63.7	7.6	1.28e-01	0	21	0	8388608	79	8145
2026-01-12 09:05:54.15	140.98	4.38	-55.3	-60.4	10.6	1.32e-03	0	22	0	15728640	77	6220
2026-01-12 09:05:58.14	140.94	4.66	-54.7	-59.1	11.6	9.15e-05	0	22	0	24117248	76	5702
2026-01-12 09:06:02.12	140.90	4.94	-54.7	-59.1	11.4	8.77e-05	0	22	0	31457280	75	6010
2026-01-12 09:06:06.11	140.85	5.22	-53.8	-57.1	13.0	3.01e-02	0	22	0	38797312	74	5082
2026-01-12 09:06:10.08	140.81	5.51	-53.3	-56.3	13.6	0.00e+00	0	22	0	46137344	73	4893
2026-01-12 09:06:14.06	140.76	5.80	-53.1	-56.0	13.6	0.00e+00	0	22	0	53477376	72	5022
2026-01-12 09:06:18.03	140.71	6.10	-53.0	-55.8	13.8	0.00e+00	0	22	0	60817408	72	4888
2026-01-12 09:06:21.97	140.66	6.39	-52.8	-55.5	14.1	0.00e+00	0	22	0	68157440	72	4709
2026-01-12 09:06:25.91	140.61	6.69	-52.9	-55.5	14.1	0.00e+00	0	22	0	75497472	72	4728
2026-01-12 09:06:29.86	140.56	6.99	-52.9	-55.6	14.0	0.00e+00	0	22	0	82837504	72	4778
2026-01-12 09:06:33.82	140.51	7.30	-52.9	-55.6	14.1	0.00e+00	0	22	0	90177536	72	4769
2026-01-12 09:06:37.79	140.45	7.61	-52.9	-55.5	14.1	0.00e+00	0	22	0	97517568	72	4715
2026-01-12 09:06:41.75	140.40	7.93	-52.7	-55.2	14.3	0.00e+00	0	22	0	105906176	72	4565
2026-01-12 09:06:45.72	140.34	8.25	-52.5	-54.8	14.4	0.00e+00	0	22	0	113246208	71	4650
2026-01-12 09:06:49.67	140.28	8.57	-52.5	-54.8	14.5	0.00e+00	0	22	0	120586240	71	4651
2026-01-12 09:06:53.64	140.22	8.90	-52.5	-54.8	14.5	0.00e+00	0	22	0	127926272	71	4609
2026-01-12 09:06:57.65	140.16	9.23	-52.3	-54.5	14.7	0.00e+00	0	22	0	135266304	71	4484
2026-01-12 09:07:01.65	140.09	9.57	-52.2	-54.4	14.8	0.00e+00	0	22	0	142606336	71	4429
2026-01-12 09:07:05.65	140.03	9.91	-52.1	-54.2	14.7	0.00e+00	0	22	0	149946368	70	4594
2026-01-12 09:07:09.66	139.96	10.26	-52.0	-54.1	14.8	0.00e+00	0	22	0	158334976	70	4510
2026-01-12 09:07:13.66	139.89	10.62	-51.8	-53.9	14.9	0.00e+00	0	22	0	165675008	70	4415
2026-01-12 09:07:17.69	139.81	10.98	-51.8	-53.8	15.0	0.00e+00	0	22	0	173015040	70	4354
2026-01-12 09:07:21.72	139.74	11.34	-51.7	-53.7	14.9	0.00e+00	0	22	0	180355072	69	4557
2026-01-12 09:07:25.75	139.66	11.72	-51.6	-53.5	14.9	0.00e+00	0	22	0	187695104	69	4489
2026-01-12 09:07:29.78	139.58	12.09	-51.4	-53.4	15.1	7.00e-07	0	22	0	195035136	69	4393
2026-01-12 09:07:33.81	139.50	12.48	-51.4	-53.3	15.2	0.00e+00	0	22	0	203423744	69	4354
2026-01-12 09:07:37.83	139.41	12.87	-51.3	-53.2	15.2	0.00e+00	0	22	0	210763776	69	4310
2026-01-12 09:07:41.87	139.33	13.26	-51.2	-53.0	15.3	0.00e+00	0	22	0	218103808	69	4220
2026-01-12 09:07:45.89	139.24	13.66	-51.1	-52.9	15.2	0.00e+00	0	22	0	225443840	68	4396
2026-01-12 09:07:49.93	139.14	14.07	-51.0	-52.8	15.3	0.00e+00	0	22	0	232783872	68	4385
2026-01-12 09:07:53.95	139.05	14.49	-51.0	-52.8	15.3	0.00e+00	0	22	0	241172480	68	4381
2026-01-12 09:07:57.97	138.95	14.91	-50.9	-52.7	15.3	0.00e+00	0	22	0	248512512	68	4308
2026-01-12 09:08:01.99	138.85	15.34	-50.9	-52.6	15.4	0.00e+00	0	22	0	255852544	68	4272
2026-01-12 09:08:06.02	138.74	15.78	-50.7	-52.4	15.5	0.00e+00	0	22	0	263192576	68	4193
2026-01-12 09:08:10.05	138.63	16.22	-50.8	-52.5	15.5	0.00e+00	0	23	0	271581184	68	4199
2026-01-12 09:08:14.08	138.52	16.68	-50.4	-52.0	15.5	0.00e+00	0	22	0	278921216	67	4229
2026-01-12 09:08:18.11	138.40	17.14	-50.2	-51.9	15.6	0.00e+00	0	22	0	286261248	67	4154
2026-01-12 09:08:22.14	138.28	17.61	-50.2	-51.9	15.6	0.00e+00	0	23	0	293601280	67	4151
2026-01-12 09:08:26.17	138.15	18.09	-50.1	-51.7	15.5	0.00e+00	0	23	0	300941312	66	4311
2026-01-12 09:08:30.20	138.02	18.58	-50.0	-51.5	15.6	0.00e+00	0	23	0	308281344	66	4228
2026-01-12 09:08:34.23	137.89	19.08	-49.9	-51.4	15.6	0.00e+00	0	23	0	316669952	66	4166
2026-01-12 09:08:38.24	137.75	19.59	-49.8	-51.3	15.7	0.00e+00	0	22	0	324009984	66	4130
2026-01-12 09:08:42.27	137.60	20.11	-49.6	-51.1	15.6	0.00e+00	0	23	0	331350016	65	4260
2026-01-12 09:08:46.29	137.45	20.64	-49.6	-51.1	15.6	0.00e+00	0	23	0	338690048	65	4247
2026-01-12 09:08:50.32	137.30	21.18	-49.7	-51.2	15.6	0.00e+00	0	23	0	346030080	65	4294
2026-01-12 09:08:54.35	137.13	21.73	-49.6	-51.1	15.6	0.00e+00	0	22	0	354418688	65	4285
2026-01-12 09:08:58.39	136.97	22.30	-49.7	-51.3	15.5	0.00e+00	0	22	0	361758720	65	4347
2026-01-12 09:09:02.42	136.79	22.88	-49.7	-51.2	15.6	0.00e+00	0	22	0	369098752	65	4333
2026-01-12 09:09:06.45	136.61	23.47	-49.8	-51.3	15.6	0.00e+00	0	23	0	376438784	65	4365
2026-01-12 09:09:10.48	136.42	24.07	-49.9	-51.4	15.5	0.00e+00	0	23	0	384827392	65	4412
2026-01-12 09:09:14.50	136.22	24.69	-50.2	-51.8	15.3	0.00e+00	0	23	0	392167424	65	4622
2026-01-12 09:09:18.53	136.01	25.32	-50.5	-52.1	15.3	0.00e+00	0	22	0	399507456	66	4545
2026-01-12 09:09:22.56	135.79	25.97	-50.9	-52.6	15.2	0.00e+00	0	23	0	406847488	67	4507
2026-01-12 09:09:26.59	135.57	26.63	-51.1	-52.8	15.1	0.00e+00	0	23	0	414187520	67	4640
2026-01-12 09:09:30.63	135.33	27.32	-51.6	-53.5	14.9	0.00e+00	0	23	0	422576128	68	4732
2026-01-12 09:09:34.67	135.08	28.01	-52.0	-54.0	14.9	0.00e+00	0	23	0	429916160	69	4723
2026-01-12 09:09:38.70	134.82	28.73	-52.6	-54.8	14.6	0.00e+00	0	23	0	437256192	70	4876
2026-01-12 09:09:42.73	134.55	29.46	-53.1	-55.4	14.4	0.00e+00	0	23	0	444596224	71	4946
2026-01-12 09:09:46.76	134.27	30.21	-53.3	-55.7	14.2	0.00e+00	0	23	0	451936256	71	5138
2026-01-12 09:09:50.79	133.97	30.98	-53.5	-55.9	14.2	0.00e+00	0	23	0	460324864	72	4979
2026-01-12 09:09:54.83	133.65	31.77	-53.8	-56.3	13.9	0.00e+00	0	23	0	467664896	72	5216
2026-01-12 09:09:58.86	133.32	32.58	-54.2	-57.0	13.6	0.00e+00	0	22	0	475004928	73	5335
2026-01-12 09:10:02.89	132.97	33.41	-54.2	-57.1	13.5	0.00e+00	0	23	0	482344960	73	5371
2026-01-12 09:10:06.93	132.60	34.26	-54.4	-57.3	13.6	0.00e+00	0	23	0	489684992	74	5190
2026-01-12 09:10:10.96	132.21	35.14	-54.2	-56.9	13.8	0.00e+00	0	23	0	498073600	74	4967
2026-01-12 09:10:14.99	131.80	36.04	-53.9	-56.4	14.2	0.00e+00	0	22	0	505413632	74	4704
2026-01-12 09:10:19.02	131.37	36.96	-53.7	-56.2	14.2	0.00e+00	0	23	0	512753664	73	4852
2026-01-12 09:10:23.05	130.90	37.90	-54.1	-56.9	13.7	0.00e+00	0	23	0	520093696	73	5230
2026-01-12 09:10:27.07	130.41	38.87	-54.0	-56.7	13.9	0.00e+00	0	23	0	528482304	73	5131
2026-01-12 09:10:31.10	129.89	39.87	-54.0	-56.7	13.8	0.00e+00	0	23	0	535822336	73	5142
2026-01-12 09:10:35.13	129.33	40.89	-54.0	-56.7	13.8	0.00e+00	0	23	0	543162368	73	5132
2026-01-12 09:10:39.16	128.74	41.94	-53.9	-56.4	14.0	0.00e+00	0	22	0	550502400	73	4965
2026-01-12 09:10:43.19	128.10	43.02	-53.7	-56.2	14.2	0.00e+00	0	23	0	557842432	73	4860
2026-01-12 09:10:47.20	127.43	44.12	-53.0	-55.1	14.7	0.00e+00	0	23	0	566231040	72	4521
2026-01-12 09:10:51.24	126.69	45.25	-52.6	-54.6	14.9	0.00e+00	0	23	0	573571072	71	4543
2026-01-12 09:10:55.27	125.91	46.41	-52.5	-54.6	14.9	0.00e+00	0	22	0	580911104	71	4496
2026-01-12 09:10:59.30	125.06	47.59	-52.2	-54.1	15.0	0.00e+00	0	22	0	588251136	70	4504
2026-01-12 09:11:03.33	124.14	48.80	-52.2	-54.1	15.0	0.00e+00	0	23	0	595591168	70	4541
2026-01-12 09:11:07.36	123.14	50.03	-51.9	-53.7	15.2	0.00e+00	0	23	0	603979776	70	4324
2026-01-12 09:11:11.39	122.06	51.29	-51.0	-52.6	15.5	0.00e+00	0	23	0	611319808	68	4267
2026-01-12 09:11:15.42	120.88	52.57	-51.0	-52.7	15.5	0.00e+00	0	23	0	618659840	68	4299
2026-01-12 09:11:19.46	119.59	53.88	-50.6	-52.2	15.5	0.00e+00	0	23	0	625999872	67	4319
2026-01-12 09:11:23.49	118.18	55.19	-51.2	-52.9	15.1	0.00e+00	0	23	0	633339904	67	4688
2026-01-12 09:11:27.52	116.63	56.52	-52.9	-55.0	14.5	0.00e+00	0	22	0	641728512	70	5008
2026-01-12 09:11:31.55	114.92	57.86	-54.5	-57.3	13.6	0.00e+00	0	23	0	649068544	74	5185
2026-01-12 09:11:35.59	113.03	59.21	-53.6	-55.9	14.4	0.00e+00	0	23	0	656408576	73	4703
2026-01-12 09:11:39.62	110.93	60.55	-52.2	-54.1	15.2	0.00e+00	0	23	0	663748608	71	4259
2026-01-12 09:11:43.65	108.60	61.88	-51.5	-53.2	15.3	0.00e+00	0	23	0	671088640	69	4333
2026-01-12 09:11:47.68	106.00	63.20	-50.2	-51.7	15.6	0.00e+00	0	23	0	679477248	66	4298
2026-01-12 09:11:51.71	103.11	64.48	-51.1	-52.7	15.2	0.00e+00	0	23	0	686817280	67	4593
2026-01-12 09:11:55.73	99.88	65.71	-52.3	-54.2	14.8	0.00e+00	0	23	0	694157312	69	4843
2026-01-12 09:11:59.76	96.27	66.88	-54.3	-57.0	13.7	0.00e+00	0	22	0	701497344	73	5319
2026-01-12 09:12:03.80	92.23	67.98	-53.7	-56.1	14.3	0.00e+00	0	23	0	709885952	73	4792
2026-01-12 09:12:07.83	87.77	68.98	-52.8	-54.8	15.0	0.00e+00	0	23	0	717225984	72	4344
2026-01-12 09:12:11.87	82.84	69.86	-52.1	-53.9	15.2	0.00e+00	0	23	0	724566016	70	4406
2026-01-12 09:12:15.90	77.48	70.58	-52.5	-54.4	14.9	0.00e+00	0	23	0	731906048	70	4682
2026-01-12 09:12:19.92	71.75	71.14	-52.3	-54.2	14.8	0.00e+00	0	23	0	739246080	69	4863
2026-01-12 09:12:23.96	65.68	71.52	-52.8	-54.8	14.7	0.00e+00	0	23	0	747634688	70	4886
2026-01-12 09:12:27.99	59.43	71.69	-52.7	-54.7	14.9	0.00e+00	0	23	0	754974720	71	4588
2026-01-12 09:12:32.02	53.13	71.65	-52.4	-54.3	15.1	0.00e+00	0	23	0	762314752	71	4362
2026-01-12 09:12:36.05	46.93	71.41	-51.6	-53.3	15.4	0.00e+00	0	23	0	769654784	69	4385
2026-01-12 09:12:40.08	40.98	70.96	-51.4	-53.1	15.5	0.00e+00	0	23	0	776994816	69	4257
2026-01-12 09:12:44.11	35.37	70.34	-52.9	-55.0	14.6	0.00e+00	0	23	0	785383424	70	4988
2026-01-12 09:12:48.14	30.17	69.55	-54.0	-56.5	14.1	0.00e+00	0	23	0	792723456	73	4989
2026-01-12 09:12:52.18	25.41	68.63	-53.9	-56.3	14.2	0.00e+00	0	23	0	800063488	73	4903
2026-01-12 09:12:56.21	21.11	67.60	-54.9	-57.8	13.6	0.00e+00	0	23	0	807403520	75	5166
2026-01-12 09:13:00.24	17.24	66.47	-53.5	-55.7	14.6	0.00e+00	0	23	0	814743552	73	4582
2026-01-12 09:13:04.27	13.77	65.28	-52.2	-54.0	15.3	0.00e+00	0	23	0	823132160	71	4228
2026-01-12 09:13:08.31	10.66	64.02	-50.5	-52.0	15.6	0.00e+00	0	23	0	830472192	67	4235
2026-01-12 09:13:12.34	7.88	62.73	-50.3	-51.8	15.7	0.00e+00	0	23	0	837812224	67	4142
2026-01-12 09:13:16.37	5.38	61.41	-50.8	-52.4	15.4	0.00e+00	0	23	0	845152256	67	4428
2026-01-12 09:13:20.39	3.15	60.08	-52.0	-53.8	15.1	0.00e+00	0	23	0	852492288	69	4616
2026-01-12 09:13:24.42	1.13	58.74	-53.1	-55.2	14.8	0.00e+00	0	23	0	860880896	72	4596
2026-01-12 09:13:28.45	359.31	57.40	-53.9	-56.4	14.2	0.00e+00	0	23	0	868220928	73	4927
2026-01-12 09:13:32.48	357.67	56.07	-52.0	-53.8	15.3	0.00e+00	0	23	0	875560960	70	4345
2026-01-12 09:13:36.51	356.17	54.75	-51.0	-52.5	15.6	0.00e+00	0	22	0	882900992	68	4242
2026-01-12 09:13:40.55	354.80	53.44	-50.8	-52.3	15.7	0.00e+00	0	23	0	891289600	68	4116
2026-01-12 09:13:44.59	353.55	52.14	-50.6	-52.2	15.5	0.00e+00	0	23	0	898629632	67	4307
2026-01-12 09:13:48.61	352.42	50.88	-52.1	-54.0	15.0	0.00e+00	0	23	0	905969664	69	4734
2026-01-12 09:13:52.65	351.37	49.63	-53.0	-55.2	14.7	0.00e+00	0	23	0	913309696	71	4828
2026-01-12 09:13:56.69	350.40	48.40	-53.4	-55.7	14.3	0.00e+00	0	22	0	920649728	71	5114
2026-01-12 09:14:00.72	349.51	47.20	-53.3	-55.5	14.6	0.00e+00	0	23	0	929038336	72	4711
2026-01-12 09:14:04.74	348.68	46.04	-52.8	-54.8	15.0	0.00e+00	0	23	0	936378368	72	4366
2026-01-12 09:14:08.76	347.92	44.90	-52.9	-55.0	14.7	0.00e+00	0	23	0	943718400	71	4720
2026-01-12 09:14:12.79	347.21	43.78	-53.2	-55.5	14.4	0.00e+00	0	23	0	951058432	71	4984
2026-01-12 09:14:16.82	346.55	42.69	-54.2	-56.9	13.8	7.00e-07	0	23	0	958398464	73	5236
2026-01-12 09:14:20.85	345.93	41.62	-54.1	-56.6	14.1	0.00e+00	0	23	0	966787072	74	4793
2026-01-12 09:14:24.89	345.35	40.59	-54.0	-56.6	14.1	7.78e-05	0	23	0	974127104	74	4765
2026-01-12 09:14:28.91	344.80	39.58	-53.7	-56.5	13.8	1.13e-03	0	23	0	981467136	73	4995
2026-01-12 09:14:32.95	344.29	38.59	-53.1	-55.6	14.1	1.43e-03	0	23	0	988807168	72	4813
2026-01-12 09:14:36.97	343.82	37.63	-52.9	-55.2	14.2	1.36e-04	0	23	0	996147200	71	4816
2026-01-12 09:14:40.99	343.36	36.70	-53.1	-55.4	14.4	0.00e+00	0	23	0	1004535808	71	4945
2026-01-12 09:14:45.03	342.94	35.79	-53.6	-56.2	13.7	4.42e-04	0	23	0	1011875840	72	5110
2026-01-12 09:14:49.06	342.54	34.90	-53.4	-55.9	14.2	2.20e-06	0	23	0	1019215872	72	4933
2026-01-12 09:14:53.09	342.16	34.04	-53.4	-55.9	13.9	4.95e-04	0	23	0	1026555904	72	4962
2026-01-12 09:14:57.12	341.80	33.19	-54.1	-56.8	13.8	0.00e+00	0	23	0	1033895936	73	5202
2026-01-12 09:15:01.16	341.45	32.37	-54.1	-57.2	12.8	3.13e-02	0	23	0	1042284544	73	5423
2026-01-12 09:15:05.18	341.13	31.57	-53.5	-57.1	12.9	2.92e-02	0	23	0	1049624576	73	5345
2026-01-12 09:15:09.22	340.82	30.79	-53.4	-57.1	12.9	3.36e-02	0	23	0	1056964608	73	5351
2026-01-12 09:15:13.26	340.53	30.03	-54.4	-57.2	13.7	0.00e+00	0	23	0	1064304640	74	5117
2026-01-12 09:15:17.28	340.25	29.29	-54.3	-57.0	13.8	0.00e+00	0	23	0	1072693248	74	5023
2026-01-12 09:15:21.32	339.98	28.56	-54.1	-56.7	14.0	0.00e+00	0	23	0	1080033280	74	4868
2026-01-12 09:15:25.35	339.73	27.86	-53.9	-56.5	14.2	0.00e+00	0	23	0	1087373312	74	4723
2026-01-12 09:15:29.37	339.49	27.17	-53.4	-55.7	14.5	0.00e+00	0	23	0	1094713344	73	4584
2026-01-12 09:15:33.41	339.26	26.50	-53.1	-55.4	14.6	0.00e+00	0	23	0	1102053376	72	4670
2026-01-12 09:15:37.43	339.04	25.84	-53.2	-55.6	14.4	0.00e+00	0	23	0	1110441984	72	4762
2026-01-12 09:15:41.47	338.83	25.20	-52.9	-55.0	14.8	0.00e+00	0	23	0	1117782016	72	4473
2026-01-12 09:15:45.50	338.62	24.58	-52.5	-54.5	14.9	0.00e+00	0	23	0	1125122048	71	4468
2026-01-12 09:15:49.53	338.43	23.96	-51.9	-53.8	15.1	0.00e+00	0	23	0	1132462080	70	4369
2026-01-12 09:15:53.57	338.24	23.36	-51.8	-53.7	15.2	0.00e+00	0	23	0	1139802112	70	4294
2026-01-12 09:15:57.60	338.06	22.78	-51.9	-53.8	15.2	0.00e+00	0	23	0	1148190720	70	4345
2026-01-12 09:16:01.63	337.89	22.21	-52.0	-54.0	15.1	0.00e+00	0	23	0	1155530752	70	4442
2026-01-12 09:16:05.66	337.73	21.65	-52.2	-54.2	14.9	0.00e+00	0	23	0	1162870784	70	4562
2026-01-12 09:16:09.69	337.57	21.10	-52.4	-54.5	14.6	0.00e+00	0	23	0	1170210816	70	4714
2026-01-12 09:16:13.71	337.42	20.56	-52.6	-54.8	14.5	0.00e+00	0	23	0	1177550848	70	4884
2026-01-12 09:16:17.75	337.27	20.04	-52.8	-55.0	14.4	0.00e+00	0	23	0	1185939456	70	4990
2026-01-12 09:16:21.77	337.13	19.52	-52.7	-54.9	14.5	0.00e+00	0	23	0	1193279488	70	4957
2026-01-12 09:16:25.81	336.99	19.02	-52.8	-55.0	14.4	0.00e+00	0	22	0	1200619520	70	4999
2026-01-12 09:16:29.84	336.86	18.52	-52.8	-55.0	14.4	0.00e+00	0	23	0	1207959552	70	5041
2026-01-12 09:16:33.87	336.73	18.04	-52.9	-55.1	14.5	0.00e+00	0	23	0	1215299584	71	4799
2026-01-12 09:16:37.89	336.61	17.56	-53.0	-55.3	14.4	0.00e+00	0	23	0	1223688192	71	4872
2026-01-12 09:16:41.91	336.49	17.10	-52.9	-55.1	14.5	0.00e+00	0	23	0	1231028224	71	4801
2026-01-12 09:16:45.94	336.38	16.64	-53.0	-55.4	14.3	0.00e+00	0	23	0	1238368256	71	4932
2026-01-12 09:16:49.95	336.27	16.19	-53.1	-55.6	14.2	0.00e+00	0	23	0	1245708288	71	5043
2026-01-12 09:16:53.98	336.16	15.75	-53.2	-55.7	14.1	0.00e+00	0	23	0	1253048320	71	5124
2026-01-12 09:16:58.01	336.06	15.31	-53.3	-55.8	14.0	0.00e+00	0	23	0	1261436928	71	5205
2026-01-12 09:17:02.04	335.96	14.89	-53.3	-55.8	14.0	0.00e+00	0	23	0	1268776960	71	5188
2026-01-12 09:17:06.07	335.87	14.47	-53.4	-55.9	13.9	0.00e+00	0	23	0	1276116992	71	5261
2026-01-12 09:17:10.09	335.77	14.06	-53.3	-55.8	14.1	0.00e+00	0	23	0	1283457024	72	4914
2026-01-12 09:17:14.12	335.68	13.65	-53.3	-55.9	14.1	0.00e+00	0	23	0	1290797056	72	4928
2026-01-12 09:17:18.16	335.60	13.25	-53.3	-55.9	14.1	0.00e+00	0	23	0	1299185664	72	4933
2026-01-12 09:17:22.19	335.51	12.86	-53.3	-55.8	14.1	0.00e+00	0	23	0	1306525696	72	4908
2026-01-12 09:17:26.22	335.43	12.47	-53.2	-55.7	14.2	0.00e+00	0	22	0	1313865728	72	4834
2026-01-12 09:17:30.24	335.35	12.09	-53.2	-55.6	14.2	0.00e+00	0	23	0	1321205760	72	4812
2026-01-12 09:17:34.28	335.27	11.71	-53.2	-55.7	14.1	0.00e+00	0	23	0	1328545792	72	4854
2026-01-12 09:17:38.30	335.20	11.35	-53.2	-55.7	14.2	0.00e+00	0	23	0	1336934400	72	4820
2026-01-12 09:17:42.33	335.13	10.98	-53.3	-55.8	14.1	0.00e+00	0	23	0	1344274432	72	4914
2026-01-12 09:17:46.36	335.06	10.62	-53.3	-55.9	14.0	0.00e+00	0	23	0	1351614464	72	4941
2026-01-12 09:17:50.37	334.99	10.27	-53.4	-56.1	13.9	0.00e+00	0	23	0	1358954496	72	5063
2026-01-12 09:17:54.40	334.92	9.92	-53.5	-56.2	13.8	0.00e+00	0	23	0	1366294528	72	5113
2026-01-12 09:17:58.44	334.86	9.58	-53.5	-56.2	13.7	0.00e+00	0	23	0	1374683136	72	5140
2026-01-12 09:18:02.47	334.80	9.24	-53.5	-56.3	13.7	0.00e+00	0	23	0	1382023168	72	5162
2026-01-12 09:18:06.49	334.74	8.91	-53.6	-56.5	13.5	0.00e+00	0	23	0	1389363200	72	5313
2026-01-12 09:18:10.52	334.68	8.57	-53.6	-56.4	13.5	0.00e+00	0	23	0	1396703232	72	5278
2026-01-12 09:18:14.55	334.62	8.25	-53.7	-56.7	13.4	0.00e+00	0	23	0	1404043264	72	5413
2026-01-12 09:18:18.58	334.57	7.93	-53.7	-56.7	13.3	0.00e+00	0	23	0	1412431872	72	5454
2026-01-12 09:18:22.61	334.51	7.61	-53.7	-56.7	13.3	0.00e+00	0	23	0	1419771904	72	5454
2026-01-12 09:18:26.65	334.46	7.29	-53.7	-56.8	13.2	0.00e+00	0	23	0	1427111936	72	5498
2026-01-12 09:18:30.68	334.41	6.98	-53.8	-56.9	13.1	0.00e+00	0	23	0	1434451968	72	5575
2026-01-12 09:18:34.71	334.36	6.68	-53.8	-57.1	13.0	0.00e+00	0	23	0	1441792000	72	5663
2026-01-12 09:18:38.74	334.31	6.37	-53.9	-57.2	13.0	0.00e+00	0	23	0	1450180608	73	5424
2026-01-12 09:18:42.78	334.27	6.07	-54.0	-57.4	12.8	0.00e+00	0	23	0	1457520640	73	5570
2026-01-12 09:18:46.80	334.22	5.78	-53.7	-56.9	13.1	0.00e+00	0	23	0	1464860672	73	5271
2026-01-12 09:18:50.84	334.18	5.49	-53.7	-57.0	13.0	0.00e+00	0	23	0	1472200704	73	5334
2026-01-12 09:18:54.87	334.13	5.20	-53.9	-57.6	12.4	3.00e-06	0	23	0	1480589312	73	5671
2026-01-12 09:18:58.90	334.09	4.91	-58.0	-74.0	3.8	1.49e+00	0	23	104	1485832192	81	23649
2026-01-12 09:19:02.93	334.05	4.63	-58.8	-74.8	3.8	1.49e+00	0	23	104	1485832192	82	24551
2026-01-12 09:19:06.96	334.01	4.34	-59.1	-75.2	3.8	1.49e+00	0	23	104	1485832192	83	24287
2026-01-12 09:19:10.99	333.97	4.07	-59.3	-75.4	3.8	1.49e+00	0	23	104	1485832192	83	24703
2026-01-12 09:19:15.03	333.94	3.79	-59.4	-75.5	3.8	1.49e+00	0	23	104	1485832192	83	24992
2026-01-12 09:19:19.07	333.90	3.52	-59.7	-75.7	3.8	1.49e+00	0	23	104	1485832192	84	24292
2026-01-12 09:19:23.10	333.86	3.25	-59.6	-75.6	3.8	1.49e+00	0	23	104	1485832192	84	24040
2026-01-12 09:19:27.13	333.83	2.98	-59.5	-75.6	3.8	1.49e+00	0	23	104	1485832192	84	23886
2026-01-12 09:19:31.16	333.80	2.72	-59.5	-75.5	3.8	1.49e+00	0	23	104	1485832192	84	23853
2026-01-12 09:19:35.19	333.76	2.46	-59.5	-75.5	3.8	1.49e+00	0	23	104	1485832192	84	23801
2026-01-12 09:19:39.22	333.73	2.20	-59.5	-75.5	3.8	1.49e+00	0	23	104	1485832192	84	23823
2026-01-12 09:19:43.26	333.70	1.94	-59.5	-75.5	3.8	1.49e+00	0	23	104	1485832192	84	23680

#Closed at: 2026-01-12 09:19:44
#Recorded file [1485 MB]: D:/lorett/data/31004_260112_120518.dat