passes_logs/2026/01/12/R3.2S_Murmansk/R3.2S_Murmansk__20260112_130523_FENGYUN_3D_rec.log

#Pass ID: 20260112_130523_FENGYUN 3D
#Satellite: FENGYUN 3D
#Configuration: FENGYUN 3D
#almurnet v.1.7.20251203
#Start time: 2026-01-12 13:05:24

#Version: 2.2.20231116
#Station: R3.2S_Murmansk
#Location: 33.079688 lon 68.888172 lat
#TLE: 1 43010U 17072A   26011.62066612  .00000104  00000+0  70810-4 0  9998
#TLE: 2 43010  98.9935 343.3846 0002223 114.2890 245.8518 14.19694405422776

#Time	Az	El	Level	Level2	SNR	BER	BlckErr	Temp	State	Recorded	gain1	gain2
2026-01-12 13:05:24.99	189.53	2.08	-57.2	-70.0	3.8	8.45e-01	0	20	0	0	80	15783
2026-01-12 13:05:28.99	189.72	2.32	-57.1	-70.1	3.8	8.46e-01	0	21	104	0	79	16938
2026-01-12 13:05:32.99	189.91	2.57	-57.1	-70.0	3.8	8.46e-01	0	21	104	0	79	16803
2026-01-12 13:05:36.99	190.11	2.82	-57.1	-69.8	3.8	8.45e-01	0	21	104	0	79	16338
2026-01-12 13:05:40.98	190.30	3.07	-57.1	-69.9	3.8	8.45e-01	0	21	104	0	79	16686
2026-01-12 13:05:44.98	190.50	3.32	-57.1	-69.9	3.8	8.46e-01	0	21	104	0	79	16613
2026-01-12 13:05:48.97	190.71	3.57	-57.1	-69.7	3.8	8.45e-01	0	21	104	0	79	16187
2026-01-12 13:05:52.95	190.91	3.82	-57.1	-69.4	3.8	8.46e-01	0	21	104	0	79	15598
2026-01-12 13:05:56.93	191.12	4.08	-56.5	-64.1	5.2	7.67e-01	0	21	0	0	79	8515
2026-01-12 13:06:00.93	191.34	4.34	-55.8	-61.5	7.0	9.41e-02	0	22	0	18874368	77	7118
2026-01-12 13:06:04.90	191.55	4.60	-54.3	-58.0	10.1	1.17e-02	0	21	0	40894464	75	5334
2026-01-12 13:06:08.89	191.78	4.86	-52.0	-54.3	12.9	4.50e-06	0	22	0	62914560	70	4636
2026-01-12 13:06:12.88	192.00	5.13	-56.8	-66.6	4.2	4.31e-01	0	22	0	84934656	78	12009
2026-01-12 13:06:16.87	192.23	5.39	-48.6	-50.2	14.8	0.00e+00	0	21	0	102760448	63	4301
2026-01-12 13:06:20.85	192.46	5.66	-48.6	-50.1	14.8	0.00e+00	0	22	0	124780544	63	4291
2026-01-12 13:06:24.84	192.70	5.94	-48.4	-49.9	15.0	0.00e+00	0	22	0	147849216	63	4164
2026-01-12 13:06:28.81	192.94	6.21	-48.0	-49.5	15.0	0.00e+00	0	22	0	169869312	62	4232
2026-01-12 13:06:32.79	193.18	6.49	-48.1	-49.6	15.0	0.00e+00	0	22	0	191889408	62	4250
2026-01-12 13:06:36.80	193.43	6.77	-48.1	-49.6	15.0	0.00e+00	0	22	0	214958080	62	4274
2026-01-12 13:06:40.81	193.69	7.05	-47.9	-49.3	15.2	0.00e+00	0	22	0	236978176	62	4145
2026-01-12 13:06:44.79	193.95	7.34	-48.1	-49.6	15.0	0.00e+00	0	22	0	260046848	62	4268
2026-01-12 13:06:48.78	194.21	7.63	-47.8	-49.3	15.3	0.00e+00	0	22	0	282066944	62	4100
2026-01-12 13:06:52.77	194.48	7.92	-48.1	-49.5	15.1	0.00e+00	0	22	0	304087040	62	4228
2026-01-12 13:06:56.76	194.75	8.21	-48.0	-49.4	15.0	0.00e+00	0	22	0	327155712	61	4438
2026-01-12 13:07:00.75	195.03	8.51	-47.7	-49.1	15.2	0.00e+00	0	22	0	349175808	61	4255
2026-01-12 13:07:04.76	195.32	8.81	-47.6	-49.0	15.2	0.00e+00	0	22	0	372244480	61	4225
2026-01-12 13:07:08.77	195.61	9.12	-47.6	-49.0	15.3	0.00e+00	0	22	0	394264576	61	4206
2026-01-12 13:07:12.77	195.91	9.42	-47.5	-48.9	15.3	0.00e+00	0	22	0	417333248	61	4161
2026-01-12 13:07:16.79	196.21	9.74	-47.5	-48.9	15.4	0.00e+00	0	22	0	439353344	61	4156
2026-01-12 13:07:20.80	196.52	10.05	-47.5	-48.9	15.3	0.00e+00	0	22	0	462422016	61	4182
2026-01-12 13:07:24.81	196.84	10.37	-47.5	-48.9	15.3	0.00e+00	0	22	0	484442112	61	4185
2026-01-12 13:07:28.81	197.16	10.69	-47.6	-49.0	15.3	0.00e+00	0	22	0	507510784	61	4239
2026-01-12 13:07:32.82	197.49	11.01	-47.3	-48.7	15.5	0.00e+00	0	22	0	529530880	61	4055
2026-01-12 13:07:36.83	197.82	11.34	-47.0	-48.3	15.5	0.00e+00	0	22	0	552599552	60	4131
2026-01-12 13:07:40.85	198.17	11.67	-46.8	-48.1	15.6	0.00e+00	0	22	0	575668224	60	4046
2026-01-12 13:07:44.85	198.52	12.01	-46.7	-48.0	15.7	0.00e+00	0	22	0	597688320	60	3992
2026-01-12 13:07:48.86	198.88	12.35	-47.1	-48.5	15.3	0.00e+00	0	22	0	619708416	59	4445
2026-01-12 13:07:52.84	199.24	12.69	-47.1	-48.5	15.3	0.00e+00	0	22	0	642777088	59	4458
2026-01-12 13:07:56.84	199.62	13.03	-47.0	-48.4	15.4	0.00e+00	0	22	0	664797184	59	4395
2026-01-12 13:08:00.83	200.00	13.38	-46.8	-48.2	15.5	0.00e+00	0	22	0	687865856	59	4313
2026-01-12 13:08:04.82	200.39	13.73	-46.7	-48.1	15.5	0.00e+00	0	22	0	709885952	59	4262
2026-01-12 13:08:08.82	200.79	14.09	-47.9	-49.3	15.3	0.00e+00	0	22	0	731906048	62	4133
2026-01-12 13:08:12.81	201.20	14.45	-47.3	-48.7	15.5	0.00e+00	0	22	0	754974720	61	4060
2026-01-12 13:08:16.78	201.62	14.82	-46.7	-47.9	15.6	0.00e+00	0	22	0	776994816	59	4192
2026-01-12 13:08:20.78	202.05	15.19	-46.6	-47.8	15.7	0.00e+00	0	22	0	800063488	59	4099
2026-01-12 13:08:24.77	202.49	15.56	-46.4	-47.6	15.8	0.00e+00	0	22	0	822083584	59	4016
2026-01-12 13:08:28.78	202.94	15.94	-46.3	-47.5	15.8	0.00e+00	0	22	0	844103680	59	3960
2026-01-12 13:08:32.77	203.40	16.32	-46.1	-47.2	15.8	0.00e+00	0	22	0	867172352	58	4083
2026-01-12 13:08:36.75	203.87	16.70	-46.0	-47.2	15.8	0.00e+00	0	22	0	889192448	58	4053
2026-01-12 13:08:40.73	204.36	17.09	-46.2	-47.3	15.7	0.00e+00	0	22	0	912261120	58	4139
2026-01-12 13:08:44.73	204.85	17.49	-46.1	-47.2	15.8	0.00e+00	0	22	0	934281216	58	4092
2026-01-12 13:08:48.71	205.36	17.89	-46.0	-47.1	15.8	0.00e+00	0	22	0	956301312	58	4039
2026-01-12 13:08:52.69	205.88	18.29	-45.9	-47.0	15.9	0.00e+00	0	22	0	979369984	58	3991
2026-01-12 13:08:56.65	206.41	18.69	-45.7	-46.8	16.0	0.00e+00	0	22	0	1001390080	58	3893
2026-01-12 13:09:00.63	206.96	19.10	-45.6	-46.7	15.8	0.00e+00	0	22	0	1023410176	57	4098
2026-01-12 13:09:04.61	207.53	19.52	-45.5	-46.6	15.9	0.00e+00	0	22	0	1046478848	57	4035
2026-01-12 13:09:08.60	208.11	19.94	-45.3	-46.4	16.0	0.00e+00	0	22	0	1068498944	57	3952
2026-01-12 13:09:12.60	208.70	20.36	-45.2	-46.3	16.0	0.00e+00	0	22	0	1091567616	57	3909
2026-01-12 13:09:16.60	209.32	20.79	-45.3	-46.4	16.0	0.00e+00	0	22	0	1113587712	57	3955
2026-01-12 13:09:20.60	209.95	21.23	-45.1	-46.2	15.9	0.00e+00	0	22	0	1136656384	56	4094
2026-01-12 13:09:24.60	210.59	21.67	-45.3	-46.4	15.9	0.00e+00	0	22	0	1158676480	56	4162
2026-01-12 13:09:28.61	211.26	22.11	-45.2	-46.3	15.9	0.00e+00	0	23	0	1181745152	56	4109
2026-01-12 13:09:32.60	211.94	22.55	-44.9	-46.0	16.0	0.00e+00	0	22	0	1203765248	56	3972
2026-01-12 13:09:36.61	212.65	23.00	-44.7	-45.7	16.1	0.00e+00	0	22	0	1225785344	56	3868
2026-01-12 13:09:40.60	213.37	23.46	-44.4	-45.5	16.0	0.00e+00	0	22	0	1248854016	55	3978
2026-01-12 13:09:44.59	214.11	23.91	-44.5	-45.5	16.0	0.00e+00	0	22	0	1270874112	55	3995
2026-01-12 13:09:48.58	214.88	24.37	-44.6	-45.7	16.0	0.00e+00	0	22	0	1293942784	55	4055
2026-01-12 13:09:52.58	215.67	24.83	-44.5	-45.5	16.0	0.00e+00	0	22	0	1315962880	55	3998
2026-01-12 13:09:56.57	216.48	25.29	-44.4	-45.5	16.0	0.00e+00	0	23	0	1337982976	55	3969
2026-01-12 13:10:00.55	217.31	25.76	-44.5	-45.5	16.0	0.00e+00	0	22	0	1361051648	55	4004
2026-01-12 13:10:04.53	218.16	26.22	-44.2	-45.2	16.0	0.00e+00	0	22	0	1383071744	54	4085
2026-01-12 13:10:08.52	219.04	26.69	-44.3	-45.4	16.0	0.00e+00	0	22	0	1406140416	54	4161
2026-01-12 13:10:12.52	219.95	27.16	-44.2	-45.2	16.0	0.00e+00	0	22	0	1428160512	54	4080
2026-01-12 13:10:16.51	220.88	27.63	-44.0	-45.0	16.1	0.00e+00	0	22	0	1450180608	54	3994
2026-01-12 13:10:20.51	221.85	28.10	-43.9	-45.0	16.1	0.00e+00	0	22	0	1473249280	54	3978
2026-01-12 13:10:24.51	222.84	28.57	-43.9	-45.0	16.1	0.00e+00	0	23	0	1495269376	54	3976
2026-01-12 13:10:28.50	223.86	29.04	-43.8	-44.8	16.1	0.00e+00	0	22	0	1518338048	54	3897
2026-01-12 13:10:32.49	224.90	29.50	-44.0	-45.1	16.1	0.00e+00	0	22	0	1540358144	54	4024
2026-01-12 13:10:36.49	225.98	29.96	-43.7	-44.8	16.2	0.00e+00	0	22	0	1563426816	54	3876
2026-01-12 13:10:40.50	227.09	30.42	-43.7	-44.8	16.0	0.00e+00	0	22	0	1585446912	53	4118
2026-01-12 13:10:44.49	228.23	30.88	-43.7	-44.7	16.0	0.00e+00	0	22	0	1607467008	53	4090
2026-01-12 13:10:48.48	229.40	31.32	-43.9	-44.9	16.0	0.00e+00	0	22	0	1630535680	53	4176
2026-01-12 13:10:52.46	230.60	31.77	-43.6	-44.6	16.1	0.00e+00	0	23	0	1652555776	53	4046
2026-01-12 13:10:56.43	231.83	32.20	-43.8	-44.9	16.0	0.00e+00	0	23	0	1675624448	53	4161
2026-01-12 13:11:00.43	233.10	32.62	-43.8	-44.8	16.0	0.00e+00	0	23	0	1697644544	53	4145
2026-01-12 13:11:04.43	234.40	33.04	-43.8	-44.9	16.0	0.00e+00	0	22	0	1719664640	53	4157
2026-01-12 13:11:08.43	235.73	33.45	-44.0	-45.1	16.0	0.00e+00	0	22	0	1742733312	53	4255
2026-01-12 13:11:12.42	237.10	33.84	-43.6	-44.6	16.1	0.00e+00	0	23	0	1764753408	53	4021
2026-01-12 13:11:16.42	238.50	34.22	-44.0	-45.0	16.0	0.00e+00	0	22	0	1787822080	53	4231
2026-01-12 13:11:20.41	239.93	34.58	-43.3	-44.2	16.2	0.00e+00	0	23	0	1809842176	53	3866
2026-01-12 13:11:24.36	241.37	34.93	-43.8	-44.9	16.0	0.00e+00	0	22	0	1831862272	53	4168
2026-01-12 13:11:28.36	242.86	35.26	-43.6	-44.6	16.1	0.00e+00	0	23	0	1854930944	53	4022
2026-01-12 13:11:32.34	244.38	35.58	-43.8	-44.8	16.0	0.00e+00	0	22	0	1876951040	53	4125
2026-01-12 13:11:36.35	245.93	35.87	-43.4	-44.4	16.1	0.00e+00	0	22	0	1900019712	53	3952
2026-01-12 13:11:40.36	247.51	36.15	-43.5	-44.5	16.1	0.00e+00	0	23	0	1922039808	53	3995
2026-01-12 13:11:44.35	249.11	36.40	-43.5	-44.5	16.1	0.00e+00	0	22	0	1944059904	53	3977
2026-01-12 13:11:48.36	250.74	36.63	-43.5	-44.6	16.1	0.00e+00	0	22	0	1967128576	53	4011
2026-01-12 13:11:52.35	252.38	36.83	-43.5	-44.5	16.1	0.00e+00	0	23	0	1989148672	53	3985
2026-01-12 13:11:56.35	254.05	37.01	-43.4	-44.5	16.1	0.00e+00	0	22	0	2012217344	53	3966
2026-01-12 13:12:00.33	255.72	37.16	-43.2	-44.2	16.2	0.00e+00	0	22	0	2034237440	53	3864
2026-01-12 13:12:04.31	257.41	37.29	-43.5	-44.6	16.1	0.00e+00	0	22	0	2057306112	53	4013
2026-01-12 13:12:08.30	259.11	37.39	-43.6	-44.6	16.1	0.00e+00	0	22	0	2079326208	53	4027
2026-01-12 13:12:12.28	260.82	37.46	-43.5	-44.6	16.1	0.00e+00	0	23	0	2101346304	53	4007
2026-01-12 13:12:16.28	262.54	37.50	-43.6	-44.6	16.1	0.00e+00	0	23	0	2124414976	53	4035
2026-01-12 13:12:20.28	264.27	37.52	-43.3	-44.3	16.2	0.00e+00	0	22	0	2146435072	53	3897
2026-01-12 13:12:24.28	265.99	37.50	-43.5	-44.6	16.1	0.00e+00	0	23	0	2169503744	53	4005
2026-01-12 13:12:28.27	267.71	37.46	-43.9	-44.9	16.0	0.00e+00	0	22	0	2191523840	53	4182
2026-01-12 13:12:32.27	269.43	37.39	-43.6	-44.6	16.1	0.00e+00	0	23	0	2213543936	53	4036
2026-01-12 13:12:36.28	271.14	37.29	-43.3	-44.3	16.1	0.00e+00	0	23	0	2236612608	53	3895
2026-01-12 13:12:40.27	272.83	37.17	-43.7	-44.7	16.0	0.00e+00	0	22	0	2258632704	53	4091
2026-01-12 13:12:44.28	274.52	37.01	-43.6	-44.6	16.1	0.00e+00	0	23	0	2281701376	53	4046
2026-01-12 13:12:48.26	276.17	36.84	-43.4	-44.4	16.1	0.00e+00	0	22	0	2303721472	53	3958
2026-01-12 13:12:52.25	277.81	36.63	-43.6	-44.6	16.1	0.00e+00	0	23	0	2326790144	53	4016
2026-01-12 13:12:56.25	279.44	36.41	-44.0	-45.0	16.0	0.00e+00	0	22	0	2348810240	53	4221
2026-01-12 13:13:00.24	281.03	36.16	-43.7	-44.8	16.0	0.00e+00	0	22	0	2370830336	53	4103
2026-01-12 13:13:04.23	282.60	35.88	-43.8	-44.8	16.0	0.00e+00	0	22	0	2393899008	53	4123
2026-01-12 13:13:08.22	284.15	35.59	-44.0	-45.1	16.0	0.00e+00	0	22	0	2415919104	53	4261
2026-01-12 13:13:12.21	285.66	35.28	-43.7	-44.7	16.0	0.00e+00	0	22	0	2438987776	53	4078
2026-01-12 13:13:16.20	287.15	34.95	-44.1	-45.1	16.0	0.00e+00	0	22	0	2461007872	53	4289
2026-01-12 13:13:20.21	288.62	34.60	-43.9	-44.9	16.0	0.00e+00	0	22	0	2484076544	53	4188
2026-01-12 13:13:24.21	290.05	34.23	-44.3	-45.4	15.9	0.00e+00	0	22	0	2506096640	53	4404
2026-01-12 13:13:28.22	291.45	33.85	-44.1	-45.1	15.9	0.00e+00	0	22	0	2529165312	53	4289
2026-01-12 13:13:32.21	292.81	33.46	-44.3	-45.4	15.9	0.00e+00	0	22	0	2551185408	53	4395
2026-01-12 13:13:36.21	294.14	33.06	-44.2	-45.3	16.0	0.00e+00	0	23	0	2573205504	54	4108
2026-01-12 13:13:40.23	295.45	32.64	-44.5	-45.6	15.9	0.00e+00	0	22	0	2596274176	54	4248
2026-01-12 13:13:44.22	296.71	32.22	-44.4	-45.5	16.0	0.00e+00	0	22	0	2618294272	54	4209
2026-01-12 13:13:48.23	297.95	31.78	-44.3	-45.3	16.0	0.00e+00	0	22	0	2641362944	54	4138
2026-01-12 13:13:52.25	299.15	31.34	-44.5	-45.5	15.9	0.00e+00	0	23	0	2664431616	54	4233
2026-01-12 13:13:56.24	300.32	30.90	-44.6	-45.7	15.9	0.00e+00	0	23	0	2686451712	54	4307
2026-01-12 13:14:00.23	301.46	30.44	-44.4	-45.5	15.9	0.00e+00	0	22	0	2708471808	54	4218
2026-01-12 13:14:04.23	302.56	29.99	-44.3	-45.4	16.0	0.00e+00	0	23	0	2731540480	54	4169
2026-01-12 13:14:08.24	303.64	29.53	-44.6	-45.6	15.9	0.00e+00	0	22	0	2753560576	54	4286
2026-01-12 13:14:12.25	304.69	29.06	-44.7	-45.8	15.9	0.00e+00	0	23	0	2776629248	54	4365
2026-01-12 13:14:16.24	305.71	28.60	-44.5	-45.5	15.9	0.00e+00	0	23	0	2798649344	54	4228
2026-01-12 13:14:20.25	306.70	28.13	-44.8	-45.8	15.9	0.00e+00	0	23	0	2821718016	54	4388
2026-01-12 13:14:24.26	307.66	27.66	-44.7	-45.8	15.9	0.00e+00	0	23	0	2843738112	54	4371
2026-01-12 13:14:28.27	308.60	27.19	-44.8	-45.9	15.8	0.00e+00	0	23	0	2866806784	54	4395
2026-01-12 13:14:32.26	309.50	26.72	-44.9	-46.0	15.8	0.00e+00	0	22	0	2888826880	54	4445
2026-01-12 13:14:36.28	310.39	26.25	-44.4	-45.4	15.9	0.00e+00	0	23	0	2911895552	54	4183
2026-01-12 13:14:40.28	311.25	25.79	-44.5	-45.6	15.9	0.00e+00	0	23	0	2933915648	54	4252
2026-01-12 13:14:44.29	312.08	25.32	-44.7	-45.8	15.9	0.00e+00	0	23	0	2955935744	54	4382
2026-01-12 13:14:48.30	312.89	24.86	-44.6	-45.6	15.9	0.00e+00	0	22	0	2979004416	54	4282
2026-01-12 13:14:52.32	313.68	24.40	-44.8	-45.8	15.8	0.00e+00	0	23	0	3002073088	54	4386
2026-01-12 13:14:56.34	314.45	23.94	-45.0	-46.1	15.8	0.00e+00	0	23	0	3024093184	55	4275
2026-01-12 13:15:00.35	315.19	23.48	-45.1	-46.2	15.8	0.00e+00	0	22	0	3047161856	55	4310
2026-01-12 13:15:04.34	315.91	23.04	-45.0	-46.1	15.8	0.00e+00	0	22	0	3069181952	55	4278
2026-01-12 13:15:08.35	316.62	22.59	-45.1	-46.2	15.8	0.00e+00	0	23	0	3092250624	55	4327
2026-01-12 13:15:12.35	317.30	22.14	-45.3	-46.4	15.8	0.00e+00	0	23	0	3114270720	55	4401
2026-01-12 13:15:16.37	317.97	21.70	-45.5	-46.6	15.8	0.00e+00	0	23	0	3137339392	56	4252
2026-01-12 13:15:20.38	318.61	21.27	-45.4	-46.5	15.8	0.00e+00	0	22	0	3159359488	56	4227
2026-01-12 13:15:24.39	319.24	20.83	-45.7	-46.8	15.7	0.00e+00	0	22	0	3182428160	56	4380
2026-01-12 13:15:28.40	319.86	20.41	-45.8	-46.9	15.7	0.00e+00	0	22	0	3204448256	56	4438
2026-01-12 13:15:32.42	320.46	19.98	-45.9	-47.0	15.8	0.00e+00	0	22	0	3227516928	57	4241
2026-01-12 13:15:36.44	321.04	19.56	-46.3	-47.5	15.6	0.00e+00	0	22	0	3249537024	57	4455
2026-01-12 13:15:40.45	321.61	19.14	-46.3	-47.4	15.6	0.00e+00	0	23	0	3272605696	57	4435
2026-01-12 13:15:44.45	322.16	18.73	-46.2	-47.4	15.6	0.00e+00	0	22	0	3294625792	57	4415
2026-01-12 13:15:48.44	322.69	18.33	-46.4	-47.5	15.6	0.00e+00	0	22	0	3317694464	57	4483
2026-01-12 13:15:52.47	323.22	17.92	-46.5	-47.7	15.6	0.00e+00	0	22	0	3339714560	58	4325
2026-01-12 13:15:56.46	323.73	17.53	-46.6	-47.8	15.6	0.00e+00	0	23	0	3362783232	58	4363
2026-01-12 13:16:00.47	324.22	17.13	-46.5	-47.7	15.6	0.00e+00	0	22	0	3384803328	58	4313
2026-01-12 13:16:04.47	324.71	16.74	-46.5	-47.7	15.6	0.00e+00	0	22	0	3407872000	58	4304
2026-01-12 13:16:08.47	325.18	16.36	-46.6	-47.9	15.5	0.00e+00	0	22	0	3429892096	58	4398
2026-01-12 13:16:12.47	325.64	15.98	-46.8	-48.0	15.5	0.00e+00	0	23	0	3452960768	58	4449
2026-01-12 13:16:16.47	326.09	15.60	-46.7	-47.9	15.5	0.00e+00	0	23	0	3474980864	58	4431
2026-01-12 13:16:20.47	326.53	15.23	-46.9	-48.1	15.5	0.00e+00	0	23	0	3498049536	58	4494
2026-01-12 13:16:24.47	326.96	14.87	-47.0	-48.2	15.5	0.00e+00	0	23	0	3520069632	59	4304
2026-01-12 13:16:28.46	327.38	14.50	-47.1	-48.4	15.4	0.00e+00	0	23	0	3542089728	59	4395
2026-01-12 13:16:32.46	327.79	14.14	-47.2	-48.4	15.4	0.00e+00	0	22	0	3565158400	59	4434
2026-01-12 13:16:36.47	328.19	13.79	-47.3	-48.5	15.3	0.00e+00	0	23	0	3587178496	59	4487
2026-01-12 13:16:40.46	328.58	13.44	-47.0	-48.2	15.6	0.00e+00	0	23	0	3610247168	60	4075
2026-01-12 13:16:44.44	328.96	13.09	-47.1	-48.3	15.5	0.00e+00	0	23	0	3632267264	60	4128
2026-01-12 13:16:48.44	329.34	12.75	-47.3	-48.5	15.4	0.00e+00	0	23	0	3655335936	60	4228
2026-01-12 13:16:52.44	329.71	12.41	-47.4	-48.6	15.4	0.00e+00	0	23	0	3677356032	60	4285
2026-01-12 13:16:56.44	330.06	12.07	-47.4	-48.6	15.4	0.00e+00	0	23	0	3699376128	60	4275
2026-01-12 13:17:00.43	330.41	11.74	-47.5	-48.7	15.3	0.00e+00	0	23	0	3722444800	60	4336
2026-01-12 13:17:04.43	330.76	11.41	-47.4	-48.7	15.3	0.00e+00	0	23	0	3744464896	60	4293
2026-01-12 13:17:08.44	331.10	11.09	-47.4	-48.7	15.3	0.00e+00	0	23	0	3767533568	60	4315
2026-01-12 13:17:12.44	331.43	10.76	-47.5	-48.8	15.2	0.00e+00	0	23	0	3789553664	60	4372
2026-01-12 13:17:16.44	331.75	10.45	-47.7	-49.0	15.1	0.00e+00	0	23	0	3812622336	60	4478
2026-01-12 13:17:20.45	332.07	10.13	-47.7	-49.0	15.1	0.00e+00	0	23	0	3834642432	60	4493
2026-01-12 13:17:24.45	332.38	9.82	-47.6	-49.0	15.2	0.00e+00	0	23	0	3857711104	60	4442
2026-01-12 13:17:28.44	332.68	9.51	-47.6	-48.9	15.2	0.00e+00	0	23	0	3879731200	60	4422
2026-01-12 13:17:32.46	332.98	9.20	-47.7	-49.0	15.1	0.00e+00	0	23	0	3902799872	60	4481
2026-01-12 13:17:36.47	333.27	8.90	-47.9	-49.2	15.0	0.00e+00	0	23	0	3924819968	60	4562
2026-01-12 13:17:40.47	333.56	8.60	-48.0	-49.3	15.1	0.00e+00	0	23	0	3947888640	61	4368
2026-01-12 13:17:44.48	333.84	8.30	-48.1	-49.4	15.0	0.00e+00	0	23	0	3969908736	61	4437
2026-01-12 13:17:48.48	334.12	8.01	-48.0	-49.3	15.1	0.00e+00	0	23	0	3992977408	61	4366
2026-01-12 13:17:52.47	334.39	7.72	-48.3	-49.6	14.9	0.00e+00	0	23	0	4014997504	61	4543
2026-01-12 13:17:56.48	334.65	7.43	-48.2	-49.6	14.9	0.00e+00	0	23	0	4038066176	61	4523
2026-01-12 13:18:00.49	334.91	7.15	-48.5	-49.9	14.9	0.00e+00	0	23	0	4060086272	62	4400
2026-01-12 13:18:04.50	335.17	6.86	-48.5	-49.9	14.8	0.00e+00	0	23	0	4083154944	62	4427
2026-01-12 13:18:08.50	335.42	6.58	-48.4	-49.8	14.9	0.00e+00	0	23	0	4105175040	62	4351
2026-01-12 13:18:12.50	335.67	6.31	-48.6	-50.0	14.8	0.00e+00	0	23	0	4128243712	62	4457
2026-01-12 13:18:16.49	335.91	6.03	-48.9	-50.3	14.7	0.00e+00	0	23	0	4150263808	63	4373
2026-01-12 13:18:20.49	336.15	5.76	-48.8	-50.3	14.7	0.00e+00	0	23	0	4172283904	63	4359
2026-01-12 13:18:24.47	336.39	5.49	-48.8	-50.3	14.7	0.00e+00	0	23	0	4195352576	63	4377
2026-01-12 13:18:28.47	336.62	5.23	-49.1	-50.6	14.5	0.00e+00	0	23	0	4217372672	63	4527
2026-01-12 13:18:32.47	336.85	4.96	-57.8	-70.5	3.8	8.42e-01	0	23	104	4237295616	80	16827
2026-01-12 13:18:36.48	337.07	4.70	-58.8	-71.8	3.8	8.45e-01	0	23	104	4237295616	82	17358
2026-01-12 13:18:40.48	337.29	4.44	-59.0	-72.1	3.8	8.45e-01	0	23	104	4237295616	83	17044
2026-01-12 13:18:44.47	337.51	4.18	-59.3	-72.3	3.8	8.45e-01	0	23	104	4237295616	83	17459
2026-01-12 13:18:48.45	337.72	3.93	-59.4	-72.4	3.8	8.46e-01	0	23	104	4237295616	83	17603
2026-01-12 13:18:52.46	337.93	3.67	-59.6	-72.7	3.8	8.45e-01	0	23	104	4237295616	84	17179
2026-01-12 13:18:56.45	338.13	3.42	-59.6	-72.6	3.8	8.45e-01	0	23	104	4237295616	84	16964
2026-01-12 13:19:00.44	338.34	3.17	-59.5	-72.5	3.8	8.45e-01	0	23	104	4237295616	84	16869
2026-01-12 13:19:04.42	338.54	2.93	-59.5	-72.5	3.8	8.44e-01	0	23	104	4237295616	84	16861
2026-01-12 13:19:08.40	338.73	2.68	-59.4	-72.5	3.8	8.45e-01	0	23	104	4237295616	84	16774
2026-01-12 13:19:12.37	338.93	2.44	-59.4	-72.5	3.8	8.46e-01	0	23	104	4237295616	84	16727
2026-01-12 13:19:16.37	339.12	2.20	-59.4	-72.5	3.8	8.46e-01	0	23	104	4237295616	84	16718
2026-01-12 13:19:20.36	339.31	1.96	-59.4	-72.4	3.8	8.46e-01	0	23	104	4237295616	84	16659

#Closed at: 2026-01-12 13:19:21
#Recorded file [4237 MB]: D:/lorett/data/31004_260112_160524.dat