passes_logs/2026/01/12/R3.2S_Murmansk/R3.2S_Murmansk__20260112_225306_KANOPUS-V_5_rec.log

#Pass ID: 20260112_225306_KANOPUS-V 5
#Satellite: KANOPUS-V 5
#Configuration: KANOPUS-V_8320
#almurnet v.1.7.20251203
#Start time: 2026-01-12 22:53:07

#Version: 2.2.20231116
#Station: R3.2S_Murmansk
#Location: 33.079688 lon 68.888172 lat
#TLE: 1 43876U 18111A   26012.28056898  .00003514  00000+0  15053-3 0  9996
#TLE: 2 43876  97.3682 280.8443 0001794  87.9048 272.2394 15.23425790391056

#Time	Az	El	Level	Level2	SNR	BER	BlckErr	Temp	State	Recorded	gain1	gain2
2026-01-12 22:53:07.15	21.07	2.02	-58.1	-67.8	3.8	7.45e-01	0	21	0	0	80	10947
2026-01-12 22:53:10.14	21.00	2.23	-58.1	-67.8	3.8	7.45e-01	0	21	104	0	80	10976
2026-01-12 22:53:13.14	20.93	2.44	-58.1	-67.8	3.8	7.46e-01	0	21	104	0	80	11008
2026-01-12 22:53:16.13	20.85	2.65	-58.1	-67.8	3.8	7.44e-01	0	21	104	0	80	10989
2026-01-12 22:53:19.11	20.78	2.87	-58.1	-67.8	3.8	7.46e-01	0	21	104	0	80	10948
2026-01-12 22:53:22.10	20.70	3.08	-58.1	-67.8	3.8	7.44e-01	0	21	104	0	80	10987
2026-01-12 22:53:25.10	20.62	3.30	-58.1	-67.8	3.8	7.45e-01	0	21	104	0	80	10965
2026-01-12 22:53:28.09	20.54	3.52	-58.1	-67.8	3.8	7.47e-01	0	21	104	0	80	10980
2026-01-12 22:53:31.08	20.45	3.74	-58.1	-67.8	3.8	7.46e-01	0	21	104	0	80	10978
2026-01-12 22:53:34.08	20.37	3.97	-58.1	-67.8	3.8	7.46e-01	0	21	104	0	80	10946
2026-01-12 22:53:37.07	20.28	4.20	-58.1	-67.8	3.8	7.48e-01	0	22	104	0	80	11003
2026-01-12 22:53:40.07	20.19	4.43	-58.1	-67.8	3.8	7.47e-01	0	22	104	0	80	11000
2026-01-12 22:53:43.06	20.10	4.66	-58.1	-67.8	3.8	7.46e-01	0	22	104	0	80	11014
2026-01-12 22:53:46.07	20.00	4.90	-58.1	-67.9	3.8	7.45e-01	0	22	104	0	80	11032
2026-01-12 22:53:49.07	19.91	5.14	-58.2	-67.9	3.8	7.45e-01	0	22	104	0	80	11154
2026-01-12 22:53:52.07	19.81	5.38	-58.3	-68.0	3.8	7.46e-01	0	22	104	0	80	11230
2026-01-12 22:53:55.05	19.71	5.63	-58.2	-67.8	3.8	7.46e-01	0	22	104	0	80	11017
2026-01-12 22:53:58.05	19.61	5.87	-58.3	-68.0	3.8	7.45e-01	0	22	104	0	80	11239
2026-01-12 22:54:01.05	19.50	6.13	-58.2	-67.9	3.8	7.46e-01	0	22	104	0	80	11134
2026-01-12 22:54:04.05	19.39	6.38	-58.4	-68.1	3.8	7.44e-01	0	22	104	0	80	11375
2026-01-12 22:54:07.05	19.28	6.64	-58.3	-68.0	3.8	7.45e-01	0	22	104	0	80	11212
2026-01-12 22:54:10.04	19.17	6.90	-58.4	-68.1	3.8	7.45e-01	0	22	104	0	80	11360
2026-01-12 22:54:13.04	19.05	7.16	-58.4	-68.1	3.8	7.45e-01	0	22	104	0	80	11324
2026-01-12 22:54:16.03	18.93	7.43	-58.5	-68.2	3.8	7.47e-01	0	22	104	0	80	11515
2026-01-12 22:54:19.02	18.81	7.70	-58.5	-68.1	3.8	7.44e-01	0	22	104	0	80	11377
2026-01-12 22:54:22.02	18.68	7.98	-58.5	-68.2	3.8	7.45e-01	0	22	104	0	80	11529
2026-01-12 22:54:25.00	18.55	8.26	-58.5	-68.2	3.8	7.45e-01	0	22	104	0	80	11493
2026-01-12 22:54:28.00	18.42	8.54	-58.6	-68.3	3.8	7.45e-01	0	22	104	0	80	11673
2026-01-12 22:54:31.00	18.28	8.83	-58.5	-68.3	3.8	7.45e-01	0	22	104	0	80	11561
2026-01-12 22:54:33.99	18.14	9.12	-58.6	-68.3	3.8	7.45e-01	0	23	104	0	80	11670
2026-01-12 22:54:36.99	18.00	9.42	-58.6	-68.3	3.8	7.46e-01	0	22	104	0	80	11616
2026-01-12 22:54:39.99	17.85	9.72	-58.7	-68.4	3.8	7.44e-01	0	23	104	0	80	11743
2026-01-12 22:54:42.99	17.70	10.03	-58.6	-68.4	3.8	7.45e-01	0	22	104	0	80	11684
2026-01-12 22:54:45.98	17.54	10.34	-58.7	-68.4	3.8	7.46e-01	0	22	104	0	80	11763
2026-01-12 22:54:48.96	17.38	10.65	-58.7	-68.4	3.8	7.44e-01	0	22	104	0	80	11700
2026-01-12 22:54:51.96	17.21	10.97	-58.8	-68.5	3.8	7.46e-01	0	23	104	0	80	11856
2026-01-12 22:54:54.96	17.04	11.30	-58.7	-68.4	3.8	7.45e-01	0	22	104	0	80	11755
2026-01-12 22:54:57.95	16.87	11.63	-58.8	-68.5	3.8	7.47e-01	0	23	104	0	80	11885
2026-01-12 22:55:00.94	16.69	11.97	-58.8	-68.5	3.8	7.45e-01	0	23	104	0	80	11825
2026-01-12 22:55:03.94	16.50	12.32	-58.8	-68.5	3.8	7.46e-01	0	23	104	0	80	11933
2026-01-12 22:55:06.94	16.31	12.67	-58.8	-68.5	3.8	7.46e-01	0	23	104	0	80	11885
2026-01-12 22:55:09.92	16.11	13.02	-58.8	-68.5	3.8	7.46e-01	0	23	104	0	80	11933
2026-01-12 22:55:12.91	15.91	13.39	-58.8	-68.5	3.8	7.45e-01	0	23	104	0	80	11883
2026-01-12 22:55:15.90	15.69	13.76	-58.9	-68.6	3.8	7.46e-01	0	23	104	0	80	11997
2026-01-12 22:55:18.89	15.48	14.13	-58.9	-68.6	3.8	7.45e-01	0	23	104	0	80	11994
2026-01-12 22:55:21.87	15.25	14.52	-58.9	-68.6	3.8	7.45e-01	0	23	104	0	80	12015
2026-01-12 22:55:24.87	15.02	14.91	-58.9	-68.6	3.8	7.44e-01	0	23	104	0	81	11358
2026-01-12 22:55:27.87	14.78	15.32	-59.0	-68.7	3.8	7.45e-01	0	23	104	0	81	11499
2026-01-12 22:55:30.85	14.53	15.72	-59.0	-68.6	3.8	7.45e-01	0	23	104	0	81	11417
2026-01-12 22:55:33.84	14.27	16.14	-59.0	-68.7	3.8	7.45e-01	0	23	104	0	81	11508
2026-01-12 22:55:36.84	14.01	16.57	-59.0	-68.7	3.8	7.44e-01	0	23	104	0	81	11528
2026-01-12 22:55:39.83	13.73	17.01	-59.1	-68.8	3.8	7.47e-01	0	23	104	0	81	11550
2026-01-12 22:55:42.82	13.45	17.45	-59.0	-68.7	3.8	7.44e-01	0	23	104	0	81	11537
2026-01-12 22:55:45.83	13.15	17.91	-59.1	-68.8	3.8	7.46e-01	0	23	104	0	81	11571
2026-01-12 22:55:48.82	12.84	18.38	-59.1	-68.8	3.8	7.45e-01	0	23	104	0	81	11605
2026-01-12 22:55:51.81	12.52	18.85	-59.1	-68.9	3.8	7.48e-01	0	23	104	0	81	11720
2026-01-12 22:55:54.81	12.19	19.34	-59.1	-68.8	3.8	7.44e-01	0	23	104	0	81	11630
2026-01-12 22:55:57.80	11.84	19.84	-59.2	-68.8	3.8	7.45e-01	0	23	104	0	81	11681
2026-01-12 22:56:00.80	11.48	20.36	-59.1	-68.8	3.8	7.45e-01	0	23	104	0	81	11668
2026-01-12 22:56:03.79	11.11	20.88	-59.2	-68.9	3.8	7.46e-01	0	23	104	0	81	11731
2026-01-12 22:56:06.78	10.72	21.42	-59.2	-68.9	3.8	7.45e-01	0	23	104	0	81	11704
2026-01-12 22:56:09.80	10.32	21.97	-59.2	-68.9	3.8	7.45e-01	0	23	104	0	81	11777
2026-01-12 22:56:12.79	9.89	22.54	-59.2	-68.9	3.8	7.46e-01	0	23	104	0	81	11719
2026-01-12 22:56:15.78	9.45	23.12	-59.3	-69.0	3.8	7.44e-01	0	23	104	0	81	11847
2026-01-12 22:56:18.78	8.99	23.71	-59.2	-68.9	3.8	7.46e-01	0	23	104	0	81	11777
2026-01-12 22:56:21.79	8.51	24.32	-59.3	-69.0	3.8	7.45e-01	0	23	104	0	81	11863
2026-01-12 22:56:24.77	8.01	24.95	-59.3	-69.0	3.8	7.45e-01	0	23	104	0	81	11843
2026-01-12 22:56:27.76	7.48	25.59	-59.3	-69.0	3.8	7.46e-01	0	23	104	0	81	11898
2026-01-12 22:56:30.75	6.93	26.24	-59.3	-69.1	3.8	7.44e-01	0	23	104	0	81	11972
2026-01-12 22:56:33.74	6.35	26.92	-59.4	-69.1	3.8	7.45e-01	0	23	104	0	81	11991
2026-01-12 22:56:36.73	5.75	27.61	-59.4	-69.0	3.8	7.47e-01	0	23	104	0	81	11952
2026-01-12 22:56:39.73	5.11	28.32	-59.5	-69.2	3.8	7.47e-01	0	23	104	0	82	11449
2026-01-12 22:56:42.73	4.44	29.06	-59.5	-69.2	3.8	7.43e-01	0	23	104	0	82	11479
2026-01-12 22:56:45.72	3.73	29.80	-59.5	-69.2	3.8	7.46e-01	0	23	104	0	82	11463
2026-01-12 22:56:48.71	2.99	30.57	-59.5	-69.2	3.8	7.46e-01	0	23	104	0	82	11491
2026-01-12 22:56:51.70	2.21	31.36	-59.6	-69.2	3.8	7.45e-01	0	23	104	0	82	11536
2026-01-12 22:56:54.69	1.39	32.16	-59.6	-69.3	3.8	7.45e-01	0	23	104	0	82	11578
2026-01-12 22:56:57.68	0.51	32.99	-59.6	-69.3	3.8	7.44e-01	0	23	104	0	82	11627
2026-01-12 22:57:00.66	359.60	33.83	-59.6	-69.3	3.8	7.46e-01	0	23	104	0	82	11608
2026-01-12 22:57:03.65	358.62	34.70	-59.6	-69.3	3.8	7.47e-01	0	23	104	0	82	11675
2026-01-12 22:57:06.65	357.58	35.59	-59.6	-69.4	3.8	7.46e-01	0	23	104	0	82	11691
2026-01-12 22:57:09.66	356.48	36.49	-59.7	-69.4	3.8	7.46e-01	0	23	104	0	82	11688
2026-01-12 22:57:12.65	355.32	37.41	-59.7	-69.4	3.8	7.46e-01	0	23	104	0	82	11690
2026-01-12 22:57:15.65	354.08	38.35	-59.7	-69.4	3.8	7.45e-01	0	23	104	0	82	11818
2026-01-12 22:57:18.64	352.76	39.31	-59.7	-69.4	3.8	7.47e-01	0	23	104	0	82	11751
2026-01-12 22:57:21.62	351.36	40.27	-59.7	-69.5	3.8	7.46e-01	0	23	104	0	82	11840
2026-01-12 22:57:24.61	349.87	41.24	-59.8	-69.5	3.8	7.47e-01	0	23	104	0	82	11879
2026-01-12 22:57:27.60	348.28	42.22	-59.8	-69.5	3.8	7.47e-01	0	23	104	0	82	11898
2026-01-12 22:57:30.60	346.58	43.21	-59.8	-69.5	3.8	7.45e-01	0	23	104	0	82	11907
2026-01-12 22:57:33.60	344.77	44.20	-59.8	-69.5	3.8	7.46e-01	0	23	104	0	82	11927
2026-01-12 22:57:36.59	342.84	45.18	-59.8	-69.5	3.8	7.46e-01	0	23	104	0	82	11910
2026-01-12 22:57:39.58	340.79	46.15	-59.9	-69.6	3.8	7.46e-01	0	23	104	0	82	12029
2026-01-12 22:57:42.58	338.59	47.11	-59.9	-69.6	3.8	7.44e-01	0	23	104	0	82	12031
2026-01-12 22:57:45.57	336.26	48.04	-59.9	-69.6	3.8	7.47e-01	0	23	104	0	82	12053
2026-01-12 22:57:48.56	333.78	48.93	-60.0	-69.7	3.8	7.45e-01	0	23	104	0	83	11432
2026-01-12 22:57:51.55	331.15	49.79	-60.0	-69.7	3.8	7.45e-01	0	23	104	0	83	11456
2026-01-12 22:57:54.55	328.36	50.60	-60.0	-69.7	3.8	7.46e-01	0	23	104	0	83	11426
2026-01-12 22:57:57.55	325.41	51.35	-60.0	-69.7	3.8	7.46e-01	0	23	104	0	83	11496
2026-01-12 22:58:00.55	322.32	52.03	-60.0	-69.7	3.8	7.44e-01	0	23	104	0	83	11534
2026-01-12 22:58:03.55	319.08	52.64	-60.1	-69.7	3.8	7.44e-01	0	23	104	0	83	11516
2026-01-12 22:58:06.56	315.71	53.15	-60.1	-69.8	3.8	7.44e-01	0	23	104	0	83	11577
2026-01-12 22:58:09.56	312.23	53.57	-60.1	-69.8	3.8	7.45e-01	0	23	104	0	83	11571
2026-01-12 22:58:12.56	308.66	53.88	-60.1	-69.7	3.8	7.46e-01	0	23	104	0	83	11540
2026-01-12 22:58:15.55	305.04	54.07	-60.1	-69.8	3.8	7.46e-01	0	23	104	0	83	11654
2026-01-12 22:58:18.55	301.38	54.16	-60.1	-69.8	3.8	7.46e-01	0	23	104	0	83	11618
2026-01-12 22:58:21.54	297.71	54.13	-60.1	-69.8	3.8	7.46e-01	0	23	104	0	83	11656
2026-01-12 22:58:24.53	294.07	53.98	-60.1	-69.8	3.8	7.45e-01	0	23	104	0	83	11567
2026-01-12 22:58:27.52	290.48	53.72	-60.1	-69.8	3.8	7.45e-01	0	23	104	0	83	11611
2026-01-12 22:58:30.51	286.97	53.36	-60.1	-69.8	3.8	7.46e-01	0	23	104	0	83	11566
2026-01-12 22:58:33.50	283.56	52.89	-60.1	-69.7	3.8	7.44e-01	0	23	104	0	83	11537
2026-01-12 22:58:36.50	280.26	52.33	-60.0	-69.7	3.8	7.46e-01	0	23	104	0	83	11514
2026-01-12 22:58:39.50	277.09	51.68	-60.0	-69.7	3.8	7.44e-01	0	23	104	0	83	11466
2026-01-12 22:58:42.50	274.07	50.96	-60.0	-69.7	3.8	7.46e-01	0	23	104	0	83	11482
2026-01-12 22:58:45.50	271.20	50.17	-60.0	-69.7	3.8	7.46e-01	0	23	104	0	83	11440
2026-01-12 22:58:48.51	268.48	49.33	-60.0	-69.7	3.8	7.46e-01	0	23	104	0	83	11423
2026-01-12 22:58:51.50	265.93	48.45	-60.0	-69.7	3.8	7.44e-01	0	23	104	0	83	11424
2026-01-12 22:58:54.50	263.52	47.53	-60.0	-69.7	3.8	7.46e-01	0	23	104	0	83	11438
2026-01-12 22:58:57.49	261.26	46.58	-59.9	-69.7	3.8	7.46e-01	0	23	104	0	83	11428
2026-01-12 22:59:00.50	259.12	45.61	-59.9	-69.6	3.8	7.46e-01	0	23	104	0	83	11376
2026-01-12 22:59:03.51	257.12	44.63	-59.9	-69.6	3.8	7.44e-01	0	23	104	0	83	11341
2026-01-12 22:59:06.50	255.25	43.64	-59.9	-69.6	3.8	7.47e-01	0	23	104	0	83	11349
2026-01-12 22:59:09.50	253.50	42.65	-59.9	-69.5	3.8	7.45e-01	0	23	104	0	83	11265
2026-01-12 22:59:12.50	251.86	41.66	-59.9	-69.5	3.8	7.44e-01	0	23	104	0	83	11284
2026-01-12 22:59:15.49	250.32	40.67	-59.9	-69.6	3.8	7.47e-01	0	23	104	0	83	11323
2026-01-12 22:59:18.50	248.87	39.70	-59.8	-69.5	3.8	7.46e-01	0	23	104	0	83	11276
2026-01-12 22:59:21.48	247.52	38.74	-59.8	-69.5	3.8	7.44e-01	0	23	104	0	83	11186
2026-01-12 22:59:24.48	246.24	37.79	-59.8	-69.5	3.8	7.47e-01	0	23	104	0	83	11204
2026-01-12 22:59:27.47	245.04	36.86	-59.8	-69.5	3.8	7.46e-01	0	23	104	0	83	11197
2026-01-12 22:59:30.47	243.91	35.94	-59.8	-69.5	3.8	7.45e-01	0	23	104	0	83	11188
2026-01-12 22:59:33.45	242.85	35.05	-59.8	-69.4	3.8	7.46e-01	0	23	104	0	83	11133
2026-01-12 22:59:36.45	241.84	34.17	-59.7	-69.4	3.8	7.46e-01	0	23	104	0	83	11128
2026-01-12 22:59:39.44	240.90	33.31	-59.7	-69.4	3.8	7.45e-01	0	23	104	0	83	11146
2026-01-12 22:59:42.43	240.00	32.48	-59.7	-69.4	3.8	7.45e-01	0	23	104	0	83	11115
2026-01-12 22:59:45.43	239.15	31.66	-59.7	-69.4	3.8	7.44e-01	0	23	104	0	83	11047
2026-01-12 22:59:48.42	238.35	30.86	-59.7	-69.4	3.8	7.47e-01	0	23	104	0	83	11098
2026-01-12 22:59:51.41	237.59	30.08	-59.7	-69.4	3.8	7.46e-01	0	23	104	0	83	11063
2026-01-12 22:59:54.42	236.86	29.31	-59.6	-69.3	3.8	7.43e-01	0	23	104	0	83	10993
2026-01-12 22:59:57.40	236.18	28.58	-59.6	-69.3	3.8	7.46e-01	0	23	104	0	83	10924
2026-01-12 23:00:00.40	235.52	27.85	-59.6	-69.3	3.8	7.45e-01	0	23	104	0	83	10971
2026-01-12 23:00:03.41	234.90	27.15	-59.6	-69.3	3.8	7.44e-01	0	23	104	0	83	10929
2026-01-12 23:00:06.40	234.31	26.46	-59.5	-69.2	3.8	7.45e-01	0	23	104	0	83	10901
2026-01-12 23:00:09.39	233.74	25.80	-59.5	-69.2	3.8	7.46e-01	0	23	104	0	83	10883
2026-01-12 23:00:12.38	233.21	25.15	-59.5	-69.2	3.8	7.45e-01	0	23	104	0	83	10841
2026-01-12 23:00:15.38	232.69	24.51	-59.5	-69.2	3.8	7.47e-01	0	23	104	0	83	10862
2026-01-12 23:00:18.39	232.20	23.89	-59.5	-69.2	3.8	7.43e-01	0	23	104	0	83	10802
2026-01-12 23:00:21.38	231.73	23.29	-59.5	-69.2	3.8	7.45e-01	0	23	104	0	83	10789
2026-01-12 23:00:24.38	231.28	22.70	-59.5	-69.1	3.8	7.45e-01	0	23	104	0	83	10773
2026-01-12 23:00:27.37	230.84	22.13	-59.4	-69.1	3.8	7.46e-01	0	23	104	0	83	10769
2026-01-12 23:00:30.36	230.43	21.57	-59.4	-69.1	3.8	7.44e-01	0	23	104	0	83	10707
2026-01-12 23:00:33.35	230.03	21.03	-59.4	-69.1	3.8	7.46e-01	0	23	104	0	83	10692
2026-01-12 23:00:36.35	229.65	20.49	-59.4	-69.1	3.8	7.45e-01	0	23	104	0	83	10658
2026-01-12 23:00:39.34	229.29	19.97	-59.4	-69.0	3.8	7.46e-01	0	23	104	0	83	10650
2026-01-12 23:00:42.34	228.93	19.47	-59.3	-69.0	3.8	7.46e-01	0	23	104	0	83	10652
2026-01-12 23:00:45.34	228.60	18.97	-59.3	-69.0	3.8	7.46e-01	0	23	104	0	83	10628
2026-01-12 23:00:48.33	228.27	18.49	-59.3	-69.0	3.8	7.45e-01	0	23	104	0	83	10595
2026-01-12 23:00:51.33	227.96	18.01	-59.3	-69.0	3.8	7.45e-01	0	23	104	0	83	10572
2026-01-12 23:00:54.32	227.65	17.55	-59.3	-69.0	3.8	7.44e-01	0	23	104	0	83	10569
2026-01-12 23:00:57.32	227.36	17.10	-59.3	-69.0	3.8	7.45e-01	0	23	104	0	83	10597
2026-01-12 23:01:00.32	227.08	16.66	-59.3	-68.9	3.8	7.44e-01	0	23	104	0	83	10532
2026-01-12 23:01:03.32	226.81	16.22	-59.3	-69.0	3.8	7.47e-01	0	23	104	0	83	10553
2026-01-12 23:01:06.30	226.54	15.80	-59.2	-68.9	3.8	7.46e-01	0	23	104	0	83	10468
2026-01-12 23:01:09.31	226.29	15.38	-59.2	-68.9	3.8	7.47e-01	0	23	104	0	83	10473
2026-01-12 23:01:12.31	226.04	14.98	-59.2	-68.9	3.8	7.45e-01	0	23	104	0	83	10437
2026-01-12 23:01:15.30	225.81	14.58	-59.2	-68.8	3.8	7.46e-01	0	23	104	0	83	10383
2026-01-12 23:01:18.30	225.58	14.19	-59.1	-68.8	3.8	7.46e-01	0	23	104	0	82	10980
2026-01-12 23:01:21.28	225.36	13.81	-59.1	-68.8	3.8	7.46e-01	0	23	104	0	82	10986
2026-01-12 23:01:24.26	225.14	13.44	-59.1	-68.8	3.8	7.46e-01	0	23	104	0	82	10910
2026-01-12 23:01:27.25	224.93	13.07	-59.0	-68.7	3.8	7.46e-01	0	23	104	0	82	10849
2026-01-12 23:01:30.22	224.73	12.71	-59.1	-68.7	3.8	7.46e-01	0	23	104	0	82	10869
2026-01-12 23:01:33.18	224.54	12.36	-59.0	-68.7	3.8	7.46e-01	0	23	104	0	82	10873
2026-01-12 23:01:36.18	224.35	12.01	-59.0	-68.7	3.8	7.47e-01	0	23	104	0	82	10836
2026-01-12 23:01:39.18	224.16	11.67	-59.0	-68.7	3.8	7.46e-01	0	23	104	0	82	10818
2026-01-12 23:01:42.16	223.98	11.34	-59.0	-68.7	3.8	7.47e-01	0	23	104	0	82	10884
2026-01-12 23:01:45.15	223.81	11.01	-59.0	-68.7	3.8	7.47e-01	0	23	104	0	82	10812
2026-01-12 23:01:48.15	223.64	10.68	-58.9	-68.6	3.8	7.47e-01	0	23	104	0	82	10758
2026-01-12 23:01:51.16	223.48	10.36	-58.9	-68.6	3.8	7.45e-01	0	23	104	0	82	10693
2026-01-12 23:01:54.15	223.32	10.05	-58.9	-68.6	3.8	7.45e-01	0	23	104	0	82	10725
2026-01-12 23:01:57.14	223.16	9.74	-59.0	-68.7	3.8	7.46e-01	0	23	104	0	82	10801
2026-01-12 23:02:00.12	223.01	9.44	-58.9	-68.5	3.8	7.44e-01	0	23	104	0	82	10654
2026-01-12 23:02:03.12	222.86	9.14	-58.8	-68.5	3.8	7.48e-01	0	23	104	0	82	10583
2026-01-12 23:02:06.12	222.72	8.84	-58.8	-68.5	3.8	7.45e-01	0	23	104	0	82	10621
2026-01-12 23:02:09.11	222.58	8.55	-58.8	-68.6	3.8	7.45e-01	0	23	104	0	82	10656
2026-01-12 23:02:12.12	222.44	8.26	-58.7	-68.4	3.8	7.44e-01	0	23	104	0	82	10514
2026-01-12 23:02:15.10	222.31	7.98	-58.7	-68.4	3.8	7.47e-01	0	23	104	0	82	10481
2026-01-12 23:02:18.10	222.18	7.71	-58.8	-68.4	3.8	7.45e-01	0	23	104	0	82	10520
2026-01-12 23:02:21.09	222.06	7.43	-58.8	-68.4	3.8	7.46e-01	0	23	104	0	82	10504
2026-01-12 23:02:24.08	221.93	7.16	-58.6	-68.2	3.8	7.44e-01	0	23	104	0	81	10891
2026-01-12 23:02:27.07	221.81	6.90	-58.5	-68.2	3.8	7.46e-01	0	23	104	0	81	10878
2026-01-12 23:02:30.06	221.70	6.63	-58.6	-68.3	3.8	7.45e-01	0	23	104	0	81	10909
2026-01-12 23:02:33.05	221.58	6.38	-58.6	-68.2	3.8	7.47e-01	0	23	104	0	81	10900
2026-01-12 23:02:36.04	221.47	6.12	-58.4	-68.1	3.8	7.46e-01	0	23	104	0	81	10739
2026-01-12 23:02:39.03	221.36	5.87	-58.4	-68.1	3.8	7.43e-01	0	23	104	0	81	10666
2026-01-12 23:02:42.02	221.26	5.62	-58.4	-68.1	3.8	7.45e-01	0	23	104	0	81	10762
2026-01-12 23:02:45.01	221.16	5.37	-58.4	-68.1	3.8	7.46e-01	0	23	104	0	81	10772
2026-01-12 23:02:48.01	221.05	5.13	-58.2	-67.9	3.8	7.46e-01	0	23	104	0	81	10500
2026-01-12 23:02:51.00	220.96	4.89	-59.0	-68.7	3.8	7.45e-01	0	23	104	0	81	11454
2026-01-12 23:02:54.01	220.86	4.65	-59.5	-69.2	3.8	7.45e-01	0	23	104	0	82	11496
2026-01-12 23:02:57.00	220.76	4.41	-59.8	-69.5	3.8	7.47e-01	0	23	104	0	82	11896
2026-01-12 23:03:00.00	220.67	4.18	-60.0	-69.7	3.8	7.46e-01	0	23	104	0	83	11432
2026-01-12 23:03:03.01	220.58	3.95	-60.0	-69.8	3.8	7.47e-01	0	23	104	0	83	11555
2026-01-12 23:03:06.00	220.49	3.72	-60.1	-69.8	3.8	7.45e-01	0	23	104	0	83	11617
2026-01-12 23:03:09.00	220.41	3.50	-60.2	-69.9	3.8	7.47e-01	0	23	104	0	83	11803
2026-01-12 23:03:12.01	220.32	3.27	-60.3	-70.0	3.8	7.46e-01	0	23	104	0	83	11865
2026-01-12 23:03:14.99	220.24	3.06	-60.2	-69.9	3.8	7.47e-01	0	23	104	0	83	11715
2026-01-12 23:03:17.97	220.16	2.84	-60.2	-69.9	3.8	7.46e-01	0	23	104	0	83	11750
2026-01-12 23:03:20.98	220.08	2.62	-60.1	-69.9	3.8	7.46e-01	0	23	104	0	83	11726
2026-01-12 23:03:23.96	220.00	2.41	-60.1	-69.8	3.8	7.46e-01	0	23	104	0	83	11652
2026-01-12 23:03:26.95	219.93	2.20	-60.1	-69.8	3.8	7.45e-01	0	23	104	0	83	11640

#Closed at: 2026-01-12 23:03:29
#Recorded file [0 MB]: D:/lorett/data/31004_260113_015306.dat