passes_logs/2026/01/12/R3.2S_Murmansk/R3.2S_Murmansk__20260112_004813_NOAA_20_JPSS-1_rec.log

#Pass ID: 20260112_004813_NOAA 20 (JPSS-1)
#Satellite: NOAA 20 (JPSS-1)
#Configuration: NOAA 20
#almurnet v.1.7.20251203
#Start time: 2026-01-12 00:48:14

#Version: 2.2.20231116
#Station: R3.2S_Murmansk
#Location: 33.079688 lon 68.888172 lat
#TLE: 1 43013U 17073A   26011.59429536  .00000082  00000+0  59704-4 0  9990
#TLE: 2 43013  98.7632 312.5697 0001637  44.2118 315.9188 14.19535307422256

#Time	Az	El	Level	Level2	SNR	BER	BlckErr	Temp	State	Recorded	gain1	gain2
2026-01-12 00:48:14.52	24.96	2.07	-54.0	-70.2	3.8	1.49e+00	0	21	0	0	73	24280
2026-01-12 00:48:18.54	24.96	2.33	-54.0	-70.2	3.8	1.49e+00	0	21	104	0	73	24293
2026-01-12 00:48:22.58	24.97	2.59	-54.0	-70.2	3.8	1.49e+00	0	21	104	0	73	24263
2026-01-12 00:48:26.62	24.97	2.85	-54.0	-70.2	3.8	1.49e+00	0	21	104	0	73	24273
2026-01-12 00:48:30.66	24.97	3.12	-54.1	-70.2	3.8	1.49e+00	0	21	104	0	73	24344
2026-01-12 00:48:34.69	24.97	3.39	-54.0	-70.2	3.8	1.49e+00	0	21	104	0	73	24299
2026-01-12 00:48:38.72	24.97	3.66	-54.0	-70.2	3.8	1.49e+00	0	21	104	0	73	24349
2026-01-12 00:48:42.76	24.97	3.94	-54.0	-70.2	3.8	1.49e+00	0	22	104	0	73	24303
2026-01-12 00:48:46.79	24.97	4.21	-54.1	-70.2	3.8	1.49e+00	0	22	104	0	73	24328
2026-01-12 00:48:50.82	24.97	4.49	-54.0	-70.2	3.8	1.49e+00	0	22	104	0	73	24354
2026-01-12 00:48:54.86	24.97	4.78	-54.1	-70.2	3.8	1.49e+00	0	22	104	0	73	24359
2026-01-12 00:48:58.89	24.97	5.06	-54.1	-70.3	3.8	1.49e+00	0	22	104	0	73	24434
2026-01-12 00:49:02.92	24.97	5.35	-54.1	-70.2	3.8	1.49e+00	0	22	104	0	73	24378
2026-01-12 00:49:06.96	24.97	5.64	-54.1	-70.2	3.8	1.49e+00	0	22	104	0	73	24402
2026-01-12 00:49:11.00	24.97	5.94	-54.1	-70.2	3.8	1.49e+00	0	22	104	0	73	24350
2026-01-12 00:49:15.04	24.96	6.24	-54.1	-70.2	3.8	1.49e+00	0	22	104	0	73	24401
2026-01-12 00:49:19.07	24.96	6.54	-54.0	-70.2	3.8	1.49e+00	0	22	104	0	73	24385
2026-01-12 00:49:23.11	24.96	6.85	-54.1	-70.3	3.8	1.49e+00	0	22	104	0	73	24445
2026-01-12 00:49:27.14	24.95	7.16	-54.1	-70.2	3.8	1.49e+00	0	22	104	0	73	24389
2026-01-12 00:49:31.18	24.95	7.47	-54.1	-70.2	3.8	1.49e+00	0	22	104	0	73	24350
2026-01-12 00:49:35.21	24.95	7.79	-54.1	-70.3	3.8	1.49e+00	0	22	104	0	73	24453
2026-01-12 00:49:39.25	24.94	8.11	-54.1	-70.3	3.8	1.49e+00	0	22	104	0	73	24448
2026-01-12 00:49:43.29	24.93	8.44	-54.1	-70.2	3.8	1.49e+00	0	22	104	0	73	24346
2026-01-12 00:49:47.32	24.93	8.77	-54.1	-70.2	3.8	1.49e+00	0	22	104	0	73	24407
2026-01-12 00:49:51.34	24.92	9.10	-54.1	-70.3	3.8	1.49e+00	0	23	104	0	73	24510
2026-01-12 00:49:55.38	24.91	9.44	-54.1	-70.3	3.8	1.49e+00	0	23	104	0	73	24484
2026-01-12 00:49:59.42	24.91	9.79	-54.1	-70.3	3.8	1.49e+00	0	23	104	0	73	24517
2026-01-12 00:50:03.44	24.90	10.13	-54.1	-70.3	3.8	1.49e+00	0	23	104	0	73	24484
2026-01-12 00:50:07.47	24.89	10.49	-54.1	-70.3	3.8	1.49e+00	0	22	104	0	73	24476
2026-01-12 00:50:11.51	24.88	10.85	-54.1	-70.3	3.8	1.49e+00	0	23	104	0	73	24488
2026-01-12 00:50:15.54	24.87	11.21	-54.1	-70.3	3.8	1.49e+00	0	23	104	0	73	24456
2026-01-12 00:50:19.58	24.86	11.58	-54.1	-70.3	3.8	1.49e+00	0	23	104	0	73	24464
2026-01-12 00:50:23.62	24.85	11.95	-54.1	-70.3	3.8	1.49e+00	0	23	104	0	73	24493
2026-01-12 00:50:27.65	24.83	12.34	-54.1	-70.3	3.8	1.49e+00	0	23	104	0	73	24495
2026-01-12 00:50:31.69	24.82	12.72	-54.1	-70.3	3.8	1.49e+00	0	23	104	0	73	24481
2026-01-12 00:50:35.72	24.81	13.12	-54.1	-70.3	3.8	1.49e+00	0	23	104	0	73	24486
2026-01-12 00:50:39.76	24.79	13.52	-54.1	-70.3	3.8	1.49e+00	0	23	104	0	73	24496
2026-01-12 00:50:43.79	24.78	13.92	-54.1	-70.3	3.8	1.49e+00	0	23	104	0	73	24505
2026-01-12 00:50:47.83	24.76	14.34	-54.1	-70.3	3.8	1.49e+00	0	23	104	0	73	24509
2026-01-12 00:50:51.87	24.74	14.76	-54.1	-70.3	3.8	1.49e+00	0	23	104	0	73	24543
2026-01-12 00:50:55.91	24.72	15.19	-54.1	-70.3	3.8	1.49e+00	0	23	104	0	73	24482
2026-01-12 00:50:59.94	24.70	15.62	-54.1	-70.3	3.8	1.49e+00	0	23	104	0	73	24499
2026-01-12 00:51:03.97	24.68	16.06	-54.1	-70.3	3.8	1.49e+00	0	23	104	0	73	24503
2026-01-12 00:51:08.01	24.66	16.52	-54.1	-70.3	3.8	1.49e+00	0	23	104	0	73	24524
2026-01-12 00:51:12.05	24.64	16.98	-54.2	-70.3	3.8	1.49e+00	0	23	104	0	73	24508
2026-01-12 00:51:16.09	24.61	17.45	-54.1	-70.3	3.8	1.49e+00	0	23	104	0	73	24554
2026-01-12 00:51:20.12	24.58	17.93	-54.1	-70.3	3.8	1.49e+00	0	23	104	0	73	24613
2026-01-12 00:51:24.15	24.56	18.41	-54.1	-70.3	3.8	1.49e+00	0	23	104	0	73	24618
2026-01-12 00:51:28.19	24.53	18.91	-54.1	-70.3	3.8	1.49e+00	0	23	104	0	73	24602
2026-01-12 00:51:32.23	24.50	19.42	-54.2	-70.3	3.8	1.49e+00	0	23	104	0	73	24558
2026-01-12 00:51:36.26	24.47	19.94	-54.1	-70.3	3.8	1.49e+00	0	23	104	0	73	24554
2026-01-12 00:51:40.29	24.43	20.47	-54.2	-70.3	3.8	1.49e+00	0	23	104	0	73	24622
2026-01-12 00:51:44.32	24.40	21.01	-54.1	-70.3	3.8	1.49e+00	0	23	104	0	73	24550
2026-01-12 00:51:48.36	24.36	21.56	-54.2	-70.3	3.8	1.49e+00	0	23	104	0	73	24616
2026-01-12 00:51:52.39	24.32	22.13	-54.1	-70.3	3.8	1.49e+00	0	23	104	0	73	24589
2026-01-12 00:51:56.43	24.28	22.70	-54.1	-70.3	3.8	1.49e+00	0	23	104	0	73	24543
2026-01-12 00:52:00.46	24.24	23.30	-54.2	-70.3	3.8	1.49e+00	0	23	104	0	73	24531
2026-01-12 00:52:04.49	24.19	23.90	-54.2	-70.3	3.8	1.49e+00	0	23	104	0	73	24570
2026-01-12 00:52:08.53	24.14	24.52	-54.1	-70.3	3.8	1.49e+00	0	23	104	0	73	24571
2026-01-12 00:52:12.57	24.09	25.16	-54.2	-70.3	3.8	1.49e+00	0	23	104	0	73	24634
2026-01-12 00:52:16.60	24.04	25.81	-54.2	-70.3	3.8	1.49e+00	0	23	104	0	73	24555
2026-01-12 00:52:20.63	23.98	26.47	-54.2	-70.3	3.8	1.49e+00	0	23	104	0	73	24634
2026-01-12 00:52:24.66	23.92	27.15	-54.2	-70.3	3.8	1.49e+00	0	23	104	0	73	24560
2026-01-12 00:52:28.70	23.86	27.86	-54.2	-70.3	3.8	1.49e+00	0	23	104	0	73	24618
2026-01-12 00:52:32.74	23.79	28.58	-54.2	-70.3	3.8	1.49e+00	0	23	104	0	73	24610
2026-01-12 00:52:36.77	23.72	29.31	-54.2	-70.3	3.8	1.49e+00	0	23	104	0	73	24606
2026-01-12 00:52:40.81	23.64	30.07	-54.1	-70.3	3.8	1.49e+00	0	23	104	0	73	24631
2026-01-12 00:52:44.85	23.56	30.85	-54.1	-70.3	3.8	1.49e+00	0	23	104	0	73	24643
2026-01-12 00:52:48.88	23.48	31.65	-54.1	-70.3	3.8	1.49e+00	0	23	104	0	73	24638
2026-01-12 00:52:52.92	23.39	32.47	-54.2	-70.3	3.8	1.49e+00	0	23	104	0	73	24651
2026-01-12 00:52:56.96	23.30	33.32	-54.1	-70.3	3.8	1.49e+00	0	23	104	0	73	24557
2026-01-12 00:53:00.99	23.19	34.19	-54.1	-70.3	3.8	1.49e+00	0	23	104	0	73	24521
2026-01-12 00:53:05.02	23.09	35.08	-54.1	-70.3	3.8	1.49e+00	0	23	104	0	73	24615
2026-01-12 00:53:09.05	22.97	36.00	-54.1	-70.3	3.8	1.49e+00	0	23	104	0	73	24587
2026-01-12 00:53:13.09	22.85	36.95	-54.2	-70.3	3.8	1.49e+00	0	23	104	0	73	24573
2026-01-12 00:53:17.12	22.72	37.92	-54.1	-70.3	3.8	1.49e+00	0	23	104	0	73	24527
2026-01-12 00:53:21.15	22.58	38.93	-54.1	-70.3	3.8	1.49e+00	0	23	104	0	73	24624
2026-01-12 00:53:25.19	22.43	39.96	-54.1	-70.3	3.8	1.49e+00	0	23	104	0	73	24663
2026-01-12 00:53:29.22	22.27	41.03	-54.1	-70.3	3.8	1.49e+00	0	23	104	0	73	24640
2026-01-12 00:53:33.26	22.10	42.13	-54.1	-70.3	3.8	1.49e+00	0	23	104	0	73	24601
2026-01-12 00:53:37.29	21.91	43.26	-54.2	-70.3	3.8	1.49e+00	0	23	104	0	73	24618
2026-01-12 00:53:41.31	21.71	44.42	-54.2	-70.3	3.8	1.49e+00	0	23	104	0	73	24607
2026-01-12 00:53:45.35	21.49	45.62	-54.2	-70.3	3.8	1.49e+00	0	23	104	0	73	24690
2026-01-12 00:53:49.38	21.25	46.85	-54.2	-70.3	3.8	1.49e+00	0	23	104	0	73	24622
2026-01-12 00:53:53.41	20.99	48.13	-54.2	-70.3	3.8	1.49e+00	0	23	104	0	73	24600
2026-01-12 00:53:57.45	20.71	49.44	-54.1	-70.3	3.8	1.49e+00	0	23	104	0	73	24577
2026-01-12 00:54:01.49	20.40	50.79	-54.2	-70.3	3.8	1.49e+00	0	23	104	0	73	24631
2026-01-12 00:54:05.52	20.06	52.18	-54.1	-70.3	3.8	1.49e+00	0	23	104	0	73	24673
2026-01-12 00:54:09.56	19.68	53.61	-54.1	-70.3	3.8	1.49e+00	0	23	104	0	73	24648
2026-01-12 00:54:13.59	19.27	55.08	-54.1	-70.3	3.8	1.49e+00	0	23	104	0	73	24667
2026-01-12 00:54:17.63	18.80	56.59	-54.1	-70.3	3.8	1.49e+00	0	23	104	0	73	24629
2026-01-12 00:54:21.67	18.28	58.14	-54.1	-70.3	3.8	1.49e+00	0	23	104	0	73	24618
2026-01-12 00:54:25.70	17.69	59.73	-54.2	-70.3	3.8	1.49e+00	0	23	104	0	73	24590
2026-01-12 00:54:29.74	17.02	61.36	-54.1	-70.4	3.8	1.49e+00	0	23	104	0	73	24696
2026-01-12 00:54:33.77	16.25	63.02	-54.1	-70.4	3.8	1.49e+00	0	23	104	0	73	24724
2026-01-12 00:54:37.81	15.37	64.73	-54.1	-70.3	3.8	1.49e+00	0	23	104	0	73	24606
2026-01-12 00:54:41.84	14.34	66.46	-54.1	-70.3	3.8	1.49e+00	0	23	104	0	73	24594
2026-01-12 00:54:45.87	13.12	68.22	-54.2	-70.3	3.8	1.49e+00	0	23	104	0	73	24655
2026-01-12 00:54:49.90	11.66	70.00	-54.1	-70.3	3.8	1.49e+00	0	23	104	0	73	24578
2026-01-12 00:54:53.94	9.89	71.81	-54.1	-70.4	3.8	1.49e+00	0	23	104	0	73	24698
2026-01-12 00:54:57.97	7.70	73.62	-54.1	-70.3	3.8	1.49e+00	0	23	104	0	73	24630
2026-01-12 00:55:02.00	4.93	75.43	-54.1	-70.3	3.8	1.49e+00	0	23	104	0	73	24663
2026-01-12 00:55:06.04	1.34	77.23	-54.2	-70.3	3.8	1.49e+00	0	23	104	0	73	24655
2026-01-12 00:55:10.08	356.54	78.98	-54.1	-70.4	3.8	1.49e+00	0	23	104	0	73	24713
2026-01-12 00:55:14.11	349.96	80.64	-54.1	-70.3	3.8	1.49e+00	0	23	104	0	73	24636
2026-01-12 00:55:18.15	340.63	82.14	-54.1	-70.3	3.8	1.49e+00	0	23	104	0	73	24679
2026-01-12 00:55:22.18	327.41	83.35	-54.1	-70.3	3.8	1.49e+00	0	23	104	0	73	24646
2026-01-12 00:55:26.21	309.72	84.07	-54.1	-70.3	3.8	1.49e+00	0	23	104	0	73	24668
2026-01-12 00:55:30.25	289.51	84.13	-54.1	-70.3	3.8	1.49e+00	0	23	104	0	73	24685
2026-01-12 00:55:34.28	271.23	83.49	-54.1	-70.3	3.8	1.49e+00	0	23	104	0	73	24661
2026-01-12 00:55:38.31	257.34	82.34	-54.1	-70.4	3.8	1.49e+00	0	23	104	0	73	24704
2026-01-12 00:55:42.35	247.50	80.88	-54.2	-70.4	3.8	1.49e+00	0	23	104	0	73	24762
2026-01-12 00:55:46.39	240.56	79.23	-54.1	-70.3	3.8	1.49e+00	0	23	104	0	73	24621
2026-01-12 00:55:50.42	235.55	77.49	-54.1	-70.3	3.8	1.49e+00	0	23	104	0	73	24641
2026-01-12 00:55:54.46	231.81	75.69	-54.1	-70.3	3.8	1.49e+00	0	23	104	0	73	24673
2026-01-12 00:55:58.49	228.93	73.88	-54.1	-70.3	3.8	1.49e+00	0	23	104	0	73	24653
2026-01-12 00:56:02.52	226.67	72.07	-54.1	-70.3	3.8	1.49e+00	0	23	104	0	73	24633
2026-01-12 00:56:06.55	224.85	70.26	-54.1	-70.4	3.8	1.49e+00	0	23	104	0	73	24729
2026-01-12 00:56:10.59	223.34	68.47	-54.1	-70.4	3.8	1.49e+00	0	23	104	0	73	24733
2026-01-12 00:56:14.61	222.10	66.70	-54.1	-70.3	3.8	1.49e+00	0	23	104	0	73	24688
2026-01-12 00:56:18.65	221.04	64.96	-54.1	-70.4	3.8	1.49e+00	0	23	104	0	73	24698
2026-01-12 00:56:22.68	220.13	63.26	-54.1	-70.4	3.8	1.49e+00	0	23	104	0	73	24723
2026-01-12 00:56:26.73	219.35	61.58	-54.1	-70.4	3.8	1.49e+00	0	23	104	0	73	24727
2026-01-12 00:56:30.76	218.66	59.94	-54.1	-70.4	3.8	1.49e+00	0	23	104	0	73	24714
2026-01-12 00:56:34.80	218.06	58.34	-54.1	-70.3	3.8	1.49e+00	0	23	104	0	73	24686
2026-01-12 00:56:38.83	217.53	56.79	-54.1	-70.4	3.8	1.49e+00	0	23	104	0	73	24731
2026-01-12 00:56:42.86	217.06	55.27	-54.1	-70.3	3.8	1.49e+00	0	23	104	0	73	24616
2026-01-12 00:56:46.90	216.63	53.79	-54.1	-70.3	3.8	1.49e+00	0	23	104	0	73	24673
2026-01-12 00:56:50.93	216.25	52.35	-54.1	-70.3	3.8	1.49e+00	0	23	104	0	73	24667
2026-01-12 00:56:54.96	215.90	50.95	-54.1	-70.4	3.8	1.49e+00	0	23	104	0	73	24697
2026-01-12 00:56:58.99	215.59	49.60	-54.1	-70.4	3.8	1.49e+00	0	23	104	0	73	24717
2026-01-12 00:57:03.02	215.30	48.28	-54.1	-70.3	3.8	1.49e+00	0	23	104	0	73	24616
2026-01-12 00:57:07.05	215.04	47.00	-54.1	-70.3	3.8	1.49e+00	0	23	104	0	73	24656
2026-01-12 00:57:11.10	214.80	45.75	-54.1	-70.3	3.8	1.49e+00	0	23	104	0	73	24686
2026-01-12 00:57:15.13	214.58	44.54	-54.1	-70.3	3.8	1.49e+00	0	23	104	0	73	24619
2026-01-12 00:57:19.16	214.37	43.37	-54.1	-70.3	3.8	1.49e+00	0	23	104	0	73	24602
2026-01-12 00:57:23.19	214.18	42.23	-54.1	-70.3	3.8	1.49e+00	0	23	104	0	73	24684
2026-01-12 00:57:27.22	214.01	41.13	-54.1	-70.3	3.8	1.49e+00	0	23	104	0	73	24686
2026-01-12 00:57:31.26	213.84	40.05	-54.1	-70.3	3.8	1.49e+00	0	23	104	0	73	24606
2026-01-12 00:57:35.29	213.69	39.01	-54.1	-70.3	3.8	1.49e+00	0	23	104	0	73	24643
2026-01-12 00:57:39.32	213.55	38.00	-54.1	-70.3	3.8	1.49e+00	0	23	104	0	73	24635
2026-01-12 00:57:43.35	213.41	37.02	-54.1	-70.3	3.8	1.49e+00	0	23	104	0	73	24621
2026-01-12 00:57:47.39	213.29	36.07	-54.1	-70.3	3.8	1.49e+00	0	23	104	0	73	24674
2026-01-12 00:57:51.43	213.17	35.14	-54.1	-70.3	3.8	1.49e+00	0	23	104	0	73	24668
2026-01-12 00:57:55.47	213.06	34.24	-54.1	-70.3	3.8	1.49e+00	0	23	104	0	73	24659
2026-01-12 00:57:59.50	212.96	33.36	-54.1	-70.4	3.8	1.49e+00	0	23	104	0	73	24697
2026-01-12 00:58:03.54	212.86	32.51	-54.1	-70.3	3.8	1.49e+00	0	23	104	0	73	24686
2026-01-12 00:58:07.57	212.77	31.69	-54.1	-70.3	3.8	1.49e+00	0	23	104	0	73	24652
2026-01-12 00:58:11.61	212.69	30.88	-54.1	-70.3	3.8	1.49e+00	0	23	104	0	73	24686
2026-01-12 00:58:15.65	212.60	30.10	-54.1	-70.3	3.8	1.49e+00	0	23	104	0	73	24649
2026-01-12 00:58:19.68	212.53	29.33	-54.1	-70.3	3.8	1.49e+00	0	23	104	0	73	24584
2026-01-12 00:58:23.72	212.45	28.59	-54.1	-70.3	3.8	1.49e+00	0	23	104	0	73	24624
2026-01-12 00:58:27.74	212.39	27.87	-54.1	-70.3	3.8	1.49e+00	0	23	104	0	73	24576
2026-01-12 00:58:31.78	212.32	27.16	-54.1	-70.3	3.8	1.49e+00	0	23	104	0	73	24625
2026-01-12 00:58:35.82	212.26	26.48	-54.1	-70.3	3.8	1.49e+00	0	23	104	0	73	24548
2026-01-12 00:58:39.85	212.20	25.81	-54.0	-70.3	3.8	1.49e+00	0	23	104	0	73	24593
2026-01-12 00:58:43.89	212.14	25.15	-54.1	-70.3	3.8	1.49e+00	0	23	104	0	73	24571
2026-01-12 00:58:47.93	212.09	24.51	-54.1	-70.3	3.8	1.49e+00	0	23	104	0	73	24485
2026-01-12 00:58:51.96	212.04	23.89	-54.1	-70.3	3.8	1.49e+00	0	23	104	0	73	24665
2026-01-12 00:58:56.00	211.99	23.28	-54.1	-70.3	3.8	1.49e+00	0	23	104	0	73	24588
2026-01-12 00:59:00.04	211.95	22.69	-54.1	-70.3	3.8	1.49e+00	0	23	104	0	73	24544
2026-01-12 00:59:04.07	211.90	22.11	-54.1	-70.3	3.8	1.49e+00	0	23	104	0	73	24612
2026-01-12 00:59:08.10	211.86	21.54	-54.1	-70.3	3.8	1.49e+00	0	23	104	0	73	24548
2026-01-12 00:59:12.13	211.82	20.98	-54.1	-70.3	3.8	1.49e+00	0	23	104	0	73	24560
2026-01-12 00:59:16.16	211.79	20.44	-54.1	-70.3	3.8	1.49e+00	0	23	104	0	73	24617
2026-01-12 00:59:20.20	211.75	19.91	-54.1	-70.3	3.8	1.49e+00	0	23	104	0	73	24561
2026-01-12 00:59:24.23	211.72	19.39	-54.1	-70.3	3.8	1.49e+00	0	23	104	0	73	24629
2026-01-12 00:59:28.27	211.68	18.88	-54.1	-70.3	3.8	1.49e+00	0	23	104	0	73	24595
2026-01-12 00:59:32.31	211.65	18.38	-54.1	-70.3	3.8	1.49e+00	0	23	104	0	73	24584
2026-01-12 00:59:36.34	211.62	17.89	-54.1	-70.3	3.8	1.49e+00	0	23	104	0	73	24590
2026-01-12 00:59:40.37	211.60	17.41	-54.1	-70.3	3.8	1.49e+00	0	23	104	0	73	24600
2026-01-12 00:59:44.40	211.57	16.93	-54.1	-70.3	3.8	1.49e+00	0	23	104	0	73	24633
2026-01-12 00:59:48.43	211.54	16.47	-54.1	-70.3	3.8	1.49e+00	0	23	104	0	73	24566
2026-01-12 00:59:52.48	211.52	16.02	-54.1	-70.3	3.8	1.49e+00	0	23	104	0	73	24677
2026-01-12 00:59:56.52	211.50	15.57	-54.1	-70.3	3.8	1.49e+00	0	23	104	0	73	24586
2026-01-12 01:00:00.55	211.48	15.13	-54.1	-70.3	3.8	1.49e+00	0	23	104	0	73	24590
2026-01-12 01:00:04.58	211.45	14.70	-54.1	-70.3	3.8	1.49e+00	0	23	104	0	73	24549
2026-01-12 01:00:08.61	211.43	14.28	-54.1	-70.3	3.8	1.49e+00	0	23	104	0	73	24633
2026-01-12 01:00:12.65	211.41	13.87	-54.1	-70.3	3.8	1.49e+00	0	23	104	0	73	24527
2026-01-12 01:00:16.69	211.40	13.46	-54.1	-70.3	3.8	1.49e+00	0	23	104	0	73	24554
2026-01-12 01:00:20.73	211.38	13.06	-54.1	-70.3	3.8	1.49e+00	0	23	104	0	73	24562
2026-01-12 01:00:24.77	211.36	12.66	-54.1	-70.3	3.8	1.49e+00	0	23	104	0	73	24613
2026-01-12 01:00:28.80	211.35	12.27	-54.1	-70.3	3.8	1.49e+00	0	23	104	0	73	24584
2026-01-12 01:00:32.84	211.33	11.89	-54.1	-70.3	3.8	1.49e+00	0	23	104	0	73	24619
2026-01-12 01:00:36.88	211.32	11.51	-54.1	-70.3	3.8	1.49e+00	0	23	104	0	73	24638
2026-01-12 01:00:40.91	211.30	11.14	-54.1	-70.3	3.8	1.49e+00	0	23	104	0	73	24568
2026-01-12 01:00:44.94	211.29	10.78	-54.1	-70.3	3.8	1.49e+00	0	23	104	0	73	24549
2026-01-12 01:00:48.98	211.28	10.42	-54.1	-70.3	3.8	1.49e+00	0	23	104	0	73	24624
2026-01-12 01:00:53.01	211.27	10.06	-54.1	-70.3	3.8	1.49e+00	0	23	104	0	73	24618
2026-01-12 01:00:57.04	211.26	9.71	-54.1	-70.3	3.8	1.49e+00	0	23	104	0	73	24619
2026-01-12 01:01:01.08	211.25	9.37	-54.1	-70.3	3.8	1.49e+00	0	23	104	0	73	24569
2026-01-12 01:01:05.11	211.24	9.03	-54.1	-70.3	3.8	1.49e+00	0	23	104	0	73	24553
2026-01-12 01:01:09.14	211.23	8.69	-54.1	-70.3	3.8	1.49e+00	0	23	104	0	73	24642
2026-01-12 01:01:13.18	211.22	8.36	-54.1	-70.3	3.8	1.49e+00	0	23	104	0	73	24609
2026-01-12 01:01:17.22	211.21	8.03	-54.1	-70.3	3.8	1.49e+00	0	23	104	0	73	24565
2026-01-12 01:01:21.25	211.20	7.71	-54.1	-70.3	3.8	1.49e+00	0	23	104	0	73	24475
2026-01-12 01:01:25.29	211.20	7.39	-54.1	-70.3	3.8	1.49e+00	0	23	104	0	73	24539
2026-01-12 01:01:29.33	211.19	7.08	-54.1	-70.3	3.8	1.49e+00	0	23	104	0	73	24477
2026-01-12 01:01:33.36	211.18	6.77	-54.1	-70.3	3.8	1.49e+00	0	23	104	0	73	24466
2026-01-12 01:01:37.40	211.18	6.46	-54.1	-70.3	3.8	1.49e+00	0	23	104	0	73	24533
2026-01-12 01:01:41.43	211.17	6.15	-54.1	-70.3	3.8	1.49e+00	0	23	104	0	73	24573
2026-01-12 01:01:45.46	211.16	5.85	-54.1	-70.3	3.8	1.49e+00	0	23	104	0	73	24560
2026-01-12 01:01:49.50	211.16	5.56	-54.1	-70.3	3.8	1.49e+00	0	23	104	0	73	24455
2026-01-12 01:01:53.54	211.16	5.26	-54.1	-70.3	3.8	1.49e+00	0	23	104	0	73	24489
2026-01-12 01:01:57.57	211.15	4.97	-54.1	-70.3	3.8	1.49e+00	0	23	104	0	73	24529
2026-01-12 01:02:01.61	211.15	4.69	-54.1	-70.3	3.8	1.49e+00	0	23	104	0	73	24481
2026-01-12 01:02:05.63	211.14	4.40	-54.1	-70.3	3.8	1.49e+00	0	23	104	0	73	24504
2026-01-12 01:02:09.67	211.14	4.12	-54.1	-70.3	3.8	1.49e+00	0	23	104	0	73	24526
2026-01-12 01:02:13.70	211.14	3.84	-54.1	-70.3	3.8	1.49e+00	0	23	104	0	73	24469
2026-01-12 01:02:17.74	211.14	3.57	-54.1	-70.3	3.8	1.49e+00	0	23	104	0	73	24419
2026-01-12 01:02:21.77	211.13	3.30	-54.1	-70.3	3.8	1.49e+00	0	23	104	0	73	24471
2026-01-12 01:02:25.81	211.13	3.03	-54.1	-70.3	3.8	1.49e+00	0	23	104	0	73	24477
2026-01-12 01:02:29.84	211.13	2.76	-54.1	-70.3	3.8	1.49e+00	0	23	104	0	73	24489
2026-01-12 01:02:33.87	211.13	2.49	-54.1	-70.3	3.8	1.49e+00	0	23	104	0	73	24517
2026-01-12 01:02:37.90	211.13	2.23	-54.1	-70.3	3.8	1.49e+00	0	23	104	0	73	24472
2026-01-12 01:02:41.93	211.13	1.97	-54.1	-70.3	3.8	1.49e+00	0	23	104	0	73	24498

#Closed at: 2026-01-12 01:02:42
#Recorded file [0 MB]: D:/lorett/data/31004_260112_034814.dat