passes_logs/2026/01/12/R3.2S_Murmansk/R3.2S_Murmansk__20260112_215825_NOAA_21_JPSS-2_rec.log

#Pass ID: 20260112_215825_NOAA 21 (JPSS-2)
#Satellite: NOAA 21 (JPSS-2)
#Configuration: NOAA-21
#almurnet v.1.7.20251203
#Start time: 2026-01-12 21:58:25

#Version: 2.2.20231116
#Station: R3.2S_Murmansk
#Location: 33.079688 lon 68.888172 lat
#TLE: 1 54234U 22150A   26012.26378519  .00000063  00000+0  50547-4 0  9993
#TLE: 2 54234  98.7495 313.1967 0000726 309.1075  51.0036 14.19534275164425

#Time	Az	El	Level	Level2	SNR	BER	BlckErr	Temp	State	Recorded	gain1	gain2
2026-01-12 21:58:25.30	18.39	1.98	-57.2	-70.8	3.8	1.49e+00	0	20	0	0	81	16392
2026-01-12 21:58:28.29	18.63	2.14	-57.2	-70.8	3.8	1.49e+00	0	20	104	0	79	18397
2026-01-12 21:58:31.30	18.87	2.29	-57.2	-70.9	3.8	1.49e+00	0	21	104	0	79	18564
2026-01-12 21:58:34.30	19.12	2.45	-57.2	-70.8	3.8	1.49e+00	0	21	104	0	79	18475
2026-01-12 21:58:37.32	19.37	2.61	-57.2	-70.7	3.8	1.49e+00	0	21	104	0	79	18279
2026-01-12 21:58:40.33	19.62	2.77	-57.2	-70.8	3.8	1.49e+00	0	21	104	0	79	18497
2026-01-12 21:58:43.33	19.87	2.92	-57.2	-70.9	3.8	1.49e+00	0	21	104	0	79	18716
2026-01-12 21:58:46.34	20.12	3.08	-57.2	-70.9	3.8	1.49e+00	0	21	104	0	79	18681
2026-01-12 21:58:49.34	20.38	3.24	-57.2	-70.9	3.8	1.49e+00	0	21	104	0	79	18714
2026-01-12 21:58:52.34	20.64	3.40	-57.2	-70.4	3.8	1.49e+00	0	21	104	0	79	17645
2026-01-12 21:58:55.33	20.90	3.56	-57.2	-70.1	3.8	1.49e+00	0	21	104	0	79	17000
2026-01-12 21:58:58.33	21.17	3.72	-57.2	-70.2	3.8	1.49e+00	0	21	104	0	79	17126
2026-01-12 21:59:01.33	21.43	3.88	-57.1	-69.3	3.8	1.49e+00	0	21	104	0	79	15575
2026-01-12 21:59:04.33	21.70	4.04	-57.0	-68.2	3.9	1.46e+00	0	21	104	0	79	13657
2026-01-12 21:59:07.33	21.98	4.20	-56.9	-66.9	4.3	1.45e+00	0	21	104	0	79	11782
2026-01-12 21:59:10.33	22.25	4.36	-55.9	-61.5	7.8	1.02e-01	0	21	0	6291456	78	6682
2026-01-12 21:59:13.33	22.53	4.53	-53.7	-56.8	11.7	1.21e-04	0	21	0	15728640	74	4913
2026-01-12 21:59:16.33	22.81	4.69	-53.2	-56.0	12.2	9.90e-06	0	21	0	25165824	72	4996
2026-01-12 21:59:19.33	23.10	4.85	-54.0	-57.4	11.1	9.61e-05	0	21	0	34603008	73	5585
2026-01-12 21:59:22.34	23.39	5.02	-55.6	-60.8	8.4	2.30e-02	0	22	0	44040192	76	6897
2026-01-12 21:59:25.34	23.68	5.18	-56.3	-63.2	6.2	1.33e+00	2	22	104	51380224	78	8119
2026-01-12 21:59:28.35	23.97	5.34	-56.4	-63.1	6.4	3.89e-01	0	22	0	59768832	78	8017
2026-01-12 21:59:31.34	24.27	5.51	-51.3	-53.2	14.1	0.00e+00	0	22	0	69206016	69	4321
2026-01-12 21:59:34.33	24.57	5.67	-51.4	-53.3	14.0	0.00e+00	0	22	0	78643200	69	4346
2026-01-12 21:59:37.33	24.87	5.84	-51.4	-53.3	14.0	0.00e+00	0	22	0	88080384	69	4391
2026-01-12 21:59:40.33	25.18	6.00	-51.3	-53.2	14.1	0.00e+00	0	22	0	97517568	69	4302
2026-01-12 21:59:43.34	25.49	6.17	-51.2	-53.0	14.1	0.00e+00	0	22	0	106954752	68	4476
2026-01-12 21:59:46.34	25.81	6.34	-51.1	-52.9	14.1	0.00e+00	0	22	0	115343360	68	4437
2026-01-12 21:59:49.33	26.12	6.50	-51.1	-52.9	14.2	0.00e+00	0	22	0	124780544	68	4404
2026-01-12 21:59:52.33	26.44	6.67	-51.0	-52.8	14.2	0.00e+00	0	22	0	134217728	68	4375
2026-01-12 21:59:55.33	26.77	6.84	-51.0	-52.8	14.3	0.00e+00	0	22	0	143654912	68	4349
2026-01-12 21:59:58.34	27.10	7.01	-51.0	-52.7	14.3	0.00e+00	0	22	0	153092096	68	4339
2026-01-12 22:00:01.34	27.43	7.18	-51.0	-52.8	14.3	0.00e+00	0	22	0	162529280	68	4348
2026-01-12 22:00:04.33	27.76	7.35	-50.9	-52.6	14.4	0.00e+00	0	22	0	171966464	68	4271
2026-01-12 22:00:07.32	28.10	7.51	-50.8	-52.5	14.5	0.00e+00	0	22	0	181403648	68	4206
2026-01-12 22:00:10.31	28.44	7.68	-50.4	-52.1	14.5	0.00e+00	0	22	0	190840832	67	4265
2026-01-12 22:00:13.31	28.79	7.85	-50.3	-51.9	14.7	0.00e+00	0	22	0	200278016	67	4180
2026-01-12 22:00:16.31	29.14	8.02	-50.3	-52.0	14.6	0.00e+00	0	22	0	209715200	67	4197
2026-01-12 22:00:19.31	29.49	8.19	-50.3	-51.9	14.5	0.00e+00	0	22	0	219152384	66	4419
2026-01-12 22:00:22.30	29.85	8.36	-50.3	-52.0	14.5	0.00e+00	0	22	0	228589568	66	4452
2026-01-12 22:00:25.31	30.21	8.53	-50.4	-52.0	14.4	0.00e+00	0	22	0	238026752	66	4480
2026-01-12 22:00:28.32	30.58	8.71	-50.3	-51.9	14.5	0.00e+00	0	22	0	247463936	66	4440
2026-01-12 22:00:31.32	30.95	8.88	-50.0	-51.6	14.7	0.00e+00	0	22	0	256901120	66	4249
2026-01-12 22:00:34.32	31.32	9.05	-49.9	-51.4	14.8	0.00e+00	0	22	0	266338304	66	4169
2026-01-12 22:00:37.31	31.70	9.22	-50.0	-51.5	14.8	0.00e+00	0	22	0	274726912	66	4233
2026-01-12 22:00:40.32	32.09	9.39	-50.1	-51.6	14.7	0.00e+00	0	22	0	284164096	66	4281
2026-01-12 22:00:43.31	32.47	9.56	-50.1	-51.6	14.7	0.00e+00	0	22	0	293601280	66	4277
2026-01-12 22:00:46.32	32.87	9.73	-49.9	-51.5	14.8	0.00e+00	0	22	0	303038464	66	4207
2026-01-12 22:00:49.32	33.26	9.91	-49.9	-51.4	14.9	0.00e+00	0	22	0	312475648	66	4157
2026-01-12 22:00:52.31	33.66	10.08	-49.7	-51.2	14.8	0.00e+00	0	22	0	321912832	65	4293
2026-01-12 22:00:55.30	34.06	10.25	-49.5	-51.0	14.9	0.00e+00	0	22	0	331350016	65	4203
2026-01-12 22:00:58.29	34.47	10.42	-49.7	-51.2	14.8	0.00e+00	0	22	0	340787200	65	4308
2026-01-12 22:01:01.29	34.89	10.59	-49.9	-51.4	14.7	0.00e+00	0	22	0	350224384	65	4427
2026-01-12 22:01:04.28	35.31	10.76	-49.7	-51.2	14.8	0.00e+00	0	22	0	359661568	65	4303
2026-01-12 22:01:07.29	35.73	10.93	-49.7	-51.2	14.8	0.00e+00	0	22	0	369098752	65	4322
2026-01-12 22:01:10.29	36.16	11.10	-49.4	-50.9	15.0	0.00e+00	0	22	0	378535936	65	4150
2026-01-12 22:01:13.28	36.59	11.27	-49.5	-50.9	15.0	0.00e+00	0	22	0	387973120	65	4187
2026-01-12 22:01:16.29	37.03	11.44	-49.5	-51.0	14.9	0.00e+00	0	22	0	397410304	65	4216
2026-01-12 22:01:19.29	37.48	11.62	-49.3	-50.7	15.1	0.00e+00	0	22	0	405798912	65	4094
2026-01-12 22:01:22.29	37.92	11.78	-49.2	-50.6	15.0	0.00e+00	0	22	0	415236096	64	4254
2026-01-12 22:01:25.29	38.38	11.95	-49.2	-50.6	15.0	0.00e+00	0	22	0	424673280	64	4286
2026-01-12 22:01:28.31	38.84	12.12	-49.5	-50.9	14.8	0.00e+00	0	22	0	434110464	64	4429
2026-01-12 22:01:31.31	39.30	12.29	-49.5	-51.0	14.8	0.00e+00	0	22	0	443547648	64	4442
2026-01-12 22:01:34.32	39.77	12.46	-49.7	-51.1	14.7	0.00e+00	0	22	0	452984832	64	4534
2026-01-12 22:01:37.31	40.25	12.63	-49.4	-50.9	14.9	0.00e+00	0	22	0	462422016	64	4406
2026-01-12 22:01:40.30	40.72	12.80	-49.0	-50.4	15.1	0.00e+00	0	22	0	471859200	64	4167
2026-01-12 22:01:43.30	41.21	12.96	-49.1	-50.5	15.0	0.00e+00	0	22	0	481296384	64	4224
2026-01-12 22:01:46.32	41.70	13.13	-49.2	-50.6	15.0	0.00e+00	0	22	0	490733568	64	4260
2026-01-12 22:01:49.32	42.20	13.29	-49.2	-50.6	15.0	0.00e+00	0	22	0	500170752	64	4249
2026-01-12 22:01:52.32	42.70	13.46	-49.1	-50.4	15.1	0.00e+00	0	22	0	509607936	64	4187
2026-01-12 22:01:55.32	43.20	13.62	-49.1	-50.4	15.1	0.00e+00	0	22	0	519045120	64	4173
2026-01-12 22:01:58.32	43.72	13.78	-49.2	-50.6	15.0	0.00e+00	0	22	0	528482304	64	4274
2026-01-12 22:02:01.32	44.23	13.94	-49.2	-50.6	15.0	0.00e+00	0	22	0	537919488	64	4281
2026-01-12 22:02:04.30	44.75	14.10	-49.2	-50.5	15.1	0.00e+00	0	22	0	547356672	64	4240
2026-01-12 22:02:07.30	45.28	14.26	-49.1	-50.5	15.0	0.00e+00	0	22	0	556793856	64	4216
2026-01-12 22:02:10.30	45.81	14.42	-49.3	-50.7	14.9	0.00e+00	0	22	0	565182464	64	4315
2026-01-12 22:02:13.30	46.35	14.57	-49.2	-50.6	15.0	0.00e+00	0	22	0	574619648	64	4264
2026-01-12 22:02:16.31	46.90	14.73	-49.3	-50.7	15.0	0.00e+00	0	22	0	585105408	64	4302
2026-01-12 22:02:19.32	47.45	14.88	-49.2	-50.5	15.0	0.00e+00	0	22	0	593494016	64	4236
2026-01-12 22:02:22.32	48.01	15.04	-49.4	-50.8	14.9	0.00e+00	0	22	0	602931200	64	4350
2026-01-12 22:02:25.32	48.57	15.19	-49.1	-50.5	15.1	0.00e+00	0	22	0	612368384	64	4202
2026-01-12 22:02:28.32	49.13	15.33	-49.1	-50.5	15.1	0.00e+00	0	22	0	621805568	64	4214
2026-01-12 22:02:31.33	49.71	15.48	-49.2	-50.6	15.0	0.00e+00	0	22	0	631242752	64	4279
2026-01-12 22:02:34.34	50.29	15.63	-49.2	-50.5	15.0	0.00e+00	0	22	0	640679936	64	4240
2026-01-12 22:02:37.33	50.87	15.77	-48.9	-50.3	15.2	0.00e+00	0	22	0	650117120	64	4106
2026-01-12 22:02:40.32	51.45	15.91	-48.9	-50.2	15.2	0.00e+00	0	22	0	659554304	64	4063
2026-01-12 22:02:43.32	52.05	16.05	-48.9	-50.2	15.2	0.00e+00	0	22	0	668991488	64	4096
2026-01-12 22:02:46.33	52.65	16.19	-49.0	-50.4	15.1	0.00e+00	0	22	0	678428672	64	4156
2026-01-12 22:02:49.34	53.25	16.32	-49.0	-50.3	15.2	0.00e+00	0	22	0	687865856	64	4129
2026-01-12 22:02:52.34	53.86	16.46	-48.8	-50.2	15.2	0.00e+00	0	22	0	697303040	64	4056
2026-01-12 22:02:55.33	54.48	16.59	-48.7	-50.0	15.2	0.00e+00	0	22	0	706740224	63	4203
2026-01-12 22:02:58.34	55.10	16.72	-48.8	-50.1	15.1	0.00e+00	0	22	0	716177408	63	4265
2026-01-12 22:03:01.33	55.72	16.84	-48.7	-50.1	15.2	0.00e+00	0	22	0	725614592	63	4255
2026-01-12 22:03:04.32	56.35	16.96	-48.6	-49.9	15.2	0.00e+00	0	22	0	735051776	63	4172
2026-01-12 22:03:07.32	56.99	17.08	-48.5	-49.8	15.3	0.00e+00	0	22	0	743440384	63	4106
2026-01-12 22:03:10.31	57.62	17.20	-48.6	-49.9	15.2	0.00e+00	0	23	0	752877568	63	4192
2026-01-12 22:03:13.32	58.27	17.31	-48.5	-49.8	15.3	0.00e+00	0	22	0	762314752	63	4137
2026-01-12 22:03:16.33	58.92	17.43	-48.5	-49.8	15.3	0.00e+00	0	23	0	771751936	63	4125
2026-01-12 22:03:19.33	59.58	17.54	-48.3	-49.5	15.4	0.00e+00	0	22	0	781189120	63	4000
2026-01-12 22:03:22.33	60.24	17.64	-48.1	-49.4	15.3	0.00e+00	0	22	0	790626304	62	4154
2026-01-12 22:03:25.33	60.90	17.74	-48.2	-49.4	15.3	0.00e+00	0	22	0	800063488	62	4192
2026-01-12 22:03:28.34	61.57	17.84	-48.2	-49.5	15.3	0.00e+00	0	22	0	809500672	62	4219
2026-01-12 22:03:31.33	62.24	17.94	-48.2	-49.4	15.3	0.00e+00	0	22	0	818937856	62	4186
2026-01-12 22:03:34.33	62.92	18.03	-48.2	-49.5	15.3	0.00e+00	0	22	0	828375040	62	4196
2026-01-12 22:03:37.34	63.60	18.12	-48.2	-49.4	15.3	0.00e+00	0	22	0	837812224	62	4183
2026-01-12 22:03:40.35	64.28	18.20	-48.1	-49.3	15.4	0.00e+00	0	22	0	847249408	62	4143
2026-01-12 22:03:43.36	64.97	18.28	-48.3	-49.5	15.3	0.00e+00	0	23	0	856686592	62	4229
2026-01-12 22:03:46.36	65.67	18.36	-48.1	-49.4	15.3	0.00e+00	0	23	0	866123776	62	4160
2026-01-12 22:03:49.35	66.36	18.43	-48.1	-49.3	15.4	0.00e+00	0	22	0	875560960	62	4117
2026-01-12 22:03:52.36	67.06	18.50	-48.2	-49.4	15.3	0.00e+00	0	22	0	884998144	62	4183
2026-01-12 22:03:55.36	67.76	18.57	-48.4	-49.6	15.2	0.00e+00	0	23	0	894435328	62	4287
2026-01-12 22:03:58.36	68.46	18.63	-48.5	-49.7	15.2	0.00e+00	0	22	0	903872512	62	4336
2026-01-12 22:04:01.35	69.17	18.69	-48.6	-49.9	15.1	0.00e+00	0	22	0	912261120	62	4407
2026-01-12 22:04:04.34	69.87	18.74	-48.6	-49.9	15.1	0.00e+00	0	22	0	921698304	62	4425
2026-01-12 22:04:07.34	70.59	18.79	-48.5	-49.7	15.2	0.00e+00	0	22	0	931135488	62	4337
2026-01-12 22:04:10.33	71.30	18.84	-48.4	-49.7	15.2	0.00e+00	0	22	0	940572672	62	4307
2026-01-12 22:04:13.33	72.01	18.88	-48.5	-49.8	15.2	0.00e+00	0	22	0	950009856	62	4365
2026-01-12 22:04:16.32	72.73	18.92	-48.4	-49.7	15.2	0.00e+00	0	22	0	959447040	62	4304
2026-01-12 22:04:19.32	73.45	18.95	-48.5	-49.8	15.1	0.00e+00	0	22	0	968884224	62	4386
2026-01-12 22:04:22.32	74.17	18.98	-48.4	-49.7	15.2	0.00e+00	0	22	0	978321408	62	4298
2026-01-12 22:04:25.31	74.89	19.00	-48.5	-49.8	15.2	0.00e+00	0	22	0	987758592	62	4345
2026-01-12 22:04:28.30	75.61	19.02	-48.4	-49.7	15.2	0.00e+00	0	23	0	997195776	62	4298
2026-01-12 22:04:31.31	76.33	19.03	-48.4	-49.6	15.2	0.00e+00	0	22	0	1006632960	62	4282
2026-01-12 22:04:34.31	77.06	19.04	-48.3	-49.6	15.2	0.00e+00	0	22	0	1016070144	62	4259
2026-01-12 22:04:37.30	77.78	19.05	-48.3	-49.5	15.3	0.00e+00	0	22	0	1025507328	62	4228
2026-01-12 22:04:40.29	78.50	19.05	-48.3	-49.6	15.2	0.00e+00	0	22	0	1034944512	62	4247
2026-01-12 22:04:43.28	79.23	19.05	-48.4	-49.7	15.2	0.00e+00	0	23	0	1043333120	62	4326
2026-01-12 22:04:46.28	79.95	19.04	-48.3	-49.5	15.3	0.00e+00	0	23	0	1052770304	62	4238
2026-01-12 22:04:49.29	80.68	19.03	-48.6	-49.9	15.1	0.00e+00	0	22	0	1062207488	62	4407
2026-01-12 22:04:52.29	81.40	19.01	-48.5	-49.8	15.2	0.00e+00	0	23	0	1071644672	62	4342
2026-01-12 22:04:55.28	82.12	18.99	-48.4	-49.7	15.2	0.00e+00	0	23	0	1081081856	62	4295
2026-01-12 22:04:58.29	82.85	18.97	-48.5	-49.8	15.1	0.00e+00	0	22	0	1090519040	62	4345
2026-01-12 22:05:01.26	83.56	18.94	-48.4	-49.6	15.2	0.00e+00	0	23	0	1099956224	62	4283
2026-01-12 22:05:04.26	84.28	18.90	-48.5	-49.8	15.1	0.00e+00	0	23	0	1109393408	62	4349
2026-01-12 22:05:07.24	84.99	18.87	-48.4	-49.7	15.2	0.00e+00	0	22	0	1118830592	62	4327
2026-01-12 22:05:10.24	85.71	18.82	-48.2	-49.4	15.3	0.00e+00	0	23	0	1128267776	62	4179
2026-01-12 22:05:13.23	86.42	18.78	-48.1	-49.3	15.3	0.00e+00	0	23	0	1137704960	62	4130
2026-01-12 22:05:16.21	87.13	18.73	-48.2	-49.4	15.3	0.00e+00	0	23	0	1147142144	62	4172
2026-01-12 22:05:19.21	87.83	18.67	-48.2	-49.5	15.2	0.00e+00	0	23	0	1156579328	62	4199
2026-01-12 22:05:22.19	88.54	18.61	-48.1	-49.4	15.3	0.00e+00	0	23	0	1164967936	62	4160
2026-01-12 22:05:25.19	89.24	18.55	-48.1	-49.3	15.3	0.00e+00	0	23	0	1174405120	62	4129
2026-01-12 22:05:28.19	89.94	18.48	-48.3	-49.6	15.2	0.00e+00	0	22	0	1183842304	62	4266
2026-01-12 22:05:31.19	90.64	18.41	-48.1	-49.3	15.3	0.00e+00	0	23	0	1193279488	62	4140
2026-01-12 22:05:34.17	91.33	18.33	-48.2	-49.4	15.3	0.00e+00	0	23	0	1202716672	62	4182
2026-01-12 22:05:37.18	92.02	18.26	-48.4	-49.7	15.2	0.00e+00	0	23	0	1212153856	62	4303
2026-01-12 22:05:40.18	92.71	18.17	-48.4	-49.6	15.2	0.00e+00	0	23	0	1221591040	62	4277
2026-01-12 22:05:43.17	93.39	18.09	-48.4	-49.7	15.1	0.00e+00	0	23	0	1231028224	62	4308
2026-01-12 22:05:46.17	94.07	18.00	-48.1	-49.4	15.3	0.00e+00	0	23	0	1240465408	62	4165
2026-01-12 22:05:49.16	94.75	17.90	-48.1	-49.3	15.3	0.00e+00	0	23	0	1249902592	62	4119
2026-01-12 22:05:52.16	95.42	17.81	-48.2	-49.5	15.3	0.00e+00	0	23	0	1259339776	62	4207
2026-01-12 22:05:55.16	96.09	17.71	-48.2	-49.5	15.2	0.00e+00	0	23	0	1268776960	62	4212
2026-01-12 22:05:58.13	96.75	17.60	-48.2	-49.4	15.3	0.00e+00	0	23	0	1278214144	62	4167
2026-01-12 22:06:01.13	97.40	17.50	-48.2	-49.4	15.3	0.00e+00	0	23	0	1286602752	62	4188
2026-01-12 22:06:04.12	98.06	17.39	-48.3	-49.6	15.2	0.00e+00	0	23	0	1296039936	62	4250
2026-01-12 22:06:07.11	98.71	17.28	-48.3	-49.6	15.2	0.00e+00	0	23	0	1305477120	62	4259
2026-01-12 22:06:10.10	99.35	17.16	-48.5	-49.8	15.1	0.00e+00	0	23	0	1314914304	62	4351
2026-01-12 22:06:13.08	99.98	17.04	-48.3	-49.6	15.2	0.00e+00	0	23	0	1324351488	62	4244
2026-01-12 22:06:16.07	100.62	16.92	-48.6	-49.9	15.0	0.00e+00	0	23	0	1333788672	62	4428
2026-01-12 22:06:19.06	101.25	16.80	-48.8	-50.1	14.9	0.00e+00	0	23	0	1343225856	62	4534
2026-01-12 22:06:22.06	101.87	16.67	-48.7	-50.0	15.0	0.00e+00	0	23	0	1352663040	62	4475
2026-01-12 22:06:25.05	102.49	16.54	-48.8	-50.2	14.9	0.00e+00	0	23	0	1362100224	62	4557
2026-01-12 22:06:28.03	103.10	16.41	-48.9	-50.2	15.0	0.00e+00	0	23	0	1371537408	63	4321
2026-01-12 22:06:31.03	103.71	16.28	-49.1	-50.5	14.9	0.00e+00	0	23	0	1380974592	63	4462
2026-01-12 22:06:34.03	104.32	16.14	-49.0	-50.4	14.9	0.00e+00	0	23	0	1390411776	63	4401
2026-01-12 22:06:37.02	104.92	16.00	-49.0	-50.3	15.0	0.00e+00	0	23	0	1398800384	63	4371
2026-01-12 22:06:40.03	105.51	15.86	-48.8	-50.0	15.1	0.00e+00	0	23	0	1408237568	63	4242
2026-01-12 22:06:43.03	106.10	15.72	-49.0	-50.4	14.9	0.00e+00	0	23	0	1417674752	63	4414
2026-01-12 22:06:46.03	106.68	15.57	-49.2	-50.6	14.9	0.00e+00	0	23	0	1427111936	63	4505
2026-01-12 22:06:49.02	107.26	15.43	-49.0	-50.3	15.0	0.00e+00	0	23	0	1436549120	63	4374
2026-01-12 22:06:52.01	107.83	15.28	-49.0	-50.4	14.9	0.00e+00	0	23	0	1445986304	63	4401
2026-01-12 22:06:55.01	108.40	15.13	-48.8	-50.1	15.1	0.00e+00	0	23	0	1455423488	63	4270
2026-01-12 22:06:58.01	108.96	14.98	-49.0	-50.3	14.9	0.00e+00	0	23	0	1464860672	63	4389
2026-01-12 22:07:01.01	109.51	14.82	-49.1	-50.5	14.9	0.00e+00	0	23	0	1474297856	63	4452
2026-01-12 22:07:04.00	110.06	14.67	-49.2	-50.6	14.9	0.00e+00	0	23	0	1483735040	63	4511
2026-01-12 22:07:06.97	110.60	14.51	-49.0	-50.4	14.9	0.00e+00	0	23	0	1493172224	63	4407
2026-01-12 22:07:09.97	111.14	14.36	-48.8	-50.1	15.0	0.00e+00	0	23	0	1502609408	63	4291
2026-01-12 22:07:12.97	111.67	14.20	-49.0	-50.4	14.9	0.00e+00	0	23	0	1512046592	63	4415
2026-01-12 22:07:15.98	112.20	14.04	-49.1	-50.5	14.9	0.00e+00	0	23	0	1521483776	63	4451
2026-01-12 22:07:18.97	112.72	13.88	-49.1	-50.5	14.9	0.00e+00	0	23	0	1529872384	63	4461
2026-01-12 22:07:21.97	113.24	13.71	-49.2	-50.6	14.8	0.00e+00	0	23	0	1539309568	63	4526
2026-01-12 22:07:24.98	113.76	13.55	-49.3	-50.7	14.8	0.00e+00	0	23	0	1548746752	63	4569
2026-01-12 22:07:27.97	114.26	13.39	-49.0	-50.3	15.0	0.00e+00	0	23	0	1558183936	63	4387
2026-01-12 22:07:30.96	114.76	13.22	-49.1	-50.4	14.9	0.00e+00	0	23	0	1567621120	63	4440
2026-01-12 22:07:33.97	115.26	13.05	-49.0	-50.4	14.9	0.00e+00	0	23	0	1577058304	63	4402
2026-01-12 22:07:36.97	115.75	12.89	-49.1	-50.4	14.9	0.00e+00	0	23	0	1586495488	63	4432
2026-01-12 22:07:39.97	116.23	12.72	-49.1	-50.5	14.9	0.00e+00	0	23	0	1595932672	63	4466
2026-01-12 22:07:42.96	116.71	12.55	-49.2	-50.6	14.8	0.00e+00	0	23	0	1605369856	63	4506
2026-01-12 22:07:45.96	117.18	12.38	-49.0	-50.3	14.9	0.00e+00	0	23	0	1614807040	63	4387
2026-01-12 22:07:48.97	117.65	12.21	-49.0	-50.3	14.9	0.00e+00	0	23	0	1624244224	63	4381
2026-01-12 22:07:51.96	118.12	12.04	-48.9	-50.3	14.9	0.00e+00	0	23	0	1633681408	63	4362
2026-01-12 22:07:54.97	118.58	11.87	-49.0	-50.4	14.9	0.00e+00	0	23	0	1643118592	63	4397
2026-01-12 22:07:57.97	119.03	11.70	-49.1	-50.5	14.8	0.00e+00	0	23	0	1652555776	63	4465
2026-01-12 22:08:00.97	119.48	11.53	-49.1	-50.5	14.8	0.00e+00	0	23	0	1661992960	63	4491
2026-01-12 22:08:03.98	119.92	11.36	-49.4	-50.8	14.6	0.00e+00	0	23	0	1671430144	63	4639
2026-01-12 22:08:06.97	120.36	11.19	-49.4	-50.9	14.7	0.00e+00	0	23	0	1680867328	64	4411
2026-01-12 22:08:09.97	120.79	11.01	-49.5	-51.0	14.7	0.00e+00	0	23	0	1689255936	64	4459
2026-01-12 22:08:12.96	121.22	10.84	-49.6	-51.1	14.6	0.00e+00	0	23	0	1698693120	64	4504
2026-01-12 22:08:15.97	121.65	10.67	-49.8	-51.3	14.5	0.00e+00	0	23	0	1708130304	64	4629
2026-01-12 22:08:18.98	122.07	10.50	-49.8	-51.3	14.5	0.00e+00	0	23	0	1717567488	64	4619
2026-01-12 22:08:21.97	122.48	10.32	-49.7	-51.3	14.5	0.00e+00	0	23	0	1727004672	64	4618
2026-01-12 22:08:24.98	122.89	10.15	-49.6	-51.1	14.6	0.00e+00	0	23	0	1736441856	64	4513
2026-01-12 22:08:27.97	123.30	9.98	-49.6	-51.1	14.6	0.00e+00	0	23	0	1745879040	64	4506
2026-01-12 22:08:30.97	123.70	9.81	-49.7	-51.2	14.5	0.00e+00	0	23	0	1755316224	64	4588
2026-01-12 22:08:33.98	124.09	9.63	-49.7	-51.3	14.5	0.00e+00	0	23	0	1764753408	64	4604
2026-01-12 22:08:36.98	124.49	9.46	-49.8	-51.3	14.4	0.00e+00	0	23	0	1774190592	64	4638
2026-01-12 22:08:39.99	124.87	9.29	-50.0	-51.6	14.4	0.00e+00	0	23	0	1783627776	65	4535
2026-01-12 22:08:42.99	125.26	9.11	-50.1	-51.7	14.4	0.00e+00	0	23	0	1793064960	65	4565
2026-01-12 22:08:45.99	125.63	8.94	-50.0	-51.6	14.4	0.00e+00	0	23	0	1802502144	65	4505
2026-01-12 22:08:49.00	126.01	8.77	-49.9	-51.5	14.4	0.00e+00	0	23	0	1811939328	65	4476
2026-01-12 22:08:52.01	126.38	8.59	-50.0	-51.6	14.4	0.00e+00	0	23	0	1821376512	65	4531
2026-01-12 22:08:55.01	126.75	8.42	-50.1	-51.7	14.3	0.00e+00	0	23	0	1830813696	65	4587
2026-01-12 22:08:58.01	127.11	8.25	-50.2	-51.9	14.2	0.00e+00	0	23	0	1840250880	65	4667
2026-01-12 22:09:01.02	127.47	8.08	-50.1	-51.8	14.2	0.00e+00	0	23	0	1849688064	65	4615
2026-01-12 22:09:04.01	127.82	7.91	-50.1	-51.7	14.3	0.00e+00	0	23	0	1859125248	65	4568
2026-01-12 22:09:07.01	128.17	7.73	-50.4	-52.1	14.2	0.00e+00	0	23	0	1867513856	66	4539
2026-01-12 22:09:10.01	128.51	7.56	-50.4	-52.1	14.2	0.00e+00	0	23	0	1876951040	66	4500
2026-01-12 22:09:12.99	128.85	7.39	-50.6	-52.3	14.0	0.00e+00	0	23	0	1886388224	66	4639
2026-01-12 22:09:15.98	129.19	7.22	-50.5	-52.2	14.1	0.00e+00	0	23	0	1895825408	66	4575
2026-01-12 22:09:18.98	129.52	7.05	-50.6	-52.4	14.0	0.00e+00	0	23	0	1905262592	66	4656
2026-01-12 22:09:21.97	129.85	6.89	-50.4	-52.1	14.2	0.00e+00	0	23	0	1914699776	66	4516
2026-01-12 22:09:24.97	130.18	6.72	-50.4	-52.2	14.1	0.00e+00	0	23	0	1924136960	66	4551
2026-01-12 22:09:27.95	130.50	6.55	-50.5	-52.2	14.1	0.00e+00	0	23	0	1933574144	66	4566
2026-01-12 22:09:30.94	130.82	6.38	-50.4	-52.2	14.1	0.00e+00	0	23	0	1943011328	66	4561
2026-01-12 22:09:33.93	131.14	6.21	-50.5	-52.3	14.0	0.00e+00	0	23	0	1952448512	66	4634
2026-01-12 22:09:36.92	131.45	6.04	-50.7	-52.6	13.8	0.00e+00	0	23	0	1961885696	66	4777
2026-01-12 22:09:39.92	131.76	5.88	-50.3	-52.0	14.2	0.00e+00	0	23	0	1971322880	66	4465
2026-01-12 22:09:42.91	132.06	5.71	-50.6	-52.5	14.0	0.00e+00	0	23	0	1979711488	67	4448
2026-01-12 22:09:45.90	132.36	5.54	-50.6	-52.4	14.1	0.00e+00	0	23	0	1989148672	67	4409
2026-01-12 22:09:48.90	132.66	5.38	-50.7	-52.6	13.9	0.00e+00	0	23	0	1998585856	67	4512
2026-01-12 22:09:51.92	132.96	5.21	-50.4	-52.2	14.2	0.00e+00	0	23	0	2008023040	67	4312
2026-01-12 22:09:54.91	133.25	5.05	-50.6	-52.5	13.9	0.00e+00	0	23	0	2017460224	67	4460
2026-01-12 22:09:57.91	133.54	4.88	-58.0	-71.8	3.8	1.49e+00	0	23	104	2020605952	81	18361
2026-01-12 22:10:00.92	133.83	4.71	-58.5	-72.3	3.8	1.49e+00	0	23	104	2020605952	82	18405
2026-01-12 22:10:03.91	134.11	4.55	-58.8	-72.6	3.8	1.49e+00	0	23	104	2020605952	82	19078
2026-01-12 22:10:06.90	134.39	4.39	-59.0	-72.8	3.8	1.49e+00	0	23	104	2020605952	83	18491
2026-01-12 22:10:09.90	134.67	4.22	-59.2	-73.0	3.8	1.49e+00	0	23	104	2020605952	83	18753
2026-01-12 22:10:12.89	134.94	4.06	-59.3	-73.1	3.8	1.49e+00	0	23	104	2020605952	83	19036
2026-01-12 22:10:15.87	135.21	3.90	-59.4	-73.3	3.8	1.49e+00	0	23	104	2020605952	83	19392
2026-01-12 22:10:18.87	135.48	3.74	-59.7	-73.4	3.8	1.49e+00	0	23	104	2020605952	84	18729
2026-01-12 22:10:21.87	135.75	3.58	-59.6	-73.4	3.8	1.49e+00	0	23	104	2020605952	84	18637
2026-01-12 22:10:24.87	136.01	3.42	-59.6	-73.4	3.8	1.49e+00	0	23	104	2020605952	84	18600
2026-01-12 22:10:27.87	136.27	3.26	-59.6	-73.4	3.8	1.49e+00	0	23	104	2020605952	84	18555
2026-01-12 22:10:30.86	136.53	3.10	-59.5	-73.3	3.8	1.49e+00	0	23	104	2020605952	84	18432
2026-01-12 22:10:33.88	136.79	2.94	-59.5	-73.4	3.8	1.49e+00	0	23	104	2020605952	84	18519
2026-01-12 22:10:36.88	137.04	2.78	-59.5	-73.3	3.8	1.49e+00	0	23	104	2020605952	84	18467
2026-01-12 22:10:39.88	137.29	2.62	-59.5	-73.3	3.8	1.49e+00	0	23	104	2020605952	84	18476
2026-01-12 22:10:42.87	137.54	2.46	-59.5	-73.3	3.8	1.49e+00	0	23	104	2020605952	84	18444
2026-01-12 22:10:45.89	137.79	2.30	-59.5	-73.3	3.8	1.49e+00	0	23	104	2020605952	84	18448
2026-01-12 22:10:48.91	138.03	2.14	-59.5	-73.3	3.8	1.49e+00	0	23	104	2020605952	84	18346
2026-01-12 22:10:51.91	138.27	1.99	-59.5	-73.3	3.8	1.49e+00	0	23	104	2020605952	84	18355

#Closed at: 2026-01-12 22:10:54
#Recorded file [2020 MB]: D:/lorett/data/31004_260113_005825.dat