passes_logs/2026/01/12/R3.2S_Murmansk/R3.2S_Murmansk__20260112_020326_AQUA_rec.log

#Pass ID: 20260112_020326_AQUA
#Satellite: AQUA
#Configuration: AQUA
#almurnet v.1.7.20251203
#Start time: 2026-01-12 02:03:27

#Version: 2.2.20231116
#Station: R3.2S_Murmansk
#Location: 33.079688 lon 68.888172 lat
#TLE: 1 27424U 02022A   26011.60158398  .00001056  00000+0  22133-3 0  9990
#TLE: 2 27424  98.4078 337.9720 0002034  82.3051 337.8743 14.61815760260390

#Time	Az	El	Level	Level2	SNR	BER	BlckErr	Temp	State	Recorded	gain1	gain2
2026-01-12 02:03:27.91	22.95	2.09	-53.5	-72.8	3.8	7.50e-01	0	21	0	0	74	36009
2026-01-12 02:03:30.94	22.99	2.29	-53.5	-72.8	3.8	7.45e-01	0	21	104	0	74	35800
2026-01-12 02:03:33.96	23.03	2.49	-53.5	-72.8	3.8	7.47e-01	0	21	104	0	74	36077
2026-01-12 02:03:36.99	23.07	2.70	-53.5	-72.8	3.8	7.48e-01	0	21	104	0	74	36092
2026-01-12 02:03:40.02	23.11	2.91	-53.6	-72.9	3.8	7.47e-01	0	21	104	0	74	36126
2026-01-12 02:03:43.05	23.15	3.11	-53.6	-72.8	3.8	7.47e-01	0	21	104	0	74	36076
2026-01-12 02:03:46.07	23.19	3.32	-53.6	-72.8	3.8	7.47e-01	0	21	104	0	74	35955
2026-01-12 02:03:49.10	23.23	3.53	-53.6	-72.9	3.8	7.45e-01	0	21	104	0	74	36168
2026-01-12 02:03:52.13	23.27	3.75	-53.5	-72.9	3.8	7.48e-01	0	21	104	0	74	36182
2026-01-12 02:03:55.16	23.31	3.96	-53.6	-72.8	3.8	7.46e-01	0	21	104	0	74	36099
2026-01-12 02:03:58.18	23.35	4.18	-53.6	-72.7	3.8	7.45e-01	0	21	104	0	74	35638
2026-01-12 02:04:01.21	23.39	4.40	-53.6	-72.8	3.8	7.48e-01	0	21	104	0	74	35843
2026-01-12 02:04:04.23	23.44	4.62	-53.6	-72.8	3.8	7.47e-01	0	22	104	0	74	35947
2026-01-12 02:04:07.26	23.48	4.84	-53.6	-72.8	3.8	7.47e-01	0	22	104	0	74	35961
2026-01-12 02:04:10.29	23.52	5.06	-53.6	-72.7	3.8	7.46e-01	0	21	104	0	74	35594
2026-01-12 02:04:13.32	23.57	5.29	-53.6	-72.7	3.8	7.44e-01	0	22	104	0	74	35600
2026-01-12 02:04:16.34	23.61	5.52	-53.6	-72.8	3.8	7.47e-01	0	22	104	0	74	35801
2026-01-12 02:04:19.38	23.66	5.75	-53.6	-72.9	3.8	7.47e-01	0	22	104	0	74	36149
2026-01-12 02:04:22.41	23.70	5.98	-53.6	-72.9	3.8	7.46e-01	0	22	104	0	74	36227
2026-01-12 02:04:25.42	23.75	6.22	-53.6	-72.8	3.8	7.43e-01	0	22	104	0	74	35983
2026-01-12 02:04:28.45	23.79	6.46	-53.6	-72.9	3.8	7.47e-01	0	22	104	0	74	36304
2026-01-12 02:04:31.47	23.84	6.70	-53.6	-72.9	3.8	7.48e-01	0	22	104	0	74	36302
2026-01-12 02:04:34.50	23.89	6.94	-53.6	-72.9	3.8	7.46e-01	0	22	104	0	74	36280
2026-01-12 02:04:37.52	23.94	7.19	-53.6	-72.9	3.8	7.48e-01	0	22	104	0	74	36216
2026-01-12 02:04:40.55	23.99	7.43	-53.6	-72.9	3.8	7.47e-01	0	22	104	0	74	36358
2026-01-12 02:04:43.58	24.04	7.69	-53.6	-72.9	3.8	7.48e-01	0	22	104	0	74	36456
2026-01-12 02:04:46.60	24.09	7.94	-53.6	-72.9	3.8	7.45e-01	0	22	104	0	74	36456
2026-01-12 02:04:49.62	24.14	8.19	-53.7	-73.0	3.8	7.47e-01	0	22	104	0	75	34594
2026-01-12 02:04:52.65	24.19	8.45	-53.7	-73.0	3.8	7.45e-01	0	22	104	0	75	34613
2026-01-12 02:04:55.68	24.25	8.72	-53.7	-72.9	3.8	7.47e-01	0	22	104	0	75	34359
2026-01-12 02:04:58.71	24.30	8.98	-53.7	-73.0	3.8	7.44e-01	0	22	104	0	75	34533
2026-01-12 02:05:01.74	24.35	9.25	-53.7	-73.0	3.8	7.48e-01	0	22	104	0	75	34578
2026-01-12 02:05:04.76	24.41	9.52	-53.7	-73.0	3.8	7.43e-01	0	22	104	0	75	34604
2026-01-12 02:05:07.79	24.46	9.80	-53.7	-73.0	3.8	7.44e-01	0	22	104	0	75	34561
2026-01-12 02:05:10.82	24.52	10.08	-53.7	-73.0	3.8	7.42e-01	0	22	104	0	75	34667
2026-01-12 02:05:13.85	24.58	10.36	-53.7	-73.0	3.8	7.44e-01	0	22	104	0	75	34643
2026-01-12 02:05:16.87	24.64	10.65	-53.7	-73.0	3.8	7.49e-01	0	22	104	0	75	34643
2026-01-12 02:05:19.90	24.70	10.94	-53.7	-73.0	3.8	7.44e-01	0	22	104	0	75	34564
2026-01-12 02:05:22.92	24.76	11.23	-53.7	-73.0	3.8	7.48e-01	0	22	104	0	75	34681
2026-01-12 02:05:25.95	24.82	11.53	-53.7	-73.0	3.8	7.47e-01	0	22	104	0	75	34729
2026-01-12 02:05:28.97	24.88	11.83	-53.7	-73.0	3.8	7.46e-01	0	22	104	0	75	34701
2026-01-12 02:05:32.00	24.95	12.14	-53.7	-73.0	3.8	7.47e-01	0	22	104	0	75	34654
2026-01-12 02:05:35.02	25.01	12.45	-53.7	-73.0	3.8	7.46e-01	0	22	104	0	75	34725
2026-01-12 02:05:38.05	25.08	12.76	-53.7	-73.0	3.8	7.49e-01	0	23	104	0	75	34758
2026-01-12 02:05:41.08	25.15	13.08	-53.7	-73.0	3.8	7.44e-01	0	22	104	0	75	34689
2026-01-12 02:05:44.10	25.22	13.40	-53.7	-73.0	3.8	7.46e-01	0	23	104	0	75	34729
2026-01-12 02:05:47.13	25.29	13.73	-53.7	-73.0	3.8	7.44e-01	0	22	104	0	75	34693
2026-01-12 02:05:50.15	25.36	14.07	-53.7	-73.0	3.8	7.48e-01	0	22	104	0	75	34809
2026-01-12 02:05:53.17	25.43	14.41	-53.7	-73.0	3.8	7.44e-01	0	22	104	0	75	34721
2026-01-12 02:05:56.20	25.51	14.75	-53.7	-73.0	3.8	7.47e-01	0	22	104	0	75	34747
2026-01-12 02:05:59.22	25.58	15.10	-53.7	-73.0	3.8	7.44e-01	0	23	104	0	75	34767
2026-01-12 02:06:02.24	25.66	15.45	-53.7	-73.0	3.8	7.50e-01	0	22	104	0	75	34786
2026-01-12 02:06:05.27	25.74	15.81	-53.7	-73.0	3.8	7.43e-01	0	22	104	0	75	34728
2026-01-12 02:06:08.29	25.82	16.18	-53.7	-73.0	3.8	7.48e-01	0	23	104	0	75	34661
2026-01-12 02:06:11.32	25.90	16.55	-53.7	-73.0	3.8	7.44e-01	0	22	104	0	75	34715
2026-01-12 02:06:14.35	25.99	16.93	-53.7	-73.0	3.8	7.50e-01	0	22	104	0	75	34658
2026-01-12 02:06:17.36	26.08	17.32	-53.7	-73.0	3.8	7.46e-01	0	22	104	0	75	34623
2026-01-12 02:06:20.38	26.16	17.71	-53.7	-73.0	3.8	7.45e-01	0	22	104	0	75	34739
2026-01-12 02:06:23.40	26.26	18.11	-53.7	-73.0	3.8	7.51e-01	0	22	104	0	75	34702
2026-01-12 02:06:26.43	26.35	18.52	-53.7	-73.0	3.8	7.44e-01	0	23	104	0	75	34751
2026-01-12 02:06:29.45	26.44	18.93	-53.7	-73.0	3.8	7.47e-01	0	23	104	0	75	34698
2026-01-12 02:06:32.48	26.54	19.35	-53.7	-73.0	3.8	7.44e-01	0	22	104	0	75	34754
2026-01-12 02:06:35.51	26.64	19.78	-53.7	-73.0	3.8	7.41e-01	0	23	104	0	75	34764
2026-01-12 02:06:38.53	26.75	20.22	-53.7	-73.0	3.8	7.46e-01	0	23	104	0	75	34819
2026-01-12 02:06:41.55	26.85	20.67	-53.7	-73.0	3.8	7.44e-01	0	23	104	0	75	34740
2026-01-12 02:06:44.57	26.96	21.12	-53.7	-73.0	3.8	7.44e-01	0	23	104	0	75	34826
2026-01-12 02:06:47.60	27.07	21.59	-53.7	-73.0	3.8	7.47e-01	0	23	104	0	75	34714
2026-01-12 02:06:50.63	27.19	22.06	-53.7	-73.0	3.8	7.50e-01	0	23	104	0	75	34817
2026-01-12 02:06:53.66	27.31	22.55	-53.7	-73.0	3.8	7.47e-01	0	23	104	0	75	34790
2026-01-12 02:06:56.68	27.43	23.04	-53.7	-73.0	3.8	7.44e-01	0	23	104	0	75	34821
2026-01-12 02:06:59.70	27.55	23.54	-53.7	-73.0	3.8	7.43e-01	0	23	104	0	75	34832
2026-01-12 02:07:02.73	27.68	24.06	-53.7	-73.0	3.8	7.47e-01	0	23	104	0	75	34764
2026-01-12 02:07:05.75	27.82	24.59	-53.7	-73.0	3.8	7.46e-01	0	23	104	0	75	34844
2026-01-12 02:07:08.78	27.96	25.13	-53.7	-73.0	3.8	7.46e-01	0	23	104	0	75	34836
2026-01-12 02:07:11.80	28.10	25.67	-53.7	-73.0	3.8	7.44e-01	0	23	104	0	75	34816
2026-01-12 02:07:14.83	28.25	26.24	-53.7	-73.0	3.8	7.45e-01	0	23	104	0	75	34816
2026-01-12 02:07:17.85	28.40	26.81	-53.7	-73.0	3.8	7.44e-01	0	23	104	0	75	34856
2026-01-12 02:07:20.87	28.56	27.40	-53.7	-73.0	3.8	7.44e-01	0	23	104	0	75	34780
2026-01-12 02:07:23.90	28.72	28.00	-53.7	-73.1	3.8	7.41e-01	0	23	104	0	75	34883
2026-01-12 02:07:26.92	28.89	28.62	-53.7	-73.0	3.8	7.45e-01	0	23	104	0	75	34852
2026-01-12 02:07:29.95	29.07	29.25	-53.7	-73.0	3.8	7.45e-01	0	23	104	0	75	34866
2026-01-12 02:07:32.98	29.25	29.90	-53.7	-73.1	3.8	7.45e-01	0	23	104	0	75	34898
2026-01-12 02:07:36.00	29.44	30.56	-53.7	-73.1	3.8	7.47e-01	0	23	104	0	75	34907
2026-01-12 02:07:39.03	29.64	31.24	-53.7	-73.0	3.8	7.47e-01	0	23	104	0	75	34857
2026-01-12 02:07:42.06	29.85	31.94	-53.7	-73.0	3.8	7.46e-01	0	23	104	0	75	34859
2026-01-12 02:07:45.08	30.06	32.65	-53.7	-73.0	3.8	7.46e-01	0	23	104	0	75	34778
2026-01-12 02:07:48.11	30.29	33.38	-53.7	-73.0	3.8	7.46e-01	0	23	104	0	75	34795
2026-01-12 02:07:51.14	30.52	34.13	-53.7	-73.1	3.8	7.43e-01	0	23	104	0	75	34885
2026-01-12 02:07:54.16	30.77	34.90	-53.7	-73.0	3.8	7.48e-01	0	23	104	0	75	34862
2026-01-12 02:07:57.19	31.02	35.69	-53.7	-73.0	3.8	7.48e-01	0	23	104	0	75	34715
2026-01-12 02:08:00.22	31.30	36.51	-53.7	-73.0	3.8	7.44e-01	0	23	104	0	75	34871
2026-01-12 02:08:03.25	31.58	37.34	-53.7	-73.1	3.8	7.46e-01	0	23	104	0	75	34935
2026-01-12 02:08:06.27	31.88	38.19	-53.7	-73.1	3.8	7.49e-01	0	23	104	0	75	34894
2026-01-12 02:08:09.30	32.19	39.07	-53.7	-73.1	3.8	7.47e-01	0	23	104	0	75	34915
2026-01-12 02:08:12.33	32.53	39.97	-53.7	-73.0	3.8	7.43e-01	0	23	104	0	75	34813
2026-01-12 02:08:15.35	32.88	40.90	-53.7	-73.1	3.8	7.47e-01	0	23	104	0	75	34907
2026-01-12 02:08:18.38	33.25	41.85	-53.7	-73.1	3.8	7.47e-01	0	23	104	0	75	34937
2026-01-12 02:08:21.41	33.64	42.82	-53.7	-73.1	3.8	7.44e-01	0	23	104	0	75	34943
2026-01-12 02:08:24.43	34.06	43.82	-53.7	-73.1	3.8	7.45e-01	0	23	104	0	75	34910
2026-01-12 02:08:27.46	34.51	44.85	-53.7	-73.1	3.8	7.47e-01	0	23	104	0	75	34970
2026-01-12 02:08:30.48	34.98	45.90	-53.7	-73.1	3.8	7.45e-01	0	23	104	0	75	34992
2026-01-12 02:08:33.50	35.49	46.98	-53.7	-73.0	3.8	7.49e-01	0	23	104	0	75	34855
2026-01-12 02:08:36.53	36.03	48.09	-53.7	-73.0	3.8	7.45e-01	0	23	104	0	75	34874
2026-01-12 02:08:39.55	36.61	49.22	-53.7	-73.1	3.8	7.48e-01	0	23	104	0	75	34881
2026-01-12 02:08:42.58	37.24	50.39	-53.7	-73.0	3.8	7.49e-01	0	23	104	0	75	34845
2026-01-12 02:08:45.60	37.92	51.57	-53.7	-73.0	3.8	7.46e-01	0	23	104	0	75	34832
2026-01-12 02:08:48.63	38.66	52.79	-53.7	-73.1	3.8	7.48e-01	0	23	104	0	75	34903
2026-01-12 02:08:51.65	39.46	54.04	-53.7	-73.1	3.8	7.48e-01	0	23	104	0	75	34899
2026-01-12 02:08:54.68	40.34	55.31	-53.7	-73.1	3.8	7.46e-01	0	23	104	0	75	34900
2026-01-12 02:08:57.70	41.29	56.61	-53.7	-73.1	3.8	7.47e-01	0	23	104	0	75	34949
2026-01-12 02:09:00.73	42.34	57.93	-53.7	-73.1	3.8	7.48e-01	0	23	104	0	75	34887
2026-01-12 02:09:03.76	43.50	59.27	-53.7	-73.1	3.8	7.46e-01	0	23	104	0	75	34910
2026-01-12 02:09:06.79	44.79	60.64	-53.7	-73.0	3.8	7.47e-01	0	23	104	0	75	34828
2026-01-12 02:09:09.81	46.22	62.01	-53.7	-73.1	3.8	7.45e-01	0	23	104	0	75	34939
2026-01-12 02:09:12.83	47.82	63.40	-53.7	-73.1	3.8	7.46e-01	0	23	104	0	75	34989
2026-01-12 02:09:15.86	49.63	64.80	-53.7	-73.1	3.8	7.47e-01	0	23	104	0	75	34897
2026-01-12 02:09:18.88	51.67	66.20	-53.7	-73.0	3.8	7.49e-01	0	23	104	0	75	34867
2026-01-12 02:09:21.91	53.99	67.60	-53.7	-73.0	3.8	7.49e-01	0	23	104	0	75	34875
2026-01-12 02:09:24.94	56.66	68.98	-53.7	-73.1	3.8	7.45e-01	0	23	104	0	75	34953
2026-01-12 02:09:27.96	59.71	70.34	-53.7	-73.1	3.8	7.43e-01	0	23	104	0	75	34999
2026-01-12 02:09:30.99	63.25	71.65	-53.7	-73.1	3.8	7.46e-01	0	23	104	0	75	34880
2026-01-12 02:09:34.02	67.36	72.91	-53.7	-73.1	3.8	7.44e-01	0	23	104	0	75	34892
2026-01-12 02:09:37.04	72.12	74.07	-53.7	-73.0	3.8	7.45e-01	0	23	104	0	75	34856
2026-01-12 02:09:40.07	77.64	75.14	-53.7	-73.1	3.8	7.44e-01	0	23	104	0	75	35014
2026-01-12 02:09:43.09	83.95	76.05	-53.7	-73.1	3.8	7.47e-01	0	23	104	0	75	34888
2026-01-12 02:09:46.11	91.09	76.78	-53.7	-73.0	3.8	7.46e-01	0	23	104	0	75	34850
2026-01-12 02:09:49.13	98.95	77.30	-53.7	-73.1	3.8	7.46e-01	0	23	104	0	75	34938
2026-01-12 02:09:52.16	107.35	77.57	-53.7	-73.1	3.8	7.47e-01	0	23	104	0	75	34975
2026-01-12 02:09:55.19	115.95	77.57	-53.7	-73.1	3.8	7.43e-01	0	23	104	0	75	34968
2026-01-12 02:09:58.21	124.33	77.30	-53.7	-73.1	3.8	7.46e-01	0	23	104	0	75	34884
2026-01-12 02:10:01.23	132.20	76.79	-53.7	-73.1	3.8	7.46e-01	0	23	104	0	75	34970
2026-01-12 02:10:04.25	139.35	76.06	-53.7	-73.1	3.8	7.43e-01	0	23	104	0	75	34977
2026-01-12 02:10:07.28	145.70	75.14	-53.7	-73.0	3.8	7.45e-01	0	23	104	0	75	34868
2026-01-12 02:10:10.27	151.16	74.10	-53.7	-73.1	3.8	7.49e-01	0	23	104	0	75	34966
2026-01-12 02:10:13.30	155.94	72.92	-53.7	-73.1	3.8	7.45e-01	0	23	104	0	75	34886
2026-01-12 02:10:16.33	160.07	71.67	-53.7	-73.0	3.8	7.44e-01	0	23	104	0	75	34820
2026-01-12 02:10:19.35	163.61	70.36	-53.7	-73.1	3.8	7.46e-01	0	23	104	0	75	34895
2026-01-12 02:10:22.38	166.68	69.00	-53.7	-73.1	3.8	7.44e-01	0	23	104	0	75	34997
2026-01-12 02:10:25.41	169.36	67.62	-53.7	-73.1	3.8	7.47e-01	0	23	104	0	75	34988
2026-01-12 02:10:28.44	171.69	66.21	-53.7	-73.1	3.8	7.46e-01	0	23	104	0	75	34936
2026-01-12 02:10:31.46	173.73	64.81	-53.7	-73.0	3.8	7.44e-01	0	23	104	0	75	34824
2026-01-12 02:10:34.49	175.54	63.41	-53.7	-73.1	3.8	7.48e-01	0	23	104	0	75	35004
2026-01-12 02:10:37.52	177.15	62.01	-53.7	-73.1	3.8	7.50e-01	0	23	104	0	75	34897
2026-01-12 02:10:40.54	178.59	60.63	-53.7	-73.0	3.8	7.46e-01	0	23	104	0	75	34869
2026-01-12 02:10:43.57	179.88	59.27	-53.7	-73.0	3.8	7.48e-01	0	23	104	0	75	34847
2026-01-12 02:10:46.60	181.04	57.92	-53.7	-73.1	3.8	7.48e-01	0	23	104	0	75	34933
2026-01-12 02:10:49.62	182.09	56.60	-53.7	-73.1	3.8	7.44e-01	0	23	104	0	75	34901
2026-01-12 02:10:52.65	183.05	55.29	-53.7	-73.1	3.8	7.43e-01	0	23	104	0	75	34888
2026-01-12 02:10:55.68	183.93	54.02	-53.7	-73.1	3.8	7.50e-01	0	23	104	0	75	34905
2026-01-12 02:10:58.70	184.73	52.77	-53.7	-73.1	3.8	7.46e-01	0	23	104	0	75	34917
2026-01-12 02:11:01.73	185.46	51.55	-53.7	-73.1	3.8	7.45e-01	0	23	104	0	75	34892
2026-01-12 02:11:04.75	186.14	50.35	-53.7	-73.1	3.8	7.49e-01	0	23	104	0	75	35050
2026-01-12 02:11:07.78	186.77	49.18	-53.7	-73.0	3.8	7.45e-01	0	23	104	0	75	34865
2026-01-12 02:11:10.80	187.36	48.05	-53.7	-73.1	3.8	7.49e-01	0	23	104	0	75	35071
2026-01-12 02:11:13.83	187.90	46.94	-53.7	-73.1	3.8	7.47e-01	0	23	104	0	75	34930
2026-01-12 02:11:16.86	188.41	45.85	-53.7	-73.1	3.8	7.47e-01	0	23	104	0	75	34987
2026-01-12 02:11:19.88	188.89	44.80	-53.7	-73.1	3.8	7.44e-01	0	23	104	0	75	35009
2026-01-12 02:11:22.91	189.33	43.77	-53.7	-73.1	3.8	7.45e-01	0	23	104	0	75	34893
2026-01-12 02:11:25.94	189.75	42.76	-53.8	-73.0	3.8	7.45e-01	0	23	104	0	75	34833
2026-01-12 02:11:28.96	190.14	41.79	-53.7	-73.1	3.8	7.44e-01	0	23	104	0	75	34927
2026-01-12 02:11:31.99	190.51	40.83	-53.8	-73.1	3.8	7.47e-01	0	23	104	0	75	34903
2026-01-12 02:11:35.02	190.87	39.90	-53.7	-73.0	3.8	7.48e-01	0	23	104	0	75	34841
2026-01-12 02:11:38.05	191.20	39.00	-53.7	-73.1	3.8	7.45e-01	0	23	104	0	75	34951
2026-01-12 02:11:41.07	191.51	38.12	-53.7	-73.0	3.8	7.48e-01	0	23	104	0	75	34836
2026-01-12 02:11:44.10	191.81	37.26	-53.7	-73.0	3.8	7.42e-01	0	23	104	0	75	34776
2026-01-12 02:11:47.11	192.09	36.43	-53.7	-73.0	3.8	7.44e-01	0	23	104	0	75	34828
2026-01-12 02:11:50.14	192.36	35.62	-53.7	-73.0	3.8	7.46e-01	0	23	104	0	75	34808
2026-01-12 02:11:53.17	192.62	34.83	-53.7	-73.0	3.8	7.49e-01	0	23	104	0	75	34857
2026-01-12 02:11:56.20	192.86	34.05	-53.8	-73.0	3.8	7.47e-01	0	23	104	0	75	34719
2026-01-12 02:11:59.22	193.10	33.30	-53.7	-73.0	3.8	7.49e-01	0	23	104	0	75	34798
2026-01-12 02:12:02.25	193.32	32.57	-53.7	-73.0	3.8	7.45e-01	0	23	104	0	75	34814
2026-01-12 02:12:05.27	193.54	31.85	-53.7	-73.0	3.8	7.48e-01	0	23	104	0	75	34782
2026-01-12 02:12:08.30	193.74	31.15	-53.7	-73.0	3.8	7.47e-01	0	23	104	0	75	34858
2026-01-12 02:12:11.33	193.94	30.47	-53.7	-73.1	3.8	7.46e-01	0	23	104	0	75	34965
2026-01-12 02:12:14.35	194.13	29.81	-53.7	-73.1	3.8	7.44e-01	0	23	104	0	75	34880
2026-01-12 02:12:17.38	194.31	29.16	-53.7	-73.0	3.8	7.45e-01	0	23	104	0	75	34816
2026-01-12 02:12:20.40	194.49	28.53	-53.7	-73.0	3.8	7.48e-01	0	23	104	0	75	34819
2026-01-12 02:12:23.43	194.66	27.91	-53.7	-73.0	3.8	7.44e-01	0	23	104	0	75	34810
2026-01-12 02:12:26.46	194.82	27.30	-53.7	-73.0	3.8	7.44e-01	0	23	104	0	75	34826
2026-01-12 02:12:29.49	194.98	26.71	-53.7	-73.0	3.8	7.44e-01	0	23	104	0	75	34752
2026-01-12 02:12:32.51	195.13	26.13	-53.7	-73.0	3.8	7.43e-01	0	23	104	0	75	34748
2026-01-12 02:12:35.53	195.28	25.57	-53.7	-73.0	3.8	7.44e-01	0	23	104	0	75	34852
2026-01-12 02:12:38.56	195.42	25.02	-53.7	-73.0	3.8	7.50e-01	0	23	104	0	75	34845
2026-01-12 02:12:41.59	195.56	24.48	-53.7	-73.0	3.8	7.46e-01	0	23	104	0	75	34767
2026-01-12 02:12:44.62	195.69	23.95	-53.7	-73.1	3.8	7.45e-01	0	23	104	0	75	34923
2026-01-12 02:12:47.64	195.82	23.43	-53.7	-73.1	3.8	7.48e-01	0	23	104	0	75	34885
2026-01-12 02:12:50.67	195.94	22.93	-53.7	-73.0	3.8	7.47e-01	0	23	104	0	75	34756
2026-01-12 02:12:53.70	196.06	22.43	-53.7	-73.1	3.8	7.45e-01	0	23	104	0	75	34965
2026-01-12 02:12:56.72	196.18	21.95	-53.7	-73.0	3.8	7.46e-01	0	23	104	0	75	34616
2026-01-12 02:12:59.75	196.30	21.47	-53.7	-73.0	3.8	7.45e-01	0	23	104	0	75	34810
2026-01-12 02:13:02.78	196.41	21.01	-53.7	-73.0	3.8	7.45e-01	0	23	104	0	75	34814
2026-01-12 02:13:05.80	196.51	20.55	-53.7	-73.0	3.8	7.44e-01	0	23	104	0	75	34804
2026-01-12 02:13:08.82	196.62	20.10	-53.7	-73.1	3.8	7.48e-01	0	23	104	0	75	34916
2026-01-12 02:13:11.85	196.72	19.66	-53.7	-73.0	3.8	7.44e-01	0	23	104	0	75	34773
2026-01-12 02:13:14.87	196.82	19.23	-53.7	-73.0	3.8	7.47e-01	0	23	104	0	75	34823
2026-01-12 02:13:17.89	196.92	18.81	-53.7	-73.0	3.8	7.46e-01	0	23	104	0	75	34828
2026-01-12 02:13:20.91	197.01	18.40	-53.7	-73.0	3.8	7.46e-01	0	23	104	0	75	34733
2026-01-12 02:13:23.95	197.10	17.99	-53.8	-73.0	3.8	7.45e-01	0	23	104	0	75	34811
2026-01-12 02:13:26.97	197.19	17.59	-53.8	-73.1	3.8	7.46e-01	0	23	104	0	75	34953
2026-01-12 02:13:30.00	197.28	17.19	-53.7	-73.0	3.8	7.45e-01	0	23	104	0	75	34753
2026-01-12 02:13:33.03	197.37	16.80	-53.7	-73.0	3.8	7.46e-01	0	23	104	0	75	34695
2026-01-12 02:13:36.05	197.45	16.43	-53.7	-73.1	3.8	7.46e-01	0	23	104	0	75	34947
2026-01-12 02:13:39.07	197.53	16.05	-53.7	-73.1	3.8	7.50e-01	0	23	104	0	75	34892
2026-01-12 02:13:42.10	197.61	15.68	-53.7	-73.0	3.8	7.44e-01	0	23	104	0	75	34623
2026-01-12 02:13:45.13	197.69	15.32	-53.7	-73.0	3.8	7.47e-01	0	23	104	0	75	34574
2026-01-12 02:13:48.16	197.77	14.97	-53.8	-73.0	3.8	7.48e-01	0	23	104	0	75	34838
2026-01-12 02:13:51.18	197.84	14.62	-53.8	-73.0	3.8	7.44e-01	0	23	104	0	75	34573
2026-01-12 02:13:54.21	197.91	14.27	-53.8	-73.0	3.8	7.44e-01	0	23	104	0	75	34616
2026-01-12 02:13:57.24	197.99	13.93	-53.8	-73.0	3.8	7.45e-01	0	23	104	0	75	34876
2026-01-12 02:14:00.26	198.06	13.60	-53.7	-73.0	3.8	7.46e-01	0	23	104	0	75	34819
2026-01-12 02:14:03.29	198.13	13.27	-53.7	-72.9	3.8	7.47e-01	0	23	104	0	75	34233
2026-01-12 02:14:06.31	198.19	12.94	-53.7	-73.0	3.8	7.45e-01	0	23	104	0	75	34756
2026-01-12 02:14:09.35	198.26	12.62	-53.7	-73.0	3.8	7.43e-01	0	23	104	0	75	34846
2026-01-12 02:14:12.37	198.32	12.31	-53.7	-73.0	3.8	7.45e-01	0	23	104	0	75	34856
2026-01-12 02:14:15.40	198.39	12.00	-53.7	-73.0	3.8	7.44e-01	0	23	104	0	75	34496
2026-01-12 02:14:18.43	198.45	11.69	-53.7	-73.0	3.8	7.44e-01	0	23	104	0	75	34513
2026-01-12 02:14:21.45	198.51	11.39	-53.7	-73.0	3.8	7.46e-01	0	23	104	0	75	34862
2026-01-12 02:14:24.48	198.57	11.09	-53.7	-73.0	3.8	7.43e-01	0	23	104	0	75	34601
2026-01-12 02:14:27.51	198.63	10.80	-53.7	-73.0	3.9	7.46e-01	0	23	104	0	75	34625
2026-01-12 02:14:30.54	198.69	10.50	-53.7	-72.6	3.8	7.46e-01	0	23	104	0	75	33277
2026-01-12 02:14:33.56	198.75	10.22	-53.7	-73.1	3.8	7.45e-01	0	23	104	0	75	34936
2026-01-12 02:14:36.58	198.80	9.94	-53.7	-72.9	3.8	7.46e-01	0	23	104	0	75	34352
2026-01-12 02:14:39.61	198.86	9.66	-53.7	-72.9	3.9	7.46e-01	0	23	104	0	75	34361
2026-01-12 02:14:42.64	198.91	9.38	-53.7	-72.9	3.8	7.46e-01	0	23	104	0	75	34119
2026-01-12 02:14:45.67	198.97	9.11	-53.7	-72.9	3.8	7.44e-01	0	23	104	0	75	34349
2026-01-12 02:14:48.69	199.02	8.84	-53.7	-72.8	3.8	7.45e-01	0	23	104	0	75	34046
2026-01-12 02:14:51.72	199.07	8.57	-53.7	-72.8	3.8	7.42e-01	0	23	104	0	75	33885
2026-01-12 02:14:54.74	199.12	8.31	-53.7	-72.8	3.9	7.47e-01	0	23	104	0	75	33958
2026-01-12 02:14:57.77	199.17	8.05	-53.7	-73.0	3.8	7.47e-01	0	23	104	0	75	34651
2026-01-12 02:15:00.79	199.22	7.79	-53.8	-72.9	3.8	7.47e-01	0	23	104	0	75	34362
2026-01-12 02:15:03.82	199.27	7.54	-53.7	-73.0	3.8	7.47e-01	0	23	104	0	75	34845
2026-01-12 02:15:06.84	199.32	7.29	-53.7	-72.9	3.8	7.45e-01	0	23	104	0	75	34178
2026-01-12 02:15:09.87	199.37	7.04	-53.7	-72.9	3.8	7.46e-01	0	23	104	0	75	34296
2026-01-12 02:15:12.90	199.41	6.79	-53.7	-73.0	3.8	7.49e-01	0	23	104	0	75	34872
2026-01-12 02:15:15.93	199.46	6.55	-53.7	-73.0	3.8	7.45e-01	0	23	104	0	75	34736
2026-01-12 02:15:18.96	199.50	6.31	-53.7	-73.0	3.8	7.47e-01	0	23	104	0	75	34855
2026-01-12 02:15:21.98	199.55	6.07	-53.7	-73.0	3.8	7.47e-01	0	23	104	0	75	34788
2026-01-12 02:15:25.01	199.59	5.83	-53.7	-73.0	3.8	7.49e-01	0	23	104	0	75	34512
2026-01-12 02:15:28.04	199.64	5.60	-53.8	-72.9	3.8	7.45e-01	0	23	104	0	75	34474
2026-01-12 02:15:31.07	199.68	5.37	-53.7	-72.8	3.8	7.48e-01	0	23	104	0	75	34062
2026-01-12 02:15:34.10	199.72	5.14	-53.7	-72.9	3.8	7.44e-01	0	23	104	0	75	34153
2026-01-12 02:15:37.12	199.76	4.91	-53.7	-72.8	3.8	7.47e-01	0	23	104	0	75	33832
2026-01-12 02:15:40.15	199.81	4.69	-53.7	-72.6	3.8	7.45e-01	0	23	104	0	75	32967
2026-01-12 02:15:43.18	199.85	4.46	-53.7	-72.7	3.8	7.46e-01	0	23	104	0	75	33607
2026-01-12 02:15:46.21	199.89	4.24	-53.7	-71.4	3.8	7.45e-01	0	23	104	0	75	28756
2026-01-12 02:15:49.23	199.93	4.02	-53.7	-72.7	3.8	7.44e-01	0	23	104	0	75	33411
2026-01-12 02:15:52.26	199.97	3.81	-53.7	-72.8	3.8	7.46e-01	0	23	104	0	75	33702
2026-01-12 02:15:55.29	200.01	3.59	-53.7	-72.8	3.8	7.43e-01	0	23	104	0	75	33808
2026-01-12 02:15:58.31	200.04	3.38	-53.7	-72.4	3.8	7.44e-01	0	23	104	0	75	32231
2026-01-12 02:16:01.34	200.08	3.17	-53.7	-72.2	3.8	7.43e-01	0	23	104	0	75	31469
2026-01-12 02:16:04.36	200.12	2.96	-53.7	-72.9	3.8	7.48e-01	0	23	104	0	75	34175
2026-01-12 02:16:07.39	200.16	2.75	-53.7	-72.0	3.8	7.45e-01	0	23	104	0	75	30807
2026-01-12 02:16:10.43	200.19	2.54	-53.7	-70.5	4.0	7.38e-01	0	23	104	0	75	26019
2026-01-12 02:16:13.45	200.23	2.34	-53.7	-71.3	3.8	7.45e-01	0	23	104	0	75	28542
2026-01-12 02:16:16.48	200.27	2.14	-53.7	-71.1	3.9	7.44e-01	0	23	104	0	75	28008

#Closed at: 2026-01-12 02:16:18
#Recorded file [0 MB]: D:/lorett/data/31004_260112_050327.dat