passes_logs/2026/01/12/R3.2S_Murmansk/R3.2S_Murmansk__20260112_063624_NOAA_21_JPSS-2_rec.log

#Pass ID: 20260112_063624_NOAA 21 (JPSS-2)
#Satellite: NOAA 21 (JPSS-2)
#Configuration: NOAA-21
#almurnet v.1.7.20251203
#Start time: 2026-01-12 06:36:25

#Version: 2.2.20231116
#Station: R3.2S_Murmansk
#Location: 33.079688 lon 68.888172 lat
#TLE: 1 54234U 22150A   26011.55893233  .00000075  00000+0  56634-4 0  9995
#TLE: 2 54234  98.7494 312.5004 0000755 313.1908  46.9205 14.19534095164321

#Time	Az	El	Level	Level2	SNR	BER	BlckErr	Temp	State	Recorded	gain1	gain2
2026-01-12 06:36:25.09	87.14	2.02	-56.9	-70.6	3.8	1.49e+00	0	21	0	0	80	17052
2026-01-12 06:36:29.08	86.92	2.26	-56.8	-70.5	3.8	1.49e+00	0	21	104	0	78	18922
2026-01-12 06:36:33.07	86.69	2.49	-56.8	-70.6	3.8	1.49e+00	0	21	104	0	78	19003
2026-01-12 06:36:37.05	86.46	2.73	-56.8	-70.6	3.8	1.49e+00	0	21	104	0	78	18977
2026-01-12 06:36:41.05	86.22	2.97	-56.8	-70.6	3.8	1.49e+00	0	21	104	0	78	19050
2026-01-12 06:36:45.06	85.98	3.21	-56.8	-70.5	3.8	1.49e+00	0	21	104	0	78	18859
2026-01-12 06:36:49.04	85.74	3.45	-56.9	-70.6	3.8	1.49e+00	0	21	104	0	78	19038
2026-01-12 06:36:53.06	85.49	3.70	-56.9	-70.5	3.8	1.49e+00	0	21	104	0	78	18925
2026-01-12 06:36:57.04	85.24	3.94	-56.8	-70.4	3.8	1.49e+00	0	22	104	0	78	18548
2026-01-12 06:37:01.04	84.98	4.19	-56.9	-70.5	3.8	1.49e+00	0	22	104	0	78	18927
2026-01-12 06:37:05.03	84.72	4.44	-56.7	-68.0	3.9	1.49e+00	0	22	104	0	78	14176
2026-01-12 06:37:09.02	84.45	4.69	-56.2	-63.9	5.6	4.11e-01	0	22	0	4194304	78	8806
2026-01-12 06:37:13.00	84.18	4.94	-55.8	-61.8	7.2	1.16e-01	0	22	0	16777216	78	6928
2026-01-12 06:37:16.98	83.91	5.20	-56.1	-63.3	6.0	1.25e-01	0	22	0	29360128	77	8757
2026-01-12 06:37:20.98	83.62	5.45	-53.1	-55.8	12.2	9.10e-06	0	22	0	37748736	72	4925
2026-01-12 06:37:24.97	83.34	5.71	-52.2	-54.5	13.1	0.00e+00	0	22	0	50331648	70	4743
2026-01-12 06:37:28.96	83.05	5.97	-51.0	-52.9	14.0	0.00e+00	0	22	0	62914560	68	4419
2026-01-12 06:37:32.95	82.75	6.23	-50.4	-52.1	14.3	0.00e+00	0	22	0	75497472	67	4269
2026-01-12 06:37:36.94	82.45	6.50	-50.3	-52.0	14.3	0.00e+00	0	22	0	88080384	66	4460
2026-01-12 06:37:40.92	82.14	6.76	-50.3	-52.0	14.3	0.00e+00	0	22	0	100663296	66	4447
2026-01-12 06:37:44.91	81.83	7.03	-50.1	-51.8	14.4	0.00e+00	0	22	0	113246208	66	4341
2026-01-12 06:37:48.90	81.51	7.30	-50.1	-51.7	14.5	0.00e+00	0	22	0	124780544	66	4332
2026-01-12 06:37:52.87	81.18	7.57	-49.9	-51.5	14.6	0.00e+00	0	22	0	137363456	66	4194
2026-01-12 06:37:56.86	80.85	7.84	-49.8	-51.4	14.7	0.00e+00	0	22	0	149946368	66	4172
2026-01-12 06:38:00.83	80.51	8.11	-49.8	-51.4	14.7	0.00e+00	0	22	0	162529280	66	4168
2026-01-12 06:38:04.83	80.16	8.39	-49.7	-51.3	14.8	0.00e+00	0	22	0	175112192	66	4104
2026-01-12 06:38:08.82	79.81	8.67	-49.6	-51.1	14.7	0.00e+00	0	22	0	187695104	65	4278
2026-01-12 06:38:12.80	79.45	8.95	-49.5	-51.0	14.8	0.00e+00	0	22	0	200278016	65	4198
2026-01-12 06:38:16.80	79.08	9.24	-49.4	-50.9	14.8	0.00e+00	0	22	0	212860928	65	4173
2026-01-12 06:38:20.77	78.71	9.52	-49.4	-50.8	14.9	0.00e+00	0	22	0	224395264	65	4136
2026-01-12 06:38:24.76	78.33	9.81	-49.2	-50.7	14.8	0.00e+00	0	22	0	236978176	64	4312
2026-01-12 06:38:28.76	77.94	10.10	-49.1	-50.5	14.9	0.00e+00	0	22	0	249561088	64	4229
2026-01-12 06:38:32.77	77.54	10.39	-48.9	-50.3	15.1	0.00e+00	0	22	0	262144000	64	4132
2026-01-12 06:38:36.79	77.13	10.69	-48.7	-50.1	15.0	0.00e+00	0	22	0	274726912	63	4283
2026-01-12 06:38:40.81	76.71	10.98	-48.6	-49.9	15.1	0.00e+00	0	22	0	287309824	63	4183
2026-01-12 06:38:44.82	76.28	11.28	-48.5	-49.8	15.1	0.00e+00	0	22	0	299892736	63	4135
2026-01-12 06:38:48.83	75.85	11.58	-48.4	-49.8	15.2	0.00e+00	0	22	0	312475648	63	4111
2026-01-12 06:38:52.84	75.40	11.89	-48.4	-49.7	15.3	0.00e+00	0	22	0	325058560	63	4060
2026-01-12 06:38:56.86	74.95	12.19	-48.2	-49.5	15.3	0.00e+00	0	23	0	337641472	63	3996
2026-01-12 06:39:00.87	74.48	12.50	-48.1	-49.4	15.2	0.00e+00	0	22	0	350224384	62	4159
2026-01-12 06:39:04.88	74.01	12.81	-48.1	-49.4	15.2	0.00e+00	0	22	0	362807296	62	4187
2026-01-12 06:39:08.87	73.53	13.12	-48.2	-49.5	15.2	0.00e+00	0	22	0	375390208	62	4235
2026-01-12 06:39:12.88	73.03	13.43	-48.3	-49.7	15.1	0.00e+00	0	22	0	387973120	62	4294
2026-01-12 06:39:16.89	72.53	13.75	-48.2	-49.5	15.2	0.00e+00	0	22	0	400556032	62	4216
2026-01-12 06:39:20.89	72.01	14.06	-48.3	-49.6	15.1	0.00e+00	0	22	0	413138944	62	4260
2026-01-12 06:39:24.88	71.49	14.38	-48.4	-49.7	15.1	0.00e+00	0	22	0	425721856	62	4309
2026-01-12 06:39:28.87	70.95	14.70	-48.2	-49.5	15.2	0.00e+00	0	23	0	437256192	62	4207
2026-01-12 06:39:32.86	70.40	15.02	-48.3	-49.6	15.2	0.00e+00	0	23	0	449839104	62	4243
2026-01-12 06:39:36.84	69.84	15.34	-48.4	-49.7	15.1	0.00e+00	0	23	0	462422016	62	4300
2026-01-12 06:39:40.84	69.26	15.66	-48.6	-49.9	15.0	0.00e+00	0	23	0	475004928	62	4411
2026-01-12 06:39:44.83	68.68	15.99	-48.4	-49.7	15.1	0.00e+00	0	23	0	487587840	62	4318
2026-01-12 06:39:48.81	68.08	16.31	-48.4	-49.7	15.1	0.00e+00	0	23	0	500170752	62	4307
2026-01-12 06:39:52.80	67.47	16.64	-48.7	-50.1	14.9	0.00e+00	0	23	0	512753664	62	4495
2026-01-12 06:39:56.79	66.84	16.97	-48.6	-49.9	15.0	0.00e+00	0	23	0	525336576	62	4422
2026-01-12 06:40:00.77	66.20	17.29	-48.5	-49.8	15.0	0.00e+00	0	23	0	536870912	62	4386
2026-01-12 06:40:04.77	65.55	17.62	-48.5	-49.8	15.0	0.00e+00	0	23	0	549453824	62	4384
2026-01-12 06:40:08.76	64.88	17.95	-48.3	-49.6	15.1	0.00e+00	0	23	0	562036736	62	4266
2026-01-12 06:40:12.75	64.19	18.28	-48.1	-49.4	15.3	0.00e+00	0	23	0	574619648	62	4168
2026-01-12 06:40:16.76	63.49	18.61	-48.2	-49.4	15.2	0.00e+00	0	23	0	587202560	62	4188
2026-01-12 06:40:20.74	62.78	18.94	-48.0	-49.3	15.3	0.00e+00	0	23	0	599785472	62	4115
2026-01-12 06:40:24.74	62.04	19.27	-48.0	-49.2	15.4	0.00e+00	0	23	0	612368384	62	4079
2026-01-12 06:40:28.73	61.30	19.60	-47.8	-49.1	15.4	0.00e+00	0	23	0	624951296	62	4009
2026-01-12 06:40:32.73	60.53	19.92	-47.8	-49.0	15.5	0.00e+00	0	23	0	637534208	62	3992
2026-01-12 06:40:36.67	59.76	20.25	-47.6	-48.8	15.4	0.00e+00	0	23	0	650117120	61	4099
2026-01-12 06:40:40.67	58.96	20.57	-47.6	-48.8	15.4	0.00e+00	0	23	0	662700032	61	4106
2026-01-12 06:40:44.65	58.15	20.89	-47.6	-48.8	15.4	0.00e+00	0	23	0	674234368	61	4139
2026-01-12 06:40:48.65	57.32	21.21	-47.6	-48.8	15.4	0.00e+00	0	23	0	686817280	61	4137
2026-01-12 06:40:52.66	56.47	21.53	-47.7	-49.0	15.3	0.00e+00	0	23	0	699400192	61	4208
2026-01-12 06:40:56.65	55.60	21.85	-47.3	-48.5	15.5	0.00e+00	0	23	0	711983104	61	3988
2026-01-12 06:41:00.65	54.71	22.16	-47.4	-48.6	15.5	0.00e+00	0	23	0	724566016	61	4048
2026-01-12 06:41:04.65	53.81	22.47	-47.6	-48.8	15.4	0.00e+00	0	23	0	737148928	61	4112
2026-01-12 06:41:08.65	52.89	22.77	-47.6	-48.8	15.4	0.00e+00	0	23	0	749731840	61	4144
2026-01-12 06:41:12.64	51.95	23.07	-47.7	-48.9	15.3	0.00e+00	0	23	0	762314752	61	4169
2026-01-12 06:41:16.61	51.00	23.36	-47.6	-48.8	15.4	0.00e+00	0	23	0	774897664	61	4107
2026-01-12 06:41:20.61	50.02	23.65	-47.9	-49.2	15.2	0.00e+00	0	23	0	787480576	61	4300
2026-01-12 06:41:24.60	49.03	23.93	-47.9	-49.1	15.3	0.00e+00	0	23	0	799014912	61	4284
2026-01-12 06:41:28.60	48.02	24.21	-48.0	-49.2	15.2	0.00e+00	0	23	0	811597824	61	4331
2026-01-12 06:41:32.58	46.99	24.48	-48.3	-49.6	15.1	0.00e+00	0	23	0	824180736	61	4514
2026-01-12 06:41:36.58	45.94	24.74	-47.9	-49.1	15.3	0.00e+00	0	23	0	836763648	61	4276
2026-01-12 06:41:40.58	44.88	24.99	-47.9	-49.2	15.2	0.00e+00	0	23	0	849346560	61	4306
2026-01-12 06:41:44.58	43.79	25.24	-47.9	-49.2	15.3	0.00e+00	0	23	0	861929472	61	4305
2026-01-12 06:41:48.59	42.69	25.47	-48.2	-49.4	15.1	0.00e+00	0	23	0	874512384	61	4427
2026-01-12 06:41:52.58	41.58	25.70	-48.1	-49.3	15.2	0.00e+00	0	23	0	887095296	61	4367
2026-01-12 06:41:56.59	40.44	25.92	-47.8	-49.0	15.3	0.00e+00	0	23	0	899678208	61	4226
2026-01-12 06:42:00.57	39.30	26.12	-47.4	-48.6	15.5	0.00e+00	0	23	0	912261120	61	4022
2026-01-12 06:42:04.57	38.14	26.31	-47.7	-48.9	15.4	0.00e+00	0	23	0	924844032	61	4151
2026-01-12 06:42:08.57	36.97	26.49	-47.5	-48.7	15.4	0.00e+00	0	23	0	936378368	61	4093
2026-01-12 06:42:12.57	35.78	26.66	-47.5	-48.7	15.5	0.00e+00	0	23	0	948961280	61	4069
2026-01-12 06:42:16.58	34.58	26.82	-47.5	-48.7	15.5	0.00e+00	0	23	0	961544192	61	4067
2026-01-12 06:42:20.59	33.36	26.96	-47.4	-48.5	15.5	0.00e+00	0	23	0	974127104	61	4000
2026-01-12 06:42:24.59	32.14	27.09	-47.5	-48.7	15.5	0.00e+00	0	23	0	986710016	61	4069
2026-01-12 06:42:28.59	30.91	27.21	-47.5	-48.6	15.5	0.00e+00	0	23	0	999292928	61	4041
2026-01-12 06:42:32.59	29.67	27.31	-47.7	-48.9	15.4	0.00e+00	0	23	0	1011875840	61	4172
2026-01-12 06:42:36.59	28.42	27.40	-47.5	-48.7	15.4	0.00e+00	0	23	0	1024458752	61	4079
2026-01-12 06:42:40.60	27.16	27.47	-48.0	-49.2	15.2	0.00e+00	0	23	0	1037041664	61	4325
2026-01-12 06:42:44.62	25.90	27.52	-47.7	-48.9	15.4	0.00e+00	0	23	0	1049624576	61	4160
2026-01-12 06:42:48.63	24.63	27.56	-47.7	-48.9	15.4	0.00e+00	0	23	0	1062207488	61	4189
2026-01-12 06:42:52.64	23.37	27.59	-47.6	-48.8	15.4	0.00e+00	0	23	0	1074790400	61	4122
2026-01-12 06:42:56.61	22.11	27.60	-47.7	-49.0	15.3	0.00e+00	0	23	0	1087373312	61	4202
2026-01-12 06:43:00.63	20.84	27.59	-47.7	-48.9	15.3	0.00e+00	0	23	0	1099956224	61	4164
2026-01-12 06:43:04.64	19.57	27.57	-47.6	-48.7	15.4	0.00e+00	0	23	0	1112539136	61	4092
2026-01-12 06:43:08.63	18.31	27.54	-47.5	-48.6	15.4	0.00e+00	0	23	0	1124073472	61	4040
2026-01-12 06:43:12.61	17.06	27.48	-47.6	-48.8	15.4	0.00e+00	0	23	0	1136656384	61	4127
2026-01-12 06:43:16.61	15.80	27.42	-47.7	-48.8	15.4	0.00e+00	0	23	0	1149239296	61	4133
2026-01-12 06:43:20.63	14.55	27.33	-47.7	-48.9	15.3	0.00e+00	0	23	0	1161822208	61	4186
2026-01-12 06:43:24.64	13.30	27.24	-47.6	-48.8	15.4	0.00e+00	0	23	0	1174405120	61	4132
2026-01-12 06:43:28.63	12.07	27.13	-47.7	-48.9	15.4	0.00e+00	0	23	0	1186988032	61	4156
2026-01-12 06:43:32.63	10.85	27.00	-47.9	-49.1	15.3	0.00e+00	0	23	0	1199570944	61	4281
2026-01-12 06:43:36.63	9.63	26.86	-47.7	-48.9	15.3	0.00e+00	0	23	0	1212153856	61	4186
2026-01-12 06:43:40.62	8.43	26.71	-47.5	-48.7	15.4	0.00e+00	0	23	0	1224736768	61	4072
2026-01-12 06:43:44.63	7.24	26.54	-47.9	-49.1	15.3	0.00e+00	0	23	0	1237319680	61	4264
2026-01-12 06:43:48.66	6.05	26.36	-47.8	-49.0	15.3	0.00e+00	0	23	0	1249902592	61	4236
2026-01-12 06:43:52.66	4.89	26.17	-47.8	-49.0	15.3	0.00e+00	0	23	0	1262485504	61	4241
2026-01-12 06:43:56.65	3.74	25.97	-47.7	-48.9	15.3	0.00e+00	0	23	0	1275068416	61	4191
2026-01-12 06:44:00.65	2.61	25.76	-47.9	-49.1	15.3	0.00e+00	0	23	0	1287651328	61	4276
2026-01-12 06:44:04.63	1.50	25.54	-47.4	-48.6	15.5	0.00e+00	0	23	0	1299185664	61	4010
2026-01-12 06:44:08.63	0.39	25.31	-47.8	-49.0	15.3	0.00e+00	0	23	0	1311768576	61	4230
2026-01-12 06:44:12.62	359.31	25.07	-47.5	-48.6	15.4	0.00e+00	0	23	0	1324351488	61	4042
2026-01-12 06:44:16.62	358.24	24.82	-47.8	-49.0	15.3	0.00e+00	0	23	0	1336934400	61	4203
2026-01-12 06:44:20.61	357.19	24.56	-47.9	-49.1	15.3	0.00e+00	0	23	0	1349517312	61	4274
2026-01-12 06:44:24.60	356.16	24.29	-47.0	-48.1	15.5	0.00e+00	0	23	0	1362100224	60	4042
2026-01-12 06:44:28.60	355.14	24.02	-47.2	-48.4	15.4	0.00e+00	0	23	0	1374683136	60	4168
2026-01-12 06:44:32.60	354.14	23.74	-47.3	-48.5	15.4	0.00e+00	0	23	0	1387266048	60	4208
2026-01-12 06:44:36.60	353.16	23.45	-47.7	-48.9	15.3	0.00e+00	0	23	0	1399848960	60	4407
2026-01-12 06:44:40.60	352.20	23.16	-47.7	-48.9	15.2	0.00e+00	0	23	0	1412431872	60	4427
2026-01-12 06:44:44.61	351.25	22.86	-47.5	-48.7	15.3	0.00e+00	0	23	0	1425014784	60	4313
2026-01-12 06:44:48.62	350.33	22.56	-48.2	-49.4	15.1	0.00e+00	0	23	0	1436549120	61	4437
2026-01-12 06:44:52.62	349.42	22.25	-47.8	-49.0	15.3	0.00e+00	0	23	0	1449132032	61	4225
2026-01-12 06:44:56.63	348.53	21.94	-48.1	-49.3	15.2	0.00e+00	0	23	0	1461714944	61	4390
2026-01-12 06:45:00.64	347.65	21.62	-47.9	-49.1	15.3	0.00e+00	0	23	0	1474297856	61	4281
2026-01-12 06:45:04.66	346.80	21.30	-47.7	-48.9	15.3	0.00e+00	0	23	0	1486880768	61	4190
2026-01-12 06:45:08.66	345.96	20.98	-47.9	-49.2	15.2	0.00e+00	0	23	0	1499463680	61	4303
2026-01-12 06:45:12.66	345.14	20.66	-47.8	-49.0	15.3	0.00e+00	0	23	0	1512046592	61	4212
2026-01-12 06:45:16.66	344.34	20.34	-47.7	-48.9	15.4	0.00e+00	0	23	0	1524629504	61	4164
2026-01-12 06:45:20.70	343.55	20.01	-47.9	-49.1	15.3	0.00e+00	0	23	0	1537212416	61	4286
2026-01-12 06:45:24.70	342.78	19.68	-47.8	-49.1	15.3	0.00e+00	0	23	0	1549795328	61	4248
2026-01-12 06:45:28.70	342.03	19.35	-47.9	-49.2	15.2	0.00e+00	0	23	0	1562378240	61	4295
2026-01-12 06:45:32.69	341.30	19.03	-47.9	-49.1	15.2	0.00e+00	0	23	0	1574961152	61	4291
2026-01-12 06:45:36.67	340.58	18.70	-47.9	-49.1	15.3	0.00e+00	0	23	0	1587544064	61	4256
2026-01-12 06:45:40.68	339.88	18.37	-47.9	-49.2	15.2	0.00e+00	0	23	0	1600126976	61	4300
2026-01-12 06:45:44.66	339.19	18.04	-47.9	-49.1	15.2	0.00e+00	0	23	0	1611661312	61	4255
2026-01-12 06:45:48.66	338.52	17.71	-48.1	-49.3	15.2	0.00e+00	0	23	0	1624244224	61	4381
2026-01-12 06:45:52.65	337.86	17.38	-48.3	-49.5	15.1	0.00e+00	0	23	0	1636827136	61	4482
2026-01-12 06:45:56.64	337.22	17.06	-48.0	-49.3	15.2	0.00e+00	0	23	0	1649410048	61	4364
2026-01-12 06:46:00.63	336.59	16.73	-48.0	-49.2	15.2	0.00e+00	0	23	0	1661992960	61	4336
2026-01-12 06:46:04.63	335.98	16.40	-48.4	-49.7	15.0	0.00e+00	0	23	0	1674575872	61	4562
2026-01-12 06:46:08.64	335.37	16.08	-48.4	-49.7	15.1	0.00e+00	0	23	0	1687158784	62	4327
2026-01-12 06:46:12.62	334.79	15.75	-48.1	-49.3	15.3	0.00e+00	0	23	0	1699741696	62	4137
2026-01-12 06:46:16.62	334.21	15.43	-48.3	-49.6	15.1	0.00e+00	0	23	0	1712324608	62	4261
2026-01-12 06:46:20.59	333.65	15.11	-48.7	-50.0	15.0	0.00e+00	0	23	0	1724907520	62	4486
2026-01-12 06:46:24.59	333.10	14.79	-48.7	-50.1	14.9	0.00e+00	0	23	0	1737490432	62	4495
2026-01-12 06:46:28.57	332.56	14.47	-48.3	-49.5	15.2	0.00e+00	0	23	0	1749024768	62	4240
2026-01-12 06:46:32.55	332.04	14.16	-48.3	-49.6	15.1	0.00e+00	0	23	0	1761607680	62	4289
2026-01-12 06:46:36.54	331.52	13.84	-48.8	-50.1	14.9	0.00e+00	0	23	0	1774190592	62	4537
2026-01-12 06:46:40.54	331.02	13.53	-48.6	-50.0	14.9	0.00e+00	0	23	0	1786773504	62	4455
2026-01-12 06:46:44.54	330.52	13.21	-48.4	-49.7	15.1	0.00e+00	0	23	0	1799356416	62	4309
2026-01-12 06:46:48.54	330.04	12.90	-48.2	-49.4	15.2	0.00e+00	0	23	0	1811939328	62	4167
2026-01-12 06:46:52.53	329.57	12.60	-48.6	-49.9	15.0	0.00e+00	0	23	0	1824522240	62	4397
2026-01-12 06:46:56.53	329.10	12.29	-49.1	-50.5	14.8	0.00e+00	0	23	0	1837105152	63	4480
2026-01-12 06:47:00.52	328.65	11.99	-49.1	-50.5	14.8	0.00e+00	0	23	0	1849688064	63	4451
2026-01-12 06:47:04.51	328.21	11.68	-48.8	-50.1	15.0	0.00e+00	0	23	0	1861222400	63	4266
2026-01-12 06:47:08.52	327.77	11.38	-48.4	-49.7	15.2	0.00e+00	0	23	0	1873805312	63	4087
2026-01-12 06:47:12.52	327.34	11.08	-48.8	-50.1	15.0	0.00e+00	0	23	0	1886388224	63	4291
2026-01-12 06:47:16.51	326.93	10.79	-49.3	-50.8	14.8	0.00e+00	0	23	0	1898971136	64	4364
2026-01-12 06:47:20.50	326.52	10.49	-49.6	-51.1	14.6	0.00e+00	0	23	0	1911554048	64	4529
2026-01-12 06:47:24.49	326.12	10.20	-49.4	-50.9	14.6	0.00e+00	0	23	0	1924136960	64	4426
2026-01-12 06:47:28.48	325.73	9.91	-49.2	-50.6	14.8	0.00e+00	0	23	0	1936719872	64	4262
2026-01-12 06:47:32.47	325.35	9.63	-49.4	-50.9	14.7	0.00e+00	0	23	0	1949302784	64	4411
2026-01-12 06:47:36.45	324.97	9.34	-49.5	-51.0	14.6	0.00e+00	0	23	0	1961885696	64	4488
2026-01-12 06:47:40.44	324.60	9.06	-49.8	-51.4	14.4	0.00e+00	0	23	0	1974468608	64	4692
2026-01-12 06:47:44.40	324.25	8.78	-50.0	-51.7	14.4	0.00e+00	0	23	0	1986002944	65	4553
2026-01-12 06:47:48.41	323.89	8.50	-50.2	-51.8	14.2	0.00e+00	0	23	0	1998585856	65	4644
2026-01-12 06:47:52.39	323.54	8.22	-50.1	-51.7	14.3	0.00e+00	0	23	0	2011168768	65	4564
2026-01-12 06:47:56.38	323.20	7.95	-50.0	-51.6	14.3	0.00e+00	0	23	0	2023751680	65	4535
2026-01-12 06:48:00.38	322.87	7.67	-50.0	-51.6	14.4	0.00e+00	0	23	0	2036334592	65	4495
2026-01-12 06:48:04.38	322.54	7.40	-50.0	-51.7	14.3	0.00e+00	0	23	0	2048917504	65	4552
2026-01-12 06:48:08.37	322.22	7.13	-50.4	-52.1	14.1	0.00e+00	0	23	0	2061500416	65	4777
2026-01-12 06:48:12.36	321.91	6.86	-50.5	-52.2	14.1	0.00e+00	0	23	0	2074083328	66	4590
2026-01-12 06:48:16.38	321.60	6.60	-50.7	-52.5	13.9	0.00e+00	0	23	0	2086666240	66	4743
2026-01-12 06:48:20.37	321.29	6.33	-50.7	-52.5	13.9	0.00e+00	0	23	0	2098200576	66	4719
2026-01-12 06:48:24.37	321.00	6.07	-50.5	-52.3	14.0	0.00e+00	0	23	0	2110783488	66	4628
2026-01-12 06:48:28.37	320.70	5.81	-50.7	-52.5	13.8	0.00e+00	0	23	0	2123366400	66	4748
2026-01-12 06:48:32.38	320.42	5.55	-50.4	-52.2	14.1	0.00e+00	0	23	0	2135949312	66	4554
2026-01-12 06:48:36.38	320.14	5.29	-50.5	-52.3	14.0	0.00e+00	0	23	0	2148532224	66	4600
2026-01-12 06:48:40.39	319.86	5.04	-52.1	-54.4	13.1	0.00e+00	0	23	0	2161115136	69	4967
2026-01-12 06:48:44.40	319.59	4.78	-58.5	-72.3	3.8	1.49e+00	0	23	104	2163212288	82	18423
2026-01-12 06:48:48.39	319.32	4.53	-59.1	-72.8	3.8	1.49e+00	0	23	104	2163212288	83	18513
2026-01-12 06:48:52.39	319.06	4.28	-59.3	-73.1	3.8	1.49e+00	0	23	104	2163212288	83	19055
2026-01-12 06:48:56.38	318.80	4.04	-59.7	-73.5	3.8	1.49e+00	0	23	104	2163212288	84	18805
2026-01-12 06:49:00.36	318.55	3.79	-59.8	-73.6	3.8	1.49e+00	0	23	104	2163212288	84	19011
2026-01-12 06:49:04.36	318.30	3.55	-59.6	-73.5	3.8	1.49e+00	0	23	104	2163212288	84	18736
2026-01-12 06:49:08.37	318.06	3.30	-59.6	-73.4	3.8	1.49e+00	0	23	104	2163212288	84	18631
2026-01-12 06:49:12.39	317.82	3.06	-59.6	-73.4	3.8	1.49e+00	0	23	104	2163212288	84	18576
2026-01-12 06:49:16.40	317.58	2.82	-59.5	-73.3	3.8	1.49e+00	0	23	104	2163212288	84	18478
2026-01-12 06:49:20.41	317.35	2.58	-59.5	-73.3	3.8	1.49e+00	0	23	104	2163212288	84	18468
2026-01-12 06:49:24.43	317.12	2.34	-59.5	-73.3	3.8	1.49e+00	0	23	104	2163212288	84	18506
2026-01-12 06:49:28.43	316.90	2.11	-59.5	-73.3	3.8	1.49e+00	0	23	104	2163212288	84	18413

#Closed at: 2026-01-12 06:49:30
#Recorded file [2163 MB]: D:/lorett/data/31004_260112_093624.dat