passes_logs/2026/01/12/R3.2S_Murmansk/R3.2S_Murmansk__20260112_084445_SUOMI_NPP_rec.log

#Pass ID: 20260112_084445_SUOMI NPP
#Satellite: SUOMI NPP
#Configuration: NPP
#almurnet v.1.7.20251203
#Start time: 2026-01-12 08:44:45

#Version: 2.2.20231116
#Station: R3.2S_Murmansk
#Location: 33.079688 lon 68.888172 lat
#TLE: 1 37849U 11061A   26011.57971124  .00000103  00000+0  69927-4 0  9996
#TLE: 2 37849  98.7807 313.6578 0002518  69.5076 290.6370 14.19524515736228

#Time	Az	El	Level	Level2	SNR	BER	BlckErr	Temp	State	Recorded	gain1	gain2
2026-01-12 08:44:45.56	131.63	2.01	-57.2	-73.1	3.8	1.49e+00	0	22	0	0	80	22681
2026-01-12 08:44:49.53	131.56	2.26	-57.1	-73.1	3.8	1.49e+00	0	22	104	0	79	23977
2026-01-12 08:44:53.48	131.48	2.51	-57.1	-73.1	3.8	1.49e+00	0	22	104	0	79	23998
2026-01-12 08:44:57.42	131.40	2.77	-57.1	-73.0	3.8	1.49e+00	0	22	104	0	79	23829
2026-01-12 08:45:01.40	131.33	3.03	-57.1	-72.9	3.8	1.49e+00	0	22	104	0	79	23554
2026-01-12 08:45:05.36	131.24	3.29	-57.1	-72.9	3.8	1.49e+00	0	22	104	0	79	23525
2026-01-12 08:45:09.32	131.16	3.56	-57.1	-71.7	3.8	1.49e+00	0	22	104	0	79	20436
2026-01-12 08:45:13.28	131.08	3.83	-56.8	-67.2	5.1	6.22e-01	0	22	0	3145728	79	12170
2026-01-12 08:45:17.22	130.99	4.09	-56.4	-64.4	7.1	1.28e-01	0	22	0	10485760	79	8813
2026-01-12 08:45:21.17	130.91	4.37	-55.4	-60.6	10.4	1.64e-03	0	22	0	17825792	77	6349
2026-01-12 08:45:25.12	130.82	4.64	-54.0	-57.6	12.5	1.50e-06	0	23	0	25165824	74	5371
2026-01-12 08:45:29.10	130.72	4.92	-53.4	-56.5	13.2	0.00e+00	0	22	0	32505856	73	5019
2026-01-12 08:45:33.05	130.63	5.20	-56.5	-64.5	7.1	1.80e-02	0	23	0	39845888	78	9454
2026-01-12 08:45:37.01	130.53	5.48	-52.2	-54.6	14.3	1.22e-05	0	23	0	47185920	71	4537
2026-01-12 08:45:40.97	130.44	5.77	-52.2	-54.6	14.3	0.00e+00	0	23	0	55574528	71	4538
2026-01-12 08:45:44.94	130.34	6.06	-52.0	-54.3	14.4	0.00e+00	0	23	0	62914560	70	4628
2026-01-12 08:45:48.90	130.23	6.35	-52.0	-54.3	14.4	0.00e+00	0	23	0	70254592	70	4611
2026-01-12 08:45:52.88	130.13	6.65	-51.9	-54.1	14.5	0.00e+00	0	23	0	77594624	70	4534
2026-01-12 08:45:56.85	130.02	6.95	-52.0	-54.2	14.5	0.00e+00	0	23	0	84934656	70	4568
2026-01-12 08:46:00.82	129.91	7.26	-51.7	-53.8	14.7	0.00e+00	0	23	0	92274688	70	4386
2026-01-12 08:46:04.78	129.80	7.56	-51.6	-53.7	14.7	0.00e+00	0	23	0	99614720	69	4579
2026-01-12 08:46:08.73	129.69	7.87	-51.6	-53.7	14.7	0.00e+00	0	23	0	106954752	69	4555
2026-01-12 08:46:12.69	129.57	8.19	-51.8	-53.9	14.5	0.00e+00	0	23	0	114294784	69	4696
2026-01-12 08:46:16.64	129.45	8.50	-51.7	-53.8	14.6	0.00e+00	0	23	0	121634816	69	4602
2026-01-12 08:46:20.60	129.32	8.82	-51.6	-53.6	14.7	0.00e+00	0	23	0	128974848	69	4517
2026-01-12 08:46:24.55	129.20	9.15	-51.6	-53.6	14.7	0.00e+00	0	23	0	136314880	69	4522
2026-01-12 08:46:28.52	129.07	9.48	-51.4	-53.4	14.9	0.00e+00	0	23	0	144703488	69	4402
2026-01-12 08:46:32.47	128.94	9.81	-51.4	-53.3	14.9	0.00e+00	0	23	0	152043520	69	4373
2026-01-12 08:46:36.42	128.80	10.15	-51.2	-53.1	15.1	0.00e+00	0	23	0	159383552	69	4256
2026-01-12 08:46:40.39	128.66	10.50	-51.3	-53.2	15.0	0.00e+00	0	23	0	166723584	69	4308
2026-01-12 08:46:44.34	128.52	10.84	-51.4	-53.3	15.0	0.00e+00	0	23	0	174063616	69	4374
2026-01-12 08:46:48.31	128.37	11.20	-51.2	-53.1	15.1	0.00e+00	0	23	0	181403648	69	4244
2026-01-12 08:46:52.28	128.22	11.55	-51.0	-52.8	15.1	0.00e+00	0	23	0	188743680	68	4377
2026-01-12 08:46:56.26	128.06	11.92	-50.8	-52.6	15.2	0.00e+00	0	23	0	196083712	68	4253
2026-01-12 08:47:00.22	127.90	12.29	-51.0	-52.8	15.1	0.00e+00	0	23	0	203423744	68	4384
2026-01-12 08:47:04.19	127.74	12.66	-51.0	-53.0	15.0	0.00e+00	0	23	0	210763776	68	4461
2026-01-12 08:47:08.16	127.57	13.04	-50.4	-52.3	15.2	0.00e+00	0	23	0	218103808	67	4387
2026-01-12 08:47:12.12	127.39	13.42	-50.4	-52.3	15.2	0.00e+00	0	23	0	226492416	67	4384
2026-01-12 08:47:16.10	127.22	13.82	-50.4	-52.3	15.2	0.00e+00	0	23	0	233832448	67	4386
2026-01-12 08:47:20.06	127.03	14.21	-50.6	-52.5	15.1	0.00e+00	0	23	0	241172480	67	4490
2026-01-12 08:47:24.02	126.84	14.62	-50.3	-52.2	15.3	0.00e+00	0	23	0	248512512	67	4330
2026-01-12 08:47:27.97	126.65	15.02	-50.1	-51.9	15.3	0.00e+00	0	23	0	255852544	66	4408
2026-01-12 08:47:31.92	126.45	15.44	-50.2	-52.0	15.2	0.00e+00	0	23	0	263192576	66	4491
2026-01-12 08:47:35.87	126.24	15.86	-50.2	-52.1	15.2	0.00e+00	0	23	0	270532608	66	4514
2026-01-12 08:47:39.84	126.03	16.29	-50.3	-52.2	15.1	0.00e+00	0	23	0	277872640	66	4550
2026-01-12 08:47:43.82	125.81	16.73	-50.0	-51.7	15.4	0.00e+00	0	23	0	285212672	66	4307
2026-01-12 08:47:47.79	125.59	17.17	-50.1	-51.8	15.3	0.00e+00	0	23	0	292552704	66	4386
2026-01-12 08:47:51.73	125.35	17.62	-50.0	-51.8	15.3	0.00e+00	0	23	0	299892736	66	4341
2026-01-12 08:47:55.68	125.11	18.08	-50.4	-52.2	15.1	0.00e+00	0	23	0	307232768	66	4565
2026-01-12 08:47:59.63	124.87	18.55	-50.3	-52.1	15.2	0.00e+00	0	23	0	314572800	66	4515
2026-01-12 08:48:03.59	124.61	19.03	-50.2	-52.1	15.2	0.00e+00	0	23	0	322961408	66	4505
2026-01-12 08:48:07.56	124.34	19.51	-50.4	-52.3	15.1	0.00e+00	0	23	0	330301440	66	4620
2026-01-12 08:48:11.52	124.07	20.01	-50.3	-52.1	15.2	0.00e+00	0	23	0	337641472	66	4537
2026-01-12 08:48:15.47	123.79	20.51	-50.4	-52.3	15.1	0.00e+00	0	23	0	344981504	66	4621
2026-01-12 08:48:19.41	123.49	21.02	-50.7	-52.6	15.0	0.00e+00	0	23	0	352321536	66	4798
2026-01-12 08:48:23.37	123.19	21.54	-51.0	-53.0	14.9	0.00e+00	0	23	0	359661568	67	4747
2026-01-12 08:48:27.34	122.87	22.08	-50.6	-52.5	15.2	0.00e+00	0	23	0	367001600	67	4458
2026-01-12 08:48:31.29	122.55	22.62	-50.7	-52.6	15.1	0.00e+00	0	23	0	374341632	67	4531
2026-01-12 08:48:35.25	122.21	23.17	-50.9	-52.9	15.0	0.00e+00	0	23	0	381681664	67	4697
2026-01-12 08:48:39.20	121.86	23.73	-51.4	-53.5	14.7	0.00e+00	0	23	0	389021696	67	4986
2026-01-12 08:48:43.15	121.50	24.31	-51.7	-53.9	14.7	0.00e+00	0	23	0	396361728	68	4966
2026-01-12 08:48:47.12	121.12	24.90	-51.9	-54.3	14.5	0.00e+00	0	23	0	403701760	69	4902
2026-01-12 08:48:51.08	120.72	25.50	-51.8	-54.0	14.8	0.00e+00	0	23	0	411041792	69	4744
2026-01-12 08:48:55.05	120.31	26.11	-52.0	-54.2	14.7	0.00e+00	0	23	0	419430400	69	4833
2026-01-12 08:48:59.00	119.89	26.73	-52.1	-54.3	14.6	0.00e+00	0	23	0	426770432	69	4915
2026-01-12 08:49:02.96	119.44	27.37	-52.2	-54.4	14.7	0.00e+00	0	23	0	434110464	70	4672
2026-01-12 08:49:06.91	118.98	28.01	-52.3	-54.5	14.6	0.00e+00	0	23	0	441450496	70	4745
2026-01-12 08:49:10.87	118.50	28.68	-52.5	-54.8	14.5	0.00e+00	0	23	0	448790528	70	4919
2026-01-12 08:49:14.83	117.99	29.35	-52.9	-55.4	14.3	0.00e+00	0	23	0	456130560	71	4978
2026-01-12 08:49:18.81	117.47	30.05	-52.3	-54.6	14.7	0.00e+00	0	23	0	463470592	71	4522
2026-01-12 08:49:22.79	116.91	30.75	-52.3	-54.4	14.7	0.00e+00	0	23	0	470810624	70	4703
2026-01-12 08:49:26.76	116.34	31.47	-52.0	-54.1	14.7	0.00e+00	0	23	0	478150656	69	4803
2026-01-12 08:49:30.73	115.73	32.21	-52.4	-54.7	14.4	0.00e+00	0	23	0	485490688	69	5114
2026-01-12 08:49:34.70	115.10	32.96	-53.3	-56.1	13.9	0.00e+00	0	23	0	492830720	71	5370
2026-01-12 08:49:38.67	114.44	33.72	-53.0	-55.7	14.2	0.00e+00	0	23	0	501219328	72	4849
2026-01-12 08:49:42.65	113.74	34.50	-52.8	-55.8	14.1	0.00e+00	0	23	0	508559360	71	5215
2026-01-12 08:49:46.63	113.01	35.30	-53.2	-56.4	13.8	0.00e+00	0	23	0	515899392	71	5533
2026-01-12 08:49:50.63	112.23	36.11	-54.2	-58.1	12.9	0.00e+00	0	23	0	523239424	73	6012
2026-01-12 08:49:54.60	111.42	36.94	-54.7	-59.0	12.4	1.50e-06	0	23	0	530579456	74	6280
2026-01-12 08:49:58.58	110.57	37.78	-52.9	-55.9	14.1	0.00e+00	0	23	0	537919488	72	4978
2026-01-12 08:50:02.57	109.67	38.63	-53.3	-56.6	13.5	0.00e+00	0	23	0	545259520	71	5707
2026-01-12 08:50:06.54	108.72	39.49	-53.4	-56.6	13.7	0.00e+00	0	23	0	552599552	72	5381
2026-01-12 08:50:10.50	107.72	40.37	-54.2	-58.5	12.5	0.00e+00	0	23	0	559939584	73	6309
2026-01-12 08:50:14.48	106.67	41.25	-54.9	-59.6	11.8	2.20e-06	0	23	0	568328192	74	6740
2026-01-12 08:50:18.45	105.55	42.15	-54.1	-57.7	13.3	1.22e-05	0	23	0	575668224	74	5426
2026-01-12 08:50:22.43	104.37	43.06	-54.1	-58.1	12.9	0.00e+00	0	23	0	583008256	74	5694
2026-01-12 08:50:26.41	103.11	43.97	-52.8	-55.5	14.4	0.00e+00	0	23	0	590348288	72	4759
2026-01-12 08:50:30.38	101.79	44.89	-52.6	-55.4	14.4	0.00e+00	0	23	0	597688320	71	4933
2026-01-12 08:50:34.36	100.38	45.81	-53.4	-56.4	13.9	0.00e+00	0	23	0	605028352	72	5234
2026-01-12 08:50:38.32	98.89	46.73	-52.1	-54.5	14.6	0.00e+00	0	23	0	612368384	70	4717
2026-01-12 08:50:42.29	97.31	47.65	-52.6	-55.4	14.0	0.00e+00	0	23	0	619708416	70	5221
2026-01-12 08:50:46.28	95.63	48.57	-52.6	-55.5	14.2	0.00e+00	0	23	0	627048448	71	5001
2026-01-12 08:50:50.24	93.85	49.47	-52.8	-55.9	13.9	0.00e+00	0	23	0	635437056	71	5252
2026-01-12 08:50:54.22	91.96	50.36	-52.2	-54.9	14.2	0.00e+00	0	23	0	642777088	69	5239
2026-01-12 08:50:58.21	89.95	51.24	-50.6	-52.6	15.1	0.00e+00	0	23	0	650117120	67	4532
2026-01-12 08:51:02.17	87.83	52.08	-50.4	-52.4	15.1	0.00e+00	0	23	0	657457152	66	4661
2026-01-12 08:51:06.15	85.58	52.90	-51.4	-53.8	14.5	0.00e+00	0	23	0	664797184	67	5171
2026-01-12 08:51:10.13	83.21	53.69	-51.4	-53.8	14.9	0.00e+00	0	23	0	672137216	69	4604
2026-01-12 08:51:14.10	80.71	54.43	-49.8	-51.6	15.5	0.00e+00	0	23	0	679477248	66	4263
2026-01-12 08:51:18.08	78.07	55.13	-51.0	-53.2	14.8	0.00e+00	0	23	0	686817280	67	4829
2026-01-12 08:51:22.06	75.31	55.77	-51.9	-54.7	14.2	0.00e+00	0	23	0	694157312	69	5119
2026-01-12 08:51:26.05	72.41	56.35	-50.7	-52.9	15.2	0.00e+00	0	23	0	702545920	68	4397
2026-01-12 08:51:30.03	69.41	56.86	-50.9	-53.3	14.6	0.00e+00	0	23	0	709885952	66	5185
2026-01-12 08:51:34.00	66.31	57.29	-49.8	-51.8	15.3	0.00e+00	0	23	0	717225984	66	4375
2026-01-12 08:51:37.99	63.10	57.65	-51.0	-53.7	14.6	0.00e+00	0	23	0	724566016	67	5101
2026-01-12 08:51:41.97	59.82	57.92	-49.0	-50.7	15.5	0.00e+00	0	23	0	731906048	64	4313
2026-01-12 08:51:45.93	56.51	58.10	-49.3	-51.1	15.3	0.00e+00	0	23	0	739246080	64	4543
2026-01-12 08:51:49.92	53.14	58.19	-48.2	-49.8	15.6	0.00e+00	0	23	0	746586112	62	4351
2026-01-12 08:51:53.91	49.75	58.19	-48.6	-50.3	15.4	0.00e+00	0	23	0	753926144	62	4607
2026-01-12 08:51:57.88	46.40	58.09	-48.6	-50.2	15.6	0.00e+00	0	23	0	762314752	63	4335
2026-01-12 08:52:01.86	43.07	57.90	-47.9	-49.4	15.8	0.00e+00	0	23	0	769654784	62	4181
2026-01-12 08:52:05.84	39.80	57.63	-48.5	-50.2	15.5	0.00e+00	0	23	0	776994816	62	4551
2026-01-12 08:52:09.84	36.59	57.26	-49.9	-51.8	15.1	0.00e+00	0	23	0	784334848	64	4919
2026-01-12 08:52:13.82	33.50	56.82	-49.8	-51.6	15.1	0.00e+00	0	23	0	791674880	64	4813
2026-01-12 08:52:17.80	30.50	56.30	-50.3	-52.0	15.5	0.00e+00	0	23	0	799014912	67	4238
2026-01-12 08:52:21.77	27.64	55.72	-51.7	-53.9	14.8	0.00e+00	0	23	0	806354944	69	4669
2026-01-12 08:52:25.75	24.89	55.08	-50.1	-51.8	15.4	0.00e+00	0	23	0	813694976	66	4377
2026-01-12 08:52:29.73	22.26	54.38	-48.8	-50.4	15.8	0.00e+00	0	23	0	821035008	64	4150
2026-01-12 08:52:33.69	19.78	53.64	-51.1	-53.4	14.8	0.00e+00	0	23	0	829423616	67	4933
2026-01-12 08:52:37.66	17.42	52.85	-50.8	-52.8	14.9	0.00e+00	0	23	0	836763648	66	4887
2026-01-12 08:52:41.65	15.18	52.03	-51.3	-53.5	14.7	0.00e+00	0	23	0	844103680	67	5023
2026-01-12 08:52:45.62	13.07	51.18	-52.4	-54.9	14.5	0.00e+00	0	23	0	851443712	70	4957
2026-01-12 08:52:49.58	11.09	50.31	-51.8	-54.3	14.6	0.00e+00	0	23	0	858783744	69	4876
2026-01-12 08:52:53.56	9.21	49.42	-50.7	-52.8	15.0	0.00e+00	0	23	0	866123776	67	4619
2026-01-12 08:52:57.55	7.43	48.51	-52.6	-55.2	14.2	0.00e+00	0	23	0	873463808	70	5117
2026-01-12 08:53:01.52	5.76	47.60	-52.5	-55.0	14.3	0.00e+00	0	23	0	880803840	70	5000
2026-01-12 08:53:05.50	4.19	46.68	-54.5	-58.4	12.9	4.50e-06	0	23	0	888143872	75	5536
2026-01-12 08:53:09.49	2.70	45.76	-53.5	-56.5	13.7	0.00e+00	0	23	0	896532480	72	5307
2026-01-12 08:53:13.46	1.30	44.84	-51.4	-53.4	15.2	0.00e+00	0	23	0	903872512	69	4402
2026-01-12 08:53:17.44	359.98	43.93	-52.5	-54.8	14.5	0.00e+00	0	23	0	911212544	70	4925
2026-01-12 08:53:21.42	358.74	43.01	-53.5	-56.4	13.8	0.00e+00	0	23	0	918552576	72	5270
2026-01-12 08:53:25.41	357.56	42.11	-53.1	-55.7	14.1	0.00e+00	0	23	0	925892608	71	5151
2026-01-12 08:53:29.39	356.45	41.21	-52.9	-55.5	14.2	0.00e+00	0	23	0	933232640	71	5026
2026-01-12 08:53:33.37	355.39	40.33	-53.1	-55.9	14.0	0.00e+00	0	23	0	940572672	71	5223
2026-01-12 08:53:37.33	354.40	39.46	-54.2	-57.5	13.3	0.00e+00	0	23	0	947912704	73	5619
2026-01-12 08:53:41.31	353.46	38.60	-53.3	-55.9	14.3	0.00e+00	0	23	0	955252736	73	4673
2026-01-12 08:53:45.26	352.58	37.75	-53.7	-56.7	13.8	0.00e+00	0	23	0	963641344	73	5103
2026-01-12 08:53:49.25	351.72	36.92	-53.2	-55.9	14.3	0.00e+00	0	23	0	970981376	73	4678
2026-01-12 08:53:53.24	350.92	36.09	-54.0	-57.4	13.3	0.00e+00	0	23	0	978321408	73	5557
2026-01-12 08:53:57.20	350.16	35.29	-54.1	-57.7	13.2	0.00e+00	0	23	0	985661440	74	5437
2026-01-12 08:54:01.18	349.43	34.50	-52.4	-54.8	14.6	0.00e+00	0	23	0	993001472	71	4625
2026-01-12 08:54:05.16	348.73	33.72	-53.3	-56.3	13.8	0.00e+00	0	23	0	1000341504	71	5484
2026-01-12 08:54:09.13	348.07	32.96	-52.7	-55.3	14.3	0.00e+00	0	23	0	1007681536	71	4901
2026-01-12 08:54:13.11	347.44	32.21	-54.0	-57.5	13.2	0.00e+00	0	23	0	1015021568	73	5646
2026-01-12 08:54:17.09	346.84	31.48	-52.6	-55.2	14.4	0.00e+00	0	23	0	1022361600	71	4816
2026-01-12 08:54:21.06	346.27	30.76	-52.7	-55.3	14.3	0.00e+00	0	23	0	1030750208	71	4874
2026-01-12 08:54:25.04	345.72	30.06	-52.4	-54.9	14.4	0.00e+00	0	23	0	1038090240	70	4952
2026-01-12 08:54:29.02	345.20	29.37	-53.4	-56.4	13.8	0.00e+00	0	23	0	1045430272	72	5239
2026-01-12 08:54:32.99	344.69	28.69	-52.5	-55.0	14.5	0.00e+00	0	23	0	1052770304	71	4733
2026-01-12 08:54:36.97	344.21	28.03	-52.4	-54.8	14.6	0.00e+00	0	23	0	1060110336	71	4637
2026-01-12 08:54:40.94	343.75	27.38	-52.1	-54.4	14.7	0.00e+00	0	23	0	1067450368	70	4654
2026-01-12 08:54:44.90	343.31	26.75	-54.0	-57.3	13.2	0.00e+00	0	23	0	1074790400	73	5466
2026-01-12 08:54:48.90	342.88	26.12	-53.8	-56.9	13.5	0.00e+00	0	23	0	1082130432	73	5239
2026-01-12 08:54:52.88	342.47	25.51	-53.0	-55.6	14.3	0.00e+00	0	23	0	1089470464	72	4771
2026-01-12 08:54:56.87	342.08	24.91	-52.3	-54.6	14.7	0.00e+00	0	23	0	1097859072	71	4530
2026-01-12 08:55:00.85	341.70	24.32	-52.1	-54.4	14.7	0.00e+00	0	23	0	1105199104	70	4661
2026-01-12 08:55:04.83	341.34	23.74	-52.6	-55.0	14.3	0.00e+00	0	23	0	1112539136	70	5015
2026-01-12 08:55:08.79	340.99	23.18	-51.8	-53.9	15.0	0.00e+00	0	23	0	1119879168	70	4423
2026-01-12 08:55:12.78	340.65	22.63	-51.6	-53.6	14.9	0.00e+00	0	23	0	1127219200	69	4529
2026-01-12 08:55:16.75	340.33	22.09	-53.2	-56.0	13.9	0.00e+00	0	23	0	1134559232	71	5324
2026-01-12 08:55:20.71	340.02	21.56	-54.1	-57.6	13.0	0.00e+00	0	23	0	1141899264	73	5663
2026-01-12 08:55:24.68	339.72	21.03	-52.6	-55.1	14.4	0.00e+00	0	23	0	1149239296	71	4774
2026-01-12 08:55:28.65	339.43	20.52	-51.8	-54.0	14.9	0.00e+00	0	23	0	1156579328	70	4449
2026-01-12 08:55:32.63	339.14	20.02	-51.4	-53.5	15.0	0.00e+00	0	23	0	1164967936	69	4452
2026-01-12 08:55:36.61	338.87	19.53	-50.9	-52.7	15.2	0.00e+00	0	23	0	1172307968	68	4338
2026-01-12 08:55:40.58	338.61	19.04	-50.5	-52.2	15.3	0.00e+00	0	23	0	1179648000	67	4330
2026-01-12 08:55:44.56	338.35	18.57	-50.7	-52.5	15.1	0.00e+00	0	23	0	1186988032	67	4493
2026-01-12 08:55:48.54	338.11	18.10	-51.1	-53.1	14.8	0.00e+00	0	23	0	1194328064	67	4778
2026-01-12 08:55:52.52	337.87	17.64	-51.9	-54.1	14.6	0.00e+00	0	23	0	1201668096	69	4804
2026-01-12 08:55:56.51	337.64	17.19	-52.5	-55.0	14.2	0.00e+00	0	23	0	1209008128	70	5004
2026-01-12 08:56:00.49	337.41	16.74	-52.9	-55.6	14.0	0.00e+00	0	23	0	1216348160	71	5080
2026-01-12 08:56:04.46	337.20	16.31	-53.4	-56.3	13.7	0.00e+00	0	23	0	1223688192	72	5208
2026-01-12 08:56:08.44	336.99	15.88	-53.0	-55.6	14.1	0.00e+00	0	23	0	1232076800	72	4796
2026-01-12 08:56:12.42	336.78	15.45	-52.4	-54.8	14.5	0.00e+00	0	23	0	1239416832	71	4650
2026-01-12 08:56:16.40	336.58	15.04	-51.8	-54.0	14.8	0.00e+00	0	23	0	1246756864	70	4487
2026-01-12 08:56:20.37	336.39	14.63	-51.7	-53.8	14.8	0.00e+00	0	23	0	1254096896	69	4622
2026-01-12 08:56:24.35	336.21	14.23	-51.6	-53.7	14.8	0.00e+00	0	23	0	1261436928	69	4579
2026-01-12 08:56:28.34	336.02	13.83	-52.0	-54.4	14.4	0.00e+00	0	23	0	1268776960	69	4945
2026-01-12 08:56:32.32	335.85	13.44	-52.3	-54.8	14.2	0.00e+00	0	23	0	1276116992	69	5198
2026-01-12 08:56:36.30	335.68	13.06	-52.6	-55.2	14.1	1.50e-06	0	23	0	1283457024	70	5129
2026-01-12 08:56:40.26	335.51	12.68	-52.2	-54.6	14.4	0.00e+00	0	23	0	1290797056	70	4806
2026-01-12 08:56:44.22	335.35	12.31	-52.2	-54.6	14.4	0.00e+00	0	23	0	1299185664	70	4811
2026-01-12 08:56:48.19	335.19	11.94	-51.9	-54.2	14.7	0.00e+00	0	23	0	1306525696	70	4572
2026-01-12 08:56:52.15	335.04	11.58	-52.0	-54.3	14.6	0.00e+00	0	23	0	1313865728	70	4626
2026-01-12 08:56:56.11	334.89	11.22	-52.1	-54.5	14.4	0.00e+00	0	23	0	1321205760	70	4709
2026-01-12 08:57:00.10	334.75	10.87	-52.2	-54.6	14.4	0.00e+00	0	23	0	1328545792	70	4809
2026-01-12 08:57:04.07	334.61	10.52	-52.8	-55.5	13.8	0.00e+00	0	23	0	1335885824	70	5329
2026-01-12 08:57:08.05	334.47	10.18	-52.7	-55.3	14.0	0.00e+00	0	23	0	1343225856	70	5187
2026-01-12 08:57:12.03	334.34	9.84	-52.8	-55.5	14.0	0.00e+00	0	23	0	1350565888	71	5030
2026-01-12 08:57:16.01	334.21	9.51	-52.9	-55.7	13.8	0.00e+00	0	23	0	1357905920	71	5114
2026-01-12 08:57:19.99	334.08	9.18	-53.0	-55.8	13.7	0.00e+00	0	23	0	1365245952	71	5192
2026-01-12 08:57:23.97	333.95	8.85	-53.2	-56.2	13.5	0.00e+00	0	23	0	1373634560	71	5409
2026-01-12 08:57:27.95	333.83	8.53	-53.1	-56.1	13.5	0.00e+00	0	23	0	1380974592	71	5343
2026-01-12 08:57:31.93	333.72	8.21	-53.1	-56.1	13.5	0.00e+00	0	23	0	1388314624	71	5371
2026-01-12 08:57:35.91	333.60	7.90	-53.1	-56.1	13.5	0.00e+00	0	23	0	1395654656	71	5346
2026-01-12 08:57:39.86	333.49	7.59	-53.2	-56.2	13.4	0.00e+00	0	23	0	1402994688	71	5463
2026-01-12 08:57:43.83	333.38	7.29	-53.5	-56.6	13.2	0.00e+00	0	23	0	1410334720	72	5380
2026-01-12 08:57:47.81	333.27	6.98	-53.6	-56.8	13.1	0.00e+00	0	23	0	1417674752	72	5504
2026-01-12 08:57:51.78	333.17	6.68	-53.4	-56.5	13.2	0.00e+00	0	23	0	1425014784	72	5326
2026-01-12 08:57:55.76	333.07	6.39	-53.5	-56.8	13.1	0.00e+00	0	23	0	1432354816	72	5473
2026-01-12 08:57:59.72	332.97	6.10	-53.8	-57.3	12.6	0.00e+00	0	23	0	1440743424	72	5851
2026-01-12 08:58:03.70	332.87	5.81	-53.6	-57.0	12.9	0.00e+00	0	23	0	1448083456	72	5594
2026-01-12 08:58:07.68	332.77	5.52	-53.6	-57.1	12.7	0.00e+00	0	23	0	1455423488	72	5705
2026-01-12 08:58:11.65	332.68	5.24	-53.8	-57.4	12.6	7.00e-07	0	23	0	1462763520	72	5864
2026-01-12 08:58:15.64	332.59	4.95	-57.9	-73.9	3.8	1.49e+00	0	23	104	1469054976	80	24714
2026-01-12 08:58:19.65	332.50	4.67	-58.8	-74.8	3.8	1.49e+00	0	23	104	1469054976	82	24528
2026-01-12 08:58:23.67	332.41	4.40	-59.2	-75.2	3.8	1.49e+00	0	23	104	1469054976	83	24295
2026-01-12 08:58:27.69	332.33	4.12	-59.3	-75.4	3.8	1.49e+00	0	23	104	1469054976	83	24727
2026-01-12 08:58:31.72	332.24	3.85	-59.6	-75.7	3.8	1.49e+00	0	23	104	1469054976	84	24190
2026-01-12 08:58:35.73	332.16	3.58	-59.7	-75.8	3.8	1.49e+00	0	23	104	1469054976	84	24500
2026-01-12 08:58:39.73	332.08	3.31	-59.6	-75.7	3.8	1.49e+00	0	23	104	1469054976	84	24244
2026-01-12 08:58:43.71	332.00	3.05	-59.6	-75.6	3.8	1.49e+00	0	23	104	1469054976	84	24094
2026-01-12 08:58:47.70	331.93	2.79	-59.6	-75.6	3.8	1.49e+00	0	23	104	1469054976	84	24050
2026-01-12 08:58:51.67	331.85	2.53	-59.5	-75.6	3.8	1.49e+00	0	23	104	1469054976	84	23903
2026-01-12 08:58:55.63	331.78	2.28	-59.5	-75.6	3.8	1.49e+00	0	23	104	1469054976	84	23883
2026-01-12 08:58:59.62	331.71	2.02	-59.5	-75.5	3.8	1.49e+00	0	23	104	1469054976	84	23791

#Closed at: 2026-01-12 08:59:00
#Recorded file [1469 MB]: D:/lorett/data/31004_260112_114445.dat