passes_logs/2026/01/12/R3.2S_Murmansk/R3.2S_Murmansk__20260112_022828_NOAA_20_JPSS-1_rec.log

#Pass ID: 20260112_022828_NOAA 20 (JPSS-1)
#Satellite: NOAA 20 (JPSS-1)
#Configuration: NOAA 20
#almurnet v.1.7.20251203
#Start time: 2026-01-12 02:28:29

#Version: 2.2.20231116
#Station: R3.2S_Murmansk
#Location: 33.079688 lon 68.888172 lat
#TLE: 1 43013U 17073A   26011.59429536  .00000082  00000+0  59704-4 0  9990
#TLE: 2 43013  98.7632 312.5697 0001637  44.2118 315.9188 14.19535307422256

#Time	Az	El	Level	Level2	SNR	BER	BlckErr	Temp	State	Recorded	gain1	gain2
2026-01-12 02:28:29.64	33.69	2.09	-53.9	-70.0	3.8	1.49e+00	0	21	0	0	72	25111
2026-01-12 02:28:33.67	33.53	2.34	-53.9	-70.0	3.8	1.49e+00	0	21	104	0	72	25070
2026-01-12 02:28:37.71	33.38	2.59	-53.9	-70.0	3.8	1.49e+00	0	21	104	0	72	25143
2026-01-12 02:28:41.74	33.22	2.85	-53.9	-70.0	3.8	1.49e+00	0	21	104	0	72	25174
2026-01-12 02:28:45.78	33.05	3.10	-53.9	-70.0	3.8	1.49e+00	0	21	104	0	72	25105
2026-01-12 02:28:49.82	32.89	3.36	-53.9	-70.0	3.8	1.49e+00	0	21	104	0	72	25175
2026-01-12 02:28:53.86	32.72	3.62	-53.9	-70.0	3.8	1.49e+00	0	21	104	0	72	25240
2026-01-12 02:28:57.89	32.55	3.88	-53.9	-70.0	3.8	1.49e+00	0	22	104	0	72	25216
2026-01-12 02:29:01.93	32.37	4.15	-53.9	-70.0	3.8	1.49e+00	0	21	104	0	72	25201
2026-01-12 02:29:05.96	32.19	4.41	-53.9	-70.0	3.8	1.49e+00	0	22	104	0	72	25163
2026-01-12 02:29:10.00	32.01	4.68	-53.9	-70.0	3.8	1.49e+00	0	22	104	0	72	25232
2026-01-12 02:29:14.03	31.82	4.95	-53.9	-70.0	3.8	1.49e+00	0	22	104	0	72	25262
2026-01-12 02:29:18.06	31.63	5.23	-53.9	-70.1	3.8	1.49e+00	0	22	104	0	73	24016
2026-01-12 02:29:22.10	31.43	5.50	-54.0	-70.1	3.8	1.49e+00	0	22	104	0	73	23942
2026-01-12 02:29:26.13	31.24	5.78	-54.0	-70.1	3.8	1.49e+00	0	22	104	0	73	23995
2026-01-12 02:29:30.16	31.03	6.06	-54.0	-70.1	3.8	1.49e+00	0	22	104	0	73	23991
2026-01-12 02:29:34.20	30.83	6.35	-54.0	-70.1	3.8	1.49e+00	0	22	104	0	73	23939
2026-01-12 02:29:38.24	30.61	6.64	-54.0	-70.1	3.8	1.49e+00	0	22	104	0	73	24071
2026-01-12 02:29:42.27	30.40	6.93	-54.0	-70.1	3.8	1.49e+00	0	22	104	0	73	23983
2026-01-12 02:29:46.30	30.18	7.22	-54.0	-70.1	3.8	1.49e+00	0	22	104	0	73	24078
2026-01-12 02:29:50.34	29.95	7.51	-54.0	-70.1	3.8	1.49e+00	0	22	104	0	73	23995
2026-01-12 02:29:54.38	29.72	7.81	-54.0	-70.1	3.8	1.49e+00	0	22	104	0	73	24045
2026-01-12 02:29:58.42	29.48	8.11	-54.0	-70.1	3.8	1.49e+00	0	22	104	0	73	24075
2026-01-12 02:30:02.45	29.24	8.42	-54.0	-70.1	3.8	1.49e+00	0	22	104	0	73	24016
2026-01-12 02:30:06.49	29.00	8.73	-54.0	-70.1	3.8	1.49e+00	0	22	104	0	73	24070
2026-01-12 02:30:10.53	28.74	9.04	-54.0	-70.1	3.8	1.49e+00	0	22	104	0	73	24008
2026-01-12 02:30:14.56	28.49	9.35	-54.0	-70.1	3.8	1.49e+00	0	22	104	0	73	24029
2026-01-12 02:30:18.60	28.22	9.67	-54.0	-70.1	3.8	1.49e+00	0	22	104	0	73	24040
2026-01-12 02:30:22.63	27.95	9.99	-54.0	-70.1	3.8	1.49e+00	0	22	104	0	73	24098
2026-01-12 02:30:26.67	27.68	10.32	-54.0	-70.1	3.8	1.49e+00	0	23	104	0	73	24067
2026-01-12 02:30:30.71	27.39	10.65	-54.0	-70.2	3.8	1.49e+00	0	23	104	0	73	24141
2026-01-12 02:30:34.75	27.10	10.98	-54.0	-70.1	3.8	1.49e+00	0	23	104	0	73	24096
2026-01-12 02:30:38.78	26.81	11.32	-54.0	-70.1	3.8	1.49e+00	0	23	104	0	73	24099
2026-01-12 02:30:42.82	26.50	11.66	-54.0	-70.1	3.8	1.49e+00	0	23	104	0	73	24104
2026-01-12 02:30:46.86	26.19	12.00	-54.0	-70.1	3.8	1.49e+00	0	23	104	0	73	24075
2026-01-12 02:30:50.89	25.87	12.35	-54.0	-70.1	3.8	1.49e+00	0	23	104	0	73	24081
2026-01-12 02:30:54.93	25.54	12.70	-54.0	-70.1	3.8	1.49e+00	0	23	104	0	73	24070
2026-01-12 02:30:58.97	25.21	13.06	-54.0	-70.1	3.8	1.49e+00	0	23	104	0	73	24124
2026-01-12 02:31:03.01	24.86	13.42	-54.0	-70.2	3.8	1.49e+00	0	23	104	0	73	24136
2026-01-12 02:31:07.05	24.51	13.78	-54.0	-70.2	3.8	1.49e+00	0	23	104	0	73	24146
2026-01-12 02:31:11.09	24.14	14.15	-54.0	-70.1	3.8	1.49e+00	0	23	104	0	73	24089
2026-01-12 02:31:15.12	23.77	14.53	-54.0	-70.1	3.8	1.49e+00	0	23	104	0	73	24124
2026-01-12 02:31:19.15	23.39	14.90	-54.0	-70.1	3.8	1.49e+00	0	23	104	0	73	24053
2026-01-12 02:31:23.18	23.00	15.29	-54.0	-70.2	3.8	1.49e+00	0	23	104	0	73	24134
2026-01-12 02:31:27.22	22.60	15.67	-54.0	-70.1	3.8	1.49e+00	0	23	104	0	73	24130
2026-01-12 02:31:31.26	22.18	16.07	-54.0	-70.2	3.8	1.49e+00	0	23	104	0	73	24154
2026-01-12 02:31:35.30	21.76	16.46	-54.0	-70.1	3.8	1.49e+00	0	23	104	0	73	24118
2026-01-12 02:31:39.33	21.32	16.86	-54.0	-70.2	3.8	1.49e+00	0	23	104	0	73	24183
2026-01-12 02:31:43.36	20.87	17.27	-54.0	-70.2	3.8	1.49e+00	0	23	104	0	73	24175
2026-01-12 02:31:47.39	20.41	17.68	-54.0	-70.2	3.8	1.49e+00	0	23	104	0	73	24151
2026-01-12 02:31:51.43	19.93	18.10	-54.0	-70.2	3.8	1.49e+00	0	23	104	0	73	24148
2026-01-12 02:31:55.47	19.44	18.52	-54.0	-70.2	3.8	1.49e+00	0	23	104	0	73	24164
2026-01-12 02:31:59.50	18.94	18.95	-54.0	-70.2	3.8	1.49e+00	0	23	104	0	73	24145
2026-01-12 02:32:03.53	18.42	19.38	-54.0	-70.2	3.8	1.49e+00	0	23	104	0	73	24160
2026-01-12 02:32:07.57	17.89	19.81	-54.0	-70.2	3.8	1.49e+00	0	23	104	0	73	24177
2026-01-12 02:32:11.60	17.34	20.25	-54.0	-70.2	3.8	1.49e+00	0	23	104	0	73	24154
2026-01-12 02:32:15.63	16.77	20.70	-54.0	-70.2	3.8	1.49e+00	0	23	104	0	73	24199
2026-01-12 02:32:19.66	16.19	21.15	-54.0	-70.2	3.8	1.49e+00	0	23	104	0	73	24152
2026-01-12 02:32:23.69	15.59	21.60	-54.0	-70.2	3.8	1.49e+00	0	23	104	0	73	24235
2026-01-12 02:32:27.73	14.97	22.07	-54.0	-70.2	3.8	1.49e+00	0	23	104	0	73	24157
2026-01-12 02:32:31.76	14.34	22.53	-54.0	-70.2	3.8	1.49e+00	0	23	104	0	73	24201
2026-01-12 02:32:35.80	13.68	23.00	-54.0	-70.2	3.8	1.49e+00	0	23	104	0	73	24198
2026-01-12 02:32:39.84	13.00	23.47	-54.0	-70.2	3.8	1.49e+00	0	23	104	0	73	24219
2026-01-12 02:32:43.88	12.30	23.95	-54.0	-70.2	3.8	1.49e+00	0	23	104	0	73	24226
2026-01-12 02:32:47.91	11.58	24.44	-54.1	-70.2	3.8	1.49e+00	0	23	104	0	73	24186
2026-01-12 02:32:51.94	10.83	24.92	-54.0	-70.2	3.8	1.49e+00	0	23	104	0	73	24217
2026-01-12 02:32:55.98	10.06	25.41	-54.0	-70.2	3.8	1.49e+00	0	23	104	0	73	24240
2026-01-12 02:33:00.01	9.27	25.90	-54.0	-70.2	3.8	1.49e+00	0	23	104	0	73	24175
2026-01-12 02:33:04.04	8.45	26.40	-54.1	-70.2	3.8	1.49e+00	0	23	104	0	73	24156
2026-01-12 02:33:08.07	7.61	26.90	-54.1	-70.2	3.8	1.49e+00	0	23	104	0	73	24145
2026-01-12 02:33:12.11	6.73	27.40	-54.1	-70.2	3.8	1.49e+00	0	23	104	0	73	24259
2026-01-12 02:33:16.15	5.83	27.90	-54.1	-70.2	3.8	1.49e+00	0	23	104	0	73	24210
2026-01-12 02:33:20.18	4.90	28.40	-54.1	-70.2	3.8	1.49e+00	0	23	104	0	73	24216
2026-01-12 02:33:24.21	3.94	28.90	-54.1	-70.2	3.8	1.49e+00	0	23	104	0	73	24247
2026-01-12 02:33:28.25	2.95	29.41	-54.0	-70.2	3.8	1.49e+00	0	23	104	0	73	24202
2026-01-12 02:33:32.28	1.93	29.91	-54.0	-70.2	3.8	1.49e+00	0	23	104	0	73	24196
2026-01-12 02:33:36.33	0.87	30.41	-54.0	-70.2	3.8	1.49e+00	0	23	104	0	73	24206
2026-01-12 02:33:40.36	359.78	30.90	-54.1	-70.2	3.8	1.49e+00	0	23	104	0	73	24234
2026-01-12 02:33:44.39	358.66	31.40	-54.1	-70.2	3.8	1.49e+00	0	23	104	0	73	24235
2026-01-12 02:33:48.43	357.50	31.88	-54.1	-70.2	3.8	1.49e+00	0	23	104	0	73	24228
2026-01-12 02:33:52.47	356.31	32.37	-54.1	-70.2	3.8	1.49e+00	0	23	104	0	73	24198
2026-01-12 02:33:56.52	355.07	32.84	-54.0	-70.2	3.8	1.49e+00	0	23	104	0	73	24145
2026-01-12 02:34:00.54	353.81	33.31	-54.1	-70.2	3.8	1.49e+00	0	23	104	0	73	24182
2026-01-12 02:34:04.58	352.51	33.77	-54.0	-70.2	3.8	1.49e+00	0	23	104	0	73	24189
2026-01-12 02:34:08.61	351.17	34.22	-54.1	-70.2	3.8	1.49e+00	0	23	104	0	73	24217
2026-01-12 02:34:12.64	349.79	34.65	-54.1	-70.2	3.8	1.49e+00	0	23	104	0	73	24243
2026-01-12 02:34:16.68	348.38	35.07	-54.1	-70.2	3.8	1.49e+00	0	23	104	0	73	24248
2026-01-12 02:34:20.71	346.93	35.48	-54.0	-70.2	3.8	1.49e+00	0	23	104	0	73	24194
2026-01-12 02:34:24.75	345.44	35.87	-54.1	-70.2	3.8	1.49e+00	0	23	104	0	73	24233
2026-01-12 02:34:28.77	343.92	36.24	-54.0	-70.2	3.8	1.49e+00	0	23	104	0	73	24156
2026-01-12 02:34:32.80	342.37	36.59	-54.1	-70.2	3.8	1.49e+00	0	23	104	0	73	24203
2026-01-12 02:34:36.84	340.77	36.92	-54.1	-70.2	3.8	1.49e+00	0	23	104	0	73	24213
2026-01-12 02:34:40.88	339.15	37.23	-54.0	-70.2	3.8	1.49e+00	0	23	104	0	73	24240
2026-01-12 02:34:44.91	337.50	37.52	-54.1	-70.2	3.8	1.49e+00	0	23	104	0	73	24276
2026-01-12 02:34:48.94	335.82	37.78	-54.1	-70.2	3.8	1.49e+00	0	23	104	0	73	24298
2026-01-12 02:34:52.98	334.11	38.01	-54.1	-70.2	3.8	1.49e+00	0	23	104	0	73	24262
2026-01-12 02:34:57.01	332.39	38.21	-54.1	-70.2	3.8	1.49e+00	0	23	104	0	73	24251
2026-01-12 02:35:01.04	330.64	38.39	-54.1	-70.2	3.8	1.49e+00	0	23	104	0	73	24276
2026-01-12 02:35:05.07	328.87	38.54	-54.1	-70.2	3.8	1.49e+00	0	23	104	0	73	24283
2026-01-12 02:35:09.11	327.09	38.65	-54.1	-70.2	3.8	1.49e+00	0	23	104	0	73	24301
2026-01-12 02:35:13.14	325.30	38.73	-54.1	-70.2	3.8	1.49e+00	0	23	104	0	73	24287
2026-01-12 02:35:17.18	323.50	38.78	-54.1	-70.2	3.8	1.49e+00	0	23	104	0	73	24333
2026-01-12 02:35:21.21	321.69	38.80	-54.1	-70.2	3.8	1.49e+00	0	23	104	0	73	24271
2026-01-12 02:35:25.25	319.89	38.79	-54.1	-70.2	3.8	1.49e+00	0	23	104	0	73	24227
2026-01-12 02:35:29.28	318.09	38.74	-54.1	-70.2	3.8	1.49e+00	0	23	104	0	73	24191
2026-01-12 02:35:33.32	316.29	38.67	-54.0	-70.2	3.8	1.49e+00	0	23	104	0	73	24279
2026-01-12 02:35:37.36	314.50	38.56	-54.0	-70.2	3.8	1.49e+00	0	23	104	0	73	24178
2026-01-12 02:35:41.40	312.73	38.42	-54.1	-70.2	3.8	1.49e+00	0	23	104	0	73	24233
2026-01-12 02:35:45.43	310.98	38.24	-54.1	-70.2	3.8	1.49e+00	0	23	104	0	73	24278
2026-01-12 02:35:49.46	309.25	38.05	-54.0	-70.2	3.8	1.49e+00	0	23	104	0	73	24302
2026-01-12 02:35:53.50	307.53	37.82	-54.0	-70.2	3.8	1.49e+00	0	23	104	0	73	24239
2026-01-12 02:35:57.54	305.85	37.56	-54.1	-70.2	3.8	1.49e+00	0	23	104	0	73	24221
2026-01-12 02:36:01.57	304.19	37.28	-54.0	-70.2	3.8	1.49e+00	0	23	104	0	73	24262
2026-01-12 02:36:05.60	302.56	36.97	-54.1	-70.2	3.8	1.49e+00	0	23	104	0	73	24332
2026-01-12 02:36:09.64	300.96	36.65	-54.0	-70.2	3.8	1.49e+00	0	23	104	0	73	24220
2026-01-12 02:36:13.67	299.40	36.30	-54.1	-70.2	3.8	1.49e+00	0	23	104	0	73	24226
2026-01-12 02:36:17.70	297.87	35.93	-54.1	-70.2	3.8	1.49e+00	0	23	104	0	73	24250
2026-01-12 02:36:21.74	296.38	35.54	-54.1	-70.2	3.8	1.49e+00	0	23	104	0	73	24260
2026-01-12 02:36:25.77	294.92	35.14	-54.1	-70.2	3.8	1.49e+00	0	23	104	0	73	24256
2026-01-12 02:36:29.81	293.50	34.71	-54.1	-70.2	3.8	1.49e+00	0	23	104	0	73	24290
2026-01-12 02:36:33.84	292.11	34.28	-54.1	-70.2	3.8	1.49e+00	0	23	104	0	73	24246
2026-01-12 02:36:37.87	290.77	33.84	-54.1	-70.2	3.8	1.49e+00	0	23	104	0	73	24277
2026-01-12 02:36:41.91	289.45	33.38	-54.1	-70.2	3.8	1.49e+00	0	23	104	0	73	24290
2026-01-12 02:36:45.94	288.18	32.91	-54.1	-70.2	3.8	1.49e+00	0	23	104	0	73	24271
2026-01-12 02:36:49.97	286.95	32.44	-54.1	-70.2	3.8	1.49e+00	0	23	104	0	73	24194
2026-01-12 02:36:54.01	285.74	31.95	-54.0	-70.2	3.8	1.49e+00	0	23	104	0	73	24202
2026-01-12 02:36:58.05	284.58	31.46	-54.1	-70.2	3.8	1.49e+00	0	23	104	0	73	24283
2026-01-12 02:37:02.08	283.45	30.97	-54.1	-70.2	3.8	1.49e+00	0	23	104	0	73	24291
2026-01-12 02:37:06.12	282.35	30.47	-54.1	-70.2	3.8	1.49e+00	0	23	104	0	73	24301
2026-01-12 02:37:10.15	281.29	29.97	-54.1	-70.2	3.8	1.49e+00	0	23	104	0	73	24278
2026-01-12 02:37:14.19	280.26	29.47	-54.1	-70.2	3.8	1.49e+00	0	23	104	0	73	24259
2026-01-12 02:37:18.23	279.26	28.97	-54.1	-70.2	3.8	1.49e+00	0	23	104	0	73	24250
2026-01-12 02:37:22.26	278.29	28.46	-54.1	-70.2	3.8	1.49e+00	0	23	104	0	73	24330
2026-01-12 02:37:26.30	277.35	27.96	-54.1	-70.2	3.8	1.49e+00	0	23	104	0	73	24282
2026-01-12 02:37:30.33	276.45	27.46	-54.1	-70.2	3.8	1.49e+00	0	23	104	0	73	24252
2026-01-12 02:37:34.36	275.57	26.96	-54.1	-70.2	3.8	1.49e+00	0	23	104	0	73	24242
2026-01-12 02:37:38.39	274.72	26.46	-54.1	-70.2	3.8	1.49e+00	0	23	104	0	73	24380
2026-01-12 02:37:42.43	273.89	25.96	-54.1	-70.2	3.8	1.49e+00	0	23	104	0	73	24239
2026-01-12 02:37:46.47	273.09	25.47	-54.1	-70.2	3.8	1.49e+00	0	23	104	0	73	24232
2026-01-12 02:37:50.50	272.32	24.98	-54.1	-70.2	3.8	1.49e+00	0	23	104	0	73	24257
2026-01-12 02:37:54.54	271.57	24.49	-54.0	-70.2	3.8	1.49e+00	0	23	104	0	73	24364
2026-01-12 02:37:58.58	270.84	24.00	-54.1	-70.2	3.8	1.49e+00	0	23	104	0	73	24283
2026-01-12 02:38:02.61	270.13	23.52	-54.1	-70.2	3.8	1.49e+00	0	23	104	0	73	24236
2026-01-12 02:38:06.65	269.45	23.05	-54.1	-70.2	3.8	1.49e+00	0	23	104	0	73	24278
2026-01-12 02:38:10.69	268.79	22.58	-54.0	-70.2	3.8	1.49e+00	0	23	104	0	73	24285
2026-01-12 02:38:14.72	268.14	22.11	-54.0	-70.2	3.8	1.49e+00	0	23	104	0	73	24296
2026-01-12 02:38:18.75	267.52	21.65	-54.1	-70.2	3.8	1.49e+00	0	23	104	0	73	24299
2026-01-12 02:38:22.79	266.92	21.19	-54.0	-70.2	3.8	1.49e+00	0	23	104	0	73	24229
2026-01-12 02:38:26.82	266.33	20.74	-54.0	-70.2	3.8	1.49e+00	0	23	104	0	73	24276
2026-01-12 02:38:30.86	265.76	20.29	-54.1	-70.2	3.8	1.49e+00	0	23	104	0	73	24308
2026-01-12 02:38:34.89	265.21	19.85	-54.1	-70.2	3.8	1.49e+00	0	23	104	0	73	24262
2026-01-12 02:38:38.93	264.67	19.41	-54.0	-70.2	3.8	1.49e+00	0	23	104	0	73	24322
2026-01-12 02:38:42.96	264.15	18.98	-54.1	-70.2	3.8	1.49e+00	0	23	104	0	73	24308
2026-01-12 02:38:46.99	263.64	18.55	-54.0	-70.2	3.8	1.49e+00	0	23	104	0	73	24293
2026-01-12 02:38:51.02	263.15	18.13	-54.1	-70.2	3.8	1.49e+00	0	23	104	0	73	24266
2026-01-12 02:38:55.06	262.67	17.71	-54.1	-70.2	3.8	1.49e+00	0	23	104	0	73	24304
2026-01-12 02:38:59.09	262.20	17.30	-54.1	-70.2	3.8	1.49e+00	0	23	104	0	73	24242
2026-01-12 02:39:03.12	261.75	16.89	-54.0	-70.2	3.8	1.49e+00	0	23	104	0	73	24273
2026-01-12 02:39:07.16	261.31	16.49	-54.0	-70.2	3.8	1.49e+00	0	23	104	0	73	24354
2026-01-12 02:39:11.20	260.88	16.09	-54.0	-70.2	3.8	1.49e+00	0	23	104	0	73	24259
2026-01-12 02:39:15.23	260.46	15.69	-54.1	-70.2	3.8	1.49e+00	0	23	104	0	73	24238
2026-01-12 02:39:19.27	260.05	15.30	-54.0	-70.2	3.8	1.49e+00	0	23	104	0	73	24273
2026-01-12 02:39:23.30	259.66	14.92	-54.0	-70.2	3.8	1.49e+00	0	23	104	0	73	24298
2026-01-12 02:39:27.32	259.28	14.54	-54.0	-70.2	3.8	1.49e+00	0	23	104	0	73	24244
2026-01-12 02:39:31.36	258.90	14.17	-54.0	-70.2	3.8	1.49e+00	0	23	104	0	73	24226
2026-01-12 02:39:35.39	258.53	13.80	-54.0	-70.2	3.8	1.49e+00	0	23	104	0	73	24235
2026-01-12 02:39:39.43	258.18	13.43	-54.0	-70.2	3.8	1.49e+00	0	23	104	0	73	24361
2026-01-12 02:39:43.47	257.83	13.07	-54.0	-70.2	3.8	1.49e+00	0	23	104	0	73	24253
2026-01-12 02:39:47.50	257.49	12.71	-54.0	-70.2	3.8	1.49e+00	0	23	104	0	73	24220
2026-01-12 02:39:51.52	257.16	12.36	-54.0	-70.2	3.8	1.49e+00	0	23	104	0	73	24329
2026-01-12 02:39:55.56	256.84	12.01	-54.0	-70.2	3.8	1.49e+00	0	23	104	0	73	24327
2026-01-12 02:39:59.59	256.52	11.67	-54.0	-70.2	3.8	1.49e+00	0	23	104	0	73	24348
2026-01-12 02:40:03.62	256.22	11.32	-54.0	-70.2	3.8	1.49e+00	0	23	104	0	73	24315
2026-01-12 02:40:07.65	255.92	10.99	-54.0	-70.2	3.8	1.49e+00	0	23	104	0	73	24269
2026-01-12 02:40:11.84	255.61	10.64	-54.1	-70.2	3.8	1.49e+00	0	23	104	0	73	24258
2026-01-12 02:40:15.88	255.33	10.31	-54.1	-70.2	3.8	1.49e+00	0	23	104	0	73	24312
2026-01-12 02:40:19.92	255.05	9.99	-54.1	-70.2	3.8	1.49e+00	0	23	104	0	73	24327
2026-01-12 02:40:23.95	254.77	9.66	-54.1	-70.2	3.8	1.49e+00	0	23	104	0	73	24225
2026-01-12 02:40:27.99	254.51	9.34	-54.1	-70.2	3.8	1.49e+00	0	23	104	0	73	24218
2026-01-12 02:40:32.02	254.25	9.03	-54.0	-70.2	3.8	1.49e+00	0	23	104	0	73	24307
2026-01-12 02:40:36.06	253.99	8.72	-54.1	-70.2	3.8	1.49e+00	0	23	104	0	73	24340
2026-01-12 02:40:40.10	253.74	8.41	-54.1	-70.2	3.8	1.49e+00	0	23	104	0	73	24307
2026-01-12 02:40:44.14	253.50	8.10	-54.0	-70.2	3.8	1.49e+00	0	23	104	0	73	24326
2026-01-12 02:40:48.17	253.26	7.80	-54.0	-70.2	3.8	1.49e+00	0	23	104	0	73	24266
2026-01-12 02:40:52.19	253.03	7.50	-54.0	-70.2	3.8	1.49e+00	0	23	104	0	73	24230
2026-01-12 02:40:56.23	252.80	7.20	-54.0	-70.2	3.8	1.49e+00	0	23	104	0	73	24252
2026-01-12 02:41:00.27	252.58	6.91	-54.0	-70.2	3.8	1.49e+00	0	23	104	0	73	24329
2026-01-12 02:41:04.29	252.36	6.62	-54.1	-70.2	3.8	1.49e+00	0	23	104	0	73	24259
2026-01-12 02:41:08.32	252.14	6.33	-54.1	-70.2	3.8	1.49e+00	0	23	104	0	73	24270
2026-01-12 02:41:12.35	251.93	6.05	-54.0	-70.2	3.8	1.49e+00	0	23	104	0	73	24215
2026-01-12 02:41:16.39	251.73	5.77	-54.0	-70.2	3.8	1.49e+00	0	23	104	0	73	24316
2026-01-12 02:41:20.43	251.53	5.49	-54.0	-70.2	3.8	1.49e+00	0	23	104	0	73	24257
2026-01-12 02:41:24.46	251.33	5.21	-54.1	-70.2	3.8	1.49e+00	0	23	104	0	73	24277
2026-01-12 02:41:28.50	251.14	4.93	-54.0	-70.2	3.8	1.49e+00	0	23	104	0	73	24312
2026-01-12 02:41:32.54	250.95	4.66	-54.0	-70.2	3.8	1.49e+00	0	23	104	0	73	24265
2026-01-12 02:41:36.57	250.76	4.39	-54.1	-70.2	3.8	1.49e+00	0	23	104	0	73	24269
2026-01-12 02:41:40.60	250.58	4.13	-54.1	-70.2	3.8	1.49e+00	0	23	104	0	73	24347
2026-01-12 02:41:44.63	250.40	3.86	-54.1	-70.2	3.8	1.49e+00	0	23	104	0	73	24201
2026-01-12 02:41:48.67	250.22	3.60	-54.0	-70.2	3.8	1.49e+00	0	23	104	0	73	24272
2026-01-12 02:41:52.69	250.05	3.34	-54.1	-70.2	3.8	1.49e+00	0	23	104	0	73	24333
2026-01-12 02:41:56.72	249.88	3.08	-54.0	-70.2	3.8	1.49e+00	0	23	104	0	73	24325
2026-01-12 02:42:00.76	249.72	2.82	-54.1	-70.2	3.8	1.49e+00	0	23	104	0	73	24328
2026-01-12 02:42:04.79	249.56	2.57	-54.0	-70.2	3.8	1.49e+00	0	23	104	0	73	24296
2026-01-12 02:42:08.82	249.40	2.32	-54.1	-70.2	3.8	1.49e+00	0	23	104	0	73	24249
2026-01-12 02:42:12.86	249.24	2.07	-54.0	-70.2	3.8	1.49e+00	0	23	104	0	73	24323

#Closed at: 2026-01-12 02:42:15
#Recorded file [0 MB]: D:/lorett/data/31004_260112_052829.dat