passes_logs/2026/01/12/R3.2S_Murmansk/R3.2S_Murmansk__20260112_222807_SUOMI_NPP_rec.log

#Pass ID: 20260112_222807_SUOMI NPP
#Satellite: SUOMI NPP
#Configuration: NPP
#almurnet v.1.7.20251203
#Start time: 2026-01-12 22:28:08

#Version: 2.2.20231116
#Station: R3.2S_Murmansk
#Location: 33.079688 lon 68.888172 lat
#TLE: 1 37849U 11061A   26012.28456845  .00000093  00000+0  65163-4 0  9999
#TLE: 2 37849  98.7807 314.3566 0002508  68.3553 291.7890 14.19524725736322

#Time	Az	El	Level	Level2	SNR	BER	BlckErr	Temp	State	Recorded	gain1	gain2
2026-01-12 22:28:08.06	18.98	2.04	-57.1	-73.0	3.8	1.49e+00	0	20	0	0	80	22447
2026-01-12 22:28:12.04	19.26	2.26	-57.1	-73.0	3.8	1.49e+00	0	20	104	0	79	23653
2026-01-12 22:28:16.04	19.54	2.48	-57.1	-73.1	3.8	1.49e+00	0	20	104	0	79	23915
2026-01-12 22:28:20.02	19.82	2.71	-57.1	-73.0	3.8	1.49e+00	0	21	104	0	79	23840
2026-01-12 22:28:24.03	20.11	2.93	-57.1	-72.7	3.8	1.49e+00	0	21	104	0	79	22917
2026-01-12 22:28:28.01	20.40	3.16	-57.1	-71.6	3.8	1.49e+00	0	21	104	0	79	20241
2026-01-12 22:28:31.99	20.69	3.39	-57.1	-71.9	3.8	1.49e+00	0	21	104	0	79	20813
2026-01-12 22:28:35.99	20.99	3.62	-57.0	-69.4	4.2	1.42e+00	0	21	0	0	79	15669
2026-01-12 22:28:39.97	21.30	3.84	-56.8	-67.4	5.0	8.39e-01	0	21	0	5242880	79	12518
2026-01-12 22:28:43.95	21.60	4.08	-56.4	-64.2	7.3	2.23e-01	0	21	0	12582912	79	8585
2026-01-12 22:28:47.94	21.92	4.31	-54.3	-58.0	12.4	8.69e-05	0	21	0	19922944	75	5324
2026-01-12 22:28:51.93	22.24	4.54	-53.5	-56.7	13.3	0.00e+00	0	21	0	28311552	73	5109
2026-01-12 22:28:55.91	22.56	4.78	-54.4	-58.4	11.9	1.14e-05	0	21	0	35651584	73	6203
2026-01-12 22:28:59.91	22.89	5.01	-56.2	-63.3	8.1	3.02e-02	0	21	0	42991616	77	8675
2026-01-12 22:29:03.90	23.22	5.25	-53.7	-56.8	13.3	1.04e-02	0	21	0	50331648	74	4923
2026-01-12 22:29:07.90	23.56	5.49	-53.8	-57.0	13.2	0.00e+00	0	21	0	57671680	74	5020
2026-01-12 22:29:11.90	23.90	5.73	-53.2	-56.0	13.8	0.00e+00	0	22	0	65011712	73	4740
2026-01-12 22:29:15.89	24.25	5.98	-53.1	-55.8	13.9	0.00e+00	0	22	0	72351744	72	4915
2026-01-12 22:29:19.88	24.60	6.22	-53.2	-55.9	13.8	0.00e+00	0	22	0	80740352	72	4949
2026-01-12 22:29:23.86	24.96	6.46	-53.2	-55.9	13.8	0.00e+00	0	22	0	88080384	72	4968
2026-01-12 22:29:27.85	25.33	6.71	-53.2	-56.0	13.8	0.00e+00	0	22	0	95420416	72	5012
2026-01-12 22:29:31.83	25.70	6.96	-52.7	-55.2	14.3	0.00e+00	0	22	0	102760448	72	4568
2026-01-12 22:29:35.82	26.08	7.21	-52.5	-54.9	14.4	0.00e+00	0	22	0	110100480	71	4695
2026-01-12 22:29:39.80	26.46	7.46	-52.3	-54.5	14.6	0.00e+00	0	22	0	117440512	71	4477
2026-01-12 22:29:43.77	26.85	7.71	-52.4	-54.7	14.6	0.00e+00	0	22	0	124780544	71	4564
2026-01-12 22:29:47.73	27.24	7.96	-52.5	-54.8	14.5	0.00e+00	0	22	0	132120576	71	4607
2026-01-12 22:29:51.70	27.64	8.21	-52.7	-55.1	14.2	0.00e+00	0	22	0	140509184	71	4793
2026-01-12 22:29:55.68	28.05	8.47	-52.9	-55.5	14.0	0.00e+00	0	22	0	147849216	71	4994
2026-01-12 22:29:59.67	28.47	8.73	-53.2	-55.9	13.8	0.00e+00	0	22	0	155189248	71	5244
2026-01-12 22:30:03.67	28.89	8.99	-53.0	-55.5	14.0	0.00e+00	0	22	0	162529280	71	5016
2026-01-12 22:30:07.65	29.32	9.25	-52.9	-55.4	14.1	0.00e+00	0	22	0	169869312	71	4982
2026-01-12 22:30:11.64	29.76	9.51	-52.8	-55.2	14.2	0.00e+00	0	22	0	177209344	71	4842
2026-01-12 22:30:15.63	30.21	9.77	-52.6	-54.9	14.4	0.00e+00	0	22	0	184549376	71	4705
2026-01-12 22:30:19.62	30.66	10.04	-52.4	-54.6	14.7	0.00e+00	0	22	0	191889408	71	4500
2026-01-12 22:30:23.60	31.12	10.30	-52.3	-54.5	14.5	0.00e+00	0	22	0	200278016	70	4740
2026-01-12 22:30:27.60	31.59	10.57	-52.1	-54.2	14.7	0.00e+00	0	22	0	207618048	70	4558
2026-01-12 22:30:31.61	32.07	10.84	-51.8	-53.8	14.9	0.00e+00	0	22	0	214958080	70	4368
2026-01-12 22:30:35.59	32.56	11.11	-51.8	-53.7	15.0	0.00e+00	0	22	0	222298112	70	4326
2026-01-12 22:30:39.57	33.05	11.38	-51.9	-53.9	14.9	0.00e+00	0	22	0	229638144	70	4405
2026-01-12 22:30:43.55	33.56	11.65	-51.9	-54.0	14.9	0.00e+00	0	22	0	236978176	70	4443
2026-01-12 22:30:47.53	34.07	11.93	-52.0	-54.0	14.9	0.00e+00	0	22	0	244318208	70	4481
2026-01-12 22:30:51.52	34.59	12.20	-51.8	-53.8	15.0	0.00e+00	0	22	0	252706816	70	4352
2026-01-12 22:30:55.52	35.12	12.48	-51.8	-53.8	15.0	0.00e+00	0	22	0	260046848	70	4368
2026-01-12 22:30:59.51	35.67	12.75	-52.0	-54.0	14.9	0.00e+00	0	22	0	267386880	70	4469
2026-01-12 22:31:03.48	36.21	13.03	-51.5	-53.4	15.1	0.00e+00	0	22	0	274726912	69	4432
2026-01-12 22:31:07.48	36.78	13.31	-51.3	-53.1	15.2	0.00e+00	0	22	0	282066944	69	4288
2026-01-12 22:31:11.47	37.35	13.58	-51.0	-52.8	15.2	0.00e+00	0	22	0	289406976	68	4364
2026-01-12 22:31:15.47	37.93	13.86	-51.3	-53.1	15.1	0.00e+00	0	22	0	296747008	68	4518
2026-01-12 22:31:19.46	38.53	14.14	-51.3	-53.1	15.1	0.00e+00	0	22	0	304087040	68	4518
2026-01-12 22:31:23.46	39.13	14.42	-51.3	-53.2	15.0	0.00e+00	0	22	0	312475648	68	4575
2026-01-12 22:31:27.46	39.75	14.70	-51.6	-53.6	14.8	0.00e+00	0	22	0	319815680	68	4796
2026-01-12 22:31:31.46	40.38	14.99	-51.5	-53.3	14.9	0.00e+00	0	22	0	327155712	68	4651
2026-01-12 22:31:35.45	41.02	15.27	-51.4	-53.3	15.0	0.00e+00	0	22	0	334495744	68	4645
2026-01-12 22:31:39.43	41.66	15.55	-51.4	-53.2	15.0	0.00e+00	0	22	0	341835776	68	4585
2026-01-12 22:31:43.41	42.32	15.82	-51.1	-52.9	15.2	0.00e+00	0	22	0	349175808	68	4392
2026-01-12 22:31:47.40	43.00	16.10	-51.1	-52.9	15.2	0.00e+00	0	22	0	356515840	68	4393
2026-01-12 22:31:51.38	43.68	16.38	-51.0	-52.7	15.3	0.00e+00	0	22	0	364904448	68	4321
2026-01-12 22:31:55.36	44.38	16.66	-51.1	-52.8	15.2	0.00e+00	0	22	0	372244480	68	4381
2026-01-12 22:31:59.35	45.09	16.94	-51.3	-53.1	15.1	0.00e+00	0	22	0	379584512	68	4523
2026-01-12 22:32:03.37	45.82	17.22	-51.0	-52.8	15.2	0.00e+00	0	22	0	386924544	68	4366
2026-01-12 22:32:07.34	46.55	17.49	-51.3	-53.1	15.1	0.00e+00	0	22	0	394264576	68	4505
2026-01-12 22:32:11.34	47.31	17.77	-51.4	-53.2	15.0	0.00e+00	0	22	0	401604608	68	4587
2026-01-12 22:32:15.34	48.07	18.04	-51.1	-52.9	15.2	0.00e+00	0	22	0	408944640	68	4419
2026-01-12 22:32:19.34	48.85	18.31	-51.2	-53.0	15.1	0.00e+00	0	22	0	417333248	68	4475
2026-01-12 22:32:23.32	49.64	18.58	-51.1	-52.8	15.2	0.00e+00	0	22	0	424673280	68	4374
2026-01-12 22:32:27.31	50.44	18.84	-51.6	-53.5	14.9	0.00e+00	0	22	0	432013312	68	4738
2026-01-12 22:32:31.32	51.26	19.11	-51.6	-53.4	14.9	0.00e+00	0	22	0	439353344	68	4698
2026-01-12 22:32:35.31	52.10	19.37	-51.4	-53.3	15.0	0.00e+00	0	22	0	446693376	68	4606
2026-01-12 22:32:39.30	52.94	19.62	-52.0	-54.0	14.7	0.00e+00	0	22	0	454033408	69	4738
2026-01-12 22:32:43.28	53.80	19.87	-51.8	-53.7	14.9	0.00e+00	0	22	0	461373440	69	4572
2026-01-12 22:32:47.26	54.67	20.12	-52.7	-54.9	14.4	0.00e+00	0	22	0	468713472	70	4981
2026-01-12 22:32:51.25	55.56	20.37	-51.9	-53.8	15.0	0.00e+00	0	22	0	477102080	70	4377
2026-01-12 22:32:55.25	56.46	20.61	-51.8	-53.7	15.1	0.00e+00	0	22	0	484442112	70	4338
2026-01-12 22:32:59.23	57.37	20.84	-51.7	-53.6	15.0	0.00e+00	0	22	0	491782144	69	4505
2026-01-12 22:33:03.23	58.30	21.08	-52.2	-54.3	14.6	0.00e+00	0	22	0	499122176	69	4885
2026-01-12 22:33:07.23	59.25	21.30	-51.3	-53.0	15.3	0.00e+00	0	22	0	506462208	69	4226
2026-01-12 22:33:11.21	60.20	21.52	-51.3	-53.1	15.1	0.00e+00	0	22	0	513802240	68	4512
2026-01-12 22:33:15.21	61.17	21.73	-52.1	-54.2	14.7	0.00e+00	0	22	0	521142272	69	4834
2026-01-12 22:33:19.21	62.16	21.94	-52.2	-54.2	14.8	0.00e+00	0	22	0	529530880	70	4582
2026-01-12 22:33:23.19	63.15	22.14	-51.6	-53.4	15.1	0.00e+00	0	22	0	536870912	69	4426
2026-01-12 22:33:27.18	64.16	22.33	-51.9	-53.9	14.8	0.00e+00	0	22	0	544210944	69	4668
2026-01-12 22:33:31.17	65.17	22.52	-51.9	-53.9	14.9	0.00e+00	0	22	0	551550976	69	4654
2026-01-12 22:33:35.15	66.20	22.69	-51.5	-53.3	15.2	0.00e+00	0	22	0	558891008	69	4357
2026-01-12 22:33:39.14	67.24	22.86	-52.5	-54.7	14.5	0.00e+00	0	22	0	566231040	70	4820
2026-01-12 22:33:43.12	68.29	23.02	-52.4	-54.5	14.6	0.00e+00	0	22	0	573571072	70	4750
2026-01-12 22:33:47.12	69.36	23.17	-52.4	-54.4	14.7	0.00e+00	0	22	0	581959680	70	4703
2026-01-12 22:33:51.11	70.43	23.31	-52.7	-54.9	14.4	0.00e+00	0	23	0	589299712	70	4941
2026-01-12 22:33:55.10	71.51	23.44	-53.2	-55.6	14.2	0.00e+00	0	22	0	596639744	71	5050
2026-01-12 22:33:59.10	72.61	23.57	-53.4	-55.9	14.1	0.00e+00	0	22	0	603979776	72	4973
2026-01-12 22:34:03.08	73.70	23.68	-52.4	-54.4	14.9	0.00e+00	0	22	0	611319808	71	4417
2026-01-12 22:34:07.08	74.81	23.78	-51.5	-53.4	15.1	0.00e+00	0	22	0	618659840	69	4394
2026-01-12 22:34:11.08	75.93	23.87	-51.8	-53.8	14.9	0.00e+00	0	22	0	625999872	69	4620
2026-01-12 22:34:15.10	77.06	23.95	-52.0	-53.9	15.0	0.00e+00	0	22	0	633339904	70	4434
2026-01-12 22:34:19.10	78.18	24.02	-52.0	-54.0	14.8	0.00e+00	0	22	0	641728512	69	4720
2026-01-12 22:34:23.08	79.31	24.08	-51.6	-53.5	15.0	0.00e+00	0	22	0	649068544	69	4468
2026-01-12 22:34:27.08	80.45	24.13	-52.0	-54.0	14.7	0.00e+00	0	22	0	656408576	69	4736
2026-01-12 22:34:31.07	81.58	24.16	-51.1	-52.8	15.3	0.00e+00	0	22	0	663748608	68	4361
2026-01-12 22:34:35.07	82.72	24.19	-51.5	-53.3	15.0	0.00e+00	0	22	0	671088640	68	4646
2026-01-12 22:34:39.07	83.87	24.20	-51.2	-52.9	15.1	0.00e+00	0	22	0	678428672	68	4430
2026-01-12 22:34:43.05	85.00	24.20	-51.2	-52.9	15.2	0.00e+00	0	22	0	685768704	68	4417
2026-01-12 22:34:47.04	86.14	24.19	-51.4	-53.3	15.0	0.00e+00	0	22	0	694157312	68	4600
2026-01-12 22:34:51.04	87.28	24.16	-51.0	-52.6	15.3	0.00e+00	0	22	0	701497344	68	4289
2026-01-12 22:34:55.02	88.42	24.13	-51.1	-52.9	15.2	0.00e+00	0	22	0	708837376	68	4412
2026-01-12 22:34:59.01	89.55	24.08	-51.6	-53.5	14.9	0.00e+00	0	22	0	716177408	68	4707
2026-01-12 22:35:03.00	90.68	24.02	-51.4	-53.2	15.1	0.00e+00	0	22	0	723517440	68	4564
2026-01-12 22:35:06.99	91.81	23.96	-50.9	-52.5	15.4	0.00e+00	0	22	0	730857472	68	4222
2026-01-12 22:35:11.01	92.94	23.88	-50.8	-52.5	15.2	0.00e+00	0	22	0	739246080	67	4473
2026-01-12 22:35:15.03	94.06	23.78	-50.3	-51.9	15.5	0.00e+00	0	22	0	746586112	67	4191
2026-01-12 22:35:19.03	95.17	23.68	-50.4	-52.1	15.3	0.00e+00	0	22	0	753926144	66	4498
2026-01-12 22:35:23.04	96.28	23.57	-49.8	-51.3	15.7	0.00e+00	0	22	0	761266176	66	4102
2026-01-12 22:35:27.04	97.37	23.45	-50.1	-51.7	15.3	0.00e+00	0	22	0	768606208	65	4562
2026-01-12 22:35:31.03	98.45	23.32	-50.5	-52.2	15.2	0.00e+00	0	22	0	775946240	66	4580
2026-01-12 22:35:35.05	99.54	23.17	-49.9	-51.5	15.5	0.00e+00	0	22	0	784334848	66	4210
2026-01-12 22:35:39.06	100.61	23.02	-49.6	-51.1	15.6	0.00e+00	0	22	0	791674880	65	4254
2026-01-12 22:35:43.06	101.67	22.86	-49.0	-50.4	15.8	0.00e+00	0	22	0	799014912	64	4146
2026-01-12 22:35:47.05	102.71	22.69	-49.8	-51.3	15.3	0.00e+00	0	22	0	806354944	64	4618
2026-01-12 22:35:51.05	103.74	22.51	-49.3	-50.8	15.7	0.00e+00	0	22	0	813694976	65	4116
2026-01-12 22:35:55.06	104.77	22.33	-49.7	-51.2	15.3	0.00e+00	0	22	0	821035008	64	4564
2026-01-12 22:35:59.07	105.78	22.13	-49.9	-51.4	15.4	0.00e+00	0	22	0	828375040	65	4419
2026-01-12 22:36:03.07	106.78	21.93	-49.6	-51.2	15.5	0.00e+00	0	22	0	836763648	65	4296
2026-01-12 22:36:07.06	107.77	21.72	-49.8	-51.3	15.4	0.00e+00	0	22	0	844103680	65	4385
2026-01-12 22:36:11.06	108.74	21.51	-50.1	-51.7	15.3	0.00e+00	0	22	0	851443712	65	4569
2026-01-12 22:36:15.07	109.70	21.29	-50.4	-52.1	15.2	0.00e+00	0	22	0	858783744	66	4523
2026-01-12 22:36:19.09	110.66	21.06	-51.0	-52.7	15.1	0.00e+00	0	23	0	866123776	67	4589
2026-01-12 22:36:23.08	111.59	20.83	-50.1	-51.6	15.5	0.00e+00	0	22	0	873463808	66	4285
2026-01-12 22:36:27.09	112.51	20.59	-50.6	-52.3	15.1	0.00e+00	0	22	0	881852416	66	4628
2026-01-12 22:36:31.08	113.41	20.35	-51.5	-53.4	14.9	0.00e+00	0	22	0	889192448	68	4664
2026-01-12 22:36:35.10	114.31	20.10	-51.2	-52.9	15.1	0.00e+00	0	22	0	896532480	68	4436
2026-01-12 22:36:39.10	115.18	19.85	-50.7	-52.4	15.2	0.00e+00	0	23	0	903872512	67	4424
2026-01-12 22:36:43.09	116.05	19.59	-51.6	-53.5	14.8	0.00e+00	0	23	0	911212544	68	4724
2026-01-12 22:36:47.09	116.89	19.34	-51.6	-53.5	14.8	0.00e+00	0	23	0	918552576	68	4732
2026-01-12 22:36:51.09	117.73	19.07	-51.7	-53.7	14.7	0.00e+00	0	23	0	925892608	68	4817
2026-01-12 22:36:55.07	118.55	18.81	-51.6	-53.6	14.8	0.00e+00	0	22	0	934281216	68	4762
2026-01-12 22:36:59.07	119.36	18.54	-52.0	-54.1	14.6	0.00e+00	0	23	0	941621248	69	4775
2026-01-12 22:37:03.07	120.15	18.27	-50.7	-52.4	15.4	0.00e+00	0	23	0	948961280	68	4169
2026-01-12 22:37:07.07	120.93	18.00	-51.4	-53.2	14.9	0.00e+00	0	23	0	956301312	68	4592
2026-01-12 22:37:11.07	121.70	17.72	-51.6	-53.5	14.8	0.00e+00	0	22	0	963641344	68	4710
2026-01-12 22:37:15.08	122.45	17.45	-51.8	-53.7	14.7	0.00e+00	0	23	0	970981376	68	4860
2026-01-12 22:37:19.08	123.19	17.17	-52.6	-54.9	14.4	0.00e+00	0	23	0	978321408	70	4932
2026-01-12 22:37:23.08	123.92	16.89	-51.1	-52.9	15.1	0.00e+00	0	23	0	986710016	68	4425
2026-01-12 22:37:27.09	124.64	16.61	-51.5	-53.4	14.8	0.00e+00	0	23	0	994050048	68	4687
2026-01-12 22:37:31.09	125.34	16.33	-51.2	-53.0	15.0	0.00e+00	0	23	0	1001390080	68	4490
2026-01-12 22:37:35.09	126.03	16.05	-51.2	-53.0	15.1	0.00e+00	0	23	0	1008730112	68	4448
2026-01-12 22:37:39.08	126.70	15.77	-51.9	-53.9	14.5	0.00e+00	0	23	0	1016070144	68	4953
2026-01-12 22:37:43.08	127.36	15.48	-51.2	-53.1	15.0	0.00e+00	0	23	0	1023410176	68	4498
2026-01-12 22:37:47.08	128.02	15.20	-51.4	-53.3	14.9	0.00e+00	0	23	0	1031798784	68	4628
2026-01-12 22:37:51.07	128.66	14.92	-51.4	-53.3	14.8	0.00e+00	0	23	0	1039138816	68	4628
2026-01-12 22:37:55.07	129.28	14.64	-51.1	-53.0	15.1	0.00e+00	0	23	0	1046478848	68	4447
2026-01-12 22:37:59.05	129.90	14.35	-52.4	-54.7	14.2	0.00e+00	0	23	0	1053818880	69	5115
2026-01-12 22:38:03.05	130.50	14.07	-52.7	-55.0	14.3	0.00e+00	0	23	0	1061158912	71	4740
2026-01-12 22:38:07.05	131.10	13.79	-51.9	-53.9	14.8	0.00e+00	0	23	0	1068498944	70	4431
2026-01-12 22:38:11.05	131.68	13.51	-51.5	-53.4	15.0	0.00e+00	0	23	0	1075838976	69	4403
2026-01-12 22:38:15.05	132.26	13.23	-51.1	-52.9	15.1	0.00e+00	0	23	0	1084227584	68	4398
2026-01-12 22:38:19.04	132.82	12.95	-51.1	-53.0	15.0	0.00e+00	0	23	0	1091567616	68	4446
2026-01-12 22:38:23.04	133.37	12.67	-51.8	-53.9	14.5	0.00e+00	0	23	0	1098907648	68	4945
2026-01-12 22:38:27.04	133.91	12.39	-51.9	-54.0	14.6	0.00e+00	0	23	0	1106247680	69	4732
2026-01-12 22:38:31.03	134.44	12.11	-51.6	-53.6	14.8	0.00e+00	0	23	0	1113587712	69	4503
2026-01-12 22:38:35.04	134.97	11.84	-51.5	-53.5	14.9	0.00e+00	0	23	0	1120927744	69	4483
2026-01-12 22:38:39.03	135.48	11.56	-51.9	-54.0	14.6	0.00e+00	0	23	0	1128267776	69	4731
2026-01-12 22:38:43.03	135.99	11.29	-51.7	-53.8	14.7	0.00e+00	0	23	0	1136656384	69	4620
2026-01-12 22:38:47.02	136.48	11.01	-51.7	-53.7	14.7	0.00e+00	0	23	0	1143996416	69	4574
2026-01-12 22:38:51.03	136.97	10.74	-51.9	-54.0	14.5	0.00e+00	0	22	0	1151336448	69	4734
2026-01-12 22:38:55.01	137.45	10.47	-52.6	-55.0	14.1	0.00e+00	0	23	0	1158676480	70	5027
2026-01-12 22:38:59.00	137.92	10.20	-52.9	-55.4	14.0	0.00e+00	0	23	0	1166016512	71	4981
2026-01-12 22:39:02.99	138.38	9.94	-53.1	-55.7	13.8	0.00e+00	0	23	0	1173356544	71	5112
2026-01-12 22:39:06.99	138.83	9.67	-52.5	-54.9	14.4	0.00e+00	0	23	0	1180696576	71	4663
2026-01-12 22:39:10.99	139.28	9.40	-52.5	-54.8	14.4	0.00e+00	0	23	0	1189085184	71	4634
2026-01-12 22:39:15.01	139.72	9.14	-51.9	-54.1	14.6	0.00e+00	0	23	0	1196425216	70	4510
2026-01-12 22:39:19.02	140.15	8.87	-52.0	-54.2	14.6	0.00e+00	0	23	0	1203765248	70	4562
2026-01-12 22:39:23.01	140.57	8.61	-51.9	-54.1	14.6	0.00e+00	0	23	0	1211105280	70	4514
2026-01-12 22:39:27.00	140.99	8.35	-52.5	-54.8	14.2	0.00e+00	0	23	0	1218445312	70	4919
2026-01-12 22:39:31.01	141.40	8.09	-52.9	-55.5	13.8	0.00e+00	0	23	0	1225785344	71	5034
2026-01-12 22:39:35.00	141.80	7.84	-53.0	-55.7	13.7	0.00e+00	0	23	0	1234173952	71	5131
2026-01-12 22:39:39.01	142.19	7.58	-52.5	-54.8	14.3	0.00e+00	0	23	0	1241513984	71	4649
2026-01-12 22:39:43.02	142.58	7.33	-52.7	-55.2	14.0	0.00e+00	0	23	0	1248854016	71	4855
2026-01-12 22:39:47.01	142.97	7.07	-52.8	-55.4	13.9	0.00e+00	0	23	0	1256194048	71	4951
2026-01-12 22:39:51.01	143.34	6.82	-53.2	-56.0	13.5	0.00e+00	0	23	0	1263534080	71	5309
2026-01-12 22:39:55.00	143.71	6.57	-53.5	-56.5	13.2	0.00e+00	0	23	0	1270874112	72	5334
2026-01-12 22:39:58.99	144.08	6.32	-53.5	-56.6	13.1	0.00e+00	0	23	0	1278214144	72	5386
2026-01-12 22:40:02.98	144.43	6.08	-52.8	-55.4	14.0	0.00e+00	0	23	0	1286602752	72	4699
2026-01-12 22:40:06.99	144.79	5.83	-53.0	-55.8	13.7	0.00e+00	0	23	0	1293942784	72	4879
2026-01-12 22:40:10.99	145.13	5.59	-52.7	-55.3	13.8	0.00e+00	0	23	0	1301282816	71	4926
2026-01-12 22:40:15.00	145.48	5.34	-52.7	-55.5	13.7	0.00e+00	0	23	0	1308622848	71	4999
2026-01-12 22:40:19.01	145.81	5.10	-52.7	-55.5	13.6	0.00e+00	0	23	0	1315962880	71	5015
2026-01-12 22:40:23.00	146.14	4.86	-58.0	-74.1	3.8	1.49e+00	0	23	104	1320157184	81	23860
2026-01-12 22:40:27.00	146.47	4.62	-58.6	-74.6	3.8	1.49e+00	0	23	104	1320157184	82	24100
2026-01-12 22:40:31.01	146.79	4.39	-58.9	-75.0	3.8	1.49e+00	0	23	104	1320157184	82	24987
2026-01-12 22:40:35.01	147.11	4.15	-59.1	-75.1	3.8	1.49e+00	0	23	104	1320157184	83	24094
2026-01-12 22:40:39.01	147.42	3.92	-59.3	-75.3	3.8	1.49e+00	0	23	104	1320157184	83	24636
2026-01-12 22:40:43.00	147.73	3.68	-59.3	-75.3	3.8	1.49e+00	0	23	104	1320157184	83	24644
2026-01-12 22:40:46.99	148.03	3.45	-59.3	-75.3	3.8	1.49e+00	0	23	104	1320157184	83	24482
2026-01-12 22:40:50.99	148.32	3.22	-59.2	-75.3	3.8	1.49e+00	0	23	104	1320157184	83	24430
2026-01-12 22:40:54.98	148.62	2.99	-59.2	-75.3	3.8	1.49e+00	0	23	104	1320157184	83	24460
2026-01-12 22:40:58.98	148.91	2.77	-59.2	-75.2	3.8	1.49e+00	0	23	104	1320157184	83	24394
2026-01-12 22:41:02.97	149.19	2.54	-59.2	-75.2	3.8	1.49e+00	0	23	104	1320157184	83	24264
2026-01-12 22:41:06.98	149.47	2.31	-59.1	-75.2	3.8	1.49e+00	0	23	104	1320157184	83	24218
2026-01-12 22:41:10.99	149.75	2.09	-59.1	-75.2	3.8	1.49e+00	0	23	104	1320157184	83	24201

#Closed at: 2026-01-12 22:41:13
#Recorded file [1320 MB]: D:/lorett/data/31004_260113_012807.dat