passes_logs/2026/01/12/R3.2S_Murmansk/R3.2S_Murmansk__20260112_112424_FENGYUN_3D_rec.log

#Pass ID: 20260112_112424_FENGYUN 3D
#Satellite: FENGYUN 3D
#Configuration: FENGYUN 3D
#almurnet v.1.7.20251203
#Start time: 2026-01-12 11:24:26

#Version: 2.2.20231116
#Station: R3.2S_Murmansk
#Location: 33.079688 lon 68.888172 lat
#TLE: 1 43010U 17072A   26011.62066612  .00000104  00000+0  70810-4 0  9998
#TLE: 2 43010  98.9935 343.3846 0002223 114.2890 245.8518 14.19694405422776

#Time	Az	El	Level	Level2	SNR	BER	BlckErr	Temp	State	Recorded	gain1	gain2
2026-01-12 11:24:26.31	147.95	2.12	-56.8	-69.8	3.8	8.46e-01	0	21	0	0	80	15465
2026-01-12 11:24:30.28	147.95	2.38	-56.8	-69.8	3.8	8.46e-01	0	21	104	0	78	17286
2026-01-12 11:24:34.25	147.95	2.64	-56.8	-69.7	3.8	8.45e-01	0	21	104	0	78	17211
2026-01-12 11:24:38.23	147.94	2.90	-56.8	-69.7	3.8	8.45e-01	0	21	104	0	78	17279
2026-01-12 11:24:42.21	147.94	3.16	-56.8	-69.7	3.8	8.45e-01	0	21	104	0	78	17190
2026-01-12 11:24:46.18	147.94	3.43	-56.7	-69.0	3.8	8.46e-01	0	22	104	0	78	15888
2026-01-12 11:24:50.15	147.94	3.70	-56.5	-66.8	3.9	8.43e-01	0	22	104	0	78	12321
2026-01-12 11:24:54.14	147.93	3.97	-55.9	-62.9	5.7	7.30e-01	0	22	0	2097152	78	7846
2026-01-12 11:24:58.11	147.93	4.25	-54.0	-57.8	9.9	1.11e-02	0	22	0	25165824	74	5520
2026-01-12 11:25:02.08	147.92	4.53	-51.5	-53.8	12.9	3.40e-06	0	22	0	47185920	69	4622
2026-01-12 11:25:06.08	147.92	4.81	-50.1	-52.1	13.5	0.00e+00	0	22	0	69206016	65	4795
2026-01-12 11:25:10.06	147.91	5.10	-56.6	-65.7	4.4	8.07e-01	0	22	0	90177536	78	10893
2026-01-12 11:25:14.04	147.91	5.38	-54.7	-60.0	7.6	9.83e-04	0	22	0	110100480	74	7075
2026-01-12 11:25:18.01	147.90	5.67	-49.0	-50.7	14.5	0.00e+00	0	22	0	133169152	64	4303
2026-01-12 11:25:21.98	147.90	5.97	-49.2	-51.0	14.3	0.00e+00	0	22	0	155189248	64	4444
2026-01-12 11:25:25.96	147.89	6.26	-48.8	-50.4	14.7	0.00e+00	0	22	0	177209344	64	4164
2026-01-12 11:25:29.93	147.88	6.57	-49.0	-50.7	14.5	0.00e+00	0	22	0	200278016	64	4315
2026-01-12 11:25:33.90	147.87	6.87	-49.0	-50.6	14.6	0.00e+00	0	22	0	222298112	64	4282
2026-01-12 11:25:37.88	147.87	7.18	-48.8	-50.4	14.8	0.00e+00	0	22	0	244318208	64	4184
2026-01-12 11:25:41.87	147.86	7.49	-48.5	-50.0	14.8	0.00e+00	0	22	0	267386880	63	4236
2026-01-12 11:25:45.86	147.85	7.81	-48.3	-49.8	15.0	0.00e+00	0	22	0	289406976	63	4128
2026-01-12 11:25:49.84	147.84	8.13	-48.4	-50.0	14.9	0.00e+00	0	22	0	311427072	63	4197
2026-01-12 11:25:53.82	147.83	8.45	-48.1	-49.6	15.0	0.00e+00	0	22	0	334495744	62	4272
2026-01-12 11:25:57.81	147.82	8.78	-48.1	-49.6	15.0	0.00e+00	0	22	0	356515840	62	4250
2026-01-12 11:26:01.77	147.81	9.11	-47.8	-49.2	15.2	0.00e+00	0	22	0	379584512	62	4088
2026-01-12 11:26:05.75	147.80	9.45	-47.7	-49.1	15.3	0.00e+00	0	22	0	401604608	62	4035
2026-01-12 11:26:09.72	147.79	9.79	-47.6	-49.1	15.1	0.00e+00	0	22	0	423624704	61	4262
2026-01-12 11:26:13.69	147.77	10.13	-47.5	-48.9	15.3	0.00e+00	0	22	0	445644800	61	4154
2026-01-12 11:26:17.66	147.76	10.48	-47.5	-48.9	15.3	0.00e+00	0	22	0	468713472	61	4152
2026-01-12 11:26:21.63	147.75	10.84	-47.4	-48.8	15.3	0.00e+00	0	22	0	490733568	61	4121
2026-01-12 11:26:25.61	147.73	11.20	-47.2	-48.6	15.4	0.00e+00	0	22	0	512753664	61	4039
2026-01-12 11:26:29.57	147.72	11.57	-47.3	-48.7	15.4	0.00e+00	0	22	0	535822336	61	4092
2026-01-12 11:26:33.56	147.70	11.94	-47.1	-48.5	15.3	0.00e+00	0	22	0	557842432	60	4203
2026-01-12 11:26:37.54	147.68	12.32	-47.1	-48.5	15.3	0.00e+00	0	22	0	579862528	60	4220
2026-01-12 11:26:41.52	147.66	12.70	-46.9	-48.3	15.4	0.00e+00	0	23	0	602931200	60	4117
2026-01-12 11:26:45.50	147.65	13.09	-46.7	-48.0	15.6	0.00e+00	0	23	0	624951296	60	3994
2026-01-12 11:26:49.47	147.63	13.49	-47.0	-48.4	15.2	0.00e+00	0	22	0	646971392	59	4418
2026-01-12 11:26:53.45	147.61	13.89	-46.7	-48.1	15.4	0.00e+00	0	22	0	670040064	59	4259
2026-01-12 11:26:57.42	147.59	14.30	-46.6	-47.9	15.5	0.00e+00	0	23	0	692060160	59	4160
2026-01-12 11:27:01.41	147.56	14.72	-46.4	-47.7	15.6	0.00e+00	0	23	0	715128832	59	4083
2026-01-12 11:27:05.38	147.54	15.14	-46.3	-47.6	15.7	0.00e+00	0	23	0	737148928	59	4037
2026-01-12 11:27:09.36	147.52	15.58	-46.3	-47.6	15.7	0.00e+00	0	22	0	759169024	59	4041
2026-01-12 11:27:13.32	147.49	16.01	-46.4	-47.7	15.6	0.00e+00	0	22	0	781189120	59	4076
2026-01-12 11:27:17.29	147.46	16.46	-46.2	-47.5	15.5	0.00e+00	0	23	0	804257792	58	4221
2026-01-12 11:27:21.26	147.44	16.92	-46.0	-47.2	15.7	0.00e+00	0	23	0	826277888	58	4093
2026-01-12 11:27:25.25	147.41	17.38	-45.9	-47.1	15.7	0.00e+00	0	23	0	848297984	58	4050
2026-01-12 11:27:29.23	147.38	17.86	-45.7	-46.9	15.8	0.00e+00	0	22	0	871366656	58	3952
2026-01-12 11:27:33.21	147.34	18.34	-45.4	-46.6	15.8	0.00e+00	0	23	0	893386752	57	4029
2026-01-12 11:27:37.19	147.31	18.83	-45.1	-46.3	15.7	0.00e+00	0	23	0	915406848	56	4144
2026-01-12 11:27:41.17	147.28	19.34	-45.1	-46.4	15.7	0.00e+00	0	23	0	938475520	56	4152
2026-01-12 11:27:45.14	147.24	19.85	-45.3	-46.6	15.6	0.00e+00	0	23	0	960495616	56	4249
2026-01-12 11:27:49.11	147.20	20.37	-45.3	-46.6	15.6	0.00e+00	0	23	0	982515712	56	4274
2026-01-12 11:27:53.09	147.16	20.91	-45.4	-46.7	15.6	0.00e+00	0	23	0	1005584384	56	4293
2026-01-12 11:27:57.08	147.12	21.46	-45.2	-46.5	15.7	0.00e+00	0	23	0	1027604480	56	4227
2026-01-12 11:28:01.05	147.08	22.01	-45.0	-46.3	15.8	0.00e+00	0	23	0	1049624576	56	4123
2026-01-12 11:28:05.04	147.03	22.59	-45.1	-46.4	15.7	0.00e+00	0	23	0	1072693248	56	4154
2026-01-12 11:28:09.02	146.98	23.17	-44.9	-46.2	15.9	0.00e+00	0	23	0	1094713344	56	4054
2026-01-12 11:28:13.00	146.93	23.77	-44.8	-46.0	15.9	0.00e+00	0	23	0	1116733440	56	4000
2026-01-12 11:28:16.98	146.88	24.38	-44.7	-45.9	15.9	0.00e+00	0	23	0	1139802112	56	3954
2026-01-12 11:28:20.94	146.82	25.00	-44.7	-45.9	16.0	0.00e+00	0	23	0	1161822208	56	3930
2026-01-12 11:28:24.92	146.76	25.65	-44.5	-45.7	15.9	0.00e+00	0	23	0	1183842304	55	4083
2026-01-12 11:28:28.88	146.70	26.30	-44.3	-45.5	16.0	0.00e+00	0	23	0	1206910976	55	3982
2026-01-12 11:28:32.86	146.63	26.98	-44.0	-45.2	15.9	0.00e+00	0	23	0	1228931072	54	4084
2026-01-12 11:28:36.83	146.56	27.67	-44.2	-45.4	15.8	0.00e+00	0	23	0	1250951168	54	4149
2026-01-12 11:28:40.81	146.49	28.37	-44.2	-45.5	15.8	0.00e+00	0	23	0	1274019840	54	4194
2026-01-12 11:28:44.80	146.42	29.10	-44.2	-45.5	15.8	0.00e+00	0	23	0	1296039936	54	4194
2026-01-12 11:28:48.78	146.33	29.85	-44.1	-45.3	15.9	0.00e+00	0	23	0	1318060032	54	4136
2026-01-12 11:28:52.76	146.25	30.62	-44.1	-45.3	15.8	0.00e+00	0	23	0	1341128704	54	4134
2026-01-12 11:28:56.72	146.16	31.40	-43.8	-45.0	16.0	0.00e+00	0	23	0	1363148800	54	3989
2026-01-12 11:29:00.70	146.06	32.21	-43.6	-44.8	15.9	0.00e+00	0	23	0	1385168896	53	4118
2026-01-12 11:29:04.65	145.96	33.03	-43.9	-45.1	15.8	0.00e+00	0	23	0	1407188992	53	4247
2026-01-12 11:29:08.62	145.86	33.89	-43.6	-44.8	15.9	0.00e+00	0	23	0	1430257664	53	4101
2026-01-12 11:29:12.60	145.74	34.77	-43.5	-44.6	16.0	0.00e+00	0	23	0	1452277760	53	4044
2026-01-12 11:29:16.59	145.62	35.67	-43.6	-44.7	15.9	0.00e+00	0	23	0	1475346432	53	4087
2026-01-12 11:29:20.57	145.49	36.60	-43.4	-44.6	16.0	0.00e+00	0	23	0	1497366528	53	4031
2026-01-12 11:29:24.53	145.36	37.55	-43.6	-44.7	15.9	0.00e+00	0	23	0	1519386624	53	4064
2026-01-12 11:29:28.50	145.21	38.54	-43.8	-44.8	15.9	0.00e+00	0	23	0	1541406720	53	4145
2026-01-12 11:29:32.48	145.05	39.55	-44.2	-45.3	15.8	0.00e+00	0	23	0	1564475392	53	4377
2026-01-12 11:29:36.45	144.89	40.59	-44.5	-45.6	15.8	0.00e+00	0	23	0	1586495488	54	4254
2026-01-12 11:29:40.42	144.71	41.67	-44.4	-45.5	15.8	0.00e+00	0	23	0	1608515584	54	4218
2026-01-12 11:29:44.40	144.51	42.77	-44.1	-45.2	15.9	0.00e+00	0	23	0	1631584256	54	4072
2026-01-12 11:29:48.38	144.30	43.91	-44.0	-45.1	15.9	0.00e+00	0	23	0	1653604352	54	4020
2026-01-12 11:29:52.36	144.08	45.09	-44.1	-45.1	15.9	0.00e+00	0	23	0	1676673024	54	4041
2026-01-12 11:29:56.34	143.83	46.30	-44.2	-45.2	15.9	0.00e+00	0	23	0	1698693120	54	4084
2026-01-12 11:30:00.31	143.57	47.54	-44.1	-45.2	15.9	0.00e+00	0	23	0	1720713216	54	4055
2026-01-12 11:30:04.29	143.28	48.82	-44.6	-45.7	15.7	0.00e+00	0	23	0	1742733312	54	4325
2026-01-12 11:30:08.27	142.96	50.14	-44.9	-46.0	15.8	0.00e+00	0	23	0	1765801984	55	4219
2026-01-12 11:30:12.24	142.62	51.49	-45.4	-46.5	15.6	0.00e+00	0	23	0	1787822080	55	4465
2026-01-12 11:30:16.21	142.24	52.89	-45.6	-46.7	15.8	0.00e+00	0	23	0	1809842176	57	4088
2026-01-12 11:30:20.18	141.82	54.32	-45.9	-47.1	15.7	0.00e+00	0	23	0	1832910848	57	4244
2026-01-12 11:30:24.17	141.35	55.79	-45.5	-46.7	15.8	0.00e+00	0	23	0	1854930944	57	4053
2026-01-12 11:30:28.13	140.83	57.30	-45.3	-46.4	15.9	0.00e+00	0	23	0	1876951040	57	3924
2026-01-12 11:30:32.11	140.25	58.85	-45.0	-46.1	15.9	0.00e+00	0	23	0	1900019712	56	4033
2026-01-12 11:30:36.08	139.59	60.43	-44.1	-45.2	15.9	0.00e+00	0	23	0	1922039808	54	4056
2026-01-12 11:30:40.06	138.84	62.05	-44.7	-45.8	15.7	0.00e+00	0	23	0	1944059904	54	4368
2026-01-12 11:30:44.05	137.97	63.72	-44.1	-45.1	15.9	0.00e+00	0	23	0	1967128576	54	4033
2026-01-12 11:30:48.03	136.98	65.41	-43.9	-44.9	15.9	0.00e+00	0	23	0	1989148672	53	4184
2026-01-12 11:30:52.00	135.82	67.12	-43.2	-44.2	16.1	0.00e+00	0	23	0	2011168768	53	3846
2026-01-12 11:30:55.98	134.44	68.87	-43.0	-44.0	16.0	0.00e+00	0	23	0	2034237440	52	3983
2026-01-12 11:30:59.96	132.79	70.63	-42.9	-43.9	16.0	0.00e+00	0	23	0	2056257536	52	3926
2026-01-12 11:31:03.94	130.78	72.41	-42.9	-43.9	16.0	0.00e+00	0	23	0	2078277632	52	3927
2026-01-12 11:31:07.92	128.28	74.19	-43.3	-44.3	15.9	0.00e+00	0	23	0	2101346304	52	4137
2026-01-12 11:31:11.89	125.13	75.96	-42.6	-43.6	16.0	0.00e+00	0	23	0	2123366400	51	4039
2026-01-12 11:31:15.87	121.04	77.69	-42.0	-43.0	16.0	0.00e+00	0	23	0	2146435072	50	3970
2026-01-12 11:31:19.85	115.58	79.37	-41.5	-42.5	16.1	0.00e+00	0	23	0	2168455168	49	3984
2026-01-12 11:31:23.81	108.17	80.91	-41.4	-42.3	16.0	0.00e+00	0	23	0	2190475264	48	4145
2026-01-12 11:31:27.78	97.87	82.27	-41.0	-42.0	16.0	0.00e+00	0	23	0	2212495360	48	3982
2026-01-12 11:31:31.76	83.80	83.28	-41.7	-42.7	16.0	0.00e+00	0	23	0	2235564032	48	4318
2026-01-12 11:31:35.75	66.14	83.78	-42.0	-43.0	16.0	0.00e+00	0	23	0	2257584128	49	4229
2026-01-12 11:31:39.71	47.61	83.63	-42.3	-43.3	16.0	0.00e+00	0	23	0	2279604224	49	4364
2026-01-12 11:31:43.69	31.43	82.88	-42.1	-43.1	16.0	0.00e+00	0	23	0	2302672896	50	4020
2026-01-12 11:31:47.65	19.18	81.69	-41.8	-42.8	16.0	0.00e+00	0	23	0	2324692992	49	4112
2026-01-12 11:31:51.63	10.27	80.24	-41.7	-42.7	16.0	0.00e+00	0	23	0	2346713088	49	4067
2026-01-12 11:31:55.60	3.84	78.62	-41.6	-42.6	16.0	0.00e+00	0	23	0	2368733184	49	4017
2026-01-12 11:31:59.58	359.06	76.92	-42.1	-43.1	16.0	0.00e+00	0	23	0	2391801856	49	4248
2026-01-12 11:32:03.55	355.44	75.17	-42.7	-43.7	15.9	0.00e+00	0	23	0	2413821952	50	4299
2026-01-12 11:32:07.51	352.62	73.41	-42.9	-43.9	15.9	0.00e+00	0	23	0	2436890624	51	4154
2026-01-12 11:32:11.50	350.35	71.62	-43.3	-44.3	15.9	0.00e+00	0	23	0	2458910720	51	4389
2026-01-12 11:32:15.48	348.52	69.85	-43.2	-44.2	16.0	0.00e+00	0	23	0	2480930816	52	4055
2026-01-12 11:32:19.46	347.00	68.10	-43.3	-44.3	15.9	0.00e+00	0	23	0	2503999488	52	4134
2026-01-12 11:32:23.42	345.73	66.38	-43.6	-44.7	15.9	0.00e+00	0	23	0	2526019584	52	4297
2026-01-12 11:32:27.40	344.64	64.67	-43.2	-44.2	15.9	0.00e+00	0	23	0	2548039680	52	4086
2026-01-12 11:32:31.37	343.71	63.00	-43.4	-44.4	15.9	0.00e+00	0	23	0	2571108352	52	4187
2026-01-12 11:32:35.34	342.91	61.37	-44.2	-45.3	15.9	0.00e+00	0	23	0	2593128448	53	4357
2026-01-12 11:32:39.31	342.20	59.76	-44.2	-45.3	15.8	0.00e+00	0	23	0	2615148544	53	4345
2026-01-12 11:32:43.28	341.57	58.20	-44.4	-45.5	15.8	0.00e+00	0	23	0	2637168640	54	4209
2026-01-12 11:32:47.25	341.02	56.67	-45.8	-46.9	15.7	0.00e+00	0	23	0	2660237312	56	4416
2026-01-12 11:32:51.24	340.52	55.18	-45.7	-46.8	15.7	0.00e+00	0	23	0	2682257408	56	4373
2026-01-12 11:32:55.22	340.08	53.72	-45.6	-46.7	15.7	0.00e+00	0	23	0	2704277504	56	4295
2026-01-12 11:32:59.21	339.68	52.31	-45.3	-46.4	15.8	0.00e+00	0	23	0	2727346176	56	4183
2026-01-12 11:33:03.17	339.31	50.94	-44.2	-45.2	16.0	0.00e+00	0	23	0	2749366272	55	3858
2026-01-12 11:33:07.13	338.98	49.61	-44.5	-45.6	15.9	0.00e+00	0	23	0	2771386368	55	4044
2026-01-12 11:33:11.12	338.68	48.30	-44.1	-45.1	15.9	0.00e+00	0	23	0	2794455040	54	4032
2026-01-12 11:33:15.09	338.40	47.04	-44.2	-45.3	15.9	0.00e+00	0	23	0	2816475136	54	4102
2026-01-12 11:33:19.07	338.15	45.82	-44.0	-45.0	15.9	0.00e+00	0	23	0	2838495232	54	3991
2026-01-12 11:33:23.04	337.91	44.63	-43.9	-45.0	16.0	0.00e+00	0	23	0	2861563904	54	3959
2026-01-12 11:33:27.02	337.70	43.47	-43.9	-44.9	16.0	0.00e+00	0	23	0	2883584000	54	3940
2026-01-12 11:33:30.99	337.50	42.35	-44.1	-45.2	15.9	0.00e+00	0	23	0	2905604096	54	4059
2026-01-12 11:33:34.96	337.31	41.26	-43.6	-44.7	15.9	0.00e+00	0	23	0	2928672768	53	4066
2026-01-12 11:33:38.92	337.14	40.21	-43.6	-44.7	15.9	0.00e+00	0	23	0	2950692864	53	4060
2026-01-12 11:33:42.89	336.97	39.18	-43.6	-44.6	16.0	0.00e+00	0	23	0	2972712960	53	4035
2026-01-12 11:33:46.86	336.82	38.19	-43.5	-44.5	16.0	0.00e+00	0	23	0	2994733056	53	3998
2026-01-12 11:33:50.83	336.68	37.22	-43.5	-44.5	15.9	0.00e+00	0	23	0	3017801728	53	4004
2026-01-12 11:33:54.81	336.55	36.27	-43.7	-44.7	15.9	0.00e+00	0	23	0	3039821824	53	4086
2026-01-12 11:33:58.77	336.43	35.36	-43.4	-44.4	16.0	0.00e+00	0	23	0	3061841920	53	3938
2026-01-12 11:34:02.74	336.31	34.47	-43.2	-44.2	16.1	0.00e+00	0	23	0	3084910592	53	3863
2026-01-12 11:34:06.71	336.20	33.61	-43.7	-44.7	15.9	0.00e+00	0	23	0	3106930688	53	4065
2026-01-12 11:34:10.69	336.10	32.77	-44.1	-45.2	15.8	0.00e+00	0	23	0	3128950784	53	4306
2026-01-12 11:34:14.66	336.00	31.95	-44.4	-45.5	15.8	0.00e+00	0	23	0	3152019456	54	4228
2026-01-12 11:34:18.64	335.91	31.15	-44.6	-45.7	15.8	0.00e+00	0	23	0	3174039552	54	4315
2026-01-12 11:34:22.61	335.82	30.37	-44.6	-45.7	15.8	0.00e+00	0	23	0	3196059648	54	4335
2026-01-12 11:34:26.59	335.74	29.62	-44.3	-45.4	15.8	0.00e+00	0	23	0	3218079744	54	4179
2026-01-12 11:34:30.58	335.66	28.88	-44.1	-45.1	15.9	0.00e+00	0	23	0	3241148416	54	4046
2026-01-12 11:34:34.54	335.59	28.16	-43.8	-44.8	16.0	0.00e+00	0	23	0	3263168512	54	3902
2026-01-12 11:34:38.53	335.52	27.46	-43.6	-44.6	15.9	0.00e+00	0	23	0	3286237184	53	4044
2026-01-12 11:34:42.50	335.45	26.78	-43.7	-44.8	15.9	0.00e+00	0	23	0	3308257280	53	4103
2026-01-12 11:34:46.49	335.39	26.11	-44.0	-45.0	15.8	0.00e+00	0	23	0	3330277376	53	4234
2026-01-12 11:34:50.47	335.33	25.46	-44.1	-45.1	15.8	0.00e+00	0	23	0	3353346048	53	4286
2026-01-12 11:34:54.44	335.27	24.83	-44.3	-45.4	15.8	0.00e+00	0	23	0	3375366144	53	4394
2026-01-12 11:34:58.43	335.22	24.21	-44.3	-45.4	15.8	0.00e+00	0	23	0	3397386240	53	4396
2026-01-12 11:35:02.41	335.17	23.61	-44.5	-45.5	15.8	0.00e+00	0	23	0	3420454912	54	4229
2026-01-12 11:35:06.40	335.12	23.01	-44.5	-45.5	15.8	0.00e+00	0	23	0	3442475008	54	4240
2026-01-12 11:35:10.39	335.07	22.43	-44.8	-45.9	15.7	0.00e+00	0	23	0	3464495104	54	4401
2026-01-12 11:35:14.37	335.03	21.87	-44.9	-46.0	15.7	0.00e+00	0	23	0	3487563776	54	4442
2026-01-12 11:35:18.33	334.99	21.32	-45.0	-46.1	15.7	0.00e+00	0	23	0	3509583872	55	4261
2026-01-12 11:35:22.31	334.95	20.78	-45.2	-46.2	15.6	0.00e+00	0	23	0	3532652544	55	4339
2026-01-12 11:35:26.29	334.91	20.25	-45.2	-46.3	15.6	0.00e+00	0	23	0	3554672640	55	4358
2026-01-12 11:35:30.26	334.88	19.73	-45.3	-46.4	15.6	0.00e+00	0	23	0	3576692736	55	4428
2026-01-12 11:35:34.23	334.84	19.22	-45.6	-46.8	15.6	0.00e+00	0	23	0	3598712832	56	4350
2026-01-12 11:35:38.20	334.81	18.73	-45.7	-46.8	15.6	0.00e+00	0	23	0	3621781504	56	4373
2026-01-12 11:35:42.17	334.78	18.24	-45.9	-47.0	15.6	0.00e+00	0	23	0	3643801600	56	4468
2026-01-12 11:35:46.15	334.75	17.76	-45.9	-47.1	15.6	0.00e+00	0	23	0	3665821696	57	4263
2026-01-12 11:35:50.12	334.72	17.29	-46.0	-47.1	15.6	0.00e+00	0	23	0	3688890368	57	4288
2026-01-12 11:35:54.10	334.69	16.83	-46.1	-47.3	15.5	0.00e+00	0	23	0	3710910464	57	4343
2026-01-12 11:35:58.07	334.67	16.38	-46.2	-47.4	15.5	0.00e+00	0	23	0	3732930560	57	4405
2026-01-12 11:36:02.06	334.64	15.94	-46.3	-47.5	15.5	0.00e+00	0	23	0	3754950656	57	4456
2026-01-12 11:36:06.02	334.62	15.50	-46.4	-47.6	15.4	0.00e+00	0	23	0	3778019328	57	4515
2026-01-12 11:36:09.99	334.60	15.08	-46.5	-47.6	15.5	0.00e+00	0	23	0	3800039424	58	4288
2026-01-12 11:36:13.97	334.58	14.66	-46.5	-47.7	15.5	0.00e+00	0	23	0	3823108096	58	4311
2026-01-12 11:36:17.95	334.56	14.24	-46.6	-47.7	15.5	0.00e+00	0	23	0	3845128192	58	4333
2026-01-12 11:36:21.92	334.54	13.84	-46.6	-47.8	15.4	0.00e+00	0	23	0	3867148288	58	4365
2026-01-12 11:36:25.89	334.52	13.44	-46.8	-48.0	15.3	0.00e+00	0	23	0	3889168384	58	4474
2026-01-12 11:36:29.87	334.51	13.04	-46.8	-48.0	15.3	0.00e+00	0	23	0	3912237056	58	4484
2026-01-12 11:36:33.84	334.49	12.66	-47.0	-48.2	15.3	0.00e+00	0	23	0	3934257152	59	4333
2026-01-12 11:36:37.80	334.47	12.28	-47.0	-48.2	15.3	0.00e+00	0	23	0	3956277248	59	4328
2026-01-12 11:36:41.76	334.46	11.91	-47.0	-48.3	15.3	0.00e+00	0	23	0	3979345920	59	4347
2026-01-12 11:36:45.74	334.45	11.54	-47.2	-48.4	15.3	3.40e-06	0	23	0	4001366016	59	4416
2026-01-12 11:36:49.70	334.43	11.17	-47.2	-48.5	15.2	0.00e+00	0	23	0	4023386112	59	4463
2026-01-12 11:36:53.66	334.42	10.82	-47.0	-48.3	15.4	0.00e+00	0	23	0	4046454784	60	4115
2026-01-12 11:36:57.64	334.41	10.46	-47.1	-48.3	15.4	0.00e+00	0	23	0	4068474880	60	4127
2026-01-12 11:37:01.63	334.40	10.11	-47.2	-48.4	15.3	0.00e+00	0	23	0	4090494976	60	4169
2026-01-12 11:37:05.59	334.39	9.77	-47.3	-48.6	15.2	0.00e+00	0	23	0	4112515072	60	4273
2026-01-12 11:37:09.55	334.38	9.43	-47.4	-48.7	15.2	0.00e+00	0	23	0	4135583744	60	4292
2026-01-12 11:37:13.52	334.37	9.10	-47.4	-48.7	15.1	0.00e+00	0	23	0	4157603840	60	4307
2026-01-12 11:37:17.49	334.36	8.77	-47.5	-48.8	15.1	0.00e+00	0	23	0	4179623936	60	4346
2026-01-12 11:37:21.47	334.36	8.44	-47.7	-49.0	15.0	0.00e+00	0	23	0	4202692608	60	4445
2026-01-12 11:37:25.45	334.35	8.12	-47.7	-49.0	15.0	0.00e+00	0	23	0	4224712704	60	4477
2026-01-12 11:37:29.43	334.34	7.80	-47.8	-49.1	14.9	0.00e+00	0	23	0	4246732800	60	4545
2026-01-12 11:37:33.41	334.34	7.49	-48.0	-49.3	14.9	0.00e+00	0	23	0	4269801472	61	4374
2026-01-12 11:37:37.37	334.33	7.18	-48.1	-49.5	14.9	0.00e+00	0	23	0	4291821568	61	4443
2026-01-12 11:37:41.36	334.33	6.87	-48.0	-49.4	14.9	0.00e+00	0	23	0	4313841664	61	4406
2026-01-12 11:37:45.33	334.32	6.57	-48.0	-49.4	14.9	0.00e+00	0	23	0	4336910336	61	4410
2026-01-12 11:37:49.30	334.32	6.27	-48.2	-49.6	14.7	0.00e+00	0	23	0	4358930432	61	4535
2026-01-12 11:37:53.28	334.31	5.98	-48.5	-49.9	14.7	0.00e+00	0	23	0	4380950528	62	4428
2026-01-12 11:37:57.25	334.31	5.69	-49.0	-50.6	14.4	0.00e+00	0	23	0	4402970624	63	4504
2026-01-12 11:38:01.22	334.31	5.40	-49.4	-51.0	14.0	0.00e+00	0	23	0	4426039296	63	4753
2026-01-12 11:38:05.18	334.31	5.11	-48.5	-50.1	14.4	2.20e-06	0	23	0	4448059392	62	4501
2026-01-12 11:38:09.18	334.30	4.83	-58.3	-71.3	3.8	8.46e-01	0	23	104	4457496576	81	17479
2026-01-12 11:38:13.20	334.30	4.55	-59.0	-72.0	3.8	8.46e-01	0	23	104	4457496576	83	16842
2026-01-12 11:38:17.23	334.30	4.26	-59.2	-72.3	3.8	8.45e-01	0	23	104	4457496576	83	17407
2026-01-12 11:38:21.25	334.30	3.99	-59.4	-72.4	3.8	8.45e-01	0	23	104	4457496576	83	17639
2026-01-12 11:38:25.26	334.30	3.71	-59.7	-72.7	3.8	8.46e-01	0	23	104	4457496576	84	17197
2026-01-12 11:38:29.28	334.30	3.44	-59.6	-72.7	3.8	8.46e-01	0	23	104	4457496576	84	17091
2026-01-12 11:38:33.26	334.30	3.18	-59.6	-72.6	3.8	8.46e-01	0	23	104	4457496576	84	17046
2026-01-12 11:38:37.23	334.30	2.91	-59.6	-72.6	3.8	8.46e-01	0	23	104	4457496576	84	16994
2026-01-12 11:38:41.22	334.30	2.65	-59.5	-72.6	3.8	8.45e-01	0	23	104	4457496576	84	16918
2026-01-12 11:38:45.19	334.30	2.39	-59.5	-72.5	3.8	8.46e-01	0	23	104	4457496576	84	16840
2026-01-12 11:38:49.17	334.30	2.14	-59.5	-72.5	3.8	8.45e-01	0	23	104	4457496576	84	16854

#Closed at: 2026-01-12 11:38:52
#Recorded file [4457 MB]: D:/lorett/data/31004_260112_142426.dat