passes_logs/2026/01/12/R3.2S_Murmansk/R3.2S_Murmansk__20260112_030726_FENGYUN_3D_rec.log

#Pass ID: 20260112_030726_FENGYUN 3D
#Satellite: FENGYUN 3D
#Configuration: FENGYUN 3D
#almurnet v.1.7.20251203
#Start time: 2026-01-12 03:07:27

#Version: 2.2.20231116
#Station: R3.2S_Murmansk
#Location: 33.079688 lon 68.888172 lat
#TLE: 1 43010U 17072A   26011.62066612  .00000104  00000+0  70810-4 0  9998
#TLE: 2 43010  98.9935 343.3846 0002223 114.2890 245.8518 14.19694405422776

#Time	Az	El	Level	Level2	SNR	BER	BlckErr	Temp	State	Recorded	gain1	gain2
2026-01-12 03:07:27.81	26.57	2.08	-53.7	-67.0	3.8	8.45e-01	0	20	0	0	72	17747
2026-01-12 03:07:31.84	26.55	2.34	-53.7	-67.0	3.8	8.45e-01	0	21	104	0	72	17723
2026-01-12 03:07:35.87	26.53	2.60	-53.8	-67.0	3.8	8.46e-01	0	21	104	0	72	17735
2026-01-12 03:07:39.90	26.51	2.87	-53.8	-67.0	3.8	8.46e-01	0	21	104	0	72	17770
2026-01-12 03:07:43.94	26.48	3.14	-53.8	-67.0	3.8	8.45e-01	0	21	104	0	72	17826
2026-01-12 03:07:47.97	26.46	3.40	-53.8	-67.0	3.8	8.45e-01	0	21	104	0	72	17884
2026-01-12 03:07:52.00	26.44	3.68	-53.8	-67.0	3.8	8.46e-01	0	21	104	0	72	17843
2026-01-12 03:07:56.04	26.41	3.95	-53.8	-67.1	3.8	8.45e-01	0	21	104	0	72	17905
2026-01-12 03:08:00.08	26.38	4.23	-53.8	-67.0	3.8	8.44e-01	0	21	104	0	72	17860
2026-01-12 03:08:04.12	26.36	4.51	-53.8	-67.1	3.8	8.45e-01	0	21	104	0	72	17943
2026-01-12 03:08:08.15	26.33	4.79	-53.8	-67.0	3.8	8.45e-01	0	22	104	0	72	17834
2026-01-12 03:08:12.19	26.30	5.08	-53.8	-67.0	3.8	8.46e-01	0	22	104	0	72	17887
2026-01-12 03:08:16.22	26.27	5.37	-53.8	-67.0	3.8	8.46e-01	0	22	104	0	72	17881
2026-01-12 03:08:20.26	26.24	5.66	-53.8	-67.0	3.8	8.45e-01	0	22	104	0	72	17856
2026-01-12 03:08:24.29	26.21	5.96	-53.9	-67.1	3.8	8.45e-01	0	22	104	0	72	17937
2026-01-12 03:08:28.32	26.17	6.25	-53.8	-67.0	3.8	8.46e-01	0	22	104	0	72	17858
2026-01-12 03:08:32.36	26.14	6.56	-53.9	-67.0	3.8	8.46e-01	0	22	104	0	72	17879
2026-01-12 03:08:36.39	26.11	6.86	-53.8	-67.1	3.8	8.44e-01	0	22	104	0	72	17915
2026-01-12 03:08:40.43	26.07	7.17	-53.9	-67.1	3.8	8.46e-01	0	22	104	0	72	17953
2026-01-12 03:08:44.47	26.03	7.49	-53.9	-67.1	3.8	8.46e-01	0	22	104	0	72	17965
2026-01-12 03:08:48.50	25.99	7.80	-54.0	-67.1	3.8	8.46e-01	0	22	104	0	73	17012
2026-01-12 03:08:52.54	25.95	8.13	-53.9	-67.1	3.8	8.46e-01	0	22	104	0	73	16981
2026-01-12 03:08:56.57	25.91	8.45	-53.9	-67.1	3.8	8.45e-01	0	22	104	0	73	16983
2026-01-12 03:09:00.61	25.87	8.78	-53.9	-67.1	3.8	8.45e-01	0	22	104	0	73	16998
2026-01-12 03:09:04.64	25.83	9.12	-53.9	-67.1	3.8	8.44e-01	0	22	104	0	73	16990
2026-01-12 03:09:08.68	25.78	9.46	-54.0	-67.1	3.8	8.45e-01	0	22	104	0	73	17058
2026-01-12 03:09:12.72	25.74	9.80	-53.9	-67.1	3.8	8.45e-01	0	22	104	0	73	17050
2026-01-12 03:09:16.75	25.69	10.15	-53.9	-67.2	3.8	8.46e-01	0	22	104	0	73	17113
2026-01-12 03:09:20.79	25.64	10.50	-53.9	-67.1	3.8	8.46e-01	0	22	104	0	73	17036
2026-01-12 03:09:24.82	25.59	10.86	-53.9	-67.1	3.8	8.45e-01	0	22	104	0	73	17040
2026-01-12 03:09:28.86	25.53	11.22	-53.9	-67.2	3.8	8.45e-01	0	22	104	0	73	17112
2026-01-12 03:09:32.89	25.48	11.59	-53.9	-67.1	3.8	8.46e-01	0	22	104	0	73	17045
2026-01-12 03:09:36.92	25.42	11.97	-53.9	-67.2	3.8	8.46e-01	0	22	104	0	73	17084
2026-01-12 03:09:40.96	25.36	12.35	-53.9	-67.1	3.8	8.45e-01	0	22	104	0	73	17017
2026-01-12 03:09:44.99	25.30	12.73	-53.9	-67.1	3.8	8.46e-01	0	22	104	0	73	17066
2026-01-12 03:09:49.03	25.24	13.13	-54.0	-67.2	3.8	8.46e-01	0	22	104	0	73	17106
2026-01-12 03:09:53.06	25.18	13.53	-54.0	-67.2	3.8	8.45e-01	0	22	104	0	73	17085
2026-01-12 03:09:57.11	25.11	13.93	-53.9	-67.1	3.8	8.46e-01	0	22	104	0	73	17040
2026-01-12 03:10:01.14	25.04	14.34	-53.9	-67.2	3.8	8.45e-01	0	23	104	0	73	17117
2026-01-12 03:10:05.17	24.97	14.76	-53.9	-67.2	3.8	8.46e-01	0	22	104	0	73	17089
2026-01-12 03:10:09.21	24.89	15.19	-53.9	-67.1	3.8	8.44e-01	0	23	104	0	73	17056
2026-01-12 03:10:13.24	24.82	15.63	-54.0	-67.2	3.8	8.47e-01	0	23	104	0	73	17085
2026-01-12 03:10:17.09	24.74	16.05	-54.0	-67.2	3.8	8.45e-01	0	23	104	0	73	17089
2026-01-12 03:10:21.12	24.66	16.50	-53.9	-67.2	3.8	8.47e-01	0	23	104	0	73	17106
2026-01-12 03:10:25.16	24.57	16.96	-53.9	-67.2	3.8	8.45e-01	0	23	104	0	73	17091
2026-01-12 03:10:29.20	24.49	17.42	-54.0	-67.2	3.8	8.46e-01	0	23	104	0	73	17136
2026-01-12 03:10:33.23	24.39	17.90	-54.0	-67.1	3.8	8.45e-01	0	23	104	0	73	17075
2026-01-12 03:10:37.26	24.30	18.38	-54.0	-67.2	3.8	8.44e-01	0	23	104	0	73	17145
2026-01-12 03:10:41.29	24.20	18.88	-54.0	-67.2	3.8	8.46e-01	0	23	104	0	73	17157
2026-01-12 03:10:45.33	24.10	19.38	-54.0	-67.2	3.8	8.44e-01	0	23	104	0	73	17137
2026-01-12 03:10:49.36	23.99	19.90	-54.0	-67.1	3.8	8.45e-01	0	23	104	0	73	17005
2026-01-12 03:10:53.40	23.88	20.43	-54.0	-67.2	3.8	8.46e-01	0	23	104	0	73	17128
2026-01-12 03:10:57.43	23.76	20.96	-54.0	-67.2	3.8	8.45e-01	0	23	104	0	73	17095
2026-01-12 03:11:01.46	23.64	21.51	-54.0	-67.2	3.8	8.45e-01	0	23	104	0	73	17088
2026-01-12 03:11:05.50	23.51	22.07	-54.0	-67.2	3.8	8.46e-01	0	22	104	0	73	17131
2026-01-12 03:11:09.53	23.38	22.65	-54.0	-67.2	3.8	8.45e-01	0	23	104	0	73	17154
2026-01-12 03:11:13.57	23.25	23.23	-54.0	-67.2	3.8	8.46e-01	0	23	104	0	73	17089
2026-01-12 03:11:17.61	23.10	23.84	-54.0	-67.2	3.8	8.46e-01	0	23	104	0	73	17118
2026-01-12 03:11:21.65	22.96	24.45	-54.0	-67.2	3.8	8.45e-01	0	23	104	0	73	17131
2026-01-12 03:11:25.68	22.80	25.08	-54.0	-67.1	3.8	8.47e-01	0	23	104	0	73	17046
2026-01-12 03:11:29.71	22.64	25.72	-54.0	-67.2	3.8	8.45e-01	0	23	104	0	73	17115
2026-01-12 03:11:33.74	22.47	26.38	-54.0	-67.2	3.8	8.46e-01	0	23	104	0	73	17153
2026-01-12 03:11:37.78	22.29	27.06	-54.0	-67.2	3.8	8.45e-01	0	23	104	0	73	17208
2026-01-12 03:11:41.81	22.10	27.75	-54.0	-67.1	3.8	8.45e-01	0	23	104	0	73	17081
2026-01-12 03:11:45.84	21.91	28.46	-54.0	-67.2	3.8	8.45e-01	0	23	104	0	73	17085
2026-01-12 03:11:49.87	21.70	29.19	-54.0	-67.1	3.8	8.46e-01	0	23	104	0	73	17065
2026-01-12 03:11:53.90	21.49	29.93	-54.0	-67.2	3.8	8.44e-01	0	23	104	0	73	17118
2026-01-12 03:11:57.94	21.26	30.70	-54.0	-67.2	3.8	8.45e-01	0	23	104	0	73	17110
2026-01-12 03:12:01.98	21.02	31.49	-54.0	-67.1	3.8	8.46e-01	0	23	104	0	73	17060
2026-01-12 03:12:06.02	20.77	32.30	-54.0	-67.2	3.8	8.44e-01	0	23	104	0	73	17109
2026-01-12 03:12:10.05	20.51	33.13	-54.0	-67.2	3.8	8.45e-01	0	23	104	0	73	17093
2026-01-12 03:12:14.09	20.23	33.98	-53.9	-67.2	3.8	8.46e-01	0	23	104	0	73	17104
2026-01-12 03:12:18.13	19.93	34.86	-54.0	-67.2	3.8	8.45e-01	0	23	104	0	73	17142
2026-01-12 03:12:22.16	19.62	35.75	-53.9	-67.2	3.8	8.45e-01	0	23	104	0	73	17197
2026-01-12 03:12:26.20	19.28	36.68	-54.0	-67.1	3.8	8.45e-01	0	23	104	0	73	17075
2026-01-12 03:12:30.23	18.93	37.63	-54.0	-67.2	3.8	8.46e-01	0	23	104	0	73	17110
2026-01-12 03:12:34.27	18.55	38.61	-54.0	-67.2	3.8	8.45e-01	0	23	104	0	73	17161
2026-01-12 03:12:38.30	18.15	39.61	-54.0	-67.2	3.8	8.45e-01	0	23	104	0	73	17154
2026-01-12 03:12:42.34	17.73	40.65	-54.0	-67.2	3.8	8.46e-01	0	23	104	0	73	17170
2026-01-12 03:12:46.38	17.27	41.71	-54.0	-67.2	3.8	8.45e-01	0	23	104	0	73	17121
2026-01-12 03:12:50.41	16.78	42.80	-54.0	-67.2	3.8	8.45e-01	0	23	104	0	73	17120
2026-01-12 03:12:54.45	16.25	43.92	-54.0	-67.1	3.8	8.46e-01	0	23	104	0	73	17066
2026-01-12 03:12:58.48	15.69	45.07	-53.9	-67.2	3.8	8.46e-01	0	23	104	0	73	17180
2026-01-12 03:13:02.51	15.08	46.25	-54.0	-67.2	3.8	8.44e-01	0	23	104	0	73	17110
2026-01-12 03:13:06.55	14.42	47.47	-54.0	-67.2	3.8	8.44e-01	0	23	104	0	73	17089
2026-01-12 03:13:10.59	13.70	48.71	-54.0	-67.2	3.8	8.46e-01	0	23	104	0	73	17117
2026-01-12 03:13:14.62	12.93	49.99	-54.0	-67.2	3.8	8.45e-01	0	23	104	0	73	17175
2026-01-12 03:13:18.66	12.08	51.29	-54.0	-67.2	3.8	8.46e-01	0	23	104	0	73	17110
2026-01-12 03:13:22.69	11.15	52.63	-54.0	-67.2	3.8	8.46e-01	0	23	104	0	73	17120
2026-01-12 03:13:26.73	10.14	53.99	-54.0	-67.2	3.8	8.44e-01	0	23	104	0	73	17150
2026-01-12 03:13:30.77	9.01	55.38	-54.0	-67.2	3.8	8.47e-01	0	23	104	0	73	17151
2026-01-12 03:13:34.80	7.78	56.79	-54.0	-67.2	3.8	8.46e-01	0	23	104	0	73	17155
2026-01-12 03:13:38.84	6.40	58.23	-54.0	-67.2	3.8	8.46e-01	0	23	104	0	73	17183
2026-01-12 03:13:42.87	4.86	59.69	-54.0	-67.2	3.8	8.45e-01	0	23	104	0	73	17197
2026-01-12 03:13:46.91	3.14	61.15	-54.0	-67.2	3.8	8.45e-01	0	23	104	0	73	17106
2026-01-12 03:13:50.94	1.20	62.63	-54.0	-67.2	3.8	8.46e-01	0	23	104	0	73	17155
2026-01-12 03:13:54.98	359.01	64.10	-54.0	-67.2	3.8	8.47e-01	0	23	104	0	73	17114
2026-01-12 03:13:59.02	356.51	65.57	-54.0	-67.2	3.8	8.46e-01	0	23	104	0	73	17109
2026-01-12 03:14:03.06	353.65	67.02	-54.0	-67.2	3.8	8.45e-01	0	23	104	0	73	17149
2026-01-12 03:14:07.10	350.38	68.43	-54.0	-67.2	3.8	8.46e-01	0	23	104	0	73	17213
2026-01-12 03:14:11.13	346.63	69.78	-54.0	-67.2	3.8	8.45e-01	0	23	104	0	73	17091
2026-01-12 03:14:15.17	342.30	71.06	-54.0	-67.2	3.8	8.45e-01	0	23	104	0	73	17143
2026-01-12 03:14:19.21	337.33	72.24	-54.0	-67.2	3.8	8.45e-01	0	23	104	0	73	17157
2026-01-12 03:14:23.24	331.67	73.28	-54.0	-67.2	3.8	8.45e-01	0	23	104	0	73	17135
2026-01-12 03:14:27.27	325.28	74.15	-54.0	-67.2	3.8	8.45e-01	0	23	104	0	73	17164
2026-01-12 03:14:31.31	318.20	74.82	-54.0	-67.2	3.8	8.47e-01	0	23	104	0	73	17092
2026-01-12 03:14:35.34	310.58	75.25	-54.0	-67.2	3.8	8.46e-01	0	23	104	0	73	17167
2026-01-12 03:14:39.37	302.64	75.41	-54.0	-67.2	3.8	8.45e-01	0	23	104	0	73	17153
2026-01-12 03:14:43.40	294.67	75.30	-54.0	-67.2	3.8	8.46e-01	0	23	104	0	73	17152
2026-01-12 03:14:47.43	286.97	74.92	-54.0	-67.2	3.8	8.46e-01	0	23	104	0	73	17147
2026-01-12 03:14:51.47	279.77	74.29	-54.0	-67.2	3.8	8.47e-01	0	23	104	0	73	17124
2026-01-12 03:14:55.51	273.24	73.45	-54.0	-67.2	3.8	8.45e-01	0	23	104	0	73	17135
2026-01-12 03:14:59.54	267.44	72.44	-54.0	-67.2	3.8	8.46e-01	0	23	104	0	73	17137
2026-01-12 03:15:03.57	262.36	71.28	-54.0	-67.2	3.8	8.46e-01	0	23	104	0	73	17189
2026-01-12 03:15:07.61	257.91	70.01	-54.0	-67.2	3.8	8.46e-01	0	23	104	0	73	17116
2026-01-12 03:15:11.65	254.05	68.67	-54.0	-67.2	3.8	8.46e-01	0	23	104	0	73	17193
2026-01-12 03:15:15.68	250.71	67.27	-54.0	-67.2	3.8	8.46e-01	0	23	104	0	73	17190
2026-01-12 03:15:19.72	247.78	65.82	-54.0	-67.2	3.8	8.44e-01	0	23	104	0	73	17220
2026-01-12 03:15:23.75	245.23	64.36	-54.0	-67.2	3.8	8.46e-01	0	23	104	0	73	17161
2026-01-12 03:15:27.78	242.98	62.89	-54.0	-67.2	3.8	8.45e-01	0	23	104	0	73	17150
2026-01-12 03:15:31.81	241.00	61.41	-54.0	-67.2	3.8	8.46e-01	0	23	104	0	73	17198
2026-01-12 03:15:35.85	239.24	59.93	-54.0	-67.2	3.8	8.46e-01	0	23	104	0	73	17170
2026-01-12 03:15:39.88	237.67	58.48	-54.0	-67.2	3.8	8.46e-01	0	23	104	0	73	17165
2026-01-12 03:15:43.92	236.26	57.03	-54.0	-67.2	3.8	8.45e-01	0	23	104	0	73	17133
2026-01-12 03:15:47.95	235.00	55.61	-54.0	-67.2	3.8	8.47e-01	0	23	104	0	73	17163
2026-01-12 03:15:51.98	233.86	54.21	-54.0	-67.2	3.8	8.46e-01	0	23	104	0	73	17141
2026-01-12 03:15:56.02	232.82	52.84	-54.0	-67.2	3.8	8.45e-01	0	23	104	0	73	17233
2026-01-12 03:16:00.06	231.87	51.50	-54.0	-67.1	3.8	8.45e-01	0	23	104	0	73	17077
2026-01-12 03:16:04.09	231.01	50.18	-54.0	-67.2	3.8	8.46e-01	0	23	104	0	73	17153
2026-01-12 03:16:08.13	230.22	48.90	-54.0	-67.2	3.8	8.46e-01	0	23	104	0	73	17190
2026-01-12 03:16:12.16	229.50	47.65	-54.0	-67.2	3.8	8.46e-01	0	23	104	0	73	17157
2026-01-12 03:16:16.20	228.83	46.42	-54.0	-67.2	3.8	8.44e-01	0	23	104	0	73	17179
2026-01-12 03:16:20.24	228.21	45.23	-54.0	-67.2	3.8	8.46e-01	0	23	104	0	73	17159
2026-01-12 03:16:24.27	227.63	44.07	-54.0	-67.2	3.8	8.46e-01	0	23	104	0	73	17170
2026-01-12 03:16:28.29	227.10	42.95	-54.0	-67.2	3.8	8.45e-01	0	23	104	0	73	17161
2026-01-12 03:16:32.32	226.60	41.85	-54.0	-67.2	3.8	8.46e-01	0	23	104	0	73	17198
2026-01-12 03:16:36.36	226.14	40.78	-54.0	-67.2	3.8	8.45e-01	0	23	104	0	73	17159
2026-01-12 03:16:40.40	225.71	39.74	-54.0	-67.2	3.8	8.46e-01	0	23	104	0	73	17187
2026-01-12 03:16:44.42	225.30	38.73	-54.0	-67.2	3.8	8.46e-01	0	23	104	0	73	17165
2026-01-12 03:16:48.46	224.92	37.74	-54.0	-67.2	3.8	8.46e-01	0	23	104	0	73	17109
2026-01-12 03:16:52.49	224.56	36.78	-54.0	-67.2	3.8	8.46e-01	0	23	104	0	73	17229
2026-01-12 03:16:56.53	224.22	35.85	-54.0	-67.2	3.8	8.46e-01	0	23	104	0	73	17148
2026-01-12 03:17:00.57	223.90	34.94	-54.0	-67.2	3.8	8.46e-01	0	23	104	0	73	17205
2026-01-12 03:17:04.60	223.60	34.06	-53.9	-67.2	3.8	8.46e-01	0	23	104	0	73	17151
2026-01-12 03:17:08.64	223.32	33.20	-54.0	-67.2	3.8	8.45e-01	0	23	104	0	73	17162
2026-01-12 03:17:12.67	223.05	32.36	-54.0	-67.2	3.8	8.47e-01	0	23	104	0	73	17168
2026-01-12 03:17:16.71	222.80	31.55	-53.9	-67.2	3.8	8.46e-01	0	23	104	0	73	17171
2026-01-12 03:17:20.75	222.55	30.76	-53.9	-67.2	3.8	8.46e-01	0	23	104	0	73	17183
2026-01-12 03:17:24.79	222.32	29.98	-53.9	-67.2	3.8	8.45e-01	0	23	104	0	73	17099
2026-01-12 03:17:28.82	222.10	29.23	-54.0	-67.2	3.8	8.45e-01	0	23	104	0	73	17157
2026-01-12 03:17:32.86	221.90	28.50	-54.0	-67.2	3.8	8.45e-01	0	23	104	0	73	17166
2026-01-12 03:17:36.89	221.70	27.78	-53.9	-67.2	3.8	8.46e-01	0	23	104	0	73	17171
2026-01-12 03:17:40.93	221.51	27.08	-54.0	-67.2	3.8	8.46e-01	0	23	104	0	73	17167
2026-01-12 03:17:44.97	221.33	26.40	-54.0	-67.2	3.8	8.44e-01	0	23	104	0	73	17140
2026-01-12 03:17:49.00	221.15	25.74	-54.0	-67.2	3.8	8.45e-01	0	23	104	0	73	17202
2026-01-12 03:17:53.04	220.99	25.09	-54.0	-67.2	3.8	8.45e-01	0	23	104	0	73	17143
2026-01-12 03:17:57.07	220.83	24.46	-54.0	-67.2	3.8	8.45e-01	0	23	104	0	73	17177
2026-01-12 03:18:01.11	220.68	23.84	-54.0	-67.2	3.8	8.45e-01	0	23	104	0	73	17102
2026-01-12 03:18:05.15	220.53	23.24	-54.0	-67.2	3.8	8.46e-01	0	23	104	0	73	17118
2026-01-12 03:18:09.18	220.39	22.65	-54.0	-67.2	3.8	8.45e-01	0	23	104	0	73	17168
2026-01-12 03:18:13.22	220.26	22.07	-54.0	-67.2	3.8	8.46e-01	0	23	104	0	73	17155
2026-01-12 03:18:17.25	220.13	21.50	-54.0	-67.2	3.8	8.47e-01	0	23	104	0	73	17151
2026-01-12 03:18:21.29	220.01	20.95	-54.0	-67.1	3.8	8.46e-01	0	23	104	0	73	17069
2026-01-12 03:18:25.33	219.89	20.41	-54.0	-67.2	3.8	8.45e-01	0	23	104	0	73	17121
2026-01-12 03:18:29.36	219.78	19.88	-53.9	-67.2	3.8	8.45e-01	0	23	104	0	73	17116
2026-01-12 03:18:33.40	219.67	19.36	-53.9	-67.2	3.8	8.45e-01	0	23	104	0	73	17164
2026-01-12 03:18:37.43	219.56	18.85	-54.0	-67.2	3.8	8.45e-01	0	23	104	0	73	17230
2026-01-12 03:18:41.47	219.46	18.35	-53.9	-67.2	3.8	8.45e-01	0	23	104	0	73	17104
2026-01-12 03:18:45.50	219.36	17.87	-54.0	-67.2	3.8	8.46e-01	0	23	104	0	73	17149
2026-01-12 03:18:49.54	219.27	17.39	-54.0	-67.2	3.8	8.46e-01	0	23	104	0	73	17137
2026-01-12 03:18:53.57	219.18	16.92	-53.9	-67.2	3.8	8.46e-01	0	23	104	0	73	17164
2026-01-12 03:18:57.60	219.09	16.46	-53.9	-67.2	3.8	8.46e-01	0	23	104	0	73	17125
2026-01-12 03:19:01.64	219.00	16.00	-54.0	-67.2	3.8	8.46e-01	0	23	104	0	73	17168
2026-01-12 03:19:05.68	218.92	15.56	-54.0	-67.2	3.8	8.47e-01	0	23	104	0	73	17150
2026-01-12 03:19:09.71	218.84	15.12	-53.9	-67.2	3.8	8.45e-01	0	23	104	0	73	17153
2026-01-12 03:19:13.74	218.77	14.70	-53.9	-67.2	3.8	8.46e-01	0	23	104	0	73	17114
2026-01-12 03:19:17.78	218.69	14.27	-53.9	-67.2	3.8	8.46e-01	0	23	104	0	73	17106
2026-01-12 03:19:21.81	218.62	13.86	-54.0	-67.2	3.8	8.47e-01	0	23	104	0	73	17111
2026-01-12 03:19:25.84	218.55	13.45	-54.0	-67.2	3.8	8.46e-01	0	23	104	0	73	17120
2026-01-12 03:19:29.87	218.48	13.05	-54.0	-67.1	3.8	8.46e-01	0	23	104	0	73	17081
2026-01-12 03:19:33.91	218.42	12.66	-54.0	-67.1	3.8	8.45e-01	0	23	104	0	73	17071
2026-01-12 03:19:37.94	218.36	12.27	-54.0	-67.2	3.8	8.46e-01	0	23	104	0	73	17144
2026-01-12 03:19:41.98	218.29	11.89	-53.9	-67.2	3.8	8.46e-01	0	23	104	0	73	17198
2026-01-12 03:19:46.02	218.24	11.51	-54.0	-67.2	3.8	8.46e-01	0	23	104	0	73	17173
2026-01-12 03:19:50.06	218.18	11.14	-54.0	-67.2	3.8	8.45e-01	0	23	104	0	73	17187
2026-01-12 03:19:54.09	218.12	10.78	-53.9	-67.2	3.8	8.46e-01	0	23	104	0	73	17171
2026-01-12 03:19:58.12	218.07	10.42	-54.0	-67.2	3.8	8.46e-01	0	23	104	0	73	17115
2026-01-12 03:20:02.16	218.02	10.06	-53.9	-67.2	3.8	8.45e-01	0	23	104	0	73	17105
2026-01-12 03:20:06.20	217.97	9.71	-54.0	-67.2	3.8	8.45e-01	0	23	104	0	73	17140
2026-01-12 03:20:10.23	217.92	9.37	-54.0	-67.2	3.8	8.45e-01	0	23	104	0	73	17198
2026-01-12 03:20:14.27	217.87	9.03	-53.9	-67.2	3.8	8.45e-01	0	23	104	0	73	17179
2026-01-12 03:20:18.30	217.82	8.69	-53.9	-67.2	3.8	8.45e-01	0	23	104	0	73	17192
2026-01-12 03:20:22.34	217.78	8.36	-53.9	-67.2	3.8	8.46e-01	0	23	104	0	73	17148
2026-01-12 03:20:26.38	217.73	8.03	-54.0	-67.2	3.8	8.46e-01	0	23	104	0	73	17098
2026-01-12 03:20:30.42	217.69	7.71	-54.0	-67.2	3.8	8.46e-01	0	23	104	0	73	17086
2026-01-12 03:20:34.46	217.65	7.39	-54.0	-67.2	3.8	8.46e-01	0	23	104	0	73	17122
2026-01-12 03:20:38.49	217.61	7.08	-54.0	-67.2	3.8	8.45e-01	0	23	104	0	73	17193
2026-01-12 03:20:42.53	217.57	6.77	-53.9	-67.2	3.8	8.46e-01	0	23	104	0	73	17136
2026-01-12 03:20:46.57	217.53	6.46	-53.9	-67.2	3.8	8.45e-01	0	23	104	0	73	17211
2026-01-12 03:20:50.60	217.50	6.16	-53.9	-67.2	3.8	8.46e-01	0	23	104	0	73	17123
2026-01-12 03:20:54.64	217.46	5.86	-53.9	-67.2	3.8	8.46e-01	0	23	104	0	73	17116
2026-01-12 03:20:58.66	217.43	5.56	-54.0	-67.1	3.8	8.45e-01	0	23	104	0	73	17050
2026-01-12 03:21:02.70	217.39	5.27	-54.0	-67.1	3.8	8.45e-01	0	23	104	0	73	16940
2026-01-12 03:21:06.74	217.36	4.98	-53.9	-67.1	3.8	8.46e-01	0	23	104	0	73	17042
2026-01-12 03:21:10.77	217.33	4.69	-53.9	-67.2	3.8	8.46e-01	0	23	104	0	73	17127
2026-01-12 03:21:14.80	217.30	4.40	-54.0	-67.2	3.8	8.45e-01	0	23	104	0	73	17165
2026-01-12 03:21:18.84	217.27	4.12	-53.9	-67.2	3.8	8.45e-01	0	23	104	0	73	17104
2026-01-12 03:21:22.88	217.24	3.85	-53.9	-67.2	3.8	8.46e-01	0	23	104	0	73	17126
2026-01-12 03:21:26.91	217.21	3.57	-54.0	-67.2	3.8	8.45e-01	0	23	104	0	73	17164
2026-01-12 03:21:30.94	217.18	3.30	-54.0	-67.2	3.8	8.46e-01	0	23	104	0	73	17143
2026-01-12 03:21:34.98	217.16	3.03	-53.9	-67.2	3.8	8.46e-01	0	23	104	0	73	17206
2026-01-12 03:21:39.02	217.13	2.76	-53.9	-67.2	3.8	8.46e-01	0	23	104	0	73	17160
2026-01-12 03:21:43.05	217.10	2.50	-53.9	-67.2	3.8	8.45e-01	0	23	104	0	73	17149
2026-01-12 03:21:47.07	217.08	2.23	-54.0	-67.2	3.8	8.45e-01	0	23	104	0	73	17182
2026-01-12 03:21:51.11	217.06	1.97	-53.9	-67.2	3.8	8.46e-01	0	23	104	0	73	17161

#Closed at: 2026-01-12 03:21:53
#Recorded file [0 MB]: D:/lorett/data/31004_260112_060727.dat