passes_logs/2026/01/12/R3.2S_Murmansk/R3.2S_Murmansk__20260112_040810_NOAA_20_JPSS-1_rec.log

#Pass ID: 20260112_040810_NOAA 20 (JPSS-1)
#Satellite: NOAA 20 (JPSS-1)
#Configuration: NOAA 20
#almurnet v.1.7.20251203
#Start time: 2026-01-12 04:08:12

#Version: 2.2.20231116
#Station: R3.2S_Murmansk
#Location: 33.079688 lon 68.888172 lat
#TLE: 1 43013U 17073A   26011.59429536  .00000082  00000+0  59704-4 0  9990
#TLE: 2 43013  98.7632 312.5697 0001637  44.2118 315.9188 14.19535307422256

#Time	Az	El	Level	Level2	SNR	BER	BlckErr	Temp	State	Recorded	gain1	gain2
2026-01-12 04:08:12.18	48.55	2.08	-53.8	-70.0	3.8	1.49e+00	0	20	0	0	72	25131
2026-01-12 04:08:15.21	48.37	2.25	-53.7	-70.0	3.8	1.49e+00	0	21	104	0	72	25161
2026-01-12 04:08:18.24	48.18	2.43	-53.7	-70.0	3.8	1.49e+00	0	21	104	0	72	25124
2026-01-12 04:08:21.26	48.00	2.60	-53.8	-70.0	3.8	1.49e+00	0	21	104	0	72	25124
2026-01-12 04:08:24.29	47.81	2.78	-53.7	-70.0	3.8	1.49e+00	0	21	104	0	72	25204
2026-01-12 04:08:27.31	47.61	2.96	-53.8	-70.0	3.8	1.49e+00	0	21	104	0	72	25240
2026-01-12 04:08:30.34	47.42	3.14	-53.8	-70.0	3.8	1.49e+00	0	21	104	0	72	25225
2026-01-12 04:08:33.37	47.22	3.32	-53.8	-70.0	3.8	1.49e+00	0	21	104	0	72	25249
2026-01-12 04:08:36.39	47.02	3.50	-53.8	-70.0	3.8	1.49e+00	0	21	104	0	72	25195
2026-01-12 04:08:39.42	46.82	3.68	-53.8	-70.1	3.8	1.49e+00	0	21	104	0	72	25307
2026-01-12 04:08:42.44	46.61	3.86	-53.8	-70.0	3.8	1.49e+00	0	21	104	0	72	25244
2026-01-12 04:08:45.47	46.40	4.04	-53.8	-70.1	3.8	1.49e+00	0	21	104	0	72	25270
2026-01-12 04:08:48.49	46.19	4.23	-53.8	-70.0	3.8	1.49e+00	0	21	104	0	72	25264
2026-01-12 04:08:51.52	45.98	4.41	-53.8	-70.1	3.8	1.49e+00	0	21	104	0	72	25281
2026-01-12 04:08:54.55	45.76	4.60	-53.8	-70.0	3.8	1.49e+00	0	21	104	0	72	25205
2026-01-12 04:08:57.58	45.54	4.78	-53.9	-70.1	3.8	1.49e+00	0	22	104	0	72	25375
2026-01-12 04:09:00.60	45.32	4.97	-53.8	-70.1	3.8	1.49e+00	0	22	104	0	72	25307
2026-01-12 04:09:03.63	45.09	5.16	-53.8	-70.1	3.8	1.49e+00	0	22	104	0	72	25303
2026-01-12 04:09:06.66	44.86	5.35	-53.8	-70.1	3.8	1.49e+00	0	22	104	0	72	25370
2026-01-12 04:09:09.68	44.63	5.54	-53.8	-70.1	3.8	1.49e+00	0	22	104	0	72	25330
2026-01-12 04:09:12.70	44.40	5.73	-53.9	-70.1	3.8	1.49e+00	0	22	104	0	72	25356
2026-01-12 04:09:15.73	44.16	5.92	-53.9	-70.1	3.8	1.49e+00	0	22	104	0	72	25312
2026-01-12 04:09:18.76	43.91	6.11	-53.8	-70.1	3.8	1.49e+00	0	22	104	0	72	25322
2026-01-12 04:09:21.78	43.67	6.30	-53.8	-70.1	3.8	1.49e+00	0	22	104	0	72	25372
2026-01-12 04:09:24.81	43.42	6.50	-53.7	-70.1	3.8	1.49e+00	0	22	104	0	72	25378
2026-01-12 04:09:27.84	43.17	6.70	-53.7	-70.1	3.8	1.49e+00	0	22	104	0	72	25461
2026-01-12 04:09:30.86	42.91	6.89	-53.8	-70.1	3.8	1.49e+00	0	22	104	0	72	25376
2026-01-12 04:09:33.89	42.65	7.09	-53.8	-70.1	3.8	1.49e+00	0	22	104	0	72	25366
2026-01-12 04:09:36.92	42.39	7.29	-53.9	-70.1	3.8	1.49e+00	0	22	104	0	72	25417
2026-01-12 04:09:39.94	42.12	7.49	-53.8	-70.1	3.8	1.49e+00	0	22	104	0	72	25386
2026-01-12 04:09:42.97	41.85	7.69	-53.9	-70.1	3.8	1.49e+00	0	22	104	0	72	25442
2026-01-12 04:09:45.99	41.58	7.89	-53.9	-70.1	3.8	1.49e+00	0	22	104	0	73	24062
2026-01-12 04:09:49.02	41.30	8.09	-53.9	-70.1	3.8	1.49e+00	0	22	104	0	73	24120
2026-01-12 04:09:52.05	41.02	8.29	-53.9	-70.1	3.8	1.49e+00	0	22	104	0	73	24115
2026-01-12 04:09:55.08	40.73	8.50	-53.9	-70.1	3.8	1.49e+00	0	22	104	0	73	24085
2026-01-12 04:09:58.10	40.44	8.70	-54.0	-70.1	3.8	1.49e+00	0	22	104	0	73	24026
2026-01-12 04:10:01.12	40.15	8.91	-54.0	-70.1	3.8	1.49e+00	0	22	104	0	73	24067
2026-01-12 04:10:04.15	39.85	9.11	-54.0	-70.1	3.8	1.49e+00	0	22	104	0	73	24109
2026-01-12 04:10:07.17	39.54	9.32	-54.0	-70.1	3.8	1.49e+00	0	22	104	0	73	24086
2026-01-12 04:10:10.21	39.23	9.53	-54.0	-70.1	3.8	1.49e+00	0	22	104	0	73	24112
2026-01-12 04:10:13.23	38.92	9.74	-53.9	-70.2	3.8	1.49e+00	0	22	104	0	73	24131
2026-01-12 04:10:16.26	38.60	9.95	-53.8	-70.2	3.8	1.49e+00	0	22	104	0	73	24180
2026-01-12 04:10:19.29	38.28	10.16	-53.9	-70.1	3.8	1.49e+00	0	22	104	0	73	24124
2026-01-12 04:10:22.31	37.95	10.37	-53.9	-70.2	3.8	1.49e+00	0	22	104	0	73	24177
2026-01-12 04:10:25.34	37.62	10.59	-53.9	-70.2	3.8	1.49e+00	0	22	104	0	73	24168
2026-01-12 04:10:28.36	37.29	10.80	-53.9	-70.1	3.8	1.49e+00	0	22	104	0	73	24072
2026-01-12 04:10:31.37	36.95	11.01	-54.0	-70.2	3.8	1.49e+00	0	23	104	0	73	24172
2026-01-12 04:10:34.40	36.60	11.23	-53.9	-70.1	3.8	1.49e+00	0	22	104	0	73	24069
2026-01-12 04:10:37.42	36.25	11.45	-53.9	-70.2	3.8	1.49e+00	0	22	104	0	73	24183
2026-01-12 04:10:40.45	35.89	11.66	-53.9	-70.2	3.8	1.49e+00	0	23	104	0	73	24198
2026-01-12 04:10:43.47	35.52	11.88	-54.0	-70.2	3.8	1.49e+00	0	23	104	0	73	24147
2026-01-12 04:10:46.50	35.15	12.10	-53.9	-70.2	3.8	1.49e+00	0	23	104	0	73	24159
2026-01-12 04:10:49.53	34.78	12.32	-53.9	-70.2	3.8	1.49e+00	0	22	104	0	73	24152
2026-01-12 04:10:52.56	34.40	12.54	-53.9	-70.2	3.8	1.49e+00	0	22	104	0	73	24148
2026-01-12 04:10:55.58	34.01	12.76	-53.9	-70.1	3.8	1.49e+00	0	22	104	0	73	24126
2026-01-12 04:10:58.60	33.62	12.98	-53.9	-70.2	3.8	1.49e+00	0	22	104	0	73	24211
2026-01-12 04:11:01.63	33.22	13.21	-53.9	-70.1	3.8	1.49e+00	0	23	104	0	73	24129
2026-01-12 04:11:04.66	32.82	13.43	-54.0	-70.2	3.8	1.49e+00	0	22	104	0	73	24197
2026-01-12 04:11:07.69	32.40	13.66	-53.9	-70.1	3.8	1.49e+00	0	23	104	0	73	24085
2026-01-12 04:11:10.71	31.99	13.88	-53.9	-70.1	3.8	1.49e+00	0	23	104	0	73	24093
2026-01-12 04:11:13.74	31.56	14.10	-53.9	-70.2	3.8	1.49e+00	0	23	104	0	73	24158
2026-01-12 04:11:16.77	31.13	14.33	-53.9	-70.1	3.8	1.49e+00	0	23	104	0	73	24088
2026-01-12 04:11:19.79	30.69	14.55	-53.9	-70.2	3.8	1.49e+00	0	22	104	0	73	24237
2026-01-12 04:11:22.82	30.25	14.78	-54.0	-70.1	3.8	1.49e+00	0	22	104	0	73	24089
2026-01-12 04:11:25.86	29.80	15.01	-54.0	-70.2	3.8	1.49e+00	0	22	104	0	73	24165
2026-01-12 04:11:28.88	29.34	15.23	-54.0	-70.2	3.8	1.49e+00	0	23	104	0	73	24146
2026-01-12 04:11:31.91	28.87	15.46	-53.9	-70.1	3.8	1.49e+00	0	23	104	0	73	24110
2026-01-12 04:11:34.94	28.40	15.69	-53.9	-70.1	3.8	1.49e+00	0	22	104	0	73	24105
2026-01-12 04:11:37.96	27.92	15.92	-54.0	-70.2	3.8	1.49e+00	0	23	104	0	73	24182
2026-01-12 04:11:40.98	27.43	16.14	-54.0	-70.2	3.8	1.49e+00	0	23	104	0	73	24241
2026-01-12 04:11:43.99	26.94	16.37	-54.0	-70.2	3.8	1.49e+00	0	23	104	0	73	24154
2026-01-12 04:11:47.01	26.44	16.60	-54.0	-70.2	3.8	1.49e+00	0	23	104	0	73	24137
2026-01-12 04:11:50.04	25.93	16.82	-54.0	-70.1	3.8	1.49e+00	0	23	104	0	73	24117
2026-01-12 04:11:53.06	25.41	17.05	-54.0	-70.2	3.8	1.49e+00	0	23	104	0	73	24154
2026-01-12 04:11:56.08	24.89	17.27	-54.0	-70.2	3.8	1.49e+00	0	23	104	0	73	24166
2026-01-12 04:11:59.10	24.35	17.50	-53.9	-70.1	3.8	1.49e+00	0	23	104	0	73	24113
2026-01-12 04:12:02.13	23.81	17.72	-53.9	-70.1	3.8	1.49e+00	0	23	104	0	73	24130
2026-01-12 04:12:05.16	23.26	17.95	-53.9	-70.2	3.8	1.49e+00	0	23	104	0	73	24141
2026-01-12 04:12:08.19	22.70	18.17	-54.0	-70.2	3.8	1.49e+00	0	23	104	0	73	24158
2026-01-12 04:12:11.22	22.13	18.40	-53.9	-70.2	3.8	1.49e+00	0	23	104	0	73	24185
2026-01-12 04:12:14.23	21.56	18.62	-54.0	-70.2	3.8	1.49e+00	0	23	104	0	73	24235
2026-01-12 04:12:17.26	20.97	18.84	-54.0	-70.1	3.8	1.49e+00	0	23	104	0	73	24128
2026-01-12 04:12:20.29	20.38	19.06	-53.9	-70.2	3.8	1.49e+00	0	23	104	0	73	24180
2026-01-12 04:12:23.31	19.78	19.28	-54.0	-70.2	3.8	1.49e+00	0	23	104	0	73	24169
2026-01-12 04:12:26.34	19.16	19.49	-54.0	-70.2	3.8	1.49e+00	0	23	104	0	73	24158
2026-01-12 04:12:29.37	18.54	19.71	-54.0	-70.2	3.8	1.49e+00	0	23	104	0	73	24181
2026-01-12 04:12:32.40	17.92	19.92	-53.9	-70.2	3.8	1.49e+00	0	23	104	0	73	24190
2026-01-12 04:12:35.43	17.28	20.13	-54.0	-70.1	3.8	1.49e+00	0	23	104	0	73	24114
2026-01-12 04:12:38.45	16.63	20.34	-54.0	-70.2	3.8	1.49e+00	0	22	104	0	73	24201
2026-01-12 04:12:41.48	15.98	20.55	-54.0	-70.2	3.8	1.49e+00	0	23	104	0	73	24184
2026-01-12 04:12:44.50	15.31	20.75	-54.0	-70.2	3.8	1.49e+00	0	23	104	0	73	24187
2026-01-12 04:12:47.53	14.64	20.96	-54.0	-70.2	3.8	1.49e+00	0	23	104	0	73	24203
2026-01-12 04:12:50.56	13.96	21.16	-54.0	-70.2	3.8	1.49e+00	0	23	104	0	73	24215
2026-01-12 04:12:53.58	13.27	21.35	-53.9	-70.2	3.8	1.49e+00	0	23	104	0	73	24192
2026-01-12 04:12:56.61	12.57	21.55	-54.0	-70.2	3.8	1.49e+00	0	23	104	0	73	24195
2026-01-12 04:12:59.63	11.86	21.74	-54.0	-70.2	3.8	1.49e+00	0	23	104	0	73	24183
2026-01-12 04:13:02.66	11.14	21.92	-54.0	-70.2	3.8	1.49e+00	0	23	104	0	73	24221
2026-01-12 04:13:05.69	10.41	22.11	-54.0	-70.2	3.8	1.49e+00	0	23	104	0	73	24164
2026-01-12 04:13:08.72	9.68	22.29	-54.0	-70.2	3.8	1.49e+00	0	23	104	0	73	24248
2026-01-12 04:13:11.74	8.94	22.47	-54.0	-70.2	3.8	1.49e+00	0	23	104	0	73	24173
2026-01-12 04:13:14.77	8.18	22.64	-54.0	-70.2	3.8	1.49e+00	0	23	104	0	73	24244
2026-01-12 04:13:17.80	7.42	22.81	-54.0	-70.2	3.8	1.49e+00	0	23	104	0	73	24185
2026-01-12 04:13:20.83	6.65	22.97	-53.9	-70.2	3.8	1.49e+00	0	23	104	0	73	24183
2026-01-12 04:13:23.85	5.88	23.13	-54.0	-70.2	3.8	1.49e+00	0	23	104	0	73	24254
2026-01-12 04:13:26.88	5.09	23.28	-54.0	-70.2	3.8	1.49e+00	0	23	104	0	73	24214
2026-01-12 04:13:29.90	4.30	23.43	-53.9	-70.2	3.8	1.49e+00	0	23	104	0	73	24266
2026-01-12 04:13:32.92	3.51	23.58	-53.9	-70.2	3.8	1.49e+00	0	23	104	0	73	24237
2026-01-12 04:13:35.96	2.70	23.71	-53.9	-70.2	3.8	1.49e+00	0	23	104	0	73	24216
2026-01-12 04:13:38.98	1.88	23.85	-54.0	-70.2	3.8	1.49e+00	0	23	104	0	73	24191
2026-01-12 04:13:42.01	1.06	23.98	-54.0	-70.2	3.8	1.49e+00	0	23	104	0	73	24233
2026-01-12 04:13:45.04	0.23	24.10	-54.0	-70.2	3.8	1.49e+00	0	23	104	0	73	24216
2026-01-12 04:13:48.06	359.40	24.21	-53.9	-70.2	3.8	1.49e+00	0	23	104	0	73	24141
2026-01-12 04:13:51.09	358.56	24.32	-54.0	-70.2	3.8	1.49e+00	0	23	104	0	73	24171
2026-01-12 04:13:54.11	357.72	24.43	-54.0	-70.2	3.8	1.49e+00	0	23	104	0	73	24194
2026-01-12 04:13:57.13	356.87	24.52	-54.0	-70.2	3.8	1.49e+00	0	23	104	0	73	24208
2026-01-12 04:14:00.15	356.01	24.61	-54.0	-70.2	3.8	1.49e+00	0	23	104	0	73	24202
2026-01-12 04:14:03.18	355.15	24.70	-54.0	-70.2	3.8	1.49e+00	0	23	104	0	73	24260
2026-01-12 04:14:06.20	354.29	24.77	-54.0	-70.2	3.8	1.49e+00	0	23	104	0	73	24220
2026-01-12 04:14:09.23	353.42	24.84	-54.0	-70.2	3.8	1.49e+00	0	23	104	0	73	24236
2026-01-12 04:14:12.26	352.54	24.90	-54.0	-70.2	3.8	1.49e+00	0	23	104	0	73	24217
2026-01-12 04:14:15.28	351.67	24.96	-53.9	-70.2	3.8	1.49e+00	0	23	104	0	73	24249
2026-01-12 04:14:18.31	350.79	25.01	-53.9	-70.2	3.8	1.49e+00	0	23	104	0	73	24259
2026-01-12 04:14:21.34	349.90	25.05	-54.0	-70.2	3.8	1.49e+00	0	23	104	0	73	24270
2026-01-12 04:14:24.37	349.02	25.08	-53.9	-70.2	3.8	1.49e+00	0	23	104	0	73	24247
2026-01-12 04:14:27.39	348.13	25.11	-54.0	-70.2	3.8	1.49e+00	0	23	104	0	73	24249
2026-01-12 04:14:30.42	347.25	25.13	-54.0	-70.2	3.8	1.49e+00	0	23	104	0	73	24221
2026-01-12 04:14:33.45	346.36	25.14	-54.0	-70.2	3.8	1.49e+00	0	23	104	0	73	24221
2026-01-12 04:14:36.47	345.47	25.14	-54.0	-70.2	3.8	1.49e+00	0	23	104	0	73	24223
2026-01-12 04:14:39.49	344.59	25.14	-53.9	-70.2	3.8	1.49e+00	0	23	104	0	73	24292
2026-01-12 04:14:42.52	343.70	25.12	-54.0	-70.2	3.8	1.49e+00	0	23	104	0	73	24212
2026-01-12 04:14:45.54	342.81	25.11	-53.9	-70.2	3.8	1.49e+00	0	23	104	0	73	24264
2026-01-12 04:14:48.57	341.93	25.08	-54.0	-70.2	3.8	1.49e+00	0	23	104	0	73	24214
2026-01-12 04:14:51.60	341.04	25.04	-53.9	-70.2	3.8	1.49e+00	0	23	104	0	73	24292
2026-01-12 04:14:54.62	340.16	25.00	-53.9	-70.2	3.8	1.49e+00	0	23	104	0	73	24269
2026-01-12 04:14:57.65	339.28	24.95	-54.0	-70.2	3.8	1.49e+00	0	23	104	0	73	24218
2026-01-12 04:15:00.67	338.41	24.90	-54.0	-70.2	3.8	1.49e+00	0	23	104	0	73	24175
2026-01-12 04:15:03.70	337.53	24.84	-53.9	-70.2	3.8	1.49e+00	0	23	104	0	73	24207
2026-01-12 04:15:06.73	336.66	24.76	-53.9	-70.2	3.8	1.49e+00	0	23	104	0	73	24250
2026-01-12 04:15:09.76	335.79	24.69	-53.9	-70.2	3.8	1.49e+00	0	23	104	0	73	24216
2026-01-12 04:15:12.79	334.93	24.60	-53.9	-70.2	3.8	1.49e+00	0	23	104	0	73	24274
2026-01-12 04:15:15.81	334.08	24.51	-53.9	-70.2	3.8	1.49e+00	0	23	104	0	73	24213
2026-01-12 04:15:18.83	333.23	24.42	-54.0	-70.2	3.8	1.49e+00	0	23	104	0	73	24193
2026-01-12 04:15:21.86	332.38	24.31	-53.9	-70.2	3.8	1.49e+00	0	23	104	0	73	24268
2026-01-12 04:15:24.89	331.54	24.20	-54.1	-70.2	3.8	1.49e+00	0	23	104	0	73	24253
2026-01-12 04:15:27.91	330.71	24.09	-54.0	-70.2	3.8	1.49e+00	0	23	104	0	73	24251
2026-01-12 04:15:30.94	329.88	23.96	-54.0	-70.2	3.8	1.49e+00	0	23	104	0	73	24259
2026-01-12 04:15:33.97	329.06	23.83	-54.0	-70.2	3.8	1.49e+00	0	23	104	0	73	24279
2026-01-12 04:15:36.99	328.25	23.70	-54.0	-70.2	3.8	1.49e+00	0	23	104	0	73	24214
2026-01-12 04:15:40.01	327.44	23.56	-54.0	-70.2	3.8	1.49e+00	0	23	104	0	73	24216
2026-01-12 04:15:43.04	326.64	23.42	-54.0	-70.2	3.8	1.49e+00	0	23	104	0	73	24252
2026-01-12 04:15:46.06	325.85	23.27	-54.0	-70.2	3.8	1.49e+00	0	23	104	0	73	24280
2026-01-12 04:15:49.09	325.07	23.11	-54.0	-70.2	3.8	1.49e+00	0	23	104	0	73	24213
2026-01-12 04:15:52.12	324.29	22.95	-54.0	-70.2	3.8	1.49e+00	0	23	104	0	73	24190
2026-01-12 04:15:55.14	323.53	22.79	-53.9	-70.2	3.8	1.49e+00	0	23	104	0	73	24234
2026-01-12 04:15:58.17	322.77	22.62	-54.0	-70.2	3.8	1.49e+00	0	23	104	0	73	24182
2026-01-12 04:16:01.20	322.01	22.45	-54.0	-70.2	3.8	1.49e+00	0	23	104	0	73	24302
2026-01-12 04:16:04.23	321.27	22.27	-54.0	-70.2	3.8	1.49e+00	0	23	104	0	73	24240
2026-01-12 04:16:07.26	320.53	22.09	-54.0	-70.2	3.8	1.49e+00	0	23	104	0	73	24268
2026-01-12 04:16:10.28	319.81	21.91	-54.0	-70.2	3.8	1.49e+00	0	23	104	0	73	24264
2026-01-12 04:16:13.31	319.09	21.72	-54.0	-70.2	3.8	1.49e+00	0	23	104	0	73	24204
2026-01-12 04:16:16.32	318.39	21.53	-54.0	-70.2	3.8	1.49e+00	0	23	104	0	73	24257
2026-01-12 04:16:19.35	317.69	21.33	-54.0	-70.2	3.8	1.49e+00	0	23	104	0	73	24306
2026-01-12 04:16:22.38	317.00	21.14	-53.9	-70.2	3.8	1.49e+00	0	23	104	0	73	24235
2026-01-12 04:16:25.40	316.32	20.94	-54.0	-70.2	3.8	1.49e+00	0	23	104	0	73	24279
2026-01-12 04:16:28.43	315.64	20.73	-54.0	-70.2	3.8	1.49e+00	0	23	104	0	73	24203
2026-01-12 04:16:31.45	314.98	20.53	-54.0	-70.2	3.8	1.49e+00	0	23	104	0	73	24167
2026-01-12 04:16:34.48	314.32	20.32	-54.0	-70.2	3.8	1.49e+00	0	23	104	0	73	24318
2026-01-12 04:16:37.50	313.68	20.11	-54.0	-70.2	3.8	1.49e+00	0	23	104	0	73	24252
2026-01-12 04:16:40.53	313.04	19.90	-54.0	-70.2	3.8	1.49e+00	0	23	104	0	73	24239
2026-01-12 04:16:43.55	312.42	19.69	-54.0	-70.2	3.8	1.49e+00	0	23	104	0	73	24183
2026-01-12 04:16:46.58	311.80	19.47	-54.0	-70.2	3.8	1.49e+00	0	23	104	0	73	24224
2026-01-12 04:16:49.60	311.19	19.25	-54.0	-70.2	3.8	1.49e+00	0	23	104	0	73	24278
2026-01-12 04:16:52.62	310.59	19.04	-54.0	-70.2	3.8	1.49e+00	0	23	104	0	73	24225
2026-01-12 04:16:55.65	309.99	18.82	-53.9	-70.2	3.8	1.49e+00	0	23	104	0	73	24285
2026-01-12 04:16:58.67	309.41	18.60	-54.0	-70.2	3.8	1.49e+00	0	23	104	0	73	24161
2026-01-12 04:17:01.70	308.83	18.37	-54.0	-70.2	3.8	1.49e+00	0	23	104	0	73	24174
2026-01-12 04:17:04.73	308.26	18.15	-53.9	-70.2	3.8	1.49e+00	0	23	104	0	73	24292
2026-01-12 04:17:07.76	307.70	17.93	-53.9	-70.2	3.8	1.49e+00	0	23	104	0	73	24262
2026-01-12 04:17:10.78	307.15	17.70	-54.0	-70.2	3.8	1.49e+00	0	23	104	0	73	24168
2026-01-12 04:17:13.81	306.61	17.48	-53.9	-70.2	3.8	1.49e+00	0	23	104	0	73	24202
2026-01-12 04:17:16.84	306.08	17.25	-54.0	-70.2	3.8	1.49e+00	0	23	104	0	73	24215
2026-01-12 04:17:19.87	305.55	17.02	-53.9	-70.2	3.8	1.49e+00	0	23	104	0	73	24294
2026-01-12 04:17:22.89	305.03	16.80	-53.9	-70.2	3.8	1.49e+00	0	23	104	0	73	24213
2026-01-12 04:17:25.92	304.52	16.57	-53.9	-70.2	3.8	1.49e+00	0	23	104	0	73	24263
2026-01-12 04:17:28.94	304.02	16.34	-54.0	-70.2	3.8	1.49e+00	0	23	104	0	73	24270
2026-01-12 04:17:31.96	303.53	16.12	-53.9	-70.2	3.8	1.49e+00	0	23	104	0	73	24230
2026-01-12 04:17:34.99	303.04	15.89	-53.9	-70.2	3.8	1.49e+00	0	23	104	0	73	24250
2026-01-12 04:17:38.01	302.56	15.66	-54.0	-70.2	3.8	1.49e+00	0	23	104	0	73	24210
2026-01-12 04:17:41.04	302.09	15.44	-54.0	-70.2	3.8	1.49e+00	0	23	104	0	73	24171
2026-01-12 04:17:44.06	301.62	15.21	-54.0	-70.2	3.8	1.49e+00	0	23	104	0	73	24180
2026-01-12 04:17:47.08	301.16	14.98	-54.0	-70.2	3.8	1.49e+00	0	23	104	0	73	24177
2026-01-12 04:17:50.11	300.71	14.76	-53.9	-70.2	3.8	1.49e+00	0	23	104	0	73	24198
2026-01-12 04:17:53.13	300.27	14.53	-54.0	-70.2	3.8	1.49e+00	0	23	104	0	73	24263
2026-01-12 04:17:56.16	299.83	14.30	-54.0	-70.2	3.8	1.49e+00	0	23	104	0	73	24190
2026-01-12 04:17:59.19	299.40	14.08	-54.0	-70.2	3.8	1.49e+00	0	23	104	0	73	24217
2026-01-12 04:18:02.21	298.98	13.85	-54.0	-70.1	3.8	1.49e+00	0	23	104	0	73	24088
2026-01-12 04:18:05.24	298.56	13.63	-54.0	-70.1	3.8	1.49e+00	0	23	104	0	73	24078
2026-01-12 04:18:08.27	298.15	13.41	-54.0	-70.2	3.8	1.49e+00	0	23	104	0	73	24197
2026-01-12 04:18:11.29	297.74	13.18	-54.0	-70.2	3.8	1.49e+00	0	23	104	0	73	24217
2026-01-12 04:18:14.32	297.34	12.96	-53.9	-70.2	3.8	1.49e+00	0	23	104	0	73	24220
2026-01-12 04:18:17.34	296.95	12.74	-54.0	-70.2	3.8	1.49e+00	0	23	104	0	73	24203
2026-01-12 04:18:20.37	296.57	12.52	-53.9	-70.2	3.8	1.49e+00	0	23	104	0	73	24285
2026-01-12 04:18:23.39	296.19	12.30	-54.0	-70.2	3.8	1.49e+00	0	23	104	0	73	24240
2026-01-12 04:18:26.42	295.81	12.08	-54.0	-70.2	3.8	1.49e+00	0	23	104	0	73	24319
2026-01-12 04:18:29.46	295.44	11.86	-54.0	-70.2	3.8	1.49e+00	0	23	104	0	73	24273
2026-01-12 04:18:32.48	295.08	11.64	-54.0	-70.2	3.8	1.49e+00	0	23	104	0	73	24276
2026-01-12 04:18:35.51	294.72	11.42	-53.9	-70.2	3.8	1.49e+00	0	23	104	0	73	24245
2026-01-12 04:18:38.53	294.37	11.20	-54.0	-70.2	3.8	1.49e+00	0	23	104	0	73	24220
2026-01-12 04:18:41.56	294.02	10.99	-54.0	-70.2	3.8	1.49e+00	0	23	104	0	73	24276
2026-01-12 04:18:44.60	293.67	10.77	-53.9	-70.2	3.8	1.49e+00	0	23	104	0	73	24249
2026-01-12 04:18:47.62	293.34	10.56	-54.0	-70.2	3.8	1.49e+00	0	23	104	0	73	24286
2026-01-12 04:18:50.65	293.01	10.35	-54.0	-70.2	3.8	1.49e+00	0	23	104	0	73	24275
2026-01-12 04:18:53.67	292.68	10.13	-54.0	-70.2	3.8	1.49e+00	0	23	104	0	73	24236
2026-01-12 04:18:56.69	292.36	9.92	-54.0	-70.2	3.8	1.49e+00	0	23	104	0	73	24167
2026-01-12 04:18:59.72	292.04	9.71	-54.0	-70.2	3.8	1.49e+00	0	23	104	0	73	24243
2026-01-12 04:19:02.74	291.73	9.50	-54.0	-70.2	3.8	1.49e+00	0	23	104	0	73	24318
2026-01-12 04:19:05.78	291.42	9.29	-54.0	-70.2	3.8	1.49e+00	0	23	104	0	73	24251
2026-01-12 04:19:08.80	291.11	9.09	-54.0	-70.2	3.8	1.49e+00	0	23	104	0	73	24318
2026-01-12 04:19:11.83	290.81	8.88	-54.0	-70.2	3.8	1.49e+00	0	23	104	0	73	24241
2026-01-12 04:19:14.86	290.52	8.67	-54.0	-70.2	3.8	1.49e+00	0	23	104	0	73	24267
2026-01-12 04:19:17.88	290.23	8.47	-54.0	-70.2	3.8	1.49e+00	0	23	104	0	73	24265
2026-01-12 04:19:20.91	289.94	8.26	-54.0	-70.2	3.8	1.49e+00	0	23	104	0	73	24264
2026-01-12 04:19:23.94	289.66	8.06	-54.0	-70.2	3.8	1.49e+00	0	23	104	0	73	24190
2026-01-12 04:19:26.96	289.38	7.86	-54.0	-70.2	3.8	1.49e+00	0	23	104	0	73	24205
2026-01-12 04:19:29.99	289.10	7.66	-54.0	-70.2	3.8	1.49e+00	0	23	104	0	73	24274
2026-01-12 04:19:33.02	288.83	7.46	-54.0	-70.2	3.8	1.49e+00	0	23	104	0	73	24203
2026-01-12 04:19:36.05	288.57	7.26	-54.0	-70.2	3.8	1.49e+00	0	23	104	0	73	24279
2026-01-12 04:19:39.07	288.30	7.06	-54.0	-70.2	3.8	1.49e+00	0	23	104	0	73	24251
2026-01-12 04:19:42.10	288.04	6.86	-54.0	-70.2	3.8	1.49e+00	0	23	104	0	73	24289
2026-01-12 04:19:45.13	287.79	6.67	-54.0	-70.2	3.8	1.49e+00	0	23	104	0	73	24249
2026-01-12 04:19:48.15	287.54	6.47	-54.0	-70.2	3.8	1.49e+00	0	23	104	0	73	24255
2026-01-12 04:19:51.18	287.29	6.28	-54.0	-70.2	3.8	1.49e+00	0	23	104	0	73	24307
2026-01-12 04:19:54.21	287.04	6.08	-54.0	-70.2	3.8	1.49e+00	0	23	104	0	73	24306
2026-01-12 04:19:57.24	286.80	5.89	-54.0	-70.2	3.8	1.49e+00	0	23	104	0	73	24289
2026-01-12 04:20:00.26	286.56	5.70	-54.0	-70.2	3.8	1.49e+00	0	23	104	0	73	24260
2026-01-12 04:20:03.29	286.32	5.51	-54.0	-70.2	3.8	1.49e+00	0	23	104	0	73	24303
2026-01-12 04:20:06.33	286.09	5.32	-54.1	-70.2	3.8	1.49e+00	0	23	104	0	73	24335
2026-01-12 04:20:09.35	285.86	5.13	-54.1	-70.2	3.8	1.49e+00	0	23	104	0	73	24266
2026-01-12 04:20:12.38	285.64	4.94	-54.0	-70.2	3.8	1.49e+00	0	23	104	0	73	24234
2026-01-12 04:20:15.41	285.41	4.75	-54.0	-70.2	3.8	1.49e+00	0	23	104	0	73	24307
2026-01-12 04:20:18.43	285.19	4.57	-54.0	-70.2	3.8	1.49e+00	0	23	104	0	73	24231
2026-01-12 04:20:21.46	284.98	4.38	-54.1	-70.2	3.8	1.49e+00	0	23	104	0	73	24250
2026-01-12 04:20:24.49	284.76	4.20	-54.0	-70.2	3.8	1.49e+00	0	23	104	0	73	24261
2026-01-12 04:20:27.52	284.55	4.01	-54.0	-70.2	3.8	1.49e+00	0	23	104	0	73	24296
2026-01-12 04:20:30.54	284.34	3.83	-54.0	-70.2	3.8	1.49e+00	0	23	104	0	73	24303
2026-01-12 04:20:33.57	284.13	3.65	-54.0	-70.2	3.8	1.49e+00	0	23	104	0	73	24266
2026-01-12 04:20:36.60	283.93	3.47	-54.0	-70.2	3.8	1.49e+00	0	23	104	0	73	24322
2026-01-12 04:20:39.62	283.73	3.29	-54.0	-70.2	3.8	1.49e+00	0	23	104	0	73	24305
2026-01-12 04:20:42.65	283.53	3.11	-54.0	-70.2	3.8	1.49e+00	0	23	104	0	73	24267
2026-01-12 04:20:45.68	283.34	2.93	-54.0	-70.2	3.8	1.49e+00	0	23	104	0	73	24231
2026-01-12 04:20:48.70	283.14	2.75	-54.0	-70.2	3.8	1.49e+00	0	23	104	0	73	24293
2026-01-12 04:20:51.73	282.95	2.57	-54.0	-70.2	3.8	1.49e+00	0	23	104	0	73	24245
2026-01-12 04:20:54.76	282.76	2.40	-54.0	-70.2	3.8	1.49e+00	0	23	104	0	73	24350
2026-01-12 04:20:57.79	282.58	2.22	-54.0	-70.2	3.8	1.49e+00	0	23	104	0	73	24332
2026-01-12 04:21:00.81	282.39	2.05	-54.0	-70.2	3.8	1.49e+00	0	23	104	0	73	24246

#Closed at: 2026-01-12 04:21:02
#Recorded file [0 MB]: D:/lorett/data/31004_260112_070811.dat