passes_logs/2026/01/12/R3.2S_Murmansk/R3.2S_Murmansk__20260112_100639_AQUA_rec.log

#Pass ID: 20260112_100639_AQUA
#Satellite: AQUA
#Configuration: AQUA
#almurnet v.1.7.20251203
#Start time: 2026-01-12 10:09:53

#Version: 2.2.20231116
#Station: R3.2S_Murmansk
#Location: 33.079688 lon 68.888172 lat
#TLE: 1 27424U 02022A   26011.60158398  .00001056  00000+0  22133-3 0  9990
#TLE: 2 27424  98.4078 337.9720 0002034  82.3051 337.8743 14.61815760260390

#Time	Az	El	Level	Level2	SNR	BER	BlckErr	Temp	State	Recorded	gain1	gain2
2026-01-12 10:09:53.84	111.01	19.38	-59.5	-73.3	3.8	1.49e+00	0	22	0	0	84	18385
2026-01-12 10:09:56.85	110.63	19.77	-58.8	-78.2	3.8	7.50e-01	0	22	104	0	85	35318
2026-01-12 10:09:59.87	110.23	20.17	-58.7	-78.0	3.8	7.46e-01	0	22	104	0	85	34840
2026-01-12 10:10:02.86	109.82	20.56	-58.6	-78.0	3.8	7.51e-01	0	23	104	0	85	34626
2026-01-12 10:10:05.86	109.41	20.97	-58.5	-77.9	3.8	7.44e-01	0	22	104	0	85	34134
2026-01-12 10:10:08.86	108.98	21.38	-58.4	-77.7	3.8	7.47e-01	0	23	104	0	85	33644
2026-01-12 10:10:11.87	108.53	21.79	-58.3	-77.6	3.8	7.45e-01	0	22	104	0	85	33241
2026-01-12 10:10:14.85	108.08	22.21	-58.3	-77.6	3.8	7.46e-01	0	23	104	0	85	33014
2026-01-12 10:10:17.84	107.62	22.63	-58.2	-77.6	3.8	7.43e-01	0	22	104	0	85	33070
2026-01-12 10:10:20.84	107.13	23.07	-58.2	-77.5	3.8	7.45e-01	0	23	104	0	85	32887
2026-01-12 10:10:23.84	106.64	23.50	-58.2	-77.5	3.8	7.44e-01	0	22	104	0	85	32810
2026-01-12 10:10:26.81	106.13	23.94	-58.2	-77.5	3.8	7.44e-01	0	23	104	0	85	32771
2026-01-12 10:10:29.76	105.61	24.39	-58.2	-77.4	3.8	7.47e-01	0	23	104	0	85	32530
2026-01-12 10:10:32.73	105.08	24.84	-58.2	-77.3	3.8	7.46e-01	0	22	104	0	85	32167
2026-01-12 10:10:35.68	104.53	25.29	-58.2	-77.5	3.8	7.48e-01	0	23	104	0	85	32687
2026-01-12 10:10:38.63	103.96	25.75	-58.2	-77.4	3.8	7.46e-01	0	23	104	0	85	32208
2026-01-12 10:10:41.59	103.37	26.21	-58.1	-77.0	3.8	7.46e-01	0	23	104	0	85	30732
2026-01-12 10:10:44.54	102.77	26.68	-57.6	-74.3	3.9	7.50e-01	0	23	104	0	84	24062
2026-01-12 10:10:47.49	102.15	27.16	-52.8	-64.8	3.8	7.47e-01	0	22	104	0	74	14230
2026-01-12 10:10:50.45	101.50	27.64	-52.6	-64.5	3.9	7.46e-01	0	22	104	0	74	13831
2026-01-12 10:10:53.46	100.82	28.13	-53.9	-66.5	3.9	7.46e-01	0	22	104	0	77	14572
2026-01-12 10:10:56.42	100.14	28.62	-48.6	-59.8	3.8	7.47e-01	0	22	104	0	66	12669
2026-01-12 10:10:59.38	99.43	29.12	-54.4	-67.2	3.8	7.45e-01	0	23	104	0	78	14891
2026-01-12 10:11:02.38	98.68	29.63	-49.0	-60.2	3.8	7.43e-01	0	22	104	0	67	12564
2026-01-12 10:11:05.36	97.92	30.14	-50.2	-61.5	3.8	7.44e-01	0	22	104	0	69	13073
2026-01-12 10:11:08.34	97.13	30.65	-48.8	-59.7	3.8	7.47e-01	0	22	104	0	66	12664
2026-01-12 10:11:11.33	96.31	31.17	-48.4	-59.5	3.8	7.42e-01	0	22	104	0	66	12370
2026-01-12 10:11:14.31	95.47	31.69	-49.0	-60.2	3.9	7.40e-01	0	22	104	0	66	13344
2026-01-12 10:11:17.30	94.60	32.21	-55.4	-68.8	3.9	7.45e-01	0	22	104	0	79	16900
2026-01-12 10:11:20.27	93.70	32.73	-49.2	-60.6	3.8	7.46e-01	0	23	104	0	67	13133
2026-01-12 10:11:23.23	92.78	33.25	-55.2	-68.4	3.9	7.45e-01	0	22	104	0	79	16311
2026-01-12 10:11:26.21	91.81	33.78	-49.5	-60.8	3.8	7.44e-01	0	22	104	0	68	12764
2026-01-12 10:11:29.18	90.82	34.31	-52.0	-63.8	3.9	7.45e-01	0	22	104	0	73	13542
2026-01-12 10:11:32.13	89.80	34.83	-51.2	-62.7	3.8	7.45e-01	0	22	104	0	71	13403
2026-01-12 10:11:35.10	88.74	35.35	-49.3	-60.5	3.9	7.46e-01	0	23	104	0	67	13098
2026-01-12 10:11:38.08	87.64	35.87	-50.2	-61.6	3.8	7.44e-01	0	23	104	0	69	13165
2026-01-12 10:11:41.04	86.51	36.39	-56.7	-71.9	3.8	7.47e-01	0	23	104	0	81	21511
2026-01-12 10:11:44.02	85.34	36.90	-49.7	-61.0	3.9	7.41e-01	0	22	104	0	68	13060
2026-01-12 10:11:46.97	84.14	37.41	-56.5	-71.2	3.8	7.46e-01	0	22	104	0	80	21118
2026-01-12 10:11:49.93	82.90	37.91	-50.8	-62.3	3.9	7.47e-01	0	22	104	0	70	13540
2026-01-12 10:11:52.90	81.61	38.40	-56.0	-70.0	3.8	7.47e-01	0	22	104	0	79	19445
2026-01-12 10:11:55.87	80.29	38.88	-53.0	-65.0	3.9	7.45e-01	0	23	104	0	75	13771
2026-01-12 10:11:58.84	78.92	39.36	-50.3	-61.7	3.9	7.46e-01	0	22	104	0	69	13386
2026-01-12 10:12:01.81	77.51	39.82	-51.1	-62.6	3.8	7.44e-01	0	22	104	0	71	13209
2026-01-12 10:12:04.80	76.05	40.27	-55.4	-68.7	3.8	7.45e-01	0	23	104	0	78	17822
2026-01-12 10:12:07.77	74.56	40.70	-49.8	-61.1	3.8	7.45e-01	0	23	104	0	68	13211
2026-01-12 10:12:10.74	73.03	41.12	-56.0	-70.0	3.8	7.46e-01	0	22	104	0	79	19490
2026-01-12 10:12:13.69	71.48	41.51	-50.8	-62.1	3.8	7.42e-01	0	23	104	0	70	13237
2026-01-12 10:12:16.65	69.87	41.89	-53.0	-65.0	3.8	7.45e-01	0	23	104	0	73	15580
2026-01-12 10:12:19.60	68.24	42.24	-54.6	-67.4	3.9	7.43e-01	0	22	104	0	78	15371
2026-01-12 10:12:22.57	66.56	42.57	-49.7	-61.0	3.9	7.45e-01	0	23	104	0	68	13079
2026-01-12 10:12:25.52	64.85	42.87	-52.2	-64.0	3.9	7.48e-01	0	22	104	0	73	13875
2026-01-12 10:12:28.47	63.12	43.15	-49.8	-61.1	3.8	7.43e-01	0	22	104	0	68	13250
2026-01-12 10:12:31.44	61.34	43.40	-49.7	-61.1	3.9	7.49e-01	0	23	104	0	68	13154
2026-01-12 10:12:34.40	59.55	43.62	-51.3	-62.9	3.8	7.46e-01	0	22	104	0	70	14396
2026-01-12 10:12:37.40	57.70	43.82	-54.5	-67.2	3.9	7.41e-01	0	23	104	0	78	14978
2026-01-12 10:12:40.42	55.82	43.98	-49.7	-61.0	3.8	7.45e-01	0	23	104	0	67	13749
2026-01-12 10:12:43.44	53.92	44.11	-55.6	-69.2	3.9	7.42e-01	0	22	104	0	80	16719
2026-01-12 10:12:46.45	52.02	44.20	-49.9	-61.3	3.8	7.48e-01	0	22	104	0	69	12704
2026-01-12 10:12:49.48	50.09	44.26	-51.5	-63.3	3.9	7.46e-01	0	23	104	0	72	13425
2026-01-12 10:12:52.49	48.18	44.28	-49.7	-61.0	3.9	7.44e-01	0	22	104	0	68	13062
2026-01-12 10:12:55.51	46.25	44.27	-49.4	-60.8	3.9	7.45e-01	0	22	104	0	67	13424
2026-01-12 10:12:58.54	44.32	44.22	-54.0	-66.3	3.8	7.45e-01	0	22	104	0	75	16080
2026-01-12 10:13:01.55	42.42	44.14	-51.4	-62.9	3.9	7.46e-01	0	23	104	0	72	12926
2026-01-12 10:13:04.57	40.52	44.02	-51.9	-63.6	3.8	7.44e-01	0	23	104	0	71	14786
2026-01-12 10:13:07.58	38.64	43.87	-55.1	-68.2	3.9	7.46e-01	0	22	104	0	79	15833
2026-01-12 10:13:10.60	36.78	43.68	-49.7	-61.1	3.8	7.47e-01	0	23	104	0	68	13139
2026-01-12 10:13:13.62	34.94	43.47	-50.7	-62.1	3.9	7.44e-01	0	22	104	0	70	13166
2026-01-12 10:13:16.64	33.13	43.22	-51.8	-63.6	3.8	7.48e-01	0	23	104	0	71	14831
2026-01-12 10:13:19.66	31.34	42.94	-49.1	-60.2	3.9	7.42e-01	0	22	104	0	67	12636
2026-01-12 10:13:22.67	29.60	42.64	-55.9	-69.6	3.8	7.48e-01	0	23	104	0	79	18683
2026-01-12 10:13:25.70	27.88	42.30	-51.2	-62.8	3.9	7.45e-01	0	23	104	0	71	13423
2026-01-12 10:13:28.72	26.20	41.95	-53.4	-65.5	3.9	7.43e-01	0	22	104	0	74	15427
2026-01-12 10:13:31.74	24.56	41.57	-54.1	-66.6	3.9	7.47e-01	0	22	104	0	77	14848
2026-01-12 10:13:34.75	22.97	41.17	-50.0	-61.4	3.9	7.47e-01	0	22	104	0	69	12827
2026-01-12 10:13:37.77	21.41	40.75	-50.9	-62.1	3.9	7.47e-01	0	23	104	0	71	12461
2026-01-12 10:13:40.78	19.90	40.32	-54.5	-67.0	3.8	7.48e-01	0	22	104	0	76	16336
2026-01-12 10:13:43.81	18.42	39.86	-50.6	-61.9	3.8	7.45e-01	0	22	104	0	70	12830
2026-01-12 10:13:46.82	16.99	39.40	-57.2	-73.0	3.8	7.49e-01	0	23	104	0	82	23279
2026-01-12 10:13:49.84	15.60	38.92	-51.5	-63.1	3.8	7.46e-01	0	22	104	0	72	13209
2026-01-12 10:13:52.85	14.26	38.43	-52.6	-64.3	3.8	7.45e-01	0	22	104	0	72	15108
2026-01-12 10:13:55.88	12.95	37.93	-54.6	-67.4	3.8	7.47e-01	0	22	104	0	78	15239
2026-01-12 10:13:58.90	11.68	37.42	-50.6	-61.9	3.8	7.43e-01	0	22	104	0	70	12823
2026-01-12 10:14:01.93	10.45	36.90	-51.3	-62.5	3.8	7.47e-01	0	22	104	0	71	13103
2026-01-12 10:14:04.96	9.27	36.38	-55.5	-68.6	3.8	7.44e-01	0	23	104	0	78	17517
2026-01-12 10:14:07.98	8.12	35.86	-50.9	-62.5	3.8	7.46e-01	0	22	104	0	71	13026
2026-01-12 10:14:11.00	7.01	35.33	-57.7	-74.6	3.8	7.43e-01	0	23	104	0	83	26383
2026-01-12 10:14:14.01	5.94	34.80	-51.1	-62.7	3.8	7.42e-01	0	22	104	0	71	13338
2026-01-12 10:14:17.03	4.90	34.27	-52.4	-64.5	3.8	7.46e-01	0	22	104	0	72	15530
2026-01-12 10:14:20.05	3.90	33.74	-54.4	-67.0	3.9	7.46e-01	0	23	104	0	78	14585
2026-01-12 10:14:23.06	2.93	33.21	-50.8	-62.1	3.8	7.44e-01	0	23	104	0	70	13127
2026-01-12 10:14:26.08	2.00	32.67	-50.4	-62.0	3.8	7.45e-01	0	22	104	0	70	13006
2026-01-12 10:14:29.11	1.09	32.14	-54.9	-68.2	3.8	7.43e-01	0	22	104	0	77	17768
2026-01-12 10:14:32.13	0.21	31.62	-50.1	-61.5	3.8	7.47e-01	0	23	104	0	69	13097
2026-01-12 10:14:35.15	359.37	31.09	-57.1	-72.7	3.8	7.41e-01	0	22	104	0	82	22491
2026-01-12 10:14:38.17	358.55	30.57	-50.5	-62.1	3.8	7.47e-01	0	22	104	0	70	13200
2026-01-12 10:14:41.18	357.76	30.06	-51.4	-63.2	3.9	7.44e-01	0	23	104	0	71	14132
2026-01-12 10:14:44.21	356.99	29.54	-53.1	-65.0	3.8	7.44e-01	0	23	104	0	75	13827
2026-01-12 10:14:47.23	356.25	29.03	-50.3	-61.9	3.8	7.43e-01	0	22	104	0	69	13610
2026-01-12 10:14:50.25	355.54	28.53	-51.3	-63.1	3.8	7.47e-01	0	22	104	0	70	14805
2026-01-12 10:14:53.26	354.84	28.03	-54.0	-66.3	3.8	7.45e-01	0	22	104	0	77	14314
2026-01-12 10:14:56.28	354.17	27.54	-49.9	-61.4	3.8	7.45e-01	0	23	104	0	68	13639
2026-01-12 10:14:59.29	353.53	27.05	-56.8	-71.8	3.9	7.44e-01	0	22	104	0	82	20113
2026-01-12 10:15:02.30	352.90	26.57	-50.8	-62.4	3.8	7.45e-01	0	23	104	0	70	13613
2026-01-12 10:15:05.32	352.29	26.10	-51.5	-63.3	3.9	7.46e-01	0	23	104	0	71	14259
2026-01-12 10:15:08.34	351.70	25.62	-52.1	-63.9	3.9	7.42e-01	0	23	104	0	73	13681
2026-01-12 10:15:11.37	351.12	25.16	-50.5	-61.8	3.8	7.41e-01	0	23	104	0	70	12790
2026-01-12 10:15:14.38	350.57	24.70	-53.8	-66.6	3.8	7.45e-01	0	23	104	0	75	16670
2026-01-12 10:15:17.41	350.03	24.24	-53.4	-65.5	3.9	7.46e-01	0	23	104	0	76	13858
2026-01-12 10:15:20.43	349.51	23.79	-51.3	-62.9	3.8	7.47e-01	0	23	104	0	70	14506
2026-01-12 10:15:23.43	349.01	23.36	-56.4	-71.0	3.8	7.46e-01	0	23	104	0	82	18414
2026-01-12 10:15:26.45	348.52	22.92	-51.3	-62.8	3.8	7.47e-01	0	23	104	0	71	13529
2026-01-12 10:15:29.47	348.04	22.49	-51.2	-62.8	3.8	7.47e-01	0	23	104	0	71	13514
2026-01-12 10:15:32.49	347.58	22.06	-51.5	-63.2	3.8	7.47e-01	0	23	104	0	72	13295
2026-01-12 10:15:35.51	347.13	21.64	-50.6	-62.1	3.9	7.43e-01	0	23	104	0	70	13179
2026-01-12 10:15:38.52	346.69	21.23	-55.3	-68.7	3.8	7.46e-01	0	22	104	0	78	17776
2026-01-12 10:15:41.55	346.27	20.82	-52.4	-64.4	3.8	7.44e-01	0	23	104	0	74	13656
2026-01-12 10:15:44.56	345.85	20.42	-50.9	-62.5	3.8	7.47e-01	0	22	104	0	69	14616
2026-01-12 10:15:47.59	345.45	20.02	-56.3	-70.9	3.9	7.41e-01	0	22	104	0	81	19217
2026-01-12 10:15:50.61	345.06	19.63	-53.4	-56.4	15.1	6.00e-01	0	23	0	1572864	75	5154
2026-01-12 10:15:53.63	344.68	19.24	-51.5	-53.7	16.0	6.04e-01	0	22	0	7340032	72	4461
2026-01-12 10:15:56.64	344.31	18.86	-50.8	-52.8	16.0	6.02e-01	0	23	0	13107200	70	4531
2026-01-12 10:15:59.65	343.95	18.49	-49.5	-51.2	16.3	6.03e-01	0	22	0	18874368	68	4241
2026-01-12 10:16:02.67	343.60	18.12	-49.1	-50.8	16.2	6.02e-01	0	22	0	24117248	67	4279
2026-01-12 10:16:05.69	343.26	17.75	-49.1	-50.8	16.2	6.04e-01	0	22	0	29884416	67	4250
2026-01-12 10:16:08.70	342.93	17.39	-49.0	-50.7	16.3	6.02e-01	0	22	0	35651584	67	4212
2026-01-12 10:16:11.72	342.61	17.04	-49.0	-50.7	16.3	6.02e-01	0	23	0	41418752	67	4224
2026-01-12 10:16:14.74	342.29	16.69	-49.0	-50.7	16.3	6.00e-01	0	22	0	47185920	67	4242
2026-01-12 10:16:17.76	341.99	16.34	-49.0	-50.7	16.3	6.02e-01	0	22	0	52428800	67	4211
2026-01-12 10:16:20.76	341.69	16.00	-49.1	-50.8	16.2	6.03e-01	0	22	0	58195968	67	4265
2026-01-12 10:16:23.79	341.40	15.66	-49.0	-50.7	16.3	6.00e-01	0	22	0	63963136	67	4241
2026-01-12 10:16:26.81	341.11	15.33	-49.0	-50.7	16.3	6.02e-01	0	22	0	69730304	67	4238
2026-01-12 10:16:29.82	340.83	15.00	-49.1	-50.8	16.2	6.01e-01	0	22	0	74973184	67	4271
2026-01-12 10:16:32.85	340.56	14.67	-49.1	-50.8	16.2	6.01e-01	0	22	0	80740352	67	4260
2026-01-12 10:16:35.86	340.30	14.35	-49.1	-50.8	16.2	6.00e-01	0	22	0	86507520	67	4288
2026-01-12 10:16:38.87	340.04	14.04	-48.9	-50.6	16.4	6.03e-01	0	22	0	92274688	67	4171
2026-01-12 10:16:41.89	339.79	13.73	-49.1	-50.9	16.2	6.03e-01	0	22	0	98041856	67	4305
2026-01-12 10:16:44.91	339.54	13.42	-49.0	-50.7	16.3	6.00e-01	0	22	0	103284736	67	4230
2026-01-12 10:16:47.93	339.30	13.11	-49.3	-51.1	16.1	6.03e-01	0	22	0	109051904	67	4423
2026-01-12 10:16:50.96	339.06	12.81	-49.1	-50.9	16.2	6.02e-01	0	23	0	114819072	67	4292
2026-01-12 10:16:53.98	338.83	12.51	-49.3	-51.1	16.1	5.98e-01	0	22	0	120586240	67	4392
2026-01-12 10:16:57.00	338.60	12.22	-49.2	-51.0	16.2	6.02e-01	0	22	0	126353408	67	4368
2026-01-12 10:17:00.01	338.39	11.93	-49.4	-51.2	16.1	6.02e-01	0	22	0	131596288	67	4487
2026-01-12 10:17:03.03	338.17	11.64	-49.4	-51.2	16.1	6.02e-01	0	22	0	137363456	67	4459
2026-01-12 10:17:06.05	337.96	11.36	-49.4	-51.3	16.0	6.02e-01	0	22	0	143130624	67	4496
2026-01-12 10:17:09.06	337.75	11.08	-49.3	-51.2	16.1	6.04e-01	0	23	0	148897792	67	4448
2026-01-12 10:17:12.09	337.55	10.80	-49.3	-51.1	16.1	6.00e-01	0	22	0	154664960	67	4404
2026-01-12 10:17:15.10	337.35	10.52	-49.4	-51.2	16.0	6.04e-01	0	22	0	159907840	67	4492
2026-01-12 10:17:18.12	337.16	10.25	-49.3	-51.1	16.1	6.03e-01	0	22	0	165675008	67	4401
2026-01-12 10:17:21.14	336.97	9.98	-49.3	-51.1	16.1	6.02e-01	0	23	0	171442176	67	4432
2026-01-12 10:17:24.17	336.79	9.72	-49.5	-51.3	16.0	6.00e-01	0	22	0	177209344	67	4536
2026-01-12 10:17:27.19	336.60	9.45	-49.6	-51.4	16.0	6.03e-01	0	22	0	182976512	67	4596
2026-01-12 10:17:30.21	336.43	9.19	-49.6	-51.5	15.9	6.01e-01	0	23	0	188219392	67	4645
2026-01-12 10:17:33.23	336.25	8.94	-49.8	-51.8	15.8	6.04e-01	0	23	0	193986560	67	4764
2026-01-12 10:17:36.25	336.08	8.68	-49.7	-51.7	15.9	6.04e-01	0	22	0	199753728	67	4707
2026-01-12 10:17:39.26	335.92	8.43	-49.9	-51.9	15.8	6.03e-01	0	22	0	205520896	67	4823
2026-01-12 10:17:42.28	335.75	8.18	-49.9	-51.9	15.8	6.01e-01	0	22	0	211288064	67	4863
2026-01-12 10:17:45.31	335.59	7.93	-49.9	-51.9	15.8	6.01e-01	0	23	0	216530944	67	4836
2026-01-12 10:17:48.34	335.43	7.69	-49.8	-51.8	15.8	6.02e-01	0	22	0	222298112	67	4806
2026-01-12 10:17:51.36	335.28	7.45	-50.0	-51.9	15.9	6.01e-01	0	22	0	228065280	68	4597
2026-01-12 10:17:54.38	335.13	7.21	-50.0	-52.0	15.9	6.02e-01	0	22	0	233832448	68	4633
2026-01-12 10:17:57.41	334.98	6.97	-50.1	-52.1	15.8	6.03e-01	0	23	0	239599616	68	4695
2026-01-12 10:18:00.43	334.83	6.73	-50.1	-52.2	15.8	6.04e-01	0	22	0	245366784	68	4737
2026-01-12 10:18:03.45	334.69	6.50	-50.2	-52.3	15.8	5.99e-01	0	22	0	250609664	68	4776
2026-01-12 10:18:06.48	334.55	6.27	-50.4	-52.6	15.7	6.03e-01	0	23	0	256376832	68	4928
2026-01-12 10:18:09.48	334.41	6.04	-50.3	-52.5	15.7	6.01e-01	0	23	0	262144000	68	4876
2026-01-12 10:18:12.50	334.28	5.82	-50.5	-52.7	15.6	6.02e-01	0	22	0	267911168	68	5013
2026-01-12 10:18:15.51	334.14	5.59	-50.9	-53.2	15.5	6.03e-01	0	22	0	273154048	69	5038
2026-01-12 10:18:18.53	334.01	5.37	-50.2	-52.4	15.9	6.02e-01	0	22	0	278921216	69	4567
2026-01-12 10:18:21.55	333.88	5.15	-50.6	-52.9	15.6	6.03e-01	0	23	0	284688384	69	4866
2026-01-12 10:18:24.58	333.76	4.93	-57.2	-76.5	3.8	7.47e-01	0	22	104	289406976	82	34734
2026-01-12 10:18:27.59	333.64	4.71	-58.0	-77.3	3.8	7.48e-01	0	23	104	289406976	83	36026
2026-01-12 10:18:30.62	333.51	4.50	-58.6	-77.9	3.8	7.45e-01	0	23	104	289406976	84	36192
2026-01-12 10:18:33.65	333.39	4.28	-58.8	-78.1	3.8	7.45e-01	0	23	104	289406976	85	35195
2026-01-12 10:18:36.66	333.28	4.07	-58.9	-78.2	3.8	7.43e-01	0	22	104	289406976	85	35629
2026-01-12 10:18:39.66	333.16	3.86	-59.0	-78.3	3.8	7.45e-01	0	23	104	289406976	85	36061
2026-01-12 10:18:42.67	333.05	3.65	-59.1	-78.4	3.8	7.48e-01	0	23	104	289406976	85	36409
2026-01-12 10:18:45.70	332.94	3.45	-59.1	-78.4	3.8	7.45e-01	0	23	104	289406976	85	36379
2026-01-12 10:18:48.70	332.83	3.24	-59.0	-78.4	3.8	7.45e-01	0	23	104	289406976	85	36168
2026-01-12 10:18:51.70	332.72	3.04	-59.0	-78.3	3.8	7.46e-01	0	23	104	289406976	85	36011
2026-01-12 10:18:54.71	332.62	2.84	-59.0	-78.3	3.8	7.44e-01	0	23	104	289406976	85	35939
2026-01-12 10:18:57.71	332.51	2.64	-59.0	-78.3	3.8	7.46e-01	0	23	104	289406976	85	35887
2026-01-12 10:19:00.72	332.41	2.44	-58.9	-78.3	3.8	7.44e-01	0	23	104	289406976	85	35817
2026-01-12 10:19:03.74	332.31	2.24	-58.9	-78.3	3.8	7.48e-01	0	23	104	289406976	85	35730
2026-01-12 10:19:06.75	332.21	2.05	-58.9	-78.3	3.8	7.47e-01	0	23	104	289406976	85	35694

#Closed at: 2026-01-12 10:19:08
#Recorded file [289 MB]: D:/lorett/data/31004_260112_130953.dat