passes_logs/2026/01/12/R3.2S_Murmansk/R3.2S_Murmansk__20260112_103500_2024-110A_rec.log

#Pass ID: 20260112_103500_2024-110A
#Satellite: 2024-110A
#Configuration: 01B_900M
#almurnet v.1.7.20251203
#Start time: 2026-01-12 10:35:00

#Version: 2.2.20231116
#Station: R3.2S_Murmansk
#Location: 33.079688 lon 68.888172 lat
#TLE: 1 60012U 24110A   26011.62985279  .00007651  00000+0  46351-3 0  9995
#TLE: 2 60012  97.5746 104.6698 0010503  77.6788 282.5617 15.10823958 88251

#Time	Az	El	Level	Level2	SNR	BER	BlckErr	Temp	State	Recorded	gain1	gain2
2026-01-12 10:35:00.90	21.28	2.05	-56.7	-59.9	6.2	0.00e+00	0	23	0	0	80	20427
2026-01-12 10:35:03.87	21.29	2.26	-56.7	-59.9	6.2	0.00e+00	0	23	104	0	80	20482
2026-01-12 10:35:06.83	21.31	2.47	-56.7	-59.9	6.2	0.00e+00	0	23	104	0	80	20462
2026-01-12 10:35:09.80	21.32	2.68	-56.7	-59.9	6.2	0.00e+00	0	23	104	0	80	20452
2026-01-12 10:35:12.77	21.34	2.89	-56.7	-59.9	6.2	0.00e+00	0	23	104	0	80	20481
2026-01-12 10:35:15.75	21.36	3.11	-56.7	-59.9	6.2	0.00e+00	0	23	104	0	80	20455
2026-01-12 10:35:18.73	21.37	3.33	-56.7	-59.9	6.2	0.00e+00	0	24	104	0	80	20417
2026-01-12 10:35:21.68	21.39	3.54	-56.7	-59.9	6.2	0.00e+00	0	24	104	0	80	20517
2026-01-12 10:35:24.64	21.41	3.76	-56.7	-59.9	6.2	0.00e+00	0	24	104	0	80	20576
2026-01-12 10:35:27.59	21.42	3.99	-56.7	-59.9	6.2	0.00e+00	0	24	104	0	80	20501
2026-01-12 10:35:30.57	21.44	4.21	-56.7	-59.9	6.2	0.00e+00	0	24	104	0	80	20548
2026-01-12 10:35:33.54	21.45	4.44	-56.7	-59.9	6.2	0.00e+00	0	24	104	0	80	20530
2026-01-12 10:35:36.50	21.47	4.67	-56.7	-59.9	6.2	0.00e+00	0	24	104	0	80	20487
2026-01-12 10:35:39.47	21.49	4.91	-56.7	-59.9	6.2	0.00e+00	0	24	104	0	80	20466
2026-01-12 10:35:42.45	21.50	5.14	-56.8	-60.0	6.2	0.00e+00	0	24	104	0	80	20696
2026-01-12 10:35:45.43	21.52	5.38	-56.8	-60.0	6.2	0.00e+00	0	24	104	0	80	20636
2026-01-12 10:35:48.40	21.54	5.63	-56.7	-59.9	6.2	0.00e+00	0	24	104	0	80	20503
2026-01-12 10:35:51.37	21.55	5.87	-56.9	-60.1	6.2	0.00e+00	0	24	104	0	80	20987
2026-01-12 10:35:54.35	21.57	6.12	-56.9	-60.1	6.2	0.00e+00	0	24	104	0	80	20932
2026-01-12 10:35:57.32	21.59	6.37	-56.9	-60.1	6.2	0.00e+00	0	24	104	0	80	20948
2026-01-12 10:36:00.31	21.60	6.63	-56.9	-60.0	6.2	0.00e+00	0	24	104	0	80	20811
2026-01-12 10:36:03.28	21.62	6.88	-57.0	-60.2	6.2	0.00e+00	0	24	104	0	80	21191
2026-01-12 10:36:06.25	21.64	7.15	-57.0	-60.2	6.2	0.00e+00	0	25	104	0	80	21235
2026-01-12 10:36:09.22	21.66	7.41	-57.0	-60.2	6.2	0.00e+00	0	24	104	0	80	21209
2026-01-12 10:36:12.19	21.67	7.68	-57.0	-60.2	6.2	0.00e+00	0	25	104	0	80	21150
2026-01-12 10:36:15.18	21.69	7.95	-57.1	-60.3	6.2	0.00e+00	0	25	104	0	80	21595
2026-01-12 10:36:18.16	21.71	8.23	-57.1	-60.3	6.2	0.00e+00	0	25	104	0	80	21589
2026-01-12 10:36:21.15	21.73	8.51	-57.1	-60.3	6.2	0.00e+00	0	25	104	0	80	21479
2026-01-12 10:36:24.13	21.74	8.80	-57.1	-60.3	6.2	0.00e+00	0	25	104	0	80	21477
2026-01-12 10:36:27.12	21.76	9.09	-57.2	-60.4	6.2	0.00e+00	0	25	104	0	80	21782
2026-01-12 10:36:30.10	21.78	9.38	-57.2	-60.4	6.2	0.00e+00	0	25	104	0	80	21659
2026-01-12 10:36:33.09	21.80	9.68	-57.2	-60.4	6.2	0.00e+00	0	25	104	0	80	21700
2026-01-12 10:36:36.06	21.82	9.98	-57.2	-60.4	6.2	0.00e+00	0	25	104	0	80	21713
2026-01-12 10:36:39.03	21.84	10.29	-57.3	-60.5	6.2	0.00e+00	0	25	104	0	80	22011
2026-01-12 10:36:42.00	21.85	10.60	-57.3	-60.5	6.2	0.00e+00	0	25	104	0	80	21892
2026-01-12 10:36:44.98	21.87	10.92	-57.3	-60.5	6.2	0.00e+00	0	25	104	0	80	21890
2026-01-12 10:36:47.96	21.89	11.24	-57.3	-60.5	6.2	0.00e+00	0	25	104	0	80	21960
2026-01-12 10:36:50.95	21.91	11.57	-57.4	-60.6	6.2	0.00e+00	0	25	104	0	80	22237
2026-01-12 10:36:53.92	21.93	11.90	-57.3	-60.5	6.2	0.00e+00	0	25	104	0	80	21971
2026-01-12 10:36:56.91	21.95	12.25	-57.3	-60.5	6.2	0.00e+00	0	25	104	0	80	22090
2026-01-12 10:36:59.89	21.97	12.59	-57.4	-60.6	6.2	0.00e+00	0	25	104	0	80	22262
2026-01-12 10:37:02.87	21.99	12.95	-57.5	-60.7	6.2	0.00e+00	0	25	104	0	80	22436
2026-01-12 10:37:05.84	22.01	13.30	-57.4	-60.6	6.2	0.00e+00	0	25	104	0	80	22296
2026-01-12 10:37:08.80	22.03	13.67	-57.4	-60.6	6.2	0.00e+00	0	25	104	0	80	22225
2026-01-12 10:37:11.77	22.05	14.04	-57.0	-59.9	6.2	0.00e+00	0	25	104	0	79	21721
2026-01-12 10:37:14.74	22.07	14.42	-54.9	-56.5	6.8	0.00e+00	0	25	104	0	77	16513
2026-01-12 10:37:17.70	22.09	14.81	-53.0	-54.1	7.7	0.00e+00	0	25	104	0	73	15742
2026-01-12 10:37:20.65	22.12	15.20	-55.2	-56.9	6.7	0.00e+00	0	25	104	0	77	17280
2026-01-12 10:37:23.64	22.14	15.61	-43.8	-44.1	12.4	4.29e-04	0	25	0	109051904	54	14844
2026-01-12 10:37:26.61	22.16	16.02	-41.1	-41.4	13.3	1.90e-05	0	26	0	444596224	49	14442
2026-01-12 10:37:29.61	22.18	16.45	-39.1	-39.3	13.5	1.52e-05	0	26	0	780140544	45	14432
2026-01-12 10:37:32.59	22.20	16.88	-38.5	-38.7	13.6	1.33e-05	0	26	0	1115684864	44	14259
2026-01-12 10:37:35.56	22.23	17.32	-38.4	-38.7	13.7	5.70e-06	0	26	0	1451229184	44	14160
2026-01-12 10:37:38.54	22.25	17.78	-38.3	-38.5	13.6	7.60e-06	0	26	0	1786773504	43	14699
2026-01-12 10:37:41.52	22.27	18.24	-38.0	-38.3	13.7	3.80e-06	0	26	0	2122317824	43	14294
2026-01-12 10:37:44.49	22.30	18.71	-37.9	-38.1	13.7	3.80e-06	0	26	0	2449473536	42	14861
2026-01-12 10:37:47.49	22.32	19.20	-37.6	-37.8	13.8	5.70e-06	0	26	0	2793406464	42	14418
2026-01-12 10:37:50.46	22.35	19.70	-37.5	-37.8	13.8	0.00e+00	0	26	0	3128950784	42	14319
2026-01-12 10:37:53.44	22.37	20.21	-37.4	-37.6	13.9	1.90e-06	0	26	0	3456106496	42	14054
2026-01-12 10:37:56.43	22.40	20.74	-37.3	-37.5	13.8	0.00e+00	0	26	0	3800039424	41	14671
2026-01-12 10:37:59.40	22.43	21.27	-36.9	-37.2	14.0	0.00e+00	0	26	0	4127195136	41	14119
2026-01-12 10:38:02.40	22.45	21.83	-36.7	-36.9	13.9	0.00e+00	0	26	0	4462739456	40	14542
2026-01-12 10:38:05.38	22.48	22.40	-36.5	-36.7	14.0	0.00e+00	0	26	0	4806672384	40	14273
2026-01-12 10:38:08.36	22.51	22.98	-36.4	-36.6	14.0	1.90e-06	0	26	0	5142216704	39	14821
2026-01-12 10:38:11.32	22.54	23.58	-36.2	-36.4	14.1	0.00e+00	0	26	0	5477761024	39	14527
2026-01-12 10:38:14.29	22.57	24.19	-36.2	-36.4	14.1	0.00e+00	0	26	0	5804916736	39	14483
2026-01-12 10:38:17.27	22.60	24.83	-35.8	-36.0	14.1	0.00e+00	0	26	0	6140461056	38	14659
2026-01-12 10:38:20.24	22.63	25.48	-35.7	-35.9	14.1	0.00e+00	0	26	0	6476005376	38	14536
2026-01-12 10:38:23.23	22.66	26.16	-35.5	-35.7	14.2	0.00e+00	0	26	0	6811549696	38	14263
2026-01-12 10:38:26.20	22.70	26.85	-35.2	-35.4	14.2	0.00e+00	0	26	0	7147094016	37	14524
2026-01-12 10:38:29.19	22.73	27.57	-35.3	-35.5	14.2	0.00e+00	0	26	0	7482638336	37	14687
2026-01-12 10:38:32.16	22.77	28.31	-34.7	-34.9	14.3	1.90e-06	0	26	0	7818182656	36	14482
2026-01-12 10:38:35.15	22.80	29.07	-34.4	-34.7	14.3	0.00e+00	0	26	0	8153726976	36	14114
2026-01-12 10:38:38.11	22.84	29.86	-31.9	-32.1	14.1	0.00e+00	0	26	0	8489271296	30	14873
2026-01-12 10:38:41.09	22.88	30.67	-31.5	-31.7	14.3	0.00e+00	0	26	0	8816427008	30	14261
2026-01-12 10:38:44.08	22.92	31.52	-31.1	-31.3	14.3	0.00e+00	0	26	0	9160359936	29	14413
2026-01-12 10:38:47.07	22.96	32.39	-31.0	-31.2	14.3	0.00e+00	0	26	0	9495904256	29	14241
2026-01-12 10:38:50.04	23.01	33.29	-30.6	-30.8	14.3	0.00e+00	0	26	0	9831448576	28	14399
2026-01-12 10:38:53.01	23.06	34.22	-30.4	-30.6	14.4	0.00e+00	0	26	0	10166992896	28	14076
2026-01-12 10:38:55.98	23.10	35.19	-30.3	-30.5	14.3	0.00e+00	0	26	0	10494148608	27	14697
2026-01-12 10:38:58.96	23.16	36.19	-30.0	-30.2	14.4	0.00e+00	0	26	0	10838081536	27	14264
2026-01-12 10:39:01.94	23.21	37.23	-29.7	-29.9	14.4	0.00e+00	0	26	0	11165237248	26	14606
2026-01-12 10:39:04.92	23.27	38.31	-29.5	-29.7	14.5	0.00e+00	0	26	0	11500781568	26	14260
2026-01-12 10:39:07.91	23.33	39.43	-29.2	-29.4	14.4	0.00e+00	0	26	0	11844714496	25	14479
2026-01-12 10:39:10.88	23.39	40.59	-29.1	-29.3	14.4	0.00e+00	0	26	0	12171870208	25	14385
2026-01-12 10:39:13.86	23.46	41.79	-28.7	-28.9	14.5	0.00e+00	0	26	0	12507414528	24	14492
2026-01-12 10:39:16.84	23.53	43.04	-28.5	-28.7	14.5	0.00e+00	0	26	0	12842958848	24	14135
2026-01-12 10:39:19.82	23.61	44.34	-28.3	-28.5	14.5	0.00e+00	0	26	0	13178503168	23	14644
2026-01-12 10:39:22.79	23.69	45.69	-28.2	-28.4	14.5	0.00e+00	0	26	0	13514047488	23	14546
2026-01-12 10:39:25.78	23.78	47.09	-27.8	-28.0	14.5	0.00e+00	0	26	0	13849591808	22	14728
2026-01-12 10:39:28.76	23.88	48.54	-27.6	-27.8	14.6	0.00e+00	0	26	0	14185136128	22	14325
2026-01-12 10:39:31.74	23.99	50.05	-27.5	-27.7	14.6	0.00e+00	0	26	0	14520680448	22	14265
2026-01-12 10:39:34.73	24.10	51.62	-27.4	-27.6	14.5	0.00e+00	0	26	0	14856224768	21	14848
2026-01-12 10:39:37.70	24.23	53.24	-27.2	-27.4	14.6	0.00e+00	0	26	0	15191769088	21	14483
2026-01-12 10:39:40.67	24.38	54.92	-26.9	-27.1	14.7	0.00e+00	0	26	0	15527313408	21	14057
2026-01-12 10:39:43.64	24.54	56.66	-26.8	-27.0	14.6	0.00e+00	0	26	0	15854469120	20	14688
2026-01-12 10:39:46.59	24.72	58.44	-26.6	-26.8	14.6	0.00e+00	0	26	0	16190013440	20	14327
2026-01-12 10:39:49.58	24.92	60.31	-26.5	-26.7	14.7	0.00e+00	0	26	0	16525557760	20	14200
2026-01-12 10:39:52.55	25.16	62.23	-26.3	-26.5	14.5	0.00e+00	0	26	0	16861102080	19	14768
2026-01-12 10:39:55.54	25.44	64.23	-26.2	-26.4	14.6	0.00e+00	0	26	0	17196646400	19	14541
2026-01-12 10:39:58.52	25.77	66.27	-26.2	-26.4	14.6	0.00e+00	0	26	0	17532190720	19	14501
2026-01-12 10:40:01.50	26.17	68.37	-26.1	-26.3	14.6	0.00e+00	0	27	0	17867735040	19	14382
2026-01-12 10:40:04.50	26.67	70.54	-26.0	-26.2	14.7	0.00e+00	0	26	0	18203279360	19	14259
2026-01-12 10:40:07.46	27.28	72.73	-25.9	-26.2	14.7	0.00e+00	0	26	0	18538823680	19	14119
2026-01-12 10:40:10.44	28.10	74.98	-25.9	-26.1	14.7	0.00e+00	0	26	0	18874368000	19	14028
2026-01-12 10:40:13.41	29.21	77.26	-25.7	-25.9	14.6	0.00e+00	0	26	0	19209912320	18	14584
2026-01-12 10:40:16.41	30.84	79.59	-25.8	-26.0	14.6	0.00e+00	0	27	0	19545456640	18	14646
2026-01-12 10:40:19.38	33.40	81.92	-25.7	-25.9	14.6	0.00e+00	0	27	0	19881000960	18	14503
2026-01-12 10:40:22.35	38.06	84.24	-25.7	-25.9	14.6	0.00e+00	0	27	0	20208156672	18	14456
2026-01-12 10:40:25.33	48.94	86.50	-26.2	-26.4	14.6	0.00e+00	0	27	0	20552089600	19	14482
2026-01-12 10:40:28.32	88.44	88.28	-26.4	-26.6	14.6	0.00e+00	0	26	0	20887633920	19	14934
2026-01-12 10:40:31.31	160.19	87.66	-26.7	-26.9	14.5	0.00e+00	0	26	0	21223178240	19	15454
2026-01-12 10:40:34.30	181.67	85.55	-26.7	-26.9	14.6	0.00e+00	0	27	0	21558722560	20	14476
2026-01-12 10:40:37.27	188.91	83.25	-26.3	-26.6	14.6	0.00e+00	0	26	0	21894266880	19	14785
2026-01-12 10:40:40.26	192.45	80.90	-26.5	-26.7	14.6	0.00e+00	0	27	0	22229811200	19	15103
2026-01-12 10:40:43.24	194.53	78.57	-26.3	-26.5	14.6	0.00e+00	0	26	0	22565355520	19	14639
2026-01-12 10:40:46.23	195.90	76.26	-26.0	-26.2	14.7	0.00e+00	0	26	0	22900899840	19	14219
2026-01-12 10:40:49.21	196.86	73.98	-26.1	-26.3	14.7	0.00e+00	0	26	0	23236444160	19	14293
2026-01-12 10:40:52.19	197.58	71.75	-26.2	-26.4	14.6	0.00e+00	0	26	0	23571988480	19	14523
2026-01-12 10:40:55.18	198.15	69.56	-26.2	-26.5	14.6	0.00e+00	0	27	0	23907532800	19	14621
2026-01-12 10:40:58.15	198.59	67.43	-26.3	-26.5	14.6	0.00e+00	0	26	0	24234688512	19	14728
2026-01-12 10:41:01.14	198.96	65.35	-26.5	-26.7	14.6	0.00e+00	0	26	0	24578621440	19	14988
2026-01-12 10:41:04.11	199.26	63.33	-26.6	-26.8	14.6	0.00e+00	0	27	0	24914165760	19	15176
2026-01-12 10:41:07.09	199.52	61.37	-26.6	-26.8	14.5	0.00e+00	0	27	0	25241321472	19	15287
2026-01-12 10:41:10.06	199.75	59.48	-26.9	-27.1	14.5	0.00e+00	0	26	0	25585254400	19	15694
2026-01-12 10:41:13.04	199.94	57.64	-26.9	-27.2	14.5	0.00e+00	0	26	0	25912410112	19	15849
2026-01-12 10:41:16.00	200.11	55.87	-27.1	-27.4	14.5	0.00e+00	0	26	0	26247954432	20	15329
2026-01-12 10:41:18.98	200.26	54.15	-27.2	-27.4	14.5	0.00e+00	0	26	0	26583498752	20	15471
2026-01-12 10:41:21.95	200.40	52.50	-27.3	-27.5	14.5	0.00e+00	0	26	0	26919043072	20	15608
2026-01-12 10:41:24.92	200.52	50.90	-27.5	-27.7	14.5	0.00e+00	0	27	0	27254587392	20	15996
2026-01-12 10:41:27.90	200.64	49.36	-27.7	-27.9	14.5	0.00e+00	0	26	0	27581743104	21	15341
2026-01-12 10:41:30.88	200.74	47.87	-27.9	-28.2	14.5	0.00e+00	0	26	0	27925676032	21	15872
2026-01-12 10:41:33.86	200.83	46.44	-28.1	-28.3	14.6	0.00e+00	0	26	0	28252831744	23	14432
2026-01-12 10:41:36.84	200.92	45.06	-57.9	-61.4	6.2	0.00e+00	0	26	104	28395438080	81	23128
2026-01-12 10:41:39.81	201.00	43.74	-58.4	-61.6	6.2	0.00e+00	0	26	104	28395438080	82	22235
2026-01-12 10:41:42.79	201.07	42.46	-58.0	-61.4	6.2	0.00e+00	0	26	104	28395438080	82	21777
2026-01-12 10:41:45.77	201.14	41.22	-58.2	-61.5	6.2	0.00e+00	0	26	104	28395438080	82	22045
2026-01-12 10:41:48.75	201.21	40.04	-58.4	-61.5	6.2	0.00e+00	0	26	104	28395438080	82	22078
2026-01-12 10:41:51.74	201.27	38.89	-58.3	-61.5	6.2	0.00e+00	0	26	104	28395438080	82	22083
2026-01-12 10:41:54.72	201.33	37.79	-58.0	-61.4	6.2	0.00e+00	0	26	104	28395438080	82	21798
2026-01-12 10:41:57.71	201.38	36.72	-58.2	-61.4	6.2	0.00e+00	0	26	104	28395438080	82	21800
2026-01-12 10:42:00.68	201.44	35.70	-58.3	-61.5	6.1	0.00e+00	0	26	104	28395438080	82	21924
2026-01-12 10:42:03.66	201.49	34.71	-58.2	-61.4	6.2	0.00e+00	0	26	104	28395438080	82	21843
2026-01-12 10:42:06.64	201.53	33.76	-58.1	-61.4	6.2	0.00e+00	0	26	104	28395438080	82	21678
2026-01-12 10:42:09.61	201.58	32.84	-58.2	-61.4	6.2	0.00e+00	0	26	104	28395438080	82	21753
2026-01-12 10:42:12.59	201.62	31.95	-58.2	-61.4	6.2	0.00e+00	0	26	104	28395438080	82	21770
2026-01-12 10:42:15.57	201.66	31.09	-58.2	-61.4	6.2	0.00e+00	0	26	104	28395438080	82	21729
2026-01-12 10:42:18.54	201.70	30.26	-58.0	-61.3	6.2	0.00e+00	0	26	104	28395438080	82	21511
2026-01-12 10:42:21.52	201.74	29.45	-58.1	-61.3	6.2	0.00e+00	0	26	104	28395438080	82	21577
2026-01-12 10:42:24.49	201.78	28.68	-58.1	-61.3	6.2	0.00e+00	0	26	104	28395438080	82	21481
2026-01-12 10:42:27.48	201.81	27.92	-58.1	-61.3	6.2	0.00e+00	0	26	104	28395438080	82	21416
2026-01-12 10:42:30.45	201.85	27.19	-58.0	-61.2	6.2	0.00e+00	0	26	104	28395438080	82	21253
2026-01-12 10:42:33.44	201.88	26.48	-58.0	-61.2	6.2	0.00e+00	0	26	104	28395438080	82	21298
2026-01-12 10:42:36.41	201.91	25.80	-58.0	-61.2	6.2	0.00e+00	0	26	104	28395438080	82	21343
2026-01-12 10:42:39.39	201.94	25.13	-58.0	-61.2	6.2	0.00e+00	0	26	104	28395438080	82	21212
2026-01-12 10:42:42.37	201.97	24.49	-57.9	-61.2	6.2	0.00e+00	0	26	104	28395438080	82	21128
2026-01-12 10:42:45.36	202.00	23.85	-57.9	-61.1	6.2	0.00e+00	0	26	104	28395438080	82	21101
2026-01-12 10:42:48.34	202.03	23.24	-57.9	-61.1	6.2	0.00e+00	0	26	104	28395438080	82	21065
2026-01-12 10:42:51.33	202.06	22.65	-57.9	-61.1	6.2	0.00e+00	0	26	104	28395438080	82	20975
2026-01-12 10:42:54.31	202.09	22.07	-57.9	-61.1	6.2	0.00e+00	0	26	104	28395438080	82	20947
2026-01-12 10:42:57.28	202.11	21.51	-57.9	-61.1	6.2	0.00e+00	0	26	104	28395438080	82	20924
2026-01-12 10:43:00.27	202.14	20.96	-57.9	-61.1	6.2	0.00e+00	0	26	104	28395438080	82	20947
2026-01-12 10:43:03.26	202.17	20.43	-57.8	-61.0	6.2	0.00e+00	0	26	104	28395438080	82	20830
2026-01-12 10:43:06.22	202.19	19.91	-57.8	-61.0	6.2	0.00e+00	0	26	104	28395438080	82	20845
2026-01-12 10:43:09.20	202.21	19.41	-57.8	-61.0	6.2	0.00e+00	0	26	104	28395438080	82	20730
2026-01-12 10:43:12.18	202.24	18.91	-57.8	-61.0	6.2	0.00e+00	0	26	104	28395438080	82	20705
2026-01-12 10:43:15.16	202.26	18.43	-57.8	-61.0	6.2	0.00e+00	0	26	104	28395438080	82	20702
2026-01-12 10:43:18.14	202.28	17.96	-57.8	-60.9	6.2	0.00e+00	0	26	104	28395438080	82	20632
2026-01-12 10:43:21.11	202.31	17.50	-57.8	-61.0	6.2	0.00e+00	0	26	104	28395438080	82	20689
2026-01-12 10:43:24.07	202.33	17.06	-57.7	-60.9	6.2	0.00e+00	0	26	104	28395438080	82	20629
2026-01-12 10:43:27.05	202.35	16.62	-57.7	-60.9	6.2	0.00e+00	0	26	104	28395438080	82	20539
2026-01-12 10:43:30.02	202.37	16.19	-57.7	-60.9	6.2	0.00e+00	0	26	104	28395438080	82	20579
2026-01-12 10:43:33.00	202.39	15.77	-57.7	-60.8	6.2	0.00e+00	0	26	104	28395438080	82	20336
2026-01-12 10:43:35.98	202.41	15.36	-57.7	-60.9	6.2	0.00e+00	0	26	104	28395438080	82	20432
2026-01-12 10:43:38.96	202.43	14.96	-57.6	-60.8	6.2	0.00e+00	0	26	104	28395438080	82	20390
2026-01-12 10:43:41.93	202.45	14.56	-57.7	-60.9	6.2	0.00e+00	0	26	104	28395438080	82	20414
2026-01-12 10:43:44.92	202.47	14.18	-57.6	-60.8	6.2	0.00e+00	0	26	104	28395438080	82	20318
2026-01-12 10:43:47.90	202.49	13.80	-57.6	-60.8	6.2	0.00e+00	0	26	104	28395438080	82	20260
2026-01-12 10:43:50.89	202.51	13.42	-57.6	-60.8	6.2	0.00e+00	0	26	104	28395438080	82	20164
2026-01-12 10:43:53.88	202.53	13.06	-57.6	-60.8	6.2	0.00e+00	0	26	104	28395438080	82	20172
2026-01-12 10:43:56.85	202.55	12.70	-57.5	-60.7	6.2	0.00e+00	0	26	104	28395438080	82	20054
2026-01-12 10:43:59.84	202.57	12.35	-57.5	-60.7	6.2	0.00e+00	0	26	104	28395438080	82	20001
2026-01-12 10:44:02.82	202.59	12.01	-57.5	-60.6	6.2	0.00e+00	0	26	104	28395438080	82	19925
2026-01-12 10:44:05.80	202.61	11.67	-57.5	-60.7	6.2	0.00e+00	0	26	104	28395438080	82	20029
2026-01-12 10:44:08.78	202.63	11.34	-57.4	-60.6	6.2	0.00e+00	0	26	104	28395438080	82	19891
2026-01-12 10:44:11.76	202.64	11.01	-57.5	-60.6	6.2	0.00e+00	0	26	104	28395438080	82	19925
2026-01-12 10:44:14.74	202.66	10.69	-57.4	-60.6	6.2	0.00e+00	0	26	104	28395438080	82	19823
2026-01-12 10:44:17.70	202.68	10.38	-57.4	-60.6	6.2	0.00e+00	0	26	104	28395438080	82	19858
2026-01-12 10:44:20.68	202.70	10.06	-57.3	-60.5	6.2	0.00e+00	0	26	104	28395438080	81	20727
2026-01-12 10:44:23.66	202.71	9.76	-57.3	-60.5	6.2	0.00e+00	0	26	104	28395438080	81	20722
2026-01-12 10:44:26.62	202.73	9.46	-57.3	-60.5	6.2	0.00e+00	0	26	104	28395438080	81	20689
2026-01-12 10:44:29.59	202.75	9.16	-57.3	-60.4	6.2	0.00e+00	0	26	104	28395438080	81	20591
2026-01-12 10:44:32.58	202.76	8.87	-57.2	-60.4	6.2	0.00e+00	0	26	104	28395438080	81	20541
2026-01-12 10:44:35.56	202.78	8.58	-57.2	-60.4	6.2	0.00e+00	0	26	104	28395438080	81	20539
2026-01-12 10:44:38.54	202.80	8.30	-57.2	-60.4	6.2	0.00e+00	0	26	104	28395438080	81	20461
2026-01-12 10:44:41.52	202.81	8.02	-57.2	-60.4	6.2	0.00e+00	0	26	104	28395438080	81	20432
2026-01-12 10:44:44.50	202.83	7.75	-57.1	-60.3	6.2	0.00e+00	0	26	104	28395438080	81	20316
2026-01-12 10:44:47.46	202.84	7.48	-57.1	-60.3	6.2	0.00e+00	0	26	104	28395438080	81	20173
2026-01-12 10:44:50.43	202.86	7.21	-57.1	-60.3	6.2	0.00e+00	0	26	104	28395438080	81	20238
2026-01-12 10:44:53.41	202.87	6.95	-57.0	-60.2	6.2	0.00e+00	0	26	104	28395438080	81	20111
2026-01-12 10:44:56.39	202.89	6.69	-57.0	-60.2	6.2	0.00e+00	0	26	104	28395438080	81	19967
2026-01-12 10:44:59.36	202.91	6.43	-56.9	-60.1	6.2	0.00e+00	0	26	104	28395438080	81	19922
2026-01-12 10:45:02.35	202.92	6.17	-56.9	-60.1	6.2	0.00e+00	0	26	104	28395438080	80	20958
2026-01-12 10:45:05.33	202.94	5.92	-56.8	-60.0	6.2	0.00e+00	0	26	104	28395438080	80	20695
2026-01-12 10:45:08.31	202.95	5.68	-56.8	-60.0	6.2	0.00e+00	0	26	104	28395438080	80	20745
2026-01-12 10:45:11.28	202.97	5.43	-56.7	-60.0	6.2	0.00e+00	0	26	104	28395438080	80	20645
2026-01-12 10:45:14.26	202.98	5.19	-56.8	-60.0	6.2	0.00e+00	0	26	104	28395438080	80	20701
2026-01-12 10:45:17.24	203.00	4.95	-57.1	-60.3	6.2	0.00e+00	0	26	104	28395438080	80	21414
2026-01-12 10:45:20.24	203.01	4.71	-57.8	-61.0	6.2	0.00e+00	0	26	104	28395438080	81	22078
2026-01-12 10:45:23.23	203.03	4.48	-58.2	-61.4	6.2	0.00e+00	0	26	104	28395438080	82	21778
2026-01-12 10:45:26.21	203.04	4.25	-58.5	-61.7	6.2	0.00e+00	0	26	104	28395438080	82	22425
2026-01-12 10:45:29.21	203.06	4.02	-58.5	-61.7	6.2	0.00e+00	0	26	104	28395438080	82	22580
2026-01-12 10:45:32.18	203.07	3.79	-58.5	-61.7	6.2	0.00e+00	0	26	104	28395438080	82	22517
2026-01-12 10:45:35.17	203.08	3.57	-58.6	-61.8	6.2	0.00e+00	0	26	104	28395438080	82	22727
2026-01-12 10:45:38.16	203.10	3.35	-58.7	-61.9	6.2	0.00e+00	0	26	104	28395438080	83	21788
2026-01-12 10:45:41.16	203.11	3.13	-58.8	-61.9	6.2	0.00e+00	0	26	104	28395438080	83	21842
2026-01-12 10:45:44.14	203.13	2.91	-58.9	-62.0	6.2	0.00e+00	0	26	104	28395438080	83	22086
2026-01-12 10:45:47.11	203.14	2.70	-58.8	-62.0	6.2	0.00e+00	0	26	104	28395438080	83	22076
2026-01-12 10:45:50.07	203.15	2.48	-58.8	-62.0	6.2	0.00e+00	0	26	104	28395438080	83	22072
2026-01-12 10:45:53.06	203.17	2.27	-58.9	-62.1	6.2	0.00e+00	0	26	104	28395438080	83	22148
2026-01-12 10:45:56.03	203.18	2.07	-58.8	-62.0	6.2	0.00e+00	0	26	104	28395438080	83	22032
2026-01-12 10:45:58.99	203.20	1.86	-58.8	-62.0	6.2	0.00e+00	0	26	104	28395438080	83	21934

#Closed at: 2026-01-12 10:45:59
#Recorded file [28395 MB]: D:/lorett/data/31004_260112_133500.dat