passes_logs/2026/01/12/R3.2S_Murmansk/R3.2S_Murmansk__20260112_120712_SUOMI_NPP_rec.log

#Pass ID: 20260112_120712_SUOMI NPP
#Satellite: SUOMI NPP
#Configuration: NPP
#almurnet v.1.7.20251203
#Start time: 2026-01-12 12:07:13

#Version: 2.2.20231116
#Station: R3.2S_Murmansk
#Location: 33.079688 lon 68.888172 lat
#TLE: 1 37849U 11061A   26011.57971124  .00000103  00000+0  69927-4 0  9996
#TLE: 2 37849  98.7807 313.6578 0002518  69.5076 290.6370 14.19524515736228

#Time	Az	El	Level	Level2	SNR	BER	BlckErr	Temp	State	Recorded	gain1	gain2
2026-01-12 12:07:13.90	215.89	2.09	-57.3	-73.2	3.8	1.49e+00	0	20	0	0	81	21655
2026-01-12 12:07:17.87	216.18	2.30	-57.2	-73.1	3.8	1.49e+00	0	20	104	0	79	23963
2026-01-12 12:07:21.83	216.49	2.52	-57.2	-73.1	3.8	1.49e+00	0	21	104	0	79	24003
2026-01-12 12:07:25.80	216.79	2.74	-57.2	-73.1	3.8	1.49e+00	0	21	104	0	79	24028
2026-01-12 12:07:29.76	217.10	2.96	-57.2	-73.1	3.8	1.49e+00	0	21	104	0	79	24115
2026-01-12 12:07:33.72	217.42	3.18	-57.2	-73.1	3.8	1.49e+00	0	21	104	0	79	24129
2026-01-12 12:07:37.70	217.74	3.40	-57.2	-73.1	3.8	1.49e+00	0	21	104	0	79	24084
2026-01-12 12:07:41.68	218.06	3.62	-57.2	-72.9	3.8	1.49e+00	0	21	104	0	79	23548
2026-01-12 12:07:45.66	218.39	3.84	-57.2	-72.8	3.8	1.49e+00	0	21	104	0	79	23070
2026-01-12 12:07:49.63	218.73	4.07	-57.2	-72.5	3.8	1.49e+00	0	21	104	0	79	22520
2026-01-12 12:07:53.61	219.07	4.29	-57.2	-72.8	3.8	1.49e+00	0	21	104	0	79	23268
2026-01-12 12:07:57.59	219.41	4.52	-56.9	-67.9	4.8	9.95e-01	0	21	0	1048576	79	13217
2026-01-12 12:08:01.57	219.76	4.75	-56.6	-65.1	6.6	3.26e-01	0	22	0	8388608	79	9509
2026-01-12 12:08:05.54	220.11	4.98	-54.9	-59.2	11.6	1.71e-04	0	21	0	15728640	76	5742
2026-01-12 12:08:09.51	220.47	5.21	-56.0	-62.8	8.7	1.50e-06	0	21	0	23068672	77	8209
2026-01-12 12:08:13.48	220.84	5.44	-52.8	-55.5	13.9	0.00e+00	0	22	0	30408704	71	4998
2026-01-12 12:08:17.46	221.21	5.67	-52.9	-55.7	13.8	0.00e+00	0	21	0	37748736	71	5102
2026-01-12 12:08:21.44	221.59	5.90	-53.1	-55.9	13.7	0.00e+00	0	22	0	45088768	71	5227
2026-01-12 12:08:25.42	221.97	6.14	-53.3	-56.2	13.5	0.00e+00	0	22	0	53477376	71	5452
2026-01-12 12:08:29.40	222.36	6.38	-53.1	-55.9	13.8	0.00e+00	0	22	0	60817408	72	4959
2026-01-12 12:08:33.37	222.75	6.61	-53.0	-55.7	14.0	0.00e+00	0	22	0	68157440	72	4823
2026-01-12 12:08:37.35	223.15	6.85	-52.7	-55.2	14.3	0.00e+00	0	22	0	75497472	72	4586
2026-01-12 12:08:41.33	223.56	7.09	-52.6	-55.1	14.3	0.00e+00	0	22	0	82837504	71	4764
2026-01-12 12:08:45.30	223.97	7.33	-52.8	-55.3	14.1	0.00e+00	0	22	0	90177536	71	4889
2026-01-12 12:08:49.27	224.39	7.57	-52.9	-55.4	14.0	0.00e+00	0	22	0	97517568	71	4981
2026-01-12 12:08:53.25	224.82	7.81	-52.8	-55.2	14.2	0.00e+00	0	22	0	104857600	71	4867
2026-01-12 12:08:57.23	225.25	8.05	-53.1	-55.8	13.8	0.00e+00	0	22	0	112197632	71	5218
2026-01-12 12:09:01.20	225.69	8.29	-53.0	-55.7	13.9	0.00e+00	0	22	0	120586240	71	5107
2026-01-12 12:09:05.18	226.14	8.54	-52.7	-55.2	14.2	0.00e+00	0	22	0	127926272	71	4821
2026-01-12 12:09:09.14	226.59	8.78	-52.8	-55.2	14.2	0.00e+00	0	22	0	135266304	71	4865
2026-01-12 12:09:13.10	227.05	9.03	-52.8	-55.2	14.2	0.00e+00	0	22	0	142606336	71	4841
2026-01-12 12:09:17.08	227.52	9.28	-52.6	-55.0	14.4	0.00e+00	0	22	0	149946368	71	4728
2026-01-12 12:09:21.04	228.00	9.52	-52.2	-54.4	14.8	0.00e+00	0	22	0	157286400	71	4398
2026-01-12 12:09:25.02	228.49	9.77	-52.0	-54.1	14.8	0.00e+00	0	22	0	164626432	70	4502
2026-01-12 12:09:29.00	228.98	10.02	-52.0	-54.1	14.8	0.00e+00	0	22	0	171966464	70	4494
2026-01-12 12:09:32.97	229.48	10.27	-51.8	-53.9	15.0	0.00e+00	0	22	0	179306496	70	4409
2026-01-12 12:09:36.96	229.99	10.52	-51.9	-53.9	14.9	0.00e+00	0	22	0	187695104	70	4431
2026-01-12 12:09:40.93	230.51	10.77	-52.0	-54.1	14.8	0.00e+00	0	22	0	195035136	70	4533
2026-01-12 12:09:44.90	231.04	11.02	-51.8	-53.9	15.0	0.00e+00	0	22	0	202375168	70	4409
2026-01-12 12:09:48.88	231.57	11.28	-52.1	-54.2	14.8	0.00e+00	0	22	0	209715200	70	4565
2026-01-12 12:09:52.86	232.12	11.53	-52.0	-54.1	14.8	0.00e+00	0	22	0	217055232	70	4507
2026-01-12 12:09:56.83	232.67	11.78	-51.8	-53.8	15.0	0.00e+00	0	22	0	224395264	70	4391
2026-01-12 12:10:00.80	233.23	12.03	-51.5	-53.4	15.1	0.00e+00	0	22	0	231735296	69	4420
2026-01-12 12:10:04.77	233.80	12.29	-51.3	-53.2	15.2	0.00e+00	0	22	0	239075328	69	4310
2026-01-12 12:10:08.75	234.39	12.54	-51.5	-53.5	15.0	0.00e+00	0	22	0	246415360	69	4457
2026-01-12 12:10:12.73	234.98	12.79	-51.7	-53.7	14.9	0.00e+00	0	22	0	253755392	69	4584
2026-01-12 12:10:16.70	235.58	13.04	-51.6	-53.5	15.0	0.00e+00	0	22	0	262144000	69	4477
2026-01-12 12:10:20.67	236.19	13.30	-51.7	-53.7	14.9	0.00e+00	0	22	0	269484032	69	4585
2026-01-12 12:10:24.65	236.81	13.55	-51.6	-53.6	15.0	0.00e+00	0	22	0	276824064	69	4505
2026-01-12 12:10:28.61	237.44	13.80	-51.3	-53.1	15.3	0.00e+00	0	22	0	284164096	69	4263
2026-01-12 12:10:32.58	238.08	14.05	-51.0	-52.8	15.3	0.00e+00	0	22	0	291504128	68	4385
2026-01-12 12:10:36.57	238.74	14.30	-51.0	-52.8	15.3	0.00e+00	0	22	0	298844160	68	4360
2026-01-12 12:10:40.55	239.40	14.55	-51.2	-53.0	15.2	0.00e+00	0	22	0	306184192	68	4468
2026-01-12 12:10:44.51	240.07	14.80	-51.2	-53.0	15.1	0.00e+00	0	22	0	313524224	68	4482
2026-01-12 12:10:48.50	240.76	15.05	-51.3	-53.2	15.1	0.00e+00	0	22	0	320864256	68	4552
2026-01-12 12:10:52.48	241.46	15.29	-51.6	-53.6	14.8	0.00e+00	0	22	0	329252864	68	4790
2026-01-12 12:10:56.44	242.16	15.53	-51.4	-53.3	15.0	0.00e+00	0	22	0	336592896	68	4605
2026-01-12 12:11:00.35	242.87	15.77	-51.3	-53.2	15.1	0.00e+00	0	22	0	343932928	68	4565
2026-01-12 12:11:04.34	243.60	16.01	-51.5	-53.4	14.9	0.00e+00	0	22	0	351272960	68	4692
2026-01-12 12:11:08.31	244.34	16.25	-51.1	-52.9	15.2	0.00e+00	0	22	0	358612992	68	4440
2026-01-12 12:11:12.29	245.10	16.49	-50.9	-52.6	15.4	0.00e+00	0	22	0	365953024	68	4277
2026-01-12 12:11:16.26	245.86	16.72	-51.0	-52.8	15.3	0.00e+00	0	22	0	373293056	68	4362
2026-01-12 12:11:20.21	246.63	16.95	-51.1	-52.9	15.2	0.00e+00	0	22	0	380633088	68	4423
2026-01-12 12:11:24.18	247.42	17.18	-51.1	-52.9	15.2	0.00e+00	0	22	0	387973120	68	4436
2026-01-12 12:11:28.17	248.22	17.41	-51.0	-52.7	15.3	0.00e+00	0	22	0	395313152	68	4313
2026-01-12 12:11:32.12	249.02	17.63	-51.3	-53.1	15.1	0.00e+00	0	22	0	403701760	68	4520
2026-01-12 12:11:36.08	249.84	17.84	-51.1	-52.9	15.2	0.00e+00	0	22	0	411041792	68	4431
2026-01-12 12:11:40.05	250.67	18.06	-51.6	-53.5	14.9	0.00e+00	0	22	0	418381824	68	4746
2026-01-12 12:11:44.01	251.52	18.27	-51.8	-53.8	14.9	0.00e+00	0	22	0	425721856	69	4619
2026-01-12 12:11:47.99	252.37	18.47	-52.0	-54.0	14.8	0.00e+00	0	22	0	433061888	69	4742
2026-01-12 12:11:51.98	253.24	18.67	-52.4	-54.6	14.6	0.00e+00	0	22	0	440401920	70	4780
2026-01-12 12:11:55.96	254.12	18.87	-52.9	-55.2	14.3	0.00e+00	0	22	0	447741952	71	4857
2026-01-12 12:11:59.92	255.01	19.06	-52.8	-55.0	14.5	0.00e+00	0	22	0	455081984	71	4748
2026-01-12 12:12:03.90	255.91	19.25	-53.0	-55.3	14.3	0.00e+00	0	22	0	462422016	71	4922
2026-01-12 12:12:07.89	256.82	19.43	-52.6	-54.7	14.6	0.00e+00	0	22	0	469762048	71	4598
2026-01-12 12:12:11.87	257.74	19.60	-52.4	-54.6	14.8	0.00e+00	0	22	0	478150656	71	4501
2026-01-12 12:12:15.85	258.68	19.77	-51.8	-53.8	15.1	0.00e+00	0	22	0	485490688	70	4345
2026-01-12 12:12:19.84	259.62	19.93	-51.8	-53.8	14.9	0.00e+00	0	22	0	492830720	69	4635
2026-01-12 12:12:23.82	260.57	20.09	-51.6	-53.5	15.1	0.00e+00	0	22	0	500170752	69	4447
2026-01-12 12:12:27.79	261.53	20.24	-51.9	-53.8	14.9	0.00e+00	0	22	0	507510784	69	4633
2026-01-12 12:12:31.78	262.50	20.38	-51.1	-52.8	15.4	0.00e+00	0	22	0	514850816	68	4387
2026-01-12 12:12:35.77	263.48	20.51	-51.2	-53.0	15.2	0.00e+00	0	22	0	522190848	68	4443
2026-01-12 12:12:39.75	264.47	20.64	-51.2	-53.0	15.2	0.00e+00	0	22	0	529530880	68	4465
2026-01-12 12:12:43.72	265.46	20.76	-51.7	-53.6	14.9	0.00e+00	0	22	0	537919488	68	4777
2026-01-12 12:12:47.68	266.45	20.87	-51.0	-52.7	15.3	0.00e+00	0	22	0	545259520	68	4336
2026-01-12 12:12:51.67	267.46	20.97	-51.0	-52.7	15.3	0.00e+00	0	22	0	552599552	68	4318
2026-01-12 12:12:55.64	268.47	21.06	-51.4	-53.2	15.1	0.00e+00	0	22	0	559939584	68	4557
2026-01-12 12:12:59.60	269.49	21.15	-51.1	-52.9	15.3	0.00e+00	0	22	0	567279616	68	4406
2026-01-12 12:13:03.61	270.52	21.22	-51.7	-53.7	14.8	0.00e+00	0	22	0	574619648	68	4823
2026-01-12 12:13:07.59	271.55	21.29	-51.5	-53.3	15.2	0.00e+00	0	22	0	581959680	69	4391
2026-01-12 12:13:11.57	272.58	21.35	-52.1	-54.1	14.8	0.00e+00	0	22	0	589299712	69	4780
2026-01-12 12:13:15.54	273.61	21.40	-51.5	-53.3	15.1	0.00e+00	0	22	0	596639744	69	4386
2026-01-12 12:13:19.52	274.65	21.44	-51.7	-53.6	15.1	0.00e+00	0	22	0	605028352	69	4503
2026-01-12 12:13:23.49	275.69	21.47	-51.3	-53.0	15.2	0.00e+00	0	22	0	612368384	68	4489
2026-01-12 12:13:27.46	276.73	21.49	-51.6	-53.5	14.9	0.00e+00	0	22	0	619708416	68	4732
2026-01-12 12:13:31.43	277.77	21.50	-51.9	-53.9	14.7	0.00e+00	0	22	0	627048448	68	4931
2026-01-12 12:13:35.39	278.81	21.50	-52.4	-54.4	14.7	0.00e+00	0	22	0	634388480	70	4702
2026-01-12 12:13:39.36	279.85	21.49	-52.3	-54.4	14.7	0.00e+00	0	22	0	641728512	70	4679
2026-01-12 12:13:43.33	280.89	21.47	-51.6	-53.5	15.1	0.00e+00	0	22	0	649068544	69	4469
2026-01-12 12:13:47.31	281.93	21.45	-52.2	-54.2	14.7	0.00e+00	0	22	0	656408576	69	4841
2026-01-12 12:13:51.30	282.97	21.41	-51.9	-53.8	15.0	0.00e+00	0	22	0	663748608	69	4615
2026-01-12 12:13:55.27	284.01	21.37	-51.6	-53.4	15.1	0.00e+00	0	22	0	671088640	69	4408
2026-01-12 12:13:59.24	285.04	21.31	-51.2	-53.0	15.4	0.00e+00	0	22	0	679477248	69	4198
2026-01-12 12:14:03.23	286.07	21.25	-51.5	-53.3	15.2	0.00e+00	0	22	0	686817280	69	4383
2026-01-12 12:14:07.21	287.09	21.18	-51.4	-53.2	15.3	0.00e+00	0	22	0	694157312	69	4332
2026-01-12 12:14:11.19	288.11	21.09	-51.6	-53.5	15.1	0.00e+00	0	22	0	701497344	69	4452
2026-01-12 12:14:15.15	289.12	21.00	-51.3	-53.1	15.4	0.00e+00	0	22	0	708837376	69	4255
2026-01-12 12:14:19.12	290.13	20.91	-51.6	-53.5	15.1	0.00e+00	0	22	0	716177408	69	4451
2026-01-12 12:14:23.08	291.12	20.80	-51.7	-53.6	15.1	0.00e+00	0	22	0	723517440	69	4531
2026-01-12 12:14:27.05	292.11	20.68	-52.0	-53.9	14.9	0.00e+00	0	22	0	730857472	69	4680
2026-01-12 12:14:31.00	293.09	20.56	-51.8	-53.7	15.1	0.00e+00	0	22	0	738197504	69	4550
2026-01-12 12:14:34.97	294.07	20.43	-51.4	-53.2	15.3	0.00e+00	0	22	0	745537536	69	4310
2026-01-12 12:14:38.93	295.03	20.29	-51.1	-52.9	15.3	0.00e+00	0	22	0	753926144	68	4415
2026-01-12 12:14:42.92	296.00	20.15	-51.0	-52.7	15.4	0.00e+00	0	22	0	761266176	68	4316
2026-01-12 12:14:46.88	296.94	20.00	-51.5	-53.3	15.0	0.00e+00	0	22	0	768606208	68	4614
2026-01-12 12:14:50.86	297.89	19.84	-51.2	-53.0	15.2	0.00e+00	0	22	0	775946240	68	4480
2026-01-12 12:14:54.84	298.82	19.67	-51.0	-52.7	15.3	0.00e+00	0	22	0	783286272	68	4337
2026-01-12 12:14:58.81	299.74	19.50	-51.2	-53.0	15.2	0.00e+00	0	22	0	790626304	68	4469
2026-01-12 12:15:02.79	300.65	19.33	-51.1	-52.8	15.3	0.00e+00	0	22	0	797966336	68	4368
2026-01-12 12:15:06.76	301.55	19.14	-51.2	-53.0	15.2	0.00e+00	0	22	0	805306368	68	4461
2026-01-12 12:15:10.74	302.45	18.95	-51.4	-53.2	15.1	0.00e+00	0	22	0	812646400	68	4576
2026-01-12 12:15:14.69	303.32	18.76	-51.0	-52.8	15.3	0.00e+00	0	22	0	819986432	68	4349
2026-01-12 12:15:18.66	304.19	18.56	-51.5	-53.3	15.0	0.00e+00	0	22	0	828375040	68	4617
2026-01-12 12:15:22.65	305.05	18.36	-51.8	-53.7	14.8	0.00e+00	0	22	0	835715072	68	4863
2026-01-12 12:15:26.61	305.89	18.15	-52.5	-54.7	14.6	0.00e+00	0	22	0	843055104	70	4815
2026-01-12 12:15:30.59	306.73	17.94	-52.1	-54.1	14.9	0.00e+00	0	22	0	850395136	70	4533
2026-01-12 12:15:34.57	307.55	17.73	-52.5	-54.7	14.6	0.00e+00	0	22	0	857735168	70	4838
2026-01-12 12:15:38.55	308.36	17.51	-52.3	-54.4	14.7	0.00e+00	0	22	0	865075200	70	4666
2026-01-12 12:15:42.52	309.16	17.29	-52.3	-54.5	14.7	0.00e+00	0	22	0	872415232	70	4711
2026-01-12 12:15:46.50	309.95	17.06	-52.8	-55.0	14.4	0.00e+00	0	22	0	879755264	70	5027
2026-01-12 12:15:50.48	310.73	16.83	-52.5	-54.7	14.6	0.00e+00	0	22	0	887095296	70	4838
2026-01-12 12:15:54.48	311.50	16.60	-52.9	-55.3	14.3	0.00e+00	0	22	0	895483904	71	4875
2026-01-12 12:15:58.45	312.26	16.37	-52.8	-55.1	14.4	0.00e+00	0	22	0	902823936	71	4796
2026-01-12 12:16:02.43	313.00	16.13	-52.8	-55.1	14.5	0.00e+00	0	22	0	910163968	71	4781
2026-01-12 12:16:06.41	313.73	15.89	-52.3	-54.4	14.9	0.00e+00	0	22	0	917504000	71	4414
2026-01-12 12:16:10.38	314.45	15.65	-51.9	-53.8	15.0	0.00e+00	0	22	0	924844032	70	4388
2026-01-12 12:16:14.36	315.16	15.41	-52.2	-54.3	14.8	0.00e+00	0	22	0	932184064	70	4620
2026-01-12 12:16:18.35	315.86	15.16	-52.2	-54.3	14.8	0.00e+00	0	22	0	939524096	70	4620
2026-01-12 12:16:22.33	316.55	14.92	-52.6	-54.9	14.4	0.00e+00	0	22	0	946864128	70	4960
2026-01-12 12:16:26.29	317.22	14.67	-52.1	-54.1	14.8	0.00e+00	0	22	0	954204160	70	4541
2026-01-12 12:16:30.27	317.89	14.43	-52.2	-54.3	14.7	0.00e+00	0	22	0	962592768	70	4642
2026-01-12 12:16:34.24	318.54	14.18	-52.6	-54.8	14.4	0.00e+00	0	22	0	969932800	70	4913
2026-01-12 12:16:38.20	319.19	13.93	-51.7	-53.7	15.1	0.00e+00	0	22	0	977272832	70	4304
2026-01-12 12:16:42.18	319.82	13.68	-51.4	-53.3	15.1	0.00e+00	0	22	0	984612864	69	4375
2026-01-12 12:16:46.14	320.44	13.43	-52.3	-54.6	14.4	0.00e+00	0	22	0	991952896	69	5047
2026-01-12 12:16:50.13	321.06	13.18	-52.1	-54.2	14.8	0.00e+00	0	22	0	999292928	70	4586
2026-01-12 12:16:54.10	321.66	12.93	-51.5	-53.4	15.1	0.00e+00	0	22	0	1006632960	69	4393
2026-01-12 12:16:58.07	322.25	12.68	-51.3	-53.1	15.2	0.00e+00	0	22	0	1013972992	69	4288
2026-01-12 12:17:02.04	322.84	12.43	-51.1	-53.0	15.1	0.00e+00	0	22	0	1021313024	68	4444
2026-01-12 12:17:06.01	323.41	12.18	-51.4	-53.3	14.9	0.00e+00	0	22	0	1029701632	68	4639
2026-01-12 12:17:09.99	323.97	11.93	-52.2	-54.4	14.5	0.00e+00	0	22	0	1037041664	69	4965
2026-01-12 12:17:13.97	324.53	11.68	-52.6	-54.9	14.3	0.00e+00	0	22	0	1044381696	70	4937
2026-01-12 12:17:17.94	325.08	11.43	-52.3	-54.6	14.5	0.00e+00	0	22	0	1051721728	70	4766
2026-01-12 12:17:21.94	325.62	11.18	-52.3	-54.5	14.6	0.00e+00	0	22	0	1059061760	70	4709
2026-01-12 12:17:25.92	326.15	10.93	-51.9	-54.0	14.9	0.00e+00	0	22	0	1066401792	70	4465
2026-01-12 12:17:29.90	326.67	10.68	-51.4	-53.3	15.1	0.00e+00	0	22	0	1073741824	69	4389
2026-01-12 12:17:33.87	327.18	10.43	-51.7	-53.8	14.8	0.00e+00	0	22	0	1081081856	69	4616
2026-01-12 12:17:37.83	327.68	10.18	-51.9	-54.1	14.6	0.00e+00	0	22	0	1088421888	69	4769
2026-01-12 12:17:41.81	328.18	9.93	-51.8	-53.9	14.7	0.00e+00	0	22	0	1096810496	69	4671
2026-01-12 12:17:45.79	328.67	9.69	-52.0	-54.1	14.6	0.00e+00	0	22	0	1104150528	69	4784
2026-01-12 12:17:49.77	329.15	9.44	-52.5	-54.8	14.3	0.00e+00	0	22	0	1111490560	70	4910
2026-01-12 12:17:53.73	329.62	9.20	-52.2	-54.4	14.5	0.00e+00	0	22	0	1118830592	70	4686
2026-01-12 12:17:57.70	330.08	8.95	-51.6	-53.6	14.9	0.00e+00	0	22	0	1126170624	69	4511
2026-01-12 12:18:01.67	330.54	8.71	-51.7	-53.7	14.8	0.00e+00	0	22	0	1133510656	69	4570
2026-01-12 12:18:05.63	330.98	8.47	-52.2	-54.4	14.3	0.00e+00	0	22	0	1140850688	69	4971
2026-01-12 12:18:09.61	331.43	8.22	-52.6	-55.0	14.1	0.00e+00	0	22	0	1148190720	70	5034
2026-01-12 12:18:13.60	331.87	7.98	-53.1	-55.8	13.8	0.00e+00	0	22	0	1155530752	71	5169
2026-01-12 12:18:17.57	332.29	7.74	-53.4	-56.3	13.5	0.00e+00	0	22	0	1163919360	72	5209
2026-01-12 12:18:21.57	332.72	7.50	-53.8	-56.9	13.1	0.00e+00	0	22	0	1171259392	72	5566
2026-01-12 12:18:25.54	333.13	7.26	-53.5	-56.5	13.4	0.00e+00	0	22	0	1178599424	72	5286
2026-01-12 12:18:29.53	333.55	7.03	-53.1	-55.9	13.8	0.00e+00	0	22	0	1185939456	72	4940
2026-01-12 12:18:33.50	333.95	6.79	-53.1	-55.8	13.9	0.00e+00	0	22	0	1193279488	72	4880
2026-01-12 12:18:37.48	334.35	6.55	-53.4	-56.3	13.5	0.00e+00	0	22	0	1200619520	72	5189
2026-01-12 12:18:41.45	334.74	6.32	-53.2	-56.1	13.6	0.00e+00	0	23	0	1207959552	72	5061
2026-01-12 12:18:45.43	335.12	6.09	-53.1	-55.8	13.8	0.00e+00	0	22	0	1215299584	72	4924
2026-01-12 12:18:49.41	335.50	5.86	-52.8	-55.4	14.1	0.00e+00	0	22	0	1222639616	72	4667
2026-01-12 12:18:53.38	335.87	5.63	-52.6	-55.2	14.1	0.00e+00	0	22	0	1231028224	71	4826
2026-01-12 12:18:57.35	336.24	5.40	-52.8	-55.6	13.8	7.00e-07	0	22	0	1238368256	71	5062
2026-01-12 12:19:01.34	336.61	5.17	-53.3	-56.4	13.2	0.00e+00	0	22	0	1245708288	71	5544
2026-01-12 12:19:05.35	336.97	4.94	-57.6	-73.4	3.8	1.48e+00	0	22	104	1251999744	80	23392
2026-01-12 12:19:09.36	337.32	4.71	-58.7	-74.7	3.8	1.49e+00	0	22	104	1251999744	82	24249
2026-01-12 12:19:13.38	337.67	4.48	-59.1	-75.1	3.8	1.49e+00	0	22	104	1251999744	83	24061
2026-01-12 12:19:17.40	338.02	4.25	-59.2	-75.3	3.8	1.49e+00	0	22	104	1251999744	83	24412
2026-01-12 12:19:21.42	338.36	4.03	-59.3	-75.3	3.8	1.49e+00	0	22	104	1251999744	83	24632
2026-01-12 12:19:25.44	338.70	3.80	-59.4	-75.4	3.8	1.49e+00	0	23	104	1251999744	83	24931
2026-01-12 12:19:29.43	339.02	3.58	-59.3	-75.3	3.8	1.49e+00	0	23	104	1251999744	83	24637
2026-01-12 12:19:33.42	339.35	3.36	-59.2	-75.3	3.8	1.49e+00	0	23	104	1251999744	83	24543
2026-01-12 12:19:37.39	339.67	3.14	-59.2	-75.3	3.8	1.49e+00	0	23	104	1251999744	83	24432
2026-01-12 12:19:41.37	339.98	2.92	-59.2	-75.2	3.8	1.49e+00	0	22	104	1251999744	83	24398
2026-01-12 12:19:45.33	340.29	2.71	-59.1	-75.2	3.8	1.49e+00	0	23	104	1251999744	83	24283
2026-01-12 12:19:49.30	340.59	2.49	-59.1	-75.2	3.8	1.49e+00	0	23	104	1251999744	83	24241
2026-01-12 12:19:53.28	340.90	2.28	-59.1	-75.2	3.8	1.49e+00	0	22	104	1251999744	83	24226
2026-01-12 12:19:57.27	341.19	2.06	-59.1	-75.1	3.8	1.49e+00	0	22	104	1251999744	83	24128

#Closed at: 2026-01-12 12:20:01
#Recorded file [1251 MB]: D:/lorett/data/31004_260112_150713.dat