passes_logs/2026/01/12/R3.2S_Murmansk/R3.2S_Murmansk__20260112_083031_AQUA_rec.log

#Pass ID: 20260112_083031_AQUA
#Satellite: AQUA
#Configuration: AQUA
#almurnet v.1.7.20251203
#Start time: 2026-01-12 08:30:32

#Version: 2.2.20231116
#Station: R3.2S_Murmansk
#Location: 33.079688 lon 68.888172 lat
#TLE: 1 27424U 02022A   26011.60158398  .00001056  00000+0  22133-3 0  9990
#TLE: 2 27424  98.4078 337.9720 0002034  82.3051 337.8743 14.61815760260390

#Time	Az	El	Level	Level2	SNR	BER	BlckErr	Temp	State	Recorded	gain1	gain2
2026-01-12 08:30:32.15	87.75	2.01	-56.8	-76.1	3.8	7.46e-01	0	23	0	0	82	33017
2026-01-12 08:30:35.10	87.55	2.19	-56.7	-76.0	3.8	7.47e-01	0	23	104	0	81	34582
2026-01-12 08:30:38.06	87.34	2.36	-56.7	-76.0	3.8	7.46e-01	0	23	104	0	81	34605
2026-01-12 08:30:41.02	87.14	2.54	-56.7	-76.0	3.8	7.48e-01	0	23	104	0	81	34643
2026-01-12 08:30:43.98	86.92	2.72	-56.7	-75.8	3.8	7.46e-01	0	23	104	0	81	33708
2026-01-12 08:30:46.94	86.71	2.90	-56.7	-75.5	3.8	7.47e-01	0	23	104	0	81	32845
2026-01-12 08:30:49.89	86.49	3.08	-56.7	-75.7	3.8	7.43e-01	0	23	104	0	81	33379
2026-01-12 08:30:52.84	86.27	3.27	-56.7	-75.9	3.8	7.42e-01	0	23	104	0	81	34278
2026-01-12 08:30:55.80	86.05	3.45	-56.7	-75.9	3.8	7.46e-01	0	23	104	0	81	34379
2026-01-12 08:30:58.78	85.82	3.63	-56.7	-75.7	3.8	7.46e-01	0	23	104	0	81	33547
2026-01-12 08:31:01.75	85.59	3.82	-56.7	-75.8	3.8	7.48e-01	0	23	104	0	81	33729
2026-01-12 08:31:04.71	85.36	4.01	-56.7	-75.0	3.8	7.49e-01	0	23	104	0	81	30810
2026-01-12 08:31:07.68	85.12	4.19	-56.6	-74.5	3.9	7.45e-01	0	23	104	0	81	29251
2026-01-12 08:31:10.65	84.88	4.38	-56.7	-75.9	3.8	7.47e-01	0	23	104	0	81	34389
2026-01-12 08:31:13.63	84.63	4.57	-56.5	-70.0	5.1	7.06e-01	0	23	104	0	81	17351
2026-01-12 08:31:16.60	84.39	4.76	-56.0	-64.7	9.4	6.29e-01	0	23	0	4718592	81	9458
2026-01-12 08:31:19.55	84.14	4.95	-55.2	-61.3	12.1	6.12e-01	0	23	0	9961472	79	7168
2026-01-12 08:31:22.51	83.88	5.15	-55.5	-62.1	11.7	6.12e-01	0	23	0	15728640	79	7890
2026-01-12 08:31:25.47	83.62	5.34	-54.6	-59.5	13.6	6.07e-01	0	23	0	21495808	76	6942
2026-01-12 08:31:28.43	83.36	5.53	-51.9	-54.6	15.5	6.07e-01	0	23	0	25165824	73	4683
2026-01-12 08:31:31.38	83.10	5.73	-51.2	-53.5	15.7	6.06e-01	0	23	0	30932992	71	4618
2026-01-12 08:31:34.34	82.82	5.92	-50.8	-53.0	15.7	6.04e-01	0	23	0	36700160	70	4642
2026-01-12 08:31:37.28	82.55	6.12	-50.6	-52.8	15.8	6.05e-01	0	23	0	41943040	70	4512
2026-01-12 08:31:40.23	82.27	6.32	-50.3	-52.4	15.8	6.07e-01	0	23	0	47185920	69	4553
2026-01-12 08:31:43.19	81.99	6.52	-50.3	-52.4	15.8	6.06e-01	0	23	0	52953088	69	4571
2026-01-12 08:31:46.16	81.70	6.72	-50.1	-52.1	15.9	6.07e-01	0	23	0	58720256	69	4432
2026-01-12 08:31:49.12	81.41	6.92	-50.1	-52.2	15.9	6.08e-01	0	23	0	63963136	69	4451
2026-01-12 08:31:52.08	81.11	7.12	-50.0	-52.0	16.0	6.06e-01	0	23	0	69730304	69	4351
2026-01-12 08:31:55.03	80.81	7.33	-50.0	-51.9	16.0	6.05e-01	0	23	0	74973184	69	4337
2026-01-12 08:31:58.02	80.50	7.54	-49.7	-51.7	15.9	6.06e-01	0	23	0	80740352	68	4451
2026-01-12 08:32:01.00	80.19	7.74	-49.7	-51.6	15.9	6.06e-01	0	23	0	86507520	68	4433
2026-01-12 08:32:03.98	79.87	7.95	-49.7	-51.6	16.0	6.06e-01	0	23	0	91750400	68	4426
2026-01-12 08:32:06.96	79.55	8.16	-49.7	-51.6	16.0	6.07e-01	0	23	0	97517568	68	4417
2026-01-12 08:32:09.95	79.22	8.37	-49.6	-51.5	16.0	6.07e-01	0	23	0	103284736	68	4378
2026-01-12 08:32:12.92	78.89	8.58	-49.6	-51.5	16.0	6.05e-01	0	23	0	108527616	68	4373
2026-01-12 08:32:15.90	78.55	8.80	-49.7	-51.6	16.0	6.06e-01	0	23	0	114294784	68	4401
2026-01-12 08:32:18.89	78.20	9.01	-49.6	-51.5	16.0	6.06e-01	0	23	0	120061952	68	4373
2026-01-12 08:32:21.89	77.85	9.23	-49.6	-51.5	16.0	6.07e-01	0	23	0	125304832	68	4357
2026-01-12 08:32:24.88	77.49	9.45	-49.6	-51.4	16.1	6.05e-01	0	23	0	131072000	68	4316
2026-01-12 08:32:27.87	77.13	9.66	-49.4	-51.3	16.1	6.06e-01	0	23	0	136839168	68	4249
2026-01-12 08:32:30.84	76.76	9.88	-49.1	-50.9	16.1	6.05e-01	0	23	0	142606336	67	4329
2026-01-12 08:32:33.82	76.38	10.10	-49.1	-50.9	16.1	6.07e-01	0	23	0	147849216	67	4305
2026-01-12 08:32:36.81	76.00	10.32	-49.2	-51.0	16.1	6.06e-01	0	23	0	153616384	67	4344
2026-01-12 08:32:39.79	75.61	10.55	-49.0	-50.7	16.2	6.07e-01	0	23	0	159383552	67	4228
2026-01-12 08:32:42.77	75.22	10.77	-48.8	-50.5	16.0	6.01e-01	0	23	0	164626432	66	4387
2026-01-12 08:32:45.75	74.82	10.99	-48.9	-50.7	16.0	6.01e-01	0	23	0	170393600	66	4455
2026-01-12 08:32:48.74	74.41	11.22	-48.8	-50.5	16.0	6.00e-01	0	23	0	175636480	66	4390
2026-01-12 08:32:51.72	74.00	11.44	-48.9	-50.6	16.0	6.02e-01	0	23	0	181403648	66	4413
2026-01-12 08:32:54.70	73.57	11.67	-49.0	-50.8	15.9	6.00e-01	0	23	0	187170816	66	4514
2026-01-12 08:32:57.68	73.15	11.90	-48.9	-50.7	15.9	6.01e-01	0	23	0	192413696	66	4460
2026-01-12 08:33:00.66	72.71	12.12	-48.8	-50.6	16.0	6.02e-01	0	23	0	198180864	66	4395
2026-01-12 08:33:03.64	72.27	12.35	-48.8	-50.5	16.0	6.01e-01	0	23	0	203948032	66	4389
2026-01-12 08:33:06.62	71.82	12.58	-48.8	-50.5	16.0	5.99e-01	0	23	0	209190912	66	4366
2026-01-12 08:33:09.60	71.36	12.81	-48.8	-50.5	16.1	6.03e-01	0	23	0	214958080	66	4355
2026-01-12 08:33:12.59	70.89	13.05	-48.7	-50.4	16.1	6.03e-01	0	23	0	220725248	66	4303
2026-01-12 08:33:15.57	70.41	13.28	-48.6	-50.3	16.1	6.00e-01	0	23	0	225968128	66	4269
2026-01-12 08:33:18.55	69.93	13.51	-48.7	-50.4	16.1	5.98e-01	0	23	0	231735296	66	4305
2026-01-12 08:33:21.54	69.44	13.74	-48.6	-50.2	16.2	6.02e-01	0	23	0	237502464	66	4234
2026-01-12 08:33:24.54	68.93	13.98	-48.7	-50.4	16.1	6.01e-01	0	23	0	242745344	66	4307
2026-01-12 08:33:27.52	68.43	14.21	-48.7	-50.4	16.1	6.02e-01	0	23	0	248512512	66	4311
2026-01-12 08:33:30.51	67.91	14.45	-48.7	-50.4	16.1	6.01e-01	0	23	0	254279680	66	4296
2026-01-12 08:33:33.48	67.38	14.68	-48.6	-50.2	16.2	6.03e-01	0	23	0	259522560	66	4238
2026-01-12 08:33:36.46	66.85	14.91	-48.5	-50.2	16.2	6.03e-01	0	23	0	265289728	66	4199
2026-01-12 08:33:39.43	66.31	15.15	-48.2	-49.9	16.1	6.02e-01	0	23	0	271056896	65	4294
2026-01-12 08:33:42.42	65.75	15.38	-48.4	-50.1	16.0	5.99e-01	0	23	0	276299776	65	4397
2026-01-12 08:33:45.40	65.19	15.62	-48.5	-50.1	16.0	6.02e-01	0	23	0	282066944	65	4421
2026-01-12 08:33:48.38	64.61	15.85	-48.5	-50.1	16.0	6.01e-01	0	23	0	287834112	65	4422
2026-01-12 08:33:51.38	64.03	16.08	-48.5	-50.2	16.0	6.01e-01	0	23	0	293076992	65	4461
2026-01-12 08:33:54.36	63.44	16.32	-48.5	-50.1	16.0	6.03e-01	0	23	0	298844160	65	4421
2026-01-12 08:33:57.35	62.83	16.55	-48.4	-50.0	16.0	6.03e-01	0	23	0	304611328	65	4384
2026-01-12 08:34:00.34	62.22	16.78	-48.3	-50.0	16.1	5.99e-01	0	23	0	310378496	65	4356
2026-01-12 08:34:03.34	61.59	17.02	-48.4	-50.1	16.0	6.01e-01	0	23	0	315621376	65	4412
2026-01-12 08:34:06.32	60.96	17.25	-48.6	-50.2	16.0	6.01e-01	0	23	0	321388544	65	4486
2026-01-12 08:34:09.30	60.31	17.47	-48.6	-50.2	16.0	6.01e-01	0	23	0	327155712	65	4476
2026-01-12 08:34:12.29	59.66	17.70	-48.4	-50.0	16.0	6.00e-01	0	23	0	332398592	65	4378
2026-01-12 08:34:15.28	58.99	17.93	-48.5	-50.2	16.0	6.04e-01	0	23	0	338165760	65	4454
2026-01-12 08:34:18.26	58.32	18.15	-48.5	-50.2	16.0	6.03e-01	0	23	0	343932928	65	4447
2026-01-12 08:34:21.25	57.63	18.38	-48.5	-50.1	16.0	6.03e-01	0	23	0	349175808	65	4429
2026-01-12 08:34:24.23	56.93	18.60	-48.5	-50.1	16.0	6.01e-01	0	23	0	354942976	65	4413
2026-01-12 08:34:27.21	56.22	18.82	-48.6	-50.3	15.9	6.04e-01	0	23	0	360710144	65	4513
2026-01-12 08:34:30.20	55.50	19.03	-48.6	-50.2	16.0	6.01e-01	0	23	0	365953024	65	4476
2026-01-12 08:34:33.17	54.78	19.25	-48.5	-50.1	16.0	5.99e-01	0	23	0	371720192	65	4425
2026-01-12 08:34:36.15	54.04	19.46	-48.6	-50.3	15.9	6.02e-01	0	23	0	377487360	65	4527
2026-01-12 08:34:39.14	53.28	19.67	-48.7	-50.3	15.9	5.99e-01	0	23	0	382730240	65	4536
2026-01-12 08:34:42.11	52.52	19.87	-48.7	-50.3	15.9	6.02e-01	0	23	0	388497408	65	4536
2026-01-12 08:34:45.10	51.75	20.07	-48.7	-50.4	15.9	5.99e-01	0	23	0	394264576	65	4569
2026-01-12 08:34:48.08	50.97	20.27	-48.8	-50.5	15.9	5.99e-01	0	23	0	399507456	65	4613
2026-01-12 08:34:51.06	50.17	20.46	-48.8	-50.5	15.9	6.02e-01	0	23	0	405274624	65	4604
2026-01-12 08:34:54.05	49.36	20.65	-48.7	-50.4	15.9	6.01e-01	0	23	0	411041792	65	4571
2026-01-12 08:34:57.04	48.55	20.84	-48.6	-50.3	15.9	6.01e-01	0	23	0	416284672	65	4503
2026-01-12 08:35:00.02	47.72	21.02	-48.8	-50.5	15.9	5.99e-01	0	23	0	422051840	65	4608
2026-01-12 08:35:03.01	46.88	21.20	-48.7	-50.4	15.9	6.00e-01	0	23	0	427819008	65	4548
2026-01-12 08:35:06.01	46.03	21.37	-48.8	-50.5	15.9	6.02e-01	0	23	0	433061888	65	4633
2026-01-12 08:35:08.99	45.18	21.54	-48.8	-50.5	15.9	6.03e-01	0	23	0	438829056	65	4619
2026-01-12 08:35:11.97	44.31	21.70	-48.8	-50.5	15.9	6.04e-01	0	23	0	444596224	65	4636
2026-01-12 08:35:14.96	43.43	21.85	-49.0	-50.7	15.8	6.02e-01	0	23	0	449839104	65	4737
2026-01-12 08:35:17.95	42.55	22.00	-48.9	-50.6	15.9	6.03e-01	0	23	0	455606272	65	4667
2026-01-12 08:35:20.93	41.65	22.15	-48.9	-50.6	15.9	6.02e-01	0	23	0	461373440	65	4658
2026-01-12 08:35:23.92	40.75	22.28	-48.8	-50.5	15.9	6.02e-01	0	23	0	466616320	65	4632
2026-01-12 08:35:26.89	39.84	22.41	-48.9	-50.6	15.9	5.99e-01	0	23	0	472383488	65	4703
2026-01-12 08:35:29.87	38.93	22.54	-48.9	-50.6	16.0	6.03e-01	0	23	0	478150656	66	4433
2026-01-12 08:35:32.84	38.01	22.65	-49.0	-50.7	16.0	6.01e-01	0	23	0	483393536	66	4478
2026-01-12 08:35:35.83	37.07	22.76	-49.1	-50.8	16.0	6.00e-01	0	23	0	489160704	66	4500
2026-01-12 08:35:38.81	36.13	22.86	-49.0	-50.7	16.0	6.01e-01	0	23	0	494927872	66	4487
2026-01-12 08:35:41.80	35.19	22.96	-49.1	-50.8	16.0	6.01e-01	0	23	0	500170752	66	4503
2026-01-12 08:35:44.79	34.23	23.04	-49.1	-50.8	16.0	6.00e-01	0	23	0	505937920	66	4522
2026-01-12 08:35:47.79	33.27	23.12	-49.1	-50.8	15.9	6.00e-01	0	23	0	511705088	66	4508
2026-01-12 08:35:50.78	32.31	23.19	-49.2	-50.9	15.9	5.99e-01	0	23	0	517472256	66	4588
2026-01-12 08:35:53.77	31.34	23.25	-49.1	-50.8	15.9	6.03e-01	0	23	0	522715136	66	4539
2026-01-12 08:35:56.75	30.37	23.31	-49.1	-50.8	15.9	6.02e-01	0	23	0	528482304	66	4533
2026-01-12 08:35:59.73	29.40	23.35	-49.1	-50.8	15.9	6.00e-01	0	23	0	534249472	66	4523
2026-01-12 08:36:02.71	28.43	23.39	-49.2	-51.0	15.9	6.01e-01	0	23	0	539492352	66	4606
2026-01-12 08:36:05.70	27.45	23.42	-49.1	-50.8	15.9	6.02e-01	0	23	0	545259520	66	4518
2026-01-12 08:36:08.68	26.47	23.44	-49.2	-50.9	15.9	6.02e-01	0	23	0	551026688	66	4580
2026-01-12 08:36:11.67	25.49	23.45	-49.2	-50.9	15.9	6.00e-01	0	23	0	556269568	66	4555
2026-01-12 08:36:14.63	24.52	23.45	-49.2	-50.9	15.9	5.99e-01	0	23	0	562036736	66	4563
2026-01-12 08:36:17.62	23.54	23.44	-49.2	-51.0	15.9	6.03e-01	0	23	0	567803904	66	4612
2026-01-12 08:36:20.60	22.56	23.43	-49.2	-50.9	15.9	6.00e-01	0	23	0	573046784	66	4591
2026-01-12 08:36:23.58	21.58	23.40	-49.4	-51.1	15.8	6.01e-01	0	23	0	578813952	66	4705
2026-01-12 08:36:26.56	20.61	23.37	-49.1	-50.8	16.0	6.04e-01	0	23	0	584581120	66	4544
2026-01-12 08:36:29.55	19.63	23.33	-49.2	-50.9	15.9	6.01e-01	0	23	0	589824000	66	4598
2026-01-12 08:36:32.53	18.66	23.28	-49.3	-51.1	15.8	6.01e-01	0	23	0	595591168	66	4652
2026-01-12 08:36:35.52	17.69	23.22	-49.3	-51.0	15.9	6.00e-01	0	23	0	601358336	66	4621
2026-01-12 08:36:38.50	16.73	23.16	-49.2	-50.9	15.9	6.01e-01	0	23	0	606601216	66	4554
2026-01-12 08:36:41.48	15.78	23.08	-49.2	-51.0	15.9	6.02e-01	0	23	0	612368384	66	4603
2026-01-12 08:36:44.46	14.82	23.00	-49.2	-50.9	15.9	6.02e-01	0	23	0	618135552	66	4567
2026-01-12 08:36:47.45	13.87	22.91	-49.3	-51.0	15.9	6.03e-01	0	23	0	623378432	66	4627
2026-01-12 08:36:50.43	12.93	22.81	-49.2	-50.9	15.9	6.00e-01	0	23	0	629145600	66	4565
2026-01-12 08:36:53.41	12.00	22.71	-49.3	-51.0	15.9	6.01e-01	0	23	0	634912768	66	4650
2026-01-12 08:36:56.39	11.07	22.59	-49.2	-50.9	15.9	6.02e-01	0	23	0	640155648	66	4546
2026-01-12 08:36:59.36	10.16	22.47	-49.3	-51.0	15.9	6.02e-01	0	23	0	645922816	66	4638
2026-01-12 08:37:02.35	9.24	22.35	-49.3	-51.1	15.8	5.99e-01	0	23	0	651689984	66	4657
2026-01-12 08:37:05.34	8.34	22.21	-49.3	-51.0	15.9	6.00e-01	0	23	0	656932864	66	4625
2026-01-12 08:37:08.31	7.44	22.07	-49.3	-51.0	15.9	6.01e-01	0	23	0	662700032	66	4650
2026-01-12 08:37:11.29	6.56	21.93	-49.3	-51.0	15.8	6.03e-01	0	23	0	668467200	66	4639
2026-01-12 08:37:14.26	5.68	21.78	-49.3	-51.0	15.8	6.03e-01	0	23	0	673710080	66	4635
2026-01-12 08:37:17.24	4.81	21.62	-49.1	-50.8	15.9	6.01e-01	0	23	0	679477248	66	4523
2026-01-12 08:37:20.22	3.95	21.45	-49.3	-51.0	15.8	6.01e-01	0	23	0	684720128	66	4646
2026-01-12 08:37:23.22	3.10	21.28	-49.1	-50.8	15.9	5.99e-01	0	23	0	690487296	66	4539
2026-01-12 08:37:26.19	2.26	21.11	-49.2	-50.9	15.9	5.99e-01	0	23	0	696254464	66	4571
2026-01-12 08:37:29.17	1.43	20.93	-49.3	-51.0	15.8	6.00e-01	0	23	0	701497344	66	4614
2026-01-12 08:37:32.14	0.62	20.75	-49.3	-51.1	15.8	6.00e-01	0	23	0	707264512	66	4662
2026-01-12 08:37:35.13	359.81	20.56	-49.2	-50.9	15.9	5.98e-01	0	23	0	713031680	66	4576
2026-01-12 08:37:38.12	359.01	20.37	-49.0	-50.7	15.9	6.00e-01	0	23	0	718274560	66	4471
2026-01-12 08:37:41.08	358.22	20.17	-49.2	-51.0	15.9	6.00e-01	0	23	0	724041728	66	4611
2026-01-12 08:37:44.06	357.45	19.97	-49.0	-50.7	16.0	6.03e-01	0	23	0	729808896	66	4478
2026-01-12 08:37:47.05	356.68	19.77	-49.0	-50.6	16.0	5.99e-01	0	23	0	735051776	66	4433
2026-01-12 08:37:50.03	355.92	19.57	-48.9	-50.6	16.0	6.00e-01	0	23	0	740818944	66	4418
2026-01-12 08:37:53.01	355.18	19.36	-49.0	-50.7	16.0	6.01e-01	0	23	0	746586112	66	4459
2026-01-12 08:37:55.99	354.45	19.14	-49.1	-50.8	15.9	6.00e-01	0	23	0	751828992	66	4540
2026-01-12 08:37:58.97	353.72	18.93	-49.4	-51.2	15.8	6.02e-01	0	23	0	757596160	66	4724
2026-01-12 08:38:01.95	353.01	18.71	-49.0	-50.7	16.0	6.02e-01	0	23	0	763363328	66	4445
2026-01-12 08:38:04.92	352.31	18.49	-49.0	-50.7	16.0	6.03e-01	0	23	0	768606208	66	4466
2026-01-12 08:38:07.89	351.63	18.27	-49.3	-51.1	15.8	6.03e-01	0	23	0	774373376	66	4658
2026-01-12 08:38:10.86	350.95	18.05	-48.9	-50.6	15.9	6.03e-01	0	23	0	780140544	66	4408
2026-01-12 08:38:13.83	350.28	17.83	-49.2	-50.9	15.9	6.02e-01	0	23	0	785383424	66	4583
2026-01-12 08:38:16.81	349.63	17.60	-49.5	-51.3	15.8	5.99e-01	0	23	0	791150592	66	4768
2026-01-12 08:38:19.79	348.98	17.37	-48.9	-50.5	16.0	6.00e-01	0	23	0	796393472	66	4384
2026-01-12 08:38:22.76	348.34	17.15	-48.9	-50.6	16.0	6.03e-01	0	23	0	802160640	66	4397
2026-01-12 08:38:25.73	347.72	16.92	-49.0	-50.7	15.9	6.03e-01	0	23	0	807927808	66	4456
2026-01-12 08:38:28.73	347.10	16.68	-49.3	-51.1	15.8	6.02e-01	0	23	0	813170688	66	4704
2026-01-12 08:38:31.70	346.49	16.45	-48.9	-50.6	16.0	6.04e-01	0	23	0	818937856	66	4409
2026-01-12 08:38:34.68	345.90	16.22	-49.0	-50.7	15.9	6.01e-01	0	23	0	824705024	66	4471
2026-01-12 08:38:37.67	345.31	15.99	-49.3	-51.1	15.8	6.02e-01	0	23	0	829947904	66	4674
2026-01-12 08:38:40.65	344.73	15.75	-48.8	-50.4	16.0	6.00e-01	0	23	0	835715072	66	4336
2026-01-12 08:38:43.63	344.17	15.52	-49.3	-51.1	15.8	6.00e-01	0	23	0	841482240	66	4682
2026-01-12 08:38:46.62	343.61	15.29	-48.8	-50.4	16.0	6.01e-01	0	23	0	846725120	66	4312
2026-01-12 08:38:49.60	343.06	15.05	-49.2	-51.0	15.9	6.03e-01	0	23	0	852492288	66	4622
2026-01-12 08:38:52.57	342.52	14.82	-49.0	-50.7	15.9	6.01e-01	0	23	0	858259456	66	4452
2026-01-12 08:38:55.55	341.99	14.59	-49.1	-50.9	15.9	6.02e-01	0	23	0	863502336	66	4559
2026-01-12 08:38:58.52	341.47	14.35	-48.9	-50.6	16.0	6.00e-01	0	23	0	869269504	66	4436
2026-01-12 08:39:01.49	340.96	14.12	-49.1	-50.9	15.9	6.01e-01	0	23	0	875036672	66	4554
2026-01-12 08:39:04.47	340.46	13.89	-49.8	-51.7	15.8	6.00e-01	0	23	0	880279552	67	4734
2026-01-12 08:39:07.45	339.97	13.66	-49.7	-51.5	15.9	6.01e-01	0	23	0	886046720	68	4390
2026-01-12 08:39:10.42	339.48	13.42	-48.9	-50.6	16.1	6.02e-01	0	23	0	891289600	67	4147
2026-01-12 08:39:13.40	339.00	13.19	-48.8	-50.4	16.1	6.02e-01	0	23	0	897056768	66	4303
2026-01-12 08:39:16.39	338.53	12.96	-49.2	-51.0	15.8	6.00e-01	0	23	0	902823936	66	4616
2026-01-12 08:39:19.35	338.07	12.73	-49.8	-51.8	15.7	6.02e-01	0	23	0	908591104	67	4768
2026-01-12 08:39:22.33	337.62	12.50	-49.7	-51.6	15.8	6.02e-01	0	23	0	913833984	67	4664
2026-01-12 08:39:25.31	337.17	12.27	-49.9	-51.8	15.7	6.02e-01	0	23	0	919601152	67	4805
2026-01-12 08:39:28.31	336.73	12.04	-50.2	-52.1	15.7	6.01e-01	0	23	0	925368320	68	4704
2026-01-12 08:39:31.30	336.30	11.82	-50.0	-51.9	15.8	6.00e-01	0	23	0	930611200	68	4598
2026-01-12 08:39:34.27	335.87	11.59	-50.0	-52.0	15.8	6.01e-01	0	23	0	936378368	68	4606
2026-01-12 08:39:37.24	335.46	11.37	-49.8	-51.7	15.9	6.00e-01	0	23	0	942145536	68	4459
2026-01-12 08:39:40.22	335.05	11.14	-49.5	-51.3	15.9	6.00e-01	0	23	0	947388416	67	4513
2026-01-12 08:39:43.20	334.64	10.92	-49.7	-51.5	15.8	6.03e-01	0	23	0	953155584	67	4645
2026-01-12 08:39:46.18	334.25	10.69	-49.8	-51.7	15.7	6.02e-01	0	23	0	958398464	67	4748
2026-01-12 08:39:49.16	333.86	10.47	-49.7	-51.6	15.7	6.02e-01	0	23	0	964165632	67	4677
2026-01-12 08:39:52.15	333.47	10.25	-49.5	-51.3	15.9	6.00e-01	0	23	0	969932800	67	4506
2026-01-12 08:39:55.14	333.10	10.03	-49.7	-51.5	15.8	6.00e-01	0	23	0	975175680	67	4639
2026-01-12 08:39:58.13	332.72	9.81	-49.7	-51.6	15.8	6.00e-01	0	23	0	980942848	67	4674
2026-01-12 08:40:01.11	332.36	9.59	-49.8	-51.7	15.7	5.99e-01	0	23	0	986710016	67	4742
2026-01-12 08:40:04.09	332.00	9.38	-49.8	-51.7	15.7	5.99e-01	0	23	0	991952896	67	4734
2026-01-12 08:40:07.07	331.65	9.16	-49.8	-51.7	15.7	5.99e-01	0	23	0	997720064	67	4717
2026-01-12 08:40:10.03	331.30	8.95	-50.0	-52.0	15.6	6.04e-01	0	23	0	1003487232	67	4905
2026-01-12 08:40:13.00	330.96	8.73	-50.1	-52.1	15.5	6.00e-01	0	23	0	1008730112	67	4951
2026-01-12 08:40:15.98	330.63	8.52	-50.1	-52.1	15.7	6.00e-01	0	23	0	1014497280	68	4684
2026-01-12 08:40:18.96	330.30	8.31	-50.0	-52.0	15.8	6.01e-01	0	23	0	1020264448	68	4612
2026-01-12 08:40:21.94	329.97	8.10	-50.2	-52.2	15.7	6.01e-01	0	23	0	1025507328	68	4739
2026-01-12 08:40:24.93	329.65	7.89	-50.2	-52.3	15.7	6.02e-01	0	23	0	1031274496	68	4769
2026-01-12 08:40:27.90	329.34	7.68	-50.2	-52.3	15.6	6.02e-01	0	23	0	1037041664	68	4775
2026-01-12 08:40:30.87	329.03	7.48	-50.1	-52.2	15.7	6.01e-01	0	23	0	1042284544	68	4713
2026-01-12 08:40:33.85	328.72	7.27	-50.3	-52.4	15.6	6.01e-01	0	23	0	1048051712	68	4825
2026-01-12 08:40:36.82	328.42	7.07	-50.4	-52.6	15.5	6.00e-01	0	23	0	1053294592	68	4930
2026-01-12 08:40:39.80	328.13	6.86	-50.4	-52.5	15.6	6.04e-01	0	23	0	1059061760	68	4901
2026-01-12 08:40:42.77	327.84	6.66	-50.3	-52.4	15.6	6.02e-01	0	23	0	1064828928	68	4824
2026-01-12 08:40:45.80	327.55	6.46	-50.4	-52.5	15.6	6.01e-01	0	23	0	1070071808	68	4894
2026-01-12 08:40:48.67	327.27	6.27	-50.4	-52.5	15.7	6.00e-01	0	23	0	1075838976	69	4640
2026-01-12 08:40:51.80	326.98	6.06	-51.0	-53.3	15.5	6.01e-01	0	23	0	1081606144	70	4795
2026-01-12 08:40:54.64	326.72	5.87	-50.3	-52.4	15.7	6.00e-01	0	23	0	1086849024	69	4577
2026-01-12 08:40:57.78	326.44	5.66	-50.6	-52.8	15.6	6.01e-01	0	23	0	1092616192	69	4807
2026-01-12 08:41:00.61	326.19	5.47	-50.9	-53.2	15.5	6.03e-01	0	23	0	1097859072	69	4986
2026-01-12 08:41:03.74	325.91	5.27	-50.9	-53.2	15.6	5.98e-01	0	23	0	1103626240	70	4722
2026-01-12 08:41:06.58	325.67	5.08	-51.1	-53.4	15.5	6.02e-01	0	23	0	1109393408	70	4858
2026-01-12 08:41:09.73	325.40	4.88	-57.7	-76.9	3.8	7.49e-01	0	23	104	1112014848	83	34474
2026-01-12 08:41:12.59	325.16	4.70	-58.5	-77.8	3.8	7.45e-01	0	23	104	1112014848	84	35812
2026-01-12 08:41:15.75	324.90	4.50	-58.8	-78.2	3.8	7.46e-01	0	23	104	1112014848	85	35409
2026-01-12 08:41:18.63	324.66	4.31	-59.0	-78.4	3.8	7.46e-01	0	23	104	1112014848	85	36149
2026-01-12 08:41:21.78	324.41	4.11	-59.2	-78.5	3.8	7.47e-01	0	23	104	1112014848	86	34839
2026-01-12 08:41:24.66	324.19	3.93	-59.3	-78.6	3.8	7.47e-01	0	23	104	1112014848	86	35195
2026-01-12 08:41:27.81	323.94	3.73	-59.3	-78.7	3.8	7.47e-01	0	23	104	1112014848	86	35333
2026-01-12 08:41:30.67	323.72	3.56	-59.2	-78.6	3.8	7.44e-01	0	23	104	1112014848	86	35011
2026-01-12 08:41:33.79	323.49	3.36	-59.2	-78.6	3.8	7.48e-01	0	23	104	1112014848	86	34887
2026-01-12 08:41:36.64	323.27	3.19	-59.2	-78.5	3.8	7.46e-01	0	23	104	1112014848	86	34762
2026-01-12 08:41:39.76	323.05	3.00	-59.2	-78.5	3.8	7.49e-01	0	23	104	1112014848	86	34765
2026-01-12 08:41:42.62	322.84	2.82	-59.2	-78.5	3.8	7.47e-01	0	23	104	1112014848	86	34584
2026-01-12 08:41:45.74	322.62	2.63	-59.1	-78.5	3.8	7.49e-01	0	23	104	1112014848	86	34584
2026-01-12 08:41:48.57	322.42	2.46	-59.1	-78.5	3.8	7.47e-01	0	23	104	1112014848	86	34591
2026-01-12 08:41:51.70	322.20	2.27	-59.1	-78.5	3.8	7.47e-01	0	23	104	1112014848	86	34529
2026-01-12 08:41:54.54	322.01	2.10	-59.1	-78.4	3.8	7.49e-01	0	23	104	1112014848	86	34354
2026-01-12 08:41:57.66	321.80	1.92	-59.1	-78.4	3.8	7.47e-01	0	23	104	1112014848	86	34416

#Closed at: 2026-01-12 08:41:58
#Recorded file [1112 MB]: D:/lorett/data/31004_260112_113031.dat