passes_logs/2026/01/12/R3.2S_Murmansk/R3.2S_Murmansk__20260112_122842_NOAA_20_JPSS-1_rec.log

#Pass ID: 20260112_122842_NOAA 20 (JPSS-1)
#Satellite: NOAA 20 (JPSS-1)
#Configuration: NOAA 20
#almurnet v.1.7.20251203
#Start time: 2026-01-12 12:28:43

#Version: 2.2.20231116
#Station: R3.2S_Murmansk
#Location: 33.079688 lon 68.888172 lat
#TLE: 1 43013U 17073A   26011.59429536  .00000082  00000+0  59704-4 0  9990
#TLE: 2 43013  98.7632 312.5697 0001637  44.2118 315.9188 14.19535307422256

#Time	Az	El	Level	Level2	SNR	BER	BlckErr	Temp	State	Recorded	gain1	gain2
2026-01-12 12:28:43.69	227.76	2.05	-57.4	-73.3	3.8	1.49e+00	0	20	0	0	81	21975
2026-01-12 12:28:46.69	228.01	2.20	-57.3	-73.2	3.8	1.49e+00	0	20	104	0	79	24406
2026-01-12 12:28:49.71	228.28	2.35	-57.3	-73.3	3.8	1.49e+00	0	21	104	0	79	24450
2026-01-12 12:28:52.72	228.54	2.51	-57.3	-73.2	3.8	1.49e+00	0	21	104	0	79	24342
2026-01-12 12:28:55.74	228.81	2.66	-57.3	-73.2	3.8	1.49e+00	0	21	104	0	79	24355
2026-01-12 12:28:58.75	229.08	2.81	-57.3	-73.2	3.8	1.49e+00	0	21	104	0	79	24380
2026-01-12 12:29:01.76	229.35	2.96	-57.3	-73.2	3.8	1.49e+00	0	21	104	0	79	24382
2026-01-12 12:29:04.78	229.63	3.12	-57.3	-73.3	3.8	1.49e+00	0	21	104	0	79	24544
2026-01-12 12:29:07.79	229.91	3.27	-57.3	-73.2	3.8	1.49e+00	0	21	104	0	79	24312
2026-01-12 12:29:10.81	230.19	3.43	-57.3	-73.2	3.8	1.49e+00	0	21	104	0	79	24219
2026-01-12 12:29:13.83	230.47	3.58	-57.3	-73.3	3.8	1.49e+00	0	21	104	0	79	24425
2026-01-12 12:29:16.85	230.76	3.74	-57.3	-73.3	3.8	1.49e+00	0	21	104	0	79	24437
2026-01-12 12:29:19.87	231.05	3.89	-57.3	-73.1	3.8	1.49e+00	0	21	104	0	79	24057
2026-01-12 12:29:22.89	231.35	4.05	-57.3	-73.0	3.8	1.49e+00	0	21	104	0	79	23671
2026-01-12 12:29:25.90	231.64	4.20	-57.3	-72.8	3.8	1.49e+00	0	21	104	0	79	23289
2026-01-12 12:29:28.92	231.94	4.36	-57.3	-73.1	3.8	1.49e+00	0	21	104	0	79	24091
2026-01-12 12:29:31.94	232.24	4.52	-57.3	-72.6	3.8	1.49e+00	0	21	104	0	79	22717
2026-01-12 12:29:34.97	232.55	4.68	-57.1	-69.9	4.1	1.42e+00	0	21	0	0	79	16634
2026-01-12 12:29:37.99	232.86	4.83	-56.9	-67.2	5.2	7.35e-01	0	22	0	4194304	79	12173
2026-01-12 12:29:41.01	233.17	4.99	-56.0	-62.1	9.4	2.22e-02	0	21	0	9437184	78	7138
2026-01-12 12:29:44.01	233.48	5.15	-57.1	-70.5	4.0	1.69e-01	0	22	0	14680064	79	17794
2026-01-12 12:29:47.01	233.80	5.30	-53.7	-56.8	13.5	8.06e-04	0	22	0	19922944	74	4911
2026-01-12 12:29:50.03	234.12	5.46	-53.6	-56.7	13.4	0.00e+00	0	22	0	26214400	73	5144
2026-01-12 12:29:53.04	234.45	5.62	-53.7	-56.9	13.3	0.00e+00	0	22	0	31457280	73	5226
2026-01-12 12:29:56.04	234.77	5.78	-53.7	-56.8	13.4	0.00e+00	0	22	0	36700160	73	5199
2026-01-12 12:29:59.06	235.10	5.94	-53.4	-56.3	13.8	0.00e+00	0	22	0	42991616	73	4905
2026-01-12 12:30:02.07	235.44	6.09	-53.6	-56.5	13.6	0.00e+00	0	22	0	48234496	73	5017
2026-01-12 12:30:05.09	235.78	6.25	-53.5	-56.4	13.7	0.00e+00	0	22	0	54525952	73	4954
2026-01-12 12:30:08.09	236.12	6.41	-53.3	-56.1	13.9	0.00e+00	0	22	0	59768832	73	4796
2026-01-12 12:30:11.10	236.46	6.57	-53.0	-55.6	14.1	0.00e+00	0	22	0	65011712	72	4807
2026-01-12 12:30:14.10	236.81	6.73	-53.0	-55.5	14.2	0.00e+00	0	22	0	71303168	72	4736
2026-01-12 12:30:17.12	237.16	6.89	-52.9	-55.4	14.3	0.00e+00	0	22	0	76546048	72	4699
2026-01-12 12:30:20.11	237.52	7.05	-52.8	-55.2	14.4	0.00e+00	0	22	0	82837504	72	4597
2026-01-12 12:30:23.12	237.88	7.21	-52.9	-55.4	14.3	0.00e+00	0	22	0	88080384	72	4694
2026-01-12 12:30:26.12	238.24	7.36	-52.8	-55.3	14.4	0.00e+00	0	22	0	93323264	72	4621
2026-01-12 12:30:29.13	238.61	7.52	-52.7	-55.1	14.5	0.00e+00	0	22	0	99614720	72	4512
2026-01-12 12:30:32.13	238.98	7.68	-52.9	-55.3	14.4	0.00e+00	0	22	0	104857600	72	4629
2026-01-12 12:30:35.14	239.35	7.84	-52.8	-55.3	14.4	0.00e+00	0	22	0	110100480	72	4616
2026-01-12 12:30:38.15	239.73	8.00	-52.9	-55.3	14.4	0.00e+00	0	22	0	116391936	72	4651
2026-01-12 12:30:41.16	240.11	8.16	-52.7	-55.1	14.6	0.00e+00	0	22	0	121634816	72	4506
2026-01-12 12:30:44.18	240.50	8.32	-52.6	-54.9	14.5	0.00e+00	0	22	0	127926272	71	4700
2026-01-12 12:30:47.18	240.89	8.48	-52.6	-54.9	14.5	0.00e+00	0	22	0	133169152	71	4694
2026-01-12 12:30:50.20	241.29	8.64	-52.6	-54.9	14.6	0.00e+00	0	22	0	138412032	71	4686
2026-01-12 12:30:53.20	241.69	8.79	-52.6	-54.9	14.6	0.00e+00	0	22	0	144703488	71	4652
2026-01-12 12:30:56.19	242.09	8.95	-52.6	-54.9	14.5	0.00e+00	0	22	0	149946368	71	4673
2026-01-12 12:30:59.18	242.49	9.11	-52.5	-54.7	14.6	0.00e+00	0	22	0	155189248	71	4593
2026-01-12 12:31:02.19	242.90	9.27	-52.6	-54.8	14.6	0.00e+00	0	22	0	161480704	71	4643
2026-01-12 12:31:05.19	243.32	9.42	-52.7	-55.0	14.5	0.00e+00	0	22	0	166723584	71	4728
2026-01-12 12:31:08.20	243.74	9.58	-52.6	-54.9	14.6	0.00e+00	0	22	0	173015040	71	4668
2026-01-12 12:31:11.21	244.16	9.74	-52.5	-54.8	14.6	0.00e+00	0	22	0	178257920	71	4620
2026-01-12 12:31:14.20	244.59	9.89	-52.4	-54.6	14.8	0.00e+00	0	22	0	183500800	71	4509
2026-01-12 12:31:17.21	245.02	10.05	-52.3	-54.5	14.9	0.00e+00	0	22	0	189792256	71	4449
2026-01-12 12:31:20.22	245.46	10.21	-52.4	-54.6	14.8	0.00e+00	0	22	0	195035136	71	4504
2026-01-12 12:31:23.21	245.90	10.36	-52.2	-54.3	15.0	0.00e+00	0	22	0	200278016	71	4351
2026-01-12 12:31:26.21	246.35	10.51	-51.9	-53.9	15.1	0.00e+00	0	22	0	206569472	70	4420
2026-01-12 12:31:29.20	246.80	10.67	-51.8	-53.8	15.1	0.00e+00	0	22	0	211812352	70	4352
2026-01-12 12:31:32.22	247.25	10.82	-51.7	-53.7	15.2	0.00e+00	0	22	0	217055232	70	4299
2026-01-12 12:31:35.22	247.71	10.97	-51.5	-53.3	15.2	0.00e+00	0	22	0	223346688	69	4389
2026-01-12 12:31:38.23	248.18	11.12	-51.4	-53.2	15.3	0.00e+00	0	22	0	228589568	69	4333
2026-01-12 12:31:41.24	248.65	11.28	-51.4	-53.3	15.2	0.00e+00	0	22	0	234881024	69	4349
2026-01-12 12:31:44.25	249.12	11.43	-51.5	-53.4	15.2	0.00e+00	0	22	0	240123904	69	4398
2026-01-12 12:31:47.26	249.60	11.58	-51.5	-53.4	15.2	0.00e+00	0	22	0	245366784	69	4419
2026-01-12 12:31:50.26	250.09	11.72	-51.6	-53.5	15.1	0.00e+00	0	22	0	251658240	69	4446
2026-01-12 12:31:53.26	250.57	11.87	-51.3	-53.1	15.3	0.00e+00	0	22	0	256901120	69	4288
2026-01-12 12:31:56.27	251.07	12.02	-51.3	-53.2	15.3	0.00e+00	0	22	0	262144000	69	4302
2026-01-12 12:31:59.28	251.57	12.16	-51.6	-53.5	15.1	0.00e+00	0	22	0	268435456	69	4456
2026-01-12 12:32:02.28	252.07	12.31	-51.5	-53.4	15.2	0.00e+00	0	22	0	273678336	69	4398
2026-01-12 12:32:05.29	252.58	12.45	-51.4	-53.3	15.3	0.00e+00	0	22	0	279969792	69	4342
2026-01-12 12:32:08.28	253.09	12.59	-51.5	-53.4	15.2	0.00e+00	0	22	0	285212672	69	4413
2026-01-12 12:32:11.27	253.60	12.73	-51.6	-53.5	15.1	0.00e+00	0	22	0	290455552	69	4452
2026-01-12 12:32:14.26	254.12	12.87	-51.7	-53.6	15.1	0.00e+00	0	22	0	296747008	69	4510
2026-01-12 12:32:17.25	254.64	13.01	-51.7	-53.6	15.0	0.00e+00	0	22	0	301989888	69	4518
2026-01-12 12:32:20.23	255.17	13.15	-51.8	-53.8	15.0	0.00e+00	0	22	0	307232768	69	4601
2026-01-12 12:32:23.22	255.70	13.28	-51.9	-53.9	14.9	0.00e+00	0	22	0	313524224	69	4688
2026-01-12 12:32:26.21	256.24	13.41	-52.1	-54.2	14.7	0.00e+00	0	22	0	318767104	69	4846
2026-01-12 12:32:29.19	256.78	13.54	-52.3	-54.4	14.6	0.00e+00	0	23	0	324009984	69	4969
2026-01-12 12:32:32.19	257.33	13.68	-52.5	-54.7	14.6	0.00e+00	0	22	0	330301440	70	4860
2026-01-12 12:32:35.20	257.89	13.80	-52.6	-54.9	14.4	0.00e+00	0	22	0	335544320	70	4957
2026-01-12 12:32:38.20	258.44	13.93	-52.8	-55.2	14.3	0.00e+00	0	22	0	340787200	70	5113
2026-01-12 12:32:41.21	259.01	14.06	-52.9	-55.3	14.4	0.00e+00	0	22	0	347078656	71	4878
2026-01-12 12:32:44.21	259.58	14.18	-53.0	-55.4	14.3	0.00e+00	0	23	0	352321536	71	4941
2026-01-12 12:32:47.22	260.15	14.30	-53.1	-55.5	14.2	0.00e+00	0	22	0	358612992	71	5035
2026-01-12 12:32:50.22	260.73	14.42	-53.3	-55.9	14.0	0.00e+00	0	22	0	363855872	71	5232
2026-01-12 12:32:53.23	261.31	14.54	-53.3	-55.8	14.0	0.00e+00	0	23	0	369098752	71	5211
2026-01-12 12:32:56.24	261.90	14.65	-53.3	-55.8	14.0	0.00e+00	0	22	0	375390208	71	5195
2026-01-12 12:32:59.26	262.49	14.76	-53.6	-56.3	13.9	0.00e+00	0	22	0	380633088	72	5162
2026-01-12 12:33:02.27	263.09	14.87	-53.5	-56.1	14.0	0.00e+00	0	22	0	385875968	72	5049
2026-01-12 12:33:05.29	263.69	14.98	-53.5	-56.1	13.9	0.00e+00	0	22	0	392167424	72	5092
2026-01-12 12:33:08.28	264.29	15.09	-53.0	-55.3	14.5	0.00e+00	0	22	0	397410304	72	4644
2026-01-12 12:33:11.28	264.89	15.19	-52.7	-54.9	14.8	0.00e+00	0	22	0	403701760	72	4429
2026-01-12 12:33:14.28	265.50	15.29	-52.7	-54.9	14.8	0.00e+00	0	22	0	408944640	72	4431
2026-01-12 12:33:17.30	266.12	15.39	-52.6	-54.8	14.7	0.00e+00	0	23	0	414187520	71	4618
2026-01-12 12:33:20.30	266.74	15.48	-52.3	-54.4	15.0	0.00e+00	0	22	0	420478976	71	4417
2026-01-12 12:33:23.30	267.36	15.57	-51.8	-53.7	15.2	0.00e+00	0	22	0	425721856	70	4330
2026-01-12 12:33:26.31	267.99	15.66	-51.6	-53.4	15.2	0.00e+00	0	22	0	430964736	69	4427
2026-01-12 12:33:29.33	268.62	15.75	-51.7	-53.6	15.1	0.00e+00	0	22	0	437256192	69	4525
2026-01-12 12:33:32.33	269.26	15.83	-51.8	-53.7	15.0	0.00e+00	0	22	0	442499072	69	4593
2026-01-12 12:33:35.34	269.89	15.91	-51.8	-53.8	15.0	0.00e+00	0	22	0	448790528	69	4606
2026-01-12 12:33:38.35	270.53	15.99	-52.0	-53.9	14.9	0.00e+00	0	22	0	454033408	69	4695
2026-01-12 12:33:41.36	271.18	16.07	-51.9	-53.9	14.9	0.00e+00	0	22	0	459276288	69	4670
2026-01-12 12:33:44.36	271.82	16.14	-52.1	-54.1	14.8	0.00e+00	0	23	0	465567744	69	4767
2026-01-12 12:33:47.37	272.47	16.20	-52.3	-54.3	14.6	0.00e+00	0	22	0	470810624	69	4918
2026-01-12 12:33:50.34	273.12	16.27	-52.4	-54.5	14.6	0.00e+00	0	23	0	477102080	69	5000
2026-01-12 12:33:53.34	273.77	16.33	-52.4	-54.5	14.7	0.00e+00	0	22	0	482344960	70	4726
2026-01-12 12:33:56.34	274.43	16.39	-52.4	-54.5	14.7	0.00e+00	0	22	0	487587840	70	4756
2026-01-12 12:33:59.32	275.08	16.44	-52.5	-54.6	14.7	0.00e+00	0	23	0	493879296	70	4768
2026-01-12 12:34:02.29	275.73	16.49	-52.4	-54.5	14.7	0.00e+00	0	23	0	499122176	70	4743
2026-01-12 12:34:05.28	276.39	16.54	-52.5	-54.7	14.6	0.00e+00	0	23	0	504365056	70	4817
2026-01-12 12:34:08.28	277.06	16.58	-52.5	-54.6	14.6	0.00e+00	0	23	0	510656512	70	4803
2026-01-12 12:34:11.28	277.72	16.62	-52.4	-54.5	14.7	0.00e+00	0	23	0	515899392	70	4729
2026-01-12 12:34:14.26	278.39	16.66	-52.3	-54.3	14.8	0.00e+00	0	23	0	521142272	70	4610
2026-01-12 12:34:17.25	279.05	16.69	-52.2	-54.2	14.9	0.00e+00	0	22	0	527433728	70	4553
2026-01-12 12:34:20.23	279.72	16.72	-52.4	-54.4	14.8	0.00e+00	0	23	0	532676608	70	4681
2026-01-12 12:34:23.23	280.39	16.74	-52.6	-54.7	14.6	0.00e+00	0	23	0	537919488	70	4861
2026-01-12 12:34:26.22	281.06	16.76	-52.8	-55.0	14.4	0.00e+00	0	23	0	544210944	70	4988
2026-01-12 12:34:29.21	281.73	16.78	-52.5	-54.7	14.6	0.00e+00	0	23	0	549453824	70	4824
2026-01-12 12:34:32.19	282.40	16.80	-52.4	-54.5	14.7	0.00e+00	0	23	0	554696704	70	4717
2026-01-12 12:34:35.19	283.07	16.81	-52.4	-54.4	14.8	0.00e+00	0	23	0	560988160	70	4684
2026-01-12 12:34:38.18	283.75	16.81	-52.5	-54.6	14.7	0.00e+00	0	23	0	566231040	70	4761
2026-01-12 12:34:41.19	284.42	16.82	-52.7	-54.8	14.5	0.00e+00	0	23	0	571473920	70	4898
2026-01-12 12:34:44.18	285.10	16.81	-52.5	-54.6	14.6	0.00e+00	0	23	0	577765376	70	4799
2026-01-12 12:34:47.19	285.77	16.81	-52.3	-54.3	14.8	0.00e+00	0	23	0	583008256	70	4636
2026-01-12 12:34:50.19	286.45	16.80	-52.2	-54.1	14.9	0.00e+00	0	23	0	589299712	70	4541
2026-01-12 12:34:53.19	287.12	16.79	-52.3	-54.2	14.8	0.00e+00	0	23	0	594542592	70	4592
2026-01-12 12:34:56.19	287.80	16.77	-52.3	-54.3	14.8	0.00e+00	0	23	0	599785472	70	4640
2026-01-12 12:34:59.19	288.47	16.75	-52.2	-54.2	14.9	0.00e+00	0	23	0	606076928	70	4562
2026-01-12 12:35:02.19	289.14	16.73	-52.2	-54.1	14.9	0.00e+00	0	23	0	611319808	70	4522
2026-01-12 12:35:05.19	289.81	16.70	-52.1	-54.1	15.0	0.00e+00	0	23	0	616562688	70	4512
2026-01-12 12:35:08.19	290.48	16.67	-52.1	-54.0	15.0	0.00e+00	0	23	0	622854144	70	4480
2026-01-12 12:35:11.19	291.15	16.64	-52.2	-54.2	14.9	0.00e+00	0	23	0	628097024	70	4576
2026-01-12 12:35:14.20	291.81	16.60	-52.3	-54.3	14.8	0.00e+00	0	23	0	633339904	70	4636
2026-01-12 12:35:17.21	292.48	16.56	-52.2	-54.2	14.9	0.00e+00	0	23	0	639631360	70	4571
2026-01-12 12:35:20.20	293.14	16.51	-51.8	-53.6	15.2	0.00e+00	0	23	0	644874240	70	4283
2026-01-12 12:35:23.20	293.80	16.46	-51.8	-53.6	15.2	0.00e+00	0	23	0	651165696	70	4271
2026-01-12 12:35:26.21	294.46	16.41	-52.0	-53.9	15.0	0.00e+00	0	23	0	656408576	70	4417
2026-01-12 12:35:29.21	295.12	16.36	-51.8	-53.6	15.2	0.00e+00	0	23	0	661651456	70	4251
2026-01-12 12:35:32.20	295.77	16.30	-51.7	-53.5	15.3	0.00e+00	0	23	0	667942912	70	4217
2026-01-12 12:35:35.19	296.42	16.24	-51.6	-53.4	15.1	0.00e+00	0	23	0	673185792	69	4428
2026-01-12 12:35:38.20	297.07	16.17	-51.6	-53.4	15.2	0.00e+00	0	23	0	678428672	69	4410
2026-01-12 12:35:41.20	297.71	16.10	-51.6	-53.4	15.2	0.00e+00	0	23	0	684720128	69	4408
2026-01-12 12:35:44.20	298.35	16.03	-51.5	-53.2	15.3	0.00e+00	0	23	0	689963008	69	4331
2026-01-12 12:35:47.19	298.99	15.95	-51.2	-52.9	15.4	0.00e+00	0	23	0	695205888	69	4189
2026-01-12 12:35:50.19	299.63	15.88	-51.6	-53.4	15.2	0.00e+00	0	23	0	701497344	69	4404
2026-01-12 12:35:53.20	300.26	15.79	-51.7	-53.5	15.1	0.00e+00	0	23	0	706740224	69	4475
2026-01-12 12:35:56.19	300.89	15.71	-51.6	-53.4	15.1	0.00e+00	0	23	0	711983104	69	4427
2026-01-12 12:35:59.17	301.51	15.62	-51.1	-52.8	15.3	0.00e+00	0	23	0	718274560	68	4372
2026-01-12 12:36:02.15	302.13	15.53	-50.9	-52.6	15.4	0.00e+00	0	23	0	723517440	68	4262
2026-01-12 12:36:05.15	302.74	15.44	-50.9	-52.5	15.5	0.00e+00	0	23	0	729808896	68	4215
2026-01-12 12:36:08.13	303.35	15.35	-51.0	-52.7	15.4	0.00e+00	0	23	0	735051776	68	4309
2026-01-12 12:36:11.11	303.96	15.25	-51.1	-52.8	15.3	0.00e+00	0	23	0	740294656	68	4367
2026-01-12 12:36:14.09	304.56	15.15	-51.3	-53.0	15.2	0.00e+00	0	23	0	745537536	68	4473
2026-01-12 12:36:17.08	305.16	15.05	-50.9	-52.6	15.4	0.00e+00	0	23	0	751828992	68	4279
2026-01-12 12:36:20.06	305.76	14.94	-50.7	-52.4	15.5	0.00e+00	0	23	0	757071872	68	4159
2026-01-12 12:36:23.06	306.35	14.83	-50.4	-52.0	15.5	0.00e+00	0	23	0	763363328	67	4215
2026-01-12 12:36:26.05	306.94	14.72	-50.9	-52.6	15.2	0.00e+00	0	23	0	768606208	67	4500
2026-01-12 12:36:29.06	307.53	14.61	-51.2	-53.0	15.0	0.00e+00	0	23	0	773849088	67	4722
2026-01-12 12:36:32.06	308.11	14.50	-51.2	-53.0	15.0	0.00e+00	0	23	0	780140544	67	4725
2026-01-12 12:36:35.07	308.69	14.38	-51.3	-53.1	14.9	0.00e+00	0	23	0	785383424	67	4799
2026-01-12 12:36:38.07	309.26	14.26	-51.6	-53.5	14.9	0.00e+00	0	23	0	790626304	68	4722
2026-01-12 12:36:41.06	309.83	14.14	-51.4	-53.2	15.1	0.00e+00	0	23	0	796917760	68	4573
2026-01-12 12:36:44.05	310.39	14.02	-51.5	-53.3	15.0	0.00e+00	0	23	0	802160640	68	4603
2026-01-12 12:36:47.06	310.95	13.89	-52.0	-54.0	14.8	0.00e+00	0	23	0	807403520	69	4737
2026-01-12 12:36:50.05	311.50	13.76	-52.8	-55.1	14.3	0.00e+00	0	23	0	813694976	70	5046
2026-01-12 12:36:53.05	312.05	13.64	-53.2	-55.6	14.1	0.00e+00	0	23	0	818937856	71	5079
2026-01-12 12:36:56.05	312.60	13.51	-53.3	-55.8	14.0	0.00e+00	0	23	0	825229312	71	5194
2026-01-12 12:36:59.06	313.14	13.37	-53.4	-56.0	14.0	0.00e+00	0	23	0	830472192	72	4989
2026-01-12 12:37:02.05	313.67	13.24	-53.2	-55.7	14.2	0.00e+00	0	23	0	835715072	72	4819
2026-01-12 12:37:05.04	314.20	13.11	-53.0	-55.3	14.5	0.00e+00	0	23	0	842006528	72	4604
2026-01-12 12:37:08.04	314.73	12.97	-52.8	-55.0	14.6	0.00e+00	0	23	0	847249408	72	4456
2026-01-12 12:37:11.03	315.25	12.83	-53.0	-55.3	14.5	0.00e+00	0	23	0	852492288	72	4632
2026-01-12 12:37:14.02	315.76	12.69	-53.4	-55.8	14.1	0.00e+00	0	23	0	858783744	72	4919
2026-01-12 12:37:17.02	316.27	12.55	-53.6	-56.2	13.9	0.00e+00	0	23	0	864026624	72	5111
2026-01-12 12:37:20.02	316.78	12.41	-53.4	-55.9	14.1	0.00e+00	0	23	0	869269504	72	4945
2026-01-12 12:37:23.01	317.28	12.27	-53.2	-55.6	14.2	0.00e+00	0	23	0	875560960	72	4792
2026-01-12 12:37:25.99	317.78	12.13	-53.1	-55.4	14.3	0.00e+00	0	23	0	880803840	72	4678
2026-01-12 12:37:28.99	318.27	11.98	-53.1	-55.5	14.3	0.00e+00	0	23	0	886046720	72	4748
2026-01-12 12:37:31.99	318.76	11.84	-52.5	-54.6	14.7	0.00e+00	0	23	0	892338176	71	4532
2026-01-12 12:37:34.99	319.24	11.69	-52.2	-54.2	15.0	0.00e+00	0	23	0	897581056	71	4321
2026-01-12 12:37:38.00	319.72	11.54	-52.3	-54.4	14.8	0.00e+00	0	23	0	903872512	71	4441
2026-01-12 12:37:40.99	320.20	11.40	-52.6	-54.8	14.6	0.00e+00	0	23	0	909115392	71	4607
2026-01-12 12:37:44.00	320.67	11.25	-52.7	-55.0	14.4	0.00e+00	0	23	0	914358272	71	4719
2026-01-12 12:37:46.99	321.13	11.10	-52.8	-55.1	14.4	0.00e+00	0	23	0	920649728	71	4796
2026-01-12 12:37:50.00	321.59	10.95	-52.8	-55.1	14.4	0.00e+00	0	23	0	925892608	71	4788
2026-01-12 12:37:53.00	322.05	10.79	-52.4	-54.6	14.7	0.00e+00	0	23	0	931135488	71	4525
2026-01-12 12:37:55.99	322.50	10.64	-52.0	-54.0	14.9	0.00e+00	0	23	0	937426944	70	4455
2026-01-12 12:37:59.00	322.95	10.49	-51.9	-53.8	15.0	0.00e+00	0	23	0	942669824	70	4374
2026-01-12 12:38:02.00	323.39	10.34	-52.0	-54.1	14.8	0.00e+00	0	23	0	947912704	70	4512
2026-01-12 12:38:05.01	323.83	10.18	-52.1	-54.2	14.8	0.00e+00	0	23	0	954204160	70	4563
2026-01-12 12:38:08.00	324.26	10.03	-52.1	-54.1	14.8	0.00e+00	0	23	0	959447040	70	4544
2026-01-12 12:38:11.00	324.69	9.87	-52.2	-54.3	14.7	0.00e+00	0	23	0	965738496	70	4610
2026-01-12 12:38:13.99	325.11	9.72	-52.3	-54.4	14.6	0.00e+00	0	23	0	970981376	70	4695
2026-01-12 12:38:16.99	325.54	9.56	-52.2	-54.3	14.7	0.00e+00	0	23	0	976224256	70	4634
2026-01-12 12:38:19.98	325.95	9.41	-52.0	-54.0	14.8	0.00e+00	0	23	0	982515712	70	4479
2026-01-12 12:38:22.97	326.36	9.25	-52.1	-54.1	14.8	0.00e+00	0	23	0	987758592	70	4542
2026-01-12 12:38:25.96	326.77	9.10	-52.4	-54.6	14.5	0.00e+00	0	23	0	993001472	70	4775
2026-01-12 12:38:28.95	327.17	8.94	-52.4	-54.7	14.4	0.00e+00	0	23	0	999292928	70	4824
2026-01-12 12:38:31.96	327.57	8.79	-52.2	-54.3	14.6	0.00e+00	0	23	0	1004535808	70	4623
2026-01-12 12:38:34.94	327.96	8.63	-52.0	-54.1	14.7	0.00e+00	0	23	0	1009778688	70	4539
2026-01-12 12:38:37.93	328.35	8.47	-52.2	-54.4	14.6	0.00e+00	0	23	0	1016070144	70	4693
2026-01-12 12:38:40.94	328.74	8.32	-52.5	-54.8	14.3	0.00e+00	0	23	0	1021313024	70	4890
2026-01-12 12:38:43.94	329.12	8.16	-52.5	-54.9	14.3	0.00e+00	0	23	0	1026555904	70	4945
2026-01-12 12:38:46.94	329.50	8.00	-52.3	-54.6	14.4	0.00e+00	0	23	0	1032847360	70	4778
2026-01-12 12:38:49.93	329.88	7.84	-52.2	-54.4	14.5	0.00e+00	0	23	0	1038090240	70	4670
2026-01-12 12:38:52.93	330.25	7.69	-52.5	-54.8	14.3	0.00e+00	0	23	0	1043333120	70	4921
2026-01-12 12:38:55.93	330.62	7.53	-52.6	-55.0	14.2	0.00e+00	0	23	0	1049624576	70	5008
2026-01-12 12:38:58.94	330.98	7.37	-52.7	-55.2	14.0	0.00e+00	0	23	0	1054867456	70	5143
2026-01-12 12:39:01.93	331.34	7.22	-52.9	-55.4	13.9	0.00e+00	0	23	0	1061158912	70	5252
2026-01-12 12:39:04.93	331.70	7.06	-52.9	-55.4	13.9	0.00e+00	0	23	0	1066401792	70	5254
2026-01-12 12:39:07.93	332.05	6.90	-53.0	-55.6	13.9	0.00e+00	0	23	0	1071644672	71	5074
2026-01-12 12:39:10.93	332.40	6.74	-53.1	-55.8	13.7	7.00e-07	0	23	0	1077936128	71	5214
2026-01-12 12:39:13.92	332.75	6.59	-53.2	-56.0	13.6	0.00e+00	0	23	0	1083179008	71	5296
2026-01-12 12:39:16.89	333.08	6.43	-53.1	-55.8	13.7	0.00e+00	0	23	0	1088421888	71	5197
2026-01-12 12:39:19.90	333.42	6.27	-53.1	-55.8	13.7	0.00e+00	0	23	0	1094713344	71	5203
2026-01-12 12:39:22.89	333.76	6.12	-53.3	-56.2	13.5	0.00e+00	0	23	0	1099956224	71	5420
2026-01-12 12:39:25.88	334.09	5.96	-53.4	-56.3	13.5	0.00e+00	0	23	0	1105199104	72	5195
2026-01-12 12:39:28.87	334.42	5.81	-53.5	-56.5	13.3	0.00e+00	0	23	0	1111490560	72	5301
2026-01-12 12:39:31.86	334.74	5.65	-53.4	-56.3	13.4	0.00e+00	0	23	0	1116733440	72	5218
2026-01-12 12:39:34.85	335.06	5.50	-53.4	-56.5	13.3	0.00e+00	0	23	0	1123024896	72	5283
2026-01-12 12:39:37.86	335.38	5.34	-53.2	-56.0	13.6	0.00e+00	0	23	0	1128267776	72	5028
2026-01-12 12:39:40.84	335.69	5.19	-53.4	-56.4	13.3	0.00e+00	0	23	0	1133510656	72	5241
2026-01-12 12:39:43.83	336.00	5.03	-53.5	-56.7	13.1	0.00e+00	0	23	0	1139802112	72	5429
2026-01-12 12:39:46.83	336.31	4.88	-58.3	-74.4	3.8	1.49e+00	0	23	104	1141899264	81	24750
2026-01-12 12:39:49.81	336.62	4.72	-58.9	-75.0	3.8	1.49e+00	0	23	104	1141899264	82	24984
2026-01-12 12:39:52.80	336.92	4.57	-59.2	-75.3	3.8	1.49e+00	0	23	104	1141899264	83	24466
2026-01-12 12:39:55.79	337.22	4.41	-59.3	-75.4	3.8	1.49e+00	0	23	104	1141899264	83	24805
2026-01-12 12:39:58.79	337.52	4.26	-59.6	-75.7	3.8	1.49e+00	0	23	104	1141899264	84	24162
2026-01-12 12:40:01.79	337.81	4.11	-59.7	-75.7	3.8	1.49e+00	0	23	104	1141899264	84	24350
2026-01-12 12:40:04.79	338.10	3.95	-59.7	-75.7	3.8	1.49e+00	0	23	104	1141899264	84	24356
2026-01-12 12:40:07.78	338.39	3.80	-59.7	-75.7	3.8	1.49e+00	0	23	104	1141899264	84	24318
2026-01-12 12:40:10.79	338.67	3.65	-59.6	-75.7	3.8	1.49e+00	0	23	104	1141899264	84	24148
2026-01-12 12:40:13.76	338.95	3.50	-59.6	-75.6	3.8	1.49e+00	0	23	104	1141899264	84	24086
2026-01-12 12:40:16.75	339.23	3.34	-59.6	-75.6	3.8	1.49e+00	0	23	104	1141899264	84	24057
2026-01-12 12:40:19.75	339.51	3.19	-59.6	-75.6	3.8	1.49e+00	0	23	104	1141899264	84	23933
2026-01-12 12:40:22.74	339.78	3.04	-59.5	-75.6	3.8	1.49e+00	0	23	104	1141899264	84	23903
2026-01-12 12:40:25.74	340.06	2.89	-59.5	-75.6	3.8	1.49e+00	0	23	104	1141899264	84	23913
2026-01-12 12:40:28.73	340.32	2.74	-59.5	-75.5	3.8	1.49e+00	0	23	104	1141899264	84	23826
2026-01-12 12:40:31.73	340.59	2.59	-59.5	-75.5	3.8	1.49e+00	0	23	104	1141899264	84	23754
2026-01-12 12:40:34.72	340.85	2.44	-59.5	-75.5	3.8	1.49e+00	0	23	104	1141899264	84	23763
2026-01-12 12:40:37.71	341.11	2.29	-59.5	-75.5	3.8	1.49e+00	0	23	104	1141899264	84	23627
2026-01-12 12:40:40.71	341.37	2.14	-59.5	-75.5	3.8	1.49e+00	0	23	104	1141899264	84	23681
2026-01-12 12:40:43.70	341.63	1.99	-59.4	-75.5	3.8	1.49e+00	0	23	104	1141899264	84	23662

#Closed at: 2026-01-12 12:40:45
#Recorded file [1141 MB]: D:/lorett/data/31004_260112_152843.dat