passes_logs/2025/01/01/XPeterburg/XPeterburg__20250101_042901_FENGYUN_3E_rec.log

#Pass ID: 20250101_042901_FENGYUN 3E
#Satellite: FENGYUN 3E
#Configuration: FENGYUN 3E
#Start time: 2025-01-01 04:28:56

#Version: 1.5.20200625
#Station: XPeterburg
#Location: 30.318091 lon 59.932769 lat
#TLE: 1 49008U 21062A   24362.16046100  .00000127  00000+0  80596-4 0  9998
#TLE: 2 49008  98.7386   0.9208 0001625 158.3591 201.7655 14.19826678180376

#Time	Az	El	Level	Level2	SNR	BER	Gain	Gain2
2025-01-01 04:28:56.40	42.98	68.00	-38.7	-41.2	3.3	8382705	95	6557
2025-01-01 04:28:56.80	43.21	68.16	-38.7	-52.7	3.5	8223907	73	24727
2025-01-01 04:28:57.20	43.44	68.33	-38.5	-41.4	3.3	8414817	94	6813
2025-01-01 04:28:57.61	43.68	68.50	-38.7	-42.6	3.6	8357048	95	7651
2025-01-01 04:28:58.01	43.92	68.66	-38.6	-40.9	3.3	8407459	95	6377
2025-01-01 04:28:58.41	44.16	68.82	-38.4	-41.7	3.6	8426456	95	7135
2025-01-01 04:28:58.81	44.41	68.99	-37.9	-39.3	3.3	8432178	94	5762
2025-01-01 04:28:59.21	44.66	69.15	-37.5	-39.7	3.6	8394893	93	6380
2025-01-01 04:28:59.62	44.92	69.32	-36.7	-37.2	4.1	8372314	91	5190
2025-01-01 04:29:00.02	45.18	69.48	-35.4	-34.8	5.1	7960384	89	4589
2025-01-01 04:29:00.42	45.44	69.65	-34.5	-33.8	6.2	7101402	87	4568
2025-01-01 04:29:00.82	45.71	69.81	-32.8	-31.7	7.9	1985733	84	4369
2025-01-01 04:29:01.22	45.98	69.97	-31.9	-31.1	9.2	525981	82	4458
2025-01-01 04:29:01.63	46.27	70.14	-31.0	-30.0	10.4	96553	80	4429
2025-01-01 04:29:02.03	46.55	70.30	-29.8	-28.8	11.6	13904	78	4365
2025-01-01 04:29:02.43	46.84	70.47	-29.0	-28.1	12.6	4680	76	4457
2025-01-01 04:29:02.83	47.13	70.63	-28.2	-27.2	13.3	583	75	4354
2025-01-01 04:29:03.23	47.43	70.79	-28.0	-27.2	13.6	102	74	4495
2025-01-01 04:29:03.63	47.73	70.95	-28.0	-27.0	13.7	102	74	4410
2025-01-01 04:29:04.03	48.04	71.11	-28.0	-27.1	13.7	91	74	4434
2025-01-01 04:29:04.44	48.36	71.28	-28.0	-27.1	13.6	80	74	4449
2025-01-01 04:29:04.84	48.68	71.44	-28.0	-27.2	13.7	80	74	4482
2025-01-01 04:29:05.24	49.01	71.60	-28.4	-27.9	13.3	80	74	4654
2025-01-01 04:29:05.64	49.34	71.76	-28.1	-27.4	13.6	160	74	4506
2025-01-01 04:29:06.04	49.68	71.92	-28.4	-27.9	13.2	137	74	4658
2025-01-01 04:29:06.44	50.02	72.08	-28.4	-27.9	13.2	160	74	4667
2025-01-01 04:29:06.85	50.38	72.25	-28.3	-27.8	13.3	102	74	4646
2025-01-01 04:29:07.25	50.74	72.41	-28.2	-27.5	13.4	171	74	4541
2025-01-01 04:29:07.65	51.11	72.56	-28.2	-27.5	13.4	171	74	4573
2025-01-01 04:29:08.05	51.48	72.72	-28.2	-27.5	13.4	171	74	4561
2025-01-01 04:29:08.45	51.86	72.88	-28.1	-27.3	13.4	137	74	4488
2025-01-01 04:29:08.85	52.24	73.04	-28.0	-27.1	13.4	217	74	4429
2025-01-01 04:29:09.25	52.64	73.20	-27.7	-27.0	13.8	171	73	4564
2025-01-01 04:29:09.66	53.05	73.36	-27.8	-27.4	13.6	91	73	4663
2025-01-01 04:29:10.06	53.46	73.51	-27.9	-27.4	13.6	91	73	4650
2025-01-01 04:29:10.46	53.88	73.67	-27.6	-26.9	13.9	114	73	4536
2025-01-01 04:29:10.86	54.31	73.82	-27.9	-27.4	13.6	102	73	4657
2025-01-01 04:29:11.26	54.74	73.97	-28.1	-27.7	13.4	114	73	4718
2025-01-01 04:29:11.67	55.20	74.13	-28.3	-28.1	13.2	114	73	4811
2025-01-01 04:29:12.07	55.65	74.28	-28.2	-28.1	13.3	125	73	4853
2025-01-01 04:29:12.47	56.11	74.43	-28.2	-27.8	13.4	183	73	4746
2025-01-01 04:29:12.87	56.58	74.59	-28.0	-27.7	13.6	125	73	4755
2025-01-01 04:29:13.27	57.06	74.73	-28.0	-27.7	13.6	102	73	4741
2025-01-01 04:29:13.67	57.56	74.88	-27.8	-27.3	13.8	34	73	4643
2025-01-01 04:29:14.08	58.07	75.04	-27.6	-26.9	14.1	22	73	4539
2025-01-01 04:29:14.48	58.58	75.18	-27.7	-27.0	14.1	34	73	4573
2025-01-01 04:29:14.88	59.10	75.33	-27.6	-26.9	14.2	22	73	4526
2025-01-01 04:29:15.28	59.64	75.47	-27.5	-26.6	14.4	22	73	4462
2025-01-01 04:29:15.68	60.18	75.62	-27.3	-26.4	14.6	22	73	4392
2025-01-01 04:29:16.08	60.74	75.76	-27.6	-26.8	14.3	22	73	4493
2025-01-01 04:29:16.48	61.31	75.90	-27.7	-26.9	14.3	11	73	4507
2025-01-01 04:29:16.89	61.90	76.05	-27.7	-26.9	14.3	11	73	4510
2025-01-01 04:29:17.29	62.49	76.19	-27.7	-26.9	14.3	22	73	4521
2025-01-01 04:29:17.69	63.10	76.32	-27.6	-26.7	14.5	0	73	4453
2025-01-01 04:29:18.09	63.71	76.46	-27.3	-26.3	14.7	0	73	4341
2025-01-01 04:29:18.49	64.34	76.60	-27.4	-26.9	14.7	11	72	4641
2025-01-01 04:29:18.89	64.99	76.73	-27.2	-26.5	15.0	11	72	4542
2025-01-01 04:29:19.30	65.66	76.86	-27.3	-26.6	14.9	0	72	4557
2025-01-01 04:29:19.70	66.33	76.99	-27.4	-26.8	14.9	0	72	4618
2025-01-01 04:29:20.10	67.01	77.12	-27.3	-26.6	15.0	0	72	4567
2025-01-01 04:29:20.50	67.71	77.25	-27.3	-26.8	15.0	0	72	4611
2025-01-01 04:29:20.90	68.42	77.38	-27.4	-27.0	14.9	0	72	4683
2025-01-01 04:29:21.30	69.15	77.50	-27.3	-26.8	15.0	0	72	4608
2025-01-01 04:29:21.71	69.91	77.62	-27.4	-26.8	15.0	0	72	4631
2025-01-01 04:29:22.11	70.67	77.74	-27.1	-26.3	15.3	0	72	4486
2025-01-01 04:29:22.51	71.44	77.86	-27.1	-26.3	15.3	0	72	4496
2025-01-01 04:29:22.91	72.23	77.98	-27.1	-26.3	15.3	0	72	4489
2025-01-01 04:29:23.31	73.03	78.09	-27.2	-26.5	15.2	0	72	4532
2025-01-01 04:29:23.72	73.87	78.20	-27.1	-26.3	15.3	0	72	4479
2025-01-01 04:29:24.12	74.70	78.31	-27.0	-26.1	15.3	0	72	4426
2025-01-01 04:29:24.52	75.55	78.42	-26.9	-25.8	15.4	0	72	4351
2025-01-01 04:29:24.92	76.42	78.52	-26.5	-25.5	15.7	0	71	4394
2025-01-01 04:29:25.32	77.30	78.62	-26.5	-25.5	15.6	0	71	4392
2025-01-01 04:29:25.72	78.20	78.72	-26.2	-25.5	16.0	0	70	4517
2025-01-01 04:29:26.12	79.12	78.82	-26.3	-25.6	15.9	0	70	4555
2025-01-01 04:29:26.53	80.07	78.91	-26.2	-25.4	15.9	0	70	4497
2025-01-01 04:29:26.93	81.02	79.01	-26.1	-25.3	16.0	0	70	4471
2025-01-01 04:29:27.33	81.98	79.09	-26.1	-25.3	16.0	0	70	4465
2025-01-01 04:29:27.73	82.96	79.18	-25.9	-24.8	16.2	0	70	4342
2025-01-01 04:29:28.13	83.95	79.26	-25.9	-24.8	16.2	0	70	4358
2025-01-01 04:29:28.53	84.96	79.34	-25.7	-24.9	16.3	0	69	4497
2025-01-01 04:29:28.94	86.01	79.41	-25.5	-24.6	16.4	0	69	4425
2025-01-01 04:29:29.34	87.05	79.48	-25.5	-24.6	16.4	0	69	4412
2025-01-01 04:29:29.74	88.10	79.55	-25.3	-24.1	16.6	0	69	4298
2025-01-01 04:29:30.14	89.17	79.62	-25.3	-24.7	16.7	0	68	4569
2025-01-01 04:29:30.54	90.24	79.68	-25.2	-24.4	16.8	0	68	4482
2025-01-01 04:29:30.94	91.34	79.74	-25.1	-24.1	17.0	0	68	4426
2025-01-01 04:29:31.35	92.47	79.79	-25.0	-24.0	17.0	0	68	4393
2025-01-01 04:29:31.75	93.58	79.84	-24.5	-23.6	17.2	0	67	4406
2025-01-01 04:29:32.15	94.71	79.89	-24.4	-23.3	17.4	0	67	4347
2025-01-01 04:29:32.55	95.85	79.93	-24.5	-23.5	17.3	0	67	4390
2025-01-01 04:29:32.95	96.99	79.97	-24.4	-23.3	17.4	0	67	4334
2025-01-01 04:29:33.35	98.15	80.00	-24.5	-24.1	17.3	0	66	4660
2025-01-01 04:29:33.76	99.34	80.03	-24.7	-24.4	17.1	0	66	4748
2025-01-01 04:29:34.16	100.51	80.06	-24.9	-24.9	16.9	0	66	4891
2025-01-01 04:29:34.56	101.68	80.08	-25.0	-24.4	16.8	0	67	4626
2025-01-01 04:29:34.96	102.86	80.10	-25.1	-24.6	16.7	0	67	4688
2025-01-01 04:29:35.36	104.05	80.11	-25.0	-24.6	16.7	0	67	4674
2025-01-01 04:29:35.77	105.26	80.12	-25.0	-24.5	16.7	0	67	4643
2025-01-01 04:29:36.17	106.45	80.13	-24.9	-24.3	16.8	0	67	4589
2025-01-01 04:29:36.57	107.64	80.13	-24.9	-24.4	16.8	0	67	4630
2025-01-01 04:29:36.97	108.83	80.13	-24.9	-24.3	16.9	0	67	4600
2025-01-01 04:29:37.37	110.02	80.12	-24.7	-24.0	17.0	0	67	4514
2025-01-01 04:29:37.77	111.20	80.11	-24.7	-23.9	17.1	0	67	4495
2025-01-01 04:29:38.17	112.39	80.09	-24.9	-24.3	16.9	0	67	4596
2025-01-01 04:29:38.58	113.59	80.07	-24.8	-24.1	17.0	0	67	4543
2025-01-01 04:29:38.98	114.77	80.05	-24.8	-24.0	17.0	0	67	4528
2025-01-01 04:29:39.38	115.93	80.02	-24.6	-23.8	17.1	0	67	4453
2025-01-01 04:29:39.78	117.09	79.99	-24.6	-23.7	17.1	0	67	4445
2025-01-01 04:29:40.18	118.25	79.96	-24.7	-23.9	17.0	0	67	4480
2025-01-01 04:29:40.59	119.42	79.91	-24.7	-23.9	17.0	0	67	4482
2025-01-01 04:29:40.99	120.55	79.87	-24.8	-24.2	16.9	0	67	4577
2025-01-01 04:29:41.39	121.67	79.82	-24.8	-24.1	17.0	0	67	4534
2025-01-01 04:29:41.79	122.79	79.77	-24.8	-24.1	17.0	0	67	4530
2025-01-01 04:29:42.19	123.89	79.72	-24.6	-23.7	17.2	0	67	4431
2025-01-01 04:29:42.59	124.98	79.66	-24.4	-23.3	17.4	0	67	4332
2025-01-01 04:29:43.00	126.08	79.60	-24.4	-23.3	17.4	0	67	4334
2025-01-01 04:29:43.40	127.14	79.53	-24.4	-23.3	17.4	0	67	4348
2025-01-01 04:29:43.80	128.19	79.46	-24.3	-23.7	17.4	0	66	4557
2025-01-01 04:29:44.20	129.22	79.39	-24.4	-23.9	17.4	0	66	4616
2025-01-01 04:29:44.60	130.24	79.31	-24.6	-24.1	17.3	0	66	4694
2025-01-01 04:29:45.00	131.24	79.23	-24.6	-24.3	17.2	0	66	4736
2025-01-01 04:29:45.41	132.26	79.15	-24.8	-24.6	17.0	0	66	4830
2025-01-01 04:29:45.81	133.23	79.06	-24.9	-24.3	16.8	0	67	4604
2025-01-01 04:29:46.21	134.19	78.97	-24.9	-24.4	16.8	0	67	4620
2025-01-01 04:29:46.61	135.13	78.88	-25.0	-24.6	16.8	0	67	4683
2025-01-01 04:29:47.01	136.06	78.79	-25.1	-24.7	16.7	0	67	4719
2025-01-01 04:29:47.41	136.97	78.69	-25.2	-24.9	16.6	0	67	4790
2025-01-01 04:29:47.82	137.88	78.59	-25.2	-24.9	16.7	0	67	4776
2025-01-01 04:29:48.22	138.76	78.49	-25.2	-24.9	16.7	0	67	4779
2025-01-01 04:29:48.62	139.62	78.38	-25.3	-25.3	16.6	0	67	4876
2025-01-01 04:29:49.02	140.47	78.27	-25.3	-25.1	16.6	0	67	4835
2025-01-01 04:29:49.42	141.30	78.17	-25.2	-25.0	16.7	0	67	4798
2025-01-01 04:29:49.82	142.11	78.05	-25.3	-25.2	16.7	0	67	4866
2025-01-01 04:29:50.22	142.91	77.94	-25.3	-25.2	16.7	0	67	4877
2025-01-01 04:29:50.63	143.71	77.82	-25.4	-25.3	16.7	0	67	4893
2025-01-01 04:29:51.03	144.48	77.70	-25.7	-25.6	16.5	0	68	4834
2025-01-01 04:29:51.43	145.23	77.58	-26.0	-26.0	16.3	0	68	4949
2025-01-01 04:29:51.83	145.97	77.46	-26.1	-25.8	16.1	0	69	4747
2025-01-01 04:29:52.23	146.69	77.33	-26.2	-26.0	16.0	0	69	4809
2025-01-01 04:29:52.63	147.40	77.21	-26.4	-26.4	15.8	0	69	4915
2025-01-01 04:29:53.04	148.11	77.08	-26.6	-26.4	15.6	0	70	4785
2025-01-01 04:29:53.44	148.79	76.95	-26.7	-26.5	15.6	0	70	4819
2025-01-01 04:29:53.84	149.46	76.82	-26.7	-26.6	15.5	0	70	4848
2025-01-01 04:29:54.24	150.11	76.68	-26.6	-26.4	15.6	0	70	4792
2025-01-01 04:29:54.64	150.75	76.55	-26.6	-26.3	15.6	0	70	4768
2025-01-01 04:29:55.05	151.39	76.41	-26.6	-26.3	15.5	0	70	4770
2025-01-01 04:29:55.45	152.00	76.27	-26.7	-26.5	15.4	0	70	4817
2025-01-01 04:29:55.85	152.60	76.13	-26.7	-26.5	15.4	0	70	4824
2025-01-01 04:29:56.25	153.19	75.99	-26.9	-26.8	15.2	0	70	4907
2025-01-01 04:29:56.65	153.77	75.85	-26.9	-26.9	15.2	0	70	4939
2025-01-01 04:29:57.06	154.34	75.71	-26.9	-26.8	15.2	0	70	4901
2025-01-01 04:29:57.46	154.90	75.56	-26.9	-26.9	15.1	0	70	4905
2025-01-01 04:29:57.86	155.44	75.42	-26.7	-26.1	15.2	11	71	4559
2025-01-01 04:29:58.26	155.97	75.27	-26.9	-26.4	15.1	11	71	4645
2025-01-01 04:29:58.66	156.49	75.13	-27.1	-26.7	14.9	11	71	4704
2025-01-01 04:29:59.06	157.00	74.98	-27.1	-26.8	14.7	0	71	4756
2025-01-01 04:29:59.47	157.51	74.83	-27.3	-27.1	14.6	0	71	4844
2025-01-01 04:29:59.87	157.99	74.68	-27.2	-27.0	14.6	22	71	4799
2025-01-01 04:30:00.27	158.47	74.53	-27.2	-26.9	14.6	11	71	4761
2025-01-01 04:30:00.67	158.94	74.38	-27.2	-27.1	14.5	0	71	4812
2025-01-01 04:30:01.07	159.40	74.22	-27.3	-27.1	14.5	0	71	4836
2025-01-01 04:30:01.48	159.86	74.07	-27.2	-26.9	14.5	34	71	4758
2025-01-01 04:30:01.88	160.30	73.91	-27.0	-26.6	14.6	0	71	4682
2025-01-01 04:30:02.28	160.74	73.76	-27.2	-26.9	14.5	22	71	4759
2025-01-01 04:30:02.68	161.16	73.60	-27.1	-26.8	14.4	0	71	4730
2025-01-01 04:30:03.08	161.58	73.45	-27.4	-27.2	14.2	68	71	4847
2025-01-01 04:30:03.49	161.99	73.29	-27.6	-27.3	14.0	34	72	4747
2025-01-01 04:30:03.89	162.39	73.13	-27.9	-27.8	13.8	57	72	4875
2025-01-01 04:30:04.29	162.78	72.98	-28.1	-27.7	13.5	148	73	4704
2025-01-01 04:30:04.69	163.17	72.82	-28.3	-28.1	13.3	91	73	4822
2025-01-01 04:30:05.09	163.55	72.66	-28.4	-28.4	13.1	228	73	4925
2025-01-01 04:30:05.49	163.92	72.50	-28.5	-28.1	13.1	308	74	4704
2025-01-01 04:30:05.89	164.28	72.34	-28.6	-28.2	13.0	286	74	4709
2025-01-01 04:30:06.30	164.64	72.18	-28.7	-28.5	12.9	457	74	4822
2025-01-01 04:30:06.70	164.99	72.02	-28.8	-28.7	12.8	595	74	4869
2025-01-01 04:30:07.10	165.34	71.86	-28.7	-28.4	13.0	389	74	4786
2025-01-01 04:30:07.50	165.67	71.70	-28.6	-28.3	13.0	560	74	4759
2025-01-01 04:30:07.90	166.00	71.54	-28.7	-28.5	13.0	434	74	4813
2025-01-01 04:30:08.31	166.33	71.37	-28.6	-28.4	13.0	354	74	4796
2025-01-01 04:30:08.71	166.65	71.21	-28.6	-28.3	13.0	354	74	4759
2025-01-01 04:30:09.11	166.97	71.05	-28.6	-28.4	13.0	469	74	4784
2025-01-01 04:30:09.51	167.27	70.88	-28.5	-28.1	13.1	617	74	4698
2025-01-01 04:30:09.91	167.57	70.72	-28.7	-28.4	12.9	640	74	4795
2025-01-01 04:30:10.32	167.88	70.55	-38.6	-42.6	3.6	652	94	7825
2025-01-01 04:30:10.72	168.17	70.39	-38.8	-41.8	3.4	8378540	95	6954
2025-01-01 04:30:11.12	168.45	70.23	-38.9	-41.5	3.3	8407516	95	6633
2025-01-01 04:30:11.52	168.73	70.07	-39.1	-42.3	3.5	8376022	96	7096

#Closed at: 2025-01-01 04:30:11