passes_logs/2026/01/04/R4.6S_Anadyr/R4.6S_Anadyr__20260104_194926_SUOMI_NPP_rec.log

#Pass ID: 20260104_194926_SUOMI NPP
#Satellite: SUOMI NPP
#Configuration: NPP
#almurnet v.1.7.20251203
#Start time: 2026-01-04 19:49:28

#Version: 2.2.20231116
#Station: R4.6S_Anadyr
#Location: 177.4865 lon 64.73178 lat
#TLE: 1 37849U 11061A   26001.07732418  .00000182  00000+0  10735-3 0  9990
#TLE: 2 37849  98.7795 303.2470 0002580  87.2016 272.9455 14.19520779734739

#Time	Az	El	Level	Level2	SNR	BER	BlckErr	Temp	State	Recorded	gain1	gain2
2026-01-04 19:49:28.15	58.11	0.07	-49.2	-59.9	3.5	8.46e-01	0	27	0	0	60	35839
2026-01-04 19:49:31.17	57.88	0.21	-49.7	-64.9	3.6	1.51e+00	0	28	104	0	60	63226
2026-01-04 19:49:34.20	57.65	0.36	-49.0	-64.2	3.6	1.51e+00	0	28	104	0	60	58900
2026-01-04 19:49:37.24	57.42	0.51	-48.7	-63.9	3.6	1.51e+00	0	28	104	0	60	56444
2026-01-04 19:49:40.26	57.18	0.66	-48.5	-63.7	3.6	1.51e+00	0	28	104	0	60	55549
2026-01-04 19:49:43.29	56.94	0.81	-48.0	-63.2	3.6	1.51e+00	0	28	104	0	60	52191
2026-01-04 19:49:46.32	56.70	0.95	-47.1	-62.3	3.6	1.51e+00	0	28	104	0	60	47247
2026-01-04 19:49:49.34	56.46	1.10	-47.1	-62.3	3.6	1.51e+00	0	28	104	0	60	46932
2026-01-04 19:49:52.38	56.21	1.25	-47.1	-62.3	3.6	1.51e+00	0	28	104	0	60	47054
2026-01-04 19:49:55.40	55.96	1.40	-47.1	-62.3	3.6	1.51e+00	0	28	104	0	60	47216
2026-01-04 19:49:58.43	55.71	1.55	-47.1	-62.3	3.6	1.51e+00	0	29	104	0	60	46872
2026-01-04 19:50:01.46	55.46	1.70	-47.1	-62.2	3.6	1.51e+00	0	29	104	0	60	46821
2026-01-04 19:50:04.49	55.20	1.85	-47.1	-62.2	3.6	1.51e+00	0	28	104	0	60	46784
2026-01-04 19:50:07.52	54.94	2.00	-47.1	-62.2	3.6	1.51e+00	0	28	104	0	60	46565
2026-01-04 19:50:10.55	54.68	2.15	-47.1	-61.9	3.6	1.51e+00	0	28	104	0	60	44835
2026-01-04 19:50:13.58	54.41	2.30	-47.1	-62.3	3.6	1.51e+00	0	29	104	0	60	46921
2026-01-04 19:50:16.61	54.15	2.45	-47.1	-62.1	3.6	1.51e+00	0	29	104	0	60	46162
2026-01-04 19:50:19.64	53.87	2.60	-47.1	-62.2	3.6	1.51e+00	0	29	104	0	60	46438
2026-01-04 19:50:22.67	53.60	2.76	-47.1	-61.2	3.6	1.51e+00	0	28	104	0	60	41341
2026-01-04 19:50:25.70	53.32	2.91	-47.0	-59.5	3.6	1.51e+00	0	29	104	0	60	34121
2026-01-04 19:50:28.73	53.04	3.06	-47.1	-61.3	3.6	7.49e-01	0	29	104	2097152	60	41957
2026-01-04 19:50:31.76	52.76	3.21	-42.8	-45.1	16.3	3.29e-02	87	29	0	3145728	60	6511
2026-01-04 19:50:34.79	52.48	3.36	-43.1	-45.6	16.1	0.00e+00	2	29	0	4194304	60	6861
2026-01-04 19:50:37.82	52.19	3.52	-42.2	-44.3	17.0	0.00e+00	0	29	0	9437184	58	6639
2026-01-04 19:50:40.84	51.90	3.67	-42.2	-44.3	17.1	0.00e+00	92	29	0	15728640	58	6644
2026-01-04 19:50:43.87	51.60	3.82	-42.5	-44.6	16.7	0.00e+00	81	29	0	20971520	58	6892
2026-01-04 19:50:46.90	51.30	3.97	-42.3	-44.3	17.2	0.00e+00	0	29	0	27262976	58	6684
2026-01-04 19:50:49.93	51.00	4.13	-41.8	-43.7	17.8	0.00e+00	2	29	0	32505856	56	6939
2026-01-04 19:50:52.95	50.70	4.28	-41.9	-43.7	17.9	0.00e+00	91	29	0	37748736	56	6992
2026-01-04 19:50:55.98	50.39	4.43	-41.9	-43.7	17.8	0.00e+00	0	29	0	44040192	56	6993
2026-01-04 19:50:59.01	50.08	4.59	-41.9	-43.8	17.8	0.00e+00	0	29	0	49283072	56	7073
2026-01-04 19:51:02.04	49.76	4.74	-42.0	-43.9	17.7	0.00e+00	70	29	0	55574528	56	7161
2026-01-04 19:51:05.07	49.45	4.89	-41.9	-43.7	18.0	0.00e+00	72	29	0	60817408	56	6997
2026-01-04 19:51:08.10	49.12	5.05	-42.4	-44.4	17.2	0.00e+00	0	29	0	67108864	58	6724
2026-01-04 19:51:11.13	48.80	5.20	-43.1	-45.5	15.6	0.00e+00	92	29	0	72351744	58	7618
2026-01-04 19:51:14.15	48.47	5.35	-43.5	-46.1	16.1	0.00e+00	92	29	0	77594624	58	8144
2026-01-04 19:51:17.18	48.14	5.51	-43.6	-46.1	15.6	0.00e+00	0	29	0	83886080	60	7311
2026-01-04 19:51:20.21	47.80	5.66	-42.4	-44.4	17.6	0.00e+00	0	29	0	89128960	58	6707
2026-01-04 19:51:23.24	47.46	5.81	-41.3	-42.8	18.9	0.00e+00	22	29	0	95420416	56	6314
2026-01-04 19:51:26.27	47.12	5.97	-41.0	-42.5	19.2	0.00e+00	3	29	0	100663296	56	6050
2026-01-04 19:51:29.29	46.78	6.12	-41.1	-42.7	19.0	0.00e+00	0	29	0	105906176	54	6943
2026-01-04 19:51:32.32	46.42	6.27	-40.6	-42.0	19.7	0.00e+00	92	29	0	112197632	54	6407
2026-01-04 19:51:35.35	46.07	6.43	-41.2	-42.8	19.0	0.00e+00	92	29	0	117440512	54	7012
2026-01-04 19:51:38.37	45.71	6.58	-40.9	-42.4	19.2	0.00e+00	0	29	0	123731968	54	6719
2026-01-04 19:51:41.40	45.35	6.73	-40.9	-42.4	19.3	0.00e+00	67	29	0	128974848	54	6767
2026-01-04 19:51:44.43	44.98	6.88	-41.1	-42.6	19.1	0.00e+00	36	29	0	135266304	54	6911
2026-01-04 19:51:47.46	44.61	7.04	-40.8	-42.3	19.4	0.00e+00	0	29	0	140509184	54	6625
2026-01-04 19:51:50.49	44.24	7.19	-41.0	-42.5	19.2	0.00e+00	0	29	0	145752064	54	6784
2026-01-04 19:51:53.52	43.86	7.34	-41.0	-42.5	19.2	0.00e+00	64	29	0	152043520	54	6827
2026-01-04 19:51:56.55	43.48	7.49	-40.7	-42.1	19.6	0.00e+00	0	29	0	157286400	54	6522
2026-01-04 19:51:59.58	43.09	7.64	-40.7	-42.1	19.6	0.00e+00	0	29	0	163577856	54	6531
2026-01-04 19:52:02.60	42.71	7.79	-40.8	-42.3	19.3	0.00e+00	0	29	0	168820736	54	6636
2026-01-04 19:52:05.63	42.31	7.94	-40.5	-41.9	19.9	0.00e+00	92	29	0	174063616	54	6349
2026-01-04 19:52:08.66	41.91	8.09	-40.4	-41.8	20.0	0.00e+00	0	29	0	180355072	54	6263
2026-01-04 19:52:11.69	41.51	8.24	-40.2	-41.6	20.2	0.00e+00	0	29	0	185597952	54	6124
2026-01-04 19:52:14.72	41.10	8.39	-40.4	-41.8	20.0	0.00e+00	92	29	0	191889408	54	6259
2026-01-04 19:52:17.75	40.69	8.54	-40.7	-42.2	19.6	0.00e+00	0	29	0	197132288	54	6546
2026-01-04 19:52:20.78	40.28	8.69	-40.9	-42.4	19.4	0.00e+00	0	29	0	203423744	54	6729
2026-01-04 19:52:23.80	39.86	8.84	-40.6	-42.0	19.9	0.00e+00	71	29	0	208666624	54	6447
2026-01-04 19:52:26.83	39.43	8.98	-40.9	-42.3	19.5	0.00e+00	6	29	0	213909504	54	6671
2026-01-04 19:52:29.86	39.00	9.13	-40.2	-41.6	20.3	0.00e+00	0	29	0	220200960	54	6114
2026-01-04 19:52:32.89	38.57	9.27	-40.3	-41.7	20.2	0.00e+00	0	29	0	225443840	54	6203
2026-01-04 19:52:35.91	38.13	9.42	-40.0	-41.3	20.5	0.00e+00	4	29	0	231735296	54	5916
2026-01-04 19:52:38.94	37.69	9.56	-40.1	-41.4	20.5	0.00e+00	0	29	0	236978176	52	6697
2026-01-04 19:52:41.97	37.25	9.71	-40.1	-41.4	20.3	0.00e+00	0	29	0	242221056	52	6755
2026-01-04 19:52:45.00	36.80	9.85	-38.7	-39.8	21.7	0.00e+00	33	29	0	248512512	52	5571
2026-01-04 19:52:48.03	36.34	9.99	-38.5	-39.5	22.1	0.00e+00	0	29	0	253755392	50	6078
2026-01-04 19:52:51.05	35.88	10.13	-38.6	-39.6	22.0	0.00e+00	0	29	0	260046848	50	6156
2026-01-04 19:52:54.08	35.42	10.27	-38.9	-40.0	21.7	0.00e+00	0	29	0	265289728	50	6457
2026-01-04 19:52:57.11	34.95	10.41	-39.5	-40.7	21.1	0.00e+00	0	29	0	271581184	50	6959
2026-01-04 19:53:00.14	34.48	10.54	-38.7	-39.8	21.9	0.00e+00	0	29	0	276824064	50	6307
2026-01-04 19:53:03.17	34.00	10.68	-38.6	-39.6	21.9	0.00e+00	0	29	0	282066944	50	6148
2026-01-04 19:53:06.20	33.52	10.82	-38.1	-39.1	22.3	0.00e+00	92	29	0	288358400	50	5794
2026-01-04 19:53:09.23	33.03	10.95	-37.7	-38.6	22.8	0.00e+00	0	29	0	293601280	48	6136
2026-01-04 19:53:12.26	32.54	11.08	-37.9	-38.8	22.8	0.00e+00	0	29	0	299892736	48	6316
2026-01-04 19:53:15.28	32.04	11.21	-38.0	-38.9	22.6	0.00e+00	92	29	0	305135616	48	6381
2026-01-04 19:53:18.31	31.54	11.34	-38.2	-39.2	22.4	0.00e+00	0	29	0	310378496	48	6586
2026-01-04 19:53:21.34	31.04	11.47	-37.3	-38.2	23.2	0.00e+00	0	29	0	316669952	48	5868
2026-01-04 19:53:24.37	30.53	11.60	-37.6	-38.6	23.2	0.00e+00	0	29	0	321912832	48	6111
2026-01-04 19:53:27.40	30.01	11.72	-38.2	-39.2	22.4	0.00e+00	75	29	0	328204288	48	6591
2026-01-04 19:53:30.43	29.50	11.84	-38.1	-39.1	22.6	0.00e+00	0	29	0	333447168	48	6527
2026-01-04 19:53:33.46	28.97	11.97	-38.4	-39.5	22.1	0.00e+00	0	29	0	339738624	48	6792
2026-01-04 19:53:36.49	28.45	12.09	-38.2	-39.2	22.4	0.00e+00	86	29	0	344981504	48	6614
2026-01-04 19:53:39.52	27.92	12.20	-38.0	-39.0	22.6	0.00e+00	0	29	0	350224384	48	6437
2026-01-04 19:53:42.55	27.38	12.32	-38.4	-39.4	22.3	0.00e+00	0	29	0	356515840	48	6753
2026-01-04 19:53:45.58	26.84	12.43	-38.3	-39.3	22.4	0.00e+00	36	29	0	361758720	48	6675
2026-01-04 19:53:48.60	26.30	12.55	-38.1	-39.1	22.5	0.00e+00	0	29	0	368050176	48	6528
2026-01-04 19:53:51.63	25.75	12.66	-37.7	-38.6	22.9	0.00e+00	0	29	0	373293056	48	6165
2026-01-04 19:53:54.66	25.20	12.76	-37.8	-38.7	22.8	0.00e+00	0	29	0	378535936	48	6207
2026-01-04 19:53:57.69	24.64	12.87	-38.0	-39.0	22.6	0.00e+00	7	29	0	384827392	48	6448
2026-01-04 19:54:00.72	24.08	12.97	-37.9	-38.8	22.8	0.00e+00	0	29	0	390070272	48	6303
2026-01-04 19:54:03.74	23.52	13.07	-37.9	-38.9	22.6	0.00e+00	0	29	0	396361728	48	6349
2026-01-04 19:54:06.77	22.95	13.17	-38.3	-39.3	22.4	0.00e+00	41	29	0	401604608	48	6671
2026-01-04 19:54:09.80	22.38	13.27	-39.3	-40.5	21.5	0.00e+00	0	29	0	406847488	50	6816
2026-01-04 19:54:12.83	21.80	13.36	-38.7	-39.8	22.0	0.00e+00	0	29	0	413138944	50	6282
2026-01-04 19:54:15.85	21.22	13.45	-37.6	-38.6	22.9	0.00e+00	80	29	0	418381824	48	6122
2026-01-04 19:54:18.89	20.64	13.54	-37.1	-38.0	23.2	0.00e+00	0	29	0	424673280	48	5741
2026-01-04 19:54:21.91	20.05	13.63	-37.0	-37.9	23.5	0.00e+00	0	29	0	429916160	46	6358
2026-01-04 19:54:24.94	19.46	13.71	-37.5	-38.4	23.1	0.00e+00	0	29	0	436207616	46	6744
2026-01-04 19:54:27.97	18.87	13.79	-36.9	-37.8	23.5	0.00e+00	7	29	0	441450496	46	6281
2026-01-04 19:54:31.00	18.27	13.87	-37.2	-38.1	23.0	0.00e+00	0	29	0	446693376	46	6517
2026-01-04 19:54:34.02	17.68	13.95	-38.2	-39.2	22.6	0.00e+00	0	29	0	452984832	48	6571
2026-01-04 19:54:37.05	17.07	14.02	-38.4	-39.5	22.3	0.00e+00	66	29	0	458227712	48	6810
2026-01-04 19:54:40.07	16.47	14.09	-38.8	-39.9	21.8	0.00e+00	0	29	0	464519168	50	6365
2026-01-04 19:54:43.10	15.86	14.15	-38.6	-39.6	21.9	0.00e+00	3	29	0	469762048	50	6171
2026-01-04 19:54:46.13	15.25	14.22	-38.7	-39.8	21.9	0.00e+00	81	29	0	475004928	50	6256
2026-01-04 19:54:49.15	14.64	14.28	-38.7	-39.7	22.0	0.00e+00	42	29	0	481296384	50	6240
2026-01-04 19:54:52.18	14.02	14.33	-37.8	-38.8	22.9	0.00e+00	0	29	0	486539264	50	5572
2026-01-04 19:54:55.21	13.40	14.39	-37.7	-38.6	23.0	0.00e+00	0	29	0	492830720	48	6160
2026-01-04 19:54:58.24	12.78	14.44	-37.4	-38.3	23.3	0.00e+00	91	29	0	498073600	48	5932
2026-01-04 19:55:01.27	12.16	14.49	-37.8	-38.7	22.9	0.00e+00	0	29	0	504365056	48	6203
2026-01-04 19:55:04.29	11.54	14.53	-38.3	-39.3	22.2	0.00e+00	0	29	0	509607936	48	6680
2026-01-04 19:55:07.32	10.91	14.57	-38.2	-39.2	22.5	0.00e+00	37	29	0	514850816	48	6612
2026-01-04 19:55:10.35	10.28	14.61	-37.9	-38.8	22.7	0.00e+00	0	29	0	521142272	48	6313
2026-01-04 19:55:13.38	9.65	14.64	-38.2	-39.2	22.5	0.00e+00	0	29	0	526385152	48	6613
2026-01-04 19:55:16.40	9.03	14.67	-38.2	-39.2	22.4	0.00e+00	0	29	0	532676608	48	6603
2026-01-04 19:55:19.44	8.39	14.70	-38.2	-39.2	22.6	0.00e+00	73	29	0	537919488	48	6553
2026-01-04 19:55:22.46	7.76	14.72	-38.1	-39.1	22.5	0.00e+00	0	29	0	543162368	48	6496
2026-01-04 19:55:25.49	7.13	14.74	-37.6	-38.6	23.0	0.00e+00	0	29	0	549453824	48	6108
2026-01-04 19:55:28.52	6.49	14.76	-37.8	-38.8	22.7	0.00e+00	89	29	0	554696704	48	6273
2026-01-04 19:55:31.55	5.86	14.77	-38.0	-39.0	22.7	0.00e+00	0	29	0	560988160	48	6402
2026-01-04 19:55:34.57	5.22	14.78	-38.0	-39.0	22.6	0.00e+00	0	29	0	566231040	48	6456
2026-01-04 19:55:37.61	4.58	14.79	-38.3	-39.3	22.3	0.00e+00	92	29	0	571473920	48	6687
2026-01-04 19:55:40.63	3.95	14.79	-38.1	-39.1	22.6	0.00e+00	0	29	0	577765376	48	6501
2026-01-04 19:55:43.65	3.31	14.79	-37.6	-38.5	23.0	0.00e+00	0	29	0	583008256	48	6066
2026-01-04 19:55:46.68	2.68	14.78	-37.5	-38.5	23.0	0.00e+00	0	29	0	589299712	48	6057
2026-01-04 19:55:49.71	2.04	14.77	-38.1	-39.1	22.4	0.00e+00	3	29	0	594542592	48	6524
2026-01-04 19:55:52.74	1.41	14.76	-38.5	-39.6	22.2	0.00e+00	0	29	0	600834048	48	6851
2026-01-04 19:55:55.77	0.77	14.75	-38.3	-39.4	22.3	0.00e+00	0	29	0	606076928	48	6694
2026-01-04 19:55:58.80	0.14	14.73	-38.7	-39.8	22.0	0.00e+00	90	29	0	611319808	50	6281
2026-01-04 19:56:01.82	359.50	14.70	-38.7	-39.7	22.1	0.00e+00	0	29	0	617611264	50	6244
2026-01-04 19:56:04.86	358.87	14.68	-38.1	-39.1	22.4	0.00e+00	0	29	0	622854144	50	5804
2026-01-04 19:56:07.89	358.24	14.65	-37.6	-38.5	23.0	0.00e+00	90	29	0	629145600	48	6068
2026-01-04 19:56:10.91	357.61	14.62	-37.8	-38.7	22.8	0.00e+00	0	29	0	634388480	48	6237
2026-01-04 19:56:13.94	356.98	14.58	-38.1	-39.1	22.5	0.00e+00	0	29	0	639631360	48	6466
2026-01-04 19:56:16.97	356.36	14.54	-37.8	-38.7	22.8	0.00e+00	0	29	0	645922816	48	6233
2026-01-04 19:56:20.00	355.73	14.50	-37.3	-38.1	23.3	0.00e+00	0	29	0	651165696	48	5823
2026-01-04 19:56:23.03	355.11	14.45	-37.4	-38.3	23.2	0.00e+00	0	29	0	657457152	48	5953
2026-01-04 19:56:26.06	354.49	14.40	-37.6	-38.5	23.0	0.00e+00	0	29	0	662700032	48	6081
2026-01-04 19:56:29.08	353.87	14.35	-37.9	-38.9	22.6	0.00e+00	92	29	0	668991488	48	6353
2026-01-04 19:56:32.11	353.25	14.29	-38.6	-39.6	22.1	0.00e+00	0	29	0	674234368	48	6923
2026-01-04 19:56:35.14	352.64	14.23	-38.3	-39.3	22.3	0.00e+00	0	29	0	679477248	48	6668
2026-01-04 19:56:38.16	352.03	14.17	-38.0	-39.0	22.5	0.00e+00	91	29	0	685768704	48	6427
2026-01-04 19:56:41.20	351.42	14.11	-37.7	-38.7	22.8	0.00e+00	0	29	0	691011584	48	6212
2026-01-04 19:56:44.22	350.81	14.04	-37.7	-38.6	23.1	0.00e+00	0	29	0	697303040	48	6142
2026-01-04 19:56:47.25	350.21	13.97	-37.8	-38.8	22.8	0.00e+00	0	29	0	702545920	48	6272
2026-01-04 19:56:50.28	349.61	13.89	-37.5	-38.4	23.0	0.00e+00	77	29	0	707788800	48	6025
2026-01-04 19:56:53.31	349.01	13.82	-37.8	-38.8	22.8	0.00e+00	0	29	0	714080256	48	6257
2026-01-04 19:56:56.34	348.42	13.74	-38.4	-39.5	22.1	0.00e+00	0	29	0	719323136	48	6771
2026-01-04 19:56:59.36	347.83	13.65	-38.1	-39.1	22.5	0.00e+00	81	29	0	725614592	48	6484
2026-01-04 19:57:02.39	347.24	13.57	-38.1	-39.1	22.4	0.00e+00	0	29	0	730857472	48	6539
2026-01-04 19:57:05.42	346.66	13.48	-38.4	-39.4	22.2	0.00e+00	0	29	0	737148928	48	6764
2026-01-04 19:57:08.44	346.08	13.39	-38.2	-39.2	22.4	0.00e+00	89	29	0	742391808	48	6587
2026-01-04 19:57:11.48	345.50	13.30	-38.3	-39.3	22.2	0.00e+00	0	29	0	747634688	48	6631
2026-01-04 19:57:14.50	344.93	13.20	-37.9	-38.9	22.7	0.00e+00	0	29	0	753926144	48	6367
2026-01-04 19:57:17.53	344.36	13.10	-38.1	-39.0	22.6	0.00e+00	0	29	0	759169024	48	6455
2026-01-04 19:57:20.56	343.80	13.00	-38.1	-39.1	22.3	0.00e+00	1	29	0	765460480	50	5811
2026-01-04 19:57:23.59	343.24	12.90	-37.4	-38.3	23.1	0.00e+00	0	29	0	770703360	48	5960
2026-01-04 19:57:26.62	342.68	12.79	-37.4	-38.3	22.7	0.00e+00	0	29	0	775946240	48	5943
2026-01-04 19:57:29.65	342.12	12.69	-38.0	-39.0	22.6	0.00e+00	92	29	0	782237696	48	6395
2026-01-04 19:57:32.67	341.58	12.58	-38.3	-39.4	22.3	0.00e+00	0	29	0	787480576	48	6712
2026-01-04 19:57:35.70	341.03	12.47	-39.1	-40.3	21.7	0.00e+00	0	29	0	793772032	50	6633
2026-01-04 19:57:38.73	340.49	12.35	-38.8	-39.9	21.9	0.00e+00	15	29	0	799014912	50	6325
2026-01-04 19:57:41.76	339.95	12.24	-38.5	-39.5	21.8	0.00e+00	64	29	0	804257792	50	6072
2026-01-04 19:57:44.79	339.42	12.12	-38.5	-39.6	22.0	0.00e+00	0	29	0	810549248	50	6107
2026-01-04 19:57:47.82	338.89	12.00	-38.8	-39.9	21.9	0.00e+00	0	29	0	815792128	50	6338
2026-01-04 19:57:50.84	338.37	11.88	-39.1	-40.3	21.3	0.00e+00	91	29	0	822083584	50	6633
2026-01-04 19:57:53.87	337.85	11.76	-39.4	-40.5	21.1	0.00e+00	0	29	0	827326464	50	6841
2026-01-04 19:57:56.90	337.34	11.63	-40.1	-41.3	20.8	0.00e+00	0	29	0	833617920	52	6665
2026-01-04 19:57:59.93	336.83	11.51	-40.3	-41.5	20.4	0.00e+00	62	29	0	838860800	52	6827
2026-01-04 19:58:02.96	336.32	11.38	-38.8	-39.9	21.9	0.00e+00	0	29	0	844103680	52	5643
2026-01-04 19:58:05.99	335.82	11.25	-38.4	-39.3	22.2	0.00e+00	0	29	0	850395136	50	5956
2026-01-04 19:58:09.02	335.32	11.12	-39.2	-40.3	21.3	0.00e+00	0	29	0	855638016	50	6622
2026-01-04 19:58:12.04	334.83	10.99	-40.1	-41.4	20.3	0.00e+00	0	29	0	861929472	52	6736
2026-01-04 19:58:15.07	334.35	10.85	-40.1	-41.3	20.6	0.00e+00	0	29	0	867172352	54	5939
2026-01-04 19:58:18.10	333.86	10.72	-39.4	-40.5	21.0	0.00e+00	0	29	0	872415232	52	6093
2026-01-04 19:58:21.13	333.38	10.58	-40.1	-41.3	20.6	0.00e+00	45	29	0	878706688	52	6673
2026-01-04 19:58:24.16	332.91	10.45	-40.7	-42.1	19.7	0.00e+00	33	29	0	883949568	52	7293
2026-01-04 19:58:27.19	332.44	10.31	-41.9	-43.7	18.3	0.00e+00	33	29	0	890241024	56	6945
2026-01-04 19:58:30.22	331.97	10.17	-41.8	-43.5	18.5	0.00e+00	90	30	0	895483904	56	6821
2026-01-04 19:58:33.24	331.52	10.03	-41.1	-42.6	19.4	0.00e+00	0	29	0	901775360	56	6140
2026-01-04 19:58:36.27	331.06	9.89	-41.0	-42.5	19.4	0.00e+00	0	29	0	907018240	56	6052
2026-01-04 19:58:39.30	330.61	9.75	-40.9	-42.3	19.7	0.00e+00	0	29	0	912261120	56	5929
2026-01-04 19:58:42.33	330.16	9.61	-40.4	-41.7	20.2	0.00e+00	1	29	0	918552576	54	6217
2026-01-04 19:58:45.36	329.72	9.46	-40.3	-41.6	20.2	0.00e+00	0	29	0	923795456	54	6135
2026-01-04 19:58:48.39	329.28	9.32	-40.4	-41.7	20.2	0.00e+00	0	29	0	930086912	54	6216
2026-01-04 19:58:51.42	328.84	9.17	-40.0	-41.3	20.6	0.00e+00	88	29	0	935329792	54	5918
2026-01-04 19:58:54.45	328.42	9.03	-39.9	-41.1	20.8	0.00e+00	0	29	0	940572672	52	6474
2026-01-04 19:58:57.47	327.99	8.88	-39.5	-40.7	21.0	0.00e+00	0	29	0	946864128	52	6200
2026-01-04 19:59:00.50	327.57	8.73	-39.5	-40.7	21.0	0.00e+00	85	29	0	952107008	52	6230
2026-01-04 19:59:03.53	327.15	8.58	-40.0	-41.3	20.6	0.00e+00	0	29	0	958398464	52	6638
2026-01-04 19:59:06.56	326.74	8.44	-39.9	-41.1	20.4	0.00e+00	0	29	0	963641344	52	6520
2026-01-04 19:59:09.59	326.33	8.29	-40.0	-41.2	20.5	0.00e+00	0	29	0	969932800	52	6591
2026-01-04 19:59:12.62	325.93	8.14	-39.7	-40.9	20.7	0.00e+00	0	29	0	975175680	52	6349
2026-01-04 19:59:15.65	325.53	7.99	-39.7	-40.9	20.8	0.00e+00	0	29	0	980418560	52	6376
2026-01-04 19:59:18.68	325.14	7.84	-39.6	-40.8	20.7	0.00e+00	0	29	0	986710016	52	6302
2026-01-04 19:59:21.71	324.74	7.69	-39.5	-40.8	20.9	0.00e+00	92	29	0	991952896	52	6256
2026-01-04 19:59:24.74	324.36	7.54	-39.0	-40.1	21.5	0.00e+00	0	29	0	998244352	52	5796
2026-01-04 19:59:27.76	323.98	7.38	-38.4	-39.5	22.0	0.00e+00	0	29	0	1003487232	50	6039
2026-01-04 19:59:30.79	323.60	7.23	-38.7	-39.8	21.8	0.00e+00	2	29	0	1008730112	50	6263
2026-01-04 19:59:33.81	323.22	7.08	-38.7	-39.8	21.7	0.00e+00	73	30	0	1015021568	50	6288
2026-01-04 19:59:36.85	322.85	6.93	-38.5	-39.6	21.7	0.00e+00	0	30	0	1020264448	50	6141
2026-01-04 19:59:39.87	322.49	6.78	-38.3	-39.4	22.0	0.00e+00	0	29	0	1026555904	50	5975
2026-01-04 19:59:42.90	322.12	6.62	-38.6	-39.7	21.5	0.00e+00	81	29	0	1031798784	50	6186
2026-01-04 19:59:45.93	321.76	6.47	-39.0	-40.1	21.4	0.00e+00	0	30	0	1038090240	50	6486
2026-01-04 19:59:48.96	321.41	6.32	-39.1	-40.3	21.1	0.00e+00	0	29	0	1043333120	50	6616
2026-01-04 19:59:51.99	321.06	6.17	-39.4	-40.6	20.9	0.00e+00	38	29	0	1048576000	50	6905
2026-01-04 19:59:55.02	320.71	6.01	-39.6	-40.8	20.7	0.00e+00	0	29	0	1054867456	50	7036
2026-01-04 19:59:58.05	320.36	5.86	-39.8	-41.1	20.7	0.00e+00	0	29	0	1060110336	52	6479
2026-01-04 20:00:01.08	320.02	5.71	-39.8	-41.1	20.5	0.00e+00	0	29	0	1066401792	52	6486
2026-01-04 20:00:04.11	319.69	5.55	-39.8	-41.0	20.3	0.00e+00	86	30	0	1071644672	52	6440
2026-01-04 20:00:07.14	319.36	5.40	-39.9	-41.2	20.4	0.00e+00	0	30	0	1076887552	52	6566
2026-01-04 20:00:10.16	319.03	5.25	-39.4	-40.6	20.4	0.00e+00	0	30	0	1083179008	52	6156
2026-01-04 20:00:13.19	318.70	5.09	-39.6	-40.7	21.1	0.00e+00	34	29	0	1088421888	52	6242
2026-01-04 20:00:16.23	318.38	4.94	-39.3	-40.4	21.1	0.00e+00	0	30	0	1094713344	52	6019
2026-01-04 20:00:19.25	318.06	4.79	-39.6	-40.9	20.7	0.00e+00	0	29	0	1099956224	52	6328
2026-01-04 20:00:22.28	317.74	4.63	-40.2	-41.5	20.1	0.00e+00	89	30	0	1106247680	52	6815
2026-01-04 20:00:25.31	317.43	4.48	-40.6	-42.0	19.7	0.00e+00	0	29	0	1111490560	54	6454
2026-01-04 20:00:28.34	317.12	4.33	-40.8	-42.3	19.6	0.00e+00	0	29	0	1116733440	54	6635
2026-01-04 20:00:31.37	316.82	4.17	-40.8	-42.3	19.4	0.00e+00	0	30	0	1123024896	54	6627
2026-01-04 20:00:34.40	316.52	4.02	-39.5	-40.7	20.8	0.00e+00	81	29	0	1128267776	52	6200
2026-01-04 20:00:37.42	316.22	3.87	-39.4	-40.6	21.0	0.00e+00	0	29	0	1134559232	52	6152
2026-01-04 20:00:40.45	315.92	3.71	-39.7	-41.0	20.5	0.00e+00	0	30	0	1139802112	52	6407
2026-01-04 20:00:43.48	315.63	3.56	-39.1	-40.2	21.0	0.00e+00	80	30	0	1145044992	52	5891
2026-01-04 20:00:46.50	315.34	3.41	-40.0	-41.3	20.1	0.00e+00	0	29	0	1151336448	52	6665
2026-01-04 20:00:49.53	315.06	3.26	-41.5	-43.1	18.4	0.00e+00	0	30	0	1156579328	54	7303
2026-01-04 20:00:52.55	314.77	3.11	-41.4	-43.0	18.6	0.00e+00	87	30	0	1162870784	56	6408
2026-01-04 20:00:55.57	314.49	2.95	-48.3	-63.4	3.6	1.51e+00	0	30	104	1166016512	60	53734
2026-01-04 20:00:58.61	314.22	2.80	-48.9	-64.1	3.6	1.51e+00	0	30	104	1166016512	60	57930
2026-01-04 20:01:01.63	313.94	2.65	-48.9	-64.0	3.5	1.51e+00	0	30	104	1166016512	60	57508
2026-01-04 20:01:04.66	313.67	2.50	-48.7	-63.9	3.6	1.51e+00	0	30	104	1166016512	60	56882
2026-01-04 20:01:07.69	313.40	2.35	-48.8	-64.0	3.6	1.51e+00	0	30	104	1166016512	60	57156
2026-01-04 20:01:10.72	313.14	2.20	-48.9	-64.1	3.6	1.51e+00	0	30	104	1166016512	60	57862
2026-01-04 20:01:13.75	312.87	2.05	-49.2	-64.4	3.6	1.51e+00	0	30	104	1166016512	60	60185
2026-01-04 20:01:16.77	312.62	1.90	-49.1	-64.3	3.6	1.51e+00	0	30	104	1166016512	60	59232
2026-01-04 20:01:19.80	312.36	1.75	-49.1	-64.3	3.6	1.51e+00	0	30	104	1166016512	60	59366
2026-01-04 20:01:22.83	312.10	1.60	-49.6	-64.8	3.6	1.51e+00	0	30	104	1166016512	60	62675
2026-01-04 20:01:25.86	311.85	1.45	-49.5	-64.6	3.6	1.51e+00	0	30	104	1166016512	60	61652
2026-01-04 20:01:28.89	311.60	1.30	-49.2	-64.4	3.6	1.51e+00	0	30	104	1166016512	60	60106
2026-01-04 20:01:31.92	311.36	1.15	-49.8	-65.0	3.6	1.51e+00	0	30	104	1166016512	60	64067
2026-01-04 20:01:34.94	311.11	1.00	-50.3	-65.5	3.6	1.51e+00	0	30	104	1166016512	60	68274
2026-01-04 20:01:37.96	310.87	0.85	-49.4	-64.5	3.6	1.51e+00	0	30	104	1166016512	60	60902
2026-01-04 20:01:40.99	310.63	0.71	-49.2	-64.4	3.6	1.51e+00	0	30	104	1166016512	60	59710
2026-01-04 20:01:44.02	310.40	0.56	-49.0	-64.1	3.6	1.51e+00	0	30	104	1166016512	60	58234
2026-01-04 20:01:47.05	310.16	0.41	-49.6	-64.7	3.6	1.51e+00	0	30	104	1166016512	60	62378
2026-01-04 20:01:50.08	309.93	0.26	-49.5	-64.7	3.5	1.51e+00	0	30	104	1166016512	60	61822
2026-01-04 20:01:53.11	309.70	0.12	-49.2	-64.4	3.6	1.51e+00	0	30	104	1166016512	60	59867

#Closed at: 2026-01-04 20:01:55
#Recorded file [1166 MB]: D:/lorett/data/35029_260105_074928.dat