passes_logs/2026/01/04/R4.6S_Anadyr/R4.6S_Anadyr__20260104_181608_AQUA_rec.log

#Pass ID: 20260104_181608_AQUA
#Satellite: AQUA
#Configuration: AQUA
#almurnet v.1.7.20251203
#Start time: 2026-01-04 18:16:10

#Version: 2.2.20231116
#Station: R4.6S_Anadyr
#Location: 177.4865 lon 64.73178 lat
#TLE: 1 27424U 02022A   25365.92641127  .00002078  00000+0  42628-3 0  9999
#TLE: 2 27424  98.4058 327.1196 0001962  94.7781 340.6230 14.61783896258835

#Time	Az	El	Level	Level2	SNR	BER	BlckErr	Temp	State	Recorded	gain1	gain2
2026-01-04 18:16:10.30	24.03	0.09	-49.8	-61.5	3.5	8.46e-01	0	29	0	0	60	43047
2026-01-04 18:16:13.33	23.86	0.26	-49.9	-67.6	3.5	3.04e+01	0	30	104	0	60	92780
2026-01-04 18:16:16.35	23.70	0.43	-49.5	-67.6	3.5	3.04e+01	0	30	104	0	60	92329
2026-01-04 18:16:19.38	23.53	0.61	-49.1	-66.9	3.5	3.04e+01	0	30	104	0	60	84934
2026-01-04 18:16:22.41	23.36	0.78	-48.0	-66.4	3.5	3.04e+01	0	30	104	0	60	80132
2026-01-04 18:16:25.44	23.18	0.96	-48.0	-65.8	3.5	3.04e+01	0	30	104	0	60	75182
2026-01-04 18:16:28.47	23.01	1.14	-47.7	-65.6	3.5	3.04e+01	0	30	104	0	60	73157
2026-01-04 18:16:31.50	22.83	1.31	-47.8	-65.6	3.5	3.04e+01	0	30	104	0	60	73467
2026-01-04 18:16:34.53	22.65	1.49	-47.7	-65.6	3.5	3.04e+01	0	30	104	0	60	73443
2026-01-04 18:16:37.56	22.46	1.67	-47.8	-65.7	3.5	3.04e+01	0	30	104	0	60	73844
2026-01-04 18:16:40.59	22.28	1.86	-47.7	-65.6	3.5	3.04e+01	0	30	104	0	60	73157
2026-01-04 18:16:43.61	22.09	2.04	-47.8	-65.5	3.5	3.04e+01	0	30	104	0	60	72890
2026-01-04 18:16:46.64	21.90	2.22	-47.8	-65.5	3.5	3.04e+01	0	30	104	0	60	72281
2026-01-04 18:16:49.67	21.70	2.40	-47.7	-65.5	3.5	3.04e+01	0	30	104	0	60	72637
2026-01-04 18:16:52.70	21.50	2.59	-47.8	-65.7	3.5	3.04e+01	0	30	104	0	60	73919
2026-01-04 18:16:55.72	21.30	2.78	-47.9	-65.7	3.5	3.04e+01	0	31	104	0	60	74427
2026-01-04 18:16:58.74	21.10	2.96	-47.6	-64.7	3.5	3.04e+01	0	31	104	0	60	66289
2026-01-04 18:17:01.77	20.90	3.15	-47.9	-65.6	3.5	3.04e+01	0	31	104	0	60	73682
2026-01-04 18:17:04.80	20.69	3.34	-46.4	-60.2	3.5	3.04e+01	0	31	104	0	60	39485
2026-01-04 18:17:07.83	20.47	3.53	-46.3	-60.1	3.6	3.04e+01	0	31	104	0	60	38914
2026-01-04 18:17:10.86	20.26	3.72	-47.8	-65.4	3.5	3.04e+01	0	31	104	0	60	71424
2026-01-04 18:17:13.89	20.04	3.92	-39.5	-50.1	3.5	3.04e+01	0	31	104	0	54	17334
2026-01-04 18:17:16.92	19.82	4.11	-39.1	-49.5	3.5	3.04e+01	0	31	104	0	52	18283
2026-01-04 18:17:19.95	19.59	4.31	-48.0	-65.7	3.5	3.04e+01	0	31	104	0	60	74049
2026-01-04 18:17:22.97	19.36	4.50	-40.8	-51.6	3.5	3.04e+01	0	31	104	0	56	18355
2026-01-04 18:17:26.00	19.13	4.70	-40.2	-50.9	3.5	3.04e+01	0	31	104	0	54	18981
2026-01-04 18:17:29.03	18.89	4.90	-48.0	-65.7	3.5	3.04e+01	0	31	104	0	60	73849
2026-01-04 18:17:32.05	18.65	5.10	-40.5	-51.2	3.5	3.04e+01	0	31	104	0	58	15718
2026-01-04 18:17:35.08	18.41	5.30	-41.1	-51.9	3.5	3.04e+01	0	31	104	0	56	19113
2026-01-04 18:17:38.11	18.16	5.50	-47.2	-62.0	3.5	3.04e+01	0	31	104	0	60	48526
2026-01-04 18:17:41.14	17.91	5.71	-44.5	-56.4	3.5	3.04e+01	0	31	104	0	60	25309
2026-01-04 18:17:44.17	17.65	5.91	-42.2	-53.2	3.5	3.04e+01	0	31	104	0	56	22126
2026-01-04 18:17:47.20	17.39	6.12	-47.3	-62.2	3.5	3.04e+01	0	31	104	0	60	49656
2026-01-04 18:17:50.23	17.13	6.32	-36.9	-47.2	3.5	3.04e+01	0	31	104	0	48	17652
2026-01-04 18:17:53.25	16.86	6.53	-37.5	-47.8	3.5	3.04e+01	0	31	104	0	48	18849
2026-01-04 18:17:56.28	16.59	6.74	-48.2	-65.6	3.5	3.04e+01	0	31	104	0	60	73031
2026-01-04 18:17:59.31	16.31	6.95	-40.2	-50.7	3.5	3.04e+01	0	31	104	0	56	16654
2026-01-04 18:18:02.33	16.03	7.17	-40.0	-50.6	3.5	3.04e+01	0	31	104	0	54	18318
2026-01-04 18:18:05.36	15.74	7.38	-44.3	-56.0	3.5	3.04e+01	0	31	104	0	60	24415
2026-01-04 18:18:08.39	15.45	7.60	-40.6	-51.2	3.5	3.04e+01	0	31	104	0	54	19656
2026-01-04 18:18:11.42	15.15	7.81	-41.4	-52.2	3.5	3.04e+01	0	31	104	0	54	22273
2026-01-04 18:18:14.44	14.85	8.03	-48.3	-66.0	3.6	3.04e+01	0	31	104	0	60	76380
2026-01-04 18:18:17.47	14.55	8.25	-36.8	-47.1	3.5	3.04e+01	0	31	104	0	48	17436
2026-01-04 18:18:20.49	14.23	8.47	-37.3	-47.6	3.6	3.04e+01	0	31	104	0	48	18327
2026-01-04 18:18:23.52	13.92	8.69	-46.7	-60.1	3.6	3.04e+01	0	31	104	0	60	39090
2026-01-04 18:18:26.55	13.59	8.92	-40.3	-50.9	3.5	3.04e+01	0	31	104	0	54	19175
2026-01-04 18:18:29.58	13.27	9.14	-37.0	-47.3	3.6	3.04e+01	0	31	104	0	50	15836
2026-01-04 18:18:32.61	12.93	9.37	-42.3	-53.3	3.5	3.04e+01	0	31	104	0	60	17774
2026-01-04 18:18:35.64	12.59	9.60	-45.8	-58.3	3.5	3.04e+01	0	31	104	0	60	31468
2026-01-04 18:18:38.66	12.25	9.82	-48.3	-66.2	3.5	3.04e+01	0	31	104	0	60	78672
2026-01-04 18:18:41.69	11.89	10.05	-36.2	-46.5	3.5	3.04e+01	0	31	104	0	48	16245
2026-01-04 18:18:44.72	11.53	10.29	-36.4	-46.7	3.6	3.04e+01	0	31	104	0	48	16607
2026-01-04 18:18:47.75	11.17	10.52	-45.7	-58.1	3.5	3.04e+01	0	31	104	0	60	31047
2026-01-04 18:18:50.78	10.80	10.76	-43.6	-54.9	3.5	3.04e+01	0	31	104	0	60	21471
2026-01-04 18:18:53.80	10.42	10.99	-39.7	-50.2	3.5	3.04e+01	0	31	104	0	54	17692
2026-01-04 18:18:56.83	10.04	11.23	-36.5	-46.8	3.5	3.04e+01	0	31	104	0	48	16741
2026-01-04 18:18:59.86	9.64	11.47	-40.9	-51.7	3.5	3.04e+01	0	31	104	0	56	18605
2026-01-04 18:19:02.89	9.24	11.71	-37.6	-47.8	3.5	3.04e+01	0	31	104	0	48	18951
2026-01-04 18:19:05.92	8.84	11.95	-47.9	-63.5	3.5	3.04e+01	0	31	104	0	60	57548
2026-01-04 18:19:08.94	8.43	12.19	-40.0	-50.4	3.5	3.04e+01	0	31	104	0	52	20307
2026-01-04 18:19:11.97	8.00	12.43	-36.9	-47.1	3.5	3.04e+01	0	31	104	0	50	15515
2026-01-04 18:19:15.00	7.57	12.68	-45.5	-57.8	3.5	3.04e+01	0	31	104	0	60	29994
2026-01-04 18:19:18.03	7.14	12.93	-44.4	-56.1	3.5	3.04e+01	0	31	104	0	60	24444
2026-01-04 18:19:21.06	6.69	13.17	-40.4	-51.0	3.6	3.04e+01	0	31	104	0	56	17118
2026-01-04 18:19:24.09	6.24	13.42	-37.8	-48.1	3.5	3.04e+01	0	31	104	0	50	17400
2026-01-04 18:19:27.12	5.78	13.67	-40.3	-50.9	3.6	3.04e+01	0	31	104	0	58	15098
2026-01-04 18:19:30.15	5.31	13.92	-39.1	-40.9	22.7	3.04e+01	59	31	104	0	54	6011
2026-01-04 18:19:33.17	4.83	14.18	-38.3	-39.7	27.0	3.04e+01	61	31	0	5242880	50	6596
2026-01-04 18:19:36.20	4.34	14.43	-39.6	-41.2	24.7	3.04e+01	59	31	0	10485760	54	6223
2026-01-04 18:19:39.23	3.84	14.68	-36.8	-38.1	28.5	3.04e+01	61	31	0	16252928	46	6947
2026-01-04 18:19:42.25	3.34	14.94	-37.1	-38.4	26.9	3.04e+01	61	31	0	22020096	50	5673
2026-01-04 18:19:45.28	2.82	15.19	-37.1	-38.4	27.2	3.04e+01	56	31	0	27787264	48	6362
2026-01-04 18:19:48.31	2.29	15.45	-36.3	-37.5	27.7	3.04e+01	59	31	0	33554432	48	5780
2026-01-04 18:19:51.34	1.76	15.70	-37.2	-38.5	27.3	3.04e+01	60	31	0	39321600	48	6450
2026-01-04 18:19:54.36	1.21	15.96	-38.7	-40.1	26.6	3.04e+01	59	31	0	44564480	50	6955
2026-01-04 18:19:57.39	0.66	16.22	-38.1	-39.5	26.3	3.04e+01	56	31	0	50331648	50	6454
2026-01-04 18:20:00.42	0.09	16.48	-37.2	-38.6	26.2	3.04e+01	56	31	0	56098816	48	6513
2026-01-04 18:20:03.44	359.51	16.73	-37.5	-38.8	27.6	3.04e+01	52	31	0	61865984	48	6706
2026-01-04 18:20:06.47	358.93	16.99	-35.7	-37.0	28.5	3.04e+01	52	31	0	67633152	46	6074
2026-01-04 18:20:09.50	358.33	17.25	-36.7	-38.0	28.4	3.04e+01	57	31	0	72876032	46	6857
2026-01-04 18:20:12.53	357.72	17.51	-35.7	-36.9	28.5	3.04e+01	60	31	0	78643200	46	6057
2026-01-04 18:20:15.56	357.09	17.76	-35.4	-36.6	28.8	3.04e+01	60	31	0	84410368	46	5802
2026-01-04 18:20:18.59	356.46	18.02	-35.3	-36.5	29.1	3.04e+01	57	31	0	90177536	46	5779
2026-01-04 18:20:21.61	355.82	18.28	-35.0	-36.2	29.3	3.04e+01	56	31	0	95944704	46	5560
2026-01-04 18:20:24.64	355.16	18.53	-36.2	-37.5	28.6	3.04e+01	59	31	0	101711872	46	6424
2026-01-04 18:20:27.67	354.49	18.79	-35.4	-36.6	29.1	3.04e+01	52	31	0	107479040	46	5808
2026-01-04 18:20:30.69	353.81	19.04	-35.1	-36.3	29.2	3.04e+01	46	31	0	112721920	46	5649
2026-01-04 18:20:33.72	353.12	19.29	-35.4	-36.6	29.0	3.04e+01	54	31	0	118489088	46	5817
2026-01-04 18:20:36.75	352.42	19.55	-35.1	-36.3	29.1	3.04e+01	57	31	0	124256256	44	6341
2026-01-04 18:20:39.78	351.70	19.80	-35.4	-36.6	28.9	3.04e+01	58	31	0	130023424	44	6542
2026-01-04 18:20:42.81	350.97	20.04	-36.0	-37.2	28.4	3.04e+01	60	31	0	135790592	46	6255
2026-01-04 18:20:45.83	350.23	20.29	-36.1	-37.4	28.5	3.04e+01	58	31	0	141033472	48	5669
2026-01-04 18:20:48.86	349.47	20.53	-36.0	-37.3	28.7	3.04e+01	46	31	0	146800640	46	6304
2026-01-04 18:20:51.88	348.71	20.77	-36.0	-37.2	28.4	3.04e+01	46	31	0	152567808	48	5583
2026-01-04 18:20:54.91	347.92	21.01	-37.6	-38.9	27.3	3.04e+01	57	31	0	158334976	48	6773
2026-01-04 18:20:57.94	347.13	21.24	-36.2	-37.5	28.3	3.04e+01	58	31	0	164102144	46	6454
2026-01-04 18:21:00.96	346.33	21.47	-36.0	-37.2	28.3	3.04e+01	59	31	0	169345024	46	6239
2026-01-04 18:21:03.99	345.51	21.70	-36.6	-37.8	28.2	3.04e+01	60	31	0	175112192	46	6713
2026-01-04 18:21:07.01	344.68	21.92	-35.6	-36.8	28.7	3.04e+01	56	31	0	180879360	46	5984
2026-01-04 18:21:10.04	343.83	22.14	-36.5	-37.7	28.4	3.04e+01	61	31	0	186646528	48	5905
2026-01-04 18:21:13.07	342.97	22.36	-36.9	-38.2	27.7	3.04e+01	52	31	0	192413696	48	6242
2026-01-04 18:21:16.10	342.10	22.57	-36.9	-38.2	28.3	3.04e+01	44	31	0	198180864	48	6249
2026-01-04 18:21:19.12	341.22	22.77	-35.9	-37.1	28.6	3.04e+01	61	31	0	203948032	46	6152
2026-01-04 18:21:22.15	340.33	22.97	-35.4	-36.7	29.1	3.04e+01	60	31	0	209190912	46	5862
2026-01-04 18:21:25.18	339.42	23.17	-35.9	-37.1	28.7	3.04e+01	52	31	0	214958080	46	6186
2026-01-04 18:21:28.21	338.50	23.36	-35.4	-36.7	28.9	3.04e+01	50	31	0	220725248	46	5859
2026-01-04 18:21:31.23	337.57	23.54	-35.8	-37.0	28.7	3.04e+01	55	31	0	226492416	46	6078
2026-01-04 18:21:34.26	336.63	23.71	-36.3	-37.5	28.9	3.04e+01	57	31	0	232259584	46	6438
2026-01-04 18:21:37.28	335.68	23.88	-36.2	-37.4	28.1	3.04e+01	46	31	0	237502464	46	6417
2026-01-04 18:21:40.30	334.72	24.04	-35.9	-37.1	28.7	3.04e+01	58	31	0	243269632	48	5485
2026-01-04 18:21:43.33	333.75	24.20	-36.2	-37.4	28.6	3.04e+01	62	31	0	249036800	46	6398
2026-01-04 18:21:46.36	332.77	24.34	-36.4	-37.7	28.6	3.04e+01	58	31	0	254803968	46	6608
2026-01-04 18:21:49.39	331.77	24.48	-36.6	-37.8	28.4	3.04e+01	57	31	0	260571136	48	5966
2026-01-04 18:21:52.42	330.77	24.61	-37.2	-38.5	27.8	3.04e+01	63	31	0	266338304	48	6469
2026-01-04 18:21:55.45	329.76	24.73	-37.1	-38.4	27.6	3.04e+01	51	31	0	271581184	48	6362
2026-01-04 18:21:58.47	328.75	24.84	-36.9	-38.1	28.3	3.04e+01	47	31	0	277348352	48	6193
2026-01-04 18:22:01.50	327.72	24.94	-37.2	-38.5	28.4	3.04e+01	58	31	0	283115520	48	6460
2026-01-04 18:22:04.53	326.69	25.04	-37.3	-38.5	28.2	3.04e+01	59	31	0	288882688	48	6471
2026-01-04 18:22:07.55	325.65	25.12	-36.4	-37.6	28.7	3.04e+01	57	31	0	294649856	48	5849
2026-01-04 18:22:10.58	324.61	25.20	-36.6	-37.8	29.3	3.04e+01	61	31	0	300417024	46	6710
2026-01-04 18:22:13.61	323.56	25.26	-36.4	-37.7	28.9	3.04e+01	58	31	0	305659904	46	6588
2026-01-04 18:22:16.64	322.51	25.31	-36.3	-37.6	28.4	3.04e+01	59	31	0	311427072	46	6515
2026-01-04 18:22:19.67	321.45	25.36	-36.7	-37.9	28.7	3.04e+01	46	31	0	317194240	48	6045
2026-01-04 18:22:22.70	320.39	25.39	-36.1	-37.3	29.0	3.04e+01	45	31	0	322961408	46	6309
2026-01-04 18:22:25.73	319.33	25.42	-36.9	-38.2	28.5	3.04e+01	57	31	0	328728576	48	6227
2026-01-04 18:22:28.75	318.27	25.43	-37.4	-38.7	29.0	3.04e+01	60	31	0	333971456	48	6579
2026-01-04 18:22:31.78	317.21	25.43	-36.5	-37.8	29.1	3.04e+01	62	31	0	339738624	48	5938
2026-01-04 18:22:34.81	316.14	25.42	-37.3	-38.6	28.5	3.04e+01	60	31	0	345505792	48	6513
2026-01-04 18:22:37.83	315.08	25.41	-36.5	-37.7	28.6	3.04e+01	57	31	0	351272960	48	5878
2026-01-04 18:22:40.87	314.02	25.38	-37.4	-38.6	28.5	3.04e+01	53	31	0	357040128	50	5812
2026-01-04 18:22:43.90	312.96	25.34	-37.3	-38.6	28.4	3.04e+01	45	31	0	362807296	48	6500
2026-01-04 18:22:46.92	311.91	25.29	-37.5	-38.8	28.6	3.04e+01	62	31	0	368574464	50	5965
2026-01-04 18:22:49.95	310.86	25.23	-36.9	-38.1	28.6	3.04e+01	59	31	0	373817344	48	6200
2026-01-04 18:22:52.98	309.81	25.16	-37.0	-38.3	27.6	3.04e+01	62	31	0	379584512	48	6282
2026-01-04 18:22:56.01	308.77	25.08	-37.4	-38.6	28.4	3.04e+01	60	31	0	385351680	48	6527
2026-01-04 18:22:59.03	307.73	25.00	-37.6	-38.8	27.9	3.04e+01	59	31	0	391118848	50	5986
2026-01-04 18:23:02.06	306.70	24.90	-36.7	-37.9	28.7	3.04e+01	61	31	0	396886016	48	6050
2026-01-04 18:23:05.09	305.68	24.79	-35.9	-37.0	29.5	3.04e+01	49	31	0	402128896	48	5446
2026-01-04 18:23:08.11	304.67	24.67	-36.6	-37.9	28.8	3.04e+01	44	31	0	407896064	48	5995
2026-01-04 18:23:11.14	303.66	24.55	-37.5	-38.9	27.7	3.04e+01	57	31	0	413663232	50	6033
2026-01-04 18:23:14.17	302.66	24.42	-36.9	-38.2	28.4	3.04e+01	59	31	0	419430400	48	6208
2026-01-04 18:23:17.20	301.67	24.27	-35.5	-36.7	29.3	3.04e+01	60	31	0	425197568	46	5877
2026-01-04 18:23:20.22	300.69	24.13	-36.6	-37.9	28.4	3.04e+01	60	31	0	430964736	46	6730
2026-01-04 18:23:23.25	299.72	23.97	-37.5	-38.7	28.2	3.04e+01	59	31	0	436207616	50	5916
2026-01-04 18:23:26.28	298.76	23.80	-37.3	-38.5	28.6	3.04e+01	51	31	0	441974784	48	6490
2026-01-04 18:23:29.30	297.82	23.63	-37.4	-38.8	27.3	3.04e+01	46	31	0	447741952	48	6719
2026-01-04 18:23:32.33	296.88	23.45	-38.2	-39.5	25.4	3.04e+01	58	31	0	453509120	48	7287
2026-01-04 18:23:35.36	295.95	23.27	-36.2	-37.4	28.9	3.04e+01	58	31	0	459276288	48	5699
2026-01-04 18:23:38.39	295.03	23.08	-36.6	-37.8	27.7	3.04e+01	60	31	0	465043456	50	5332
2026-01-04 18:23:41.42	294.13	22.88	-37.2	-38.6	27.6	3.04e+01	60	31	0	470286336	48	6512
2026-01-04 18:23:44.44	293.24	22.68	-36.5	-37.7	29.0	3.04e+01	57	31	0	476053504	48	5912
2026-01-04 18:23:47.47	292.36	22.47	-36.8	-38.1	28.2	3.04e+01	46	31	0	481820672	48	6190
2026-01-04 18:23:50.50	291.50	22.25	-36.0	-37.2	28.7	3.04e+01	46	31	0	487587840	46	6266
2026-01-04 18:23:53.52	290.64	22.04	-37.3	-38.6	27.8	3.04e+01	62	31	0	493355008	48	6549
2026-01-04 18:23:56.56	289.80	21.81	-36.6	-37.8	28.6	3.04e+01	58	31	0	498597888	48	5987
2026-01-04 18:23:59.58	288.97	21.59	-36.3	-37.5	28.8	3.04e+01	60	31	0	504365056	48	5790
2026-01-04 18:24:02.62	288.15	21.36	-36.3	-37.5	28.5	3.04e+01	59	31	0	510132224	46	6474
2026-01-04 18:24:05.64	287.35	21.13	-36.3	-37.5	28.8	3.04e+01	58	31	0	515899392	46	6462
2026-01-04 18:24:08.67	286.56	20.89	-35.8	-37.0	29.3	3.04e+01	58	31	0	521666560	46	6107
2026-01-04 18:24:11.70	285.79	20.65	-35.9	-37.1	29.2	3.04e+01	50	31	0	527433728	46	6141
2026-01-04 18:24:14.73	285.02	20.41	-35.9	-37.1	29.0	3.04e+01	49	31	0	533200896	46	6194
2026-01-04 18:24:17.75	284.27	20.16	-36.2	-37.4	28.6	3.04e+01	58	31	0	538443776	46	6375
2026-01-04 18:24:20.78	283.53	19.91	-36.4	-37.7	28.6	3.04e+01	62	31	0	544210944	46	6581
2026-01-04 18:24:23.81	282.81	19.66	-36.3	-37.5	28.6	3.04e+01	59	31	0	549978112	48	5761
2026-01-04 18:24:26.84	282.09	19.41	-36.3	-37.5	28.7	3.04e+01	58	31	0	555745280	48	5783
2026-01-04 18:24:29.87	281.39	19.16	-36.7	-37.9	28.9	3.04e+01	60	31	0	561512448	48	6027
2026-01-04 18:24:32.90	280.70	18.91	-36.2	-37.4	29.1	3.04e+01	44	31	0	566755328	48	5691
2026-01-04 18:24:35.93	280.02	18.65	-36.4	-37.6	28.7	3.04e+01	46	31	0	572522496	46	6547
2026-01-04 18:24:38.95	279.36	18.40	-35.7	-36.9	29.0	3.04e+01	58	31	0	578289664	46	6058
2026-01-04 18:24:41.98	278.71	18.14	-36.3	-37.6	28.8	3.04e+01	59	31	0	584056832	46	6534
2026-01-04 18:24:45.01	278.06	17.88	-36.0	-37.3	29.0	3.04e+01	57	31	0	589824000	46	6294
2026-01-04 18:24:48.04	277.43	17.62	-36.2	-37.4	28.5	3.04e+01	59	31	0	595591168	46	6386
2026-01-04 18:24:51.06	276.82	17.36	-36.7	-38.0	28.3	3.04e+01	55	31	0	601358336	48	6087
2026-01-04 18:24:54.09	276.21	17.11	-36.2	-37.4	29.0	3.04e+01	57	31	0	606601216	46	6412
2026-01-04 18:24:57.13	275.61	16.85	-36.5	-37.8	28.4	3.04e+01	51	31	0	612368384	48	5942
2026-01-04 18:25:00.15	275.03	16.59	-35.9	-37.2	29.2	3.04e+01	52	31	0	618135552	46	6211
2026-01-04 18:25:03.18	274.45	16.33	-37.0	-38.3	28.1	3.04e+01	59	31	0	623902720	46	7088
2026-01-04 18:25:06.21	273.89	16.07	-35.9	-37.1	28.9	3.04e+01	60	31	0	629669888	46	6200
2026-01-04 18:25:09.23	273.34	15.81	-36.3	-37.5	28.3	3.04e+01	56	31	0	634912768	46	6469
2026-01-04 18:25:12.26	272.79	15.55	-36.2	-37.5	28.6	3.04e+01	56	31	0	640679936	46	6432
2026-01-04 18:25:15.29	272.26	15.30	-36.6	-37.9	28.4	3.04e+01	62	31	0	646447104	46	6737
2026-01-04 18:25:18.31	271.74	15.04	-36.4	-37.6	28.5	3.04e+01	57	31	0	652214272	46	6563
2026-01-04 18:25:21.34	271.22	14.79	-36.5	-37.8	28.4	3.04e+01	51	31	0	657981440	46	6668
2026-01-04 18:25:24.37	270.72	14.53	-36.2	-37.4	28.6	3.04e+01	56	31	0	663748608	48	5717
2026-01-04 18:25:27.40	270.22	14.28	-36.6	-37.8	28.4	3.04e+01	63	31	0	668991488	48	5965
2026-01-04 18:25:30.43	269.73	14.02	-36.3	-37.5	28.5	3.04e+01	54	31	0	674758656	48	5786
2026-01-04 18:25:33.45	269.26	13.77	-36.6	-37.8	28.3	3.04e+01	60	31	0	680525824	48	5979
2026-01-04 18:25:36.48	268.79	13.52	-36.4	-37.6	28.5	3.04e+01	58	31	0	686292992	48	5827
2026-01-04 18:25:39.51	268.33	13.27	-36.3	-37.6	28.5	3.04e+01	45	31	0	692060160	48	5816
2026-01-04 18:25:42.54	267.88	13.02	-36.5	-37.8	28.4	3.04e+01	44	31	0	697827328	48	5931
2026-01-04 18:25:45.57	267.43	12.77	-36.6	-37.9	28.3	3.04e+01	61	31	0	703070208	48	6017
2026-01-04 18:25:48.60	267.00	12.53	-36.6	-37.8	28.4	3.04e+01	60	31	0	708837376	48	5975
2026-01-04 18:25:51.63	266.57	12.28	-36.8	-38.1	28.0	3.04e+01	58	31	0	714604544	48	6145
2026-01-04 18:25:54.65	266.15	12.04	-36.5	-37.8	28.2	3.04e+01	58	31	0	720371712	48	5944
2026-01-04 18:25:57.68	265.74	11.79	-36.5	-37.7	28.2	3.04e+01	61	31	0	726138880	48	5925
2026-01-04 18:26:00.71	265.33	11.55	-36.8	-38.1	27.9	3.04e+01	58	31	0	731381760	48	6168
2026-01-04 18:26:03.74	264.94	11.31	-36.8	-38.2	27.7	3.04e+01	47	31	0	737148928	48	6206
2026-01-04 18:26:06.76	264.55	11.07	-36.4	-37.7	28.0	3.04e+01	48	31	0	742916096	48	5874
2026-01-04 18:26:09.79	264.16	10.84	-36.6	-37.8	28.1	3.04e+01	63	31	0	748683264	48	5988
2026-01-04 18:26:12.82	263.79	10.60	-36.9	-38.2	27.9	3.04e+01	62	31	0	754450432	48	6220
2026-01-04 18:26:15.85	263.41	10.37	-36.7	-38.0	27.8	3.04e+01	59	31	0	760217600	48	6100
2026-01-04 18:26:18.88	263.05	10.13	-36.8	-38.1	27.9	3.04e+01	59	31	0	765984768	48	6148
2026-01-04 18:26:21.90	262.69	9.90	-37.2	-38.5	27.6	3.04e+01	56	31	0	771227648	48	6435
2026-01-04 18:26:24.94	262.34	9.67	-37.0	-38.3	27.5	3.04e+01	63	31	0	776994816	48	6333
2026-01-04 18:26:27.96	262.00	9.44	-37.1	-38.4	27.4	3.04e+01	44	31	0	782761984	48	6420
2026-01-04 18:26:30.98	261.66	9.21	-36.9	-38.2	27.4	3.04e+01	61	31	0	788529152	48	6265
2026-01-04 18:26:34.01	261.33	8.99	-37.0	-38.3	27.5	3.04e+01	62	31	0	794296320	48	6329
2026-01-04 18:26:37.03	261.00	8.76	-36.7	-38.0	27.5	3.04e+01	58	31	0	799539200	48	6129
2026-01-04 18:26:40.06	260.68	8.54	-36.9	-38.3	27.3	3.04e+01	59	31	0	805306368	48	6279
2026-01-04 18:26:43.09	260.36	8.32	-37.0	-38.3	27.1	3.04e+01	59	31	0	811073536	48	6327
2026-01-04 18:26:46.12	260.05	8.10	-37.0	-38.3	27.3	3.04e+01	47	31	0	816840704	48	6290
2026-01-04 18:26:49.14	259.74	7.88	-37.2	-38.5	27.2	3.04e+01	51	31	0	822607872	48	6497
2026-01-04 18:26:52.16	259.44	7.66	-37.6	-39.0	26.7	3.04e+01	58	31	0	828375040	48	6828
2026-01-04 18:26:55.19	259.14	7.44	-37.9	-39.2	26.9	3.04e+01	57	31	0	833617920	50	6272
2026-01-04 18:26:58.21	258.85	7.23	-37.7	-39.1	26.7	3.04e+01	59	31	0	839385088	50	6147
2026-01-04 18:27:01.23	258.57	7.01	-37.5	-38.9	26.8	3.04e+01	55	31	0	845152256	50	6043
2026-01-04 18:27:04.25	258.29	6.80	-37.9	-39.3	26.3	3.04e+01	58	31	0	850919424	50	6322
2026-01-04 18:27:07.28	258.01	6.59	-38.2	-39.6	26.3	3.04e+01	57	31	0	856686592	50	6540
2026-01-04 18:27:10.30	257.74	6.38	-37.7	-39.2	26.4	3.04e+01	59	31	0	861929472	50	6211
2026-01-04 18:27:13.33	257.47	6.17	-37.9	-39.2	26.5	3.04e+01	46	31	0	867696640	50	6270
2026-01-04 18:27:16.36	257.20	5.97	-38.0	-39.4	26.3	3.04e+01	62	31	0	873463808	50	6384
2026-01-04 18:27:19.38	256.94	5.76	-38.6	-40.1	25.6	3.04e+01	60	31	0	879230976	52	6141
2026-01-04 18:27:22.41	256.69	5.55	-38.6	-40.1	25.5	3.04e+01	58	31	0	884998144	52	6169
2026-01-04 18:27:25.44	256.43	5.35	-39.3	-40.8	25.0	3.04e+01	59	31	0	890765312	52	6719
2026-01-04 18:27:28.46	256.19	5.15	-39.3	-40.8	24.8	3.04e+01	56	31	0	896008192	52	6726
2026-01-04 18:27:31.50	255.94	4.95	-39.3	-40.9	23.9	3.04e+01	53	31	0	901775360	54	6021
2026-01-04 18:27:34.52	255.70	4.75	-39.2	-40.8	24.7	3.04e+01	47	31	0	907542528	54	5964
2026-01-04 18:27:37.55	255.47	4.55	-38.3	-39.8	25.5	3.04e+01	61	31	0	913309696	52	5992
2026-01-04 18:27:40.58	255.23	4.35	-38.4	-39.9	25.5	3.04e+01	58	31	0	919076864	52	6021
2026-01-04 18:27:43.60	255.00	4.16	-38.0	-39.4	25.7	3.04e+01	58	31	0	924319744	52	5707
2026-01-04 18:27:46.63	254.78	3.96	-38.5	-40.0	25.3	3.04e+01	56	31	0	930086912	52	6128
2026-01-04 18:27:49.65	254.55	3.77	-39.3	-40.8	24.8	3.04e+01	57	30	0	935854080	52	6725
2026-01-04 18:27:52.68	254.33	3.58	-38.6	-40.1	25.4	3.04e+01	57	31	0	941621248	52	6203
2026-01-04 18:27:55.70	254.12	3.38	-38.7	-40.2	25.0	3.04e+01	52	31	0	947388416	52	6250
2026-01-04 18:27:58.72	253.91	3.19	-38.8	-40.4	25.0	3.04e+01	45	31	0	953155584	52	6378
2026-01-04 18:28:01.75	253.70	3.00	-48.3	-65.9	3.5	3.04e+01	0	31	104	957874176	60	75639
2026-01-04 18:28:04.78	253.49	2.82	-49.2	-67.1	3.5	3.04e+01	0	31	104	957874176	60	86903
2026-01-04 18:28:07.81	253.28	2.63	-49.3	-67.2	3.5	3.04e+01	0	31	104	957874176	60	87822
2026-01-04 18:28:10.84	253.08	2.44	-49.2	-67.1	3.5	3.04e+01	0	31	104	957874176	60	86726
2026-01-04 18:28:13.87	252.88	2.26	-49.5	-67.5	3.5	3.04e+01	0	31	104	957874176	60	91784
2026-01-04 18:28:16.90	252.69	2.07	-49.6	-67.6	3.5	3.04e+01	0	31	104	957874176	60	92140
2026-01-04 18:28:19.93	252.50	1.89	-49.4	-67.3	3.5	3.04e+01	0	31	104	957874176	60	89609
2026-01-04 18:28:22.96	252.31	1.71	-49.8	-67.7	3.5	3.04e+01	0	31	104	957874176	60	93494
2026-01-04 18:28:25.99	252.12	1.53	-49.6	-67.5	3.5	3.04e+01	0	31	104	957874176	60	91723
2026-01-04 18:28:29.02	251.93	1.35	-49.7	-67.6	3.5	3.04e+01	0	31	104	957874176	60	92466
2026-01-04 18:28:32.05	251.75	1.17	-50.3	-68.3	3.5	3.04e+01	0	31	104	957874176	60	99625
2026-01-04 18:28:35.07	251.57	0.99	-50.3	-68.2	3.5	3.04e+01	0	31	104	957874176	60	98425
2026-01-04 18:28:38.10	251.40	0.81	-50.3	-68.3	3.5	3.04e+01	0	31	104	957874176	60	99585
2026-01-04 18:28:41.13	251.22	0.64	-50.2	-68.1	3.5	3.04e+01	0	31	104	957874176	60	98299
2026-01-04 18:28:44.16	251.05	0.46	-50.4	-68.4	3.5	3.04e+01	0	31	104	957874176	60	100670
2026-01-04 18:28:47.19	250.88	0.29	-50.0	-68.0	3.5	3.04e+01	0	31	104	957874176	60	96179
2026-01-04 18:28:50.22	250.71	0.11	-50.0	-67.8	3.5	3.04e+01	0	31	104	957874176	60	94972

#Closed at: 2026-01-04 18:28:52
#Recorded file [957 MB]: D:/lorett/data/35029_260105_061610.dat