passes_logs/2026/01/04/R4.6S_Anadyr/R4.6S_Anadyr__20260104_020537_FENGYUN_3D_rec.log

#Pass ID: 20260104_020537_FENGYUN 3D
#Satellite: FENGYUN 3D
#Configuration: FENGYUN 3D
#almurnet v.1.7.20251203
#Start time: 2026-01-04 02:05:40

#Version: 2.2.20231116
#Station: R4.6S_Anadyr
#Location: 177.4865 lon 64.73178 lat
#TLE: 1 43010U 17072A   26003.51579816  .00000092  00000+0  65324-4 0  9992
#TLE: 2 43010  98.9912 335.1548 0001916 128.4619 231.6729 14.19692074421623

#Time	Az	El	Level	Level2	SNR	BER	BlckErr	Temp	State	Recorded	gain1	gain2
2026-01-04 02:05:40.15	152.55	0.18	-52.0	-62.7	3.3	8.39e-01	0	38	0	0	60	49598
2026-01-04 02:05:44.18	152.55	0.43	-50.9	-63.1	3.6	8.45e-01	0	38	104	0	60	51423
2026-01-04 02:05:48.22	152.55	0.67	-50.3	-62.4	3.6	8.46e-01	0	38	104	0	60	47547
2026-01-04 02:05:52.25	152.55	0.92	-49.0	-61.1	3.6	8.45e-01	0	39	104	0	60	40970
2026-01-04 02:05:56.30	152.55	1.17	-49.6	-61.7	3.6	8.45e-01	0	39	104	0	60	44018
2026-01-04 02:06:00.34	152.55	1.43	-49.2	-61.1	3.6	8.43e-01	0	39	104	0	60	41183
2026-01-04 02:06:04.38	152.54	1.68	-48.6	-60.4	3.6	8.45e-01	0	39	104	0	60	38064
2026-01-04 02:06:08.41	152.54	1.94	-48.9	-60.9	3.6	8.46e-01	0	39	104	0	60	39879
2026-01-04 02:06:12.45	152.54	2.20	-48.8	-60.8	3.6	8.44e-01	0	39	104	0	60	39702
2026-01-04 02:06:16.49	152.54	2.46	-48.8	-60.6	3.6	8.46e-01	0	39	104	0	60	38580
2026-01-04 02:06:20.52	152.54	2.73	-48.9	-60.7	3.6	8.44e-01	0	39	104	0	60	39174
2026-01-04 02:06:24.56	152.53	3.00	-48.2	-56.1	4.6	8.31e-01	0	39	104	0	60	23090
2026-01-04 02:06:28.60	152.53	3.27	-44.0	-45.8	14.0	0.00e+00	0	39	0	19922944	58	7952
2026-01-04 02:06:32.64	152.53	3.54	-41.8	-43.2	16.9	0.00e+00	0	39	0	42991616	56	6555
2026-01-04 02:06:36.68	152.52	3.82	-48.4	-56.2	4.7	8.45e-01	0	39	104	58720256	60	23410
2026-01-04 02:06:40.72	152.52	4.09	-42.2	-43.6	6.0	8.30e-01	0	39	104	62914560	60	5500
2026-01-04 02:06:44.76	152.51	4.38	-38.9	-39.9	20.0	0.00e+00	0	39	0	79691776	50	6318
2026-01-04 02:06:48.79	152.51	4.66	-38.1	-39.0	20.9	0.00e+00	0	39	0	101711872	50	5747
2026-01-04 02:06:52.83	152.51	4.95	-38.3	-39.2	20.7	0.00e+00	0	39	0	124780544	50	5884
2026-01-04 02:06:56.87	152.50	5.24	-37.9	-38.8	21.1	0.00e+00	0	39	0	147849216	50	5595
2026-01-04 02:07:00.91	152.49	5.53	-37.8	-38.6	21.3	0.00e+00	0	39	0	170917888	50	5497
2026-01-04 02:07:04.95	152.49	5.83	-37.4	-38.3	21.6	0.00e+00	0	39	0	192937984	48	5909
2026-01-04 02:07:08.99	152.48	6.13	-37.5	-38.3	21.7	0.00e+00	0	39	0	216006656	48	5921
2026-01-04 02:07:13.03	152.48	6.43	-37.5	-38.3	21.8	0.00e+00	0	39	0	239075328	48	5955
2026-01-04 02:07:17.07	152.47	6.74	-37.4	-38.2	21.9	0.00e+00	0	39	0	261095424	48	5869
2026-01-04 02:07:21.11	152.46	7.05	-37.1	-38.0	22.1	0.00e+00	0	39	0	284164096	48	5712
2026-01-04 02:07:25.14	152.45	7.37	-36.9	-37.7	22.5	0.00e+00	0	39	0	306184192	48	5538
2026-01-04 02:07:29.19	152.44	7.69	-36.9	-37.6	22.5	0.00e+00	0	39	0	329252864	48	5502
2026-01-04 02:07:33.22	152.44	8.01	-36.4	-37.2	23.0	0.00e+00	0	39	0	352321536	46	5857
2026-01-04 02:07:37.26	152.43	8.34	-36.3	-37.0	23.2	0.00e+00	0	39	0	375390208	46	5755
2026-01-04 02:07:41.30	152.42	8.67	-36.3	-37.0	23.3	0.00e+00	0	39	0	397410304	46	5759
2026-01-04 02:07:45.34	152.41	9.01	-36.1	-36.8	23.3	0.00e+00	0	39	0	420478976	46	5615
2026-01-04 02:07:49.38	152.39	9.35	-36.0	-36.8	23.6	0.00e+00	0	39	0	443547648	46	5580
2026-01-04 02:07:53.42	152.38	9.69	-35.8	-36.5	23.8	0.00e+00	0	39	0	465567744	46	5424
2026-01-04 02:07:57.45	152.37	10.04	-36.3	-37.1	23.6	0.00e+00	0	39	0	488636416	46	5779
2026-01-04 02:08:01.49	152.36	10.40	-36.1	-36.8	23.7	0.00e+00	0	39	0	510656512	46	5610
2026-01-04 02:08:05.52	152.34	10.76	-36.4	-37.1	23.2	0.00e+00	0	39	0	533725184	46	5804
2026-01-04 02:08:09.56	152.33	11.13	-36.8	-37.5	23.0	0.00e+00	0	39	0	556793856	46	6067
2026-01-04 02:08:13.60	152.32	11.50	-36.0	-36.7	23.8	0.00e+00	0	39	0	578813952	46	5559
2026-01-04 02:08:17.63	152.30	11.87	-35.3	-35.9	24.4	0.00e+00	0	39	0	601882624	44	5689
2026-01-04 02:08:21.67	152.28	12.26	-35.2	-35.9	24.6	0.00e+00	0	39	0	624951296	44	5641
2026-01-04 02:08:25.72	152.27	12.65	-35.4	-36.1	24.5	0.00e+00	0	39	0	648019968	44	5825
2026-01-04 02:08:29.75	152.25	13.04	-34.9	-35.6	24.7	0.00e+00	0	39	0	670040064	42	6120
2026-01-04 02:08:33.79	152.23	13.45	-34.4	-35.1	25.3	0.00e+00	0	39	0	693108736	42	5805
2026-01-04 02:08:37.83	152.21	13.85	-34.2	-34.8	25.4	0.00e+00	0	39	0	715128832	42	5619
2026-01-04 02:08:41.86	152.19	14.27	-34.0	-34.7	25.7	0.00e+00	0	39	0	738197504	42	5521
2026-01-04 02:08:45.90	152.17	14.69	-34.4	-35.1	25.4	0.00e+00	0	39	0	761266176	42	5784
2026-01-04 02:08:49.94	152.15	15.12	-34.6	-35.3	25.3	0.00e+00	0	39	0	783286272	42	5913
2026-01-04 02:08:53.98	152.12	15.56	-34.3	-35.0	25.5	0.00e+00	0	39	0	806354944	42	5709
2026-01-04 02:08:58.01	152.10	16.01	-33.9	-34.6	25.8	0.00e+00	0	39	0	829423616	42	5484
2026-01-04 02:09:02.05	152.07	16.46	-34.2	-34.9	25.7	0.00e+00	0	39	0	851443712	40	6331
2026-01-04 02:09:06.09	152.05	16.93	-33.7	-34.3	26.4	0.00e+00	0	39	0	874512384	40	5960
2026-01-04 02:09:10.13	152.02	17.40	-33.4	-34.1	26.7	0.00e+00	0	39	0	897581056	40	5764
2026-01-04 02:09:14.16	151.99	17.88	-33.0	-33.7	26.8	0.00e+00	0	39	0	919601152	40	5524
2026-01-04 02:09:18.20	151.96	18.37	-33.2	-33.8	27.0	0.00e+00	0	39	0	942669824	40	5612
2026-01-04 02:09:22.24	151.93	18.87	-33.1	-33.7	27.1	0.00e+00	0	39	0	965738496	40	5554
2026-01-04 02:09:26.28	151.89	19.39	-33.0	-33.6	27.0	0.00e+00	0	39	0	987758592	40	5501
2026-01-04 02:09:30.32	151.86	19.91	-33.0	-33.6	27.0	0.00e+00	0	39	0	1010827264	40	5469
2026-01-04 02:09:34.35	151.82	20.44	-33.2	-33.9	27.0	0.00e+00	0	39	0	1033895936	40	5647
2026-01-04 02:09:38.39	151.78	20.99	-32.9	-33.5	26.9	0.00e+00	0	39	0	1055916032	38	6095
2026-01-04 02:09:42.43	151.74	21.54	-33.5	-34.2	27.1	0.00e+00	0	39	0	1078984704	40	5858
2026-01-04 02:09:46.47	151.70	22.11	-33.6	-34.3	26.9	0.00e+00	0	39	0	1102053376	40	5937
2026-01-04 02:09:50.51	151.65	22.70	-33.8	-34.5	26.8	0.00e+00	0	39	0	1124073472	40	6050
2026-01-04 02:09:54.54	151.61	23.29	-33.9	-34.5	26.8	0.00e+00	0	39	0	1147142144	38	6811
2026-01-04 02:09:58.58	151.56	23.90	-33.4	-34.0	26.9	0.00e+00	0	39	0	1170210816	40	5737
2026-01-04 02:10:02.62	151.50	24.53	-32.0	-32.6	27.7	0.00e+00	0	39	0	1192230912	38	5474
2026-01-04 02:10:06.66	151.45	25.17	-32.1	-32.7	27.5	0.00e+00	0	39	0	1215299584	38	5563
2026-01-04 02:10:10.70	151.39	25.83	-32.2	-32.8	27.6	0.00e+00	0	39	0	1238368256	38	5617
2026-01-04 02:10:14.73	151.33	26.50	-31.4	-32.0	27.9	0.00e+00	0	39	0	1260388352	36	5756
2026-01-04 02:10:18.77	151.27	27.19	-31.2	-31.8	28.1	0.00e+00	0	39	0	1283457024	36	5599
2026-01-04 02:10:22.81	151.20	27.90	-31.4	-32.0	28.0	0.00e+00	0	39	0	1306525696	36	5700
2026-01-04 02:10:26.85	151.13	28.62	-31.4	-32.0	27.9	0.00e+00	0	39	0	1328545792	36	5741
2026-01-04 02:10:30.89	151.05	29.37	-31.6	-32.2	28.0	0.00e+00	0	39	0	1351614464	36	5881
2026-01-04 02:10:34.93	150.97	30.13	-31.6	-32.2	28.1	0.00e+00	0	40	0	1374683136	36	5859
2026-01-04 02:10:38.97	150.89	30.92	-31.3	-32.0	28.2	0.00e+00	0	39	0	1396703232	36	5703
2026-01-04 02:10:43.01	150.80	31.73	-30.9	-31.5	28.4	0.00e+00	0	39	0	1419771904	36	5436
2026-01-04 02:10:47.05	150.71	32.56	-30.9	-31.6	28.4	0.00e+00	0	39	0	1442840576	36	5451
2026-01-04 02:10:51.09	150.61	33.42	-31.2	-31.8	28.3	0.00e+00	0	40	0	1464860672	36	5594
2026-01-04 02:10:55.13	150.50	34.30	-31.6	-32.2	28.2	0.00e+00	0	39	0	1487929344	36	5836
2026-01-04 02:10:59.17	150.39	35.20	-30.9	-31.5	28.5	0.00e+00	0	39	0	1510998016	36	5434
2026-01-04 02:11:03.21	150.27	36.13	-30.7	-31.3	28.6	0.00e+00	0	39	0	1533018112	34	5948
2026-01-04 02:11:07.24	150.14	37.09	-30.9	-31.5	28.5	0.00e+00	0	40	0	1556086784	34	6054
2026-01-04 02:11:11.28	150.00	38.08	-31.0	-31.6	28.5	0.00e+00	0	40	0	1579155456	34	6135
2026-01-04 02:11:15.32	149.86	39.09	-31.8	-32.4	27.9	0.00e+00	0	40	0	1601175552	36	6021
2026-01-04 02:11:19.36	149.70	40.14	-31.8	-32.4	27.9	0.00e+00	0	39	0	1624244224	36	5997
2026-01-04 02:11:23.39	149.53	41.22	-31.8	-32.4	27.9	0.00e+00	0	39	0	1647312896	36	6014
2026-01-04 02:11:27.43	149.35	42.33	-31.6	-32.2	27.9	0.00e+00	0	39	0	1669332992	36	5895
2026-01-04 02:11:31.47	149.16	43.48	-32.0	-32.6	27.9	0.00e+00	0	40	0	1692401664	36	6156
2026-01-04 02:11:35.50	148.94	44.65	-31.5	-32.2	28.2	0.00e+00	0	40	0	1714421760	36	5846
2026-01-04 02:11:39.54	148.72	45.87	-31.8	-32.4	28.1	0.00e+00	0	39	0	1737490432	36	6009
2026-01-04 02:11:43.57	148.47	47.12	-31.6	-32.3	28.3	0.00e+00	0	40	0	1760559104	36	5904
2026-01-04 02:11:47.61	148.20	48.41	-31.9	-32.5	27.8	0.00e+00	0	40	0	1783627776	36	6062
2026-01-04 02:11:51.65	147.90	49.74	-32.2	-32.8	27.8	0.00e+00	0	39	0	1805647872	36	6297
2026-01-04 02:11:55.69	147.58	51.11	-33.2	-33.9	27.2	0.00e+00	0	39	0	1828716544	38	6334
2026-01-04 02:11:59.73	147.22	52.52	-33.1	-33.7	27.0	0.00e+00	0	39	0	1851785216	40	5542
2026-01-04 02:12:03.77	146.82	53.97	-32.8	-33.5	27.1	0.00e+00	0	40	0	1873805312	38	6058
2026-01-04 02:12:07.81	146.39	55.45	-32.6	-33.2	27.4	0.00e+00	0	39	0	1896873984	38	5847
2026-01-04 02:12:11.85	145.90	56.98	-32.6	-33.2	27.2	0.00e+00	0	40	0	1918894080	38	5894
2026-01-04 02:12:15.88	145.35	58.55	-32.1	-32.7	27.8	0.00e+00	0	40	0	1941962752	38	5539
2026-01-04 02:12:19.92	144.72	60.16	-31.3	-31.9	28.3	0.00e+00	0	39	0	1965031424	36	5690
2026-01-04 02:12:23.96	144.01	61.80	-32.2	-32.9	27.9	0.00e+00	0	39	0	1988100096	36	6337
2026-01-04 02:12:28.00	143.20	63.49	-31.1	-31.7	28.5	0.00e+00	0	40	0	2010120192	36	5514
2026-01-04 02:12:32.03	142.26	65.20	-30.9	-31.5	28.6	0.00e+00	0	40	0	2033188864	34	6046
2026-01-04 02:12:36.07	141.16	66.95	-31.6	-32.2	28.2	0.00e+00	0	40	0	2056257536	36	5887
2026-01-04 02:12:40.11	139.85	68.72	-30.6	-31.3	28.7	0.00e+00	0	40	0	2078277632	34	5907
2026-01-04 02:12:44.15	138.28	70.52	-31.0	-31.6	28.6	0.00e+00	0	39	0	2101346304	34	6135
2026-01-04 02:12:48.19	136.36	72.34	-31.1	-31.8	28.7	0.00e+00	0	40	0	2123366400	34	6248
2026-01-04 02:12:52.22	133.98	74.15	-31.7	-32.3	28.2	0.00e+00	0	39	0	2146435072	36	5942
2026-01-04 02:12:56.26	130.94	75.97	-31.0	-31.6	28.7	0.00e+00	0	40	0	2169503744	34	6129
2026-01-04 02:13:00.30	126.97	77.76	-29.8	-30.4	29.7	0.00e+00	0	40	0	2191523840	32	5967
2026-01-04 02:13:04.34	121.62	79.48	-29.0	-29.5	30.0	0.00e+00	0	40	0	2214592512	32	5433
2026-01-04 02:13:08.37	114.22	81.10	-28.5	-29.1	30.3	0.00e+00	0	40	0	2237661184	30	5823
2026-01-04 02:13:12.41	103.72	82.51	-28.5	-29.1	30.3	0.00e+00	0	40	0	2260729856	30	5767
2026-01-04 02:13:16.45	89.03	83.58	-29.4	-29.9	30.0	0.00e+00	0	40	0	2282749952	30	6375
2026-01-04 02:13:20.49	70.24	84.09	-29.8	-30.3	29.7	0.00e+00	0	40	0	2305818624	32	5951
2026-01-04 02:13:24.53	50.41	83.90	-29.7	-30.3	29.6	0.00e+00	0	40	0	2327838720	32	5956
2026-01-04 02:13:28.56	33.65	83.08	-29.1	-29.7	29.8	0.00e+00	0	40	0	2350907392	32	5542
2026-01-04 02:13:32.61	21.25	81.80	-29.4	-30.0	29.9	0.00e+00	0	40	0	2373976064	30	6444
2026-01-04 02:13:36.64	12.54	80.27	-28.9	-29.4	30.1	0.00e+00	0	40	0	2395996160	30	6027
2026-01-04 02:13:40.68	6.32	78.59	-28.7	-29.4	30.0	0.00e+00	0	39	0	2419064832	30	5995
2026-01-04 02:13:44.72	1.76	76.83	-29.6	-30.2	29.5	0.00e+00	0	40	0	2442133504	30	6602
2026-01-04 02:13:48.75	358.33	75.03	-30.0	-30.7	29.4	0.00e+00	0	40	0	2464153600	32	6224
2026-01-04 02:13:52.79	355.66	73.21	-30.5	-31.1	29.2	0.00e+00	0	40	0	2487222272	32	6494
2026-01-04 02:13:56.83	353.54	71.39	-31.0	-31.7	28.7	0.00e+00	0	40	0	2510290944	34	6212
2026-01-04 02:14:00.87	351.82	69.59	-31.9	-32.5	28.1	0.00e+00	0	40	0	2532311040	38	5399
2026-01-04 02:14:04.91	350.40	67.80	-31.6	-32.3	28.7	0.00e+00	0	40	0	2555379712	36	5907
2026-01-04 02:14:08.95	349.20	66.04	-30.6	-31.3	28.6	0.00e+00	0	40	0	2578448384	34	5926
2026-01-04 02:14:12.99	348.19	64.31	-30.8	-31.4	28.8	0.00e+00	0	40	0	2600468480	34	5987
2026-01-04 02:14:17.02	347.32	62.62	-30.9	-31.5	28.8	0.00e+00	0	40	0	2623537152	36	5393
2026-01-04 02:14:21.06	346.57	60.96	-32.0	-32.6	27.9	0.00e+00	0	40	0	2646605824	36	6158
2026-01-04 02:14:25.10	345.91	59.34	-31.2	-31.7	28.3	0.00e+00	0	40	0	2668625920	36	5556
2026-01-04 02:14:29.14	345.33	57.76	-31.8	-32.5	28.1	0.00e+00	0	40	0	2691694592	36	6057
2026-01-04 02:14:33.17	344.81	56.21	-32.5	-33.1	27.2	0.00e+00	0	40	0	2714763264	38	5828
2026-01-04 02:14:37.21	344.35	54.71	-33.2	-34.0	26.9	0.00e+00	0	40	0	2736783360	38	6398
2026-01-04 02:14:41.25	343.93	53.25	-32.4	-33.0	27.6	0.00e+00	0	40	0	2759852032	38	5716
2026-01-04 02:14:45.29	343.56	51.82	-31.9	-32.4	28.1	0.00e+00	0	40	0	2782920704	38	5358
2026-01-04 02:14:49.32	343.22	50.44	-31.7	-32.2	28.1	0.00e+00	0	40	0	2804940800	36	5873
2026-01-04 02:14:53.36	342.91	49.10	-31.5	-32.2	28.5	0.00e+00	0	40	0	2828009472	36	5885
2026-01-04 02:14:57.40	342.63	47.79	-31.9	-32.6	28.3	0.00e+00	0	40	0	2851078144	36	6135
2026-01-04 02:15:01.44	342.37	46.53	-31.7	-32.2	28.1	0.00e+00	0	40	0	2873098240	36	5890
2026-01-04 02:15:05.48	342.14	45.29	-32.4	-33.1	27.9	0.00e+00	0	40	0	2896166912	36	6476
2026-01-04 02:15:09.52	341.92	44.10	-32.0	-32.5	28.0	0.00e+00	0	40	0	2919235584	36	6087
2026-01-04 02:15:13.55	341.72	42.94	-31.8	-32.5	28.1	0.00e+00	0	40	0	2941255680	36	6084
2026-01-04 02:15:17.59	341.53	41.82	-31.7	-32.2	28.4	0.00e+00	0	40	0	2964324352	36	5875
2026-01-04 02:15:21.63	341.36	40.73	-31.2	-31.8	28.6	0.00e+00	0	40	0	2987393024	36	5588
2026-01-04 02:15:25.67	341.20	39.67	-30.7	-31.4	28.6	0.00e+00	0	40	0	3009413120	34	6004
2026-01-04 02:15:29.70	341.05	38.64	-30.5	-31.1	28.8	0.00e+00	0	40	0	3032481792	34	5770
2026-01-04 02:15:33.74	340.91	37.64	-30.4	-30.9	28.9	0.00e+00	0	40	0	3055550464	34	5659
2026-01-04 02:15:37.78	340.78	36.67	-31.2	-31.8	28.4	0.00e+00	0	40	0	3077570560	34	6275
2026-01-04 02:15:41.82	340.65	35.73	-31.1	-31.6	28.6	0.00e+00	0	40	0	3100639232	34	6147
2026-01-04 02:15:45.85	340.54	34.82	-30.8	-31.5	28.7	0.00e+00	0	40	0	3122659328	34	6055
2026-01-04 02:15:49.89	340.43	33.93	-31.1	-31.7	28.5	0.00e+00	0	40	0	3145728000	34	6179
2026-01-04 02:15:53.93	340.33	33.06	-31.1	-31.8	28.3	0.00e+00	0	40	0	3168796672	34	6263
2026-01-04 02:15:57.96	340.23	32.23	-31.5	-32.1	27.9	0.00e+00	0	40	0	3191865344	34	6467
2026-01-04 02:16:02.00	340.14	31.41	-32.4	-33.0	27.7	0.00e+00	0	40	0	3213885440	38	5731
2026-01-04 02:16:06.04	340.06	30.61	-32.8	-33.3	27.7	0.00e+00	0	40	0	3236954112	38	5954
2026-01-04 02:16:10.07	339.98	29.84	-32.5	-33.2	27.8	0.00e+00	0	40	0	3260022784	38	5861
2026-01-04 02:16:14.11	339.90	29.09	-32.3	-33.0	28.2	0.00e+00	0	40	0	3282042880	38	5720
2026-01-04 02:16:18.15	339.83	28.35	-32.3	-32.8	28.4	0.00e+00	0	40	0	3305111552	38	5605
2026-01-04 02:16:22.18	339.77	27.64	-32.7	-33.4	28.3	0.00e+00	0	40	0	3327131648	38	5974
2026-01-04 02:16:26.22	339.70	26.94	-31.8	-32.5	28.5	0.00e+00	0	40	0	3350200320	38	5409
2026-01-04 02:16:30.25	339.64	26.26	-32.5	-33.2	28.0	0.00e+00	0	40	0	3373268992	38	5892
2026-01-04 02:16:34.29	339.58	25.60	-32.4	-33.1	28.1	0.00e+00	0	40	0	3395289088	38	5806
2026-01-04 02:16:38.33	339.53	24.95	-33.1	-33.9	27.7	0.00e+00	0	40	0	3418357760	38	6321
2026-01-04 02:16:42.37	339.48	24.32	-32.8	-33.5	27.5	0.00e+00	0	40	0	3441426432	38	6039
2026-01-04 02:16:46.41	339.43	23.71	-33.4	-33.9	27.6	0.00e+00	0	40	0	3464495104	40	5667
2026-01-04 02:16:50.45	339.38	23.10	-32.5	-33.2	27.5	0.00e+00	0	40	0	3486515200	38	5873
2026-01-04 02:16:54.49	339.34	22.52	-33.0	-33.6	27.3	0.00e+00	0	40	0	3509583872	38	6138
2026-01-04 02:16:58.53	339.30	21.94	-33.5	-34.2	27.4	0.00e+00	0	40	0	3531603968	40	5853
2026-01-04 02:17:02.57	339.26	21.38	-33.3	-33.9	27.2	0.00e+00	0	40	0	3554672640	38	6364
2026-01-04 02:17:06.61	339.22	20.83	-33.1	-33.7	27.1	0.00e+00	0	40	0	3577741312	40	5526
2026-01-04 02:17:10.64	339.18	20.29	-33.4	-34.1	27.1	0.00e+00	0	40	0	3599761408	40	5793
2026-01-04 02:17:14.68	339.15	19.76	-33.0	-33.7	26.9	0.00e+00	0	40	0	3622830080	38	6222
2026-01-04 02:17:18.72	339.12	19.25	-33.0	-33.6	26.9	0.00e+00	0	40	0	3645898752	38	6124
2026-01-04 02:17:22.76	339.09	18.74	-33.7	-34.3	26.7	0.00e+00	0	40	0	3667918848	40	5941
2026-01-04 02:17:26.80	339.06	18.25	-34.1	-34.7	26.5	0.00e+00	0	40	0	3690987520	40	6188
2026-01-04 02:17:30.84	339.03	17.76	-34.4	-35.0	26.6	0.00e+00	0	40	0	3714056192	40	6447
2026-01-04 02:17:34.87	339.00	17.29	-34.3	-34.9	26.3	0.00e+00	0	40	0	3736076288	42	5636
2026-01-04 02:17:38.91	338.98	16.82	-34.0	-34.6	26.2	0.00e+00	0	40	0	3759144960	42	5449
2026-01-04 02:17:42.95	338.95	16.36	-34.1	-34.7	26.1	0.00e+00	0	40	0	3782213632	42	5512
2026-01-04 02:17:46.99	338.93	15.91	-34.8	-35.4	26.0	0.00e+00	0	40	0	3804233728	42	5978
2026-01-04 02:17:51.03	338.91	15.47	-35.1	-35.8	25.8	0.00e+00	0	40	0	3827302400	42	6280
2026-01-04 02:17:55.07	338.89	15.04	-35.2	-35.9	25.7	0.00e+00	0	40	0	3850371072	42	6372
2026-01-04 02:17:59.10	338.87	14.61	-35.2	-35.8	25.6	0.00e+00	0	40	0	3872391168	42	6301
2026-01-04 02:18:03.14	338.85	14.19	-35.6	-36.4	25.6	0.00e+00	0	40	0	3895459840	42	6704
2026-01-04 02:18:07.17	338.83	13.78	-35.7	-36.4	25.3	0.00e+00	0	40	0	3918528512	44	5985
2026-01-04 02:18:11.21	338.82	13.38	-35.2	-35.9	25.4	0.00e+00	0	40	0	3940548608	44	5684
2026-01-04 02:18:15.25	338.80	12.98	-35.2	-36.0	25.3	0.00e+00	0	40	0	3963617280	44	5725
2026-01-04 02:18:19.28	338.79	12.59	-35.2	-36.0	25.2	0.00e+00	0	40	0	3986685952	44	5725
2026-01-04 02:18:23.32	338.77	12.20	-35.1	-35.8	25.0	0.00e+00	0	40	0	4008706048	42	6304
2026-01-04 02:18:27.36	338.76	11.82	-34.8	-35.5	25.0	0.00e+00	0	40	0	4031774720	42	6069
2026-01-04 02:18:31.39	338.75	11.45	-35.2	-35.8	25.0	0.00e+00	0	40	0	4054843392	42	6292
2026-01-04 02:18:35.43	338.74	11.08	-35.5	-36.3	24.7	0.00e+00	0	40	0	4076863488	42	6639
2026-01-04 02:18:39.47	338.73	10.72	-35.8	-36.5	24.7	0.00e+00	0	40	0	4099932160	44	6052
2026-01-04 02:18:43.51	338.72	10.36	-36.0	-36.7	24.6	0.00e+00	0	40	0	4121952256	44	6225
2026-01-04 02:18:47.54	338.71	10.01	-36.6	-37.2	24.2	0.00e+00	0	40	0	4145020928	44	6589
2026-01-04 02:18:51.58	338.70	9.66	-35.5	-36.1	24.5	0.00e+00	0	40	0	4168089600	44	5823
2026-01-04 02:18:55.62	338.69	9.32	-35.9	-36.6	24.3	0.00e+00	0	40	0	4191158272	44	6109
2026-01-04 02:18:59.65	338.68	8.98	-35.8	-36.4	24.0	0.00e+00	0	40	0	4213178368	44	5996
2026-01-04 02:19:03.69	338.68	8.65	-36.1	-36.7	23.8	0.00e+00	0	40	0	4236247040	44	6232
2026-01-04 02:19:07.72	338.67	8.32	-36.0	-36.7	23.6	0.00e+00	0	40	0	4259315712	44	6187
2026-01-04 02:19:11.76	338.66	7.99	-35.8	-36.6	23.8	0.00e+00	0	40	0	4281335808	44	6151
2026-01-04 02:19:15.80	338.66	7.67	-35.9	-36.5	23.7	0.00e+00	0	40	0	4304404480	44	6096
2026-01-04 02:19:19.83	338.65	7.36	-36.5	-37.3	23.5	0.00e+00	0	40	0	4326424576	44	6686
2026-01-04 02:19:23.87	338.65	7.04	-37.4	-38.2	22.9	0.00e+00	0	40	0	4349493248	46	6551
2026-01-04 02:19:27.90	338.64	6.74	-37.1	-37.7	23.0	0.00e+00	0	40	0	4372561920	46	6243
2026-01-04 02:19:31.94	338.64	6.43	-36.6	-37.4	23.2	0.00e+00	0	40	0	4394582016	46	6028
2026-01-04 02:19:35.98	338.64	6.13	-36.8	-37.5	23.2	0.00e+00	0	40	0	4417650688	46	6080
2026-01-04 02:19:40.02	338.64	5.83	-37.1	-38.0	22.7	0.00e+00	0	40	0	4440719360	46	6391
2026-01-04 02:19:44.06	338.63	5.54	-37.9	-38.8	21.6	0.00e+00	0	40	0	4463788032	48	6256
2026-01-04 02:19:48.10	338.63	5.24	-38.7	-39.6	20.3	0.00e+00	0	40	0	4485808128	50	6121
2026-01-04 02:19:52.15	338.63	4.95	-40.9	-42.0	17.9	0.00e+00	0	40	0	4508876800	54	6452
2026-01-04 02:19:56.18	338.63	4.67	-42.2	-43.9	14.8	0.00e+00	0	40	0	4530896896	56	7090
2026-01-04 02:20:00.21	338.63	4.39	-44.3	-47.5	10.1	5.72e-03	0	40	0	4553965568	60	8581
2026-01-04 02:20:04.25	338.63	4.11	-45.3	-50.4	6.0	2.55e-01	0	40	0	4577034240	60	11948
2026-01-04 02:20:08.29	338.63	3.83	-45.7	-54.9	3.9	8.41e-01	0	40	104	4581228544	60	20208
2026-01-04 02:20:12.33	338.63	3.56	-45.8	-57.0	3.6	8.44e-01	0	40	104	4581228544	60	25596
2026-01-04 02:20:16.37	338.63	3.29	-46.1	-58.1	3.6	8.46e-01	0	40	104	4581228544	60	28951
2026-01-04 02:20:20.40	338.63	3.02	-46.4	-58.4	3.6	8.45e-01	0	40	104	4581228544	60	30000
2026-01-04 02:20:24.44	338.63	2.75	-51.1	-63.2	3.6	8.46e-01	0	40	104	4581228544	60	52084
2026-01-04 02:20:28.48	338.63	2.49	-51.1	-63.3	3.6	8.47e-01	0	40	104	4581228544	60	52715
2026-01-04 02:20:32.52	338.63	2.23	-51.0	-63.2	3.6	8.46e-01	0	40	104	4581228544	60	52339
2026-01-04 02:20:36.55	338.64	1.97	-51.2	-63.3	3.6	8.46e-01	0	40	104	4581228544	60	53097
2026-01-04 02:20:40.59	338.64	1.71	-50.8	-62.9	3.6	8.46e-01	0	40	104	4581228544	60	50662
2026-01-04 02:20:44.63	338.64	1.46	-51.5	-63.6	3.6	8.45e-01	0	40	104	4581228544	60	54795
2026-01-04 02:20:48.67	338.64	1.21	-51.3	-63.4	3.6	8.44e-01	0	40	104	4581228544	60	53671
2026-01-04 02:20:52.71	338.65	0.96	-51.1	-63.2	3.6	8.45e-01	0	40	104	4581228544	60	52302
2026-01-04 02:20:56.75	338.65	0.71	-52.3	-64.5	3.6	8.45e-01	0	40	104	4581228544	60	60514
2026-01-04 02:21:00.78	338.66	0.46	-51.5	-63.6	3.6	8.45e-01	0	40	104	4581228544	60	54639
2026-01-04 02:21:04.82	338.66	0.22	-52.0	-64.1	3.6	8.45e-01	0	40	104	4581228544	60	58054
2026-01-04 02:21:08.86	338.66	-0.02	-52.1	-64.2	3.6	8.45e-01	0	40	104	4581228544	60	58673

#Closed at: 2026-01-04 02:21:09
#Recorded file [4581 MB]: D:/lorett/data/35029_260104_140540.dat