passes_logs/2026/01/04/R4.6S_Anadyr/R4.6S_Anadyr__20260104_214553_TY-42_rec.log

#Pass ID: 20260104_214553_TY-42
#Satellite: TY-42
#Configuration: TY-42_900M
#almurnet v.1.7.20251203
#Start time: 2026-01-04 21:46:25

#Version: 2.2.20231116
#Station: R4.6S_Anadyr
#Location: 177.4865 lon 64.73178 lat
#TLE: 1 64048U 25103A   26003.64460648  .00008007  00000-0  38191-3 0 09992
#TLE: 2 64048 097.4106 079.2764 0001638 093.2825 303.9096 15.19157386 35096

#Time	Az	El	Level	Level2	SNR	BER	BlckErr	Temp	State	Recorded	gain1	gain2
2026-01-04 21:46:25.02	25.70	1.72	-48.8	-63.7	3.5	1.51e+00	0	28	0	0	60	55349
2026-01-04 21:46:28.05	26.01	1.90	-47.0	-49.5	6.1	0.00e+00	0	30	104	0	60	36376
2026-01-04 21:46:31.08	26.32	2.07	-47.0	-49.5	6.1	0.00e+00	0	30	104	0	60	36619
2026-01-04 21:46:34.10	26.64	2.24	-47.0	-49.5	6.1	0.00e+00	0	30	104	0	60	36604
2026-01-04 21:46:37.13	26.97	2.41	-47.0	-49.5	6.1	0.00e+00	0	30	104	0	60	36682
2026-01-04 21:46:40.16	27.30	2.59	-47.0	-49.5	6.1	0.00e+00	0	31	104	0	60	36680
2026-01-04 21:46:43.19	27.63	2.76	-47.0	-49.6	6.1	0.00e+00	0	31	104	0	60	36937
2026-01-04 21:46:46.22	27.97	2.94	-47.0	-49.5	6.1	0.00e+00	0	30	104	0	60	36573
2026-01-04 21:46:49.25	28.32	3.12	-46.9	-49.5	6.1	0.00e+00	0	31	104	0	60	36425
2026-01-04 21:46:52.28	28.67	3.29	-46.8	-49.3	6.1	0.00e+00	0	31	104	0	60	35688
2026-01-04 21:46:55.31	29.02	3.47	-47.6	-50.1	6.1	0.00e+00	0	31	104	0	60	38997
2026-01-04 21:46:58.33	29.38	3.65	-46.0	-47.9	6.1	0.00e+00	0	31	104	0	60	30386
2026-01-04 21:47:01.36	29.75	3.83	-46.0	-47.9	6.2	0.00e+00	0	31	104	0	60	30401
2026-01-04 21:47:04.39	30.12	4.01	-30.2	-30.4	14.5	0.00e+00	464	31	104	0	30	22892
2026-01-04 21:47:07.42	30.49	4.19	-27.3	-27.7	16.0	0.00e+00	0	31	0	134217728	30	16709
2026-01-04 21:47:10.45	30.88	4.37	-26.9	-27.3	16.1	1.12e-03	0	31	0	478150656	30	15930
2026-01-04 21:47:13.48	31.26	4.56	-26.8	-27.2	16.2	5.50e-04	0	31	0	813694976	28	17748
2026-01-04 21:47:16.50	31.66	4.74	-26.7	-27.2	16.1	4.14e-04	0	31	0	1157627904	28	17615
2026-01-04 21:47:19.53	32.06	4.92	-26.3	-26.8	16.4	3.71e-04	0	32	0	1501560832	28	16845
2026-01-04 21:47:22.56	32.46	5.11	-26.7	-27.1	16.3	1.52e-04	0	32	0	1837105152	28	17538
2026-01-04 21:47:25.59	32.88	5.29	-26.8	-27.3	16.3	2.45e-04	0	32	0	2181038080	28	17877
2026-01-04 21:47:28.62	33.30	5.48	-27.6	-28.1	16.1	2.34e-04	0	32	0	2516582400	28	19557
2026-01-04 21:47:31.64	33.72	5.67	-27.5	-27.9	16.2	4.20e-04	0	32	0	2860515328	30	17195
2026-01-04 21:47:34.67	34.15	5.85	-27.2	-27.7	16.2	3.76e-04	0	32	0	3196059648	30	16697
2026-01-04 21:47:37.70	34.59	6.04	-27.1	-27.6	16.2	2.56e-04	0	32	0	3539992576	30	16439
2026-01-04 21:47:40.73	35.04	6.23	-27.3	-27.8	16.3	2.29e-04	0	32	0	3883925504	30	16918
2026-01-04 21:47:43.76	35.49	6.42	-27.8	-28.3	16.2	2.51e-04	0	32	0	4219469824	30	17844
2026-01-04 21:47:46.79	35.95	6.61	-26.9	-27.4	16.4	2.94e-04	0	32	0	4563402752	30	16162
2026-01-04 21:47:49.82	36.42	6.80	-26.5	-27.0	16.5	1.31e-04	0	32	0	4907335680	28	17311
2026-01-04 21:47:52.85	36.89	6.99	-26.4	-26.9	16.5	1.36e-04	0	32	0	5242880000	28	17087
2026-01-04 21:47:55.88	37.38	7.19	-26.4	-26.9	16.6	1.69e-04	0	32	0	5586812928	28	17090
2026-01-04 21:47:58.91	37.87	7.38	-26.1	-26.6	16.7	8.71e-05	0	32	0	5930745856	28	16430
2026-01-04 21:48:01.93	38.37	7.57	-26.3	-26.8	16.6	4.90e-05	0	32	0	6274678784	28	16952
2026-01-04 21:48:04.96	38.87	7.76	-25.9	-26.4	16.7	3.81e-05	0	33	0	6610223104	28	16170
2026-01-04 21:48:07.99	39.39	7.96	-26.2	-26.7	16.4	9.80e-05	0	33	0	6954156032	28	16717
2026-01-04 21:48:11.02	39.91	8.15	-25.7	-26.2	16.7	1.74e-04	0	33	0	7289700352	26	17694
2026-01-04 21:48:14.05	40.44	8.34	-25.9	-26.4	16.7	2.72e-05	0	33	0	7633633280	26	18161
2026-01-04 21:48:17.07	40.98	8.53	-25.8	-26.3	16.8	3.81e-05	0	33	0	7969177600	26	17962
2026-01-04 21:48:20.10	41.53	8.73	-25.5	-26.1	16.8	1.08e-05	0	33	0	8313110528	26	17408
2026-01-04 21:48:23.13	42.08	8.92	-25.8	-26.3	16.9	2.17e-05	0	33	0	8648654848	26	17891
2026-01-04 21:48:26.16	42.65	9.12	-25.7	-26.2	16.8	5.40e-06	0	33	0	8992587776	26	17726
2026-01-04 21:48:29.19	43.23	9.31	-24.7	-25.2	17.1	1.63e-05	0	33	0	9336520704	24	17695
2026-01-04 21:48:32.22	43.81	9.50	-25.1	-25.6	16.9	1.08e-05	0	33	0	9672065024	24	18587
2026-01-04 21:48:35.25	44.41	9.70	-25.2	-25.7	16.8	0.00e+00	0	33	0	10015997952	24	18745
2026-01-04 21:48:38.28	45.01	9.89	-25.7	-26.2	16.8	5.40e-06	0	33	0	10351542272	24	19832
2026-01-04 21:48:41.31	45.62	10.08	-25.0	-25.5	17.0	5.40e-06	0	33	0	10695475200	26	16289
2026-01-04 21:48:44.34	46.25	10.27	-24.8	-25.3	17.0	0.00e+00	0	33	0	11039408128	24	17854
2026-01-04 21:48:47.37	46.88	10.46	-24.9	-25.4	16.9	5.40e-06	0	33	0	11374952448	24	18036
2026-01-04 21:48:50.40	47.52	10.65	-25.2	-25.7	16.8	1.08e-05	0	33	0	11718885376	24	18707
2026-01-04 21:48:53.43	48.17	10.84	-24.8	-25.3	16.8	2.72e-05	0	33	0	12062818304	24	17915
2026-01-04 21:48:56.46	48.84	11.03	-25.0	-25.5	16.9	1.63e-05	0	33	0	12398362624	24	18404
2026-01-04 21:48:59.49	49.51	11.22	-25.2	-25.7	16.8	1.63e-05	0	33	0	12742295552	24	18657
2026-01-04 21:49:02.52	50.19	11.41	-24.7	-25.2	16.9	1.08e-05	0	33	0	13086228480	24	17644
2026-01-04 21:49:05.55	50.89	11.59	-24.6	-25.1	16.7	5.40e-06	0	33	0	13421772800	24	17515
2026-01-04 21:49:08.58	51.59	11.77	-24.5	-25.0	16.6	5.40e-06	0	33	0	13765705728	24	17289
2026-01-04 21:49:11.61	52.30	11.96	-25.1	-25.6	16.8	1.08e-05	0	33	0	14109638656	24	18604
2026-01-04 21:49:14.63	53.03	12.13	-24.5	-25.0	16.7	1.08e-05	0	33	0	14445182976	24	17379
2026-01-04 21:49:17.66	53.76	12.31	-25.4	-25.9	16.6	2.17e-05	0	33	0	14789115904	24	19095
2026-01-04 21:49:20.69	54.51	12.49	-24.8	-25.3	16.7	1.08e-05	0	33	0	15133048832	24	17858
2026-01-04 21:49:23.72	55.26	12.66	-25.0	-25.5	16.8	5.44e-05	0	33	0	15468593152	24	18284
2026-01-04 21:49:26.76	56.03	12.83	-24.3	-24.8	16.8	1.63e-05	0	33	0	15812526080	24	16963
2026-01-04 21:49:29.78	56.81	13.00	-24.3	-24.8	17.0	1.08e-05	0	33	0	16148070400	24	16847
2026-01-04 21:49:32.81	57.60	13.17	-24.4	-24.9	16.7	5.40e-06	0	33	0	16492003328	24	17088
2026-01-04 21:49:35.83	58.39	13.33	-24.0	-24.5	17.0	0.00e+00	0	33	0	16835936256	24	16397
2026-01-04 21:49:38.86	59.20	13.49	-23.7	-24.2	16.9	0.00e+00	0	33	0	17171480576	22	17683
2026-01-04 21:49:41.90	60.02	13.65	-23.6	-24.1	16.9	5.40e-06	0	33	0	17515413504	22	17580
2026-01-04 21:49:44.93	60.85	13.80	-23.7	-24.2	16.2	5.40e-06	0	33	0	17850957824	22	17617
2026-01-04 21:49:47.96	61.69	13.95	-23.6	-24.0	16.9	0.00e+00	0	34	0	18194890752	22	17394
2026-01-04 21:49:50.99	62.54	14.09	-23.4	-23.9	16.6	5.40e-06	0	34	0	18538823680	22	17071
2026-01-04 21:49:54.02	63.40	14.23	-23.5	-24.0	17.1	5.40e-06	0	33	0	18874368000	22	17263
2026-01-04 21:49:57.05	64.26	14.37	-23.7	-24.2	17.0	0.00e+00	0	33	0	19218300928	22	17667
2026-01-04 21:50:00.07	65.14	14.50	-23.4	-23.9	17.1	0.00e+00	0	33	0	19553845248	22	17070
2026-01-04 21:50:03.10	66.02	14.63	-23.6	-24.1	17.0	0.00e+00	0	33	0	19897778176	22	17405
2026-01-04 21:50:06.13	66.92	14.75	-23.3	-23.8	16.9	0.00e+00	0	33	0	20241711104	22	16874
2026-01-04 21:50:09.16	67.82	14.87	-23.2	-23.7	17.0	5.40e-06	0	34	0	20577255424	22	16755
2026-01-04 21:50:12.19	68.73	14.99	-23.3	-23.8	17.0	0.00e+00	0	34	0	20921188352	22	16964
2026-01-04 21:50:15.22	69.65	15.09	-23.4	-23.9	17.1	0.00e+00	0	34	0	21265121280	22	17082
2026-01-04 21:50:18.24	70.58	15.19	-23.3	-23.8	16.9	0.00e+00	0	33	0	21600665600	22	16873
2026-01-04 21:50:21.27	71.51	15.29	-23.4	-23.9	16.9	0.00e+00	0	33	0	21944598528	22	17087
2026-01-04 21:50:24.30	72.45	15.38	-23.3	-23.8	17.1	5.40e-06	0	34	0	22288531456	22	16887
2026-01-04 21:50:27.33	73.40	15.46	-23.3	-23.8	17.0	0.00e+00	0	34	0	22624075776	22	16928
2026-01-04 21:50:30.36	74.36	15.54	-23.6	-24.1	17.0	0.00e+00	0	34	0	22968008704	22	17490
2026-01-04 21:50:33.38	75.31	15.61	-23.7	-24.1	17.0	0.00e+00	0	34	0	23311941632	22	17579
2026-01-04 21:50:36.42	76.28	15.68	-23.4	-23.9	16.9	0.00e+00	0	34	0	23647485952	22	17022
2026-01-04 21:50:39.45	77.25	15.74	-23.5	-24.0	16.7	0.00e+00	0	34	0	23991418880	22	17292
2026-01-04 21:50:42.47	78.22	15.79	-23.7	-24.2	17.0	1.63e-05	0	34	0	24326963200	22	17727
2026-01-04 21:50:45.50	79.20	15.83	-23.7	-24.2	16.9	0.00e+00	0	34	0	24670896128	22	17649
2026-01-04 21:50:48.53	80.18	15.87	-23.6	-24.1	16.7	0.00e+00	0	34	0	25006440448	22	17431
2026-01-04 21:50:51.56	81.16	15.90	-23.6	-24.1	16.8	1.08e-05	0	34	0	25350373376	22	17438
2026-01-04 21:50:54.59	82.14	15.92	-23.3	-23.8	16.9	5.40e-06	0	34	0	25694306304	22	16890
2026-01-04 21:50:57.62	83.13	15.94	-23.5	-23.9	16.9	0.00e+00	0	34	0	26029850624	22	17181
2026-01-04 21:51:00.64	84.12	15.95	-23.3	-23.8	16.9	0.00e+00	0	34	0	26373783552	22	16908
2026-01-04 21:51:03.67	85.10	15.95	-23.4	-23.8	16.9	5.40e-06	0	34	0	26709327872	22	16932
2026-01-04 21:51:06.70	86.09	15.95	-23.8	-24.2	16.7	0.00e+00	0	34	0	27053260800	22	17793
2026-01-04 21:51:09.73	87.08	15.93	-23.5	-23.9	16.9	0.00e+00	0	34	0	27388805120	22	17119
2026-01-04 21:51:12.75	88.06	15.91	-23.2	-23.7	16.9	0.00e+00	0	34	0	27732738048	22	16719
2026-01-04 21:51:15.77	89.05	15.89	-23.4	-23.8	16.8	0.00e+00	0	34	0	28076670976	22	16973
2026-01-04 21:51:18.80	90.03	15.85	-23.4	-23.8	16.8	0.00e+00	0	34	0	28412215296	22	16984
2026-01-04 21:51:21.82	91.01	15.81	-23.5	-23.9	16.8	0.00e+00	0	34	0	28756148224	22	17121
2026-01-04 21:51:24.85	91.98	15.77	-23.4	-23.9	16.8	0.00e+00	0	34	0	29100081152	22	17097
2026-01-04 21:51:27.88	92.96	15.71	-23.4	-23.8	16.8	1.08e-05	0	34	0	29435625472	22	16991
2026-01-04 21:51:30.91	93.93	15.65	-23.4	-23.8	16.7	0.00e+00	0	34	0	29779558400	22	16996
2026-01-04 21:51:33.94	94.89	15.58	-23.4	-23.8	16.7	0.00e+00	0	34	0	30123491328	22	16955
2026-01-04 21:51:36.96	95.85	15.51	-23.5	-23.9	16.7	5.40e-06	0	34	0	30459035648	22	17105
2026-01-04 21:51:39.99	96.80	15.43	-23.5	-23.9	16.7	0.00e+00	0	34	0	30802968576	22	17081
2026-01-04 21:51:43.01	97.74	15.34	-23.4	-23.9	16.8	0.00e+00	0	34	0	31138512896	22	17013
2026-01-04 21:51:46.04	98.69	15.25	-23.5	-23.9	16.8	0.00e+00	0	34	0	31482445824	22	17170
2026-01-04 21:51:49.07	99.62	15.15	-23.5	-23.9	16.8	0.00e+00	0	34	0	31817990144	22	17067
2026-01-04 21:51:52.10	100.55	15.05	-23.5	-23.9	16.9	0.00e+00	0	34	0	32161923072	22	17145
2026-01-04 21:51:55.13	101.47	14.94	-23.5	-23.9	16.9	0.00e+00	0	34	0	32497467392	22	17159
2026-01-04 21:51:58.16	102.38	14.82	-23.7	-24.2	16.9	0.00e+00	0	34	0	32841400320	22	17619
2026-01-04 21:52:01.18	103.28	14.70	-23.5	-23.9	16.9	0.00e+00	0	34	0	33176944640	22	17177
2026-01-04 21:52:04.21	104.17	14.57	-23.8	-24.2	16.9	0.00e+00	0	34	0	33520877568	22	17684
2026-01-04 21:52:07.24	105.06	14.44	-24.0	-24.4	17.0	0.00e+00	0	34	0	33864810496	22	18155
2026-01-04 21:52:10.26	105.93	14.31	-24.0	-24.4	17.0	0.00e+00	0	34	0	34200354816	24	16233
2026-01-04 21:52:13.29	106.80	14.17	-24.3	-24.7	17.0	0.00e+00	0	34	0	34544287744	24	16797
2026-01-04 21:52:16.32	107.66	14.03	-24.4	-24.9	17.0	0.00e+00	0	34	0	34888220672	24	17014
2026-01-04 21:52:19.34	108.50	13.88	-24.2	-24.6	17.1	5.40e-06	0	34	0	35232153600	24	16578
2026-01-04 21:52:22.37	109.34	13.73	-24.5	-24.9	17.1	0.00e+00	0	34	0	35567697920	24	17055
2026-01-04 21:52:25.40	110.17	13.57	-24.1	-24.5	17.1	0.00e+00	0	34	0	35911630848	24	16383
2026-01-04 21:52:28.43	110.99	13.41	-48.4	-50.9	6.1	0.00e+00	0	34	104	36003905536	60	42810
2026-01-04 21:52:31.47	111.80	13.25	-48.4	-50.9	6.1	0.00e+00	0	34	104	36003905536	60	42724
2026-01-04 21:52:34.49	112.60	13.09	-48.4	-50.9	6.1	0.00e+00	0	34	104	36003905536	60	42814
2026-01-04 21:52:37.52	113.38	12.92	-48.3	-50.8	6.1	0.00e+00	0	34	104	36003905536	60	42465
2026-01-04 21:52:40.55	114.16	12.75	-48.4	-50.9	6.1	0.00e+00	0	34	104	36003905536	60	42858
2026-01-04 21:52:43.58	114.93	12.57	-48.3	-50.8	6.1	0.00e+00	0	34	104	36003905536	60	42620
2026-01-04 21:52:46.61	115.68	12.40	-48.4	-50.9	6.1	0.00e+00	0	34	104	36003905536	60	43072
2026-01-04 21:52:49.63	116.42	12.22	-48.4	-50.9	6.1	0.00e+00	0	33	104	36003905536	60	43103
2026-01-04 21:52:52.66	117.16	12.04	-48.4	-50.9	6.1	0.00e+00	0	33	104	36003905536	60	42761
2026-01-04 21:52:55.69	117.88	11.86	-48.4	-50.9	6.1	0.00e+00	0	33	104	36003905536	60	42759
2026-01-04 21:52:58.72	118.60	11.67	-48.2	-50.8	6.1	0.00e+00	0	33	104	36003905536	60	42247
2026-01-04 21:53:01.75	119.30	11.49	-48.3	-50.9	6.1	0.00e+00	0	33	104	36003905536	60	42722
2026-01-04 21:53:04.78	119.99	11.30	-48.4	-50.9	6.1	0.00e+00	0	33	104	36003905536	60	42845
2026-01-04 21:53:07.80	120.67	11.11	-48.4	-50.9	6.1	0.00e+00	0	34	104	36003905536	60	42768
2026-01-04 21:53:10.83	121.35	10.92	-48.4	-50.9	6.1	0.00e+00	0	33	104	36003905536	60	43188
2026-01-04 21:53:13.86	122.01	10.73	-48.4	-50.9	6.1	0.00e+00	0	33	104	36003905536	60	42787
2026-01-04 21:53:16.89	122.66	10.54	-48.4	-50.8	6.1	0.00e+00	0	33	104	36003905536	60	42651
2026-01-04 21:53:19.91	123.30	10.35	-48.3	-50.8	6.1	0.00e+00	0	34	104	36003905536	60	42587
2026-01-04 21:53:22.95	123.93	10.16	-48.2	-50.7	6.1	0.00e+00	0	34	104	36003905536	60	42127
2026-01-04 21:53:25.97	124.55	9.96	-48.3	-50.7	6.1	0.00e+00	0	33	104	36003905536	60	41983
2026-01-04 21:53:29.00	125.17	9.77	-48.0	-50.5	6.1	0.00e+00	0	33	104	36003905536	60	41122
2026-01-04 21:53:32.03	125.77	9.58	-48.3	-50.8	6.1	0.00e+00	0	33	104	36003905536	60	42357
2026-01-04 21:53:35.06	126.36	9.38	-48.2	-50.7	6.1	0.00e+00	0	33	104	36003905536	60	41898
2026-01-04 21:53:38.09	126.95	9.19	-48.1	-50.5	6.1	0.00e+00	0	33	104	36003905536	60	41251
2026-01-04 21:53:41.11	127.52	8.99	-48.3	-50.7	6.1	0.00e+00	0	33	104	36003905536	60	41887
2026-01-04 21:53:44.14	128.08	8.79	-48.3	-50.8	6.1	0.00e+00	0	33	104	36003905536	60	42357
2026-01-04 21:53:47.16	128.64	8.60	-48.2	-50.7	6.1	0.00e+00	0	33	104	36003905536	60	41953
2026-01-04 21:53:50.19	129.19	8.40	-48.3	-50.8	6.1	0.00e+00	0	33	104	36003905536	60	42602
2026-01-04 21:53:53.22	129.73	8.21	-48.2	-50.7	6.1	0.00e+00	0	33	104	36003905536	60	41995
2026-01-04 21:53:56.25	130.26	8.01	-48.2	-50.8	6.1	0.00e+00	0	33	104	36003905536	60	42280
2026-01-04 21:53:59.27	130.78	7.82	-48.2	-50.8	6.1	0.00e+00	0	33	104	36003905536	60	42247
2026-01-04 21:54:02.30	131.29	7.63	-48.2	-50.7	6.0	0.00e+00	0	33	104	36003905536	60	42174
2026-01-04 21:54:05.32	131.79	7.43	-48.1	-50.6	6.1	0.00e+00	0	33	104	36003905536	60	41353
2026-01-04 21:54:08.35	132.29	7.24	-48.2	-50.7	6.1	0.00e+00	0	33	104	36003905536	60	41757
2026-01-04 21:54:11.38	132.78	7.04	-48.1	-50.6	6.1	0.00e+00	0	33	104	36003905536	60	41611
2026-01-04 21:54:14.41	133.26	6.85	-48.1	-50.6	6.1	0.00e+00	0	33	104	36003905536	60	41704
2026-01-04 21:54:17.44	133.74	6.66	-48.0	-50.5	6.1	0.00e+00	0	34	104	36003905536	60	40915
2026-01-04 21:54:20.47	134.20	6.47	-48.0	-50.5	6.0	0.00e+00	0	33	104	36003905536	60	40999
2026-01-04 21:54:23.50	134.66	6.27	-48.0	-50.5	6.1	0.00e+00	0	33	104	36003905536	60	41001
2026-01-04 21:54:26.53	135.11	6.08	-47.9	-50.4	6.1	0.00e+00	0	33	104	36003905536	60	40567
2026-01-04 21:54:29.55	135.56	5.89	-47.9	-50.4	6.1	0.00e+00	0	33	104	36003905536	60	40522
2026-01-04 21:54:32.58	136.00	5.70	-47.8	-50.3	6.1	0.00e+00	0	33	104	36003905536	60	40294
2026-01-04 21:54:35.61	136.43	5.51	-47.8	-50.3	6.1	0.00e+00	0	33	104	36003905536	60	39875
2026-01-04 21:54:38.64	136.85	5.33	-47.8	-50.3	6.1	0.00e+00	0	33	104	36003905536	60	39940
2026-01-04 21:54:41.67	137.27	5.14	-47.8	-50.3	6.1	0.00e+00	0	33	104	36003905536	60	39979
2026-01-04 21:54:44.70	137.68	4.95	-47.7	-50.2	6.1	0.00e+00	0	33	104	36003905536	60	39517
2026-01-04 21:54:47.73	138.08	4.77	-47.7	-50.2	6.1	0.00e+00	0	33	104	36003905536	60	39673
2026-01-04 21:54:50.76	138.48	4.58	-47.5	-50.0	6.1	0.00e+00	0	33	104	36003905536	60	38790
2026-01-04 21:54:53.79	138.88	4.39	-47.3	-49.8	6.1	0.00e+00	0	33	104	36003905536	60	37937
2026-01-04 21:54:56.82	139.26	4.21	-47.4	-49.9	6.1	0.00e+00	0	33	104	36003905536	60	38086
2026-01-04 21:54:59.84	139.64	4.03	-47.1	-49.6	6.1	0.00e+00	0	33	104	36003905536	60	36940
2026-01-04 21:55:02.87	140.02	3.85	-45.5	-48.5	6.1	0.00e+00	0	33	104	36003905536	60	32459
2026-01-04 21:55:05.90	140.39	3.66	-45.4	-47.7	6.1	0.00e+00	0	33	104	36003905536	60	29744
2026-01-04 21:55:08.92	140.75	3.48	-46.0	-48.5	6.1	0.00e+00	0	33	104	36003905536	60	32469
2026-01-04 21:55:11.95	141.11	3.30	-45.8	-48.4	6.1	0.00e+00	0	33	104	36003905536	60	32140
2026-01-04 21:55:14.98	141.46	3.12	-45.3	-47.9	6.1	0.00e+00	0	33	104	36003905536	60	30347
2026-01-04 21:55:18.01	141.81	2.94	-47.5	-50.0	6.1	0.00e+00	0	33	104	36003905536	60	38594
2026-01-04 21:55:21.03	142.15	2.77	-48.6	-51.1	6.1	0.00e+00	0	33	104	36003905536	60	43855
2026-01-04 21:55:24.06	142.49	2.59	-48.9	-51.3	6.1	0.00e+00	0	33	104	36003905536	60	44905
2026-01-04 21:55:27.09	142.82	2.41	-48.9	-51.4	6.1	0.00e+00	0	33	104	36003905536	60	45418
2026-01-04 21:55:30.12	143.15	2.24	-48.9	-51.4	6.1	0.00e+00	0	33	104	36003905536	60	45376
2026-01-04 21:55:33.15	143.47	2.06	-48.9	-51.3	6.1	0.00e+00	0	33	104	36003905536	60	45153
2026-01-04 21:55:36.18	143.79	1.89	-48.9	-51.3	6.1	0.00e+00	0	33	104	36003905536	60	45011
2026-01-04 21:55:39.21	144.10	1.72	-48.9	-51.4	6.1	0.00e+00	0	33	104	36003905536	60	45362
2026-01-04 21:55:42.24	144.41	1.54	-49.1	-51.5	6.1	0.00e+00	0	33	104	36003905536	60	46149
2026-01-04 21:55:45.27	144.72	1.37	-48.9	-51.4	6.1	0.00e+00	0	33	104	36003905536	60	45263
2026-01-04 21:55:48.30	145.02	1.20	-49.0	-51.5	6.1	0.00e+00	0	33	104	36003905536	60	45774
2026-01-04 21:55:51.33	145.32	1.03	-49.3	-51.8	6.1	0.00e+00	0	33	104	36003905536	60	47581
2026-01-04 21:55:54.35	145.61	0.86	-49.4	-51.8	6.1	0.00e+00	0	33	104	36003905536	60	47914
2026-01-04 21:55:57.38	145.90	0.70	-49.6	-52.1	6.1	0.00e+00	0	33	104	36003905536	60	49118
2026-01-04 21:56:00.41	146.18	0.53	-49.4	-51.9	6.1	0.00e+00	0	33	104	36003905536	60	48234
2026-01-04 21:56:03.44	146.46	0.36	-49.4	-51.9	6.1	0.00e+00	0	33	104	36003905536	60	48152
2026-01-04 21:56:06.47	146.74	0.19	-49.3	-51.7	6.1	0.00e+00	0	33	104	36003905536	60	47265
2026-01-04 21:56:09.50	147.01	0.03	-49.1	-51.6	6.1	0.00e+00	0	33	104	36003905536	60	46613
2026-01-04 21:56:12.53	147.28	-0.14	-49.2	-51.6	6.1	0.00e+00	0	33	104	36003905536	60	46743

#Closed at: 2026-01-04 21:56:12
#Recorded file [36003 MB]: D:/lorett/data/35029_260105_094625.dat