passes_logs/2026/01/04/R4.6S_Anadyr/R4.6S_Anadyr__20260104_035240_FENGYUN_3E_rec.log

#Pass ID: 20260104_035240_FENGYUN 3E
#Satellite: FENGYUN 3E
#Configuration: FENGYUN 3E
#almurnet v.1.7.20251203
#Start time: 2026-01-04 03:52:41

#Version: 2.2.20231116
#Station: R4.6S_Anadyr
#Location: 177.4865 lon 64.73178 lat
#TLE: 1 49008U 21062A   26003.51942929 -.00000034  00000+0  45519-5 0  9990
#TLE: 2 49008  98.7472   8.7829 0001426 160.7926 199.3304 14.19883272233213

#Time	Az	El	Level	Level2	SNR	BER	BlckErr	Temp	State	Recorded	gain1	gain2
2026-01-04 03:52:41.71	140.99	0.08	-50.8	-68.6	3.5	3.02e+01	0	37	0	0	60	103435
2026-01-04 03:52:45.75	140.93	0.32	-50.3	-61.5	3.6	8.46e-01	0	38	104	0	60	42902
2026-01-04 03:52:49.79	140.87	0.57	-50.1	-61.2	3.6	8.46e-01	0	38	104	0	60	41727
2026-01-04 03:52:53.83	140.81	0.82	-49.9	-61.2	3.6	8.46e-01	0	38	104	0	60	41593
2026-01-04 03:52:57.87	140.75	1.06	-47.3	-58.7	3.6	8.45e-01	0	38	104	0	60	30948
2026-01-04 03:53:01.91	140.69	1.32	-47.3	-58.3	3.6	8.47e-01	0	38	104	0	60	29611
2026-01-04 03:53:05.95	140.63	1.57	-47.1	-58.6	3.6	8.46e-01	0	38	104	0	60	30911
2026-01-04 03:53:09.98	140.57	1.82	-47.0	-57.0	3.6	8.45e-01	0	39	104	0	60	25505
2026-01-04 03:53:14.02	140.50	2.08	-47.1	-58.3	3.6	8.45e-01	0	39	104	0	60	29661
2026-01-04 03:53:18.06	140.44	2.34	-47.4	-58.5	3.5	8.45e-01	0	39	104	0	60	30407
2026-01-04 03:53:22.10	140.37	2.60	-47.2	-58.3	3.6	8.45e-01	0	39	104	0	60	29556
2026-01-04 03:53:26.14	140.30	2.87	-47.3	-58.4	3.6	8.46e-01	0	39	104	0	60	30094
2026-01-04 03:53:30.17	140.23	3.13	-47.1	-54.8	4.1	8.40e-01	0	39	104	0	60	19809
2026-01-04 03:53:34.21	140.16	3.40	-45.7	-49.2	8.8	4.14e-02	0	39	0	15728640	60	10367
2026-01-04 03:53:38.25	140.08	3.67	-43.6	-45.8	11.8	5.24e-04	0	39	0	45088768	60	7048
2026-01-04 03:53:42.29	140.01	3.95	-44.9	-47.6	10.9	2.48e-01	0	39	0	59768832	60	8627
2026-01-04 03:53:46.33	139.93	4.23	-41.7	-43.3	14.7	0.00e+00	0	39	0	83886080	56	6671
2026-01-04 03:53:50.37	139.85	4.51	-40.9	-42.3	15.4	0.00e+00	0	39	0	112197632	56	5964
2026-01-04 03:53:54.41	139.77	4.79	-40.6	-41.9	16.0	0.00e+00	0	39	0	141557760	54	6343
2026-01-04 03:53:58.45	139.69	5.08	-40.0	-41.2	16.1	0.00e+00	0	39	0	170917888	54	5833
2026-01-04 03:54:02.48	139.60	5.36	-39.8	-40.9	17.7	0.00e+00	0	39	0	200278016	52	6327
2026-01-04 03:54:06.52	139.52	5.66	-39.0	-40.1	18.2	0.00e+00	0	39	0	229638144	52	5780
2026-01-04 03:54:10.56	139.43	5.95	-38.5	-39.4	19.3	0.00e+00	0	39	0	257949696	52	5351
2026-01-04 03:54:14.60	139.34	6.25	-38.4	-39.3	19.7	0.00e+00	0	39	0	287309824	50	5919
2026-01-04 03:54:18.64	139.25	6.55	-37.9	-38.8	20.7	0.00e+00	0	39	0	316669952	50	5567
2026-01-04 03:54:22.68	139.15	6.86	-37.6	-38.4	21.2	0.00e+00	0	39	0	346030080	48	5972
2026-01-04 03:54:26.72	139.06	7.17	-36.4	-37.1	21.9	0.00e+00	0	39	0	375390208	46	5816
2026-01-04 03:54:30.75	138.96	7.48	-36.0	-36.8	22.5	0.00e+00	0	39	0	403701760	46	5568
2026-01-04 03:54:34.78	138.86	7.80	-35.8	-36.5	22.7	0.00e+00	0	39	0	433061888	44	6085
2026-01-04 03:54:38.81	138.75	8.12	-36.3	-37.0	22.4	0.00e+00	0	39	0	462422016	44	6440
2026-01-04 03:54:42.85	138.65	8.44	-35.5	-36.2	23.4	0.00e+00	0	39	0	491782144	44	5869
2026-01-04 03:54:46.89	138.54	8.77	-34.8	-35.5	23.6	0.00e+00	0	39	0	521142272	42	6058
2026-01-04 03:54:50.94	138.43	9.10	-34.6	-35.2	24.1	0.00e+00	0	39	0	550502400	42	5884
2026-01-04 03:54:54.97	138.31	9.44	-34.7	-35.3	24.1	0.00e+00	0	39	0	578813952	42	5964
2026-01-04 03:54:59.01	138.19	9.78	-34.3	-34.9	24.4	0.00e+00	0	39	0	608174080	42	5683
2026-01-04 03:55:03.04	138.07	10.13	-34.7	-35.4	24.2	0.00e+00	0	39	0	637534208	42	5967
2026-01-04 03:55:07.08	137.95	10.48	-34.5	-35.1	24.4	0.00e+00	0	39	0	666894336	42	5824
2026-01-04 03:55:11.12	137.82	10.84	-34.1	-34.7	24.6	0.00e+00	0	39	0	696254464	42	5535
2026-01-04 03:55:15.16	137.69	11.20	-33.9	-34.6	24.9	0.00e+00	0	39	0	724566016	42	5449
2026-01-04 03:55:19.20	137.55	11.57	-34.1	-34.7	24.9	0.00e+00	0	39	0	753926144	42	5550
2026-01-04 03:55:23.23	137.42	11.94	-34.0	-34.7	24.9	0.00e+00	0	39	0	783286272	42	5509
2026-01-04 03:55:27.28	137.27	12.32	-33.5	-34.2	25.1	0.00e+00	0	39	0	812646400	40	5853
2026-01-04 03:55:31.32	137.13	12.70	-33.9	-34.5	24.8	0.00e+00	0	39	0	840957952	40	6083
2026-01-04 03:55:35.36	136.98	13.09	-33.2	-33.8	25.4	0.00e+00	0	39	0	870318080	40	5623
2026-01-04 03:55:39.39	136.82	13.48	-33.3	-33.9	25.6	0.00e+00	0	39	0	899678208	40	5642
2026-01-04 03:55:43.43	136.66	13.89	-33.5	-34.1	25.4	0.00e+00	0	39	0	929038336	40	5786
2026-01-04 03:55:47.47	136.50	14.29	-33.0	-33.6	25.6	0.00e+00	0	39	0	958398464	40	5454
2026-01-04 03:55:51.51	136.33	14.71	-32.7	-33.3	25.9	0.00e+00	0	39	0	986710016	38	5949
2026-01-04 03:55:55.55	136.15	15.13	-32.7	-33.3	25.9	0.00e+00	0	39	0	1016070144	38	5920
2026-01-04 03:55:59.59	135.98	15.56	-32.3	-33.0	26.1	0.00e+00	0	39	0	1045430272	38	5702
2026-01-04 03:56:03.63	135.79	16.00	-32.9	-33.5	26.1	0.00e+00	0	39	0	1074790400	38	6086
2026-01-04 03:56:07.66	135.60	16.44	-32.5	-33.1	26.3	0.00e+00	0	39	0	1104150528	38	5773
2026-01-04 03:56:11.70	135.40	16.89	-32.6	-33.2	26.3	0.00e+00	0	39	0	1132462080	38	5868
2026-01-04 03:56:15.73	135.20	17.35	-32.7	-33.3	26.2	0.00e+00	0	39	0	1161822208	38	5923
2026-01-04 03:56:19.77	134.99	17.82	-32.3	-32.9	26.6	0.00e+00	0	39	0	1191182336	38	5659
2026-01-04 03:56:23.81	134.77	18.30	-32.5	-33.1	26.6	0.00e+00	0	39	0	1220542464	38	5769
2026-01-04 03:56:27.84	134.55	18.78	-32.4	-33.0	26.5	0.00e+00	0	39	0	1249902592	38	5756
2026-01-04 03:56:31.88	134.31	19.28	-32.6	-33.2	26.3	0.00e+00	0	39	0	1279262720	38	5861
2026-01-04 03:56:35.92	134.07	19.78	-32.0	-32.6	26.6	0.00e+00	0	39	0	1307574272	38	5488
2026-01-04 03:56:39.96	133.82	20.30	-32.3	-32.9	26.5	0.00e+00	0	39	0	1336934400	38	5638
2026-01-04 03:56:43.99	133.56	20.82	-31.8	-32.4	26.8	0.00e+00	0	40	0	1366294528	36	6000
2026-01-04 03:56:48.03	133.30	21.35	-31.8	-32.4	27.0	0.00e+00	0	39	0	1395654656	36	6003
2026-01-04 03:56:52.06	133.02	21.90	-32.0	-32.6	26.6	0.00e+00	0	39	0	1423966208	36	6160
2026-01-04 03:56:56.10	132.73	22.46	-31.4	-32.0	27.3	0.00e+00	0	39	0	1453326336	36	5750
2026-01-04 03:57:00.14	132.43	23.03	-31.6	-32.2	27.0	0.00e+00	0	40	0	1482686464	36	5884
2026-01-04 03:57:04.18	132.12	23.61	-31.3	-31.9	27.4	0.00e+00	0	40	0	1512046592	36	5639
2026-01-04 03:57:08.22	131.80	24.20	-31.7	-32.3	27.3	0.00e+00	0	40	0	1540358144	36	5951
2026-01-04 03:57:12.25	131.46	24.80	-31.2	-31.8	27.6	0.00e+00	0	39	0	1569718272	36	5625
2026-01-04 03:57:16.30	131.11	25.42	-31.0	-31.6	27.5	0.00e+00	0	40	0	1599078400	36	5480
2026-01-04 03:57:20.34	130.75	26.06	-31.3	-31.9	27.6	0.00e+00	0	39	0	1628438528	36	5680
2026-01-04 03:57:24.37	130.37	26.70	-31.3	-31.9	27.6	0.00e+00	0	40	0	1657798656	36	5679
2026-01-04 03:57:28.41	129.97	27.36	-31.7	-32.3	27.5	0.00e+00	0	40	0	1686110208	36	5904
2026-01-04 03:57:32.45	129.56	28.03	-31.9	-32.5	26.8	0.00e+00	0	40	0	1715470336	36	6083
2026-01-04 03:57:36.49	129.12	28.72	-31.9	-32.5	27.1	0.00e+00	0	40	0	1744830464	36	6044
2026-01-04 03:57:40.53	128.67	29.43	-30.9	-31.5	27.8	0.00e+00	0	40	0	1774190592	36	5399
2026-01-04 03:57:44.57	128.20	30.15	-31.0	-31.6	27.7	0.00e+00	0	40	0	1803550720	36	5464
2026-01-04 03:57:48.60	127.70	30.89	-30.2	-30.8	28.1	0.00e+00	0	40	0	1832910848	34	5583
2026-01-04 03:57:52.65	127.18	31.64	-30.3	-30.8	28.0	0.00e+00	0	39	0	1861222400	34	5628
2026-01-04 03:57:56.69	126.64	32.41	-30.8	-31.4	27.8	0.00e+00	0	40	0	1890582528	34	5996
2026-01-04 03:58:00.73	126.07	33.20	-31.3	-31.9	27.4	0.00e+00	0	40	0	1919942656	34	6343
2026-01-04 03:58:04.76	125.47	34.00	-30.7	-31.3	28.0	0.00e+00	0	40	0	1949302784	34	5944
2026-01-04 03:58:08.80	124.83	34.83	-31.0	-31.6	27.7	0.00e+00	0	40	0	1978662912	34	6143
2026-01-04 03:58:12.83	124.17	35.66	-31.0	-31.6	27.5	0.00e+00	0	40	0	2008023040	34	6159
2026-01-04 03:58:16.87	123.46	36.52	-31.8	-32.4	27.5	0.00e+00	0	40	0	2036334592	36	5980
2026-01-04 03:58:20.91	122.72	37.40	-31.4	-32.0	27.3	0.00e+00	0	40	0	2065694720	36	5749
2026-01-04 03:58:24.94	121.94	38.29	-31.0	-31.6	27.5	0.00e+00	0	40	0	2095054848	36	5468
2026-01-04 03:58:28.98	121.11	39.20	-31.8	-32.4	27.2	0.00e+00	0	40	0	2124414976	34	6768
2026-01-04 03:58:33.02	120.23	40.13	-31.4	-32.0	27.3	0.00e+00	0	40	0	2153775104	36	5706
2026-01-04 03:58:37.06	119.30	41.07	-31.5	-32.1	27.4	0.00e+00	0	40	0	2182086656	36	5815
2026-01-04 03:58:41.09	118.32	42.03	-30.8	-31.4	27.8	0.00e+00	0	40	0	2211446784	36	5347
2026-01-04 03:58:45.13	117.27	43.00	-31.1	-31.7	27.8	0.00e+00	0	40	0	2240806912	34	6184
2026-01-04 03:58:49.17	116.15	43.99	-31.2	-31.8	27.6	0.00e+00	0	40	0	2269118464	34	6297
2026-01-04 03:58:53.20	114.97	44.99	-31.3	-31.9	27.4	0.00e+00	0	40	0	2298478592	36	5682
2026-01-04 03:58:57.25	113.70	46.00	-31.3	-31.9	27.3	0.00e+00	0	40	0	2327838720	36	5671
2026-01-04 03:59:01.28	112.35	47.02	-32.2	-32.9	26.9	0.00e+00	0	40	0	2357198848	38	5635
2026-01-04 03:59:05.32	110.91	48.05	-32.7	-33.3	26.7	0.00e+00	0	40	0	2386558976	38	5907
2026-01-04 03:59:09.36	109.36	49.08	-32.6	-33.2	26.5	0.00e+00	0	40	0	2414870528	38	5891
2026-01-04 03:59:13.39	107.72	50.11	-31.8	-32.4	27.0	0.00e+00	0	40	0	2444230656	36	6001
2026-01-04 03:59:17.43	105.95	51.13	-32.3	-32.9	26.8	0.00e+00	0	40	0	2473590784	36	6335
2026-01-04 03:59:21.47	104.06	52.15	-33.0	-33.6	26.3	0.00e+00	0	40	0	2502950912	38	6148
2026-01-04 03:59:25.51	102.03	53.15	-31.5	-32.1	27.1	0.00e+00	0	40	0	2532311040	36	5786
2026-01-04 03:59:29.55	99.86	54.13	-32.9	-33.6	26.6	0.00e+00	0	40	0	2561671168	38	6111
2026-01-04 03:59:33.59	97.54	55.09	-32.2	-32.7	27.2	0.00e+00	0	40	0	2589982720	38	5560
2026-01-04 03:59:37.62	95.06	56.01	-33.3	-33.9	26.4	0.00e+00	0	40	0	2619342848	38	6329
2026-01-04 03:59:41.65	92.42	56.89	-32.3	-32.9	27.2	0.00e+00	0	40	0	2648702976	38	5632
2026-01-04 03:59:45.69	89.60	57.72	-32.6	-33.3	26.5	0.00e+00	0	40	0	2678063104	38	5897
2026-01-04 03:59:49.73	86.61	58.49	-32.5	-33.1	26.4	0.00e+00	0	40	0	2707423232	38	5816
2026-01-04 03:59:53.76	83.45	59.19	-33.4	-34.0	26.0	0.00e+00	0	40	0	2735734784	38	6456
2026-01-04 03:59:57.80	80.12	59.82	-32.5	-33.1	26.8	0.00e+00	0	40	0	2765094912	38	5775
2026-01-04 04:00:01.84	76.64	60.36	-32.4	-33.0	26.6	0.00e+00	0	40	0	2794455040	38	5727
2026-01-04 04:00:05.87	73.03	60.81	-33.1	-33.7	26.5	0.00e+00	0	40	0	2823815168	38	6205
2026-01-04 04:00:09.91	69.29	61.15	-32.5	-33.1	26.5	0.00e+00	0	40	0	2852126720	38	5807
2026-01-04 04:00:13.95	65.47	61.39	-32.9	-33.6	26.4	0.00e+00	0	40	0	2881486848	38	6106
2026-01-04 04:00:17.99	61.59	61.51	-32.9	-33.4	26.9	0.00e+00	0	40	0	2910846976	38	6018
2026-01-04 04:00:22.02	57.71	61.52	-32.9	-33.5	26.7	0.00e+00	0	40	0	2940207104	38	6056
2026-01-04 04:00:26.06	53.82	61.41	-32.8	-33.4	26.5	0.00e+00	0	40	0	2968518656	38	6004
2026-01-04 04:00:30.10	49.99	61.19	-32.5	-33.1	26.0	0.00e+00	0	40	0	2997878784	38	5824
2026-01-04 04:00:34.14	46.24	60.86	-32.8	-33.4	26.2	0.00e+00	0	40	0	3027238912	38	6001
2026-01-04 04:00:38.18	42.61	60.43	-33.4	-34.1	26.2	0.00e+00	0	40	0	3056599040	38	6466
2026-01-04 04:00:42.21	39.12	59.91	-32.8	-33.4	26.7	0.00e+00	0	40	0	3085959168	38	5998
2026-01-04 04:00:46.25	35.77	59.29	-32.7	-33.3	26.7	0.00e+00	0	40	0	3115319296	38	5915
2026-01-04 04:00:50.28	32.59	58.60	-31.7	-32.3	27.3	0.00e+00	0	40	0	3143630848	36	5930
2026-01-04 04:00:54.32	29.58	57.84	-32.1	-32.7	26.8	0.00e+00	0	40	0	3172990976	36	6238
2026-01-04 04:00:58.36	26.74	57.02	-33.0	-33.6	26.5	0.00e+00	0	40	0	3202351104	38	6136
2026-01-04 04:01:02.40	24.07	56.14	-32.1	-32.7	26.8	0.00e+00	0	40	0	3231711232	38	5565
2026-01-04 04:01:06.43	21.57	55.23	-32.5	-33.1	26.6	0.00e+00	0	40	0	3261071360	38	5801
2026-01-04 04:01:10.47	19.23	54.28	-33.8	-34.4	26.1	0.00e+00	0	40	0	3289382912	42	5331
2026-01-04 04:01:14.51	17.04	53.30	-32.9	-33.5	26.5	0.00e+00	0	40	0	3318743040	38	6045
2026-01-04 04:01:18.55	15.00	52.31	-32.2	-32.8	26.9	0.00e+00	0	40	0	3348103168	38	5617
2026-01-04 04:01:22.58	13.10	51.30	-31.9	-32.5	27.1	0.00e+00	0	40	0	3377463296	38	5406
2026-01-04 04:01:26.61	11.32	50.28	-32.4	-33.0	26.8	0.00e+00	0	40	0	3405774848	38	5714
2026-01-04 04:01:30.65	9.65	49.25	-32.3	-32.9	26.9	0.00e+00	0	40	0	3435134976	36	6331
2026-01-04 04:01:34.69	8.10	48.22	-31.7	-32.3	27.1	0.00e+00	0	40	0	3464495104	36	5926
2026-01-04 04:01:38.73	6.64	47.20	-31.4	-32.0	27.4	0.00e+00	0	40	0	3493855232	36	5724
2026-01-04 04:01:42.76	5.28	46.18	-31.3	-31.9	27.4	0.00e+00	0	40	0	3523215360	36	5644
2026-01-04 04:01:46.80	4.01	45.17	-30.9	-31.5	27.6	0.00e+00	0	40	0	3551526912	36	5431
2026-01-04 04:01:50.84	2.81	44.17	-32.8	-33.3	26.8	0.00e+00	0	40	0	3580887040	38	5963
2026-01-04 04:01:54.88	1.69	43.18	-31.4	-32.0	27.6	0.00e+00	0	40	0	3610247168	36	5715
2026-01-04 04:01:58.92	0.63	42.21	-31.1	-31.7	27.6	0.00e+00	0	40	0	3639607296	36	5510
2026-01-04 04:02:02.96	359.64	41.25	-31.7	-32.3	27.6	0.00e+00	0	40	0	3668967424	36	5920
2026-01-04 04:02:06.99	358.70	40.31	-32.1	-32.7	27.4	0.00e+00	0	40	0	3697278976	38	5532
2026-01-04 04:02:11.03	357.82	39.38	-31.6	-32.2	27.4	0.00e+00	0	40	0	3726639104	36	5859
2026-01-04 04:02:15.06	356.99	38.47	-31.2	-31.7	27.6	0.00e+00	0	40	0	3755999232	36	5562
2026-01-04 04:02:19.10	356.20	37.58	-31.2	-31.8	27.3	0.00e+00	0	40	0	3785359360	34	6289
2026-01-04 04:02:23.14	355.45	36.71	-31.2	-31.8	27.7	0.00e+00	0	40	0	3814719488	36	5599
2026-01-04 04:02:27.17	354.75	35.85	-31.0	-31.6	28.0	0.00e+00	0	40	0	3844079616	36	5449
2026-01-04 04:02:31.21	354.08	35.01	-30.8	-31.4	28.0	0.00e+00	0	40	0	3872391168	34	5999
2026-01-04 04:02:35.25	353.44	34.19	-31.4	-32.0	27.8	0.00e+00	0	40	0	3901751296	36	5732
2026-01-04 04:02:39.29	352.84	33.38	-31.3	-31.9	27.9	0.00e+00	0	40	0	3931111424	36	5635
2026-01-04 04:02:43.32	352.27	32.60	-31.4	-32.0	27.9	0.00e+00	0	40	0	3959422976	36	5738
2026-01-04 04:02:47.36	351.72	31.83	-31.1	-31.7	27.9	0.00e+00	0	40	0	3988783104	36	5547
2026-01-04 04:02:51.40	351.20	31.07	-32.2	-32.8	27.8	0.00e+00	0	40	0	4018143232	36	6303
2026-01-04 04:02:55.43	350.70	30.34	-31.7	-32.3	27.8	0.00e+00	0	40	0	4047503360	36	5927
2026-01-04 04:02:59.47	350.23	29.61	-31.9	-32.5	27.0	0.00e+00	0	40	0	4076863488	36	6070
2026-01-04 04:03:03.51	349.77	28.91	-32.4	-33.0	27.0	0.00e+00	0	40	0	4105175040	38	5718
2026-01-04 04:03:07.54	349.34	28.22	-32.9	-33.5	26.6	0.00e+00	0	40	0	4134535168	38	6084
2026-01-04 04:03:11.58	348.93	27.54	-32.8	-33.5	26.4	0.00e+00	0	40	0	4163895296	40	5385
2026-01-04 04:03:15.62	348.53	26.88	-32.5	-33.1	27.1	0.00e+00	0	40	0	4193255424	36	6535
2026-01-04 04:03:19.65	348.15	26.24	-31.5	-32.1	27.7	0.00e+00	0	40	0	4222615552	36	5794
2026-01-04 04:03:23.69	347.78	25.61	-30.9	-31.5	27.6	0.00e+00	0	40	0	4250927104	36	5413
2026-01-04 04:03:27.73	347.43	24.99	-31.1	-31.7	27.4	0.00e+00	0	40	0	4280287232	34	6201
2026-01-04 04:03:31.77	347.10	24.38	-30.9	-31.4	27.6	0.00e+00	0	40	0	4309647360	34	6030
2026-01-04 04:03:35.81	346.77	23.79	-31.2	-31.8	27.4	0.00e+00	0	40	0	4339007488	34	6287
2026-01-04 04:03:39.85	346.46	23.21	-31.8	-32.4	27.2	0.00e+00	0	40	0	4368367616	36	5977
2026-01-04 04:03:43.88	346.16	22.64	-31.3	-31.9	27.3	0.00e+00	0	40	0	4396679168	36	5639
2026-01-04 04:03:47.93	345.88	22.08	-31.5	-32.1	27.1	0.00e+00	0	40	0	4426039296	36	5774
2026-01-04 04:03:51.97	345.60	21.53	-31.8	-32.4	27.3	0.00e+00	0	40	0	4455399424	36	5987
2026-01-04 04:03:56.01	345.33	21.00	-31.9	-32.5	27.1	0.00e+00	0	40	0	4484759552	36	6101
2026-01-04 04:04:00.05	345.07	20.47	-32.2	-32.8	26.7	0.00e+00	0	40	0	4514119680	36	6283
2026-01-04 04:04:04.09	344.82	19.96	-33.5	-34.1	26.6	0.00e+00	0	40	0	4543479808	38	6515
2026-01-04 04:04:08.13	344.58	19.45	-33.0	-33.6	26.5	0.00e+00	0	40	0	4571791360	38	6124
2026-01-04 04:04:12.17	344.35	18.96	-33.0	-33.6	26.4	0.00e+00	0	40	0	4601151488	38	6148
2026-01-04 04:04:16.20	344.13	18.47	-33.2	-33.8	26.3	0.00e+00	0	40	0	4630511616	38	6316
2026-01-04 04:04:20.24	343.91	18.00	-33.8	-34.4	26.1	0.00e+00	0	40	0	4659871744	40	6018
2026-01-04 04:04:24.27	343.70	17.53	-33.3	-34.0	26.0	0.00e+00	0	40	0	4689231872	40	5699
2026-01-04 04:04:28.31	343.50	17.07	-33.7	-34.3	25.7	0.00e+00	0	40	0	4717543424	40	5954
2026-01-04 04:04:32.35	343.31	16.62	-33.6	-34.3	25.7	0.00e+00	0	40	0	4746903552	40	5903
2026-01-04 04:04:36.39	343.12	16.17	-34.6	-35.3	24.7	0.00e+00	0	40	0	4776263680	40	6631
2026-01-04 04:04:40.43	342.93	15.73	-33.6	-34.3	25.6	0.00e+00	0	40	0	4805623808	40	5902
2026-01-04 04:04:44.46	342.75	15.31	-32.9	-33.5	26.1	0.00e+00	0	40	0	4833935360	40	5439
2026-01-04 04:04:48.50	342.58	14.88	-33.0	-33.6	25.8	0.00e+00	0	40	0	4863295488	40	5480
2026-01-04 04:04:52.54	342.41	14.47	-33.7	-34.4	25.2	0.00e+00	0	40	0	4892655616	40	5975
2026-01-04 04:04:56.58	342.25	14.06	-33.5	-34.1	25.4	0.00e+00	0	40	0	4922015744	40	5817
2026-01-04 04:05:00.62	342.09	13.66	-34.3	-35.0	25.3	0.00e+00	0	40	0	4951375872	42	5713
2026-01-04 04:05:04.66	341.94	13.26	-34.5	-35.2	25.0	0.00e+00	0	40	0	4979687424	42	5838
2026-01-04 04:05:08.70	341.79	12.87	-34.3	-35.0	24.8	0.00e+00	0	40	0	5009047552	42	5709
2026-01-04 04:05:12.74	341.65	12.49	-35.7	-36.4	24.8	0.00e+00	0	40	0	5038407680	44	5982
2026-01-04 04:05:16.78	341.51	12.11	-35.2	-35.9	24.5	0.00e+00	0	40	0	5067767808	42	6327
2026-01-04 04:05:20.82	341.37	11.74	-35.5	-36.2	24.5	0.00e+00	0	40	0	5097127936	44	5858
2026-01-04 04:05:24.85	341.24	11.37	-35.0	-35.7	24.2	0.00e+00	0	40	0	5125439488	42	6179
2026-01-04 04:05:28.89	341.11	11.01	-35.6	-36.3	24.3	0.00e+00	0	40	0	5154799616	44	5935
2026-01-04 04:05:32.93	340.99	10.65	-35.5	-36.1	24.0	0.00e+00	0	40	0	5184159744	44	5820
2026-01-04 04:05:36.97	340.86	10.30	-35.9	-36.6	24.0	0.00e+00	0	40	0	5213519872	44	6107
2026-01-04 04:05:41.01	340.74	9.96	-36.2	-36.9	24.1	0.00e+00	0	40	0	5242880000	44	6347
2026-01-04 04:05:45.05	340.63	9.61	-35.9	-36.6	24.0	0.00e+00	0	40	0	5272240128	46	5491
2026-01-04 04:05:49.09	340.52	9.28	-37.2	-37.9	22.8	0.00e+00	0	40	0	5300551680	46	6339
2026-01-04 04:05:53.13	340.41	8.94	-35.9	-36.6	23.5	0.00e+00	0	40	0	5329911808	44	6132
2026-01-04 04:05:57.16	340.30	8.62	-36.6	-37.3	23.2	0.00e+00	0	40	0	5359271936	46	5956
2026-01-04 04:06:01.20	340.20	8.29	-36.0	-36.7	23.5	0.00e+00	0	40	0	5388632064	44	6179
2026-01-04 04:06:05.24	340.10	7.97	-36.7	-37.4	23.4	0.00e+00	0	40	0	5417992192	46	5972
2026-01-04 04:06:09.28	340.00	7.65	-36.8	-37.5	23.3	0.00e+00	0	40	0	5446303744	46	6054
2026-01-04 04:06:13.31	339.90	7.34	-35.6	-36.3	23.3	0.00e+00	0	40	0	5475663872	44	5899
2026-01-04 04:06:17.35	339.81	7.03	-36.6	-37.3	23.0	0.00e+00	0	40	0	5505024000	46	5951
2026-01-04 04:06:21.39	339.72	6.72	-36.2	-36.9	23.1	0.00e+00	0	40	0	5534384128	46	5680
2026-01-04 04:06:25.43	339.63	6.42	-36.6	-37.4	22.7	0.00e+00	0	40	0	5563744256	46	5974
2026-01-04 04:06:29.47	339.54	6.12	-36.5	-37.2	22.8	0.00e+00	0	40	0	5592055808	44	6581
2026-01-04 04:06:33.50	339.45	5.83	-37.0	-37.8	21.8	0.00e+00	0	40	0	5621415936	44	7019
2026-01-04 04:06:37.54	339.37	5.54	-37.8	-38.6	20.9	0.00e+00	0	40	0	5650776064	48	6135
2026-01-04 04:06:41.58	339.29	5.25	-38.4	-39.3	19.0	0.00e+00	0	40	0	5680136192	48	6687
2026-01-04 04:06:45.62	339.21	4.96	-40.1	-41.4	16.5	0.00e+00	0	40	0	5708447744	52	6700
2026-01-04 04:06:49.66	339.13	4.68	-42.5	-44.6	12.2	2.13e-04	0	40	0	5737807872	56	7729
2026-01-04 04:06:53.70	339.06	4.40	-43.4	-46.5	9.1	1.51e-02	0	40	0	5767168000	58	8589
2026-01-04 04:06:57.74	338.98	4.12	-45.1	-50.2	5.3	5.75e-01	0	40	0	5795479552	60	11643
2026-01-04 04:07:01.77	338.91	3.85	-45.6	-54.5	3.8	8.40e-01	0	40	104	5797576704	60	19174
2026-01-04 04:07:05.81	338.84	3.57	-45.1	-55.1	3.6	8.45e-01	0	40	104	5797576704	60	20574
2026-01-04 04:07:09.85	338.77	3.30	-45.9	-57.1	3.6	8.46e-01	0	40	104	5797576704	60	25833
2026-01-04 04:07:13.89	338.71	3.04	-45.6	-56.9	3.6	8.45e-01	0	40	104	5797576704	60	25187
2026-01-04 04:07:17.92	338.64	2.77	-50.9	-62.0	3.6	8.46e-01	0	40	104	5797576704	60	45718
2026-01-04 04:07:21.96	338.58	2.51	-50.7	-62.0	3.6	8.44e-01	0	40	104	5797576704	60	45739
2026-01-04 04:07:26.01	338.51	2.25	-51.5	-62.9	3.6	8.45e-01	0	40	104	5797576704	60	50267
2026-01-04 04:07:30.04	338.45	2.00	-51.1	-62.3	3.6	8.46e-01	0	40	104	5797576704	60	47104
2026-01-04 04:07:34.08	338.39	1.74	-51.2	-62.5	3.6	8.44e-01	0	40	104	5797576704	60	48348
2026-01-04 04:07:38.12	338.33	1.49	-51.4	-62.7	3.6	8.45e-01	0	40	104	5797576704	60	49367
2026-01-04 04:07:42.16	338.28	1.24	-50.6	-61.9	3.6	8.45e-01	0	40	104	5797576704	60	44818
2026-01-04 04:07:46.20	338.22	0.99	-50.9	-62.2	3.6	8.44e-01	0	40	104	5797576704	60	46444
2026-01-04 04:07:50.23	338.17	0.74	-50.3	-61.6	3.6	8.46e-01	0	40	104	5797576704	60	43212
2026-01-04 04:07:54.27	338.11	0.50	-51.9	-63.1	3.6	8.44e-01	0	40	104	5797576704	60	51885
2026-01-04 04:07:58.31	338.06	0.25	-51.2	-62.5	3.6	8.44e-01	0	40	104	5797576704	60	47932
2026-01-04 04:08:02.35	338.01	0.01	-52.0	-63.3	3.6	8.45e-01	0	40	104	5797576704	60	52830

#Closed at: 2026-01-04 04:08:05
#Recorded file [5797 MB]: D:/lorett/data/35029_260104_155241.dat