passes_logs/2026/01/04/R4.6S_Anadyr/R4.6S_Anadyr__20260104_133055_NOAA_20_JPSS-1_rec.log

#Pass ID: 20260104_133055_NOAA 20 (JPSS-1)
#Satellite: NOAA 20 (JPSS-1)
#Configuration: NOAA 20
#almurnet v.1.7.20251203
#Start time: 2026-01-04 13:30:58

#Version: 2.2.20231116
#Station: R4.6S_Anadyr
#Location: 177.4865 lon 64.73178 lat
#TLE: 1 43013U 17073A   26003.41800368  .00000169  00000+0  10117-3 0  9998
#TLE: 2 43013  98.7624 304.4804 0001884  56.1176 304.0179 14.19532918421092

#Time	Az	El	Level	Level2	SNR	BER	BlckErr	Temp	State	Recorded	gain1	gain2
2026-01-04 13:30:58.25	18.98	0.16	-49.7	-64.6	3.5	1.51e+00	0	38	0	0	60	61537
2026-01-04 13:31:02.29	19.14	0.39	-49.7	-64.9	3.6	1.51e+00	0	39	104	0	60	63524
2026-01-04 13:31:06.32	19.31	0.62	-49.5	-64.7	3.6	1.51e+00	0	39	104	0	60	62313
2026-01-04 13:31:10.36	19.47	0.85	-49.2	-64.4	3.6	1.51e+00	0	39	104	0	60	59771
2026-01-04 13:31:14.40	19.65	1.09	-48.3	-63.5	3.6	1.51e+00	0	39	104	0	60	54031
2026-01-04 13:31:18.44	19.82	1.32	-48.0	-63.2	3.6	1.51e+00	0	40	104	0	60	52101
2026-01-04 13:31:22.48	19.99	1.56	-48.0	-63.2	3.6	1.51e+00	0	39	104	0	60	52303
2026-01-04 13:31:26.52	20.17	1.80	-48.0	-63.1	3.5	1.51e+00	0	40	104	0	60	51627
2026-01-04 13:31:30.56	20.35	2.05	-48.0	-63.2	3.6	1.51e+00	0	39	104	0	60	52341
2026-01-04 13:31:34.60	20.54	2.29	-48.0	-63.2	3.6	1.51e+00	0	39	104	0	60	52421
2026-01-04 13:31:38.63	20.72	2.54	-48.0	-62.4	3.6	1.51e+00	0	39	104	0	60	47698
2026-01-04 13:31:42.67	20.91	2.78	-47.9	-61.3	3.6	1.51e+00	0	40	104	0	60	41836
2026-01-04 13:31:46.71	21.11	3.03	-45.8	-49.9	12.1	1.56e-04	0	40	0	5242880	60	11238
2026-01-04 13:31:50.75	21.30	3.29	-43.0	-45.0	16.9	0.00e+00	0	40	0	12582912	58	7209
2026-01-04 13:31:54.78	21.50	3.54	-45.2	-48.6	13.6	0.00e+00	0	40	0	19922944	60	9696
2026-01-04 13:31:58.82	21.70	3.80	-47.9	-62.8	3.6	3.91e-01	0	40	104	27262976	60	49685
2026-01-04 13:32:02.85	21.90	4.06	-44.1	-46.5	16.0	0.00e+00	0	40	0	30408704	60	7619
2026-01-04 13:32:06.89	22.11	4.32	-42.8	-44.6	17.7	0.00e+00	0	40	0	38797312	58	6882
2026-01-04 13:32:10.92	22.32	4.58	-42.6	-44.4	18.3	0.00e+00	0	40	0	46137344	58	6693
2026-01-04 13:32:14.96	22.54	4.84	-42.7	-44.5	18.0	0.00e+00	0	40	0	53477376	58	6834
2026-01-04 13:32:19.00	22.76	5.11	-42.4	-44.1	18.6	0.00e+00	0	40	0	60817408	58	6508
2026-01-04 13:32:23.03	22.98	5.38	-42.4	-44.0	18.8	0.00e+00	0	40	0	69206016	58	6446
2026-01-04 13:32:27.07	23.20	5.65	-42.3	-44.0	18.8	0.00e+00	0	40	0	76546048	58	6411
2026-01-04 13:32:31.09	23.43	5.93	-42.5	-44.2	18.4	0.00e+00	0	40	0	83886080	58	6602
2026-01-04 13:32:35.13	23.67	6.21	-42.5	-44.1	18.7	0.00e+00	0	40	0	91226112	58	6501
2026-01-04 13:32:39.17	23.90	6.49	-42.5	-44.1	18.6	0.00e+00	0	40	0	98566144	58	6519
2026-01-04 13:32:43.21	24.15	6.77	-42.3	-43.9	19.0	0.00e+00	0	40	0	106954752	58	6360
2026-01-04 13:32:47.24	24.39	7.06	-41.8	-43.2	19.7	0.00e+00	0	40	0	114294784	56	6606
2026-01-04 13:32:51.27	24.64	7.34	-41.4	-42.7	20.2	0.00e+00	0	40	0	121634816	56	6245
2026-01-04 13:32:55.31	24.90	7.64	-41.6	-43.0	20.0	0.00e+00	0	40	0	128974848	56	6403
2026-01-04 13:32:59.34	25.16	7.93	-41.2	-42.4	20.5	0.00e+00	0	40	0	137363456	56	6032
2026-01-04 13:33:03.38	25.42	8.23	-41.4	-42.8	20.3	0.00e+00	0	40	0	144703488	56	6248
2026-01-04 13:33:07.41	25.69	8.53	-40.7	-41.9	21.1	0.00e+00	0	40	0	152043520	54	6355
2026-01-04 13:33:11.45	25.97	8.83	-40.6	-41.8	21.1	0.00e+00	0	40	0	159383552	54	6285
2026-01-04 13:33:15.49	26.25	9.14	-40.6	-41.8	21.2	0.00e+00	0	40	0	166723584	54	6247
2026-01-04 13:33:19.52	26.54	9.45	-40.4	-41.5	21.4	0.00e+00	0	40	0	175112192	54	6098
2026-01-04 13:33:23.56	26.83	9.76	-40.7	-41.9	21.1	0.00e+00	0	40	0	182452224	54	6363
2026-01-04 13:33:27.60	27.13	10.08	-40.4	-41.5	21.6	0.00e+00	0	40	0	189792256	54	6063
2026-01-04 13:33:31.64	27.43	10.40	-40.1	-41.2	21.9	0.00e+00	0	40	0	197132288	54	5835
2026-01-04 13:33:35.67	27.74	10.72	-39.8	-40.8	22.2	0.00e+00	0	40	0	205520896	52	6290
2026-01-04 13:33:39.71	28.06	11.05	-39.7	-40.7	22.3	0.00e+00	0	40	0	212860928	52	6204
2026-01-04 13:33:43.75	28.39	11.38	-39.7	-40.8	22.3	0.00e+00	0	40	0	220200960	52	6261
2026-01-04 13:33:47.78	28.72	11.72	-39.9	-40.9	22.3	0.00e+00	0	40	0	227540992	52	6379
2026-01-04 13:33:51.82	29.05	12.05	-39.6	-40.6	22.5	0.00e+00	0	40	0	234881024	52	6151
2026-01-04 13:33:55.85	29.40	12.40	-39.4	-40.4	22.5	0.00e+00	0	40	0	243269632	52	6009
2026-01-04 13:33:59.88	29.75	12.74	-39.4	-40.3	22.7	0.00e+00	0	40	0	250609664	52	5964
2026-01-04 13:34:03.91	30.11	13.09	-39.2	-40.2	22.8	0.00e+00	0	40	0	257949696	52	5845
2026-01-04 13:34:07.94	30.48	13.45	-38.9	-39.8	23.2	0.00e+00	0	40	0	265289728	52	5629
2026-01-04 13:34:11.97	30.86	13.80	-38.9	-39.8	23.2	0.00e+00	0	40	0	272629760	52	5597
2026-01-04 13:34:16.00	31.25	14.17	-38.7	-39.6	23.5	0.00e+00	0	40	0	281018368	50	6118
2026-01-04 13:34:20.04	31.64	14.53	-38.9	-39.9	23.2	0.00e+00	0	40	0	288358400	50	6319
2026-01-04 13:34:24.07	32.05	14.91	-38.7	-39.6	23.4	0.00e+00	0	40	0	295698432	50	6139
2026-01-04 13:34:28.11	32.47	15.28	-38.8	-39.7	23.3	0.00e+00	0	40	0	303038464	50	6241
2026-01-04 13:34:32.14	32.89	15.66	-39.1	-40.1	23.1	0.00e+00	0	40	0	310378496	50	6474
2026-01-04 13:34:36.18	33.33	16.05	-39.2	-40.2	23.0	0.00e+00	0	40	0	318767104	50	6551
2026-01-04 13:34:40.22	33.78	16.44	-39.0	-39.9	23.2	0.00e+00	0	40	0	326107136	50	6358
2026-01-04 13:34:44.26	34.23	16.83	-39.1	-40.0	23.1	0.00e+00	0	40	0	333447168	50	6427
2026-01-04 13:34:48.29	34.70	17.23	-39.1	-40.0	23.1	0.00e+00	0	40	0	340787200	50	6461
2026-01-04 13:34:52.33	35.19	17.64	-39.4	-40.3	22.7	0.00e+00	0	40	0	349175808	50	6684
2026-01-04 13:34:56.36	35.68	18.05	-39.8	-40.8	22.6	0.00e+00	0	40	0	356515840	52	6295
2026-01-04 13:35:00.40	36.19	18.46	-40.0	-41.1	22.3	0.00e+00	0	40	0	363855872	52	6479
2026-01-04 13:35:04.44	36.71	18.88	-40.0	-41.1	22.2	0.00e+00	0	40	0	371195904	52	6471
2026-01-04 13:35:08.48	37.25	19.30	-40.1	-41.2	22.1	0.00e+00	0	40	0	378535936	52	6542
2026-01-04 13:35:12.51	37.80	19.73	-40.2	-41.3	22.0	0.00e+00	0	40	0	386924544	52	6621
2026-01-04 13:35:16.54	38.36	20.16	-40.1	-41.2	22.2	0.00e+00	0	40	0	394264576	52	6565
2026-01-04 13:35:20.56	38.94	20.60	-40.0	-41.0	22.3	0.00e+00	0	40	0	401604608	52	6462
2026-01-04 13:35:24.59	39.54	21.04	-39.8	-40.8	22.5	0.00e+00	0	40	0	408944640	52	6285
2026-01-04 13:35:28.62	40.15	21.49	-39.9	-40.9	22.4	0.00e+00	0	40	0	416284672	52	6353
2026-01-04 13:35:32.66	40.79	21.94	-40.0	-41.1	22.3	0.00e+00	0	40	0	423624704	52	6467
2026-01-04 13:35:36.69	41.44	22.40	-40.0	-41.0	22.3	0.00e+00	0	40	0	430964736	52	6461
2026-01-04 13:35:40.73	42.11	22.86	-39.6	-40.5	22.8	0.00e+00	0	40	0	439353344	52	6099
2026-01-04 13:35:44.77	42.80	23.33	-39.5	-40.5	22.8	0.00e+00	0	40	0	446693376	52	6066
2026-01-04 13:35:48.81	43.51	23.80	-39.4	-40.4	22.8	0.00e+00	0	40	0	454033408	52	5977
2026-01-04 13:35:52.85	44.24	24.27	-39.3	-40.2	23.1	0.00e+00	0	40	0	461373440	52	5880
2026-01-04 13:35:56.88	44.99	24.75	-38.6	-39.4	23.8	0.00e+00	0	40	0	468713472	50	6015
2026-01-04 13:36:00.91	45.76	25.23	-38.5	-39.4	23.9	0.00e+00	0	40	0	477102080	50	5965
2026-01-04 13:36:04.95	46.56	25.72	-38.5	-39.3	23.8	0.00e+00	0	40	0	484442112	50	5951
2026-01-04 13:36:08.99	47.39	26.21	-38.4	-39.3	24.0	0.00e+00	0	40	0	491782144	50	5939
2026-01-04 13:36:13.03	48.24	26.70	-38.8	-39.8	23.5	0.00e+00	0	40	0	499122176	50	6255
2026-01-04 13:36:17.06	49.11	27.19	-39.0	-40.0	23.3	0.00e+00	0	40	0	507510784	50	6403
2026-01-04 13:36:21.10	50.01	27.69	-39.4	-40.4	23.0	0.00e+00	0	40	0	514850816	50	6697
2026-01-04 13:36:25.13	50.94	28.19	-39.4	-40.3	23.0	0.00e+00	0	40	0	522190848	50	6689
2026-01-04 13:36:29.17	51.90	28.68	-39.6	-40.6	22.8	0.00e+00	0	40	0	529530880	50	6876
2026-01-04 13:36:33.21	52.89	29.18	-40.1	-41.1	22.3	0.00e+00	0	40	0	536870912	52	6527
2026-01-04 13:36:37.25	53.91	29.68	-40.8	-41.9	21.6	0.00e+00	0	40	0	545259520	54	6367
2026-01-04 13:36:41.29	54.96	30.18	-41.1	-42.3	21.3	0.00e+00	0	40	0	552599552	54	6666
2026-01-04 13:36:45.32	56.04	30.67	-41.0	-42.2	21.4	0.00e+00	0	40	0	559939584	54	6541
2026-01-04 13:36:49.36	57.15	31.16	-42.7	-44.1	19.6	0.00e+00	0	40	0	567279616	56	7330
2026-01-04 13:36:53.40	58.30	31.65	-43.6	-45.3	18.4	0.00e+00	0	40	0	575668224	58	7440
2026-01-04 13:36:57.44	59.48	32.13	-42.8	-44.2	19.5	0.00e+00	0	40	0	583008256	58	6608
2026-01-04 13:37:01.47	60.70	32.61	-43.4	-45.1	18.6	0.00e+00	0	40	0	590348288	58	7268
2026-01-04 13:37:05.51	61.95	33.08	-43.7	-45.5	18.4	0.00e+00	0	40	0	597688320	60	6809
2026-01-04 13:37:09.55	63.24	33.54	-42.5	-43.9	19.7	0.00e+00	0	40	0	605028352	58	6339
2026-01-04 13:37:13.59	64.57	34.00	-42.4	-43.9	19.8	0.00e+00	0	40	0	613416960	58	6328
2026-01-04 13:37:17.62	65.93	34.44	-42.4	-43.7	19.9	0.00e+00	0	40	0	620756992	58	6245
2026-01-04 13:37:21.65	67.32	34.87	-41.8	-43.1	20.6	0.00e+00	0	40	0	628097024	58	5771
2026-01-04 13:37:25.69	68.76	35.28	-41.4	-42.6	20.8	0.00e+00	0	40	0	635437056	56	6143
2026-01-04 13:37:29.73	70.23	35.69	-40.8	-41.9	21.7	0.00e+00	0	40	0	643825664	56	5675
2026-01-04 13:37:33.76	71.74	36.07	-39.4	-40.3	23.1	0.00e+00	0	40	0	651165696	52	5944
2026-01-04 13:37:37.80	73.28	36.44	-39.8	-40.8	22.7	0.00e+00	0	40	0	658505728	52	6270
2026-01-04 13:37:41.84	74.85	36.79	-39.8	-40.8	22.7	0.00e+00	0	40	0	665845760	52	6284
2026-01-04 13:37:45.87	76.46	37.12	-40.6	-41.7	21.9	0.00e+00	0	40	0	673185792	52	6939
2026-01-04 13:37:49.92	78.10	37.42	-40.4	-41.5	22.0	0.00e+00	0	40	0	681574400	52	6791
2026-01-04 13:37:53.95	79.77	37.71	-40.8	-41.9	21.7	0.00e+00	0	40	0	688914432	54	6354
2026-01-04 13:37:57.99	81.47	37.96	-41.0	-42.1	21.3	0.00e+00	0	40	0	696254464	54	6486
2026-01-04 13:38:02.03	83.19	38.20	-41.1	-42.2	21.2	0.00e+00	0	40	0	703594496	54	6607
2026-01-04 13:38:06.07	84.94	38.40	-41.0	-42.2	21.2	0.00e+00	0	40	0	711983104	54	6574
2026-01-04 13:38:10.10	86.70	38.57	-42.0	-43.3	20.4	0.00e+00	0	40	0	719323136	56	6643
2026-01-04 13:38:14.14	88.48	38.72	-42.0	-43.3	20.4	0.00e+00	0	40	0	726663168	56	6636
2026-01-04 13:38:18.17	90.28	38.83	-42.6	-44.1	19.6	0.00e+00	0	40	0	734003200	58	6492
2026-01-04 13:38:22.21	92.09	38.92	-43.1	-44.6	19.1	0.00e+00	0	39	0	741343232	58	6890
2026-01-04 13:38:26.24	93.90	38.97	-42.2	-43.6	20.0	0.00e+00	0	40	0	749731840	58	6139
2026-01-04 13:38:30.28	95.72	38.99	-42.0	-43.3	20.2	0.00e+00	0	40	0	757071872	58	5961
2026-01-04 13:38:34.31	97.54	38.98	-41.3	-42.5	21.1	0.00e+00	0	40	0	764411904	56	6098
2026-01-04 13:38:38.34	99.35	38.94	-40.7	-41.9	21.6	0.00e+00	0	40	0	771751936	54	6320
2026-01-04 13:38:42.37	101.16	38.87	-41.8	-43.0	20.6	0.00e+00	0	40	0	779091968	56	6446
2026-01-04 13:38:46.41	102.96	38.76	-42.4	-43.7	19.9	0.00e+00	0	40	0	787480576	56	6977
2026-01-04 13:38:50.45	104.76	38.63	-43.5	-45.2	18.5	0.00e+00	0	40	0	794820608	58	7410
2026-01-04 13:38:54.49	106.53	38.46	-41.8	-43.1	20.6	0.00e+00	0	40	0	802160640	58	5818
2026-01-04 13:38:58.52	108.28	38.27	-42.4	-43.8	19.9	0.00e+00	0	40	0	809500672	56	7037
2026-01-04 13:39:02.56	110.01	38.05	-40.4	-41.4	22.1	0.00e+00	0	39	0	817889280	54	6032
2026-01-04 13:39:06.59	111.72	37.80	-39.2	-40.2	23.3	0.00e+00	0	40	0	825229312	52	5840
2026-01-04 13:39:10.62	113.40	37.52	-40.2	-41.2	22.3	0.00e+00	0	40	0	832569344	52	6588
2026-01-04 13:39:14.65	115.05	37.23	-39.3	-40.3	23.2	0.00e+00	0	40	0	839909376	52	5911
2026-01-04 13:39:18.69	116.67	36.90	-38.0	-38.9	24.4	0.00e+00	0	40	0	847249408	50	5636
2026-01-04 13:39:22.72	118.26	36.56	-39.1	-40.0	23.5	0.00e+00	0	40	0	855638016	50	6446
2026-01-04 13:39:26.76	119.82	36.20	-38.1	-39.0	24.3	0.00e+00	0	40	0	862978048	50	5710
2026-01-04 13:39:30.79	121.34	35.82	-37.4	-38.2	24.9	0.00e+00	0	39	0	870318080	48	5878
2026-01-04 13:39:34.83	122.82	35.42	-38.3	-39.2	24.1	0.00e+00	0	40	0	877658112	48	6575
2026-01-04 13:39:38.87	124.27	35.01	-38.6	-39.5	23.7	0.00e+00	0	40	0	884998144	48	6807
2026-01-04 13:39:42.91	125.69	34.58	-39.0	-40.0	23.4	0.00e+00	0	40	0	893386752	50	6404
2026-01-04 13:39:46.95	127.07	34.14	-39.3	-40.2	23.2	0.00e+00	0	40	0	900726784	50	6588
2026-01-04 13:39:50.99	128.41	33.69	-40.2	-41.3	22.1	0.00e+00	0	40	0	908066816	52	6651
2026-01-04 13:39:55.02	129.71	33.22	-39.4	-40.4	23.1	0.00e+00	0	40	0	915406848	52	5980
2026-01-04 13:39:59.06	130.98	32.75	-41.4	-42.6	21.0	0.00e+00	0	40	0	923795456	54	6885
2026-01-04 13:40:03.09	132.21	32.28	-40.2	-41.3	22.0	0.00e+00	0	40	0	931135488	54	5915
2026-01-04 13:40:07.13	133.41	31.79	-39.9	-40.9	22.5	0.00e+00	0	40	0	938475520	54	5670
2026-01-04 13:40:11.16	134.57	31.31	-41.0	-42.2	21.4	0.00e+00	0	40	0	945815552	54	6557
2026-01-04 13:40:15.20	135.70	30.81	-40.5	-41.6	21.8	0.00e+00	0	40	0	953155584	54	6144
2026-01-04 13:40:19.24	136.80	30.32	-41.3	-42.5	21.0	0.00e+00	0	40	0	961544192	54	6810
2026-01-04 13:40:23.27	137.86	29.82	-38.7	-39.6	23.7	0.00e+00	0	40	0	968884224	52	5482
2026-01-04 13:40:27.30	138.89	29.32	-40.1	-41.2	22.3	0.00e+00	0	39	0	976224256	52	6568
2026-01-04 13:40:31.34	139.89	28.82	-38.4	-39.3	23.9	0.00e+00	0	40	0	983564288	50	5931
2026-01-04 13:40:35.37	140.86	28.32	-39.9	-40.9	22.5	0.00e+00	0	39	0	990904320	52	6369
2026-01-04 13:40:39.41	141.80	27.82	-37.6	-38.4	24.5	0.00e+00	0	40	0	999292928	48	6027
2026-01-04 13:40:43.45	142.72	27.32	-38.7	-39.7	23.5	0.00e+00	0	40	0	1006632960	50	6175
2026-01-04 13:40:47.48	143.60	26.82	-36.6	-37.3	25.6	0.00e+00	0	40	0	1013972992	46	5932
2026-01-04 13:40:51.51	144.46	26.33	-38.9	-39.9	23.3	0.00e+00	0	39	0	1021313024	50	6363
2026-01-04 13:40:55.55	145.29	25.84	-37.8	-38.6	24.4	0.00e+00	0	39	0	1029701632	48	6153
2026-01-04 13:40:59.58	146.10	25.35	-36.9	-37.6	25.2	0.00e+00	0	40	0	1037041664	46	6148
2026-01-04 13:41:03.61	146.88	24.86	-37.5	-38.3	24.7	0.00e+00	0	40	0	1044381696	48	5962
2026-01-04 13:41:07.64	147.65	24.38	-36.5	-37.2	25.5	0.00e+00	0	40	0	1051721728	46	5875
2026-01-04 13:41:11.68	148.39	23.90	-37.4	-38.2	24.8	0.00e+00	0	40	0	1059061760	46	6584
2026-01-04 13:41:15.71	149.10	23.43	-37.1	-37.9	25.0	0.00e+00	0	40	0	1067450368	46	6384
2026-01-04 13:41:19.74	149.80	22.96	-37.7	-38.6	24.5	0.00e+00	0	40	0	1074790400	46	6857
2026-01-04 13:41:23.78	150.48	22.49	-37.6	-38.4	24.6	0.00e+00	0	40	0	1082130432	48	5984
2026-01-04 13:41:27.82	151.13	22.03	-37.5	-38.3	24.6	0.00e+00	0	39	0	1089470464	48	5933
2026-01-04 13:41:31.86	151.77	21.57	-38.0	-38.9	24.2	0.00e+00	0	40	0	1097859072	48	6320
2026-01-04 13:41:35.90	152.40	21.12	-38.0	-38.9	24.1	0.00e+00	0	40	0	1105199104	48	6344
2026-01-04 13:41:39.93	153.00	20.67	-38.5	-39.4	23.6	0.00e+00	0	40	0	1112539136	48	6762
2026-01-04 13:41:43.97	153.59	20.23	-39.6	-40.6	22.5	0.00e+00	0	39	0	1119879168	50	6884
2026-01-04 13:41:48.00	154.16	19.79	-39.0	-40.0	23.1	0.00e+00	0	40	0	1127219200	50	6393
2026-01-04 13:41:52.03	154.71	19.36	-39.4	-40.4	22.4	0.00e+00	0	40	0	1135607808	50	6756
2026-01-04 13:41:56.07	155.25	18.93	-40.6	-41.8	21.2	0.00e+00	0	40	0	1142947840	52	7015
2026-01-04 13:42:00.10	155.78	18.51	-40.6	-41.8	21.0	0.00e+00	0	40	0	1150287872	52	7079
2026-01-04 13:42:04.13	156.29	18.09	-39.3	-40.4	22.4	0.00e+00	0	39	0	1157627904	52	5972
2026-01-04 13:42:08.17	156.79	17.68	-38.6	-39.5	23.4	0.00e+00	0	40	0	1164967936	50	6064
2026-01-04 13:42:12.21	157.28	17.27	-38.7	-39.6	23.3	0.00e+00	0	40	0	1173356544	50	6127
2026-01-04 13:42:16.24	157.75	16.87	-38.8	-39.7	23.3	0.00e+00	0	40	0	1180696576	50	6194
2026-01-04 13:42:20.28	158.21	16.47	-39.3	-40.3	22.8	0.00e+00	0	40	0	1188036608	50	6657
2026-01-04 13:42:24.31	158.66	16.08	-39.0	-40.0	22.9	0.00e+00	0	40	0	1195376640	50	6424
2026-01-04 13:42:28.36	159.10	15.69	-39.2	-40.2	22.8	0.00e+00	0	40	0	1203765248	50	6611
2026-01-04 13:42:32.39	159.53	15.30	-39.5	-40.6	22.4	0.00e+00	0	40	0	1211105280	50	6866
2026-01-04 13:42:36.43	159.95	14.92	-39.4	-40.5	22.6	0.00e+00	0	40	0	1218445312	52	6037
2026-01-04 13:42:40.47	160.36	14.55	-39.6	-40.6	22.4	0.00e+00	0	40	0	1225785344	52	6131
2026-01-04 13:42:44.51	160.76	14.17	-39.0	-40.0	22.9	0.00e+00	0	40	0	1233125376	52	5725
2026-01-04 13:42:48.55	161.14	13.81	-39.0	-39.9	23.0	0.00e+00	0	40	0	1241513984	52	5661
2026-01-04 13:42:52.59	161.52	13.45	-39.2	-40.2	22.7	0.00e+00	0	40	0	1248854016	52	5879
2026-01-04 13:42:56.63	161.90	13.09	-39.6	-40.6	22.4	0.00e+00	0	40	0	1256194048	52	6142
2026-01-04 13:43:00.67	162.26	12.73	-39.7	-40.7	22.1	0.00e+00	0	40	0	1263534080	52	6230
2026-01-04 13:43:04.70	162.61	12.38	-39.8	-40.9	22.1	0.00e+00	0	40	0	1271922688	52	6331
2026-01-04 13:43:08.74	162.96	12.04	-39.9	-41.0	22.0	0.00e+00	0	40	0	1279262720	52	6395
2026-01-04 13:43:12.78	163.30	11.70	-39.9	-41.0	21.9	0.00e+00	0	40	0	1286602752	52	6440
2026-01-04 13:43:16.81	163.63	11.36	-40.1	-41.2	21.7	0.00e+00	0	40	0	1293942784	52	6545
2026-01-04 13:43:20.85	163.96	11.03	-40.5	-41.6	21.3	0.00e+00	0	40	0	1301282816	52	6906
2026-01-04 13:43:24.89	164.27	10.69	-41.0	-42.2	20.8	0.00e+00	0	40	0	1309671424	54	6583
2026-01-04 13:43:28.93	164.58	10.37	-40.8	-42.0	20.9	0.00e+00	0	40	0	1317011456	54	6424
2026-01-04 13:43:32.96	164.89	10.05	-40.5	-41.6	21.2	0.00e+00	0	40	0	1324351488	54	6172
2026-01-04 13:43:37.00	165.19	9.73	-40.4	-41.5	21.3	0.00e+00	0	40	0	1331691520	54	6071
2026-01-04 13:43:41.03	165.48	9.41	-40.3	-41.4	21.4	0.00e+00	0	40	0	1340080128	54	6013
2026-01-04 13:43:45.07	165.76	9.10	-40.3	-41.4	21.6	0.00e+00	0	40	0	1347420160	54	5984
2026-01-04 13:43:49.11	166.04	8.79	-40.6	-41.8	21.1	0.00e+00	0	40	0	1354760192	54	6259
2026-01-04 13:43:53.14	166.32	8.48	-41.0	-42.2	20.6	0.00e+00	0	40	0	1362100224	54	6584
2026-01-04 13:43:57.18	166.59	8.18	-41.5	-42.8	20.0	0.00e+00	0	40	0	1369440256	54	7049
2026-01-04 13:44:01.21	166.85	7.88	-41.9	-43.3	19.6	0.00e+00	0	40	0	1377828864	56	6660
2026-01-04 13:44:05.25	167.11	7.58	-42.1	-43.6	19.3	0.00e+00	0	40	0	1385168896	56	6896
2026-01-04 13:44:09.29	167.37	7.29	-42.1	-43.6	19.3	0.00e+00	0	40	0	1392508928	56	6860
2026-01-04 13:44:13.32	167.62	7.00	-42.0	-43.5	19.3	0.00e+00	0	40	0	1399848960	56	6813
2026-01-04 13:44:17.36	167.86	6.71	-41.8	-43.2	19.5	0.00e+00	0	40	0	1407188992	56	6613
2026-01-04 13:44:21.40	168.10	6.42	-41.7	-43.1	19.7	0.00e+00	0	40	0	1415577600	56	6478
2026-01-04 13:44:25.44	168.34	6.14	-41.4	-42.8	20.0	0.00e+00	0	40	0	1422917632	56	6247
2026-01-04 13:44:29.48	168.57	5.86	-41.5	-42.9	19.7	0.00e+00	0	40	0	1430257664	56	6383
2026-01-04 13:44:33.51	168.80	5.58	-41.6	-43.1	19.6	0.00e+00	0	40	0	1437597696	56	6480
2026-01-04 13:44:37.55	169.02	5.31	-41.7	-43.2	19.4	0.00e+00	0	40	0	1445986304	56	6550
2026-01-04 13:44:41.59	169.24	5.04	-42.4	-44.0	18.6	0.00e+00	0	40	0	1453326336	56	7208
2026-01-04 13:44:45.62	169.46	4.77	-42.3	-43.9	18.7	0.00e+00	0	40	0	1460666368	56	7156
2026-01-04 13:44:49.66	169.67	4.50	-42.5	-44.3	18.4	0.00e+00	0	40	0	1468006400	58	6625
2026-01-04 13:44:53.70	169.88	4.23	-42.7	-44.6	18.0	0.00e+00	0	40	0	1475346432	58	6855
2026-01-04 13:44:57.73	170.08	3.97	-42.8	-44.6	18.2	0.00e+00	0	40	0	1483735040	58	6892
2026-01-04 13:45:01.77	170.29	3.71	-42.5	-44.3	18.1	0.00e+00	0	40	0	1491075072	58	6640
2026-01-04 13:45:05.81	170.48	3.45	-42.9	-44.8	17.7	0.00e+00	0	40	0	1498415104	58	7084
2026-01-04 13:45:09.85	170.68	3.20	-42.5	-44.3	18.0	0.00e+00	0	40	0	1505755136	58	6680
2026-01-04 13:45:13.89	170.87	2.94	-48.9	-64.1	3.6	1.51e+00	0	40	104	1510998016	60	58214
2026-01-04 13:45:17.92	171.06	2.69	-49.5	-64.7	3.6	1.51e+00	0	40	104	1510998016	60	62055
2026-01-04 13:45:21.96	171.25	2.44	-49.6	-64.8	3.6	1.51e+00	0	40	104	1510998016	60	62958
2026-01-04 13:45:26.00	171.43	2.19	-49.6	-64.8	3.6	1.51e+00	0	40	104	1510998016	60	62630
2026-01-04 13:45:30.04	171.61	1.95	-49.6	-64.8	3.6	1.51e+00	0	40	104	1510998016	60	62520
2026-01-04 13:45:34.07	171.79	1.70	-49.6	-64.7	3.6	1.51e+00	0	40	104	1510998016	60	62168
2026-01-04 13:45:38.11	171.97	1.46	-49.6	-64.8	3.6	1.51e+00	0	40	104	1510998016	60	62497
2026-01-04 13:45:42.15	172.14	1.22	-49.6	-64.8	3.6	1.51e+00	0	40	104	1510998016	60	63143
2026-01-04 13:45:46.18	172.31	0.98	-49.6	-64.8	3.6	1.51e+00	0	40	104	1510998016	60	63029
2026-01-04 13:45:50.22	172.48	0.74	-49.8	-64.9	3.6	1.51e+00	0	40	104	1510998016	60	63554
2026-01-04 13:45:54.26	172.64	0.51	-49.7	-64.9	3.6	1.51e+00	0	40	104	1510998016	60	63603
2026-01-04 13:45:58.30	172.80	0.28	-49.7	-64.9	3.6	1.51e+00	0	40	104	1510998016	60	63848
2026-01-04 13:46:02.33	172.96	0.04	-49.8	-65.0	3.6	1.51e+00	0	40	104	1510998016	60	64453

#Closed at: 2026-01-04 13:46:05
#Recorded file [1510 MB]: D:/lorett/data/35029_260105_013058.dat