passes_logs/2026/01/04/R4.6S_Anadyr/R4.6S_Anadyr__20260104_010450_SUOMI_NPP_rec.log

#Pass ID: 20260104_010450_SUOMI NPP
#Satellite: SUOMI NPP
#Configuration: NPP
#almurnet v.1.7.20251203
#Start time: 2026-01-04 01:04:52

#Version: 2.2.20231116
#Station: R4.6S_Anadyr
#Location: 177.4865 lon 64.73178 lat
#TLE: 1 37849U 11061A   26001.07732418  .00000182  00000+0  10735-3 0  9990
#TLE: 2 37849  98.7795 303.2470 0002580  87.2016 272.9455 14.19520779734739

#Time	Az	El	Level	Level2	SNR	BER	BlckErr	Temp	State	Recorded	gain1	gain2
2026-01-04 01:04:52.12	176.28	0.09	-50.8	-63.3	3.4	1.52e+00	0	38	0	0	60	51538
2026-01-04 01:04:56.16	176.39	0.33	-51.4	-66.7	3.6	1.51e+00	0	39	104	0	60	77762
2026-01-04 01:05:00.20	176.51	0.57	-50.4	-65.6	3.6	1.51e+00	0	39	104	0	60	69032
2026-01-04 01:05:04.24	176.62	0.81	-49.9	-65.1	3.6	1.51e+00	0	39	104	0	60	65295
2026-01-04 01:05:08.28	176.73	1.06	-49.2	-64.5	3.6	1.51e+00	0	39	104	0	60	60356
2026-01-04 01:05:12.31	176.85	1.30	-49.3	-64.5	3.6	1.51e+00	0	39	104	0	60	60615
2026-01-04 01:05:16.35	176.97	1.55	-49.5	-64.7	3.6	1.51e+00	0	39	104	0	60	61760
2026-01-04 01:05:20.39	177.09	1.80	-49.4	-64.5	3.6	1.51e+00	0	39	104	0	60	60940
2026-01-04 01:05:24.42	177.21	2.05	-48.9	-64.1	3.6	1.51e+00	0	39	104	0	60	57739
2026-01-04 01:05:28.47	177.34	2.31	-48.8	-63.9	3.6	1.51e+00	0	39	104	0	60	56877
2026-01-04 01:05:32.50	177.46	2.57	-48.7	-63.5	3.6	1.51e+00	0	39	104	0	60	53932
2026-01-04 01:05:36.54	177.59	2.83	-49.0	-62.0	3.7	1.50e+00	0	39	104	0	60	45756
2026-01-04 01:05:40.58	177.72	3.09	-48.9	-60.6	4.0	1.50e+00	65	39	104	0	60	38743
2026-01-04 01:05:44.61	177.85	3.35	-46.0	-49.0	14.8	7.60e-06	0	39	0	6291456	60	10144
2026-01-04 01:05:48.65	177.99	3.62	-42.6	-44.2	18.9	0.00e+00	0	39	0	13631488	58	6540
2026-01-04 01:05:52.69	178.12	3.89	-44.9	-47.0	17.2	1.27e-01	0	39	0	20971520	60	8111
2026-01-04 01:05:56.73	178.26	4.16	-43.2	-45.0	18.0	0.00e+00	0	39	0	28311552	60	6441
2026-01-04 01:06:00.76	178.40	4.43	-43.0	-44.7	18.4	0.00e+00	0	39	0	36700160	60	6204
2026-01-04 01:06:04.79	178.55	4.71	-42.9	-44.5	18.8	0.00e+00	0	40	0	44040192	58	6809
2026-01-04 01:06:08.82	178.69	4.99	-42.9	-44.5	19.0	0.00e+00	0	40	0	51380224	58	6814
2026-01-04 01:06:12.85	178.84	5.27	-42.8	-44.3	19.0	0.00e+00	0	40	0	58720256	58	6663
2026-01-04 01:06:16.88	178.99	5.55	-43.0	-44.6	19.1	0.00e+00	0	40	0	66060288	58	6865
2026-01-04 01:06:20.92	179.15	5.84	-43.6	-45.2	18.9	0.00e+00	0	40	0	74448896	58	7339
2026-01-04 01:06:24.95	179.30	6.13	-42.2	-43.6	19.9	0.00e+00	0	40	0	81788928	58	6149
2026-01-04 01:06:28.99	179.46	6.43	-42.1	-43.4	20.2	0.00e+00	0	40	0	89128960	58	6015
2026-01-04 01:06:33.02	179.63	6.73	-42.1	-43.4	20.1	0.00e+00	0	40	0	96468992	56	6751
2026-01-04 01:06:37.06	179.79	7.03	-41.3	-42.5	20.9	0.00e+00	0	40	0	104857600	56	6097
2026-01-04 01:06:41.10	179.96	7.33	-41.2	-42.4	20.9	0.00e+00	0	40	0	112197632	56	6001
2026-01-04 01:06:45.14	180.13	7.64	-41.6	-42.7	21.0	0.00e+00	0	40	0	119537664	56	6227
2026-01-04 01:06:49.18	180.31	7.95	-41.2	-42.4	21.1	0.00e+00	0	40	0	126877696	56	5999
2026-01-04 01:06:53.21	180.49	8.27	-41.0	-42.1	21.4	0.00e+00	0	40	0	134217728	56	5823
2026-01-04 01:06:57.25	180.67	8.59	-41.5	-42.7	20.9	0.00e+00	0	40	0	142606336	56	6202
2026-01-04 01:07:01.29	180.86	8.91	-40.9	-42.0	21.5	0.00e+00	0	40	0	149946368	56	5699
2026-01-04 01:07:05.32	181.05	9.24	-41.5	-42.6	21.4	0.00e+00	0	40	0	157286400	56	6166
2026-01-04 01:07:09.36	181.25	9.57	-41.5	-42.6	21.7	0.00e+00	0	40	0	164626432	56	6165
2026-01-04 01:07:13.39	181.44	9.90	-41.1	-42.2	21.7	0.00e+00	0	40	0	173015040	56	5835
2026-01-04 01:07:17.42	181.65	10.24	-41.6	-42.7	21.8	0.00e+00	0	40	0	180355072	54	6975
2026-01-04 01:07:21.46	181.86	10.58	-40.5	-41.6	22.0	0.00e+00	0	40	0	187695104	54	6121
2026-01-04 01:07:25.49	182.07	10.93	-41.0	-42.1	22.0	0.00e+00	0	40	0	195035136	54	6479
2026-01-04 01:07:29.53	182.28	11.29	-40.3	-41.3	22.0	0.00e+00	0	40	0	202375168	54	5946
2026-01-04 01:07:33.57	182.51	11.64	-40.2	-41.3	22.0	0.00e+00	0	40	0	210763776	54	5910
2026-01-04 01:07:37.61	182.73	12.01	-40.3	-41.3	22.4	0.00e+00	0	40	0	218103808	54	5942
2026-01-04 01:07:41.64	182.97	12.37	-40.2	-41.2	22.4	0.00e+00	0	40	0	225443840	54	5870
2026-01-04 01:07:45.67	183.20	12.75	-40.2	-41.2	22.4	0.00e+00	0	40	0	232783872	54	5850
2026-01-04 01:07:49.71	183.45	13.13	-39.8	-40.7	22.8	0.00e+00	0	40	0	240123904	52	6226
2026-01-04 01:07:53.75	183.70	13.51	-39.9	-40.9	22.7	0.00e+00	0	40	0	248512512	52	6320
2026-01-04 01:07:57.78	183.95	13.90	-39.3	-40.2	23.0	0.00e+00	0	40	0	255852544	52	5858
2026-01-04 01:08:01.81	184.22	14.30	-39.7	-40.6	22.7	0.00e+00	0	40	0	263192576	52	6132
2026-01-04 01:08:05.85	184.49	14.70	-39.6	-40.5	22.8	0.00e+00	0	40	0	270532608	52	6076
2026-01-04 01:08:09.89	184.76	15.11	-39.2	-40.1	23.3	0.00e+00	0	40	0	278921216	52	5763
2026-01-04 01:08:13.92	185.05	15.52	-39.0	-39.9	23.3	0.00e+00	0	40	0	286261248	52	5663
2026-01-04 01:08:17.96	185.34	15.94	-38.5	-39.4	23.5	0.00e+00	0	40	0	293601280	50	6000
2026-01-04 01:08:21.99	185.64	16.37	-38.9	-39.8	23.3	0.00e+00	0	40	0	300941312	50	6267
2026-01-04 01:08:26.03	185.94	16.80	-39.1	-40.0	23.2	0.00e+00	0	40	0	308281344	50	6447
2026-01-04 01:08:30.07	186.26	17.24	-38.9	-39.8	23.1	0.00e+00	0	40	0	316669952	50	6305
2026-01-04 01:08:34.10	186.58	17.69	-38.3	-39.2	23.8	0.00e+00	0	40	0	324009984	50	5863
2026-01-04 01:08:38.13	186.92	18.15	-38.0	-38.9	24.0	0.00e+00	0	40	0	331350016	50	5633
2026-01-04 01:08:42.18	187.26	18.61	-37.9	-38.8	24.0	0.00e+00	0	40	0	338690048	50	5568
2026-01-04 01:08:46.21	187.62	19.09	-38.0	-38.9	23.9	0.00e+00	0	40	0	346030080	50	5649
2026-01-04 01:08:50.24	187.98	19.57	-38.3	-39.2	23.8	0.00e+00	0	40	0	354418688	50	5875
2026-01-04 01:08:54.28	188.36	20.05	-38.7	-39.6	23.5	0.00e+00	0	40	0	361758720	50	6129
2026-01-04 01:08:58.32	188.75	20.55	-38.4	-39.3	23.7	0.00e+00	0	40	0	369098752	50	5916
2026-01-04 01:09:02.35	189.15	21.06	-37.8	-38.6	24.3	0.00e+00	0	40	0	376438784	50	5470
2026-01-04 01:09:06.39	189.56	21.57	-37.8	-38.7	24.1	0.00e+00	0	40	0	384827392	48	6203
2026-01-04 01:09:10.43	189.99	22.10	-37.6	-38.4	24.3	0.00e+00	0	40	0	392167424	48	6002
2026-01-04 01:09:14.46	190.43	22.63	-37.3	-38.1	24.5	0.00e+00	0	40	0	399507456	48	5825
2026-01-04 01:09:18.50	190.88	23.17	-36.9	-37.7	24.5	0.00e+00	0	40	0	406847488	48	5540
2026-01-04 01:09:22.54	191.36	23.72	-37.1	-37.9	24.8	0.00e+00	0	40	0	414187520	48	5632
2026-01-04 01:09:26.58	191.84	24.29	-37.2	-38.0	24.8	0.00e+00	0	40	0	422576128	48	5738
2026-01-04 01:09:30.61	192.35	24.86	-37.7	-38.5	24.3	0.00e+00	0	40	0	429916160	48	6096
2026-01-04 01:09:34.65	192.87	25.44	-38.1	-39.0	24.2	0.00e+00	0	40	0	437256192	48	6395
2026-01-04 01:09:38.68	193.41	26.04	-38.7	-39.6	23.8	0.00e+00	0	40	0	444596224	48	6861
2026-01-04 01:09:42.71	193.98	26.64	-38.8	-39.7	23.5	0.00e+00	0	40	0	451936256	50	6233
2026-01-04 01:09:46.75	194.56	27.25	-38.8	-39.7	23.7	0.00e+00	0	40	0	460324864	50	6220
2026-01-04 01:09:50.79	195.17	27.88	-39.2	-40.1	23.4	0.00e+00	0	40	0	467664896	50	6505
2026-01-04 01:09:54.83	195.80	28.52	-39.2	-40.1	23.3	0.00e+00	0	40	0	475004928	50	6515
2026-01-04 01:09:58.86	196.45	29.17	-39.9	-40.9	22.9	0.00e+00	0	40	0	482344960	52	6330
2026-01-04 01:10:02.90	197.14	29.83	-41.0	-42.2	21.5	0.00e+00	0	40	0	490733568	54	6544
2026-01-04 01:10:06.94	197.85	30.50	-41.9	-43.1	21.0	0.00e+00	0	40	0	498073600	56	6487
2026-01-04 01:10:10.97	198.58	31.18	-41.7	-42.9	21.1	0.00e+00	0	40	0	505413632	56	6343
2026-01-04 01:10:15.01	199.35	31.87	-41.1	-42.2	21.6	0.00e+00	0	40	0	512753664	56	5840
2026-01-04 01:10:19.05	200.16	32.57	-40.1	-41.1	22.4	0.00e+00	0	40	0	520093696	54	5818
2026-01-04 01:10:23.08	201.00	33.28	-41.2	-42.4	21.3	0.00e+00	0	40	0	528482304	54	6746
2026-01-04 01:10:27.12	201.87	34.01	-40.5	-41.5	22.2	0.00e+00	0	40	0	535822336	54	6091
2026-01-04 01:10:31.16	202.79	34.74	-39.8	-40.8	22.8	0.00e+00	0	40	0	543162368	52	6273
2026-01-04 01:10:35.19	203.74	35.48	-41.3	-42.6	21.2	0.00e+00	0	40	0	550502400	54	6858
2026-01-04 01:10:39.23	204.74	36.23	-40.6	-41.7	22.1	0.00e+00	0	40	0	558891008	54	6188
2026-01-04 01:10:43.26	205.79	36.99	-39.2	-40.1	23.1	0.00e+00	0	40	0	566231040	52	5769
2026-01-04 01:10:47.29	206.88	37.75	-38.5	-39.4	23.8	0.00e+00	0	40	0	573571072	50	5990
2026-01-04 01:10:51.33	208.03	38.52	-38.1	-39.0	24.1	0.00e+00	0	40	0	580911104	50	5704
2026-01-04 01:10:55.37	209.23	39.30	-37.5	-38.3	24.5	0.00e+00	0	40	0	588251136	48	5922
2026-01-04 01:10:59.41	210.49	40.08	-38.1	-38.9	24.1	0.00e+00	0	40	0	596639744	48	6361
2026-01-04 01:11:03.44	211.81	40.85	-38.2	-39.0	23.5	0.00e+00	0	40	0	603979776	48	6422
2026-01-04 01:11:07.48	213.19	41.63	-39.1	-40.0	23.5	0.00e+00	0	40	0	611319808	50	6409
2026-01-04 01:11:11.51	214.64	42.41	-38.5	-39.3	24.0	0.00e+00	0	40	0	618659840	50	5949
2026-01-04 01:11:15.55	216.16	43.18	-40.2	-41.3	22.3	0.00e+00	0	40	0	627048448	52	6629
2026-01-04 01:11:19.59	217.76	43.94	-38.4	-39.2	23.9	0.00e+00	0	40	0	634388480	50	5863
2026-01-04 01:11:23.62	219.43	44.69	-39.6	-40.6	22.8	0.00e+00	0	40	0	641728512	50	6891
2026-01-04 01:11:27.65	221.18	45.43	-39.8	-40.7	22.7	0.00e+00	0	40	0	649068544	52	6228
2026-01-04 01:11:31.68	223.01	46.15	-40.2	-41.2	22.3	0.00e+00	0	40	0	656408576	52	6557
2026-01-04 01:11:35.72	224.92	46.85	-40.1	-41.1	22.2	0.00e+00	0	40	0	664797184	52	6533
2026-01-04 01:11:39.76	226.93	47.53	-39.7	-40.7	22.7	0.00e+00	0	40	0	672137216	52	6194
2026-01-04 01:11:43.79	229.01	48.18	-38.9	-39.8	23.3	0.00e+00	0	40	0	679477248	50	6259
2026-01-04 01:11:47.82	231.18	48.80	-39.6	-40.5	22.9	0.00e+00	0	40	0	686817280	50	6837
2026-01-04 01:11:51.86	233.44	49.38	-39.6	-40.5	22.8	0.00e+00	0	40	0	694157312	52	6083
2026-01-04 01:11:55.89	235.78	49.91	-39.6	-40.5	23.1	0.00e+00	0	40	0	702545920	52	6047
2026-01-04 01:11:59.93	238.20	50.40	-41.0	-42.2	22.0	0.00e+00	0	40	0	709885952	54	6547
2026-01-04 01:12:03.97	240.70	50.85	-40.0	-41.0	22.6	0.00e+00	0	40	0	717225984	54	5697
2026-01-04 01:12:08.01	243.27	51.24	-40.4	-41.5	21.9	0.00e+00	0	40	0	724566016	54	6087
2026-01-04 01:12:12.04	245.89	51.57	-39.0	-39.9	23.5	0.00e+00	0	40	0	732954624	52	5664
2026-01-04 01:12:16.08	248.57	51.84	-38.4	-39.2	24.5	0.00e+00	0	40	0	740294656	50	5855
2026-01-04 01:12:20.11	251.29	52.04	-39.3	-40.2	23.1	0.00e+00	0	40	0	747634688	50	6607
2026-01-04 01:12:24.15	254.04	52.18	-37.8	-38.7	24.4	0.00e+00	0	40	0	754974720	48	6177
2026-01-04 01:12:28.19	256.82	52.25	-39.0	-39.9	23.2	0.00e+00	0	40	0	762314752	50	6380
2026-01-04 01:12:32.23	259.60	52.26	-38.1	-38.9	24.1	0.00e+00	0	40	0	770703360	50	5695
2026-01-04 01:12:36.27	262.38	52.19	-38.2	-39.0	24.1	0.00e+00	0	40	0	778043392	50	5735
2026-01-04 01:12:40.31	265.13	52.06	-39.5	-40.5	22.8	0.00e+00	0	40	0	785383424	50	6785
2026-01-04 01:12:44.34	267.85	51.86	-37.9	-38.7	24.2	0.00e+00	0	40	0	792723456	48	6228
2026-01-04 01:12:48.38	270.54	51.60	-37.8	-38.7	24.3	0.00e+00	0	40	0	800063488	48	6197
2026-01-04 01:12:52.42	273.17	51.28	-37.2	-38.0	24.7	0.00e+00	0	40	0	808452096	48	5703
2026-01-04 01:12:56.46	275.74	50.89	-38.1	-38.9	24.1	0.00e+00	0	40	0	815792128	48	6371
2026-01-04 01:13:00.49	278.24	50.46	-38.6	-39.4	23.8	0.00e+00	0	40	0	823132160	50	6002
2026-01-04 01:13:04.53	280.67	49.97	-40.6	-41.7	22.1	0.00e+00	0	40	0	830472192	54	6179
2026-01-04 01:13:08.57	283.02	49.44	-40.6	-41.6	22.5	0.00e+00	0	40	0	838860800	54	6129
2026-01-04 01:13:12.61	285.28	48.87	-38.4	-39.3	23.9	0.00e+00	0	40	0	846200832	50	5903
2026-01-04 01:13:16.65	287.47	48.26	-41.1	-42.2	21.8	0.00e+00	0	40	0	853540864	54	6542
2026-01-04 01:13:20.68	289.55	47.62	-42.9	-44.3	19.9	0.00e+00	0	40	0	860880896	58	6647
2026-01-04 01:13:24.72	291.56	46.94	-42.8	-44.1	20.4	0.00e+00	0	40	0	868220928	60	5813
2026-01-04 01:13:28.75	293.48	46.25	-42.3	-43.5	20.7	0.00e+00	0	40	0	876609536	58	6060
2026-01-04 01:13:32.78	295.32	45.53	-45.3	-47.4	17.1	0.00e+00	0	40	0	883949568	60	8513
2026-01-04 01:13:36.82	297.07	44.80	-45.2	-47.3	17.0	0.00e+00	0	40	0	891289600	60	8355
2026-01-04 01:13:40.86	298.75	44.05	-41.8	-43.0	21.3	0.00e+00	0	40	0	898629632	58	5726
2026-01-04 01:13:44.90	300.35	43.29	-39.8	-40.7	23.0	0.00e+00	0	40	0	907018240	52	6241
2026-01-04 01:13:48.93	301.88	42.52	-38.4	-39.2	24.3	0.00e+00	0	40	0	914358272	50	5848
2026-01-04 01:13:52.97	303.34	41.75	-39.2	-40.1	23.5	0.00e+00	0	40	0	921698304	52	5814
2026-01-04 01:13:57.01	304.73	40.97	-39.4	-40.3	23.3	0.00e+00	0	40	0	929038336	50	6660
2026-01-04 01:14:01.04	306.05	40.20	-40.5	-41.5	22.5	0.00e+00	0	40	0	936378368	54	6055
2026-01-04 01:14:05.08	307.31	39.43	-42.8	-44.2	20.0	0.00e+00	0	40	0	944766976	58	6575
2026-01-04 01:14:09.12	308.52	38.65	-41.2	-42.2	22.4	0.00e+00	0	40	0	952107008	56	5887
2026-01-04 01:14:13.15	309.67	37.89	-43.3	-44.7	20.3	0.00e+00	0	40	0	959447040	60	6196
2026-01-04 01:14:17.18	310.77	37.13	-40.3	-41.2	22.6	0.00e+00	0	40	0	966787072	54	5873
2026-01-04 01:14:21.22	311.82	36.37	-43.0	-44.4	20.2	0.00e+00	0	40	0	974127104	60	6029
2026-01-04 01:14:25.26	312.82	35.62	-40.1	-41.0	22.9	0.00e+00	0	40	0	982515712	54	5726
2026-01-04 01:14:29.30	313.78	34.88	-43.2	-44.6	20.4	0.00e+00	0	40	0	989855744	60	6150
2026-01-04 01:14:33.33	314.70	34.15	-39.1	-39.9	23.7	0.00e+00	0	40	0	997195776	52	5692
2026-01-04 01:14:37.37	315.58	33.43	-44.7	-46.7	17.3	0.00e+00	0	40	0	1004535808	60	7801
2026-01-04 01:14:41.40	316.42	32.72	-40.3	-41.3	22.3	0.00e+00	0	40	0	1012924416	54	5937
2026-01-04 01:14:45.44	317.22	32.02	-42.5	-43.8	20.5	0.00e+00	0	40	0	1020264448	56	7037
2026-01-04 01:14:49.48	318.00	31.33	-45.6	-48.0	16.7	0.00e+00	0	40	0	1027604480	60	9083
2026-01-04 01:14:53.53	318.74	30.65	-40.8	-41.8	22.2	0.00e+00	0	40	0	1034944512	54	6314
2026-01-04 01:14:57.56	319.45	29.98	-42.3	-43.6	20.8	0.00e+00	0	40	0	1042284544	56	6870
2026-01-04 01:15:01.60	320.14	29.33	-42.0	-43.2	21.1	0.00e+00	0	40	0	1050673152	58	5838
2026-01-04 01:15:05.64	320.80	28.68	-41.2	-42.2	22.0	0.00e+00	0	40	0	1058013184	56	5862
2026-01-04 01:15:09.68	321.43	28.04	-42.4	-43.5	21.2	0.00e+00	0	40	0	1065353216	56	6833
2026-01-04 01:15:13.72	322.04	27.42	-40.5	-41.5	22.3	0.00e+00	0	40	0	1072693248	54	6065
2026-01-04 01:15:17.76	322.63	26.80	-40.1	-41.0	22.9	0.00e+00	0	40	0	1081081856	54	5753
2026-01-04 01:15:21.80	323.20	26.20	-39.4	-40.4	23.3	0.00e+00	0	40	0	1088421888	52	5992
2026-01-04 01:15:25.83	323.74	25.61	-39.4	-40.3	23.3	0.00e+00	0	40	0	1095761920	52	5913
2026-01-04 01:15:29.87	324.27	25.03	-39.9	-40.8	23.2	0.00e+00	0	40	0	1103101952	52	6298
2026-01-04 01:15:33.91	324.77	24.46	-40.2	-41.2	22.4	0.00e+00	0	40	0	1110441984	52	6605
2026-01-04 01:15:37.95	325.27	23.89	-39.7	-40.6	23.4	0.00e+00	0	40	0	1118830592	52	6169
2026-01-04 01:15:41.99	325.74	23.34	-40.1	-41.1	22.6	0.00e+00	0	40	0	1126170624	52	6465
2026-01-04 01:15:46.02	326.20	22.80	-40.6	-41.6	22.1	0.00e+00	0	40	0	1133510656	52	6908
2026-01-04 01:15:50.06	326.64	22.27	-40.5	-41.5	22.2	0.00e+00	0	40	0	1140850688	54	6091
2026-01-04 01:15:54.10	327.07	21.75	-40.3	-41.3	22.4	0.00e+00	0	40	0	1149239296	54	5958
2026-01-04 01:15:58.14	327.49	21.23	-39.8	-40.8	23.0	0.00e+00	0	40	0	1156579328	52	6269
2026-01-04 01:16:02.18	327.89	20.73	-40.2	-41.2	22.6	0.00e+00	0	40	0	1163919360	52	6553
2026-01-04 01:16:06.22	328.28	20.23	-41.6	-42.7	21.5	0.00e+00	0	40	0	1171259392	54	7001
2026-01-04 01:16:10.25	328.66	19.75	-42.2	-43.5	20.8	0.00e+00	0	40	0	1178599424	58	6058
2026-01-04 01:16:14.29	329.03	19.27	-41.1	-42.2	21.8	0.00e+00	0	40	0	1186988032	56	5884
2026-01-04 01:16:18.33	329.39	18.80	-39.7	-40.7	23.0	0.00e+00	0	40	0	1194328064	52	6180
2026-01-04 01:16:22.37	329.73	18.33	-39.9	-40.9	23.1	0.00e+00	0	40	0	1201668096	52	6319
2026-01-04 01:16:26.40	330.07	17.88	-40.7	-41.6	22.8	0.00e+00	0	40	0	1209008128	52	6925
2026-01-04 01:16:30.44	330.40	17.43	-40.4	-41.4	22.5	0.00e+00	0	40	0	1217396736	54	5977
2026-01-04 01:16:34.48	330.72	16.99	-41.1	-42.1	22.0	0.00e+00	0	40	0	1224736768	54	6506
2026-01-04 01:16:38.52	331.03	16.55	-40.9	-42.0	22.0	0.00e+00	0	40	0	1232076800	54	6416
2026-01-04 01:16:42.56	331.33	16.13	-40.6	-41.7	22.4	0.00e+00	0	40	0	1239416832	54	6175
2026-01-04 01:16:46.59	331.62	15.71	-40.1	-41.1	22.8	0.00e+00	0	40	0	1246756864	54	5799
2026-01-04 01:16:50.63	331.91	15.29	-40.5	-41.4	22.8	0.00e+00	0	40	0	1255145472	54	6003
2026-01-04 01:16:54.67	332.19	14.89	-39.3	-40.3	23.1	0.00e+00	0	40	0	1262485504	52	5899
2026-01-04 01:16:58.71	332.46	14.49	-40.2	-41.1	22.9	0.00e+00	0	40	0	1269825536	52	6536
2026-01-04 01:17:02.75	332.73	14.09	-40.4	-41.4	22.4	0.00e+00	0	40	0	1277165568	52	6705
2026-01-04 01:17:06.78	332.99	13.70	-41.3	-42.4	21.5	0.00e+00	0	40	0	1285554176	54	6754
2026-01-04 01:17:10.82	333.24	13.32	-41.9	-43.1	20.8	0.00e+00	0	40	0	1292894208	56	6538
2026-01-04 01:17:14.86	333.49	12.94	-42.8	-44.3	19.8	0.00e+00	0	40	0	1300234240	56	7441
2026-01-04 01:17:18.90	333.73	12.57	-42.9	-44.3	20.1	0.00e+00	0	40	0	1307574272	58	6676
2026-01-04 01:17:22.93	333.96	12.20	-42.6	-43.9	20.3	0.00e+00	0	40	0	1314914304	58	6374
2026-01-04 01:17:26.96	334.19	11.84	-41.3	-42.5	21.0	0.00e+00	0	40	0	1323302912	56	6063
2026-01-04 01:17:31.00	334.42	11.48	-40.6	-41.7	21.6	0.00e+00	0	40	0	1330642944	54	6188
2026-01-04 01:17:35.04	334.64	11.13	-40.6	-41.7	21.7	0.00e+00	0	40	0	1337982976	54	6216
2026-01-04 01:17:39.08	334.85	10.78	-40.0	-41.0	22.3	0.00e+00	0	40	0	1345323008	54	5751
2026-01-04 01:17:43.11	335.07	10.44	-40.3	-41.3	22.4	0.00e+00	0	40	0	1352663040	54	5940
2026-01-04 01:17:47.15	335.27	10.10	-39.8	-40.8	22.3	0.00e+00	0	40	0	1361051648	52	6307
2026-01-04 01:17:51.18	335.47	9.77	-39.9	-40.9	22.4	0.00e+00	0	40	0	1368391680	52	6333
2026-01-04 01:17:55.22	335.67	9.44	-40.2	-41.2	22.4	0.00e+00	0	40	0	1375731712	52	6603
2026-01-04 01:17:59.26	335.87	9.11	-40.6	-41.7	21.7	0.00e+00	0	40	0	1383071744	54	6211
2026-01-04 01:18:03.30	336.06	8.79	-40.9	-42.0	21.5	0.00e+00	0	40	0	1391460352	54	6442
2026-01-04 01:18:07.34	336.24	8.47	-41.5	-42.7	21.2	0.00e+00	0	40	0	1398800384	54	6958
2026-01-04 01:18:11.37	336.43	8.15	-42.0	-43.3	20.7	0.00e+00	0	40	0	1406140416	56	6625
2026-01-04 01:18:15.41	336.61	7.84	-42.0	-43.4	20.4	0.00e+00	0	40	0	1413480448	56	6694
2026-01-04 01:18:19.45	336.78	7.54	-42.0	-43.3	20.2	0.00e+00	0	40	0	1420820480	56	6652
2026-01-04 01:18:23.49	336.96	7.23	-42.5	-44.0	19.6	0.00e+00	0	40	0	1429209088	56	7193
2026-01-04 01:18:27.52	337.12	6.93	-42.4	-43.9	19.6	0.00e+00	0	40	0	1436549120	58	6353
2026-01-04 01:18:31.56	337.29	6.63	-42.2	-43.7	19.5	0.00e+00	0	40	0	1443889152	58	6222
2026-01-04 01:18:35.60	337.46	6.34	-42.8	-44.3	19.3	0.00e+00	0	40	0	1451229184	58	6668
2026-01-04 01:18:39.64	337.62	6.05	-42.8	-44.3	19.2	0.00e+00	0	40	0	1459617792	58	6666
2026-01-04 01:18:43.67	337.77	5.76	-42.9	-44.5	18.6	0.00e+00	0	40	0	1466957824	58	6835
2026-01-04 01:18:47.71	337.93	5.48	-43.3	-45.1	17.7	0.00e+00	0	40	0	1474297856	58	7319
2026-01-04 01:18:51.75	338.08	5.20	-44.4	-46.9	15.7	0.00e+00	0	40	0	1481637888	60	8022
2026-01-04 01:18:55.78	338.23	4.92	-45.0	-48.4	13.8	1.50e-06	0	40	0	1488977920	60	9468
2026-01-04 01:18:59.82	338.38	4.64	-45.3	-50.1	10.8	2.78e-03	0	40	0	1497366528	60	11509
2026-01-04 01:19:03.85	338.52	4.37	-45.6	-52.6	6.9	1.06e-01	0	40	0	1504706560	60	15435
2026-01-04 01:19:07.89	338.67	4.10	-45.8	-55.1	4.3	7.72e-01	0	40	0	1512046592	60	20617
2026-01-04 01:19:11.92	338.81	3.83	-46.0	-59.3	3.6	1.49e+00	0	40	104	1514143744	60	33453
2026-01-04 01:19:15.96	338.95	3.56	-46.3	-60.7	3.6	1.51e+00	0	40	104	1514143744	60	39199
2026-01-04 01:19:20.00	339.08	3.30	-46.0	-60.9	3.6	1.51e+00	0	40	104	1514143744	60	40303
2026-01-04 01:19:24.04	339.22	3.04	-45.8	-61.0	3.6	1.51e+00	0	40	104	1514143744	60	40345
2026-01-04 01:19:28.07	339.35	2.78	-50.4	-65.6	3.6	1.51e+00	0	40	104	1514143744	60	68806
2026-01-04 01:19:32.11	339.48	2.52	-50.8	-65.9	3.6	1.51e+00	0	40	104	1514143744	60	71684
2026-01-04 01:19:36.15	339.61	2.27	-51.0	-66.3	3.6	1.51e+00	0	40	104	1514143744	60	74464
2026-01-04 01:19:40.18	339.73	2.02	-51.1	-66.3	3.6	1.51e+00	0	40	104	1514143744	60	74469
2026-01-04 01:19:44.22	339.86	1.77	-50.8	-66.0	3.6	1.51e+00	0	40	104	1514143744	60	71984
2026-01-04 01:19:48.26	339.98	1.52	-50.9	-66.1	3.6	1.51e+00	0	40	104	1514143744	60	72827
2026-01-04 01:19:52.30	340.10	1.27	-51.0	-66.1	3.6	1.51e+00	0	40	104	1514143744	60	73376
2026-01-04 01:19:56.34	340.22	1.03	-51.0	-66.2	3.6	1.51e+00	0	40	104	1514143744	60	73927
2026-01-04 01:20:00.38	340.34	0.79	-51.1	-66.3	3.6	1.51e+00	0	40	104	1514143744	60	74735
2026-01-04 01:20:04.41	340.46	0.55	-50.7	-65.9	3.5	1.51e+00	0	40	104	1514143744	60	71183
2026-01-04 01:20:08.45	340.57	0.31	-50.7	-65.9	3.6	1.51e+00	0	40	104	1514143744	60	71423
2026-01-04 01:20:12.49	340.69	0.08	-50.6	-65.8	3.6	1.51e+00	0	40	104	1514143744	60	70549

#Closed at: 2026-01-04 01:20:14
#Recorded file [1514 MB]: D:/lorett/data/35029_260104_130452.dat