passes_logs/2026/01/04/R4.6S_Anadyr/R4.6S_Anadyr__20260104_223648_NOAA_21_JPSS-2_rec.log

#Pass ID: 20260104_223648_NOAA 21 (JPSS-2)
#Satellite: NOAA 21 (JPSS-2)
#Configuration: NOAA-21
#almurnet v.1.7.20251203
#Start time: 2026-01-04 22:36:54

#Version: 2.2.20231116
#Station: R4.6S_Anadyr
#Location: 177.4865 lon 64.73178 lat
#TLE: 1 54234U 22150A   26003.45311712  .00000198  00000+0  11468-3 0  9993
#TLE: 2 54234  98.7487 304.4932 0001159 347.5017  12.6130 14.19531745163172

#Time	Az	El	Level	Level2	SNR	BER	BlckErr	Temp	State	Recorded	gain1	gain2
2026-01-04 22:36:54.42	117.15	0.35	-49.0	-50.7	5.7	0.00e+00	0	29	0	0	60	41767
2026-01-04 22:36:58.33	117.00	0.58	-48.9	-61.8	3.5	1.51e+00	0	31	104	0	60	42975
2026-01-04 22:37:02.24	116.84	0.80	-48.7	-61.5	3.5	1.52e+00	0	31	104	0	60	41891
2026-01-04 22:37:06.15	116.68	1.03	-48.0	-61.0	3.5	1.52e+00	0	31	104	0	60	39361
2026-01-04 22:37:10.06	116.52	1.27	-46.5	-59.8	3.5	1.52e+00	0	31	104	0	60	34220
2026-01-04 22:37:13.97	116.36	1.50	-46.7	-59.8	3.5	1.52e+00	0	31	104	0	60	34129
2026-01-04 22:37:17.89	116.19	1.74	-46.5	-59.8	3.5	1.52e+00	0	31	104	0	60	34375
2026-01-04 22:37:21.81	116.02	1.97	-46.4	-59.8	3.5	1.52e+00	0	31	104	0	60	34263
2026-01-04 22:37:25.72	115.84	2.21	-46.5	-59.4	3.5	1.52e+00	0	31	104	0	60	32851
2026-01-04 22:37:29.63	115.67	2.45	-46.6	-59.5	3.5	1.52e+00	0	31	104	0	60	33295
2026-01-04 22:37:33.53	115.49	2.69	-46.5	-59.8	3.5	1.52e+00	0	31	104	0	60	34415
2026-01-04 22:37:37.45	115.31	2.94	-46.5	-59.7	3.5	1.52e+00	0	31	104	0	60	33990
2026-01-04 22:37:41.37	115.12	3.18	-46.5	-59.0	3.5	1.52e+00	0	31	104	0	60	31376
2026-01-04 22:37:45.28	114.93	3.43	-45.8	-54.0	5.3	1.20e+00	0	31	104	0	60	17560
2026-01-04 22:37:49.19	114.74	3.68	-44.5	-48.6	10.2	8.86e-04	0	31	0	3145728	60	9466
2026-01-04 22:37:53.11	114.54	3.93	-38.4	-39.7	19.4	0.00e+00	0	31	0	6291456	50	6044
2026-01-04 22:37:57.02	114.34	4.19	-38.3	-39.7	19.5	0.00e+00	0	31	0	14680064	50	5998
2026-01-04 22:38:00.93	114.14	4.44	-38.0	-39.3	20.1	0.00e+00	0	31	0	27262976	48	6464
2026-01-04 22:38:04.84	113.93	4.70	-38.0	-39.3	19.7	0.00e+00	0	31	0	39845888	48	6427
2026-01-04 22:38:08.75	113.72	4.96	-37.7	-38.9	20.4	0.00e+00	0	32	0	51380224	48	6164
2026-01-04 22:38:12.66	113.50	5.22	-37.4	-38.5	20.7	0.00e+00	0	32	0	63963136	48	5894
2026-01-04 22:38:16.57	113.29	5.49	-37.2	-38.4	21.0	0.00e+00	0	31	0	75497472	48	5792
2026-01-04 22:38:20.49	113.06	5.75	-37.3	-38.5	20.8	0.00e+00	0	32	0	88080384	48	5886
2026-01-04 22:38:24.40	112.83	6.02	-37.6	-38.8	20.8	0.00e+00	0	32	0	100663296	48	6077
2026-01-04 22:38:28.32	112.60	6.29	-37.1	-38.2	21.2	0.00e+00	0	32	0	112197632	48	5718
2026-01-04 22:38:32.23	112.36	6.57	-37.6	-38.8	20.9	0.00e+00	0	32	0	124780544	48	6080
2026-01-04 22:38:36.14	112.12	6.84	-37.3	-38.4	21.2	0.00e+00	0	32	0	137363456	48	5840
2026-01-04 22:38:40.05	111.88	7.12	-36.8	-37.9	21.6	0.00e+00	0	32	0	148897792	46	6175
2026-01-04 22:38:43.97	111.62	7.40	-36.6	-37.7	21.9	0.00e+00	0	32	0	161480704	46	5996
2026-01-04 22:38:47.88	111.37	7.69	-36.4	-37.4	22.0	0.00e+00	0	32	0	174063616	46	5856
2026-01-04 22:38:51.79	111.10	7.97	-36.2	-37.2	22.2	0.00e+00	0	32	0	185597952	46	5683
2026-01-04 22:38:55.69	110.84	8.26	-36.3	-37.4	22.2	0.00e+00	0	32	0	198180864	46	5796
2026-01-04 22:38:59.60	110.56	8.55	-35.9	-36.9	22.5	0.00e+00	0	32	0	210763776	46	5508
2026-01-04 22:39:03.52	110.29	8.85	-35.7	-36.8	22.8	0.00e+00	0	32	0	222298112	46	5412
2026-01-04 22:39:07.42	110.00	9.14	-35.7	-36.6	22.8	0.00e+00	0	32	0	234881024	44	5992
2026-01-04 22:39:11.34	109.71	9.44	-35.5	-36.6	22.9	0.00e+00	0	32	0	247463936	44	5932
2026-01-04 22:39:15.24	109.41	9.74	-35.3	-36.3	23.0	0.00e+00	0	32	0	258998272	44	5767
2026-01-04 22:39:19.15	109.11	10.05	-35.3	-36.3	23.1	0.00e+00	0	32	0	271581184	44	5748
2026-01-04 22:39:23.06	108.80	10.36	-35.3	-36.2	23.2	0.00e+00	0	32	0	284164096	44	5718
2026-01-04 22:39:26.96	108.48	10.67	-35.1	-36.0	23.3	0.00e+00	0	32	0	295698432	44	5589
2026-01-04 22:39:30.88	108.16	10.98	-35.1	-36.1	23.4	0.00e+00	0	32	0	308281344	44	5621
2026-01-04 22:39:34.80	107.83	11.30	-34.8	-35.7	23.7	0.00e+00	0	32	0	320864256	44	5357
2026-01-04 22:39:38.71	107.49	11.62	-34.8	-35.7	23.6	0.00e+00	0	32	0	332398592	42	6030
2026-01-04 22:39:42.61	107.14	11.95	-35.2	-36.2	23.2	0.00e+00	0	32	0	344981504	42	6352
2026-01-04 22:39:46.53	106.79	12.28	-35.1	-36.0	23.4	0.00e+00	0	32	0	356515840	42	6275
2026-01-04 22:39:50.45	106.42	12.61	-35.1	-36.1	23.4	0.00e+00	0	32	0	369098752	42	6311
2026-01-04 22:39:54.35	106.05	12.94	-34.8	-35.7	23.8	0.00e+00	0	32	0	381681664	42	6039
2026-01-04 22:39:58.25	105.67	13.28	-34.6	-35.6	23.9	0.00e+00	0	32	0	393216000	42	5928
2026-01-04 22:40:02.17	105.28	13.62	-34.7	-35.6	23.7	0.00e+00	0	32	0	405798912	42	5944
2026-01-04 22:40:06.07	104.88	13.96	-34.6	-35.5	23.9	0.00e+00	0	32	0	418381824	42	5899
2026-01-04 22:40:09.98	104.48	14.31	-34.5	-35.4	24.0	0.00e+00	0	32	0	429916160	42	5796
2026-01-04 22:40:13.89	104.06	14.66	-35.0	-35.9	23.6	0.00e+00	0	32	0	442499072	42	6204
2026-01-04 22:40:17.80	103.63	15.02	-34.7	-35.6	23.8	0.00e+00	0	32	0	455081984	42	5987
2026-01-04 22:40:21.71	103.19	15.38	-34.4	-35.4	24.0	0.00e+00	0	32	0	466616320	42	5799
2026-01-04 22:40:25.62	102.74	15.74	-34.6	-35.6	23.9	0.00e+00	0	32	0	479199232	42	5928
2026-01-04 22:40:29.53	102.28	16.10	-34.7	-35.6	23.8	0.00e+00	0	32	0	491782144	42	5966
2026-01-04 22:40:33.44	101.81	16.47	-34.7	-35.6	23.8	0.00e+00	0	32	0	503316480	42	5973
2026-01-04 22:40:37.35	101.32	16.85	-35.0	-35.9	23.6	0.00e+00	0	32	0	515899392	42	6188
2026-01-04 22:40:41.27	100.82	17.22	-34.9	-35.9	23.6	0.00e+00	0	32	0	528482304	42	6154
2026-01-04 22:40:45.18	100.31	17.60	-35.1	-36.0	23.6	0.00e+00	0	32	0	540016640	42	6262
2026-01-04 22:40:49.09	99.79	17.99	-35.0	-35.9	23.7	0.00e+00	0	32	0	552599552	42	6171
2026-01-04 22:40:53.00	99.25	18.37	-34.9	-35.8	23.7	0.00e+00	0	32	0	565182464	42	6113
2026-01-04 22:40:56.91	98.70	18.76	-34.9	-35.8	23.8	0.00e+00	0	32	0	576716800	42	6087
2026-01-04 22:41:00.82	98.13	19.16	-34.7	-35.6	24.0	0.00e+00	0	32	0	589299712	42	5970
2026-01-04 22:41:04.74	97.55	19.55	-34.2	-35.1	24.4	0.00e+00	0	32	0	601882624	42	5596
2026-01-04 22:41:08.65	96.95	19.95	-33.9	-34.8	24.4	0.00e+00	0	32	0	613416960	42	5440
2026-01-04 22:41:12.57	96.34	20.36	-34.2	-35.1	24.3	0.00e+00	0	32	0	625999872	42	5650
2026-01-04 22:41:16.49	95.71	20.76	-33.8	-34.7	24.7	0.00e+00	0	32	0	638582784	40	6030
2026-01-04 22:41:20.40	95.06	21.17	-33.4	-34.3	24.8	0.00e+00	0	32	0	650117120	40	5726
2026-01-04 22:41:24.31	94.40	21.58	-33.6	-34.4	24.8	0.00e+00	0	32	0	662700032	40	5857
2026-01-04 22:41:28.22	93.71	22.00	-33.8	-34.7	24.7	0.00e+00	0	32	0	675282944	40	6009
2026-01-04 22:41:32.12	93.01	22.41	-33.5	-34.4	24.8	0.00e+00	0	32	0	686817280	40	5826
2026-01-04 22:41:36.03	92.29	22.83	-33.1	-34.0	25.1	0.00e+00	0	32	0	699400192	40	5560
2026-01-04 22:41:39.94	91.55	23.25	-33.4	-34.3	24.8	0.00e+00	0	32	0	711983104	40	5758
2026-01-04 22:41:43.85	90.79	23.67	-33.5	-34.4	24.9	0.00e+00	0	32	0	723517440	40	5830
2026-01-04 22:41:47.76	90.01	24.09	-33.6	-34.4	24.9	0.00e+00	0	32	0	736100352	40	5848
2026-01-04 22:41:51.67	89.21	24.52	-33.9	-34.7	24.6	0.00e+00	0	32	0	747634688	40	6057
2026-01-04 22:41:55.57	88.39	24.94	-33.5	-34.3	24.9	0.00e+00	0	32	0	760217600	40	5785
2026-01-04 22:41:59.49	87.54	25.36	-33.8	-34.6	24.6	0.00e+00	0	32	0	772800512	40	5992
2026-01-04 22:42:03.39	86.67	25.78	-34.1	-34.9	24.5	0.00e+00	0	32	0	784334848	40	6201
2026-01-04 22:42:07.29	85.77	26.21	-34.3	-35.2	24.2	0.00e+00	0	32	0	796917760	40	6411
2026-01-04 22:42:11.20	84.86	26.63	-34.6	-35.5	24.2	0.00e+00	0	32	0	809500672	42	5896
2026-01-04 22:42:15.11	83.91	27.05	-34.3	-35.1	24.3	0.00e+00	0	32	0	821035008	42	5659
2026-01-04 22:42:19.02	82.94	27.46	-34.6	-35.5	24.2	0.00e+00	0	32	0	833617920	42	5878
2026-01-04 22:42:22.93	81.95	27.88	-34.0	-34.8	24.6	0.00e+00	0	32	0	846200832	42	5466
2026-01-04 22:42:26.83	80.93	28.29	-34.1	-35.0	24.5	0.00e+00	0	32	0	857735168	42	5567
2026-01-04 22:42:30.74	79.88	28.69	-34.1	-34.9	24.4	0.00e+00	0	32	0	870318080	42	5530
2026-01-04 22:42:34.65	78.81	29.09	-34.6	-35.5	23.9	0.00e+00	0	32	0	882900992	42	5914
2026-01-04 22:42:38.55	77.71	29.48	-34.5	-35.4	24.1	0.00e+00	0	32	0	894435328	42	5853
2026-01-04 22:42:42.47	76.58	29.87	-34.0	-34.9	24.6	0.00e+00	0	32	0	907018240	42	5519
2026-01-04 22:42:46.37	75.43	30.25	-33.9	-34.8	24.7	0.00e+00	0	32	0	918552576	42	5423
2026-01-04 22:42:50.28	74.25	30.62	-34.1	-35.0	24.5	0.00e+00	0	32	0	931135488	42	5581
2026-01-04 22:42:54.19	73.04	30.98	-34.3	-35.2	24.4	0.00e+00	0	32	0	943718400	42	5702
2026-01-04 22:42:58.10	71.80	31.34	-34.2	-35.1	24.5	0.00e+00	0	32	0	956301312	42	5622
2026-01-04 22:43:02.00	70.54	31.67	-34.3	-35.2	24.3	0.00e+00	0	32	0	967835648	42	5695
2026-01-04 22:43:05.91	69.25	32.00	-34.9	-35.8	24.0	0.00e+00	0	32	0	980418560	42	6127
2026-01-04 22:43:09.84	67.93	32.32	-35.0	-36.0	23.9	0.00e+00	0	32	0	993001472	42	6211
2026-01-04 22:43:13.76	66.58	32.62	-35.1	-36.0	24.0	0.00e+00	0	32	0	1004535808	42	6241
2026-01-04 22:43:17.68	65.21	32.90	-34.7	-35.6	24.2	0.00e+00	0	32	0	1017118720	42	5975
2026-01-04 22:43:21.59	63.83	33.17	-34.8	-35.7	24.2	0.00e+00	0	32	0	1029701632	42	6027
2026-01-04 22:43:25.51	62.41	33.42	-35.1	-36.0	23.8	0.00e+00	0	32	0	1041235968	42	6226
2026-01-04 22:43:29.42	60.98	33.66	-35.2	-36.1	23.6	0.00e+00	0	32	0	1053818880	42	6327
2026-01-04 22:43:33.33	59.53	33.87	-34.7	-35.6	24.1	0.00e+00	0	32	0	1066401792	42	5940
2026-01-04 22:43:37.25	58.05	34.06	-34.8	-35.7	24.1	0.00e+00	0	32	0	1077936128	42	5997
2026-01-04 22:43:41.17	56.56	34.24	-35.2	-36.1	23.6	0.00e+00	0	32	0	1090519040	42	6330
2026-01-04 22:43:45.08	55.06	34.39	-35.1	-36.0	23.7	0.00e+00	0	32	0	1102053376	42	6271
2026-01-04 22:43:48.99	53.54	34.52	-35.4	-36.3	23.5	0.00e+00	0	32	0	1114636288	42	6490
2026-01-04 22:43:52.90	52.02	34.63	-35.5	-36.5	23.5	0.00e+00	0	32	0	1127219200	42	6613
2026-01-04 22:43:56.82	50.48	34.71	-35.3	-36.2	23.7	0.00e+00	0	32	0	1138753536	42	6394
2026-01-04 22:44:00.73	48.94	34.77	-35.8	-36.7	23.2	0.00e+00	0	32	0	1151336448	44	6054
2026-01-04 22:44:04.64	47.39	34.81	-35.6	-36.6	23.3	0.00e+00	0	32	0	1163919360	44	5955
2026-01-04 22:44:08.56	45.84	34.82	-35.2	-36.1	23.8	0.00e+00	0	32	0	1175453696	44	5658
2026-01-04 22:44:12.46	44.29	34.81	-36.0	-37.0	23.2	0.00e+00	0	32	0	1188036608	44	6227
2026-01-04 22:44:16.37	42.75	34.78	-36.0	-36.9	23.1	0.00e+00	0	32	0	1200619520	44	6203
2026-01-04 22:44:20.28	41.21	34.72	-35.3	-36.2	23.6	0.00e+00	0	32	0	1212153856	44	5701
2026-01-04 22:44:24.19	39.67	34.64	-35.6	-36.5	23.4	0.00e+00	0	32	0	1224736768	44	5909
2026-01-04 22:44:28.09	38.15	34.53	-35.6	-36.6	23.5	0.00e+00	0	32	0	1237319680	44	5933
2026-01-04 22:44:32.01	36.63	34.41	-35.6	-36.5	23.5	0.00e+00	0	32	0	1248854016	44	5893
2026-01-04 22:44:35.92	35.13	34.26	-35.1	-36.1	23.8	0.00e+00	0	32	0	1261436928	44	5598
2026-01-04 22:44:39.83	33.64	34.09	-35.3	-36.2	23.5	0.00e+00	0	32	0	1274019840	44	5700
2026-01-04 22:44:43.75	32.17	33.90	-34.8	-35.7	23.9	0.00e+00	0	32	0	1285554176	42	6034
2026-01-04 22:44:47.67	30.71	33.68	-35.1	-36.0	23.6	0.00e+00	0	32	0	1298137088	42	6269
2026-01-04 22:44:51.58	29.28	33.45	-35.4	-36.3	23.6	0.00e+00	0	32	0	1310720000	42	6483
2026-01-04 22:44:55.49	27.87	33.21	-35.3	-36.3	23.7	0.00e+00	0	32	0	1322254336	42	6462
2026-01-04 22:44:59.41	26.47	32.94	-34.9	-35.8	24.0	0.00e+00	0	32	0	1334837248	42	6130
2026-01-04 22:45:03.32	25.11	32.66	-35.0	-36.0	23.9	0.00e+00	0	32	0	1347420160	42	6221
2026-01-04 22:45:07.23	23.77	32.36	-34.3	-35.2	24.4	0.00e+00	0	32	0	1358954496	42	5687
2026-01-04 22:45:11.15	22.45	32.05	-35.2	-36.1	23.7	0.00e+00	0	32	0	1371537408	42	6308
2026-01-04 22:45:15.05	21.16	31.72	-34.7	-35.7	24.0	0.00e+00	0	32	0	1384120320	42	6004
2026-01-04 22:45:18.96	19.90	31.39	-35.0	-35.9	23.8	0.00e+00	0	32	0	1395654656	42	6201
2026-01-04 22:45:22.87	18.66	31.04	-34.5	-35.4	24.0	0.00e+00	0	32	0	1408237568	42	5820
2026-01-04 22:45:26.77	17.45	30.68	-33.9	-34.7	24.7	0.00e+00	0	32	0	1420820480	40	6062
2026-01-04 22:45:30.69	16.27	30.31	-35.4	-36.4	23.4	0.00e+00	0	32	0	1432354816	42	6513
2026-01-04 22:45:34.60	15.11	29.93	-34.1	-35.0	24.5	0.00e+00	0	32	0	1444937728	42	5548
2026-01-04 22:45:38.51	13.98	29.55	-34.6	-35.5	24.2	0.00e+00	0	32	0	1457520640	42	5897
2026-01-04 22:45:42.42	12.88	29.15	-34.5	-35.5	24.1	0.00e+00	0	32	0	1469054976	42	5869
2026-01-04 22:45:46.34	11.81	28.75	-34.6	-35.5	24.2	0.00e+00	0	32	0	1481637888	42	5913
2026-01-04 22:45:50.25	10.76	28.35	-34.4	-35.4	24.5	0.00e+00	0	32	0	1494220800	42	5797
2026-01-04 22:45:54.15	9.74	27.94	-33.8	-34.6	24.8	0.00e+00	0	32	0	1505755136	40	5982
2026-01-04 22:45:58.06	8.75	27.53	-34.0	-34.9	24.5	0.00e+00	0	32	0	1518338048	40	6192
2026-01-04 22:46:01.97	7.78	27.12	-33.9	-34.8	24.7	0.00e+00	0	32	0	1529872384	40	6082
2026-01-04 22:46:05.89	6.83	26.70	-34.0	-34.9	24.6	0.00e+00	0	32	0	1542455296	40	6148
2026-01-04 22:46:09.80	5.91	26.28	-34.0	-34.9	24.5	0.00e+00	0	32	0	1555038208	40	6143
2026-01-04 22:46:13.70	5.02	25.86	-34.1	-35.0	24.4	0.00e+00	0	32	0	1566572544	40	6217
2026-01-04 22:46:17.62	4.15	25.44	-33.7	-34.6	24.8	0.00e+00	0	32	0	1579155456	40	5943
2026-01-04 22:46:21.53	3.30	25.02	-34.0	-34.9	24.6	0.00e+00	0	32	0	1591738368	40	6198
2026-01-04 22:46:25.44	2.48	24.59	-34.0	-34.8	24.6	0.00e+00	0	32	0	1603272704	40	6133
2026-01-04 22:46:29.36	1.67	24.17	-33.3	-34.2	24.9	0.00e+00	0	32	0	1615855616	40	5700
2026-01-04 22:46:33.26	0.89	23.75	-33.1	-34.0	25.0	0.00e+00	0	32	0	1628438528	40	5558
2026-01-04 22:46:37.17	0.13	23.33	-33.6	-34.5	24.5	0.00e+00	0	32	0	1639972864	40	5895
2026-01-04 22:46:41.08	359.39	22.91	-33.9	-34.8	24.4	0.00e+00	0	32	0	1652555776	40	6095
2026-01-04 22:46:45.00	358.67	22.50	-33.9	-34.7	24.5	0.00e+00	0	32	0	1665138688	40	6064
2026-01-04 22:46:48.90	357.97	22.08	-33.7	-34.5	24.7	0.00e+00	0	32	0	1676673024	40	5917
2026-01-04 22:46:52.81	357.29	21.67	-33.7	-34.6	24.7	0.00e+00	0	32	0	1689255936	40	5954
2026-01-04 22:46:56.72	356.63	21.26	-34.2	-35.1	24.3	0.00e+00	0	32	0	1701838848	40	6309
2026-01-04 22:47:00.63	355.98	20.85	-34.5	-35.5	24.1	0.00e+00	0	32	0	1713373184	40	6588
2026-01-04 22:47:04.54	355.35	20.45	-34.2	-35.1	24.3	0.00e+00	0	32	0	1725956096	40	6339
2026-01-04 22:47:08.45	354.74	20.05	-34.0	-34.9	24.4	0.00e+00	0	32	0	1738539008	40	6200
2026-01-04 22:47:12.36	354.15	19.65	-34.1	-35.0	24.5	0.00e+00	0	32	0	1750073344	40	6226
2026-01-04 22:47:16.27	353.57	19.25	-33.9	-34.8	24.2	0.00e+00	0	32	0	1762656256	40	6109
2026-01-04 22:47:20.19	353.00	18.86	-34.0	-34.9	24.1	0.00e+00	0	32	0	1775239168	40	6183
2026-01-04 22:47:24.10	352.45	18.47	-34.0	-34.8	24.3	0.00e+00	0	32	0	1786773504	40	6120
2026-01-04 22:47:28.01	351.91	18.09	-33.9	-34.8	24.3	0.00e+00	0	32	0	1799356416	40	6129
2026-01-04 22:47:31.92	351.39	17.70	-34.4	-35.3	24.0	9.10e-06	0	32	0	1810890752	40	6480
2026-01-04 22:47:35.83	350.88	17.33	-34.6	-35.6	23.7	0.00e+00	0	32	0	1823473664	40	6664
2026-01-04 22:47:39.73	350.39	16.95	-34.4	-35.3	24.0	0.00e+00	0	32	0	1836056576	40	6498
2026-01-04 22:47:43.65	349.90	16.58	-34.6	-35.5	23.9	0.00e+00	0	32	0	1848639488	40	6643
2026-01-04 22:47:47.55	349.43	16.21	-34.8	-35.8	23.7	0.00e+00	0	32	0	1860173824	42	6070
2026-01-04 22:47:51.46	348.97	15.85	-35.2	-36.1	23.5	0.00e+00	0	32	0	1872756736	42	6310
2026-01-04 22:47:55.37	348.52	15.49	-35.1	-36.0	23.4	0.00e+00	0	32	0	1884291072	42	6272
2026-01-04 22:47:59.28	348.08	15.13	-35.1	-36.1	23.3	0.00e+00	0	32	0	1896873984	42	6285
2026-01-04 22:48:03.20	347.66	14.77	-34.9	-35.9	23.5	0.00e+00	0	32	0	1909456896	42	6148
2026-01-04 22:48:07.10	347.24	14.42	-34.8	-35.7	23.6	0.00e+00	0	32	0	1920991232	42	6034
2026-01-04 22:48:11.01	346.83	14.08	-35.0	-36.0	23.6	0.00e+00	0	32	0	1933574144	42	6225
2026-01-04 22:48:14.92	346.44	13.73	-35.4	-36.3	23.2	0.00e+00	0	32	0	1946157056	42	6488
2026-01-04 22:48:18.84	346.05	13.39	-35.4	-36.4	23.0	0.00e+00	0	32	0	1957691392	42	6565
2026-01-04 22:48:22.75	345.67	13.05	-35.4	-36.4	22.8	0.00e+00	0	32	0	1970274304	42	6527
2026-01-04 22:48:26.66	345.30	12.72	-34.9	-35.9	23.3	0.00e+00	0	32	0	1982857216	42	6139
2026-01-04 22:48:30.57	344.94	12.39	-35.0	-36.0	23.4	0.00e+00	0	32	0	1994391552	42	6233
2026-01-04 22:48:34.49	344.58	12.06	-35.3	-36.3	23.3	0.00e+00	0	32	0	2006974464	42	6441
2026-01-04 22:48:38.41	344.24	11.74	-35.7	-36.6	23.0	0.00e+00	0	32	0	2019557376	42	6719
2026-01-04 22:48:42.32	343.90	11.42	-35.7	-36.7	22.9	0.00e+00	0	32	0	2031091712	44	6010
2026-01-04 22:48:46.23	343.57	11.10	-35.8	-36.9	22.7	0.00e+00	0	32	0	2043674624	44	6135
2026-01-04 22:48:50.14	343.25	10.79	-35.7	-36.7	22.6	0.00e+00	0	32	0	2056257536	44	6020
2026-01-04 22:48:54.05	342.93	10.47	-35.7	-36.7	22.7	0.00e+00	0	32	0	2067791872	44	6044
2026-01-04 22:48:57.96	342.62	10.17	-36.0	-37.0	22.2	0.00e+00	0	32	0	2080374784	44	6254
2026-01-04 22:49:01.87	342.32	9.86	-36.0	-37.0	22.4	0.00e+00	0	32	0	2092957696	44	6275
2026-01-04 22:49:05.79	342.03	9.56	-36.1	-37.1	22.2	0.00e+00	0	32	0	2104492032	44	6314
2026-01-04 22:49:09.69	341.74	9.26	-36.2	-37.2	22.2	0.00e+00	0	32	0	2117074944	44	6405
2026-01-04 22:49:13.59	341.46	8.96	-36.1	-37.1	22.3	0.00e+00	0	32	0	2129657856	44	6296
2026-01-04 22:49:17.50	341.18	8.67	-36.2	-37.2	22.1	0.00e+00	0	32	0	2141192192	44	6422
2026-01-04 22:49:21.42	340.91	8.38	-36.3	-37.3	22.1	0.00e+00	0	32	0	2153775104	44	6481
2026-01-04 22:49:25.33	340.64	8.09	-36.6	-37.7	21.7	0.00e+00	0	32	0	2165309440	44	6758
2026-01-04 22:49:29.23	340.39	7.81	-36.7	-37.8	21.7	0.00e+00	0	32	0	2177892352	46	6082
2026-01-04 22:49:33.13	340.13	7.52	-36.9	-37.9	21.6	0.00e+00	0	32	0	2190475264	46	6190
2026-01-04 22:49:37.04	339.88	7.24	-37.3	-38.4	21.1	0.00e+00	0	32	0	2202009600	46	6549
2026-01-04 22:49:40.95	339.64	6.97	-37.4	-38.5	21.1	0.00e+00	0	32	0	2214592512	46	6631
2026-01-04 22:49:44.87	339.40	6.69	-37.2	-38.3	21.1	0.00e+00	0	32	0	2227175424	46	6491
2026-01-04 22:49:48.78	339.16	6.42	-37.3	-38.4	21.1	0.00e+00	0	32	0	2238709760	46	6539
2026-01-04 22:49:52.70	338.93	6.14	-37.6	-38.8	20.6	0.00e+00	0	32	0	2251292672	48	6097
2026-01-04 22:49:56.61	338.71	5.88	-37.6	-38.9	20.4	0.00e+00	0	32	0	2263875584	48	6138
2026-01-04 22:50:00.53	338.49	5.61	-38.1	-39.4	19.7	0.00e+00	0	32	0	2275409920	48	6504
2026-01-04 22:50:04.44	338.27	5.35	-39.3	-40.8	18.0	0.00e+00	0	32	0	2287992832	50	6848
2026-01-04 22:50:08.36	338.06	5.08	-40.1	-42.0	15.9	0.00e+00	0	32	0	2300575744	52	7029
2026-01-04 22:50:12.26	337.85	4.82	-41.6	-44.4	13.1	2.89e-05	0	32	0	2312110080	54	8203
2026-01-04 22:50:16.18	337.64	4.57	-42.8	-47.0	9.4	1.25e-02	0	32	0	2324692992	58	8845
2026-01-04 22:50:20.09	337.44	4.31	-43.5	-51.5	5.1	1.19e+00	0	32	104	2335178752	58	14862
2026-01-04 22:50:24.01	337.24	4.06	-43.6	-54.1	3.9	1.48e+00	0	32	104	2335178752	58	19929
2026-01-04 22:50:27.92	337.05	3.81	-43.5	-56.3	3.5	1.52e+00	0	32	104	2335178752	58	25621
2026-01-04 22:50:31.84	336.86	3.56	-43.7	-56.1	3.5	1.52e+00	0	32	104	2335178752	60	22340
2026-01-04 22:50:35.74	336.67	3.31	-43.6	-56.4	3.5	1.52e+00	0	32	104	2335178752	60	23263
2026-01-04 22:50:39.66	336.49	3.06	-43.6	-56.4	3.5	1.51e+00	0	32	104	2335178752	60	23092
2026-01-04 22:50:43.57	336.31	2.82	-48.4	-61.2	3.5	1.52e+00	0	32	104	2335178752	60	40326
2026-01-04 22:50:47.48	336.13	2.58	-48.8	-61.7	3.5	1.52e+00	0	32	104	2335178752	60	42619
2026-01-04 22:50:51.39	335.96	2.34	-48.7	-61.6	3.5	1.52e+00	0	32	104	2335178752	60	42322
2026-01-04 22:50:55.30	335.79	2.10	-48.7	-61.6	3.5	1.52e+00	0	32	104	2335178752	60	41959
2026-01-04 22:50:59.22	335.62	1.86	-48.8	-61.7	3.5	1.52e+00	0	32	104	2335178752	60	42488
2026-01-04 22:51:03.13	335.46	1.63	-48.9	-61.8	3.5	1.52e+00	0	32	104	2335178752	60	42981
2026-01-04 22:51:07.04	335.29	1.40	-48.7	-61.5	3.5	1.51e+00	0	32	104	2335178752	60	41858
2026-01-04 22:51:10.95	335.14	1.16	-48.8	-61.7	3.5	1.51e+00	0	32	104	2335178752	60	42516
2026-01-04 22:51:14.87	334.98	0.93	-48.8	-61.6	3.5	1.52e+00	0	32	104	2335178752	60	42219
2026-01-04 22:51:18.78	334.82	0.71	-48.8	-61.6	3.5	1.52e+00	0	32	104	2335178752	60	42441
2026-01-04 22:51:22.69	334.67	0.48	-48.8	-61.6	3.5	1.52e+00	0	32	104	2335178752	60	42341
2026-01-04 22:51:26.60	334.52	0.25	-48.8	-61.6	3.5	1.52e+00	0	32	104	2335178752	60	42380
2026-01-04 22:51:30.51	334.38	0.03	-49.1	-61.9	3.5	1.52e+00	0	32	104	2335178752	60	43796

#Closed at: 2026-01-04 22:51:33
#Recorded file [2335 MB]: D:/lorett/data/35029_260105_103654.dat