passes_logs/2026/01/04/R4.6S_Anadyr/R4.6S_Anadyr__20260104_151122_NOAA_20_JPSS-1_rec.log

#Pass ID: 20260104_151122_NOAA 20 (JPSS-1)
#Satellite: NOAA 20 (JPSS-1)
#Configuration: NOAA 20
#almurnet v.1.7.20251203
#Start time: 2026-01-04 15:11:25

#Version: 2.2.20231116
#Station: R4.6S_Anadyr
#Location: 177.4865 lon 64.73178 lat
#TLE: 1 43013U 17073A   26003.41800368  .00000169  00000+0  10117-3 0  9998
#TLE: 2 43013  98.7624 304.4804 0001884  56.1176 304.0179 14.19532918421092

#Time	Az	El	Level	Level2	SNR	BER	BlckErr	Temp	State	Recorded	gain1	gain2
2026-01-04 15:11:25.72	21.59	0.19	-49.7	-63.4	3.3	1.54e+00	0	38	0	0	60	53599
2026-01-04 15:11:29.76	21.55	0.43	-49.5	-64.7	3.6	1.51e+00	0	38	104	0	60	61917
2026-01-04 15:11:33.80	21.51	0.68	-49.3	-64.5	3.6	1.51e+00	0	39	104	0	60	60529
2026-01-04 15:11:37.84	21.48	0.92	-49.0	-64.1	3.6	1.51e+00	0	39	104	0	60	58165
2026-01-04 15:11:41.87	21.44	1.17	-48.2	-63.5	3.6	1.51e+00	0	39	104	0	60	53781
2026-01-04 15:11:45.91	21.40	1.42	-47.8	-62.8	3.6	1.51e+00	0	39	104	0	60	49612
2026-01-04 15:11:49.95	21.36	1.67	-47.8	-62.8	3.6	1.51e+00	0	39	104	0	60	50091
2026-01-04 15:11:53.99	21.32	1.93	-47.8	-63.0	3.6	1.51e+00	0	39	104	0	60	51200
2026-01-04 15:11:58.03	21.28	2.19	-47.8	-62.8	3.6	1.51e+00	0	39	104	0	60	50037
2026-01-04 15:12:02.07	21.23	2.45	-47.8	-62.1	3.6	1.51e+00	0	39	104	0	60	45795
2026-01-04 15:12:06.11	21.19	2.71	-47.8	-62.3	3.6	1.51e+00	0	39	104	0	60	46917
2026-01-04 15:12:10.14	21.15	2.97	-47.4	-55.9	5.1	8.61e-01	0	39	0	1048576	60	22637
2026-01-04 15:12:14.19	21.10	3.24	-46.1	-51.0	10.9	5.15e-03	1	39	0	8388608	60	12774
2026-01-04 15:12:18.22	21.05	3.51	-45.8	-50.2	11.9	3.38e-04	92	39	0	15728640	60	11662
2026-01-04 15:12:22.26	21.00	3.78	-46.6	-51.4	10.0	2.74e-01	0	39	0	23068672	60	13496
2026-01-04 15:12:26.29	20.95	4.06	-41.9	-43.6	17.7	1.05e+00	0	39	104	24117248	58	6160
2026-01-04 15:12:30.33	20.90	4.33	-42.0	-43.7	18.6	0.00e+00	0	39	0	30408704	58	6183
2026-01-04 15:12:34.37	20.85	4.62	-42.0	-43.7	18.5	0.00e+00	2	39	0	37748736	56	6982
2026-01-04 15:12:38.40	20.80	4.90	-42.7	-44.5	18.3	0.00e+00	6	39	0	45088768	56	7649
2026-01-04 15:12:42.44	20.74	5.19	-41.6	-43.1	19.3	0.00e+00	0	39	0	53477376	56	6509
2026-01-04 15:12:46.48	20.68	5.48	-42.1	-43.7	18.9	0.00e+00	79	39	0	60817408	56	6971
2026-01-04 15:12:50.52	20.63	5.77	-41.5	-43.0	19.3	0.00e+00	5	39	0	68157440	56	6405
2026-01-04 15:12:54.55	20.57	6.06	-41.4	-42.8	19.8	0.00e+00	13	39	0	75497472	56	6316
2026-01-04 15:12:58.59	20.50	6.36	-41.2	-42.6	19.9	0.00e+00	13	39	0	83886080	56	6135
2026-01-04 15:13:02.63	20.44	6.67	-41.1	-42.5	20.1	0.00e+00	92	39	0	91226112	56	6050
2026-01-04 15:13:06.66	20.38	6.97	-41.1	-42.5	20.1	0.00e+00	0	39	0	98566144	56	6048
2026-01-04 15:13:10.70	20.31	7.28	-40.8	-42.1	20.4	0.00e+00	0	39	0	105906176	54	6470
2026-01-04 15:13:14.74	20.24	7.60	-40.7	-41.9	20.5	0.00e+00	6	39	0	113246208	54	6382
2026-01-04 15:13:18.77	20.17	7.91	-41.0	-42.3	20.1	0.00e+00	92	39	0	121634816	54	6687
2026-01-04 15:13:22.81	20.10	8.24	-40.2	-41.5	21.0	0.00e+00	10	39	0	128974848	54	6035
2026-01-04 15:13:26.85	20.03	8.56	-40.5	-41.8	20.8	0.00e+00	67	39	0	136314880	54	6268
2026-01-04 15:13:30.88	19.95	8.89	-40.2	-41.4	21.1	0.00e+00	0	39	0	143654912	54	6022
2026-01-04 15:13:34.92	19.87	9.23	-40.2	-41.3	21.2	0.00e+00	92	39	0	152043520	54	5954
2026-01-04 15:13:38.96	19.79	9.56	-40.0	-41.2	21.4	0.00e+00	3	39	0	159383552	52	6572
2026-01-04 15:13:42.99	19.71	9.91	-40.1	-41.3	21.4	0.00e+00	15	39	0	166723584	52	6631
2026-01-04 15:13:47.03	19.62	10.26	-39.8	-40.9	21.7	0.00e+00	3	39	0	174063616	52	6364
2026-01-04 15:13:51.07	19.53	10.61	-39.6	-40.7	21.9	0.00e+00	90	39	0	181403648	52	6219
2026-01-04 15:13:55.11	19.44	10.97	-39.5	-40.6	22.0	0.00e+00	0	39	0	189792256	52	6131
2026-01-04 15:13:59.14	19.35	11.33	-39.4	-40.4	22.2	0.00e+00	15	39	0	197132288	52	5999
2026-01-04 15:14:03.18	19.26	11.70	-39.4	-40.4	22.4	0.00e+00	0	39	0	204472320	52	6003
2026-01-04 15:14:07.22	19.16	12.07	-39.3	-40.3	22.5	0.00e+00	92	39	0	211812352	52	5947
2026-01-04 15:14:11.25	19.06	12.45	-39.3	-40.3	22.5	0.00e+00	0	39	0	220200960	52	5930
2026-01-04 15:14:15.29	18.95	12.84	-39.1	-40.1	22.7	0.00e+00	2	39	0	227540992	52	5806
2026-01-04 15:14:19.33	18.84	13.23	-39.0	-40.0	22.8	0.00e+00	0	39	0	234881024	52	5698
2026-01-04 15:14:23.37	18.73	13.63	-39.0	-40.0	22.8	0.00e+00	91	39	0	242221056	52	5701
2026-01-04 15:14:27.41	18.62	14.03	-38.5	-39.5	23.2	0.00e+00	0	39	0	249561088	50	6051
2026-01-04 15:14:31.45	18.50	14.45	-38.9	-39.9	22.9	0.00e+00	0	39	0	257949696	50	6319
2026-01-04 15:14:35.48	18.38	14.86	-38.2	-39.1	23.6	0.00e+00	15	39	0	265289728	50	5790
2026-01-04 15:14:39.51	18.25	15.29	-38.2	-39.1	23.6	0.00e+00	6	39	0	272629760	50	5781
2026-01-04 15:14:43.54	18.12	15.72	-37.9	-38.8	23.9	0.00e+00	16	39	0	279969792	50	5595
2026-01-04 15:14:47.58	17.98	16.16	-38.0	-38.9	23.7	0.00e+00	5	39	0	287309824	50	5664
2026-01-04 15:14:51.61	17.85	16.61	-37.8	-38.6	24.0	0.00e+00	92	40	0	295698432	48	6155
2026-01-04 15:14:55.65	17.70	17.07	-37.8	-38.6	24.1	0.00e+00	3	39	0	303038464	48	6151
2026-01-04 15:14:59.69	17.55	17.53	-37.6	-38.4	24.3	0.00e+00	5	39	0	310378496	48	6000
2026-01-04 15:15:03.73	17.40	18.01	-37.4	-38.3	24.4	0.00e+00	0	39	0	317718528	48	5898
2026-01-04 15:15:07.76	17.24	18.49	-37.4	-38.3	24.4	0.00e+00	92	39	0	326107136	48	5908
2026-01-04 15:15:11.79	17.07	18.98	-37.5	-38.3	24.4	0.00e+00	18	39	0	333447168	48	5963
2026-01-04 15:15:15.83	16.90	19.48	-37.3	-38.1	24.6	0.00e+00	17	40	0	340787200	48	5797
2026-01-04 15:15:19.87	16.72	19.99	-37.3	-38.2	24.6	0.00e+00	0	39	0	348127232	48	5834
2026-01-04 15:15:23.91	16.54	20.52	-37.1	-38.0	24.7	0.00e+00	92	39	0	355467264	48	5699
2026-01-04 15:15:27.94	16.35	21.05	-37.0	-37.8	24.8	0.00e+00	1	40	0	363855872	48	5615
2026-01-04 15:15:31.98	16.15	21.60	-36.9	-37.7	24.8	0.00e+00	0	40	0	371195904	48	5562
2026-01-04 15:15:36.02	15.94	22.15	-36.9	-37.6	25.1	0.00e+00	69	39	0	378535936	46	6168
2026-01-04 15:15:40.06	15.73	22.72	-36.9	-37.7	24.9	0.00e+00	92	40	0	385875968	46	6181
2026-01-04 15:15:44.09	15.50	23.30	-36.8	-37.6	25.0	0.00e+00	0	40	0	394264576	46	6152
2026-01-04 15:15:48.13	15.27	23.89	-36.9	-37.7	25.0	0.00e+00	0	39	0	401604608	46	6190
2026-01-04 15:15:52.16	15.03	24.50	-37.1	-37.9	24.8	0.00e+00	0	40	0	408944640	46	6349
2026-01-04 15:15:56.20	14.78	25.12	-37.4	-38.3	24.4	0.00e+00	92	40	0	416284672	46	6619
2026-01-04 15:16:00.24	14.51	25.75	-37.9	-38.7	24.1	0.00e+00	0	40	0	423624704	48	6222
2026-01-04 15:16:04.28	14.24	26.40	-38.2	-39.1	23.6	0.00e+00	0	39	0	432013312	48	6506
2026-01-04 15:16:08.31	13.95	27.07	-38.6	-39.5	23.4	0.00e+00	0	40	0	439353344	48	6826
2026-01-04 15:16:12.35	13.65	27.75	-39.1	-40.1	22.9	0.00e+00	25	40	0	446693376	50	6472
2026-01-04 15:16:16.38	13.34	28.44	-39.8	-40.8	22.3	0.00e+00	20	40	0	454033408	52	6296
2026-01-04 15:16:20.42	13.01	29.16	-40.3	-41.4	21.7	0.00e+00	62	40	0	461373440	52	6715
2026-01-04 15:16:24.46	12.67	29.89	-40.8	-42.0	21.2	0.00e+00	92	40	0	469762048	54	6435
2026-01-04 15:16:28.50	12.30	30.64	-41.1	-42.3	20.7	0.00e+00	68	40	0	477102080	54	6643
2026-01-04 15:16:32.54	11.92	31.40	-41.1	-42.4	20.8	0.00e+00	2	40	0	484442112	54	6716
2026-01-04 15:16:36.58	11.53	32.19	-41.9	-43.2	20.1	0.00e+00	5	40	0	491782144	56	6607
2026-01-04 15:16:40.62	11.11	33.00	-42.2	-43.7	19.7	0.00e+00	91	40	0	500170752	56	6933
2026-01-04 15:16:44.66	10.66	33.82	-42.3	-43.8	19.6	0.00e+00	64	40	0	507510784	56	7038
2026-01-04 15:16:48.70	10.20	34.67	-41.8	-43.1	20.2	0.00e+00	0	40	0	514850816	56	6520
2026-01-04 15:16:52.73	9.71	35.54	-41.5	-42.8	20.6	0.00e+00	0	40	0	522190848	56	6285
2026-01-04 15:16:56.77	9.19	36.43	-41.4	-42.7	20.6	0.00e+00	91	40	0	529530880	56	6197
2026-01-04 15:17:00.81	8.63	37.34	-42.3	-43.8	19.6	0.00e+00	21	40	0	537919488	56	7009
2026-01-04 15:17:04.84	8.05	38.27	-42.3	-43.8	19.6	0.00e+00	65	40	0	545259520	56	7052
2026-01-04 15:17:08.88	7.43	39.23	-42.3	-43.7	19.7	0.00e+00	64	40	0	552599552	56	7000
2026-01-04 15:17:12.92	6.77	40.21	-41.7	-43.0	20.4	0.00e+00	92	40	0	559939584	56	6454
2026-01-04 15:17:16.96	6.07	41.21	-41.0	-42.2	21.1	0.00e+00	0	40	0	568328192	56	5879
2026-01-04 15:17:20.99	5.33	42.24	-40.5	-41.6	21.5	0.00e+00	59	40	0	575668224	54	6145
2026-01-04 15:17:25.03	4.53	43.29	-40.4	-41.5	21.6	0.00e+00	9	40	0	583008256	54	6087
2026-01-04 15:17:29.06	3.68	44.36	-39.3	-40.3	22.8	0.00e+00	92	40	0	590348288	52	5914
2026-01-04 15:17:33.10	2.76	45.45	-39.0	-40.0	23.1	0.00e+00	0	40	0	597688320	52	5700
2026-01-04 15:17:37.14	1.78	46.57	-38.7	-39.7	23.4	0.00e+00	0	40	0	606076928	50	6176
2026-01-04 15:17:41.18	0.73	47.70	-39.0	-39.9	23.0	0.00e+00	0	40	0	613416960	50	6368
2026-01-04 15:17:45.21	359.59	48.86	-39.2	-40.1	22.9	0.00e+00	92	40	0	620756992	50	6524
2026-01-04 15:17:49.24	358.37	50.03	-38.5	-39.4	23.5	0.00e+00	2	40	0	628097024	50	6022
2026-01-04 15:17:53.28	357.04	51.22	-37.3	-38.2	24.6	0.00e+00	0	40	0	635437056	48	5841
2026-01-04 15:17:57.31	355.60	52.42	-36.8	-37.6	25.1	0.00e+00	76	40	0	643825664	48	5455
2026-01-04 15:18:01.35	354.04	53.63	-37.1	-37.9	24.8	0.00e+00	92	40	0	651165696	48	5638
2026-01-04 15:18:05.39	352.34	54.84	-37.8	-38.7	24.2	0.00e+00	65	40	0	658505728	48	6207
2026-01-04 15:18:09.42	350.48	56.06	-40.2	-41.3	21.8	0.00e+00	15	40	0	665845760	52	6650
2026-01-04 15:18:13.46	348.46	57.27	-43.1	-44.8	18.3	0.00e+00	92	40	0	674234368	58	7067
2026-01-04 15:18:17.50	346.24	58.47	-41.3	-42.5	20.9	0.00e+00	0	40	0	681574400	56	6092
2026-01-04 15:18:21.54	343.82	59.65	-40.0	-41.1	22.0	0.00e+00	21	40	0	688914432	54	5799
2026-01-04 15:18:25.58	341.17	60.80	-38.1	-39.0	24.0	0.00e+00	0	40	0	696254464	50	5696
2026-01-04 15:18:29.61	338.27	61.90	-36.3	-37.1	25.3	0.00e+00	92	40	0	703594496	46	5805
2026-01-04 15:18:33.65	335.10	62.96	-36.3	-37.0	25.4	0.00e+00	0	40	0	711983104	44	6463
2026-01-04 15:18:37.69	331.65	63.96	-36.9	-37.7	25.0	0.00e+00	4	40	0	719323136	46	6236
2026-01-04 15:18:41.72	327.90	64.87	-37.3	-38.1	24.7	0.00e+00	3	40	0	726663168	46	6538
2026-01-04 15:18:45.76	323.84	65.68	-38.0	-38.9	24.1	0.00e+00	92	40	0	734003200	48	6324
2026-01-04 15:18:49.80	319.50	66.39	-39.9	-40.9	22.4	0.00e+00	59	40	0	742391808	52	6359
2026-01-04 15:18:53.84	314.88	66.97	-39.9	-40.9	22.1	0.00e+00	58	40	0	749731840	52	6378
2026-01-04 15:18:57.87	310.05	67.41	-40.5	-41.6	21.7	0.00e+00	0	40	0	757071872	52	6897
2026-01-04 15:19:01.91	305.03	67.69	-39.9	-41.0	22.2	0.00e+00	92	40	0	764411904	52	6405
2026-01-04 15:19:05.95	299.90	67.82	-40.1	-41.2	22.0	0.00e+00	17	40	0	771751936	52	6578
2026-01-04 15:19:09.99	294.76	67.78	-40.8	-41.9	21.4	0.00e+00	63	40	0	780140544	54	6387
2026-01-04 15:19:14.03	289.68	67.57	-40.4	-41.5	22.0	0.00e+00	78	40	0	787480576	54	6077
2026-01-04 15:19:18.07	284.74	67.21	-39.8	-40.8	22.4	0.00e+00	92	40	0	794820608	52	6313
2026-01-04 15:19:22.10	280.01	66.70	-39.3	-40.3	22.9	0.00e+00	0	40	0	802160640	52	5921
2026-01-04 15:19:26.14	275.52	66.06	-39.2	-40.1	23.2	0.00e+00	24	40	0	810549248	52	5817
2026-01-04 15:19:30.18	271.31	65.29	-37.8	-38.7	24.3	0.00e+00	0	40	0	817889280	48	6176
2026-01-04 15:19:34.21	267.41	64.42	-36.9	-37.7	25.4	0.00e+00	92	40	0	825229312	46	6183
2026-01-04 15:19:38.25	263.80	63.47	-36.9	-37.7	25.3	0.00e+00	0	40	0	832569344	46	6193
2026-01-04 15:19:42.28	260.49	62.44	-38.9	-39.9	23.2	0.00e+00	64	40	0	839909376	48	7117
2026-01-04 15:19:46.31	257.45	61.36	-39.7	-40.6	22.6	0.00e+00	22	40	0	848297984	52	6168
2026-01-04 15:19:50.35	254.67	60.22	-41.4	-42.6	20.6	0.00e+00	92	40	0	855638016	54	6906
2026-01-04 15:19:54.38	252.14	59.06	-42.0	-43.3	20.3	0.00e+00	0	40	0	862978048	56	6690
2026-01-04 15:19:58.42	249.82	57.87	-40.7	-41.8	21.5	0.00e+00	21	40	0	870318080	54	6309
2026-01-04 15:20:02.46	247.70	56.66	-39.2	-40.1	23.0	0.00e+00	90	40	0	878706688	52	5824
2026-01-04 15:20:06.50	245.75	55.44	-38.5	-39.4	23.6	0.00e+00	5	40	0	886046720	50	6015
2026-01-04 15:20:10.54	243.97	54.22	-38.2	-39.1	23.9	0.00e+00	5	40	0	893386752	50	5786
2026-01-04 15:20:14.58	242.34	53.00	-38.6	-39.5	23.5	0.00e+00	18	40	0	900726784	50	6063
2026-01-04 15:20:18.62	240.84	51.79	-39.1	-40.1	22.9	0.00e+00	90	40	0	908066816	50	6505
2026-01-04 15:20:22.65	239.45	50.60	-39.4	-40.4	22.7	0.00e+00	3	40	0	916455424	50	6728
2026-01-04 15:20:26.69	238.17	49.41	-39.7	-40.7	22.3	0.00e+00	6	40	0	923795456	52	6236
2026-01-04 15:20:30.72	236.99	48.25	-40.1	-41.1	22.0	0.00e+00	0	40	0	931135488	52	6532
2026-01-04 15:20:34.76	235.89	47.10	-39.7	-40.7	22.4	0.00e+00	90	40	0	938475520	52	6243
2026-01-04 15:20:38.80	234.87	45.97	-39.7	-40.7	22.3	0.00e+00	66	40	0	946864128	52	6239
2026-01-04 15:20:42.84	233.93	44.86	-40.8	-42.0	21.2	0.00e+00	66	40	0	954204160	52	7193
2026-01-04 15:20:46.87	233.04	43.77	-40.4	-41.6	21.2	0.00e+00	0	40	0	961544192	54	6127
2026-01-04 15:20:50.91	232.22	42.71	-41.4	-42.7	20.6	0.00e+00	92	40	0	968884224	54	6955
2026-01-04 15:20:54.94	231.44	41.67	-42.4	-44.0	19.2	0.00e+00	20	40	0	976224256	56	7225
2026-01-04 15:20:58.98	230.72	40.65	-43.1	-44.9	18.3	0.00e+00	4	40	0	984612864	58	7137
2026-01-04 15:21:03.02	230.04	39.66	-42.7	-44.4	19.0	0.00e+00	0	40	0	991952896	58	6693
2026-01-04 15:21:07.06	229.40	38.69	-41.4	-42.7	20.4	0.00e+00	92	40	0	999292928	56	6227
2026-01-04 15:21:11.09	228.80	37.74	-41.2	-42.5	20.6	0.00e+00	0	40	0	1006632960	56	6099
2026-01-04 15:21:15.13	228.23	36.81	-40.9	-42.2	21.0	0.00e+00	0	40	0	1013972992	56	5863
2026-01-04 15:21:19.16	227.69	35.91	-41.0	-42.3	20.9	0.00e+00	0	40	0	1022361600	56	5950
2026-01-04 15:21:23.20	227.18	35.03	-41.0	-42.4	20.9	0.00e+00	90	40	0	1029701632	56	5975
2026-01-04 15:21:27.24	226.70	34.17	-41.0	-42.3	20.8	0.00e+00	63	40	0	1037041664	56	5931
2026-01-04 15:21:31.28	226.25	33.33	-40.8	-42.0	21.0	0.00e+00	0	40	0	1044381696	56	5759
2026-01-04 15:21:35.32	225.82	32.51	-40.7	-41.9	21.1	0.00e+00	77	40	0	1052770304	54	6328
2026-01-04 15:21:39.35	225.41	31.72	-41.1	-42.4	20.5	0.00e+00	2	40	0	1060110336	54	6737
2026-01-04 15:21:43.39	225.01	30.94	-41.5	-42.9	20.2	0.00e+00	63	40	0	1067450368	54	7124
2026-01-04 15:21:47.42	224.64	30.18	-41.8	-43.2	20.0	0.00e+00	0	40	0	1074790400	56	6550
2026-01-04 15:21:51.45	224.29	29.44	-42.3	-43.9	19.3	0.00e+00	92	40	0	1082130432	56	7095
2026-01-04 15:21:55.48	223.95	28.72	-42.5	-44.1	19.1	0.00e+00	1	40	0	1090519040	56	7275
2026-01-04 15:21:59.52	223.63	28.01	-42.3	-43.8	19.4	0.00e+00	0	40	0	1097859072	56	7080
2026-01-04 15:22:03.56	223.32	27.32	-41.5	-42.8	20.3	0.00e+00	15	40	0	1105199104	56	6291
2026-01-04 15:22:07.60	223.02	26.64	-41.6	-43.0	20.0	0.00e+00	91	40	0	1112539136	56	6450
2026-01-04 15:22:11.63	222.74	25.99	-41.5	-42.8	20.2	0.00e+00	8	40	0	1119879168	56	6303
2026-01-04 15:22:15.66	222.47	25.34	-40.8	-42.1	21.0	0.00e+00	2	40	0	1128267776	56	5769
2026-01-04 15:22:19.69	222.21	24.72	-40.6	-41.8	21.2	0.00e+00	2	40	0	1135607808	54	6254
2026-01-04 15:22:23.73	221.96	24.10	-40.3	-41.4	21.5	0.00e+00	92	40	0	1142947840	54	6020
2026-01-04 15:22:27.77	221.72	23.50	-40.1	-41.2	21.7	0.00e+00	6	40	0	1150287872	54	5890
2026-01-04 15:22:31.80	221.49	22.91	-39.9	-40.9	22.0	0.00e+00	66	40	0	1158676480	52	6378
2026-01-04 15:22:35.84	221.27	22.34	-39.6	-40.6	22.2	0.00e+00	0	40	0	1166016512	52	6144
2026-01-04 15:22:39.88	221.06	21.77	-39.2	-40.2	22.6	0.00e+00	92	40	0	1173356544	52	5839
2026-01-04 15:22:43.92	220.85	21.22	-39.2	-40.1	22.4	0.00e+00	0	40	0	1180696576	52	5821
2026-01-04 15:22:47.95	220.66	20.68	-39.1	-40.1	22.7	0.00e+00	16	40	0	1188036608	52	5803
2026-01-04 15:22:51.99	220.47	20.15	-39.1	-40.1	22.7	0.00e+00	0	40	0	1196425216	52	5763
2026-01-04 15:22:56.03	220.28	19.63	-39.2	-40.3	22.5	0.00e+00	92	40	0	1203765248	52	5900
2026-01-04 15:23:00.06	220.11	19.12	-39.3	-40.4	22.4	0.00e+00	0	40	0	1211105280	52	5977
2026-01-04 15:23:04.10	219.94	18.63	-39.2	-40.2	22.6	0.00e+00	2	40	0	1218445312	52	5876
2026-01-04 15:23:08.14	219.77	18.14	-39.4	-40.4	22.4	0.00e+00	9	40	0	1226833920	52	5981
2026-01-04 15:23:12.18	219.61	17.66	-39.5	-40.5	22.3	0.00e+00	92	40	0	1234173952	52	6084
2026-01-04 15:23:16.22	219.46	17.19	-39.5	-40.6	22.2	0.00e+00	15	40	0	1241513984	52	6122
2026-01-04 15:23:20.25	219.31	16.73	-39.7	-40.8	22.0	0.00e+00	65	40	0	1248854016	52	6257
2026-01-04 15:23:24.29	219.17	16.27	-39.8	-40.9	21.8	0.00e+00	69	40	0	1256194048	52	6353
2026-01-04 15:23:28.33	219.03	15.83	-40.0	-41.2	21.7	0.00e+00	92	40	0	1264582656	52	6552
2026-01-04 15:23:32.36	218.89	15.39	-39.8	-40.9	21.8	0.00e+00	6	40	0	1271922688	52	6346
2026-01-04 15:23:36.39	218.76	14.96	-40.0	-41.1	21.7	0.00e+00	7	40	0	1279262720	52	6532
2026-01-04 15:23:40.42	218.63	14.54	-39.9	-41.0	21.7	0.00e+00	43	40	0	1286602752	52	6448
2026-01-04 15:23:44.46	218.51	14.12	-40.2	-41.3	21.5	0.00e+00	1	40	0	1293942784	52	6653
2026-01-04 15:23:48.49	218.39	13.71	-40.3	-41.4	21.4	0.00e+00	0	40	0	1302331392	52	6738
2026-01-04 15:23:52.53	218.28	13.31	-40.4	-41.6	21.3	0.00e+00	5	40	0	1309671424	52	6873
2026-01-04 15:23:56.57	218.16	12.91	-40.6	-41.8	21.0	0.00e+00	92	40	0	1317011456	52	7056
2026-01-04 15:24:00.61	218.06	12.52	-40.6	-41.9	20.9	0.00e+00	14	40	0	1324351488	54	6331
2026-01-04 15:24:04.64	217.95	12.14	-41.0	-42.3	20.5	0.00e+00	0	40	0	1332740096	54	6632
2026-01-04 15:24:08.68	217.85	11.76	-41.1	-42.4	20.3	0.00e+00	80	40	0	1340080128	54	6749
2026-01-04 15:24:12.72	217.75	11.39	-41.2	-42.5	20.3	0.00e+00	92	40	0	1347420160	54	6820
2026-01-04 15:24:16.75	217.65	11.02	-41.1	-42.5	20.3	0.00e+00	12	40	0	1354760192	54	6776
2026-01-04 15:24:20.79	217.56	10.66	-41.2	-42.5	20.3	0.00e+00	68	40	0	1362100224	54	6817
2026-01-04 15:24:24.83	217.46	10.31	-41.0	-42.3	20.4	0.00e+00	69	40	0	1370488832	54	6632
2026-01-04 15:24:28.86	217.37	9.96	-41.0	-42.3	20.4	0.00e+00	90	40	0	1377828864	54	6638
2026-01-04 15:24:32.90	217.29	9.61	-40.9	-42.2	20.4	0.00e+00	0	40	0	1385168896	54	6588
2026-01-04 15:24:36.93	217.20	9.27	-41.0	-42.3	20.3	0.00e+00	5	40	0	1392508928	54	6688
2026-01-04 15:24:40.97	217.12	8.93	-40.9	-42.1	20.5	0.00e+00	0	40	0	1400897536	54	6532
2026-01-04 15:24:45.01	217.04	8.60	-40.9	-42.2	20.3	0.00e+00	92	40	0	1408237568	54	6573
2026-01-04 15:24:49.05	216.96	8.27	-41.2	-42.6	19.9	0.00e+00	0	40	0	1415577600	54	6884
2026-01-04 15:24:53.08	216.89	7.95	-41.3	-42.7	19.8	0.00e+00	0	40	0	1422917632	54	7006
2026-01-04 15:24:57.12	216.81	7.63	-41.3	-42.7	19.7	0.00e+00	0	40	0	1430257664	54	6945
2026-01-04 15:25:01.16	216.74	7.31	-41.6	-43.1	19.4	0.00e+00	92	40	0	1438646272	54	7275
2026-01-04 15:25:05.19	216.67	7.00	-41.8	-43.3	19.2	0.00e+00	76	40	0	1445986304	56	6629
2026-01-04 15:25:09.22	216.60	6.69	-42.1	-43.7	18.8	0.00e+00	78	40	0	1453326336	56	6930
2026-01-04 15:25:13.26	216.53	6.38	-42.1	-43.7	18.8	0.00e+00	64	40	0	1460666368	56	6948
2026-01-04 15:25:17.30	216.47	6.08	-42.3	-44.0	18.5	0.00e+00	92	40	0	1469054976	56	7230
2026-01-04 15:25:21.33	216.40	5.78	-42.4	-44.1	18.3	0.00e+00	6	40	0	1476395008	56	7336
2026-01-04 15:25:25.37	216.34	5.49	-42.4	-44.1	18.3	0.00e+00	7	40	0	1483735040	56	7289
2026-01-04 15:25:29.41	216.28	5.20	-42.5	-44.3	18.1	0.00e+00	90	40	0	1491075072	56	7472
2026-01-04 15:25:33.44	216.22	4.91	-42.4	-44.2	18.2	0.00e+00	90	40	0	1498415104	56	7348
2026-01-04 15:25:37.48	216.16	4.62	-42.6	-44.4	17.8	0.00e+00	6	40	0	1506803712	58	6749
2026-01-04 15:25:41.52	216.11	4.34	-42.6	-44.5	17.7	0.00e+00	0	40	0	1514143744	58	6828
2026-01-04 15:25:45.56	216.05	4.06	-42.4	-44.3	17.9	0.00e+00	92	40	0	1521483776	58	6631
2026-01-04 15:25:49.60	216.00	3.78	-42.8	-44.9	17.3	0.00e+00	22	40	0	1528823808	58	7093
2026-01-04 15:25:53.64	215.94	3.51	-42.9	-44.9	17.1	0.00e+00	0	40	0	1537212416	58	7145
2026-01-04 15:25:57.68	215.89	3.24	-43.0	-45.1	16.9	0.00e+00	0	40	0	1544552448	58	7318
2026-01-04 15:26:01.71	215.84	2.97	-48.0	-63.1	3.6	6.31e-01	0	40	104	1550843904	60	51599
2026-01-04 15:26:05.75	215.79	2.70	-49.1	-64.3	3.6	1.51e+00	0	40	104	1550843904	60	59334
2026-01-04 15:26:09.79	215.74	2.44	-49.2	-64.4	3.6	1.51e+00	0	40	104	1550843904	60	60238
2026-01-04 15:26:13.83	215.70	2.18	-49.1	-64.3	3.6	1.51e+00	0	40	104	1550843904	60	59494
2026-01-04 15:26:17.87	215.65	1.92	-49.2	-64.3	3.6	1.51e+00	0	40	104	1550843904	60	59293
2026-01-04 15:26:21.91	215.60	1.66	-49.2	-64.4	3.6	1.51e+00	0	40	104	1550843904	60	60317
2026-01-04 15:26:25.95	215.56	1.41	-49.2	-64.4	3.6	1.51e+00	0	40	104	1550843904	60	60309
2026-01-04 15:26:29.99	215.52	1.16	-49.2	-64.4	3.6	1.51e+00	0	40	104	1550843904	60	60066
2026-01-04 15:26:34.03	215.47	0.91	-49.2	-64.3	3.6	1.51e+00	0	40	104	1550843904	60	59338
2026-01-04 15:26:38.07	215.43	0.66	-49.3	-64.5	3.6	1.51e+00	0	40	104	1550843904	60	60725
2026-01-04 15:26:42.11	215.39	0.41	-49.3	-64.5	3.6	1.51e+00	0	40	104	1550843904	60	60346
2026-01-04 15:26:46.14	215.35	0.17	-49.4	-64.6	3.6	1.51e+00	0	40	104	1550843904	60	61486

#Closed at: 2026-01-04 15:26:49
#Recorded file [1550 MB]: D:/lorett/data/35029_260105_031125.dat