passes_logs/2026/01/04/R4.6S_Anadyr/R4.6S_Anadyr__20260104_142058_NOAA_21_JPSS-2_rec.log

#Pass ID: 20260104_142058_NOAA 21 (JPSS-2)
#Satellite: NOAA 21 (JPSS-2)
#Configuration: NOAA-21
#almurnet v.1.7.20251203
#Start time: 2026-01-04 14:21:00

#Version: 2.2.20231116
#Station: R4.6S_Anadyr
#Location: 177.4865 lon 64.73178 lat
#TLE: 1 54234U 22150A   26003.45311712  .00000198  00000+0  11468-3 0  9993
#TLE: 2 54234  98.7487 304.4932 0001159 347.5017  12.6130 14.19531745163172

#Time	Az	El	Level	Level2	SNR	BER	BlckErr	Temp	State	Recorded	gain1	gain2
2026-01-04 14:21:00.88	19.82	0.13	-49.8	-64.6	3.5	1.51e+00	0	37	0	0	60	61731
2026-01-04 14:21:04.92	19.88	0.37	-49.9	-62.8	3.5	1.51e+00	0	39	104	0	60	48666
2026-01-04 14:21:08.96	19.94	0.62	-49.5	-62.4	3.5	1.51e+00	0	39	104	0	60	46437
2026-01-04 14:21:12.99	20.01	0.86	-49.1	-62.0	3.5	1.52e+00	0	39	104	0	60	43995
2026-01-04 14:21:17.03	20.07	1.11	-48.2	-61.0	3.5	1.51e+00	0	39	104	0	60	39201
2026-01-04 14:21:21.07	20.14	1.36	-48.1	-60.9	3.5	1.52e+00	0	39	104	0	60	39022
2026-01-04 14:21:25.11	20.20	1.61	-48.1	-60.8	3.5	1.52e+00	0	39	104	0	60	38326
2026-01-04 14:21:29.15	20.27	1.86	-48.1	-60.9	3.5	1.52e+00	0	39	104	0	60	39070
2026-01-04 14:21:33.18	20.34	2.11	-48.1	-61.0	3.5	1.51e+00	0	39	104	0	60	39165
2026-01-04 14:21:37.22	20.40	2.37	-48.1	-60.7	3.5	1.52e+00	0	39	104	0	60	37892
2026-01-04 14:21:41.26	20.47	2.63	-48.0	-58.9	3.5	1.49e+00	0	39	104	0	60	30771
2026-01-04 14:21:45.30	20.54	2.90	-47.8	-57.4	4.2	1.44e+00	0	39	104	0	60	25877
2026-01-04 14:21:49.33	20.61	3.16	-44.6	-47.4	12.8	2.29e-04	122	39	0	9437184	60	8205
2026-01-04 14:21:53.38	20.69	3.43	-41.5	-43.1	17.2	0.00e+00	122	39	0	22020096	56	6326
2026-01-04 14:21:57.42	20.76	3.70	-41.3	-42.9	17.3	0.00e+00	121	39	0	34603008	54	6911
2026-01-04 14:22:01.46	20.83	3.97	-43.5	-45.8	15.0	5.30e-06	123	39	0	47185920	60	6813
2026-01-04 14:22:05.50	20.91	4.25	-42.1	-44.2	16.0	0.00e+00	123	39	104	51380224	58	6377
2026-01-04 14:22:09.54	20.98	4.52	-41.7	-43.4	17.4	0.00e+00	123	39	0	61865984	56	6527
2026-01-04 14:22:13.58	21.06	4.81	-41.7	-43.4	17.0	0.00e+00	123	39	0	75497472	56	6508
2026-01-04 14:22:17.62	21.14	5.09	-42.7	-44.7	16.2	0.00e+00	123	39	0	88080384	58	6727
2026-01-04 14:22:21.66	21.22	5.38	-41.4	-43.0	17.5	0.00e+00	123	39	0	100663296	56	6224
2026-01-04 14:22:25.69	21.30	5.67	-40.7	-42.1	18.2	0.00e+00	123	39	0	113246208	54	6297
2026-01-04 14:22:29.73	21.38	5.96	-39.9	-41.2	19.1	0.00e+00	122	39	0	125829120	52	6417
2026-01-04 14:22:33.77	21.46	6.26	-38.2	-39.4	21.0	0.00e+00	120	39	0	138412032	50	5798
2026-01-04 14:22:37.81	21.55	6.56	-38.3	-39.4	21.0	0.00e+00	120	39	0	150994944	50	5851
2026-01-04 14:22:41.84	21.63	6.86	-38.2	-39.2	21.2	0.00e+00	120	39	0	163577856	50	5725
2026-01-04 14:22:45.89	21.72	7.17	-37.9	-39.0	21.3	0.00e+00	123	40	0	176160768	50	5591
2026-01-04 14:22:49.93	21.81	7.48	-37.6	-38.6	21.7	0.00e+00	123	40	0	188743680	48	5994
2026-01-04 14:22:53.97	21.90	7.80	-37.8	-38.9	21.5	0.00e+00	122	39	0	201326592	48	6160
2026-01-04 14:22:58.01	21.99	8.11	-37.5	-38.5	21.9	0.00e+00	123	39	0	213909504	48	5904
2026-01-04 14:23:02.05	22.09	8.44	-37.4	-38.4	21.9	0.00e+00	123	39	0	226492416	48	5840
2026-01-04 14:23:06.09	22.18	8.76	-37.1	-38.2	22.1	0.00e+00	123	40	0	239075328	48	5662
2026-01-04 14:23:10.12	22.28	9.10	-37.2	-38.2	22.3	0.00e+00	123	40	0	251658240	48	5702
2026-01-04 14:23:14.17	22.38	9.43	-36.9	-37.9	22.5	0.00e+00	122	40	0	264241152	48	5490
2026-01-04 14:23:18.20	22.48	9.77	-36.9	-37.9	22.5	0.00e+00	122	40	0	276824064	48	5503
2026-01-04 14:23:22.24	22.58	10.12	-36.7	-37.7	22.7	0.00e+00	123	40	0	289406976	46	6001
2026-01-04 14:23:26.28	22.69	10.47	-36.6	-37.6	22.8	0.00e+00	123	40	0	301989888	46	5930
2026-01-04 14:23:30.32	22.79	10.82	-36.4	-37.4	22.8	0.00e+00	123	40	0	314572800	46	5847
2026-01-04 14:23:34.36	22.90	11.18	-36.2	-37.2	23.0	0.00e+00	122	40	0	327155712	46	5673
2026-01-04 14:23:38.40	23.01	11.55	-36.6	-37.7	22.6	0.00e+00	123	40	0	339738624	46	5998
2026-01-04 14:23:42.44	23.13	11.92	-36.1	-37.1	23.1	0.00e+00	122	40	0	352321536	46	5636
2026-01-04 14:23:46.48	23.24	12.29	-36.0	-37.0	23.1	0.00e+00	120	40	0	364904448	46	5543
2026-01-04 14:23:50.52	23.36	12.68	-35.6	-36.6	23.4	0.00e+00	123	40	0	377487360	44	5961
2026-01-04 14:23:54.56	23.48	13.06	-35.7	-36.6	23.3	0.00e+00	123	40	0	391118848	44	5979
2026-01-04 14:23:58.60	23.61	13.46	-35.7	-36.7	23.3	0.00e+00	123	40	0	403701760	44	6012
2026-01-04 14:24:02.63	23.73	13.86	-35.7	-36.6	23.4	0.00e+00	123	40	0	416284672	44	5963
2026-01-04 14:24:06.68	23.86	14.27	-35.9	-36.9	23.4	0.00e+00	121	40	0	428867584	44	6163
2026-01-04 14:24:10.72	24.00	14.68	-35.7	-36.7	23.5	0.00e+00	122	40	0	441450496	44	6001
2026-01-04 14:24:14.75	24.13	15.10	-35.7	-36.6	23.7	0.00e+00	122	40	0	454033408	44	5993
2026-01-04 14:24:18.79	24.27	15.53	-36.0	-36.9	23.5	0.00e+00	122	40	0	466616320	44	6168
2026-01-04 14:24:22.83	24.42	15.97	-35.9	-36.9	23.4	0.00e+00	122	40	0	479199232	44	6136
2026-01-04 14:24:26.86	24.56	16.41	-35.8	-36.7	23.5	0.00e+00	122	40	0	491782144	44	6030
2026-01-04 14:24:30.90	24.71	16.86	-35.9	-36.8	23.5	0.00e+00	123	40	0	504365056	44	6086
2026-01-04 14:24:34.94	24.87	17.32	-36.0	-37.0	23.4	0.00e+00	122	40	0	516947968	44	6227
2026-01-04 14:24:38.98	25.03	17.79	-36.0	-36.9	23.4	0.00e+00	123	40	0	529530880	44	6189
2026-01-04 14:24:43.02	25.19	18.27	-35.5	-36.4	23.7	0.00e+00	123	40	0	542113792	44	5831
2026-01-04 14:24:47.05	25.36	18.75	-35.5	-36.5	23.8	0.00e+00	122	40	0	554696704	44	5871
2026-01-04 14:24:51.09	25.53	19.25	-35.4	-36.3	23.9	0.00e+00	123	40	0	567279616	44	5760
2026-01-04 14:24:55.13	25.71	19.76	-35.4	-36.3	23.9	0.00e+00	122	40	0	579862528	44	5785
2026-01-04 14:24:59.17	25.90	20.28	-35.1	-36.0	24.1	0.00e+00	123	40	0	592445440	44	5567
2026-01-04 14:25:03.21	26.09	20.80	-35.0	-35.9	24.2	0.00e+00	123	40	0	605028352	44	5488
2026-01-04 14:25:07.25	26.28	21.34	-34.8	-35.7	24.3	0.00e+00	122	40	0	617611264	44	5379
2026-01-04 14:25:11.29	26.48	21.89	-34.6	-35.5	24.6	0.00e+00	122	40	0	630194176	42	5906
2026-01-04 14:25:15.33	26.69	22.45	-34.7	-35.5	24.6	0.00e+00	123	40	0	642777088	42	5920
2026-01-04 14:25:19.37	26.91	23.03	-34.3	-35.2	24.8	0.00e+00	123	40	0	655360000	42	5677
2026-01-04 14:25:23.42	27.13	23.62	-34.1	-35.0	24.9	0.00e+00	122	40	0	667942912	42	5541
2026-01-04 14:25:27.46	27.37	24.22	-34.0	-34.8	25.0	0.00e+00	122	40	0	680525824	42	5464
2026-01-04 14:25:31.50	27.61	24.83	-34.4	-35.2	24.8	0.00e+00	123	40	0	693108736	42	5711
2026-01-04 14:25:35.53	27.86	25.46	-34.6	-35.4	24.8	0.00e+00	123	40	0	705691648	42	5853
2026-01-04 14:25:39.57	28.11	26.10	-34.9	-35.8	24.5	0.00e+00	123	40	0	718274560	42	6113
2026-01-04 14:25:43.61	28.38	26.76	-35.1	-36.0	24.4	0.00e+00	122	40	0	731906048	42	6254
2026-01-04 14:25:47.65	28.66	27.44	-35.3	-36.2	24.3	0.00e+00	123	40	0	744488960	42	6370
2026-01-04 14:25:51.68	28.95	28.13	-35.7	-36.6	23.8	0.00e+00	122	40	0	757071872	44	5991
2026-01-04 14:25:55.73	29.26	28.84	-36.3	-37.3	23.4	0.00e+00	123	40	0	769654784	44	6434
2026-01-04 14:25:59.76	29.57	29.56	-36.1	-37.1	23.3	0.00e+00	122	40	0	782237696	44	6311
2026-01-04 14:26:03.80	29.90	30.30	-35.6	-36.5	23.9	0.00e+00	123	40	0	794820608	44	5905
2026-01-04 14:26:07.84	30.25	31.06	-35.0	-35.9	24.6	0.00e+00	123	40	0	807403520	44	5503
2026-01-04 14:26:11.88	30.61	31.85	-34.9	-35.8	24.6	0.00e+00	123	40	0	819986432	44	5448
2026-01-04 14:26:15.92	30.99	32.65	-35.3	-36.2	24.3	0.00e+00	123	40	0	832569344	44	5715
2026-01-04 14:26:19.96	31.38	33.47	-35.6	-36.5	24.1	0.00e+00	123	40	0	845152256	44	5900
2026-01-04 14:26:23.99	31.80	34.31	-36.0	-37.0	23.6	0.00e+00	123	40	0	857735168	44	6222
2026-01-04 14:26:28.03	32.24	35.18	-36.5	-37.5	23.4	0.00e+00	122	40	0	870318080	44	6593
2026-01-04 14:26:32.07	32.70	36.06	-36.7	-37.6	23.3	0.00e+00	123	40	0	882900992	46	5974
2026-01-04 14:26:36.11	33.19	36.98	-36.7	-37.6	23.3	0.00e+00	121	40	0	895483904	46	5966
2026-01-04 14:26:40.15	33.70	37.91	-36.9	-37.8	23.1	0.00e+00	123	40	0	908066816	46	6103
2026-01-04 14:26:44.18	34.24	38.87	-36.5	-37.4	23.5	0.00e+00	122	40	0	920649728	46	5818
2026-01-04 14:26:48.23	34.82	39.85	-36.8	-37.8	23.1	0.00e+00	120	40	0	933232640	46	6070
2026-01-04 14:26:52.27	35.43	40.86	-37.5	-38.5	22.3	0.00e+00	123	40	0	945815552	48	5905
2026-01-04 14:26:56.31	36.08	41.90	-38.6	-39.7	21.6	0.00e+00	123	40	0	958398464	48	6770
2026-01-04 14:27:00.34	36.77	42.95	-38.7	-39.8	21.4	0.00e+00	123	40	0	970981376	50	6127
2026-01-04 14:27:04.38	37.51	44.04	-39.1	-40.2	21.2	0.00e+00	122	40	0	983564288	50	6404
2026-01-04 14:27:08.42	38.30	45.15	-38.9	-40.0	21.2	0.00e+00	120	40	0	996147200	50	6206
2026-01-04 14:27:12.46	39.15	46.29	-38.0	-39.0	21.6	0.00e+00	123	40	0	1008730112	50	5584
2026-01-04 14:27:16.50	40.06	47.45	-37.3	-38.3	22.6	0.00e+00	123	40	0	1021313024	48	5767
2026-01-04 14:27:20.54	41.04	48.64	-36.4	-37.3	23.3	0.00e+00	122	40	0	1033895936	46	5755
2026-01-04 14:27:24.58	42.10	49.85	-37.1	-38.1	23.0	0.00e+00	122	40	0	1046478848	46	6285
2026-01-04 14:27:28.62	43.24	51.08	-37.3	-38.3	22.8	0.00e+00	120	40	0	1059061760	46	6487
2026-01-04 14:27:32.66	44.49	52.33	-36.9	-37.8	23.2	0.00e+00	122	40	0	1072693248	46	6130
2026-01-04 14:27:36.69	45.83	53.60	-36.8	-37.8	23.2	0.00e+00	123	40	0	1084227584	46	6068
2026-01-04 14:27:40.73	47.31	54.89	-36.6	-37.6	23.3	0.00e+00	123	40	0	1097859072	46	5994
2026-01-04 14:27:44.77	48.93	56.19	-36.0	-36.9	23.8	0.00e+00	123	40	0	1110441984	46	5506
2026-01-04 14:27:48.81	50.70	57.49	-35.6	-36.5	24.1	0.00e+00	123	40	0	1123024896	44	5924
2026-01-04 14:27:52.85	52.65	58.80	-35.1	-36.0	24.4	0.00e+00	122	40	0	1135607808	44	5539
2026-01-04 14:27:56.89	54.80	60.10	-34.7	-35.5	24.9	0.00e+00	120	40	0	1148190720	42	5904
2026-01-04 14:28:00.93	57.17	61.39	-34.5	-35.4	24.9	0.00e+00	122	40	0	1160773632	42	5841
2026-01-04 14:28:04.97	59.81	62.66	-34.3	-35.1	25.1	0.00e+00	123	40	0	1173356544	42	5651
2026-01-04 14:28:09.01	62.73	63.89	-34.0	-34.8	25.5	0.00e+00	123	40	0	1185939456	40	6106
2026-01-04 14:28:13.04	65.96	65.08	-33.3	-34.1	25.5	0.00e+00	123	40	0	1198522368	40	5635
2026-01-04 14:28:17.08	69.55	66.21	-33.7	-34.5	25.1	0.00e+00	122	40	0	1211105280	40	5905
2026-01-04 14:28:21.12	73.52	67.26	-34.5	-35.4	25.0	0.00e+00	122	40	0	1223688192	40	6534
2026-01-04 14:28:25.16	77.89	68.21	-34.2	-35.0	25.2	0.00e+00	122	40	0	1236271104	42	5587
2026-01-04 14:28:29.20	82.66	69.05	-33.8	-34.7	25.1	0.00e+00	121	40	0	1248854016	40	6046
2026-01-04 14:28:33.23	87.81	69.74	-33.6	-34.4	25.1	0.00e+00	123	40	0	1261436928	40	5850
2026-01-04 14:28:37.27	93.32	70.28	-33.4	-34.3	25.4	0.00e+00	123	40	0	1274019840	40	5768
2026-01-04 14:28:41.31	99.11	70.64	-33.7	-34.6	24.6	0.00e+00	123	40	0	1286602752	40	5960
2026-01-04 14:28:45.35	105.07	70.81	-34.1	-35.0	25.0	0.00e+00	122	40	0	1299185664	40	6247
2026-01-04 14:28:49.40	111.09	70.78	-34.2	-35.1	24.8	0.00e+00	122	40	0	1311768576	42	5604
2026-01-04 14:28:53.43	117.00	70.56	-33.7	-34.6	25.3	0.00e+00	123	40	0	1324351488	40	5947
2026-01-04 14:28:57.47	122.72	70.16	-33.9	-34.8	24.9	0.00e+00	122	40	0	1336934400	40	6111
2026-01-04 14:29:01.51	128.16	69.58	-34.5	-35.4	24.9	0.00e+00	123	40	0	1349517312	40	6553
2026-01-04 14:29:05.55	133.23	68.84	-33.1	-34.0	25.9	0.00e+00	121	40	0	1362100224	40	5537
2026-01-04 14:29:09.59	137.90	67.97	-33.7	-34.6	25.5	0.00e+00	123	40	0	1374683136	40	5940
2026-01-04 14:29:13.63	142.17	66.99	-32.9	-33.7	26.0	0.00e+00	123	40	0	1387266048	40	5350
2026-01-04 14:29:17.67	146.05	65.92	-33.5	-34.3	25.5	0.00e+00	122	40	0	1399848960	40	5770
2026-01-04 14:29:21.71	149.55	64.77	-34.9	-35.8	24.6	0.00e+00	122	40	0	1413480448	40	6835
2026-01-04 14:29:25.75	152.70	63.57	-33.1	-34.0	25.8	0.00e+00	122	40	0	1426063360	40	5561
2026-01-04 14:29:29.79	155.55	62.32	-36.2	-37.2	23.0	0.00e+00	121	40	0	1438646272	44	6415
2026-01-04 14:29:33.83	158.11	61.04	-34.1	-34.9	25.6	0.00e+00	120	40	0	1451229184	40	6182
2026-01-04 14:29:37.87	160.43	59.74	-35.7	-36.6	23.9	0.00e+00	123	40	0	1463812096	44	5990
2026-01-04 14:29:41.91	162.53	58.44	-35.3	-36.2	24.6	0.00e+00	123	40	0	1476395008	42	6387
2026-01-04 14:29:45.95	164.43	57.13	-36.1	-37.1	22.5	0.00e+00	123	40	0	1488977920	46	5601
2026-01-04 14:29:49.99	166.16	55.82	-35.1	-36.0	24.7	0.00e+00	120	40	0	1501560832	42	6227
2026-01-04 14:29:54.03	167.74	54.52	-38.5	-39.6	21.1	0.00e+00	123	40	0	1514143744	50	5962
2026-01-04 14:29:58.07	169.18	53.23	-37.0	-37.9	23.8	0.00e+00	123	40	0	1526726656	44	6955
2026-01-04 14:30:02.10	170.50	51.96	-39.7	-40.9	21.6	0.00e+00	123	40	0	1539309568	52	6135
2026-01-04 14:30:06.14	171.72	50.71	-37.4	-38.4	22.9	0.00e+00	123	40	0	1551892480	48	5807
2026-01-04 14:30:10.18	172.84	49.48	-38.2	-39.2	22.2	0.00e+00	122	40	0	1564475392	48	6357
2026-01-04 14:30:14.21	173.88	48.28	-40.1	-41.3	21.0	0.00e+00	123	40	0	1577058304	54	5775
2026-01-04 14:30:18.25	174.84	47.09	-37.0	-37.9	23.1	0.00e+00	122	40	0	1589641216	48	5508
2026-01-04 14:30:22.29	175.73	45.93	-38.1	-39.1	22.5	0.00e+00	120	40	0	1602224128	48	6305
2026-01-04 14:30:26.33	176.56	44.80	-38.0	-38.9	22.6	0.00e+00	123	40	0	1614807040	48	6192
2026-01-04 14:30:30.37	177.34	43.69	-40.3	-41.5	20.8	0.00e+00	123	40	0	1627389952	54	5900
2026-01-04 14:30:34.41	178.07	42.61	-39.6	-40.7	21.8	0.00e+00	123	40	0	1639972864	52	6022
2026-01-04 14:30:38.45	178.75	41.55	-40.8	-41.9	20.8	0.00e+00	123	40	0	1652555776	52	6954
2026-01-04 14:30:42.49	179.39	40.52	-38.7	-39.7	22.1	0.00e+00	122	40	0	1665138688	50	6002
2026-01-04 14:30:46.53	179.99	39.51	-39.6	-40.7	21.3	0.00e+00	123	40	0	1677721600	54	5363
2026-01-04 14:30:50.57	180.55	38.53	-38.0	-39.0	22.3	0.00e+00	120	40	0	1690304512	50	5549
2026-01-04 14:30:54.61	181.09	37.57	-37.0	-38.0	22.8	0.00e+00	122	40	0	1702887424	48	5551
2026-01-04 14:30:58.65	181.59	36.64	-37.3	-38.2	23.6	0.00e+00	123	40	0	1715470336	48	5680
2026-01-04 14:31:02.69	182.07	35.73	-37.0	-38.0	22.9	0.00e+00	123	40	0	1728053248	48	5548
2026-01-04 14:31:06.73	182.53	34.85	-37.4	-38.3	23.3	0.00e+00	122	40	0	1740636160	48	5761
2026-01-04 14:31:10.77	182.96	33.99	-37.4	-38.3	22.9	0.00e+00	122	40	0	1754267648	48	5789
2026-01-04 14:31:14.81	183.37	33.15	-37.7	-38.8	22.6	0.00e+00	123	40	0	1766850560	48	6077
2026-01-04 14:31:18.85	183.76	32.33	-36.5	-37.5	23.4	0.00e+00	123	40	0	1779433472	46	5884
2026-01-04 14:31:22.89	184.13	31.53	-36.2	-37.1	23.8	0.00e+00	123	40	0	1792016384	46	5612
2026-01-04 14:31:26.93	184.49	30.75	-36.0	-36.9	23.5	0.00e+00	123	40	0	1804599296	44	6184
2026-01-04 14:31:30.97	184.83	29.99	-36.0	-36.9	23.9	0.00e+00	122	40	0	1817182208	44	6190
2026-01-04 14:31:35.01	185.15	29.25	-35.3	-36.2	24.2	0.00e+00	123	40	0	1829765120	44	5691
2026-01-04 14:31:39.05	185.46	28.53	-35.5	-36.4	24.0	0.00e+00	122	40	0	1842348032	44	5827
2026-01-04 14:31:43.09	185.76	27.82	-35.2	-36.1	24.3	0.00e+00	122	40	0	1854930944	44	5624
2026-01-04 14:31:47.13	186.05	27.13	-35.0	-35.9	24.4	0.00e+00	123	40	0	1867513856	44	5512
2026-01-04 14:31:51.16	186.32	26.46	-35.1	-36.0	24.5	0.00e+00	123	40	0	1880096768	44	5551
2026-01-04 14:31:55.20	186.59	25.81	-34.9	-35.9	24.3	0.00e+00	123	40	0	1892679680	44	5471
2026-01-04 14:31:59.25	186.84	25.16	-35.5	-36.4	24.1	0.00e+00	122	40	0	1905262592	44	5843
2026-01-04 14:32:03.29	187.09	24.54	-35.3	-36.2	24.2	0.00e+00	122	40	0	1917845504	44	5675
2026-01-04 14:32:07.33	187.32	23.92	-35.1	-36.0	24.0	0.00e+00	123	40	0	1930428416	44	5576
2026-01-04 14:32:11.36	187.55	23.33	-36.1	-37.1	23.2	0.00e+00	125	40	0	1943011328	44	6316
2026-01-04 14:32:15.40	187.77	22.74	-35.7	-36.7	23.6	0.00e+00	122	40	0	1955594240	44	5995
2026-01-04 14:32:19.44	187.98	22.17	-35.0	-35.9	24.1	0.00e+00	120	40	0	1968177152	44	5485
2026-01-04 14:32:23.48	188.19	21.61	-34.5	-35.4	24.4	0.00e+00	122	40	0	1980760064	42	5848
2026-01-04 14:32:27.52	188.39	21.06	-34.8	-35.7	24.4	0.00e+00	123	40	0	1993342976	42	6017
2026-01-04 14:32:31.55	188.58	20.52	-35.3	-36.2	24.4	0.00e+00	123	40	0	2005925888	42	6392
2026-01-04 14:32:35.59	188.76	19.99	-35.9	-36.8	24.4	0.00e+00	123	40	0	2018508800	44	6089
2026-01-04 14:32:39.63	188.94	19.48	-35.2	-36.1	24.3	0.00e+00	123	40	0	2031091712	44	5611
2026-01-04 14:32:43.67	189.12	18.97	-35.9	-36.8	24.1	0.00e+00	122	40	0	2043674624	44	6084
2026-01-04 14:32:47.71	189.29	18.48	-36.5	-37.5	23.8	0.00e+00	123	40	0	2056257536	44	6574
2026-01-04 14:32:51.75	189.46	17.99	-36.2	-37.2	23.6	0.00e+00	123	40	0	2069889024	46	5690
2026-01-04 14:32:55.79	189.62	17.51	-36.5	-37.4	23.5	0.00e+00	122	40	0	2081423360	46	5848
2026-01-04 14:32:59.83	189.77	17.05	-36.7	-37.6	23.3	0.00e+00	123	40	0	2095054848	46	5977
2026-01-04 14:33:03.87	189.92	16.59	-36.7	-37.7	23.1	0.00e+00	123	40	0	2107637760	46	6028
2026-01-04 14:33:07.91	190.07	16.14	-37.1	-38.1	23.0	0.00e+00	122	40	0	2120220672	48	5611
2026-01-04 14:33:11.94	190.21	15.69	-37.5	-38.4	23.1	0.00e+00	122	40	0	2132803584	48	5851
2026-01-04 14:33:15.98	190.35	15.26	-36.6	-37.6	23.2	0.00e+00	123	40	0	2145386496	46	5928
2026-01-04 14:33:20.02	190.49	14.83	-36.2	-37.2	23.2	0.00e+00	122	40	0	2157969408	46	5698
2026-01-04 14:33:24.06	190.62	14.41	-36.9	-37.8	22.9	0.00e+00	122	40	0	2170552320	46	6131
2026-01-04 14:33:28.10	190.75	14.00	-37.1	-38.1	22.8	0.00e+00	120	40	0	2183135232	46	6304
2026-01-04 14:33:32.14	190.88	13.59	-37.2	-38.1	22.8	0.00e+00	121	40	0	2195718144	46	6348
2026-01-04 14:33:36.18	191.00	13.19	-37.3	-38.3	22.4	0.00e+00	120	40	0	2208301056	46	6451
2026-01-04 14:33:40.21	191.12	12.80	-36.8	-37.8	23.0	0.00e+00	122	40	0	2220883968	46	6110
2026-01-04 14:33:44.25	191.24	12.41	-36.7	-37.7	23.1	0.00e+00	123	40	0	2233466880	46	5995
2026-01-04 14:33:48.29	191.36	12.03	-36.8	-37.7	23.1	0.00e+00	123	40	0	2246049792	46	6044
2026-01-04 14:33:52.34	191.47	11.65	-36.8	-37.7	23.1	0.00e+00	122	40	0	2258632704	46	6047
2026-01-04 14:33:56.37	191.58	11.28	-36.9	-37.9	22.9	0.00e+00	120	40	0	2271215616	46	6164
2026-01-04 14:34:00.41	191.69	10.92	-37.5	-38.4	22.9	0.00e+00	120	40	0	2283798528	48	5857
2026-01-04 14:34:04.45	191.79	10.56	-37.2	-38.2	22.8	0.00e+00	120	40	0	2296381440	48	5675
2026-01-04 14:34:08.49	191.89	10.20	-37.8	-38.8	22.6	0.00e+00	123	40	0	2308964352	50	5439
2026-01-04 14:34:12.52	192.00	9.86	-38.2	-39.2	22.4	0.00e+00	121	40	0	2321547264	48	6383
2026-01-04 14:34:16.57	192.09	9.51	-37.7	-38.7	22.2	0.00e+00	123	40	0	2334130176	48	6029
2026-01-04 14:34:20.61	192.19	9.17	-38.1	-39.1	22.3	0.00e+00	123	40	0	2346713088	50	5635
2026-01-04 14:34:24.65	192.29	8.84	-38.0	-39.0	22.3	0.00e+00	123	40	0	2359296000	48	6246
2026-01-04 14:34:28.69	192.38	8.50	-38.6	-39.6	22.2	0.00e+00	123	40	0	2371878912	48	6696
2026-01-04 14:34:32.73	192.47	8.18	-38.8	-39.8	21.8	0.00e+00	120	40	0	2384461824	50	6100
2026-01-04 14:34:36.77	192.56	7.85	-38.8	-39.9	21.9	0.00e+00	123	40	0	2397044736	50	6154
2026-01-04 14:34:40.81	192.65	7.54	-38.3	-39.4	21.7	0.00e+00	122	40	0	2410676224	50	5804
2026-01-04 14:34:44.85	192.74	7.22	-39.3	-40.4	21.3	0.00e+00	123	40	0	2423259136	50	6543
2026-01-04 14:34:48.88	192.82	6.91	-39.3	-40.4	21.1	0.00e+00	122	40	0	2435842048	52	5843
2026-01-04 14:34:52.92	192.90	6.60	-38.8	-39.9	21.0	0.00e+00	123	40	0	2448424960	50	6203
2026-01-04 14:34:56.95	192.99	6.30	-39.0	-40.1	21.0	0.00e+00	123	40	0	2461007872	50	6297
2026-01-04 14:35:00.99	193.07	6.00	-39.4	-40.5	20.6	0.00e+00	122	40	0	2473590784	52	5900
2026-01-04 14:35:05.03	193.15	5.70	-39.3	-40.5	20.3	0.00e+00	123	40	0	2486173696	52	5882
2026-01-04 14:35:09.07	193.22	5.41	-39.5	-40.7	20.4	0.00e+00	123	40	0	2498756608	52	6013
2026-01-04 14:35:13.11	193.30	5.12	-39.9	-41.1	20.2	0.00e+00	122	40	0	2511339520	52	6337
2026-01-04 14:35:17.15	193.38	4.83	-39.2	-40.4	20.1	0.00e+00	123	40	0	2523922432	52	5834
2026-01-04 14:35:21.12	193.45	4.55	-39.7	-41.0	19.4	0.00e+00	123	40	0	2536505344	52	6227
2026-01-04 14:35:25.16	193.52	4.27	-40.0	-41.3	19.0	0.00e+00	123	40	0	2549088256	52	6454
2026-01-04 14:35:29.20	193.59	3.99	-39.9	-41.3	18.9	0.00e+00	120	40	0	2561671168	52	6442
2026-01-04 14:35:33.23	193.66	3.72	-39.6	-40.9	19.4	0.00e+00	122	40	0	2574254080	52	6190
2026-01-04 14:35:37.27	193.73	3.45	-39.6	-40.9	19.1	0.00e+00	123	40	0	2586836992	52	6177
2026-01-04 14:35:41.31	193.80	3.18	-40.4	-41.8	18.3	0.00e+00	120	40	0	2599419904	52	6830
2026-01-04 14:35:45.35	193.87	2.91	-49.1	-61.9	3.5	1.52e+00	0	40	104	2606759936	60	43504
2026-01-04 14:35:49.39	193.94	2.64	-50.2	-63.1	3.5	1.52e+00	0	40	104	2606759936	60	49899
2026-01-04 14:35:53.43	194.00	2.38	-49.9	-62.8	3.5	1.51e+00	0	40	104	2606759936	60	48441
2026-01-04 14:35:57.48	194.07	2.12	-50.1	-63.0	3.5	1.52e+00	0	40	104	2606759936	60	49509
2026-01-04 14:36:01.52	194.13	1.86	-50.2	-63.0	3.5	1.52e+00	0	40	104	2606759936	60	49509
2026-01-04 14:36:05.56	194.19	1.61	-50.7	-63.5	3.5	1.52e+00	0	40	104	2606759936	60	52626
2026-01-04 14:36:09.60	194.25	1.35	-51.0	-63.8	3.5	1.51e+00	0	40	104	2606759936	60	54622
2026-01-04 14:36:13.63	194.32	1.10	-50.3	-63.1	3.5	1.52e+00	0	40	104	2606759936	60	50203
2026-01-04 14:36:17.68	194.38	0.85	-51.5	-64.3	3.5	1.52e+00	0	40	104	2606759936	60	57843
2026-01-04 14:36:21.72	194.44	0.61	-50.5	-63.3	3.5	1.52e+00	0	40	104	2606759936	60	51390
2026-01-04 14:36:25.76	194.49	0.36	-51.7	-64.6	3.5	1.52e+00	0	40	104	2606759936	60	59524
2026-01-04 14:36:29.79	194.55	0.12	-50.3	-63.2	3.5	1.52e+00	0	40	104	2606759936	60	50534

#Closed at: 2026-01-04 14:36:33
#Recorded file [2606 MB]: D:/lorett/data/35029_260105_022100.dat