passes_logs/2026/01/04/R4.6S_Anadyr/R4.6S_Anadyr__20260104_013852_AQUA_rec.log

#Pass ID: 20260104_013852_AQUA
#Satellite: AQUA
#Configuration: AQUA
#almurnet v.1.7.20251203
#Start time: 2026-01-04 01:38:56

#Version: 2.2.20231116
#Station: R4.6S_Anadyr
#Location: 177.4865 lon 64.73178 lat
#TLE: 1 27424U 02022A   25365.92641127  .00002078  00000+0  42628-3 0  9999
#TLE: 2 27424  98.4058 327.1196 0001962  94.7781 340.6230 14.61783896258835

#Time	Az	El	Level	Level2	SNR	BER	BlckErr	Temp	State	Recorded	gain1	gain2
2026-01-04 01:38:56.17	149.14	0.22	-51.5	-67.8	3.3	3.02e+01	0	38	0	0	60	94658
2026-01-04 01:39:00.20	149.11	0.47	-50.5	-68.4	3.5	3.02e+01	0	39	104	0	60	100850
2026-01-04 01:39:04.24	149.08	0.72	-49.9	-67.8	3.5	3.02e+01	0	39	104	0	60	94590
2026-01-04 01:39:08.28	149.05	0.98	-49.0	-66.9	3.5	3.02e+01	0	39	104	0	60	85297
2026-01-04 01:39:12.32	149.02	1.24	-48.7	-66.7	3.5	3.02e+01	0	39	104	0	60	83169
2026-01-04 01:39:16.35	148.98	1.50	-48.7	-66.2	3.5	3.02e+01	0	39	104	0	60	78770
2026-01-04 01:39:20.39	148.95	1.77	-48.7	-66.0	3.5	3.02e+01	0	39	104	0	60	76546
2026-01-04 01:39:24.43	148.91	2.03	-48.7	-66.5	3.5	3.02e+01	0	39	104	0	60	81787
2026-01-04 01:39:28.47	148.88	2.30	-48.8	-66.7	3.5	3.02e+01	0	39	104	0	60	83371
2026-01-04 01:39:32.51	148.84	2.58	-48.7	-66.2	3.5	3.02e+01	0	39	104	0	60	78955
2026-01-04 01:39:36.55	148.80	2.85	-48.6	-65.6	3.5	3.02e+01	0	39	104	0	60	73264
2026-01-04 01:39:40.59	148.76	3.13	-48.6	-65.5	3.5	3.02e+01	0	39	104	0	60	72194
2026-01-04 01:39:44.63	148.72	3.42	-47.3	-53.5	11.3	3.02e+01	0	39	0	2097152	60	18211
2026-01-04 01:39:48.67	148.68	3.70	-43.2	-45.5	20.8	3.02e+01	0	39	0	9961472	60	7288
2026-01-04 01:39:52.71	148.64	3.99	-39.3	-40.8	25.4	3.02e+01	0	39	0	17301504	54	5972
2026-01-04 01:39:56.75	148.60	4.28	-40.9	-42.7	24.1	3.02e+01	0	39	0	23068672	56	6591
2026-01-04 01:40:00.78	148.55	4.58	-39.1	-40.6	25.7	3.02e+01	0	39	0	30408704	52	6539
2026-01-04 01:40:04.82	148.51	4.88	-38.7	-40.2	26.3	3.02e+01	0	39	0	37748736	52	6219
2026-01-04 01:40:08.86	148.46	5.18	-38.6	-40.1	26.4	3.02e+01	0	39	0	45613056	52	6139
2026-01-04 01:40:12.90	148.41	5.49	-38.6	-40.0	26.4	3.02e+01	0	39	0	52953088	52	6116
2026-01-04 01:40:16.93	148.36	5.80	-38.1	-39.5	27.0	3.02e+01	0	39	0	60817408	52	5735
2026-01-04 01:40:20.97	148.31	6.12	-38.0	-39.4	27.0	3.02e+01	0	39	0	68157440	50	6369
2026-01-04 01:40:25.01	148.26	6.44	-38.0	-39.4	27.1	3.02e+01	0	39	0	76021760	50	6362
2026-01-04 01:40:29.04	148.20	6.76	-37.6	-39.0	27.6	3.02e+01	0	39	0	83361792	50	6066
2026-01-04 01:40:33.08	148.14	7.09	-37.5	-38.8	27.7	3.02e+01	0	39	0	91226112	50	5967
2026-01-04 01:40:37.12	148.09	7.42	-37.4	-38.7	27.8	3.02e+01	0	39	0	98566144	50	5910
2026-01-04 01:40:41.16	148.03	7.76	-37.4	-38.7	28.0	3.02e+01	0	39	0	105906176	50	5867
2026-01-04 01:40:45.19	147.96	8.10	-37.6	-38.9	28.0	3.02e+01	0	39	0	113770496	50	6018
2026-01-04 01:40:49.23	147.90	8.45	-37.2	-38.5	28.2	3.02e+01	0	39	0	121110528	50	5729
2026-01-04 01:40:53.27	147.83	8.81	-37.0	-38.3	28.3	3.02e+01	0	39	0	128974848	50	5608
2026-01-04 01:40:57.31	147.77	9.17	-37.1	-38.4	28.3	3.02e+01	0	39	0	136314880	48	6376
2026-01-04 01:41:01.34	147.70	9.53	-36.9	-38.1	28.6	3.02e+01	0	39	0	144179200	48	6184
2026-01-04 01:41:05.38	147.62	9.90	-36.7	-37.9	28.6	3.02e+01	0	39	0	151519232	48	6052
2026-01-04 01:41:09.41	147.55	10.28	-36.9	-38.2	28.5	3.02e+01	0	39	0	158859264	48	6207
2026-01-04 01:41:13.45	147.47	10.67	-37.1	-38.4	28.4	3.02e+01	0	39	0	166723584	48	6357
2026-01-04 01:41:17.49	147.39	11.06	-36.6	-37.8	28.8	3.02e+01	0	39	0	174063616	48	5983
2026-01-04 01:41:21.52	147.31	11.46	-36.6	-37.8	28.8	3.02e+01	0	39	0	181927936	48	5945
2026-01-04 01:41:25.56	147.22	11.86	-36.5	-37.7	28.8	3.02e+01	0	39	0	189267968	48	5921
2026-01-04 01:41:29.59	147.14	12.27	-36.4	-37.7	29.0	3.02e+01	0	40	0	197132288	48	5866
2026-01-04 01:41:33.63	147.04	12.70	-36.3	-37.5	29.1	3.02e+01	0	40	0	204472320	48	5780
2026-01-04 01:41:37.66	146.95	13.12	-36.3	-37.5	29.1	3.02e+01	0	40	0	211812352	48	5750
2026-01-04 01:41:41.70	146.85	13.56	-36.5	-37.7	28.9	3.02e+01	0	40	0	219676672	48	5907
2026-01-04 01:41:45.74	146.75	14.01	-36.1	-37.4	29.3	3.02e+01	0	40	0	227016704	48	5664
2026-01-04 01:41:49.78	146.64	14.46	-36.0	-37.2	29.4	3.02e+01	0	39	0	234881024	46	6232
2026-01-04 01:41:53.81	146.53	14.93	-36.5	-37.7	28.8	3.02e+01	0	39	0	242221056	46	6610
2026-01-04 01:41:57.85	146.42	15.40	-36.5	-37.8	28.9	3.02e+01	0	40	0	250085376	46	6668
2026-01-04 01:42:01.88	146.30	15.89	-36.0	-37.2	29.4	3.02e+01	0	39	0	257425408	46	6252
2026-01-04 01:42:05.92	146.18	16.39	-36.6	-37.8	29.0	3.02e+01	0	39	0	264765440	48	5983
2026-01-04 01:42:09.96	146.05	16.89	-36.0	-37.2	29.5	3.02e+01	0	40	0	272629760	46	6267
2026-01-04 01:42:14.00	145.92	17.41	-36.0	-37.2	29.5	3.02e+01	0	39	0	279969792	46	6257
2026-01-04 01:42:18.03	145.78	17.94	-36.3	-37.5	29.3	3.02e+01	0	40	0	287834112	46	6446
2026-01-04 01:42:22.07	145.64	18.49	-36.1	-37.3	29.6	3.02e+01	0	40	0	295174144	46	6294
2026-01-04 01:42:26.10	145.49	19.04	-36.3	-37.5	29.4	3.02e+01	0	40	0	303038464	46	6469
2026-01-04 01:42:30.14	145.33	19.62	-36.6	-37.8	29.1	3.02e+01	0	40	0	310378496	48	5987
2026-01-04 01:42:34.18	145.17	20.20	-36.2	-37.4	29.4	3.02e+01	0	40	0	318242816	48	5714
2026-01-04 01:42:38.22	144.99	20.80	-36.3	-37.5	29.5	3.02e+01	0	40	0	325582848	48	5770
2026-01-04 01:42:42.26	144.82	21.42	-36.3	-37.5	29.5	3.02e+01	0	40	0	332922880	48	5729
2026-01-04 01:42:46.30	144.63	22.05	-36.4	-37.6	29.5	3.02e+01	0	40	0	340787200	48	5840
2026-01-04 01:42:50.33	144.43	22.70	-36.2	-37.4	29.5	3.02e+01	0	40	0	348127232	48	5663
2026-01-04 01:42:54.37	144.23	23.37	-36.4	-37.6	29.3	3.02e+01	0	40	0	355991552	48	5802
2026-01-04 01:42:58.41	144.01	24.06	-36.3	-37.5	29.3	3.02e+01	0	40	0	363331584	48	5751
2026-01-04 01:43:02.44	143.79	24.77	-36.6	-37.8	29.0	3.02e+01	0	40	0	371195904	48	5938
2026-01-04 01:43:06.48	143.55	25.49	-36.0	-37.2	29.5	3.02e+01	0	40	0	378535936	48	5581
2026-01-04 01:43:10.52	143.30	26.24	-36.1	-37.3	29.5	3.02e+01	0	40	0	385875968	48	5630
2026-01-04 01:43:14.56	143.03	27.02	-36.0	-37.1	29.7	3.02e+01	0	40	0	393740288	46	6195
2026-01-04 01:43:18.59	142.75	27.81	-35.7	-36.8	30.0	3.02e+01	0	40	0	401080320	46	5985
2026-01-04 01:43:22.63	142.46	28.63	-35.8	-37.0	29.7	3.02e+01	0	40	0	408944640	46	6093
2026-01-04 01:43:26.67	142.15	29.48	-35.4	-36.6	29.6	3.02e+01	0	40	0	416284672	46	5809
2026-01-04 01:43:30.71	141.82	30.35	-35.7	-36.9	30.0	3.02e+01	0	40	0	424148992	46	6021
2026-01-04 01:43:34.74	141.47	31.25	-35.8	-36.9	30.0	3.02e+01	0	40	0	431489024	46	6050
2026-01-04 01:43:38.78	141.10	32.18	-35.8	-37.0	29.9	3.02e+01	0	40	0	439353344	46	6088
2026-01-04 01:43:42.82	140.71	33.14	-36.1	-37.3	29.7	3.02e+01	0	40	0	446693376	46	6294
2026-01-04 01:43:46.86	140.29	34.13	-36.2	-37.4	29.5	3.02e+01	0	40	0	454033408	46	6406
2026-01-04 01:43:50.89	139.84	35.16	-37.1	-38.3	28.4	3.02e+01	0	40	0	461897728	48	6305
2026-01-04 01:43:54.93	139.36	36.22	-37.8	-39.0	28.4	3.02e+01	0	40	0	469237760	50	6104
2026-01-04 01:43:58.96	138.84	37.31	-37.6	-38.9	28.5	3.02e+01	0	40	0	477102080	50	6009
2026-01-04 01:44:03.00	138.29	38.44	-38.4	-39.7	27.6	3.02e+01	0	40	0	484442112	50	6612
2026-01-04 01:44:07.04	137.70	39.61	-38.6	-39.9	27.3	3.02e+01	0	40	0	492306432	50	6748
2026-01-04 01:44:11.08	137.05	40.82	-37.5	-38.7	28.4	3.02e+01	0	40	0	499646464	50	5906
2026-01-04 01:44:15.11	136.36	42.07	-37.8	-39.1	27.9	3.02e+01	0	40	0	507510784	50	6169
2026-01-04 01:44:19.15	135.61	43.36	-38.0	-39.3	28.6	3.02e+01	0	40	0	514850816	50	6278
2026-01-04 01:44:23.19	134.79	44.69	-36.4	-37.6	29.4	3.02e+01	0	40	0	522190848	48	5847
2026-01-04 01:44:27.23	133.89	46.06	-36.7	-37.9	29.1	3.02e+01	0	39	0	530055168	48	6046
2026-01-04 01:44:31.27	132.91	47.47	-37.3	-38.5	28.4	3.02e+01	0	40	0	537395200	48	6473
2026-01-04 01:44:35.30	131.84	48.92	-36.6	-37.8	29.3	3.02e+01	0	40	0	545259520	48	5984
2026-01-04 01:44:39.34	130.65	50.41	-36.3	-37.5	29.5	3.02e+01	0	40	0	552599552	48	5767
2026-01-04 01:44:43.38	129.34	51.94	-35.6	-36.7	30.1	3.02e+01	0	40	0	560463872	46	5917
2026-01-04 01:44:47.41	127.88	53.50	-35.5	-36.6	30.2	3.02e+01	0	39	0	567803904	46	5834
2026-01-04 01:44:51.45	126.25	55.09	-35.9	-37.1	29.7	3.02e+01	0	40	0	575668224	46	6176
2026-01-04 01:44:55.49	124.42	56.71	-36.7	-37.9	29.1	3.02e+01	0	40	0	583008256	46	6796
2026-01-04 01:44:59.52	122.36	58.34	-36.8	-38.0	29.0	3.02e+01	0	40	0	590348288	48	6124
2026-01-04 01:45:03.56	120.03	59.98	-37.4	-38.6	28.4	3.02e+01	0	40	0	598212608	48	6566
2026-01-04 01:45:07.60	117.37	61.62	-37.8	-39.1	28.2	3.02e+01	0	40	0	605552640	48	6935
2026-01-04 01:45:11.63	114.34	63.23	-38.4	-39.7	27.5	3.02e+01	0	40	0	613416960	50	6620
2026-01-04 01:45:15.67	110.87	64.81	-39.1	-40.5	27.1	3.02e+01	0	40	0	620756992	52	6439
2026-01-04 01:45:19.72	106.87	66.32	-40.0	-41.4	25.9	3.02e+01	0	40	0	628621312	54	6420
2026-01-04 01:45:23.75	102.31	67.74	-41.3	-42.9	25.0	3.02e+01	0	40	0	635961344	56	6735
2026-01-04 01:45:27.79	97.08	69.03	-40.2	-41.7	26.0	3.02e+01	0	40	0	643825664	54	6585
2026-01-04 01:45:31.83	91.16	70.16	-40.1	-41.5	26.0	3.02e+01	0	40	0	651165696	54	6482
2026-01-04 01:45:35.87	84.55	71.07	-40.4	-41.8	25.7	3.02e+01	0	40	0	658505728	56	5984
2026-01-04 01:45:39.91	77.33	71.73	-39.4	-40.8	26.7	3.02e+01	0	40	0	666370048	54	5947
2026-01-04 01:45:43.94	69.68	72.10	-40.2	-41.7	25.8	3.02e+01	0	40	0	673710080	54	6611
2026-01-04 01:45:47.98	61.82	72.15	-41.1	-42.6	25.0	3.02e+01	0	40	0	681574400	56	6550
2026-01-04 01:45:52.02	54.06	71.89	-40.6	-42.1	25.6	3.02e+01	0	40	0	688914432	56	6171
2026-01-04 01:45:56.06	46.66	71.33	-40.3	-41.8	25.8	3.02e+01	0	40	0	696778752	56	5971
2026-01-04 01:46:00.10	39.83	70.50	-42.3	-44.0	23.7	3.02e+01	0	40	0	704118784	58	6876
2026-01-04 01:46:04.13	33.69	69.45	-41.9	-43.6	24.1	3.02e+01	0	40	0	711983104	58	6527
2026-01-04 01:46:08.17	28.23	68.21	-41.9	-43.5	24.3	3.02e+01	0	40	0	719323136	58	6461
2026-01-04 01:46:12.21	23.44	66.83	-42.0	-43.8	23.8	3.02e+01	0	40	0	726663168	58	6650
2026-01-04 01:46:16.24	19.27	65.35	-41.7	-43.4	24.2	3.02e+01	0	40	0	734527488	56	7165
2026-01-04 01:46:20.28	15.63	63.80	-39.6	-41.0	26.5	3.02e+01	0	40	0	741867520	54	6079
2026-01-04 01:46:24.32	12.46	62.19	-38.9	-40.3	27.1	3.02e+01	0	40	0	749731840	52	6312
2026-01-04 01:46:28.36	9.68	60.57	-38.4	-39.7	27.4	3.02e+01	0	40	0	757071872	52	5888
2026-01-04 01:46:32.39	7.25	58.93	-37.7	-38.9	28.3	3.02e+01	0	40	0	764936192	50	6052
2026-01-04 01:46:36.42	5.10	57.30	-37.1	-38.3	28.9	3.02e+01	0	40	0	772276224	48	6304
2026-01-04 01:46:40.46	3.20	55.68	-35.8	-37.0	29.8	3.02e+01	0	40	0	779616256	46	6095
2026-01-04 01:46:44.50	1.50	54.09	-34.9	-36.0	30.7	3.02e+01	0	40	0	787480576	44	6093
2026-01-04 01:46:48.54	359.98	52.52	-35.8	-36.9	30.1	3.02e+01	0	40	0	794820608	46	6056
2026-01-04 01:46:52.57	358.63	50.99	-36.1	-37.3	29.9	3.02e+01	0	40	0	802684928	46	6326
2026-01-04 01:46:56.61	357.40	49.49	-36.7	-37.9	29.4	3.02e+01	0	40	0	810024960	48	6015
2026-01-04 01:47:00.64	356.29	48.03	-37.2	-38.4	29.0	3.02e+01	0	40	0	817889280	48	6406
2026-01-04 01:47:04.68	355.28	46.60	-36.3	-37.5	29.6	3.02e+01	0	40	0	825229312	48	5744
2026-01-04 01:47:08.72	354.36	45.22	-36.4	-37.7	29.5	3.02e+01	0	40	0	832569344	46	6575
2026-01-04 01:47:12.75	353.51	43.89	-36.4	-37.5	29.7	3.02e+01	0	40	0	840433664	46	6488
2026-01-04 01:47:16.79	352.74	42.59	-37.1	-38.4	28.9	3.02e+01	0	40	0	847773696	48	6366
2026-01-04 01:47:20.83	352.03	41.33	-37.3	-38.5	28.8	3.02e+01	0	40	0	855638016	48	6463
2026-01-04 01:47:24.87	351.37	40.11	-38.1	-39.4	28.1	3.02e+01	0	40	0	862978048	50	6383
2026-01-04 01:47:28.91	350.76	38.93	-38.3	-39.5	28.1	3.02e+01	0	40	0	870842368	50	6479
2026-01-04 01:47:32.94	350.19	37.79	-38.4	-39.7	28.0	3.02e+01	0	40	0	878182400	50	6585
2026-01-04 01:47:36.98	349.67	36.68	-37.6	-38.8	28.6	3.02e+01	0	40	0	886046720	50	5982
2026-01-04 01:47:41.02	349.18	35.61	-37.6	-38.9	28.8	3.02e+01	0	40	0	893386752	50	6007
2026-01-04 01:47:45.06	348.72	34.58	-37.5	-38.7	29.1	3.02e+01	0	40	0	900726784	50	5885
2026-01-04 01:47:49.10	348.29	33.58	-36.7	-37.9	29.5	3.02e+01	0	40	0	908591104	48	6026
2026-01-04 01:47:53.13	347.89	32.61	-36.0	-37.2	29.9	3.02e+01	0	40	0	915931136	46	6227
2026-01-04 01:47:57.17	347.51	31.67	-36.1	-37.3	30.0	3.02e+01	0	40	0	923795456	46	6297
2026-01-04 01:48:01.21	347.16	30.76	-36.3	-37.5	29.9	3.02e+01	0	40	0	931135488	46	6476
2026-01-04 01:48:05.24	346.82	29.89	-36.1	-37.3	29.9	3.02e+01	0	40	0	938999808	46	6323
2026-01-04 01:48:09.28	346.51	29.03	-35.8	-36.9	30.1	3.02e+01	0	40	0	946339840	46	6058
2026-01-04 01:48:13.32	346.21	28.21	-36.1	-37.3	30.0	3.02e+01	0	40	0	953679872	46	6298
2026-01-04 01:48:17.36	345.92	27.40	-36.5	-37.6	30.0	3.02e+01	0	40	0	961544192	48	5848
2026-01-04 01:48:21.39	345.66	26.63	-36.5	-37.7	29.6	3.02e+01	0	40	0	968884224	48	5895
2026-01-04 01:48:25.43	345.40	25.87	-37.3	-38.5	29.4	3.02e+01	0	40	0	976748544	48	6494
2026-01-04 01:48:29.46	345.16	25.14	-36.8	-38.0	29.2	3.02e+01	0	40	0	984088576	48	6121
2026-01-04 01:48:33.50	344.94	24.43	-38.1	-39.3	28.8	3.02e+01	0	40	0	991952896	50	6342
2026-01-04 01:48:37.53	344.72	23.73	-37.1	-38.4	29.3	3.02e+01	0	40	0	999292928	50	5661
2026-01-04 01:48:41.57	344.51	23.06	-37.0	-38.2	29.1	3.02e+01	0	40	0	1006632960	48	6267
2026-01-04 01:48:45.61	344.31	22.41	-36.9	-38.2	28.9	3.02e+01	0	40	0	1014497280	48	6219
2026-01-04 01:48:49.65	344.12	21.77	-36.9	-38.2	28.9	3.02e+01	0	40	0	1021837312	48	6220
2026-01-04 01:48:53.69	343.94	21.15	-36.9	-38.2	29.1	3.02e+01	0	40	0	1029701632	48	6208
2026-01-04 01:48:57.73	343.77	20.54	-36.7	-38.0	29.1	3.02e+01	0	40	0	1037041664	48	6071
2026-01-04 01:49:01.76	343.61	19.95	-36.6	-37.8	29.2	3.02e+01	0	40	0	1044905984	48	5989
2026-01-04 01:49:05.80	343.45	19.38	-36.7	-37.9	29.3	3.02e+01	0	40	0	1052246016	48	6059
2026-01-04 01:49:09.83	343.30	18.82	-36.5	-37.7	29.4	3.02e+01	0	40	0	1060110336	48	5889
2026-01-04 01:49:13.88	343.16	18.27	-36.7	-37.9	29.3	3.02e+01	0	40	0	1067450368	48	6050
2026-01-04 01:49:17.91	343.02	17.73	-36.6	-37.8	29.3	3.02e+01	0	40	0	1074790400	48	5964
2026-01-04 01:49:21.95	342.88	17.21	-36.8	-38.0	29.2	3.02e+01	0	40	0	1082654720	48	6083
2026-01-04 01:49:25.99	342.76	16.70	-36.7	-37.9	29.3	3.02e+01	0	40	0	1089994752	48	6022
2026-01-04 01:49:30.02	342.63	16.20	-36.6	-37.9	29.2	3.02e+01	0	40	0	1097859072	48	6001
2026-01-04 01:49:34.06	342.52	15.71	-37.0	-38.2	29.1	3.02e+01	0	40	0	1105199104	48	6272
2026-01-04 01:49:38.10	342.40	15.24	-37.4	-38.6	28.8	3.02e+01	0	40	0	1113063424	48	6563
2026-01-04 01:49:42.14	342.29	14.77	-37.0	-38.2	29.0	3.02e+01	0	40	0	1120403456	48	6262
2026-01-04 01:49:46.17	342.19	14.31	-36.7	-37.9	29.0	3.02e+01	0	40	0	1127743488	48	6051
2026-01-04 01:49:50.21	342.09	13.86	-37.1	-38.3	29.1	3.02e+01	0	40	0	1135607808	48	6302
2026-01-04 01:49:54.26	341.99	13.42	-37.3	-38.5	29.1	3.02e+01	0	40	0	1142947840	48	6449
2026-01-04 01:49:58.29	341.90	12.99	-36.9	-38.2	28.9	3.02e+01	0	40	0	1150812160	48	6222
2026-01-04 01:50:02.32	341.81	12.57	-37.1	-38.4	28.8	3.02e+01	0	40	0	1158152192	48	6355
2026-01-04 01:50:06.36	341.72	12.15	-37.5	-38.8	28.8	3.02e+01	0	40	0	1166016512	50	5941
2026-01-04 01:50:10.40	341.64	11.74	-38.0	-48.1	3.6	3.02e+01	0	40	104	1167589376	50	17326
2026-01-04 01:50:14.43	341.56	11.35	-38.3	-48.3	3.6	3.02e+01	0	40	104	1167589376	52	15931
2026-01-04 01:50:18.47	341.48	10.95	-38.1	-48.1	3.6	3.02e+01	0	40	104	1167589376	50	17352
2026-01-04 01:50:22.51	341.40	10.57	-47.2	-59.2	3.5	3.02e+01	0	40	104	1167589376	60	35060
2026-01-04 01:50:26.55	341.33	10.19	-40.7	-50.8	4.1	3.02e+01	0	40	104	1167589376	54	18790
2026-01-04 01:50:30.59	341.26	9.81	-39.9	-50.1	3.5	3.02e+01	0	40	104	1167589376	58	13736
2026-01-04 01:50:34.63	341.19	9.44	-39.8	-50.0	3.5	3.02e+01	0	40	104	1167589376	54	17241
2026-01-04 01:50:38.66	341.12	9.08	-40.4	-50.7	3.5	3.02e+01	0	40	104	1167589376	56	16694
2026-01-04 01:50:42.70	341.06	8.73	-39.0	-49.3	3.5	3.02e+01	0	40	104	1167589376	54	15875
2026-01-04 01:50:46.73	341.00	8.38	-42.2	-52.8	3.5	3.02e+01	0	40	104	1167589376	54	23639
2026-01-04 01:50:50.77	340.94	8.03	-42.5	-53.1	3.5	3.02e+01	0	40	104	1167589376	54	24526
2026-01-04 01:50:54.81	340.88	7.69	-40.2	-50.6	3.5	3.02e+01	0	40	104	1167589376	56	16463
2026-01-04 01:50:58.85	340.83	7.36	-49.3	-65.4	3.5	3.02e+01	0	40	104	1167589376	60	71403
2026-01-04 01:51:02.89	340.77	7.03	-40.6	-50.9	3.5	3.02e+01	0	40	104	1167589376	56	16929
2026-01-04 01:51:06.93	340.72	6.70	-49.2	-65.2	3.5	3.02e+01	0	40	104	1167589376	60	70230
2026-01-04 01:51:10.96	340.67	6.38	-39.0	-49.1	3.5	3.02e+01	0	40	104	1167589376	52	17472
2026-01-04 01:51:15.00	340.62	6.07	-42.9	-53.5	3.5	3.02e+01	0	40	104	1167589376	58	20377
2026-01-04 01:51:19.04	340.57	5.75	-40.9	-51.3	3.5	3.02e+01	0	40	104	1167589376	56	17745
2026-01-04 01:51:23.08	340.53	5.45	-43.3	-54.3	3.5	3.02e+01	0	40	104	1167589376	60	19972
2026-01-04 01:51:27.11	340.48	5.14	-45.0	-56.5	3.5	3.02e+01	0	40	104	1167589376	60	25739
2026-01-04 01:51:31.15	340.44	4.84	-44.4	-56.3	3.5	3.02e+01	0	40	104	1167589376	60	25033
2026-01-04 01:51:35.19	340.40	4.54	-46.1	-60.4	3.5	3.02e+01	0	40	104	1167589376	60	40093
2026-01-04 01:51:39.22	340.36	4.25	-46.0	-62.0	3.5	3.02e+01	0	40	104	1167589376	60	48183
2026-01-04 01:51:43.26	340.32	3.96	-46.1	-63.9	3.5	3.02e+01	0	40	104	1167589376	60	60552
2026-01-04 01:51:47.30	340.28	3.68	-46.1	-64.0	3.5	3.02e+01	0	40	104	1167589376	60	60767
2026-01-04 01:51:51.33	340.24	3.39	-46.5	-64.3	3.5	3.02e+01	0	40	104	1167589376	60	63098
2026-01-04 01:51:55.37	340.21	3.11	-46.2	-64.1	3.5	3.02e+01	0	40	104	1167589376	60	61773
2026-01-04 01:51:59.41	340.17	2.84	-50.2	-68.3	3.5	3.02e+01	0	40	104	1167589376	60	100415
2026-01-04 01:52:03.45	340.14	2.56	-51.0	-68.9	3.5	3.02e+01	0	40	104	1167589376	60	107708
2026-01-04 01:52:07.48	340.11	2.29	-50.8	-68.9	3.5	3.02e+01	0	40	104	1167589376	60	106813
2026-01-04 01:52:11.52	340.07	2.02	-50.9	-68.8	3.5	3.02e+01	0	40	104	1167589376	60	105708
2026-01-04 01:52:15.56	340.04	1.76	-51.1	-68.9	3.5	3.02e+01	0	40	104	1167589376	60	107801
2026-01-04 01:52:19.60	340.01	1.49	-51.8	-69.6	3.5	3.02e+01	0	40	104	1167589376	60	115851
2026-01-04 01:52:23.64	339.98	1.23	-51.2	-69.0	3.5	3.02e+01	0	40	104	1167589376	60	108789
2026-01-04 01:52:27.68	339.96	0.98	-51.3	-69.3	3.5	3.02e+01	0	40	104	1167589376	60	112706
2026-01-04 01:52:31.72	339.93	0.72	-51.1	-68.9	3.5	3.02e+01	0	40	104	1167589376	60	107596
2026-01-04 01:52:35.75	339.90	0.47	-51.6	-69.5	3.5	3.02e+01	0	40	104	1167589376	60	114707
2026-01-04 01:52:39.79	339.88	0.22	-51.2	-69.2	3.5	3.02e+01	0	40	104	1167589376	60	110392
2026-01-04 01:52:43.84	339.85	-0.03	-51.4	-69.2	3.5	3.02e+01	0	40	104	1167589376	60	111001

#Closed at: 2026-01-04 01:52:45
#Recorded file [1167 MB]: D:/lorett/data/35029_260104_133856.dat