passes_logs/2026/01/04/R4.6S_Anadyr/R4.6S_Anadyr__20260104_232630_NOAA_20_JPSS-1_rec.log

#Pass ID: 20260104_232630_NOAA 20 (JPSS-1)
#Satellite: NOAA 20 (JPSS-1)
#Configuration: NOAA 20
#almurnet v.1.7.20251203
#Start time: 2026-01-04 23:26:33

#Version: 2.2.20231116
#Station: R4.6S_Anadyr
#Location: 177.4865 lon 64.73178 lat
#TLE: 1 43013U 17073A   26003.41800368  .00000169  00000+0  10117-3 0  9998
#TLE: 2 43013  98.7624 304.4804 0001884  56.1176 304.0179 14.19532918421092

#Time	Az	El	Level	Level2	SNR	BER	BlckErr	Temp	State	Recorded	gain1	gain2
2026-01-04 23:26:33.59	137.17	0.16	-49.0	-63.9	3.5	1.51e+00	0	29	0	0	60	56914
2026-01-04 23:26:37.62	137.10	0.40	-49.1	-64.3	3.6	1.51e+00	0	31	104	0	60	59454
2026-01-04 23:26:41.65	137.02	0.65	-48.8	-64.0	3.6	1.51e+00	0	31	104	0	60	57266
2026-01-04 23:26:45.69	136.95	0.89	-48.5	-63.7	3.6	1.51e+00	0	31	104	0	60	55236
2026-01-04 23:26:49.74	136.87	1.14	-47.5	-62.7	3.5	1.51e+00	0	31	104	0	60	49252
2026-01-04 23:26:53.78	136.79	1.39	-47.2	-62.4	3.6	1.51e+00	0	31	104	0	60	47605
2026-01-04 23:26:57.81	136.71	1.64	-47.1	-62.4	3.6	1.51e+00	0	31	104	0	60	47668
2026-01-04 23:27:01.85	136.63	1.90	-47.2	-62.1	3.6	1.51e+00	0	31	104	0	60	46286
2026-01-04 23:27:05.89	136.54	2.16	-47.2	-62.2	3.6	1.51e+00	0	31	104	0	60	46440
2026-01-04 23:27:09.93	136.46	2.41	-47.2	-62.4	3.6	1.51e+00	0	31	104	0	60	47851
2026-01-04 23:27:13.97	136.37	2.68	-47.1	-61.7	3.6	1.51e+00	0	31	104	0	60	43930
2026-01-04 23:27:18.01	136.28	2.94	-47.1	-61.0	3.6	1.51e+00	0	31	104	0	60	40557
2026-01-04 23:27:22.05	136.19	3.21	-47.1	-61.7	3.6	1.51e+00	0	31	104	0	60	44091
2026-01-04 23:27:26.09	136.09	3.48	-44.1	-47.2	13.6	1.83e-04	92	31	0	4194304	60	8286
2026-01-04 23:27:30.13	136.00	3.75	-42.7	-44.9	16.5	0.00e+00	92	31	0	11534336	58	7128
2026-01-04 23:27:34.16	135.90	4.02	-47.1	-61.3	3.6	1.30e+00	0	31	104	13631488	60	41880
2026-01-04 23:27:38.20	135.80	4.30	-40.7	-42.3	19.3	0.00e+00	90	31	0	17825792	54	6624
2026-01-04 23:27:42.24	135.70	4.58	-40.2	-41.6	19.8	0.00e+00	92	31	0	25165824	54	6163
2026-01-04 23:27:46.28	135.60	4.86	-39.6	-40.9	20.7	0.00e+00	9	31	0	32505856	52	6332
2026-01-04 23:27:50.31	135.49	5.14	-39.8	-41.1	20.5	0.00e+00	92	31	0	40894464	52	6510
2026-01-04 23:27:54.35	135.38	5.43	-39.5	-40.7	20.8	0.00e+00	90	31	0	48234496	52	6221
2026-01-04 23:27:58.39	135.27	5.72	-39.4	-40.6	21.0	0.00e+00	92	31	0	55574528	52	6154
2026-01-04 23:28:02.41	135.16	6.02	-38.7	-39.7	22.0	0.00e+00	0	31	0	62914560	50	6242
2026-01-04 23:28:06.45	135.04	6.31	-38.7	-39.8	21.9	0.00e+00	91	31	0	70254592	50	6250
2026-01-04 23:28:10.49	134.93	6.61	-38.8	-39.9	21.9	0.00e+00	92	31	0	78643200	50	6319
2026-01-04 23:28:14.53	134.80	6.92	-38.4	-39.4	22.2	0.00e+00	92	31	0	85983232	50	6029
2026-01-04 23:28:18.56	134.68	7.23	-38.3	-39.3	22.4	0.00e+00	0	31	0	93323264	50	5932
2026-01-04 23:28:22.60	134.55	7.54	-38.5	-39.5	22.3	0.00e+00	92	31	0	100663296	50	6099
2026-01-04 23:28:26.64	134.42	7.85	-38.5	-39.5	22.2	0.00e+00	90	31	0	108003328	50	6099
2026-01-04 23:28:30.67	134.29	8.17	-38.3	-39.3	22.5	0.00e+00	92	31	0	116391936	50	5928
2026-01-04 23:28:34.71	134.15	8.50	-38.3	-39.3	22.6	0.00e+00	5	31	0	123731968	50	5916
2026-01-04 23:28:38.75	134.02	8.82	-37.9	-38.8	23.0	0.00e+00	91	31	0	131072000	48	6292
2026-01-04 23:28:42.79	133.87	9.15	-38.3	-39.3	22.5	0.00e+00	90	31	0	138412032	48	6630
2026-01-04 23:28:46.83	133.73	9.49	-38.2	-39.2	22.7	0.00e+00	90	31	0	146800640	50	5869
2026-01-04 23:28:50.86	133.58	9.83	-38.0	-39.0	22.9	0.00e+00	0	31	0	154140672	50	5703
2026-01-04 23:28:54.91	133.42	10.17	-38.0	-39.0	22.9	0.00e+00	92	31	0	161480704	50	5728
2026-01-04 23:28:58.94	133.26	10.52	-37.7	-38.6	23.4	0.00e+00	90	31	0	168820736	48	6170
2026-01-04 23:29:02.98	133.10	10.88	-37.6	-38.5	23.5	0.00e+00	92	31	0	176160768	48	6079
2026-01-04 23:29:07.02	132.93	11.23	-37.5	-38.4	23.6	0.00e+00	0	31	0	184549376	48	5998
2026-01-04 23:29:11.06	132.76	11.60	-37.8	-38.7	23.4	0.00e+00	92	31	0	191889408	48	6237
2026-01-04 23:29:15.10	132.59	11.97	-37.5	-38.4	23.6	0.00e+00	92	31	0	199229440	48	5966
2026-01-04 23:29:19.14	132.41	12.34	-37.7	-38.6	23.6	0.00e+00	92	31	0	206569472	48	6115
2026-01-04 23:29:23.18	132.22	12.72	-37.4	-38.3	23.8	0.00e+00	7	31	0	214958080	48	5920
2026-01-04 23:29:27.21	132.03	13.11	-37.4	-38.3	23.7	0.00e+00	92	31	0	222298112	48	5942
2026-01-04 23:29:31.25	131.83	13.50	-37.4	-38.2	23.9	0.00e+00	92	31	0	229638144	48	5881
2026-01-04 23:29:35.29	131.63	13.90	-37.7	-38.6	23.6	0.00e+00	92	31	0	236978176	48	6114
2026-01-04 23:29:39.33	131.43	14.30	-37.2	-38.1	23.9	0.00e+00	30	31	0	244318208	48	5804
2026-01-04 23:29:43.37	131.21	14.71	-37.6	-38.5	23.7	0.00e+00	91	31	0	252706816	48	6048
2026-01-04 23:29:47.41	130.99	15.13	-37.8	-38.7	23.5	0.00e+00	92	31	0	260046848	48	6186
2026-01-04 23:29:51.45	130.77	15.55	-37.2	-38.1	24.0	0.00e+00	92	31	0	267386880	48	5786
2026-01-04 23:29:55.49	130.53	15.98	-37.2	-38.1	24.1	0.00e+00	92	31	0	274726912	48	5780
2026-01-04 23:29:59.53	130.29	16.42	-37.2	-38.1	24.0	0.00e+00	92	31	0	283115520	48	5776
2026-01-04 23:30:03.57	130.04	16.86	-37.1	-38.0	24.1	0.00e+00	92	31	0	290455552	48	5702
2026-01-04 23:30:07.60	129.79	17.32	-37.4	-38.3	23.9	0.00e+00	69	31	0	297795584	48	5935
2026-01-04 23:30:11.64	129.52	17.78	-37.4	-38.3	23.9	0.00e+00	90	31	0	305135616	48	5941
2026-01-04 23:30:15.69	129.25	18.25	-37.3	-38.1	24.0	0.00e+00	90	31	0	312475648	48	5807
2026-01-04 23:30:19.73	128.97	18.72	-37.1	-38.0	24.1	0.00e+00	92	31	0	320864256	48	5716
2026-01-04 23:30:23.76	128.68	19.21	-37.4	-38.3	24.1	0.00e+00	8	31	0	328204288	48	5899
2026-01-04 23:30:27.80	128.38	19.70	-37.1	-37.9	24.2	0.00e+00	92	31	0	335544320	48	5666
2026-01-04 23:30:31.84	128.06	20.21	-37.4	-38.2	24.0	0.00e+00	92	31	0	342884352	48	5889
2026-01-04 23:30:35.88	127.74	20.72	-37.3	-38.2	24.0	0.00e+00	92	31	0	351272960	48	5865
2026-01-04 23:30:39.91	127.41	21.24	-37.5	-38.4	24.0	0.00e+00	7	31	0	358612992	48	5976
2026-01-04 23:30:43.95	127.06	21.77	-37.9	-38.8	23.5	0.00e+00	92	31	0	365953024	48	6268
2026-01-04 23:30:47.98	126.70	22.31	-37.9	-38.9	23.5	0.00e+00	92	31	0	373293056	48	6326
2026-01-04 23:30:52.02	126.33	22.87	-38.6	-39.5	23.0	0.00e+00	23	31	0	380633088	48	6843
2026-01-04 23:30:56.06	125.95	23.43	-38.7	-39.7	22.9	0.00e+00	15	31	0	389021696	50	6178
2026-01-04 23:31:00.10	125.55	24.01	-38.9	-39.9	22.6	0.00e+00	91	32	0	396361728	50	6322
2026-01-04 23:31:04.14	125.13	24.59	-39.0	-40.1	22.6	0.00e+00	92	31	0	403701760	50	6466
2026-01-04 23:31:08.18	124.70	25.19	-39.2	-40.2	22.4	0.00e+00	0	31	0	411041792	50	6587
2026-01-04 23:31:12.22	124.25	25.80	-38.9	-40.0	22.6	0.00e+00	90	31	0	419430400	50	6397
2026-01-04 23:31:16.26	123.78	26.42	-39.3	-40.3	22.3	0.00e+00	90	31	0	426770432	50	6631
2026-01-04 23:31:20.30	123.29	27.06	-39.6	-40.7	22.0	0.00e+00	92	32	0	434110464	52	6190
2026-01-04 23:31:24.34	122.79	27.70	-40.0	-41.1	21.4	0.00e+00	0	32	0	441450496	52	6487
2026-01-04 23:31:28.37	122.26	28.36	-40.1	-41.2	21.3	0.00e+00	92	31	0	448790528	52	6586
2026-01-04 23:31:32.41	121.71	29.03	-39.7	-40.8	21.8	0.00e+00	92	31	0	457179136	52	6290
2026-01-04 23:31:36.45	121.13	29.72	-39.9	-41.0	21.7	0.00e+00	92	32	0	464519168	52	6464
2026-01-04 23:31:40.49	120.53	30.42	-38.9	-39.9	22.7	0.00e+00	5	31	0	471859200	52	5657
2026-01-04 23:31:44.53	119.90	31.13	-39.2	-40.3	22.3	0.00e+00	92	32	0	479199232	52	5906
2026-01-04 23:31:48.56	119.24	31.85	-39.8	-40.9	21.8	0.00e+00	90	31	0	487587840	52	6339
2026-01-04 23:31:52.60	118.55	32.59	-40.2	-41.3	21.4	0.00e+00	91	31	0	494927872	52	6646
2026-01-04 23:31:56.64	117.83	33.35	-40.2	-41.3	21.4	0.00e+00	65	32	0	502267904	52	6665
2026-01-04 23:32:00.67	117.08	34.11	-41.0	-42.3	20.3	0.00e+00	90	31	0	509607936	54	6623
2026-01-04 23:32:04.72	116.28	34.89	-41.5	-42.9	19.9	0.00e+00	90	32	0	516947968	54	7115
2026-01-04 23:32:08.76	115.45	35.69	-41.3	-42.6	20.2	0.00e+00	90	32	0	525336576	54	6882
2026-01-04 23:32:12.79	114.57	36.49	-41.2	-42.6	20.3	0.00e+00	0	31	0	532676608	54	6862
2026-01-04 23:32:16.83	113.65	37.31	-40.3	-41.5	21.1	0.00e+00	90	31	0	540016640	54	6045
2026-01-04 23:32:20.87	112.68	38.14	-40.2	-41.3	21.5	0.00e+00	92	31	0	547356672	54	5950
2026-01-04 23:32:24.91	111.66	38.98	-40.5	-41.7	21.0	0.00e+00	92	31	0	555745280	54	6206
2026-01-04 23:32:28.94	110.59	39.82	-41.1	-42.5	20.5	0.00e+00	0	31	0	563085312	54	6794
2026-01-04 23:32:32.98	109.45	40.68	-41.3	-42.7	20.0	0.00e+00	92	31	0	570425344	56	6190
2026-01-04 23:32:37.02	108.26	41.54	-40.5	-41.7	21.2	0.00e+00	92	31	0	577765376	54	6227
2026-01-04 23:32:41.06	106.99	42.41	-40.0	-41.1	21.6	0.00e+00	0	31	0	585105408	54	5812
2026-01-04 23:32:45.10	105.66	43.29	-39.7	-40.8	21.9	0.00e+00	92	31	0	593494016	52	6260
2026-01-04 23:32:49.14	104.25	44.16	-40.7	-42.0	20.8	0.00e+00	92	31	0	600834048	54	6416
2026-01-04 23:32:53.17	102.76	45.04	-40.5	-41.6	21.0	0.00e+00	91	31	0	608174080	54	6164
2026-01-04 23:32:57.21	101.19	45.91	-40.5	-41.7	21.0	0.00e+00	62	32	0	615514112	54	6202
2026-01-04 23:33:01.25	99.52	46.77	-40.9	-42.2	20.5	0.00e+00	90	32	0	623902720	54	6569
2026-01-04 23:33:05.28	97.77	47.62	-40.4	-41.6	21.1	0.00e+00	92	31	0	631242752	54	6156
2026-01-04 23:33:09.32	95.91	48.46	-39.9	-41.1	21.6	0.00e+00	92	32	0	638582784	52	6471
2026-01-04 23:33:13.36	93.96	49.28	-39.1	-40.1	22.4	0.00e+00	33	31	0	645922816	52	5826
2026-01-04 23:33:17.40	91.89	50.07	-38.0	-39.0	23.6	0.00e+00	90	31	0	653262848	50	5697
2026-01-04 23:33:21.44	89.71	50.84	-37.2	-38.1	24.2	0.00e+00	92	32	0	661651456	48	5770
2026-01-04 23:33:25.47	87.43	51.57	-37.7	-38.5	23.7	0.00e+00	44	31	0	668991488	48	6095
2026-01-04 23:33:29.51	85.03	52.27	-37.5	-38.4	24.1	0.00e+00	13	31	0	676331520	48	5969
2026-01-04 23:33:33.53	82.54	52.91	-37.7	-38.6	23.9	0.00e+00	92	31	0	683671552	48	6161
2026-01-04 23:33:37.57	79.92	53.51	-37.9	-38.9	23.5	0.00e+00	92	31	0	692060160	48	6328
2026-01-04 23:33:41.61	77.19	54.05	-37.0	-37.8	24.5	0.00e+00	27	31	0	699400192	48	5595
2026-01-04 23:33:45.66	74.36	54.53	-36.6	-37.4	24.9	0.00e+00	0	31	0	706740224	46	5975
2026-01-04 23:33:49.70	71.45	54.94	-36.8	-37.7	24.4	0.00e+00	92	32	0	714080256	46	6186
2026-01-04 23:33:53.73	68.47	55.27	-35.6	-36.3	25.7	0.00e+00	91	31	0	721420288	44	5951
2026-01-04 23:33:57.77	65.41	55.53	-35.4	-36.2	25.9	0.00e+00	34	31	0	729808896	44	5853
2026-01-04 23:34:01.81	62.31	55.71	-35.1	-35.9	26.0	0.00e+00	0	32	0	737148928	44	5647
2026-01-04 23:34:05.85	59.18	55.80	-35.5	-36.3	25.6	0.00e+00	92	31	0	744488960	44	5917
2026-01-04 23:34:09.88	56.05	55.81	-36.5	-37.3	25.0	0.00e+00	92	31	0	751828992	44	6627
2026-01-04 23:34:13.92	52.91	55.74	-35.8	-36.5	25.6	0.00e+00	0	31	0	760217600	44	6094
2026-01-04 23:34:17.96	49.80	55.58	-35.5	-36.2	25.9	0.00e+00	68	31	0	767557632	44	5877
2026-01-04 23:34:22.00	46.74	55.34	-34.4	-35.1	26.7	0.00e+00	92	32	0	774897664	42	5799
2026-01-04 23:34:26.03	43.74	55.03	-34.0	-34.7	27.0	0.00e+00	33	31	0	782237696	42	5511
2026-01-04 23:34:30.07	40.81	54.64	-35.4	-36.1	26.0	0.00e+00	0	31	0	789577728	42	6488
2026-01-04 23:34:34.12	37.96	54.18	-36.7	-37.5	25.2	0.00e+00	85	31	0	797966336	44	6801
2026-01-04 23:34:38.16	35.21	53.65	-36.7	-37.5	24.9	0.00e+00	92	31	0	805306368	46	6039
2026-01-04 23:34:42.19	32.58	53.07	-36.3	-37.1	25.2	0.00e+00	0	31	0	812646400	46	5775
2026-01-04 23:34:46.23	30.04	52.44	-36.1	-36.9	25.3	0.00e+00	47	31	0	819986432	46	5662
2026-01-04 23:34:50.27	27.62	51.75	-37.0	-37.8	24.6	0.00e+00	91	31	0	828375040	46	6264
2026-01-04 23:34:54.30	25.31	51.03	-37.9	-38.7	23.7	0.00e+00	92	31	0	835715072	48	6244
2026-01-04 23:34:58.34	23.12	50.27	-38.4	-39.3	23.2	0.00e+00	0	31	0	843055104	48	6641
2026-01-04 23:35:02.38	21.03	49.49	-40.0	-41.1	21.6	0.00e+00	0	31	0	850395136	52	6509
2026-01-04 23:35:06.42	19.05	48.68	-41.5	-42.9	19.9	0.00e+00	92	31	0	857735168	54	7165
2026-01-04 23:35:10.45	17.17	47.85	-42.2	-43.8	19.4	0.00e+00	92	31	0	866123776	56	7014
2026-01-04 23:35:14.49	15.40	47.00	-40.7	-41.9	20.9	0.00e+00	0	31	0	873463808	54	6342
2026-01-04 23:35:18.53	13.71	46.14	-41.0	-42.3	20.6	0.00e+00	5	31	0	880803840	54	6625
2026-01-04 23:35:22.51	12.14	45.29	-40.3	-41.4	21.5	0.00e+00	92	31	0	888143872	54	6011
2026-01-04 23:35:26.55	10.64	44.42	-40.3	-41.5	21.3	0.00e+00	92	31	0	896532480	52	6813
2026-01-04 23:35:30.59	9.21	43.54	-39.6	-40.6	22.0	0.00e+00	30	31	0	903872512	52	6166
2026-01-04 23:35:34.63	7.86	42.67	-39.8	-40.9	21.9	0.00e+00	56	31	0	911212544	52	6321
2026-01-04 23:35:38.67	6.58	41.80	-40.5	-41.7	21.1	0.00e+00	92	31	0	918552576	52	6930
2026-01-04 23:35:42.70	5.37	40.94	-40.2	-41.3	21.4	0.00e+00	92	31	0	925892608	54	5948
2026-01-04 23:35:46.74	4.22	40.09	-40.3	-41.4	21.3	0.00e+00	32	31	0	934281216	54	6031
2026-01-04 23:35:50.77	3.14	39.24	-39.8	-40.9	21.8	0.00e+00	0	31	0	941621248	52	6384
2026-01-04 23:35:54.81	2.11	38.40	-40.1	-41.2	21.4	0.00e+00	92	31	0	948961280	52	6571
2026-01-04 23:35:58.85	1.13	37.57	-40.3	-41.5	20.8	0.00e+00	0	32	0	956301312	54	6050
2026-01-04 23:36:02.89	0.19	36.76	-40.2	-41.4	21.4	0.00e+00	0	31	0	963641344	54	6011
2026-01-04 23:36:06.93	359.31	35.95	-40.0	-41.2	21.6	0.00e+00	92	31	0	972029952	54	5852
2026-01-04 23:36:10.97	358.47	35.16	-40.8	-42.1	20.5	0.00e+00	3	31	0	979369984	54	6502
2026-01-04 23:36:15.01	357.66	34.38	-40.5	-41.7	21.1	0.00e+00	52	31	0	986710016	54	6190
2026-01-04 23:36:19.05	356.90	33.61	-40.0	-41.2	21.5	0.00e+00	0	31	0	994050048	54	5842
2026-01-04 23:36:23.09	356.17	32.86	-41.1	-42.4	20.2	0.00e+00	91	31	0	1002438656	54	6752
2026-01-04 23:36:27.13	355.48	32.12	-40.5	-41.8	20.9	0.00e+00	0	31	0	1009778688	54	6248
2026-01-04 23:36:31.17	354.81	31.39	-40.4	-41.6	21.0	0.00e+00	52	31	0	1017118720	54	6118
2026-01-04 23:36:35.20	354.18	30.68	-39.7	-40.9	21.6	0.00e+00	0	31	0	1024458752	52	6322
2026-01-04 23:36:39.24	353.57	29.98	-40.3	-41.5	21.2	0.00e+00	92	31	0	1031798784	52	6804
2026-01-04 23:36:43.28	352.99	29.29	-40.3	-41.5	21.1	0.00e+00	0	31	0	1040187392	52	6821
2026-01-04 23:36:47.32	352.44	28.62	-40.5	-41.7	21.0	0.00e+00	28	31	0	1047527424	52	6954
2026-01-04 23:36:51.36	351.90	27.96	-39.9	-41.1	21.5	0.00e+00	0	31	0	1054867456	52	6483
2026-01-04 23:36:55.39	351.39	27.31	-39.6	-40.7	21.8	0.00e+00	92	31	0	1062207488	52	6211
2026-01-04 23:36:59.43	350.90	26.67	-39.3	-40.4	22.2	0.00e+00	0	31	0	1070596096	52	5997
2026-01-04 23:37:03.47	350.43	26.05	-39.1	-40.2	22.2	0.00e+00	0	31	0	1077936128	52	5864
2026-01-04 23:37:07.51	349.98	25.44	-38.9	-39.9	22.7	0.00e+00	0	31	0	1085276160	52	5637
2026-01-04 23:37:11.54	349.55	24.84	-38.9	-39.9	22.6	0.00e+00	91	31	0	1092616192	52	5669
2026-01-04 23:37:15.58	349.13	24.26	-39.1	-40.2	22.5	0.00e+00	24	31	0	1099956224	50	6570
2026-01-04 23:37:19.62	348.73	23.68	-39.2	-40.3	22.3	0.00e+00	61	31	0	1108344832	50	6624
2026-01-04 23:37:23.66	348.34	23.11	-39.1	-40.1	22.3	0.00e+00	2	31	0	1115684864	50	6504
2026-01-04 23:37:27.70	347.97	22.56	-38.8	-39.8	22.7	0.00e+00	92	31	0	1123024896	50	6274
2026-01-04 23:37:31.74	347.61	22.02	-38.7	-39.7	22.8	0.00e+00	0	31	0	1130364928	50	6177
2026-01-04 23:37:35.78	347.26	21.48	-38.6	-39.6	22.8	0.00e+00	54	31	0	1138753536	50	6133
2026-01-04 23:37:39.82	346.93	20.96	-38.5	-39.4	22.7	0.00e+00	16	31	0	1146093568	50	6029
2026-01-04 23:37:43.86	346.60	20.45	-38.6	-39.6	22.8	0.00e+00	68	31	0	1153433600	50	6152
2026-01-04 23:37:47.89	346.29	19.94	-39.0	-40.0	22.5	0.00e+00	0	31	0	1160773632	50	6426
2026-01-04 23:37:51.94	345.99	19.45	-38.5	-39.5	22.8	0.00e+00	24	31	0	1168113664	50	6064
2026-01-04 23:37:55.98	345.70	18.96	-38.3	-39.2	23.1	0.00e+00	92	31	0	1176502272	50	5879
2026-01-04 23:38:00.02	345.41	18.48	-38.4	-39.3	22.9	0.00e+00	56	31	0	1183842304	50	5960
2026-01-04 23:38:04.06	345.14	18.01	-38.4	-39.4	22.9	0.00e+00	2	31	0	1191182336	50	5970
2026-01-04 23:38:08.10	344.88	17.55	-38.8	-39.9	22.5	0.00e+00	0	31	0	1198522368	50	6322
2026-01-04 23:38:12.13	344.62	17.10	-38.5	-39.4	22.8	0.00e+00	92	31	0	1206910976	50	6025
2026-01-04 23:38:16.17	344.37	16.65	-38.6	-39.5	22.7	0.00e+00	55	31	0	1214251008	50	6095
2026-01-04 23:38:20.21	344.13	16.21	-38.6	-39.6	22.7	0.00e+00	58	31	0	1221591040	50	6127
2026-01-04 23:38:24.25	343.90	15.78	-38.7	-39.7	22.5	0.00e+00	0	31	0	1228931072	50	6233
2026-01-04 23:38:28.28	343.68	15.36	-38.8	-39.8	22.4	0.00e+00	91	31	0	1236271104	50	6276
2026-01-04 23:38:32.32	343.46	14.94	-38.8	-39.9	22.3	0.00e+00	0	31	0	1244659712	50	6331
2026-01-04 23:38:36.36	343.24	14.53	-39.0	-40.1	22.2	0.00e+00	63	31	0	1251999744	50	6498
2026-01-04 23:38:40.40	343.04	14.13	-39.4	-40.5	21.8	0.00e+00	63	31	0	1259339776	50	6815
2026-01-04 23:38:44.43	342.84	13.73	-39.3	-40.4	21.8	0.00e+00	90	31	0	1266679808	50	6733
2026-01-04 23:38:48.47	342.64	13.34	-39.4	-40.5	21.7	0.00e+00	0	31	0	1275068416	50	6821
2026-01-04 23:38:52.51	342.45	12.95	-39.2	-40.3	22.0	0.00e+00	21	31	0	1282408448	50	6637
2026-01-04 23:38:56.55	342.27	12.57	-39.2	-40.3	21.9	0.00e+00	0	31	0	1289748480	50	6635
2026-01-04 23:39:00.58	342.09	12.20	-39.3	-40.4	21.8	0.00e+00	92	31	0	1297088512	50	6737
2026-01-04 23:39:04.62	341.91	11.83	-39.4	-40.5	21.6	0.00e+00	3	31	0	1304428544	50	6836
2026-01-04 23:39:08.66	341.75	11.46	-39.7	-40.9	21.4	0.00e+00	2	31	0	1312817152	52	6331
2026-01-04 23:39:12.70	341.58	11.10	-40.3	-41.5	20.8	0.00e+00	82	31	0	1320157184	52	6802
2026-01-04 23:39:16.73	341.42	10.75	-40.7	-42.0	20.3	0.00e+00	21	31	0	1327497216	54	6453
2026-01-04 23:39:20.77	341.26	10.40	-40.6	-42.0	20.2	0.00e+00	60	31	0	1334837248	54	6410
2026-01-04 23:39:24.81	341.11	10.05	-40.7	-42.0	20.2	0.00e+00	2	31	0	1343225856	54	6437
2026-01-04 23:39:28.85	340.96	9.71	-41.1	-42.6	19.6	0.00e+00	92	31	0	1350565888	54	6881
2026-01-04 23:39:32.89	340.82	9.38	-40.9	-42.3	19.9	0.00e+00	55	31	0	1357905920	54	6644
2026-01-04 23:39:36.92	340.68	9.05	-41.0	-42.4	19.7	0.00e+00	2	31	0	1365245952	54	6753
2026-01-04 23:39:40.96	340.54	8.72	-40.7	-42.1	19.9	0.00e+00	67	31	0	1372585984	54	6471
2026-01-04 23:39:45.00	340.41	8.40	-40.7	-42.1	20.0	0.00e+00	92	31	0	1380974592	54	6530
2026-01-04 23:39:49.04	340.27	8.08	-40.8	-42.2	19.9	0.00e+00	63	31	0	1388314624	54	6580
2026-01-04 23:39:53.08	340.15	7.76	-40.9	-42.3	19.8	0.00e+00	0	31	0	1395654656	54	6686
2026-01-04 23:39:57.12	340.02	7.45	-40.9	-42.3	19.6	0.00e+00	21	31	0	1402994688	54	6645
2026-01-04 23:40:01.16	339.90	7.14	-41.3	-42.9	19.2	0.00e+00	92	31	0	1411383296	54	7104
2026-01-04 23:40:05.20	339.78	6.83	-41.3	-42.9	18.9	0.00e+00	67	32	0	1418723328	54	7122
2026-01-04 23:40:09.24	339.67	6.53	-40.9	-42.4	19.4	0.00e+00	0	31	0	1426063360	54	6716
2026-01-04 23:40:13.28	339.55	6.24	-40.9	-42.4	19.4	0.00e+00	0	31	0	1433403392	54	6734
2026-01-04 23:40:17.32	339.44	5.94	-41.0	-42.6	18.8	0.00e+00	92	31	0	1440743424	54	6884
2026-01-04 23:40:21.36	339.33	5.65	-41.3	-43.1	18.2	0.00e+00	17	31	0	1449132032	54	7265
2026-01-04 23:40:25.40	339.23	5.36	-42.2	-44.4	16.5	0.00e+00	6	31	0	1456472064	56	7584
2026-01-04 23:40:29.44	339.12	5.07	-43.0	-46.2	14.2	0.00e+00	0	31	0	1463812096	58	8268
2026-01-04 23:40:33.48	339.02	4.79	-43.8	-48.3	11.5	4.13e-04	92	31	0	1471152128	60	9385
2026-01-04 23:40:37.51	338.93	4.51	-44.3	-51.0	7.5	6.09e-02	16	32	0	1479540736	60	12760
2026-01-04 23:40:41.55	338.83	4.24	-44.1	-52.8	4.9	4.89e-01	5	31	0	1486880768	60	15809
2026-01-04 23:40:45.59	338.73	3.96	-44.0	-56.6	3.7	1.46e+00	0	31	104	1491075072	60	24391
2026-01-04 23:40:49.62	338.64	3.69	-43.8	-58.2	3.6	1.51e+00	0	31	104	1491075072	60	29245
2026-01-04 23:40:53.66	338.55	3.42	-43.8	-58.8	3.6	1.51e+00	0	31	104	1491075072	60	31386
2026-01-04 23:40:57.70	338.46	3.16	-43.8	-58.9	3.6	1.51e+00	0	32	104	1491075072	60	31875
2026-01-04 23:41:01.74	338.38	2.89	-47.6	-62.7	3.6	1.51e+00	0	32	104	1491075072	60	49506
2026-01-04 23:41:05.78	338.29	2.63	-48.7	-63.9	3.6	1.51e+00	0	32	104	1491075072	60	56392
2026-01-04 23:41:09.82	338.21	2.37	-48.9	-64.1	3.6	1.51e+00	0	32	104	1491075072	60	58018
2026-01-04 23:41:13.85	338.13	2.11	-48.7	-64.0	3.6	1.51e+00	0	32	104	1491075072	60	57450
2026-01-04 23:41:17.89	338.05	1.86	-48.9	-64.1	3.6	1.51e+00	0	32	104	1491075072	60	57832
2026-01-04 23:41:21.93	337.97	1.61	-48.9	-64.1	3.6	1.51e+00	0	32	104	1491075072	60	57709
2026-01-04 23:41:25.97	337.90	1.36	-48.9	-64.1	3.6	1.51e+00	0	32	104	1491075072	60	57819
2026-01-04 23:41:30.00	337.82	1.11	-48.9	-64.0	3.6	1.51e+00	0	32	104	1491075072	60	57521
2026-01-04 23:41:34.05	337.75	0.86	-48.9	-64.1	3.6	1.51e+00	0	32	104	1491075072	60	58038
2026-01-04 23:41:38.08	337.68	0.62	-49.1	-64.3	3.6	1.51e+00	0	32	104	1491075072	60	59406
2026-01-04 23:41:42.12	337.61	0.37	-49.0	-64.2	3.6	1.51e+00	0	32	104	1491075072	60	58348
2026-01-04 23:41:46.16	337.54	0.13	-49.6	-64.8	3.6	1.51e+00	0	32	104	1491075072	60	62876
2026-01-04 23:41:50.20	337.47	-0.10	-49.2	-64.4	3.6	1.51e+00	0	32	104	1491075072	60	59886

#Closed at: 2026-01-04 23:41:52
#Recorded file [1491 MB]: D:/lorett/data/35029_260105_112633.dat