passes_logs/2026/01/04/R4.6S_Anadyr/R4.6S_Anadyr__20260104_053313_FENGYUN_3E_rec.log

#Pass ID: 20260104_053313_FENGYUN 3E
#Satellite: FENGYUN 3E
#Configuration: FENGYUN 3E
#almurnet v.1.7.20251203
#Start time: 2026-01-04 05:33:15

#Version: 2.2.20231116
#Station: R4.6S_Anadyr
#Location: 177.4865 lon 64.73178 lat
#TLE: 1 49008U 21062A   26003.51942929 -.00000034  00000+0  45519-5 0  9990
#TLE: 2 49008  98.7472   8.7829 0001426 160.7926 199.3304 14.19883272233213

#Time	Az	El	Level	Level2	SNR	BER	BlckErr	Temp	State	Recorded	gain1	gain2
2026-01-04 05:33:15.82	183.11	0.14	-51.8	-69.5	3.5	3.04e+01	0	37	0	0	60	115521
2026-01-04 05:33:19.86	183.25	0.38	-51.6	-63.0	3.5	8.45e-01	0	38	104	0	60	51038
2026-01-04 05:33:23.90	183.40	0.62	-52.3	-63.5	3.6	8.46e-01	0	38	104	0	60	54127
2026-01-04 05:33:27.94	183.55	0.86	-51.6	-62.9	3.6	8.45e-01	0	38	104	0	60	50458
2026-01-04 05:33:31.98	183.69	1.10	-49.0	-59.9	3.6	8.46e-01	0	38	104	0	60	35915
2026-01-04 05:33:36.02	183.85	1.34	-50.2	-61.5	3.6	8.44e-01	0	38	104	0	60	42861
2026-01-04 05:33:40.06	184.00	1.58	-49.9	-61.3	3.6	8.45e-01	0	39	104	0	60	41981
2026-01-04 05:33:44.10	184.15	1.83	-49.6	-60.9	3.6	8.46e-01	0	39	104	0	60	40088
2026-01-04 05:33:48.14	184.31	2.08	-49.9	-60.9	3.6	8.46e-01	0	39	104	0	60	40279
2026-01-04 05:33:52.17	184.47	2.33	-49.6	-60.8	3.6	8.46e-01	0	39	104	0	60	39693
2026-01-04 05:33:56.22	184.64	2.58	-48.8	-60.0	3.6	8.45e-01	0	39	104	0	60	35947
2026-01-04 05:34:00.25	184.80	2.84	-48.3	-56.8	3.9	8.41e-01	0	39	104	0	60	25117
2026-01-04 05:34:04.29	184.97	3.09	-48.1	-55.1	4.4	8.38e-01	0	39	104	0	60	20613
2026-01-04 05:34:08.33	185.14	3.35	-41.2	-42.2	17.4	0.00e+00	0	39	0	23068672	58	5249
2026-01-04 05:34:12.37	185.32	3.61	-37.7	-38.3	21.5	0.00e+00	0	39	0	52428800	48	5935
2026-01-04 05:34:16.41	185.49	3.88	-38.7	-39.4	21.4	0.00e+00	0	39	0	81788928	52	5328
2026-01-04 05:34:20.45	185.67	4.14	-36.1	-36.7	22.6	0.00e+00	0	39	0	105906176	46	5509
2026-01-04 05:34:24.49	185.86	4.41	-37.6	-38.2	22.4	0.00e+00	0	39	0	135266304	48	5859
2026-01-04 05:34:28.52	186.04	4.68	-37.5	-38.1	22.5	0.00e+00	0	39	0	163577856	48	5823
2026-01-04 05:34:32.56	186.23	4.96	-37.1	-37.7	22.7	0.00e+00	0	39	0	192937984	46	6240
2026-01-04 05:34:36.60	186.42	5.23	-37.3	-37.9	22.5	0.00e+00	0	39	0	222298112	46	6382
2026-01-04 05:34:40.65	186.62	5.51	-37.8	-38.4	22.5	0.00e+00	0	39	0	251658240	48	6015
2026-01-04 05:34:44.68	186.82	5.79	-38.0	-38.6	22.9	0.00e+00	0	39	0	281018368	48	6165
2026-01-04 05:34:48.72	187.02	6.08	-37.4	-38.0	23.1	0.00e+00	0	39	0	309329920	46	6400
2026-01-04 05:34:52.76	187.23	6.37	-36.9	-37.6	23.3	0.00e+00	0	39	0	338690048	46	6109
2026-01-04 05:34:56.80	187.44	6.66	-37.1	-37.7	23.4	0.00e+00	0	39	0	368050176	46	6208
2026-01-04 05:35:00.84	187.66	6.95	-38.1	-38.7	22.1	0.00e+00	0	39	0	397410304	50	5558
2026-01-04 05:35:04.88	187.88	7.24	-37.4	-38.0	23.3	0.00e+00	0	39	0	426770432	48	5706
2026-01-04 05:35:08.92	188.10	7.54	-36.1	-36.7	23.4	0.00e+00	0	39	0	456130560	46	5516
2026-01-04 05:35:12.96	188.33	7.85	-37.4	-38.0	22.8	0.00e+00	0	39	0	484442112	46	6429
2026-01-04 05:35:16.99	188.56	8.15	-37.5	-38.0	23.8	0.00e+00	0	39	0	513802240	48	5744
2026-01-04 05:35:21.02	188.79	8.46	-36.4	-37.0	23.6	0.00e+00	0	39	0	543162368	46	5714
2026-01-04 05:35:25.07	189.04	8.77	-37.9	-38.5	23.0	0.00e+00	0	39	0	572522496	48	6040
2026-01-04 05:35:29.11	189.28	9.09	-36.0	-36.6	24.3	0.00e+00	0	39	0	601882624	44	6107
2026-01-04 05:35:33.15	189.54	9.41	-35.7	-36.2	24.4	0.00e+00	0	39	0	630194176	44	5883
2026-01-04 05:35:37.19	189.79	9.73	-35.0	-35.6	24.2	0.00e+00	0	39	0	659554304	44	5452
2026-01-04 05:35:41.23	190.05	10.06	-36.2	-36.8	24.2	0.00e+00	0	39	0	688914432	46	5567
2026-01-04 05:35:45.27	190.32	10.39	-36.1	-36.6	24.2	0.00e+00	0	39	0	718274560	44	6147
2026-01-04 05:35:49.31	190.60	10.73	-35.2	-35.8	24.1	0.00e+00	0	39	0	747634688	44	5588
2026-01-04 05:35:53.34	190.88	11.07	-35.2	-35.8	24.1	0.00e+00	0	39	0	776994816	42	6273
2026-01-04 05:35:57.39	191.16	11.41	-36.3	-36.9	24.1	0.00e+00	0	39	0	805306368	44	6331
2026-01-04 05:36:01.43	191.46	11.76	-35.2	-35.8	24.4	0.00e+00	0	39	0	834666496	44	5571
2026-01-04 05:36:05.47	191.75	12.11	-36.6	-37.1	24.4	0.00e+00	0	39	0	864026624	44	6508
2026-01-04 05:36:09.51	192.06	12.47	-35.8	-36.3	24.5	0.00e+00	0	39	0	893386752	42	6653
2026-01-04 05:36:13.55	192.37	12.83	-34.9	-35.4	25.3	0.00e+00	0	39	0	922746880	42	6013
2026-01-04 05:36:17.59	192.69	13.19	-34.3	-34.8	25.7	0.00e+00	0	39	0	951058432	42	5567
2026-01-04 05:36:21.62	193.02	13.56	-34.1	-34.6	25.9	0.00e+00	0	39	0	980418560	42	5480
2026-01-04 05:36:25.67	193.36	13.94	-33.5	-34.0	25.7	0.00e+00	0	39	0	1009778688	40	5752
2026-01-04 05:36:29.70	193.70	14.32	-33.6	-34.1	25.6	0.00e+00	0	39	0	1039138816	40	5823
2026-01-04 05:36:33.73	194.06	14.70	-33.1	-33.6	25.9	0.00e+00	0	39	0	1068498944	40	5445
2026-01-04 05:36:37.77	194.42	15.09	-32.9	-33.4	26.0	0.00e+00	0	39	0	1096810496	38	6021
2026-01-04 05:36:41.81	194.79	15.49	-33.2	-33.7	26.0	0.00e+00	0	39	0	1126170624	38	6199
2026-01-04 05:36:45.85	195.17	15.89	-33.4	-33.9	26.2	0.00e+00	0	39	0	1155530752	40	5641
2026-01-04 05:36:49.89	195.56	16.30	-33.4	-33.9	26.3	0.00e+00	0	39	0	1184890880	40	5661
2026-01-04 05:36:53.93	195.96	16.71	-33.5	-33.9	26.5	0.00e+00	0	39	0	1214251008	38	6389
2026-01-04 05:36:57.96	196.37	17.13	-32.8	-33.3	26.6	0.00e+00	0	39	0	1242562560	38	5909
2026-01-04 05:37:02.00	196.80	17.55	-32.7	-33.2	26.7	0.00e+00	0	39	0	1271922688	38	5859
2026-01-04 05:37:06.04	197.23	17.98	-32.1	-32.5	27.0	0.00e+00	0	39	0	1301282816	38	5436
2026-01-04 05:37:10.08	197.68	18.42	-32.3	-32.8	26.8	0.00e+00	0	39	0	1330642944	36	6262
2026-01-04 05:37:14.12	198.14	18.86	-32.6	-33.0	27.0	0.00e+00	0	39	0	1358954496	38	5750
2026-01-04 05:37:18.16	198.61	19.31	-32.2	-32.7	26.9	0.00e+00	0	39	0	1388314624	38	5512
2026-01-04 05:37:22.20	199.10	19.76	-32.1	-32.6	26.8	0.00e+00	0	39	0	1417674752	38	5459
2026-01-04 05:37:26.24	199.60	20.23	-32.7	-33.1	27.0	0.00e+00	0	39	0	1447034880	38	5827
2026-01-04 05:37:30.28	200.11	20.69	-32.0	-32.4	27.2	0.00e+00	0	39	0	1476395008	38	5368
2026-01-04 05:37:34.32	200.64	21.17	-32.0	-32.4	27.0	0.00e+00	0	39	0	1505755136	38	5371
2026-01-04 05:37:38.36	201.19	21.65	-32.0	-32.5	26.9	0.00e+00	0	39	0	1534066688	36	6047
2026-01-04 05:37:42.40	201.75	22.14	-31.8	-32.3	27.1	0.00e+00	0	39	0	1563426816	36	5897
2026-01-04 05:37:46.44	202.33	22.63	-31.7	-32.1	27.1	0.00e+00	0	39	0	1592786944	36	5826
2026-01-04 05:37:50.48	202.93	23.13	-31.5	-32.0	27.3	0.00e+00	0	39	0	1622147072	36	5730
2026-01-04 05:37:54.52	203.55	23.64	-31.4	-31.8	27.5	0.00e+00	0	39	0	1651507200	36	5621
2026-01-04 05:37:58.56	204.19	24.15	-31.9	-32.3	27.4	0.00e+00	0	39	0	1679818752	36	5964
2026-01-04 05:38:02.60	204.85	24.67	-31.4	-31.8	27.3	0.00e+00	0	39	0	1709178880	36	5626
2026-01-04 05:38:06.64	205.53	25.20	-31.5	-32.0	27.4	0.00e+00	0	39	0	1738539008	36	5749
2026-01-04 05:38:10.67	206.23	25.73	-31.2	-31.7	27.5	0.00e+00	0	39	0	1767899136	36	5539
2026-01-04 05:38:14.71	206.96	26.27	-31.1	-31.6	27.6	0.00e+00	0	39	0	1797259264	36	5462
2026-01-04 05:38:18.75	207.71	26.82	-30.5	-31.0	28.0	0.00e+00	0	39	0	1826619392	34	5708
2026-01-04 05:38:22.80	208.49	27.37	-30.6	-31.1	28.1	0.00e+00	0	39	0	1854930944	34	5778
2026-01-04 05:38:26.84	209.29	27.93	-31.1	-31.6	27.9	0.00e+00	0	39	0	1884291072	34	6106
2026-01-04 05:38:30.88	210.12	28.49	-30.8	-31.3	27.9	0.00e+00	0	39	0	1913651200	34	5907
2026-01-04 05:38:34.92	210.99	29.06	-31.0	-31.5	27.8	0.00e+00	0	39	0	1943011328	34	6046
2026-01-04 05:38:38.95	211.87	29.62	-31.5	-31.9	27.5	0.00e+00	0	39	0	1972371456	34	6370
2026-01-04 05:38:42.99	212.80	30.20	-31.1	-31.6	27.6	0.00e+00	0	39	0	2000683008	36	5472
2026-01-04 05:38:47.03	213.75	30.78	-30.9	-31.4	28.0	0.00e+00	0	39	0	2030043136	36	5334
2026-01-04 05:38:51.07	214.74	31.36	-31.0	-31.4	27.8	0.00e+00	0	39	0	2059403264	34	6013
2026-01-04 05:38:55.11	215.77	31.94	-30.7	-31.2	27.7	0.00e+00	0	39	0	2088763392	34	5829
2026-01-04 05:38:59.13	216.82	32.53	-30.7	-31.1	27.9	0.00e+00	0	39	0	2118123520	34	5815
2026-01-04 05:39:03.17	217.92	33.11	-30.5	-31.0	27.9	0.00e+00	0	39	0	2147483648	34	5725
2026-01-04 05:39:07.21	219.06	33.69	-31.7	-32.2	27.6	0.00e+00	0	39	0	2175795200	36	5860
2026-01-04 05:39:11.25	220.24	34.28	-32.3	-32.7	27.8	0.00e+00	0	39	0	2205155328	38	5543
2026-01-04 05:39:15.29	221.46	34.86	-32.0	-32.4	27.9	0.00e+00	0	39	0	2234515456	38	5377
2026-01-04 05:39:19.33	222.73	35.43	-31.7	-32.1	28.0	0.00e+00	0	39	0	2263875584	36	5816
2026-01-04 05:39:23.37	224.04	36.00	-32.3	-32.7	28.0	0.00e+00	0	39	0	2293235712	38	5551
2026-01-04 05:39:27.41	225.39	36.57	-32.3	-32.8	27.9	0.00e+00	0	39	0	2321547264	38	5569
2026-01-04 05:39:31.45	226.79	37.12	-32.0	-32.5	28.0	0.00e+00	0	39	0	2350907392	36	6071
2026-01-04 05:39:35.48	228.24	37.66	-32.5	-33.0	24.6	0.00e+00	0	39	0	2380267520	36	6399
2026-01-04 05:39:39.53	229.74	38.20	-31.6	-32.1	27.7	0.00e+00	0	39	0	2409627648	36	5769
2026-01-04 05:39:43.56	231.28	38.72	-30.8	-31.3	28.0	0.00e+00	0	40	0	2437939200	34	5916
2026-01-04 05:39:47.60	232.87	39.22	-31.1	-31.6	27.7	0.00e+00	0	39	0	2467299328	34	6134
2026-01-04 05:39:51.64	234.52	39.70	-31.9	-32.4	27.5	0.00e+00	0	39	0	2496659456	38	5346
2026-01-04 05:39:55.67	236.20	40.17	-31.9	-32.4	27.6	0.00e+00	0	39	0	2526019584	36	5973
2026-01-04 05:39:59.71	237.94	40.61	-32.1	-32.6	27.7	0.00e+00	0	40	0	2554331136	36	6104
2026-01-04 05:40:03.75	239.72	41.02	-31.7	-32.2	27.8	0.00e+00	0	40	0	2583691264	36	5854
2026-01-04 05:40:07.79	241.55	41.41	-31.8	-32.3	28.1	0.00e+00	0	39	0	2613051392	36	5907
2026-01-04 05:40:11.83	243.42	41.78	-32.5	-33.0	27.8	0.00e+00	0	39	0	2642411520	38	5712
2026-01-04 05:40:15.87	245.32	42.11	-32.9	-33.4	27.8	0.00e+00	0	39	0	2671771648	38	5965
2026-01-04 05:40:19.91	247.27	42.41	-32.9	-33.3	27.9	0.00e+00	0	40	0	2701131776	38	5943
2026-01-04 05:40:23.95	249.25	42.67	-31.4	-31.9	27.7	0.00e+00	0	40	0	2729443328	36	5655
2026-01-04 05:40:27.98	251.26	42.89	-34.1	-34.6	27.2	0.00e+00	0	39	0	2758803456	40	6133
2026-01-04 05:40:32.02	253.29	43.08	-32.5	-33.0	27.4	0.00e+00	0	39	0	2788163584	38	5728
2026-01-04 05:40:36.06	255.35	43.23	-32.4	-32.8	27.6	0.00e+00	0	39	0	2817523712	38	5622
2026-01-04 05:40:40.10	257.42	43.34	-32.7	-33.2	27.5	0.00e+00	0	39	0	2846883840	38	5835
2026-01-04 05:40:44.14	259.50	43.41	-31.1	-31.6	27.5	0.00e+00	0	39	0	2875195392	36	5478
2026-01-04 05:40:48.17	261.59	43.44	-32.1	-32.5	27.6	0.00e+00	0	39	0	2904555520	38	5433
2026-01-04 05:40:52.21	263.68	43.43	-32.5	-33.0	27.3	0.00e+00	0	39	0	2933915648	36	6415
2026-01-04 05:40:56.25	265.77	43.37	-31.9	-32.4	27.2	0.00e+00	0	39	0	2963275776	36	5997
2026-01-04 05:41:00.29	267.84	43.27	-33.0	-33.5	27.5	0.00e+00	0	40	0	2992635904	36	6792
2026-01-04 05:41:04.33	269.90	43.14	-32.4	-32.9	27.5	0.00e+00	0	40	0	3021996032	38	5655
2026-01-04 05:41:08.37	271.95	42.96	-32.5	-33.0	27.2	0.00e+00	0	40	0	3050307584	38	5699
2026-01-04 05:41:12.40	273.96	42.75	-32.5	-33.0	27.1	0.00e+00	0	40	0	3079667712	38	5697
2026-01-04 05:41:16.44	275.94	42.50	-32.5	-33.0	27.4	0.00e+00	0	39	0	3109027840	36	6420
2026-01-04 05:41:20.48	277.90	42.21	-33.5	-33.9	27.2	0.00e+00	0	40	0	3138387968	38	6384
2026-01-04 05:41:24.52	279.82	41.89	-31.4	-31.9	27.6	0.00e+00	0	40	0	3166699520	36	5659
2026-01-04 05:41:28.56	281.70	41.54	-31.7	-32.2	27.4	0.00e+00	0	40	0	3196059648	36	5832
2026-01-04 05:41:32.59	283.53	41.16	-31.4	-31.9	27.3	0.00e+00	0	40	0	3225419776	36	5656
2026-01-04 05:41:36.63	285.32	40.75	-31.3	-31.8	27.6	0.00e+00	0	39	0	3254779904	36	5594
2026-01-04 05:41:40.67	287.07	40.32	-30.8	-31.2	28.0	0.00e+00	0	40	0	3283091456	34	5870
2026-01-04 05:41:44.70	288.77	39.86	-30.8	-31.3	27.8	0.00e+00	0	40	0	3312451584	34	5908
2026-01-04 05:41:48.74	290.42	39.39	-31.2	-31.6	27.7	0.00e+00	0	40	0	3341811712	34	6150
2026-01-04 05:41:52.77	292.02	38.89	-32.2	-32.7	27.6	0.00e+00	0	40	0	3371171840	38	5507
2026-01-04 05:41:56.81	293.58	38.38	-32.1	-32.6	27.7	0.00e+00	0	40	0	3400531968	38	5447
2026-01-04 05:42:00.85	295.09	37.86	-31.4	-31.9	27.8	0.00e+00	0	40	0	3429892096	36	5648
2026-01-04 05:42:04.89	296.55	37.32	-31.7	-32.2	27.6	0.00e+00	0	40	0	3458203648	36	5829
2026-01-04 05:42:08.92	297.96	36.77	-30.9	-31.4	28.0	0.00e+00	0	40	0	3487563776	36	5326
2026-01-04 05:42:12.96	299.33	36.21	-30.6	-31.1	28.2	0.00e+00	0	40	0	3516923904	34	5773
2026-01-04 05:42:17.00	300.65	35.65	-31.4	-31.9	27.5	0.00e+00	0	40	0	3546284032	34	6329
2026-01-04 05:42:21.03	301.92	35.08	-30.9	-31.4	27.9	0.00e+00	0	40	0	3575644160	34	5989
2026-01-04 05:42:25.07	303.16	34.50	-30.7	-31.1	27.9	0.00e+00	0	40	0	3603955712	34	5824
2026-01-04 05:42:29.11	304.35	33.92	-32.0	-32.5	27.9	0.00e+00	0	40	0	3633315840	36	6068
2026-01-04 05:42:33.15	305.50	33.34	-32.0	-32.4	27.0	0.00e+00	0	40	0	3662675968	36	6023
2026-01-04 05:42:37.19	306.61	32.76	-32.0	-32.4	27.2	0.00e+00	0	40	0	3692036096	36	6027
2026-01-04 05:42:41.22	307.68	32.18	-31.5	-32.0	27.6	0.00e+00	0	40	0	3720347648	36	5696
2026-01-04 05:42:45.26	308.71	31.60	-30.9	-31.4	28.0	0.00e+00	0	40	0	3749707776	34	5983
2026-01-04 05:42:49.29	309.71	31.02	-31.5	-31.9	27.4	0.00e+00	0	40	0	3779067904	34	6375
2026-01-04 05:42:53.33	310.68	30.44	-32.5	-33.0	27.5	0.00e+00	0	40	0	3808428032	38	5729
2026-01-04 05:42:57.37	311.61	29.87	-32.0	-32.5	27.7	0.00e+00	0	40	0	3836739584	38	5400
2026-01-04 05:43:01.41	312.51	29.30	-32.5	-33.0	27.7	0.00e+00	0	40	0	3866099712	38	5727
2026-01-04 05:43:05.44	313.37	28.74	-32.3	-32.8	27.8	0.00e+00	0	40	0	3895459840	38	5572
2026-01-04 05:43:09.48	314.21	28.18	-31.6	-32.1	27.6	0.00e+00	0	40	0	3924819968	36	5766
2026-01-04 05:43:13.52	315.03	27.62	-31.6	-32.1	27.4	0.00e+00	0	40	0	3954180096	36	5784
2026-01-04 05:43:17.55	315.81	27.07	-32.1	-32.6	26.9	0.00e+00	0	40	0	3983540224	36	6112
2026-01-04 05:43:21.59	316.57	26.53	-32.2	-32.7	27.1	0.00e+00	0	40	0	4011851776	36	6196
2026-01-04 05:43:25.63	317.30	25.99	-31.8	-32.3	26.4	0.00e+00	0	40	0	4041211904	36	5929
2026-01-04 05:43:29.67	318.01	25.46	-32.2	-32.7	26.4	0.00e+00	0	40	0	4070572032	36	6215
2026-01-04 05:43:33.71	318.70	24.93	-32.8	-33.2	26.7	0.00e+00	0	40	0	4099932160	38	5885
2026-01-04 05:43:37.75	319.37	24.41	-31.7	-32.2	27.2	0.00e+00	0	40	0	4129292288	36	5856
2026-01-04 05:43:41.78	320.01	23.90	-31.6	-32.1	27.5	0.00e+00	0	40	0	4157603840	36	5783
2026-01-04 05:43:45.82	320.64	23.39	-32.0	-32.5	27.3	0.00e+00	0	40	0	4186963968	36	6041
2026-01-04 05:43:49.86	321.24	22.89	-32.0	-32.4	27.4	0.00e+00	0	40	0	4216324096	36	6031
2026-01-04 05:43:53.90	321.83	22.40	-32.0	-32.5	27.1	0.00e+00	0	40	0	4245684224	36	6073
2026-01-04 05:43:57.93	322.40	21.91	-32.2	-32.6	27.3	0.00e+00	0	40	0	4275044352	36	6159
2026-01-04 05:44:01.97	322.95	21.43	-32.0	-32.4	27.3	0.00e+00	0	40	0	4303355904	36	6027
2026-01-04 05:44:06.01	323.49	20.96	-31.9	-32.4	27.1	0.00e+00	0	40	0	4332716032	36	5976
2026-01-04 05:44:10.04	324.01	20.49	-32.5	-33.0	26.8	0.00e+00	0	40	0	4362076160	38	5752
2026-01-04 05:44:14.08	324.51	20.03	-32.7	-33.1	26.6	0.00e+00	0	40	0	4391436288	38	5808
2026-01-04 05:44:18.12	325.01	19.57	-32.8	-33.2	26.8	0.00e+00	0	40	0	4419747840	38	5879
2026-01-04 05:44:22.16	325.48	19.13	-33.0	-33.4	26.5	0.00e+00	0	40	0	4449107968	38	6024
2026-01-04 05:44:26.20	325.95	18.68	-33.0	-33.5	26.6	0.00e+00	0	40	0	4478468096	38	6039
2026-01-04 05:44:30.24	326.40	18.25	-32.6	-33.1	26.5	0.00e+00	0	40	0	4507828224	38	5779
2026-01-04 05:44:34.28	326.84	17.82	-33.0	-33.5	26.2	0.00e+00	0	40	0	4537188352	38	6041
2026-01-04 05:44:38.32	327.27	17.39	-32.9	-33.4	26.3	0.00e+00	0	40	0	4565499904	38	6018
2026-01-04 05:44:42.36	327.69	16.97	-33.1	-33.6	26.1	0.00e+00	0	40	0	4594860032	38	6136
2026-01-04 05:44:46.40	328.09	16.56	-33.3	-33.8	26.0	0.00e+00	0	40	0	4624220160	38	6290
2026-01-04 05:44:50.44	328.49	16.15	-33.2	-33.7	25.9	0.00e+00	0	40	0	4653580288	38	6215
2026-01-04 05:44:54.48	328.88	15.75	-33.2	-33.7	26.0	0.00e+00	0	40	0	4682940416	38	6236
2026-01-04 05:44:58.52	329.25	15.36	-33.7	-34.2	25.8	0.00e+00	0	40	0	4711251968	38	6592
2026-01-04 05:45:02.55	329.62	14.97	-34.1	-34.6	25.7	0.00e+00	0	40	0	4740612096	40	6115
2026-01-04 05:45:06.59	329.98	14.58	-34.5	-35.0	25.4	0.00e+00	0	40	0	4769972224	40	6404
2026-01-04 05:45:10.63	330.33	14.20	-35.2	-35.7	25.1	0.00e+00	0	40	0	4799332352	42	6192
2026-01-04 05:45:14.67	330.67	13.83	-35.1	-35.6	25.1	0.00e+00	0	40	0	4828692480	42	6171
2026-01-04 05:45:18.71	331.00	13.46	-34.9	-35.4	25.0	0.00e+00	0	40	0	4858052608	42	6017
2026-01-04 05:45:22.74	331.32	13.09	-34.9	-35.4	24.9	0.00e+00	0	40	0	4886364160	42	6018
2026-01-04 05:45:26.78	331.64	12.73	-34.6	-35.1	24.8	0.00e+00	0	40	0	4915724288	42	5812
2026-01-04 05:45:30.82	331.95	12.37	-34.9	-35.4	24.9	0.00e+00	0	40	0	4945084416	42	6000
2026-01-04 05:45:34.86	332.26	12.02	-34.6	-35.1	24.9	0.00e+00	0	40	0	4974444544	42	5813
2026-01-04 05:45:38.90	332.55	11.67	-35.3	-35.8	24.7	0.00e+00	0	40	0	5003804672	42	6256
2026-01-04 05:45:42.94	332.84	11.33	-35.1	-35.7	24.7	0.00e+00	0	40	0	5032116224	42	6175
2026-01-04 05:45:46.97	333.13	10.99	-35.6	-36.2	24.1	0.00e+00	0	40	0	5061476352	44	5834
2026-01-04 05:45:51.01	333.41	10.66	-35.2	-35.8	24.4	0.00e+00	0	40	0	5090836480	44	5570
2026-01-04 05:45:55.05	333.68	10.33	-35.8	-36.3	24.2	0.00e+00	0	40	0	5120196608	44	5956
2026-01-04 05:45:59.09	333.95	10.00	-35.7	-36.2	24.1	0.00e+00	0	40	0	5149556736	44	5884
2026-01-04 05:46:03.12	334.21	9.68	-35.1	-35.7	24.1	0.00e+00	0	40	0	5177868288	44	5510
2026-01-04 05:46:07.16	334.46	9.36	-35.5	-36.1	23.3	0.00e+00	0	40	0	5207228416	44	5786
2026-01-04 05:46:11.20	334.71	9.04	-36.0	-36.5	23.7	0.00e+00	0	40	0	5236588544	44	6086
2026-01-04 05:46:15.24	334.96	8.73	-35.9	-36.4	23.8	0.00e+00	0	40	0	5265948672	44	5997
2026-01-04 05:46:19.28	335.20	8.42	-36.8	-37.3	23.7	0.00e+00	0	40	0	5295308800	46	5942
2026-01-04 05:46:23.32	335.44	8.11	-36.2	-36.7	23.6	0.00e+00	0	40	0	5323620352	46	5565
2026-01-04 05:46:27.36	335.67	7.81	-35.8	-36.4	23.1	0.00e+00	0	40	0	5352980480	46	5333
2026-01-04 05:46:31.39	335.90	7.51	-36.2	-36.8	23.4	0.00e+00	0	40	0	5382340608	44	6277
2026-01-04 05:46:35.43	336.12	7.22	-36.4	-37.0	23.2	0.00e+00	0	40	0	5411700736	44	6392
2026-01-04 05:46:39.47	336.34	6.92	-37.1	-37.7	22.8	0.00e+00	0	40	0	5440012288	46	6215
2026-01-04 05:46:43.51	336.56	6.63	-36.9	-37.5	22.6	0.00e+00	0	40	0	5469372416	46	6058
2026-01-04 05:46:47.55	336.77	6.35	-36.9	-37.5	22.4	0.00e+00	0	40	0	5498732544	46	6060
2026-01-04 05:46:51.59	336.98	6.06	-38.2	-38.8	21.7	0.00e+00	0	40	0	5528092672	48	6296
2026-01-04 05:46:55.63	337.18	5.78	-38.0	-38.7	21.2	0.00e+00	0	40	0	5557452800	48	6180
2026-01-04 05:46:59.67	337.38	5.50	-38.9	-39.6	20.0	0.00e+00	0	40	0	5585764352	50	6134
2026-01-04 05:47:03.71	337.58	5.23	-39.7	-40.6	18.1	0.00e+00	0	40	0	5615124480	52	6116
2026-01-04 05:47:07.75	337.77	4.95	-40.6	-41.7	16.2	0.00e+00	0	40	0	5644484608	52	7000
2026-01-04 05:47:11.79	337.96	4.68	-42.5	-44.1	13.6	1.02e-05	0	40	0	5673844736	56	7307
2026-01-04 05:47:15.83	338.15	4.41	-44.3	-46.8	10.6	4.21e-03	0	40	0	5703204864	60	7927
2026-01-04 05:47:19.87	338.34	4.15	-46.3	-50.4	6.7	2.10e-01	0	40	0	5732564992	60	11968
2026-01-04 05:47:23.90	338.52	3.88	-46.8	-53.4	3.9	8.29e-01	0	40	0	5743050752	60	16921
2026-01-04 05:47:27.94	338.70	3.62	-47.2	-57.3	3.6	8.45e-01	0	40	104	5743050752	60	26453
2026-01-04 05:47:31.98	338.87	3.36	-47.5	-58.7	3.6	8.46e-01	0	40	104	5743050752	60	31213
2026-01-04 05:47:36.02	339.05	3.11	-46.3	-57.5	3.6	8.46e-01	0	40	104	5743050752	60	27094
2026-01-04 05:47:40.06	339.22	2.85	-51.7	-63.0	3.6	8.45e-01	0	40	104	5743050752	60	51287
2026-01-04 05:47:44.09	339.38	2.60	-50.6	-61.9	3.6	8.46e-01	0	40	104	5743050752	60	44795
2026-01-04 05:47:48.13	339.55	2.35	-51.1	-62.8	3.6	8.46e-01	0	40	104	5743050752	60	49633
2026-01-04 05:47:52.17	339.71	2.10	-50.6	-62.4	3.6	8.46e-01	0	40	104	5743050752	60	47493
2026-01-04 05:47:56.21	339.87	1.86	-52.2	-63.4	3.6	8.46e-01	0	40	104	5743050752	60	53672
2026-01-04 05:48:00.25	340.03	1.61	-52.0	-63.4	3.6	8.46e-01	0	40	104	5743050752	60	53310
2026-01-04 05:48:04.29	340.19	1.37	-51.7	-63.0	3.6	8.46e-01	0	40	104	5743050752	60	50891
2026-01-04 05:48:08.33	340.34	1.13	-51.9	-63.2	3.6	8.45e-01	0	40	104	5743050752	60	52004
2026-01-04 05:48:12.37	340.49	0.89	-53.0	-64.3	3.6	8.46e-01	0	40	104	5743050752	60	59329
2026-01-04 05:48:16.41	340.64	0.65	-52.3	-63.6	3.6	8.46e-01	0	40	104	5743050752	60	54614
2026-01-04 05:48:20.44	340.79	0.42	-52.3	-63.5	3.6	8.46e-01	0	40	104	5743050752	60	54320
2026-01-04 05:48:24.48	340.94	0.19	-51.4	-62.7	3.6	8.45e-01	0	40	104	5743050752	60	49195
2026-01-04 05:48:28.52	341.08	-0.05	-51.6	-62.8	3.6	8.46e-01	0	40	104	5743050752	60	50005

#Closed at: 2026-01-04 05:48:30
#Recorded file [5743 MB]: D:/lorett/data/35029_260104_173315.dat