passes_logs/2026/01/04/R4.6S_Anadyr/R4.6S_Anadyr__20260104_200942_NOAA_20_JPSS-1_rec.log

#Pass ID: 20260104_200942_NOAA 20 (JPSS-1)
#Satellite: NOAA 20 (JPSS-1)
#Configuration: NOAA 20
#almurnet v.1.7.20251203
#Start time: 2026-01-04 20:09:43

#Version: 2.2.20231116
#Station: R4.6S_Anadyr
#Location: 177.4865 lon 64.73178 lat
#TLE: 1 43013U 17073A   26003.41800368  .00000169  00000+0  10117-3 0  9998
#TLE: 2 43013  98.7624 304.4804 0001884  56.1176 304.0179 14.19532918421092

#Time	Az	El	Level	Level2	SNR	BER	BlckErr	Temp	State	Recorded	gain1	gain2
2026-01-04 20:09:43.24	65.06	0.05	-49.0	-63.9	3.5	1.51e+00	0	27	0	0	60	56745
2026-01-04 20:09:46.26	64.83	0.20	-49.4	-64.6	3.6	1.51e+00	0	28	104	0	60	61045
2026-01-04 20:09:49.29	64.61	0.35	-48.8	-64.0	3.6	1.51e+00	0	28	104	0	60	57201
2026-01-04 20:09:52.32	64.38	0.50	-48.9	-64.1	3.6	1.51e+00	0	28	104	0	60	57823
2026-01-04 20:09:55.34	64.15	0.65	-48.6	-63.7	3.6	1.51e+00	0	28	104	0	60	55547
2026-01-04 20:09:58.37	63.91	0.80	-48.3	-63.4	3.6	1.51e+00	0	28	104	0	60	53487
2026-01-04 20:10:01.40	63.68	0.95	-47.1	-62.3	3.6	1.51e+00	0	28	104	0	60	46869
2026-01-04 20:10:04.43	63.44	1.10	-47.1	-62.2	3.6	1.51e+00	0	28	104	0	60	46680
2026-01-04 20:10:07.46	63.19	1.25	-47.1	-62.2	3.6	1.51e+00	0	28	104	0	60	46607
2026-01-04 20:10:10.49	62.95	1.40	-47.1	-62.3	3.6	1.51e+00	0	28	104	0	60	46938
2026-01-04 20:10:13.52	62.70	1.55	-47.1	-62.2	3.6	1.51e+00	0	29	104	0	60	46763
2026-01-04 20:10:16.55	62.45	1.70	-47.1	-62.3	3.6	1.51e+00	0	29	104	0	60	46905
2026-01-04 20:10:19.58	62.20	1.86	-47.1	-62.2	3.6	1.51e+00	0	29	104	0	60	46834
2026-01-04 20:10:22.61	61.95	2.01	-47.0	-62.1	3.6	1.51e+00	0	29	104	0	60	46026
2026-01-04 20:10:25.64	61.69	2.16	-47.0	-61.9	3.6	1.51e+00	0	29	104	0	60	45004
2026-01-04 20:10:28.66	61.43	2.31	-47.1	-62.3	3.6	1.51e+00	0	29	104	0	60	47068
2026-01-04 20:10:31.69	61.17	2.47	-47.0	-62.1	3.6	1.51e+00	0	29	104	0	60	46006
2026-01-04 20:10:34.72	60.90	2.62	-47.1	-62.0	3.6	1.51e+00	0	29	104	0	60	45685
2026-01-04 20:10:37.75	60.63	2.77	-47.0	-60.9	3.6	1.51e+00	0	29	104	0	60	40142
2026-01-04 20:10:40.78	60.36	2.93	-46.9	-59.3	3.8	1.51e+00	0	29	104	0	60	33264
2026-01-04 20:10:43.81	60.09	3.08	-47.1	-57.7	3.6	1.42e-01	54	29	0	4194304	60	27835
2026-01-04 20:10:46.84	59.81	3.24	-42.0	-44.0	17.4	5.79e-02	92	29	0	4194304	58	6417
2026-01-04 20:10:49.87	59.53	3.39	-42.4	-44.4	16.8	0.00e+00	7	29	0	5242880	58	6729
2026-01-04 20:10:52.90	59.25	3.54	-42.4	-44.4	17.1	0.00e+00	92	29	0	11534336	58	6767
2026-01-04 20:10:55.93	58.96	3.70	-42.5	-44.7	16.8	0.00e+00	92	29	0	16777216	58	6961
2026-01-04 20:10:58.96	58.67	3.86	-42.3	-44.3	17.3	0.00e+00	3	29	0	22020096	58	6623
2026-01-04 20:11:01.98	58.38	4.01	-42.0	-43.9	17.7	0.00e+00	81	29	0	28311552	56	7112
2026-01-04 20:11:05.01	58.08	4.17	-42.4	-44.5	17.2	0.00e+00	92	29	0	33554432	56	7615
2026-01-04 20:11:08.04	57.78	4.32	-42.3	-44.3	17.1	0.00e+00	92	29	0	39845888	58	6621
2026-01-04 20:11:11.06	57.48	4.48	-42.4	-44.4	17.4	0.00e+00	0	29	0	45088768	58	6751
2026-01-04 20:11:14.09	57.17	4.63	-41.9	-43.7	18.0	0.00e+00	92	29	0	50331648	58	6223
2026-01-04 20:11:17.12	56.86	4.79	-42.0	-43.8	18.0	0.00e+00	92	29	0	56623104	56	7037
2026-01-04 20:11:20.15	56.55	4.95	-41.7	-43.5	18.2	0.00e+00	81	29	0	61865984	56	6795
2026-01-04 20:11:23.18	56.23	5.10	-41.8	-43.6	18.3	0.00e+00	51	29	0	68157440	56	6863
2026-01-04 20:11:26.21	55.91	5.26	-41.4	-43.0	18.5	0.00e+00	92	29	0	73400320	56	6444
2026-01-04 20:11:29.24	55.59	5.42	-41.4	-43.1	18.8	0.00e+00	0	29	0	79691776	56	6482
2026-01-04 20:11:32.26	55.26	5.57	-41.2	-42.8	19.0	0.00e+00	0	29	0	84934656	56	6272
2026-01-04 20:11:35.29	54.93	5.73	-41.5	-43.2	18.6	0.00e+00	92	29	0	90177536	56	6556
2026-01-04 20:11:38.32	54.60	5.88	-41.1	-42.6	19.3	0.00e+00	0	29	0	96468992	56	6111
2026-01-04 20:11:41.35	54.26	6.04	-40.7	-42.2	19.6	0.00e+00	81	29	0	101711872	54	6568
2026-01-04 20:11:44.38	53.92	6.20	-40.4	-41.7	19.9	0.00e+00	92	29	0	108003328	54	6240
2026-01-04 20:11:47.41	53.57	6.35	-40.6	-42.0	19.8	0.00e+00	92	29	0	113246208	54	6432
2026-01-04 20:11:50.43	53.22	6.51	-40.6	-42.0	19.9	0.00e+00	7	29	0	118489088	54	6436
2026-01-04 20:11:53.46	52.87	6.67	-40.8	-42.2	19.6	0.00e+00	92	29	0	124780544	54	6572
2026-01-04 20:11:56.49	52.51	6.82	-40.7	-42.1	19.8	0.00e+00	92	29	0	130023424	54	6536
2026-01-04 20:11:59.51	52.15	6.98	-40.9	-42.4	19.5	0.00e+00	0	29	0	136314880	54	6716
2026-01-04 20:12:02.54	51.79	7.14	-40.8	-42.3	19.6	0.00e+00	0	29	0	141557760	54	6620
2026-01-04 20:12:05.57	51.42	7.29	-40.6	-42.0	19.9	0.00e+00	92	29	0	147849216	54	6403
2026-01-04 20:12:08.60	51.04	7.45	-40.5	-41.9	19.9	0.00e+00	86	29	0	153092096	54	6358
2026-01-04 20:12:11.63	50.67	7.60	-40.4	-41.7	20.2	0.00e+00	6	29	0	158334976	54	6221
2026-01-04 20:12:14.66	50.28	7.76	-40.5	-41.8	20.1	0.00e+00	92	29	0	164626432	54	6304
2026-01-04 20:12:17.69	49.90	7.91	-40.3	-41.7	20.3	0.00e+00	0	29	0	169869312	54	6178
2026-01-04 20:12:20.72	49.51	8.07	-40.4	-41.7	20.2	0.00e+00	0	29	0	176160768	54	6218
2026-01-04 20:12:23.75	49.11	8.22	-40.3	-41.6	20.4	0.00e+00	92	29	0	181403648	54	6168
2026-01-04 20:12:26.78	48.71	8.38	-40.4	-41.7	20.2	0.00e+00	92	29	0	186646528	54	6240
2026-01-04 20:12:29.81	48.31	8.53	-40.3	-41.6	20.4	0.00e+00	0	29	0	192937984	54	6113
2026-01-04 20:12:32.83	47.91	8.68	-40.3	-41.6	20.4	0.00e+00	58	29	0	198180864	54	6151
2026-01-04 20:12:35.86	47.49	8.84	-39.9	-41.1	20.8	0.00e+00	92	29	0	204472320	54	5807
2026-01-04 20:12:38.89	47.08	8.99	-40.0	-41.2	20.7	0.00e+00	0	29	0	209715200	54	5873
2026-01-04 20:12:41.92	46.66	9.14	-40.2	-41.4	20.6	0.00e+00	0	29	0	216006656	54	6022
2026-01-04 20:12:44.95	46.23	9.29	-40.1	-41.4	20.7	0.00e+00	92	29	0	221249536	54	5994
2026-01-04 20:12:47.97	45.80	9.44	-40.2	-41.4	20.4	0.00e+00	0	29	0	226492416	54	6006
2026-01-04 20:12:51.00	45.37	9.59	-40.2	-41.4	20.6	0.00e+00	0	29	0	232783872	54	6019
2026-01-04 20:12:54.03	44.93	9.74	-40.2	-41.4	20.6	0.00e+00	92	29	0	238026752	54	6022
2026-01-04 20:12:57.06	44.49	9.89	-39.8	-41.0	21.0	0.00e+00	90	29	0	244318208	52	6455
2026-01-04 20:13:00.08	44.04	10.04	-39.8	-41.0	21.1	0.00e+00	0	29	0	249561088	52	6421
2026-01-04 20:13:03.11	43.59	10.18	-39.4	-40.5	21.6	0.00e+00	81	29	0	254803968	52	6082
2026-01-04 20:13:06.14	43.13	10.33	-39.3	-40.4	21.6	0.00e+00	92	29	0	261095424	52	6022
2026-01-04 20:13:09.17	42.67	10.48	-39.1	-40.1	21.9	0.00e+00	81	29	0	266338304	52	5812
2026-01-04 20:13:12.19	42.21	10.62	-38.8	-39.8	22.2	0.00e+00	0	29	0	272629760	50	6315
2026-01-04 20:13:15.22	41.73	10.76	-38.8	-39.9	22.3	0.00e+00	0	29	0	277872640	50	6338
2026-01-04 20:13:18.25	41.26	10.90	-38.5	-39.5	22.5	0.00e+00	0	29	0	284164096	50	6086
2026-01-04 20:13:21.28	40.78	11.04	-38.7	-39.7	22.2	0.00e+00	0	29	0	289406976	50	6236
2026-01-04 20:13:24.31	40.29	11.18	-38.5	-39.5	22.6	0.00e+00	15	29	0	294649856	50	6087
2026-01-04 20:13:27.34	39.80	11.32	-38.5	-39.5	22.5	0.00e+00	2	29	0	300941312	50	6091
2026-01-04 20:13:30.37	39.31	11.46	-38.1	-39.1	23.0	0.00e+00	0	29	0	306184192	50	5769
2026-01-04 20:13:33.39	38.81	11.59	-38.2	-39.2	22.9	0.00e+00	0	29	0	312475648	50	5863
2026-01-04 20:13:36.42	38.31	11.73	-38.0	-39.0	22.9	0.00e+00	92	29	0	317718528	50	5719
2026-01-04 20:13:39.45	37.80	11.86	-37.8	-38.7	23.3	0.00e+00	0	29	0	322961408	50	5554
2026-01-04 20:13:42.48	37.29	11.99	-37.7	-38.6	23.4	0.00e+00	7	29	0	329252864	48	6128
2026-01-04 20:13:45.50	36.77	12.12	-37.6	-38.5	23.5	0.00e+00	92	29	0	334495744	48	6095
2026-01-04 20:13:48.53	36.25	12.25	-37.7	-38.6	23.4	0.00e+00	85	29	0	340787200	48	6133
2026-01-04 20:13:51.56	35.72	12.38	-37.9	-38.8	23.2	0.00e+00	86	29	0	346030080	48	6315
2026-01-04 20:13:54.59	35.19	12.50	-38.1	-39.0	23.1	0.00e+00	3	29	0	351272960	48	6456
2026-01-04 20:13:57.62	34.65	12.63	-38.2	-39.2	22.6	0.00e+00	0	29	0	357564416	48	6559
2026-01-04 20:14:00.64	34.12	12.75	-38.2	-39.2	22.9	0.00e+00	0	29	0	362807296	48	6555
2026-01-04 20:14:03.66	33.57	12.86	-38.3	-39.2	22.7	0.00e+00	0	29	0	369098752	48	6614
2026-01-04 20:14:06.69	33.02	12.98	-38.3	-39.3	22.8	0.00e+00	83	29	0	374341632	48	6627
2026-01-04 20:14:09.72	32.47	13.10	-38.0	-39.0	23.1	0.00e+00	81	29	0	380633088	48	6407
2026-01-04 20:14:12.75	31.91	13.21	-38.0	-38.9	23.0	0.00e+00	0	29	0	385875968	48	6375
2026-01-04 20:14:15.78	31.35	13.32	-38.0	-38.9	23.0	0.00e+00	92	29	0	391118848	48	6389
2026-01-04 20:14:18.80	30.78	13.43	-37.9	-38.8	23.2	0.00e+00	0	29	0	397410304	48	6300
2026-01-04 20:14:21.83	30.21	13.53	-37.9	-38.8	23.3	0.00e+00	0	29	0	402653184	48	6291
2026-01-04 20:14:24.86	29.64	13.64	-37.9	-38.9	23.4	0.00e+00	90	29	0	408944640	48	6320
2026-01-04 20:14:27.89	29.06	13.74	-38.1	-39.0	23.1	0.00e+00	0	29	0	414187520	48	6430
2026-01-04 20:14:30.92	28.48	13.84	-37.7	-38.7	23.5	0.00e+00	82	29	0	419430400	48	6183
2026-01-04 20:14:33.95	27.89	13.93	-37.5	-38.4	23.7	0.00e+00	82	29	0	425721856	48	6019
2026-01-04 20:14:36.97	27.30	14.03	-37.6	-38.5	23.5	0.00e+00	0	29	0	430964736	48	6080
2026-01-04 20:14:40.00	26.71	14.12	-37.4	-38.3	23.8	0.00e+00	0	29	0	437256192	48	5924
2026-01-04 20:14:43.03	26.11	14.21	-37.7	-38.7	23.3	0.00e+00	0	29	0	442499072	48	6184
2026-01-04 20:14:46.06	25.51	14.29	-37.3	-38.2	23.8	0.00e+00	90	29	0	448790528	48	5875
2026-01-04 20:14:49.08	24.90	14.37	-37.7	-38.7	23.4	0.00e+00	2	29	0	454033408	48	6178
2026-01-04 20:14:52.11	24.30	14.45	-37.8	-38.7	23.2	0.00e+00	0	29	0	459276288	48	6186
2026-01-04 20:14:55.13	23.69	14.53	-38.0	-38.9	23.2	0.00e+00	90	29	0	465567744	48	6353
2026-01-04 20:14:58.16	23.07	14.60	-38.1	-39.0	23.1	0.00e+00	0	29	0	470810624	48	6441
2026-01-04 20:15:01.19	22.45	14.67	-38.1	-39.0	23.2	0.00e+00	0	29	0	477102080	48	6428
2026-01-04 20:15:04.22	21.83	14.74	-38.5	-39.5	22.6	0.00e+00	90	29	0	482344960	48	6779
2026-01-04 20:15:07.25	21.21	14.80	-38.5	-39.5	22.5	0.00e+00	0	29	0	487587840	48	6800
2026-01-04 20:15:10.27	20.59	14.86	-38.5	-39.5	22.7	0.00e+00	0	29	0	493879296	50	6047
2026-01-04 20:15:13.30	19.96	14.92	-38.3	-39.3	22.9	0.00e+00	69	29	0	499122176	50	5907
2026-01-04 20:15:16.33	19.33	14.97	-38.3	-39.3	22.7	0.00e+00	0	29	0	505413632	50	5931
2026-01-04 20:15:19.36	18.69	15.02	-38.2	-39.1	23.2	0.00e+00	0	29	0	510656512	50	5793
2026-01-04 20:15:22.38	18.06	15.07	-37.9	-38.9	23.3	0.00e+00	0	29	0	515899392	50	5640
2026-01-04 20:15:25.41	17.42	15.12	-38.3	-39.3	22.9	0.00e+00	92	29	0	522190848	50	5912
2026-01-04 20:15:28.44	16.79	15.16	-38.3	-39.3	22.9	0.00e+00	0	29	0	527433728	50	5912
2026-01-04 20:15:31.47	16.14	15.19	-38.1	-39.0	23.2	0.00e+00	0	29	0	533725184	50	5721
2026-01-04 20:15:34.50	15.50	15.22	-38.2	-39.2	23.0	0.00e+00	92	29	0	538968064	50	5834
2026-01-04 20:15:37.53	14.86	15.25	-38.2	-39.1	23.1	0.00e+00	0	29	0	545259520	50	5816
2026-01-04 20:15:40.55	14.22	15.28	-38.2	-39.1	23.0	0.00e+00	5	29	0	550502400	50	5812
2026-01-04 20:15:43.58	13.57	15.30	-38.4	-39.3	22.9	0.00e+00	92	29	0	555745280	50	5963
2026-01-04 20:15:46.61	12.93	15.32	-38.0	-39.0	23.2	0.00e+00	0	29	0	562036736	50	5703
2026-01-04 20:15:49.64	12.28	15.34	-38.3	-39.3	23.0	0.00e+00	1	29	0	567279616	50	5930
2026-01-04 20:15:52.67	11.63	15.35	-38.3	-39.3	22.7	0.00e+00	0	29	0	573571072	50	5943
2026-01-04 20:15:55.70	10.98	15.35	-38.3	-39.2	23.2	0.00e+00	92	29	0	578813952	50	5868
2026-01-04 20:15:58.73	10.33	15.36	-38.3	-39.3	22.9	0.00e+00	0	29	0	584056832	50	5910
2026-01-04 20:16:01.76	9.69	15.36	-38.2	-39.1	23.0	0.00e+00	81	29	0	590348288	50	5823
2026-01-04 20:16:04.78	9.04	15.35	-38.1	-39.1	23.0	0.00e+00	92	29	0	595591168	50	5782
2026-01-04 20:16:07.81	8.39	15.35	-37.9	-38.8	23.0	0.00e+00	2	29	0	601882624	50	5625
2026-01-04 20:16:10.84	7.74	15.34	-38.2	-39.2	22.8	0.00e+00	0	29	0	607125504	50	5844
2026-01-04 20:16:13.87	7.10	15.32	-38.3	-39.3	22.8	0.00e+00	90	29	0	613416960	50	5925
2026-01-04 20:16:16.90	6.45	15.30	-38.4	-39.4	22.8	0.00e+00	0	29	0	618659840	50	5973
2026-01-04 20:16:19.93	5.81	15.28	-38.5	-39.5	22.7	0.00e+00	0	29	0	623902720	50	6045
2026-01-04 20:16:22.96	5.16	15.26	-38.4	-39.4	22.9	0.00e+00	0	29	0	630194176	50	5990
2026-01-04 20:16:25.98	4.52	15.23	-38.1	-39.1	23.1	0.00e+00	0	29	0	635437056	50	5769
2026-01-04 20:16:29.01	3.88	15.19	-38.4	-39.4	22.5	0.00e+00	0	29	0	641728512	50	6028
2026-01-04 20:16:32.04	3.24	15.16	-38.7	-39.7	22.5	0.00e+00	0	29	0	646971392	50	6232
2026-01-04 20:16:35.07	2.60	15.12	-38.2	-39.2	23.0	0.00e+00	92	29	0	652214272	50	5844
2026-01-04 20:16:38.09	1.96	15.07	-38.2	-39.2	23.0	0.00e+00	0	29	0	658505728	50	5837
2026-01-04 20:16:41.12	1.33	15.03	-37.9	-38.9	23.2	0.00e+00	0	29	0	663748608	50	5652
2026-01-04 20:16:44.15	0.70	14.98	-37.9	-38.8	23.2	0.00e+00	90	29	0	670040064	50	5625
2026-01-04 20:16:47.18	0.07	14.92	-37.7	-38.6	23.4	0.00e+00	82	29	0	675282944	48	6169
2026-01-04 20:16:50.21	359.44	14.87	-37.8	-38.7	23.4	0.00e+00	0	29	0	681574400	48	6183
2026-01-04 20:16:53.24	358.81	14.81	-37.9	-38.8	23.2	0.00e+00	90	29	0	686817280	48	6312
2026-01-04 20:16:56.27	358.19	14.74	-37.8	-38.8	23.2	0.00e+00	0	29	0	692060160	48	6267
2026-01-04 20:16:59.29	357.57	14.68	-38.0	-38.9	23.1	0.00e+00	0	29	0	698351616	48	6374
2026-01-04 20:17:02.32	356.95	14.61	-38.0	-38.9	23.2	0.00e+00	0	29	0	703594496	48	6357
2026-01-04 20:17:05.35	356.34	14.53	-38.2	-39.1	22.9	0.00e+00	12	29	0	709885952	48	6518
2026-01-04 20:17:08.38	355.73	14.46	-38.0	-39.0	23.0	0.00e+00	80	29	0	715128832	48	6401
2026-01-04 20:17:11.41	355.12	14.38	-38.1	-39.1	22.9	0.00e+00	1	29	0	720371712	48	6506
2026-01-04 20:17:14.43	354.52	14.30	-38.3	-39.2	22.8	0.00e+00	92	29	0	726663168	48	6603
2026-01-04 20:17:17.46	353.92	14.21	-38.1	-39.1	22.9	0.00e+00	6	29	0	731906048	48	6485
2026-01-04 20:17:20.49	353.32	14.12	-38.3	-39.3	22.8	0.00e+00	0	29	0	738197504	48	6652
2026-01-04 20:17:23.52	352.72	14.03	-38.2	-39.1	22.9	0.00e+00	91	29	0	743440384	48	6526
2026-01-04 20:17:26.55	352.13	13.94	-37.8	-38.7	23.3	0.00e+00	0	29	0	748683264	48	6206
2026-01-04 20:17:29.58	351.55	13.84	-37.8	-38.7	23.3	0.00e+00	0	29	0	754974720	48	6208
2026-01-04 20:17:32.60	350.97	13.75	-37.8	-38.7	23.2	0.00e+00	6	29	0	760217600	48	6235
2026-01-04 20:17:35.63	350.39	13.64	-38.0	-39.0	22.9	0.00e+00	0	29	0	766509056	48	6393
2026-01-04 20:17:38.66	349.81	13.54	-37.9	-38.9	23.2	0.00e+00	6	29	0	771751936	48	6344
2026-01-04 20:17:41.69	349.24	13.44	-38.4	-39.4	22.8	0.00e+00	0	29	0	778043392	48	6737
2026-01-04 20:17:44.72	348.68	13.33	-38.2	-39.2	22.8	0.00e+00	92	29	0	783286272	48	6547
2026-01-04 20:17:47.75	348.11	13.22	-38.1	-39.0	23.0	7.00e-07	0	29	0	788529152	48	6451
2026-01-04 20:17:50.78	347.56	13.10	-38.3	-39.3	22.9	0.00e+00	0	29	0	794820608	50	5909
2026-01-04 20:17:53.81	347.00	12.99	-38.4	-39.4	22.9	0.00e+00	92	29	0	800063488	50	5965
2026-01-04 20:17:56.84	346.45	12.87	-38.1	-39.0	23.1	0.00e+00	0	29	0	806354944	50	5730
2026-01-04 20:17:59.87	345.91	12.75	-38.1	-39.0	23.0	0.00e+00	0	29	0	811597824	50	5723
2026-01-04 20:18:02.88	345.37	12.63	-38.3	-39.2	22.8	0.00e+00	92	29	0	816840704	50	5881
2026-01-04 20:18:05.91	344.84	12.51	-38.6	-39.6	22.5	0.00e+00	0	29	0	823132160	50	6128
2026-01-04 20:18:08.94	344.31	12.39	-38.7	-39.7	22.2	0.00e+00	80	29	0	828375040	50	6245
2026-01-04 20:18:11.97	343.78	12.26	-38.8	-39.8	22.2	0.00e+00	0	29	0	834666496	50	6293
2026-01-04 20:18:15.00	343.26	12.13	-39.1	-40.2	22.0	0.00e+00	0	29	0	839909376	50	6600
2026-01-04 20:18:18.03	342.74	12.00	-39.6	-40.7	21.5	0.00e+00	0	29	0	846200832	52	6224
2026-01-04 20:18:21.05	342.23	11.87	-40.0	-41.2	21.1	0.00e+00	0	29	0	851443712	52	6599
2026-01-04 20:18:24.08	341.72	11.74	-40.5	-41.9	20.1	0.00e+00	92	29	0	856686592	52	7108
2026-01-04 20:18:27.11	341.22	11.61	-41.3	-42.8	19.5	0.00e+00	0	29	0	862978048	56	6259
2026-01-04 20:18:30.14	340.72	11.47	-40.5	-41.8	20.4	0.00e+00	0	29	0	868220928	54	6286
2026-01-04 20:18:33.17	340.22	11.33	-40.2	-41.5	20.7	0.00e+00	90	29	0	874512384	54	6042
2026-01-04 20:18:36.20	339.74	11.19	-40.3	-41.6	20.3	0.00e+00	81	29	0	879755264	54	6120
2026-01-04 20:18:39.23	339.25	11.06	-41.1	-42.6	19.5	0.00e+00	0	29	0	884998144	54	6893
2026-01-04 20:18:42.25	338.77	10.92	-41.0	-42.5	19.5	0.00e+00	0	29	0	891289600	54	6778
2026-01-04 20:18:45.28	338.30	10.77	-40.6	-42.0	20.1	0.00e+00	0	29	0	896532480	54	6419
2026-01-04 20:18:48.31	337.83	10.63	-40.8	-42.3	19.8	0.00e+00	0	29	0	902823936	54	6623
2026-01-04 20:18:51.34	337.36	10.49	-40.9	-42.4	19.7	0.00e+00	2	29	0	908066816	54	6696
2026-01-04 20:18:54.37	336.90	10.34	-41.0	-42.5	19.6	0.00e+00	92	29	0	914358272	54	6776
2026-01-04 20:18:57.40	336.44	10.20	-41.1	-42.6	19.5	0.00e+00	0	29	0	919601152	54	6908
2026-01-04 20:19:00.43	335.99	10.05	-40.9	-42.3	19.8	0.00e+00	7	29	0	924844032	54	6674
2026-01-04 20:19:03.46	335.54	9.90	-41.2	-42.7	19.3	0.00e+00	90	29	0	931135488	54	7000
2026-01-04 20:19:06.49	335.10	9.75	-41.4	-42.9	19.4	0.00e+00	6	29	0	936378368	56	6354
2026-01-04 20:19:09.51	334.66	9.61	-40.9	-42.4	19.8	0.00e+00	82	29	0	942669824	56	5965
2026-01-04 20:19:12.54	334.23	9.46	-40.9	-42.3	19.9	0.00e+00	92	29	0	947912704	54	6662
2026-01-04 20:19:15.57	333.80	9.31	-40.6	-42.0	20.2	0.00e+00	81	29	0	953155584	54	6395
2026-01-04 20:19:18.60	333.38	9.15	-40.6	-42.0	20.1	0.00e+00	10	29	0	959447040	54	6392
2026-01-04 20:19:21.62	332.96	9.00	-40.6	-41.9	20.3	0.00e+00	7	29	0	964689920	54	6363
2026-01-04 20:19:24.65	332.54	8.85	-40.3	-41.6	20.4	0.00e+00	0	29	0	970981376	54	6115
2026-01-04 20:19:27.68	332.13	8.70	-40.4	-41.7	20.2	0.00e+00	0	29	0	976224256	54	6191
2026-01-04 20:19:30.70	331.73	8.55	-40.0	-41.2	20.7	0.00e+00	0	29	0	981467136	54	5858
2026-01-04 20:19:33.73	331.32	8.39	-39.7	-40.9	21.2	0.00e+00	92	29	0	987758592	52	6367
2026-01-04 20:19:36.76	330.93	8.24	-39.6	-40.7	21.3	0.00e+00	78	29	0	993001472	52	6234
2026-01-04 20:19:39.79	330.53	8.08	-39.4	-40.5	21.5	0.00e+00	81	29	0	999292928	52	6051
2026-01-04 20:19:42.82	330.14	7.93	-39.7	-40.9	20.9	0.00e+00	91	29	0	1004535808	52	6347
2026-01-04 20:19:45.85	329.76	7.77	-39.2	-40.3	21.5	0.00e+00	0	29	0	1010827264	52	5922
2026-01-04 20:19:48.88	329.38	7.62	-38.9	-40.0	21.9	0.00e+00	0	29	0	1016070144	52	5709
2026-01-04 20:19:51.90	329.00	7.46	-39.2	-40.3	21.5	0.00e+00	92	29	0	1021313024	52	5935
2026-01-04 20:19:54.93	328.63	7.31	-38.5	-39.5	22.2	0.00e+00	0	29	0	1027604480	50	6053
2026-01-04 20:19:57.95	328.26	7.15	-39.0	-40.1	21.6	0.00e+00	0	29	0	1032847360	50	6481
2026-01-04 20:20:00.97	327.89	7.00	-38.8	-39.9	21.7	0.00e+00	1	29	0	1039138816	50	6321
2026-01-04 20:20:04.00	327.53	6.84	-39.2	-40.3	21.5	0.00e+00	0	29	0	1044381696	50	6675
2026-01-04 20:20:07.02	327.18	6.69	-38.9	-40.0	21.8	0.00e+00	4	29	0	1049624576	50	6408
2026-01-04 20:20:10.05	326.83	6.53	-38.8	-39.9	21.9	0.00e+00	0	29	0	1055916032	50	6356
2026-01-04 20:20:13.07	326.48	6.37	-39.4	-40.5	21.2	0.00e+00	90	29	0	1061158912	50	6842
2026-01-04 20:20:16.10	326.13	6.22	-39.0	-40.1	21.5	0.00e+00	78	29	0	1067450368	50	6530
2026-01-04 20:20:19.13	325.79	6.06	-39.5	-40.7	21.0	0.00e+00	0	29	0	1072693248	52	6199
2026-01-04 20:20:22.16	325.45	5.90	-39.6	-40.8	21.1	0.00e+00	92	29	0	1078984704	52	6295
2026-01-04 20:20:25.18	325.12	5.75	-39.6	-40.8	21.0	0.00e+00	0	29	0	1084227584	52	6262
2026-01-04 20:20:28.21	324.79	5.59	-39.3	-40.4	21.5	0.00e+00	0	29	0	1089470464	52	6000
2026-01-04 20:20:31.23	324.46	5.43	-39.4	-40.5	21.1	0.00e+00	90	29	0	1095761920	52	6084
2026-01-04 20:20:34.25	324.14	5.28	-40.0	-41.1	21.0	0.00e+00	0	29	0	1101004800	52	6538
2026-01-04 20:20:37.28	323.82	5.12	-39.6	-40.8	20.9	0.00e+00	0	29	0	1107296256	52	6263
2026-01-04 20:20:40.31	323.51	4.97	-40.1	-41.4	20.4	0.00e+00	0	29	0	1112539136	52	6731
2026-01-04 20:20:43.33	323.19	4.81	-40.8	-42.2	20.1	0.00e+00	88	29	0	1117782016	52	7345
2026-01-04 20:20:46.35	322.89	4.66	-41.2	-42.6	19.6	0.00e+00	1	29	0	1124073472	54	6919
2026-01-04 20:20:49.37	322.58	4.50	-40.4	-41.7	20.2	0.00e+00	1	29	0	1129316352	54	6216
2026-01-04 20:20:52.40	322.28	4.34	-40.3	-41.6	20.1	0.00e+00	92	29	0	1135607808	54	6143
2026-01-04 20:20:55.43	321.98	4.19	-40.7	-42.1	19.9	0.00e+00	2	29	0	1140850688	54	6523
2026-01-04 20:20:58.46	321.68	4.03	-40.9	-42.4	19.3	0.00e+00	6	29	0	1146093568	54	6725
2026-01-04 20:21:01.48	321.39	3.88	-40.8	-42.3	19.6	0.00e+00	91	29	0	1152385024	54	6624
2026-01-04 20:21:04.50	321.10	3.72	-41.4	-43.0	18.9	0.00e+00	0	29	0	1157627904	54	7220
2026-01-04 20:21:07.53	320.82	3.57	-41.4	-42.9	18.9	0.00e+00	0	29	0	1163919360	56	6382
2026-01-04 20:21:10.56	320.53	3.41	-41.3	-42.9	18.9	0.00e+00	31	29	0	1169162240	56	6337
2026-01-04 20:21:13.58	320.25	3.26	-41.7	-43.4	18.4	0.00e+00	0	29	0	1174405120	56	6693
2026-01-04 20:21:16.61	319.98	3.11	-41.5	-43.1	18.5	0.00e+00	7	29	0	1180696576	56	6535
2026-01-04 20:21:19.63	319.70	2.95	-48.4	-63.5	3.6	1.51e+00	0	29	104	1183842304	60	54159
2026-01-04 20:21:22.66	319.43	2.80	-48.9	-64.1	3.6	1.51e+00	0	29	104	1183842304	60	57823
2026-01-04 20:21:25.69	319.16	2.64	-48.6	-63.7	3.6	1.51e+00	0	29	104	1183842304	60	55576
2026-01-04 20:21:28.71	318.90	2.49	-48.7	-63.9	3.6	1.51e+00	0	29	104	1183842304	60	56566
2026-01-04 20:21:31.74	318.64	2.34	-48.8	-63.9	3.6	1.51e+00	0	29	104	1183842304	60	56911
2026-01-04 20:21:34.77	318.38	2.19	-49.1	-64.4	3.6	1.51e+00	0	29	104	1183842304	60	59651
2026-01-04 20:21:37.80	318.12	2.03	-49.3	-64.5	3.6	1.51e+00	0	29	104	1183842304	60	60828
2026-01-04 20:21:40.83	317.87	1.88	-49.0	-64.2	3.6	1.51e+00	0	29	104	1183842304	60	58404
2026-01-04 20:21:43.87	317.61	1.73	-49.0	-64.2	3.6	1.51e+00	0	29	104	1183842304	60	58516
2026-01-04 20:21:46.89	317.37	1.58	-49.1	-64.2	3.6	1.51e+00	0	29	104	1183842304	60	58827
2026-01-04 20:21:49.93	317.12	1.43	-48.9	-64.1	3.6	1.51e+00	0	29	104	1183842304	60	57972
2026-01-04 20:21:52.96	316.87	1.28	-49.2	-64.4	3.6	1.51e+00	0	29	104	1183842304	60	59770
2026-01-04 20:21:55.99	316.63	1.12	-49.1	-64.3	3.6	1.51e+00	0	30	104	1183842304	60	59051
2026-01-04 20:21:59.01	316.40	0.97	-48.7	-63.9	3.6	1.51e+00	0	29	104	1183842304	60	56448
2026-01-04 20:22:02.04	316.16	0.82	-49.0	-64.2	3.6	1.51e+00	0	29	104	1183842304	60	58383
2026-01-04 20:22:05.07	315.93	0.67	-49.2	-64.3	3.6	1.51e+00	0	29	104	1183842304	60	59371
2026-01-04 20:22:08.09	315.70	0.53	-49.3	-64.5	3.6	1.51e+00	0	29	104	1183842304	60	60740
2026-01-04 20:22:11.12	315.47	0.38	-49.3	-64.5	3.6	1.51e+00	0	29	104	1183842304	60	60399
2026-01-04 20:22:14.15	315.24	0.23	-49.5	-64.7	3.6	1.51e+00	0	29	104	1183842304	60	61878
2026-01-04 20:22:17.18	315.02	0.08	-49.3	-64.4	3.6	1.51e+00	0	29	104	1183842304	60	60324

#Closed at: 2026-01-04 20:22:19
#Recorded file [1183 MB]: D:/lorett/data/35029_260105_080943.dat