passes_logs/2026/01/04/R4.6S_Anadyr/R4.6S_Anadyr__20260104_112954_SUOMI_NPP_rec.log

#Pass ID: 20260104_112954_SUOMI NPP
#Satellite: SUOMI NPP
#Configuration: NPP
#almurnet v.1.7.20251203
#Start time: 2026-01-04 11:29:58

#Version: 2.2.20231116
#Station: R4.6S_Anadyr
#Location: 177.4865 lon 64.73178 lat
#TLE: 1 37849U 11061A   26001.07732418  .00000182  00000+0  10735-3 0  9990
#TLE: 2 37849  98.7795 303.2470 0002580  87.2016 272.9455 14.19520779734739

#Time	Az	El	Level	Level2	SNR	BER	BlckErr	Temp	State	Recorded	gain1	gain2
2026-01-04 11:29:58.19	21.56	0.13	-51.4	-65.2	3.3	1.54e+00	0	39	0	0	60	65728
2026-01-04 11:30:01.21	21.86	0.24	-50.0	-65.2	3.6	1.51e+00	0	39	104	0	60	66144
2026-01-04 11:30:04.24	22.17	0.35	-49.8	-65.0	3.6	1.51e+00	0	39	104	0	60	64044
2026-01-04 11:30:07.27	22.47	0.47	-49.6	-64.8	3.6	1.51e+00	0	39	104	0	60	62582
2026-01-04 11:30:10.30	22.78	0.58	-49.2	-64.3	3.6	1.51e+00	0	39	104	0	60	59577
2026-01-04 11:30:13.33	23.10	0.69	-47.9	-63.1	3.6	1.51e+00	0	39	104	0	60	51387
2026-01-04 11:30:16.36	23.41	0.80	-47.9	-63.1	3.6	1.51e+00	0	39	104	0	60	51379
2026-01-04 11:30:19.38	23.73	0.91	-47.9	-63.0	3.6	1.51e+00	0	39	104	0	60	51173
2026-01-04 11:30:22.42	24.05	1.03	-47.9	-63.1	3.6	1.51e+00	0	39	104	0	60	51470
2026-01-04 11:30:25.45	24.37	1.14	-47.9	-63.0	3.6	1.51e+00	0	39	104	0	60	51336
2026-01-04 11:30:28.48	24.69	1.25	-47.9	-63.1	3.6	1.51e+00	0	39	104	0	60	51682
2026-01-04 11:30:31.50	25.02	1.36	-47.9	-63.0	3.6	1.51e+00	0	39	104	0	60	51159
2026-01-04 11:30:34.53	25.34	1.47	-47.9	-63.1	3.6	1.51e+00	0	39	104	0	60	51730
2026-01-04 11:30:37.56	25.68	1.58	-47.9	-63.1	3.6	1.51e+00	0	39	104	0	60	51561
2026-01-04 11:30:40.59	26.01	1.69	-47.9	-63.1	3.6	1.51e+00	0	39	104	0	60	51470
2026-01-04 11:30:43.61	26.34	1.80	-47.9	-63.1	3.6	1.51e+00	0	39	104	0	60	51612
2026-01-04 11:30:46.64	26.68	1.91	-47.9	-63.0	3.6	1.51e+00	0	39	104	0	60	51144
2026-01-04 11:30:49.67	27.02	2.02	-47.9	-63.0	3.6	1.51e+00	0	39	104	0	60	50928
2026-01-04 11:30:52.70	27.36	2.13	-47.9	-63.0	3.6	1.51e+00	0	40	104	0	60	51260
2026-01-04 11:30:55.73	27.71	2.24	-47.9	-63.1	3.6	1.51e+00	0	40	104	0	60	51496
2026-01-04 11:30:58.76	28.05	2.35	-47.9	-63.0	3.6	1.51e+00	0	40	104	0	60	51211
2026-01-04 11:31:01.79	28.40	2.45	-47.9	-62.9	3.6	1.51e+00	0	40	104	0	60	50689
2026-01-04 11:31:04.82	28.76	2.56	-47.9	-63.1	3.6	1.51e+00	0	40	104	0	60	51724
2026-01-04 11:31:07.85	29.11	2.67	-47.8	-61.9	3.6	1.51e+00	0	40	104	0	60	45079
2026-01-04 11:31:10.88	29.47	2.77	-47.1	-54.5	7.5	4.25e-01	0	40	0	0	60	19115
2026-01-04 11:31:13.91	29.83	2.88	-42.9	-45.0	16.9	0.00e+00	91	39	0	5242880	60	6457
2026-01-04 11:31:16.94	30.19	2.98	-43.5	-45.8	16.1	0.00e+00	0	40	0	11534336	58	7942
2026-01-04 11:31:19.97	30.55	3.09	-47.7	-61.8	3.6	1.10e+00	0	40	104	15728640	60	44626
2026-01-04 11:31:23.00	30.92	3.19	-48.3	-63.0	3.6	7.12e-01	0	39	104	17825792	60	51316
2026-01-04 11:31:26.03	31.29	3.30	-44.5	-47.1	15.9	0.00e+00	38	40	0	19922944	60	8226
2026-01-04 11:31:29.06	31.66	3.40	-44.2	-46.6	15.8	0.00e+00	0	39	0	25165824	60	7738
2026-01-04 11:31:32.08	32.04	3.50	-43.8	-46.0	16.7	0.00e+00	0	40	0	31457280	60	7178
2026-01-04 11:31:35.11	32.41	3.60	-43.9	-46.2	16.3	0.00e+00	65	39	0	36700160	60	7391
2026-01-04 11:31:38.14	32.79	3.70	-43.8	-45.9	17.1	0.00e+00	0	39	0	42991616	60	7144
2026-01-04 11:31:41.17	33.17	3.81	-43.4	-45.4	17.0	0.00e+00	0	40	0	48234496	60	6750
2026-01-04 11:31:44.19	33.56	3.91	-43.9	-46.1	16.5	0.00e+00	90	40	0	53477376	60	7265
2026-01-04 11:31:47.21	33.94	4.00	-43.6	-45.7	17.0	0.00e+00	0	40	0	59768832	60	6978
2026-01-04 11:31:50.24	34.33	4.10	-42.5	-44.1	18.4	0.00e+00	0	40	0	65011712	58	6529
2026-01-04 11:31:53.27	34.72	4.20	-42.2	-43.8	18.8	0.00e+00	0	40	0	71303168	58	6292
2026-01-04 11:31:56.30	35.12	4.30	-42.3	-43.9	18.8	0.00e+00	0	40	0	76546048	58	6350
2026-01-04 11:31:59.32	35.51	4.39	-42.2	-43.8	18.9	0.00e+00	0	40	0	81788928	56	7020
2026-01-04 11:32:02.34	35.91	4.49	-42.2	-43.8	18.8	0.00e+00	0	40	0	88080384	56	7062
2026-01-04 11:32:05.37	36.31	4.58	-41.9	-43.4	19.2	0.00e+00	72	40	0	93323264	56	6713
2026-01-04 11:32:08.41	36.72	4.68	-42.1	-43.7	19.0	0.00e+00	0	40	0	99614720	56	6951
2026-01-04 11:32:11.43	37.13	4.77	-42.2	-43.8	18.8	0.00e+00	0	40	0	104857600	56	7072
2026-01-04 11:32:14.46	37.54	4.86	-42.2	-43.8	18.9	0.00e+00	65	40	0	111149056	56	7026
2026-01-04 11:32:17.49	37.95	4.96	-42.1	-43.6	19.2	0.00e+00	0	40	0	116391936	56	6905
2026-01-04 11:32:20.53	38.36	5.05	-42.0	-43.5	19.3	0.00e+00	0	40	0	121634816	56	6832
2026-01-04 11:32:23.55	38.78	5.14	-42.4	-44.0	18.9	0.00e+00	0	40	0	127926272	56	7225
2026-01-04 11:32:26.58	39.20	5.22	-42.0	-43.5	19.2	0.00e+00	66	40	0	133169152	56	6805
2026-01-04 11:32:29.61	39.62	5.31	-42.0	-43.5	19.4	0.00e+00	0	40	0	139460608	56	6804
2026-01-04 11:32:32.64	40.05	5.40	-42.1	-43.6	19.1	0.00e+00	0	40	0	144703488	56	6920
2026-01-04 11:32:35.67	40.47	5.48	-42.5	-44.2	18.6	0.00e+00	90	40	0	149946368	56	7351
2026-01-04 11:32:38.70	40.90	5.57	-42.2	-43.8	19.0	0.00e+00	0	40	0	156237824	56	7029
2026-01-04 11:32:41.72	41.33	5.65	-42.1	-43.7	19.2	0.00e+00	0	40	0	161480704	56	6943
2026-01-04 11:32:44.74	41.76	5.74	-42.1	-43.6	19.2	0.00e+00	91	40	0	167772160	56	6896
2026-01-04 11:32:47.77	42.20	5.82	-42.5	-44.2	18.7	0.00e+00	0	40	0	173015040	56	7351
2026-01-04 11:32:50.80	42.64	5.90	-42.6	-44.2	18.7	0.00e+00	0	40	0	178257920	58	6592
2026-01-04 11:32:53.83	43.08	5.98	-42.7	-44.4	18.6	0.00e+00	0	40	0	184549376	58	6700
2026-01-04 11:32:56.86	43.52	6.05	-42.7	-44.4	18.6	0.00e+00	0	40	0	189792256	58	6739
2026-01-04 11:32:59.88	43.97	6.13	-42.6	-44.3	18.6	0.00e+00	0	40	0	196083712	58	6645
2026-01-04 11:33:02.91	44.42	6.21	-42.5	-44.1	18.8	0.00e+00	0	40	0	201326592	58	6486
2026-01-04 11:33:05.94	44.87	6.28	-42.4	-44.0	18.8	0.00e+00	82	40	0	207618048	58	6404
2026-01-04 11:33:08.97	45.32	6.35	-42.1	-43.7	19.2	0.00e+00	0	40	0	212860928	58	6183
2026-01-04 11:33:12.00	45.77	6.43	-42.6	-44.2	18.8	0.00e+00	0	40	0	218103808	56	7360
2026-01-04 11:33:15.02	46.23	6.50	-43.3	-45.2	17.8	0.00e+00	92	40	0	224395264	58	7396
2026-01-04 11:33:18.05	46.69	6.57	-43.4	-45.3	17.6	0.00e+00	0	40	0	229638144	58	7446
2026-01-04 11:33:21.08	47.15	6.63	-43.2	-45.1	18.0	0.00e+00	0	40	0	235929600	58	7266
2026-01-04 11:33:24.11	47.61	6.70	-42.9	-44.7	18.2	0.00e+00	0	40	0	241172480	58	6954
2026-01-04 11:33:27.14	48.08	6.76	-43.0	-44.7	18.2	0.00e+00	30	40	0	246415360	58	6980
2026-01-04 11:33:30.17	48.54	6.83	-42.4	-44.0	18.9	0.00e+00	0	40	0	252706816	58	6442
2026-01-04 11:33:33.19	49.01	6.89	-42.2	-43.7	19.3	0.00e+00	0	40	0	257949696	58	6206
2026-01-04 11:33:36.22	49.48	6.95	-42.3	-43.8	19.1	0.00e+00	91	40	0	264241152	58	6292
2026-01-04 11:33:39.25	49.96	7.01	-42.8	-44.5	18.6	0.00e+00	0	40	0	269484032	58	6770
2026-01-04 11:33:42.28	50.43	7.07	-43.2	-45.0	18.0	0.00e+00	0	40	0	275775488	58	7192
2026-01-04 11:33:45.31	50.91	7.12	-42.8	-44.5	18.7	0.00e+00	15	40	0	281018368	58	6803
2026-01-04 11:33:48.34	51.39	7.18	-42.1	-43.6	19.5	0.00e+00	0	40	0	286261248	58	6137
2026-01-04 11:33:51.37	51.87	7.23	-42.0	-43.5	19.5	0.00e+00	0	40	0	292552704	58	6079
2026-01-04 11:33:54.40	52.35	7.28	-42.0	-43.5	19.5	0.00e+00	0	40	0	297795584	58	6063
2026-01-04 11:33:57.43	52.83	7.33	-41.7	-43.1	19.9	0.00e+00	61	40	0	304087040	56	6496
2026-01-04 11:34:00.46	53.32	7.38	-41.9	-43.3	19.6	0.00e+00	0	40	0	309329920	56	6692
2026-01-04 11:34:03.48	53.80	7.43	-41.8	-43.2	19.8	0.00e+00	0	40	0	314572800	56	6562
2026-01-04 11:34:06.50	54.29	7.47	-41.5	-42.9	20.1	0.00e+00	84	40	0	320864256	56	6321
2026-01-04 11:34:09.53	54.78	7.52	-41.6	-42.9	20.1	0.00e+00	0	40	0	326107136	56	6384
2026-01-04 11:34:12.55	55.27	7.56	-41.9	-43.3	19.6	0.00e+00	0	40	0	332398592	56	6666
2026-01-04 11:34:15.58	55.76	7.60	-42.6	-44.2	19.0	0.00e+00	84	40	0	337641472	56	7345
2026-01-04 11:34:18.60	56.25	7.64	-42.4	-43.9	19.2	0.00e+00	0	40	0	342884352	56	7135
2026-01-04 11:34:21.64	56.75	7.67	-42.3	-43.9	19.1	0.00e+00	0	40	0	349175808	56	7097
2026-01-04 11:34:24.67	57.24	7.71	-42.6	-44.2	18.9	0.00e+00	0	40	0	354418688	56	7364
2026-01-04 11:34:27.69	57.74	7.74	-42.7	-44.3	18.7	0.00e+00	16	40	0	360710144	56	7503
2026-01-04 11:34:30.72	58.24	7.77	-42.8	-44.4	18.6	0.00e+00	0	40	0	365953024	58	6767
2026-01-04 11:34:33.75	58.74	7.80	-43.2	-45.1	18.0	0.00e+00	0	40	0	372244480	58	7289
2026-01-04 11:34:36.77	59.23	7.83	-43.7	-45.7	17.6	0.00e+00	85	40	0	377487360	60	6939
2026-01-04 11:34:39.80	59.74	7.85	-43.1	-44.9	18.3	0.00e+00	0	40	0	382730240	60	6368
2026-01-04 11:34:42.83	60.24	7.88	-43.2	-45.0	18.1	0.00e+00	0	40	0	389021696	60	6423
2026-01-04 11:34:45.86	60.74	7.90	-43.2	-45.0	18.2	0.00e+00	0	40	0	394264576	60	6432
2026-01-04 11:34:48.89	61.24	7.92	-43.1	-44.9	18.2	0.00e+00	0	40	0	400556032	60	6328
2026-01-04 11:34:51.92	61.75	7.94	-42.8	-44.5	18.6	0.00e+00	0	40	0	405798912	60	6058
2026-01-04 11:34:54.94	62.25	7.95	-42.5	-44.1	18.9	0.00e+00	0	40	0	411041792	58	6491
2026-01-04 11:34:57.97	62.76	7.97	-42.7	-44.3	18.7	0.00e+00	71	40	0	417333248	58	6683
2026-01-04 11:35:01.00	63.26	7.98	-42.5	-44.1	18.8	0.00e+00	0	40	0	422576128	58	6524
2026-01-04 11:35:04.03	63.77	7.99	-42.3	-43.8	19.2	0.00e+00	0	40	0	428867584	58	6291
2026-01-04 11:35:07.06	64.27	8.00	-42.0	-43.4	19.5	0.00e+00	38	40	0	434110464	58	6025
2026-01-04 11:35:10.08	64.78	8.01	-41.9	-43.4	19.7	0.00e+00	0	40	0	440401920	58	5995
2026-01-04 11:35:13.11	65.29	8.01	-41.7	-43.1	19.8	0.00e+00	0	40	0	445644800	56	6529
2026-01-04 11:35:16.14	65.79	8.01	-41.6	-42.9	20.0	0.00e+00	0	40	0	450887680	56	6372
2026-01-04 11:35:19.16	66.30	8.02	-41.5	-42.8	20.2	0.00e+00	12	40	0	457179136	56	6283
2026-01-04 11:35:22.18	66.80	8.02	-41.8	-43.2	20.0	0.00e+00	0	40	0	462422016	56	6572
2026-01-04 11:35:25.21	67.31	8.01	-41.8	-43.2	19.8	0.00e+00	33	40	0	468713472	56	6573
2026-01-04 11:35:28.24	67.82	8.01	-41.2	-42.5	20.5	0.00e+00	69	40	0	473956352	56	6040
2026-01-04 11:35:31.27	68.33	8.00	-41.3	-42.7	20.2	0.00e+00	0	40	0	479199232	56	6197
2026-01-04 11:35:34.30	68.83	7.99	-41.9	-43.3	19.5	0.00e+00	0	40	0	485490688	56	6668
2026-01-04 11:35:37.33	69.34	7.98	-41.4	-42.7	20.1	0.00e+00	92	40	0	490733568	56	6239
2026-01-04 11:35:40.35	69.84	7.97	-41.5	-42.9	19.4	0.00e+00	0	40	0	497025024	56	6335
2026-01-04 11:35:43.38	70.35	7.96	-41.3	-42.6	20.2	0.00e+00	0	40	0	502267904	56	6158
2026-01-04 11:35:46.41	70.85	7.94	-41.1	-42.4	20.4	0.00e+00	0	40	0	508559360	56	5991
2026-01-04 11:35:49.44	71.36	7.92	-40.5	-41.7	21.0	0.00e+00	55	40	0	513802240	54	6215
2026-01-04 11:35:52.47	71.86	7.90	-40.3	-41.5	21.2	0.00e+00	0	40	0	519045120	54	6086
2026-01-04 11:35:55.50	72.37	7.88	-40.0	-41.1	21.5	0.00e+00	0	40	0	525336576	54	5792
2026-01-04 11:35:58.53	72.87	7.86	-40.2	-41.4	21.3	0.00e+00	80	40	0	530579456	54	5987
2026-01-04 11:36:01.56	73.37	7.83	-40.5	-41.7	21.0	0.00e+00	0	40	0	536870912	54	6210
2026-01-04 11:36:04.59	73.87	7.80	-40.6	-41.8	20.9	0.00e+00	2	40	0	542113792	54	6257
2026-01-04 11:36:07.61	74.37	7.78	-40.6	-41.8	20.9	0.00e+00	92	40	0	547356672	54	6260
2026-01-04 11:36:10.64	74.87	7.75	-40.9	-42.2	20.5	0.00e+00	0	40	0	553648128	54	6558
2026-01-04 11:36:13.67	75.37	7.71	-40.7	-41.9	20.7	0.00e+00	0	40	0	558891008	54	6365
2026-01-04 11:36:16.70	75.86	7.68	-40.2	-41.3	21.3	0.00e+00	0	40	0	565182464	54	5964
2026-01-04 11:36:19.73	76.36	7.64	-40.6	-41.8	20.8	0.00e+00	69	40	0	570425344	54	6312
2026-01-04 11:36:22.76	76.86	7.60	-40.8	-42.1	20.5	0.00e+00	0	40	0	576716800	54	6476
2026-01-04 11:36:25.78	77.35	7.56	-41.4	-42.8	20.3	0.00e+00	0	40	0	581959680	54	7009
2026-01-04 11:36:28.81	77.84	7.52	-42.0	-43.4	19.6	0.00e+00	91	40	0	587202560	56	6743
2026-01-04 11:36:31.84	78.33	7.48	-41.4	-42.8	20.1	0.00e+00	0	40	0	593494016	56	6248
2026-01-04 11:36:34.87	78.82	7.43	-41.0	-42.3	20.5	0.00e+00	0	40	0	598736896	56	5914
2026-01-04 11:36:37.90	79.31	7.39	-40.4	-41.6	21.2	0.00e+00	15	40	0	605028352	54	6132
2026-01-04 11:36:40.92	79.79	7.34	-39.7	-40.8	21.8	0.00e+00	0	40	0	610271232	52	6279
2026-01-04 11:36:43.95	80.28	7.29	-39.6	-40.7	21.9	0.00e+00	0	40	0	615514112	52	6199
2026-01-04 11:36:46.98	80.76	7.24	-39.8	-40.9	21.7	0.00e+00	0	40	0	621805568	52	6375
2026-01-04 11:36:50.01	81.24	7.19	-39.9	-41.1	21.5	0.00e+00	37	40	0	627048448	52	6465
2026-01-04 11:36:53.04	81.72	7.13	-39.8	-40.9	21.7	0.00e+00	0	40	0	633339904	52	6330
2026-01-04 11:36:56.06	82.20	7.08	-39.9	-41.0	21.6	0.00e+00	0	40	0	638582784	52	6451
2026-01-04 11:36:59.09	82.67	7.02	-40.1	-41.3	21.4	0.00e+00	92	40	0	643825664	52	6656
2026-01-04 11:37:02.12	83.15	6.96	-40.3	-41.4	21.3	0.00e+00	29	40	0	650117120	52	6766
2026-01-04 11:37:05.14	83.62	6.90	-40.1	-41.3	21.4	0.00e+00	61	40	0	655360000	52	6648
2026-01-04 11:37:08.17	84.09	6.83	-40.0	-41.1	21.5	0.00e+00	89	40	0	661651456	52	6539
2026-01-04 11:37:11.19	84.56	6.77	-39.5	-40.5	22.0	0.00e+00	0	40	0	666894336	52	6102
2026-01-04 11:37:14.22	85.02	6.71	-39.5	-40.6	22.0	0.00e+00	0	40	0	673185792	52	6107
2026-01-04 11:37:17.25	85.49	6.64	-40.1	-41.3	21.3	0.00e+00	0	40	0	678428672	52	6647
2026-01-04 11:37:20.28	85.95	6.57	-40.3	-41.5	21.1	0.00e+00	44	40	0	683671552	52	6805
2026-01-04 11:37:23.30	86.41	6.50	-40.1	-41.2	21.3	0.00e+00	0	40	0	689963008	52	6579
2026-01-04 11:37:26.33	86.87	6.43	-40.4	-41.6	21.0	0.00e+00	0	40	0	695205888	52	6868
2026-01-04 11:37:29.36	87.33	6.36	-40.6	-41.8	20.8	0.00e+00	79	40	0	701497344	54	6311
2026-01-04 11:37:32.39	87.78	6.29	-40.8	-42.1	20.7	0.00e+00	0	40	0	706740224	54	6507
2026-01-04 11:37:35.41	88.23	6.21	-41.7	-43.1	19.7	0.00e+00	0	40	0	711983104	54	7297
2026-01-04 11:37:38.44	88.68	6.14	-41.9	-43.3	19.5	0.00e+00	92	40	0	718274560	56	6665
2026-01-04 11:37:41.46	89.13	6.06	-41.9	-43.4	19.5	0.00e+00	9	40	0	723517440	56	6716
2026-01-04 11:37:44.49	89.57	5.98	-42.2	-43.8	18.8	0.00e+00	0	40	0	729808896	56	7027
2026-01-04 11:37:47.52	90.01	5.90	-42.1	-43.7	19.1	0.00e+00	33	40	0	735051776	56	6958
2026-01-04 11:37:50.55	90.46	5.82	-41.9	-43.3	19.6	0.00e+00	62	40	0	741343232	56	6692
2026-01-04 11:37:53.57	90.89	5.74	-41.6	-43.0	19.7	0.00e+00	0	40	0	746586112	56	6439
2026-01-04 11:37:56.60	91.33	5.66	-42.0	-43.5	19.3	0.00e+00	0	40	0	751828992	56	6844
2026-01-04 11:37:59.63	91.76	5.57	-42.4	-44.0	18.8	0.00e+00	73	40	0	758120448	56	7215
2026-01-04 11:38:02.66	92.19	5.49	-42.4	-44.0	18.8	0.00e+00	0	40	0	763363328	56	7233
2026-01-04 11:38:05.68	92.62	5.40	-42.9	-44.7	18.1	0.00e+00	0	40	0	769654784	58	6944
2026-01-04 11:38:08.71	93.05	5.31	-43.7	-45.7	17.1	0.00e+00	90	40	0	774897664	58	7852
2026-01-04 11:38:11.74	93.47	5.22	-44.0	-46.3	16.6	0.00e+00	65	40	0	780140544	60	7462
2026-01-04 11:38:14.76	93.89	5.14	-43.7	-45.8	17.0	0.00e+00	0	40	0	786432000	60	7075
2026-01-04 11:38:17.79	94.31	5.05	-43.0	-44.9	17.9	0.00e+00	0	40	0	791674880	60	6383
2026-01-04 11:38:20.82	94.73	4.95	-42.8	-44.6	18.1	0.00e+00	48	40	0	797966336	60	6141
2026-01-04 11:38:23.85	95.14	4.86	-42.8	-44.6	18.2	0.00e+00	0	40	0	803209216	58	6875
2026-01-04 11:38:26.88	95.55	4.77	-42.8	-44.8	18.0	0.00e+00	0	40	0	808452096	58	7009
2026-01-04 11:38:29.91	95.96	4.67	-43.6	-45.8	17.0	0.00e+00	92	40	0	814743552	60	7061
2026-01-04 11:38:32.93	96.36	4.58	-43.3	-45.4	17.3	0.00e+00	0	40	0	819986432	60	6729
2026-01-04 11:38:35.96	96.77	4.48	-43.3	-45.4	17.3	0.00e+00	0	40	0	826277888	60	6707
2026-01-04 11:38:38.99	97.17	4.39	-42.9	-44.8	17.7	0.00e+00	65	40	0	831520768	60	6307
2026-01-04 11:38:42.02	97.57	4.29	-42.2	-43.8	18.8	0.00e+00	36	40	0	837812224	58	6294
2026-01-04 11:38:45.05	97.96	4.19	-42.8	-44.6	17.9	0.00e+00	0	40	0	843055104	58	6925
2026-01-04 11:38:48.07	98.36	4.10	-43.2	-45.1	17.5	0.00e+00	0	40	0	848297984	58	7328
2026-01-04 11:38:51.10	98.75	4.00	-43.1	-45.2	17.2	0.00e+00	92	40	0	854589440	58	7366
2026-01-04 11:38:54.13	99.14	3.90	-42.9	-44.7	17.8	0.00e+00	0	40	0	859832320	58	7005
2026-01-04 11:38:57.16	99.52	3.79	-42.3	-44.0	18.5	0.00e+00	0	40	0	866123776	58	6399
2026-01-04 11:39:00.18	99.91	3.69	-41.8	-43.4	19.0	0.00e+00	92	40	0	871366656	56	6740
2026-01-04 11:39:03.22	100.29	3.59	-41.9	-43.5	18.7	0.00e+00	0	40	0	876609536	56	6796
2026-01-04 11:39:06.24	100.66	3.49	-41.9	-43.6	18.8	0.00e+00	0	40	0	882900992	56	6875
2026-01-04 11:39:09.27	101.04	3.39	-42.1	-44.2	18.1	0.00e+00	0	40	0	888143872	56	7422
2026-01-04 11:39:12.30	101.41	3.28	-41.9	-44.3	18.0	0.00e+00	66	40	0	894435328	56	7449
2026-01-04 11:39:15.33	101.78	3.18	-42.5	-44.2	17.9	0.00e+00	0	40	0	899678208	56	7422
2026-01-04 11:39:18.36	102.15	3.07	-42.6	-44.6	17.6	0.00e+00	0	40	0	904921088	58	6926
2026-01-04 11:39:21.38	102.52	2.97	-49.0	-64.2	3.6	1.51e+00	0	40	104	909115392	60	58942
2026-01-04 11:39:24.41	102.88	2.86	-49.7	-65.0	3.6	1.51e+00	0	40	104	909115392	60	64122
2026-01-04 11:39:27.44	103.24	2.75	-49.8	-65.0	3.6	1.51e+00	0	40	104	909115392	60	64615
2026-01-04 11:39:30.47	103.60	2.65	-49.9	-65.1	3.6	1.51e+00	0	40	104	909115392	60	65030
2026-01-04 11:39:33.50	103.96	2.54	-49.9	-65.1	3.6	1.51e+00	0	40	104	909115392	60	65004
2026-01-04 11:39:36.53	104.31	2.43	-49.9	-65.1	3.6	1.51e+00	0	40	104	909115392	60	64803
2026-01-04 11:39:39.56	104.66	2.32	-50.2	-65.4	3.6	1.51e+00	0	40	104	909115392	60	67564
2026-01-04 11:39:42.59	105.01	2.21	-50.1	-65.3	3.6	1.51e+00	0	40	104	909115392	60	66735
2026-01-04 11:39:45.62	105.35	2.10	-50.2	-65.5	3.6	1.51e+00	0	40	104	909115392	60	67854
2026-01-04 11:39:48.65	105.70	1.99	-50.2	-65.4	3.6	1.51e+00	0	40	104	909115392	60	67227
2026-01-04 11:39:51.67	106.04	1.88	-50.3	-65.5	3.6	1.51e+00	0	40	104	909115392	60	68145
2026-01-04 11:39:54.70	106.38	1.77	-50.4	-65.6	3.6	1.51e+00	0	40	104	909115392	60	68497
2026-01-04 11:39:57.73	106.71	1.66	-50.4	-65.6	3.6	1.51e+00	0	40	104	909115392	60	68874
2026-01-04 11:40:00.76	107.05	1.55	-50.4	-65.6	3.6	1.51e+00	0	40	104	909115392	60	68971
2026-01-04 11:40:03.79	107.38	1.44	-50.6	-65.8	3.6	1.51e+00	0	40	104	909115392	60	70560
2026-01-04 11:40:06.82	107.71	1.33	-50.5	-65.7	3.6	1.51e+00	0	40	104	909115392	60	69932
2026-01-04 11:40:09.84	108.03	1.22	-50.5	-65.7	3.6	1.51e+00	0	40	104	909115392	60	69748
2026-01-04 11:40:12.87	108.36	1.10	-50.6	-65.7	3.6	1.51e+00	0	40	104	909115392	60	69826
2026-01-04 11:40:15.90	108.68	0.99	-51.0	-66.1	3.6	1.51e+00	0	40	104	909115392	60	73159
2026-01-04 11:40:18.93	109.00	0.88	-50.6	-65.9	3.5	1.51e+00	0	40	104	909115392	60	70992
2026-01-04 11:40:21.96	109.32	0.76	-50.6	-65.8	3.6	1.51e+00	0	40	104	909115392	60	70284
2026-01-04 11:40:24.99	109.63	0.65	-51.0	-66.2	3.6	1.51e+00	0	40	104	909115392	60	73885
2026-01-04 11:40:28.01	109.94	0.54	-50.6	-65.8	3.6	1.51e+00	0	40	104	909115392	60	70147
2026-01-04 11:40:31.05	110.26	0.42	-50.9	-66.1	3.6	1.51e+00	0	40	104	909115392	60	72583
2026-01-04 11:40:34.07	110.56	0.31	-50.7	-65.9	3.6	1.51e+00	0	40	104	909115392	60	71280
2026-01-04 11:40:37.10	110.87	0.19	-51.6	-66.8	3.6	1.51e+00	0	40	104	909115392	60	79126
2026-01-04 11:40:40.13	111.17	0.08	-50.6	-65.7	3.6	1.51e+00	0	40	104	909115392	60	69948

#Closed at: 2026-01-04 11:40:42
#Recorded file [909 MB]: D:/lorett/data/35029_260104_232958.dat