passes_logs/2026/01/04/R4.6S_Anadyr/R4.6S_Anadyr__20260104_205848_FENGYUN_3E_rec.log

#Pass ID: 20260104_205848_FENGYUN 3E
#Satellite: FENGYUN 3E
#Configuration: FENGYUN 3E
#almurnet v.1.7.20251203
#Start time: 2026-01-04 20:58:51

#Version: 2.2.20231116
#Station: R4.6S_Anadyr
#Location: 177.4865 lon 64.73178 lat
#TLE: 1 49008U 21062A   26003.51942929 -.00000034  00000+0  45519-5 0  9990
#TLE: 2 49008  98.7472   8.7829 0001426 160.7926 199.3304 14.19883272233213

#Time	Az	El	Level	Level2	SNR	BER	BlckErr	Temp	State	Recorded	gain1	gain2
2026-01-04 20:58:51.38	27.26	0.17	-49.1	-59.0	3.3	8.40e-01	0	29	0	0	60	32062
2026-01-04 20:58:55.41	27.08	0.40	-48.5	-59.8	3.6	8.45e-01	0	29	104	0	60	35433
2026-01-04 20:58:59.45	26.89	0.63	-48.0	-59.3	3.6	8.45e-01	0	29	104	0	60	33273
2026-01-04 20:59:03.49	26.70	0.86	-47.3	-58.4	3.6	8.44e-01	0	29	104	0	60	30103
2026-01-04 20:59:07.53	26.50	1.09	-46.8	-58.1	3.6	8.46e-01	0	29	104	0	60	28900
2026-01-04 20:59:11.56	26.31	1.32	-46.8	-58.0	3.6	8.45e-01	0	29	104	0	60	28700
2026-01-04 20:59:15.60	26.11	1.56	-46.8	-58.1	3.6	8.46e-01	0	29	104	0	60	28985
2026-01-04 20:59:19.64	25.90	1.79	-46.8	-58.1	3.6	8.45e-01	0	29	104	0	60	28888
2026-01-04 20:59:23.68	25.69	2.03	-46.8	-57.6	3.6	8.45e-01	0	29	104	0	60	27321
2026-01-04 20:59:27.72	25.48	2.27	-46.8	-58.1	3.6	8.45e-01	0	29	104	0	60	29015
2026-01-04 20:59:31.75	25.26	2.51	-46.8	-58.0	3.6	8.45e-01	0	29	104	0	60	28752
2026-01-04 20:59:35.79	25.04	2.75	-46.6	-56.3	3.6	8.45e-01	0	30	104	0	60	23513
2026-01-04 20:59:39.83	24.82	3.00	-46.8	-57.5	3.6	8.44e-01	0	29	104	0	60	27033
2026-01-04 20:59:43.87	24.59	3.24	-44.0	-46.9	9.7	2.39e-02	0	30	0	13631488	60	8034
2026-01-04 20:59:47.91	24.36	3.49	-46.7	-53.6	3.7	5.41e-01	0	30	0	41943040	60	17304
2026-01-04 20:59:51.95	24.12	3.74	-37.3	-38.1	6.1	7.42e-01	0	30	104	52428800	54	4121
2026-01-04 20:59:55.98	23.88	3.99	-35.3	-36.1	21.2	0.00e+00	0	30	0	74448896	42	6492
2026-01-04 21:00:00.02	23.64	4.24	-34.5	-35.2	22.0	0.00e+00	0	30	0	103809024	42	5892
2026-01-04 21:00:04.06	23.39	4.50	-34.6	-35.3	22.1	0.00e+00	0	30	0	133169152	42	5936
2026-01-04 21:00:08.09	23.14	4.76	-34.3	-35.0	22.4	0.00e+00	0	30	0	162529280	42	5725
2026-01-04 21:00:12.13	22.88	5.01	-35.0	-35.7	21.7	0.00e+00	0	30	0	191889408	42	6226
2026-01-04 21:00:16.17	22.61	5.27	-34.6	-35.4	22.3	0.00e+00	0	30	0	220200960	42	5977
2026-01-04 21:00:20.21	22.34	5.54	-34.3	-35.0	22.5	0.00e+00	0	30	0	249561088	42	5710
2026-01-04 21:00:24.24	22.07	5.80	-34.1	-34.8	22.5	0.00e+00	0	30	0	278921216	40	6317
2026-01-04 21:00:28.28	21.79	6.07	-33.9	-34.6	22.8	0.00e+00	0	30	0	308281344	40	6133
2026-01-04 21:00:32.32	21.51	6.34	-33.6	-34.3	22.9	0.00e+00	0	30	0	337641472	40	5960
2026-01-04 21:00:36.36	21.22	6.61	-33.3	-34.0	23.4	0.00e+00	0	30	0	367001600	40	5730
2026-01-04 21:00:40.40	20.92	6.88	-33.4	-34.0	23.4	0.00e+00	0	30	0	395313152	40	5747
2026-01-04 21:00:44.43	20.62	7.16	-33.2	-33.9	23.3	0.00e+00	0	30	0	424673280	40	5651
2026-01-04 21:00:48.47	20.31	7.43	-33.7	-34.3	23.2	0.00e+00	0	30	0	454033408	40	5958
2026-01-04 21:00:52.51	19.99	7.71	-33.7	-34.3	23.3	0.00e+00	0	30	0	483393536	38	6680
2026-01-04 21:00:56.55	19.67	7.99	-33.3	-34.0	23.5	0.00e+00	0	30	0	512753664	38	6436
2026-01-04 21:01:00.59	19.35	8.28	-33.5	-34.2	23.4	0.00e+00	0	30	0	541065216	38	6597
2026-01-04 21:01:04.62	19.01	8.56	-33.3	-33.9	23.7	0.00e+00	0	30	0	570425344	38	6386
2026-01-04 21:01:08.66	18.67	8.85	-32.7	-33.3	24.1	0.00e+00	0	30	0	599785472	38	5948
2026-01-04 21:01:12.70	18.32	9.14	-32.7	-33.3	24.2	0.00e+00	0	30	0	629145600	38	5952
2026-01-04 21:01:16.74	17.97	9.44	-32.7	-33.3	24.3	0.00e+00	0	30	0	657457152	38	5956
2026-01-04 21:01:20.78	17.60	9.73	-32.8	-33.4	24.3	0.00e+00	0	30	0	686817280	38	5999
2026-01-04 21:01:24.81	17.23	10.03	-32.7	-33.3	24.5	0.00e+00	0	30	0	716177408	38	5947
2026-01-04 21:01:28.84	16.85	10.33	-32.9	-33.6	24.2	0.00e+00	0	30	0	745537536	38	6132
2026-01-04 21:01:32.88	16.47	10.63	-32.8	-33.5	24.3	0.00e+00	0	30	0	773849088	38	6058
2026-01-04 21:01:36.93	16.07	10.94	-32.4	-33.0	24.8	0.00e+00	0	30	0	803209216	38	5752
2026-01-04 21:01:40.96	15.67	11.25	-32.1	-32.7	25.0	0.00e+00	0	30	0	832569344	38	5566
2026-01-04 21:01:45.00	15.25	11.56	-32.4	-33.0	24.9	0.00e+00	0	30	0	861929472	38	5761
2026-01-04 21:01:49.04	14.83	11.87	-32.0	-32.6	25.2	0.00e+00	0	30	0	891289600	38	5467
2026-01-04 21:01:53.08	14.40	12.18	-31.9	-32.5	25.4	0.00e+00	0	30	0	920649728	36	6075
2026-01-04 21:01:57.12	13.96	12.50	-32.0	-32.7	25.2	0.00e+00	0	30	0	948961280	36	6176
2026-01-04 21:02:01.16	13.50	12.82	-31.9	-32.5	25.3	0.00e+00	0	30	0	978321408	36	6068
2026-01-04 21:02:05.19	13.04	13.14	-31.8	-32.4	25.4	0.00e+00	0	30	0	1007681536	36	6004
2026-01-04 21:02:09.23	12.57	13.47	-31.6	-32.2	25.6	0.00e+00	0	30	0	1037041664	36	5869
2026-01-04 21:02:13.27	12.09	13.79	-31.5	-32.1	25.7	0.00e+00	0	30	0	1066401792	36	5805
2026-01-04 21:02:17.31	11.59	14.12	-31.4	-32.0	25.8	0.00e+00	0	30	0	1094713344	36	5737
2026-01-04 21:02:21.35	11.09	14.45	-31.6	-32.2	25.6	0.00e+00	0	30	0	1124073472	36	5848
2026-01-04 21:02:25.39	10.57	14.79	-31.6	-32.2	25.8	0.00e+00	0	30	0	1153433600	36	5842
2026-01-04 21:02:29.42	10.04	15.12	-31.5	-32.1	25.9	0.00e+00	0	30	0	1182793728	36	5783
2026-01-04 21:02:33.47	9.50	15.46	-31.5	-32.1	25.8	0.00e+00	0	30	0	1212153856	36	5776
2026-01-04 21:02:37.50	8.94	15.80	-31.4	-32.0	25.8	0.00e+00	0	30	0	1241513984	36	5723
2026-01-04 21:02:41.54	8.38	16.14	-31.1	-31.7	26.2	0.00e+00	0	30	0	1269825536	36	5504
2026-01-04 21:02:45.58	7.79	16.49	-30.5	-31.1	26.6	0.00e+00	0	30	0	1299185664	34	5775
2026-01-04 21:02:49.62	7.20	16.83	-30.4	-31.0	26.6	0.00e+00	0	30	0	1328545792	34	5720
2026-01-04 21:02:53.65	6.59	17.18	-30.8	-31.4	26.2	0.00e+00	0	30	0	1357905920	34	5990
2026-01-04 21:02:57.68	5.97	17.53	-31.0	-31.6	26.3	0.00e+00	0	30	0	1386217472	34	6107
2026-01-04 21:03:01.71	5.33	17.87	-30.8	-31.4	26.3	0.00e+00	0	30	0	1415577600	34	5969
2026-01-04 21:03:05.75	4.68	18.23	-30.3	-30.9	26.7	0.00e+00	0	30	0	1444937728	34	5660
2026-01-04 21:03:09.79	4.01	18.58	-30.5	-31.1	26.7	0.00e+00	0	30	0	1474297856	34	5815
2026-01-04 21:03:13.83	3.32	18.93	-30.4	-31.0	26.8	0.00e+00	0	30	0	1502609408	34	5739
2026-01-04 21:03:17.87	2.62	19.28	-30.3	-30.9	26.8	0.00e+00	0	30	0	1531969536	34	5664
2026-01-04 21:03:21.91	1.90	19.64	-30.1	-30.7	27.0	0.00e+00	0	30	0	1561329664	34	5527
2026-01-04 21:03:25.94	1.16	19.99	-30.2	-30.8	26.8	0.00e+00	0	30	0	1590689792	34	5583
2026-01-04 21:03:29.98	0.41	20.35	-30.1	-30.7	26.8	0.00e+00	0	30	0	1620049920	34	5514
2026-01-04 21:03:34.02	359.64	20.70	-30.4	-31.0	26.7	0.00e+00	0	30	0	1649410048	34	5733
2026-01-04 21:03:38.06	358.85	21.05	-30.5	-31.1	26.6	0.00e+00	0	30	0	1677721600	34	5807
2026-01-04 21:03:42.09	358.04	21.40	-30.3	-30.9	26.7	0.00e+00	0	30	0	1707081728	34	5671
2026-01-04 21:03:46.13	357.22	21.75	-30.1	-30.7	26.8	0.00e+00	0	30	0	1736441856	34	5531
2026-01-04 21:03:50.17	356.37	22.10	-30.2	-30.8	26.6	0.00e+00	0	30	0	1765801984	34	5598
2026-01-04 21:03:54.21	355.50	22.45	-30.5	-31.1	26.7	0.00e+00	0	30	0	1795162112	34	5790
2026-01-04 21:03:58.25	354.62	22.79	-30.1	-30.7	26.9	0.00e+00	0	30	0	1823473664	34	5539
2026-01-04 21:04:02.28	353.71	23.13	-29.6	-30.2	27.5	0.00e+00	0	30	0	1852833792	32	5850
2026-01-04 21:04:06.32	352.79	23.47	-29.5	-30.0	27.5	0.00e+00	0	30	0	1882193920	32	5752
2026-01-04 21:04:10.35	351.85	23.81	-29.4	-30.0	27.5	0.00e+00	0	30	0	1911554048	32	5727
2026-01-04 21:04:14.39	350.88	24.13	-29.6	-30.2	27.4	0.00e+00	0	30	0	1940914176	32	5872
2026-01-04 21:04:18.43	349.89	24.46	-29.4	-30.0	27.6	0.00e+00	0	30	0	1969225728	32	5723
2026-01-04 21:04:22.46	348.89	24.78	-29.3	-29.9	27.6	0.00e+00	0	30	0	1998585856	32	5658
2026-01-04 21:04:26.50	347.86	25.09	-29.4	-30.0	27.5	0.00e+00	0	30	0	2027945984	32	5748
2026-01-04 21:04:30.54	346.81	25.40	-30.0	-30.6	27.2	0.00e+00	0	30	0	2056257536	32	6137
2026-01-04 21:04:34.58	345.74	25.70	-30.1	-30.7	27.1	0.00e+00	0	30	0	2085617664	34	5513
2026-01-04 21:04:38.61	344.65	25.99	-29.7	-30.3	27.3	0.00e+00	0	30	0	2114977792	32	5908
2026-01-04 21:04:42.65	343.54	26.27	-29.3	-29.9	27.7	0.00e+00	0	30	0	2144337920	32	5692
2026-01-04 21:04:46.69	342.41	26.54	-29.5	-30.0	27.5	0.00e+00	0	30	0	2173698048	32	5750
2026-01-04 21:04:50.73	341.26	26.80	-29.8	-30.4	27.3	0.00e+00	0	30	0	2203058176	32	5975
2026-01-04 21:04:54.77	340.09	27.06	-29.7	-30.3	27.4	0.00e+00	0	30	0	2231369728	32	5945
2026-01-04 21:04:58.81	338.91	27.30	-30.3	-30.9	27.0	0.00e+00	0	30	0	2260729856	32	6328
2026-01-04 21:05:02.84	337.71	27.53	-29.9	-30.4	27.3	0.00e+00	0	30	0	2290089984	32	6029
2026-01-04 21:05:06.88	336.48	27.75	-29.3	-29.9	27.7	0.00e+00	0	30	0	2319450112	32	5633
2026-01-04 21:05:10.92	335.24	27.95	-29.3	-29.8	27.7	0.00e+00	0	30	0	2348810240	32	5614
2026-01-04 21:05:14.97	333.99	28.14	-29.5	-30.1	27.6	0.00e+00	0	30	0	2377121792	32	5781
2026-01-04 21:05:19.01	332.72	28.32	-29.1	-29.6	28.0	0.00e+00	0	31	0	2406481920	32	5491
2026-01-04 21:05:23.04	331.44	28.48	-29.6	-30.2	27.7	0.00e+00	0	30	0	2435842048	32	5836
2026-01-04 21:05:27.08	330.14	28.62	-30.1	-30.7	27.0	0.00e+00	0	31	0	2465202176	32	6208
2026-01-04 21:05:31.12	328.84	28.76	-29.6	-30.2	27.4	0.00e+00	0	30	0	2494562304	32	5865
2026-01-04 21:05:35.16	327.52	28.87	-29.2	-29.8	27.8	0.00e+00	0	30	0	2523922432	32	5597
2026-01-04 21:05:39.20	326.20	28.97	-29.6	-30.2	27.5	0.00e+00	0	30	0	2552233984	32	5879
2026-01-04 21:05:43.23	324.87	29.05	-30.4	-31.0	27.1	0.00e+00	0	30	0	2581594112	32	6400
2026-01-04 21:05:47.27	323.53	29.11	-29.9	-30.4	27.4	0.00e+00	0	30	0	2610954240	32	6027
2026-01-04 21:05:51.31	322.18	29.16	-29.6	-30.1	27.6	0.00e+00	0	30	0	2640314368	32	5809
2026-01-04 21:05:55.35	320.84	29.19	-29.8	-30.4	27.6	0.00e+00	0	30	0	2669674496	32	5977
2026-01-04 21:05:59.38	319.49	29.20	-29.2	-29.8	27.9	0.00e+00	0	30	0	2697986048	32	5597
2026-01-04 21:06:03.42	318.14	29.19	-29.4	-29.9	27.9	0.00e+00	0	31	0	2727346176	32	5687
2026-01-04 21:06:07.46	316.80	29.17	-29.3	-29.9	27.7	0.00e+00	0	30	0	2756706304	32	5675
2026-01-04 21:06:11.50	315.45	29.12	-29.5	-30.1	27.7	0.00e+00	0	30	0	2786066432	32	5773
2026-01-04 21:06:15.53	314.11	29.06	-29.3	-29.8	27.7	0.00e+00	0	30	0	2814377984	32	5630
2026-01-04 21:06:19.57	312.78	28.99	-29.4	-30.0	27.7	0.00e+00	0	30	0	2843738112	32	5711
2026-01-04 21:06:23.61	311.45	28.89	-29.5	-30.1	27.9	0.00e+00	0	30	0	2873098240	32	5786
2026-01-04 21:06:27.64	310.13	28.78	-29.6	-30.1	27.9	0.00e+00	0	30	0	2902458368	32	5826
2026-01-04 21:06:31.68	308.82	28.65	-29.7	-30.2	27.6	0.00e+00	0	30	0	2931818496	32	5889
2026-01-04 21:06:35.72	307.52	28.51	-29.2	-29.7	28.0	0.00e+00	0	31	0	2960130048	32	5548
2026-01-04 21:06:39.76	306.24	28.35	-29.4	-30.0	27.7	0.00e+00	0	30	0	2989490176	32	5706
2026-01-04 21:06:43.79	304.97	28.18	-29.4	-30.0	27.8	0.00e+00	0	30	0	3018850304	32	5714
2026-01-04 21:06:47.83	303.71	27.99	-29.6	-30.2	27.7	0.00e+00	0	30	0	3048210432	32	5877
2026-01-04 21:06:51.87	302.46	27.79	-29.7	-30.2	27.7	0.00e+00	0	30	0	3077570560	32	5889
2026-01-04 21:06:55.91	301.24	27.57	-29.6	-30.2	27.8	0.00e+00	0	30	0	3105882112	32	5845
2026-01-04 21:06:59.95	300.02	27.35	-29.4	-30.0	28.0	0.00e+00	0	30	0	3135242240	32	5707
2026-01-04 21:07:03.99	298.83	27.11	-29.5	-30.1	27.8	0.00e+00	0	30	0	3164602368	32	5774
2026-01-04 21:07:08.03	297.66	26.86	-29.8	-30.4	27.6	0.00e+00	0	30	0	3193962496	32	5997
2026-01-04 21:07:12.06	296.50	26.59	-29.5	-30.0	27.8	0.00e+00	0	30	0	3223322624	32	5751
2026-01-04 21:07:16.10	295.37	26.32	-29.4	-29.9	28.0	0.00e+00	0	30	0	3252682752	32	5690
2026-01-04 21:07:20.14	294.25	26.04	-29.6	-30.2	27.8	0.00e+00	0	30	0	3280994304	32	5850
2026-01-04 21:07:24.17	293.15	25.75	-29.5	-30.0	27.8	0.00e+00	0	30	0	3310354432	32	5755
2026-01-04 21:07:28.21	292.08	25.45	-29.4	-30.0	27.8	0.00e+00	0	31	0	3339714560	32	5719
2026-01-04 21:07:32.24	291.02	25.15	-29.8	-30.4	27.6	0.00e+00	0	30	0	3369074688	32	5992
2026-01-04 21:07:36.28	289.99	24.84	-30.3	-30.9	27.6	0.00e+00	0	31	0	3397386240	32	6323
2026-01-04 21:07:40.32	288.97	24.52	-29.8	-30.4	27.7	0.00e+00	0	31	0	3426746368	32	6023
2026-01-04 21:07:44.37	287.97	24.19	-29.4	-30.1	24.2	0.00e+00	0	31	0	3456106496	32	5807
2026-01-04 21:07:48.40	287.00	23.87	-29.4	-30.1	24.1	0.00e+00	0	30	0	3485466624	32	5824
2026-01-04 21:07:52.44	286.05	23.53	-29.3	-30.1	24.1	0.00e+00	0	30	0	3514826752	32	5801
2026-01-04 21:07:56.48	285.12	23.19	-29.5	-30.3	23.9	0.00e+00	0	30	0	3543138304	32	5919
2026-01-04 21:08:00.52	284.20	22.85	-29.4	-30.2	23.8	0.00e+00	0	30	0	3572498432	32	5877
2026-01-04 21:08:04.55	283.31	22.51	-29.3	-30.1	23.8	0.00e+00	0	31	0	3601858560	32	5805
2026-01-04 21:08:08.59	282.44	22.16	-29.5	-30.2	23.7	0.00e+00	0	30	0	3631218688	32	5889
2026-01-04 21:08:12.62	281.59	21.81	-29.4	-30.1	24.1	0.00e+00	0	31	0	3659530240	32	5825
2026-01-04 21:08:16.66	280.75	21.46	-29.6	-30.3	24.1	0.00e+00	0	31	0	3688890368	32	5960
2026-01-04 21:08:20.69	279.94	21.11	-29.8	-30.6	24.0	0.00e+00	0	31	0	3718250496	32	6131
2026-01-04 21:08:24.73	279.14	20.75	-29.7	-30.5	24.1	0.00e+00	0	30	0	3747610624	32	6060
2026-01-04 21:08:28.77	278.36	20.40	-29.8	-30.5	24.0	0.00e+00	0	31	0	3776970752	32	6096
2026-01-04 21:08:32.81	277.60	20.04	-29.8	-30.6	24.1	0.00e+00	0	31	0	3806330880	32	6106
2026-01-04 21:08:36.84	276.86	19.69	-29.7	-30.4	24.0	0.00e+00	0	31	0	3834642432	32	6008
2026-01-04 21:08:40.88	276.14	19.33	-29.9	-30.7	23.7	0.00e+00	0	30	0	3864002560	32	6183
2026-01-04 21:08:44.92	275.43	18.98	-30.0	-30.8	23.7	0.00e+00	0	31	0	3893362688	32	6279
2026-01-04 21:08:48.95	274.74	18.62	-30.3	-31.0	23.8	0.00e+00	0	31	0	3922722816	32	6462
2026-01-04 21:08:52.99	274.06	18.27	-30.5	-31.3	23.5	0.00e+00	0	31	0	3951034368	32	6682
2026-01-04 21:08:57.02	273.40	17.92	-30.7	-31.5	23.5	0.00e+00	0	31	0	3980394496	34	6040
2026-01-04 21:09:01.06	272.76	17.57	-30.7	-31.5	23.4	0.00e+00	0	31	0	4009754624	34	6071
2026-01-04 21:09:05.10	272.13	17.22	-30.9	-31.6	23.5	0.00e+00	0	31	0	4039114752	34	6169
2026-01-04 21:09:09.14	271.51	16.87	-30.6	-31.4	23.7	0.00e+00	0	31	0	4067426304	34	5966
2026-01-04 21:09:13.17	270.91	16.52	-31.0	-31.8	23.2	0.00e+00	0	31	0	4096786432	34	6275
2026-01-04 21:09:17.20	270.32	16.18	-31.1	-31.9	23.2	0.00e+00	0	30	0	4126146560	34	6363
2026-01-04 21:09:21.23	269.75	15.84	-30.9	-31.7	23.3	0.00e+00	0	31	0	4155506688	34	6227
2026-01-04 21:09:25.28	269.19	15.49	-31.2	-32.0	23.0	0.00e+00	0	31	0	4184866816	34	6398
2026-01-04 21:09:29.31	268.64	15.15	-31.2	-32.0	23.1	0.00e+00	0	31	0	4213178368	34	6408
2026-01-04 21:09:33.35	268.11	14.82	-31.2	-32.0	23.2	0.00e+00	0	31	0	4242538496	34	6439
2026-01-04 21:09:37.39	267.59	14.48	-31.6	-32.4	22.8	0.00e+00	0	30	0	4271898624	34	6747
2026-01-04 21:09:41.43	267.07	14.15	-31.7	-32.6	22.8	0.00e+00	0	31	0	4301258752	36	6113
2026-01-04 21:09:45.47	266.57	13.82	-32.0	-32.8	22.6	0.00e+00	0	31	0	4330618880	36	6296
2026-01-04 21:09:49.50	266.09	13.49	-31.9	-32.7	22.7	0.00e+00	0	31	0	4359979008	36	6244
2026-01-04 21:09:53.54	265.61	13.16	-32.1	-32.9	22.7	0.00e+00	0	31	0	4388290560	36	6375
2026-01-04 21:09:57.58	265.14	12.84	-31.7	-32.5	23.0	0.00e+00	0	31	0	4417650688	36	6076
2026-01-04 21:10:01.62	264.69	12.52	-31.7	-32.5	23.0	0.00e+00	0	31	0	4447010816	36	6095
2026-01-04 21:10:05.65	264.24	12.20	-31.8	-32.6	23.0	0.00e+00	0	31	0	4476370944	36	6165
2026-01-04 21:10:09.69	263.80	11.88	-31.9	-32.7	22.8	0.00e+00	0	31	0	4505731072	36	6223
2026-01-04 21:10:13.73	263.38	11.57	-31.9	-32.7	22.9	0.00e+00	0	31	0	4534042624	36	6185
2026-01-04 21:10:17.77	262.96	11.26	-32.2	-33.0	22.6	0.00e+00	0	31	0	4563402752	36	6456
2026-01-04 21:10:21.81	262.55	10.95	-32.6	-33.4	22.2	0.00e+00	0	31	0	4592762880	36	6730
2026-01-04 21:10:25.84	262.15	10.64	-32.8	-33.7	22.0	0.00e+00	0	31	0	4621074432	38	6213
2026-01-04 21:10:29.88	261.76	10.34	-33.0	-33.8	21.9	0.00e+00	0	31	0	4650434560	38	6312
2026-01-04 21:10:33.92	261.37	10.04	-33.0	-33.9	22.0	0.00e+00	0	31	0	4679794688	38	6351
2026-01-04 21:10:37.96	261.00	9.74	-33.0	-33.8	22.0	0.00e+00	0	31	0	4709154816	38	6307
2026-01-04 21:10:41.99	260.63	9.44	-32.9	-33.7	22.0	0.00e+00	0	31	0	4738514944	38	6224
2026-01-04 21:10:46.03	260.27	9.15	-33.0	-33.8	22.0	0.00e+00	0	31	0	4766826496	38	6283
2026-01-04 21:10:50.07	259.92	8.85	-33.4	-34.2	21.7	0.00e+00	0	31	0	4796186624	38	6608
2026-01-04 21:10:54.11	259.57	8.56	-33.5	-34.4	21.7	0.00e+00	0	31	0	4825546752	38	6709
2026-01-04 21:10:58.15	259.23	8.28	-33.6	-34.4	21.6	0.00e+00	0	31	0	4854906880	38	6767
2026-01-04 21:11:02.19	258.90	7.99	-33.4	-34.3	21.6	0.00e+00	0	31	0	4884267008	38	6640
2026-01-04 21:11:06.23	258.57	7.71	-33.7	-34.6	21.4	0.00e+00	0	31	0	4913627136	40	6115
2026-01-04 21:11:10.26	258.26	7.43	-33.9	-34.8	21.3	0.00e+00	0	31	0	4941938688	40	6246
2026-01-04 21:11:14.30	257.94	7.15	-33.6	-34.5	21.4	0.00e+00	0	31	0	4971298816	40	6051
2026-01-04 21:11:18.34	257.64	6.87	-33.8	-34.7	21.2	0.00e+00	0	31	0	5000658944	40	6228
2026-01-04 21:11:22.37	257.34	6.60	-34.0	-34.9	21.0	0.00e+00	0	31	0	5030019072	40	6377
2026-01-04 21:11:26.41	257.04	6.33	-34.1	-35.0	20.8	0.00e+00	0	31	0	5059379200	40	6413
2026-01-04 21:11:30.45	256.75	6.06	-34.2	-35.2	20.7	0.00e+00	0	31	0	5087690752	40	6540
2026-01-04 21:11:34.48	256.47	5.79	-35.2	-36.1	20.3	0.00e+00	0	31	0	5117050880	42	6513
2026-01-04 21:11:38.52	256.19	5.53	-34.5	-35.4	20.9	0.00e+00	0	31	0	5146411008	42	5969
2026-01-04 21:11:42.56	255.92	5.26	-33.9	-34.7	21.3	0.00e+00	0	31	0	5175771136	42	5563
2026-01-04 21:11:46.59	255.65	5.00	-34.1	-34.9	21.2	0.00e+00	0	31	0	5204082688	40	6369
2026-01-04 21:11:50.62	255.39	4.74	-34.8	-35.7	20.7	0.00e+00	0	31	0	5233442816	42	6223
2026-01-04 21:11:54.67	255.13	4.48	-34.8	-35.7	20.5	0.00e+00	0	31	0	5262802944	42	6217
2026-01-04 21:11:58.70	254.88	4.23	-34.8	-35.8	20.2	0.00e+00	0	31	0	5292163072	42	6266
2026-01-04 21:12:02.74	254.63	3.97	-34.6	-35.6	20.3	0.00e+00	0	31	0	5321523200	42	6137
2026-01-04 21:12:06.78	254.38	3.72	-34.9	-35.8	20.1	0.00e+00	0	31	0	5349834752	42	6306
2026-01-04 21:12:10.82	254.14	3.47	-35.9	-37.0	19.1	0.00e+00	0	31	0	5379194880	44	6392
2026-01-04 21:12:14.86	253.91	3.22	-36.3	-37.4	18.5	0.00e+00	0	31	0	5408555008	44	6742
2026-01-04 21:12:18.90	253.68	2.98	-47.1	-58.2	3.6	8.69e-01	0	31	104	5435817984	60	29356
2026-01-04 21:12:22.94	253.45	2.73	-48.5	-59.7	3.6	8.45e-01	0	31	104	5435817984	60	34726
2026-01-04 21:12:26.98	253.23	2.49	-48.5	-59.7	3.6	8.44e-01	0	31	104	5435817984	60	34934
2026-01-04 21:12:31.02	253.01	2.24	-48.1	-59.7	3.6	8.44e-01	0	31	104	5435817984	60	34841
2026-01-04 21:12:35.06	252.79	2.00	-48.0	-59.7	3.6	8.44e-01	0	31	104	5435817984	60	34871
2026-01-04 21:12:39.09	252.58	1.77	-48.5	-59.7	3.6	8.45e-01	0	31	104	5435817984	60	35078
2026-01-04 21:12:43.13	252.37	1.53	-48.5	-59.7	3.6	8.45e-01	0	31	104	5435817984	60	35055
2026-01-04 21:12:47.17	252.16	1.29	-48.6	-59.8	3.6	8.45e-01	0	31	104	5435817984	60	35367
2026-01-04 21:12:51.20	251.96	1.06	-48.6	-59.9	3.6	8.45e-01	0	31	104	5435817984	60	35801
2026-01-04 21:12:55.24	251.76	0.83	-48.6	-59.9	3.6	8.46e-01	0	31	104	5435817984	60	35575
2026-01-04 21:12:59.28	251.57	0.60	-48.6	-59.9	3.6	8.46e-01	0	31	104	5435817984	60	35937
2026-01-04 21:13:03.32	251.38	0.37	-48.6	-59.9	3.6	8.44e-01	0	31	104	5435817984	60	35631
2026-01-04 21:13:07.36	251.19	0.14	-48.6	-59.9	3.6	8.46e-01	0	31	104	5435817984	60	35700

#Closed at: 2026-01-04 21:13:10
#Recorded file [5435 MB]: D:/lorett/data/35029_260105_085851.dat