passes_logs/2026/01/04/R4.6S_Anadyr/R4.6S_Anadyr__20260104_155124_FENGYUN_3D_rec.log

#Pass ID: 20260104_155124_FENGYUN 3D
#Satellite: FENGYUN 3D
#Configuration: FENGYUN 3D
#almurnet v.1.7.20251203
#Start time: 2026-01-04 15:51:26

#Version: 2.2.20231116
#Station: R4.6S_Anadyr
#Location: 177.4865 lon 64.73178 lat
#TLE: 1 43010U 17072A   26003.51579816  .00000092  00000+0  65324-4 0  9992
#TLE: 2 43010  98.9912 335.1548 0001916 128.4619 231.6729 14.19692074421623

#Time	Az	El	Level	Level2	SNR	BER	BlckErr	Temp	State	Recorded	gain1	gain2
2026-01-04 15:51:26.10	19.69	0.12	-49.3	-64.2	3.6	1.51e+00	0	37	0	0	60	58707
2026-01-04 15:51:30.14	19.82	0.36	-49.2	-61.3	3.5	8.46e-01	0	39	104	0	60	42086
2026-01-04 15:51:34.18	19.95	0.59	-49.1	-61.2	3.5	8.46e-01	0	39	104	0	60	41594
2026-01-04 15:51:38.22	20.09	0.83	-48.6	-60.8	3.6	8.45e-01	0	39	104	0	60	39604
2026-01-04 15:51:42.26	20.22	1.07	-47.8	-59.9	3.6	8.45e-01	0	39	104	0	60	35624
2026-01-04 15:51:46.30	20.36	1.31	-47.8	-59.9	3.6	8.47e-01	0	39	104	0	60	35696
2026-01-04 15:51:50.34	20.50	1.56	-47.7	-59.6	3.6	8.46e-01	0	39	104	0	60	34598
2026-01-04 15:51:54.38	20.65	1.80	-47.7	-59.7	3.6	8.45e-01	0	39	104	0	60	35026
2026-01-04 15:51:58.42	20.79	2.05	-47.7	-59.8	3.6	8.45e-01	0	39	104	0	60	35227
2026-01-04 15:52:02.46	20.94	2.30	-47.7	-59.3	3.6	8.47e-01	0	39	104	0	60	33452
2026-01-04 15:52:06.49	21.09	2.55	-47.5	-56.9	3.8	8.43e-01	0	39	104	0	60	25402
2026-01-04 15:52:10.53	21.24	2.81	-46.6	-51.5	6.7	4.29e-01	0	39	0	2097152	60	13597
2026-01-04 15:52:14.57	21.39	3.06	-39.3	-40.4	18.4	0.00e+00	0	39	0	25165824	52	5977
2026-01-04 15:52:18.61	21.55	3.32	-37.2	-38.1	20.6	0.00e+00	0	39	0	48234496	48	5823
2026-01-04 15:52:22.66	21.70	3.58	-40.1	-41.3	17.5	0.00e+00	0	39	0	70254592	52	6650
2026-01-04 15:52:26.70	21.87	3.85	-42.5	-44.4	13.2	1.64e-03	0	39	0	92274688	56	7522
2026-01-04 15:52:30.74	22.03	4.11	-38.8	-39.9	19.3	0.00e+00	0	39	0	105906176	50	6319
2026-01-04 15:52:34.78	22.19	4.38	-37.9	-38.8	20.2	0.00e+00	0	39	0	128974848	50	5614
2026-01-04 15:52:38.82	22.36	4.65	-36.5	-37.4	21.7	0.00e+00	0	39	0	152043520	46	5966
2026-01-04 15:52:42.86	22.54	4.92	-36.2	-37.0	21.9	0.00e+00	0	39	0	174063616	46	5716
2026-01-04 15:52:46.90	22.71	5.20	-35.7	-36.5	22.8	0.00e+00	0	40	0	197132288	44	6053
2026-01-04 15:52:50.94	22.89	5.48	-35.1	-35.8	23.2	0.00e+00	0	39	0	220200960	44	5619
2026-01-04 15:52:54.98	23.07	5.76	-35.6	-36.4	22.7	0.00e+00	0	39	0	243269632	44	6005
2026-01-04 15:52:59.01	23.25	6.04	-35.2	-36.0	23.2	0.00e+00	0	39	0	265289728	44	5698
2026-01-04 15:53:03.06	23.44	6.33	-35.0	-35.7	23.3	0.00e+00	0	39	0	288358400	44	5544
2026-01-04 15:53:07.09	23.63	6.62	-35.1	-35.8	23.1	0.00e+00	0	39	0	310378496	44	5623
2026-01-04 15:53:11.13	23.82	6.92	-35.1	-35.9	23.4	0.00e+00	0	40	0	333447168	44	5638
2026-01-04 15:53:15.17	24.02	7.21	-34.9	-35.7	23.6	0.00e+00	0	40	0	356515840	44	5519
2026-01-04 15:53:19.21	24.22	7.51	-35.1	-35.9	23.3	0.00e+00	0	40	0	378535936	42	6348
2026-01-04 15:53:23.25	24.42	7.81	-34.7	-35.4	23.7	0.00e+00	0	40	0	401604608	42	6013
2026-01-04 15:53:27.29	24.63	8.12	-34.4	-35.1	24.2	0.00e+00	0	40	0	424673280	42	5792
2026-01-04 15:53:31.33	24.85	8.43	-34.4	-35.2	24.1	0.00e+00	0	40	0	447741952	42	5829
2026-01-04 15:53:35.36	25.06	8.74	-34.4	-35.1	24.2	0.00e+00	0	40	0	469762048	42	5811
2026-01-04 15:53:39.40	25.28	9.06	-34.6	-35.4	24.0	0.00e+00	0	40	0	492830720	42	5978
2026-01-04 15:53:43.44	25.51	9.38	-34.2	-34.9	24.4	0.00e+00	0	40	0	514850816	42	5634
2026-01-04 15:53:47.48	25.74	9.71	-34.1	-34.8	24.6	0.00e+00	0	40	0	537919488	42	5612
2026-01-04 15:53:51.52	25.97	10.04	-33.8	-34.6	24.8	0.00e+00	0	40	0	560988160	40	6105
2026-01-04 15:53:55.56	26.21	10.37	-33.9	-34.6	24.8	0.00e+00	0	40	0	583008256	40	6112
2026-01-04 15:53:59.60	26.46	10.71	-33.7	-34.3	24.9	0.00e+00	0	40	0	606076928	40	5947
2026-01-04 15:54:03.63	26.71	11.05	-33.5	-34.2	25.1	0.00e+00	0	40	0	629145600	40	5856
2026-01-04 15:54:07.67	26.97	11.39	-33.8	-34.4	24.8	0.00e+00	0	40	0	652214272	40	6016
2026-01-04 15:54:11.71	27.23	11.74	-33.8	-34.5	24.6	0.00e+00	0	40	0	674234368	40	6065
2026-01-04 15:54:15.75	27.50	12.10	-34.0	-34.7	24.6	0.00e+00	0	40	0	697303040	40	6183
2026-01-04 15:54:19.78	27.77	12.45	-33.6	-34.4	24.9	0.00e+00	0	40	0	719323136	40	5965
2026-01-04 15:54:23.82	28.05	12.82	-33.4	-34.1	25.3	0.00e+00	0	40	0	742391808	40	5780
2026-01-04 15:54:27.86	28.34	13.19	-33.3	-34.0	25.4	0.00e+00	0	40	0	765460480	40	5752
2026-01-04 15:54:31.90	28.63	13.56	-33.3	-34.0	25.4	0.00e+00	0	40	0	787480576	40	5726
2026-01-04 15:54:35.94	28.93	13.94	-33.0	-33.7	25.6	0.00e+00	0	40	0	810549248	40	5543
2026-01-04 15:54:39.97	29.24	14.32	-33.0	-33.7	25.8	0.00e+00	0	40	0	833617920	40	5515
2026-01-04 15:54:44.01	29.55	14.71	-32.8	-33.5	25.9	0.00e+00	0	40	0	855638016	38	6042
2026-01-04 15:54:48.05	29.88	15.11	-32.7	-33.3	26.1	0.00e+00	0	40	0	878706688	38	5936
2026-01-04 15:54:52.09	30.21	15.51	-32.6	-33.2	26.2	0.00e+00	0	40	0	901775360	38	5871
2026-01-04 15:54:56.13	30.55	15.92	-32.4	-33.0	26.3	0.00e+00	0	40	0	923795456	38	5730
2026-01-04 15:55:00.17	30.90	16.33	-32.4	-33.0	26.3	0.00e+00	0	40	0	946864128	38	5739
2026-01-04 15:55:04.21	31.26	16.75	-32.3	-32.9	26.4	0.00e+00	0	40	0	969932800	38	5678
2026-01-04 15:55:08.25	31.62	17.18	-32.1	-32.8	26.6	0.00e+00	0	40	0	991952896	38	5583
2026-01-04 15:55:12.28	32.00	17.61	-31.9	-32.5	26.8	0.00e+00	0	40	0	1015021568	38	5419
2026-01-04 15:55:16.32	32.39	18.05	-31.9	-32.5	26.8	0.00e+00	0	40	0	1038090240	36	6075
2026-01-04 15:55:20.36	32.79	18.49	-31.8	-32.5	26.8	0.00e+00	0	40	0	1060110336	36	6043
2026-01-04 15:55:24.40	33.20	18.95	-31.7	-32.3	26.9	0.00e+00	0	40	0	1083179008	36	5936
2026-01-04 15:55:28.44	33.62	19.41	-31.5	-32.2	27.0	0.00e+00	0	40	0	1106247680	36	5862
2026-01-04 15:55:32.48	34.06	19.87	-31.6	-32.2	26.9	0.00e+00	0	40	0	1128267776	36	5889
2026-01-04 15:55:36.51	34.51	20.35	-31.7	-32.3	26.9	0.00e+00	0	40	0	1151336448	36	5932
2026-01-04 15:55:40.55	34.97	20.83	-31.7	-32.4	26.9	0.00e+00	0	40	0	1174405120	36	5967
2026-01-04 15:55:44.59	35.45	21.32	-31.5	-32.1	27.1	0.00e+00	0	40	0	1196425216	36	5819
2026-01-04 15:55:48.62	35.94	21.81	-31.4	-32.0	27.1	0.00e+00	0	40	0	1219493888	36	5752
2026-01-04 15:55:52.66	36.44	22.32	-31.3	-31.9	27.2	0.00e+00	0	40	0	1242562560	36	5663
2026-01-04 15:55:56.70	36.97	22.83	-31.0	-31.7	27.5	0.00e+00	0	40	0	1264582656	36	5525
2026-01-04 15:56:00.73	37.50	23.35	-31.0	-31.6	27.6	0.00e+00	0	40	0	1287651328	36	5500
2026-01-04 15:56:04.77	38.06	23.88	-30.8	-31.4	27.7	0.00e+00	0	40	0	1310720000	36	5345
2026-01-04 15:56:08.80	38.64	24.41	-30.5	-31.1	27.9	0.00e+00	0	40	0	1332740096	34	5799
2026-01-04 15:56:12.84	39.23	24.96	-30.4	-31.1	28.0	0.00e+00	0	40	0	1355808768	34	5767
2026-01-04 15:56:16.88	39.85	25.51	-30.5	-31.2	27.9	0.00e+00	0	40	0	1378877440	34	5832
2026-01-04 15:56:20.92	40.49	26.08	-30.6	-31.2	27.8	0.00e+00	0	40	0	1400897536	34	5893
2026-01-04 15:56:24.96	41.15	26.65	-30.4	-31.0	28.0	0.00e+00	0	40	0	1423966208	34	5761
2026-01-04 15:56:29.00	41.83	27.22	-30.3	-31.0	28.1	0.00e+00	0	40	0	1447034880	34	5711
2026-01-04 15:56:33.04	42.54	27.81	-30.4	-31.1	28.0	0.00e+00	0	40	0	1469054976	34	5771
2026-01-04 15:56:37.07	43.27	28.40	-30.3	-30.9	28.1	0.00e+00	0	40	0	1492123648	34	5675
2026-01-04 15:56:41.11	44.03	29.00	-30.4	-31.0	28.1	0.00e+00	0	40	0	1515192320	34	5723
2026-01-04 15:56:45.16	44.83	29.62	-30.2	-30.8	28.2	0.00e+00	0	40	0	1537212416	34	5630
2026-01-04 15:56:49.19	45.64	30.23	-30.1	-30.8	28.3	0.00e+00	0	40	0	1560281088	34	5585
2026-01-04 15:56:53.23	46.50	30.86	-30.4	-31.1	28.1	0.00e+00	0	40	0	1583349760	34	5788
2026-01-04 15:56:57.27	47.38	31.49	-30.2	-30.8	28.3	0.00e+00	0	40	0	1605369856	34	5618
2026-01-04 15:57:01.31	48.30	32.12	-30.1	-30.7	28.3	0.00e+00	0	40	0	1628438528	34	5519
2026-01-04 15:57:05.35	49.25	32.77	-30.3	-30.9	28.2	0.00e+00	0	40	0	1651507200	34	5659
2026-01-04 15:57:09.39	50.25	33.41	-29.7	-30.3	28.5	0.00e+00	0	40	0	1673527296	34	5312
2026-01-04 15:57:13.43	51.28	34.07	-30.2	-30.8	28.2	0.00e+00	0	40	0	1696595968	32	6273
2026-01-04 15:57:17.47	52.36	34.72	-30.1	-30.7	28.3	0.00e+00	0	40	0	1719664640	32	6232
2026-01-04 15:57:21.50	53.47	35.38	-30.0	-30.6	28.3	0.00e+00	0	40	0	1741684736	32	6166
2026-01-04 15:57:25.54	54.63	36.04	-29.7	-30.4	28.5	0.00e+00	0	40	0	1764753408	32	5984
2026-01-04 15:57:29.58	55.85	36.70	-29.7	-30.3	28.7	0.00e+00	0	40	0	1787822080	32	5935
2026-01-04 15:57:33.62	57.11	37.35	-29.8	-30.4	28.5	0.00e+00	0	40	0	1809842176	32	6005
2026-01-04 15:57:37.66	58.42	38.01	-29.8	-30.3	28.4	0.00e+00	0	40	0	1832910848	32	5959
2026-01-04 15:57:41.70	59.78	38.66	-29.9	-30.5	28.4	0.00e+00	0	40	0	1855979520	32	6078
2026-01-04 15:57:45.73	61.20	39.30	-29.9	-30.5	28.3	0.00e+00	0	40	0	1877999616	32	6071
2026-01-04 15:57:49.77	62.67	39.94	-30.0	-30.6	28.2	0.00e+00	0	40	0	1901068288	32	6148
2026-01-04 15:57:53.81	64.20	40.57	-29.9	-30.6	28.4	0.00e+00	0	40	0	1923088384	32	6123
2026-01-04 15:57:57.84	65.79	41.18	-29.7	-30.2	28.6	0.00e+00	0	40	0	1946157056	32	5894
2026-01-04 15:58:01.88	67.44	41.78	-29.8	-30.4	28.5	0.00e+00	0	40	0	1969225728	32	5981
2026-01-04 15:58:05.92	69.16	42.36	-29.8	-30.4	28.6	0.00e+00	0	40	0	1992294400	32	5988
2026-01-04 15:58:09.95	70.93	42.92	-30.1	-30.7	28.3	0.00e+00	0	40	0	2014314496	32	6237
2026-01-04 15:58:13.99	72.76	43.46	-30.0	-30.7	28.3	0.00e+00	0	40	0	2037383168	32	6188
2026-01-04 15:58:18.03	74.66	43.98	-30.7	-31.3	27.9	0.00e+00	0	40	0	2060451840	34	5924
2026-01-04 15:58:22.07	76.62	44.46	-30.0	-30.6	28.4	0.00e+00	0	40	0	2082471936	34	5486
2026-01-04 15:58:26.10	78.63	44.92	-30.1	-30.7	28.2	0.00e+00	0	40	0	2105540608	34	5539
2026-01-04 15:58:30.14	80.70	45.33	-30.4	-31.1	28.1	0.00e+00	0	40	0	2127560704	34	5775
2026-01-04 15:58:34.18	82.82	45.72	-30.1	-30.6	28.3	0.00e+00	0	40	0	2150629376	34	5502
2026-01-04 15:58:38.22	85.00	46.06	-30.1	-30.7	28.3	0.00e+00	0	40	0	2173698048	34	5561
2026-01-04 15:58:42.25	87.21	46.35	-29.9	-30.5	28.5	0.00e+00	0	40	0	2195718144	34	5385
2026-01-04 15:58:46.29	89.46	46.61	-30.2	-30.8	28.2	0.00e+00	0	40	0	2218786816	34	5610
2026-01-04 15:58:50.33	91.75	46.82	-30.4	-31.0	28.1	0.00e+00	0	40	0	2241855488	34	5747
2026-01-04 15:58:54.37	94.07	46.97	-29.9	-30.5	28.5	0.00e+00	0	40	0	2264924160	34	5391
2026-01-04 15:58:58.40	96.40	47.08	-30.1	-30.7	28.3	0.00e+00	0	40	0	2286944256	34	5531
2026-01-04 15:59:02.43	98.74	47.14	-29.8	-30.5	28.4	0.00e+00	0	40	0	2310012928	34	5383
2026-01-04 15:59:06.47	101.09	47.15	-30.1	-30.7	28.3	0.00e+00	0	40	0	2332033024	34	5514
2026-01-04 15:59:10.51	103.45	47.10	-30.1	-30.7	28.2	0.00e+00	0	40	0	2355101696	34	5526
2026-01-04 15:59:14.55	105.79	47.00	-30.2	-30.7	28.0	0.00e+00	0	40	0	2378170368	34	5566
2026-01-04 15:59:18.59	108.11	46.86	-30.4	-30.9	28.1	0.00e+00	0	40	0	2400190464	34	5677
2026-01-04 15:59:22.63	110.41	46.66	-30.3	-30.9	28.3	0.00e+00	0	40	0	2423259136	34	5658
2026-01-04 15:59:26.67	112.67	46.42	-30.4	-31.0	28.1	0.00e+00	0	40	0	2446327808	34	5732
2026-01-04 15:59:30.71	114.90	46.13	-30.4	-31.0	28.1	0.00e+00	0	40	0	2468347904	34	5705
2026-01-04 15:59:34.75	117.09	45.79	-30.9	-31.6	27.6	0.00e+00	0	40	0	2491416576	34	6161
2026-01-04 15:59:38.78	119.22	45.42	-31.2	-31.8	27.4	0.00e+00	0	40	0	2514485248	34	6272
2026-01-04 15:59:42.82	121.31	45.01	-30.3	-30.8	28.3	0.00e+00	0	40	0	2536505344	34	5617
2026-01-04 15:59:46.86	123.34	44.56	-30.6	-31.3	28.1	0.00e+00	0	40	0	2559574016	34	5909
2026-01-04 15:59:50.89	125.31	44.08	-31.2	-31.7	27.6	0.00e+00	0	40	0	2582642688	34	6228
2026-01-04 15:59:54.93	127.22	43.57	-30.4	-31.1	28.1	0.00e+00	0	40	0	2604662784	34	5788
2026-01-04 15:59:58.97	129.08	43.04	-30.2	-30.8	28.3	0.00e+00	0	40	0	2627731456	34	5628
2026-01-04 16:00:03.01	130.87	42.48	-30.1	-30.7	28.4	0.00e+00	0	40	0	2650800128	34	5555
2026-01-04 16:00:07.05	132.60	41.90	-30.2	-30.7	28.3	0.00e+00	0	40	0	2672820224	34	5566
2026-01-04 16:00:11.09	134.27	41.30	-29.9	-30.4	28.5	0.00e+00	0	40	0	2695888896	34	5355
2026-01-04 16:00:15.13	135.88	40.69	-30.2	-30.9	28.3	0.00e+00	0	40	0	2718957568	34	5636
2026-01-04 16:00:19.17	137.43	40.06	-30.1	-30.6	28.4	0.00e+00	0	40	0	2740977664	34	5491
2026-01-04 16:00:23.21	138.92	39.42	-30.1	-30.6	28.5	0.00e+00	0	40	0	2764046336	34	5481
2026-01-04 16:00:27.24	140.35	38.77	-29.7	-30.4	28.7	0.00e+00	0	40	0	2787115008	32	5967
2026-01-04 16:00:31.28	141.73	38.12	-29.6	-30.3	28.7	0.00e+00	0	40	0	2809135104	32	5948
2026-01-04 16:00:35.31	143.05	37.46	-29.6	-30.3	28.7	0.00e+00	0	40	0	2832203776	32	5922
2026-01-04 16:00:39.35	144.33	36.80	-29.9	-30.7	28.2	0.00e+00	0	40	0	2855272448	32	6174
2026-01-04 16:00:43.39	145.55	36.14	-29.8	-30.3	28.4	0.00e+00	0	40	0	2877292544	32	5959
2026-01-04 16:00:47.43	146.73	35.48	-29.7	-30.4	28.3	0.00e+00	0	40	0	2900361216	32	5973
2026-01-04 16:00:51.46	147.85	34.82	-29.9	-30.6	28.4	0.00e+00	0	40	0	2923429888	32	6141
2026-01-04 16:00:55.50	148.94	34.16	-30.1	-30.8	28.3	0.00e+00	0	40	0	2945449984	32	6310
2026-01-04 16:00:59.54	149.98	33.50	-30.1	-30.7	28.3	0.00e+00	0	40	0	2968518656	32	6175
2026-01-04 16:01:03.58	150.99	32.85	-30.0	-30.6	28.3	0.00e+00	0	40	0	2991587328	32	6140
2026-01-04 16:01:07.62	151.95	32.20	-30.0	-30.7	28.2	0.00e+00	0	40	0	3013607424	32	6215
2026-01-04 16:01:11.65	152.88	31.56	-30.1	-30.6	28.2	0.00e+00	0	40	0	3036676096	32	6135
2026-01-04 16:01:15.69	153.77	30.93	-30.0	-30.7	28.3	0.00e+00	0	40	0	3059744768	32	6237
2026-01-04 16:01:19.72	154.63	30.30	-30.0	-30.7	28.3	0.00e+00	0	40	0	3081764864	32	6177
2026-01-04 16:01:23.76	155.46	29.68	-30.3	-30.8	28.0	0.00e+00	0	40	0	3104833536	32	6301
2026-01-04 16:01:27.80	156.26	29.06	-30.6	-31.4	27.8	0.00e+00	0	40	0	3126853632	32	6702
2026-01-04 16:01:31.84	157.03	28.45	-30.5	-31.1	28.1	0.00e+00	0	40	0	3149922304	34	5826
2026-01-04 16:01:35.87	157.77	27.86	-30.1	-30.7	28.2	0.00e+00	0	40	0	3172990976	34	5525
2026-01-04 16:01:39.91	158.48	27.27	-30.1	-30.7	28.2	0.00e+00	0	40	0	3195011072	34	5515
2026-01-04 16:01:43.95	159.17	26.68	-30.3	-31.0	28.1	0.00e+00	0	40	0	3218079744	34	5719
2026-01-04 16:01:47.99	159.84	26.11	-30.5	-31.2	27.9	0.00e+00	0	40	0	3241148416	34	5854
2026-01-04 16:01:52.03	160.48	25.54	-30.3	-30.9	28.0	0.00e+00	0	40	0	3264217088	34	5657
2026-01-04 16:01:56.07	161.10	24.98	-30.5	-31.1	27.9	0.00e+00	0	40	0	3286237184	34	5772
2026-01-04 16:02:00.10	161.70	24.43	-30.5	-31.1	27.9	0.00e+00	0	40	0	3309305856	34	5766
2026-01-04 16:02:04.14	162.28	23.89	-30.6	-31.2	27.8	0.00e+00	0	40	0	3331325952	34	5851
2026-01-04 16:02:08.18	162.84	23.36	-30.8	-31.4	27.7	0.00e+00	0	40	0	3354394624	34	5983
2026-01-04 16:02:12.22	163.38	22.83	-31.0	-31.7	27.5	0.00e+00	0	40	0	3377463296	34	6208
2026-01-04 16:02:16.25	163.91	22.32	-31.1	-31.8	27.4	0.00e+00	0	40	0	3399483392	34	6273
2026-01-04 16:02:20.29	164.42	21.81	-31.8	-32.5	26.9	0.00e+00	0	40	0	3422552064	34	6835
2026-01-04 16:02:24.33	164.91	21.31	-31.2	-31.8	27.3	0.00e+00	0	40	0	3445620736	36	5592
2026-01-04 16:02:28.37	165.39	20.81	-31.3	-31.9	27.2	0.00e+00	0	40	0	3468689408	36	5640
2026-01-04 16:02:32.40	165.85	20.33	-31.3	-32.1	27.2	0.00e+00	0	40	0	3490709504	36	5762
2026-01-04 16:02:36.44	166.30	19.85	-31.5	-32.2	27.0	0.00e+00	0	40	0	3513778176	36	5880
2026-01-04 16:02:40.48	166.74	19.38	-31.6	-32.2	26.9	0.00e+00	0	40	0	3535798272	36	5868
2026-01-04 16:02:44.52	167.17	18.92	-31.6	-32.3	27.0	0.00e+00	0	40	0	3558866944	36	5940
2026-01-04 16:02:48.56	167.58	18.46	-31.7	-32.3	26.8	0.00e+00	0	40	0	3581935616	36	5911
2026-01-04 16:02:52.60	167.98	18.01	-31.8	-32.4	26.7	0.00e+00	0	40	0	3603955712	36	6004
2026-01-04 16:02:56.64	168.37	17.57	-32.1	-32.9	26.5	0.00e+00	0	40	0	3627024384	36	6339
2026-01-04 16:03:00.67	168.75	17.13	-32.1	-32.9	26.4	0.00e+00	0	40	0	3650093056	36	6336
2026-01-04 16:03:04.70	169.12	16.70	-32.3	-32.9	26.4	0.00e+00	0	40	0	3672113152	36	6344
2026-01-04 16:03:08.75	169.48	16.28	-32.3	-33.1	26.3	0.00e+00	0	40	0	3695181824	36	6466
2026-01-04 16:03:12.79	169.82	15.86	-32.6	-33.2	26.0	0.00e+00	0	40	0	3718250496	36	6548
2026-01-04 16:03:16.83	170.17	15.45	-32.8	-33.5	25.8	0.00e+00	0	40	0	3740270592	38	6074
2026-01-04 16:03:20.86	170.50	15.05	-32.9	-33.7	25.7	0.00e+00	0	40	0	3763339264	38	6192
2026-01-04 16:03:24.90	170.82	14.65	-33.1	-33.8	25.6	0.00e+00	0	40	0	3786407936	38	6294
2026-01-04 16:03:28.93	171.13	14.26	-33.2	-33.8	25.4	0.00e+00	0	40	0	3808428032	38	6257
2026-01-04 16:03:32.97	171.44	13.87	-33.3	-33.9	25.4	0.00e+00	0	40	0	3831496704	38	6329
2026-01-04 16:03:37.01	171.74	13.49	-33.3	-33.9	25.3	0.00e+00	0	40	0	3854565376	38	6338
2026-01-04 16:03:41.05	172.03	13.11	-33.6	-34.4	25.0	0.00e+00	0	40	0	3876585472	38	6707
2026-01-04 16:03:45.08	172.32	12.74	-33.4	-34.0	25.1	0.00e+00	0	40	0	3899654144	40	5757
2026-01-04 16:03:49.12	172.60	12.37	-33.6	-34.2	25.0	0.00e+00	0	40	0	3922722816	40	5852
2026-01-04 16:03:53.16	172.87	12.01	-33.6	-34.3	24.9	0.00e+00	0	40	0	3944742912	40	5905
2026-01-04 16:03:57.19	173.14	11.66	-33.5	-34.3	24.9	0.00e+00	0	40	0	3967811584	40	5931
2026-01-04 16:04:01.22	173.40	11.30	-33.6	-34.2	24.9	0.00e+00	0	40	0	3990880256	40	5879
2026-01-04 16:04:05.26	173.65	10.96	-33.7	-34.4	24.8	0.00e+00	0	40	0	4012900352	40	6008
2026-01-04 16:04:09.30	173.90	10.61	-33.6	-34.2	24.8	0.00e+00	0	40	0	4035969024	40	5896
2026-01-04 16:04:13.33	174.14	10.27	-33.7	-34.3	24.8	0.00e+00	0	40	0	4059037696	40	5943
2026-01-04 16:04:17.37	174.38	9.94	-33.9	-34.7	24.6	0.00e+00	0	40	0	4081057792	40	6184
2026-01-04 16:04:21.40	174.62	9.61	-34.0	-34.7	24.5	0.00e+00	0	40	0	4104126464	40	6240
2026-01-04 16:04:25.44	174.84	9.28	-34.1	-34.7	24.5	0.00e+00	0	40	0	4126146560	40	6191
2026-01-04 16:04:29.48	175.07	8.96	-34.2	-34.9	24.3	0.00e+00	0	40	0	4149215232	40	6376
2026-01-04 16:04:33.51	175.29	8.64	-34.3	-35.1	24.2	0.00e+00	0	40	0	4172283904	40	6508
2026-01-04 16:04:37.55	175.50	8.32	-34.3	-34.9	24.2	0.00e+00	0	40	0	4194304000	40	6364
2026-01-04 16:04:41.58	175.71	8.01	-34.7	-35.4	23.8	0.00e+00	0	40	0	4217372672	40	6723
2026-01-04 16:04:45.62	175.92	7.70	-34.7	-35.4	23.8	0.00e+00	0	40	0	4240441344	42	5966
2026-01-04 16:04:49.66	176.12	7.40	-34.6	-35.4	23.8	0.00e+00	0	40	0	4262461440	42	5971
2026-01-04 16:04:53.69	176.32	7.10	-34.6	-35.3	23.8	0.00e+00	0	40	0	4285530112	42	5926
2026-01-04 16:04:57.73	176.52	6.80	-34.8	-35.7	23.6	0.00e+00	0	40	0	4308598784	42	6176
2026-01-04 16:05:01.77	176.71	6.50	-35.2	-36.0	23.2	0.00e+00	0	40	0	4330618880	42	6454
2026-01-04 16:05:05.80	176.89	6.21	-35.1	-35.9	23.2	0.00e+00	0	40	0	4353687552	42	6366
2026-01-04 16:05:09.84	177.08	5.92	-35.1	-35.7	23.3	0.00e+00	0	40	0	4376756224	42	6229
2026-01-04 16:05:13.88	177.26	5.64	-35.5	-36.2	22.9	0.00e+00	0	40	0	4398776320	42	6563
2026-01-04 16:05:17.92	177.44	5.35	-35.6	-36.2	22.4	0.00e+00	0	40	0	4421844992	44	5893
2026-01-04 16:05:21.96	177.61	5.07	-36.5	-37.2	21.8	0.00e+00	0	40	0	4444913664	44	6586
2026-01-04 16:05:25.99	177.78	4.80	-37.2	-38.0	21.0	0.00e+00	0	40	0	4466933760	46	6439
2026-01-04 16:05:30.03	177.95	4.52	-36.6	-37.3	21.7	0.00e+00	0	40	0	4490002432	46	5959
2026-01-04 16:05:34.06	178.12	4.25	-36.3	-37.0	22.0	0.00e+00	0	40	0	4512022528	46	5744
2026-01-04 16:05:38.10	178.28	3.98	-36.1	-37.0	21.9	0.00e+00	0	40	0	4535091200	44	6441
2026-01-04 16:05:42.14	178.44	3.71	-36.4	-37.3	21.6	0.00e+00	0	40	0	4558159872	44	6648
2026-01-04 16:05:46.18	178.60	3.45	-35.9	-36.8	22.0	0.00e+00	0	40	0	4581228544	46	5575
2026-01-04 16:05:50.22	178.75	3.18	-36.1	-36.9	21.8	0.00e+00	0	40	0	4603248640	46	5647
2026-01-04 16:05:54.25	178.90	2.92	-48.4	-60.5	3.6	8.46e-01	0	40	104	4622123008	60	38384
2026-01-04 16:05:58.29	179.05	2.67	-49.0	-61.1	3.6	8.46e-01	0	40	104	4622123008	60	41246
2026-01-04 16:06:02.33	179.20	2.41	-49.2	-61.3	3.6	8.45e-01	0	40	104	4622123008	60	41908
2026-01-04 16:06:06.37	179.35	2.16	-49.1	-61.2	3.6	8.46e-01	0	40	104	4622123008	60	41602
2026-01-04 16:06:10.41	179.49	1.91	-49.1	-61.2	3.6	8.46e-01	0	40	104	4622123008	60	41607
2026-01-04 16:06:14.45	179.63	1.66	-49.1	-61.2	3.6	8.46e-01	0	40	104	4622123008	60	41629
2026-01-04 16:06:18.49	179.77	1.41	-49.2	-61.3	3.6	8.44e-01	0	40	104	4622123008	60	41968
2026-01-04 16:06:22.53	179.91	1.16	-49.1	-61.3	3.6	8.46e-01	0	40	104	4622123008	60	41840
2026-01-04 16:06:26.57	180.04	0.92	-49.2	-61.4	3.6	8.46e-01	0	40	104	4622123008	60	42290
2026-01-04 16:06:30.60	180.17	0.68	-49.2	-61.3	3.6	8.46e-01	0	40	104	4622123008	60	41894
2026-01-04 16:06:34.64	180.30	0.44	-49.2	-61.3	3.6	8.45e-01	0	40	104	4622123008	60	42142
2026-01-04 16:06:38.68	180.43	0.20	-49.3	-61.5	3.6	8.45e-01	0	40	104	4622123008	60	42730
2026-01-04 16:06:42.72	180.56	-0.03	-49.3	-61.4	3.6	8.45e-01	0	40	104	4622123008	60	42604

#Closed at: 2026-01-04 16:06:43
#Recorded file [4622 MB]: D:/lorett/data/35029_260105_035126.dat