passes_logs/2026/01/04/R4.6S_Anadyr/R4.6S_Anadyr__20260104_145034_SUOMI_NPP_rec.log

#Pass ID: 20260104_145034_SUOMI NPP
#Satellite: SUOMI NPP
#Configuration: NPP
#almurnet v.1.7.20251203
#Start time: 2026-01-04 14:50:35

#Version: 2.2.20231116
#Station: R4.6S_Anadyr
#Location: 177.4865 lon 64.73178 lat
#TLE: 1 37849U 11061A   26001.07732418  .00000182  00000+0  10735-3 0  9990
#TLE: 2 37849  98.7795 303.2470 0002580  87.2016 272.9455 14.19520779734739

#Time	Az	El	Level	Level2	SNR	BER	BlckErr	Temp	State	Recorded	gain1	gain2
2026-01-04 14:50:35.75	20.65	0.07	-51.1	-63.7	3.4	1.52e+00	0	37	0	0	60	53793
2026-01-04 14:50:39.79	20.66	0.31	-49.8	-65.0	3.6	1.51e+00	0	38	104	0	60	64063
2026-01-04 14:50:43.83	20.67	0.56	-49.5	-64.7	3.6	1.51e+00	0	38	104	0	60	62450
2026-01-04 14:50:47.86	20.69	0.80	-49.0	-64.2	3.6	1.51e+00	0	38	104	0	60	58325
2026-01-04 14:50:51.90	20.70	1.05	-48.1	-63.3	3.6	1.51e+00	0	38	104	0	60	52585
2026-01-04 14:50:55.95	20.71	1.30	-48.0	-63.3	3.6	1.51e+00	0	38	104	0	60	52584
2026-01-04 14:50:59.99	20.73	1.56	-48.0	-63.1	3.6	1.51e+00	0	38	104	0	60	51757
2026-01-04 14:51:04.03	20.74	1.81	-48.0	-63.2	3.6	1.51e+00	0	38	104	0	60	52122
2026-01-04 14:51:08.06	20.75	2.07	-48.0	-63.2	3.6	1.51e+00	0	38	104	0	60	52218
2026-01-04 14:51:12.10	20.76	2.33	-48.0	-62.7	3.6	1.51e+00	0	38	104	0	60	49595
2026-01-04 14:51:16.14	20.78	2.59	-48.0	-62.0	3.6	1.51e+00	0	38	104	0	60	45750
2026-01-04 14:51:20.18	20.79	2.85	-47.9	-60.3	3.9	1.49e+00	0	38	104	0	60	37542
2026-01-04 14:51:24.22	20.80	3.12	-46.8	-52.4	9.1	2.68e-02	24	38	0	6291456	60	15086
2026-01-04 14:51:28.26	20.81	3.39	-45.4	-49.1	13.1	3.96e-05	32	39	0	13631488	60	10319
2026-01-04 14:51:32.29	20.82	3.66	-45.7	-49.7	12.3	7.78e-05	0	39	0	22020096	60	10984
2026-01-04 14:51:36.33	20.83	3.94	-48.0	-60.9	3.9	1.30e+00	0	39	104	28311552	60	40061
2026-01-04 14:51:40.37	20.85	4.21	-44.3	-47.0	15.2	0.00e+00	0	39	0	29360128	60	8096
2026-01-04 14:51:44.41	20.86	4.49	-43.5	-45.7	16.7	0.00e+00	0	39	0	36700160	60	6976
2026-01-04 14:51:48.44	20.87	4.78	-43.3	-45.4	16.9	0.00e+00	0	39	0	44040192	58	7561
2026-01-04 14:51:52.48	20.88	5.06	-43.0	-45.0	17.4	0.00e+00	75	39	0	51380224	58	7190
2026-01-04 14:51:56.52	20.89	5.35	-43.1	-45.1	17.4	0.00e+00	0	39	0	59768832	58	7297
2026-01-04 14:52:00.56	20.90	5.65	-42.7	-44.5	18.1	0.00e+00	0	39	0	67108864	58	6781
2026-01-04 14:52:04.60	20.91	5.94	-42.3	-43.9	18.5	0.00e+00	3	39	0	74448896	58	6371
2026-01-04 14:52:08.64	20.92	6.24	-42.4	-44.1	18.5	0.00e+00	47	39	0	81788928	58	6470
2026-01-04 14:52:12.68	20.93	6.55	-42.4	-44.0	18.4	0.00e+00	0	39	0	89128960	58	6464
2026-01-04 14:52:16.72	20.94	6.85	-42.3	-44.0	18.6	0.00e+00	0	39	0	97517568	58	6392
2026-01-04 14:52:20.75	20.95	7.16	-42.0	-43.5	18.7	0.00e+00	36	39	0	104857600	58	6100
2026-01-04 14:52:24.79	20.96	7.48	-42.3	-44.0	18.6	0.00e+00	0	39	0	112197632	58	6440
2026-01-04 14:52:28.83	20.97	7.79	-42.1	-43.7	18.8	0.00e+00	0	39	0	119537664	58	6210
2026-01-04 14:52:32.87	20.98	8.12	-42.0	-43.5	19.1	0.00e+00	0	39	0	127926272	58	6086
2026-01-04 14:52:36.91	20.99	8.44	-42.1	-43.7	19.1	0.00e+00	55	39	0	135266304	56	6947
2026-01-04 14:52:40.94	21.00	8.77	-41.8	-43.3	19.4	0.00e+00	0	39	0	142606336	56	6628
2026-01-04 14:52:44.99	21.01	9.11	-41.6	-43.1	19.5	0.00e+00	0	39	0	149946368	56	6492
2026-01-04 14:52:49.03	21.02	9.45	-41.7	-43.1	19.4	0.00e+00	33	39	0	157286400	56	6535
2026-01-04 14:52:53.06	21.03	9.79	-41.6	-43.0	19.7	0.00e+00	86	39	0	165675008	56	6449
2026-01-04 14:52:57.10	21.04	10.14	-41.2	-42.5	20.0	0.00e+00	0	39	0	173015040	56	6102
2026-01-04 14:53:01.13	21.05	10.49	-41.3	-42.7	20.1	0.00e+00	0	39	0	180355072	56	6192
2026-01-04 14:53:05.17	21.05	10.85	-40.8	-42.1	20.6	0.00e+00	0	39	0	187695104	56	5772
2026-01-04 14:53:09.21	21.06	11.22	-40.8	-42.1	20.5	0.00e+00	79	39	0	195035136	54	6479
2026-01-04 14:53:13.25	21.07	11.59	-40.6	-41.8	20.9	0.00e+00	0	39	0	203423744	54	6277
2026-01-04 14:53:17.29	21.08	11.96	-40.3	-41.5	21.1	0.00e+00	0	39	0	210763776	54	6067
2026-01-04 14:53:21.32	21.08	12.35	-40.2	-41.3	21.3	0.00e+00	53	39	0	218103808	54	5956
2026-01-04 14:53:25.36	21.09	12.73	-40.0	-41.2	21.5	0.00e+00	0	39	0	225443840	54	5835
2026-01-04 14:53:29.40	21.10	13.13	-39.9	-41.1	21.6	0.00e+00	0	39	0	233832448	54	5775
2026-01-04 14:53:33.44	21.10	13.53	-39.6	-40.6	21.9	0.00e+00	0	39	0	241172480	52	6142
2026-01-04 14:53:37.47	21.11	13.94	-39.4	-40.4	22.2	0.00e+00	67	39	0	248512512	52	6013
2026-01-04 14:53:41.51	21.11	14.35	-39.5	-40.6	22.0	0.00e+00	0	39	0	255852544	52	6119
2026-01-04 14:53:45.55	21.12	14.77	-39.1	-40.1	22.4	0.00e+00	0	39	0	263192576	52	5784
2026-01-04 14:53:49.59	21.12	15.20	-38.9	-39.9	22.6	0.00e+00	41	39	0	271581184	50	6340
2026-01-04 14:53:53.62	21.13	15.64	-38.9	-39.9	22.5	0.00e+00	63	39	0	278921216	50	6344
2026-01-04 14:53:57.66	21.13	16.08	-38.7	-39.7	22.3	0.00e+00	0	39	0	286261248	50	6211
2026-01-04 14:54:01.70	21.14	16.53	-38.7	-39.7	22.6	0.00e+00	0	39	0	293601280	50	6236
2026-01-04 14:54:05.73	21.14	17.00	-38.8	-39.8	22.8	0.00e+00	55	39	0	301989888	50	6261
2026-01-04 14:54:09.76	21.14	17.46	-38.6	-39.6	22.9	0.00e+00	0	39	0	309329920	50	6105
2026-01-04 14:54:13.80	21.14	17.94	-38.6	-39.6	23.0	0.00e+00	0	39	0	316669952	50	6113
2026-01-04 14:54:17.83	21.15	18.43	-38.6	-39.6	22.9	0.00e+00	0	39	0	324009984	50	6112
2026-01-04 14:54:21.87	21.15	18.93	-38.7	-39.7	22.9	0.00e+00	49	39	0	331350016	50	6184
2026-01-04 14:54:25.91	21.15	19.44	-38.9	-39.9	22.7	0.00e+00	0	39	0	339738624	50	6343
2026-01-04 14:54:29.94	21.15	19.96	-38.9	-40.0	22.7	0.00e+00	0	39	0	347078656	50	6404
2026-01-04 14:54:33.98	21.15	20.49	-38.6	-39.6	22.9	0.00e+00	0	39	0	354418688	50	6163
2026-01-04 14:54:38.02	21.15	21.04	-38.6	-39.6	22.9	0.00e+00	92	39	0	361758720	50	6125
2026-01-04 14:54:42.06	21.15	21.59	-38.8	-39.8	22.8	0.00e+00	0	39	0	369098752	50	6307
2026-01-04 14:54:46.10	21.14	22.16	-39.0	-40.0	22.7	0.00e+00	0	39	0	377487360	50	6454
2026-01-04 14:54:50.14	21.14	22.74	-38.9	-40.0	22.7	0.00e+00	16	39	0	384827392	50	6396
2026-01-04 14:54:54.18	21.14	23.33	-39.0	-40.0	22.7	0.00e+00	90	39	0	392167424	50	6454
2026-01-04 14:54:58.21	21.13	23.94	-38.8	-39.8	22.8	0.00e+00	0	39	0	399507456	50	6265
2026-01-04 14:55:02.25	21.13	24.56	-38.9	-39.8	22.8	0.00e+00	32	39	0	407896064	50	6311
2026-01-04 14:55:06.29	21.12	25.20	-38.5	-39.5	23.1	0.00e+00	34	39	0	415236096	50	6050
2026-01-04 14:55:10.33	21.11	25.85	-38.3	-39.2	23.3	0.00e+00	0	39	0	422576128	50	5870
2026-01-04 14:55:14.36	21.11	26.52	-38.9	-39.8	22.8	0.00e+00	0	39	0	429916160	50	6292
2026-01-04 14:55:18.40	21.10	27.21	-38.7	-39.6	23.0	0.00e+00	0	39	0	437256192	50	6139
2026-01-04 14:55:22.44	21.09	27.91	-39.0	-40.0	22.6	0.00e+00	91	39	0	445644800	50	6411
2026-01-04 14:55:26.48	21.08	28.64	-39.9	-41.0	21.9	0.00e+00	0	39	0	452984832	52	6435
2026-01-04 14:55:30.52	21.06	29.38	-40.8	-42.0	20.8	0.00e+00	0	39	0	460324864	54	6420
2026-01-04 14:55:34.56	21.05	30.14	-40.6	-41.8	21.1	0.00e+00	0	39	0	467664896	54	6291
2026-01-04 14:55:38.60	21.03	30.92	-41.3	-42.7	20.4	0.00e+00	92	39	0	476053504	54	6931
2026-01-04 14:55:42.63	21.02	31.73	-41.2	-42.6	20.8	0.00e+00	0	39	0	483393536	54	6853
2026-01-04 14:55:46.67	21.00	32.56	-40.7	-41.9	21.4	0.00e+00	0	39	0	490733568	54	6319
2026-01-04 14:55:50.71	20.98	33.41	-40.9	-42.1	20.9	0.00e+00	53	39	0	498073600	54	6528
2026-01-04 14:55:54.75	20.95	34.28	-39.3	-40.3	22.5	0.00e+00	0	39	0	505413632	52	5943
2026-01-04 14:55:58.78	20.93	35.18	-38.8	-39.7	22.9	0.00e+00	0	39	0	513802240	50	6229
2026-01-04 14:56:02.82	20.90	36.11	-37.5	-38.4	24.0	0.00e+00	0	39	0	521142272	50	5324
2026-01-04 14:56:06.86	20.87	37.07	-37.3	-38.2	24.1	0.00e+00	91	39	0	528482304	48	5851
2026-01-04 14:56:10.89	20.84	38.05	-37.6	-38.5	23.9	0.00e+00	0	39	0	535822336	48	6037
2026-01-04 14:56:14.93	20.80	39.06	-37.1	-37.9	24.3	0.00e+00	0	39	0	544210944	48	5640
2026-01-04 14:56:18.96	20.76	40.11	-37.8	-38.8	23.7	0.00e+00	0	39	0	551550976	48	6253
2026-01-04 14:56:23.00	20.72	41.18	-37.4	-38.3	23.8	0.00e+00	92	39	0	558891008	48	5927
2026-01-04 14:56:27.03	20.67	42.29	-37.7	-38.6	23.8	0.00e+00	0	39	0	566231040	48	6169
2026-01-04 14:56:31.07	20.62	43.43	-38.1	-39.0	23.5	0.00e+00	0	39	0	573571072	48	6455
2026-01-04 14:56:35.11	20.56	44.61	-38.5	-39.4	23.3	0.00e+00	34	39	0	581959680	48	6719
2026-01-04 14:56:39.15	20.50	45.83	-40.4	-41.5	21.7	0.00e+00	92	39	0	589299712	52	6821
2026-01-04 14:56:43.18	20.43	47.08	-39.8	-40.9	22.2	0.00e+00	26	39	0	596639744	54	5678
2026-01-04 14:56:47.22	20.36	48.37	-41.0	-42.3	20.4	0.00e+00	0	39	0	603979776	54	6627
2026-01-04 14:56:51.26	20.27	49.70	-39.8	-41.0	22.2	0.00e+00	21	39	0	611319808	52	6393
2026-01-04 14:56:55.29	20.18	51.07	-38.0	-38.9	23.6	0.00e+00	0	39	0	619708416	50	5676
2026-01-04 14:56:59.33	20.07	52.48	-38.1	-39.0	23.6	0.00e+00	0	39	0	627048448	48	6450
2026-01-04 14:57:03.37	19.96	53.94	-36.1	-36.8	25.0	0.00e+00	0	39	0	634388480	46	5617
2026-01-04 14:57:07.41	19.83	55.44	-37.3	-38.2	24.0	0.00e+00	62	39	0	641728512	46	6572
2026-01-04 14:57:11.44	19.68	56.97	-37.4	-38.3	24.1	0.00e+00	0	39	0	650117120	46	6660
2026-01-04 14:57:15.48	19.51	58.56	-38.4	-39.3	23.3	0.00e+00	0	39	0	657457152	48	6682
2026-01-04 14:57:19.52	19.32	60.18	-38.9	-39.9	22.7	0.00e+00	0	39	0	664797184	50	6341
2026-01-04 14:57:23.56	19.10	61.85	-37.4	-38.2	24.1	0.00e+00	90	39	0	672137216	48	5851
2026-01-04 14:57:27.60	18.85	63.57	-35.4	-36.2	25.4	0.00e+00	0	39	0	679477248	44	5833
2026-01-04 14:57:31.64	18.55	65.32	-36.8	-37.6	24.5	0.00e+00	0	39	0	687865856	46	6164
2026-01-04 14:57:35.68	18.20	67.11	-38.7	-39.7	23.0	0.00e+00	64	39	0	695205888	48	6965
2026-01-04 14:57:39.72	17.78	68.94	-40.7	-41.9	21.2	0.00e+00	0	39	0	702545920	52	7111
2026-01-04 14:57:43.76	17.27	70.81	-43.6	-45.5	18.0	0.00e+00	0	39	0	709885952	60	6792
2026-01-04 14:57:47.80	16.64	72.71	-42.5	-44.1	19.1	0.00e+00	0	39	0	718274560	58	6497
2026-01-04 14:57:51.83	15.84	74.64	-40.2	-41.4	21.6	0.00e+00	57	39	0	725614592	54	5987
2026-01-04 14:57:55.87	14.78	76.59	-42.4	-43.9	19.4	0.00e+00	0	39	0	732954624	56	7140
2026-01-04 14:57:59.91	13.35	78.57	-44.5	-46.8	16.3	0.00e+00	0	39	0	740294656	60	7943
2026-01-04 14:58:03.95	11.29	80.56	-39.7	-40.7	22.2	0.00e+00	0	39	0	747634688	54	5504
2026-01-04 14:58:07.98	8.11	82.55	-39.6	-40.6	22.1	0.00e+00	60	39	0	756023296	52	6156
2026-01-04 14:58:12.02	2.58	84.51	-37.6	-38.5	24.1	0.00e+00	0	39	0	763363328	48	6037
2026-01-04 14:58:16.06	351.07	86.38	-37.6	-38.5	23.8	0.00e+00	0	39	0	770703360	48	6035
2026-01-04 14:58:20.09	320.55	87.84	-44.4	-46.8	16.8	0.00e+00	0	39	0	778043392	60	7909
2026-01-04 14:58:24.13	263.46	87.80	-39.5	-40.5	22.6	0.00e+00	48	39	0	786432000	52	6072
2026-01-04 14:58:28.17	234.13	86.31	-38.8	-39.7	22.0	0.00e+00	0	39	0	793772032	52	5527
2026-01-04 14:58:32.21	223.02	84.43	-38.1	-39.0	23.8	0.00e+00	0	39	0	801112064	50	5755
2026-01-04 14:58:36.24	217.64	82.47	-37.6	-38.5	24.0	0.00e+00	73	39	0	808452096	46	6781
2026-01-04 14:58:40.28	214.51	80.47	-38.7	-39.6	23.0	0.00e+00	0	39	0	815792128	50	6165
2026-01-04 14:58:44.32	212.49	78.48	-40.0	-41.2	21.9	0.00e+00	0	39	0	824180736	52	6540
2026-01-04 14:58:48.35	211.07	76.51	-37.7	-38.6	23.9	0.00e+00	0	39	0	831520768	48	6125
2026-01-04 14:58:52.39	210.03	74.55	-38.5	-39.4	23.3	0.00e+00	92	39	0	838860800	50	5984
2026-01-04 14:58:56.43	209.24	72.62	-40.5	-41.6	21.4	0.00e+00	0	39	0	846200832	52	6922
2026-01-04 14:59:00.47	208.61	70.71	-43.3	-45.2	18.3	0.00e+00	0	39	0	854589440	60	6552
2026-01-04 14:59:04.50	208.10	68.85	-41.7	-43.0	20.2	0.00e+00	0	39	0	861929472	56	6426
2026-01-04 14:59:08.54	207.68	67.02	-40.7	-41.9	21.1	0.00e+00	54	39	0	869269504	54	6350
2026-01-04 14:59:12.58	207.34	65.22	-37.9	-38.8	24.0	0.00e+00	0	39	0	876609536	50	5597
2026-01-04 14:59:16.62	207.04	63.47	-38.1	-39.0	23.5	0.00e+00	0	39	0	883949568	50	5739
2026-01-04 14:59:20.66	206.79	61.75	-36.3	-37.1	25.1	0.00e+00	33	39	0	892338176	46	5791
2026-01-04 14:59:24.70	206.57	60.08	-38.8	-39.8	22.9	0.00e+00	0	39	0	899678208	52	5621
2026-01-04 14:59:28.73	206.38	58.46	-38.8	-39.8	22.9	0.00e+00	0	39	0	907018240	50	6257
2026-01-04 14:59:32.77	206.21	56.87	-37.0	-37.8	24.4	0.00e+00	0	39	0	914358272	48	5612
2026-01-04 14:59:36.81	206.07	55.33	-35.7	-36.5	25.3	0.00e+00	55	39	0	921698304	44	6058
2026-01-04 14:59:40.85	205.94	53.83	-38.3	-39.2	23.3	0.00e+00	0	39	0	930086912	48	6608
2026-01-04 14:59:44.88	205.82	52.38	-39.9	-41.1	21.9	0.00e+00	0	39	0	937426944	52	6487
2026-01-04 14:59:48.92	205.71	50.96	-40.6	-41.9	21.5	0.00e+00	0	39	0	944766976	54	6336
2026-01-04 14:59:52.96	205.62	49.59	-40.9	-42.2	21.3	0.00e+00	59	39	0	952107008	54	6596
2026-01-04 14:59:57.00	205.54	48.25	-44.0	-46.3	18.0	0.00e+00	0	39	0	960495616	60	7467
2026-01-04 15:00:01.04	205.46	46.96	-38.7	-39.6	23.1	0.00e+00	0	39	0	967835648	50	6148
2026-01-04 15:00:05.09	205.39	45.70	-41.7	-43.1	20.3	0.00e+00	19	39	0	975175680	56	6515
2026-01-04 15:00:09.13	205.33	44.49	-42.8	-44.7	18.8	0.00e+00	47	39	0	982515712	58	6940
2026-01-04 15:00:13.17	205.27	43.30	-39.7	-40.8	22.0	0.00e+00	0	39	0	990904320	52	6261
2026-01-04 15:00:17.21	205.22	42.16	-41.1	-42.5	20.5	0.00e+00	33	39	0	998244352	54	6832
2026-01-04 15:00:21.24	205.17	41.05	-40.6	-41.8	21.5	0.00e+00	57	39	0	1005584384	54	6282
2026-01-04 15:00:25.28	205.12	39.97	-38.9	-39.8	23.0	0.00e+00	0	39	0	1012924416	52	5623
2026-01-04 15:00:29.32	205.08	38.93	-41.6	-43.0	20.2	0.00e+00	0	39	0	1020264448	54	7242
2026-01-04 15:00:33.36	205.05	37.91	-42.1	-43.6	19.6	0.00e+00	0	40	0	1028653056	56	6916
2026-01-04 15:00:37.39	205.01	36.93	-39.7	-40.9	22.1	0.00e+00	80	39	0	1035993088	52	6323
2026-01-04 15:00:41.42	204.98	35.97	-39.5	-40.6	22.5	0.00e+00	0	39	0	1043333120	52	6120
2026-01-04 15:00:45.46	204.95	35.04	-40.9	-42.2	20.8	0.00e+00	0	39	0	1050673152	52	7397
2026-01-04 15:00:49.50	204.93	34.14	-45.6	-48.7	14.2	0.00e+00	0	39	0	1058013184	60	9824
2026-01-04 15:00:53.53	204.90	33.27	-42.8	-44.5	18.9	0.00e+00	92	39	0	1066401792	60	6077
2026-01-04 15:00:57.56	204.88	32.42	-39.9	-40.9	22.1	0.00e+00	0	39	0	1073741824	52	6390
2026-01-04 15:01:01.60	204.86	31.59	-41.2	-42.4	20.7	0.00e+00	0	39	0	1081081856	54	6767
2026-01-04 15:01:05.64	204.84	30.78	-40.6	-41.8	21.2	0.00e+00	50	39	0	1088421888	54	6279
2026-01-04 15:01:09.68	204.82	30.00	-41.0	-42.2	20.8	0.00e+00	0	39	0	1096810496	54	6574
2026-01-04 15:01:13.71	204.81	29.23	-43.3	-45.1	18.3	0.00e+00	0	39	0	1104150528	58	7328
2026-01-04 15:01:17.75	204.79	28.49	-40.6	-41.8	21.2	0.00e+00	0	39	0	1111490560	54	6275
2026-01-04 15:01:21.79	204.78	27.77	-38.3	-39.3	23.3	0.00e+00	51	39	0	1118830592	50	5916
2026-01-04 15:01:25.82	204.77	27.06	-37.7	-38.5	23.9	0.00e+00	0	39	0	1126170624	48	6084
2026-01-04 15:01:29.86	204.76	26.37	-37.7	-38.6	23.7	0.00e+00	0	39	0	1134559232	48	6140
2026-01-04 15:01:33.89	204.75	25.70	-38.4	-39.3	23.2	0.00e+00	0	39	0	1141899264	48	6647
2026-01-04 15:01:37.93	204.74	25.05	-38.6	-39.6	22.8	0.00e+00	90	39	0	1149239296	50	6123
2026-01-04 15:01:41.97	204.73	24.41	-38.0	-39.0	23.3	0.00e+00	0	39	0	1156579328	50	5711
2026-01-04 15:01:46.01	204.72	23.79	-37.7	-38.7	23.6	0.00e+00	0	39	0	1164967936	48	6174
2026-01-04 15:01:50.04	204.72	23.18	-38.9	-39.9	22.7	0.00e+00	0	39	0	1172307968	48	7109
2026-01-04 15:01:54.08	204.71	22.59	-39.6	-40.7	22.2	0.00e+00	70	39	0	1179648000	52	6182
2026-01-04 15:01:58.12	204.71	22.01	-38.5	-39.5	23.0	0.00e+00	0	39	0	1186988032	50	6059
2026-01-04 15:02:02.16	204.70	21.44	-37.7	-38.6	23.7	0.00e+00	0	39	0	1194328064	48	6152
2026-01-04 15:02:06.20	204.70	20.88	-37.8	-38.7	23.5	0.00e+00	50	39	0	1202716672	48	6243
2026-01-04 15:02:10.24	204.70	20.34	-38.0	-39.0	23.2	0.00e+00	0	40	0	1210056704	48	6392
2026-01-04 15:02:14.27	204.70	19.81	-38.5	-39.4	22.9	0.00e+00	0	39	0	1217396736	50	6010
2026-01-04 15:02:18.31	204.69	19.29	-38.8	-39.8	22.6	0.00e+00	0	39	0	1224736768	50	6262
2026-01-04 15:02:22.35	204.69	18.78	-39.3	-40.3	22.3	0.00e+00	92	39	0	1233125376	50	6646
2026-01-04 15:02:26.37	204.69	18.28	-40.1	-41.2	21.6	0.00e+00	0	39	0	1240465408	52	6570
2026-01-04 15:02:30.41	204.69	17.79	-41.1	-42.3	20.4	0.00e+00	0	39	0	1247805440	54	6680
2026-01-04 15:02:34.44	204.69	17.31	-40.9	-42.2	20.7	0.00e+00	0	39	0	1255145472	54	6541
2026-01-04 15:02:38.48	204.69	16.84	-40.7	-41.9	21.0	0.00e+00	92	39	0	1262485504	54	6330
2026-01-04 15:02:42.51	204.69	16.38	-39.9	-41.0	21.7	0.00e+00	0	39	0	1270874112	54	5750
2026-01-04 15:02:46.55	204.69	15.92	-39.6	-40.7	22.0	0.00e+00	0	39	0	1278214144	52	6178
2026-01-04 15:02:50.59	204.70	15.48	-39.7	-40.7	22.0	0.00e+00	0	39	0	1285554176	52	6210
2026-01-04 15:02:54.63	204.70	15.04	-39.9	-40.9	21.6	0.00e+00	20	39	0	1292894208	52	6375
2026-01-04 15:02:58.66	204.70	14.61	-40.5	-41.6	21.2	0.00e+00	0	39	0	1301282816	52	6891
2026-01-04 15:03:02.70	204.70	14.19	-40.4	-41.5	21.2	0.00e+00	0	39	0	1308622848	52	6844
2026-01-04 15:03:06.73	204.71	13.78	-40.8	-42.0	20.9	0.00e+00	41	39	0	1315962880	52	7176
2026-01-04 15:03:10.77	204.71	13.37	-40.7	-41.9	20.8	0.00e+00	0	39	0	1323302912	54	6380
2026-01-04 15:03:14.81	204.71	12.97	-40.6	-41.8	21.0	0.00e+00	0	39	0	1330642944	54	6307
2026-01-04 15:03:18.85	204.72	12.57	-40.5	-41.7	21.1	0.00e+00	0	39	0	1339031552	54	6186
2026-01-04 15:03:22.88	204.72	12.18	-40.5	-41.7	21.1	0.00e+00	92	39	0	1346371584	54	6181
2026-01-04 15:03:26.92	204.72	11.80	-40.3	-41.4	21.3	0.00e+00	0	39	0	1353711616	54	6029
2026-01-04 15:03:30.96	204.73	11.43	-40.3	-41.5	21.2	0.00e+00	0	39	0	1361051648	54	6043
2026-01-04 15:03:35.00	204.73	11.05	-40.3	-41.5	21.2	0.00e+00	49	39	0	1368391680	54	6057
2026-01-04 15:03:39.04	204.74	10.69	-40.6	-41.8	20.9	0.00e+00	83	39	0	1376780288	54	6305
2026-01-04 15:03:43.07	204.74	10.33	-40.5	-41.7	21.0	0.00e+00	0	39	0	1384120320	54	6203
2026-01-04 15:03:47.11	204.75	9.98	-40.8	-42.1	20.7	0.00e+00	0	40	0	1391460352	54	6515
2026-01-04 15:03:51.15	204.75	9.63	-40.4	-41.6	20.9	0.00e+00	73	39	0	1398800384	54	6116
2026-01-04 15:03:55.19	204.76	9.28	-40.5	-41.7	21.0	0.00e+00	0	39	0	1407188992	54	6201
2026-01-04 15:03:59.23	204.76	8.94	-40.6	-41.8	20.8	0.00e+00	0	39	0	1414529024	54	6279
2026-01-04 15:04:03.27	204.77	8.61	-40.2	-41.5	21.0	0.00e+00	0	40	0	1421869056	54	6035
2026-01-04 15:04:07.31	204.78	8.27	-40.6	-41.9	20.6	0.00e+00	91	39	0	1429209088	54	6348
2026-01-04 15:04:11.35	204.78	7.95	-40.5	-41.7	20.6	0.00e+00	0	39	0	1436549120	54	6243
2026-01-04 15:04:15.39	204.79	7.62	-40.9	-42.2	20.3	0.00e+00	0	39	0	1444937728	54	6584
2026-01-04 15:04:19.43	204.80	7.31	-40.9	-42.2	20.2	0.00e+00	0	39	0	1452277760	54	6564
2026-01-04 15:04:23.47	204.80	6.99	-41.1	-42.5	19.9	0.00e+00	90	40	0	1459617792	54	6797
2026-01-04 15:04:27.51	204.81	6.68	-41.1	-42.5	19.8	0.00e+00	0	39	0	1466957824	54	6806
2026-01-04 15:04:31.54	204.82	6.37	-41.5	-42.9	19.3	0.00e+00	0	39	0	1475346432	54	7159
2026-01-04 15:04:35.58	204.82	6.07	-41.3	-42.7	19.6	0.00e+00	36	40	0	1482686464	54	6961
2026-01-04 15:04:39.62	204.83	5.77	-41.4	-42.8	19.6	0.00e+00	0	39	0	1490026496	54	7063
2026-01-04 15:04:43.65	204.84	5.48	-41.6	-43.1	19.1	0.00e+00	0	39	0	1497366528	54	7335
2026-01-04 15:04:47.69	204.84	5.18	-41.6	-43.1	19.0	0.00e+00	0	39	0	1504706560	54	7290
2026-01-04 15:04:51.73	204.85	4.89	-41.7	-43.3	18.5	0.00e+00	90	39	0	1513095168	54	7465
2026-01-04 15:04:55.77	204.86	4.61	-41.6	-43.1	19.0	0.00e+00	0	39	0	1520435200	56	6510
2026-01-04 15:04:59.81	204.87	4.32	-41.9	-43.6	18.7	0.00e+00	0	40	0	1527775232	56	6871
2026-01-04 15:05:03.84	204.87	4.04	-41.8	-43.4	18.6	0.00e+00	0	39	0	1535115264	56	6725
2026-01-04 15:05:07.88	204.88	3.76	-41.7	-43.3	18.6	0.00e+00	90	39	0	1543503872	56	6662
2026-01-04 15:05:11.92	204.89	3.49	-42.0	-43.6	18.3	0.00e+00	0	39	0	1550843904	56	6920
2026-01-04 15:05:15.96	204.90	3.22	-42.1	-43.8	18.3	0.00e+00	27	39	0	1558183936	56	7047
2026-01-04 15:05:19.99	204.91	2.95	-48.3	-63.4	3.6	4.09e-01	0	40	104	1564475392	60	53162
2026-01-04 15:05:24.04	204.91	2.68	-49.1	-64.4	3.6	1.51e+00	0	40	104	1564475392	60	59967
2026-01-04 15:05:28.07	204.92	2.41	-49.2	-64.5	3.6	1.51e+00	0	40	104	1564475392	60	60793
2026-01-04 15:05:32.11	204.93	2.15	-49.3	-64.5	3.6	1.51e+00	0	40	104	1564475392	60	60569
2026-01-04 15:05:36.15	204.94	1.89	-49.4	-64.6	3.6	1.51e+00	0	40	104	1564475392	60	61549
2026-01-04 15:05:40.19	204.95	1.63	-49.4	-64.5	3.6	1.51e+00	0	40	104	1564475392	60	61014
2026-01-04 15:05:44.23	204.96	1.38	-49.4	-64.6	3.6	1.51e+00	0	40	104	1564475392	60	61491
2026-01-04 15:05:48.26	204.96	1.13	-49.3	-64.6	3.6	1.51e+00	0	40	104	1564475392	60	61102
2026-01-04 15:05:52.30	204.97	0.88	-49.5	-64.7	3.6	1.51e+00	0	40	104	1564475392	60	61933
2026-01-04 15:05:56.34	204.98	0.63	-49.4	-64.6	3.6	1.51e+00	0	40	104	1564475392	60	61466
2026-01-04 15:06:00.38	204.99	0.38	-49.4	-64.6	3.6	1.51e+00	0	40	104	1564475392	60	61589
2026-01-04 15:06:04.42	205.00	0.14	-49.3	-64.5	3.6	1.51e+00	0	40	104	1564475392	60	60818

#Closed at: 2026-01-04 15:06:07
#Recorded file [1564 MB]: D:/lorett/data/35029_260105_025035.dat