passes_logs/2026/01/04/R4.6S_Anadyr/R4.6S_Anadyr__20260104_003506_NOAA_21_JPSS-2_rec.log

#Pass ID: 20260104_003506_NOAA 21 (JPSS-2)
#Satellite: NOAA 21 (JPSS-2)
#Configuration: NOAA-21
#almurnet v.1.7.20251203
#Start time: 2026-01-04 00:35:07

#Version: 2.2.20231116
#Station: R4.6S_Anadyr
#Location: 177.4865 lon 64.73178 lat
#TLE: 1 54234U 22150A   26003.45311712  .00000198  00000+0  11468-3 0  9993
#TLE: 2 54234  98.7487 304.4932 0001159 347.5017  12.6130 14.19531745163172

#Time	Az	El	Level	Level2	SNR	BER	BlckErr	Temp	State	Recorded	gain1	gain2
2026-01-04 00:35:07.97	165.53	0.09	-48.9	-58.7	3.3	2.27e+00	0	38	0	0	60	31128
2026-01-04 00:35:12.01	165.59	0.33	-50.6	-63.5	3.5	1.52e+00	0	39	104	0	60	52770
2026-01-04 00:35:16.35	165.65	0.60	-50.3	-63.2	3.5	1.52e+00	0	39	104	0	60	50806
2026-01-04 00:35:20.38	165.71	0.84	-50.2	-63.0	3.5	1.52e+00	0	39	104	0	60	49810
2026-01-04 00:35:24.42	165.77	1.09	-49.8	-62.6	3.5	1.52e+00	0	40	104	0	60	47541
2026-01-04 00:35:28.46	165.83	1.34	-49.3	-62.1	3.5	1.52e+00	0	39	104	0	60	44613
2026-01-04 00:35:32.50	165.89	1.60	-50.0	-62.8	3.5	1.52e+00	0	40	104	0	60	48265
2026-01-04 00:35:36.53	165.96	1.85	-49.1	-61.9	3.5	1.52e+00	0	40	104	0	60	43696
2026-01-04 00:35:40.57	166.02	2.11	-49.8	-62.4	3.5	1.52e+00	0	40	104	0	60	46275
2026-01-04 00:35:44.62	166.09	2.37	-49.2	-61.5	3.5	1.52e+00	0	40	104	0	60	41870
2026-01-04 00:35:48.65	166.15	2.63	-48.9	-60.9	3.5	1.51e+00	0	40	104	0	60	38756
2026-01-04 00:35:52.69	166.22	2.90	-49.3	-61.7	3.5	1.52e+00	0	40	104	0	60	42741
2026-01-04 00:35:56.73	166.29	3.17	-46.5	-51.1	9.7	4.10e-02	123	40	104	1048576	60	12664
2026-01-04 00:36:00.76	166.36	3.43	-42.4	-44.2	16.4	0.00e+00	122	40	0	12582912	58	6388
2026-01-04 00:36:04.80	166.43	3.71	-41.3	-42.8	17.9	0.00e+00	123	40	0	25165824	56	6123
2026-01-04 00:36:08.84	166.50	3.98	-42.3	-44.1	15.4	0.00e+00	122	40	0	37748736	56	7055
2026-01-04 00:36:12.88	166.57	4.26	-41.4	-42.9	18.8	0.00e+00	121	40	0	44040192	56	6147
2026-01-04 00:36:16.92	166.64	4.54	-41.1	-42.5	19.1	0.00e+00	123	40	0	56623104	54	6602
2026-01-04 00:36:20.95	166.72	4.83	-39.9	-41.2	20.0	0.00e+00	122	40	0	69206016	54	5670
2026-01-04 00:36:24.99	166.79	5.11	-39.5	-40.7	20.4	0.00e+00	122	40	0	81788928	52	6008
2026-01-04 00:36:29.03	166.87	5.40	-39.7	-40.9	20.4	0.00e+00	123	40	0	94371840	52	6191
2026-01-04 00:36:33.06	166.95	5.70	-39.4	-40.6	20.5	0.00e+00	123	40	0	106954752	52	5968
2026-01-04 00:36:37.10	167.03	5.99	-39.0	-40.2	21.0	0.00e+00	123	40	0	119537664	52	5693
2026-01-04 00:36:41.14	167.11	6.29	-38.9	-40.1	21.0	0.00e+00	123	40	0	132120576	52	5614
2026-01-04 00:36:45.18	167.19	6.60	-39.1	-40.2	21.1	0.00e+00	122	40	0	144703488	52	5686
2026-01-04 00:36:49.22	167.28	6.91	-38.5	-39.6	21.4	0.00e+00	123	40	0	157286400	50	5930
2026-01-04 00:36:53.26	167.36	7.22	-38.7	-39.8	21.2	0.00e+00	120	40	0	169869312	50	6107
2026-01-04 00:36:57.30	167.45	7.53	-38.6	-39.7	21.6	0.00e+00	122	40	0	182452224	50	6040
2026-01-04 00:37:01.33	167.54	7.85	-39.4	-40.5	21.4	0.00e+00	120	40	0	195035136	52	5871
2026-01-04 00:37:05.37	167.63	8.17	-38.3	-39.4	21.9	0.00e+00	122	40	0	207618048	50	5817
2026-01-04 00:37:09.41	167.72	8.50	-38.1	-39.1	22.1	0.00e+00	120	40	0	220200960	50	5645
2026-01-04 00:37:13.44	167.82	8.83	-38.2	-39.2	22.1	0.00e+00	120	40	0	232783872	50	5697
2026-01-04 00:37:17.48	167.91	9.16	-38.0	-39.1	22.4	0.00e+00	123	40	0	245366784	50	5596
2026-01-04 00:37:21.52	168.01	9.50	-37.6	-38.6	22.6	0.00e+00	123	40	0	257949696	48	5953
2026-01-04 00:37:25.56	168.11	9.85	-37.5	-38.5	22.5	0.00e+00	122	40	0	270532608	48	5876
2026-01-04 00:37:29.59	168.21	10.20	-37.4	-38.4	22.6	0.00e+00	123	40	0	283115520	48	5827
2026-01-04 00:37:33.63	168.32	10.55	-37.4	-38.4	22.7	0.00e+00	120	40	0	295698432	48	5800
2026-01-04 00:37:37.67	168.42	10.91	-37.0	-38.0	23.0	0.00e+00	120	40	0	308281344	48	5560
2026-01-04 00:37:41.71	168.53	11.28	-37.2	-38.1	22.9	0.00e+00	122	40	0	320864256	48	5657
2026-01-04 00:37:45.75	168.64	11.65	-37.2	-38.2	23.1	0.00e+00	123	40	0	334495744	48	5691
2026-01-04 00:37:49.78	168.75	12.02	-37.4	-38.3	23.1	0.00e+00	121	40	0	346030080	48	5783
2026-01-04 00:37:53.81	168.87	12.40	-36.8	-37.8	23.3	0.00e+00	122	40	0	359661568	48	5418
2026-01-04 00:37:57.85	168.99	12.79	-36.9	-37.9	23.2	0.00e+00	123	40	0	372244480	48	5497
2026-01-04 00:38:01.89	169.11	13.18	-36.8	-37.8	23.4	0.00e+00	122	40	0	384827392	46	6098
2026-01-04 00:38:05.93	169.24	13.59	-36.9	-37.9	23.3	0.00e+00	123	40	0	397410304	46	6158
2026-01-04 00:38:09.97	169.36	13.99	-36.4	-37.4	23.5	0.00e+00	122	40	0	409993216	46	5797
2026-01-04 00:38:14.01	169.49	14.41	-36.2	-37.1	23.7	0.00e+00	122	40	0	422576128	46	5624
2026-01-04 00:38:18.04	169.63	14.83	-36.2	-37.1	23.7	0.00e+00	122	40	0	435159040	46	5621
2026-01-04 00:38:22.08	169.77	15.25	-36.4	-37.3	23.9	0.00e+00	122	40	0	447741952	46	5765
2026-01-04 00:38:26.12	169.91	15.69	-36.5	-37.4	23.8	0.00e+00	122	40	0	460324864	46	5812
2026-01-04 00:38:30.15	170.05	16.13	-36.1	-37.0	23.9	0.00e+00	122	40	0	472907776	46	5586
2026-01-04 00:38:34.18	170.20	16.58	-36.2	-37.1	23.9	0.00e+00	123	40	0	485490688	46	5618
2026-01-04 00:38:38.22	170.35	17.04	-36.2	-37.2	23.8	0.00e+00	123	40	0	498073600	46	5664
2026-01-04 00:38:42.25	170.51	17.51	-36.3	-37.2	23.9	0.00e+00	121	40	0	510656512	46	5675
2026-01-04 00:38:46.29	170.67	17.99	-36.0	-36.9	24.0	0.00e+00	122	40	0	523239424	46	5530
2026-01-04 00:38:50.33	170.84	18.47	-36.1	-37.0	24.1	0.00e+00	120	40	0	535822336	46	5535
2026-01-04 00:38:54.37	171.01	18.97	-36.0	-36.9	24.0	0.00e+00	122	40	0	548405248	46	5495
2026-01-04 00:38:58.41	171.19	19.47	-36.0	-36.9	24.0	0.00e+00	123	40	0	560988160	46	5489
2026-01-04 00:39:02.44	171.37	19.99	-35.9	-36.8	24.2	0.00e+00	122	40	0	573571072	46	5412
2026-01-04 00:39:06.48	171.56	20.52	-35.9	-36.8	24.4	0.00e+00	122	40	0	586153984	46	5435
2026-01-04 00:39:10.51	171.75	21.05	-36.0	-36.9	24.4	0.00e+00	123	40	0	598736896	44	6172
2026-01-04 00:39:14.55	171.95	21.60	-36.2	-37.1	24.3	0.00e+00	123	40	0	611319808	44	6289
2026-01-04 00:39:18.59	172.16	22.16	-35.4	-36.3	24.7	0.00e+00	120	40	0	623902720	44	5750
2026-01-04 00:39:22.62	172.37	22.73	-35.2	-36.0	24.8	0.00e+00	123	40	0	636485632	44	5593
2026-01-04 00:39:26.66	172.59	23.32	-35.0	-35.9	25.0	0.00e+00	122	40	0	649068544	44	5476
2026-01-04 00:39:30.69	172.82	23.92	-34.8	-35.6	25.2	0.00e+00	122	40	0	661651456	42	5965
2026-01-04 00:39:34.73	173.06	24.53	-34.7	-35.6	25.0	0.00e+00	120	40	0	674234368	42	5963
2026-01-04 00:39:38.77	173.31	25.16	-34.8	-35.7	25.0	0.00e+00	122	40	0	686817280	42	6026
2026-01-04 00:39:42.81	173.57	25.80	-35.3	-36.1	24.9	0.00e+00	123	40	0	699400192	42	6334
2026-01-04 00:39:46.85	173.83	26.46	-35.7	-36.6	24.5	0.00e+00	116	40	0	711983104	42	6696
2026-01-04 00:39:50.88	174.11	27.13	-35.8	-36.7	24.3	0.00e+00	123	40	0	724566016	44	6030
2026-01-04 00:39:54.91	174.40	27.81	-36.6	-37.5	23.8	0.00e+00	122	40	0	737148928	44	6643
2026-01-04 00:39:58.95	174.70	28.52	-36.5	-37.4	23.9	0.00e+00	122	40	0	750780416	46	5830
2026-01-04 00:40:02.98	175.01	29.24	-36.1	-37.0	23.9	0.00e+00	123	40	0	762314752	46	5583
2026-01-04 00:40:07.02	175.34	29.98	-35.5	-36.4	24.3	0.00e+00	122	40	0	775946240	44	5850
2026-01-04 00:40:11.06	175.68	30.74	-35.9	-36.8	24.1	0.00e+00	122	40	0	788529152	44	6074
2026-01-04 00:40:15.10	176.04	31.52	-36.1	-37.0	24.0	0.00e+00	122	40	0	801112064	44	6243
2026-01-04 00:40:19.13	176.42	32.32	-36.2	-37.2	24.0	0.00e+00	122	40	0	813694976	44	6370
2026-01-04 00:40:23.17	176.81	33.14	-36.1	-37.0	24.0	0.00e+00	123	40	0	826277888	44	6270
2026-01-04 00:40:27.21	177.23	33.98	-37.1	-38.0	23.5	0.00e+00	123	40	0	838860800	46	6252
2026-01-04 00:40:31.25	177.66	34.84	-37.4	-38.3	23.3	0.00e+00	122	40	0	851443712	46	6490
2026-01-04 00:40:35.28	178.12	35.72	-37.7	-38.7	22.8	0.00e+00	120	40	0	864026624	48	6031
2026-01-04 00:40:39.32	178.60	36.63	-38.6	-39.6	22.5	0.00e+00	123	40	0	876609536	48	6698
2026-01-04 00:40:43.36	179.11	37.56	-38.1	-39.0	22.9	0.00e+00	120	40	0	889192448	48	6270
2026-01-04 00:40:47.40	179.65	38.52	-38.4	-39.3	22.6	0.00e+00	123	40	0	901775360	48	6496
2026-01-04 00:40:51.43	180.22	39.50	-38.4	-39.4	22.6	0.00e+00	122	40	0	914358272	50	5854
2026-01-04 00:40:55.47	180.83	40.50	-38.3	-39.3	22.7	0.00e+00	123	40	0	926941184	50	5767
2026-01-04 00:40:59.51	181.48	41.53	-38.6	-39.6	22.3	0.00e+00	123	40	0	939524096	50	5959
2026-01-04 00:41:03.54	182.16	42.59	-38.5	-39.5	22.6	0.00e+00	123	40	0	952107008	50	5895
2026-01-04 00:41:07.58	182.89	43.67	-38.9	-39.9	22.2	0.00e+00	120	40	0	964689920	50	6153
2026-01-04 00:41:11.62	183.68	44.78	-38.7	-39.8	21.6	0.00e+00	123	40	0	977272832	50	6094
2026-01-04 00:41:15.66	184.52	45.91	-39.2	-40.3	21.6	0.00e+00	121	40	0	989855744	50	6454
2026-01-04 00:41:19.69	185.42	47.07	-38.4	-39.5	22.2	0.00e+00	120	40	0	1002438656	50	5874
2026-01-04 00:41:23.73	186.39	48.25	-38.2	-39.2	22.6	0.00e+00	123	41	0	1015021568	50	5713
2026-01-04 00:41:27.77	187.43	49.46	-38.0	-39.0	22.7	0.00e+00	122	40	0	1027604480	50	5545
2026-01-04 00:41:31.81	188.56	50.69	-38.8	-39.8	22.4	0.00e+00	123	40	0	1040187392	50	6118
2026-01-04 00:41:35.84	189.79	51.94	-37.7	-38.7	23.0	0.00e+00	122	40	0	1052770304	48	6023
2026-01-04 00:41:39.88	191.12	53.20	-37.4	-38.4	22.9	0.00e+00	123	40	0	1065353216	48	5799
2026-01-04 00:41:43.91	192.58	54.48	-37.5	-38.4	23.1	0.00e+00	123	40	0	1077936128	46	6569
2026-01-04 00:41:47.95	194.17	55.78	-36.7	-37.6	24.1	0.00e+00	122	40	0	1090519040	46	5948
2026-01-04 00:41:51.99	195.91	57.08	-36.0	-36.9	24.4	0.00e+00	120	40	0	1103101952	46	5528
2026-01-04 00:41:56.02	197.82	58.39	-35.9	-36.8	24.5	0.00e+00	120	40	0	1115684864	44	6083
2026-01-04 00:42:00.07	199.94	59.69	-36.2	-37.1	23.9	0.00e+00	120	41	0	1128267776	44	6327
2026-01-04 00:42:04.10	202.26	60.98	-36.0	-36.9	24.8	0.00e+00	122	40	0	1141899264	46	5492
2026-01-04 00:42:08.14	204.84	62.25	-35.5	-36.3	25.3	0.00e+00	123	40	0	1154482176	44	5776
2026-01-04 00:42:12.18	207.70	63.49	-34.9	-35.7	25.3	0.00e+00	123	40	0	1166016512	44	5396
2026-01-04 00:42:16.22	210.87	64.69	-35.0	-35.8	25.2	0.00e+00	123	40	0	1179648000	44	5432
2026-01-04 00:42:20.25	214.37	65.83	-34.6	-35.5	25.2	0.00e+00	122	40	0	1192230912	42	5884
2026-01-04 00:42:24.29	218.25	66.89	-34.6	-35.4	25.4	0.00e+00	122	40	0	1204813824	42	5830
2026-01-04 00:42:28.32	222.50	67.86	-34.8	-35.6	25.4	0.00e+00	120	40	0	1217396736	42	5970
2026-01-04 00:42:32.36	227.17	68.72	-34.5	-35.4	25.8	0.00e+00	120	40	0	1229979648	42	5792
2026-01-04 00:42:36.40	232.23	69.44	-35.3	-36.2	25.1	0.00e+00	123	40	0	1242562560	42	6393
2026-01-04 00:42:40.43	237.62	70.01	-36.1	-37.0	25.4	0.00e+00	122	40	0	1255145472	44	6231
2026-01-04 00:42:44.47	243.31	70.41	-34.6	-35.4	25.6	0.00e+00	122	40	0	1267728384	42	5848
2026-01-04 00:42:48.50	249.18	70.62	-36.7	-37.5	24.8	0.00e+00	123	40	0	1280311296	44	6646
2026-01-04 00:42:52.54	255.13	70.64	-36.0	-36.9	25.0	0.00e+00	120	40	0	1292894208	44	6141
2026-01-04 00:42:56.58	261.04	70.46	-36.2	-37.1	24.7	0.00e+00	123	41	0	1305477120	44	6337
2026-01-04 00:43:00.62	266.77	70.10	-35.3	-36.2	25.2	0.00e+00	122	41	0	1318060032	44	5685
2026-01-04 00:43:04.65	272.22	69.56	-37.1	-38.0	24.5	0.00e+00	123	40	0	1330642944	46	6222
2026-01-04 00:43:08.70	277.36	68.87	-35.8	-36.7	24.9	0.00e+00	122	40	0	1343225856	44	6053
2026-01-04 00:43:12.73	282.09	68.04	-35.0	-35.8	25.6	0.00e+00	123	40	0	1355808768	44	5463
2026-01-04 00:43:16.77	286.43	67.09	-35.4	-36.3	25.0	0.00e+00	123	40	0	1368391680	42	6489
2026-01-04 00:43:20.81	290.37	66.04	-34.3	-35.2	25.7	0.00e+00	122	41	0	1380974592	42	5685
2026-01-04 00:43:24.85	293.95	64.92	-35.2	-36.1	25.0	0.00e+00	123	41	0	1393557504	42	6308
2026-01-04 00:43:28.89	297.17	63.74	-35.2	-36.1	24.8	0.00e+00	122	41	0	1406140416	42	6304
2026-01-04 00:43:32.92	300.08	62.51	-34.8	-35.7	25.2	0.00e+00	123	41	0	1418723328	42	6001
2026-01-04 00:43:36.96	302.71	61.25	-36.7	-37.6	24.0	0.00e+00	122	41	0	1431306240	46	5984
2026-01-04 00:43:40.99	305.07	59.96	-35.9	-36.8	25.0	0.00e+00	122	41	0	1443889152	44	6119
2026-01-04 00:43:45.03	307.22	58.67	-38.3	-39.4	22.4	0.00e+00	123	41	0	1456472064	48	6522
2026-01-04 00:43:49.07	309.17	57.36	-35.1	-35.9	25.3	0.00e+00	122	41	0	1469054976	44	5507
2026-01-04 00:43:53.11	310.95	56.06	-37.3	-38.3	22.8	0.00e+00	122	41	0	1481637888	46	6484
2026-01-04 00:43:57.15	312.56	54.77	-35.5	-36.4	24.2	0.00e+00	122	41	0	1494220800	44	5824
2026-01-04 00:44:01.18	314.04	53.49	-38.5	-39.5	22.6	0.00e+00	123	40	0	1506803712	48	6637
2026-01-04 00:44:05.22	315.39	52.23	-36.9	-37.9	23.4	0.00e+00	122	41	0	1519386624	48	5483
2026-01-04 00:44:09.26	316.64	50.98	-38.0	-39.0	22.9	0.00e+00	123	41	0	1531969536	48	6221
2026-01-04 00:44:13.29	317.79	49.75	-40.6	-41.9	19.9	0.00e+00	123	41	0	1545601024	54	6185
2026-01-04 00:44:17.33	318.85	48.54	-38.0	-39.0	22.5	0.00e+00	122	41	0	1557135360	50	5551
2026-01-04 00:44:21.37	319.83	47.36	-38.2	-39.2	22.8	0.00e+00	122	41	0	1570766848	48	6367
2026-01-04 00:44:25.41	320.75	46.20	-39.4	-40.6	21.5	0.00e+00	123	41	0	1583349760	50	6660
2026-01-04 00:44:29.45	321.60	45.07	-38.7	-39.7	22.0	0.00e+00	123	41	0	1595932672	50	6043
2026-01-04 00:44:33.49	322.39	43.96	-40.1	-41.3	20.8	0.00e+00	122	41	0	1608515584	52	6444
2026-01-04 00:44:37.53	323.14	42.87	-38.6	-39.6	22.3	0.00e+00	123	41	0	1621098496	50	5958
2026-01-04 00:44:41.57	323.83	41.82	-40.0	-41.1	21.7	0.00e+00	123	41	0	1633681408	52	6288
2026-01-04 00:44:45.60	324.48	40.79	-40.5	-41.6	22.1	0.00e+00	123	41	0	1646264320	52	6677
2026-01-04 00:44:49.65	325.10	39.78	-40.4	-41.5	21.6	0.00e+00	123	41	0	1658847232	54	5895
2026-01-04 00:44:53.68	325.68	38.80	-39.8	-40.9	22.1	0.00e+00	123	41	0	1671430144	52	6166
2026-01-04 00:44:57.71	326.22	37.85	-38.2	-39.2	23.2	0.00e+00	123	41	0	1684013056	50	5684
2026-01-04 00:45:01.75	326.74	36.91	-38.4	-39.4	23.1	0.00e+00	122	41	0	1696595968	50	5795
2026-01-04 00:45:05.79	327.23	36.00	-37.8	-38.8	23.2	0.00e+00	122	41	0	1709178880	48	6087
2026-01-04 00:45:09.82	327.69	35.12	-38.1	-39.1	22.6	0.00e+00	123	41	0	1721761792	48	6325
2026-01-04 00:45:13.86	328.13	34.26	-39.3	-40.3	20.8	0.00e+00	123	41	0	1734344704	50	6498
2026-01-04 00:45:17.90	328.55	33.41	-37.5	-38.5	22.8	0.00e+00	120	41	0	1746927616	48	5895
2026-01-04 00:45:21.93	328.95	32.60	-36.9	-37.8	23.4	0.00e+00	120	41	0	1759510528	46	6077
2026-01-04 00:45:25.98	329.33	31.79	-37.1	-38.1	24.5	0.00e+00	120	41	0	1772093440	46	6280
2026-01-04 00:45:30.01	329.69	31.02	-36.8	-37.7	24.2	0.00e+00	123	41	0	1784676352	46	6041
2026-01-04 00:45:34.05	330.04	30.26	-37.6	-38.5	23.9	0.00e+00	122	41	0	1797259264	48	5905
2026-01-04 00:45:38.09	330.37	29.51	-38.0	-39.0	23.4	0.00e+00	123	41	0	1809842176	48	6235
2026-01-04 00:45:42.12	330.69	28.79	-37.9	-38.8	23.5	0.00e+00	120	41	0	1822425088	48	6132
2026-01-04 00:45:46.16	330.99	28.08	-37.5	-38.5	23.7	0.00e+00	123	41	0	1835008000	48	5898
2026-01-04 00:45:50.20	331.29	27.40	-37.4	-38.3	23.7	0.00e+00	123	41	0	1847590912	48	5776
2026-01-04 00:45:54.23	331.57	26.72	-36.7	-37.5	24.6	0.00e+00	123	41	0	1860173824	46	5905
2026-01-04 00:45:58.27	331.84	26.07	-35.3	-36.1	24.9	0.00e+00	120	40	0	1872756736	44	5648
2026-01-04 00:46:02.31	332.10	25.42	-35.5	-36.3	24.9	0.00e+00	122	41	0	1885339648	44	5768
2026-01-04 00:46:06.35	332.35	24.80	-36.1	-36.9	24.8	0.00e+00	123	41	0	1897922560	44	6191
2026-01-04 00:46:10.39	332.59	24.18	-36.0	-36.9	24.8	0.00e+00	123	41	0	1911554048	44	6135
2026-01-04 00:46:14.43	332.83	23.58	-36.0	-36.9	24.7	0.00e+00	122	41	0	1923088384	44	6157
2026-01-04 00:46:18.47	333.05	23.00	-36.6	-37.5	24.4	0.00e+00	123	41	0	1936719872	44	6576
2026-01-04 00:46:22.50	333.27	22.42	-36.2	-37.1	24.2	0.00e+00	122	41	0	1949302784	44	6295
2026-01-04 00:46:26.54	333.48	21.86	-36.3	-37.2	24.1	0.00e+00	123	41	0	1961885696	44	6360
2026-01-04 00:46:30.57	333.68	21.31	-36.2	-37.1	24.2	0.00e+00	122	41	0	1974468608	44	6347
2026-01-04 00:46:34.62	333.88	20.78	-36.0	-36.9	24.1	0.00e+00	123	41	0	1987051520	44	6203
2026-01-04 00:46:38.65	334.07	20.25	-36.3	-37.2	24.0	0.00e+00	120	41	0	1999634432	44	6405
2026-01-04 00:46:42.69	334.26	19.73	-36.1	-37.0	24.0	0.00e+00	123	41	0	2012217344	44	6235
2026-01-04 00:46:46.73	334.44	19.23	-36.2	-37.2	23.7	0.00e+00	123	41	0	2024800256	44	6376
2026-01-04 00:46:50.77	334.61	18.73	-36.3	-37.3	23.7	0.00e+00	122	41	0	2037383168	44	6433
2026-01-04 00:46:54.81	334.78	18.24	-36.1	-37.0	23.7	0.00e+00	122	41	0	2049966080	44	6238
2026-01-04 00:46:58.85	334.95	17.77	-36.2	-37.1	23.6	0.00e+00	123	41	0	2062548992	44	6324
2026-01-04 00:47:02.88	335.11	17.30	-36.2	-37.2	23.6	0.00e+00	122	41	0	2075131904	44	6359
2026-01-04 00:47:06.93	335.26	16.84	-36.5	-37.4	23.5	0.00e+00	120	41	0	2087714816	44	6565
2026-01-04 00:47:10.96	335.41	16.39	-36.6	-37.5	23.5	0.00e+00	120	41	0	2100297728	44	6612
2026-01-04 00:47:15.01	335.56	15.94	-36.6	-37.5	23.7	0.00e+00	122	41	0	2112880640	46	5902
2026-01-04 00:47:19.05	335.71	15.51	-36.6	-37.6	23.7	0.00e+00	120	41	0	2125463552	46	5941
2026-01-04 00:47:23.08	335.85	15.08	-36.8	-37.8	23.5	0.00e+00	122	41	0	2138046464	46	6084
2026-01-04 00:47:27.12	335.98	14.66	-36.6	-37.5	23.5	0.00e+00	123	41	0	2150629376	46	5888
2026-01-04 00:47:31.16	336.12	14.25	-36.7	-37.6	23.6	0.00e+00	123	41	0	2163212288	46	5969
2026-01-04 00:47:35.20	336.25	13.84	-36.5	-37.5	23.5	0.00e+00	120	41	0	2175795200	46	5861
2026-01-04 00:47:39.24	336.38	13.44	-36.7	-37.6	23.2	0.00e+00	122	41	0	2188378112	46	5986
2026-01-04 00:47:43.28	336.50	13.04	-36.9	-37.9	23.2	0.00e+00	123	41	0	2200961024	46	6159
2026-01-04 00:47:47.32	336.62	12.66	-37.0	-37.9	22.9	0.00e+00	123	41	0	2213543936	46	6192
2026-01-04 00:47:51.35	336.74	12.28	-37.2	-38.2	22.8	0.00e+00	123	41	0	2226126848	46	6365
2026-01-04 00:47:55.39	336.86	11.90	-37.4	-38.4	22.7	0.00e+00	122	41	0	2238709760	46	6500
2026-01-04 00:47:59.43	336.97	11.53	-38.3	-39.3	22.3	0.00e+00	123	41	0	2251292672	48	6487
2026-01-04 00:48:03.46	337.09	11.17	-38.0	-39.0	22.4	0.00e+00	122	41	0	2263875584	48	6263
2026-01-04 00:48:07.50	337.20	10.81	-38.1	-39.1	22.3	0.00e+00	120	41	0	2277507072	48	6337
2026-01-04 00:48:11.54	337.30	10.45	-38.3	-39.4	22.1	0.00e+00	122	41	0	2290089984	48	6522
2026-01-04 00:48:15.58	337.41	10.10	-38.2	-39.3	22.2	0.00e+00	120	41	0	2301624320	48	6439
2026-01-04 00:48:19.62	337.51	9.76	-38.3	-39.4	21.9	0.00e+00	122	41	0	2315255808	48	6536
2026-01-04 00:48:23.65	337.61	9.42	-38.1	-39.2	22.1	0.00e+00	120	41	0	2327838720	48	6365
2026-01-04 00:48:27.69	337.71	9.08	-38.3	-39.3	21.9	0.00e+00	121	41	0	2340421632	48	6496
2026-01-04 00:48:31.73	337.81	8.75	-38.2	-39.3	22.0	0.00e+00	123	41	0	2353004544	48	6451
2026-01-04 00:48:35.77	337.91	8.43	-38.6	-39.7	21.8	0.00e+00	122	41	0	2365587456	50	6000
2026-01-04 00:48:39.80	338.00	8.10	-38.7	-39.8	21.5	0.00e+00	122	41	0	2378170368	50	6121
2026-01-04 00:48:43.84	338.09	7.79	-39.1	-40.2	21.4	0.00e+00	120	41	0	2390753280	50	6421
2026-01-04 00:48:47.88	338.18	7.47	-39.4	-40.6	20.5	0.00e+00	121	41	0	2403336192	52	5951
2026-01-04 00:48:51.92	338.27	7.16	-39.0	-40.2	20.9	0.00e+00	123	41	0	2415919104	52	5689
2026-01-04 00:48:55.95	338.36	6.85	-38.9	-40.0	20.9	0.00e+00	122	41	0	2428502016	52	5582
2026-01-04 00:48:59.99	338.45	6.55	-39.2	-40.3	20.9	0.00e+00	123	41	0	2441084928	52	5783
2026-01-04 00:49:04.03	338.53	6.25	-39.2	-40.3	20.9	0.00e+00	123	41	0	2453667840	52	5783
2026-01-04 00:49:08.06	338.62	5.95	-39.4	-40.6	20.6	0.00e+00	123	41	0	2466250752	52	5954
2026-01-04 00:49:12.10	338.70	5.66	-39.6	-40.8	20.0	0.00e+00	123	41	0	2478833664	52	6100
2026-01-04 00:49:16.14	338.78	5.37	-40.0	-41.4	19.1	0.00e+00	120	41	0	2491416576	52	6509
2026-01-04 00:49:20.17	338.86	5.08	-41.6	-43.3	17.1	0.00e+00	120	41	0	2503999488	54	7219
2026-01-04 00:49:24.21	338.94	4.80	-42.6	-44.9	14.4	0.00e+00	123	41	0	2516582400	56	7754
2026-01-04 00:49:28.25	339.01	4.52	-44.2	-48.1	10.1	3.68e-03	123	41	0	2529165312	60	8918
2026-01-04 00:49:32.29	339.09	4.24	-45.2	-52.6	5.8	1.11e+00	122	41	104	2540699648	60	14963
2026-01-04 00:49:36.33	339.17	3.96	-45.5	-56.0	3.8	1.48e+00	0	41	104	2540699648	60	22081
2026-01-04 00:49:40.37	339.24	3.69	-45.8	-58.0	3.5	1.52e+00	0	41	104	2540699648	60	28037
2026-01-04 00:49:44.41	339.31	3.42	-45.6	-58.0	3.5	1.52e+00	0	41	104	2540699648	60	27780
2026-01-04 00:49:48.44	339.39	3.16	-45.9	-58.7	3.5	1.52e+00	0	41	104	2540699648	60	30102
2026-01-04 00:49:52.47	339.46	2.89	-49.7	-62.5	3.5	1.52e+00	0	41	104	2540699648	60	47000
2026-01-04 00:49:56.51	339.53	2.63	-50.5	-63.4	3.5	1.52e+00	0	41	104	2540699648	60	51965
2026-01-04 00:50:00.54	339.60	2.37	-50.2	-63.5	3.5	1.52e+00	0	41	104	2540699648	60	52577
2026-01-04 00:50:04.58	339.67	2.11	-50.5	-63.4	3.5	1.51e+00	0	41	104	2540699648	60	51718
2026-01-04 00:50:08.62	339.73	1.86	-50.5	-63.3	3.5	1.52e+00	0	41	104	2540699648	60	51526
2026-01-04 00:50:12.66	339.80	1.60	-50.8	-63.6	3.5	1.52e+00	0	41	104	2540699648	60	53085
2026-01-04 00:50:16.70	339.87	1.35	-50.7	-63.5	3.5	1.52e+00	0	41	104	2540699648	60	52688
2026-01-04 00:50:20.73	339.93	1.10	-50.8	-63.6	3.5	1.52e+00	0	41	104	2540699648	60	53236
2026-01-04 00:50:24.77	340.00	0.86	-51.2	-64.0	3.5	1.52e+00	0	41	104	2540699648	60	55676
2026-01-04 00:50:28.80	340.06	0.61	-50.9	-63.7	3.5	1.51e+00	0	41	104	2540699648	60	53927
2026-01-04 00:50:32.84	340.12	0.37	-51.1	-63.9	3.5	1.52e+00	0	41	104	2540699648	60	54794
2026-01-04 00:50:36.88	340.19	0.13	-51.1	-63.9	3.5	1.52e+00	0	41	104	2540699648	60	55207

#Closed at: 2026-01-04 00:50:40
#Recorded file [2540 MB]: D:/lorett/data/35029_260104_123507.dat