passes_logs/2026/01/04/R4.6S_Anadyr/R4.6S_Anadyr__20260104_115035_NOAA_20_JPSS-1_rec.log

#Pass ID: 20260104_115035_NOAA 20 (JPSS-1)
#Satellite: NOAA 20 (JPSS-1)
#Configuration: NOAA 20
#almurnet v.1.7.20251203
#Start time: 2026-01-04 11:50:37

#Version: 2.2.20231116
#Station: R4.6S_Anadyr
#Location: 177.4865 lon 64.73178 lat
#TLE: 1 43013U 17073A   26003.41800368  .00000169  00000+0  10117-3 0  9998
#TLE: 2 43013  98.7624 304.4804 0001884  56.1176 304.0179 14.19532918421092

#Time	Az	El	Level	Level2	SNR	BER	BlckErr	Temp	State	Recorded	gain1	gain2
2026-01-04 11:50:37.66	20.08	0.10	-50.5	-65.4	3.5	1.51e+00	0	38	0	0	60	66927
2026-01-04 11:50:40.69	20.35	0.23	-50.3	-65.5	3.6	1.51e+00	0	39	104	0	60	68110
2026-01-04 11:50:43.72	20.62	0.36	-50.2	-65.5	3.6	1.51e+00	0	39	104	0	60	68049
2026-01-04 11:50:46.75	20.89	0.49	-50.1	-65.3	3.6	1.51e+00	0	39	104	0	60	66704
2026-01-04 11:50:49.78	21.17	0.62	-49.8	-64.9	3.6	1.51e+00	0	39	104	0	60	63707
2026-01-04 11:50:52.80	21.45	0.75	-49.4	-64.5	3.6	1.51e+00	0	39	104	0	60	60979
2026-01-04 11:50:55.83	21.73	0.88	-48.0	-63.1	3.6	1.51e+00	0	39	104	0	60	51926
2026-01-04 11:50:58.86	22.01	1.01	-47.9	-63.1	3.6	1.51e+00	0	39	104	0	60	51616
2026-01-04 11:51:01.89	22.29	1.15	-47.9	-63.1	3.6	1.51e+00	0	39	104	0	60	51408
2026-01-04 11:51:04.91	22.58	1.28	-47.9	-63.1	3.6	1.51e+00	0	39	104	0	60	51819
2026-01-04 11:51:07.94	22.87	1.41	-47.9	-63.1	3.6	1.51e+00	0	39	104	0	60	51545
2026-01-04 11:51:10.97	23.16	1.54	-47.9	-63.1	3.6	1.51e+00	0	39	104	0	60	51490
2026-01-04 11:51:14.00	23.46	1.67	-47.9	-63.1	3.6	1.51e+00	0	39	104	0	60	51376
2026-01-04 11:51:17.03	23.76	1.80	-47.9	-63.1	3.6	1.51e+00	0	39	104	0	60	51670
2026-01-04 11:51:20.06	24.06	1.93	-47.9	-63.1	3.6	1.51e+00	0	39	104	0	60	51631
2026-01-04 11:51:23.09	24.36	2.06	-47.9	-63.0	3.6	1.51e+00	0	39	104	0	60	51257
2026-01-04 11:51:26.12	24.66	2.19	-47.9	-63.0	3.6	1.51e+00	0	40	104	0	60	51030
2026-01-04 11:51:29.15	24.97	2.33	-47.9	-63.0	3.6	1.51e+00	0	39	104	0	60	51212
2026-01-04 11:51:32.17	25.28	2.46	-48.0	-63.0	3.6	1.51e+00	0	40	104	0	60	50810
2026-01-04 11:51:35.20	25.59	2.59	-47.9	-62.7	3.6	1.51e+00	0	39	104	0	60	49224
2026-01-04 11:51:38.23	25.91	2.72	-46.5	-51.7	10.1	9.37e-02	92	39	0	1048576	60	13882
2026-01-04 11:51:41.26	26.23	2.85	-43.7	-46.1	16.2	0.00e+00	0	39	0	6291456	60	7314
2026-01-04 11:51:44.29	26.55	2.98	-44.4	-47.2	14.4	0.00e+00	45	40	0	12582912	60	8301
2026-01-04 11:51:47.31	26.87	3.11	-47.6	-61.8	3.8	1.51e+00	0	40	104	16777216	60	44392
2026-01-04 11:51:50.34	27.20	3.24	-48.2	-60.8	4.3	1.39e+00	0	40	104	18874368	60	39718
2026-01-04 11:51:53.36	27.53	3.37	-42.8	-44.5	17.8	0.00e+00	45	39	0	20971520	58	6830
2026-01-04 11:51:56.39	27.86	3.50	-42.3	-44.0	18.6	0.00e+00	5	40	0	27262976	58	6411
2026-01-04 11:51:59.41	28.19	3.63	-42.6	-44.3	18.6	0.00e+00	31	40	0	32505856	58	6622
2026-01-04 11:52:02.44	28.53	3.76	-42.0	-43.4	19.3	0.00e+00	6	40	0	38797312	58	6027
2026-01-04 11:52:05.47	28.87	3.89	-42.4	-44.0	19.1	0.00e+00	6	39	0	44040192	56	7211
2026-01-04 11:52:08.50	29.21	4.02	-42.1	-43.6	19.5	0.00e+00	92	40	0	50331648	56	6859
2026-01-04 11:52:11.53	29.56	4.15	-41.7	-43.1	19.9	0.00e+00	42	40	0	55574528	56	6494
2026-01-04 11:52:14.56	29.91	4.28	-42.3	-43.9	19.2	0.00e+00	47	40	0	60817408	58	6331
2026-01-04 11:52:17.58	30.26	4.41	-41.8	-43.2	19.8	0.00e+00	92	40	0	67108864	56	6569
2026-01-04 11:52:20.61	30.62	4.54	-41.8	-43.2	19.7	0.00e+00	45	40	0	72351744	56	6570
2026-01-04 11:52:23.64	30.97	4.67	-42.1	-43.6	19.3	0.00e+00	6	40	0	78643200	56	6885
2026-01-04 11:52:26.67	31.34	4.80	-41.4	-42.7	20.3	0.00e+00	45	40	0	83886080	56	6195
2026-01-04 11:52:29.69	31.70	4.92	-41.3	-42.5	20.5	0.00e+00	0	40	0	89128960	56	6102
2026-01-04 11:52:32.72	32.07	5.05	-41.5	-42.9	20.4	0.00e+00	0	40	0	95420416	56	6320
2026-01-04 11:52:35.75	32.44	5.18	-41.5	-42.8	20.2	0.00e+00	35	40	0	100663296	56	6311
2026-01-04 11:52:38.78	32.81	5.31	-41.4	-42.7	20.4	0.00e+00	91	40	0	106954752	56	6202
2026-01-04 11:52:41.81	33.19	5.43	-41.3	-42.6	20.4	0.00e+00	0	40	0	112197632	56	6163
2026-01-04 11:52:44.83	33.57	5.56	-41.2	-42.5	20.5	0.00e+00	0	40	0	118489088	56	6080
2026-01-04 11:52:47.86	33.95	5.68	-41.7	-43.0	20.2	0.00e+00	90	40	0	123731968	56	6457
2026-01-04 11:52:50.88	34.33	5.81	-41.4	-42.7	20.5	0.00e+00	3	40	0	128974848	56	6187
2026-01-04 11:52:53.91	34.72	5.93	-41.2	-42.5	20.6	0.00e+00	0	40	0	135266304	56	6065
2026-01-04 11:52:56.94	35.12	6.06	-41.1	-42.4	20.8	0.00e+00	92	40	0	140509184	56	5968
2026-01-04 11:52:59.96	35.51	6.18	-41.0	-42.2	20.9	0.00e+00	47	40	0	146800640	56	5886
2026-01-04 11:53:02.99	35.91	6.30	-41.1	-42.4	20.8	0.00e+00	0	40	0	152043520	56	5976
2026-01-04 11:53:06.02	36.31	6.43	-41.3	-42.5	20.6	0.00e+00	34	40	0	157286400	56	6100
2026-01-04 11:53:09.04	36.72	6.55	-41.3	-42.6	20.6	0.00e+00	0	40	0	163577856	56	6125
2026-01-04 11:53:12.07	37.12	6.67	-41.6	-42.9	20.4	0.00e+00	0	40	0	168820736	56	6338
2026-01-04 11:53:15.10	37.54	6.79	-41.4	-42.7	20.6	0.00e+00	0	40	0	175112192	56	6204
2026-01-04 11:53:18.13	37.95	6.91	-41.5	-42.8	20.4	0.00e+00	92	40	0	180355072	56	6269
2026-01-04 11:53:21.15	38.37	7.03	-41.2	-42.5	20.8	0.00e+00	35	40	0	185597952	56	6034
2026-01-04 11:53:24.18	38.79	7.15	-41.5	-42.7	20.6	0.00e+00	3	40	0	191889408	56	6244
2026-01-04 11:53:27.20	39.22	7.27	-41.4	-42.6	20.6	0.00e+00	92	40	0	197132288	56	6173
2026-01-04 11:53:30.23	39.64	7.39	-41.9	-43.2	20.2	0.00e+00	2	40	0	203423744	56	6583
2026-01-04 11:53:33.26	40.08	7.50	-42.1	-43.5	19.9	0.00e+00	0	40	0	208666624	56	6835
2026-01-04 11:53:36.29	40.51	7.62	-41.4	-42.6	20.7	0.00e+00	91	40	0	214958080	56	6138
2026-01-04 11:53:39.32	40.95	7.73	-41.4	-42.7	20.6	0.00e+00	0	40	0	220200960	56	6188
2026-01-04 11:53:42.35	41.39	7.85	-41.3	-42.6	20.8	0.00e+00	40	40	0	225443840	56	6132
2026-01-04 11:53:45.38	41.84	7.96	-41.3	-42.5	20.8	0.00e+00	34	40	0	231735296	56	6066
2026-01-04 11:53:48.41	42.29	8.07	-41.4	-42.6	20.7	0.00e+00	11	40	0	236978176	56	6162
2026-01-04 11:53:51.44	42.74	8.18	-41.2	-42.4	20.9	0.00e+00	0	40	0	243269632	56	6014
2026-01-04 11:53:54.47	43.19	8.29	-41.4	-42.6	20.7	0.00e+00	6	40	0	248512512	56	6161
2026-01-04 11:53:57.49	43.65	8.40	-41.4	-42.7	20.6	0.00e+00	91	40	0	253755392	56	6212
2026-01-04 11:54:00.52	44.11	8.51	-41.5	-42.8	20.6	0.00e+00	48	40	0	260046848	56	6280
2026-01-04 11:54:03.55	44.58	8.61	-41.4	-42.7	20.7	0.00e+00	47	40	0	265289728	56	6195
2026-01-04 11:54:06.58	45.05	8.72	-41.2	-42.4	21.0	0.00e+00	92	40	0	271581184	56	6028
2026-01-04 11:54:09.61	45.52	8.82	-41.1	-42.3	21.0	0.00e+00	0	40	0	276824064	56	5910
2026-01-04 11:54:12.64	45.99	8.93	-41.1	-42.3	21.1	0.00e+00	0	40	0	283115520	56	5905
2026-01-04 11:54:15.66	46.47	9.03	-41.3	-42.5	21.0	0.00e+00	60	40	0	288358400	56	6053
2026-01-04 11:54:18.69	46.95	9.13	-41.5	-42.8	20.8	0.00e+00	0	40	0	293601280	56	6250
2026-01-04 11:54:21.71	47.43	9.23	-41.6	-42.8	20.6	0.00e+00	0	40	0	299892736	56	6299
2026-01-04 11:54:24.75	47.92	9.32	-41.7	-42.9	20.5	0.00e+00	48	40	0	305135616	56	6381
2026-01-04 11:54:27.78	48.42	9.42	-41.5	-42.7	20.8	0.00e+00	92	40	0	311427072	56	6229
2026-01-04 11:54:30.80	48.91	9.52	-41.6	-42.8	20.6	0.00e+00	33	40	0	316669952	56	6280
2026-01-04 11:54:33.83	49.41	9.61	-41.3	-42.5	21.0	0.00e+00	0	40	0	321912832	56	6061
2026-01-04 11:54:36.86	49.91	9.70	-41.2	-42.3	21.2	0.00e+00	92	40	0	328204288	56	5960
2026-01-04 11:54:39.89	50.41	9.79	-41.5	-42.7	20.9	0.00e+00	43	40	0	333447168	56	6195
2026-01-04 11:54:42.92	50.92	9.88	-41.6	-42.8	20.8	0.00e+00	0	40	0	339738624	56	6313
2026-01-04 11:54:45.95	51.43	9.97	-41.6	-42.8	20.7	0.00e+00	91	40	0	344981504	56	6313
2026-01-04 11:54:48.97	51.94	10.05	-41.3	-42.5	21.0	0.00e+00	32	40	0	350224384	56	6098
2026-01-04 11:54:52.00	52.45	10.13	-41.4	-42.6	21.0	0.00e+00	2	40	0	356515840	56	6147
2026-01-04 11:54:55.03	52.97	10.22	-41.0	-42.1	21.4	0.00e+00	0	40	0	361758720	56	5810
2026-01-04 11:54:58.06	53.49	10.30	-40.9	-42.1	21.4	0.00e+00	0	40	0	368050176	56	5794
2026-01-04 11:55:01.09	54.01	10.37	-41.2	-42.4	21.1	0.00e+00	0	40	0	373293056	56	6030
2026-01-04 11:55:04.12	54.54	10.45	-41.4	-42.6	20.9	0.00e+00	48	40	0	379584512	56	6131
2026-01-04 11:55:07.14	55.07	10.52	-41.2	-42.3	21.3	0.00e+00	92	40	0	384827392	56	5955
2026-01-04 11:55:10.17	55.60	10.60	-40.9	-42.0	21.5	0.00e+00	39	40	0	390070272	56	5729
2026-01-04 11:55:13.19	56.13	10.67	-40.5	-41.6	21.8	0.00e+00	32	40	0	396361728	54	6170
2026-01-04 11:55:16.22	56.67	10.74	-40.6	-41.7	21.7	0.00e+00	92	40	0	401604608	54	6189
2026-01-04 11:55:19.25	57.21	10.80	-40.7	-41.8	21.6	0.00e+00	0	40	0	407896064	54	6304
2026-01-04 11:55:22.27	57.75	10.87	-41.0	-42.1	21.3	0.00e+00	2	40	0	413138944	54	6522
2026-01-04 11:55:25.30	58.29	10.93	-41.1	-42.3	21.2	0.00e+00	92	40	0	418381824	54	6646
2026-01-04 11:55:28.32	58.83	10.99	-41.1	-42.3	21.3	0.00e+00	0	40	0	424673280	54	6630
2026-01-04 11:55:31.35	59.38	11.05	-41.1	-42.3	21.2	0.00e+00	0	40	0	429916160	54	6663
2026-01-04 11:55:34.37	59.93	11.10	-41.3	-42.5	20.9	0.00e+00	41	40	0	436207616	54	6825
2026-01-04 11:55:37.40	60.48	11.16	-41.6	-42.8	20.6	0.00e+00	24	40	0	441450496	54	7073
2026-01-04 11:55:40.42	61.04	11.21	-41.6	-42.8	20.7	0.00e+00	40	40	0	446693376	54	7071
2026-01-04 11:55:43.45	61.59	11.26	-41.6	-42.8	20.7	0.00e+00	5	40	0	452984832	54	7057
2026-01-04 11:55:46.47	62.15	11.30	-41.8	-43.1	20.5	0.00e+00	90	40	0	458227712	56	6491
2026-01-04 11:55:49.50	62.71	11.35	-42.0	-43.4	20.2	0.00e+00	0	40	0	464519168	56	6709
2026-01-04 11:55:52.53	63.27	11.39	-41.9	-43.2	20.3	0.00e+00	49	40	0	469762048	56	6596
2026-01-04 11:55:55.56	63.83	11.43	-41.8	-43.1	20.5	0.00e+00	92	40	0	476053504	56	6505
2026-01-04 11:55:58.59	64.40	11.47	-41.5	-42.7	20.8	0.00e+00	5	40	0	481296384	56	6242
2026-01-04 11:56:01.62	64.96	11.50	-41.4	-42.6	20.9	0.00e+00	0	40	0	486539264	56	6141
2026-01-04 11:56:04.64	65.53	11.53	-41.6	-42.9	20.7	0.00e+00	92	40	0	492830720	56	6339
2026-01-04 11:56:07.67	66.09	11.56	-41.7	-43.0	20.6	0.00e+00	5	40	0	498073600	56	6401
2026-01-04 11:56:10.70	66.66	11.59	-41.2	-42.4	21.1	0.00e+00	43	40	0	504365056	56	6008
2026-01-04 11:56:13.73	67.23	11.62	-41.3	-42.5	21.0	0.00e+00	49	40	0	509607936	56	6058
2026-01-04 11:56:16.76	67.80	11.64	-41.4	-42.7	20.8	0.00e+00	91	40	0	514850816	56	6188
2026-01-04 11:56:19.78	68.37	11.66	-41.1	-42.2	21.2	0.00e+00	33	40	0	521142272	56	5894
2026-01-04 11:56:22.81	68.95	11.68	-41.2	-42.4	21.2	0.00e+00	34	40	0	526385152	56	5991
2026-01-04 11:56:25.84	69.52	11.69	-41.0	-42.2	21.2	0.00e+00	92	40	0	532676608	56	5864
2026-01-04 11:56:28.86	70.09	11.70	-41.0	-42.2	21.4	0.00e+00	2	40	0	537919488	56	5830
2026-01-04 11:56:31.90	70.67	11.71	-40.7	-41.8	21.5	0.00e+00	0	40	0	544210944	54	6303
2026-01-04 11:56:34.93	71.24	11.72	-40.3	-41.4	21.9	0.00e+00	76	40	0	549453824	54	5979
2026-01-04 11:56:37.96	71.82	11.73	-40.1	-41.1	22.3	0.00e+00	43	40	0	554696704	54	5806
2026-01-04 11:56:40.98	72.39	11.73	-40.0	-41.1	22.3	0.00e+00	0	40	0	560988160	54	5768
2026-01-04 11:56:44.01	72.97	11.73	-40.0	-41.1	22.3	0.00e+00	18	40	0	566231040	54	5794
2026-01-04 11:56:47.04	73.54	11.72	-39.8	-40.8	22.5	0.00e+00	0	40	0	572522496	54	5589
2026-01-04 11:56:50.07	74.12	11.72	-39.7	-40.7	22.5	0.00e+00	0	40	0	577765376	52	6184
2026-01-04 11:56:53.10	74.69	11.71	-40.2	-41.3	22.1	0.00e+00	50	40	0	583008256	52	6618
2026-01-04 11:56:56.13	75.27	11.70	-39.8	-40.8	22.6	0.00e+00	92	40	0	589299712	52	6289
2026-01-04 11:56:59.16	75.84	11.69	-39.6	-40.6	22.8	0.00e+00	0	40	0	594542592	52	6130
2026-01-04 11:57:02.18	76.41	11.67	-39.5	-40.5	22.9	0.00e+00	0	40	0	600834048	52	6041
2026-01-04 11:57:05.21	76.98	11.65	-39.6	-40.6	22.7	0.00e+00	92	40	0	606076928	52	6145
2026-01-04 11:57:08.24	77.56	11.63	-39.9	-40.9	22.4	0.00e+00	0	40	0	612368384	52	6387
2026-01-04 11:57:11.27	78.13	11.61	-39.9	-40.9	22.5	0.00e+00	0	40	0	617611264	52	6341
2026-01-04 11:57:14.30	78.70	11.58	-40.1	-41.2	22.3	0.00e+00	20	40	0	622854144	52	6571
2026-01-04 11:57:17.33	79.27	11.55	-40.1	-41.1	22.2	0.00e+00	0	40	0	629145600	52	6530
2026-01-04 11:57:20.35	79.83	11.52	-39.8	-40.8	22.6	0.00e+00	33	40	0	634388480	52	6251
2026-01-04 11:57:23.38	80.40	11.49	-39.9	-41.0	22.4	0.00e+00	0	40	0	640679936	52	6403
2026-01-04 11:57:26.40	80.96	11.45	-40.3	-41.3	22.0	0.00e+00	36	40	0	645922816	52	6687
2026-01-04 11:57:29.43	81.53	11.41	-40.4	-41.5	21.9	0.00e+00	0	40	0	651165696	52	6831
2026-01-04 11:57:32.46	82.09	11.37	-40.3	-41.4	22.0	0.00e+00	0	40	0	657457152	52	6695
2026-01-04 11:57:35.49	82.65	11.33	-40.0	-41.1	22.2	0.00e+00	92	40	0	662700032	52	6481
2026-01-04 11:57:38.51	83.21	11.28	-40.0	-41.1	22.1	0.00e+00	0	40	0	668991488	52	6490
2026-01-04 11:57:41.54	83.77	11.24	-39.9	-40.9	22.4	0.00e+00	43	40	0	674234368	52	6347
2026-01-04 11:57:44.57	84.33	11.19	-39.7	-40.7	22.6	0.00e+00	92	40	0	679477248	52	6187
2026-01-04 11:57:47.59	84.88	11.13	-39.5	-40.5	22.8	0.00e+00	39	40	0	685768704	52	6046
2026-01-04 11:57:50.62	85.43	11.08	-39.6	-40.6	22.8	0.00e+00	40	40	0	691011584	52	6147
2026-01-04 11:57:53.65	85.98	11.02	-39.5	-40.5	22.8	0.00e+00	23	40	0	697303040	52	6076
2026-01-04 11:57:56.68	86.53	10.96	-39.6	-40.6	22.6	0.00e+00	8	40	0	702545920	52	6145
2026-01-04 11:57:59.70	87.07	10.90	-39.3	-40.3	23.0	0.00e+00	47	40	0	708837376	52	5899
2026-01-04 11:58:02.73	87.62	10.84	-39.6	-40.6	22.7	0.00e+00	46	40	0	714080256	52	6119
2026-01-04 11:58:05.76	88.16	10.77	-39.7	-40.7	22.6	0.00e+00	84	40	0	719323136	52	6217
2026-01-04 11:58:08.78	88.70	10.71	-39.4	-40.4	22.9	0.00e+00	0	40	0	725614592	52	5984
2026-01-04 11:58:11.81	89.24	10.64	-39.5	-40.5	22.7	0.00e+00	39	40	0	730857472	52	6096
2026-01-04 11:58:14.84	89.77	10.57	-39.6	-40.6	22.7	0.00e+00	92	40	0	737148928	52	6147
2026-01-04 11:58:17.87	90.30	10.49	-39.3	-40.3	23.0	0.00e+00	2	40	0	742391808	52	5951
2026-01-04 11:58:20.90	90.83	10.42	-39.3	-40.3	22.9	0.00e+00	47	40	0	747634688	52	5919
2026-01-04 11:58:23.93	91.36	10.34	-39.6	-40.6	22.7	0.00e+00	92	40	0	753926144	52	6126
2026-01-04 11:58:26.95	91.88	10.26	-39.8	-40.8	22.6	0.00e+00	3	40	0	759169024	52	6267
2026-01-04 11:58:29.97	92.40	10.18	-40.0	-41.0	22.2	0.00e+00	35	40	0	765460480	52	6450
2026-01-04 11:58:33.00	92.92	10.10	-40.1	-41.1	22.2	0.00e+00	92	40	0	770703360	52	6513
2026-01-04 11:58:36.02	93.43	10.01	-40.3	-41.4	22.0	0.00e+00	78	40	0	776994816	54	6028
2026-01-04 11:58:39.05	93.95	9.93	-40.6	-41.7	21.6	0.00e+00	0	40	0	782237696	54	6217
2026-01-04 11:58:42.08	94.46	9.84	-40.9	-42.1	21.3	0.00e+00	0	40	0	787480576	54	6491
2026-01-04 11:58:45.11	94.96	9.75	-41.4	-42.6	20.8	0.00e+00	92	40	0	793772032	54	6895
2026-01-04 11:58:48.13	95.47	9.66	-41.7	-43.0	20.4	0.00e+00	32	40	0	799014912	56	6457
2026-01-04 11:58:51.16	95.97	9.56	-41.6	-42.9	20.7	0.00e+00	0	40	0	805306368	56	6334
2026-01-04 11:58:54.19	96.46	9.47	-41.4	-42.7	20.7	0.00e+00	92	40	0	810549248	56	6208
2026-01-04 11:58:57.22	96.96	9.37	-41.7	-43.0	20.4	0.00e+00	0	40	0	815792128	56	6461
2026-01-04 11:59:00.24	97.45	9.28	-41.9	-43.3	20.1	0.00e+00	0	40	0	822083584	56	6621
2026-01-04 11:59:03.27	97.94	9.18	-42.3	-43.7	19.6	0.00e+00	92	40	0	827326464	56	7003
2026-01-04 11:59:06.30	98.42	9.08	-42.7	-44.3	19.1	0.00e+00	0	40	0	833617920	58	6655
2026-01-04 11:59:09.32	98.90	8.98	-43.2	-44.9	18.4	0.00e+00	42	40	0	838860800	58	7158
2026-01-04 11:59:12.35	99.38	8.87	-43.0	-44.6	18.8	0.00e+00	53	40	0	844103680	58	6891
2026-01-04 11:59:15.38	99.86	8.77	-42.7	-44.2	19.2	0.00e+00	90	40	0	850395136	58	6592
2026-01-04 11:59:18.40	100.33	8.66	-42.6	-44.1	19.4	0.00e+00	37	40	0	855638016	58	6490
2026-01-04 11:59:21.43	100.80	8.56	-42.5	-44.0	19.3	0.00e+00	0	40	0	861929472	58	6444
2026-01-04 11:59:24.46	101.26	8.45	-42.6	-44.2	19.2	0.00e+00	92	40	0	867172352	58	6543
2026-01-04 11:59:27.48	101.72	8.34	-43.0	-44.6	18.6	0.00e+00	46	40	0	873463808	58	6914
2026-01-04 11:59:30.51	102.18	8.23	-43.0	-44.6	18.7	0.00e+00	0	40	0	878706688	58	6880
2026-01-04 11:59:33.54	102.64	8.12	-42.3	-43.8	19.5	0.00e+00	91	40	0	883949568	58	6313
2026-01-04 11:59:36.57	103.09	8.01	-42.1	-43.7	19.7	0.00e+00	40	40	0	890241024	58	6191
2026-01-04 11:59:39.59	103.54	7.89	-42.4	-43.9	19.3	0.00e+00	6	40	0	895483904	58	6390
2026-01-04 11:59:42.62	103.98	7.78	-42.8	-44.4	18.8	0.00e+00	92	40	0	901775360	58	6745
2026-01-04 11:59:45.65	104.43	7.66	-42.2	-43.7	19.5	0.00e+00	0	40	0	907018240	58	6190
2026-01-04 11:59:48.68	104.86	7.55	-41.6	-42.9	20.4	0.00e+00	44	40	0	912261120	56	6358
2026-01-04 11:59:51.71	105.30	7.43	-41.6	-42.9	20.4	0.00e+00	45	40	0	918552576	56	6323
2026-01-04 11:59:54.74	105.73	7.31	-41.7	-43.1	20.2	0.00e+00	92	40	0	923795456	56	6481
2026-01-04 11:59:57.77	106.16	7.20	-41.9	-43.2	20.0	0.00e+00	45	40	0	930086912	56	6611
2026-01-04 12:00:00.80	106.59	7.08	-41.8	-43.1	20.2	0.00e+00	36	40	0	935329792	56	6535
2026-01-04 12:00:03.83	107.01	6.96	-41.7	-43.1	20.2	0.00e+00	92	40	0	941621248	56	6481
2026-01-04 12:00:06.86	107.43	6.84	-41.9	-43.3	20.0	0.00e+00	0	40	0	946864128	56	6672
2026-01-04 12:00:09.88	107.84	6.71	-41.2	-42.7	20.5	0.00e+00	39	40	0	952107008	56	6206
2026-01-04 12:00:12.91	108.25	6.59	-40.8	-42.0	21.2	0.00e+00	92	40	0	958398464	56	5709
2026-01-04 12:00:15.93	108.66	6.47	-40.6	-41.8	21.2	0.00e+00	47	40	0	963641344	54	6289
2026-01-04 12:00:18.96	109.07	6.35	-40.9	-42.1	20.9	0.00e+00	0	40	0	969932800	54	6523
2026-01-04 12:00:21.99	109.47	6.22	-40.9	-42.2	21.0	0.00e+00	0	40	0	975175680	54	6579
2026-01-04 12:00:25.02	109.87	6.10	-40.7	-41.9	21.3	0.00e+00	21	40	0	980418560	54	6335
2026-01-04 12:00:28.05	110.26	5.97	-40.9	-42.1	20.9	0.00e+00	0	40	0	986710016	54	6530
2026-01-04 12:00:31.08	110.65	5.85	-41.1	-42.4	20.5	0.00e+00	0	40	0	991952896	54	6759
2026-01-04 12:00:34.10	111.04	5.72	-41.4	-42.7	20.4	0.00e+00	92	40	0	998244352	54	6955
2026-01-04 12:00:37.12	111.43	5.59	-41.0	-42.3	20.7	0.00e+00	0	40	0	1003487232	54	6655
2026-01-04 12:00:40.15	111.81	5.47	-40.8	-42.0	21.0	0.00e+00	41	40	0	1008730112	54	6437
2026-01-04 12:00:43.18	112.19	5.34	-40.7	-41.9	21.0	0.00e+00	92	40	0	1015021568	54	6335
2026-01-04 12:00:46.21	112.57	5.21	-41.0	-42.3	20.7	0.00e+00	36	40	0	1020264448	54	6638
2026-01-04 12:00:49.23	112.94	5.08	-40.9	-42.2	20.8	0.00e+00	0	40	0	1026555904	54	6555
2026-01-04 12:00:52.26	113.31	4.95	-41.2	-42.5	20.3	0.00e+00	90	40	0	1031798784	54	6826
2026-01-04 12:00:55.29	113.68	4.83	-40.9	-42.2	20.7	0.00e+00	0	40	0	1038090240	54	6566
2026-01-04 12:00:58.32	114.04	4.70	-41.1	-42.4	20.5	0.00e+00	0	40	0	1043333120	54	6720
2026-01-04 12:01:01.34	114.40	4.57	-41.1	-42.4	20.3	0.00e+00	43	40	0	1048576000	54	6738
2026-01-04 12:01:04.38	114.76	4.44	-41.5	-42.9	19.8	0.00e+00	92	40	0	1054867456	54	7108
2026-01-04 12:01:07.40	115.11	4.31	-41.6	-43.0	19.7	0.00e+00	0	40	0	1060110336	54	7220
2026-01-04 12:01:10.43	115.46	4.18	-41.4	-42.8	19.9	0.00e+00	6	40	0	1066401792	54	7011
2026-01-04 12:01:13.46	115.81	4.05	-41.9	-43.4	19.5	0.00e+00	91	40	0	1071644672	56	6750
2026-01-04 12:01:16.48	116.16	3.91	-42.1	-43.6	19.1	0.00e+00	42	40	0	1076887552	56	6904
2026-01-04 12:01:19.51	116.50	3.78	-42.2	-43.8	19.0	0.00e+00	42	40	0	1083179008	56	7024
2026-01-04 12:01:22.54	116.84	3.65	-42.0	-43.5	19.2	0.00e+00	90	40	0	1088421888	56	6833
2026-01-04 12:01:25.56	117.17	3.52	-42.2	-43.8	18.7	0.00e+00	42	40	0	1094713344	56	7073
2026-01-04 12:01:28.59	117.51	3.39	-42.0	-43.6	18.9	0.00e+00	7	40	0	1099956224	56	6905
2026-01-04 12:01:31.62	117.84	3.26	-42.1	-43.8	18.6	0.00e+00	7	40	0	1105199104	56	7038
2026-01-04 12:01:34.64	118.17	3.13	-42.7	-44.5	18.0	0.00e+00	0	40	0	1111490560	56	7654
2026-01-04 12:01:37.67	118.49	2.99	-48.7	-63.6	3.6	8.83e-01	0	40	104	1116733440	60	54684
2026-01-04 12:01:40.70	118.82	2.86	-49.7	-64.9	3.6	1.51e+00	0	40	104	1116733440	60	63763
2026-01-04 12:01:43.73	119.14	2.73	-49.9	-65.1	3.6	1.51e+00	0	40	104	1116733440	60	65140
2026-01-04 12:01:46.75	119.45	2.60	-50.0	-65.2	3.6	1.51e+00	0	40	104	1116733440	60	66080
2026-01-04 12:01:49.78	119.77	2.46	-50.1	-65.4	3.6	1.51e+00	0	40	104	1116733440	60	67381
2026-01-04 12:01:52.80	120.08	2.33	-50.4	-65.6	3.6	1.51e+00	0	40	104	1116733440	60	68777
2026-01-04 12:01:55.83	120.39	2.20	-50.3	-65.4	3.6	1.51e+00	0	40	104	1116733440	60	67625
2026-01-04 12:01:58.86	120.69	2.07	-50.5	-65.7	3.6	1.51e+00	0	40	104	1116733440	60	69563
2026-01-04 12:02:01.88	121.00	1.94	-50.3	-65.4	3.6	1.51e+00	0	40	104	1116733440	60	67357
2026-01-04 12:02:04.91	121.30	1.80	-50.2	-65.4	3.6	1.51e+00	0	40	104	1116733440	60	67510
2026-01-04 12:02:07.94	121.60	1.67	-50.4	-65.6	3.6	1.51e+00	0	40	104	1116733440	60	68593
2026-01-04 12:02:10.96	121.89	1.54	-50.7	-65.9	3.6	1.51e+00	0	40	104	1116733440	60	71501
2026-01-04 12:02:13.99	122.19	1.41	-50.5	-65.7	3.6	1.51e+00	0	40	104	1116733440	60	69846
2026-01-04 12:02:17.02	122.48	1.27	-50.7	-65.9	3.6	1.51e+00	0	40	104	1116733440	60	70903
2026-01-04 12:02:20.05	122.77	1.14	-50.7	-65.8	3.6	1.51e+00	0	40	104	1116733440	60	70857
2026-01-04 12:02:23.08	123.05	1.01	-50.5	-65.8	3.6	1.51e+00	0	40	104	1116733440	60	70227
2026-01-04 12:02:26.10	123.34	0.88	-51.3	-66.5	3.6	1.51e+00	0	40	104	1116733440	60	76794
2026-01-04 12:02:29.13	123.62	0.74	-51.0	-66.1	3.6	1.51e+00	0	40	104	1116733440	60	73328
2026-01-04 12:02:32.16	123.90	0.61	-50.5	-65.7	3.5	1.51e+00	0	40	104	1116733440	60	69529
2026-01-04 12:02:35.19	124.17	0.48	-51.0	-66.2	3.6	1.51e+00	0	40	104	1116733440	60	74117
2026-01-04 12:02:38.22	124.45	0.35	-51.2	-66.4	3.6	1.51e+00	0	40	104	1116733440	60	75327
2026-01-04 12:02:41.24	124.72	0.21	-51.3	-66.5	3.6	1.51e+00	0	40	104	1116733440	60	76237
2026-01-04 12:02:44.27	124.99	0.08	-51.1	-66.3	3.6	1.51e+00	0	40	104	1116733440	60	74793
2026-01-04 12:02:47.30	125.26	-0.05	-51.6	-66.8	3.6	1.51e+00	0	40	104	1116733440	60	78821

#Closed at: 2026-01-04 12:02:48
#Recorded file [1116 MB]: D:/lorett/data/35029_260104_235037.dat