passes_logs/2026/01/04/R4.6S_Anadyr/R4.6S_Anadyr__20260104_163840_AQUA_rec.log

#Pass ID: 20260104_163840_AQUA
#Satellite: AQUA
#Configuration: AQUA
#almurnet v.1.7.20251203
#Start time: 2026-01-04 16:38:41

#Version: 2.2.20231116
#Station: R4.6S_Anadyr
#Location: 177.4865 lon 64.73178 lat
#TLE: 1 27424U 02022A   25365.92641127  .00002078  00000+0  42628-3 0  9999
#TLE: 2 27424  98.4058 327.1196 0001962  94.7781 340.6230 14.61783896258835

#Time	Az	El	Level	Level2	SNR	BER	BlckErr	Temp	State	Recorded	gain1	gain2
2026-01-04 16:38:41.89	20.10	0.10	-49.3	-60.9	3.5	8.46e-01	0	35	0	0	60	40204
2026-01-04 16:38:45.93	20.08	0.35	-51.0	-69.0	3.5	3.04e+01	0	37	104	0	60	107857
2026-01-04 16:38:49.97	20.06	0.60	-49.8	-67.7	3.5	3.04e+01	0	37	104	0	60	93271
2026-01-04 16:38:54.00	20.03	0.85	-48.8	-66.8	3.5	3.04e+01	0	37	104	0	60	84219
2026-01-04 16:38:58.04	20.01	1.11	-48.0	-65.8	3.5	3.04e+01	0	37	104	0	60	75052
2026-01-04 16:39:02.08	19.99	1.37	-48.0	-65.9	3.5	3.04e+01	0	37	104	0	60	75624
2026-01-04 16:39:06.12	19.96	1.63	-48.1	-65.3	3.5	3.04e+01	0	37	104	0	60	71149
2026-01-04 16:39:10.15	19.94	1.89	-48.0	-64.0	3.6	3.04e+01	0	37	104	0	60	61346
2026-01-04 16:39:14.20	19.91	2.16	-48.0	-65.4	3.5	3.04e+01	0	37	104	0	60	71955
2026-01-04 16:39:18.24	19.88	2.43	-48.0	-65.3	3.5	3.04e+01	0	37	104	0	60	71157
2026-01-04 16:39:22.28	19.85	2.70	-47.9	-61.7	3.7	3.04e+01	0	37	104	0	60	46984
2026-01-04 16:39:26.31	19.82	2.98	-47.8	-60.7	4.8	3.04e+01	0	37	104	524288	60	41772
2026-01-04 16:39:30.34	19.79	3.26	-46.7	-52.9	10.8	3.04e+01	61	37	0	3670016	60	16909
2026-01-04 16:39:34.38	19.76	3.54	-42.5	-44.9	19.7	3.04e+01	59	37	0	11010048	60	6753
2026-01-04 16:39:38.42	19.73	3.82	-41.7	-43.8	21.5	3.04e+01	60	37	0	18874368	56	7532
2026-01-04 16:39:42.46	19.70	4.11	-41.1	-42.9	22.7	3.04e+01	59	37	0	26214400	56	6797
2026-01-04 16:39:46.49	19.66	4.40	-41.1	-42.9	22.5	3.04e+01	63	37	0	28835840	60	5403
2026-01-04 16:39:50.53	19.63	4.70	-42.1	-44.3	21.3	3.04e+01	47	37	0	36700160	58	7077
2026-01-04 16:39:54.56	19.59	5.00	-41.0	-42.8	22.5	3.04e+01	61	37	0	44040192	56	6716
2026-01-04 16:39:58.60	19.55	5.30	-39.2	-40.8	24.4	3.04e+01	54	37	0	51904512	50	7465
2026-01-04 16:40:02.63	19.51	5.60	-38.8	-40.3	25.3	3.04e+01	56	38	0	59244544	52	6329
2026-01-04 16:40:06.67	19.47	5.92	-38.0	-39.4	26.4	3.04e+01	44	37	0	66584576	50	6386
2026-01-04 16:40:10.71	19.43	6.23	-38.1	-39.6	25.7	3.04e+01	60	37	0	74448896	50	6530
2026-01-04 16:40:14.75	19.39	6.55	-37.3	-38.7	26.9	3.04e+01	44	37	0	81788928	48	6582
2026-01-04 16:40:18.78	19.34	6.87	-37.1	-38.5	27.1	3.04e+01	59	37	0	89653248	48	6454
2026-01-04 16:40:22.81	19.30	7.20	-37.3	-38.7	27.1	3.04e+01	50	37	0	96993280	48	6583
2026-01-04 16:40:26.85	19.25	7.53	-36.7	-38.0	27.6	3.04e+01	62	38	0	104333312	48	6084
2026-01-04 16:40:30.89	19.20	7.87	-36.6	-37.9	27.6	3.04e+01	58	38	0	112197632	48	6046
2026-01-04 16:40:34.92	19.15	8.21	-36.4	-37.7	28.0	3.04e+01	59	38	0	119537664	48	5897
2026-01-04 16:40:38.96	19.10	8.56	-36.5	-37.8	27.9	3.04e+01	59	38	0	127401984	48	5944
2026-01-04 16:40:43.00	19.04	8.91	-37.0	-38.3	27.5	3.04e+01	58	38	0	134742016	48	6338
2026-01-04 16:40:47.04	18.98	9.27	-36.7	-38.0	27.7	3.04e+01	58	38	0	142606336	48	6075
2026-01-04 16:40:51.07	18.93	9.64	-37.2	-38.5	27.5	3.04e+01	58	38	0	149946368	48	6450
2026-01-04 16:40:55.11	18.86	10.01	-36.3	-37.5	28.3	3.04e+01	58	38	0	157810688	48	5791
2026-01-04 16:40:59.15	18.80	10.38	-35.9	-37.1	28.6	3.04e+01	59	38	0	165150720	46	6192
2026-01-04 16:41:03.18	18.74	10.77	-35.9	-37.1	28.6	3.04e+01	59	38	0	172490752	46	6199
2026-01-04 16:41:07.22	18.67	11.16	-35.7	-37.0	28.8	3.04e+01	56	38	0	180355072	46	6065
2026-01-04 16:41:11.26	18.60	11.55	-35.9	-37.2	28.7	3.04e+01	56	38	0	187695104	46	6217
2026-01-04 16:41:15.29	18.53	11.96	-35.5	-36.8	29.0	3.04e+01	60	38	0	195559424	46	5931
2026-01-04 16:41:19.33	18.45	12.37	-35.8	-37.0	28.8	3.04e+01	58	38	0	202899456	46	6101
2026-01-04 16:41:23.37	18.37	12.79	-35.2	-36.5	29.2	3.04e+01	60	38	0	210763776	46	5730
2026-01-04 16:41:27.41	18.29	13.22	-35.6	-36.8	29.1	3.04e+01	58	38	0	218103808	46	5965
2026-01-04 16:41:31.44	18.21	13.65	-35.3	-36.5	29.4	3.04e+01	58	38	0	225443840	46	5759
2026-01-04 16:41:35.48	18.12	14.10	-35.2	-36.4	29.4	3.04e+01	59	38	0	233308160	46	5671
2026-01-04 16:41:39.52	18.03	14.55	-35.0	-36.2	29.6	3.04e+01	50	38	0	240648192	44	6224
2026-01-04 16:41:43.56	17.93	15.02	-34.8	-36.0	29.8	3.04e+01	57	38	0	248512512	44	6077
2026-01-04 16:41:47.59	17.83	15.49	-34.9	-36.1	29.7	3.04e+01	45	38	0	255852544	44	6144
2026-01-04 16:41:51.63	17.73	15.98	-35.1	-36.3	29.5	3.04e+01	58	38	0	263716864	44	6339
2026-01-04 16:41:55.67	17.62	16.47	-35.1	-36.3	29.4	3.04e+01	52	38	0	271056896	44	6287
2026-01-04 16:41:59.70	17.51	16.98	-35.2	-36.4	29.3	3.04e+01	59	38	0	278921216	44	6404
2026-01-04 16:42:03.74	17.40	17.49	-35.1	-36.3	29.5	3.04e+01	52	38	0	286261248	44	6305
2026-01-04 16:42:07.78	17.28	18.02	-34.9	-36.1	29.7	3.04e+01	59	38	0	293601280	44	6149
2026-01-04 16:42:11.81	17.15	18.56	-35.2	-36.4	29.5	3.04e+01	50	38	0	301465600	44	6351
2026-01-04 16:42:15.85	17.02	19.12	-35.2	-36.4	29.5	3.04e+01	63	38	0	308805632	44	6396
2026-01-04 16:42:19.88	16.88	19.69	-35.5	-36.7	29.1	3.04e+01	44	38	0	316669952	44	6646
2026-01-04 16:42:23.92	16.74	20.27	-35.5	-36.7	29.2	3.04e+01	59	38	0	324009984	44	6596
2026-01-04 16:42:27.96	16.59	20.87	-35.3	-36.5	29.5	3.04e+01	47	38	0	331874304	44	6447
2026-01-04 16:42:31.99	16.43	21.49	-35.5	-36.7	29.3	3.04e+01	58	38	0	339214336	44	6583
2026-01-04 16:42:36.02	16.26	22.12	-35.5	-36.8	29.2	3.04e+01	46	38	0	346554368	44	6652
2026-01-04 16:42:40.06	16.09	22.77	-35.4	-36.6	29.3	3.04e+01	62	38	0	354418688	44	6510
2026-01-04 16:42:44.10	15.91	23.43	-36.0	-37.2	29.0	3.04e+01	45	38	0	361758720	46	6233
2026-01-04 16:42:48.14	15.72	24.12	-36.1	-37.3	28.9	3.04e+01	60	38	0	369623040	46	6323
2026-01-04 16:42:52.17	15.52	24.82	-35.9	-37.1	29.2	3.04e+01	56	38	0	376963072	46	6143
2026-01-04 16:42:56.21	15.31	25.55	-35.6	-36.8	29.4	3.04e+01	57	38	0	384827392	46	5969
2026-01-04 16:43:00.25	15.09	26.30	-35.6	-36.8	29.3	3.04e+01	57	38	0	392167424	46	5953
2026-01-04 16:43:04.29	14.85	27.07	-35.8	-37.1	29.1	3.04e+01	60	38	0	400031744	46	6139
2026-01-04 16:43:08.33	14.61	27.87	-35.2	-36.4	29.6	3.04e+01	59	38	0	407371776	46	5689
2026-01-04 16:43:12.37	14.34	28.69	-34.9	-36.0	29.9	3.04e+01	62	38	0	414711808	44	6125
2026-01-04 16:43:16.41	14.07	29.53	-35.4	-36.6	29.5	3.04e+01	62	38	0	422576128	44	6565
2026-01-04 16:43:20.44	13.78	30.40	-34.8	-36.0	30.0	3.04e+01	57	38	0	429916160	44	6093
2026-01-04 16:43:24.48	13.46	31.30	-35.0	-36.2	30.0	3.04e+01	57	38	0	437780480	44	6255
2026-01-04 16:43:28.52	13.13	32.23	-34.8	-36.0	30.0	3.04e+01	60	38	0	445120512	44	6110
2026-01-04 16:43:32.55	12.78	33.19	-35.3	-36.5	29.7	3.04e+01	59	38	0	452984832	44	6482
2026-01-04 16:43:36.59	12.41	34.19	-36.2	-37.4	28.7	3.04e+01	56	38	0	460324864	46	6383
2026-01-04 16:43:40.63	12.01	35.21	-36.1	-37.4	28.7	3.04e+01	58	38	0	468189184	46	6356
2026-01-04 16:43:44.66	11.58	36.27	-37.3	-38.6	28.4	3.04e+01	61	38	0	475529216	46	7366
2026-01-04 16:43:48.69	11.12	37.37	-36.4	-37.6	28.6	3.04e+01	60	38	0	482869248	48	5840
2026-01-04 16:43:52.73	10.62	38.50	-36.9	-38.2	28.1	3.04e+01	61	38	0	490733568	48	6246
2026-01-04 16:43:56.76	10.09	39.68	-37.3	-38.6	27.8	3.04e+01	65	38	0	498073600	48	6547
2026-01-04 16:44:00.81	9.51	40.89	-37.1	-38.4	27.9	3.04e+01	46	38	0	505937920	48	6351
2026-01-04 16:44:04.84	8.89	42.15	-36.4	-37.6	28.7	3.04e+01	59	38	0	513277952	48	5842
2026-01-04 16:44:08.88	8.21	43.44	-35.9	-37.1	29.2	3.04e+01	45	38	0	521142272	46	6182
2026-01-04 16:44:12.92	7.48	44.79	-36.0	-37.2	29.0	3.04e+01	58	38	0	528482304	46	6270
2026-01-04 16:44:16.96	6.67	46.17	-36.2	-37.4	28.8	3.04e+01	60	38	0	536346624	46	6398
2026-01-04 16:44:21.00	5.79	47.60	-36.2	-37.4	28.9	3.04e+01	53	38	0	543686656	46	6381
2026-01-04 16:44:25.03	4.82	49.07	-36.0	-37.2	29.1	3.04e+01	47	38	0	551026688	46	6233
2026-01-04 16:44:29.07	3.74	50.58	-35.6	-36.8	29.4	3.04e+01	58	38	0	558891008	46	5940
2026-01-04 16:44:33.10	2.55	52.13	-35.4	-36.7	29.4	3.04e+01	58	38	0	566231040	46	5860
2026-01-04 16:44:37.13	1.22	53.73	-34.7	-35.8	30.1	3.04e+01	57	38	0	574095360	44	5988
2026-01-04 16:44:41.17	359.73	55.36	-35.4	-36.5	29.5	3.04e+01	54	38	0	581435392	44	6490
2026-01-04 16:44:45.20	358.06	57.01	-35.9	-37.1	29.1	3.04e+01	63	38	0	589299712	46	6152
2026-01-04 16:44:49.24	356.16	58.70	-36.2	-37.4	28.7	3.04e+01	46	38	0	596639744	46	6375
2026-01-04 16:44:53.28	354.00	60.40	-36.4	-37.7	28.9	3.04e+01	58	38	0	603979776	46	6591
2026-01-04 16:44:57.31	351.53	62.11	-37.2	-38.4	27.9	3.04e+01	49	38	0	611844096	48	6407
2026-01-04 16:45:01.34	348.68	63.80	-38.2	-39.5	26.8	3.04e+01	59	38	0	619184128	50	6475
2026-01-04 16:45:05.38	345.38	65.48	-39.7	-41.1	25.0	3.04e+01	51	38	0	627048448	54	6202
2026-01-04 16:45:09.42	341.54	67.10	-39.5	-40.9	25.8	3.04e+01	61	38	0	634388480	54	6040
2026-01-04 16:45:13.46	337.07	68.65	-40.2	-41.7	25.2	3.04e+01	59	38	0	642252800	56	5917
2026-01-04 16:45:17.50	331.87	70.08	-41.7	-43.5	23.7	3.04e+01	59	38	0	649592832	58	6444
2026-01-04 16:45:21.54	325.85	71.35	-41.5	-43.1	24.2	3.04e+01	55	38	0	656932864	56	6941
2026-01-04 16:45:25.58	318.98	72.41	-40.2	-41.7	25.3	3.04e+01	60	38	0	664797184	54	6601
2026-01-04 16:45:29.62	311.28	73.21	-40.1	-41.6	25.6	3.04e+01	58	38	0	672137216	56	5792
2026-01-04 16:45:33.65	302.97	73.69	-41.0	-42.6	24.9	3.04e+01	59	38	0	680001536	56	6547
2026-01-04 16:45:37.69	294.29	73.84	-40.3	-41.7	25.9	3.04e+01	57	38	0	687341568	54	6623
2026-01-04 16:45:41.73	285.64	73.62	-41.9	-43.6	25.2	3.04e+01	59	38	0	695205888	56	7305
2026-01-04 16:45:45.77	277.42	73.06	-40.9	-42.3	25.2	3.04e+01	62	38	0	702545920	56	6337
2026-01-04 16:45:49.80	269.90	72.21	-40.5	-42.0	25.7	3.04e+01	60	37	0	710410240	56	6080
2026-01-04 16:45:53.83	263.21	71.10	-41.1	-42.7	25.0	3.04e+01	62	38	0	717750272	56	6621
2026-01-04 16:45:57.87	257.37	69.79	-41.3	-43.0	24.0	3.04e+01	62	37	0	725090304	56	6820
2026-01-04 16:46:01.91	252.32	68.33	-41.6	-43.1	25.1	3.04e+01	58	38	0	732954624	56	6905
2026-01-04 16:46:05.95	247.98	66.76	-42.0	-43.7	24.1	3.04e+01	63	38	0	740294656	56	7384
2026-01-04 16:46:09.99	244.26	65.12	-41.4	-42.9	25.3	3.04e+01	59	38	0	748158976	56	6787
2026-01-04 16:46:14.02	241.07	63.44	-38.5	-39.8	27.2	3.04e+01	63	38	0	755499008	52	5991
2026-01-04 16:46:18.06	238.30	61.74	-38.6	-39.9	27.0	3.04e+01	58	38	0	763363328	52	6050
2026-01-04 16:46:22.10	235.89	60.02	-38.7	-40.0	27.1	3.04e+01	52	38	0	770703360	52	6110
2026-01-04 16:46:26.14	233.78	58.32	-37.3	-38.6	27.9	3.04e+01	59	38	0	778043392	50	5802
2026-01-04 16:46:30.18	231.93	56.63	-36.0	-37.2	29.3	3.04e+01	46	38	0	785907712	46	6218
2026-01-04 16:46:34.22	230.29	54.97	-35.1	-36.2	30.0	3.04e+01	60	38	0	793247744	46	5591
2026-01-04 16:46:38.25	228.84	53.35	-34.4	-35.5	30.5	3.04e+01	45	38	0	801112064	42	6498
2026-01-04 16:46:42.29	227.54	51.76	-34.9	-36.1	29.9	3.04e+01	60	38	0	808452096	44	6179
2026-01-04 16:46:46.32	226.37	50.21	-36.0	-37.2	29.5	3.04e+01	52	38	0	816316416	46	6248
2026-01-04 16:46:50.35	225.32	48.70	-35.5	-36.7	29.4	3.04e+01	59	38	0	823656448	46	5898
2026-01-04 16:46:54.39	224.37	47.24	-35.8	-37.0	29.2	3.04e+01	48	38	0	830996480	46	6124
2026-01-04 16:46:58.43	223.50	45.81	-35.2	-36.4	29.7	3.04e+01	60	38	0	838860800	44	6353
2026-01-04 16:47:02.46	222.71	44.44	-35.4	-36.6	29.5	3.04e+01	59	38	0	846200832	44	6561
2026-01-04 16:47:06.50	221.98	43.10	-35.7	-36.9	29.3	3.04e+01	56	38	0	854065152	44	6763
2026-01-04 16:47:10.54	221.32	41.81	-36.7	-37.9	28.5	3.04e+01	46	38	0	861405184	46	6794
2026-01-04 16:47:14.58	220.70	40.56	-36.6	-37.8	28.6	3.04e+01	60	38	0	869269504	48	5940
2026-01-04 16:47:18.62	220.13	39.35	-37.4	-38.7	28.0	3.04e+01	50	38	0	876609536	48	6606
2026-01-04 16:47:22.66	219.61	38.18	-37.6	-38.9	27.5	3.04e+01	58	38	0	884473856	48	6759
2026-01-04 16:47:26.69	219.12	37.05	-36.9	-38.1	28.3	3.04e+01	46	38	0	891813888	48	6186
2026-01-04 16:47:30.73	218.67	35.95	-36.9	-38.2	28.5	3.04e+01	56	38	0	899153920	48	6207
2026-01-04 16:47:34.76	218.24	34.90	-36.3	-37.5	28.9	3.04e+01	45	38	0	907018240	48	5781
2026-01-04 16:47:38.80	217.85	33.88	-35.7	-36.9	29.4	3.04e+01	60	37	0	914358272	46	6061
2026-01-04 16:47:42.84	217.47	32.89	-35.6	-36.7	29.5	3.04e+01	59	37	0	922222592	46	5921
2026-01-04 16:47:46.88	217.13	31.93	-34.8	-36.0	30.0	3.04e+01	58	38	0	929562624	44	6072
2026-01-04 16:47:50.91	216.80	31.01	-34.9	-36.1	29.9	3.04e+01	58	38	0	937426944	44	6151
2026-01-04 16:47:54.95	216.49	30.11	-35.1	-36.3	29.7	3.04e+01	60	37	0	944766976	44	6282
2026-01-04 16:47:58.99	216.20	29.24	-35.1	-36.3	29.8	3.04e+01	62	38	0	952107008	44	6332
2026-01-04 16:48:03.03	215.92	28.40	-35.0	-36.2	29.8	3.04e+01	58	37	0	959971328	44	6215
2026-01-04 16:48:07.07	215.66	27.58	-35.4	-36.6	29.3	3.04e+01	57	38	0	967311360	44	6553
2026-01-04 16:48:11.11	215.42	26.79	-35.1	-36.2	29.6	3.04e+01	59	37	0	975175680	44	6262
2026-01-04 16:48:15.14	215.19	26.02	-35.5	-36.7	29.3	3.04e+01	58	37	0	982515712	44	6640
2026-01-04 16:48:19.18	214.97	25.28	-35.6	-36.9	29.2	3.04e+01	57	37	0	990380032	46	6008
2026-01-04 16:48:23.21	214.76	24.56	-35.8	-37.0	29.2	3.04e+01	60	37	0	997720064	46	6099
2026-01-04 16:48:27.25	214.56	23.85	-36.2	-37.4	28.9	3.04e+01	61	37	0	1005584384	46	6422
2026-01-04 16:48:31.29	214.37	23.17	-36.1	-37.3	28.9	3.04e+01	58	37	0	1012924416	46	6322
2026-01-04 16:48:35.33	214.18	22.50	-35.9	-37.1	29.4	3.04e+01	61	37	0	1020264448	46	6197
2026-01-04 16:48:39.37	214.01	21.86	-36.4	-37.6	28.8	3.04e+01	59	37	0	1028128768	46	6546
2026-01-04 16:48:43.41	213.85	21.23	-36.2	-37.4	28.9	3.04e+01	58	37	0	1035468800	46	6390
2026-01-04 16:48:47.45	213.69	20.61	-36.0	-37.3	28.9	3.04e+01	57	37	0	1043333120	46	6295
2026-01-04 16:48:51.49	213.54	20.02	-36.7	-38.0	28.6	3.04e+01	59	37	0	1050673152	46	6841
2026-01-04 16:48:55.53	213.39	19.43	-36.2	-37.5	29.0	3.04e+01	64	37	0	1058537472	46	6442
2026-01-04 16:48:59.57	213.26	18.87	-36.0	-37.2	29.1	3.04e+01	45	37	0	1065877504	46	6259
2026-01-04 16:49:03.61	213.12	18.31	-36.1	-37.3	28.6	3.04e+01	60	37	0	1073741824	46	6296
2026-01-04 16:49:07.65	213.00	17.77	-35.9	-37.1	29.1	3.04e+01	52	37	0	1081081856	46	6199
2026-01-04 16:49:11.69	212.87	17.24	-35.5	-36.7	29.2	3.04e+01	60	37	0	1088421888	46	5891
2026-01-04 16:49:15.73	212.76	16.73	-35.7	-36.9	29.3	3.04e+01	47	37	0	1096286208	46	6030
2026-01-04 16:49:19.77	212.64	16.22	-36.3	-37.5	28.7	3.04e+01	59	37	0	1103626240	46	6485
2026-01-04 16:49:23.81	212.54	15.73	-35.7	-37.0	29.2	3.04e+01	54	37	0	1111490560	46	6071
2026-01-04 16:49:27.84	212.43	15.25	-35.7	-36.9	29.3	3.04e+01	60	37	0	1118830592	46	6026
2026-01-04 16:49:31.88	212.33	14.77	-35.8	-37.0	29.1	3.04e+01	51	37	0	1126694912	46	6112
2026-01-04 16:49:35.91	212.24	14.31	-35.8	-37.1	28.9	3.04e+01	58	37	0	1134034944	46	6137
2026-01-04 16:49:39.95	212.14	13.86	-35.8	-37.0	29.2	3.04e+01	52	37	0	1141899264	46	6091
2026-01-04 16:49:43.99	212.05	13.41	-35.6	-36.8	29.1	3.04e+01	60	37	0	1149239296	46	5975
2026-01-04 16:49:48.03	211.97	12.98	-35.7	-36.9	29.2	3.04e+01	53	37	0	1156579328	46	6063
2026-01-04 16:49:52.07	211.89	12.55	-35.7	-36.9	29.1	3.04e+01	59	37	0	1164443648	46	6037
2026-01-04 16:49:56.10	211.81	12.13	-35.9	-37.1	29.0	3.04e+01	45	37	0	1171783680	46	6204
2026-01-04 16:50:00.14	211.73	11.72	-36.1	-37.3	28.9	3.04e+01	60	37	0	1179648000	46	6321
2026-01-04 16:50:04.18	211.65	11.32	-36.4	-37.6	28.7	3.04e+01	55	37	0	1186988032	46	6544
2026-01-04 16:50:08.21	211.58	10.92	-36.0	-37.3	28.7	3.04e+01	58	37	0	1194852352	46	6302
2026-01-04 16:50:12.25	211.51	10.53	-36.2	-37.5	28.7	3.04e+01	59	37	0	1202192384	46	6438
2026-01-04 16:50:16.29	211.44	10.15	-36.6	-37.8	28.5	3.04e+01	60	37	0	1209532416	46	6715
2026-01-04 16:50:20.33	211.38	9.77	-36.7	-38.0	28.3	3.04e+01	61	37	0	1217396736	48	6083
2026-01-04 16:50:24.37	211.32	9.40	-36.5	-37.7	28.3	3.04e+01	63	37	0	1224736768	48	5897
2026-01-04 16:50:28.41	211.25	9.04	-36.5	-37.8	28.1	3.04e+01	60	37	0	1232601088	48	5931
2026-01-04 16:50:32.45	211.19	8.68	-36.9	-38.2	28.1	3.04e+01	59	37	0	1239941120	48	6232
2026-01-04 16:50:36.49	211.14	8.33	-36.8	-38.1	28.0	3.04e+01	61	37	0	1247805440	48	6165
2026-01-04 16:50:40.53	211.08	7.98	-37.0	-38.3	27.8	3.04e+01	60	37	0	1255145472	48	6300
2026-01-04 16:50:44.57	211.03	7.64	-37.2	-38.5	27.6	3.04e+01	60	37	0	1263009792	48	6488
2026-01-04 16:50:48.60	210.98	7.30	-37.3	-38.6	27.5	3.04e+01	61	37	0	1270349824	48	6537
2026-01-04 16:50:52.64	210.93	6.97	-37.2	-38.5	27.3	3.04e+01	60	37	0	1277689856	48	6448
2026-01-04 16:50:56.68	210.88	6.64	-37.7	-39.0	27.1	3.04e+01	58	37	0	1285554176	50	6134
2026-01-04 16:51:00.71	210.83	6.32	-37.7	-39.1	26.7	3.04e+01	57	37	0	1292894208	50	6162
2026-01-04 16:51:04.75	210.78	6.00	-37.2	-38.6	27.2	3.04e+01	58	37	0	1300758528	50	5805
2026-01-04 16:51:08.79	210.74	5.69	-37.5	-38.8	26.9	3.04e+01	59	37	0	1308098560	50	5986
2026-01-04 16:51:12.83	210.70	5.38	-37.8	-39.2	26.7	3.04e+01	61	37	0	1315962880	50	6231
2026-01-04 16:51:16.86	210.65	5.07	-37.9	-39.2	26.8	3.04e+01	61	37	0	1323302912	50	6265
2026-01-04 16:51:20.90	210.61	4.77	-37.6	-39.0	26.7	3.04e+01	53	37	0	1331167232	50	6119
2026-01-04 16:51:24.94	210.57	4.47	-37.6	-39.0	26.5	3.04e+01	53	37	0	1338507264	50	6072
2026-01-04 16:51:28.98	210.53	4.18	-38.7	-40.2	25.4	3.04e+01	61	37	0	1345847296	50	6991
2026-01-04 16:51:33.02	210.50	3.89	-38.8	-40.3	25.2	3.04e+01	60	37	0	1353711616	50	7107
2026-01-04 16:51:37.06	210.46	3.60	-38.2	-39.7	25.7	3.04e+01	50	37	0	1361051648	52	5866
2026-01-04 16:51:41.09	210.42	3.31	-38.2	-39.7	25.5	3.04e+01	60	37	0	1368915968	52	5901
2026-01-04 16:51:45.13	210.39	3.03	-38.6	-40.1	25.0	3.04e+01	52	37	0	1376256000	52	6142
2026-01-04 16:51:49.17	210.36	2.75	-49.4	-67.3	3.5	3.04e+01	0	37	104	1376780288	60	88759
2026-01-04 16:51:53.20	210.32	2.48	-49.4	-67.3	3.5	3.04e+01	0	37	104	1376780288	60	89257
2026-01-04 16:51:57.24	210.29	2.21	-49.6	-67.5	3.5	3.04e+01	0	37	104	1376780288	60	91178
2026-01-04 16:52:01.28	210.26	1.94	-49.3	-67.6	3.5	3.04e+01	0	37	104	1376780288	60	92676
2026-01-04 16:52:05.31	210.23	1.67	-49.8	-67.6	3.5	3.04e+01	0	37	104	1376780288	60	92161
2026-01-04 16:52:09.35	210.20	1.41	-50.0	-67.7	3.5	3.04e+01	0	37	104	1376780288	60	93805
2026-01-04 16:52:13.39	210.18	1.15	-50.0	-67.8	3.5	3.04e+01	0	37	104	1376780288	60	94680
2026-01-04 16:52:17.43	210.15	0.89	-50.3	-68.1	3.5	3.04e+01	0	37	104	1376780288	60	97960
2026-01-04 16:52:21.47	210.12	0.63	-49.7	-67.6	3.5	3.04e+01	0	37	104	1376780288	60	92295
2026-01-04 16:52:25.50	210.09	0.38	-50.0	-67.8	3.5	3.04e+01	0	37	104	1376780288	60	94780
2026-01-04 16:52:29.54	210.07	0.12	-50.0	-67.7	3.5	3.04e+01	0	37	104	1376780288	60	93627

#Closed at: 2026-01-04 16:52:33
#Recorded file [1376 MB]: D:/lorett/data/35029_260105_043841.dat