passes_logs/2026/01/04/R4.6S_Anadyr/R4.6S_Anadyr__20260104_212732_SUOMI_NPP_rec.log

#Pass ID: 20260104_212732_SUOMI NPP
#Satellite: SUOMI NPP
#Configuration: NPP
#almurnet v.1.7.20251203
#Start time: 2026-01-04 21:27:33

#Version: 2.2.20231116
#Station: R4.6S_Anadyr
#Location: 177.4865 lon 64.73178 lat
#TLE: 1 37849U 11061A   26001.07732418  .00000182  00000+0  10735-3 0  9990
#TLE: 2 37849  98.7795 303.2470 0002580  87.2016 272.9455 14.19520779734739

#Time	Az	El	Level	Level2	SNR	BER	BlckErr	Temp	State	Recorded	gain1	gain2
2026-01-04 21:27:33.29	89.45	0.04	-48.7	-59.5	3.5	8.45e-01	0	28	0	0	60	33961
2026-01-04 21:27:37.32	89.20	0.25	-49.0	-64.3	3.6	1.51e+00	0	29	104	0	60	59008
2026-01-04 21:27:41.36	88.94	0.46	-48.9	-64.0	3.6	1.51e+00	0	29	104	0	60	57387
2026-01-04 21:27:45.40	88.69	0.68	-48.5	-63.8	3.6	1.51e+00	0	29	104	0	60	55682
2026-01-04 21:27:49.44	88.43	0.89	-47.3	-62.9	3.6	1.51e+00	0	30	104	0	60	50324
2026-01-04 21:27:53.48	88.16	1.11	-46.7	-62.3	3.6	1.51e+00	0	30	104	0	60	47300
2026-01-04 21:27:57.52	87.89	1.33	-46.8	-62.3	3.6	1.51e+00	0	30	104	0	60	46988
2026-01-04 21:28:01.55	87.62	1.55	-46.7	-62.2	3.6	1.51e+00	0	30	104	0	60	46788
2026-01-04 21:28:05.59	87.34	1.77	-46.8	-62.3	3.6	1.51e+00	0	30	104	0	60	47154
2026-01-04 21:28:09.63	87.06	1.99	-46.7	-62.2	3.6	1.51e+00	0	30	104	0	60	46640
2026-01-04 21:28:13.66	86.78	2.21	-46.7	-62.1	3.6	1.51e+00	0	30	104	0	60	45986
2026-01-04 21:28:17.70	86.48	2.44	-46.7	-62.3	3.6	1.51e+00	0	30	104	0	60	46942
2026-01-04 21:28:21.74	86.19	2.66	-46.7	-62.3	3.5	1.51e+00	0	30	104	0	60	46909
2026-01-04 21:28:25.78	85.89	2.89	-46.7	-61.5	3.6	1.51e+00	0	30	104	0	60	43191
2026-01-04 21:28:29.82	85.58	3.12	-46.5	-56.0	5.0	7.03e-01	0	30	0	0	60	22928
2026-01-04 21:28:33.86	85.27	3.34	-45.8	-52.7	8.9	1.50e+00	0	30	104	3145728	60	15670
2026-01-04 21:28:37.89	84.96	3.57	-40.7	-42.4	18.6	0.00e+00	0	30	0	5242880	54	6700
2026-01-04 21:28:41.93	84.64	3.80	-42.0	-44.1	17.3	0.00e+00	0	30	0	12582912	56	7296
2026-01-04 21:28:45.97	84.31	4.03	-41.8	-43.7	17.6	0.00e+00	0	30	0	19922944	56	6991
2026-01-04 21:28:50.00	83.98	4.27	-41.5	-43.3	18.1	0.00e+00	0	30	0	27262976	56	6684
2026-01-04 21:28:54.03	83.65	4.50	-41.8	-43.8	17.7	0.00e+00	0	30	0	35651584	56	7011
2026-01-04 21:28:58.06	83.31	4.73	-41.5	-43.4	18.4	0.00e+00	0	30	0	42991616	56	6722
2026-01-04 21:29:02.10	82.96	4.97	-41.1	-42.8	18.8	0.00e+00	0	30	0	50331648	56	6249
2026-01-04 21:29:06.14	82.61	5.21	-40.9	-42.6	19.0	0.00e+00	0	30	0	57671680	54	6886
2026-01-04 21:29:10.17	82.25	5.44	-40.7	-42.3	19.2	0.00e+00	0	30	0	65011712	54	6664
2026-01-04 21:29:14.21	81.88	5.68	-39.6	-40.9	20.5	0.00e+00	0	30	0	73400320	52	6353
2026-01-04 21:29:18.25	81.51	5.92	-40.2	-41.7	20.0	0.00e+00	0	30	0	80740352	52	6935
2026-01-04 21:29:22.28	81.13	6.16	-40.2	-41.7	19.9	0.00e+00	0	30	0	88080384	52	6985
2026-01-04 21:29:26.32	80.75	6.40	-40.6	-42.2	19.6	0.00e+00	0	30	0	95420416	52	7393
2026-01-04 21:29:30.36	80.36	6.65	-40.7	-42.4	19.3	9.90e-06	0	30	0	103809024	54	6735
2026-01-04 21:29:34.40	79.96	6.89	-40.9	-42.5	19.2	0.00e+00	0	30	0	111149056	54	6820
2026-01-04 21:29:38.43	79.55	7.14	-40.9	-42.5	19.3	0.00e+00	0	30	0	118489088	54	6829
2026-01-04 21:29:42.47	79.14	7.38	-40.6	-42.2	19.5	0.00e+00	0	30	0	125829120	54	6572
2026-01-04 21:29:46.51	78.72	7.63	-40.4	-41.9	19.8	0.00e+00	0	30	0	133169152	54	6339
2026-01-04 21:29:50.55	78.30	7.88	-40.2	-41.6	20.2	0.00e+00	0	30	0	141557760	54	6112
2026-01-04 21:29:54.58	77.86	8.13	-40.2	-41.7	20.2	0.00e+00	0	30	0	148897792	52	6932
2026-01-04 21:29:58.62	77.42	8.38	-40.0	-41.4	20.3	0.00e+00	0	30	0	156237824	52	6741
2026-01-04 21:30:02.65	76.97	8.63	-40.6	-42.1	19.7	0.00e+00	0	30	0	163577856	52	7327
2026-01-04 21:30:06.69	76.51	8.88	-40.2	-41.7	20.1	0.00e+00	0	30	0	170917888	52	6989
2026-01-04 21:30:10.73	76.05	9.13	-40.7	-42.3	19.6	0.00e+00	0	30	0	179306496	52	7437
2026-01-04 21:30:14.76	75.57	9.38	-40.1	-41.6	20.2	0.00e+00	0	30	0	186646528	52	6849
2026-01-04 21:30:18.80	75.09	9.64	-39.3	-40.5	21.2	0.00e+00	0	30	0	193986560	52	6069
2026-01-04 21:30:22.84	74.60	9.89	-39.5	-40.8	21.0	0.00e+00	0	30	0	201326592	52	6283
2026-01-04 21:30:26.87	74.10	10.14	-39.7	-41.0	20.8	0.00e+00	0	30	0	209715200	52	6407
2026-01-04 21:30:30.91	73.59	10.40	-39.8	-41.2	20.6	0.00e+00	0	30	0	217055232	52	6540
2026-01-04 21:30:34.95	73.07	10.65	-40.5	-42.0	19.9	0.00e+00	0	30	0	224395264	52	7173
2026-01-04 21:30:38.98	72.55	10.91	-40.1	-41.5	20.4	0.00e+00	0	30	0	231735296	52	6820
2026-01-04 21:30:43.02	72.01	11.16	-39.9	-41.2	20.7	0.00e+00	0	30	0	239075328	52	6576
2026-01-04 21:30:47.05	71.46	11.42	-39.5	-40.7	21.2	0.00e+00	0	30	0	247463936	52	6210
2026-01-04 21:30:51.08	70.91	11.68	-39.3	-40.5	21.3	0.00e+00	0	30	0	254803968	52	6079
2026-01-04 21:30:55.12	70.34	11.93	-39.4	-40.6	21.2	0.00e+00	0	30	0	262144000	52	6139
2026-01-04 21:30:59.16	69.77	12.19	-39.3	-40.5	21.3	0.00e+00	0	30	0	269484032	52	6075
2026-01-04 21:31:03.19	69.18	12.44	-39.5	-40.7	21.1	0.00e+00	0	30	0	276824064	52	6208
2026-01-04 21:31:07.22	68.58	12.70	-39.3	-40.5	21.3	0.00e+00	0	30	0	285212672	52	6036
2026-01-04 21:31:11.27	67.97	12.95	-39.6	-40.8	21.1	0.00e+00	0	30	0	292552704	52	6260
2026-01-04 21:31:15.30	67.36	13.21	-39.7	-40.9	21.0	5.30e-06	0	30	0	299892736	52	6349
2026-01-04 21:31:19.34	66.73	13.46	-39.7	-40.9	20.8	0.00e+00	0	30	0	307232768	52	6349
2026-01-04 21:31:23.38	66.09	13.71	-39.8	-41.0	21.0	0.00e+00	0	30	0	315621376	52	6413
2026-01-04 21:31:27.41	65.44	13.96	-39.5	-40.7	21.2	0.00e+00	0	30	0	322961408	52	6203
2026-01-04 21:31:31.45	64.77	14.21	-39.5	-40.7	21.1	0.00e+00	0	30	0	330301440	52	6225
2026-01-04 21:31:35.48	64.10	14.46	-40.0	-41.2	20.8	0.00e+00	0	30	0	337641472	52	6602
2026-01-04 21:31:39.52	63.42	14.71	-39.7	-40.9	20.9	0.00e+00	0	31	0	344981504	52	6377
2026-01-04 21:31:43.56	62.72	14.96	-39.4	-40.6	21.5	2.20e-06	0	31	0	353370112	52	6124
2026-01-04 21:31:47.60	62.01	15.20	-38.4	-39.5	22.3	0.00e+00	0	30	0	360710144	50	6041
2026-01-04 21:31:51.64	61.29	15.44	-38.2	-39.3	22.4	0.00e+00	0	30	0	368050176	50	5900
2026-01-04 21:31:55.68	60.55	15.68	-37.8	-38.7	22.8	0.00e+00	0	30	0	375390208	48	6245
2026-01-04 21:31:59.71	59.81	15.92	-37.8	-38.8	23.0	0.00e+00	0	31	0	383778816	48	6308
2026-01-04 21:32:03.75	59.05	16.15	-37.4	-38.4	23.0	0.00e+00	0	30	0	391118848	48	5985
2026-01-04 21:32:07.79	58.29	16.38	-37.8	-38.8	22.9	0.00e+00	0	30	0	398458880	48	6246
2026-01-04 21:32:11.82	57.51	16.61	-37.5	-38.5	23.0	0.00e+00	0	30	0	405798912	48	6072
2026-01-04 21:32:15.86	56.71	16.84	-37.5	-38.4	23.2	0.00e+00	0	30	0	413138944	48	6023
2026-01-04 21:32:19.90	55.91	17.06	-36.9	-37.8	23.5	0.00e+00	0	31	0	421527552	46	6314
2026-01-04 21:32:23.94	55.09	17.28	-37.8	-38.8	22.7	0.00e+00	0	31	0	428867584	48	6268
2026-01-04 21:32:27.98	54.26	17.49	-37.5	-38.5	23.1	0.00e+00	0	31	0	436207616	48	6053
2026-01-04 21:32:32.02	53.42	17.70	-37.4	-38.3	22.7	0.00e+00	0	31	0	443547648	48	5940
2026-01-04 21:32:36.05	52.57	17.90	-37.0	-37.9	23.6	0.00e+00	0	30	0	451936256	48	5639
2026-01-04 21:32:40.09	51.71	18.10	-35.8	-36.6	24.4	0.00e+00	0	31	0	459276288	46	5497
2026-01-04 21:32:44.12	50.84	18.29	-35.9	-36.7	24.3	0.00e+00	0	31	0	466616320	46	5543
2026-01-04 21:32:48.16	49.95	18.48	-36.7	-37.6	23.8	0.00e+00	0	31	0	473956352	46	6128
2026-01-04 21:32:52.20	49.06	18.66	-36.9	-37.7	23.7	0.00e+00	0	31	0	481296384	46	6233
2026-01-04 21:32:56.24	48.15	18.84	-37.3	-38.2	23.2	0.00e+00	0	31	0	489684992	46	6599
2026-01-04 21:33:00.27	47.23	19.01	-37.1	-38.0	23.5	0.00e+00	0	31	0	497025024	46	6436
2026-01-04 21:33:04.31	46.31	19.17	-36.1	-36.9	24.3	0.00e+00	0	31	0	504365056	46	5654
2026-01-04 21:33:08.34	45.37	19.33	-36.1	-36.9	24.2	0.00e+00	0	31	0	511705088	46	5669
2026-01-04 21:33:12.38	44.42	19.48	-36.2	-37.0	24.2	0.00e+00	0	31	0	519045120	46	5723
2026-01-04 21:33:16.42	43.47	19.62	-36.7	-37.5	23.8	0.00e+00	0	30	0	527433728	46	6097
2026-01-04 21:33:20.45	42.50	19.75	-37.1	-38.0	23.6	0.00e+00	0	31	0	534773760	46	6416
2026-01-04 21:33:24.50	41.53	19.88	-38.0	-39.0	22.7	0.00e+00	0	31	0	542113792	48	6430
2026-01-04 21:33:28.53	40.55	20.00	-38.7	-39.8	22.1	0.00e+00	0	30	0	549453824	50	6248
2026-01-04 21:33:32.57	39.56	20.11	-38.1	-39.0	22.7	0.00e+00	0	30	0	557842432	50	5760
2026-01-04 21:33:36.61	38.57	20.21	-38.4	-39.4	22.4	0.00e+00	0	31	0	565182464	48	6765
2026-01-04 21:33:40.64	37.57	20.30	-38.1	-39.1	22.6	0.00e+00	0	30	0	572522496	48	6538
2026-01-04 21:33:44.68	36.56	20.38	-38.3	-39.3	22.4	0.00e+00	0	31	0	579862528	48	6659
2026-01-04 21:33:48.72	35.55	20.46	-38.8	-39.9	22.0	0.00e+00	0	31	0	587202560	50	6323
2026-01-04 21:33:52.75	34.53	20.52	-37.8	-38.8	22.3	0.00e+00	0	31	0	595591168	50	5571
2026-01-04 21:33:56.79	33.51	20.58	-38.2	-39.2	22.6	0.00e+00	0	30	0	602931200	48	6546
2026-01-04 21:34:00.83	32.49	20.63	-38.6	-39.6	22.2	0.00e+00	0	30	0	610271232	48	6892
2026-01-04 21:34:04.87	31.46	20.66	-38.4	-39.5	22.3	0.00e+00	0	31	0	617611264	48	6787
2026-01-04 21:34:08.91	30.43	20.69	-38.3	-39.3	22.5	0.00e+00	0	31	0	625999872	48	6618
2026-01-04 21:34:12.94	29.40	20.71	-37.8	-38.7	22.9	0.00e+00	0	31	0	633339904	48	6226
2026-01-04 21:34:16.98	28.37	20.71	-37.6	-38.5	23.1	0.00e+00	0	31	0	640679936	48	6085
2026-01-04 21:34:21.02	27.34	20.71	-38.1	-39.2	22.7	0.00e+00	0	31	0	648019968	48	6558
2026-01-04 21:34:25.05	26.31	20.70	-38.9	-40.0	21.9	0.00e+00	0	31	0	655360000	50	6423
2026-01-04 21:34:29.09	25.28	20.68	-37.3	-38.2	23.4	0.00e+00	0	31	0	663748608	48	5895
2026-01-04 21:34:33.13	24.25	20.64	-36.7	-37.5	23.8	0.00e+00	0	31	0	671088640	46	6082
2026-01-04 21:34:37.17	23.23	20.60	-36.1	-36.9	24.3	0.00e+00	0	31	0	678428672	46	5679
2026-01-04 21:34:41.20	22.21	20.55	-36.4	-37.2	24.1	0.00e+00	0	31	0	685768704	46	5874
2026-01-04 21:34:45.23	21.19	20.49	-36.4	-37.3	24.2	0.00e+00	0	31	0	694157312	46	5935
2026-01-04 21:34:49.27	20.18	20.42	-36.2	-37.1	24.0	0.00e+00	0	30	0	701497344	46	5771
2026-01-04 21:34:53.30	19.17	20.34	-36.6	-37.4	24.0	0.00e+00	0	30	0	708837376	46	6015
2026-01-04 21:34:57.34	18.17	20.25	-36.7	-37.5	23.9	0.00e+00	0	31	0	716177408	46	6076
2026-01-04 21:35:01.38	17.17	20.16	-37.0	-37.9	23.5	0.00e+00	0	30	0	723517440	46	6360
2026-01-04 21:35:05.42	16.18	20.05	-36.8	-37.7	23.7	0.00e+00	0	31	0	731906048	46	6185
2026-01-04 21:35:09.45	15.20	19.94	-38.5	-39.5	22.3	0.00e+00	0	30	0	739246080	48	6848
2026-01-04 21:35:13.49	14.22	19.81	-37.9	-38.9	22.7	0.00e+00	0	31	0	746586112	48	6349
2026-01-04 21:35:17.53	13.25	19.68	-38.3	-39.3	22.4	0.00e+00	0	31	0	753926144	48	6665
2026-01-04 21:35:21.49	12.31	19.55	-39.1	-40.2	21.7	0.00e+00	0	30	0	762314752	50	6575
2026-01-04 21:35:25.53	11.36	19.40	-39.0	-40.1	21.9	0.00e+00	0	31	0	769654784	50	6513
2026-01-04 21:35:29.56	10.42	19.25	-37.8	-38.8	23.0	0.00e+00	0	31	0	776994816	50	5592
2026-01-04 21:35:33.60	9.49	19.09	-37.8	-38.8	22.9	0.00e+00	0	30	0	784334848	48	6267
2026-01-04 21:35:37.64	8.57	18.92	-37.8	-38.8	22.9	0.00e+00	0	31	0	792723456	48	6270
2026-01-04 21:35:41.67	7.66	18.75	-37.1	-37.9	23.6	0.00e+00	0	31	0	800063488	48	5674
2026-01-04 21:35:45.71	6.76	18.57	-36.8	-37.6	23.8	0.00e+00	0	30	0	807403520	46	6160
2026-01-04 21:35:49.75	5.87	18.39	-37.6	-38.5	23.0	0.00e+00	0	31	0	814743552	46	6803
2026-01-04 21:35:53.78	5.00	18.20	-39.1	-40.3	21.6	0.00e+00	0	31	0	823132160	50	6625
2026-01-04 21:35:57.81	4.13	18.00	-39.6	-40.8	21.4	0.00e+00	0	31	0	830472192	50	7074
2026-01-04 21:36:01.85	3.28	17.80	-39.9	-41.2	20.8	0.00e+00	0	31	0	837812224	52	6580
2026-01-04 21:36:05.89	2.43	17.59	-39.4	-40.6	21.2	0.00e+00	0	31	0	845152256	52	6133
2026-01-04 21:36:09.93	1.60	17.38	-37.7	-38.7	22.9	0.00e+00	0	30	0	852492288	48	6213
2026-01-04 21:36:13.97	0.78	17.17	-36.8	-37.7	23.7	0.00e+00	0	31	0	860880896	48	5556
2026-01-04 21:36:18.01	359.97	16.95	-37.8	-38.8	22.8	0.00e+00	0	31	0	868220928	48	6279
2026-01-04 21:36:22.04	359.18	16.73	-37.7	-38.7	22.8	0.00e+00	0	31	0	875560960	48	6204
2026-01-04 21:36:26.08	358.39	16.50	-37.3	-38.3	23.0	0.00e+00	0	31	0	882900992	48	5922
2026-01-04 21:36:30.12	357.62	16.27	-39.1	-40.3	21.3	0.00e+00	0	31	0	890241024	50	6661
2026-01-04 21:36:34.15	356.86	16.04	-39.0	-40.1	21.6	0.00e+00	0	31	0	898629632	50	6536
2026-01-04 21:36:38.19	356.11	15.80	-38.1	-39.1	22.5	0.00e+00	0	31	0	905969664	50	5797
2026-01-04 21:36:42.23	355.38	15.57	-38.0	-39.0	22.5	0.00e+00	0	31	0	913309696	50	5746
2026-01-04 21:36:46.26	354.65	15.33	-38.2	-39.2	22.3	0.00e+00	0	31	0	920649728	50	5875
2026-01-04 21:36:50.29	353.94	15.08	-39.2	-40.4	21.4	0.00e+00	0	31	0	929038336	50	6709
2026-01-04 21:36:54.33	353.24	14.84	-39.0	-40.1	21.7	0.00e+00	0	31	0	936378368	50	6530
2026-01-04 21:36:58.36	352.55	14.59	-38.3	-39.4	22.2	0.00e+00	0	31	0	943718400	50	5993
2026-01-04 21:37:02.40	351.87	14.35	-38.6	-39.7	21.8	0.00e+00	0	31	0	951058432	50	6195
2026-01-04 21:37:06.43	351.21	14.10	-38.5	-39.6	22.0	0.00e+00	0	30	0	958398464	50	6143
2026-01-04 21:37:10.47	350.55	13.85	-38.1	-39.1	22.4	0.00e+00	0	31	0	966787072	50	5808
2026-01-04 21:37:14.50	349.91	13.60	-37.7	-38.6	22.7	0.00e+00	0	31	0	974127104	48	6167
2026-01-04 21:37:18.54	349.28	13.34	-36.9	-37.8	23.3	0.00e+00	0	31	0	981467136	48	5600
2026-01-04 21:37:22.57	348.66	13.09	-36.4	-37.3	23.7	0.00e+00	0	31	0	988807168	46	5897
2026-01-04 21:37:26.61	348.05	12.84	-37.0	-37.9	23.2	0.00e+00	0	31	0	996147200	46	6362
2026-01-04 21:37:30.65	347.45	12.58	-37.5	-38.5	22.8	0.00e+00	0	31	0	1004535808	46	6790
2026-01-04 21:37:34.68	346.86	12.33	-37.4	-38.3	22.8	0.00e+00	0	31	0	1011875840	48	5949
2026-01-04 21:37:38.72	346.28	12.07	-37.1	-38.0	23.1	0.00e+00	0	31	0	1019215872	48	5755
2026-01-04 21:37:42.76	345.71	11.82	-37.3	-38.3	22.8	0.00e+00	0	31	0	1026555904	48	5942
2026-01-04 21:37:46.79	345.15	11.56	-37.8	-38.8	22.4	0.00e+00	0	31	0	1034944512	48	6298
2026-01-04 21:37:50.83	344.60	11.31	-38.7	-39.8	21.6	0.00e+00	0	31	0	1042284544	48	7057
2026-01-04 21:37:54.87	344.06	11.05	-38.1	-39.2	22.1	0.00e+00	0	31	0	1049624576	48	6596
2026-01-04 21:37:58.90	343.53	10.80	-37.3	-38.2	22.6	0.00e+00	0	31	0	1056964608	48	5871
2026-01-04 21:38:02.94	343.01	10.54	-37.2	-38.2	22.6	0.00e+00	0	31	0	1064304640	48	5841
2026-01-04 21:38:06.98	342.50	10.29	-38.8	-40.0	21.2	0.00e+00	0	31	0	1072693248	48	7230
2026-01-04 21:38:11.02	342.00	10.03	-38.9	-40.1	21.3	0.00e+00	0	31	0	1080033280	50	6466
2026-01-04 21:38:15.06	341.50	9.78	-38.5	-39.6	21.7	0.00e+00	0	31	0	1087373312	50	6142
2026-01-04 21:38:19.09	341.02	9.53	-38.2	-39.3	21.7	0.00e+00	0	30	0	1094713344	50	5959
2026-01-04 21:38:23.12	340.54	9.27	-38.9	-40.1	21.1	0.00e+00	0	31	0	1103101952	50	6500
2026-01-04 21:38:27.16	340.08	9.02	-39.0	-40.2	21.1	0.00e+00	0	31	0	1110441984	50	6549
2026-01-04 21:38:31.20	339.62	8.77	-39.4	-40.6	20.6	0.00e+00	0	31	0	1117782016	50	6904
2026-01-04 21:38:35.23	339.17	8.52	-39.7	-41.0	20.5	0.00e+00	0	31	0	1125122048	52	6394
2026-01-04 21:38:39.27	338.72	8.27	-39.3	-40.5	20.8	0.00e+00	0	31	0	1132462080	52	6102
2026-01-04 21:38:43.31	338.29	8.02	-39.6	-40.9	20.4	0.00e+00	0	31	0	1140850688	52	6328
2026-01-04 21:38:47.35	337.86	7.77	-40.3	-41.7	19.6	0.00e+00	0	31	0	1148190720	52	6994
2026-01-04 21:38:51.38	337.44	7.53	-40.2	-41.6	19.7	0.00e+00	0	31	0	1155530752	52	6883
2026-01-04 21:38:55.42	337.03	7.28	-39.8	-41.1	20.0	0.00e+00	0	31	0	1162870784	52	6530
2026-01-04 21:38:59.46	336.62	7.04	-40.4	-41.9	19.6	0.00e+00	0	31	0	1170210816	52	7128
2026-01-04 21:39:03.49	336.22	6.79	-39.9	-41.2	20.0	0.00e+00	0	31	0	1178599424	52	6566
2026-01-04 21:39:07.53	335.83	6.55	-40.2	-41.7	19.6	0.00e+00	0	31	0	1185939456	52	6931
2026-01-04 21:39:11.57	335.44	6.31	-40.2	-41.6	19.3	0.00e+00	0	31	0	1193279488	52	6927
2026-01-04 21:39:15.61	335.06	6.07	-40.6	-42.3	18.4	0.00e+00	0	31	0	1200619520	52	7454
2026-01-04 21:39:19.64	334.69	5.83	-41.4	-43.5	16.7	0.00e+00	0	31	0	1209008128	54	7624
2026-01-04 21:39:23.68	334.32	5.59	-42.5	-45.4	14.3	0.00e+00	0	31	0	1216348160	56	8521
2026-01-04 21:39:27.72	333.96	5.35	-42.9	-46.5	12.9	4.27e-05	0	31	0	1223688192	58	8545
2026-01-04 21:39:31.75	333.61	5.11	-43.6	-47.9	11.3	8.32e-04	0	31	0	1231028224	58	10018
2026-01-04 21:39:35.79	333.26	4.88	-44.0	-49.5	9.4	1.59e-02	0	31	0	1238368256	60	10807
2026-01-04 21:39:39.83	332.92	4.64	-44.1	-50.0	8.7	2.50e-02	0	31	0	1246756864	60	11375
2026-01-04 21:39:43.87	332.58	4.41	-44.0	-49.1	10.1	9.79e-03	0	31	0	1254096896	60	10282
2026-01-04 21:39:47.91	332.25	4.18	-43.7	-47.9	11.8	1.09e-03	0	31	0	1261436928	60	8971
2026-01-04 21:39:51.94	331.93	3.94	-43.5	-47.2	13.0	9.23e-05	0	31	0	1268776960	60	8296
2026-01-04 21:39:55.98	331.61	3.71	-43.3	-46.7	13.3	9.90e-06	0	31	0	1277165568	60	7839
2026-01-04 21:40:00.01	331.29	3.49	-43.4	-46.9	13.1	5.26e-05	0	31	0	1284505600	60	8006
2026-01-04 21:40:04.05	330.98	3.26	-43.1	-46.7	13.0	2.59e-05	0	31	0	1291845632	60	7830
2026-01-04 21:40:08.08	330.68	3.03	-43.8	-48.6	10.9	2.08e-03	0	31	0	1299185664	60	9691
2026-01-04 21:40:12.12	330.38	2.80	-48.5	-63.6	3.6	1.51e+00	0	31	104	1300234240	60	54899
2026-01-04 21:40:16.16	330.08	2.58	-48.7	-63.9	3.6	1.51e+00	0	31	104	1300234240	60	56728
2026-01-04 21:40:20.20	329.79	2.36	-48.6	-63.8	3.6	1.51e+00	0	31	104	1300234240	60	55710
2026-01-04 21:40:24.24	329.50	2.13	-48.5	-63.8	3.6	1.51e+00	0	31	104	1300234240	60	55954
2026-01-04 21:40:28.27	329.22	1.91	-48.6	-63.7	3.6	1.51e+00	0	31	104	1300234240	60	55532
2026-01-04 21:40:32.31	328.95	1.69	-48.7	-63.9	3.6	1.51e+00	0	31	104	1300234240	60	56314
2026-01-04 21:40:36.35	328.67	1.47	-48.7	-63.9	3.6	1.51e+00	0	31	104	1300234240	60	56541
2026-01-04 21:40:40.39	328.40	1.25	-48.8	-63.9	3.6	1.51e+00	0	31	104	1300234240	60	56760
2026-01-04 21:40:44.43	328.14	1.03	-48.7	-63.9	3.6	1.51e+00	0	31	104	1300234240	60	56731
2026-01-04 21:40:48.47	327.88	0.82	-48.7	-63.8	3.6	1.51e+00	0	31	104	1300234240	60	56062
2026-01-04 21:40:52.51	327.62	0.60	-49.0	-64.1	3.6	1.51e+00	0	31	104	1300234240	60	58234
2026-01-04 21:40:56.55	327.37	0.39	-49.0	-64.2	3.6	1.51e+00	0	31	104	1300234240	60	58421
2026-01-04 21:41:00.58	327.12	0.17	-48.7	-63.8	3.6	1.51e+00	0	31	104	1300234240	60	55971
2026-01-04 21:41:04.62	326.88	-0.04	-48.8	-63.9	3.6	1.51e+00	0	31	104	1300234240	60	56911

#Closed at: 2026-01-04 21:41:06
#Recorded file [1300 MB]: D:/lorett/data/35029_260105_092733.dat