passes_logs/2026/01/04/R4.6S_Anadyr/R4.6S_Anadyr__20260104_191835_FENGYUN_3E_rec.log

#Pass ID: 20260104_191835_FENGYUN 3E
#Satellite: FENGYUN 3E
#Configuration: FENGYUN 3E
#almurnet v.1.7.20251203
#Start time: 2026-01-04 19:18:37

#Version: 2.2.20231116
#Station: R4.6S_Anadyr
#Location: 177.4865 lon 64.73178 lat
#TLE: 1 49008U 21062A   26003.51942929 -.00000034  00000+0  45519-5 0  9990
#TLE: 2 49008  98.7472   8.7829 0001426 160.7926 199.3304 14.19883272233213

#Time	Az	El	Level	Level2	SNR	BER	BlckErr	Temp	State	Recorded	gain1	gain2
2026-01-04 19:18:37.78	21.16	0.14	-50.4	-65.3	3.5	1.51e+00	0	27	0	0	60	66377
2026-01-04 19:18:41.81	21.14	0.38	-48.8	-60.0	3.6	8.44e-01	0	28	104	0	60	36101
2026-01-04 19:18:45.85	21.12	0.63	-48.5	-59.7	3.6	8.46e-01	0	28	104	0	60	35083
2026-01-04 19:18:49.89	21.11	0.87	-48.0	-59.2	3.6	8.46e-01	0	28	104	0	60	33064
2026-01-04 19:18:53.93	21.09	1.12	-47.2	-58.3	3.6	8.46e-01	0	29	104	0	60	29793
2026-01-04 19:18:57.97	21.07	1.37	-47.2	-58.1	3.6	8.45e-01	0	29	104	0	60	29130
2026-01-04 19:19:02.00	21.05	1.62	-47.1	-57.4	3.6	8.43e-01	0	29	104	0	60	26751
2026-01-04 19:19:06.04	21.03	1.88	-47.1	-58.1	3.6	8.45e-01	0	29	104	0	60	28952
2026-01-04 19:19:10.08	21.00	2.14	-47.2	-58.2	3.6	8.46e-01	0	29	104	0	60	29456
2026-01-04 19:19:14.12	20.98	2.40	-47.1	-57.5	3.6	8.44e-01	0	29	104	0	60	27239
2026-01-04 19:19:18.15	20.96	2.66	-46.7	-55.0	3.9	8.39e-01	0	29	104	0	60	20415
2026-01-04 19:19:22.19	20.93	2.92	-46.7	-54.6	3.7	8.39e-01	0	29	0	0	60	19502
2026-01-04 19:19:26.23	20.91	3.19	-42.6	-44.5	12.9	2.39e-04	0	29	0	20971520	56	7647
2026-01-04 19:19:30.27	20.88	3.46	-38.9	-39.9	17.2	0.00e+00	0	29	0	49283072	50	6367
2026-01-04 19:19:34.31	20.86	3.73	-38.4	-39.3	17.8	0.00e+00	0	29	0	78643200	50	5952
2026-01-04 19:19:38.35	20.83	4.01	-38.8	-39.7	17.3	1.10e-06	0	29	0	108003328	52	5541
2026-01-04 19:19:42.39	20.80	4.29	-35.3	-36.1	21.4	0.00e+00	0	29	0	113246208	46	5164
2026-01-04 19:19:46.43	20.77	4.57	-35.1	-35.9	21.7	0.00e+00	0	29	0	142606336	42	6339
2026-01-04 19:19:50.46	20.74	4.85	-34.5	-35.2	22.4	0.00e+00	0	29	0	171966464	42	5861
2026-01-04 19:19:54.51	20.71	5.14	-34.3	-35.1	22.5	0.00e+00	0	29	0	201326592	42	5776
2026-01-04 19:19:58.54	20.68	5.43	-33.8	-34.5	23.0	0.00e+00	0	29	0	229638144	42	5398
2026-01-04 19:20:02.58	20.65	5.72	-34.5	-35.2	22.5	0.00e+00	0	29	0	258998272	42	5889
2026-01-04 19:20:06.61	20.62	6.02	-34.0	-34.7	22.9	0.00e+00	0	29	0	288358400	42	5552
2026-01-04 19:20:10.65	20.58	6.32	-33.9	-34.5	23.2	0.00e+00	0	29	0	317718528	40	6083
2026-01-04 19:20:14.69	20.54	6.62	-33.9	-34.6	23.1	0.00e+00	0	29	0	347078656	40	6133
2026-01-04 19:20:18.72	20.51	6.92	-33.6	-34.3	23.4	0.00e+00	0	29	0	375390208	40	5923
2026-01-04 19:20:22.76	20.47	7.24	-33.2	-33.8	23.8	0.00e+00	0	29	0	404750336	40	5626
2026-01-04 19:20:26.80	20.43	7.55	-33.0	-33.6	24.0	0.00e+00	0	29	0	434110464	40	5502
2026-01-04 19:20:30.83	20.39	7.87	-33.0	-33.6	24.2	0.00e+00	0	29	0	463470592	40	5496
2026-01-04 19:20:34.87	20.35	8.19	-33.1	-33.7	24.1	0.00e+00	0	29	0	492830720	38	6221
2026-01-04 19:20:38.91	20.30	8.52	-32.9	-33.6	24.3	0.00e+00	0	29	0	521142272	38	6130
2026-01-04 19:20:42.95	20.26	8.85	-32.7	-33.3	24.6	0.00e+00	0	29	0	550502400	38	5946
2026-01-04 19:20:46.98	20.21	9.18	-32.5	-33.1	24.6	0.00e+00	0	29	0	579862528	38	5817
2026-01-04 19:20:51.02	20.17	9.52	-32.9	-33.5	24.3	0.00e+00	0	29	0	609222656	38	6102
2026-01-04 19:20:55.06	20.12	9.87	-32.4	-33.0	24.8	0.00e+00	0	29	0	638582784	38	5754
2026-01-04 19:20:59.10	20.07	10.22	-32.5	-33.2	24.8	0.00e+00	0	29	0	667942912	38	5831
2026-01-04 19:21:03.13	20.01	10.57	-32.5	-33.2	24.8	0.00e+00	0	29	0	696254464	38	5877
2026-01-04 19:21:07.17	19.96	10.93	-32.2	-32.8	25.0	0.00e+00	0	29	0	725614592	38	5630
2026-01-04 19:21:11.21	19.90	11.29	-32.1	-32.7	25.2	0.00e+00	0	29	0	754974720	38	5526
2026-01-04 19:21:15.25	19.85	11.66	-32.1	-32.7	25.1	0.00e+00	0	29	0	784334848	38	5544
2026-01-04 19:21:19.29	19.79	12.04	-32.0	-32.6	25.3	0.00e+00	0	29	0	812646400	38	5483
2026-01-04 19:21:23.33	19.73	12.42	-31.7	-32.3	25.5	0.00e+00	0	29	0	842006528	36	5949
2026-01-04 19:21:27.37	19.66	12.81	-31.7	-32.3	25.5	0.00e+00	0	30	0	871366656	36	5955
2026-01-04 19:21:31.41	19.60	13.20	-31.6	-32.2	25.7	0.00e+00	0	29	0	900726784	36	5837
2026-01-04 19:21:35.45	19.53	13.60	-31.7	-32.3	25.5	0.00e+00	0	30	0	930086912	36	5956
2026-01-04 19:21:39.49	19.46	14.01	-31.3	-31.9	26.0	0.00e+00	0	29	0	958398464	36	5637
2026-01-04 19:21:43.53	19.38	14.42	-31.3	-31.9	25.9	0.00e+00	0	29	0	987758592	36	5657
2026-01-04 19:21:47.56	19.31	14.84	-31.2	-31.8	26.0	0.00e+00	0	30	0	1017118720	36	5618
2026-01-04 19:21:51.61	19.23	15.27	-31.3	-31.9	26.0	0.00e+00	0	30	0	1046478848	36	5662
2026-01-04 19:21:55.64	19.15	15.71	-31.0	-31.6	26.2	0.00e+00	0	30	0	1074790400	36	5444
2026-01-04 19:21:59.68	19.07	16.15	-30.8	-31.4	26.3	0.00e+00	0	29	0	1104150528	36	5368
2026-01-04 19:22:03.71	18.98	16.60	-30.6	-31.2	26.5	0.00e+00	0	30	0	1133510656	34	5862
2026-01-04 19:22:07.75	18.89	17.06	-30.7	-31.3	26.5	0.00e+00	0	30	0	1162870784	34	5904
2026-01-04 19:22:11.79	18.80	17.53	-30.5	-31.1	26.8	0.00e+00	0	30	0	1192230912	34	5766
2026-01-04 19:22:15.83	18.70	18.01	-30.2	-30.8	27.0	0.00e+00	0	29	0	1221591040	34	5589
2026-01-04 19:22:19.86	18.60	18.50	-29.9	-30.5	27.2	0.00e+00	0	30	0	1249902592	34	5417
2026-01-04 19:22:23.90	18.50	19.00	-30.0	-30.6	27.2	0.00e+00	0	30	0	1279262720	32	6123
2026-01-04 19:22:27.94	18.39	19.50	-30.1	-30.7	27.0	0.00e+00	0	30	0	1308622848	32	6184
2026-01-04 19:22:31.98	18.27	20.02	-30.2	-30.8	27.1	0.00e+00	0	29	0	1337982976	32	6289
2026-01-04 19:22:36.02	18.16	20.55	-30.1	-30.7	27.1	0.00e+00	0	30	0	1367343104	32	6220
2026-01-04 19:22:40.06	18.03	21.09	-30.3	-30.9	27.0	0.00e+00	0	30	0	1395654656	32	6320
2026-01-04 19:22:44.09	17.91	21.64	-30.2	-30.7	27.0	0.00e+00	0	30	0	1425014784	32	6244
2026-01-04 19:22:48.14	17.78	22.21	-30.2	-30.8	27.1	0.00e+00	0	30	0	1454374912	32	6253
2026-01-04 19:22:52.18	17.64	22.78	-30.1	-30.7	27.1	0.00e+00	0	30	0	1483735040	32	6231
2026-01-04 19:22:56.22	17.49	23.37	-30.0	-30.6	27.3	0.00e+00	0	30	0	1513095168	32	6150
2026-01-04 19:23:00.26	17.35	23.98	-30.1	-30.7	27.2	0.00e+00	0	30	0	1542455296	32	6208
2026-01-04 19:23:04.29	17.19	24.59	-29.7	-30.3	27.6	0.00e+00	0	30	0	1570766848	32	5924
2026-01-04 19:23:08.33	17.03	25.22	-29.3	-29.9	27.8	0.00e+00	0	30	0	1600126976	32	5645
2026-01-04 19:23:12.37	16.86	25.87	-29.1	-29.7	27.8	0.00e+00	0	30	0	1629487104	32	5547
2026-01-04 19:23:16.41	16.68	26.54	-28.9	-29.4	28.1	0.00e+00	0	30	0	1658847232	30	6029
2026-01-04 19:23:20.45	16.49	27.21	-29.0	-29.6	27.9	0.00e+00	0	30	0	1688207360	30	6136
2026-01-04 19:23:24.49	16.29	27.91	-29.0	-29.6	28.0	0.00e+00	0	30	0	1716518912	30	6112
2026-01-04 19:23:28.53	16.09	28.63	-29.0	-29.6	28.0	0.00e+00	0	30	0	1745879040	30	6115
2026-01-04 19:23:32.57	15.87	29.36	-28.7	-29.3	28.2	0.00e+00	0	30	0	1775239168	30	5953
2026-01-04 19:23:36.61	15.65	30.11	-28.8	-29.4	28.2	0.00e+00	0	30	0	1804599296	30	5989
2026-01-04 19:23:40.65	15.41	30.88	-28.8	-29.3	28.3	0.00e+00	0	30	0	1833959424	30	5946
2026-01-04 19:23:44.68	15.16	31.67	-29.0	-29.6	28.1	0.00e+00	0	30	0	1862270976	30	6118
2026-01-04 19:23:48.72	14.89	32.48	-29.0	-29.6	28.1	0.00e+00	0	30	0	1891631104	30	6105
2026-01-04 19:23:52.76	14.62	33.32	-28.8	-29.4	28.2	0.00e+00	0	30	0	1920991232	30	6005
2026-01-04 19:23:56.79	14.32	34.17	-29.1	-29.7	28.0	0.00e+00	0	30	0	1950351360	30	6223
2026-01-04 19:24:00.83	14.01	35.05	-29.3	-29.9	28.1	0.00e+00	0	30	0	1978662912	32	5643
2026-01-04 19:24:04.88	13.68	35.96	-30.2	-30.8	28.0	0.00e+00	0	30	0	2008023040	30	7050
2026-01-04 19:24:08.92	13.33	36.89	-28.9	-29.5	28.1	0.00e+00	0	30	0	2037383168	32	5411
2026-01-04 19:24:12.95	12.96	37.84	-29.5	-30.1	27.6	0.00e+00	0	30	0	2066743296	32	5780
2026-01-04 19:24:16.99	12.57	38.83	-30.7	-31.3	26.0	0.00e+00	0	30	0	2096103424	34	5958
2026-01-04 19:24:21.03	12.14	39.84	-29.1	-29.7	28.0	0.00e+00	0	30	0	2124414976	32	5512
2026-01-04 19:24:25.07	11.69	40.87	-29.5	-30.1	27.8	0.00e+00	0	30	0	2153775104	32	5795
2026-01-04 19:24:29.10	11.22	41.94	-29.8	-30.4	27.4	0.00e+00	0	30	0	2183135232	32	6004
2026-01-04 19:24:33.14	10.70	43.03	-29.2	-29.8	28.0	0.00e+00	0	30	0	2212495360	32	5614
2026-01-04 19:24:37.18	10.15	44.16	-29.2	-29.7	28.0	0.00e+00	0	30	0	2241855488	32	5552
2026-01-04 19:24:41.22	9.55	45.31	-29.7	-30.3	27.7	0.00e+00	0	30	0	2271215616	32	5939
2026-01-04 19:24:45.26	8.91	46.50	-29.7	-30.2	27.6	0.00e+00	0	30	0	2299527168	32	5889
2026-01-04 19:24:49.29	8.22	47.71	-29.8	-30.3	27.6	0.00e+00	0	30	0	2328887296	32	5964
2026-01-04 19:24:53.33	7.46	48.96	-29.9	-30.5	27.4	0.00e+00	0	30	0	2358247424	32	6056
2026-01-04 19:24:57.36	6.65	50.24	-30.4	-31.0	27.1	0.00e+00	0	30	0	2387607552	32	6453
2026-01-04 19:25:01.41	5.75	51.55	-30.5	-31.0	27.5	0.00e+00	0	30	0	2416967680	34	5743
2026-01-04 19:25:05.45	4.78	52.88	-29.9	-30.5	27.4	0.00e+00	0	30	0	2445279232	32	6065
2026-01-04 19:25:09.49	3.70	54.25	-31.2	-31.8	26.3	0.00e+00	0	30	0	2474639360	34	6282
2026-01-04 19:25:13.53	2.52	55.63	-30.2	-30.8	27.0	0.00e+00	0	30	0	2503999488	34	5584
2026-01-04 19:25:17.57	1.21	57.05	-31.0	-31.6	26.6	0.00e+00	0	30	0	2533359616	34	6130
2026-01-04 19:25:21.61	359.76	58.48	-30.0	-30.6	26.9	0.00e+00	0	30	0	2562719744	34	5455
2026-01-04 19:25:25.65	358.14	59.92	-30.5	-31.1	27.0	0.00e+00	0	30	0	2592079872	34	5804
2026-01-04 19:25:29.68	356.33	61.38	-30.0	-30.5	27.4	1.10e-06	0	30	0	2620391424	32	6087
2026-01-04 19:25:33.72	354.28	62.84	-29.7	-30.3	27.5	0.00e+00	0	30	0	2649751552	32	5912
2026-01-04 19:25:37.76	351.97	64.29	-29.7	-30.3	27.8	0.00e+00	0	30	0	2679111680	32	5922
2026-01-04 19:25:41.80	349.35	65.73	-29.2	-29.8	28.0	0.00e+00	0	30	0	2708471808	32	5580
2026-01-04 19:25:45.84	346.36	67.15	-29.4	-30.0	28.0	0.00e+00	0	30	0	2736783360	32	5738
2026-01-04 19:25:49.88	342.94	68.52	-29.5	-30.1	27.9	0.00e+00	0	30	0	2766143488	32	5766
2026-01-04 19:25:53.92	339.02	69.83	-29.9	-30.4	27.7	0.00e+00	0	30	0	2795503616	32	6021
2026-01-04 19:25:57.96	334.53	71.06	-29.5	-30.0	27.7	0.00e+00	0	30	0	2824863744	32	5740
2026-01-04 19:26:02.00	329.41	72.17	-29.6	-30.2	28.0	0.00e+00	0	30	0	2854223872	32	5863
2026-01-04 19:26:06.03	323.62	73.14	-29.3	-29.9	27.8	0.00e+00	0	30	0	2882535424	32	5659
2026-01-04 19:26:10.07	317.15	73.93	-30.2	-30.8	27.8	0.00e+00	0	30	0	2911895552	32	6300
2026-01-04 19:26:14.11	310.08	74.51	-30.2	-30.7	27.5	0.00e+00	0	30	0	2941255680	32	6240
2026-01-04 19:26:18.15	302.55	74.85	-29.9	-30.5	27.7	0.00e+00	0	30	0	2970615808	32	6076
2026-01-04 19:26:22.18	294.82	74.93	-30.9	-31.4	28.1	0.00e+00	0	30	0	2999975936	34	6012
2026-01-04 19:26:26.23	287.12	74.74	-29.2	-29.8	28.3	0.00e+00	0	30	0	3028287488	32	5590
2026-01-04 19:26:30.26	279.77	74.30	-29.7	-30.3	27.5	0.00e+00	0	30	0	3057647616	32	5934
2026-01-04 19:26:34.30	272.93	73.63	-28.7	-29.2	28.3	0.00e+00	0	30	0	3087007744	30	5871
2026-01-04 19:26:38.34	266.74	72.75	-30.0	-30.6	27.8	0.00e+00	0	30	0	3116367872	32	6127
2026-01-04 19:26:42.38	261.22	71.72	-30.1	-30.7	27.4	0.00e+00	0	30	0	3145728000	34	5528
2026-01-04 19:26:46.41	256.38	70.55	-30.7	-31.3	28.0	0.00e+00	0	30	0	3174039552	34	5902
2026-01-04 19:26:50.45	252.14	69.29	-31.2	-31.7	27.7	0.00e+00	0	30	0	3203399680	34	6220
2026-01-04 19:26:54.49	248.43	67.94	-29.8	-30.4	27.9	0.00e+00	0	30	0	3232759808	32	5967
2026-01-04 19:26:58.53	245.19	66.55	-29.6	-30.2	27.8	0.00e+00	0	30	0	3262119936	32	5833
2026-01-04 19:27:02.56	242.37	65.12	-30.4	-30.9	27.7	0.00e+00	0	30	0	3291480064	34	5686
2026-01-04 19:27:06.60	239.88	63.67	-31.0	-31.5	27.3	0.00e+00	0	30	0	3320840192	34	6103
2026-01-04 19:27:10.64	237.68	62.21	-31.6	-32.3	26.5	0.00e+00	0	30	0	3349151744	36	5903
2026-01-04 19:27:14.67	235.74	60.75	-32.4	-33.0	25.9	0.00e+00	0	30	0	3378511872	38	5726
2026-01-04 19:27:18.71	234.01	59.29	-32.5	-33.0	26.2	0.00e+00	0	30	0	3407872000	36	6460
2026-01-04 19:27:22.75	232.46	57.84	-30.8	-31.4	27.0	0.00e+00	0	30	0	3437232128	36	5317
2026-01-04 19:27:26.79	231.07	56.42	-31.0	-31.6	26.8	0.00e+00	0	30	0	3465543680	34	6112
2026-01-04 19:27:30.83	229.81	55.01	-30.6	-31.2	27.4	0.00e+00	0	30	0	3494903808	34	5854
2026-01-04 19:27:34.87	228.67	53.63	-29.9	-30.5	27.3	0.00e+00	0	30	0	3524263936	34	5392
2026-01-04 19:27:38.91	227.64	52.27	-30.5	-31.1	26.9	0.00e+00	0	30	0	3553624064	34	5778
2026-01-04 19:27:42.95	226.70	50.94	-30.8	-31.4	26.6	0.00e+00	0	30	0	3582984192	34	6003
2026-01-04 19:27:46.98	225.84	49.65	-30.8	-31.4	26.6	0.00e+00	0	30	0	3611295744	34	5965
2026-01-04 19:27:51.02	225.05	48.38	-30.3	-30.8	27.1	0.00e+00	0	30	0	3640655872	34	5615
2026-01-04 19:27:55.06	224.32	47.14	-29.9	-30.5	27.5	0.00e+00	0	30	0	3670016000	34	5380
2026-01-04 19:27:59.10	223.65	45.93	-29.8	-30.4	25.8	0.00e+00	0	30	0	3699376128	32	5983
2026-01-04 19:28:03.13	223.02	44.76	-29.4	-30.0	27.8	0.00e+00	0	30	0	3727687680	32	5718
2026-01-04 19:28:07.18	222.45	43.61	-29.2	-29.8	27.9	0.00e+00	0	30	0	3757047808	32	5584
2026-01-04 19:28:11.21	221.91	42.49	-28.9	-29.5	27.9	0.00e+00	0	30	0	3786407936	32	5420
2026-01-04 19:28:15.25	221.41	41.41	-29.2	-29.7	27.5	0.00e+00	0	30	0	3815768064	32	5552
2026-01-04 19:28:19.30	220.94	40.35	-29.6	-30.1	26.9	0.00e+00	0	30	0	3845128192	32	5823
2026-01-04 19:28:23.34	220.50	39.32	-29.1	-29.7	27.6	0.00e+00	0	30	0	3874488320	32	5530
2026-01-04 19:28:27.38	220.09	38.32	-29.2	-29.8	28.0	0.00e+00	0	30	0	3902799872	32	5575
2026-01-04 19:28:31.41	219.70	37.34	-29.2	-29.7	28.0	0.00e+00	0	30	0	3932160000	32	5564
2026-01-04 19:28:35.45	219.34	36.40	-29.6	-30.1	27.7	0.00e+00	0	30	0	3961520128	32	5828
2026-01-04 19:28:39.49	219.00	35.47	-29.1	-29.6	28.1	0.00e+00	0	30	0	3990880256	32	5498
2026-01-04 19:28:43.53	218.67	34.58	-28.5	-29.0	28.5	0.00e+00	0	30	0	4020240384	30	5754
2026-01-04 19:28:47.57	218.37	33.70	-28.6	-29.1	28.4	0.00e+00	0	30	0	4048551936	30	5813
2026-01-04 19:28:51.61	218.08	32.85	-28.9	-29.5	28.1	0.00e+00	0	30	0	4077912064	30	6042
2026-01-04 19:28:55.64	217.81	32.03	-29.1	-29.6	28.0	0.00e+00	0	30	0	4107272192	30	6157
2026-01-04 19:28:59.69	217.54	31.22	-29.0	-29.6	27.9	0.00e+00	0	30	0	4136632320	30	6105
2026-01-04 19:29:03.72	217.30	30.44	-28.8	-29.4	28.2	0.00e+00	0	30	0	4165992448	30	5999
2026-01-04 19:29:07.76	217.06	29.67	-29.0	-29.6	28.1	0.00e+00	0	30	0	4195352576	30	6125
2026-01-04 19:29:11.79	216.84	28.93	-29.3	-29.8	27.9	0.00e+00	0	30	0	4223664128	30	6312
2026-01-04 19:29:15.83	216.63	28.20	-29.4	-29.9	27.9	0.00e+00	0	30	0	4253024256	30	6384
2026-01-04 19:29:19.87	216.43	27.49	-29.3	-29.9	28.0	0.00e+00	0	30	0	4282384384	30	6325
2026-01-04 19:29:23.92	216.23	26.80	-29.5	-30.0	27.7	0.00e+00	0	30	0	4311744512	30	6453
2026-01-04 19:29:27.96	216.05	26.12	-29.3	-29.9	27.9	0.00e+00	0	30	0	4341104640	30	6361
2026-01-04 19:29:32.00	215.87	25.47	-29.6	-30.1	27.5	0.00e+00	0	30	0	4369416192	32	5805
2026-01-04 19:29:36.04	215.70	24.82	-29.7	-30.2	27.4	0.00e+00	0	30	0	4398776320	32	5893
2026-01-04 19:29:40.08	215.54	24.20	-29.6	-30.2	27.6	0.00e+00	0	30	0	4428136448	32	5846
2026-01-04 19:29:44.11	215.38	23.58	-29.5	-30.0	27.7	0.00e+00	0	30	0	4457496576	32	5755
2026-01-04 19:29:48.15	215.23	22.98	-29.4	-30.0	27.7	0.00e+00	0	30	0	4486856704	32	5707
2026-01-04 19:29:52.19	215.09	22.40	-29.2	-29.8	27.7	0.00e+00	0	30	0	4515168256	32	5600
2026-01-04 19:29:56.22	214.95	21.83	-29.4	-30.0	27.6	0.00e+00	0	30	0	4544528384	32	5734
2026-01-04 19:30:00.26	214.82	21.27	-29.4	-30.0	27.6	0.00e+00	0	30	0	4573888512	32	5732
2026-01-04 19:30:04.30	214.70	20.72	-29.6	-30.2	27.5	0.00e+00	0	30	0	4603248640	32	5837
2026-01-04 19:30:08.34	214.57	20.18	-29.7	-30.3	27.4	0.00e+00	0	30	0	4631560192	32	5945
2026-01-04 19:30:12.38	214.46	19.66	-29.8	-30.4	27.3	0.00e+00	0	30	0	4660920320	32	6001
2026-01-04 19:30:16.42	214.34	19.14	-30.2	-30.7	27.3	0.00e+00	0	30	0	4690280448	32	6231
2026-01-04 19:30:20.45	214.24	18.64	-30.0	-30.6	27.0	0.00e+00	0	30	0	4719640576	32	6142
2026-01-04 19:30:24.49	214.13	18.14	-30.3	-30.9	27.0	0.00e+00	0	30	0	4749000704	32	6333
2026-01-04 19:30:28.53	214.03	17.66	-30.5	-31.0	26.8	0.00e+00	0	30	0	4777312256	32	6460
2026-01-04 19:30:32.57	213.93	17.18	-30.7	-31.3	26.6	0.00e+00	0	30	0	4806672384	34	5942
2026-01-04 19:30:36.61	213.84	16.72	-30.9	-31.5	26.5	0.00e+00	0	30	0	4836032512	34	6065
2026-01-04 19:30:40.65	213.75	16.26	-31.2	-31.8	26.3	0.00e+00	0	30	0	4865392640	34	6268
2026-01-04 19:30:44.69	213.66	15.81	-31.0	-31.6	26.4	0.00e+00	0	30	0	4894752768	34	6165
2026-01-04 19:30:48.73	213.57	15.37	-31.1	-31.7	26.1	0.00e+00	0	30	0	4923064320	34	6236
2026-01-04 19:30:52.77	213.49	14.93	-31.6	-32.2	26.0	0.00e+00	0	30	0	4952424448	34	6565
2026-01-04 19:30:56.81	213.41	14.51	-31.5	-32.1	26.0	0.00e+00	0	30	0	4981784576	36	5807
2026-01-04 19:31:00.85	213.33	14.09	-31.3	-31.9	26.2	0.00e+00	0	30	0	5011144704	36	5689
2026-01-04 19:31:04.89	213.26	13.68	-31.3	-31.9	26.0	0.00e+00	0	30	0	5040504832	36	5684
2026-01-04 19:31:08.92	213.19	13.27	-31.7	-32.3	25.8	0.00e+00	0	30	0	5069864960	36	5938
2026-01-04 19:31:12.96	213.12	12.87	-31.6	-32.2	25.8	0.00e+00	0	30	0	5098176512	36	5863
2026-01-04 19:31:17.00	213.05	12.48	-31.6	-32.1	25.8	0.00e+00	0	30	0	5127536640	36	5825
2026-01-04 19:31:21.04	212.99	12.10	-31.6	-32.2	25.6	0.00e+00	0	30	0	5156896768	36	5880
2026-01-04 19:31:25.08	212.92	11.72	-31.9	-32.5	25.5	0.00e+00	0	30	0	5186256896	36	6066
2026-01-04 19:31:29.12	212.86	11.34	-31.9	-32.5	25.4	0.00e+00	0	30	0	5215617024	36	6082
2026-01-04 19:31:33.16	212.80	10.97	-32.1	-32.7	25.3	0.00e+00	0	30	0	5243928576	36	6237
2026-01-04 19:31:37.20	212.74	10.61	-32.2	-32.8	25.2	0.00e+00	0	30	0	5273288704	36	6300
2026-01-04 19:31:41.24	212.69	10.25	-32.4	-33.0	25.0	0.00e+00	0	30	0	5302648832	36	6442
2026-01-04 19:31:45.27	212.63	9.90	-32.6	-33.2	24.9	0.00e+00	0	30	0	5332008960	36	6583
2026-01-04 19:31:49.31	212.58	9.55	-33.1	-33.8	24.3	0.00e+00	0	30	0	5361369088	38	6249
2026-01-04 19:31:53.35	212.53	9.21	-33.0	-33.7	24.3	0.00e+00	0	30	0	5390729216	38	6204
2026-01-04 19:31:57.39	212.48	8.87	-33.2	-33.8	24.3	0.00e+00	0	30	0	5419040768	38	6295
2026-01-04 19:32:01.42	212.43	8.54	-33.6	-34.3	23.7	0.00e+00	0	30	0	5448400896	38	6617
2026-01-04 19:32:05.46	212.38	8.21	-33.6	-34.3	23.7	0.00e+00	0	30	0	5477761024	38	6623
2026-01-04 19:32:09.50	212.34	7.88	-33.8	-34.4	23.4	0.00e+00	0	30	0	5507121152	40	6012
2026-01-04 19:32:13.53	212.29	7.56	-33.6	-34.3	23.6	0.00e+00	0	30	0	5535432704	40	5928
2026-01-04 19:32:17.57	212.25	7.24	-33.9	-34.6	23.3	0.00e+00	0	30	0	5564792832	40	6133
2026-01-04 19:32:21.61	212.21	6.93	-33.8	-34.5	23.3	0.00e+00	0	30	0	5594152960	40	6080
2026-01-04 19:32:25.65	212.17	6.62	-34.2	-34.9	23.2	0.00e+00	0	30	0	5623513088	40	6345
2026-01-04 19:32:29.68	212.13	6.31	-34.1	-34.8	23.1	0.00e+00	0	30	0	5651824640	40	6286
2026-01-04 19:32:33.72	212.09	6.01	-34.3	-35.0	22.7	0.00e+00	0	30	0	5681184768	40	6422
2026-01-04 19:32:37.76	212.05	5.71	-34.1	-34.8	23.1	0.00e+00	0	30	0	5710544896	40	6296
2026-01-04 19:32:41.80	212.01	5.42	-34.7	-35.4	22.7	0.00e+00	0	30	0	5739905024	42	5979
2026-01-04 19:32:45.84	211.98	5.13	-34.3	-35.0	22.6	0.00e+00	0	30	0	5769265152	42	5757
2026-01-04 19:32:49.87	211.94	4.84	-34.5	-35.2	22.4	0.00e+00	0	30	0	5797576704	42	5881
2026-01-04 19:32:53.92	211.91	4.55	-34.7	-35.4	22.1	0.00e+00	0	30	0	5826936832	42	6015
2026-01-04 19:32:57.95	211.88	4.27	-34.5	-35.3	22.3	0.00e+00	0	30	0	5856296960	42	5910
2026-01-04 19:33:01.99	211.84	3.99	-34.8	-35.6	22.0	0.00e+00	0	30	0	5885657088	42	6112
2026-01-04 19:33:06.03	211.81	3.71	-35.2	-36.0	21.4	0.00e+00	0	30	0	5915017216	42	6413
2026-01-04 19:33:10.07	211.78	3.44	-35.6	-36.4	21.2	0.00e+00	0	30	0	5944377344	42	6728
2026-01-04 19:33:14.11	211.75	3.16	-35.3	-36.1	21.2	0.00e+00	0	30	0	5972688896	42	6498
2026-01-04 19:33:18.15	211.72	2.89	-48.3	-59.4	3.6	8.45e-01	0	30	104	5989466112	60	33870
2026-01-04 19:33:22.19	211.69	2.63	-48.7	-59.9	3.5	8.45e-01	0	30	104	5989466112	60	35820
2026-01-04 19:33:26.23	211.67	2.36	-48.6	-59.9	3.6	8.47e-01	0	30	104	5989466112	60	35762
2026-01-04 19:33:30.27	211.64	2.10	-48.7	-60.2	3.6	8.46e-01	0	30	104	5989466112	60	36884
2026-01-04 19:33:34.31	211.61	1.84	-49.6	-60.8	3.6	8.46e-01	0	30	104	5989466112	60	39578
2026-01-04 19:33:38.35	211.59	1.59	-49.2	-60.5	3.5	8.45e-01	0	30	104	5989466112	60	38099
2026-01-04 19:33:42.39	211.56	1.33	-49.6	-60.8	3.6	8.45e-01	0	30	104	5989466112	60	39574
2026-01-04 19:33:46.43	211.54	1.08	-49.3	-60.6	3.6	8.45e-01	0	30	104	5989466112	60	38535
2026-01-04 19:33:50.47	211.52	0.83	-48.5	-59.8	3.6	8.45e-01	0	30	104	5989466112	60	35143
2026-01-04 19:33:54.51	211.49	0.58	-49.1	-60.3	3.6	8.46e-01	0	30	104	5989466112	60	37311
2026-01-04 19:33:58.55	211.47	0.33	-49.3	-60.5	3.6	8.45e-01	0	30	104	5989466112	60	38393
2026-01-04 19:34:02.59	211.45	0.09	-48.9	-60.2	3.5	8.45e-01	0	30	104	5989466112	60	36789
2026-01-04 19:34:06.62	211.43	-0.15	-49.3	-60.6	3.6	8.45e-01	0	30	104	5989466112	60	38547

#Closed at: 2026-01-04 19:34:06
#Recorded file [5989 MB]: D:/lorett/data/35029_260105_071837.dat