passes_logs/2026/01/04/R4.6S_Anadyr/R4.6S_Anadyr__20260104_173147_FENGYUN_3D_rec.log

#Pass ID: 20260104_173147_FENGYUN 3D
#Satellite: FENGYUN 3D
#Configuration: FENGYUN 3D
#almurnet v.1.7.20251203
#Start time: 2026-01-04 17:31:49

#Version: 2.2.20231116
#Station: R4.6S_Anadyr
#Location: 177.4865 lon 64.73178 lat
#TLE: 1 43010U 17072A   26003.51579816  .00000092  00000+0  65324-4 0  9992
#TLE: 2 43010  98.9912 335.1548 0001916 128.4619 231.6729 14.19692074421623

#Time	Az	El	Level	Level2	SNR	BER	BlckErr	Temp	State	Recorded	gain1	gain2
2026-01-04 17:31:49.87	22.93	0.13	-50.4	-68.1	3.5	3.04e+01	0	31	0	0	60	97932
2026-01-04 17:31:53.91	22.86	0.37	-49.5	-61.7	3.6	8.46e-01	0	32	104	0	60	43866
2026-01-04 17:31:57.95	22.80	0.62	-49.1	-61.2	3.6	8.46e-01	0	32	104	0	60	41396
2026-01-04 17:32:01.98	22.73	0.86	-48.5	-60.6	3.6	8.44e-01	0	32	104	0	60	38912
2026-01-04 17:32:06.03	22.66	1.11	-47.6	-59.7	3.6	8.45e-01	0	32	104	0	60	34885
2026-01-04 17:32:10.07	22.59	1.36	-47.4	-59.5	3.6	8.46e-01	0	32	104	0	60	34302
2026-01-04 17:32:14.11	22.52	1.61	-47.5	-59.3	3.6	8.45e-01	0	32	104	0	60	33482
2026-01-04 17:32:18.15	22.45	1.86	-47.5	-58.8	3.6	8.44e-01	0	33	104	0	60	31648
2026-01-04 17:32:22.19	22.38	2.12	-47.5	-59.6	3.5	8.47e-01	0	32	104	0	60	34492
2026-01-04 17:32:26.23	22.30	2.37	-47.5	-59.1	3.6	8.45e-01	0	33	104	0	60	32464
2026-01-04 17:32:30.26	22.23	2.63	-47.3	-57.3	3.6	8.45e-01	0	33	104	0	60	26412
2026-01-04 17:32:34.30	22.15	2.90	-47.3	-57.1	3.6	8.42e-01	0	33	104	0	60	25947
2026-01-04 17:32:38.34	22.07	3.16	-46.6	-52.2	5.1	7.28e-01	0	33	0	0	60	14727
2026-01-04 17:32:42.38	21.98	3.43	-41.6	-43.2	15.6	0.00e+00	0	33	0	22020096	56	6575
2026-01-04 17:32:46.42	21.90	3.70	-39.8	-41.1	17.2	0.00e+00	0	33	0	44040192	54	5786
2026-01-04 17:32:50.46	21.81	3.97	-39.9	-41.2	16.3	1.09e-02	0	33	104	56623104	54	5853
2026-01-04 17:32:54.50	21.72	4.24	-35.9	-36.7	20.0	1.09e-02	0	33	104	61865984	44	6238
2026-01-04 17:32:58.53	21.64	4.52	-36.0	-36.8	21.9	0.00e+00	0	33	0	82837504	44	6295
2026-01-04 17:33:02.57	21.54	4.80	-35.8	-36.6	21.9	0.00e+00	0	33	0	105906176	44	6153
2026-01-04 17:33:06.61	21.45	5.09	-35.5	-36.2	22.4	0.00e+00	0	33	0	127926272	44	5891
2026-01-04 17:33:10.64	21.35	5.37	-36.6	-37.4	21.5	0.00e+00	0	33	0	150994944	44	6769
2026-01-04 17:33:14.68	21.25	5.66	-35.7	-36.5	22.2	0.00e+00	0	33	0	174063616	44	6052
2026-01-04 17:33:18.72	21.15	5.95	-36.2	-37.0	21.6	0.00e+00	0	33	0	196083712	44	6437
2026-01-04 17:33:22.76	21.05	6.25	-35.3	-36.1	22.8	0.00e+00	0	33	0	219152384	44	5782
2026-01-04 17:33:26.80	20.94	6.55	-35.5	-36.2	22.5	0.00e+00	0	33	0	242221056	44	5889
2026-01-04 17:33:30.84	20.83	6.85	-34.8	-35.6	23.2	0.00e+00	0	33	0	265289728	42	6135
2026-01-04 17:33:34.88	20.72	7.16	-35.0	-35.7	23.3	0.00e+00	0	33	0	287309824	42	6221
2026-01-04 17:33:38.92	20.61	7.47	-35.0	-35.7	23.3	0.00e+00	0	33	0	310378496	42	6219
2026-01-04 17:33:42.96	20.49	7.78	-34.7	-35.5	23.5	0.00e+00	0	33	0	332398592	42	6054
2026-01-04 17:33:46.99	20.37	8.09	-34.6	-35.3	23.7	0.00e+00	0	33	0	355467264	42	5941
2026-01-04 17:33:51.03	20.25	8.42	-34.7	-35.5	23.6	0.00e+00	0	33	0	378535936	42	6054
2026-01-04 17:33:55.06	20.13	8.74	-34.3	-35.0	24.0	0.00e+00	0	33	0	400556032	42	5733
2026-01-04 17:33:59.10	20.00	9.07	-34.4	-35.1	23.8	0.00e+00	0	33	0	423624704	42	5822
2026-01-04 17:34:03.14	19.86	9.40	-34.2	-34.9	24.2	0.00e+00	0	33	0	446693376	42	5661
2026-01-04 17:34:07.18	19.73	9.74	-33.8	-34.5	24.5	0.00e+00	0	33	0	468713472	40	6056
2026-01-04 17:34:11.21	19.59	10.08	-33.9	-34.6	24.4	0.00e+00	0	33	0	491782144	40	6172
2026-01-04 17:34:15.25	19.45	10.43	-34.0	-34.7	24.3	0.00e+00	0	33	0	514850816	40	6182
2026-01-04 17:34:19.29	19.30	10.78	-34.1	-34.8	24.0	0.00e+00	0	33	0	536870912	42	5601
2026-01-04 17:34:23.33	19.15	11.13	-34.0	-34.7	24.5	0.00e+00	0	33	0	559939584	42	5542
2026-01-04 17:34:27.37	18.99	11.49	-34.0	-34.7	24.4	0.00e+00	0	33	0	583008256	42	5504
2026-01-04 17:34:31.42	18.83	11.86	-34.0	-34.7	24.5	0.00e+00	0	33	0	605028352	42	5544
2026-01-04 17:34:35.45	18.67	12.23	-34.2	-34.9	24.3	0.00e+00	0	33	0	628097024	40	6335
2026-01-04 17:34:39.49	18.50	12.61	-34.4	-35.1	24.0	0.00e+00	0	33	0	651165696	42	5782
2026-01-04 17:34:43.53	18.33	12.99	-33.7	-34.4	24.6	0.00e+00	0	33	0	674234368	40	6023
2026-01-04 17:34:47.57	18.15	13.38	-33.8	-34.5	24.6	0.00e+00	0	33	0	696254464	40	6065
2026-01-04 17:34:51.61	17.97	13.78	-33.6	-34.3	25.0	0.00e+00	0	33	0	719323136	40	5944
2026-01-04 17:34:55.65	17.78	14.18	-33.3	-33.9	24.9	0.00e+00	0	33	0	741343232	40	5687
2026-01-04 17:34:59.69	17.58	14.58	-33.0	-33.7	25.3	0.00e+00	0	33	0	764411904	40	5511
2026-01-04 17:35:03.73	17.38	15.00	-33.2	-33.9	25.3	0.00e+00	0	33	0	787480576	40	5668
2026-01-04 17:35:07.76	17.17	15.42	-33.1	-33.8	25.5	0.00e+00	0	33	0	809500672	38	6266
2026-01-04 17:35:11.79	16.96	15.84	-32.5	-33.1	26.0	0.00e+00	0	33	0	832569344	38	5827
2026-01-04 17:35:15.83	16.74	16.28	-32.2	-32.8	26.1	0.00e+00	0	33	0	855638016	38	5586
2026-01-04 17:35:19.81	16.52	16.71	-31.9	-32.5	26.5	0.00e+00	0	33	0	877658112	38	5400
2026-01-04 17:35:23.85	16.29	17.16	-32.1	-32.7	26.3	0.00e+00	0	33	0	900726784	38	5555
2026-01-04 17:35:27.89	16.04	17.62	-31.9	-32.5	26.5	0.00e+00	0	33	0	923795456	38	5426
2026-01-04 17:35:31.93	15.79	18.08	-31.9	-32.5	26.7	0.00e+00	0	33	0	945815552	36	6081
2026-01-04 17:35:35.97	15.54	18.56	-31.8	-32.5	26.4	0.00e+00	0	33	0	968884224	36	6058
2026-01-04 17:35:40.01	15.27	19.04	-31.4	-32.1	26.9	0.00e+00	0	33	0	991952896	36	5778
2026-01-04 17:35:44.05	14.99	19.53	-31.9	-32.5	26.8	0.00e+00	0	33	0	1013972992	36	6069
2026-01-04 17:35:48.09	14.71	20.03	-31.4	-32.0	27.0	0.00e+00	0	33	0	1037041664	36	5760
2026-01-04 17:35:52.12	14.41	20.54	-31.4	-32.0	26.9	0.00e+00	0	33	0	1060110336	36	5738
2026-01-04 17:35:56.16	14.11	21.06	-31.3	-31.9	27.0	0.00e+00	0	33	0	1082130432	36	5692
2026-01-04 17:36:00.20	13.79	21.59	-31.0	-31.7	27.4	0.00e+00	0	33	0	1105199104	36	5509
2026-01-04 17:36:04.24	13.46	22.13	-30.9	-31.6	27.3	0.00e+00	0	33	0	1128267776	36	5451
2026-01-04 17:36:08.28	13.12	22.68	-30.8	-31.5	27.5	0.00e+00	0	33	0	1150287872	34	6037
2026-01-04 17:36:12.31	12.77	23.24	-30.8	-31.4	27.5	0.00e+00	0	33	0	1173356544	34	6030
2026-01-04 17:36:16.35	12.40	23.81	-30.8	-31.5	27.4	0.00e+00	0	33	0	1196425216	34	6036
2026-01-04 17:36:20.39	12.02	24.40	-30.6	-31.2	27.5	0.00e+00	0	33	0	1218445312	34	5884
2026-01-04 17:36:24.43	11.62	24.99	-30.6	-31.2	27.6	0.00e+00	0	33	0	1241513984	34	5866
2026-01-04 17:36:28.47	11.21	25.60	-30.4	-31.0	27.9	0.00e+00	0	33	0	1264582656	34	5723
2026-01-04 17:36:32.51	10.78	26.22	-30.3	-30.9	28.0	0.00e+00	0	33	0	1286602752	34	5631
2026-01-04 17:36:36.54	10.33	26.85	-30.4	-31.0	28.2	0.00e+00	0	33	0	1309671424	34	5705
2026-01-04 17:36:40.58	9.86	27.50	-30.0	-30.6	28.1	0.00e+00	0	33	0	1332740096	34	5489
2026-01-04 17:36:44.62	9.38	28.16	-30.2	-30.8	27.9	0.00e+00	0	33	0	1354760192	34	5589
2026-01-04 17:36:48.66	8.87	28.83	-30.1	-30.7	28.1	0.00e+00	0	33	0	1377828864	34	5532
2026-01-04 17:36:52.70	8.34	29.52	-29.9	-30.5	28.5	0.00e+00	0	33	0	1400897536	32	6067
2026-01-04 17:36:56.74	7.78	30.22	-30.7	-31.3	27.9	0.00e+00	0	33	0	1422917632	32	6635
2026-01-04 17:37:00.78	7.20	30.93	-29.8	-30.4	28.3	0.00e+00	0	33	0	1445986304	34	5351
2026-01-04 17:37:04.81	6.60	31.66	-29.8	-30.4	28.3	0.00e+00	0	33	0	1469054976	32	6033
2026-01-04 17:37:08.85	5.96	32.40	-30.2	-30.8	28.0	0.00e+00	0	33	0	1491075072	34	5571
2026-01-04 17:37:12.89	5.29	33.16	-29.8	-30.4	28.4	0.00e+00	0	33	0	1514143744	34	5339
2026-01-04 17:37:16.92	4.59	33.93	-29.8	-30.4	28.4	0.00e+00	0	33	0	1537212416	32	6001
2026-01-04 17:37:20.96	3.86	34.72	-29.5	-30.1	28.6	0.00e+00	0	33	0	1559232512	32	5818
2026-01-04 17:37:25.00	3.08	35.53	-30.0	-30.6	28.4	0.00e+00	0	33	0	1582301184	32	6130
2026-01-04 17:37:29.04	2.27	36.34	-30.4	-31.0	28.3	0.00e+00	0	33	0	1605369856	32	6403
2026-01-04 17:37:33.08	1.42	37.17	-30.3	-30.9	28.2	0.00e+00	0	33	0	1627389952	32	6382
2026-01-04 17:37:37.12	0.51	38.02	-30.7	-31.3	28.0	0.00e+00	0	33	0	1650458624	34	5940
2026-01-04 17:37:41.16	359.56	38.87	-30.0	-30.6	28.4	0.00e+00	0	33	0	1673527296	32	6116
2026-01-04 17:37:45.19	358.56	39.74	-29.9	-30.5	28.4	0.00e+00	0	33	0	1695547392	32	6070
2026-01-04 17:37:49.23	357.50	40.62	-30.3	-30.9	28.2	0.00e+00	0	33	0	1718616064	32	6346
2026-01-04 17:37:53.27	356.38	41.51	-30.1	-30.7	28.1	0.00e+00	0	33	0	1741684736	32	6215
2026-01-04 17:37:57.31	355.20	42.41	-30.4	-31.0	28.2	0.00e+00	0	33	0	1763704832	34	5738
2026-01-04 17:38:01.35	353.95	43.32	-30.3	-30.9	28.3	0.00e+00	0	33	0	1786773504	34	5647
2026-01-04 17:38:05.39	352.62	44.23	-30.6	-31.2	27.7	0.00e+00	0	33	0	1809842176	34	5846
2026-01-04 17:38:09.42	351.22	45.14	-30.0	-30.6	28.2	0.00e+00	0	33	0	1831862272	34	5473
2026-01-04 17:38:13.46	349.72	46.06	-30.4	-31.0	28.1	0.00e+00	0	33	0	1854930944	34	5724
2026-01-04 17:38:17.50	348.14	46.97	-30.9	-31.5	27.9	0.00e+00	0	33	0	1877999616	34	6079
2026-01-04 17:38:21.54	346.47	47.88	-31.0	-31.6	27.7	0.00e+00	0	33	0	1900019712	36	5498
2026-01-04 17:38:25.57	344.69	48.77	-31.2	-31.8	27.6	0.00e+00	0	33	0	1923088384	34	6258
2026-01-04 17:38:29.62	342.80	49.66	-32.3	-32.9	26.5	0.00e+00	0	33	0	1945108480	36	6355
2026-01-04 17:38:33.66	340.81	50.53	-31.3	-31.9	27.3	0.00e+00	0	33	0	1968177152	36	5658
2026-01-04 17:38:37.70	338.69	51.37	-31.4	-32.1	27.5	0.00e+00	0	33	0	1991245824	36	5785
2026-01-04 17:38:41.74	336.46	52.18	-31.7	-32.4	27.1	0.00e+00	0	33	0	2014314496	36	5971
2026-01-04 17:38:45.77	334.10	52.96	-31.5	-32.1	27.3	0.00e+00	0	33	0	2036334592	36	5817
2026-01-04 17:38:49.81	331.61	53.70	-31.7	-32.3	27.7	0.00e+00	0	33	0	2059403264	36	5952
2026-01-04 17:38:53.85	329.00	54.39	-31.8	-32.4	27.4	0.00e+00	0	33	0	2082471936	36	5992
2026-01-04 17:38:57.89	326.26	55.03	-31.1	-31.8	27.6	0.00e+00	0	33	0	2104492032	36	5579
2026-01-04 17:39:01.93	323.40	55.60	-30.8	-31.4	28.1	0.00e+00	0	33	0	2127560704	34	6019
2026-01-04 17:39:05.97	320.43	56.11	-32.4	-33.2	27.6	0.00e+00	0	33	0	2150629376	36	6549
2026-01-04 17:39:10.01	317.36	56.54	-31.0	-31.6	27.8	0.00e+00	0	33	0	2172649472	36	5482
2026-01-04 17:39:14.04	314.20	56.89	-30.9	-31.5	27.8	0.00e+00	0	33	0	2195718144	36	5415
2026-01-04 17:39:18.08	310.96	57.16	-31.9	-32.5	27.5	0.00e+00	0	33	0	2218786816	38	5421
2026-01-04 17:39:22.12	307.67	57.35	-31.8	-32.5	27.7	0.00e+00	0	33	0	2240806912	36	6054
2026-01-04 17:39:26.16	304.35	57.44	-32.0	-32.6	27.9	0.00e+00	0	33	0	2263875584	36	6155
2026-01-04 17:39:30.20	301.01	57.43	-32.5	-33.1	27.4	0.00e+00	0	33	0	2286944256	36	6527
2026-01-04 17:39:34.23	297.69	57.34	-32.1	-32.6	27.5	0.00e+00	0	33	0	2308964352	36	6147
2026-01-04 17:39:38.27	294.40	57.16	-31.1	-31.7	27.7	0.00e+00	0	33	0	2332033024	36	5561
2026-01-04 17:39:42.31	291.17	56.88	-31.9	-32.6	27.5	0.00e+00	0	33	0	2354053120	36	6112
2026-01-04 17:39:46.35	288.00	56.52	-31.5	-32.1	27.9	0.00e+00	0	33	0	2377121792	36	5803
2026-01-04 17:39:50.38	284.94	56.09	-32.0	-32.7	27.5	0.00e+00	0	33	0	2400190464	36	6177
2026-01-04 17:39:54.43	281.96	55.58	-31.7	-32.4	27.8	0.00e+00	0	33	0	2423259136	36	5982
2026-01-04 17:39:58.47	279.10	55.00	-31.3	-31.9	28.0	0.00e+00	0	33	0	2445279232	36	5674
2026-01-04 17:40:02.51	276.37	54.36	-31.3	-31.8	28.0	0.00e+00	0	33	0	2468347904	34	6304
2026-01-04 17:40:06.55	273.75	53.66	-31.4	-32.0	27.8	0.00e+00	0	33	0	2491416576	36	5718
2026-01-04 17:40:10.58	271.27	52.92	-30.9	-31.6	28.1	0.00e+00	0	33	0	2513436672	34	6105
2026-01-04 17:40:14.62	268.91	52.14	-31.5	-32.1	27.8	0.00e+00	0	33	0	2536505344	34	6489
2026-01-04 17:40:18.66	266.68	51.32	-32.2	-32.7	27.7	0.00e+00	0	33	0	2558525440	36	6197
2026-01-04 17:40:22.69	264.57	50.48	-31.2	-31.7	28.3	0.00e+00	0	33	0	2581594112	36	5552
2026-01-04 17:40:26.73	262.58	49.61	-30.6	-31.2	27.9	0.00e+00	0	33	0	2604662784	34	5833
2026-01-04 17:40:30.77	260.69	48.72	-30.9	-31.4	27.8	0.00e+00	0	33	0	2626682880	34	6004
2026-01-04 17:40:34.81	258.91	47.82	-30.2	-30.8	28.7	0.00e+00	0	33	0	2649751552	34	5629
2026-01-04 17:40:38.85	257.24	46.91	-29.9	-30.5	28.4	0.00e+00	0	33	0	2672820224	34	5420
2026-01-04 17:40:42.88	255.66	46.00	-30.0	-30.6	28.2	0.00e+00	0	33	0	2695888896	34	5499
2026-01-04 17:40:46.92	254.17	45.08	-30.0	-30.7	28.6	0.00e+00	0	33	0	2717908992	32	6205
2026-01-04 17:40:50.96	252.76	44.16	-31.4	-31.9	28.0	0.00e+00	0	33	0	2740977664	34	6390
2026-01-04 17:40:55.00	251.44	43.24	-29.7	-30.2	28.4	0.00e+00	0	33	0	2762997760	32	5870
2026-01-04 17:40:59.04	250.18	42.34	-29.7	-30.3	28.5	0.00e+00	0	33	0	2786066432	32	5950
2026-01-04 17:41:03.08	249.00	41.43	-29.9	-30.4	28.5	0.00e+00	0	33	0	2809135104	32	6027
2026-01-04 17:41:07.11	247.88	40.54	-29.5	-30.2	28.5	0.00e+00	0	33	0	2831155200	32	5838
2026-01-04 17:41:11.15	246.82	39.66	-29.2	-29.7	28.8	0.00e+00	0	33	0	2854223872	32	5558
2026-01-04 17:41:15.20	245.82	38.79	-30.0	-30.7	28.1	0.00e+00	0	33	0	2877292544	32	6226
2026-01-04 17:41:19.23	244.87	37.93	-30.2	-30.8	28.3	0.00e+00	0	33	0	2900361216	32	6302
2026-01-04 17:41:23.27	243.97	37.08	-30.6	-31.3	28.2	0.00e+00	0	33	0	2922381312	34	5920
2026-01-04 17:41:27.30	243.11	36.25	-30.0	-30.6	28.3	0.00e+00	0	33	0	2945449984	32	6132
2026-01-04 17:41:31.34	242.30	35.43	-29.8	-30.5	28.5	0.00e+00	0	33	0	2967470080	32	6039
2026-01-04 17:41:35.38	241.53	34.63	-29.8	-30.3	28.3	0.00e+00	0	33	0	2990538752	32	5941
2026-01-04 17:41:39.42	240.79	33.84	-29.8	-30.3	28.4	0.00e+00	0	33	0	3013607424	32	5949
2026-01-04 17:41:43.46	240.09	33.06	-29.9	-30.6	28.5	0.00e+00	0	33	0	3035627520	32	6115
2026-01-04 17:41:47.50	239.42	32.30	-30.3	-30.8	28.3	0.00e+00	0	33	0	3058696192	32	6282
2026-01-04 17:41:51.53	238.78	31.56	-30.3	-30.8	28.2	0.00e+00	0	33	0	3081764864	32	6293
2026-01-04 17:41:55.56	238.18	30.83	-30.2	-30.7	28.2	0.00e+00	0	33	0	3103784960	32	6196
2026-01-04 17:41:59.59	237.60	30.11	-30.6	-31.3	28.2	0.00e+00	0	33	0	3126853632	34	5930
2026-01-04 17:42:03.63	237.04	29.41	-31.2	-31.7	28.1	0.00e+00	0	33	0	3149922304	34	6219
2026-01-04 17:42:07.67	236.51	28.72	-30.3	-30.9	27.8	0.00e+00	0	33	0	3171942400	34	5654
2026-01-04 17:42:11.71	236.00	28.05	-30.2	-30.7	28.0	0.00e+00	0	33	0	3195011072	34	5526
2026-01-04 17:42:15.75	235.51	27.39	-30.5	-31.0	27.7	0.00e+00	0	33	0	3218079744	34	5748
2026-01-04 17:42:19.79	235.04	26.74	-30.2	-30.7	27.8	0.00e+00	0	33	0	3240099840	34	5542
2026-01-04 17:42:23.82	234.59	26.10	-30.3	-30.8	27.8	0.00e+00	0	33	0	3263168512	34	5607
2026-01-04 17:42:27.86	234.16	25.48	-30.1	-30.7	27.9	0.00e+00	0	33	0	3286237184	34	5556
2026-01-04 17:42:31.90	233.75	24.87	-30.2	-30.7	27.8	0.00e+00	0	33	0	3308257280	34	5525
2026-01-04 17:42:35.94	233.35	24.28	-30.4	-31.1	27.7	0.00e+00	0	33	0	3331325952	34	5808
2026-01-04 17:42:39.98	232.97	23.69	-30.8	-31.4	27.4	0.00e+00	0	33	0	3354394624	34	5972
2026-01-04 17:42:44.02	232.60	23.12	-31.0	-31.7	27.5	0.00e+00	0	33	0	3376414720	34	6188
2026-01-04 17:42:48.06	232.24	22.55	-30.5	-31.1	27.5	0.00e+00	0	33	0	3399483392	34	5788
2026-01-04 17:42:52.10	231.90	22.00	-30.9	-31.6	27.2	0.00e+00	0	33	0	3422552064	34	6145
2026-01-04 17:42:56.13	231.57	21.46	-30.8	-31.3	27.3	0.00e+00	0	33	0	3444572160	34	5962
2026-01-04 17:43:00.17	231.25	20.93	-30.8	-31.5	27.6	0.00e+00	0	33	0	3467640832	34	6035
2026-01-04 17:43:04.21	230.94	20.41	-30.8	-31.4	27.4	0.00e+00	0	33	0	3490709504	34	5969
2026-01-04 17:43:08.25	230.65	19.90	-31.0	-31.5	27.3	0.00e+00	0	33	0	3512729600	34	6102
2026-01-04 17:43:12.28	230.36	19.40	-31.3	-31.8	26.9	0.00e+00	0	33	0	3535798272	34	6310
2026-01-04 17:43:16.32	230.08	18.91	-31.5	-32.1	26.7	0.00e+00	0	33	0	3557818368	36	5767
2026-01-04 17:43:20.36	229.81	18.43	-32.2	-32.7	26.4	0.00e+00	0	33	0	3580887040	36	6236
2026-01-04 17:43:24.40	229.55	17.95	-32.2	-32.8	26.4	0.00e+00	0	33	0	3603955712	36	6267
2026-01-04 17:43:28.44	229.30	17.48	-32.0	-32.8	26.4	0.00e+00	0	33	0	3627024384	36	6260
2026-01-04 17:43:32.48	229.06	17.03	-32.2	-32.7	26.7	0.00e+00	0	33	0	3649044480	36	6220
2026-01-04 17:43:36.52	228.82	16.58	-32.2	-32.7	26.5	0.00e+00	0	33	0	3672113152	36	6241
2026-01-04 17:43:40.56	228.59	16.13	-32.6	-33.2	26.0	0.00e+00	0	33	0	3695181824	38	5868
2026-01-04 17:43:44.60	228.37	15.70	-32.4	-33.0	25.9	0.00e+00	0	33	0	3717201920	38	5706
2026-01-04 17:43:48.63	228.16	15.27	-32.7	-33.3	25.9	0.00e+00	0	33	0	3740270592	38	5936
2026-01-04 17:43:52.67	227.95	14.85	-32.8	-33.4	25.8	0.00e+00	0	33	0	3762290688	38	5996
2026-01-04 17:43:56.71	227.75	14.44	-32.7	-33.4	25.8	0.00e+00	0	33	0	3785359360	38	5994
2026-01-04 17:44:00.75	227.55	14.03	-32.8	-33.3	25.6	0.00e+00	0	33	0	3808428032	38	5959
2026-01-04 17:44:04.79	227.36	13.63	-33.4	-34.2	25.3	0.00e+00	0	33	0	3831496704	40	5833
2026-01-04 17:44:08.82	227.17	13.23	-33.8	-34.5	24.6	0.00e+00	0	33	0	3853516800	40	6035
2026-01-04 17:44:12.87	226.99	12.84	-34.0	-34.6	24.7	0.00e+00	0	33	0	3876585472	40	6139
2026-01-04 17:44:16.91	226.82	12.46	-34.3	-35.0	24.3	0.00e+00	0	33	0	3899654144	40	6398
2026-01-04 17:44:20.95	226.64	12.08	-34.9	-35.7	24.0	0.00e+00	0	33	0	3921674240	42	6237
2026-01-04 17:44:24.99	226.48	11.71	-34.6	-35.2	24.0	0.00e+00	0	33	0	3944742912	42	5885
2026-01-04 17:44:29.03	226.32	11.34	-34.8	-35.6	23.9	0.00e+00	0	33	0	3967811584	42	6112
2026-01-04 17:44:33.06	226.16	10.98	-34.9	-35.5	23.9	0.00e+00	0	33	0	3989831680	42	6094
2026-01-04 17:44:37.10	226.01	10.62	-35.0	-35.7	23.8	0.00e+00	0	33	0	4012900352	42	6192
2026-01-04 17:44:41.14	225.86	10.27	-35.1	-35.9	23.7	0.00e+00	0	33	0	4035969024	42	6338
2026-01-04 17:44:45.18	225.71	9.93	-35.4	-36.2	23.4	0.00e+00	0	33	0	4057989120	42	6615
2026-01-04 17:44:49.21	225.57	9.58	-35.4	-36.1	23.4	0.00e+00	0	33	0	4081057792	42	6475
2026-01-04 17:44:53.25	225.43	9.25	-35.5	-36.3	23.2	0.00e+00	0	33	0	4104126464	42	6641
2026-01-04 17:44:57.29	225.29	8.91	-35.9	-36.7	22.5	0.00e+00	0	33	0	4126146560	44	6198
2026-01-04 17:45:01.32	225.16	8.58	-35.8	-36.5	22.6	0.00e+00	0	33	0	4149215232	44	6092
2026-01-04 17:45:05.37	225.03	8.26	-36.1	-37.0	22.3	0.00e+00	0	33	0	4171235328	44	6393
2026-01-04 17:45:09.41	224.91	7.94	-36.1	-37.0	22.0	0.00e+00	0	33	0	4194304000	44	6441
2026-01-04 17:45:13.44	224.79	7.62	-36.5	-37.5	21.4	0.00e+00	0	33	0	4217372672	44	6770
2026-01-04 17:45:17.48	224.67	7.31	-36.5	-37.4	21.8	0.00e+00	0	33	0	4240441344	46	6018
2026-01-04 17:45:21.52	224.55	7.00	-36.8	-37.7	21.3	0.00e+00	0	33	0	4262461440	46	6245
2026-01-04 17:45:25.55	224.44	6.69	-37.0	-38.0	20.8	0.00e+00	0	33	0	4285530112	46	6405
2026-01-04 17:45:29.59	224.32	6.39	-37.2	-38.2	20.4	0.00e+00	0	33	0	4308598784	46	6576
2026-01-04 17:45:33.63	224.22	6.09	-37.3	-38.3	20.5	0.00e+00	0	33	0	4330618880	48	5921
2026-01-04 17:45:37.67	224.11	5.79	-37.4	-38.3	20.0	0.00e+00	0	33	0	4353687552	48	5915
2026-01-04 17:45:41.71	224.00	5.50	-37.5	-38.4	19.8	0.00e+00	0	33	0	4375707648	48	6003
2026-01-04 17:45:45.74	223.90	5.21	-37.5	-38.4	19.8	0.00e+00	0	33	0	4398776320	48	6003
2026-01-04 17:45:49.78	223.80	4.93	-37.7	-38.8	19.3	0.00e+00	0	33	0	4421844992	48	6306
2026-01-04 17:45:53.82	223.71	4.64	-37.8	-38.7	19.0	0.00e+00	0	33	0	4443865088	48	6224
2026-01-04 17:45:57.86	223.61	4.36	-38.1	-39.2	18.4	0.00e+00	0	33	0	4466933760	50	5894
2026-01-04 17:46:01.90	223.52	4.08	-38.4	-39.5	18.1	0.00e+00	0	33	0	4490002432	50	6052
2026-01-04 17:46:05.93	223.43	3.81	-38.7	-39.8	17.7	0.00e+00	0	33	0	4513071104	50	6264
2026-01-04 17:46:09.97	223.34	3.54	-39.1	-40.4	16.9	0.00e+00	0	33	0	4535091200	50	6696
2026-01-04 17:46:14.01	223.25	3.27	-39.1	-40.4	16.5	0.00e+00	0	33	0	4558159872	50	6754
2026-01-04 17:46:18.04	223.16	3.00	-38.9	-40.1	16.1	0.00e+00	0	33	0	4580179968	50	6480
2026-01-04 17:46:22.09	223.08	2.73	-49.0	-61.0	3.6	8.44e-01	0	33	104	4582277120	60	40777
2026-01-04 17:46:26.13	223.00	2.47	-49.1	-61.3	3.6	8.45e-01	0	33	104	4582277120	60	41966
2026-01-04 17:46:30.17	222.92	2.21	-49.0	-61.1	3.6	8.45e-01	0	33	104	4582277120	60	41099
2026-01-04 17:46:34.20	222.84	1.95	-49.2	-61.3	3.6	8.46e-01	0	32	104	4582277120	60	41966
2026-01-04 17:46:38.24	222.76	1.70	-49.9	-62.0	3.6	8.46e-01	0	33	104	4582277120	60	45391
2026-01-04 17:46:42.28	222.68	1.44	-49.6	-61.7	3.5	8.45e-01	0	33	104	4582277120	60	43801
2026-01-04 17:46:46.32	222.61	1.19	-49.5	-61.6	3.6	8.46e-01	0	33	104	4582277120	60	43246
2026-01-04 17:46:50.35	222.54	0.94	-49.7	-61.8	3.6	8.45e-01	0	33	104	4582277120	60	44661
2026-01-04 17:46:54.39	222.46	0.70	-50.0	-62.1	3.6	8.45e-01	0	33	104	4582277120	60	46147
2026-01-04 17:46:58.43	222.39	0.45	-50.1	-62.2	3.6	8.45e-01	0	33	104	4582277120	60	46782
2026-01-04 17:47:02.47	222.32	0.21	-50.2	-62.3	3.6	8.46e-01	0	33	104	4582277120	60	47265
2026-01-04 17:47:06.50	222.26	-0.03	-49.6	-61.7	3.6	8.44e-01	0	33	104	4582277120	60	43829

#Closed at: 2026-01-04 17:47:08
#Recorded file [4582 MB]: D:/lorett/data/35029_260105_053149.dat