passes_logs/2026/01/04/R4.6S_Anadyr/R4.6S_Anadyr__20260104_045740_AQUA_rec.log

#Pass ID: 20260104_045740_AQUA
#Satellite: AQUA
#Configuration: AQUA
#almurnet v.1.7.20251203
#Start time: 2026-01-04 04:57:41

#Version: 2.2.20231116
#Station: R4.6S_Anadyr
#Location: 177.4865 lon 64.73178 lat
#TLE: 1 27424U 02022A   25365.92641127  .00002078  00000+0  42628-3 0  9999
#TLE: 2 27424  98.4058 327.1196 0001962  94.7781 340.6230 14.61783896258835

#Time	Az	El	Level	Level2	SNR	BER	BlckErr	Temp	State	Recorded	gain1	gain2
2026-01-04 04:57:41.67	243.16	0.06	-51.4	-62.1	3.5	8.45e-01	0	37	0	0	60	46228
2026-01-04 04:57:44.69	243.49	0.18	-52.7	-70.9	3.5	3.04e+01	0	38	104	0	60	135277
2026-01-04 04:57:47.72	243.82	0.30	-53.2	-71.2	3.5	3.04e+01	0	38	104	0	60	140143
2026-01-04 04:57:50.75	244.15	0.43	-53.1	-71.0	3.5	3.04e+01	0	38	104	0	60	136045
2026-01-04 04:57:53.78	244.49	0.55	-51.7	-69.6	3.5	3.04e+01	0	39	104	0	60	116352
2026-01-04 04:57:56.81	244.83	0.67	-51.5	-69.4	3.5	3.04e+01	0	38	104	0	60	113100
2026-01-04 04:57:59.83	245.17	0.79	-50.0	-67.8	3.5	3.04e+01	0	38	104	0	60	94845
2026-01-04 04:58:02.86	245.52	0.92	-49.1	-66.9	3.5	3.04e+01	0	39	104	0	60	85520
2026-01-04 04:58:05.89	245.87	1.04	-49.0	-66.9	3.5	3.04e+01	0	39	104	0	60	84893
2026-01-04 04:58:08.92	246.22	1.16	-49.1	-66.9	3.5	3.04e+01	0	39	104	0	60	84796
2026-01-04 04:58:11.94	246.57	1.28	-49.4	-67.2	3.5	3.04e+01	0	39	104	0	60	88537
2026-01-04 04:58:14.98	246.93	1.40	-49.2	-67.0	3.5	3.04e+01	0	39	104	0	60	86317
2026-01-04 04:58:18.00	247.29	1.52	-49.1	-66.9	3.5	3.04e+01	0	39	104	0	60	84683
2026-01-04 04:58:21.04	247.65	1.64	-49.0	-66.9	3.5	3.04e+01	0	39	104	0	60	84825
2026-01-04 04:58:24.06	248.02	1.76	-49.1	-66.9	3.5	3.04e+01	0	39	104	0	60	85395
2026-01-04 04:58:27.08	248.39	1.88	-49.0	-66.8	3.5	3.04e+01	0	39	104	0	60	84453
2026-01-04 04:58:30.11	248.76	2.00	-49.1	-66.8	3.5	3.04e+01	0	39	104	0	60	84605
2026-01-04 04:58:33.14	249.14	2.12	-49.0	-66.7	3.5	3.04e+01	0	39	104	0	60	83149
2026-01-04 04:58:36.17	249.52	2.24	-49.0	-66.8	3.5	3.04e+01	0	39	104	0	60	83717
2026-01-04 04:58:39.20	249.90	2.36	-49.1	-66.9	3.5	3.04e+01	0	39	104	0	60	85239
2026-01-04 04:58:42.23	250.28	2.48	-49.0	-66.7	3.5	3.04e+01	0	39	104	0	60	82935
2026-01-04 04:58:45.25	250.67	2.59	-49.0	-66.6	3.5	3.04e+01	0	39	104	0	60	82460
2026-01-04 04:58:48.28	251.06	2.71	-49.0	-65.5	3.5	3.04e+01	0	39	104	0	60	72249
2026-01-04 04:58:51.31	251.46	2.83	-49.0	-65.9	3.7	3.04e+01	0	39	104	0	60	75505
2026-01-04 04:58:54.34	251.86	2.94	-46.2	-50.3	15.6	3.04e+01	0	39	0	3145728	60	12571
2026-01-04 04:58:57.37	252.26	3.06	-46.6	-50.9	15.4	3.04e+01	0	39	0	8912896	60	13490
2026-01-04 04:59:00.40	252.67	3.17	-41.8	-43.6	23.4	3.04e+01	0	39	0	12058624	60	5839
2026-01-04 04:59:03.43	253.08	3.29	-40.7	-42.3	24.1	3.04e+01	0	39	0	17825792	56	6330
2026-01-04 04:59:06.45	253.49	3.40	-40.4	-41.9	24.5	3.04e+01	0	39	0	23068672	56	6064
2026-01-04 04:59:09.48	253.90	3.52	-40.9	-42.5	24.4	3.04e+01	0	39	0	28835840	56	6484
2026-01-04 04:59:12.50	254.32	3.63	-40.8	-42.5	24.3	3.04e+01	0	39	0	34603008	56	6433
2026-01-04 04:59:15.53	254.74	3.74	-40.3	-41.9	24.9	3.04e+01	0	39	0	40370176	56	6010
2026-01-04 04:59:18.55	255.17	3.85	-40.1	-41.7	25.1	3.04e+01	0	39	0	46137344	56	5872
2026-01-04 04:59:21.57	255.60	3.96	-40.2	-41.8	24.9	3.04e+01	0	39	0	51380224	56	5945
2026-01-04 04:59:24.60	256.03	4.07	-39.9	-41.4	25.2	3.04e+01	0	39	0	57147392	54	6393
2026-01-04 04:59:27.63	256.46	4.18	-40.0	-41.5	25.0	3.04e+01	0	39	0	62914560	54	6454
2026-01-04 04:59:30.66	256.90	4.29	-40.0	-41.6	25.0	3.04e+01	0	39	0	68681728	54	6505
2026-01-04 04:59:33.68	257.35	4.39	-39.9	-41.3	25.3	3.04e+01	0	39	0	74448896	54	6335
2026-01-04 04:59:36.71	257.79	4.50	-39.8	-41.3	25.3	3.04e+01	0	39	0	80216064	54	6321
2026-01-04 04:59:39.74	258.24	4.61	-39.8	-41.3	25.4	3.04e+01	0	39	0	85983232	54	6319
2026-01-04 04:59:42.77	258.69	4.71	-40.4	-42.0	24.8	3.04e+01	0	39	0	91226112	54	6866
2026-01-04 04:59:45.80	259.15	4.81	-39.6	-41.1	25.6	3.04e+01	0	39	0	96993280	54	6190
2026-01-04 04:59:48.82	259.61	4.92	-39.5	-41.0	25.7	3.04e+01	0	39	0	102760448	54	6096
2026-01-04 04:59:51.85	260.07	5.02	-39.6	-41.1	25.6	3.04e+01	0	39	0	108527616	54	6138
2026-01-04 04:59:54.88	260.54	5.12	-39.4	-40.8	25.7	3.04e+01	0	39	0	114294784	54	5976
2026-01-04 04:59:57.90	261.01	5.22	-39.3	-40.8	25.8	3.04e+01	0	39	0	119537664	54	5957
2026-01-04 05:00:00.92	261.48	5.32	-39.4	-40.9	25.7	3.04e+01	0	39	0	125304832	54	6035
2026-01-04 05:00:03.95	261.96	5.41	-39.3	-40.7	25.9	3.04e+01	0	39	0	131072000	54	5880
2026-01-04 05:00:06.98	262.44	5.51	-39.4	-40.9	25.9	3.04e+01	0	39	0	136839168	54	6003
2026-01-04 05:00:10.01	262.92	5.60	-39.2	-40.7	26.0	3.04e+01	0	39	0	142606336	54	5867
2026-01-04 05:00:13.04	263.41	5.70	-39.2	-40.7	26.0	3.04e+01	0	39	0	148373504	54	5874
2026-01-04 05:00:16.07	263.90	5.79	-39.4	-40.9	25.8	3.04e+01	0	39	0	153616384	54	6034
2026-01-04 05:00:19.10	264.39	5.88	-39.2	-40.6	26.2	3.04e+01	0	39	0	159383552	54	5817
2026-01-04 05:00:22.12	264.88	5.97	-40.4	-41.8	25.8	3.04e+01	0	39	0	165150720	56	5959
2026-01-04 05:00:25.15	265.38	6.06	-39.2	-40.6	26.2	3.04e+01	0	39	0	170917888	54	5835
2026-01-04 05:00:28.18	265.89	6.15	-39.1	-40.5	26.2	3.04e+01	0	39	0	176685056	54	5787
2026-01-04 05:00:31.21	266.39	6.23	-39.1	-40.5	26.6	3.04e+01	0	39	0	182452224	54	5749
2026-01-04 05:00:34.24	266.90	6.32	-39.2	-40.6	26.4	3.04e+01	0	39	0	187695104	54	5809
2026-01-04 05:00:37.26	267.41	6.40	-39.3	-40.7	26.2	3.04e+01	0	39	0	193462272	54	5880
2026-01-04 05:00:40.29	267.93	6.48	-39.4	-40.8	26.3	3.04e+01	0	39	0	199229440	52	6670
2026-01-04 05:00:43.32	268.45	6.56	-39.6	-41.0	26.1	3.04e+01	0	39	0	204996608	54	6134
2026-01-04 05:00:46.35	268.97	6.64	-39.4	-40.8	26.2	3.04e+01	0	39	0	210763776	54	5944
2026-01-04 05:00:49.38	269.49	6.71	-39.3	-40.7	26.2	3.04e+01	0	39	0	216530944	52	6586
2026-01-04 05:00:52.40	270.02	6.79	-39.2	-40.6	26.5	3.04e+01	0	39	0	221773824	52	6570
2026-01-04 05:00:55.43	270.55	6.86	-39.0	-40.4	26.6	3.04e+01	0	39	0	227540992	52	6388
2026-01-04 05:00:58.46	271.08	6.93	-38.9	-40.2	26.8	3.04e+01	0	39	0	233308160	52	6276
2026-01-04 05:01:01.49	271.61	7.00	-39.0	-40.4	26.2	3.04e+01	0	39	0	239075328	52	6356
2026-01-04 05:01:04.52	272.15	7.07	-39.1	-40.5	26.4	3.04e+01	0	39	0	244842496	52	6459
2026-01-04 05:01:07.55	272.69	7.13	-39.1	-40.5	26.6	3.04e+01	0	39	0	250609664	52	6455
2026-01-04 05:01:10.57	273.23	7.20	-38.7	-40.0	26.9	3.04e+01	0	39	0	255852544	52	6099
2026-01-04 05:01:13.60	273.78	7.26	-38.6	-40.0	26.9	3.04e+01	0	39	0	261619712	52	6092
2026-01-04 05:01:16.63	274.32	7.32	-38.7	-40.1	27.0	3.04e+01	0	39	0	267386880	52	6156
2026-01-04 05:01:19.66	274.87	7.38	-38.7	-40.1	27.0	3.04e+01	0	39	0	273154048	52	6141
2026-01-04 05:01:22.69	275.43	7.43	-38.6	-40.0	27.0	3.04e+01	0	39	0	278921216	52	6081
2026-01-04 05:01:25.72	275.98	7.49	-38.7	-40.1	27.0	3.04e+01	0	39	0	284164096	52	6152
2026-01-04 05:01:28.75	276.54	7.54	-38.6	-39.9	27.0	3.04e+01	0	39	0	289931264	52	6048
2026-01-04 05:01:31.78	277.09	7.59	-38.7	-40.0	27.1	3.04e+01	0	39	0	295698432	52	6123
2026-01-04 05:01:34.81	277.66	7.64	-39.5	-40.9	26.6	3.04e+01	0	39	0	301465600	52	6730
2026-01-04 05:01:37.83	278.22	7.68	-38.8	-40.1	27.1	3.04e+01	0	39	0	307232768	52	6178
2026-01-04 05:01:40.86	278.78	7.73	-38.9	-40.3	27.1	3.04e+01	0	39	0	312999936	52	6281
2026-01-04 05:01:43.89	279.35	7.77	-38.7	-40.0	27.2	3.04e+01	0	39	0	318767104	52	6128
2026-01-04 05:01:46.91	279.91	7.81	-38.8	-40.1	27.1	3.04e+01	0	39	0	324009984	52	6182
2026-01-04 05:01:49.94	280.48	7.84	-38.5	-39.8	27.3	3.04e+01	0	39	0	329777152	52	5972
2026-01-04 05:01:52.97	281.05	7.88	-38.7	-40.0	27.1	3.04e+01	0	39	0	335544320	52	6118
2026-01-04 05:01:56.00	281.62	7.91	-38.5	-39.9	27.3	3.04e+01	0	39	0	341311488	52	6012
2026-01-04 05:01:59.03	282.19	7.94	-38.5	-39.9	27.2	3.04e+01	0	39	0	347078656	52	6019
2026-01-04 05:02:02.05	282.77	7.97	-38.2	-39.5	27.4	3.04e+01	0	39	0	352321536	52	5778
2026-01-04 05:02:05.08	283.34	8.00	-38.5	-39.8	27.2	3.04e+01	0	39	0	358088704	52	5949
2026-01-04 05:02:08.11	283.92	8.02	-38.3	-39.6	27.3	3.04e+01	0	39	0	363855872	52	5805
2026-01-04 05:02:11.13	284.49	8.04	-38.6	-39.9	27.1	3.04e+01	0	39	0	369623040	52	6053
2026-01-04 05:02:14.16	285.07	8.06	-38.4	-39.7	27.1	3.04e+01	0	39	0	375390208	52	5897
2026-01-04 05:02:17.19	285.65	8.07	-38.3	-39.6	27.4	3.04e+01	0	39	0	381157376	52	5809
2026-01-04 05:02:20.22	286.23	8.09	-38.3	-39.6	27.5	3.04e+01	0	40	0	386400256	52	5823
2026-01-04 05:02:23.25	286.81	8.10	-38.4	-39.7	27.5	3.04e+01	0	39	0	392167424	52	5901
2026-01-04 05:02:26.27	287.39	8.11	-38.8	-40.1	27.3	3.04e+01	0	39	0	397934592	52	6165
2026-01-04 05:02:29.30	287.97	8.12	-38.8	-40.1	27.5	3.04e+01	0	40	0	403701760	52	6146
2026-01-04 05:02:32.33	288.55	8.12	-38.5	-39.8	27.6	3.04e+01	0	40	0	409468928	52	5956
2026-01-04 05:02:35.36	289.13	8.12	-39.2	-40.5	27.1	3.04e+01	0	40	0	415236096	52	6463
2026-01-04 05:02:38.38	289.71	8.12	-38.6	-40.0	27.5	3.04e+01	0	39	0	420478976	52	6080
2026-01-04 05:02:41.41	290.29	8.12	-38.4	-39.7	27.5	3.04e+01	0	40	0	426246144	52	5926
2026-01-04 05:02:44.43	290.86	8.11	-38.6	-39.9	27.3	3.04e+01	0	39	0	432013312	52	6020
2026-01-04 05:02:47.46	291.44	8.11	-39.1	-40.5	27.0	3.04e+01	0	40	0	437780480	52	6434
2026-01-04 05:02:50.49	292.02	8.10	-39.1	-40.5	26.6	3.04e+01	0	40	0	443547648	52	6471
2026-01-04 05:02:53.52	292.60	8.08	-38.4	-39.7	27.3	3.04e+01	0	39	0	448790528	52	5901
2026-01-04 05:02:56.54	293.18	8.07	-38.4	-39.7	27.4	3.04e+01	0	40	0	454557696	52	5893
2026-01-04 05:02:59.57	293.76	8.05	-38.4	-39.7	27.3	3.04e+01	0	40	0	460324864	52	5900
2026-01-04 05:03:02.60	294.33	8.03	-38.7	-40.0	27.3	3.04e+01	0	40	0	466092032	52	6112
2026-01-04 05:03:05.62	294.91	8.01	-38.5	-39.8	27.4	3.04e+01	0	40	0	471859200	52	5960
2026-01-04 05:03:08.65	295.48	7.99	-38.6	-39.9	27.4	3.04e+01	0	40	0	477626368	52	6056
2026-01-04 05:03:11.68	296.06	7.96	-38.6	-39.9	27.5	3.04e+01	0	40	0	483393536	52	6011
2026-01-04 05:03:14.71	296.63	7.93	-38.4	-39.7	27.3	3.04e+01	0	40	0	488636416	52	5913
2026-01-04 05:03:17.74	297.20	7.90	-38.6	-39.9	27.2	3.04e+01	0	40	0	494403584	52	6011
2026-01-04 05:03:20.77	297.77	7.87	-38.8	-40.1	27.2	3.04e+01	0	40	0	500170752	52	6155
2026-01-04 05:03:23.80	298.34	7.83	-38.6	-39.9	27.5	3.04e+01	0	40	0	505937920	52	6004
2026-01-04 05:03:26.83	298.91	7.80	-39.0	-40.4	27.2	3.04e+01	0	40	0	511705088	52	6388
2026-01-04 05:03:29.86	299.47	7.76	-38.8	-40.1	27.2	3.04e+01	0	39	0	516947968	52	6187
2026-01-04 05:03:32.89	300.04	7.71	-38.9	-40.2	27.1	3.04e+01	0	40	0	522715136	52	6256
2026-01-04 05:03:35.91	300.60	7.67	-38.9	-40.3	27.3	3.04e+01	0	40	0	528482304	52	6292
2026-01-04 05:03:38.94	301.16	7.62	-38.6	-40.0	27.4	3.04e+01	0	40	0	534249472	52	6070
2026-01-04 05:03:41.97	301.72	7.58	-38.9	-40.3	27.3	3.04e+01	0	40	0	540016640	52	6284
2026-01-04 05:03:45.01	302.28	7.53	-38.4	-39.8	27.4	3.04e+01	0	40	0	545783808	52	5931
2026-01-04 05:03:48.04	302.83	7.47	-39.0	-40.4	27.0	3.04e+01	0	40	0	551550976	52	6390
2026-01-04 05:03:51.06	303.38	7.42	-38.8	-40.1	27.2	3.04e+01	0	40	0	556793856	52	6166
2026-01-04 05:03:54.10	303.93	7.36	-39.7	-41.1	27.0	3.04e+01	0	40	0	562561024	52	6916
2026-01-04 05:03:57.13	304.48	7.30	-38.6	-39.9	27.3	3.04e+01	0	40	0	568328192	52	6031
2026-01-04 05:04:00.16	305.02	7.24	-39.1	-40.5	27.2	3.04e+01	0	40	0	574095360	54	5733
2026-01-04 05:04:03.18	305.56	7.18	-38.7	-40.1	27.1	3.04e+01	0	40	0	579862528	52	6144
2026-01-04 05:04:06.21	306.11	7.12	-39.0	-40.3	27.2	3.04e+01	0	40	0	585105408	52	6339
2026-01-04 05:04:09.24	306.64	7.05	-39.1	-40.5	27.1	3.04e+01	0	40	0	590872576	52	6490
2026-01-04 05:04:12.27	307.18	6.98	-38.9	-40.3	27.1	3.04e+01	0	40	0	596639744	52	6325
2026-01-04 05:04:15.30	307.71	6.91	-39.1	-40.5	26.9	3.04e+01	0	40	0	602406912	52	6476
2026-01-04 05:04:18.33	308.24	6.84	-39.0	-40.4	26.9	3.04e+01	0	40	0	608174080	52	6399
2026-01-04 05:04:21.36	308.77	6.77	-39.0	-40.4	27.1	3.04e+01	0	40	0	613941248	52	6383
2026-01-04 05:04:24.39	309.29	6.70	-38.8	-40.2	27.0	3.04e+01	0	40	0	619708416	52	6234
2026-01-04 05:04:27.42	309.81	6.62	-38.9	-40.3	27.0	3.04e+01	0	40	0	624951296	52	6312
2026-01-04 05:04:30.44	310.33	6.54	-38.8	-40.3	27.0	3.04e+01	0	40	0	630718464	52	6282
2026-01-04 05:04:33.47	310.84	6.46	-38.9	-40.3	27.0	3.04e+01	0	40	0	636485632	52	6319
2026-01-04 05:04:36.50	311.36	6.38	-38.8	-40.2	26.8	3.04e+01	0	40	0	642252800	52	6249
2026-01-04 05:04:39.53	311.86	6.30	-38.9	-40.3	26.8	3.04e+01	0	40	0	648019968	52	6304
2026-01-04 05:04:42.56	312.37	6.21	-39.1	-40.5	26.7	3.04e+01	0	40	0	653262848	52	6438
2026-01-04 05:04:45.59	312.87	6.13	-39.4	-40.8	26.4	3.04e+01	0	40	0	659030016	52	6684
2026-01-04 05:04:48.61	313.37	6.04	-38.8	-40.2	26.7	3.04e+01	0	40	0	664797184	52	6250
2026-01-04 05:04:51.64	313.87	5.95	-38.9	-40.4	26.6	3.04e+01	0	40	0	670564352	52	6363
2026-01-04 05:04:54.67	314.36	5.87	-38.8	-40.2	26.8	3.04e+01	0	40	0	676331520	52	6229
2026-01-04 05:04:57.70	314.85	5.77	-39.2	-40.7	26.4	3.04e+01	0	40	0	682098688	52	6587
2026-01-04 05:05:00.73	315.34	5.68	-39.2	-40.6	26.4	3.04e+01	0	40	0	687341568	52	6562
2026-01-04 05:05:03.75	315.82	5.59	-39.2	-40.7	26.2	3.04e+01	0	40	0	693108736	52	6587
2026-01-04 05:05:06.78	316.30	5.49	-39.2	-40.6	26.4	3.04e+01	0	40	0	698875904	52	6564
2026-01-04 05:05:09.81	316.78	5.40	-40.2	-41.7	26.1	3.04e+01	0	40	0	704643072	54	6626
2026-01-04 05:05:12.84	317.25	5.30	-40.1	-41.6	25.9	3.04e+01	0	40	0	710410240	54	6528
2026-01-04 05:05:15.87	317.72	5.20	-39.8	-41.2	26.3	3.04e+01	0	40	0	716177408	54	6243
2026-01-04 05:05:18.89	318.19	5.11	-39.3	-40.7	26.3	3.04e+01	0	40	0	721420288	54	5898
2026-01-04 05:05:21.92	318.65	5.01	-40.2	-41.8	25.7	3.04e+01	0	40	0	727187456	54	6651
2026-01-04 05:05:24.94	319.11	4.90	-39.6	-41.0	26.0	3.04e+01	0	40	0	732954624	54	6103
2026-01-04 05:05:27.97	319.57	4.80	-39.3	-40.7	26.3	3.04e+01	0	40	0	738721792	54	5914
2026-01-04 05:05:31.00	320.02	4.70	-39.6	-41.1	26.1	3.04e+01	0	40	0	744488960	54	6168
2026-01-04 05:05:34.02	320.47	4.60	-39.5	-41.0	26.2	3.04e+01	0	40	0	749731840	54	6075
2026-01-04 05:05:37.05	320.92	4.49	-39.6	-41.0	26.2	3.04e+01	0	40	0	755499008	54	6108
2026-01-04 05:05:40.08	321.36	4.38	-40.2	-41.7	25.6	3.04e+01	0	40	0	761266176	54	6594
2026-01-04 05:05:43.11	321.80	4.28	-40.7	-42.3	25.4	3.04e+01	0	40	0	767033344	56	6280
2026-01-04 05:05:46.13	322.23	4.17	-40.5	-41.9	25.8	3.04e+01	0	40	0	772800512	56	6043
2026-01-04 05:05:49.16	322.67	4.06	-40.2	-41.7	26.0	3.04e+01	0	40	0	778567680	56	5874
2026-01-04 05:05:52.19	323.10	3.95	-40.7	-42.2	25.4	3.04e+01	0	40	0	784334848	56	6245
2026-01-04 05:05:55.21	323.52	3.84	-41.1	-42.6	25.6	3.04e+01	0	40	0	789577728	56	6569
2026-01-04 05:05:58.24	323.95	3.73	-41.3	-42.8	25.3	3.04e+01	0	40	0	795344896	56	6724
2026-01-04 05:06:01.27	324.37	3.62	-40.7	-42.2	25.4	3.04e+01	0	40	0	801112064	56	6238
2026-01-04 05:06:04.30	324.78	3.51	-41.2	-42.8	25.0	3.04e+01	0	40	0	806879232	56	6654
2026-01-04 05:06:07.33	325.19	3.40	-41.3	-51.6	3.6	3.04e+01	0	40	104	808452096	56	18371
2026-01-04 05:06:10.36	325.60	3.29	-41.3	-51.6	3.6	3.04e+01	0	40	104	808452096	56	18479
2026-01-04 05:06:13.38	326.01	3.17	-46.1	-57.8	3.5	3.04e+01	0	40	104	808452096	60	29857
2026-01-04 05:06:16.41	326.41	3.06	-43.6	-54.5	3.6	3.04e+01	0	40	104	808452096	60	20529
2026-01-04 05:06:19.44	326.81	2.94	-50.4	-68.5	3.5	3.04e+01	0	40	104	808452096	60	102874
2026-01-04 05:06:22.46	327.21	2.83	-50.3	-68.6	3.5	3.04e+01	0	40	104	808452096	60	104080
2026-01-04 05:06:25.49	327.60	2.71	-50.3	-68.5	3.5	3.04e+01	0	40	104	808452096	60	102142
2026-01-04 05:06:28.52	327.99	2.60	-51.1	-69.2	3.5	3.04e+01	0	40	104	808452096	60	110618
2026-01-04 05:06:31.55	328.38	2.48	-51.1	-69.0	3.5	3.04e+01	0	40	104	808452096	60	108327
2026-01-04 05:06:34.58	328.76	2.37	-51.3	-69.0	3.5	3.04e+01	0	40	104	808452096	60	109073
2026-01-04 05:06:37.60	329.14	2.25	-51.3	-69.1	3.5	3.04e+01	0	40	104	808452096	60	110075
2026-01-04 05:06:40.64	329.52	2.13	-51.6	-69.4	3.5	3.04e+01	0	40	104	808452096	60	113982
2026-01-04 05:06:43.67	329.89	2.01	-52.0	-69.9	3.5	3.04e+01	0	40	104	808452096	60	119680
2026-01-04 05:06:46.70	330.26	1.89	-51.4	-69.2	3.5	3.04e+01	0	40	104	808452096	60	111439
2026-01-04 05:06:49.73	330.63	1.77	-51.9	-69.7	3.5	3.04e+01	0	40	104	808452096	60	117840
2026-01-04 05:06:52.76	331.00	1.66	-51.5	-69.3	3.5	3.04e+01	0	40	104	808452096	60	112808
2026-01-04 05:06:55.79	331.36	1.54	-51.7	-69.5	3.5	3.04e+01	0	40	104	808452096	60	114886
2026-01-04 05:06:58.82	331.72	1.42	-51.9	-69.7	3.5	3.04e+01	0	40	104	808452096	60	117979
2026-01-04 05:07:01.85	332.07	1.30	-52.4	-70.3	3.5	3.04e+01	0	40	104	808452096	60	125605
2026-01-04 05:07:04.88	332.42	1.18	-51.6	-69.4	3.5	3.04e+01	0	40	104	808452096	60	113858
2026-01-04 05:07:07.91	332.77	1.06	-52.0	-69.8	3.5	3.04e+01	0	40	104	808452096	60	119187
2026-01-04 05:07:10.94	333.12	0.94	-51.7	-69.5	3.5	3.04e+01	0	40	104	808452096	60	115019
2026-01-04 05:07:13.97	333.46	0.81	-51.2	-69.1	3.5	3.04e+01	0	40	104	808452096	60	109590
2026-01-04 05:07:16.99	333.80	0.69	-52.6	-70.5	3.5	3.04e+01	0	40	104	808452096	60	128809
2026-01-04 05:07:20.02	334.14	0.57	-51.6	-69.5	3.5	3.04e+01	0	40	104	808452096	60	114334
2026-01-04 05:07:23.05	334.48	0.45	-52.1	-69.9	3.5	3.04e+01	0	40	104	808452096	60	120223
2026-01-04 05:07:26.08	334.81	0.33	-51.8	-69.7	3.5	3.04e+01	0	40	104	808452096	60	117293
2026-01-04 05:07:29.11	335.14	0.21	-50.9	-68.7	3.5	3.04e+01	0	40	104	808452096	60	105181
2026-01-04 05:07:32.14	335.46	0.09	-51.0	-68.9	3.5	3.04e+01	0	40	104	808452096	60	107283
2026-01-04 05:07:35.17	335.79	-0.04	-51.4	-69.2	3.5	3.04e+01	0	40	104	808452096	60	110400

#Closed at: 2026-01-04 05:07:35
#Recorded file [808 MB]: D:/lorett/data/35029_260104_165741.dat